LineNo,TimeUS,DesRoll,Roll,DesPitch,Pitch,DesYaw,Yaw,ErrRP,ErrYaw,AEKF
296,57959504,0,0.68,0,-0.18,19.08,19.07,0,0.01,3
526,58008930,0,0.67,0,-0.18,19.08,19.07,0,0,3
748,58053163,0,0.67,0,-0.18,19.07,19.06,0,0,3
1296,58278252,0,0.67,0,-0.18,19.07,19.06,0,0.01,3
1393,58293382,0,0.67,0,-0.18,19.06,19.06,0,0.01,3
1573,58327597,0,0.67,0,-0.18,19.06,19.05,0,0.01,3
1627,58337976,0,0.67,0,-0.18,19.06,19.05,0,0.01,3
1668,58347958,0,0.67,0,-0.18,19.06,19.05,0,0.01,3
1708,58358261,0,0.67,0,-0.18,19.06,19.05,0,0.01,3
1749,58368668,0,0.67,0,-0.18,19.06,19.05,0,0.01,3
1789,58381980,0,0.67,0,-0.18,19.05,19.05,0,0.01,3
1832,58392896,0,0.67,0,-0.18,19.05,19.04,0,0.01,3
1873,58403004,0,0.67,0,-0.18,19.05,19.04,0,0.01,3
1914,58413409,0,0.67,0,-0.18,19.04,19.04,0,0.01,3
1955,58423920,0,0.67,0,-0.18,19.04,19.03,0,0.01,3
1996,58434514,0,0.67,0,-0.18,19.04,19.03,0,0.01,3
2042,58444496,0,0.67,0,-0.18,19.04,19.03,0,0.01,3
2084,58454782,0,0.67,0,-0.18,19.03,19.02,0,0.01,3
2125,58464625,0,0.67,0,-0.18,19.03,19.02,0,0.01,3
2165,58474731,0,0.67,0,-0.18,19.03,19.02,0,0.01,3
2206,58484567,0,0.67,0,-0.18,19.02,19.01,0,0.01,3
2248,58495302,0,0.67,0,-0.18,19.02,19.01,0,0.01,3
2291,58505142,0,0.67,0,-0.18,19.02,19.01,0,0.01,3
2332,58514928,0,0.67,0,-0.19,19.01,19.01,0,0.01,3
2372,58525004,0,0.67,0,-0.19,19.01,19,0,0.01,3
2413,58535035,0,0.67,0,-0.19,19.01,19,0,0.01,3
2459,58545318,0,0.67,0,-0.19,19.01,19,0,0.01,3
2500,58555880,0,0.67,0,-0.19,19.01,19,0,0.01,3
2541,58566155,0,0.67,0,-0.19,19,19,0,0.01,3
2581,58575942,0,0.67,0,-0.19,19,18.99,0,0.01,3
2622,58586161,0,0.67,0,-0.19,19,18.99,0,0.01,3
2665,58597258,0,0.66,0,-0.19,19,18.99,0,0.01,3
2706,58607368,0,0.66,0,-0.19,19,18.99,0,0.01,3
2747,58617175,0,0.66,0,-0.19,19,18.99,0,0.01,3
2787,58627061,0,0.66,0,-0.19,19,18.99,0,0.01,3
2830,58637792,0,0.66,0,-0.19,19,18.99,0,0.01,3
2874,58647680,0,0.66,0,-0.19,19,18.99,0,0.01,3
2915,58658171,0,0.66,0,-0.19,19,18.99,0,0.01,3
2956,58668547,0,0.66,0,-0.19,19,18.99,0,0.01,3
2997,58679341,0,0.66,0,-0.19,18.99,18.99,0,0.01,3
3038,58689837,0,0.66,0,-0.19,18.99,18.99,0,0.01,3
3078,58699530,0,0.66,0,-0.19,18.99,18.99,0,0.01,3
3119,58712027,0,0.66,0,-0.19,19,18.99,0,0.01,3
3159,58722758,0,0.66,0,-0.19,19,18.99,0,0.01,3
3200,58733298,0,0.66,0,-0.19,19,18.99,0,0.01,3
3242,58743884,0,0.66,0,-0.19,19,18.99,0,0.01,3
3287,58753795,0,0.66,0,-0.19,19,18.99,0,0.01,3
3327,58764128,0,0.66,0,-0.19,19,18.99,0,0.01,3
3367,58774144,0,0.66,0,-0.19,19,18.99,0,0.01,3
3409,58784752,0,0.66,0,-0.19,19,18.99,0,0.01,3
3450,58795092,0,0.66,0,-0.19,19,18.99,0,0.01,3
3489,58805764,0,0.66,0,-0.19,19,18.99,0,0.01,3
3530,58816104,0,0.66,0,-0.19,19,18.99,0,0.01,3
3570,58826387,0,0.66,0,-0.19,19,18.99,0,0.01,3
3611,58836365,0,0.66,0,-0.19,19,18.99,0,0.01,3
3654,58846350,0,0.66,0,-0.19,19,18.99,0,0.01,3
3699,58856559,0,0.66,0,-0.19,19,18.99,0,0.01,3
3740,58866898,0,0.66,0,-0.19,18.99,18.99,0,0.01,3
3781,58877282,0,0.66,0,-0.19,19,18.99,0,0.01,3
3825,58889995,0,0.66,0,-0.19,18.99,18.99,0,0.01,3
3865,58900548,0,0.66,0,-0.19,18.99,18.99,0,0.01,3
3906,58911341,0,0.66,0,-0.19,18.99,18.98,0,0.01,3
3946,58921320,0,0.66,0,-0.19,18.99,18.98,0,0.01,3
3987,58931378,0,0.66,0,-0.19,18.99,18.98,0,0.01,3
4028,58941335,0,0.66,0,-0.19,18.99,18.98,0,0.01,3
4072,58951465,0,0.66,0,-0.19,18.98,18.98,0,0.01,3
4118,58961743,0,0.66,0,-0.19,18.98,18.97,0,0.01,3
4159,58971906,0,0.66,0,-0.19,18.98,18.97,0,0.01,3
4200,58981792,0,0.66,0,-0.19,18.98,18.97,0,0.01,3
4243,58991476,0,0.66,0,-0.19,18.98,18.97,0,0.01,3
4287,59004633,0,0.66,0,-0.19,18.97,18.97,0,0.01,3
4327,59015775,0,0.66,0,-0.19,18.97,18.96,0,0.01,3
4368,59025570,0,0.66,0,-0.19,18.97,18.96,0,0.01,3
4410,59035956,0,0.66,0,-0.19,18.97,18.96,0,0.01,3
4450,59045906,0,0.66,0,-0.19,18.96,18.96,0,0.01,3
4495,59056291,0,0.66,0,-0.19,18.96,18.95,0,0.01,3
4536,59065981,0,0.66,0,-0.19,18.96,18.95,0,0.01,3
4578,59075995,0,0.66,0,-0.19,18.96,18.95,0,0.01,3
4619,59086508,0,0.66,0,-0.19,18.95,18.95,0,0.01,3
4659,59099328,0,0.66,0,-0.2,18.95,18.94,0,0.01,3
4700,59110252,0,0.66,0,-0.2,18.95,18.94,0,0.01,3
4740,59120147,0,0.66,0,-0.2,18.94,18.94,0,0.01,3
4781,59130593,0,0.66,0,-0.2,18.94,18.93,0,0.01,3
4822,59140739,0,0.66,0,-0.2,18.94,18.93,0,0.01,3
4862,59150886,0,0.66,0,-0.2,18.94,18.93,0,0.01,3
4907,59161160,0,0.66,0,-0.2,18.93,18.93,0,0.01,3
4947,59171529,0,0.66,0,-0.2,18.93,18.92,0,0.01,3
4990,59181263,0,0.66,0,-0.2,18.93,18.92,0,0.01,3
5030,59191143,0,0.66,0,-0.19,18.93,18.92,0,0.01,3
5070,59201430,0,0.65,0,-0.19,18.93,18.92,0,0.01,3
5110,59211518,0,0.65,0,-0.19,18.93,18.92,0,0.01,3
5151,59221990,0,0.65,0,-0.19,18.93,18.92,0,0.01,3
5192,59231955,0,0.65,0,-0.19,18.92,18.92,0,0.01,3
5232,59242330,0,0.65,0,-0.19,18.92,18.91,0,0.01,3
5274,59252804,0,0.65,0,-0.19,18.92,18.91,0,0.01,3
5318,59262556,0,0.65,0,-0.2,18.92,18.91,0,0.01,3
5359,59273362,0,0.65,0,-0.2,18.92,18.91,0,0.01,3
5401,59283875,0,0.65,0,-0.2,18.91,18.91,0,0.01,3
5441,59294076,0,0.65,0,-0.2,18.91,18.9,0,0.01,3
5482,59304374,0,0.65,0,-0.2,18.91,18.9,0,0.01,3
5522,59314475,0,0.65,0,-0.2,18.91,18.9,0,0.01,3
5563,59324246,0,0.65,0,-0.2,18.91,18.9,0,0.01,3
5603,59334251,0,0.65,0,-0.2,18.9,18.9,0,0.01,3
5644,59344479,0,0.65,0,-0.2,18.9,18.9,0,0.01,3
5684,59354312,0,0.65,0,-0.2,18.9,18.9,0,0.01,3
5728,59364807,0,0.65,0,-0.2,18.9,18.89,0,0.01,3
5769,59374799,0,0.65,0,-0.2,18.9,18.89,0,0.01,3
5810,59384736,0,0.65,0,-0.2,18.9,18.89,0,0.01,3
5852,59394883,0,0.65,0,-0.2,18.9,18.89,0,0.01,3
5894,59407307,0,0.65,0,-0.2,18.9,18.89,0,0.01,3
5935,59417714,0,0.65,0,-0.2,18.9,18.89,0,0.01,3
5976,59427498,0,0.65,0,-0.2,18.9,18.89,0,0.01,3
6016,59437308,0,0.65,0,-0.2,18.89,18.89,0,0.01,3
6060,59447169,0,0.65,0,-0.2,18.89,18.88,0,0.01,3
6100,59457274,0,0.65,0,-0.2,18.89,18.88,0,0.01,3
6145,59467709,0,0.65,0,-0.2,18.89,18.88,0,0.01,3
6186,59478002,0,0.65,0,-0.2,18.89,18.88,0,0.01,3
6226,59488340,0,0.65,0,-0.2,18.89,18.88,0,0.01,3
6269,59503922,0,0.65,0,-0.2,18.88,18.88,0,0.01,3
6311,59514389,0,0.65,0,-0.2,18.88,18.87,0,0.01,3
6351,59524899,0,0.65,0,-0.2,18.88,18.87,0,0.01,3
6392,59534901,0,0.65,0,-0.2,18.88,18.87,0,0.01,3
6432,59544747,0,0.65,0,-0.2,18.88,18.87,0,0.01,3
6474,59555067,0,0.65,0,-0.2,18.88,18.87,0,0.01,3
6518,59565401,0,0.65,0,-0.2,18.88,18.87,0,0.01,3
6559,59575545,0,0.65,0,-0.2,18.88,18.87,0,0.01,3
6602,59585716,0,0.65,0,-0.2,18.88,18.87,0,0.01,3
6643,59595388,0,0.65,0,-0.2,18.87,18.87,0,0.01,3
6685,59605401,0,0.65,0,-0.2,18.87,18.87,0,0.01,3
6725,59617993,0,0.65,0,-0.2,18.87,18.87,0,0.01,3
6766,59628935,0,0.65,0,-0.2,18.87,18.86,0,0.01,3
6806,59638908,0,0.65,0,-0.2,18.87,18.86,0,0.01,3
6847,59649491,0,0.65,0,-0.2,18.87,18.86,0,0.01,3
6887,59659729,0,0.65,0,-0.2,18.87,18.86,0,0.01,3
6931,59669554,0,0.65,0,-0.2,18.87,18.86,0,0.01,3
6972,59680001,0,0.65,0,-0.2,18.87,18.86,0,0.01,3
7012,59690717,0,0.65,0,-0.2,18.86,18.86,0,0.01,3
7053,59700326,0,0.65,0,-0.2,18.86,18.86,0,0.01,3
7092,59710709,0,0.65,0,-0.2,18.86,18.85,0,0.01,3
7133,59720494,0,0.65,0,-0.2,18.86,18.85,0,0.01,3
7174,59730745,0,0.65,0,-0.2,18.86,18.85,0,0.01,3
7214,59740780,0,0.65,0,-0.2,18.86,18.85,0,0.01,3
7255,59750954,0,0.65,0,-0.2,18.86,18.85,0,0.01,3
7296,59760925,0,0.65,0,-0.2,18.85,18.85,0,0.01,3
7341,59770785,0,0.65,0,-0.2,18.85,18.84,0,0.01,3
7382,59781115,0,0.65,0,-0.2,18.85,18.84,0,0.01,3
7425,59791361,0,0.65,0,-0.2,18.85,18.84,0,0.01,3
7467,59801759,0,0.65,0,-0.2,18.84,18.84,0,0.01,3
7508,59811714,0,0.65,0,-0.2,18.84,18.83,0,0.01,3
7546,59821893,0,0.65,0,-0.2,18.84,18.83,0,0.01,3
7587,59831679,0,0.65,0,-0.2,18.84,18.83,0,0.01,3
7627,59842282,0,0.65,0,-0.2,18.84,18.83,0,0.01,3
7670,59852462,0,0.65,0,-0.2,18.83,18.83,0,0.01,3
7710,59862144,0,0.66,0,-0.2,18.83,18.83,0,0.01,3
7755,59872276,0,0.65,0,-0.2,18.83,18.82,0,0.01,3
7796,59882396,0,0.65,0,-0.2,18.83,18.82,0,0.01,3
7836,59892575,0,0.65,0,-0.2,18.83,18.82,0,0.01,3
7877,59902568,0,0.65,0,-0.2,18.83,18.82,0,0.01,3
7917,59912308,0,0.65,0,-0.2,18.83,18.82,0,0.01,3
7956,59922371,0,0.65,0,-0.2,18.83,18.82,0,0.01,3
7997,59932777,0,0.65,0,-0.2,18.82,18.82,0,0.01,3
8040,59943263,0,0.65,0,-0.2,18.82,18.81,0,0.01,3
8081,59953767,0,0.65,0,-0.2,18.82,18.81,0,0.01,3
8122,59963920,0,0.65,0,-0.2,18.82,18.81,0,0.01,3
8169,59973753,0,0.65,0,-0.2,18.82,18.81,0,0,3
8210,59983753,0,0.65,0,-0.2,18.82,18.81,0,0,3
8253,59994395,0,0.65,0,-0.2,18.81,18.81,0,0,3
8293,60004905,0,0.65,0,-0.2,18.81,18.81,0,0,3
8334,60014906,0,0.65,0,-0.2,18.81,18.81,0,0,3
8372,60025338,0,0.65,0,-0.2,18.81,18.81,0,0,3
8414,60035684,0,0.65,0,-0.2,18.81,18.8,0,0,3
8455,60045306,0,0.65,0,-0.2,18.81,18.8,0,0,3
8495,60055782,0,0.65,0,-0.2,18.81,18.8,0,0,3
8536,60065370,0,0.65,0,-0.2,18.81,18.8,0,0,3
8581,60075957,0,0.65,0,-0.2,18.81,18.8,0,0,3
8622,60086053,0,0.64,0,-0.2,18.81,18.8,0,0,3
8663,60095993,0,0.64,0,-0.2,18.8,18.8,0,0,3
8703,60106338,0,0.64,0,-0.2,18.8,18.8,0,0,3
8746,60119161,0,0.64,0,-0.2,18.8,18.8,0,0,3
8787,60129671,0,0.64,0,-0.2,18.8,18.79,0,0,3
8830,60139772,0,0.64,0,-0.2,18.8,18.79,0,0,3
8870,60150169,0,0.64,0,-0.2,18.8,18.79,0,0,3
8911,60160310,0,0.64,0,-0.2,18.8,18.79,0,0,3
8951,60170360,0,0.65,0,-0.2,18.8,18.79,0,0,3
8998,60180707,0,0.65,0,-0.2,18.79,18.79,0,0.01,3
9040,60190704,0,0.65,0,-0.2,18.79,18.79,0,0.01,3
9080,60200538,0,0.65,0,-0.2,18.79,18.79,0,0.01,3
9121,60211011,0,0.65,0,-0.2,18.79,18.79,0,0.01,3
9161,60220928,0,0.65,0,-0.2,18.79,18.79,0,0.01,3
9202,60231043,0,0.65,0,-0.2,18.79,18.79,0,0.01,3
9243,60241113,0,0.64,0,-0.2,18.79,18.78,0,0.01,3
9284,60251135,0,0.64,0,-0.2,18.79,18.78,0,0.01,3
9326,60261587,0,0.64,0,-0.2,18.79,18.78,0,0.01,3
9366,60271506,0,0.64,0,-0.2,18.79,18.78,0,0.01,3
9411,60281367,0,0.64,0,-0.2,18.79,18.78,0,0,3
9452,60291545,0,0.64,0,-0.2,18.78,18.78,0,0,3
9495,60302091,0,0.64,0,-0.2,18.78,18.77,0,0,3
9535,60312486,0,0.64,0,-0.2,18.78,18.77,0,0,3
9576,60322672,0,0.64,0,-0.2,18.78,18.77,0,0,3
9614,60332503,0,0.64,0,-0.2,18.78,18.77,0,0,3
9656,60342882,0,0.64,0,-0.2,18.78,18.77,0,0,3
9697,60353396,0,0.64,0,-0.2,18.77,18.77,0,0,3
9737,60363922,0,0.65,0,-0.2,18.77,18.76,0,0,3
9778,60374130,0,0.65,0,-0.2,18.77,18.76,0,0,3
9825,60384383,0,0.64,0,-0.2,18.77,18.76,0,0,3
9865,60394354,0,0.64,0,-0.2,18.77,18.76,0,0,3
9906,60404948,0,0.64,0,-0.2,18.77,18.76,0,0,3
9946,60415046,0,0.64,0,-0.2,18.77,18.76,0,0,3
9987,60428099,0,0.64,0,-0.2,18.77,18.76,0,0,3
10030,60438148,0,0.64,0,-0.2,18.76,18.76,0,0,3
10070,60448555,0,0.64,0,-0.2,18.76,18.76,0,0,3
10113,60458498,0,0.64,0,-0.2,18.76,18.75,0,0,3
10153,60468943,0,0.64,0,-0.2,18.76,18.75,0,0,3
10194,60478390,0,0.64,0,-0.2,18.76,18.75,0,0,3
10239,60489348,0,0.64,0,-0.2,18.76,18.75,0,0.01,3
10280,60499646,0,0.64,0,-0.2,18.76,18.75,0,0.01,3
10320,60509319,0,0.64,0,-0.2,18.76,18.75,0,0.01,3
10358,60519337,0,0.64,0,-0.2,18.76,18.75,0,0.01,3
10396,60529345,0,0.65,0,-0.2,18.76,18.75,0,0.01,3
10436,60539565,0,0.65,0,-0.2,18.76,18.75,0,0.01,3
10477,60549750,0,0.64,0,-0.2,18.76,18.75,0,0.01,3
10517,60559974,0,0.64,0,-0.2,18.75,18.75,0,0.01,3
10559,60569964,0,0.64,0,-0.2,18.75,18.74,0,0.01,3
10599,60580151,0,0.64,0,-0.2,18.75,18.74,0,0.01,3
10646,60590781,0,0.64,0,-0.2,18.75,18.74,0,0.01,3
10687,60600682,0,0.64,0,-0.2,18.75,18.74,0,0.01,3
10727,60610962,0,0.64,0,-0.2,18.74,18.74,0,0.01,3
10768,60620676,0,0.64,0,-0.2,18.74,18.73,0,0.01,3
10802,60630952,0,0.64,0,-0.2,18.74,18.73,0,0.01,3
10843,60641534,0,0.64,0,-0.2,18.74,18.73,0,0.01,3
10883,60651138,0,0.64,0,-0.2,18.74,18.73,0,0.01,3
10924,60661518,0,0.64,0,-0.2,18.74,18.73,0,0.01,3
10948,60691263,0,0.64,0,-0.2,18.73,18.73,0,0.01,3
10988,60701136,0,0.64,0,-0.2,18.73,18.72,0,0.01,3
11029,60711707,0,0.64,0,-0.2,18.73,18.72,0,0.01,3
11066,60721508,0,0.64,0,-0.2,18.73,18.72,0,0.01,3
11104,60732152,0,0.64,0,-0.2,18.72,18.72,0,0.01,3
11145,60742166,0,0.64,0,-0.2,18.72,18.71,0,0.01,3
11185,60752033,0,0.64,0,-0.2,18.72,18.71,0,0.01,3
11227,60762486,0,0.64,0,-0.2,18.71,18.71,0,0.01,3
11267,60772364,0,0.64,0,-0.2,18.71,18.7,0,0.01,3
11309,60782423,0,0.64,0,-0.2,18.71,18.7,0,0.01,3
11355,60792878,0,0.64,0,-0.2,18.71,18.7,0,0.01,3
11395,60803276,0,0.64,0,-0.2,18.71,18.7,0,0.01,3
11439,60813274,0,0.64,0,-0.21,18.71,18.7,0,0.01,3
11479,60825432,0,0.64,0,-0.2,18.71,18.7,0,0.01,3
11520,60837786,0,0.64,0,-0.21,18.7,18.7,0,0.01,3
11562,60847787,0,0.64,0,-0.21,18.7,18.7,0,0.01,3
11602,60858133,0,0.64,0,-0.21,18.7,18.69,0,0.01,3
11643,60867881,0,0.64,0,-0.2,18.7,18.69,0,0.01,3
11685,60878060,0,0.64,0,-0.2,18.7,18.69,0,0.01,3
11731,60887944,0,0.64,0,-0.2,18.7,18.69,0,0.01,3
11771,60898101,0,0.64,0,-0.2,18.69,18.69,0,0.01,3
11812,60908132,0,0.64,0,-0.2,18.69,18.68,0,0.01,3
11853,60918702,0,0.64,0,-0.2,18.69,18.68,0,0.01,3
11900,60933968,0,0.64,0,-0.21,18.69,18.68,0,0.01,3
11943,60946880,0,0.64,0,-0.21,18.69,18.68,0,0.01,3
11984,60957120,0,0.64,0,-0.21,18.69,18.68,0,0.01,3
12024,60967103,0,0.64,0,-0.21,18.69,18.68,0,0.01,3
12066,60976930,0,0.64,0,-0.21,18.68,18.68,0,0.01,3
12118,60989607,0,0.64,0,-0.21,18.68,18.68,0,0.01,3
12161,61000104,0,0.64,0,-0.21,18.68,18.68,0,0.01,3
12203,61010255,0,0.64,0,-0.21,18.68,18.67,0,0.01,3
12243,61020079,0,0.64,0,-0.21,18.68,18.67,0,0.01,3
12285,61032953,0,0.64,0,-0.21,18.68,18.67,0,0.01,3
12325,61044073,0,0.64,0,-0.21,18.68,18.67,0,0.01,3
12366,61054533,0,0.64,0,-0.21,18.67,18.67,0,0.01,3
12407,61064758,0,0.64,0,-0.21,18.67,18.66,0,0.01,3
12447,61074776,0,0.64,0,-0.21,18.67,18.66,0,0.01,3
12488,61084799,0,0.64,0,-0.21,18.67,18.66,0,0.01,3
12533,61094935,0,0.64,0,-0.21,18.66,18.66,0,0.01,3
12575,61105303,0,0.64,0,-0.21,18.66,18.65,0,0.01,3
12616,61115758,0,0.64,0,-0.21,18.66,18.65,0,0.01,3
12656,61125766,0,0.64,0,-0.21,18.66,18.65,0,0.01,3
12697,61136344,0,0.64,0,-0.21,18.66,18.65,0,0.01,3
12737,61146799,0,0.64,0,-0.21,18.66,18.65,0,0.01,3
12779,61156740,0,0.64,0,-0.21,18.66,18.65,0,0.01,3
12820,61167037,0,0.64,0,-0.21,18.66,18.65,0,0.01,3
12860,61177299,0,0.64,0,-0.21,18.66,18.65,0,0.01,3
12903,61186963,0,0.64,0,-0.21,18.66,18.65,0,0.01,3
12948,61196969,0,0.64,0,-0.21,18.66,18.65,0,0.01,3
12989,61207017,0,0.64,0,-0.21,18.65,18.65,0,0.01,3
13031,61217305,0,0.63,0,-0.21,18.65,18.65,0,0.01,3
13074,61230026,0,0.63,0,-0.21,18.65,18.64,0,0.01,3
13115,61243075,0,0.63,0,-0.21,18.65,18.64,0,0.01,3
13155,61253284,0,0.63,0,-0.21,18.65,18.64,0,0.01,3
13196,61263754,0,0.63,0,-0.21,18.64,18.64,0,0.01,3
13238,61273789,0,0.63,0,-0.21,18.64,18.63,0,0.01,3
13278,61283887,0,0.63,0,-0.21,18.64,18.63,0,0.01,3
13323,61293966,0,0.63,0,-0.21,18.64,18.63,0,0.01,3
13363,61303976,0,0.63,0,-0.21,18.64,18.63,0,0,3
13406,61314266,0,0.64,0,-0.21,18.64,18.63,0,0,3
13446,61324761,0,0.63,0,-0.21,18.64,18.63,0,0,3
13484,61334927,0,0.63,0,-0.21,18.64,18.63,0,0,3
13524,61345283,0,0.63,0,-0.21,18.64,18.63,0,0,3
13565,61355536,0,0.63,0,-0.21,18.64,18.63,0,0,3
13606,61365537,0,0.63,0,-0.21,18.64,18.63,0,0,3
13646,61375758,0,0.63,0,-0.21,18.63,18.63,0,0,3
13690,61385970,0,0.63,0,-0.21,18.63,18.62,0,0,3
13734,61396391,0,0.63,0,-0.21,18.63,18.62,0,0,3
13775,61406927,0,0.63,0,-0.21,18.63,18.62,0,0,3
13818,61416883,0,0.63,0,-0.21,18.63,18.62,0,0,3
13860,61427140,0,0.63,0,-0.21,18.62,18.62,0,0,3
13901,61437242,0,0.63,0,-0.21,18.62,18.62,0,0,3
13941,61447258,0,0.64,0,-0.21,18.62,18.61,0,0,3
13982,61457337,0,0.64,0,-0.21,18.62,18.61,0,0,3
14019,61467316,0,0.64,0,-0.21,18.62,18.61,0,0,3
14060,61477142,0,0.64,0,-0.21,18.62,18.61,0,0,3
14102,61487324,0,0.64,0,-0.21,18.62,18.61,0,0,3
14146,61497778,0,0.64,0,-0.21,18.62,18.61,0,0,3
14187,61508025,0,0.64,0,-0.21,18.62,18.61,0,0,3
14227,61518365,0,0.63,0,-0.21,18.62,18.61,0,0,3
14269,61528310,0,0.63,0,-0.21,18.62,18.61,0,0,3
14311,61538293,0,0.63,0,-0.21,18.61,18.61,0,0,3
14352,61549003,0,0.63,0,-0.21,18.61,18.61,0,0,3
14390,61559419,0,0.63,0,-0.21,18.61,18.6,0,0,3
14430,61569893,0,0.63,0,-0.21,18.61,18.6,0,0,3
14471,61580099,0,0.63,0,-0.21,18.61,18.6,0,0,3
14516,61592248,0,0.64,0,-0.21,18.6,18.6,0,0,3
14562,61602166,0,0.64,0,-0.21,18.6,18.59,0,0,3
14602,61612727,0,0.64,0,-0.21,18.6,18.59,0,0,3
14643,61622359,0,0.64,0,-0.21,18.6,18.59,0,0,3
14688,61634961,0,0.64,0,-0.21,18.6,18.6,0,0,3
14728,61645793,0,0.64,0,-0.21,18.6,18.6,0,0,3
14770,61656020,0,0.64,0,-0.21,18.6,18.6,0,0,3
14811,61666313,0,0.63,0,-0.21,18.6,18.6,0,0,3
14851,61676002,0,0.63,0,-0.21,18.6,18.6,0,0,3
14892,61685924,0,0.63,0,-0.21,18.6,18.6,0,0,3
14933,61696036,0,0.63,0,-0.21,18.6,18.6,0,0,3
14978,61706388,0,0.63,0,-0.21,18.6,18.6,0,0,3
15019,61716535,0,0.63,0,-0.21,18.6,18.59,0,0,3
15060,61726384,0,0.63,0,-0.21,18.6,18.59,0,0,3
15102,61736541,0,0.63,0,-0.21,18.6,18.59,0,0,3
15140,61746964,0,0.63,0,-0.21,18.6,18.59,0,0,3
15180,61756771,0,0.63,0,-0.21,18.6,18.59,0,0,3
15221,61767276,0,0.63,0,-0.21,18.6,18.59,0,0,3
15262,61777136,0,0.63,0,-0.21,18.6,18.59,0,0,3
15303,61786804,0,0.63,0,-0.21,18.6,18.59,0,0,3
15348,61796783,0,0.63,0,-0.21,18.6,18.59,0,0,3
15394,61806941,0,0.63,0,-0.21,18.6,18.59,0,0,3
15434,61817127,0,0.63,0,-0.21,18.6,18.59,0,0,3
15475,61827037,0,0.63,0,-0.21,18.6,18.59,0,0,3
15516,61836793,0,0.63,0,-0.21,18.6,18.59,0,0,3
15557,61847156,0,0.63,0,-0.21,18.6,18.59,0,0,3
15600,61857701,0,0.63,0,-0.21,18.6,18.59,0,0,3
15640,61867357,0,0.63,0,-0.21,18.6,18.59,0,0,3
15681,61877537,0,0.63,0,-0.21,18.59,18.58,0,0,3
15722,61887720,0,0.63,0,-0.21,18.59,18.58,0,0,3
15763,61897283,0,0.63,0,-0.21,18.59,18.58,0,0,3
15807,61907006,0,0.63,0,-0.22,18.59,18.58,0,0.01,3
15850,61917364,0,0.63,0,-0.22,18.59,18.58,0,0.01,3
15891,61927709,0,0.63,0,-0.22,18.59,18.58,0,0.01,3
15932,61937358,0,0.63,0,-0.22,18.59,18.58,0,0.01,3
15971,61947034,0,0.63,0,-0.22,18.59,18.58,0,0.01,3
16014,61959937,0,0.63,0,-0.22,18.58,18.58,0,0.01,3
16055,61969980,0,0.63,0,-0.22,18.59,18.58,0,0.01,3
16096,61980678,0,0.63,0,-0.21,18.59,18.58,0,0.01,3
16137,61990868,0,0.63,0,-0.22,18.59,18.58,0,0.01,3
16180,62000826,0,0.63,0,-0.22,18.59,18.58,0,0.01,3
16226,62010778,0,0.63,0,-0.22,18.58,18.58,0,0,3
16267,62020762,0,0.63,0,-0.22,18.58,18.58,0,0,3
16307,62031013,0,0.63,0,-0.22,18.58,18.58,0,0,3
16348,62040953,0,0.63,0,-0.22,18.58,18.57,0,0,3
16386,62051305,0,0.63,0,-0.22,18.58,18.57,0,0,3
16427,62061164,0,0.63,0,-0.22,18.58,18.57,0,0,3
16469,62071695,0,0.62,0,-0.22,18.58,18.57,0,0,3
16509,62081551,0,0.62,0,-0.22,18.58,18.57,0,0,3
16550,62091091,0,0.62,0,-0.22,18.58,18.57,0,0,3
16590,62101144,0,0.62,0,-0.22,18.58,18.57,0,0,3
16635,62111634,0,0.62,0,-0.22,18.58,18.57,0,0.01,3
16676,62121274,0,0.62,0,-0.22,18.58,18.57,0,0.01,3
16717,62131258,0,0.62,0,-0.22,18.58,18.57,0,0.01,3
16758,62143987,0,0.62,0,-0.22,18.58,18.57,0,0.01,3
16798,62154257,0,0.62,0,-0.22,18.58,18.57,0,0.01,3
16840,62164971,0,0.62,0,-0.22,18.58,18.58,0,0.01,3
16880,62174989,0,0.62,0,-0.22,18.58,18.58,0,0.01,3
16921,62185298,0,0.62,0,-0.22,18.58,18.58,0,0.01,3
16964,62195367,0,0.62,0,-0.22,18.58,18.58,0,0.01,3
17008,62205666,0,0.62,0,-0.22,18.58,18.58,0,0.01,3
17049,62215801,0,0.62,0,-0.22,18.58,18.57,0,0.01,3
17089,62225751,0,0.62,0,-0.23,18.58,18.57,0,0.01,3
17131,62235915,0,0.62,0,-0.22,18.58,18.57,0,0.01,3
17174,62248579,0,0.62,0,-0.22,18.58,18.57,0,0.01,3
17215,62258954,0,0.62,0,-0.22,18.58,18.57,0,0.01,3
17257,62269342,0,0.62,0,-0.22,18.58,18.58,0,0.01,3
17297,62279450,0,0.62,0,-0.22,18.58,18.58,0,0.01,3
17339,62289386,0,0.62,0,-0.22,18.58,18.58,0,0.01,3
17379,62299298,0,0.62,0,-0.23,18.59,18.58,0,0.01,3
17424,62309510,0,0.63,0,-0.23,18.59,18.58,0,0.01,3
17465,62319801,0,0.62,0,-0.23,18.59,18.58,0,0.01,3
17505,62330053,0,0.62,0,-0.23,18.59,18.58,0,0.01,3
17547,62339623,0,0.62,0,-0.23,18.59,18.58,0,0.01,3
17587,62352775,0,0.62,0,-0.23,18.59,18.58,0,0.01,3
17628,62362717,0,0.62,0,-0.23,18.59,18.58,0,0.01,3
17669,62373104,0,0.62,0,-0.23,18.58,18.58,0,0.01,3
17711,62383541,0,0.62,0,-0.23,18.58,18.57,0,0.01,3
17753,62393698,0,0.62,0,-0.23,18.58,18.57,0,0.01,3
17795,62403429,0,0.62,0,-0.23,18.58,18.57,0,0.01,3
17842,62413473,0,0.62,0,-0.23,18.58,18.57,0,0.01,3
17882,62423919,0,0.62,0,-0.23,18.58,18.57,0,0.01,3
17923,62434367,0,0.62,0,-0.23,18.58,18.57,0,0.01,3
17967,62447172,0,0.62,0,-0.23,18.58,18.57,0,0.01,3
18008,62457347,0,0.62,0,-0.23,18.58,18.57,0,0.01,3
18049,62467704,0,0.62,0,-0.23,18.58,18.57,0,0.01,3
18089,62477275,0,0.62,0,-0.23,18.58,18.57,0,0.01,3
18130,62487729,0,0.62,0,-0.23,18.58,18.57,0,0.01,3
18173,62497156,0,0.62,0,-0.23,18.58,18.57,0,0.01,3
18213,62507481,0,0.62,0,-0.23,18.58,18.57,0,0.01,3
18258,62517253,0,0.62,0,-0.23,18.58,18.57,0,0.01,3
18299,62527514,0,0.62,0,-0.23,18.57,18.57,0,0.01,3
18340,62537769,0,0.62,0,-0.23,18.57,18.57,0,0.01,3
18381,62547546,0,0.62,0,-0.23,18.57,18.56,0,0.01,3
18422,62557530,0,0.62,0,-0.23,18.57,18.56,0,0.01,3
18463,62567568,0,0.61,0,-0.23,18.56,18.56,0,0.01,3
18503,62578025,0,0.61,0,-0.23,18.56,18.55,0,0.01,3
18543,62587901,0,0.62,0,-0.23,18.56,18.55,0,0.01,3
18584,62598008,0,0.62,0,-0.23,18.56,18.55,0,0.01,3
18625,62608274,0,0.62,0,-0.23,18.56,18.55,0,0.01,3
18671,62618478,0,0.62,0,-0.24,18.56,18.55,0,0.01,3
18711,62628550,0,0.62,0,-0.23,18.55,18.55,0,0.01,3
18752,62638762,0,0.62,0,-0.24,18.55,18.55,0,0.01,3
18793,62648599,0,0.62,0,-0.24,18.55,18.55,0,0.01,3
18830,62658528,0,0.61,0,-0.24,18.55,18.55,0,0.01,3
18872,62669131,0,0.61,0,-0.24,18.55,18.54,0,0.01,3
18912,62679723,0,0.61,0,-0.24,18.55,18.54,0,0.01,3
18953,62689729,0,0.61,0,-0.24,18.55,18.54,0,0.01,3
18993,62699528,0,0.61,0,-0.24,18.55,18.54,0,0.01,3
19036,62710108,0,0.61,0,-0.24,18.55,18.54,0,0.01,3
19082,62720381,0,0.61,0,-0.24,18.55,18.54,0,0,3
19122,62730201,0,0.61,0,-0.24,18.55,18.54,0,0,3
19163,62740549,0,0.61,0,-0.24,18.55,18.54,0,0,3
19203,62750315,0,0.61,0,-0.24,18.54,18.54,0,0,3
19244,62763153,0,0.61,0,-0.24,18.54,18.54,0,0,3
19285,62773770,0,0.62,0,-0.24,18.54,18.54,0,0,3
19328,62784290,0,0.62,0,-0.24,18.54,18.53,0,0,3
19369,62796873,0,0.62,0,-0.24,18.54,18.53,0,0,3
19411,62807088,0,0.62,0,-0.24,18.54,18.54,0,0,3
19456,62816679,0,0.62,0,-0.24,18.54,18.53,0,0,3
19497,62827154,0,0.62,0,-0.24,18.54,18.53,0,0,3
19538,62837539,0,0.62,0,-0.24,18.54,18.53,0,0,3
19578,62847550,0,0.62,0,-0.24,18.54,18.53,0,0,3
19620,62857542,0,0.62,0,-0.24,18.53,18.53,0,0,3
19660,62867562,0,0.61,0,-0.24,18.53,18.53,0,0,3
19702,62877539,0,0.61,0,-0.24,18.53,18.52,0,0,3
19743,62887870,0,0.61,0,-0.24,18.53,18.52,0,0,3
19783,62897790,0,0.61,0,-0.24,18.53,18.52,0,0,3
19827,62907871,0,0.61,0,-0.24,18.53,18.52,0,0,3
19871,62918173,0,0.61,0,-0.24,18.53,18.52,0,0.01,3
19913,62927890,0,0.62,0,-0.24,18.53,18.52,0,0.01,3
19953,62938275,0,0.62,0,-0.24,18.53,18.52,0,0.01,3
19994,62947906,0,0.62,0,-0.24,18.53,18.52,0,0.01,3
20036,62958246,0,0.62,0,-0.24,18.53,18.52,0,0.01,3
20073,62968285,0,0.62,0,-0.24,18.52,18.52,0,0.01,3
20117,62980967,0,0.62,0,-0.24,18.52,18.52,0,0.01,3
20159,62991029,0,0.62,0,-0.24,18.52,18.51,0,0.01,3
20198,63001023,0,0.62,0,-0.24,18.52,18.51,0,0.01,3
20239,63010978,0,0.61,0,-0.24,18.52,18.51,0,0.01,3
20286,63021168,0,0.61,0,-0.24,18.52,18.51,0,0.01,3
20327,63031284,0,0.61,0,-0.24,18.51,18.51,0,0.01,3
20367,63041102,0,0.61,0,-0.24,18.51,18.51,0,0.01,3
20409,63050956,0,0.61,0,-0.24,18.51,18.5,0,0.01,3
20450,63061387,0,0.61,0,-0.24,18.51,18.5,0,0.01,3
20490,63071374,0,0.61,0,-0.24,18.51,18.5,0,0.01,3
20531,63081269,0,0.61,0,-0.24,18.5,18.5,0,0.01,3
20571,63091515,0,0.61,0,-0.24,18.5,18.49,0,0.01,3
20613,63101276,0,0.61,0,-0.24,18.5,18.49,0,0.01,3
20654,63111297,0,0.61,0,-0.24,18.5,18.49,0,0.01,3
20699,63121297,0,0.62,0,-0.24,18.49,18.49,0,0.01,3
20740,63131273,0,0.62,0,-0.24,18.49,18.48,0,0.01,3
20780,63141940,0,0.62,0,-0.24,18.49,18.48,0,0.01,3
20822,63152106,0,0.62,0,-0.24,18.49,18.48,0,0.01,3
20862,63164798,0,0.62,0,-0.25,18.49,18.48,0,0.01,3
20903,63175249,0,0.62,0,-0.24,18.49,18.48,0,0.01,3
20944,63185731,0,0.61,0,-0.24,18.48,18.48,0,0.01,3
20988,63195898,0,0.61,0,-0.24,18.48,18.48,0,0.01,3
21026,63206740,0,0.61,0,-0.24,18.48,18.48,0,0.01,3
21066,63216711,0,0.61,0,-0.24,18.48,18.48,0,0.01,3
21113,63226714,0,0.61,0,-0.24,18.48,18.48,0,0.01,3
21155,63236757,0,0.61,0,-0.24,18.48,18.48,0,0.01,3
21195,63246777,0,0.61,0,-0.24,18.48,18.47,0,0.01,3
21236,63257241,0,0.61,0,-0.24,18.48,18.47,0,0.01,3
21276,63267731,0,0.62,0,-0.24,18.48,18.47,0,0.01,3
21317,63277726,0,0.62,0,-0.24,18.48,18.47,0,0.01,3
21358,63287989,0,0.62,0,-0.24,18.48,18.47,0,0.01,3
21399,63298264,0,0.62,0,-0.24,18.48,18.47,0,0.01,3
21439,63307965,0,0.62,0,-0.24,18.48,18.47,0,0.01,3
21480,63318361,0,0.62,0,-0.24,18.48,18.47,0,0.01,3
21525,63328876,0,0.62,0,-0.24,18.48,18.47,0,0.01,3
21566,63338938,0,0.62,0,-0.24,18.48,18.47,0,0.01,3
21608,63348999,0,0.62,0,-0.24,18.48,18.47,0,0.01,3
21648,63358935,0,0.61,0,-0.24,18.48,18.47,0,0.01,3
21689,63369568,0,0.61,0,-0.24,18.48,18.47,0,0.01,3
21729,63379950,0,0.61,0,-0.25,18.48,18.47,0,0.01,3
21770,63390497,0,0.61,0,-0.25,18.48,18.47,0,0.01,3
21816,63400674,0,0.61,0,-0.25,18.48,18.47,0,0.01,3
21850,63411005,0,0.62,0,-0.25,18.48,18.47,0,0.01,3
21891,63421164,0,0.62,0,-0.25,18.47,18.47,0,0.01,3
21936,63431173,0,0.62,0,-0.25,18.47,18.47,0,0.01,3
21977,63441546,0,0.62,0,-0.25,18.47,18.47,0,0.01,3
22019,63451711,0,0.62,0,-0.25,18.47,18.47,0,0.01,3
22059,63461524,0,0.62,0,-0.25,18.47,18.46,0,0.01,3
22100,63472089,0,0.62,0,-0.25,18.47,18.46,0,0.01,3
22140,63481949,0,0.62,0,-0.24,18.47,18.46,0,0.01,3
22182,63491901,0,0.62,0,-0.24,18.47,18.46,0,0.01,3
22223,63502523,0,0.62,0,-0.24,18.47,18.46,0,0.01,3
22263,63512538,0,0.61,0,-0.24,18.47,18.46,0,0.01,3
22304,63522710,0,0.61,0,-0.24,18.47,18.46,0,0.01,3
22348,63532920,0,0.61,0,-0.24,18.46,18.46,0,0.01,3
22390,63542923,0,0.61,0,-0.24,18.46,18.46,0,0.01,3
22432,63553018,0,0.61,0,-0.24,18.46,18.45,0,0.01,3
22473,63562930,0,0.61,0,-0.24,18.46,18.45,0,0.01,3
22510,63573034,0,0.61,0,-0.24,18.46,18.45,0,0.01,3
22551,63583347,0,0.61,0,-0.24,18.46,18.45,0,0.01,3
22592,63593793,0,0.62,0,-0.24,18.46,18.45,0,0.01,3
22634,63603804,0,0.62,0,-0.24,18.46,18.45,0,0.01,3
22669,63614385,0,0.62,0,-0.24,18.46,18.45,0,0.01,3
22710,63624138,0,0.62,0,-0.24,18.45,18.45,0,0.01,3
22754,63634728,0,0.62,0,-0.24,18.45,18.45,0,0.01,3
22794,63644541,0,0.62,0,-0.24,18.45,18.45,0,0.01,3
22834,63655030,0,0.62,0,-0.24,18.45,18.44,0,0.01,3
22876,63665006,0,0.62,0,-0.24,18.45,18.44,0,0.01,3
22919,63677375,0,0.62,0,-0.24,18.45,18.44,0,0.01,3
22960,63687351,0,0.62,0,-0.24,18.45,18.44,0,0.01,3
23001,63697645,0,0.61,0,-0.24,18.44,18.44,0,0.01,3
23042,63707529,0,0.61,0,-0.24,18.44,18.44,0,0.01,3
23082,63717363,0,0.61,0,-0.24,18.44,18.43,0,0.01,3
23130,63730120,0,0.61,0,-0.24,18.44,18.43,0,0.01,3
23170,63740544,0,0.62,0,-0.24,18.44,18.43,0,0.01,3
23211,63750587,0,0.62,0,-0.24,18.44,18.43,0,0.01,3
23254,63760404,0,0.62,0,-0.24,18.43,18.43,0,0.01,3
23295,63770516,0,0.62,0,-0.24,18.43,18.43,0,0.01,3
23336,63780285,0,0.62,0,-0.24,18.43,18.42,0,0.01,3
23376,63790802,0,0.62,0,-0.24,18.43,18.42,0,0.01,3
23420,63800830,0,0.62,0,-0.24,18.43,18.42,0,0.01,3
23455,63811281,0,0.62,0,-0.24,18.43,18.42,0,0.01,3
23497,63821790,0,0.62,0,-0.24,18.43,18.42,0,0.01,3
23541,63831989,0,0.62,0,-0.24,18.43,18.42,0,0.01,3
23582,63842101,0,0.62,0,-0.24,18.42,18.42,0,0.01,3
23622,63851884,0,0.62,0,-0.24,18.42,18.41,0,0.01,3
23666,63861501,0,0.61,0,-0.24,18.42,18.41,0,0.01,3
23706,63871929,0,0.61,0,-0.24,18.42,18.41,0,0.01,3
23747,63882138,0,0.61,0,-0.24,18.42,18.41,0,0.01,3
23790,63892501,0,0.61,0,-0.24,18.42,18.41,0,0.01,3
23831,63901966,0,0.61,0,-0.24,18.41,18.41,0,0.01,3
23871,63912040,0,0.61,0,-0.24,18.41,18.4,0,0.01,3
23912,63922546,0,0.61,0,-0.24,18.41,18.4,0,0.01,3
23957,63932882,0,0.61,0,-0.24,18.41,18.4,0,0.01,3
23998,63942648,0,0.62,0,-0.24,18.41,18.4,0,0.01,3
24039,63953113,0,0.62,0,-0.24,18.41,18.4,0,0.01,3
24079,63963366,0,0.62,0,-0.24,18.41,18.4,0,0.01,3
24122,63973924,0,0.62,0,-0.24,18.41,18.4,0,0.01,3
24162,63984003,0,0.62,0,-0.24,18.4,18.4,0,0.01,3
24203,63993954,0,0.62,0,-0.24,18.4,18.4,0,0.01,3
24245,64004159,0,0.61,0,-0.24,18.4,18.39,0,0.01,3
24280,64014654,0,0.61,0,-0.24,18.4,18.39,0,0.01,3
24321,64025048,0,0.61,0,-0.24,18.4,18.39,0,0.01,3
24367,64035253,0,0.61,0,-0.24,18.4,18.39,0,0.01,3
24408,64045805,0,0.61,0,-0.24,18.4,18.39,0,0.01,3
24449,64055930,0,0.61,0,-0.23,18.39,18.39,0,0.01,3
24490,64065732,0,0.61,0,-0.23,18.39,18.38,0,0.01,3
24531,64075774,0,0.61,0,-0.24,18.39,18.38,0,0.01,3
24571,64086326,0,0.61,0,-0.23,18.39,18.38,0,0.01,3
24612,64096778,0,0.61,0,-0.23,18.38,18.38,0,0.01,3
24653,64106620,0,0.61,0,-0.23,18.38,18.37,0,0.01,3
24694,64116777,0,0.61,0,-0.23,18.38,18.37,0,0.01,3
24735,64126932,0,0.61,0,-0.23,18.38,18.37,0,0.01,3
24779,64136912,0,0.61,0,-0.23,18.38,18.37,0,0.01,3
24821,64146919,0,0.61,0,-0.23,18.37,18.37,0,0.01,3
24861,64156887,0,0.61,0,-0.23,18.37,18.36,0,0.01,3
24903,64166555,0,0.61,0,-0.23,18.37,18.36,0,0.01,3
24944,64177539,0,0.61,0,-0.23,18.37,18.36,0,0.01,3
24986,64190714,0,0.61,0,-0.23,18.36,18.36,0,0.01,3
25023,64201515,0,0.61,0,-0.23,18.36,18.35,0,0.01,3
25065,64211969,0,0.61,0,-0.23,18.36,18.35,0,0.01,3
25106,64221935,0,0.6,0,-0.23,18.36,18.35,0,0.01,3
25146,64231931,0,0.6,0,-0.23,18.35,18.35,0,0.01,3
25191,64241902,0,0.6,0,-0.23,18.35,18.34,0,0.01,3
25232,64252240,0,0.6,0,-0.23,18.35,18.34,0,0.01,3
25273,64262275,0,0.6,0,-0.23,18.35,18.34,0,0.01,3
25313,64272932,0,0.6,0,-0.23,18.35,18.34,0,0.01,3
25354,64282904,0,0.61,0,-0.23,18.35,18.34,0,0.01,3
25396,64293101,0,0.61,0,-0.23,18.35,18.34,0,0.01,3
25436,64302911,0,0.61,0,-0.23,18.34,18.34,0,0.01,3
25478,64313409,0,0.61,0,-0.23,18.34,18.34,0,0.01,3
25518,64323709,0,0.61,0,-0.23,18.34,18.34,0,0.01,3
25559,64333492,0,0.61,0,-0.23,18.34,18.33,0,0.01,3
25603,64343895,0,0.61,0,-0.23,18.34,18.33,0,0.01,3
25644,64354067,0,0.61,0,-0.24,18.34,18.33,0,0.01,3
25685,64363976,0,0.61,0,-0.24,18.34,18.33,0,0.01,3
25727,64373943,0,0.61,0,-0.24,18.34,18.33,0,0.01,3
25773,64386397,0,0.61,0,-0.24,18.33,18.33,0,0.01,3
25812,64399521,0,0.6,0,-0.24,18.33,18.32,0,0.01,3
25853,64410007,0,0.6,0,-0.24,18.33,18.32,0,0.01,3
25894,64420257,0,0.6,0,-0.24,18.33,18.32,0,0.01,3
25935,64430417,0,0.61,0,-0.24,18.33,18.32,0,0.01,3
25980,64440891,0,0.61,0,-0.24,18.33,18.32,0,0.01,3
26020,64450776,0,0.61,0,-0.24,18.32,18.32,0,0.01,3
26061,64461238,0,0.61,0,-0.24,18.32,18.32,0,0.01,3
26102,64471518,0,0.61,0,-0.24,18.32,18.32,0,0.01,3
26143,64481537,0,0.61,0,-0.24,18.32,18.32,0,0.01,3
26184,64491736,0,0.61,0,-0.24,18.32,18.31,0,0.01,3
26225,64502378,0,0.61,0,-0.24,18.32,18.31,0,0.01,3
26266,64512712,0,0.61,0,-0.24,18.32,18.31,0,0.01,3
26306,64522161,0,0.6,0,-0.24,18.32,18.31,0,0.01,3
26347,64532034,0,0.6,0,-0.24,18.31,18.31,0,0.01,3
26393,64542763,0,0.6,0,-0.24,18.31,18.31,0,0.01,3
26433,64553292,0,0.6,0,-0.24,18.31,18.3,0,0.01,3
26475,64563904,0,0.6,0,-0.24,18.31,18.3,0,0.01,3
26516,64574084,0,0.6,0,-0.24,18.31,18.3,0,0.01,3
26557,64584011,0,0.6,0,-0.24,18.31,18.3,0,0.01,3
26600,64594416,0,0.6,0,-0.24,18.31,18.3,0,0.01,3
26635,64605893,0,0.6,0,-0.24,18.31,18.3,0,0.01,3
26676,64616055,0,0.6,0,-0.24,18.31,18.3,0,0.01,3
26716,64626329,0,0.6,0,-0.24,18.31,18.3,0,0.01,3
26757,64636749,0,0.61,0,-0.24,18.31,18.3,0,0.01,3
26802,64647009,0,0.61,0,-0.24,18.31,18.3,0,0.01,3
26843,64656895,0,0.61,0,-0.24,18.31,18.3,0,0.01,3
26883,64666553,0,0.61,0,-0.24,18.3,18.3,0,0.01,3
26924,64677142,0,0.6,0,-0.24,18.3,18.3,0,0.01,3
26965,64687907,0,0.6,0,-0.25,18.3,18.29,0,0.01,3
27007,64698283,0,0.6,0,-0.25,18.3,18.29,0,0.01,3
27048,64708994,0,0.6,0,-0.25,18.3,18.29,0,0.01,3
27088,64719026,0,0.6,0,-0.25,18.3,18.29,0,0.01,3
27129,64729161,0,0.6,0,-0.25,18.3,18.29,0,0.01,3
27169,64739158,0,0.6,0,-0.25,18.3,18.29,0,0.01,3
27218,64751794,0,0.6,0,-0.25,18.3,18.29,0,0.01,3
27259,64761990,0,0.61,0,-0.25,18.3,18.29,0,0.01,3
27299,64772476,0,0.61,0,-0.25,18.29,18.29,0,0.01,3
27340,64782382,0,0.61,0,-0.25,18.29,18.29,0,0.01,3
27380,64792885,0,0.61,0,-0.25,18.29,18.28,0,0.01,3
27426,64809417,0,0.61,0,-0.25,18.29,18.28,0,0.01,3
27469,64819290,0,0.61,0,-0.25,18.29,18.28,0,0.01,3
27509,64829920,0,0.61,0,-0.25,18.29,18.28,0,0.01,3
27550,64839922,0,0.61,0,-0.24,18.29,18.28,0,0.01,3
27592,64850030,0,0.61,0,-0.24,18.29,18.28,0,0.01,3
27637,64860137,0,0.61,0,-0.24,18.29,18.28,0,0.01,3
27678,64870355,0,0.61,0,-0.24,18.28,18.28,0,0.01,3
27720,64880991,0,0.61,0,-0.24,18.28,18.28,0,0.01,3
27761,64892021,0,0.61,0,-0.24,18.28,18.28,0,0.01,3
27801,64902034,0,0.61,0,-0.24,18.28,18.28,0,0.01,3
27842,64911965,0,0.61,0,-0.23,18.28,18.28,0,0.01,3
27883,64922373,0,0.61,0,-0.23,18.28,18.27,0,0.01,3
27923,64932740,0,0.61,0,-0.23,18.28,18.27,0,0.01,3
27964,64942819,0,0.61,0,-0.23,18.28,18.27,0,0.01,3
28004,64953376,0,0.62,0,-0.23,18.28,18.27,0,0.01,3
28049,64963585,0,0.62,0,-0.23,18.28,18.27,0,0.01,3
28089,64973946,0,0.62,0,-0.23,18.28,18.27,0,0.01,3
28130,64983751,0,0.62,0,-0.23,18.28,18.27,0,0.01,3
28139,65038092,0,0.61,0,-0.23,18.28,18.27,0,0.01,3
28183,65048572,0,0.61,0,-0.23,18.28,18.27,0,0.01,3
28229,65059374,0,0.61,0,-0.23,18.28,18.27,0,0.01,3
28270,65069416,0,0.6,0,-0.23,18.27,18.27,0,0.01,3
28310,65079000,0,0.6,0,-0.23,18.27,18.27,0,0.01,3
28351,65090109,0,0.6,0,-0.23,18.27,18.27,0,0.01,3
28391,65100100,0,0.6,0,-0.24,18.27,18.27,0,0.01,3
28432,65110559,0,0.6,0,-0.23,18.27,18.26,0,0.01,3
28473,65120780,0,0.6,0,-0.23,18.27,18.26,0,0.01,3
28513,65130728,0,0.61,0,-0.23,18.27,18.26,0,0.01,3
28555,65140538,0,0.61,0,-0.23,18.27,18.26,0,0.01,3
28596,65151068,0,0.61,0,-0.23,18.27,18.26,0,0.01,3
28641,65161495,0,0.6,0,-0.23,18.27,18.26,0,0.01,3
28681,65171535,0,0.6,0,-0.23,18.27,18.26,0,0,3
28723,65181690,0,0.6,0,-0.24,18.27,18.26,0,0,3
28766,65191996,0,0.6,0,-0.24,18.27,18.26,0,0,3
28803,65206268,0,0.6,0,-0.24,18.27,18.26,0,0,3
28843,65216544,0,0.6,0,-0.24,18.27,18.26,0,0,3
28885,65226754,0,0.59,0,-0.24,18.27,18.26,0,0,3
28926,65236711,0,0.59,0,-0.24,18.27,18.26,0,0,3
28967,65246706,0,0.59,0,-0.24,18.27,18.26,0,0,3
29008,65256754,0,0.59,0,-0.24,18.26,18.26,0,0,3
29053,65267147,0,0.59,0,-0.24,18.26,18.26,0,0,3
29094,65277538,0,0.59,0,-0.24,18.26,18.26,0,0,3
29135,65287740,0,0.59,0,-0.24,18.26,18.25,0,0,3
29176,65297996,0,0.6,0,-0.24,18.26,18.25,0,0,3
29216,65308013,0,0.59,0,-0.24,18.26,18.25,0,0,3
29259,65318743,0,0.6,0,-0.24,18.26,18.25,0,0,3
29299,65329029,0,0.59,0,-0.24,18.26,18.25,0,0,3
29340,65339110,0,0.59,0,-0.24,18.26,18.25,0,0,3
29380,65349717,0,0.59,0,-0.24,18.26,18.25,0,0,3
29421,65359551,0,0.59,0,-0.24,18.26,18.25,0,0,3
29468,65370129,0,0.59,0,-0.24,18.26,18.25,0,0,3
29510,65380187,0,0.59,0,-0.24,18.26,18.25,0,0,3
29551,65390281,0,0.59,0,-0.24,18.26,18.25,0,0,3
29593,65400254,0,0.59,0,-0.24,18.26,18.25,0,0,3
29628,65410991,0,0.59,0,-0.24,18.25,18.25,0,0,3
29670,65420530,0,0.59,0,-0.24,18.25,18.25,0,0,3
29710,65431006,0,0.6,0,-0.24,18.25,18.25,0,0,3
29751,65441140,0,0.6,0,-0.24,18.25,18.25,0,0,3
29792,65451311,0,0.6,0,-0.24,18.25,18.25,0,0,3
29833,65461488,0,0.6,0,-0.24,18.25,18.25,0,0,3
29879,65471333,0,0.6,0,-0.24,18.25,18.25,0,0.01,3
29919,65481296,0,0.6,0,-0.24,18.25,18.24,0,0.01,3
29960,65491150,0,0.6,0,-0.24,18.25,18.24,0,0.01,3
30000,65501587,0,0.6,0,-0.24,18.25,18.24,0,0.01,3
30041,65512106,0,0.6,0,-0.24,18.25,18.24,0,0.01,3
30083,65522517,0,0.6,0,-0.24,18.25,18.24,0,0.01,3
30123,65532280,0,0.6,0,-0.24,18.25,18.24,0,0.01,3
30164,65542345,0,0.6,0,-0.24,18.25,18.24,0,0.01,3
30204,65552908,0,0.61,0,-0.24,18.25,18.24,0,0.01,3
30246,65562941,0,0.61,0,-0.24,18.25,18.24,0,0.01,3
30291,65573356,0,0.61,0,-0.24,18.25,18.24,0,0,3
30335,65585984,0,0.61,0,-0.24,18.25,18.24,0,0,3
30372,65596581,0,0.61,0,-0.24,18.25,18.24,0,0,3
30416,65609497,0,0.61,0,-0.24,18.25,18.24,0,0,3
30457,65619397,0,0.61,0,-0.24,18.25,18.24,0,0,3
30498,65630008,0,0.62,0,-0.24,18.24,18.24,0,0,3
30539,65640600,0,0.62,0,-0.24,18.24,18.24,0,0,3
30579,65650830,0,0.62,0,-0.24,18.24,18.23,0,0,3
30620,65660898,0,0.62,0,-0.24,18.24,18.23,0,0,3
30660,65670775,0,0.62,0,-0.24,18.24,18.23,0,0,3
30707,65681005,0,0.62,0,-0.24,18.24,18.23,0,0,3
30748,65691113,0,0.62,0,-0.24,18.24,18.23,0,0,3
30788,65700752,0,0.62,0,-0.24,18.24,18.23,0,0,3
30829,65710829,0,0.61,0,-0.24,18.24,18.23,0,0,3
30869,65720761,0,0.61,0,-0.24,18.24,18.23,0,0,3
30911,65730931,0,0.61,0,-0.24,18.24,18.23,0,0,3
30951,65740946,0,0.61,0,-0.24,18.24,18.23,0,0,3
30992,65750559,0,0.61,0,-0.24,18.24,18.23,0,0,3
31033,65760962,0,0.62,0,-0.24,18.23,18.23,0,0,3
31074,65771107,0,0.62,0,-0.24,18.23,18.23,0,0,3
31119,65781027,0,0.62,0,-0.24,18.23,18.22,0,0,3
31161,65796942,0,0.62,0,-0.24,18.23,18.22,0,0,3
31204,65807264,0,0.62,0,-0.24,18.23,18.22,0,0,3
31249,65820010,0,0.62,0,-0.24,18.23,18.22,0,0,3
31289,65830302,0,0.62,0,-0.24,18.23,18.22,0,0,3
31330,65840484,0,0.62,0,-0.24,18.23,18.22,0,0,3
31371,65850502,0,0.62,0,-0.24,18.23,18.22,0,0,3
31414,65860790,0,0.62,0,-0.24,18.23,18.22,0,0,3
31457,65871254,0,0.62,0,-0.24,18.23,18.22,0,0,3
31501,65881583,0,0.62,0,-0.24,18.23,18.22,0,0,3
31542,65891262,0,0.62,0,-0.24,18.23,18.22,0,0,3
31582,65900973,0,0.62,0,-0.24,18.23,18.22,0,0,3
31624,65911324,0,0.62,0,-0.24,18.23,18.22,0,0,3
31666,65922002,0,0.62,0,-0.24,18.23,18.22,0,0,3
31706,65931965,0,0.62,0,-0.24,18.23,18.22,0,0,3
31747,65942268,0,0.62,0,-0.24,18.22,18.22,0,0,3
31787,65952127,0,0.62,0,-0.24,18.22,18.22,0,0,3
31829,65962066,0,0.62,0,-0.24,18.22,18.21,0,0,3
31870,65972349,0,0.62,0,-0.24,18.22,18.21,0,0,3
31915,65982721,0,0.62,0,-0.24,18.22,18.21,0,0,3
31955,65996046,0,0.62,0,-0.24,18.22,18.21,0,0,3
31995,66006287,0,0.62,0,-0.24,18.22,18.21,0,0,3
32041,66019436,0,0.62,0,-0.24,18.22,18.21,0,0,3
32081,66029980,0,0.62,0,-0.24,18.22,18.21,0,0,3
32122,66040018,0,0.62,0,-0.24,18.22,18.21,0,0,3
32163,66050165,0,0.62,0,-0.24,18.22,18.21,0,0,3
32203,66060272,0,0.62,0,-0.24,18.22,18.21,0,0,3
32244,66070769,0,0.62,0,-0.24,18.22,18.21,0,0,3
32291,66081442,0,0.62,0,-0.24,18.21,18.21,0,0,3
32332,66091888,0,0.62,0,-0.24,18.21,18.2,0,0,3
32373,66101763,0,0.62,0,-0.24,18.21,18.2,0,0,3
32414,66111814,0,0.62,0,-0.24,18.21,18.2,0,0,3
32456,66121390,0,0.62,0,-0.24,18.21,18.2,0,0,3
32496,66132068,0,0.62,0,-0.24,18.21,18.2,0,0,3
32537,66142025,0,0.62,0,-0.24,18.21,18.2,0,0,3
32577,66151908,0,0.62,0,-0.24,18.21,18.2,0,0,3
32619,66161520,0,0.62,0,-0.24,18.21,18.2,0,0,3
32660,66171775,0,0.62,0,-0.24,18.21,18.2,0,0,3
32704,66182488,0,0.62,0,-0.24,18.21,18.2,0,0,3
32747,66193017,0,0.62,0,-0.24,18.2,18.2,0,0,3
32785,66206476,0,0.62,0,-0.24,18.2,18.19,0,0,3
32826,66216501,0,0.62,0,-0.24,18.2,18.19,0,0,3
32867,66227310,0,0.62,0,-0.24,18.2,18.19,0,0,3
32908,66237486,0,0.62,0,-0.24,18.2,18.19,0,0,3
32949,66247131,0,0.62,0,-0.24,18.2,18.19,0,0,3
32989,66257410,0,0.62,0,-0.24,18.2,18.19,0,0,3
33030,66267313,0,0.62,0,-0.24,18.2,18.19,0,0,3
33070,66276981,0,0.62,0,-0.24,18.2,18.19,0,0,3
33116,66287757,0,0.62,0,-0.24,18.2,18.19,0,0,3
33157,66297646,0,0.62,0,-0.24,18.2,18.19,0,0,3
33197,66307756,0,0.62,0,-0.24,18.2,18.19,0,0,3
33238,66318156,0,0.63,0,-0.24,18.2,18.19,0,0,3
33278,66328788,0,0.63,0,-0.24,18.2,18.19,0,0,3
33320,66338874,0,0.63,0,-0.25,18.2,18.19,0,0,3
33360,66349166,0,0.63,0,-0.25,18.2,18.19,0,0,3
33401,66359517,0,0.63,0,-0.25,18.2,18.19,0,0,3
33444,66369019,0,0.63,0,-0.25,18.2,18.19,0,0,3
33484,66379889,0,0.63,0,-0.25,18.2,18.19,0,0,3
33529,66390137,0,0.63,0,-0.25,18.2,18.19,0,0.01,3
33571,66400068,0,0.63,0,-0.25,18.2,18.19,0,0.01,3
33606,66410328,0,0.63,0,-0.25,18.2,18.19,0,0.01,3
33647,66420326,0,0.63,0,-0.25,18.2,18.19,0,0.01,3
33687,66430938,0,0.63,0,-0.25,18.2,18.19,0,0.01,3
33728,66440903,0,0.63,0,-0.25,18.2,18.19,0,0.01,3
33769,66451327,0,0.63,0,-0.25,18.2,18.19,0,0.01,3
33810,66461392,0,0.63,0,-0.25,18.2,18.19,0,0.01,3
33852,66471173,0,0.63,0,-0.25,18.19,18.19,0,0.01,3
33892,66481677,0,0.63,0,-0.25,18.19,18.19,0,0.01,3
33937,66491448,0,0.63,0,-0.25,18.19,18.18,0,0.01,3
33977,66501164,0,0.64,0,-0.25,18.19,18.18,0,0.01,3
34019,66511264,0,0.64,0,-0.25,18.19,18.18,0,0.01,3
34060,66521317,0,0.64,0,-0.25,18.19,18.18,0,0.01,3
34103,66533942,0,0.64,0,-0.25,18.19,18.18,0,0.01,3
34144,66544258,0,0.64,0,-0.25,18.19,18.18,0,0.01,3
34185,66554793,0,0.64,0,-0.25,18.18,18.18,0,0.01,3
34227,66564888,0,0.64,0,-0.25,18.18,18.18,0,0.01,3
34268,66575147,0,0.64,0,-0.25,18.18,18.17,0,0.01,3
34311,66585259,0,0.64,0,-0.25,18.18,18.17,0,0.01,3
34349,66595706,0,0.65,0,-0.25,18.18,18.17,0,0.01,3
34390,66606015,0,0.65,0,-0.25,18.18,18.17,0,0.01,3
34431,66616434,0,0.65,0,-0.25,18.18,18.17,0,0.01,3
34472,66626390,0,0.65,0,-0.25,18.18,18.17,0,0.01,3
34513,66636343,0,0.65,0,-0.25,18.18,18.17,0,0.01,3
34553,66646269,0,0.65,0,-0.25,18.17,18.17,0,0.01,3
34594,66656874,0,0.65,0,-0.25,18.17,18.17,0,0.01,3
34634,66666545,0,0.65,0,-0.26,18.17,18.16,0,0.01,3
34675,66677124,0,0.65,0,-0.26,18.17,18.16,0,0.01,3
34717,66686515,0,0.65,0,-0.26,18.17,18.16,0,0.01,3
34762,66696892,0,0.65,0,-0.26,18.17,18.16,0,0.01,3
34803,66706969,0,0.66,0,-0.26,18.17,18.16,0,0.01,3
34843,66716760,0,0.66,0,-0.26,18.17,18.16,0,0.01,3
34884,66727164,0,0.66,0,-0.26,18.17,18.16,0,0.01,3
34928,66739876,0,0.66,0,-0.26,18.16,18.16,0,0.01,3
34969,66750259,0,0.66,0,-0.26,18.16,18.16,0,0.01,3
35010,66760464,0,0.66,0,-0.26,18.16,18.15,0,0.01,3
35050,66770389,0,0.66,0,-0.26,18.16,18.15,0,0.01,3
35092,66780122,0,0.66,0,-0.26,18.16,18.15,0,0.01,3
35128,66790915,0,0.66,0,-0.26,18.16,18.15,0,0.01,3
35175,66801469,0,0.66,0,-0.26,18.16,18.15,0,0.01,3
35217,66811439,0,0.66,0,-0.26,18.16,18.15,0,0.01,3
35258,66821753,0,0.66,0,-0.26,18.16,18.15,0,0.01,3
35299,66831774,0,0.66,0,-0.25,18.15,18.15,0,0.01,3
35339,66841791,0,0.66,0,-0.26,18.15,18.15,0,0.01,3
35379,66851987,0,0.66,0,-0.26,18.15,18.14,0,0.01,3
35423,66861580,0,0.66,0,-0.25,18.15,18.14,0,0.01,3
35464,66871524,0,0.66,0,-0.26,18.15,18.14,0,0.01,3
35507,66882258,0,0.66,0,-0.26,18.15,18.14,0,0.01,3
35549,66892200,0,0.67,0,-0.25,18.15,18.14,0,0.01,3
35594,66902478,0,0.67,0,-0.25,18.15,18.14,0,0.01,3
35634,66911997,0,0.67,0,-0.25,18.15,18.14,0,0.01,3
35676,66922108,0,0.67,0,-0.25,18.14,18.14,0,0.01,3
35716,66932558,0,0.66,0,-0.25,18.14,18.14,0,0.01,3
35757,66942710,0,0.66,0,-0.25,18.14,18.13,0,0.01,3
35797,66952869,0,0.66,0,-0.25,18.14,18.13,0,0.01,3
35838,66962743,0,0.66,0,-0.25,18.14,18.13,0,0.01,3
35880,66972536,0,0.66,0,-0.25,18.14,18.14,0,0.01,3
35921,66982987,0,0.66,0,-0.25,18.14,18.13,0,0.01,3
35965,66996792,0,0.66,0,-0.25,18.14,18.13,0,0.01,3
36006,67006731,0,0.66,0,-0.25,18.14,18.13,0,0.01,3
36046,67017149,0,0.66,0,-0.25,18.14,18.13,0,0.01,3
36088,67026760,0,0.67,0,-0.25,18.14,18.13,0,0.01,3
36128,67037480,0,0.67,0,-0.25,18.14,18.13,0,0.01,3
36169,67047951,0,0.67,0,-0.25,18.14,18.13,0,0.01,3
36209,67058486,0,0.67,0,-0.25,18.14,18.13,0,0.01,3
36250,67068428,0,0.67,0,-0.25,18.14,18.13,0,0.01,3
36291,67078533,0,0.67,0,-0.25,18.14,18.13,0,0.01,3
36333,67088918,0,0.67,0,-0.25,18.14,18.13,0,0.01,3
36380,67099549,0,0.67,0,-0.25,18.14,18.13,0,0.01,3
36420,67109593,0,0.66,0,-0.25,18.14,18.13,0,0.01,3
36462,67119923,0,0.66,0,-0.25,18.14,18.13,0,0.01,3
36502,67129929,0,0.66,0,-0.25,18.14,18.13,0,0.01,3
36543,67140041,0,0.66,0,-0.25,18.14,18.13,0,0.01,3
36583,67150151,0,0.66,0,-0.25,18.13,18.12,0,0.01,3
36625,67160156,0,0.66,0,-0.25,18.13,18.12,0,0.01,3
36666,67170280,0,0.66,0,-0.25,18.13,18.12,0,0.01,3
36706,67180801,0,0.66,0,-0.25,18.13,18.12,0,0.01,3
36750,67191015,0,0.66,0,-0.25,18.13,18.12,0,0.01,3
36789,67201786,0,0.66,0,-0.25,18.13,18.12,0,0.01,3
36829,67211702,0,0.66,0,-0.25,18.13,18.12,0,0.01,3
36870,67221392,0,0.66,0,-0.25,18.13,18.12,0,0.01,3
36910,67231874,0,0.66,0,-0.25,18.13,18.12,0,0.01,3
36955,67244534,0,0.66,0,-0.25,18.13,18.12,0,0.01,3
36995,67254474,0,0.66,0,-0.25,18.13,18.12,0,0.01,3
37036,67265089,0,0.66,0,-0.26,18.13,18.12,0,0.01,3
37077,67275029,0,0.66,0,-0.26,18.12,18.11,0,0.01,3
37118,67285176,0,0.66,0,-0.26,18.12,18.11,0,0.01,3
37159,67295045,0,0.66,0,-0.26,18.12,18.11,0,0.01,3
37204,67305513,0,0.66,0,-0.26,18.12,18.11,0,0.01,3
37245,67315945,0,0.66,0,-0.26,18.12,18.11,0,0.01,3
37285,67325946,0,0.66,0,-0.26,18.12,18.11,0,0.01,3
37327,67335985,0,0.65,0,-0.26,18.12,18.11,0,0.01,3
37368,67345892,0,0.65,0,-0.26,18.12,18.11,0,0.01,3
37410,67356298,0,0.65,0,-0.26,18.12,18.11,0,0.01,3
37451,67366507,0,0.65,0,-0.26,18.12,18.11,0,0.01,3
37492,67376391,0,0.65,0,-0.27,18.12,18.11,0,0.01,3
37533,67386273,0,0.65,0,-0.27,18.12,18.11,0,0.01,3
37576,67398998,0,0.65,0,-0.27,18.12,18.11,0,0.01,3
37617,67409142,0,0.65,0,-0.27,18.12,18.11,0,0.01,3
37658,67419515,0,0.65,0,-0.27,18.12,18.11,0,0.01,3
37698,67429567,0,0.66,0,-0.27,18.12,18.11,0,0.01,3
37739,67439585,0,0.66,0,-0.27,18.12,18.11,0,0.01,3
37780,67449984,0,0.66,0,-0.27,18.12,18.11,0,0.01,3
37821,67459955,0,0.66,0,-0.27,18.12,18.11,0,0.01,3
37861,67470532,0,0.66,0,-0.27,18.12,18.11,0,0.01,3
37903,67480883,0,0.66,0,-0.27,18.12,18.11,0,0.01,3
37944,67490953,0,0.66,0,-0.27,18.12,18.11,0,0.01,3
37984,67500886,0,0.66,0,-0.27,18.12,18.11,0,0.01,3
38030,67510546,0,0.66,0,-0.27,18.12,18.11,0,0.01,3
38071,67520955,0,0.66,0,-0.27,18.12,18.11,0,0.01,3
38112,67531127,0,0.66,0,-0.27,18.12,18.11,0,0.01,3
38152,67541131,0,0.66,0,-0.27,18.12,18.11,0,0.01,3
38194,67550999,0,0.66,0,-0.27,18.12,18.11,0,0.01,3
38235,67561061,0,0.66,0,-0.27,18.12,18.11,0,0.01,3
38275,67571020,0,0.66,0,-0.27,18.12,18.11,0,0.01,3
38317,67581755,0,0.66,0,-0.27,18.12,18.11,0,0.01,3
38357,67591674,0,0.66,0,-0.27,18.11,18.1,0,0.01,3
38400,67601954,0,0.66,0,-0.27,18.11,18.1,0,0.01,3
38439,67612018,0,0.66,0,-0.27,18.11,18.1,0,0.01,3
38480,67622044,0,0.66,0,-0.27,18.11,18.1,0,0.01,3
38521,67632397,0,0.66,0,-0.27,18.11,18.1,0,0.01,3
38563,67642177,0,0.66,0,-0.27,18.11,18.1,0,0.01,3
38603,67653095,0,0.66,0,-0.27,18.11,18.1,0,0.01,3
38643,67663795,0,0.66,0,-0.27,18.11,18.1,0,0.01,3
38683,67674021,0,0.66,0,-0.27,18.11,18.1,0,0.01,3
38725,67684311,0,0.66,0,-0.27,18.11,18.1,0,0.01,3
38765,67694778,0,0.66,0,-0.27,18.1,18.09,0,0.01,3
38806,67704566,0,0.66,0,-0.27,18.1,18.09,0,0.01,3
38851,67714891,0,0.66,0,-0.27,18.1,18.09,0,0.01,3
38893,67724790,0,0.66,0,-0.27,18.1,18.09,0,0.01,3
38934,67735024,0,0.66,0,-0.27,18.1,18.09,0,0.01,3
38974,67745145,0,0.66,0,-0.27,18.1,18.09,0,0.01,3
39018,67757541,0,0.66,0,-0.27,18.1,18.09,0,0.01,3
39059,67767899,0,0.66,0,-0.27,18.1,18.09,0,0.01,3
39100,67777924,0,0.66,0,-0.27,18.1,18.09,0,0.01,3
39140,67787921,0,0.65,0,-0.27,18.09,18.08,0,0.01,3
39181,67798005,0,0.65,0,-0.27,18.09,18.08,0,0.01,3
39230,67813746,0,0.65,0,-0.27,18.09,18.08,0,0.01,3
39271,67823799,0,0.65,0,-0.27,18.09,18.08,0,0.01,3
39313,67834256,0,0.65,0,-0.27,18.09,18.08,0,0.01,3
39353,67844630,0,0.65,0,-0.27,18.09,18.08,0,0.01,3
39396,67854358,0,0.65,0,-0.27,18.09,18.08,0,0.01,3
39438,67864342,0,0.65,0,-0.27,18.08,18.07,0,0.01,3
39478,67874336,0,0.65,0,-0.27,18.08,18.07,0,0.01,3
39519,67884405,0,0.65,0,-0.27,18.08,18.07,0,0.01,3
39559,67894552,0,0.65,0,-0.27,18.08,18.07,0,0.01,3
39601,67904327,0,0.65,0,-0.27,18.08,18.07,0,0.01,3
39645,67914734,0,0.65,0,-0.27,18.08,18.07,0,0.01,3
39686,67924791,0,0.65,0,-0.27,18.08,18.07,0,0.01,3
39729,67935002,0,0.65,0,-0.27,18.08,18.07,0,0.01,3
39770,67944560,0,0.65,0,-0.27,18.08,18.07,0,0.01,3
39814,67957137,0,0.65,0,-0.27,18.08,18.07,0,0.01,3
39854,67967470,0,0.65,0,-0.27,18.08,18.07,0,0.01,3
39895,67977138,0,0.65,0,-0.27,18.08,18.07,0,0.01,3
39936,67987466,0,0.65,0,-0.27,18.08,18.07,0,0.01,3
39976,67997097,0,0.65,0,-0.27,18.08,18.07,0,0.01,3
40017,68007531,0,0.65,0,-0.27,18.08,18.07,0,0.01,3
40058,68017768,0,0.65,0,-0.27,18.08,18.07,0,0.01,3
40099,68028267,0,0.65,0,-0.27,18.08,18.07,0,0.01,3
40139,68038782,0,0.65,0,-0.27,18.08,18.07,0,0.01,3
40181,68048977,0,0.65,0,-0.27,18.08,18.07,0,0.01,3
40222,68058756,0,0.65,0,-0.27,18.08,18.07,0,0.01,3
40262,68068961,0,0.65,0,-0.27,18.08,18.07,0,0.01,3
40303,68079119,0,0.66,0,-0.27,18.07,18.07,0,0.01,3
40343,68089307,0,0.66,0,-0.27,18.07,18.06,0,0.01,3
40385,68099561,0,0.66,0,-0.27,18.07,18.06,0,0.01,3
40425,68109317,0,0.66,0,-0.27,18.07,18.06,0,0.01,3
40472,68119454,0,0.66,0,-0.27,18.07,18.06,0,0.01,3
40513,68129356,0,0.66,0,-0.27,18.07,18.06,0,0.01,3
40554,68139713,0,0.66,0,-0.27,18.07,18.06,0,0.01,3
40595,68149359,0,0.66,0,-0.27,18.07,18.06,0,0.01,3
40635,68160013,0,0.66,0,-0.27,18.07,18.06,0,0.01,3
40677,68170018,0,0.66,0,-0.27,18.07,18.06,0,0.01,3
40717,68180522,0,0.66,0,-0.27,18.07,18.06,0,0.01,3
40760,68190310,0,0.66,0,-0.27,18.07,18.06,0,0.01,3
40795,68200744,0,0.66,0,-0.27,18.07,18.06,0,0.01,3
40835,68210806,0,0.66,0,-0.27,18.07,18.06,0,0.01,3
40881,68221134,0,0.66,0,-0.27,18.07,18.06,0,0.01,3
40921,68231395,0,0.66,0,-0.27,18.07,18.06,0,0.01,3
40963,68241300,0,0.66,0,-0.27,18.07,18.06,0,0.01,3
41004,68251164,0,0.66,0,-0.27,18.07,18.06,0,0.01,3
41045,68261294,0,0.66,0,-0.27,18.07,18.06,0,0.01,3
41089,68273787,0,0.66,0,-0.27,18.07,18.06,0,0.01,3
41129,68283962,0,0.66,0,-0.27,18.07,18.06,0,0.01,3
41170,68294340,0,0.66,0,-0.27,18.07,18.06,0,0.01,3
41211,68304798,0,0.66,0,-0.27,18.07,18.06,0,0.01,3
41252,68314916,0,0.66,0,-0.27,18.07,18.06,0,0.01,3
41297,68325320,0,0.66,0,-0.27,18.07,18.06,0,0.01,3
41337,68335793,0,0.66,0,-0.27,18.07,18.06,0,0.01,3
41380,68345718,0,0.66,0,-0.27,18.07,18.06,0,0.01,3
41420,68356343,0,0.66,0,-0.27,18.07,18.06,0,0.01,3
41461,68366801,0,0.66,0,-0.27,18.07,18.06,0,0.01,3
41503,68376561,0,0.66,0,-0.27,18.07,18.06,0,0.01,3
41544,68387014,0,0.66,0,-0.27,18.07,18.06,0,0.01,3
41584,68400019,0,0.66,0,-0.27,18.07,18.06,0,0.01,3
41624,68410498,0,0.66,0,-0.27,18.07,18.06,0,0.01,3
41665,68420328,0,0.66,0,-0.27,18.07,18.06,0,0.01,3
41710,68430339,0,0.66,0,-0.27,18.07,18.06,0,0.01,3
41751,68440160,0,0.66,0,-0.27,18.06,18.05,0,0.01,3
41792,68450359,0,0.66,0,-0.27,18.06,18.05,0,0.01,3
41832,68460122,0,0.66,0,-0.27,18.06,18.05,0,0.01,3
41873,68470562,0,0.66,0,-0.27,18.06,18.05,0,0.01,3
41915,68480399,0,0.66,0,-0.27,18.06,18.05,0,0.01,3
41956,68490889,0,0.66,0,-0.27,18.06,18.05,0,0.01,3
41996,68500393,0,0.66,0,-0.27,18.06,18.05,0,0.01,3
42037,68510542,0,0.66,0,-0.27,18.07,18.06,0,0.01,3
42079,68520385,0,0.66,0,-0.27,18.07,18.06,0,0.01,3
42123,68530525,0,0.66,0,-0.27,18.07,18.06,0,0.01,3
42164,68540512,0,0.66,0,-0.26,18.07,18.06,0,0.01,3
42204,68550798,0,0.65,0,-0.27,18.07,18.06,0,0.01,3
42245,68560479,0,0.65,0,-0.27,18.07,18.06,0,0.01,3
42286,68570503,0,0.65,0,-0.27,18.06,18.05,0,0.01,3
42327,68580538,0,0.65,0,-0.27,18.06,18.05,0,0.01,3
42372,68591003,0,0.65,0,-0.26,18.06,18.05,0,0.01,3
42409,68603560,0,0.65,0,-0.27,18.06,18.05,0,0.01,3
42450,68614141,0,0.65,0,-0.27,18.06,18.05,0,0.01,3
42498,68626946,0,0.65,0,-0.27,18.06,18.05,0,0.01,3
42539,68636967,0,0.65,0,-0.27,18.06,18.05,0,0.01,3
42580,68646529,0,0.65,0,-0.27,18.06,18.05,0,0.01,3
42620,68656726,0,0.65,0,-0.27,18.06,18.05,0,0.01,3
42661,68666886,0,0.66,0,-0.26,18.06,18.05,0,0.01,3
42705,68678952,0,0.66,0,-0.26,18.06,18.05,0,0.01,3
42747,68689382,0,0.65,0,-0.27,18.06,18.05,0,0.01,3
42788,68699436,0,0.65,0,-0.27,18.06,18.05,0,0.01,3
42829,68709796,0,0.65,0,-0.27,18.05,18.05,0,0.01,3
42870,68719472,0,0.65,0,-0.27,18.05,18.04,0,0.01,3
42914,68729948,0,0.65,0,-0.27,18.05,18.04,0,0.01,3
42955,68740369,0,0.65,0,-0.27,18.05,18.04,0,0.01,3
42996,68750320,0,0.65,0,-0.27,18.05,18.04,0,0.01,3
43036,68760315,0,0.65,0,-0.27,18.05,18.04,0,0.01,3
43078,68770368,0,0.65,0,-0.27,18.05,18.04,0,0.01,3
43118,68780867,0,0.65,0,-0.27,18.05,18.04,0,0.01,3
43160,68791161,0,0.65,0,-0.27,18.05,18.04,0,0.01,3
43203,68806906,0,0.65,0,-0.27,18.05,18.04,0,0.01,3
43244,68817146,0,0.65,0,-0.27,18.05,18.04,0,0.01,3
43290,68827372,0,0.65,0,-0.27,18.05,18.04,0,0.01,3
43332,68837533,0,0.65,0,-0.27,18.04,18.03,0,0.01,3
43373,68847336,0,0.65,0,-0.27,18.04,18.03,0,0.01,3
43415,68856983,0,0.65,0,-0.27,18.04,18.03,0,0.01,3
43456,68867309,0,0.65,0,-0.27,18.04,18.03,0,0.01,3
43497,68877485,0,0.65,0,-0.27,18.04,18.03,0,0.01,3
43537,68887711,0,0.65,0,-0.27,18.04,18.03,0,0.01,3
43578,68897298,0,0.65,0,-0.27,18.04,18.03,0,0.01,3
43621,68907034,0,0.65,0,-0.27,18.04,18.03,0,0.01,3
43661,68917302,0,0.65,0,-0.28,18.04,18.03,0,0.01,3
43706,68927907,0,0.65,0,-0.28,18.04,18.03,0,0.01,3
43746,68938364,0,0.65,0,-0.28,18.04,18.03,0,0.01,3
43787,68948775,0,0.65,0,-0.28,18.04,18.03,0,0.01,3
43828,68958562,0,0.65,0,-0.28,18.04,18.03,0,0.01,3
43870,68968986,0,0.65,0,-0.28,18.04,18.03,0,0.01,3
43910,68978560,0,0.66,0,-0.28,18.04,18.03,0,0.01,3
43952,68989163,0,0.66,0,-0.28,18.03,18.03,0,0.01,3
43996,69004309,0,0.66,0,-0.28,18.03,18.02,0,0.01,3
44036,69014797,0,0.66,0,-0.28,18.03,18.02,0,0.01,3
44078,69025094,0,0.66,0,-0.28,18.03,18.02,0,0.01,3
44129,69036257,0,0.66,0,-0.28,18.03,18.02,0,0.01,3
44169,69046003,0,0.65,0,-0.28,18.03,18.02,0,0.01,3
44210,69056035,0,0.65,0,-0.28,18.03,18.02,0,0.01,3
44250,69065932,0,0.65,0,-0.28,18.03,18.02,0,0.01,3
44291,69076162,0,0.65,0,-0.28,18.03,18.02,0,0.01,3
44331,69085964,0,0.65,0,-0.28,18.03,18.02,0,0.01,3
44373,69096065,0,0.65,0,-0.28,18.03,18.02,0,0.01,3
44414,69106332,0,0.65,0,-0.28,18.03,18.02,0,0.01,3
44454,69116253,0,0.65,0,-0.28,18.03,18.02,0,0.01,3
44496,69125959,0,0.65,0,-0.28,18.03,18.02,0,0.01,3
44542,69135927,0,0.65,0,-0.28,18.03,18.02,0,0.01,3
44584,69146128,0,0.66,0,-0.28,18.03,18.02,0,0.01,3
44624,69155945,0,0.66,0,-0.28,18.03,18.02,0,0.01,3
44665,69166143,0,0.66,0,-0.27,18.03,18.02,0,0.01,3
44706,69175992,0,0.66,0,-0.28,18.03,18.02,0,0.01,3
44747,69185973,0,0.66,0,-0.28,18.03,18.02,0,0.01,3
44788,69196140,0,0.66,0,-0.28,18.03,18.02,0,0.01,3
44830,69206069,0,0.66,0,-0.28,18.03,18.02,0,0.01,3
44865,69216732,0,0.66,0,-0.28,18.03,18.02,0,0.01,3
44910,69226519,0,0.66,0,-0.28,18.03,18.02,0,0.01,3
44960,69236735,0,0.65,0,-0.27,18.03,18.02,0,0.01,3
45005,69246524,0,0.66,0,-0.27,18.03,18.02,0,0.01,3
45050,69257144,0,0.66,0,-0.27,18.03,18.02,0,0.01,3
45094,69267448,0,0.66,0,-0.27,18.03,18.02,0,0.01,3
45139,69277276,0,0.65,0,-0.27,18.03,18.02,0,0.01,3
45183,69287009,0,0.66,0,-0.27,18.03,18.02,0,0.01,3
45228,69297125,0,0.66,0,-0.27,18.03,18.02,0,0.01,3
45272,69307546,0,0.66,0,-0.27,18.03,18.02,0,0.01,3
45318,69317744,0,0.66,0,-0.27,18.03,18.02,0,0.01,3
45362,69327312,0,0.66,0,-0.27,18.03,18.02,0,0.01,3
45414,69337288,0,0.66,0,-0.27,18.03,18.02,0,0.01,3
45459,69347351,0,0.66,0,-0.27,18.03,18.02,0,0.01,3
45503,69357782,0,0.66,0,-0.27,18.03,18.02,0,0.01,3
45549,69367711,0,0.66,0,-0.27,18.03,18.02,0,0.01,3
45596,69381001,0,0.66,0,-0.27,18.03,18.02,0,0.01,3
45640,69394325,0,0.66,0,-0.27,18.03,18.02,0,0.01,3
45684,69404907,0,0.66,0,-0.27,18.03,18.02,0,0.01,3
45729,69414930,0,0.66,0,-0.27,18.03,18.02,0,0.01,3
45775,69425372,0,0.66,0,-0.27,18.03,18.02,0,0.01,3
45822,69436026,0,0.66,0,-0.27,18.03,18.02,0,0.01,3
45868,69445979,0,0.66,0,-0.27,18.03,18.02,0,0.01,3
45913,69455932,0,0.66,0,-0.27,18.03,18.02,0,0.01,3
45958,69466088,0,0.66,0,-0.27,18.03,18.02,0,0.01,3
46002,69476083,0,0.66,0,-0.27,18.03,18.02,0,0.01,3
46047,69487114,0,0.67,0,-0.27,18.03,18.02,0,0.01,3
46093,69497318,0,0.67,0,-0.27,18.03,18.02,0,0.01,3
46137,69506965,0,0.67,0,-0.27,18.03,18.02,0,0.01,3
46182,69516919,0,0.67,0,-0.27,18.03,18.02,0,0.01,3
46226,69527478,0,0.67,0,-0.27,18.03,18.02,0,0.01,3
46274,69537889,0,0.67,0,-0.27,18.02,18.02,0,0.01,3
46319,69547879,0,0.67,0,-0.27,18.02,18.01,0,0.01,3
46365,69558124,0,0.67,0,-0.27,18.02,18.01,0,0.01,3
46410,69567941,0,0.67,0,-0.27,18.02,18.01,0,0.01,3
46454,69577541,0,0.67,0,-0.27,18.02,18.01,0,0.01,3
46501,69587950,0,0.67,0,-0.27,18.02,18.01,0,0.01,3
46543,69601375,0,0.67,0,-0.27,18.02,18.01,0,0.01,3
46589,69611947,0,0.67,0,-0.27,18.02,18.01,0,0.01,3
46634,69622307,0,0.67,0,-0.27,18.02,18.01,0,0.01,3
46678,69632713,0,0.67,0,-0.27,18.01,18,0,0.01,3
46727,69642360,0,0.67,0,-0.27,18.01,18,0,0.01,3
46771,69652258,0,0.67,0,-0.27,18.01,18,0,0.01,3
46817,69662373,0,0.67,0,-0.27,18.01,18,0,0.01,3
46862,69672552,0,0.67,0,-0.27,18.01,18,0,0.01,3
46910,69685669,0,0.67,0,-0.27,18.01,18,0,0.01,3
46954,69696084,0,0.67,0,-0.27,18.01,18,0,0.01,3
46998,69706330,0,0.67,0,-0.27,18.01,18,0,0.01,3
47042,69716056,0,0.67,0,-0.27,18.01,18,0,0.01,3
47088,69726128,0,0.67,0,-0.27,18,17.99,0,0.01,3
47132,69736108,0,0.67,0,-0.27,18,17.99,0,0.01,3
47181,69746087,0,0.67,0,-0.27,18,17.99,0,0.01,3
47226,69756153,0,0.67,0,-0.27,18,17.99,0,0.01,3
47272,69765996,0,0.67,0,-0.27,18,17.99,0,0.01,3
47316,69776166,0,0.67,0,-0.27,18,17.99,0,0.01,3
47364,69788405,0,0.68,0,-0.27,18,17.99,0,0.01,3
47408,69801496,0,0.68,0,-0.27,18,17.99,0,0.01,3
47450,69811880,0,0.68,0,-0.27,18,17.99,0,0.01,3
47495,69822360,0,0.68,0,-0.27,18,17.99,0,0.01,3
47541,69832935,0,0.68,0,-0.27,18,17.99,0,0.01,3
47590,69843712,0,0.68,0,-0.27,17.99,17.99,0,0.01,3
47636,69853374,0,0.68,0,-0.27,18,17.99,0,0.01,3
47681,69864253,0,0.68,0,-0.27,17.99,17.99,0,0.01,3
47727,69874276,0,0.68,0,-0.27,17.99,17.99,0,0.01,3
47771,69884278,0,0.68,0,-0.27,17.99,17.99,0,0.01,3
47820,69896674,0,0.68,0,-0.27,17.99,17.98,0,0.01,3
47865,69907129,0,0.67,0,-0.27,17.99,17.98,0,0.01,3
47910,69916700,0,0.67,0,-0.27,17.99,17.98,0,0.01,3
47955,69926693,0,0.67,0,-0.27,17.99,17.98,0,0.01,3
47999,69937134,0,0.67,0,-0.26,17.99,17.98,0,0.01,3
48049,69946915,0,0.67,0,-0.26,17.99,17.98,0,0.01,3
48093,69957257,0,0.67,0,-0.26,17.99,17.98,0,0.01,3
48139,69966765,0,0.67,0,-0.26,17.98,17.98,0,0.01,3
48184,69976918,0,0.68,0,-0.26,17.98,17.98,0,0.01,3
48231,69989166,0,0.68,0,-0.26,17.98,17.98,0,0.01,3
48278,70001935,0,0.68,0,-0.26,17.98,17.98,0,0.01,3
48319,70012462,0,0.68,0,-0.26,17.98,17.98,0,0.01,3
48365,70022302,0,0.68,0,-0.26,17.98,17.97,0,0.01,3
48410,70032738,0,0.68,0,-0.26,17.98,17.97,0,0.01,3
48455,70042710,0,0.67,0,-0.26,17.98,17.97,0,0.01,3
48504,70052692,0,0.67,0,-0.26,17.98,17.97,0,0.01,3
48549,70062494,0,0.67,0,-0.26,17.98,17.97,0,0.01,3
48595,70072990,0,0.67,0,-0.26,17.98,17.97,0,0.01,3
48640,70083393,0,0.67,0,-0.26,17.98,17.97,0,0.01,3
48681,70092984,0,0.67,0,-0.26,17.98,17.97,0,0.01,3
48726,70102907,0,0.67,0,-0.26,17.98,17.97,0,0.01,3
48771,70113515,0,0.67,0,-0.26,17.98,17.97,0,0.01,3
48815,70123361,0,0.67,0,-0.26,17.98,17.97,0,0.01,3
48860,70133795,0,0.67,0,-0.26,17.98,17.97,0,0.01,3
48906,70143800,0,0.67,0,-0.26,17.98,17.97,0,0.01,3
48955,70153776,0,0.67,0,-0.26,17.98,17.97,0,0.01,3
48999,70164103,0,0.67,0,-0.26,17.98,17.98,0,0.01,3
49045,70173693,0,0.67,0,-0.26,17.99,17.98,0,0.01,3
49089,70184348,0,0.67,0,-0.26,17.99,17.98,0,0.01,3
49135,70194418,0,0.67,0,-0.26,17.99,17.98,0,0.01,3
49182,70204397,0,0.67,0,-0.26,17.99,17.98,0.01,0.01,3
49220,70215384,0,0.67,0,-0.26,17.99,17.98,0.01,0.01,3
49264,70225921,0,0.67,0,-0.26,17.99,17.98,0.01,0.01,3
49309,70235903,0,0.67,0,-0.26,17.99,17.98,0.01,0.01,3
49355,70246281,0,0.67,0,-0.26,17.99,17.98,0.01,0.01,3
49403,70256664,0,0.67,0,-0.27,17.99,17.98,0.01,0.01,3
49448,70266719,0,0.67,0,-0.27,17.99,17.98,0.01,0.01,3
49492,70276964,0,0.67,0,-0.27,17.99,17.99,0.01,0.01,3
49538,70286376,0,0.67,0,-0.27,17.99,17.99,0.01,0.01,3
49580,70296533,0,0.67,0,-0.27,17.99,17.99,0.01,0.01,3
49624,70306966,0,0.67,0,-0.27,18,17.99,0.01,0.01,3
49669,70317334,0,0.67,0,-0.26,18,17.99,0.01,0.01,3
49717,70327306,0,0.67,0,-0.26,18,17.99,0.01,0.01,3
49761,70337325,0,0.68,0,-0.26,18,17.99,0.01,0.01,3
49806,70347556,0,0.68,0,-0.26,18,17.99,0.01,0.01,3
49854,70357752,0,0.68,0,-0.26,18,18,0.01,0.01,3
49899,70367624,0,0.68,0,-0.27,18,18,0.01,0.01,3
49944,70377532,0,0.68,0,-0.27,18,18,0.01,0.01,3
49988,70388016,0,0.68,0,-0.27,18,18,0.02,0.01,3
50030,70399152,0,0.68,0,-0.27,18,18,0.02,0.01,3
50075,70409994,0,0.68,0,-0.27,18.01,18,0.02,0.01,3
50120,70420091,0,0.68,0,-0.27,18.01,18,0.02,0.01,3
50165,70430737,0,0.68,0,-0.27,18.01,18,0.02,0.01,3
50210,70440645,0,0.68,0,-0.27,18.01,18,0.02,0.01,3
50255,70450568,0,0.67,0,-0.26,18.01,18,0.02,0.01,3
50303,70460550,0,0.67,0,-0.26,18.01,18,0.02,0.01,3
50348,70470882,0,0.67,0,-0.26,18.01,18,0.02,0.01,3
50392,70481241,0,0.67,0,-0.26,18.01,18,0.02,0.01,3
50440,70493716,0,0.67,0,-0.26,18.01,18,0.02,0.01,3
50485,70504127,0,0.68,0,-0.26,18.01,18,0.02,0.01,3
50531,70514054,0,0.68,0,-0.27,18.01,18,0.02,0.01,3
50576,70524116,0,0.67,0,-0.27,18.01,18,0.02,0.01,3
50621,70534536,0,0.67,0,-0.27,18.01,18,0.02,0.01,3
50666,70544777,0,0.67,0,-0.27,18.01,18,0.02,0.01,3
50713,70554870,0,0.67,0,-0.27,18.01,18,0.02,0.01,3
50759,70564805,0,0.67,0,-0.27,18.01,18,0.02,0.01,3
50804,70574765,0,0.67,0,-0.27,18.01,18,0.02,0.01,3
50849,70585029,0,0.67,0,-0.27,18.01,18,0.02,0.01,3
50892,70598342,0,0.67,0,-0.27,18.01,18,0.03,0.01,3
50941,70610952,0,0.67,0,-0.27,18.01,18,0.03,0.01,3
50987,70621093,0,0.67,0,-0.27,18.01,18,0.03,0.01,3
51032,70631666,0,0.67,0,-0.27,18.01,18,0.03,0.01,3
51077,70641277,0,0.67,0,-0.27,18.01,18,0.03,0.01,3
51122,70651137,0,0.67,0,-0.27,18.01,18,0.03,0.01,3
51170,70661402,0,0.67,0,-0.27,18.01,18,0.03,0.01,3
51215,70671518,0,0.67,0,-0.27,18.01,18,0.03,0.01,3
51259,70681967,0,0.67,0,-0.27,18.01,18,0.03,0.01,3
51304,70691779,0,0.67,0,-0.27,18.01,18,0.03,0.01,3
51348,70701989,0,0.67,0,-0.27,18.01,18,0.03,0.01,3
51395,70711918,0,0.67,0,-0.27,18.01,18,0.03,0.01,3
51439,70722440,0,0.67,0,-0.27,18.01,18,0.03,0.01,3
51484,70732889,0,0.67,0,-0.27,18.01,18,0.03,0.01,3
51529,70742917,0,0.67,0,-0.27,18.01,18,0.03,0.01,3
51573,70752792,0,0.67,0,-0.27,18.01,18,0.03,0.01,3
51623,70762916,0,0.67,0,-0.27,18.01,18,0.03,0.01,3
51667,70773016,0,0.67,0,-0.27,18.01,18,0.03,0.01,3
51712,70782934,0,0.67,0,-0.27,18.01,18,0.03,0.01,3
