LineNo,TimeUS,DesRoll,Roll,DesPitch,Pitch,DesYaw,Yaw,ErrRP,ErrYaw,AEKF
296,5.796e+07,0,0.68,0,-0.18,19.08,19.07,0,0.01,3
526,5.8009e+07,0,0.67,0,-0.18,19.08,19.07,0,0,3
748,5.8053e+07,0,0.67,0,-0.18,19.07,19.06,0,0,3
1296,5.8278e+07,0,0.67,0,-0.18,19.07,19.06,0,0.01,3
1393,5.8293e+07,0,0.67,0,-0.18,19.06,19.06,0,0.01,3
1573,5.8328e+07,0,0.67,0,-0.18,19.06,19.05,0,0.01,3
1627,5.8338e+07,0,0.67,0,-0.18,19.06,19.05,0,0.01,3
1668,5.8348e+07,0,0.67,0,-0.18,19.06,19.05,0,0.01,3
1708,5.8358e+07,0,0.67,0,-0.18,19.06,19.05,0,0.01,3
1749,5.8369e+07,0,0.67,0,-0.18,19.06,19.05,0,0.01,3
1789,5.8382e+07,0,0.67,0,-0.18,19.05,19.05,0,0.01,3
1832,5.8393e+07,0,0.67,0,-0.18,19.05,19.04,0,0.01,3
1873,5.8403e+07,0,0.67,0,-0.18,19.05,19.04,0,0.01,3
1914,5.8413e+07,0,0.67,0,-0.18,19.04,19.04,0,0.01,3
1955,5.8424e+07,0,0.67,0,-0.18,19.04,19.03,0,0.01,3
1996,5.8435e+07,0,0.67,0,-0.18,19.04,19.03,0,0.01,3
2042,5.8444e+07,0,0.67,0,-0.18,19.04,19.03,0,0.01,3
2084,5.8455e+07,0,0.67,0,-0.18,19.03,19.02,0,0.01,3
2125,5.8465e+07,0,0.67,0,-0.18,19.03,19.02,0,0.01,3
2165,5.8475e+07,0,0.67,0,-0.18,19.03,19.02,0,0.01,3
2206,5.8485e+07,0,0.67,0,-0.18,19.02,19.01,0,0.01,3
2248,5.8495e+07,0,0.67,0,-0.18,19.02,19.01,0,0.01,3
2291,5.8505e+07,0,0.67,0,-0.18,19.02,19.01,0,0.01,3
2332,5.8515e+07,0,0.67,0,-0.19,19.01,19.01,0,0.01,3
2372,5.8525e+07,0,0.67,0,-0.19,19.01,19,0,0.01,3
2413,5.8535e+07,0,0.67,0,-0.19,19.01,19,0,0.01,3
2459,5.8545e+07,0,0.67,0,-0.19,19.01,19,0,0.01,3
2500,5.8556e+07,0,0.67,0,-0.19,19.01,19,0,0.01,3
2541,5.8566e+07,0,0.67,0,-0.19,19,19,0,0.01,3
2581,5.8576e+07,0,0.67,0,-0.19,19,18.99,0,0.01,3
2622,5.8586e+07,0,0.67,0,-0.19,19,18.99,0,0.01,3
2665,5.8597e+07,0,0.66,0,-0.19,19,18.99,0,0.01,3
2706,5.8607e+07,0,0.66,0,-0.19,19,18.99,0,0.01,3
2747,5.8617e+07,0,0.66,0,-0.19,19,18.99,0,0.01,3
2787,5.8627e+07,0,0.66,0,-0.19,19,18.99,0,0.01,3
2830,5.8638e+07,0,0.66,0,-0.19,19,18.99,0,0.01,3
2874,5.8648e+07,0,0.66,0,-0.19,19,18.99,0,0.01,3
2915,5.8658e+07,0,0.66,0,-0.19,19,18.99,0,0.01,3
2956,5.8669e+07,0,0.66,0,-0.19,19,18.99,0,0.01,3
2997,5.8679e+07,0,0.66,0,-0.19,18.99,18.99,0,0.01,3
3038,5.869e+07,0,0.66,0,-0.19,18.99,18.99,0,0.01,3
3078,5.87e+07,0,0.66,0,-0.19,18.99,18.99,0,0.01,3
3119,5.8712e+07,0,0.66,0,-0.19,19,18.99,0,0.01,3
3159,5.8723e+07,0,0.66,0,-0.19,19,18.99,0,0.01,3
3200,5.8733e+07,0,0.66,0,-0.19,19,18.99,0,0.01,3
3242,5.8744e+07,0,0.66,0,-0.19,19,18.99,0,0.01,3
3287,5.8754e+07,0,0.66,0,-0.19,19,18.99,0,0.01,3
3327,5.8764e+07,0,0.66,0,-0.19,19,18.99,0,0.01,3
3367,5.8774e+07,0,0.66,0,-0.19,19,18.99,0,0.01,3
3409,5.8785e+07,0,0.66,0,-0.19,19,18.99,0,0.01,3
3450,5.8795e+07,0,0.66,0,-0.19,19,18.99,0,0.01,3
3489,5.8806e+07,0,0.66,0,-0.19,19,18.99,0,0.01,3
3530,5.8816e+07,0,0.66,0,-0.19,19,18.99,0,0.01,3
3570,5.8826e+07,0,0.66,0,-0.19,19,18.99,0,0.01,3
3611,5.8836e+07,0,0.66,0,-0.19,19,18.99,0,0.01,3
3654,5.8846e+07,0,0.66,0,-0.19,19,18.99,0,0.01,3
3699,5.8857e+07,0,0.66,0,-0.19,19,18.99,0,0.01,3
3740,5.8867e+07,0,0.66,0,-0.19,18.99,18.99,0,0.01,3
3781,5.8877e+07,0,0.66,0,-0.19,19,18.99,0,0.01,3
3825,5.889e+07,0,0.66,0,-0.19,18.99,18.99,0,0.01,3
3865,5.8901e+07,0,0.66,0,-0.19,18.99,18.99,0,0.01,3
3906,5.8911e+07,0,0.66,0,-0.19,18.99,18.98,0,0.01,3
3946,5.8921e+07,0,0.66,0,-0.19,18.99,18.98,0,0.01,3
3987,5.8931e+07,0,0.66,0,-0.19,18.99,18.98,0,0.01,3
4028,5.8941e+07,0,0.66,0,-0.19,18.99,18.98,0,0.01,3
4072,5.8951e+07,0,0.66,0,-0.19,18.98,18.98,0,0.01,3
4118,5.8962e+07,0,0.66,0,-0.19,18.98,18.97,0,0.01,3
4159,5.8972e+07,0,0.66,0,-0.19,18.98,18.97,0,0.01,3
4200,5.8982e+07,0,0.66,0,-0.19,18.98,18.97,0,0.01,3
4243,5.8991e+07,0,0.66,0,-0.19,18.98,18.97,0,0.01,3
4287,5.9005e+07,0,0.66,0,-0.19,18.97,18.97,0,0.01,3
4327,5.9016e+07,0,0.66,0,-0.19,18.97,18.96,0,0.01,3
4368,5.9026e+07,0,0.66,0,-0.19,18.97,18.96,0,0.01,3
4410,5.9036e+07,0,0.66,0,-0.19,18.97,18.96,0,0.01,3
4450,5.9046e+07,0,0.66,0,-0.19,18.96,18.96,0,0.01,3
4495,5.9056e+07,0,0.66,0,-0.19,18.96,18.95,0,0.01,3
4536,5.9066e+07,0,0.66,0,-0.19,18.96,18.95,0,0.01,3
4578,5.9076e+07,0,0.66,0,-0.19,18.96,18.95,0,0.01,3
4619,5.9087e+07,0,0.66,0,-0.19,18.95,18.95,0,0.01,3
4659,5.9099e+07,0,0.66,0,-0.2,18.95,18.94,0,0.01,3
4700,5.911e+07,0,0.66,0,-0.2,18.95,18.94,0,0.01,3
4740,5.912e+07,0,0.66,0,-0.2,18.94,18.94,0,0.01,3
4781,5.9131e+07,0,0.66,0,-0.2,18.94,18.93,0,0.01,3
4822,5.9141e+07,0,0.66,0,-0.2,18.94,18.93,0,0.01,3
4862,5.9151e+07,0,0.66,0,-0.2,18.94,18.93,0,0.01,3
4907,5.9161e+07,0,0.66,0,-0.2,18.93,18.93,0,0.01,3
4947,5.9172e+07,0,0.66,0,-0.2,18.93,18.92,0,0.01,3
4990,5.9181e+07,0,0.66,0,-0.2,18.93,18.92,0,0.01,3
5030,5.9191e+07,0,0.66,0,-0.19,18.93,18.92,0,0.01,3
5070,5.9201e+07,0,0.65,0,-0.19,18.93,18.92,0,0.01,3
5110,5.9212e+07,0,0.65,0,-0.19,18.93,18.92,0,0.01,3
5151,5.9222e+07,0,0.65,0,-0.19,18.93,18.92,0,0.01,3
5192,5.9232e+07,0,0.65,0,-0.19,18.92,18.92,0,0.01,3
5232,5.9242e+07,0,0.65,0,-0.19,18.92,18.91,0,0.01,3
5274,5.9253e+07,0,0.65,0,-0.19,18.92,18.91,0,0.01,3
5318,5.9263e+07,0,0.65,0,-0.2,18.92,18.91,0,0.01,3
5359,5.9273e+07,0,0.65,0,-0.2,18.92,18.91,0,0.01,3
5401,5.9284e+07,0,0.65,0,-0.2,18.91,18.91,0,0.01,3
5441,5.9294e+07,0,0.65,0,-0.2,18.91,18.9,0,0.01,3
5482,5.9304e+07,0,0.65,0,-0.2,18.91,18.9,0,0.01,3
5522,5.9314e+07,0,0.65,0,-0.2,18.91,18.9,0,0.01,3
5563,5.9324e+07,0,0.65,0,-0.2,18.91,18.9,0,0.01,3
5603,5.9334e+07,0,0.65,0,-0.2,18.9,18.9,0,0.01,3
5644,5.9344e+07,0,0.65,0,-0.2,18.9,18.9,0,0.01,3
5684,5.9354e+07,0,0.65,0,-0.2,18.9,18.9,0,0.01,3
5728,5.9365e+07,0,0.65,0,-0.2,18.9,18.89,0,0.01,3
5769,5.9375e+07,0,0.65,0,-0.2,18.9,18.89,0,0.01,3
5810,5.9385e+07,0,0.65,0,-0.2,18.9,18.89,0,0.01,3
5852,5.9395e+07,0,0.65,0,-0.2,18.9,18.89,0,0.01,3
5894,5.9407e+07,0,0.65,0,-0.2,18.9,18.89,0,0.01,3
5935,5.9418e+07,0,0.65,0,-0.2,18.9,18.89,0,0.01,3
5976,5.9427e+07,0,0.65,0,-0.2,18.9,18.89,0,0.01,3
6016,5.9437e+07,0,0.65,0,-0.2,18.89,18.89,0,0.01,3
6060,5.9447e+07,0,0.65,0,-0.2,18.89,18.88,0,0.01,3
6100,5.9457e+07,0,0.65,0,-0.2,18.89,18.88,0,0.01,3
6145,5.9468e+07,0,0.65,0,-0.2,18.89,18.88,0,0.01,3
6186,5.9478e+07,0,0.65,0,-0.2,18.89,18.88,0,0.01,3
6226,5.9488e+07,0,0.65,0,-0.2,18.89,18.88,0,0.01,3
6269,5.9504e+07,0,0.65,0,-0.2,18.88,18.88,0,0.01,3
6311,5.9514e+07,0,0.65,0,-0.2,18.88,18.87,0,0.01,3
6351,5.9525e+07,0,0.65,0,-0.2,18.88,18.87,0,0.01,3
6392,5.9535e+07,0,0.65,0,-0.2,18.88,18.87,0,0.01,3
6432,5.9545e+07,0,0.65,0,-0.2,18.88,18.87,0,0.01,3
6474,5.9555e+07,0,0.65,0,-0.2,18.88,18.87,0,0.01,3
6518,5.9565e+07,0,0.65,0,-0.2,18.88,18.87,0,0.01,3
6559,5.9576e+07,0,0.65,0,-0.2,18.88,18.87,0,0.01,3
6602,5.9586e+07,0,0.65,0,-0.2,18.88,18.87,0,0.01,3
6643,5.9595e+07,0,0.65,0,-0.2,18.87,18.87,0,0.01,3
6685,5.9605e+07,0,0.65,0,-0.2,18.87,18.87,0,0.01,3
6725,5.9618e+07,0,0.65,0,-0.2,18.87,18.87,0,0.01,3
6766,5.9629e+07,0,0.65,0,-0.2,18.87,18.86,0,0.01,3
6806,5.9639e+07,0,0.65,0,-0.2,18.87,18.86,0,0.01,3
6847,5.9649e+07,0,0.65,0,-0.2,18.87,18.86,0,0.01,3
6887,5.966e+07,0,0.65,0,-0.2,18.87,18.86,0,0.01,3
6931,5.967e+07,0,0.65,0,-0.2,18.87,18.86,0,0.01,3
6972,5.968e+07,0,0.65,0,-0.2,18.87,18.86,0,0.01,3
7012,5.9691e+07,0,0.65,0,-0.2,18.86,18.86,0,0.01,3
7053,5.97e+07,0,0.65,0,-0.2,18.86,18.86,0,0.01,3
7092,5.9711e+07,0,0.65,0,-0.2,18.86,18.85,0,0.01,3
7133,5.972e+07,0,0.65,0,-0.2,18.86,18.85,0,0.01,3
7174,5.9731e+07,0,0.65,0,-0.2,18.86,18.85,0,0.01,3
7214,5.9741e+07,0,0.65,0,-0.2,18.86,18.85,0,0.01,3
7255,5.9751e+07,0,0.65,0,-0.2,18.86,18.85,0,0.01,3
7296,5.9761e+07,0,0.65,0,-0.2,18.85,18.85,0,0.01,3
7341,5.9771e+07,0,0.65,0,-0.2,18.85,18.84,0,0.01,3
7382,5.9781e+07,0,0.65,0,-0.2,18.85,18.84,0,0.01,3
7425,5.9791e+07,0,0.65,0,-0.2,18.85,18.84,0,0.01,3
7467,5.9802e+07,0,0.65,0,-0.2,18.84,18.84,0,0.01,3
7508,5.9812e+07,0,0.65,0,-0.2,18.84,18.83,0,0.01,3
7546,5.9822e+07,0,0.65,0,-0.2,18.84,18.83,0,0.01,3
7587,5.9832e+07,0,0.65,0,-0.2,18.84,18.83,0,0.01,3
7627,5.9842e+07,0,0.65,0,-0.2,18.84,18.83,0,0.01,3
7670,5.9852e+07,0,0.65,0,-0.2,18.83,18.83,0,0.01,3
7710,5.9862e+07,0,0.66,0,-0.2,18.83,18.83,0,0.01,3
7755,5.9872e+07,0,0.65,0,-0.2,18.83,18.82,0,0.01,3
7796,5.9882e+07,0,0.65,0,-0.2,18.83,18.82,0,0.01,3
7836,5.9893e+07,0,0.65,0,-0.2,18.83,18.82,0,0.01,3
7877,5.9903e+07,0,0.65,0,-0.2,18.83,18.82,0,0.01,3
7917,5.9912e+07,0,0.65,0,-0.2,18.83,18.82,0,0.01,3
7956,5.9922e+07,0,0.65,0,-0.2,18.83,18.82,0,0.01,3
7997,5.9933e+07,0,0.65,0,-0.2,18.82,18.82,0,0.01,3
8040,5.9943e+07,0,0.65,0,-0.2,18.82,18.81,0,0.01,3
8081,5.9954e+07,0,0.65,0,-0.2,18.82,18.81,0,0.01,3
8122,5.9964e+07,0,0.65,0,-0.2,18.82,18.81,0,0.01,3
8169,5.9974e+07,0,0.65,0,-0.2,18.82,18.81,0,0,3
8210,5.9984e+07,0,0.65,0,-0.2,18.82,18.81,0,0,3
8253,5.9994e+07,0,0.65,0,-0.2,18.81,18.81,0,0,3
8293,6.0005e+07,0,0.65,0,-0.2,18.81,18.81,0,0,3
8334,6.0015e+07,0,0.65,0,-0.2,18.81,18.81,0,0,3
8372,6.0025e+07,0,0.65,0,-0.2,18.81,18.81,0,0,3
8414,6.0036e+07,0,0.65,0,-0.2,18.81,18.8,0,0,3
8455,6.0045e+07,0,0.65,0,-0.2,18.81,18.8,0,0,3
8495,6.0056e+07,0,0.65,0,-0.2,18.81,18.8,0,0,3
8536,6.0065e+07,0,0.65,0,-0.2,18.81,18.8,0,0,3
8581,6.0076e+07,0,0.65,0,-0.2,18.81,18.8,0,0,3
8622,6.0086e+07,0,0.64,0,-0.2,18.81,18.8,0,0,3
8663,6.0096e+07,0,0.64,0,-0.2,18.8,18.8,0,0,3
8703,6.0106e+07,0,0.64,0,-0.2,18.8,18.8,0,0,3
8746,6.0119e+07,0,0.64,0,-0.2,18.8,18.8,0,0,3
8787,6.013e+07,0,0.64,0,-0.2,18.8,18.79,0,0,3
8830,6.014e+07,0,0.64,0,-0.2,18.8,18.79,0,0,3
8870,6.015e+07,0,0.64,0,-0.2,18.8,18.79,0,0,3
8911,6.016e+07,0,0.64,0,-0.2,18.8,18.79,0,0,3
8951,6.017e+07,0,0.65,0,-0.2,18.8,18.79,0,0,3
8998,6.0181e+07,0,0.65,0,-0.2,18.79,18.79,0,0.01,3
9040,6.0191e+07,0,0.65,0,-0.2,18.79,18.79,0,0.01,3
9080,6.0201e+07,0,0.65,0,-0.2,18.79,18.79,0,0.01,3
9121,6.0211e+07,0,0.65,0,-0.2,18.79,18.79,0,0.01,3
9161,6.0221e+07,0,0.65,0,-0.2,18.79,18.79,0,0.01,3
9202,6.0231e+07,0,0.65,0,-0.2,18.79,18.79,0,0.01,3
9243,6.0241e+07,0,0.64,0,-0.2,18.79,18.78,0,0.01,3
9284,6.0251e+07,0,0.64,0,-0.2,18.79,18.78,0,0.01,3
9326,6.0262e+07,0,0.64,0,-0.2,18.79,18.78,0,0.01,3
9366,6.0272e+07,0,0.64,0,-0.2,18.79,18.78,0,0.01,3
9411,6.0281e+07,0,0.64,0,-0.2,18.79,18.78,0,0,3
9452,6.0292e+07,0,0.64,0,-0.2,18.78,18.78,0,0,3
9495,6.0302e+07,0,0.64,0,-0.2,18.78,18.77,0,0,3
9535,6.0312e+07,0,0.64,0,-0.2,18.78,18.77,0,0,3
9576,6.0323e+07,0,0.64,0,-0.2,18.78,18.77,0,0,3
9614,6.0333e+07,0,0.64,0,-0.2,18.78,18.77,0,0,3
9656,6.0343e+07,0,0.64,0,-0.2,18.78,18.77,0,0,3
9697,6.0353e+07,0,0.64,0,-0.2,18.77,18.77,0,0,3
9737,6.0364e+07,0,0.65,0,-0.2,18.77,18.76,0,0,3
9778,6.0374e+07,0,0.65,0,-0.2,18.77,18.76,0,0,3
9825,6.0384e+07,0,0.64,0,-0.2,18.77,18.76,0,0,3
9865,6.0394e+07,0,0.64,0,-0.2,18.77,18.76,0,0,3
9906,6.0405e+07,0,0.64,0,-0.2,18.77,18.76,0,0,3
9946,6.0415e+07,0,0.64,0,-0.2,18.77,18.76,0,0,3
9987,6.0428e+07,0,0.64,0,-0.2,18.77,18.76,0,0,3
10030,6.0438e+07,0,0.64,0,-0.2,18.76,18.76,0,0,3
10070,6.0449e+07,0,0.64,0,-0.2,18.76,18.76,0,0,3
10113,6.0458e+07,0,0.64,0,-0.2,18.76,18.75,0,0,3
10153,6.0469e+07,0,0.64,0,-0.2,18.76,18.75,0,0,3
10194,6.0478e+07,0,0.64,0,-0.2,18.76,18.75,0,0,3
10239,6.0489e+07,0,0.64,0,-0.2,18.76,18.75,0,0.01,3
10280,6.05e+07,0,0.64,0,-0.2,18.76,18.75,0,0.01,3
10320,6.0509e+07,0,0.64,0,-0.2,18.76,18.75,0,0.01,3
10358,6.0519e+07,0,0.64,0,-0.2,18.76,18.75,0,0.01,3
10396,6.0529e+07,0,0.65,0,-0.2,18.76,18.75,0,0.01,3
10436,6.054e+07,0,0.65,0,-0.2,18.76,18.75,0,0.01,3
10477,6.055e+07,0,0.64,0,-0.2,18.76,18.75,0,0.01,3
10517,6.056e+07,0,0.64,0,-0.2,18.75,18.75,0,0.01,3
10559,6.057e+07,0,0.64,0,-0.2,18.75,18.74,0,0.01,3
10599,6.058e+07,0,0.64,0,-0.2,18.75,18.74,0,0.01,3
10646,6.0591e+07,0,0.64,0,-0.2,18.75,18.74,0,0.01,3
10687,6.0601e+07,0,0.64,0,-0.2,18.75,18.74,0,0.01,3
10727,6.0611e+07,0,0.64,0,-0.2,18.74,18.74,0,0.01,3
10768,6.0621e+07,0,0.64,0,-0.2,18.74,18.73,0,0.01,3
10802,6.0631e+07,0,0.64,0,-0.2,18.74,18.73,0,0.01,3
10843,6.0642e+07,0,0.64,0,-0.2,18.74,18.73,0,0.01,3
10883,6.0651e+07,0,0.64,0,-0.2,18.74,18.73,0,0.01,3
10924,6.0662e+07,0,0.64,0,-0.2,18.74,18.73,0,0.01,3
10948,6.0691e+07,0,0.64,0,-0.2,18.73,18.73,0,0.01,3
10988,6.0701e+07,0,0.64,0,-0.2,18.73,18.72,0,0.01,3
11029,6.0712e+07,0,0.64,0,-0.2,18.73,18.72,0,0.01,3
11066,6.0722e+07,0,0.64,0,-0.2,18.73,18.72,0,0.01,3
11104,6.0732e+07,0,0.64,0,-0.2,18.72,18.72,0,0.01,3
11145,6.0742e+07,0,0.64,0,-0.2,18.72,18.71,0,0.01,3
11185,6.0752e+07,0,0.64,0,-0.2,18.72,18.71,0,0.01,3
11227,6.0762e+07,0,0.64,0,-0.2,18.71,18.71,0,0.01,3
11267,6.0772e+07,0,0.64,0,-0.2,18.71,18.7,0,0.01,3
11309,6.0782e+07,0,0.64,0,-0.2,18.71,18.7,0,0.01,3
11355,6.0793e+07,0,0.64,0,-0.2,18.71,18.7,0,0.01,3
11395,6.0803e+07,0,0.64,0,-0.2,18.71,18.7,0,0.01,3
11439,6.0813e+07,0,0.64,0,-0.21,18.71,18.7,0,0.01,3
11479,6.0825e+07,0,0.64,0,-0.2,18.71,18.7,0,0.01,3
11520,6.0838e+07,0,0.64,0,-0.21,18.7,18.7,0,0.01,3
11562,6.0848e+07,0,0.64,0,-0.21,18.7,18.7,0,0.01,3
11602,6.0858e+07,0,0.64,0,-0.21,18.7,18.69,0,0.01,3
11643,6.0868e+07,0,0.64,0,-0.2,18.7,18.69,0,0.01,3
11685,6.0878e+07,0,0.64,0,-0.2,18.7,18.69,0,0.01,3
11731,6.0888e+07,0,0.64,0,-0.2,18.7,18.69,0,0.01,3
11771,6.0898e+07,0,0.64,0,-0.2,18.69,18.69,0,0.01,3
11812,6.0908e+07,0,0.64,0,-0.2,18.69,18.68,0,0.01,3
11853,6.0919e+07,0,0.64,0,-0.2,18.69,18.68,0,0.01,3
11900,6.0934e+07,0,0.64,0,-0.21,18.69,18.68,0,0.01,3
11943,6.0947e+07,0,0.64,0,-0.21,18.69,18.68,0,0.01,3
11984,6.0957e+07,0,0.64,0,-0.21,18.69,18.68,0,0.01,3
12024,6.0967e+07,0,0.64,0,-0.21,18.69,18.68,0,0.01,3
12066,6.0977e+07,0,0.64,0,-0.21,18.68,18.68,0,0.01,3
12118,6.099e+07,0,0.64,0,-0.21,18.68,18.68,0,0.01,3
12161,6.1e+07,0,0.64,0,-0.21,18.68,18.68,0,0.01,3
12203,6.101e+07,0,0.64,0,-0.21,18.68,18.67,0,0.01,3
12243,6.102e+07,0,0.64,0,-0.21,18.68,18.67,0,0.01,3
12285,6.1033e+07,0,0.64,0,-0.21,18.68,18.67,0,0.01,3
12325,6.1044e+07,0,0.64,0,-0.21,18.68,18.67,0,0.01,3
12366,6.1055e+07,0,0.64,0,-0.21,18.67,18.67,0,0.01,3
12407,6.1065e+07,0,0.64,0,-0.21,18.67,18.66,0,0.01,3
12447,6.1075e+07,0,0.64,0,-0.21,18.67,18.66,0,0.01,3
12488,6.1085e+07,0,0.64,0,-0.21,18.67,18.66,0,0.01,3
12533,6.1095e+07,0,0.64,0,-0.21,18.66,18.66,0,0.01,3
12575,6.1105e+07,0,0.64,0,-0.21,18.66,18.65,0,0.01,3
12616,6.1116e+07,0,0.64,0,-0.21,18.66,18.65,0,0.01,3
12656,6.1126e+07,0,0.64,0,-0.21,18.66,18.65,0,0.01,3
12697,6.1136e+07,0,0.64,0,-0.21,18.66,18.65,0,0.01,3
12737,6.1147e+07,0,0.64,0,-0.21,18.66,18.65,0,0.01,3
12779,6.1157e+07,0,0.64,0,-0.21,18.66,18.65,0,0.01,3
12820,6.1167e+07,0,0.64,0,-0.21,18.66,18.65,0,0.01,3
12860,6.1177e+07,0,0.64,0,-0.21,18.66,18.65,0,0.01,3
12903,6.1187e+07,0,0.64,0,-0.21,18.66,18.65,0,0.01,3
12948,6.1197e+07,0,0.64,0,-0.21,18.66,18.65,0,0.01,3
12989,6.1207e+07,0,0.64,0,-0.21,18.65,18.65,0,0.01,3
13031,6.1217e+07,0,0.63,0,-0.21,18.65,18.65,0,0.01,3
13074,6.123e+07,0,0.63,0,-0.21,18.65,18.64,0,0.01,3
13115,6.1243e+07,0,0.63,0,-0.21,18.65,18.64,0,0.01,3
13155,6.1253e+07,0,0.63,0,-0.21,18.65,18.64,0,0.01,3
13196,6.1264e+07,0,0.63,0,-0.21,18.64,18.64,0,0.01,3
13238,6.1274e+07,0,0.63,0,-0.21,18.64,18.63,0,0.01,3
13278,6.1284e+07,0,0.63,0,-0.21,18.64,18.63,0,0.01,3
13323,6.1294e+07,0,0.63,0,-0.21,18.64,18.63,0,0.01,3
13363,6.1304e+07,0,0.63,0,-0.21,18.64,18.63,0,0,3
13406,6.1314e+07,0,0.64,0,-0.21,18.64,18.63,0,0,3
13446,6.1325e+07,0,0.63,0,-0.21,18.64,18.63,0,0,3
13484,6.1335e+07,0,0.63,0,-0.21,18.64,18.63,0,0,3
13524,6.1345e+07,0,0.63,0,-0.21,18.64,18.63,0,0,3
13565,6.1356e+07,0,0.63,0,-0.21,18.64,18.63,0,0,3
13606,6.1366e+07,0,0.63,0,-0.21,18.64,18.63,0,0,3
13646,6.1376e+07,0,0.63,0,-0.21,18.63,18.63,0,0,3
13690,6.1386e+07,0,0.63,0,-0.21,18.63,18.62,0,0,3
13734,6.1396e+07,0,0.63,0,-0.21,18.63,18.62,0,0,3
13775,6.1407e+07,0,0.63,0,-0.21,18.63,18.62,0,0,3
13818,6.1417e+07,0,0.63,0,-0.21,18.63,18.62,0,0,3
13860,6.1427e+07,0,0.63,0,-0.21,18.62,18.62,0,0,3
13901,6.1437e+07,0,0.63,0,-0.21,18.62,18.62,0,0,3
13941,6.1447e+07,0,0.64,0,-0.21,18.62,18.61,0,0,3
13982,6.1457e+07,0,0.64,0,-0.21,18.62,18.61,0,0,3
14019,6.1467e+07,0,0.64,0,-0.21,18.62,18.61,0,0,3
14060,6.1477e+07,0,0.64,0,-0.21,18.62,18.61,0,0,3
14102,6.1487e+07,0,0.64,0,-0.21,18.62,18.61,0,0,3
14146,6.1498e+07,0,0.64,0,-0.21,18.62,18.61,0,0,3
14187,6.1508e+07,0,0.64,0,-0.21,18.62,18.61,0,0,3
14227,6.1518e+07,0,0.63,0,-0.21,18.62,18.61,0,0,3
14269,6.1528e+07,0,0.63,0,-0.21,18.62,18.61,0,0,3
14311,6.1538e+07,0,0.63,0,-0.21,18.61,18.61,0,0,3
14352,6.1549e+07,0,0.63,0,-0.21,18.61,18.61,0,0,3
14390,6.1559e+07,0,0.63,0,-0.21,18.61,18.6,0,0,3
14430,6.157e+07,0,0.63,0,-0.21,18.61,18.6,0,0,3
14471,6.158e+07,0,0.63,0,-0.21,18.61,18.6,0,0,3
14516,6.1592e+07,0,0.64,0,-0.21,18.6,18.6,0,0,3
14562,6.1602e+07,0,0.64,0,-0.21,18.6,18.59,0,0,3
14602,6.1613e+07,0,0.64,0,-0.21,18.6,18.59,0,0,3
14643,6.1622e+07,0,0.64,0,-0.21,18.6,18.59,0,0,3
14688,6.1635e+07,0,0.64,0,-0.21,18.6,18.6,0,0,3
14728,6.1646e+07,0,0.64,0,-0.21,18.6,18.6,0,0,3
14770,6.1656e+07,0,0.64,0,-0.21,18.6,18.6,0,0,3
14811,6.1666e+07,0,0.63,0,-0.21,18.6,18.6,0,0,3
14851,6.1676e+07,0,0.63,0,-0.21,18.6,18.6,0,0,3
14892,6.1686e+07,0,0.63,0,-0.21,18.6,18.6,0,0,3
14933,6.1696e+07,0,0.63,0,-0.21,18.6,18.6,0,0,3
14978,6.1706e+07,0,0.63,0,-0.21,18.6,18.6,0,0,3
15019,6.1717e+07,0,0.63,0,-0.21,18.6,18.59,0,0,3
15060,6.1726e+07,0,0.63,0,-0.21,18.6,18.59,0,0,3
15102,6.1737e+07,0,0.63,0,-0.21,18.6,18.59,0,0,3
15140,6.1747e+07,0,0.63,0,-0.21,18.6,18.59,0,0,3
15180,6.1757e+07,0,0.63,0,-0.21,18.6,18.59,0,0,3
15221,6.1767e+07,0,0.63,0,-0.21,18.6,18.59,0,0,3
15262,6.1777e+07,0,0.63,0,-0.21,18.6,18.59,0,0,3
15303,6.1787e+07,0,0.63,0,-0.21,18.6,18.59,0,0,3
15348,6.1797e+07,0,0.63,0,-0.21,18.6,18.59,0,0,3
15394,6.1807e+07,0,0.63,0,-0.21,18.6,18.59,0,0,3
15434,6.1817e+07,0,0.63,0,-0.21,18.6,18.59,0,0,3
15475,6.1827e+07,0,0.63,0,-0.21,18.6,18.59,0,0,3
15516,6.1837e+07,0,0.63,0,-0.21,18.6,18.59,0,0,3
15557,6.1847e+07,0,0.63,0,-0.21,18.6,18.59,0,0,3
15600,6.1858e+07,0,0.63,0,-0.21,18.6,18.59,0,0,3
15640,6.1867e+07,0,0.63,0,-0.21,18.6,18.59,0,0,3
15681,6.1878e+07,0,0.63,0,-0.21,18.59,18.58,0,0,3
15722,6.1888e+07,0,0.63,0,-0.21,18.59,18.58,0,0,3
15763,6.1897e+07,0,0.63,0,-0.21,18.59,18.58,0,0,3
15807,6.1907e+07,0,0.63,0,-0.22,18.59,18.58,0,0.01,3
15850,6.1917e+07,0,0.63,0,-0.22,18.59,18.58,0,0.01,3
15891,6.1928e+07,0,0.63,0,-0.22,18.59,18.58,0,0.01,3
15932,6.1937e+07,0,0.63,0,-0.22,18.59,18.58,0,0.01,3
15971,6.1947e+07,0,0.63,0,-0.22,18.59,18.58,0,0.01,3
16014,6.196e+07,0,0.63,0,-0.22,18.58,18.58,0,0.01,3
16055,6.197e+07,0,0.63,0,-0.22,18.59,18.58,0,0.01,3
16096,6.1981e+07,0,0.63,0,-0.21,18.59,18.58,0,0.01,3
16137,6.1991e+07,0,0.63,0,-0.22,18.59,18.58,0,0.01,3
16180,6.2001e+07,0,0.63,0,-0.22,18.59,18.58,0,0.01,3
16226,6.2011e+07,0,0.63,0,-0.22,18.58,18.58,0,0,3
16267,6.2021e+07,0,0.63,0,-0.22,18.58,18.58,0,0,3
16307,6.2031e+07,0,0.63,0,-0.22,18.58,18.58,0,0,3
16348,6.2041e+07,0,0.63,0,-0.22,18.58,18.57,0,0,3
16386,6.2051e+07,0,0.63,0,-0.22,18.58,18.57,0,0,3
16427,6.2061e+07,0,0.63,0,-0.22,18.58,18.57,0,0,3
16469,6.2072e+07,0,0.62,0,-0.22,18.58,18.57,0,0,3
16509,6.2082e+07,0,0.62,0,-0.22,18.58,18.57,0,0,3
16550,6.2091e+07,0,0.62,0,-0.22,18.58,18.57,0,0,3
16590,6.2101e+07,0,0.62,0,-0.22,18.58,18.57,0,0,3
16635,6.2112e+07,0,0.62,0,-0.22,18.58,18.57,0,0.01,3
16676,6.2121e+07,0,0.62,0,-0.22,18.58,18.57,0,0.01,3
16717,6.2131e+07,0,0.62,0,-0.22,18.58,18.57,0,0.01,3
16758,6.2144e+07,0,0.62,0,-0.22,18.58,18.57,0,0.01,3
16798,6.2154e+07,0,0.62,0,-0.22,18.58,18.57,0,0.01,3
16840,6.2165e+07,0,0.62,0,-0.22,18.58,18.58,0,0.01,3
16880,6.2175e+07,0,0.62,0,-0.22,18.58,18.58,0,0.01,3
16921,6.2185e+07,0,0.62,0,-0.22,18.58,18.58,0,0.01,3
16964,6.2195e+07,0,0.62,0,-0.22,18.58,18.58,0,0.01,3
17008,6.2206e+07,0,0.62,0,-0.22,18.58,18.58,0,0.01,3
17049,6.2216e+07,0,0.62,0,-0.22,18.58,18.57,0,0.01,3
17089,6.2226e+07,0,0.62,0,-0.23,18.58,18.57,0,0.01,3
17131,6.2236e+07,0,0.62,0,-0.22,18.58,18.57,0,0.01,3
17174,6.2249e+07,0,0.62,0,-0.22,18.58,18.57,0,0.01,3
17215,6.2259e+07,0,0.62,0,-0.22,18.58,18.57,0,0.01,3
17257,6.2269e+07,0,0.62,0,-0.22,18.58,18.58,0,0.01,3
17297,6.2279e+07,0,0.62,0,-0.22,18.58,18.58,0,0.01,3
17339,6.2289e+07,0,0.62,0,-0.22,18.58,18.58,0,0.01,3
17379,6.2299e+07,0,0.62,0,-0.23,18.59,18.58,0,0.01,3
17424,6.231e+07,0,0.63,0,-0.23,18.59,18.58,0,0.01,3
17465,6.232e+07,0,0.62,0,-0.23,18.59,18.58,0,0.01,3
17505,6.233e+07,0,0.62,0,-0.23,18.59,18.58,0,0.01,3
17547,6.234e+07,0,0.62,0,-0.23,18.59,18.58,0,0.01,3
17587,6.2353e+07,0,0.62,0,-0.23,18.59,18.58,0,0.01,3
17628,6.2363e+07,0,0.62,0,-0.23,18.59,18.58,0,0.01,3
17669,6.2373e+07,0,0.62,0,-0.23,18.58,18.58,0,0.01,3
17711,6.2384e+07,0,0.62,0,-0.23,18.58,18.57,0,0.01,3
17753,6.2394e+07,0,0.62,0,-0.23,18.58,18.57,0,0.01,3
17795,6.2403e+07,0,0.62,0,-0.23,18.58,18.57,0,0.01,3
17842,6.2413e+07,0,0.62,0,-0.23,18.58,18.57,0,0.01,3
17882,6.2424e+07,0,0.62,0,-0.23,18.58,18.57,0,0.01,3
17923,6.2434e+07,0,0.62,0,-0.23,18.58,18.57,0,0.01,3
17967,6.2447e+07,0,0.62,0,-0.23,18.58,18.57,0,0.01,3
18008,6.2457e+07,0,0.62,0,-0.23,18.58,18.57,0,0.01,3
18049,6.2468e+07,0,0.62,0,-0.23,18.58,18.57,0,0.01,3
18089,6.2477e+07,0,0.62,0,-0.23,18.58,18.57,0,0.01,3
18130,6.2488e+07,0,0.62,0,-0.23,18.58,18.57,0,0.01,3
18173,6.2497e+07,0,0.62,0,-0.23,18.58,18.57,0,0.01,3
18213,6.2507e+07,0,0.62,0,-0.23,18.58,18.57,0,0.01,3
18258,6.2517e+07,0,0.62,0,-0.23,18.58,18.57,0,0.01,3
18299,6.2528e+07,0,0.62,0,-0.23,18.57,18.57,0,0.01,3
18340,6.2538e+07,0,0.62,0,-0.23,18.57,18.57,0,0.01,3
18381,6.2548e+07,0,0.62,0,-0.23,18.57,18.56,0,0.01,3
18422,6.2558e+07,0,0.62,0,-0.23,18.57,18.56,0,0.01,3
18463,6.2568e+07,0,0.61,0,-0.23,18.56,18.56,0,0.01,3
18503,6.2578e+07,0,0.61,0,-0.23,18.56,18.55,0,0.01,3
18543,6.2588e+07,0,0.62,0,-0.23,18.56,18.55,0,0.01,3
18584,6.2598e+07,0,0.62,0,-0.23,18.56,18.55,0,0.01,3
18625,6.2608e+07,0,0.62,0,-0.23,18.56,18.55,0,0.01,3
18671,6.2618e+07,0,0.62,0,-0.24,18.56,18.55,0,0.01,3
18711,6.2629e+07,0,0.62,0,-0.23,18.55,18.55,0,0.01,3
18752,6.2639e+07,0,0.62,0,-0.24,18.55,18.55,0,0.01,3
18793,6.2649e+07,0,0.62,0,-0.24,18.55,18.55,0,0.01,3
18830,6.2659e+07,0,0.61,0,-0.24,18.55,18.55,0,0.01,3
18872,6.2669e+07,0,0.61,0,-0.24,18.55,18.54,0,0.01,3
18912,6.268e+07,0,0.61,0,-0.24,18.55,18.54,0,0.01,3
18953,6.269e+07,0,0.61,0,-0.24,18.55,18.54,0,0.01,3
18993,6.27e+07,0,0.61,0,-0.24,18.55,18.54,0,0.01,3
19036,6.271e+07,0,0.61,0,-0.24,18.55,18.54,0,0.01,3
19082,6.272e+07,0,0.61,0,-0.24,18.55,18.54,0,0,3
19122,6.273e+07,0,0.61,0,-0.24,18.55,18.54,0,0,3
19163,6.2741e+07,0,0.61,0,-0.24,18.55,18.54,0,0,3
19203,6.275e+07,0,0.61,0,-0.24,18.54,18.54,0,0,3
19244,6.2763e+07,0,0.61,0,-0.24,18.54,18.54,0,0,3
19285,6.2774e+07,0,0.62,0,-0.24,18.54,18.54,0,0,3
19328,6.2784e+07,0,0.62,0,-0.24,18.54,18.53,0,0,3
19369,6.2797e+07,0,0.62,0,-0.24,18.54,18.53,0,0,3
19411,6.2807e+07,0,0.62,0,-0.24,18.54,18.54,0,0,3
19456,6.2817e+07,0,0.62,0,-0.24,18.54,18.53,0,0,3
19497,6.2827e+07,0,0.62,0,-0.24,18.54,18.53,0,0,3
19538,6.2838e+07,0,0.62,0,-0.24,18.54,18.53,0,0,3
19578,6.2848e+07,0,0.62,0,-0.24,18.54,18.53,0,0,3
19620,6.2858e+07,0,0.62,0,-0.24,18.53,18.53,0,0,3
19660,6.2868e+07,0,0.61,0,-0.24,18.53,18.53,0,0,3
19702,6.2878e+07,0,0.61,0,-0.24,18.53,18.52,0,0,3
19743,6.2888e+07,0,0.61,0,-0.24,18.53,18.52,0,0,3
19783,6.2898e+07,0,0.61,0,-0.24,18.53,18.52,0,0,3
19827,6.2908e+07,0,0.61,0,-0.24,18.53,18.52,0,0,3
19871,6.2918e+07,0,0.61,0,-0.24,18.53,18.52,0,0.01,3
19913,6.2928e+07,0,0.62,0,-0.24,18.53,18.52,0,0.01,3
19953,6.2938e+07,0,0.62,0,-0.24,18.53,18.52,0,0.01,3
19994,6.2948e+07,0,0.62,0,-0.24,18.53,18.52,0,0.01,3
20036,6.2958e+07,0,0.62,0,-0.24,18.53,18.52,0,0.01,3
20073,6.2968e+07,0,0.62,0,-0.24,18.52,18.52,0,0.01,3
20117,6.2981e+07,0,0.62,0,-0.24,18.52,18.52,0,0.01,3
20159,6.2991e+07,0,0.62,0,-0.24,18.52,18.51,0,0.01,3
20198,6.3001e+07,0,0.62,0,-0.24,18.52,18.51,0,0.01,3
20239,6.3011e+07,0,0.61,0,-0.24,18.52,18.51,0,0.01,3
20286,6.3021e+07,0,0.61,0,-0.24,18.52,18.51,0,0.01,3
20327,6.3031e+07,0,0.61,0,-0.24,18.51,18.51,0,0.01,3
20367,6.3041e+07,0,0.61,0,-0.24,18.51,18.51,0,0.01,3
20409,6.3051e+07,0,0.61,0,-0.24,18.51,18.5,0,0.01,3
20450,6.3061e+07,0,0.61,0,-0.24,18.51,18.5,0,0.01,3
20490,6.3071e+07,0,0.61,0,-0.24,18.51,18.5,0,0.01,3
20531,6.3081e+07,0,0.61,0,-0.24,18.5,18.5,0,0.01,3
20571,6.3092e+07,0,0.61,0,-0.24,18.5,18.49,0,0.01,3
20613,6.3101e+07,0,0.61,0,-0.24,18.5,18.49,0,0.01,3
20654,6.3111e+07,0,0.61,0,-0.24,18.5,18.49,0,0.01,3
20699,6.3121e+07,0,0.62,0,-0.24,18.49,18.49,0,0.01,3
20740,6.3131e+07,0,0.62,0,-0.24,18.49,18.48,0,0.01,3
20780,6.3142e+07,0,0.62,0,-0.24,18.49,18.48,0,0.01,3
20822,6.3152e+07,0,0.62,0,-0.24,18.49,18.48,0,0.01,3
20862,6.3165e+07,0,0.62,0,-0.25,18.49,18.48,0,0.01,3
20903,6.3175e+07,0,0.62,0,-0.24,18.49,18.48,0,0.01,3
20944,6.3186e+07,0,0.61,0,-0.24,18.48,18.48,0,0.01,3
20988,6.3196e+07,0,0.61,0,-0.24,18.48,18.48,0,0.01,3
21026,6.3207e+07,0,0.61,0,-0.24,18.48,18.48,0,0.01,3
21066,6.3217e+07,0,0.61,0,-0.24,18.48,18.48,0,0.01,3
21113,6.3227e+07,0,0.61,0,-0.24,18.48,18.48,0,0.01,3
21155,6.3237e+07,0,0.61,0,-0.24,18.48,18.48,0,0.01,3
21195,6.3247e+07,0,0.61,0,-0.24,18.48,18.47,0,0.01,3
21236,6.3257e+07,0,0.61,0,-0.24,18.48,18.47,0,0.01,3
21276,6.3268e+07,0,0.62,0,-0.24,18.48,18.47,0,0.01,3
21317,6.3278e+07,0,0.62,0,-0.24,18.48,18.47,0,0.01,3
21358,6.3288e+07,0,0.62,0,-0.24,18.48,18.47,0,0.01,3
21399,6.3298e+07,0,0.62,0,-0.24,18.48,18.47,0,0.01,3
21439,6.3308e+07,0,0.62,0,-0.24,18.48,18.47,0,0.01,3
21480,6.3318e+07,0,0.62,0,-0.24,18.48,18.47,0,0.01,3
21525,6.3329e+07,0,0.62,0,-0.24,18.48,18.47,0,0.01,3
21566,6.3339e+07,0,0.62,0,-0.24,18.48,18.47,0,0.01,3
21608,6.3349e+07,0,0.62,0,-0.24,18.48,18.47,0,0.01,3
21648,6.3359e+07,0,0.61,0,-0.24,18.48,18.47,0,0.01,3
21689,6.337e+07,0,0.61,0,-0.24,18.48,18.47,0,0.01,3
21729,6.338e+07,0,0.61,0,-0.25,18.48,18.47,0,0.01,3
21770,6.339e+07,0,0.61,0,-0.25,18.48,18.47,0,0.01,3
21816,6.3401e+07,0,0.61,0,-0.25,18.48,18.47,0,0.01,3
21850,6.3411e+07,0,0.62,0,-0.25,18.48,18.47,0,0.01,3
21891,6.3421e+07,0,0.62,0,-0.25,18.47,18.47,0,0.01,3
21936,6.3431e+07,0,0.62,0,-0.25,18.47,18.47,0,0.01,3
21977,6.3442e+07,0,0.62,0,-0.25,18.47,18.47,0,0.01,3
22019,6.3452e+07,0,0.62,0,-0.25,18.47,18.47,0,0.01,3
22059,6.3462e+07,0,0.62,0,-0.25,18.47,18.46,0,0.01,3
22100,6.3472e+07,0,0.62,0,-0.25,18.47,18.46,0,0.01,3
22140,6.3482e+07,0,0.62,0,-0.24,18.47,18.46,0,0.01,3
22182,6.3492e+07,0,0.62,0,-0.24,18.47,18.46,0,0.01,3
22223,6.3503e+07,0,0.62,0,-0.24,18.47,18.46,0,0.01,3
22263,6.3513e+07,0,0.61,0,-0.24,18.47,18.46,0,0.01,3
22304,6.3523e+07,0,0.61,0,-0.24,18.47,18.46,0,0.01,3
22348,6.3533e+07,0,0.61,0,-0.24,18.46,18.46,0,0.01,3
22390,6.3543e+07,0,0.61,0,-0.24,18.46,18.46,0,0.01,3
22432,6.3553e+07,0,0.61,0,-0.24,18.46,18.45,0,0.01,3
22473,6.3563e+07,0,0.61,0,-0.24,18.46,18.45,0,0.01,3
22510,6.3573e+07,0,0.61,0,-0.24,18.46,18.45,0,0.01,3
22551,6.3583e+07,0,0.61,0,-0.24,18.46,18.45,0,0.01,3
22592,6.3594e+07,0,0.62,0,-0.24,18.46,18.45,0,0.01,3
22634,6.3604e+07,0,0.62,0,-0.24,18.46,18.45,0,0.01,3
22669,6.3614e+07,0,0.62,0,-0.24,18.46,18.45,0,0.01,3
22710,6.3624e+07,0,0.62,0,-0.24,18.45,18.45,0,0.01,3
22754,6.3635e+07,0,0.62,0,-0.24,18.45,18.45,0,0.01,3
22794,6.3645e+07,0,0.62,0,-0.24,18.45,18.45,0,0.01,3
22834,6.3655e+07,0,0.62,0,-0.24,18.45,18.44,0,0.01,3
22876,6.3665e+07,0,0.62,0,-0.24,18.45,18.44,0,0.01,3
22919,6.3677e+07,0,0.62,0,-0.24,18.45,18.44,0,0.01,3
22960,6.3687e+07,0,0.62,0,-0.24,18.45,18.44,0,0.01,3
23001,6.3698e+07,0,0.61,0,-0.24,18.44,18.44,0,0.01,3
23042,6.3708e+07,0,0.61,0,-0.24,18.44,18.44,0,0.01,3
23082,6.3717e+07,0,0.61,0,-0.24,18.44,18.43,0,0.01,3
23130,6.373e+07,0,0.61,0,-0.24,18.44,18.43,0,0.01,3
23170,6.3741e+07,0,0.62,0,-0.24,18.44,18.43,0,0.01,3
23211,6.3751e+07,0,0.62,0,-0.24,18.44,18.43,0,0.01,3
23254,6.376e+07,0,0.62,0,-0.24,18.43,18.43,0,0.01,3
23295,6.3771e+07,0,0.62,0,-0.24,18.43,18.43,0,0.01,3
23336,6.378e+07,0,0.62,0,-0.24,18.43,18.42,0,0.01,3
23376,6.3791e+07,0,0.62,0,-0.24,18.43,18.42,0,0.01,3
23420,6.3801e+07,0,0.62,0,-0.24,18.43,18.42,0,0.01,3
23455,6.3811e+07,0,0.62,0,-0.24,18.43,18.42,0,0.01,3
23497,6.3822e+07,0,0.62,0,-0.24,18.43,18.42,0,0.01,3
23541,6.3832e+07,0,0.62,0,-0.24,18.43,18.42,0,0.01,3
23582,6.3842e+07,0,0.62,0,-0.24,18.42,18.42,0,0.01,3
23622,6.3852e+07,0,0.62,0,-0.24,18.42,18.41,0,0.01,3
23666,6.3862e+07,0,0.61,0,-0.24,18.42,18.41,0,0.01,3
23706,6.3872e+07,0,0.61,0,-0.24,18.42,18.41,0,0.01,3
23747,6.3882e+07,0,0.61,0,-0.24,18.42,18.41,0,0.01,3
23790,6.3893e+07,0,0.61,0,-0.24,18.42,18.41,0,0.01,3
23831,6.3902e+07,0,0.61,0,-0.24,18.41,18.41,0,0.01,3
23871,6.3912e+07,0,0.61,0,-0.24,18.41,18.4,0,0.01,3
23912,6.3923e+07,0,0.61,0,-0.24,18.41,18.4,0,0.01,3
23957,6.3933e+07,0,0.61,0,-0.24,18.41,18.4,0,0.01,3
23998,6.3943e+07,0,0.62,0,-0.24,18.41,18.4,0,0.01,3
24039,6.3953e+07,0,0.62,0,-0.24,18.41,18.4,0,0.01,3
24079,6.3963e+07,0,0.62,0,-0.24,18.41,18.4,0,0.01,3
24122,6.3974e+07,0,0.62,0,-0.24,18.41,18.4,0,0.01,3
24162,6.3984e+07,0,0.62,0,-0.24,18.4,18.4,0,0.01,3
24203,6.3994e+07,0,0.62,0,-0.24,18.4,18.4,0,0.01,3
24245,6.4004e+07,0,0.61,0,-0.24,18.4,18.39,0,0.01,3
24280,6.4015e+07,0,0.61,0,-0.24,18.4,18.39,0,0.01,3
24321,6.4025e+07,0,0.61,0,-0.24,18.4,18.39,0,0.01,3
24367,6.4035e+07,0,0.61,0,-0.24,18.4,18.39,0,0.01,3
24408,6.4046e+07,0,0.61,0,-0.24,18.4,18.39,0,0.01,3
24449,6.4056e+07,0,0.61,0,-0.23,18.39,18.39,0,0.01,3
24490,6.4066e+07,0,0.61,0,-0.23,18.39,18.38,0,0.01,3
24531,6.4076e+07,0,0.61,0,-0.24,18.39,18.38,0,0.01,3
24571,6.4086e+07,0,0.61,0,-0.23,18.39,18.38,0,0.01,3
24612,6.4097e+07,0,0.61,0,-0.23,18.38,18.38,0,0.01,3
24653,6.4107e+07,0,0.61,0,-0.23,18.38,18.37,0,0.01,3
24694,6.4117e+07,0,0.61,0,-0.23,18.38,18.37,0,0.01,3
24735,6.4127e+07,0,0.61,0,-0.23,18.38,18.37,0,0.01,3
24779,6.4137e+07,0,0.61,0,-0.23,18.38,18.37,0,0.01,3
24821,6.4147e+07,0,0.61,0,-0.23,18.37,18.37,0,0.01,3
24861,6.4157e+07,0,0.61,0,-0.23,18.37,18.36,0,0.01,3
24903,6.4167e+07,0,0.61,0,-0.23,18.37,18.36,0,0.01,3
24944,6.4178e+07,0,0.61,0,-0.23,18.37,18.36,0,0.01,3
24986,6.4191e+07,0,0.61,0,-0.23,18.36,18.36,0,0.01,3
25023,6.4202e+07,0,0.61,0,-0.23,18.36,18.35,0,0.01,3
25065,6.4212e+07,0,0.61,0,-0.23,18.36,18.35,0,0.01,3
25106,6.4222e+07,0,0.6,0,-0.23,18.36,18.35,0,0.01,3
25146,6.4232e+07,0,0.6,0,-0.23,18.35,18.35,0,0.01,3
25191,6.4242e+07,0,0.6,0,-0.23,18.35,18.34,0,0.01,3
25232,6.4252e+07,0,0.6,0,-0.23,18.35,18.34,0,0.01,3
25273,6.4262e+07,0,0.6,0,-0.23,18.35,18.34,0,0.01,3
25313,6.4273e+07,0,0.6,0,-0.23,18.35,18.34,0,0.01,3
25354,6.4283e+07,0,0.61,0,-0.23,18.35,18.34,0,0.01,3
25396,6.4293e+07,0,0.61,0,-0.23,18.35,18.34,0,0.01,3
25436,6.4303e+07,0,0.61,0,-0.23,18.34,18.34,0,0.01,3
25478,6.4313e+07,0,0.61,0,-0.23,18.34,18.34,0,0.01,3
25518,6.4324e+07,0,0.61,0,-0.23,18.34,18.34,0,0.01,3
25559,6.4333e+07,0,0.61,0,-0.23,18.34,18.33,0,0.01,3
25603,6.4344e+07,0,0.61,0,-0.23,18.34,18.33,0,0.01,3
25644,6.4354e+07,0,0.61,0,-0.24,18.34,18.33,0,0.01,3
25685,6.4364e+07,0,0.61,0,-0.24,18.34,18.33,0,0.01,3
25727,6.4374e+07,0,0.61,0,-0.24,18.34,18.33,0,0.01,3
25773,6.4386e+07,0,0.61,0,-0.24,18.33,18.33,0,0.01,3
25812,6.44e+07,0,0.6,0,-0.24,18.33,18.32,0,0.01,3
25853,6.441e+07,0,0.6,0,-0.24,18.33,18.32,0,0.01,3
25894,6.442e+07,0,0.6,0,-0.24,18.33,18.32,0,0.01,3
25935,6.443e+07,0,0.61,0,-0.24,18.33,18.32,0,0.01,3
25980,6.4441e+07,0,0.61,0,-0.24,18.33,18.32,0,0.01,3
26020,6.4451e+07,0,0.61,0,-0.24,18.32,18.32,0,0.01,3
26061,6.4461e+07,0,0.61,0,-0.24,18.32,18.32,0,0.01,3
26102,6.4472e+07,0,0.61,0,-0.24,18.32,18.32,0,0.01,3
26143,6.4482e+07,0,0.61,0,-0.24,18.32,18.32,0,0.01,3
26184,6.4492e+07,0,0.61,0,-0.24,18.32,18.31,0,0.01,3
26225,6.4502e+07,0,0.61,0,-0.24,18.32,18.31,0,0.01,3
26266,6.4513e+07,0,0.61,0,-0.24,18.32,18.31,0,0.01,3
26306,6.4522e+07,0,0.6,0,-0.24,18.32,18.31,0,0.01,3
26347,6.4532e+07,0,0.6,0,-0.24,18.31,18.31,0,0.01,3
26393,6.4543e+07,0,0.6,0,-0.24,18.31,18.31,0,0.01,3
26433,6.4553e+07,0,0.6,0,-0.24,18.31,18.3,0,0.01,3
26475,6.4564e+07,0,0.6,0,-0.24,18.31,18.3,0,0.01,3
26516,6.4574e+07,0,0.6,0,-0.24,18.31,18.3,0,0.01,3
26557,6.4584e+07,0,0.6,0,-0.24,18.31,18.3,0,0.01,3
26600,6.4594e+07,0,0.6,0,-0.24,18.31,18.3,0,0.01,3
26635,6.4606e+07,0,0.6,0,-0.24,18.31,18.3,0,0.01,3
26676,6.4616e+07,0,0.6,0,-0.24,18.31,18.3,0,0.01,3
26716,6.4626e+07,0,0.6,0,-0.24,18.31,18.3,0,0.01,3
26757,6.4637e+07,0,0.61,0,-0.24,18.31,18.3,0,0.01,3
26802,6.4647e+07,0,0.61,0,-0.24,18.31,18.3,0,0.01,3
26843,6.4657e+07,0,0.61,0,-0.24,18.31,18.3,0,0.01,3
26883,6.4667e+07,0,0.61,0,-0.24,18.3,18.3,0,0.01,3
26924,6.4677e+07,0,0.6,0,-0.24,18.3,18.3,0,0.01,3
26965,6.4688e+07,0,0.6,0,-0.25,18.3,18.29,0,0.01,3
27007,6.4698e+07,0,0.6,0,-0.25,18.3,18.29,0,0.01,3
27048,6.4709e+07,0,0.6,0,-0.25,18.3,18.29,0,0.01,3
27088,6.4719e+07,0,0.6,0,-0.25,18.3,18.29,0,0.01,3
27129,6.4729e+07,0,0.6,0,-0.25,18.3,18.29,0,0.01,3
27169,6.4739e+07,0,0.6,0,-0.25,18.3,18.29,0,0.01,3
27218,6.4752e+07,0,0.6,0,-0.25,18.3,18.29,0,0.01,3
27259,6.4762e+07,0,0.61,0,-0.25,18.3,18.29,0,0.01,3
27299,6.4772e+07,0,0.61,0,-0.25,18.29,18.29,0,0.01,3
27340,6.4782e+07,0,0.61,0,-0.25,18.29,18.29,0,0.01,3
27380,6.4793e+07,0,0.61,0,-0.25,18.29,18.28,0,0.01,3
27426,6.4809e+07,0,0.61,0,-0.25,18.29,18.28,0,0.01,3
27469,6.4819e+07,0,0.61,0,-0.25,18.29,18.28,0,0.01,3
27509,6.483e+07,0,0.61,0,-0.25,18.29,18.28,0,0.01,3
27550,6.484e+07,0,0.61,0,-0.24,18.29,18.28,0,0.01,3
27592,6.485e+07,0,0.61,0,-0.24,18.29,18.28,0,0.01,3
27637,6.486e+07,0,0.61,0,-0.24,18.29,18.28,0,0.01,3
27678,6.487e+07,0,0.61,0,-0.24,18.28,18.28,0,0.01,3
27720,6.4881e+07,0,0.61,0,-0.24,18.28,18.28,0,0.01,3
27761,6.4892e+07,0,0.61,0,-0.24,18.28,18.28,0,0.01,3
27801,6.4902e+07,0,0.61,0,-0.24,18.28,18.28,0,0.01,3
27842,6.4912e+07,0,0.61,0,-0.23,18.28,18.28,0,0.01,3
27883,6.4922e+07,0,0.61,0,-0.23,18.28,18.27,0,0.01,3
27923,6.4933e+07,0,0.61,0,-0.23,18.28,18.27,0,0.01,3
27964,6.4943e+07,0,0.61,0,-0.23,18.28,18.27,0,0.01,3
28004,6.4953e+07,0,0.62,0,-0.23,18.28,18.27,0,0.01,3
28049,6.4964e+07,0,0.62,0,-0.23,18.28,18.27,0,0.01,3
28089,6.4974e+07,0,0.62,0,-0.23,18.28,18.27,0,0.01,3
28130,6.4984e+07,0,0.62,0,-0.23,18.28,18.27,0,0.01,3
28139,6.5038e+07,0,0.61,0,-0.23,18.28,18.27,0,0.01,3
28183,6.5049e+07,0,0.61,0,-0.23,18.28,18.27,0,0.01,3
28229,6.5059e+07,0,0.61,0,-0.23,18.28,18.27,0,0.01,3
28270,6.5069e+07,0,0.6,0,-0.23,18.27,18.27,0,0.01,3
28310,6.5079e+07,0,0.6,0,-0.23,18.27,18.27,0,0.01,3
28351,6.509e+07,0,0.6,0,-0.23,18.27,18.27,0,0.01,3
28391,6.51e+07,0,0.6,0,-0.24,18.27,18.27,0,0.01,3
28432,6.5111e+07,0,0.6,0,-0.23,18.27,18.26,0,0.01,3
28473,6.5121e+07,0,0.6,0,-0.23,18.27,18.26,0,0.01,3
28513,6.5131e+07,0,0.61,0,-0.23,18.27,18.26,0,0.01,3
28555,6.5141e+07,0,0.61,0,-0.23,18.27,18.26,0,0.01,3
28596,6.5151e+07,0,0.61,0,-0.23,18.27,18.26,0,0.01,3
28641,6.5161e+07,0,0.6,0,-0.23,18.27,18.26,0,0.01,3
28681,6.5172e+07,0,0.6,0,-0.23,18.27,18.26,0,0,3
28723,6.5182e+07,0,0.6,0,-0.24,18.27,18.26,0,0,3
28766,6.5192e+07,0,0.6,0,-0.24,18.27,18.26,0,0,3
28803,6.5206e+07,0,0.6,0,-0.24,18.27,18.26,0,0,3
28843,6.5217e+07,0,0.6,0,-0.24,18.27,18.26,0,0,3
28885,6.5227e+07,0,0.59,0,-0.24,18.27,18.26,0,0,3
28926,6.5237e+07,0,0.59,0,-0.24,18.27,18.26,0,0,3
28967,6.5247e+07,0,0.59,0,-0.24,18.27,18.26,0,0,3
29008,6.5257e+07,0,0.59,0,-0.24,18.26,18.26,0,0,3
29053,6.5267e+07,0,0.59,0,-0.24,18.26,18.26,0,0,3
29094,6.5278e+07,0,0.59,0,-0.24,18.26,18.26,0,0,3
29135,6.5288e+07,0,0.59,0,-0.24,18.26,18.25,0,0,3
29176,6.5298e+07,0,0.6,0,-0.24,18.26,18.25,0,0,3
29216,6.5308e+07,0,0.59,0,-0.24,18.26,18.25,0,0,3
29259,6.5319e+07,0,0.6,0,-0.24,18.26,18.25,0,0,3
29299,6.5329e+07,0,0.59,0,-0.24,18.26,18.25,0,0,3
29340,6.5339e+07,0,0.59,0,-0.24,18.26,18.25,0,0,3
29380,6.535e+07,0,0.59,0,-0.24,18.26,18.25,0,0,3
29421,6.536e+07,0,0.59,0,-0.24,18.26,18.25,0,0,3
29468,6.537e+07,0,0.59,0,-0.24,18.26,18.25,0,0,3
29510,6.538e+07,0,0.59,0,-0.24,18.26,18.25,0,0,3
29551,6.539e+07,0,0.59,0,-0.24,18.26,18.25,0,0,3
29593,6.54e+07,0,0.59,0,-0.24,18.26,18.25,0,0,3
29628,6.5411e+07,0,0.59,0,-0.24,18.25,18.25,0,0,3
29670,6.5421e+07,0,0.59,0,-0.24,18.25,18.25,0,0,3
29710,6.5431e+07,0,0.6,0,-0.24,18.25,18.25,0,0,3
29751,6.5441e+07,0,0.6,0,-0.24,18.25,18.25,0,0,3
29792,6.5451e+07,0,0.6,0,-0.24,18.25,18.25,0,0,3
29833,6.5461e+07,0,0.6,0,-0.24,18.25,18.25,0,0,3
29879,6.5471e+07,0,0.6,0,-0.24,18.25,18.25,0,0.01,3
29919,6.5481e+07,0,0.6,0,-0.24,18.25,18.24,0,0.01,3
29960,6.5491e+07,0,0.6,0,-0.24,18.25,18.24,0,0.01,3
30000,6.5502e+07,0,0.6,0,-0.24,18.25,18.24,0,0.01,3
30041,6.5512e+07,0,0.6,0,-0.24,18.25,18.24,0,0.01,3
30083,6.5523e+07,0,0.6,0,-0.24,18.25,18.24,0,0.01,3
30123,6.5532e+07,0,0.6,0,-0.24,18.25,18.24,0,0.01,3
30164,6.5542e+07,0,0.6,0,-0.24,18.25,18.24,0,0.01,3
30204,6.5553e+07,0,0.61,0,-0.24,18.25,18.24,0,0.01,3
30246,6.5563e+07,0,0.61,0,-0.24,18.25,18.24,0,0.01,3
30291,6.5573e+07,0,0.61,0,-0.24,18.25,18.24,0,0,3
30335,6.5586e+07,0,0.61,0,-0.24,18.25,18.24,0,0,3
30372,6.5597e+07,0,0.61,0,-0.24,18.25,18.24,0,0,3
30416,6.5609e+07,0,0.61,0,-0.24,18.25,18.24,0,0,3
30457,6.5619e+07,0,0.61,0,-0.24,18.25,18.24,0,0,3
30498,6.563e+07,0,0.62,0,-0.24,18.24,18.24,0,0,3
30539,6.5641e+07,0,0.62,0,-0.24,18.24,18.24,0,0,3
30579,6.5651e+07,0,0.62,0,-0.24,18.24,18.23,0,0,3
30620,6.5661e+07,0,0.62,0,-0.24,18.24,18.23,0,0,3
30660,6.5671e+07,0,0.62,0,-0.24,18.24,18.23,0,0,3
30707,6.5681e+07,0,0.62,0,-0.24,18.24,18.23,0,0,3
30748,6.5691e+07,0,0.62,0,-0.24,18.24,18.23,0,0,3
30788,6.5701e+07,0,0.62,0,-0.24,18.24,18.23,0,0,3
30829,6.5711e+07,0,0.61,0,-0.24,18.24,18.23,0,0,3
30869,6.5721e+07,0,0.61,0,-0.24,18.24,18.23,0,0,3
30911,6.5731e+07,0,0.61,0,-0.24,18.24,18.23,0,0,3
30951,6.5741e+07,0,0.61,0,-0.24,18.24,18.23,0,0,3
30992,6.5751e+07,0,0.61,0,-0.24,18.24,18.23,0,0,3
31033,6.5761e+07,0,0.62,0,-0.24,18.23,18.23,0,0,3
31074,6.5771e+07,0,0.62,0,-0.24,18.23,18.23,0,0,3
31119,6.5781e+07,0,0.62,0,-0.24,18.23,18.22,0,0,3
31161,6.5797e+07,0,0.62,0,-0.24,18.23,18.22,0,0,3
31204,6.5807e+07,0,0.62,0,-0.24,18.23,18.22,0,0,3
31249,6.582e+07,0,0.62,0,-0.24,18.23,18.22,0,0,3
31289,6.583e+07,0,0.62,0,-0.24,18.23,18.22,0,0,3
31330,6.584e+07,0,0.62,0,-0.24,18.23,18.22,0,0,3
31371,6.5851e+07,0,0.62,0,-0.24,18.23,18.22,0,0,3
31414,6.5861e+07,0,0.62,0,-0.24,18.23,18.22,0,0,3
31457,6.5871e+07,0,0.62,0,-0.24,18.23,18.22,0,0,3
31501,6.5882e+07,0,0.62,0,-0.24,18.23,18.22,0,0,3
31542,6.5891e+07,0,0.62,0,-0.24,18.23,18.22,0,0,3
31582,6.5901e+07,0,0.62,0,-0.24,18.23,18.22,0,0,3
31624,6.5911e+07,0,0.62,0,-0.24,18.23,18.22,0,0,3
31666,6.5922e+07,0,0.62,0,-0.24,18.23,18.22,0,0,3
31706,6.5932e+07,0,0.62,0,-0.24,18.23,18.22,0,0,3
31747,6.5942e+07,0,0.62,0,-0.24,18.22,18.22,0,0,3
31787,6.5952e+07,0,0.62,0,-0.24,18.22,18.22,0,0,3
31829,6.5962e+07,0,0.62,0,-0.24,18.22,18.21,0,0,3
31870,6.5972e+07,0,0.62,0,-0.24,18.22,18.21,0,0,3
31915,6.5983e+07,0,0.62,0,-0.24,18.22,18.21,0,0,3
31955,6.5996e+07,0,0.62,0,-0.24,18.22,18.21,0,0,3
31995,6.6006e+07,0,0.62,0,-0.24,18.22,18.21,0,0,3
32041,6.6019e+07,0,0.62,0,-0.24,18.22,18.21,0,0,3
32081,6.603e+07,0,0.62,0,-0.24,18.22,18.21,0,0,3
32122,6.604e+07,0,0.62,0,-0.24,18.22,18.21,0,0,3
32163,6.605e+07,0,0.62,0,-0.24,18.22,18.21,0,0,3
32203,6.606e+07,0,0.62,0,-0.24,18.22,18.21,0,0,3
32244,6.6071e+07,0,0.62,0,-0.24,18.22,18.21,0,0,3
32291,6.6081e+07,0,0.62,0,-0.24,18.21,18.21,0,0,3
32332,6.6092e+07,0,0.62,0,-0.24,18.21,18.2,0,0,3
32373,6.6102e+07,0,0.62,0,-0.24,18.21,18.2,0,0,3
32414,6.6112e+07,0,0.62,0,-0.24,18.21,18.2,0,0,3
32456,6.6121e+07,0,0.62,0,-0.24,18.21,18.2,0,0,3
32496,6.6132e+07,0,0.62,0,-0.24,18.21,18.2,0,0,3
32537,6.6142e+07,0,0.62,0,-0.24,18.21,18.2,0,0,3
32577,6.6152e+07,0,0.62,0,-0.24,18.21,18.2,0,0,3
32619,6.6162e+07,0,0.62,0,-0.24,18.21,18.2,0,0,3
32660,6.6172e+07,0,0.62,0,-0.24,18.21,18.2,0,0,3
32704,6.6182e+07,0,0.62,0,-0.24,18.21,18.2,0,0,3
32747,6.6193e+07,0,0.62,0,-0.24,18.2,18.2,0,0,3
32785,6.6206e+07,0,0.62,0,-0.24,18.2,18.19,0,0,3
32826,6.6217e+07,0,0.62,0,-0.24,18.2,18.19,0,0,3
32867,6.6227e+07,0,0.62,0,-0.24,18.2,18.19,0,0,3
32908,6.6237e+07,0,0.62,0,-0.24,18.2,18.19,0,0,3
32949,6.6247e+07,0,0.62,0,-0.24,18.2,18.19,0,0,3
32989,6.6257e+07,0,0.62,0,-0.24,18.2,18.19,0,0,3
33030,6.6267e+07,0,0.62,0,-0.24,18.2,18.19,0,0,3
33070,6.6277e+07,0,0.62,0,-0.24,18.2,18.19,0,0,3
33116,6.6288e+07,0,0.62,0,-0.24,18.2,18.19,0,0,3
33157,6.6298e+07,0,0.62,0,-0.24,18.2,18.19,0,0,3
33197,6.6308e+07,0,0.62,0,-0.24,18.2,18.19,0,0,3
33238,6.6318e+07,0,0.63,0,-0.24,18.2,18.19,0,0,3
33278,6.6329e+07,0,0.63,0,-0.24,18.2,18.19,0,0,3
33320,6.6339e+07,0,0.63,0,-0.25,18.2,18.19,0,0,3
33360,6.6349e+07,0,0.63,0,-0.25,18.2,18.19,0,0,3
33401,6.636e+07,0,0.63,0,-0.25,18.2,18.19,0,0,3
33444,6.6369e+07,0,0.63,0,-0.25,18.2,18.19,0,0,3
33484,6.638e+07,0,0.63,0,-0.25,18.2,18.19,0,0,3
33529,6.639e+07,0,0.63,0,-0.25,18.2,18.19,0,0.01,3
33571,6.64e+07,0,0.63,0,-0.25,18.2,18.19,0,0.01,3
33606,6.641e+07,0,0.63,0,-0.25,18.2,18.19,0,0.01,3
33647,6.642e+07,0,0.63,0,-0.25,18.2,18.19,0,0.01,3
33687,6.6431e+07,0,0.63,0,-0.25,18.2,18.19,0,0.01,3
33728,6.6441e+07,0,0.63,0,-0.25,18.2,18.19,0,0.01,3
33769,6.6451e+07,0,0.63,0,-0.25,18.2,18.19,0,0.01,3
33810,6.6461e+07,0,0.63,0,-0.25,18.2,18.19,0,0.01,3
33852,6.6471e+07,0,0.63,0,-0.25,18.19,18.19,0,0.01,3
33892,6.6482e+07,0,0.63,0,-0.25,18.19,18.19,0,0.01,3
33937,6.6491e+07,0,0.63,0,-0.25,18.19,18.18,0,0.01,3
33977,6.6501e+07,0,0.64,0,-0.25,18.19,18.18,0,0.01,3
34019,6.6511e+07,0,0.64,0,-0.25,18.19,18.18,0,0.01,3
34060,6.6521e+07,0,0.64,0,-0.25,18.19,18.18,0,0.01,3
34103,6.6534e+07,0,0.64,0,-0.25,18.19,18.18,0,0.01,3
34144,6.6544e+07,0,0.64,0,-0.25,18.19,18.18,0,0.01,3
34185,6.6555e+07,0,0.64,0,-0.25,18.18,18.18,0,0.01,3
34227,6.6565e+07,0,0.64,0,-0.25,18.18,18.18,0,0.01,3
34268,6.6575e+07,0,0.64,0,-0.25,18.18,18.17,0,0.01,3
34311,6.6585e+07,0,0.64,0,-0.25,18.18,18.17,0,0.01,3
34349,6.6596e+07,0,0.65,0,-0.25,18.18,18.17,0,0.01,3
34390,6.6606e+07,0,0.65,0,-0.25,18.18,18.17,0,0.01,3
34431,6.6616e+07,0,0.65,0,-0.25,18.18,18.17,0,0.01,3
34472,6.6626e+07,0,0.65,0,-0.25,18.18,18.17,0,0.01,3
34513,6.6636e+07,0,0.65,0,-0.25,18.18,18.17,0,0.01,3
34553,6.6646e+07,0,0.65,0,-0.25,18.17,18.17,0,0.01,3
34594,6.6657e+07,0,0.65,0,-0.25,18.17,18.17,0,0.01,3
34634,6.6667e+07,0,0.65,0,-0.26,18.17,18.16,0,0.01,3
34675,6.6677e+07,0,0.65,0,-0.26,18.17,18.16,0,0.01,3
34717,6.6687e+07,0,0.65,0,-0.26,18.17,18.16,0,0.01,3
34762,6.6697e+07,0,0.65,0,-0.26,18.17,18.16,0,0.01,3
34803,6.6707e+07,0,0.66,0,-0.26,18.17,18.16,0,0.01,3
34843,6.6717e+07,0,0.66,0,-0.26,18.17,18.16,0,0.01,3
34884,6.6727e+07,0,0.66,0,-0.26,18.17,18.16,0,0.01,3
34928,6.674e+07,0,0.66,0,-0.26,18.16,18.16,0,0.01,3
34969,6.675e+07,0,0.66,0,-0.26,18.16,18.16,0,0.01,3
35010,6.676e+07,0,0.66,0,-0.26,18.16,18.15,0,0.01,3
35050,6.677e+07,0,0.66,0,-0.26,18.16,18.15,0,0.01,3
35092,6.678e+07,0,0.66,0,-0.26,18.16,18.15,0,0.01,3
35128,6.6791e+07,0,0.66,0,-0.26,18.16,18.15,0,0.01,3
35175,6.6801e+07,0,0.66,0,-0.26,18.16,18.15,0,0.01,3
35217,6.6811e+07,0,0.66,0,-0.26,18.16,18.15,0,0.01,3
35258,6.6822e+07,0,0.66,0,-0.26,18.16,18.15,0,0.01,3
35299,6.6832e+07,0,0.66,0,-0.25,18.15,18.15,0,0.01,3
35339,6.6842e+07,0,0.66,0,-0.26,18.15,18.15,0,0.01,3
35379,6.6852e+07,0,0.66,0,-0.26,18.15,18.14,0,0.01,3
35423,6.6862e+07,0,0.66,0,-0.25,18.15,18.14,0,0.01,3
35464,6.6872e+07,0,0.66,0,-0.26,18.15,18.14,0,0.01,3
35507,6.6882e+07,0,0.66,0,-0.26,18.15,18.14,0,0.01,3
35549,6.6892e+07,0,0.67,0,-0.25,18.15,18.14,0,0.01,3
35594,6.6902e+07,0,0.67,0,-0.25,18.15,18.14,0,0.01,3
35634,6.6912e+07,0,0.67,0,-0.25,18.15,18.14,0,0.01,3
35676,6.6922e+07,0,0.67,0,-0.25,18.14,18.14,0,0.01,3
35716,6.6933e+07,0,0.66,0,-0.25,18.14,18.14,0,0.01,3
35757,6.6943e+07,0,0.66,0,-0.25,18.14,18.13,0,0.01,3
35797,6.6953e+07,0,0.66,0,-0.25,18.14,18.13,0,0.01,3
35838,6.6963e+07,0,0.66,0,-0.25,18.14,18.13,0,0.01,3
35880,6.6973e+07,0,0.66,0,-0.25,18.14,18.14,0,0.01,3
35921,6.6983e+07,0,0.66,0,-0.25,18.14,18.13,0,0.01,3
35965,6.6997e+07,0,0.66,0,-0.25,18.14,18.13,0,0.01,3
36006,6.7007e+07,0,0.66,0,-0.25,18.14,18.13,0,0.01,3
36046,6.7017e+07,0,0.66,0,-0.25,18.14,18.13,0,0.01,3
36088,6.7027e+07,0,0.67,0,-0.25,18.14,18.13,0,0.01,3
36128,6.7037e+07,0,0.67,0,-0.25,18.14,18.13,0,0.01,3
36169,6.7048e+07,0,0.67,0,-0.25,18.14,18.13,0,0.01,3
36209,6.7058e+07,0,0.67,0,-0.25,18.14,18.13,0,0.01,3
36250,6.7068e+07,0,0.67,0,-0.25,18.14,18.13,0,0.01,3
36291,6.7079e+07,0,0.67,0,-0.25,18.14,18.13,0,0.01,3
36333,6.7089e+07,0,0.67,0,-0.25,18.14,18.13,0,0.01,3
36380,6.71e+07,0,0.67,0,-0.25,18.14,18.13,0,0.01,3
36420,6.711e+07,0,0.66,0,-0.25,18.14,18.13,0,0.01,3
36462,6.712e+07,0,0.66,0,-0.25,18.14,18.13,0,0.01,3
36502,6.713e+07,0,0.66,0,-0.25,18.14,18.13,0,0.01,3
36543,6.714e+07,0,0.66,0,-0.25,18.14,18.13,0,0.01,3
36583,6.715e+07,0,0.66,0,-0.25,18.13,18.12,0,0.01,3
36625,6.716e+07,0,0.66,0,-0.25,18.13,18.12,0,0.01,3
36666,6.717e+07,0,0.66,0,-0.25,18.13,18.12,0,0.01,3
36706,6.7181e+07,0,0.66,0,-0.25,18.13,18.12,0,0.01,3
36750,6.7191e+07,0,0.66,0,-0.25,18.13,18.12,0,0.01,3
36789,6.7202e+07,0,0.66,0,-0.25,18.13,18.12,0,0.01,3
36829,6.7212e+07,0,0.66,0,-0.25,18.13,18.12,0,0.01,3
36870,6.7221e+07,0,0.66,0,-0.25,18.13,18.12,0,0.01,3
36910,6.7232e+07,0,0.66,0,-0.25,18.13,18.12,0,0.01,3
36955,6.7245e+07,0,0.66,0,-0.25,18.13,18.12,0,0.01,3
36995,6.7254e+07,0,0.66,0,-0.25,18.13,18.12,0,0.01,3
37036,6.7265e+07,0,0.66,0,-0.26,18.13,18.12,0,0.01,3
37077,6.7275e+07,0,0.66,0,-0.26,18.12,18.11,0,0.01,3
37118,6.7285e+07,0,0.66,0,-0.26,18.12,18.11,0,0.01,3
37159,6.7295e+07,0,0.66,0,-0.26,18.12,18.11,0,0.01,3
37204,6.7306e+07,0,0.66,0,-0.26,18.12,18.11,0,0.01,3
37245,6.7316e+07,0,0.66,0,-0.26,18.12,18.11,0,0.01,3
37285,6.7326e+07,0,0.66,0,-0.26,18.12,18.11,0,0.01,3
37327,6.7336e+07,0,0.65,0,-0.26,18.12,18.11,0,0.01,3
37368,6.7346e+07,0,0.65,0,-0.26,18.12,18.11,0,0.01,3
37410,6.7356e+07,0,0.65,0,-0.26,18.12,18.11,0,0.01,3
37451,6.7367e+07,0,0.65,0,-0.26,18.12,18.11,0,0.01,3
37492,6.7376e+07,0,0.65,0,-0.27,18.12,18.11,0,0.01,3
37533,6.7386e+07,0,0.65,0,-0.27,18.12,18.11,0,0.01,3
37576,6.7399e+07,0,0.65,0,-0.27,18.12,18.11,0,0.01,3
37617,6.7409e+07,0,0.65,0,-0.27,18.12,18.11,0,0.01,3
37658,6.742e+07,0,0.65,0,-0.27,18.12,18.11,0,0.01,3
37698,6.743e+07,0,0.66,0,-0.27,18.12,18.11,0,0.01,3
37739,6.744e+07,0,0.66,0,-0.27,18.12,18.11,0,0.01,3
37780,6.745e+07,0,0.66,0,-0.27,18.12,18.11,0,0.01,3
37821,6.746e+07,0,0.66,0,-0.27,18.12,18.11,0,0.01,3
37861,6.7471e+07,0,0.66,0,-0.27,18.12,18.11,0,0.01,3
37903,6.7481e+07,0,0.66,0,-0.27,18.12,18.11,0,0.01,3
37944,6.7491e+07,0,0.66,0,-0.27,18.12,18.11,0,0.01,3
37984,6.7501e+07,0,0.66,0,-0.27,18.12,18.11,0,0.01,3
38030,6.7511e+07,0,0.66,0,-0.27,18.12,18.11,0,0.01,3
38071,6.7521e+07,0,0.66,0,-0.27,18.12,18.11,0,0.01,3
38112,6.7531e+07,0,0.66,0,-0.27,18.12,18.11,0,0.01,3
38152,6.7541e+07,0,0.66,0,-0.27,18.12,18.11,0,0.01,3
38194,6.7551e+07,0,0.66,0,-0.27,18.12,18.11,0,0.01,3
38235,6.7561e+07,0,0.66,0,-0.27,18.12,18.11,0,0.01,3
38275,6.7571e+07,0,0.66,0,-0.27,18.12,18.11,0,0.01,3
38317,6.7582e+07,0,0.66,0,-0.27,18.12,18.11,0,0.01,3
38357,6.7592e+07,0,0.66,0,-0.27,18.11,18.1,0,0.01,3
38400,6.7602e+07,0,0.66,0,-0.27,18.11,18.1,0,0.01,3
38439,6.7612e+07,0,0.66,0,-0.27,18.11,18.1,0,0.01,3
38480,6.7622e+07,0,0.66,0,-0.27,18.11,18.1,0,0.01,3
38521,6.7632e+07,0,0.66,0,-0.27,18.11,18.1,0,0.01,3
38563,6.7642e+07,0,0.66,0,-0.27,18.11,18.1,0,0.01,3
38603,6.7653e+07,0,0.66,0,-0.27,18.11,18.1,0,0.01,3
38643,6.7664e+07,0,0.66,0,-0.27,18.11,18.1,0,0.01,3
38683,6.7674e+07,0,0.66,0,-0.27,18.11,18.1,0,0.01,3
38725,6.7684e+07,0,0.66,0,-0.27,18.11,18.1,0,0.01,3
38765,6.7695e+07,0,0.66,0,-0.27,18.1,18.09,0,0.01,3
38806,6.7705e+07,0,0.66,0,-0.27,18.1,18.09,0,0.01,3
38851,6.7715e+07,0,0.66,0,-0.27,18.1,18.09,0,0.01,3
38893,6.7725e+07,0,0.66,0,-0.27,18.1,18.09,0,0.01,3
38934,6.7735e+07,0,0.66,0,-0.27,18.1,18.09,0,0.01,3
38974,6.7745e+07,0,0.66,0,-0.27,18.1,18.09,0,0.01,3
39018,6.7758e+07,0,0.66,0,-0.27,18.1,18.09,0,0.01,3
39059,6.7768e+07,0,0.66,0,-0.27,18.1,18.09,0,0.01,3
39100,6.7778e+07,0,0.66,0,-0.27,18.1,18.09,0,0.01,3
39140,6.7788e+07,0,0.65,0,-0.27,18.09,18.08,0,0.01,3
39181,6.7798e+07,0,0.65,0,-0.27,18.09,18.08,0,0.01,3
39230,6.7814e+07,0,0.65,0,-0.27,18.09,18.08,0,0.01,3
39271,6.7824e+07,0,0.65,0,-0.27,18.09,18.08,0,0.01,3
39313,6.7834e+07,0,0.65,0,-0.27,18.09,18.08,0,0.01,3
39353,6.7845e+07,0,0.65,0,-0.27,18.09,18.08,0,0.01,3
39396,6.7854e+07,0,0.65,0,-0.27,18.09,18.08,0,0.01,3
39438,6.7864e+07,0,0.65,0,-0.27,18.08,18.07,0,0.01,3
39478,6.7874e+07,0,0.65,0,-0.27,18.08,18.07,0,0.01,3
39519,6.7884e+07,0,0.65,0,-0.27,18.08,18.07,0,0.01,3
39559,6.7895e+07,0,0.65,0,-0.27,18.08,18.07,0,0.01,3
39601,6.7904e+07,0,0.65,0,-0.27,18.08,18.07,0,0.01,3
39645,6.7915e+07,0,0.65,0,-0.27,18.08,18.07,0,0.01,3
39686,6.7925e+07,0,0.65,0,-0.27,18.08,18.07,0,0.01,3
39729,6.7935e+07,0,0.65,0,-0.27,18.08,18.07,0,0.01,3
39770,6.7945e+07,0,0.65,0,-0.27,18.08,18.07,0,0.01,3
39814,6.7957e+07,0,0.65,0,-0.27,18.08,18.07,0,0.01,3
39854,6.7967e+07,0,0.65,0,-0.27,18.08,18.07,0,0.01,3
39895,6.7977e+07,0,0.65,0,-0.27,18.08,18.07,0,0.01,3
39936,6.7987e+07,0,0.65,0,-0.27,18.08,18.07,0,0.01,3
39976,6.7997e+07,0,0.65,0,-0.27,18.08,18.07,0,0.01,3
40017,6.8008e+07,0,0.65,0,-0.27,18.08,18.07,0,0.01,3
40058,6.8018e+07,0,0.65,0,-0.27,18.08,18.07,0,0.01,3
40099,6.8028e+07,0,0.65,0,-0.27,18.08,18.07,0,0.01,3
40139,6.8039e+07,0,0.65,0,-0.27,18.08,18.07,0,0.01,3
40181,6.8049e+07,0,0.65,0,-0.27,18.08,18.07,0,0.01,3
40222,6.8059e+07,0,0.65,0,-0.27,18.08,18.07,0,0.01,3
40262,6.8069e+07,0,0.65,0,-0.27,18.08,18.07,0,0.01,3
40303,6.8079e+07,0,0.66,0,-0.27,18.07,18.07,0,0.01,3
40343,6.8089e+07,0,0.66,0,-0.27,18.07,18.06,0,0.01,3
40385,6.81e+07,0,0.66,0,-0.27,18.07,18.06,0,0.01,3
40425,6.8109e+07,0,0.66,0,-0.27,18.07,18.06,0,0.01,3
40472,6.8119e+07,0,0.66,0,-0.27,18.07,18.06,0,0.01,3
40513,6.8129e+07,0,0.66,0,-0.27,18.07,18.06,0,0.01,3
40554,6.814e+07,0,0.66,0,-0.27,18.07,18.06,0,0.01,3
40595,6.8149e+07,0,0.66,0,-0.27,18.07,18.06,0,0.01,3
40635,6.816e+07,0,0.66,0,-0.27,18.07,18.06,0,0.01,3
40677,6.817e+07,0,0.66,0,-0.27,18.07,18.06,0,0.01,3
40717,6.8181e+07,0,0.66,0,-0.27,18.07,18.06,0,0.01,3
40760,6.819e+07,0,0.66,0,-0.27,18.07,18.06,0,0.01,3
40795,6.8201e+07,0,0.66,0,-0.27,18.07,18.06,0,0.01,3
40835,6.8211e+07,0,0.66,0,-0.27,18.07,18.06,0,0.01,3
40881,6.8221e+07,0,0.66,0,-0.27,18.07,18.06,0,0.01,3
40921,6.8231e+07,0,0.66,0,-0.27,18.07,18.06,0,0.01,3
40963,6.8241e+07,0,0.66,0,-0.27,18.07,18.06,0,0.01,3
41004,6.8251e+07,0,0.66,0,-0.27,18.07,18.06,0,0.01,3
41045,6.8261e+07,0,0.66,0,-0.27,18.07,18.06,0,0.01,3
41089,6.8274e+07,0,0.66,0,-0.27,18.07,18.06,0,0.01,3
41129,6.8284e+07,0,0.66,0,-0.27,18.07,18.06,0,0.01,3
41170,6.8294e+07,0,0.66,0,-0.27,18.07,18.06,0,0.01,3
41211,6.8305e+07,0,0.66,0,-0.27,18.07,18.06,0,0.01,3
41252,6.8315e+07,0,0.66,0,-0.27,18.07,18.06,0,0.01,3
41297,6.8325e+07,0,0.66,0,-0.27,18.07,18.06,0,0.01,3
41337,6.8336e+07,0,0.66,0,-0.27,18.07,18.06,0,0.01,3
41380,6.8346e+07,0,0.66,0,-0.27,18.07,18.06,0,0.01,3
41420,6.8356e+07,0,0.66,0,-0.27,18.07,18.06,0,0.01,3
41461,6.8367e+07,0,0.66,0,-0.27,18.07,18.06,0,0.01,3
41503,6.8377e+07,0,0.66,0,-0.27,18.07,18.06,0,0.01,3
41544,6.8387e+07,0,0.66,0,-0.27,18.07,18.06,0,0.01,3
41584,6.84e+07,0,0.66,0,-0.27,18.07,18.06,0,0.01,3
41624,6.841e+07,0,0.66,0,-0.27,18.07,18.06,0,0.01,3
41665,6.842e+07,0,0.66,0,-0.27,18.07,18.06,0,0.01,3
41710,6.843e+07,0,0.66,0,-0.27,18.07,18.06,0,0.01,3
41751,6.844e+07,0,0.66,0,-0.27,18.06,18.05,0,0.01,3
41792,6.845e+07,0,0.66,0,-0.27,18.06,18.05,0,0.01,3
41832,6.846e+07,0,0.66,0,-0.27,18.06,18.05,0,0.01,3
41873,6.8471e+07,0,0.66,0,-0.27,18.06,18.05,0,0.01,3
41915,6.848e+07,0,0.66,0,-0.27,18.06,18.05,0,0.01,3
41956,6.8491e+07,0,0.66,0,-0.27,18.06,18.05,0,0.01,3
41996,6.85e+07,0,0.66,0,-0.27,18.06,18.05,0,0.01,3
42037,6.8511e+07,0,0.66,0,-0.27,18.07,18.06,0,0.01,3
42079,6.852e+07,0,0.66,0,-0.27,18.07,18.06,0,0.01,3
42123,6.8531e+07,0,0.66,0,-0.27,18.07,18.06,0,0.01,3
42164,6.8541e+07,0,0.66,0,-0.26,18.07,18.06,0,0.01,3
42204,6.8551e+07,0,0.65,0,-0.27,18.07,18.06,0,0.01,3
42245,6.856e+07,0,0.65,0,-0.27,18.07,18.06,0,0.01,3
42286,6.8571e+07,0,0.65,0,-0.27,18.06,18.05,0,0.01,3
42327,6.8581e+07,0,0.65,0,-0.27,18.06,18.05,0,0.01,3
42372,6.8591e+07,0,0.65,0,-0.26,18.06,18.05,0,0.01,3
42409,6.8604e+07,0,0.65,0,-0.27,18.06,18.05,0,0.01,3
42450,6.8614e+07,0,0.65,0,-0.27,18.06,18.05,0,0.01,3
42498,6.8627e+07,0,0.65,0,-0.27,18.06,18.05,0,0.01,3
42539,6.8637e+07,0,0.65,0,-0.27,18.06,18.05,0,0.01,3
42580,6.8647e+07,0,0.65,0,-0.27,18.06,18.05,0,0.01,3
42620,6.8657e+07,0,0.65,0,-0.27,18.06,18.05,0,0.01,3
42661,6.8667e+07,0,0.66,0,-0.26,18.06,18.05,0,0.01,3
42705,6.8679e+07,0,0.66,0,-0.26,18.06,18.05,0,0.01,3
42747,6.8689e+07,0,0.65,0,-0.27,18.06,18.05,0,0.01,3
42788,6.8699e+07,0,0.65,0,-0.27,18.06,18.05,0,0.01,3
42829,6.871e+07,0,0.65,0,-0.27,18.05,18.05,0,0.01,3
42870,6.8719e+07,0,0.65,0,-0.27,18.05,18.04,0,0.01,3
42914,6.873e+07,0,0.65,0,-0.27,18.05,18.04,0,0.01,3
42955,6.874e+07,0,0.65,0,-0.27,18.05,18.04,0,0.01,3
42996,6.875e+07,0,0.65,0,-0.27,18.05,18.04,0,0.01,3
43036,6.876e+07,0,0.65,0,-0.27,18.05,18.04,0,0.01,3
43078,6.877e+07,0,0.65,0,-0.27,18.05,18.04,0,0.01,3
43118,6.8781e+07,0,0.65,0,-0.27,18.05,18.04,0,0.01,3
43160,6.8791e+07,0,0.65,0,-0.27,18.05,18.04,0,0.01,3
43203,6.8807e+07,0,0.65,0,-0.27,18.05,18.04,0,0.01,3
43244,6.8817e+07,0,0.65,0,-0.27,18.05,18.04,0,0.01,3
43290,6.8827e+07,0,0.65,0,-0.27,18.05,18.04,0,0.01,3
43332,6.8838e+07,0,0.65,0,-0.27,18.04,18.03,0,0.01,3
43373,6.8847e+07,0,0.65,0,-0.27,18.04,18.03,0,0.01,3
43415,6.8857e+07,0,0.65,0,-0.27,18.04,18.03,0,0.01,3
43456,6.8867e+07,0,0.65,0,-0.27,18.04,18.03,0,0.01,3
43497,6.8877e+07,0,0.65,0,-0.27,18.04,18.03,0,0.01,3
43537,6.8888e+07,0,0.65,0,-0.27,18.04,18.03,0,0.01,3
43578,6.8897e+07,0,0.65,0,-0.27,18.04,18.03,0,0.01,3
43621,6.8907e+07,0,0.65,0,-0.27,18.04,18.03,0,0.01,3
43661,6.8917e+07,0,0.65,0,-0.28,18.04,18.03,0,0.01,3
43706,6.8928e+07,0,0.65,0,-0.28,18.04,18.03,0,0.01,3
43746,6.8938e+07,0,0.65,0,-0.28,18.04,18.03,0,0.01,3
43787,6.8949e+07,0,0.65,0,-0.28,18.04,18.03,0,0.01,3
43828,6.8959e+07,0,0.65,0,-0.28,18.04,18.03,0,0.01,3
43870,6.8969e+07,0,0.65,0,-0.28,18.04,18.03,0,0.01,3
43910,6.8979e+07,0,0.66,0,-0.28,18.04,18.03,0,0.01,3
43952,6.8989e+07,0,0.66,0,-0.28,18.03,18.03,0,0.01,3
43996,6.9004e+07,0,0.66,0,-0.28,18.03,18.02,0,0.01,3
44036,6.9015e+07,0,0.66,0,-0.28,18.03,18.02,0,0.01,3
44078,6.9025e+07,0,0.66,0,-0.28,18.03,18.02,0,0.01,3
44129,6.9036e+07,0,0.66,0,-0.28,18.03,18.02,0,0.01,3
44169,6.9046e+07,0,0.65,0,-0.28,18.03,18.02,0,0.01,3
44210,6.9056e+07,0,0.65,0,-0.28,18.03,18.02,0,0.01,3
44250,6.9066e+07,0,0.65,0,-0.28,18.03,18.02,0,0.01,3
44291,6.9076e+07,0,0.65,0,-0.28,18.03,18.02,0,0.01,3
44331,6.9086e+07,0,0.65,0,-0.28,18.03,18.02,0,0.01,3
44373,6.9096e+07,0,0.65,0,-0.28,18.03,18.02,0,0.01,3
44414,6.9106e+07,0,0.65,0,-0.28,18.03,18.02,0,0.01,3
44454,6.9116e+07,0,0.65,0,-0.28,18.03,18.02,0,0.01,3
44496,6.9126e+07,0,0.65,0,-0.28,18.03,18.02,0,0.01,3
44542,6.9136e+07,0,0.65,0,-0.28,18.03,18.02,0,0.01,3
44584,6.9146e+07,0,0.66,0,-0.28,18.03,18.02,0,0.01,3
44624,6.9156e+07,0,0.66,0,-0.28,18.03,18.02,0,0.01,3
44665,6.9166e+07,0,0.66,0,-0.27,18.03,18.02,0,0.01,3
44706,6.9176e+07,0,0.66,0,-0.28,18.03,18.02,0,0.01,3
44747,6.9186e+07,0,0.66,0,-0.28,18.03,18.02,0,0.01,3
44788,6.9196e+07,0,0.66,0,-0.28,18.03,18.02,0,0.01,3
44830,6.9206e+07,0,0.66,0,-0.28,18.03,18.02,0,0.01,3
44865,6.9217e+07,0,0.66,0,-0.28,18.03,18.02,0,0.01,3
44910,6.9227e+07,0,0.66,0,-0.28,18.03,18.02,0,0.01,3
44960,6.9237e+07,0,0.65,0,-0.27,18.03,18.02,0,0.01,3
45005,6.9247e+07,0,0.66,0,-0.27,18.03,18.02,0,0.01,3
45050,6.9257e+07,0,0.66,0,-0.27,18.03,18.02,0,0.01,3
45094,6.9267e+07,0,0.66,0,-0.27,18.03,18.02,0,0.01,3
45139,6.9277e+07,0,0.65,0,-0.27,18.03,18.02,0,0.01,3
45183,6.9287e+07,0,0.66,0,-0.27,18.03,18.02,0,0.01,3
45228,6.9297e+07,0,0.66,0,-0.27,18.03,18.02,0,0.01,3
45272,6.9308e+07,0,0.66,0,-0.27,18.03,18.02,0,0.01,3
45318,6.9318e+07,0,0.66,0,-0.27,18.03,18.02,0,0.01,3
45362,6.9327e+07,0,0.66,0,-0.27,18.03,18.02,0,0.01,3
45414,6.9337e+07,0,0.66,0,-0.27,18.03,18.02,0,0.01,3
45459,6.9347e+07,0,0.66,0,-0.27,18.03,18.02,0,0.01,3
45503,6.9358e+07,0,0.66,0,-0.27,18.03,18.02,0,0.01,3
45549,6.9368e+07,0,0.66,0,-0.27,18.03,18.02,0,0.01,3
45596,6.9381e+07,0,0.66,0,-0.27,18.03,18.02,0,0.01,3
45640,6.9394e+07,0,0.66,0,-0.27,18.03,18.02,0,0.01,3
45684,6.9405e+07,0,0.66,0,-0.27,18.03,18.02,0,0.01,3
45729,6.9415e+07,0,0.66,0,-0.27,18.03,18.02,0,0.01,3
45775,6.9425e+07,0,0.66,0,-0.27,18.03,18.02,0,0.01,3
45822,6.9436e+07,0,0.66,0,-0.27,18.03,18.02,0,0.01,3
45868,6.9446e+07,0,0.66,0,-0.27,18.03,18.02,0,0.01,3
45913,6.9456e+07,0,0.66,0,-0.27,18.03,18.02,0,0.01,3
45958,6.9466e+07,0,0.66,0,-0.27,18.03,18.02,0,0.01,3
46002,6.9476e+07,0,0.66,0,-0.27,18.03,18.02,0,0.01,3
46047,6.9487e+07,0,0.67,0,-0.27,18.03,18.02,0,0.01,3
46093,6.9497e+07,0,0.67,0,-0.27,18.03,18.02,0,0.01,3
46137,6.9507e+07,0,0.67,0,-0.27,18.03,18.02,0,0.01,3
46182,6.9517e+07,0,0.67,0,-0.27,18.03,18.02,0,0.01,3
46226,6.9527e+07,0,0.67,0,-0.27,18.03,18.02,0,0.01,3
46274,6.9538e+07,0,0.67,0,-0.27,18.02,18.02,0,0.01,3
46319,6.9548e+07,0,0.67,0,-0.27,18.02,18.01,0,0.01,3
46365,6.9558e+07,0,0.67,0,-0.27,18.02,18.01,0,0.01,3
46410,6.9568e+07,0,0.67,0,-0.27,18.02,18.01,0,0.01,3
46454,6.9578e+07,0,0.67,0,-0.27,18.02,18.01,0,0.01,3
46501,6.9588e+07,0,0.67,0,-0.27,18.02,18.01,0,0.01,3
46543,6.9601e+07,0,0.67,0,-0.27,18.02,18.01,0,0.01,3
46589,6.9612e+07,0,0.67,0,-0.27,18.02,18.01,0,0.01,3
46634,6.9622e+07,0,0.67,0,-0.27,18.02,18.01,0,0.01,3
46678,6.9633e+07,0,0.67,0,-0.27,18.01,18,0,0.01,3
46727,6.9642e+07,0,0.67,0,-0.27,18.01,18,0,0.01,3
46771,6.9652e+07,0,0.67,0,-0.27,18.01,18,0,0.01,3
46817,6.9662e+07,0,0.67,0,-0.27,18.01,18,0,0.01,3
46862,6.9673e+07,0,0.67,0,-0.27,18.01,18,0,0.01,3
46910,6.9686e+07,0,0.67,0,-0.27,18.01,18,0,0.01,3
46954,6.9696e+07,0,0.67,0,-0.27,18.01,18,0,0.01,3
46998,6.9706e+07,0,0.67,0,-0.27,18.01,18,0,0.01,3
47042,6.9716e+07,0,0.67,0,-0.27,18.01,18,0,0.01,3
47088,6.9726e+07,0,0.67,0,-0.27,18,17.99,0,0.01,3
47132,6.9736e+07,0,0.67,0,-0.27,18,17.99,0,0.01,3
47181,6.9746e+07,0,0.67,0,-0.27,18,17.99,0,0.01,3
47226,6.9756e+07,0,0.67,0,-0.27,18,17.99,0,0.01,3
47272,6.9766e+07,0,0.67,0,-0.27,18,17.99,0,0.01,3
47316,6.9776e+07,0,0.67,0,-0.27,18,17.99,0,0.01,3
47364,6.9788e+07,0,0.68,0,-0.27,18,17.99,0,0.01,3
47408,6.9801e+07,0,0.68,0,-0.27,18,17.99,0,0.01,3
47450,6.9812e+07,0,0.68,0,-0.27,18,17.99,0,0.01,3
47495,6.9822e+07,0,0.68,0,-0.27,18,17.99,0,0.01,3
47541,6.9833e+07,0,0.68,0,-0.27,18,17.99,0,0.01,3
47590,6.9844e+07,0,0.68,0,-0.27,17.99,17.99,0,0.01,3
47636,6.9853e+07,0,0.68,0,-0.27,18,17.99,0,0.01,3
47681,6.9864e+07,0,0.68,0,-0.27,17.99,17.99,0,0.01,3
47727,6.9874e+07,0,0.68,0,-0.27,17.99,17.99,0,0.01,3
47771,6.9884e+07,0,0.68,0,-0.27,17.99,17.99,0,0.01,3
47820,6.9897e+07,0,0.68,0,-0.27,17.99,17.98,0,0.01,3
47865,6.9907e+07,0,0.67,0,-0.27,17.99,17.98,0,0.01,3
47910,6.9917e+07,0,0.67,0,-0.27,17.99,17.98,0,0.01,3
47955,6.9927e+07,0,0.67,0,-0.27,17.99,17.98,0,0.01,3
47999,6.9937e+07,0,0.67,0,-0.26,17.99,17.98,0,0.01,3
48049,6.9947e+07,0,0.67,0,-0.26,17.99,17.98,0,0.01,3
48093,6.9957e+07,0,0.67,0,-0.26,17.99,17.98,0,0.01,3
48139,6.9967e+07,0,0.67,0,-0.26,17.98,17.98,0,0.01,3
48184,6.9977e+07,0,0.68,0,-0.26,17.98,17.98,0,0.01,3
48231,6.9989e+07,0,0.68,0,-0.26,17.98,17.98,0,0.01,3
48278,7.0002e+07,0,0.68,0,-0.26,17.98,17.98,0,0.01,3
48319,7.0012e+07,0,0.68,0,-0.26,17.98,17.98,0,0.01,3
48365,7.0022e+07,0,0.68,0,-0.26,17.98,17.97,0,0.01,3
48410,7.0033e+07,0,0.68,0,-0.26,17.98,17.97,0,0.01,3
48455,7.0043e+07,0,0.67,0,-0.26,17.98,17.97,0,0.01,3
48504,7.0053e+07,0,0.67,0,-0.26,17.98,17.97,0,0.01,3
48549,7.0062e+07,0,0.67,0,-0.26,17.98,17.97,0,0.01,3
48595,7.0073e+07,0,0.67,0,-0.26,17.98,17.97,0,0.01,3
48640,7.0083e+07,0,0.67,0,-0.26,17.98,17.97,0,0.01,3
48681,7.0093e+07,0,0.67,0,-0.26,17.98,17.97,0,0.01,3
48726,7.0103e+07,0,0.67,0,-0.26,17.98,17.97,0,0.01,3
48771,7.0114e+07,0,0.67,0,-0.26,17.98,17.97,0,0.01,3
48815,7.0123e+07,0,0.67,0,-0.26,17.98,17.97,0,0.01,3
48860,7.0134e+07,0,0.67,0,-0.26,17.98,17.97,0,0.01,3
48906,7.0144e+07,0,0.67,0,-0.26,17.98,17.97,0,0.01,3
48955,7.0154e+07,0,0.67,0,-0.26,17.98,17.97,0,0.01,3
48999,7.0164e+07,0,0.67,0,-0.26,17.98,17.98,0,0.01,3
49045,7.0174e+07,0,0.67,0,-0.26,17.99,17.98,0,0.01,3
49089,7.0184e+07,0,0.67,0,-0.26,17.99,17.98,0,0.01,3
49135,7.0194e+07,0,0.67,0,-0.26,17.99,17.98,0,0.01,3
49182,7.0204e+07,0,0.67,0,-0.26,17.99,17.98,0.01,0.01,3
49220,7.0215e+07,0,0.67,0,-0.26,17.99,17.98,0.01,0.01,3
49264,7.0226e+07,0,0.67,0,-0.26,17.99,17.98,0.01,0.01,3
49309,7.0236e+07,0,0.67,0,-0.26,17.99,17.98,0.01,0.01,3
49355,7.0246e+07,0,0.67,0,-0.26,17.99,17.98,0.01,0.01,3
49403,7.0257e+07,0,0.67,0,-0.27,17.99,17.98,0.01,0.01,3
49448,7.0267e+07,0,0.67,0,-0.27,17.99,17.98,0.01,0.01,3
49492,7.0277e+07,0,0.67,0,-0.27,17.99,17.99,0.01,0.01,3
49538,7.0286e+07,0,0.67,0,-0.27,17.99,17.99,0.01,0.01,3
49580,7.0297e+07,0,0.67,0,-0.27,17.99,17.99,0.01,0.01,3
49624,7.0307e+07,0,0.67,0,-0.27,18,17.99,0.01,0.01,3
49669,7.0317e+07,0,0.67,0,-0.26,18,17.99,0.01,0.01,3
49717,7.0327e+07,0,0.67,0,-0.26,18,17.99,0.01,0.01,3
