LineNo,TimeUS,Instance,RPM,RawRPM,Volt,Curr,Temp,CTot,MotTemp,Err
2027,5.8437e+07,5,0,0,15.57,0.05,25,0,0,0
2490,5.8548e+07,5,0,0,15.57,0.05,25,0,0,0
2908,5.8653e+07,5,0,0,15.57,0.05,24,0,0,0
3774,5.8872e+07,5,0,0,15.57,0.05,24,0,0,0
4190,5.8975e+07,5,0,0,15.57,0.06,25,0,0,0
4609,5.9079e+07,5,0,0,15.57,0.05,24,0,0,0
5063,5.9195e+07,5,0,0,15.57,0.05,24,0,0,0
5472,5.9298e+07,5,0,0,15.57,0.05,24,0,0,0
5922,5.9408e+07,5,0,0,15.57,0.05,25,0,0,0
6300,5.9506e+07,5,0,0,15.57,0.05,24,0,0,0
7164,5.9723e+07,5,0,0,15.56,0.05,24,0,0,0
7580,5.9827e+07,5,0,0,15.57,0.06,24,0,0,0
8033,5.9938e+07,5,0,0,15.57,0.05,24,0,0,0
8451,6.0043e+07,5,0,0,15.57,0.05,24,0,0,0
8901,6.0153e+07,5,0,0,15.57,0.05,24,0,0,0
9315,6.0254e+07,5,0,0,15.57,0.05,24,0,0,0
9771,6.0369e+07,5,0,0,15.57,0.05,24,0,0,0
10184,6.0471e+07,5,0,0,15.57,0.05,24,0,0,0
10634,6.0583e+07,5,0,0,15.57,0.04,24,0,0,0
11347,6.0788e+07,5,0,0,15.57,0.05,24,0,0,0
11802,6.0901e+07,5,0,0,15.57,0.05,24,0,0,0
12192,6.1002e+07,5,0,0,15.57,0.05,25,0,0,0
12606,6.1108e+07,5,0,0,15.57,0.05,25,0,0,0
13023,6.1212e+07,5,0,0,15.57,0.05,25,0,0,0
13477,6.1327e+07,5,0,0,15.57,0.05,24,0,0,0
13891,6.143e+07,5,0,0,15.57,0.05,24,0,0,0
14342,6.1541e+07,5,0,0,15.57,0.05,25,0,0,0
14759,6.1648e+07,5,0,0,15.57,0.05,24,0,0,0
15593,6.1853e+07,5,0,0,15.57,0.05,24,0,0,0
16045,6.1962e+07,5,0,0,15.57,0.05,24,0,0,0
16458,6.2064e+07,5,0,0,15.57,0.05,24,0,0,0
16911,6.2178e+07,5,0,0,15.57,0.05,24,0,0,0
17328,6.2282e+07,5,0,0,15.57,0.05,24,0,0,0
17742,6.2386e+07,5,0,0,15.57,0.05,24,0,0,0
18161,6.249e+07,5,0,0,15.57,0.05,24,0,0,0
18580,6.2596e+07,5,0,0,15.57,0.05,25,0,0,0
19031,6.2707e+07,5,0,0,15.57,0.05,25,0,0,0
19442,6.2809e+07,5,0,0,15.57,0.05,25,0,0,0
19902,6.2921e+07,5,0,0,15.57,0.05,25,0,0,0
20320,6.3026e+07,5,0,0,15.57,0.05,24,0,0,0
20733,6.3127e+07,5,0,0,15.57,0.05,25,0,0,0
21148,6.3232e+07,5,0,0,15.57,0.05,24,0,0,0
21600,6.3344e+07,5,0,0,15.56,0.05,25,0,0,0
22015,6.3449e+07,5,0,0,15.57,0.05,24,0,0,0
22469,6.3561e+07,5,0,0,15.57,0.05,24,0,0,0
23326,6.3774e+07,5,0,0,15.57,0.05,25,0,0,0
23780,6.3885e+07,5,0,0,15.57,0.05,25,0,0,0
24193,6.3987e+07,5,0,0,15.56,0.05,25,0,0,0
24608,6.4094e+07,5,0,0,15.57,0.05,25,0,0,0
25054,6.4204e+07,5,0,0,15.57,0.05,25,0,0,0
25467,6.4305e+07,5,0,0,15.57,0.05,25,0,0,0
25884,6.4412e+07,5,0,0,15.57,0.05,25,0,0,0
26337,6.4525e+07,5,0,0,15.57,0.05,25,0,0,0
26747,6.4629e+07,5,0,0,15.57,0.05,25,0,0,0
27200,6.4741e+07,5,0,0,15.57,0.05,25,0,0,0
27581,6.4843e+07,5,0,0,15.57,0.05,25,0,0,0
28039,6.4956e+07,5,0,0,15.57,0.05,25,0,0,0
28260,6.5062e+07,5,0,0,15.57,0.05,25,0,0,0
28712,6.5174e+07,5,0,0,15.57,0.05,25,0,0,0
29125,6.528e+07,5,0,0,15.57,0.05,25,0,0,0
29541,6.5383e+07,5,0,0,15.57,0.05,25,0,0,0
29956,6.5489e+07,5,0,0,15.57,0.05,25,0,0,0
30406,6.5602e+07,5,0,0,15.57,0.05,25,0,0,0
30819,6.5704e+07,5,0,0,15.57,0.05,25,0,0,0
31235,6.581e+07,5,0,0,15.57,0.05,24,0,0,0
31655,6.5914e+07,5,0,0,15.57,0.05,25,0,0,0
32112,6.6033e+07,5,0,0,15.57,0.05,25,0,0,0
32527,6.6135e+07,5,0,0,15.57,0.05,25,0,0,0
32939,6.624e+07,5,0,0,15.57,0.05,24,0,0,0
33391,6.6352e+07,5,0,0,15.57,0.05,24,0,0,0
33765,6.6448e+07,5,0,0,15.57,0.05,25,0,0,0
34219,6.656e+07,5,0,0,15.57,0.05,25,0,0,0
34665,6.667e+07,5,0,0,15.57,0.05,25,0,0,0
35081,6.6773e+07,5,0,0,15.57,0.05,25,0,0,0
35495,6.6875e+07,5,0,0,15.57,0.05,25,0,0,0
35954,6.6986e+07,5,0,0,15.57,0.05,25,0,0,0
36364,6.7091e+07,5,0,0,15.57,0.05,25,0,0,0
36781,6.7199e+07,5,0,0,15.57,0.05,25,0,0,0
37238,6.7311e+07,5,0,0,15.57,0.05,25,0,0,0
38102,6.7524e+07,5,0,0,15.57,0.05,25,0,0,0
38517,6.763e+07,5,0,0,15.57,0.05,24,0,0,0
38930,6.7733e+07,5,0,0,15.57,0.05,25,0,0,0
39386,6.7847e+07,5,0,0,15.57,0.05,24,0,0,0
39801,6.7947e+07,5,0,0,15.56,0.05,25,0,0,0
40212,6.8052e+07,5,0,0,15.57,0.05,25,0,0,0
40666,6.8162e+07,5,0,0,15.57,0.05,25,0,0,0
41079,6.8266e+07,5,0,0,15.57,0.05,25,0,0,0
41534,6.838e+07,5,0,0,15.57,0.05,24,0,0,0
41946,6.8484e+07,5,0,0,15.57,0.05,25,0,0,0
42358,6.8583e+07,5,0,0,15.57,0.05,25,0,0,0
42778,6.8692e+07,5,0,0,15.57,0.05,25,0,0,0
43231,6.8808e+07,5,0,0,15.57,0.05,24,0,0,0
43609,6.89e+07,5,0,0,15.57,0.05,25,0,0,0
44067,6.9018e+07,5,0,0,15.57,0.05,25,0,0,0
44485,6.9119e+07,5,0,0,15.57,0.05,25,0,0,0
44906,6.9225e+07,5,0,0,15.57,0.05,25,0,0,0
45410,6.9335e+07,5,0,0,15.57,0.05,24,0,0,0
45858,6.9439e+07,5,0,0,15.57,0.05,25,0,0,0
46354,6.9551e+07,5,0,0,15.57,0.05,24,0,0,0
46806,6.9655e+07,5,0,0,15.57,0.05,25,0,0,0
47261,6.9759e+07,5,0,0,15.57,0.05,25,0,0,0
47717,6.9867e+07,5,0,0,15.57,0.05,25,0,0,0
48174,6.997e+07,5,0,0,15.57,0.05,25,0,0,0
48630,7.0076e+07,5,0,0,15.57,0.05,25,0,0,0
49127,7.019e+07,5,0,0,15.57,0.05,25,0,0,0
49576,7.0291e+07,5,0,0,15.57,0.05,25,0,0,0
50026,7.0397e+07,5,0,0,15.57,0.05,25,0,0,0
50526,7.0512e+07,5,0,0,15.57,0.05,25,0,0,0
50973,7.0612e+07,5,0,0,15.57,0.05,25,0,0,0
51474,7.0725e+07,5,0,0,15.57,0.05,25,0,0,0
51895,7.0827e+07,5,0,0,15.58,0.05,25,0,0,0
52348,7.0928e+07,5,0,0,15.57,0.05,24,0,0,0
52842,7.1041e+07,5,0,0,15.57,0.05,24,0,0,0
53297,7.1143e+07,5,5,157,15.57,0.05,25,0,0,0
53754,7.1251e+07,5,170,514,15.55,0.1,25,0,0,0
54252,7.1363e+07,5,544,885,15.55,0.16,25,0,0,0
55154,7.1567e+07,5,886,1200,15.55,0.12,25,0,0,0
55646,7.1679e+07,5,1201,1228,15.55,0.12,25,0,0,0
55990,7.1785e+07,5,1228,1242,15.55,0.12,25,0,0,0
56450,7.1892e+07,5,1242,1257,15.55,0.12,25,0,0,0
56950,7.2009e+07,5,1257,1257,15.55,0.11,25,0,0,0
57402,7.2109e+07,5,1257,1257,15.56,0.12,25,0,0,0
57899,7.2222e+07,5,1257,1257,15.55,0.11,25,0,0,0
58313,7.2316e+07,5,1257,1257,15.55,0.11,25,0,0,0
58809,7.2431e+07,5,1257,1257,15.55,0.11,25,0,0,0
59262,7.2532e+07,5,1257,1257,15.56,0.11,25,0,0,0
59759,7.2645e+07,5,1257,1257,15.56,0.11,25,0,0,0
60211,7.2746e+07,5,1257,1257,15.56,0.12,25,0,0,0
60666,7.285e+07,5,1257,1257,15.55,0.11,25,0,0,0
61165,7.2963e+07,5,1257,1257,15.56,0.11,25,0,0,0
61611,7.3065e+07,5,1257,1257,15.55,0.12,25,0,0,0
62111,7.3178e+07,5,1257,1257,15.55,0.11,25,0,0,0
62568,7.3284e+07,5,1257,1257,15.55,0.11,25,0,0,0
63023,7.3386e+07,5,1257,1257,15.55,0.11,25,0,0,0
63516,7.3498e+07,5,1257,1257,15.56,0.12,25,0,0,0
63942,7.3602e+07,5,1257,1257,15.55,0.11,25,0,0,0
64439,7.3719e+07,5,1257,1257,15.55,0.11,25,0,0,0
64848,7.3817e+07,5,1257,1257,15.55,0.11,25,0,0,0
65351,7.3931e+07,5,1257,1257,15.56,0.11,25,0,0,0
65801,7.4037e+07,5,1257,1257,15.55,0.11,25,0,0,0
66295,7.4149e+07,5,1257,1257,15.56,0.11,25,0,0,0
66750,7.4255e+07,5,1257,1257,15.56,0.11,25,0,0,0
67205,7.4358e+07,5,1257,1257,15.56,0.11,25,0,0,0
67700,7.4474e+07,5,1257,1257,15.55,0.11,25,0,0,0
68153,7.4577e+07,5,1257,1257,15.55,0.11,25,0,0,0
68601,7.4684e+07,5,1257,1257,15.56,0.11,25,0,0,0
69102,7.4803e+07,5,1257,1257,15.55,0.11,25,0,0,0
70047,7.5021e+07,5,1257,1257,15.55,0.11,25,0,0,0
70499,7.5123e+07,5,1257,1257,15.55,0.11,25,0,0,0
70985,7.5233e+07,5,1257,1257,15.55,0.11,25,0,0,0
71450,7.5341e+07,5,1257,1257,15.55,0.11,25,0,0,0
71861,7.5439e+07,5,1257,1257,15.55,0.11,25,0,0,0
72358,7.5552e+07,5,1257,1257,15.55,0.12,25,0,0,0
72806,7.5656e+07,5,1257,1257,15.55,0.12,25,0,0,0
73302,7.5768e+07,5,1257,1257,15.55,0.11,25,0,0,0
73753,7.5872e+07,5,1259,1400,15.54,0.21,25,0,0,0
74252,7.5985e+07,5,1434,1785,15.5,0.63,25,0,0,0
74702,7.6094e+07,5,1816,2242,15.5,0.56,25,0,0,0
75205,7.6206e+07,5,2246,2300,15.58,0.42,25,0,0,0
75659,7.6314e+07,5,2294,2214,15.55,0.19,25,0,0,0
76106,7.6418e+07,5,2225,2457,15.34,0.9,25,0,0,0
76602,7.6534e+07,5,2497,3142,15.31,1.54,25,0,0,0
77017,7.6641e+07,5,3173,3842,15.22,1.92,25,0,0,0
77514,7.6756e+07,5,3878,4371,15.1,2.88,25,0,0,0
77967,7.6862e+07,5,4412,4842,14.97,3.02,25,0,0,0
78419,7.6967e+07,5,4868,5442,14.88,3.63,25,0,0,0
79319,7.7185e+07,5,5453,5957,14.97,3.61,25,1,0,0
79742,7.7295e+07,5,5959,5985,14.88,4.23,25,1,0,0
80197,7.7402e+07,5,5987,6042,14.88,4.45,25,1,0,0
80686,7.7517e+07,5,6061,6314,14.88,4.28,25,1,0,0
81139,7.7627e+07,5,6311,6271,14.92,4.66,25,1,0,0
81636,7.7742e+07,5,6279,6371,14.88,4.77,25,1,0,0
82541,7.7958e+07,5,6370,6357,14.89,4.66,25,2,0,0
82954,7.8062e+07,5,6356,6342,14.98,4.36,25,2,0,0
83450,7.8178e+07,5,6328,6185,14.98,3.73,25,2,0,0
83896,7.8284e+07,5,6177,6014,14.97,3.59,25,2,0,0
84352,7.8394e+07,5,6000,5828,14.98,3.56,25,2,0,0
84811,7.851e+07,5,5835,5914,15,3.46,25,2,0,0
85264,7.8618e+07,5,5893,5700,14.98,3.16,25,2,0,0
85718,7.8725e+07,5,5700,5700,14.95,3.82,25,2,0,0
86167,7.8832e+07,5,5734,6057,14.83,4.55,26,3,0,0
86594,7.894e+07,5,6062,6214,14.82,4.51,26,3,0,0
87035,7.9049e+07,5,6219,6285,14.86,4.47,25,3,0,0
87484,7.9157e+07,5,6292,6371,14.86,4.66,26,3,0,0
87932,7.9268e+07,5,6361,6257,14.9,4.24,26,3,0,0
88338,7.9368e+07,5,6253,6185,14.92,3.91,26,3,0,0
88824,7.9486e+07,5,6169,5942,14.91,3.51,26,3,0,0
89229,7.9584e+07,5,5938,5757,15.05,3.16,26,3,0,0
89674,7.9694e+07,5,5752,5657,15.09,3.39,26,4,0,0
90132,7.9809e+07,5,5664,5728,15.05,3.67,26,4,0,0
90579,7.9916e+07,5,5718,5628,15,3.32,26,4,0,0
91066,8.0036e+07,5,5633,5700,15.02,3.11,26,4,0,0
91425,8.0127e+07,5,5700,5714,14.99,3.39,26,4,0,0
91878,8.0241e+07,5,5698,5542,15.1,2.67,26,4,0,0
92325,8.0348e+07,5,5532,5400,15.1,2.36,26,4,0,0
92760,8.0454e+07,5,5394,5314,15.11,2.59,26,4,0,0
93218,8.0566e+07,5,5311,5285,15.08,2.8,26,4,0,0
93651,8.067e+07,5,5299,5500,15.02,2.98,26,4,0,0
94106,8.078e+07,5,5504,5557,15.01,3.1,26,4,0,0
94556,8.0892e+07,5,5548,5457,14.99,2.83,26,5,0,0
95004,8.0999e+07,5,5470,5657,14.95,3.13,26,5,0,0
95442,8.1105e+07,5,5650,5571,14.87,3.11,26,5,0,0
95886,8.1215e+07,5,5584,5757,14.94,3.14,26,5,0,0
96339,8.1326e+07,5,5746,5628,14.95,3.27,26,5,0,0
96746,8.1431e+07,5,5627,5614,15.02,2.84,26,5,0,0
97643,8.1655e+07,5,5609,5514,14.87,3.22,26,5,0,0
98091,8.1762e+07,5,5486,5214,15,2.24,26,5,0,0
98536,8.1871e+07,5,5210,5157,15.02,2.43,26,5,0,0
98986,8.198e+07,5,5150,5057,15.09,2.26,26,5,0,0
99434,8.2093e+07,5,5063,5128,15.05,2.2,26,5,0,0
99838,8.2192e+07,5,5120,4757,15.1,1.79,26,6,0,0
1.0032e+05,8.2304e+07,5,4752,4685,15.09,2.09,26,6,0,0
1.0077e+05,8.2419e+07,5,4703,4900,15.08,2.22,26,6,0,0
1.0118e+05,8.2523e+07,5,4902,4942,15.04,2.35,26,6,0,0
1.0158e+05,8.2627e+07,5,4960,5314,14.86,3.41,26,6,0,0
1.0204e+05,8.2741e+07,5,5323,5414,14.92,3.33,26,6,0,0
1.0248e+05,8.2843e+07,5,5426,5671,14.93,3.16,26,6,0,0
1.0293e+05,8.2958e+07,5,5674,5728,14.95,3.27,26,6,0,0
1.0378e+05,8.3171e+07,5,5727,5685,14.99,2.85,26,6,0,0
1.0422e+05,8.3278e+07,5,5684,5671,14.95,3.15,26,6,0,0
1.0512e+05,8.35e+07,5,5675,5771,14.94,2.97,26,7,0,0
1.0557e+05,8.3605e+07,5,5769,5742,14.92,3.21,26,7,0,0
1.0602e+05,8.3714e+07,5,5746,5800,14.94,3.1,26,7,0,0
1.0646e+05,8.3822e+07,5,5811,5971,14.99,3.42,26,7,0,0
1.0691e+05,8.3933e+07,5,5961,5800,14.97,3.32,26,7,0,0
1.0732e+05,8.4036e+07,5,5799,5785,14.97,3,26,7,0,0
1.0777e+05,8.4148e+07,5,5785,5828,14.91,2.84,26,7,0,0
1.0822e+05,8.4258e+07,5,5826,5785,14.95,2.81,26,7,0,0
1.0866e+05,8.4364e+07,5,5783,5685,15,2.98,26,7,0,0
1.0911e+05,8.4474e+07,5,5681,5614,14.95,2.9,26,7,0,0
1.0956e+05,8.459e+07,5,5611,5585,14.96,2.75,26,8,0,0
1.1042e+05,8.48e+07,5,5575,5314,14.86,3,27,8,0,0
1.1087e+05,8.4909e+07,5,5330,5671,14.93,3.38,26,8,0,0
1.1128e+05,8.5015e+07,5,5672,5785,14.89,3.77,26,8,0,0
1.1176e+05,8.5136e+07,5,5795,5928,14.82,3.67,26,8,0,0
1.122e+05,8.5239e+07,5,5927,5914,14.9,3.63,26,8,0,0
1.127e+05,8.5359e+07,5,5914,5914,14.86,3.66,27,8,0,0
1.131e+05,8.5465e+07,5,5918,5985,14.88,3.3,26,8,0,0
1.1397e+05,8.5683e+07,5,5974,5742,14.92,3.24,26,9,0,0
1.1442e+05,8.5791e+07,5,5747,5814,14.9,3.41,26,9,0,0
1.1487e+05,8.5903e+07,5,5814,5828,14.98,2.94,26,9,0,0
1.1531e+05,8.6014e+07,5,5826,5757,14.97,3.28,26,9,0,0
1.1666e+05,8.6341e+07,5,5760,5885,14.89,3.53,26,9,0,0
1.171e+05,8.6451e+07,5,5888,5942,14.86,3.58,27,9,0,0
1.1754e+05,8.6556e+07,5,5937,5857,14.84,3.5,27,9,0,0
1.18e+05,8.6671e+07,5,5846,5700,14.94,3.31,27,9,0,0
1.1841e+05,8.677e+07,5,5699,5657,14.92,2.99,26,10,0,0
1.189e+05,8.6887e+07,5,5667,5800,15,3.13,27,10,0,0
1.1935e+05,8.6997e+07,5,5793,5728,14.89,3.52,27,10,0,0
1.1975e+05,8.7098e+07,5,5729,5757,14.93,2.94,27,10,0,0
1.202e+05,8.7206e+07,5,5743,5557,14.97,3.12,27,10,0,0
1.2065e+05,8.7319e+07,5,5569,5728,14.8,3.61,27,10,0,0
1.2105e+05,8.7421e+07,5,5725,5685,14.92,3.3,27,10,0,0
1.215e+05,8.7532e+07,5,5687,5728,14.91,3.5,27,10,0,0
1.2191e+05,8.7635e+07,5,5729,5800,14.94,3.29,27,10,0,0
1.2239e+05,8.7744e+07,5,5799,5771,14.89,3.76,27,10,0,0
1.231e+05,8.7964e+07,5,5937,5828,14.86,3.29,27,11,0,0
1.2399e+05,8.8179e+07,5,5822,5671,14.81,3.32,27,11,0,0
1.2444e+05,8.8288e+07,5,5678,5871,14.79,4.18,27,11,0,0
1.2489e+05,8.8399e+07,5,5879,6085,14.83,3.96,27,11,0,0
1.2533e+05,8.8507e+07,5,6085,6100,14.83,4.07,27,11,0,0
1.2578e+05,8.8618e+07,5,6095,6042,14.85,4.08,27,11,0,0
1.2623e+05,8.8725e+07,5,6040,6028,14.92,3.51,27,11,0,0
1.2667e+05,8.8835e+07,5,6024,5971,14.95,3.69,27,11,0,0
1.2713e+05,8.8945e+07,5,5982,6128,14.85,3.79,27,12,0,0
1.2757e+05,8.9054e+07,5,6121,6042,14.83,3.62,27,12,0,0
1.2846e+05,8.9274e+07,5,6033,5785,14.89,3.34,27,12,0,0
1.2891e+05,8.9382e+07,5,5794,5942,14.84,4.09,27,12,0,0
1.2981e+05,8.96e+07,5,5937,5814,14.89,3.32,27,12,0,0
1.3025e+05,8.9714e+07,5,5817,5857,14.81,3.59,27,12,0,0
1.307e+05,8.9821e+07,5,5858,5871,14.88,3.72,27,12,0,0
1.311e+05,8.992e+07,5,5871,5885,14.87,3.57,27,13,0,0
1.3156e+05,9.0035e+07,5,5875,5771,14.88,3.08,27,13,0,0
1.3245e+05,9.0254e+07,5,5774,5857,14.79,4.05,27,13,0,0
1.3286e+05,9.0354e+07,5,5870,6157,14.81,4.54,27,13,0,0
1.3331e+05,9.0472e+07,5,6155,6128,14.82,3.88,27,13,0,0
1.3421e+05,9.069e+07,5,6106,5685,14.92,3,27,13,0,0
1.3466e+05,9.0801e+07,5,5682,5657,14.95,2.77,27,13,0,0
1.3506e+05,9.0902e+07,5,5637,5185,14.97,2.45,27,14,0,0
1.3556e+05,9.1021e+07,5,5180,5128,15,2.14,27,14,0,0
1.36e+05,9.113e+07,5,5126,5114,14.92,2.79,27,14,0,0
1.364e+05,9.123e+07,5,5115,5200,14.99,3,27,14,0,0
1.3685e+05,9.134e+07,5,5204,5314,14.88,2.89,27,14,0,0
1.3726e+05,9.1444e+07,5,5311,5257,14.92,2.5,27,14,0,0
1.3776e+05,9.1569e+07,5,5255,5242,14.88,2.62,27,14,0,0
1.3816e+05,9.1673e+07,5,5248,5300,14.89,2.98,27,14,0,0
1.3862e+05,9.1785e+07,5,5323,5500,14.84,3.18,27,14,0,0
1.3902e+05,9.1884e+07,5,5504,5785,14.83,3.56,27,14,0,0
1.3947e+05,9.1992e+07,5,5791,5957,14.86,3.46,27,14,0,0
1.4037e+05,9.2215e+07,5,5957,5957,14.82,3.88,27,15,0,0
1.4085e+05,9.2333e+07,5,5944,5814,14.8,3.43,27,15,0,0
1.4169e+05,9.2538e+07,5,5817,6071,14.79,4.15,27,15,0,0
1.4214e+05,9.2649e+07,5,6080,6200,14.78,4.38,27,15,0,0
1.4259e+05,9.2758e+07,5,6187,6042,14.83,3.91,27,15,0,0
1.4304e+05,9.2876e+07,5,6048,6100,14.81,4.08,27,15,0,0
1.435e+05,9.2984e+07,5,6103,6157,14.74,4.78,27,15,0,0
1.439e+05,9.3087e+07,5,6163,6342,14.76,4.87,27,16,0,0
1.4439e+05,9.3208e+07,5,6342,6342,14.74,4.6,27,16,0,0
1.4484e+05,9.3315e+07,5,6338,6257,14.77,4.64,27,16,0,0
1.4524e+05,9.3422e+07,5,6261,6328,14.85,4.36,27,16,0,0
1.4574e+05,9.3537e+07,5,6324,6285,14.82,4.09,27,16,0,0
1.4614e+05,9.3638e+07,5,6268,6114,14.79,4.01,27,16,0,0
1.4655e+05,9.3743e+07,5,6116,6257,14.79,4.23,27,16,0,0
1.4703e+05,9.3855e+07,5,6246,6071,14.82,3.94,27,17,0,0
1.4748e+05,9.3965e+07,5,6072,6100,14.79,3.65,27,17,0,0
1.4838e+05,9.4181e+07,5,6098,6028,14.83,3.93,27,17,0,0
1.4883e+05,9.4294e+07,5,6025,5985,14.83,3.72,27,17,0,0
1.4927e+05,9.4403e+07,5,5991,6128,14.74,3.84,27,17,0,0
1.4972e+05,9.4513e+07,5,6126,6071,14.75,4.42,27,17,0,0
1.5017e+05,9.4622e+07,5,6072,6100,14.78,3.95,27,17,0,0
1.5062e+05,9.473e+07,5,6095,6042,14.83,3.83,27,17,0,0
1.5106e+05,9.4843e+07,5,6034,5957,14.83,3.49,27,18,0,0
1.5152e+05,9.4952e+07,5,5950,5885,14.89,3.59,27,18,0,0
1.5192e+05,9.5054e+07,5,5888,5942,14.88,3.29,27,18,0,0
1.5237e+05,9.5162e+07,5,5939,5900,14.86,3.25,27,18,0,0
1.5326e+05,9.5386e+07,5,5900,5928,14.8,3.72,27,18,0,0
1.5371e+05,9.5494e+07,5,5928,5928,14.83,3.36,27,18,0,0
1.5416e+05,9.5607e+07,5,5914,5757,14.81,3.33,27,18,0,0
1.5457e+05,9.571e+07,5,5771,5971,14.79,3.36,27,18,0,0
1.5502e+05,9.5821e+07,5,5979,6071,14.75,4.05,27,19,0,0
1.5547e+05,9.5931e+07,5,6069,6042,14.86,3.65,27,19,0,0
1.5677e+05,9.6255e+07,5,6042,6071,14.75,4.08,27,19,0,0
1.5769e+05,9.6477e+07,5,6067,5971,14.76,3.77,27,19,0,0
1.5814e+05,9.6583e+07,5,5978,6085,14.83,4.21,27,19,0,0
1.5859e+05,9.6693e+07,5,6100,6328,14.77,4.1,27,20,0,0
1.5904e+05,9.6798e+07,5,6328,6328,14.74,4.76,27,20,0,0
1.5949e+05,9.691e+07,5,6318,6185,14.78,3.85,27,20,0,0
1.599e+05,9.7014e+07,5,6187,6314,14.73,4.24,27,20,0,0
1.6035e+05,9.7122e+07,5,6306,5842,14.78,3,27,20,0,0
1.6079e+05,9.7233e+07,5,5840,5814,14.8,3.27,27,20,0,0
1.6124e+05,9.7341e+07,5,5792,5514,14.89,2.64,27,20,0,0
1.6168e+05,9.7451e+07,5,5529,5742,14.78,4.05,27,20,0,0
1.6213e+05,9.7559e+07,5,5750,5871,14.78,3.75,27,20,0,0
1.6258e+05,9.7669e+07,5,5872,5900,14.79,3.69,27,21,0,0
1.6347e+05,9.7886e+07,5,5885,5585,14.84,2.37,27,21,0,0
1.6388e+05,9.7986e+07,5,5580,5485,14.85,2.74,27,21,0,0
1.6433e+05,9.8101e+07,5,5485,5485,14.79,3.45,27,21,0,0
1.6478e+05,9.8213e+07,5,5519,5757,14.84,3.63,27,21,0,0
1.6523e+05,9.8318e+07,5,5750,5685,14.84,3.48,27,21,0,0
1.6563e+05,9.8417e+07,5,5685,5742,14.88,3.58,27,21,0,0
1.6608e+05,9.8527e+07,5,5742,5757,14.89,3.68,27,21,0,0
1.6656e+05,9.8642e+07,5,5759,5785,14.78,3.69,27,21,0,0
1.67e+05,9.8747e+07,5,5791,5900,14.84,3.69,27,22,0,0
1.6745e+05,9.8864e+07,5,5898,5885,14.88,3.64,27,22,0,0
1.679e+05,9.8972e+07,5,5879,5842,14.8,3.64,28,22,0,0
1.6835e+05,9.908e+07,5,5851,5914,14.79,3.75,28,22,0,0
1.688e+05,9.9184e+07,5,5904,5814,14.8,3.43,27,22,0,0
1.6924e+05,9.9295e+07,5,5804,5728,14.85,3.2,27,22,0,0
1.6969e+05,9.9401e+07,5,5727,5714,14.83,3.27,28,22,0,0
1.7014e+05,9.9513e+07,5,5711,5685,14.87,3.09,27,22,0,0
1.7054e+05,9.9618e+07,5,5685,5714,14.78,3.71,28,22,0,0
1.7103e+05,9.9734e+07,5,5714,5714,14.87,3.39,28,22,0,0
1.7147e+05,9.9842e+07,5,5715,5742,14.8,3.59,28,23,0,0
1.7193e+05,9.9956e+07,5,5745,5800,14.86,3.33,27,23,0,0
1.7234e+05,1.0006e+08,5,5797,5728,14.75,3.62,28,23,0,0
1.7283e+05,1.0018e+08,5,5735,5814,14.77,3.62,28,23,0,0
1.7327e+05,1.0028e+08,5,5806,5728,14.75,3.61,28,23,0,0
1.7372e+05,1.0039e+08,5,5736,5800,14.82,3.63,28,23,0,0
1.7412e+05,1.0049e+08,5,5800,5800,14.82,3.63,28,23,0,0
1.7457e+05,1.006e+08,5,5806,5900,14.76,3.48,28,23,0,0
1.7502e+05,1.0071e+08,5,5899,5885,14.8,3.37,28,23,0,0
1.7546e+05,1.0082e+08,5,5884,5857,14.76,3.95,28,23,0,0
1.7591e+05,1.0092e+08,5,5859,6000,14.73,3.94,28,24,0,0
1.7636e+05,1.0103e+08,5,5986,5857,14.76,3.81,28,24,0,0
1.7725e+05,1.0125e+08,5,5860,5971,14.8,3.54,28,24,0,0
1.777e+05,1.0136e+08,5,5956,5800,14.82,3.59,28,24,0,0
1.7815e+05,1.0147e+08,5,5806,5900,14.8,3.45,28,24,0,0
1.7952e+05,1.0181e+08,5,5904,6014,14.73,3.84,28,25,0,0
1.7993e+05,1.0191e+08,5,6010,5942,14.76,3.58,28,25,0,0
1.8082e+05,1.0212e+08,5,5939,5628,14.86,3.02,28,25,0,0
1.8131e+05,1.0224e+08,5,5631,5700,14.8,3.21,28,25,0,0
1.8176e+05,1.0235e+08,5,5699,5685,14.81,3.57,28,25,0,0
1.8221e+05,1.0246e+08,5,5693,5857,14.77,3.08,28,25,0,0
1.8266e+05,1.0258e+08,5,5846,5742,14.8,3.27,28,25,0,0
1.8306e+05,1.0268e+08,5,5740,5714,14.8,3.22,28,25,0,0
1.8352e+05,1.0279e+08,5,5711,5685,14.83,3.2,28,25,0,0
1.8392e+05,1.0289e+08,5,5687,5714,14.75,3.34,28,26,0,0
1.8437e+05,1.0301e+08,5,5711,5685,14.8,3.05,28,26,0,0
1.8482e+05,1.0312e+08,5,5687,5714,14.75,3.44,28,26,0,0
1.8527e+05,1.0323e+08,5,5719,5771,14.81,3.36,28,26,0,0
1.8567e+05,1.0333e+08,5,5770,5742,14.83,3.23,28,26,0,0
1.8612e+05,1.0344e+08,5,5744,5771,14.83,3.29,28,26,0,0
1.8702e+05,1.0366e+08,5,5769,5714,14.77,3.59,28,26,0,0
1.8747e+05,1.0377e+08,5,5727,5857,14.77,3.27,28,26,0,0
1.8791e+05,1.0388e+08,5,5851,5771,14.84,3.27,28,26,0,0
1.8836e+05,1.0399e+08,5,5769,5742,14.81,3.17,28,27,0,0
1.8881e+05,1.041e+08,5,5730,5571,14.77,2.96,28,27,0,0
1.8926e+05,1.0421e+08,5,5566,5471,14.85,2.66,28,27,0,0
1.897e+05,1.0432e+08,5,5465,5342,14.86,2.54,28,27,0,0
1.9016e+05,1.0443e+08,5,5355,5571,14.88,3.22,28,27,0,0
1.9061e+05,1.0454e+08,5,5561,5471,14.81,3.19,28,27,0,0
1.9105e+05,1.0466e+08,5,5500,5828,14.82,3.83,28,27,0,0
1.919e+05,1.0487e+08,5,5829,6014,14.75,3.95,28,27,0,0
1.9235e+05,1.0498e+08,5,6016,6085,14.71,4.27,28,27,0,0
1.928e+05,1.0508e+08,5,6086,6185,14.73,4.26,28,28,0,0
1.9324e+05,1.0519e+08,5,6180,5985,14.74,4.2,28,28,0,0
1.9372e+05,1.0531e+08,5,5995,6142,14.74,4.08,28,28,0,0
1.9462e+05,1.0553e+08,5,6135,6000,14.75,3.61,28,28,0,0
1.9507e+05,1.0564e+08,5,6011,6114,14.7,4.14,28,28,0,0
1.9551e+05,1.0575e+08,5,6099,5971,14.76,3.79,28,28,0,0
1.9592e+05,1.0585e+08,5,5967,5928,14.81,3.81,28,28,0,0
1.9633e+05,1.0595e+08,5,5925,5800,14.79,3.28,28,29,0,0
1.9682e+05,1.0607e+08,5,5803,5842,14.85,3.22,28,29,0,0
1.9772e+05,1.063e+08,5,5826,5528,14.81,3.18,28,29,0,0
1.9861e+05,1.0652e+08,5,5547,5785,14.8,3.41,28,29,0,0
1.9949e+05,1.0673e+08,5,5777,5642,14.89,3.1,28,29,0,0
1.999e+05,1.0683e+08,5,5637,5600,14.72,3.7,28,29,0,0
2.008e+05,1.0705e+08,5,5606,5742,14.7,3.66,28,30,0,0
2.0125e+05,1.0716e+08,5,5728,5614,14.76,3.23,28,30,0,0
2.0172e+05,1.0728e+08,5,5619,5700,14.8,3.03,28,30,0,0
2.0302e+05,1.0759e+08,5,5699,5685,14.79,3.01,28,30,0,0
2.0347e+05,1.077e+08,5,5686,5714,14.82,3.37,28,30,0,0
2.0436e+05,1.0792e+08,5,5710,5642,14.77,2.98,28,30,0,0
2.0477e+05,1.0803e+08,5,5635,5542,14.82,2.62,28,30,0,0
2.0522e+05,1.0814e+08,5,5543,5571,14.82,2.62,28,30,0,0
2.0566e+05,1.0825e+08,5,5554,5314,14.84,2.62,28,31,0,0
2.0607e+05,1.0835e+08,5,5316,5442,14.87,2.57,28,31,0,0
2.0655e+05,1.0846e+08,5,5443,5457,14.82,2.95,28,31,0,0
2.07e+05,1.0857e+08,5,5457,5471,14.77,3.13,28,31,0,0
2.0744e+05,1.0868e+08,5,5473,5528,14.76,3.16,28,31,0,0
2.0785e+05,1.0878e+08,5,5528,5585,14.79,3.2,28,31,0,0
2.0834e+05,1.089e+08,5,5588,5628,14.77,3.1,28,31,0,0
2.0879e+05,1.0901e+08,5,5627,5614,14.78,3.21,28,31,0,0
2.0923e+05,1.0912e+08,5,5610,5571,14.82,2.56,28,31,0,0
2.096e+05,1.0922e+08,5,5577,5671,14.82,3.52,28,31,0,0
2.1005e+05,1.0934e+08,5,5676,5757,14.72,3.47,28,31,0,0
2.1049e+05,1.0944e+08,5,5751,5685,14.82,3.1,28,32,0,0
2.1094e+05,1.0955e+08,5,5683,5657,14.72,3.57,28,32,0,0
2.1138e+05,1.0966e+08,5,5672,5900,14.77,3.59,28,32,0,0
2.1183e+05,1.0977e+08,5,5903,5985,14.76,3.83,28,32,0,0
2.1227e+05,1.0987e+08,5,5983,5914,14.81,3.55,28,32,0,0
2.1272e+05,1.0998e+08,5,5912,5885,14.77,3.25,28,32,0,0
2.1317e+05,1.1009e+08,5,5885,5885,14.72,3.66,28,32,0,0
2.1357e+05,1.102e+08,5,5887,6057,14.71,3.85,28,32,0,0
2.1398e+05,1.103e+08,5,6053,5942,14.75,3.45,28,32,0,0
2.1444e+05,1.1042e+08,5,5938,5900,14.77,3.6,28,32,0,0
2.1488e+05,1.1052e+08,5,5890,5714,14.78,2.98,28,33,0,0
2.1532e+05,1.1063e+08,5,5710,5671,14.77,3.34,28,33,0,0
2.1573e+05,1.1073e+08,5,5679,5857,14.75,4.03,28,33,0,0
2.1622e+05,1.1085e+08,5,5862,5942,14.77,3.49,28,33,0,0
2.1663e+05,1.1096e+08,5,5937,5885,14.83,3.31,28,33,0,0
2.1708e+05,1.1107e+08,5,5872,5585,14.77,3.1,28,33,0,0
2.1752e+05,1.1118e+08,5,5592,5700,14.81,3.04,28,33,0,0
2.1796e+05,1.1128e+08,5,5698,5657,14.82,3.04,28,33,0,0
2.1841e+05,1.1139e+08,5,5654,5600,14.79,3.31,28,33,0,0
2.1886e+05,1.1151e+08,5,5588,5428,14.77,2.91,28,33,0,0
2.1936e+05,1.1163e+08,5,5428,5428,14.86,2.92,28,34,0,0
2.198e+05,1.1173e+08,5,5440,5557,14.76,3.38,28,34,0,0
2.202e+05,1.1183e+08,5,5557,5557,14.71,3.63,28,34,0,0
2.2066e+05,1.1194e+08,5,5563,5914,14.79,3.46,28,34,0,0
2.211e+05,1.1205e+08,5,5889,5657,14.8,3.45,28,34,0,0
2.2159e+05,1.1216e+08,5,5666,5771,14.77,3.47,28,34,0,0
2.2199e+05,1.1226e+08,5,5771,5785,14.77,3.47,28,34,0,0
2.2244e+05,1.1237e+08,5,5787,5814,14.71,3.61,28,34,0,0
2.2288e+05,1.1248e+08,5,5831,6057,14.6,4.28,28,34,0,0
2.2332e+05,1.1259e+08,5,6065,6228,14.68,4.46,28,35,0,0
2.2422e+05,1.1281e+08,5,6226,6200,14.7,4.12,28,35,0,0
2.2466e+05,1.1291e+08,5,6185,6014,14.69,3.85,28,35,0,0
2.2511e+05,1.1303e+08,5,6007,5928,14.69,3.99,28,35,0,0
2.2551e+05,1.1313e+08,5,5929,5971,14.66,4.09,28,35,0,0
2.2596e+05,1.1324e+08,5,5984,6257,14.63,4.66,28,35,0,0
2.2641e+05,1.1335e+08,5,6250,6185,14.71,4.1,28,35,0,0
2.2681e+05,1.1345e+08,5,6180,5871,14.83,3.27,28,36,0,0
2.2726e+05,1.1356e+08,5,5869,5842,14.78,3.06,28,36,0,0
2.2771e+05,1.1368e+08,5,5823,5642,14.8,3.26,28,36,0,0
2.2812e+05,1.1378e+08,5,5645,5728,14.83,2.91,28,36,0,0
2.286e+05,1.1389e+08,5,5729,5742,14.86,3.35,28,36,0,0
2.2905e+05,1.14e+08,5,5733,5628,14.8,2.96,28,36,0,0
2.2946e+05,1.1411e+08,5,5623,5528,14.86,3.1,28,36,0,0
2.2994e+05,1.1422e+08,5,5529,5542,14.75,3.32,28,36,0,0
2.3079e+05,1.1443e+08,5,5546,5685,14.82,3.03,28,36,0,0
2.3124e+05,1.1454e+08,5,5683,5657,14.75,2.99,28,37,0,0
2.3169e+05,1.1465e+08,5,5650,5585,14.82,2.61,28,37,0,0
2.3213e+05,1.1476e+08,5,5578,5485,14.88,3.21,28,37,0,0
2.3253e+05,1.1486e+08,5,5489,5585,14.71,2.93,28,37,0,0
2.3299e+05,1.1497e+08,5,5589,5685,14.79,3.25,28,37,0,0
2.3388e+05,1.1519e+08,5,5678,5542,14.81,2.58,28,37,0,0
2.3434e+05,1.1531e+08,5,5507,5142,14.85,2.19,28,37,0,0
2.3474e+05,1.1541e+08,5,5146,5414,14.82,3.13,28,37,0,0
2.3522e+05,1.1552e+08,5,5443,5728,14.71,3.84,28,37,0,0
2.3566e+05,1.1563e+08,5,5735,5814,14.72,3.5,28,37,0,0
2.3655e+05,1.1585e+08,5,5811,5742,14.72,3.27,28,38,0,0
2.37e+05,1.1596e+08,5,5751,5871,14.75,3.58,28,38,0,0
2.3742e+05,1.1606e+08,5,5861,5742,14.85,2.44,28,38,0,0
2.3831e+05,1.1628e+08,5,5714,5285,14.8,2.52,28,38,0,0
2.3875e+05,1.1639e+08,5,5284,5228,14.92,1.95,28,38,0,0
2.3919e+05,1.165e+08,5,5219,5128,14.83,2.13,28,38,0,0
2.3964e+05,1.1661e+08,5,5109,4957,14.92,1.72,28,38,0,0
2.4004e+05,1.1671e+08,5,4957,5014,14.89,2.25,28,38,0,0
2.4138e+05,1.1704e+08,5,5016,5571,14.79,3.48,28,38,0,0
2.4186e+05,1.1715e+08,5,5565,5514,14.82,2.77,28,39,0,0
2.4272e+05,1.1736e+08,5,5500,5100,14.77,2.27,28,39,0,0
2.4316e+05,1.1747e+08,5,5101,5171,14.8,2.6,28,39,0,0
2.4361e+05,1.1758e+08,5,5176,5314,14.75,2.73,28,39,0,0
2.4409e+05,1.1769e+08,5,5314,5314,14.82,3.01,28,39,0,0
2.4454e+05,1.178e+08,5,5315,5328,14.73,2.96,28,39,0,0
2.4494e+05,1.179e+08,5,5327,5300,14.82,2.18,28,39,0,0
2.4543e+05,1.1802e+08,5,5308,5428,14.75,3.05,28,39,0,0
2.4584e+05,1.1812e+08,5,5428,5442,14.79,2.67,28,39,0,0
2.4624e+05,1.1823e+08,5,5436,5328,14.79,2.49,28,39,0,0
2.4673e+05,1.1834e+08,5,5324,5271,14.83,2.54,28,39,0,0
2.4718e+05,1.1846e+08,5,5276,5328,14.75,2.7,28,40,0,0
2.4762e+05,1.1856e+08,5,5329,5342,14.79,2.65,28,40,0,0
2.4802e+05,1.1866e+08,5,5343,5414,14.84,2.67,28,40,0,0
2.4851e+05,1.1878e+08,5,5419,5485,14.76,2.88,28,40,0,0
2.4892e+05,1.1888e+08,5,5487,5557,14.77,3.04,28,40,0,0
2.4936e+05,1.1899e+08,5,5560,5714,14.74,3.5,28,40,0,0
2.4985e+05,1.1911e+08,5,5721,5914,14.8,3.66,28,40,0,0
2.503e+05,1.1922e+08,5,5912,5857,14.77,3.5,28,40,0,0
2.5075e+05,1.1933e+08,5,5878,6085,14.73,4.03,28,40,0,0
2.5118e+05,1.1943e+08,5,6085,6085,14.7,3.92,28,40,0,0
2.5164e+05,1.1954e+08,5,6077,5971,14.65,3.78,28,41,0,0
2.5208e+05,1.1965e+08,5,5981,6128,14.7,4.03,28,41,0,0
2.5253e+05,1.1976e+08,5,6130,6171,14.75,3.98,28,41,0,0
2.5298e+05,1.1987e+08,5,6162,6057,14.73,3.47,28,41,0,0
2.5342e+05,1.1998e+08,5,6043,5871,14.74,2.93,28,41,0,0
2.5387e+05,1.2009e+08,5,5883,6057,14.71,4.12,28,41,0,0
2.5432e+05,1.2019e+08,5,6056,6042,14.75,3.56,28,41,0,0
2.5477e+05,1.2031e+08,5,6030,5871,14.68,3.56,28,41,0,0
2.5517e+05,1.2041e+08,5,5868,5814,14.72,3.67,28,42,0,0
2.5566e+05,1.2053e+08,5,5810,5771,14.78,3.39,28,42,0,0
2.561e+05,1.2063e+08,5,5773,5828,14.66,3.6,28,42,0,0
2.5655e+05,1.2075e+08,5,5822,5742,14.72,3.62,28,42,0,0
2.5696e+05,1.2085e+08,5,5755,5928,14.75,3.72,28,42,0,0
2.5741e+05,1.2096e+08,5,5924,5728,14.71,3.35,28,42,0,0
2.583e+05,1.2118e+08,5,5719,5457,14.85,2.73,28,42,0,0
2.5874e+05,1.2128e+08,5,5448,5242,14.81,2.44,28,42,0,0
2.5919e+05,1.2139e+08,5,5237,5142,14.79,2.34,28,42,0,0
2.5963e+05,1.215e+08,5,5143,5171,14.75,2.62,28,42,0,0
2.6008e+05,1.2161e+08,5,5173,5285,14.82,2.79,28,43,0,0
2.6052e+05,1.2172e+08,5,5284,5271,14.81,2.52,28,43,0,0
2.6093e+05,1.2182e+08,5,5271,5328,14.83,3.22,28,43,0,0
2.6142e+05,1.2194e+08,5,5331,5385,14.8,2.69,28,43,0,0
2.6187e+05,1.2205e+08,5,5386,5442,14.79,3.06,28,43,0,0
2.6276e+05,1.2226e+08,5,5440,5400,14.73,3.43,28,43,0,0
2.632e+05,1.2237e+08,5,5403,5485,14.76,2.76,28,43,0,0
2.6365e+05,1.2249e+08,5,5491,5571,14.73,3.33,28,43,0,0
2.641e+05,1.226e+08,5,5576,5628,14.69,3.09,28,43,0,0
2.6454e+05,1.2271e+08,5,5653,5828,14.76,3.62,28,43,0,0
2.6499e+05,1.2282e+08,5,5821,5771,14.7,3.48,28,44,0,0
2.6584e+05,1.2302e+08,5,5770,5728,14.68,3.34,28,44,0,0
2.6633e+05,1.2314e+08,5,5742,5900,14.72,3.58,28,44,0,0
2.6677e+05,1.2325e+08,5,5897,5871,14.73,3.74,28,44,0,0
2.6723e+05,1.2336e+08,5,5887,6071,14.69,4.01,28,44,0,0
2.6766e+05,1.2347e+08,5,6057,5885,14.73,3.63,28,44,0,0
2.6808e+05,1.2357e+08,5,5884,5814,14.7,3.9,28,44,0,0
2.6856e+05,1.2369e+08,5,5826,5914,14.64,3.83,28,44,0,0
2.6896e+05,1.2379e+08,5,5915,5971,14.69,3.78,28,44,0,0
2.6941e+05,1.239e+08,5,5980,6100,14.67,3.92,28,45,0,0
2.6986e+05,1.2401e+08,5,6081,5914,14.78,3.93,28,45,0,0
2.7027e+05,1.2411e+08,5,5917,6142,14.72,4.13,28,45,0,0
2.7071e+05,1.2423e+08,5,6143,6228,14.76,3.94,28,45,0,0
2.712e+05,1.2434e+08,5,6195,5828,14.76,3.7,28,45,0,0
2.716e+05,1.2444e+08,5,5829,5942,14.74,3.57,28,45,0,0
2.7206e+05,1.2455e+08,5,5936,5557,14.8,2.97,28,45,0,0
2.7254e+05,1.2467e+08,5,5560,5600,14.79,3.12,28,45,0,0
2.7298e+05,1.2478e+08,5,5607,5714,14.76,3.55,28,46,0,0
2.7388e+05,1.2499e+08,5,5715,5757,14.77,3.4,28,46,0,0
2.7473e+05,1.2521e+08,5,5757,5757,14.77,3.37,28,46,0,0
2.7562e+05,1.2543e+08,5,5758,5914,14.7,3.69,28,46,0,0
2.7611e+05,1.2554e+08,5,5911,5885,14.71,3.42,28,46,0,0
2.7652e+05,1.2565e+08,5,5881,5800,14.75,3.35,28,46,0,0
2.77e+05,1.2576e+08,5,5798,5785,14.81,3.35,28,46,0,0
2.774e+05,1.2586e+08,5,5779,5657,14.78,3.36,28,47,0,0
2.7785e+05,1.2597e+08,5,5656,5628,14.79,3.6,28,47,0,0
2.783e+05,1.2608e+08,5,5643,5942,14.66,4.01,28,47,0,0
2.7875e+05,1.2619e+08,5,5957,6114,14.66,4.27,28,47,0,0
2.7919e+05,1.263e+08,5,6117,6157,14.69,4.02,28,47,0,0
2.7964e+05,1.2641e+08,5,6169,6328,14.6,4.43,28,47,0,0
2.8005e+05,1.2651e+08,5,6330,6371,14.6,5.04,28,47,0,0
2.809e+05,1.2672e+08,5,6372,6542,14.67,4.68,28,48,0,0
2.8134e+05,1.2683e+08,5,6532,6342,14.73,4.46,28,48,0,0
2.8179e+05,1.2694e+08,5,6340,6242,14.77,3.95,28,48,0,0
2.8227e+05,1.2705e+08,5,6242,6242,14.72,4,28,48,0,0
2.8272e+05,1.2716e+08,5,6222,5971,14.81,3.54,28,48,0,0
2.8312e+05,1.2726e+08,5,5969,5928,14.77,3.69,28,48,0,0
2.8362e+05,1.2738e+08,5,5937,6085,14.69,4.03,28,48,0,0
2.8406e+05,1.2749e+08,5,6070,5914,14.67,4.08,28,48,0,0
2.8452e+05,1.2761e+08,5,5923,6014,14.81,3.69,28,49,0,0
2.8496e+05,1.2772e+08,5,6015,6028,14.77,3.49,28,49,0,0
2.854e+05,1.2782e+08,5,6013,5885,14.75,3.54,28,49,0,0
2.8586e+05,1.2793e+08,5,5886,5914,14.75,3.91,28,49,0,0
2.863e+05,1.2804e+08,5,5908,5857,14.76,3.33,28,49,0,0
2.8675e+05,1.2815e+08,5,5861,5928,14.75,3.85,28,49,0,0
2.8715e+05,1.2825e+08,5,5928,5942,14.73,3.72,28,49,0,0
2.876e+05,1.2836e+08,5,5940,5914,14.73,3.58,28,49,0,0
2.8801e+05,1.2847e+08,5,5915,6014,14.76,3.93,28,49,0,0
2.885e+05,1.2858e+08,5,6003,5900,14.66,3.65,28,49,0,0
2.8894e+05,1.2869e+08,5,5901,5928,14.8,3.48,28,50,0,0
2.8939e+05,1.288e+08,5,5922,5871,14.8,3.4,28,50,0,0
2.8984e+05,1.2891e+08,5,5867,5814,14.72,3.7,28,50,0,0
2.9029e+05,1.2902e+08,5,5804,5728,14.76,3.27,28,50,0,0
2.9069e+05,1.2912e+08,5,5720,5571,14.77,3.12,28,50,0,0
2.9109e+05,1.2922e+08,5,5570,5514,14.82,3.14,28,50,0,0
2.9158e+05,1.2934e+08,5,5519,5571,14.79,2.97,28,50,0,0
2.9198e+05,1.2944e+08,5,5570,5542,14.86,2.84,28,50,0,0
2.9247e+05,1.2955e+08,5,5529,5371,14.76,2.93,28,50,0,0
2.9292e+05,1.2967e+08,5,5373,5414,14.81,3.34,28,50,0,0
2.9332e+05,1.2976e+08,5,5416,5600,14.78,2.74,28,51,0,0
2.9376e+05,1.2987e+08,5,5593,5514,14.77,2.61,28,51,0,0
2.9422e+05,1.2998e+08,5,5482,5185,14.88,2.33,28,51,0,0
2.9462e+05,1.3008e+08,5,5169,4128,15.42,0.34,28,51,0,0
2.9507e+05,1.3019e+08,5,4136,4242,15.22,2.01,28,51,0,0
2.9551e+05,1.303e+08,5,4196,3142,15.22,0.24,28,51,0,0
2.9641e+05,1.3052e+08,5,3128,2757,15.19,0.39,28,51,0,0
2.9681e+05,1.3062e+08,5,2756,2742,15.2,0.43,28,51,0,0
2.9726e+05,1.3074e+08,5,2741,2728,15.2,0.41,28,51,0,0
2.9771e+05,1.3086e+08,5,2731,2757,15.19,0.51,28,51,0,0
2.9815e+05,1.3096e+08,5,2762,2828,15.2,0.5,28,51,0,0
2.9856e+05,1.3107e+08,5,2823,2771,15.2,0.43,28,51,0,0
2.9918e+05,1.3129e+08,5,2798,2785,15.22,0.47,28,51,0,0
2.9958e+05,1.3138e+08,5,2785,2785,15.22,0.45,28,51,0,0
3.0007e+05,1.315e+08,5,2782,2757,15.22,0.41,28,51,0,0
3.0052e+05,1.3161e+08,5,2752,2714,15.23,0.42,28,51,0,0
3.0092e+05,1.3171e+08,5,2714,2714,15.22,0.4,28,51,0,0
3.0137e+05,1.3182e+08,5,2713,2700,15.23,0.47,28,51,0,0
3.0226e+05,1.3203e+08,5,2667,1728,15.29,0,28,51,0,0
3.0271e+05,1.3214e+08,5,1722,1342,15.27,0.02,28,51,0,0
3.0316e+05,1.3225e+08,5,1336,1257,15.27,0.09,28,51,0,0
3.0364e+05,1.3236e+08,5,1255,1242,15.27,0.1,28,51,0,0
3.0405e+05,1.3246e+08,5,1242,1242,15.27,0.1,28,51,0,0
3.045e+05,1.3257e+08,5,1242,1242,15.27,0.1,28,51,0,0
3.0498e+05,1.3268e+08,5,1242,1242,15.28,0.11,28,51,0,0
3.0542e+05,1.3279e+08,5,1241,1228,15.28,0.11,28,51,0,0
3.0587e+05,1.329e+08,5,1228,1228,15.28,0.11,28,51,0,0
3.0633e+05,1.3301e+08,5,1229,1242,15.28,0.11,28,51,0,0
3.0677e+05,1.3312e+08,5,1242,1242,15.28,0.11,28,51,0,0
3.0722e+05,1.3322e+08,5,1242,1242,15.29,0.1,28,51,0,0
3.0767e+05,1.3333e+08,5,1242,1242,15.28,0.1,28,51,0,0
3.0812e+05,1.3344e+08,5,1242,1242,15.29,0.1,28,51,0,0
3.0856e+05,1.3355e+08,5,1184,385,15.3,0,28,51,0,0
3.09e+05,1.3366e+08,5,349,0,15.3,0.02,28,51,0,0
3.0945e+05,1.3376e+08,5,0,0,15.3,0.04,28,51,0,0
3.099e+05,1.3387e+08,5,0,0,15.31,0.03,28,51,0,0
3.1035e+05,1.3398e+08,5,0,0,15.3,0.04,28,51,0,0
3.108e+05,1.3409e+08,5,0,0,15.31,0.04,28,51,0,0
3.113e+05,1.3421e+08,5,0,0,15.31,0.04,28,51,0,0
3.1171e+05,1.343e+08,5,0,0,15.32,0.04,28,51,0,0
3.131e+05,1.3463e+08,5,0,0,15.32,0.04,28,51,0,0
3.1359e+05,1.3474e+08,5,0,0,15.32,0.04,28,51,0,0
3.1404e+05,1.3485e+08,5,0,0,15.32,0.03,28,51,0,0
3.145e+05,1.3496e+08,5,0,0,15.32,0.03,28,51,0,0
3.1495e+05,1.3506e+08,5,0,0,15.31,0.03,28,51,0,0
3.154e+05,1.3517e+08,5,0,0,15.32,0.03,28,51,0,0
3.1586e+05,1.3528e+08,5,0,0,15.32,0.03,28,51,0,0
3.1636e+05,1.354e+08,5,0,0,15.32,0.03,28,51,0,0
3.1681e+05,1.3551e+08,5,0,0,15.32,0.04,28,51,0,0
3.1726e+05,1.3561e+08,5,0,0,15.32,0.04,28,51,0,0
3.1771e+05,1.3572e+08,5,0,0,15.33,0.04,28,51,0,0
3.1816e+05,1.3582e+08,5,0,0,15.33,0.04,28,51,0,0
3.1866e+05,1.3594e+08,5,0,0,15.33,0.04,28,51,0,0
3.1911e+05,1.3605e+08,5,0,0,15.33,0.04,28,51,0,0
3.196e+05,1.3616e+08,5,0,0,15.33,0.04,28,51,0,0
3.2005e+05,1.3627e+08,5,0,0,15.33,0.04,28,51,0,0
3.2068e+05,1.3648e+08,5,0,0,15.34,0.04,28,51,0,0
3.2113e+05,1.3659e+08,5,0,0,15.33,0.04,28,51,0,0
3.2162e+05,1.367e+08,5,0,0,15.33,0.04,28,51,0,0
3.2211e+05,1.3682e+08,5,0,0,15.34,0.04,28,51,0,0
3.2256e+05,1.3692e+08,5,0,0,15.33,0.04,28,51,0,0
3.2301e+05,1.3703e+08,5,0,0,15.35,0.04,28,51,0,0
3.2347e+05,1.3714e+08,5,0,0,15.34,0.04,28,51,0,0
3.2391e+05,1.3724e+08,5,0,0,15.34,0.04,28,51,0,0
3.2436e+05,1.3735e+08,5,0,0,15.35,0.03,27,51,0,0
3.2482e+05,1.3746e+08,5,0,0,15.35,0.03,28,51,0,0
3.2531e+05,1.3757e+08,5,0,0,15.35,0.03,27,51,0,0
3.2576e+05,1.3768e+08,5,0,0,15.35,0.03,27,51,0,0
3.2626e+05,1.3779e+08,5,0,0,15.35,0.03,27,51,0,0
3.267e+05,1.379e+08,5,0,0,15.34,0.03,28,51,0,0
3.276e+05,1.3811e+08,5,0,0,15.35,0.03,28,51,0,0
3.2805e+05,1.3822e+08,5,0,0,15.35,0.04,27,51,0,0
3.2855e+05,1.3834e+08,5,0,0,15.36,0.04,27,51,0,0
3.2901e+05,1.3845e+08,5,0,0,15.35,0.03,28,51,0,0
3.2946e+05,1.3855e+08,5,0,0,15.36,0.03,27,51,0,0
3.2995e+05,1.3866e+08,5,0,0,15.35,0.04,27,51,0,0
3.304e+05,1.3877e+08,5,0,0,15.35,0.04,27,51,0,0
3.3081e+05,1.3887e+08,5,0,0,15.36,0.04,27,51,0,0
3.3131e+05,1.3899e+08,5,0,0,15.36,0.04,27,51,0,0
3.3176e+05,1.3909e+08,5,0,0,15.36,0.04,27,51,0,0
