LineNo,TimeUS,Instance,RPM,RawRPM,Volt,Curr,Temp,CTot,MotTemp,Err
1664,5.8346e+07,0,0,0,15.41,0.04,31,0,0,0
2115,5.8457e+07,0,0,0,15.41,0.04,31,0,0,0
2531,5.8558e+07,0,0,0,15.41,0.04,31,0,0,0
2949,5.8663e+07,0,0,0,15.41,0.04,31,0,0,0
3815,5.8882e+07,0,0,0,15.41,0.04,31,0,0,0
4274,5.8995e+07,0,0,0,15.41,0.04,31,0,0,0
4687,5.91e+07,0,0,0,15.41,0.04,31,0,0,0
5141,5.9214e+07,0,0,0,15.41,0.04,31,0,0,0
5553,5.9317e+07,0,0,0,15.41,0.04,31,0,0,0
5966,5.942e+07,0,0,0,15.41,0.04,31,0,0,0
6382,5.9528e+07,0,0,0,15.41,0.03,31,0,0,0
7245,5.9743e+07,0,0,0,15.41,0.04,31,0,0,0
7662,5.9847e+07,0,0,0,15.41,0.04,31,0,0,0
8115,5.9959e+07,0,0,0,15.41,0.04,31,0,0,0
8532,6.0063e+07,0,0,0,15.41,0.04,31,0,0,0
8982,6.0173e+07,0,0,0,15.41,0.04,31,0,0,0
9397,6.0274e+07,0,0,0,15.41,0.04,31,0,0,0
9816,6.038e+07,0,0,0,15.41,0.04,31,0,0,0
10270,6.0492e+07,0,0,0,15.41,0.04,31,0,0,0
10677,6.0594e+07,0,0,0,15.41,0.04,31,0,0,0
11019,6.0704e+07,0,0,0,15.41,0.04,31,0,0,0
11429,6.0808e+07,0,0,0,15.41,0.04,31,0,0,0
11843,6.0911e+07,0,0,0,15.41,0.04,31,0,0,0
12274,6.1023e+07,0,0,0,15.41,0.04,31,0,0,0
12687,6.113e+07,0,0,0,15.41,0.04,31,0,0,0
13105,6.1232e+07,0,0,0,15.41,0.04,31,0,0,0
13555,6.1348e+07,0,0,0,15.41,0.04,31,0,0,0
13972,6.145e+07,0,0,0,15.41,0.04,31,0,0,0
14383,6.1551e+07,0,0,0,15.41,0.04,31,0,0,0
14801,6.1659e+07,0,0,0,15.41,0.04,31,0,0,0
15214,6.1762e+07,0,0,0,15.41,0.04,31,0,0,0
15674,6.1872e+07,0,0,0,15.41,0.04,31,0,0,0
16127,6.1983e+07,0,0,0,15.41,0.04,31,0,0,0
16540,6.2084e+07,0,0,0,15.41,0.04,31,0,0,0
16952,6.2188e+07,0,0,0,15.42,0.04,31,0,0,0
17410,6.2302e+07,0,0,0,15.42,0.04,31,0,0,0
17828,6.2406e+07,0,0,0,15.41,0.04,31,0,0,0
18248,6.251e+07,0,0,0,15.41,0.04,31,0,0,0
18667,6.2616e+07,0,0,0,15.41,0.04,31,0,0,0
19077,6.2718e+07,0,0,0,15.41,0.04,31,0,0,0
19528,6.283e+07,0,0,0,15.41,0.04,31,0,0,0
19984,6.2941e+07,0,0,0,15.41,0.04,31,0,0,0
20401,6.3046e+07,0,0,0,15.41,0.04,31,0,0,0
20814,6.3147e+07,0,0,0,15.41,0.04,31,0,0,0
21229,6.3252e+07,0,0,0,15.41,0.04,31,0,0,0
21682,6.3364e+07,0,0,0,15.41,0.04,31,0,0,0
22096,6.3469e+07,0,0,0,15.41,0.04,31,0,0,0
22547,6.3581e+07,0,0,0,15.41,0.04,31,0,0,0
22953,6.3683e+07,0,0,0,15.41,0.04,31,0,0,0
23407,6.3794e+07,0,0,0,15.42,0.04,31,0,0,0
23821,6.3895e+07,0,0,0,15.42,0.04,31,0,0,0
24276,6.4012e+07,0,0,0,15.42,0.04,31,0,0,0
24690,6.4114e+07,0,0,0,15.41,0.04,31,0,0,0
25096,6.4215e+07,0,0,0,15.41,0.04,31,0,0,0
25549,6.4326e+07,0,0,0,15.41,0.04,31,0,0,0
25966,6.4433e+07,0,0,0,15.41,0.04,31,0,0,0
26378,6.4535e+07,0,0,0,15.41,0.04,31,0,0,0
26833,6.465e+07,0,0,0,15.41,0.04,31,0,0,0
27246,6.4753e+07,0,0,0,15.41,0.04,31,0,0,0
27668,6.4863e+07,0,0,0,15.41,0.04,31,0,0,0
28120,6.4977e+07,0,0,0,15.41,0.04,31,0,0,0
28341,6.5082e+07,0,0,0,15.41,0.04,31,0,0,0
28754,6.5184e+07,0,0,0,15.41,0.04,31,0,0,0
29166,6.5291e+07,0,0,0,15.42,0.04,31,0,0,0
29624,6.5409e+07,0,0,0,15.42,0.04,31,0,0,0
30037,6.5509e+07,0,0,0,15.41,0.04,31,0,0,0
30488,6.5622e+07,0,0,0,15.41,0.04,31,0,0,0
30900,6.5724e+07,0,0,0,15.41,0.04,31,0,0,0
31320,6.5833e+07,0,0,0,15.41,0.04,31,0,0,0
31737,6.5935e+07,0,0,0,15.41,0.04,31,0,0,0
32153,6.6043e+07,0,0,0,15.41,0.04,31,0,0,0
32608,6.6155e+07,0,0,0,15.41,0.04,31,0,0,0
33020,6.626e+07,0,0,0,15.41,0.04,31,0,0,0
33434,6.6362e+07,0,0,0,15.41,0.04,31,0,0,0
33848,6.6469e+07,0,0,0,15.41,0.04,31,0,0,0
34307,6.6583e+07,0,0,0,15.41,0.04,31,0,0,0
34748,6.669e+07,0,0,0,15.41,0.04,31,0,0,0
35165,6.6794e+07,0,0,0,15.41,0.04,31,0,0,0
35584,6.6895e+07,0,0,0,15.41,0.04,31,0,0,0
35996,6.7e+07,0,0,0,15.41,0.04,31,0,0,0
36451,6.7112e+07,0,0,0,15.42,0.04,31,0,0,0
36866,6.722e+07,0,0,0,15.41,0.04,31,0,0,0
37320,6.7331e+07,0,0,0,15.41,0.04,31,0,0,0
37729,6.7432e+07,0,0,0,15.41,0.04,31,0,0,0
38183,6.7544e+07,0,0,0,15.41,0.05,31,0,0,0
38559,6.7641e+07,0,0,0,15.41,0.05,31,0,0,0
39011,6.7753e+07,0,0,0,15.41,0.04,31,0,0,0
39427,6.7858e+07,0,0,0,15.41,0.04,31,0,0,0
39885,6.797e+07,0,0,0,15.41,0.04,31,0,0,0
40293,6.8071e+07,0,0,0,15.41,0.04,31,0,0,0
40748,6.8183e+07,0,0,0,15.41,0.04,31,0,0,0
41160,6.8287e+07,0,0,0,15.41,0.04,31,0,0,0
41577,6.839e+07,0,0,0,15.41,0.04,31,0,0,0
42027,6.8503e+07,0,0,0,15.41,0.04,31,0,0,0
42437,6.8605e+07,0,0,0,15.41,0.04,31,0,0,0
42860,6.8712e+07,0,0,0,15.41,0.04,31,0,0,0
43275,6.882e+07,0,0,0,15.42,0.04,31,0,0,0
43692,6.892e+07,0,0,0,15.41,0.04,31,0,0,0
44109,6.9028e+07,0,0,0,15.41,0.04,31,0,0,0
44574,6.9138e+07,0,0,0,15.41,0.04,31,0,0,0
45001,6.9245e+07,0,0,0,15.41,0.04,31,0,0,0
45455,6.9345e+07,0,0,0,15.41,0.04,31,0,0,0
45948,6.9459e+07,0,0,0,15.41,0.04,31,0,0,0
46400,6.9561e+07,0,0,0,15.41,0.04,31,0,0,0
46897,6.9675e+07,0,0,0,15.41,0.04,31,0,0,0
47351,6.978e+07,0,0,0,15.41,0.03,31,0,0,0
47806,6.9887e+07,0,0,0,15.4,0.03,31,0,0,0
48263,6.999e+07,0,0,0,15.41,0.04,31,0,0,0
48719,7.0098e+07,0,0,0,15.41,0.04,31,0,0,0
49175,7.02e+07,0,0,0,15.41,0.04,31,0,0,0
49662,7.0312e+07,0,0,0,15.41,0.04,31,0,0,0
50116,7.0418e+07,0,0,0,15.41,0.04,31,0,0,0
50572,7.0522e+07,0,0,0,15.41,0.03,31,0,0,0
51067,7.0634e+07,0,0,0,15.41,0.04,31,0,0,0
51519,7.0736e+07,0,0,0,15.41,0.04,31,0,0,0
51984,7.0847e+07,0,0,0,15.41,0.04,31,0,0,0
52438,7.0949e+07,0,0,0,15.41,0.04,31,0,0,0
52932,7.1062e+07,0,0,0,15.42,0.04,31,0,0,0
53389,7.1163e+07,0,7,128,15.4,0.04,31,0,0,0
53848,7.1272e+07,0,142,500,15.39,0.09,31,0,0,0
54348,7.1384e+07,0,538,914,15.38,0.16,31,0,0,0
54796,7.1487e+07,0,934,1142,15.4,0.12,31,0,0,0
55249,7.159e+07,0,1144,1200,15.4,0.11,31,0,0,0
55735,7.1699e+07,0,1201,1228,15.39,0.11,31,0,0,0
56085,7.181e+07,0,1228,1228,15.39,0.11,31,0,0,0
56539,7.1912e+07,0,1228,1242,15.39,0.11,31,0,0,0
56995,7.2019e+07,0,1242,1242,15.39,0.11,31,0,0,0
57448,7.2119e+07,0,1242,1242,15.39,0.11,31,0,0,0
57947,7.2236e+07,0,1242,1242,15.39,0.11,31,0,0,0
58449,7.2349e+07,0,1242,1242,15.4,0.11,31,0,0,0
58898,7.2451e+07,0,1242,1242,15.4,0.11,31,0,0,0
59351,7.2552e+07,0,1242,1242,15.39,0.11,31,0,0,0
59804,7.2656e+07,0,1242,1242,15.4,0.11,31,0,0,0
60300,7.2766e+07,0,1242,1242,15.4,0.1,31,0,0,0
60756,7.2871e+07,0,1242,1242,15.39,0.11,31,0,0,0
61255,7.2983e+07,0,1242,1242,15.39,0.11,31,0,0,0
61700,7.3085e+07,0,1242,1242,15.4,0.1,31,0,0,0
62205,7.3197e+07,0,1242,1242,15.39,0.1,32,0,0,0
62660,7.3304e+07,0,1242,1242,15.39,0.11,31,0,0,0
63111,7.3406e+07,0,1242,1242,15.39,0.11,32,0,0,0
63609,7.3519e+07,0,1242,1242,15.4,0.11,31,0,0,0
64024,7.3619e+07,0,1242,1242,15.4,0.11,31,0,0,0
64484,7.3729e+07,0,1242,1242,15.39,0.11,31,0,0,0
64942,7.3838e+07,0,1242,1242,15.39,0.1,32,0,0,0
65440,7.3951e+07,0,1242,1242,15.39,0.11,32,0,0,0
65890,7.4057e+07,0,1242,1242,15.39,0.11,32,0,0,0
66341,7.4159e+07,0,1242,1242,15.4,0.11,32,0,0,0
66839,7.4276e+07,0,1242,1242,15.4,0.11,32,0,0,0
67294,7.438e+07,0,1242,1242,15.39,0.11,32,0,0,0
67789,7.4495e+07,0,1242,1242,15.4,0.11,32,0,0,0
68690,7.4704e+07,0,1242,1242,15.39,0.11,32,0,0,0
69144,7.4814e+07,0,1242,1242,15.39,0.11,32,0,0,0
69643,7.4926e+07,0,1242,1242,15.39,0.11,32,0,0,0
70544,7.5134e+07,0,1242,1242,15.4,0.11,32,0,0,0
71034,7.5245e+07,0,1242,1242,15.39,0.11,32,0,0,0
71495,7.5351e+07,0,1242,1242,15.4,0.11,32,0,0,0
71950,7.5459e+07,0,1242,1242,15.4,0.1,32,0,0,0
72403,7.5562e+07,0,1242,1242,15.4,0.11,32,0,0,0
72895,7.5676e+07,0,1242,1242,15.39,0.11,32,0,0,0
73347,7.5779e+07,0,1242,1242,15.39,0.11,32,0,0,0
73847,7.5892e+07,0,1253,1414,15.37,0.22,32,0,0,0
74795,7.6113e+07,0,1453,2357,15.35,0.55,32,0,0,0
75247,7.6216e+07,0,2357,2357,15.32,0.44,32,0,0,0
75749,7.6335e+07,0,2345,2228,15.33,0.35,32,0,0,0
76195,7.6439e+07,0,2245,2642,15.21,1.27,32,0,0,0
76691,7.6556e+07,0,2704,3300,15.17,1.74,32,0,0,0
77107,7.6663e+07,0,3351,4000,15.08,2.13,32,0,0,0
77605,7.6777e+07,0,4018,4457,14.97,3.31,32,0,0,0
78057,7.6884e+07,0,4491,5157,14.86,3.44,32,0,0,0
78510,7.6988e+07,0,5211,5742,14.72,4.3,32,0,0,0
78962,7.7102e+07,0,5761,6057,14.7,4.59,32,1,0,0
79831,7.7318e+07,0,6075,6457,14.72,4.93,32,1,0,0
80276,7.742e+07,0,6455,6385,14.7,5,32,1,0,0
80775,7.7538e+07,0,6402,6671,14.8,5.53,32,1,0,0
81229,7.7647e+07,0,6668,6628,14.76,5.07,32,1,0,0
81682,7.7753e+07,0,6626,6585,14.76,5.65,32,2,0,0
82134,7.7863e+07,0,6585,6585,14.75,5.39,32,2,0,0
82589,7.797e+07,0,6591,6714,14.78,5.12,32,2,0,0
83044,7.8083e+07,0,6708,6585,14.7,5.13,32,2,0,0
83496,7.819e+07,0,6586,6671,14.79,5.08,32,2,0,0
83986,7.8305e+07,0,6651,6371,14.78,4.47,32,2,0,0
84443,7.8419e+07,0,6362,6285,14.82,4.2,32,2,0,0
84857,7.852e+07,0,6287,6328,14.79,4.21,32,2,0,0
85309,7.8628e+07,0,6317,6171,14.76,4.22,32,3,0,0
86213,7.8842e+07,0,6171,6257,14.71,4.53,32,3,0,0
86687,7.8961e+07,0,6257,6257,14.71,5.16,32,3,0,0
87129,7.9069e+07,0,6273,6442,14.73,4.65,32,3,0,0
87534,7.9168e+07,0,6442,6442,14.7,4.75,32,3,0,0
88431,7.939e+07,0,6444,6514,14.82,4.59,32,4,0,0
88874,7.9496e+07,0,6518,6614,14.85,5.05,32,4,0,0
89324,7.9605e+07,0,6605,6400,14.93,4.18,32,4,0,0
89768,7.9715e+07,0,6394,6285,14.81,4.48,32,4,0,0
90177,7.9819e+07,0,6277,6100,14.85,4.27,32,4,0,0
90625,7.9926e+07,0,6099,6071,14.82,4.15,32,4,0,0
91112,8.0046e+07,0,6071,6071,14.82,4.01,32,4,0,0
91518,8.0148e+07,0,6065,5985,14.83,4.4,32,5,0,0
91968,8.0262e+07,0,6003,6200,14.92,4.34,33,5,0,0
92416,8.0369e+07,0,6197,6171,14.94,3.92,33,5,0,0
92854,8.0475e+07,0,6159,6000,14.97,3.5,32,5,0,0
93264,8.0577e+07,0,5997,5842,14.92,3.19,32,5,0,0
93745,8.069e+07,0,5843,5857,14.79,4.14,33,5,0,0
94198,8.0807e+07,0,5877,6014,14.86,3.98,33,5,0,0
94646,8.0913e+07,0,6025,6142,14.82,4.07,33,5,0,0
95052,8.101e+07,0,6144,6285,14.77,4.82,33,5,0,0
95981,8.1238e+07,0,6286,6314,14.8,4.76,33,6,0,0
96429,8.1347e+07,0,6323,6428,14.84,5.01,33,6,0,0
96836,8.1452e+07,0,6418,6228,14.86,4.66,33,6,0,0
97282,8.156e+07,0,6227,6214,14.82,4.55,33,6,0,0
97689,8.1665e+07,0,6212,6114,14.79,4.08,33,6,0,0
98182,8.1783e+07,0,6125,6242,14.92,4.29,33,7,0,0
98627,8.1891e+07,0,6218,5885,14.91,3.4,33,7,0,0
99079,8.2008e+07,0,5886,5900,14.92,3.7,33,7,0,0
99521,8.2115e+07,0,5918,6085,14.96,4.16,33,7,0,0
99962,8.2218e+07,0,6063,5885,14.93,3.37,33,7,0,0
1.0041e+05,8.2325e+07,0,5886,5900,14.88,3.61,33,7,0,0
1.0081e+05,8.2437e+07,0,5920,6085,14.86,4.1,33,7,0,0
1.0127e+05,8.2547e+07,0,6090,6128,14.92,3.38,33,7,0,0
1.0168e+05,8.2657e+07,0,6095,5871,14.79,4.03,33,7,0,0
1.0209e+05,8.2752e+07,0,5879,6100,14.78,3.82,33,8,0,0
1.0257e+05,8.2872e+07,0,6115,6242,14.77,4.48,33,8,0,0
1.0302e+05,8.298e+07,0,6240,6228,14.75,4.72,33,8,0,0
1.0342e+05,8.3081e+07,0,6237,6371,14.75,4.81,33,8,0,0
1.0391e+05,8.32e+07,0,6393,6514,14.82,4.55,33,8,0,0
1.0431e+05,8.33e+07,0,6516,6557,14.76,4.58,33,8,0,0
1.0472e+05,8.3403e+07,0,6554,6400,14.79,4.5,33,8,0,0
1.0517e+05,8.351e+07,0,6400,6442,14.77,4.56,33,8,0,0
1.0569e+05,8.3638e+07,0,6433,6371,14.73,4.72,33,9,0,0
1.0606e+05,8.3731e+07,0,6381,6571,14.75,4.94,33,9,0,0
1.0654e+05,8.3847e+07,0,6568,6542,14.77,4.88,33,9,0,0
1.0704e+05,8.3967e+07,0,6542,6542,14.77,4.53,33,9,0,0
1.0736e+05,8.4054e+07,0,6540,6442,14.79,4.48,33,9,0,0
1.0785e+05,8.4171e+07,0,6439,6385,14.73,4.75,33,9,0,0
1.0826e+05,8.427e+07,0,6386,6471,14.86,4.74,33,10,0,0
1.0875e+05,8.4386e+07,0,6451,6242,14.79,4.07,33,10,0,0
1.092e+05,8.45e+07,0,6256,6400,14.79,4.77,34,10,0,0
1.0961e+05,8.4607e+07,0,6413,6571,14.8,4.91,33,10,0,0
1.1006e+05,8.4714e+07,0,6554,6342,14.85,3.93,34,10,0,0
1.105e+05,8.4826e+07,0,6329,6128,14.8,4.63,33,10,0,0
1.1095e+05,8.4932e+07,0,6129,6142,14.79,4.33,34,10,0,0
1.1136e+05,8.5037e+07,0,6150,6342,14.66,4.94,34,11,0,0
1.1181e+05,8.5146e+07,0,6341,6285,14.72,4.54,34,11,0,0
1.1229e+05,8.526e+07,0,6294,6500,14.66,4.98,34,11,0,0
1.1274e+05,8.5373e+07,0,6494,6428,14.72,4.8,34,11,0,0
1.1315e+05,8.5476e+07,0,6431,6542,14.7,4.92,34,11,0,0
1.1364e+05,8.5594e+07,0,6538,6485,14.7,5.02,34,11,0,0
1.1401e+05,8.5694e+07,0,6481,6414,14.77,4.62,34,11,0,0
1.145e+05,8.5816e+07,0,6418,6457,14.77,4.74,34,11,0,0
1.1491e+05,8.5913e+07,0,6452,6357,14.77,4.6,34,12,0,0
1.1536e+05,8.6024e+07,0,6357,6371,14.73,4.51,34,12,0,0
1.1585e+05,8.6143e+07,0,6367,6328,14.75,4.38,34,12,0,0
1.1629e+05,8.6253e+07,0,6337,6428,14.8,4.48,34,12,0,0
1.167e+05,8.6352e+07,0,6427,6400,14.71,4.93,34,12,0,0
1.1719e+05,8.6472e+07,0,6401,6414,14.73,4.88,34,12,0,0
1.1763e+05,8.6577e+07,0,6413,6400,14.77,4.65,34,12,0,0
1.1809e+05,8.6691e+07,0,6402,6428,14.72,5.03,34,13,0,0
1.1894e+05,8.6898e+07,0,6429,6528,14.77,4.43,34,13,0,0
1.194e+05,8.7008e+07,0,6517,6314,14.73,4.89,34,13,0,0
1.1984e+05,8.712e+07,0,6317,6357,14.78,4.81,34,13,0,0
1.203e+05,8.7233e+07,0,6364,6428,14.77,4.68,34,13,0,0
1.2069e+05,8.7329e+07,0,6427,6400,14.69,4.83,34,14,0,0
1.2115e+05,8.7444e+07,0,6387,6257,14.67,5.09,34,14,0,0
1.216e+05,8.7553e+07,0,6279,6500,14.75,4.57,34,14,0,0
1.2249e+05,8.7767e+07,0,6494,6257,14.7,4.88,34,14,0,0
1.2363e+05,8.8091e+07,0,6484,6471,14.76,4.61,34,15,0,0
1.2408e+05,8.82e+07,0,6456,6314,14.67,4.53,34,15,0,0
1.2453e+05,8.8309e+07,0,6323,6471,14.61,5.31,34,15,0,0
1.2498e+05,8.8422e+07,0,6486,6642,14.62,5.32,34,15,0,0
1.2542e+05,8.8527e+07,0,6648,6714,14.57,5.27,34,15,0,0
1.2583e+05,8.8629e+07,0,6708,6585,14.64,5.41,34,15,0,0
1.2632e+05,8.8746e+07,0,6593,6714,14.69,5.21,34,16,0,0
1.2676e+05,8.8856e+07,0,6703,6600,14.73,4.81,34,16,0,0
1.2717e+05,8.8956e+07,0,6598,6500,14.7,5.48,34,16,0,0
1.2762e+05,8.9067e+07,0,6510,6714,14.73,5.13,34,16,0,0
1.2811e+05,8.9183e+07,0,6692,6457,14.7,4.95,34,16,0,0
1.2851e+05,8.9284e+07,0,6461,6571,14.7,5.21,34,16,0,0
1.2901e+05,8.9406e+07,0,6577,6628,14.73,4.79,34,16,0,0
1.2945e+05,8.9514e+07,0,6620,6542,14.7,5.09,34,17,0,0
1.2989e+05,8.9623e+07,0,6545,6600,14.69,5.11,34,17,0,0
1.303e+05,8.9723e+07,0,6588,6314,14.72,4.49,34,17,0,0
1.3074e+05,8.9832e+07,0,6318,6400,14.72,4.77,34,17,0,0
1.3119e+05,8.994e+07,0,6384,6171,14.7,4.59,34,17,0,0
1.316e+05,9.0046e+07,0,6177,6628,14.73,4.8,34,17,0,0
1.3209e+05,9.0168e+07,0,6589,6242,14.7,4.09,34,17,0,0
1.325e+05,9.0265e+07,0,6235,6114,14.63,4.37,35,18,0,0
1.3295e+05,9.0376e+07,0,6124,6257,14.62,4.85,35,18,0,0
1.334e+05,9.0494e+07,0,6282,6514,14.7,4.79,35,18,0,0
1.3384e+05,9.0603e+07,0,6485,6257,14.72,4.46,35,18,0,0
1.3425e+05,9.0701e+07,0,6255,6214,14.73,4.26,35,18,0,0
1.347e+05,9.0816e+07,0,6204,6100,14.74,3.87,34,18,0,0
1.3515e+05,9.0924e+07,0,6098,6085,14.78,4.14,35,18,0,0
1.356e+05,9.1033e+07,0,6089,6200,14.78,4.02,34,19,0,0
1.3648e+05,9.1254e+07,0,6190,5985,14.76,3.87,35,19,0,0
1.3735e+05,9.147e+07,0,5996,6271,14.78,4.5,35,19,0,0
1.378e+05,9.1581e+07,0,6265,6200,14.72,3.99,35,19,0,0
1.3821e+05,9.1688e+07,0,6192,6100,14.72,4.04,35,19,0,0
1.3866e+05,9.1797e+07,0,6105,6171,14.7,4.5,35,19,0,0
1.3911e+05,9.191e+07,0,6176,6228,14.66,4.48,35,20,0,0
1.3956e+05,9.2015e+07,0,6231,6285,14.69,4.3,35,20,0,0
1.4e+05,9.2125e+07,0,6282,6242,14.66,4.73,35,20,0,0
1.4041e+05,9.2227e+07,0,6243,6342,14.64,4.87,35,20,0,0
1.409e+05,9.2343e+07,0,6353,6471,14.63,5.09,35,20,0,0
1.413e+05,9.2446e+07,0,6473,6600,14.64,4.98,35,20,0,0
1.4179e+05,9.2562e+07,0,6604,6671,14.63,5.11,35,20,0,0
1.4223e+05,9.2671e+07,0,6665,6600,14.59,5.4,35,21,0,0
1.4268e+05,9.2781e+07,0,6610,6728,14.63,5.34,35,21,0,0
1.4309e+05,9.2886e+07,0,6720,6585,14.63,5.09,35,21,0,0
1.4354e+05,9.3002e+07,0,6585,6585,14.53,5.43,35,21,0,0
1.4399e+05,9.3108e+07,0,6589,6642,14.64,5.29,35,21,0,0
1.4444e+05,9.3218e+07,0,6644,6728,14.64,5.15,35,21,0,0
1.4488e+05,9.3327e+07,0,6718,6585,14.63,5.15,35,22,0,0
1.4529e+05,9.3432e+07,0,6582,6457,14.66,4.83,35,22,0,0
1.4578e+05,9.3548e+07,0,6459,6485,14.66,4.61,35,22,0,0
1.4619e+05,9.3651e+07,0,6481,6414,14.62,5.07,35,22,0,0
1.4664e+05,9.3764e+07,0,6412,6385,14.61,4.46,35,22,0,0
1.4712e+05,9.3877e+07,0,6383,6357,14.67,4.42,35,22,0,0
1.4757e+05,9.3987e+07,0,6353,6314,14.62,4.36,35,22,0,0
1.4802e+05,9.4095e+07,0,6311,6271,14.67,4.25,35,22,0,0
1.4847e+05,9.4205e+07,0,6271,6271,14.64,4.33,35,23,0,0
1.4892e+05,9.4314e+07,0,6256,6057,14.63,4.49,35,23,0,0
1.4936e+05,9.4425e+07,0,6072,6271,14.57,4.69,35,23,0,0
1.4982e+05,9.4533e+07,0,6264,6185,14.66,4.03,35,23,0,0
1.5022e+05,9.4633e+07,0,6185,6185,14.63,4.28,35,23,0,0
1.5111e+05,9.4854e+07,0,6183,6114,14.69,4.29,35,23,0,0
1.5156e+05,9.4963e+07,0,6114,6114,14.68,3.92,35,24,0,0
1.5201e+05,9.5074e+07,0,6112,6085,14.66,3.99,35,24,0,0
1.5246e+05,9.5186e+07,0,6096,6257,14.73,4.07,35,24,0,0
1.5291e+05,9.5297e+07,0,6238,6057,14.66,4.22,35,24,0,0
1.5336e+05,9.5407e+07,0,6064,6142,14.68,4.55,35,24,0,0
1.5421e+05,9.5618e+07,0,6142,6171,14.67,4.68,35,24,0,0
1.5466e+05,9.5731e+07,0,6177,6271,14.65,4.92,35,25,0,0
1.5511e+05,9.5842e+07,0,6290,6500,14.67,5,35,25,0,0
1.5556e+05,9.5952e+07,0,6495,6428,14.59,5.08,35,25,0,0
1.56e+05,9.6064e+07,0,6439,6571,14.66,5.16,35,25,0,0
1.5646e+05,9.6173e+07,0,6561,6471,14.69,4.55,35,25,0,0
1.5686e+05,9.6275e+07,0,6474,6571,14.63,5.25,35,25,0,0
1.5778e+05,9.6497e+07,0,6573,6642,14.6,4.85,35,26,0,0
1.5823e+05,9.6603e+07,0,6626,6471,14.58,4.98,35,26,0,0
1.5868e+05,9.6713e+07,0,6487,6657,14.6,5.19,35,26,0,0
1.5913e+05,9.6823e+07,0,6633,6471,14.6,4.86,35,26,0,0
1.5958e+05,9.6935e+07,0,6471,6471,14.55,4.83,35,26,0,0
1.6044e+05,9.7143e+07,0,6472,6514,14.61,5.02,35,26,0,0
1.6088e+05,9.7256e+07,0,6518,6557,14.62,5.31,35,27,0,0
1.6133e+05,9.7361e+07,0,6565,6685,14.73,4.65,35,27,0,0
1.6222e+05,9.758e+07,0,6665,6200,14.68,4.05,35,27,0,0
1.6267e+05,9.7691e+07,0,6189,6100,14.66,4.13,35,27,0,0
1.6308e+05,9.7789e+07,0,6096,5942,14.75,3.74,35,27,0,0
1.6352e+05,9.7901e+07,0,5952,6057,14.73,4.19,35,27,0,0
1.6393e+05,9.8001e+07,0,6056,6014,14.66,4.02,35,28,0,0
1.6442e+05,9.8125e+07,0,6024,6142,14.7,4.35,35,28,0,0
1.6486e+05,9.8236e+07,0,6143,6157,14.67,4.69,36,28,0,0
1.6527e+05,9.8333e+07,0,6158,6185,14.69,4.12,35,28,0,0
1.6576e+05,9.8454e+07,0,6191,6257,14.69,4.58,36,28,0,0
1.662e+05,9.8555e+07,0,6251,6214,14.7,4.33,36,28,0,0
1.6664e+05,9.8664e+07,0,6212,6200,14.7,4.31,35,28,0,0
1.6705e+05,9.8761e+07,0,6195,6114,14.65,4.47,36,28,0,0
1.675e+05,9.8875e+07,0,6122,6242,14.63,4.7,35,29,0,0
1.684e+05,9.909e+07,0,6235,6085,14.66,4.11,36,29,0,0
1.6884e+05,9.9198e+07,0,6079,5971,14.68,3.92,35,29,0,0
1.6929e+05,9.9305e+07,0,5964,5814,14.64,4.04,36,29,0,0
1.6978e+05,9.9427e+07,0,5822,5885,14.68,4.19,35,29,0,0
1.7063e+05,9.9638e+07,0,5886,5942,14.65,4.23,36,29,0,0
1.7112e+05,9.9756e+07,0,5957,6114,14.67,4.12,35,30,0,0
1.7152e+05,9.9853e+07,0,6116,6171,14.68,4.04,36,30,0,0
1.7198e+05,9.9966e+07,0,6164,6028,14.62,4.07,36,30,0,0
1.7243e+05,1.0008e+08,0,6025,6000,14.66,4.06,36,30,0,0
1.7288e+05,1.0019e+08,0,5994,5942,14.64,4.33,36,30,0,0
1.7332e+05,1.0029e+08,0,5951,6085,14.64,4.28,36,30,0,0
1.7376e+05,1.004e+08,0,6086,6142,14.63,4.39,36,30,0,0
1.7421e+05,1.0051e+08,0,6147,6214,14.62,4.49,36,31,0,0
1.7466e+05,1.0062e+08,0,6223,6314,14.63,4.97,36,31,0,0
1.751e+05,1.0073e+08,0,6317,6357,14.63,5.02,36,31,0,0
1.7555e+05,1.0084e+08,0,6339,6157,14.57,4.39,36,31,0,0
1.76e+05,1.0094e+08,0,6160,6214,14.6,4.49,36,31,0,0
1.7645e+05,1.0105e+08,0,6217,6257,14.61,4.58,36,31,0,0
1.7689e+05,1.0116e+08,0,6267,6371,14.64,4.74,36,31,0,0
1.7734e+05,1.0127e+08,0,6365,6314,14.65,4.66,36,31,0,0
1.7824e+05,1.0149e+08,0,6317,6385,14.6,4.87,36,32,0,0
1.7908e+05,1.017e+08,0,6384,6371,14.6,4.25,36,32,0,0
1.7957e+05,1.0182e+08,0,6358,6185,14.58,4.48,36,32,0,0
1.8002e+05,1.0193e+08,0,6217,6528,14.61,5.08,36,32,0,0
1.8046e+05,1.0204e+08,0,6527,6485,14.61,4.91,36,32,0,0
1.8092e+05,1.0215e+08,0,6483,6414,14.67,4.51,36,33,0,0
1.814e+05,1.0226e+08,0,6416,6485,14.64,4.58,36,33,0,0
1.8185e+05,1.0237e+08,0,6472,6314,14.6,4.71,36,33,0,0
1.823e+05,1.0248e+08,0,6314,6328,14.66,4.76,36,33,0,0
1.8315e+05,1.027e+08,0,6328,6342,14.64,4.97,36,33,0,0
1.836e+05,1.0281e+08,0,6339,6314,14.61,4.52,36,34,0,0
1.8397e+05,1.029e+08,0,6315,6400,14.61,4.54,36,34,0,0
1.8442e+05,1.0302e+08,0,6400,6414,14.6,4.67,36,34,0,0
1.8487e+05,1.0313e+08,0,6413,6371,14.6,4.65,36,34,0,0
1.8531e+05,1.0324e+08,0,6375,6471,14.64,4.75,36,34,0,0
1.8576e+05,1.0335e+08,0,6464,6314,14.58,4.85,36,34,0,0
1.8621e+05,1.0346e+08,0,6316,6357,14.65,4.74,36,34,0,0
1.8666e+05,1.0357e+08,0,6356,6342,14.61,4.62,36,34,0,0
1.8711e+05,1.0368e+08,0,6344,6371,14.64,4.67,36,35,0,0
1.8752e+05,1.0378e+08,0,6371,6414,14.64,4.56,36,35,0,0
1.88e+05,1.039e+08,0,6401,6271,14.63,4.43,36,35,0,0
1.8846e+05,1.0401e+08,0,6264,6200,14.66,4.15,36,35,0,0
1.889e+05,1.0412e+08,0,6196,6157,14.63,4.5,36,35,0,0
1.8934e+05,1.0423e+08,0,6157,6157,14.67,4.57,36,35,0,0
1.8979e+05,1.0434e+08,0,6167,6257,14.69,4.2,36,35,0,0
1.902e+05,1.0445e+08,0,6253,5985,14.63,3.95,36,36,0,0
1.9069e+05,1.0457e+08,0,6009,6228,14.64,4.38,36,36,0,0
1.911e+05,1.0467e+08,0,6228,6285,14.66,4.38,36,36,0,0
1.9158e+05,1.0479e+08,0,6303,6428,14.57,4.58,36,36,0,0
1.9199e+05,1.0489e+08,0,6446,6614,14.51,5.43,36,36,0,0
1.9244e+05,1.05e+08,0,6605,6542,14.58,5.42,36,36,0,0
1.9288e+05,1.0511e+08,0,6543,6700,14.57,5.29,36,36,0,0
1.9335e+05,1.0522e+08,0,6705,6757,14.5,5.54,36,37,0,0
1.9381e+05,1.0533e+08,0,6754,6728,14.57,5.47,36,37,0,0
1.9422e+05,1.0543e+08,0,6725,6685,14.57,5.22,36,37,0,0
1.9467e+05,1.0554e+08,0,6686,6728,14.61,5.02,36,37,0,0
1.9556e+05,1.0576e+08,0,6723,6600,14.6,4.93,36,37,0,0
1.9601e+05,1.0588e+08,0,6592,6471,14.56,4.94,36,37,0,0
1.9642e+05,1.0598e+08,0,6471,6485,14.62,4.92,36,38,0,0
1.9735e+05,1.062e+08,0,6478,6242,14.65,4.83,37,38,0,0
1.9776e+05,1.0631e+08,0,6243,6357,14.64,4.33,37,38,0,0
1.982e+05,1.0642e+08,0,6354,6171,14.62,4.53,37,38,0,0
1.9865e+05,1.0653e+08,0,6190,6385,14.66,4.96,36,38,0,0
1.9909e+05,1.0663e+08,0,6391,6657,14.66,5.04,36,39,0,0
1.9954e+05,1.0674e+08,0,6630,6342,14.66,4.8,36,39,0,0
1.9994e+05,1.0684e+08,0,6348,6642,14.58,5.09,37,39,0,0
2.004e+05,1.0695e+08,0,6637,6357,14.69,4.9,37,39,0,0
2.0084e+05,1.0706e+08,0,6360,6428,14.44,5.33,36,39,0,0
2.0133e+05,1.0718e+08,0,6429,6442,14.67,4.92,37,39,0,0
2.0177e+05,1.0729e+08,0,6436,6357,14.63,4.69,37,39,0,0
2.0262e+05,1.075e+08,0,6357,6500,14.6,5.31,37,40,0,0
2.0311e+05,1.0762e+08,0,6487,6400,14.64,5.12,37,40,0,0
2.0356e+05,1.0772e+08,0,6405,6471,14.58,4.58,37,40,0,0
2.04e+05,1.0784e+08,0,6460,6342,14.6,4.62,37,40,0,0
2.044e+05,1.0793e+08,0,6339,6285,14.63,4.7,37,40,0,0
2.0486e+05,1.0805e+08,0,6294,6428,14.63,4.58,37,40,0,0
2.0531e+05,1.0816e+08,0,6421,6357,14.65,4.65,37,41,0,0
2.0616e+05,1.0837e+08,0,6355,6142,14.7,4.17,37,41,0,0
2.0664e+05,1.0849e+08,0,6152,6257,14.61,4.59,37,41,0,0
2.0709e+05,1.0859e+08,0,6257,6257,14.55,4.99,37,41,0,0
2.0753e+05,1.087e+08,0,6257,6271,14.61,4.66,37,41,0,0
2.0794e+05,1.0881e+08,0,6268,6171,14.64,4.92,37,41,0,0
2.0838e+05,1.0891e+08,0,6178,6328,14.57,4.96,37,42,0,0
2.0884e+05,1.0902e+08,0,6332,6514,14.61,4.96,37,42,0,0
2.0928e+05,1.0914e+08,0,6517,6557,14.66,4.95,37,42,0,0
2.0969e+05,1.0924e+08,0,6549,6400,14.58,4.25,37,42,0,0
2.1014e+05,1.0936e+08,0,6396,6357,14.58,5.42,37,42,0,0
2.1058e+05,1.0947e+08,0,6366,6442,14.56,4.9,37,42,0,0
2.1099e+05,1.0956e+08,0,6442,6500,14.57,5.03,37,43,0,0
2.1147e+05,1.0968e+08,0,6512,6714,14.55,5.49,37,43,0,0
2.1192e+05,1.0979e+08,0,6714,6714,14.57,5.35,37,43,0,0
2.1236e+05,1.0989e+08,0,6706,6571,14.58,5.44,37,43,0,0
2.1282e+05,1.1001e+08,0,6582,6685,14.55,5.17,37,43,0,0
2.1322e+05,1.1011e+08,0,6680,6600,14.6,5.1,37,43,0,0
2.1366e+05,1.1022e+08,0,6602,6642,14.56,5.44,37,43,0,0
2.1407e+05,1.1032e+08,0,6642,6642,14.58,5.65,37,44,0,0
2.1448e+05,1.1043e+08,0,6641,6600,14.58,5.16,37,44,0,0
2.1496e+05,1.1054e+08,0,6595,6500,14.61,5.2,37,44,0,0
2.1537e+05,1.1064e+08,0,6499,6485,14.61,5.02,37,44,0,0
2.1627e+05,1.1087e+08,0,6482,6428,14.58,4.66,37,44,0,0
2.1672e+05,1.1098e+08,0,6419,6300,14.6,4.62,37,45,0,0
2.1717e+05,1.1109e+08,0,6291,6171,14.6,4.22,37,45,0,0
2.1762e+05,1.112e+08,0,6192,6400,14.63,4.98,37,45,0,0
2.1806e+05,1.113e+08,0,6401,6442,14.64,4.72,37,45,0,0
2.185e+05,1.1142e+08,0,6429,6285,14.67,4.77,37,45,0,0
2.1896e+05,1.1153e+08,0,6285,6285,14.68,4.46,37,45,0,0
2.194e+05,1.1164e+08,0,6281,6200,14.63,4.14,37,45,0,0
2.1985e+05,1.1174e+08,0,6202,6257,14.64,4.57,37,45,0,0
2.203e+05,1.1185e+08,0,6253,6200,14.61,4.25,37,46,0,0
2.2075e+05,1.1196e+08,0,6210,6357,14.57,4.97,37,46,0,0
2.2115e+05,1.1206e+08,0,6356,6342,14.61,4.54,37,46,0,0
2.2163e+05,1.1217e+08,0,6336,6228,14.59,4.85,37,46,0,0
2.2208e+05,1.1228e+08,0,6255,6528,14.54,5.03,37,46,0,0
2.2252e+05,1.1239e+08,0,6525,6500,14.57,4.88,37,46,0,0
2.2292e+05,1.1249e+08,0,6502,6700,14.47,5.78,37,46,0,0
2.2337e+05,1.126e+08,0,6690,6500,14.54,5.47,37,47,0,0
2.2386e+05,1.1272e+08,0,6510,6671,14.57,5.4,37,47,0,0
2.2475e+05,1.1293e+08,0,6668,6600,14.55,5.03,37,47,0,0
2.2515e+05,1.1304e+08,0,6596,6528,14.56,5.06,37,47,0,0
2.256e+05,1.1315e+08,0,6529,6557,14.54,5.11,37,47,0,0
2.2605e+05,1.1326e+08,0,6520,6257,14.54,4.4,37,47,0,0
2.2646e+05,1.1336e+08,0,6266,6471,14.51,5.49,37,48,0,0
2.269e+05,1.1347e+08,0,6478,6585,14.64,5.32,37,48,0,0
2.2735e+05,1.1358e+08,0,6581,6528,14.53,5.02,37,48,0,0
2.2776e+05,1.1369e+08,0,6526,6500,14.61,4.79,37,48,0,0
2.2821e+05,1.138e+08,0,6505,6557,14.6,4.82,37,48,0,0
2.2864e+05,1.139e+08,0,6553,6414,14.64,4.7,37,48,0,0
2.2909e+05,1.1401e+08,0,6412,6342,14.64,4.7,37,49,0,0
2.2955e+05,1.1413e+08,0,6326,6157,14.67,4.11,37,49,0,0
2.2999e+05,1.1423e+08,0,6162,6228,14.59,4.86,37,49,0,0
2.3088e+05,1.1446e+08,0,6238,6442,14.63,4.56,37,49,0,0
2.3173e+05,1.1466e+08,0,6439,6200,14.68,4.59,37,49,0,0
2.3222e+05,1.1479e+08,0,6217,6342,14.64,4.2,37,50,0,0
2.3262e+05,1.1489e+08,0,6338,6314,14.64,4.73,37,50,0,0
2.3352e+05,1.1511e+08,0,6320,6500,14.6,4.71,37,50,0,0
2.3393e+05,1.1521e+08,0,6498,6428,14.67,4.81,37,50,0,0
2.3486e+05,1.1544e+08,0,6427,6414,14.63,4.63,37,50,0,0
2.3531e+05,1.1555e+08,0,6401,6285,14.58,4.46,37,51,0,0
2.357e+05,1.1564e+08,0,6284,6271,14.57,4.61,37,51,0,0
2.362e+05,1.1576e+08,0,6288,6471,14.55,4.96,37,51,0,0
2.3659e+05,1.1586e+08,0,6467,6342,14.6,4.88,37,51,0,0
2.3705e+05,1.1597e+08,0,6331,6100,14.66,3.62,37,51,0,0
2.375e+05,1.1608e+08,0,6097,6071,14.73,4.33,37,51,0,0
2.379e+05,1.1618e+08,0,6071,6071,14.68,3.73,37,51,0,0
2.3839e+05,1.163e+08,0,6076,6128,14.74,4.09,37,51,0,0
2.3883e+05,1.1641e+08,0,6126,6114,14.71,4,37,52,0,0
2.3928e+05,1.1652e+08,0,6132,6328,14.65,4.21,38,52,0,0
2.3968e+05,1.1662e+08,0,6325,6271,14.7,4.21,37,52,0,0
2.4013e+05,1.1673e+08,0,6257,6128,14.7,3.91,37,52,0,0
2.4056e+05,1.1683e+08,0,6128,6157,14.7,4.35,38,52,0,0
2.4101e+05,1.1694e+08,0,6167,6371,14.62,4.48,38,52,0,0
2.4151e+05,1.1706e+08,0,6361,6257,14.64,4.84,37,52,0,0
2.4191e+05,1.1716e+08,0,6263,6514,14.66,4.9,37,53,0,0
2.4232e+05,1.1727e+08,0,6513,6500,14.56,4.85,37,53,0,0
2.428e+05,1.1738e+08,0,6493,6428,14.67,4.48,37,53,0,0
2.437e+05,1.176e+08,0,6430,6485,14.58,5.09,37,53,0,0
2.4414e+05,1.177e+08,0,6484,6471,14.61,4.98,38,53,0,0
2.4458e+05,1.1781e+08,0,6471,6500,14.63,4.89,38,53,0,0
2.4503e+05,1.1792e+08,0,6488,6342,14.6,4.85,38,53,0,0
2.4548e+05,1.1803e+08,0,6327,6171,14.6,3.9,38,54,0,0
2.4593e+05,1.1815e+08,0,6151,5942,14.62,4.04,38,54,0,0
2.4633e+05,1.1825e+08,0,5944,5985,14.6,3.92,38,54,0,0
2.4682e+05,1.1836e+08,0,5962,5728,14.67,3.83,38,54,0,0
2.4722e+05,1.1847e+08,0,5738,5871,14.62,4.25,38,54,0,0
2.4767e+05,1.1857e+08,0,5871,5885,14.58,4.4,37,54,0,0
2.4811e+05,1.1868e+08,0,5903,6171,14.62,4.32,38,54,0,0
2.4856e+05,1.1879e+08,0,6165,6042,14.61,4.06,37,55,0,0
2.4901e+05,1.189e+08,0,6048,6157,14.61,4.52,38,55,0,0
2.4946e+05,1.1901e+08,0,6157,6157,14.6,4.15,38,55,0,0
2.4995e+05,1.1913e+08,0,6153,6114,14.58,4.07,37,55,0,0
2.5039e+05,1.1924e+08,0,6119,6171,14.54,4.05,38,55,0,0
2.508e+05,1.1934e+08,0,6168,6042,14.61,4.28,37,55,0,0
2.5128e+05,1.1945e+08,0,6055,6228,14.57,4.2,37,55,0,0
2.5173e+05,1.1956e+08,0,6224,6171,14.6,4.43,38,55,0,0
2.5217e+05,1.1967e+08,0,6173,6200,14.54,4.69,37,56,0,0
2.5258e+05,1.1977e+08,0,6196,6028,14.58,4.19,37,56,0,0
2.5307e+05,1.1989e+08,0,6044,6214,14.63,4.52,38,56,0,0
2.5352e+05,1.2e+08,0,6216,6242,14.58,4.73,37,56,0,0
2.5396e+05,1.2011e+08,0,6238,6200,14.6,3.82,38,56,0,0
2.544e+05,1.2022e+08,0,6177,5942,14.56,3.78,38,56,0,0
2.5486e+05,1.2033e+08,0,5938,5900,14.58,3.75,38,56,0,0
2.5526e+05,1.2043e+08,0,5899,5885,14.53,3.93,38,56,0,0
2.5575e+05,1.2055e+08,0,5887,5914,14.6,4.08,38,56,0,0
2.5619e+05,1.2065e+08,0,5907,5785,14.53,3.93,38,57,0,0
2.5664e+05,1.2077e+08,0,5808,6042,14.58,4.03,38,57,0,0
2.5705e+05,1.2087e+08,0,6032,5942,14.55,3.94,38,57,0,0
2.575e+05,1.2098e+08,0,5940,5914,14.57,4.01,38,57,0,0
2.5842e+05,1.2121e+08,0,5896,5657,14.64,3.24,38,57,0,0
2.5883e+05,1.213e+08,0,5655,5642,14.67,3.06,38,57,0,0
2.5928e+05,1.2142e+08,0,5616,5414,14.6,3.3,38,57,0,0
2.5972e+05,1.2152e+08,0,5426,5728,14.64,3.35,38,58,0,0
2.6017e+05,1.2163e+08,0,5728,5800,14.63,3.37,38,58,0,0
2.6061e+05,1.2174e+08,0,5793,5685,14.63,4.07,38,58,0,0
2.6102e+05,1.2184e+08,0,5687,5857,14.64,3.65,38,58,0,0
2.6151e+05,1.2196e+08,0,5852,5814,14.63,3.83,38,58,0,0
2.6195e+05,1.2207e+08,0,5814,5828,14.63,3.76,38,58,0,0
2.6239e+05,1.2218e+08,0,5840,6142,14.66,4.24,38,58,0,0
2.6284e+05,1.2229e+08,0,6148,6242,14.6,4.28,38,58,0,0
2.6329e+05,1.224e+08,0,6251,6328,14.61,4.75,38,58,0,0
2.637e+05,1.225e+08,0,6325,6242,14.57,4.65,38,59,0,0
2.6459e+05,1.2272e+08,0,6245,6314,14.55,4.77,38,59,0,0
2.6503e+05,1.2283e+08,0,6317,6357,14.51,4.79,37,59,0,0
2.6548e+05,1.2294e+08,0,6357,6385,14.56,4.75,38,59,0,0
2.6592e+05,1.2304e+08,0,6384,6371,14.54,4.75,38,59,0,0
2.6641e+05,1.2316e+08,0,6356,6185,14.54,4.14,38,60,0,0
2.6682e+05,1.2326e+08,0,6181,6114,14.58,4.22,38,60,0,0
2.6727e+05,1.2337e+08,0,6113,6071,14.53,4.24,38,60,0,0
2.6771e+05,1.2348e+08,0,6071,6100,14.52,4.41,38,60,0,0
2.686e+05,1.237e+08,0,6103,6257,14.54,4.47,38,60,0,0
2.6902e+05,1.2381e+08,0,6259,6300,14.5,4.76,38,60,0,0
2.695e+05,1.2392e+08,0,6310,6442,14.52,4.63,38,60,0,0
2.6991e+05,1.2403e+08,0,6439,6271,14.51,4.66,38,61,0,0
2.7036e+05,1.2414e+08,0,6272,6342,14.48,5,38,61,0,0
2.708e+05,1.2425e+08,0,6343,6371,14.54,4.6,38,61,0,0
2.7124e+05,1.2435e+08,0,6369,6271,14.63,4.28,38,61,0,0
2.7169e+05,1.2446e+08,0,6253,6028,14.58,4.27,38,61,0,0
2.7214e+05,1.2457e+08,0,6029,6100,14.63,4.07,38,61,0,0
2.7263e+05,1.2469e+08,0,6089,5985,14.64,4.17,38,61,0,0
2.7303e+05,1.2479e+08,0,5983,5928,14.62,3.5,38,61,0,0
2.7348e+05,1.249e+08,0,5928,5942,14.62,3.77,38,62,0,0
2.7393e+05,1.2501e+08,0,5946,6028,14.6,4.04,38,62,0,0
2.7437e+05,1.2512e+08,0,6025,5985,14.61,4.15,38,62,0,0
2.7482e+05,1.2523e+08,0,5991,6142,14.6,4.15,38,62,0,0
2.7527e+05,1.2534e+08,0,6138,5957,14.61,4.04,38,62,0,0
2.7572e+05,1.2545e+08,0,5961,6071,14.6,4.38,38,62,0,0
2.7616e+05,1.2555e+08,0,6079,6257,14.61,4.54,38,62,0,0
2.7661e+05,1.2567e+08,0,6261,6300,14.59,4.78,38,63,0,0
2.7705e+05,1.2577e+08,0,6297,6242,14.61,4.72,38,63,0,0
2.775e+05,1.2588e+08,0,6236,6157,14.61,4.43,38,63,0,0
2.7794e+05,1.2599e+08,0,6156,6128,14.64,4.09,38,63,0,0
2.7839e+05,1.261e+08,0,6128,6128,14.52,4.53,38,63,0,0
2.788e+05,1.2621e+08,0,6130,6185,14.5,4.91,38,63,0,0
2.7928e+05,1.2632e+08,0,6201,6428,14.44,5.56,38,63,0,0
2.7974e+05,1.2643e+08,0,6431,6485,14.46,5.09,38,63,0,0
2.8014e+05,1.2653e+08,0,6488,6528,14.42,5.31,38,64,0,0
2.8055e+05,1.2664e+08,0,6522,6471,14.47,5.3,38,64,0,0
2.8099e+05,1.2674e+08,0,6465,6385,14.55,4.93,38,64,0,0
2.8143e+05,1.2685e+08,0,6380,6271,14.58,4.79,38,64,0,0
2.8188e+05,1.2696e+08,0,6273,6314,14.61,4.36,38,64,0,0
2.8232e+05,1.2706e+08,0,6311,6228,14.58,4.82,38,64,0,0
2.8277e+05,1.2717e+08,0,6226,6171,14.57,4.48,38,65,0,0
2.8322e+05,1.2729e+08,0,6168,6057,14.57,4.2,38,65,0,0
2.837e+05,1.2741e+08,0,6072,6214,14.57,4.33,38,65,0,0
2.8411e+05,1.275e+08,0,6208,6100,14.57,4.37,38,65,0,0
2.8456e+05,1.2762e+08,0,6100,6100,14.54,4.16,38,65,0,0
2.8545e+05,1.2783e+08,0,6098,5928,14.62,3.88,38,65,0,0
2.8595e+05,1.2795e+08,0,5929,5942,14.57,4.1,38,65,0,0
2.8635e+05,1.2805e+08,0,5950,6128,14.58,4.32,38,66,0,0
2.8679e+05,1.2816e+08,0,6124,6014,14.53,4.31,38,66,0,0
2.8724e+05,1.2828e+08,0,6012,5985,14.55,4.38,38,66,0,0
2.8769e+05,1.2838e+08,0,5997,6142,14.57,4.11,38,66,0,0
2.881e+05,1.2849e+08,0,6138,5942,14.51,3.83,38,66,0,0
2.8858e+05,1.286e+08,0,5940,5928,14.62,3.81,38,66,0,0
2.8899e+05,1.287e+08,0,5922,5814,14.6,3.61,38,66,0,0
2.8943e+05,1.2881e+08,0,5814,5814,14.62,3.55,38,66,0,0
2.8992e+05,1.2893e+08,0,5800,5671,14.53,3.54,38,66,0,0
2.9033e+05,1.2903e+08,0,5667,5628,14.58,3.32,38,67,0,0
2.9078e+05,1.2914e+08,0,5630,5657,14.65,3.15,38,67,0,0
2.9118e+05,1.2924e+08,0,5648,5485,14.66,3.3,38,67,0,0
2.9167e+05,1.2936e+08,0,5496,5614,14.64,3.45,38,67,0,0
2.9211e+05,1.2947e+08,0,5634,5800,14.62,3.56,38,67,0,0
2.9255e+05,1.2958e+08,0,5801,5828,14.6,3.42,38,67,0,0
2.9296e+05,1.2968e+08,0,5805,5542,14.62,2.77,38,67,0,0
2.934e+05,1.2979e+08,0,5533,5442,14.66,2.63,38,67,0,0
2.9385e+05,1.2989e+08,0,5446,5514,14.64,2.92,38,67,0,0
2.9426e+05,1.2999e+08,0,5507,5414,14.79,3.08,38,67,0,0
2.9471e+05,1.3011e+08,0,5263,3928,15.08,0.58,38,67,0,0
2.9511e+05,1.3021e+08,0,3925,3700,15.14,0.66,38,68,0,0
2.956e+05,1.3032e+08,0,3625,3028,15.05,0.31,38,68,0,0
2.96e+05,1.3042e+08,0,3023,2914,15.03,0.38,38,68,0,0
2.969e+05,1.3065e+08,0,2908,2742,15.02,0.38,38,68,0,0
2.973e+05,1.3075e+08,0,2742,2742,15.02,0.48,38,68,0,0
2.982e+05,1.3097e+08,0,2744,2828,15.05,0.48,38,68,0,0
2.9865e+05,1.3109e+08,0,2825,2800,15.02,0.51,38,68,0,0
2.9878e+05,1.3119e+08,0,2800,2800,15.02,0.45,38,68,0,0
2.9922e+05,1.313e+08,0,2800,2828,15.05,0.49,38,68,0,0
2.9971e+05,1.3141e+08,0,2828,2828,15.03,0.46,38,68,0,0
3.0012e+05,1.3151e+08,0,2822,2742,15.05,0.35,38,68,0,0
3.0056e+05,1.3162e+08,0,2742,2742,15.04,0.45,38,68,0,0
3.0101e+05,1.3173e+08,0,2742,2742,15.05,0.42,38,68,0,0
3.0146e+05,1.3184e+08,0,2743,2757,15.04,0.47,38,68,0,0
3.0187e+05,1.3194e+08,0,2749,2314,15.13,0.09,38,68,0,0
3.0235e+05,1.3205e+08,0,2254,1628,15.12,0,38,68,0,0
3.028e+05,1.3216e+08,0,1607,1328,15.1,0.04,38,68,0,0
3.0324e+05,1.3227e+08,0,1322,1242,15.1,0.09,38,68,0,0
3.0369e+05,1.3237e+08,0,1241,1228,15.1,0.1,38,68,0,0
3.0414e+05,1.3248e+08,0,1228,1228,15.11,0.1,38,68,0,0
3.0458e+05,1.3259e+08,0,1228,1228,15.1,0.1,38,68,0,0
3.0507e+05,1.3271e+08,0,1228,1228,15.11,0.1,38,68,0,0
3.0552e+05,1.3281e+08,0,1228,1228,15.11,0.1,38,68,0,0
3.0596e+05,1.3292e+08,0,1228,1228,15.11,0.1,37,68,0,0
3.0638e+05,1.3302e+08,0,1228,1228,15.12,0.1,37,68,0,0
3.0687e+05,1.3314e+08,0,1228,1228,15.11,0.1,37,68,0,0
3.0731e+05,1.3324e+08,0,1228,1228,15.11,0.1,37,68,0,0
3.0772e+05,1.3334e+08,0,1228,1228,15.12,0.1,37,68,0,0
3.0816e+05,1.3345e+08,0,1227,1214,15.12,0.08,37,68,0,0
3.0864e+05,1.3357e+08,0,1136,300,15.13,0,37,68,0,0
3.0904e+05,1.3367e+08,0,294,0,15.13,0.03,37,68,0,0
3.0999e+05,1.3389e+08,0,0,0,15.13,0.04,37,68,0,0
3.1044e+05,1.34e+08,0,0,0,15.13,0.04,37,68,0,0
3.1089e+05,1.3411e+08,0,0,0,15.14,0.04,37,68,0,0
3.1135e+05,1.3421e+08,0,0,0,15.14,0.04,37,68,0,0
3.1229e+05,1.3443e+08,0,0,0,15.14,0.04,37,68,0,0
3.1274e+05,1.3454e+08,0,0,0,15.14,0.04,37,68,0,0
3.1319e+05,1.3465e+08,0,0,0,15.14,0.04,37,68,0,0
3.1364e+05,1.3475e+08,0,0,0,15.15,0.04,37,68,0,0
3.1409e+05,1.3486e+08,0,0,0,15.15,0.04,37,68,0,0
3.1459e+05,1.3498e+08,0,0,0,15.15,0.04,37,68,0,0
3.1504e+05,1.3508e+08,0,0,0,15.15,0.04,37,68,0,0
3.155e+05,1.3519e+08,0,0,0,15.15,0.04,37,68,0,0
3.1595e+05,1.353e+08,0,0,0,15.15,0.04,37,68,0,0
3.1641e+05,1.3541e+08,0,0,0,15.16,0.04,37,68,0,0
3.169e+05,1.3553e+08,0,0,0,15.16,0.04,37,68,0,0
3.1731e+05,1.3562e+08,0,0,0,15.16,0.04,37,68,0,0
3.178e+05,1.3574e+08,0,0,0,15.16,0.04,37,68,0,0
3.1825e+05,1.3585e+08,0,0,0,15.16,0.04,37,68,0,0
3.1876e+05,1.3596e+08,0,0,0,15.16,0.04,37,68,0,0
3.192e+05,1.3607e+08,0,0,0,15.16,0.04,37,68,0,0
3.197e+05,1.3618e+08,0,0,0,15.16,0.04,37,68,0,0
3.2015e+05,1.3629e+08,0,0,0,15.16,0.04,37,68,0,0
3.2077e+05,1.365e+08,0,0,0,15.17,0.04,37,68,0,0
3.2122e+05,1.3661e+08,0,0,0,15.17,0.04,37,68,0,0
3.2166e+05,1.3671e+08,0,0,0,15.17,0.04,37,68,0,0
3.2215e+05,1.3683e+08,0,0,0,15.17,0.04,37,68,0,0
3.2261e+05,1.3693e+08,0,0,0,15.17,0.04,37,68,0,0
3.2306e+05,1.3704e+08,0,0,0,15.17,0.04,37,68,0,0
3.2356e+05,1.3716e+08,0,0,0,15.18,0.04,37,68,0,0
3.24e+05,1.3726e+08,0,0,0,15.17,0.04,37,68,0,0
3.2446e+05,1.3737e+08,0,0,0,15.17,0.04,37,68,0,0
3.2491e+05,1.3748e+08,0,0,0,15.17,0.04,37,68,0,0
3.254e+05,1.3759e+08,0,0,0,15.18,0.04,37,68,0,0
3.2581e+05,1.3769e+08,0,0,0,15.18,0.04,37,68,0,0
3.2675e+05,1.3791e+08,0,0,0,15.18,0.04,37,68,0,0
3.2724e+05,1.3803e+08,0,0,0,15.18,0.04,37,68,0,0
3.2769e+05,1.3813e+08,0,0,0,15.18,0.04,37,68,0,0
3.2814e+05,1.3824e+08,0,0,0,15.18,0.04,37,68,0,0
3.286e+05,1.3835e+08,0,0,0,15.18,0.04,37,68,0,0
3.2905e+05,1.3846e+08,0,0,0,15.19,0.04,37,68,0,0
3.2954e+05,1.3857e+08,0,0,0,15.19,0.04,37,68,0,0
3.2999e+05,1.3867e+08,0,0,0,15.19,0.04,36,68,0,0
3.305e+05,1.388e+08,0,0,0,15.19,0.04,37,68,0,0
3.309e+05,1.3889e+08,0,0,0,15.19,0.04,37,68,0,0
3.3136e+05,1.39e+08,0,0,0,15.19,0.04,36,68,0,0
3.3185e+05,1.3912e+08,0,0,0,15.19,0.04,37,68,0,0
