LineNo,TimeUS,Instance,RPM,RawRPM,Volt,Curr,Temp,CTot,MotTemp,Err
1945,5.8416e+07,4,0,0,15.34,0.04,28,0,0,0
2403,5.8528e+07,4,0,0,15.34,0.04,28,0,0,0
2822,5.8633e+07,4,0,0,15.35,0.03,28,0,0,0
3273,5.8747e+07,4,0,0,15.34,0.03,28,0,0,0
3692,5.8852e+07,4,0,0,15.35,0.04,28,0,0,0
4149,5.8964e+07,4,0,0,15.35,0.04,28,0,0,0
4567,5.9068e+07,4,0,0,15.35,0.04,28,0,0,0
4978,5.9174e+07,4,0,0,15.34,0.04,28,0,0,0
5390,5.9276e+07,4,0,0,15.35,0.04,28,0,0,0
5841,5.9387e+07,4,0,0,15.34,0.04,28,0,0,0
6257,5.9491e+07,4,0,0,15.34,0.04,28,0,0,0
6674,5.9598e+07,4,0,0,15.34,0.04,28,0,0,0
7084,5.9704e+07,4,0,0,15.34,0.03,28,0,0,0
7539,5.9817e+07,4,0,0,15.34,0.03,28,0,0,0
7948,5.9918e+07,4,0,0,15.34,0.03,28,0,0,0
8368,6.0023e+07,4,0,0,15.34,0.03,28,0,0,0
8818,6.0132e+07,4,0,0,15.34,0.03,28,0,0,0
9274,6.0243e+07,4,0,0,15.35,0.03,28,0,0,0
9690,6.0348e+07,4,0,0,15.34,0.03,28,0,0,0
10101,6.0452e+07,4,0,0,15.35,0.03,28,0,0,0
10548,6.0563e+07,4,0,0,15.35,0.03,28,0,0,0
11301,6.0777e+07,4,0,0,15.34,0.03,28,0,0,0
11716,6.088e+07,4,0,0,15.34,0.03,28,0,0,0
12100,6.0982e+07,4,0,0,15.34,0.03,28,0,0,0
12519,6.1088e+07,4,0,0,15.34,0.03,28,0,0,0
12941,6.1193e+07,4,0,0,15.35,0.03,28,0,0,0
13394,6.1307e+07,4,0,0,15.35,0.03,28,0,0,0
13806,6.141e+07,4,0,0,15.34,0.03,28,0,0,0
14258,6.1521e+07,4,0,0,15.34,0.03,28,0,0,0
14674,6.1625e+07,4,0,0,15.34,0.03,28,0,0,0
15091,6.1729e+07,4,0,0,15.34,0.03,28,0,0,0
15550,6.1843e+07,4,0,0,15.34,0.03,28,0,0,0
15963,6.1943e+07,4,0,0,15.35,0.03,28,0,0,0
16417,6.2054e+07,4,0,0,15.34,0.03,28,0,0,0
17246,6.2261e+07,4,0,0,15.35,0.03,28,0,0,0
17656,6.2364e+07,4,0,0,15.34,0.03,28,0,0,0
18120,6.248e+07,4,0,0,15.34,0.03,28,0,0,0
18539,6.2585e+07,4,0,0,15.34,0.03,28,0,0,0
18949,6.2687e+07,4,0,0,15.34,0.03,28,0,0,0
19400,6.2799e+07,4,0,0,15.35,0.03,28,0,0,0
19816,6.2901e+07,4,0,0,15.35,0.03,28,0,0,0
20232,6.3006e+07,4,0,0,15.35,0.03,28,0,0,0
20647,6.3106e+07,4,0,0,15.35,0.03,28,0,0,0
21104,6.3222e+07,4,0,0,15.35,0.03,28,0,0,0
21518,6.3323e+07,4,0,0,15.34,0.03,28,0,0,0
21932,6.3429e+07,4,0,0,15.35,0.03,28,0,0,0
22385,6.3541e+07,4,0,0,15.35,0.03,28,0,0,0
23242,6.3753e+07,4,0,0,15.34,0.03,28,0,0,0
23661,6.3859e+07,4,0,0,15.34,0.03,28,0,0,0
24110,6.3966e+07,4,0,0,15.35,0.03,28,0,0,0
24527,6.4074e+07,4,0,0,15.34,0.03,28,0,0,0
24940,6.4175e+07,4,0,0,15.34,0.04,28,0,0,0
25385,6.4286e+07,4,0,0,15.34,0.03,28,0,0,0
25840,6.44e+07,4,0,0,15.34,0.03,28,0,0,0
26256,6.4505e+07,4,0,0,15.35,0.03,28,0,0,0
26666,6.4609e+07,4,0,0,15.35,0.03,28,0,0,0
27119,6.4722e+07,4,0,0,15.34,0.03,28,0,0,0
27540,6.4832e+07,4,0,0,15.34,0.03,28,0,0,0
27954,6.4935e+07,4,0,0,15.35,0.03,28,0,0,0
28167,6.5039e+07,4,0,0,15.35,0.03,28,0,0,0
28627,6.5154e+07,4,0,0,15.35,0.03,28,0,0,0
29039,6.5259e+07,4,0,0,15.35,0.03,28,0,0,0
29452,6.5362e+07,4,0,0,15.34,0.03,28,0,0,0
29875,6.5469e+07,4,0,0,15.35,0.03,28,0,0,0
30331,6.5581e+07,4,0,0,15.34,0.03,28,0,0,0
30738,6.5683e+07,4,0,0,15.35,0.03,28,0,0,0
31189,6.5798e+07,4,0,0,15.35,0.03,28,0,0,0
31613,6.5904e+07,4,0,0,15.35,0.03,28,0,0,0
32026,6.6009e+07,4,0,0,15.35,0.03,28,0,0,0
32445,6.6114e+07,4,0,0,15.35,0.03,28,0,0,0
32857,6.622e+07,4,0,0,15.34,0.03,28,0,0,0
33724,6.6439e+07,4,0,0,15.35,0.03,28,0,0,0
34137,6.654e+07,4,0,0,15.34,0.03,28,0,0,0
34584,6.6649e+07,4,0,0,15.35,0.03,28,0,0,0
35000,6.6753e+07,4,0,0,15.35,0.03,28,0,0,0
35454,6.6864e+07,4,0,0,15.34,0.03,28,0,0,0
35869,6.6966e+07,4,0,0,15.35,0.03,28,0,0,0
36322,6.7081e+07,4,0,0,15.35,0.03,28,0,0,0
36737,6.7183e+07,4,0,0,15.35,0.03,28,0,0,0
37152,6.729e+07,4,0,0,15.34,0.03,28,0,0,0
37567,6.7392e+07,4,0,0,15.35,0.03,28,0,0,0
38015,6.7503e+07,4,0,0,15.35,0.03,28,0,0,0
38435,6.761e+07,4,0,0,15.35,0.03,28,0,0,0
38847,6.7713e+07,4,0,0,15.35,0.03,28,0,0,0
39302,6.7826e+07,4,0,0,15.35,0.03,28,0,0,0
39717,6.7927e+07,4,0,0,15.35,0.03,28,0,0,0
40170,6.8042e+07,4,0,0,15.34,0.04,28,0,0,0
40585,6.8142e+07,4,0,0,15.34,0.04,28,0,0,0
40997,6.8247e+07,4,0,0,15.35,0.03,28,0,0,0
41451,6.8359e+07,4,0,0,15.34,0.03,28,0,0,0
41863,6.8464e+07,4,0,0,15.34,0.03,28,0,0,0
42317,6.8573e+07,4,0,0,15.35,0.03,28,0,0,0
42733,6.868e+07,4,0,0,15.35,0.03,28,0,0,0
43149,6.8783e+07,4,0,0,15.35,0.03,28,0,0,0
43568,6.889e+07,4,0,0,15.35,0.03,28,0,0,0
43983,6.8992e+07,4,0,0,15.35,0.03,28,0,0,0
44404,6.9099e+07,4,0,0,15.34,0.03,28,0,0,0
44861,6.9214e+07,4,0,0,15.33,0.03,28,0,0,0
45314,6.9315e+07,4,0,0,15.34,0.03,28,0,0,0
45764,6.9418e+07,4,0,0,15.34,0.04,28,0,0,0
46261,6.953e+07,4,0,0,15.35,0.04,28,0,0,0
46713,6.9636e+07,4,0,0,15.35,0.04,28,0,0,0
47167,6.9739e+07,4,0,0,15.34,0.03,28,0,0,0
47626,6.9846e+07,4,0,0,15.34,0.03,28,0,0,0
48128,6.9959e+07,4,0,0,15.35,0.03,28,0,0,0
48539,7.0055e+07,4,0,0,15.35,0.03,28,0,0,0
49037,7.0169e+07,4,0,0,15.34,0.03,28,0,0,0
49527,7.0279e+07,4,0,0,15.35,0.04,28,0,0,0
49984,7.0384e+07,4,0,0,15.34,0.03,28,0,0,0
50433,7.0489e+07,4,0,0,15.34,0.03,28,0,0,0
50927,7.0601e+07,4,0,0,15.35,0.03,28,0,0,0
51383,7.0704e+07,4,0,0,15.34,0.03,28,0,0,0
51800,7.0807e+07,4,0,0,15.34,0.03,28,0,0,0
52302,7.0918e+07,4,0,0,15.35,0.03,28,0,0,0
52751,7.1022e+07,4,0,0,15.35,0.03,28,0,0,0
53206,7.1124e+07,4,0,0,15.35,0.02,28,0,0,0
53664,7.1231e+07,4,7,400,15.33,0.06,28,0,0,0
54162,7.1343e+07,4,425,800,15.31,0.12,28,0,0,0
54613,7.1447e+07,4,804,1142,15.32,0.13,28,0,0,0
55108,7.1557e+07,4,1148,1214,15.33,0.11,28,0,0,0
55597,7.1669e+07,4,1216,1242,15.33,0.1,28,0,0,0
55941,7.1774e+07,4,1244,1271,15.33,0.1,28,0,0,0
56405,7.1882e+07,4,1271,1271,15.33,0.1,28,0,0,0
56859,7.1984e+07,4,1271,1271,15.33,0.1,28,0,0,0
57313,7.2089e+07,4,1271,1271,15.33,0.1,28,0,0,0
57769,7.219e+07,4,1271,1271,15.33,0.09,28,0,0,0
58267,7.2306e+07,4,1269,1257,15.33,0.1,28,0,0,0
58719,7.241e+07,4,1257,1257,15.33,0.1,28,0,0,0
59173,7.2512e+07,4,1257,1271,15.33,0.1,28,0,0,0
59668,7.2625e+07,4,1271,1271,15.32,0.1,28,0,0,0
60122,7.2726e+07,4,1271,1271,15.33,0.1,28,0,0,0
60621,7.2841e+07,4,1271,1271,15.33,0.1,28,0,0,0
61076,7.2942e+07,4,1271,1271,15.33,0.1,28,0,0,0
61566,7.3055e+07,4,1271,1271,15.33,0.1,28,0,0,0
62019,7.3157e+07,4,1271,1271,15.33,0.1,28,0,0,0
62478,7.3263e+07,4,1271,1271,15.33,0.09,28,0,0,0
62978,7.3375e+07,4,1271,1271,15.33,0.1,28,0,0,0
63426,7.3477e+07,4,1271,1271,15.33,0.1,28,0,0,0
63851,7.3581e+07,4,1271,1271,15.32,0.09,28,0,0,0
64342,7.3696e+07,4,1271,1271,15.33,0.1,28,0,0,0
64758,7.3796e+07,4,1271,1271,15.33,0.1,28,0,0,0
65257,7.391e+07,4,1271,1271,15.33,0.1,28,0,0,0
65704,7.4013e+07,4,1271,1271,15.33,0.1,28,0,0,0
66202,7.4128e+07,4,1271,1271,15.33,0.1,28,0,0,0
66661,7.4235e+07,4,1271,1271,15.33,0.1,28,0,0,0
67159,7.4347e+07,4,1271,1271,15.33,0.09,28,0,0,0
67611,7.4453e+07,4,1271,1271,15.33,0.1,28,0,0,0
68063,7.4557e+07,4,1271,1271,15.33,0.09,28,0,0,0
68556,7.4673e+07,4,1271,1271,15.33,0.09,28,0,0,0
69009,7.4776e+07,4,1271,1271,15.33,0.09,28,0,0,0
69464,7.4885e+07,4,1271,1271,15.33,0.1,28,0,0,0
69917,7.4988e+07,4,1271,1271,15.33,0.09,28,0,0,0
70410,7.5102e+07,4,1271,1271,15.32,0.09,28,0,0,0
70860,7.5209e+07,4,1271,1271,15.32,0.09,28,0,0,0
71356,7.5318e+07,4,1271,1271,15.33,0.09,28,0,0,0
71771,7.5418e+07,4,1271,1271,15.33,0.09,28,0,0,0
72268,7.5531e+07,4,1271,1271,15.33,0.09,28,0,0,0
72715,7.5636e+07,4,1271,1271,15.33,0.1,28,0,0,0
73707,7.5862e+07,4,1274,1357,15.31,0.16,28,0,0,0
74162,7.5964e+07,4,1364,1871,15.22,0.54,28,0,0,0
74612,7.6073e+07,4,1879,2385,15.26,0.54,28,0,0,0
75109,7.6185e+07,4,2385,2385,15.24,0.54,29,0,0,0
75565,7.6293e+07,4,2384,2371,15.35,0.27,28,0,0,0
76018,7.6396e+07,4,2372,2514,15.22,0.63,28,0,0,0
76513,7.6514e+07,4,2562,3185,15.14,1.43,29,0,0,0
76971,7.663e+07,4,3241,3828,15.03,1.71,28,0,0,0
77425,7.6735e+07,4,3852,4442,14.94,2.58,29,0,0,0
77878,7.6842e+07,4,4475,5128,14.82,3.56,29,0,0,0
78374,7.6956e+07,4,5169,5614,14.75,3.84,28,0,0,0
78785,7.706e+07,4,5646,6071,14.72,4.39,29,0,0,0
79274,7.7174e+07,4,6083,6214,14.77,3.73,29,1,0,0
79653,7.7274e+07,4,6212,6114,14.7,3.63,28,1,0,0
80108,7.7381e+07,4,6112,6014,14.77,3.55,29,1,0,0
80641,7.7506e+07,4,6004,5900,14.79,3.46,29,1,0,0
81094,7.7616e+07,4,5876,5714,14.77,2.81,29,1,0,0
82000,7.7832e+07,4,5703,5485,14.78,2.63,29,1,0,0
82452,7.7938e+07,4,5480,5428,14.79,2.77,29,1,0,0
82909,7.8051e+07,4,5422,5371,14.79,2.57,29,1,0,0
83360,7.8157e+07,4,5373,5428,14.78,3.13,29,1,0,0
83851,7.8274e+07,4,5437,5528,14.7,3.38,29,1,0,0
84306,7.8383e+07,4,5543,5700,14.81,2.94,29,2,0,0
84722,7.8488e+07,4,5693,5600,14.82,3.11,29,2,0,0
85178,7.8595e+07,4,5598,5557,14.83,3.3,29,2,0,0
85628,7.8705e+07,4,5564,5742,14.72,3.08,29,2,0,0
86121,7.8821e+07,4,5725,5585,14.72,3.22,29,2,0,0
86504,7.8919e+07,4,5587,5685,14.72,3.56,29,2,0,0
86990,7.9038e+07,4,5701,5885,14.67,3.39,29,2,0,0
87395,7.9137e+07,4,5873,5771,14.73,3.17,29,2,0,0
87841,7.9247e+07,4,5774,5828,14.77,3.21,29,2,0,0
88291,7.9358e+07,4,5811,5628,14.81,2.77,29,2,0,0
88733,7.9465e+07,4,5631,5671,14.77,2.95,29,3,0,0
89139,7.9563e+07,4,5667,5414,14.92,1.97,29,3,0,0
89629,7.9684e+07,4,5383,4971,14.89,1.75,29,3,0,0
90078,7.9792e+07,4,4974,5014,14.78,2.54,29,3,0,0
90485,7.9895e+07,4,5018,5142,14.89,2.35,29,3,0,0
90932,8.0003e+07,4,5140,5085,14.81,2.65,29,3,0,0
91380,8.0117e+07,4,5087,5114,14.86,2.41,29,3,0,0
91783,8.022e+07,4,5124,5271,14.85,2.83,29,3,0,0
92232,8.0327e+07,4,5266,5042,14.91,2.02,29,3,0,0
92668,8.0431e+07,4,5038,4900,14.89,1.74,29,3,0,0
93123,8.0545e+07,4,4901,4971,14.87,2.37,29,3,0,0
93558,8.0647e+07,4,4969,4928,14.81,2.85,29,3,0,0
94057,8.0769e+07,4,4934,5000,14.73,2.62,29,3,0,0
94462,8.0871e+07,4,5018,5257,14.86,2.79,29,3,0,0
94909,8.0978e+07,4,5256,5228,14.76,3.14,29,4,0,0
95349,8.1084e+07,4,5245,5657,14.73,3.33,29,4,0,0
95843,8.1203e+07,4,5647,5557,14.83,2.85,29,4,0,0
96246,8.1306e+07,4,5554,5514,14.84,2.68,29,4,0,0
96697,8.142e+07,4,5507,5414,14.85,2.46,29,4,0,0
97099,8.1519e+07,4,5413,5357,14.83,2.71,29,4,0,0
97550,8.1633e+07,4,5350,5271,14.8,2.73,29,4,0,0
97998,8.1741e+07,4,5281,5428,14.79,2.85,29,4,0,0
98442,8.185e+07,4,5424,5357,14.86,2.48,29,4,0,0
98893,8.1958e+07,4,5345,5100,14.85,2.21,29,4,0,0
99345,8.2072e+07,4,5107,5214,14.83,2.62,30,4,0,0
99793,8.2181e+07,4,5218,5328,14.97,2.71,29,4,0,0
1.0023e+05,8.2284e+07,4,5324,5257,14.92,2.37,30,5,0,0
1.0068e+05,8.2396e+07,4,5258,5285,14.81,2.66,29,5,0,0
1.0108e+05,8.2499e+07,4,5288,5357,14.89,2.55,30,5,0,0
1.0154e+05,8.2617e+07,4,5343,5200,14.77,2.25,29,5,0,0
1.0195e+05,8.2719e+07,4,5200,5200,14.82,2.17,29,5,0,0
1.0243e+05,8.2833e+07,4,5220,5428,14.75,3.09,30,5,0,0
1.0284e+05,8.2937e+07,4,5433,5557,14.73,3.16,30,5,0,0
1.0329e+05,8.3049e+07,4,5554,5500,14.79,2.9,30,5,0,0
1.037e+05,8.3151e+07,4,5501,5600,14.8,3.07,30,5,0,0
1.0418e+05,8.3267e+07,4,5602,5628,14.83,2.68,30,5,0,0
1.0463e+05,8.3373e+07,4,5607,5414,14.77,2.65,30,5,0,0
1.0504e+05,8.3479e+07,4,5413,5400,14.78,2.71,30,5,0,0
1.0548e+05,8.3585e+07,4,5400,5400,14.7,2.73,30,5,0,0
1.0592e+05,8.3692e+07,4,5397,5357,14.76,2.85,30,6,0,0
1.0641e+05,8.3811e+07,4,5362,5414,14.77,2.56,30,6,0,0
1.0682e+05,8.3914e+07,4,5419,5485,14.76,2.7,30,6,0,0
1.0727e+05,8.4026e+07,4,5493,5614,14.75,3.32,30,6,0,0
1.0773e+05,8.4137e+07,4,5596,5414,14.76,2.99,30,6,0,0
1.0813e+05,8.4237e+07,4,5416,5542,14.77,2.75,30,6,0,0
1.0862e+05,8.4354e+07,4,5533,5442,14.82,2.65,30,6,0,0
1.0902e+05,8.4453e+07,4,5439,5371,14.75,2.8,30,6,0,0
1.0951e+05,8.4573e+07,4,5377,5471,14.81,2.88,30,6,0,0
1.0993e+05,8.4681e+07,4,5459,5342,14.8,2.71,30,6,0,0
1.1038e+05,8.479e+07,4,5333,5257,14.69,2.57,30,6,0,0
1.1078e+05,8.4889e+07,4,5254,5171,14.78,2.2,30,6,0,0
1.1123e+05,8.5005e+07,4,5174,5242,14.72,2.61,30,7,0,0
1.1168e+05,8.5111e+07,4,5245,5414,14.75,2.8,30,7,0,0
1.1212e+05,8.5221e+07,4,5414,5428,14.67,2.87,30,7,0,0
1.1261e+05,8.5333e+07,4,5429,5457,14.71,2.73,30,7,0,0
1.1302e+05,8.544e+07,4,5459,5514,14.69,2.88,30,7,0,0
1.1351e+05,8.5562e+07,4,5527,5657,14.69,3.4,30,7,0,0
1.1388e+05,8.566e+07,4,5650,5485,14.74,2.83,30,7,0,0
1.1438e+05,8.5779e+07,4,5483,5471,14.73,2.86,30,7,0,0
1.1523e+05,8.5989e+07,4,5469,5400,14.79,2.6,30,7,0,0
1.1616e+05,8.6222e+07,4,5393,5285,14.71,2.83,30,7,0,0
1.1661e+05,8.633e+07,4,5286,5300,14.79,2.43,30,8,0,0
1.1705e+05,8.6438e+07,4,5302,5357,14.7,2.56,30,8,0,0
1.1746e+05,8.6535e+07,4,5354,5257,14.75,2.61,30,8,0,0
1.1791e+05,8.665e+07,4,5262,5328,14.73,2.56,30,8,0,0
1.1836e+05,8.676e+07,4,5324,5271,14.77,2.8,30,8,0,0
1.188e+05,8.6866e+07,4,5265,5142,14.69,2.25,30,8,0,0
1.1966e+05,8.7078e+07,4,5148,5428,14.7,2.72,30,8,0,0
1.2011e+05,8.7183e+07,4,5425,5300,14.77,2.49,30,8,0,0
1.2056e+05,8.7297e+07,4,5292,5142,14.69,2.41,30,8,0,0
1.2101e+05,8.741e+07,4,5156,5328,14.73,3.01,30,8,0,0
1.2141e+05,8.7509e+07,4,5329,5385,14.72,2.75,30,8,0,0
1.2186e+05,8.7625e+07,4,5384,5371,14.71,2.84,30,9,0,0
1.2234e+05,8.7734e+07,4,5364,5285,14.74,2.5,30,9,0,0
1.2276e+05,8.7838e+07,4,5284,5271,14.74,2.62,30,9,0,0
1.2301e+05,8.7943e+07,4,5278,5428,14.74,2.96,30,9,0,0
1.2345e+05,8.805e+07,4,5427,5385,14.7,2.58,30,9,0,0
1.239e+05,8.8158e+07,4,5386,5457,14.7,2.87,30,9,0,0
1.2439e+05,8.8278e+07,4,5467,5585,14.63,2.75,30,9,0,0
1.248e+05,8.8378e+07,4,5583,5485,14.62,3.11,30,9,0,0
1.2524e+05,8.8485e+07,4,5485,5514,14.57,2.94,30,9,0,0
1.2574e+05,8.8606e+07,4,5520,5585,14.66,2.63,30,9,0,0
1.2614e+05,8.8703e+07,4,5583,5557,14.65,3.17,30,9,0,0
1.2658e+05,8.8811e+07,4,5554,5500,14.72,2.42,30,9,0,0
1.2703e+05,8.8923e+07,4,5496,5271,14.73,2.49,30,10,0,0
1.2748e+05,8.9033e+07,4,5268,5214,14.72,2.54,30,10,0,0
1.2792e+05,8.9141e+07,4,5209,5142,14.73,2.31,30,10,0,0
1.2837e+05,8.9252e+07,4,5152,5300,14.7,2.71,30,10,0,0
1.2882e+05,8.9361e+07,4,5287,5114,14.72,2.21,30,10,0,0
1.2927e+05,8.9472e+07,4,5125,5400,14.69,3.36,30,10,0,0
1.2971e+05,8.9579e+07,4,5396,5328,14.72,2.8,30,10,0,0
1.3016e+05,8.9693e+07,4,5329,5357,14.65,2.34,30,10,0,0
1.3061e+05,8.9798e+07,4,5348,5171,14.73,2.45,30,10,0,0
1.3106e+05,8.991e+07,4,5168,5142,14.69,2.4,30,10,0,0
1.3151e+05,9.0026e+07,4,5162,5400,14.71,2.91,30,10,0,0
1.3191e+05,9.0122e+07,4,5390,5271,14.67,2.45,30,10,0,0
1.3236e+05,9.0234e+07,4,5260,5157,14.66,2.23,30,10,0,0
1.3281e+05,9.0344e+07,4,5150,5085,14.66,2.48,30,11,0,0
1.3322e+05,9.0451e+07,4,5099,5285,14.72,2.82,30,11,0,0
1.3367e+05,9.056e+07,4,5290,5371,14.69,2.79,30,11,0,0
1.3457e+05,9.0779e+07,4,5373,5457,14.76,2.62,30,11,0,0
1.3502e+05,9.0892e+07,4,5454,5428,14.77,2.75,30,11,0,0
1.3547e+05,9.1e+07,4,5439,5600,14.77,3.07,30,11,0,0
1.3591e+05,9.111e+07,4,5588,5442,14.78,2.41,30,11,0,0
1.3636e+05,9.1219e+07,4,5424,5257,14.72,2.39,30,11,0,0
1.3676e+05,9.1319e+07,4,5256,5242,14.74,2.7,30,11,0,0
1.3722e+05,9.1434e+07,4,5263,5442,14.72,3.16,30,11,0,0
1.3767e+05,9.1544e+07,4,5445,5485,14.73,2.73,30,11,0,0
1.3808e+05,9.1651e+07,4,5484,5471,14.69,2.88,30,12,0,0
1.3853e+05,9.176e+07,4,5479,5600,14.6,3.03,30,12,0,0
1.3898e+05,9.1873e+07,4,5594,5457,14.66,2.79,30,12,0,0
1.3938e+05,9.1972e+07,4,5451,5214,14.69,2.64,30,12,0,0
1.3987e+05,9.2089e+07,4,5233,5500,14.69,3.2,30,12,0,0
1.4032e+05,9.2199e+07,4,5503,5542,14.59,2.63,30,12,0,0
1.4072e+05,9.23e+07,4,5536,5414,14.62,2.93,30,12,0,0
1.4121e+05,9.2423e+07,4,5414,5414,14.65,2.48,30,12,0,0
1.4162e+05,9.2519e+07,4,5413,5357,14.64,2.54,30,12,0,0
1.4255e+05,9.2744e+07,4,5357,5371,14.66,2.56,30,12,0,0
1.4295e+05,9.2848e+07,4,5356,5085,14.61,2.42,30,12,0,0
1.4341e+05,9.2963e+07,4,5089,5128,14.58,2.24,30,13,0,0
1.4386e+05,9.3076e+07,4,5123,5085,14.64,2.32,30,13,0,0
1.443e+05,9.3182e+07,4,5100,5285,14.62,2.62,30,13,0,0
1.4475e+05,9.3291e+07,4,5277,5171,14.59,2.33,30,13,0,0
1.452e+05,9.3408e+07,4,5157,5042,14.7,1.85,30,13,0,0
1.4561e+05,9.3504e+07,4,5044,5200,14.67,2.46,30,13,0,0
1.461e+05,9.3628e+07,4,5207,5271,14.69,2.93,30,13,0,0
1.4651e+05,9.3733e+07,4,5263,5200,14.58,2.32,30,13,0,0
1.4744e+05,9.3953e+07,4,5202,5328,14.61,2.62,30,13,0,0
1.4829e+05,9.4159e+07,4,5328,5342,14.57,2.77,30,13,0,0
1.4878e+05,9.4284e+07,4,5359,5542,14.59,2.77,30,13,0,0
1.4923e+05,9.4392e+07,4,5524,5371,14.6,2.93,30,13,0,0
1.4963e+05,9.4491e+07,4,5372,5457,14.64,2.09,30,14,0,0
1.5008e+05,9.46e+07,4,5453,5257,14.65,2.21,30,14,0,0
1.5053e+05,9.4708e+07,4,5255,5214,14.67,2.3,30,14,0,0
1.5142e+05,9.4931e+07,4,5209,5071,14.7,2.26,30,14,0,0
1.5187e+05,9.5042e+07,4,5074,5114,14.61,2.44,30,14,0,0
1.5273e+05,9.5255e+07,4,5114,5128,14.63,2.51,30,14,0,0
1.5318e+05,9.5365e+07,4,5131,5314,14.68,2.57,30,14,0,0
1.5366e+05,9.5484e+07,4,5322,5400,14.57,2.76,30,14,0,0
1.5407e+05,9.5584e+07,4,5406,5485,14.69,2.87,30,14,0,0
1.5448e+05,9.5687e+07,4,5483,5428,14.61,2.88,30,14,0,0
1.5493e+05,9.5798e+07,4,5427,5385,14.67,2.28,30,14,0,0
1.5538e+05,9.5909e+07,4,5381,5242,14.7,2.44,30,15,0,0
1.5627e+05,9.6131e+07,4,5236,5085,14.7,1.67,30,15,0,0
1.5716e+05,9.6347e+07,4,5088,5200,14.62,2.64,30,15,0,0
1.576e+05,9.6453e+07,4,5201,5257,14.69,2.39,30,15,0,0
1.5805e+05,9.6561e+07,4,5254,5200,14.63,2.17,30,15,0,0
1.585e+05,9.6672e+07,4,5190,5071,14.55,2.61,30,15,0,0
1.5894e+05,9.6778e+07,4,5071,5085,14.64,2.24,30,15,0,0
1.594e+05,9.6889e+07,4,5093,5300,14.58,2.82,30,15,0,0
1.5986e+05,9.7003e+07,4,5313,5414,14.57,2.76,30,15,0,0
1.607e+05,9.7213e+07,4,5425,5885,14.63,3.41,30,16,0,0
1.6115e+05,9.7319e+07,4,5886,5914,14.72,3.18,30,16,0,0
1.6164e+05,9.7438e+07,4,5879,5400,14.73,1.59,30,16,0,0
1.6204e+05,9.7538e+07,4,5385,5085,14.69,2.1,30,16,0,0
1.6249e+05,9.7648e+07,4,5092,5257,14.69,2.5,30,16,0,0
1.6294e+05,9.7757e+07,4,5255,5228,14.66,2.44,30,16,0,0
1.6338e+05,9.7864e+07,4,5229,5257,14.7,2.83,30,16,0,0
1.6384e+05,9.7976e+07,4,5274,5442,14.72,2.8,30,16,0,0
1.6424e+05,9.8079e+07,4,5438,5357,14.67,2.53,30,16,0,0
1.6469e+05,9.8188e+07,4,5359,5400,14.63,2.55,30,16,0,0
1.6514e+05,9.8297e+07,4,5400,5400,14.69,2.54,30,16,0,0
1.6559e+05,9.8406e+07,4,5384,5228,14.62,2.4,30,16,0,0
1.6603e+05,9.8516e+07,4,5209,5014,14.62,2.25,30,16,0,0
1.6647e+05,9.8621e+07,4,5024,5171,14.6,2.49,30,17,0,0
1.6696e+05,9.8736e+07,4,5167,5128,14.67,2.49,30,17,0,0
1.6737e+05,9.8838e+07,4,5140,5314,14.65,2.54,30,17,0,0
1.6826e+05,9.9055e+07,4,5314,5314,14.66,2.37,30,17,0,0
1.6871e+05,9.9163e+07,4,5310,5271,14.67,2.53,30,17,0,0
1.6916e+05,9.9272e+07,4,5271,5285,14.65,2.83,30,17,0,0
1.696e+05,9.9378e+07,4,5287,5342,14.69,2.65,30,17,0,0
1.7005e+05,9.9492e+07,4,5338,5285,14.66,2.83,30,17,0,0
1.7094e+05,9.9713e+07,4,5289,5371,14.6,2.59,30,17,0,0
1.7139e+05,9.9821e+07,4,5362,5271,14.67,2.38,30,17,0,0
1.7184e+05,9.9931e+07,4,5271,5271,14.61,2.57,30,17,0,0
1.723e+05,1.0005e+08,4,5265,5214,14.67,2.39,30,18,0,0
1.7274e+05,1.0015e+08,4,5219,5271,14.64,2.62,30,18,0,0
1.7318e+05,1.0026e+08,4,5278,5371,14.66,2.57,30,18,0,0
1.7363e+05,1.0037e+08,4,5363,5300,14.67,2.54,30,18,0,0
1.7407e+05,1.0048e+08,4,5297,5271,14.63,2.89,30,18,0,0
1.7448e+05,1.0058e+08,4,5273,5442,14.61,2.83,30,18,0,0
1.7497e+05,1.007e+08,4,5436,5385,14.55,2.66,30,18,0,0
1.7542e+05,1.0081e+08,4,5391,5428,14.61,2.72,30,18,0,0
1.7586e+05,1.0091e+08,4,5421,5357,14.58,2.81,30,18,0,0
1.7627e+05,1.0101e+08,4,5358,5385,14.59,2.79,30,18,0,0
1.7672e+05,1.0112e+08,4,5389,5485,14.57,2.98,30,18,0,0
1.7716e+05,1.0123e+08,4,5484,5471,14.61,2.65,30,18,0,0
1.7761e+05,1.0134e+08,4,5457,5271,14.64,2.61,30,19,0,0
1.7806e+05,1.0145e+08,4,5276,5400,14.58,2.74,30,19,0,0
1.7851e+05,1.0156e+08,4,5400,5400,14.57,2.9,30,19,0,0
1.7895e+05,1.0167e+08,4,5403,5471,14.58,2.69,30,19,0,0
1.7943e+05,1.0178e+08,4,5468,5428,14.63,2.61,30,19,0,0
1.8078e+05,1.0211e+08,4,5429,5485,14.66,2.64,30,19,0,0
1.8126e+05,1.0223e+08,4,5470,5314,14.66,2.68,30,19,0,0
1.8167e+05,1.0233e+08,4,5313,5285,14.63,2.63,30,19,0,0
1.8211e+05,1.0244e+08,4,5291,5428,14.61,2.86,30,19,0,0
1.8257e+05,1.0256e+08,4,5419,5300,14.66,2.65,30,19,0,0
1.8301e+05,1.0267e+08,4,5312,5442,14.67,2.88,30,20,0,0
1.8342e+05,1.0277e+08,4,5433,5242,14.65,2.54,30,20,0,0
1.8428e+05,1.0298e+08,4,5246,5457,14.59,2.94,30,20,0,0
1.8473e+05,1.031e+08,4,5458,5485,14.61,2.74,30,20,0,0
1.8518e+05,1.032e+08,4,5482,5428,14.64,2.85,30,20,0,0
1.8558e+05,1.0331e+08,4,5426,5342,14.58,2.62,30,20,0,0
1.8603e+05,1.0342e+08,4,5343,5457,14.66,2.63,30,20,0,0
1.8648e+05,1.0353e+08,4,5455,5385,14.63,2.69,30,20,0,0
1.8692e+05,1.0364e+08,4,5387,5428,14.65,2.45,30,20,0,0
1.8738e+05,1.0375e+08,4,5430,5457,14.57,2.65,30,20,0,0
1.8782e+05,1.0386e+08,4,5451,5371,14.67,2.6,30,20,0,0
1.8827e+05,1.0397e+08,4,5380,5514,14.6,2.97,30,21,0,0
1.8872e+05,1.0408e+08,4,5514,5528,14.62,2.87,30,21,0,0
1.8922e+05,1.042e+08,4,5525,5485,14.59,2.93,30,21,0,0
1.8962e+05,1.043e+08,4,5485,5485,14.66,2.84,30,21,0,0
1.9011e+05,1.0442e+08,4,5482,5457,14.61,2.47,30,21,0,0
1.9052e+05,1.0452e+08,4,5455,5342,14.61,2.72,30,21,0,0
1.9096e+05,1.0464e+08,4,5344,5385,14.62,2.59,30,21,0,0
1.9141e+05,1.0474e+08,4,5385,5400,14.55,2.91,30,21,0,0
1.9226e+05,1.0496e+08,4,5400,5485,14.52,2.8,30,21,0,0
1.927e+05,1.0506e+08,4,5483,5385,14.59,2.53,30,21,0,0
1.932e+05,1.0518e+08,4,5383,5371,14.54,2.51,30,21,0,0
1.9363e+05,1.0529e+08,4,5366,5285,14.57,2.55,30,22,0,0
1.9408e+05,1.0539e+08,4,5294,5471,14.6,2.8,30,22,0,0
1.9498e+05,1.0562e+08,4,5466,5342,14.57,2.43,30,22,0,0
1.9543e+05,1.0572e+08,4,5338,5300,14.58,2.54,30,22,0,0
1.9583e+05,1.0583e+08,4,5296,5228,14.58,2.79,30,22,0,0
1.9628e+05,1.0594e+08,4,5226,5200,14.58,2.71,30,22,0,0
1.9673e+05,1.0605e+08,4,5209,5357,14.66,2.67,30,22,0,0
1.9763e+05,1.0627e+08,4,5357,5357,14.62,2.65,30,22,0,0
1.9808e+05,1.0638e+08,4,5355,5271,14.57,2.57,30,22,0,0
1.9852e+05,1.0649e+08,4,5272,5285,14.66,2.51,30,22,0,0
1.9897e+05,1.066e+08,4,5285,5285,14.62,2.81,30,23,0,0
1.9941e+05,1.0671e+08,4,5277,5171,14.64,2.38,30,23,0,0
1.9986e+05,1.0682e+08,4,5172,5185,14.51,3,30,23,0,0
2.0026e+05,1.0692e+08,4,5184,5171,14.63,2.51,30,23,0,0
2.0071e+05,1.0703e+08,4,5163,5042,14.5,2.77,30,23,0,0
2.0209e+05,1.0737e+08,4,5046,5142,14.59,2.71,30,23,0,0
2.0249e+05,1.0746e+08,4,5149,5314,14.65,3.08,30,23,0,0
2.0298e+05,1.0758e+08,4,5318,5357,14.61,2.89,30,23,0,0
2.0342e+05,1.0769e+08,4,5358,5371,14.64,2.82,30,23,0,0
2.0387e+05,1.078e+08,4,5389,5514,14.55,3.22,30,23,0,0
2.0427e+05,1.079e+08,4,5500,5371,14.66,2.52,30,24,0,0
2.0472e+05,1.0802e+08,4,5390,5557,14.58,2.9,30,24,0,0
2.0517e+05,1.0813e+08,4,5532,5314,14.69,2.46,30,24,0,0
2.065e+05,1.0845e+08,4,5313,5285,14.63,2.58,30,24,0,0
2.0691e+05,1.0855e+08,4,5286,5314,14.66,2.96,30,24,0,0
2.0735e+05,1.0866e+08,4,5313,5285,14.65,2.7,30,24,0,0
2.078e+05,1.0877e+08,4,5284,5257,14.58,2.63,30,24,0,0
2.0825e+05,1.0888e+08,4,5264,5428,14.65,2.89,30,24,0,0
2.087e+05,1.0899e+08,4,5409,5242,14.67,2.8,30,24,0,0
2.0915e+05,1.091e+08,4,5263,5485,14.62,3.29,30,24,0,0
2.096e+05,1.0922e+08,4,5453,5214,14.64,2.21,30,24,0,0
2.0996e+05,1.0931e+08,4,5213,5157,14.57,2.71,30,25,0,0
2.1045e+05,1.0943e+08,4,5177,5471,14.61,3.09,31,25,0,0
2.1086e+05,1.0953e+08,4,5474,5542,14.65,2.89,30,25,0,0
2.1129e+05,1.0964e+08,4,5539,5414,14.5,2.87,30,25,0,0
2.1178e+05,1.0975e+08,4,5421,5500,14.54,2.82,30,25,0,0
2.1222e+05,1.0986e+08,4,5490,5400,14.57,2.74,30,25,0,0
2.1268e+05,1.0997e+08,4,5401,5414,14.54,3.02,30,25,0,0
2.1308e+05,1.1007e+08,4,5414,5428,14.63,2.48,30,25,0,0
2.1394e+05,1.1029e+08,4,5420,5228,14.58,2.75,30,25,0,0
2.1439e+05,1.1041e+08,4,5236,5285,14.55,2.49,30,25,0,0
2.1483e+05,1.1051e+08,4,5293,5385,14.6,2.66,30,25,0,0
2.1528e+05,1.1062e+08,4,5390,5471,14.65,2.93,31,26,0,0
2.1564e+05,1.1071e+08,4,5466,5285,14.6,2.5,30,26,0,0
2.1613e+05,1.1083e+08,4,5294,5428,14.57,2.86,30,26,0,0
2.1703e+05,1.1106e+08,4,5433,5557,14.63,3.11,30,26,0,0
2.1744e+05,1.1116e+08,4,5554,5414,14.63,2.67,30,26,0,0
2.1792e+05,1.1127e+08,4,5429,5628,14.69,2.77,30,26,0,0
2.1877e+05,1.1148e+08,4,5626,5442,14.63,2.96,30,26,0,0
2.1927e+05,1.116e+08,4,5440,5428,14.66,2.82,31,26,0,0
2.1971e+05,1.1171e+08,4,5428,5442,14.6,2.55,30,26,0,0
2.2016e+05,1.1182e+08,4,5433,5342,14.6,2.48,30,26,0,0
2.2061e+05,1.1193e+08,4,5338,5300,14.57,2.79,31,27,0,0
2.2101e+05,1.1203e+08,4,5304,5414,14.58,2.61,30,27,0,0
2.2149e+05,1.1214e+08,4,5402,5257,14.66,2.5,30,27,0,0
2.2194e+05,1.1225e+08,4,5255,5242,14.63,2.43,30,27,0,0
2.2234e+05,1.1235e+08,4,5241,5228,14.62,2.44,30,27,0,0
2.2279e+05,1.1246e+08,4,5225,5085,14.59,2.37,30,27,0,0
2.2328e+05,1.1257e+08,4,5101,5271,14.49,2.74,31,27,0,0
2.2368e+05,1.1268e+08,4,5273,5328,14.54,2.8,31,27,0,0
2.2412e+05,1.1279e+08,4,5325,5285,14.5,2.62,30,27,0,0
2.2456e+05,1.1289e+08,4,5291,5414,14.52,2.57,30,27,0,0
2.2506e+05,1.1302e+08,4,5422,5471,14.54,2.97,31,27,0,0
2.2546e+05,1.1312e+08,4,5476,5528,14.55,2.86,30,27,0,0
2.2586e+05,1.1322e+08,4,5521,5400,14.51,2.38,31,28,0,0
2.2632e+05,1.1333e+08,4,5402,5442,14.57,2.78,30,28,0,0
2.2676e+05,1.1344e+08,4,5449,5528,14.61,2.97,31,28,0,0
2.2722e+05,1.1355e+08,4,5511,5342,14.59,2.66,30,28,0,0
2.2762e+05,1.1366e+08,4,5344,5400,14.58,2.76,31,28,0,0
2.2802e+05,1.1376e+08,4,5399,5371,14.63,2.65,31,28,0,0
2.285e+05,1.1387e+08,4,5366,5271,14.6,2.24,31,28,0,0
2.2896e+05,1.1398e+08,4,5263,5171,14.66,2.45,31,28,0,0
2.2936e+05,1.1408e+08,4,5171,5185,14.67,2.29,31,28,0,0
2.303e+05,1.1431e+08,4,5177,5028,14.47,2.49,31,28,0,0
2.3075e+05,1.1442e+08,4,5041,5200,14.58,2.71,31,28,0,0
2.3115e+05,1.1452e+08,4,5203,5285,14.6,2.78,31,28,0,0
2.316e+05,1.1463e+08,4,5278,5142,14.66,2.44,31,29,0,0
2.3204e+05,1.1474e+08,4,5149,5314,14.58,2.66,31,29,0,0
2.3249e+05,1.1485e+08,4,5298,5128,14.61,2.57,31,29,0,0
2.329e+05,1.1495e+08,4,5131,5200,14.61,2.89,31,29,0,0
2.3335e+05,1.1506e+08,4,5204,5271,14.57,2.69,31,29,0,0
2.3379e+05,1.1517e+08,4,5278,5428,14.64,3.09,31,29,0,0
2.3424e+05,1.1528e+08,4,5440,5700,14.59,3.65,31,29,0,0
2.3469e+05,1.154e+08,4,5678,5457,14.67,2.33,31,29,0,0
2.3559e+05,1.1562e+08,4,5460,5542,14.53,3.08,31,29,0,0
2.3602e+05,1.1572e+08,4,5550,5714,14.54,3.73,31,29,0,0
2.3643e+05,1.1582e+08,4,5714,5757,14.57,3.06,31,29,0,0
2.3691e+05,1.1593e+08,4,5747,5542,14.57,2.59,31,30,0,0
2.3733e+05,1.1604e+08,4,5538,5314,14.63,2.35,31,30,0,0
2.3777e+05,1.1615e+08,4,5322,5428,14.71,2.59,31,30,0,0
2.3822e+05,1.1626e+08,4,5423,5357,14.67,2.51,31,30,0,0
2.3867e+05,1.1637e+08,4,5353,5257,14.74,2.59,31,30,0,0
2.3996e+05,1.1669e+08,4,5257,5357,14.68,2.54,31,30,0,0
2.4045e+05,1.1681e+08,4,5338,5157,14.63,2.34,31,30,0,0
2.4088e+05,1.1691e+08,4,5165,5285,14.61,2.48,31,30,0,0
2.4134e+05,1.1702e+08,4,5264,5071,14.61,2.32,31,30,0,0
2.4178e+05,1.1712e+08,4,5078,5185,14.61,2.96,31,30,0,0
2.4223e+05,1.1725e+08,4,5228,5542,14.65,3.23,31,30,0,0
2.4267e+05,1.1735e+08,4,5546,5585,14.65,3.24,31,31,0,0
2.4312e+05,1.1746e+08,4,5583,5571,14.62,3.04,31,31,0,0
2.4356e+05,1.1757e+08,4,5575,5614,14.58,3.25,31,31,0,0
2.4397e+05,1.1767e+08,4,5617,5700,14.58,3.04,31,31,0,0
2.4449e+05,1.1779e+08,4,5694,5628,14.58,3.05,31,31,0,0
2.4489e+05,1.1789e+08,4,5635,5714,14.63,3.64,31,31,0,0
2.4534e+05,1.18e+08,4,5714,5757,14.58,3.08,31,31,0,0
2.4579e+05,1.1811e+08,4,5758,5771,14.62,3.21,31,31,0,0
2.4664e+05,1.1832e+08,4,5771,5771,14.63,3.22,31,31,0,0
2.4797e+05,1.1865e+08,4,5774,5885,14.62,3.28,31,32,0,0
2.4842e+05,1.1876e+08,4,5872,5714,14.58,2.91,31,32,0,0
2.4976e+05,1.1909e+08,4,5711,5314,14.63,2.45,31,32,0,0
2.5026e+05,1.192e+08,4,5303,5200,14.54,2.61,31,32,0,0
2.5066e+05,1.1931e+08,4,5171,4885,14.5,2.08,31,32,0,0
2.5114e+05,1.1942e+08,4,4914,5228,14.62,2.31,31,32,0,0
2.5155e+05,1.1952e+08,4,5220,5057,14.57,2.25,31,32,0,0
2.5199e+05,1.1963e+08,4,5055,4985,14.58,2.33,31,32,0,0
2.5244e+05,1.1974e+08,4,4997,5185,14.56,2.39,31,33,0,0
2.5288e+05,1.1985e+08,4,5184,5171,14.49,2.78,31,33,0,0
2.5333e+05,1.1996e+08,4,5174,5357,14.54,3.14,31,33,0,0
2.5378e+05,1.2007e+08,4,5351,5242,14.59,2.23,31,33,0,0
2.5422e+05,1.2017e+08,4,5242,5257,14.56,2.83,31,33,0,0
2.5467e+05,1.2029e+08,4,5257,5271,14.59,2.94,31,33,0,0
2.5512e+05,1.204e+08,4,5305,5600,14.6,2.98,31,33,0,0
2.5557e+05,1.2051e+08,4,5601,5628,14.51,3.02,31,33,0,0
2.5605e+05,1.2062e+08,4,5620,5542,14.57,2.86,31,33,0,0
2.5646e+05,1.2073e+08,4,5545,5585,14.57,2.98,31,33,0,0
2.5686e+05,1.2083e+08,4,5584,5571,14.54,3.06,31,33,0,0
2.5732e+05,1.2094e+08,4,5572,5614,14.51,3.13,31,33,0,0
2.5781e+05,1.2106e+08,4,5627,5771,14.6,3.26,31,34,0,0
2.5826e+05,1.2117e+08,4,5754,5585,14.56,2.93,31,34,0,0
2.587e+05,1.2127e+08,4,5582,5542,14.68,2.75,31,34,0,0
2.5915e+05,1.2138e+08,4,5529,5414,14.64,2.74,31,34,0,0
2.5959e+05,1.2149e+08,4,5416,5442,14.6,2.78,31,34,0,0
2.6004e+05,1.216e+08,4,5425,5257,14.59,2.47,31,34,0,0
2.6048e+05,1.2171e+08,4,5254,5228,14.6,2.71,31,34,0,0
2.6133e+05,1.2192e+08,4,5228,5257,14.58,2.63,31,34,0,0
2.6182e+05,1.2204e+08,4,5276,5471,14.63,2.57,31,34,0,0
2.6226e+05,1.2214e+08,4,5467,5428,14.58,3.13,31,34,0,0
2.6271e+05,1.2225e+08,4,5418,5328,14.63,2.45,31,34,0,0
2.6316e+05,1.2236e+08,4,5337,5442,14.63,2.95,31,35,0,0
2.6356e+05,1.2246e+08,4,5442,5442,14.61,2.82,31,35,0,0
2.6401e+05,1.2257e+08,4,5442,5442,14.54,2.97,31,35,0,0
2.6446e+05,1.2268e+08,4,5447,5528,14.51,2.68,31,35,0,0
2.649e+05,1.2279e+08,4,5525,5500,14.51,3.14,31,35,0,0
2.6535e+05,1.229e+08,4,5502,5528,14.57,2.88,31,35,0,0
2.658e+05,1.2301e+08,4,5537,5671,14.57,3.25,31,35,0,0
2.6624e+05,1.2312e+08,4,5672,5700,14.53,3,31,35,0,0
2.6669e+05,1.2323e+08,4,5685,5385,14.61,2.62,31,35,0,0
2.6714e+05,1.2334e+08,4,5368,5228,14.57,2.39,31,35,0,0
2.6762e+05,1.2346e+08,4,5242,5314,14.57,3.01,31,35,0,0
2.6803e+05,1.2356e+08,4,5320,5400,14.49,3.03,31,36,0,0
2.6847e+05,1.2367e+08,4,5407,5528,14.58,2.75,31,36,0,0
2.6892e+05,1.2378e+08,4,5529,5542,14.55,2.99,31,36,0,0
2.6937e+05,1.2389e+08,4,5526,5428,14.5,2.53,31,36,0,0
2.6982e+05,1.24e+08,4,5426,5414,14.57,2.56,31,36,0,0
2.7022e+05,1.241e+08,4,5401,5128,14.58,2.34,31,36,0,0
2.7111e+05,1.2432e+08,4,5127,5100,14.6,2.4,31,36,0,0
2.7156e+05,1.2443e+08,4,5113,5242,14.62,2.6,31,36,0,0
2.7201e+05,1.2454e+08,4,5251,5357,14.53,2.96,31,36,0,0
2.7244e+05,1.2464e+08,4,5356,5328,14.59,2.53,31,36,0,0
2.7294e+05,1.2477e+08,4,5307,5157,14.61,2,31,36,0,0
2.7334e+05,1.2487e+08,4,5166,5285,14.62,2.63,31,37,0,0
2.7379e+05,1.2497e+08,4,5274,5142,14.57,2.41,31,37,0,0
2.7424e+05,1.2508e+08,4,5158,5357,14.61,2.73,31,37,0,0
2.7518e+05,1.2532e+08,4,5355,5328,14.57,2.49,31,37,0,0
2.7558e+05,1.2542e+08,4,5332,5371,14.59,2.32,31,37,0,0
2.7602e+05,1.2552e+08,4,5370,5357,14.55,2.5,31,37,0,0
2.7643e+05,1.2563e+08,4,5351,5214,14.56,2.62,31,37,0,0
2.7691e+05,1.2574e+08,4,5221,5328,14.61,2.54,31,37,0,0
2.7736e+05,1.2585e+08,4,5329,5342,14.65,2.45,31,37,0,0
2.7821e+05,1.2606e+08,4,5338,5000,14.49,2.53,31,37,0,0
2.7866e+05,1.2617e+08,4,5011,5242,14.45,2.83,31,37,0,0
2.791e+05,1.2628e+08,4,5266,5571,14.42,3.29,31,37,0,0
2.7955e+05,1.2639e+08,4,5571,5585,14.54,2.71,31,38,0,0
2.7996e+05,1.2649e+08,4,5580,5500,14.43,2.56,31,38,0,0
2.8041e+05,1.266e+08,4,5495,5442,14.43,2.42,31,38,0,0
2.8086e+05,1.2671e+08,4,5418,5171,14.53,2.09,31,38,0,0
2.8129e+05,1.2682e+08,4,5165,5114,14.57,1.99,31,38,0,0
2.8218e+05,1.2703e+08,4,5106,4914,14.61,1.97,31,38,0,0
2.8263e+05,1.2714e+08,4,4919,5142,14.58,2.82,31,38,0,0
2.8308e+05,1.2725e+08,4,5133,4957,14.61,2.09,31,38,0,0
2.8352e+05,1.2736e+08,4,4957,4971,14.59,2.27,31,38,0,0
2.8397e+05,1.2747e+08,4,4972,5000,14.56,2.21,31,38,0,0
2.8442e+05,1.2758e+08,4,4998,4971,14.58,2.18,31,38,0,0
2.8487e+05,1.277e+08,4,4972,5000,14.63,2.46,31,38,0,0
2.8532e+05,1.278e+08,4,5005,5071,14.64,2.39,31,38,0,0
2.8576e+05,1.2791e+08,4,5077,5157,14.57,2.1,31,39,0,0
2.8622e+05,1.2802e+08,4,5159,5200,14.61,2.6,31,39,0,0
2.8666e+05,1.2813e+08,4,5198,5157,14.63,2.32,31,39,0,0
2.8706e+05,1.2823e+08,4,5154,5100,14.55,2.34,31,39,0,0
2.8756e+05,1.2835e+08,4,5102,5128,14.6,2.37,31,39,0,0
2.8797e+05,1.2846e+08,4,5130,5185,14.59,2.26,31,39,0,0
2.8841e+05,1.2856e+08,4,5184,5171,14.55,2.39,31,39,0,0
2.8885e+05,1.2867e+08,4,5164,5071,14.61,2.35,31,39,0,0
2.893e+05,1.2878e+08,4,5083,5271,14.54,2.55,31,39,0,0
2.8975e+05,1.2889e+08,4,5267,5200,14.6,2.44,31,39,0,0
2.902e+05,1.29e+08,4,5204,5271,14.6,2.61,31,39,0,0
2.9064e+05,1.2911e+08,4,5260,5157,14.66,2.09,31,39,0,0
2.9105e+05,1.2921e+08,4,5154,5114,14.6,2.31,31,39,0,0
2.9149e+05,1.2932e+08,4,5116,5271,14.6,2.71,31,39,0,0
2.9238e+05,1.2953e+08,4,5277,5442,14.63,2.62,31,40,0,0
2.9283e+05,1.2965e+08,4,5423,5228,14.6,2.2,31,40,0,0
2.9328e+05,1.2975e+08,4,5229,5242,14.55,2.71,31,40,0,0
2.9367e+05,1.2985e+08,4,5241,5228,14.58,2.51,31,40,0,0
2.9413e+05,1.2996e+08,4,5248,5542,14.63,2.95,31,40,0,0
2.9453e+05,1.3006e+08,4,5519,4385,15.16,0.52,31,40,0,0
2.9498e+05,1.3017e+08,4,4317,2785,14.86,0.27,31,40,0,0
2.9542e+05,1.3028e+08,4,2757,2085,15.01,0.03,31,40,0,0
2.9587e+05,1.3039e+08,4,2083,2014,14.99,0.25,31,40,0,0
2.9632e+05,1.305e+08,4,2014,2014,14.99,0.23,31,40,0,0
2.9677e+05,1.3061e+08,4,2012,2000,15,0.23,31,40,0,0
2.9717e+05,1.3072e+08,4,2000,2014,14.97,0.23,31,40,0,0
2.9762e+05,1.3083e+08,4,2014,2028,15,0.18,31,40,0,0
2.9852e+05,1.3105e+08,4,2024,1957,15,0.22,31,40,0,0
2.9909e+05,1.3126e+08,4,1928,1942,15,0.2,31,40,0,0
2.9954e+05,1.3137e+08,4,1942,1942,15.01,0.18,31,40,0,0
2.9998e+05,1.3147e+08,4,1944,1985,15.01,0.22,31,40,0,0
3.0044e+05,1.3159e+08,4,1990,2042,15,0.24,31,40,0,0
3.0084e+05,1.3168e+08,4,2042,2042,15.01,0.21,31,40,0,0
3.0133e+05,1.3181e+08,4,2040,2028,15.01,0.23,31,40,0,0
3.0218e+05,1.3201e+08,4,2019,1671,15.07,0.01,31,40,0,0
3.0267e+05,1.3213e+08,4,1640,1342,15.05,0.02,31,40,0,0
3.0311e+05,1.3224e+08,4,1333,1257,15.05,0.07,31,40,0,0
3.0356e+05,1.3234e+08,4,1255,1242,15.05,0.09,31,40,0,0
3.0445e+05,1.3256e+08,4,1242,1242,15.06,0.09,31,40,0,0
3.0489e+05,1.3266e+08,4,1242,1242,15.06,0.09,31,40,0,0
3.0538e+05,1.3278e+08,4,1242,1242,15.05,0.09,31,40,0,0
3.0578e+05,1.3288e+08,4,1242,1242,15.06,0.09,31,40,0,0
3.0624e+05,1.3299e+08,4,1242,1242,15.05,0.09,31,40,0,0
3.0668e+05,1.331e+08,4,1242,1242,15.07,0.09,31,40,0,0
3.0713e+05,1.332e+08,4,1242,1242,15.07,0.09,31,40,0,0
3.0758e+05,1.3331e+08,4,1242,1242,15.06,0.09,31,40,0,0
3.0802e+05,1.3342e+08,4,1242,1242,15.07,0.09,31,40,0,0
3.0847e+05,1.3353e+08,4,1192,428,15.08,0,31,40,0,0
3.089e+05,1.3364e+08,4,414,228,15.08,0.02,31,40,0,0
3.0936e+05,1.3374e+08,4,219,0,15.08,0.02,30,40,0,0
3.098e+05,1.3385e+08,4,0,0,15.08,0.02,31,40,0,0
3.1026e+05,1.3396e+08,4,0,0,15.08,0.03,30,40,0,0
3.1121e+05,1.3418e+08,4,0,0,15.09,0.02,31,40,0,0
3.1166e+05,1.3429e+08,4,0,0,15.08,0.03,30,40,0,0
3.1211e+05,1.3439e+08,4,0,0,15.1,0.02,30,40,0,0
3.126e+05,1.3451e+08,4,0,0,15.09,0.02,30,40,0,0
3.1301e+05,1.3461e+08,4,0,0,15.09,0.02,30,40,0,0
3.135e+05,1.3472e+08,4,0,0,15.1,0.02,30,40,0,0
3.1396e+05,1.3483e+08,4,0,0,15.09,0.02,30,40,0,0
3.1441e+05,1.3494e+08,4,0,0,15.1,0.02,30,40,0,0
3.1486e+05,1.3504e+08,4,0,0,15.1,0.03,30,40,0,0
3.1536e+05,1.3516e+08,4,0,0,15.1,0.02,30,40,0,0
3.1582e+05,1.3527e+08,4,0,0,15.1,0.02,30,40,0,0
3.1627e+05,1.3538e+08,4,0,0,15.1,0.03,30,40,0,0
3.1717e+05,1.3559e+08,4,0,0,15.11,0.03,30,40,0,0
3.1762e+05,1.357e+08,4,0,0,15.1,0.03,30,40,0,0
3.1812e+05,1.3581e+08,4,0,0,15.11,0.03,30,40,0,0
3.1857e+05,1.3592e+08,4,0,0,15.1,0.03,30,40,0,0
3.1902e+05,1.3603e+08,4,0,0,15.11,0.03,30,40,0,0
3.1952e+05,1.3614e+08,4,0,0,15.11,0.03,30,40,0,0
3.1996e+05,1.3625e+08,4,0,0,15.11,0.03,30,40,0,0
3.2058e+05,1.3646e+08,4,0,0,15.11,0.03,30,40,0,0
3.2108e+05,1.3657e+08,4,0,0,15.11,0.03,30,40,0,0
3.2152e+05,1.3668e+08,4,0,0,15.11,0.03,30,40,0,0
3.2203e+05,1.368e+08,4,0,0,15.11,0.03,30,40,0,0
3.2296e+05,1.3702e+08,4,0,0,15.11,0.03,30,40,0,0
3.2338e+05,1.3712e+08,4,0,0,15.12,0.03,30,40,0,0
3.2387e+05,1.3723e+08,4,0,0,15.12,0.03,30,40,0,0
3.2432e+05,1.3734e+08,4,0,0,15.12,0.03,30,40,0,0
3.2473e+05,1.3744e+08,4,0,0,15.11,0.03,30,40,0,0
3.2522e+05,1.3755e+08,4,0,0,15.12,0.03,30,40,0,0
3.2572e+05,1.3767e+08,4,0,0,15.13,0.03,30,40,0,0
3.2617e+05,1.3777e+08,4,0,0,15.12,0.03,30,40,0,0
3.2661e+05,1.3787e+08,4,0,0,15.12,0.03,30,40,0,0
3.2711e+05,1.3799e+08,4,0,0,15.13,0.03,30,40,0,0
3.2751e+05,1.3809e+08,4,0,0,15.13,0.03,30,40,0,0
3.2801e+05,1.3821e+08,4,0,0,15.13,0.03,30,40,0,0
3.2846e+05,1.3831e+08,4,0,0,15.13,0.03,30,40,0,0
3.2892e+05,1.3842e+08,4,0,0,15.13,0.03,30,40,0,0
3.2986e+05,1.3864e+08,4,0,0,15.13,0.03,30,40,0,0
3.3031e+05,1.3875e+08,4,0,0,15.13,0.03,30,40,0,0
3.3077e+05,1.3886e+08,4,0,0,15.13,0.04,30,40,0,0
3.3122e+05,1.3897e+08,4,0,0,15.13,0.04,30,40,0,0
3.3167e+05,1.3907e+08,4,0,0,15.14,0.03,30,40,0,0
