LineNo,TimeUS,Instance,RPM,RawRPM,Volt,Curr,Temp,CTot,MotTemp,Err
1904,58405798,3,0,0,15.45,0.04,27,0,0,0
2322,58507779,3,0,0,15.45,0.04,27,0,0,0
2740,58612698,3,0,0,15.45,0.04,27,0,0,0
3190,58725307,3,0,0,15.45,0.04,27,0,0,0
3604,58831167,3,0,0,15.44,0.04,27,0,0,0
4061,58943986,3,0,0,15.45,0.04,27,0,0,0
4481,59048885,3,0,0,15.45,0.04,27,0,0,0
4893,59153939,3,0,0,15.45,0.04,27,0,0,0
5349,59266295,3,0,0,15.45,0.04,27,0,0,0
5759,59367721,3,0,0,15.45,0.04,27,0,0,0
6176,59470706,3,0,0,15.45,0.04,27,0,0,0
6590,59578483,3,0,0,15.45,0.04,27,0,0,0
7043,59693017,3,0,0,15.45,0.04,27,0,0,0
7456,59794169,3,0,0,15.45,0.04,27,0,0,0
7870,59897591,3,0,0,15.45,0.04,28,0,0,0
8327,60010098,3,0,0,15.45,0.04,27,0,0,0
8774,60120263,3,0,0,15.45,0.04,27,0,0,0
9192,60224463,3,0,0,15.45,0.04,27,0,0,0
9607,60328300,3,0,0,15.44,0.04,27,0,0,0
10020,60430765,3,0,0,15.45,0.04,27,0,0,0
10467,60541847,3,0,0,15.45,0.04,27,0,0,0
10914,60654097,3,0,0,15.44,0.04,27,0,0,0
11219,60757365,3,0,0,15.45,0.04,27,0,0,0
11633,60860934,3,0,0,15.45,0.04,27,0,0,0
12058,60972527,3,0,0,15.45,0.04,27,0,0,0
12478,61077155,3,0,0,15.45,0.04,27,0,0,0
12896,61182243,3,0,0,15.45,0.04,27,0,0,0
13309,61286267,3,0,0,15.45,0.04,27,0,0,0
13765,61398709,3,0,0,15.45,0.04,27,0,0,0
14177,61500325,3,0,0,15.45,0.04,28,0,0,0
14633,61615692,3,0,0,15.45,0.04,27,0,0,0
15050,61719588,3,0,0,15.45,0.04,27,0,0,0
15468,61822007,3,0,0,15.45,0.04,27,0,0,0
15884,61922829,3,0,0,15.44,0.04,27,0,0,0
16338,62033609,3,0,0,15.45,0.04,28,0,0,0
16748,62133756,3,0,0,15.45,0.04,27,0,0,0
17205,62251001,3,0,0,15.45,0.04,27,0,0,0
17615,62353747,3,0,0,15.45,0.04,27,0,0,0
18039,62460916,3,0,0,15.45,0.04,27,0,0,0
18456,62562702,3,0,0,15.45,0.04,27,0,0,0
18868,62666886,3,0,0,15.45,0.04,27,0,0,0
19319,62778787,3,0,0,15.45,0.04,28,0,0,0
19733,62880105,3,0,0,15.45,0.04,27,0,0,0
20190,62996637,3,0,0,15.45,0.04,27,0,0,0
20606,63096355,3,0,0,15.45,0.04,28,0,0,0
21019,63200990,3,0,0,15.45,0.04,27,0,0,0
21473,63313405,3,0,0,15.45,0.04,27,0,0,0
21887,63418452,3,0,0,15.45,0.04,28,0,0,0
22300,63520611,3,0,0,15.45,0.04,28,0,0,0
23201,63742915,3,0,0,15.45,0.04,27,0,0,0
23578,63839164,3,0,0,15.45,0.04,28,0,0,0
24029,63945013,3,0,0,15.44,0.04,28,0,0,0
24445,64053648,3,0,0,15.45,0.04,28,0,0,0
24899,64164401,3,0,0,15.45,0.04,28,0,0,0
25344,64275349,3,0,0,15.45,0.04,28,0,0,0
25760,64376490,3,0,0,15.45,0.04,27,0,0,0
26174,64485054,3,0,0,15.45,0.04,27,0,0,0
26631,64597101,3,0,0,15.45,0.04,27,0,0,0
27038,64700939,3,0,0,15.45,0.04,27,0,0,0
27454,64810389,3,0,0,15.44,0.04,27,0,0,0
27873,64914872,3,0,0,15.45,0.04,27,0,0,0
28544,65133342,3,0,0,15.45,0.04,28,0,0,0
28957,65239433,3,0,0,15.45,0.04,27,0,0,0
29411,65351969,3,0,0,15.45,0.04,28,0,0,0
29788,65448996,3,0,0,15.45,0.04,27,0,0,0
30241,65560904,3,0,0,15.45,0.04,28,0,0,0
30695,65673958,3,0,0,15.45,0.04,27,0,0,0
31109,65773797,3,0,0,15.45,0.04,27,0,0,0
31532,65884537,3,0,0,15.45,0.04,27,0,0,0
31946,65985134,3,0,0,15.45,0.04,28,0,0,0
32363,66094536,3,0,0,15.45,0.04,27,0,0,0
32778,66198518,3,0,0,15.45,0.04,28,0,0,0
33228,66310502,3,0,0,15.45,0.04,28,0,0,0
33643,66418284,3,0,0,15.45,0.04,28,0,0,0
34056,66519016,3,0,0,15.45,0.04,28,0,0,0
34503,66629901,3,0,0,15.45,0.04,28,0,0,0
34959,66742716,3,0,0,15.45,0.04,28,0,0,0
35412,66854947,3,0,0,15.45,0.04,28,0,0,0
35828,66955700,3,0,0,15.45,0.04,28,0,0,0
36240,67061011,3,0,0,15.45,0.04,27,0,0,0
36656,67162364,3,0,0,15.45,0.04,28,0,0,0
37070,67270353,3,0,0,15.45,0.04,27,0,0,0
37526,67381870,3,0,0,15.45,0.04,28,0,0,0
37934,67483438,3,0,0,15.45,0.04,28,0,0,0
38388,67594529,3,0,0,15.44,0.04,28,0,0,0
38802,67702086,3,0,0,15.45,0.04,28,0,0,0
39217,67803322,3,0,0,15.45,0.04,28,0,0,0
39676,67917363,3,0,0,15.45,0.04,28,0,0,0
40503,68122267,3,0,0,15.45,0.04,28,0,0,0
40955,68236331,3,0,0,15.45,0.04,28,0,0,0
41370,68338121,3,0,0,15.45,0.04,27,0,0,0
41782,68442872,3,0,0,15.45,0.04,28,0,0,0
42235,68553415,3,0,0,15.45,0.04,27,0,0,0
42651,68659048,3,0,0,15.45,0.04,28,0,0,0
43067,68763013,3,0,0,15.45,0.04,28,0,0,0
43487,68870123,3,0,0,15.45,0.04,28,0,0,0
43941,68981029,3,0,0,15.44,0.04,28,0,0,0
44362,69088327,3,0,0,15.45,0.04,28,0,0,0
44778,69188438,3,0,0,15.45,0.04,27,0,0,0
45224,69295911,3,0,0,15.45,0.04,28,0,0,0
45719,69407170,3,0,0,15.45,0.04,27,0,0,0
46172,69510006,3,0,0,15.45,0.04,28,0,0,0
46624,69614347,3,0,0,15.45,0.04,28,0,0,0
47077,69718947,3,0,0,15.45,0.04,28,0,0,0
47576,69835887,3,0,0,15.45,0.04,28,0,0,0
48034,69939402,3,0,0,15.45,0.04,28,0,0,0
48493,70045903,3,0,0,15.45,0.04,28,0,0,0
48948,70148926,3,0,0,15.45,0.04,28,0,0,0
49438,70258930,3,0,0,15.45,0.04,28,0,0,0
49892,70362937,3,0,0,15.44,0.04,28,0,0,0
50344,70468399,3,0,0,15.45,0.04,28,0,0,0
50845,70582082,3,0,0,15.45,0.04,28,0,0,0
51294,70684785,3,0,0,15.45,0.04,28,0,0,0
51790,70796759,3,0,0,15.44,0.04,28,0,0,0
52213,70898476,3,0,0,15.45,0.04,28,0,0,0
52668,70999501,3,0,0,15.45,0.04,27,0,0,0
53161,71113380,3,0,0,15.45,0.03,28,0,0,0
53619,71220542,3,30,371,15.44,0.07000000000000001,28,0,0,0
54073,71323406,3,379,771,15.43,0.13,28,0,0,0
54524,71426302,3,775,1100,15.43,0.15,28,0,0,0
55508,71648130,3,1104,1228,15.44,0.11,28,0,0,0
55846,71749441,3,1228,1242,15.43,0.11,28,0,0,0
56311,71861893,3,1243,1257,15.44,0.11,28,0,0,0
56764,71963447,3,1257,1257,15.43,0.11,28,0,0,0
57220,72069338,3,1257,1257,15.43,0.09999999,28,0,0,0
57720,72180799,3,1257,1257,15.43,0.11,28,0,0,0
58175,72286000,3,1257,1257,15.44,0.11,28,0,0,0
58674,72400253,3,1257,1257,15.43,0.11,28,0,0,0
59127,72501376,3,1257,1257,15.44,0.11,28,0,0,0
59579,72605498,3,1257,1257,15.44,0.11,28,0,0,0
60077,72715797,3,1257,1257,15.44,0.11,28,0,0,0
60532,72820553,3,1257,1257,15.44,0.11,28,0,0,0
60986,72921993,3,1257,1257,15.43,0.11,28,0,0,0
61480,73034869,3,1257,1257,15.44,0.11,28,0,0,0
61930,73136305,3,1257,1257,15.43,0.11,28,0,0,0
62433,73253429,3,1257,1257,15.43,0.11,28,0,0,0
62888,73354384,3,1257,1257,15.43,0.11,28,0,0,0
63337,73457923,3,1257,1257,15.44,0.11,28,0,0,0
63761,73562029,3,1257,1257,15.43,0.11,28,0,0,0
64250,73673315,3,1257,1257,15.44,0.11,28,0,0,0
64709,73780382,3,1257,1257,15.43,0.11,28,0,0,0
65168,73889727,3,1257,1257,15.43,0.09999999,28,0,0,0
65662,74002875,3,1257,1257,15.44,0.11,28,0,0,0
66606,74222296,3,1257,1257,15.44,0.11,28,0,0,0
67066,74327551,3,1257,1257,15.44,0.11,28,0,0,0
67515,74431258,3,1257,1257,15.43,0.11,28,0,0,0
68018,74546478,3,1257,1257,15.43,0.11,28,0,0,0
68465,74652919,3,1257,1257,15.43,0.11,28,0,0,0
68918,74755424,3,1257,1257,15.44,0.11,28,0,0,0
69374,74864794,3,1257,1257,15.44,0.11,28,0,0,0
69872,74978130,3,1257,1257,15.44,0.11,28,0,0,0
70319,75081774,3,1257,1257,15.44,0.11,28,0,0,0
70815,75195672,3,1257,1257,15.43,0.11,28,0,0,0
71770,75418355,3,1257,1257,15.43,0.09999999,28,0,0,0
72179,75509567,3,1257,1257,15.43,0.09999999,28,0,0,0
73167,75738715,3,1257,1257,15.44,0.11,28,0,0,0
73617,75841030,3,1260,1300,15.42,0.15,28,0,0,0
74072,75944489,3,1305,1614,15.27,0.36,28,0,0,0
74567,76062036,3,1657,2128,15.38,0.63,28,0,0,0
75020,76163789,3,2140,2328,15.39,0.4,28,0,0,0
75472,76272256,3,2325,2285,15.43,0.32,28,0,0,0
76418,76492780,3,2300,2942,15.2,1.55,28,0,0,0
76878,76603384,3,2975,3628,15.16,1.92,28,0,0,0
77331,76715284,3,3666,4385,14.91,2.42,28,0,0,0
77832,76831406,3,4432,4900,14.89,2.72,28,0,0,0
78285,76936020,3,4945,5400,14.86,3.37,28,0,0,0
79185,77153970,3,5412,5800,14.78,3.12,28,1,0,0
80063,77370711,3,5796,5614,14.75,2.91,28,1,0,0
80550,77484000,3,5616,5642,14.77,2.95,28,1,0,0
81002,77588517,3,5647,5728,14.82,2.76,28,1,0,0
81458,77699356,3,5689,5114,14.82,1.91,28,1,0,0
81910,77810508,3,5108,5042,14.8,1.86,28,1,0,0
82819,78029155,3,5037,4828,14.85,2.01,28,1,0,0
83271,78136094,3,4830,4928,14.8,2.19,28,1,0,0
83759,78252299,3,4962,5285,14.83,3.1,28,1,0,0
84213,78359120,3,5289,5371,14.82,2.94,28,1,0,0
84677,78478178,3,5389,5571,14.77,3.31,28,1,0,0
85128,78581795,3,5584,5871,14.82,3.17,28,2,0,0
85539,78683983,3,5858,5642,14.85,3.21,28,2,0,0
86036,78798129,3,5651,5757,14.71,3.31,28,2,0,0
86412,78897746,3,5757,5785,14.72,3.57,28,2,0,0
86904,79016884,3,5797,5900,14.76,3.32,28,2,0,0
87350,79126335,3,5892,5785,14.71,3.18,28,2,0,0
87791,79234340,3,5782,5757,14.72,3.27,28,2,0,0
89138,79562990,3,5738,5142,14.91,2.12,28,2,0,0
89539,79662935,3,5116,4885,14.92,1.87,28,2,0,0
90886,79992803,3,4886,4928,14.89,2.26,28,3,0,0
91288,80093946,3,4932,5014,14.87,2.44,28,3,0,0
91738,80209695,3,5018,5057,14.94,2.06,28,3,0,0
92185,80316291,3,5036,4828,14.99,1.55,28,3,0,0
92623,80420568,3,4804,4528,14.99,1.54,28,3,0,0
93513,80636667,3,4526,4485,14.94,2.25,29,3,0,0
93964,80745256,3,4516,5142,14.9,2.93,28,3,0,0
94417,80860640,3,5147,5228,14.91,2.79,28,3,0,0
94863,80967283,3,5250,5457,14.79,2.65,28,3,0,0
95304,81073902,3,5442,5300,14.83,2.44,28,3,0,0
95751,81181389,3,5285,5085,14.82,1.88,28,3,0,0
96609,81395358,3,5078,4771,14.89,1.49,28,4,0,0
97502,81621897,3,4775,4885,14.92,2.19,29,4,0,0
97907,81719996,3,4885,4900,14.91,1.85,28,4,0,0
98397,81838756,3,4890,4742,14.97,1.44,29,4,0,0
98845,81945963,3,4740,4714,14.98,1.62,28,4,0,0
99251,82050951,3,4716,4757,14.91,2.16,29,4,0,0
99700,82160273,3,4755,4714,15.01,1.43,29,4,0,0
100181,82274255,3,4714,4714,14.98,1.84,29,4,0,0
100589,82373947,3,4726,5014,14.93,2.5,29,4,0,0
100992,82478336,3,5019,5214,14.94,2.28,29,4,0,0
101447,82595340,3,5195,4971,14.87,2.35,29,4,0,0
101855,82698854,3,4984,5285,14.78,3.04,28,4,0,0
102750,82916036,3,5287,5400,14.79,3,29,4,0,0
103196,83027914,3,5400,5400,14.83,2.82,29,5,0,0
103645,83140310,3,5407,5514,14.83,2.69,29,5,0,0
104087,83246325,3,5502,5357,14.86,2.46,29,5,0,0
104533,83352387,3,5354,5300,14.84,2.42,29,5,0,0
104941,83457558,3,5298,5257,14.8,2.6,29,5,0,0
105388,83564481,3,5255,5200,14.86,2.27,29,5,0,0
105878,83681721,3,5210,5314,14.77,2.49,29,5,0,0
106286,83783362,3,5312,5271,14.83,2.68,29,5,0,0
106730,83892746,3,5266,5171,14.83,2.34,29,5,0,0
107181,84001900,3,5176,5271,14.82,2.47,29,5,0,0
107637,84117172,3,5272,5285,14.85,2.61,29,5,0,0
108083,84227256,3,5293,5385,14.81,2.78,29,5,0,0
108531,84333339,3,5371,5242,14.91,2.17,29,5,0,0
108975,84441933,3,5235,5157,14.86,2.09,29,6,0,0
109424,84552110,3,5157,5157,14.79,2.26,29,6,0,0
109837,84661138,3,5142,4942,14.97,1.85,29,6,0,0
110285,84767935,3,4930,4785,14.85,1.86,29,6,0,0
110731,84877920,3,4791,4871,14.84,2.39,29,6,0,0
111182,84986883,3,4879,5000,14.75,2.55,29,6,0,0
111587,85089738,3,5005,5314,14.76,2.77,29,6,0,0
112078,85210669,3,5312,5300,14.74,2.78,29,6,0,0
112518,85312549,3,5307,5442,14.75,2.84,29,6,0,0
112971,85430001,3,5454,5585,14.82,2.69,29,6,0,0
113420,85537537,3,5578,5485,14.72,2.56,29,6,0,0
113795,85639996,3,5483,5414,14.76,2.65,29,6,0,0
114289,85756361,3,5409,5357,14.77,2.58,29,6,0,0
114695,85859518,3,5363,5500,14.8,2.88,29,7,0,0
115146,85968092,3,5493,5357,14.86,2.48,29,7,0,0
115588,86076323,3,5357,5357,14.83,2.35,29,7,0,0
116084,86196292,3,5341,5114,14.83,1.9,29,7,0,0
116523,86305316,3,5109,5042,14.83,2.36,29,7,0,0
116972,86414287,3,5045,5085,14.83,2.12,29,7,0,0
117414,86525114,3,5088,5128,14.83,2.19,29,7,0,0
117859,86636524,3,5121,5071,14.83,2.09,29,7,0,0
118273,86739554,3,5069,4942,14.85,1.86,29,7,0,0
118716,86845308,3,4942,4942,14.83,1.94,29,7,0,0
119210,86964035,3,4933,4814,14.79,2.2,29,7,0,0
119615,87067257,3,4828,4957,14.85,1.98,29,7,0,0
120061,87172975,3,4943,4814,14.89,1.93,29,7,0,0
120514,87287135,3,4828,4971,14.8,2.45,29,7,0,0
120921,87387352,3,4965,4900,14.76,1.92,29,7,0,0
121370,87497970,3,4904,4971,14.73,2.38,29,7,0,0
121776,87598605,3,4971,5000,14.77,2.23,29,8,0,0
122254,87712737,3,5003,5071,14.8,2.59,29,8,0,0
122710,87827174,3,5093,5328,14.69,3.1,29,8,0,0
122967,87932367,3,5336,5414,14.73,2.77,29,8,0,0
123856,88147318,3,5409,5314,14.8,2.24,29,8,0,0
124303,88258356,3,5308,5242,14.63,2.96,29,8,0,0
124710,88357257,3,5249,5571,14.7,3.23,29,8,0,0
125195,88475942,3,5578,5657,14.69,3.19,29,8,0,0
125641,88582339,3,5657,5657,14.71,3.22,29,8,0,0
126091,88692354,3,5651,5600,14.75,2.8,29,8,0,0
126531,88800562,3,5572,5285,14.83,2.02,29,8,0,0
126988,88913011,3,5269,5114,14.72,2.41,29,9,0,0
127392,89010100,3,5115,5185,14.79,2.32,29,9,0,0
127878,89130917,3,5174,5071,14.75,2.14,29,9,0,0
128279,89229753,3,5072,5100,14.72,2.29,29,9,0,0
128731,89340269,3,5100,5114,14.75,2.4,29,9,0,0
129177,89451546,3,5114,5128,14.73,2.04,29,9,0,0
129666,89568957,3,5133,5185,14.75,2.47,29,9,0,0
130069,89669306,3,5183,5157,14.76,2.34,29,9,0,0
130562,89787677,3,5161,5214,14.77,2.57,29,9,0,0
130964,89888288,3,5214,5228,14.76,2.71,29,9,0,0
131419,90001162,3,5228,5228,14.8,2.45,29,9,0,0
132266,90212378,3,5225,4871,14.78,2.01,29,9,0,0
132719,90322764,3,4901,5314,14.6,3.33,29,10,0,0
133130,90429902,3,5327,5600,14.66,3.33,29,10,0,0
133622,90550138,3,5606,5657,14.76,2.78,29,10,0,0
134025,90646536,3,5650,5371,14.76,2.63,29,10,0,0
134476,90758782,3,5368,5314,14.85,2.53,29,10,0,0
135377,90979065,3,5302,4985,14.83,1.85,29,10,0,0
135817,91088245,3,4973,4728,14.88,1.48,29,10,0,0
136719,91308367,3,4733,4857,14.8,2.04,29,10,0,0
137167,91421249,3,4883,5057,14.73,2.15,29,10,0,0
137579,91524169,3,5049,4971,14.79,2.05,29,10,0,0
138032,91639731,3,4963,4885,14.82,2.12,29,10,0,0
138438,91740015,3,4898,5057,14.73,2.65,29,10,0,0
138889,91853111,3,5081,5357,14.76,3.09,29,11,0,0
140230,92176370,3,5360,5600,14.75,3.12,29,11,0,0
140679,92289558,3,5580,5385,14.7,2.64,29,11,0,0
141128,92395761,3,5386,5414,14.71,2.62,29,11,0,0
141528,92497721,3,5412,5285,14.71,2.49,29,11,0,0
142457,92723759,3,5281,5214,14.72,2.29,29,11,0,0
142862,92827615,3,5206,4900,14.7,1.85,29,11,0,0
143316,92938011,3,4904,5085,14.64,2.6,29,11,0,0
143770,93054009,3,5092,5200,14.61,2.75,29,11,0,0
144218,93159934,3,5202,5342,14.67,2.93,29,11,0,0
144662,93270502,3,5349,5514,14.72,3.01,29,12,0,0
145156,93390261,3,5515,5528,14.66,3.23,29,12,0,0
145521,93483892,3,5524,5357,14.74,2.37,29,12,0,0
146011,93600400,3,5363,5428,14.71,2.75,29,12,0,0
146462,93721357,3,5452,5600,14.7,3.24,29,12,0,0
146909,93829753,3,5610,5714,14.73,3.35,29,12,0,0
147351,93931894,3,5704,5600,14.72,2.99,29,12,0,0
147758,94031982,3,5602,5714,14.63,3.45,29,12,0,0
148249,94146517,3,5716,5757,14.67,3.4,29,12,0,0
148688,94260483,3,5755,5714,14.71,3.33,29,12,0,0
149144,94370432,3,5715,5728,14.66,3.42,29,13,0,0
149585,94480663,3,5730,5800,14.63,3.62,29,13,0,0
150037,94590540,3,5803,5828,14.71,3.14,29,13,0,0
150481,94697732,3,5819,5742,14.68,3.47,29,13,0,0
150928,94809024,3,5737,5700,14.75,2.99,29,13,0,0
151335,94910473,3,5701,5742,14.79,2.96,29,13,0,0
151778,95018793,3,5736,5457,14.76,3.03,29,13,0,0
152233,95131287,3,5469,5585,14.77,2.87,29,13,0,0
152679,95242154,3,5582,5557,14.74,2.95,29,13,0,0
153572,95462220,3,5561,5685,14.64,3.01,29,13,0,0
154023,95573425,3,5670,5528,14.72,3.06,29,14,0,0
154431,95677161,3,5534,5614,14.76,2.82,29,14,0,0
155285,95888947,3,5611,5428,14.69,2.77,29,14,0,0
155782,96008383,3,5415,5285,14.7,2.5,29,14,0,0
156179,96108270,3,5286,5342,14.66,2.57,29,14,0,0
157113,96335319,3,5328,5042,14.64,2.44,29,14,0,0
157553,96442795,3,5049,5142,14.74,2.48,29,14,0,0
158002,96551171,3,5142,5142,14.67,2.72,29,14,0,0
158405,96650783,3,5155,5428,14.65,3.05,29,14,0,0
158898,96767269,3,5442,5600,14.58,3.44,29,14,0,0
159350,96879659,3,5613,5728,14.62,3.04,29,15,0,0
159761,96979145,3,5733,5814,14.63,3.71,29,15,0,0
160208,97092261,3,5806,5700,14.62,3.05,29,15,0,0
160655,97199281,3,5695,5614,14.64,2.84,29,15,0,0
161101,97309161,3,5612,5600,14.76,2.72,29,15,0,0
161544,97417360,3,5573,5285,14.79,2.26,29,15,0,0
161991,97525399,3,5292,5385,14.68,3.19,29,15,0,0
162445,97637769,3,5414,5685,14.71,3.04,29,15,0,0
162848,97736263,3,5680,5428,14.71,2.62,29,15,0,0
163289,97844406,3,5431,5485,14.8,2.83,29,15,0,0
163744,97954880,3,5470,5257,14.76,2.29,29,15,0,0
164147,98058115,3,5257,5271,14.69,2.58,29,16,0,0
164599,98167144,3,5271,5285,14.71,2.83,29,16,0,0
165497,98385531,3,5282,5157,14.72,2.33,29,16,0,0
165942,98495377,3,5153,5057,14.79,2.14,29,16,0,0
166426,98610414,3,5061,5100,14.76,2.24,29,16,0,0
166872,98714920,3,5102,5128,14.62,2.53,29,16,0,0
167322,98828043,3,5133,5214,14.72,2.62,29,16,0,0
167730,98926153,3,5220,5300,14.74,2.59,29,16,0,0
168174,99035104,3,5294,5157,14.69,2.48,29,16,0,0
168624,99142056,3,5157,5214,14.66,2.53,29,16,0,0
169068,99252024,3,5215,5300,14.77,2.59,29,16,0,0
169560,99367178,3,5296,5257,14.67,2.77,30,16,0,0
169964,99470700,3,5270,5457,14.74,2.73,29,17,0,0
170456,99587757,3,5433,5185,14.67,2.56,30,17,0,0
170858,99690463,3,5185,5214,14.69,2.55,29,17,0,0
171304,99797031,3,5218,5328,14.66,2.62,30,17,0,0
171752,99908278,3,5324,5242,14.69,2.4,30,17,0,0
172207,100019925,3,5245,5314,14.69,2.43,29,17,0,0
172658,100132175,3,5307,5157,14.67,2.37,29,17,0,0
173133,100245906,3,5154,5142,14.73,2.31,29,17,0,0
173547,100346123,3,5141,5128,14.63,2.37,29,17,0,0
173990,100454096,3,5128,5142,14.75,2.51,29,17,0,0
174437,100561742,3,5142,5171,14.63,2.42,29,17,0,0
174882,100675791,3,5190,5357,14.61,2.57,29,17,0,0
175330,100779921,3,5354,5285,14.69,2.54,29,17,0,0
175776,100890755,3,5285,5285,14.68,2.41,29,17,0,0
176231,101000317,3,5271,5157,14.72,2.4,29,18,0,0
176628,101099088,3,5157,5185,14.7,2.42,30,18,0,0
177117,101217545,3,5177,5085,14.69,2.54,30,18,0,0
177522,101319944,3,5085,5128,14.67,2.47,29,18,0,0
178012,101437891,3,5134,5200,14.7,2.55,29,18,0,0
178420,101539956,3,5200,5200,14.67,2.3,29,18,0,0
178906,101658362,3,5200,5200,14.59,2.69,29,18,0,0
179382,101767963,3,5200,5200,14.57,2.33,29,18,0,0
179798,101876500,3,5215,5357,14.68,2.88,29,18,0,0
180284,101992901,3,5357,5357,14.7,2.63,30,18,0,0
180688,102093946,3,5352,5242,14.72,2.21,30,18,0,0
181172,102204322,3,5225,5014,14.75,1.96,30,18,0,0
181621,102318142,3,5010,4971,14.74,2.12,30,18,0,0
182067,102430946,3,4971,4971,14.69,2.21,30,18,0,0
182475,102532964,3,4970,4957,14.76,2.2,29,19,0,0
182924,102645985,3,4959,4985,14.67,2.25,29,19,0,0
183377,102756933,3,4998,5128,14.72,2.38,29,19,0,0
183739,102853286,3,5129,5200,14.7,2.63,30,19,0,0
184191,102962800,3,5205,5328,14.7,2.5,30,19,0,0
184639,103074488,3,5326,5214,14.73,2.74,29,19,0,0
185088,103182680,3,5220,5371,14.61,2.62,30,19,0,0
185536,103296262,3,5357,5228,14.7,2.1,29,19,0,0
185984,103402902,3,5220,5114,14.67,2.23,29,19,0,0
186431,103516381,3,5111,5085,14.68,2.24,30,19,0,0
186877,103626763,3,5099,5200,14.72,2.45,29,19,0,0
187288,103731277,3,5202,5242,14.7,2.57,30,19,0,0
187730,103839790,3,5243,5285,14.71,2.71,30,19,0,0
188226,103958807,3,5289,5342,14.72,2.41,30,20,0,0
188626,104057302,3,5340,5271,14.69,2.57,30,20,0,0
189124,104180375,3,5268,5242,14.76,2.66,30,20,0,0
189566,104288996,3,5243,5257,14.77,2.36,30,20,0,0
190012,104395798,3,5249,5100,14.74,2.1,30,20,0,0
190422,104501542,3,5101,5185,14.7,2.83,30,20,0,0
191316,104720927,3,5190,5428,14.66,2.57,29,20,0,0
192168,104934249,3,5430,5600,14.54,3.26,30,20,0,0
192655,105052787,3,5597,5571,14.66,2.71,30,20,0,0
193102,105160317,3,5562,5357,14.57,2.45,30,20,0,0
193587,105274534,3,5338,5157,14.66,2.25,30,21,0,0
194037,105382754,3,5152,5085,14.67,2.13,29,21,0,0
194444,105486393,3,5072,4914,14.6,2.22,30,21,0,0
195337,105703334,3,4926,5271,14.63,2.59,30,21,0,0
195783,105816000,3,5265,5214,14.69,2.44,29,21,0,0
196189,105917924,3,5214,5257,14.62,2.7,30,21,0,0
196639,106028921,3,5248,5128,14.7,2.48,30,21,0,0
197134,106146885,3,5129,5142,14.69,2.47,30,21,0,0
197537,106249934,3,5136,5000,14.72,2.12,29,21,0,0
197987,106357977,3,4999,4971,14.74,1.87,30,21,0,0
198472,106477985,3,4969,4957,14.72,2.28,30,21,0,0
198882,106579736,3,4952,4914,14.76,1.92,30,21,0,0
199319,106685009,3,4910,4828,14.77,1.77,30,21,0,0
199764,106790528,3,4822,4714,14.72,1.83,30,21,0,0
200218,106907352,3,4723,4800,14.72,2.09,30,21,0,0
200666,107021063,3,4806,4857,14.73,1.98,29,22,0,0
201072,107117877,3,4853,4657,14.58,1.94,30,22,0,0
201514,107227927,3,4659,4842,14.73,1.85,29,22,0,0
202000,107341951,3,4833,4714,14.71,1.64,30,22,0,0
202444,107452983,3,4707,4642,14.69,1.73,29,22,0,0
202891,107558776,3,4650,4771,14.68,1.92,30,22,0,0
203338,107670493,3,4771,4771,14.7,1.8,30,22,0,0
204184,107878298,3,4772,4828,14.75,2.01,30,22,0,0
204636,107988923,3,4828,4842,14.72,2,30,22,0,0
205085,108100288,3,4844,4885,14.7,2.04,30,22,0,0
205535,108211931,3,4881,4842,14.8,1.61,29,22,0,0
205978,108326377,3,4818,4685,14.72,1.61,30,22,0,0
206864,108540867,3,4691,4800,14.63,1.99,29,22,0,0
207309,108649380,3,4803,4871,14.7,2.27,29,22,0,0
207760,108756304,3,4877,4957,14.72,2.09,29,23,0,0
208201,108872120,3,4965,5042,14.72,2.26,29,23,0,0
208609,108970272,3,5043,5128,14.67,2.49,30,23,0,0
209505,109191256,3,5112,4828,14.72,2.11,29,23,0,0
209917,109300798,3,4846,5071,14.64,2.69,29,23,0,0
210361,109410918,3,5066,5014,14.7,2.04,29,23,0,0
210810,109520271,3,4998,4857,14.62,1.98,30,23,0,0
211696,109733534,3,4859,5257,14.64,2.85,29,23,0,0
212176,109850167,3,5257,5257,14.63,2.51,30,23,0,0
212585,109949739,3,5259,5300,14.69,2.28,30,23,0,0
213035,110059527,3,5278,5042,14.66,2.25,29,23,0,0
213890,110278401,3,5042,5042,14.66,2.31,30,23,0,0
214299,110379505,3,5035,4971,14.69,2.23,30,24,0,0
214708,110484395,3,4971,5028,14.69,2.21,29,24,0,0
215195,110599911,3,5024,5000,14.56,2.58,30,24,0,0
216045,110809407,3,5005,5514,14.6,3.12,30,24,0,0
216491,110923327,3,5505,5414,14.65,2.8,30,24,0,0
217391,111145523,3,5411,5314,14.64,2.94,30,24,0,0
217829,111251716,3,5303,5142,14.76,2.25,29,24,0,0
218280,111362744,3,5145,5185,14.67,2.49,30,24,0,0
218729,111475134,3,5185,5185,14.69,2.39,30,24,0,0
219179,111583358,3,5185,5185,14.69,2.15,30,24,0,0
219622,111690276,3,5180,5114,14.73,2.55,30,25,0,0
220070,111795982,3,5114,5157,14.67,2.49,30,25,0,0
220518,111909977,3,5171,5300,14.66,2.82,30,25,0,0
220923,112009384,3,5294,5185,14.71,2.32,30,25,0,0
221403,112117347,3,5182,5085,14.72,2.11,29,25,0,0
221849,112230130,3,5082,5057,14.72,2.31,30,25,0,0
222298,112339489,3,5039,4785,14.61,1.62,30,25,0,0
222742,112449996,3,4807,5042,14.67,2.59,30,25,0,0
223185,112554010,3,5046,5100,14.52,2.59,29,25,0,0
223588,112655023,3,5102,5257,14.59,2.59,30,25,0,0
224473,112872001,3,5258,5414,14.62,2.73,29,25,0,0
225818,113207021,3,5413,5385,14.61,2.81,29,26,0,0
226228,113310583,3,5385,5385,14.6,2.75,30,26,0,0
226672,113420992,3,5391,5471,14.65,2.59,29,26,0,0
227122,113530336,3,5462,5342,14.64,2.41,30,26,0,0
227525,113633749,3,5338,5271,14.67,2.44,30,26,0,0
227978,113747977,3,5269,5257,14.69,2.48,29,26,0,0
228414,113849018,3,5254,5214,14.69,2.43,29,26,0,0
228863,113957256,3,5213,5200,14.69,2.4,29,26,0,0
229319,114074237,3,5183,5014,14.76,1.74,30,26,0,0
229764,114180357,3,5010,4957,14.72,2.69,29,26,0,0
230204,114287406,3,4964,5128,14.66,2.6,30,26,0,0
230654,114396737,3,5139,5314,14.7,2.63,29,26,0,0
231059,114499126,3,5313,5257,14.75,2.65,30,26,0,0
231997,114725295,3,5252,5157,14.72,2.48,30,27,0,0
232396,114830911,3,5166,5285,14.69,2.41,29,27,0,0
232855,114941695,3,5274,5171,14.69,2.66,30,27,0,0
233252,115038927,3,5173,5271,14.66,2.57,30,27,0,0
233699,115149128,3,5274,5414,14.72,2.59,29,27,0,0
234149,115263789,3,5409,5328,14.73,2.18,30,27,0,0
234605,115374782,3,5324,5271,14.74,2.76,30,27,0,0
235048,115480993,3,5283,5457,14.63,2.74,29,27,0,0
235495,115589868,3,5463,5600,14.63,2.92,29,27,0,0
235936,115697702,3,5598,5571,14.55,3,30,27,0,0
236383,115810948,3,5577,5742,14.62,3.28,30,27,0,0
236869,115923329,3,5746,5785,14.68,3.23,29,28,0,0
237281,116027086,3,5764,5471,14.74,2.12,29,28,0,0
237684,116125956,3,5466,5371,14.72,2.55,30,28,0,0
238621,116356240,3,5374,5442,14.81,2.43,30,28,0,0
239062,116463757,3,5426,5257,14.73,2.22,29,28,0,0
239467,116564004,3,5254,5114,14.8,1.97,30,28,0,0
239910,116676509,3,5095,4928,14.72,1.69,30,28,0,0
240357,116784981,3,4925,4900,14.77,2.02,30,28,0,0
240795,116888081,3,4902,4957,14.76,2.05,30,28,0,0
241243,116994271,3,4957,4985,14.74,2.44,30,28,0,0
241690,117104782,3,4983,4942,14.67,1.77,30,28,0,0
242137,117218000,3,4938,4657,14.72,1.44,30,28,0,0
242588,117328124,3,4650,4585,14.75,1.41,30,28,0,0
243029,117435793,3,4560,4242,14.73,1.19,30,28,0,0
243473,117541621,3,4256,4557,14.7,1.65,30,28,0,0
243879,117646106,3,4558,4642,14.66,1.5,30,29,0,0
244406,117766533,3,4659,4842,14.67,1.53,30,29,0,0
245256,117973961,3,4844,5042,14.73,1.87,30,29,0,0
245706,118087607,3,5056,5257,14.7,2.03,30,29,0,0
246155,118201118,3,5269,5371,14.69,2.06,30,29,0,0
246557,118299110,3,5371,5371,14.69,2.24,30,29,0,0
247045,118420241,3,5363,5300,14.68,2.35,30,29,0,0
247888,118626545,3,5304,5500,14.63,2.4,29,29,0,0
248336,118739336,3,5488,5342,14.7,2.27,30,29,0,0
248783,118853299,3,5340,5328,14.69,2.07,30,29,0,0
249234,118958328,3,5320,5185,14.66,2.25,29,29,0,0
249718,119076395,3,5178,5128,14.66,1.92,29,29,0,0
250573,119286358,3,5123,4885,14.62,1.9,30,30,0,0
251055,119397004,3,4886,4914,14.61,2.02,30,30,0,0
251502,119510779,3,4915,4928,14.67,2.23,29,30,0,0
251946,119617867,3,4930,4957,14.56,2.43,29,30,0,0
252351,119720344,3,4958,5071,14.64,2.32,30,30,0,0
252795,119828989,3,5068,5000,14.69,2.1,29,30,0,0
253729,120053407,3,5005,5242,14.6,2.79,29,30,0,0
254134,120153278,3,5241,5228,14.66,2.38,30,30,0,0
254583,120265920,3,5222,5028,14.6,2.45,30,30,0,0
255036,120377370,3,5030,5214,14.61,2.62,29,30,0,0
255482,120487479,3,5215,5285,14.61,2.79,30,30,0,0
255971,120604500,3,5286,5300,14.63,2.85,30,30,0,0
256367,120703339,3,5303,5442,14.59,2.95,29,30,0,0
256819,120817879,3,5454,5585,14.6,3.02,30,31,0,0
257271,120928402,3,5585,5585,14.61,3.13,29,31,0,0
258164,121147322,3,5579,5471,14.72,2.54,29,31,0,0
258602,121252143,3,5455,5257,14.71,2.4,29,31,0,0
259049,121358924,3,5257,5257,14.74,2.46,29,31,0,0
259943,121578146,3,5258,5442,14.67,2.66,30,31,0,0
260384,121688365,3,5433,5314,14.72,2.53,30,31,0,0
260790,121789122,3,5314,5314,14.69,2.73,30,31,0,0
261284,121909164,3,5311,5285,14.74,2.37,29,31,0,0
262176,122122753,3,5279,5128,14.71,2.03,30,31,0,0
262620,122232529,3,5128,5128,14.65,2.55,30,32,0,0
263068,122340781,3,5130,5171,14.66,2.28,29,32,0,0
263468,122441606,3,5171,5200,14.6,2.47,30,32,0,0
263923,122553805,3,5202,5257,14.69,2.75,30,32,0,0
264366,122663727,3,5270,5457,14.6,3.07,30,32,0,0
264814,122772060,3,5457,5471,14.62,2.77,30,32,0,0
265258,122882133,3,5472,5500,14.65,2.78,29,32,0,0
265705,122988257,3,5498,5471,14.65,2.78,30,32,0,0
266598,123204929,3,5470,5385,14.64,2.89,29,32,0,0
267048,123317362,3,5394,5614,14.62,3.29,30,32,0,0
267494,123430022,3,5610,5528,14.58,2.79,30,33,0,0
267985,123544009,3,5536,5628,14.53,3.06,29,33,0,0
268428,123655469,3,5623,5557,14.55,3.15,30,33,0,0
268831,123754932,3,5555,5528,14.56,2.71,29,33,0,0
269247,123865385,3,5525,5471,14.58,2.92,30,33,0,0
269733,123977555,3,5464,5371,14.61,2.54,29,33,0,0
270180,124087965,3,5376,5428,14.54,2.87,29,33,0,0
270627,124202542,3,5435,5485,14.58,2.68,30,33,0,0
271028,124299322,3,5482,5328,14.66,2.55,29,33,0,0
271918,124515092,3,5326,5200,14.68,2.38,29,33,0,0
272402,124632919,3,5210,5300,14.72,3.02,30,33,0,0
272854,124738804,3,5315,5557,14.7,2.98,30,34,0,0
273257,124842006,3,5557,5614,14.73,3.01,30,34,0,0
273708,124951016,3,5613,5600,14.7,3.17,30,34,0,0
274150,125062941,3,5598,5571,14.64,3.18,29,34,0,0
274601,125172961,3,5571,5571,14.68,2.93,30,34,0,0
275043,125281142,3,5569,5471,14.69,2.83,30,34,0,0
275936,125501803,3,5471,5542,14.67,3,30,34,0,0
276867,125727522,3,5525,5257,14.63,2.4,30,34,0,0
277265,125826367,3,5251,5028,14.65,2.17,30,34,0,0
278118,126036715,3,5029,5128,14.58,2.44,30,35,0,0
278614,126157750,3,5140,5314,14.59,3.12,30,35,0,0
279011,126256019,3,5319,5414,14.54,3.19,30,35,0,0
279504,126372969,3,5422,5542,14.52,3.13,30,35,0,0
279915,126481890,3,5556,5742,14.54,3.31,30,35,0,0
280363,126590271,3,5747,5814,14.5,3.34,30,35,0,0
281245,126806014,3,5802,5542,14.55,2.89,30,35,0,0
282135,127021347,3,5512,5128,14.61,2.47,30,35,0,0
282540,127119830,3,5131,5242,14.63,2.35,30,35,0,0
282988,127233281,3,5236,5114,14.66,2.15,30,36,0,0
283433,127338955,3,5114,5128,14.6,2.52,30,36,0,0
283883,127452404,3,5133,5242,14.66,2.82,30,36,0,0
284331,127560870,3,5246,5328,14.66,2.73,30,36,0,0
284777,127674202,3,5329,5357,14.6,2.71,30,36,0,0
285267,127788344,3,5351,5285,14.69,2.33,30,36,0,0
285670,127889870,3,5279,5171,14.64,2.38,30,36,0,0
286122,127999101,3,5168,5128,14.6,2.45,30,36,0,0
286566,128107248,3,5128,5128,14.68,2.61,30,36,0,0
286971,128212785,3,5129,5257,14.64,2.69,30,36,0,0
287461,128329048,3,5260,5328,14.61,2.62,30,36,0,0
287874,128435576,3,5328,5328,14.64,2.82,30,36,0,0
288320,128541724,3,5330,5471,14.63,2.82,30,36,0,0
288758,128648100,3,5471,5471,14.57,2.77,30,37,0,0
289209,128758256,3,5466,5400,14.61,2.71,30,37,0,0
289653,128867127,3,5400,5400,14.58,2.77,30,37,0,0
290106,128976583,3,5398,5371,14.67,3.01,30,37,0,0
290555,129086142,3,5374,5414,14.67,2.72,30,37,0,0
291004,129196516,3,5420,5485,14.57,2.84,30,37,0,0
291401,129296886,3,5487,5600,14.63,3.17,30,37,0,0
292288,129510890,3,5595,5414,14.7,2.64,30,37,0,0
292739,129624358,3,5416,5457,14.69,2.69,30,37,0,0
293187,129732401,3,5452,5385,14.72,2.51,30,37,0,0
293580,129831108,3,5387,5428,14.7,2.66,30,37,0,0
294033,129939168,3,5412,5071,14.71,2.19,30,38,0,0
294486,130052732,3,5064,5000,15.24,1.19,30,38,0,0
294932,130158830,3,4874,3642,14.94,1.58,30,38,0,0
295331,130260956,3,3625,2600,15.13,0.08,30,38,0,0
295826,130377271,3,2560,2185,15.11,0.07000000000000001,30,38,0,0
296224,130477361,3,2174,1971,15.08,0.19,30,38,0,0
296676,130586251,3,1975,2071,15.1,0.31,30,38,0,0
297572,130816341,3,2071,2071,15.09,0.24,30,38,0,0
298426,131029123,3,2068,2014,15.09,0.26,30,38,0,0
299004,131243099,3,2028,2042,15.1,0.23,30,38,0,0
299452,131350106,3,2041,2000,15.11,0.21,30,38,0,0
299893,131453793,3,2000,2000,15.11,0.19,30,38,0,0
300347,131564563,3,2000,2000,15.1,0.24,30,38,0,0
300791,131674507,3,2000,2000,15.11,0.24,30,38,0,0
301242,131784031,3,2000,2014,15.11,0.19,30,38,0,0
301648,131884974,3,2013,1957,15.13,0.19,30,38,0,0
302137,131999568,3,1935,1728,15.18,0.02,30,38,0,0
302582,132106003,3,1696,1400,15.17,0.01,30,38,0,0
303068,132222545,3,1387,1271,15.16,0.08,30,38,0,0
303472,132318963,3,1269,1242,15.16,0.09999999,30,38,0,0
304364,132535146,3,1241,1228,15.16,0.09999999,29,38,0,0
304846,132654097,3,1229,1242,15.16,0.09999999,30,38,0,0
305294,132757331,3,1242,1242,15.16,0.09999999,29,38,0,0
305735,132867766,3,1240,1228,15.17,0.09999999,29,38,0,0
306186,132973033,3,1228,1242,15.17,0.09999999,30,38,0,0
306594,133075153,3,1242,1242,15.16,0.09999999,30,38,0,0
307086,133191337,3,1242,1242,15.17,0.09999999,30,38,0,0
307489,133290892,3,1242,1242,15.17,0.09999999,29,38,0,0
307939,133398602,3,1242,1242,15.17,0.09999999,29,38,0,0
308381,133506990,3,1212,542,15.2,0.01,29,38,0,0
308815,133616276,3,537,228,15.19,0.02,29,38,0,0
309270,133722707,3,224,0,15.19,0.04,29,38,0,0
310213,133945141,3,0,0,15.2,0.04,29,38,0,0
310667,134055547,3,0,0,15.2,0.04,29,38,0,0
311120,134159393,3,0,0,15.2,0.04,29,38,0,0
311570,134266977,3,0,0,15.2,0.04,29,38,0,0
312019,134370779,3,0,0,15.19,0.04,29,38,0,0
312515,134487744,3,0,0,15.2,0.04,29,38,0,0
312967,134597170,3,0,0,15.2,0.04,29,38,0,0
313416,134701794,3,0,0,15.2,0.04,29,38,0,0
313910,134817315,3,0,0,15.21,0.04,29,38,0,0
314323,134914324,3,0,0,15.2,0.04,29,38,0,0
314818,135031966,3,0,0,15.2,0.04,29,38,0,0
315269,135136723,3,0,0,15.21,0.04,29,38,0,0
315729,135248896,3,0,0,15.22,0.04,29,38,0,0
316182,135354083,3,0,0,15.22,0.04,29,38,0,0
316634,135463902,3,0,0,15.21,0.04,29,38,0,0
317128,135578635,3,0,0,15.21,0.04,29,38,0,0
317579,135686607,3,0,0,15.22,0.04,29,38,0,0
318030,135792530,3,0,0,15.22,0.04,29,38,0,0
318482,135900364,3,0,0,15.22,0.04,29,38,0,0
318979,136014751,3,0,0,15.22,0.04,29,38,0,0
319427,136119759,3,0,0,15.22,0.05,29,38,0,0
319874,136225083,3,0,0,15.23,0.04,29,38,0,0
320374,136342521,3,0,0,15.22,0.04,29,38,0,0
320496,136440777,3,0,0,15.22,0.04,29,38,0,0
320991,136554807,3,0,0,15.23,0.04,29,38,0,0
321434,136659429,3,0,0,15.23,0.04,29,38,0,0
321931,136775943,3,0,0,15.23,0.04,29,38,0,0
322875,136996068,3,0,0,15.23,0.04,29,38,0,0
324226,137315779,3,0,0,15.23,0.04,29,38,0,0
325131,137529956,3,0,0,15.23,0.04,29,38,0,0
325626,137645993,3,0,0,15.24,0.04,29,38,0,0
326077,137750082,3,0,0,15.24,0.04,29,38,0,0
326522,137853736,3,0,0,15.24,0.04,29,38,0,0
327018,137969395,3,0,0,15.23,0.04,29,38,0,0
327468,138077918,3,0,0,15.24,0.04,29,38,0,0
327919,138183717,3,0,0,15.25,0.04,29,38,0,0
328370,138291380,3,0,0,15.25,0.04,29,38,0,0
328872,138410759,3,0,0,15.24,0.04,29,38,0,0
329322,138519769,3,0,0,15.25,0.04,29,38,0,0
329768,138622536,3,0,0,15.24,0.04,29,38,0,0
330222,138729346,3,0,0,15.25,0.04,29,38,0,0
330676,138839081,3,0,0,15.25,0.04,29,38,0,0
331129,138945506,3,0,0,15.25,0.04,29,38,0,0
331623,139062713,3,0,0,15.25,0.04,29,38,0,0
