LineNo,TimeUS,Instance,RPM,RawRPM,Volt,Curr,Temp,CTot,MotTemp,Err
1904,5.8406e+07,3,0,0,15.45,0.04,27,0,0,0
2322,5.8508e+07,3,0,0,15.45,0.04,27,0,0,0
2740,5.8613e+07,3,0,0,15.45,0.04,27,0,0,0
3190,5.8725e+07,3,0,0,15.45,0.04,27,0,0,0
3604,5.8831e+07,3,0,0,15.44,0.04,27,0,0,0
4061,5.8944e+07,3,0,0,15.45,0.04,27,0,0,0
4481,5.9049e+07,3,0,0,15.45,0.04,27,0,0,0
4893,5.9154e+07,3,0,0,15.45,0.04,27,0,0,0
5349,5.9266e+07,3,0,0,15.45,0.04,27,0,0,0
5759,5.9368e+07,3,0,0,15.45,0.04,27,0,0,0
6176,5.9471e+07,3,0,0,15.45,0.04,27,0,0,0
6590,5.9578e+07,3,0,0,15.45,0.04,27,0,0,0
7043,5.9693e+07,3,0,0,15.45,0.04,27,0,0,0
7456,5.9794e+07,3,0,0,15.45,0.04,27,0,0,0
7870,5.9898e+07,3,0,0,15.45,0.04,28,0,0,0
8327,6.001e+07,3,0,0,15.45,0.04,27,0,0,0
8774,6.012e+07,3,0,0,15.45,0.04,27,0,0,0
9192,6.0224e+07,3,0,0,15.45,0.04,27,0,0,0
9607,6.0328e+07,3,0,0,15.44,0.04,27,0,0,0
10020,6.0431e+07,3,0,0,15.45,0.04,27,0,0,0
10467,6.0542e+07,3,0,0,15.45,0.04,27,0,0,0
10914,6.0654e+07,3,0,0,15.44,0.04,27,0,0,0
11219,6.0757e+07,3,0,0,15.45,0.04,27,0,0,0
11633,6.0861e+07,3,0,0,15.45,0.04,27,0,0,0
12058,6.0973e+07,3,0,0,15.45,0.04,27,0,0,0
12478,6.1077e+07,3,0,0,15.45,0.04,27,0,0,0
12896,6.1182e+07,3,0,0,15.45,0.04,27,0,0,0
13309,6.1286e+07,3,0,0,15.45,0.04,27,0,0,0
13765,6.1399e+07,3,0,0,15.45,0.04,27,0,0,0
14177,6.15e+07,3,0,0,15.45,0.04,28,0,0,0
14633,6.1616e+07,3,0,0,15.45,0.04,27,0,0,0
15050,6.172e+07,3,0,0,15.45,0.04,27,0,0,0
15468,6.1822e+07,3,0,0,15.45,0.04,27,0,0,0
15884,6.1923e+07,3,0,0,15.44,0.04,27,0,0,0
16338,6.2034e+07,3,0,0,15.45,0.04,28,0,0,0
16748,6.2134e+07,3,0,0,15.45,0.04,27,0,0,0
17205,6.2251e+07,3,0,0,15.45,0.04,27,0,0,0
17615,6.2354e+07,3,0,0,15.45,0.04,27,0,0,0
18039,6.2461e+07,3,0,0,15.45,0.04,27,0,0,0
18456,6.2563e+07,3,0,0,15.45,0.04,27,0,0,0
18868,6.2667e+07,3,0,0,15.45,0.04,27,0,0,0
19319,6.2779e+07,3,0,0,15.45,0.04,28,0,0,0
19733,6.288e+07,3,0,0,15.45,0.04,27,0,0,0
20190,6.2997e+07,3,0,0,15.45,0.04,27,0,0,0
20606,6.3096e+07,3,0,0,15.45,0.04,28,0,0,0
21019,6.3201e+07,3,0,0,15.45,0.04,27,0,0,0
21473,6.3313e+07,3,0,0,15.45,0.04,27,0,0,0
21887,6.3418e+07,3,0,0,15.45,0.04,28,0,0,0
22300,6.3521e+07,3,0,0,15.45,0.04,28,0,0,0
23201,6.3743e+07,3,0,0,15.45,0.04,27,0,0,0
23578,6.3839e+07,3,0,0,15.45,0.04,28,0,0,0
24029,6.3945e+07,3,0,0,15.44,0.04,28,0,0,0
24445,6.4054e+07,3,0,0,15.45,0.04,28,0,0,0
24899,6.4164e+07,3,0,0,15.45,0.04,28,0,0,0
25344,6.4275e+07,3,0,0,15.45,0.04,28,0,0,0
25760,6.4376e+07,3,0,0,15.45,0.04,27,0,0,0
26174,6.4485e+07,3,0,0,15.45,0.04,27,0,0,0
26631,6.4597e+07,3,0,0,15.45,0.04,27,0,0,0
27038,6.4701e+07,3,0,0,15.45,0.04,27,0,0,0
27454,6.481e+07,3,0,0,15.44,0.04,27,0,0,0
27873,6.4915e+07,3,0,0,15.45,0.04,27,0,0,0
28544,6.5133e+07,3,0,0,15.45,0.04,28,0,0,0
28957,6.5239e+07,3,0,0,15.45,0.04,27,0,0,0
29411,6.5352e+07,3,0,0,15.45,0.04,28,0,0,0
29788,6.5449e+07,3,0,0,15.45,0.04,27,0,0,0
30241,6.5561e+07,3,0,0,15.45,0.04,28,0,0,0
30695,6.5674e+07,3,0,0,15.45,0.04,27,0,0,0
31109,6.5774e+07,3,0,0,15.45,0.04,27,0,0,0
31532,6.5885e+07,3,0,0,15.45,0.04,27,0,0,0
31946,6.5985e+07,3,0,0,15.45,0.04,28,0,0,0
32363,6.6095e+07,3,0,0,15.45,0.04,27,0,0,0
32778,6.6199e+07,3,0,0,15.45,0.04,28,0,0,0
33228,6.6311e+07,3,0,0,15.45,0.04,28,0,0,0
33643,6.6418e+07,3,0,0,15.45,0.04,28,0,0,0
34056,6.6519e+07,3,0,0,15.45,0.04,28,0,0,0
34503,6.663e+07,3,0,0,15.45,0.04,28,0,0,0
34959,6.6743e+07,3,0,0,15.45,0.04,28,0,0,0
35412,6.6855e+07,3,0,0,15.45,0.04,28,0,0,0
35828,6.6956e+07,3,0,0,15.45,0.04,28,0,0,0
36240,6.7061e+07,3,0,0,15.45,0.04,27,0,0,0
36656,6.7162e+07,3,0,0,15.45,0.04,28,0,0,0
37070,6.727e+07,3,0,0,15.45,0.04,27,0,0,0
37526,6.7382e+07,3,0,0,15.45,0.04,28,0,0,0
37934,6.7483e+07,3,0,0,15.45,0.04,28,0,0,0
38388,6.7595e+07,3,0,0,15.44,0.04,28,0,0,0
38802,6.7702e+07,3,0,0,15.45,0.04,28,0,0,0
39217,6.7803e+07,3,0,0,15.45,0.04,28,0,0,0
39676,6.7917e+07,3,0,0,15.45,0.04,28,0,0,0
40503,6.8122e+07,3,0,0,15.45,0.04,28,0,0,0
40955,6.8236e+07,3,0,0,15.45,0.04,28,0,0,0
41370,6.8338e+07,3,0,0,15.45,0.04,27,0,0,0
41782,6.8443e+07,3,0,0,15.45,0.04,28,0,0,0
42235,6.8553e+07,3,0,0,15.45,0.04,27,0,0,0
42651,6.8659e+07,3,0,0,15.45,0.04,28,0,0,0
43067,6.8763e+07,3,0,0,15.45,0.04,28,0,0,0
43487,6.887e+07,3,0,0,15.45,0.04,28,0,0,0
43941,6.8981e+07,3,0,0,15.44,0.04,28,0,0,0
44362,6.9088e+07,3,0,0,15.45,0.04,28,0,0,0
44778,6.9188e+07,3,0,0,15.45,0.04,27,0,0,0
45224,6.9296e+07,3,0,0,15.45,0.04,28,0,0,0
45719,6.9407e+07,3,0,0,15.45,0.04,27,0,0,0
46172,6.951e+07,3,0,0,15.45,0.04,28,0,0,0
46624,6.9614e+07,3,0,0,15.45,0.04,28,0,0,0
47077,6.9719e+07,3,0,0,15.45,0.04,28,0,0,0
47576,6.9836e+07,3,0,0,15.45,0.04,28,0,0,0
48034,6.9939e+07,3,0,0,15.45,0.04,28,0,0,0
48493,7.0046e+07,3,0,0,15.45,0.04,28,0,0,0
48948,7.0149e+07,3,0,0,15.45,0.04,28,0,0,0
49438,7.0259e+07,3,0,0,15.45,0.04,28,0,0,0
49892,7.0363e+07,3,0,0,15.44,0.04,28,0,0,0
50344,7.0468e+07,3,0,0,15.45,0.04,28,0,0,0
50845,7.0582e+07,3,0,0,15.45,0.04,28,0,0,0
51294,7.0685e+07,3,0,0,15.45,0.04,28,0,0,0
51790,7.0797e+07,3,0,0,15.44,0.04,28,0,0,0
52213,7.0898e+07,3,0,0,15.45,0.04,28,0,0,0
52668,7.1e+07,3,0,0,15.45,0.04,27,0,0,0
53161,7.1113e+07,3,0,0,15.45,0.03,28,0,0,0
53619,7.1221e+07,3,30,371,15.44,0.07,28,0,0,0
54073,7.1323e+07,3,379,771,15.43,0.13,28,0,0,0
54524,7.1426e+07,3,775,1100,15.43,0.15,28,0,0,0
55508,7.1648e+07,3,1104,1228,15.44,0.11,28,0,0,0
55846,7.1749e+07,3,1228,1242,15.43,0.11,28,0,0,0
56311,7.1862e+07,3,1243,1257,15.44,0.11,28,0,0,0
56764,7.1963e+07,3,1257,1257,15.43,0.11,28,0,0,0
57220,7.2069e+07,3,1257,1257,15.43,0.1,28,0,0,0
57720,7.2181e+07,3,1257,1257,15.43,0.11,28,0,0,0
58175,7.2286e+07,3,1257,1257,15.44,0.11,28,0,0,0
58674,7.24e+07,3,1257,1257,15.43,0.11,28,0,0,0
59127,7.2501e+07,3,1257,1257,15.44,0.11,28,0,0,0
59579,7.2605e+07,3,1257,1257,15.44,0.11,28,0,0,0
60077,7.2716e+07,3,1257,1257,15.44,0.11,28,0,0,0
60532,7.2821e+07,3,1257,1257,15.44,0.11,28,0,0,0
60986,7.2922e+07,3,1257,1257,15.43,0.11,28,0,0,0
61480,7.3035e+07,3,1257,1257,15.44,0.11,28,0,0,0
61930,7.3136e+07,3,1257,1257,15.43,0.11,28,0,0,0
62433,7.3253e+07,3,1257,1257,15.43,0.11,28,0,0,0
62888,7.3354e+07,3,1257,1257,15.43,0.11,28,0,0,0
63337,7.3458e+07,3,1257,1257,15.44,0.11,28,0,0,0
63761,7.3562e+07,3,1257,1257,15.43,0.11,28,0,0,0
64250,7.3673e+07,3,1257,1257,15.44,0.11,28,0,0,0
64709,7.378e+07,3,1257,1257,15.43,0.11,28,0,0,0
65168,7.389e+07,3,1257,1257,15.43,0.1,28,0,0,0
65662,7.4003e+07,3,1257,1257,15.44,0.11,28,0,0,0
66606,7.4222e+07,3,1257,1257,15.44,0.11,28,0,0,0
67066,7.4328e+07,3,1257,1257,15.44,0.11,28,0,0,0
67515,7.4431e+07,3,1257,1257,15.43,0.11,28,0,0,0
68018,7.4546e+07,3,1257,1257,15.43,0.11,28,0,0,0
68465,7.4653e+07,3,1257,1257,15.43,0.11,28,0,0,0
68918,7.4755e+07,3,1257,1257,15.44,0.11,28,0,0,0
69374,7.4865e+07,3,1257,1257,15.44,0.11,28,0,0,0
69872,7.4978e+07,3,1257,1257,15.44,0.11,28,0,0,0
70319,7.5082e+07,3,1257,1257,15.44,0.11,28,0,0,0
70815,7.5196e+07,3,1257,1257,15.43,0.11,28,0,0,0
71770,7.5418e+07,3,1257,1257,15.43,0.1,28,0,0,0
72179,7.551e+07,3,1257,1257,15.43,0.1,28,0,0,0
73167,7.5739e+07,3,1257,1257,15.44,0.11,28,0,0,0
73617,7.5841e+07,3,1260,1300,15.42,0.15,28,0,0,0
74072,7.5944e+07,3,1305,1614,15.27,0.36,28,0,0,0
74567,7.6062e+07,3,1657,2128,15.38,0.63,28,0,0,0
75020,7.6164e+07,3,2140,2328,15.39,0.4,28,0,0,0
75472,7.6272e+07,3,2325,2285,15.43,0.32,28,0,0,0
76418,7.6493e+07,3,2300,2942,15.2,1.55,28,0,0,0
76878,7.6603e+07,3,2975,3628,15.16,1.92,28,0,0,0
77331,7.6715e+07,3,3666,4385,14.91,2.42,28,0,0,0
77832,7.6831e+07,3,4432,4900,14.89,2.72,28,0,0,0
78285,7.6936e+07,3,4945,5400,14.86,3.37,28,0,0,0
79185,7.7154e+07,3,5412,5800,14.78,3.12,28,1,0,0
80063,7.7371e+07,3,5796,5614,14.75,2.91,28,1,0,0
80550,7.7484e+07,3,5616,5642,14.77,2.95,28,1,0,0
81002,7.7589e+07,3,5647,5728,14.82,2.76,28,1,0,0
81458,7.7699e+07,3,5689,5114,14.82,1.91,28,1,0,0
81910,7.7811e+07,3,5108,5042,14.8,1.86,28,1,0,0
82819,7.8029e+07,3,5037,4828,14.85,2.01,28,1,0,0
83271,7.8136e+07,3,4830,4928,14.8,2.19,28,1,0,0
83759,7.8252e+07,3,4962,5285,14.83,3.1,28,1,0,0
84213,7.8359e+07,3,5289,5371,14.82,2.94,28,1,0,0
84677,7.8478e+07,3,5389,5571,14.77,3.31,28,1,0,0
85128,7.8582e+07,3,5584,5871,14.82,3.17,28,2,0,0
85539,7.8684e+07,3,5858,5642,14.85,3.21,28,2,0,0
86036,7.8798e+07,3,5651,5757,14.71,3.31,28,2,0,0
86412,7.8898e+07,3,5757,5785,14.72,3.57,28,2,0,0
86904,7.9017e+07,3,5797,5900,14.76,3.32,28,2,0,0
87350,7.9126e+07,3,5892,5785,14.71,3.18,28,2,0,0
87791,7.9234e+07,3,5782,5757,14.72,3.27,28,2,0,0
89138,7.9563e+07,3,5738,5142,14.91,2.12,28,2,0,0
89539,7.9663e+07,3,5116,4885,14.92,1.87,28,2,0,0
90886,7.9993e+07,3,4886,4928,14.89,2.26,28,3,0,0
91288,8.0094e+07,3,4932,5014,14.87,2.44,28,3,0,0
91738,8.021e+07,3,5018,5057,14.94,2.06,28,3,0,0
92185,8.0316e+07,3,5036,4828,14.99,1.55,28,3,0,0
92623,8.0421e+07,3,4804,4528,14.99,1.54,28,3,0,0
93513,8.0637e+07,3,4526,4485,14.94,2.25,29,3,0,0
93964,8.0745e+07,3,4516,5142,14.9,2.93,28,3,0,0
94417,8.0861e+07,3,5147,5228,14.91,2.79,28,3,0,0
94863,8.0967e+07,3,5250,5457,14.79,2.65,28,3,0,0
95304,8.1074e+07,3,5442,5300,14.83,2.44,28,3,0,0
95751,8.1181e+07,3,5285,5085,14.82,1.88,28,3,0,0
96609,8.1395e+07,3,5078,4771,14.89,1.49,28,4,0,0
97502,8.1622e+07,3,4775,4885,14.92,2.19,29,4,0,0
97907,8.172e+07,3,4885,4900,14.91,1.85,28,4,0,0
98397,8.1839e+07,3,4890,4742,14.97,1.44,29,4,0,0
98845,8.1946e+07,3,4740,4714,14.98,1.62,28,4,0,0
99251,8.2051e+07,3,4716,4757,14.91,2.16,29,4,0,0
99700,8.216e+07,3,4755,4714,15.01,1.43,29,4,0,0
1.0018e+05,8.2274e+07,3,4714,4714,14.98,1.84,29,4,0,0
1.0059e+05,8.2374e+07,3,4726,5014,14.93,2.5,29,4,0,0
1.0099e+05,8.2478e+07,3,5019,5214,14.94,2.28,29,4,0,0
1.0145e+05,8.2595e+07,3,5195,4971,14.87,2.35,29,4,0,0
1.0186e+05,8.2699e+07,3,4984,5285,14.78,3.04,28,4,0,0
1.0275e+05,8.2916e+07,3,5287,5400,14.79,3,29,4,0,0
1.032e+05,8.3028e+07,3,5400,5400,14.83,2.82,29,5,0,0
1.0364e+05,8.314e+07,3,5407,5514,14.83,2.69,29,5,0,0
1.0409e+05,8.3246e+07,3,5502,5357,14.86,2.46,29,5,0,0
1.0453e+05,8.3352e+07,3,5354,5300,14.84,2.42,29,5,0,0
1.0494e+05,8.3458e+07,3,5298,5257,14.8,2.6,29,5,0,0
1.0539e+05,8.3564e+07,3,5255,5200,14.86,2.27,29,5,0,0
1.0588e+05,8.3682e+07,3,5210,5314,14.77,2.49,29,5,0,0
1.0629e+05,8.3783e+07,3,5312,5271,14.83,2.68,29,5,0,0
1.0673e+05,8.3893e+07,3,5266,5171,14.83,2.34,29,5,0,0
1.0718e+05,8.4002e+07,3,5176,5271,14.82,2.47,29,5,0,0
1.0764e+05,8.4117e+07,3,5272,5285,14.85,2.61,29,5,0,0
1.0808e+05,8.4227e+07,3,5293,5385,14.81,2.78,29,5,0,0
1.0853e+05,8.4333e+07,3,5371,5242,14.91,2.17,29,5,0,0
1.0898e+05,8.4442e+07,3,5235,5157,14.86,2.09,29,6,0,0
1.0942e+05,8.4552e+07,3,5157,5157,14.79,2.26,29,6,0,0
1.0984e+05,8.4661e+07,3,5142,4942,14.97,1.85,29,6,0,0
1.1028e+05,8.4768e+07,3,4930,4785,14.85,1.86,29,6,0,0
1.1073e+05,8.4878e+07,3,4791,4871,14.84,2.39,29,6,0,0
1.1118e+05,8.4987e+07,3,4879,5000,14.75,2.55,29,6,0,0
1.1159e+05,8.509e+07,3,5005,5314,14.76,2.77,29,6,0,0
1.1208e+05,8.5211e+07,3,5312,5300,14.74,2.78,29,6,0,0
1.1252e+05,8.5313e+07,3,5307,5442,14.75,2.84,29,6,0,0
1.1297e+05,8.543e+07,3,5454,5585,14.82,2.69,29,6,0,0
1.1342e+05,8.5538e+07,3,5578,5485,14.72,2.56,29,6,0,0
1.138e+05,8.564e+07,3,5483,5414,14.76,2.65,29,6,0,0
1.1429e+05,8.5756e+07,3,5409,5357,14.77,2.58,29,6,0,0
1.147e+05,8.586e+07,3,5363,5500,14.8,2.88,29,7,0,0
1.1515e+05,8.5968e+07,3,5493,5357,14.86,2.48,29,7,0,0
1.1559e+05,8.6076e+07,3,5357,5357,14.83,2.35,29,7,0,0
1.1608e+05,8.6196e+07,3,5341,5114,14.83,1.9,29,7,0,0
1.1652e+05,8.6305e+07,3,5109,5042,14.83,2.36,29,7,0,0
1.1697e+05,8.6414e+07,3,5045,5085,14.83,2.12,29,7,0,0
1.1741e+05,8.6525e+07,3,5088,5128,14.83,2.19,29,7,0,0
1.1786e+05,8.6637e+07,3,5121,5071,14.83,2.09,29,7,0,0
1.1827e+05,8.674e+07,3,5069,4942,14.85,1.86,29,7,0,0
1.1872e+05,8.6845e+07,3,4942,4942,14.83,1.94,29,7,0,0
1.1921e+05,8.6964e+07,3,4933,4814,14.79,2.2,29,7,0,0
1.1962e+05,8.7067e+07,3,4828,4957,14.85,1.98,29,7,0,0
1.2006e+05,8.7173e+07,3,4943,4814,14.89,1.93,29,7,0,0
1.2051e+05,8.7287e+07,3,4828,4971,14.8,2.45,29,7,0,0
1.2092e+05,8.7387e+07,3,4965,4900,14.76,1.92,29,7,0,0
1.2137e+05,8.7498e+07,3,4904,4971,14.73,2.38,29,7,0,0
1.2178e+05,8.7599e+07,3,4971,5000,14.77,2.23,29,8,0,0
1.2225e+05,8.7713e+07,3,5003,5071,14.8,2.59,29,8,0,0
1.2271e+05,8.7827e+07,3,5093,5328,14.69,3.1,29,8,0,0
1.2297e+05,8.7932e+07,3,5336,5414,14.73,2.77,29,8,0,0
1.2386e+05,8.8147e+07,3,5409,5314,14.8,2.24,29,8,0,0
1.243e+05,8.8258e+07,3,5308,5242,14.63,2.96,29,8,0,0
1.2471e+05,8.8357e+07,3,5249,5571,14.7,3.23,29,8,0,0
1.252e+05,8.8476e+07,3,5578,5657,14.69,3.19,29,8,0,0
1.2564e+05,8.8582e+07,3,5657,5657,14.71,3.22,29,8,0,0
1.2609e+05,8.8692e+07,3,5651,5600,14.75,2.8,29,8,0,0
1.2653e+05,8.8801e+07,3,5572,5285,14.83,2.02,29,8,0,0
1.2699e+05,8.8913e+07,3,5269,5114,14.72,2.41,29,9,0,0
1.2739e+05,8.901e+07,3,5115,5185,14.79,2.32,29,9,0,0
1.2788e+05,8.9131e+07,3,5174,5071,14.75,2.14,29,9,0,0
1.2828e+05,8.923e+07,3,5072,5100,14.72,2.29,29,9,0,0
1.2873e+05,8.934e+07,3,5100,5114,14.75,2.4,29,9,0,0
1.2918e+05,8.9452e+07,3,5114,5128,14.73,2.04,29,9,0,0
1.2967e+05,8.9569e+07,3,5133,5185,14.75,2.47,29,9,0,0
1.3007e+05,8.9669e+07,3,5183,5157,14.76,2.34,29,9,0,0
1.3056e+05,8.9788e+07,3,5161,5214,14.77,2.57,29,9,0,0
1.3096e+05,8.9888e+07,3,5214,5228,14.76,2.71,29,9,0,0
1.3142e+05,9.0001e+07,3,5228,5228,14.8,2.45,29,9,0,0
1.3227e+05,9.0212e+07,3,5225,4871,14.78,2.01,29,9,0,0
1.3272e+05,9.0323e+07,3,4901,5314,14.6,3.33,29,10,0,0
1.3313e+05,9.043e+07,3,5327,5600,14.66,3.33,29,10,0,0
1.3362e+05,9.055e+07,3,5606,5657,14.76,2.78,29,10,0,0
1.3402e+05,9.0647e+07,3,5650,5371,14.76,2.63,29,10,0,0
1.3448e+05,9.0759e+07,3,5368,5314,14.85,2.53,29,10,0,0
1.3538e+05,9.0979e+07,3,5302,4985,14.83,1.85,29,10,0,0
1.3582e+05,9.1088e+07,3,4973,4728,14.88,1.48,29,10,0,0
1.3672e+05,9.1308e+07,3,4733,4857,14.8,2.04,29,10,0,0
1.3717e+05,9.1421e+07,3,4883,5057,14.73,2.15,29,10,0,0
1.3758e+05,9.1524e+07,3,5049,4971,14.79,2.05,29,10,0,0
1.3803e+05,9.164e+07,3,4963,4885,14.82,2.12,29,10,0,0
1.3844e+05,9.174e+07,3,4898,5057,14.73,2.65,29,10,0,0
1.3889e+05,9.1853e+07,3,5081,5357,14.76,3.09,29,11,0,0
1.4023e+05,9.2176e+07,3,5360,5600,14.75,3.12,29,11,0,0
1.4068e+05,9.229e+07,3,5580,5385,14.7,2.64,29,11,0,0
1.4113e+05,9.2396e+07,3,5386,5414,14.71,2.62,29,11,0,0
1.4153e+05,9.2498e+07,3,5412,5285,14.71,2.49,29,11,0,0
1.4246e+05,9.2724e+07,3,5281,5214,14.72,2.29,29,11,0,0
1.4286e+05,9.2828e+07,3,5206,4900,14.7,1.85,29,11,0,0
1.4332e+05,9.2938e+07,3,4904,5085,14.64,2.6,29,11,0,0
1.4377e+05,9.3054e+07,3,5092,5200,14.61,2.75,29,11,0,0
1.4422e+05,9.316e+07,3,5202,5342,14.67,2.93,29,11,0,0
1.4466e+05,9.3271e+07,3,5349,5514,14.72,3.01,29,12,0,0
1.4516e+05,9.339e+07,3,5515,5528,14.66,3.23,29,12,0,0
1.4552e+05,9.3484e+07,3,5524,5357,14.74,2.37,29,12,0,0
1.4601e+05,9.36e+07,3,5363,5428,14.71,2.75,29,12,0,0
1.4646e+05,9.3721e+07,3,5452,5600,14.7,3.24,29,12,0,0
1.4691e+05,9.383e+07,3,5610,5714,14.73,3.35,29,12,0,0
1.4735e+05,9.3932e+07,3,5704,5600,14.72,2.99,29,12,0,0
1.4776e+05,9.4032e+07,3,5602,5714,14.63,3.45,29,12,0,0
1.4825e+05,9.4147e+07,3,5716,5757,14.67,3.4,29,12,0,0
1.4869e+05,9.426e+07,3,5755,5714,14.71,3.33,29,12,0,0
1.4914e+05,9.437e+07,3,5715,5728,14.66,3.42,29,13,0,0
1.4958e+05,9.4481e+07,3,5730,5800,14.63,3.62,29,13,0,0
1.5004e+05,9.4591e+07,3,5803,5828,14.71,3.14,29,13,0,0
1.5048e+05,9.4698e+07,3,5819,5742,14.68,3.47,29,13,0,0
1.5093e+05,9.4809e+07,3,5737,5700,14.75,2.99,29,13,0,0
1.5134e+05,9.491e+07,3,5701,5742,14.79,2.96,29,13,0,0
1.5178e+05,9.5019e+07,3,5736,5457,14.76,3.03,29,13,0,0
1.5223e+05,9.5131e+07,3,5469,5585,14.77,2.87,29,13,0,0
1.5268e+05,9.5242e+07,3,5582,5557,14.74,2.95,29,13,0,0
1.5357e+05,9.5462e+07,3,5561,5685,14.64,3.01,29,13,0,0
1.5402e+05,9.5573e+07,3,5670,5528,14.72,3.06,29,14,0,0
1.5443e+05,9.5677e+07,3,5534,5614,14.76,2.82,29,14,0,0
1.5528e+05,9.5889e+07,3,5611,5428,14.69,2.77,29,14,0,0
1.5578e+05,9.6008e+07,3,5415,5285,14.7,2.5,29,14,0,0
1.5618e+05,9.6108e+07,3,5286,5342,14.66,2.57,29,14,0,0
1.5711e+05,9.6335e+07,3,5328,5042,14.64,2.44,29,14,0,0
1.5755e+05,9.6443e+07,3,5049,5142,14.74,2.48,29,14,0,0
1.58e+05,9.6551e+07,3,5142,5142,14.67,2.72,29,14,0,0
1.584e+05,9.6651e+07,3,5155,5428,14.65,3.05,29,14,0,0
1.589e+05,9.6767e+07,3,5442,5600,14.58,3.44,29,14,0,0
1.5935e+05,9.688e+07,3,5613,5728,14.62,3.04,29,15,0,0
1.5976e+05,9.6979e+07,3,5733,5814,14.63,3.71,29,15,0,0
1.6021e+05,9.7092e+07,3,5806,5700,14.62,3.05,29,15,0,0
1.6066e+05,9.7199e+07,3,5695,5614,14.64,2.84,29,15,0,0
1.611e+05,9.7309e+07,3,5612,5600,14.76,2.72,29,15,0,0
1.6154e+05,9.7417e+07,3,5573,5285,14.79,2.26,29,15,0,0
1.6199e+05,9.7525e+07,3,5292,5385,14.68,3.19,29,15,0,0
1.6244e+05,9.7638e+07,3,5414,5685,14.71,3.04,29,15,0,0
1.6285e+05,9.7736e+07,3,5680,5428,14.71,2.62,29,15,0,0
1.6329e+05,9.7844e+07,3,5431,5485,14.8,2.83,29,15,0,0
1.6374e+05,9.7955e+07,3,5470,5257,14.76,2.29,29,15,0,0
1.6415e+05,9.8058e+07,3,5257,5271,14.69,2.58,29,16,0,0
1.646e+05,9.8167e+07,3,5271,5285,14.71,2.83,29,16,0,0
1.655e+05,9.8386e+07,3,5282,5157,14.72,2.33,29,16,0,0
1.6594e+05,9.8495e+07,3,5153,5057,14.79,2.14,29,16,0,0
1.6643e+05,9.861e+07,3,5061,5100,14.76,2.24,29,16,0,0
1.6687e+05,9.8715e+07,3,5102,5128,14.62,2.53,29,16,0,0
1.6732e+05,9.8828e+07,3,5133,5214,14.72,2.62,29,16,0,0
1.6773e+05,9.8926e+07,3,5220,5300,14.74,2.59,29,16,0,0
1.6817e+05,9.9035e+07,3,5294,5157,14.69,2.48,29,16,0,0
1.6862e+05,9.9142e+07,3,5157,5214,14.66,2.53,29,16,0,0
1.6907e+05,9.9252e+07,3,5215,5300,14.77,2.59,29,16,0,0
1.6956e+05,9.9367e+07,3,5296,5257,14.67,2.77,30,16,0,0
1.6996e+05,9.9471e+07,3,5270,5457,14.74,2.73,29,17,0,0
1.7046e+05,9.9588e+07,3,5433,5185,14.67,2.56,30,17,0,0
1.7086e+05,9.969e+07,3,5185,5214,14.69,2.55,29,17,0,0
1.713e+05,9.9797e+07,3,5218,5328,14.66,2.62,30,17,0,0
1.7175e+05,9.9908e+07,3,5324,5242,14.69,2.4,30,17,0,0
1.7221e+05,1.0002e+08,3,5245,5314,14.69,2.43,29,17,0,0
1.7266e+05,1.0013e+08,3,5307,5157,14.67,2.37,29,17,0,0
1.7313e+05,1.0025e+08,3,5154,5142,14.73,2.31,29,17,0,0
1.7355e+05,1.0035e+08,3,5141,5128,14.63,2.37,29,17,0,0
1.7399e+05,1.0045e+08,3,5128,5142,14.75,2.51,29,17,0,0
1.7444e+05,1.0056e+08,3,5142,5171,14.63,2.42,29,17,0,0
1.7488e+05,1.0068e+08,3,5190,5357,14.61,2.57,29,17,0,0
1.7533e+05,1.0078e+08,3,5354,5285,14.69,2.54,29,17,0,0
1.7578e+05,1.0089e+08,3,5285,5285,14.68,2.41,29,17,0,0
1.7623e+05,1.01e+08,3,5271,5157,14.72,2.4,29,18,0,0
1.7663e+05,1.011e+08,3,5157,5185,14.7,2.42,30,18,0,0
1.7712e+05,1.0122e+08,3,5177,5085,14.69,2.54,30,18,0,0
1.7752e+05,1.0132e+08,3,5085,5128,14.67,2.47,29,18,0,0
1.7801e+05,1.0144e+08,3,5134,5200,14.7,2.55,29,18,0,0
1.7842e+05,1.0154e+08,3,5200,5200,14.67,2.3,29,18,0,0
1.7891e+05,1.0166e+08,3,5200,5200,14.59,2.69,29,18,0,0
1.7938e+05,1.0177e+08,3,5200,5200,14.57,2.33,29,18,0,0
1.798e+05,1.0188e+08,3,5215,5357,14.68,2.88,29,18,0,0
1.8028e+05,1.0199e+08,3,5357,5357,14.7,2.63,30,18,0,0
1.8069e+05,1.0209e+08,3,5352,5242,14.72,2.21,30,18,0,0
1.8117e+05,1.022e+08,3,5225,5014,14.75,1.96,30,18,0,0
1.8162e+05,1.0232e+08,3,5010,4971,14.74,2.12,30,18,0,0
1.8207e+05,1.0243e+08,3,4971,4971,14.69,2.21,30,18,0,0
1.8248e+05,1.0253e+08,3,4970,4957,14.76,2.2,29,19,0,0
1.8292e+05,1.0265e+08,3,4959,4985,14.67,2.25,29,19,0,0
1.8338e+05,1.0276e+08,3,4998,5128,14.72,2.38,29,19,0,0
1.8374e+05,1.0285e+08,3,5129,5200,14.7,2.63,30,19,0,0
1.8419e+05,1.0296e+08,3,5205,5328,14.7,2.5,30,19,0,0
1.8464e+05,1.0307e+08,3,5326,5214,14.73,2.74,29,19,0,0
1.8509e+05,1.0318e+08,3,5220,5371,14.61,2.62,30,19,0,0
1.8554e+05,1.033e+08,3,5357,5228,14.7,2.1,29,19,0,0
1.8598e+05,1.034e+08,3,5220,5114,14.67,2.23,29,19,0,0
1.8643e+05,1.0352e+08,3,5111,5085,14.68,2.24,30,19,0,0
1.8688e+05,1.0363e+08,3,5099,5200,14.72,2.45,29,19,0,0
1.8729e+05,1.0373e+08,3,5202,5242,14.7,2.57,30,19,0,0
1.8773e+05,1.0384e+08,3,5243,5285,14.71,2.71,30,19,0,0
1.8823e+05,1.0396e+08,3,5289,5342,14.72,2.41,30,20,0,0
1.8863e+05,1.0406e+08,3,5340,5271,14.69,2.57,30,20,0,0
1.8912e+05,1.0418e+08,3,5268,5242,14.76,2.66,30,20,0,0
1.8957e+05,1.0429e+08,3,5243,5257,14.77,2.36,30,20,0,0
1.9001e+05,1.044e+08,3,5249,5100,14.74,2.1,30,20,0,0
1.9042e+05,1.045e+08,3,5101,5185,14.7,2.83,30,20,0,0
1.9132e+05,1.0472e+08,3,5190,5428,14.66,2.57,29,20,0,0
1.9217e+05,1.0493e+08,3,5430,5600,14.54,3.26,30,20,0,0
1.9266e+05,1.0505e+08,3,5597,5571,14.66,2.71,30,20,0,0
1.931e+05,1.0516e+08,3,5562,5357,14.57,2.45,30,20,0,0
1.9359e+05,1.0527e+08,3,5338,5157,14.66,2.25,30,21,0,0
1.9404e+05,1.0538e+08,3,5152,5085,14.67,2.13,29,21,0,0
1.9444e+05,1.0549e+08,3,5072,4914,14.6,2.22,30,21,0,0
1.9534e+05,1.057e+08,3,4926,5271,14.63,2.59,30,21,0,0
1.9578e+05,1.0582e+08,3,5265,5214,14.69,2.44,29,21,0,0
1.9619e+05,1.0592e+08,3,5214,5257,14.62,2.7,30,21,0,0
1.9664e+05,1.0603e+08,3,5248,5128,14.7,2.48,30,21,0,0
1.9713e+05,1.0615e+08,3,5129,5142,14.69,2.47,30,21,0,0
1.9754e+05,1.0625e+08,3,5136,5000,14.72,2.12,29,21,0,0
1.9799e+05,1.0636e+08,3,4999,4971,14.74,1.87,30,21,0,0
1.9847e+05,1.0648e+08,3,4969,4957,14.72,2.28,30,21,0,0
1.9888e+05,1.0658e+08,3,4952,4914,14.76,1.92,30,21,0,0
1.9932e+05,1.0669e+08,3,4910,4828,14.77,1.77,30,21,0,0
1.9976e+05,1.0679e+08,3,4822,4714,14.72,1.83,30,21,0,0
2.0022e+05,1.0691e+08,3,4723,4800,14.72,2.09,30,21,0,0
2.0067e+05,1.0702e+08,3,4806,4857,14.73,1.98,29,22,0,0
2.0107e+05,1.0712e+08,3,4853,4657,14.58,1.94,30,22,0,0
2.0151e+05,1.0723e+08,3,4659,4842,14.73,1.85,29,22,0,0
2.02e+05,1.0734e+08,3,4833,4714,14.71,1.64,30,22,0,0
2.0244e+05,1.0745e+08,3,4707,4642,14.69,1.73,29,22,0,0
2.0289e+05,1.0756e+08,3,4650,4771,14.68,1.92,30,22,0,0
2.0334e+05,1.0767e+08,3,4771,4771,14.7,1.8,30,22,0,0
2.0418e+05,1.0788e+08,3,4772,4828,14.75,2.01,30,22,0,0
2.0464e+05,1.0799e+08,3,4828,4842,14.72,2,30,22,0,0
2.0508e+05,1.081e+08,3,4844,4885,14.7,2.04,30,22,0,0
2.0554e+05,1.0821e+08,3,4881,4842,14.8,1.61,29,22,0,0
2.0598e+05,1.0833e+08,3,4818,4685,14.72,1.61,30,22,0,0
2.0686e+05,1.0854e+08,3,4691,4800,14.63,1.99,29,22,0,0
2.0731e+05,1.0865e+08,3,4803,4871,14.7,2.27,29,22,0,0
2.0776e+05,1.0876e+08,3,4877,4957,14.72,2.09,29,23,0,0
2.082e+05,1.0887e+08,3,4965,5042,14.72,2.26,29,23,0,0
2.0861e+05,1.0897e+08,3,5043,5128,14.67,2.49,30,23,0,0
2.095e+05,1.0919e+08,3,5112,4828,14.72,2.11,29,23,0,0
2.0992e+05,1.093e+08,3,4846,5071,14.64,2.69,29,23,0,0
2.1036e+05,1.0941e+08,3,5066,5014,14.7,2.04,29,23,0,0
2.1081e+05,1.0952e+08,3,4998,4857,14.62,1.98,30,23,0,0
2.117e+05,1.0973e+08,3,4859,5257,14.64,2.85,29,23,0,0
2.1218e+05,1.0985e+08,3,5257,5257,14.63,2.51,30,23,0,0
2.1258e+05,1.0995e+08,3,5259,5300,14.69,2.28,30,23,0,0
2.1304e+05,1.1006e+08,3,5278,5042,14.66,2.25,29,23,0,0
2.1389e+05,1.1028e+08,3,5042,5042,14.66,2.31,30,23,0,0
2.143e+05,1.1038e+08,3,5035,4971,14.69,2.23,30,24,0,0
2.1471e+05,1.1048e+08,3,4971,5028,14.69,2.21,29,24,0,0
2.152e+05,1.106e+08,3,5024,5000,14.56,2.58,30,24,0,0
2.1604e+05,1.1081e+08,3,5005,5514,14.6,3.12,30,24,0,0
2.1649e+05,1.1092e+08,3,5505,5414,14.65,2.8,30,24,0,0
2.1739e+05,1.1115e+08,3,5411,5314,14.64,2.94,30,24,0,0
2.1783e+05,1.1125e+08,3,5303,5142,14.76,2.25,29,24,0,0
2.1828e+05,1.1136e+08,3,5145,5185,14.67,2.49,30,24,0,0
2.1873e+05,1.1148e+08,3,5185,5185,14.69,2.39,30,24,0,0
2.1918e+05,1.1158e+08,3,5185,5185,14.69,2.15,30,24,0,0
2.1962e+05,1.1169e+08,3,5180,5114,14.73,2.55,30,25,0,0
2.2007e+05,1.118e+08,3,5114,5157,14.67,2.49,30,25,0,0
2.2052e+05,1.1191e+08,3,5171,5300,14.66,2.82,30,25,0,0
2.2092e+05,1.1201e+08,3,5294,5185,14.71,2.32,30,25,0,0
2.214e+05,1.1212e+08,3,5182,5085,14.72,2.11,29,25,0,0
2.2185e+05,1.1223e+08,3,5082,5057,14.72,2.31,30,25,0,0
2.223e+05,1.1234e+08,3,5039,4785,14.61,1.62,30,25,0,0
2.2274e+05,1.1245e+08,3,4807,5042,14.67,2.59,30,25,0,0
2.2318e+05,1.1255e+08,3,5046,5100,14.52,2.59,29,25,0,0
2.2359e+05,1.1266e+08,3,5102,5257,14.59,2.59,30,25,0,0
2.2447e+05,1.1287e+08,3,5258,5414,14.62,2.73,29,25,0,0
2.2582e+05,1.1321e+08,3,5413,5385,14.61,2.81,29,26,0,0
2.2623e+05,1.1331e+08,3,5385,5385,14.6,2.75,30,26,0,0
2.2667e+05,1.1342e+08,3,5391,5471,14.65,2.59,29,26,0,0
2.2712e+05,1.1353e+08,3,5462,5342,14.64,2.41,30,26,0,0
2.2752e+05,1.1363e+08,3,5338,5271,14.67,2.44,30,26,0,0
2.2798e+05,1.1375e+08,3,5269,5257,14.69,2.48,29,26,0,0
2.2841e+05,1.1385e+08,3,5254,5214,14.69,2.43,29,26,0,0
2.2886e+05,1.1396e+08,3,5213,5200,14.69,2.4,29,26,0,0
2.2932e+05,1.1407e+08,3,5183,5014,14.76,1.74,30,26,0,0
2.2976e+05,1.1418e+08,3,5010,4957,14.72,2.69,29,26,0,0
2.302e+05,1.1429e+08,3,4964,5128,14.66,2.6,30,26,0,0
2.3065e+05,1.144e+08,3,5139,5314,14.7,2.63,29,26,0,0
2.3106e+05,1.145e+08,3,5313,5257,14.75,2.65,30,26,0,0
2.32e+05,1.1473e+08,3,5252,5157,14.72,2.48,30,27,0,0
2.324e+05,1.1483e+08,3,5166,5285,14.69,2.41,29,27,0,0
2.3286e+05,1.1494e+08,3,5274,5171,14.69,2.66,30,27,0,0
2.3325e+05,1.1504e+08,3,5173,5271,14.66,2.57,30,27,0,0
2.337e+05,1.1515e+08,3,5274,5414,14.72,2.59,29,27,0,0
2.3415e+05,1.1526e+08,3,5409,5328,14.73,2.18,30,27,0,0
2.346e+05,1.1537e+08,3,5324,5271,14.74,2.76,30,27,0,0
2.3505e+05,1.1548e+08,3,5283,5457,14.63,2.74,29,27,0,0
2.355e+05,1.1559e+08,3,5463,5600,14.63,2.92,29,27,0,0
2.3594e+05,1.157e+08,3,5598,5571,14.55,3,30,27,0,0
2.3638e+05,1.1581e+08,3,5577,5742,14.62,3.28,30,27,0,0
2.3687e+05,1.1592e+08,3,5746,5785,14.68,3.23,29,28,0,0
2.3728e+05,1.1603e+08,3,5764,5471,14.74,2.12,29,28,0,0
2.3768e+05,1.1613e+08,3,5466,5371,14.72,2.55,30,28,0,0
2.3862e+05,1.1636e+08,3,5374,5442,14.81,2.43,30,28,0,0
2.3906e+05,1.1646e+08,3,5426,5257,14.73,2.22,29,28,0,0
2.3947e+05,1.1656e+08,3,5254,5114,14.8,1.97,30,28,0,0
2.3991e+05,1.1668e+08,3,5095,4928,14.72,1.69,30,28,0,0
2.4036e+05,1.1678e+08,3,4925,4900,14.77,2.02,30,28,0,0
2.408e+05,1.1689e+08,3,4902,4957,14.76,2.05,30,28,0,0
2.4124e+05,1.1699e+08,3,4957,4985,14.74,2.44,30,28,0,0
2.4169e+05,1.171e+08,3,4983,4942,14.67,1.77,30,28,0,0
2.4214e+05,1.1722e+08,3,4938,4657,14.72,1.44,30,28,0,0
2.4259e+05,1.1733e+08,3,4650,4585,14.75,1.41,30,28,0,0
2.4303e+05,1.1744e+08,3,4560,4242,14.73,1.19,30,28,0,0
2.4347e+05,1.1754e+08,3,4256,4557,14.7,1.65,30,28,0,0
2.4388e+05,1.1765e+08,3,4558,4642,14.66,1.5,30,29,0,0
2.4441e+05,1.1777e+08,3,4659,4842,14.67,1.53,30,29,0,0
2.4526e+05,1.1797e+08,3,4844,5042,14.73,1.87,30,29,0,0
2.4571e+05,1.1809e+08,3,5056,5257,14.7,2.03,30,29,0,0
2.4616e+05,1.182e+08,3,5269,5371,14.69,2.06,30,29,0,0
2.4656e+05,1.183e+08,3,5371,5371,14.69,2.24,30,29,0,0
2.4704e+05,1.1842e+08,3,5363,5300,14.68,2.35,30,29,0,0
2.4789e+05,1.1863e+08,3,5304,5500,14.63,2.4,29,29,0,0
2.4834e+05,1.1874e+08,3,5488,5342,14.7,2.27,30,29,0,0
2.4878e+05,1.1885e+08,3,5340,5328,14.69,2.07,30,29,0,0
2.4923e+05,1.1896e+08,3,5320,5185,14.66,2.25,29,29,0,0
2.4972e+05,1.1908e+08,3,5178,5128,14.66,1.92,29,29,0,0
2.5057e+05,1.1929e+08,3,5123,4885,14.62,1.9,30,30,0,0
2.5106e+05,1.194e+08,3,4886,4914,14.61,2.02,30,30,0,0
2.515e+05,1.1951e+08,3,4915,4928,14.67,2.23,29,30,0,0
2.5195e+05,1.1962e+08,3,4930,4957,14.56,2.43,29,30,0,0
2.5235e+05,1.1972e+08,3,4958,5071,14.64,2.32,30,30,0,0
2.528e+05,1.1983e+08,3,5068,5000,14.69,2.1,29,30,0,0
2.5373e+05,1.2005e+08,3,5005,5242,14.6,2.79,29,30,0,0
2.5413e+05,1.2015e+08,3,5241,5228,14.66,2.38,30,30,0,0
2.5458e+05,1.2027e+08,3,5222,5028,14.6,2.45,30,30,0,0
2.5504e+05,1.2038e+08,3,5030,5214,14.61,2.62,29,30,0,0
2.5548e+05,1.2049e+08,3,5215,5285,14.61,2.79,30,30,0,0
2.5597e+05,1.206e+08,3,5286,5300,14.63,2.85,30,30,0,0
2.5637e+05,1.207e+08,3,5303,5442,14.59,2.95,29,30,0,0
2.5682e+05,1.2082e+08,3,5454,5585,14.6,3.02,30,31,0,0
2.5727e+05,1.2093e+08,3,5585,5585,14.61,3.13,29,31,0,0
2.5816e+05,1.2115e+08,3,5579,5471,14.72,2.54,29,31,0,0
2.586e+05,1.2125e+08,3,5455,5257,14.71,2.4,29,31,0,0
2.5905e+05,1.2136e+08,3,5257,5257,14.74,2.46,29,31,0,0
2.5994e+05,1.2158e+08,3,5258,5442,14.67,2.66,30,31,0,0
2.6038e+05,1.2169e+08,3,5433,5314,14.72,2.53,30,31,0,0
2.6079e+05,1.2179e+08,3,5314,5314,14.69,2.73,30,31,0,0
2.6128e+05,1.2191e+08,3,5311,5285,14.74,2.37,29,31,0,0
2.6218e+05,1.2212e+08,3,5279,5128,14.71,2.03,30,31,0,0
2.6262e+05,1.2223e+08,3,5128,5128,14.65,2.55,30,32,0,0
2.6307e+05,1.2234e+08,3,5130,5171,14.66,2.28,29,32,0,0
2.6347e+05,1.2244e+08,3,5171,5200,14.6,2.47,30,32,0,0
2.6392e+05,1.2255e+08,3,5202,5257,14.69,2.75,30,32,0,0
2.6437e+05,1.2266e+08,3,5270,5457,14.6,3.07,30,32,0,0
2.6481e+05,1.2277e+08,3,5457,5471,14.62,2.77,30,32,0,0
2.6526e+05,1.2288e+08,3,5472,5500,14.65,2.78,29,32,0,0
2.657e+05,1.2299e+08,3,5498,5471,14.65,2.78,30,32,0,0
2.666e+05,1.232e+08,3,5470,5385,14.64,2.89,29,32,0,0
2.6705e+05,1.2332e+08,3,5394,5614,14.62,3.29,30,32,0,0
2.6749e+05,1.2343e+08,3,5610,5528,14.58,2.79,30,33,0,0
2.6798e+05,1.2354e+08,3,5536,5628,14.53,3.06,29,33,0,0
2.6843e+05,1.2366e+08,3,5623,5557,14.55,3.15,30,33,0,0
2.6883e+05,1.2375e+08,3,5555,5528,14.56,2.71,29,33,0,0
2.6925e+05,1.2387e+08,3,5525,5471,14.58,2.92,30,33,0,0
2.6973e+05,1.2398e+08,3,5464,5371,14.61,2.54,29,33,0,0
2.7018e+05,1.2409e+08,3,5376,5428,14.54,2.87,29,33,0,0
2.7063e+05,1.242e+08,3,5435,5485,14.58,2.68,30,33,0,0
2.7103e+05,1.243e+08,3,5482,5328,14.66,2.55,29,33,0,0
2.7192e+05,1.2452e+08,3,5326,5200,14.68,2.38,29,33,0,0
2.724e+05,1.2463e+08,3,5210,5300,14.72,3.02,30,33,0,0
2.7285e+05,1.2474e+08,3,5315,5557,14.7,2.98,30,34,0,0
2.7326e+05,1.2484e+08,3,5557,5614,14.73,3.01,30,34,0,0
2.7371e+05,1.2495e+08,3,5613,5600,14.7,3.17,30,34,0,0
2.7415e+05,1.2506e+08,3,5598,5571,14.64,3.18,29,34,0,0
2.746e+05,1.2517e+08,3,5571,5571,14.68,2.93,30,34,0,0
2.7504e+05,1.2528e+08,3,5569,5471,14.69,2.83,30,34,0,0
2.7594e+05,1.255e+08,3,5471,5542,14.67,3,30,34,0,0
2.7687e+05,1.2573e+08,3,5525,5257,14.63,2.4,30,34,0,0
2.7726e+05,1.2583e+08,3,5251,5028,14.65,2.17,30,34,0,0
2.7812e+05,1.2604e+08,3,5029,5128,14.58,2.44,30,35,0,0
2.7861e+05,1.2616e+08,3,5140,5314,14.59,3.12,30,35,0,0
2.7901e+05,1.2626e+08,3,5319,5414,14.54,3.19,30,35,0,0
2.795e+05,1.2637e+08,3,5422,5542,14.52,3.13,30,35,0,0
2.7992e+05,1.2648e+08,3,5556,5742,14.54,3.31,30,35,0,0
2.8036e+05,1.2659e+08,3,5747,5814,14.5,3.34,30,35,0,0
2.8124e+05,1.2681e+08,3,5802,5542,14.55,2.89,30,35,0,0
2.8214e+05,1.2702e+08,3,5512,5128,14.61,2.47,30,35,0,0
2.8254e+05,1.2712e+08,3,5131,5242,14.63,2.35,30,35,0,0
2.8299e+05,1.2723e+08,3,5236,5114,14.66,2.15,30,36,0,0
2.8343e+05,1.2734e+08,3,5114,5128,14.6,2.52,30,36,0,0
2.8388e+05,1.2745e+08,3,5133,5242,14.66,2.82,30,36,0,0
2.8433e+05,1.2756e+08,3,5246,5328,14.66,2.73,30,36,0,0
2.8478e+05,1.2767e+08,3,5329,5357,14.6,2.71,30,36,0,0
2.8527e+05,1.2779e+08,3,5351,5285,14.69,2.33,30,36,0,0
2.8567e+05,1.2789e+08,3,5279,5171,14.64,2.38,30,36,0,0
2.8612e+05,1.28e+08,3,5168,5128,14.6,2.45,30,36,0,0
2.8657e+05,1.2811e+08,3,5128,5128,14.68,2.61,30,36,0,0
2.8697e+05,1.2821e+08,3,5129,5257,14.64,2.69,30,36,0,0
2.8746e+05,1.2833e+08,3,5260,5328,14.61,2.62,30,36,0,0
2.8787e+05,1.2844e+08,3,5328,5328,14.64,2.82,30,36,0,0
2.8832e+05,1.2854e+08,3,5330,5471,14.63,2.82,30,36,0,0
2.8876e+05,1.2865e+08,3,5471,5471,14.57,2.77,30,37,0,0
2.8921e+05,1.2876e+08,3,5466,5400,14.61,2.71,30,37,0,0
2.8965e+05,1.2887e+08,3,5400,5400,14.58,2.77,30,37,0,0
2.9011e+05,1.2898e+08,3,5398,5371,14.67,3.01,30,37,0,0
2.9056e+05,1.2909e+08,3,5374,5414,14.67,2.72,30,37,0,0
2.91e+05,1.292e+08,3,5420,5485,14.57,2.84,30,37,0,0
2.914e+05,1.293e+08,3,5487,5600,14.63,3.17,30,37,0,0
2.9229e+05,1.2951e+08,3,5595,5414,14.7,2.64,30,37,0,0
2.9274e+05,1.2962e+08,3,5416,5457,14.69,2.69,30,37,0,0
2.9319e+05,1.2973e+08,3,5452,5385,14.72,2.51,30,37,0,0
2.9358e+05,1.2983e+08,3,5387,5428,14.7,2.66,30,37,0,0
2.9403e+05,1.2994e+08,3,5412,5071,14.71,2.19,30,38,0,0
2.9449e+05,1.3005e+08,3,5064,5000,15.24,1.19,30,38,0,0
2.9493e+05,1.3016e+08,3,4874,3642,14.94,1.58,30,38,0,0
2.9533e+05,1.3026e+08,3,3625,2600,15.13,0.08,30,38,0,0
2.9583e+05,1.3038e+08,3,2560,2185,15.11,0.07,30,38,0,0
2.9622e+05,1.3048e+08,3,2174,1971,15.08,0.19,30,38,0,0
2.9668e+05,1.3059e+08,3,1975,2071,15.1,0.31,30,38,0,0
2.9757e+05,1.3082e+08,3,2071,2071,15.09,0.24,30,38,0,0
2.9843e+05,1.3103e+08,3,2068,2014,15.09,0.26,30,38,0,0
2.99e+05,1.3124e+08,3,2028,2042,15.1,0.23,30,38,0,0
2.9945e+05,1.3135e+08,3,2041,2000,15.11,0.21,30,38,0,0
2.9989e+05,1.3145e+08,3,2000,2000,15.11,0.19,30,38,0,0
3.0035e+05,1.3156e+08,3,2000,2000,15.1,0.24,30,38,0,0
3.0079e+05,1.3167e+08,3,2000,2000,15.11,0.24,30,38,0,0
3.0124e+05,1.3178e+08,3,2000,2014,15.11,0.19,30,38,0,0
3.0165e+05,1.3188e+08,3,2013,1957,15.13,0.19,30,38,0,0
3.0214e+05,1.32e+08,3,1935,1728,15.18,0.02,30,38,0,0
3.0258e+05,1.3211e+08,3,1696,1400,15.17,0.01,30,38,0,0
3.0307e+05,1.3222e+08,3,1387,1271,15.16,0.08,30,38,0,0
3.0347e+05,1.3232e+08,3,1269,1242,15.16,0.1,30,38,0,0
3.0436e+05,1.3254e+08,3,1241,1228,15.16,0.1,29,38,0,0
3.0485e+05,1.3265e+08,3,1229,1242,15.16,0.1,30,38,0,0
3.0529e+05,1.3276e+08,3,1242,1242,15.16,0.1,29,38,0,0
3.0574e+05,1.3287e+08,3,1240,1228,15.17,0.1,29,38,0,0
3.0619e+05,1.3297e+08,3,1228,1242,15.17,0.1,30,38,0,0
3.0659e+05,1.3308e+08,3,1242,1242,15.16,0.1,30,38,0,0
3.0709e+05,1.3319e+08,3,1242,1242,15.17,0.1,30,38,0,0
3.0749e+05,1.3329e+08,3,1242,1242,15.17,0.1,29,38,0,0
3.0794e+05,1.334e+08,3,1242,1242,15.17,0.1,29,38,0,0
3.0838e+05,1.3351e+08,3,1212,542,15.2,0.01,29,38,0,0
3.0882e+05,1.3362e+08,3,537,228,15.19,0.02,29,38,0,0
3.0927e+05,1.3372e+08,3,224,0,15.19,0.04,29,38,0,0
3.1021e+05,1.3395e+08,3,0,0,15.2,0.04,29,38,0,0
3.1067e+05,1.3406e+08,3,0,0,15.2,0.04,29,38,0,0
3.1112e+05,1.3416e+08,3,0,0,15.2,0.04,29,38,0,0
3.1157e+05,1.3427e+08,3,0,0,15.2,0.04,29,38,0,0
3.1202e+05,1.3437e+08,3,0,0,15.19,0.04,29,38,0,0
3.1252e+05,1.3449e+08,3,0,0,15.2,0.04,29,38,0,0
3.1297e+05,1.346e+08,3,0,0,15.2,0.04,29,38,0,0
3.1342e+05,1.347e+08,3,0,0,15.2,0.04,29,38,0,0
3.1391e+05,1.3482e+08,3,0,0,15.21,0.04,29,38,0,0
3.1432e+05,1.3491e+08,3,0,0,15.2,0.04,29,38,0,0
3.1482e+05,1.3503e+08,3,0,0,15.2,0.04,29,38,0,0
3.1527e+05,1.3514e+08,3,0,0,15.21,0.04,29,38,0,0
3.1573e+05,1.3525e+08,3,0,0,15.22,0.04,29,38,0,0
3.1618e+05,1.3535e+08,3,0,0,15.22,0.04,29,38,0,0
3.1663e+05,1.3546e+08,3,0,0,15.21,0.04,29,38,0,0
3.1713e+05,1.3558e+08,3,0,0,15.21,0.04,29,38,0,0
3.1758e+05,1.3569e+08,3,0,0,15.22,0.04,29,38,0,0
3.1803e+05,1.3579e+08,3,0,0,15.22,0.04,29,38,0,0
3.1848e+05,1.359e+08,3,0,0,15.22,0.04,29,38,0,0
3.1898e+05,1.3601e+08,3,0,0,15.22,0.04,29,38,0,0
3.1943e+05,1.3612e+08,3,0,0,15.22,0.05,29,38,0,0
3.1987e+05,1.3623e+08,3,0,0,15.23,0.04,29,38,0,0
3.2037e+05,1.3634e+08,3,0,0,15.22,0.04,29,38,0,0
3.205e+05,1.3644e+08,3,0,0,15.22,0.04,29,38,0,0
3.2099e+05,1.3655e+08,3,0,0,15.23,0.04,29,38,0,0
3.2143e+05,1.3666e+08,3,0,0,15.23,0.04,29,38,0,0
3.2193e+05,1.3678e+08,3,0,0,15.23,0.04,29,38,0,0
3.2288e+05,1.37e+08,3,0,0,15.23,0.04,29,38,0,0
3.2423e+05,1.3732e+08,3,0,0,15.23,0.04,29,38,0,0
3.2513e+05,1.3753e+08,3,0,0,15.23,0.04,29,38,0,0
3.2563e+05,1.3765e+08,3,0,0,15.24,0.04,29,38,0,0
3.2608e+05,1.3775e+08,3,0,0,15.24,0.04,29,38,0,0
3.2652e+05,1.3785e+08,3,0,0,15.24,0.04,29,38,0,0
3.2702e+05,1.3797e+08,3,0,0,15.23,0.04,29,38,0,0
3.2747e+05,1.3808e+08,3,0,0,15.24,0.04,29,38,0,0
3.2792e+05,1.3818e+08,3,0,0,15.25,0.04,29,38,0,0
3.2837e+05,1.3829e+08,3,0,0,15.25,0.04,29,38,0,0
3.2887e+05,1.3841e+08,3,0,0,15.24,0.04,29,38,0,0
3.2932e+05,1.3852e+08,3,0,0,15.25,0.04,29,38,0,0
3.2977e+05,1.3862e+08,3,0,0,15.24,0.04,29,38,0,0
3.3022e+05,1.3873e+08,3,0,0,15.25,0.04,29,38,0,0
3.3068e+05,1.3884e+08,3,0,0,15.25,0.04,29,38,0,0
3.3113e+05,1.3895e+08,3,0,0,15.25,0.04,29,38,0,0
3.3162e+05,1.3906e+08,3,0,0,15.25,0.04,29,38,0,0
