LineNo,TimeUS,I,GyrX,GyrY,GyrZ,AccX,AccY,AccZ,EG,EA,T,GH,AH,GHz,AHz
183,5.7935e+07,1,0.0076235,0.0060281,0.0030044,-0.22605,0.069332,-9.8046,0,0,45.633,1,1,754,998
294,5.7959e+07,1,0.00018214,-0.0012335,-0.0016608,-0.2069,-0.013334,-9.9059,0,0,45.633,1,1,754,998
325,5.7961e+07,1,0.00025093,-0.00089931,-0.0006688,-0.21847,-0.013154,-9.8842,0,0,45.633,1,1,754,998
408,5.7983e+07,1,-0.0064789,-0.0062104,0.0018545,-0.28277,0.019359,-9.8449,0,0,45.633,1,1,754,998
521,5.8007e+07,1,-0.00083208,0.0019885,-0.002049,-0.23193,0.038705,-9.8484,0,0,45.633,1,1,754,998
524,5.8009e+07,1,5.5313e-05,0.0031515,-0.0033702,-0.23928,0.035096,-9.8395,0,0,45.633,1,1,754,998
555,5.8012e+07,1,-0.00031722,0.004029,-0.0056033,-0.25721,0.013164,-9.835,0,0,45.633,1,1,754,998
630,5.8031e+07,1,0.00074309,-0.0027644,-0.0054206,-0.23982,-0.074623,-9.7706,0,0,45.633,1,1,754,998
746,5.8053e+07,1,-0.0017364,0.0096255,-0.00048906,-0.22167,0.02504,-9.7505,0,0,45.633,1,1,754,998
777,5.8056e+07,1,-0.0015071,0.0053273,0.0027964,-0.21852,0.053114,-9.7645,0,0,45.633,1,1,754,998
857,5.8074e+07,1,6.716e-05,-0.0058477,0.00038119,-0.13421,0.029885,-9.7993,0,0,45.633,1,1,754,998
973,5.8096e+07,1,-0.0016127,6.0406e-05,-0.0025443,-0.22874,-0.015485,-9.8694,0,0,45.633,1,1,754,998
1088,5.814e+07,1,0.0057862,0.0015573,0.0044028,-0.14939,-0.047239,-9.9105,0,0,45.633,1,1,754,998
1203,5.823e+07,1,-0.00013578,-0.0045237,0.00088492,-0.24249,-0.087751,-9.7885,0,0,45.632,1,1,754,998
1294,5.8278e+07,1,-0.0028656,0.0040227,-0.0053078,-0.23446,0.029649,-9.7437,0,0,45.631,1,1,754,998
1325,5.8281e+07,1,-0.0027581,0.0047036,-0.0026813,-0.22491,-0.0016077,-9.7829,0,0,45.631,1,1,754,998
1388,5.8291e+07,1,0.00024042,0.0047822,0.0034622,-0.1912,-0.024712,-9.8149,0,0,45.631,1,1,754,998
1391,5.8293e+07,1,-0.00035306,0.0057429,0.0027587,-0.18343,-0.0091461,-9.8298,0,0,45.631,1,1,754,998
1422,5.8296e+07,1,-0.00059147,0.009277,0.0022796,-0.17962,0.013366,-9.8408,0,0,45.63,1,1,754,998
1483,5.831e+07,1,-0.00041422,0.0023424,-0.0025658,-0.25568,0.017814,-9.867,0,0,45.63,1,1,754,998
1571,5.8327e+07,1,0.0047322,-0.0018187,0.0011159,-0.22863,-0.017082,-9.8744,0,0,45.63,1,1,754,998
1602,5.833e+07,1,0.0058179,-0.0038089,0.00039185,-0.2154,-0.012778,-9.8709,0,0,45.63,1,1,754,998
1615,5.8333e+07,1,0.0044992,-0.0043779,0.0038224,-0.19661,-0.0086917,-9.8507,0,0,45.63,1,1,754,998
1618,5.8335e+07,1,0.0023709,-0.0050407,0.0052204,-0.17492,0.0093803,-9.8315,0,0,45.63,1,1,754,998
1625,5.8338e+07,1,-0.0012045,-0.007447,0.0072057,-0.13857,0.043188,-9.8097,0,0,45.629,1,1,754,998
1656,5.8341e+07,1,-0.0015666,-0.0069113,0.0069151,-0.12041,0.070046,-9.7792,0,0,45.629,1,1,754,998
1659,5.8343e+07,1,-0.0022565,-0.0057589,0.005753,-0.1149,0.080356,-9.7544,0,0,45.629,1,1,754,998
1662,5.8346e+07,1,-0.0026598,-0.0020321,0.003314,-0.11429,0.089971,-9.7273,0,0,45.629,1,1,754,998
1666,5.8348e+07,1,0.00049981,0.0012373,0.0015273,-0.11693,0.096239,-9.7102,0,0,45.629,1,1,754,998
1697,5.835e+07,1,0.0037498,0.0024711,-0.00033188,-0.12403,0.097232,-9.6825,0,0,45.629,1,1,754,998
1700,5.8353e+07,1,0.004403,0.0032665,-0.0035195,-0.12758,0.099257,-9.665,0,0,45.629,1,1,754,998
1703,5.8355e+07,1,0.0029834,0.0048101,-0.0042018,-0.1446,0.093994,-9.6594,0,0,45.629,1,1,754,998
1706,5.8358e+07,1,0.0024345,0.0068784,-0.0039219,-0.15448,0.090595,-9.6797,0,0,45.629,1,1,754,998
1737,5.836e+07,1,0.004283,0.0047561,-0.002155,-0.16974,0.072025,-9.7065,0,0,45.629,1,1,754,998
1740,5.8363e+07,1,0.0063194,0.00011962,0.00035751,-0.18209,0.059927,-9.7135,0,0,45.629,1,1,754,998
1743,5.8366e+07,1,0.0048408,-0.0016053,0.0040684,-0.19325,0.046378,-9.7198,0,0,45.629,1,1,754,998
1747,5.8368e+07,1,0.00086437,-0.0025148,0.005309,-0.20268,0.014755,-9.7586,0,0,45.629,1,1,754,998
1778,5.8371e+07,1,-0.0019063,-0.0019748,0.0056898,-0.21354,-0.01623,-9.7977,0,0,45.628,1,1,754,998
1781,5.8374e+07,1,-0.00079446,-0.0010606,0.0071163,-0.22098,-0.034957,-9.817,0,0,45.628,1,1,754,998
1784,5.8378e+07,1,0.002019,0.00012947,0.007989,-0.21709,-0.074919,-9.8351,0,0,45.628,1,1,754,998
1787,5.8382e+07,1,0.0050769,0.0016118,0.0056924,-0.19627,-0.11529,-9.8346,0,0,45.628,1,1,754,998
1819,5.8385e+07,1,0.0060263,8.8744e-05,0.0049936,-0.19313,-0.11533,-9.8354,0,0,45.628,1,1,754,998
1822,5.8387e+07,1,0.0049296,-4.6915e-05,0.0038181,-0.19833,-0.10959,-9.8293,0,0,45.628,1,1,754,998
1825,5.839e+07,1,0.0042874,0.00022118,0.0025662,-0.20952,-0.077534,-9.8223,0,0,45.628,1,1,754,998
1830,5.8393e+07,1,0.0043657,-0.00062493,-2.099e-05,-0.21754,-0.045982,-9.8273,0,0,45.628,1,1,754,998
1861,5.8395e+07,1,0.0046574,-0.00046678,-0.0018887,-0.21768,-0.014032,-9.8242,0,0,45.627,1,1,754,998
1865,5.8397e+07,1,0.0037595,0.0026685,-0.0031318,-0.22403,-0.0056004,-9.8211,0,0,45.627,1,1,754,998
1868,5.8401e+07,1,0.0035638,0.0026647,-0.0028419,-0.2397,-0.0094123,-9.8224,0,0,45.627,1,1,754,998
1871,5.8403e+07,1,0.0037699,-7.492e-05,-4.1029e-05,-0.24959,-0.0099054,-9.816,0,0,45.627,1,1,754,998
1902,5.8406e+07,1,0.0011422,0.0013697,0.0035038,-0.25997,-0.015826,-9.832,0,0,45.627,1,1,754,998
1906,5.8408e+07,1,0.00025731,0.0027171,0.0034482,-0.26836,-0.026233,-9.8423,0,0,45.627,1,1,754,998
1909,5.841e+07,1,0.0015101,0.0049228,0.00018726,-0.26537,-0.032866,-9.8554,0,0,45.627,1,1,754,998
1912,5.8413e+07,1,0.0032695,0.005074,0.00028933,-0.25824,-0.037416,-9.8507,0,0,45.627,1,1,754,998
1943,5.8415e+07,1,0.0054209,0.0046261,-0.00070563,-0.23902,-0.044159,-9.8234,0,0,45.627,1,1,754,998
1947,5.8418e+07,1,0.0052275,0.0046403,-0.0027042,-0.21261,-0.046092,-9.7984,0,0,45.627,1,1,754,998
1950,5.8421e+07,1,0.0048186,0.0048668,-0.0027724,-0.19469,-0.036519,-9.7774,0,0,45.627,1,1,754,998
1953,5.8424e+07,1,0.004758,0.0069581,-0.0040416,-0.17651,-0.0027376,-9.7615,0,0,45.627,1,1,754,998
1984,5.8426e+07,1,-0.00070839,0.0063112,-0.002696,-0.17115,0.023285,-9.7614,0,0,45.626,1,1,754,998
1987,5.8429e+07,1,-0.0044973,0.0050493,-0.0013456,-0.17005,0.039281,-9.7564,0,0,45.626,1,1,754,998
1990,5.8431e+07,1,-0.0096763,0.003095,0.0011057,-0.17347,0.05003,-9.7552,0,0,45.626,1,1,754,998
1994,5.8434e+07,1,-0.010999,0.0042165,0.0021409,-0.18158,0.059129,-9.755,0,0,45.626,1,1,754,998
2025,5.8437e+07,1,-0.010664,0.0068033,0.0010472,-0.18915,0.056184,-9.7225,0,0,45.626,1,1,754,998
2029,5.844e+07,1,-0.0083346,0.0069414,-0.0024288,-0.19479,0.032071,-9.6938,0,0,45.626,1,1,754,998
2037,5.8442e+07,1,-0.0052333,0.0062778,-0.0062087,-0.20317,0.024481,-9.6928,0,0,45.626,1,1,754,998
2040,5.8444e+07,1,-0.0035764,0.0057622,-0.0071997,-0.19668,0.020466,-9.7067,0,0,45.626,1,1,754,998
2073,5.8447e+07,1,-0.0042299,0.0030564,-0.0045203,-0.17796,0.01982,-9.7233,0,0,45.625,1,1,754,998
2076,5.845e+07,1,-0.0043803,0.0030592,-0.0040902,-0.18516,0.011062,-9.7326,0,0,45.625,1,1,754,998
2079,5.8452e+07,1,-0.002348,0.0035244,-0.0026484,-0.19448,0.0060957,-9.7391,0,0,45.625,1,1,754,998
2082,5.8455e+07,1,0.0011918,0.0002707,-0.0026726,-0.20167,0.0054533,-9.7453,0,0,45.625,1,1,754,998
2113,5.8457e+07,1,0.00066123,-0.0017596,-0.0039951,-0.20104,-0.0052601,-9.7679,0,0,45.625,1,1,754,998
2117,5.846e+07,1,-0.001016,-0.0011332,-0.0028367,-0.20105,-0.01358,-9.7829,0,0,45.625,1,1,754,998
2120,5.8462e+07,1,-0.00099554,-0.00059189,-0.0016483,-0.20539,-0.016957,-9.7954,0,0,45.625,1,1,754,998
2123,5.8464e+07,1,0.00039984,-0.00010658,-0.0010629,-0.21456,-0.0037842,-9.8147,0,0,45.625,1,1,754,998
2154,5.8467e+07,1,0.0022185,0.0024574,-0.0016296,-0.21686,0.0021513,-9.8188,0,0,45.625,1,1,754,998
2157,5.8469e+07,1,0.0010352,0.0069748,-0.0010557,-0.22254,0.012953,-9.8152,0,0,45.625,1,1,754,998
2160,5.8473e+07,1,-0.00065739,0.0059475,0.00093448,-0.22046,0.012998,-9.801,0,0,45.625,1,1,754,998
2163,5.8474e+07,1,-0.00126,0.0011583,0.0024735,-0.21964,-0.0038459,-9.795,0,0,45.625,1,1,754,998
2194,5.8477e+07,1,0.00031208,-0.0014265,0.0021589,-0.21996,-0.020331,-9.8158,0,0,45.625,1,1,754,998
2198,5.8479e+07,1,0.0030482,-0.0024136,0.0018149,-0.22161,-0.026749,-9.8261,0,0,45.625,1,1,754,998
2201,5.8482e+07,1,0.0042961,-0.0025567,0.0020811,-0.22522,-0.030609,-9.8346,0,0,45.624,1,1,754,998
2204,5.8484e+07,1,0.003987,-0.0039184,0.0010961,-0.23557,-0.030584,-9.857,0,0,45.624,1,1,754,998
2235,5.8487e+07,1,0.00090352,-0.004239,-0.0024703,-0.24729,-0.026022,-9.8616,0,0,45.624,1,1,754,998
2239,5.8491e+07,1,-0.00087914,-0.0046539,-0.0029115,-0.24592,-0.019849,-9.8438,0,0,45.624,1,1,754,998
2242,5.8492e+07,1,-0.0036229,-0.0042453,-0.0033075,-0.22833,-0.024288,-9.7965,0,0,45.624,1,1,754,998
2246,5.8495e+07,1,-0.0034948,-0.0046747,-0.003476,-0.22399,-0.034411,-9.7688,0,0,45.624,1,1,754,998
2277,5.8497e+07,1,-0.0027602,-0.0069541,-0.0036305,-0.23225,-0.038996,-9.7569,0,0,45.624,1,1,754,998
2280,5.8501e+07,1,-0.0033581,-0.010064,-0.0027843,-0.24071,-0.038533,-9.7574,0,0,45.624,1,1,754,998
2283,5.8502e+07,1,-0.0046936,-0.0094588,-0.00095161,-0.25964,-0.027382,-9.7492,0,0,45.624,1,1,754,998
2289,5.8505e+07,1,-0.0037953,-0.0052989,0.0013813,-0.26692,-0.020896,-9.7429,0,0,45.624,1,1,754,998
2320,5.8508e+07,1,-0.0015221,-0.0012111,0.0032906,-0.26912,-0.017043,-9.7511,0,0,45.624,1,1,754,998
2324,5.851e+07,1,-0.00026364,0.00053981,0.0043573,-0.26095,-0.029166,-9.7603,0,0,45.624,1,1,754,998
2327,5.8512e+07,1,0.0027385,0.0027008,0.0043214,-0.25151,-0.067803,-9.775,0,0,45.624,1,1,754,998
2330,5.8514e+07,1,0.0026539,0.0029547,0.0037101,-0.25132,-0.09321,-9.7933,0,0,45.623,1,1,754,998
2361,5.8517e+07,1,0.00056204,0.0025477,0.0022977,-0.2548,-0.092132,-9.8347,0,0,45.623,1,1,754,998
2364,5.852e+07,1,-0.00045468,-0.0008034,0.0019973,-0.25267,-0.082095,-9.8624,0,0,45.623,1,1,754,998
2367,5.8522e+07,1,-0.00029573,-0.0038759,0.0022075,-0.2405,-0.05293,-9.8778,0,0,45.623,1,1,754,998
2370,5.8525e+07,1,0.0014918,-0.0042212,0.00032835,-0.23504,-0.030759,-9.8818,0,0,45.623,1,1,754,998
2401,5.8528e+07,1,0.0031717,-0.0035274,-0.00193,-0.22961,-0.0061452,-9.8784,0,0,45.623,1,1,754,998
2405,5.853e+07,1,0.0028641,-0.0042526,-0.00099413,-0.2227,0.0093345,-9.8731,0,0,45.623,1,1,754,998
2408,5.8532e+07,1,0.0030739,-0.0044363,-0.00041094,-0.21673,0.020077,-9.8728,0,0,45.623,1,1,754,998
2411,5.8535e+07,1,0.0033643,-0.0044327,-0.00071826,-0.22478,0.013471,-9.8652,0,0,45.623,1,1,754,998
2442,5.8537e+07,1,0.0030474,-0.0041034,4.8759e-05,-0.24015,-0.00027894,-9.8641,0,0,45.623,1,1,754,998
2446,5.854e+07,1,0.0028874,-0.0035964,0.00040539,-0.24125,-0.01426,-9.8678,0,0,45.623,1,1,754,998
2454,5.8542e+07,1,0.0033915,-0.0018449,-0.00083357,-0.23589,-0.044412,-9.8645,0,0,45.623,1,1,754,998
2457,5.8545e+07,1,0.0036776,-0.0027207,-0.0031491,-0.23033,-0.062361,-9.8503,0,0,45.623,1,1,754,998
2488,5.8547e+07,1,0.0019677,-0.0060782,-0.0028432,-0.22458,-0.068645,-9.8352,0,0,45.622,1,1,754,998
2492,5.855e+07,1,-0.0019739,-0.0069965,-0.0008178,-0.21681,-0.051926,-9.8234,0,0,45.622,1,1,754,998
2495,5.8553e+07,1,-0.0061312,-0.0064435,-0.00010265,-0.21355,-0.046406,-9.8094,0,0,45.622,1,1,754,998
2498,5.8556e+07,1,-0.0053123,-0.0036124,-0.00038637,-0.22123,-0.040466,-9.7809,0,0,45.622,1,1,754,998
2529,5.8558e+07,1,-0.00066608,-0.00099449,-0.0017381,-0.22395,-0.017821,-9.7621,0,0,45.622,1,1,754,998
2533,5.8561e+07,1,0.0027764,-0.003108,-0.0040057,-0.22193,-0.0043038,-9.7531,0,0,45.622,1,1,754,998
2536,5.8563e+07,1,0.0047192,-0.0054737,-0.002909,-0.22263,0.004645,-9.7299,0,0,45.622,1,1,754,998
2539,5.8566e+07,1,0.0028523,-0.0051434,-0.0016607,-0.22667,0.007579,-9.7092,0,0,45.622,1,1,754,998
2570,5.8569e+07,1,0.0013211,-0.0049175,-0.00022741,-0.23703,0.0089633,-9.6797,0,0,45.622,1,1,754,998
2573,5.857e+07,1,0.0018971,-0.0050913,0.0006487,-0.24226,0.010189,-9.6696,0,0,45.622,1,1,754,998
2576,5.8573e+07,1,0.0031729,-0.0039632,0.00010256,-0.24916,0.011312,-9.6553,0,0,45.622,1,1,754,998
2579,5.8576e+07,1,0.0038334,-0.0033768,-0.00028985,-0.25256,0.00074654,-9.6655,0,0,45.622,1,1,754,998
2613,5.8582e+07,1,0.0032302,-0.0035869,0.0024002,-0.24911,-0.037883,-9.7372,0,0,45.622,1,1,754,998
2617,5.8583e+07,1,0.0023937,-0.0034994,0.0016979,-0.24074,-0.043563,-9.7452,0,0,45.622,1,1,754,998
2620,5.8586e+07,1,0.00012442,-0.0041684,0.0017338,-0.23329,-0.059162,-9.7641,0,0,45.622,1,1,754,998
2651,5.8588e+07,1,-0.00051457,-0.0038522,0.0019493,-0.23129,-0.062528,-9.7787,0,0,45.622,1,1,754,998
2654,5.8591e+07,1,-0.00093728,-0.0025974,0.0017221,-0.22787,-0.062121,-9.7951,0,0,45.621,1,1,754,998
2658,5.8594e+07,1,-0.00094005,0.0016196,0.00046229,-0.22803,-0.064652,-9.8077,0,0,45.621,1,1,754,998
2663,5.8597e+07,1,-0.0016943,0.0048808,-0.00052916,-0.24116,-0.054222,-9.8161,0,0,45.621,1,1,754,998
2694,5.8599e+07,1,-0.0020455,0.0026233,-0.00093772,-0.24624,-0.039328,-9.8153,0,0,45.621,1,1,754,998
2697,5.8602e+07,1,-0.0025026,-0.0017346,-0.00049106,-0.23755,-0.030951,-9.8154,0,0,45.621,1,1,754,998
2701,5.8604e+07,1,-0.0026054,-0.0035237,-0.0032299,-0.21633,-0.021689,-9.8045,0,0,45.621,1,1,754,998
2704,5.8607e+07,1,-0.0016542,-0.0027439,-0.0064008,-0.20446,-0.017443,-9.7921,0,0,45.621,1,1,754,998
2735,5.861e+07,1,-0.00094839,-0.00085037,-0.0077288,-0.19581,-0.0092757,-9.7717,0,0,45.621,1,1,754,998
2738,5.8612e+07,1,-0.0027475,6.1213e-05,-0.0067275,-0.17999,0.0065198,-9.7392,0,0,45.621,1,1,754,998
2742,5.8614e+07,1,-0.0029329,0.00018638,-0.0041647,-0.16965,0.015456,-9.7322,0,0,45.621,1,1,754,998
2745,5.8617e+07,1,-0.000898,-0.001017,-0.0017893,-0.15751,0.028017,-9.7504,0,0,45.621,1,1,754,998
2776,5.862e+07,1,-0.00044173,-0.0014606,-0.0014503,-0.15684,0.035923,-9.7686,0,0,45.621,1,1,754,998
2779,5.8622e+07,1,0.00067158,0.00028229,-0.00022066,-0.17859,0.036839,-9.7887,0,0,45.621,1,1,754,998
2782,5.8624e+07,1,0.0011502,0.0015313,0.00038494,-0.20242,0.029689,-9.7968,0,0,45.62,1,1,754,998
2785,5.8627e+07,1,-4.7563e-05,0.0017998,0.0017776,-0.23483,0.013213,-9.8124,0,0,45.62,1,1,754,998
2817,5.863e+07,1,-0.00021453,0.00099083,0.0027664,-0.25524,0.0045139,-9.8178,0,0,45.62,1,1,754,998
2820,5.8632e+07,1,0.0013175,-0.0033826,0.0061524,-0.2816,-0.013221,-9.8258,0,0,45.62,1,1,754,998
2824,5.8635e+07,1,0.0036065,-0.0061333,0.0098259,-0.28976,-0.022742,-9.823,0,0,45.62,1,1,754,998
2828,5.8638e+07,1,0.0029854,-0.0058842,0.010644,-0.2967,-0.031033,-9.8179,0,0,45.62,1,1,754,998
2859,5.864e+07,1,-0.0015364,-0.0038669,0.0080071,-0.29793,-0.032391,-9.812,0,0,45.62,1,1,754,998
2862,5.8642e+07,1,-0.0043999,-0.00091655,0.0049872,-0.30433,-0.030237,-9.8058,0,0,45.62,1,1,754,998
2869,5.8646e+07,1,-0.0044828,0.00030112,0.003737,-0.30818,-0.029161,-9.7962,0,0,45.62,1,1,754,998
2872,5.8647e+07,1,-0.0029451,0.0039284,0.00044104,-0.317,-0.019307,-9.7625,0,0,45.62,1,1,754,998
2903,5.865e+07,1,-0.00081532,0.0044315,-0.0012641,-0.32868,-0.011342,-9.7418,0,0,45.62,1,1,754,998
2906,5.8652e+07,1,0.00051219,0.0041391,-0.0021173,-0.34143,-0.011437,-9.7344,0,0,45.62,1,1,754,998
2910,5.8655e+07,1,0.003565,0.0028606,-0.0039259,-0.34782,-0.023279,-9.7586,0,0,45.62,1,1,754,998
2913,5.8658e+07,1,0.0038306,0.0021566,-0.0036969,-0.35932,-0.037989,-9.8185,0,0,45.62,1,1,754,998
2944,5.866e+07,1,0.0030543,0.0010563,-0.0027383,-0.35228,-0.043614,-9.8644,0,0,45.62,1,1,754,998
2947,5.8663e+07,1,0.0029196,0.0012694,-0.0031517,-0.34026,-0.038859,-9.8847,0,0,45.62,1,1,754,998
2951,5.8666e+07,1,0.00070324,0.00039654,-0.0029358,-0.32098,-0.028812,-9.9034,0,0,45.62,1,1,754,998
2954,5.8668e+07,1,-0.0025525,0.00029484,-0.0023779,-0.3008,-0.03282,-9.9063,0,0,45.62,1,1,754,998
2985,5.8671e+07,1,-0.0034044,-0.00081068,-0.0001053,-0.24481,-0.066711,-9.858,0,0,45.62,1,1,754,998
2989,5.8673e+07,1,-0.0044296,-0.0010468,-0.00059308,-0.22068,-0.079934,-9.8402,0,0,45.62,1,1,754,998
2992,5.8676e+07,1,-0.006022,0.00104,-0.0028041,-0.20011,-0.082144,-9.83,0,0,45.62,1,1,754,998
2995,5.8679e+07,1,-0.0057036,0.0013228,-0.0018877,-0.17341,-0.083368,-9.8345,0,0,45.62,1,1,754,998
3026,5.8683e+07,1,-0.0054366,0.002221,0.00027581,-0.153,-0.084668,-9.8433,0,0,45.619,1,1,754,998
3029,5.8684e+07,1,-0.0023723,0.00033231,0.0017041,-0.1339,-0.09033,-9.8452,0,0,45.619,1,1,754,998
3033,5.8687e+07,1,-0.00029702,-0.0015873,0.00074507,-0.12622,-0.093192,-9.8312,0,0,45.619,1,1,754,998
3036,5.8689e+07,1,0.0019426,-0.0055788,-0.00052152,-0.11548,-0.099252,-9.7966,0,0,45.619,1,1,754,998
3067,5.8693e+07,1,0.0021521,-0.0067189,-0.0008432,-0.11884,-0.077089,-9.7535,0,0,45.619,1,1,754,998
3070,5.8694e+07,1,0.002749,-0.0067863,0.00050992,-0.12528,-0.056325,-9.74,0,0,45.619,1,1,754,998
3073,5.8697e+07,1,0.0044378,-0.0083119,0.0041411,-0.13347,-0.038376,-9.7308,0,0,45.619,1,1,754,998
3076,5.8699e+07,1,0.005308,-0.008928,0.0039997,-0.15344,-0.0054456,-9.7413,0,0,45.619,1,1,754,998
3107,5.8702e+07,1,0.0058402,-0.0091802,0.0013747,-0.18278,0.023464,-9.7583,0,0,45.619,1,1,754,998
3110,5.8705e+07,1,0.004823,-0.009344,-0.0024342,-0.20378,0.035178,-9.7691,0,0,45.619,1,1,754,998
3114,5.8707e+07,1,0.0040354,-0.008564,-0.0049045,-0.22297,0.035658,-9.7795,0,0,45.619,1,1,754,998
3117,5.8712e+07,1,0.0054383,0.001471,-0.0045919,-0.25406,0.017904,-9.7782,0,0,45.619,1,1,754,998
3148,5.8715e+07,1,0.0039534,0.00089534,-0.0030547,-0.26309,0.012952,-9.785,0,0,45.619,1,1,754,998
3151,5.8717e+07,1,0.002267,-0.0015946,0.00414,-0.28928,0.0040754,-9.7945,0,0,45.619,1,1,754,998
3154,5.872e+07,1,0.0027509,-0.0013497,0.0063824,-0.3034,-0.0039585,-9.7957,0,0,45.619,1,1,754,998
3157,5.8723e+07,1,0.0041167,0.0011513,0.0093791,-0.31917,-0.0041688,-9.797,0,0,45.619,1,1,754,998
3188,5.8725e+07,1,0.0044341,0.0044052,0.0081023,-0.32988,-0.0019343,-9.8024,0,0,45.619,1,1,754,998
3192,5.8727e+07,1,0.0025802,0.0056126,0.0058127,-0.32134,0.0041234,-9.8207,0,0,45.619,1,1,754,998
3195,5.873e+07,1,-0.00068449,0.0074817,0.0014304,-0.3043,-0.0020155,-9.8624,0,0,45.619,1,1,754,998
3198,5.8733e+07,1,-0.0016755,0.0074491,-0.00015338,-0.2926,-0.012073,-9.8917,0,0,45.619,1,1,754,998
3229,5.8735e+07,1,-0.0022232,0.0056383,-0.00010378,-0.2784,-0.016915,-9.9151,0,0,45.618,1,1,754,998
3232,5.8738e+07,1,-0.0026452,0.0018241,0.0011164,-0.28357,-0.0090763,-9.9449,0,0,45.618,1,1,754,998
3235,5.874e+07,1,-0.0032863,0.00062484,-4.9232e-05,-0.29077,-0.011156,-9.9736,0,0,45.618,1,1,754,998
3240,5.8743e+07,1,-0.0034512,0.00083283,-0.00057985,-0.30009,-0.014485,-9.9964,0,0,45.618,1,1,754,998
3271,5.8746e+07,1,-0.00011724,0.0022684,0.0028716,-0.31162,-0.012999,-10.023,0,0,45.618,1,1,754,998
3279,5.8749e+07,1,-0.00055154,0.0022077,0.0028363,-0.32009,-0.0037879,-10.028,0,0,45.618,1,1,754,998
3282,5.8751e+07,1,-0.0026946,0.0019984,0.0017341,-0.32296,0.020273,-10.037,0,0,45.618,1,1,754,998
3285,5.8754e+07,1,-0.0053639,0.002658,0.0018673,-0.31623,0.039092,-10.025,0,0,45.618,1,1,754,998
3316,5.8757e+07,1,-0.0047389,0.0014364,0.0032448,-0.29418,0.054037,-9.9881,0,0,45.618,1,1,754,998
3319,5.8759e+07,1,-0.0014063,0.0022561,0.0037785,-0.27453,0.049,-9.9729,0,0,45.618,1,1,754,998
3322,5.8761e+07,1,0.00039154,0.003331,0.00398,-0.26764,0.038836,-9.9685,0,0,45.618,1,1,754,998
3325,5.8764e+07,1,0.0013512,0.00039824,0.0031836,-0.25694,0.029203,-9.9458,0,0,45.618,1,1,754,998
3356,5.8766e+07,1,0.0028586,-0.0054666,0.0014012,-0.25143,0.022947,-9.9243,0,0,45.618,1,1,754,998
3359,5.877e+07,1,0.00074242,-0.0063219,-0.00031168,-0.24819,0.010792,-9.8827,0,0,45.618,1,1,754,998
3362,5.8772e+07,1,-0.0013483,-0.0055873,-0.0015773,-0.2414,0.0098391,-9.8518,0,0,45.618,1,1,754,998
3365,5.8774e+07,1,-0.0060957,-0.0043908,9.8527e-05,-0.22402,0.024566,-9.811,0,0,45.618,1,1,754,998
3396,5.8776e+07,1,-0.0072908,-0.0047279,0.0017074,-0.21166,0.034829,-9.7764,0,0,45.618,1,1,754,998
3399,5.8779e+07,1,-0.0053077,-0.0089733,0.0011436,-0.19813,0.045795,-9.7211,0,0,45.618,1,1,754,998
3404,5.8782e+07,1,-0.0035657,-0.010568,-0.001271,-0.19787,0.04138,-9.6941,0,0,45.618,1,1,754,998
3407,5.8784e+07,1,-0.0014828,-0.0095492,-0.0064311,-0.19954,0.025981,-9.6792,0,0,45.618,1,1,754,998
3438,5.8787e+07,1,-0.0038154,-0.0038176,-0.0069883,-0.20541,0.016126,-9.6679,0,0,45.618,1,1,754,998
3441,5.879e+07,1,-0.005709,-0.0021437,-0.0067392,-0.21671,0.014512,-9.6658,0,0,45.618,1,1,754,998
3445,5.8793e+07,1,-0.0068705,0.00035358,-0.0067244,-0.22563,0.016023,-9.7081,0,0,45.618,1,1,754,998
3448,5.8795e+07,1,-0.0046749,0.0021123,-0.0065374,-0.22633,0.017826,-9.7627,0,0,45.618,1,1,754,998
3479,5.88e+07,1,-0.00094328,0.00080682,-0.0010016,-0.24372,0.020646,-9.8749,0,0,45.618,1,1,754,998
3484,5.8803e+07,1,0.00037876,-0.0019889,0.0018935,-0.24756,0.011018,-9.8736,0,0,45.618,1,1,754,998
3487,5.8805e+07,1,0.00010223,-0.0031489,0.0015992,-0.24901,0.0040306,-9.8359,0,0,45.618,1,1,754,998
3518,5.8808e+07,1,0.00048318,-0.0012709,0.0017022,-0.24372,0.0044195,-9.7785,0,0,45.618,1,1,754,998
3521,5.8811e+07,1,-0.00018827,0.0017768,0.0026032,-0.23672,0.00072477,-9.732,0,0,45.618,1,1,754,998
3525,5.8814e+07,1,-0.00057671,0.0041004,0.0026534,-0.23372,-0.0059415,-9.7135,0,0,45.618,1,1,754,998
3528,5.8816e+07,1,-0.00075273,0.0043649,0.001485,-0.2213,-0.023229,-9.6737,0,0,45.618,1,1,754,998
3559,5.8818e+07,1,-0.0012123,-0.0013836,0.0021272,-0.20718,-0.02523,-9.6506,0,0,45.618,1,1,754,998
3562,5.8821e+07,1,-0.0014725,-0.0037864,0.0035056,-0.21154,-0.017136,-9.6528,0,0,45.618,1,1,754,998
3565,5.8824e+07,1,-0.0029964,-0.0050172,0.0048335,-0.22735,-0.016519,-9.666,0,0,45.618,1,1,754,998
3568,5.8826e+07,1,-0.0033688,-0.0043679,0.004038,-0.24259,-0.033213,-9.6751,0,0,45.618,1,1,754,998
3599,5.8828e+07,1,-0.0029151,-0.0041484,-0.00074726,-0.2698,-0.052568,-9.698,0,0,45.618,1,1,754,998
3602,5.8831e+07,1,-0.0015297,-0.0040586,-0.0024328,-0.26987,-0.05765,-9.7071,0,0,45.618,1,1,754,998
3606,5.8834e+07,1,-0.0027996,-0.0032005,-0.002796,-0.26064,-0.053508,-9.7157,0,0,45.618,1,1,754,998
3609,5.8836e+07,1,-0.0073694,0.0013163,-0.003625,-0.25059,-0.045527,-9.7269,0,0,45.618,1,1,754,998
3640,5.8839e+07,1,-0.0073246,0.0017222,-0.0028521,-0.25235,-0.049834,-9.7118,0,0,45.618,1,1,754,998
3644,5.8842e+07,1,-0.0058811,0.00045069,0.00083077,-0.27008,-0.061951,-9.6579,0,0,45.618,1,1,754,998
3648,5.8844e+07,1,-0.0037804,-0.0015785,0.0039492,-0.27343,-0.066483,-9.6317,0,0,45.618,1,1,754,998
3652,5.8846e+07,1,-0.0024886,-0.00093319,0.0034188,-0.2789,-0.063436,-9.6198,0,0,45.618,1,1,754,998
3683,5.8848e+07,1,-0.0023866,0.00064563,0.0025651,-0.27373,-0.056276,-9.6195,0,0,45.618,1,1,754,998
3690,5.8852e+07,1,-0.0029605,0.0035903,0.0020991,-0.25141,-0.02279,-9.6438,0,0,45.618,1,1,754,998
3694,5.8854e+07,1,-0.0024366,0.0049711,0.0017339,-0.24335,0.012509,-9.6743,0,0,45.618,1,1,754,998
3697,5.8856e+07,1,-0.0010597,0.0028588,0.0026815,-0.23952,0.049672,-9.7135,0,0,45.617,1,1,754,998
3728,5.8859e+07,1,0.00070348,0.00077428,0.0030137,-0.23526,0.055981,-9.7156,0,0,45.617,1,1,754,998
3731,5.8862e+07,1,0.0020735,0.00051051,0.0033495,-0.2292,0.053938,-9.7125,0,0,45.617,1,1,754,998
3734,5.8865e+07,1,0.0034156,0.00047768,0.003527,-0.22123,0.057046,-9.6884,0,0,45.617,1,1,754,998
3738,5.8866e+07,1,0.0028272,0.00089145,0.0040219,-0.2162,0.050176,-9.6726,0,0,45.617,1,1,754,998
3769,5.8869e+07,1,0.0018775,0.001017,0.0061563,-0.22291,0.032586,-9.6541,0,0,45.617,1,1,754,998
3772,5.8871e+07,1,0.0010681,-0.00080287,0.0064721,-0.23828,0.02363,-9.6391,0,0,45.617,1,1,754,998
3776,5.8874e+07,1,-0.00088618,-0.0013277,0.0064403,-0.26007,0.01914,-9.6521,0,0,45.617,1,1,754,998
3779,5.8877e+07,1,-0.0011529,-0.0027437,0.007309,-0.26953,0.016163,-9.6634,0,0,45.617,1,1,754,998
3810,5.888e+07,1,-0.00014409,-0.0051906,0.0079015,-0.28358,-0.00090039,-9.6752,0,0,45.617,1,1,754,998
3813,5.8882e+07,1,-0.00050497,-0.0075056,0.0081016,-0.28572,0.00887,-9.678,0,0,45.617,1,1,754,998
3817,5.8884e+07,1,-0.0026622,-0.0095903,0.0091635,-0.28228,0.025359,-9.6723,0,0,45.617,1,1,754,998
3820,5.8888e+07,1,-0.0055922,-0.0077329,0.0078824,-0.28128,0.030116,-9.6992,0,0,45.617,1,1,754,998
3823,5.889e+07,1,-0.0084522,-0.00072616,0.0034416,-0.28161,0.022714,-9.7281,0,0,45.617,1,1,754,998
3854,5.8893e+07,1,-0.010545,0.007014,-0.003811,-0.29,0.016268,-9.774,0,0,45.617,1,1,754,998
3857,5.8895e+07,1,-0.011029,0.0099675,-0.0062829,-0.29855,0.026343,-9.7909,0,0,45.617,1,1,754,998
3860,5.8897e+07,1,-0.0072955,0.013742,-0.004834,-0.29945,0.036404,-9.7989,0,0,45.617,1,1,754,998
3863,5.89e+07,1,-0.0052897,0.012881,-0.0026165,-0.31378,0.032296,-9.785,0,0,45.617,1,1,754,998
3894,5.8903e+07,1,-0.0012436,0.0089142,0.0020743,-0.31655,0.022234,-9.773,0,0,45.617,1,1,754,998
3898,5.8907e+07,1,0.0033135,0.0025948,0.0047501,-0.28361,0.018951,-9.7707,0,0,45.617,1,1,754,998
3901,5.8908e+07,1,0.0049944,0.00085215,0.0032412,-0.23799,0.025817,-9.7821,0,0,45.617,1,1,754,998
3904,5.8911e+07,1,0.0050412,0.0013246,0.00045558,-0.21219,0.030923,-9.7785,0,0,45.617,1,1,754,998
3935,5.8913e+07,1,0.0017477,0.0040937,-0.0012892,-0.18475,0.027041,-9.757,0,0,45.617,1,1,754,998
3938,5.8916e+07,1,-0.0038307,0.0080815,-0.0021896,-0.177,0.005055,-9.7486,0,0,45.617,1,1,754,998
3941,5.8918e+07,1,-0.0063972,0.0081947,-0.0026888,-0.1755,-0.014188,-9.7616,0,0,45.617,1,1,754,998
3944,5.8921e+07,1,-0.0049735,0.0031798,-0.0010172,-0.17233,-0.044929,-9.7992,0,0,45.617,1,1,754,998
3975,5.8924e+07,1,-0.0036472,-0.00023007,-0.00060815,-0.16709,-0.065858,-9.8192,0,0,45.617,1,1,754,998
3979,5.8926e+07,1,-0.0041476,-0.0044352,-0.0036468,-0.15791,-0.083921,-9.8505,0,0,45.617,1,1,754,998
3982,5.8929e+07,1,-0.0044096,-0.0040062,-0.0053654,-0.1635,-0.095639,-9.8886,0,0,45.617,1,1,754,998
3985,5.8931e+07,1,-0.0027765,-0.0030819,-0.0061161,-0.17198,-0.11671,-9.9386,0,0,45.617,1,1,754,998
4016,5.8933e+07,1,7.2698e-05,-0.0025076,-0.0026072,-0.18691,-0.12985,-9.9491,0,0,45.617,1,1,754,998
4020,5.8936e+07,1,0.0015775,-0.0029261,0.0014232,-0.20725,-0.10715,-9.9373,0,0,45.617,1,1,754,998
4023,5.8938e+07,1,0.0010238,-0.0022433,0.0044135,-0.22665,-0.079987,-9.9154,0,0,45.617,1,1,754,998
4026,5.8941e+07,1,0.00073245,0.00088193,0.0053985,-0.24465,-0.065994,-9.8641,0,0,45.617,1,1,754,998
4059,5.8944e+07,1,0.0013648,0.0024936,0.0050993,-0.24931,-0.070382,-9.8395,0,0,45.617,1,1,754,998
4063,5.8946e+07,1,0.0024674,0.0046063,0.0038571,-0.25621,-0.073682,-9.8225,0,0,45.616,1,1,754,998
4067,5.8949e+07,1,0.0029251,0.004098,0.0034707,-0.25423,-0.071365,-9.8119,0,0,45.616,1,1,754,998
4070,5.8951e+07,1,0.0033199,0.0017632,0.002628,-0.24037,-0.060862,-9.824,0,0,45.616,1,1,754,998
4105,5.8954e+07,1,0.00061603,0.00084142,0.00044192,-0.23083,-0.051826,-9.8383,0,0,45.616,1,1,754,998
4110,5.8956e+07,1,-0.001228,7.5337e-05,-0.0014866,-0.23323,-0.023369,-9.8596,0,0,45.616,1,1,754,998
4113,5.8958e+07,1,-0.0016055,-0.003705,-0.0017627,-0.24212,-0.0015835,-9.8835,0,0,45.616,1,1,754,998
4116,5.8961e+07,1,-0.00053029,-0.0086641,-0.0037693,-0.2447,0.023134,-9.9265,0,0,45.616,1,1,754,998
4147,5.8964e+07,1,0.0015446,-0.0096291,-0.006642,-0.23289,0.031318,-9.9421,0,0,45.616,1,1,754,998
4151,5.8966e+07,1,0.0040039,-0.0060906,-0.0073391,-0.22512,0.028732,-9.9258,0,0,45.616,1,1,754,998
4154,5.8969e+07,1,0.0051563,-0.0064765,-0.0049983,-0.22135,0.025228,-9.9169,0,0,45.616,1,1,754,998
4157,5.8972e+07,1,0.002979,-0.0071435,-0.0026124,-0.21053,0.011424,-9.8836,0,0,45.616,1,1,754,998
4188,5.8974e+07,1,-7.6791e-05,-0.0066759,-0.00064085,-0.20864,-0.015731,-9.8467,0,0,45.616,1,1,754,998
4192,5.8977e+07,1,-0.00093568,-0.0055636,7.1319e-05,-0.21272,-0.021984,-9.8377,0,0,45.616,1,1,754,998
4195,5.8979e+07,1,-0.00041279,-0.000894,-1.7241e-05,-0.22456,-0.019993,-9.8385,0,0,45.615,1,1,754,998
4198,5.8981e+07,1,0.00026698,0.00017998,-0.00015336,-0.24557,-0.0095358,-9.8418,0,0,45.615,1,1,754,998
4229,5.8984e+07,1,0.0016064,0.0027342,0.00037623,-0.25154,-0.0032186,-9.845,0,0,45.615,1,1,754,998
4233,5.8987e+07,1,0.0011662,0.0029963,0.00012734,-0.25318,-0.0007187,-9.8547,0,0,45.615,1,1,754,998
4238,5.899e+07,1,-1.4619e-05,0.00097841,-0.00053394,-0.25304,-0.0055773,-9.8676,0,0,45.615,1,1,754,998
4241,5.8991e+07,1,-0.0010097,0.0016592,-0.00011878,-0.25193,-0.0079947,-9.8631,0,0,45.615,1,1,754,998
4272,5.8994e+07,1,-0.0010977,0.0021152,0.00051972,-0.25226,-0.011678,-9.8559,0,0,45.615,1,1,754,998
4276,5.8996e+07,1,-0.0016697,0.0018124,0.00064744,-0.25103,-0.010016,-9.8472,0,0,45.615,1,1,754,998
4279,5.9e+07,1,-0.001984,0.00036614,0.00088033,-0.25456,-0.012697,-9.8408,0,0,45.615,1,1,754,998
4282,5.9003e+07,1,-0.00096332,-0.00032653,0.00063342,-0.25979,-0.010362,-9.8475,0,0,45.615,1,1,754,998
4285,5.9004e+07,1,0.0029905,-0.00076619,0.00048032,-0.26524,-0.020164,-9.8572,0,0,45.615,1,1,754,998
4316,5.9007e+07,1,0.002066,5.6228e-05,-5.6077e-05,-0.28076,-0.030203,-9.8576,0,0,45.615,1,1,754,998
4319,5.901e+07,1,0.00135,0.00062085,-0.0002673,-0.28065,-0.026751,-9.8522,0,0,45.615,1,1,754,998
4322,5.9013e+07,1,-0.0013515,0.0046381,-0.0010252,-0.26658,-0.018613,-9.8487,0,0,45.615,1,1,754,998
4325,5.9015e+07,1,-0.0016567,0.0047336,-0.00081776,-0.25222,-0.027867,-9.8477,0,0,45.615,1,1,754,998
4356,5.9018e+07,1,-0.00045561,0.0022531,-0.0003056,-0.21896,-0.038823,-9.8338,0,0,45.615,1,1,754,998
4360,5.902e+07,1,0.0011929,0.000107,-0.0017895,-0.19372,-0.063155,-9.8377,0,0,45.615,1,1,754,998
4363,5.9023e+07,1,0.00062564,-0.00038395,-0.0026432,-0.18686,-0.08087,-9.8414,0,0,45.614,1,1,754,998
4366,5.9025e+07,1,0.00059493,-0.0013221,-0.0035672,-0.1916,-0.0964,-9.8496,0,0,45.614,1,1,754,998
4397,5.9028e+07,1,0.0013155,-0.0012553,-0.0035236,-0.19962,-0.094822,-9.8603,0,0,45.614,1,1,754,998
4401,5.903e+07,1,0.0033136,0.00049566,-0.0042065,-0.20318,-0.0966,-9.8671,0,0,45.614,1,1,754,998
4405,5.9033e+07,1,0.0027593,0.0022211,-0.0048002,-0.19766,-0.10443,-9.8648,0,0,45.614,1,1,754,998
4408,5.9036e+07,1,0.001669,0.0030554,-0.0028676,-0.19529,-0.077603,-9.8604,0,0,45.614,1,1,754,998
4439,5.9038e+07,1,0.0011822,0.00089788,-0.0014957,-0.20276,-0.04755,-9.8389,0,0,45.614,1,1,754,998
4442,5.9041e+07,1,-0.002075,-0.003101,-0.0014324,-0.20683,-0.041363,-9.8046,0,0,45.614,1,1,754,998
4445,5.9043e+07,1,-0.0052587,-0.0046665,-3.6718e-05,-0.20016,-0.042343,-9.772,0,0,45.614,1,1,754,998
4448,5.9045e+07,1,-0.0043465,-0.0019235,0.001545,-0.19271,-0.044345,-9.7763,0,0,45.614,1,1,754,998
4479,5.9049e+07,1,-0.00049502,-0.00065548,0.0027489,-0.18605,-0.060473,-9.801,0,0,45.614,1,1,754,998
4483,5.9051e+07,1,0.00087849,-0.0016946,0.0035163,-0.1895,-0.084744,-9.812,0,0,45.614,1,1,754,998
4486,5.9053e+07,1,0.0026059,-0.0021497,0.0063235,-0.20932,-0.10098,-9.8464,0,0,45.614,1,1,754,998
4493,5.9056e+07,1,0.0031933,-0.0015149,0.0070715,-0.22472,-0.098093,-9.8555,0,0,45.614,1,1,754,998
4524,5.9058e+07,1,0.0040775,0.00027347,0.006935,-0.24223,-0.085526,-9.8461,0,0,45.614,1,1,754,998
4528,5.9061e+07,1,0.0058365,0.0003837,0.0041305,-0.252,-0.072134,-9.8408,0,0,45.614,1,1,754,998
4531,5.9064e+07,1,0.0063261,0.0018004,0.001362,-0.25239,-0.049391,-9.8252,0,0,45.614,1,1,754,998
4534,5.9066e+07,1,0.0043268,0.0032787,0.0017204,-0.24611,-0.036412,-9.8009,0,0,45.614,1,1,754,998
4565,5.9068e+07,1,0.0009947,0.0030957,0.0024974,-0.22559,-0.01836,-9.7672,0,0,45.613,1,1,754,998
4569,5.9071e+07,1,0.00011763,0.0022371,0.0016781,-0.21636,-0.013473,-9.7565,0,0,45.613,1,1,754,998
4573,5.9074e+07,1,0.00060929,-0.00056732,-0.00068558,-0.20694,-0.010615,-9.7576,0,0,45.613,1,1,754,998
4576,5.9076e+07,1,0.0006024,-0.0004625,5.6007e-05,-0.19636,-0.0088653,-9.7605,0,0,45.613,1,1,754,998
4607,5.9078e+07,1,-0.00063436,0.0010625,0.0017451,-0.1925,-0.018925,-9.756,0,0,45.613,1,1,754,998
4611,5.9081e+07,1,-0.0013389,0.0011047,0.0034077,-0.19804,-0.026314,-9.7609,0,0,45.613,1,1,754,998
4614,5.9083e+07,1,0.0014982,-0.0019603,0.0036452,-0.21908,-0.039131,-9.7742,0,0,45.613,1,1,754,998
4617,5.9086e+07,1,0.0046668,-0.0038902,0.0024428,-0.23821,-0.050374,-9.7862,0,0,45.613,1,1,754,998
4648,5.9089e+07,1,0.0040701,-0.004936,0.001846,-0.26921,-0.063615,-9.7811,0,0,45.613,1,1,754,998
4651,5.9091e+07,1,0.0023413,-0.0038571,0.0032894,-0.30424,-0.078865,-9.7602,0,0,45.613,1,1,754,998
4654,5.9094e+07,1,-0.0015767,-0.0026782,0.0058368,-0.32226,-0.088686,-9.7471,0,0,45.613,1,1,754,998
4657,5.9099e+07,1,-0.0097284,0.0011766,0.0068041,-0.32432,-0.10423,-9.7317,0,0,45.612,1,1,754,998
4689,5.9103e+07,1,-0.0096106,0.0014246,0.004508,-0.32447,-0.10893,-9.7316,0,0,45.612,1,1,754,998
4692,5.9104e+07,1,-0.0094293,0.0023909,0.0014698,-0.31378,-0.10809,-9.7462,0,0,45.612,1,1,754,998
4695,5.9108e+07,1,-0.0071169,0.0036275,-0.0013155,-0.28933,-0.10429,-9.7885,0,0,45.612,1,1,754,998
4698,5.911e+07,1,-0.0014588,0.0015908,-0.0043758,-0.27228,-0.10424,-9.8241,0,0,45.612,1,1,754,998
4729,5.9112e+07,1,0.0047134,4.9394e-05,-0.00578,-0.23731,-0.11451,-9.8585,0,0,45.612,1,1,754,998
4732,5.9115e+07,1,0.0068508,-0.0010488,-0.0048804,-0.21754,-0.12559,-9.874,0,0,45.612,1,1,754,998
4735,5.9117e+07,1,0.0046927,-0.0019103,-0.0046533,-0.21284,-0.13337,-9.8898,0,0,45.612,1,1,754,998
4738,5.912e+07,1,0.0031322,-0.0029421,-0.0040929,-0.2237,-0.12927,-9.8909,0,0,45.612,1,1,754,998
4769,5.9123e+07,1,-0.0012422,-0.0066897,-0.0021784,-0.23736,-0.093876,-9.8923,0,0,45.612,1,1,754,998
4773,5.9125e+07,1,-0.0017452,-0.0062036,-0.0018821,-0.24284,-0.054676,-9.8943,0,0,45.612,1,1,754,998
4776,5.9128e+07,1,-0.00033158,-0.0028882,-0.0020051,-0.25049,0.004255,-9.8911,0,0,45.612,1,1,754,998
4779,5.913e+07,1,0.00051588,-0.0012784,-0.0019071,-0.25486,0.032255,-9.8794,0,0,45.612,1,1,754,998
4810,5.9133e+07,1,6.3364e-06,-0.00062472,-0.00071049,-0.257,0.063695,-9.8385,0,0,45.612,1,1,754,998
4814,5.9135e+07,1,-0.0043078,-0.0044109,-0.00031731,-0.26715,0.075982,-9.7907,0,0,45.612,1,1,754,998
4817,5.9138e+07,1,-0.003723,-0.0038224,0.00015742,-0.27774,0.062286,-9.7614,0,0,45.612,1,1,754,998
4820,5.9141e+07,1,-0.0009587,-0.0018252,0.00095576,-0.29688,0.012862,-9.7507,0,0,45.612,1,1,754,998
4851,5.9143e+07,1,0.0039674,-0.0041877,0.0017558,-0.30459,-0.010054,-9.7638,0,0,45.612,1,1,754,998
4854,5.9146e+07,1,0.0049882,-0.0051546,0.0015575,-0.30067,-0.022782,-9.791,0,0,45.611,1,1,754,998
4857,5.9148e+07,1,0.0054731,-0.0063905,0.00069111,-0.28678,-0.032305,-9.824,0,0,45.611,1,1,754,998
4860,5.9151e+07,1,0.0039263,-0.0035395,0.00022198,-0.26338,-0.049886,-9.8539,0,0,45.611,1,1,754,998
4891,5.9154e+07,1,0.0016492,0.00029218,0.00071043,-0.25109,-0.052305,-9.862,0,0,45.611,1,1,754,998
4895,5.9155e+07,1,-0.00015405,0.00086321,0.00055567,-0.24556,-0.043643,-9.8585,0,0,45.611,1,1,754,998
4902,5.9158e+07,1,-0.00042572,8.2501e-05,0.0011228,-0.24282,-0.033382,-9.852,0,0,45.611,1,1,754,998
4905,5.9161e+07,1,0.00086679,-0.0011094,0.0012385,-0.24476,-0.023003,-9.8545,0,0,45.611,1,1,754,998
4936,5.9163e+07,1,0.003393,-0.00073399,0.00051138,-0.25547,-0.018203,-9.8521,0,0,45.611,1,1,754,998
4939,5.9166e+07,1,0.0042089,-7.0653e-05,0.00032334,-0.26067,-0.011273,-9.8412,0,0,45.611,1,1,754,998
4942,5.9169e+07,1,0.0041841,0.0028975,-0.0022411,-0.26678,-0.00028214,-9.8165,0,0,45.611,1,1,754,998
4945,5.9171e+07,1,0.0031345,0.005002,-0.0040217,-0.27795,-0.001031,-9.81,0,0,45.611,1,1,754,998
4976,5.9174e+07,1,0.0019529,0.0058905,-0.0056588,-0.30765,-0.004617,-9.8337,0,0,45.611,1,1,754,998
4980,5.9176e+07,1,0.0032802,0.0033625,-0.002847,-0.3226,-0.0011845,-9.8641,0,0,45.611,1,1,754,998
4984,5.9179e+07,1,0.0034586,0.0038187,-0.0015232,-0.32146,0.0059255,-9.894,0,0,45.611,1,1,754,998
4988,5.9181e+07,1,0.0020868,0.0046385,-0.00073392,-0.31377,0.008166,-9.8977,0,0,45.611,1,1,754,998
5019,5.9184e+07,1,0.0013028,0.0051108,-0.0008112,-0.2946,0.0098823,-9.8739,0,0,45.611,1,1,754,998
5022,5.9186e+07,1,0.0018422,0.005225,-0.00062163,-0.27731,0.011588,-9.8601,0,0,45.611,1,1,754,998
5025,5.9188e+07,1,0.0035875,0.0054459,-0.0019716,-0.25296,0.02073,-9.8596,0,0,45.611,1,1,754,998
5028,5.9191e+07,1,0.0036008,0.0057855,-0.0027002,-0.2411,0.020256,-9.847,0,0,45.611,1,1,754,998
5061,5.9194e+07,1,0.0028074,0.005207,-0.0022384,-0.23416,0.018631,-9.8039,0,0,45.611,1,1,754,998
5065,5.9196e+07,1,-0.00040984,0.0029353,0.00080728,-0.22857,0.01782,-9.7715,0,0,45.611,1,1,754,998
5068,5.9201e+07,1,-0.0032555,0.0035124,0.0038664,-0.18613,0.011606,-9.7452,0,0,45.61,1,1,754,998
5099,5.9205e+07,1,-0.00083963,0.0038352,0.0041908,-0.17618,0.025628,-9.7422,0,0,45.61,1,1,754,998
5102,5.9206e+07,1,0.0022603,0.003641,0.0035054,-0.16389,0.039725,-9.7562,0,0,45.61,1,1,754,998
5105,5.921e+07,1,0.0040844,0.0045247,0.0024806,-0.15675,0.03572,-9.7825,0,0,45.61,1,1,754,998
5108,5.9211e+07,1,0.0045476,0.0066085,0.0025069,-0.17218,0.017254,-9.8114,0,0,45.61,1,1,754,998
5139,5.9214e+07,1,0.0045147,0.0066595,0.0028734,-0.20586,-0.010223,-9.8229,0,0,45.61,1,1,754,998
5143,5.9217e+07,1,0.0023631,0.0025688,0.0027675,-0.25433,-0.039834,-9.8323,0,0,45.61,1,1,754,998
5146,5.9219e+07,1,0.0016865,0.0016573,0.002343,-0.27681,-0.05269,-9.8376,0,0,45.61,1,1,754,998
5149,5.9222e+07,1,0.0013237,4.4298e-05,0.0027877,-0.28743,-0.0717,-9.8411,0,0,45.61,1,1,754,998
5180,5.9224e+07,1,-0.0010902,2.5958e-07,0.00035343,-0.27112,-0.073993,-9.8631,0,0,45.61,1,1,754,998
5184,5.9227e+07,1,-0.0030696,-0.00019251,-0.0016031,-0.24867,-0.065887,-9.897,0,0,45.61,1,1,754,998
5187,5.923e+07,1,-0.007243,-0.0032246,-0.0058389,-0.21124,-0.059514,-9.9111,0,0,45.61,1,1,754,998
5190,5.9232e+07,1,-0.0057051,-0.0036934,-0.006253,-0.18522,-0.062039,-9.8909,0,0,45.61,1,1,754,998
5221,5.9235e+07,1,-0.0019203,-0.0034175,-0.0058521,-0.14897,-0.071538,-9.8458,0,0,45.61,1,1,754,998
5224,5.9237e+07,1,-0.0020788,-0.0018481,-0.0030114,-0.12825,-0.073786,-9.8172,0,0,45.61,1,1,754,998
5227,5.9239e+07,1,-0.0047149,-0.00038616,0.00041747,-0.1027,-0.07874,-9.7853,0,0,45.61,1,1,754,998
5230,5.9242e+07,1,-0.0069125,0.0016926,0.0022299,-0.094975,-0.087827,-9.7741,0,0,45.61,1,1,754,998
5261,5.9244e+07,1,-0.0073399,0.0037867,-6.0314e-05,-0.09534,-0.094847,-9.7794,0,0,45.61,1,1,754,998
5266,5.9248e+07,1,-0.0026887,0.0040509,-0.0028363,-0.10113,-0.085153,-9.7948,0,0,45.61,1,1,754,998
5269,5.925e+07,1,0.0035313,0.0014141,-0.0048164,-0.10838,-0.073604,-9.7995,0,0,45.61,1,1,754,998
5272,5.9253e+07,1,0.0070259,-0.0032342,-0.0035901,-0.10758,-0.059352,-9.8021,0,0,45.61,1,1,754,998
5303,5.9255e+07,1,0.0060027,-0.0071008,-0.0011507,-0.11584,-0.064341,-9.8101,0,0,45.61,1,1,754,998
5306,5.9257e+07,1,0.0026495,-0.007372,-0.00088333,-0.12729,-0.074831,-9.8088,0,0,45.61,1,1,754,998
5313,5.9261e+07,1,0.00055454,-0.005238,-0.002045,-0.14994,-0.088932,-9.8182,0,0,45.61,1,1,754,998
5316,5.9262e+07,1,-0.0014112,-0.0024028,-0.0036352,-0.16264,-0.078073,-9.8215,0,0,45.61,1,1,754,998
5347,5.9266e+07,1,-0.0020761,-0.0005167,-0.0037323,-0.17804,-0.056277,-9.8144,0,0,45.61,1,1,754,998
5351,5.9267e+07,1,-0.0009964,-0.00029851,-0.0033945,-0.18902,-0.042334,-9.8124,0,0,45.61,1,1,754,998
5354,5.927e+07,1,0.0025714,-0.0014556,-0.003246,-0.19876,-0.01725,-9.8294,0,0,45.61,1,1,754,998
5357,5.9273e+07,1,0.0031831,-0.0021383,-0.0033069,-0.20317,0.0096485,-9.8328,0,0,45.61,1,1,754,998
5388,5.9275e+07,1,0.0034152,0.00035123,-0.0033166,-0.20548,0.039805,-9.841,0,0,45.61,1,1,754,998
5392,5.9278e+07,1,0.0019753,0.0046529,-0.0016343,-0.21754,0.04876,-9.8456,0,0,45.609,1,1,754,998
5396,5.928e+07,1,0.0017309,0.0048453,-0.0003019,-0.2253,0.045944,-9.8456,0,0,45.609,1,1,754,998
5399,5.9284e+07,1,0.0011566,0.0046184,0.0014202,-0.23192,0.037394,-9.8427,0,0,45.609,1,1,754,998
5430,5.9286e+07,1,-0.0013593,0.0035186,-0.00095194,-0.22616,0.0072907,-9.8482,0,0,45.609,1,1,754,998
5433,5.9289e+07,1,-0.0024592,0.0028442,-0.0016525,-0.22002,-0.024561,-9.8439,0,0,45.609,1,1,754,998
5436,5.9291e+07,1,-0.0047309,0.0012735,-0.0019046,-0.21167,-0.059998,-9.8432,0,0,45.609,1,1,754,998
5439,5.9294e+07,1,-0.0048237,0.001602,-0.0029705,-0.21775,-0.067532,-9.853,0,0,45.609,1,1,754,998
5470,5.9297e+07,1,-0.0041647,0.0030917,-0.0050385,-0.22493,-0.070636,-9.8693,0,0,45.609,1,1,754,998
5474,5.9299e+07,1,-0.0027348,0.0018454,-0.0064095,-0.20945,-0.068567,-9.8639,0,0,45.609,1,1,754,998
5477,5.9303e+07,1,-0.0014781,-0.0010399,-0.0048815,-0.1963,-0.059532,-9.8564,0,0,45.609,1,1,754,998
5480,5.9304e+07,1,0.00040395,-0.0035687,-0.001719,-0.18515,-0.047132,-9.8366,0,0,45.609,1,1,754,998
5511,5.9308e+07,1,0.0027497,-0.0025166,-0.00034317,-0.18531,-0.047289,-9.8429,0,0,45.609,1,1,754,998
5514,5.9309e+07,1,0.0036842,-0.00084469,-0.00030736,-0.19211,-0.050093,-9.8473,0,0,45.609,1,1,754,998
5517,5.9312e+07,1,0.0018537,0.0021442,-0.0012396,-0.20238,-0.05186,-9.842,0,0,45.609,1,1,754,998
5520,5.9314e+07,1,-0.00065292,0.00461,-0.0016884,-0.219,-0.053966,-9.8191,0,0,45.609,1,1,754,998
5551,5.9317e+07,1,-0.0008965,0.005816,-0.001815,-0.22454,-0.050102,-9.7956,0,0,45.609,1,1,754,998
5555,5.9319e+07,1,-0.0039981,0.0042557,-0.0066195,-0.22109,-0.033449,-9.7744,0,0,45.609,1,1,754,998
5558,5.9321e+07,1,-0.0055321,0.0018431,-0.0082628,-0.21272,-0.02998,-9.7779,0,0,45.609,1,1,754,998
5561,5.9324e+07,1,-0.0078224,-0.0010498,-0.0093451,-0.20821,-0.027989,-9.7822,0,0,45.609,1,1,754,998
5592,5.9327e+07,1,-0.0058396,-0.00077433,-0.0065787,-0.20956,-0.017842,-9.7837,0,0,45.609,1,1,754,998
5595,5.9329e+07,1,0.0014334,0.00067093,-0.0019566,-0.20921,0.0093712,-9.7858,0,0,45.609,1,1,754,998
5598,5.9332e+07,1,0.0073608,0.00089216,0.003744,-0.20598,0.015521,-9.7805,0,0,45.609,1,1,754,998
5601,5.9334e+07,1,0.0088785,-0.00047537,0.0083025,-0.19962,0.0085683,-9.7668,0,0,45.609,1,1,754,998
5632,5.9336e+07,1,0.0080835,-0.0010154,0.0089282,-0.19049,0.0018998,-9.7546,0,0,45.609,1,1,754,998
5636,5.9339e+07,1,0.0047505,-0.0013764,0.0058987,-0.17859,-0.012806,-9.7507,0,0,45.609,1,1,754,998
5639,5.9341e+07,1,0.0033107,-0.0012702,0.0048836,-0.1799,-0.023915,-9.7595,0,0,45.609,1,1,754,998
5642,5.9344e+07,1,-0.0018801,-0.0018545,0.0020577,-0.19306,-0.031441,-9.7652,0,0,45.609,1,1,754,998
5673,5.9347e+07,1,-0.0029304,-0.0023891,0.00084901,-0.20023,-0.030166,-9.7718,0,0,45.609,1,1,754,998
5676,5.9349e+07,1,-0.0034398,-0.0024842,-0.00017569,-0.20395,-0.023684,-9.8146,0,0,45.609,1,1,754,998
5679,5.9352e+07,1,-0.0031804,-0.0015824,0.00041615,-0.20455,-0.016527,-9.8321,0,0,45.609,1,1,754,998
5682,5.9354e+07,1,-0.0058488,-0.00099092,0.00016155,-0.20278,-0.0066007,-9.8308,0,0,45.608,1,1,754,998
5713,5.9357e+07,1,-0.0073279,-0.00029682,-0.0030069,-0.20166,0.01168,-9.8277,0,0,45.608,1,1,754,998
5716,5.9359e+07,1,-0.0044096,-0.00023493,-0.003667,-0.19969,0.029722,-9.8323,0,0,45.608,1,1,754,998
5723,5.9362e+07,1,-0.0032751,8.9069e-05,-0.0031775,-0.20735,0.04554,-9.8305,0,0,45.608,1,1,754,998
5726,5.9365e+07,1,-0.0046649,0.001659,-0.0027261,-0.20879,0.046623,-9.814,0,0,45.608,1,1,754,998
5757,5.9367e+07,1,-0.0068822,0.0021814,-0.0052989,-0.19986,0.040308,-9.7867,0,0,45.608,1,1,754,998
5761,5.937e+07,1,-0.0076595,0.0025878,-0.0066417,-0.19318,0.027811,-9.7604,0,0,45.608,1,1,754,998
5764,5.9372e+07,1,-0.0040492,0.0053792,-0.0070464,-0.18678,-0.0035127,-9.7073,0,0,45.608,1,1,754,998
5767,5.9375e+07,1,-0.0019343,0.0063621,-0.0052059,-0.18783,-0.012889,-9.6931,0,0,45.608,1,1,754,998
5798,5.9378e+07,1,0.00081781,0.0059866,0.0010351,-0.19101,-0.021704,-9.6955,0,0,45.608,1,1,754,998
5801,5.938e+07,1,0.0012573,0.0047691,0.0066031,-0.19008,-0.03175,-9.7061,0,0,45.608,1,1,754,998
5804,5.9382e+07,1,0.00056059,0.0036326,0.0087197,-0.18474,-0.03027,-9.7281,0,0,45.608,1,1,754,998
5808,5.9384e+07,1,-0.0011886,0.0019928,0.0082416,-0.17922,-0.021487,-9.7342,0,0,45.608,1,1,754,998
5839,5.9387e+07,1,-0.0009536,-0.00049951,0.0048401,-0.18526,-0.022417,-9.745,0,0,45.608,1,1,754,998
5843,5.9391e+07,1,-0.00335,-0.001261,0.00056256,-0.19288,-0.02672,-9.7621,0,0,45.608,1,1,754,998
5846,5.9392e+07,1,-0.0056908,-0.0012859,-0.0048596,-0.20081,-0.026658,-9.7762,0,0,45.608,1,1,754,998
5850,5.9394e+07,1,-0.0047824,-0.00040268,-0.0077043,-0.21073,-0.023649,-9.7862,0,0,45.608,1,1,754,998
5883,5.9397e+07,1,-0.0017314,0.0015768,-0.0074858,-0.22058,-0.019826,-9.8233,0,0,45.608,1,1,754,998
5886,5.94e+07,1,-0.0019537,0.0017507,-0.0062673,-0.22206,-0.0054175,-9.8378,0,0,45.608,1,1,754,998
5889,5.9403e+07,1,-0.003056,0.0015357,-0.0038423,-0.21876,0.010579,-9.8392,0,0,45.608,1,1,754,998
5892,5.9407e+07,1,-0.0040581,-0.00035637,0.0014828,-0.19257,0.015885,-9.8234,0,0,45.608,1,1,754,998
5924,5.941e+07,1,-0.0022302,-0.0017916,0.0025012,-0.18632,0.017846,-9.8152,0,0,45.608,1,1,754,998
5927,5.9412e+07,1,-0.00034168,-0.0017261,0.0012421,-0.17874,0.025752,-9.8346,0,0,45.608,1,1,754,998
5930,5.9415e+07,1,0.001008,-0.0016244,0.0009848,-0.17974,0.030672,-9.8536,0,0,45.608,1,1,754,998
5933,5.9417e+07,1,0.0050374,-0.0013302,-0.00033147,-0.1822,0.038452,-9.8773,0,0,45.608,1,1,754,998
5964,5.942e+07,1,0.006025,-0.00048776,-0.00083713,-0.18741,0.032846,-9.8772,0,0,45.608,1,1,754,998
5968,5.9422e+07,1,0.0054151,0.002607,-0.00085704,-0.19463,0.011086,-9.8622,0,0,45.608,1,1,754,998
5971,5.9424e+07,1,0.0038077,0.00339,-0.00060159,-0.1978,-0.011239,-9.8484,0,0,45.608,1,1,754,998
5974,5.9427e+07,1,0.0027913,0.0021913,-0.00079859,-0.21214,-0.034681,-9.8336,0,0,45.608,1,1,754,998
6005,5.943e+07,1,0.0033429,0.0021687,-0.0003561,-0.21899,-0.034977,-9.8267,0,0,45.608,1,1,754,998
6008,5.9432e+07,1,0.003647,0.0013595,0.00073121,-0.21832,-0.021686,-9.821,0,0,45.608,1,1,754,998
6011,5.9434e+07,1,0.001652,0.0019136,0.00058871,-0.21936,-0.014086,-9.8155,0,0,45.608,1,1,754,998
6014,5.9437e+07,1,0.0013473,0.0029329,0.00018417,-0.21375,-0.0079947,-9.7944,0,0,45.608,1,1,754,998
6047,5.944e+07,1,0.0012079,0.0022245,0.0011439,-0.20796,-0.01106,-9.7706,0,0,45.608,1,1,754,998
6052,5.9443e+07,1,-0.0037896,-0.00067892,0.0020806,-0.19435,-0.011433,-9.7541,0,0,45.608,1,1,754,998
6055,5.9444e+07,1,-0.0042579,-0.00093457,0.0012003,-0.18777,-0.013812,-9.7479,0,0,45.608,1,1,754,998
6058,5.9447e+07,1,-0.0025713,-0.0015207,0.00070193,-0.17966,-0.0083462,-9.7631,0,0,45.608,1,1,754,998
6089,5.945e+07,1,-0.00086542,-0.0038267,0.0021981,-0.17293,-0.0012509,-9.7761,0,0,45.608,1,1,754,998
6092,5.9452e+07,1,0.00071289,-0.0086952,0.0036399,-0.15977,0.031531,-9.7749,0,0,45.608,1,1,754,998
6095,5.9455e+07,1,-6.1565e-05,-0.011855,0.0011892,-0.15457,0.062778,-9.7623,0,0,45.608,1,1,754,998
6098,5.9457e+07,1,-0.00083621,-0.013717,-0.0025781,-0.15509,0.085293,-9.7301,0,0,45.608,1,1,754,998
6129,5.9459e+07,1,-0.00047573,-0.014598,-0.0039484,-0.16204,0.087916,-9.7123,0,0,45.608,1,1,754,998
6137,5.9462e+07,1,0.00097491,-0.01371,-0.0017562,-0.17719,0.085677,-9.7108,0,0,45.608,1,1,754,998
6140,5.9465e+07,1,0.0015353,-0.012126,6.1021e-05,-0.19656,0.078417,-9.7332,0,0,45.608,1,1,754,998
6143,5.9467e+07,1,0.0019977,-0.0086959,0.0021464,-0.20626,0.069024,-9.7681,0,0,45.607,1,1,754,998
6174,5.947e+07,1,-4.9761e-05,-0.0046606,0.00040547,-0.21167,0.066026,-9.8067,0,0,45.607,1,1,754,998
6178,5.9472e+07,1,-0.00074468,-0.0050641,0.00029529,-0.22266,0.062669,-9.8226,0,0,45.607,1,1,754,998
6181,5.9475e+07,1,-0.00080762,-0.0061212,0.00011913,-0.22958,0.062316,-9.835,0,0,45.607,1,1,754,998
6184,5.9478e+07,1,-0.0001261,-0.0066533,4.9313e-06,-0.23223,0.071662,-9.8474,0,0,45.607,1,1,754,998
6215,5.948e+07,1,-0.0014965,-0.0053613,-0.00025633,-0.23099,0.059268,-9.8544,0,0,45.607,1,1,754,998
6218,5.9483e+07,1,-0.0026261,-0.0041438,-0.0014524,-0.2176,0.057767,-9.8586,0,0,45.607,1,1,754,998
6221,5.9485e+07,1,-0.0017771,-0.0032583,0.00049231,-0.18936,0.04758,-9.8724,0,0,45.607,1,1,754,998
6224,5.9488e+07,1,0.00072371,-0.0049339,0.0016211,-0.16599,0.029536,-9.8828,0,0,45.607,1,1,754,998
6255,5.9491e+07,1,0.0022467,-0.0083959,0.0020674,-0.13709,-0.0086672,-9.888,0,0,45.607,1,1,754,998
6259,5.9493e+07,1,0.0026224,-0.0082946,0.0011038,-0.11982,-0.043789,-9.8763,0,0,45.607,1,1,754,998
6264,5.9496e+07,1,0.001813,-0.0045372,-0.00059683,-0.10967,-0.051363,-9.8751,0,0,45.607,1,1,754,998
6267,5.9503e+07,1,-0.0038433,0.0066651,-0.0026732,-0.13764,-0.026,-9.9013,0,0,45.607,1,1,754,998
6298,5.9506e+07,1,-0.0036847,0.0063345,0.0014746,-0.17185,-0.0051018,-9.9132,0,0,45.607,1,1,754,998
6302,5.9509e+07,1,-0.002856,0.0059219,0.0036341,-0.19456,0.0072638,-9.9128,0,0,45.607,1,1,754,998
6305,5.9512e+07,1,-0.001556,0.00055311,0.0062748,-0.22242,0.014443,-9.9067,0,0,45.607,1,1,754,998
6309,5.9514e+07,1,-0.0002256,-0.0025349,0.0060085,-0.23254,0.020741,-9.8914,0,0,45.607,1,1,754,998
6340,5.9517e+07,1,0.00386,-0.0051426,0.0045123,-0.23659,0.028496,-9.871,0,0,45.607,1,1,754,998
6343,5.9519e+07,1,0.0057271,-0.0038017,0.0044171,-0.24386,0.030628,-9.8448,0,0,45.607,1,1,754,998
6346,5.9522e+07,1,0.005529,-0.0033593,0.0043451,-0.24194,0.02769,-9.8191,0,0,45.607,1,1,754,998
6349,5.9524e+07,1,-0.0018879,-0.00015518,0.0019379,-0.23719,0.022798,-9.7939,0,0,45.607,1,1,754,998
6380,5.9527e+07,1,-0.0036046,0.0033989,0.00098991,-0.23231,0.0074569,-9.7982,0,0,45.607,1,1,754,998
6384,5.953e+07,1,-0.0036899,0.0040871,0.0013671,-0.22791,-0.0061485,-9.7923,0,0,45.607,1,1,754,998
6387,5.9532e+07,1,-0.0042328,0.0046664,0.00030776,-0.23205,-0.022891,-9.7902,0,0,45.606,1,1,754,998
6390,5.9534e+07,1,-0.0035449,0.0041979,-0.00056301,-0.23764,-0.025541,-9.7967,0,0,45.606,1,1,754,998
6421,5.9537e+07,1,-0.0022969,8.6477e-05,-0.00104,-0.24221,-0.02747,-9.8007,0,0,45.606,1,1,754,998
6424,5.954e+07,1,-0.0025568,-0.0029716,-0.0013214,-0.24735,-0.026894,-9.8028,0,0,45.606,1,1,754,998
6427,5.9542e+07,1,-0.0018916,-0.0022939,-0.00062301,-0.25856,-0.034637,-9.8017,0,0,45.606,1,1,754,998
6430,5.9544e+07,1,-0.0019375,-0.0011712,7.6046e-05,-0.26725,-0.033906,-9.7967,0,0,45.606,1,1,754,998
6461,5.9547e+07,1,-0.0027979,-0.00081061,-0.00047183,-0.28238,-0.02184,-9.8017,0,0,45.606,1,1,754,998
6466,5.955e+07,1,-0.002883,-0.0011563,-0.0008006,-0.2925,-0.017101,-9.8118,0,0,45.606,1,1,754,998
6469,5.9552e+07,1,-0.0021197,-0.00034531,0.00027586,-0.29048,-0.007854,-9.8012,0,0,45.606,1,1,754,998
6472,5.9555e+07,1,-0.00092358,0.0012573,0.0013129,-0.2849,-0.0088243,-9.7843,0,0,45.606,1,1,754,998
6503,5.9557e+07,1,0.001869,0.0030718,0.0034965,-0.27716,-0.00016446,-9.7734,0,0,45.606,1,1,754,998
6506,5.956e+07,1,0.0046932,0.0032412,0.0024543,-0.27968,0.014197,-9.7681,0,0,45.606,1,1,754,998
6509,5.9562e+07,1,0.0037653,0.0030877,0.0025978,-0.27481,0.03505,-9.7654,0,0,45.606,1,1,754,998
6516,5.9565e+07,1,0.0022451,0.001156,0.0031382,-0.26888,0.036382,-9.7573,0,0,45.605,1,1,754,998
6547,5.9568e+07,1,0.0028955,-0.003524,0.0016539,-0.25466,0.024598,-9.753,0,0,45.605,1,1,754,998
6551,5.957e+07,1,0.0033653,-0.0081421,0.00091119,-0.25332,0.013494,-9.7527,0,0,45.605,1,1,754,998
6554,5.9573e+07,1,0.0013527,-0.0083746,-0.00029721,-0.25189,0.0079639,-9.7662,0,0,45.605,1,1,754,998
6557,5.9575e+07,1,-0.0034812,-0.0040057,-0.0053734,-0.23124,-0.018085,-9.7928,0,0,45.605,1,1,754,998
6588,5.9578e+07,1,-0.0061328,-0.0034,-0.0085002,-0.22918,-0.031247,-9.8156,0,0,45.605,1,1,754,998
6592,5.9581e+07,1,-0.0051633,-0.0072678,-0.0077712,-0.23747,-0.051376,-9.8467,0,0,45.605,1,1,754,998
6595,5.9582e+07,1,-0.004588,-0.0089653,-0.00636,-0.2382,-0.054886,-9.8675,0,0,45.605,1,1,754,998
6600,5.9585e+07,1,-0.0059384,-0.0078294,-0.0030753,-0.23364,-0.049053,-9.8766,0,0,45.605,1,1,754,998
6631,5.9588e+07,1,-0.006593,-0.001407,-0.0044534,-0.22544,-0.059004,-9.8804,0,0,45.605,1,1,754,998
6634,5.9591e+07,1,-0.0065399,0.001596,-0.0049018,-0.21668,-0.065173,-9.881,0,0,45.605,1,1,754,998
6637,5.9593e+07,1,-0.0063641,0.0057324,-0.0061789,-0.20659,-0.064549,-9.8833,0,0,45.605,1,1,754,998
6641,5.9595e+07,1,-0.004733,0.0083162,-0.0060724,-0.19136,-0.058569,-9.8945,0,0,45.605,1,1,754,998
6672,5.9598e+07,1,-0.0010078,0.0070327,-0.0022734,-0.18747,-0.056686,-9.8969,0,0,45.604,1,1,754,998
6676,5.96e+07,1,0.0026023,0.0036602,0.001482,-0.18376,-0.055191,-9.8934,0,0,45.604,1,1,754,998
6680,5.9603e+07,1,0.0013973,-0.0014835,0.0020597,-0.18137,-0.056683,-9.878,0,0,45.604,1,1,754,998
6683,5.9605e+07,1,-0.00082725,-0.0043744,0.00052963,-0.17717,-0.058319,-9.8331,0,0,45.604,1,1,754,998
6714,5.9607e+07,1,-0.00050924,-0.0045803,-0.00044443,-0.16817,-0.063586,-9.7872,0,0,45.604,1,1,754,998
6717,5.9611e+07,1,0.0028871,-0.0056315,-0.00065542,-0.15006,-0.061012,-9.7426,0,0,45.604,1,1,754,998
6720,5.9613e+07,1,0.0030304,-0.0059077,3.378e-05,-0.14203,-0.047195,-9.7332,0,0,45.604,1,1,754,998
6723,5.9618e+07,1,0.0047563,-0.00045868,0.0044944,-0.10648,0.009853,-9.7959,0,0,45.604,1,1,754,998
6755,5.962e+07,1,0.0052846,0.00067285,0.0049312,-0.1011,0.030637,-9.8186,0,0,45.604,1,1,754,998
6758,5.9624e+07,1,0.0038199,0.0018906,0.0043124,-0.10639,0.063633,-9.8323,0,0,45.604,1,1,754,998
6761,5.9625e+07,1,0.0024784,0.00053872,0.003867,-0.12359,0.08213,-9.8273,0,0,45.604,1,1,754,998
6764,5.9629e+07,1,0.0013111,-0.0028467,0.0033809,-0.14294,0.08684,-9.8152,0,0,45.604,1,1,754,998
6795,5.9631e+07,1,0.00018122,-0.0062849,0.0003916,-0.15749,0.082815,-9.8022,0,0,45.603,1,1,754,998
6798,5.9634e+07,1,0.00044383,-0.0075099,-0.0025279,-0.16431,0.088223,-9.7945,0,0,45.603,1,1,754,998
6801,5.9636e+07,1,0.0019749,-0.0071083,-0.0028099,-0.18586,0.083913,-9.7745,0,0,45.603,1,1,754,998
6804,5.9639e+07,1,0.002266,-0.0073849,-0.0014553,-0.20211,0.063166,-9.7627,0,0,45.603,1,1,754,998
6835,5.9641e+07,1,0.0014851,-0.0055972,0.00041729,-0.22053,0.023938,-9.7392,0,0,45.603,1,1,754,998
6839,5.9644e+07,1,0.0023476,-0.0033488,0.0016985,-0.2431,-0.0039599,-9.7371,0,0,45.603,1,1,754,998
6842,5.9646e+07,1,0.0030717,-0.00081124,0.00085807,-0.27423,-0.038618,-9.7712,0,0,45.603,1,1,754,998
6845,5.9649e+07,1,0.0030005,-0.00055026,0.00096125,-0.28406,-0.054933,-9.7906,0,0,45.603,1,1,754,998
6876,5.9652e+07,1,0.00067112,-0.00053697,0.0045534,-0.29471,-0.070322,-9.812,0,0,45.603,1,1,754,998
6879,5.9655e+07,1,0.0017032,0.0022751,0.0061013,-0.3036,-0.08413,-9.8357,0,0,45.602,1,1,754,998
6882,5.9657e+07,1,0.0034211,0.0032154,0.0056024,-0.30101,-0.092261,-9.8457,0,0,45.602,1,1,754,998
6885,5.9659e+07,1,0.0073421,0.0033502,0.0027917,-0.29797,-0.095209,-9.8637,0,0,45.602,1,1,754,998
6916,5.9662e+07,1,0.0073548,0.0026432,0.0026555,-0.29631,-0.084989,-9.8688,0,0,45.602,1,1,754,998
6919,5.9664e+07,1,0.0065031,-0.0011819,0.0041277,-0.28614,-0.0563,-9.8625,0,0,45.602,1,1,754,998
6926,5.9667e+07,1,0.0045218,-0.0040824,0.0051751,-0.27889,-0.03283,-9.8588,0,0,45.602,1,1,754,998
6929,5.9669e+07,1,0.0030388,-0.0063931,0.0031309,-0.26699,-0.0065886,-9.8596,0,0,45.602,1,1,754,998
6960,5.9672e+07,1,0.0026997,-0.0095494,0.00283,-0.26416,-0.0026914,-9.8646,0,0,45.602,1,1,754,998
6964,5.9674e+07,1,0.0022117,-0.0086989,0.0041967,-0.25628,0.014272,-9.8655,0,0,45.601,1,1,754,998
6967,5.9676e+07,1,0.0028075,-0.0074068,0.0050487,-0.24514,0.028759,-9.8783,0,0,45.601,1,1,754,998
6970,5.968e+07,1,0.004778,-0.0041406,0.0054939,-0.23215,0.043277,-9.9151,0,0,45.601,1,1,754,998
7001,5.9682e+07,1,0.0033431,-0.0031994,0.0038151,-0.21804,0.029987,-9.9387,0,0,45.601,1,1,754,998
7004,5.9685e+07,1,0.0029539,-0.0035028,0.0028258,-0.20931,0.015175,-9.9533,0,0,45.601,1,1,754,998
7007,5.9687e+07,1,-8.6987e-05,-0.0030335,0.0014966,-0.20212,-0.0024108,-9.9746,0,0,45.601,1,1,754,998
7010,5.969e+07,1,-0.00158,-0.0024696,0.0011444,-0.19864,-0.016216,-9.9775,0,0,45.601,1,1,754,998
7041,5.9693e+07,1,-0.0048416,-0.0026722,0.0013843,-0.18982,-0.033168,-9.973,0,0,45.601,1,1,754,998
7045,5.9695e+07,1,-0.0039543,-0.0022557,0.0022259,-0.18124,-0.054468,-9.9656,0,0,45.601,1,1,754,998
7048,5.9698e+07,1,-0.0025027,-0.0023443,0.0019746,-0.18021,-0.0677,-9.9564,0,0,45.601,1,1,754,998
7051,5.97e+07,1,0.0011532,-0.0041705,-0.00024558,-0.18176,-0.08084,-9.9325,0,0,45.601,1,1,754,998
7082,5.9704e+07,1,0.0028843,-0.0040203,-0.00087986,-0.19056,-0.075792,-9.9015,0,0,45.601,1,1,754,998
7086,5.9705e+07,1,0.0044958,-0.0023799,-0.001098,-0.21348,-0.052226,-9.8468,0,0,45.601,1,1,754,998
7090,5.971e+07,1,0.0035471,-0.0032519,0.0029997,-0.21245,-0.025404,-9.7806,0,0,45.6,1,1,754,998
7121,5.9714e+07,1,0.0028509,-0.0013342,0.0026547,-0.20533,-0.029117,-9.772,0,0,45.6,1,1,754,998
7124,5.9715e+07,1,0.00053137,0.0026598,0.0010304,-0.20086,-0.031591,-9.7655,0,0,45.6,1,1,754,998
7128,5.9718e+07,1,0.00011526,0.0027021,-9.4784e-05,-0.21082,-0.02376,-9.7603,0,0,45.6,1,1,754,998
7131,5.972e+07,1,-0.0016871,-0.00043189,-0.0033945,-0.22819,-0.019662,-9.7862,0,0,45.6,1,1,754,998
7162,5.9723e+07,1,-0.00267,-0.00030028,-0.0034368,-0.23284,-0.027086,-9.8101,0,0,45.6,1,1,754,998
7166,5.9726e+07,1,-0.005966,0.0026129,-0.0033444,-0.21868,-0.040027,-9.8319,0,0,45.6,1,1,754,998
7169,5.9727e+07,1,-0.0071832,0.0027045,-0.0034344,-0.21181,-0.037431,-9.8454,0,0,45.6,1,1,754,998
7172,5.973e+07,1,-0.010048,0.0018957,-0.0040225,-0.20916,-0.018195,-9.857,0,0,45.6,1,1,754,998
7203,5.9733e+07,1,-0.0071697,0.0011023,-0.0036562,-0.19736,-0.0010781,-9.8455,0,0,45.6,1,1,754,998
7206,5.9735e+07,1,-0.005533,0.00036652,-0.0030205,-0.19335,0.0059977,-9.8276,0,0,45.6,1,1,754,998
7209,5.9738e+07,1,-0.0028733,-0.0010768,-0.0023247,-0.18782,0.012523,-9.8049,0,0,45.6,1,1,754,998
7212,5.974e+07,1,-0.00051676,-0.0014009,-0.00074456,-0.18424,0.020479,-9.7996,0,0,45.599,1,1,754,998
7243,5.9743e+07,1,0.0010584,-0.00077952,0.00076465,-0.17861,0.039533,-9.7877,0,0,45.599,1,1,754,998
7247,5.9746e+07,1,0.00022732,0.0021754,0.0017342,-0.17941,0.047058,-9.7756,0,0,45.599,1,1,754,998
7250,5.9748e+07,1,-0.0025239,0.0041741,-0.0012606,-0.19058,0.048151,-9.7667,0,0,45.599,1,1,754,998
7253,5.9751e+07,1,-0.003039,0.0048899,-0.0036676,-0.20773,0.046681,-9.7704,0,0,45.599,1,1,754,998
7284,5.9753e+07,1,-0.0033286,0.0065324,-0.010682,-0.22229,0.040922,-9.774,0,0,45.599,1,1,754,998
7288,5.9755e+07,1,-0.0045761,0.0062242,-0.011914,-0.22589,0.030466,-9.785,0,0,45.599,1,1,754,998
7291,5.9758e+07,1,-0.0054234,0.0054179,-0.011251,-0.22939,0.010405,-9.8104,0,0,45.599,1,1,754,998
7294,5.9761e+07,1,-0.0026144,0.0031889,-0.0081123,-0.23061,-0.0033638,-9.8245,0,0,45.599,1,1,754,998
7325,5.9763e+07,1,0.0019605,0.0012207,-0.0064652,-0.22599,-0.013224,-9.8411,0,0,45.599,1,1,754,998
7329,5.9766e+07,1,0.0048461,0.00064841,-0.0051129,-0.22131,-0.010356,-9.843,0,0,45.599,1,1,754,998
7336,5.9769e+07,1,0.0051848,0.00056961,-0.003284,-0.21455,-0.0096306,-9.8421,0,0,45.599,1,1,754,998
7339,5.977e+07,1,0.00698,-0.00033352,-0.0010853,-0.19382,-0.012846,-9.8389,0,0,45.599,1,1,754,998
7370,5.9773e+07,1,0.0063467,-0.00077971,0.002263,-0.18069,-0.020616,-9.8331,0,0,45.599,1,1,754,998
7374,5.9775e+07,1,0.0046918,-0.0003541,0.0044123,-0.17369,-0.021395,-9.8341,0,0,45.599,1,1,754,998
7377,5.9778e+07,1,-0.0024364,0.0026019,0.0092241,-0.1708,-0.023572,-9.8289,0,0,45.599,1,1,754,998
7380,5.9781e+07,1,-0.003376,0.0035123,0.0093026,-0.16217,-0.029175,-9.8295,0,0,45.599,1,1,754,998
7411,5.9783e+07,1,-0.0047271,0.0043103,0.0078101,-0.16544,-0.021381,-9.8329,0,0,45.599,1,1,754,998
7414,5.9786e+07,1,-0.006439,0.004746,0.0022692,-0.17016,-0.016711,-9.8324,0,0,45.598,1,1,754,998
7417,5.9788e+07,1,-0.005028,0.0034172,-0.0024183,-0.1755,-0.022519,-9.8238,0,0,45.598,1,1,754,998
7422,5.9791e+07,1,-0.0023959,0.00064079,-0.0031564,-0.1737,-0.027203,-9.8166,0,0,45.598,1,1,754,998
7454,5.9794e+07,1,-6.4031e-05,-0.0016083,-0.0035719,-0.18195,-0.034063,-9.7906,0,0,45.598,1,1,754,998
7458,5.9796e+07,1,0.001798,-0.0014551,-0.0043755,-0.18565,-0.02762,-9.7992,0,0,45.598,1,1,754,998
7462,5.9798e+07,1,0.000697,0.00047801,-0.0030973,-0.18373,-0.013227,-9.8204,0,0,45.598,1,1,754,998
7465,5.9802e+07,1,-0.0012733,0.001222,-0.0012137,-0.18501,0.0070072,-9.8596,0,0,45.598,1,1,754,998
7496,5.9805e+07,1,-0.00039423,-0.0020288,0.0001398,-0.17837,0.014915,-9.8624,0,0,45.598,1,1,754,998
7499,5.9806e+07,1,0.0024014,-0.0038788,-0.0010083,-0.174,0.014212,-9.8536,0,0,45.598,1,1,754,998
7502,5.9809e+07,1,0.0037249,-0.0034981,-0.0032243,-0.17893,0.016734,-9.844,0,0,45.598,1,1,754,998
7506,5.9811e+07,1,0.005291,-0.0022621,-0.0049673,-0.19372,0.022673,-9.8321,0,0,45.598,1,1,754,998
7537,5.9817e+07,1,0.0043358,-0.0019758,-0.00067215,-0.21131,0.0037658,-9.8,0,0,45.598,1,1,754,998
7541,5.9819e+07,1,0.0014917,-0.0021112,0.00059102,-0.21307,0.010557,-9.797,0,0,45.597,1,1,754,998
7544,5.9821e+07,1,-0.001216,-0.001642,-0.0016528,-0.22113,0.025189,-9.8094,0,0,45.597,1,1,754,998
7575,5.9824e+07,1,0.0013137,-0.0021324,-0.0031173,-0.23476,0.020637,-9.8182,0,0,45.597,1,1,754,998
7578,5.9827e+07,1,0.0063468,-0.0012411,-0.0022019,-0.24476,0.013245,-9.8291,0,0,45.597,1,1,754,998
7582,5.983e+07,1,0.0083975,-0.0015174,-0.00035579,-0.24851,-0.0011502,-9.8451,0,0,45.597,1,1,754,998
7585,5.9831e+07,1,0.0081791,-0.0028015,-0.00013136,-0.2476,-0.0086549,-9.8738,0,0,45.597,1,1,754,998
7616,5.9834e+07,1,0.0077671,-0.002591,0.0028149,-0.25025,-0.0041826,-9.8868,0,0,45.597,1,1,754,998
7619,5.9837e+07,1,0.00729,-0.001975,0.0045171,-0.24791,0.0061982,-9.8901,0,0,45.597,1,1,754,998
7622,5.9839e+07,1,0.0044686,0.0011561,0.0074456,-0.24819,0.012931,-9.8874,0,0,45.597,1,1,754,998
7625,5.9842e+07,1,0.0025189,0.0022097,0.0073968,-0.26516,0.024823,-9.8852,0,0,45.597,1,1,754,998
7656,5.9844e+07,1,-0.0025786,0.0051197,0.0053153,-0.28232,0.029223,-9.8844,0,0,45.597,1,1,754,998
7660,5.9847e+07,1,-0.0063526,0.0054037,0.0017415,-0.28675,0.024756,-9.8772,0,0,45.597,1,1,754,998
7664,5.9849e+07,1,-0.0077709,0.0023708,-0.0009784,-0.2738,0.029591,-9.8565,0,0,45.597,1,1,754,998
