LineNo,TimeUS,I,GyrX,GyrY,GyrZ,AccX,AccY,AccZ,EG,EA,T,GH,AH,GHz,AHz
184,57935342,2,0.001692037,0.00193266,0.001596123,-0.07647597,0.06407119,-9.868186,0,0,38.40229,1,1,7745,3872
295,57959320,2,-0.0001420605,0.002286311,0.002428572,-0.08664838,0.0561684,-9.866671999999999,0,0,38.40292,1,1,7745,3872
326,57961474,2,-0.0001339758,0.00203327,0.001737462,-0.08482004999999999,0.05791746,-9.862187,0,0,38.40299,1,1,7745,3872
409,57983380,2,-0.002835594,-0.0008664806,0.001738997,-0.07973395,0.0597657,-9.844624,0,0,38.40344,1,1,7745,3872
522,58007322,2,6.910914e-06,-0.001686627,0.001149749,-0.08093578999999999,0.06974953,-9.851932,0,0,38.4037,1,1,7745,3872
525,58008537,2,-0.0003695295,-0.0007565432,0.001809132,-0.08555888,0.06720212,-9.849266,0,0,38.40368,1,1,7745,3872
556,58011556,2,-0.0004997212,-5.195187e-05,0.001671295,-0.08765897,0.0664956,-9.848882,0,0,38.40366,1,1,7745,3872
631,58031151,2,0.00107561,0.002036482,-0.002140496,-0.09511936999999999,0.05861347,-9.860544000000001,0,0,38.4034,1,1,7745,3872
747,58052943,2,0.003926145,-0.0002897634,-0.0001410022,-0.08615651000000001,0.06032878,-9.855598000000001,0,0,38.40305,1,1,7745,3872
778,58055921,2,0.003325433,3.57415e-05,-0.0003951023,-0.08460282,0.06088708,-9.856679,0,0,38.403,1,1,7745,3872
858,58073777,2,0.004184438,-0.0009638336,-0.0004189971,-0.09173013000000001,0.05182199,-9.862662,0,0,38.40272,1,1,7745,3872
974,58096323,2,0.001427015,-0.0006393129,0.002841748,-0.1097308,0.0514398,-9.854074000000001,0,0,38.40208,1,1,7745,3872
1089,58140049,2,-0.0005911746,0.0003776746,0.002446403,-0.1010877,0.04961995,-9.851777,0,0,38.40105,1,1,7745,3872
1204,58229943,2,0.003224646,8.312224e-05,0.0006305607,-0.08616348,0.06002903,-9.864235000000001,0,0,38.40005,1,1,7745,3872
1295,58278012,2,0.001025045,0.001437346,0.0009625662000000001,-0.08835019,0.05430527,-9.863564999999999,0,0,38.39875,1,1,7745,3872
1326,58281358,2,-5.719488e-07,0.001724435,0.00217551,-0.08834245,0.0539326,-9.861647,0,0,38.39867,1,1,7745,3872
1389,58291252,2,-0.001188112,-0.0006041218000000001,0.0007115178,-0.08761041999999999,0.05833927,-9.871119999999999,0,0,38.39844,1,1,7745,3872
1392,58293102,2,-0.001007092,0.0002880669,0.0002545454,-0.08703095,0.05949964,-9.874795000000001,0,0,38.39837,1,1,7745,3872
1423,58295811,2,-0.0005162383999999999,0.0006962359,-0.001211685,-0.08690998,0.0613407,-9.874442,0,0,38.39827,1,1,7745,3872
1484,58309576,2,-0.001622598,-0.0002631729,0.0003294887,-0.09406152,0.06767291,-9.854877,0,0,38.39789,1,1,7745,3872
1572,58327414,2,0.0001683323,-0.001064524,-0.0001636878,-0.09876284,0.06632411000000001,-9.872128,0,0,38.39748,1,1,7745,3872
1603,58329904,2,-0.0005318146,-0.0004223568,-0.000394157,-0.1014552,0.06449967,-9.874197000000001,0,0,38.39742,1,1,7745,3872
1616,58332701,2,-0.0006775849,-6.435379999999999e-07,-0.0002484142,-0.1042374,0.06278619000000001,-9.877191,0,0,38.39739,1,1,7745,3872
1619,58334556,2,-0.0002758037,0.0008930643,-0.0002718639,-0.1046368,0.06213317,-9.878925000000001,0,0,38.39734,1,1,7745,3872
1626,58337752,2,0.0004379904,0.00165167,-0.00092495,-0.102682,0.06300478,-9.879930999999999,0,0,38.39733,1,1,7745,3872
1657,58340600,2,0.001848556,0.001308621,-0.0005620414999999999,-0.1006321,0.06540151,-9.878740000000001,0,0,38.3973,1,1,7745,3872
1660,58342908,2,0.00274713,0.001164603,0.0006632045,-0.1000549,0.06775198,-9.876535000000001,0,0,38.39727,1,1,7745,3872
1663,58345547,2,0.001719728,0.000545815,0.000938797,-0.1005535,0.06808974,-9.873414,0,0,38.39725,1,1,7745,3872
1667,58347744,2,0.001071976,-3.650986e-05,3.016524e-05,-0.1019761,0.06880477,-9.868375,0,0,38.39722,1,1,7745,3872
1698,58350155,2,0.0005854648,-0.0001354771,-0.0006586129,-0.10179,0.06931354000000001,-9.867182,0,0,38.39721,1,1,7745,3872
1701,58353074,2,0.0005244106,2.413102e-06,-0.002521384,-0.1001858,0.06852672999999999,-9.866533,0,0,38.39717,1,1,7745,3872
1704,58355160,2,0.0005600057000000001,-7.728499e-05,-0.002650537,-0.09847739,0.06669041000000001,-9.863963,0,0,38.39714,1,1,7745,3872
1707,58358011,2,7.346552e-05,5.489027e-05,-0.001744282,-0.09559392,0.06238025,-9.862128999999999,0,0,38.39711,1,1,7745,3872
1738,58360322,2,0.0008473166,0.001294613,-0.0006905398000000001,-0.09288628,0.06010199,-9.863695,0,0,38.3971,1,1,7745,3872
1741,58363060,2,0.001483914,0.00183595,-0.0002652257,-0.09064734000000001,0.05925756,-9.866251,0,0,38.3971,1,1,7745,3872
1744,58366032,2,0.001781406,0.002234898,0.0001612309,-0.08907595,0.05952208,-9.868641999999999,0,0,38.3971,1,1,7745,3872
1748,58368386,2,0.001652201,0.002759752,-9.931879e-05,-0.09025718000000001,0.05900448,-9.869441999999999,0,0,38.3971,1,1,7745,3872
1779,58370978,2,0.0003001093,0.001957441,-0.00132978,-0.09581929,0.05958566,-9.870638,0,0,38.3971,1,1,7745,3872
1782,58373525,2,-0.0001916175,0.00107261,-0.000247531,-0.1024618,0.06022883,-9.874383999999999,0,0,38.3971,1,1,7745,3872
1785,58377519,2,5.611682e-05,0.0004092856,0.0005014892,-0.1042928,0.05975889,-9.876011,0,0,38.3971,1,1,7745,3872
1788,58381541,2,0.00215223,-0.0001086937,0.0004429019,-0.1039366,0.05721226,-9.875999,0,0,38.39717,1,1,7745,3872
1820,58384556,2,0.001646174,0.0001507644,0.0007850644,-0.1056376,0.05563943,-9.876564,0,0,38.39722,1,1,7745,3872
1823,58387334,2,0.001031838,-7.766777e-05,0.0007871048,-0.1067832,0.05476606,-9.876281000000001,0,0,38.39725,1,1,7745,3872
1826,58389676,2,0.00105293,0.0004451535,-0.0003782663,-0.108022,0.05376009,-9.875470999999999,0,0,38.39729,1,1,7745,3872
1831,58392703,2,0.000802609,0.001157062,-0.0009008495,-0.1086354,0.05298591,-9.872954,0,0,38.39731,1,1,7745,3872
1862,58395020,2,0.0004501977,0.001354888,-0.0006185145,-0.1088442,0.05228147,-9.869687000000001,0,0,38.39734,1,1,7745,3872
1866,58397493,2,0.0006461993,0.0007859088,-0.0003473317,-0.108145,0.05301666,-9.864554999999999,0,0,38.39737,1,1,7745,3872
1869,58400555,2,0.001100996,0.0002468184,0.0002880091,-0.1074352,0.052886,-9.861522000000001,0,0,38.3974,1,1,7745,3872
1872,58402552,2,0.001600601,0.0005095124,0.001469849,-0.1038738,0.05115304,-9.857791000000001,0,0,38.39747,1,1,7745,3872
1903,58405550,2,0.002302984,0.001108749,0.001891767,-0.09935687999999999,0.04789153,-9.855599,0,0,38.39757,1,1,7745,3872
1907,58407561,2,0.001780884,0.001910048,0.001981127,-0.09730977,0.04571201,-9.8529,0,0,38.39761,1,1,7745,3872
1910,58410156,2,0.001027406,0.002375742,0.001803117,-0.09707105000000001,0.0443503,-9.850135,0,0,38.39765,1,1,7745,3872
1913,58413280,2,0.0002139783,0.002549741,0.002210187,-0.09749287,0.04368709,-9.846152,0,0,38.39771,1,1,7745,3872
1944,58415493,2,-0.000668084,0.001637675,0.001475272,-0.09878018,0.04557893,-9.842974,0,0,38.39779,1,1,7745,3872
1948,58418335,2,-0.0006926417,0.001029079,0.001751789,-0.100782,0.04854348,-9.841805000000001,0,0,38.39783,1,1,7745,3872
1951,58420708,2,-0.0004816409,0.0008384821,0.001640279,-0.1016354,0.0516663,-9.841970999999999,0,0,38.3979,1,1,7745,3872
1954,58423738,2,-0.000588059,0.0004519466,0.002242744,-0.1011225,0.05387884,-9.842295999999999,0,0,38.39796,1,1,7745,3872
1985,58425967,2,-0.0005001581,0.000721385,0.002699451,-0.09942424,0.05457757,-9.845723,0,0,38.39803,1,1,7745,3872
1988,58428955,2,0.0007292039,0.000927394,0.002178947,-0.09654846,0.05386092,-9.848807000000001,0,0,38.39809,1,1,7745,3872
1991,58431330,2,0.0009742043,0.0009546398999999999,0.001001856,-0.09348977,0.05273056,-9.848977,0,0,38.39816,1,1,7745,3872
1995,58434332,2,0.0006877042,0.001263207,0.0004824045,-0.08894663,0.05046376,-9.851181,0,0,38.39822,1,1,7745,3872
2026,58436643,2,8.129451000000001e-05,0.0008442541,0.000161124,-0.08716202000000001,0.04819829,-9.853474,0,0,38.3983,1,1,7745,3872
2030,58439908,2,0.0002825223,0.000971231,-2.661672e-05,-0.08666167,0.04741087,-9.855297,0,0,38.39833,1,1,7745,3872
2038,58442030,2,0.001008394,-0.0001262575,-0.0008099386000000001,-0.08727992,0.04594123,-9.860975,0,0,38.39838,1,1,7745,3872
2041,58444178,2,0.001455128,-0.0003129471,-0.001464291,-0.08825889000000001,0.04460558,-9.864761,0,0,38.39841,1,1,7745,3872
2074,58447246,2,0.001212883,0.000292989,-0.001392004,-0.08965886000000001,0.04317122,-9.868344,0,0,38.39842,1,1,7745,3872
2077,58449934,2,0.0007173277,0.0003281159,-0.0005487718,-0.08981268000000001,0.04257407,-9.869206999999999,0,0,38.39842,1,1,7745,3872
2080,58451518,2,0.000252556,6.188037e-05,0.0004157647,-0.08982171999999999,0.04310563,-9.870611999999999,0,0,38.39842,1,1,7745,3872
2083,58454591,2,0.0003730629,0.0001413192,0.0005427737,-0.09009266,0.04378549,-9.871993,0,0,38.39842,1,1,7745,3872
2114,58456775,2,0.0003714002,0.0005242261,0.001082317,-0.09037004999999999,0.04630655,-9.877922,0,0,38.39841,1,1,7745,3872
2118,58459877,2,0.0002950311,0.001047114,0.001555085,-0.08882704,0.04875591,-9.881722,0,0,38.39839,1,1,7745,3872
2121,58462164,2,0.0003283903,0.0007673737,0.001239934,-0.08771195,0.05088755,-9.883162,0,0,38.39837,1,1,7745,3872
2124,58464359,2,0.0003223078,0.0009036481,0.0002674574,-0.08818054,0.0523807,-9.880157000000001,0,0,38.39834,1,1,7745,3872
2155,58466611,2,-0.0001448432,0.001837002,0.0002051403,-0.09026482,0.05550516,-9.873711,0,0,38.39833,1,1,7745,3872
2158,58469468,2,-0.0002905036,0.002077278,0.0004268078,-0.09245279000000001,0.05631495,-9.87135,0,0,38.39833,1,1,7745,3872
2161,58472866,2,0.0009071516,0.001809318,-0.0004907467,-0.09361123,0.05731229,-9.866548999999999,0,0,38.39833,1,1,7745,3872
2164,58474397,2,0.00114654,0.001717702,-0.0006902441,-0.09409766999999999,0.05703623,-9.863319000000001,0,0,38.39833,1,1,7745,3872
2195,58477393,2,0.0009306223,0.0008395843,-4.93607e-05,-0.09516846,0.05556628,-9.861484000000001,0,0,38.39832,1,1,7745,3872
2199,58479363,2,0.000922571,6.498933999999999e-05,-0.0001396383,-0.09515198,0.05460426,-9.860682000000001,0,0,38.3983,1,1,7745,3872
2202,58482481,2,0.001318646,-0.0002681014,-0.001362147,-0.09444597,0.05451941,-9.862667999999999,0,0,38.39826,1,1,7745,3872
2205,58484389,2,0.001455945,-0.0007045525,-0.001002539,-0.09277924,0.05571276,-9.863996,0,0,38.39823,1,1,7745,3872
2236,58486706,2,0.0007367808,-0.001113655,-0.0004891249000000001,-0.09042509,0.05690668,-9.865290999999999,0,0,38.39821,1,1,7745,3872
2240,58490561,2,0.0005049211,-0.001274014,-0.0004100746,-0.08906996,0.05864061,-9.865819999999999,0,0,38.3982,1,1,7745,3872
2243,58491803,2,0.0008199604,-0.0007484163,-7.67482e-05,-0.08900710000000001,0.06232614,-9.867425000000001,0,0,38.3982,1,1,7745,3872
2247,58495116,2,0.001155733,0.0006098746,0.001154869,-0.08753332,0.06457031000000001,-9.871390999999999,0,0,38.3982,1,1,7745,3872
2278,58497249,2,0.001144031,0.001317892,0.0009728569,-0.08400546,0.06434201000000001,-9.869009999999999,0,0,38.39821,1,1,7745,3872
2281,58500695,2,0.0004885656,0.001173185,-0.0002376858,-0.08191979000000001,0.06535618999999999,-9.865970000000001,0,0,38.39822,1,1,7745,3872
2284,58501964,2,0.0005823069,0.0005098328,-0.001218186,-0.08010660999999999,0.06651401,-9.865231,0,0,38.39823,1,1,7745,3872
2290,58504961,2,0.001463076,-0.0004844012,-0.001997598,-0.07794244,0.06664672000000001,-9.865138,0,0,38.39825,1,1,7745,3872
2321,58507534,2,0.001388707,-0.0009135387,-0.001806509,-0.07889665999999999,0.06722537000000001,-9.863495,0,0,38.3983,1,1,7745,3872
2325,58509925,2,0.0009659779,-0.000551741,-0.001499184,-0.08009463999999999,0.06893855,-9.864015999999999,0,0,38.39834,1,1,7745,3872
2328,58512324,2,0.001275231,-0.0001730074,-0.0008795495,-0.08144012,0.07042854,-9.865155,0,0,38.39838,1,1,7745,3872
2331,58514494,2,0.002057305,6.841758000000001e-05,-4.962615e-06,-0.08462502,0.072755,-9.864642999999999,0,0,38.39844,1,1,7745,3872
2362,58516894,2,0.002298111,0.0002934971,0.0002626272,-0.08563814,0.07368764,-9.864017,0,0,38.39848,1,1,7745,3872
2365,58520029,2,0.002612105,-0.0004978072,0.0008447641000000001,-0.08913226,0.07539870999999999,-9.861077999999999,0,0,38.39855,1,1,7745,3872
2368,58522020,2,0.002462492,-0.0005419659,0.0005092048,-0.09120821,0.07486945,-9.859890999999999,0,0,38.39861,1,1,7745,3872
2371,58524806,2,0.002211456,0.0002035216,0.000607978,-0.09125755000000001,0.07195015,-9.860493999999999,0,0,38.3987,1,1,7745,3872
2402,58527520,2,0.002072898,0.001070883,0.0009036735,-0.08987275,0.07085916,-9.859316,0,0,38.39877,1,1,7745,3872
2406,58529883,2,0.00239913,0.0009848477000000001,0.001887514,-0.08907639000000001,0.07058825000000001,-9.852465,0,0,38.39885,1,1,7745,3872
2409,58532329,2,0.002701649,0.0007612826,0.002096794,-0.08901679999999999,0.07049505,-9.846684,0,0,38.39891,1,1,7745,3872
2412,58534507,2,0.002002699,0.001264453,0.001393733,-0.08888233,0.06979691,-9.843232,0,0,38.399,1,1,7745,3872
2443,58537128,2,0.001550665,0.001687332,0.00140098,-0.08899996,0.06782734,-9.845389000000001,0,0,38.39909,1,1,7745,3872
2447,58540167,2,0.001327374,0.001711568,0.001289553,-0.08909069999999999,0.06725498000000001,-9.847644000000001,0,0,38.39916,1,1,7745,3872
2455,58542275,2,0.001138372,0.001530817,0.000460458,-0.08917915,0.06721932,-9.851188,0,0,38.39923,1,1,7745,3872
2458,58545116,2,0.00171136,0.001295302,-0.0006925740000000001,-0.08920255000000001,0.06680474,-9.855857,0,0,38.39933,1,1,7745,3872
2489,58547326,2,0.00108253,0.0001524551,-0.0001091574,-0.08987702,0.06635703,-9.860593,0,0,38.39942,1,1,7745,3872
2493,58550161,2,0.0006809572,-0.0002538121,0.0007819507,-0.09022806999999999,0.06612079,-9.862358,0,0,38.39949,1,1,7745,3872
2496,58553013,2,0.001178007,-2.372349e-05,0.001904041,-0.09009517,0.0639134,-9.867298,0,0,38.39958,1,1,7745,3872
2499,58555561,2,0.001580857,-3.864747e-05,0.001971006,-0.08949534000000001,0.0612573,-9.869329,0,0,38.39965,1,1,7745,3872
2530,58557875,2,0.001934523,-0.0006076157,0.002109619,-0.08879065999999999,0.05649442,-9.872192999999999,0,0,38.39977,1,1,7745,3872
2534,58560574,2,0.001860144,-0.0009975238,0.0009623247,-0.08727606,0.0545044,-9.87419,0,0,38.39985,1,1,7745,3872
2537,58563048,2,0.001327411,-0.0004907341,0.0005182077,-0.0865148,0.05494542,-9.875513,0,0,38.39989,1,1,7745,3872
2540,58565972,2,0.002775702,-0.0003508649,0.001204337,-0.08652984,0.05720264,-9.878667,0,0,38.40004,1,1,7745,3872
2571,58568967,2,0.003008138,-0.0001701981,0.001815751,-0.0871553,0.06069599,-9.880257,0,0,38.40015,1,1,7745,3872
2574,58570461,2,0.00226341,1.458114e-05,0.001703385,-0.08794057,0.06367151,-9.879697,0,0,38.40023,1,1,7745,3872
2577,58573023,2,0.0017045,5.35481e-05,0.001483215,-0.08870646,0.06593499,-9.878723000000001,0,0,38.4003,1,1,7745,3872
2580,58575549,2,0.001407802,-0.0009733026,0.0004170115,-0.08991109999999999,0.06723415000000001,-9.880355,0,0,38.40039,1,1,7745,3872
2614,58582304,2,0.000332722,-0.0006543776,0.0008594476,-0.09252759000000001,0.06713176999999999,-9.885693,0,0,38.40051,1,1,7745,3872
2618,58583493,2,0.0006107384,0.0007399406,0.001756124,-0.09430657000000001,0.06734891,-9.887193,0,0,38.40058,1,1,7745,3872
2621,58585932,2,0.0007409889,0.001229579,0.001862526,-0.09551105999999999,0.0673067,-9.888851000000001,0,0,38.40062,1,1,7745,3872
2652,58588361,2,0.0008934367,0.002542195,0.001424715,-0.0978677,0.06598039999999999,-9.889853,0,0,38.40069,1,1,7745,3872
2655,58591256,2,0.0006808889,0.003027918,0.001448653,-0.0988101,0.06394275000000001,-9.889073,0,0,38.40073,1,1,7745,3872
2659,58593955,2,-0.0001431103,0.002631318,0.001539764,-0.09773415000000001,0.06266115,-9.887454999999999,0,0,38.40079,1,1,7745,3872
2664,58597020,2,-0.0002308201,0.002374718,0.001460574,-0.09733304,0.06226988,-9.886105000000001,0,0,38.40083,1,1,7745,3872
2695,58599125,2,-0.001138291,0.001228792,-9.078432e-05,-0.09761705,0.05831784,-9.879269000000001,0,0,38.40086,1,1,7745,3872
2698,58601922,2,-0.001309611,0.001112686,-0.0008410831,-0.09794541,0.0555696,-9.875185999999999,0,0,38.40086,1,1,7745,3872
2702,58604322,2,-0.001404493,0.0006302897,-5.965656e-05,-0.09839129000000001,0.05267089,-9.873136000000001,0,0,38.40086,1,1,7745,3872
2705,58607178,2,-0.001425738,-0.0001421679,0.001419073,-0.09995244,0.04851929,-9.873141,0,0,38.40082,1,1,7745,3872
2736,58610001,2,-0.001538571,-0.0009066066,0.001309677,-0.1013839,0.04705079,-9.872066999999999,0,0,38.40076,1,1,7745,3872
2739,58612369,2,-0.001779242,-0.001316632,0.0007615554000000001,-0.1025135,0.04635126,-9.870282,0,0,38.40071,1,1,7745,3872
2743,58614485,2,-0.001332727,-0.000808757,0.0002370367,-0.1057564,0.04730978,-9.868876,0,0,38.40065,1,1,7745,3872
2746,58616933,2,-0.001408757,-0.0001887745,-0.0005991037,-0.107088,0.0496859,-9.870687,0,0,38.40063,1,1,7745,3872
2777,58619951,2,-0.001272791,2.008052e-05,-0.001638615,-0.1057824,0.05399035,-9.874651999999999,0,0,38.4006,1,1,7745,3872
2780,58622328,2,-0.001049157,-0.0001658157,-0.00140126,-0.1041285,0.05505455,-9.874578,0,0,38.40059,1,1,7745,3872
2783,58624391,2,-0.0001755567,-0.0003148106,-0.001327564,-0.1017591,0.05608876,-9.869453999999999,0,0,38.40055,1,1,7745,3872
2786,58626887,2,0.0003928544,-0.0002072474,-0.00140951,-0.1007163,0.05658837,-9.868295,0,0,38.40054,1,1,7745,3872
2818,58629995,2,0.0009828708999999999,-0.0001402173,-0.0009521836,-0.1010179,0.05436681,-9.869486,0,0,38.4005,1,1,7745,3872
2821,58632323,2,0.0007969853,5.370233e-05,-0.0007560503,-0.1020301,0.05163148,-9.872237,0,0,38.40045,1,1,7745,3872
2825,58634908,2,0.000795285,0.0009717225,-2.968967e-05,-0.1037215,0.04893336,-9.877034,0,0,38.40041,1,1,7745,3872
2829,58637516,2,0.0004176191,0.00120712,0.0002209086,-0.1054185,0.04769921,-9.878467000000001,0,0,38.40039,1,1,7745,3872
2860,58639890,2,-0.0002761802,0.0009136555,0.0001071801,-0.1062966,0.04775341,-9.877715999999999,0,0,38.40036,1,1,7745,3872
2863,58642376,2,0.00073642,0.0009585709,-0.0009775461,-0.1050185,0.04862547,-9.874737,0,0,38.40033,1,1,7745,3872
2870,58645887,2,0.001208247,0.001206397,-0.001296385,-0.1030358,0.04969214,-9.872567,0,0,38.4003,1,1,7745,3872
2873,58647315,2,0.002251202,0.002209021,-0.001928743,-0.1009077,0.04937262,-9.872890999999999,0,0,38.40028,1,1,7745,3872
2904,58650356,2,0.002230652,0.002170639,-0.002370639,-0.1009103,0.04914732,-9.871675,0,0,38.40028,1,1,7745,3872
2907,58652308,2,0.001704005,0.002130891,-0.001719619,-0.1031972,0.05075456,-9.867115999999999,0,0,38.40028,1,1,7745,3872
2911,58654892,2,0.0008127847,0.002454407,-0.002456325,-0.1055393,0.05173863,-9.863022000000001,0,0,38.40029,1,1,7745,3872
2914,58657986,2,0.0005930895,0.002038984,-0.001706535,-0.1090478,0.0544227,-9.860097,0,0,38.40033,1,1,7745,3872
2945,58660130,2,0.001077557,0.001462229,-0.0003096182,-0.1092424,0.05697931,-9.860906999999999,0,0,38.40039,1,1,7745,3872
2948,58663043,2,0.001160499,0.001339194,-0.0004225879,-0.1075376,0.05826988,-9.861276,0,0,38.40042,1,1,7745,3872
2952,58665879,2,0.001686633,0.001971141,-0.001514854,-0.1030903,0.06005706,-9.85919,0,0,38.40048,1,1,7745,3872
2955,58668347,2,0.002172943,0.001212355,-0.002201737,-0.1002549,0.06105594,-9.857991999999999,0,0,38.40051,1,1,7745,3872
2986,58670784,2,0.002582898,-4.047751e-05,-0.001383649,-0.09691912,0.06374259,-9.857092,0,0,38.40056,1,1,7745,3872
2990,58673404,2,0.00208703,0.0009385603,-0.0004548847,-0.09516417000000001,0.06551388,-9.855103,0,0,38.40059,1,1,7745,3872
2993,58676044,2,0.001574911,0.001450008,-0.0007472622,-0.09419136,0.06802721,-9.850251999999999,0,0,38.40062,1,1,7745,3872
2996,58679038,2,0.0006925564,0.001412947,-0.0009836087,-0.0939492,0.07134393999999999,-9.847667,0,0,38.40068,1,1,7745,3872
3027,58682872,2,9.364903e-05,0.001161332,-0.000442761,-0.09368579,0.0716567,-9.850858000000001,0,0,38.40072,1,1,7745,3872
3030,58684160,2,-0.0001665463,0.00114061,2.374104e-05,-0.0924228,0.06828082000000001,-9.855200999999999,0,0,38.40078,1,1,7745,3872
3034,58686604,2,-0.000215011,0.001700661,0.001105933,-0.09177393,0.06582578,-9.857265,0,0,38.40083,1,1,7745,3872
3037,58689369,2,0.0007040545,0.001996624,0.001979262,-0.09168295,0.06504171,-9.858948,0,0,38.40092,1,1,7745,3872
3068,58692709,2,0.001036805,0.001572123,0.002163504,-0.09366136,0.06481957000000001,-9.859868000000001,0,0,38.401,1,1,7745,3872
3071,58694268,2,0.001352557,0.001332825,0.002023809,-0.09581923000000001,0.06362901999999999,-9.859152999999999,0,0,38.40104,1,1,7745,3872
3074,58697122,2,0.002175462,0.0005587526999999999,0.00153734,-0.1011968,0.06203056,-9.860417999999999,0,0,38.4011,1,1,7745,3872
3077,58699142,2,0.002825401,5.831776e-05,0.001350092,-0.1042634,0.06199438,-9.862183,0,0,38.40118,1,1,7745,3872
3108,58701562,2,0.002874078,-0.0002467968,0.0006109399,-0.1037583,0.06393697,-9.864537,0,0,38.40125,1,1,7745,3872
3111,58704897,2,0.002542895,0.0003513695,0.000292213,-0.1027865,0.06421896000000001,-9.866422999999999,0,0,38.40134,1,1,7745,3872
3115,58706551,2,0.002580165,0.001628138,-0.0006361179,-0.1031027,0.06335401,-9.867984,0,0,38.40145,1,1,7745,3872
3118,58711893,2,0.002779831,0.001094936,-0.0002617696,-0.103323,0.05919084,-9.868492,0,0,38.40162,1,1,7745,3872
3149,58714513,2,0.002640241,0.0008968623,-0.0001167611,-0.1039433,0.05762018,-9.866482,0,0,38.4017,1,1,7745,3872
3152,58717350,2,0.001811289,0.0008275878,-2.015897e-05,-0.1039239,0.05663285,-9.86375,0,0,38.40176,1,1,7745,3872
3155,58719795,2,0.0008436554,0.001019747,0.0008972731,-0.1015696,0.05524734,-9.859143,0,0,38.40184,1,1,7745,3872
3158,58722505,2,0.0004243836,0.0006547677,0.002421407,-0.09874682,0.05567242,-9.858376,0,0,38.4019,1,1,7745,3872
3189,58724981,2,7.410025e-05,0.0005573328,0.002582803,-0.09514702999999999,0.0578412,-9.859857999999999,0,0,38.40199,1,1,7745,3872
3193,58727332,2,-0.0001296673,9.818642e-05,0.001356893,-0.09358089999999999,0.06046768,-9.862449,0,0,38.40208,1,1,7745,3872
3196,58730352,2,-0.0003635267,0.000281914,0.001365979,-0.0923937,0.06200968,-9.865062999999999,0,0,38.40215,1,1,7745,3872
3199,58733015,2,-0.0008156616,-0.0001856254,-6.071923e-05,-0.08969893,0.0623949,-9.869004,0,0,38.40228,1,1,7745,3872
3230,58735475,2,-0.001466948,-2.372987e-05,-0.0003851991,-0.08661423,0.0615463,-9.870367999999999,0,0,38.40239,1,1,7745,3872
3233,58737753,2,-0.001464947,4.759495e-05,0.0001634285,-0.08520953000000001,0.06147442,-9.869617999999999,0,0,38.40246,1,1,7745,3872
3236,58740466,2,-0.001632499,0.0001309736,0.0004827189,-0.08206661,0.06133619,-9.864414,0,0,38.40263,1,1,7745,3872
3241,58743499,2,-0.001607447,0.0003462008,0.001170171,-0.08020221,0.05998742,-9.860379999999999,0,0,38.40273,1,1,7745,3872
3272,58746454,2,-0.0005965966,0.000664819,0.002136271,-0.07688124,0.05679794,-9.854214000000001,0,0,38.40292,1,1,7745,3872
3280,58749013,2,-0.0007510094,0.00112432,0.001597869,-0.07400895,0.05640176,-9.849187000000001,0,0,38.40308,1,1,7745,3872
3283,58751069,2,-0.0005781463,0.0009434315,0.0006868457,-0.07392599,0.05671161,-9.848392,0,0,38.40317,1,1,7745,3872
3286,58753507,2,-5.339778e-05,0.001070346,0.000798987,-0.07564339,0.05810368,-9.851329,0,0,38.40331,1,1,7745,3872
3317,58756773,2,-0.0003559854,0.001031787,-0.0005789535,-0.07768889,0.05953196,-9.853434,0,0,38.40342,1,1,7745,3872
3320,58759457,2,-0.0009645944,0.0008886751,-0.000806146,-0.07931072,0.06047182,-9.853035999999999,0,0,38.4035,1,1,7745,3872
3323,58761309,2,-0.001696048,0.000739968,-0.0009094144,-0.08015017000000001,0.06357466000000001,-9.852774,0,0,38.40364,1,1,7745,3872
3326,58763885,2,-0.002170665,0.0001111707,-0.000849802,-0.08040622,0.06598061,-9.856596,0,0,38.40371,1,1,7745,3872
3357,58766323,2,-0.002132063,-0.0004041789,-0.001184994,-0.08099326,0.0678637,-9.861812,0,0,38.4038,1,1,7745,3872
3360,58769562,2,-0.001014427,0.0001345407,-0.0004786362,-0.08088242,0.06790005,-9.8627,0,0,38.40385,1,1,7745,3872
3363,58772105,2,4.181171e-05,0.001404983,6.326692e-05,-0.0809822,0.0664444,-9.863695999999999,0,0,38.40397,1,1,7745,3872
3366,58773894,2,0.0003097991,0.001412467,-0.0002195029,-0.08141696,0.06378731,-9.862686,0,0,38.40402,1,1,7745,3872
3397,58776255,2,-0.0001773394,0.0001791089,-0.0001074996,-0.08285444,0.05926715,-9.862181,0,0,38.4041,1,1,7745,3872
3400,58778757,2,-0.000527665,-0.0003514099,-0.0002516177,-0.08475042000000001,0.05677631,-9.863136000000001,0,0,38.40417,1,1,7745,3872
3405,58782246,2,-7.282303000000001e-05,6.288334e-05,0.0001154099,-0.08867311,0.05443079,-9.861776000000001,0,0,38.40426,1,1,7745,3872
3408,58784397,2,-0.0001370571,0.0005803424,0.0005913865,-0.09131475999999999,0.05289297,-9.861216000000001,0,0,38.40434,1,1,7745,3872
3439,58786780,2,0.0003156563,0.0009982149,-0.000245424,-0.09345862000000001,0.05124611,-9.8612,0,0,38.40443,1,1,7745,3872
3442,58789600,2,0.001104376,0.001787538,-1.48496e-05,-0.09398847,0.04919678,-9.861211000000001,0,0,38.40449,1,1,7745,3872
3446,58793437,2,0.001073904,0.001537795,0.0003112502,-0.09321246,0.04826376,-9.862266,0,0,38.40453,1,1,7745,3872
3449,58794702,2,0.0006892032,0.0009861239999999999,0.0003719765,-0.09108513,0.0482786,-9.864296,0,0,38.40459,1,1,7745,3872
3480,58800104,2,0.001867982,0.0006260165,-0.001000793,-0.09035232999999999,0.04956648,-9.868691999999999,0,0,38.40479,1,1,7745,3872
3485,58803156,2,0.001875826,0.0003646287,-0.001470129,-0.09147545999999999,0.04872403,-9.871010999999999,0,0,38.40486,1,1,7745,3872
3488,58805492,2,0.001182075,0.0005852499,-0.001565084,-0.09258291,0.04830262,-9.873189,0,0,38.40496,1,1,7745,3872
3519,58807714,2,6.377648e-05,0.001393526,-0.001718482,-0.0933319,0.04806086,-9.87491,0,0,38.40506,1,1,7745,3872
3522,58810514,2,-0.0002131881,0.000842669,-0.001546685,-0.09210978,0.04729324,-9.874912,0,0,38.40514,1,1,7745,3872
3526,58813504,2,0.0002284743,-0.000115705,-0.001661795,-0.08881202000000001,0.0473237,-9.871688000000001,0,0,38.40527,1,1,7745,3872
3529,58815914,2,0.0004103465,-0.0003332428,-0.001982773,-0.08826195000000001,0.0483966,-9.869453999999999,0,0,38.40534,1,1,7745,3872
3560,58818009,2,0.001170671,-5.301521e-06,-0.001792038,-0.08841417999999999,0.05187219,-9.868921,0,0,38.40541,1,1,7745,3872
3563,58820927,2,0.001604916,0.0006812394,-0.001186457,-0.08820303,0.05360518,-9.869840999999999,0,0,38.40545,1,1,7745,3872
3566,58823725,2,0.002113433,0.001423342,-0.0002727089,-0.08927201999999999,0.05587837,-9.870437000000001,0,0,38.40549,1,1,7745,3872
3569,58826247,2,0.002456912,0.001874934,-0.0002726367,-0.09127839,0.06095887,-9.871734,0,0,38.40552,1,1,7745,3872
3600,58828294,2,0.0008866824,0.002230273,-0.000683219,-0.09576301,0.0653059,-9.872897999999999,0,0,38.40557,1,1,7745,3872
3603,58830983,2,0.0001227131,0.001644671,-0.001666659,-0.09741267000000001,0.06630123,-9.872712,0,0,38.4056,1,1,7745,3872
3607,58833661,2,0.0006553839,0.0006082087,-0.002123461,-0.1015991,0.0676355,-9.871712,0,0,38.40564,1,1,7745,3872
3610,58836174,2,0.001777449,-0.0002735776,-0.001640142,-0.1026293,0.06749049999999999,-9.869872000000001,0,0,38.40567,1,1,7745,3872
3641,58839080,2,0.001367023,0.0003478021,-0.0008032272,-0.1039124,0.06637048,-9.866773999999999,0,0,38.40573,1,1,7745,3872
3645,58841505,2,0.001569044,0.0006449921,-0.0003449424,-0.105662,0.06592038,-9.866861,0,0,38.40577,1,1,7745,3872
3649,58843570,2,0.002531916,0.0003890254,5.007436e-06,-0.1080198,0.06504372999999999,-9.867775,0,0,38.40585,1,1,7745,3872
3653,58846024,2,0.002836547,-0.0001322964,0.000222462,-0.1100046,0.06544687,-9.869035,0,0,38.40588,1,1,7745,3872
3684,58848329,2,0.002284502,-0.0002189764,0.001515988,-0.1115934,0.06686655,-9.872455,0,0,38.40593,1,1,7745,3872
3691,58851731,2,0.001216736,-1.679409e-07,0.001919067,-0.1113765,0.06604110000000001,-9.873678999999999,0,0,38.40596,1,1,7745,3872
3695,58853580,2,0.0008242084999999999,0.00146948,0.0004982682,-0.1090527,0.06511234,-9.870134999999999,0,0,38.40597,1,1,7745,3872
3698,58856380,2,0.001160358,0.001806341,-0.0002026818,-0.1070609,0.06506152,-9.865637,0,0,38.40598,1,1,7745,3872
3729,58858998,2,0.001622922,0.0008761306,0.0001766929,-0.1036144,0.06585394,-9.857653000000001,0,0,38.40598,1,1,7745,3872
3732,58861767,2,0.00153117,0.0007330031,0.0001542176,-0.1007761,0.06682798,-9.853073,0,0,38.40599,1,1,7745,3872
3735,58864587,2,0.001072102,0.001290263,0.0002526403,-0.09792238,0.06876116,-9.849030000000001,0,0,38.40601,1,1,7745,3872
3739,58866494,2,0.001064804,0.001844848,1.890734e-05,-0.09709539,0.0684691,-9.849866,0,0,38.40605,1,1,7745,3872
3770,58869429,2,0.001379464,0.002191843,0.000411828,-0.09708714,0.06722189000000001,-9.851362,0,0,38.4061,1,1,7745,3872
3773,58871466,2,0.0007849102,0.001639161,0.0010779,-0.09753765,0.06617814,-9.853031,0,0,38.40617,1,1,7745,3872
3777,58873952,2,0.0005948023,0.0007542864,0.001321982,-0.09982578,0.0656561,-9.854462,0,0,38.40622,1,1,7745,3872
3780,58877042,2,0.0006759322,0.0005421739000000001,0.001183735,-0.1027116,0.06436153999999999,-9.856369000000001,0,0,38.40629,1,1,7745,3872
3811,58879802,2,0.0015585,0.000267937,0.001261188,-0.1024025,0.06292744,-9.859413,0,0,38.40636,1,1,7745,3872
3814,58882151,2,0.00224174,0.0006987123,1.156183e-05,-0.1015745,0.06178455,-9.861553000000001,0,0,38.40642,1,1,7745,3872
3818,58884374,2,0.002548636,0.001318639,-0.0009683026,-0.1013958,0.05976242,-9.866961,0,0,38.40653,1,1,7745,3872
3821,58888277,2,0.001998249,0.001286179,-0.0007781768000000001,-0.1015979,0.05975534,-9.870005000000001,0,0,38.40659,1,1,7745,3872
3824,58889802,2,0.0007945608,0.001095691,0.001040456,-0.1023187,0.06232191,-9.873892,0,0,38.4067,1,1,7745,3872
3855,58892544,2,0.0007854703999999999,0.001274943,0.00222609,-0.1029439,0.06332481,-9.876424,0,0,38.40678,1,1,7745,3872
3858,58894510,2,0.001143694,0.001024047,0.002080865,-0.1040308,0.06317925000000001,-9.877912999999999,0,0,38.40683,1,1,7745,3872
3861,58897085,2,0.001225603,0.0007607021,0.001863549,-0.1054375,0.06299916,-9.878501999999999,0,0,38.40689,1,1,7745,3872
3864,58900362,2,0.001616501,0.0007477428,0.000775862,-0.1054035,0.06297308,-9.878548,0,0,38.40699,1,1,7745,3872
3895,58902710,2,0.002712518,0.001205279,0.0002000513,-0.103047,0.06380919,-9.875875000000001,0,0,38.40706,1,1,7745,3872
3899,58906794,2,0.002327753,0.001306279,2.842246e-05,-0.1022824,0.06448402,-9.872303,0,0,38.40711,1,1,7745,3872
3902,58907975,2,0.0009736552,0.001418295,0.000325124,-0.1022009,0.06375044000000001,-9.870653000000001,0,0,38.40718,1,1,7745,3872
3905,58911147,2,0.0008634704,0.001481585,0.0001081915,-0.1021233,0.06238472,-9.874253,0,0,38.40726,1,1,7745,3872
3936,58913463,2,0.001702639,0.001440013,-0.001063855,-0.1024743,0.06139694,-9.881729,0,0,38.40736,1,1,7745,3872
3939,58916370,2,0.001349676,0.001112936,-0.001898865,-0.1024849,0.06143619,-9.887199000000001,0,0,38.40739,1,1,7745,3872
3942,58918350,2,0.0009349748,0.0009459599,-0.00239346,-0.1018446,0.06213233,-9.890575,0,0,38.40743,1,1,7745,3872
3945,58921112,2,0.0003950128,0.001191737,-0.002381248,-0.1015512,0.06197934,-9.888718000000001,0,0,38.40747,1,1,7745,3872
3976,58924049,2,-0.0002418149,0.00186887,-0.00172178,-0.1010562,0.06120871,-9.881895,0,0,38.40755,1,1,7745,3872
3980,58926257,2,-0.0002077601,0.001560256,-0.0003698422,-0.101264,0.06059401,-9.879234,0,0,38.40758,1,1,7745,3872
3983,58929060,2,0.0005529604,0.0003834598,8.809084e-05,-0.1033038,0.05918914,-9.874771000000001,0,0,38.40765,1,1,7745,3872
3986,58931122,2,0.0013274,-0.0006280123000000001,0.0007292279,-0.1046319,0.05907661,-9.872995,0,0,38.40769,1,1,7745,3872
4017,58933431,2,0.0009809907,-0.001230841,0.001711271,-0.1055278,0.05915713,-9.874650000000001,0,0,38.40775,1,1,7745,3872
4021,58936483,2,0.0009155746,-0.0007187228,0.001684212,-0.104244,0.06039424,-9.875311,0,0,38.4078,1,1,7745,3872
4024,58938332,2,0.0007128574,-0.0002461326,-0.0004275343,-0.1004439,0.06133216,-9.874518,0,0,38.40791,1,1,7745,3872
4027,58941154,2,0.000417767,0.0003859751,-0.001192204,-0.09783872,0.06149587,-9.874568999999999,0,0,38.40797,1,1,7745,3872
4060,58943560,2,-0.0001225147,0.00164636,-0.0008822043,-0.09508437,0.06152147,-9.875038999999999,0,0,38.40811,1,1,7745,3872
4064,58946038,2,-0.0005482409,0.002606956,-0.001446299,-0.09377509000000001,0.06186539,-9.875522999999999,0,0,38.40818,1,1,7745,3872
4068,58949388,2,0.0002594265,0.002341879,-0.001392623,-0.09416661,0.06396431,-9.872107,0,0,38.40831,1,1,7745,3872
4071,58951329,2,0.0004422277,0.001359401,-0.001264407,-0.09541471,0.06584418,-9.866484,0,0,38.40838,1,1,7745,3872
4106,58954030,2,0.0001021756,-0.0006731699,-0.001096467,-0.09740583999999999,0.06756448,-9.859748,0,0,38.40848,1,1,7745,3872
4111,58955970,2,-0.000183995,-0.001012175,-0.00120729,-0.09766215,0.06941034,-9.856525,0,0,38.40855,1,1,7745,3872
4114,58958404,2,8.117619e-05,-0.0007609767,-0.0006020789,-0.09763039,0.07229507,-9.853818,0,0,38.40865,1,1,7745,3872
4117,58961343,2,0.0005006338,-4.023619e-05,-2.382457e-05,-0.09702044999999999,0.07568698,-9.853156,0,0,38.40876,1,1,7745,3872
4148,58964144,2,0.000719151,-0.0001183431,-0.0001524135,-0.09661293,0.07997272,-9.854753000000001,0,0,38.40888,1,1,7745,3872
4152,58966404,2,0.0008490389,-0.001054537,-0.0001327377,-0.09549611,0.08125313000000001,-9.857784000000001,0,0,38.40896,1,1,7745,3872
4155,58968958,2,0.0001736822,-0.000896589,-0.0004736977,-0.09340924,0.07768141000000001,-9.864831000000001,0,0,38.40907,1,1,7745,3872
4158,58971531,2,-0.0002204771,0.0002288726,-0.0009012076,-0.09354986,0.07257564,-9.869933,0,0,38.40923,1,1,7745,3872
4189,58974367,2,-0.0003045003,0.001039255,-0.001328777,-0.09367643,0.06903271,-9.871198,0,0,38.40931,1,1,7745,3872
4193,58976967,2,-0.0007004478,0.001726783,-0.001130843,-0.09364118,0.06388415,-9.870547999999999,0,0,38.40941,1,1,7745,3872
4196,58978801,2,-0.0005162348,0.001509349,-0.0004849322,-0.09086903,0.06069748,-9.868368,0,0,38.40946,1,1,7745,3872
4199,58981457,2,0.0002796846,0.001937987,0.0008057349,-0.08557075,0.05867036,-9.863883,0,0,38.40957,1,1,7745,3872
4230,58983948,2,0.0005507597,0.001573122,0.001540618,-0.08341917,0.05775279,-9.861288,0,0,38.40963,1,1,7745,3872
4234,58986977,2,0.0003052382,0.0008837294,0.001481596,-0.0813565,0.05557572,-9.859106000000001,0,0,38.40974,1,1,7745,3872
4239,58989766,2,0.000210266,0.0007387027,0.00110339,-0.08030333000000001,0.05434242,-9.856168,0,0,38.40983,1,1,7745,3872
4242,58991286,2,-9.944076e-06,4.216713e-05,0.000541057,-0.08027589,0.0547725,-9.851953,0,0,38.40999,1,1,7745,3872
4273,58994315,2,0.0005442685,-0.0005222391,0.0007991784,-0.08053325,0.05544409,-9.853254,0,0,38.41006,1,1,7745,3872
4277,58996498,2,0.001241757,-0.0007012913,-4.933393e-05,-0.08062037,0.05623669,-9.85933,0,0,38.41019,1,1,7745,3872
4280,59000472,2,0.0001383307,-0.0001496913,-0.0008662947,-0.08084805,0.05573694,-9.861549,0,0,38.41025,1,1,7745,3872
4283,59003107,2,-0.0008193796,0.0002920125,-0.002236333,-0.08331402,0.05468263,-9.861202,0,0,38.41036,1,1,7745,3872
4286,59004313,2,-0.0004691952,0.0008608606,-0.002075016,-0.08705514,0.05463776,-9.859551,0,0,38.41048,1,1,7745,3872
4317,59007068,2,0.0002712881,0.0008148932,-0.0006682164,-0.08861697,0.0551779,-9.858169999999999,0,0,38.41054,1,1,7745,3872
4320,59010139,2,0.0001399989,0.0005158135,0.001030436,-0.0888534,0.05670114,-9.860742999999999,0,0,38.41063,1,1,7745,3872
4323,59012509,2,-0.0004072954,-0.0004339736,0.001727875,-0.09003812,0.05771643,-9.863553,0,0,38.41068,1,1,7745,3872
4326,59015487,2,-0.0008374213,-0.001491093,0.0008111995,-0.09176014,0.06015425,-9.865447,0,0,38.41073,1,1,7745,3872
4357,59017988,2,-6.414717000000001e-05,-0.0009900760000000001,0.0002841398,-0.09312438000000001,0.0611797,-9.864661999999999,0,0,38.4108,1,1,7745,3872
4361,59020490,2,0.0009471988,-0.0004211426,0.000366152,-0.094282,0.06083219,-9.863146,0,0,38.41085,1,1,7745,3872
4364,59023363,2,0.001727474,-0.0001832452,0.0002813434,-0.09387766,0.06195589,-9.863314000000001,0,0,38.41093,1,1,7745,3872
4367,59025308,2,0.001441692,-0.0006965508,0.0004011619,-0.09291870000000001,0.06381636,-9.863695999999999,0,0,38.41098,1,1,7745,3872
4398,59028092,2,0.001112356,-0.0007651674,2.69478e-05,-0.09095308000000001,0.06705849999999999,-9.865087000000001,0,0,38.41104,1,1,7745,3872
4402,59030411,2,0.002112312,-0.001504109,-0.0006030625,-0.08813329,0.06977284,-9.866749,0,0,38.41107,1,1,7745,3872
4406,59032604,2,0.002346479,-0.001666665,-0.0004416148,-0.0879762,0.07071582,-9.869133,0,0,38.41115,1,1,7745,3872
4409,59035767,2,0.002344889,-0.001449145,0.0003958414,-0.08934785000000001,0.07177059,-9.873570000000001,0,0,38.41121,1,1,7745,3872
4440,59038413,2,0.001758872,-0.0008252297,0.00124446,-0.09132081,0.07306757999999999,-9.877922999999999,0,0,38.41128,1,1,7745,3872
4443,59040744,2,0.001230712,-0.0001096487,0.001332623,-0.09256193,0.07495037,-9.881871,0,0,38.41136,1,1,7745,3872
4446,59043082,2,0.0008730474,0.0003785329,0.0008587991,-0.09250501,0.07585767,-9.884118000000001,0,0,38.41142,1,1,7745,3872
4449,59045499,2,0.001304052,0.0002981015,0.001160306,-0.09096017000000001,0.07617848000000001,-9.882825,0,0,38.4115,1,1,7745,3872
4480,59048511,2,0.00165465,-0.0002528169,0.001539854,-0.08896846,0.07534781,-9.881506999999999,0,0,38.41154,1,1,7745,3872
4484,59051076,2,0.001449501,-0.0005542763,0.001384008,-0.08769912000000001,0.07348855999999999,-9.879025,0,0,38.41161,1,1,7745,3872
4487,59053005,2,0.001318292,-0.0004126663,0.001344763,-0.08841219,0.07092395,-9.874955999999999,0,0,38.41166,1,1,7745,3872
4494,59056038,2,0.0005294916,9.963937e-05,0.0007725849,-0.08992189,0.06609737,-9.871518999999999,0,0,38.41174,1,1,7745,3872
4525,59058174,2,-0.0005246795,-0.0005425966,-0.0006410343,-0.09262499,0.06316466,-9.876984,0,0,38.41182,1,1,7745,3872
4529,59061101,2,-0.0004767251,-0.0004964604,-0.001543059,-0.09581228,0.06234628,-9.879621,0,0,38.41188,1,1,7745,3872
4532,59063830,2,-0.0003185617,-0.0004665428,-0.002042554,-0.09853611,0.06152446,-9.878613,0,0,38.41197,1,1,7745,3872
4535,59065787,2,-0.000310606,-0.0009546553,-0.002228106,-0.1007877,0.06026047,-9.872764999999999,0,0,38.41206,1,1,7745,3872
4566,59067967,2,-0.0003646273,-0.0008542123999999999,-0.00175589,-0.1005488,0.06050516,-9.867352,0,0,38.41211,1,1,7745,3872
4570,59070762,2,-0.0001341611,-0.0002657431,-0.0008708197999999999,-0.09940723999999999,0.06266331999999999,-9.860929,0,0,38.41218,1,1,7745,3872
4574,59073574,2,0.0001185163,-0.0002632088,-0.0001801823,-0.09960115999999999,0.06404728,-9.858866000000001,0,0,38.41224,1,1,7745,3872
4577,59075583,2,0.0005660993999999999,0.0010044,-0.0006631915,-0.09994321,0.06432915,-9.855370000000001,0,0,38.41232,1,1,7745,3872
4608,59078361,2,0.0009564474000000001,0.002261607,-0.0003771462,-0.09950726999999999,0.06374220999999999,-9.850747,0,0,38.41236,1,1,7745,3872
4612,59080687,2,0.0009210234,0.002641104,-0.0001307093,-0.09863213,0.0639141,-9.847246999999999,0,0,38.41242,1,1,7745,3872
4615,59082944,2,0.0008766053,0.002182982,-0.0003455914,-0.09747415,0.06529754,-9.845535,0,0,38.41246,1,1,7745,3872
4618,59086330,2,0.001266417,0.0009959654000000001,-9.643091000000001e-05,-0.09645421,0.0668895,-9.843401,0,0,38.41252,1,1,7745,3872
4649,59089323,2,0.0006904718,5.222898e-05,0.0009556999,-0.09557895,0.06709722999999999,-9.843724,0,0,38.41257,1,1,7745,3872
4652,59091168,2,-0.0003515866,-0.0003506724,0.0008871346999999999,-0.09442087,0.06583224999999999,-9.844965999999999,0,0,38.4126,1,1,7745,3872
4655,59093534,2,-0.001259189,-0.0005597754,-7.603539e-05,-0.09491584,0.06224921,-9.850189,0,0,38.41262,1,1,7745,3872
4658,59098956,2,8.216472e-05,0.0006693382,-6.376425e-05,-0.09559608,0.05645074,-9.861034,0,0,38.41266,1,1,7745,3872
4690,59103036,2,-0.0005289556,0.001117369,0.0008407166999999999,-0.094239,0.05470926,-9.866778,0,0,38.41268,1,1,7745,3872
4693,59104380,2,-0.001173571,0.0002344246,0.002091339,-0.09325689,0.05408895,-9.871376,0,0,38.4127,1,1,7745,3872
4696,59107560,2,-0.0009777423999999999,0.0004914258,0.002516365,-0.09282891,0.05441583,-9.873239999999999,0,0,38.41272,1,1,7745,3872
4699,59110006,2,-0.0006522633,0.0005049023,0.001585826,-0.0940019,0.05497712,-9.874876,0,0,38.41272,1,1,7745,3872
4730,59112129,2,-0.0005981515,8.405939e-05,-8.496312e-05,-0.09609806,0.05504297,-9.87534,0,0,38.41269,1,1,7745,3872
4733,59115339,2,-7.758072e-05,-0.0002101834,-0.0009808798999999999,-0.09922652999999999,0.05362398,-9.876328000000001,0,0,38.41268,1,1,7745,3872
4736,59117275,2,0.0006850653,-0.0006307228,-0.001590567,-0.1035817,0.05188479,-9.879186000000001,0,0,38.41267,1,1,7745,3872
4739,59119966,2,0.000801218,-0.0006111696,-0.002056946,-0.1045486,0.05104258,-9.880459999999999,0,0,38.41267,1,1,7745,3872
4770,59122734,2,0.001887345,-0.0007301776,-0.002347956,-0.1053564,0.05186115,-9.881062,0,0,38.41268,1,1,7745,3872
4774,59124961,2,0.002758299,-0.0008228050999999999,-0.002192321,-0.1057218,0.0527574,-9.879987,0,0,38.41269,1,1,7745,3872
4777,59127772,2,0.002018635,0.0002617893,-0.003297946,-0.1059293,0.05429579,-9.875534,0,0,38.41272,1,1,7745,3872
4780,59130336,2,0.001027022,0.000922895,-0.003365977,-0.106253,0.05593977,-9.871378,0,0,38.41273,1,1,7745,3872
4811,59133064,2,-0.0005564869,0.0009293191,-0.00156956,-0.1069307,0.05669486,-9.870217,0,0,38.41275,1,1,7745,3872
4815,59135281,2,-0.0010656,0.0002340676,-9.329747e-05,-0.1065716,0.05707246,-9.872771,0,0,38.41277,1,1,7745,3872
4818,59138159,2,-0.001606731,-0.0002568786,0.0008510979,-0.1053842,0.05948509,-9.874060999999999,0,0,38.4128,1,1,7745,3872
4821,59140525,2,-0.0007373543,4.976196e-05,1.010666e-05,-0.1036551,0.0598283,-9.873787,0,0,38.41282,1,1,7745,3872
4852,59142699,2,0.0005809662,0.000278548,-0.0002763448,-0.1007816,0.05784468,-9.872669,0,0,38.41285,1,1,7745,3872
4855,59145946,2,0.001827971,0.0001408813,-0.001233356,-0.09783031,0.05487373,-9.868480999999999,0,0,38.41286,1,1,7745,3872
4858,59147608,2,0.002071264,0.0003000745,-0.001435234,-0.09703033,0.05282287,-9.864210999999999,0,0,38.41288,1,1,7745,3872
4861,59150538,2,0.001724368,0.0001266061,-0.0005939721,-0.09482810999999999,0.05108422,-9.860919000000001,0,0,38.41288,1,1,7745,3872
4892,59153729,2,0.001706922,-1.030888e-05,0.0003399361,-0.09246551,0.05101652,-9.860635,0,0,38.41288,1,1,7745,3872
4896,59155382,2,0.001826614,0.0002858693,0.0005758464,-0.08843230000000001,0.05107734,-9.864663,0,0,38.41288,1,1,7745,3872
4903,59158270,2,0.001455335,0.0002468619,0.0005267137,-0.08586054,0.05101997,-9.868021000000001,0,0,38.41286,1,1,7745,3872
4906,59160890,2,0.001774436,0.0002211192,0.0003043465,-0.08474041,0.05133286,-9.869513,0,0,38.41281,1,1,7745,3872
4937,59163147,2,0.001970253,0.0002869105,-0.0003818932,-0.08514027,0.05031798,-9.870077999999999,0,0,38.41278,1,1,7745,3872
4940,59165983,2,0.001769061,0.0005709989,-0.001017326,-0.08662287,0.04924327,-9.870837999999999,0,0,38.41277,1,1,7745,3872
4943,59168901,2,0.0007647154,0.001058434,-0.0004295399,-0.09067281000000001,0.04806181,-9.868188,0,0,38.41276,1,1,7745,3872
4946,59171290,2,0.0006814615999999999,0.001210038,0.0001330101,-0.09226231,0.04798057,-9.865068000000001,0,0,38.41276,1,1,7745,3872
4977,59173928,2,0.001242585,0.001071888,0.0002519886,-0.09385826,0.04805823,-9.861295999999999,0,0,38.41276,1,1,7745,3872
4981,59175952,2,0.0009031831,0.0008151479,-0.0002510287,-0.09593208,0.04824105,-9.857150000000001,0,0,38.41277,1,1,7745,3872
4985,59178875,2,0.000519634,0.0003047898,-0.0001762771,-0.09805742000000001,0.04899715,-9.848653000000001,0,0,38.41279,1,1,7745,3872
4989,59181065,2,0.0007651227,0.0004975688,0.0001806615,-0.09875701000000001,0.05034131,-9.842632999999999,0,0,38.41279,1,1,7745,3872
5020,59183893,2,0.001351302,0.001163221,-0.0002093801,-0.1012469,0.05363894,-9.837972000000001,0,0,38.41279,1,1,7745,3872
5023,59185971,2,0.001809421,0.001392295,-0.00112258,-0.103131,0.05594376,-9.837379,0,0,38.41279,1,1,7745,3872
5026,59188313,2,0.001320465,0.002145606,-0.0006820619,-0.1053813,0.05895067,-9.839098,0,0,38.4128,1,1,7745,3872
5029,59190957,2,0.0008711927,0.001706962,-0.0007991001,-0.1066554,0.0609181,-9.842399,0,0,38.41281,1,1,7745,3872
5062,59194174,2,-0.0007096122,0.002048022,-0.0005186957,-0.1069803,0.06270536,-9.847702999999999,0,0,38.41282,1,1,7745,3872
5066,59196318,2,-0.001751571,0.00228284,-0.0002845111,-0.107119,0.06378540000000001,-9.852411,0,0,38.41282,1,1,7745,3872
5069,59201296,2,-0.0008638745,0.003184753,0.001398128,-0.1101738,0.06630798,-9.860467999999999,0,0,38.41282,1,1,7745,3872
5100,59205030,2,3.967077e-05,0.003993166,0.0009686296,-0.1106103,0.06749383,-9.861649999999999,0,0,38.4128,1,1,7745,3872
5103,59206360,2,0.00231524,0.002702593,0.0001582314,-0.1078633,0.06610194,-9.862508999999999,0,0,38.41276,1,1,7745,3872
5106,59209514,2,0.002435066,0.002206099,-0.0001816286,-0.1068007,0.06517565,-9.863058000000001,0,0,38.41272,1,1,7745,3872
5109,59211206,2,0.001542706,0.001374915,0.0001288386,-0.1043156,0.06329429,-9.864895000000001,0,0,38.41265,1,1,7745,3872
5140,59213562,2,0.001064624,0.001680002,0.0009328035,-0.09923946,0.05912679,-9.867591000000001,0,0,38.41259,1,1,7745,3872
5144,59217085,2,0.0007574484,0.001919661,0.001767593,-0.09527365,0.05621956,-9.867649999999999,0,0,38.41256,1,1,7745,3872
5147,59218942,2,0.0009721039,0.001484777,0.002909345,-0.08963024999999999,0.05379536,-9.867153,0,0,38.41253,1,1,7745,3872
5150,59221802,2,0.00157925,0.001188445,0.003292172,-0.08628897000000001,0.05338087,-9.868198,0,0,38.41248,1,1,7745,3872
5181,59223981,2,0.0009978474,-0.0007133877,0.002498389,-0.08327565000000001,0.05332209,-9.868791,0,0,38.41245,1,1,7745,3872
5185,59226508,2,-9.052696999999999e-05,-0.001949096,0.001291534,-0.08122625999999999,0.05375504,-9.869201,0,0,38.4124,1,1,7745,3872
5188,59229572,2,-0.0001434575,-0.001966669,0.0009983237,-0.07941708,0.05440059,-9.869987,0,0,38.41237,1,1,7745,3872
5191,59231556,2,0.0005818779,-0.001871246,0.0004777503,-0.0770047,0.05513602,-9.871207,0,0,38.41233,1,1,7745,3872
5222,59234597,2,0.001052591,-0.00147383,-0.0009798954999999999,-0.07690287,0.05482363,-9.869650999999999,0,0,38.41232,1,1,7745,3872
5225,59236545,2,0.0006558006,-0.0006622364,-0.0009781467000000001,-0.07766990999999999,0.05479759,-9.864972,0,0,38.4123,1,1,7745,3872
5228,59239084,2,0.0004379364,-0.0001956967,-0.0005713815,-0.07871520999999999,0.05556303,-9.860462999999999,0,0,38.41228,1,1,7745,3872
5231,59242148,2,0.0005892754,-0.0001813911,0.0002871846,-0.07960312999999999,0.05812448,-9.854849,0,0,38.41224,1,1,7745,3872
5262,59244310,2,0.0004983384,-0.0007462988,0.0007362315,-0.07842768999999999,0.05967156,-9.848428999999999,0,0,38.41219,1,1,7745,3872
5267,59247523,2,-0.0002291062,-0.0006768248,0.0007068261,-0.07647298,0.06038352,-9.846511,0,0,38.41216,1,1,7745,3872
5270,59249784,2,-0.001100796,-0.0001301213,0.0009227077,-0.0746882,0.06035886,-9.847374,0,0,38.41209,1,1,7745,3872
5273,59252671,2,-0.0006836922,0.000325181,0.001184095,-0.07508827999999999,0.06062316,-9.849399,0,0,38.41206,1,1,7745,3872
5304,59254922,2,0.0001562457,0.0008571992,0.0009328353,-0.07581416000000001,0.06101368,-9.855905999999999,0,0,38.41203,1,1,7745,3872
5307,59257345,2,-0.0007220351,0.001131986,-0.0009478412,-0.07618774,0.06227441,-9.868295,0,0,38.41199,1,1,7745,3872
5314,59261007,2,-0.001260219,0.0009674090999999999,-0.0007712101,-0.07677200000000001,0.06361124999999999,-9.874369,0,0,38.41195,1,1,7745,3872
5317,59262371,2,-0.0008791575,0.0007094655,-0.00109424,-0.07879796,0.06453312999999999,-9.877795000000001,0,0,38.4119,1,1,7745,3872
5348,59265692,2,-0.0007154157,0.0003365762,-0.001174173,-0.08013592999999999,0.06460895,-9.878996000000001,0,0,38.41186,1,1,7745,3872
5352,59267357,2,-0.0009982672,0.0006834785,-5.770539e-05,-0.08219289,0.06451454,-9.881323999999999,0,0,38.41179,1,1,7745,3872
5355,59270256,2,-0.0008802328000000001,0.001127247,0.0009257678,-0.08285864,0.06414188,-9.882346999999999,0,0,38.41176,1,1,7745,3872
5358,59273140,2,0.0003906751,0.001075323,0.001330022,-0.08264916999999999,0.06358419,-9.885885,0,0,38.41171,1,1,7745,3872
5389,59275388,2,0.0009259763,0.0001357388,0.0009389667,-0.08137596,0.06217106,-9.888368,0,0,38.41164,1,1,7745,3872
5393,59278325,2,0.0004052834,-0.0004914904000000001,0.0002818397,-0.08102209,0.06125056,-9.888356999999999,0,0,38.4116,1,1,7745,3872
5397,59280482,2,0.000320362,-0.001153555,0.0001727675,-0.0830187,0.06059426,-9.886032,0,0,38.41153,1,1,7745,3872
5400,59283570,2,0.0009533495,-0.001374851,0.0001463052,-0.08593917,0.06065409,-9.883198999999999,0,0,38.4115,1,1,7745,3872
5431,59285966,2,0.00133917,-0.0004000884,-0.0001353444,-0.08886637999999999,0.06104647,-9.880397,0,0,38.41144,1,1,7745,3872
5434,59288574,2,0.0008498712,0.0005378639,0.00019656,-0.0891175,0.06088154,-9.874114000000001,0,0,38.41139,1,1,7745,3872
5437,59291351,2,5.131849e-05,0.0004855111,2.276062e-05,-0.08869347,0.05995296,-9.867819000000001,0,0,38.41135,1,1,7745,3872
5440,59293615,2,0.0002622372,-0.0002615068,0.0001958748,-0.08869365,0.05827147,-9.861345,0,0,38.41129,1,1,7745,3872
5471,59297470,2,0.001211836,-0.001065997,-0.000600645,-0.08904835,0.05697327,-9.859878999999999,0,0,38.41119,1,1,7745,3872
5475,59298711,2,0.001098309,-0.001610707,-0.0001971964,-0.08996106,0.05622454,-9.859139000000001,0,0,38.41115,1,1,7745,3872
5478,59302791,2,0.0004587875,-0.001677743,0.0005936021,-0.09144785,0.05653651,-9.858461999999999,0,0,38.41105,1,1,7745,3872
5481,59304052,2,0.0003259399,-0.001708938,0.001456802,-0.09311477,0.05700849,-9.85806,0,0,38.41099,1,1,7745,3872
5512,59307718,2,-9.93245e-06,-0.001443944,0.002751842,-0.09760621,0.05659126,-9.857926000000001,0,0,38.41091,1,1,7745,3872
5515,59309360,2,-0.0006199821,-0.0009980785000000001,0.00325498,-0.1002475,0.05680656,-9.857165,0,0,38.41085,1,1,7745,3872
5518,59311553,2,-0.001083529,-0.001076687,0.001266007,-0.1012005,0.05830069,-9.85834,0,0,38.41077,1,1,7745,3872
5521,59314297,2,-0.001168062,-0.000884167,6.752474e-05,-0.1022412,0.05966374,-9.859318,0,0,38.41072,1,1,7745,3872
5552,59316554,2,-0.002000262,-0.0002361759,-0.000711371,-0.1051785,0.05852453,-9.858086,0,0,38.41067,1,1,7745,3872
5556,59319385,2,-0.002050285,0.0003723497,-0.0008483797,-0.1057795,0.05712263,-9.856548999999999,0,0,38.41064,1,1,7745,3872
5559,59321338,2,-0.0008968587,0.001180737,-0.0002439028,-0.104812,0.05843296,-9.857965,0,0,38.41058,1,1,7745,3872
5562,59323925,2,0.0003243617,0.001262675,0.0001904335,-0.1034737,0.05988547,-9.860799999999999,0,0,38.41053,1,1,7745,3872
5593,59326798,2,0.0009302651,0.0003477072,0.0008301421,-0.1002021,0.06189413,-9.863391999999999,0,0,38.41045,1,1,7745,3872
5596,59329019,2,0.001299793,5.226822e-05,-1.549204e-05,-0.09867669,0.06211744,-9.864649,0,0,38.41039,1,1,7745,3872
5599,59331899,2,0.001850572,-0.0005329413,0.0002148308,-0.09537683,0.06125706,-9.870581,0,0,38.41029,1,1,7745,3872
5602,59333976,2,0.00202933,-0.0006340748,0.0004082649,-0.09463152,0.06025865,-9.875864999999999,0,0,38.41022,1,1,7745,3872
5633,59336284,2,0.00156845,0.0001957268,-0.0003428508,-0.0950752,0.05983065,-9.885201,0,0,38.41014,1,1,7745,3872
5637,59339405,2,0.001281456,0.0006224473,0.0003005766,-0.09440298,0.05963327,-9.888902,0,0,38.41011,1,1,7745,3872
5640,59341499,2,0.001550942,0.0002404389,0.001590252,-0.09249350000000001,0.05770034,-9.891552000000001,0,0,38.41003,1,1,7745,3872
5643,59344293,2,0.002023397,-0.0002748269,0.001123549,-0.09057498,0.0544474,-9.891219,0,0,38.40999,1,1,7745,3872
5674,59346519,2,0.001775366,0.0006086374,0.0007578875,-0.08679815,0.05160214,-9.884719,0,0,38.40992,1,1,7745,3872
5677,59348761,2,0.001733952,0.00123356,0.001334235,-0.08443781,0.05245649,-9.878258000000001,0,0,38.40985,1,1,7745,3872
5680,59351954,2,0.001237743,0.001763885,0.000786077,-0.08366529,0.0541877,-9.869061,0,0,38.40973,1,1,7745,3872
5683,59354110,2,0.001085998,0.001605784,0.0008937226,-0.08502882,0.05504929,-9.865216999999999,0,0,38.40965,1,1,7745,3872
5714,59356992,2,0.0006125256,0.0007055766,0.0003364843,-0.08858626999999999,0.05558458,-9.863498999999999,0,0,38.40951,1,1,7745,3872
5717,59358955,2,-0.0001023628,0.0003897189,0.0003501617,-0.09106148,0.05643987,-9.862722,0,0,38.40944,1,1,7745,3872
5724,59361915,2,-0.0008528539,-0.001110118,5.470619e-05,-0.0938619,0.05840963,-9.861456,0,0,38.40932,1,1,7745,3872
5727,59364518,2,-0.001218839,-0.001156923,-2.56735e-05,-0.09817453,0.06407852,-9.859381000000001,0,0,38.40927,1,1,7745,3872
5758,59367250,2,-0.0009809592000000001,-0.001061101,5.169347e-05,-0.09917428,0.06830775,-9.857556000000001,0,0,38.40922,1,1,7745,3872
5762,59369682,2,-0.0005330191,-0.001309496,-5.879576e-05,-0.1000618,0.07272929,-9.853654000000001,0,0,38.40914,1,1,7745,3872
5765,59371781,2,-0.0001264473,-0.001088236,-2.408399e-05,-0.09956276,0.0735213,-9.850421000000001,0,0,38.40908,1,1,7745,3872
5768,59374555,2,0.0005810360000000001,-0.0008632635,2.733683e-05,-0.0976399,0.07248255000000001,-9.847462,0,0,38.409,1,1,7745,3872
5799,59377691,2,0.001073716,-0.001074054,6.569684999999999e-05,-0.09543826,0.07176491,-9.845135000000001,0,0,38.40895,1,1,7745,3872
5802,59380251,2,0.001582932,-0.0003702586,-0.0004886144,-0.09326456,0.06931326,-9.843349999999999,0,0,38.40886,1,1,7745,3872
5805,59381938,2,0.002578079,0.0002027436,-0.0001687174,-0.09330125,0.06685565,-9.842665999999999,0,0,38.40876,1,1,7745,3872
5809,59384317,2,0.002922451,0.0003597332,-0.0001152579,-0.09367987999999999,0.06447997,-9.842126,0,0,38.40864,1,1,7745,3872
5840,59386942,2,0.00194377,0.0001324937,-8.165943e-05,-0.0940172,0.06431539999999999,-9.840293000000001,0,0,38.40856,1,1,7745,3872
5844,59390806,2,0.0002606115,-3.881945e-05,-0.0003005567,-0.09294966,0.06508524,-9.83705,0,0,38.40841,1,1,7745,3872
5847,59392377,2,-0.0001755852,0.0004661624,-5.21054e-05,-0.09256557,0.06623194,-9.836133999999999,0,0,38.40835,1,1,7745,3872
5851,59394376,2,-4.965242e-05,0.0007542581,0.0008207517,-0.09251877999999999,0.06702647,-9.836226,0,0,38.40822,1,1,7745,3872
5884,59397325,2,-6.663513e-05,0.0008317188,0.001174665,-0.09299304999999999,0.06805360000000001,-9.835823,0,0,38.40816,1,1,7745,3872
5887,59399734,2,-0.0006118839,0.0003779954,0.002528353,-0.09436226,0.06977817,-9.834446,0,0,38.40804,1,1,7745,3872
5890,59402710,2,-0.0002447774,0.0004204477,0.00296168,-0.0952765,0.07090414,-9.835165,0,0,38.40794,1,1,7745,3872
5893,59406995,2,0.0008563652,0.001393425,0.0007250739,-0.09482841,0.0702512,-9.841533999999999,0,0,38.40773,1,1,7745,3872
5925,59409894,2,3.234331e-05,0.001265993,-8.451429e-05,-0.09258632,0.06963757,-9.842444,0,0,38.40759,1,1,7745,3872
5928,59412166,2,0.0003766769,0.0005998085,3.729336e-05,-0.09230339999999999,0.06840248,-9.842753999999999,0,0,38.40746,1,1,7745,3872
5931,59415091,2,0.001429886,0.0003019641,4.74511e-05,-0.09364983,0.06442139,-9.841597,0,0,38.40729,1,1,7745,3872
5934,59417387,2,0.001613297,0.001138471,-0.0003678463,-0.09476076999999999,0.06130835,-9.839623,0,0,38.40721,1,1,7745,3872
5965,59419944,2,0.001074875,0.001930018,-0.0005866166,-0.09711717,0.0583504,-9.83867,0,0,38.40705,1,1,7745,3872
5969,59421965,2,0.001634228,0.002430986,-0.0001530091,-0.09807667,0.05744737,-9.838841,0,0,38.40695,1,1,7745,3872
5972,59424333,2,0.001474121,0.002456029,0.0001517827,-0.09811578,0.05627489,-9.839710999999999,0,0,38.40682,1,1,7745,3872
5975,59427321,2,6.621828e-05,0.001565462,0.0006372411,-0.09668578999999999,0.0550184,-9.842679,0,0,38.40672,1,1,7745,3872
6006,59430265,2,-0.0008049925,0.001197617,0.0002665755,-0.09422456,0.05389001,-9.848635,0,0,38.40657,1,1,7745,3872
6009,59431576,2,-0.001273519,0.001437667,-0.0004222372,-0.09391212,0.05395891,-9.851501000000001,0,0,38.40651,1,1,7745,3872
6012,59434344,2,-0.001844356,0.001404376,-0.001500002,-0.09456476,0.053999,-9.853928,0,0,38.4064,1,1,7745,3872
6015,59436940,2,-0.001194359,0.001612244,-0.002182225,-0.09536258,0.0539233,-9.853982999999999,0,0,38.40632,1,1,7745,3872
6048,59439872,2,-7.524394e-05,0.001599884,-0.001607408,-0.09466098000000001,0.05535988,-9.855912999999999,0,0,38.40618,1,1,7745,3872
6053,59442721,2,0.001080553,0.001237977,-0.0008273508,-0.09399169,0.05801747,-9.859673000000001,0,0,38.40609,1,1,7745,3872
6056,59444380,2,0.001705177,0.0005127714,0.000664903,-0.09346546,0.06055183,-9.86393,0,0,38.40599,1,1,7745,3872
6059,59446900,2,0.001787684,0.0004514976,0.001677762,-0.09317034,0.05961702,-9.86469,0,0,38.40594,1,1,7745,3872
6090,59449529,2,0.001165797,0.0001767925,0.001565309,-0.09170617,0.0573996,-9.867627000000001,0,0,38.40591,1,1,7745,3872
6093,59452305,2,0.0007754422,0.0003244443,-0.0004196381,-0.09011564,0.05711946,-9.871904000000001,0,0,38.40588,1,1,7745,3872
6096,59454969,2,0.0006546814,0.0006184457,-0.002241423,-0.0873385,0.05879513,-9.876884,0,0,38.40585,1,1,7745,3872
6099,59456947,2,0.0005774702,0.0007773415,-0.002070987,-0.08672668,0.05970201,-9.878152999999999,0,0,38.40582,1,1,7745,3872
6130,59459304,2,0.00114658,0.0008661202,-0.0005225224,-0.08584613000000001,0.0623338,-9.883672000000001,0,0,38.40575,1,1,7745,3872
6138,59462349,2,0.001673741,0.0007538853,-6.210504000000001e-05,-0.08516696999999999,0.06480227,-9.887003,0,0,38.4057,1,1,7745,3872
6141,59465152,2,0.001840542,-0.0003257825,0.0002964243,-0.08527728,0.06658171,-9.884950999999999,0,0,38.40567,1,1,7745,3872
6144,59467461,2,0.001486773,-0.0007701394,0.0001207578,-0.08587353,0.06577519,-9.881861000000001,0,0,38.40565,1,1,7745,3872
6175,59470068,2,0.001343821,-0.0008652065,0.0001158112,-0.08719689,0.0635443,-9.880383,0,0,38.40562,1,1,7745,3872
6179,59472092,2,0.000715535,-0.001166937,0.0007957176,-0.08814545999999999,0.06100856,-9.882415999999999,0,0,38.40558,1,1,7745,3872
6182,59475347,2,0.0005218696,-0.0003774626,0.0006267838,-0.08929902000000001,0.05926926,-9.883812000000001,0,0,38.40554,1,1,7745,3872
6185,59477873,2,0.0012108,-0.0002409627,0.001132614,-0.09041312,0.05752773,-9.883889999999999,0,0,38.4055,1,1,7745,3872
6216,59479979,2,0.001179113,0.0001370672,0.0008943185,-0.09312779,0.05650755,-9.882466000000001,0,0,38.40547,1,1,7745,3872
6219,59482718,2,0.00157983,0.000375523,-0.0002479895,-0.09424361000000001,0.05784169,-9.882028,0,0,38.40544,1,1,7745,3872
6222,59485257,2,0.002076475,0.0001912971,-0.0003654258,-0.09412307,0.05830188,-9.881563,0,0,38.40539,1,1,7745,3872
6225,59488158,2,0.00146571,-0.0002980418,-0.0005861953,-0.09354612,0.06069569,-9.878771,0,0,38.4053,1,1,7745,3872
6256,59490974,2,0.002070886,-0.0003527713,-0.0005507295,-0.09348144,0.06240586,-9.874266,0,0,38.40519,1,1,7745,3872
6260,59493302,2,0.002058399,-0.0002752757,-0.0006630695,-0.09365653,0.06303149,-9.86835,0,0,38.40514,1,1,7745,3872
6265,59495678,2,0.001685556,-0.0002668633,-0.000168721,-0.09445236,0.06346889999999999,-9.860219000000001,0,0,38.40505,1,1,7745,3872
6268,59503411,2,0.002478172,-0.0002029809,0.002615202,-0.0920759,0.06945567,-9.851178000000001,0,0,38.40483,1,1,7745,3872
6299,59506113,2,0.003093434,0.0001330871,0.001486948,-0.09551883,0.06906654,-9.853427,0,0,38.40484,1,1,7745,3872
6303,59508524,2,0.002662894,0.0001388378,-4.40719e-05,-0.09785576,0.06801955,-9.855312,0,0,38.40486,1,1,7745,3872
6306,59511537,2,0.002067399,0.0003123325,-0.0006975193,-0.09832693000000001,0.06744733,-9.856845,0,0,38.40487,1,1,7745,3872
6310,59514256,2,0.0008347559,0.0009666129,-0.001645124,-0.09803028,0.06897307,-9.859579,0,0,38.40488,1,1,7745,3872
6341,59517023,2,0.000734286,0.001235891,-0.001324998,-0.09712552000000001,0.07146993,-9.859613,0,0,38.40491,1,1,7745,3872
6344,59518926,2,0.001019432,0.001390098,-0.0006883742,-0.09403272999999999,0.07498541,-9.861724000000001,0,0,38.40493,1,1,7745,3872
6347,59521904,2,0.0003219859,0.001557157,0.0001034834,-0.09276234999999999,0.07533438000000001,-9.865185,0,0,38.40492,1,1,7745,3872
6350,59524413,2,5.384603e-06,0.001453916,0.001063169,-0.09332917,0.07411842,-9.869517,0,0,38.40492,1,1,7745,3872
6381,59527297,2,0.0007759854,0.00190716,0.002524843,-0.09601229999999999,0.07124727,-9.878171999999999,0,0,38.40493,1,1,7745,3872
6385,59529875,2,0.001780556,0.002427147,0.002369758,-0.09808770999999999,0.06683946,-9.886016,0,0,38.40495,1,1,7745,3872
6388,59532094,2,0.001778316,0.001921828,0.002137474,-0.09976135,0.06443383,-9.888489999999999,0,0,38.40497,1,1,7745,3872
6391,59534403,2,0.001070984,0.001030013,0.002449764,-0.1004592,0.0621114,-9.886094,0,0,38.40501,1,1,7745,3872
6422,59537363,2,0.0009591376,0.001070761,0.002609674,-0.1002011,0.06124759,-9.881729999999999,0,0,38.40503,1,1,7745,3872
6425,59539980,2,0.00152314,0.00104426,0.002334101,-0.09775022999999999,0.05887446,-9.872938,0,0,38.40507,1,1,7745,3872
6428,59541942,2,0.001873183,0.0005990186,0.001625623,-0.09571191,0.05766967,-9.870355,0,0,38.40508,1,1,7745,3872
6431,59544351,2,0.001763887,0.000315235,0.0002391784,-0.09307566,0.05760784,-9.869184000000001,0,0,38.40511,1,1,7745,3872
6462,59546918,2,0.001075241,0.0009423962,-0.0004143388,-0.09128886,0.05783821,-9.867583,0,0,38.40515,1,1,7745,3872
6467,59550294,2,0.0004622874,0.0005255311,-9.542384e-05,-0.08971733,0.05781754,-9.866375,0,0,38.40521,1,1,7745,3872
6470,59552381,2,-4.142067e-05,-4.615698e-05,-4.397979e-05,-0.08899319999999999,0.05843519,-9.864853,0,0,38.40529,1,1,7745,3872
6473,59554868,2,-0.000567394,-0.0002461995,-0.0002364881,-0.09010303,0.06076976,-9.860191,0,0,38.40541,1,1,7745,3872
