LineNo,TimeUS,I,GyrX,GyrY,GyrZ,AccX,AccY,AccZ,EG,EA,T,GH,AH,GHz,AHz
182,5.7935e+07,0,0.0030923,0.0015236,0.00059227,-0.16558,0.11846,-9.7547,0,0,44.799,1,1,8008,4004
293,5.7959e+07,0,-0.0010585,0.00065209,-0.00061457,-0.16897,0.10839,-9.7478,0,0,44.8,1,1,8008,4004
324,5.7961e+07,0,-0.0016168,0.00034801,0.00018762,-0.16758,0.10756,-9.7379,0,0,44.8,1,1,8008,4004
407,5.7983e+07,0,-0.0043225,-0.0012205,0.00055162,-0.15466,0.11829,-9.7357,0,0,44.8,1,1,8008,4004
520,5.8007e+07,0,-0.0010098,-0.0024673,-0.0012438,-0.15971,0.12822,-9.7411,0,0,44.801,1,1,8008,4004
523,5.8009e+07,0,-0.0016844,-0.002916,-0.0019142,-0.15853,0.12839,-9.7426,0,0,44.802,1,1,8008,4004
554,5.8012e+07,0,-0.00066405,-0.0032477,-0.00080848,-0.15608,0.12795,-9.7415,0,0,44.802,1,1,8008,4004
629,5.8031e+07,0,0.00033925,-0.001149,-0.00089088,-0.17095,0.12043,-9.7403,0,0,44.803,1,1,8008,4004
745,5.8053e+07,0,0.0022595,-0.00046569,-0.0021,-0.16292,0.13986,-9.7474,0,0,44.804,1,1,8008,4004
776,5.8056e+07,0,0.0022105,-0.00044209,-0.0014428,-0.16334,0.14042,-9.7488,0,0,44.804,1,1,8008,4004
856,5.8074e+07,0,0.0017182,-0.0018186,0.00016513,-0.16643,0.11888,-9.7399,0,0,44.805,1,1,8008,4004
972,5.8096e+07,0,0.00062654,0.00041474,-0.00099613,-0.17989,0.11375,-9.7439,0,0,44.807,1,1,8008,4004
1087,5.814e+07,0,-0.003636,-0.00080771,-0.00016495,-0.18213,0.12,-9.7573,0,0,44.811,1,1,8008,4004
1202,5.823e+07,0,0.0010791,-0.00077213,-0.0011134,-0.1652,0.11532,-9.7317,0,0,44.817,1,1,8008,4004
1293,5.8278e+07,0,-0.00083297,-0.00029562,-0.00072592,-0.17369,0.11773,-9.7393,0,0,44.82,1,1,8008,4004
1324,5.8281e+07,0,-0.001652,-3.0297e-05,-7.5544e-05,-0.17272,0.11812,-9.7426,0,0,44.82,1,1,8008,4004
1387,5.8291e+07,0,-0.0025687,-0.0022051,-0.0013116,-0.17036,0.1167,-9.7547,0,0,44.821,1,1,8008,4004
1390,5.8293e+07,0,-0.0024164,-0.0033797,-0.0020286,-0.17316,0.11822,-9.7524,0,0,44.821,1,1,8008,4004
1421,5.8296e+07,0,-0.001137,-0.003418,-0.0024478,-0.17594,0.11979,-9.7492,0,0,44.821,1,1,8008,4004
1482,5.831e+07,0,-9.4407e-06,-0.00054262,-0.00026267,-0.16649,0.12276,-9.739,0,0,44.822,1,1,8008,4004
1570,5.8327e+07,0,-0.0013667,0.00023378,-0.00062459,-0.18506,0.14499,-9.7476,0,0,44.822,1,1,8008,4004
1601,5.833e+07,0,-0.00090943,-0.00020597,-0.0014966,-0.18831,0.14622,-9.7465,0,0,44.822,1,1,8008,4004
1614,5.8333e+07,0,-0.00094189,-0.00054848,-0.0013251,-0.18937,0.14533,-9.7452,0,0,44.822,1,1,8008,4004
1617,5.8335e+07,0,-0.001048,-0.0010078,-0.001704,-0.18698,0.14462,-9.7424,0,0,44.823,1,1,8008,4004
1624,5.8338e+07,0,8.7769e-06,-0.0011735,-0.0020958,-0.18368,0.14411,-9.7408,0,0,44.823,1,1,8008,4004
1655,5.8341e+07,0,0.0021559,-0.0011612,-0.0014844,-0.17878,0.14178,-9.7413,0,0,44.823,1,1,8008,4004
1658,5.8343e+07,0,0.0022888,-0.00091982,-0.00091477,-0.17508,0.13833,-9.7436,0,0,44.823,1,1,8008,4004
1661,5.8346e+07,0,0.0012446,-0.00091421,-0.00048901,-0.17313,0.13559,-9.7433,0,0,44.823,1,1,8008,4004
1665,5.8348e+07,0,0.00023492,-0.0011895,-0.0002078,-0.17165,0.13277,-9.7418,0,0,44.823,1,1,8008,4004
1696,5.835e+07,0,-0.0001958,-0.0016721,-0.00024407,-0.17182,0.12899,-9.7408,0,0,44.823,1,1,8008,4004
1699,5.8353e+07,0,-0.00029013,-0.0019328,-0.00080809,-0.17337,0.12659,-9.7395,0,0,44.823,1,1,8008,4004
1702,5.8355e+07,0,0.00011161,-0.0015244,-0.00083378,-0.17465,0.12611,-9.738,0,0,44.823,1,1,8008,4004
1705,5.8358e+07,0,-8.4388e-05,-0.000852,-0.00031892,-0.17596,0.12501,-9.7362,0,0,44.823,1,1,8008,4004
1736,5.836e+07,0,0.00013718,-0.0011236,0.00059978,-0.17759,0.12174,-9.7363,0,0,44.823,1,1,8008,4004
1739,5.8363e+07,0,0.00030834,-0.0020977,0.00090979,-0.17739,0.11944,-9.7397,0,0,44.822,1,1,8008,4004
1742,5.8366e+07,0,0.00013304,-0.0019662,0.000461,-0.17656,0.11936,-9.7416,0,0,44.822,1,1,8008,4004
1746,5.8368e+07,0,0.0010192,0.00012849,-0.0013064,-0.17419,0.12032,-9.7437,0,0,44.822,1,1,8008,4004
1777,5.8371e+07,0,0.00039964,0.0011026,-0.0013961,-0.17287,0.12113,-9.7471,0,0,44.823,1,1,8008,4004
1780,5.8374e+07,0,-0.00079044,0.0007749,-0.00070824,-0.17244,0.12153,-9.7503,0,0,44.823,1,1,8008,4004
1783,5.8378e+07,0,-0.0014167,-0.00017666,0.00014287,-0.17237,0.12327,-9.7538,0,0,44.823,1,1,8008,4004
1786,5.8382e+07,0,0.00051716,-0.00084816,0.00097495,-0.18098,0.13112,-9.7576,0,0,44.823,1,1,8008,4004
1818,5.8385e+07,0,0.00086953,-0.00068213,9.572e-05,-0.18413,0.13459,-9.7561,0,0,44.823,1,1,8008,4004
1821,5.8387e+07,0,0.0013148,-6.672e-05,-0.00073586,-0.18535,0.13752,-9.7528,0,0,44.823,1,1,8008,4004
1824,5.839e+07,0,0.00084557,0.00070917,-0.0007476,-0.18466,0.13752,-9.7512,0,0,44.823,1,1,8008,4004
1829,5.8393e+07,0,-0.000262,0.00089898,-0.00078519,-0.18237,0.13782,-9.7503,0,0,44.824,1,1,8008,4004
1860,5.8395e+07,0,-1.5929e-05,0.00064292,-0.00025603,-0.17964,0.13648,-9.7494,0,0,44.824,1,1,8008,4004
1864,5.8397e+07,0,0.00059759,0.00026478,0.00011877,-0.17894,0.13415,-9.7479,0,0,44.824,1,1,8008,4004
1867,5.8401e+07,0,0.0010893,-0.00034446,0.00092378,-0.17857,0.12882,-9.7458,0,0,44.824,1,1,8008,4004
1870,5.8403e+07,0,0.0013699,-0.00085397,0.0013049,-0.17792,0.12606,-9.7459,0,0,44.824,1,1,8008,4004
1901,5.8406e+07,0,0.00084809,-0.00018786,0.00031274,-0.17829,0.12213,-9.7493,0,0,44.824,1,1,8008,4004
1905,5.8408e+07,0,0.00052602,0.0010591,-0.00063564,-0.17896,0.12034,-9.7501,0,0,44.824,1,1,8008,4004
1908,5.841e+07,0,0.00020784,0.001968,-0.00098925,-0.1793,0.11778,-9.7472,0,0,44.825,1,1,8008,4004
1911,5.8413e+07,0,0.000298,0.0019853,-0.00074333,-0.17937,0.11639,-9.7456,0,0,44.825,1,1,8008,4004
1942,5.8415e+07,0,2.1641e-05,0.0014576,-0.00047335,-0.17763,0.11563,-9.7485,0,0,44.825,1,1,8008,4004
1946,5.8418e+07,0,-0.00084949,0.00056488,-0.00064244,-0.17514,0.1143,-9.7522,0,0,44.825,1,1,8008,4004
1949,5.8421e+07,0,-0.001155,-0.00060065,-0.00076231,-0.1729,0.11313,-9.7537,0,0,44.825,1,1,8008,4004
1952,5.8424e+07,0,-0.0009532,-0.00093176,-0.00021908,-0.16962,0.11332,-9.7528,0,0,44.825,1,1,8008,4004
1983,5.8426e+07,0,-0.0016985,-0.00092599,2.2067e-05,-0.16824,0.11564,-9.751,0,0,44.825,1,1,8008,4004
1986,5.8429e+07,0,-0.0016654,-0.0004588,0.000189,-0.16769,0.11697,-9.7493,0,0,44.825,1,1,8008,4004
1989,5.8431e+07,0,-0.0013459,0.00070121,0.00053243,-0.1682,0.11852,-9.7476,0,0,44.826,1,1,8008,4004
1993,5.8434e+07,0,-0.0010188,0.00072641,0.00016971,-0.16977,0.12059,-9.747,0,0,44.826,1,1,8008,4004
2024,5.8437e+07,0,-0.00083939,-8.5139e-05,0.0006339,-0.17028,0.12143,-9.7454,0,0,44.826,1,1,8008,4004
2028,5.844e+07,0,-0.00096884,-0.00075346,0.00030354,-0.17047,0.12094,-9.7448,0,0,44.826,1,1,8008,4004
2036,5.8442e+07,0,-0.0003134,-0.00086389,-0.00074726,-0.17087,0.12079,-9.7429,0,0,44.826,1,1,8008,4004
2039,5.8444e+07,0,-0.00026823,-0.00063819,-0.0010887,-0.17199,0.122,-9.7424,0,0,44.826,1,1,8008,4004
2072,5.8447e+07,0,-0.0010052,-0.00028597,-0.0016172,-0.17319,0.12366,-9.745,0,0,44.827,1,1,8008,4004
2075,5.845e+07,0,-0.0018426,-0.00038141,-0.0016613,-0.17192,0.12402,-9.748,0,0,44.827,1,1,8008,4004
2078,5.8452e+07,0,-0.00077298,0.00039698,-0.0016431,-0.16879,0.12592,-9.7511,0,0,44.827,1,1,8008,4004
2081,5.8455e+07,0,-0.00016761,8.7469e-05,-0.0015991,-0.16696,0.12819,-9.7523,0,0,44.827,1,1,8008,4004
2112,5.8457e+07,0,-5.7237e-05,-9.3146e-05,-0.0021093,-0.16464,0.12999,-9.7556,0,0,44.827,1,1,8008,4004
2116,5.846e+07,0,0.00082687,3.8355e-05,-0.001763,-0.16323,0.13008,-9.7575,0,0,44.827,1,1,8008,4004
2119,5.8462e+07,0,0.0015291,-0.00012705,-0.00057013,-0.16224,0.12873,-9.7585,0,0,44.827,1,1,8008,4004
2122,5.8464e+07,0,0.00089239,-0.00069034,0.00032598,-0.16319,0.12595,-9.7587,0,0,44.827,1,1,8008,4004
2153,5.8467e+07,0,-0.00076977,-0.0010682,0.00013214,-0.1669,0.12284,-9.7577,0,0,44.828,1,1,8008,4004
2156,5.8469e+07,0,-0.0011827,-0.00095038,-0.00074605,-0.1699,0.12142,-9.7563,0,0,44.828,1,1,8008,4004
2159,5.8473e+07,0,-0.0018198,0.00021153,-0.0018607,-0.17265,0.11962,-9.7515,0,0,44.828,1,1,8008,4004
2162,5.8474e+07,0,-0.0022274,0.00066163,-0.001095,-0.17456,0.11952,-9.7484,0,0,44.828,1,1,8008,4004
2193,5.8477e+07,0,-0.0018007,-0.00012494,0.00068606,-0.17757,0.12137,-9.7453,0,0,44.828,1,1,8008,4004
2197,5.8479e+07,0,-0.001364,-0.0010469,0.00093599,-0.17948,0.12353,-9.7457,0,0,44.828,1,1,8008,4004
2200,5.8482e+07,0,-0.0012493,-0.0019341,-0.00014639,-0.17888,0.12624,-9.7479,0,0,44.828,1,1,8008,4004
2203,5.8484e+07,0,-0.001075,-0.0016099,-0.00061401,-0.17738,0.12808,-9.7492,0,0,44.828,1,1,8008,4004
2234,5.8487e+07,0,-0.00036717,-0.00071293,-0.00076749,-0.17524,0.13016,-9.7518,0,0,44.828,1,1,8008,4004
2238,5.8491e+07,0,-0.00011026,-0.00026641,-0.0010379,-0.17433,0.13,-9.7541,0,0,44.828,1,1,8008,4004
2241,5.8492e+07,0,0.00016963,-0.00020398,-0.0017579,-0.17297,0.12803,-9.7564,0,0,44.828,1,1,8008,4004
2245,5.8495e+07,0,0.00055274,-0.00055854,-0.0020908,-0.17262,0.12697,-9.7576,0,0,44.828,1,1,8008,4004
2276,5.8497e+07,0,-0.00023925,-0.0018769,-0.0016787,-0.17216,0.12709,-9.7583,0,0,44.828,1,1,8008,4004
2279,5.8501e+07,0,-0.00090255,-0.002459,-0.00096184,-0.17139,0.12829,-9.7569,0,0,44.828,1,1,8008,4004
2282,5.8502e+07,0,-0.00083427,-0.0015666,-8.3344e-05,-0.16923,0.12937,-9.7552,0,0,44.828,1,1,8008,4004
2288,5.8505e+07,0,-0.00039856,-0.00094272,0.00067471,-0.16768,0.12982,-9.7552,0,0,44.828,1,1,8008,4004
2319,5.8508e+07,0,0.00013118,-0.00061936,0.0011685,-0.16431,0.13052,-9.7543,0,0,44.828,1,1,8008,4004
2323,5.851e+07,0,0.0010361,-0.00084205,0.0009531,-0.16193,0.13116,-9.7518,0,0,44.828,1,1,8008,4004
2326,5.8512e+07,0,0.0016424,-0.0003764,0.00049778,-0.15929,0.13139,-9.75,0,0,44.828,1,1,8008,4004
2329,5.8514e+07,0,0.00068995,-0.00080768,0.00037118,-0.15765,0.1321,-9.749,0,0,44.828,1,1,8008,4004
2360,5.8517e+07,0,-0.00030736,-0.0015055,3.9299e-05,-0.15692,0.13421,-9.7481,0,0,44.828,1,1,8008,4004
2363,5.852e+07,0,-0.00061463,-0.001051,-7.9084e-06,-0.15698,0.13526,-9.7467,0,0,44.828,1,1,8008,4004
2366,5.8522e+07,0,-0.00027105,-0.0010223,-0.001363,-0.15839,0.13497,-9.7448,0,0,44.828,1,1,8008,4004
2369,5.8525e+07,0,0.00036734,-0.0013405,-0.0025645,-0.16123,0.1353,-9.7462,0,0,44.828,1,1,8008,4004
2400,5.8528e+07,0,0.0011646,-0.002174,-0.0023495,-0.16598,0.13744,-9.7536,0,0,44.828,1,1,8008,4004
2404,5.853e+07,0,0.0012607,-0.0018971,-0.0013047,-0.16836,0.13996,-9.7579,0,0,44.828,1,1,8008,4004
2407,5.8532e+07,0,0.00077619,-0.0017002,0.00048658,-0.1711,0.1415,-9.7597,0,0,44.828,1,1,8008,4004
2410,5.8535e+07,0,0.0004559,-0.001149,0.00144,-0.17188,0.14144,-9.7581,0,0,44.828,1,1,8008,4004
2441,5.8537e+07,0,-0.00016974,-0.0013849,0.0012229,-0.17186,0.14123,-9.7538,0,0,44.828,1,1,8008,4004
2445,5.854e+07,0,-0.00066749,-0.00085125,0.0008388,-0.17165,0.13817,-9.7528,0,0,44.828,1,1,8008,4004
2453,5.8542e+07,0,-0.00071505,8.354e-05,0.00081079,-0.17138,0.1324,-9.7569,0,0,44.828,1,1,8008,4004
2456,5.8545e+07,0,-0.00037924,0.00046971,0.00058728,-0.17103,0.12832,-9.7583,0,0,44.828,1,1,8008,4004
2487,5.8547e+07,0,0.0010663,-8.6614e-05,0.00050777,-0.17097,0.12461,-9.7557,0,0,44.828,1,1,8008,4004
2491,5.855e+07,0,0.0010259,-0.00030003,0.00028318,-0.17002,0.12346,-9.7493,0,0,44.828,1,1,8008,4004
2494,5.8553e+07,0,0.0011241,-0.0001306,1.6122e-05,-0.16897,0.12386,-9.7471,0,0,44.828,1,1,8008,4004
2497,5.8556e+07,0,0.0015672,0.00015686,-0.00058968,-0.16846,0.12357,-9.7476,0,0,44.828,1,1,8008,4004
2528,5.8558e+07,0,0.00048413,-0.00022025,-0.0012413,-0.16893,0.12242,-9.7493,0,0,44.828,1,1,8008,4004
2532,5.8561e+07,0,-0.00031263,3.7919e-05,-0.0015223,-0.16978,0.12205,-9.7497,0,0,44.828,1,1,8008,4004
2535,5.8563e+07,0,-0.00097802,-0.00025083,-0.00089905,-0.17196,0.12249,-9.7479,0,0,44.829,1,1,8008,4004
2538,5.8566e+07,0,-0.00039163,-0.00042359,-0.00073375,-0.17349,0.12401,-9.7474,0,0,44.829,1,1,8008,4004
2569,5.8569e+07,0,0.0001977,-9.7822e-05,-0.00045601,-0.17651,0.12736,-9.7459,0,0,44.828,1,1,8008,4004
2572,5.857e+07,0,0.00090813,-0.00044989,6.6619e-05,-0.17882,0.12861,-9.7431,0,0,44.828,1,1,8008,4004
2575,5.8573e+07,0,0.00045101,-0.0017736,0.00071081,-0.18114,0.12884,-9.7393,0,0,44.828,1,1,8008,4004
2578,5.8576e+07,0,-0.00022897,-0.0017946,0.00036087,-0.18101,0.12802,-9.7377,0,0,44.828,1,1,8008,4004
2612,5.8582e+07,0,-0.0020277,-0.00011904,0.0019906,-0.18096,0.12315,-9.7418,0,0,44.828,1,1,8008,4004
2616,5.8583e+07,0,-0.0022783,-0.00033597,0.0016213,-0.18252,0.12118,-9.7437,0,0,44.828,1,1,8008,4004
2619,5.8586e+07,0,-0.0017067,-0.00094973,0.001333,-0.18254,0.12038,-9.7451,0,0,44.828,1,1,8008,4004
2650,5.8588e+07,0,-0.0012343,-0.0014798,0.0013917,-0.1831,0.11849,-9.7495,0,0,44.828,1,1,8008,4004
2653,5.8591e+07,0,-0.00082906,-0.0019702,0.0015445,-0.18506,0.11673,-9.7521,0,0,44.828,1,1,8008,4004
2657,5.8594e+07,0,-0.00078744,-0.0023392,0.001453,-0.18657,0.11549,-9.7536,0,0,44.828,1,1,8008,4004
2662,5.8597e+07,0,-0.00072621,-0.0029039,0.00065317,-0.18795,0.11524,-9.7555,0,0,44.829,1,1,8008,4004
2693,5.8599e+07,0,-0.0013391,-0.0021708,0.00045802,-0.1881,0.11464,-9.7596,0,0,44.829,1,1,8008,4004
2696,5.8602e+07,0,-0.0025875,-0.0013543,6.2944e-05,-0.18734,0.11314,-9.762,0,0,44.829,1,1,8008,4004
2700,5.8604e+07,0,-0.003594,-0.00060104,-0.000557,-0.18673,0.11258,-9.7634,0,0,44.829,1,1,8008,4004
2703,5.8607e+07,0,-0.0037876,-9.3169e-05,-0.00079815,-0.18599,0.11387,-9.7627,0,0,44.829,1,1,8008,4004
2734,5.861e+07,0,-0.0029102,0.00040894,-0.00090398,-0.18565,0.11457,-9.7587,0,0,44.829,1,1,8008,4004
2737,5.8612e+07,0,-0.0022777,0.0010376,-0.00042901,-0.1868,0.11792,-9.7507,0,0,44.829,1,1,8008,4004
2741,5.8614e+07,0,-0.0018044,0.00076269,-0.0011498,-0.18872,0.12112,-9.7462,0,0,44.829,1,1,8008,4004
2744,5.8617e+07,0,-0.00066984,-0.00084811,-0.0019837,-0.18999,0.12538,-9.7438,0,0,44.829,1,1,8008,4004
2775,5.862e+07,0,-0.00091591,-0.0012448,-0.0014402,-0.18961,0.12657,-9.7427,0,0,44.829,1,1,8008,4004
2778,5.8622e+07,0,-0.0019072,-0.00068434,-0.00031452,-0.18942,0.1277,-9.7432,0,0,44.829,1,1,8008,4004
2781,5.8624e+07,0,-0.0026251,-0.00054092,-5.5264e-06,-0.1889,0.12853,-9.7449,0,0,44.829,1,1,8008,4004
2784,5.8627e+07,0,-0.0030646,-0.001594,0.00020443,-0.18787,0.12935,-9.7496,0,0,44.829,1,1,8008,4004
2816,5.863e+07,0,-0.0031658,-0.002295,6.7678e-05,-0.18644,0.12939,-9.753,0,0,44.829,1,1,8008,4004
2819,5.8632e+07,0,-0.0036336,-0.0022009,0.0001816,-0.18431,0.12854,-9.7562,0,0,44.829,1,1,8008,4004
2823,5.8635e+07,0,-0.0034161,-0.0012548,-0.00014205,-0.18339,0.12749,-9.7566,0,0,44.829,1,1,8008,4004
2827,5.8638e+07,0,-0.0016645,0.0002159,-0.00099301,-0.18189,0.12441,-9.7554,0,0,44.829,1,1,8008,4004
2858,5.864e+07,0,0.00053305,-0.00021126,-0.0018829,-0.181,0.12385,-9.7517,0,0,44.829,1,1,8008,4004
2861,5.8642e+07,0,0.0016346,-0.00078408,-0.0021647,-0.18068,0.12415,-9.7493,0,0,44.829,1,1,8008,4004
2868,5.8646e+07,0,0.0018247,-0.0012168,-0.0024848,-0.18318,0.12197,-9.7461,0,0,44.829,1,1,8008,4004
2871,5.8647e+07,0,0.0014513,-0.0013724,-0.0023101,-0.1858,0.11988,-9.7456,0,0,44.83,1,1,8008,4004
2902,5.865e+07,0,0.00070522,-0.00096547,-0.0019462,-0.1881,0.1173,-9.7458,0,0,44.83,1,1,8008,4004
2905,5.8652e+07,0,5.8016e-05,-0.00016981,-0.0018672,-0.18869,0.1166,-9.7445,0,0,44.83,1,1,8008,4004
2909,5.8655e+07,0,-0.0005965,0.00073472,-0.0014277,-0.18653,0.11589,-9.7409,0,0,44.83,1,1,8008,4004
2912,5.8658e+07,0,-0.0012611,0.00099963,-0.0016741,-0.18343,0.11528,-9.7392,0,0,44.83,1,1,8008,4004
2943,5.866e+07,0,-0.0015889,0.00018391,-0.0021482,-0.17936,0.11369,-9.7372,0,0,44.83,1,1,8008,4004
2946,5.8663e+07,0,-0.0021229,0.00027022,-0.0021639,-0.17455,0.11442,-9.7358,0,0,44.83,1,1,8008,4004
2950,5.8666e+07,0,-0.0009314,0.00023672,-0.0016393,-0.17163,0.11629,-9.7354,0,0,44.83,1,1,8008,4004
2953,5.8668e+07,0,0.0011597,-0.00011494,0.00022843,-0.16653,0.11821,-9.735,0,0,44.83,1,1,8008,4004
2984,5.8671e+07,0,0.0010613,8.6813e-05,0.00029361,-0.16244,0.11886,-9.7348,0,0,44.83,1,1,8008,4004
2988,5.8673e+07,0,0.00054322,0.00087465,-0.00044116,-0.16071,0.11926,-9.7347,0,0,44.831,1,1,8008,4004
2991,5.8676e+07,0,-0.00047855,0.0017113,-0.00094344,-0.15915,0.12106,-9.7347,0,0,44.831,1,1,8008,4004
2994,5.8679e+07,0,-0.00077673,0.0013013,-0.0013165,-0.15805,0.12269,-9.7355,0,0,44.831,1,1,8008,4004
3025,5.8683e+07,0,-0.0003312,0.00034777,-0.0013466,-0.1566,0.12514,-9.7383,0,0,44.831,1,1,8008,4004
3028,5.8684e+07,0,0.00071528,0.00010393,-0.00084529,-0.15749,0.12687,-9.7438,0,0,44.831,1,1,8008,4004
3032,5.8687e+07,0,0.0016742,6.7551e-05,-0.00061659,-0.16047,0.12963,-9.7478,0,0,44.831,1,1,8008,4004
3035,5.8689e+07,0,0.0016379,-0.00073991,-0.00082924,-0.16263,0.13064,-9.7494,0,0,44.831,1,1,8008,4004
3066,5.8693e+07,0,0.0018874,-0.0012813,-0.0019489,-0.16546,0.13136,-9.7509,0,0,44.831,1,1,8008,4004
3069,5.8694e+07,0,0.0018967,-0.00089731,-0.0021897,-0.16725,0.1327,-9.7512,0,0,44.83,1,1,8008,4004
3072,5.8697e+07,0,0.00087814,-1.6181e-05,-0.0014409,-0.16702,0.13374,-9.7529,0,0,44.83,1,1,8008,4004
3075,5.8699e+07,0,-0.00026341,-0.00015973,-0.00062464,-0.1658,0.1325,-9.756,0,0,44.83,1,1,8008,4004
3106,5.8702e+07,0,-0.00085719,-0.00077591,0.00079021,-0.16354,0.12806,-9.7614,0,0,44.83,1,1,8008,4004
3109,5.8705e+07,0,-0.00027076,-0.0008514,0.00086167,-0.16268,0.12496,-9.765,0,0,44.831,1,1,8008,4004
3113,5.8707e+07,0,0.0010484,0.00087223,0.0013803,-0.1631,0.11929,-9.7668,0,0,44.831,1,1,8008,4004
3116,5.8712e+07,0,0.0015682,-7.5378e-05,0.0010315,-0.16818,0.11042,-9.7587,0,0,44.831,1,1,8008,4004
3147,5.8715e+07,0,0.0013366,-0.00054921,0.0010099,-0.16823,0.10972,-9.7559,0,0,44.831,1,1,8008,4004
3150,5.8717e+07,0,0.00095036,-0.00016984,0.0011311,-0.16708,0.10986,-9.7533,0,0,44.831,1,1,8008,4004
3153,5.872e+07,0,0.00030721,0.00011128,0.0016797,-0.16559,0.11133,-9.7515,0,0,44.831,1,1,8008,4004
3156,5.8723e+07,0,9.3315e-06,3.391e-05,0.0026892,-0.16357,0.11512,-9.7489,0,0,44.831,1,1,8008,4004
3187,5.8725e+07,0,0.00072311,-0.00076533,0.0026089,-0.16335,0.11791,-9.7463,0,0,44.831,1,1,8008,4004
3191,5.8727e+07,0,0.00049512,-0.00086312,0.0018845,-0.16363,0.11773,-9.7457,0,0,44.831,1,1,8008,4004
3194,5.873e+07,0,0.00037996,-0.00077888,0.0007117,-0.165,0.11626,-9.7452,0,0,44.832,1,1,8008,4004
3197,5.8733e+07,0,5.949e-05,-0.00063956,0.0002814,-0.16637,0.1153,-9.7443,0,0,44.832,1,1,8008,4004
3228,5.8735e+07,0,0.00018378,-0.0011076,-0.00017309,-0.16851,0.11398,-9.7426,0,0,44.832,1,1,8008,4004
3231,5.8738e+07,0,-0.0011335,-0.0015344,0.00014785,-0.16989,0.11261,-9.7394,0,0,44.832,1,1,8008,4004
3234,5.874e+07,0,-0.001911,-0.0014727,0.00022151,-0.16877,0.11164,-9.7378,0,0,44.832,1,1,8008,4004
3239,5.8743e+07,0,-0.0014171,-0.0017057,0.00013235,-0.16774,0.11171,-9.7369,0,0,44.833,1,1,8008,4004
3270,5.8746e+07,0,-0.00062385,-0.0014478,0.00079395,-0.16773,0.11398,-9.7362,0,0,44.833,1,1,8008,4004
3278,5.8749e+07,0,-0.00063717,-0.0010983,0.00097874,-0.1687,0.11677,-9.7374,0,0,44.833,1,1,8008,4004
3281,5.8751e+07,0,-0.00052001,-0.00035716,0.00056405,-0.17024,0.12,-9.7413,0,0,44.833,1,1,8008,4004
3284,5.8754e+07,0,-0.00037257,-0.00012497,0.00067868,-0.17091,0.1205,-9.7441,0,0,44.833,1,1,8008,4004
3315,5.8757e+07,0,-0.0001616,-0.0014125,0.0012733,-0.16966,0.12137,-9.7487,0,0,44.834,1,1,8008,4004
3318,5.8759e+07,0,0.00021005,-0.0019221,0.00072816,-0.16827,0.12344,-9.754,0,0,44.834,1,1,8008,4004
3321,5.8761e+07,0,0.00032506,-0.0013872,0.00040928,-0.16735,0.12425,-9.7584,0,0,44.834,1,1,8008,4004
3324,5.8764e+07,0,0.00018105,-0.0010256,-0.00048571,-0.16412,0.12626,-9.765,0,0,44.834,1,1,8008,4004
3355,5.8766e+07,0,-0.0003699,-0.00024241,-0.00088518,-0.16245,0.12766,-9.7696,0,0,44.835,1,1,8008,4004
3358,5.877e+07,0,-0.0017568,0.00061308,-9.9731e-05,-0.16231,0.12986,-9.7713,0,0,44.835,1,1,8008,4004
3361,5.8772e+07,0,-0.0025141,0.00045519,-0.00016826,-0.16427,0.13084,-9.7691,0,0,44.835,1,1,8008,4004
3364,5.8774e+07,0,-0.0018678,4.0389e-05,-0.00026046,-0.16832,0.13064,-9.7655,0,0,44.835,1,1,8008,4004
3395,5.8776e+07,0,-0.00041978,-0.0002331,-0.00071868,-0.17098,0.12947,-9.7613,0,0,44.835,1,1,8008,4004
3398,5.8779e+07,0,0.00049553,-0.0012624,-0.00069546,-0.17375,0.1267,-9.7564,0,0,44.836,1,1,8008,4004
3403,5.8782e+07,0,0.0010067,-0.0010023,-0.00051422,-0.1738,0.12306,-9.754,0,0,44.836,1,1,8008,4004
3406,5.8784e+07,0,0.00072432,-0.0005099,-0.0015613,-0.17366,0.11707,-9.7534,0,0,44.836,1,1,8008,4004
3437,5.8787e+07,0,-0.00014517,0.00066507,-0.0021264,-0.17339,0.11371,-9.7566,0,0,44.836,1,1,8008,4004
3440,5.879e+07,0,-0.00036651,0.00043918,-0.0018453,-0.17342,0.11402,-9.7585,0,0,44.836,1,1,8008,4004
3444,5.8793e+07,0,-0.00065593,-0.00080577,-0.0011034,-0.17374,0.1153,-9.7605,0,0,44.836,1,1,8008,4004
3447,5.8795e+07,0,0.00035184,-0.0015575,-0.001067,-0.17383,0.11735,-9.7621,0,0,44.837,1,1,8008,4004
3478,5.88e+07,0,-0.00021325,-0.0012195,-0.00078833,-0.16938,0.12034,-9.7668,0,0,44.837,1,1,8008,4004
3483,5.8803e+07,0,-0.00052956,-0.00049521,-0.00069159,-0.16641,0.12174,-9.7688,0,0,44.837,1,1,8008,4004
3486,5.8805e+07,0,-0.00081116,-0.00037588,-0.00053193,-0.16417,0.12344,-9.7702,0,0,44.837,1,1,8008,4004
3517,5.8808e+07,0,-0.00075708,-0.0015644,-7.7857e-05,-0.16172,0.12679,-9.771,0,0,44.838,1,1,8008,4004
3520,5.8811e+07,0,-0.00090777,-0.0028735,-0.0007878,-0.16204,0.12694,-9.7691,0,0,44.838,1,1,8008,4004
3524,5.8814e+07,0,-0.00039907,-0.003925,-0.0018638,-0.1635,0.12645,-9.7645,0,0,44.838,1,1,8008,4004
3527,5.8816e+07,0,0.00028579,-0.0033918,-0.0021508,-0.16543,0.12753,-9.7618,0,0,44.838,1,1,8008,4004
3558,5.8818e+07,0,0.00019568,-0.0015834,-0.0019099,-0.16757,0.13038,-9.7576,0,0,44.839,1,1,8008,4004
3561,5.8821e+07,0,0.00046471,0.00022575,-0.0020795,-0.16841,0.13385,-9.759,0,0,44.839,1,1,8008,4004
3564,5.8824e+07,0,0.00088886,0.0010733,-0.0021704,-0.17055,0.13571,-9.7626,0,0,44.839,1,1,8008,4004
3567,5.8826e+07,0,0.00055588,0.00025852,-0.00088358,-0.17404,0.13785,-9.7673,0,0,44.839,1,1,8008,4004
3598,5.8828e+07,0,0.00011648,-0.00021428,0.00074024,-0.17621,0.13921,-9.7696,0,0,44.839,1,1,8008,4004
3601,5.8831e+07,0,-0.0012393,-0.00059242,0.0017194,-0.17887,0.13882,-9.7703,0,0,44.839,1,1,8008,4004
3605,5.8834e+07,0,-0.0023743,-0.00014923,0.0010885,-0.17891,0.13643,-9.7671,0,0,44.84,1,1,8008,4004
3608,5.8836e+07,0,-0.0027853,-0.00068167,0.00060905,-0.17894,0.13362,-9.7598,0,0,44.84,1,1,8008,4004
3639,5.8839e+07,0,-0.0017656,-0.0013625,0.00045156,-0.17988,0.13288,-9.7539,0,0,44.84,1,1,8008,4004
3643,5.8842e+07,0,0.00048849,-0.0011272,0.00026178,-0.18006,0.13311,-9.7463,0,0,44.84,1,1,8008,4004
3647,5.8844e+07,0,0.0017842,-0.00061809,5.925e-05,-0.17913,0.13363,-9.7452,0,0,44.84,1,1,8008,4004
3651,5.8846e+07,0,0.001952,-0.00087008,0.00073574,-0.17903,0.13486,-9.7471,0,0,44.841,1,1,8008,4004
3682,5.8848e+07,0,0.0016596,-0.0010367,0.0015771,-0.17994,0.13489,-9.7485,0,0,44.841,1,1,8008,4004
3689,5.8852e+07,0,0.0010641,-0.0015491,0.0021031,-0.1826,0.13452,-9.7492,0,0,44.841,1,1,8008,4004
3693,5.8854e+07,0,0.0007215,-0.0016247,0.0016289,-0.18482,0.13475,-9.7509,0,0,44.841,1,1,8008,4004
3696,5.8856e+07,0,-0.00059168,-0.0012343,0.00031493,-0.1865,0.13524,-9.7543,0,0,44.841,1,1,8008,4004
3727,5.8859e+07,0,-0.00084801,0.00037381,-0.00021766,-0.18655,0.1346,-9.7534,0,0,44.841,1,1,8008,4004
3730,5.8862e+07,0,-0.00085194,0.00062754,-0.00055428,-0.18565,0.1329,-9.752,0,0,44.841,1,1,8008,4004
3733,5.8865e+07,0,-0.00051264,-0.0002569,-0.00043801,-0.18384,0.13111,-9.75,0,0,44.842,1,1,8008,4004
3737,5.8866e+07,0,-0.00032149,-0.0007586,-4.4228e-05,-0.18331,0.13081,-9.7495,0,0,44.842,1,1,8008,4004
3768,5.8869e+07,0,-0.00065964,-0.00038039,0.00025867,-0.18209,0.13064,-9.7514,0,0,44.842,1,1,8008,4004
3771,5.8871e+07,0,-0.00018082,-2.1757e-05,0.00042088,-0.18048,0.13145,-9.7553,0,0,44.842,1,1,8008,4004
3775,5.8874e+07,0,0.0010108,-0.00025366,0.0011611,-0.17712,0.13196,-9.7643,0,0,44.842,1,1,8008,4004
3778,5.8877e+07,0,0.00094049,-0.00022309,0.001506,-0.17484,0.13082,-9.7696,0,0,44.842,1,1,8008,4004
3809,5.888e+07,0,0.0011871,0.00037056,0.0016478,-0.17194,0.12822,-9.7729,0,0,44.842,1,1,8008,4004
3812,5.8882e+07,0,0.00054856,0.00050115,0.0021567,-0.17028,0.12633,-9.7727,0,0,44.842,1,1,8008,4004
3816,5.8884e+07,0,-0.00014384,-0.0001042,0.0016996,-0.16938,0.1254,-9.7697,0,0,44.843,1,1,8008,4004
3819,5.8888e+07,0,0.00020828,-0.0013386,5.8525e-05,-0.16987,0.12478,-9.7654,0,0,44.843,1,1,8008,4004
3822,5.889e+07,0,-2.6993e-05,-0.0014285,-0.0009964,-0.17078,0.12381,-9.765,0,0,44.843,1,1,8008,4004
3853,5.8893e+07,0,-0.0012202,-0.00081338,-0.001312,-0.17297,0.12202,-9.7672,0,0,44.843,1,1,8008,4004
3856,5.8895e+07,0,-0.0011798,-0.00095515,-0.0016361,-0.17458,0.12143,-9.7683,0,0,44.843,1,1,8008,4004
3859,5.8897e+07,0,-0.00071233,-0.0010951,-0.0015983,-0.17873,0.12136,-9.7691,0,0,44.843,1,1,8008,4004
3862,5.89e+07,0,-0.00042256,-0.0014272,-0.001577,-0.18163,0.12111,-9.7694,0,0,44.843,1,1,8008,4004
3893,5.8903e+07,0,-0.00062663,-0.0014481,-1.3635e-05,-0.18634,0.12227,-9.7647,0,0,44.844,1,1,8008,4004
3897,5.8907e+07,0,-0.0012524,-0.00091917,0.00034044,-0.18582,0.12284,-9.7608,0,0,44.844,1,1,8008,4004
3900,5.8908e+07,0,-0.0011006,-0.00071617,-5.8672e-05,-0.1829,0.12166,-9.7562,0,0,44.844,1,1,8008,4004
3903,5.8911e+07,0,-0.00078685,-0.00057979,-0.00080976,-0.18162,0.12151,-9.7542,0,0,44.844,1,1,8008,4004
3934,5.8913e+07,0,-0.00048541,-0.00024641,-0.0021427,-0.18052,0.12132,-9.7525,0,0,44.844,1,1,8008,4004
3937,5.8916e+07,0,0.00058822,-0.0003866,-0.0022396,-0.17844,0.12008,-9.7494,0,0,44.844,1,1,8008,4004
3940,5.8918e+07,0,0.00076464,-0.00010816,-0.0016798,-0.17671,0.12002,-9.7459,0,0,44.844,1,1,8008,4004
3943,5.8921e+07,0,-0.00017431,-0.00016497,-0.00091308,-0.17486,0.12154,-9.7408,0,0,44.845,1,1,8008,4004
3974,5.8924e+07,0,-0.00082267,-0.0007762,-0.00068965,-0.17472,0.12194,-9.7393,0,0,44.845,1,1,8008,4004
3978,5.8926e+07,0,-0.00095158,-0.001963,-0.00018279,-0.17553,0.122,-9.7391,0,0,44.845,1,1,8008,4004
3981,5.8929e+07,0,-0.00087267,-0.0020663,-9.6855e-05,-0.17471,0.12259,-9.7375,0,0,44.845,1,1,8008,4004
3984,5.8931e+07,0,-0.0017568,-0.00061088,-0.0010003,-0.1734,0.12355,-9.7345,0,0,44.845,1,1,8008,4004
4015,5.8933e+07,0,-0.0021556,0.00026604,-0.0011074,-0.1731,0.12398,-9.7341,0,0,44.846,1,1,8008,4004
4019,5.8936e+07,0,-0.0018318,-0.0004207,-2.0376e-05,-0.17391,0.12563,-9.7359,0,0,44.846,1,1,8008,4004
4022,5.8938e+07,0,-0.0010204,-0.0013942,0.00072623,-0.17474,0.12866,-9.7374,0,0,44.846,1,1,8008,4004
4025,5.8941e+07,0,0.00054997,-0.0018175,0.0002486,-0.17599,0.13397,-9.7416,0,0,44.846,1,1,8008,4004
4058,5.8944e+07,0,0.00011602,-0.002189,-0.00077499,-0.17712,0.13561,-9.7442,0,0,44.846,1,1,8008,4004
4062,5.8946e+07,0,-4.7795e-05,-0.0018142,-0.00053856,-0.17825,0.13634,-9.7485,0,0,44.846,1,1,8008,4004
4066,5.8949e+07,0,2.127e-05,-0.00055216,-0.00030338,-0.17904,0.13584,-9.7529,0,0,44.846,1,1,8008,4004
4069,5.8951e+07,0,0.00025831,0.00088853,-0.0003482,-0.17889,0.13651,-9.758,0,0,44.846,1,1,8008,4004
4104,5.8954e+07,0,0.00045841,0.00081323,-0.00025785,-0.17791,0.13644,-9.7598,0,0,44.847,1,1,8008,4004
4109,5.8956e+07,0,-0.00045508,0.00035496,-0.00095025,-0.17679,0.13546,-9.7616,0,0,44.847,1,1,8008,4004
4112,5.8958e+07,0,-0.00057786,-0.00024199,-0.00091666,-0.17568,0.13444,-9.7584,0,0,44.847,1,1,8008,4004
4115,5.8961e+07,0,-0.00017922,-0.00092971,-8.9939e-05,-0.17374,0.13255,-9.7471,0,0,44.847,1,1,8008,4004
4146,5.8964e+07,0,-0.00037937,-0.0010364,-0.00030245,-0.17359,0.12948,-9.7335,0,0,44.847,1,1,8008,4004
4150,5.8966e+07,0,-0.0013489,-0.0013243,-0.00097211,-0.17311,0.12614,-9.7283,0,0,44.847,1,1,8008,4004
4153,5.8969e+07,0,-0.00094121,-0.0017957,-0.0015897,-0.17191,0.12318,-9.7249,0,0,44.848,1,1,8008,4004
4156,5.8972e+07,0,-0.00026379,-0.0011795,-0.0019377,-0.17104,0.12252,-9.7244,0,0,44.848,1,1,8008,4004
4187,5.8974e+07,0,-7.0206e-06,-0.00068247,-0.0016342,-0.17045,0.12246,-9.7254,0,0,44.848,1,1,8008,4004
4191,5.8977e+07,0,-0.00094792,-0.0004604,-0.00020978,-0.1698,0.12266,-9.7267,0,0,44.848,1,1,8008,4004
4194,5.8979e+07,0,-0.0021831,0.000578,0.00066803,-0.16984,0.12195,-9.7287,0,0,44.848,1,1,8008,4004
4197,5.8981e+07,0,-0.0023106,0.00052448,8.1291e-05,-0.16979,0.12139,-9.7308,0,0,44.848,1,1,8008,4004
4228,5.8984e+07,0,-0.0016291,-0.00058117,-0.00036695,-0.16778,0.12142,-9.7334,0,0,44.848,1,1,8008,4004
4232,5.8987e+07,0,-0.00090698,-0.00080763,2.0403e-05,-0.16481,0.1212,-9.7352,0,0,44.849,1,1,8008,4004
4237,5.899e+07,0,-0.0003047,-0.00076013,0.00062054,-0.15972,0.11978,-9.7385,0,0,44.849,1,1,8008,4004
4240,5.8991e+07,0,0.00058093,-0.00091301,0.00054135,-0.15677,0.11881,-9.7417,0,0,44.849,1,1,8008,4004
4271,5.8994e+07,0,0.0010384,-0.00034848,-0.00016921,-0.15445,0.11811,-9.7451,0,0,44.849,1,1,8008,4004
4275,5.8996e+07,0,0.00032248,0.00042654,-0.00055393,-0.15441,0.11772,-9.7464,0,0,44.849,1,1,8008,4004
4278,5.9e+07,0,-0.0002287,0.00073774,-0.00054788,-0.15575,0.11752,-9.7457,0,0,44.849,1,1,8008,4004
4281,5.9003e+07,0,0.00056892,8.9452e-05,-0.00081321,-0.15832,0.11934,-9.7419,0,0,44.85,1,1,8008,4004
4284,5.9004e+07,0,0.00056761,6.2076e-06,-0.00057055,-0.15937,0.12327,-9.7376,0,0,44.85,1,1,8008,4004
4315,5.9007e+07,0,-5.1399e-05,-0.00092806,-0.00053264,-0.15915,0.12613,-9.736,0,0,44.85,1,1,8008,4004
4318,5.901e+07,0,-0.0010076,-0.0014607,-0.00076972,-0.15955,0.12803,-9.7334,0,0,44.85,1,1,8008,4004
4321,5.9013e+07,0,-0.00086752,-0.00084935,-0.0012157,-0.1605,0.12919,-9.7298,0,0,44.85,1,1,8008,4004
4324,5.9015e+07,0,-0.00043361,-0.0011229,-0.0013555,-0.16188,0.12911,-9.73,0,0,44.851,1,1,8008,4004
4355,5.9018e+07,0,-1.5837e-05,-0.0022271,1.1118e-05,-0.16294,0.12653,-9.7358,0,0,44.851,1,1,8008,4004
4359,5.902e+07,0,-0.00022349,-0.0019429,0.00084445,-0.16432,0.12605,-9.7378,0,0,44.851,1,1,8008,4004
4362,5.9023e+07,0,-0.00093206,-0.0020081,0.0011204,-0.1688,0.12792,-9.7385,0,0,44.851,1,1,8008,4004
4365,5.9025e+07,0,-0.00059351,-0.0023586,0.0011268,-0.17238,0.13061,-9.7391,0,0,44.852,1,1,8008,4004
4396,5.9028e+07,0,-0.00013554,-0.0019329,0.00052054,-0.17524,0.13618,-9.7408,0,0,44.852,1,1,8008,4004
4400,5.903e+07,0,0.00051043,-0.00098732,-0.00034444,-0.17459,0.13977,-9.7415,0,0,44.852,1,1,8008,4004
4404,5.9033e+07,0,0.0017915,-0.00041765,-0.0018594,-0.17388,0.14215,-9.744,0,0,44.852,1,1,8008,4004
4407,5.9036e+07,0,0.0023916,-0.00052677,-0.0020164,-0.17264,0.14136,-9.744,0,0,44.852,1,1,8008,4004
4438,5.9038e+07,0,0.002441,-0.0010343,-0.0015655,-0.16797,0.13919,-9.743,0,0,44.853,1,1,8008,4004
4441,5.9041e+07,0,0.0026321,-0.001303,-0.0010017,-0.16551,0.1385,-9.7427,0,0,44.853,1,1,8008,4004
4444,5.9043e+07,0,0.0022515,-0.0012146,-0.00073897,-0.16298,0.13608,-9.7414,0,0,44.853,1,1,8008,4004
4447,5.9045e+07,0,0.0013372,-0.001078,0.00033066,-0.16222,0.1345,-9.7425,0,0,44.853,1,1,8008,4004
4478,5.9049e+07,0,0.00070889,-0.00039385,0.00083856,-0.16372,0.13166,-9.7452,0,0,44.854,1,1,8008,4004
4482,5.9051e+07,0,0.0001999,-0.00095761,0.00059927,-0.16539,0.12969,-9.747,0,0,44.854,1,1,8008,4004
4485,5.9053e+07,0,0.00010586,-0.0015513,0.00020986,-0.16789,0.12776,-9.7485,0,0,44.854,1,1,8008,4004
4492,5.9056e+07,0,-0.00029675,-0.0015866,0.00027047,-0.16983,0.12671,-9.7465,0,0,44.854,1,1,8008,4004
4523,5.9058e+07,0,-0.00063113,-0.0018809,0.000788,-0.17271,0.12658,-9.7444,0,0,44.855,1,1,8008,4004
4527,5.9061e+07,0,-0.0010748,-0.0016438,0.0013336,-0.17285,0.1281,-9.7456,0,0,44.855,1,1,8008,4004
4530,5.9064e+07,0,-0.0012924,-0.0015201,0.00044121,-0.17226,0.13015,-9.7472,0,0,44.855,1,1,8008,4004
4533,5.9066e+07,0,-0.00079233,-0.0013503,-0.00017701,-0.17262,0.13018,-9.7491,0,0,44.855,1,1,8008,4004
4564,5.9068e+07,0,-0.00020615,-0.0016082,-0.00081824,-0.17438,0.12906,-9.7542,0,0,44.855,1,1,8008,4004
4568,5.9071e+07,0,0.00033309,-0.0020308,-0.0007415,-0.17558,0.12883,-9.7549,0,0,44.856,1,1,8008,4004
4572,5.9074e+07,0,-0.00040873,-0.0017226,-0.00085964,-0.1781,0.12813,-9.7519,0,0,44.856,1,1,8008,4004
4575,5.9076e+07,0,-0.00074994,-0.0011251,-0.00043006,-0.18036,0.12652,-9.7493,0,0,44.856,1,1,8008,4004
4606,5.9078e+07,0,0.00062216,-0.00087428,-0.00021296,-0.18383,0.12355,-9.7451,0,0,44.856,1,1,8008,4004
4610,5.9081e+07,0,0.0014285,-0.00071484,-0.00036825,-0.18477,0.12235,-9.7438,0,0,44.856,1,1,8008,4004
4613,5.9083e+07,0,0.00053766,-0.0013041,-0.0015593,-0.18404,0.12159,-9.7438,0,0,44.857,1,1,8008,4004
4616,5.9086e+07,0,-0.0001717,-0.0015172,-0.0020316,-0.18321,0.1217,-9.7444,0,0,44.857,1,1,8008,4004
4647,5.9089e+07,0,-0.00075639,-0.0018975,-0.0023468,-0.18236,0.12288,-9.745,0,0,44.857,1,1,8008,4004
4650,5.9091e+07,0,-0.00056972,-0.0021923,-0.0017538,-0.18277,0.12392,-9.7439,0,0,44.858,1,1,8008,4004
4653,5.9094e+07,0,-0.00049818,-0.0017984,-0.0013573,-0.18501,0.12678,-9.7404,0,0,44.858,1,1,8008,4004
4656,5.9099e+07,0,-0.0011167,-0.0010778,-0.0020497,-0.18339,0.12777,-9.7345,0,0,44.858,1,1,8008,4004
4688,5.9103e+07,0,-0.0020534,-0.00093776,-0.0028488,-0.18022,0.12534,-9.7337,0,0,44.859,1,1,8008,4004
4691,5.9104e+07,0,-0.0017864,-0.0012144,-0.0030302,-0.17794,0.12253,-9.7339,0,0,44.859,1,1,8008,4004
4694,5.9108e+07,0,-0.0010364,-0.0017037,-0.0024757,-0.17497,0.12088,-9.7379,0,0,44.859,1,1,8008,4004
4697,5.911e+07,0,-0.00036441,-0.0017483,-0.0016992,-0.17289,0.12163,-9.7402,0,0,44.859,1,1,8008,4004
4728,5.9112e+07,0,0.00018204,-0.001077,-0.00085591,-0.17093,0.12591,-9.74,0,0,44.859,1,1,8008,4004
4731,5.9115e+07,0,0.00055167,-0.0012363,-0.00018343,-0.17021,0.13014,-9.7381,0,0,44.86,1,1,8008,4004
4734,5.9117e+07,0,0.00070354,-0.0021242,0.00035556,-0.17023,0.13239,-9.7379,0,0,44.86,1,1,8008,4004
4737,5.912e+07,0,0.000647,-0.0021711,1.6992e-05,-0.17253,0.13245,-9.74,0,0,44.86,1,1,8008,4004
4768,5.9123e+07,0,0.00022574,-0.0010015,-0.00076762,-0.17505,0.1302,-9.7417,0,0,44.86,1,1,8008,4004
4772,5.9125e+07,0,-0.00040644,-6.1553e-05,-0.0016744,-0.17662,0.1286,-9.7451,0,0,44.86,1,1,8008,4004
4775,5.9128e+07,0,-0.00025703,-0.00035545,-0.0022256,-0.17626,0.12904,-9.7477,0,0,44.86,1,1,8008,4004
4778,5.913e+07,0,0.00034921,-0.000923,-0.0029148,-0.17444,0.13053,-9.7518,0,0,44.86,1,1,8008,4004
4809,5.9133e+07,0,0.00081945,-0.001508,-0.0030477,-0.17283,0.13214,-9.7546,0,0,44.86,1,1,8008,4004
4813,5.9135e+07,0,0.00097334,-0.0017438,-0.0028486,-0.17084,0.13316,-9.7555,0,0,44.86,1,1,8008,4004
4816,5.9138e+07,0,-0.00056676,-0.0014212,-0.0020065,-0.16886,0.13269,-9.7579,0,0,44.86,1,1,8008,4004
4819,5.9141e+07,0,-0.00093917,-0.0010089,-0.0019556,-0.16874,0.13163,-9.7595,0,0,44.861,1,1,8008,4004
4850,5.9143e+07,0,-0.00069542,-0.00096831,-0.0010037,-0.16912,0.12992,-9.7601,0,0,44.861,1,1,8008,4004
4853,5.9146e+07,0,-0.00037997,-0.0012561,-0.00061084,-0.16945,0.1277,-9.76,0,0,44.861,1,1,8008,4004
4856,5.9148e+07,0,-0.00022156,-0.0018598,0.00014893,-0.16959,0.12392,-9.7597,0,0,44.861,1,1,8008,4004
4859,5.9151e+07,0,-0.00011972,-0.0014406,0.00058772,-0.17016,0.1212,-9.7602,0,0,44.861,1,1,8008,4004
4890,5.9154e+07,0,-8.8958e-05,5.1021e-05,0.00024238,-0.17073,0.11916,-9.7624,0,0,44.861,1,1,8008,4004
4894,5.9155e+07,0,0.00015569,0.00029104,-6.1615e-05,-0.17134,0.12042,-9.7644,0,0,44.861,1,1,8008,4004
4901,5.9158e+07,0,0.0010593,0.00025798,0.0003783,-0.17545,0.12207,-9.7661,0,0,44.861,1,1,8008,4004
4904,5.9161e+07,0,0.00074988,0.0002702,0.00051967,-0.17881,0.12176,-9.7685,0,0,44.861,1,1,8008,4004
4935,5.9163e+07,0,-0.0008225,0.00099662,-0.00061925,-0.18111,0.1208,-9.7687,0,0,44.861,1,1,8008,4004
4938,5.9166e+07,0,-0.00065066,0.0009727,-0.001028,-0.18221,0.12081,-9.7643,0,0,44.86,1,1,8008,4004
4941,5.9169e+07,0,-0.0001775,0.0015612,-0.00028912,-0.18181,0.12031,-9.7606,0,0,44.86,1,1,8008,4004
4944,5.9171e+07,0,0.00011149,0.0021067,1.4389e-05,-0.17922,0.1203,-9.7568,0,0,44.86,1,1,8008,4004
4975,5.9174e+07,0,7.2634e-05,0.0015826,2.2641e-05,-0.17747,0.12128,-9.7551,0,0,44.86,1,1,8008,4004
4979,5.9176e+07,0,-0.00059008,0.00046955,-0.00056487,-0.17545,0.1224,-9.7539,0,0,44.86,1,1,8008,4004
4983,5.9179e+07,0,-0.00075425,0.0004713,-5.6379e-05,-0.17408,0.12196,-9.7538,0,0,44.86,1,1,8008,4004
4987,5.9181e+07,0,-8.4488e-05,0.0009927,0.0011207,-0.17254,0.12126,-9.7566,0,0,44.86,1,1,8008,4004
5018,5.9184e+07,0,0.00029044,0.0011241,0.0013202,-0.17213,0.1207,-9.7567,0,0,44.86,1,1,8008,4004
5021,5.9186e+07,0,0.00058238,0.0005276,0.0013634,-0.17158,0.1204,-9.7572,0,0,44.86,1,1,8008,4004
5024,5.9188e+07,0,0.00049702,0.0010332,0.0016565,-0.17344,0.12051,-9.7565,0,0,44.861,1,1,8008,4004
5027,5.9191e+07,0,-0.00023603,0.001869,0.0010984,-0.17644,0.12276,-9.7562,0,0,44.861,1,1,8008,4004
5060,5.9194e+07,0,-0.00044642,0.0019573,0.0010306,-0.17696,0.12564,-9.7579,0,0,44.861,1,1,8008,4004
5064,5.9196e+07,0,-0.0017894,0.001766,0.0010882,-0.17471,0.12865,-9.7594,0,0,44.861,1,1,8008,4004
5067,5.9201e+07,0,-0.0023265,0.00047584,0.00070008,-0.17043,0.13062,-9.7517,0,0,44.861,1,1,8008,4004
5098,5.9205e+07,0,-0.001122,0.0009914,0.00038367,-0.16778,0.13107,-9.7469,0,0,44.861,1,1,8008,4004
5101,5.9206e+07,0,-8.2974e-05,0.0013819,0.00015503,-0.16642,0.13051,-9.7444,0,0,44.861,1,1,8008,4004
5104,5.921e+07,0,0.00012868,0.00031814,0.00093762,-0.16517,0.12985,-9.7407,0,0,44.861,1,1,8008,4004
5107,5.9211e+07,0,-0.00039921,-0.00022039,0.001016,-0.16476,0.13008,-9.7382,0,0,44.861,1,1,8008,4004
5138,5.9214e+07,0,-0.0009772,-0.0001467,0.00019865,-0.16579,0.12967,-9.7352,0,0,44.86,1,1,8008,4004
5142,5.9217e+07,0,-0.00023069,-0.00013741,-0.00016482,-0.16773,0.12939,-9.7341,0,0,44.86,1,1,8008,4004
5145,5.9219e+07,0,0.00044944,-0.0010864,-0.00063985,-0.17007,0.12918,-9.7357,0,0,44.86,1,1,8008,4004
5148,5.9222e+07,0,0.00087607,-0.0015769,-0.00052815,-0.17154,0.12854,-9.7378,0,0,44.86,1,1,8008,4004
5179,5.9224e+07,0,0.0011018,-0.0019585,-0.00018633,-0.17314,0.1279,-9.7416,0,0,44.86,1,1,8008,4004
5183,5.9227e+07,0,0.0004069,-0.0020971,-0.00065082,-0.17435,0.12732,-9.7455,0,0,44.86,1,1,8008,4004
5186,5.923e+07,0,0.00025584,-0.0021471,-0.001005,-0.17588,0.12558,-9.7505,0,0,44.86,1,1,8008,4004
5189,5.9232e+07,0,0.00054009,-0.0021057,-0.00093072,-0.17613,0.12269,-9.7527,0,0,44.86,1,1,8008,4004
5220,5.9235e+07,0,3.7238e-05,-0.0014474,-0.00040818,-0.17665,0.11827,-9.755,0,0,44.861,1,1,8008,4004
5223,5.9237e+07,0,-0.00033892,-0.00095098,-0.000615,-0.17619,0.11529,-9.7576,0,0,44.861,1,1,8008,4004
5226,5.9239e+07,0,-0.00056448,-0.00092199,-0.00099026,-0.17183,0.11246,-9.761,0,0,44.861,1,1,8008,4004
5229,5.9242e+07,0,-0.00063568,-0.00039376,-0.00064766,-0.16877,0.11166,-9.761,0,0,44.861,1,1,8008,4004
5260,5.9244e+07,0,-0.00091313,-0.00043404,-0.001193,-0.16769,0.11093,-9.7606,0,0,44.861,1,1,8008,4004
5265,5.9248e+07,0,-0.0011841,-0.0014703,-0.0017936,-0.16563,0.11301,-9.7609,0,0,44.861,1,1,8008,4004
5268,5.925e+07,0,-0.0010972,-0.001808,-0.0016982,-0.16338,0.11524,-9.7605,0,0,44.861,1,1,8008,4004
5271,5.9253e+07,0,-0.0011699,-0.0010713,-0.001702,-0.16091,0.11754,-9.7588,0,0,44.86,1,1,8008,4004
5302,5.9255e+07,0,-0.0010092,-0.0015294,-0.0011915,-0.16018,0.11948,-9.7561,0,0,44.86,1,1,8008,4004
5305,5.9257e+07,0,-0.00064267,-0.0024569,-0.0010499,-0.15914,0.12115,-9.7517,0,0,44.86,1,1,8008,4004
5312,5.9261e+07,0,-4.8639e-05,-0.0027392,-0.00075152,-0.15659,0.12112,-9.7414,0,0,44.86,1,1,8008,4004
5315,5.9262e+07,0,9.13e-05,-0.0024799,-0.00087865,-0.15695,0.12087,-9.7352,0,0,44.86,1,1,8008,4004
5346,5.9266e+07,0,-2.2982e-06,-0.0019906,-0.00072318,-0.15954,0.12142,-9.7309,0,0,44.86,1,1,8008,4004
5350,5.9267e+07,0,0.0001676,-0.00080382,-0.00056896,-0.16025,0.12251,-9.7294,0,0,44.86,1,1,8008,4004
5353,5.927e+07,0,0.00060892,0.00072888,0.00052914,-0.16054,0.12472,-9.7287,0,0,44.861,1,1,8008,4004
5356,5.9273e+07,0,1.4753e-05,0.0010018,0.0011378,-0.16167,0.12581,-9.7277,0,0,44.861,1,1,8008,4004
5387,5.9275e+07,0,-0.001529,0.00018496,0.00089647,-0.16573,0.1281,-9.7265,0,0,44.861,1,1,8008,4004
5391,5.9278e+07,0,-0.0012931,-0.0010505,0.0010372,-0.1692,0.13021,-9.7254,0,0,44.861,1,1,8008,4004
5395,5.928e+07,0,-0.0012604,-0.0018974,0.0012621,-0.16988,0.13106,-9.7257,0,0,44.861,1,1,8008,4004
5398,5.9284e+07,0,-0.00060535,-0.0019623,0.00075881,-0.16714,0.13178,-9.7274,0,0,44.861,1,1,8008,4004
5429,5.9286e+07,0,-0.00054125,-0.0019778,-0.0012336,-0.16419,0.1313,-9.7262,0,0,44.861,1,1,8008,4004
5432,5.9289e+07,0,-0.00018582,-0.0021264,-0.0017817,-0.1638,0.13086,-9.7258,0,0,44.861,1,1,8008,4004
5435,5.9291e+07,0,0.00028607,-0.003091,-0.0021242,-0.16403,0.1306,-9.7259,0,0,44.861,1,1,8008,4004
5438,5.9294e+07,0,-0.00033678,-0.0027187,-0.0022347,-0.16379,0.13118,-9.7277,0,0,44.86,1,1,8008,4004
5469,5.9297e+07,0,6.4063e-05,-0.0019163,-0.0019624,-0.16453,0.13006,-9.7306,0,0,44.86,1,1,8008,4004
5473,5.9299e+07,0,0.0013516,-0.0015463,-0.0014937,-0.16488,0.12653,-9.7339,0,0,44.86,1,1,8008,4004
5476,5.9303e+07,0,0.00087107,-0.0019063,-0.0011135,-0.16412,0.12505,-9.7362,0,0,44.86,1,1,8008,4004
5479,5.9304e+07,0,-0.00043538,-0.0030216,-0.0013612,-0.16444,0.1238,-9.739,0,0,44.86,1,1,8008,4004
5510,5.9308e+07,0,-0.0011778,-0.0023739,-0.0014954,-0.16558,0.12313,-9.7404,0,0,44.86,1,1,8008,4004
5513,5.9309e+07,0,-0.0015828,-0.0013994,-0.0010785,-0.16615,0.12252,-9.7396,0,0,44.86,1,1,8008,4004
5516,5.9312e+07,0,-0.0016945,-0.00074416,-0.00083624,-0.16701,0.12216,-9.739,0,0,44.86,1,1,8008,4004
5519,5.9314e+07,0,-0.00067732,-0.0001911,-0.00078951,-0.16917,0.12215,-9.7386,0,0,44.861,1,1,8008,4004
5550,5.9317e+07,0,0.00010759,-0.00047889,-0.0008464,-0.17077,0.1217,-9.7395,0,0,44.861,1,1,8008,4004
5554,5.9319e+07,0,0.00068295,-0.00063903,-0.0009841,-0.17308,0.12286,-9.7386,0,0,44.861,1,1,8008,4004
5557,5.9321e+07,0,0.00092264,-0.00095545,-0.0011566,-0.17562,0.12363,-9.7385,0,0,44.861,1,1,8008,4004
5560,5.9324e+07,0,0.00080724,-0.0010704,-0.00076601,-0.17926,0.12567,-9.7385,0,0,44.861,1,1,8008,4004
5591,5.9327e+07,0,0.00091424,-0.0020522,-0.00043193,-0.18128,0.12739,-9.7391,0,0,44.861,1,1,8008,4004
5594,5.9329e+07,0,0.00083796,-0.0025141,-0.0012473,-0.1839,0.1289,-9.741,0,0,44.861,1,1,8008,4004
5597,5.9332e+07,0,0.00068074,-0.0022447,-0.0011901,-0.18475,0.12905,-9.7428,0,0,44.862,1,1,8008,4004
5600,5.9334e+07,0,0.00088042,-0.0019369,-0.001135,-0.18636,0.13039,-9.7448,0,0,44.862,1,1,8008,4004
5631,5.9336e+07,0,0.0011471,-0.0011327,-0.0005073,-0.18773,0.1323,-9.7452,0,0,44.862,1,1,8008,4004
5635,5.9339e+07,0,0.0010791,-0.00056073,0.0012986,-0.18867,0.13632,-9.7457,0,0,44.862,1,1,8008,4004
5638,5.9341e+07,0,0.00057644,-0.00065793,0.0021646,-0.18847,0.13939,-9.7458,0,0,44.862,1,1,8008,4004
5641,5.9344e+07,0,0.00034573,-0.0011063,0.0022384,-0.18584,0.14236,-9.7467,0,0,44.862,1,1,8008,4004
5672,5.9347e+07,0,0.0011424,-0.0012221,0.0013958,-0.18185,0.14263,-9.7443,0,0,44.862,1,1,8008,4004
5675,5.9349e+07,0,0.0013869,-0.00073691,0.001042,-0.18045,0.14277,-9.7414,0,0,44.863,1,1,8008,4004
5678,5.9352e+07,0,0.0015667,-0.00085989,0.00052569,-0.17869,0.14263,-9.7384,0,0,44.863,1,1,8008,4004
5681,5.9354e+07,0,0.0013135,-0.0010649,-0.00016029,-0.17588,0.14118,-9.738,0,0,44.863,1,1,8008,4004
5712,5.9357e+07,0,0.0010679,-0.0010007,-8.0053e-05,-0.17403,0.1376,-9.74,0,0,44.863,1,1,8008,4004
5715,5.9359e+07,0,0.00092536,-0.0012944,0.00022392,-0.17232,0.13234,-9.7413,0,0,44.863,1,1,8008,4004
5722,5.9362e+07,0,0.00021087,-0.0012927,0.00049627,-0.17094,0.12813,-9.7418,0,0,44.863,1,1,8008,4004
5725,5.9365e+07,0,-0.00049674,-0.0017644,0.001395,-0.16818,0.12072,-9.7422,0,0,44.864,1,1,8008,4004
5756,5.9367e+07,0,-0.00093047,-0.0017926,0.0019046,-0.1655,0.11696,-9.742,0,0,44.864,1,1,8008,4004
5760,5.937e+07,0,-0.0011056,-0.00078068,0.0014374,-0.16575,0.11681,-9.7408,0,0,44.864,1,1,8008,4004
5763,5.9372e+07,0,-0.00023139,-0.0009827,0.00065826,-0.16815,0.11745,-9.7414,0,0,44.864,1,1,8008,4004
5766,5.9375e+07,0,0.00026351,-0.0013609,0.00017961,-0.17008,0.11717,-9.745,0,0,44.864,1,1,8008,4004
5797,5.9378e+07,0,0.00035616,-0.00017933,-0.00038951,-0.17037,0.11727,-9.7512,0,0,44.865,1,1,8008,4004
5800,5.938e+07,0,0.00035337,0.00013892,-0.00048382,-0.16955,0.11855,-9.7537,0,0,44.865,1,1,8008,4004
5803,5.9382e+07,0,0.00078127,0.00017563,0.00069919,-0.16766,0.12117,-9.7566,0,0,44.865,1,1,8008,4004
5807,5.9384e+07,0,0.00092594,0.00017248,0.00091051,-0.16754,0.12244,-9.7568,0,0,44.865,1,1,8008,4004
5838,5.9387e+07,0,0.00031147,-0.0010829,0.00076858,-0.16918,0.12348,-9.7564,0,0,44.865,1,1,8008,4004
5842,5.9391e+07,0,-0.00032797,-0.001425,0.0013384,-0.16986,0.12359,-9.7553,0,0,44.865,1,1,8008,4004
5845,5.9392e+07,0,0.00011447,-0.0016304,0.0020197,-0.17017,0.12086,-9.7535,0,0,44.866,1,1,8008,4004
5849,5.9394e+07,0,0.00028425,-0.0014231,0.0011489,-0.17045,0.11863,-9.7504,0,0,44.866,1,1,8008,4004
5882,5.9397e+07,0,-0.00073626,-0.0016638,6.2776e-05,-0.17357,0.11675,-9.7453,0,0,44.866,1,1,8008,4004
5885,5.94e+07,0,-0.0006775,-0.001451,-0.00056283,-0.17461,0.1154,-9.743,0,0,44.866,1,1,8008,4004
5888,5.9403e+07,0,-0.00067267,-0.0016993,-0.00079482,-0.17403,0.11452,-9.7392,0,0,44.866,1,1,8008,4004
5891,5.9407e+07,0,-0.0011678,-0.0011207,0.00046012,-0.17312,0.11561,-9.7362,0,0,44.866,1,1,8008,4004
5923,5.941e+07,0,-0.0017936,-0.0021261,0.0016068,-0.17403,0.11846,-9.7367,0,0,44.867,1,1,8008,4004
5926,5.9412e+07,0,-0.0017609,-0.0021361,0.0018875,-0.17482,0.12109,-9.7375,0,0,44.867,1,1,8008,4004
5929,5.9415e+07,0,-0.0011074,-0.0020889,0.00186,-0.17504,0.12211,-9.7385,0,0,44.867,1,1,8008,4004
5932,5.9417e+07,0,-0.00032498,-0.0012622,-0.0002077,-0.17414,0.11981,-9.7432,0,0,44.867,1,1,8008,4004
5963,5.942e+07,0,-0.00015976,-0.00054908,-0.0018978,-0.17471,0.11888,-9.7498,0,0,44.867,1,1,8008,4004
5967,5.9422e+07,0,0.00023563,-0.00013287,-0.0025696,-0.17338,0.12046,-9.7529,0,0,44.867,1,1,8008,4004
5970,5.9424e+07,0,0.00027242,0.00010274,-0.0028197,-0.17132,0.12204,-9.7538,0,0,44.867,1,1,8008,4004
5973,5.9427e+07,0,-0.00020603,9.1666e-05,-0.0025207,-0.17008,0.12387,-9.7535,0,0,44.867,1,1,8008,4004
6004,5.943e+07,0,-0.0013162,0.00098402,-0.0016943,-0.16992,0.12529,-9.7554,0,0,44.868,1,1,8008,4004
6007,5.9432e+07,0,-0.0021164,0.0013744,-0.00095187,-0.1691,0.12516,-9.7582,0,0,44.868,1,1,8008,4004
6010,5.9434e+07,0,-0.0025084,0.0010108,-0.00068772,-0.1683,0.12493,-9.7597,0,0,44.868,1,1,8008,4004
6013,5.9437e+07,0,-0.0019117,0.00048906,-0.0007868,-0.16808,0.12398,-9.7588,0,0,44.868,1,1,8008,4004
6046,5.944e+07,0,-0.0015851,0.00076948,-0.00025049,-0.16766,0.12396,-9.758,0,0,44.868,1,1,8008,4004
6051,5.9443e+07,0,-0.001554,0.0010495,-0.00049486,-0.16755,0.12439,-9.7587,0,0,44.868,1,1,8008,4004
6054,5.9444e+07,0,-0.0012244,0.00094634,-0.00065564,-0.16772,0.12534,-9.7575,0,0,44.868,1,1,8008,4004
6057,5.9447e+07,0,-0.001161,0.00017092,8.0648e-05,-0.16874,0.12726,-9.7553,0,0,44.868,1,1,8008,4004
6088,5.945e+07,0,-0.0011758,0.00059787,0.00016044,-0.1689,0.12797,-9.7544,0,0,44.868,1,1,8008,4004
6091,5.9452e+07,0,-0.00065876,0.00038681,-0.00015216,-0.16822,0.12575,-9.7499,0,0,44.869,1,1,8008,4004
6094,5.9455e+07,0,-0.00037518,-0.00010314,-0.00050062,-0.16749,0.12274,-9.7441,0,0,44.869,1,1,8008,4004
6097,5.9457e+07,0,-0.0001975,0.00020627,-0.0019449,-0.1678,0.11886,-9.7391,0,0,44.869,1,1,8008,4004
6128,5.9459e+07,0,-0.00029044,0.00092542,-0.0020025,-0.1673,0.11881,-9.7382,0,0,44.869,1,1,8008,4004
6136,5.9462e+07,0,0.0002049,0.0006645,-0.0015062,-0.16463,0.11969,-9.7397,0,0,44.869,1,1,8008,4004
6139,5.9465e+07,0,0.00039891,0.00039744,-0.0014653,-0.16117,0.12073,-9.7402,0,0,44.869,1,1,8008,4004
6142,5.9467e+07,0,-1.0455e-06,-0.00060881,-0.00081391,-0.15774,0.12244,-9.7396,0,0,44.869,1,1,8008,4004
6173,5.947e+07,0,-0.00023467,-0.0002912,-0.0015953,-0.15808,0.12415,-9.7409,0,0,44.869,1,1,8008,4004
6177,5.9472e+07,0,-0.00032793,-8.5401e-05,-0.0018426,-0.15776,0.12602,-9.7427,0,0,44.869,1,1,8008,4004
6180,5.9475e+07,0,0.00054211,0.00051713,-0.00082935,-0.15594,0.12835,-9.7477,0,0,44.869,1,1,8008,4004
6183,5.9478e+07,0,0.00057353,-0.00015961,-0.00042338,-0.15531,0.12906,-9.7515,0,0,44.869,1,1,8008,4004
6214,5.948e+07,0,-0.00013505,-0.00035174,-0.00015116,-0.15457,0.1279,-9.7559,0,0,44.87,1,1,8008,4004
6217,5.9483e+07,0,-0.00056188,3.7267e-05,-0.00052393,-0.15549,0.12596,-9.7539,0,0,44.87,1,1,8008,4004
6220,5.9485e+07,0,-0.00067865,-0.0010051,-0.00095985,-0.15975,0.12321,-9.7455,0,0,44.87,1,1,8008,4004
6223,5.9488e+07,0,-0.0007951,-0.0022769,-0.0014956,-0.16203,0.1215,-9.74,0,0,44.87,1,1,8008,4004
6254,5.9491e+07,0,0.00026272,-0.0019812,-0.001477,-0.16235,0.12051,-9.7341,0,0,44.87,1,1,8008,4004
6258,5.9493e+07,0,-9.0137e-05,-0.0011492,-0.0012662,-0.16187,0.1218,-9.7328,0,0,44.87,1,1,8008,4004
6263,5.9496e+07,0,-8.7024e-05,-0.00067313,-0.0014211,-0.16413,0.12408,-9.7335,0,0,44.871,1,1,8008,4004
6266,5.9503e+07,0,-0.00076012,0.00075001,-0.00059419,-0.1651,0.12202,-9.745,0,0,44.871,1,1,8008,4004
6297,5.9506e+07,0,-0.00015456,0.00041948,-0.00059383,-0.16335,0.12115,-9.7463,0,0,44.871,1,1,8008,4004
6301,5.9509e+07,0,-0.00060664,0.00021473,-0.00040369,-0.16141,0.12093,-9.7471,0,0,44.871,1,1,8008,4004
6304,5.9512e+07,0,-0.00071401,-3.4634e-05,-0.001105,-0.1578,0.11894,-9.7499,0,0,44.871,1,1,8008,4004
6308,5.9514e+07,0,-0.00041306,-0.00045801,-0.0013642,-0.15652,0.11701,-9.7512,0,0,44.871,1,1,8008,4004
6339,5.9517e+07,0,-0.00035997,-0.0012123,-0.0016835,-0.15614,0.11435,-9.7506,0,0,44.871,1,1,8008,4004
6342,5.9519e+07,0,-0.0010365,-0.001901,-0.0012718,-0.15727,0.11344,-9.7494,0,0,44.872,1,1,8008,4004
6345,5.9522e+07,0,-0.001586,-0.0016746,-0.0009577,-0.15927,0.1135,-9.7467,0,0,44.872,1,1,8008,4004
6348,5.9524e+07,0,-0.0013857,-0.0012162,0.00020534,-0.16244,0.11441,-9.7415,0,0,44.872,1,1,8008,4004
6379,5.9527e+07,0,-0.00035218,-0.001369,0.0005164,-0.16721,0.11684,-9.7392,0,0,44.872,1,1,8008,4004
6383,5.953e+07,0,0.000881,-0.0013317,8.919e-05,-0.17066,0.11884,-9.7378,0,0,44.872,1,1,8008,4004
6386,5.9532e+07,0,0.0012502,-0.00092335,-0.00082191,-0.17385,0.12299,-9.7391,0,0,44.872,1,1,8008,4004
6389,5.9534e+07,0,0.00085652,-0.00094279,-0.00064197,-0.17339,0.12491,-9.7403,0,0,44.872,1,1,8008,4004
6420,5.9537e+07,0,7.8826e-05,-0.001175,-0.00044373,-0.17079,0.128,-9.7397,0,0,44.872,1,1,8008,4004
6423,5.954e+07,0,4.8319e-05,-0.00023805,-0.0002512,-0.1688,0.13043,-9.7402,0,0,44.872,1,1,8008,4004
6426,5.9542e+07,0,-0.00023049,0.0010747,0.00018808,-0.16629,0.13306,-9.7435,0,0,44.872,1,1,8008,4004
6429,5.9544e+07,0,-0.00021291,0.0015164,0.00018856,-0.16634,0.13399,-9.7442,0,0,44.872,1,1,8008,4004
6460,5.9547e+07,0,-0.00012346,0.0014132,0.00019712,-0.16802,0.13294,-9.7427,0,0,44.872,1,1,8008,4004
6465,5.955e+07,0,-0.00065835,0.0012426,-0.00044147,-0.16834,0.13173,-9.7402,0,0,44.872,1,1,8008,4004
6468,5.9552e+07,0,-0.0012442,0.0011451,-0.00075187,-0.16732,0.12938,-9.7371,0,0,44.873,1,1,8008,4004
6471,5.9555e+07,0,-0.0016641,0.00072541,-0.00037922,-0.16605,0.12856,-9.7353,0,0,44.873,1,1,8008,4004
6502,5.9557e+07,0,-0.0015518,7.2499e-05,-7.8993e-05,-0.16386,0.1283,-9.7305,0,0,44.873,1,1,8008,4004
6505,5.956e+07,0,-0.0007894,-0.00027793,0.00012086,-0.16198,0.12835,-9.7262,0,0,44.873,1,1,8008,4004
6508,5.9562e+07,0,-0.00086231,-0.00099442,-0.00023636,-0.15942,0.12885,-9.7198,0,0,44.873,1,1,8008,4004
6515,5.9565e+07,0,-0.0012045,-0.0014052,-0.0012733,-0.16029,0.12955,-9.7182,0,0,44.873,1,1,8008,4004
6546,5.9568e+07,0,-0.00082912,-0.0014059,-0.0027996,-0.16441,0.13091,-9.7199,0,0,44.873,1,1,8008,4004
6550,5.957e+07,0,-0.00070372,-0.00032519,-0.0022892,-0.16983,0.13144,-9.7259,0,0,44.873,1,1,8008,4004
6553,5.9573e+07,0,-0.001756,-0.00043855,-0.00094923,-0.17317,0.13162,-9.7295,0,0,44.873,1,1,8008,4004
6556,5.9575e+07,0,-0.0018579,-0.0013175,-0.00018905,-0.17741,0.13291,-9.7339,0,0,44.873,1,1,8008,4004
6587,5.9578e+07,0,-0.0012547,-0.0018299,-0.00023672,-0.17809,0.13471,-9.7356,0,0,44.873,1,1,8008,4004
6591,5.9581e+07,0,-0.00076279,-0.0014995,-0.0010171,-0.17697,0.13486,-9.7376,0,0,44.873,1,1,8008,4004
6594,5.9582e+07,0,-0.0011912,-0.0014517,-0.0017362,-0.17598,0.1347,-9.7388,0,0,44.873,1,1,8008,4004
6599,5.9585e+07,0,-0.0020643,-0.0012592,-0.001915,-0.17384,0.13392,-9.7396,0,0,44.873,1,1,8008,4004
6630,5.9588e+07,0,-0.0011497,-0.00043039,-0.0022133,-0.17307,0.13231,-9.7411,0,0,44.873,1,1,8008,4004
6633,5.9591e+07,0,-0.00078961,-0.00016132,-0.0025507,-0.17141,0.13055,-9.7433,0,0,44.873,1,1,8008,4004
6636,5.9593e+07,0,0.00028796,-0.00044248,-0.0023368,-0.17025,0.12849,-9.745,0,0,44.873,1,1,8008,4004
6640,5.9595e+07,0,0.00066732,-0.00078088,-0.0012312,-0.1711,0.12572,-9.7452,0,0,44.873,1,1,8008,4004
6671,5.9598e+07,0,0.00064869,-0.00093139,-0.00055262,-0.17185,0.12449,-9.7422,0,0,44.873,1,1,8008,4004
6675,5.96e+07,0,0.00053316,-0.0015047,0.00047864,-0.17268,0.12546,-9.7382,0,0,44.873,1,1,8008,4004
6679,5.9603e+07,0,0.00051366,-0.001844,0.00044728,-0.1727,0.12648,-9.7369,0,0,44.873,1,1,8008,4004
6682,5.9605e+07,0,0.00048379,-0.0020074,0.00033759,-0.1732,0.12768,-9.7355,0,0,44.873,1,1,8008,4004
6713,5.9607e+07,0,0.0010806,-0.0010614,-4.1902e-05,-0.17283,0.12838,-9.7335,0,0,44.874,1,1,8008,4004
6716,5.9611e+07,0,0.0013671,0.00063038,0.00038679,-0.17141,0.12825,-9.7313,0,0,44.874,1,1,8008,4004
6719,5.9613e+07,0,0.0014671,0.00092428,0.0002481,-0.17091,0.1269,-9.7324,0,0,44.874,1,1,8008,4004
6722,5.9618e+07,0,0.0012521,0.000176,-0.001425,-0.16619,0.12633,-9.7389,0,0,44.873,1,1,8008,4004
6754,5.962e+07,0,0.00099334,0.00015234,-0.0016831,-0.16654,0.12805,-9.7421,0,0,44.873,1,1,8008,4004
6757,5.9624e+07,0,-0.00010391,-0.00033606,-0.00074927,-0.16995,0.13214,-9.7465,0,0,44.873,1,1,8008,4004
6760,5.9625e+07,0,-0.00068846,-0.0013463,-0.0002399,-0.17275,0.13423,-9.748,0,0,44.873,1,1,8008,4004
6763,5.9629e+07,0,-0.00099025,-0.0022015,-0.0014269,-0.17757,0.1358,-9.7455,0,0,44.873,1,1,8008,4004
6794,5.9631e+07,0,4.9128e-05,-0.0020256,-0.0017964,-0.18261,0.13609,-9.7404,0,0,44.873,1,1,8008,4004
6797,5.9634e+07,0,0.0012788,-0.0017056,-0.0014924,-0.18591,0.13609,-9.7385,0,0,44.873,1,1,8008,4004
6800,5.9636e+07,0,0.0012597,-0.00085626,-0.00099956,-0.18885,0.13588,-9.7375,0,0,44.873,1,1,8008,4004
6803,5.9639e+07,0,0.0011269,-0.00047491,-0.00081903,-0.18806,0.13502,-9.7355,0,0,44.873,1,1,8008,4004
6834,5.9641e+07,0,0.0012481,-0.000586,-0.00036463,-0.18491,0.13451,-9.7322,0,0,44.873,1,1,8008,4004
6838,5.9644e+07,0,0.0012492,6.9495e-05,-0.00064285,-0.18298,0.13514,-9.7315,0,0,44.873,1,1,8008,4004
6841,5.9646e+07,0,0.0019443,0.00026927,-0.00095955,-0.17879,0.13439,-9.7309,0,0,44.873,1,1,8008,4004
6844,5.9649e+07,0,0.0021429,-0.00033651,-0.00056982,-0.17647,0.13234,-9.7283,0,0,44.873,1,1,8008,4004
6875,5.9652e+07,0,0.0012596,-0.0015576,0.00015794,-0.17568,0.12911,-9.7275,0,0,44.873,1,1,8008,4004
6878,5.9655e+07,0,0.0010732,-0.0029233,0.0008799,-0.1748,0.12591,-9.727,0,0,44.873,1,1,8008,4004
6881,5.9657e+07,0,0.0011168,-0.0031187,0.00087266,-0.17504,0.12396,-9.727,0,0,44.873,1,1,8008,4004
6884,5.9659e+07,0,0.0005993,-0.0026614,0.00045219,-0.17674,0.11959,-9.7274,0,0,44.873,1,1,8008,4004
6915,5.9662e+07,0,0.00047794,-0.0015112,0.00017554,-0.18021,0.11584,-9.728,0,0,44.873,1,1,8008,4004
6918,5.9664e+07,0,0.0004523,-0.00050211,-0.00071334,-0.18264,0.11472,-9.7292,0,0,44.873,1,1,8008,4004
6925,5.9667e+07,0,0.00095154,2.2476e-05,-0.00072172,-0.18368,0.11399,-9.7287,0,0,44.873,1,1,8008,4004
6928,5.9669e+07,0,0.0026687,0.00015179,-0.00010912,-0.18348,0.11184,-9.7263,0,0,44.873,1,1,8008,4004
6959,5.9672e+07,0,0.0031311,0.00016167,0.00086772,-0.18214,0.11023,-9.7261,0,0,44.873,1,1,8008,4004
6963,5.9674e+07,0,0.0027021,-0.00014402,0.00081458,-0.18218,0.11005,-9.7287,0,0,44.873,1,1,8008,4004
6966,5.9676e+07,0,0.002411,-5.1827e-05,0.0007228,-0.18238,0.11149,-9.7319,0,0,44.873,1,1,8008,4004
6969,5.968e+07,0,0.0016743,-2.1795e-05,0.00043649,-0.18164,0.11607,-9.7358,0,0,44.873,1,1,8008,4004
7000,5.9682e+07,0,0.00022513,-0.00051741,9.2591e-05,-0.1788,0.11948,-9.7392,0,0,44.873,1,1,8008,4004
7003,5.9685e+07,0,-0.00049376,-0.00054962,0.00046671,-0.17712,0.11983,-9.7426,0,0,44.873,1,1,8008,4004
7006,5.9687e+07,0,-0.00026165,-0.00022036,0.0010376,-0.17559,0.1177,-9.7478,0,0,44.873,1,1,8008,4004
7009,5.969e+07,0,0.00080721,0.00060616,0.00073053,-0.17394,0.11669,-9.7482,0,0,44.873,1,1,8008,4004
7040,5.9693e+07,0,0.00053821,0.00070861,0.00043554,-0.17219,0.11623,-9.746,0,0,44.873,1,1,8008,4004
7044,5.9695e+07,0,0.00045156,0.0011385,0.00047402,-0.17259,0.11635,-9.7422,0,0,44.873,1,1,8008,4004
7047,5.9698e+07,0,4.4549e-05,0.0010358,0.00042909,-0.17374,0.11549,-9.74,0,0,44.873,1,1,8008,4004
7050,5.97e+07,0,-0.00099008,0.00029168,-0.00023432,-0.17308,0.11597,-9.7399,0,0,44.873,1,1,8008,4004
7081,5.9704e+07,0,-0.0012892,0.00035526,-0.0004453,-0.17131,0.11731,-9.74,0,0,44.873,1,1,8008,4004
7085,5.9705e+07,0,-0.00109,-0.00020465,-0.00026082,-0.16979,0.11968,-9.7356,0,0,44.873,1,1,8008,4004
7089,5.971e+07,0,-0.00044191,-0.00053171,-0.0002754,-0.16655,0.12402,-9.7276,0,0,44.874,1,1,8008,4004
7120,5.9714e+07,0,-0.0018828,0.00069789,-0.0012482,-0.16485,0.1261,-9.7247,0,0,44.874,1,1,8008,4004
7123,5.9715e+07,0,-0.0025654,0.00088504,-0.0017152,-0.1654,0.1275,-9.7256,0,0,44.874,1,1,8008,4004
7127,5.9718e+07,0,-0.0029381,0.00029701,-0.0015627,-0.16708,0.12845,-9.7288,0,0,44.874,1,1,8008,4004
7130,5.972e+07,0,-0.0018066,-0.00067118,-0.0010223,-0.16873,0.12953,-9.7349,0,0,44.874,1,1,8008,4004
7161,5.9723e+07,0,-0.0013095,-0.00062675,-0.00042948,-0.16868,0.1308,-9.7398,0,0,44.874,1,1,8008,4004
7165,5.9726e+07,0,-0.0013702,-0.00045631,0.00084898,-0.16821,0.13406,-9.746,0,0,44.874,1,1,8008,4004
7168,5.9727e+07,0,-0.0010989,-0.00049251,0.0015815,-0.16912,0.13648,-9.7483,0,0,44.874,1,1,8008,4004
7171,5.973e+07,0,-0.00027244,-0.0018453,0.001228,-0.17017,0.14063,-9.7497,0,0,44.874,1,1,8008,4004
7202,5.9733e+07,0,0.00031919,-0.0024362,0.0015179,-0.1718,0.14371,-9.7517,0,0,44.875,1,1,8008,4004
7205,5.9735e+07,0,0.0003926,-0.0018991,0.0010201,-0.17313,0.14378,-9.7545,0,0,44.875,1,1,8008,4004
7208,5.9738e+07,0,-0.00062244,-0.00066591,-0.00048582,-0.17154,0.14299,-9.7584,0,0,44.875,1,1,8008,4004
7211,5.974e+07,0,-0.0014745,6.8839e-05,-0.00099571,-0.17011,0.14255,-9.7617,0,0,44.875,1,1,8008,4004
7242,5.9743e+07,0,-0.0018605,0.00024372,-0.00053003,-0.16812,0.14224,-9.763,0,0,44.875,1,1,8008,4004
7246,5.9746e+07,0,-0.0021922,-4.8881e-05,0.00067841,-0.16792,0.14028,-9.7606,0,0,44.875,1,1,8008,4004
7249,5.9748e+07,0,-0.0021816,-0.0003896,0.0013064,-0.16995,0.13553,-9.7552,0,0,44.875,1,1,8008,4004
7252,5.9751e+07,0,-0.0022871,-0.0012517,0.00061576,-0.17223,0.13316,-9.7524,0,0,44.875,1,1,8008,4004
7283,5.9753e+07,0,-0.0019202,-0.0014141,4.4104e-06,-0.17521,0.13182,-9.7473,0,0,44.875,1,1,8008,4004
7287,5.9755e+07,0,-0.0013685,-0.00091651,8.6495e-05,-0.17566,0.13049,-9.745,0,0,44.875,1,1,8008,4004
7290,5.9758e+07,0,-0.0013768,-0.00018593,-0.00074881,-0.17426,0.13081,-9.7464,0,0,44.875,1,1,8008,4004
7293,5.9761e+07,0,-0.0011455,0.00037388,-0.00071767,-0.17246,0.13281,-9.7481,0,0,44.875,1,1,8008,4004
7324,5.9763e+07,0,-0.0017237,0.0013955,-7.4304e-05,-0.16973,0.13553,-9.7497,0,0,44.875,1,1,8008,4004
7328,5.9766e+07,0,-0.0017032,0.0022275,-9.5692e-05,-0.16833,0.13732,-9.752,0,0,44.876,1,1,8008,4004
7335,5.9769e+07,0,-0.0008676,0.0022354,-0.00090491,-0.16822,0.13909,-9.7546,0,0,44.876,1,1,8008,4004
7338,5.977e+07,0,-0.00041997,0.0015798,-0.0014453,-0.16874,0.13852,-9.7547,0,0,44.876,1,1,8008,4004
7369,5.9773e+07,0,-0.0004487,-0.00080798,-0.0017743,-0.17126,0.13529,-9.756,0,0,44.876,1,1,8008,4004
7373,5.9775e+07,0,0.00014874,-0.001448,-0.001713,-0.17404,0.13314,-9.7571,0,0,44.876,1,1,8008,4004
7376,5.9778e+07,0,0.00082487,-0.0011878,-0.0015843,-0.17667,0.13224,-9.7611,0,0,44.876,1,1,8008,4004
7379,5.9781e+07,0,0.0011468,-0.001254,-0.0011048,-0.17675,0.13326,-9.766,0,0,44.876,1,1,8008,4004
7410,5.9783e+07,0,0.0015597,-0.0012696,-0.00048752,-0.17537,0.13338,-9.7723,0,0,44.876,1,1,8008,4004
7413,5.9786e+07,0,0.0017216,-0.0011772,-0.00079185,-0.17388,0.13268,-9.7752,0,0,44.876,1,1,8008,4004
7416,5.9788e+07,0,0.0016611,-0.0004139,-0.0016656,-0.17192,0.12998,-9.7767,0,0,44.876,1,1,8008,4004
7421,5.9791e+07,0,0.0019338,-0.00037848,-0.0019995,-0.1707,0.1284,-9.7768,0,0,44.876,1,1,8008,4004
7453,5.9794e+07,0,0.0024457,-0.00080512,-0.0014488,-0.16825,0.12705,-9.7718,0,0,44.876,1,1,8008,4004
7457,5.9796e+07,0,0.0026039,-0.00082463,-0.00093303,-0.16577,0.12749,-9.7625,0,0,44.876,1,1,8008,4004
7461,5.9798e+07,0,0.0016819,-0.00073812,-0.0013646,-0.16511,0.12831,-9.7565,0,0,44.876,1,1,8008,4004
7464,5.9802e+07,0,0.00071763,-0.001164,-0.0011473,-0.16693,0.12768,-9.7507,0,0,44.876,1,1,8008,4004
7495,5.9805e+07,0,0.00073964,-0.001498,-0.00094387,-0.16835,0.12356,-9.7475,0,0,44.876,1,1,8008,4004
7498,5.9806e+07,0,0.0011345,-0.00081512,-2.1907e-06,-0.16786,0.12029,-9.7473,0,0,44.876,1,1,8008,4004
7501,5.9809e+07,0,0.0014803,-6.1017e-05,0.00058762,-0.16702,0.1174,-9.7455,0,0,44.876,1,1,8008,4004
7505,5.9811e+07,0,0.0011789,-2.0394e-05,1.1794e-05,-0.16503,0.11622,-9.7451,0,0,44.876,1,1,8008,4004
7536,5.9817e+07,0,0.00032468,0.00022291,-0.00054429,-0.15942,0.11621,-9.7468,0,0,44.876,1,1,8008,4004
7540,5.9819e+07,0,0.0018206,-0.00021973,-0.00011949,-0.15901,0.11784,-9.7493,0,0,44.876,1,1,8008,4004
7543,5.9821e+07,0,0.0030099,-0.00081018,0.00011231,-0.16074,0.119,-9.7518,0,0,44.876,1,1,8008,4004
