LineNo,TimeUS,I,GyrX,GyrY,GyrZ,AccX,AccY,AccZ,EG,EA,T,GH,AH,GHz,AHz
182,57935342,0,0.003092316,0.001523581,0.0005922656,-0.1655778,0.1184572,-9.754735,0,0,44.79901,1,1,8008,4004
293,57959320,0,-0.001058464,0.0006520881,-0.0006145717,-0.1689679,0.1083904,-9.74776,0,0,44.79987,1,1,8008,4004
324,57961474,0,-0.00161678,0.0003480143,0.0001876196,-0.1675825,0.1075574,-9.737855,0,0,44.79993,1,1,8008,4004
407,57983380,0,-0.00432248,-0.001220539,0.0005516202,-0.154659,0.1182871,-9.735725,0,0,44.80032,1,1,8008,4004
520,58007322,0,-0.001009759,-0.002467314,-0.001243808,-0.159712,0.1282218,-9.741123999999999,0,0,44.80138,1,1,8008,4004
523,58008537,0,-0.00168444,-0.002915994,-0.00191425,-0.1585347,0.1283883,-9.742580999999999,0,0,44.80151,1,1,8008,4004
554,58011556,0,-0.0006640517000000001,-0.003247656,-0.0008084819,-0.1560841,0.1279492,-9.741543,0,0,44.80173,1,1,8008,4004
629,58031151,0,0.0003392508,-0.001148988,-0.0008908769,-0.1709542,0.12043,-9.740313,0,0,44.80291,1,1,8008,4004
745,58052943,0,0.002259462,-0.0004656907,-0.002100021,-0.1629203,0.1398643,-9.747422,0,0,44.80424,1,1,8008,4004
776,58055921,0,0.002210465,-0.0004420869,-0.00144275,-0.163345,0.140416,-9.748752,0,0,44.80434,1,1,8008,4004
856,58073777,0,0.001718216,-0.00181857,0.0001651347,-0.1664344,0.1188834,-9.739903,0,0,44.80539,1,1,8008,4004
972,58096323,0,0.0006265434,0.0004147373,-0.0009961322999999999,-0.1798881,0.1137468,-9.743852,0,0,44.80704,1,1,8008,4004
1087,58140049,0,-0.00363595,-0.0008077063,-0.0001649483,-0.1821339,0.1199985,-9.757338000000001,0,0,44.81052,1,1,8008,4004
1202,58229943,0,0.001079127,-0.0007721329,-0.001113386,-0.1652028,0.1153239,-9.731676999999999,0,0,44.81726,1,1,8008,4004
1293,58278012,0,-0.0008329704,-0.0002956208,-0.0007259191,-0.1736899,0.1177281,-9.739252,0,0,44.8202,1,1,8008,4004
1324,58281358,0,-0.001651996,-3.029689e-05,-7.554368e-05,-0.1727197,0.1181208,-9.74259,0,0,44.82037,1,1,8008,4004
1387,58291252,0,-0.002568651,-0.002205123,-0.001311579,-0.1703634,0.1167009,-9.754689000000001,0,0,44.8209,1,1,8008,4004
1390,58293102,0,-0.002416385,-0.00337969,-0.002028633,-0.1731627,0.1182152,-9.752427000000001,0,0,44.82103,1,1,8008,4004
1421,58295811,0,-0.001136996,-0.003417994,-0.002447846,-0.1759402,0.1197939,-9.749154000000001,0,0,44.82116,1,1,8008,4004
1482,58309576,0,-9.44074e-06,-0.0005426235,-0.0002626686,-0.1664941,0.1227581,-9.739042,0,0,44.82181,1,1,8008,4004
1570,58327414,0,-0.001366712,0.0002337776,-0.0006245875,-0.1850599,0.1449935,-9.7476,0,0,44.82233,1,1,8008,4004
1601,58329904,0,-0.0009094304000000001,-0.0002059739,-0.001496589,-0.1883143,0.1462155,-9.74648,0,0,44.82243,1,1,8008,4004
1614,58332701,0,-0.000941894,-0.0005484798,-0.001325124,-0.1893699,0.1453257,-9.745222,0,0,44.82246,1,1,8008,4004
1617,58334556,0,-0.001048004,-0.001007817,-0.001703958,-0.1869791,0.1446177,-9.742432000000001,0,0,44.82255,1,1,8008,4004
1624,58337752,0,8.776865999999999e-06,-0.001173478,-0.002095823,-0.183676,0.1441131,-9.740831,0,0,44.82259,1,1,8008,4004
1655,58340600,0,0.002155881,-0.001161174,-0.00148438,-0.1787828,0.1417792,-9.741345000000001,0,0,44.82272,1,1,8008,4004
1658,58342908,0,0.002288796,-0.0009198242,-0.0009147665,-0.1750756,0.1383252,-9.743558999999999,0,0,44.82281,1,1,8008,4004
1661,58345547,0,0.001244577,-0.000914213,-0.0004890107,-0.1731343,0.1355855,-9.743342,0,0,44.82285,1,1,8008,4004
1665,58347744,0,0.0002349227,-0.001189538,-0.0002077998,-0.1716538,0.1327745,-9.741799,0,0,44.82284,1,1,8008,4004
1696,58350155,0,-0.0001957988,-0.001672148,-0.0002440701,-0.1718201,0.1289942,-9.740769999999999,0,0,44.82281,1,1,8008,4004
1699,58353074,0,-0.0002901262,-0.001932781,-0.0008080929,-0.1733668,0.1265894,-9.739490999999999,0,0,44.82277,1,1,8008,4004
1702,58355160,0,0.0001116073,-0.001524362,-0.0008337816,-0.1746532,0.126114,-9.737989000000001,0,0,44.82264,1,1,8008,4004
1705,58358011,0,-8.438818e-05,-0.0008520002,-0.00031892,-0.1759577,0.1250069,-9.736151,0,0,44.82258,1,1,8008,4004
1736,58360322,0,0.0001371803,-0.001123553,0.0005997848,-0.1775949,0.1217354,-9.736338,0,0,44.82252,1,1,8008,4004
1739,58363060,0,0.0003083409,-0.002097651,0.0009097927,-0.1773911,0.1194432,-9.73969,0,0,44.8225,1,1,8008,4004
1742,58366032,0,0.0001330449,-0.001966167,0.000461004,-0.1765555,0.1193595,-9.741607,0,0,44.82249,1,1,8008,4004
1746,58368386,0,0.001019187,0.0001284863,-0.001306351,-0.1741934,0.1203186,-9.743715999999999,0,0,44.8225,1,1,8008,4004
1777,58370978,0,0.0003996385,0.001102627,-0.001396082,-0.1728745,0.1211286,-9.747059999999999,0,0,44.82256,1,1,8008,4004
1780,58373525,0,-0.0007904357000000001,0.000774903,-0.00070824,-0.1724423,0.121528,-9.750291000000001,0,0,44.82262,1,1,8008,4004
1783,58377519,0,-0.001416682,-0.0001766628,0.0001428665,-0.172372,0.1232669,-9.753781999999999,0,0,44.82276,1,1,8008,4004
1786,58381541,0,0.0005171621,-0.0008481611,0.000974954,-0.1809809,0.1311161,-9.757631,0,0,44.82306,1,1,8008,4004
1818,58384556,0,0.0008695279,-0.0006821286,9.571962e-05,-0.1841297,0.1345882,-9.756074999999999,0,0,44.82316,1,1,8008,4004
1821,58387334,0,0.001314826,-6.67198e-05,-0.0007358597,-0.185353,0.1375165,-9.75277,0,0,44.82336,1,1,8008,4004
1824,58389676,0,0.0008455699,0.0007091679,-0.0007475999,-0.1846557,0.1375182,-9.751244,0,0,44.82346,1,1,8008,4004
1829,58392703,0,-0.0002619997,0.0008989841,-0.0007851906000000001,-0.1823688,0.137821,-9.750285999999999,0,0,44.82365,1,1,8008,4004
1860,58395020,0,-1.592887e-05,0.0006429202,-0.0002560273,-0.179641,0.1364813,-9.749375000000001,0,0,44.82383,1,1,8008,4004
1864,58397493,0,0.0005975916,0.0002647845,0.0001187691,-0.1789365,0.1341492,-9.747911,0,0,44.82396,1,1,8008,4004
1867,58400555,0,0.001089291,-0.000344456,0.0009237845,-0.1785733,0.1288162,-9.745782,0,0,44.82412,1,1,8008,4004
1870,58402552,0,0.00136988,-0.0008539663000000001,0.001304925,-0.177922,0.1260599,-9.745872,0,0,44.82421,1,1,8008,4004
1901,58405550,0,0.0008480854,-0.0001878574,0.0003127429,-0.1782919,0.122131,-9.749321999999999,0,0,44.82434,1,1,8008,4004
1905,58407561,0,0.000526019,0.001059132,-0.000635637,-0.1789617,0.1203443,-9.750061000000001,0,0,44.82443,1,1,8008,4004
1908,58410156,0,0.000207842,0.00196802,-0.0009892475999999999,-0.1793022,0.1177773,-9.747204999999999,0,0,44.82457,1,1,8008,4004
1911,58413280,0,0.000298001,0.001985268,-0.0007433319000000001,-0.1793737,0.1163865,-9.745623,0,0,44.82465,1,1,8008,4004
1942,58415493,0,2.164135e-05,0.001457647,-0.0004733537,-0.1776277,0.1156345,-9.748466000000001,0,0,44.82479,1,1,8008,4004
1946,58418335,0,-0.000849491,0.0005648789,-0.0006424387,-0.1751366,0.1142975,-9.752183,0,0,44.82497,1,1,8008,4004
1949,58420708,0,-0.001154993,-0.0006006529,-0.0007623113,-0.172901,0.1131301,-9.7537,0,0,44.82508,1,1,8008,4004
1952,58423738,0,-0.0009531999,-0.0009317569,-0.0002190816,-0.1696157,0.1133161,-9.752796999999999,0,0,44.82524,1,1,8008,4004
1983,58425967,0,-0.00169853,-0.0009259937,2.206734e-05,-0.1682359,0.1156387,-9.751030999999999,0,0,44.82538,1,1,8008,4004
1986,58428955,0,-0.001665405,-0.0004587964,0.0001890027,-0.1676915,0.1169686,-9.749321,0,0,44.82547,1,1,8008,4004
1989,58431330,0,-0.001345891,0.000701214,0.0005324311,-0.1682009,0.1185172,-9.747605,0,0,44.82564,1,1,8008,4004
1993,58434332,0,-0.001018765,0.0007264098,0.0001697112,-0.1697665,0.1205872,-9.746964,0,0,44.82578,1,1,8008,4004
2024,58436643,0,-0.0008393908,-8.513896e-05,0.0006339026,-0.1702819,0.1214265,-9.745381,0,0,44.82592,1,1,8008,4004
2028,58439908,0,-0.0009688448,-0.0007534612,0.0003035397,-0.1704701,0.1209355,-9.74484,0,0,44.82603,1,1,8008,4004
2036,58442030,0,-0.0003133975,-0.0008638885,-0.0007472569000000001,-0.170866,0.1207865,-9.742851999999999,0,0,44.82628,1,1,8008,4004
2039,58444178,0,-0.0002682292,-0.0006381875,-0.001088679,-0.1719888,0.1219973,-9.742392000000001,0,0,44.82639,1,1,8008,4004
2072,58447246,0,-0.001005189,-0.0002859666,-0.001617207,-0.1731947,0.1236601,-9.744973,0,0,44.82656,1,1,8008,4004
2075,58449934,0,-0.00184261,-0.0003814066,-0.00166131,-0.1719198,0.1240249,-9.748008,0,0,44.82665,1,1,8008,4004
2078,58451518,0,-0.0007729816,0.00039698,-0.001643149,-0.1687895,0.1259245,-9.751137999999999,0,0,44.82683,1,1,8008,4004
2081,58454591,0,-0.0001676051,8.746856e-05,-0.001599089,-0.1669575,0.1281946,-9.752281999999999,0,0,44.82692,1,1,8008,4004
2112,58456775,0,-5.723688e-05,-9.314562000000001e-05,-0.002109312,-0.1646447,0.1299914,-9.755553000000001,0,0,44.8271,1,1,8008,4004
2116,58459877,0,0.0008268664999999999,3.835548e-05,-0.001763016,-0.1632296,0.1300759,-9.757524,0,0,44.8272,1,1,8008,4004
2119,58462164,0,0.001529053,-0.0001270458,-0.0005701324999999999,-0.1622374,0.1287293,-9.758540999999999,0,0,44.82734,1,1,8008,4004
2122,58464359,0,0.0008923911,-0.0006903409,0.0003259846,-0.1631874,0.1259475,-9.758682,0,0,44.82747,1,1,8008,4004
2153,58466611,0,-0.0007697726,-0.001068169,0.0001321433,-0.1668952,0.1228385,-9.757682000000001,0,0,44.82755,1,1,8008,4004
2156,58469468,0,-0.001182716,-0.0009503755,-0.0007460479,-0.169899,0.1214176,-9.756318,0,0,44.82761,1,1,8008,4004
2159,58472866,0,-0.001819753,0.000211526,-0.001860745,-0.1726527,0.1196222,-9.751471,0,0,44.82767,1,1,8008,4004
2162,58474397,0,-0.002227382,0.0006616289,-0.001094953,-0.1745607,0.1195191,-9.748434,0,0,44.8277,1,1,8008,4004
2193,58477393,0,-0.001800738,-0.0001249449,0.0006860638,-0.1775722,0.1213676,-9.745339,0,0,44.82774,1,1,8008,4004
2197,58479363,0,-0.001363984,-0.001046912,0.0009359855,-0.1794761,0.1235272,-9.74572,0,0,44.82775,1,1,8008,4004
2200,58482481,0,-0.001249264,-0.001934134,-0.0001463938,-0.1788758,0.1262412,-9.747911,0,0,44.82779,1,1,8008,4004
2203,58484389,0,-0.001075001,-0.001609909,-0.000614007,-0.1773788,0.1280819,-9.749207999999999,0,0,44.8278,1,1,8008,4004
2234,58486706,0,-0.0003671732,-0.0007129268,-0.0007674891,-0.1752364,0.1301624,-9.751787999999999,0,0,44.82784,1,1,8008,4004
2238,58490561,0,-0.0001102626,-0.0002664137,-0.001037919,-0.1743323,0.1300028,-9.754052,0,0,44.82786,1,1,8008,4004
2241,58491803,0,0.0001696254,-0.0002039816,-0.001757882,-0.1729652,0.128033,-9.756432999999999,0,0,44.82789,1,1,8008,4004
2245,58495116,0,0.0005527381,-0.0005585363,-0.002090817,-0.1726222,0.1269676,-9.757550999999999,0,0,44.82791,1,1,8008,4004
2276,58497249,0,-0.0002392507,-0.00187694,-0.001678659,-0.172157,0.127093,-9.758338999999999,0,0,44.82794,1,1,8008,4004
2279,58500695,0,-0.0009025465,-0.002459037,-0.0009618395,-0.1713858,0.1282901,-9.756944000000001,0,0,44.82796,1,1,8008,4004
2282,58501964,0,-0.0008342664,-0.001566573,-8.334374e-05,-0.1692298,0.1293653,-9.755223000000001,0,0,44.82799,1,1,8008,4004
2288,58504961,0,-0.0003985593,-0.0009427186,0.0006747053,-0.1676827,0.1298211,-9.755174999999999,0,0,44.82801,1,1,8008,4004
2319,58507534,0,0.000131179,-0.0006193556,0.001168458,-0.1643064,0.130524,-9.754256,0,0,44.82803,1,1,8008,4004
2323,58509925,0,0.001036067,-0.0008420522,0.0009530958,-0.1619348,0.1311557,-9.751803000000001,0,0,44.82807,1,1,8008,4004
2326,58512324,0,0.001642364,-0.0003764026,0.0004977825,-0.1592923,0.1313936,-9.749987000000001,0,0,44.82816,1,1,8008,4004
2329,58514494,0,0.0006899485,-0.0008076798,0.0003711828,-0.1576519,0.1320955,-9.748979,0,0,44.82823,1,1,8008,4004
2360,58516894,0,-0.0003073605,-0.001505485,3.929889e-05,-0.1569225,0.1342137,-9.748113999999999,0,0,44.82831,1,1,8008,4004
2363,58520029,0,-0.0006146255,-0.001051002,-7.908373e-06,-0.1569802,0.1352641,-9.746661,0,0,44.82835,1,1,8008,4004
2366,58522020,0,-0.0002710537,-0.001022326,-0.00136299,-0.1583889,0.1349698,-9.744767,0,0,44.82838,1,1,8008,4004
2369,58524806,0,0.0003673423,-0.001340461,-0.002564496,-0.1612349,0.1352958,-9.746226999999999,0,0,44.8284,1,1,8008,4004
2400,58527520,0,0.001164616,-0.00217399,-0.0023495,-0.1659821,0.1374365,-9.753564000000001,0,0,44.82839,1,1,8008,4004
2404,58529883,0,0.001260712,-0.001897102,-0.001304739,-0.1683567,0.1399577,-9.757923999999999,0,0,44.82835,1,1,8008,4004
2407,58532329,0,0.0007761859,-0.001700228,0.0004865758,-0.1710978,0.141496,-9.759748999999999,0,0,44.82827,1,1,8008,4004
2410,58534507,0,0.0004558954,-0.001148959,0.001440039,-0.1718803,0.1414364,-9.758058999999999,0,0,44.82821,1,1,8008,4004
2441,58537128,0,-0.0001697392,-0.001384893,0.001222887,-0.1718624,0.1412295,-9.753752,0,0,44.82814,1,1,8008,4004
2445,58540167,0,-0.0006674859,-0.0008512466,0.0008388032,-0.1716463,0.1381675,-9.752818,0,0,44.82809,1,1,8008,4004
2453,58542275,0,-0.0007150514,8.354005000000001e-05,0.0008107874,-0.1713835,0.1324029,-9.756899000000001,0,0,44.82806,1,1,8008,4004
2456,58545116,0,-0.000379237,0.0004697109,0.0005872758,-0.1710258,0.1283207,-9.758293,0,0,44.82807,1,1,8008,4004
2487,58547326,0,0.00106635,-8.661357e-05,0.0005077661999999999,-0.1709727,0.1246145,-9.755716,0,0,44.82811,1,1,8008,4004
2491,58550161,0,0.001025944,-0.0003000284,0.0002831752,-0.170024,0.1234629,-9.749325000000001,0,0,44.82819,1,1,8008,4004
2494,58553013,0,0.001124053,-0.0001306004,1.612239e-05,-0.1689715,0.1238627,-9.747064,0,0,44.82825,1,1,8008,4004
2497,58555561,0,0.001567185,0.0001568555,-0.0005896799000000001,-0.1684586,0.1235742,-9.747638999999999,0,0,44.82838,1,1,8008,4004
2528,58557875,0,0.0004841266,-0.0002202477,-0.00124128,-0.1689327,0.1224207,-9.749301000000001,0,0,44.82847,1,1,8008,4004
2532,58560574,0,-0.0003126294,3.791885e-05,-0.001522288,-0.1697836,0.1220489,-9.749653,0,0,44.8285,1,1,8008,4004
2535,58563048,0,-0.0009780246000000001,-0.0002508304,-0.0008990524,-0.1719628,0.1224857,-9.747906,0,0,44.82851,1,1,8008,4004
2538,58565972,0,-0.0003916254,-0.0004235881,-0.0007337534,-0.1734864,0.1240066,-9.747350000000001,0,0,44.82851,1,1,8008,4004
2569,58568967,0,0.0001977009,-9.782181e-05,-0.0004560124,-0.176514,0.1273599,-9.745851999999999,0,0,44.8285,1,1,8008,4004
2572,58570461,0,0.0009081336,-0.0004498875,6.661909e-05,-0.1788249,0.1286086,-9.743080000000001,0,0,44.82847,1,1,8008,4004
2575,58573023,0,0.0004510057,-0.001773595,0.0007108101,-0.1811444,0.1288417,-9.739328,0,0,44.82838,1,1,8008,4004
2578,58575549,0,-0.000228973,-0.001794597,0.0003608704,-0.1810073,0.1280184,-9.737657,0,0,44.82828,1,1,8008,4004
2612,58582304,0,-0.002027668,-0.0001190397,0.001990608,-0.180959,0.1231488,-9.741835999999999,0,0,44.82814,1,1,8008,4004
2616,58583493,0,-0.00227827,-0.0003359694,0.001621253,-0.1825163,0.1211814,-9.743691,0,0,44.82817,1,1,8008,4004
2619,58585932,0,-0.00170666,-0.0009497307,0.001332965,-0.1825392,0.1203766,-9.745075,0,0,44.82821,1,1,8008,4004
2650,58588361,0,-0.001234308,-0.001479752,0.001391722,-0.1831037,0.1184937,-9.749454,0,0,44.82832,1,1,8008,4004
2653,58591256,0,-0.0008290597,-0.00197016,0.001544542,-0.1850633,0.1167268,-9.752058,0,0,44.82843,1,1,8008,4004
2657,58593955,0,-0.0007874419,-0.002339199,0.001453027,-0.18657,0.1154885,-9.753605,0,0,44.8285,1,1,8008,4004
2662,58597020,0,-0.0007262111,-0.002903881,0.0006531668,-0.1879479,0.1152406,-9.755526,0,0,44.82857,1,1,8008,4004
2693,58599125,0,-0.001339051,-0.002170827,0.0004580236,-0.1881023,0.1146412,-9.759569000000001,0,0,44.82861,1,1,8008,4004
2696,58601922,0,-0.002587465,-0.001354254,6.294411999999999e-05,-0.1873426,0.1131447,-9.762003,0,0,44.82866,1,1,8008,4004
2700,58604322,0,-0.003593956,-0.0006010425,-0.0005569977,-0.1867305,0.1125808,-9.76337,0,0,44.82869,1,1,8008,4004
2703,58607178,0,-0.003787565,-9.316871e-05,-0.0007981492,-0.1859865,0.1138711,-9.762708,0,0,44.82873,1,1,8008,4004
2734,58610001,0,-0.002910201,0.0004089426,-0.0009039763,-0.185648,0.1145739,-9.758659,0,0,44.82876,1,1,8008,4004
2737,58612369,0,-0.002277712,0.001037559,-0.0004290117,-0.1868033,0.1179153,-9.750654000000001,0,0,44.82881,1,1,8008,4004
2741,58614485,0,-0.001804403,0.0007626889,-0.001149839,-0.1887195,0.1211179,-9.746212,0,0,44.82884,1,1,8008,4004
2744,58616933,0,-0.0006698403,-0.0008481126,-0.001983745,-0.1899873,0.1253789,-9.743824999999999,0,0,44.82888,1,1,8008,4004
2775,58619951,0,-0.0009159149,-0.001244778,-0.001440154,-0.1896099,0.1265696,-9.742710000000001,0,0,44.82891,1,1,8008,4004
2778,58622328,0,-0.001907192,-0.0006843418,-0.0003145239,-0.1894214,0.1276987,-9.743161000000001,0,0,44.82895,1,1,8008,4004
2781,58624391,0,-0.002625122,-0.000540921,-5.526445e-06,-0.1889007,0.1285339,-9.744914,0,0,44.82898,1,1,8008,4004
2784,58626887,0,-0.003064585,-0.001593977,0.0002044288,-0.1878741,0.1293472,-9.749634,0,0,44.82903,1,1,8008,4004
2816,58629995,0,-0.00316584,-0.00229496,6.767843e-05,-0.1864432,0.1293911,-9.753,0,0,44.82906,1,1,8008,4004
2819,58632323,0,-0.003633629,-0.002200876,0.0001815974,-0.1843149,0.1285366,-9.756216,0,0,44.82911,1,1,8008,4004
2823,58634908,0,-0.003416067,-0.001254774,-0.0001420515,-0.1833942,0.1274889,-9.756618,0,0,44.82912,1,1,8008,4004
2827,58637516,0,-0.001664476,0.0002158976,-0.0009930087999999999,-0.181892,0.1244056,-9.755402999999999,0,0,44.82914,1,1,8008,4004
2858,58639890,0,0.0005330488,-0.0002112649,-0.001882877,-0.1810016,0.1238484,-9.751741000000001,0,0,44.82919,1,1,8008,4004
2861,58642376,0,0.001634609,-0.0007840833,-0.002164674,-0.1806797,0.1241459,-9.749321,0,0,44.82926,1,1,8008,4004
2868,58645887,0,0.001824726,-0.001216774,-0.002484835,-0.1831761,0.1219691,-9.746103,0,0,44.8294,1,1,8008,4004
2871,58647315,0,0.001451329,-0.001372383,-0.002310115,-0.1858028,0.1198795,-9.745559999999999,0,0,44.82951,1,1,8008,4004
2902,58650356,0,0.0007052184,-0.0009654699,-0.001946192,-0.1880965,0.1172999,-9.745785,0,0,44.82965,1,1,8008,4004
2905,58652308,0,5.801578e-05,-0.0001698145,-0.001867237,-0.1886906,0.1165967,-9.744507,0,0,44.82973,1,1,8008,4004
2909,58654892,0,-0.0005965016,0.0007347166,-0.001427731,-0.1865274,0.1158948,-9.740854000000001,0,0,44.82983,1,1,8008,4004
2912,58657986,0,-0.001261102,0.0009996263999999999,-0.001674076,-0.1834315,0.1152783,-9.739242000000001,0,0,44.8299,1,1,8008,4004
2943,58660130,0,-0.001588935,0.0001839097,-0.002148172,-0.1793618,0.1136908,-9.737155,0,0,44.83,1,1,8008,4004
2946,58663043,0,-0.002122943,0.0002702242,-0.002163923,-0.1745504,0.1144244,-9.735765000000001,0,0,44.8301,1,1,8008,4004
2950,58665879,0,-0.0009313971,0.000236725,-0.001639306,-0.1716279,0.1162864,-9.735412,0,0,44.83017,1,1,8008,4004
2953,58668347,0,0.001159672,-0.0001149358,0.0002284276,-0.1665347,0.1182119,-9.735037,0,0,44.83031,1,1,8008,4004
2984,58670784,0,0.001061251,8.681313999999999e-05,0.0002936104,-0.1624356,0.1188562,-9.734779,0,0,44.83049,1,1,8008,4004
2988,58673404,0,0.0005432169,0.0008746524,-0.0004411578,-0.1607131,0.1192619,-9.734688,0,0,44.83057,1,1,8008,4004
2991,58676044,0,-0.0004785528,0.001711253,-0.0009434359,-0.1591462,0.1210573,-9.734742000000001,0,0,44.83066,1,1,8008,4004
2994,58679038,0,-0.0007767346,0.001301252,-0.001316452,-0.1580524,0.1226924,-9.735522,0,0,44.83073,1,1,8008,4004
3025,58682872,0,-0.0003311988,0.0003477701,-0.001346589,-0.1566021,0.125143,-9.738346999999999,0,0,44.83075,1,1,8008,4004
3028,58684160,0,0.0007152804,0.0001039256,-0.0008452924,-0.1574897,0.1268702,-9.743836999999999,0,0,44.83071,1,1,8008,4004
3032,58686604,0,0.001674243,6.75515e-05,-0.000616594,-0.1604746,0.1296348,-9.747806000000001,0,0,44.83067,1,1,8008,4004
3035,58689369,0,0.001637882,-0.0007399078,-0.0008292378,-0.16263,0.1306411,-9.749444,0,0,44.83062,1,1,8008,4004
3066,58692709,0,0.00188742,-0.00128127,-0.001948915,-0.165461,0.1313603,-9.750902999999999,0,0,44.83052,1,1,8008,4004
3069,58694268,0,0.001896718,-0.0008973054,-0.00218972,-0.1672496,0.1326992,-9.751199,0,0,44.83049,1,1,8008,4004
3072,58697122,0,0.0008781418,-1.618086e-05,-0.001440903,-0.1670211,0.1337371,-9.752929999999999,0,0,44.83046,1,1,8008,4004
3075,58699142,0,-0.0002634071,-0.0001597306,-0.0006246357,-0.1658019,0.132498,-9.756017,0,0,44.83046,1,1,8008,4004
3106,58701562,0,-0.000857187,-0.0007759134,0.0007902071000000001,-0.1635367,0.1280627,-9.761366000000001,0,0,44.83049,1,1,8008,4004
3109,58704897,0,-0.0002707562,-0.0008514035,0.0008616662,-0.1626782,0.1249621,-9.764991,0,0,44.83052,1,1,8008,4004
3113,58706551,0,0.001048354,0.0008722284,0.001380316,-0.163104,0.1192902,-9.766750999999999,0,0,44.83061,1,1,8008,4004
3116,58711893,0,0.001568229,-7.537828e-05,0.0010315,-0.1681778,0.1104197,-9.758656999999999,0,0,44.8308,1,1,8008,4004
3147,58714513,0,0.001336646,-0.0005492081,0.00100988,-0.1682259,0.1097156,-9.755925,0,0,44.83088,1,1,8008,4004
3150,58717350,0,0.0009503551,-0.0001698367,0.001131088,-0.1670785,0.1098586,-9.753289000000001,0,0,44.83102,1,1,8008,4004
3153,58719795,0,0.0003072085,0.0001112792,0.001679748,-0.1655912,0.111329,-9.751486,0,0,44.8311,1,1,8008,4004
3156,58722505,0,9.331479e-06,3.390978e-05,0.002689234,-0.1635657,0.115123,-9.748905000000001,0,0,44.83124,1,1,8008,4004
3187,58724981,0,0.0007231149000000001,-0.0007653264,0.002608869,-0.1633457,0.1179146,-9.746325000000001,0,0,44.83137,1,1,8008,4004
3191,58727332,0,0.0004951188,-0.0008631225,0.001884501,-0.1636295,0.1177281,-9.745666999999999,0,0,44.83146,1,1,8008,4004
3194,58730352,0,0.0003799614,-0.0007788765,0.0007117032,-0.1649975,0.1162556,-9.745184999999999,0,0,44.83161,1,1,8008,4004
3197,58733015,0,5.949031e-05,-0.0006395616,0.0002814029,-0.1663724,0.115297,-9.744267000000001,0,0,44.83173,1,1,8008,4004
3228,58735475,0,0.0001837802,-0.001107594,-0.0001730868,-0.1685126,0.1139762,-9.742592,0,0,44.83193,1,1,8008,4004
3231,58737753,0,-0.00113351,-0.001534404,0.0001478496,-0.1698947,0.1126081,-9.739445,0,0,44.83213,1,1,8008,4004
3234,58740466,0,-0.001911033,-0.001472699,0.0002215067,-0.1687731,0.1116389,-9.737791,0,0,44.83226,1,1,8008,4004
3239,58743499,0,-0.001417078,-0.00170574,0.0001323532,-0.1677421,0.1117054,-9.736865999999999,0,0,44.83253,1,1,8008,4004
3270,58746454,0,-0.0006238454,-0.001447804,0.0007939509,-0.1677334,0.1139789,-9.736196,0,0,44.83278,1,1,8008,4004
3278,58749013,0,-0.0006371703,-0.001098332,0.0009787423,-0.1686982,0.1167727,-9.737406999999999,0,0,44.83296,1,1,8008,4004
3281,58751069,0,-0.0005200112,-0.0003571596,0.0005640475,-0.1702373,0.1199997,-9.741293000000001,0,0,44.83323,1,1,8008,4004
3284,58753507,0,-0.000372569,-0.0001249669,0.0006786768,-0.170909,0.1205021,-9.744054,0,0,44.83341,1,1,8008,4004
3315,58756773,0,-0.0001615963,-0.001412464,0.001273315,-0.1696643,0.1213715,-9.748665000000001,0,0,44.83368,1,1,8008,4004
3318,58759457,0,0.0002100461,-0.001922062,0.0007281646,-0.1682737,0.1234388,-9.754018,0,0,44.83396,1,1,8008,4004
3321,58761309,0,0.0003250616,-0.001387197,0.0004092772,-0.167346,0.1242485,-9.758423000000001,0,0,44.83421,1,1,8008,4004
3324,58763885,0,0.0001810502,-0.001025558,-0.0004857104,-0.1641202,0.1262597,-9.764996,0,0,44.83445,1,1,8008,4004
3355,58766323,0,-0.0003698959,-0.0002424126,-0.0008851822000000001,-0.1624497,0.1276559,-9.769572999999999,0,0,44.8346,1,1,8008,4004
3358,58769562,0,-0.001756813,0.0006130834,-9.973071e-05,-0.1623124,0.1298633,-9.771307999999999,0,0,44.83484,1,1,8008,4004
3361,58772105,0,-0.002514079,0.0004551902,-0.0001682556,-0.1642689,0.130839,-9.769064,0,0,44.835,1,1,8008,4004
3364,58773894,0,-0.001867826,4.038947e-05,-0.000260458,-0.1683167,0.1306363,-9.765511,0,0,44.83528,1,1,8008,4004
3395,58776255,0,-0.0004197794,-0.0002331034,-0.0007186842,-0.1709771,0.1294689,-9.761289,0,0,44.8354,1,1,8008,4004
3398,58778757,0,0.000495526,-0.001262362,-0.0006954605,-0.1737493,0.1266957,-9.756373,0,0,44.83561,1,1,8008,4004
3403,58782246,0,0.001006748,-0.001002307,-0.0005142234,-0.1737972,0.1230643,-9.754009,0,0,44.83574,1,1,8008,4004
3406,58784397,0,0.0007243160999999999,-0.000509895,-0.00156134,-0.1736571,0.1170724,-9.753417000000001,0,0,44.83593,1,1,8008,4004
3437,58786780,0,-0.0001451737,0.0006650744,-0.002126437,-0.1733892,0.1137052,-9.75656,0,0,44.83612,1,1,8008,4004
3440,58789600,0,-0.0003665085,0.0004391786,-0.001845323,-0.173418,0.1140179,-9.758502999999999,0,0,44.83623,1,1,8008,4004
3444,58793437,0,-0.0006559283,-0.0008057731,-0.00110343,-0.1737409,0.1153032,-9.760524999999999,0,0,44.83643,1,1,8008,4004
3447,58794702,0,0.0003518372,-0.001557518,-0.001067025,-0.1738312,0.1173482,-9.762109000000001,0,0,44.83657,1,1,8008,4004
3478,58800104,0,-0.0002132493,-0.001219507,-0.0007883296,-0.1693822,0.1203388,-9.76681,0,0,44.83691,1,1,8008,4004
3483,58803156,0,-0.0005295583,-0.0004952082,-0.0006915872,-0.1664084,0.1217433,-9.76878,0,0,44.83717,1,1,8008,4004
3486,58805492,0,-0.0008111556999999999,-0.0003758807,-0.0005319321,-0.1641668,0.1234372,-9.770219000000001,0,0,44.83731,1,1,8008,4004
3517,58807714,0,-0.000757079,-0.001564443,-7.785684e-05,-0.1617221,0.1267867,-9.770998000000001,0,0,44.83762,1,1,8008,4004
3520,58810514,0,-0.0009077684,-0.00287352,-0.0007878044,-0.1620351,0.1269401,-9.769114,0,0,44.83778,1,1,8008,4004
3524,58813504,0,-0.000399073,-0.003925,-0.001863841,-0.1635046,0.1264527,-9.764521999999999,0,0,44.8381,1,1,8008,4004
3527,58815914,0,0.0002857859,-0.003391801,-0.002150821,-0.1654315,0.1275251,-9.76179,0,0,44.83835,1,1,8008,4004
3558,58818009,0,0.0001956811,-0.001583432,-0.001909864,-0.1675692,0.1303819,-9.757584,0,0,44.83864,1,1,8008,4004
3561,58820927,0,0.0004647065,0.0002257507,-0.002079506,-0.1684074,0.1338529,-9.759048,0,0,44.83883,1,1,8008,4004
3564,58823725,0,0.0008888622,0.001073286,-0.002170371,-0.1705505,0.1357149,-9.762639999999999,0,0,44.83896,1,1,8008,4004
3567,58826247,0,0.0005558804000000001,0.0002585248,-0.0008835834,-0.1740383,0.1378538,-9.767306,0,0,44.83915,1,1,8008,4004
3598,58828294,0,0.0001164811,-0.0002142752,0.0007402442,-0.1762073,0.1392078,-9.769558,0,0,44.83926,1,1,8008,4004
3601,58830983,0,-0.001239303,-0.0005924195,0.001719364,-0.1788651,0.1388198,-9.770345000000001,0,0,44.83947,1,1,8008,4004
3605,58833661,0,-0.002374346,-0.0001492265,0.001088452,-0.1789063,0.136429,-9.767068999999999,0,0,44.83962,1,1,8008,4004
3608,58836174,0,-0.002785343,-0.000681672,0.0006090529,-0.1789396,0.1336197,-9.759769,0,0,44.83984,1,1,8008,4004
3639,58839080,0,-0.001765614,-0.001362476,0.0004515613,-0.1798831,0.1328771,-9.753909999999999,0,0,44.83999,1,1,8008,4004
3643,58841505,0,0.0004884907,-0.001127173,0.0002617779,-0.1800648,0.1331092,-9.746264,0,0,44.84021,1,1,8008,4004
3647,58843570,0,0.00178419,-0.0006180878,5.924985e-05,-0.1791304,0.1336262,-9.745215999999999,0,0,44.84036,1,1,8008,4004
3651,58846024,0,0.001952019,-0.0008700792,0.0007357412,-0.1790271,0.1348642,-9.747142999999999,0,0,44.84058,1,1,8008,4004
3682,58848329,0,0.00165961,-0.001036739,0.001577072,-0.1799371,0.1348899,-9.748531,0,0,44.84072,1,1,8008,4004
3689,58851731,0,0.001064086,-0.001549065,0.002103077,-0.1826034,0.1345153,-9.749221,0,0,44.84091,1,1,8008,4004
3693,58853580,0,0.0007215021,-0.001624693,0.001628925,-0.1848183,0.1347518,-9.750874,0,0,44.84103,1,1,8008,4004
3696,58856380,0,-0.0005916845,-0.001234306,0.0003149258,-0.1865017,0.1352425,-9.754288000000001,0,0,44.8412,1,1,8008,4004
3727,58858998,0,-0.0008480052000000001,0.0003738111,-0.0002176649,-0.1865543,0.1346013,-9.75338,0,0,44.84138,1,1,8008,4004
3730,58861767,0,-0.0008519441,0.0006275428,-0.0005542773,-0.185645,0.132895,-9.751972,0,0,44.84148,1,1,8008,4004
3733,58864587,0,-0.0005126419,-0.0002568984,-0.0004380053,-0.1838416,0.1311065,-9.750042000000001,0,0,44.84166,1,1,8008,4004
3737,58866494,0,-0.0003214858,-0.000758599,-4.422811e-05,-0.183312,0.1308073,-9.749478,0,0,44.84177,1,1,8008,4004
3768,58869429,0,-0.0006596363,-0.0003803895,0.0002586665,-0.182091,0.1306394,-9.751417,0,0,44.84192,1,1,8008,4004
3771,58871466,0,-0.0001808166,-2.175705e-05,0.0004208818,-0.1804796,0.1314458,-9.755300999999999,0,0,44.84199,1,1,8008,4004
3775,58873952,0,0.001010811,-0.0002536626,0.001161134,-0.1771234,0.1319617,-9.764341,0,0,44.84211,1,1,8008,4004
3778,58877042,0,0.0009404882,-0.00022309,0.001505952,-0.1748359,0.1308225,-9.769601,0,0,44.84219,1,1,8008,4004
3809,58879802,0,0.001187119,0.000370558,0.001647817,-0.1719373,0.1282174,-9.772878,0,0,44.84231,1,1,8008,4004
3812,58882151,0,0.0005485616,0.0005011467,0.002156722,-0.1702818,0.1263301,-9.772663,0,0,44.84243,1,1,8008,4004
3816,58884374,0,-0.0001438352,-0.0001042006,0.001699589,-0.1693757,0.1253993,-9.769667999999999,0,0,44.84251,1,1,8008,4004
3819,58888277,0,0.0002082785,-0.001338555,5.852476e-05,-0.169871,0.1247782,-9.765387,0,0,44.84265,1,1,8008,4004
3822,58889802,0,-2.69933e-05,-0.001428521,-0.0009964007,-0.1707799,0.1238081,-9.764950000000001,0,0,44.84277,1,1,8008,4004
3853,58892544,0,-0.001220167,-0.0008133767,-0.001312039,-0.1729686,0.1220234,-9.767182999999999,0,0,44.84295,1,1,8008,4004
3856,58894510,0,-0.001179806,-0.0009551469,-0.001636104,-0.1745842,0.1214341,-9.768273000000001,0,0,44.84306,1,1,8008,4004
3859,58897085,0,-0.0007123286,-0.001095095,-0.001598258,-0.1787328,0.1213633,-9.769076,0,0,44.84324,1,1,8008,4004
3862,58900362,0,-0.0004225628,-0.001427162,-0.001577007,-0.1816272,0.1211064,-9.769413999999999,0,0,44.84335,1,1,8008,4004
3893,58902710,0,-0.0006266313,-0.001448145,-1.363513e-05,-0.1863385,0.1222699,-9.764668,0,0,44.84359,1,1,8008,4004
3897,58906794,0,-0.001252442,-0.0009191661,0.000340438,-0.1858185,0.1228407,-9.760795999999999,0,0,44.84371,1,1,8008,4004
3900,58907975,0,-0.001100607,-0.0007161728,-5.867184e-05,-0.1829015,0.1216636,-9.756216,0,0,44.84396,1,1,8008,4004
3903,58911147,0,-0.000786853,-0.0005797942,-0.0008097644,-0.1816189,0.1215107,-9.754236000000001,0,0,44.84405,1,1,8008,4004
3934,58913463,0,-0.0004854075,-0.0002464122,-0.002142704,-0.1805168,0.1213154,-9.752459999999999,0,0,44.8442,1,1,8008,4004
3937,58916370,0,0.0005882168,-0.0003865965,-0.00223959,-0.1784406,0.1200801,-9.749377000000001,0,0,44.8444,1,1,8008,4004
3940,58918350,0,0.0007646413,-0.0001081599,-0.001679775,-0.1767091,0.1200193,-9.745934999999999,0,0,44.8445,1,1,8008,4004
3943,58921112,0,-0.0001743125,-0.0001649738,-0.0009130826000000001,-0.1748644,0.1215425,-9.740838,0,0,44.8447,1,1,8008,4004
3974,58924049,0,-0.0008226687000000001,-0.0007761994,-0.0006896465,-0.1747195,0.1219369,-9.739318000000001,0,0,44.8448,1,1,8008,4004
3978,58926257,0,-0.000951578,-0.001962991,-0.0001827933,-0.1755252,0.1219971,-9.739113,0,0,44.84505,1,1,8008,4004
3981,58929060,0,-0.0008726743,-0.002066288,-9.685508e-05,-0.1747129,0.1225936,-9.737541,0,0,44.84525,1,1,8008,4004
3984,58931122,0,-0.001756798,-0.0006108766,-0.001000253,-0.1734028,0.1235464,-9.734544,0,0,44.84541,1,1,8008,4004
4015,58933431,0,-0.002155587,0.0002660387,-0.001107438,-0.1731036,0.1239837,-9.734126,0,0,44.84552,1,1,8008,4004
4019,58936483,0,-0.001831803,-0.000420699,-2.037563e-05,-0.1739097,0.1256255,-9.735918,0,0,44.84568,1,1,8008,4004
4022,58938332,0,-0.001020389,-0.00139423,0.0007262276,-0.174737,0.1286597,-9.737378,0,0,44.84578,1,1,8008,4004
4025,58941154,0,0.0005499723,-0.001817492,0.0002485965,-0.1759894,0.1339708,-9.741554000000001,0,0,44.84594,1,1,8008,4004
4058,58943560,0,0.0001160152,-0.002188974,-0.0007749916,-0.1771203,0.1356069,-9.744204,0,0,44.84606,1,1,8008,4004
4062,58946038,0,-4.779499e-05,-0.001814152,-0.0005385649,-0.1782487,0.136345,-9.748536,0,0,44.84625,1,1,8008,4004
4066,58949388,0,2.12696e-05,-0.0005521626,-0.00030338,-0.1790353,0.1358414,-9.752872999999999,0,0,44.84635,1,1,8008,4004
4069,58951329,0,0.0002583084,0.0008885322,-0.0003481971,-0.1788874,0.1365055,-9.757987,0,0,44.84649,1,1,8008,4004
4104,58954030,0,0.0004584104,0.0008132324999999999,-0.0002578527,-0.1779106,0.1364426,-9.759767,0,0,44.8466,1,1,8008,4004
4109,58955970,0,-0.0004550815,0.0003549614,-0.0009502505,-0.1767866,0.1354647,-9.761608000000001,0,0,44.84676,1,1,8008,4004
4112,58958404,0,-0.000577861,-0.0002419937,-0.0009166635999999999,-0.175682,0.1344398,-9.75841,0,0,44.84687,1,1,8008,4004
4115,58961343,0,-0.0001792221,-0.0009297059000000001,-8.993867e-05,-0.1737423,0.1325495,-9.747071,0,0,44.84704,1,1,8008,4004
4146,58964144,0,-0.0003793741,-0.001036395,-0.0003024493,-0.1735908,0.1294786,-9.733516,0,0,44.84724,1,1,8008,4004
4150,58966404,0,-0.001348938,-0.001324291,-0.0009721128,-0.1731073,0.1261441,-9.728349,0,0,44.84738,1,1,8008,4004
4153,58968958,0,-0.000941208,-0.001795675,-0.00158966,-0.1719131,0.1231799,-9.724895999999999,0,0,44.84759,1,1,8008,4004
4156,58971531,0,-0.0002637904,-0.00117948,-0.001937708,-0.171037,0.1225215,-9.724367000000001,0,0,44.84769,1,1,8008,4004
4187,58974367,0,-7.020553e-06,-0.0006824677,-0.001634156,-0.1704505,0.1224627,-9.725351,0,0,44.84786,1,1,8008,4004
4191,58976967,0,-0.0009479232,-0.0004603953,-0.0002097849,-0.1698039,0.1226568,-9.726706,0,0,44.84794,1,1,8008,4004
4194,58978801,0,-0.002183069,0.0005779952000000001,0.0006680347,-0.1698356,0.1219464,-9.728702999999999,0,0,44.84811,1,1,8008,4004
4197,58981457,0,-0.002310553,0.000524483,8.129099e-05,-0.1697908,0.1213899,-9.730812999999999,0,0,44.84821,1,1,8008,4004
4228,58983948,0,-0.001629058,-0.0005811747,-0.0003669514,-0.1677834,0.1214191,-9.733433,0,0,44.84842,1,1,8008,4004
4232,58986977,0,-0.0009069789,-0.0008076287,2.040255e-05,-0.1648053,0.1211988,-9.735150000000001,0,0,44.84853,1,1,8008,4004
4237,58989766,0,-0.0003046952,-0.0007601286,0.0006205431,-0.1597184,0.1197817,-9.738523000000001,0,0,44.84875,1,1,8008,4004
4240,58991286,0,0.000580935,-0.0009130099,0.0005413454,-0.1567651,0.1188141,-9.741713000000001,0,0,44.84886,1,1,8008,4004
4271,58994315,0,0.001038407,-0.0003484847,-0.0001692104,-0.1544462,0.1181146,-9.74512,0,0,44.84907,1,1,8008,4004
4275,58996498,0,0.000322484,0.0004265395,-0.0005539278,-0.1544061,0.1177214,-9.746403000000001,0,0,44.84918,1,1,8008,4004
4278,59000472,0,-0.0002286996,0.0007377447000000001,-0.0005478827,-0.1557545,0.1175184,-9.745698000000001,0,0,44.84943,1,1,8008,4004
4281,59003107,0,0.0005689216,8.94521e-05,-0.0008132058,-0.1583177,0.1193385,-9.741883,0,0,44.84965,1,1,8008,4004
4284,59004313,0,0.0005676143,6.207566e-06,-0.0005705481,-0.1593745,0.1232695,-9.737553,0,0,44.84995,1,1,8008,4004
4315,59007068,0,-5.139863e-05,-0.0009280551,-0.0005326362,-0.1591495,0.12613,-9.736048,0,0,44.85009,1,1,8008,4004
4318,59010139,0,-0.001007616,-0.001460711,-0.0007697158,-0.159552,0.1280347,-9.733438,0,0,44.85022,1,1,8008,4004
4321,59012509,0,-0.0008675191,-0.0008493497,-0.001215745,-0.1605035,0.1291896,-9.729773,0,0,44.8505,1,1,8008,4004
4324,59015487,0,-0.0004336135,-0.001122902,-0.001355514,-0.1618773,0.1291125,-9.729996,0,0,44.85072,1,1,8008,4004
4355,59017988,0,-1.5837e-05,-0.002227091,1.111806e-05,-0.1629355,0.1265316,-9.735839,0,0,44.85105,1,1,8008,4004
4359,59020490,0,-0.0002234949,-0.001942864,0.000844453,-0.1643189,0.1260527,-9.737802,0,0,44.85123,1,1,8008,4004
4362,59023363,0,-0.000932063,-0.002008122,0.001120406,-0.1687959,0.1279156,-9.738495,0,0,44.85146,1,1,8008,4004
4365,59025308,0,-0.0005935084,-0.00235857,0.001126756,-0.1723826,0.130612,-9.739129,0,0,44.85159,1,1,8008,4004
4396,59028092,0,-0.0001355404,-0.001932857,0.000520544,-0.1752428,0.1361818,-9.740786999999999,0,0,44.85187,1,1,8008,4004
4400,59030411,0,0.0005104309,-0.0009873213000000001,-0.0003444369,-0.1745923,0.1397674,-9.741476,0,0,44.85206,1,1,8008,4004
4404,59032604,0,0.001791499,-0.0004176462,-0.001859422,-0.1738812,0.1421461,-9.743976,0,0,44.85227,1,1,8008,4004
4407,59035767,0,0.002391628,-0.0005267678,-0.002016388,-0.1726393,0.1413648,-9.744043,0,0,44.85241,1,1,8008,4004
4438,59038413,0,0.00244098,-0.001034257,-0.001565541,-0.1679679,0.1391855,-9.743014000000001,0,0,44.85272,1,1,8008,4004
4441,59040744,0,0.002632122,-0.001303001,-0.001001747,-0.1655131,0.138503,-9.742706,0,0,44.85299,1,1,8008,4004
4444,59043082,0,0.002251494,-0.001214576,-0.0007389704,-0.1629775,0.1360758,-9.741447000000001,0,0,44.85325,1,1,8008,4004
4447,59045499,0,0.001337247,-0.001078011,0.0003306581,-0.1622213,0.134495,-9.742456000000001,0,0,44.85342,1,1,8008,4004
4478,59048511,0,0.0007088896,-0.0003938466,0.0008385574,-0.1637219,0.1316577,-9.745239,0,0,44.85366,1,1,8008,4004
4482,59051076,0,0.0001999009,-0.0009576117000000001,0.0005992678,-0.1653895,0.1296865,-9.747023,0,0,44.85383,1,1,8008,4004
4485,59053005,0,0.0001058643,-0.00155132,0.0002098593,-0.1678942,0.1277594,-9.748502,0,0,44.8541,1,1,8008,4004
4492,59056038,0,-0.0002967468,-0.001586569,0.0002704659,-0.1698323,0.1267089,-9.746487,0,0,44.85427,1,1,8008,4004
4523,59058174,0,-0.000631127,-0.001880916,0.0007880011,-0.1727078,0.1265799,-9.744437,0,0,44.85453,1,1,8008,4004
4527,59061101,0,-0.001074755,-0.001643751,0.001333615,-0.1728454,0.1280999,-9.745616999999999,0,0,44.85471,1,1,8008,4004
4530,59063830,0,-0.001292382,-0.001520061,0.0004412088,-0.1722615,0.1301476,-9.74724,0,0,44.85499,1,1,8008,4004
4533,59065787,0,-0.0007923315999999999,-0.001350298,-0.0001770062,-0.1726191,0.1301791,-9.749108,0,0,44.85518,1,1,8008,4004
4564,59067967,0,-0.0002061541,-0.001608194,-0.0008182354,-0.1743756,0.1290619,-9.754192,0,0,44.85542,1,1,8008,4004
4568,59070762,0,0.0003330946,-0.002030791,-0.0007414963,-0.1755796,0.1288324,-9.754861999999999,0,0,44.85557,1,1,8008,4004
4572,59073574,0,-0.0004087272,-0.001722575,-0.0008596436,-0.1781042,0.128132,-9.751884,0,0,44.85581,1,1,8008,4004
4575,59075583,0,-0.0007499412999999999,-0.001125135,-0.0004300607,-0.1803638,0.1265201,-9.749262,0,0,44.85597,1,1,8008,4004
4606,59078361,0,0.0006221602,-0.0008742771000000001,-0.0002129649,-0.1838285,0.1235498,-9.745146,0,0,44.85624,1,1,8008,4004
4610,59080687,0,0.001428547,-0.0007148448,-0.0003682531,-0.1847675,0.1223503,-9.743836,0,0,44.85642,1,1,8008,4004
4613,59082944,0,0.0005376589,-0.001304082,-0.001559266,-0.1840442,0.1215938,-9.743772,0,0,44.85678,1,1,8008,4004
4616,59086330,0,-0.0001716973,-0.001517181,-0.002031615,-0.1832105,0.1216968,-9.744356,0,0,44.85695,1,1,8008,4004
4647,59089323,0,-0.0007563861,-0.001897522,-0.002346768,-0.1823647,0.1228819,-9.744951,0,0,44.85741,1,1,8008,4004
4650,59091168,0,-0.0005697202,-0.002192279,-0.001753795,-0.1827708,0.1239236,-9.743919,0,0,44.85758,1,1,8008,4004
4653,59093534,0,-0.0004981791,-0.001798358,-0.001357286,-0.1850141,0.1267767,-9.740406999999999,0,0,44.85781,1,1,8008,4004
4656,59098956,0,-0.001116711,-0.001077834,-0.00204968,-0.1833933,0.1277739,-9.734510999999999,0,0,44.8583,1,1,8008,4004
4688,59103036,0,-0.002053417,-0.0009377638,-0.002848752,-0.1802159,0.1253358,-9.733677999999999,0,0,44.85855,1,1,8008,4004
4691,59104380,0,-0.001786424,-0.001214427,-0.003030217,-0.1779426,0.1225265,-9.733862999999999,0,0,44.85871,1,1,8008,4004
4694,59107560,0,-0.001036425,-0.001703651,-0.002475696,-0.1749672,0.120876,-9.737902999999999,0,0,44.859,1,1,8008,4004
4697,59110006,0,-0.0003644119,-0.001748302,-0.001699164,-0.1728935,0.1216344,-9.740240999999999,0,0,44.85913,1,1,8008,4004
4728,59112129,0,0.0001820429,-0.001076999,-0.0008559137000000001,-0.1709256,0.1259145,-9.740019999999999,0,0,44.85939,1,1,8008,4004
4731,59115339,0,0.0005516682,-0.001236326,-0.0001834305,-0.1702138,0.1301373,-9.738144,0,0,44.85957,1,1,8008,4004
4734,59117275,0,0.000703542,-0.002124181,0.0003555639,-0.1702343,0.1323858,-9.737868000000001,0,0,44.85966,1,1,8008,4004
4737,59119966,0,0.0006470048,-0.002171146,1.699158e-05,-0.1725341,0.1324459,-9.739979,0,0,44.85977,1,1,8008,4004
4768,59122734,0,0.0002257427,-0.001001497,-0.0007676207,-0.175049,0.1302016,-9.741692,0,0,44.85984,1,1,8008,4004
4772,59124961,0,-0.0004064427,-6.155281e-05,-0.001674368,-0.1766223,0.1286007,-9.745067000000001,0,0,44.85994,1,1,8008,4004
4775,59127772,0,-0.0002570344,-0.0003554522,-0.00222559,-0.1762646,0.1290352,-9.747731,0,0,44.86002,1,1,8008,4004
4778,59130336,0,0.0003492078,-0.0009229963,-0.0029148,-0.1744371,0.13053,-9.751801,0,0,44.86015,1,1,8008,4004
4809,59133064,0,0.0008194516,-0.001508025,-0.003047704,-0.1728297,0.1321448,-9.754635,0,0,44.86028,1,1,8008,4004
4813,59135281,0,0.000973344,-0.001743842,-0.002848571,-0.1708382,0.1331568,-9.755504,0,0,44.86038,1,1,8008,4004
4816,59138159,0,-0.0005667602,-0.001421211,-0.002006463,-0.1688643,0.1326873,-9.757896000000001,0,0,44.86048,1,1,8008,4004
4819,59140525,0,-0.0009391650000000001,-0.00100892,-0.001955612,-0.1687356,0.1316253,-9.759522,0,0,44.86055,1,1,8008,4004
4850,59142699,0,-0.0006954216,-0.0009683138,-0.001003676,-0.169124,0.1299218,-9.760118,0,0,44.86058,1,1,8008,4004
4853,59145946,0,-0.00037997,-0.00125615,-0.0006108418,-0.1694503,0.1276961,-9.760002,0,0,44.86058,1,1,8008,4004
4856,59147608,0,-0.0002215647,-0.001859754,0.0001489258,-0.169592,0.1239214,-9.759727,0,0,44.8606,1,1,8008,4004
4859,59150538,0,-0.0001197213,-0.001440578,0.0005877221,-0.1701558,0.1211952,-9.760202,0,0,44.86064,1,1,8008,4004
4890,59153729,0,-8.895784e-05,5.102096e-05,0.000242383,-0.1707342,0.1191642,-9.762394,0,0,44.86074,1,1,8008,4004
4894,59155382,0,0.0001556869,0.0002910375,-6.16145e-05,-0.1713362,0.1204167,-9.764377,0,0,44.86076,1,1,8008,4004
4901,59158270,0,0.001059279,0.0002579756,0.0003783003,-0.175451,0.1220695,-9.766133,0,0,44.86073,1,1,8008,4004
4904,59160890,0,0.0007498824,0.000270196,0.0005196689999999999,-0.1788127,0.1217649,-9.768528999999999,0,0,44.86069,1,1,8008,4004
4935,59163147,0,-0.0008225017,0.0009966249000000001,-0.0006192527,-0.1811121,0.1207989,-9.768724000000001,0,0,44.86059,1,1,8008,4004
4938,59165983,0,-0.0006506596,0.0009727002999999999,-0.001028016,-0.1822144,0.1208111,-9.764331,0,0,44.86045,1,1,8008,4004
4941,59168901,0,-0.0001774987,0.001561214,-0.0002891207,-0.1818075,0.1203111,-9.760629,0,0,44.86038,1,1,8008,4004
4944,59171290,0,0.0001114913,0.002106657,1.438927e-05,-0.1792175,0.1202966,-9.756819,0,0,44.86029,1,1,8008,4004
4975,59173928,0,7.263394000000001e-05,0.001582552,2.264082e-05,-0.1774744,0.1212764,-9.755051999999999,0,0,44.86028,1,1,8008,4004
4979,59175952,0,-0.0005900835,0.0004695504,-0.0005648744,-0.1754462,0.1223992,-9.753888999999999,0,0,44.86028,1,1,8008,4004
4983,59178875,0,-0.0007542492,0.0004712956,-5.637909e-05,-0.1740795,0.1219559,-9.753824,0,0,44.8603,1,1,8008,4004
4987,59181065,0,-8.448753e-05,0.0009927028000000001,0.001120726,-0.1725361,0.1212598,-9.756591,0,0,44.86037,1,1,8008,4004
5018,59183893,0,0.0002904426,0.001124081,0.001320228,-0.1721331,0.1206999,-9.756664000000001,0,0,44.86043,1,1,8008,4004
5021,59185971,0,0.0005823753,0.0005276007000000001,0.001363434,-0.1715778,0.1203994,-9.757151,0,0,44.86049,1,1,8008,4004
5024,59188313,0,0.0004970232,0.00103322,0.00165649,-0.1734438,0.1205112,-9.756512000000001,0,0,44.86053,1,1,8008,4004
5027,59190957,0,-0.000236034,0.001868955,0.00109841,-0.1764389,0.1227633,-9.756154,0,0,44.86063,1,1,8008,4004
5060,59194174,0,-0.0004464177,0.001957253,0.001030635,-0.1769596,0.1256431,-9.757933,0,0,44.86068,1,1,8008,4004
5064,59196318,0,-0.001789437,0.001765989,0.001088231,-0.1747141,0.1286498,-9.759404999999999,0,0,44.86073,1,1,8008,4004
5067,59201296,0,-0.002326531,0.0004758401,0.0007000785,-0.1704328,0.130623,-9.751708000000001,0,0,44.86068,1,1,8008,4004
5098,59205030,0,-0.001121972,0.0009914044999999999,0.000383668,-0.1677783,0.1310652,-9.746869,0,0,44.8606,1,1,8008,4004
5101,59206360,0,-8.297421e-05,0.0013819,0.0001550343,-0.1664185,0.1305142,-9.744362000000001,0,0,44.86057,1,1,8008,4004
5104,59209514,0,0.0001286821,0.0003181441,0.0009376174,-0.1651711,0.1298503,-9.740696,0,0,44.86054,1,1,8008,4004
5107,59211206,0,-0.0003992097,-0.0002203871,0.001016002,-0.1647623,0.1300814,-9.738239,0,0,44.8605,1,1,8008,4004
5138,59213562,0,-0.0009772028,-0.0001467032,0.000198647,-0.1657868,0.129671,-9.735194999999999,0,0,44.86045,1,1,8008,4004
5142,59217085,0,-0.0002306931,-0.0001374091,-0.0001648185,-0.1677265,0.1293854,-9.734070000000001,0,0,44.86041,1,1,8008,4004
5145,59218942,0,0.0004494363,-0.001086417,-0.0006398521,-0.1700716,0.1291803,-9.735749999999999,0,0,44.86036,1,1,8008,4004
5148,59221802,0,0.0008760678,-0.001576873,-0.0005281515,-0.1715422,0.128542,-9.737797,0,0,44.86036,1,1,8008,4004
5179,59223981,0,0.00110179,-0.001958466,-0.0001863276,-0.1731445,0.1278982,-9.74165,0,0,44.86038,1,1,8008,4004
5183,59226508,0,0.0004068985,-0.002097141,-0.0006508214999999999,-0.1743458,0.1273185,-9.745521999999999,0,0,44.86038,1,1,8008,4004
5186,59229572,0,0.0002558432,-0.002147055,-0.001005007,-0.1758769,0.1255761,-9.750484,0,0,44.86041,1,1,8008,4004
5189,59231556,0,0.0005400922,-0.002105723,-0.0009307243,-0.1761265,0.1226858,-9.752708,0,0,44.86045,1,1,8008,4004
5220,59234597,0,3.723792e-05,-0.001447359,-0.0004081768,-0.1766478,0.1182665,-9.755015,0,0,44.86053,1,1,8008,4004
5223,59236545,0,-0.0003389179,-0.0009509769,-0.0006150047,-0.1761863,0.115291,-9.757561000000001,0,0,44.86056,1,1,8008,4004
5226,59239084,0,-0.0005644753,-0.000921986,-0.0009902610999999999,-0.1718301,0.1124568,-9.760979000000001,0,0,44.86057,1,1,8008,4004
5229,59242148,0,-0.0006356821,-0.00039376,-0.0006476566,-0.1687718,0.1116646,-9.760973,0,0,44.86057,1,1,8008,4004
5260,59244310,0,-0.0009131308,-0.0004340367,-0.001193008,-0.1676942,0.1109336,-9.760588,0,0,44.86055,1,1,8008,4004
5265,59247523,0,-0.001184128,-0.001470325,-0.001793623,-0.165626,0.1130074,-9.760889000000001,0,0,44.86055,1,1,8008,4004
5268,59249784,0,-0.001097177,-0.001808047,-0.001698222,-0.1633763,0.1152388,-9.760510999999999,0,0,44.86053,1,1,8008,4004
5271,59252671,0,-0.001169859,-0.001071329,-0.001702015,-0.1609143,0.1175352,-9.758793000000001,0,0,44.86047,1,1,8008,4004
5302,59254922,0,-0.001009202,-0.001529362,-0.001191488,-0.1601769,0.1194767,-9.756126,0,0,44.86043,1,1,8008,4004
5305,59257345,0,-0.0006426679,-0.002456875,-0.001049901,-0.1591434,0.1211457,-9.751696000000001,0,0,44.86038,1,1,8008,4004
5312,59261007,0,-4.863864e-05,-0.002739209,-0.0007515221000000001,-0.1565936,0.1211224,-9.741415,0,0,44.86032,1,1,8008,4004
5315,59262371,0,9.130011e-05,-0.002479936,-0.0008786464,-0.1569457,0.1208666,-9.735173,0,0,44.86031,1,1,8008,4004
5346,59265692,0,-2.298165e-06,-0.001990575,-0.0007231836,-0.1595437,0.1214221,-9.730865,0,0,44.86032,1,1,8008,4004
5350,59267357,0,0.0001676023,-0.0008038243,-0.0005689646,-0.1602531,0.1225135,-9.729443,0,0,44.86037,1,1,8008,4004
5353,59270256,0,0.0006089219,0.0007288774,0.0005291375,-0.1605357,0.1247204,-9.728698,0,0,44.8605,1,1,8008,4004
5356,59273140,0,1.475275e-05,0.001001811,0.001137796,-0.1616696,0.1258108,-9.727667,0,0,44.86054,1,1,8008,4004
5387,59275388,0,-0.001528993,0.00018496,0.000896473,-0.1657324,0.1281002,-9.726532000000001,0,0,44.86061,1,1,8008,4004
5391,59278325,0,-0.001293116,-0.001050518,0.001037249,-0.1691985,0.1302056,-9.725355,0,0,44.86065,1,1,8008,4004
5395,59280482,0,-0.001260404,-0.001897372,0.00126214,-0.1698806,0.1310638,-9.725661000000001,0,0,44.86067,1,1,8008,4004
5398,59283570,0,-0.0006053488,-0.001962261,0.0007588102999999999,-0.1671365,0.1317803,-9.727387999999999,0,0,44.86067,1,1,8008,4004
5429,59285966,0,-0.0005412471000000001,-0.001977836,-0.001233621,-0.1641936,0.1313039,-9.726177,0,0,44.86062,1,1,8008,4004
5432,59288574,0,-0.0001858227,-0.002126409,-0.001781661,-0.1638032,0.1308551,-9.725765000000001,0,0,44.86058,1,1,8008,4004
5435,59291351,0,0.0002860672,-0.003090981,-0.002124192,-0.1640253,0.1306035,-9.725944999999999,0,0,44.8605,1,1,8008,4004
5438,59293615,0,-0.0003367809,-0.002718716,-0.002234691,-0.1637928,0.1311758,-9.727682,0,0,44.86042,1,1,8008,4004
5469,59297470,0,6.406270000000001e-05,-0.001916298,-0.00196242,-0.1645332,0.1300624,-9.730585,0,0,44.86033,1,1,8008,4004
5473,59298711,0,0.001351618,-0.001546288,-0.001493689,-0.1648848,0.1265349,-9.733886,0,0,44.86027,1,1,8008,4004
5476,59302791,0,0.0008710721,-0.001906304,-0.00111346,-0.1641221,0.125048,-9.736215,0,0,44.86026,1,1,8008,4004
5479,59304052,0,-0.0004353801,-0.003021629,-0.00136119,-0.1644379,0.1238019,-9.739017,0,0,44.86027,1,1,8008,4004
5510,59307718,0,-0.001177824,-0.002373948,-0.001495449,-0.1655803,0.1231325,-9.74037,0,0,44.86033,1,1,8008,4004
5513,59309360,0,-0.001582816,-0.001399364,-0.001078474,-0.1661537,0.122522,-9.739604,0,0,44.86039,1,1,8008,4004
5516,59311553,0,-0.00169453,-0.0007441597,-0.0008362447,-0.1670088,0.1221602,-9.739008999999999,0,0,44.86047,1,1,8008,4004
5519,59314297,0,-0.0006773231,-0.0001910976,-0.0007895139999999999,-0.169169,0.1221519,-9.738619999999999,0,0,44.86061,1,1,8008,4004
5550,59316554,0,0.0001075872,-0.0004788928,-0.0008463953,-0.1707737,0.121697,-9.739494000000001,0,0,44.86078,1,1,8008,4004
5554,59319385,0,0.0006829536,-0.0006390285,-0.0009840989,-0.1730828,0.1228564,-9.738562999999999,0,0,44.8609,1,1,8008,4004
5557,59321338,0,0.000922643,-0.0009554467,-0.001156573,-0.1756193,0.1236275,-9.738512,0,0,44.86102,1,1,8008,4004
5560,59323925,0,0.0008072435,-0.001070438,-0.0007660142,-0.1792624,0.1256737,-9.738543999999999,0,0,44.8612,1,1,8008,4004
5591,59326798,0,0.0009142357,-0.002052177,-0.0004319251,-0.181282,0.1273922,-9.739079,0,0,44.86132,1,1,8008,4004
5594,59329019,0,0.0008379635,-0.002514066,-0.001247302,-0.1839001,0.1288983,-9.740954,0,0,44.8615,1,1,8008,4004
5597,59331899,0,0.0006807439,-0.002244659,-0.001190129,-0.184747,0.1290461,-9.742766,0,0,44.86164,1,1,8008,4004
5600,59333976,0,0.0008804229,-0.001936901,-0.001135025,-0.1863563,0.1303945,-9.744804,0,0,44.86183,1,1,8008,4004
5631,59336284,0,0.001147132,-0.001132731,-0.0005072973,-0.1877325,0.1323045,-9.745199,0,0,44.86193,1,1,8008,4004
5635,59339405,0,0.001079059,-0.0005607318999999999,0.001298567,-0.188669,0.136317,-9.74569,0,0,44.86207,1,1,8008,4004
5638,59341499,0,0.0005764384,-0.000657927,0.002164572,-0.1884658,0.1393918,-9.745796,0,0,44.86216,1,1,8008,4004
5641,59344293,0,0.0003457287,-0.0011063,0.002238363,-0.1858421,0.1423649,-9.746679,0,0,44.86229,1,1,8008,4004
5672,59346519,0,0.001142394,-0.001222093,0.001395845,-0.181855,0.1426283,-9.744334,0,0,44.86242,1,1,8008,4004
5675,59348761,0,0.001386861,-0.0007369085,0.00104203,-0.1804462,0.1427733,-9.741377999999999,0,0,44.86251,1,1,8008,4004
5678,59351954,0,0.001566747,-0.000859893,0.0005256945,-0.1786898,0.1426263,-9.738350000000001,0,0,44.86266,1,1,8008,4004
5681,59354110,0,0.001313549,-0.001064869,-0.0001602925,-0.1758759,0.1411837,-9.737981,0,0,44.86287,1,1,8008,4004
5712,59356992,0,0.001067942,-0.001000656,-8.005328999999999e-05,-0.1740312,0.1376029,-9.739962,0,0,44.863,1,1,8008,4004
5715,59358955,0,0.0009253583,-0.001294427,0.000223916,-0.1723182,0.1323372,-9.741261,0,0,44.86319,1,1,8008,4004
5722,59361915,0,0.0002108674,-0.001292719,0.0004962676,-0.1709426,0.1281269,-9.741803000000001,0,0,44.86332,1,1,8008,4004
5725,59364518,0,-0.000496743,-0.001764357,0.001395013,-0.1681841,0.120715,-9.742246,0,0,44.86351,1,1,8008,4004
5756,59367250,0,-0.000930474,-0.001792593,0.001904572,-0.1654985,0.1169609,-9.742046,0,0,44.86378,1,1,8008,4004
5760,59369682,0,-0.001105645,-0.0007806757,0.001437393,-0.1657494,0.1168089,-9.74084,0,0,44.86392,1,1,8008,4004
5763,59371781,0,-0.0002313908,-0.000982704,0.0006582587,-0.1681512,0.1174483,-9.741384,0,0,44.86417,1,1,8008,4004
5766,59374555,0,0.0002635135,-0.001360894,0.0001796086,-0.1700794,0.117169,-9.745011,0,0,44.86436,1,1,8008,4004
5797,59377691,0,0.0003561593,-0.000179331,-0.0003895105,-0.1703683,0.1172684,-9.751151,0,0,44.86468,1,1,8008,4004
5800,59380251,0,0.0003533742,0.000138924,-0.000483815,-0.1695513,0.1185533,-9.753714,0,0,44.86486,1,1,8008,4004
5803,59381938,0,0.0007812652999999999,0.0001756299,0.0006991912,-0.1676632,0.1211708,-9.756598,0,0,44.86513,1,1,8008,4004
5807,59384317,0,0.0009259419,0.0001724798,0.0009105104,-0.1675407,0.1224385,-9.756842000000001,0,0,44.86524,1,1,8008,4004
5838,59386942,0,0.000311467,-0.0010829,0.0007685807,-0.1691833,0.123478,-9.756380999999999,0,0,44.86539,1,1,8008,4004
5842,59390806,0,-0.0003279746,-0.001424957,0.001338385,-0.1698626,0.1235932,-9.755336,0,0,44.86549,1,1,8008,4004
5845,59392377,0,0.000114469,-0.001630394,0.002019725,-0.1701691,0.1208607,-9.753455000000001,0,0,44.86564,1,1,8008,4004
5849,59394376,0,0.0002842461,-0.001423144,0.001148902,-0.1704524,0.1186251,-9.750394999999999,0,0,44.86574,1,1,8008,4004
5882,59397325,0,-0.0007362642,-0.001663839,6.277612000000001e-05,-0.1735715,0.1167459,-9.745329,0,0,44.86589,1,1,8008,4004
5885,59399734,0,-0.000677504,-0.001450973,-0.0005628261,-0.1746101,0.1153984,-9.743039,0,0,44.86601,1,1,8008,4004
5888,59402710,0,-0.0006726657,-0.001699297,-0.000794825,-0.1740271,0.1145222,-9.739196,0,0,44.8662,1,1,8008,4004
5891,59406995,0,-0.001167824,-0.001120678,0.0004601178,-0.1731243,0.1156133,-9.736189,0,0,44.86645,1,1,8008,4004
5923,59409894,0,-0.001793642,-0.002126062,0.001606774,-0.1740324,0.1184627,-9.736682,0,0,44.8666,1,1,8008,4004
5926,59412166,0,-0.001760923,-0.002136081,0.001887455,-0.1748214,0.1210938,-9.737541,0,0,44.8667,1,1,8008,4004
5929,59415091,0,-0.001107428,-0.002088862,0.001859963,-0.1750438,0.122108,-9.738541,0,0,44.86679,1,1,8008,4004
5932,59417387,0,-0.0003249771,-0.001262223,-0.000207699,-0.1741421,0.1198116,-9.743242,0,0,44.86694,1,1,8008,4004
5963,59419944,0,-0.0001597639,-0.0005490759,-0.001897788,-0.1747116,0.1188846,-9.749769000000001,0,0,44.86709,1,1,8008,4004
5967,59421965,0,0.0002356317,-0.0001328672,-0.002569554,-0.1733767,0.1204572,-9.752863,0,0,44.8672,1,1,8008,4004
5970,59424333,0,0.0002724237,0.0001027439,-0.002819705,-0.1713245,0.1220446,-9.753822,0,0,44.86732,1,1,8008,4004
5973,59427321,0,-0.0002060335,9.166610999999999e-05,-0.00252065,-0.1700766,0.1238667,-9.753493000000001,0,0,44.86748,1,1,8008,4004
6004,59430265,0,-0.00131622,0.0009840176,-0.00169433,-0.169916,0.1252922,-9.755409999999999,0,0,44.86762,1,1,8008,4004
6007,59431576,0,-0.002116433,0.001374398,-0.0009518673,-0.1690994,0.1251608,-9.758168,0,0,44.86771,1,1,8008,4004
6010,59434344,0,-0.002508366,0.001010799,-0.0006877212,-0.1683002,0.124927,-9.759743,0,0,44.86779,1,1,8008,4004
6013,59436940,0,-0.001911703,0.0004890610000000001,-0.0007868031,-0.1680754,0.1239819,-9.758773,0,0,44.86793,1,1,8008,4004
6046,59439872,0,-0.00158507,0.0007694829,-0.0002504869,-0.1676643,0.1239642,-9.758027,0,0,44.868,1,1,8008,4004
6051,59442721,0,-0.001554045,0.001049464,-0.0004948563,-0.1675512,0.1243942,-9.758699999999999,0,0,44.8681,1,1,8008,4004
6054,59444380,0,-0.00122436,0.0009463446,-0.0006556395,-0.1677157,0.1253381,-9.757514,0,0,44.86821,1,1,8008,4004
6057,59446900,0,-0.001160996,0.0001709191,8.064818e-05,-0.1687365,0.1272635,-9.755279,0,0,44.86834,1,1,8008,4004
6088,59449529,0,-0.001175823,0.0005978664,0.0001604405,-0.1689007,0.1279697,-9.754351,0,0,44.86842,1,1,8008,4004
6091,59452305,0,-0.0006587558,0.0003868081,-0.0001521645,-0.1682159,0.1257504,-9.749898999999999,0,0,44.86854,1,1,8008,4004
6094,59454969,0,-0.0003751762,-0.0001031431,-0.0005006152,-0.1674927,0.1227421,-9.744096000000001,0,0,44.86861,1,1,8008,4004
6097,59456947,0,-0.0001975035,0.0002062693,-0.001944926,-0.1677955,0.1188607,-9.739136999999999,0,0,44.86869,1,1,8008,4004
6128,59459304,0,-0.0002904357,0.000925418,-0.002002451,-0.1672982,0.1188086,-9.738182999999999,0,0,44.86876,1,1,8008,4004
6136,59462349,0,0.0002049023,0.0006645006,-0.001506228,-0.1646338,0.1196938,-9.739661,0,0,44.86884,1,1,8008,4004
6139,59465152,0,0.0003989065,0.0003974443,-0.001465307,-0.161168,0.120726,-9.740237,0,0,44.8689,1,1,8008,4004
6142,59467461,0,-1.0455e-06,-0.0006088122,-0.0008139101,-0.1577418,0.1224449,-9.739560000000001,0,0,44.86899,1,1,8008,4004
6173,59470068,0,-0.0002346737,-0.0002912002,-0.001595279,-0.1580764,0.1241518,-9.740857,0,0,44.86908,1,1,8008,4004
6177,59472092,0,-0.0003279319,-8.540089e-05,-0.001842592,-0.1577605,0.1260236,-9.742675999999999,0,0,44.86914,1,1,8008,4004
6180,59475347,0,0.0005421137,0.000517134,-0.0008293511,-0.1559416,0.1283497,-9.747688999999999,0,0,44.8693,1,1,8008,4004
6183,59477873,0,0.0005735276,-0.0001596097,-0.0004233752,-0.1553143,0.1290557,-9.751503,0,0,44.86942,1,1,8008,4004
6214,59479979,0,-0.0001350495,-0.0003517396,-0.0001511579,-0.1545736,0.1279024,-9.755903,0,0,44.86965,1,1,8008,4004
6217,59482718,0,-0.0005618826,3.726688e-05,-0.0005239251,-0.1554945,0.1259559,-9.753868000000001,0,0,44.86975,1,1,8008,4004
6220,59485257,0,-0.000678646,-0.001005145,-0.0009598507,-0.1597477,0.1232122,-9.745480000000001,0,0,44.8699,1,1,8008,4004
6223,59488158,0,-0.0007951048,-0.002276873,-0.001495621,-0.1620293,0.1214986,-9.739998,0,0,44.87005,1,1,8008,4004
6254,59490974,0,0.000262719,-0.001981179,-0.00147695,-0.162349,0.1205068,-9.734089000000001,0,0,44.8702,1,1,8008,4004
6258,59493302,0,-9.013718999999999e-05,-0.001149228,-0.001266219,-0.1618718,0.1218022,-9.732841000000001,0,0,44.87035,1,1,8008,4004
6263,59495678,0,-8.702445e-05,-0.0006731347,-0.001421138,-0.1641308,0.1240808,-9.733542999999999,0,0,44.87051,1,1,8008,4004
6266,59503411,0,-0.0007601217,0.0007500124,-0.0005941938,-0.1650987,0.1220225,-9.745039999999999,0,0,44.87093,1,1,8008,4004
6297,59506113,0,-0.0001545578,0.0004194777,-0.000593834,-0.1633467,0.1211521,-9.746338,0,0,44.87105,1,1,8008,4004
6301,59508524,0,-0.0006066416,0.0002147297,-0.0004036857,-0.1614127,0.1209265,-9.747120000000001,0,0,44.87113,1,1,8008,4004
6304,59511537,0,-0.0007140147,-3.463401e-05,-0.001105048,-0.1578,0.1189387,-9.749863,0,0,44.87124,1,1,8008,4004
6308,59514256,0,-0.0004130623,-0.0004580083,-0.001364243,-0.1565213,0.1170099,-9.751189,0,0,44.87132,1,1,8008,4004
6339,59517023,0,-0.000359965,-0.001212297,-0.001683473,-0.1561432,0.1143476,-9.750635000000001,0,0,44.87149,1,1,8008,4004
6342,59518926,0,-0.001036521,-0.001901044,-0.001271802,-0.1572719,0.1134438,-9.749366999999999,0,0,44.87157,1,1,8008,4004
6345,59521904,0,-0.001585957,-0.001674558,-0.0009577027,-0.1592674,0.1134956,-9.746677,0,0,44.87166,1,1,8008,4004
6348,59524413,0,-0.001385742,-0.001216177,0.0002053439,-0.1624395,0.1144094,-9.741467999999999,0,0,44.8718,1,1,8008,4004
6379,59527297,0,-0.000352183,-0.001369002,0.0005164004,-0.1672081,0.116844,-9.739240000000001,0,0,44.8719,1,1,8008,4004
6383,59529875,0,0.0008809955,-0.001331728,8.918975e-05,-0.1706615,0.1188371,-9.737772,0,0,44.87195,1,1,8008,4004
6386,59532094,0,0.001250234,-0.0009233538,-0.0008219096,-0.173851,0.122987,-9.739100000000001,0,0,44.87202,1,1,8008,4004
6389,59534403,0,0.0008565232000000001,-0.000942795,-0.0006419674,-0.1733866,0.1249059,-9.740341000000001,0,0,44.87207,1,1,8008,4004
6420,59537363,0,7.882633e-05,-0.001175029,-0.000443733,-0.1707886,0.128,-9.739656,0,0,44.87215,1,1,8008,4004
6423,59539980,0,4.831863e-05,-0.0002380514,-0.0002512027,-0.1688011,0.1304262,-9.740223,0,0,44.8722,1,1,8008,4004
6426,59541942,0,-0.0002304923,0.001074654,0.0001880787,-0.1662877,0.133055,-9.743482999999999,0,0,44.87227,1,1,8008,4004
6429,59544351,0,-0.0002129085,0.001516414,0.0001885604,-0.1663384,0.1339927,-9.744206999999999,0,0,44.87232,1,1,8008,4004
6460,59546918,0,-0.0001234597,0.001413236,0.0001971204,-0.1680156,0.1329395,-9.74274,0,0,44.87239,1,1,8008,4004
6465,59550294,0,-0.000658353,0.001242572,-0.0004414654,-0.1683399,0.1317338,-9.740249,0,0,44.87244,1,1,8008,4004
6468,59552381,0,-0.001244234,0.001145058,-0.0007518683,-0.1673192,0.1293837,-9.737106000000001,0,0,44.8725,1,1,8008,4004
6471,59554868,0,-0.001664097,0.0007254068,-0.0003792151,-0.166049,0.1285555,-9.735348999999999,0,0,44.87255,1,1,8008,4004
6502,59556978,0,-0.001551752,7.249872000000001e-05,-7.899334e-05,-0.1638564,0.1283049,-9.730525,0,0,44.87265,1,1,8008,4004
6505,59559616,0,-0.000789396,-0.0002779307,0.0001208587,-0.1619786,0.1283472,-9.726172,0,0,44.87273,1,1,8008,4004
6508,59562370,0,-0.0008623058,-0.0009944225,-0.0002363582,-0.159421,0.1288492,-9.719849,0,0,44.87289,1,1,8008,4004
6515,59565201,0,-0.001204483,-0.001405189,-0.001273276,-0.1602917,0.1295475,-9.718194,0,0,44.87296,1,1,8008,4004
6546,59567729,0,-0.0008291213,-0.001405911,-0.002799644,-0.1644057,0.1309117,-9.719916,0,0,44.87301,1,1,8008,4004
6550,59570118,0,-0.0007037206,-0.0003251881,-0.002289218,-0.1698328,0.1314394,-9.725906,0,0,44.87306,1,1,8008,4004
6553,59572596,0,-0.001755968,-0.0004385457,-0.0009492314,-0.173167,0.1316201,-9.729506000000001,0,0,44.87309,1,1,8008,4004
6556,59575359,0,-0.001857897,-0.001317535,-0.0001890456,-0.1774071,0.1329058,-9.733912,0,0,44.87313,1,1,8008,4004
6587,59578282,0,-0.001254704,-0.001829947,-0.0002367232,-0.1780948,0.1347086,-9.735593,0,0,44.87317,1,1,8008,4004
6591,59580767,0,-0.0007627902,-0.00149947,-0.00101712,-0.1769748,0.1348583,-9.737617999999999,0,0,44.8732,1,1,8008,4004
6594,59582407,0,-0.001191169,-0.001451685,-0.001736213,-0.1759773,0.1347028,-9.738827000000001,0,0,44.87323,1,1,8008,4004
6599,59585394,0,-0.00206433,-0.001259208,-0.001914981,-0.1738373,0.1339243,-9.739594,0,0,44.87328,1,1,8008,4004
6630,59587719,0,-0.001149688,-0.0004303865,-0.002213318,-0.1730696,0.1323143,-9.741083,0,0,44.87334,1,1,8008,4004
6633,59590522,0,-0.0007896096999999999,-0.0001613242,-0.002550697,-0.1714097,0.1305547,-9.743273,0,0,44.87337,1,1,8008,4004
6636,59592616,0,0.0002879588,-0.0004424813,-0.002336772,-0.1702515,0.1284897,-9.745044,0,0,44.8734,1,1,8008,4004
6640,59595262,0,0.0006673202,-0.0007808766,-0.00123122,-0.1711008,0.1257173,-9.745234999999999,0,0,44.87344,1,1,8008,4004
