LineNo,TimeUS,I,GyrX,GyrY,GyrZ,AccX,AccY,AccZ,EG,EA,T,GH,AH,GHz,AHz
183,57935342,1,0.007623509,0.006028069,0.003004403,-0.2260494,0.06933159,-9.804622999999999,0,0,45.63313,1,1,754,998
294,57959320,1,0.000182136,-0.001233501,-0.001660801,-0.206898,-0.01333447,-9.905851,0,0,45.63324,1,1,754,998
325,57961474,1,0.0002509266,-0.0008993139,-0.0006687950999999999,-0.2184719,-0.01315403,-9.884176999999999,0,0,45.63324,1,1,754,998
408,57983380,1,-0.006478938,-0.006210357,0.001854473,-0.2827702,0.01935892,-9.844851,0,0,45.63333,1,1,754,998
521,58007322,1,-0.0008320761,0.001988537,-0.002049034,-0.231927,0.03870539,-9.848435,0,0,45.63341,1,1,754,998
524,58008537,1,5.531295e-05,0.003151473,-0.003370173,-0.2392822,0.03509577,-9.839499,0,0,45.63345,1,1,754,998
555,58011556,1,-0.0003172172,0.00402897,-0.00560327,-0.2572148,0.01316355,-9.835013999999999,0,0,45.63345,1,1,754,998
630,58031151,1,0.0007430903,-0.00276437,-0.005420578,-0.2398176,-0.07462326,-9.770581999999999,0,0,45.6335,1,1,754,998
746,58052943,1,-0.001736393,0.009625453000000001,-0.0004890581,-0.2216681,0.02503987,-9.750527,0,0,45.63345,1,1,754,998
777,58055921,1,-0.001507106,0.00532733,0.002796364,-0.2185193,0.05311362,-9.764476999999999,0,0,45.63345,1,1,754,998
857,58073777,1,6.71598e-05,-0.005847745,0.0003811861,-0.1342122,0.02988512,-9.799294,0,0,45.6333,1,1,754,998
973,58096323,1,-0.001612672,6.040638e-05,-0.002544349,-0.2287361,-0.01548493,-9.869424,0,0,45.63314,1,1,754,998
1088,58140049,1,0.005786202,0.001557336,0.00440277,-0.1493865,-0.04723925,-9.910512000000001,0,0,45.63272,1,1,754,998
1203,58229943,1,-0.0001357775,-0.004523693,0.0008849176,-0.2424865,-0.08775135000000001,-9.788465,0,0,45.63166,1,1,754,998
1294,58278012,1,-0.00286555,0.004022688,-0.005307836,-0.2344608,0.02964902,-9.743734,0,0,45.63088,1,1,754,998
1325,58281358,1,-0.002758095,0.004703641,-0.002681268,-0.2249134,-0.001607734,-9.782913000000001,0,0,45.63088,1,1,754,998
1388,58291252,1,0.0002404168,0.004782246,0.003462196,-0.1911966,-0.02471244,-9.814857,0,0,45.63065,1,1,754,998
1391,58293102,1,-0.0003530618,0.005742907,0.002758722,-0.18343,-0.009146105,-9.829795000000001,0,0,45.63065,1,1,754,998
1422,58295811,1,-0.0005914651,0.00927702,0.002279582,-0.1796246,0.01336585,-9.840771999999999,0,0,45.63039,1,1,754,998
1483,58309576,1,-0.00041422,0.002342363,-0.002565801,-0.2556832,0.01781355,-9.866951,0,0,45.6301,1,1,754,998
1571,58327414,1,0.004732193,-0.001818664,0.001115888,-0.2286288,-0.01708248,-9.874420000000001,0,0,45.62954,1,1,754,998
1602,58329904,1,0.005817922,-0.003808866,0.0003918502,-0.215404,-0.01277774,-9.870879,0,0,45.62954,1,1,754,998
1615,58332701,1,0.004499153,-0.004377853,0.00382239,-0.1966134,-0.008691692000000001,-9.850676999999999,0,0,45.62954,1,1,754,998
1618,58334556,1,0.002370917,-0.005040739,0.005220362,-0.1749217,0.009380291000000001,-9.831528,0,0,45.62954,1,1,754,998
1625,58337752,1,-0.001204456,-0.007446961,0.007205667,-0.1385723,0.04318781,-9.809664,0,0,45.62923,1,1,754,998
1656,58340600,1,-0.001566634,-0.006911343,0.006915062,-0.1204059,0.07004634,-9.779173999999999,0,0,45.62923,1,1,754,998
1659,58342908,1,-0.002256451,-0.005758932,0.005753004,-0.1148967,0.080356,-9.754357000000001,0,0,45.62923,1,1,754,998
1662,58345547,1,-0.00265976,-0.002032101,0.003313953,-0.1142894,0.08997094,-9.727287,0,0,45.62923,1,1,754,998
1666,58347744,1,0.0004998099,0.001237259,0.001527291,-0.1169273,0.09623867999999999,-9.710248999999999,0,0,45.62923,1,1,754,998
1697,58350155,1,0.003749836,0.002471144,-0.0003318839,-0.1240339,0.09723219,-9.682454999999999,0,0,45.62891,1,1,754,998
1700,58353074,1,0.004403017,0.003266516,-0.003519454,-0.1275835,0.09925695,-9.665048000000001,0,0,45.62891,1,1,754,998
1703,58355160,1,0.002983357,0.004810106,-0.004201756,-0.144596,0.09399393,-9.659397,0,0,45.62891,1,1,754,998
1706,58358011,1,0.00243446,0.006878402,-0.00392189,-0.1544795,0.09059501,-9.679691999999999,0,0,45.62891,1,1,754,998
1737,58360322,1,0.004282959,0.00475614,-0.002155045,-0.1697446,0.07202496,-9.706507999999999,0,0,45.62856,1,1,754,998
1740,58363060,1,0.0063194,0.000119625,0.0003575053,-0.18209,0.05992732,-9.713480000000001,0,0,45.62856,1,1,754,998
1743,58366032,1,0.004840815,-0.001605324,0.004068364,-0.1932504,0.04637841,-9.719779000000001,0,0,45.62856,1,1,754,998
1747,58368386,1,0.000864369,-0.002514764,0.005308958,-0.2026791,0.01475536,-9.758569,0,0,45.62856,1,1,754,998
1778,58370978,1,-0.001906343,-0.001974844,0.005689757,-0.2135402,-0.01622981,-9.797741,0,0,45.62817,1,1,754,998
1781,58373525,1,-0.0007944553,-0.001060588,0.007116327,-0.2209756,-0.03495654,-9.81704,0,0,45.62817,1,1,754,998
1784,58377519,1,0.002019037,0.0001294715,0.007989018000000001,-0.2170878,-0.07491925000000001,-9.835095000000001,0,0,45.62817,1,1,754,998
1787,58381541,1,0.005076911,0.001611793,0.005692398,-0.196272,-0.1152863,-9.834619999999999,0,0,45.62776,1,1,754,998
1819,58384556,1,0.006026285,8.874362e-05,0.004993563,-0.1931343,-0.1153302,-9.835414,0,0,45.62776,1,1,754,998
1822,58387334,1,0.004929588,-4.691477e-05,0.003818141,-0.1983317,-0.1095884,-9.829325000000001,0,0,45.62776,1,1,754,998
1825,58389676,1,0.004287397,0.0002211783,0.002566172,-0.2095221,-0.0775338,-9.822295,0,0,45.62776,1,1,754,998
1830,58392703,1,0.004365657,-0.000624935,-2.099037e-05,-0.217539,-0.04598228,-9.827285,0,0,45.62776,1,1,754,998
1861,58395020,1,0.004657359,-0.0004667757,-0.0018887,-0.2176829,-0.0140324,-9.824223,0,0,45.62735,1,1,754,998
1865,58397493,1,0.003759478,0.002668495,-0.003131753,-0.2240289,-0.005600376,-9.821054,0,0,45.62735,1,1,754,998
1868,58400555,1,0.003563817,0.002664683,-0.002841923,-0.2397032,-0.009412321,-9.822371,0,0,45.62735,1,1,754,998
1871,58402552,1,0.00376993,-7.491960999999999e-05,-4.102935e-05,-0.2495939,-0.00990538,-9.816013,0,0,45.62735,1,1,754,998
1902,58405550,1,0.001142189,0.001369699,0.003503847,-0.2599658,-0.01582621,-9.831985,0,0,45.62693,1,1,754,998
1906,58407561,1,0.0002573134,0.002717064,0.003448177,-0.2683575,-0.02623287,-9.842349,0,0,45.62693,1,1,754,998
1909,58410156,1,0.001510128,0.004922802,0.0001872555,-0.2653745,-0.03286608,-9.855432,0,0,45.62693,1,1,754,998
1912,58413280,1,0.003269538,0.005073981,0.000289329,-0.2582391,-0.03741636,-9.850671,0,0,45.62693,1,1,754,998
1943,58415493,1,0.005420909,0.004626091,-0.0007056286,-0.2390153,-0.04415908,-9.823441000000001,0,0,45.62653,1,1,754,998
1947,58418335,1,0.005227531,0.004640261,-0.002704184,-0.2126116,-0.04609154,-9.798353000000001,0,0,45.62653,1,1,754,998
1950,58420708,1,0.004818633,0.004866752,-0.002772413,-0.1946887,-0.03651889,-9.777448,0,0,45.62653,1,1,754,998
1953,58423738,1,0.004757987,0.006958082,-0.004041643,-0.1765113,-0.002737598,-9.761469,0,0,45.62653,1,1,754,998
1984,58425967,1,-0.0007083893,0.006311245,-0.002695993,-0.1711484,0.02328523,-9.761448,0,0,45.62614,1,1,754,998
1987,58428955,1,-0.004497319,0.005049332,-0.001345597,-0.1700477,0.03928145,-9.756372000000001,0,0,45.62614,1,1,754,998
1990,58431330,1,-0.009676298999999999,0.00309497,0.001105696,-0.1734653,0.0500303,-9.75516,0,0,45.62614,1,1,754,998
1994,58434332,1,-0.01099949,0.004216461,0.002140923,-0.1815827,0.05912912,-9.755039,0,0,45.62614,1,1,754,998
2025,58436643,1,-0.01066356,0.006803315,0.001047184,-0.1891532,0.05618439,-9.722538999999999,0,0,45.62575,1,1,754,998
2029,58439908,1,-0.008334632,0.006941372,-0.002428795,-0.1947903,0.03207134,-9.693784000000001,0,0,45.62575,1,1,754,998
2037,58442030,1,-0.005233281,0.006277783,-0.006208718,-0.2031664,0.02448067,-9.69276,0,0,45.62575,1,1,754,998
2040,58444178,1,-0.003576366,0.005762175,-0.00719971,-0.1966792,0.02046629,-9.706678,0,0,45.62575,1,1,754,998
2073,58447246,1,-0.004229942,0.003056448,-0.004520267,-0.1779577,0.01982008,-9.723259000000001,0,0,45.62538,1,1,754,998
2076,58449934,1,-0.004380344,0.00305924,-0.004090245,-0.1851551,0.01106154,-9.732619,0,0,45.62538,1,1,754,998
2079,58451518,1,-0.002347991,0.003524406,-0.002648405,-0.1944828,0.006095712,-9.739096999999999,0,0,45.62538,1,1,754,998
2082,58454591,1,0.001191838,0.0002706953,-0.002672585,-0.2016724,0.005453288,-9.7453,0,0,45.62538,1,1,754,998
2113,58456775,1,0.0006612328,-0.001759571,-0.003995055,-0.2010445,-0.005260085,-9.767927,0,0,45.62538,1,1,754,998
2117,58459877,1,-0.001015995,-0.001133205,-0.002836701,-0.2010485,-0.01358034,-9.782914,0,0,45.62502,1,1,754,998
2120,58462164,1,-0.0009955383999999999,-0.0005918904,-0.001648338,-0.2053872,-0.01695706,-9.795361,0,0,45.62502,1,1,754,998
2123,58464359,1,0.0003998386,-0.0001065848,-0.001062915,-0.2145585,-0.003784186,-9.81467,0,0,45.62502,1,1,754,998
2154,58466611,1,0.002218485,0.0024574,-0.001629589,-0.2168564,0.00215131,-9.8188,0,0,45.62502,1,1,754,998
2157,58469468,1,0.001035182,0.006974814,-0.001055656,-0.2225404,0.01295329,-9.815248,0,0,45.62502,1,1,754,998
2160,58472866,1,-0.0006573897,0.005947458,0.0009344792,-0.2204601,0.01299815,-9.801028000000001,0,0,45.62466,1,1,754,998
2163,58474397,1,-0.001260012,0.001158285,0.002473498,-0.2196436,-0.003845885,-9.794975000000001,0,0,45.62466,1,1,754,998
2194,58477393,1,0.0003120816,-0.001426489,0.002158883,-0.2199629,-0.02033123,-9.815764,0,0,45.62466,1,1,754,998
2198,58479363,1,0.003048152,-0.002413571,0.001814896,-0.2216145,-0.02674908,-9.826058,0,0,45.62466,1,1,754,998
2201,58482481,1,0.00429608,-0.00255667,0.002081132,-0.2252206,-0.03060927,-9.834645,0,0,45.62432,1,1,754,998
2204,58484389,1,0.003986959,-0.003918398,0.001096053,-0.2355705,-0.03058409,-9.856956,0,0,45.62432,1,1,754,998
2235,58486706,1,0.0009035239,-0.004238962,-0.002470332,-0.2472891,-0.02602241,-9.861635,0,0,45.62432,1,1,754,998
2239,58490561,1,-0.00087914,-0.004653946,-0.002911528,-0.2459181,-0.01984869,-9.843845,0,0,45.62432,1,1,754,998
2242,58491803,1,-0.003622897,-0.004245297,-0.003307469,-0.2283257,-0.02428752,-9.796486,0,0,45.62398,1,1,754,998
2246,58495116,1,-0.003494775,-0.004674664,-0.003476047,-0.2239873,-0.0344106,-9.768843,0,0,45.62398,1,1,754,998
2277,58497249,1,-0.002760186,-0.006954145,-0.003630516,-0.2322512,-0.03899571,-9.756875000000001,0,0,45.62398,1,1,754,998
2280,58500695,1,-0.00335807,-0.01006416,-0.002784257,-0.2407082,-0.03853282,-9.757440000000001,0,0,45.62398,1,1,754,998
2283,58501964,1,-0.004693579,-0.00945875,-0.0009516071,-0.2596448,-0.02738151,-9.749212,0,0,45.62398,1,1,754,998
2289,58504961,1,-0.003795282,-0.005298872,0.001381306,-0.2669222,-0.02089581,-9.742902000000001,0,0,45.62365,1,1,754,998
2320,58507534,1,-0.00152208,-0.001211132,0.003290625,-0.2691242,-0.01704279,-9.75113,0,0,45.62365,1,1,754,998
2324,58509925,1,-0.0002636376,0.0005398123,0.004357302,-0.2609472,-0.02916645,-9.760334,0,0,45.62365,1,1,754,998
2327,58512324,1,0.0027385,0.002700754,0.004321416,-0.2515052,-0.06780348999999999,-9.775043,0,0,45.62365,1,1,754,998
2330,58514494,1,0.002653928,0.002954707,0.003710093,-0.2513167,-0.09320997,-9.793339,0,0,45.62332,1,1,754,998
2361,58516894,1,0.0005620448,0.002547727,0.002297682,-0.2548001,-0.09213151,-9.834725000000001,0,0,45.62332,1,1,754,998
2364,58520029,1,-0.0004546781,-0.0008033959,0.001997259,-0.2526684,-0.0820953,-9.862380999999999,0,0,45.62332,1,1,754,998
2367,58522020,1,-0.000295727,-0.003875925,0.002207451,-0.2404974,-0.05293022,-9.877806,0,0,45.62332,1,1,754,998
2370,58524806,1,0.001491788,-0.004221182,0.0003283468,-0.2350374,-0.03075902,-9.881785000000001,0,0,45.62332,1,1,754,998
2401,58527520,1,0.003171674,-0.003527351,-0.001929964,-0.2296136,-0.006145184,-9.878391000000001,0,0,45.623,1,1,754,998
2405,58529883,1,0.002864062,-0.004252573,-0.0009941326,-0.2226999,0.009334537,-9.873137,0,0,45.623,1,1,754,998
2408,58532329,1,0.003073926,-0.004436266,-0.0004109422,-0.2167307,0.02007691,-9.872762,0,0,45.623,1,1,754,998
2411,58534507,1,0.003364306,-0.004432697,-0.000718264,-0.2247798,0.01347105,-9.865237,0,0,45.623,1,1,754,998
2442,58537128,1,0.003047361,-0.004103404,4.875945e-05,-0.2401457,-0.0002789409,-9.864134999999999,0,0,45.6227,1,1,754,998
2446,58540167,1,0.002887426,-0.003596405,0.0004053908,-0.2412476,-0.01426037,-9.867796,0,0,45.6227,1,1,754,998
2454,58542275,1,0.003391488,-0.001844876,-0.0008335731,-0.2358939,-0.04441194,-9.864547999999999,0,0,45.6227,1,1,754,998
2457,58545116,1,0.00367758,-0.002720659,-0.003149054,-0.2303348,-0.06236093,-9.85033,0,0,45.6227,1,1,754,998
2488,58547326,1,0.001967739,-0.006078182,-0.002843237,-0.2245832,-0.06864525,-9.83521,0,0,45.6224,1,1,754,998
2492,58550161,1,-0.001973933,-0.006996514,-0.0008178037,-0.2168122,-0.05192586,-9.823411999999999,0,0,45.6224,1,1,754,998
2495,58553013,1,-0.006131154,-0.006443487,-0.0001026464,-0.2135461,-0.0464062,-9.809416000000001,0,0,45.6224,1,1,754,998
2498,58555561,1,-0.005312321,-0.003612447,-0.0003863728,-0.2212345,-0.04046649,-9.780912000000001,0,0,45.6224,1,1,754,998
2529,58557875,1,-0.0006660801,-0.0009944859999999999,-0.001738109,-0.2239507,-0.01782056,-9.762142000000001,0,0,45.62212,1,1,754,998
2533,58560574,1,0.002776409,-0.003107993,-0.004005667,-0.221932,-0.004303764,-9.753107,0,0,45.62212,1,1,754,998
2536,58563048,1,0.004719183,-0.00547367,-0.002909017,-0.2226339,0.004645025,-9.729918,0,0,45.62212,1,1,754,998
2539,58565972,1,0.00285233,-0.005143424,-0.001660673,-0.2266657,0.007579041,-9.709187,0,0,45.62212,1,1,754,998
2570,58568967,1,0.001321145,-0.004917458,-0.0002274117,-0.2370264,0.008963291999999999,-9.679669000000001,0,0,45.62212,1,1,754,998
2573,58570461,1,0.001897118,-0.005091297,0.0006486952,-0.2422599,0.01018858,-9.669582,0,0,45.62183,1,1,754,998
2576,58573023,1,0.003172889,-0.003963237,0.0001025639,-0.2491579,0.01131154,-9.655287,0,0,45.62183,1,1,754,998
2579,58575549,1,0.003833435,-0.003376792,-0.0002898508,-0.2525561,0.0007465353,-9.6655,0,0,45.62183,1,1,754,998
2613,58582304,1,0.003230233,-0.00358688,0.002400225,-0.2491061,-0.03788318,-9.737182000000001,0,0,45.62155,1,1,754,998
2617,58583493,1,0.002393749,-0.003499417,0.001697897,-0.2407376,-0.04356337,-9.745206,0,0,45.62155,1,1,754,998
2620,58585932,1,0.0001244176,-0.004168418,0.001733761,-0.2332928,-0.05916247,-9.764068999999999,0,0,45.62155,1,1,754,998
2651,58588361,1,-0.0005145692000000001,-0.003852232,0.001949265,-0.2312944,-0.06252781,-9.778701999999999,0,0,45.62155,1,1,754,998
2654,58591256,1,-0.0009372765,-0.002597388,0.001722124,-0.2278686,-0.06212103,-9.795059,0,0,45.62128,1,1,754,998
2658,58593955,1,-0.0009400478,0.001619579,0.000462294,-0.2280273,-0.06465239,-9.807740000000001,0,0,45.62128,1,1,754,998
2663,58597020,1,-0.001694332,0.004880774,-0.0005291597,-0.2411598,-0.05422229,-9.8161,0,0,45.62128,1,1,754,998
2694,58599125,1,-0.002045477,0.002623265,-0.0009377216,-0.2462386,-0.03932836,-9.815302000000001,0,0,45.62128,1,1,754,998
2697,58601922,1,-0.002502616,-0.001734626,-0.0004910591,-0.2375522,-0.03095088,-9.815365,0,0,45.62128,1,1,754,998
2701,58604322,1,-0.00260541,-0.003523735,-0.003229852,-0.2163266,-0.02168875,-9.804472000000001,0,0,45.62102,1,1,754,998
2704,58607178,1,-0.001654151,-0.002743925,-0.006400751,-0.2044634,-0.01744318,-9.792128,0,0,45.62102,1,1,754,998
2735,58610001,1,-0.0009483914,-0.0008503741,-0.007728823,-0.1958104,-0.009275724000000001,-9.771684,0,0,45.62102,1,1,754,998
2738,58612369,1,-0.002747491,6.121333999999999e-05,-0.006727532,-0.1799948,0.006519822,-9.739153999999999,0,0,45.62102,1,1,754,998
2742,58614485,1,-0.002932948,0.0001863811,-0.004164708,-0.1696466,0.01545637,-9.732193000000001,0,0,45.62076,1,1,754,998
2745,58616933,1,-0.0008979953,-0.001017021,-0.001789253,-0.1575149,0.02801717,-9.750425999999999,0,0,45.62076,1,1,754,998
2776,58619951,1,-0.0004417288,-0.001460552,-0.001450325,-0.1568392,0.03592252,-9.76862,0,0,45.62076,1,1,754,998
2779,58622328,1,0.0006715778,0.0002822907,-0.0002206584,-0.1785914,0.03683924,-9.788667,0,0,45.62076,1,1,754,998
2782,58624391,1,0.001150236,0.001531287,0.0003849443,-0.2024246,0.02968943,-9.796813,0,0,45.6205,1,1,754,998
2785,58626887,1,-4.756293e-05,0.001799786,0.00177762,-0.2348258,0.0132133,-9.812424,0,0,45.6205,1,1,754,998
2817,58629995,1,-0.0002145269,0.0009908250999999999,0.002766441,-0.2552427,0.004513931,-9.817848,0,0,45.6205,1,1,754,998
2820,58632323,1,0.001317478,-0.00338261,0.006152363,-0.281603,-0.01322051,-9.82582,0,0,45.6205,1,1,754,998
2824,58634908,1,0.003606478,-0.006133252,0.009825858999999999,-0.2897587,-0.02274221,-9.822972999999999,0,0,45.6205,1,1,754,998
2828,58637516,1,0.002985372,-0.005884224,0.01064433,-0.2966956,-0.03103331,-9.817918000000001,0,0,45.62025,1,1,754,998
2859,58639890,1,-0.001536395,-0.003866946,0.008007119,-0.297928,-0.032391,-9.812032,0,0,45.62025,1,1,754,998
2862,58642376,1,-0.004399949,-0.0009165519999999999,0.004987216,-0.304325,-0.03023748,-9.805766999999999,0,0,45.62025,1,1,754,998
2869,58645887,1,-0.0044828,0.0003011248,0.003736997,-0.3081805,-0.02916117,-9.79617,0,0,45.62025,1,1,754,998
2872,58647315,1,-0.002945141,0.003928406,0.0004410398,-0.317004,-0.01930725,-9.762479000000001,0,0,45.62001,1,1,754,998
2903,58650356,1,-0.0008153211,0.004431466,-0.001264057,-0.3286819,-0.01134219,-9.741804999999999,0,0,45.62001,1,1,754,998
2906,58652308,1,0.0005121895,0.004139053,-0.002117309,-0.3414316,-0.01143676,-9.734351,0,0,45.62001,1,1,754,998
2910,58654892,1,0.003565039,0.002860647,-0.003925929,-0.3478242,-0.02327927,-9.758552,0,0,45.62001,1,1,754,998
2913,58657986,1,0.003830618,0.002156632,-0.003696916,-0.3593161,-0.03798893,-9.818469,0,0,45.61978,1,1,754,998
2944,58660130,1,0.003054291,0.001056291,-0.002738297,-0.3522822,-0.04361396,-9.864406000000001,0,0,45.61978,1,1,754,998
2947,58663043,1,0.002919648,0.001269432,-0.003151691,-0.3402559,-0.03885864,-9.884657000000001,0,0,45.61978,1,1,754,998
2951,58665879,1,0.0007032377,0.0003965403,-0.002935842,-0.320984,-0.02881152,-9.903423,0,0,45.61978,1,1,754,998
2954,58668347,1,-0.002552497,0.0002948359,-0.002377893,-0.3008047,-0.03281991,-9.906323,0,0,45.61978,1,1,754,998
2985,58670784,1,-0.003404371,-0.0008106825,-0.0001053008,-0.2448084,-0.06671136,-9.85802,0,0,45.61955,1,1,754,998
2989,58673404,1,-0.004429641,-0.001046836,-0.0005930757,-0.2206801,-0.0799337,-9.840173999999999,0,0,45.61955,1,1,754,998
2992,58676044,1,-0.00602199,0.00104001,-0.002804089,-0.2001128,-0.08214413,-9.830033999999999,0,0,45.61955,1,1,754,998
2995,58679038,1,-0.005703551,0.001322783,-0.001887653,-0.1734083,-0.08336811,-9.834500999999999,0,0,45.61955,1,1,754,998
3026,58682872,1,-0.005436631,0.002220954,0.0002758149,-0.1530018,-0.08466765,-9.843322000000001,0,0,45.61933,1,1,754,998
3029,58684160,1,-0.002372261,0.000332313,0.0017041,-0.1339004,-0.09032952,-9.845215,0,0,45.61933,1,1,754,998
3033,58686604,1,-0.0002970189,-0.001587271,0.0007450695,-0.1262172,-0.09319226999999999,-9.831205000000001,0,0,45.61933,1,1,754,998
3036,58689369,1,0.001942648,-0.005578839,-0.00052152,-0.1154835,-0.09925196,-9.796625000000001,0,0,45.61933,1,1,754,998
3067,58692709,1,0.002152122,-0.006718875,-0.0008431967,-0.1188408,-0.07708912,-9.753534,0,0,45.61912,1,1,754,998
3070,58694268,1,0.002748996,-0.006786263,0.0005099213,-0.1252829,-0.05632539,-9.739996,0,0,45.61912,1,1,754,998
3073,58697122,1,0.004437808,-0.008311852999999999,0.004141057,-0.1334746,-0.03837584,-9.730829999999999,0,0,45.61912,1,1,754,998
3076,58699142,1,0.005308016,-0.008927961999999999,0.003999657,-0.1534445,-0.005445572,-9.741342,0,0,45.61912,1,1,754,998
3107,58701562,1,0.005840171,-0.009180239,0.001374704,-0.1827845,0.02346367,-9.758255999999999,0,0,45.61892,1,1,754,998
3110,58704897,1,0.004822956,-0.009344030999999999,-0.002434182,-0.2037786,0.03517758,-9.769121999999999,0,0,45.61892,1,1,754,998
3114,58706551,1,0.004035378,-0.008563965,-0.004904507,-0.2229693,0.03565838,-9.779505,0,0,45.61892,1,1,754,998
3117,58711893,1,0.005438344,0.001471025,-0.004591916,-0.2540565,0.01790392,-9.778165,0,0,45.61872,1,1,754,998
3148,58714513,1,0.003953358,0.0008953444,-0.003054688,-0.26309,0.01295193,-9.784996,0,0,45.61872,1,1,754,998
3151,58717350,1,0.002266966,-0.00159459,0.004140032,-0.2892816,0.004075402,-9.794461999999999,0,0,45.61872,1,1,754,998
3154,58719795,1,0.002750905,-0.001349655,0.006382362,-0.3033966,-0.003958548,-9.79575,0,0,45.61872,1,1,754,998
3157,58722505,1,0.004116679,0.001151319,0.009379083,-0.3191696,-0.004168785,-9.796972,0,0,45.61872,1,1,754,998
3188,58724981,1,0.004434067,0.004405194,0.008102286,-0.3298756,-0.001934266,-9.802376000000001,0,0,45.61851,1,1,754,998
3192,58727332,1,0.002580173,0.00561264,0.005812682,-0.3213407,0.004123431,-9.820672,0,0,45.61851,1,1,754,998
3195,58730352,1,-0.0006844888,0.007481671,0.001430402,-0.3042998,-0.002015527,-9.862360000000001,0,0,45.61851,1,1,754,998
3198,58733015,1,-0.001675512,0.007449142,-0.0001533821,-0.2926021,-0.01207289,-9.891686999999999,0,0,45.61851,1,1,754,998
3229,58735475,1,-0.002223152,0.005638307,-0.0001037816,-0.2784,-0.01691499,-9.915051999999999,0,0,45.61832,1,1,754,998
3232,58737753,1,-0.00264516,0.001824137,0.0011164,-0.2835736,-0.009076262,-9.944912,0,0,45.61832,1,1,754,998
3235,58740466,1,-0.00328632,0.0006248428,-4.923239e-05,-0.2907716,-0.01115647,-9.973564,0,0,45.61832,1,1,754,998
3240,58743499,1,-0.003451169,0.0008328285,-0.0005798548,-0.3000884,-0.01448528,-9.99638,0,0,45.61832,1,1,754,998
3271,58746454,1,-0.0001172374,0.002268361,0.002871591,-0.311618,-0.01299914,-10.0227,0,0,45.61816,1,1,754,998
3279,58749013,1,-0.0005515439999999999,0.00220771,0.002836315,-0.3200938,-0.003787934,-10.02831,0,0,45.61816,1,1,754,998
3282,58751069,1,-0.002694597,0.001998397,0.001734135,-0.3229577,0.02027273,-10.03733,0,0,45.61816,1,1,754,998
3285,58753507,1,-0.005363859,0.002658027,0.001867279,-0.3162274,0.03909233,-10.02461,0,0,45.61816,1,1,754,998
3316,58756773,1,-0.004738854,0.001436404,0.003244825,-0.2941793,0.05403651,-9.988137,0,0,45.61804,1,1,754,998
3319,58759457,1,-0.001406308,0.002256142,0.003778526,-0.274533,0.04900014,-9.972920999999999,0,0,45.61804,1,1,754,998
3322,58761309,1,0.0003915418,0.003330964,0.00397997,-0.2676364,0.03883617,-9.968455000000001,0,0,45.61804,1,1,754,998
3325,58763885,1,0.001351205,0.0003982364,0.003183567,-0.2569396,0.02920324,-9.945755,0,0,45.61804,1,1,754,998
3356,58766323,1,0.002858614,-0.005466567,0.00140124,-0.2514284,0.02294725,-9.924288000000001,0,0,45.61804,1,1,754,998
3359,58769562,1,0.0007424239,-0.006321896,-0.000311679,-0.2481857,0.01079199,-9.882668000000001,0,0,45.61796,1,1,754,998
3362,58772105,1,-0.001348289,-0.005587303,-0.001577287,-0.2413978,0.009839132,-9.851792,0,0,45.61796,1,1,754,998
3365,58773894,1,-0.006095736,-0.0043908,9.852723e-05,-0.224017,0.02456581,-9.811017,0,0,45.61796,1,1,754,998
3396,58776255,1,-0.007290791,-0.004727867,0.001707437,-0.2116643,0.03482854,-9.776422,0,0,45.61796,1,1,754,998
3399,58778757,1,-0.005307665,-0.008973296,0.001143568,-0.1981326,0.0457953,-9.721080000000001,0,0,45.61789,1,1,754,998
3404,58782246,1,-0.003565679,-0.01056769,-0.001271034,-0.1978714,0.04138046,-9.694086,0,0,45.61789,1,1,754,998
3407,58784397,1,-0.001482759,-0.009549156,-0.006431082,-0.1995393,0.02598137,-9.679204,0,0,45.61789,1,1,754,998
3438,58786780,1,-0.003815444,-0.003817648,-0.006988331,-0.2054142,0.01612644,-9.667925,0,0,45.61789,1,1,754,998
3441,58789600,1,-0.005708965,-0.002143741,-0.00673921,-0.2167121,0.01451245,-9.665785,0,0,45.61783,1,1,754,998
3445,58793437,1,-0.006870522,0.0003535776,-0.006724445,-0.2256346,0.01602319,-9.708093999999999,0,0,45.61783,1,1,754,998
3448,58794702,1,-0.00467491,0.002112335,-0.006537357,-0.2263283,0.01782613,-9.762663999999999,0,0,45.61783,1,1,754,998
3479,58800104,1,-0.0009432794,0.0008068195999999999,-0.001001587,-0.2437219,0.02064585,-9.874866000000001,0,0,45.61777,1,1,754,998
3484,58803156,1,0.0003787574,-0.001988876,0.001893542,-0.2475616,0.01101833,-9.873569,0,0,45.61777,1,1,754,998
3487,58805492,1,0.0001022264,-0.003148869,0.001599169,-0.2490107,0.004030637,-9.835851999999999,0,0,45.61777,1,1,754,998
3518,58807714,1,0.0004831805,-0.001270893,0.001702233,-0.2437173,0.004419519,-9.778491000000001,0,0,45.61777,1,1,754,998
3521,58810514,1,-0.0001882661,0.001776763,0.00260319,-0.236725,0.0007247661,-9.731999,0,0,45.61777,1,1,754,998
3525,58813504,1,-0.000576707,0.0041004,0.002653446,-0.2337205,-0.005941467,-9.713545999999999,0,0,45.61771,1,1,754,998
3528,58815914,1,-0.0007527318,0.004364858,0.001485014,-0.2213049,-0.02322866,-9.67374,0,0,45.61771,1,1,754,998
3559,58818009,1,-0.001212309,-0.001383594,0.002127165,-0.2071766,-0.02523008,-9.650634999999999,0,0,45.61771,1,1,754,998
3562,58820927,1,-0.001472518,-0.003786381,0.00350562,-0.2115435,-0.01713584,-9.652754,0,0,45.61771,1,1,754,998
3565,58823725,1,-0.002996386,-0.005017227,0.004833488,-0.2273507,-0.01651947,-9.665956,0,0,45.61765,1,1,754,998
3568,58826247,1,-0.003368775,-0.004367923,0.004037989,-0.2425934,-0.03321309,-9.675094,0,0,45.61765,1,1,754,998
3599,58828294,1,-0.002915113,-0.004148384,-0.0007472618,-0.2697963,-0.05256832,-9.697986999999999,0,0,45.61765,1,1,754,998
3602,58830983,1,-0.001529699,-0.004058637,-0.002432808,-0.2698663,-0.05765029,-9.707079999999999,0,0,45.61765,1,1,754,998
3606,58833661,1,-0.002799605,-0.003200507,-0.002796007,-0.2606384,-0.05350791,-9.715717,0,0,45.61765,1,1,754,998
3609,58836174,1,-0.00736941,0.001316261,-0.003624964,-0.2505937,-0.04552719,-9.726863,0,0,45.61758,1,1,754,998
3640,58839080,1,-0.007324596,0.001722163,-0.002852081,-0.2523506,-0.04983357,-9.711781999999999,0,0,45.61758,1,1,754,998
3644,58841505,1,-0.005881116,0.0004506861,0.000830769,-0.2700772,-0.06195066,-9.657892,0,0,45.61758,1,1,754,998
3648,58843570,1,-0.003780428,-0.001578542,0.003949227,-0.2734273,-0.06648328000000001,-9.631686,0,0,45.61758,1,1,754,998
3652,58846024,1,-0.002488638,-0.0009331882,0.003418805,-0.2788982,-0.06343554,-9.619821,0,0,45.61752,1,1,754,998
3683,58848329,1,-0.002386596,0.0006456331,0.002565148,-0.2737344,-0.05627612,-9.619534,0,0,45.61752,1,1,754,998
3690,58851731,1,-0.002960543,0.00359035,0.002099098,-0.2514126,-0.02278954,-9.643812,0,0,45.61752,1,1,754,998
3694,58853580,1,-0.002436645,0.004971075,0.001733928,-0.2433491,0.01250902,-9.674327999999999,0,0,45.61752,1,1,754,998
3697,58856380,1,-0.001059683,0.002858779,0.002681453,-0.2395207,0.04967231,-9.713514999999999,0,0,45.61746,1,1,754,998
3728,58858998,1,0.0007034782,0.0007742773,0.003013727,-0.2352557,0.05598115,-9.715567999999999,0,0,45.61746,1,1,754,998
3731,58861767,1,0.002073504,0.0005105065,0.003349475,-0.2291959,0.05393753,-9.712495000000001,0,0,45.61746,1,1,754,998
3734,58864587,1,0.003415596,0.0004776829,0.003526983,-0.2212272,0.0570456,-9.68843,0,0,45.61746,1,1,754,998
3738,58866494,1,0.002827169,0.0008914548999999999,0.00402193,-0.2162019,0.05017582,-9.672609,0,0,45.61746,1,1,754,998
3769,58869429,1,0.001877461,0.001016968,0.006156285,-0.2229067,0.03258613,-9.654093,0,0,45.6174,1,1,754,998
3772,58871466,1,0.00106814,-0.0008028653,0.006472086,-0.2382813,0.02362987,-9.639078,0,0,45.6174,1,1,754,998
3776,58873952,1,-0.0008861842,-0.001327689,0.006440324,-0.2600734,0.0191402,-9.652134,0,0,45.6174,1,1,754,998
3779,58877042,1,-0.001152938,-0.002743718,0.007309036,-0.2695255,0.01616291,-9.663399,0,0,45.6174,1,1,754,998
3810,58879802,1,-0.0001440939,-0.005190556,0.007901457000000001,-0.2835801,-0.0009003888,-9.675164000000001,0,0,45.61732,1,1,754,998
3813,58882151,1,-0.000504972,-0.007505581,0.008101578,-0.2857185,0.00886998,-9.678008,0,0,45.61732,1,1,754,998
3817,58884374,1,-0.002662224,-0.009590278000000001,0.009163499,-0.2822833,0.02535863,-9.672337000000001,0,0,45.61732,1,1,754,998
3820,58888277,1,-0.005592194,-0.007732882,0.007882441,-0.2812845,0.03011637,-9.699236000000001,0,0,45.61732,1,1,754,998
3823,58889802,1,-0.008452207,-0.0007261642999999999,0.003441591,-0.2816075,0.0227138,-9.728149,0,0,45.61721,1,1,754,998
3854,58892544,1,-0.01054533,0.007013951,-0.003810986,-0.29,0.01626805,-9.774044,0,0,45.61721,1,1,754,998
3857,58894510,1,-0.01102928,0.009967498,-0.006282921,-0.2985474,0.02634301,-9.790927999999999,0,0,45.61721,1,1,754,998
3860,58897085,1,-0.007295499,0.01374248,-0.004834029,-0.2994504,0.03640445,-9.798914999999999,0,0,45.61721,1,1,754,998
3863,58900362,1,-0.005289684,0.01288113,-0.002616481,-0.3137777,0.03229563,-9.784967999999999,0,0,45.61721,1,1,754,998
3894,58902710,1,-0.001243635,0.008914194,0.002074259,-0.3165474,0.0222336,-9.772952,0,0,45.61708,1,1,754,998
3898,58906794,1,0.003313503,0.002594792,0.004750113,-0.2836106,0.01895113,-9.770749,0,0,45.61708,1,1,754,998
3901,58907975,1,0.004994417,0.0008521466,0.003241206,-0.2379922,0.02581714,-9.782056000000001,0,0,45.61708,1,1,754,998
3904,58911147,1,0.005041162,0.001324621,0.000455577,-0.2121889,0.03092339,-9.778497,0,0,45.61708,1,1,754,998
3935,58913463,1,0.001747729,0.004093693,-0.001289209,-0.1847452,0.02704076,-9.756981,0,0,45.61693,1,1,754,998
3938,58916370,1,-0.003830743,0.008081488,-0.002189561,-0.1769955,0.005054992,-9.748557999999999,0,0,45.61693,1,1,754,998
3941,58918350,1,-0.006397232,0.008194744,-0.002688765,-0.1754971,-0.01418797,-9.761619,0,0,45.61693,1,1,754,998
3944,58921112,1,-0.004973543,0.003179798,-0.001017226,-0.1723339,-0.04492867,-9.799170999999999,0,0,45.61693,1,1,754,998
3975,58924049,1,-0.003647241,-0.0002300685,-0.0006081529,-0.1670896,-0.06585845,-9.819157000000001,0,0,45.61674,1,1,754,998
3979,58926257,1,-0.00414763,-0.004435199,-0.003646763,-0.1579055,-0.08392123999999999,-9.850508,0,0,45.61674,1,1,754,998
3982,58929060,1,-0.004409551,-0.004006158,-0.005365395,-0.1634964,-0.09563898999999999,-9.888598999999999,0,0,45.61674,1,1,754,998
3985,58931122,1,-0.002776461,-0.003081893,-0.006116088,-0.171981,-0.1167144,-9.938635,0,0,45.61674,1,1,754,998
4016,58933431,1,7.269785e-05,-0.002507555,-0.002607161,-0.1869123,-0.1298533,-9.949135,0,0,45.61654,1,1,754,998
4020,58936483,1,0.001577505,-0.002926087,0.0014232,-0.2072549,-0.1071532,-9.937287,0,0,45.61654,1,1,754,998
4023,58938332,1,0.001023807,-0.002243299,0.004413507,-0.2266457,-0.07998661999999999,-9.915430000000001,0,0,45.61654,1,1,754,998
4026,58941154,1,0.0007324517,0.0008819323,0.005398501,-0.2446462,-0.06599426,-9.864100000000001,0,0,45.61654,1,1,754,998
4059,58943560,1,0.001364829,0.002493644,0.005099277,-0.2493129,-0.07038244,-9.839480999999999,0,0,45.61654,1,1,754,998
4063,58946038,1,0.002467426,0.004606314,0.003857087,-0.2562116,-0.07368179,-9.822539000000001,0,0,45.61631,1,1,754,998
4067,58949388,1,0.002925125,0.004098042,0.003470651,-0.2542315,-0.07136463,-9.811870000000001,0,0,45.61631,1,1,754,998
4070,58951329,1,0.003319934,0.001763185,0.00262801,-0.2403735,-0.06086153,-9.823962999999999,0,0,45.61631,1,1,754,998
4105,58954030,1,0.0006160252,0.0008414223,0.0004419231,-0.2308279,-0.05182579,-9.838307,0,0,45.61631,1,1,754,998
4110,58955970,1,-0.001228,7.533696e-05,-0.001486581,-0.2332298,-0.02336928,-9.859627,0,0,45.61605,1,1,754,998
4113,58958404,1,-0.001605523,-0.003704971,-0.001762684,-0.2421227,-0.001583531,-9.883523,0,0,45.61605,1,1,754,998
4116,58961343,1,-0.0005302904999999999,-0.008664065,-0.003769265,-0.2447022,0.02313391,-9.926475999999999,0,0,45.61605,1,1,754,998
4147,58964144,1,0.001544561,-0.009629123,-0.006642013,-0.2328943,0.03131815,-9.942085000000001,0,0,45.61605,1,1,754,998
4151,58966404,1,0.004003868,-0.006090586,-0.007339124,-0.2251213,0.02873187,-9.925777,0,0,45.61577,1,1,754,998
4154,58968958,1,0.005156285,-0.006476492,-0.004998342,-0.2213487,0.02522787,-9.916936,0,0,45.61577,1,1,754,998
4157,58971531,1,0.002978987,-0.007143508,-0.002612418,-0.2105277,0.0114242,-9.883571999999999,0,0,45.61577,1,1,754,998
4188,58974367,1,-7.679066999999999e-05,-0.006675935,-0.0006408516,-0.2086447,-0.01573115,-9.846717999999999,0,0,45.61577,1,1,754,998
4192,58976967,1,-0.0009356827,-0.005563589,7.131947000000001e-05,-0.2127238,-0.02198376,-9.837683999999999,0,0,45.61577,1,1,754,998
4195,58978801,1,-0.0004127872,-0.0008940026,-1.724066e-05,-0.2245566,-0.01999336,-9.838483999999999,0,0,45.61548,1,1,754,998
4198,58981457,1,0.000266976,0.0001799826,-0.0001533609,-0.2455667,-0.009535784,-9.841828,0,0,45.61548,1,1,754,998
4229,58983948,1,0.001606439,0.002734156,0.0003762338,-0.2515444,-0.003218578,-9.845039,0,0,45.61548,1,1,754,998
4233,58986977,1,0.001166157,0.002996263,0.0001273396,-0.2531799,-0.0007186998,-9.854671,0,0,45.61548,1,1,754,998
4238,58989766,1,-1.461854e-05,0.0009784142,-0.0005339392000000001,-0.2530438,-0.005577266,-9.867602,0,0,45.61519,1,1,754,998
4241,58991286,1,-0.001009725,0.001659174,-0.000118779,-0.2519286,-0.007994701,-9.863066,0,0,45.61519,1,1,754,998
4272,58994315,1,-0.001097737,0.00211516,0.0005197152,-0.2522641,-0.01167773,-9.855915,0,0,45.61519,1,1,754,998
4276,58996498,1,-0.001669748,0.001812416,0.0006474357,-0.2510347,-0.01001639,-9.847239999999999,0,0,45.61519,1,1,754,998
4279,59000472,1,-0.001983952,0.0003661377,0.0008803326,-0.2545566,-0.01269693,-9.840755,0,0,45.61519,1,1,754,998
4282,59003107,1,-0.0009633232,-0.0003265292,0.0006334241,-0.2597897,-0.01036151,-9.847498,0,0,45.61491,1,1,754,998
4285,59004313,1,0.002990503,-0.0007661918,0.0004803246,-0.2652378,-0.0201637,-9.857151999999999,0,0,45.61491,1,1,754,998
4316,59007068,1,0.00206603,5.62284e-05,-5.607682e-05,-0.2807565,-0.03020345,-9.857552,0,0,45.61491,1,1,754,998
4319,59010139,1,0.001349954,0.000620852,-0.000267302,-0.2806472,-0.02675072,-9.852217,0,0,45.61491,1,1,754,998
4322,59012509,1,-0.001351477,0.004638063,-0.001025249,-0.2665841,-0.01861304,-9.848741,0,0,45.61464,1,1,754,998
4325,59015487,1,-0.001656668,0.004733594,-0.0008177568000000001,-0.2522207,-0.02786674,-9.847676,0,0,45.61464,1,1,754,998
4356,59017988,1,-0.0004556098,0.002253118,-0.0003056015,-0.2189576,-0.03882331,-9.833818000000001,0,0,45.61464,1,1,754,998
4360,59020490,1,0.001192919,0.0001069975,-0.001789492,-0.1937206,-0.06315541,-9.837667,0,0,45.61464,1,1,754,998
4363,59023363,1,0.0006256357,-0.000383954,-0.002643242,-0.1868637,-0.08087002,-9.841365,0,0,45.61437,1,1,754,998
4366,59025308,1,0.0005949348,-0.001322142,-0.003567229,-0.1915977,-0.09639978,-9.849589999999999,0,0,45.61437,1,1,754,998
4397,59028092,1,0.001315475,-0.00125535,-0.003523551,-0.1996187,-0.09482222999999999,-9.860302000000001,0,0,45.61437,1,1,754,998
4401,59030411,1,0.003313584,0.0004956591,-0.004206485,-0.2031827,-0.09660046999999999,-9.867098,0,0,45.61437,1,1,754,998
4405,59032604,1,0.002759291,0.002221075,-0.004800207,-0.1976581,-0.1044342,-9.864829,0,0,45.61437,1,1,754,998
4408,59035767,1,0.001668981,0.003055445,-0.002867568,-0.1952942,-0.07760336,-9.860407,0,0,45.61412,1,1,754,998
4439,59038413,1,0.001182247,0.0008978798,-0.001495683,-0.2027624,-0.04754981,-9.838891,0,0,45.61412,1,1,754,998
4442,59040744,1,-0.002075018,-0.003100964,-0.001432392,-0.2068255,-0.04136252,-9.804572,0,0,45.61412,1,1,754,998
4445,59043082,1,-0.005258733,-0.004666526,-3.671835e-05,-0.2001604,-0.04234335,-9.771953,0,0,45.61412,1,1,754,998
4448,59045499,1,-0.004346507,-0.001923484,0.001544975,-0.1927134,-0.04434456,-9.776301,0,0,45.61387,1,1,754,998
4479,59048511,1,-0.0004950205,-0.0006554752,0.002748892,-0.1860483,-0.060473,-9.801026999999999,0,0,45.61387,1,1,754,998
4483,59051076,1,0.0008784887,-0.001694595,0.003516264,-0.1894969,-0.08474427,-9.811987,0,0,45.61387,1,1,754,998
4486,59053005,1,0.002605887,-0.002149721,0.006323453,-0.2093245,-0.1009765,-9.84638,0,0,45.61387,1,1,754,998
4493,59056038,1,0.003193344,-0.001514855,0.007071453,-0.224717,-0.0980929,-9.85549,0,0,45.6136,1,1,754,998
4524,59058174,1,0.004077517,0.0002734659,0.006935033,-0.2422328,-0.08552606,-9.846080000000001,0,0,45.6136,1,1,754,998
4528,59061101,1,0.005836507,0.0003837012,0.004130459,-0.2519982,-0.07213432,-9.840806000000001,0,0,45.6136,1,1,754,998
4531,59063830,1,0.006326084,0.001800405,0.001361959,-0.2523889,-0.04939097,-9.825243,0,0,45.6136,1,1,754,998
4534,59065787,1,0.004326776,0.003278684,0.001720441,-0.2461115,-0.03641173,-9.800890000000001,0,0,45.6136,1,1,754,998
4565,59067967,1,0.0009946973,0.003095664,0.002497385,-0.2255934,-0.01836048,-9.767187,0,0,45.61331,1,1,754,998
4569,59070762,1,0.0001176316,0.002237122,0.00167811,-0.2163631,-0.01347261,-9.756518,0,0,45.61331,1,1,754,998
4573,59073574,1,0.0006092911,-0.0005673248,-0.0006855751,-0.2069449,-0.01061525,-9.757604000000001,0,0,45.61331,1,1,754,998
4576,59075583,1,0.0006024002,-0.0004624951,5.600716e-05,-0.1963588,-0.0088653,-9.760472999999999,0,0,45.61331,1,1,754,998
4607,59078361,1,-0.0006343585,0.001062516,0.001745062,-0.1925022,-0.01892469,-9.756033,0,0,45.61301,1,1,754,998
4611,59080687,1,-0.00133893,0.001104735,0.0034077,-0.1980357,-0.02631418,-9.760878,0,0,45.61301,1,1,754,998
4614,59082944,1,0.001498203,-0.001960255,0.003645168,-0.2190827,-0.03913059,-9.774187,0,0,45.61301,1,1,754,998
4617,59086330,1,0.004666798,-0.003890162,0.002442795,-0.2382078,-0.05037397,-9.78619,0,0,45.61301,1,1,754,998
4648,59089323,1,0.004070061,-0.004935954,0.001845953,-0.2692063,-0.06361466,-9.781122,0,0,45.61274,1,1,754,998
4651,59091168,1,0.002341308,-0.003857111,0.003289386,-0.3042367,-0.07886518000000001,-9.760244,0,0,45.61274,1,1,754,998
4654,59093534,1,-0.001576653,-0.002678224,0.005836818,-0.3222558,-0.08868597,-9.7471,0,0,45.61274,1,1,754,998
4657,59098956,1,-0.009728445,0.001176627,0.006804127,-0.3243234,-0.1042256,-9.73175,0,0,45.61245,1,1,754,998
4689,59103036,1,-0.009610617,0.001424586,0.004508017,-0.3244685,-0.1089273,-9.731640000000001,0,0,45.61245,1,1,754,998
4692,59104380,1,-0.009429269000000001,0.002390908,0.001469799,-0.3137808,-0.1080941,-9.746195999999999,0,0,45.61245,1,1,754,998
4695,59107560,1,-0.00711689,0.003627541,-0.00131547,-0.2893275,-0.1042942,-9.788513,0,0,45.61245,1,1,754,998
4698,59110006,1,-0.001458769,0.001590787,-0.004375841,-0.2722771,-0.1042429,-9.824052,0,0,45.61245,1,1,754,998
4729,59112129,1,0.004713352,4.939409e-05,-0.00577997,-0.2373055,-0.1145107,-9.858459,0,0,45.61216,1,1,754,998
4732,59115339,1,0.00685079,-0.001048827,-0.004880448,-0.2175395,-0.1255947,-9.874002000000001,0,0,45.61216,1,1,754,998
4735,59117275,1,0.004692663,-0.001910343,-0.004653291,-0.2128357,-0.1333652,-9.889768999999999,0,0,45.61216,1,1,754,998
4738,59119966,1,0.003132249,-0.002942113,-0.004092873,-0.2236967,-0.1292675,-9.890879999999999,0,0,45.61216,1,1,754,998
4769,59122734,1,-0.001242156,-0.006689733,-0.002178374,-0.2373594,-0.09387638,-9.892289,0,0,45.61188,1,1,754,998
4773,59124961,1,-0.001745225,-0.006203639,-0.001882074,-0.2428373,-0.05467623,-9.894342,0,0,45.61188,1,1,754,998
4776,59127772,1,-0.0003315811,-0.002888175,-0.002005117,-0.2504872,0.004255,-9.891081,0,0,45.61188,1,1,754,998
4779,59130336,1,0.000515879,-0.001278409,-0.001907075,-0.2548609,0.03225463,-9.879350000000001,0,0,45.61188,1,1,754,998
4810,59133064,1,6.336424e-06,-0.0006247206,-0.0007104853,-0.2570012,0.06369468,-9.838481,0,0,45.61164,1,1,754,998
4814,59135281,1,-0.004307752,-0.00441085,-0.0003173139,-0.2671545,0.07598202,-9.790661999999999,0,0,45.61164,1,1,754,998
4817,59138159,1,-0.003723031,-0.003822368,0.000157423,-0.2777431,0.06228605,-9.761354000000001,0,0,45.61164,1,1,754,998
4820,59140525,1,-0.0009587002,-0.001825202,0.0009557563,-0.2968761,0.01286223,-9.750729,0,0,45.61164,1,1,754,998
4851,59142699,1,0.003967414,-0.00418774,0.001755802,-0.3045946,-0.01005398,-9.763783,0,0,45.61164,1,1,754,998
4854,59145946,1,0.004988233,-0.005154611,0.001557536,-0.3006716,-0.0227816,-9.790979999999999,0,0,45.61142,1,1,754,998
4857,59147608,1,0.005473065,-0.006390476,0.0006911101999999999,-0.2867784,-0.03230453,-9.824026,0,0,45.61142,1,1,754,998
4860,59150538,1,0.003926325,-0.003539454,0.0002219798,-0.2633771,-0.04988649,-9.853853000000001,0,0,45.61142,1,1,754,998
4891,59153729,1,0.00164923,0.0002921807,0.0007104314,-0.2510908,-0.05230547,-9.862030000000001,0,0,45.61142,1,1,754,998
4895,59155382,1,-0.0001540509,0.0008632102,0.0005556704,-0.2455584,-0.04364345,-9.858472000000001,0,0,45.6112,1,1,754,998
4902,59158270,1,-0.0004257159,8.250085e-05,0.001122796,-0.2428199,-0.03338242,-9.852004000000001,0,0,45.6112,1,1,754,998
4905,59160890,1,0.0008667907,-0.001109425,0.00123851,-0.2447634,-0.02300279,-9.854452999999999,0,0,45.6112,1,1,754,998
4936,59163147,1,0.003392954,-0.0007339909,0.0005113789,-0.2554669,-0.01820257,-9.852088,0,0,45.6112,1,1,754,998
4939,59165983,1,0.004208894,-7.065274e-05,0.0003233402,-0.2606703,-0.01127294,-9.84122,0,0,45.6112,1,1,754,998
4942,59168901,1,0.004184099,0.002897453,-0.002241075,-0.2667841,-0.0002821444,-9.816528,0,0,45.611,1,1,754,998
4945,59171290,1,0.003134523,0.005002027,-0.004021684,-0.2779542,-0.001031,-9.809957000000001,0,0,45.611,1,1,754,998
4976,59173928,1,0.001952867,0.005890465,-0.005658816,-0.3076479,-0.004616967,-9.833651,0,0,45.611,1,1,754,998
4980,59175952,1,0.003280176,0.003362498,-0.002847018,-0.3226004,-0.001184514,-9.864053,0,0,45.611,1,1,754,998
4984,59178875,1,0.003458575,0.003818744,-0.001523202,-0.3214577,0.005925464,-9.893953,0,0,45.61079,1,1,754,998
4988,59181065,1,0.002086794,0.004638539,-0.0007339208,-0.3137749,0.008166018000000001,-9.897735000000001,0,0,45.61079,1,1,754,998
5019,59183893,1,0.001302757,0.005110805,-0.0008111974,-0.2946009,0.009882336,-9.873868999999999,0,0,45.61079,1,1,754,998
5022,59185971,1,0.001842235,0.005225047,-0.0006216291,-0.2773114,0.01158825,-9.860068999999999,0,0,45.61079,1,1,754,998
5025,59188313,1,0.003587486,0.005445934,-0.001971553,-0.2529639,0.02072963,-9.859624,0,0,45.6106,1,1,754,998
5028,59190957,1,0.003600848,0.005785462,-0.002700221,-0.2410998,0.02025633,-9.847003000000001,0,0,45.6106,1,1,754,998
5061,59194174,1,0.002807439,0.005207048,-0.002238386,-0.2341588,0.01863112,-9.803946,0,0,45.6106,1,1,754,998
5065,59196318,1,-0.0004098366,0.002935282,0.0008072813,-0.228572,0.01781985,-9.771514,0,0,45.6106,1,1,754,998
5068,59201296,1,-0.003255511,0.003512358,0.00386636,-0.1861276,0.01160552,-9.745236999999999,0,0,45.61043,1,1,754,998
5099,59205030,1,-0.0008396316,0.003835196,0.004190844,-0.1761832,0.02562842,-9.742240000000001,0,0,45.61043,1,1,754,998
5102,59206360,1,0.002260289,0.003641014,0.00350542,-0.1638944,0.03972486,-9.756192,0,0,45.61043,1,1,754,998
5105,59209514,1,0.004084412,0.004524684,0.002480587,-0.1567494,0.03572042,-9.782520999999999,0,0,45.61043,1,1,754,998
5108,59211206,1,0.004547638,0.006608512,0.002506866,-0.1721816,0.01725375,-9.811412000000001,0,0,45.61027,1,1,754,998
5139,59213562,1,0.004514737,0.006659451,0.002873398,-0.2058597,-0.01022311,-9.822905,0,0,45.61027,1,1,754,998
5143,59217085,1,0.002363085,0.002568838,0.002767467,-0.2543333,-0.03983412,-9.8323,0,0,45.61027,1,1,754,998
5146,59218942,1,0.001686471,0.001657296,0.002343043,-0.2768127,-0.05268971,-9.837624,0,0,45.61027,1,1,754,998
5149,59221802,1,0.001323658,4.4298e-05,0.002787715,-0.2874269,-0.07170008,-9.841146,0,0,45.61013,1,1,754,998
5180,59223981,1,-0.001090248,2.595782e-07,0.0003534266,-0.2711163,-0.07399269,-9.863078,0,0,45.61013,1,1,754,998
5184,59226508,1,-0.003069562,-0.0001925144,-0.001603144,-0.2486656,-0.06588681,-9.89696,0,0,45.61013,1,1,754,998
5187,59229572,1,-0.007242972,-0.003224567,-0.005838867,-0.2112355,-0.05951397,-9.911077000000001,0,0,45.61013,1,1,754,998
5190,59231556,1,-0.005705097,-0.003693369,-0.006253041,-0.1852167,-0.06203915,-9.890897000000001,0,0,45.61013,1,1,754,998
5221,59234597,1,-0.001920298,-0.003417543,-0.005852149,-0.1489675,-0.07153837,-9.845803999999999,0,0,45.60999,1,1,754,998
5224,59236545,1,-0.00207884,-0.001848109,-0.003011355,-0.1282547,-0.07378598,-9.817166,0,0,45.60999,1,1,754,998
5227,59239084,1,-0.004714929,-0.0003861602,0.0004174725,-0.1027031,-0.07873980999999999,-9.785328,0,0,45.60999,1,1,754,998
5230,59242148,1,-0.006912508,0.00169256,0.002229869,-0.09497499,-0.08782715000000001,-9.774079,0,0,45.60999,1,1,754,998
5261,59244310,1,-0.007339884,0.003786675,-6.031411e-05,-0.09533974000000001,-0.09484743,-9.779379,0,0,45.60984,1,1,754,998
5266,59247523,1,-0.002688721,0.004050913,-0.002836339,-0.1011255,-0.08515254,-9.794847000000001,0,0,45.60984,1,1,754,998
5269,59249784,1,0.003531265,0.001414098,-0.004816418,-0.1083759,-0.07360369999999999,-9.799493999999999,0,0,45.60984,1,1,754,998
5272,59252671,1,0.007025888,-0.00323422,-0.00359008,-0.1075776,-0.05935191,-9.802053000000001,0,0,45.60984,1,1,754,998
5303,59254922,1,0.006002678,-0.007100767,-0.001150676,-0.1158378,-0.06434123,-9.810122,0,0,45.60969,1,1,754,998
5306,59257345,1,0.002649463,-0.007371955,-0.0008833348,-0.1272884,-0.0748308,-9.808759,0,0,45.60969,1,1,754,998
5313,59261007,1,0.0005545358,-0.005237994,-0.002045018,-0.1499391,-0.08893201000000001,-9.818184,0,0,45.60969,1,1,754,998
5316,59262371,1,-0.001411227,-0.002402823,-0.003635239,-0.1626364,-0.07807305,-9.821490000000001,0,0,45.60969,1,1,754,998
5347,59265692,1,-0.002076054,-0.0005166979,-0.003732312,-0.1780442,-0.05627744,-9.814442,0,0,45.60969,1,1,754,998
5351,59267357,1,-0.0009964041,-0.0002985078,-0.003394499,-0.1890247,-0.04233367,-9.812434,0,0,45.60955,1,1,754,998
5354,59270256,1,0.00257142,-0.001455635,-0.003246039,-0.1987581,-0.01724974,-9.829388,0,0,45.60955,1,1,754,998
5357,59273140,1,0.003183081,-0.002138345,-0.003306857,-0.2031727,0.009648548,-9.832796,0,0,45.60955,1,1,754,998
5388,59275388,1,0.003415207,0.0003512313,-0.00331664,-0.2054794,0.03980501,-9.840964,0,0,45.60955,1,1,754,998
5392,59278325,1,0.001975294,0.004652889,-0.001634311,-0.2175355,0.04875974,-9.845629000000001,0,0,45.60941,1,1,754,998
5396,59280482,1,0.001730917,0.004845296,-0.0003019015,-0.2253045,0.04594377,-9.845608,0,0,45.60941,1,1,754,998
5399,59283570,1,0.001156572,0.004618356,0.00142018,-0.2319161,0.03739358,-9.842712000000001,0,0,45.60941,1,1,754,998
5430,59285966,1,-0.001359278,0.00351856,-0.0009519354,-0.2261562,0.007290746,-9.84815,0,0,45.60941,1,1,754,998
5433,59288574,1,-0.002459208,0.00284418,-0.001652452,-0.2200246,-0.02456126,-9.843916,0,0,45.60927,1,1,754,998
5436,59291351,1,-0.004730852,0.001273513,-0.0019046,-0.2116731,-0.05999771,-9.843175,0,0,45.60927,1,1,754,998
5439,59293615,1,-0.00482372,0.001602019,-0.00297054,-0.2177512,-0.06753223,-9.852963000000001,0,0,45.60927,1,1,754,998
5470,59297470,1,-0.004164703,0.003091703,-0.005038503,-0.2249254,-0.07063599,-9.869324000000001,0,0,45.60927,1,1,754,998
5474,59298711,1,-0.002734765,0.001845445,-0.006409463,-0.2094537,-0.06856710000000001,-9.863932999999999,0,0,45.60912,1,1,754,998
5477,59302791,1,-0.001478106,-0.00103995,-0.00488147,-0.1963022,-0.05953154,-9.856401,0,0,45.60912,1,1,754,998
5480,59304052,1,0.0004039494,-0.003568676,-0.001719022,-0.1851466,-0.04713214,-9.836577999999999,0,0,45.60912,1,1,754,998
5511,59307718,1,0.002749725,-0.002516603,-0.0003431724,-0.1853068,-0.04728901,-9.842893999999999,0,0,45.60912,1,1,754,998
5514,59309360,1,0.003684213,-0.0008446943,-0.0003073649,-0.1921088,-0.05009336,-9.84731,0,0,45.60897,1,1,754,998
5517,59311553,1,0.001853743,0.002144158,-0.001239578,-0.2023789,-0.05186005,-9.841979,0,0,45.60897,1,1,754,998
5520,59314297,1,-0.000652915,0.004610041,-0.001688437,-0.2190012,-0.05396621,-9.819082999999999,0,0,45.60897,1,1,754,998
5551,59316554,1,-0.0008965041,0.005815993,-0.001814994,-0.2245368,-0.05010209,-9.79555,0,0,45.60897,1,1,754,998
5555,59319385,1,-0.003998146,0.004255655,-0.006619466,-0.2210859,-0.03344857,-9.774437000000001,0,0,45.60897,1,1,754,998
5558,59321338,1,-0.005532084,0.001843068,-0.008262838,-0.2127248,-0.02998047,-9.777901999999999,0,0,45.60883,1,1,754,998
5561,59323925,1,-0.007822389000000001,-0.001049808,-0.00934507,-0.2082128,-0.02798875,-9.782242,0,0,45.60883,1,1,754,998
5592,59326798,1,-0.005839616,-0.0007743264,-0.006578719,-0.2095627,-0.01784172,-9.783701000000001,0,0,45.60883,1,1,754,998
5595,59329019,1,0.001433395,0.0006709284,-0.001956621,-0.2092138,0.009371160999999999,-9.785755,0,0,45.60883,1,1,754,998
5598,59331899,1,0.007360806,0.0008921644,0.003743976,-0.205983,0.01552144,-9.780540999999999,0,0,45.6087,1,1,754,998
5601,59333976,1,0.008878483,-0.0004753727,0.008302488,-0.1996184,0.008568268,-9.766750999999999,0,0,45.6087,1,1,754,998
5632,59336284,1,0.008083470000000001,-0.001015416,0.008928159999999999,-0.1904912,0.001899756,-9.754635,0,0,45.6087,1,1,754,998
5636,59339405,1,0.00475053,-0.001376436,0.005898736,-0.1785862,-0.01280638,-9.750696,0,0,45.6087,1,1,754,998
5639,59341499,1,0.003310747,-0.001270202,0.004883599,-0.1799029,-0.02391464,-9.759537999999999,0,0,45.6087,1,1,754,998
5642,59344293,1,-0.001880058,-0.001854513,0.002057665,-0.193059,-0.03144149,-9.765184,0,0,45.60857,1,1,754,998
5673,59346519,1,-0.00293044,-0.002389101,0.0008490122,-0.2002262,-0.03016637,-9.771834999999999,0,0,45.60857,1,1,754,998
5676,59348761,1,-0.003439849,-0.00248416,-0.0001756941,-0.2039472,-0.02368392,-9.814562,0,0,45.60857,1,1,754,998
5679,59351954,1,-0.003180391,-0.001582354,0.0004161539,-0.2045521,-0.01652678,-9.83206,0,0,45.60857,1,1,754,998
5682,59354110,1,-0.005848828,-0.0009909216000000001,0.0001615549,-0.2027789,-0.006600695,-9.830812999999999,0,0,45.60843,1,1,754,998
5713,59356992,1,-0.007327869,-0.0002968249,-0.0030069,-0.2016575,0.01167956,-9.827673000000001,0,0,45.60843,1,1,754,998
5716,59358955,1,-0.004409628,-0.0002349314,-0.003666953,-0.1996902,0.02972154,-9.832273000000001,0,0,45.60843,1,1,754,998
5723,59361915,1,-0.003275093,8.906928e-05,-0.003177451,-0.2073477,0.04553968,-9.830482999999999,0,0,45.60843,1,1,754,998
5726,59364518,1,-0.004664869,0.001659032,-0.002726074,-0.2087934,0.04662333,-9.814037000000001,0,0,45.60829,1,1,754,998
5757,59367250,1,-0.006882153,0.002181403,-0.005298893,-0.199858,0.04030766,-9.786746000000001,0,0,45.60829,1,1,754,998
5761,59369682,1,-0.007659511,0.002587819,-0.006641743,-0.1931825,0.02781104,-9.760389999999999,0,0,45.60829,1,1,754,998
5764,59371781,1,-0.004049163,0.005379227,-0.007046367,-0.1867757,-0.003512669,-9.707343,0,0,45.60829,1,1,754,998
5767,59374555,1,-0.001934267,0.006362124,-0.00520587,-0.1878254,-0.0128888,-9.693111999999999,0,0,45.60829,1,1,754,998
5798,59377691,1,0.0008178113,0.005986601,0.001035147,-0.1910056,-0.02170373,-9.695482999999999,0,0,45.60816,1,1,754,998
5801,59380251,1,0.001257277,0.00476915,0.006603088,-0.1900782,-0.0317499,-9.706111999999999,0,0,45.60816,1,1,754,998
5804,59381938,1,0.000560593,0.003632579,0.008719691,-0.1847405,-0.0302698,-9.728065000000001,0,0,45.60816,1,1,754,998
5808,59384317,1,-0.001188634,0.001992765,0.008241626,-0.1792214,-0.02148661,-9.734223,0,0,45.60816,1,1,754,998
5839,59386942,1,-0.0009536018,-0.0004995144,0.004840101,-0.1852619,-0.02241673,-9.744971,0,0,45.60802,1,1,754,998
5843,59390806,1,-0.003350014,-0.001260969,0.0005625612,-0.1928771,-0.02672049,-9.762146,0,0,45.60802,1,1,754,998
5846,59392377,1,-0.005690837,-0.001285943,-0.00485959,-0.2008133,-0.02665778,-9.776233,0,0,45.60802,1,1,754,998
5850,59394376,1,-0.004782368,-0.0004026824,-0.007704326,-0.2107313,-0.02364919,-9.786222,0,0,45.60802,1,1,754,998
5883,59397325,1,-0.001731369,0.001576752,-0.007485836,-0.2205773,-0.01982623,-9.823285,0,0,45.60802,1,1,754,998
5886,59399734,1,-0.001953742,0.001750681,-0.006267311,-0.2220621,-0.005417475,-9.837804999999999,0,0,45.60789,1,1,754,998
5889,59402710,1,-0.003056024,0.001535667,-0.003842339,-0.2187557,0.01057947,-9.839164,0,0,45.60789,1,1,754,998
5892,59406995,1,-0.004058082,-0.0003563748,0.001482795,-0.1925707,0.01588498,-9.823446000000001,0,0,45.60789,1,1,754,998
5924,59409894,1,-0.002230215,-0.001791648,0.002501209,-0.1863184,0.01784591,-9.815201999999999,0,0,45.60778,1,1,754,998
5927,59412166,1,-0.0003416764,-0.001726105,0.001242097,-0.1787405,0.025752,-9.834583,0,0,45.60778,1,1,754,998
5930,59415091,1,0.001008028,-0.001624414,0.0009848044000000001,-0.1797442,0.03067216,-9.853611000000001,0,0,45.60778,1,1,754,998
5933,59417387,1,0.00503737,-0.00133017,-0.0003314662,-0.1822027,0.03845158,-9.877318000000001,0,0,45.60778,1,1,754,998
5964,59419944,1,0.006024988,-0.0004877582,-0.0008371331,-0.1874111,0.03284617,-9.877212999999999,0,0,45.60778,1,1,754,998
5968,59421965,1,0.00541506,0.002606952,-0.0008570383,-0.1946301,0.01108584,-9.862195,0,0,45.60772,1,1,754,998
5971,59424333,1,0.003807748,0.003389969,-0.0006015903,-0.1977997,-0.01123927,-9.848414,0,0,45.60772,1,1,754,998
5974,59427321,1,0.002791349,0.002191312,-0.0007985936,-0.2121388,-0.03468101,-9.833568,0,0,45.60772,1,1,754,998
6005,59430265,1,0.003342888,0.00216871,-0.0003561004,-0.2189935,-0.03497734,-9.826729,0,0,45.60772,1,1,754,998
6008,59431576,1,0.003646964,0.001359502,0.0007312098,-0.2183245,-0.02168619,-9.821002999999999,0,0,45.60767,1,1,754,998
6011,59434344,1,0.001652012,0.001913562,0.0005887137,-0.2193604,-0.01408561,-9.815458,0,0,45.60767,1,1,754,998
6014,59436940,1,0.001347266,0.002932869,0.0001841656,-0.2137467,-0.007994701999999999,-9.79443,0,0,45.60767,1,1,754,998
6047,59439872,1,0.001207927,0.002224486,0.001143862,-0.207957,-0.01105981,-9.77056,0,0,45.60767,1,1,754,998
6052,59442721,1,-0.003789631,-0.0006789176,0.002080632,-0.1943463,-0.01143313,-9.754099999999999,0,0,45.60767,1,1,754,998
6055,59444380,1,-0.004257904,-0.0009345689,0.001200277,-0.1877659,-0.01381152,-9.747852,0,0,45.60761,1,1,754,998
6058,59446900,1,-0.002571257,-0.001520662,0.0007019307,-0.1796576,-0.008346246,-9.763078,0,0,45.60761,1,1,754,998
6089,59449529,1,-0.0008654246,-0.00382668,0.002198094,-0.1729251,-0.001250927,-9.776068,0,0,45.60761,1,1,754,998
6092,59452305,1,0.0007128882999999999,-0.008695212000000001,0.003639876,-0.1597744,0.03153101,-9.774850000000001,0,0,45.60761,1,1,754,998
6095,59454969,1,-6.156453000000001e-05,-0.01185479,0.00118921,-0.1545677,0.06277816,-9.762302999999999,0,0,45.60752,1,1,754,998
6098,59456947,1,-0.00083621,-0.01371714,-0.002578088,-0.155091,0.08529349,-9.730143999999999,0,0,45.60752,1,1,754,998
6129,59459304,1,-0.0004757283,-0.01459817,-0.003948421,-0.1620391,0.08791593,-9.712251999999999,0,0,45.60752,1,1,754,998
6137,59462349,1,0.0009749062,-0.0137101,-0.001756204,-0.1771896,0.08567666,-9.710770999999999,0,0,45.60752,1,1,754,998
6140,59465152,1,0.001535286,-0.01212593,6.102063e-05,-0.1965645,0.07841712000000001,-9.733177,0,0,45.60752,1,1,754,998
6143,59467461,1,0.001997694,-0.008695875,0.002146379,-0.2062614,0.06902397,-9.768128000000001,0,0,45.60742,1,1,754,998
6174,59470068,1,-4.976135e-05,-0.004660557,0.0004054655,-0.2116732,0.06602570000000001,-9.806654999999999,0,0,45.60742,1,1,754,998
6178,59472092,1,-0.0007446829,-0.005064085,0.0002952928,-0.2226587,0.06266906999999999,-9.822559,0,0,45.60742,1,1,754,998
6181,59475347,1,-0.0008076152,-0.006121174,0.0001191348,-0.229579,0.06231604,-9.835048,0,0,45.60742,1,1,754,998
6184,59477873,1,-0.0001260972,-0.006653268,4.931266e-06,-0.2322321,0.07166249,-9.847377,0,0,45.60728,1,1,754,998
6215,59479979,1,-0.001496474,-0.005361307,-0.0002563251,-0.2309878,0.0592677,-9.854364,0,0,45.60728,1,1,754,998
6218,59482718,1,-0.002626116,-0.004143776,-0.001452444,-0.2176048,0.05776706,-9.858608,0,0,45.60728,1,1,754,998
6221,59485257,1,-0.00177706,-0.003258264,0.000492312,-0.1893619,0.04757992,-9.872388000000001,0,0,45.60728,1,1,754,998
6224,59488158,1,0.0007237064,-0.004933873,0.001621115,-0.1659903,0.02953583,-9.882751000000001,0,0,45.60713,1,1,754,998
6255,59490974,1,0.002246698,-0.008395863999999999,0.002067393,-0.137088,-0.008667163,-9.888005,0,0,45.60713,1,1,754,998
6259,59493302,1,0.002622372,-0.008294599999999999,0.001103834,-0.1198178,-0.0437892,-9.876261,0,0,45.60713,1,1,754,998
6264,59495678,1,0.001813038,-0.004537224,-0.0005968251,-0.1096743,-0.05136291,-9.875078999999999,0,0,45.60713,1,1,754,998
6267,59503411,1,-0.00384328,0.006665132,-0.002673204,-0.1376406,-0.02599995,-9.901339999999999,0,0,45.60695,1,1,754,998
6298,59506113,1,-0.00368468,0.006334468,0.001474608,-0.1718508,-0.005101828,-9.913245999999999,0,0,45.60695,1,1,754,998
6302,59508524,1,-0.002855951,0.005921937,0.003634058,-0.1945623,0.007263808,-9.912820999999999,0,0,45.60695,1,1,754,998
6305,59511537,1,-0.001556021,0.000553109,0.006274818,-0.2224248,0.01444327,-9.906734,0,0,45.60675,1,1,754,998
6309,59514256,1,-0.0002256002,-0.00253488,0.006008491,-0.2325416,0.02074056,-9.891356,0,0,45.60675,1,1,754,998
6340,59517023,1,0.003859997,-0.005142569,0.00451232,-0.2365882,0.02849613,-9.871012,0,0,45.60675,1,1,754,998
6343,59518926,1,0.005727136,-0.003801663,0.004417139,-0.2438641,0.03062808,-9.844811,0,0,45.60675,1,1,754,998
6346,59521904,1,0.005528993,-0.003359318,0.004345059,-0.2419378,0.02768986,-9.819103,0,0,45.60652,1,1,754,998
6349,59524413,1,-0.00188792,-0.0001551773,0.001937949,-0.2371923,0.02279848,-9.793915999999999,0,0,45.60652,1,1,754,998
6380,59527297,1,-0.003604585,0.003398853,0.0009899120999999999,-0.2323136,0.007456936,-9.798185,0,0,45.60652,1,1,754,998
6384,59529875,1,-0.003689871,0.004087078,0.001367063,-0.2279105,-0.006148451,-9.792272000000001,0,0,45.60652,1,1,754,998
6387,59532094,1,-0.004232796,0.004666424,0.0003077635,-0.2320518,-0.02289087,-9.790193,0,0,45.60627,1,1,754,998
6390,59534403,1,-0.003544927,0.004197901,-0.0005630101,-0.2376439,-0.02554076,-9.796651000000001,0,0,45.60627,1,1,754,998
6421,59537363,1,-0.002296859,8.647736e-05,-0.001040035,-0.2422107,-0.02746985,-9.800712000000001,0,0,45.60627,1,1,754,998
6424,59539980,1,-0.002556826,-0.002971592,-0.001321438,-0.2473512,-0.02689382,-9.802769,0,0,45.60627,1,1,754,998
6427,59541942,1,-0.001891608,-0.002293919,-0.0006230139,-0.2585584,-0.03463713,-9.801653,0,0,45.606,1,1,754,998
6430,59544351,1,-0.001937516,-0.001171192,7.604624e-05,-0.2672532,-0.03390584,-9.796734000000001,0,0,45.606,1,1,754,998
6461,59546918,1,-0.002797933,-0.0008106147,-0.0004718303,-0.2823846,-0.02183992,-9.801686999999999,0,0,45.606,1,1,754,998
6466,59550294,1,-0.002882997,-0.001156293,-0.0008006044,-0.2925002,-0.01710143,-9.811768000000001,0,0,45.606,1,1,754,998
6469,59552381,1,-0.002119685,-0.0003453112,0.0002758623,-0.2904794,-0.007854043999999999,-9.801176999999999,0,0,45.606,1,1,754,998
6472,59554868,1,-0.000923583,0.001257326,0.001312897,-0.2849025,-0.008824324,-9.784312,0,0,45.60571,1,1,754,998
6503,59556978,1,0.001868976,0.003071816,0.00349653,-0.2771619,-0.0001644595,-9.773372,0,0,45.60571,1,1,754,998
6506,59559616,1,0.004693225,0.003241237,0.00245429,-0.2796847,0.01419657,-9.768134999999999,0,0,45.60571,1,1,754,998
6509,59562370,1,0.00376531,0.003087701,0.002597849,-0.2748136,0.03505033,-9.765425,0,0,45.60571,1,1,754,998
6516,59565201,1,0.002245081,0.001155974,0.00313819,-0.2688807,0.03638205,-9.757293000000001,0,0,45.6054,1,1,754,998
6547,59567729,1,0.002895488,-0.003523975,0.001653905,-0.2546593,0.02459775,-9.752950999999999,0,0,45.6054,1,1,754,998
6551,59570118,1,0.003365325,-0.008142056,0.0009111948,-0.2533219,0.01349439,-9.752679000000001,0,0,45.6054,1,1,754,998
6554,59572596,1,0.001352721,-0.008374621,-0.0002972093,-0.2518861,0.007963919999999999,-9.766211999999999,0,0,45.6054,1,1,754,998
6557,59575359,1,-0.003481154,-0.004005707,-0.005373395,-0.23124,-0.0180852,-9.792816,0,0,45.60506,1,1,754,998
6588,59578282,1,-0.006132836,-0.00340003,-0.008500203,-0.2291761,-0.03124681,-9.815628999999999,0,0,45.60506,1,1,754,998
6592,59580767,1,-0.005163283,-0.00726776,-0.007771166,-0.2374673,-0.0513757,-9.846671000000001,0,0,45.60506,1,1,754,998
6595,59582407,1,-0.00458805,-0.008965321,-0.006359968,-0.2381999,-0.05488607,-9.867489000000001,0,0,45.60506,1,1,754,998
6600,59585394,1,-0.005938441,-0.007829443,-0.003075335,-0.2336439,-0.04905299,-9.876625000000001,0,0,45.60506,1,1,754,998
6631,59587719,1,-0.006593036,-0.001406956,-0.004453434,-0.2254378,-0.05900366,-9.880423,0,0,45.60471,1,1,754,998
6634,59590522,1,-0.006539929,0.001596004,-0.004901798,-0.2166777,-0.06517263,-9.880984,0,0,45.60471,1,1,754,998
6637,59592616,1,-0.006364059,0.005732432,-0.006178854,-0.2065901,-0.06454886,-9.883334,0,0,45.60471,1,1,754,998
6641,59595262,1,-0.004732969,0.008316189,-0.006072372,-0.1913647,-0.05856855,-9.894450000000001,0,0,45.60471,1,1,754,998
6672,59597967,1,-0.001007777,0.007032671,-0.002273425,-0.1874686,-0.05668603,-9.896934,0,0,45.60434,1,1,754,998
6676,59600286,1,0.00260227,0.003660174,0.001481952,-0.1837597,-0.05519141,-9.893381,0,0,45.60434,1,1,754,998
6680,59603322,1,0.00139735,-0.00148354,0.002059689,-0.1813676,-0.05668333,-9.878030000000001,0,0,45.60434,1,1,754,998
6683,59605211,1,-0.0008272479,-0.004374423,0.0005296312,-0.1771695,-0.05831877,-9.833105,0,0,45.60434,1,1,754,998
6714,59607461,1,-0.0005092377,-0.004580264,-0.0004444272,-0.1681716,-0.06358564999999999,-9.787208,0,0,45.60434,1,1,754,998
6717,59611247,1,0.002887133,-0.00563146,-0.0006554163,-0.1500575,-0.06101202,-9.742607,0,0,45.60395,1,1,754,998
6720,59612601,1,0.003030429,-0.005907744,3.378005e-05,-0.1420344,-0.04719544,-9.733181,0,0,45.60395,1,1,754,998
