LineNo,TimeUS,I,GyrX,GyrY,GyrZ,AccX,AccY,AccZ,EG,EA,T,GH,AH,GHz,AHz
184,5.7935e+07,2,0.001692,0.0019327,0.0015961,-0.076476,0.064071,-9.8682,0,0,38.402,1,1,7745,3872
295,5.7959e+07,2,-0.00014206,0.0022863,0.0024286,-0.086648,0.056168,-9.8667,0,0,38.403,1,1,7745,3872
326,5.7961e+07,2,-0.00013398,0.0020333,0.0017375,-0.08482,0.057917,-9.8622,0,0,38.403,1,1,7745,3872
409,5.7983e+07,2,-0.0028356,-0.00086648,0.001739,-0.079734,0.059766,-9.8446,0,0,38.403,1,1,7745,3872
522,5.8007e+07,2,6.9109e-06,-0.0016866,0.0011497,-0.080936,0.06975,-9.8519,0,0,38.404,1,1,7745,3872
525,5.8009e+07,2,-0.00036953,-0.00075654,0.0018091,-0.085559,0.067202,-9.8493,0,0,38.404,1,1,7745,3872
556,5.8012e+07,2,-0.00049972,-5.1952e-05,0.0016713,-0.087659,0.066496,-9.8489,0,0,38.404,1,1,7745,3872
631,5.8031e+07,2,0.0010756,0.0020365,-0.0021405,-0.095119,0.058613,-9.8605,0,0,38.403,1,1,7745,3872
747,5.8053e+07,2,0.0039261,-0.00028976,-0.000141,-0.086157,0.060329,-9.8556,0,0,38.403,1,1,7745,3872
778,5.8056e+07,2,0.0033254,3.5742e-05,-0.0003951,-0.084603,0.060887,-9.8567,0,0,38.403,1,1,7745,3872
858,5.8074e+07,2,0.0041844,-0.00096383,-0.000419,-0.09173,0.051822,-9.8627,0,0,38.403,1,1,7745,3872
974,5.8096e+07,2,0.001427,-0.00063931,0.0028417,-0.10973,0.05144,-9.8541,0,0,38.402,1,1,7745,3872
1089,5.814e+07,2,-0.00059117,0.00037767,0.0024464,-0.10109,0.04962,-9.8518,0,0,38.401,1,1,7745,3872
1204,5.823e+07,2,0.0032246,8.3122e-05,0.00063056,-0.086163,0.060029,-9.8642,0,0,38.4,1,1,7745,3872
1295,5.8278e+07,2,0.001025,0.0014373,0.00096257,-0.08835,0.054305,-9.8636,0,0,38.399,1,1,7745,3872
1326,5.8281e+07,2,-5.7195e-07,0.0017244,0.0021755,-0.088342,0.053933,-9.8616,0,0,38.399,1,1,7745,3872
1389,5.8291e+07,2,-0.0011881,-0.00060412,0.00071152,-0.08761,0.058339,-9.8711,0,0,38.398,1,1,7745,3872
1392,5.8293e+07,2,-0.0010071,0.00028807,0.00025455,-0.087031,0.0595,-9.8748,0,0,38.398,1,1,7745,3872
1423,5.8296e+07,2,-0.00051624,0.00069624,-0.0012117,-0.08691,0.061341,-9.8744,0,0,38.398,1,1,7745,3872
1484,5.831e+07,2,-0.0016226,-0.00026317,0.00032949,-0.094062,0.067673,-9.8549,0,0,38.398,1,1,7745,3872
1572,5.8327e+07,2,0.00016833,-0.0010645,-0.00016369,-0.098763,0.066324,-9.8721,0,0,38.397,1,1,7745,3872
1603,5.833e+07,2,-0.00053181,-0.00042236,-0.00039416,-0.10146,0.0645,-9.8742,0,0,38.397,1,1,7745,3872
1616,5.8333e+07,2,-0.00067758,-6.4354e-07,-0.00024841,-0.10424,0.062786,-9.8772,0,0,38.397,1,1,7745,3872
1619,5.8335e+07,2,-0.0002758,0.00089306,-0.00027186,-0.10464,0.062133,-9.8789,0,0,38.397,1,1,7745,3872
1626,5.8338e+07,2,0.00043799,0.0016517,-0.00092495,-0.10268,0.063005,-9.8799,0,0,38.397,1,1,7745,3872
1657,5.8341e+07,2,0.0018486,0.0013086,-0.00056204,-0.10063,0.065402,-9.8787,0,0,38.397,1,1,7745,3872
1660,5.8343e+07,2,0.0027471,0.0011646,0.0006632,-0.10005,0.067752,-9.8765,0,0,38.397,1,1,7745,3872
1663,5.8346e+07,2,0.0017197,0.00054581,0.0009388,-0.10055,0.06809,-9.8734,0,0,38.397,1,1,7745,3872
1667,5.8348e+07,2,0.001072,-3.651e-05,3.0165e-05,-0.10198,0.068805,-9.8684,0,0,38.397,1,1,7745,3872
1698,5.835e+07,2,0.00058546,-0.00013548,-0.00065861,-0.10179,0.069314,-9.8672,0,0,38.397,1,1,7745,3872
1701,5.8353e+07,2,0.00052441,2.4131e-06,-0.0025214,-0.10019,0.068527,-9.8665,0,0,38.397,1,1,7745,3872
1704,5.8355e+07,2,0.00056001,-7.7285e-05,-0.0026505,-0.098477,0.06669,-9.864,0,0,38.397,1,1,7745,3872
1707,5.8358e+07,2,7.3466e-05,5.489e-05,-0.0017443,-0.095594,0.06238,-9.8621,0,0,38.397,1,1,7745,3872
1738,5.836e+07,2,0.00084732,0.0012946,-0.00069054,-0.092886,0.060102,-9.8637,0,0,38.397,1,1,7745,3872
1741,5.8363e+07,2,0.0014839,0.001836,-0.00026523,-0.090647,0.059258,-9.8663,0,0,38.397,1,1,7745,3872
1744,5.8366e+07,2,0.0017814,0.0022349,0.00016123,-0.089076,0.059522,-9.8686,0,0,38.397,1,1,7745,3872
1748,5.8368e+07,2,0.0016522,0.0027598,-9.9319e-05,-0.090257,0.059004,-9.8694,0,0,38.397,1,1,7745,3872
1779,5.8371e+07,2,0.00030011,0.0019574,-0.0013298,-0.095819,0.059586,-9.8706,0,0,38.397,1,1,7745,3872
1782,5.8374e+07,2,-0.00019162,0.0010726,-0.00024753,-0.10246,0.060229,-9.8744,0,0,38.397,1,1,7745,3872
1785,5.8378e+07,2,5.6117e-05,0.00040929,0.00050149,-0.10429,0.059759,-9.876,0,0,38.397,1,1,7745,3872
1788,5.8382e+07,2,0.0021522,-0.00010869,0.0004429,-0.10394,0.057212,-9.876,0,0,38.397,1,1,7745,3872
1820,5.8385e+07,2,0.0016462,0.00015076,0.00078506,-0.10564,0.055639,-9.8766,0,0,38.397,1,1,7745,3872
1823,5.8387e+07,2,0.0010318,-7.7668e-05,0.0007871,-0.10678,0.054766,-9.8763,0,0,38.397,1,1,7745,3872
1826,5.839e+07,2,0.0010529,0.00044515,-0.00037827,-0.10802,0.05376,-9.8755,0,0,38.397,1,1,7745,3872
1831,5.8393e+07,2,0.00080261,0.0011571,-0.00090085,-0.10864,0.052986,-9.873,0,0,38.397,1,1,7745,3872
1862,5.8395e+07,2,0.0004502,0.0013549,-0.00061851,-0.10884,0.052281,-9.8697,0,0,38.397,1,1,7745,3872
1866,5.8397e+07,2,0.0006462,0.00078591,-0.00034733,-0.10815,0.053017,-9.8646,0,0,38.397,1,1,7745,3872
1869,5.8401e+07,2,0.001101,0.00024682,0.00028801,-0.10744,0.052886,-9.8615,0,0,38.397,1,1,7745,3872
1872,5.8403e+07,2,0.0016006,0.00050951,0.0014698,-0.10387,0.051153,-9.8578,0,0,38.397,1,1,7745,3872
1903,5.8406e+07,2,0.002303,0.0011087,0.0018918,-0.099357,0.047892,-9.8556,0,0,38.398,1,1,7745,3872
1907,5.8408e+07,2,0.0017809,0.00191,0.0019811,-0.09731,0.045712,-9.8529,0,0,38.398,1,1,7745,3872
1910,5.841e+07,2,0.0010274,0.0023757,0.0018031,-0.097071,0.04435,-9.8501,0,0,38.398,1,1,7745,3872
1913,5.8413e+07,2,0.00021398,0.0025497,0.0022102,-0.097493,0.043687,-9.8462,0,0,38.398,1,1,7745,3872
1944,5.8415e+07,2,-0.00066808,0.0016377,0.0014753,-0.09878,0.045579,-9.843,0,0,38.398,1,1,7745,3872
1948,5.8418e+07,2,-0.00069264,0.0010291,0.0017518,-0.10078,0.048543,-9.8418,0,0,38.398,1,1,7745,3872
1951,5.8421e+07,2,-0.00048164,0.00083848,0.0016403,-0.10164,0.051666,-9.842,0,0,38.398,1,1,7745,3872
1954,5.8424e+07,2,-0.00058806,0.00045195,0.0022427,-0.10112,0.053879,-9.8423,0,0,38.398,1,1,7745,3872
1985,5.8426e+07,2,-0.00050016,0.00072138,0.0026995,-0.099424,0.054578,-9.8457,0,0,38.398,1,1,7745,3872
1988,5.8429e+07,2,0.0007292,0.00092739,0.0021789,-0.096548,0.053861,-9.8488,0,0,38.398,1,1,7745,3872
1991,5.8431e+07,2,0.0009742,0.00095464,0.0010019,-0.09349,0.052731,-9.849,0,0,38.398,1,1,7745,3872
1995,5.8434e+07,2,0.0006877,0.0012632,0.0004824,-0.088947,0.050464,-9.8512,0,0,38.398,1,1,7745,3872
2026,5.8437e+07,2,8.1295e-05,0.00084425,0.00016112,-0.087162,0.048198,-9.8535,0,0,38.398,1,1,7745,3872
2030,5.844e+07,2,0.00028252,0.00097123,-2.6617e-05,-0.086662,0.047411,-9.8553,0,0,38.398,1,1,7745,3872
2038,5.8442e+07,2,0.0010084,-0.00012626,-0.00080994,-0.08728,0.045941,-9.861,0,0,38.398,1,1,7745,3872
2041,5.8444e+07,2,0.0014551,-0.00031295,-0.0014643,-0.088259,0.044606,-9.8648,0,0,38.398,1,1,7745,3872
2074,5.8447e+07,2,0.0012129,0.00029299,-0.001392,-0.089659,0.043171,-9.8683,0,0,38.398,1,1,7745,3872
2077,5.845e+07,2,0.00071733,0.00032812,-0.00054877,-0.089813,0.042574,-9.8692,0,0,38.398,1,1,7745,3872
2080,5.8452e+07,2,0.00025256,6.188e-05,0.00041576,-0.089822,0.043106,-9.8706,0,0,38.398,1,1,7745,3872
2083,5.8455e+07,2,0.00037306,0.00014132,0.00054277,-0.090093,0.043785,-9.872,0,0,38.398,1,1,7745,3872
2114,5.8457e+07,2,0.0003714,0.00052423,0.0010823,-0.09037,0.046307,-9.8779,0,0,38.398,1,1,7745,3872
2118,5.846e+07,2,0.00029503,0.0010471,0.0015551,-0.088827,0.048756,-9.8817,0,0,38.398,1,1,7745,3872
2121,5.8462e+07,2,0.00032839,0.00076737,0.0012399,-0.087712,0.050888,-9.8832,0,0,38.398,1,1,7745,3872
2124,5.8464e+07,2,0.00032231,0.00090365,0.00026746,-0.088181,0.052381,-9.8802,0,0,38.398,1,1,7745,3872
2155,5.8467e+07,2,-0.00014484,0.001837,0.00020514,-0.090265,0.055505,-9.8737,0,0,38.398,1,1,7745,3872
2158,5.8469e+07,2,-0.0002905,0.0020773,0.00042681,-0.092453,0.056315,-9.8713,0,0,38.398,1,1,7745,3872
2161,5.8473e+07,2,0.00090715,0.0018093,-0.00049075,-0.093611,0.057312,-9.8665,0,0,38.398,1,1,7745,3872
2164,5.8474e+07,2,0.0011465,0.0017177,-0.00069024,-0.094098,0.057036,-9.8633,0,0,38.398,1,1,7745,3872
2195,5.8477e+07,2,0.00093062,0.00083958,-4.9361e-05,-0.095168,0.055566,-9.8615,0,0,38.398,1,1,7745,3872
2199,5.8479e+07,2,0.00092257,6.4989e-05,-0.00013964,-0.095152,0.054604,-9.8607,0,0,38.398,1,1,7745,3872
2202,5.8482e+07,2,0.0013186,-0.0002681,-0.0013621,-0.094446,0.054519,-9.8627,0,0,38.398,1,1,7745,3872
2205,5.8484e+07,2,0.0014559,-0.00070455,-0.0010025,-0.092779,0.055713,-9.864,0,0,38.398,1,1,7745,3872
2236,5.8487e+07,2,0.00073678,-0.0011137,-0.00048912,-0.090425,0.056907,-9.8653,0,0,38.398,1,1,7745,3872
2240,5.8491e+07,2,0.00050492,-0.001274,-0.00041007,-0.08907,0.058641,-9.8658,0,0,38.398,1,1,7745,3872
2243,5.8492e+07,2,0.00081996,-0.00074842,-7.6748e-05,-0.089007,0.062326,-9.8674,0,0,38.398,1,1,7745,3872
2247,5.8495e+07,2,0.0011557,0.00060987,0.0011549,-0.087533,0.06457,-9.8714,0,0,38.398,1,1,7745,3872
2278,5.8497e+07,2,0.001144,0.0013179,0.00097286,-0.084005,0.064342,-9.869,0,0,38.398,1,1,7745,3872
2281,5.8501e+07,2,0.00048857,0.0011732,-0.00023769,-0.08192,0.065356,-9.866,0,0,38.398,1,1,7745,3872
2284,5.8502e+07,2,0.00058231,0.00050983,-0.0012182,-0.080107,0.066514,-9.8652,0,0,38.398,1,1,7745,3872
2290,5.8505e+07,2,0.0014631,-0.0004844,-0.0019976,-0.077942,0.066647,-9.8651,0,0,38.398,1,1,7745,3872
2321,5.8508e+07,2,0.0013887,-0.00091354,-0.0018065,-0.078897,0.067225,-9.8635,0,0,38.398,1,1,7745,3872
2325,5.851e+07,2,0.00096598,-0.00055174,-0.0014992,-0.080095,0.068939,-9.864,0,0,38.398,1,1,7745,3872
2328,5.8512e+07,2,0.0012752,-0.00017301,-0.00087955,-0.08144,0.070429,-9.8652,0,0,38.398,1,1,7745,3872
2331,5.8514e+07,2,0.0020573,6.8418e-05,-4.9626e-06,-0.084625,0.072755,-9.8646,0,0,38.398,1,1,7745,3872
2362,5.8517e+07,2,0.0022981,0.0002935,0.00026263,-0.085638,0.073688,-9.864,0,0,38.398,1,1,7745,3872
2365,5.852e+07,2,0.0026121,-0.00049781,0.00084476,-0.089132,0.075399,-9.8611,0,0,38.399,1,1,7745,3872
2368,5.8522e+07,2,0.0024625,-0.00054197,0.0005092,-0.091208,0.074869,-9.8599,0,0,38.399,1,1,7745,3872
2371,5.8525e+07,2,0.0022115,0.00020352,0.00060798,-0.091258,0.07195,-9.8605,0,0,38.399,1,1,7745,3872
2402,5.8528e+07,2,0.0020729,0.0010709,0.00090367,-0.089873,0.070859,-9.8593,0,0,38.399,1,1,7745,3872
2406,5.853e+07,2,0.0023991,0.00098485,0.0018875,-0.089076,0.070588,-9.8525,0,0,38.399,1,1,7745,3872
2409,5.8532e+07,2,0.0027016,0.00076128,0.0020968,-0.089017,0.070495,-9.8467,0,0,38.399,1,1,7745,3872
2412,5.8535e+07,2,0.0020027,0.0012645,0.0013937,-0.088882,0.069797,-9.8432,0,0,38.399,1,1,7745,3872
2443,5.8537e+07,2,0.0015507,0.0016873,0.001401,-0.089,0.067827,-9.8454,0,0,38.399,1,1,7745,3872
2447,5.854e+07,2,0.0013274,0.0017116,0.0012896,-0.089091,0.067255,-9.8476,0,0,38.399,1,1,7745,3872
2455,5.8542e+07,2,0.0011384,0.0015308,0.00046046,-0.089179,0.067219,-9.8512,0,0,38.399,1,1,7745,3872
2458,5.8545e+07,2,0.0017114,0.0012953,-0.00069257,-0.089203,0.066805,-9.8559,0,0,38.399,1,1,7745,3872
2489,5.8547e+07,2,0.0010825,0.00015246,-0.00010916,-0.089877,0.066357,-9.8606,0,0,38.399,1,1,7745,3872
2493,5.855e+07,2,0.00068096,-0.00025381,0.00078195,-0.090228,0.066121,-9.8624,0,0,38.399,1,1,7745,3872
2496,5.8553e+07,2,0.001178,-2.3723e-05,0.001904,-0.090095,0.063913,-9.8673,0,0,38.4,1,1,7745,3872
2499,5.8556e+07,2,0.0015809,-3.8647e-05,0.001971,-0.089495,0.061257,-9.8693,0,0,38.4,1,1,7745,3872
2530,5.8558e+07,2,0.0019345,-0.00060762,0.0021096,-0.088791,0.056494,-9.8722,0,0,38.4,1,1,7745,3872
2534,5.8561e+07,2,0.0018601,-0.00099752,0.00096232,-0.087276,0.054504,-9.8742,0,0,38.4,1,1,7745,3872
2537,5.8563e+07,2,0.0013274,-0.00049073,0.00051821,-0.086515,0.054945,-9.8755,0,0,38.4,1,1,7745,3872
2540,5.8566e+07,2,0.0027757,-0.00035086,0.0012043,-0.08653,0.057203,-9.8787,0,0,38.4,1,1,7745,3872
2571,5.8569e+07,2,0.0030081,-0.0001702,0.0018158,-0.087155,0.060696,-9.8803,0,0,38.4,1,1,7745,3872
2574,5.857e+07,2,0.0022634,1.4581e-05,0.0017034,-0.087941,0.063672,-9.8797,0,0,38.4,1,1,7745,3872
2577,5.8573e+07,2,0.0017045,5.3548e-05,0.0014832,-0.088706,0.065935,-9.8787,0,0,38.4,1,1,7745,3872
2580,5.8576e+07,2,0.0014078,-0.0009733,0.00041701,-0.089911,0.067234,-9.8804,0,0,38.4,1,1,7745,3872
2614,5.8582e+07,2,0.00033272,-0.00065438,0.00085945,-0.092528,0.067132,-9.8857,0,0,38.401,1,1,7745,3872
2618,5.8583e+07,2,0.00061074,0.00073994,0.0017561,-0.094307,0.067349,-9.8872,0,0,38.401,1,1,7745,3872
2621,5.8586e+07,2,0.00074099,0.0012296,0.0018625,-0.095511,0.067307,-9.8889,0,0,38.401,1,1,7745,3872
2652,5.8588e+07,2,0.00089344,0.0025422,0.0014247,-0.097868,0.06598,-9.8899,0,0,38.401,1,1,7745,3872
2655,5.8591e+07,2,0.00068089,0.0030279,0.0014487,-0.09881,0.063943,-9.8891,0,0,38.401,1,1,7745,3872
2659,5.8594e+07,2,-0.00014311,0.0026313,0.0015398,-0.097734,0.062661,-9.8875,0,0,38.401,1,1,7745,3872
2664,5.8597e+07,2,-0.00023082,0.0023747,0.0014606,-0.097333,0.06227,-9.8861,0,0,38.401,1,1,7745,3872
2695,5.8599e+07,2,-0.0011383,0.0012288,-9.0784e-05,-0.097617,0.058318,-9.8793,0,0,38.401,1,1,7745,3872
2698,5.8602e+07,2,-0.0013096,0.0011127,-0.00084108,-0.097945,0.05557,-9.8752,0,0,38.401,1,1,7745,3872
2702,5.8604e+07,2,-0.0014045,0.00063029,-5.9657e-05,-0.098391,0.052671,-9.8731,0,0,38.401,1,1,7745,3872
2705,5.8607e+07,2,-0.0014257,-0.00014217,0.0014191,-0.099952,0.048519,-9.8731,0,0,38.401,1,1,7745,3872
2736,5.861e+07,2,-0.0015386,-0.00090661,0.0013097,-0.10138,0.047051,-9.8721,0,0,38.401,1,1,7745,3872
2739,5.8612e+07,2,-0.0017792,-0.0013166,0.00076156,-0.10251,0.046351,-9.8703,0,0,38.401,1,1,7745,3872
2743,5.8614e+07,2,-0.0013327,-0.00080876,0.00023704,-0.10576,0.04731,-9.8689,0,0,38.401,1,1,7745,3872
2746,5.8617e+07,2,-0.0014088,-0.00018877,-0.0005991,-0.10709,0.049686,-9.8707,0,0,38.401,1,1,7745,3872
2777,5.862e+07,2,-0.0012728,2.0081e-05,-0.0016386,-0.10578,0.05399,-9.8747,0,0,38.401,1,1,7745,3872
2780,5.8622e+07,2,-0.0010492,-0.00016582,-0.0014013,-0.10413,0.055055,-9.8746,0,0,38.401,1,1,7745,3872
2783,5.8624e+07,2,-0.00017556,-0.00031481,-0.0013276,-0.10176,0.056089,-9.8695,0,0,38.401,1,1,7745,3872
2786,5.8627e+07,2,0.00039285,-0.00020725,-0.0014095,-0.10072,0.056588,-9.8683,0,0,38.401,1,1,7745,3872
2818,5.863e+07,2,0.00098287,-0.00014022,-0.00095218,-0.10102,0.054367,-9.8695,0,0,38.401,1,1,7745,3872
2821,5.8632e+07,2,0.00079699,5.3702e-05,-0.00075605,-0.10203,0.051631,-9.8722,0,0,38.4,1,1,7745,3872
2825,5.8635e+07,2,0.00079528,0.00097172,-2.969e-05,-0.10372,0.048933,-9.877,0,0,38.4,1,1,7745,3872
2829,5.8638e+07,2,0.00041762,0.0012071,0.00022091,-0.10542,0.047699,-9.8785,0,0,38.4,1,1,7745,3872
2860,5.864e+07,2,-0.00027618,0.00091366,0.00010718,-0.1063,0.047753,-9.8777,0,0,38.4,1,1,7745,3872
2863,5.8642e+07,2,0.00073642,0.00095857,-0.00097755,-0.10502,0.048625,-9.8747,0,0,38.4,1,1,7745,3872
2870,5.8646e+07,2,0.0012082,0.0012064,-0.0012964,-0.10304,0.049692,-9.8726,0,0,38.4,1,1,7745,3872
2873,5.8647e+07,2,0.0022512,0.002209,-0.0019287,-0.10091,0.049373,-9.8729,0,0,38.4,1,1,7745,3872
2904,5.865e+07,2,0.0022307,0.0021706,-0.0023706,-0.10091,0.049147,-9.8717,0,0,38.4,1,1,7745,3872
2907,5.8652e+07,2,0.001704,0.0021309,-0.0017196,-0.1032,0.050755,-9.8671,0,0,38.4,1,1,7745,3872
2911,5.8655e+07,2,0.00081278,0.0024544,-0.0024563,-0.10554,0.051739,-9.863,0,0,38.4,1,1,7745,3872
2914,5.8658e+07,2,0.00059309,0.002039,-0.0017065,-0.10905,0.054423,-9.8601,0,0,38.4,1,1,7745,3872
2945,5.866e+07,2,0.0010776,0.0014622,-0.00030962,-0.10924,0.056979,-9.8609,0,0,38.4,1,1,7745,3872
2948,5.8663e+07,2,0.0011605,0.0013392,-0.00042259,-0.10754,0.05827,-9.8613,0,0,38.4,1,1,7745,3872
2952,5.8666e+07,2,0.0016866,0.0019711,-0.0015149,-0.10309,0.060057,-9.8592,0,0,38.4,1,1,7745,3872
2955,5.8668e+07,2,0.0021729,0.0012124,-0.0022017,-0.10025,0.061056,-9.858,0,0,38.401,1,1,7745,3872
2986,5.8671e+07,2,0.0025829,-4.0478e-05,-0.0013836,-0.096919,0.063743,-9.8571,0,0,38.401,1,1,7745,3872
2990,5.8673e+07,2,0.002087,0.00093856,-0.00045488,-0.095164,0.065514,-9.8551,0,0,38.401,1,1,7745,3872
2993,5.8676e+07,2,0.0015749,0.00145,-0.00074726,-0.094191,0.068027,-9.8503,0,0,38.401,1,1,7745,3872
2996,5.8679e+07,2,0.00069256,0.0014129,-0.00098361,-0.093949,0.071344,-9.8477,0,0,38.401,1,1,7745,3872
3027,5.8683e+07,2,9.3649e-05,0.0011613,-0.00044276,-0.093686,0.071657,-9.8509,0,0,38.401,1,1,7745,3872
3030,5.8684e+07,2,-0.00016655,0.0011406,2.3741e-05,-0.092423,0.068281,-9.8552,0,0,38.401,1,1,7745,3872
3034,5.8687e+07,2,-0.00021501,0.0017007,0.0011059,-0.091774,0.065826,-9.8573,0,0,38.401,1,1,7745,3872
3037,5.8689e+07,2,0.00070405,0.0019966,0.0019793,-0.091683,0.065042,-9.8589,0,0,38.401,1,1,7745,3872
3068,5.8693e+07,2,0.0010368,0.0015721,0.0021635,-0.093661,0.06482,-9.8599,0,0,38.401,1,1,7745,3872
3071,5.8694e+07,2,0.0013526,0.0013328,0.0020238,-0.095819,0.063629,-9.8592,0,0,38.401,1,1,7745,3872
3074,5.8697e+07,2,0.0021755,0.00055875,0.0015373,-0.1012,0.062031,-9.8604,0,0,38.401,1,1,7745,3872
3077,5.8699e+07,2,0.0028254,5.8318e-05,0.0013501,-0.10426,0.061994,-9.8622,0,0,38.401,1,1,7745,3872
3108,5.8702e+07,2,0.0028741,-0.0002468,0.00061094,-0.10376,0.063937,-9.8645,0,0,38.401,1,1,7745,3872
3111,5.8705e+07,2,0.0025429,0.00035137,0.00029221,-0.10279,0.064219,-9.8664,0,0,38.401,1,1,7745,3872
3115,5.8707e+07,2,0.0025802,0.0016281,-0.00063612,-0.1031,0.063354,-9.868,0,0,38.401,1,1,7745,3872
3118,5.8712e+07,2,0.0027798,0.0010949,-0.00026177,-0.10332,0.059191,-9.8685,0,0,38.402,1,1,7745,3872
3149,5.8715e+07,2,0.0026402,0.00089686,-0.00011676,-0.10394,0.05762,-9.8665,0,0,38.402,1,1,7745,3872
3152,5.8717e+07,2,0.0018113,0.00082759,-2.0159e-05,-0.10392,0.056633,-9.8637,0,0,38.402,1,1,7745,3872
3155,5.872e+07,2,0.00084366,0.0010197,0.00089727,-0.10157,0.055247,-9.8591,0,0,38.402,1,1,7745,3872
3158,5.8723e+07,2,0.00042438,0.00065477,0.0024214,-0.098747,0.055672,-9.8584,0,0,38.402,1,1,7745,3872
3189,5.8725e+07,2,7.41e-05,0.00055733,0.0025828,-0.095147,0.057841,-9.8599,0,0,38.402,1,1,7745,3872
3193,5.8727e+07,2,-0.00012967,9.8186e-05,0.0013569,-0.093581,0.060468,-9.8624,0,0,38.402,1,1,7745,3872
3196,5.873e+07,2,-0.00036353,0.00028191,0.001366,-0.092394,0.06201,-9.8651,0,0,38.402,1,1,7745,3872
3199,5.8733e+07,2,-0.00081566,-0.00018563,-6.0719e-05,-0.089699,0.062395,-9.869,0,0,38.402,1,1,7745,3872
3230,5.8735e+07,2,-0.0014669,-2.373e-05,-0.0003852,-0.086614,0.061546,-9.8704,0,0,38.402,1,1,7745,3872
3233,5.8738e+07,2,-0.0014649,4.7595e-05,0.00016343,-0.08521,0.061474,-9.8696,0,0,38.402,1,1,7745,3872
3236,5.874e+07,2,-0.0016325,0.00013097,0.00048272,-0.082067,0.061336,-9.8644,0,0,38.403,1,1,7745,3872
3241,5.8743e+07,2,-0.0016074,0.0003462,0.0011702,-0.080202,0.059987,-9.8604,0,0,38.403,1,1,7745,3872
3272,5.8746e+07,2,-0.0005966,0.00066482,0.0021363,-0.076881,0.056798,-9.8542,0,0,38.403,1,1,7745,3872
3280,5.8749e+07,2,-0.00075101,0.0011243,0.0015979,-0.074009,0.056402,-9.8492,0,0,38.403,1,1,7745,3872
3283,5.8751e+07,2,-0.00057815,0.00094343,0.00068685,-0.073926,0.056712,-9.8484,0,0,38.403,1,1,7745,3872
3286,5.8754e+07,2,-5.3398e-05,0.0010703,0.00079899,-0.075643,0.058104,-9.8513,0,0,38.403,1,1,7745,3872
3317,5.8757e+07,2,-0.00035599,0.0010318,-0.00057895,-0.077689,0.059532,-9.8534,0,0,38.403,1,1,7745,3872
3320,5.8759e+07,2,-0.00096459,0.00088868,-0.00080615,-0.079311,0.060472,-9.853,0,0,38.404,1,1,7745,3872
3323,5.8761e+07,2,-0.001696,0.00073997,-0.00090941,-0.08015,0.063575,-9.8528,0,0,38.404,1,1,7745,3872
3326,5.8764e+07,2,-0.0021707,0.00011117,-0.0008498,-0.080406,0.065981,-9.8566,0,0,38.404,1,1,7745,3872
3357,5.8766e+07,2,-0.0021321,-0.00040418,-0.001185,-0.080993,0.067864,-9.8618,0,0,38.404,1,1,7745,3872
3360,5.877e+07,2,-0.0010144,0.00013454,-0.00047864,-0.080882,0.0679,-9.8627,0,0,38.404,1,1,7745,3872
3363,5.8772e+07,2,4.1812e-05,0.001405,6.3267e-05,-0.080982,0.066444,-9.8637,0,0,38.404,1,1,7745,3872
3366,5.8774e+07,2,0.0003098,0.0014125,-0.0002195,-0.081417,0.063787,-9.8627,0,0,38.404,1,1,7745,3872
3397,5.8776e+07,2,-0.00017734,0.00017911,-0.0001075,-0.082854,0.059267,-9.8622,0,0,38.404,1,1,7745,3872
3400,5.8779e+07,2,-0.00052766,-0.00035141,-0.00025162,-0.08475,0.056776,-9.8631,0,0,38.404,1,1,7745,3872
3405,5.8782e+07,2,-7.2823e-05,6.2883e-05,0.00011541,-0.088673,0.054431,-9.8618,0,0,38.404,1,1,7745,3872
3408,5.8784e+07,2,-0.00013706,0.00058034,0.00059139,-0.091315,0.052893,-9.8612,0,0,38.404,1,1,7745,3872
3439,5.8787e+07,2,0.00031566,0.00099821,-0.00024542,-0.093459,0.051246,-9.8612,0,0,38.404,1,1,7745,3872
3442,5.879e+07,2,0.0011044,0.0017875,-1.485e-05,-0.093988,0.049197,-9.8612,0,0,38.404,1,1,7745,3872
3446,5.8793e+07,2,0.0010739,0.0015378,0.00031125,-0.093212,0.048264,-9.8623,0,0,38.405,1,1,7745,3872
3449,5.8795e+07,2,0.0006892,0.00098612,0.00037198,-0.091085,0.048279,-9.8643,0,0,38.405,1,1,7745,3872
3480,5.88e+07,2,0.001868,0.00062602,-0.0010008,-0.090352,0.049566,-9.8687,0,0,38.405,1,1,7745,3872
3485,5.8803e+07,2,0.0018758,0.00036463,-0.0014701,-0.091475,0.048724,-9.871,0,0,38.405,1,1,7745,3872
3488,5.8805e+07,2,0.0011821,0.00058525,-0.0015651,-0.092583,0.048303,-9.8732,0,0,38.405,1,1,7745,3872
3519,5.8808e+07,2,6.3776e-05,0.0013935,-0.0017185,-0.093332,0.048061,-9.8749,0,0,38.405,1,1,7745,3872
3522,5.8811e+07,2,-0.00021319,0.00084267,-0.0015467,-0.09211,0.047293,-9.8749,0,0,38.405,1,1,7745,3872
3526,5.8814e+07,2,0.00022847,-0.00011571,-0.0016618,-0.088812,0.047324,-9.8717,0,0,38.405,1,1,7745,3872
3529,5.8816e+07,2,0.00041035,-0.00033324,-0.0019828,-0.088262,0.048397,-9.8695,0,0,38.405,1,1,7745,3872
3560,5.8818e+07,2,0.0011707,-5.3015e-06,-0.001792,-0.088414,0.051872,-9.8689,0,0,38.405,1,1,7745,3872
3563,5.8821e+07,2,0.0016049,0.00068124,-0.0011865,-0.088203,0.053605,-9.8698,0,0,38.405,1,1,7745,3872
3566,5.8824e+07,2,0.0021134,0.0014233,-0.00027271,-0.089272,0.055878,-9.8704,0,0,38.405,1,1,7745,3872
3569,5.8826e+07,2,0.0024569,0.0018749,-0.00027264,-0.091278,0.060959,-9.8717,0,0,38.406,1,1,7745,3872
3600,5.8828e+07,2,0.00088668,0.0022303,-0.00068322,-0.095763,0.065306,-9.8729,0,0,38.406,1,1,7745,3872
3603,5.8831e+07,2,0.00012271,0.0016447,-0.0016667,-0.097413,0.066301,-9.8727,0,0,38.406,1,1,7745,3872
3607,5.8834e+07,2,0.00065538,0.00060821,-0.0021235,-0.1016,0.067636,-9.8717,0,0,38.406,1,1,7745,3872
3610,5.8836e+07,2,0.0017774,-0.00027358,-0.0016401,-0.10263,0.06749,-9.8699,0,0,38.406,1,1,7745,3872
3641,5.8839e+07,2,0.001367,0.0003478,-0.00080323,-0.10391,0.06637,-9.8668,0,0,38.406,1,1,7745,3872
3645,5.8842e+07,2,0.001569,0.00064499,-0.00034494,-0.10566,0.06592,-9.8669,0,0,38.406,1,1,7745,3872
3649,5.8844e+07,2,0.0025319,0.00038903,5.0074e-06,-0.10802,0.065044,-9.8678,0,0,38.406,1,1,7745,3872
3653,5.8846e+07,2,0.0028365,-0.0001323,0.00022246,-0.11,0.065447,-9.869,0,0,38.406,1,1,7745,3872
3684,5.8848e+07,2,0.0022845,-0.00021898,0.001516,-0.11159,0.066867,-9.8725,0,0,38.406,1,1,7745,3872
3691,5.8852e+07,2,0.0012167,-1.6794e-07,0.0019191,-0.11138,0.066041,-9.8737,0,0,38.406,1,1,7745,3872
3695,5.8854e+07,2,0.00082421,0.0014695,0.00049827,-0.10905,0.065112,-9.8701,0,0,38.406,1,1,7745,3872
3698,5.8856e+07,2,0.0011604,0.0018063,-0.00020268,-0.10706,0.065062,-9.8656,0,0,38.406,1,1,7745,3872
3729,5.8859e+07,2,0.0016229,0.00087613,0.00017669,-0.10361,0.065854,-9.8577,0,0,38.406,1,1,7745,3872
3732,5.8862e+07,2,0.0015312,0.000733,0.00015422,-0.10078,0.066828,-9.8531,0,0,38.406,1,1,7745,3872
3735,5.8865e+07,2,0.0010721,0.0012903,0.00025264,-0.097922,0.068761,-9.849,0,0,38.406,1,1,7745,3872
3739,5.8866e+07,2,0.0010648,0.0018448,1.8907e-05,-0.097095,0.068469,-9.8499,0,0,38.406,1,1,7745,3872
3770,5.8869e+07,2,0.0013795,0.0021918,0.00041183,-0.097087,0.067222,-9.8514,0,0,38.406,1,1,7745,3872
3773,5.8871e+07,2,0.00078491,0.0016392,0.0010779,-0.097538,0.066178,-9.853,0,0,38.406,1,1,7745,3872
3777,5.8874e+07,2,0.0005948,0.00075429,0.001322,-0.099826,0.065656,-9.8545,0,0,38.406,1,1,7745,3872
3780,5.8877e+07,2,0.00067593,0.00054217,0.0011837,-0.10271,0.064362,-9.8564,0,0,38.406,1,1,7745,3872
3811,5.888e+07,2,0.0015585,0.00026794,0.0012612,-0.1024,0.062927,-9.8594,0,0,38.406,1,1,7745,3872
3814,5.8882e+07,2,0.0022417,0.00069871,1.1562e-05,-0.10157,0.061785,-9.8616,0,0,38.406,1,1,7745,3872
3818,5.8884e+07,2,0.0025486,0.0013186,-0.0009683,-0.1014,0.059762,-9.867,0,0,38.407,1,1,7745,3872
3821,5.8888e+07,2,0.0019982,0.0012862,-0.00077818,-0.1016,0.059755,-9.87,0,0,38.407,1,1,7745,3872
3824,5.889e+07,2,0.00079456,0.0010957,0.0010405,-0.10232,0.062322,-9.8739,0,0,38.407,1,1,7745,3872
3855,5.8893e+07,2,0.00078547,0.0012749,0.0022261,-0.10294,0.063325,-9.8764,0,0,38.407,1,1,7745,3872
3858,5.8895e+07,2,0.0011437,0.001024,0.0020809,-0.10403,0.063179,-9.8779,0,0,38.407,1,1,7745,3872
3861,5.8897e+07,2,0.0012256,0.0007607,0.0018635,-0.10544,0.062999,-9.8785,0,0,38.407,1,1,7745,3872
3864,5.89e+07,2,0.0016165,0.00074774,0.00077586,-0.1054,0.062973,-9.8785,0,0,38.407,1,1,7745,3872
3895,5.8903e+07,2,0.0027125,0.0012053,0.00020005,-0.10305,0.063809,-9.8759,0,0,38.407,1,1,7745,3872
3899,5.8907e+07,2,0.0023278,0.0013063,2.8422e-05,-0.10228,0.064484,-9.8723,0,0,38.407,1,1,7745,3872
3902,5.8908e+07,2,0.00097366,0.0014183,0.00032512,-0.1022,0.06375,-9.8707,0,0,38.407,1,1,7745,3872
3905,5.8911e+07,2,0.00086347,0.0014816,0.00010819,-0.10212,0.062385,-9.8743,0,0,38.407,1,1,7745,3872
3936,5.8913e+07,2,0.0017026,0.00144,-0.0010639,-0.10247,0.061397,-9.8817,0,0,38.407,1,1,7745,3872
3939,5.8916e+07,2,0.0013497,0.0011129,-0.0018989,-0.10248,0.061436,-9.8872,0,0,38.407,1,1,7745,3872
3942,5.8918e+07,2,0.00093497,0.00094596,-0.0023935,-0.10184,0.062132,-9.8906,0,0,38.407,1,1,7745,3872
3945,5.8921e+07,2,0.00039501,0.0011917,-0.0023812,-0.10155,0.061979,-9.8887,0,0,38.407,1,1,7745,3872
3976,5.8924e+07,2,-0.00024181,0.0018689,-0.0017218,-0.10106,0.061209,-9.8819,0,0,38.408,1,1,7745,3872
3980,5.8926e+07,2,-0.00020776,0.0015603,-0.00036984,-0.10126,0.060594,-9.8792,0,0,38.408,1,1,7745,3872
3983,5.8929e+07,2,0.00055296,0.00038346,8.8091e-05,-0.1033,0.059189,-9.8748,0,0,38.408,1,1,7745,3872
3986,5.8931e+07,2,0.0013274,-0.00062801,0.00072923,-0.10463,0.059077,-9.873,0,0,38.408,1,1,7745,3872
4017,5.8933e+07,2,0.00098099,-0.0012308,0.0017113,-0.10553,0.059157,-9.8747,0,0,38.408,1,1,7745,3872
4021,5.8936e+07,2,0.00091557,-0.00071872,0.0016842,-0.10424,0.060394,-9.8753,0,0,38.408,1,1,7745,3872
4024,5.8938e+07,2,0.00071286,-0.00024613,-0.00042753,-0.10044,0.061332,-9.8745,0,0,38.408,1,1,7745,3872
4027,5.8941e+07,2,0.00041777,0.00038598,-0.0011922,-0.097839,0.061496,-9.8746,0,0,38.408,1,1,7745,3872
4060,5.8944e+07,2,-0.00012251,0.0016464,-0.0008822,-0.095084,0.061521,-9.875,0,0,38.408,1,1,7745,3872
4064,5.8946e+07,2,-0.00054824,0.002607,-0.0014463,-0.093775,0.061865,-9.8755,0,0,38.408,1,1,7745,3872
4068,5.8949e+07,2,0.00025943,0.0023419,-0.0013926,-0.094167,0.063964,-9.8721,0,0,38.408,1,1,7745,3872
4071,5.8951e+07,2,0.00044223,0.0013594,-0.0012644,-0.095415,0.065844,-9.8665,0,0,38.408,1,1,7745,3872
4106,5.8954e+07,2,0.00010218,-0.00067317,-0.0010965,-0.097406,0.067564,-9.8597,0,0,38.408,1,1,7745,3872
4111,5.8956e+07,2,-0.000184,-0.0010122,-0.0012073,-0.097662,0.06941,-9.8565,0,0,38.409,1,1,7745,3872
4114,5.8958e+07,2,8.1176e-05,-0.00076098,-0.00060208,-0.09763,0.072295,-9.8538,0,0,38.409,1,1,7745,3872
4117,5.8961e+07,2,0.00050063,-4.0236e-05,-2.3825e-05,-0.09702,0.075687,-9.8532,0,0,38.409,1,1,7745,3872
4148,5.8964e+07,2,0.00071915,-0.00011834,-0.00015241,-0.096613,0.079973,-9.8548,0,0,38.409,1,1,7745,3872
4152,5.8966e+07,2,0.00084904,-0.0010545,-0.00013274,-0.095496,0.081253,-9.8578,0,0,38.409,1,1,7745,3872
4155,5.8969e+07,2,0.00017368,-0.00089659,-0.0004737,-0.093409,0.077681,-9.8648,0,0,38.409,1,1,7745,3872
4158,5.8972e+07,2,-0.00022048,0.00022887,-0.00090121,-0.09355,0.072576,-9.8699,0,0,38.409,1,1,7745,3872
4189,5.8974e+07,2,-0.0003045,0.0010393,-0.0013288,-0.093676,0.069033,-9.8712,0,0,38.409,1,1,7745,3872
4193,5.8977e+07,2,-0.00070045,0.0017268,-0.0011308,-0.093641,0.063884,-9.8705,0,0,38.409,1,1,7745,3872
4196,5.8979e+07,2,-0.00051623,0.0015093,-0.00048493,-0.090869,0.060697,-9.8684,0,0,38.409,1,1,7745,3872
4199,5.8981e+07,2,0.00027968,0.001938,0.00080573,-0.085571,0.05867,-9.8639,0,0,38.41,1,1,7745,3872
4230,5.8984e+07,2,0.00055076,0.0015731,0.0015406,-0.083419,0.057753,-9.8613,0,0,38.41,1,1,7745,3872
4234,5.8987e+07,2,0.00030524,0.00088373,0.0014816,-0.081356,0.055576,-9.8591,0,0,38.41,1,1,7745,3872
4239,5.899e+07,2,0.00021027,0.0007387,0.0011034,-0.080303,0.054342,-9.8562,0,0,38.41,1,1,7745,3872
4242,5.8991e+07,2,-9.9441e-06,4.2167e-05,0.00054106,-0.080276,0.054773,-9.852,0,0,38.41,1,1,7745,3872
4273,5.8994e+07,2,0.00054427,-0.00052224,0.00079918,-0.080533,0.055444,-9.8533,0,0,38.41,1,1,7745,3872
4277,5.8996e+07,2,0.0012418,-0.00070129,-4.9334e-05,-0.08062,0.056237,-9.8593,0,0,38.41,1,1,7745,3872
4280,5.9e+07,2,0.00013833,-0.00014969,-0.00086629,-0.080848,0.055737,-9.8615,0,0,38.41,1,1,7745,3872
4283,5.9003e+07,2,-0.00081938,0.00029201,-0.0022363,-0.083314,0.054683,-9.8612,0,0,38.41,1,1,7745,3872
4286,5.9004e+07,2,-0.0004692,0.00086086,-0.002075,-0.087055,0.054638,-9.8596,0,0,38.41,1,1,7745,3872
4317,5.9007e+07,2,0.00027129,0.00081489,-0.00066822,-0.088617,0.055178,-9.8582,0,0,38.411,1,1,7745,3872
4320,5.901e+07,2,0.00014,0.00051581,0.0010304,-0.088853,0.056701,-9.8607,0,0,38.411,1,1,7745,3872
4323,5.9013e+07,2,-0.0004073,-0.00043397,0.0017279,-0.090038,0.057716,-9.8636,0,0,38.411,1,1,7745,3872
4326,5.9015e+07,2,-0.00083742,-0.0014911,0.0008112,-0.09176,0.060154,-9.8654,0,0,38.411,1,1,7745,3872
4357,5.9018e+07,2,-6.4147e-05,-0.00099008,0.00028414,-0.093124,0.06118,-9.8647,0,0,38.411,1,1,7745,3872
4361,5.902e+07,2,0.0009472,-0.00042114,0.00036615,-0.094282,0.060832,-9.8631,0,0,38.411,1,1,7745,3872
4364,5.9023e+07,2,0.0017275,-0.00018325,0.00028134,-0.093878,0.061956,-9.8633,0,0,38.411,1,1,7745,3872
4367,5.9025e+07,2,0.0014417,-0.00069655,0.00040116,-0.092919,0.063816,-9.8637,0,0,38.411,1,1,7745,3872
4398,5.9028e+07,2,0.0011124,-0.00076517,2.6948e-05,-0.090953,0.067058,-9.8651,0,0,38.411,1,1,7745,3872
4402,5.903e+07,2,0.0021123,-0.0015041,-0.00060306,-0.088133,0.069773,-9.8667,0,0,38.411,1,1,7745,3872
4406,5.9033e+07,2,0.0023465,-0.0016667,-0.00044161,-0.087976,0.070716,-9.8691,0,0,38.411,1,1,7745,3872
4409,5.9036e+07,2,0.0023449,-0.0014491,0.00039584,-0.089348,0.071771,-9.8736,0,0,38.411,1,1,7745,3872
4440,5.9038e+07,2,0.0017589,-0.00082523,0.0012445,-0.091321,0.073068,-9.8779,0,0,38.411,1,1,7745,3872
4443,5.9041e+07,2,0.0012307,-0.00010965,0.0013326,-0.092562,0.07495,-9.8819,0,0,38.411,1,1,7745,3872
4446,5.9043e+07,2,0.00087305,0.00037853,0.0008588,-0.092505,0.075858,-9.8841,0,0,38.411,1,1,7745,3872
4449,5.9045e+07,2,0.0013041,0.0002981,0.0011603,-0.09096,0.076178,-9.8828,0,0,38.411,1,1,7745,3872
4480,5.9049e+07,2,0.0016546,-0.00025282,0.0015399,-0.088968,0.075348,-9.8815,0,0,38.412,1,1,7745,3872
4484,5.9051e+07,2,0.0014495,-0.00055428,0.001384,-0.087699,0.073489,-9.879,0,0,38.412,1,1,7745,3872
4487,5.9053e+07,2,0.0013183,-0.00041267,0.0013448,-0.088412,0.070924,-9.875,0,0,38.412,1,1,7745,3872
4494,5.9056e+07,2,0.00052949,9.9639e-05,0.00077258,-0.089922,0.066097,-9.8715,0,0,38.412,1,1,7745,3872
4525,5.9058e+07,2,-0.00052468,-0.0005426,-0.00064103,-0.092625,0.063165,-9.877,0,0,38.412,1,1,7745,3872
4529,5.9061e+07,2,-0.00047673,-0.00049646,-0.0015431,-0.095812,0.062346,-9.8796,0,0,38.412,1,1,7745,3872
4532,5.9064e+07,2,-0.00031856,-0.00046654,-0.0020426,-0.098536,0.061524,-9.8786,0,0,38.412,1,1,7745,3872
4535,5.9066e+07,2,-0.00031061,-0.00095466,-0.0022281,-0.10079,0.06026,-9.8728,0,0,38.412,1,1,7745,3872
4566,5.9068e+07,2,-0.00036463,-0.00085421,-0.0017559,-0.10055,0.060505,-9.8674,0,0,38.412,1,1,7745,3872
4570,5.9071e+07,2,-0.00013416,-0.00026574,-0.00087082,-0.099407,0.062663,-9.8609,0,0,38.412,1,1,7745,3872
4574,5.9074e+07,2,0.00011852,-0.00026321,-0.00018018,-0.099601,0.064047,-9.8589,0,0,38.412,1,1,7745,3872
4577,5.9076e+07,2,0.0005661,0.0010044,-0.00066319,-0.099943,0.064329,-9.8554,0,0,38.412,1,1,7745,3872
4608,5.9078e+07,2,0.00095645,0.0022616,-0.00037715,-0.099507,0.063742,-9.8507,0,0,38.412,1,1,7745,3872
4612,5.9081e+07,2,0.00092102,0.0026411,-0.00013071,-0.098632,0.063914,-9.8472,0,0,38.412,1,1,7745,3872
4615,5.9083e+07,2,0.00087661,0.002183,-0.00034559,-0.097474,0.065298,-9.8455,0,0,38.412,1,1,7745,3872
4618,5.9086e+07,2,0.0012664,0.00099597,-9.6431e-05,-0.096454,0.06689,-9.8434,0,0,38.413,1,1,7745,3872
4649,5.9089e+07,2,0.00069047,5.2229e-05,0.0009557,-0.095579,0.067097,-9.8437,0,0,38.413,1,1,7745,3872
4652,5.9091e+07,2,-0.00035159,-0.00035067,0.00088713,-0.094421,0.065832,-9.845,0,0,38.413,1,1,7745,3872
4655,5.9094e+07,2,-0.0012592,-0.00055978,-7.6035e-05,-0.094916,0.062249,-9.8502,0,0,38.413,1,1,7745,3872
4658,5.9099e+07,2,8.2165e-05,0.00066934,-6.3764e-05,-0.095596,0.056451,-9.861,0,0,38.413,1,1,7745,3872
4690,5.9103e+07,2,-0.00052896,0.0011174,0.00084072,-0.094239,0.054709,-9.8668,0,0,38.413,1,1,7745,3872
4693,5.9104e+07,2,-0.0011736,0.00023442,0.0020913,-0.093257,0.054089,-9.8714,0,0,38.413,1,1,7745,3872
4696,5.9108e+07,2,-0.00097774,0.00049143,0.0025164,-0.092829,0.054416,-9.8732,0,0,38.413,1,1,7745,3872
4699,5.911e+07,2,-0.00065226,0.0005049,0.0015858,-0.094002,0.054977,-9.8749,0,0,38.413,1,1,7745,3872
4730,5.9112e+07,2,-0.00059815,8.4059e-05,-8.4963e-05,-0.096098,0.055043,-9.8753,0,0,38.413,1,1,7745,3872
4733,5.9115e+07,2,-7.7581e-05,-0.00021018,-0.00098088,-0.099227,0.053624,-9.8763,0,0,38.413,1,1,7745,3872
4736,5.9117e+07,2,0.00068507,-0.00063072,-0.0015906,-0.10358,0.051885,-9.8792,0,0,38.413,1,1,7745,3872
4739,5.912e+07,2,0.00080122,-0.00061117,-0.0020569,-0.10455,0.051043,-9.8805,0,0,38.413,1,1,7745,3872
4770,5.9123e+07,2,0.0018873,-0.00073018,-0.002348,-0.10536,0.051861,-9.8811,0,0,38.413,1,1,7745,3872
4774,5.9125e+07,2,0.0027583,-0.00082281,-0.0021923,-0.10572,0.052757,-9.88,0,0,38.413,1,1,7745,3872
4777,5.9128e+07,2,0.0020186,0.00026179,-0.0032979,-0.10593,0.054296,-9.8755,0,0,38.413,1,1,7745,3872
4780,5.913e+07,2,0.001027,0.00092289,-0.003366,-0.10625,0.05594,-9.8714,0,0,38.413,1,1,7745,3872
4811,5.9133e+07,2,-0.00055649,0.00092932,-0.0015696,-0.10693,0.056695,-9.8702,0,0,38.413,1,1,7745,3872
4815,5.9135e+07,2,-0.0010656,0.00023407,-9.3297e-05,-0.10657,0.057072,-9.8728,0,0,38.413,1,1,7745,3872
4818,5.9138e+07,2,-0.0016067,-0.00025688,0.0008511,-0.10538,0.059485,-9.8741,0,0,38.413,1,1,7745,3872
4821,5.9141e+07,2,-0.00073735,4.9762e-05,1.0107e-05,-0.10366,0.059828,-9.8738,0,0,38.413,1,1,7745,3872
4852,5.9143e+07,2,0.00058097,0.00027855,-0.00027634,-0.10078,0.057845,-9.8727,0,0,38.413,1,1,7745,3872
4855,5.9146e+07,2,0.001828,0.00014088,-0.0012334,-0.09783,0.054874,-9.8685,0,0,38.413,1,1,7745,3872
4858,5.9148e+07,2,0.0020713,0.00030007,-0.0014352,-0.09703,0.052823,-9.8642,0,0,38.413,1,1,7745,3872
4861,5.9151e+07,2,0.0017244,0.00012661,-0.00059397,-0.094828,0.051084,-9.8609,0,0,38.413,1,1,7745,3872
4892,5.9154e+07,2,0.0017069,-1.0309e-05,0.00033994,-0.092466,0.051017,-9.8606,0,0,38.413,1,1,7745,3872
4896,5.9155e+07,2,0.0018266,0.00028587,0.00057585,-0.088432,0.051077,-9.8647,0,0,38.413,1,1,7745,3872
4903,5.9158e+07,2,0.0014553,0.00024686,0.00052671,-0.085861,0.05102,-9.868,0,0,38.413,1,1,7745,3872
4906,5.9161e+07,2,0.0017744,0.00022112,0.00030435,-0.08474,0.051333,-9.8695,0,0,38.413,1,1,7745,3872
4937,5.9163e+07,2,0.0019703,0.00028691,-0.00038189,-0.08514,0.050318,-9.8701,0,0,38.413,1,1,7745,3872
4940,5.9166e+07,2,0.0017691,0.000571,-0.0010173,-0.086623,0.049243,-9.8708,0,0,38.413,1,1,7745,3872
4943,5.9169e+07,2,0.00076472,0.0010584,-0.00042954,-0.090673,0.048062,-9.8682,0,0,38.413,1,1,7745,3872
4946,5.9171e+07,2,0.00068146,0.00121,0.00013301,-0.092262,0.047981,-9.8651,0,0,38.413,1,1,7745,3872
4977,5.9174e+07,2,0.0012426,0.0010719,0.00025199,-0.093858,0.048058,-9.8613,0,0,38.413,1,1,7745,3872
4981,5.9176e+07,2,0.00090318,0.00081515,-0.00025103,-0.095932,0.048241,-9.8572,0,0,38.413,1,1,7745,3872
4985,5.9179e+07,2,0.00051963,0.00030479,-0.00017628,-0.098057,0.048997,-9.8487,0,0,38.413,1,1,7745,3872
4989,5.9181e+07,2,0.00076512,0.00049757,0.00018066,-0.098757,0.050341,-9.8426,0,0,38.413,1,1,7745,3872
5020,5.9184e+07,2,0.0013513,0.0011632,-0.00020938,-0.10125,0.053639,-9.838,0,0,38.413,1,1,7745,3872
5023,5.9186e+07,2,0.0018094,0.0013923,-0.0011226,-0.10313,0.055944,-9.8374,0,0,38.413,1,1,7745,3872
5026,5.9188e+07,2,0.0013205,0.0021456,-0.00068206,-0.10538,0.058951,-9.8391,0,0,38.413,1,1,7745,3872
5029,5.9191e+07,2,0.00087119,0.001707,-0.0007991,-0.10666,0.060918,-9.8424,0,0,38.413,1,1,7745,3872
5062,5.9194e+07,2,-0.00070961,0.002048,-0.0005187,-0.10698,0.062705,-9.8477,0,0,38.413,1,1,7745,3872
5066,5.9196e+07,2,-0.0017516,0.0022828,-0.00028451,-0.10712,0.063785,-9.8524,0,0,38.413,1,1,7745,3872
5069,5.9201e+07,2,-0.00086387,0.0031848,0.0013981,-0.11017,0.066308,-9.8605,0,0,38.413,1,1,7745,3872
5100,5.9205e+07,2,3.9671e-05,0.0039932,0.00096863,-0.11061,0.067494,-9.8616,0,0,38.413,1,1,7745,3872
5103,5.9206e+07,2,0.0023152,0.0027026,0.00015823,-0.10786,0.066102,-9.8625,0,0,38.413,1,1,7745,3872
5106,5.921e+07,2,0.0024351,0.0022061,-0.00018163,-0.1068,0.065176,-9.8631,0,0,38.413,1,1,7745,3872
5109,5.9211e+07,2,0.0015427,0.0013749,0.00012884,-0.10432,0.063294,-9.8649,0,0,38.413,1,1,7745,3872
5140,5.9214e+07,2,0.0010646,0.00168,0.0009328,-0.099239,0.059127,-9.8676,0,0,38.413,1,1,7745,3872
5144,5.9217e+07,2,0.00075745,0.0019197,0.0017676,-0.095274,0.05622,-9.8676,0,0,38.413,1,1,7745,3872
5147,5.9219e+07,2,0.0009721,0.0014848,0.0029093,-0.08963,0.053795,-9.8672,0,0,38.413,1,1,7745,3872
5150,5.9222e+07,2,0.0015792,0.0011884,0.0032922,-0.086289,0.053381,-9.8682,0,0,38.412,1,1,7745,3872
5181,5.9224e+07,2,0.00099785,-0.00071339,0.0024984,-0.083276,0.053322,-9.8688,0,0,38.412,1,1,7745,3872
5185,5.9227e+07,2,-9.0527e-05,-0.0019491,0.0012915,-0.081226,0.053755,-9.8692,0,0,38.412,1,1,7745,3872
5188,5.923e+07,2,-0.00014346,-0.0019667,0.00099832,-0.079417,0.054401,-9.87,0,0,38.412,1,1,7745,3872
5191,5.9232e+07,2,0.00058188,-0.0018712,0.00047775,-0.077005,0.055136,-9.8712,0,0,38.412,1,1,7745,3872
5222,5.9235e+07,2,0.0010526,-0.0014738,-0.0009799,-0.076903,0.054824,-9.8697,0,0,38.412,1,1,7745,3872
5225,5.9237e+07,2,0.0006558,-0.00066224,-0.00097815,-0.07767,0.054798,-9.865,0,0,38.412,1,1,7745,3872
5228,5.9239e+07,2,0.00043794,-0.0001957,-0.00057138,-0.078715,0.055563,-9.8605,0,0,38.412,1,1,7745,3872
5231,5.9242e+07,2,0.00058928,-0.00018139,0.00028718,-0.079603,0.058124,-9.8548,0,0,38.412,1,1,7745,3872
5262,5.9244e+07,2,0.00049834,-0.0007463,0.00073623,-0.078428,0.059672,-9.8484,0,0,38.412,1,1,7745,3872
5267,5.9248e+07,2,-0.00022911,-0.00067682,0.00070683,-0.076473,0.060384,-9.8465,0,0,38.412,1,1,7745,3872
5270,5.925e+07,2,-0.0011008,-0.00013012,0.00092271,-0.074688,0.060359,-9.8474,0,0,38.412,1,1,7745,3872
5273,5.9253e+07,2,-0.00068369,0.00032518,0.0011841,-0.075088,0.060623,-9.8494,0,0,38.412,1,1,7745,3872
5304,5.9255e+07,2,0.00015625,0.0008572,0.00093284,-0.075814,0.061014,-9.8559,0,0,38.412,1,1,7745,3872
5307,5.9257e+07,2,-0.00072204,0.001132,-0.00094784,-0.076188,0.062274,-9.8683,0,0,38.412,1,1,7745,3872
5314,5.9261e+07,2,-0.0012602,0.00096741,-0.00077121,-0.076772,0.063611,-9.8744,0,0,38.412,1,1,7745,3872
5317,5.9262e+07,2,-0.00087916,0.00070947,-0.0010942,-0.078798,0.064533,-9.8778,0,0,38.412,1,1,7745,3872
5348,5.9266e+07,2,-0.00071542,0.00033658,-0.0011742,-0.080136,0.064609,-9.879,0,0,38.412,1,1,7745,3872
5352,5.9267e+07,2,-0.00099827,0.00068348,-5.7705e-05,-0.082193,0.064515,-9.8813,0,0,38.412,1,1,7745,3872
5355,5.927e+07,2,-0.00088023,0.0011272,0.00092577,-0.082859,0.064142,-9.8823,0,0,38.412,1,1,7745,3872
5358,5.9273e+07,2,0.00039068,0.0010753,0.00133,-0.082649,0.063584,-9.8859,0,0,38.412,1,1,7745,3872
5389,5.9275e+07,2,0.00092598,0.00013574,0.00093897,-0.081376,0.062171,-9.8884,0,0,38.412,1,1,7745,3872
5393,5.9278e+07,2,0.00040528,-0.00049149,0.00028184,-0.081022,0.061251,-9.8884,0,0,38.412,1,1,7745,3872
5397,5.928e+07,2,0.00032036,-0.0011536,0.00017277,-0.083019,0.060594,-9.886,0,0,38.412,1,1,7745,3872
5400,5.9284e+07,2,0.00095335,-0.0013749,0.00014631,-0.085939,0.060654,-9.8832,0,0,38.411,1,1,7745,3872
5431,5.9286e+07,2,0.0013392,-0.00040009,-0.00013534,-0.088866,0.061046,-9.8804,0,0,38.411,1,1,7745,3872
5434,5.9289e+07,2,0.00084987,0.00053786,0.00019656,-0.089118,0.060882,-9.8741,0,0,38.411,1,1,7745,3872
5437,5.9291e+07,2,5.1318e-05,0.00048551,2.2761e-05,-0.088693,0.059953,-9.8678,0,0,38.411,1,1,7745,3872
5440,5.9294e+07,2,0.00026224,-0.00026151,0.00019587,-0.088694,0.058271,-9.8613,0,0,38.411,1,1,7745,3872
5471,5.9297e+07,2,0.0012118,-0.001066,-0.00060065,-0.089048,0.056973,-9.8599,0,0,38.411,1,1,7745,3872
5475,5.9299e+07,2,0.0010983,-0.0016107,-0.0001972,-0.089961,0.056225,-9.8591,0,0,38.411,1,1,7745,3872
5478,5.9303e+07,2,0.00045879,-0.0016777,0.0005936,-0.091448,0.056537,-9.8585,0,0,38.411,1,1,7745,3872
5481,5.9304e+07,2,0.00032594,-0.0017089,0.0014568,-0.093115,0.057008,-9.8581,0,0,38.411,1,1,7745,3872
5512,5.9308e+07,2,-9.9325e-06,-0.0014439,0.0027518,-0.097606,0.056591,-9.8579,0,0,38.411,1,1,7745,3872
5515,5.9309e+07,2,-0.00061998,-0.00099808,0.003255,-0.10025,0.056807,-9.8572,0,0,38.411,1,1,7745,3872
5518,5.9312e+07,2,-0.0010835,-0.0010767,0.001266,-0.1012,0.058301,-9.8583,0,0,38.411,1,1,7745,3872
5521,5.9314e+07,2,-0.0011681,-0.00088417,6.7525e-05,-0.10224,0.059664,-9.8593,0,0,38.411,1,1,7745,3872
5552,5.9317e+07,2,-0.0020003,-0.00023618,-0.00071137,-0.10518,0.058525,-9.8581,0,0,38.411,1,1,7745,3872
5556,5.9319e+07,2,-0.0020503,0.00037235,-0.00084838,-0.10578,0.057123,-9.8565,0,0,38.411,1,1,7745,3872
5559,5.9321e+07,2,-0.00089686,0.0011807,-0.0002439,-0.10481,0.058433,-9.858,0,0,38.411,1,1,7745,3872
5562,5.9324e+07,2,0.00032436,0.0012627,0.00019043,-0.10347,0.059885,-9.8608,0,0,38.411,1,1,7745,3872
5593,5.9327e+07,2,0.00093027,0.00034771,0.00083014,-0.1002,0.061894,-9.8634,0,0,38.41,1,1,7745,3872
5596,5.9329e+07,2,0.0012998,5.2268e-05,-1.5492e-05,-0.098677,0.062117,-9.8646,0,0,38.41,1,1,7745,3872
5599,5.9332e+07,2,0.0018506,-0.00053294,0.00021483,-0.095377,0.061257,-9.8706,0,0,38.41,1,1,7745,3872
5602,5.9334e+07,2,0.0020293,-0.00063407,0.00040826,-0.094632,0.060259,-9.8759,0,0,38.41,1,1,7745,3872
5633,5.9336e+07,2,0.0015685,0.00019573,-0.00034285,-0.095075,0.059831,-9.8852,0,0,38.41,1,1,7745,3872
5637,5.9339e+07,2,0.0012815,0.00062245,0.00030058,-0.094403,0.059633,-9.8889,0,0,38.41,1,1,7745,3872
5640,5.9341e+07,2,0.0015509,0.00024044,0.0015903,-0.092494,0.0577,-9.8916,0,0,38.41,1,1,7745,3872
5643,5.9344e+07,2,0.0020234,-0.00027483,0.0011235,-0.090575,0.054447,-9.8912,0,0,38.41,1,1,7745,3872
5674,5.9347e+07,2,0.0017754,0.00060864,0.00075789,-0.086798,0.051602,-9.8847,0,0,38.41,1,1,7745,3872
5677,5.9349e+07,2,0.001734,0.0012336,0.0013342,-0.084438,0.052456,-9.8783,0,0,38.41,1,1,7745,3872
5680,5.9352e+07,2,0.0012377,0.0017639,0.00078608,-0.083665,0.054188,-9.8691,0,0,38.41,1,1,7745,3872
5683,5.9354e+07,2,0.001086,0.0016058,0.00089372,-0.085029,0.055049,-9.8652,0,0,38.41,1,1,7745,3872
5714,5.9357e+07,2,0.00061253,0.00070558,0.00033648,-0.088586,0.055585,-9.8635,0,0,38.41,1,1,7745,3872
5717,5.9359e+07,2,-0.00010236,0.00038972,0.00035016,-0.091061,0.05644,-9.8627,0,0,38.409,1,1,7745,3872
5724,5.9362e+07,2,-0.00085285,-0.0011101,5.4706e-05,-0.093862,0.05841,-9.8615,0,0,38.409,1,1,7745,3872
5727,5.9365e+07,2,-0.0012188,-0.0011569,-2.5674e-05,-0.098175,0.064079,-9.8594,0,0,38.409,1,1,7745,3872
5758,5.9367e+07,2,-0.00098096,-0.0010611,5.1693e-05,-0.099174,0.068308,-9.8576,0,0,38.409,1,1,7745,3872
5762,5.937e+07,2,-0.00053302,-0.0013095,-5.8796e-05,-0.10006,0.072729,-9.8537,0,0,38.409,1,1,7745,3872
5765,5.9372e+07,2,-0.00012645,-0.0010882,-2.4084e-05,-0.099563,0.073521,-9.8504,0,0,38.409,1,1,7745,3872
5768,5.9375e+07,2,0.00058104,-0.00086326,2.7337e-05,-0.09764,0.072483,-9.8475,0,0,38.409,1,1,7745,3872
5799,5.9378e+07,2,0.0010737,-0.0010741,6.5697e-05,-0.095438,0.071765,-9.8451,0,0,38.409,1,1,7745,3872
5802,5.938e+07,2,0.0015829,-0.00037026,-0.00048861,-0.093265,0.069313,-9.8433,0,0,38.409,1,1,7745,3872
5805,5.9382e+07,2,0.0025781,0.00020274,-0.00016872,-0.093301,0.066856,-9.8427,0,0,38.409,1,1,7745,3872
5809,5.9384e+07,2,0.0029225,0.00035973,-0.00011526,-0.09368,0.06448,-9.8421,0,0,38.409,1,1,7745,3872
5840,5.9387e+07,2,0.0019438,0.00013249,-8.1659e-05,-0.094017,0.064315,-9.8403,0,0,38.409,1,1,7745,3872
5844,5.9391e+07,2,0.00026061,-3.8819e-05,-0.00030056,-0.09295,0.065085,-9.837,0,0,38.408,1,1,7745,3872
5847,5.9392e+07,2,-0.00017559,0.00046616,-5.2105e-05,-0.092566,0.066232,-9.8361,0,0,38.408,1,1,7745,3872
5851,5.9394e+07,2,-4.9652e-05,0.00075426,0.00082075,-0.092519,0.067026,-9.8362,0,0,38.408,1,1,7745,3872
5884,5.9397e+07,2,-6.6635e-05,0.00083172,0.0011747,-0.092993,0.068054,-9.8358,0,0,38.408,1,1,7745,3872
5887,5.94e+07,2,-0.00061188,0.000378,0.0025284,-0.094362,0.069778,-9.8344,0,0,38.408,1,1,7745,3872
5890,5.9403e+07,2,-0.00024478,0.00042045,0.0029617,-0.095277,0.070904,-9.8352,0,0,38.408,1,1,7745,3872
5893,5.9407e+07,2,0.00085637,0.0013934,0.00072507,-0.094828,0.070251,-9.8415,0,0,38.408,1,1,7745,3872
5925,5.941e+07,2,3.2343e-05,0.001266,-8.4514e-05,-0.092586,0.069638,-9.8424,0,0,38.408,1,1,7745,3872
5928,5.9412e+07,2,0.00037668,0.00059981,3.7293e-05,-0.092303,0.068402,-9.8428,0,0,38.407,1,1,7745,3872
5931,5.9415e+07,2,0.0014299,0.00030196,4.7451e-05,-0.09365,0.064421,-9.8416,0,0,38.407,1,1,7745,3872
5934,5.9417e+07,2,0.0016133,0.0011385,-0.00036785,-0.094761,0.061308,-9.8396,0,0,38.407,1,1,7745,3872
5965,5.942e+07,2,0.0010749,0.00193,-0.00058662,-0.097117,0.05835,-9.8387,0,0,38.407,1,1,7745,3872
5969,5.9422e+07,2,0.0016342,0.002431,-0.00015301,-0.098077,0.057447,-9.8388,0,0,38.407,1,1,7745,3872
5972,5.9424e+07,2,0.0014741,0.002456,0.00015178,-0.098116,0.056275,-9.8397,0,0,38.407,1,1,7745,3872
5975,5.9427e+07,2,6.6218e-05,0.0015655,0.00063724,-0.096686,0.055018,-9.8427,0,0,38.407,1,1,7745,3872
6006,5.943e+07,2,-0.00080499,0.0011976,0.00026658,-0.094225,0.05389,-9.8486,0,0,38.407,1,1,7745,3872
6009,5.9432e+07,2,-0.0012735,0.0014377,-0.00042224,-0.093912,0.053959,-9.8515,0,0,38.407,1,1,7745,3872
6012,5.9434e+07,2,-0.0018444,0.0014044,-0.0015,-0.094565,0.053999,-9.8539,0,0,38.406,1,1,7745,3872
6015,5.9437e+07,2,-0.0011944,0.0016122,-0.0021822,-0.095363,0.053923,-9.854,0,0,38.406,1,1,7745,3872
6048,5.944e+07,2,-7.5244e-05,0.0015999,-0.0016074,-0.094661,0.05536,-9.8559,0,0,38.406,1,1,7745,3872
6053,5.9443e+07,2,0.0010806,0.001238,-0.00082735,-0.093992,0.058017,-9.8597,0,0,38.406,1,1,7745,3872
6056,5.9444e+07,2,0.0017052,0.00051277,0.0006649,-0.093465,0.060552,-9.8639,0,0,38.406,1,1,7745,3872
6059,5.9447e+07,2,0.0017877,0.0004515,0.0016778,-0.09317,0.059617,-9.8647,0,0,38.406,1,1,7745,3872
6090,5.945e+07,2,0.0011658,0.00017679,0.0015653,-0.091706,0.0574,-9.8676,0,0,38.406,1,1,7745,3872
6093,5.9452e+07,2,0.00077544,0.00032444,-0.00041964,-0.090116,0.057119,-9.8719,0,0,38.406,1,1,7745,3872
6096,5.9455e+07,2,0.00065468,0.00061845,-0.0022414,-0.087338,0.058795,-9.8769,0,0,38.406,1,1,7745,3872
6099,5.9457e+07,2,0.00057747,0.00077734,-0.002071,-0.086727,0.059702,-9.8782,0,0,38.406,1,1,7745,3872
6130,5.9459e+07,2,0.0011466,0.00086612,-0.00052252,-0.085846,0.062334,-9.8837,0,0,38.406,1,1,7745,3872
6138,5.9462e+07,2,0.0016737,0.00075389,-6.2105e-05,-0.085167,0.064802,-9.887,0,0,38.406,1,1,7745,3872
6141,5.9465e+07,2,0.0018405,-0.00032578,0.00029642,-0.085277,0.066582,-9.885,0,0,38.406,1,1,7745,3872
6144,5.9467e+07,2,0.0014868,-0.00077014,0.00012076,-0.085874,0.065775,-9.8819,0,0,38.406,1,1,7745,3872
6175,5.947e+07,2,0.0013438,-0.00086521,0.00011581,-0.087197,0.063544,-9.8804,0,0,38.406,1,1,7745,3872
6179,5.9472e+07,2,0.00071553,-0.0011669,0.00079572,-0.088145,0.061009,-9.8824,0,0,38.406,1,1,7745,3872
6182,5.9475e+07,2,0.00052187,-0.00037746,0.00062678,-0.089299,0.059269,-9.8838,0,0,38.406,1,1,7745,3872
6185,5.9478e+07,2,0.0012108,-0.00024096,0.0011326,-0.090413,0.057528,-9.8839,0,0,38.406,1,1,7745,3872
6216,5.948e+07,2,0.0011791,0.00013707,0.00089432,-0.093128,0.056508,-9.8825,0,0,38.405,1,1,7745,3872
6219,5.9483e+07,2,0.0015798,0.00037552,-0.00024799,-0.094244,0.057842,-9.882,0,0,38.405,1,1,7745,3872
6222,5.9485e+07,2,0.0020765,0.0001913,-0.00036543,-0.094123,0.058302,-9.8816,0,0,38.405,1,1,7745,3872
6225,5.9488e+07,2,0.0014657,-0.00029804,-0.0005862,-0.093546,0.060696,-9.8788,0,0,38.405,1,1,7745,3872
6256,5.9491e+07,2,0.0020709,-0.00035277,-0.00055073,-0.093481,0.062406,-9.8743,0,0,38.405,1,1,7745,3872
6260,5.9493e+07,2,0.0020584,-0.00027528,-0.00066307,-0.093657,0.063031,-9.8683,0,0,38.405,1,1,7745,3872
6265,5.9496e+07,2,0.0016856,-0.00026686,-0.00016872,-0.094452,0.063469,-9.8602,0,0,38.405,1,1,7745,3872
6268,5.9503e+07,2,0.0024782,-0.00020298,0.0026152,-0.092076,0.069456,-9.8512,0,0,38.405,1,1,7745,3872
6299,5.9506e+07,2,0.0030934,0.00013309,0.0014869,-0.095519,0.069067,-9.8534,0,0,38.405,1,1,7745,3872
6303,5.9509e+07,2,0.0026629,0.00013884,-4.4072e-05,-0.097856,0.06802,-9.8553,0,0,38.405,1,1,7745,3872
6306,5.9512e+07,2,0.0020674,0.00031233,-0.00069752,-0.098327,0.067447,-9.8568,0,0,38.405,1,1,7745,3872
6310,5.9514e+07,2,0.00083476,0.00096661,-0.0016451,-0.09803,0.068973,-9.8596,0,0,38.405,1,1,7745,3872
6341,5.9517e+07,2,0.00073429,0.0012359,-0.001325,-0.097126,0.07147,-9.8596,0,0,38.405,1,1,7745,3872
6344,5.9519e+07,2,0.0010194,0.0013901,-0.00068837,-0.094033,0.074985,-9.8617,0,0,38.405,1,1,7745,3872
6347,5.9522e+07,2,0.00032199,0.0015572,0.00010348,-0.092762,0.075334,-9.8652,0,0,38.405,1,1,7745,3872
6350,5.9524e+07,2,5.3846e-06,0.0014539,0.0010632,-0.093329,0.074118,-9.8695,0,0,38.405,1,1,7745,3872
6381,5.9527e+07,2,0.00077599,0.0019072,0.0025248,-0.096012,0.071247,-9.8782,0,0,38.405,1,1,7745,3872
6385,5.953e+07,2,0.0017806,0.0024271,0.0023698,-0.098088,0.066839,-9.886,0,0,38.405,1,1,7745,3872
6388,5.9532e+07,2,0.0017783,0.0019218,0.0021375,-0.099761,0.064434,-9.8885,0,0,38.405,1,1,7745,3872
6391,5.9534e+07,2,0.001071,0.00103,0.0024498,-0.10046,0.062111,-9.8861,0,0,38.405,1,1,7745,3872
6422,5.9537e+07,2,0.00095914,0.0010708,0.0026097,-0.1002,0.061248,-9.8817,0,0,38.405,1,1,7745,3872
6425,5.954e+07,2,0.0015231,0.0010443,0.0023341,-0.09775,0.058874,-9.8729,0,0,38.405,1,1,7745,3872
6428,5.9542e+07,2,0.0018732,0.00059902,0.0016256,-0.095712,0.05767,-9.8704,0,0,38.405,1,1,7745,3872
6431,5.9544e+07,2,0.0017639,0.00031524,0.00023918,-0.093076,0.057608,-9.8692,0,0,38.405,1,1,7745,3872
6462,5.9547e+07,2,0.0010752,0.0009424,-0.00041434,-0.091289,0.057838,-9.8676,0,0,38.405,1,1,7745,3872
6467,5.955e+07,2,0.00046229,0.00052553,-9.5424e-05,-0.089717,0.057818,-9.8664,0,0,38.405,1,1,7745,3872
6470,5.9552e+07,2,-4.1421e-05,-4.6157e-05,-4.398e-05,-0.088993,0.058435,-9.8649,0,0,38.405,1,1,7745,3872
6473,5.9555e+07,2,-0.00056739,-0.0002462,-0.00023649,-0.090103,0.06077,-9.8602,0,0,38.405,1,1,7745,3872
6504,5.9557e+07,2,-0.0017212,-0.00062364,-0.00074446,-0.090789,0.061901,-9.8539,0,0,38.406,1,1,7745,3872
6507,5.956e+07,2,-0.0016866,-0.00035096,-0.00016677,-0.092721,0.064115,-9.8459,0,0,38.406,1,1,7745,3872
6510,5.9562e+07,2,-0.0002517,0.00020442,8.1987e-05,-0.093506,0.064808,-9.8438,0,0,38.406,1,1,7745,3872
6517,5.9565e+07,2,0.00060982,0.00066863,0.0011058,-0.093255,0.064293,-9.8478,0,0,38.406,1,1,7745,3872
6548,5.9568e+07,2,0.00062315,0.0009383,0.0022705,-0.091938,0.063576,-9.8529,0,0,38.406,1,1,7745,3872
6552,5.957e+07,2,-2.7442e-05,0.0011977,0.0021023,-0.092944,0.062579,-9.8567,0,0,38.406,1,1,7745,3872
6555,5.9573e+07,2,-0.0014169,0.0020063,0.001634,-0.094387,0.059495,-9.8613,0,0,38.406,1,1,7745,3872
6558,5.9575e+07,2,-0.0022664,0.0017124,0.00090608,-0.094415,0.057583,-9.8632,0,0,38.406,1,1,7745,3872
6589,5.9578e+07,2,-0.0026154,0.0014537,-0.00027992,-0.094607,0.054349,-9.867,0,0,38.406,1,1,7745,3872
6593,5.9581e+07,2,-0.001957,0.0011126,-0.00077822,-0.095441,0.053995,-9.8695,0,0,38.407,1,1,7745,3872
6596,5.9582e+07,2,-0.00037551,7.5991e-05,-0.0010573,-0.096607,0.055881,-9.8706,0,0,38.407,1,1,7745,3872
6601,5.9585e+07,2,-0.00023814,-0.00017681,-0.0013771,-0.097648,0.058385,-9.8717,0,0,38.407,1,1,7745,3872
6632,5.9588e+07,2,-0.00034533,-1.1891e-05,-0.0020053,-0.099245,0.061635,-9.8711,0,0,38.407,1,1,7745,3872
6635,5.9591e+07,2,-0.00013284,-0.00036429,-0.0011201,-0.10029,0.063897,-9.8701,0,0,38.407,1,1,7745,3872
6638,5.9593e+07,2,-3.0541e-05,-0.0011341,0.00038115,-0.10049,0.067485,-9.8699,0,0,38.407,1,1,7745,3872
6642,5.9595e+07,2,0.00081079,-0.0011012,0.0015507,-0.099811,0.068367,-9.8681,0,0,38.407,1,1,7745,3872
6673,5.9598e+07,2,0.0017518,-0.0010807,0.001142,-0.098023,0.068347,-9.8647,0,0,38.407,1,1,7745,3872
6677,5.96e+07,2,0.0022036,-0.00099684,0.00034432,-0.097717,0.067551,-9.8622,0,0,38.407,1,1,7745,3872
6681,5.9603e+07,2,0.0034769,-0.00044328,-4.126e-05,-0.098611,0.064619,-9.8596,0,0,38.407,1,1,7745,3872
6684,5.9605e+07,2,0.0029061,-5.7028e-05,0.00023227,-0.099195,0.061778,-9.8601,0,0,38.408,1,1,7745,3872
6715,5.9607e+07,2,0.0025003,-0.0006013,0.00033199,-0.10005,0.059061,-9.8639,0,0,38.408,1,1,7745,3872
6718,5.9611e+07,2,0.0018847,-0.0012141,0.00025191,-0.10112,0.058549,-9.8663,0,0,38.408,1,1,7745,3872
6721,5.9613e+07,2,0.0014366,-0.00041886,-0.00088287,-0.10214,0.05832,-9.8678,0,0,38.408,1,1,7745,3872
6724,5.9618e+07,2,0.001051,0.00087835,-0.00039201,-0.10326,0.060212,-9.8621,0,0,38.408,1,1,7745,3872
6756,5.962e+07,2,0.00038674,0.00039971,-0.00018595,-0.10394,0.06024,-9.8608,0,0,38.408,1,1,7745,3872
6759,5.9624e+07,2,0.00020217,-0.0010172,-0.00046604,-0.10368,0.059985,-9.8586,0,0,38.408,1,1,7745,3872
6762,5.9625e+07,2,0.0016879,-0.00080141,-0.00020436,-0.10306,0.058194,-9.8547,0,0,38.408,1,1,7745,3872
6765,5.9629e+07,2,0.0025838,-0.00034735,0.00046856,-0.10349,0.056586,-9.8529,0,0,38.408,1,1,7745,3872
6796,5.9631e+07,2,0.0029229,-0.00069465,0.00050009,-0.10263,0.053688,-9.8545,0,0,38.408,1,1,7745,3872
6799,5.9634e+07,2,0.0028741,2.9415e-07,0.00038723,-0.09901,0.051142,-9.8625,0,0,38.408,1,1,7745,3872
6802,5.9636e+07,2,0.0029701,0.00098818,-0.00021624,-0.096057,0.050004,-9.8682,0,0,38.408,1,1,7745,3872
6805,5.9639e+07,2,0.003679,0.0011497,-0.0012101,-0.093666,0.048801,-9.8749,0,0,38.408,1,1,7745,3872
6836,5.9641e+07,2,0.0038963,0.0010285,-0.0019163,-0.094966,0.047743,-9.8773,0,0,38.408,1,1,7745,3872
6840,5.9644e+07,2,0.0044041,0.00038656,-0.0021527,-0.099736,0.04708,-9.8804,0,0,38.408,1,1,7745,3872
6843,5.9646e+07,2,0.0048606,8.7932e-05,-0.0010151,-0.10131,0.046609,-9.8819,0,0,38.408,1,1,7745,3872
6846,5.9649e+07,2,0.0044844,-0.00049406,-0.00032288,-0.10663,0.043626,-9.885,0,0,38.408,1,1,7745,3872
6877,5.9652e+07,2,0.00275,-0.00055492,-0.00039453,-0.10997,0.04191,-9.885,0,0,38.408,1,1,7745,3872
6880,5.9655e+07,2,0.0015121,-8.2478e-05,-0.00072138,-0.10997,0.043497,-9.8854,0,0,38.408,1,1,7745,3872
6883,5.9657e+07,2,0.00073141,-0.00050236,4.9732e-05,-0.10968,0.048885,-9.8838,0,0,38.408,1,1,7745,3872
6886,5.9659e+07,2,0.0010814,-0.0003899,0.0004303,-0.1089,0.051088,-9.8822,0,0,38.408,1,1,7745,3872
6917,5.9662e+07,2,0.0013131,0.0003689,0.00058128,-0.10708,0.051962,-9.8778,0,0,38.408,1,1,7745,3872
6920,5.9664e+07,2,0.0013133,0.0008268,0.00089023,-0.10534,0.05215,-9.8752,0,0,38.409,1,1,7745,3872
6927,5.9667e+07,2,0.0019766,0.00097467,0.00039831,-0.10317,0.053012,-9.8702,0,0,38.409,1,1,7745,3872
6930,5.9669e+07,2,0.0024188,0.0002157,-0.00039647,-0.10224,0.052832,-9.8652,0,0,38.409,1,1,7745,3872
6961,5.9672e+07,2,0.0013121,-0.0001496,-0.00094219,-0.10138,0.052251,-9.8612,0,0,38.409,1,1,7745,3872
6965,5.9674e+07,2,0.00078887,-0.0002886,-0.00082868,-0.09937,0.052488,-9.8605,0,0,38.409,1,1,7745,3872
6968,5.9676e+07,2,0.00070042,-1.5168e-05,-0.0004153,-0.097089,0.052326,-9.8604,0,0,38.409,1,1,7745,3872
6971,5.968e+07,2,0.00045683,0.0004942,-0.00023325,-0.095134,0.051051,-9.8619,0,0,38.409,1,1,7745,3872
7002,5.9682e+07,2,6.0719e-05,0.00061167,-0.00014507,-0.091718,0.050289,-9.8635,0,0,38.409,1,1,7745,3872
7005,5.9685e+07,2,-5.4987e-06,0.0011203,-0.0002026,-0.091309,0.050024,-9.863,0,0,38.409,1,1,7745,3872
7008,5.9687e+07,2,0.00063762,0.0011467,8.9639e-05,-0.091065,0.048382,-9.8637,0,0,38.409,1,1,7745,3872
7011,5.969e+07,2,0.0017914,0.00097658,0.0005624,-0.090319,0.043961,-9.8682,0,0,38.409,1,1,7745,3872
7042,5.9693e+07,2,0.00043995,0.00099097,0.00068698,-0.089565,0.039005,-9.8737,0,0,38.409,1,1,7745,3872
7046,5.9695e+07,2,-0.00068325,0.00083749,0.00099173,-0.09031,0.035808,-9.8752,0,0,38.409,1,1,7745,3872
7049,5.9698e+07,2,-0.0012882,-0.00019464,0.00091691,-0.09204,0.0328,-9.8739,0,0,38.409,1,1,7745,3872
7052,5.97e+07,2,-0.0013626,-0.00061403,0.00060695,-0.09313,0.031762,-9.8712,0,0,38.409,1,1,7745,3872
7083,5.9704e+07,2,-0.0012184,0.00051101,0.00058653,-0.093916,0.03253,-9.866,0,0,38.409,1,1,7745,3872
7087,5.9705e+07,2,-0.00017653,0.0014551,0.00069535,-0.093074,0.035199,-9.8641,0,0,38.409,1,1,7745,3872
7091,5.971e+07,2,-0.00080171,-0.00011273,0.0012692,-0.087811,0.044098,-9.8626,0,0,38.409,1,1,7745,3872
7122,5.9714e+07,2,-0.0012669,-0.00026179,0.0009528,-0.086138,0.047083,-9.8632,0,0,38.409,1,1,7745,3872
7125,5.9715e+07,2,-0.0018909,0.0002405,0.00031088,-0.08503,0.050213,-9.8636,0,0,38.409,1,1,7745,3872
7129,5.9718e+07,2,-0.00065921,0.00055784,-0.00056864,-0.085699,0.05571,-9.863,0,0,38.41,1,1,7745,3872
7132,5.972e+07,2,0.00016251,0.00049003,-0.00056988,-0.086539,0.059917,-9.8636,0,0,38.41,1,1,7745,3872
7163,5.9723e+07,2,0.00072762,0.00068165,0.00038393,-0.088067,0.063212,-9.8659,0,0,38.41,1,1,7745,3872
7167,5.9726e+07,2,0.00054149,0.00040714,0.00065447,-0.089945,0.063431,-9.865,0,0,38.41,1,1,7745,3872
7170,5.9727e+07,2,-0.00020861,0.00023131,0.00070962,-0.092886,0.064514,-9.8638,0,0,38.41,1,1,7745,3872
7173,5.973e+07,2,0.00014664,0.0002577,0.00092951,-0.095489,0.064019,-9.8676,0,0,38.41,1,1,7745,3872
7204,5.9733e+07,2,4.4684e-05,0.00011812,0.0012493,-0.098166,0.062925,-9.8716,0,0,38.41,1,1,7745,3872
7207,5.9735e+07,2,-0.0011018,-0.00076952,0.001108,-0.098096,0.06322,-9.8714,0,0,38.41,1,1,7745,3872
7210,5.9738e+07,2,-0.0011406,-0.0010898,0.00040431,-0.097728,0.063518,-9.8712,0,0,38.41,1,1,7745,3872
7213,5.974e+07,2,-0.00069019,-0.0013163,0.00015043,-0.096075,0.065052,-9.8712,0,0,38.41,1,1,7745,3872
7244,5.9743e+07,2,-0.00053095,-0.00092984,-0.00014543,-0.095126,0.065937,-9.869,0,0,38.41,1,1,7745,3872
7248,5.9746e+07,2,0.00098513,0.00050307,-0.0015536,-0.092992,0.065605,-9.8648,0,0,38.41,1,1,7745,3872
7251,5.9748e+07,2,0.0014699,0.00063196,-0.00107,-0.091649,0.064733,-9.8622,0,0,38.41,1,1,7745,3872
7254,5.9751e+07,2,0.0013166,0.00010635,-0.00024169,-0.092324,0.063595,-9.8614,0,0,38.41,1,1,7745,3872
7285,5.9753e+07,2,0.0011412,0.00038187,3.0932e-05,-0.093825,0.062465,-9.8623,0,0,38.41,1,1,7745,3872
7289,5.9755e+07,2,0.00032023,0.00027697,-0.00045573,-0.095166,0.061592,-9.8635,0,0,38.41,1,1,7745,3872
7292,5.9758e+07,2,-0.00026037,0.00068896,-0.00073088,-0.095717,0.062243,-9.8644,0,0,38.41,1,1,7745,3872
7295,5.9761e+07,2,-0.00025631,0.0014361,0.00015215,-0.09455,0.064993,-9.8675,0,0,38.41,1,1,7745,3872
7326,5.9763e+07,2,0.00010901,0.0014419,0.0010927,-0.091957,0.066399,-9.8684,0,0,38.41,1,1,7745,3872
7330,5.9766e+07,2,0.00082675,0.00098109,0.0016597,-0.088144,0.066387,-9.8669,0,0,38.41,1,1,7745,3872
7337,5.9769e+07,2,0.00042943,-5.2192e-06,0.0010479,-0.086367,0.066048,-9.8646,0,0,38.41,1,1,7745,3872
7340,5.977e+07,2,-0.00053971,-0.00052576,-0.00060052,-0.084168,0.06517,-9.8623,0,0,38.41,1,1,7745,3872
7371,5.9773e+07,2,-0.00039758,0.00012249,-0.0015678,-0.081729,0.064926,-9.858,0,0,38.41,1,1,7745,3872
7375,5.9775e+07,2,0.00020037,0.00073406,-0.0016245,-0.079525,0.064846,-9.8521,0,0,38.41,1,1,7745,3872
7378,5.9778e+07,2,0.00087105,0.0012133,-0.0014924,-0.079572,0.063055,-9.8495,0,0,38.41,1,1,7745,3872
7381,5.9781e+07,2,0.0020391,0.0010196,-0.00074527,-0.082771,0.062343,-9.8475,0,0,38.41,1,1,7745,3872
7412,5.9783e+07,2,0.0028138,0.00052724,-0.00059914,-0.085797,0.06276,-9.847,0,0,38.41,1,1,7745,3872
7415,5.9786e+07,2,0.0030042,-1.2713e-05,-0.00084466,-0.090425,0.062208,-9.8481,0,0,38.41,1,1,7745,3872
7418,5.9788e+07,2,0.0029956,-0.00044008,-0.001338,-0.092853,0.060627,-9.851,0,0,38.41,1,1,7745,3872
7423,5.9791e+07,2,0.0030375,0.00050261,-0.0030801,-0.094363,0.058916,-9.8565,0,0,38.41,1,1,7745,3872
7455,5.9794e+07,2,0.0025923,0.00099633,-0.0023127,-0.094929,0.056026,-9.8621,0,0,38.41,1,1,7745,3872
7459,5.9796e+07,2,0.0020396,0.00079792,-0.0020032,-0.096432,0.054406,-9.8639,0,0,38.41,1,1,7745,3872
7463,5.9798e+07,2,0.0015075,0.0007803,-0.0015602,-0.098288,0.053409,-9.8657,0,0,38.41,1,1,7745,3872
7466,5.9802e+07,2,0.0010987,0.00070988,-0.0022508,-0.098581,0.053792,-9.8653,0,0,38.41,1,1,7745,3872
7497,5.9805e+07,2,0.0015774,-0.00011921,-0.001408,-0.097267,0.054177,-9.8641,0,0,38.41,1,1,7745,3872
7500,5.9806e+07,2,0.0025078,-2.3705e-05,-0.0003347,-0.093214,0.054239,-9.8629,0,0,38.41,1,1,7745,3872
