TimeUS,RPM,Curr,DesRoll,Roll,DesPitch,Pitch,DesYaw,Yaw,GyrX,GyrY,GyrZ,AccX,AccY,AccZ,Guasto
0,3896,3.19,-0.1,-0.87,-0.66,1.73,19.79,20.02,0.02622692,-0.1136154,0.03809478,0.4068926,0.4881375,-10.61244,2
111984,5342,3.73,-0.7,-0.05,-1.01,1.0,19.8,20.02,0.1057615,-0.2212881,0.0250845,0.2652585,0.5998876,-11.39883,2
228418,5931,3.46,-1.49,0.43,-1.76,-0.76,19.81,20.7,0.048252,-0.2629353,0.151144,0.5218687,1.025952,-11.68115,2
337860,6114,3.42,-2.48,0.28,-1.84,-2.67,19.81,21.96,-0.08682612,-0.1604259,0.248172,-0.4691143,0.4042445,-11.09648,2
441908,6122,3.68,-3.54,-0.21,-1.4,-3.43,19.79,23.71,-0.0562061,-0.07315103,0.3057234,0.02755471,0.8939866,-10.49262,2
550876,6231,4.17,-4.72,-0.54,-0.74,-3.44,19.74,25.64,0.03752086,0.02480482,0.3001933,-0.03693152,0.6622003,-10.43922,2
662759,6311,4.2,-5.78,-1.37,-0.22,-2.58,19.45,27.26,-0.05702938,0.1800982,0.2302328,-0.1930816,0.6712595,-10.10705,2
777517,6505,4.86,-7.01,-2.81,-0.09,-1.46,17.7,28.35,-0.3468084,0.1003481,0.118064,0.1530631,0.8100133,-9.813096,2
887176,6712,4.86,-7.93,-3.72,-0.32,-0.8,15.52,28.63,-0.1266105,0.08623171,0.001937516,0.2652124,0.5380509,-9.899503,2
991461,6704,5.17,-8.51,-4.45,-0.94,-0.5,12.19,28.01,-0.1463261,0.08775585,-0.1752019,0.128419,0.7607932,-9.997381,2
1101157,6831,5.02,-8.81,-5.18,-1.56,-0.33,9.42,26.37,-0.06087366,0.1327023,-0.3033189,-0.1065452,0.9359135,-9.625406,2
1216205,7080,5.2,-8.99,-5.66,-2.13,-0.47,7.52,23.83,-0.2635396,-0.07421579,-0.4368229,0.03765322,0.6205311,-9.660166,2
1317637,7029,4.4,-8.86,-5.78,-2.22,-0.85,7.45,21.26,0.03022733,0.01604251,-0.4038665,-0.3173944,1.156059,-10.04246,2
1423647,6754,4.08,-8.81,-5.55,-2.18,-1.15,7.44,18.88,0.03022569,0.05380481,-0.3512794,-0.2937161,1.208903,-9.804562,2
1539990,6537,4.1,-9.0,-5.38,-2.18,-1.35,7.44,16.87,0.07422454,0.02608325,-0.2730646,0.1034645,1.241188,-9.583915,2
1659073,6486,3.93,-9.38,-5.83,-2.25,-1.23,7.45,15.27,-0.1474435,0.07702654,-0.2226799,-0.2173216,1.306771,-9.663719,2
1763146,6512,4.45,-9.87,-5.96,-2.35,-1.4,7.47,14.26,0.1058517,-0.1344232,-0.1360387,-0.2057171,0.9789596,-9.530547,2
1876015,6640,4.22,-10.2,-6.52,-2.37,-1.81,7.47,13.64,-0.1764343,-0.01356335,-0.1086671,-0.2642086,1.068831,-9.627753,2
1973170,6631,4.51,-10.33,-7.1,-2.7,-1.66,7.53,13.21,-0.151411,0.04865158,-0.09255075,-0.446559,1.226938,-10.03657,2
2190778,6714,4.66,-10.3,-6.45,-3.14,-1.46,7.61,13.18,0.2068917,0.02916331,0.01211548,-0.5261399,0.9481666,-10.48352,2
2301214,6715,4.33,-10.19,-6.39,-3.25,-1.28,7.63,13.64,-0.1517162,-0.06410956,0.0440295,-0.05734429,1.044544,-9.868894,2
2405506,6724,4.53,-10.26,-6.96,-3.58,-0.99,7.69,13.97,-0.07923481,0.01136784,0.04243115,-0.3066171,1.484808,-9.772813,2
2515303,6655,4.57,-10.36,-8.02,-3.95,-1.16,7.76,14.26,-0.1046972,-0.0440628,0.006632585,-0.01600317,1.352645,-9.741328,2
2635941,6628,4.28,-10.2,-8.98,-4.5,-1.5,7.86,14.42,-0.2268166,-0.1073265,-0.06370716,-0.405549,1.154127,-9.587069,2
2733944,6742,5.19,-9.8,-9.53,-4.91,-2.35,7.93,14.5,-0.1147077,-0.2437716,-0.01664932,-0.06035789,1.505415,-9.443617,2
2843266,6768,5.27,-9.46,-8.34,-5.05,-3.36,7.96,14.48,0.279319,-0.06304058,-0.04818331,-0.5377689,1.120951,-10.42079,2
2949084,6903,4.37,-8.88,-7.46,-4.96,-3.42,7.94,14.11,0.1017195,0.01610921,-0.06023585,-0.4255714,1.254055,-9.919288,2
3058186,6716,4.52,-8.55,-7.11,-4.73,-3.01,7.91,13.6,-0.003936799,0.01434946,-0.033811,-0.4237154,1.235473,-9.861712,2
3178614,6872,4.53,-8.59,-6.98,-4.83,-2.97,7.92,13.1,0.04412711,0.005181867,-0.05865007,-0.5473402,1.768619,-9.992993,2
3286786,6726,3.98,-8.54,-7.5,-5.11,-3.19,8.63,13.2,-0.1874784,0.09533421,-0.1088757,-0.4337684,1.137242,-9.329649,2
3396725,6483,3.94,-8.18,-7.99,-5.36,-3.14,8.67,12.1,-0.0634522399999999,-0.04860051,-0.1095044,-0.245639,1.323115,-8.533482,2
3507160,6446,3.59,-7.83,-8.47,-5.73,-3.06,8.72,11.42,-0.07629398,-0.0993796,-0.1664341,-0.179591,1.616787,-8.750053,2
3617658,6308,3.98,-7.61,-8.29,-6.64,-4.11,8.85,11.48,-0.1332656,-0.3307915,-0.1387432,-0.5458017,1.367046,-9.039302,2
3730074,6264,3.69,-7.23,-7.97,-7.22,-6.11,8.92,10.63,0.004061848,-0.1299441,-0.05402049,-0.80057,1.361837,-9.462519,2
3834324,6337,3.71,-6.94,-7.95,-6.85,-6.69,8.88,9.76,-0.0994966,0.1685111,0.02185411,-0.7073899,1.239524,-9.189288,2
3948013,6246,3.66,-6.41,-7.93,-6.05,-5.54,8.78,9.65,-0.02954246,0.308986,0.06973608,-0.7928056,1.29225,-9.504448,2
4052771,6300,4.1,-5.9,-7.45,-5.35,-4.57,8.71,10.1,0.1242464,0.1376191,0.1178168,-0.4968623,1.41371,-9.65277,2
4162302,6447,4.19,-5.29,-5.45,-4.81,-3.71,8.65,11.08,0.2081681,0.05331217,0.1197348,-0.4741917,0.9515048,-9.825873,2
4275886,6574,4.36,-4.91,-3.87,-4.6,-3.35,8.63,11.91,0.124367,-0.02421143,0.05067711,-0.3140513,1.165903,-9.770293,2
4375495,6615,4.17,-5.3,-2.89,-4.59,-3.8,8.63,12.36,0.1129076,-0.1619864,0.08481363,-0.1861498,1.316484,-9.628497,2
4494005,6618,4.09,-6.17,-3.15,-4.45,-4.69,8.62,12.9,-0.06449051,-0.1363576,0.05337704,-0.4460202,1.195616,-9.626279,2
4602442,6392,3.54,-7.02,-4.6,-4.27,-4.93,8.6,13.44,-0.4191593,-0.0137187,0.06141695,-0.3190085,1.31022,-9.170221,2
4706188,6468,3.94,-7.57,-6.51,-3.95,-4.37,8.56,13.4,-0.3576432,0.05871638,0.05858095,-0.358997,1.365956,-8.970695,2
4927750,6443,3.76,-6.79,-7.09,-2.94,-2.41,8.43,12.51,0.1450648,0.1631917,-0.0301696,-0.4197091,1.334443,-9.477335,2
5027411,6484,4.33,-5.84,-5.99,-2.61,-1.81,8.39,12.44,0.293764,0.009560274,0.02490528,-0.07117344,1.771137,-9.175383,2
5139449,6442,4.42,-5.42,-4.31,-2.33,-1.65,8.36,12.6,0.2487866,0.01147718,0.03492333,-0.340467,1.372458,-9.60274,2
5258400,6493,4.04,-5.55,-3.83,-2.14,-1.92,8.34,12.96,-0.05594724,-0.02853959,0.04210819,-0.1874668,1.318395,-9.076435,2
5372870,6621,4.11,-6.22,-4.39,-2.04,-2.18,8.33,13.16,0.1694009,0.04357887,0.02216433,-0.3562045,1.181134,-9.466484,2
5479792,6668,4.22,-6.76,-5.74,-2.01,-1.92,8.33,13.23,-0.1677976,0.03467108,0.0194517,-0.4281201,1.601928,-9.698483,2
5591743,6511,4.19,-7.03,-6.61,-1.76,-1.52,8.3,13.2,0.1163616,0.03470411,0.02581805,-0.6501323,1.700346,-9.452867,2
5694975,6698,4.36,-7.14,-6.83,-1.65,-1.06,8.29,13.21,0.02308642,0.08457144,0.02078124,-0.01929942,1.340416,-9.907149,2
5806616,6545,4.19,-7.18,-6.98,-1.73,-0.97,8.3,13.29,-0.0117094,-0.005463499,0.02294532,-0.515826,1.601819,-9.788025,2
5920022,6700,4.47,-7.29,-6.89,-1.89,-1.07,8.32,13.28,-0.0216374,-0.09788962,0.0358459,0.007697162,1.069346,-9.574911,2
6016161,6706,4.51,-7.4,-6.82,-1.95,-1.34,8.32,13.2,0.001699504,-0.09411135,0.03611052,-0.3401611,1.344967,-9.859164,2
6116818,6797,4.4,-7.41,-7.01,-1.98,-1.21,8.33,13.12,0.01406092,0.02449615,0.01209787,-0.3412075,1.320302,-9.688095,2
6234992,6655,4.47,-7.29,-7.31,-2.14,-0.67,8.35,13.09,0.0009845943,0.04330824,0.02609486,-0.1053616,1.198866,-9.667035,2
6350010,6745,4.35,-7.16,-6.9,-2.32,-0.92,8.37,13.02,0.2493778,-0.0830636399999999,-0.04790968,-0.644136,1.44065,-10.07455,2
6455445,6677,4.08,-7.02,-7.03,-2.67,-1.36,8.41,12.86,-0.02142069,-0.07707005,-0.09744164,-0.5438694,1.240622,-9.701187,2
6561283,6607,4.23,-7.11,-7.38,-3.13,-1.8,8.47,12.29,-0.09650824,-0.001997842,-0.06091714,-0.5595851,1.324448,-9.498182,2
6770796,6557,4.37,-6.99,-7.5,-3.89,-2.63,8.57,12.01,0.05408875,-0.09767155,-0.05219611,-0.2849142,1.232251,-9.521989,2
6888745,6634,4.41,-7.41,-7.53,-4.21,-2.95,8.61,11.98,-0.02786385,0.03270857,-0.06099316,-0.6701087,0.8255389,-9.473377,2
7105531,6562,4.23,-9.86,-10.32,-3.97,-2.71,8.56,11.52,-0.2770864,0.1637963,0.0003532556,-0.6738348,1.124927,-9.940517,2
7215795,6677,4.2,-10.4,-11.72,-4.2,-2.35,8.6,11.42,-0.20241,-0.08197391,0.04249966,-0.1888752,1.522719,-9.121121,2
7331980,6606,4.37,-10.19,-11.5,-4.75,-3.08,8.71,11.8,0.08482438,-0.1370597,0.05862837,-0.5472073,1.154012,-10.3491,2
7444644,6662,4.48,-9.64,-10.61,-5.24,-3.96,8.79,12.3,0.1609723,-0.1200327,0.05725814,-0.5811545,1.380363,-9.920544,2
7544304,6695,4.63,-9.28,-9.62,-5.42,-4.45,8.82,12.73,0.02751884,-0.0317133,0.08027389,-0.3500299,1.25734,-10.05347,2
7656214,6665,4.19,-8.78,-8.9,-4.6,-4.02,8.69,13.02,0.04409807,0.08884416,0.04376035,-0.4931275,1.291541,-10.02209,2
7759012,6737,4.78,-8.15,-8.08,-3.71,-3.22,8.56,12.74,0.2245828,0.09207702,0.05326894,-0.6306767,1.256208,-9.975113,2
7975108,6644,4.33,-7.91,-7.48,-1.34,-1.02,8.22,12.34,-0.003328986,0.1107081,0.0153985,-0.2176041,1.500647,-9.91041,2
8090624,6708,4.38,-7.8,-7.21,-0.44,-0.52,8.1,12.39,0.1172715,0.01142946,0.01910205,-0.349001,1.306111,-9.391614,2
8202233,6657,4.21,-7.58,-7.14,0.32,0.09,8.0,12.5,0.02656727,0.06767802,-0.03287414,-0.1489249,1.357311,-9.527566,2
8300050,6654,4.44,-7.58,-6.99,0.98,0.57,7.91,12.47,0.04151433,0.08794499,-0.006703356,-0.2754775,1.140457,-10.09966,2
8636868,6614,4.55,-7.84,-7.01,2.11,2.35,7.76,12.06,-0.09751604,-0.01489532,0.03553327,-0.2985401,1.030132,-10.17189,2
8749061,6666,4.23,-7.9,-7.16,1.88,2.23,7.79,11.7,0.02999036,-0.03201361,-0.02314155,-0.2117723,1.0557,-10.0379,2
8858230,6755,4.26,-8.03,-7.44,1.99,1.84,7.77,11.55,-0.07957292,-0.02326586,0.03619495,-0.3916345,1.448873,-10.00401,2
8964833,6729,4.25,-8.12,-7.72,2.33,1.83,7.72,11.5,0.03465007,-0.02356458,-0.004939593,0.08432847,1.486943,-9.690807,2
9074246,6614,4.46,-7.98,-7.98,2.56,1.92,7.69,11.61,0.01626159,-0.04009778,-0.01681096,0.2301276,1.330291,-9.555604,2
9287624,6490,4.54,-7.75,-7.18,3.11,1.94,7.62,11.61,0.02488701,0.07267711,0.04214019,0.11704,1.370021,-9.784778,2
9501015,6657,4.45,-7.9,-7.16,3.59,2.69,7.55,11.56,0.1937972,-0.06040806,0.06708762,0.3121116,1.551771,-9.551516,2
9608302,6657,4.48,-7.99,-6.98,3.98,2.25,7.5,12.0,0.2101963,-0.03221346,0.05483456,-0.1432065,1.121059,-9.823181,2
9719791,6665,4.22,-8.01,-7.15,4.44,2.14,7.43,12.33,0.02279456,0.0875475899999999,0.09092582,-0.417372,1.086017,-9.66379,2
9828637,6569,3.96,-8.16,-8.17,4.83,2.65,7.37,12.52,-0.1584768,0.08116412,0.03944645,0.0841287,1.574871,-9.270932,2
9939269,6373,4.47,-8.23,-9.02,5.28,3.79,7.31,12.75,-0.2562072,0.2117327,0.06511538,0.02107655,1.520446,-9.56939,2
10052240,6607,4.53,-7.78,-8.58,5.24,4.64,7.31,12.86,0.2028832,0.1529582,-0.01126615,0.09167901,1.734566,-9.791729,2
10153636,6666,4.54,-6.97,-7.32,4.31,4.17,7.43,12.58,0.2326759,-0.1942649,-0.09007486,0.1214836,1.560497,-9.98652,2
10256464,6757,4.48,-6.42,-6.14,3.29,2.91,7.55,12.21,0.1063121,-0.2104079,-0.07766421,0.02022043,1.354142,-10.32473,2
10364986,6769,4.29,-6.15,-5.31,2.08,1.28,7.69,11.8,-0.0672904,-0.2247133,-0.0589347,-0.3020316,1.215839,-9.148555,2
10472840,6655,4.23,-6.03,-5.7,0.72,0.41,7.83,11.42,-3.993376e-06,-0.2353613,-0.08196215,-0.03632493,1.497839,-9.500284,2
10579525,6614,4.26,-6.03,-5.9,-0.58,-0.75,7.97,11.22,-0.005639565,-0.1960222,-0.08680905,-0.2496464,1.241838,-9.941672,2
10688213,6628,4.36,-5.91,-5.84,-1.4,-1.77,8.06,11.13,0.0672228899999999,-0.1095736,-0.02201839,-0.139687,1.340779,-9.459689,2
10799633,6646,4.67,-5.77,-5.37,-2.0,-2.23,8.12,11.05,-0.01119399,-0.03397629,-0.01094749,-0.07756025,1.130789,-10.49465,2
10912396,6793,4.21,-5.61,-5.26,-2.27,-2.29,8.15,10.97,-0.121605,0.0859921399999999,0.002333465,0.07125496,1.35935,-9.718389,2
11022445,6600,4.25,-5.68,-5.13,-2.47,-2.33,8.16,10.89,-0.03462094,-0.05680462,0.00675175,-0.3831353,1.12877,-10.21007,2
11122369,6600,4.41,-5.69,-5.35,-2.64,-2.37,8.18,10.87,-0.0329875,0.01238501,0.02282773,-0.03144323,1.342154,-9.777295,2
11245329,6619,4.25,-5.81,-5.57,-2.79,-2.62,8.2,10.92,-0.008039648,-0.04602907,-0.04817539,0.2065919,1.443616,-9.812751,2
11342449,6694,4.51,-6.06,-5.88,-2.73,-2.51,8.19,10.91,-0.02554962,0.1166139,-0.006184706,-0.08680611,1.519811,-9.591489,2
11457787,6600,4.64,-6.41,-5.96,-2.64,-2.35,8.18,10.73,0.02223664,0.1403835,-0.07884832,-0.1055284,1.695714,-10.07051,2
11554932,6752,3.93,-6.58,-5.78,-2.95,-2.1,8.22,10.5,-0.02370874,0.007671781,0.02573298,-0.1231929,1.738825,-10.0287,2
11673268,6623,3.74,-5.89,-6.23,-4.72,-3.51,8.41,10.29,0.02853305,-0.2816814,-0.09366357,-0.0724185,1.050012,-9.146637,2
11771190,6369,4.4,-4.71,-6.33,-7.19,-6.05,8.64,10.51,0.1481072,-0.4739765,-0.005260812,-0.5059054,1.555442,-9.422347,2
11886005,6347,4.83,-3.89,-3.96,-9.47,-9.16,8.81,10.69,0.3594413,-0.4067861,-0.06226378,-0.2951677,1.29371,-10.51316,2
12102277,6638,4.41,-3.97,-3.27,-9.2,-9.7,8.8,10.74,-0.1363737,0.1810843,0.03571139,0.1438925,1.286536,-9.800571,2
12209309,6485,4.0,-4.63,-4.6,-8.14,-8.2,8.72,11.15,-0.1754419,0.2199429,0.07321128,-0.4518272,1.338647,-9.240044,2
12324966,6501,4.35,-5.1,-5.88,-7.34,-6.6,8.65,11.29,-0.126353,0.2138102,0.02318813,-0.01895722,1.317858,-9.657861,2
12541832,6524,4.44,-5.28,-5.87,-6.38,-4.88,8.56,11.67,-0.08332377,0.0241785,-0.006790194,-0.1474746,1.214458,-9.742604,2
12641482,6756,4.72,-5.39,-5.52,-6.24,-4.7,8.54,11.88,0.06501891,0.0468909,-0.003042849,-0.3466265,1.306882,-9.950002,2
12753805,6725,4.62,-5.59,-5.31,-6.05,-4.77,8.53,11.78,-0.02686389,-0.0467109,-0.03444986,-0.1044684,1.094141,-9.958013,2
12866846,6687,4.33,-5.81,-5.44,-5.67,-4.72,8.49,11.67,-0.13169,0.1493694,-0.01012648,-0.5617748,1.039805,-9.968572,2
12975274,6730,4.71,-7.15,-6.39,-5.0,-4.22,8.41,11.9,-0.3099894,0.1816545,-0.001872932,-0.2664463,0.7432837,-9.73371,2
13079994,6750,4.49,-8.91,-8.86,-4.16,-2.9,8.29,11.8,-0.2636358,0.1536189,0.0221299,-0.2456384,1.150787,-8.97757,2
13188633,6674,4.6,-10.13,-10.87,-3.43,-1.68,8.17,11.13,-0.1124836,0.1946078,-0.00468597,-0.2927602,1.387333,-8.741363,2
13404586,6715,4.4,-10.42,-11.52,-3.24,-1.59,8.14,11.01,0.08527435,-0.1508843,-0.03072001,-0.222453,1.531798,-9.991077,2
13621271,6784,4.27,-9.35,-9.69,-3.24,-2.4,8.14,10.77,0.1462991,0.1188791,0.02444378,-0.1222412,0.9997986,-9.564782,2
13733226,6695,4.53,-9.16,-9.5,-3.02,-2.12,8.1,10.55,0.0006403637,0.06259067,-0.04032943,-0.3709209,1.188263,-9.514295,2
14059308,6631,4.63,-7.71,-8.04,-2.96,-2.36,8.09,9.91,0.1069685,-0.05104725,-0.02630849,-0.3614305,1.352757,-10.01878,2
14166810,6725,4.38,-7.19,-7.05,-3.04,-2.21,8.1,9.77,0.007280977,0.07009419,-0.004428765,-0.2201138,1.159458,-9.756317,2
14272857,6708,4.62,-7.69,-7.13,-3.06,-2.03,8.1,9.84,-0.1931794,0.09689493,0.02747376,-0.2363549,0.7005275,-9.979614,2
14374821,6775,4.05,-8.17,-8.26,-2.49,-1.9,8.02,10.01,-0.1277585,0.1070179,0.0721801,-0.3702863,1.316109,-9.645852,2
14494038,6591,4.54,-7.76,-8.4,-1.99,-1.23,7.95,10.15,0.0216703,0.1043816,0.04015342,-0.06298801,1.216865,-9.805518,2
14602915,6662,4.42,-7.11,-7.7,-1.26,-0.91,7.86,10.13,0.0695147,0.03592771,0.02212166,-0.266283,1.125298,-9.839017,2
14719719,6691,4.33,-6.07,-6.35,-0.28,-0.23,7.74,10.02,0.1367398,0.1303849,-0.01344125,-0.143575,1.48046,-9.694597,2
14818732,6349,4.17,-5.64,-5.33,0.41,0.59,7.67,9.77,0.1713276,0.1590728,-0.09466133,-0.496571,1.451691,-9.581591,2
14930657,6712,4.27,-5.29,-5.26,1.19,1.65,7.6,9.33,-0.09973665,0.1954504,-0.0447567,0.06911419,1.506084,-9.238407,2
15041256,6598,4.14,-5.25,-5.03,1.67,1.95,7.55,8.83,0.04405039,-0.06396473,-0.08526561,-0.2162179,1.402492,-9.595699,2
15145731,6463,3.9,-5.31,-5.17,2.43,2.75,7.48,8.35,0.08349358,0.2174262,-0.03820207,-0.3010672,1.54466,-9.401083,2
15256539,6586,3.95,-5.39,-5.37,3.02,3.3,7.43,7.9,-0.1044992,0.006505116,-0.09360322,-0.1337737,1.502793,-9.40366,2
15368253,6604,4.15,-5.5,-5.25,3.19,3.76,7.41,7.44,0.1620198,0.01422832,-0.04393517,0.1268555,1.414793,-9.506692,2
15476430,6473,4.39,-5.59,-5.46,3.31,3.65,7.4,7.12,0.03891002,-0.1074244,-0.07041204,-0.0941843099999999,1.346174,-9.775225,2
15586822,6510,3.86,-5.79,-5.42,3.4,3.38,7.39,6.89,-0.0308984,0.08065015,-0.04828307,-0.2184353,1.336823,-9.257502,2
15688722,6471,3.91,-5.97,-5.86,3.25,3.24,7.41,6.66,-0.1449898,-0.04098055,-0.03281373,0.03080977,1.535585,-9.606439,2
15797748,6466,4.0,-6.24,-6.16,3.05,2.64,7.43,6.53,0.0005246862,-0.1235679,-0.07457173,0.01420203,1.606681,-9.472079,2
15907796,6425,3.94,-6.56,-6.45,2.69,2.28,7.47,6.21,-0.03428675,-0.0867579099999999,-0.1111374,-0.05579878,1.655285,-9.329262,2
16007628,6407,3.86,-6.72,-6.77,2.46,1.95,7.49,5.99,-0.04467502,-0.03666906,-0.04313798,-0.1685797,1.606958,-9.73692,2
16119005,6581,3.96,-6.85,-7.05,2.12,1.55,7.53,6.06,-0.07895284,-0.09050228,0.04437866,0.176817,1.548286,-9.784486,2
16227992,6414,4.04,-6.93,-6.95,1.47,0.66,7.61,6.41,0.07932404,-0.2383283,0.04382771,0.04914425,1.481741,-9.960774,2
16663769,6416,3.99,-7.6,-7.84,1.04,0.38,7.67,7.53,-0.1543006,0.06842498,0.02999181,-0.05261769,1.576873,-9.262021,2
16774069,6531,3.68,-7.74,-8.35,0.8,0.6,7.7,7.56,-0.1195539,-0.02392755,-0.03392843,-0.209773,1.65639,-9.096804,2
16874313,6390,4.03,-7.87,-8.24,0.06,0.1,7.8,7.81,0.09938151,-0.1279628,0.03240388,0.1600562,1.492565,-8.890828,2
16994213,6496,3.92,-8.05,-8.3,-1.22,-1.32,7.98,8.24,-0.1484065,-0.2279125,0.04932652,0.02708478,1.495291,-9.069161,2
17095059,6456,4.15,-8.08,-8.5,-1.86,-2.52,8.07,8.62,-0.0385291,-0.1470712,0.04622519,-0.3841957,1.70639,-9.59729,2
17205398,6447,4.41,-8.09,-8.28,-2.03,-3.04,8.1,8.96,0.05103006,-0.0906102399999999,0.02439112,-0.1300341,1.505595,-9.788271,2
17316303,6530,4.04,-8.0,-7.92,-2.33,-3.01,8.14,9.15,0.1422221,-0.05176469,0.003649931,0.3652237,1.600088,-9.872584,2
17425304,6590,4.4,-7.85,-7.52,-3.03,-3.86,8.24,9.24,0.04305477,-0.1783568,-0.003093784,-0.3338009,1.183018,-10.38995,2
17535289,6778,4.18,-7.61,-7.3,-3.19,-4.49,8.26,9.33,0.08416788,-0.0552634,0.04004543,-0.1516591,1.350627,-9.73131,2
17655440,6565,4.42,-7.37,-7.35,-2.29,-3.36,8.14,9.45,0.06803784,0.1255622,0.0840427,0.1876192,1.251632,-9.7324,2
17755162,6659,4.48,-7.17,-7.17,-1.57,-2.34,8.05,9.51,-0.09645455,0.2707593,0.0358326,-0.1991407,1.292895,-10.09039,2
17866062,6681,4.39,-6.96,-6.62,-1.1,-1.23,7.99,9.54,0.05321353,0.08717165,0.0008634475,0.2765246,1.200204,-10.04823,2
17965470,6641,4.13,-6.88,-6.28,-0.86,-0.9,7.96,9.51,0.0874602,-0.006041704,0.02144742,0.04620962,1.088342,-9.622622,2
18085290,6602,3.99,-6.1,-6.01,-0.96,-0.61,7.97,9.32,0.1233041,0.0748566799999999,0.01060997,0.0782939899999999,1.99332,-9.472745,2
18182746,6510,4.34,-4.77,-4.56,-1.17,-0.78,7.99,8.99,0.2465255,-0.0521704,-0.07087348,0.1125037,1.811928,-9.610703,2
18297027,6707,4.16,-3.24,-1.83,-1.41,-1.09,8.01,8.64,0.4234311,0.002666479,-0.07673996,0.1257356,1.393647,-10.48391,2
18420458,6530,4.15,-1.27,0.32,-1.7,-1.43,8.02,8.32,0.4089488,0.01301186,-0.01505947,-0.02434088,1.357091,-9.336751,2
18511956,6249,4.09,-0.47,1.55,-1.96,-1.81,8.02,8.02,0.3072214,-0.2654181,-0.04956964,-0.4090123,1.73266,-10.1021,2
18624974,6393,3.74,-0.26,2.32,-2.07,-2.53,8.02,7.73,-0.06993894,-0.06249029,-0.06742177,0.18072,0.9291124,-9.665363,2
18949045,6468,4.09,-2.43,-2.61,-4.87,-4.83,8.1,8.14,-0.3460645,-0.4084966,0.04038095,-0.4184031,1.604696,-10.1227,2
19159051,6401,4.2,-3.05,-3.56,-7.99,-8.33,8.26,8.41,0.07360765,-0.06444585,0.01685027,-0.4588184,1.271418,-9.488329,2
19265173,6528,4.26,-2.92,-3.15,-8.81,-9.16,8.3,8.59,0.07044891,-0.02095659,0.03290258,-0.4156591,1.247725,-10.06124,2
19382265,6575,4.33,-3.07,-3.03,-9.26,-9.06,8.33,8.89,0.01699426,0.07279351,0.03866927,-0.1254157,1.249635,-9.968102,2
19483054,6737,4.46,-3.87,-3.22,-9.33,-8.74,8.33,9.18,-0.05019409,-0.0005709797,0.02721393,-0.06409854,1.197528,-9.927388,2
19591757,6683,4.17,-5.94,-4.91,-8.93,-7.43,8.3,9.45,-0.4134669,0.3619601,0.08263652,-0.3091737,1.221078,-9.89106,2
19693433,6654,4.62,-7.09,-7.5,-9.29,-7.1,8.34,9.91,-0.4132834,-0.03657864,0.0628708999999999,-0.347033,1.503904,-10.45101,2
19803474,6600,4.61,-7.82,-8.84,-10.59,-8.59,8.52,10.4,-0.0972236499999999,-0.2982635,0.05032736,-0.05311326,1.449388,-9.896729,2
19909779,6602,5.16,-8.92,-9.11,-11.38,-10.38,8.63,10.74,-0.04819562,-0.274628,-0.0224564,-0.4731305,1.124944,-10.1985,2
20019068,6761,4.23,-10.72,-10.72,-11.34,-10.61,8.62,10.91,-0.3678735,0.03349115,0.0274444,-0.0787738,1.145475,-9.987464,2
20139260,6845,4.74,-11.08,-12.42,-11.34,-10.42,8.62,10.91,-0.1764151,-0.0337956,0.03633118,-0.3740336,1.258406,-10.39803,2
20254164,6617,4.82,-11.1,-12.11,-11.37,-9.72,8.63,10.68,0.1630052,0.1561485,0.01699169,-0.2317615,1.637211,-9.910716,2
20351614,6645,4.64,-11.06,-11.67,-11.11,-9.47,8.58,10.44,0.08221083,0.0092844739999999,-0.0403116,-0.2385387,1.525774,-9.892161,2
20474765,6748,4.42,-10.89,-11.42,-10.86,-9.25,8.53,10.22,0.04940902,0.1146315,-0.02069383,-0.3471968,1.579348,-10.61272,2
20575378,6895,4.4,-10.5,-11.08,-10.77,-9.01,8.51,9.94,-0.009280339,0.03168127,-0.0881929199999999,-0.3681805,1.473325,-9.893437,2
20698496,6712,4.22,-9.37,-9.95,-10.33,-8.68,8.43,9.6,0.0987435,0.03408424,-0.04044054,-0.3401975,1.754286,-10.12936,2
20795799,6697,4.46,-8.45,-8.47,-9.67,-8.07,8.33,9.28,0.2583535,0.1760646,-0.03242103,-0.4307655,1.590244,-9.93875,2
20910758,6672,4.02,-7.79,-7.83,-9.05,-7.27,8.24,8.98,-0.02906262,0.09272256,-0.03247771,-0.4900807,1.445277,-10.10862,2
21010592,6797,4.27,-7.72,-7.71,-8.66,-6.71,8.18,8.73,-0.2818215,0.06096276,-0.03883453,-0.4593898,1.367861,-9.732024,2
21131151,6689,3.75,-7.62,-8.25,-8.57,-6.23,8.17,8.54,-0.1321242,-0.05605026,0.01570571,-0.294121,1.061486,-9.887082,2
21244621,6568,4.09,-7.46,-8.56,-8.64,-6.06,8.18,8.37,-0.06249988,0.05021924,-0.002470013,-0.1505393,1.194022,-9.602001,2
21342226,6464,3.86,-7.2,-8.41,-8.74,-6.51,8.19,8.2,-0.04773403,-0.1217519,-0.03194961,-0.3837382,1.75443,-9.100282,2
21451727,6525,4.1,-7.11,-8.03,-8.85,-7.05,8.21,8.03,0.07351191,-0.07892849,-0.04191982,-0.5072238,1.240927,-9.209486,2
21560372,6384,3.68,-6.99,-8.14,-8.82,-7.33,8.2,8.01,-0.09480201,-0.04731128,0.01284598,-0.5896508,1.097964,-8.813952,2
21666819,6228,3.39,-6.86,-8.5,-8.83,-6.99,8.21,7.86,0.05116367,0.075096,-0.06550981,-0.6523843,1.015594,-9.160154,2
21778387,6270,3.51,-6.45,-8.55,-8.79,-6.82,8.2,7.75,-0.0193999,0.03530708,-0.002648658,-0.332986,1.252385,-9.489633,2
21884376,6386,3.64,-6.06,-7.85,-8.7,-7.17,8.19,7.7,0.1680938,0.01491267,0.00631055,-0.4978001,0.9416553,-9.194953,2
22000292,6239,3.76,-5.28,-7.17,-8.3,-7.17,8.15,7.7,0.1340478,0.0202833,-0.01322424,-0.5938982,1.304424,-9.545039,2
22102995,6220,3.94,-4.58,-5.84,-6.89,-6.34,8.03,7.7,0.150797,0.2681575,0.03333491,-0.7478185,1.009647,-9.326283,2
22219173,6350,3.89,-4.06,-4.37,-4.86,-3.87,7.88,7.69,0.1770135,0.4174121,0.01299247,-0.7827488,0.9456179,-9.394142,2
22328200,6417,3.73,-3.95,-3.79,-3.57,-1.58,7.79,7.56,0.1015487,0.326358,-0.002672671,-0.6260065,1.314675,-9.469427,2
22435620,6315,3.57,-4.23,-4.13,-3.15,-0.27,7.76,7.31,-0.04571104,0.1011178,-0.05985923,-1.085567,1.24937,-9.629658,2
22549873,6343,3.58,-4.51,-6.04,-3.51,-0.39,7.78,7.07,-0.3757843,-0.2016777,-0.02754783,-0.7366065,1.399453,-8.962364,2
22656924,6231,4.45,-4.73,-7.19,-4.04,-1.56,7.83,7.18,-0.07499005,-0.1893837,0.01902406,-0.8232026,1.277568,-9.171488,2
22764232,6583,4.31,-4.59,-6.5,-4.58,-2.24,7.87,6.91,0.2031313,0.05226794,-0.07413067,-1.156279,1.041065,-10.11751,2
22869609,6677,3.97,-3.98,-5.59,-5.19,-2.36,7.92,6.63,0.1592214,-0.01627226,-0.02575315,-0.9250225,1.330725,-10.08984,2
22980841,6472,4.49,-3.83,-4.29,-5.37,-3.04,7.93,6.6,0.1045472,-0.08312079,0.01114902,-0.3681708,0.964102,-10.40302,2
23082368,6628,4.11,-3.9,-3.84,-5.41,-3.71,7.93,6.8,0.09814788,-0.05394194,0.03309111,-1.030587,0.9190607,-10.21993,2
23194053,6638,4.21,-4.33,-4.19,-5.22,-4.17,7.92,7.14,-0.03414334,-0.05778762,0.06111621,-1.099908,1.006838,-10.38221,2
23403083,6755,3.93,-5.49,-4.93,-1.99,-2.06,7.64,7.8,-0.1713919,0.3489638,0.0524393,-0.7446294,1.228716,-10.18291,2
23521974,6538,4.08,-6.08,-5.59,1.54,1.26,7.28,8.01,-0.08502451,0.5408561,0.0571066,-0.9908747,1.427392,-9.554853,2
23620793,6503,4.24,-6.48,-6.03,3.35,4.45,7.08,7.88,-0.1212131,0.4642323,0.02541229,-0.4133843,1.342919,-9.722556,2
23731445,6614,4.19,-6.82,-6.24,3.7,5.5,7.04,7.65,-0.04178065,-0.03946011,-0.06852067,-0.3696232,1.102771,-9.597965,2
23845644,6615,3.84,-7.03,-6.26,2.85,4.2,7.14,7.15,0.03406047,-0.3642903,-0.09476466,-0.4141102,1.170961,-9.869698,2
23952182,6611,3.99,-7.18,-6.22,1.66,2.11,7.29,6.6,-0.06587794,-0.2886839,-0.1170881,-0.6631077,0.9480616,-9.816573,2
24061731,6396,4.12,-7.29,-6.18,0.74,-0.14,7.4,6.33,-0.03340135,-0.265993,-0.06122264,-0.7733812,0.9327739,-10.06773,2
24167225,6654,3.93,-7.18,-6.78,0.16,-1.08,7.48,6.38,-0.05890871,-0.006952672,-0.002932215,-0.7240649,1.35839,-10.28587,2
24281300,6571,4.37,-7.07,-7.29,-0.11,-1.34,7.51,6.49,-0.2012173,-0.08255954,0.08560244,-0.8585687,1.47687,-9.909265,2
24391957,6589,4.49,-7.11,-7.07,-0.45,-1.6,7.56,6.75,0.08397344,-0.09116431,0.05333025,-0.3842007,1.187247,-10.56549,2
24498726,6646,4.47,-7.24,-6.36,-2.51,-3.29,7.82,7.5,0.1876293,-0.4477715,0.1103148,-0.3300542,1.046106,-10.05233,2
24612962,6723,4.39,-7.31,-6.51,-4.38,-6.1,8.06,8.51,-0.01534027,-0.405708,0.09921995,-0.6422009,0.9174757,-10.03069,2
24720985,6564,4.65,-7.46,-6.93,-5.27,-7.74,8.17,9.58,-0.1258783,-0.2175276,0.09953512,-0.3906391,1.377542,-9.913342,2
24831747,6791,5.15,-7.58,-6.9,-5.2,-7.83,8.16,10.4,0.05022304,0.02069696,0.08181226,-0.6259198,1.413821,-10.63057,2
24934956,6842,4.86,-7.46,-6.82,-4.83,-7.05,8.11,10.83,0.003599304,0.1620616,0.09141973,-0.7578156,1.686474,-10.36251,2
25059430,6906,4.84,-7.3,-6.63,-4.42,-5.5,8.06,11.13,-0.04648109,0.1064267,0.08481732,-0.3882026,1.20623,-10.47134,2
25161053,7006,5.47,-7.3,-6.47,-4.09,-4.99,8.02,11.39,0.1047007,0.02384425,0.04346816,-0.4471142,1.370631,-10.51116,2
25271388,7125,5.08,-7.38,-6.19,-3.86,-4.87,7.99,11.52,0.06964139,0.02936569,0.008294365,-0.1923379,1.407517,-10.48245,2
25377032,7070,5.0,-7.38,-6.28,-3.54,-4.83,7.95,11.49,-0.007564867,0.0296391,0.01020279,-0.7148903,1.601028,-10.91374,2
25488601,7052,5.06,-7.48,-6.22,-3.1,-4.62,7.89,11.31,-0.0006469629,0.01763333,-0.03825305,-0.4043849,1.532749,-10.98073,2
25593998,7163,4.87,-7.73,-6.39,-2.56,-4.28,7.82,11.21,-0.05340266,0.1156915,0.003784552,-0.6742837,1.368086,-10.13545,2
25694985,6899,5.1,-8.74,-7.38,-2.24,-2.92,7.77,10.87,-0.3053027,0.2797464,-0.05221073,-0.6175206,1.282041,-10.35844,2
25804415,6840,4.57,-10.57,-9.85,-2.05,-1.8,7.74,10.46,-0.5782872,0.07823328,-0.09933305,-0.4073092,1.225192,-9.325071,2
25920822,6797,4.86,-12.02,-12.9,-2.33,-1.66,7.8,9.81,-0.3038871,-0.07480434,-0.1331035,-0.4612074,1.509895,-10.11003,2
26034268,7038,4.9,-13.2,-14.48,-2.59,-1.99,7.85,9.02,-0.3655705,-0.008810538,-0.1199863,-0.6606767,1.503358,-10.10288,2
26138243,6906,4.4,-13.38,-15.54,-2.95,-1.88,7.94,8.3,-0.2571888,0.0546721,-0.03485079,-0.9025601,1.876239,-10.26917,2
26241974,6781,4.66,-13.08,-15.5,-3.21,-2.32,8.0,8.03,0.04237379,-0.02872988,0.006722072,-0.9298368,1.70031,-10.21215,2
26359825,6658,4.49,-12.45,-14.36,-3.66,-2.66,8.1,7.8,0.1454006,-0.0790323,-0.01925233,-0.6690394,1.652048,-9.885625,2
26458407,6672,4.41,-12.08,-13.14,-3.96,-2.92,8.17,7.84,0.2437942,-0.07845894,0.06488885,-0.7417353,1.743184,-9.948395,2
26564208,6712,4.15,-11.55,-12.32,-4.21,-3.73,8.22,8.03,0.1449584,-0.1655204,0.01203016,-0.5841421,1.510363,-9.617299,2
26672759,6685,4.1,-11.35,-12.19,-4.45,-4.25,8.27,8.23,-0.0144025,-0.05163148,0.005464818,-0.8704952,1.707255,-9.577161,2
26796849,6694,3.87,-10.64,-11.64,-4.44,-4.46,8.27,8.2,0.1904606,-0.0012716,0.0091258799999999,-0.7214743,1.603179,-9.452881,2
26899944,6641,4.0,-8.58,-10.34,-4.02,-4.03,8.2,7.84,0.3996056,0.2302635,-0.0815212,-0.7728712,1.754032,-9.014749,2
27006409,6628,4.16,-7.06,-7.73,-3.85,-3.31,8.18,7.27,0.3121099,0.1747057,-0.06889573,-0.9433476,1.445161,-9.626594,2
27119431,6632,3.66,-6.29,-5.86,-3.94,-3.03,8.19,6.93,0.1423549,0.007537155,-0.02018871,-0.5836416,1.314573,-9.337242,2
27224786,6524,3.29,-6.07,-5.67,-4.1,-3.64,8.2,6.73,-0.1621396,-0.02963516,-0.005267566,-0.5573831,1.156984,-8.829657,2
27327273,6480,3.58,-6.16,-6.06,-4.41,-4.22,8.24,6.42,-0.1352202,-0.09092561,-0.04288913,-0.4983362,1.317607,-8.859598,2
27450792,6221,3.49,-6.18,-6.7,-4.71,-4.78,8.27,6.22,-0.1142076,-0.002104605,-0.02770617,-0.8904989,1.406577,-8.826985,2
27553213,6296,3.4,-6.1,-7.07,-4.92,-4.97,8.29,6.21,-0.05666449,0.03705971,-0.001469904,-0.5606596,1.337072,-8.735858,2
27658297,6255,3.83,-6.02,-6.92,-4.8,-5.41,8.28,6.35,0.1809975,-0.03418625,-0.01243215,-0.9405012,1.317616,-9.179579,2
27771631,6216,3.7,-5.87,-6.58,-4.76,-5.22,8.27,6.56,0.09786292,-0.02442139,0.05934611,-0.6260641,1.418991,-8.241381,2
27877144,6061,3.77,-5.72,-6.29,-4.62,-4.93,8.26,6.74,-0.03404526,0.07094707,0.01182412,-0.7000163,1.344252,-9.184338,2
27995049,6161,3.29,-4.71,-5.86,-4.08,-3.72,8.21,7.01,-0.005442102,0.1633765,0.09225272,-0.3484529,1.304083,-8.769672,2
28096525,6227,3.82,-3.26,-5.65,-4.01,-3.87,8.2,7.27,0.08233909,-0.1308277,0.06037259,-0.7139275,1.61254,-8.537424,2
28220328,6218,4.49,-1.27,-2.9,-4.36,-3.77,8.22,7.61,0.6944059,0.02573243,0.06286195,-0.5421745,1.756042,-9.8124,2
28318401,6673,4.33,0.13,0.25,-4.12,-4.09,8.22,8.16,0.3696144,0.0132974,0.1995021,-0.5501672,1.550843,-9.569019,2
28440020,6713,4.33,0.91,2.72,-3.59,-4.14,8.22,8.93,0.06665492,0.01890798,0.1061141,-0.7845138,0.9263741,-9.649976,2
28538243,6600,4.4,0.69,2.72,-3.17,-3.73,8.23,9.35,0.00648693,0.1494188,0.03634346,-0.6104059,1.223343,-9.920763,2
28651812,6622,4.68,0.23,1.59,-2.87,-2.83,8.23,9.69,-0.08833864,0.1212606,0.005073043,-0.3009985,1.470468,-9.276939,2
28758152,6773,4.53,-0.31,0.6,-2.7,-2.3,8.23,9.82,-0.02165328,0.08152919,-0.001450867,-0.7174185,1.350299,-9.659922,2
28992836,6877,4.4,-1.86,-1.75,-2.92,-2.36,8.24,9.84,-0.2372456,-0.05213651,-0.03614757,-0.6702948,1.077637,-9.738773,2
29101840,6726,4.28,-2.69,-3.43,-3.16,-2.26,8.25,9.74,-0.2269165,0.02397408,-0.04822824,-0.7000524,1.275621,-9.484611,2
29208300,6688,4.5,-1.74,-4.05,-3.42,-2.52,8.26,9.45,0.05287396,-0.1462966,-0.07029769,-0.624341,1.270218,-10.4825,2
29316839,6468,4.15,0.22,-2.42,-3.59,-3.0,8.26,8.96,0.3208484,-0.03887004,-0.1077964,-0.482745,1.25279,-9.388533,2
29423721,6597,4.27,2.47,0.3,-3.66,-3.27,8.26,8.54,0.5093119,-0.03591493,-0.08736312,-0.9009669,1.126079,-10.18435,2
29539970,6553,4.52,4.39,3.71,-3.58,-3.11,8.26,8.25,0.462186,-0.00843063,-0.03092832,-0.5695541,0.751318,-9.992869,2
29648070,6658,4.28,5.08,5.24,-3.44,-3.12,8.28,8.17,-0.008634574,-0.02635548,0.03014152,-0.6840386,0.6834609,-10.24029,2
29758058,6651,4.28,5.12,5.23,-3.37,-3.34,8.28,8.2,0.04063235,-0.1106132,0.00222092,-0.2810204,0.9672164,-9.476539,2
29860752,6476,4.84,4.68,5.1,-3.17,-3.71,8.3,8.27,-0.102806,-0.01094499,0.02363972,-0.5746417,0.8068045,-9.967871,2
30071157,6796,4.67,2.42,2.36,-2.74,-3.98,8.33,8.69,-0.3110345,-0.01897068,0.02140789,-0.3484376,0.7481604,-9.673755,2
30180276,6625,4.14,0.04,0.07,-2.36,-3.82,8.33,8.72,-0.4217716,0.0349982,0.02063573,-0.4465403,0.7951815,-9.710494,2
30281488,6572,4.65,-1.76,-2.36,-2.01,-3.42,8.33,8.58,-0.4613965,0.0856835299999999,-0.03795974,-0.5848672,0.7244774,-9.856654,2
30399449,6722,3.96,-4.1,-5.74,-1.42,-2.99,8.3,8.03,-0.3666236,0.1053317,-0.08828476,-0.5082795,0.9656771,-9.84355,2
30618645,6634,4.1,-4.06,-6.23,-1.08,-1.79,8.27,6.65,0.232199,0.05801455,-0.1059959,-0.507497,0.8466899,-10.40175,2
30834375,6462,3.7,-0.98,-2.37,-1.1,-1.71,8.27,5.48,0.3137782,-0.0891850899999999,-0.03771086,-0.315108,0.6773219,-10.08263,2
30941811,6316,3.82,-0.26,-1.42,-1.02,-1.93,8.27,5.39,0.1226715,0.02225567,0.01638628,-0.4705153,0.6730146,-10.07845,2
31048489,6350,3.78,0.14,-1.51,-1.04,-1.71,8.27,5.58,-0.1108208,0.01908284,0.05103306,-0.6504747,0.5632446,-9.913043,2
31159276,6289,3.91,0.23,-2.07,-1.17,-1.06,8.27,5.82,-0.1015297,-0.0138392,0.02256256,-0.463447,0.6916062,-9.634033,2
31484881,6326,3.7,-0.91,-3.65,-1.88,-1.2,8.27,6.27,-0.1719666,-0.04635851,0.0366681,-0.535742,0.7670887,-9.746214,2
31588481,6271,3.71,-1.32,-4.42,-2.03,-1.44,8.27,6.52,-0.1238293,-0.08217961,0.05043534,-0.3415716,0.7683051,-9.683703,2
31697437,6319,3.72,-1.47,-4.64,-2.2,-1.89,8.28,6.87,-0.01833439,-0.06337126,0.0791524,-0.4520804,0.6172678,-9.983475,2
31811012,6408,3.85,-0.79,-4.19,-2.36,-2.16,8.28,7.19,0.1424116,-0.0834001999999999,0.05810298,-0.4967813,0.5609936,-9.742105,2
31911863,6358,4.06,-0.19,-2.86,-2.48,-2.34,8.28,7.51,0.2416925,-0.08391335,0.08129897,-0.5395327,0.5705692,-9.715129,2
32017593,6442,4.0,0.12,-1.74,-2.55,-2.43,8.28,7.94,0.06530757,0.05474538,0.08637122,-0.4867634,0.4107226,-9.889004,2
32130590,6458,4.33,0.02,-1.34,-2.7,-2.5,8.28,8.36,-0.02392141,0.02799797,0.0720236499999999,-0.4366415,0.6897793,-9.66961,2
32238234,6543,4.33,-0.44,-1.4,-2.92,-2.73,8.28,8.67,-0.04519915,-0.01563577,0.05882163,-0.5305339,0.6868447,-9.798042,2
32349857,6550,4.0,-0.85,-1.87,-3.11,-2.96,8.28,8.87,0.03012636,-0.0368637,0.01195283,-0.4584315,0.887287,-9.560534,2
32662444,6484,4.16,-1.63,-2.34,-3.56,-2.88,8.3,9.3,0.09897479,-0.0493663,-0.01345778,-0.3688788,0.737308,-9.629952,2
32778778,6430,4.02,-1.41,-2.15,-3.63,-3.45,8.3,9.22,0.1167196,-0.1780789,-0.02718608,-0.4289064,0.909678,-9.374349,2
32874825,6457,4.15,-1.15,-2.07,-3.51,-3.97,8.29,9.13,0.02766376,-0.03087343,-0.01298913,-0.4960584,0.9429342,-9.390218,2
32987192,6461,4.16,-1.03,-1.74,-3.35,-3.91,8.29,8.92,0.01397524,0.05607782,-0.04354607,-0.4306978,0.5119404,-9.770226,2
33103079,6725,4.11,-0.95,-1.61,-3.13,-3.46,8.29,8.6,-0.07854483,0.09984931,-0.03495838,-0.5913097,0.6576322,-9.982783,2
33201468,6427,3.93,-1.11,-1.38,-3.04,-2.91,8.29,8.31,0.0614004,0.1151828,-0.05302227,-0.4374111,0.7021633,-9.980032,2
33312389,6416,4.14,-1.37,-1.56,-3.07,-2.77,8.29,7.93,0.02576539,-0.1158083,-0.06260464,-0.500437,0.7202729,-9.436164,2
33421946,6466,3.78,-1.53,-2.07,-3.24,-2.98,8.29,7.59,-0.04766712,0.007398219,-0.05885298,-0.3127066,0.6955292,-9.779553,2
33538163,6372,3.87,-1.73,-2.47,-3.23,-3.54,8.29,7.28,-0.001842075,-0.1102318,-0.01360234,-0.3994549,0.6329302,-9.623655,2
33646996,6382,4.14,-1.94,-2.53,-3.11,-3.5,8.29,6.98,-0.006340881,0.07886609,-0.07336891,-0.5725586,0.5691757,-10.03347,2
33758305,6347,3.69,-2.13,-2.49,-3.0,-3.32,8.28,6.51,0.1140768,0.0361396,-0.1131285,-0.4877348,0.6497293,-9.895188,2
33855268,6256,3.65,-2.23,-2.68,-2.93,-3.09,8.28,6.08,-0.02277418,0.02351318,-0.09683288,-0.5928241,0.4080729,-9.994862,2
33965777,6224,3.3,-2.31,-3.4,-2.98,-2.92,8.28,5.68,-0.1591437,0.07621625,-0.06021467,-0.7224893,0.5980381,-9.553006,2
34077968,6033,3.52,-2.28,-4.14,-3.28,-2.9,8.29,5.48,-0.0459974,-0.05191201,0.00600485,-0.6204024,0.657629,-9.68127,2
34198158,6157,3.73,-2.2,-4.22,-3.61,-3.19,8.31,5.74,0.04318845,-0.05122211,0.0777835199999999,-0.6832799,0.6433184,-9.701581,2
34298296,6159,3.83,-2.2,-3.97,-3.81,-3.41,8.32,6.22,0.03664583,-0.07021745,0.09270004,-0.6801322,0.6917797,-9.532971,2
34404167,6189,3.99,-2.24,-3.26,-3.99,-3.53,8.32,6.79,0.1873196,0.00175882,0.09850196,-0.488788,0.6567661,-9.753033,2
34514860,6293,3.98,-2.57,-2.81,-4.02,-3.65,8.32,7.35,-0.01352801,-0.04710253,0.06859839,-0.5722988,0.6209572,-9.779379,2
34619462,6455,3.91,-3.01,-3.17,-3.92,-3.99,8.32,7.8,-0.02598634,-0.08738588,0.05993627,-0.3670087,0.6360366,-9.651168,2
34728051,6398,4.12,-3.35,-3.66,-3.82,-4.12,8.31,8.15,-0.1630958,0.04102096,0.07005657,-0.5561115,0.4149038,-9.996463,2
34848833,6381,4.21,-3.6,-4.25,-3.7,-3.66,8.31,8.53,-0.1662008,0.08054804,0.07113037,-0.4429637,0.6162153,-9.978987,2
34948026,6465,4.17,-3.83,-4.52,-3.48,-3.63,8.29,8.91,-0.05131811,-0.001139414,0.07569666,-0.44752,0.5502132,-9.916433,2
35059863,6397,3.82,-3.86,-4.68,-3.26,-3.45,8.28,9.25,-0.09341948,0.0639109,0.04815701,-0.2998948,0.7904717,-9.635283,2
35162985,6359,4.46,-3.89,-4.31,-3.03,-3.34,8.26,9.43,0.1869355,0.07194213,0.01668188,-0.2275632,0.8365924,-9.335545,2
35273076,6498,4.08,-4.06,-3.51,-2.81,-3.06,8.25,9.36,0.04159927,0.09924868,-0.02894979,-0.4031667,0.5759194,-10.04722,2
35386270,6458,3.9,-3.31,-2.79,-2.54,-2.99,8.23,8.97,0.1509387,-0.0544868,-0.07588504,-0.489251,0.672668,-9.747932,2
35486291,6301,3.96,-2.97,-2.01,-2.47,-2.78,8.22,8.46,0.0530564,0.07192852,-0.06806841,-0.4411759,0.5383149,-9.617036,2
35594719,6369,3.7,-2.73,-1.71,-2.47,-2.69,8.22,7.85,-0.00225542,-0.03819054,-0.0975948,-0.2577605,0.5394699,-9.2616,2
35706059,6288,3.88,-2.83,-1.83,-2.53,-2.8,8.23,7.39,0.001042321,-0.03449511,-0.02858111,-0.4820676,0.7156919,-9.546231,2
35814328,6353,4.16,-3.56,-2.22,-2.85,-2.7,8.24,7.42,-0.03399795,-0.049089,0.04917591,-0.3651269,0.4483646,-9.848025,2
35916205,6315,3.94,-4.37,-3.09,-2.99,-2.88,8.25,7.99,-0.2444613,0.04632304,0.1658216,-0.7102464,0.567674,-10.40645,2
36024735,6382,3.95,-4.99,-4.34,-3.18,-2.87,8.27,8.92,-0.1686381,0.01934794,0.1606939,-0.3887671,0.8410427,-9.497729,2
36139256,6268,4.37,-5.54,-4.66,-3.17,-3.01,8.27,10.19,0.006107456,-0.06429178,0.1828558,-0.5398438,0.8090419,-9.769146,2
36255877,6601,4.51,-5.81,-4.58,-2.97,-3.32,8.25,11.42,-0.0005656041,-0.04038835,0.1823331,-0.5533987,0.5177878,-10.10384,2
36355617,6493,4.54,-5.97,-4.66,-2.8,-3.33,8.23,12.19,0.04998614,-0.1532229,0.0934858799999999,-0.2315068,0.8293761,-9.317308,2
36467603,6764,4.65,-6.24,-4.63,-2.5,-3.03,8.2,12.58,-0.1299582,0.2561102,0.03535232,-0.8758485,0.5295392,-10.36569,2
36583828,6698,4.32,-6.31,-4.99,-2.72,-1.99,8.22,12.49,-0.009534875,0.1200655,-0.02391218,-0.4116922,0.9724756,-9.874744,2
36693818,6690,4.43,-6.47,-4.85,-3.01,-1.91,8.26,12.13,0.0287028,-0.0836467,-0.0669277499999999,-0.4566071,0.9928986,-9.800253,2
36793805,6736,4.22,-6.69,-4.53,-3.39,-2.27,8.3,11.57,0.06158555,-0.0448671,-0.08001407,-0.7929813,0.7760381,-9.829632,2
36896462,6602,4.31,-7.67,-5.02,-3.78,-2.79,8.35,10.76,-0.1452717,-0.0003636355,-0.1254416,-0.9097404,0.6456636,-9.613376,2
37006217,6647,4.31,-9.89,-7.24,-3.93,-3.03,8.37,10.01,-0.5194073,-0.03526948,-0.1435772,-0.5178039,0.7527497,-10.0562,2
37118284,6711,4.03,-11.65,-10.14,-3.86,-3.41,8.36,9.36,-0.2546111,0.02970656,-0.129249,-0.5250973,1.010773,-9.785014,2
37333163,6456,4.18,-11.6,-10.74,-3.16,-4.57,8.21,8.48,0.1776152,0.02032426,-0.07443137,-0.6202926,1.322448,-10.10649,2
37450074,6428,4.01,-10.57,-9.06,-2.62,-4.26,8.1,8.17,0.1898109,0.09450169,-0.0005282107,-0.4399178,0.8197863,-9.730256,2
37554436,6415,4.17,-9.8,-7.84,-2.19,-3.58,8.02,7.97,0.3091409,0.1655629,-0.05448634,-0.3778891,0.7391557,-9.488791,2
37657843,6288,4.22,-9.16,-7.67,-1.95,-2.7,7.98,7.82,-0.1879843,0.20434,0.02993625,-0.6600844,0.7397396,-10.17949,2
37767247,6373,4.19,-8.48,-7.82,-2.06,-1.52,8.0,7.76,0.02575172,0.1537172,0.04893562,-0.5803292,0.8493656,-10.08644,2
37883249,6432,4.25,-7.88,-7.56,-2.45,-0.94,8.06,7.95,0.1850505,-0.03968648,0.05950863,-0.3557529,0.9196972,-10.0013,2
37992899,6620,4.4,-7.04,-6.8,-2.89,-1.73,8.11,8.32,0.2178958,-0.1653669,0.03741832,-0.4998928,1.014629,-9.71841,2
38101657,6542,4.53,-6.24,-5.84,-3.32,-2.65,8.16,8.65,0.2320457,-0.0690757,-0.01910811,-0.6331297,0.8168588,-10.05779,2
38208211,6538,4.32,-5.56,-5.41,-3.56,-3.2,8.19,8.87,0.07361028,-0.01580224,0.01608202,-0.5290628,0.8021134,-9.839974,2
38311235,6510,4.2,-5.02,-5.24,-3.61,-3.42,8.19,8.96,0.08331855,0.04023947,-0.02014637,-0.4887436,0.8954186,-9.569542,2
38418797,6654,4.4,-4.56,-5.03,-3.65,-3.45,8.2,8.94,0.1363315,0.03183505,-0.01382176,-0.6713363,0.9068741,-10.18072,2
38523753,6629,4.87,-4.37,-4.21,-3.69,-3.38,8.2,8.99,0.2355664,0.08973308,0.0354515,-0.5707132,1.09787,-10.06737,2
38642830,6719,4.7,-4.58,-2.9,-3.61,-3.36,8.19,9.46,0.1051492,-0.03673799,0.1121538,-0.3090631,0.8400447,-10.01192,2
38752729,6783,4.76,-4.95,-2.55,-3.45,-3.8,8.18,10.09,0.06636627,-0.08229559,0.09115338,-0.4822642,1.016427,-9.773057,2
38848488,6897,4.37,-5.33,-2.94,-3.29,-4.09,8.17,10.59,-0.053613,-0.0556063,0.05780743,-0.6211982,1.054682,-9.696085,2
38965197,6721,4.64,-5.68,-3.75,-3.17,-3.81,8.16,11.0,-0.1866345,0.09058587,0.04080771,-0.5151098,1.045621,-10.08132,2
39067028,6820,4.45,-5.78,-4.02,-3.0,-3.59,8.14,10.92,0.0008856309,0.02140243,-0.0497349,-0.4899177,0.7909169,-9.532016,2
39177159,6651,4.42,-5.73,-4.25,-2.86,-3.55,8.12,10.52,-0.01124689,0.03984557,-0.08391097,-0.4129981,0.9683104,-9.631082,2
39286187,6585,4.45,-5.61,-4.43,-2.75,-3.34,8.11,10.06,-0.1299819,0.07715683,-0.0802871099999999,-0.4642795,0.8365167,-10.14577,2
39392257,6584,4.31,-5.49,-4.53,-2.58,-3.17,8.1,9.74,0.05720169,0.03279671,-0.04264533,-0.3009399,1.062163,-9.515566,2
39512150,6557,4.36,-5.32,-4.75,-2.47,-2.77,8.09,9.53,-0.05860663,0.0833583,-0.008353126,-0.3942035,0.8753929,-9.833697,2
39727830,6560,4.29,-5.02,-4.65,-2.32,-2.8,8.07,9.46,0.01484892,0.02388196,-0.02620561,-0.4306219,0.7088892,-9.917745,2
39840310,6635,3.84,-4.79,-4.67,-2.28,-2.62,8.07,9.25,-0.147544,0.07414141,-0.04616674,-0.2601482,0.9066038,-9.143963,2
39954244,6561,4.24,-4.58,-4.43,-2.22,-2.54,8.06,8.85,0.04510178,-0.01245809,-0.05192335,-0.3992513,0.964308,-9.834612,2
40061574,6426,3.91,-4.26,-4.76,-2.24,-2.16,8.06,8.53,-0.1183837,0.1888703,-0.05796239,-0.7143462,0.8271555,-9.560633,2
40166869,6390,3.9,-3.9,-5.27,-2.54,-1.76,8.09,8.08,-0.1551854,0.05219433,-0.06877427,-0.5633751,0.8543429,-9.467177,2
40272475,6242,4.16,-3.56,-5.08,-3.02,-1.66,8.12,7.83,0.0672046,0.08371732,-0.04424756,-0.5558167,0.7422722,-9.52303,2
40373281,6401,4.06,-3.18,-4.59,-3.62,-1.97,8.15,7.84,0.04487955,-0.1044588,0.02195514,-0.7258639,1.014139,-9.829524,2
40489162,6536,4.35,-2.96,-3.57,-4.09,-3.02,8.18,7.93,0.2577876,-0.1732161,0.001335648,-0.8006014,0.8184209,-10.01501,2
40600277,6494,4.27,-2.94,-3.21,-4.57,-3.46,8.2,8.27,0.01308255,0.03374393,0.09379178,-0.7764049,1.02706,-9.943584,2
40698746,6634,4.26,-3.15,-2.86,-4.76,-3.88,8.21,8.66,0.1136698,-0.07796632,0.05239902,-0.3356035,1.137422,-9.623274,2
40820381,6741,4.36,-3.58,-2.96,-4.69,-4.54,8.21,9.15,-0.07448204,0.01578225,0.0859971,-0.810579,0.9093981,-10.06222,2
40921220,6614,4.27,-3.9,-3.42,-4.71,-4.6,8.21,9.43,-0.1223859,-0.01478558,0.07799026,-0.8710511,1.06587,-9.394729,2
41041152,6621,4.49,-4.11,-4.13,-4.83,-4.03,8.22,9.79,-0.1266567,0.08890711,0.06807794,-0.5672157,1.036489,-9.837057,2
41140969,6682,4.36,-4.18,-4.29,-4.98,-3.78,8.23,9.95,0.0400389,0.003567469,0.04829127,-0.5641936,1.033244,-10.01265,2
41251180,6644,4.17,-3.62,-4.13,-5.24,-3.89,8.25,10.01,0.1793851,0.02725614,-0.001611362,-0.8664598,1.134102,-9.741818,2
41362031,6473,4.17,-2.12,-2.95,-5.57,-4.12,8.27,9.93,0.3047026,-0.08014845,-0.07300907,-0.6484494,0.9065957,-9.607465,2
41466288,6507,4.21,-0.41,-0.81,-5.81,-4.4,8.27,9.65,0.3742855,-0.04940428,-0.09984061,-0.5394322,0.9505063,-9.371269,2
41578288,6583,4.01,1.13,1.11,-6.06,-4.88,8.27,9.27,0.3107501,-0.06708996,-0.05473884,-1.028965,1.028624,-9.044905,2
41677272,6570,4.41,1.92,2.36,-6.22,-5.28,8.26,8.95,0.2739975,-0.1313796,-0.08857711,-0.390054,0.9082904,-9.611455,2
41783642,6526,4.16,2.27,3.02,-6.24,-5.67,8.26,8.65,0.03835759,-0.003784584,-0.02989142,-0.83582,0.600512,-9.713463,2
41903631,6443,4.13,2.29,2.19,-6.22,-5.45,8.27,8.5,-0.3162988,0.03812955,-0.009649236,-0.7014635,0.9252244,-9.650163,2
42012807,6459,3.98,2.03,1.38,-6.1,-5.37,8.27,8.29,-0.01771653,0.06941976,-0.05249881,-0.7058949,0.8278583,-9.338781,2
42113841,6480,3.94,1.82,0.68,-6.06,-5.39,8.27,7.98,-0.1052684,-0.06233355,-0.03664749,-0.6316723,1.106047,-9.411166,2
42219463,6371,4.2,1.7,0.47,-5.96,-5.44,8.27,7.76,-0.01578198,0.05106765,-0.03133323,-0.4499776,0.9377387,-9.436571,2
42330654,6418,4.12,1.56,0.73,-5.71,-5.43,8.28,7.66,0.09079068,0.03927986,-0.02614738,-0.6483346,0.9006814,-9.541196,2
42439044,6512,4.03,1.4,0.68,-5.4,-5.1,8.29,7.77,-0.1059776,0.0545267,0.06045774,-0.3686484,0.9493509,-9.791162,2
42540170,6471,4.24,1.06,0.72,-5.05,-4.83,8.3,7.85,0.03019665,0.004390106,0.02684828,-0.5409195,0.8555812,-10.19717,2
42651847,6470,4.13,0.6,0.48,-4.6,-4.6,8.3,8.0,0.07173889,0.03725661,0.05891904,-0.3967576,0.9852695,-9.93463,2
42766385,6465,4.07,0.15,0.06,-4.2,-4.41,8.31,8.21,-0.01844856,0.01197362,0.04887398,-0.7531497,0.8907665,-9.910582,2
42866743,6559,4.29,-0.1,-0.31,-3.85,-4.09,8.31,8.34,-0.0814521899999999,0.09228926,0.01412071,-0.6219076,0.6922101,-9.893941,2
42984236,6724,4.19,-0.44,-1.0,-3.42,-3.76,8.3,8.52,-0.2192127,0.04141996,0.04608622,-0.5855327,1.042724,-9.363901,2
43198439,6471,3.97,-0.84,-1.18,-2.81,-3.11,8.3,8.62,-0.05685017,0.061508,0.03128504,-0.7207388,0.9436796,-9.548169,2
43302450,6469,4.14,-0.96,-1.2,-2.8,-2.85,8.3,8.59,-0.16178,-0.04205704,-0.02077743,-0.5714552,0.7857254,-9.819234,2
43412855,6431,4.08,-0.97,-1.1,-2.87,-2.72,8.3,8.64,0.1585761,0.1015317,-0.0007438806,-0.6377103,0.8058706,-9.935034,2
43527523,6482,4.19,-1.1,-1.09,-2.84,-2.86,8.3,8.67,0.07753627,0.02561842,-0.02807814,-0.5770178,0.7703777,-9.992071,2
43740750,6454,3.67,-4.46,-4.51,-2.71,-2.8,8.29,8.82,-0.5519772,0.01428034,0.03365035,-0.6207312,0.9313093,-9.200356,2
43851876,6375,4.0,-5.75,-7.13,-2.63,-2.86,8.28,9.0,-0.2985902,0.04128245,0.03882503,-0.6749896,1.010513,-9.353871,2
43961753,6299,4.0,-6.11,-8.32,-2.66,-3.01,8.29,9.21,0.02030662,-0.05158885,0.03443674,-0.2628338,0.9579167,-9.274363,2
44067329,6447,4.22,-5.94,-8.06,-2.67,-3.35,8.29,9.33,-0.01806134,-0.03100851,0.02607717,-0.6564478,0.770216,-9.424709,2
44177822,6518,4.13,-5.41,-7.67,-2.9,-3.33,8.31,9.17,0.2008526,0.04430542,-0.05322843,-0.7516075,0.7753779,-9.675125,2
44397458,6426,4.17,-4.81,-5.88,-3.61,-3.04,8.37,8.77,0.09851894,-0.1118629,-0.0489254,-0.8123831,0.9707727,-9.7363,2
44614165,6387,4.2,-5.01,-5.02,-4.41,-4.18,8.44,8.19,-0.1667133,-0.07002371,-0.02266356,-0.9919143,0.8219477,-9.654528,2
44722622,6506,4.27,-5.8,-5.39,-4.64,-4.94,8.46,7.66,-0.1669855,-0.05137647,-0.08155115,-0.6039307,0.6268706,-9.809824,2
44828774,6421,4.01,-7.68,-7.26,-4.84,-5.15,8.49,7.17,-0.4297545,-0.04235519,-0.06908353,-0.7634702,0.8310342,-9.485168,2
44929274,6501,3.87,-9.26,-9.54,-4.91,-5.08,8.5,6.91,-0.4247415,0.01349782,-0.0102214,-0.5928036,0.8173257,-9.871943,2
45044943,6561,3.99,-9.12,-11.03,-4.99,-4.76,8.51,6.88,-0.007357385,0.04970515,0.0335776,-0.9707,1.231929,-9.742773,2
45148150,6417,4.41,-8.16,-10.41,-5.21,-4.39,8.54,7.03,0.1618296,0.04547651,0.06255852,-0.7596067,1.197942,-10.12033,2
45258746,6488,4.33,-7.1,-8.61,-5.45,-4.64,8.58,7.45,0.2917845,-0.08201094,0.08361382,-0.9092742,1.02146,-10.1025,2
45364757,6542,4.62,-6.19,-6.54,-5.73,-5.41,8.61,7.99,0.2546027,-0.1914786,0.08115143,-0.8686664,0.8888826,-9.782648,2
45475211,6544,4.58,-5.35,-4.89,-5.88,-6.14,8.62,8.45,0.329622,-0.1121725,0.03524667,-0.7916697,1.258902,-9.72138,2
45584287,6693,4.31,-5.0,-3.07,-5.97,-6.03,8.63,8.59,0.3038307,0.01940437,0.0004999395,-0.4307203,0.6890646,-10.05381,2
45697958,6568,4.25,-5.15,-2.77,-5.78,-6.18,8.61,8.55,0.04090079,-0.04231247,0.01447792,-0.4031999,0.9999669,-9.63774,2
45799611,6542,4.14,-5.57,-3.41,-5.57,-6.25,8.6,8.48,-0.2598512,0.1492069,-0.01419563,-0.8323663,1.051275,-9.770758,2
45907730,6569,4.12,-6.13,-4.23,-5.4,-5.86,8.58,8.38,-0.1128886,0.106325,0.0307324,-0.6368921,1.074738,-9.931995,2
46022271,6476,4.0,-6.34,-5.1,-5.13,-5.46,8.55,8.23,-0.1044966,0.00911368,-0.02554196,-0.8772525,0.8843149,-9.703692,2
46138249,6288,3.98,-6.32,-5.72,-4.91,-5.15,8.52,8.14,-0.09090664,0.10253,0.01213121,-0.7513638,1.003747,-9.869629,2
46242819,6334,4.3,-6.35,-5.69,-4.77,-4.85,8.51,8.12,-0.03303566,0.0237059,-0.007770767,-0.7335454,0.9055368,-9.669632,2
46355815,6430,4.67,-7.46,-5.88,-4.71,-4.5,8.5,8.05,-0.1821765,-0.05151492,-0.00538678,-0.4854141,0.6520526,-9.392382,2
46458584,6646,4.11,-9.33,-7.55,-4.66,-4.54,8.49,7.88,-0.3381715,-0.0157069,-0.05137628,-0.768595,0.7098023,-9.449533,2
46573289,6408,3.77,-11.46,-10.37,-4.7,-4.24,8.5,7.71,-0.2835398,0.1260875,-0.05742402,-0.4363352,1.532066,-9.632491,2
46683027,6326,3.48,-12.18,-12.39,-4.68,-4.34,8.5,7.68,-0.2210143,-0.05363975,-0.03812142,-0.9022449,1.373365,-9.425112,2
46789837,6309,4.15,-11.62,-12.22,-4.75,-4.58,8.51,7.8,0.1353439,0.01494099,0.01529134,-0.5522446,1.598386,-9.560806,2
46899071,6407,4.3,-10.08,-10.04,-4.52,-5.43,8.47,8.33,0.4850048,-0.002737051,0.0377583,-0.9234192,1.247215,-9.888287,2
47002919,6558,5.05,-8.39,-7.2,-4.33,-5.34,8.44,8.75,0.6578824,0.06613238,0.09085868,-0.666154,1.08558,-10.31067,2
47230460,6660,4.69,-6.98,-3.75,-2.98,-4.55,8.26,10.06,0.0687023799999999,0.1396193,0.1216573,-0.4971842,1.191219,-9.614511,2
47339864,6745,4.99,-7.31,-4.36,-2.49,-3.5,8.2,10.73,-0.1434261,0.1860402,0.1410374,-0.3478669,1.042019,-10.03816,2
47453642,6919,4.87,-7.66,-5.28,-2.2,-2.6,8.16,11.42,-0.1132081,0.1521704,0.1126634,-0.3573745,1.182842,-9.68674,2
47661301,6829,5.12,-7.45,-6.79,-2.19,-1.6,8.16,12.62,-0.1337758,0.02704788,0.1140134,-0.2970831,1.249577,-10.37384,2
47769259,6885,5.02,-7.06,-6.51,-2.3,-1.73,8.17,13.16,0.08316611,-0.06804154,0.05619744,-0.3843835,1.071065,-10.23964,2
47881609,6903,5.24,-6.72,-5.96,-2.41,-2.1,8.19,13.57,-0.1057137,0.003349854,0.06627133,-0.4254135,0.7651612,-10.29216,2
47998266,6967,5.35,-6.46,-5.59,-2.58,-2.33,8.21,13.72,0.03404886,0.05851716,-0.006670708,-0.7791688,0.9750358,-10.15561,2
48217630,6926,5.08,-6.28,-5.59,-0.9,-0.75,8.02,13.13,-0.1671873,0.3957376,-0.05545956,-0.4674151,0.8387792,-10.31001,2
48316454,6898,5.0,-6.15,-5.45,0.07,0.57,7.92,12.66,0.001570622,0.2167015,-0.09254948,-0.243109,1.127514,-9.640884,2
48425260,6843,4.73,-6.0,-5.36,1.17,1.5,7.8,11.97,0.1000911,0.08069076,-0.1043839,-0.4434501,1.067407,-9.456746,2
48549238,6924,4.5,-5.71,-5.14,1.51,2.24,7.76,11.14,0.03990946,-0.008148739,-0.08629774,-0.1643617,1.093942,-9.336506,2
48656936,6867,4.54,-5.44,-4.88,1.35,2.3,7.78,10.5,0.1587316,-0.03895306,-0.08092202,-0.3932691,0.9597182,-9.775001,2
48754802,6520,4.16,-5.15,-4.82,0.74,1.74,7.84,10.16,0.01931907,-0.218339,-0.03956954,-0.2457575,0.9361652,-9.883567,2
48860306,6650,4.12,-4.82,-5.05,0.05,0.16,7.9,9.93,-0.0987223899999999,-0.2747193,-0.001993133,-0.7899774,1.078369,-9.751646,2
48968756,6563,4.32,-4.66,-5.06,-0.33,-1.33,7.93,9.76,0.1029772,-0.2087848,-0.02187949,-0.9239895,1.004864,-9.274905,2
49072030,6479,4.59,-4.45,-5.02,-0.58,-1.84,7.95,9.56,-0.04667642,-0.1143842,-0.04218785,-0.7150259,0.9654382,-9.744508,2
49181840,6576,4.56,-4.21,-4.96,-0.55,-1.9,7.95,9.38,-0.120192,0.02992277,-0.01868317,-0.2635349,1.020552,-9.115293,2
49293221,6499,4.39,-3.96,-4.56,-0.22,-1.89,7.92,9.11,0.1495337,-0.005928752,-0.04333708,-0.5799783,0.8946965,-9.773578,2
49400283,6619,4.27,-3.72,-4.52,0.0,-1.77,7.91,8.77,0.0952687,0.05879338,-0.1064021,-0.1449693,0.8945324,-9.338695,2
49502448,6550,4.36,-3.44,-4.7,0.3,-1.28,7.89,8.38,-0.1167722,0.07857976,-0.03329198,-0.6226256,0.857671,-9.537608,2
49612656,6669,4.52,-3.18,-4.01,0.67,-0.2,7.87,8.07,0.1580625,0.04348963,0.01657493,-0.2995132,0.8848949,-9.745048,2
49731319,6660,4.47,-3.0,-3.05,1.36,0.14,7.83,8.38,-0.1022113,0.07661881,0.1127672,-0.306251,0.9485157,-10.11446,2
49826218,6695,4.73,-3.09,-2.38,1.71,0.56,7.81,8.98,0.1661422,0.1187935,0.1764648,-0.006914897,1.203929,-9.896115,2
49937804,6823,4.62,-3.46,-2.1,1.9,0.96,7.8,9.85,0.002942757,-0.0838617599999999,0.0857569599999999,-0.05298584,0.9218317,-9.566352,2
50055255,6724,4.54,-3.94,-2.57,2.1,0.58,7.79,10.53,-0.06574807,-0.09679994,0.06998899,-0.4542974,1.031941,-9.423075,2
50154627,6565,4.74,-4.41,-3.4,2.12,0.23,7.79,11.06,-0.172722,-0.09131668,0.0631009,-0.02262914,1.024841,-9.114007,2
50258285,6757,4.63,-4.78,-3.96,2.47,0.15,7.76,11.48,-0.1023359,0.09410562,0.035566,-0.3317644,1.09198,-9.597965,2
50365781,6756,4.52,-4.89,-4.25,2.97,0.44,7.71,11.61,-0.05087059,0.0503788,0.01125665,-0.1127633,1.042304,-9.672605,2
50478074,6740,4.51,-4.94,-4.33,3.52,1.17,7.67,11.43,-0.04384022,0.1323018,-0.04793181,-0.05222151,1.010132,-9.144516,2
50584758,6714,4.71,-4.98,-4.35,4.11,1.63,7.62,10.98,-0.0407678,0.003682808,-0.0640907899999999,-0.0806940399999999,0.9381371,-9.804884,2
50702246,6712,4.49,-4.9,-4.75,4.51,2.28,7.58,10.39,-0.1305832,0.0277083,-0.08175079,0.1331698,0.878316,-9.857841,2
50813634,6582,4.45,-4.76,-4.82,4.78,2.66,7.56,9.77,0.04488953,0.1657478,-0.08914101,0.09614431,0.7602203,-9.616172,2
50912913,6555,4.38,-4.54,-4.86,4.82,3.23,7.55,9.28,-0.03673858,0.1852559,-0.05762434,0.1786246,1.088999,-9.484304,2
51019209,6535,4.71,-4.4,-4.19,4.68,3.86,7.57,8.83,0.0965218,0.1050973,-0.04287399,-0.1868795,1.104184,-10.09772,2
51130260,6675,4.38,-4.39,-3.34,4.48,3.75,7.58,8.52,0.1829735,-0.06425007,-0.05454667,0.2007588,0.9232956,-9.570901,2
51239436,6695,3.99,-4.4,-3.71,4.12,3.64,7.61,8.52,0.02319201,-0.02950067,0.03501184,0.1210892,0.8456553,-9.846978,2
51334076,6542,4.19,-4.54,-4.44,3.62,3.47,7.65,8.71,-0.0945347,-0.008206029,0.01743537,0.1116334,0.9678294,-9.179978,2
51450999,6550,5.0,-4.78,-4.55,3.17,2.8,7.69,9.21,-0.0298227,-0.0948117599999999,0.0700701299999999,-0.3622595,1.077518,-10.65362,2
51549835,6647,4.72,-4.81,-4.24,2.59,1.95,7.73,9.68,0.03937594,-0.1264824,0.05171347,-0.02200098,1.105681,-9.969793,2
51661388,6767,4.67,-4.85,-4.15,2.41,1.34,7.75,10.04,0.009452855,-0.08677155,0.02697785,0.01353655,0.9243222,-9.842856,2
51772248,6705,4.42,-4.98,-4.64,2.33,1.19,7.76,10.08,-0.08581194,0.04974181,0.0127478,-0.05935029,1.020608,-9.777703,2
51880417,6621,4.39,-5.21,-5.1,2.26,1.29,7.76,9.95,-0.2240455,0.04588786,-0.018192,-0.07649889,0.8337938,-9.618338,2
51988374,6559,4.4,-5.4,-5.42,2.13,1.38,7.77,9.72,-0.03874072,-0.01282828,-0.06552183,-0.02109597,1.233324,-9.522234,2
52101817,6595,4.35,-5.48,-5.51,1.79,1.84,7.81,9.37,0.0003487644,0.05718685,-0.0864745,0.2407128,1.200998,-9.422884,2
52217032,6698,4.6,-5.28,-5.38,1.3,1.41,7.85,9.15,0.001270682,-0.09950352,-0.06720913,0.1808204,1.186381,-9.937694,2
52324412,6764,4.5,-5.08,-4.7,0.9,0.49,7.89,8.97,0.2126867,-0.1164703,-0.009567279,-0.1349531,1.249619,-9.865087,2
52433041,6706,4.37,-4.98,-4.2,0.67,-0.19,7.91,8.69,0.1382137,0.06411693,-0.04728977,-0.2291422,0.7166067,-10.00672,2
52756023,6625,4.5,-5.12,-4.8,-0.13,-0.09,7.98,8.23,-0.1154009,0.0375239,0.03194853,-0.1206381,1.016629,-10.00419,2
52861849,6563,4.39,-5.09,-4.96,-0.43,-0.27,8.01,8.33,-0.1267053,-0.07842388,-0.00137883,0.1068045,1.132553,-9.478539,2
52976081,6508,4.39,-5.14,-4.86,-0.72,-0.75,8.03,8.52,0.08723634,-0.0766061299999999,0.04914309,0.08360822,0.6752554,-9.721838,2
53079163,6707,4.84,-5.15,-4.38,-0.73,-0.91,8.04,8.75,0.1706074,-0.05748542,0.05562967,0.1096016,0.9503405,-10.24693,2
53189608,6792,4.24,-5.21,-3.97,-0.48,-1.02,8.01,9.11,0.0764981,0.02436802,0.04619094,-0.2715174,0.8583277,-9.69387,2
53306003,6648,4.0,-5.18,-4.77,-0.41,-1.13,8.01,9.39,-0.1222215,-0.1228436,0.02839675,-0.1041538,0.9850032,-9.613467,2
53517201,6549,4.18,-4.97,-5.79,0.0,-1.0,7.97,9.32,-0.01654266,0.03553265,-0.06408285,-0.2108486,0.9027149,-9.738334,2
53629876,6347,4.22,-4.66,-5.17,0.15,-0.92,7.95,8.95,0.2276013,-0.008093865,-0.05936815,0.04888856,1.063875,-9.458727,2
53737158,6394,4.09,-4.44,-4.59,0.05,-1.03,7.96,8.44,0.1198756,-0.07816072,-0.08037017,0.1708813,1.22668,-9.966613,2
53846447,6491,3.78,-4.41,-4.12,-0.03,-1.25,7.97,7.92,0.08754573,-0.05001146,-0.1034067,0.05601639,0.99016,-9.773708,2
53947463,6430,3.94,-4.49,-4.0,-0.31,-1.49,7.99,7.57,-0.06677978,-0.0887454399999999,-0.03095685,-0.2173443,1.099202,-9.51214,2
54058826,6454,4.07,-4.78,-3.64,-0.25,-1.79,7.99,7.4,-0.05218587,-0.01125604,-0.00280911,0.1491088,1.12435,-9.941064,2
54178589,6420,4.05,-5.15,-3.96,-0.19,-1.78,7.98,7.31,-0.1782191,0.0403587,0.01562581,-0.01711291,0.9818112,-9.684256,2
54279177,6466,3.87,-5.52,-4.4,-0.66,-1.8,8.03,7.34,0.002103871,0.03882324,0.01729316,0.08728713,1.038192,-9.174163,2
54387765,6318,4.59,-5.84,-5.15,-1.48,-2.29,8.11,7.49,0.08724523,-0.08335595,0.0092932729999999,-0.0779197799999999,1.06968,-9.921928,2
54489026,6569,4.49,-5.99,-5.49,-1.97,-2.69,8.16,7.82,0.1435502,0.02238488,0.02661223,0.165048,1.738271,-9.623085,2
54605618,6490,4.43,-6.19,-5.26,-2.19,-3.04,8.18,8.5,0.1166579,-0.0811566299999999,0.0993007,-0.06405646,1.142504,-9.852757,2
54714268,6593,4.61,-6.34,-5.3,-2.08,-3.13,8.17,9.23,-0.1411953,0.01462113,0.1266108,-0.1493007,0.907764,-9.843281,2
54826969,6690,4.61,-6.6,-5.75,-2.03,-2.61,8.16,9.86,-0.1911311,0.164897,0.1341438,-0.474408,0.7973275,-9.370197,2
54935189,6612,5.02,-6.81,-6.49,-2.26,-1.57,8.19,10.26,-0.2372658,0.1013725,0.05608445,-0.09629739,1.552927,-9.903897,2
55047760,6780,4.74,-6.99,-6.75,-2.52,-1.41,8.22,10.58,-0.1739001,-0.06841305,0.06834177,-0.1497819,1.203222,-10.28493,2
55153994,6886,4.94,-6.86,-6.75,-2.91,-1.56,8.27,10.53,-0.1007152,0.02396738,0.001083658,-0.1653194,1.304942,-10.09592,2
55256773,6914,4.87,-6.59,-6.67,-3.28,-1.73,8.31,10.39,0.1135872,-0.05996628,-0.01803228,-0.1399838,1.119572,-9.949172,2
55373443,6925,5.09,-6.14,-6.53,-4.31,-1.87,8.43,10.08,0.07074765,-0.1161448,-0.06339192,-0.05874098,1.124701,-10.42338,2
55475723,6897,4.96,-5.69,-6.19,-6.46,-3.61,8.65,9.83,0.2138493,-0.4379219,-0.08428913,0.08382104,1.302565,-10.29971,2
55587883,6838,4.71,-5.4,-6.29,-9.65,-6.88,8.96,9.66,-0.09673234,-0.572639,-0.1022522,-0.2275671,1.14749,-10.45772,2
55697238,6747,5.04,-5.24,-6.14,-12.95,-10.8,9.28,9.21,0.1878922,-0.5607865,-0.1368379,-0.472533,1.312347,-10.00302,2
55807961,6864,5.22,-5.24,-5.22,-13.91,-13.44,9.37,8.4,0.2507605,-0.2430415,-0.1814787,-1.127929,1.195689,-10.49516,2
55913411,6949,4.7,-5.34,-4.54,-13.69,-13.01,9.35,7.84,0.2098269,0.194189,-0.002735782,-0.3846847,1.050959,-10.70408,2
56022816,6859,4.75,-5.58,-3.84,-12.81,-11.52,9.26,7.98,0.2843466,0.235889,0.06171896,-0.1273854,1.110505,-10.47392,2
56248206,6869,4.11,-6.24,-4.39,-6.9,-6.11,8.65,9.0,-0.1797335,0.5683546,0.1233003,0.2296454,1.203811,-10.01376,2
56345766,6631,4.2,-6.54,-5.31,-4.97,-3.84,8.43,9.4,-0.02982215,0.272152,0.1084902,-0.2210847,1.326679,-8.935694,2
56454242,6474,4.08,-6.7,-6.56,-3.67,-2.05,8.28,9.64,-0.2878729,0.137333,0.07552986,0.06981713,1.377369,-9.508656,2
56564771,6550,4.34,-6.57,-7.09,-3.1,-1.62,8.21,9.76,-0.0354443,0.1328455,0.01452417,-0.3723902,1.502906,-9.194916,2
56674409,6425,4.34,-6.25,-6.93,-3.04,-1.78,8.2,9.71,-0.03529469,0.0840907,-0.01979721,-0.1893445,1.255839,-9.427685,2
56782827,6557,4.18,-5.9,-6.32,-3.01,-2.44,8.2,9.52,0.1018329,-0.02420013,-0.03156689,-0.342121,1.084398,-9.660428,2
56890834,6388,4.23,-5.62,-6.04,-3.12,-2.4,8.21,9.33,-0.01208413,0.09322155,-0.03101736,-0.4768825,1.214111,-9.54276,2
56994804,6623,4.44,-5.43,-5.81,-3.19,-2.11,8.22,9.13,0.08157422,0.0266711,-0.05878164,-0.3704854,1.180369,-9.975456,2
57114718,6535,4.23,-5.18,-5.91,-3.18,-2.28,8.22,8.85,0.02161795,-0.01951968,-0.04345217,-0.3253063,1.171291,-10.13028,2
57212730,6472,4.25,-4.96,-5.76,-3.66,-2.48,8.26,8.64,0.06057083,-0.0009455397,-0.03449655,0.05580635,1.094813,-9.341343,2
57319844,6498,4.49,-4.78,-5.15,-4.57,-3.76,8.34,8.69,0.145271,-0.1701798,0.002131949,-0.5212498,1.177718,-10.12075,2
57430983,6486,4.5,-4.68,-4.42,-4.99,-4.88,8.37,8.88,0.1769672,-0.1978951,-0.002830049,-0.2173635,1.214167,-9.336913,2
57537472,6637,4.28,-4.79,-4.23,-4.76,-5.4,8.35,9.05,0.005366951,-0.04184699,0.01281098,-0.2472171,1.050101,-9.869332,2
57649234,6571,4.53,-5.02,-4.53,-4.26,-4.76,8.31,9.14,-0.1687875,0.1541839,0.005791205,-0.5307645,1.120778,-9.517236,2
57750403,6574,4.52,-5.26,-4.82,-3.62,-4.26,8.25,9.19,-0.2983415,0.2005984,0.02889128,-0.6406253,1.569114,-10.19221,2
57865960,6647,4.15,-5.59,-4.76,-3.18,-3.36,8.21,9.11,-0.0607453,0.1656599,-0.01315841,-0.3190444,0.9210497,-10.00142,2
57967158,6558,3.93,-5.69,-5.27,-2.89,-3.0,8.18,8.96,-0.2412779,-0.003669475,-0.04560108,-0.2147836,0.9910566,-9.231905,2
58078257,6653,4.01,-5.56,-5.89,-2.68,-2.91,8.16,8.77,-0.2110381,-0.07274978,-0.0351278,-0.2052738,1.140367,-9.379676,2
58194049,6475,4.34,-5.29,-6.33,-2.79,-2.06,8.17,8.43,-0.1132308,0.1272963,-0.03879995,-0.5030141,0.7984919,-9.857126,2
58298375,6541,4.25,-4.95,-6.18,-3.02,-1.47,8.19,8.17,0.01201122,0.2131649,-0.009140308,-0.6018528,1.21228,-9.796409,2
58405322,6513,5.0,-5.07,-6.0,-3.22,-1.19,8.21,8.0,0.04088096,0.04669306,-0.007084715,-0.6505579,1.110382,-9.239785,2
58520077,6506,4.9,-7.29,-7.6,-3.48,-1.11,8.24,7.92,-0.405023,-0.05358792,-0.01686741,-0.2109181,1.105362,-9.912696,2
58636017,6826,4.87,-8.99,-9.92,-3.77,-1.58,8.28,8.0,-0.2935014,-0.1029786,-0.0094146,-0.4433538,1.381389,-9.637698,2
58735624,7007,4.63,-9.75,-11.4,-4.09,-2.15,8.33,8.17,-0.2987779,-0.01772922,0.02494832,-0.3673933,1.427719,-10.04084,2
58849048,6868,4.95,-9.69,-11.53,-4.38,-2.8,8.38,8.27,0.0712769199999999,-0.1242305,-0.03973501,-0.5722976,1.542862,-10.3226,2
58960671,6812,4.82,-9.82,-10.84,-4.51,-3.41,8.4,8.32,0.09974054,-0.03706307,0.02961423,-0.2875895,1.136405,-10.24323,2
59071202,6792,5.01,-9.99,-10.24,-4.51,-3.49,8.4,8.37,0.1263054,0.03323864,0.01917058,-0.3940236,0.8648734,-10.22491,2
59174308,6883,4.68,-10.46,-10.57,-4.47,-3.51,8.4,8.4,-0.164088,-0.022234,-0.01336914,-0.4784558,1.210353,-9.75771,2
59283918,7009,4.87,-10.81,-11.57,-4.45,-3.49,8.39,8.36,-0.05799698,-0.03018821,-0.0229322,-0.03725169,1.472044,-9.764846,2
59390775,6720,4.98,-10.93,-11.5,-4.35,-3.8,8.37,8.33,0.01497621,0.02809065,-0.009074133,-0.4507799,1.321264,-9.727074,2
59613187,7003,4.99,-10.78,-10.71,-4.18,-3.81,8.34,8.25,0.0639855899999999,-0.009696016,0.02793371,-0.4350957,1.189992,-10.28149,2
59717651,7048,4.83,-10.86,-10.61,-4.07,-3.77,8.32,8.27,0.0353222,-0.02886494,-0.03765556,-0.3415578,1.420652,-9.96707,2
