TimeUS,RPM,Curr,DesRoll,Roll,DesPitch,Pitch,DesYaw,Yaw,GyrX,GyrY,GyrZ,AccX,AccY,AccZ,Guasto
0,4165,3.31,-0.02,1.32,0.0,0.12,19.5,19.61,0.1186103,0.007952617,0.005113959,-0.05120254,-0.1529503,-10.02586,1
231859,4740,4.1,-0.42,1.0,0.08,-0.28,19.5,19.71,0.05183288,-0.04330052,0.03757234,-0.236918,0.269149,-11.16278,1
334781,5736,4.03,-0.58,0.81,0.04,0.26,19.5,20.14,-0.04174411,0.04430535,0.1219135,0.3233428,0.1137817,-11.95956,1
443744,6223,3.52,-0.69,0.29,0.14,0.57,19.5,21.09,-0.1018524,0.0672337499999999,0.1745188,-0.3247698,0.3418611,-11.88622,1
551040,6139,3.84,-0.77,0.04,-0.05,0.97,19.5,22.18,0.0631398,0.02037631,0.1812288,-0.07301853,0.181373,-10.73867,1
659359,6115,3.95,-1.1,0.4,-0.31,0.89,19.51,23.21,0.03001878,-0.09110417,0.1539873,-0.04085928,0.3216969,-10.41724,1
775193,6327,3.96,-1.56,0.49,-0.76,0.57,19.52,24.09,0.05911204,-0.07317796,0.1105346,0.09222043,0.513807,-10.10309,1
885068,6160,3.67,-2.04,0.2,-0.99,-0.09,19.52,24.73,-0.1209676,-0.1362933,0.1151164,-0.2737496,0.2620814,-9.222633,1
989332,6013,3.52,-2.31,-0.45,-1.13,-0.19,19.53,25.29,-0.0915705899999999,0.0108447,0.09948572,0.00433057,0.4026599,-8.826573,1
1098337,5833,3.55,-2.45,-1.37,-1.01,-0.45,19.53,25.74,-0.0846756,-0.1013586,0.04223821,-0.1520649,0.4324723,-9.301831,1
1204107,5903,3.99,-2.71,-1.91,-0.78,-0.35,19.51,26.02,-0.08382836,0.08538058,0.04201317,-0.0637780399999999,0.3025828,-9.482038,1
1315022,5988,4.3,-2.81,-1.71,-0.52,-0.14,19.5,26.04,0.1106587,0.1144061,-0.0268637,0.05349768,0.2609066,-9.696837,1
1438477,6092,4.24,-3.02,-1.36,-0.34,0.38,19.49,25.86,0.01676728,0.13152,-0.03168964,-0.1785816,0.4056981,-10.2046,1
1533037,6228,4.33,-3.24,-1.39,-0.23,0.69,19.49,25.75,0.04146458,0.05234292,-0.01042539,0.1036053,0.4858012,-9.956802,1
1758700,6230,4.35,-3.58,-2.02,-0.09,0.71,19.48,25.76,-0.006712443,0.03076947,-0.006249418,0.1051153,0.3800245,-10.23871,1
1861414,6286,4.49,-3.59,-1.96,0.05,0.33,19.47,25.6,-0.03186994,-0.04837801,-0.0556696,-0.02429635,0.3701183,-10.35297,1
1977766,6373,4.59,-3.7,-1.81,0.03,0.13,19.47,25.3,0.01035579,0.0093458499999999,-0.04820119,-0.1100411,0.48135,-9.891038,1
2088109,6392,4.2,-3.85,-1.88,0.13,0.0,19.46,25.0,-0.009092915,-0.02483154,-0.04292333,0.09252614,0.508334,-10.19545,1
2299351,6311,4.11,-3.8,-2.44,0.84,0.57,19.42,24.57,0.008674889,0.07177501,-0.007648053,-0.1483744,0.6132423,-10.29519,1
2415988,6230,4.37,-3.51,-2.64,1.03,1.09,19.4,24.58,0.00419017,0.01465192,0.0004692129,0.1401483,0.4512604,-9.992184,1
2518488,6257,4.56,-3.39,-2.51,1.13,1.17,19.4,24.62,0.02463452,-0.01225278,0.01257192,0.1635133,0.5672584,-9.724607,1
2631221,6271,4.32,-3.32,-2.44,1.14,1.08,19.4,24.69,-0.01891575,-0.01040054,0.01539512,0.0663377899999999,0.4407142,-10.19436,1
2727291,6273,4.63,-3.32,-2.27,1.07,0.92,19.4,24.76,0.01630048,-0.0664079499999999,-0.004510859,0.209756,0.4242567,-9.808725,1
2851784,6403,4.4,-3.35,-2.1,1.08,0.61,19.4,24.84,0.04862823,-0.03328823,-0.005521248,0.0968328299999999,0.4037117,-9.9463,1
2950106,6314,4.2,-3.4,-2.12,1.09,0.56,19.4,24.8,-0.02234794,-0.01865153,-0.02165165,0.1677847,0.4832537,-9.228394,1
3175633,6319,3.88,-3.19,-2.47,1.26,0.57,19.39,24.3,0.02173691,-0.04969168,-0.04008864,-0.02851855,0.2666679,-9.434372,1
3278437,6100,3.95,-2.86,-2.56,1.26,0.92,19.39,24.08,0.002629987,0.02103514,-0.04151807,0.2605582,0.5266899,-9.317783,1
3386218,6117,4.17,-2.46,-1.79,1.33,1.38,19.39,23.94,0.1094396,0.1033337,-0.01289312,0.06617971,0.5134544,-9.384299,1
3615683,6316,4.06,-1.75,-0.84,1.45,1.44,19.38,23.83,0.04100356,-0.004593937,-0.003231173,0.1116518,0.5550904,-9.087611,1
3722022,6052,4.36,-1.78,-0.67,1.37,1.57,19.38,23.84,-0.003154358,-0.0008771199,0.03716883,0.1965147,0.3431843,-9.677082,1
3939294,6216,4.31,-2.15,-0.76,1.43,1.16,19.38,24.76,-0.009141531,-0.1370998,0.0800240599999999,0.1722677,0.676853,-9.450058,1
4049473,6277,4.64,-2.36,-0.7,1.56,1.04,19.38,25.3,-0.03178566,0.08158817,0.0934748,0.1718802,0.6301864,-9.789804,1
4170401,6433,4.67,-2.46,-0.57,1.94,1.31,20.54,26.93,-0.05756526,0.1081218,0.05359251,0.3177883,0.3128932,-10.00496,1
4275011,6346,4.42,-2.52,-0.9,2.32,1.64,20.53,26.71,-0.04950649,0.08974234,0.0096092969999999,0.2334681,0.6320521,-9.665427,1
4382621,6371,4.18,-2.72,-1.29,2.42,1.87,20.52,26.7,-0.1663917,0.03992888,-0.03451483,0.3122639,0.4899567,-9.755265,1
4491235,6209,4.08,-2.83,-1.71,2.42,1.71,20.52,26.76,-0.07312781,-0.03118492,-0.04203048,0.07198283,0.4470868,-9.601241,1
4598428,6169,4.0,-2.82,-2.1,2.41,1.43,20.52,26.84,-0.0627364,-0.06305576,-0.06083614,0.2534791,0.554702,-9.26494,1
4710917,6061,4.12,-2.83,-2.07,2.98,1.42,20.5,26.73,0.008922566,-0.02335345,-0.07172679,0.1337395,0.3393863,-9.491863,1
4817034,6214,3.84,-2.89,-2.31,3.63,2.2,20.46,26.58,-0.004260062,0.07057735,-0.06435521,0.4574502,0.4194714,-9.352908,1
4929808,6034,4.08,-2.73,-2.66,4.27,2.85,20.43,26.03,-0.03108287,0.1363427,-0.0902584,0.1244922,0.5216819,-9.939631,1
5027869,6084,3.94,-2.59,-2.51,4.92,3.3,20.4,25.35,0.07836998,0.1133888,-0.07935011,0.2538707,0.569797,-9.53754,1
5143418,6069,4.22,-2.42,-1.99,5.87,4.35,20.36,24.77,0.1034376,0.2519128,-0.03907062,0.378112,0.4904248,-9.258291,1
5256477,6053,3.98,-2.29,-1.5,6.76,5.48,20.32,24.39,0.0115701,0.1657803,-0.05831646,0.4327401,0.3737118,-9.537148,1
5363420,6127,4.03,-2.24,-1.46,7.09,6.29,20.31,23.9,-0.0001116589,0.08187628,-0.09219329,0.5644389,0.4853059,-9.356129,1
5474772,6019,3.92,-2.23,-1.61,6.95,6.37,20.32,23.28,0.0640887099999999,-0.05566591,-0.08741623,0.4031081,0.5301154,-9.457973,1
5583828,6058,3.89,-2.3,-1.61,6.55,6.24,20.33,22.89,-0.0159458,0.01662941,0.0007344491,0.126955,0.6072991,-10.0743,1
5694379,6096,4.06,-2.4,-1.31,6.14,6.06,20.35,22.73,0.1467509,-0.07544512,0.03006969,0.4181647,0.4822617,-9.725052,1
5806929,6091,4.19,-2.65,-1.01,5.87,5.53,20.36,22.75,0.005112898,-0.1043365,0.06787338,0.1537307,0.5158888,-9.774672,1
5904900,6253,4.2,-2.86,-1.03,5.57,5.08,20.37,23.0,-0.05051867,-0.103345,0.08110554,0.1987588,0.4844141,-9.708529,1
6114066,6213,4.21,-3.39,-1.93,5.08,4.62,20.4,23.27,-0.105692,0.03012984,0.03371371,0.2706964,0.4057332,-9.710631,1
6235926,6136,4.16,-3.7,-2.52,4.59,4.22,20.43,22.91,-0.0714449999999999,-0.01926984,0.01793632,0.1119708,0.3877681,-9.82147,1
6336267,6309,4.65,-3.97,-2.78,4.1,4.23,20.46,22.4,0.06651381,-0.01782517,0.06753442,0.2676936,0.8243154,-9.971293,1
6457631,6165,4.37,-4.47,-2.55,3.57,3.71,20.5,22.2,0.01213187,-0.1476676,0.0814785,0.3584246,0.7376592,-9.797791,1
6559209,6292,4.14,-4.82,-2.98,3.09,2.93,20.54,22.27,-0.1511966,-0.06666726,0.0634135599999999,0.4270571,0.4515987,-10.06058,1
6880301,6228,4.17,-5.12,-4.86,2.45,2.09,20.6,23.0,-0.12447,0.0920532,0.004438038,0.3610167,0.7382255,-10.12411,1
6988863,6225,4.21,-5.0,-4.88,2.69,2.08,20.58,22.64,0.0584218,0.04218544,0.01733736,0.254813,0.7823375,-9.620726,1
7093284,6197,4.38,-4.87,-4.23,2.88,2.47,20.56,22.77,0.1002418,0.1018185,0.0623183,0.4902119,0.5188572,-9.823078,1
7201812,6178,4.11,-4.46,-3.64,3.0,2.55,20.55,23.21,0.05281791,0.07409346,0.06788093,0.3243329,0.5024186,-9.973427,1
7311419,6264,4.19,-4.18,-3.39,3.16,2.35,20.54,23.33,0.06812485,-0.06699866,0.006983584,0.5724565,0.7543097,-9.280446,1
7421336,6313,4.09,-4.12,-3.32,3.22,2.47,20.54,23.14,-0.003078775,0.02147436,-0.01388631,0.3059913,0.5237424,-9.724133,1
7521082,6174,4.11,-4.0,-3.36,3.19,2.6,20.54,23.01,0.0726473,0.08400162,-0.01875557,0.4938863,0.7917325,-9.483158,1
7748818,6235,4.11,-3.92,-3.42,3.22,2.69,20.54,23.35,-0.004455093,0.007650796,0.05887785,0.1618538,0.7116054,-9.727229,1
7856286,6137,4.09,-3.9,-3.69,3.35,3.13,20.53,23.6,-0.01102507,0.06181912,0.0648731699999999,0.5369091,0.8237685,-9.504499,1
7960643,6217,4.63,-3.68,-3.57,3.34,3.45,20.53,23.91,0.02879198,0.0227342,0.0695388599999999,0.4627027,0.6767264,-9.731444,1
8070331,6411,4.46,-3.28,-3.34,3.26,3.77,20.53,24.29,0.0924701899999999,-0.000598305,0.071474,0.1540341,0.5371998,-10.02811,1
8186943,6363,4.78,-2.77,-3.01,3.14,4.1,20.54,24.54,0.019341,0.04840438,0.0415087,0.3076635,0.5153251,-10.10014,1
8289931,6494,4.63,-2.43,-2.46,3.15,4.22,20.54,24.79,-0.01526255,-0.03166154,0.04008445,0.2855713,0.5061874,-10.23656,1
8402872,6442,4.58,-2.27,-2.2,3.12,4.33,20.54,25.08,0.06723865,0.005955034,0.03486664,0.3921836,0.7362935,-9.835044,1
8513909,6438,4.76,-2.17,-2.06,2.84,3.93,20.55,25.22,-0.006560991,-0.09770913,-0.01295586,0.1197548,0.4647793,-9.984379,1
8621878,6400,4.6,-2.01,-2.05,2.5,3.38,20.56,25.3,-0.0588337,-0.01469888,-0.001959992,0.3332463,0.6754813,-9.885794,1
8830455,6398,4.54,-1.53,-2.68,2.02,2.26,20.58,25.83,-0.01617397,-0.09355579,0.05783356,0.6391555,0.7290782,-9.274668,1
8936820,6247,4.82,-1.36,-2.42,2.14,2.13,20.58,25.84,0.06954017,0.0004153263,-0.0400019,0.5519508,0.5487826,-10.01666,1
9062040,6476,4.77,-1.22,-1.37,2.51,1.94,20.57,25.3,0.09826893,0.0651320299999999,-0.08132294,0.3226086,0.7275653,-10.34266,1
9272681,6554,4.13,-1.7,-1.07,2.45,1.78,20.57,24.19,-0.04730357,-0.05060319,-0.1082307,0.922565,0.7982924,-9.499762,1
9385188,6312,3.99,-2.07,-1.47,2.12,1.08,20.58,23.5,-0.02808067,-0.1452146,-0.119887,0.4607002,0.7111782,-9.364667,1
9705343,6155,3.93,-2.74,-2.17,2.59,1.4,20.56,21.41,-0.0256231,0.1708652,-0.07102285,0.4121665,0.602683,-9.139951,1
9822137,6009,3.79,-2.99,-2.51,3.06,1.86,20.53,21.27,-0.04422212,0.09633093,-0.01423114,0.4231422,0.6716118,-9.568317,1
9924212,5955,3.75,-3.11,-2.68,3.31,2.18,20.52,21.13,0.06226569,0.05465281,-0.02892648,0.4114485,0.6952892,-9.515407,1
10036940,5905,4.02,-3.16,-2.56,3.45,2.61,20.51,21.08,0.05082536,0.02077023,0.02267555,0.4815907,0.7100527,-9.41344,1
10142299,6136,4.04,-3.14,-2.39,3.44,2.77,20.51,21.09,0.06866394,-0.07031918,0.02307822,0.4365921,0.6187812,-9.436623,1
10359198,6257,4.14,-3.03,-2.45,2.95,2.27,20.54,21.71,-0.03261791,-0.2084718,0.0547909,0.810411,0.7180409,-9.798786,1
10463823,6285,4.14,-2.9,-2.53,1.49,0.56,20.62,22.25,-0.02422308,-0.4580837,0.05743444,1.011683,0.4621902,-9.941236,1
10681846,6299,4.4,-2.51,-2.27,1.45,-0.83,20.62,22.46,-0.0003617598,0.3006102,0.03802004,0.4793449,0.4539354,-9.902743,1
10803808,6228,4.5,-2.24,-1.56,3.0,1.73,20.56,22.27,0.1512143,0.4273469,0.05396296,0.6398219,0.4199282,-9.759603,1
10906900,6229,4.33,-2.15,-1.15,3.79,3.75,20.53,22.3,0.006327976,0.2695442,0.05006498,0.6262571,0.3233186,-10.0804,1
11012233,6300,4.34,-1.98,-1.31,4.08,4.42,20.52,22.44,-0.002503305,0.0003970866,0.04483974,0.5099293,0.4848754,-9.697362,1
11132661,6299,4.4,-2.05,-1.48,3.89,3.86,20.52,22.84,0.02685202,-0.1401168,0.01706376,0.5527679,0.5477707,-9.95451,1
11239523,6157,4.6,-3.48,-2.14,3.45,3.14,20.54,23.23,-0.1977258,-0.08468398,0.01792447,0.2873334,0.1277339,-9.806541,1
11351449,6490,4.47,-4.85,-4.2,3.15,2.96,20.57,23.6,-0.376698,-0.04408839,0.06551781,0.5931973,0.454758,-9.454527,1
11455678,6395,4.36,-5.35,-5.39,3.14,2.76,20.57,23.95,-0.1830501,0.01264488,0.05463635,0.6557776,0.534116,-9.571711,1
11565774,6298,4.44,-4.97,-5.65,3.13,2.8,20.57,24.11,0.008766497,0.005352497,0.05969873,0.8516923,0.6071138,-9.653011,1
11667693,6303,4.52,-4.56,-4.93,3.15,2.79,20.57,24.4,0.215176,-0.1087553,0.06984913,0.5802112,0.516459,-9.821785,1
11778647,6540,4.67,-4.09,-4.11,3.28,2.6,20.56,24.86,0.1057247,-0.0812243899999999,0.02713786,0.5770476,0.3745518,-9.893776,1
11890063,6365,4.33,-3.76,-3.77,3.43,2.55,20.54,25.0,-0.01723043,0.01024384,0.00650843,0.5799728,0.5407191,-9.919079,1
11993075,6316,4.76,-3.42,-3.24,3.58,2.75,20.54,24.85,0.1842469,0.06092633,0.0122323,0.2784436,0.5768815,-10.14678,1
12106686,6342,4.42,-2.86,-2.58,3.52,2.99,20.54,24.66,0.0720263399999999,-0.02413356,-0.01625453,0.5179452,0.5410576,-9.649622,1
12207249,6346,4.86,-2.47,-1.47,3.28,2.38,20.55,24.49,0.1092321,-0.06416611,-0.0159489,0.2725358,0.3934537,-9.769185,1
12318442,6439,4.6,-2.32,-1.31,3.3,2.02,20.55,24.43,-0.01647061,-0.01923104,0.01785748,0.3368798,0.4948183,-9.942269,1
12418900,6386,4.35,-2.19,-1.57,3.32,2.06,20.55,24.6,-0.05311003,0.01115065,0.03107085,0.5304558,0.3026789,-9.328933,1
12537008,6413,4.37,-1.63,-2.76,3.47,1.93,20.54,24.85,-0.1793233,0.09333067,0.06006296,0.6004876,0.5627574,-9.598876,1
12649334,6247,4.99,-1.2,-2.46,3.39,2.23,20.54,25.13,0.2086297,0.09068821,0.06384557,0.3775017,0.5704674,-10.1655,1
12863600,6537,4.98,-0.66,-0.54,2.44,3.75,20.56,25.9,0.1433703,0.04823803,0.1109134,0.4977322,0.4823587,-9.695146,1
12969221,6449,5.61,-0.97,-0.12,1.75,3.48,20.57,26.67,-0.08322482,-0.112913,0.1259818,0.4920558,0.4241022,-9.697542,1
13078178,6604,5.21,-1.57,-0.02,1.05,2.87,20.58,27.49,-0.04019437,-0.1271709,0.0920601,0.4861387,0.5184127,-9.949392,1
13189938,6649,4.78,-2.13,-0.49,0.61,1.73,20.6,28.02,-0.184325,-0.2832856,0.004341184,0.4800944,0.4467307,-9.886684,1
13300857,6561,5.09,-2.83,-1.41,0.32,0.61,20.61,27.93,-0.1377038,-0.05744867,-0.05637724,0.263715,0.7540725,-9.461974,1
13521326,6622,4.86,-5.91,-5.26,0.38,0.03,20.6,26.38,-0.2638851,0.01266728,-0.1818271,0.1337506,0.7086434,-9.863338,1
13630427,6479,4.07,-6.77,-6.15,0.55,0.26,20.58,25.21,0.01628502,0.03966676,-0.2356777,0.2811776,0.8079806,-10.01027,1
13737812,6257,4.05,-7.07,-6.99,0.75,0.41,20.56,23.8,-0.2136326,-0.02778364,-0.2187008,0.3162414,0.7963284,-9.621117,1
13848890,6133,3.89,-7.21,-6.99,0.96,0.44,20.53,22.33,0.01094945,0.06108363,-0.2216323,0.2859527,0.8737161,-9.311255,1
13946689,6180,4.0,-7.35,-6.57,0.81,0.96,20.55,21.16,0.1126399,0.1762278,-0.1823268,-0.008614432,1.169651,-9.738338,1
14051845,6101,3.75,-7.66,-6.09,0.49,1.57,20.59,20.02,0.02170016,0.05293939,-0.1830196,0.2207411,0.5560879,-9.571179,1
14162784,6203,4.31,-8.06,-5.9,0.09,1.73,20.65,19.03,0.04383393,-0.0819595999999999,-0.1357485,0.1279095,0.575273,-9.69742,1
14274544,6241,3.67,-8.35,-6.76,-0.36,1.56,20.71,18.54,-0.1497985,0.06288239,-0.0551694,-0.07964234,1.051732,-9.687502,1
14487895,6044,4.56,-8.29,-7.53,-1.31,0.72,20.86,18.58,0.1214969,-0.1052226,0.03383925,-0.138147,1.062848,-10.31953,1
14712700,6281,3.95,-7.7,-6.22,-1.62,-1.27,20.9,19.65,-0.03418496,-0.2119546,0.03543548,0.07134646,0.9186773,-10.33094,1
14813180,6200,3.77,-7.53,-6.29,-1.28,-1.71,20.85,19.94,-0.07294324,-0.05629652,0.02795473,0.3285565,0.664007,-10.14564,1
14918854,6205,3.8,-7.42,-6.82,-0.85,-0.86,20.8,20.03,-0.1684441,0.2386264,0.01687453,0.3313109,0.8993461,-10.0054,1
15145216,6030,4.14,-6.89,-7.66,-0.17,0.79,20.71,20.52,0.06677029,0.08272765,0.05559963,0.1189828,1.265853,-10.30811,1
15260450,6124,4.27,-6.59,-7.01,-0.34,1.36,20.73,20.86,0.04044973,0.1176086,0.06620315,0.1521025,1.231453,-9.787051,1
15361890,6231,4.59,-6.41,-6.38,-0.47,1.42,20.75,21.47,0.06531828,0.02036965,0.1033034,0.1654503,0.9234393,-9.832029,1
15469293,6318,4.56,-6.49,-5.84,-0.64,1.57,20.77,21.98,0.08031318,-0.01997375,0.0398673,0.3131404,0.9475713,-9.876187,1
15578933,6384,4.42,-6.56,-5.25,-0.68,0.98,20.77,22.41,0.09191437,-0.1403773,0.07136682,0.449046,0.7098133,-9.929843,1
15683048,6342,4.14,-6.51,-5.09,-0.44,-0.14,20.74,22.83,0.03214608,-0.2578302,0.05404066,0.08405179,0.8463646,-9.774416,1
15800650,6338,4.2,-6.42,-5.22,0.09,-0.74,20.68,23.13,-0.1719215,-0.02864993,-0.003383836,0.1331961,1.007215,-10.16126,1
15900108,6299,4.59,-6.02,-4.93,0.73,-0.42,20.61,23.19,0.3352343,0.09560875,-0.02952814,0.114056,0.7936484,-9.705811,1
16007439,6282,5.46,-4.71,-4.3,1.63,0.89,20.53,22.88,-0.0979479199999999,0.3248541,-0.06150157,0.2185947,1.214875,-9.778094,1
16116418,6104,3.87,-3.82,-3.77,2.28,2.67,20.48,22.5,0.07097653,0.2203552,-0.0102949,0.4931413,1.685074,-9.518745,1
16224984,6172,4.1,-3.1,-2.91,2.89,3.53,20.44,22.29,0.1328928,0.1258336,-0.04242164,0.3369965,1.454095,-9.474957,1
16338750,6294,4.67,-2.84,-1.8,3.65,4.81,20.4,22.11,0.09037735,0.2174103,-0.02439289,0.3301053,1.237527,-9.486324,1
16445699,6386,4.34,-2.99,-1.37,4.65,5.6,20.35,22.36,-0.03232897,-0.006895528,0.04926675,0.2244465,1.053633,-9.824483,1
16554469,6399,4.52,-3.1,-1.97,5.04,5.87,20.33,22.44,0.04491697,0.03527093,0.0078266399999999,0.1899532,1.033255,-9.538475,1
16654286,6380,4.4,-3.35,-2.32,4.88,6.37,20.34,22.6,0.1118512,0.03806265,0.03001581,0.1028508,1.403083,-9.802616,1
16764226,6293,5.11,-3.51,-2.84,4.85,6.41,20.34,22.93,-0.0951116999999999,0.03186035,0.04479717,0.5020519,1.152758,-9.974904,1
16873878,6480,4.28,-3.48,-2.91,4.86,5.76,20.34,23.26,-0.07781228,-0.1445433,0.05108996,0.4635816,1.400692,-9.660545,1
16985899,6313,3.9,-2.29,-2.73,4.88,4.77,20.34,23.6,0.2971529,-0.1904282,-0.03238553,0.3685243,1.698601,-9.866554,1
17088471,6304,5.01,-0.79,-1.29,4.97,4.59,20.34,23.91,0.1043432,-0.002320423,0.0672214899999999,0.5644485,0.8970008,-9.613173,1
17210980,6473,4.69,0.74,0.48,5.82,5.25,20.34,24.27,0.2286952,0.05747322,0.02919089,0.4898502,1.005604,-10.32328,1
17311043,6493,4.33,1.77,1.42,7.1,6.06,20.37,24.66,0.1994974,0.1012849,0.0775798,0.5967186,0.9236423,-9.829158,1
17421608,6344,4.36,2.41,1.65,8.38,7.15,20.41,24.85,0.0930214699999999,0.239815,-0.03030915,0.4469911,0.7372651,-9.692764,1
17531409,6382,4.86,3.2,1.65,8.91,9.32,20.44,24.51,0.2000238,0.3913844,-0.1116997,0.5410897,0.9125506,-9.775037,1
17638790,6364,4.96,3.93,3.7,8.67,9.8,20.42,24.45,0.3278334,-0.1069853,0.02534776,0.8045028,0.8422857,-10.42668,1
17741636,6652,4.02,4.72,4.71,8.24,8.6,20.39,24.6,-0.04941782,-0.2080848,-0.02074683,0.6150606,0.7733717,-9.650458,1
17859298,6523,4.14,5.4,4.72,6.73,6.59,20.25,23.98,0.1346627,-0.382288,-0.1434172,0.6588486,0.7731965,-8.942435,1
17960471,6226,4.39,5.86,4.47,4.58,4.41,20.04,22.79,-0.0528593,-0.2201149,-0.1730446,0.3029836,0.8089458,-9.181642,1
18075242,6198,4.31,7.17,5.45,2.83,2.67,19.84,21.31,0.2494804,-0.2412632,-0.1775625,0.1020039,0.9391913,-9.470928,1
18177422,6185,4.42,7.67,7.07,1.82,1.73,19.71,20.11,0.2892314,-0.1233187,-0.1315938,0.1581719,0.6561003,-9.87674,1
18288787,6185,4.34,7.4,7.79,1.04,1.19,19.6,19.12,-0.006481719,-0.08814573,-0.07291918,0.3296018,0.4433236,-9.782541,1
18394051,6184,4.06,6.57,6.63,0.62,1.0,19.55,18.38,-0.2243839,-0.01950543,-0.05606522,0.1830593,0.6418478,-9.698047,1
18511852,6164,4.13,5.47,5.02,-0.89,0.43,19.39,18.06,-0.2053067,-0.2916764,-0.01838968,0.5816678,0.6934698,-9.632748,1
18609911,6118,4.43,4.7,4.16,-2.19,-1.09,19.28,18.0,-0.1385238,-0.2997768,0.01062081,0.3276835,0.4989878,-10.02508,1
18714683,6228,4.19,4.15,3.21,-3.29,-2.79,19.19,18.02,-0.1384177,-0.2468675,0.01570281,0.1964453,0.4885617,-9.802201,1
18837297,6235,4.22,4.38,2.71,-3.95,-3.69,19.14,18.1,-0.02377365,-0.1291246,0.04561212,0.3422012,0.5377701,-9.837129,1
18932297,6283,4.35,4.39,2.86,-4.34,-4.25,19.11,18.46,0.04047742,-0.03861983,0.02406424,-0.09558433,0.372827,-10.23378,1
19152870,6260,4.81,3.88,2.93,-5.48,-4.88,19.03,18.98,0.02521878,-0.003626553,0.04254013,0.1138776,0.3522696,-9.895598,1
19262879,6400,4.45,2.72,2.04,-6.16,-5.07,18.99,19.23,-0.2763456,-0.02009839,0.06609182,0.3244214,0.3679202,-10.04059,1
19372864,6427,4.98,0.87,0.41,-7.32,-6.16,18.95,19.82,-0.3518904,-0.1580006,0.04979534,0.1257595,0.2302573,-9.829455,1
19480514,6411,4.27,-0.91,-2.4,-7.86,-6.97,18.95,20.22,-0.4440534,-0.0828174,0.04385612,0.1787057,0.6699557,-9.433274,1
19592642,6275,4.56,-2.01,-4.25,-8.39,-7.54,18.96,20.4,-0.2978064,-0.03792665,0.01063266,0.1795176,0.5003095,-9.954083,1
19710302,6490,4.83,-2.97,-5.06,-8.26,-7.64,18.96,20.53,-0.171874,0.1031461,0.02774086,-0.156024,0.3167878,-10.36241,1
19816870,6518,4.05,-4.67,-6.77,-7.44,-6.48,18.9,20.59,-0.3275809,0.2586522,0.01103921,0.08437221,0.5223572,-10.06254,1
19928113,6303,4.52,-5.54,-8.24,-6.99,-5.03,18.86,20.46,-0.07383139,0.1980395,-0.03564328,-0.007627371,0.465073,-10.19403,1
20138431,6228,4.29,-7.84,-9.87,-6.29,-3.98,18.78,20.02,-0.1403336,-0.106572,-0.05241408,0.001666432,0.6022529,-10.07901,1
20254136,6238,4.31,-8.44,-10.44,-6.26,-3.74,18.77,19.77,0.03125163,-0.05405377,-0.02569108,-0.004654165,0.757335,-9.958261,1
20353726,6333,4.32,-8.73,-10.25,-6.23,-3.77,18.77,19.58,0.05570427,-0.0195074,-0.0646384099999999,0.1071737,0.5307655,-9.808242,1
20464089,6439,4.38,-8.83,-9.64,-6.33,-3.86,18.79,19.14,0.0701976899999999,-0.05707834,-0.115473,-0.2666848,0.4565356,-10.12507,1
20576497,6301,4.13,-8.98,-9.7,-6.35,-3.97,18.79,18.62,-0.08944522,0.02112698,-0.1061311,-0.1973998,0.5836372,-10.06765,1
20679286,6160,4.34,-9.55,-9.83,-6.37,-3.76,18.79,18.22,-0.1101332,0.03494691,-0.05829235,-0.1141122,0.6130488,-9.852776,1
20788852,6264,4.38,-10.41,-10.32,-6.27,-3.69,18.77,18.04,-0.1218879,-0.0790577799999999,-0.00117514,-0.1686756,0.9197171,-9.769761,1
20896340,6187,4.76,-11.45,-10.98,-6.13,-3.73,18.75,18.0,-0.09474022,-0.004026654,-0.004955832,-0.1482034,0.5136926,-9.599467,1
21008052,6403,4.51,-11.73,-11.63,-6.17,-3.8,18.76,17.95,-0.09872652,0.0079890759999999,-0.0006163227,-0.3810659,0.7379645,-10.48362,1
21122044,6440,4.54,-11.6,-11.61,-6.06,-3.83,18.73,18.05,0.07720808,0.080176,0.02887553,-0.2886706,0.8263667,-10.2012,1
21220458,6272,4.56,-11.14,-11.2,-6.13,-3.46,18.75,18.28,0.144442,0.0955524299999999,0.05618194,-0.02580346,0.9713258,-9.837764,1
21339193,6402,4.52,-8.74,-9.19,-6.25,-3.46,18.77,18.94,0.5696311,-0.1209524,0.1071703,0.007060941,1.481715,-10.13846,1
21450797,6447,5.16,-7.01,-5.29,-5.7,-4.02,18.69,19.69,0.4957038,0.002268918,0.1244279,-0.2584546,0.4297523,-10.33394,1
21550083,6500,4.81,-5.22,-2.93,-4.88,-3.48,18.6,20.27,0.4563688,0.1560019,0.1178554,-0.2572775,0.9833883,-10.27388,1
21668173,6505,4.82,-4.28,-0.76,-3.73,-2.64,18.51,20.64,0.1686513,0.131737,0.0183899,-0.01967209,0.9676901,-9.806134,1
21769450,6567,4.12,-4.13,-0.69,-2.92,-2.23,18.45,20.38,-0.09221678,0.07003644,-0.05704602,-0.5132339,0.4174538,-9.814743,1
21878092,6481,4.73,-4.09,-2.06,-2.61,-1.25,18.43,19.73,-0.2014325,0.05545146,-0.1329073,-0.3149635,0.7409614,-9.98571,1
21993761,6320,4.5,-4.13,-2.98,-2.26,-1.11,18.4,19.01,-0.01428578,0.00232023,-0.1110387,-0.3001776,0.8449456,-10.15946,1
22106660,6404,4.46,-4.04,-3.08,-2.3,-1.1,18.41,18.28,-0.002418592,-0.03205539,-0.09391695,-0.323733,0.6489671,-10.28155,1
22215444,6271,3.98,-3.78,-3.29,-2.28,-1.23,18.4,17.72,-0.04908429,-0.01331465,-0.04942605,-0.2548935,0.9674366,-9.600028,1
22324335,6279,4.3,-3.66,-3.18,-2.12,-1.03,18.39,17.38,-0.04602556,0.1060439,-0.03652144,-0.3019369,0.7793969,-9.801936,1
22421468,6353,4.13,-3.52,-3.38,-1.97,-0.55,18.38,17.25,-0.03055467,0.0604048,0.02714703,-0.2646098,0.894564,-9.771226,1
22644644,6189,4.35,-3.28,-3.53,-1.87,-0.37,18.38,17.45,0.03679857,-0.08774164,0.04739618,-0.3107922,1.07651,-9.514983,1
22752685,6287,4.35,-3.21,-3.39,-1.71,-0.64,18.37,17.74,0.01041608,-0.1053088,0.04962816,0.01772929,0.7955055,-9.560831,1
22858321,6328,4.63,-3.25,-3.47,-1.38,-0.83,18.35,18.05,0.0082716019999999,-0.01700759,0.05651475,-0.4185711,0.6317845,-10.21359,1
22976896,6349,4.79,-3.15,-3.15,-0.65,-0.33,18.31,18.49,0.07584093,0.09256024,0.07161761,-0.282356,0.7252714,-10.30101,1
23189436,6429,4.51,-2.65,-2.76,0.43,0.66,18.25,19.39,0.02480367,0.04444283,0.06263388,-0.1767498,0.7290803,-10.15778,1
23299836,6492,4.18,-1.53,-1.96,0.73,1.04,18.24,19.57,0.2032708,0.04172759,0.005605707,-0.25777,0.7206936,-10.32562,1
23408885,6313,4.56,0.19,-0.45,0.83,1.17,18.24,19.53,0.2481558,0.03392597,-0.008132448,-0.2729472,0.6888554,-10.22697,1
23518803,6272,4.45,1.34,1.14,0.84,1.08,18.24,19.41,0.1924381,-0.03221056,-0.03384367,-0.3861893,0.5710459,-9.856494,1
23624522,6339,4.62,1.91,1.97,0.82,1.1,18.24,19.3,0.07866779,-0.01590471,-0.005632356,-0.2742406,0.490731,-10.04675,1
23853939,6236,4.51,-0.85,-1.44,0.78,0.64,18.24,19.1,-0.2484094,-0.007736618,0.02527717,-0.3153352,0.7508083,-9.691525,1
23954875,6414,4.6,-1.49,-2.46,1.46,0.76,18.22,19.21,-0.1440179,0.08542574,0.02533969,-0.03504989,0.8412086,-9.971889,1
24063499,6419,4.73,-1.72,-2.61,1.75,1.36,18.22,19.31,0.06896799,0.05544645,0.01210451,-0.1455555,0.971671,-9.798979,1
24173203,6471,4.76,-1.89,-2.04,2.05,1.46,18.21,19.37,0.02770961,0.03447562,0.02319674,-0.2327795,0.882459,-10.00651,1
24274781,6470,4.63,-2.15,-1.68,2.41,1.73,18.19,19.51,0.06221852,0.02664929,0.02701648,-0.1745171,0.8233939,-9.999673,1
24383760,6458,4.62,-2.6,-2.32,2.44,1.76,18.19,19.65,-0.2088721,0.03772613,-0.003886895,0.01984349,0.4718306,-9.525896,1
24494855,6488,5.14,-3.05,-2.7,2.39,1.71,18.19,19.89,0.009521348,-0.02667695,0.05154424,0.03350512,0.7681082,-9.860114,1
24608860,6634,5.06,-3.66,-2.4,3.05,1.54,18.15,20.42,0.04013866,-0.05397612,0.07349032,-0.0952555499999999,0.7997022,-10.08438,1
24720903,6692,4.44,-3.9,-2.88,3.8,1.82,18.1,20.88,-0.1156214,0.0742444,0.06405798,0.08181489,0.8455191,-9.761175,1
24833807,6475,4.74,-3.97,-3.28,4.18,2.41,18.08,21.16,0.08957542,0.1531438,0.04650344,0.1214881,0.76616,-9.700077,1
24933931,6419,5.2,-4.01,-3.16,3.92,2.87,18.1,21.41,-0.05014803,-0.02909457,-0.0009274701,0.1180164,0.6111075,-10.13346,1
25044417,6543,4.76,-3.99,-2.91,3.6,2.74,18.12,21.6,0.02143613,-0.04207276,0.01666956,-0.1018688,0.7555318,-9.526117,1
25152072,6642,4.94,-4.24,-2.94,3.24,2.6,18.14,21.54,-0.05715062,0.05591554,0.02055082,-0.1541384,0.699029,-9.971985,1
25271055,6643,4.7,-4.61,-3.38,2.86,2.43,18.17,21.3,-0.0935543499999999,-0.009089473,-0.02790312,-0.1992199,0.9706445,-9.844503,1
25371918,6649,4.69,-4.87,-3.92,2.6,2.15,18.2,20.96,-0.01230567,-0.04785237,-0.06076754,-0.2585871,0.8976911,-9.343483,1
25479267,6471,4.56,-5.04,-4.42,2.18,2.2,18.23,20.21,-0.09674873,0.134719,-0.1510686,-0.4768554,0.9144433,-9.481864,1
25594102,6504,4.55,-5.01,-4.88,1.77,1.92,18.27,19.23,0.01351836,-0.04523066,-0.1367392,-0.1882873,1.055303,-10.20506,1
25695436,6415,4.45,-4.95,-4.8,1.53,1.48,18.29,18.69,0.06123811,-0.0772473199999999,-0.07502779,-0.07579258,0.8898259,-9.748758,1
25808317,6512,4.06,-4.08,-4.56,1.38,0.98,18.3,18.5,0.04961155,0.02085258,0.002299751,-0.04542016,0.913746,-10.12302,1
25909227,6497,4.95,-1.93,-2.43,1.31,0.95,18.31,18.58,0.5109618,-0.0851808399999999,0.0092030889999999,0.06793585,0.8161603,-9.764956,1
26028821,6454,4.71,-0.92,0.36,1.17,1.13,18.31,18.76,0.1523443,0.02913202,0.03210757,-0.1325165,0.6121159,-9.920397,1
26131312,6578,4.57,-0.91,0.84,1.0,1.01,18.31,18.87,-0.08724815,0.03644834,0.02841481,-0.2085269,0.724102,-9.404541,1
26351053,6440,5.13,-1.91,-1.69,0.56,0.69,18.32,19.41,-0.02558532,0.0301349,0.03234258,-0.1225389,1.008447,-9.544584,1
26461970,6428,5.09,-2.28,-2.08,0.28,0.85,18.33,19.95,-0.0321384,0.04064007,0.09714831,0.1485669,1.048307,-9.538111,1
26567289,6698,4.78,-2.33,-2.3,0.18,0.27,18.34,20.42,-0.02729555,-0.05685508,0.03385203,-0.1913985,0.9107644,-9.825911,1
26786849,6686,4.96,-2.66,-1.59,-0.13,-0.1,18.35,20.71,0.0162941,0.05613645,-0.008214944,-0.3234641,0.6675302,-10.25238,1
26886956,6710,4.5,-3.94,-2.53,0.05,-0.19,18.34,20.45,-0.2076947,-0.03387229,-0.09018647,-0.08881875,0.77437,-9.383262,1
26995017,6525,4.73,-4.97,-4.24,0.5,0.57,18.3,20.15,-0.1591148,0.1411191,-0.007518793,-0.4548938,1.172938,-9.671207,1
27105201,6497,4.27,-5.5,-5.3,0.39,0.61,18.31,20.03,-0.1393908,-0.07341178,-0.01300789,-0.4505003,0.9188574,-10.30428,1
27214342,6455,4.66,-5.5,-5.53,0.0,-0.29,18.35,20.09,0.07584361,-0.1601363,-0.01485629,-0.2950355,0.7256427,-9.987175,1
27321009,6433,3.85,-4.01,-4.76,-0.27,-0.91,18.38,20.2,0.229337,-0.0896704,-0.009532443,-0.3315908,0.7231481,-9.623028,1
27433927,6240,4.05,-2.37,-3.12,-0.4,-0.83,18.38,19.9,0.1963752,0.06651817,-0.07626144,-0.1623029,1.092245,-9.42663,1
27538456,6202,4.41,-1.29,-1.4,-0.36,-0.64,18.38,19.25,0.2966418,0.1017867,-0.1004039,-0.2396185,0.49618,-9.221569,1
27656343,6226,4.08,-0.73,-0.21,-0.32,-0.57,18.38,18.18,0.03521271,0.04330048,-0.191145,-0.1634854,0.4328918,-9.689492,1
27872397,6210,3.66,-0.3,-0.05,-0.18,-0.66,18.38,16.23,-0.02270597,0.01490183,-0.1097826,-0.09670518,0.6986872,-10.15355,1
27977871,6056,3.72,-0.2,-0.46,-0.06,-0.81,18.38,15.72,-0.127699,0.01916262,-0.05062395,0.04454501,0.3379785,-9.291032,1
28087408,6044,3.91,-0.16,-0.77,0.01,-0.7,18.38,15.42,-0.04216762,0.04707473,-0.04352175,-0.3637062,0.7788495,-9.617859,1
28298870,6070,3.87,-0.32,-0.1,0.26,-0.22,18.38,15.45,-0.05305815,-0.05472619,0.059082,-0.4451066,0.4269953,-9.739737,1
28418265,6062,3.91,-0.4,-0.52,0.3,-0.11,18.38,15.76,-0.04993154,0.04801959,0.04606317,-0.481522,0.9175338,-9.843251,1
28517766,6110,3.88,-0.5,-1.14,0.39,-0.21,18.38,15.94,-0.005662107,-0.05654635,0.03493864,-0.1757589,0.517524,-9.967257,1
28738249,5972,3.85,-1.75,-2.25,1.3,0.28,18.36,16.37,-0.1265108,0.1605423,0.04520392,0.06100825,0.6483674,-9.924335,1
28851240,6006,4.08,-2.24,-3.05,2.11,0.72,18.33,16.78,-0.05731238,0.05592388,0.07403961,0.1164573,0.6391786,-10.14756,1
28958001,6086,4.08,-2.46,-3.23,2.79,1.31,18.3,17.23,0.05707569,0.1024889,0.1144023,0.2644497,0.6504477,-9.611767,1
29062221,6114,4.2,-2.64,-3.08,3.19,1.67,18.28,17.59,0.0006464547,-0.03610004,0.0433613,0.2899339,0.6002834,-10.14108,1
29173337,6141,4.19,-2.69,-3.09,3.3,1.72,18.28,17.88,0.007225954,-0.02110814,0.04599324,0.07636514,0.7473604,-9.57737,1
29287869,6147,4.45,-2.84,-2.73,3.39,1.94,18.27,18.09,0.09576587,-0.0524651,0.02721135,-0.04276206,0.59908,-9.889664,1
29388026,6312,4.24,-2.86,-2.96,3.79,1.93,18.25,18.22,-0.08296682,0.09592563,0.01494419,0.09027998,0.8161123,-9.701323,1
29503698,6143,4.27,-3.01,-3.21,4.13,2.43,18.24,18.38,-0.0727670599999999,0.03780324,0.01862493,0.1371569,0.6977512,-9.60114,1
29616435,6228,4.52,-3.13,-3.34,4.4,2.88,18.22,18.49,0.02055833,0.007192268,0.02976996,0.08903704,0.6918634,-9.892688,1
29715887,6373,4.61,-3.31,-3.19,4.52,3.16,18.21,18.47,0.009291844,0.09352478,-0.03217101,0.11488,0.6987327,-10.05153,1
29922862,6454,4.48,-3.66,-3.32,4.28,3.21,18.23,18.5,-0.04850779,-0.05083792,0.03140712,0.310067,0.8336236,-9.604215,1
30032276,6259,4.42,-3.89,-3.77,4.21,3.16,18.23,18.71,-0.03610636,-0.009367207,0.04355594,0.2517282,0.8882146,-9.501636,1
30141403,6345,4.39,-3.73,-4.01,4.39,3.38,18.22,18.94,0.06342655,0.1101833,0.04590869,0.2218007,0.7888261,-9.783074,1
30260487,6421,4.56,-3.38,-3.52,4.56,3.8,18.21,19.06,0.1648737,0.05148434,-0.004055962,0.331109,0.6376845,-10.34841,1
30358310,6359,4.42,-3.01,-3.07,4.52,3.95,18.21,18.97,0.1080352,-0.03734006,-0.003025176,0.4850913,0.7988624,-9.810184,1
30468839,6390,4.31,-2.82,-2.67,4.4,3.61,18.22,18.76,0.001336336,-0.04831528,-0.05028867,0.3922845,0.6284577,-9.94917,1
30576326,6246,4.3,-2.7,-2.45,4.11,3.09,18.23,18.53,0.05580711,-0.1255102,-0.02087344,0.3230146,0.6459723,-9.69436,1
30690272,6331,4.25,-2.68,-2.46,3.82,2.77,18.25,18.43,0.002525619,0.008326589,-0.02124539,0.5013388,0.824501,-9.645597,1
30796316,6231,4.48,-2.83,-2.3,3.66,2.37,18.25,18.4,0.00347669,0.03039161,-0.008151435,0.3543734,0.7731241,-9.891609,1
31008499,6284,4.29,-3.02,-3.01,3.6,2.32,18.26,18.43,-0.04544099,-0.04287408,0.02306067,0.2858076,0.8258792,-9.763126,1
31225414,6228,4.38,-3.38,-2.94,3.52,2.42,18.26,18.55,0.007197593,0.07424699,-0.04409753,0.5280265,0.857527,-10.13514,1
31336383,6339,4.1,-3.46,-3.3,3.34,2.4,18.27,18.42,-0.1141138,-0.01379711,-0.0005313333,0.317883,0.8647703,-9.842207,1
31448630,6188,4.32,-3.55,-3.51,3.12,2.72,18.29,18.43,-0.03014706,0.0985160499999999,0.01845333,0.2985325,0.920039,-9.473033,1
31554478,6258,4.2,-3.51,-3.59,2.91,3.0,18.3,18.69,0.05418382,0.06546865,0.03430522,0.3174081,0.860146,-9.681199,1
31661276,6328,4.49,-3.5,-3.4,2.58,3.2,18.32,19.2,-0.03104586,0.0103519,0.09048044,0.2930714,0.5367548,-9.86721,1
31777198,6329,4.9,-3.31,-3.46,2.29,3.02,18.34,19.89,0.0005030106,-0.04828157,0.1182837,0.3517893,0.7003142,-9.691435,1
31883458,6349,4.63,-3.23,-3.39,2.08,2.71,18.35,20.57,0.03094354,-0.1223846,0.09367117,0.2763224,0.8500947,-10.22139,1
31995330,6440,4.89,-3.25,-3.17,2.09,2.13,18.35,21.24,0.04758403,-0.1093064,0.0894892199999999,0.457717,0.7085736,-9.989845,1
32099289,6567,4.96,-3.19,-3.3,2.24,1.63,18.34,21.74,-0.08528113,-0.03646638,0.03289985,0.5529068,1.006536,-9.915958,1
32215400,6484,4.65,-3.18,-3.4,2.49,1.78,18.33,21.95,-0.1568334,0.09071498,0.01593201,0.4164976,0.7226065,-9.712649,1
32428814,6469,4.68,-2.95,-3.29,2.86,2.51,18.31,21.38,0.1216086,0.03921475,-0.1010628,0.2861142,0.6091785,-9.9144,1
32538796,6438,4.65,-3.25,-3.18,2.72,2.74,18.31,20.67,-0.1004121,0.08616635,-0.1231586,0.4477082,0.278521,-9.662988,1
32641876,6398,4.2,-3.49,-3.7,2.44,2.7,18.33,19.95,-0.1133653,-0.006385685,-0.113713,0.1276262,0.6332926,-10.14032,1
32976434,6265,4.14,-3.66,-3.89,1.62,1.92,18.38,18.23,0.02312761,0.008356255,-0.03552814,0.2127045,0.7343768,-10.364,1
33079450,6086,4.17,-3.65,-3.77,1.59,1.89,18.38,18.03,-0.0400017,0.001515126,-0.04588098,0.1649631,0.6670331,-9.280649,1
33192851,6139,4.37,-3.78,-3.55,1.63,1.78,18.38,17.92,0.0458698,0.01285091,-0.007627045,0.4477471,0.9032466,-9.651086,1
33303465,6261,4.18,-3.99,-3.69,1.56,1.8,18.39,17.9,-0.05790583,0.1405754,0.01187905,0.1228247,0.9058717,-9.692389,1
33409976,6328,4.56,-4.2,-3.97,1.27,2.2,18.41,18.14,-0.1062001,0.07647027,0.06324514,0.223085,0.5339457,-9.40414,1
33521067,6345,4.9,-4.24,-4.4,1.0,2.12,18.43,18.66,-0.02550917,0.007426245,0.0785726499999999,0.3205208,0.9516103,-9.739767,1
33635483,6417,5.46,-4.83,-4.3,0.55,2.25,18.46,19.18,0.02071224,0.000288607,0.06412526,0.2980756,0.661629,-9.979442,1
33737087,6530,4.72,-6.1,-5.45,0.32,1.75,18.48,19.63,-0.3063583,-0.07877792,0.07624627,0.2378404,0.753149,-10.1962,1
33847288,6550,4.67,-6.76,-6.94,0.26,1.07,18.49,20.05,-0.2174486,-0.0524571,0.05610885,0.3015377,0.6795779,-9.631459,1
33952052,6466,4.7,-6.62,-7.7,0.26,0.93,18.49,20.21,-0.0089701009999999,-0.06879662,0.02096714,0.3325526,0.8993228,-9.723662,1
34064227,6366,4.51,-5.93,-7.42,0.4,0.88,18.47,20.18,0.07294629,-0.01388426,-0.0178005,0.2646011,0.5250652,-9.567212,1
34171272,6310,4.84,-4.77,-6.87,0.62,0.86,18.45,20.11,0.1426794,-0.006056896,-0.02807537,0.2844411,0.8869615,-9.750181,1
34277324,6443,5.0,-4.06,-5.11,0.86,0.27,18.44,19.66,0.2819173,-0.08579668,-0.1157453,0.01517361,0.5978205,-10.38743,1
34498902,6469,4.94,0.51,0.43,1.06,0.52,18.43,18.68,0.6322334,1.999955e-05,-0.003055125,0.3507026,1.088163,-10.29272,1
34603764,6428,3.69,1.49,3.39,1.33,0.17,18.44,18.61,0.2524134,-0.02931154,-0.01478194,0.1584637,0.3146462,-9.954844,1
34720460,6414,3.66,1.58,3.14,1.6,0.01,18.44,18.35,-0.3032657,-0.05154133,-0.0728474499999999,0.402386,0.3202339,-9.504198,1
34831396,6050,4.08,0.92,1.74,1.84,0.32,18.45,17.89,-0.01721019,0.0153338,-0.09791901,0.3418879,0.9962373,-9.365234,1
34939940,6013,4.06,-1.17,0.05,2.09,0.72,18.45,17.51,-0.3450302,0.1797278,-0.0543039,0.1099839,0.498242,-9.478654,1
35052606,6153,3.72,-2.74,-2.08,2.4,0.56,18.44,17.24,-0.2636063,-0.1963491,-0.06495643,0.1779632,0.9565009,-9.656937,1
35164529,6103,3.76,-3.75,-3.62,2.68,0.68,18.42,17.14,-0.2248655,0.1391147,-0.01376343,0.0283138,1.167068,-9.48528,1
35257448,6029,3.96,-4.23,-4.17,2.74,1.43,18.42,17.23,-0.1178205,0.1112302,0.0418154,0.1086519,0.6920525,-9.717491,1
35377239,6103,4.63,-4.34,-4.73,2.92,2.49,18.4,17.67,-0.01103631,0.08416269,0.06667271,0.6249422,0.9026606,-9.84349,1
35489324,6261,4.67,-4.41,-4.19,3.2,2.61,18.38,18.01,0.06036645,0.002685214,0.03449851,0.3294038,0.6863902,-10.34358,1
35698896,6204,4.31,-4.5,-3.55,3.71,2.52,18.34,18.71,-0.05872843,0.01240544,0.07644347,0.5375849,0.7783862,-9.876681,1
35815312,6319,4.49,-4.5,-3.96,4.2,2.73,18.3,18.99,-0.1500246,0.02264771,0.04311358,0.7220402,0.7179012,-9.767118,1
35925858,6188,4.49,-4.5,-4.46,4.75,2.72,18.26,19.16,-0.05061464,-0.0417975,0.0231927,0.4787286,0.8007335,-10.12147,1
36025775,6234,4.32,-5.25,-5.27,4.99,3.11,18.24,19.28,-0.1504231,0.07364511,0.03066662,0.6040802,0.3399836,-10.02285,1
36147255,6353,4.37,-5.75,-6.66,5.33,3.98,18.21,19.3,-0.1134615,0.09855395,0.02105455,0.5804378,0.8272572,-9.43574,1
36245428,6315,4.35,-5.71,-6.87,5.49,4.91,18.19,19.18,0.03803292,0.1319998,-0.02275891,0.7429433,0.8106142,-9.41321,1
36453526,6356,4.13,-4.66,-4.67,5.54,5.04,18.19,18.91,0.2932455,-0.02404421,-0.03631363,0.596701,0.4622007,-9.728821,1
36565801,6322,4.23,-4.05,-3.67,5.45,4.53,18.19,18.54,0.1379334,-0.1387449,-0.09504791,0.6793089,0.570871,-9.416808,1
36672058,6215,4.06,-3.85,-2.86,5.43,4.12,18.19,18.04,0.02015312,-0.0397234,-0.07151238,0.4549408,0.4911621,-9.722816,1
36785021,6265,3.96,-3.72,-2.88,5.32,4.23,18.2,17.55,-0.09418093,-0.006546904,-0.07980959,0.2588501,0.5069944,-9.51643,1
36892095,6075,4.24,-3.68,-3.08,5.2,4.69,18.21,17.21,0.07944793,0.07558121,-0.02704016,0.4736872,0.7804379,-9.733484,1
37002480,6161,4.34,-3.66,-2.79,5.01,4.57,18.22,16.92,0.07753382,-0.07093484,-0.05890045,0.3799081,0.7369671,-9.473715,1
37117910,6068,4.0,-3.71,-2.31,4.7,3.63,18.24,16.67,-0.04324685,-0.1579189,-0.03917286,0.3163401,0.6282252,-10.31339,1
37218303,6035,3.81,-3.69,-2.92,4.54,2.97,18.25,16.75,-0.0896116899999999,-0.01330051,0.08482227,0.4904806,0.8593568,-9.125629,1
37327282,5963,4.47,-3.7,-3.4,4.5,3.44,18.25,17.52,-0.0889258899999999,0.126212,0.1695661,0.2365007,0.4465419,-9.707303,1
37439226,6172,4.71,-3.49,-2.99,4.6,4.05,18.25,18.32,0.1086636,-0.03185634,0.08146427,0.7237043,0.7594363,-9.627838,1
37541061,6382,4.55,-3.34,-2.56,4.51,4.13,18.25,18.76,0.05241503,-0.08874549,0.07771081,0.4133378,0.6550112,-10.23007,1
37652105,6340,4.37,-3.37,-2.38,4.24,3.52,18.27,18.98,-0.01519167,-0.146558,0.02604026,0.5075698,0.6481576,-10.32808,1
37761306,6470,4.34,-3.68,-2.17,3.98,2.84,18.29,19.12,0.0880626199999999,-0.1705309,0.009804022,0.3036937,0.4970825,-10.2943,1
37874099,6186,4.01,-3.61,-2.92,4.04,2.45,18.28,19.1,-0.01818631,-0.06181707,-0.05972277,0.2461726,1.060543,-9.417108,1
37979872,6068,4.52,-3.78,-3.17,4.35,2.84,18.26,18.91,-0.001816515,0.05972725,-0.03641697,0.3346201,0.9487054,-10.20459,1
38087225,6187,4.24,-4.01,-2.77,4.96,3.5,18.22,18.57,0.05185715,0.1587999,-0.06195033,0.5063833,0.859633,-9.652996,1
38199215,6237,4.54,-4.26,-2.45,5.72,4.47,18.16,18.14,0.03898958,0.1341574,-0.04060415,0.1869509,1.051307,-9.979756,1
38298821,6359,4.81,-4.56,-2.83,6.14,5.47,18.13,17.85,-0.1688637,0.1927462,-0.04334035,0.57159,0.8508353,-9.500093,1
38410669,6440,4.29,-4.85,-3.81,6.08,6.46,18.14,17.57,-0.294753,0.136783,-0.04840977,0.5900929,0.8385172,-9.656323,1
38520073,6313,4.4,-4.88,-4.86,5.57,6.85,18.18,17.41,-0.05013369,-0.04087253,0.02304372,0.5839085,1.080886,-9.941632,1
38630059,6284,4.27,-4.81,-5.37,4.76,6.53,18.25,17.54,-0.05400042,-0.06696557,0.03536186,0.122855,0.9097906,-9.830522,1
38740266,6271,4.58,-4.62,-4.89,3.22,5.83,18.38,17.81,0.2023388,-0.2247214,0.03999851,0.6444986,1.211725,-10.16739,1
38854004,6292,4.67,-4.23,-3.73,1.79,3.92,18.49,18.27,0.1442429,-0.2718109,0.02733455,0.3390438,0.632201,-10.02791,1
38965495,6493,4.44,-3.33,-3.27,0.47,2.34,18.58,18.75,0.0895932599999999,-0.2150614,0.07264195,0.0766294899999999,1.208498,-10.08525,1
39067218,6297,4.77,-3.15,-2.32,-0.19,1.19,18.61,19.19,0.2227556,-0.1945183,0.03621278,0.318056,1.172467,-10.16546,1
39178022,6556,4.61,-3.23,-1.98,-0.51,0.28,18.63,19.59,0.1457636,-0.01999374,0.03049851,0.1970053,1.252433,-9.602338,1
39281414,6540,4.78,-3.39,-2.01,-0.49,-0.14,18.63,19.84,0.1625011,-0.1491641,0.0003213302,0.1063976,1.218951,-10.11746,1
39397092,6450,4.41,-3.68,-2.27,-0.15,-0.9,18.61,19.73,-0.01546535,-0.06888863,-0.02827635,0.6607453,0.8228794,-9.397611,1
39511019,6288,3.95,-3.98,-2.99,0.16,-0.58,18.59,19.57,-0.2689079,0.1001285,-0.01599186,0.1219586,0.8592645,-9.772789,1
39618050,6171,4.36,-4.35,-3.71,0.45,0.61,18.57,19.37,-0.1406662,0.2426812,-0.02446955,0.299975,1.014214,-9.71959,1
39729513,6199,4.2,-4.57,-4.55,0.6,1.25,18.56,19.17,-0.2193335,0.06263866,-0.003611073,0.4140264,0.8774808,-9.428072,1
39841961,6346,4.28,-4.52,-4.87,0.52,1.72,18.56,19.08,-0.2054858,0.07969008,0.01637173,0.3825068,0.926535,-9.921022,1
40057917,6382,4.69,-3.6,-4.8,0.38,1.45,18.57,19.85,0.1414192,-0.116687,0.0818637,0.2680514,0.8206179,-10.25128,1
40283954,6351,4.66,-2.95,-3.12,0.86,0.94,18.55,20.51,0.1372237,0.1715777,0.009394629,0.04727959,0.9624309,-9.826226,1
40382443,6554,4.73,-2.76,-2.97,0.98,1.69,18.54,20.49,-0.05393008,0.1371446,0.0189474,0.0080280909999999,1.139025,-9.987815,1
40492403,6419,4.45,-2.6,-2.54,1.11,2.66,18.53,20.59,0.1703164,0.1190619,0.01626608,0.09804457,1.365399,-9.724111,1
40609067,6481,4.63,-2.49,-2.49,1.23,2.89,18.53,20.65,-0.1990328,-0.03223044,0.004902762,0.1308063,1.100788,-10.2198,1
40708870,6441,5.03,-2.68,-2.43,1.3,2.79,18.53,20.65,-0.013563,0.005672984,-0.0084118,0.3475045,1.070666,-9.777719,1
40818637,6397,4.53,-3.02,-2.2,1.36,3.06,18.52,20.57,0.1706449,0.1026907,0.003606645,0.555804,1.122501,-9.893731,1
40929338,6546,4.46,-3.39,-2.21,1.42,2.94,18.52,20.4,0.02789992,-0.09220149,0.0009247641,0.04435256,1.346152,-9.511784,1
41036403,6412,4.33,-3.86,-2.48,1.55,2.77,18.51,20.27,0.005675812,0.01251827,0.02435271,0.5362918,1.369478,-9.842311,1
41151284,6231,4.23,-4.25,-2.86,1.7,2.3,18.5,20.15,0.08366501,-0.06491544,-0.001222071,-0.04137701,1.191984,-9.794769,1
41252269,6272,3.99,-4.92,-3.71,1.9,2.29,18.48,20.07,-0.3257906,0.1117777,-0.01415895,0.1290071,0.9055341,-9.526683,1
41355795,6298,4.27,-5.9,-6.24,2.52,2.96,18.43,20.05,-0.6031157,0.1324688,-0.002754368,0.1966045,1.107857,-9.004254,1
41464350,6272,5.4,-7.04,-8.32,3.48,4.36,18.32,19.86,-0.1383809,0.2077472,-0.00622028,0.01498271,1.387285,-9.901667,1
41576268,6579,4.81,-7.6,-8.4,4.27,5.35,18.21,19.58,0.07830723,0.04258901,-0.04563839,0.6064981,1.186427,-10.44427,1
41684813,6678,4.67,-7.78,-7.87,4.56,5.91,18.17,19.17,0.06923798,0.07201614,-0.06574234,0.3752078,1.356689,-9.6422,1
41794479,6521,4.09,-7.77,-7.98,4.65,6.29,18.16,18.69,-0.07386659,0.01935934,-0.09730206,0.2515069,1.262159,-9.734004,1
41906665,6350,4.23,-7.65,-8.21,4.56,6.26,18.17,18.23,-0.1546009,0.01971732,-0.03301004,0.6398696,1.091632,-9.367971,1
42011789,6257,4.61,-7.29,-8.14,4.65,5.52,18.16,18.04,0.05533966,-0.1030459,-0.02187538,0.4584494,1.408374,-9.300838,1
42124071,6260,4.43,-7.06,-7.72,4.62,5.45,18.17,17.9,0.07864421,0.04749718,-0.01671441,0.1945755,1.191354,-9.370675,1
42230432,6357,4.41,-7.0,-7.6,4.42,5.27,18.19,17.78,-0.01261135,0.02795117,-0.03695928,0.4831815,1.256307,-9.220259,1
42345471,6359,4.44,-6.9,-7.68,4.25,4.61,18.21,17.77,-0.06779505,-0.1029822,-0.03868257,0.3762886,1.326532,-9.900228,1
42447407,6401,4.37,-6.72,-7.45,4.2,3.99,18.22,17.54,0.09587758,-0.08589716,-0.09086224,0.5324214,1.303445,-9.431392,1
42561807,6437,4.18,-6.39,-7.24,4.3,3.72,18.21,17.03,0.09668197,0.03032261,-0.1101938,0.07555626,1.276975,-9.446198,1
42664508,6242,4.34,-6.24,-6.64,4.23,4.31,18.21,16.42,0.1802861,0.1530368,-0.08552497,0.4236576,1.113204,-9.972439,1
42773937,6242,4.05,-6.26,-6.0,4.15,4.53,18.22,15.96,0.1527927,0.04438091,-0.07114618,0.5639791,1.153247,-9.81568,1
42881672,6257,3.63,-6.47,-6.03,4.05,4.51,18.23,15.7,-0.1796543,-0.05270276,-0.02021507,0.2685356,1.014856,-9.254068,1
42988076,6260,4.03,-6.83,-7.08,4.19,4.04,18.22,15.9,-0.08799517,-0.1603753,0.01369009,0.6742641,1.429245,-8.985714,1
43101251,6048,4.03,-7.0,-7.87,4.46,3.86,18.18,16.18,-0.06404977,-0.05120992,0.01814292,0.5092222,1.351897,-9.569924,1
43207831,6144,3.96,-6.83,-7.94,4.7,3.84,18.16,16.14,-0.01464729,0.04805044,-0.05688358,0.2313925,1.562393,-9.415761,1
43316093,6185,3.74,-6.62,-7.6,4.63,3.95,18.16,15.84,-0.02318099,-0.0618256,-0.03020618,0.2758343,1.22955,-9.202228,1
43424255,6183,3.9,-6.42,-7.21,4.65,3.59,18.16,15.76,0.0934629399999999,-0.1477252,-0.01811472,0.5376947,1.139186,-9.317642,1
43531469,6155,4.19,-6.33,-7.0,4.51,3.54,18.18,15.64,-0.003848006,-0.01100301,-0.02707276,0.3992337,1.136663,-9.434646,1
43650517,6140,4.33,-6.27,-6.5,4.54,3.53,18.17,15.47,0.0818805799999999,-0.01838486,-0.0202181,0.3349433,0.9637608,-10.14946,1
43762213,6244,4.04,-6.24,-6.2,4.18,3.62,18.21,15.44,0.007195201,0.009379645,0.009372971,0.09560599,0.9784321,-9.611173,1
43863249,6275,4.31,-6.21,-6.3,2.66,3.48,18.38,15.54,0.07117662,-0.1434926,0.03464421,0.7728776,1.263707,-9.56655,1
43970422,6316,4.31,-6.23,-6.11,1.33,2.05,18.52,15.99,0.05091299,-0.2001503,0.01550302,0.3421029,1.266297,-10.4467,1
44188917,6342,4.5,-6.58,-5.5,0.15,-0.22,18.65,17.01,0.03706449,-0.04675096,0.05097465,0.4373825,1.251074,-10.41492,1
44308294,6346,4.09,-6.77,-5.61,0.19,-0.45,18.65,17.56,0.06118365,-0.03781911,0.0694777699999999,-0.01771182,1.053823,-10.12783,1
44403232,6266,4.39,-6.75,-6.22,0.31,-0.09,18.64,17.99,-0.1397949,0.1617017,0.1239948,0.4956284,1.066422,-10.07839,1
44520247,6206,4.49,-6.83,-6.61,0.59,0.22,18.6,18.49,-0.05740568,0.06506475,0.07895989,0.3873744,1.395826,-9.847965,1
44629233,6278,4.73,-6.89,-6.88,0.79,0.59,18.58,18.84,-0.05592132,0.0662686599999999,0.04742107,0.258344,0.9487554,-9.871145,1
44732298,6501,4.77,-6.8,-7.16,0.62,1.23,18.6,18.78,-0.03865162,0.09474067,0.001424654,0.4169513,1.241798,-10.02739,1
44852094,6583,5.12,-6.54,-6.94,0.34,1.26,18.63,18.82,0.1462244,-0.09322125,-0.01263013,0.3154202,1.230956,-9.76555,1
44959895,6571,5.01,-6.44,-6.6,-1.16,0.26,18.8,19.0,-0.007293992,-0.2249823,0.01130864,0.3588037,0.8379451,-9.76825,1
45059207,6576,5.12,-6.62,-6.68,-3.47,-1.65,19.07,19.3,-0.003052729,-0.3136317,0.01161489,0.261284,0.8577998,-10.56327,1
45174448,6674,5.03,-6.79,-6.92,-5.51,-4.64,19.31,19.88,-0.04357212,-0.3449488,0.03336533,0.01406605,1.1073,-10.18637,1
45274247,6581,4.97,-6.45,-6.97,-6.28,-5.89,19.4,20.19,0.01072377,-0.1003084,-0.006522764,-0.02849423,1.00705,-10.25609,1
45383998,6514,5.08,-5.64,-6.35,-5.52,-5.51,19.32,20.21,0.1421714,0.2915038,0.02455149,-0.2388869,1.321425,-10.127,1
45500288,6561,5.24,-5.03,-4.23,-2.95,-3.15,19.08,20.23,0.2654055,0.4186727,0.05151044,-0.2546135,0.9029298,-10.98704,1
45609110,6810,4.85,-4.81,-3.48,-1.1,-0.16,18.92,20.33,-0.01915326,0.3476053,0.02606313,0.3167638,1.113721,-9.616299,1
45721353,6639,4.82,-4.95,-4.42,-0.15,1.51,18.84,20.4,-0.2670614,0.09059159,0.01289987,0.4539162,0.8503986,-9.55757,1
45832080,6591,5.24,-5.14,-5.24,0.04,1.76,18.83,20.39,0.003674823,-0.01206599,0.006207942,0.103171,1.111276,-9.817251,1
45937781,6472,5.06,-5.09,-5.14,-0.27,1.54,18.85,20.32,0.07130439,-0.08635958,0.0001007518,0.09029826,1.40727,-9.961794,1
46049082,6585,4.76,-4.73,-4.89,-0.59,0.68,18.88,20.32,0.00796602,-0.1203852,-0.003047819,-0.0214113,1.313784,-9.715573,1
46158772,6589,5.04,-4.68,-4.69,-0.87,0.19,18.9,20.26,-0.03493207,-0.03453119,-0.04279977,-0.08781508,1.039086,-10.05042,1
46269474,6657,4.91,-4.74,-4.81,-0.97,-0.11,18.91,20.13,-0.1395372,-0.03331841,-0.01410896,0.08075784,1.228134,-9.831016,1
46378236,6654,5.15,-4.87,-5.05,-0.94,-0.2,18.91,19.99,-0.07865213,-0.02192051,-0.01761372,0.1327441,1.208329,-9.921737,1
46478430,6625,4.82,-4.92,-5.22,-0.87,-0.04,18.9,19.9,-0.04556467,0.05933419,-0.03011055,0.3343414,1.010685,-10.09411,1
46587250,6571,4.92,-5.25,-5.48,-1.56,-0.42,18.97,19.97,-0.02217533,-0.1735184,0.002525179,0.1994004,1.095408,-9.876515,1
46700288,6564,5.01,-5.6,-5.83,-2.37,-1.85,19.04,20.26,0.009199555,-0.166973,0.02971335,0.04604042,1.01488,-9.909379,1
46915779,6473,4.52,-5.75,-6.02,-2.36,-2.72,19.04,20.54,-0.02975737,0.03309144,-0.02327439,-0.0812072499999999,0.9212682,-9.694626,1
47024497,6568,4.93,-5.55,-6.08,-1.95,-2.06,19.0,20.2,0.07350817,0.1212082,-0.01980336,-0.0225323,1.080011,-9.858965,1
47236274,6404,4.68,-5.06,-5.34,-1.16,-0.67,18.93,19.56,0.03457784,0.116801,-0.02797718,0.03217292,1.117163,-9.807545,1
47349876,6585,4.58,-4.86,-5.01,-0.99,-0.26,18.91,19.35,-0.04639891,0.1024937,-0.01062738,-0.01106257,1.042763,-9.771791,1
47460101,6579,4.7,-4.77,-4.87,-0.84,-0.2,18.9,19.19,-0.01361793,-0.01869046,-0.02908865,-0.06109042,1.035131,-9.829676,1
47568882,6496,4.72,-4.71,-4.82,-0.76,-0.13,18.89,19.07,-0.0630088,0.03742195,0.002467966,0.00979564,0.9457849,-10.03397,1
47673290,6604,4.53,-4.61,-4.87,-0.66,-0.11,18.88,18.98,0.01552431,0.05953518,-0.01562802,0.04706873,1.097871,-9.885444,1
47778643,6377,4.6,-4.53,-4.83,-0.53,0.09,18.87,18.87,0.0643107099999999,-0.007786739,-0.01650755,0.04298412,0.9545416,-9.366635,1
47888543,6451,4.64,-4.43,-4.78,-0.34,0.22,18.86,18.86,0.03682516,0.03002665,-0.003810423,0.2581809,1.220063,-9.456275,1
47998802,6380,4.54,-4.47,-4.55,-0.18,0.23,18.85,18.8,0.03307117,-0.01306819,-0.0168527,-0.1595644,1.259725,-9.606002,1
48102665,6450,4.51,-4.47,-4.67,-0.19,0.53,18.85,18.76,-0.02988189,0.06938329,-0.009105666,-0.06337284,0.8709568,-9.469038,1
48210208,6309,4.57,-4.44,-4.79,-0.16,0.43,18.85,18.74,0.01865903,-0.07734518,-0.04781302,-0.0095333899999999,1.269067,-9.391205,1
48323100,6437,4.57,-4.42,-4.54,-0.09,0.12,18.84,18.69,0.06245204,0.0007794435,-0.03399557,0.01477579,1.067625,-9.610592,1
48431647,6555,4.24,-4.29,-4.59,0.06,-0.14,18.83,18.6,-0.09348293,0.0123442,-0.006717958,0.01289547,0.726272,-9.529712,1
48545100,6342,4.71,-4.14,-4.44,0.26,0.15,18.81,18.56,0.1195011,0.03704369,-0.003226499,-0.02575872,1.163832,-9.118635,1
48648286,6350,4.75,-4.54,-4.3,0.57,0.75,18.79,18.52,-0.008474076,0.09747316,0.0006199426,0.07578812,0.866276,-9.795938,1
48758007,6487,4.72,-6.12,-5.41,0.79,1.15,18.77,18.56,-0.2839677,0.05597736,0.04506648,0.0808836099999999,0.6314389,-9.650692,1
48860248,6514,4.6,-7.91,-7.42,0.9,1.2,18.76,18.65,-0.4258112,0.002386006,0.02957733,0.02042905,0.9217644,-10.10979,1
48972640,6512,4.6,-9.6,-9.77,0.93,1.11,18.75,18.87,-0.317696,-0.06627645,0.02709191,0.2099424,1.083588,-9.984421,1
49084884,6474,4.8,-10.63,-10.92,0.97,0.99,18.74,19.13,-0.08926191,-0.06332364,0.03671228,0.2126621,1.027766,-9.709373,1
49197696,6520,4.52,-11.13,-11.89,0.96,1.14,18.75,19.28,-0.1807131,0.02930504,0.02771514,-0.1598123,1.023842,-9.75751,1
49299002,6447,5.06,-11.35,-12.25,0.85,1.41,18.77,19.32,0.02037682,0.01306242,0.04307243,0.01669206,1.048938,-9.399925,1
49403476,6565,4.94,-11.19,-12.11,0.9,1.02,18.76,19.46,0.09233703,-0.03942468,-0.008333091,-0.1474766,1.117164,-9.74805,1
49517846,6473,5.26,-10.98,-11.65,0.65,1.3,18.81,19.48,0.03231527,-0.008906668,0.02563676,0.1163897,0.9820295,-9.5129,1
49629352,6702,5.06,-10.69,-11.14,0.27,1.13,18.88,19.61,0.1144423,-0.146902,-0.0107336,-0.2367991,1.173289,-10.39642,1
49730467,6726,5.25,-10.3,-10.39,-0.07,0.81,18.95,19.74,0.1942375,-0.1190663,-0.01803532,0.03965167,1.156317,-10.19812,1
49841940,6615,4.89,-10.2,-9.35,-0.15,-0.05,18.96,19.93,0.03005988,-0.06610069,0.003039599,-0.3009249,1.061723,-10.39454,1
49961028,6703,4.34,-9.34,-9.27,-0.08,-0.21,18.95,19.91,0.0628823,-0.003823209,-0.01186098,0.0202271,1.163786,-9.993365,1
50064804,6443,4.73,-8.71,-8.57,0.04,0.15,18.93,19.57,0.2429612,0.08861122,-0.06379932,0.2267326,1.298251,-9.840979,1
50284737,6452,4.21,-8.35,-8.26,0.56,0.36,18.85,18.53,-0.08534723,-0.003751912,-0.05857285,0.3156666,1.297576,-9.636687,1
50384950,6314,4.33,-8.54,-8.55,0.98,0.37,18.79,18.26,0.02356743,-0.01393975,-0.04631661,0.05859751,1.371786,-9.594808,1
50495208,6335,4.45,-8.76,-8.54,1.38,0.76,18.73,18.02,-0.06083003,0.1003756,-0.009714384,0.4992365,1.377115,-9.604294,1
50605010,6413,4.21,-8.85,-8.43,1.74,1.01,18.67,17.84,0.06464693,0.03847302,-0.004578306,-0.0662131599999999,1.158294,-9.729282,1
50708825,6267,4.05,-8.7,-8.73,1.87,1.44,18.65,17.58,-0.04876558,0.05145542,-0.03158159,0.237071,1.127226,-10.27992,1
50814345,6192,4.29,-8.75,-8.89,1.9,1.64,18.65,17.26,-0.03103352,0.04746273,-0.04521617,0.1140668,1.782368,-9.547681,1
50928062,6353,4.1,-8.93,-8.55,1.83,1.42,18.66,16.88,0.05320551,-0.01668059,-0.08287182,0.1056604,1.447909,-9.798613,1
51041218,6289,3.98,-8.96,-8.41,1.56,1.56,18.7,16.37,-0.07016617,0.054312,-0.09312785,-0.134259,1.200561,-10.01747,1
51144701,6192,3.61,-8.95,-8.75,1.3,1.47,18.74,15.89,0.00398149,-0.06609912,-0.1016453,-0.2582743,1.373825,-9.764478,1
51360328,6113,3.76,-9.03,-8.73,0.89,0.93,18.81,15.32,0.03050535,-0.03448267,-0.04688624,0.1912839,1.442744,-9.758467,1
51468658,6089,3.75,-9.22,-9.08,0.77,0.9,18.82,15.22,-0.05474447,-0.0186286,0.003899972,-0.1078858,1.744992,-9.860751,1
51578633,6180,3.95,-9.31,-9.25,0.67,0.85,18.84,15.12,0.0598097,-0.03587779,0.02307952,0.04946841,1.586334,-9.685795,1
51692221,6076,4.1,-9.69,-9.75,0.53,0.82,18.87,15.17,-0.06372272,0.0030852,0.003689275,0.2935145,1.646372,-9.226984,1
51801264,6160,4.42,-10.1,-10.15,0.33,0.3,18.9,15.51,0.03730548,-0.1187983,0.05384214,-0.2229883,1.633235,-9.908052,1
51915794,6223,4.28,-10.26,-10.11,0.1,-0.07,18.94,15.76,-0.055987,-0.01766089,0.03761003,-0.2289705,1.513861,-10.04194,1
52023024,6326,4.33,-10.35,-10.08,-0.14,-0.21,18.99,16.05,0.04046443,-0.02738427,0.05140837,0.06047907,1.350282,-9.760618,1
52131230,6311,4.6,-10.34,-10.18,-0.31,-0.36,19.02,16.3,-0.007468566,0.01484237,0.02478382,-0.1847236,1.48234,-9.786942,1
52241957,6451,4.36,-10.44,-10.39,-0.49,-0.32,19.05,16.56,-0.003812587,-0.06980184,0.07161636,0.04382786,1.655596,-9.834722,1
52350358,6328,4.41,-9.92,-10.35,-0.45,-0.4,19.04,16.87,-0.009215543,-0.01050952,0.03113714,0.1996505,1.635088,-9.271395,1
52453790,6344,4.21,-7.68,-8.8,-0.48,-0.32,19.05,17.13,0.4934282,-0.04251426,0.06289285,-0.01085123,1.829156,-9.477868,1
52562874,6401,4.84,-5.75,-5.87,-0.5,-0.15,19.05,17.34,0.411965,0.09925754,0.06051659,0.1667717,1.519946,-9.888456,1
52678475,6477,4.58,-4.44,-3.6,-0.46,-0.23,19.05,17.59,0.2002078,0.02977961,0.05793769,0.09376936,1.093204,-9.957788,1
52790214,6559,4.16,-3.97,-2.97,-0.36,-0.18,19.04,17.81,-0.00419426,0.05278433,0.03011155,-0.1580363,1.286056,-9.802769,1
52899437,6442,4.27,-1.59,-2.26,-0.32,-0.04,19.04,17.91,0.2737719,0.0782453,0.005323036,-0.2316609,1.750385,-9.414104,1
53008799,6319,4.64,-0.39,0.3,-0.34,-0.22,19.04,17.95,0.2331188,-0.06119958,-0.0177649,0.107663,1.169784,-9.794526,1
53119137,6533,4.4,0.75,1.59,-0.26,-0.25,19.04,17.94,0.2292267,0.08213613,-0.002249658,-0.08724003,1.085985,-9.916925,1
53231025,6329,4.26,1.45,2.16,-0.39,0.09,19.04,17.72,0.01550476,0.1461194,-0.03819747,-0.09110896,1.068366,-9.537792,1
53340692,6336,4.22,2.41,2.34,-0.55,0.24,19.03,17.49,0.1917772,0.02102364,-0.03405597,-0.05878906,1.452519,-9.600201,1
53448802,6311,4.48,3.14,3.35,-0.31,0.06,19.04,17.53,0.1914729,-0.02158087,0.0527222,-0.0200806,1.407621,-9.947449,1
53545945,6408,4.46,3.57,3.94,-0.03,-0.08,19.06,17.81,0.1102331,-0.02067873,0.03515857,0.2895143,1.143156,-9.840688,1
53657825,6298,4.37,3.82,4.02,0.51,-0.23,19.1,18.27,-0.006829107,0.03127276,0.06832203,-0.05189837,1.142331,-9.895798,1
53771257,6420,5.05,3.26,3.84,0.9,-0.05,19.12,18.82,-0.1681659,0.06626915,0.07198429,0.1174661,0.7612266,-9.795037,1
53871795,6319,4.55,0.33,1.83,1.0,0.24,19.12,19.37,-0.6361302,0.1002072,0.08691681,0.02000325,0.6792235,-9.705086,1
53985806,6550,4.42,-2.16,-1.99,0.97,0.28,19.13,19.96,-0.5908448,-0.05780558,0.04222075,0.1954095,0.6041452,-9.680136,1
54095494,6476,4.46,-3.81,-4.86,1.03,-0.01,19.12,20.48,-0.1856461,-0.05108611,0.07136697,0.05987094,1.012664,-9.676528,1
54205690,6367,4.56,-3.93,-5.74,1.24,0.22,19.11,20.84,0.06481186,0.1238813,0.0651932499999999,0.164187,1.017236,-9.437228,1
54309880,6344,4.63,-3.35,-5.03,1.46,0.89,19.09,21.01,0.1677095,0.03055246,0.06445421,0.1046369,0.9075624,-9.58828,1
54639861,6495,4.73,-2.0,-2.16,2.11,1.23,19.06,21.73,0.1675434,-0.006170028,0.03269006,0.04980144,0.6779945,-9.533176,1
54742222,6395,4.71,-1.83,-2.04,2.16,1.06,19.06,21.95,-0.1667074,0.01102282,0.06042803,-0.01936002,0.760755,-9.842978,1
54851252,6490,4.39,-0.68,-1.84,2.31,0.87,19.06,22.07,0.1687689,-0.03209827,0.02041727,0.01117953,0.8752185,-9.727256,1
54960105,6241,4.62,0.64,-0.47,2.55,1.08,19.06,21.96,0.1654041,0.05546227,-0.05475965,0.2647206,0.6304563,-9.490634,1
55062203,6239,4.54,1.75,1.04,2.84,1.17,19.06,21.78,0.3318807,-0.01639646,-0.03580074,-0.02478968,0.6804016,-9.692812,1
55166658,6456,4.54,2.8,2.32,3.15,1.64,19.08,21.49,0.1563582,0.1318646,-0.05612314,0.04589515,0.7301967,-9.90148,1
55285436,6423,4.68,3.49,3.43,3.48,2.07,19.09,21.09,-0.05683433,0.108389,-0.05441185,0.2580878,0.5007742,-9.938307,1
55499938,6312,4.51,3.6,3.5,3.57,2.08,19.1,20.55,-0.08541226,-0.04897715,-0.05463841,0.1822951,0.5176151,-9.677038,1
55606277,6553,4.53,3.41,3.11,3.46,2.1,19.09,20.22,-0.06764695,0.01864214,-0.04455715,0.03147502,0.7450932,-9.809951,1
55719689,6277,4.02,3.76,2.63,3.25,2.57,19.08,19.98,-0.03900978,0.1176323,-0.02187742,0.2958577,0.7013727,-9.621689,1
55826298,6169,4.61,4.59,3.17,3.15,2.75,19.07,19.94,0.2296088,-0.04259378,-0.001113706,0.2379845,0.492213,-10.05506,1
55937864,6157,4.5,5.51,4.4,3.1,2.52,19.07,19.99,0.1636303,-0.0744321,0.02780824,0.1240274,0.4546074,-9.849263,1
56046769,6309,4.57,6.17,5.08,2.99,2.47,19.06,20.2,0.06913158,0.05319138,0.04085628,-0.00571446,0.648491,-9.925159,1
56266903,6260,4.75,6.22,4.89,2.84,2.82,19.04,20.44,-0.1019159,0.01578152,-0.001165824,0.3527019,0.3412666,-10.02535,1
56365001,6354,4.47,6.05,4.51,2.73,2.69,19.03,20.27,-0.07278115,-0.03685591,-0.03444471,0.1354398,0.5531979,-9.824898,1
56473185,6245,4.81,5.35,4.27,2.48,2.43,19.0,19.86,-0.07717839,-0.07624524,-0.08745034,0.3781745,0.3153276,-9.97395,1
56583094,6495,4.12,3.52,2.51,2.09,2.06,18.97,19.37,-0.2935525,-0.04126817,-0.0821620099999999,0.2346076,0.4566093,-10.08514,1
56686225,6228,4.32,1.55,0.3,0.99,1.26,18.93,18.86,-0.3812138,-0.2552611,-0.08304992,0.2431009,0.21231,-10.08076,1
56803762,6266,3.99,-0.31,-2.19,-0.25,-0.39,18.91,18.18,-0.2996777,-0.158602,-0.08823039,0.007700847,0.4813409,-9.912661,1
56905302,6087,3.99,-1.04,-3.67,-1.06,-1.46,18.92,17.57,-0.17069,-0.1835382,-0.1143696,0.187584,0.5572123,-9.923198,1
57017186,6113,3.91,-1.13,-3.95,-1.66,-2.03,18.94,16.82,0.03104009,-0.07207358,-0.1267033,0.1707037,0.4647592,-9.727799,1
57123224,5923,3.77,-0.91,-3.34,-1.89,-2.36,18.94,15.97,0.1666993,-0.01186465,-0.1307815,0.139174,0.5271953,-9.884268,1
57240464,6030,3.71,-0.66,-2.53,-2.24,-2.38,18.94,15.12,0.02973717,-0.04037739,-0.1178553,0.1619363,0.1843689,-9.830617,1
57342839,5906,3.54,-0.45,-2.33,-2.31,-2.38,18.95,14.53,-0.01572867,0.01718146,-0.08475399,0.07597949,0.405194,-9.939353,1
57449471,5799,3.62,-0.36,-2.1,-2.2,-2.09,18.94,14.12,0.08517015,0.03622036,-0.05014632,-0.01576726,0.4236858,-9.78005,1
57561401,5772,3.57,-0.24,-1.94,-2.01,-1.65,18.94,13.96,0.03086069,0.01843509,0.001240296,-0.0309819,0.3466274,-9.956847,1
57781577,5842,3.79,-0.09,-1.77,-2.09,-1.16,18.94,14.52,0.06602196,-0.005947616,0.08051553,0.1286611,0.4531963,-9.880845,1
57892811,5869,3.85,-0.16,-1.44,-2.08,-1.33,18.94,15.09,0.0672622799999999,-0.07099763,0.0923950999999999,0.08843797,0.3716708,-9.868422,1
58111082,5866,4.07,-0.33,-1.17,-1.9,-1.38,18.94,16.25,0.02564494,0.04835046,0.0859501399999999,-0.06640496,0.3345518,-10.21571,1
58223436,6132,4.09,-0.44,-1.04,-1.67,-1.17,18.94,16.71,0.005509004,0.01739523,0.06132375,0.03319526,0.5099807,-9.935171,1
58327085,6033,4.16,-0.53,-1.09,-1.48,-0.85,18.94,17.02,-0.06722917,0.100328,0.03420785,0.2246233,0.3338622,-9.74208,1
58440821,5914,3.93,-0.64,-1.1,-1.3,-0.53,18.94,17.2,0.04208521,0.08808686,0.01638406,0.1671124,0.411649,-10.17307,1
58548977,5924,3.93,-0.7,-1.28,-1.02,-0.45,18.93,17.3,-0.05447419,-0.0184962,0.01545963,-0.1988321,0.388512,-10.02609,1
58664025,6078,3.98,-0.77,-1.47,-0.57,-0.08,18.93,17.5,-0.02004908,0.03608109,0.04906187,0.09355081,0.5565682,-10.18615,1
58760747,6016,4.07,-0.86,-1.27,0.14,0.36,18.92,17.78,0.02901185,0.1281003,0.061745,0.09365488,0.389042,-9.869384,1
58870990,6043,4.21,-0.97,-1.14,0.83,0.74,18.91,18.05,-0.05572186,0.1160444,0.04550898,0.1438053,0.3326318,-9.763237,1
58971242,6054,4.13,-1.07,-1.18,1.23,1.18,18.9,18.15,0.008701534,0.05924052,0.009761465,0.03676571,0.4472469,-9.874165,1
59080251,5916,4.13,-1.26,-1.47,1.5,1.87,18.89,18.2,-0.04999475,0.1546985,0.02197661,0.2069799,0.4346906,-9.928337,1
59190472,6073,4.11,-1.33,-1.63,1.59,2.14,18.89,18.24,-0.01647229,0.02419868,0.02730435,0.1178871,0.3925788,-10.1239,1
59307880,6203,4.05,-1.38,-1.73,1.64,1.84,18.89,18.45,-0.01346248,0.003146729,0.04421224,0.08363994,0.3370385,-10.34641,1
59416288,6091,4.1,-1.23,-1.83,1.77,1.46,18.89,18.69,0.0504832,-0.07338232,0.04410155,0.1862901,0.3840304,-10.28156,1
59527016,6003,4.24,-1.13,-1.67,2.13,1.04,18.88,18.91,0.1277799,-0.0870988,0.02564308,0.2852268,0.391174,-9.592207,1
59634029,6045,4.33,-1.14,-1.11,2.59,1.04,18.87,19.01,0.09277999,-0.02872865,0.03173067,0.06641012,0.3805876,-10.10042,1
59738618,6100,4.22,-1.25,-0.95,3.1,1.65,18.86,19.04,-0.0007988198,0.06788588,-0.001746175,0.2711833,0.3337564,-9.87392,1
59843075,6101,4.24,-2.11,-1.68,4.24,2.8,18.83,18.92,-0.1731012,0.2088157,-0.02004441,0.1770403,0.2904262,-9.81657,1
59960180,6193,4.09,-3.38,-3.22,5.62,4.68,18.76,18.69,-0.1852513,0.2335205,0.0002480752,0.5298579,0.4539947,-10.01857,1
60171780,6129,4.1,-3.88,-3.66,5.85,5.96,18.75,18.85,0.157148,-0.07625777,0.04886559,0.396812,0.4841673,-10.26419,1
60287653,6177,4.21,-3.62,-3.03,5.39,5.32,18.78,19.15,0.09031654,-0.1490559,0.03956098,0.4116526,0.4966489,-10.01782,1
60389503,6237,4.22,-3.47,-2.78,4.96,4.49,18.81,19.31,-0.01874975,-0.1193244,-0.01333368,0.1102746,0.4306881,-9.837503,1
60503276,6150,3.99,-3.37,-2.68,4.54,3.63,18.83,19.2,-0.01842932,-0.1398322,-0.0441129,0.4386905,0.418833,-9.751953,1
