TimeUS,GyrX,GyrY,GyrZ,AccX,AccY,AccZ,DesRoll,Roll,DesPitch,Pitch,DesYaw,Yaw,RPM(ESC_0),Curr(ESC_0),RPM(ESC_1),Curr(ESC_1),RPM(ESC_3),Curr(ESC_3),RPM(ESC_4),Curr(ESC_4),RPM(ESC_5),Curr(ESC_5),C9,C10,C11,C12,C13,C14,Guasto
00:00:00.000000,0.003472679,-0.07178764,-0.003969215,-0.2887689,0.0707563799999999,-9.615868,0.0,0.01,0.0,-0.44,13.23,13.24,3495.0,2.16,3581.0,2.07,3151.0,1.82,3238.0,1.9,3348.0,1.99,1360.0,1375.0,1382.0,1352.0,1371.0,1363.0,0
00:00:00.002172,0.02202154,-0.01838984,-0.004186115,-0.2736205,0.06525701,-9.677919,0.0,0.01,0.0,-0.44,13.23,13.24,3495.0,2.16,3581.0,2.07,3151.0,1.82,3238.0,1.9,3348.0,1.99,1360.0,1375.0,1382.0,1352.0,1371.0,1363.0,0
00:00:00.004555,0.04283528,0.04771192,0.003529211,-0.2853274,0.0876172499999999,-9.837013,0.0,0.01,0.0,-0.44,13.23,13.24,3495.0,2.16,3581.0,2.07,3151.0,1.82,3238.0,1.9,3348.0,1.99,1360.0,1375.0,1382.0,1352.0,1371.0,1363.0,0
00:00:00.009692,0.04133237,0.02735252,-0.005675658,-0.2650163,0.1163227,-9.899507,0.0,0.01,0.0,-0.44,13.23,13.24,3495.0,2.16,3581.0,2.07,3151.0,1.82,3238.0,1.9,3348.0,1.99,1360.0,1375.0,1382.0,1352.0,1371.0,1363.0,0
00:00:00.014932,-0.04767986,-0.08854192,-0.0206458,-0.1490858,0.1067172,-9.691211,0.0,0.01,0.0,-0.44,13.23,13.24,3495.0,2.16,3581.0,2.07,3151.0,1.82,3238.0,1.9,3348.0,1.99,1382.0,1369.0,1360.0,1390.0,1364.0,1387.0,0
00:00:00.017307,-0.03565693,-0.01091597,-0.002592395,-0.1209763,0.1335845,-9.850563,0.0,0.01,0.0,-0.44,13.23,13.24,3495.0,2.16,3581.0,2.07,3151.0,1.82,3238.0,1.9,3348.0,1.99,1382.0,1369.0,1360.0,1390.0,1364.0,1387.0,0
00:00:00.020493,0.01684726,0.07019236,0.01286952,-0.1214292,0.133259,-10.02294,0.0,0.01,0.0,-0.44,13.23,13.24,3495.0,2.16,3581.0,2.07,3151.0,1.82,3238.0,1.9,3348.0,1.99,1382.0,1369.0,1360.0,1390.0,1364.0,1387.0,0
00:00:00.023171,0.0674560399999999,0.0953242,0.01183683,-0.1035566,0.1005583,-10.09179,0.0,0.03,0.0,-0.4,13.23,13.24,3495.0,2.16,3581.0,2.07,3151.0,1.82,3238.0,1.9,3348.0,1.99,1382.0,1369.0,1360.0,1390.0,1364.0,1387.0,0
00:00:00.025680,0.01622989,-0.06583163,-0.01921789,-0.05409855,0.04072271,-9.824317,0.0,0.03,0.0,-0.4,13.23,13.24,3495.0,2.16,3581.0,2.07,3151.0,1.82,3238.0,1.9,3348.0,1.99,1382.0,1369.0,1360.0,1390.0,1364.0,1387.0,0
00:00:00.027808,-0.06476466,-0.1267126,-0.0300809,-0.0550128,0.01805532,-9.766613,0.0,0.03,0.0,-0.4,13.23,13.24,3495.0,2.16,3581.0,2.07,3151.0,1.82,3238.0,1.9,3348.0,1.99,1382.0,1369.0,1360.0,1390.0,1364.0,1387.0,0
00:00:00.030559,-0.1090691,-0.02745423,-0.009337332,-0.06932761,0.05435988,-9.868199,0.0,0.03,0.0,-0.4,13.23,13.24,3495.0,2.16,3581.0,2.07,3151.0,1.82,3238.0,1.9,3348.0,1.99,1382.0,1369.0,1360.0,1390.0,1364.0,1387.0,0
00:00:00.033387,-0.03706937,0.07564619,0.009107956,-0.1325474,0.08755329,-9.998106,0.0,-0.03,0.0,-0.45,13.23,13.23,3495.0,2.16,3581.0,2.07,3151.0,1.82,3238.0,1.9,3348.0,1.99,1382.0,1369.0,1360.0,1390.0,1364.0,1387.0,0
00:00:00.035669,0.07394879,0.1331604,0.01710132,-0.1903935,0.1122305,-9.995552,0.0,-0.03,0.0,-0.45,13.23,13.23,3495.0,2.16,3581.0,2.07,3151.0,1.82,3238.0,1.9,3348.0,1.99,1382.0,1369.0,1360.0,1390.0,1364.0,1387.0,0
00:00:00.038387,0.06131602,0.01498158,0.001886271,-0.1975044,0.1154509,-9.800009,0.0,-0.03,0.0,-0.45,13.23,13.23,3495.0,2.16,3581.0,2.07,3151.0,1.82,3238.0,1.9,3348.0,1.99,1382.0,1369.0,1360.0,1390.0,1364.0,1387.0,0
00:00:00.040641,-0.0836061,-0.1379033,-0.01497273,-0.2398161,0.1238984,-9.705182,0.0,-0.03,0.0,-0.45,13.23,13.23,3495.0,2.16,3581.0,2.07,3151.0,1.82,3238.0,1.9,3348.0,1.99,1382.0,1369.0,1360.0,1390.0,1364.0,1387.0,0
00:00:00.042994,-0.1485723,-0.02118006,0.005500221,-0.2775082,0.1737725,-9.78013,0.0,-0.04,0.0,-0.52,13.23,13.22,3495.0,2.16,3581.0,2.07,3151.0,1.82,3238.0,1.9,3348.0,1.99,1382.0,1369.0,1360.0,1390.0,1364.0,1387.0,0
00:00:00.046242,-0.1144948,0.04385504,0.01269703,-0.3090429,0.2088303,-9.88986,0.0,-0.04,0.0,-0.52,13.23,13.22,3495.0,2.16,3581.0,2.07,3151.0,1.82,3238.0,1.9,3348.0,1.99,1382.0,1369.0,1360.0,1390.0,1364.0,1387.0,0
00:00:00.048224,0.002890402,0.1591161,0.01863169,-0.3415275,0.2265653,-9.991703,0.0,-0.04,0.0,-0.52,13.23,13.22,3495.0,2.16,3581.0,2.07,3151.0,1.82,3238.0,1.9,3348.0,1.99,1382.0,1369.0,1360.0,1390.0,1364.0,1387.0,0
00:00:00.050649,0.1164541,0.102826,-0.002920024,-0.2892538,0.2187079,-9.833178,0.0,-0.04,0.0,-0.52,13.23,13.22,3495.0,2.16,3581.0,2.07,3151.0,1.82,3238.0,1.9,3348.0,1.99,1382.0,1369.0,1360.0,1390.0,1364.0,1387.0,0
00:00:00.052829,-0.002910716,-0.1204848,-0.02473889,-0.2789583,0.2349567,-9.829408,0.0,0.03,0.0,-0.4,13.23,13.23,3495.0,2.16,3581.0,2.07,3151.0,1.82,3238.0,1.9,3348.0,1.99,1382.0,1369.0,1360.0,1390.0,1364.0,1387.0,0
00:00:00.055698,-0.1289533,-0.1201129,-0.007651903,-0.2349115,0.2674247,-9.93443,0.0,0.03,0.0,-0.4,13.23,13.23,3495.0,2.16,3581.0,2.07,3151.0,1.82,3238.0,1.9,3348.0,1.99,1382.0,1369.0,1360.0,1390.0,1364.0,1387.0,0
00:00:00.057941,-0.1537209,-0.03557094,0.01849661,-0.1958894,0.3006176,-10.06123,0.0,0.03,0.0,-0.4,13.23,13.23,3495.0,2.16,3581.0,2.07,3151.0,1.82,3238.0,1.9,3348.0,1.99,1382.0,1369.0,1360.0,1390.0,1364.0,1387.0,0
00:00:00.061305,0.01620739,0.1413198,0.03966016,-0.1531934,0.3080748,-10.18808,0.0,0.03,0.0,-0.4,13.23,13.23,3495.0,2.16,3581.0,2.07,3151.0,1.82,3238.0,1.9,3348.0,1.99,1382.0,1369.0,1360.0,1390.0,1364.0,1387.0,0
00:00:00.063541,0.120975,0.1207174,0.02465941,-0.05840054,0.2671066,-10.0038,0.0,0.03,0.0,-0.4,13.23,13.23,3495.0,2.16,3581.0,2.07,3151.0,1.82,3238.0,1.9,3348.0,1.99,1382.0,1369.0,1360.0,1390.0,1364.0,1387.0,0
00:00:00.066127,-0.03209703,-0.1180992,-0.01628992,-0.03205153,0.2280242,-9.901098,0.0,0.03,0.0,-0.4,13.23,13.24,3495.0,2.16,3581.0,2.07,3151.0,1.82,3238.0,1.9,3348.0,1.99,1382.0,1369.0,1360.0,1390.0,1364.0,1387.0,0
00:00:00.068720,-0.1668873,-0.07751462,-0.006153326,-0.02853843,0.2300975,-9.960349,0.0,0.03,0.0,-0.4,13.23,13.24,3495.0,2.16,3581.0,2.07,3151.0,1.82,3238.0,1.9,3348.0,1.99,1382.0,1369.0,1360.0,1390.0,1364.0,1387.0,0
00:00:00.071619,-0.1668144,0.02915488,0.009245493,-0.06466841,0.2338085,-10.02626,0.0,0.03,0.0,-0.4,13.23,13.24,3495.0,2.16,3581.0,2.07,3151.0,1.82,3238.0,1.9,3348.0,1.99,1382.0,1369.0,1360.0,1390.0,1364.0,1387.0,0
00:00:00.073502,0.05815976,0.1741202,0.01595227,-0.1182216,0.2202154,-10.0458,0.0,0.03,0.0,-0.4,13.23,13.24,3495.0,2.16,3581.0,2.07,3151.0,1.82,3238.0,1.9,3348.0,1.99,1382.0,1369.0,1360.0,1390.0,1364.0,1387.0,0
00:00:00.076526,0.145423,0.1008284,0.001308701,-0.1328162,0.1803696,-9.88423,0.0,-0.02,0.0,-0.33,13.23,13.24,3495.0,2.16,3581.0,2.07,3151.0,1.82,3238.0,1.9,3348.0,1.99,1382.0,1369.0,1360.0,1390.0,1364.0,1387.0,0
00:00:00.078215,0.07752777,-0.03939772,-0.01114236,-0.2213078,0.1504569,-9.78793,0.0,-0.02,0.0,-0.33,13.23,13.24,3495.0,2.16,3581.0,2.07,3151.0,1.82,3238.0,1.9,3348.0,1.99,1382.0,1369.0,1360.0,1390.0,1364.0,1387.0,0
00:00:00.081095,-0.09127578,-0.09678274,-0.003563258,-0.268999,0.1619055,-9.868315,0.0,-0.02,0.0,-0.33,13.23,13.24,3495.0,2.16,3581.0,2.07,3151.0,1.82,3238.0,1.9,3348.0,1.99,1382.0,1369.0,1360.0,1390.0,1364.0,1387.0,0
00:00:00.084038,-0.1649688,-0.03047541,0.02022948,-0.309364,0.195771,-9.969696,0.0,-0.02,0.0,-0.33,13.23,13.24,3495.0,2.16,3581.0,2.07,3151.0,1.82,3238.0,1.9,3348.0,1.99,1382.0,1369.0,1360.0,1390.0,1364.0,1387.0,0
00:00:00.086576,0.07395957,0.1186192,0.030087,-0.2842356,0.2070329,-9.955482,0.0,-0.09,0.0,-0.38,13.23,13.24,3495.0,2.16,3581.0,2.07,3151.0,1.82,3238.0,1.9,3348.0,1.99,1382.0,1369.0,1360.0,1390.0,1364.0,1387.0,0
00:00:00.089251,0.160511,0.02290454,0.008558777,-0.1868356,0.203063,-9.774922,0.0,-0.09,0.0,-0.38,13.23,13.24,3495.0,2.16,3581.0,2.07,3151.0,1.82,3238.0,1.9,3348.0,1.99,1382.0,1369.0,1360.0,1390.0,1364.0,1387.0,0
00:00:00.092182,0.01308509,-0.06809277,-0.001515222,-0.1538149,0.2228719,-9.860777,0.0,-0.09,0.0,-0.38,13.23,13.24,3495.0,2.16,3581.0,2.07,3151.0,1.82,3238.0,1.9,3348.0,1.99,1382.0,1369.0,1360.0,1390.0,1364.0,1387.0,0
00:00:00.093846,-0.1853018,-0.0666385699999999,-0.001097625,-0.07364008,0.2773143,-10.00344,0.0,-0.09,0.0,-0.38,13.23,13.24,3495.0,2.16,3581.0,2.07,3151.0,1.82,3238.0,1.9,3348.0,1.99,1382.0,1369.0,1360.0,1390.0,1364.0,1387.0,0
00:00:00.097076,-0.09515327,0.01459236,-0.00116487,-0.04144398,0.3116655,-10.05124,0.0,-0.16,0.0,-0.42,13.23,13.24,3495.0,2.16,3581.0,2.07,3151.0,1.82,3238.0,1.9,3348.0,1.99,1382.0,1369.0,1360.0,1390.0,1364.0,1387.0,0
00:00:00.098929,0.1696549,0.0765946599999999,-0.007341203,0.03546061,0.3240578,-9.828524,0.0,-0.16,0.0,-0.42,13.23,13.24,3495.0,2.16,3581.0,2.07,3151.0,1.82,3238.0,1.9,3348.0,1.99,1382.0,1369.0,1360.0,1390.0,1364.0,1387.0,0
00:00:00.102205,0.1728726,0.007537223,-0.006819725,0.02278756,0.3380851,-9.751952,0.0,-0.16,0.0,-0.42,13.23,13.24,3495.0,2.16,3581.0,2.07,3151.0,1.82,3238.0,1.9,3348.0,1.99,1382.0,1369.0,1360.0,1390.0,1364.0,1387.0,0
00:00:00.103975,-0.07507164,-0.05964293,0.009259213,-0.006181955,0.3587703,-9.75622,0.0,-0.16,0.0,-0.42,13.23,13.24,3495.0,2.16,3581.0,2.07,3151.0,1.82,3238.0,1.9,3348.0,1.99,1382.0,1369.0,1360.0,1390.0,1364.0,1387.0,0
00:00:00.106624,-0.1377959,-0.06003523,0.01275312,-0.0402638,0.3672297,-9.777282,0.0,-0.09,0.0,-0.43,13.23,13.24,3495.0,2.16,3581.0,2.07,3151.0,1.82,3238.0,1.9,3348.0,1.99,1452.0,1411.0,1456.0,1406.0,1473.0,1386.0,0
00:00:00.114830,0.1203737,-0.00182782,-0.00965483,-0.2641014,0.2457349,-9.477265,0.0,-0.09,0.0,-0.43,13.23,13.24,3495.0,2.16,3581.0,2.07,3151.0,1.82,3238.0,1.9,3348.0,1.99,1452.0,1411.0,1456.0,1406.0,1473.0,1386.0,0
00:00:00.117485,-0.03960086,-0.04516027,-0.0006715058,-0.2921292,0.2318889,-9.518492,0.0,0.0,0.0,-0.41,13.23,13.23,3495.0,2.16,3581.0,2.07,3151.0,1.82,3238.0,1.9,3348.0,1.99,1507.0,1358.0,1409.0,1465.0,1479.0,1393.0,0
00:00:00.120580,-0.09086896,-0.0094911,0.01218432,-0.345638,0.2378763,-9.664404,0.0,0.0,0.0,-0.41,13.23,13.23,3495.0,2.16,3581.0,2.07,3151.0,1.82,3238.0,1.9,3348.0,1.99,1507.0,1358.0,1409.0,1465.0,1479.0,1393.0,0
00:00:00.122786,0.05141001,0.04203722,0.01418089,-0.3154012,0.2339707,-9.566323,0.0,0.0,0.0,-0.41,13.23,13.23,3495.0,2.16,3581.0,2.07,3151.0,1.82,3238.0,1.9,3348.0,1.99,1507.0,1358.0,1409.0,1465.0,1479.0,1393.0,0
00:00:00.125568,0.2116994,0.01352055,0.007355246,-0.2944127,0.2553813,-9.448329,0.0,0.0,0.0,-0.41,13.23,13.23,3495.0,2.16,3581.0,2.07,3151.0,1.82,3238.0,1.9,3348.0,1.99,1507.0,1358.0,1409.0,1465.0,1479.0,1393.0,0
00:00:00.128021,0.07438139,-0.02219325,0.01244242,-0.2430819,0.3060478,-9.491929,0.0,0.07,0.0,-0.4,13.23,13.24,3495.0,2.16,3581.0,2.07,3151.0,1.82,3238.0,1.9,3348.0,1.99,1519.0,1355.0,1384.0,1497.0,1465.0,1420.0,0
00:00:00.131095,-0.05369825,-0.01625483,0.01225145,-0.2381181,0.3292025,-9.567782,0.0,0.07,0.0,-0.4,13.23,13.24,3495.0,2.16,3581.0,2.07,3861.0,2.48,3238.0,1.9,3348.0,1.99,1519.0,1355.0,1384.0,1497.0,1465.0,1420.0,0
00:00:00.133091,-0.005918253,0.06556077,0.001083307,-0.204758,0.3779598,-9.728593,0.0,0.07,0.0,-0.4,13.23,13.24,3495.0,2.16,3581.0,2.07,3861.0,2.48,3238.0,1.9,3348.0,1.99,1519.0,1355.0,1384.0,1497.0,1465.0,1420.0,0
00:00:00.135754,0.06456807,0.06359433,-0.007938334,-0.1480212,0.3792182,-9.641421,0.0,0.07,0.0,-0.4,13.23,13.24,3495.0,2.16,3581.0,2.07,3861.0,2.48,3238.0,1.9,3348.0,1.99,1519.0,1355.0,1384.0,1497.0,1465.0,1420.0,0
00:00:00.138567,0.2152205,0.01455972,-0.02257385,-0.1122819,0.3811916,-9.594953,0.0,0.1,0.0,-0.38,13.23,13.24,3495.0,2.16,3581.0,2.07,3861.0,2.48,3238.0,1.9,3348.0,1.99,1482.0,1413.0,1403.0,1491.0,1437.0,1461.0,0
00:00:00.140720,0.1560021,-0.02491512,-0.0120624,-0.07971657,0.377378,-9.648208,0.0,0.1,0.0,-0.38,13.23,13.24,3495.0,2.16,3581.0,2.07,3861.0,2.48,3238.0,1.9,3348.0,1.99,1482.0,1413.0,1403.0,1491.0,1437.0,1461.0,0
00:00:00.143392,-0.03740547,-0.01996131,0.01732939,-0.06040482,0.3582519,-9.854769,0.0,0.1,0.0,-0.38,13.23,13.24,3495.0,2.16,3581.0,2.07,3861.0,2.48,3238.0,1.9,3348.0,1.99,1482.0,1413.0,1403.0,1491.0,1437.0,1461.0,0
00:00:00.145988,-0.03797281,0.008213638,0.02385031,-0.004690515,0.2980018,-9.819793,0.0,0.1,0.0,-0.38,13.23,13.24,3495.0,2.16,3581.0,2.07,3861.0,2.48,3238.0,1.9,3348.0,1.99,1482.0,1413.0,1403.0,1491.0,1437.0,1461.0,0
00:00:00.148747,0.1303194,-0.01652053,0.005884565,0.0395362,0.1850433,-9.777232,0.0,0.07,0.0,-0.36,13.23,13.25,3495.0,2.16,3581.0,2.07,3861.0,2.48,3238.0,1.9,3348.0,1.99,1409.0,1497.0,1464.0,1445.0,1416.0,1490.0,0
00:00:00.150713,0.1870026,-0.02483212,-0.0005578766,0.0724646699999999,0.1213319,-9.80479,0.0,0.07,0.0,-0.36,13.23,13.25,3495.0,2.16,3581.0,2.07,3861.0,2.48,3972.0,2.47,3348.0,1.99,1409.0,1497.0,1464.0,1445.0,1416.0,1490.0,0
00:00:00.152977,0.03883372,-0.03115947,0.005029657,0.08507482,0.05425314,-9.990674,0.0,0.07,0.0,-0.36,13.23,13.25,3495.0,2.16,3581.0,2.07,3861.0,2.48,3972.0,2.47,3348.0,1.99,1409.0,1497.0,1464.0,1445.0,1416.0,1490.0,0
00:00:00.155969,-0.06545688,0.00262451,0.008687823,0.1126482,0.0083324809999999,-9.981088,0.0,0.07,0.0,-0.36,13.23,13.25,3495.0,2.16,3581.0,2.07,3861.0,2.48,3972.0,2.47,3348.0,1.99,1409.0,1497.0,1464.0,1445.0,1416.0,1490.0,0
00:00:00.158688,-0.009142772,-0.0350697,-0.01111992,0.1413426,-0.0461924,-9.867696,0.0,0.05,0.0,-0.37,13.23,13.25,3495.0,2.16,3581.0,2.07,3861.0,2.48,3972.0,2.47,3348.0,1.99,1397.0,1517.0,1488.0,1431.0,1425.0,1493.0,0
00:00:00.160912,0.08620375,-0.05155319,-0.01999188,0.1149046,-0.0694940099999999,-9.867434,0.0,0.05,0.0,-0.37,13.23,13.25,3495.0,2.16,3581.0,2.07,3861.0,2.48,3972.0,2.47,3348.0,1.99,1397.0,1517.0,1488.0,1431.0,1425.0,1493.0,0
00:00:00.163798,0.1061411,-0.05584842,-0.01313916,0.07153597,-0.04198665,-10.00117,0.0,0.05,0.0,-0.37,13.23,13.25,3495.0,2.16,3581.0,2.07,3861.0,2.48,3972.0,2.47,3348.0,1.99,1397.0,1517.0,1488.0,1431.0,1425.0,1493.0,0
00:00:00.165977,-0.01058408,0.003644807,0.01546328,0.005019137,0.01003972,-10.17669,0.0,0.05,0.0,-0.37,13.23,13.25,3495.0,2.16,3581.0,2.07,3861.0,2.48,3972.0,2.47,3348.0,1.99,1397.0,1517.0,1488.0,1431.0,1425.0,1493.0,0
00:00:00.168164,-0.04812945,0.008679858,0.01957974,-0.04505733,0.05038743,-10.10905,0.0,0.08,0.0,-0.4,13.23,13.25,3495.0,2.16,3581.0,2.07,3861.0,2.48,3972.0,2.47,3348.0,1.99,1452.0,1479.0,1479.0,1452.0,1464.0,1468.0,0
00:00:00.170945,-0.02538283,-0.0207104,0.005619448,-0.1032888,0.07727821,-10.06467,0.0,0.08,0.0,-0.4,13.23,13.25,3495.0,2.16,3581.0,2.07,3861.0,2.48,3972.0,2.47,4095.0,2.37,1452.0,1479.0,1479.0,1452.0,1464.0,1468.0,0
00:00:00.173026,0.05237474,-0.02930608,-0.01043665,-0.1958784,0.1585759,-10.09832,0.0,0.08,0.0,-0.4,13.23,13.25,3495.0,2.16,3581.0,2.07,3861.0,2.48,3972.0,2.47,4095.0,2.37,1452.0,1479.0,1479.0,1452.0,1464.0,1468.0,0
00:00:00.176238,0.04498949,0.000700202,-0.005307415,-0.2834637,0.2291931,-10.24419,0.0,0.08,0.0,-0.4,13.23,13.25,3495.0,2.16,3581.0,2.07,3861.0,2.48,3972.0,2.47,4095.0,2.37,1452.0,1479.0,1479.0,1452.0,1464.0,1468.0,0
00:00:00.179071,0.004217467,0.0675588699999999,0.007026913,-0.3597477,0.2864862,-10.1891,0.0,0.12,0.0,-0.41,13.23,13.24,3495.0,2.16,3581.0,2.07,3861.0,2.48,3972.0,2.47,4095.0,2.37,1489.0,1454.0,1470.0,1473.0,1485.0,1457.0,0
00:00:00.180832,-0.004593562,0.02530596,-0.002141524,-0.436669,0.3027208,-10.06814,0.0,0.12,0.0,-0.41,13.23,13.24,4097.0,2.65,3581.0,2.07,3861.0,2.48,3972.0,2.47,4095.0,2.37,1489.0,1454.0,1470.0,1473.0,1485.0,1457.0,0
00:00:00.183701,0.007115506,0.01575078,-0.006043042,-0.4664918,0.3089871,-10.06052,0.0,0.12,0.0,-0.41,13.23,13.24,4097.0,2.65,3581.0,2.07,3861.0,2.48,3972.0,2.47,4095.0,2.37,1489.0,1454.0,1470.0,1473.0,1485.0,1457.0,0
00:00:00.186216,0.01110434,0.05954516,0.0005259412,-0.4895557,0.3017571,-10.18185,0.0,0.12,0.0,-0.41,13.23,13.24,4097.0,2.65,3581.0,2.07,3861.0,2.48,3972.0,2.47,4095.0,2.37,1489.0,1454.0,1470.0,1473.0,1485.0,1457.0,0
00:00:00.188935,0.02891438,0.1042828,0.004648494,-0.4501549,0.2566047,-10.11555,0.0,0.13,0.0,-0.4,13.23,13.24,4097.0,2.65,3581.0,2.07,3861.0,2.48,3972.0,2.47,4095.0,2.37,1487.0,1467.0,1480.0,1474.0,1488.0,1466.0,0
00:00:00.191611,0.03402255,0.06397767,-0.004360206,-0.4050545,0.1938502,-10.03183,0.0,0.13,0.0,-0.4,13.23,13.24,4097.0,2.65,3581.0,2.07,3861.0,2.48,3972.0,2.47,4095.0,2.37,1487.0,1467.0,1480.0,1474.0,1488.0,1466.0,0
00:00:00.193573,0.01037542,0.03703298,-0.00776285,-0.3259816,0.1247701,-9.974467,0.0,0.13,0.0,-0.4,13.23,13.24,4097.0,2.65,3581.0,2.07,3861.0,2.48,3972.0,2.47,4095.0,2.37,1487.0,1467.0,1480.0,1474.0,1488.0,1466.0,0
00:00:00.196265,-0.04113528,0.0273267,-0.004834952,-0.2616168,0.103249,-10.05113,0.0,0.13,0.0,-0.4,13.23,13.24,4097.0,2.65,3581.0,2.07,3861.0,2.48,3972.0,2.47,4095.0,2.37,1487.0,1467.0,1480.0,1474.0,1488.0,1466.0,0
00:00:00.198747,-0.04003455,0.04651643,-0.002712504,-0.1961705,0.09025162,-10.12365,0.0,0.12,0.0,-0.37,13.23,13.23,4097.0,2.65,3581.0,2.07,3861.0,2.48,3972.0,2.47,4095.0,2.37,1478.0,1488.0,1499.0,1466.0,1493.0,1473.0,0
00:00:00.202272,0.00443151,0.07105183,-0.006098609,-0.06338852,0.04787192,-10.05067,0.0,0.12,0.0,-0.37,13.23,13.23,4097.0,2.65,4291.0,2.64,3861.0,2.48,3972.0,2.47,4095.0,2.37,1478.0,1488.0,1499.0,1466.0,1493.0,1473.0,0
00:00:00.204580,0.01725111,0.05237264,-0.01245621,0.002697978,0.04067842,-10.00584,0.0,0.12,0.0,-0.37,13.23,13.23,4097.0,2.65,4291.0,2.64,3861.0,2.48,3972.0,2.47,4095.0,2.37,1478.0,1488.0,1499.0,1466.0,1493.0,1473.0,0
00:00:00.206723,-0.03733277,0.01969551,-0.01274395,0.07249916,0.06104458,-10.02032,0.0,0.12,0.0,-0.37,13.23,13.23,4097.0,2.65,4291.0,2.64,3861.0,2.48,3972.0,2.47,4095.0,2.37,1478.0,1488.0,1499.0,1466.0,1493.0,1473.0,0
00:00:00.208816,-0.06829839,0.03257433,-0.009412772,0.112715,0.1137202,-9.989455,0.0,0.12,0.0,-0.34,13.23,13.23,4097.0,2.65,4291.0,2.64,3861.0,2.48,3972.0,2.47,4095.0,2.37,1493.0,1485.0,1498.0,1479.0,1501.0,1477.0,0
00:00:00.211549,-0.02125932,0.01360349,-0.01295549,0.1245172,0.1473303,-9.938625,0.0,0.12,0.0,-0.34,13.23,13.23,4097.0,2.65,4291.0,2.64,3861.0,2.48,3972.0,2.47,4095.0,2.37,1493.0,1485.0,1498.0,1479.0,1501.0,1477.0,0
00:00:00.217179,-0.002297521,-0.02108224,0.002987742,0.05997146,0.2902342,-9.957783,0.0,0.12,0.0,-0.34,13.23,13.23,4097.0,2.65,4291.0,2.64,3861.0,2.48,3972.0,2.47,4095.0,2.37,1493.0,1485.0,1498.0,1479.0,1501.0,1477.0,0
00:00:00.219511,-0.06450917,0.02963473,0.01718437,-0.000700834,0.3399593,-9.983699,0.0,0.1,0.0,-0.35,13.23,13.23,4097.0,2.65,4291.0,2.64,3861.0,2.48,3972.0,2.47,4095.0,2.37,1510.0,1479.0,1505.0,1483.0,1519.0,1468.0,0
00:00:00.222233,-0.02760962,0.02673752,0.001237468,-0.03723603,0.3271445,-9.936996,0.0,0.1,0.0,-0.35,13.23,13.23,4097.0,2.65,4291.0,2.64,3861.0,2.48,3972.0,2.47,4095.0,2.37,1510.0,1479.0,1505.0,1483.0,1519.0,1468.0,0
00:00:00.225564,0.0186064,0.01024715,-0.01303754,-0.1036028,0.294824,-9.88805,0.0,0.1,0.0,-0.35,13.23,13.23,4097.0,2.65,4291.0,2.64,3861.0,2.48,3972.0,2.47,4095.0,2.37,1510.0,1479.0,1505.0,1483.0,1519.0,1468.0,0
00:00:00.227087,0.005788843,-0.03563016,-0.01705387,-0.1475026,0.2768308,-9.952289,0.0,0.1,0.0,-0.35,13.23,13.23,4097.0,2.65,4291.0,2.64,3861.0,2.48,3972.0,2.47,4095.0,2.37,1510.0,1479.0,1505.0,1483.0,1519.0,1468.0,0
00:00:00.232747,-0.01761846,-0.03116526,0.001086737,-0.1893582,0.2662049,-9.953007,0.0,0.12,0.0,-0.34,13.23,13.22,4097.0,2.65,4291.0,2.64,3861.0,2.48,3972.0,2.47,4095.0,2.37,1525.0,1474.0,1499.0,1500.0,1523.0,1475.0,0
00:00:00.235001,0.02202305,-0.01399419,0.01435792,-0.1744998,0.2702194,-9.885351,0.0,0.12,0.0,-0.34,13.23,13.22,4097.0,2.65,4291.0,2.64,4333.0,2.77,3972.0,2.47,4095.0,2.37,1525.0,1474.0,1499.0,1500.0,1523.0,1475.0,0
00:00:00.238098,0.03057859,-0.0098932499999999,0.02209215,-0.1797403,0.2817221,-9.96172,0.0,0.12,0.0,-0.34,13.23,13.22,4097.0,2.65,4291.0,2.64,4333.0,2.77,3972.0,2.47,4095.0,2.37,1525.0,1474.0,1499.0,1500.0,1523.0,1475.0,0
00:00:00.240788,0.005991799,0.02890213,0.02150258,-0.1899804,0.2962534,-10.01371,0.0,0.11,0.0,-0.35,13.23,13.24,4097.0,2.65,4291.0,2.64,4333.0,2.77,3972.0,2.47,4095.0,2.37,1526.0,1484.0,1500.0,1510.0,1520.0,1490.0,0
00:00:00.242966,0.001840616,0.02431807,0.008471177,-0.2091715,0.2872847,-10.06027,0.0,0.11,0.0,-0.35,13.23,13.24,4097.0,2.65,4291.0,2.64,4333.0,2.77,3972.0,2.47,4095.0,2.37,1526.0,1484.0,1500.0,1510.0,1520.0,1490.0,0
00:00:00.246004,0.002164291,0.004765022,-0.01369869,-0.230122,0.2823578,-10.08138,0.0,0.11,0.0,-0.35,13.23,13.24,4097.0,2.65,4291.0,2.64,4333.0,2.77,3972.0,2.47,4095.0,2.37,1526.0,1484.0,1500.0,1510.0,1520.0,1490.0,0
00:00:00.248316,-0.02383202,-0.02376271,-0.01212167,-0.2691981,0.2808088,-10.2382,0.0,0.11,0.0,-0.35,13.23,13.24,4097.0,2.65,4291.0,2.64,4333.0,2.77,3972.0,2.47,4095.0,2.37,1526.0,1484.0,1500.0,1510.0,1520.0,1490.0,0
00:00:00.251144,-0.02098674,-0.0079606179999999,-0.0009401169,-0.2963489,0.2691164,-10.32354,0.0,0.11,0.0,-0.36,13.23,13.23,4097.0,2.65,4291.0,2.64,4333.0,2.77,3972.0,2.47,4095.0,2.37,1517.0,1504.0,1519.0,1502.0,1525.0,1496.0,0
00:00:00.253809,0.01253202,0.001037342,0.01355684,-0.2803626,0.2203856,-10.2427,0.0,0.11,0.0,-0.36,13.23,13.23,4097.0,2.65,4291.0,2.64,4333.0,2.77,3972.0,2.47,4095.0,2.37,1517.0,1504.0,1519.0,1502.0,1525.0,1496.0,0
00:00:00.255606,0.03773333,-0.001704439,0.01941485,-0.2405212,0.188222,-10.09826,0.0,0.11,0.0,-0.36,13.23,13.23,4097.0,2.65,4291.0,2.64,4333.0,2.77,4650.0,3.06,4095.0,2.37,1517.0,1504.0,1519.0,1502.0,1525.0,1496.0,0
00:00:00.258151,0.01404258,-0.01719429,0.02534333,-0.2044917,0.168926,-10.03207,0.0,0.11,0.0,-0.36,13.23,13.23,4097.0,2.65,4291.0,2.64,4333.0,2.77,4650.0,3.06,4095.0,2.37,1517.0,1504.0,1519.0,1502.0,1525.0,1496.0,0
00:00:00.260667,-0.01899125,0.004083041,0.0243392,-0.1591978,0.162746,-9.928177,0.0,0.12,0.0,-0.35,13.23,13.25,4097.0,2.65,4291.0,2.64,4333.0,2.77,4650.0,3.06,4095.0,2.37,1531.0,1501.0,1515.0,1517.0,1528.0,1504.0,0
00:00:00.263937,0.0005011296,0.01835669,0.01524026,-0.09924658,0.1515569,-9.917111,0.0,0.12,0.0,-0.35,13.23,13.25,4097.0,2.65,4291.0,2.64,4333.0,2.77,4650.0,3.06,4095.0,2.37,1531.0,1501.0,1515.0,1517.0,1528.0,1504.0,0
00:00:00.266928,0.03021621,0.0387172,0.00529509,-0.0661259399999999,0.1547726,-9.942718,0.0,0.12,0.0,-0.35,13.23,13.25,4097.0,2.65,4291.0,2.64,4333.0,2.77,4650.0,3.06,4095.0,2.37,1531.0,1501.0,1515.0,1517.0,1528.0,1504.0,0
00:00:00.268235,0.02186346,0.01151194,-0.001308718,-0.04073728,0.1811041,-10.11005,0.0,0.12,0.0,-0.35,13.23,13.25,4097.0,2.65,4291.0,2.64,4333.0,2.77,4650.0,3.06,4095.0,2.37,1531.0,1501.0,1515.0,1517.0,1528.0,1504.0,0
00:00:00.271220,-0.007880702,-0.004487532,-0.002586114,-0.02281965,0.2106802,-10.14517,0.0,0.1,0.0,-0.34,13.23,13.25,4097.0,2.65,4291.0,2.64,4333.0,2.77,4650.0,3.06,4095.0,2.37,1535.0,1507.0,1518.0,1525.0,1530.0,1513.0,0
00:00:00.273500,0.007392359,-0.02300139,-0.004033239,0.01434247,0.2359894,-10.15239,0.0,0.1,0.0,-0.34,13.23,13.25,4097.0,2.65,4291.0,2.64,4333.0,2.77,4650.0,3.06,4095.0,2.37,1535.0,1507.0,1518.0,1525.0,1530.0,1513.0,0
00:00:00.276243,0.04556973,-0.01786922,-0.002167971,0.06273885,0.2568096,-10.05536,0.0,0.1,0.0,-0.34,13.23,13.25,4097.0,2.65,4291.0,2.64,4333.0,2.77,4650.0,3.06,4557.0,3.1,1535.0,1507.0,1518.0,1525.0,1530.0,1513.0,0
00:00:00.278823,0.04365719,-0.04269455,0.008545796,0.1054767,0.2884338,-9.969874,0.0,0.1,0.0,-0.34,13.23,13.25,4097.0,2.65,4291.0,2.64,4333.0,2.77,4650.0,3.06,4557.0,3.1,1535.0,1507.0,1518.0,1525.0,1530.0,1513.0,0
00:00:00.281128,0.02897153,-0.04132852,0.01604226,0.1067934,0.3299002,-9.899292,0.0,0.15,0.0,-0.35,13.23,13.26,4097.0,2.65,4291.0,2.64,4333.0,2.77,4650.0,3.06,4557.0,3.1,1551.0,1502.0,1521.0,1533.0,1544.0,1510.0,0
00:00:00.283631,0.04153808,-0.01553869,0.01608444,0.09688548,0.3403448,-9.901128,0.0,0.15,0.0,-0.35,13.23,13.26,4097.0,2.65,4291.0,2.64,4333.0,2.77,4650.0,3.06,4557.0,3.1,1551.0,1502.0,1521.0,1533.0,1544.0,1510.0,0
00:00:00.286584,0.08186746,0.01186216,0.008879279,0.06752964,0.3332289,-9.980473,0.0,0.15,0.0,-0.35,13.23,13.26,4097.0,2.65,4291.0,2.64,4333.0,2.77,4650.0,3.06,4557.0,3.1,1551.0,1502.0,1521.0,1533.0,1544.0,1510.0,0
00:00:00.289152,0.0530338,0.002880184,0.003618779,0.0094404599999999,0.323181,-10.05749,0.0,0.15,0.0,-0.35,13.23,13.26,4097.0,2.65,4291.0,2.64,4333.0,2.77,4650.0,3.06,4557.0,3.1,1551.0,1502.0,1521.0,1533.0,1544.0,1510.0,0
00:00:00.292088,0.04021705,-0.004504927,-0.001456331,-0.07061879,0.3010811,-10.14291,0.0,0.16,0.0,-0.35,13.23,13.26,4097.0,2.65,4291.0,2.64,4333.0,2.77,4650.0,3.06,4557.0,3.1,1554.0,1510.0,1517.0,1548.0,1537.0,1528.0,0
00:00:00.293603,0.03477057,0.004855016,-0.001635178,-0.1413024,0.26587,-10.19226,0.0,0.16,0.0,-0.35,13.23,13.26,4097.0,2.65,4291.0,2.64,4333.0,2.77,4650.0,3.06,4557.0,3.1,1554.0,1510.0,1517.0,1548.0,1537.0,1528.0,0
00:00:00.296190,0.07175452,0.01805558,0.003598747,-0.2001798,0.219679,-10.10338,0.0,0.16,0.0,-0.35,13.23,13.26,4696.0,3.34,4291.0,2.64,4333.0,2.77,4650.0,3.06,4557.0,3.1,1554.0,1510.0,1517.0,1548.0,1537.0,1528.0,0
00:00:00.298598,0.07041541,-0.0004316626,0.01232367,-0.2427102,0.2046243,-10.0322,0.0,0.16,0.0,-0.35,13.23,13.26,4696.0,3.34,4291.0,2.64,4333.0,2.77,4650.0,3.06,4557.0,3.1,1554.0,1510.0,1517.0,1548.0,1537.0,1528.0,0
00:00:00.302024,0.0778567,-0.001131049,0.02790089,-0.3259957,0.2186586,-10.06055,0.0,0.2,0.0,-0.35,13.23,13.27,4696.0,3.34,4291.0,2.64,4333.0,2.77,4650.0,3.06,4557.0,3.1,1556.0,1520.0,1530.0,1546.0,1546.0,1530.0,0
00:00:00.304146,0.08788251,0.03419786,0.03766674,-0.348548,0.2345521,-10.12863,0.0,0.2,0.0,-0.35,13.23,13.27,4696.0,3.34,4291.0,2.64,4333.0,2.77,4650.0,3.06,4557.0,3.1,1556.0,1520.0,1530.0,1546.0,1546.0,1530.0,0
00:00:00.306517,0.1049282,0.05410282,0.04027368,-0.3539748,0.2489286,-10.25786,0.0,0.2,0.0,-0.35,13.23,13.27,4696.0,3.34,4809.0,3.06,4333.0,2.77,4650.0,3.06,4557.0,3.1,1556.0,1520.0,1530.0,1546.0,1546.0,1530.0,0
00:00:00.308581,0.07426386,0.02304475,0.03109063,-0.3697338,0.2548167,-10.31744,0.0,0.2,0.0,-0.35,13.23,13.27,4696.0,3.34,4809.0,3.06,4333.0,2.77,4650.0,3.06,4557.0,3.1,1556.0,1520.0,1530.0,1546.0,1546.0,1530.0,0
00:00:00.310980,0.05272966,0.01871038,0.01685111,-0.3956247,0.2538418,-10.48854,0.0,0.24,0.0,-0.34,13.23,13.29,4696.0,3.34,4809.0,3.06,4333.0,2.77,4650.0,3.06,4557.0,3.1,1558.0,1529.0,1532.0,1555.0,1543.0,1544.0,0
00:00:00.319558,0.0780605999999999,-0.01044875,0.01988609,-0.2405148,0.1976946,-10.48223,0.0,0.24,0.0,-0.34,13.23,13.29,4696.0,3.34,4809.0,3.06,4333.0,2.77,4650.0,3.06,4557.0,3.1,1558.0,1529.0,1532.0,1555.0,1543.0,1544.0,0
00:00:00.322218,0.08071397,-0.006025224,0.03020967,-0.158774,0.2125374,-10.54873,0.0,0.29,0.0,-0.34,13.23,13.3,4696.0,3.34,4809.0,3.06,4333.0,2.77,4650.0,3.06,4557.0,3.1,1556.0,1541.0,1558.0,1539.0,1562.0,1535.0,0
00:00:00.325215,0.09516206,0.004479569,0.03945877,-0.04799944,0.2331299,-10.53662,0.0,0.29,0.0,-0.34,13.23,13.3,4696.0,3.34,4809.0,3.06,4333.0,2.77,4650.0,3.06,4557.0,3.1,1556.0,1541.0,1558.0,1539.0,1562.0,1535.0,0
00:00:00.327380,0.09970879,-0.04891474,0.04331541,0.1200116,0.2725742,-10.50318,0.0,0.29,0.0,-0.34,13.23,13.3,4696.0,3.34,4809.0,3.06,4333.0,2.77,4650.0,3.06,4557.0,3.1,1556.0,1541.0,1558.0,1539.0,1562.0,1535.0,0
00:00:00.330018,0.1003971,-0.07763397,0.03865407,0.1839778,0.3210671,-10.5617,0.0,0.29,0.0,-0.34,13.23,13.3,4696.0,3.34,4809.0,3.06,4333.0,2.77,4650.0,3.06,4557.0,3.1,1556.0,1541.0,1558.0,1539.0,1562.0,1535.0,0
00:00:00.332556,0.1053775,-0.03215769,0.03470217,0.3037531,0.3999319,-10.65015,0.0,0.36,0.0,-0.36,13.23,13.32,4696.0,3.34,4809.0,3.06,4333.0,2.77,4650.0,3.06,4557.0,3.1,1567.0,1541.0,1579.0,1529.0,1587.0,1520.0,0
00:00:00.334883,0.1215423,-0.001537385,0.02953785,0.3886572,0.4384216,-10.65407,0.0,0.36,0.0,-0.36,13.23,13.32,4696.0,3.34,4809.0,3.06,4333.0,2.77,4650.0,3.06,4557.0,3.1,1567.0,1541.0,1579.0,1529.0,1587.0,1520.0,0
00:00:00.337960,0.1196976,-0.05779106,0.0123897,0.4043867,0.4830708,-10.63046,0.0,0.36,0.0,-0.36,13.23,13.32,4696.0,3.34,4809.0,3.06,4333.0,2.77,4650.0,3.06,4557.0,3.1,1567.0,1541.0,1579.0,1529.0,1587.0,1520.0,0
00:00:00.339966,0.1234098,-0.06411005,0.008645526,0.3406651,0.5143749,-10.72753,0.0,0.36,0.0,-0.36,13.23,13.32,4696.0,3.34,4809.0,3.06,4333.0,2.77,4650.0,3.06,4557.0,3.1,1567.0,1541.0,1579.0,1529.0,1587.0,1520.0,0
00:00:00.342600,0.1270017,-0.01771612,0.02302612,0.2556495,0.5477484,-10.7728,0.0,0.43,0.0,-0.39,13.23,13.33,4696.0,3.34,4809.0,3.06,4333.0,2.77,4650.0,3.06,4557.0,3.1,1575.0,1543.0,1582.0,1536.0,1593.0,1524.0,0
00:00:00.344957,0.1410952,-0.01395267,0.03299987,0.1951579,0.5307409,-10.72285,0.0,0.43,0.0,-0.39,13.23,13.33,4696.0,3.34,4809.0,3.06,4905.0,3.39,4650.0,3.06,4557.0,3.1,1575.0,1543.0,1582.0,1536.0,1593.0,1524.0,0
00:00:00.347934,0.1448987,-0.08200592,0.03176347,-0.005870804,0.4855322,-10.75125,0.0,0.43,0.0,-0.39,13.23,13.33,4696.0,3.34,4809.0,3.06,4905.0,3.39,4650.0,3.06,4557.0,3.1,1575.0,1543.0,1582.0,1536.0,1593.0,1524.0,0
00:00:00.350227,0.1387451,-0.0635251399999999,0.03451476,-0.1286602,0.459468,-10.83794,0.0,0.43,0.0,-0.39,13.23,13.33,4696.0,3.34,4809.0,3.06,4905.0,3.39,4650.0,3.06,4557.0,3.1,1575.0,1543.0,1582.0,1536.0,1593.0,1524.0,0
00:00:00.353236,0.149259,-0.004644007,0.04113376,-0.1968273,0.4246441,-10.86708,0.0,0.52,0.0,-0.41,13.23,13.36,4696.0,3.34,4809.0,3.06,4905.0,3.39,4650.0,3.06,4557.0,3.1,1586.0,1543.0,1586.0,1543.0,1601.0,1526.0,0
00:00:00.354617,0.1544282,-0.02601225,0.03700674,-0.2532266,0.3561459,-10.78979,0.0,0.52,0.0,-0.41,13.23,13.36,4696.0,3.34,4809.0,3.06,4905.0,3.39,4650.0,3.06,4557.0,3.1,1586.0,1543.0,1586.0,1543.0,1601.0,1526.0,0
00:00:00.357189,0.1609599,-0.0625016199999999,0.02979699,-0.3461277,0.3399277,-10.88557,0.0,0.52,0.0,-0.41,13.23,13.36,4696.0,3.34,4809.0,3.06,4905.0,3.39,4650.0,3.06,4557.0,3.1,1586.0,1543.0,1586.0,1543.0,1601.0,1526.0,0
00:00:00.359747,0.1560324,-0.03441924,0.03296386,-0.4003786,0.3573017,-11.0464,0.0,0.52,0.0,-0.41,13.23,13.36,4696.0,3.34,4809.0,3.06,4905.0,3.39,4650.0,3.06,4557.0,3.1,1586.0,1543.0,1586.0,1543.0,1601.0,1526.0,0
00:00:00.363036,0.147118,0.01545411,0.04816569,-0.3473185,0.3916343,-11.15663,0.0,0.6,0.0,-0.41,13.23,13.38,4696.0,3.34,4809.0,3.06,4905.0,3.39,4650.0,3.06,4557.0,3.1,1595.0,1545.0,1581.0,1559.0,1599.0,1540.0,0
00:00:00.365557,0.146232,-0.02573436,0.05018396,-0.2923245,0.4059412,-11.12027,0.0,0.6,0.0,-0.41,13.23,13.38,4696.0,3.34,4809.0,3.06,4905.0,3.39,4650.0,3.06,4557.0,3.1,1595.0,1545.0,1581.0,1559.0,1599.0,1540.0,0
00:00:00.367549,0.1497405,-0.06987357,0.04539488,-0.287559,0.4489951,-11.30944,0.0,0.6,0.0,-0.41,13.23,13.38,4696.0,3.34,4809.0,3.06,4905.0,3.39,4650.0,3.06,4557.0,3.1,1595.0,1545.0,1581.0,1559.0,1599.0,1540.0,0
00:00:00.370083,0.1523317,-0.01807922,0.04984575,-0.2225513,0.4818525,-11.40966,0.0,0.6,0.0,-0.41,13.23,13.38,4696.0,3.34,4809.0,3.06,4905.0,3.39,4650.0,3.06,4557.0,3.1,1595.0,1545.0,1581.0,1559.0,1599.0,1540.0,0
00:00:00.372675,0.1710964,0.02391097,0.04884842,-0.05119786,0.4842169,-11.35992,0.0,0.69,0.0,-0.39,13.23,13.42,4696.0,3.34,4809.0,3.06,4905.0,3.39,4650.0,3.06,4557.0,3.1,1598.0,1551.0,1572.0,1578.0,1588.0,1562.0,0
00:00:00.375583,0.1755302,-0.02601841,0.0356195,-0.01039323,0.4716935,-11.32393,0.0,0.69,0.0,-0.39,13.23,13.42,4696.0,3.34,4809.0,3.06,4905.0,3.39,4650.0,3.06,4557.0,3.1,1598.0,1551.0,1572.0,1578.0,1588.0,1562.0,0
00:00:00.377935,0.1702026,-0.01587309,0.02712966,-0.003575067,0.4728843,-11.41347,0.0,0.69,0.0,-0.39,13.23,13.42,4696.0,3.34,4809.0,3.06,4905.0,3.39,4650.0,3.06,4557.0,3.1,1598.0,1551.0,1572.0,1578.0,1588.0,1562.0,0
00:00:00.379828,0.166233,0.01034414,0.03341974,0.06225587,0.4616652,-11.36048,0.0,0.69,0.0,-0.39,13.23,13.42,4696.0,3.34,4809.0,3.06,4905.0,3.39,4650.0,3.06,4557.0,3.1,1598.0,1551.0,1572.0,1578.0,1588.0,1562.0,0
00:00:00.382204,0.1733812,-0.049014,0.04020396,0.1230818,0.4172451,-11.20864,0.0,0.78,0.0,-0.4,13.23,13.44,4696.0,3.34,4809.0,3.06,4905.0,3.39,4650.0,3.06,4557.0,3.1,1599.0,1560.0,1574.0,1586.0,1585.0,1575.0,0
00:00:00.384945,0.15092,-0.07434844,0.04618043,0.08863247,0.3751411,-11.19916,0.0,0.78,0.0,-0.4,13.23,13.44,4696.0,3.34,4809.0,3.06,4905.0,3.39,4650.0,3.06,5070.0,3.66,1599.0,1560.0,1574.0,1586.0,1585.0,1575.0,0
00:00:00.387997,0.1356409,-0.01061027,0.05907937,0.002171088,0.3298374,-11.37858,0.0,0.78,0.0,-0.4,13.23,13.44,4696.0,3.34,4809.0,3.06,4905.0,3.39,4650.0,3.06,5070.0,3.66,1599.0,1560.0,1574.0,1586.0,1585.0,1575.0,0
00:00:00.390230,0.136549,0.05481488,0.06896856,0.0024647,0.2847834,-11.43203,0.0,0.78,0.0,-0.4,13.23,13.44,4696.0,3.34,4809.0,3.06,4905.0,3.39,4650.0,3.06,5070.0,3.66,1599.0,1560.0,1574.0,1586.0,1585.0,1575.0,0
00:00:00.392676,0.1601688,0.01372658,0.05521725,-0.04053453,0.1697616,-11.34895,0.0,0.87,0.0,-0.39,13.23,13.48,4696.0,3.34,4809.0,3.06,4905.0,3.39,4650.0,3.06,5070.0,3.66,1595.0,1573.0,1559.0,1608.0,1560.0,1607.0,0
00:00:00.395691,0.118585,-0.004539075,0.0384253,-0.1822621,0.1175567,-11.42208,0.0,0.87,0.0,-0.39,13.23,13.48,5180.0,4.33,4809.0,3.06,4905.0,3.39,4650.0,3.06,5070.0,3.66,1595.0,1573.0,1559.0,1608.0,1560.0,1607.0,0
00:00:00.398223,0.09261024,0.02790357,0.03999173,-0.2009393,0.1211089,-11.37965,0.0,0.87,0.0,-0.39,13.23,13.48,5180.0,4.33,4809.0,3.06,4905.0,3.39,4650.0,3.06,5070.0,3.66,1595.0,1573.0,1559.0,1608.0,1560.0,1607.0,0
00:00:00.400769,0.1263847,0.008803795,0.04658997,-0.1938609,0.1307944,-11.1681,0.0,0.87,0.0,-0.39,13.23,13.48,5180.0,4.33,4809.0,3.06,4905.0,3.39,4650.0,3.06,5070.0,3.66,1595.0,1573.0,1559.0,1608.0,1560.0,1607.0,0
00:00:00.403063,0.1417062,-0.003752058,0.06289177,-0.3093363,0.2172736,-11.29393,0.0,0.95,0.0,-0.4,13.23,13.5,5180.0,4.33,4809.0,3.06,4905.0,3.39,4650.0,3.06,5070.0,3.66,1594.0,1582.0,1579.0,1597.0,1574.0,1601.0,0
00:00:00.406151,0.1361306,0.06081384,0.08178101,-0.3230989,0.2966558,-11.36732,0.0,0.95,0.0,-0.4,13.23,13.5,5180.0,4.33,4809.0,3.06,4905.0,3.39,4650.0,3.06,5070.0,3.66,1594.0,1582.0,1579.0,1597.0,1574.0,1601.0,0
00:00:00.408550,0.1406983,0.07007684,0.09078674,-0.2567466,0.3738447,-11.34921,0.0,0.95,0.0,-0.4,13.23,13.5,5180.0,4.33,4809.0,3.06,4905.0,3.39,4650.0,3.06,5070.0,3.66,1594.0,1582.0,1579.0,1597.0,1574.0,1601.0,0
00:00:00.414068,0.1307545,0.03078243,0.05828878,-0.3312185,0.4809153,-11.7237,0.0,0.95,0.0,-0.4,13.23,13.5,5180.0,4.33,4809.0,3.06,4905.0,3.39,4650.0,3.06,5070.0,3.66,1594.0,1582.0,1579.0,1597.0,1574.0,1601.0,0
00:00:00.416417,0.1373084,0.07037359,0.05732841,-0.2727531,0.5171689,-11.73235,0.0,1.07,0.0,-0.38,13.23,13.55,5180.0,4.33,4809.0,3.06,4905.0,3.39,4650.0,3.06,5070.0,3.66,1620.0,1561.0,1596.0,1586.0,1613.0,1569.0,0
00:00:00.419046,0.1577769,0.02732982,0.05665122,-0.2274722,0.5287171,-11.65849,0.0,1.07,0.0,-0.38,13.23,13.55,5180.0,4.33,5352.0,3.51,4905.0,3.39,4650.0,3.06,5070.0,3.66,1620.0,1561.0,1596.0,1586.0,1613.0,1569.0,0
00:00:00.422241,0.1496893,0.01833849,0.06312767,-0.2924727,0.5506381,-11.86107,0.0,1.07,0.0,-0.38,13.23,13.55,5180.0,4.33,5352.0,3.51,4905.0,3.39,4650.0,3.06,5070.0,3.66,1620.0,1561.0,1596.0,1586.0,1613.0,1569.0,0
00:00:00.424531,0.1389752,0.1153508,0.086259,-0.2674025,0.5689789,-12.01517,0.0,1.07,0.0,-0.38,13.23,13.55,5180.0,4.33,5352.0,3.51,4905.0,3.39,4650.0,3.06,5070.0,3.66,1620.0,1561.0,1596.0,1586.0,1613.0,1569.0,0
00:00:00.429824,0.1451758,0.008720319,0.07685877,-0.2229246,0.4280249,-12.06597,0.0,1.14,0.0,-0.32,13.23,13.61,5180.0,4.33,5352.0,3.51,4905.0,3.39,4650.0,3.06,5070.0,3.66,1619.0,1567.0,1578.0,1609.0,1590.0,1597.0,0
00:00:00.432369,0.09348706,0.05145019,0.0731387,-0.192163,0.3442306,-12.18342,0.0,1.14,0.0,-0.32,13.23,13.61,5180.0,4.33,5352.0,3.51,4905.0,3.39,4650.0,3.06,5070.0,3.66,1619.0,1567.0,1578.0,1609.0,1590.0,1597.0,0
00:00:00.435357,0.08690763,0.05024634,0.0751617599999999,-0.1074932,0.2726851,-12.11916,0.0,1.14,0.0,-0.32,13.23,13.61,5180.0,4.33,5352.0,3.51,4905.0,3.39,4650.0,3.06,5070.0,3.66,1619.0,1567.0,1578.0,1609.0,1590.0,1597.0,0
00:00:00.438163,0.09255819,0.006418505,0.08243196,-0.0751384799999999,0.1342343,-12.16451,0.0,1.19,0.0,-0.32,13.23,13.66,5180.0,4.33,5352.0,3.51,4905.0,3.39,4650.0,3.06,5070.0,3.66,1593.0,1595.0,1595.0,1594.0,1578.0,1610.0,0
00:00:00.440267,0.07207129,0.06225678,0.09490301,-0.03994279,0.0989267499999999,-12.20169,0.0,1.19,0.0,-0.32,13.23,13.66,5180.0,4.33,5352.0,3.51,4905.0,3.39,4650.0,3.06,5070.0,3.66,1593.0,1595.0,1595.0,1594.0,1578.0,1610.0,0
00:00:00.442820,0.06017251,0.05304231,0.104166,0.04761842,0.06649432,-12.09249,0.0,1.19,0.0,-0.32,13.23,13.66,5180.0,4.33,5352.0,3.51,4905.0,3.39,4650.0,3.06,5070.0,3.66,1593.0,1595.0,1595.0,1594.0,1578.0,1610.0,0
00:00:00.445704,0.05950421,0.002485538,0.1005708,0.09658511,0.03212366,-11.98533,0.0,1.19,0.0,-0.32,13.23,13.66,5180.0,4.33,5352.0,3.51,4905.0,3.39,4650.0,3.06,5070.0,3.66,1593.0,1595.0,1595.0,1594.0,1578.0,1610.0,0
00:00:00.448804,0.02970188,0.02066254,0.09820868,0.06832477,0.05117927,-12.08802,0.0,1.24,0.0,-0.31,13.23,13.72,5180.0,4.33,5352.0,3.51,4905.0,3.39,4650.0,3.06,5070.0,3.66,1597.0,1592.0,1599.0,1590.0,1583.0,1606.0,0
00:00:00.450987,0.03083445,0.04405292,0.09973932,0.1054352,0.1097726,-12.1008,0.0,1.24,0.0,-0.31,13.23,13.72,5180.0,4.33,5352.0,3.51,4905.0,3.39,4650.0,3.06,5070.0,3.66,1597.0,1592.0,1599.0,1590.0,1583.0,1606.0,0
00:00:00.453029,0.05105798,0.03791142,0.1003346,0.1700737,0.1649283,-12.04014,0.0,1.24,0.0,-0.31,13.23,13.72,5180.0,4.33,5352.0,3.51,5459.0,4.0,4650.0,3.06,5070.0,3.66,1597.0,1592.0,1599.0,1590.0,1583.0,1606.0,0
00:00:00.455607,0.06375296,-0.02460726,0.09676318,0.1840008,0.2355741,-12.07001,0.0,1.24,0.0,-0.31,13.23,13.72,5180.0,4.33,5352.0,3.51,5459.0,4.0,4650.0,3.06,5070.0,3.66,1597.0,1592.0,1599.0,1590.0,1583.0,1606.0,0
00:00:00.458083,0.02921495,-0.001207131,0.09890975,0.2120243,0.331366,-12.13035,0.0,1.29,0.0,-0.32,13.23,13.77,5180.0,4.33,5352.0,3.51,5459.0,4.0,4650.0,3.06,5070.0,3.66,1616.0,1573.0,1603.0,1586.0,1604.0,1585.0,0
00:00:00.461014,0.04813636,-0.01015396,0.1007966,0.2968898,0.3770078,-12.00461,0.0,1.29,0.0,-0.32,13.23,13.77,5180.0,4.33,5352.0,3.51,5459.0,4.0,4650.0,3.06,5070.0,3.66,1616.0,1573.0,1603.0,1586.0,1604.0,1585.0,0
00:00:00.463282,0.09047425,-0.07628455,0.1026766,0.327896,0.3993771,-11.9616,0.0,1.29,0.0,-0.32,13.23,13.77,5180.0,4.33,5352.0,3.51,5459.0,4.0,4650.0,3.06,5070.0,3.66,1616.0,1573.0,1603.0,1586.0,1604.0,1585.0,0
00:00:00.465675,0.0710183,-0.05652561,0.1089505,0.2839056,0.4466928,-12.14318,0.0,1.29,0.0,-0.32,13.23,13.77,5180.0,4.33,5352.0,3.51,5459.0,4.0,4650.0,3.06,5070.0,3.66,1616.0,1573.0,1603.0,1586.0,1604.0,1585.0,0
00:00:00.467954,0.06232344,0.01184208,0.1200533,0.3422379,0.4755397,-12.04721,0.0,1.32,0.0,-0.35,13.23,13.83,5180.0,4.33,5352.0,3.51,5459.0,4.0,4650.0,3.06,5070.0,3.66,1630.0,1558.0,1611.0,1578.0,1624.0,1565.0,0
00:00:00.471683,0.08891772,-0.03299896,0.1147217,0.3528525,0.446976,-11.93466,0.0,1.32,0.0,-0.35,13.23,13.83,5180.0,4.33,5352.0,3.51,5459.0,4.0,4650.0,3.06,5070.0,3.66,1630.0,1558.0,1611.0,1578.0,1624.0,1565.0,0
00:00:00.473197,0.06998659,-0.07427362,0.1038644,0.257495,0.4049285,-12.03144,0.0,1.32,0.0,-0.35,13.23,13.83,5180.0,4.33,5352.0,3.51,5459.0,4.0,5182.0,3.91,5070.0,3.66,1630.0,1558.0,1611.0,1578.0,1624.0,1565.0,0
00:00:00.476585,0.0318464,-0.0315251,0.1061537,0.2328303,0.3990124,-12.05828,0.0,1.32,0.0,-0.35,13.23,13.83,5180.0,4.33,5352.0,3.51,5459.0,4.0,5182.0,3.91,5070.0,3.66,1630.0,1558.0,1611.0,1578.0,1624.0,1565.0,0
00:00:00.477847,0.04692489,-0.0357614,0.1069717,0.2353442,0.3592859,-11.94787,0.0,1.32,0.0,-0.35,13.23,13.83,5180.0,4.33,5352.0,3.51,5459.0,4.0,5182.0,3.91,5070.0,3.66,1630.0,1558.0,1611.0,1578.0,1624.0,1565.0,0
00:00:00.480512,0.06001852,-0.05393949,0.1057582,0.1866102,0.2972306,-11.90859,0.0,1.33,0.0,-0.34,13.23,13.92,5180.0,4.33,5352.0,3.51,5459.0,4.0,5182.0,3.91,5070.0,3.66,1599.0,1590.0,1602.0,1588.0,1581.0,1609.0,0
00:00:00.483518,0.05253594,-0.06356721,0.1053603,0.02990312,0.2261415,-12.07526,0.0,1.33,0.0,-0.34,13.23,13.92,5180.0,4.33,5352.0,3.51,5459.0,4.0,5182.0,3.91,5561.0,4.0,1599.0,1590.0,1602.0,1588.0,1581.0,1609.0,0
00:00:00.485764,0.02530063,-0.02183318,0.1137488,-0.01997522,0.2032547,-12.11501,0.0,1.33,0.0,-0.34,13.23,13.92,5180.0,4.33,5352.0,3.51,5459.0,4.0,5182.0,3.91,5561.0,4.0,1599.0,1590.0,1602.0,1588.0,1581.0,1609.0,0
00:00:00.488488,0.02723865,-0.02504019,0.1201253,-0.04671258,0.1674355,-12.08398,0.0,1.33,0.0,-0.34,13.23,13.92,5180.0,4.33,5352.0,3.51,5459.0,4.0,5182.0,3.91,5561.0,4.0,1599.0,1590.0,1602.0,1588.0,1581.0,1609.0,0
00:00:00.490698,0.03437499,-0.0339539,0.1165514,-0.1442492,0.1186402,-12.15502,0.0,1.35,0.0,-0.38,13.23,13.99,5180.0,4.33,5352.0,3.51,5459.0,4.0,5182.0,3.91,5561.0,4.0,1597.0,1591.0,1599.0,1590.0,1574.0,1614.0,0
00:00:00.493573,0.02826104,-0.02486341,0.1121751,-0.2109995,0.1446504,-12.16854,0.0,1.35,0.0,-0.38,13.23,13.99,5180.0,4.33,5352.0,3.51,5459.0,4.0,5182.0,3.91,5561.0,4.0,1597.0,1591.0,1599.0,1590.0,1574.0,1614.0,0
00:00:00.496299,0.03979624,-0.04000767,0.1147375,-0.2124608,0.1893433,-12.08877,0.0,1.35,0.0,-0.38,13.23,13.99,5180.0,4.33,5352.0,3.51,5459.0,4.0,5182.0,3.91,5561.0,4.0,1597.0,1591.0,1599.0,1590.0,1574.0,1614.0,0
00:00:00.498752,0.03902881,-0.05220768,0.1275568,-0.2619764,0.2677708,-12.10578,0.0,1.35,0.0,-0.38,13.23,13.99,5180.0,4.33,5352.0,3.51,5459.0,4.0,5182.0,3.91,5561.0,4.0,1597.0,1591.0,1599.0,1590.0,1574.0,1614.0,0
00:00:00.501016,0.008469457,0.007316889,0.1434107,-0.3050479,0.3824231,-12.11751,0.0,1.39,0.0,-0.41,13.23,14.06,5180.0,4.33,5352.0,3.51,5459.0,4.0,5182.0,3.91,5561.0,4.0,1611.0,1575.0,1608.0,1579.0,1595.0,1591.0,0
00:00:00.503264,0.02922386,0.03296061,0.1479319,-0.2923193,0.4601306,-12.0268,0.0,1.39,0.0,-0.41,13.23,14.06,5753.0,4.29,5352.0,3.51,5459.0,4.0,5182.0,3.91,5561.0,4.0,1611.0,1575.0,1608.0,1579.0,1595.0,1591.0,0
00:00:00.505753,0.06976514,0.02044362,0.1430612,-0.3036364,0.5192965,-12.01136,0.0,1.39,0.0,-0.41,13.23,14.06,5753.0,4.29,5352.0,3.51,5459.0,4.0,5182.0,3.91,5561.0,4.0,1611.0,1575.0,1608.0,1579.0,1595.0,1591.0,0
00:00:00.508659,0.0627978,0.01175801,0.129272,-0.3294538,0.5726214,-12.07784,0.0,1.39,0.0,-0.41,13.23,14.06,5753.0,4.29,5352.0,3.51,5459.0,4.0,5182.0,3.91,5561.0,4.0,1611.0,1575.0,1608.0,1579.0,1595.0,1591.0,0
00:00:00.513754,0.02752013,0.00547266,0.1233513,-0.2970447,0.6951805,-12.05155,0.0,1.43,0.0,-0.4,13.23,14.13,5753.0,4.29,5352.0,3.51,5459.0,4.0,5182.0,3.91,5561.0,4.0,1632.0,1549.0,1588.0,1595.0,1597.0,1587.0,0
00:00:00.516600,0.07070993,0.01475706,0.1258366,-0.2734042,0.6860068,-12.17032,0.0,1.43,0.0,-0.4,13.23,14.13,5753.0,4.29,5352.0,3.51,5459.0,4.0,5182.0,3.91,5561.0,4.0,1632.0,1549.0,1588.0,1595.0,1597.0,1587.0,0
00:00:00.521708,0.07459971,0.0695265199999999,0.1338985,-0.1587708,0.616874,-12.13071,0.0,1.43,0.0,-0.4,13.23,14.13,5753.0,4.29,5352.0,3.51,5459.0,4.0,5182.0,3.91,5561.0,4.0,1632.0,1549.0,1588.0,1595.0,1597.0,1587.0,0
00:00:00.525050,0.08432821,0.01410913,0.1247323,-0.08101688,0.5234764,-12.14344,0.0,1.45,0.0,-0.36,13.23,14.24,5753.0,4.29,5352.0,3.51,5459.0,4.0,5182.0,3.91,5561.0,4.0,1615.0,1563.0,1581.0,1598.0,1569.0,1609.0,0
00:00:00.526721,0.06147107,-0.01892485,0.1218594,-0.05015101,0.4776104,-12.20109,0.0,1.45,0.0,-0.36,13.23,14.24,5753.0,4.29,5747.0,3.34,5459.0,4.0,5182.0,3.91,5561.0,4.0,1615.0,1563.0,1581.0,1598.0,1569.0,1609.0,0
00:00:00.529032,0.04660844,-0.001803154,0.1369313,0.01210228,0.4611381,-12.24739,0.0,1.45,0.0,-0.36,13.23,14.24,5753.0,4.29,5747.0,3.34,5459.0,4.0,5182.0,3.91,5561.0,4.0,1615.0,1563.0,1581.0,1598.0,1569.0,1609.0,0
00:00:00.532381,0.06516541,0.01294861,0.1512308,0.03693802,0.4507013,-12.31938,0.0,1.45,0.0,-0.36,13.23,14.24,5753.0,4.29,5747.0,3.34,5459.0,4.0,5182.0,3.91,5561.0,4.0,1615.0,1563.0,1581.0,1598.0,1569.0,1609.0,0
00:00:00.535211,0.06961576,0.02741532,0.1588838,0.04474293,0.4347814,-12.41863,0.0,1.5,0.0,-0.36,13.23,14.33,5753.0,4.29,5747.0,3.34,5459.0,4.0,5182.0,3.91,5561.0,4.0,1611.0,1563.0,1589.0,1585.0,1573.0,1601.0,0
00:00:00.537091,0.03134505,0.03270427,0.1522895,0.03714677,0.4579468,-12.41448,0.0,1.5,0.0,-0.36,13.23,14.33,5753.0,4.29,5747.0,3.34,5459.0,4.0,5182.0,3.91,5561.0,4.0,1611.0,1563.0,1589.0,1585.0,1573.0,1601.0,0
00:00:00.539717,0.0307144,0.01357338,0.1389732,0.03163541,0.4624561,-12.41682,0.0,1.5,0.0,-0.36,13.23,14.33,5753.0,4.29,5747.0,3.34,5459.0,4.0,5182.0,3.91,5561.0,4.0,1611.0,1563.0,1589.0,1585.0,1573.0,1601.0,0
00:00:00.542341,0.05038315,-0.01578273,0.1168734,0.009716034,0.4747156,-12.45366,0.0,1.5,0.0,-0.36,13.23,14.33,5753.0,4.29,5747.0,3.34,5459.0,4.0,5182.0,3.91,5561.0,4.0,1611.0,1563.0,1589.0,1585.0,1573.0,1601.0,0
00:00:00.545533,0.04327047,-0.02196532,0.1137521,-0.03093942,0.4978806,-12.45824,0.0,1.53,0.0,-0.37,13.23,14.4,5753.0,4.29,5747.0,3.34,5459.0,4.0,5182.0,3.91,5561.0,4.0,1609.0,1559.0,1598.0,1571.0,1581.0,1588.0,0
00:00:00.547686,0.04418528,0.006182179,0.1250065,-0.06425307,0.5486625,-12.36221,0.0,1.53,0.0,-0.37,13.23,14.4,5753.0,4.29,5747.0,3.34,5459.0,4.0,5182.0,3.91,5561.0,4.0,1609.0,1559.0,1598.0,1571.0,1581.0,1588.0,0
00:00:00.549701,0.0631569,0.0232709,0.1384382,-0.08486763,0.5680624,-12.33271,0.0,1.53,0.0,-0.37,13.23,14.4,5753.0,4.29,5747.0,3.34,5459.0,4.0,5182.0,3.91,5561.0,4.0,1609.0,1559.0,1598.0,1571.0,1581.0,1588.0,0
00:00:00.552375,0.08723211,0.039181,0.1477143,-0.1381274,0.5711318,-12.33985,0.0,1.53,0.0,-0.37,13.23,14.4,5753.0,4.29,5747.0,3.34,5459.0,4.0,5182.0,3.91,5561.0,4.0,1609.0,1559.0,1598.0,1571.0,1581.0,1588.0,0
00:00:00.554832,0.08308898,0.0635764999999999,0.1504464,-0.1622699,0.5785666,-12.29106,0.0,1.57,0.0,-0.35,13.23,14.49,5753.0,4.29,5747.0,3.34,5459.0,4.0,5182.0,3.91,5561.0,4.0,1625.0,1534.0,1574.0,1589.0,1574.0,1588.0,0
00:00:00.557657,0.1105967,0.05321357,0.1446928,-0.1563979,0.5784379,-12.20396,0.0,1.57,0.0,-0.35,13.23,14.49,5753.0,4.29,5747.0,3.34,5930.0,3.37,5182.0,3.91,5561.0,4.0,1625.0,1534.0,1574.0,1589.0,1574.0,1588.0,0
00:00:00.560187,0.1259443,0.02548817,0.1364113,-0.1507482,0.5651182,-12.19417,0.0,1.57,0.0,-0.35,13.23,14.49,5753.0,4.29,5747.0,3.34,5930.0,3.37,5182.0,3.91,5561.0,4.0,1625.0,1534.0,1574.0,1589.0,1574.0,1588.0,0
00:00:00.562557,0.07472265,0.03038825,0.1360366,-0.1502625,0.5580708,-12.16965,0.0,1.57,0.0,-0.35,13.23,14.49,5753.0,4.29,5747.0,3.34,5930.0,3.37,5182.0,3.91,5561.0,4.0,1625.0,1534.0,1574.0,1589.0,1574.0,1588.0,0
00:00:00.564797,0.05740797,0.07966308,0.1434779,-0.0990299,0.5204212,-12.07478,0.0,1.6,0.0,-0.34,13.23,14.57,5753.0,4.29,5747.0,3.34,5930.0,3.37,5182.0,3.91,5561.0,4.0,1618.0,1536.0,1594.0,1562.0,1587.0,1569.0,0
00:00:00.567570,0.08407787,0.0822783,0.1377145,-0.0742876299999999,0.4615175,-12.03654,0.0,1.6,0.0,-0.34,13.23,14.57,5753.0,4.29,5747.0,3.34,5930.0,3.37,5182.0,3.91,5561.0,4.0,1618.0,1536.0,1594.0,1562.0,1587.0,1569.0,0
00:00:00.570160,0.09129733,0.0638417,0.1265635,-0.08939294,0.4057765,-12.02537,0.0,1.6,0.0,-0.34,13.23,14.57,5753.0,4.29,5747.0,3.34,5930.0,3.37,5182.0,3.91,5561.0,4.0,1618.0,1536.0,1594.0,1562.0,1587.0,1569.0,0
00:00:00.572950,0.06559774,0.064703,0.1207108,-0.09706666,0.3667475,-12.00457,0.0,1.6,0.0,-0.34,13.23,14.57,5753.0,4.29,5747.0,3.34,5930.0,3.37,5182.0,3.91,5561.0,4.0,1618.0,1536.0,1594.0,1562.0,1587.0,1569.0,0
00:00:00.575324,0.05333225,0.0491128,0.1246768,-0.104713,0.3258376,-12.04691,0.0,1.64,0.0,-0.29,13.23,14.64,5753.0,4.29,5747.0,3.34,5930.0,3.37,5182.0,3.91,5561.0,4.0,1618.0,1531.0,1584.0,1567.0,1578.0,1574.0,0
00:00:00.577771,0.04568724,0.02764525,0.1330537,-0.131915,0.296374,-12.11297,0.0,1.64,0.0,-0.29,13.23,14.64,5753.0,4.29,5747.0,3.34,5930.0,3.37,6022.0,3.3,5561.0,4.0,1618.0,1531.0,1584.0,1567.0,1578.0,1574.0,0
00:00:00.580298,0.0224603,0.0450706,0.1518296,-0.1656527,0.2605184,-12.1263,0.0,1.64,0.0,-0.29,13.23,14.64,5753.0,4.29,5747.0,3.34,5930.0,3.37,6022.0,3.3,5561.0,4.0,1618.0,1531.0,1584.0,1567.0,1578.0,1574.0,0
00:00:00.583204,0.02898175,0.06095668,0.1600337,-0.142569,0.2317523,-12.07884,0.0,1.64,0.0,-0.29,13.23,14.64,5753.0,4.29,5747.0,3.34,5930.0,3.37,6022.0,3.3,5561.0,4.0,1618.0,1531.0,1584.0,1567.0,1578.0,1574.0,0
00:00:00.586461,0.05290373,0.03156673,0.1581783,-0.101773,0.1714263,-12.00869,-0.04,1.67,0.0,-0.25,13.23,14.75,5753.0,4.29,5747.0,3.34,5930.0,3.37,6022.0,3.3,5561.0,4.0,1608.0,1536.0,1574.0,1573.0,1556.0,1590.0,0
00:00:00.588062,0.008826054,0.01314567,0.1502182,-0.0690768799999999,0.1218,-11.89334,-0.04,1.67,0.0,-0.25,13.23,14.75,5753.0,4.29,5747.0,3.34,5930.0,3.37,6022.0,3.3,5561.0,4.0,1608.0,1536.0,1574.0,1573.0,1556.0,1590.0,0
00:00:00.590714,-0.01923078,0.01547031,0.1488556,-0.007480611,0.1156539,-11.78905,-0.04,1.67,0.0,-0.25,13.23,14.75,5753.0,4.29,5747.0,3.34,5930.0,3.37,6022.0,3.3,5561.0,4.0,1608.0,1536.0,1574.0,1573.0,1556.0,1590.0,0
00:00:00.592945,0.001417583,0.007243033,0.1521929,0.06006932,0.1347161,-11.72634,-0.04,1.67,0.0,-0.25,13.23,14.75,5753.0,4.29,5747.0,3.34,5930.0,3.37,6022.0,3.3,5561.0,4.0,1608.0,1536.0,1574.0,1573.0,1556.0,1590.0,0
00:00:00.596388,0.016749,0.01828521,0.1563153,0.05954004,0.15693,-11.77852,-0.08,1.66,0.0,-0.25,13.23,14.84,5753.0,4.29,5747.0,3.34,5930.0,3.37,6022.0,3.3,5561.0,4.0,1596.0,1544.0,1587.0,1553.0,1557.0,1583.0,0
00:00:00.598393,-0.006484998,0.05843325,0.1630893,0.1166959,0.2176954,-11.76692,-0.08,1.66,0.0,-0.25,13.23,14.84,5753.0,4.29,5747.0,3.34,5930.0,3.37,6022.0,3.3,5971.0,3.72,1596.0,1544.0,1587.0,1553.0,1557.0,1583.0,0
00:00:00.600683,-0.02194082,0.03873321,0.1596706,0.1437496,0.2642131,-11.79634,-0.08,1.66,0.0,-0.25,13.23,14.84,5753.0,4.29,5747.0,3.34,5930.0,3.37,6022.0,3.3,5971.0,3.72,1596.0,1544.0,1587.0,1553.0,1557.0,1583.0,0
00:00:00.602963,-0.03835542,-0.006651288,0.1465979,0.1325096,0.2943729,-11.88464,-0.08,1.66,0.0,-0.25,13.23,14.84,5753.0,4.29,5747.0,3.34,5930.0,3.37,6022.0,3.3,5971.0,3.72,1596.0,1544.0,1587.0,1553.0,1557.0,1583.0,0
00:00:00.605829,-0.05319268,0.01102837,0.1388775,0.1202446,0.3089471,-11.92656,-0.12,1.65,0.0,-0.25,13.23,14.93,5753.0,4.29,5747.0,3.34,5930.0,3.37,6022.0,3.3,5971.0,3.72,1592.0,1543.0,1590.0,1545.0,1555.0,1581.0,0
00:00:00.608676,-0.06382219,0.01166167,0.135185,0.1484302,0.3359961,-11.85436,-0.12,1.65,0.0,-0.25,13.23,14.93,6060.0,3.92,5747.0,3.34,5930.0,3.37,6022.0,3.3,5971.0,3.72,1592.0,1543.0,1590.0,1545.0,1555.0,1581.0,0
00:00:00.611041,-0.04286068,0.01224644,0.1394415,0.1269921,0.3531418,-11.83206,-0.12,1.65,0.0,-0.25,13.23,14.93,6060.0,3.92,5747.0,3.34,5930.0,3.37,6022.0,3.3,5971.0,3.72,1592.0,1543.0,1590.0,1545.0,1555.0,1581.0,0
00:00:00.612922,-0.01991531,0.04266989,0.1553999,0.03855002,0.3515894,-11.87439,-0.12,1.65,0.0,-0.25,13.23,14.93,6060.0,3.92,5747.0,3.34,5930.0,3.37,6022.0,3.3,5971.0,3.72,1592.0,1543.0,1590.0,1545.0,1555.0,1581.0,0
00:00:00.615986,-0.02626271,0.07029798,0.163963,0.03326961,0.3433656,-11.76483,-0.15,1.64,0.0,-0.23,13.23,15.02,6060.0,3.92,5747.0,3.34,5930.0,3.37,6022.0,3.3,5971.0,3.72,1607.0,1523.0,1576.0,1556.0,1555.0,1577.0,0
00:00:00.617922,-0.03227331,0.03106661,0.16906,-0.019007,0.3676057,-11.68681,-0.15,1.64,0.0,-0.23,13.23,15.02,6060.0,3.92,5747.0,3.34,5930.0,3.37,6022.0,3.3,5971.0,3.72,1607.0,1523.0,1576.0,1556.0,1555.0,1577.0,0
00:00:00.626586,-0.03187108,-0.002385344,0.1637992,-0.09965027,0.4499465,-11.49502,-0.15,1.64,0.0,-0.23,13.23,15.02,6060.0,3.92,5747.0,3.34,5930.0,3.37,6022.0,3.3,5971.0,3.72,1607.0,1523.0,1576.0,1556.0,1555.0,1577.0,0
00:00:00.629024,-0.0331753,0.01280552,0.1686913,-0.119448,0.4827265,-11.50773,-0.16,1.58,0.0,-0.21,13.23,15.15,6060.0,3.92,5747.0,3.34,5930.0,3.37,6022.0,3.3,5971.0,3.72,1597.0,1529.0,1583.0,1544.0,1550.0,1577.0,0
00:00:00.631543,-0.01943644,0.04785066,0.1653663,-0.08847173,0.4798612,-11.46307,-0.16,1.58,0.0,-0.21,13.23,15.15,6060.0,3.92,5747.0,3.34,5930.0,3.37,6022.0,3.3,5971.0,3.72,1597.0,1529.0,1583.0,1544.0,1550.0,1577.0,0
00:00:00.634202,-0.01722779,0.0132636,0.1551209,0.04186239,0.4653098,-11.29118,-0.16,1.58,0.0,-0.21,13.23,15.15,6060.0,3.92,5747.0,3.34,5930.0,3.37,6022.0,3.3,5971.0,3.72,1597.0,1529.0,1583.0,1544.0,1550.0,1577.0,0
00:00:00.636934,-0.01291853,-0.0255678,0.1516822,0.0717862799999999,0.4812914,-11.29883,-0.16,1.58,0.0,-0.21,13.23,15.15,6060.0,3.92,5747.0,3.34,5930.0,3.37,6022.0,3.3,5971.0,3.72,1597.0,1529.0,1583.0,1544.0,1550.0,1577.0,0
00:00:00.638991,-0.01725762,0.01258441,0.1592555,0.09808043,0.5072008,-11.45032,-0.19,1.58,0.0,-0.22,13.23,15.24,6060.0,3.92,5747.0,3.34,5930.0,3.37,6022.0,3.3,5971.0,3.72,1601.0,1522.0,1588.0,1536.0,1559.0,1566.0,0
00:00:00.641807,-0.002449076,0.03587919,0.1646368,0.1847591,0.5114398,-11.38705,-0.19,1.58,0.0,-0.22,13.23,15.24,6060.0,3.92,5808.0,2.6,5930.0,3.37,6022.0,3.3,5971.0,3.72,1601.0,1522.0,1588.0,1536.0,1559.0,1566.0,0
00:00:00.644404,-0.007636621,-0.02558589,0.1721599,0.2036544,0.5611683,-11.34293,-0.19,1.58,0.0,-0.22,13.23,15.24,6060.0,3.92,5808.0,2.6,5930.0,3.37,6022.0,3.3,5971.0,3.72,1601.0,1522.0,1588.0,1536.0,1559.0,1566.0,0
00:00:00.647367,-0.003504622,-0.02608849,0.1801467,0.1517649,0.5863539,-11.38229,-0.19,1.58,0.0,-0.22,13.23,15.24,6060.0,3.92,5808.0,2.6,5930.0,3.37,6022.0,3.3,5971.0,3.72,1601.0,1522.0,1588.0,1536.0,1559.0,1566.0,0
00:00:00.650379,0.002511536,0.01526703,0.183529,0.1921201,0.5939419,-11.20027,-0.25,1.59,0.0,-0.22,13.23,15.35,6060.0,3.92,5808.0,2.6,5930.0,3.37,6022.0,3.3,5971.0,3.72,1614.0,1505.0,1587.0,1534.0,1570.0,1553.0,0
00:00:00.652509,0.01193436,-0.05814148,0.1717615,0.161209,0.5916719,-11.05062,-0.25,1.59,0.0,-0.22,13.23,15.35,6060.0,3.92,5808.0,2.6,5930.0,3.37,6022.0,3.3,5971.0,3.72,1614.0,1505.0,1587.0,1534.0,1570.0,1553.0,0
00:00:00.654571,0.002779151,-0.06599828,0.1725581,0.06225687,0.5950348,-11.11047,-0.25,1.59,0.0,-0.22,13.23,15.35,6060.0,3.92,5808.0,2.6,5930.0,3.37,6022.0,3.3,5971.0,3.72,1614.0,1505.0,1587.0,1534.0,1570.0,1553.0,0
00:00:00.657544,-0.01912675,0.004372548,0.1802594,0.01288273,0.5621247,-11.14147,-0.25,1.59,0.0,-0.22,13.23,15.35,6060.0,3.92,5808.0,2.6,5930.0,3.37,6022.0,3.3,5971.0,3.72,1614.0,1505.0,1587.0,1534.0,1570.0,1553.0,0
00:00:00.660162,0.01014923,-0.02665207,0.1733876,-0.01841324,0.5113212,-11.1631,-0.32,1.58,0.0,-0.22,13.23,15.46,6060.0,3.92,5808.0,2.6,5930.0,3.37,6022.0,3.3,5971.0,3.72,1612.0,1505.0,1583.0,1537.0,1561.0,1560.0,0
00:00:00.662859,-0.007813745,-0.06182372,0.1712144,-0.1551293,0.4587727,-11.38829,-0.32,1.58,0.0,-0.22,13.23,15.46,6060.0,3.92,5808.0,2.6,5930.0,3.37,6022.0,3.3,5971.0,3.72,1612.0,1505.0,1583.0,1537.0,1561.0,1560.0,0
00:00:00.664620,-0.03466577,-0.00991084,0.1781611,-0.1940184,0.4399313,-11.49886,-0.32,1.58,0.0,-0.22,13.23,15.46,6060.0,3.92,5808.0,2.6,5930.0,3.37,6022.0,3.3,5971.0,3.72,1612.0,1505.0,1583.0,1537.0,1561.0,1560.0,0
00:00:00.667378,-0.03820202,0.01153239,0.1792517,-0.1466372,0.3844424,-11.52209,-0.32,1.58,0.0,-0.22,13.23,15.46,6060.0,3.92,5808.0,2.6,5930.0,3.37,6022.0,3.3,5971.0,3.72,1612.0,1505.0,1583.0,1537.0,1561.0,1560.0,0
00:00:00.669682,-0.001340727,-0.03555093,0.1746134,-0.1139151,0.3318025,-11.48137,-0.42,1.55,0.0,-0.22,13.23,15.56,6060.0,3.92,5808.0,2.6,5930.0,3.37,6022.0,3.3,5971.0,3.72,1605.0,1512.0,1570.0,1551.0,1537.0,1583.0,0
00:00:00.672717,-0.02775484,-0.06520814,0.1826469,-0.1263496,0.3329474,-11.56502,-0.42,1.55,0.0,-0.22,13.23,15.56,6060.0,3.92,5808.0,2.6,5958.0,2.71,6022.0,3.3,5971.0,3.72,1605.0,1512.0,1570.0,1551.0,1537.0,1583.0,0
00:00:00.675199,-0.04976158,-0.01075166,0.1946104,-0.0664819299999999,0.3604144,-11.54239,-0.42,1.55,0.0,-0.22,13.23,15.56,6060.0,3.92,5808.0,2.6,5958.0,2.71,6022.0,3.3,5971.0,3.72,1605.0,1512.0,1570.0,1551.0,1537.0,1583.0,0
00:00:00.677820,-0.02285519,-0.01703864,0.1957615,0.03849078,0.4037001,-11.41226,-0.42,1.55,0.0,-0.22,13.23,15.56,6060.0,3.92,5808.0,2.6,5958.0,2.71,6022.0,3.3,5971.0,3.72,1605.0,1512.0,1570.0,1551.0,1537.0,1583.0,0
00:00:00.680809,-0.02475035,-0.03861088,0.1892677,0.01315384,0.4687524,-11.42172,-0.52,1.54,0.0,-0.25,13.23,15.68,6060.0,3.92,5808.0,2.6,5958.0,2.71,6022.0,3.3,5971.0,3.72,1601.0,1516.0,1573.0,1546.0,1533.0,1586.0,0
00:00:00.683029,-0.04630885,0.007988878,0.1880487,0.005283621,0.5236832,-11.41437,-0.52,1.54,0.0,-0.25,13.23,15.68,6060.0,3.92,5808.0,2.6,5958.0,2.71,5932.0,3.0,5971.0,3.72,1601.0,1516.0,1573.0,1546.0,1533.0,1586.0,0
00:00:00.685240,-0.04835879,0.002343451,0.1807515,0.01947991,0.5797094,-11.28926,-0.52,1.54,0.0,-0.25,13.23,15.68,6060.0,3.92,5808.0,2.6,5958.0,2.71,5932.0,3.0,5971.0,3.72,1601.0,1516.0,1573.0,1546.0,1533.0,1586.0,0
00:00:00.688165,-0.02877047,-0.02766086,0.1754762,-0.0255018,0.5745717,-11.25875,-0.52,1.54,0.0,-0.25,13.23,15.68,6060.0,3.92,5808.0,2.6,5958.0,2.71,5932.0,3.0,5971.0,3.72,1601.0,1516.0,1573.0,1546.0,1533.0,1586.0,0
00:00:00.691056,-0.06143761,-0.01362928,0.1811271,-0.0964608099999999,0.5626702,-11.32439,-0.66,1.55,0.0,-0.27,13.23,15.79,6060.0,3.92,5808.0,2.6,5958.0,2.71,5932.0,3.0,5971.0,3.72,1628.0,1480.0,1569.0,1547.0,1556.0,1560.0,0
00:00:00.693572,-0.06741187,-0.004642219,0.1914441,-0.04343142,0.497784,-11.16134,-0.66,1.55,0.0,-0.27,13.23,15.79,6060.0,3.92,5808.0,2.6,5958.0,2.71,5932.0,3.0,5971.0,3.72,1628.0,1480.0,1569.0,1547.0,1556.0,1560.0,0
00:00:00.695807,-0.03626656,-0.03483548,0.1927119,-0.02562974,0.4545045,-11.09351,-0.66,1.55,0.0,-0.27,13.23,15.79,6060.0,3.92,5808.0,2.6,5958.0,2.71,5932.0,3.0,5971.0,3.72,1628.0,1480.0,1569.0,1547.0,1556.0,1560.0,0
00:00:00.698053,-0.04970519,-0.05437577,0.1913761,0.009948701,0.3102399,-10.99637,-0.66,1.55,0.0,-0.27,13.23,15.79,6060.0,3.92,5808.0,2.6,5958.0,2.71,5932.0,3.0,5971.0,3.72,1628.0,1480.0,1569.0,1547.0,1556.0,1560.0,0
00:00:00.701058,-0.07011414,-0.03981092,0.1928565,0.05214714,0.240244,-10.96939,-0.87,1.51,0.0,-0.3,13.23,15.9,6060.0,3.92,5808.0,2.6,5958.0,2.71,5932.0,3.0,5971.0,3.72,1647.0,1452.0,1569.0,1544.0,1575.0,1537.0,0
00:00:00.703613,-0.07726911,-0.01031896,0.1963459,0.1424186,0.144788,-10.834,-0.87,1.51,0.0,-0.3,13.23,15.9,6060.0,3.92,5808.0,2.6,5958.0,2.71,5932.0,3.0,5967.0,3.35,1647.0,1452.0,1569.0,1544.0,1575.0,1537.0,0
00:00:00.705951,-0.05842789,-0.005719778,0.19286,0.1742753,0.07081621,-10.78132,-0.87,1.51,0.0,-0.3,13.23,15.9,6060.0,3.92,5808.0,2.6,5958.0,2.71,5932.0,3.0,5967.0,3.35,1647.0,1452.0,1569.0,1544.0,1575.0,1537.0,0
00:00:00.708013,-0.07463066,-0.01746618,0.18046,0.1406244,0.01918113,-10.86876,-0.87,1.51,0.0,-0.3,13.23,15.9,6060.0,3.92,5808.0,2.6,5958.0,2.71,5932.0,3.0,5967.0,3.35,1647.0,1452.0,1569.0,1544.0,1575.0,1537.0,0
00:00:00.710816,-0.1117856,-0.005120967,0.1808596,0.1000583,0.03825587,-10.93434,-1.1,1.46,0.0,-0.31,13.23,16.0,6060.0,3.92,5808.0,2.6,5958.0,2.71,5932.0,3.0,5967.0,3.35,1647.0,1449.0,1562.0,1549.0,1567.0,1544.0,0
00:00:00.713674,-0.1072873,0.01217362,0.1871792,0.01504295,0.03248129,-10.97215,-1.1,1.46,0.0,-0.31,13.23,16.0,6060.0,3.92,5808.0,2.6,5958.0,2.71,5932.0,3.0,5967.0,3.35,1647.0,1449.0,1562.0,1549.0,1567.0,1544.0,0
00:00:00.715956,-0.1085265,0.004887941,0.1877941,-0.06538157,0.04271417,-11.04008,-1.1,1.46,0.0,-0.31,13.23,16.0,6060.0,3.92,5808.0,2.6,5958.0,2.71,5932.0,3.0,5967.0,3.35,1647.0,1449.0,1562.0,1549.0,1567.0,1544.0,0
00:00:00.718768,-0.1530714,-0.01112678,0.1948287,-0.213466,0.101778,-11.13342,-1.1,1.46,0.0,-0.31,13.23,16.0,6060.0,3.92,5808.0,2.6,5958.0,2.71,5932.0,3.0,5967.0,3.35,1647.0,1449.0,1562.0,1549.0,1567.0,1544.0,0
00:00:00.721135,-0.1475899,0.01847651,0.2028029,-0.2956181,0.1384319,-11.05832,-1.32,1.36,0.0,-0.3,13.23,16.12,6060.0,3.92,5808.0,2.6,5958.0,2.71,5932.0,3.0,5967.0,3.35,1630.0,1469.0,1574.0,1534.0,1558.0,1551.0,0
00:00:00.724960,-0.1634804,0.02246963,0.1995978,-0.3084779,0.1651187,-10.99429,-1.32,1.36,0.0,-0.3,13.23,16.12,6310.0,4.54,5808.0,2.6,5958.0,2.71,5932.0,3.0,5967.0,3.35,1630.0,1469.0,1574.0,1534.0,1558.0,1551.0,0
00:00:00.726491,-0.1672796,0.003036081,0.1899475,-0.3575153,0.1993253,-10.92489,-1.32,1.36,0.0,-0.3,13.23,16.12,6310.0,4.54,5808.0,2.6,5958.0,2.71,5932.0,3.0,5967.0,3.35,1630.0,1469.0,1574.0,1534.0,1558.0,1551.0,0
00:00:00.729770,-0.1870006,0.03956936,0.195485,-0.3694024,0.220548,-10.92664,-1.32,1.36,0.0,-0.3,13.23,16.12,6310.0,4.54,5808.0,2.6,5958.0,2.71,5932.0,3.0,5967.0,3.35,1630.0,1469.0,1574.0,1534.0,1558.0,1551.0,0
00:00:00.731062,-0.1752387,0.08296232,0.1977196,-0.3373382,0.2225816,-10.83434,-1.32,1.36,0.0,-0.3,13.23,16.12,6310.0,4.54,5808.0,2.6,5958.0,2.71,5932.0,3.0,5967.0,3.35,1630.0,1469.0,1574.0,1534.0,1558.0,1551.0,0
00:00:00.733590,-0.1822458,0.08204392,0.1926948,-0.2925119,0.2436786,-10.81666,-1.6,1.24,0.0,-0.23,13.23,16.27,6310.0,4.54,5808.0,2.6,5958.0,2.71,5932.0,3.0,5967.0,3.35,1612.0,1488.0,1558.0,1548.0,1517.0,1587.0,0
00:00:00.736982,-0.1548853,0.04513105,0.1858839,-0.3006473,0.2731217,-10.86653,-1.6,1.24,0.0,-0.23,13.23,16.27,6310.0,4.54,5808.0,2.6,5958.0,2.71,5932.0,3.0,5967.0,3.35,1612.0,1488.0,1558.0,1548.0,1517.0,1587.0,0
00:00:00.738839,-0.1670954,0.06832132,0.1919336,-0.2728832,0.2905529,-10.87596,-1.6,1.24,0.0,-0.23,13.23,16.27,6310.0,4.54,5808.0,2.6,5958.0,2.71,5932.0,3.0,5967.0,3.35,1612.0,1488.0,1558.0,1548.0,1517.0,1587.0,0
00:00:00.741999,-0.2034837,0.07335588,0.1980867,-0.1832815,0.3020695,-10.82423,-1.6,1.24,0.0,-0.23,13.23,16.27,6310.0,4.54,5808.0,2.6,5958.0,2.71,5932.0,3.0,5967.0,3.35,1612.0,1488.0,1558.0,1548.0,1517.0,1587.0,0
