TimeUS,RPM,Curr,DesRoll,Roll,DesPitch,Pitch,DesYaw,Yaw,GyrX,GyrY,GyrZ,AccX,AccY,AccZ,Guasto
0,4097,2.65,0.0,0.12,0.0,-0.41,13.23,13.24,0.04498949,0.000700202,-0.005307415,-0.2834637,0.2291931,-10.24419,0
114447,4696,3.34,0.0,0.16,0.0,-0.35,13.23,13.26,0.0530338,0.002880184,0.003618779,0.0094404599999999,0.323181,-10.05749,0
213555,5180,4.33,0.0,0.87,0.0,-0.39,13.23,13.48,0.136549,0.05481488,0.06896856,0.0024647,0.2847834,-11.43203,0
321875,5753,4.29,0.0,1.39,0.0,-0.41,13.23,14.06,0.03902881,-0.05220768,0.1275568,-0.2619764,0.2677708,-12.10578,0
426632,6060,3.92,-0.12,1.65,0.0,-0.25,13.23,14.93,-0.03835542,-0.006651288,0.1465979,0.1325096,0.2943729,-11.88464,0
542177,6310,4.54,-1.32,1.36,0.0,-0.3,13.23,16.12,-0.1530714,-0.01112678,0.1948287,-0.213466,0.101778,-11.13342,0
654470,6266,4.03,-3.09,-0.18,0.0,0.3,13.23,17.43,-0.299301,0.08415679,0.1968087,0.3109309,0.4369074,-10.67263,0
756609,6227,3.98,-3.85,-1.75,0.0,0.71,13.23,18.48,-0.1904831,0.0534618,0.182898,-0.07034057,0.6966973,-10.33872,0
864209,6214,4.15,-4.07,-2.5,0.0,0.55,13.23,19.5,-0.06985302,-0.08272662,0.1531258,-0.05676943,0.5319152,-10.10894,0
976005,6291,4.02,-3.37,-2.58,0.0,0.52,13.17,20.33,0.04350134,0.02835668,0.1123519,-0.03129189,0.7216565,-10.09768,0
1077474,6084,4.91,-2.26,-1.37,0.0,0.45,12.23,20.78,0.2139917,0.03642935,0.07709524,-0.04957759,0.6371955,-9.879506,0
1294616,6394,5.41,-0.68,1.63,0.0,0.18,6.9,19.98,0.122533,0.01573118,-0.206435,0.1119876,0.3837837,-9.636131,0
1396369,6617,4.74,-1.04,1.6,0.0,0.24,5.68,18.42,-0.02500817,0.0435304,-0.3088254,-0.2152798,0.4846568,-9.718844,0
1510155,6651,4.4,-2.7,0.12,0.0,0.81,5.68,16.54,-0.3284188,0.08710065,-0.3041741,-0.07930527,0.5288216,-9.550876,0
1612736,6428,4.01,-4.13,-2.01,0.0,1.25,5.68,15.04,-0.3570088,0.05072769,-0.2609079,-0.02765048,0.7081816,-9.521362,0
1717588,6225,3.88,-4.82,-3.82,0.0,1.47,5.68,13.7,-0.2850261,0.002897807,-0.2319439,-0.1595757,0.7098256,-9.916929,0
1831685,6148,4.24,-5.24,-4.52,0.0,1.25,5.68,12.34,-0.04533881,-0.04165809,-0.1978831,-0.2259886,0.615045,-9.667009,0
1934686,6059,3.99,-5.71,-4.97,-0.06,1.21,5.68,11.35,-0.1058985,0.0109918,-0.1487567,-0.1046549,0.495091,-9.817573,0
2049438,6102,3.9,-4.73,-5.03,-1.62,0.62,5.68,10.53,0.1410844,-0.2660035,-0.1362877,0.1276586,0.6886929,-9.804002,0
2155359,5953,4.13,-4.34,-3.94,-2.71,-0.86,4.27,8.58,0.1033281,-0.1484667,-0.09796661,-0.192892,0.4468727,-9.896766,0
2265690,6179,3.85,-4.27,-3.47,-3.05,-1.62,4.27,7.94,0.0710485,-0.1030382,-0.1046975,-0.2735332,0.5805869,-9.717257,0
2370636,6107,3.97,-4.44,-3.4,-3.19,-1.95,4.27,7.56,0.01654306,-0.06257698,-0.0522966,-0.1746434,0.7073384,-9.538806,0
2477514,6011,3.83,-4.92,-3.6,-3.34,-2.03,4.27,7.45,-0.05716525,-0.05823465,-0.02708011,-0.007627992,0.5553862,-9.694503,0
2585627,5965,3.83,-5.31,-4.41,-3.73,-2.3,4.27,7.48,-0.1391816,-0.09222233,-0.003739958,-0.06708153,0.5944256,-9.666265,0
2691361,5914,3.87,-5.38,-5.01,-4.53,-3.08,4.27,7.59,-0.05451883,-0.2287942,-0.006077196,-0.1530366,0.7936298,-9.843757,0
2797274,5963,4.13,-6.38,-5.57,-4.42,-4.17,4.27,7.69,-0.1703767,-0.07170048,-0.01380439,-0.7057675,0.5126497,-9.809364,0
2909656,6115,4.2,-8.88,-7.36,-3.14,-3.12,4.27,7.46,-0.3851252,0.2694964,-0.04655178,-0.276776,0.2959282,-9.519381,0
3016487,6137,3.5,-11.55,-10.89,-1.68,-0.52,4.27,6.83,-0.6209258,0.4516834,-0.0583779,-0.2391244,0.7624002,-9.804025,0
3123625,6031,3.42,-12.9,-14.02,-0.87,1.24,4.27,6.23,-0.3710211,0.1283259,-0.03460023,-0.4756498,1.183743,-10.27469,0
3228205,5885,3.68,-13.07,-14.51,-0.45,1.62,4.27,5.92,0.04968473,0.02910229,-0.03140494,-0.2383738,0.9222877,-9.915223,0
3338017,5912,2.9,-11.06,-13.28,-1.34,1.28,4.27,5.78,0.4136951,-0.2101635,-0.03505095,0.06063351,1.339709,-9.562522,0
3444377,5575,4.47,-7.85,-9.38,-3.23,-0.93,4.26,5.96,0.8303491,-0.5202341,-0.06102342,-0.4764825,0.984488,-9.673628,0
3567902,5965,4.12,-6.36,-4.92,-4.14,-3.38,4.26,6.13,0.3582419,-0.1779208,-0.03034361,-0.5831001,0.8333776,-9.768697,0
3668341,6156,3.94,-5.91,-3.71,-4.36,-3.6,4.26,6.22,0.1526697,-0.001428392,0.04410297,-0.3949102,0.7518337,-9.598843,0
3769298,6016,4.24,-5.72,-3.22,-4.22,-3.67,4.26,6.36,0.1146049,-0.03776309,0.01634018,-0.1535787,1.131894,-9.571964,0
3887716,6188,4.46,-6.49,-2.9,-3.51,-3.53,4.26,6.53,-0.09852155,0.1597169,0.05216181,-0.5764593,0.6287266,-9.537685,0
3980169,6368,4.02,-8.32,-4.46,-2.78,-2.37,4.26,6.83,-0.4276497,0.2012901,0.08789373,-0.3631334,0.7274156,-9.814984,0
4093399,6185,4.35,-10.48,-7.47,-2.01,-1.3,4.26,7.32,-0.3796378,0.04154458,0.0776720199999999,-0.2106491,1.063775,-9.596313,0
4209914,6198,3.74,-12.54,-10.45,-1.31,-0.27,4.26,7.83,-0.357141,0.1165052,0.1112771,-0.3300554,1.161396,-9.193236,0
4318309,6087,4.28,-13.27,-11.71,-1.18,0.17,4.26,8.34,-0.04659683,0.04167555,0.1062186,-0.1472325,1.417846,-9.32952,0
4420983,6292,4.22,-12.38,-11.45,-2.34,-0.62,4.26,9.05,0.2294262,-0.3290677,0.0983748099999999,0.2041814,1.199865,-9.238427,0
4531004,6280,5.31,-12.33,-9.85,-3.19,-2.79,4.26,9.8,0.2211849,-0.3305259,0.05251788,-0.5846446,0.7807438,-10.01749,0
4632331,6677,4.46,-13.1,-10.28,-3.27,-3.07,4.26,10.13,-0.2650175,0.02485897,0.03930525,-0.3116067,1.108521,-9.798703,0
4730412,6470,4.61,-13.35,-11.0,-3.42,-3.0,4.26,10.17,-0.07323697,-0.0775354199999999,-0.01081262,-0.1973971,1.222781,-9.513968,0
4849651,6404,4.75,-13.68,-11.38,-3.15,-2.52,4.26,10.01,-0.05961944,-0.001009501,-0.03183094,-0.3174035,1.322142,-10.11501,0
4946321,6445,4.67,-13.61,-11.46,-2.95,-2.1,4.26,9.78,0.008449731,0.03433845,-0.02408751,-0.3314204,1.451087,-9.775973,0
5047394,6528,4.6,-13.6,-11.45,-2.78,-1.62,4.26,9.47,-0.03940156,0.1088822,-0.05945202,-0.2951332,1.185292,-10.19919,0
5164374,6529,4.41,-13.03,-11.31,-2.25,-0.71,4.26,9.0,0.07137718,0.2111683,-0.04494598,-0.1042634,1.46251,-9.938457,0
5269182,6534,4.12,-13.24,-11.59,-1.36,0.17,4.26,8.47,-0.1592343,0.1849876,-0.06010504,-0.2256533,1.277699,-9.053483,0
5382117,6235,4.8,-13.36,-12.16,-0.92,0.53,4.26,7.92,0.0373517,0.04855121,-0.1010179,-0.6455392,1.899161,-9.651202,0
5489599,6314,3.72,-12.71,-11.1,-0.56,0.61,4.26,7.62,0.2228319,-0.01733181,-0.04325653,-0.4628036,1.615077,-10.1479,0
5595056,6354,3.86,-9.78,-8.8,-0.62,0.59,4.26,7.22,0.4505546,-0.09533005,-0.02584161,-0.4083329,1.738953,-9.401628,0
5703179,6313,3.79,-7.81,-5.93,-0.5,0.2,4.26,6.79,0.3531508,-0.02213786,-0.05778394,-0.4322421,1.474275,-9.684567,0
5819252,6230,3.61,-4.14,-3.12,-0.25,-0.17,4.26,6.62,0.5318658,-0.05906621,-0.06002164,-0.3601438,1.712278,-9.390326,0
5924805,6112,4.04,-2.1,-0.21,-0.13,-0.45,4.26,6.55,0.4072275,-0.08358225,0.01004541,0.0881464,1.626058,-9.755347,0
6024482,6235,3.79,-0.62,1.42,-0.07,-0.96,4.26,6.56,0.2270103,-0.0485079,0.04338557,-0.3233341,1.383656,-9.698804,0
6138831,6143,3.93,0.03,2.02,-0.03,-0.83,4.26,6.68,-0.116108,0.1494903,0.01906154,-0.2019646,1.099015,-9.255388,0
6244384,6298,4.2,0.05,1.57,-0.01,-0.17,4.26,6.86,-0.08574849,0.1391462,0.01702853,-0.1713146,1.658136,-9.600156,0
6354949,6273,4.37,0.02,1.65,-0.01,0.14,4.26,7.12,0.1189442,0.03490037,0.02532563,-0.2757922,1.770198,-9.788384,0
6454766,6302,4.76,-1.37,1.17,0.0,0.27,4.26,7.34,-0.245398,-0.006173291,0.05101706,-0.4182456,1.007166,-9.794937,0
6570589,6423,3.58,-4.42,-2.25,0.0,0.39,4.26,7.53,-0.594494,-0.005946679,-0.00192727,-0.4345687,1.328971,-9.126504,0
6676886,6212,3.93,-5.11,-5.02,0.0,0.54,4.26,7.38,-0.1810851,-0.05820965,-0.08074358,-0.4190225,1.708868,-9.166415,0
6785861,6092,3.93,-5.42,-5.64,0.0,0.52,4.26,7.03,-0.04301533,0.0286072,-0.04063064,-0.5152776,1.315162,-9.005116,0
6883797,6168,3.71,-5.03,-5.69,0.0,0.68,4.26,6.72,-0.01246782,0.04083907,-0.06017871,-0.201256,1.466495,-9.471443,0
6995214,6056,3.92,-4.13,-4.74,0.0,0.61,4.26,6.56,0.1443479,-0.009594596,3.836003e-06,-0.5152248,1.018488,-9.423698,0
7105465,6042,3.66,-2.78,-3.45,0.0,0.53,4.26,6.51,0.2947822,-0.01679944,0.01520904,-0.04210167,1.352661,-9.232833,0
7209868,6057,4.18,-1.47,-1.51,0.0,0.41,4.26,6.52,0.3288557,-0.05962262,0.00698723,-0.0858319,1.275191,-9.592764,0
7314466,6229,3.89,-0.76,-0.14,0.0,0.11,4.26,6.47,0.1143505,-0.004115269,-0.01866046,-0.4259516,1.115947,-9.508688,0
7421585,6255,3.92,-0.38,-0.04,0.0,0.22,4.26,6.37,-0.04157704,0.01006245,-0.01533936,0.01467981,1.283851,-9.478721,0
7530287,6226,4.22,-0.19,0.0,-0.3,0.14,4.26,6.38,-0.01158714,-0.04094036,0.001627424,-0.3688454,1.095347,-9.723568,0
7640130,6205,4.01,-0.1,0.18,-2.39,-1.39,4.26,6.36,0.03683214,-0.4466742,0.001548391,-0.5260105,1.157243,-9.744486,0
7736847,6260,4.17,-0.05,0.26,-3.64,-3.47,4.26,6.34,-0.04811219,-0.3274448,-0.007972508,-0.5351652,0.9059886,-9.771066,0
7846555,6335,4.2,-0.02,0.36,-4.38,-4.62,4.26,6.39,0.02390713,-0.09094997,-0.01112671,-0.7808071,1.225346,-9.657349,0
7956176,6245,3.94,-0.01,0.08,-4.73,-4.44,4.26,6.42,-0.04638415,0.04439233,0.04635301,-0.6144994,1.226217,-9.886443,0
8070408,6333,4.3,0.0,-0.19,-4.92,-3.72,4.26,6.56,0.08270282,0.09988822,-0.0003551812,-0.2100877,1.16734,-9.772863,0
8179644,6237,4.33,-0.44,-0.37,-5.04,-4.22,4.26,6.67,-0.08549798,-0.1252169,0.04108706,-0.8839825,0.75028,-9.935298,0
8287893,6195,4.13,-2.27,-1.94,-4.92,-4.99,4.26,7.04,-0.3491732,-0.1287571,0.04485409,-0.4678504,0.9879591,-9.772455,0
8388359,6300,3.91,-3.28,-3.87,-5.2,-5.85,4.26,7.43,-0.2218238,-0.1250827,0.06799536,-0.3186298,1.207854,-9.447565,0
8497975,6124,4.34,-3.68,-4.93,-5.87,-6.77,4.26,7.54,0.01516623,-0.1548871,-0.003094949,-0.0231548,1.204844,-9.03378,0
8598183,6239,4.38,-3.89,-5.12,-6.17,-7.34,4.26,7.49,0.06431588,0.02839442,0.001513675,-0.7246183,1.22331,-9.287868,0
8705103,6172,4.26,-4.06,-5.03,-6.4,-7.23,4.26,7.36,-0.004667335,0.07466736,0.02873253,-0.441566,1.019305,-9.897133,0
8810484,6214,4.62,-4.65,-5.51,-6.48,-6.93,4.26,7.27,-0.141015,0.1039292,0.03986484,-0.491384,0.855145,-9.203145,0
8916381,6218,4.62,-6.19,-6.55,-6.4,-6.41,4.26,7.17,-0.2358428,0.09595911,0.01403162,-0.1652954,0.8027975,-9.878231,0
9029798,6460,4.26,-7.34,-8.46,-6.46,-5.38,4.26,7.16,-0.2665722,0.0406471,0.01104544,-0.1141071,1.206468,-9.851248,0
9140211,6480,4.52,-7.55,-9.2,-6.58,-4.92,4.26,7.0,-0.06321992,0.1112927,-0.03252692,-0.5127999,1.34327,-9.857229,0
9241380,6272,4.59,-7.67,-9.2,-6.6,-4.44,4.26,6.88,0.06628834,0.05505562,-0.007238811,-0.6334682,1.362102,-9.707192,0
9359438,6371,4.49,-7.7,-9.17,-6.49,-4.2,4.26,6.79,0.01019448,0.03781247,-0.0186508,-0.5422133,1.336904,-9.566135,0
9466847,6366,4.21,-7.73,-9.08,-6.35,-4.18,4.26,6.69,0.02502958,-0.008785862,-0.002629493,-0.8177161,1.292796,-9.63886,0
9574571,6311,4.16,-7.6,-8.92,-6.34,-4.26,4.26,6.51,0.05137035,0.02100476,-0.03085657,-0.663495,1.451691,-9.516437,0
9671212,6284,4.27,-7.34,-8.47,-6.01,-4.41,4.26,6.2,0.0890905699999999,0.0087099859999999,-0.07881596,-0.7450296,1.167482,-9.484027,0
9785210,6237,3.99,-7.19,-7.92,-5.74,-4.22,4.26,5.95,0.1453304,0.05456216,0.03706489,-0.6455425,1.205158,-9.693351,0
9899378,6171,3.82,-7.0,-7.52,-5.64,-4.42,4.26,6.04,0.05391514,-0.07324687,0.04128653,-0.4326136,1.447044,-9.343287,0
10005409,6180,3.89,-6.84,-7.29,-5.66,-4.98,4.26,6.16,0.009898749,-0.110519,0.0094566919999999,-0.6583881,1.028862,-9.400305,0
10111228,6087,3.97,-6.72,-6.89,-5.71,-5.6,4.26,6.08,0.05956699,-0.0717096099999999,-0.05339138,-0.314008,0.9828307,-8.991226,0
10219592,6143,3.7,-6.68,-6.99,-5.57,-5.32,4.26,5.76,-0.1073304,0.05765267,-0.005448736,-0.5609723,0.9919781,-9.306792,0
10333387,6135,3.39,-6.37,-7.3,-5.75,-5.09,4.26,5.49,0.02546065,0.0093322779999999,-0.04226591,0.2679742,1.242222,-9.303833,0
10441742,5915,4.6,-5.31,-6.36,-6.85,-6.6,4.26,5.23,0.2913012,-0.3349823,-0.07946687,-0.4176548,1.032107,-9.883944,0
10548660,6078,4.36,-4.68,-4.6,-7.59,-8.09,4.26,4.88,0.1727016,-0.0951535,-0.04424155,-0.6984844,0.9593883,-9.852066,0
10656554,6291,4.68,-4.59,-4.06,-7.72,-8.03,4.26,4.81,0.05440215,0.07950404,0.01229681,-0.5992057,1.191599,-10.36545,0
10756558,6223,5.21,-4.59,-3.6,-7.53,-7.7,4.26,5.1,0.09131648,0.0757154399999999,0.0902651,-0.6754109,1.075764,-11.22662,0
11189702,6443,4.59,-9.1,-9.15,-4.81,-2.6,4.26,6.62,-0.5649114,0.2014579,0.05190051,-0.1563052,1.374487,-11.03309,0
11299711,6514,5.12,-10.73,-11.42,-4.14,-2.56,4.26,6.8,-0.3478832,0.02240503,0.02830628,-0.9297012,1.061619,-10.84828,0
11408111,6609,4.68,-12.13,-13.11,-3.22,-1.95,4.26,6.58,-0.2531551,0.2032401,-0.03207522,-0.561605,1.289039,-10.52693,0
11511267,6402,4.62,-12.04,-13.63,-1.94,-0.76,4.26,6.08,0.03887818,0.2508403,-0.01120038,-0.4181517,1.512738,-10.5978,0
11611003,6439,4.39,-10.25,-12.34,-1.09,0.51,4.26,5.58,0.4386962,0.2385233,-0.0003891568,-0.6677952,1.465785,-10.71336,0
11719402,6302,4.71,-7.42,-8.6,-0.38,1.47,4.26,5.04,0.5778829,0.1702078,-0.007741819,-0.9667124,1.126676,-10.67727,0
11829910,6420,3.83,-5.68,-6.03,0.36,2.13,4.26,4.77,0.2909045,0.07343484,0.006509838,-0.5573138,1.225189,-9.941736,0
11940736,6258,4.42,-4.43,-4.59,0.19,1.56,4.26,4.71,0.1756206,-0.08882758,-0.0001117844,-0.8125366,0.8355821,-9.909298,0
12049601,6287,4.45,-4.45,-4.09,0.09,1.11,4.26,4.8,-0.00401481,-0.05776228,-0.0009357103,-0.869196,1.241076,-9.910801,0
12150685,6310,4.03,-5.36,-5.0,0.05,0.83,4.26,5.06,-0.2704809,-0.06812543,0.06608167,-0.7263628,1.114857,-9.273661,0
12367821,6251,3.9,-6.65,-7.68,0.01,0.21,4.26,5.65,-0.187569,0.02986706,0.04715787,-0.8438894,1.026025,-9.241648,0
12472929,6084,3.95,-6.69,-7.59,0.0,0.08,4.26,5.86,0.103924,-0.0758964699999999,-0.0075884,-0.4678186,1.168342,-8.682323,0
12582404,6056,3.86,-6.53,-7.39,0.19,-0.19,4.26,5.96,0.0001180464,0.002920571,-0.01309502,-0.7042911,0.961518,-8.907958,0
12699118,6034,4.19,-6.33,-6.71,0.44,-0.02,4.26,5.88,0.06774987,-0.09278939,0.02311004,-0.5217768,0.8687767,-9.248964,0
12799174,6105,3.98,-7.56,-6.86,1.82,0.64,4.26,5.86,-0.1735389,0.2153091,0.04537473,-0.6117768,0.6833668,-9.214695,0
12911079,6214,3.59,-7.17,-7.91,2.85,2.33,4.26,5.84,-0.05380467,0.2555368,0.04488133,-0.442473,1.257215,-9.21264,0
13019357,6033,4.49,-6.64,-6.9,3.87,3.19,4.26,5.78,0.200991,0.05607801,-0.001507088,-0.4355969,0.955632,-9.726166,0
13127142,6158,4.34,-6.57,-5.82,5.12,4.17,4.26,5.84,0.1175604,0.2521781,0.0718925599999999,-0.4213964,0.9342598,-9.92897,0
13231797,6379,4.43,-5.91,-5.05,5.15,4.67,4.26,6.07,0.1791675,-0.06018887,0.04686666,-0.3564765,0.9405213,-10.19741,0
13342818,6273,4.86,-5.63,-4.28,4.98,3.94,4.26,6.23,0.1658009,-0.1017314,-0.006295043,-0.1085771,0.9071357,-9.918234,0
13441677,6456,4.55,-6.53,-4.43,5.51,3.71,4.26,6.43,-0.1742722,0.06885318,0.0769191199999999,-0.3232536,0.8820014,-10.18728,0
13552457,6418,3.25,-5.38,-5.12,4.39,3.74,4.26,6.69,-0.005566816,-0.1696303,0.02670135,0.2687588,1.54545,-9.986394,0
13664450,6294,5.32,-2.7,-2.89,2.2,0.87,4.26,6.86,0.4938298,-0.4844017,-0.02206202,-0.3124087,1.052191,-10.05611,0
13767412,6401,4.63,-0.72,-0.44,1.18,-1.1,4.26,7.03,0.3064702,-0.1937151,0.02141934,-0.2976378,0.9913765,-10.43752,0
13874464,6428,5.35,3.52,2.77,0.62,-1.67,4.26,7.26,0.7245566,-0.01226102,0.02873162,-0.1524122,0.9349672,-10.58161,0
13979130,6463,5.65,5.49,6.54,0.32,-1.49,4.26,7.52,0.4126098,0.07404237,0.05895718,-0.1116107,0.6259973,-10.85708,0
14085412,6775,5.24,4.16,6.47,0.16,-1.21,4.26,8.05,-0.3799904,0.09400397,0.09317878,-0.2898035,0.1760578,-10.48974,0
14198314,6942,4.72,2.22,2.76,0.08,-0.74,4.26,8.66,-0.6609638,0.0663800799999999,0.1060771,-0.17746,0.8468991,-10.36738,0
14305100,6604,5.34,0.53,-0.35,0.04,-0.72,4.26,9.15,-0.3831266,-0.03080238,0.08806673,-0.244082,0.8561924,-10.20683,0
14419690,6646,4.41,-2.03,-3.59,0.26,-0.36,4.26,9.52,-0.5186208,0.04145614,0.03168021,-0.1903999,0.809247,-10.18985,0
14520714,6519,4.38,-2.45,-5.71,0.14,0.09,4.26,9.56,-0.2684155,0.02291761,-0.005994754,-0.08580909,0.857127,-9.549261,0
14630780,6291,4.46,-3.46,-6.98,0.45,0.29,4.26,9.15,-0.2125438,0.04861824,-0.08231279,-0.4135793,0.5754526,-9.943827,0
14746314,6361,4.08,-4.5,-8.4,1.5,1.46,4.26,8.38,-0.1125153,0.2648376,-0.0979365,-0.2139812,0.6013868,-9.3852,0
14841179,6080,3.88,-4.87,-9.33,2.15,2.76,4.26,7.66,-0.04502519,0.1738327,-0.1066302,-0.2085124,0.8172433,-9.66681,0
14955987,5893,3.81,-4.75,-9.02,2.37,3.44,4.26,6.85,0.1910288,-0.01796813,-0.08370122,-0.01547717,0.9525107,-9.398258,0
15051611,5985,3.85,-3.21,-7.54,1.35,2.4,4.26,6.43,0.4460106,-0.3006162,-0.09949435,-0.3167484,0.9903644,-9.736964,0
15159862,6014,4.24,-1.71,-4.71,0.45,0.83,4.26,5.95,0.3886726,-0.176479,-0.07715415,-0.1342836,0.5945787,-9.471308,0
15273671,6051,4.07,-0.86,-2.54,-1.46,-1.47,4.26,5.66,0.2541643,-0.4446513,-0.05702648,-0.3372272,0.4784762,-9.586878,0
15377830,6005,4.06,-0.45,-1.43,-2.14,-3.47,4.26,5.55,0.1533688,-0.1870323,-0.01874668,-0.4205417,0.5663741,-9.649102,0
15478640,6067,4.09,-0.24,-0.8,-2.37,-3.75,4.26,5.46,0.04736235,0.03723711,-0.006383922,-0.266438,0.5606917,-9.305822,0
15602555,5985,3.98,-0.21,-0.66,-2.13,-3.32,4.26,5.4,-0.02360561,0.1601366,0.01029934,-0.2599987,0.6920087,-9.51374,0
15697812,6101,4.56,-1.62,-1.4,-1.3,-2.22,4.26,5.42,-0.3058205,0.2440981,0.01854962,-0.1720352,0.3874623,-9.586541,0
15801794,6184,3.84,-3.75,-4.22,-0.66,-0.9,4.26,5.64,-0.5105289,0.1248304,0.03153361,0.125681,0.7520443,-9.440504,0
15910448,6155,4.31,-5.55,-6.71,-0.34,-0.34,4.26,5.71,-0.3445405,0.07542862,-0.007750396,-0.1488595,0.4220046,-9.480899,0
16020201,6134,3.81,-7.02,-8.95,-0.18,0.16,4.26,5.62,-0.3171412,-0.0007312656,-0.02645661,-0.08185536,0.5458195,-10.01068,0
16125878,6063,3.79,-7.57,-10.23,-0.09,0.29,4.26,5.45,-0.09042737,0.0211938,-0.03578616,-0.13306,0.8358877,-9.749559,0
16230807,5944,4.31,-7.03,-9.68,-0.35,-0.1,4.26,5.3,0.2965299,-0.1383593,-0.02820033,0.01279791,0.7654498,-9.514916,0
16339745,6014,4.18,-7.45,-8.55,-0.18,-0.62,4.26,5.19,0.09512197,0.0002001292,-0.01434301,-0.3944574,0.4613093,-9.776961,0
16457583,6062,3.91,-7.15,-7.88,-0.09,-0.43,4.26,5.08,0.1307294,0.08377221,0.009434517,-0.3033385,0.8701778,-9.867334,0
16558620,5971,3.99,-5.3,-6.28,-0.04,0.1,4.27,5.05,0.3840813,0.1124789,0.04269905,-0.1155306,0.9259461,-9.580421,0
16675596,5991,4.07,-4.09,-3.64,-0.02,0.06,5.2,5.3,0.2776127,-0.002635273,0.08487762,-0.3237153,0.5526868,-9.948659,0
16879327,6211,4.26,-3.11,-1.74,0.0,-0.71,6.0,6.99,0.1290559,-0.1233568,0.156094,0.01111481,0.8803933,-10.00951,0
16986708,6106,4.55,-1.75,-0.31,0.0,-1.13,6.0,7.88,0.3163819,-0.08634188,0.1369442,-0.1076898,0.7794111,-10.16391,0
17099475,6240,4.27,-0.89,0.8,0.0,-1.4,6.0,8.49,0.02307985,-0.05423164,0.07935628,-0.2034899,0.4790189,-9.755746,0
17199874,6225,4.06,-0.49,0.67,0.0,-1.68,6.0,8.68,-0.06003813,-0.05376529,0.02683794,-0.2238419,0.7138265,-9.533588,0
17305711,6084,4.18,-0.25,0.33,0.0,-1.38,6.0,8.62,0.004550461,0.02668689,-0.02515992,-0.1285716,0.6402171,-9.667286,0
17418198,6076,4.63,-0.44,-0.03,0.0,-0.84,6.0,8.41,-0.0987118,0.1077466,-0.04315819,-0.03044583,0.488452,-9.745661,0
17525502,6231,4.12,-2.11,-1.53,0.0,-0.56,6.0,8.18,-0.3677757,0.02049371,-0.05369724,-0.0842521,0.5700642,-9.660805,0
17630845,6303,3.96,-2.86,-3.31,0.0,-0.44,6.0,7.88,-0.1545852,0.01980782,-0.04867297,-0.3025005,0.8832722,-9.921562,0
17742041,6059,4.26,-2.73,-3.54,0.0,-0.49,6.0,7.45,0.0811432099999999,-0.03221278,-0.08013719,-0.273508,0.7492617,-9.96979,0
17850145,6123,4.06,-2.72,-3.24,0.0,-0.33,6.0,7.03,0.06284955,0.008772785,-0.07672228,-0.04356442,0.5728633,-9.79813,0
18065581,6204,4.3,-3.02,-3.29,0.0,0.33,6.0,6.33,-0.01713164,0.03360236,-0.03965052,-0.03796383,0.6708452,-9.747017,0
18170794,6015,3.99,-3.97,-4.05,0.0,0.34,6.0,6.18,-0.229947,0.01443331,0.004960594,-0.2346807,0.4319629,-10.0882,0
18282546,6039,4.08,-5.32,-5.45,0.0,0.5,6.0,6.33,-0.276709,0.03578253,0.08458779,-0.001396569,0.5755041,-9.985788,0
18388085,6023,3.91,-6.95,-7.32,0.0,0.65,6.0,6.82,-0.3611559,0.001500262,0.09777711,-0.05653996,0.5611203,-10.08072,0
18494842,6109,4.09,-7.82,-8.79,0.0,0.71,6.0,7.47,-0.1162691,-0.04124108,0.1060915,-0.0121962,0.8612123,-9.6269,0
18599406,6063,4.27,-8.3,-9.25,0.0,0.58,6.0,8.15,-0.0085326299999999,-0.08669252,0.1247823,-0.1643683,0.8912648,-9.629699,0
18817451,6228,4.38,-8.63,-8.83,0.0,0.07,6.0,8.97,-0.001918127,-0.02511996,0.04704424,-0.1496255,0.7086434,-9.509112,0
18926455,6204,4.07,-6.96,-7.81,0.0,0.12,6.0,9.06,0.3087041,0.03376568,0.00583376,-0.1428901,0.9593006,-9.757366,0
19032555,6013,4.86,-5.75,-5.64,0.0,0.19,6.0,9.07,0.3251435,-0.02613657,-0.004867521,-0.1273224,0.6210712,-9.857275,0
19139661,6316,5.02,-5.63,-4.17,0.0,0.15,6.0,9.05,0.1747264,-0.04226195,-0.01065653,-0.1939323,0.5333938,-9.732454,0
19238456,6344,4.67,-6.13,-3.7,0.0,0.08,6.0,8.86,-0.008394106,-0.06079593,-0.06000469,-0.09853467,0.6448043,-9.943353,0
19350194,6488,4.14,-6.46,-4.04,0.0,-0.09,6.0,8.2,-0.09838311,-0.03389169,-0.1323823,-0.2860057,0.698112,-9.933585,0
19459900,6192,4.13,-6.62,-5.04,0.0,-0.22,6.0,7.47,-0.05306025,-0.03368723,-0.12508,-0.2174187,1.13032,-9.426142,0
19560630,6074,4.35,-6.73,-5.55,0.0,-0.18,6.0,6.88,-0.1248892,0.04618929,-0.08114237,-0.175056,0.8778384,-9.594374,0
19671370,6163,4.19,-6.73,-5.7,0.0,-0.42,6.0,6.45,0.03333234,0.0296492,-0.05956624,-0.04612849,0.9623182,-9.271969,0
19781790,6071,4.35,-6.62,-5.56,0.0,-0.09,6.0,6.33,0.06087361,0.04493665,0.01215619,-0.1532275,0.8344933,-10.15154,0
19889462,6225,4.4,-6.22,-5.1,0.0,0.22,6.0,6.42,0.1027928,0.07174454,0.0410676,-0.103016,0.9194525,-9.917201,0
19998106,6203,4.71,-5.85,-4.51,0.0,0.51,6.0,6.77,0.08335143,0.0775016699999999,0.0959312799999999,-0.5377795,0.9678764,-10.19967,0
20099471,6246,4.64,-5.74,-4.2,0.0,0.74,6.0,7.37,0.02248752,-0.05906009,0.1125614,-0.4124602,0.7404727,-9.930117,0
20210284,6316,4.64,-5.75,-4.4,0.0,0.4,6.0,8.2,-0.04228047,-0.05663392,0.1246827,-0.1595198,0.8927315,-10.05319,0
20318471,6351,4.7,-5.79,-4.7,0.0,-0.14,6.0,9.1,-0.05451508,-0.0727311499999999,0.1607739,-0.3648022,0.874517,-9.849072,0
20416164,6457,4.7,-5.97,-4.77,0.0,-0.61,6.0,9.76,-0.05338307,-0.08484782,0.07346909,-0.2277201,0.8356463,-9.723006,0
20527417,6452,4.57,-5.99,-5.41,0.0,-0.4,6.0,9.98,-0.03158545,0.06841569,-0.02551039,-0.136015,0.7424803,-9.520283,0
20637166,6383,4.68,-5.63,-5.7,0.0,0.21,6.0,9.81,0.05964004,0.06762464,-0.01114483,-0.3574777,1.048845,-9.958931,0
20740235,6373,4.87,-5.7,-5.25,0.0,0.46,6.0,9.52,0.06702234,-0.06004106,-0.06039439,-0.3247488,0.7172843,-9.993068,0
20854346,6438,4.71,-5.66,-5.23,0.0,0.48,6.0,9.17,0.02078997,-0.04104365,-0.06022467,-0.01515388,0.8773454,-9.556128,0
20963808,6398,4.63,-5.61,-5.13,0.0,0.46,6.0,8.78,0.04695818,-0.03201882,-0.05726883,-0.2575587,0.7238064,-9.903543,0
21077545,6352,4.55,-5.7,-5.18,0.0,0.46,6.0,8.4,-0.02708109,-0.01551768,-0.0767497,-0.04817081,0.7328531,-9.749993,0
21180241,6440,4.21,-5.17,-5.31,-0.45,0.2,6.0,8.11,0.05892294,-0.1311989,-0.06862359,0.176269,1.079538,-9.663833,0
21288558,6318,4.94,-6.22,-5.45,-0.7,-0.37,6.0,7.81,-0.1643519,-0.02074638,-0.07117563,-0.3691635,0.3659922,-9.656269,0
21393455,6490,4.29,-7.72,-7.45,-0.48,-0.08,6.0,7.45,-0.3934118,0.07895011,-0.0587851,-0.1042224,0.6145015,-9.602432,0
21492850,6396,4.24,-8.26,-8.96,-0.69,0.0,6.0,7.15,-0.2173658,0.003321985,-0.06417336,-0.176446,1.057424,-9.759159,0
21601154,6296,4.67,-8.37,-8.63,-1.15,-0.79,6.0,6.95,0.2064471,-0.1965466,-0.05693706,0.2405366,0.8655404,-9.83982,0
21711152,6219,4.01,-8.31,-7.74,-1.49,-1.88,6.0,6.77,0.1158262,-0.103284,-0.0659555899999999,-0.2533754,0.6142601,-9.613948,0
21818124,6258,3.88,-8.29,-7.66,-1.87,-2.39,6.0,6.45,-0.0722386,-0.05277956,-0.07157718,-0.4227563,1.013337,-9.977053,0
21918646,6156,4.13,-8.27,-7.76,-2.16,-2.76,6.0,6.32,-0.008002967,-0.1026887,-0.007366111,-0.04356822,0.9148489,-9.615894,0
22026467,6107,4.36,-8.22,-7.8,-2.55,-2.83,6.0,6.32,0.04719746,0.02998589,0.03516781,-0.4051742,0.9451749,-9.609636,0
22131568,6271,4.51,-8.24,-7.52,-2.56,-2.54,6.0,6.45,0.03384291,0.137946,0.05854745,-0.2468386,1.050398,-9.773692,0
22240454,6289,4.63,-8.95,-7.45,-1.51,-1.89,6.0,6.59,-0.09175455,0.165032,0.0232341,-0.3366598,0.6259281,-9.790455,0
22343573,6477,4.28,-9.5,-8.19,-0.78,-0.64,5.99,6.65,-0.1320757,0.1831401,0.03918612,0.04085828,1.162742,-9.619133,0
22453423,6295,4.12,-8.95,-8.36,-0.41,-0.06,5.99,6.82,0.1264377,0.06260775,0.06575064,-0.515563,1.374977,-9.705468,0
22674462,6195,4.6,-8.06,-7.11,0.1,0.59,6.0,7.58,-0.009716376,-0.03815237,0.04191372,-0.2183481,0.5716991,-9.627787,0
22780430,6444,4.99,-8.44,-7.28,0.63,0.75,5.99,7.97,-0.113963,0.03208153,0.07336982,-0.2555869,0.8310503,-9.766278,0
22887627,6603,4.79,-8.81,-7.82,0.86,1.34,5.99,8.33,-0.09920932,0.1315595,0.0884474299999999,-0.0019885,1.101129,-9.831825,0
22991536,6497,4.82,-9.08,-8.43,0.89,1.72,5.99,8.79,-0.07016907,-0.003041002,0.08256855,-0.1775373,0.7586038,-10.06057,0
23100570,6463,4.85,-9.21,-8.81,0.77,1.08,5.99,9.33,-0.1381367,-0.1751067,0.06965008,0.06255215,0.9084359,-9.870689,0
23206624,6524,4.79,-9.56,-9.25,0.75,0.51,5.99,9.74,-0.09737634,-0.1155152,0.06667872,0.08322929,1.016158,-9.964165,0
23314648,6481,4.6,-9.4,-9.64,0.55,0.37,5.99,10.06,-0.01425335,-0.01704613,0.05221095,-0.07165151,1.25802,-10.14752,0
23426243,6452,5.19,-8.5,-8.82,0.29,0.16,5.99,10.36,0.2134343,-0.06262701,0.06047426,0.0680171599999999,1.152866,-9.975194,0
23534251,6563,4.95,-8.05,-7.65,0.15,-0.25,5.99,10.56,0.07808397,-0.05589168,0.00375725,-0.0088088939999999,0.9467592,-9.994906,0
23633432,6626,4.64,-7.59,-7.2,0.08,-0.46,5.99,10.49,0.07342215,-0.04494517,-0.02565451,-0.07005324,1.112677,-9.612009,0
23737217,6534,4.82,-6.9,-6.9,0.07,-0.59,5.99,10.05,-0.01515318,0.04899998,-0.07021624,-0.2255873,1.018498,-9.514941,0
23844841,6361,4.47,-5.81,-5.99,0.05,-0.56,5.99,9.41,0.2379553,0.03271216,-0.1325461,-0.1542324,1.196284,-9.655811,0
23951603,6479,4.94,-4.71,-4.0,0.12,-0.46,5.99,8.72,0.3893089,0.02095591,-0.150563,-0.05891179,0.7132131,-9.763294,0
24058179,6343,4.55,-4.76,-3.05,0.8,-0.08,5.99,8.08,0.05283366,0.1439815,-0.1052528,-0.415565,1.228639,-9.739969,0
24166166,6412,4.26,-5.25,-3.47,1.37,1.09,5.99,7.48,-0.1160856,0.2026314,-0.097082,-0.0905086799999999,1.036573,-9.172504,0
24282636,6339,4.44,-5.88,-4.55,1.82,1.94,5.99,6.84,-0.1611287,0.09814533,-0.09810192,-0.1473171,1.034956,-9.783751,0
24382647,6310,4.24,-6.57,-5.74,2.09,2.44,5.99,6.41,-0.2827048,0.1342737,-0.05104026,-0.09863403,1.008464,-9.2352,0
24498560,6244,4.49,-6.95,-6.49,2.21,2.87,5.99,6.19,-0.07732087,0.03076375,-0.05559167,-0.004320459,1.130339,-9.867327,0
24607199,6273,4.57,-7.12,-6.6,2.2,2.87,5.99,6.34,-0.02402364,-0.08219886,0.02680376,0.0465642,1.006857,-9.747189,0
24704792,6305,4.67,-6.98,-6.31,1.91,2.32,5.99,6.72,0.1237433,-0.1570101,0.02969617,-0.01961471,1.017967,-9.751135,0
24820822,6420,4.66,-6.94,-6.13,1.76,1.75,5.99,7.21,-0.04760466,-0.03375207,0.06053352,0.04285744,1.122818,-9.727874,0
24928641,6468,4.74,-6.24,-5.92,1.15,1.11,5.99,7.63,0.1126909,-0.2232945,0.03733884,-0.001441607,1.311868,-9.931827,0
25034477,6301,4.75,-5.79,-5.03,0.75,0.22,5.99,7.93,0.02653603,-0.1251142,0.05196678,-0.2530843,0.8157074,-10.10587,0
25135592,6485,4.3,-5.44,-4.97,0.68,0.32,5.99,8.13,-0.03720936,0.04626534,-0.00451293,0.2107159,1.319004,-9.651235,0
25240326,6512,4.55,-4.13,-4.44,0.36,0.13,5.99,8.27,0.2204806,-0.1342929,0.02842928,0.2278526,1.068246,-9.446243,0
25359177,6386,4.84,-3.14,-2.97,0.17,-0.5,5.99,8.31,0.1180977,-0.02123414,0.01998694,-0.2165843,1.115963,-9.893115,0
25467885,6404,5.07,-3.35,-2.26,0.09,-0.41,5.99,8.46,-0.05278585,0.06503623,0.02949548,-0.09109088,0.7881249,-9.900835,0
25564283,6443,4.5,-4.05,-3.13,0.22,-0.33,5.99,8.54,-0.2753904,0.003540605,-0.009487086,-0.05800159,1.092002,-9.901651,0
25679805,6500,4.67,-5.02,-4.54,0.49,-0.24,5.99,8.56,-0.2569537,-0.003147464,-0.004986139,-0.1482139,0.9717419,-9.629179,0
25793620,6488,4.6,-6.22,-5.96,0.92,0.25,5.99,8.39,-0.2283767,0.1071497,-0.06078426,-0.1748948,1.047833,-9.842903,0
25904389,6408,4.61,-7.06,-7.36,1.26,1.09,5.99,8.18,-0.1545774,0.1448029,-0.004208664,0.1007701,1.188595,-9.403516,0
26013115,6453,4.45,-7.49,-8.07,1.4,1.39,5.99,8.03,-0.0831059,0.03772922,-0.02521486,0.01239159,1.292175,-9.496333,0
26121263,6330,4.81,-7.64,-7.77,1.46,1.59,5.99,7.95,0.129969,0.05018115,-0.01699936,-0.131959,1.333505,-9.863818,0
26337463,6367,4.45,-7.91,-7.46,1.53,1.69,5.99,7.64,-0.002546894,0.01420313,-0.0285228,0.07517143,1.251375,-9.509839,0
26444261,6528,4.7,-7.86,-7.55,1.43,1.56,5.99,7.67,0.01227048,-0.03076914,0.0121058,-0.03005204,1.083655,-9.375871,0
26554821,6523,4.76,-7.88,-7.45,1.34,1.13,5.99,7.83,-0.009710658,-0.08388305,0.07414316,-0.06893151,1.279533,-9.991576,0
26656353,6414,4.41,-8.01,-7.51,1.36,0.79,5.99,8.08,0.03932595,-0.02195268,0.02248379,0.08063537,1.228298,-9.53735,0
26772274,6426,4.63,-7.78,-7.64,1.09,0.64,5.99,8.34,0.04740414,-0.006597028,0.0268262,0.2210206,1.40967,-9.602125,0
26871157,6400,4.89,-6.95,-6.97,0.61,0.16,5.99,8.5,0.1747732,-0.08879552,0.0151032,0.05801773,1.367196,-9.800449,0
26994260,6459,4.48,-6.44,-5.94,0.29,-0.02,5.99,8.39,-0.004636039,0.1121608,-0.02471954,0.187893,0.9929377,-9.467355,0
27096722,6499,4.52,-6.27,-6.11,0.15,0.08,5.99,8.14,-0.03876248,-0.02098471,-0.04177935,0.06885908,1.374806,-10.07588,0
27201325,6483,4.84,-6.05,-5.86,0.08,-0.09,5.99,8.02,0.03810208,0.0390343,0.00460532,-0.150756,1.340261,-9.606494,0
27308563,6464,4.6,-6.07,-5.81,0.04,0.01,5.99,7.85,-0.04718197,1.04764e-05,-0.03922637,-0.05332454,1.192073,-9.68124,0
27416159,6527,4.52,-6.17,-6.11,0.02,0.3,5.99,7.51,-0.05315601,0.05044559,-0.09535791,-0.2034979,1.127348,-9.8914,0
27513802,6371,4.57,-6.25,-6.35,0.01,0.42,5.99,7.26,-0.04656972,0.02655805,-0.01406033,-0.3103187,1.198324,-9.913296,0
27618340,6411,4.67,-6.42,-6.39,0.0,0.44,5.99,7.03,0.05338403,-0.004357111,-0.04228055,0.0319728,1.109355,-9.529647,0
27843858,6323,4.43,-6.58,-6.46,0.0,0.24,5.99,6.89,0.01186859,-0.07111372,0.0608076,0.1686521,1.315176,-9.849135,0
27942109,6244,4.62,-6.59,-6.45,0.0,-0.17,5.99,7.15,-0.01507185,-0.1376677,0.01945866,0.3093038,1.097036,-9.562608,0
28056646,6310,4.63,-6.67,-6.69,0.0,-0.92,5.99,7.63,-0.0409178,-0.1010294,0.05287593,0.246762,1.012905,-9.098395,0
28155807,6270,4.84,-6.8,-6.77,0.0,-1.17,5.99,7.94,0.0223705,0.02478775,0.04701444,-0.185096,1.182816,-9.745119,0
28265386,6267,4.81,-6.74,-6.98,0.0,-0.64,5.99,8.09,-0.01868702,0.1199928,0.02934507,-0.1472476,1.181042,-9.459467,0
28375462,6485,4.87,-6.7,-7.08,0.0,-0.15,5.99,8.13,-0.008428984,0.05122193,0.007388933,-0.003898316,1.003311,-9.784263,0
28475132,6485,4.83,-6.69,-7.03,0.0,-0.03,5.99,8.18,-0.0295462,0.04622011,0.03658152,0.1165371,1.00965,-9.904331,0
28586415,6514,4.98,-6.58,-6.72,0.0,0.09,5.99,8.14,0.03895853,0.0236947,-0.0155996,0.004717411,1.001466,-9.721903,0
28694682,6515,4.79,-6.44,-6.42,0.0,0.51,5.99,8.04,0.02334125,0.04607358,0.01103208,0.1519873,1.142783,-10.03114,0
28797319,6544,5.04,-6.17,-5.95,0.0,0.76,5.99,7.81,0.09173708,0.0656634299999999,-0.05273682,-0.1739172,1.177327,-9.861396,0
28913664,6703,4.86,-5.98,-5.47,0.0,1.11,5.99,7.46,0.06317884,0.04162723,-0.05613744,0.1335271,1.022471,-9.844807,0
29011015,6582,4.66,-5.94,-5.28,0.0,1.18,5.99,7.36,-0.03604636,0.03629939,-0.01848533,-0.222866,1.017054,-9.799644,0
29125401,6457,4.69,-5.76,-5.29,-0.16,1.04,5.99,7.66,0.0179047,-0.04822976,0.08690609,0.1417215,1.066114,-9.579018,0
29231777,6458,4.87,-4.88,-4.86,-2.36,-1.12,5.99,8.31,0.1838163,-0.5437699,0.05382857,0.3359723,1.429607,-9.722446,0
29343828,6492,4.94,-5.12,-4.15,-3.33,-4.41,5.99,8.98,0.02632881,-0.3324143,0.0612991,-0.2988841,1.11658,-10.23834,0
29447774,6412,4.54,-5.26,-5.25,-3.86,-5.22,5.99,9.35,-0.3431258,-0.01943183,0.04447084,0.07243767,1.207372,-9.11377,0
29556095,6392,5.08,-5.32,-6.0,-4.13,-5.04,5.99,9.33,0.03112296,0.1011624,-0.02546038,-0.1896771,1.14159,-9.483501,0
29669468,6590,5.13,-5.39,-5.96,-4.22,-4.64,5.99,8.97,0.01796481,-0.01949376,-0.05786023,0.0142258,1.10795,-9.9213,0
29774824,6489,4.84,-5.43,-5.6,-4.24,-4.33,5.99,8.49,0.0648421899999999,0.09301975,-0.0849834399999999,-0.09723634,1.265797,-9.899199,0
29879825,6543,4.84,-5.38,-5.31,-4.21,-4.17,5.99,7.94,0.04061529,0.05627373,-0.09155555,-0.191656,0.743304,-10.16882,0
29987995,6581,4.53,-5.42,-5.34,-4.17,-4.05,5.99,7.47,-0.03152668,0.03232428,-0.08180891,-0.1004782,1.075976,-10.01586,0
30094560,6542,4.77,-5.53,-5.17,-4.01,-4.04,5.99,7.2,0.07832658,0.02074252,-0.02097041,-0.1722208,1.22785,-9.555881,0
30200080,6553,4.41,-5.65,-5.3,-3.78,-3.98,5.99,6.95,-0.0929479,0.009214035,-0.03813966,-0.1902232,0.9974127,-10.10426,0
30308285,6458,4.35,-5.76,-5.71,-3.67,-3.82,5.99,6.69,-0.1239825,0.1391845,-0.05367199,-0.2446949,1.142418,-10.02227,0
30416171,6230,4.56,-5.81,-5.67,-3.58,-3.13,5.99,6.45,0.03977811,0.0754470899999999,-0.004912012,-0.09854618,0.9821855,-9.936046,0
30522473,6485,4.31,-5.9,-5.96,-3.51,-2.78,5.99,6.26,-0.07242215,0.0784478,-0.02772528,-0.06236574,0.9071199,-9.787395,0
30628376,6272,4.94,-7.12,-6.63,-2.82,-2.22,5.99,6.22,-0.2534604,0.248732,0.03873854,-0.2964729,0.9486203,-9.553595,0
30743909,6514,5.0,-9.77,-9.01,-1.51,-0.67,5.99,6.24,-0.5022293,0.2390794,0.0558487,-0.02386957,0.8347024,-9.49071,0
30844150,6513,4.84,-11.9,-11.51,-0.89,0.24,5.99,6.3,-0.422444,0.0969116399999999,0.03523833,-0.04962292,1.270493,-9.883205,0
30958281,6461,4.78,-13.32,-13.74,-0.61,0.79,5.99,6.41,-0.2017512,0.02830157,0.01623385,0.07231388,1.201253,-9.552363,0
31063375,6366,4.78,-13.71,-14.54,-0.72,0.91,5.99,6.54,-0.05451432,-0.00049296,0.03599652,-0.1154472,1.33419,-9.641466,0
31163340,6517,5.17,-13.78,-14.5,-0.88,0.81,5.99,6.65,0.01033445,-0.06235977,0.02938773,0.1514172,1.144197,-9.868625,0
31273762,6726,5.13,-13.62,-14.39,-1.26,0.33,5.99,6.91,0.04784223,-0.04728935,0.05537328,-0.1080834,1.306211,-9.699369,0
31378693,6662,5.37,-13.09,-13.54,-2.1,-0.92,5.99,7.32,0.1499089,-0.2831016,0.04449051,-0.06555567,1.214206,-10.04879,0
31483583,6558,5.15,-12.75,-12.44,-2.92,-2.67,5.99,7.73,0.1305932,-0.2504797,-0.01445303,0.3566104,1.212844,-10.11349,0
31697611,6786,4.77,-12.27,-11.93,-4.22,-4.72,5.99,7.39,-0.01556256,-0.005976526,-0.07571006,-0.01382661,1.284828,-9.935048,0
31806811,6403,4.82,-12.19,-12.15,-4.5,-5.06,5.99,6.99,-0.05899747,-0.01888051,-0.04099144,-0.2035539,1.364184,-9.937504,0
31907232,6567,4.64,-12.12,-12.1,-4.62,-5.11,5.99,6.61,0.06055185,0.03691668,-0.02647074,-0.2467286,1.451744,-9.79353,0
32018350,6482,4.59,-11.97,-11.86,-4.7,-5.24,5.99,6.19,0.07135768,-0.03229522,-0.08258107,-0.3413341,1.297937,-9.935613,0
32119684,6457,4.61,-11.82,-11.68,-4.78,-4.96,5.99,5.8,0.06971339,0.1108989,-0.02922135,-0.3452233,1.687218,-10.11009,0
32236095,6460,4.47,-11.58,-10.6,-4.89,-4.91,5.99,5.62,0.07767011,-0.06086378,-0.02214717,-0.1272146,1.442,-10.17646,0
32341834,6339,3.93,-11.43,-10.66,-4.91,-5.02,5.99,5.56,-0.1136009,-0.03329348,-0.01788851,0.2866179,1.312394,-9.575214,0
32458562,6322,4.16,-11.22,-11.18,-4.96,-4.84,5.99,5.34,-0.08432984,0.06493574,0.001691052,0.02302139,1.573313,-9.477109,0
32557906,6426,4.38,-10.98,-11.2,-5.01,-4.85,5.99,5.06,0.08256526,0.07647702,-0.03583659,-0.318257,1.651305,-9.903306,0
32662568,6242,4.2,-10.79,-10.96,-5.13,-4.87,5.99,4.71,0.03715334,0.04245695,-0.06197081,0.04322248,1.65103,-9.67646,0
32767080,6271,3.92,-10.67,-10.49,-5.09,-4.82,5.99,4.48,-0.02794026,-0.02302685,-0.0417364,-0.1474628,1.311611,-9.746375,0
32876142,6325,4.19,-10.59,-10.22,-5.01,-4.94,5.99,4.33,0.04984956,-0.00944412,-0.01050629,-0.3739485,1.600269,-10.03995,0
32983592,6127,3.89,-10.65,-9.77,-5.0,-4.87,5.99,4.15,0.03374444,0.02189948,-0.03325531,-0.2529702,1.432745,-9.852425,0
33096641,6086,3.8,-10.68,-9.85,-4.58,-4.58,5.99,4.17,-0.03048251,0.1243564,0.04473062,-0.7058419,1.451699,-8.974306,0
33214584,6118,4.27,-10.86,-10.48,-3.37,-2.89,5.99,3.89,-0.1131539,0.4087971,0.02357984,-0.4725018,1.590693,-9.129542,0
33314193,6183,4.2,-11.29,-10.79,-2.27,-1.13,5.99,3.91,-0.02005855,0.1471213,0.1249468,-0.2173512,1.70603,-9.981251,0
33420828,6300,4.24,-11.81,-11.02,-1.54,-0.34,5.99,4.52,-0.02212105,0.004215821,0.1450774,-0.0860019,1.550704,-9.702749,0
33527630,6316,4.4,-12.13,-11.62,-1.55,-0.11,5.99,5.22,-0.09311165,-0.01152312,0.0593553,-0.1382975,1.698604,-9.019137,0
33633581,6359,4.4,-12.19,-11.98,-1.65,-0.18,5.99,5.58,0.04445069,0.03646591,0.05349607,-0.6479776,2.189575,-9.719543,0
33737723,6396,3.98,-10.98,-11.45,-2.02,-0.18,5.99,5.58,0.2039096,-0.04191428,-0.06679972,0.1180141,2.108124,-9.889969,0
33846639,6314,4.52,-9.41,-9.31,-2.32,-1.09,5.99,5.44,0.3724841,-0.1160357,-0.1055254,-0.1325405,1.684097,-9.837421,0
33950214,6329,4.35,-8.73,-7.98,-2.02,-1.5,5.99,5.21,0.09387998,-0.004911011,-0.04735112,-0.2553295,1.617132,-9.976484,0
34170866,6463,4.42,-3.96,-5.0,-0.73,-0.15,5.99,4.46,0.6608729,0.2644958,-0.01015219,-0.2130711,1.675764,-9.684564,0
34270367,6230,4.39,-2.23,-1.46,-0.41,0.48,5.99,4.06,0.5138891,0.1522141,-0.05476378,-0.3261488,1.585467,-10.17828,0
34380655,6409,3.89,-0.49,1.04,-0.2,0.61,5.99,4.03,0.3078988,0.04468786,0.03609386,-0.4045274,1.642607,-10.32478,0
34485713,6300,3.66,1.05,3.24,-0.01,0.45,5.99,4.01,0.3824722,-0.02996686,-0.02427208,-0.3026385,1.398119,-10.13334,0
34599378,6297,3.87,1.94,4.44,0.0,0.6,5.99,3.87,0.006507375,0.02787091,-0.08970772,-0.2189421,1.083457,-9.826542,0
34704663,6222,3.82,2.17,4.01,0.0,0.47,5.99,3.7,-0.2119052,0.05339892,-0.02134852,-0.6081285,1.574643,-9.096264,0
34812393,6100,3.86,2.15,3.26,0.0,0.64,5.99,3.64,-0.1291696,0.04898532,-0.004878915,-0.3449899,1.554264,-9.494551,0
35037162,6099,3.69,1.57,2.01,0.0,1.55,5.99,3.38,-0.0639657899999999,0.04456287,-0.08049779,-0.3250153,1.378968,-9.422433,0
35143623,6080,3.53,1.32,1.38,0.0,1.53,5.99,3.25,-0.1075133,-0.1152909,-0.0084624509999999,-0.1078285,0.9429407,-8.99627,0
35241759,6027,3.45,1.22,0.38,0.0,0.96,5.99,3.28,-0.1504267,-0.1259401,0.000354361,-0.3755004,1.20262,-8.758226,0
35349685,5984,3.49,1.02,-0.53,0.0,0.56,5.99,3.56,-0.09370276,-0.05957701,0.07410372,-0.0255191,1.141355,-9.019163,0
35465406,5933,4.05,0.8,-0.66,0.0,0.36,5.99,3.95,-0.001054765,0.04036592,0.04920764,-0.2366922,0.8144773,-9.435553,0
35576562,6202,4.06,0.63,-0.5,0.0,0.21,5.99,4.11,0.04418731,-0.06133788,-0.01470346,-0.05932062,1.177081,-9.547092,0
35682704,6087,4.06,0.52,-0.57,0.0,-0.59,5.99,4.21,-0.0673342299999999,-0.2090044,0.01499075,-0.2245547,0.9226517,-9.347642,0
35790214,6121,4.31,0.5,-0.43,0.0,-1.58,5.99,4.57,0.0835055,-0.1676246,0.09141688,-0.1858818,1.099519,-9.823713,0
35899323,6298,4.74,0.76,-0.13,0.0,-1.83,5.99,5.59,0.1393494,-0.003699291,0.1536917,-0.1949942,1.016725,-10.18123,0
36005728,6284,5.01,0.83,0.07,0.0,-1.6,5.99,6.87,0.02055422,0.09576344,0.1906941,-0.00389476,0.8128071,-10.09499,0
36112104,6475,4.74,0.54,-0.25,0.0,-1.08,5.99,8.01,-0.1122659,0.01565271,0.1781206,0.2474363,0.8579132,-10.09745,0
36216664,6575,5.0,0.28,-1.17,0.0,-1.11,5.99,8.94,-0.1204713,-0.05261166,0.1109385,0.1486057,0.8454949,-10.08115,0
36325832,6455,5.16,0.14,-1.63,0.0,-0.77,5.99,9.75,-0.001889409,0.06130911,0.05623149,0.1349334,0.805002,-10.00412,0
36440264,6438,5.18,0.07,-1.51,0.0,-0.82,5.99,10.26,0.05511466,-0.06203609,0.07278814,-0.02040617,0.9865753,-9.796614,0
36543151,6548,5.04,0.03,-0.9,0.0,-1.19,5.99,10.37,0.1701133,-0.1102538,0.03537897,-0.2400685,1.042575,-10.42194,0
36663366,6625,4.87,0.01,-0.69,0.0,-0.99,5.99,10.11,0.03754684,0.06232106,-0.09495416,-0.146878,0.8056626,-10.17243,0
36770172,6471,4.61,0.01,-1.08,0.0,-0.71,5.99,9.46,-0.01048134,0.004021359,-0.1619502,-0.1363229,0.8982003,-9.869979,0
36865475,6468,4.49,0.0,-1.42,-0.64,-0.64,5.99,8.58,-0.05275404,-0.118436,-0.1665653,-0.2963344,0.9284264,-10.20761,0
36984097,6408,4.16,0.0,-1.65,-1.87,-1.91,5.99,7.15,-0.06327385,-0.2201402,-0.242678,-0.2780151,0.8255222,-9.764204,0
37094145,6303,4.2,0.0,-1.8,-2.51,-2.74,5.99,5.96,0.03892826,-0.06049889,-0.1892971,-0.4027555,0.9366608,-9.604083,0
37195228,6131,4.38,0.0,-1.31,-2.82,-2.76,5.99,5.11,0.092472,0.04602172,-0.1443972,-0.3025129,0.7679292,-9.972553,0
37310447,6163,4.06,0.0,-0.74,-3.05,-2.45,5.99,4.39,0.04873632,0.0308402,-0.09294742,-0.4073779,0.8585153,-10.03764,0
37406413,6095,4.27,0.0,-0.46,-3.09,-2.6,5.99,4.11,0.08918352,-0.03240819,-0.02845771,-0.070757,0.8161469,-10.02733,0
37520228,6035,4.3,0.0,-0.03,-3.05,-2.46,5.99,3.95,0.07964549,-0.009078235,0.0007075224,-0.3811083,0.676459,-9.946507,0
37627647,6257,4.14,0.0,0.19,-2.92,-2.48,5.99,3.76,-0.01203242,-0.01771755,-0.01052892,-0.41404,0.7572244,-9.725651,0
37839651,6061,4.25,-1.99,-1.01,-2.5,-2.01,5.99,3.76,-0.294498,0.04504847,0.03189752,-0.08128958,0.8626767,-9.957839,0
37948781,6250,4.3,-3.44,-3.1,-2.36,-2.56,5.99,3.91,-0.2807845,-0.1173585,0.02069722,-0.1381309,0.927332,-10.18242,0
38055185,6103,4.21,-4.98,-5.03,-2.7,-3.15,5.99,3.91,-0.3350889,-0.05744509,-0.03936126,-0.3502172,1.037963,-10.33476,0
38164661,6155,4.22,-6.12,-6.68,-3.29,-3.85,5.99,3.9,-0.1953191,-0.1625554,-0.01604451,-0.1221711,0.877247,-10.28472,0
38273463,6148,4.22,-6.85,-7.44,-3.63,-4.34,5.99,3.92,-0.1235527,-0.03928985,-0.0290859,-0.5743339,1.043281,-9.896859,0
38381008,6247,4.26,-7.37,-8.05,-3.87,-4.43,5.99,3.89,-0.09833274,0.004355986,-0.01900361,-0.006954608,0.8751661,-10.31733,0
38488207,6118,4.31,-7.6,-8.57,-3.91,-4.45,5.99,3.93,-0.07061183,0.006731747,0.02423657,-0.236211,0.8212462,-10.11724,0
38596702,6151,4.18,-7.82,-9.06,-4.01,-4.38,5.99,4.05,-0.06463451,-0.001619541,0.01691518,-0.09971035,0.864554,-9.865894,0
38694404,5958,4.08,-7.91,-9.06,-4.05,-4.47,5.99,4.11,0.04657858,-0.02919016,0.02067461,-0.2238628,0.8503105,-10.07607,0
38801207,6083,3.68,-7.98,-9.23,-4.06,-4.66,5.99,4.07,-0.01343971,-0.04178638,-0.03876102,-0.2295257,0.7802771,-9.662681,0
38911629,5968,3.71,-8.0,-9.4,-4.11,-4.68,5.99,3.76,-0.01872106,0.03381707,-0.07050141,-0.388376,0.8264423,-9.442659,0
39019881,5914,3.6,-7.96,-9.35,-4.14,-4.4,5.99,3.45,-0.007489804,0.09005471,-0.01962515,-0.3870303,0.9785038,-9.328044,0
39129721,5915,3.75,-7.99,-9.01,-4.03,-4.24,5.99,3.48,0.09208344,0.0436921,0.05774557,-0.3981224,0.9143789,-9.182739,0
39236357,5932,3.77,-7.77,-8.28,-2.45,-3.58,5.99,4.02,0.1238792,0.17679,0.1485642,-0.7245271,1.064599,-9.156467,0
39338630,5833,3.83,-6.45,-6.96,-1.36,-2.3,5.99,4.85,0.3530342,0.1774361,0.1903279,-0.4207091,0.9002313,-9.487191,0
39444182,5974,4.43,-5.13,-4.6,-0.7,-1.11,5.99,5.72,0.4226014,0.116954,0.119247,0.1846107,0.6085498,-9.053956,0
39551442,6229,4.43,-4.43,-3.18,-0.37,-0.88,5.99,6.2,0.2264565,0.01993345,0.01284488,0.0859067699999999,0.8710747,-9.114471,0
39658986,6282,4.29,-4.1,-2.67,-0.19,-1.22,5.99,6.33,0.01992172,0.001478817,-0.01204729,-0.342081,0.6333228,-9.280544,0
39765508,6143,4.18,-3.94,-2.77,-0.1,-1.04,5.99,6.15,-0.07710729,0.07947922,-0.04759583,-0.3082992,1.003753,-9.863354,0
39880829,6233,4.24,-3.91,-3.1,-0.04,-0.51,5.99,5.65,-0.04255391,0.02538926,-0.1053167,-0.1377636,0.729004,-9.383949,0
39989677,6112,4.12,-3.91,-3.2,-0.02,-0.06,5.99,5.07,-0.0093648269999999,0.0545089,-0.0802636199999999,-0.3227295,0.8988116,-9.375901,0
40101118,6095,4.18,-3.95,-3.23,-0.01,0.17,5.99,4.55,-0.007762769,0.06824341,-0.07629548,-0.1574222,0.8336902,-9.454781,0
40208802,6193,4.01,-3.3,-2.72,0.0,0.41,5.99,4.2,0.2111381,-0.05588751,-0.04002134,-0.08704544,1.231252,-9.571477,0
40313423,6133,4.54,-2.45,-1.22,0.0,0.45,5.99,4.13,0.2429275,0.005938431,0.03177126,-0.3349345,0.853626,-9.73241,0
40417842,6213,4.4,-2.14,-0.26,0.0,0.13,5.99,4.43,0.1063625,-0.1061464,0.0519288,-0.2492325,0.6251158,-10.12695,0
40532823,6153,4.06,-1.97,-0.58,0.0,-0.49,5.99,4.97,-0.1201138,-0.1204318,0.09382546,0.06740326,0.9234498,-9.760686,0
40639642,6267,4.19,-2.04,-1.26,0.0,-0.49,5.99,5.45,-0.1062748,0.0482878,0.06294572,-0.1444508,0.8727254,-9.522598,0
40744466,6229,4.28,-2.21,-1.83,0.0,-0.5,5.99,5.77,-0.1345166,-0.03087353,0.00615152,-0.1696339,0.697006,-9.935934,0
40863174,6260,4.22,-2.47,-2.2,0.0,-1.23,5.99,5.97,0.02460416,-0.1008152,-0.008428501,-0.2945468,1.005869,-9.827042,0
40960089,6178,3.9,-2.59,-2.57,0.0,-1.8,5.99,5.88,-0.1216669,-0.1052226,-0.05004738,-0.1482057,0.7812939,-9.854208,0
41066647,6082,3.74,-2.66,-3.41,0.0,-1.95,5.99,5.55,-0.16149,0.02866856,-0.07931877,-0.01643771,0.9489775,-9.378109,0
41170604,5929,4.1,-2.69,-3.88,0.0,-0.9,5.99,5.1,-0.02318926,0.2761319,-0.05718672,-0.05748978,0.9543532,-9.679827,0
41297005,6101,4.18,-2.72,-3.58,0.0,-0.09,5.99,5.05,0.08080249,0.06307926,0.03954971,-0.1237857,0.899098,-9.878493,0
41400362,6195,4.33,-2.69,-3.02,0.0,0.11,5.99,5.49,0.06525982,-0.02459406,0.07601643,-0.0293267,0.8036481,-10.23549,0
41508579,6161,4.18,-2.65,-2.79,0.0,-0.69,5.99,5.96,0.05089898,-0.1876661,0.03906078,0.1650281,0.8701615,-9.880666,0
41607824,6213,4.38,-2.62,-2.77,0.0,-1.27,5.99,6.19,0.03721973,-0.02225288,0.03258311,0.002176426,0.6726031,-9.745934,0
41710971,6200,4.45,-2.57,-2.68,0.0,-1.13,5.99,6.35,0.0080644329999999,0.04073332,0.038932,-0.02163512,0.8166338,-9.73035,0
41828835,6226,4.11,-2.57,-2.68,0.0,-0.76,5.99,6.23,-0.02731634,0.05506775,-0.03251565,-0.1405765,0.6961582,-9.892835,0
41929467,6057,4.12,-2.58,-3.07,0.0,-0.46,5.99,5.96,-0.0357724,0.0221142,-0.03012597,-0.0411005,0.8971561,-9.852371,0
42045698,6058,4.04,-2.56,-3.4,0.0,-0.19,5.99,5.82,0.01289712,0.07110654,-0.01806576,-0.2775797,0.6459875,-9.638013,0
42140507,6070,4.22,-2.55,-3.56,0.0,0.22,5.99,5.74,0.01601588,0.03026543,-0.03279855,0.04255265,1.044811,-9.874615,0
42251419,6032,4.23,-2.61,-3.44,0.0,0.57,5.99,5.62,-0.0008431294,-0.006454247,-0.01552865,-0.3749015,0.7691641,-9.612051,0
42359159,6102,4.19,-3.15,-3.73,0.0,0.51,5.99,5.55,-0.09237143,-0.01264525,0.01611989,-0.04770179,0.7766923,-9.876597,0
42463879,6282,4.4,-3.31,-3.79,0.0,0.47,5.99,5.73,0.05987094,0.01208228,0.002323509,-0.3062612,0.8940281,-9.831399,0
42579932,6151,4.11,-3.42,-3.5,0.0,0.49,5.99,5.85,0.006712177,-0.03853351,0.02838754,0.1081189,0.7208782,-9.973395,0
42681687,6274,4.17,-3.43,-3.42,0.0,0.24,5.99,5.74,0.02780503,0.000235792,-0.02867729,-0.2292811,0.8775991,-9.704265,0
42800821,6004,4.24,-3.28,-3.34,0.0,0.51,5.99,5.32,0.04828474,0.07727744,-0.07563747,-0.1881167,0.8510435,-9.989464,0
42905389,6055,3.87,-3.09,-3.18,0.0,0.94,5.99,4.62,0.002151755,0.01804052,-0.1357767,-0.1598562,0.7950144,-9.810184,0
43013750,6040,3.96,-2.6,-2.83,0.0,0.87,5.99,3.95,0.1305871,-0.002814544,-0.1048398,-0.1859201,0.8635845,-9.472775,0
43118123,6028,3.94,-2.19,-2.19,0.0,0.74,5.99,3.49,0.1420407,-0.06280209,-0.08614384,-0.04513371,1.02915,-9.916361,0
43222825,6026,4.07,-1.87,-1.65,0.0,0.34,5.99,3.29,0.03074939,-0.04169917,-0.0084073889999999,0.2459724,0.5424358,-10.02432,0
43329369,5979,3.94,-1.51,-1.63,0.0,-0.27,5.99,3.4,-0.03258523,-0.06958272,0.0434578,0.1333252,0.9068384,-10.12328,0
43446728,5877,4.62,-1.31,-1.52,0.0,-0.36,5.99,3.85,0.06444326,0.0449647,0.06619187,-0.07249936,0.819478,-10.34641,0
43545885,6114,4.47,-1.21,-1.26,0.0,-0.22,5.99,4.24,0.01843337,-0.02418866,0.07443813,0.0669574399999999,0.7198749,-10.49049,0
43659274,6131,4.4,-1.16,-1.29,0.0,-0.38,5.99,4.69,-0.006149092,0.02605164,0.07646283,0.01727998,0.9037338,-10.24283,0
43766349,6304,4.42,-1.23,-1.74,0.0,-0.18,5.99,5.08,-0.1184862,0.07885987,0.05100382,-0.1793822,0.7563606,-10.50168,0
43872384,6159,4.16,-1.24,-2.33,0.0,0.08,5.99,5.41,-0.07347727,0.0484018,0.03455216,0.1127895,0.939908,-10.21713,0
43977451,6207,4.49,-1.33,-2.25,0.0,0.05,5.99,5.62,0.07080268,-0.02939922,0.04472155,0.08513883,0.6979288,-9.967204,0
44080205,6315,4.26,-1.54,-2.31,0.0,0.15,5.99,5.91,-0.07423162,0.02665976,0.06188315,0.1756709,0.6977952,-9.926713,0
44191091,6031,3.95,-1.84,-2.74,-0.01,-0.09,5.99,6.26,-0.07253879,-0.08621081,0.03613818,-0.09079642,0.7160572,-9.747011,0
44308816,6107,4.03,-2.0,-3.37,-0.15,-0.5,5.99,6.5,-0.02028241,-0.04894436,0.003371867,-0.05735461,0.6909936,-9.533252,0
44409797,5877,3.86,-2.28,-3.94,-0.08,-0.55,5.99,6.51,-0.07957237,-0.02629051,-0.009861838,-0.07331197,0.9162876,-9.773054,0
44520593,5983,4.02,-2.25,-4.04,-0.26,-0.74,5.99,6.37,-0.0362027,-0.0508249,-0.02452626,-0.1543282,0.7771195,-9.895594,0
44626794,6119,3.83,-2.15,-3.89,-0.4,-0.79,5.99,6.18,0.08320273,-0.006111187,-0.04414276,0.1797937,0.8323446,-9.665839,0
44735576,6149,3.78,-1.49,-3.12,-1.18,-1.5,5.99,5.97,0.2064406,-0.2304521,-0.04901335,0.1095273,0.7262101,-9.613792,0
44843446,5908,3.76,-1.25,-2.26,-1.59,-2.61,5.99,6.0,0.06978935,-0.1741674,0.01873369,0.01108653,0.6770405,-9.958033,0
44954207,6001,3.73,-1.08,-2.16,-1.83,-2.87,5.99,6.34,-0.02055558,0.01395371,0.07544708,-0.06665359,0.6121401,-9.674359,0
45056652,6008,3.98,-1.21,-1.98,-1.94,-3.02,5.99,6.62,0.06406835,-0.07300136,0.02547815,-0.1493258,0.7269539,-10.16388,0
45273847,5941,3.52,-2.25,-3.8,-0.68,-1.34,5.99,6.8,-0.1513006,0.2523428,0.0424955,-0.1089547,0.7815214,-9.497937,0
45379184,5900,3.71,-2.24,-4.02,-0.59,-0.32,5.99,6.82,-0.04131863,0.114289,0.03361586,0.03187016,0.5898905,-9.710856,0
45492271,5916,3.51,-2.22,-3.99,-0.57,-0.05,5.99,6.58,-0.07984432,0.1192514,-0.0391673,-0.4472525,0.3959775,-9.935357,0
45599156,5935,3.16,-1.99,-4.49,-0.32,0.57,5.99,5.98,-0.04432097,0.1277137,-0.0926153599999999,0.02745312,0.8788366,-9.777134,0
