TimeUS,RPM,Curr,DesRoll,Roll,DesPitch,Pitch,DesYaw,Yaw,GyrX,GyrY,GyrZ,AccX,AccY,AccZ,Guasto
0,4116,3.76,-0.19,-0.07,0.14,3.44,3.67,3.53,0.0938267099999999,-0.1170458,-0.0172617,0.3232367,0.2616733,-10.88695,2
102682,5412,3.93,-0.22,-0.52,-0.28,2.29,3.67,3.69,-0.1244839,-0.1608289,0.05939676,-0.2115691,0.8172944,-11.82557,2
208750,5779,3.59,-0.33,-0.65,-0.73,-0.18,3.67,4.65,-0.1008096,-0.3937246,0.1902125,-0.3445596,0.4187573,-11.7451,2
322772,5954,3.19,-0.43,-0.66,-0.73,-1.85,3.67,6.34,0.1009237,-0.1269049,0.2681917,-0.21877,0.3268813,-10.74719,2
428631,5785,4.15,-0.74,0.38,-0.14,-1.86,3.67,8.08,0.2116787,0.03152974,0.2915044,0.06496564,0.5114632,-9.997383,2
538093,6023,4.68,-1.33,1.55,0.55,-1.06,3.66,10.09,0.2487045,0.1905433,0.3415515,-0.1125743,0.280131,-9.825635,2
756169,6257,5.02,-3.38,0.55,1.42,0.44,3.62,13.91,-0.2090882,0.03039265,0.2367806,0.1970417,0.2716162,-10.04503,2
860734,6579,5.34,-4.25,-0.32,1.5,0.48,3.62,15.08,-0.04579546,-0.0889810999999999,0.1332477,-0.06861179,0.3335843,-9.58242,2
970207,6456,4.95,-4.81,-2.1,1.63,0.25,3.45,15.76,-0.1179182,-0.01883716,0.02929559,0.2178224,0.5783651,-9.662268,2
1073584,6260,5.11,-5.42,-2.78,1.45,0.33,1.21,15.8,0.08269216,0.007211009,-0.05718151,0.2867734,0.4873213,-9.588805,2
1182980,6557,5.6,-5.62,-3.22,1.24,0.57,357.12,14.81,-0.349751,0.1287938,-0.2412466,0.09395212,0.5313744,-9.921206,2
1303712,6571,6.68,-5.75,-2.52,1.1,0.62,353.96,12.64,-0.2414577,-0.005298341,-0.3783147,0.002571244,0.4644944,-10.09257,2
1407566,6701,5.16,-6.03,-2.1,1.19,1.12,353.63,10.06,0.2400863,0.02440347,-0.4250743,0.01996439,0.4119189,-9.633578,2
1517761,6695,5.54,-6.6,-2.8,1.15,1.74,353.63,7.38,-0.2232787,0.08736009,-0.3827531,-0.05204166,0.5032929,-9.796364,2
1624213,6282,4.68,-7.05,-3.47,1.17,1.95,353.63,5.24,-0.149573,0.05821232,-0.3264738,-0.02752943,0.4117956,-9.917387,2
1733871,6431,4.55,-7.21,-4.14,1.03,2.06,353.65,3.26,-0.082761,0.01879144,-0.307552,0.07849791,0.5535582,-9.667686,2
1848242,6295,4.24,-7.0,-4.47,0.74,1.77,353.68,1.42,-0.04897196,-0.06037916,-0.2485642,-0.07454,0.7802384,-10.00891,2
1947984,6240,4.35,-6.83,-4.1,0.45,1.44,353.72,0.17,-0.0662281599999999,0.03598569,-0.2107179,0.02476196,0.3012285,-9.41317,2
2064542,6159,4.5,-6.71,-4.07,-0.1,1.3,353.78,358.82,0.03585143,-0.02495365,-0.1827536,-0.0885188799999999,0.4419664,-9.302402,2
2168297,6176,4.05,-6.65,-4.34,-0.39,0.78,353.82,358.02,-0.06264864,-0.056455,-0.1120113,-0.1921511,1.002644,-9.657945,2
2285494,6094,4.45,-6.65,-3.83,-0.52,-0.05,353.83,357.79,0.08901314,-0.0774167999999999,0.01980179,-0.1121133,0.7129974,-9.983375,2
2384733,6432,4.2,-6.4,-4.01,-0.69,-0.17,353.85,358.06,-0.05169569,0.01215477,0.07642385,-0.3383196,0.3740523,-9.865418,2
2492367,6232,4.48,-6.2,-4.03,-1.05,0.09,353.89,358.58,-0.06943194,0.02354908,0.1145518,-0.02792438,0.6992568,-9.508576,2
2609736,6301,4.99,-6.14,-4.13,-1.48,0.08,353.94,359.26,-0.02011089,-0.005253233,0.1244653,-0.06455329,0.9194053,-9.615882,2
2719959,6375,5.49,-6.21,-4.02,-1.75,-0.56,353.97,359.96,0.04620215,-0.1522,0.101391,-0.1257673,0.7517797,-10.41789,2
2828257,6851,5.95,-6.13,-4.4,-1.96,-1.07,353.99,0.63,-0.126957,-0.05056613,0.1122095,-0.3278227,0.7145635,-10.90958,2
2937969,6803,6.01,-5.97,-4.52,-2.05,-1.29,354.0,1.2,-0.1543916,0.07587762,0.07060324,-0.2971871,0.7505498,-11.09456,2
3044072,6861,6.04,-5.65,-4.25,-2.2,-0.88,354.01,1.46,0.2309864,-0.005919201,0.03648547,-0.04784358,0.7156025,-10.94546,2
3145711,6925,5.44,-5.35,-4.25,-2.27,-0.65,354.02,1.48,-0.0441026,0.07041884,0.01555283,-0.2255355,0.589305,-10.74122,2
3262082,6755,5.58,-4.96,-3.98,-2.47,-1.0,354.04,1.26,0.1480082,-0.1284195,-0.0646145999999999,-0.307638,0.8417361,-10.85008,2
3367497,6715,5.24,-4.52,-4.17,-2.58,-1.11,354.05,0.94,0.09498399,-0.03925139,-0.04950954,-0.1228698,0.8434561,-10.43982,2
3487874,6747,5.12,-3.99,-4.35,-2.78,-0.93,354.06,0.6,0.03912611,0.06527813,-0.04075289,-0.0231744,0.8169073,-10.05024,2
3584664,6651,5.01,-3.48,-4.21,-3.93,-1.87,354.14,0.31,-0.02175918,-0.3162549,-0.07084962,-0.2415348,0.6316611,-10.38793,2
3703751,6555,4.86,-2.94,-3.42,-5.02,-4.07,354.2,359.94,0.1484266,-0.3673294,-0.08442197,-0.1350976,0.6654748,-9.927022,2
3914194,6680,4.9,-2.46,-2.62,-5.47,-5.15,351.75,357.09,-0.05243869,0.03833962,0.01290988,-0.3095209,0.6537282,-9.983307,2
4026777,6478,4.78,-2.43,-2.94,-4.02,-3.84,351.69,357.11,-0.06153017,0.281244,0.01542305,-0.2006109,0.6187445,-9.712922,2
4136977,6420,4.77,-2.35,-3.52,-2.84,-2.44,351.64,357.01,-0.1349682,0.2821987,0.04725358,-0.1259431,0.6931003,-9.741578,2
4234765,6486,5.01,-2.15,-3.4,-1.92,-1.41,351.6,357.03,-0.02067299,0.2918649,0.08894181,-0.108104,0.7852921,-9.726604,2
4344789,6558,5.06,-1.96,-2.3,-1.35,-0.83,351.58,357.28,0.1502887,0.09953365,0.06557364,-0.3222021,0.6077072,-9.57403,2
4456424,6576,5.29,-1.89,-1.51,-1.0,-0.39,351.57,357.49,0.2821271,0.01983111,0.008894702,-0.08765431,0.6559725,-9.619747,2
4559509,6472,4.67,-2.04,-1.41,-0.82,-0.08,351.56,357.53,-0.1683268,0.04157408,0.03488488,0.005287572,0.7943946,-9.815701,2
4668273,6549,4.92,-2.46,-1.82,-0.59,-0.08,351.55,357.44,-0.09684121,0.01634496,-0.02377253,-0.01870077,0.6009355,-9.627314,2
4782445,6443,4.82,-2.72,-2.72,-0.52,-0.05,351.55,357.8,-0.2439754,0.00386638,-0.01863775,-0.1585992,0.6599142,-9.633715,2
4884516,6463,5.21,-2.67,-2.64,-0.59,-0.67,351.55,357.94,0.2242293,-0.1985322,-0.104109,-0.3540689,0.8097644,-10.06818,2
4987066,6542,4.37,-2.92,-2.2,-0.47,-0.97,351.55,357.25,0.07033954,-0.0427171,-0.09053181,-0.3198911,0.4730979,-10.39647,2
5102689,6521,4.51,-3.27,-2.68,0.07,-0.05,351.52,356.47,-0.2388773,0.2184572,-0.05784291,-0.2281193,0.5121446,-9.569102,2
5202242,6328,4.53,-3.22,-3.29,0.49,0.93,351.49,356.21,0.03604957,0.0980927999999999,-0.05168101,-0.09045278,0.6602288,-9.747388,2
5420683,6453,4.33,-2.52,-3.5,0.73,1.74,351.48,355.63,-0.04249394,-0.06377497,-0.06086987,-0.1155445,0.6128502,-10.00752,2
5528692,6374,4.65,-2.23,-3.05,0.52,1.35,351.49,355.43,0.0513341,-0.09677076,-0.0375215,-0.2382149,0.4566114,-10.20655,2
5627098,6271,4.57,-1.62,-2.48,0.18,0.98,351.5,355.77,0.1258397,0.0116712,-0.03222202,-0.2099646,0.9733369,-9.755755,2
5743009,6317,4.8,-1.06,-1.32,-0.09,0.23,351.51,355.88,0.2003891,-0.09168769,-0.06521482,-0.1336135,0.8107171,-10.01456,2
5852976,6371,4.49,-0.92,-0.7,0.02,0.25,351.5,355.55,-0.06391834,0.1186363,-0.03866209,-0.05479277,0.5097489,-9.797815,2
5964657,6358,4.6,-0.9,-1.01,0.14,0.46,351.5,355.26,-0.2543012,0.1178246,-0.03810903,-0.224559,0.5460512,-9.831421,2
6072424,6230,4.6,-0.99,-1.53,0.11,0.38,351.5,354.88,0.1189016,-0.1153684,-0.09920928,-0.3344507,0.610655,-9.630049,2
6184234,6294,4.55,-1.28,-1.93,-0.34,0.55,351.51,354.19,-0.09099221,-0.05842413,-0.06388675,-0.2090146,0.5974633,-10.0054,2
6293553,6373,4.32,-1.64,-2.15,-0.81,-0.03,351.52,353.62,-0.009881793,-0.07922674,-0.0670981799999999,-0.3322498,0.6170243,-9.900728,2
6398299,6245,4.05,-1.94,-2.52,-1.44,-0.99,351.54,353.18,-0.08809264,-0.1307268,-0.06427743,-0.3226126,0.7816433,-9.840564,2
6501783,6072,4.03,-2.11,-2.71,-1.77,-1.92,351.56,352.91,-0.002419963,-0.1238284,-0.03273528,-0.3651604,0.7273043,-9.810852,2
6617198,6166,4.07,-2.34,-2.95,-1.67,-2.32,351.55,352.55,-0.140522,0.01073577,0.01546619,-0.38845,0.5419899,-9.889179,2
6719043,6115,4.39,-2.48,-2.85,-1.3,-2.29,351.54,352.6,-0.008395288,0.07819919,0.08495969,-0.1682019,0.4921414,-9.616527,2
6830528,6153,3.83,-2.73,-3.18,-0.9,-1.79,351.52,352.87,-0.2003319,0.1811637,0.1093268,-0.1924931,0.5729567,-9.477675,2
6939813,6082,3.93,-2.9,-3.64,-0.77,-0.98,351.51,353.22,-0.2131401,0.1757669,0.09574662,-0.05600046,0.4466822,-9.364916,2
7155436,6058,4.05,-2.93,-4.01,-1.13,-1.16,351.53,354.07,0.05099145,-0.1033284,0.06845204,-0.3144773,0.5811425,-9.059027,2
7261489,6102,4.11,-2.58,-3.7,-1.52,-1.42,351.55,354.64,0.14921,-0.1270974,0.0830925,-0.1221887,0.6165665,-8.938029,2
7371739,6142,4.57,-2.35,-2.87,-1.77,-1.75,351.56,355.2,0.2687627,-0.02039303,0.07837172,-0.1464298,0.5199471,-8.814494,2
7491546,6149,4.5,-2.21,-2.16,-2.04,-1.75,351.57,355.73,-0.03743134,-0.02078089,0.08669311,-0.1149393,0.4298617,-9.349997,2
7592437,6201,4.06,-2.37,-1.99,-2.01,-2.12,351.57,356.15,-0.3011557,0.03351854,0.06152921,-0.2276723,0.6386156,-8.549639,2
7704509,6210,5.29,-2.69,-2.4,-1.97,-2.27,351.57,356.25,-0.3464175,0.06696602,-0.00747028,-0.2686057,0.6120201,-8.901362,2
7813680,6047,4.38,-2.95,-2.89,-1.98,-2.12,351.57,356.04,-0.5211293,0.06033356,-0.0492179,-0.4314708,0.6824073,-9.016844,2
7916531,6097,4.46,-2.91,-3.57,-2.0,-1.69,351.57,355.63,0.003892262,0.09897437,-0.1099684,-0.3425061,0.5934692,-9.311828,2
8031976,6054,4.05,-2.95,-3.61,-2.01,-1.41,351.57,354.94,0.08939935,-0.01269786,-0.1233728,-0.3496469,0.4018303,-9.1758,2
8135575,6181,3.86,-2.74,-3.72,-2.12,-0.97,351.58,354.19,-0.06869026,0.07071357,-0.1389382,-0.1255726,0.5828819,-9.393927,2
8251560,5960,4.01,-2.61,-3.3,-2.18,-1.01,351.58,353.3,0.04892031,0.06492016,-0.1561434,-0.2245569,0.8074971,-9.316147,2
8355586,6005,3.96,-2.5,-3.13,-2.42,-0.84,351.59,352.55,-0.03544485,0.06715321,-0.09048219,-0.3111893,0.577486,-9.683916,2
8464784,6138,3.92,-2.27,-3.06,-2.81,-0.77,351.61,352.2,0.008811759,-0.07665423,-0.005195134,-0.4503959,0.5213267,-9.738245,2
8574506,5902,4.04,-2.06,-2.95,-3.1,-1.32,351.62,352.26,0.1035215,-0.1908159,0.03795463,-0.185893,0.5997435,-9.722692,2
8684522,6045,3.99,-1.84,-2.77,-3.42,-1.9,351.63,352.47,-0.05062395,-0.08093303,0.04476078,-0.2930342,0.7054099,-9.323525,2
8791111,6178,4.29,-1.84,-2.26,-3.47,-2.56,351.63,352.8,0.1190636,-0.1835788,0.06554432,-0.3010331,0.5110752,-9.565061,2
8909666,5987,4.74,-3.57,-2.67,-2.23,-2.32,351.57,353.41,-0.2377851,0.2278494,0.1155243,-0.6168578,0.4891088,-9.855992,2
9011074,6231,4.62,-5.37,-4.23,-0.53,-0.6,351.43,354.11,-0.2468297,0.2826168,0.126769,-0.3010067,0.4280406,-9.759055,2
9121504,6305,4.72,-7.87,-6.75,1.26,1.51,351.23,354.68,-0.4302887,0.260911,0.09220725,0.1500121,0.335892,-10.02426,2
9225408,6381,4.24,-9.3,-8.92,2.49,2.94,351.04,354.89,-0.3668022,0.2569573,0.07947729,-0.06763072,0.8273144,-9.683773,2
9344728,6248,4.51,-9.54,-9.54,3.01,3.33,350.95,355.2,-0.1111187,0.04485833,0.04759845,-0.1741131,0.4344874,-10.04598,2
9445495,6313,4.94,-9.12,-9.16,3.13,3.39,350.93,355.55,0.05003772,0.03726599,0.06647713,-0.06745099,0.6359102,-9.58663,2
9553942,6308,4.7,-8.88,-8.36,3.68,3.31,350.85,355.97,0.07450364,0.1110831,0.04567068,-0.3098266,0.7139797,-9.886969,2
9659852,6469,4.94,-8.54,-7.22,4.52,3.93,350.72,356.17,0.179507,0.1898134,-0.004352695,-0.1707984,0.6675998,-9.579797,2
9773035,6408,5.25,-8.01,-6.45,5.36,5.4,350.6,356.48,0.1857057,0.1919079,-0.02380648,0.1476745,0.5801371,-9.602325,2
9884575,6589,5.17,-7.88,-5.94,6.07,6.27,350.5,356.72,-0.1007749,0.1009265,-0.01234009,-0.0938402599999999,0.5098101,-9.858596,2
9994205,6640,4.91,-7.39,-5.23,6.12,6.5,350.49,356.19,0.1639123,-0.02356401,-0.08126055,0.1639131,0.6444705,-9.935975,2
10101120,6482,4.97,-7.17,-4.87,6.1,5.97,350.49,355.51,0.06034122,-0.09324407,-0.06919895,-0.08818268,0.6499632,-10.30577,2
10207570,6599,4.99,-7.08,-4.94,6.26,5.74,350.47,355.31,-0.09763541,-0.02532799,-0.06204202,0.1245515,0.5853644,-9.671627,2
10316559,6565,5.44,-7.0,-4.75,6.76,5.74,350.41,355.14,-0.00949,-0.02415999,-0.09436744,0.03537542,0.6766162,-9.946215,2
10423502,6377,5.22,-7.07,-4.43,7.66,5.96,350.3,355.02,0.1200799,0.01992406,-0.0697807,0.1586984,0.7451315,-10.22419,2
10527064,6557,4.78,-7.15,-4.43,8.15,6.68,350.23,354.88,-0.1871317,0.1332511,-0.05530011,0.1755557,0.8139147,-9.931346,2
10648584,6567,4.61,-7.25,-4.66,8.55,7.24,350.18,354.63,-0.2121433,0.158464,-0.03129987,0.2245988,0.8802607,-10.04554,2
10748970,6515,4.74,-6.89,-4.69,8.23,7.18,350.22,354.65,0.01641504,-0.1660726,0.005833334,0.5950629,1.179515,-9.873825,2
10859057,6288,4.55,-6.72,-4.91,8.13,6.58,350.24,354.78,-0.3980587,0.009134336,0.009147116,-0.03257195,0.6944655,-9.845161,2
10965770,6507,4.77,-7.09,-5.8,7.17,6.17,350.35,354.67,-0.3678077,-0.0166885,-0.06267286,0.2460565,0.5106003,-9.428817,2
11077953,6416,4.88,-7.64,-6.65,5.96,5.76,350.51,354.4,-0.1962602,-0.152593,-0.03183845,0.01089249,1.063249,-9.69889,2
11299806,6443,4.76,-7.99,-6.51,5.01,3.71,350.64,355.11,-0.139933,0.01796529,0.01686032,-0.1991259,0.8593861,-9.093689,2
11393409,6465,5.56,-7.61,-7.07,5.47,4.73,350.58,355.35,-0.5297381,0.2925378,0.01302371,0.3844647,0.9605418,-9.522184,2
11515121,6361,6.23,-6.37,-5.9,5.54,5.06,350.56,355.58,0.2819041,-0.006033508,0.01703889,0.4082925,1.267065,-9.679021,2
11615648,6549,5.32,-5.09,-4.23,4.95,4.38,350.62,355.89,0.0960936,-0.1358145,0.02614409,0.04117593,0.8055773,-10.36924,2
11725292,6629,5.19,-4.15,-2.54,4.65,3.48,350.65,356.08,0.2872386,-0.1956356,-0.0141276,0.512879,0.8503026,-10.11514,2
11826507,6362,6.13,-4.08,-1.5,4.62,3.01,350.65,355.99,0.9406343,-0.3045045,-0.01295089,0.140844,1.02557,-9.42018,2
11938757,6203,5.91,-4.58,-1.31,4.24,2.52,350.68,355.84,-0.1624472,-0.2059328,0.01211569,0.1445102,0.6206328,-10.85211,2
12051714,6443,4.39,-4.74,-2.19,2.36,1.37,350.83,356.06,0.1665623,-0.4941382,-0.0855892999999999,0.4767739,1.01925,-9.538907,2
12167412,6236,6.77,-5.58,-2.3,0.97,-0.53,350.96,355.95,-0.4034463,-0.2384804,-0.03333233,0.2451114,1.171398,-10.53728,2
12261232,6482,5.31,-6.26,-1.4,0.26,-1.71,351.03,355.83,0.5867755,-0.2858605,-0.02055163,0.03546466,0.9109052,-9.418061,2
12371309,6330,6.22,-6.75,-2.93,-0.09,-1.98,351.07,355.73,-0.5276936,-0.1095496,-0.0007805387999999,0.250221,1.008526,-10.36975,2
12483265,6374,7.36,-7.28,-3.84,-0.12,-1.85,351.08,355.59,0.1632836,-0.0863068,-0.01137794,0.1371222,0.8402206,-10.3723,2
12580489,6510,6.71,-7.28,-5.28,-0.11,-1.56,351.07,355.46,-0.887178,0.1236497,-0.007233069,0.2891873,1.134418,-10.44876,2
12702762,6264,6.26,-7.13,-5.38,-0.14,-1.53,351.08,355.12,-0.06926025,0.1254134,-0.06060161,0.08913936,1.255714,-9.600083,2
12812045,6326,7.01,-6.74,-6.09,-0.34,-1.36,351.1,354.57,-0.1645571,0.09911666,-0.05420848,0.1128421,1.071828,-9.695755,2
13229091,6314,4.59,-3.47,-4.07,-3.54,-3.36,351.38,353.5,0.3397424,-0.320482,-0.03113835,0.2213,1.3055,-10.1765,2
13343268,6421,4.84,-1.31,-1.51,-6.2,-5.62,351.49,353.53,0.4728249,-0.3182601,0.006935134,-0.03394406,1.129748,-10.05587,2
13450002,6369,4.77,-0.29,0.73,-8.01,-7.96,351.51,353.41,0.01618822,-0.1840346,-0.02524461,-0.5759761,0.8451914,-10.42618,2
13567243,6489,5.57,-0.69,0.79,-9.57,-9.01,351.53,353.37,-0.1977598,-0.1703276,-0.008783073,0.2324511,1.169028,-9.125615,2
13664503,6223,6.52,-2.23,-0.45,-9.43,-9.92,351.52,353.36,-0.3423317,0.01947206,-0.01234775,-0.2652095,0.7022942,-9.681911,2
13776740,6442,5.04,-3.9,-3.13,-8.35,-8.32,351.46,353.3,-0.52501,0.4883837,0.006846897,-0.2124829,1.168048,-9.659626,2
13995226,6443,4.81,-5.31,-5.37,-4.44,-2.78,351.11,352.97,0.05962994,0.4597099,0.08415712,-0.3302824,0.7677339,-9.905575,2
14114217,6649,4.82,-4.86,-5.13,-3.27,-0.41,351.01,353.15,0.1149831,0.09092835,0.056488,0.1729157,0.8013284,-9.837411,2
14215856,6434,5.12,-5.33,-4.98,-3.4,-0.17,351.02,353.59,0.002292678,-0.1284218,0.06342825,0.1867411,0.5415013,-9.653258,2
14328054,6505,5.75,-7.39,-6.66,-3.86,-1.11,351.07,354.03,-0.2929603,-0.0899151599999999,0.01426842,-0.5566539,0.3722807,-9.417663,2
14429559,6544,4.76,-9.14,-9.44,-4.29,-1.18,351.13,354.29,-0.3714499,-0.06019857,0.01860007,-0.1264469,1.432022,-9.750273,2
14534647,6429,4.55,-10.31,-11.63,-4.6,-1.46,351.19,354.29,-0.1459858,-0.1191689,-0.06928322,-0.1630832,1.077995,-9.231414,2
14654165,6492,4.87,-10.83,-12.45,-4.91,-1.92,351.24,353.95,0.04881866,-0.01414097,-0.05144408,-0.5804353,0.7819381,-9.844376,2
14872444,6583,4.94,-9.84,-11.56,-5.47,-2.21,351.35,353.43,0.3251896,-0.06715205,-0.05063078,-0.201926,0.8850561,-9.806852,2
15082660,6552,4.47,-8.67,-9.13,-5.91,-3.46,351.42,353.25,0.3577857,-0.1281519,-0.04150045,-0.5186639,0.9414967,-9.75746,2
15190281,6347,3.7,-6.09,-7.44,-6.03,-3.96,351.44,353.08,0.5586486,-0.08416802,-0.05611993,-0.4147801,1.299865,-9.269321,2
15301239,6149,4.67,-3.59,-3.71,-5.96,-4.57,351.43,352.8,0.6218059,-0.02915197,-0.04379024,-0.5040365,0.6148767,-9.874477,2
15406075,6271,4.29,-1.78,-1.08,-5.72,-4.8,351.42,352.81,0.3201563,0.03077755,-0.005300719,-0.6018994,0.6626974,-9.435222,2
15514515,6267,4.14,-0.58,0.25,-5.31,-4.28,351.41,352.75,0.003194104,0.2183589,-0.06596681,-0.6414503,0.4913828,-9.47823,2
15628064,6116,5.03,-0.38,1.05,-5.02,-4.03,351.41,352.58,0.1951169,-0.05188502,-0.03144086,-0.105824,0.8278136,-8.681842,2
15741747,6163,4.84,-0.58,0.34,-4.81,-4.07,351.41,352.36,-0.1207323,-0.01141481,-0.01640689,-0.2646945,1.019953,-8.996532,2
15847853,6234,4.58,-1.14,-0.18,-4.56,-3.99,351.41,352.11,-0.03305901,0.03878408,-0.04240992,-0.600893,0.7743359,-9.976718,2
15955540,6326,4.64,-1.59,-0.58,-4.17,-3.79,351.4,352.02,-0.1794451,0.03271388,-0.01207281,-0.4379829,0.6204364,-9.835617,2
16068525,6297,4.18,-1.86,-0.75,-3.78,-3.72,351.38,352.02,0.03416697,0.01872073,0.01624541,-0.6265677,1.003953,-10.19398,2
16169733,6269,4.54,-1.98,-1.4,-3.43,-3.34,351.37,351.97,-0.2274522,0.1801066,0.003885164,-0.5167655,0.8592024,-9.771028,2
16276282,6187,4.59,-2.01,-1.59,-2.98,-2.78,351.36,351.85,0.06080397,0.05340832,-0.07928958,-0.7111257,0.373878,-10.09066,2
16386739,6285,4.51,-1.16,-1.37,-2.97,-2.45,351.36,351.88,0.1798639,-0.08921669,-0.01729077,-0.2548971,0.7663493,-9.706859,2
16608069,6303,5.13,2.59,3.07,-4.11,-3.32,351.38,352.13,0.2838473,-0.1856386,0.01688782,-0.4847276,0.8144612,-10.36958,2
16722499,6436,4.53,2.76,4.84,-4.3,-4.55,353.38,352.55,0.1259741,-0.118354,0.1054189,-0.5969477,0.5160726,-9.806102,2
16833235,6337,3.39,1.75,3.28,-4.14,-4.43,357.24,353.84,-0.4716452,0.1429279,0.3006901,-0.5429326,0.5639837,-10.23172,2
16935532,6054,3.85,0.84,1.13,-3.68,-3.77,358.99,355.82,-0.4089194,0.1561536,0.3890319,-0.6096295,1.025284,-9.958076,2
17046262,5915,4.79,0.02,-0.64,-3.02,-2.87,359.15,358.51,-0.2910482,0.1131538,0.4146722,-0.2825134,0.8915827,-10.2491,2
17160184,6260,5.23,-0.46,-1.14,-2.54,-2.83,359.15,0.85,0.008563256,-0.04818679,0.3210737,-0.4269923,1.133048,-10.22604,2
17272209,6458,5.73,-0.81,-1.1,-2.23,-2.94,359.15,2.58,0.1991818,-0.03210808,0.2338158,-0.5197722,0.563887,-9.782174,2
17379611,6496,5.5,-1.07,-1.46,-1.78,-2.83,359.14,3.79,0.1469895,-0.09161946,0.169462,-0.116975,0.7257727,-9.994879,2
17487096,6649,5.49,-1.5,-1.23,-1.26,-2.44,359.13,4.56,0.3480544,0.004129677,0.0937404399999999,-0.2271621,0.6498558,-9.895878,2
17601518,6870,5.93,-2.08,-2.26,-1.19,-2.01,359.13,4.96,0.177739,-0.2632023,0.04215671,-0.0913716,0.8738108,-10.19807,2
17714264,6570,6.08,-3.39,-2.44,-2.02,-3.18,359.17,4.99,0.5978237,-0.3814115,-0.04102089,0.01113048,0.8813773,-9.441625,2
17822350,6542,6.72,-4.21,-3.15,-3.12,-4.8,359.25,4.83,0.08066116,-0.3052003,-0.08322757,-0.3949102,0.589706,-10.44826,2
17936256,6557,6.51,-4.7,-3.59,-3.9,-5.24,359.31,4.44,-0.04283201,0.003602478,-0.09168993,-0.2512885,0.7015713,-10.29957,2
18044550,6707,5.08,-4.77,-4.9,-4.14,-4.73,359.33,3.94,-0.2104833,0.146762,-0.08696189,-0.5107908,0.7733992,-10.57487,2
18154765,6757,4.73,-4.62,-5.74,-4.36,-3.71,359.34,3.1,-0.0936699899999999,0.2694874,-0.09598513,-0.4956222,0.9466255,-9.866147,2
18363175,6343,4.91,-4.15,-4.89,-5.3,-3.37,359.42,1.78,0.04624631,0.01449218,-0.05434994,-0.6857,0.6311307,-9.991777,2
18480207,6494,4.56,-3.83,-4.38,-6.14,-3.6,359.48,1.61,-0.07185587,0.0008613605,-0.003127532,-0.266494,1.244227,-10.01879,2
18800740,6411,4.67,-3.9,-4.53,-8.27,-6.23,359.62,1.25,-0.0496115,-0.09030043,-0.08632312,-0.6762537,0.8877569,-9.480111,2
18915682,6201,4.33,-3.89,-4.47,-8.86,-7.14,359.66,0.58,-0.08680915,-0.007424666,-0.06473471,-0.7686657,0.8651488,-9.57481,2
19016551,6210,3.77,-3.49,-4.66,-9.1,-6.97,359.68,359.76,-0.1504054,0.1509765,-0.1607585,-0.4119839,0.7054942,-9.297773,2
19129477,5953,3.62,-2.99,-4.95,-9.16,-6.91,359.68,358.87,-0.2015097,0.09695518,-0.1176182,-0.8345379,0.8671031,-9.432738,2
19246478,5851,4.01,-2.73,-4.3,-9.22,-7.75,359.68,358.05,0.1058061,-0.0660411199999999,-0.1279518,-0.922126,0.7115263,-9.574656,2
19362790,5801,3.88,-2.32,-3.97,-9.39,-7.84,359.69,357.24,-0.01583529,0.07052565,-0.102595,-0.5435819,0.5337388,-9.485724,2
19460302,5818,3.6,-2.09,-3.25,-9.39,-7.76,359.69,356.74,0.1807607,0.0272141,-0.06542633,-0.5529529,0.786858,-9.59997,2
19573204,5912,3.51,-1.9,-2.72,-9.33,-7.4,359.69,356.48,0.1071147,-0.00719685,-0.003002292,-0.4538963,0.8769409,-9.877623,2
19683081,5731,3.63,-1.87,-2.35,-9.32,-6.89,359.69,356.41,0.0559429,0.08134121,0.03923788,-0.8438909,0.79192,-9.91935,2
19805225,5818,3.64,-1.92,-1.73,-9.49,-6.25,359.69,356.49,0.1877271,-0.07310864,0.01986651,-0.6727952,0.3657113,-9.833359,2
19906836,5872,3.57,-1.93,-1.38,-9.72,-5.96,359.7,356.96,0.1003307,-0.08596866,0.04458687,-0.8955293,0.3795979,-10.02028,2
20018103,5878,4.07,-1.86,-2.13,-9.94,-6.5,359.71,357.71,-0.1690091,-0.08864975,0.1064899,-0.6839065,0.5626923,-9.687714,2
20126089,5853,4.03,-1.79,-2.55,-10.12,-7.09,359.72,358.35,-0.136061,0.02658395,0.08072799,-1.082698,0.7742366,-9.853288,2
20230742,6063,4.06,-1.61,-2.18,-9.92,-6.78,359.71,358.72,0.2367699,0.05708461,0.03834038,-0.7833295,0.8668612,-10.34598,2
20344561,6161,4.42,-1.52,-1.66,-9.47,-6.82,359.7,359.0,0.03291021,-0.03245702,0.05830654,-0.9891544,0.5693461,-9.607386,2
20556534,6211,4.36,-2.2,-1.19,-7.79,-7.1,359.64,359.61,0.01492507,0.2745274,0.03226342,-1.000265,0.7425388,-10.48126,2
20664472,6473,3.54,-1.92,-0.59,-6.69,-5.8,359.6,359.54,0.07379701,0.1233288,-0.02131137,-0.4270971,0.9846217,-10.18117,2
20775494,6099,4.84,-1.56,0.79,-5.68,-4.8,359.57,358.95,0.8206515,0.001483132,-0.1352184,-0.3316754,1.044052,-9.070574,2
20884101,5913,6.32,-1.73,0.68,-4.98,-4.62,359.55,358.01,-0.5751539,0.05904707,-0.1412359,-0.4746815,0.8482298,-9.641158,2
20990523,5778,4.85,-2.41,1.26,-4.51,-5.25,359.53,357.02,-0.07854251,0.04167647,-0.1113251,-0.8815603,0.8065417,-9.556896,2
21096543,6338,3.5,-2.83,-0.19,-4.33,-4.67,359.53,356.57,-0.2845435,0.119587,-0.03498211,-0.8983867,0.9837224,-9.629715,2
21217660,6039,3.25,-3.52,-2.53,-3.71,-4.14,359.49,356.25,-0.3564738,0.06924392,-0.05269442,-0.7295555,0.912522,-9.696601,2
21434502,5833,3.07,-4.79,-6.52,-1.95,-1.59,359.35,355.82,-0.09350143,0.2223827,-0.01403662,-0.4679978,0.9026636,-8.995216,2
21536487,5586,3.45,-4.63,-6.74,-1.3,-0.83,359.3,355.74,0.09567658,0.1063657,0.03591707,-0.5232626,0.687341,-9.357329,2
21655949,5653,3.57,-3.94,-6.3,-0.74,-0.33,359.26,355.93,0.07775941,0.1521515,0.05547436,-0.6602253,0.5750252,-9.729521,2
21756479,5771,3.59,-3.23,-5.45,-0.59,0.0,359.25,356.28,0.1718873,0.1258911,0.08188656,-0.7963001,0.730754,-9.308796,2
21869150,5795,3.88,-2.81,-4.22,-0.64,0.1,359.25,356.68,0.1552035,-0.1130096,0.07638127,-0.6504071,0.34006,-9.615973,2
21975732,5907,3.98,-2.48,-3.57,-0.81,-0.52,359.26,357.22,0.1279016,-0.1722522,0.1179467,-0.6297796,0.3015389,-9.929162,2
22084340,6111,4.73,-2.25,-3.28,-0.95,-1.55,359.26,357.97,0.01256855,-0.1590886,0.132168,-0.9517782,0.5196713,-10.26998,2
22201803,6367,4.95,-2.14,-2.63,-1.21,-1.76,359.27,358.64,0.003402193,0.04582588,0.06109246,-0.8833231,0.664673,-10.14315,2
22311218,6449,4.35,-1.99,-2.72,-1.42,-1.56,359.28,359.1,0.005612013,0.06098832,0.06339422,-0.8010885,0.4577392,-10.14623,2
22424040,6228,4.48,-1.92,-3.02,-1.63,-1.47,359.29,359.15,-0.1437882,0.03090542,-0.009357224,-0.8828735,0.239231,-10.37835,2
22525471,6247,4.61,-1.72,-2.98,-1.91,-1.91,359.3,358.99,0.03617832,-0.1512814,-0.02992678,-0.7674184,0.263984,-10.32262,2
22746469,6507,4.75,-1.68,-2.57,1.11,-0.19,359.24,358.39,0.09142452,0.43379,-0.00721731,-0.8945231,0.5910957,-10.22277,2
22852497,6181,3.53,-1.68,-2.88,3.49,2.82,0.25,358.23,-0.02237023,0.4333706,0.05680059,-0.2822519,0.6889946,-10.41835,2
22970567,6010,3.94,-1.64,-2.85,4.61,4.14,1.26,358.74,0.0568589,-0.05425601,0.1574168,-0.2512982,0.6677311,-10.03987,2
23069299,5976,4.34,-1.6,-2.34,4.57,3.57,1.26,359.6,0.04658871,-0.109889,0.1582574,-0.2052105,0.5781205,-9.929723,2
23183648,6267,4.32,-1.69,-1.88,4.13,2.27,1.27,0.66,-0.05274165,-0.1475351,0.164856,-0.4413832,0.5861739,-10.15567,2
23288765,6204,4.91,-1.84,-1.55,3.91,1.19,1.28,1.71,0.06889281,-0.1767247,0.1595725,-0.2837501,0.6907833,-10.22538,2
23402466,6294,4.44,-2.05,-1.74,3.87,0.79,1.28,2.57,-0.134414,0.06855267,0.1190329,-0.4103198,0.7203436,-9.728381,2
23505419,6214,4.56,-2.03,-1.82,3.43,0.85,1.29,3.11,-0.08171235,-0.04189517,0.06651737,-0.149465,0.5740284,-10.31711,2
23618761,6222,4.25,-1.77,-2.1,2.21,-0.33,1.34,3.58,0.1602049,-0.3585781,0.02235112,-0.06829176,0.9610743,-9.679914,2
23725209,6059,4.74,-1.79,-1.92,1.38,-1.69,1.36,3.68,0.1506997,-0.1331076,-0.008358946,-0.70317,0.8692164,-9.845146,2
23833502,6296,4.34,-1.72,-1.45,-0.19,-2.03,1.41,3.54,0.1383059,-0.2370179,-0.01362872,0.1922515,0.5249509,-9.717766,2
23943250,6217,4.37,-1.86,-1.02,-1.43,-3.79,1.45,3.34,0.2006301,-0.3571995,-0.05015627,-0.1992879,0.1428912,-9.757248,2
24048558,6296,4.58,-2.28,-0.67,-2.27,-5.14,1.48,3.14,0.1576559,-0.1927133,-0.04197048,-0.5173265,0.4143259,-10.12488,2
24158726,6166,4.71,-2.81,-0.93,-2.49,-5.53,1.49,2.91,-0.06252766,0.07989403,-0.03337854,-0.6284462,0.7426853,-9.777254,2
24268508,6370,4.55,-3.41,-0.89,-2.3,-5.05,1.48,2.58,-0.01098559,0.1661894,-0.06123793,-0.4688469,0.8424261,-9.88831,2
24380539,6348,4.21,-4.13,-1.13,-1.89,-4.51,1.45,2.18,-0.0861802,0.1355408,-0.06157136,-0.3175078,0.5472817,-9.523655,2
24493100,6244,4.33,-4.66,-3.14,-1.82,-2.98,1.44,1.89,-0.0749057999999999,0.08709528,-0.04222126,0.1247155,0.798595,-9.457105,2
24604536,6123,4.69,-5.04,-4.24,-1.63,-2.43,1.43,1.98,-0.03462635,-0.02049886,0.05898609,-0.2155475,0.7606988,-9.970348,2
24812045,6214,4.57,-5.02,-3.97,-1.63,-2.83,1.43,2.53,0.04967871,-0.06202915,0.01295366,-0.3242769,0.6097625,-9.896244,2
24917695,6256,4.26,-4.86,-4.19,-1.53,-2.78,1.42,2.61,0.08660933,0.0310494,-0.01536081,-0.3675542,0.657889,-9.849879,2
25035797,6219,4.28,-4.6,-4.32,-1.44,-2.25,1.41,2.49,-0.06571762,0.09632146,-0.02260628,-0.433151,0.805681,-9.822882,2
25138194,6129,4.73,-4.44,-4.11,-1.33,-2.21,1.4,2.37,0.04070572,0.009057964,-0.003001581,-0.2426508,0.606734,-9.591331,2
25244728,6168,4.47,-4.22,-4.05,-1.38,-1.88,1.41,2.21,0.1879197,0.0003452779,-0.02338178,-0.5197268,0.7934625,-9.857753,2
25355722,6115,4.35,-4.03,-3.77,-1.59,-2.03,1.42,2.06,0.1119468,-0.1269618,0.0005644056,-0.3339476,0.4489159,-9.949278,2
25456588,6154,4.08,-3.84,-3.96,-2.04,-2.22,1.45,1.94,-0.08655649,-0.004933855,-0.03948671,-0.6372268,0.6581262,-9.903176,2
25579686,6002,4.45,-3.54,-4.35,-2.74,-1.97,1.5,1.96,0.01954045,0.01408118,0.01249387,-0.2834835,0.9182958,-9.534216,2
25686997,6054,4.42,-3.38,-3.68,-3.19,-2.31,1.53,2.21,0.03959702,0.05278571,0.03209762,-0.6098618,0.7318795,-10.3148,2
25796264,6313,4.43,-3.18,-2.93,-3.57,-2.6,1.55,2.43,0.1950693,-0.02851645,0.01954495,-0.6223547,0.4003983,-9.329116,2
25907531,6287,3.94,-2.95,-2.94,-4.21,-2.18,1.58,2.44,0.08039996,0.06568547,0.01339645,-0.5517558,0.552847,-9.423146,2
26005814,6110,4.78,-2.97,-2.81,-4.77,-1.9,1.61,2.27,0.195488,-0.1082923,-0.03634287,-0.4467418,0.5295502,-9.812783,2
26119811,6076,4.6,-3.11,-2.54,-5.32,-2.51,1.64,2.04,-0.1314458,-0.1170817,-0.02003418,-0.8150329,0.6941181,-10.15936,2
26221694,6269,4.28,-3.33,-2.51,-5.79,-3.7,1.67,1.88,-0.167458,-0.1788446,0.01112106,-0.6260136,0.6046118,-9.843478,2
26334191,6205,4.05,-3.52,-2.85,-6.09,-4.88,1.68,1.71,-0.127548,-0.1494459,-0.05687522,-0.2794112,0.9561008,-10.0666,2
26433805,6084,3.96,-3.64,-3.16,-6.14,-5.49,1.69,1.73,-0.0981774,-0.01013788,0.0370752,-0.8735157,0.7288702,-9.680975,2
26552489,6066,4.39,-3.71,-3.22,-6.16,-5.46,1.69,1.87,-0.02553021,0.02949742,0.05318343,-0.5176262,0.9846787,-9.745559,2
26662026,6176,4.1,-3.62,-3.31,-6.05,-5.0,1.68,1.97,-0.08989666,0.100709,0.004048405,-0.728799,0.8163214,-9.503314,2
26771996,6224,3.93,-3.46,-3.44,-5.92,-4.75,1.67,2.03,-0.009138471,0.01681989,-0.005646355,-0.4532006,0.8451838,-9.608178,2
26881126,6182,4.06,-3.23,-3.68,-5.99,-4.44,1.68,1.92,-0.07399496,0.03834503,-0.03732608,-0.553928,0.4310362,-9.665281,2
26983762,6157,4.33,-3.03,-3.44,-5.94,-4.22,1.67,1.81,0.08548303,0.1420733,0.01307502,-0.8410202,0.4716301,-10.18361,2
27107786,6151,4.01,-2.79,-3.31,-6.1,-4.06,1.68,1.65,0.1444613,-0.08957642,-0.03300994,-0.4877656,0.8449669,-9.444398,2
27208975,6102,4.19,-2.75,-3.37,-6.16,-4.69,1.69,1.48,0.09624209,-0.06725211,-0.08509374,-1.017019,0.5886726,-9.483622,2
27545690,6133,4.6,-2.8,-2.6,-5.68,-5.9,1.66,0.45,-0.03198298,0.209943,0.04876209,-1.397962,0.8079231,-10.08983,2
27750206,6241,4.02,-3.05,-2.94,-3.68,-2.52,1.56,1.01,-0.1392512,0.1915521,0.07303196,-0.5911477,0.8605762,-9.933184,2
27861562,6201,4.48,-3.33,-2.98,-3.08,-2.49,1.53,1.44,0.1170948,-0.02826162,0.067831,-0.8915824,0.9422359,-9.894943,2
27977037,6329,4.68,-3.71,-3.27,-2.91,-2.51,1.52,2.02,-0.1479501,-0.01603211,0.09149886,-0.9476028,1.050797,-9.466465,2
28089523,6334,4.73,-4.14,-3.59,-2.96,-2.56,1.52,2.49,0.09235261,-0.01957258,0.06298228,-0.5341664,0.8108693,-9.306794,2
28184718,6269,4.43,-4.69,-4.15,-2.88,-2.82,1.51,2.89,-0.2634929,0.1415938,0.06595445,-1.237661,0.9729121,-9.67393,2
28295276,6189,4.83,-5.33,-4.47,-2.71,-2.88,1.5,3.12,-0.1796642,0.002336875,-0.007161724,-1.205148,0.6809315,-9.278219,2
28409194,6402,4.41,-5.88,-5.42,-2.12,-2.31,1.44,3.13,-0.0733882,0.09609014,0.03091432,-0.757388,1.402312,-8.827426,2
28520031,6297,4.21,-6.27,-6.31,-1.95,-1.64,1.42,2.89,0.003143974,0.1717661,-0.02124273,-1.115298,1.579451,-9.894439,2
28628713,6177,4.59,-6.55,-6.93,-2.01,-1.27,1.43,2.45,0.03575251,-0.07179429,-0.09806158,-0.9726073,1.084914,-9.203191,2
28846044,6382,4.83,-6.54,-6.4,-2.35,-1.46,1.47,1.53,0.13293,-0.1393243,-0.06969009,-0.8245627,1.220335,-9.914352,2
28949989,6319,4.67,-6.61,-6.17,-2.6,-1.95,1.5,1.27,-0.1810382,-0.02351329,-0.0380178,-0.9041388,0.897069,-10.00023,2
29061184,6429,4.71,-6.75,-6.11,-2.79,-2.38,1.52,1.04,-0.1123892,0.07272994,-0.06517115,-0.9236131,1.236923,-10.24816,2
29163751,6251,4.74,-6.89,-6.25,-3.01,-2.12,1.55,0.87,-0.08018316,0.05598081,-0.03874369,-0.8949924,0.7730333,-10.09686,2
29276793,6504,4.39,-6.82,-6.72,-3.19,-2.16,1.57,0.74,0.01879149,-0.0579952,-0.04205701,-0.9352446,0.9719334,-10.20012,2
29378730,6422,4.67,-6.67,-6.76,-3.3,-2.39,1.58,0.67,-0.04429092,-0.0254593,-0.0546074,-1.144991,1.306101,-9.783018,2
29489394,6485,4.58,-6.33,-6.52,-3.73,-3.14,1.63,0.71,0.1697087,-0.2141944,-0.01618495,-0.7146369,0.8096404,-9.746923,2
29600242,6289,4.55,-5.94,-6.88,-4.33,-3.98,1.69,0.59,-0.1061226,-0.05938811,-0.04014839,-1.24548,1.127243,-9.751266,2
29713756,6195,4.83,-5.64,-6.7,-4.84,-4.52,1.75,0.26,0.0843065499999999,-0.08603137,-0.0972951,-0.8764216,0.8611382,-9.895799,2
29815072,6309,4.2,-5.3,-6.59,-5.23,-4.89,1.78,359.96,-0.0006601443,-0.1413535,-0.05415712,-0.8921572,1.11979,-9.70576,2
29919551,6239,5.18,-5.14,-5.78,-5.35,-5.56,1.79,359.93,0.1692036,-0.03341862,0.02079048,-0.9144605,1.001646,-9.997416,2
30029774,6442,4.51,-5.21,-5.37,-5.25,-5.64,1.79,0.04,0.1120139,0.07240006,0.03139094,-1.131819,1.163681,-10.13791,2
30140760,6455,4.71,-5.01,-5.12,-5.07,-5.33,1.77,0.11,-0.01663448,0.1067463,0.02409723,-1.092152,1.064547,-10.118,2
30247470,6431,4.9,-5.0,-4.8,-4.83,-4.94,1.75,0.18,0.0655516,0.1114724,0.01450934,-1.011181,0.9073024,-10.28627,2
30356963,6512,4.49,-4.94,-4.99,-4.75,-4.51,1.74,0.15,-0.1286527,0.03623821,0.01638478,-1.056187,0.9053029,-10.23927,2
30473541,6400,4.98,-4.77,-5.3,-4.67,-4.43,1.73,0.08,0.01512165,-0.003192445,-0.0096127509999999,-0.8357671,0.8950783,-9.789374,2
30586707,6554,5.1,-4.83,-5.51,-2.9,-3.87,1.59,359.95,-0.1200637,0.2919806,0.005422019,-1.385573,1.036834,-10.26542,2
30686090,6527,5.01,-5.1,-5.7,-0.18,-1.1,1.35,359.8,-0.0985649,0.6624745,0.05960429,-0.7771579,1.309018,-9.74598,2
30804678,6494,5.06,-5.13,-5.64,2.15,2.87,1.14,359.51,-0.03584088,0.4465533,-0.01132962,-0.914946,1.110084,-10.51367,2
30909582,6370,4.15,-4.94,-5.63,2.8,4.44,1.08,359.34,0.04309648,0.04579855,0.01360459,-0.7981403,0.9842129,-10.04618,2
31020044,6356,4.71,-4.55,-5.01,2.07,3.95,1.14,359.42,0.05448846,-0.264944,0.009513657,-0.5806438,0.9691236,-10.18955,2
31128520,6344,4.98,-4.43,-3.99,0.44,1.76,1.27,359.86,0.1942437,-0.4901215,0.03600754,-0.3500758,0.8874256,-9.950057,2
31246798,6400,4.47,-4.42,-4.01,-2.32,-2.68,1.48,0.66,-0.1094118,-0.5893427,0.0659748,-1.035876,0.9541804,-9.529055,2
31344741,6400,5.01,-4.49,-4.24,-3.6,-5.44,1.58,1.45,0.03786399,-0.3880441,0.1056567,-0.6899618,1.015612,-9.680649,2
31460731,6415,3.61,-2.7,-4.45,-3.87,-6.47,1.6,2.21,0.06273583,0.06645533,0.08764196,-0.8250914,1.406284,-9.800784,2
31572715,6240,4.65,1.83,-0.59,-3.57,-5.69,1.6,2.43,0.9637782,0.1424634,0.02112663,-0.7084022,1.152487,-9.930398,2
31679521,6254,4.72,5.51,4.84,-3.13,-4.45,1.63,2.45,0.6695111,0.2420799,0.003157165,-0.6526778,0.6351058,-9.927291,2
31787705,6626,5.06,7.21,8.99,-2.73,-3.74,1.68,2.19,0.2590426,0.1715686,-0.04985214,-0.8328949,-0.0911568,-9.853883,2
31906792,6591,4.62,7.22,9.53,-2.59,-2.96,1.7,1.8,0.004981213,0.08071877,-0.09723449,-0.7904769,0.2637797,-9.644809,2
31999506,6486,4.11,6.6,7.99,-2.82,-2.52,1.67,1.29,-0.2612365,-0.07867435,-0.1304135,-0.544318,0.2123446,-9.630557,2
32107410,6224,4.14,5.82,5.87,-3.09,-2.87,1.64,0.66,-0.2413401,-0.1745013,-0.0790132499999999,-0.6070707,0.5883474,-9.474319,2
32221741,6079,4.12,4.95,4.72,-3.14,-3.88,1.64,0.31,0.08406828,-0.1531797,-0.03790682,-0.5201003,0.984836,-9.054949,2
32330482,6010,4.34,4.2,4.6,-2.93,-4.0,1.65,0.44,-0.04586224,0.04504188,0.03843446,-0.4337829,0.8548808,-9.52117,2
32433490,6146,3.86,3.76,4.32,-2.45,-4.01,1.69,0.65,-0.267164,0.1304643,0.03500539,-0.5216394,0.5192012,-9.381899,2
32544491,5937,3.96,2.65,3.4,-1.84,-3.63,1.72,0.95,-0.4261796,0.1507454,0.03950183,-0.5381018,0.5811993,-9.018792,2
32657772,6120,4.32,0.84,1.78,-1.34,-3.13,1.74,1.25,-0.4204454,0.1368808,0.05919803,-0.4421922,0.8418797,-9.147003,2
32762183,6193,5.08,-1.02,0.01,-0.91,-2.43,1.74,1.56,-0.2061106,0.03752423,0.0507055,-0.304537,0.4188902,-9.504771,2
32871811,6295,4.48,-3.59,-2.76,-0.49,-1.69,1.72,1.98,-0.4797935,0.09637792,0.06893525,-0.4038881,0.6390039,-9.357762,2
32984536,6248,4.38,-5.55,-5.44,-0.28,-1.05,1.7,2.41,-0.3431253,0.07313443,0.04565867,-0.3422184,0.9394708,-9.607517,2
33084566,6327,4.38,-6.56,-7.05,-0.21,-0.77,1.7,2.79,-0.3215817,-0.02259876,0.0313985,-0.4688263,0.7196302,-9.681256,2
33307100,6278,4.68,-7.29,-7.51,-0.56,-0.8,1.74,3.82,0.002027984,-0.05069471,0.0645659299999999,-0.02586089,0.797482,-9.73085,2
33415471,6419,4.87,-7.43,-7.33,-0.65,-1.29,1.75,3.9,-0.1517406,0.009369252,-0.03483505,-0.6025737,0.9415035,-9.51337,2
33632238,6337,4.66,-7.25,-7.07,-1.49,-1.4,1.86,2.78,0.1068809,-0.1042823,-0.1104518,-0.8744687,0.7240832,-10.31917,2
33743151,6585,4.62,-6.91,-7.01,-2.07,-1.78,1.93,2.3,0.2296298,-0.1250074,-0.04227073,-0.7135949,0.9747565,-10.10467,2
33843263,6441,4.1,-6.7,-7.83,-2.56,-1.99,1.99,1.93,-0.2208191,-0.02219402,-0.08740778,-0.9614156,0.7910954,-9.318006,2
33957521,6420,5.75,-7.3,-7.7,-3.25,-2.55,2.07,1.54,0.0713906,-0.14712,-0.08366489,-1.057627,0.4881814,-10.21568,2
34057735,6627,4.96,-8.75,-8.5,-3.87,-2.61,2.16,1.3,-0.288626,0.03288595,-0.01428403,-0.7591521,0.7427126,-10.30027,2
34171111,6592,4.63,-10.8,-10.46,-4.67,-2.65,2.3,1.43,-0.2288751,-0.1505148,0.02219094,-0.5665894,0.8198727,-10.34988,2
34273187,6515,5.1,-11.52,-11.86,-5.14,-3.29,2.39,1.95,-0.1340025,-0.2342073,0.09917014,-0.4851579,1.048588,-10.31782,2
34383510,6547,5.03,-11.33,-11.37,-5.5,-4.23,2.47,2.72,0.2907624,-0.1826203,0.1059493,-0.7162448,1.061202,-10.1255,2
34493126,6601,5.08,-10.52,-10.39,-5.58,-4.85,2.48,3.27,0.1273235,-0.1030737,0.03001721,-0.3458784,0.6992103,-9.99967,2
34597711,6616,5.41,-9.65,-8.61,-5.26,-5.11,2.43,3.71,0.271738,0.04484343,0.06046607,-0.6045815,0.7627802,-10.44667,2
34712275,6659,4.74,-8.88,-6.82,-4.28,-5.49,2.27,4.2,0.1906073,-0.02322713,0.05284961,-0.5001432,0.5512543,-10.34559,2
34815177,6660,3.76,-6.65,-6.02,-3.47,-5.03,2.15,4.31,0.3199922,0.07295487,0.03142981,-0.4665434,1.38924,-9.289877,2
34925187,6191,4.49,-2.55,-2.7,-2.65,-4.04,2.09,4.13,0.793884,0.1714147,-0.007370764,-0.5311721,1.335461,-9.50125,2
35028039,6270,5.29,0.38,1.84,-2.12,-3.13,2.07,3.9,0.771807,0.2066878,-0.05055078,-0.5519425,0.4953813,-9.422422,2
35136550,6509,5.9,2.2,4.8,-1.86,-2.61,2.08,3.58,0.08237535,0.1839827,-0.06591869,-0.428829,0.7756312,-9.040272,2
35245718,6350,5.8,2.14,5.82,-1.86,-2.82,2.08,3.11,0.07384184,-0.1942353,-0.110215,-0.3963144,0.771153,-9.432792,2
35355365,6213,7.0,1.39,5.56,-2.12,-2.51,2.07,2.43,-0.1703761,0.1974747,-0.07556971,-0.8648724,1.326345,-8.724296,2
35462797,5968,6.16,0.67,3.09,-2.58,-2.01,2.07,1.86,-0.6120164,0.07978871,-0.06287194,-0.6366985,0.6097038,-10.05857,2
35576261,6436,4.84,0.09,0.9,-3.03,-2.16,2.06,1.59,-0.1347083,-0.1112363,-0.005716762,-1.014063,0.6080989,-10.21088,2
35677791,6223,4.07,-0.22,-0.49,-3.4,-2.45,2.06,1.49,-0.3045886,-0.05758335,-0.02009176,-0.8468342,0.7027739,-9.756129,2
35790513,6150,4.61,-0.66,-1.26,-3.8,-3.0,2.07,1.47,-0.14623,-0.1401227,-0.01459241,-0.637474,0.4113357,-9.519309,2
35906783,6229,3.64,-0.09,-1.87,-4.1,-3.68,2.07,1.66,0.05553817,-0.08030717,0.04078806,-0.4600846,1.002553,-9.62324,2
36012982,6060,4.39,1.78,-0.52,-4.11,-4.13,2.07,1.88,0.2047064,0.05480288,0.02242815,-0.5937444,0.7509816,-9.850726,2
36119091,6103,4.89,3.04,1.57,-3.96,-4.28,2.08,2.02,0.2500921,-0.01726533,0.02407821,-0.7222649,0.2935706,-10.03112,2
36230017,6162,4.6,3.73,2.85,-3.61,-4.09,2.1,2.23,0.1647213,0.06993531,0.05673192,-0.4976682,0.6555122,-10.08081,2
36338960,6104,5.09,3.61,3.35,-3.21,-3.77,2.12,2.49,-0.1849717,0.1120865,0.06315647,-0.4809867,0.4447506,-9.829355,2
36445659,6306,5.53,3.23,3.54,-2.86,-4.0,2.15,2.66,0.0922980999999999,-0.07275073,0.01949992,-0.6521639,0.2995407,-9.816986,2
36552096,6400,5.11,2.79,2.55,-2.66,-3.05,2.16,2.94,-0.2075388,0.2373886,0.02658431,-0.4292215,0.5300445,-10.49032,2
36659806,6417,4.7,2.16,1.51,-2.46,-2.33,2.16,3.22,-0.09295055,-0.02683082,0.01515237,-0.5547256,0.658847,-10.44606,2
36774856,6471,4.78,1.11,0.18,-2.44,-1.92,2.17,3.28,-0.3110001,0.0753239,0.01014274,-0.4839778,0.6829167,-10.2807,2
36883902,6454,4.26,-0.02,-1.01,-2.57,-2.26,2.17,3.23,-0.1554687,-0.1374874,-0.01335988,-0.3665219,0.4586553,-9.719225,2
36993485,6282,4.94,-0.75,-2.3,-2.63,-2.52,2.17,3.18,-0.01051485,-0.1338362,-0.007452647,-0.4125525,0.7152315,-9.638674,2
37102438,6393,4.73,-1.03,-2.94,-2.56,-2.81,2.16,3.1,-0.1321675,-0.05377834,0.01420702,-0.7097061,0.6564696,-9.97345,2
37312443,6329,4.65,-1.25,-3.1,-2.5,-2.72,2.16,2.59,0.02810513,-0.01512559,-0.04515421,-0.6613405,0.3941108,-9.855037,2
37416548,6370,4.53,-1.5,-3.42,-2.5,-2.39,2.16,2.26,-0.0986327699999999,0.1095745,-0.04143803,-0.745891,0.6524845,-10.12014,2
37529225,6349,4.22,-1.76,-3.52,-2.67,-1.91,2.17,1.99,-0.1721897,0.09376327,-0.01956798,-0.6654058,0.3616359,-10.36153,2
37629859,6268,3.98,-1.75,-4.08,-3.07,-1.69,2.18,1.99,-0.1568755,-0.02467543,0.01049542,-0.7729341,0.5562317,-10.32655,2
37743714,6112,4.15,-1.72,-3.85,-3.63,-2.41,2.2,2.01,0.0825357699999999,-0.1600829,-0.01024442,-0.6077874,0.6806858,-9.583749,2
37855734,6095,4.3,-1.72,-2.75,-4.04,-3.66,2.21,1.68,0.03337966,-0.1590315,-0.09120208,-0.7173612,0.2135669,-9.614494,2
37967000,6236,4.06,-1.62,-2.52,-4.34,-4.15,2.22,1.26,-0.1008866,-0.03506999,-0.05905288,-0.6145326,0.4385476,-9.476932,2
38084794,6145,4.15,-1.68,-2.71,-4.33,-4.27,2.22,0.86,-0.1274781,0.04939659,-0.0524757,-0.6407259,0.6756636,-9.478488,2
38183951,6046,4.13,-1.81,-2.72,-4.17,-4.37,2.21,0.58,0.005581087,-0.04616039,-0.02265328,-0.7502748,0.5817223,-9.673947,2
38297744,6097,4.02,-1.9,-2.56,-3.89,-4.39,2.2,0.26,-0.0453365,-0.04578023,-0.04004329,-0.6008734,0.446942,-9.69073,2
38415964,6061,3.91,-1.9,-2.75,-3.77,-3.87,2.2,0.08,0.04374809,0.1496556,-0.010724,-0.4839299,0.7874327,-9.461891,2
38511577,6087,4.17,-2.06,-2.63,-3.62,-3.78,2.19,0.02,0.04539337,-0.04290009,-0.008385059,-0.603122,0.4601757,-9.575372,2
38616469,6142,4.08,-2.11,-2.87,-3.52,-3.89,2.19,0.09,-0.09013711,-0.08577213,0.00709986,-0.6802038,0.5083827,-9.952679,2
38730550,6166,4.26,-2.15,-2.98,-3.52,-3.8,2.19,0.27,-0.03190714,0.02279069,0.03537113,-0.7991688,0.3254944,-9.68353,2
38836054,6126,4.52,-2.14,-3.23,-3.49,-3.56,2.19,0.52,-0.02833874,-0.01740436,0.04042045,-0.4887964,0.5590827,-9.903899,2
38948774,6058,4.45,-2.31,-2.72,-3.27,-3.59,2.18,0.75,0.08219482,-0.01230282,0.02174762,-0.4744364,0.6097053,-9.797359,2
39157507,6257,4.66,-2.6,-2.15,-2.8,-3.06,2.16,1.1,-5.337542e-05,0.1419022,0.02738775,-0.7171877,0.4274371,-9.955454,2
39275942,6302,4.36,-2.84,-2.5,-2.81,-2.25,2.16,1.47,0.05492958,0.04359126,0.06456234,-0.6113716,0.5668837,-9.876792,2
39375569,6327,4.74,-3.27,-2.44,-2.79,-2.03,2.16,1.9,0.1016688,-0.06169866,0.05695859,-0.6629686,0.4923621,-9.812298,2
39500215,6323,4.12,-3.69,-2.83,-2.84,-2.33,2.16,2.27,0.0207327,-0.1453451,0.02815858,-0.5662739,0.8535149,-9.760492,2
39594980,6382,4.59,-4.04,-3.26,-2.91,-2.57,2.17,2.4,-0.06973492,-0.003657552,0.008470352,-0.8160746,0.6540547,-9.687385,2
39709092,6269,4.7,-4.25,-3.7,-2.87,-3.07,2.17,2.51,-0.06944379,-0.06746355,0.007193522,-0.6959792,0.2139379,-9.645194,2
39816783,6454,4.11,-4.02,-4.57,-2.84,-2.78,2.16,2.64,-0.01769154,0.03870353,0.00803441,-0.3014787,0.4594574,-9.724131,2
39927001,6219,3.8,-3.56,-5.24,-2.79,-2.37,2.16,2.52,-0.04970497,0.05391292,-0.01991706,-0.4397825,0.3069169,-9.815891,2
40021731,6155,4.18,-2.81,-5.13,-2.97,-2.22,2.17,2.2,0.1523523,-0.06861306,-0.05138593,-0.5961407,0.2473697,-9.780315,2
40143698,6064,3.62,-1.78,-4.23,-3.28,-2.49,2.18,1.77,0.1177295,-0.0778262599999999,-0.0775959,-0.7761399,0.1402593,-10.05256,2
40244071,5979,3.78,-1.0,-3.22,-3.44,-2.95,2.19,1.39,0.3302523,-0.1991505,-0.0906799799999999,-0.40185,-0.05590469,-9.623693,2
40353648,6068,3.52,-0.24,-1.97,-3.41,-3.59,2.19,0.84,0.02702096,-0.02739537,-0.1055805,-0.5875075,-0.0899628299999999,-9.913202,2
40472083,5880,3.26,0.6,-1.39,-3.41,-3.81,2.19,0.24,-0.05859862,0.0307293,-0.0618399,-0.7665145,-0.02306181,-9.569592,2
40580265,5803,3.32,1.19,-1.17,-3.35,-3.54,2.19,0.02,0.02950944,0.1144929,-0.02441952,-0.5426403,0.1695103,-9.541347,2
40683175,5579,2.83,1.78,-1.35,-3.35,-3.21,2.19,0.05,0.00997691,0.01675174,0.02353155,-0.4388501,-0.05937,-9.583116,2
40793693,5495,3.32,2.47,-1.28,-3.28,-3.25,2.19,0.48,0.1567127,0.0523081,0.1093592,-0.7202975,0.1404548,-9.399939,2
40902576,5604,3.85,3.16,-0.25,-3.35,-3.02,2.19,0.83,0.2074714,0.03088982,0.06738536,-0.6040155,0.188604,-9.508639,2
41013774,5715,3.64,3.74,1.4,-3.34,-3.13,2.19,1.09,0.218381,-0.01500188,0.03493342,-0.7021787,-0.0437054,-9.843647,2
41115468,5857,3.66,4.0,2.54,-3.42,-2.83,2.18,1.22,0.1027109,0.08774553,0.03655606,-0.3168555,-0.1953713,-9.895864,2
41233064,5883,3.42,3.93,2.71,-3.36,-2.93,2.19,1.43,-0.01598431,9.98776e-05,0.03549939,-0.6016594,-0.3196257,-9.678879,2
41339987,5683,3.24,3.81,1.84,-3.43,-2.58,2.18,1.65,-0.1253228,0.04812358,0.04281516,-0.4735781,0.03510925,-9.804121,2
41455816,5684,3.8,3.6,1.7,-3.44,-2.45,2.18,1.9,0.0948240499999999,0.0020341,0.05139828,-0.7291287,0.00960227,-9.847734,2
41561953,5819,3.14,3.51,1.32,-3.55,-2.47,2.17,2.15,-0.1668099,0.07176799,0.02576172,-0.5250187,0.1041644,-9.533756,2
41770685,5728,3.68,3.24,2.08,-3.78,-3.09,2.16,2.11,0.02245645,0.01724138,-0.03404414,-0.657912,0.2363023,-9.68544,2
41886491,5769,3.3,3.01,2.41,-3.85,-3.21,2.16,1.48,-0.1581589,0.1257624,-0.1121302,-0.6266958,-0.1512004,-9.846755,2
41987456,5741,3.4,2.47,1.92,-3.86,-3.2,2.16,0.73,-0.08975867,-0.03452117,-0.10968,-0.8107981,-0.1971661,-9.862493,2
42098961,5719,3.09,1.81,0.79,-3.88,-2.91,2.15,0.05,-0.0750888599999999,-0.04087225,-0.09499844,-0.5773667,0.04268409,-9.706965,2
42208545,5602,2.79,1.21,-0.53,-4.05,-2.87,2.15,359.67,-0.28837,-0.02026933,-0.05939007,-0.6435627,0.2890138,-9.808183,2
42316704,5469,3.23,0.94,-0.85,-4.21,-3.39,2.15,359.53,-0.05617335,-0.0752855,-0.03500077,-0.7528535,0.07289045,-9.704079,2
42535779,5644,3.59,0.2,-0.58,-4.34,-3.82,2.15,0.08,-0.01453293,0.02271469,0.05729855,-0.6670151,0.1294068,-10.15899,2
42638537,5701,3.28,-0.97,-1.51,-4.11,-3.96,2.14,0.51,-0.3030391,-0.09457251,0.1103556,-0.4679996,0.02739455,-9.831711,2
42751771,5738,4.36,-2.51,-2.66,-3.72,-4.2,2.13,1.46,-0.1496053,-0.1376738,0.1575444,-0.2906758,-0.01999518,-10.01309,2
42858757,5873,4.66,-4.09,-3.43,-2.99,-5.03,2.09,2.87,-0.08960467,-0.09981573,0.2167787,-0.614108,0.4458435,-9.607449,2
42971532,6215,4.71,-5.61,-4.0,-2.49,-4.67,2.05,4.29,-0.256153,0.08261408,0.229027,-0.4156573,0.2795087,-10.16316,2
43084982,6374,5.68,-6.78,-4.79,-1.93,-4.12,1.99,5.66,-0.03145183,0.03190544,0.2426808,-0.7762718,0.2765607,-9.932931,2
43188559,6325,5.84,-7.85,-5.3,-1.64,-2.9,1.95,7.2,-0.1002297,0.1820914,0.3037029,-0.3663556,0.5652183,-9.962925,2
43292505,6718,5.75,-8.42,-5.15,-1.44,-2.2,1.92,8.47,0.1112744,0.06807187,0.1818215,-0.4520617,0.7540512,-10.40187,2
43402729,6784,6.17,-7.65,-4.23,-1.21,-1.82,1.89,8.92,0.3003391,0.02086922,0.01377722,-0.4598566,0.8721558,-10.04006,2
43505445,6618,5.63,-7.31,-3.38,-1.09,-1.56,1.87,8.74,-0.04907124,0.08496805,-0.06014383,-0.4706061,0.5335826,-10.32427,2
43618704,6706,5.82,-7.31,-3.01,-1.01,-1.56,1.86,8.13,-0.02553129,0.004512665,-0.1276078,-0.4969003,0.6294987,-10.13338,2
43721465,6761,5.09,-7.54,-3.36,-1.0,-1.27,1.86,7.14,-0.1602018,0.04374709,-0.1640142,-0.2032754,0.7978897,-9.956855,2
43834442,6627,4.98,-7.84,-4.14,-0.86,-1.35,1.84,5.94,-0.1571542,-0.009891354,-0.1885058,-0.2511188,0.8774674,-9.77588,2
43941747,6472,5.08,-8.11,-4.85,-0.65,-1.68,1.81,4.67,-0.03310363,-0.06476807,-0.2413444,-0.3503181,0.5032423,-9.854203,2
44054057,6483,4.7,-8.03,-6.05,-0.2,-1.65,1.75,3.29,-0.1115472,0.1312822,-0.1938543,-0.1655582,0.8611736,-9.937104,2
44152432,6465,4.55,-7.76,-6.32,0.29,-1.5,1.68,2.25,0.001774086,0.0911598099999999,-0.1734565,-0.1676352,0.4774533,-10.03745,2
44262741,6368,4.47,-7.04,-6.31,0.8,-0.72,1.61,1.33,0.1454365,0.1529789,-0.09841361,-0.2700103,0.7361035,-10.24252,2
44477452,6541,4.89,-7.29,-5.17,1.33,0.42,1.55,1.01,0.008180737,0.05132933,0.06969321,-0.1027185,0.5968404,-10.40778,2
44591700,6431,4.8,-8.05,-5.44,1.29,0.7,1.55,1.41,-0.1836375,0.117106,0.03534355,-0.2366377,0.6515032,-10.30261,2
44702973,6437,4.25,-7.9,-6.28,1.6,0.67,1.51,1.58,-0.1620099,0.09376851,0.05735511,-0.55392,0.9377564,-10.05793,2
44812031,6158,4.75,-7.27,-6.06,2.86,1.57,1.34,1.94,0.1366701,0.2175707,0.0854794,-0.3162778,0.9831848,-9.348443,2
44915489,6319,4.86,-6.86,-5.25,4.17,3.16,1.18,2.29,0.05269318,0.2475677,0.1045716,-0.1476536,0.5423708,-9.920968,2
45024963,6430,5.28,-6.62,-4.37,5.23,4.5,1.06,2.74,-0.04958221,0.2658221,0.1170803,-0.1162785,0.6223311,-9.583349,2
45136744,6475,4.92,-6.52,-3.89,5.78,5.3,0.99,3.3,0.08893935,0.005709749,0.05963273,-0.01540976,0.4963926,-9.899347,2
45244072,6568,4.92,-6.36,-3.87,5.89,5.31,0.98,3.76,0.1046587,-0.0983774699999999,0.02577343,0.001606175,0.7660983,-9.437449,2
45353708,6473,5.14,-6.22,-4.14,5.65,5.15,1.01,4.09,0.1169732,-0.1284818,0.02272115,0.05526191,0.7477486,-9.68049,2
45467736,6556,5.17,-6.06,-4.34,5.25,4.72,1.05,4.32,-0.1185306,-0.0300029,0.02598052,0.1045742,0.6889185,-9.455529,2
45689251,6548,4.89,-5.56,-3.6,5.0,3.73,1.07,4.65,0.04029514,0.02772104,-0.003471478,-0.02915411,0.4892732,-9.775476,2
45788740,6642,4.94,-5.27,-3.48,4.95,3.63,1.08,4.67,0.1273056,-0.06174492,-0.00320048,0.07178845,0.7427493,-9.839959,2
45899450,6676,4.86,-4.98,-3.51,4.92,3.46,1.08,4.53,0.1667301,-0.1234511,-0.04432858,0.1107338,0.4986143,-9.875247,2
46009788,6492,4.95,-4.75,-3.45,4.89,3.35,1.08,4.21,0.1214929,-0.1065171,-0.05880517,-0.1259029,0.8458007,-9.708914,2
46112521,6568,4.8,-4.62,-3.35,5.01,3.28,1.07,3.84,-0.116628,0.1137087,-0.06456269,-0.03065854,0.6496765,-9.66529,2
46220791,6511,4.68,-4.45,-3.26,5.12,3.42,1.07,3.39,-0.1153106,0.1154082,-0.105362,-0.005710815,0.625021,-9.867495,2
46332020,6360,4.98,-4.24,-2.95,5.17,3.61,1.06,2.74,0.114959,0.007010254,-0.0962918299999999,-0.03540051,0.5702039,-9.880849,2
46443456,6405,4.84,-3.95,-3.1,5.03,3.88,1.07,2.22,0.01188812,0.1075276,-0.04090286,0.02962769,0.7452458,-9.598886,2
46546430,6296,4.8,-3.8,-2.86,4.69,4.13,1.09,2.05,0.1461942,-0.0426466,-0.004055855,0.3166956,0.8720705,-9.586378,2
46656744,6442,5.14,-3.65,-2.8,4.36,3.68,1.12,2.2,-0.04571965,-0.1742215,0.019464,0.05119126,0.67507,-9.820836,2
46766543,6461,4.61,-3.57,-2.96,4.0,3.14,1.14,2.45,-0.1194922,-0.0253045,0.04588018,0.1051178,0.6067948,-9.874682,2
46970578,6514,4.76,-3.29,-2.64,3.98,2.44,1.14,3.3,-0.1250315,0.06614716,0.1392964,0.08995456,0.4927551,-10.23113,2
47193955,6514,5.07,-2.64,-3.17,4.58,2.73,1.11,4.82,-0.2048293,0.04396032,0.08778509,0.3439626,0.5810239,-9.76802,2
47300190,6513,5.33,-2.42,-3.09,4.86,2.87,1.1,5.06,0.1052719,0.02766703,0.007776619,0.4284455,0.7345257,-9.769983,2
47411754,6471,4.81,-2.2,-2.93,5.2,2.91,1.08,4.84,-0.03487969,0.06249671,-0.04849527,0.5399885,0.785754,-9.664279,2
47517090,6466,4.53,-1.99,-2.48,5.47,2.69,1.07,4.33,0.1603334,-0.1014346,-0.1030192,0.2572958,0.5334937,-9.825707,2
47629692,6243,4.17,-1.63,-2.65,5.77,2.83,1.06,3.49,-0.06131234,0.0335074,-0.1365201,0.2738861,0.7980666,-9.794415,2
47741771,6270,4.3,-1.47,-2.21,6.02,3.41,1.06,2.49,-0.0149355,0.2527003,-0.1488414,0.3579653,0.5386193,-9.518586,2
47851061,6102,4.17,-1.37,-1.46,6.29,4.12,1.05,1.45,0.0824551699999999,0.1528764,-0.146373,0.4080624,0.519303,-9.722986,2
47958293,5985,3.91,-1.44,-0.62,6.41,4.41,1.05,0.21,0.01891208,0.1004314,-0.1872028,0.2905876,0.4173943,-9.553086,2
48059271,5979,3.63,-1.51,-1.0,6.21,4.52,1.05,358.95,0.01128905,-0.07371624,-0.2346874,0.2779487,0.7238753,-9.711542,2
48166953,5854,3.3,-1.75,-1.02,5.86,4.17,1.06,357.75,0.01513087,-0.0997286399999999,-0.1678716,0.2597055,0.7836388,-9.470077,2
48283744,5736,3.15,-2.0,-0.69,5.56,3.98,1.07,356.82,-0.01430183,-0.02595591,-0.08419132,-0.005404403,0.2596174,-9.204961,2
48385745,5657,3.55,-2.11,-1.51,5.3,4.51,1.08,356.86,-0.01272984,-0.05059441,0.09270508,0.4756599,0.9112009,-9.239579,2
48497581,5674,4.11,-2.5,-1.74,5.36,4.66,1.08,357.74,-0.09132794,-0.03597953,0.1606642,0.3289927,0.8292826,-9.261441,2
48606508,5777,4.45,-2.84,-1.98,5.43,4.0,1.08,358.82,-0.0633612499999999,-0.1398744,0.1744824,0.4068609,0.5617567,-9.271121,2
48720368,6081,4.8,-3.1,-2.04,5.55,3.49,1.07,0.19,-0.01147331,-0.0004579514,0.2333932,0.4042227,0.3822347,-9.87582,2
48828972,6197,4.63,-3.12,-2.48,5.95,3.4,1.05,1.73,-0.02583692,-0.02242143,0.2243639,0.8350286,0.5445778,-9.855485,2
48930940,6331,4.85,-3.06,-3.1,6.35,3.74,1.03,2.77,-0.2156724,0.0727068399999999,0.163338,0.476993,0.5726739,-9.829906,2
49038335,6413,5.09,-3.08,-3.64,6.79,4.08,1.0,3.39,-0.1357456,0.02765546,0.05776439,0.3715226,0.4967002,-10.44731,2
49145657,6403,5.47,-3.06,-3.28,7.05,4.63,0.99,3.58,0.08827713,0.09244951,0.006822867,0.612487,0.602563,-9.89225,2
49582177,6496,4.85,-4.16,-3.87,5.5,4.58,1.09,2.24,-0.08923364,-0.1671272,-0.01774423,0.4575714,1.018906,-10.29319,2
49695538,6273,4.57,-4.37,-4.31,4.61,3.7,1.16,2.03,-0.1411189,-0.02767427,-0.03003557,0.3574301,0.4754896,-9.884744,2
50029652,6144,4.94,-3.86,-2.83,2.78,1.88,1.29,2.58,0.1393137,-0.10614,0.0583072,0.2866301,0.7084731,-10.07297,2
50129688,6283,4.89,-3.9,-3.03,2.59,1.68,1.3,2.94,-0.02094861,-0.04296626,0.06093046,0.2973399,0.4124306,-9.796959,2
50241980,6273,4.31,-3.98,-3.8,2.4,1.93,1.32,3.15,-0.5800191,0.1089356,0.05470575,0.1618035,0.6634834,-10.37685,2
50461535,6300,4.6,-3.78,-4.89,1.98,2.04,1.35,3.18,-0.2023408,-0.02889476,-0.03582944,0.07599796,0.4967394,-9.699917,2
50571350,6328,5.03,-3.28,-4.85,1.67,1.91,1.37,2.75,0.002320519,-0.0811052699999999,-0.07186799,0.2862476,0.6072072,-9.816518,2
50678262,6344,5.05,-2.61,-4.11,1.2,2.2,1.39,2.2,0.2569611,0.03150018,-0.08611649,0.3698429,0.7762501,-9.801281,2
50793071,6392,4.97,-1.85,-3.43,0.48,2.26,1.42,1.77,0.1942108,-0.1211604,-0.0237877,0.3729737,0.8123421,-10.05075,2
50900207,6319,4.89,-1.27,-2.27,-0.2,2.01,1.44,1.56,0.1129257,-0.07913625,-0.03487151,0.1155859,0.4449194,-10.3479,2
51009713,6387,4.47,-1.06,-0.97,-0.72,1.0,1.45,1.56,0.1416933,-0.1800806,0.003862008,0.0893500099999999,0.404303,-10.37094,2
51218721,6408,4.65,-1.24,-1.72,-3.18,-1.32,1.49,2.12,-0.1550945,-0.3455294,0.06438831,0.4811662,0.4367067,-9.93344,2
51331692,6175,4.58,-1.37,-2.37,-4.52,-4.03,1.53,2.58,-0.01145724,-0.5193394,0.02815396,0.4674721,0.4636059,-9.619595,2
51433292,6243,4.5,-1.43,-2.19,-5.11,-6.16,1.54,2.63,-0.05868392,-0.1803316,-0.03831269,-0.06701853,0.7289678,-10.34443,2
51537797,6271,4.43,-1.53,-0.94,-5.16,-6.89,1.54,2.19,0.4510561,-0.03292225,-0.1012771,0.0996441099999999,0.5293574,-9.416196,2
51654498,6275,4.82,-1.85,-1.15,-5.04,-5.5,1.54,1.47,-0.1591711,0.2256806,-0.08286604,0.6545233,0.8932674,-9.160241,2
51756517,5908,4.5,-2.36,-1.57,-4.8,-4.71,1.53,0.98,-0.4271711,0.2568467,-0.02620311,0.1284347,0.7400868,-9.435639,2
51874572,5828,4.44,-3.04,-1.62,-4.65,-4.6,1.52,0.9,0.08299572,0.002709942,0.03448109,0.2251413,0.4453228,-9.636059,2
51975208,6074,4.5,-3.45,-1.83,-4.51,-4.13,1.51,1.25,0.1230567,0.09089195,0.0772101699999999,0.3528464,0.4606352,-9.427783,2
52080255,6144,4.6,-3.8,-2.2,-4.21,-3.79,1.49,1.72,0.1023836,-0.0938092299999999,0.06780052,0.3270429,0.4066908,-9.68055,2
52197196,6254,4.56,-3.92,-2.79,-3.98,-3.6,1.48,2.13,0.0042866,0.009341109,0.07376492,0.09664968,0.6649179,-9.822087,2
52309874,6224,4.77,-4.02,-2.88,-3.65,-3.79,1.46,2.58,0.2135544,-0.09739298,0.05551702,0.1983662,0.547088,-9.777176,2
52405178,6187,4.92,-3.92,-2.81,-3.39,-4.03,1.44,3.03,0.09885968,-0.1050788,0.1083164,0.282434,0.5828651,-9.958356,2
52516019,6318,5.06,-3.66,-2.29,-2.87,-4.25,1.4,3.68,0.2847992,-0.001561457,0.1011537,0.09866074,0.3221576,-10.19983,2
52634006,6392,4.56,-3.38,-2.39,-1.96,-4.23,1.35,3.96,-0.1187703,0.07646666,0.01354995,0.425409,0.62712,-9.825827,2
52741274,6330,5.06,-3.51,-1.87,-1.06,-3.64,1.29,3.83,0.2813319,0.177233,-0.04556816,0.2207477,0.7680072,-10.20063,2
52850565,6567,4.97,-3.68,-2.56,0.64,-1.55,1.18,3.42,-0.6375525,0.5679674,-0.02910008,-0.3552732,0.2486199,-10.49059,2
52951790,6524,5.62,-3.82,-2.84,1.93,0.98,1.1,2.79,0.4107209,0.3082308,-0.139993,0.234801,0.2994441,-9.637267,2
53060555,6364,6.41,-4.01,-3.54,2.84,2.37,1.04,1.89,-0.5167156,0.1469643,-0.1086881,0.3239063,1.120075,-9.842516,2
53177518,6113,5.99,-4.15,-3.19,3.2,2.21,1.01,0.81,0.4263218,-0.06732969,-0.1467704,0.1095683,0.7861199,-9.981942,2
53388867,6311,4.68,-3.74,-3.68,3.2,1.95,1.01,359.56,0.1609349,0.120547,-0.05757869,-0.03379906,0.9994093,-9.96979,2
53504739,6122,3.95,-3.68,-2.97,3.01,2.99,1.03,359.25,0.2869774,0.05285467,-0.03417754,0.2805376,0.8296227,-10.09807,2
53613766,6227,4.31,-3.62,-2.94,2.73,3.73,1.04,359.04,-0.1153642,0.1207073,-0.008996509,0.2542544,0.8088549,-9.591029,2
53724194,6088,4.54,-3.98,-3.12,2.28,3.75,1.07,358.81,-0.1513747,0.05048262,-0.05939763,0.1865147,0.487952,-9.761236,2
53831048,6139,4.49,-5.41,-3.85,1.65,3.23,1.12,358.66,-0.08630601,-0.1327099,-0.04787371,0.1400724,0.6068476,-9.598415,2
53936452,6240,4.08,-6.9,-5.76,0.93,2.35,1.2,358.61,-0.2658497,-0.1321796,-0.03430725,-0.1428985,0.7696228,-9.944265,2
54044231,6017,4.11,-7.86,-7.28,0.07,1.53,1.32,358.48,-0.2952375,-0.1459479,-0.02390724,-0.4141984,0.9008801,-9.728176,2
54160552,6123,3.81,-8.38,-7.17,-0.65,0.4,1.42,358.3,-0.1582507,-0.05173487,-0.02705068,-0.3330075,0.7123147,-10.07548,2
54276750,5939,3.88,-8.22,-7.32,-1.62,0.28,1.56,358.21,-0.1142442,-0.01598209,0.01138924,-0.2256755,0.788048,-9.500932,2
54376587,5916,4.09,-7.58,-6.81,-2.04,-0.66,1.62,358.39,0.02980158,-0.12622,0.01696299,-0.3912502,0.747921,-9.532795,2
54483716,5960,5.01,-6.26,-4.97,-2.51,-1.91,1.68,358.65,0.5100618,-0.2515228,0.005173882,-0.2545443,0.7738021,-9.774349,2
54596541,6241,4.8,-5.52,-3.03,-2.79,-2.41,1.71,358.93,0.3807054,-0.1067787,0.05364512,-0.005665361,0.7659864,-10.05545,2
54702081,6382,4.54,-5.15,-2.35,-2.79,-2.56,1.71,359.32,0.1873273,-0.0760347299999999,0.0588496,-0.1398707,0.722616,-9.842253,2
54815433,6230,4.06,-4.97,-3.39,-2.89,-1.93,1.72,359.44,-0.18273,0.1497522,-0.007774404,0.1133359,0.5602521,-9.680932,2
54919694,6258,3.66,-4.77,-5.16,-3.7,-1.1,1.78,359.37,-0.2612714,0.1238138,0.006323383,0.1240455,0.8885325,-9.297107,2
55030045,6101,4.58,-4.36,-5.73,-4.94,-1.54,1.88,359.55,0.02946201,-0.1567559,0.04847924,-0.005502475,1.089051,-9.301785,2
55143003,6151,4.79,-3.5,-4.53,-5.72,-2.96,1.94,0.15,0.2487363,-0.2857564,0.07715751,-0.09500108,0.5812585,-9.581646,2
55255558,6353,4.92,-2.53,-3.52,-5.9,-3.36,1.95,0.79,0.1008129,-0.01594477,0.09383016,-0.178654,0.3655584,-9.884795,2
55370154,6311,5.1,-1.94,-2.42,-5.4,-2.83,1.93,1.36,0.06138024,0.1459127,0.09055612,-0.1198105,0.4022266,-10.16736,2
55484735,6463,4.88,-1.66,-1.93,-4.9,-2.39,1.92,1.98,0.1117385,-0.03266782,0.1129552,-0.1644834,0.509263,-9.795485,2
55582533,6494,4.62,-1.52,-2.52,-4.55,-1.84,1.91,2.46,-0.0821192,0.09884087,0.09446816,-0.2693612,0.5623985,-9.779473,2
55802416,6374,4.75,-1.3,-2.26,-4.04,-1.51,1.89,3.51,0.1100066,-0.05872554,0.08303674,-0.2171423,0.5087697,-9.890821,2
55920578,6466,4.8,-0.89,-2.25,-3.93,-1.71,1.89,3.88,0.05046289,-0.0624412,0.01043706,0.0846498,0.5871839,-9.436088,2
56032863,6307,4.88,-0.76,-1.92,-3.8,-2.04,1.89,4.02,-0.05517529,0.01357565,0.01237676,-0.1846418,0.6901826,-9.728928,2
56133057,6362,4.98,-0.75,-1.16,-3.68,-2.19,1.89,4.08,0.1063921,-0.05042334,0.01891925,-0.3565764,0.3767661,-9.994459,2
56249672,6477,4.71,-0.73,-1.34,-3.33,-2.14,1.88,4.18,0.06096992,0.1217431,0.03426263,-0.3597003,0.8167547,-9.732231,2
56356039,6266,4.36,-0.39,-1.54,-3.4,-2.0,1.88,4.22,-0.1350953,0.02363214,-0.02329527,-0.09437635,0.8153601,-9.432991,2
56573756,6234,4.78,-0.05,-0.21,-3.54,-2.49,1.88,3.81,0.2520892,-0.09799431,-0.06190295,-0.4423389,0.7486751,-9.657649,2
56796742,6355,4.45,-0.42,-1.29,-3.19,-2.63,1.88,3.08,0.006045953,0.00968191,-0.05717118,-0.1436033,0.7771213,-9.528459,2
56888057,6299,5.0,-0.83,-1.27,-2.87,-2.56,1.88,2.89,0.004194766,0.06603903,-0.01577303,-0.2752369,0.7425172,-9.678475,2
57006953,6273,4.48,-1.29,-1.15,-2.54,-1.89,1.87,2.74,-0.0553045,0.1251489,0.003859164,-0.1863272,0.8368993,-9.459113,2
57117700,6423,4.86,-1.75,-1.16,-2.35,-1.17,1.87,2.74,0.06915069,0.03095963,0.001276436,-0.2984878,0.6381524,-10.06495,2
57215542,6495,4.62,-2.12,-1.6,-2.24,-0.84,1.86,2.82,-0.02989483,0.0196966,0.017298,-0.1462509,0.6751042,-9.784123,2
57321247,6399,4.25,-2.32,-2.5,-2.25,-0.81,1.86,2.84,-0.006210708,-0.07233762,0.010957,-0.4368466,0.8540329,-9.881647,2
57540670,6383,4.98,-2.45,-3.0,-2.31,-1.41,1.87,2.47,0.1689578,-0.1194004,-0.05919074,-0.13608,0.721631,-9.930771,2
57655742,6189,4.88,-2.52,-2.69,-2.27,-1.74,1.87,2.27,0.09644496,0.02770868,-0.03879259,-0.3497084,0.5335646,-9.745464,2
57758255,6333,4.64,-2.59,-2.51,-2.23,-1.74,1.86,2.18,0.184481,-0.1143128,-0.04123145,-0.2041762,0.7945101,-9.859854,2
58081233,6229,4.65,-3.29,-2.87,-2.09,-1.54,1.86,1.64,0.1061023,-0.03901235,-0.01355207,-0.5709154,0.879665,-9.899787,2
58195486,6346,4.56,-3.64,-3.07,-2.17,-1.68,1.86,1.42,-0.08868013,-0.005238712,-0.01194189,-0.3975154,0.685167,-9.797319,2
58306050,6388,4.51,-3.93,-3.11,-2.32,-1.73,1.87,1.34,0.01343097,-0.01536362,0.007110956,-0.4735605,0.8283644,-9.881237,2
58412675,6253,4.78,-4.31,-3.29,-2.26,-2.25,1.87,1.55,-0.08121137,-0.04434271,0.04158239,-0.1142531,0.8247671,-9.554649,2
58528500,6401,4.69,-4.63,-3.7,-2.22,-2.47,1.86,1.99,-0.1829717,0.004524991,0.1048627,-0.5701162,0.6036725,-10.08577,2
58625737,6408,4.86,-4.83,-3.92,-2.03,-2.6,1.85,2.42,0.03957269,-0.1455428,0.04455401,-0.5442064,0.435636,-10.0381,2
58724714,6315,4.62,-4.7,-4.71,-1.92,-2.08,1.84,2.85,-0.007736436,0.01500789,0.04411987,-0.2494234,0.7494799,-9.994389,2
58847440,6389,4.62,-4.47,-4.81,-1.72,-1.7,1.82,3.15,-0.002198059,0.01908413,0.05705982,-0.3835458,0.7849374,-9.568887,2
58952675,6271,5.0,-4.29,-4.17,-1.57,-1.77,1.81,3.2,0.1841114,-0.06960139,-0.01499439,-0.2280113,0.6752627,-9.798709,2
59063124,6282,4.62,-4.13,-3.66,-1.41,-1.91,1.8,3.17,0.1300658,-0.01310654,-0.01914326,-0.1629115,0.7552669,-9.929713,2
59167403,6400,5.25,-4.21,-3.13,-1.19,-2.12,1.78,3.0,0.09743417,-0.005363175,-0.04697232,-0.2295322,0.7262007,-9.614372,2
59275995,6399,4.63,-4.46,-3.33,-0.93,-2.27,1.76,2.61,0.03660027,0.0794278,-0.06027597,-0.5304542,1.055143,-9.609823,2
59389796,6386,4.93,-4.93,-3.85,-1.0,-1.16,1.77,2.2,-0.17057,0.2330931,0.0004049405,-0.2105476,0.9331195,-10.02068,2
59493605,6396,4.39,-5.25,-4.21,-0.93,-0.54,1.76,1.9,-0.100686,0.1248115,-0.05348573,-0.2234346,0.8835454,-9.504788,2
59598106,6214,4.77,-5.54,-4.47,-1.06,-0.32,1.78,1.83,0.1317271,-0.1648277,0.0004260169,0.002410522,1.232021,-9.842954,2
