TimeUS,RPM,Curr,DesRoll,Roll,DesPitch,Pitch,DesYaw,Yaw,GyrX,GyrY,GyrZ,AccX,AccY,AccZ,Guasto
0,4041,3.54,-0.2,-0.01,0.35,3.52,3.67,3.61,0.07574025,-0.004984844,-0.005308043,0.5323346,0.03433758,-9.821508,2
107028,5025,3.72,-0.2,-0.15,0.1,3.4,3.67,3.52,-0.01295239,-0.1172207,-0.01986851,0.2671296,0.4649065,-10.90469,2
210222,5692,3.93,-0.22,-0.44,-0.37,2.13,3.67,3.74,0.04765044,-0.2290407,0.08627426,-0.223837,0.8031342,-11.7728,2
440747,6123,2.07,-0.46,-0.66,-0.66,-1.89,3.67,6.69,0.1309323,-0.06848355,0.295099,-0.0780725,0.5409661,-10.40854,2
545010,5371,1.54,-0.85,0.58,0.03,-1.79,3.67,8.43,0.1428167,0.1180698,0.3341125,-0.1907222,0.1264557,-10.06064,2
644464,4926,1.51,-1.42,1.6,0.6,-0.86,3.66,10.29,0.2219367,0.2223262,0.3206816,-0.1386487,0.248063,-9.835804,2
761907,4594,1.64,-2.46,1.18,1.16,0.22,3.64,12.48,-0.1586046,0.03980624,0.3128805,0.02927371,0.4959804,-9.972474,2
978329,4528,2.72,-4.39,-0.64,1.55,0.39,3.61,15.29,-0.1031404,-0.05638946,0.1493398,0.2459643,0.5159221,-9.636365,2
1086128,4271,2.57,-4.91,-2.37,1.59,0.27,3.21,15.81,-0.1301527,-0.01511343,0.02751469,0.003619245,0.8391087,-9.584912,2
1194756,4487,2.0,-5.49,-2.96,1.42,0.41,0.59,15.69,-0.02505225,0.118085,-0.09577628,0.07424955,0.6246182,-9.435663,2
1300424,4309,2.62,-5.64,-2.95,1.2,0.44,356.29,14.5,0.3518104,-0.0883890799999999,-0.3031367,0.1926549,0.6248379,-9.809861,2
1409733,4013,2.47,-5.76,-2.36,1.09,0.62,353.84,12.35,0.1528241,-0.09231926,-0.4293409,0.05968728,0.1388311,-9.838011,2
1524920,3675,2.87,-6.12,-2.39,1.19,1.41,353.63,9.56,-0.3364699,0.332558,-0.3974816,-0.2670789,0.4079956,-10.05656,2
1624314,4161,2.9,-6.65,-2.81,1.15,1.72,353.63,7.14,-0.084443,0.00161005,-0.375908,-0.04696966,0.5697609,-9.814043,2
1741964,4366,2.12,-7.1,-3.67,1.16,2.03,353.63,4.84,-0.1880028,0.07931139,-0.3190618,-0.01750281,0.8094581,-9.605684,2
1851259,4701,2.16,-7.2,-4.27,1.0,2.04,353.65,2.87,-0.1737115,0.03147591,-0.3086948,-0.08440079,0.5413266,-9.60154,2
1955364,4748,1.95,-6.98,-4.4,0.72,1.7,353.68,1.28,-0.03102211,-0.05140574,-0.2354366,0.1206414,0.6813359,-10.00045,2
2066033,4899,2.38,-6.77,-4.11,0.34,1.45,353.73,359.92,-0.08288323,0.0523395,-0.2055583,-0.1693349,0.7288442,-9.479812,2
2178214,4755,2.12,-6.71,-4.29,-0.16,1.31,353.79,358.66,-0.1879566,0.01946565,-0.1536943,-0.1739211,0.7425748,-9.699098,2
2286290,4759,2.16,-6.66,-4.21,-0.42,0.53,353.82,357.92,-0.01664325,-0.0846820499999999,-0.08875695,-0.01830344,0.6956449,-9.501889,2
2394463,4948,2.12,-6.63,-3.86,-0.54,-0.12,353.83,357.81,0.02521033,-0.07687081,0.01367144,-0.2035275,0.4172953,-9.903563,2
2503206,4993,2.01,-6.33,-4.12,-0.76,-0.08,353.86,358.16,-0.1319317,0.05717748,0.06388878,-0.158323,0.8408356,-10.01007,2
2611988,4894,2.02,-6.17,-4.04,-1.11,0.12,353.9,358.7,-0.06512803,0.06754549,0.1168011,-0.1691891,0.8243984,-9.976879,2
2718918,4826,2.2,-6.15,-4.06,-1.52,0.0,353.94,359.33,-0.002331766,-0.03933058,0.1076067,-0.01922408,1.042687,-9.692384,2
2828771,4805,2.31,-6.2,-4.08,-1.78,-0.65,353.97,0.02,0.03906018,-0.1837807,0.0959678999999999,-0.2136223,0.726618,-10.65108,2
2934978,4896,2.4,-6.12,-4.39,-1.97,-1.12,353.99,0.68,-0.1163679,-0.004397453,0.08435499,-0.3867047,0.7109977,-10.9761,2
3055619,5153,2.24,-5.91,-4.5,-2.06,-1.2,354.0,1.27,-0.1058726,0.1235954,0.0584949,-0.3438425,0.6655711,-10.69822,2
3161902,5107,2.1,-5.6,-4.26,-2.22,-0.82,354.02,1.47,0.08374056,-0.0236001,0.0242592,0.04721525,0.7236257,-10.88778,2
3262668,5027,2.31,-5.26,-4.13,-2.31,-0.67,354.03,1.45,0.08170447,0.04176548,-0.01349047,0.0197881,0.8382487,-10.49215,2
3378896,5017,2.29,-4.89,-4.1,-2.51,-0.99,354.04,1.2,-0.03363069,-0.06480624,-0.04799335,-0.2321786,0.5938444,-10.61929,2
3484699,5053,2.1,-4.44,-4.27,-2.58,-1.14,354.05,0.88,0.02579502,-0.03410708,-0.06282262,-0.2836796,0.7377728,-10.38863,2
3595431,5017,2.68,-3.92,-4.33,-2.92,-0.93,354.07,0.56,0.05913875,0.04325606,-0.05807998,-0.1472321,0.9601445,-10.13512,2
3702282,5060,2.31,-3.37,-4.1,-4.14,-2.24,354.15,0.24,-0.003659983,-0.3061563,-0.0867017,-0.1864298,0.7718981,-10.21932,2
3812757,5095,2.07,-2.9,-3.34,-5.08,-4.22,354.2,359.9,0.05711997,-0.2857002,-0.07218801,-0.2683569,0.5416403,-10.05818,2
3919181,5030,2.19,-2.58,-2.66,-5.59,-5.15,351.75,357.16,0.1053002,-0.04957549,-0.04988475,-0.2054902,0.6960715,-9.729642,2
4030993,5070,2.43,-2.45,-2.59,-5.25,-5.1,351.74,357.1,0.02782584,0.01651725,-0.00551417,-0.4467046,0.7567928,-9.939707,2
4134664,5058,2.34,-2.43,-2.96,-3.9,-3.75,351.68,357.1,-0.001052264,0.1654559,0.01836947,-0.172896,0.7642671,-9.877178,2
4243751,5082,2.15,-2.32,-3.51,-2.72,-2.32,351.63,357.0,-0.06971343,0.2865687,0.04203051,-0.1893675,0.7620894,-9.963232,2
4351769,5037,2.18,-2.11,-3.19,-1.77,-1.27,351.59,357.08,0.0697585,0.2206696,0.07909393,-0.1258621,0.9946373,-9.59111,2
4460679,4947,1.86,-1.93,-2.24,-1.25,-0.74,351.58,357.33,0.09130259,0.0733145,0.05989138,-0.1357736,0.7942969,-9.774441,2
4573459,4695,1.72,-1.92,-1.32,-0.95,-0.3,351.57,357.53,0.2973846,0.06779854,0.02954631,-0.44816,0.4844709,-9.746899,2
4676941,4516,1.98,-2.11,-1.59,-0.77,-0.03,351.56,357.52,-0.2613409,0.06548334,0.05096659,-0.2773705,0.7621732,-9.941736,2
4787503,4592,1.82,-2.59,-2.04,-0.53,-0.14,351.55,357.44,-0.1228481,-0.04603558,-0.02841013,-0.2069471,0.6613478,-9.476505,2
5005067,4661,1.73,-2.71,-2.53,-0.61,-0.73,351.55,357.82,0.05408504,-0.0595245,-0.0768641199999999,-0.401735,0.446578,-10.24481,2
5094558,4727,1.69,-2.96,-2.14,-0.4,-0.98,351.54,357.18,0.08419258,0.02033667,-0.06747295,-0.3709736,0.759449,-10.13685,2
5209700,4698,2.34,-3.27,-2.81,0.12,0.09,351.51,356.44,-0.290188,0.3103652,-0.03906639,-0.1406626,0.7858861,-9.561492,2
5308894,4828,2.09,-3.2,-3.32,0.54,1.01,351.49,356.2,0.009061262,0.0967291099999999,-0.04638118,-0.1170896,0.7585186,-10.0804,2
5421176,4841,2.15,-2.87,-3.49,0.73,1.79,351.48,355.96,-0.06308413,0.1177817,-0.04756987,-0.1933726,0.6878179,-9.937595,2
5527756,4824,2.33,-2.49,-3.5,0.73,1.75,351.48,355.6,-0.06975597,0.003686093,-0.05987187,-0.1572034,0.6883375,-9.735733,2
5635612,5065,2.42,-2.17,-2.98,0.48,1.34,351.49,355.47,-0.00375504,0.003223648,-0.03467683,-0.251752,0.617933,-10.16406,2
5745007,4998,2.19,-1.47,-2.26,0.1,0.77,351.5,355.83,0.1604938,-0.1120656,-0.03877733,-0.0894275499999999,0.5646781,-9.838292,2
5860800,4980,1.93,-1.02,-1.15,-0.07,0.12,351.51,355.82,0.134224,-0.06188605,-0.06493055,-0.2081679,0.5528947,-10.12649,2
6071444,4928,2.54,-0.9,-1.05,0.13,0.46,351.5,355.21,-0.1931384,0.0767136499999999,-0.08388576,-0.1548648,0.5658837,-9.744478,2
6190730,5019,2.12,-1.05,-1.52,0.05,0.46,351.5,354.73,0.08761612,-0.004564572,-0.09099333,-0.2445062,0.56815,-9.94506,2
6300758,4949,2.35,-1.36,-2.0,-0.45,0.5,351.51,354.07,-0.161654,-0.03041758,-0.05837305,-0.1460517,0.7809163,-10.25905,2
6400400,5028,2.06,-1.68,-2.16,-0.86,-0.11,351.53,353.58,0.04133816,-0.1190787,-0.06516559,-0.1921756,0.806888,-9.821195,2
6514710,5040,2.29,-1.97,-2.62,-1.54,-1.17,351.55,353.12,-0.08222636,-0.1242593,-0.06242549,-0.3367242,0.7291504,-9.821494,2
6732988,5169,2.27,-2.36,-2.94,-1.62,-2.28,351.55,352.53,-0.0794145,0.08475602,0.02755249,-0.2079728,0.6532198,-9.719524,2
6836040,5120,1.87,-2.54,-2.83,-1.2,-2.28,351.53,352.63,-0.03650675,0.06268767,0.0995504599999999,-0.3988761,0.5312992,-9.621612,2
6947245,5007,2.04,-2.77,-3.26,-0.84,-1.65,351.51,352.94,-0.197885,0.1882839,0.08343589,-0.253089,0.6251878,-9.310778,2
7056763,4906,2.33,-2.92,-3.76,-0.8,-0.88,351.51,353.28,-0.1479851,0.09903505,0.07963783,0.01478401,0.7654275,-9.203232,2
7161636,4819,1.99,-3.08,-3.87,-0.91,-0.98,351.52,353.67,-0.0572249,-0.01729302,0.0801311,-0.1556338,0.6702934,-8.9559,2
7272511,4736,2.24,-2.85,-4.04,-1.22,-1.14,351.54,354.18,-0.04015011,-0.01074253,0.0734017399999999,-0.06061134,0.525215,-9.040215,2
7378994,4816,1.72,-2.51,-3.56,-1.57,-1.62,351.55,354.76,0.2334698,-0.2413758,0.07464989,-0.1574515,0.4337222,-8.956593,2
7488012,4657,1.44,-2.32,-2.66,-1.86,-1.74,351.56,355.29,0.2434289,-0.00464818,0.0973921299999999,-0.2179706,0.5790693,-8.952378,2
7597243,4507,1.96,-2.2,-2.11,-2.04,-1.79,351.57,355.78,-0.04524593,-0.05547402,0.08958521,0.001653594,0.481752,-9.324203,2
7699017,4409,2.05,-2.4,-2.17,-2.01,-2.13,351.57,356.17,-0.2851372,-0.02942452,0.03635118,-0.3679267,0.5676289,-9.276759,2
7811416,4247,3.07,-2.73,-2.4,-1.97,-2.29,351.57,356.25,-0.1107126,-0.001930156,0.004340502,-0.3538373,0.7018532,-9.248182,2
8034198,4364,2.34,-2.92,-3.55,-2.02,-1.62,351.57,355.54,0.00401449,0.0906956399999999,-0.09448018,-0.1757682,0.8090332,-8.930906,2
8148929,4730,2.26,-2.91,-3.58,-2.02,-1.33,351.57,354.81,0.1441169,-0.005585505,-0.1122622,-0.2614124,0.6792631,-9.083752,2
8252978,4767,2.22,-2.7,-3.75,-2.14,-0.87,351.58,354.04,-0.1155857,0.08788934,-0.1510322,-0.363846,0.5257657,-9.439477,2
8358931,4880,2.11,-2.61,-3.19,-2.19,-1.05,351.58,353.21,0.1106471,0.006922376,-0.1441863,-0.3346876,0.4899452,-9.115432,2
8584384,5000,2.16,-2.23,-3.06,-2.86,-0.81,351.61,352.18,-0.02970032,-0.1142985,-0.005254786,-0.2503762,0.5327732,-9.759363,2
8692023,5099,2.09,-2.01,-2.92,-3.16,-1.47,351.62,352.29,0.0946283599999999,-0.1567217,0.03000028,-0.7609727,0.6005538,-9.738502,2
8802785,5084,1.99,-1.81,-2.6,-3.44,-2.06,351.63,352.52,0.08236889,-0.03613471,0.02302049,-0.4265518,0.617925,-9.52994,2
8908656,5068,1.72,-2.06,-2.26,-3.39,-2.63,351.63,352.88,0.1463723,-0.1654978,0.05274671,-0.2747912,0.6024504,-9.635335,2
9023259,4953,1.82,-3.77,-2.85,-2.04,-2.16,351.56,353.53,-0.1956449,0.1837913,0.1253158,-0.5304918,0.1127969,-10.01856,2
9128373,4790,1.78,-5.84,-4.66,-0.14,-0.21,351.4,354.25,-0.2382768,0.2128433,0.140258,-0.2448387,0.4187359,-9.78568,2
9242761,4834,1.92,-8.34,-7.41,1.64,1.93,351.17,354.75,-0.4958448,0.22588,0.1082277,-0.1722807,0.7162504,-9.705835,2
9342577,4650,2.21,-9.41,-9.11,2.59,3.12,351.03,354.95,-0.2221254,0.1558321,0.08127648,0.1816581,0.8385774,-9.55789,2
9452079,4805,2.25,-9.5,-9.57,3.06,3.36,350.94,355.24,-0.06380394,0.054385,0.05923379,-0.2184125,0.6879741,-10.23171,2
9561996,4636,1.81,-9.09,-9.06,3.21,3.33,350.92,355.62,0.02346686,-0.0240495,0.06135061,-0.07810657,0.7884265,-9.607028,2
9670922,4533,1.83,-8.85,-8.15,3.83,3.38,350.82,356.05,0.1475327,0.08695164,0.0250626,-0.3184094,0.6551265,-10.08442,2
9772813,4598,1.82,-8.51,-7.13,4.63,4.02,350.7,356.19,0.1218423,0.1865331,0.02002671,-0.1073234,0.6444665,-9.553011,2
9891089,4504,1.94,-7.98,-6.34,5.5,5.67,350.58,356.55,0.1064838,0.2274029,-0.02684184,-0.1012207,0.6620562,-9.844118,2
10002991,4553,1.71,-7.87,-5.76,6.21,6.3,350.48,356.73,-0.0585379,0.06370413,-0.01667404,0.02484948,0.6231728,-10.05954,2
10101012,4656,2.12,-7.35,-5.11,6.08,6.45,350.49,356.13,0.2570323,-0.05718717,-0.06422044,0.015208,0.6884263,-9.892579,2
10332130,4636,1.76,-7.07,-4.99,6.41,5.76,350.45,355.26,-0.09372274,0.04674787,-0.05118112,-0.1638652,0.6437741,-9.838531,2
10433917,4515,2.0,-7.03,-4.76,6.91,5.78,350.39,355.12,-0.06449496,0.07467876,-0.0931451799999999,0.2229845,0.658434,-10.12987,2
10543265,4532,1.98,-7.06,-4.36,7.85,6.16,350.27,354.99,-0.01625802,0.1337507,-0.04313939,-0.08935646,0.9573699,-10.2068,2
10760494,4571,1.87,-7.23,-4.63,8.55,7.29,350.18,354.59,0.05552258,0.03583179,-0.05806012,0.2841487,0.8218924,-10.02857,2
10868637,4555,1.54,-6.91,-4.63,8.25,7.02,350.22,354.68,-0.1619373,-0.07294815,0.01011829,0.246198,0.5725073,-9.868006,2
10976271,4380,2.32,-6.73,-5.04,8.0,6.47,350.25,354.8,-0.2928506,-0.01733547,-0.01455189,0.3649036,1.053311,-9.623392,2
11089701,4345,2.31,-7.16,-6.12,7.01,6.14,350.37,354.61,-0.4131757,0.008792375,-0.02174341,-0.09098612,1.144732,-9.488054,2
11191746,4406,2.17,-7.74,-6.78,5.81,5.4,350.53,354.4,0.04640984,-0.2983637,-0.02518725,0.2413137,0.8638088,-9.333413,2
11290932,4609,1.46,-7.83,-6.88,5.03,4.34,350.64,354.76,0.1243441,-0.2553987,0.02530008,0.3664496,1.26771,-9.100427,2
11406685,4399,2.0,-8.0,-6.43,5.05,3.74,350.63,355.16,-0.0231408,0.1272969,0.04019985,-0.1687877,1.17991,-9.382612,2
11513002,4103,3.31,-7.47,-6.79,5.56,4.83,350.56,355.42,0.4422042,0.0867644,0.002536462,0.3542662,1.077264,-8.893182,2
11625283,4213,3.42,-6.22,-5.67,5.53,4.93,350.57,355.61,0.3947089,-0.1265578,0.02023181,0.368792,1.470965,-9.821314,2
11724815,4453,1.92,-5.03,-4.03,4.93,4.34,350.63,355.92,0.0775708,-0.02266837,0.0382828,-0.0167194,1.000385,-10.33852,2
11836722,4134,3.38,-4.1,-2.59,4.66,3.52,350.65,356.07,-0.3888539,0.08478942,0.03430406,-0.03171751,1.200245,-10.0218,2
11948944,3788,2.84,-4.16,-1.41,4.64,2.98,350.65,355.9,0.5919018,-0.02360042,-0.01368731,0.6519033,1.358435,-8.874737,2
12057714,3826,2.85,-4.62,-1.22,4.07,2.45,350.69,355.87,0.04868299,0.0002438451,0.01708201,0.5229201,1.418986,-9.941826,2
12158772,3793,3.56,-4.76,-2.27,2.29,1.09,350.84,356.09,0.4386505,-0.5079471,-0.02464922,0.2827909,1.260301,-9.132217,2
12273547,3973,3.77,-5.67,-1.94,0.86,-0.76,350.97,355.95,0.5527898,-0.3517969,-0.06049052,0.3404036,1.270434,-10.20025,2
12384480,3990,3.07,-6.33,-1.44,0.2,-1.86,351.04,355.8,0.6137695,-0.2516833,-0.03297395,0.2293879,0.8313257,-9.617403,2
12493229,3904,2.98,-6.87,-3.03,-0.11,-2.01,351.07,355.72,0.05774328,-0.1555172,-0.031502,0.1298912,1.161405,-10.30206,2
12590884,3755,2.93,-7.31,-3.67,-0.12,-1.84,351.07,355.56,0.3038004,-0.04237815,-0.06870364,0.3813323,0.858079,-10.23186,2
12699231,4054,3.5,-7.28,-5.1,-0.11,-1.64,351.07,355.46,-0.2772806,0.01017703,-0.04400581,0.07453461,1.227965,-10.33367,2
12808938,4015,2.87,-7.09,-5.75,-0.15,-1.42,351.08,355.07,-0.4895543,0.1803821,-0.05632561,-0.08914551,1.058254,-9.802446,2
12918969,4062,3.51,-6.71,-6.28,-0.36,-1.38,351.1,354.52,-0.4528981,0.0666239899999999,-0.05958522,-0.007672006,1.32833,-10.08598,2
13021746,4266,3.15,-6.56,-5.88,-0.51,-1.37,351.12,354.11,-0.5884469,0.174124,-0.02121385,-0.1565095,0.969285,-10.12503,2
13129330,4168,4.15,-6.01,-5.97,-0.77,-1.3,351.15,353.76,0.3686936,-0.07369117,-0.04707698,0.4040643,1.484677,-9.425912,2
13347926,4418,1.68,-3.05,-3.59,-4.03,-3.79,351.41,353.51,0.421015,-0.3769943,-0.01955299,0.1352094,0.7653149,-10.09192,2
13462411,4555,1.91,-0.93,-0.93,-6.75,-6.08,351.5,353.51,0.4871953,-0.3907273,-0.02493851,0.3604939,1.086776,-10.54798,2
13570920,4504,1.42,-0.38,0.97,-8.13,-8.32,351.51,353.4,-0.02009146,-0.2051108,-0.002923066,-0.1981821,0.653537,-9.986775,2
13674331,4152,3.62,-0.8,0.29,-9.65,-9.08,351.53,353.38,-0.5232944,-0.1938594,0.02696071,0.245703,1.228768,-9.195933,2
13782412,4289,3.4,-2.65,-1.1,-9.25,-9.75,351.51,353.4,-0.7447509,0.2380693,0.02457393,-0.9391189,0.6940918,-10.49174,2
13883721,4149,2.58,-4.05,-3.41,-8.2,-8.1,351.45,353.28,-0.497601,0.451158,0.0084773479999999,-0.2484595,1.109487,-9.656163,2
13995694,4642,1.82,-5.1,-5.19,-6.63,-5.2,351.32,353.05,0.05986709,0.3241027,0.001640793,-0.1029451,1.351251,-9.86382,2
14112776,4684,1.83,-5.23,-5.34,-4.15,-2.17,351.09,352.95,0.1291881,0.4102021,0.05905192,-0.1037267,1.170833,-9.728919,2
14223061,4657,1.8,-4.85,-5.15,-3.21,-0.33,351.0,353.2,0.03529185,0.0897509799999999,0.0894992399999999,-0.2327496,0.8070319,-9.940749,2
14322894,4551,1.53,-5.46,-4.99,-3.48,-0.29,351.03,353.63,-0.0306125,-0.2228009,0.02541397,0.01866561,0.3442897,-9.707312,2
14434642,4251,2.85,-7.63,-7.11,-3.9,-1.09,351.07,354.06,-0.6953501,-0.05151832,0.04955859,-0.7397904,0.2965715,-9.981003,2
14535922,4136,1.9,-9.31,-9.61,-4.33,-1.22,351.14,354.3,-0.280661,-0.0693092,0.006913139,-0.0659362,0.9186383,-9.527051,2
14651941,4663,1.92,-10.41,-11.77,-4.67,-1.64,351.2,354.27,-0.01580458,-0.1753146,-0.06588604,-0.174291,1.241996,-9.492644,2
14761009,4783,2.08,-10.83,-12.51,-4.96,-1.98,351.25,353.92,-0.0273415,-0.06950053,-0.0711461199999999,-0.4017132,1.011003,-9.776868,2
14874662,4743,2.25,-10.4,-12.47,-5.27,-1.98,351.31,353.61,0.1479206,-0.01489621,-0.02753628,-0.3876201,0.6499043,-9.714551,2
14992288,4805,2.0,-9.71,-11.24,-5.51,-2.34,351.35,353.4,0.403058,-0.1734674,-0.07377642,-0.4861196,0.7734721,-9.431048,2
15084783,4739,2.02,-9.19,-10.36,-5.72,-2.73,351.39,353.34,0.2239876,-0.08737236,-0.02038249,-0.1045524,0.7343684,-10.05626,2
15201302,4642,1.87,-8.39,-8.88,-5.97,-3.54,351.43,353.22,0.2721694,-0.09684394,-0.04004291,-0.4852758,0.8016352,-9.842748,2
15309126,4651,1.93,-5.57,-6.78,-6.01,-4.18,351.44,353.03,0.6648683,-0.2032547,-0.0726598299999999,-0.3143761,1.262351,-9.423009,2
15420464,4754,1.92,-3.1,-3.02,-5.95,-4.65,351.43,352.8,0.6446207,-0.1054799,-0.03068817,-0.4588417,0.6672327,-9.402823,2
15523740,4578,1.9,-1.43,-0.95,-5.63,-4.76,351.42,352.82,0.08372632,0.0334693,0.01926127,-0.2931158,0.3606104,-9.591338,2
15633753,4431,2.45,-0.46,0.29,-5.25,-4.16,351.41,352.74,-0.03011363,0.1229754,-0.03946523,-0.2777413,0.5723734,-10.00722,2
15745927,4265,2.79,-0.42,0.81,-4.98,-3.95,351.41,352.52,-0.2046137,0.0682972,-0.0730422399999999,-0.4658733,0.7866579,-8.776832,2
15848789,4080,3.09,-0.62,0.24,-4.79,-4.06,351.41,352.34,-0.2047101,0.04109659,-0.05272269,-0.178382,0.990769,-8.985446,2
15965287,4507,2.33,-1.23,-0.3,-4.5,-3.94,351.4,352.09,-0.04151832,0.02473497,-0.01516165,-0.3255429,1.110726,-9.560084,2
16178127,4723,1.52,-1.9,-0.85,-3.75,-3.68,351.38,352.01,-0.09148566,0.03093888,-0.01656449,-0.2511113,0.7149892,-9.80972,2
16286403,4611,2.12,-1.96,-1.53,-3.33,-3.21,351.37,351.99,-0.2205201,0.2115659,0.05153905,-0.5199695,0.9683867,-9.863466,2
16503978,4771,1.77,-0.83,-1.1,-3.03,-2.45,351.36,351.91,0.3897338,-0.0491336,0.01915378,-0.6503351,0.9235555,-9.605736,2
16839499,4766,2.41,2.62,4.67,-4.29,-4.65,354.11,352.7,-0.02466668,-0.0905868299999999,0.1295046,-0.4532934,0.4849527,-9.734753,2
16950426,4674,2.85,1.5,2.9,-4.06,-4.25,357.84,354.22,-0.4083959,0.162365,0.3017545,-0.4748262,0.7310809,-9.92935,2
17052625,5160,2.28,0.64,0.72,-3.54,-3.59,359.12,356.28,-0.3240933,0.1910841,0.4007379,-0.3190364,0.7124314,-9.967961,2
17162723,5331,1.46,-0.08,-0.85,-2.91,-2.78,359.15,358.97,-0.2454897,0.1413828,0.3976572,-0.2771239,0.9419289,-10.09217,2
17276775,5036,1.23,-0.56,-1.1,-2.47,-2.91,359.15,1.22,0.1344751,-0.1423388,0.3153827,-0.4525913,0.626586,-9.941115,2
17389804,4649,2.02,-0.86,-1.22,-2.16,-2.91,359.15,2.85,-0.04823508,-0.03996325,0.2011357,-0.201673,0.6692462,-9.811204,2
17496182,4417,1.68,-1.16,-1.26,-1.66,-2.82,359.14,3.96,0.2907944,-0.01572859,0.1621578,-0.3313599,0.8509308,-10.16204,2
17718247,4299,3.16,-2.37,-2.14,-1.24,-2.1,359.13,4.95,0.1878093,-0.08115137,0.0083116419999999,-0.06914445,0.9268273,-9.481232,2
17938913,3873,4.01,-4.33,-2.98,-3.29,-4.98,359.26,4.75,0.2153257,-0.1024687,-0.09434401,-0.4188399,0.9608461,-9.631968,2
18053333,4239,3.05,-4.74,-3.93,-3.98,-5.19,359.31,4.36,-0.2851708,0.05936507,-0.09427835,-0.4365639,0.6812814,-10.27011,2
18163740,4429,2.31,-4.75,-5.17,-4.19,-4.55,359.33,3.79,-0.2349954,0.1842218,-0.0822129199999999,-0.1856014,0.9327073,-10.22966,2
18274098,4680,1.95,-4.58,-5.55,-4.42,-3.62,359.35,2.92,0.1891064,0.0828651,-0.1008544,-0.300042,1.063296,-9.644499,2
18372840,4749,1.87,-4.43,-5.27,-4.78,-3.37,359.38,2.24,-0.001371895,0.04659466,-0.1074509,-0.7352133,0.8524126,-10.23377,2
18481035,4600,1.77,-4.09,-4.77,-5.45,-3.38,359.43,1.7,0.1100899,0.005551839,-0.0718247199999999,-0.342687,0.8842115,-10.15315,2
18601350,4642,1.44,-3.81,-3.91,-6.25,-3.9,359.48,1.65,0.2374211,-0.1469344,0.02879616,-0.3342921,0.6220502,-9.890656,2
18709105,4597,2.28,-3.82,-3.54,-6.82,-4.81,359.52,1.68,0.1608444,-0.1932364,0.03196245,-0.6830032,0.555594,-9.547061,2
18919264,4220,1.94,-3.92,-4.56,-8.4,-6.47,359.63,1.14,-0.1829512,-0.09589469,-0.07089032,-0.9531978,0.7855245,-9.395233,2
19037284,4533,2.01,-3.85,-4.38,-8.91,-7.22,359.66,0.37,-0.1889168,0.04850368,-0.1120182,-0.7291335,0.4824791,-9.64494,2
19138457,4606,2.33,-3.41,-4.74,-9.13,-6.96,359.68,359.57,-0.2018819,0.1099371,-0.1213741,-0.770153,0.4947484,-9.441611,2
19248644,4790,2.21,-2.91,-4.84,-9.19,-7.15,359.68,358.69,0.003044819,-0.1502087,-0.1399221,-0.2316905,0.7492778,-9.865147,2
19354628,4838,2.18,-2.69,-4.38,-9.26,-7.61,359.69,357.93,-0.04947254,0.02482528,-0.1323466,-0.9689362,0.6460435,-9.221804,2
19469448,4802,2.0,-2.28,-3.93,-9.39,-7.82,359.69,357.17,0.02357595,0.04943797,-0.1189077,-0.6927767,0.8558525,-9.32721,2
19589455,5060,1.74,-2.03,-3.2,-9.38,-7.55,359.69,356.6,-0.04507405,0.1246992,-0.03458864,-0.6847328,0.4746873,-9.773495,2
19693800,5147,1.46,-1.91,-2.61,-9.33,-7.37,359.69,356.46,0.08110864,0.04223375,-0.04016148,-0.7251952,0.6738399,-9.663798,2
19802893,5086,1.53,-1.88,-2.31,-9.34,-6.69,359.69,356.39,0.005341119,0.1419921,-0.005054657,-0.7425789,0.9209594,-10.03043,2
19911968,5098,1.41,-1.92,-1.66,-9.49,-6.24,359.69,356.53,0.09927511,0.02102447,0.0849726799999999,-0.6645796,0.4624165,-9.872081,2
20013674,4943,1.82,-1.92,-1.46,-9.75,-5.97,359.7,357.04,0.06665254,-0.1259382,0.1525535,-0.4911979,0.4834597,-9.622536,2
20124884,4984,2.1,-1.86,-2.14,-9.97,-6.58,359.71,357.8,-0.06286024,-0.0558311,0.1349109,-0.8813796,0.7442985,-9.605777,2
20243261,4981,2.02,-1.74,-2.61,-10.07,-7.11,359.71,358.44,-0.122787,0.08582671,0.07104602,-0.7255762,1.044893,-10.26624,2
20338771,5140,1.79,-1.6,-2.08,-9.9,-6.73,359.71,358.74,0.2621088,0.03097012,0.02461607,-0.4163696,0.8424312,-9.974688,2
20452010,5039,2.01,-1.51,-1.58,-9.43,-6.82,359.7,359.02,0.08565269,-0.06430384,0.03706793,-0.706248,0.7588844,-9.675893,2
20560939,4814,1.59,-1.7,-1.26,-8.85,-7.69,359.68,359.39,0.240534,-0.2205617,0.02762205,-0.7722671,1.149137,-9.644874,2
20663100,4813,1.81,-2.24,-1.16,-7.72,-6.91,359.64,359.63,-0.05852242,0.3123626,0.01166944,-0.9835231,1.085508,-11.34911,2
20784980,4692,1.3,-1.82,-0.12,-6.44,-5.67,359.59,359.44,0.2906286,0.111421,-0.07518054,-0.7799896,0.7223137,-9.594798,2
20893701,4185,2.11,-1.62,1.02,-5.52,-4.61,359.57,358.75,0.2347896,0.1725211,-0.1405232,-0.6755489,0.8216762,-9.109219,2
20991315,3916,3.87,-1.73,0.76,-4.93,-4.76,359.55,357.9,-0.2743798,-0.1425134,-0.154644,-0.7797464,1.369173,-9.28138,2
21107993,4169,3.25,-2.53,1.03,-4.44,-5.21,359.53,356.89,-0.1328172,0.09314494,-0.08159047,-0.8291348,0.5870743,-9.893121,2
21214893,4753,2.09,-2.95,-0.43,-4.26,-4.64,359.52,356.5,-0.21873,0.005068825,-0.05160332,-0.3436095,0.6059459,-9.8163,2
21323693,5001,1.95,-3.65,-2.68,-3.61,-4.08,359.49,356.24,-0.3110059,0.0961908,-0.01463307,-1.011881,1.143996,-9.146911,2
21435272,5071,2.1,-4.68,-4.97,-2.73,-2.96,359.42,356.02,-0.2989349,0.128738,-0.02376055,-0.359553,0.388181,-9.435657,2
21550772,5085,2.05,-4.77,-6.61,-1.78,-1.46,359.34,355.81,-0.00562244,0.09608173,0.02236151,-0.4558664,0.881744,-8.869669,2
21653630,5085,2.19,-4.51,-6.73,-1.14,-0.75,359.29,355.75,0.0337924,0.14621,-0.003792973,-0.5485299,0.5096134,-9.268071,2
21762991,5111,2.0,-3.87,-6.24,-0.72,-0.32,359.26,355.97,0.09150112,0.1257341,0.0675410199999999,-0.6656126,0.4235602,-9.393951,2
21873253,5061,1.88,-3.11,-5.16,-0.6,0.08,359.25,356.34,0.2691378,0.07935528,0.03981372,-0.7400284,0.8259997,-9.530932,2
21988021,5154,2.12,-2.73,-4.06,-0.63,-0.02,359.25,356.78,0.06119518,-0.1156381,0.08496367,-0.6933827,0.8915094,-9.566113,2
22092678,5139,2.28,-2.4,-3.54,-0.84,-0.81,359.26,357.37,0.1619534,-0.2969666,0.1290877,-0.5590376,0.8288544,-9.95028,2
22201083,5264,2.19,-2.21,-3.19,-0.99,-1.64,359.27,358.1,-0.00282921,-0.05457351,0.118829,-0.9446144,0.6734406,-10.32174,2
22418204,5371,2.6,-1.97,-2.74,-1.44,-1.58,359.28,359.13,0.04756599,-0.03799586,0.0749270799999999,-0.973716,0.6066377,-10.68677,2
22530437,5390,2.56,-1.9,-2.98,-1.66,-1.51,359.29,359.15,-0.1419261,0.009752434,0.01942473,-0.7177499,0.4917823,-10.24881,2
22642970,5263,2.63,-1.66,-3.08,-1.84,-2.03,359.3,358.95,-0.03607853,-0.1546911,-0.04202458,-0.933559,0.5773222,-10.22495,2
22751040,5363,2.62,-1.55,-2.98,-0.66,-1.69,359.26,358.67,0.007590004,0.2214003,-0.02045855,-1.034164,0.7459135,-10.36627,2
22970216,5442,2.9,-1.65,-3.0,3.82,3.26,0.54,358.26,-0.01992234,0.3605344,0.04327733,-0.3059289,0.4523796,-10.25214,2
23077456,5469,2.34,-1.64,-2.79,4.65,4.15,1.26,358.83,0.1112983,0.01743246,0.153888,-0.1833558,0.6789971,-9.931726,2
23189461,5374,1.96,-1.6,-2.06,4.5,3.23,1.26,359.78,0.1731627,-0.2210914,0.140681,-0.3295645,0.8363363,-9.927356,2
23300008,5140,2.1,-1.7,-1.82,4.04,2.1,1.27,0.87,-0.04124122,-0.1139556,0.1768559,-0.1983861,0.5568175,-10.02773,2
23410263,5084,1.74,-1.91,-1.51,3.91,0.94,1.28,1.92,0.02833832,-0.1580446,0.1453073,-0.3635665,0.5204492,-10.19339,2
23522748,4847,1.79,-2.08,-1.77,3.84,0.84,1.28,2.68,-0.14088,0.06901733,0.1051631,-0.3892762,0.6129748,-9.969579,2
23623760,4771,1.71,-1.98,-1.83,3.19,0.62,1.3,3.25,0.08249848,-0.1638591,0.07924945,-0.2808785,0.5119482,-9.731738,2
23735975,4759,1.85,-1.78,-2.09,2.02,-0.68,1.34,3.63,0.1048196,-0.3615568,0.02592615,-0.2940496,0.535153,-9.948856,2
23843259,4644,1.92,-1.8,-1.74,1.17,-1.77,1.37,3.65,0.2058915,-0.08055382,-0.02981168,-0.3617398,0.6676998,-9.779545,2
23951197,4672,1.85,-1.72,-1.25,-0.55,-2.35,1.42,3.49,0.2921607,-0.3283974,-0.05007995,-0.08868144,0.8050792,-9.686173,2
24060102,4698,2.07,-1.91,-0.96,-1.62,-4.13,1.45,3.32,0.1546309,-0.3262937,-0.04041884,-0.6842074,1.119772,-10.00309,2
24164970,4681,2.08,-2.39,-0.81,-2.39,-5.24,1.48,3.1,0.02704414,-0.1049667,-0.03990644,-0.4799064,0.6982724,-9.935231,2
24275025,4614,1.97,-2.91,-0.99,-2.48,-5.44,1.49,2.86,-0.1586144,0.1790407,-0.03017573,-0.4045786,0.5813184,-10.1044,2
24384644,4624,1.93,-3.55,-0.89,-2.24,-4.96,1.47,2.52,-0.1014556,0.1193197,-0.04085898,-0.2417297,0.6677908,-10.31936,2
24486680,4542,1.99,-4.19,-1.31,-1.87,-4.43,1.45,2.15,-0.1497904,0.09086043,-0.05895068,-0.5587494,0.5409293,-9.382751,2
24603555,4605,2.04,-4.72,-3.27,-1.8,-2.89,1.44,1.9,-0.1425178,0.1080006,0.02026718,-0.008927722,0.821567,-9.723272,2
24722296,4863,2.24,-5.06,-4.46,-1.66,-2.18,1.43,2.04,-0.1440752,0.1595534,0.06401834,-0.04809012,0.8122295,-9.927893,2
24822509,4925,1.73,-5.08,-4.32,-1.66,-2.4,1.43,2.35,-0.02477858,-0.08352774,0.05318545,-0.2645827,0.6335341,-9.94795,2
24930329,4789,1.82,-4.99,-4.05,-1.61,-2.91,1.43,2.57,0.08968785,-0.1246085,0.01309323,-0.2446991,0.513357,-9.892189,2
25034880,4701,2.1,-4.82,-4.17,-1.54,-2.71,1.42,2.61,0.1298127,0.01970857,0.005984388,-0.114821,0.7896979,-9.412534,2
25142918,4742,2.0,-4.58,-4.33,-1.43,-2.22,1.41,2.47,-0.07679335,0.1092132,-0.03510142,-0.3328493,0.6920925,-9.757633,2
25255181,4737,1.94,-4.39,-4.18,-1.34,-2.12,1.4,2.34,0.0675306,0.03299031,-0.02186487,-0.4623355,0.7547309,-9.644196,2
25476403,4684,2.11,-4.0,-3.71,-1.67,-2.07,1.43,2.04,0.2147145,-0.08225865,-0.02327494,-0.4947767,0.9591141,-9.684693,2
25589218,4679,2.24,-3.79,-4.22,-2.22,-2.16,1.46,1.9,-0.05838449,-0.05679858,-0.01669534,-0.5521658,0.7119814,-9.717525,2
25685739,4777,1.89,-3.53,-4.28,-2.8,-1.98,1.5,1.98,0.2365417,-0.03667947,0.03624708,-0.1416975,1.065774,-9.834374,2
25808780,4914,1.79,-3.31,-3.62,-3.28,-2.41,1.53,2.3,0.0659061,-0.1458157,0.05880399,-0.3702118,0.3154979,-9.712849,2
25915315,4762,1.78,-3.16,-2.86,-3.66,-2.59,1.55,2.49,0.2393164,-0.02230174,0.05698042,-0.7107859,0.4047279,-9.466686,2
26017474,4617,2.07,-2.93,-2.95,-4.26,-2.17,1.58,2.44,0.177793,0.0004917039,-0.01796435,-0.4421436,0.8975286,-9.528313,2
26130763,4781,1.42,-3.0,-2.9,-4.89,-1.85,1.62,2.21,-0.1357154,-0.03450857,-0.03003251,-0.2900934,0.7276788,-10.02629,2
26233658,4611,1.77,-3.13,-2.27,-5.4,-2.74,1.64,2.01,0.17655,-0.2231504,-0.04612784,-0.3989507,0.5109906,-9.431472,2
26339265,4586,2.1,-3.37,-2.5,-5.87,-4.0,1.67,1.81,-0.05627702,-0.201176,-0.02518732,-0.515332,0.6352475,-9.788995,2
26458710,4668,1.7,-3.55,-2.96,-6.13,-5.0,1.69,1.7,-0.2517204,-0.02728183,-0.01216176,-0.7594863,0.495488,-9.804615,2
26662642,4643,1.62,-3.71,-3.29,-6.16,-5.36,1.69,1.87,-0.03509424,0.1429217,0.01909793,-0.5252541,0.7532169,-9.88798,2
26773433,4687,1.66,-3.61,-3.32,-6.05,-4.95,1.68,2.0,-0.02026681,0.1270923,0.04621166,-0.6728098,0.8756447,-9.771785,2
26881380,4729,1.98,-3.44,-3.42,-5.93,-4.68,1.67,2.0,-0.1425705,0.1347925,-0.03245664,-0.6299111,0.8329486,-9.47311,2
26994933,4824,2.05,-3.21,-3.65,-6.01,-4.42,1.68,1.92,-0.1219929,0.06866576,-0.001378816,-0.6116425,0.5919232,-9.798188,2
27112986,4945,1.72,-2.95,-3.43,-5.99,-4.04,1.68,1.75,0.1149911,0.08304226,-0.0174285,-0.690455,0.6752287,-9.832108,2
27220292,4966,1.89,-2.78,-3.35,-6.12,-4.07,1.68,1.64,0.0558846,-0.08905117,-0.02462093,-0.6317806,0.8448616,-9.621769,2
27327976,4844,1.89,-2.73,-3.63,-6.25,-4.79,1.69,1.39,-0.05261779,-0.08501913,-0.06996862,-0.6895214,0.8157845,-9.67815,2
27425691,4876,2.06,-2.62,-3.51,-6.62,-5.39,1.71,0.89,0.2077451,-0.1446192,-0.1007181,-0.8883646,0.9486052,-9.524026,2
27545422,5014,2.14,-2.66,-3.11,-6.78,-5.77,1.71,0.41,0.002041321,0.02887205,-0.03053149,-0.7298142,0.8299335,-9.64268,2
27652369,5140,2.44,-2.8,-2.45,-5.61,-5.71,1.66,0.48,0.04147015,0.3503356,0.04066021,-1.059507,0.9936533,-9.835134,2
27759091,5112,2.04,-2.9,-2.67,-4.52,-3.54,1.6,0.72,-0.1615335,0.366689,0.0563905,-0.4507125,0.8206797,-9.863815,2
27875650,4955,2.13,-3.1,-3.08,-3.5,-2.45,1.55,1.16,-0.0660824899999999,-0.02345488,0.08571311,-0.4022174,0.8272929,-10.04905,2
28197251,4925,1.9,-4.17,-3.65,-2.96,-2.61,1.52,2.55,-0.007031241,-0.1146638,0.07977164,-0.5550428,1.11806,-10.16434,2
28304646,4497,1.89,-4.8,-4.06,-2.9,-2.92,1.52,2.96,0.0423678,-0.009348094,0.02449805,-0.4446142,1.446036,-9.360343,2
28415781,4463,2.29,-5.46,-4.72,-2.59,-2.57,1.49,3.12,-0.1346371,0.2525322,0.01355337,-0.9880143,1.276605,-9.379597,2
28516062,4385,2.07,-5.92,-5.54,-2.09,-2.26,1.44,3.09,-0.04910491,0.05618334,-0.04463541,-0.9028839,1.10912,-8.842318,2
28626956,4460,2.49,-6.3,-6.38,-1.96,-1.6,1.42,2.84,-0.004491372,0.01433558,-0.07961871,-0.8161079,1.19276,-9.225578,2
28736427,4704,2.34,-6.56,-7.12,-2.02,-1.1,1.43,2.4,0.03284198,0.05445921,-0.03316703,-0.9429334,1.29148,-9.430676,2
28852574,4977,1.89,-6.57,-7.01,-2.18,-1.04,1.45,1.82,-0.1069907,0.006086425,-0.09982253,-1.009166,1.283215,-10.1904,2
28953671,4899,2.02,-6.56,-6.28,-2.37,-1.54,1.47,1.5,0.2041679,-0.1869693,-0.05598246,-0.6962609,1.212244,-9.967873,2
29056758,4871,2.49,-6.6,-6.17,-2.63,-1.98,1.5,1.25,-0.1694204,-0.004615231,-0.03390064,-1.027603,1.109237,-10.00984,2
29171472,4933,2.2,-6.77,-6.02,-2.81,-2.34,1.52,1.04,-0.03489717,0.1359712,0.004509784,-1.186602,1.093257,-9.591511,2
29284982,5006,2.44,-6.91,-6.37,-3.05,-2.06,1.55,0.83,-0.1634821,0.06768577,-0.0228458,-0.9426143,1.173454,-10.12442,2
29612342,5073,2.04,-6.27,-6.51,-3.85,-3.44,1.64,0.7,0.0965234299999999,-0.2198013,-0.03155304,-1.066044,0.9205099,-9.633267,2
29709771,5135,3.05,-5.9,-6.91,-4.39,-4.05,1.7,0.57,-0.1037356,-0.05836026,-0.05175632,-0.8565265,1.117311,-9.623077,2
29822555,5273,2.53,-5.6,-6.71,-4.88,-4.49,1.75,0.23,-0.0109969,-0.0009483686,-0.0489439,-1.488264,1.118667,-9.839362,2
29931186,5324,2.7,-5.21,-6.42,-5.28,-5.06,1.79,359.93,0.0745609,-0.0876077,-0.04933536,-1.009986,0.9756947,-9.939396,2
30039004,5461,2.57,-5.18,-5.54,-5.33,-5.72,1.79,359.96,0.2199779,-0.1071954,0.01990356,-0.897377,0.7587785,-10.17314,2
30149928,5371,2.58,-5.19,-5.37,-5.23,-5.57,1.78,0.04,0.03547133,-0.0115286,0.01371688,-0.7507631,0.9276363,-9.834435,2
30258587,5372,2.74,-4.99,-5.04,-5.02,-5.26,1.76,0.14,-0.01549129,0.1114742,0.03972702,-0.8484504,1.010107,-9.939055,2
30365000,5386,2.5,-5.01,-4.79,-4.8,-4.87,1.75,0.17,0.06822638,0.05891959,-0.01727345,-0.7305419,0.9589263,-10.26302,2
30474709,5400,2.79,-4.9,-5.13,-4.74,-4.38,1.74,0.12,-0.1449801,0.0779435,-0.008673876,-0.8519382,1.11226,-10.09501,2
30581506,5401,2.8,-4.75,-5.37,-4.6,-4.49,1.73,0.07,0.003902904,-0.05413356,-0.01330391,-0.6928364,0.9272653,-10.03806,2
30693298,5457,2.59,-4.89,-5.51,-2.58,-3.66,1.56,359.94,-0.06409343,0.4052596,0.02250357,-1.254608,0.9674719,-10.14326,2
30804979,5513,2.78,-5.08,-5.77,0.4,-0.21,1.3,359.73,-0.1345971,0.6191995,0.04631621,-1.202851,1.137715,-10.21492,2
30921620,5450,2.47,-5.14,-5.66,2.4,3.34,1.12,359.45,-0.0585588,0.3673886,-0.01105441,-0.6879447,1.065272,-10.7325,2
31027218,5384,2.68,-4.84,-5.61,2.74,4.57,1.09,359.33,0.002044886,0.1031952,0.02296555,-0.6770722,1.323542,-10.26913,2
31137426,5366,2.31,-4.49,-4.73,1.87,3.56,1.16,359.48,0.2583602,-0.3072679,0.03335609,-0.5560389,1.136273,-9.978938,2
31245797,5270,2.09,-4.42,-3.9,-0.22,1.1,1.32,0.0,0.2171404,-0.6673357,0.04738617,0.1627588,1.0343,-9.700648,2
31353073,5251,2.57,-4.42,-4.0,-2.52,-3.05,1.5,0.75,-0.04918581,-0.5695433,0.0842529499999999,-0.9452332,1.129018,-9.382854,2
31462172,5172,2.05,-4.54,-4.29,-3.73,-5.86,1.59,1.64,0.03831059,-0.3598935,0.1256276,-0.7295226,0.8599731,-9.579302,2
31569471,5211,3.49,-2.19,-4.35,-3.86,-6.43,1.6,2.24,0.1756133,0.0975377,0.0779751499999999,-0.8006134,1.463579,-9.872252,2
31679965,5445,2.11,2.28,-0.05,-3.52,-5.53,1.61,2.43,1.018446,0.1419057,0.02301994,-0.7474464,1.314903,-10.06511,2
31793194,5208,1.84,5.81,5.37,-3.09,-4.37,1.64,2.43,0.726202,0.2012905,-0.01243497,-0.5530521,0.8369621,-9.876364,2
31894209,4763,2.05,7.28,9.03,-2.7,-3.61,1.68,2.17,0.07742292,0.2323951,-0.06090484,-0.8345614,0.03872785,-10.13552,2
32003097,4503,1.96,7.22,9.53,-2.59,-2.96,1.7,1.8,0.004981213,0.08071877,-0.09723449,-0.7904769,0.2637797,-9.644809,2
32116910,4745,2.44,6.49,7.54,-2.89,-2.48,1.66,1.21,-0.3138848,-0.09412216,-0.07567024,-0.661189,0.5701619,-9.457454,2
32224028,4971,2.0,5.6,5.55,-3.14,-2.97,1.64,0.57,-0.1799762,-0.1176501,-0.06711282,-0.51193,0.5941676,-9.311301,2
32338771,4989,1.97,4.78,4.71,-3.11,-3.99,1.64,0.3,0.1217564,-0.1440702,-0.01403092,-0.5152411,0.7347599,-9.204294,2
32447984,5030,1.91,4.11,4.58,-2.84,-4.03,1.66,0.48,-0.109369,0.04686099,0.03235064,-0.1688058,0.7444474,-9.359364,2
32549897,4876,1.87,3.62,4.21,-2.34,-3.97,1.69,0.7,-0.05735072,0.07287725,0.03526298,-0.3695215,0.8242748,-9.448676,2
32661752,4746,1.84,2.29,3.21,-1.72,-3.62,1.73,0.98,-0.2739749,0.08503322,0.04170164,-0.4712671,0.5765496,-9.01291,2
32764275,4617,1.96,0.67,1.58,-1.29,-3.05,1.74,1.27,-0.4127735,0.1337631,0.04310353,-0.3269197,0.8949351,-8.962897,2
32878455,4687,2.15,-1.52,-0.41,-0.81,-2.3,1.73,1.63,-0.3435842,0.05609465,0.04922572,-0.5926569,0.5560264,-9.506967,2
32985750,4561,1.91,-3.83,-3.05,-0.46,-1.65,1.72,2.02,-0.5111387,0.05990437,0.0691677599999999,-0.594618,0.5236539,-9.777054,2
33203181,4663,1.96,-6.73,-7.16,-0.2,-0.92,1.69,2.97,-0.06181942,-0.1491958,0.0778176899999999,-0.4709058,0.9756417,-9.494752,2
33309704,4801,2.03,-7.21,-7.64,-0.36,-0.78,1.71,3.45,0.0407124,-0.02568362,0.04037245,-0.2639846,0.8897105,-9.890051,2
33412889,4828,2.1,-7.3,-7.53,-0.57,-0.81,1.74,3.84,0.001352739,-0.03098335,0.0427167,-0.2653469,1.113089,-9.338376,2
33522432,4827,2.37,-7.42,-7.36,-0.68,-1.24,1.76,3.86,-0.0892344,0.08475602,-0.03313105,-0.6066229,1.068695,-9.470992,2
33633201,4808,2.69,-7.29,-7.51,-1.19,-0.87,1.82,3.32,0.09786344,0.03075204,-0.108361,-0.2426322,1.034427,-9.532943,2
33738765,4915,2.54,-7.21,-7.1,-1.55,-1.41,1.87,2.71,0.01014996,-0.05954354,-0.1351117,-0.8591661,0.7980142,-10.38792,2
33850611,4977,2.4,-6.9,-7.0,-2.12,-1.8,1.94,2.24,0.1844219,-0.0562657,-0.08789278,-0.6652554,0.8361364,-10.23403,2
33961543,5111,3.41,-6.63,-7.89,-2.68,-2.09,2.0,1.86,-0.08914427,-0.03193192,-0.07326446,-0.8170781,1.236042,-9.576829,2
34064667,5350,2.46,-7.44,-7.76,-3.31,-2.58,2.08,1.5,0.02003039,-0.1072103,-0.05596953,-0.8983772,0.7447146,-10.27681,2
34179954,5237,2.67,-9.28,-8.95,-4.06,-2.58,2.19,1.28,-0.2720517,-0.02715799,-0.007597174,-0.6916338,0.4222178,-10.41893,2
34278200,5319,2.65,-10.94,-10.7,-4.74,-2.65,2.31,1.48,-0.3560047,-0.1133844,0.05342202,-0.2622115,0.8759635,-10.42008,2
34380969,5383,2.32,-11.56,-11.85,-5.2,-3.42,2.41,2.03,0.08159766,-0.2247828,0.06180306,-0.536576,1.210416,-9.979372,2
34501293,5276,2.11,-11.19,-11.13,-5.55,-4.44,2.48,2.84,0.3492287,-0.2326619,0.07255971,-0.5588181,0.9047856,-10.12251,2
34599792,5182,2.22,-10.41,-10.26,-5.57,-4.89,2.48,3.33,0.1435946,-0.06588362,0.08556964,-0.4985602,0.7767678,-10.1371,2
34714690,5024,1.94,-9.49,-8.3,-5.13,-5.16,2.4,3.81,0.1921193,-0.0002234389,0.0784174,-0.176705,0.804983,-10.39164,2
34818772,4745,1.78,-8.75,-6.6,-4.17,-5.49,2.25,4.21,0.3517814,0.02059428,0.02029404,-0.6820213,0.5016394,-10.19976,2
34931766,4440,2.36,-5.9,-5.61,-3.3,-4.86,2.13,4.29,0.4956995,0.1365176,0.01859645,-0.448724,1.364172,-9.405067,2
35032264,4709,1.9,-2.14,-2.16,-2.56,-3.97,2.08,4.1,0.8871109,0.09224804,-0.03660942,-0.4052871,1.541959,-9.615506,2
35143615,4538,2.66,0.93,2.22,-2.07,-2.85,2.08,3.9,0.08562155,0.2949175,0.02634712,-0.3462714,0.8426849,-9.695491,2
35253005,4049,3.68,2.31,5.05,-1.84,-2.7,2.08,3.52,0.06967597,-0.1020048,-0.03176294,-0.7600142,0.4548159,-9.774676,2
35362762,3900,3.36,2.03,6.42,-1.87,-2.88,2.08,2.94,0.4288792,-0.08063557,-0.09667297,-0.7956182,0.3575249,-8.995231,2
35472768,3935,3.47,1.21,4.67,-2.22,-2.35,2.07,2.28,-0.7901984,0.09174863,-0.1881175,-0.6196403,0.3190325,-9.8394,2
35582629,4256,4.05,0.61,2.66,-2.67,-2.05,2.06,1.75,-0.3599257,-0.01058082,-0.07719794,-0.7869451,0.4585289,-9.913087,2
35683340,4707,2.13,0.02,0.71,-3.07,-2.12,2.06,1.56,-0.3126241,-0.03229422,-0.02673377,-1.073429,0.3734866,-10.03917,2
35793750,5171,2.23,-0.28,-0.68,-3.48,-2.51,2.06,1.48,-0.2683481,0.008530073,-0.0097561249999999,-0.6342432,0.4480163,-9.634728,2
35897423,5169,2.06,-0.73,-1.36,-3.84,-3.03,2.07,1.48,-0.1410471,-0.1526456,0.016848,-0.7980154,0.712415,-9.987896,2
36013258,5077,2.66,0.11,-1.75,-4.11,-3.77,2.07,1.69,0.09409218,-0.08284015,0.04563815,-0.7562323,1.107715,-9.743541,2
36238346,5203,1.92,3.24,1.78,-3.89,-4.31,2.08,2.07,0.2228263,-0.03572719,0.03485268,-0.5064029,0.3029361,-9.780758,2
36336929,4974,1.85,3.75,2.95,-3.57,-4.05,2.1,2.24,0.1915531,0.1056637,0.01584347,-0.6842472,0.4840568,-9.853672,2
36444774,5137,2.24,3.59,3.34,-3.17,-3.79,2.13,2.51,-0.169162,0.0925275599999999,0.04615427,-0.4838672,0.6027816,-9.7835,2
36562665,5042,2.43,3.16,3.38,-2.82,-3.86,2.15,2.71,0.001938405,0.04211863,0.03116753,-0.4710377,0.427544,-9.937926,2
36668748,5045,2.45,2.66,2.29,-2.62,-2.81,2.16,3.02,-0.3621367,0.2416893,0.06113757,-0.6414505,0.4043646,-10.76584,2
36778249,5094,2.21,2.01,1.22,-2.41,-2.21,2.17,3.24,-0.2100452,0.04977204,0.004022211,-0.6891665,0.5577812,-10.39613,2
36892493,5038,2.12,0.88,-0.02,-2.46,-1.98,2.17,3.27,-0.2385502,0.03928336,0.008026032,-0.4753114,0.7031603,-10.20119,2
36991686,5000,2.5,-0.11,-1.46,-2.58,-2.21,2.17,3.21,-0.4304474,0.01572908,-0.01588737,-0.5640846,0.5915698,-10.3038,2
37099956,5029,2.35,-0.79,-2.39,-2.63,-2.55,2.17,3.17,-0.1015451,-0.1108451,-0.008959663,-0.4707793,0.4679608,-9.97646,2
37209235,5116,2.78,-1.03,-2.98,-2.56,-2.82,2.16,3.07,-0.09803029,-0.06115999,-0.04672605,-0.5027148,0.6257649,-9.966961,2
37318317,5164,2.66,-1.09,-3.11,-2.56,-2.77,2.16,2.83,0.01191709,0.04578659,-0.03647407,-0.484538,0.8047591,-9.695263,2
37419218,5271,2.76,-1.27,-3.13,-2.5,-2.72,2.16,2.56,0.007231821,-0.02900208,-0.03690074,-0.7454779,0.4470032,-10.08843,2
37537517,5312,2.73,-1.54,-3.33,-2.52,-2.34,2.16,2.2,0.05124438,0.09779371,-0.05538827,-0.4747152,0.7696409,-9.925391,2
37635937,5398,2.87,-1.77,-3.58,-2.71,-1.84,2.17,1.99,-0.1162063,0.07509784,-0.003301698,-0.6578703,0.5093641,-10.38455,2
37746683,5355,2.47,-1.72,-4.07,-3.18,-1.75,2.18,2.0,-0.04302523,-0.08478051,0.006787742,-0.3139866,0.676152,-10.23461,2
37861203,5315,2.18,-1.69,-3.61,-3.74,-2.64,2.2,1.98,0.081163,-0.09878132,-0.0473802,-0.6075288,0.7353847,-9.566996,2
37973006,5150,2.73,-1.67,-2.58,-4.11,-3.82,2.21,1.59,0.04764518,-0.1314077,-0.08894739,-0.7968803,0.3649331,-9.501409,2
38092315,5072,2.75,-1.59,-2.41,-4.37,-4.25,2.22,1.16,0.05968997,-0.01019384,-0.0522938,-0.7364929,0.503491,-9.567858,2
38194302,5188,2.71,-1.67,-2.73,-4.32,-4.26,2.22,0.79,-0.1136287,0.04238787,-0.04185814,-0.602038,0.5315916,-9.714753,2
38302277,5366,2.44,-1.81,-2.58,-4.13,-4.33,2.21,0.5,0.1073406,0.04006669,-0.05677694,-0.4800647,0.7407538,-9.671709,2
38408250,5468,2.73,-1.89,-2.52,-3.87,-4.3,2.2,0.23,0.03606493,0.0447501,-0.03132753,-0.5611807,0.5624131,-9.599242,2
38522592,5418,2.63,-1.91,-2.64,-3.76,-3.95,2.2,0.08,0.118256,0.03481017,-0.02365062,-0.3952654,0.584443,-9.39706,2
38629266,5316,2.6,-2.07,-2.75,-3.6,-3.7,2.19,0.01,-0.1140863,0.03231078,0.006639924,-0.4810665,0.5220302,-9.832705,2
38848801,5344,2.98,-2.14,-3.21,-3.52,-3.64,2.19,0.3,-0.175986,0.07659352,0.03060059,-0.6509552,0.4741077,-9.814503,2
38955075,5396,2.39,-2.14,-3.04,-3.45,-3.6,2.19,0.6,0.1194405,-0.04495789,0.02318304,-0.673098,0.6049618,-9.711823,2
39055709,5357,2.6,-2.32,-2.69,-3.25,-3.54,2.18,0.76,-0.0252758,0.02290454,0.02036722,-0.4920582,0.4538311,-9.641768,2
39275473,5384,2.47,-2.64,-2.13,-2.78,-3.03,2.16,1.16,0.05016571,0.06444529,0.05284028,-0.565515,0.3920752,-9.846575,2
39383456,5301,2.3,-2.86,-2.62,-2.8,-2.17,2.16,1.52,-0.06791279,0.08082815,0.07846456,-0.5426389,0.8343853,-9.905418,2
39494909,5338,2.17,-3.37,-2.46,-2.78,-2.06,2.16,2.01,0.04056238,-0.01110441,0.05767741,-0.3787603,0.5316658,-9.773235,2
39607317,5081,2.16,-3.72,-2.98,-2.84,-2.34,2.16,2.29,-0.1481477,-0.06366336,0.02508746,-0.6573845,0.5876072,-9.58519,2
39702239,5045,2.44,-4.05,-3.19,-2.92,-2.65,2.17,2.42,0.04706179,-0.02666269,0.01511511,-0.5441706,0.6354915,-9.524655,2
39815401,5212,2.85,-4.26,-3.83,-2.87,-3.06,2.17,2.52,-0.05753756,-0.06890072,0.01412586,-0.5194145,0.3223583,-9.640059,2
39922701,5385,2.69,-3.98,-4.71,-2.83,-2.73,2.16,2.66,-0.01673358,0.01308815,0.03995405,-0.4285622,0.6156622,-9.908083,2
40033422,5397,2.83,-3.5,-5.34,-2.8,-2.34,2.16,2.49,-0.1255062,0.03094823,-0.03594122,-0.4929786,0.615922,-9.988902,2
40150985,5316,2.32,-2.58,-5.02,-3.04,-2.16,2.17,2.09,0.006293858,0.04670787,-0.04586244,-0.4503643,0.4019249,-10.07563,2
40251775,5200,2.75,-1.69,-4.18,-3.3,-2.5,2.18,1.72,0.04475117,-0.03062543,-0.05346203,-0.6842164,0.1765666,-9.945162,2
40351720,5425,2.47,-0.96,-3.15,-3.43,-2.97,2.19,1.33,0.141825,-0.09410166,-0.08049647,-0.4462548,0.2927034,-9.56255,2
40470889,5249,2.94,-0.08,-1.85,-3.43,-3.58,2.19,0.73,0.1140369,0.01438125,-0.08076502,-0.754054,-0.02443109,-9.691166,2
40578800,5335,2.65,0.6,-1.39,-3.41,-3.81,2.19,0.24,-0.05859862,0.0307293,-0.0618399,-0.7665145,-0.02306181,-9.569592,2
40687333,5416,2.87,1.24,-1.11,-3.35,-3.48,2.19,0.01,0.08544002,0.1181448,-0.01783009,-0.4725063,0.01788094,-9.50261,2
40791021,5457,3.07,1.83,-1.49,-3.35,-3.24,2.19,0.07,-0.07116048,-0.07185224,0.04312965,-0.569431,-0.0003187936,-9.548134,2
40900655,5515,2.77,2.54,-1.28,-3.28,-3.26,2.19,0.53,0.1022801,0.0596792,0.07007971,-0.557938,-0.108294,-9.470158,2
41009226,5554,2.49,3.21,-0.06,-3.36,-3.02,2.19,0.86,0.3186638,0.01277538,0.05985294,-0.5152847,0.1947093,-9.767476,2
41122342,5440,2.76,3.8,1.5,-3.35,-3.08,2.19,1.1,0.1374762,0.0493946,0.01763662,-0.6247923,0.0924527,-9.828517,2
41233016,5394,2.57,4.0,2.73,-3.42,-2.88,2.18,1.27,0.1821101,-0.02450085,0.06093174,-0.5594165,-0.05575744,-9.634561,2
41339539,5272,2.99,3.94,2.62,-3.37,-2.91,2.19,1.45,-0.07796058,-0.01853474,0.008059131,-0.6010693,-0.1444127,-9.772277,2
41449235,5362,2.92,3.79,1.76,-3.43,-2.55,2.18,1.66,-0.09393811,0.03290047,0.01394026,-0.5680649,0.08441193,-9.658642,2
41562298,5452,2.23,3.57,1.71,-3.45,-2.46,2.18,1.93,-0.005274201,0.02156178,0.04397428,-0.7431574,-0.1045827,-9.752369,2
41669179,5201,2.8,3.52,1.28,-3.58,-2.5,2.17,2.19,-0.07958166,0.004092778,0.06045135,-0.598327,0.07749379,-9.525105,2
41778324,5305,2.18,3.41,1.59,-3.72,-2.81,2.16,2.29,0.1593002,-0.08269768,-0.02134289,-0.6468853,0.07765767,-9.725146,2
41887709,5144,2.32,3.2,2.26,-3.8,-3.14,2.16,2.03,0.1260533,0.01639768,-0.0838564,-0.4815577,0.02168093,-9.827194,2
42005226,5214,2.6,2.9,2.45,-3.86,-3.31,2.16,1.29,-0.04201318,-0.01230252,-0.1466261,-0.5575277,-0.02039522,-9.67577,2
42104765,5369,2.9,2.3,1.67,-3.86,-3.12,2.16,0.57,-0.1983521,-0.05198419,-0.1293821,-0.6403892,-0.1660443,-9.937939,2
42217210,5357,2.53,1.61,0.47,-3.9,-2.86,2.15,359.97,-0.179223,0.009254663,-0.06938186,-0.7036742,-0.04067022,-9.787375,2
42325779,5400,3.2,1.14,-0.54,-4.1,-2.94,2.15,359.62,-0.02951565,-0.02417842,-0.070081,-0.4756417,0.2845585,-9.684104,2
42434920,5674,2.99,0.89,-0.85,-4.25,-3.42,2.15,359.56,-0.01936244,-0.03609925,0.005068901,-0.907436,0.02166209,-9.728816,2
42655814,5564,2.48,-0.07,-0.51,-4.31,-3.85,2.15,0.15,0.03706196,0.006848339,0.05096008,-0.5535372,-0.2374195,-10.09562,2
42755350,5426,3.06,-1.21,-1.84,-4.04,-3.96,2.14,0.62,-0.3504081,-0.04229812,0.1059501,-0.6045296,0.306208,-9.92445,2
42869443,5386,2.11,-2.87,-2.9,-3.59,-4.3,2.13,1.71,-0.2432816,-0.1287498,0.2128428,-0.1991042,0.07476095,-9.784224,2
42981957,5244,2.14,-4.45,-3.44,-2.86,-5.02,2.08,3.16,-0.1088138,0.04708728,0.2388194,-0.6718292,0.11123,-9.821671,2
43089624,5128,2.2,-5.87,-4.14,-2.36,-4.54,2.03,4.54,-0.1256031,0.1079929,0.233952,-0.4900204,0.2824838,-10.23202,2
43191196,5124,2.24,-6.89,-4.88,-1.89,-4.0,1.98,5.79,-0.04961491,0.09536398,0.2425835,-0.8540705,0.3111667,-10.07299,2
43295613,5031,2.03,-7.94,-5.36,-1.61,-2.81,1.94,7.33,-0.1752943,0.2030988,0.2523303,-0.3866244,0.5490368,-10.12617,2
43412565,4811,2.27,-8.29,-5.09,-1.38,-2.12,1.91,8.62,0.10703,-0.002961391,0.1305809,-0.4156654,0.6525103,-10.29981,2
43510390,4640,1.84,-7.61,-4.03,-1.2,-1.81,1.89,8.92,0.4092573,-0.0313808,-0.00402148,-0.3800983,0.7256268,-10.02829,2
43625280,4571,2.24,-7.27,-3.26,-1.07,-1.56,1.87,8.67,-0.0185655,0.0632899,-0.0638120799999999,-0.4437608,0.6017569,-10.12922,2
43725248,4449,2.11,-7.33,-2.96,-1.01,-1.55,1.86,8.05,0.008884604,0.01364268,-0.1411559,-0.5301061,0.3442659,-10.26107,2
43840759,4622,2.05,-7.61,-3.54,-0.98,-1.24,1.86,6.91,-0.1391944,0.04439807,-0.1681576,-0.3467413,0.6888241,-9.882306,2
43940695,4744,2.36,-7.87,-4.26,-0.84,-1.34,1.84,5.81,-0.2061426,0.03727704,-0.2206702,-0.2335887,0.7842984,-9.703098,2
44047600,4844,2.56,-8.12,-4.94,-0.62,-1.69,1.81,4.56,0.01230076,-0.08490278,-0.2082211,-0.4040233,0.5063055,-9.741306,2
44159993,5024,2.97,-8.0,-6.04,-0.15,-1.67,1.74,3.18,0.02623596,0.09261058,-0.192589,-0.1985212,0.6992264,-9.890162,2
44269168,5281,3.18,-7.64,-6.39,0.43,-1.4,1.66,2.04,-0.105757,0.09430553,-0.1502678,-0.3988484,0.4457988,-10.05085,2
44381752,5543,3.07,-6.89,-6.4,0.87,-0.5,1.6,1.17,-0.06804896,0.1843252,-0.087468,-0.3813543,0.4648896,-10.46406,2
44486220,5574,2.36,-6.61,-5.58,1.16,0.22,1.57,0.82,0.1878087,0.1239174,-0.004762069,-0.1000106,0.6409767,-10.1345,2
44595758,5459,2.27,-7.45,-5.23,1.35,0.47,1.55,1.1,-0.09711961,0.05031465,0.06959891,-0.3443692,0.609234,-10.46553,2
44928187,5262,1.97,-7.18,-5.92,3.17,1.85,1.3,2.01,0.04683714,0.2094102,0.09502613,-0.2358723,0.5375605,-9.796468,2
45032344,4979,2.21,-6.77,-5.07,4.43,3.46,1.15,2.38,0.0211277,0.2865437,0.1158855,-0.1591052,0.9004508,-9.802911,2
45141043,4906,2.14,-6.59,-4.25,5.37,4.71,1.04,2.83,-0.03181541,0.1829166,0.0968532899999999,-0.08887038,0.3805675,-9.737474,2
45253662,4781,1.79,-6.5,-3.78,5.84,5.29,0.98,3.41,0.1110877,-0.05457033,0.07276626,-0.02879359,0.5232477,-9.748522,2
45361194,4712,1.93,-6.33,-3.88,5.87,5.34,0.98,3.84,0.06184009,-0.04589081,0.04109713,-0.1451091,0.5527183,-9.600958,2
45573661,4686,2.46,-6.02,-4.3,5.2,4.68,1.05,4.34,-0.06029544,-0.01384319,0.03754214,0.1559674,0.7232332,-9.651514,2
45688813,4783,2.0,-5.8,-3.84,5.0,3.92,1.07,4.55,0.07361837,-0.111917,0.01737123,-0.1567558,0.4839703,-10.08797,2
45796947,4736,1.82,-5.52,-3.5,5.0,3.69,1.08,4.67,0.1522631,-0.06030066,0.01440463,0.1345101,0.6244797,-9.857933,2
45905430,4671,1.92,-5.21,-3.54,4.96,3.63,1.08,4.67,-0.0879814399999999,0.04342562,0.003599937,-0.1059523,0.6316249,-9.656215,2
46016267,4680,2.02,-4.9,-3.45,4.95,3.43,1.08,4.47,0.09339859,-0.0856315899999999,-0.04637318,-0.0910835,0.8185395,-9.650284,2
46116786,4617,2.08,-4.74,-3.42,4.9,3.32,1.08,4.19,0.1191375,-0.03615861,-0.06628225,-0.01087891,0.6799751,-9.666033,2
46230210,4693,2.18,-4.59,-3.3,5.03,3.29,1.07,3.77,-0.06485315,0.09818538,-0.04024914,-0.03096251,0.7866967,-9.59986,2
46338212,4776,2.34,-4.42,-3.19,5.17,3.37,1.06,3.29,-0.02462617,0.0347669,-0.1052401,0.06352438,0.7962713,-9.774488,2
46448891,4826,2.48,-4.18,-3.0,5.15,3.68,1.06,2.63,0.08214393,0.03461462,-0.09963938,0.04420093,0.5819642,-9.626263,2
46550005,4821,2.05,-3.93,-3.14,5.01,3.91,1.07,2.17,-0.1101443,0.09589941,-0.08393573,0.03147361,0.6224434,-9.606185,2
46664052,4962,2.3,-3.78,-2.86,4.61,4.12,1.1,2.06,-0.013597,-0.06246539,0.03539602,0.1177511,0.577459,-9.819428,2
46775495,4861,2.03,-3.64,-2.87,4.32,3.64,1.12,2.25,-0.1703186,-0.02343349,0.02233917,-0.1001163,0.9275122,-9.922728,2
46884813,4915,2.33,-3.52,-2.92,3.98,2.79,1.14,2.52,0.06836258,-0.2711787,0.0418251,0.09146872,0.7232689,-9.824146,2
46991013,4920,2.08,-3.42,-2.89,4.0,2.38,1.14,2.85,0.008663897,-0.02994749,0.08413357,-0.2218272,0.5338354,-9.954197,2
47087288,4871,2.16,-3.21,-2.65,4.02,2.48,1.14,3.44,-0.1120456,0.05974412,0.1303606,0.1566469,0.5746113,-10.33133,2
47314774,4873,2.36,-2.57,-3.26,4.67,2.71,1.11,4.9,-0.1895153,0.05104621,0.06394863,0.2602529,0.6139665,-9.695658,2
47420034,4691,1.79,-2.39,-3.05,4.93,2.9,1.09,5.03,0.08628747,0.0204609,-0.02075668,0.4017467,0.5474751,-9.99637,2
47533007,4599,2.11,-2.15,-2.94,5.28,2.89,1.08,4.76,-0.05610573,0.03008546,-0.05737545,0.3082402,0.6918164,-9.814208,2
47633489,4700,1.92,-1.93,-2.47,5.54,2.66,1.07,4.2,0.06981608,-0.0594368,-0.1264875,0.1808559,0.4877479,-9.658702,2
47863955,4720,2.09,-1.44,-2.08,6.09,3.57,1.06,2.28,0.05550854,0.2157157,-0.152555,0.3031915,0.6625489,-9.548701,2
47957676,4812,1.96,-1.37,-1.41,6.33,4.15,1.05,1.35,0.03251892,0.1096689,-0.1591822,0.4087301,0.607637,-9.758506,2
48079988,4729,2.07,-1.45,-0.72,6.39,4.48,1.05,359.89,0.02431994,0.02489714,-0.2283879,0.3159161,0.322118,-9.361213,2
48178426,4632,2.08,-1.54,-1.25,6.22,4.58,1.05,358.65,-0.1998061,0.02000014,-0.2052528,0.1624252,0.4789655,-9.885159,2
48283929,4824,1.63,-1.81,-0.79,5.83,4.05,1.06,357.55,0.1664989,-0.11813,-0.1586146,0.03244881,0.6905556,-9.383425,2
48392022,4615,2.27,-1.99,-0.79,5.54,4.05,1.07,356.77,-0.0704932499999999,0.02123309,-0.08024147,0.002969667,0.5922662,-9.120087,2
48519277,4713,1.83,-2.24,-1.72,5.32,4.72,1.08,357.08,-0.1585939,0.136118,0.1352202,0.2614195,0.7729089,-9.432253,2
48615919,4798,2.19,-2.57,-1.79,5.38,4.56,1.08,357.94,-0.1038974,-0.04314315,0.1607343,0.7256351,0.669592,-9.360907,2
48726759,4635,2.16,-2.88,-1.97,5.49,3.76,1.07,359.11,0.1028232,-0.1938569,0.1876895,0.3749933,0.7103155,-9.294614,2
48839304,4691,2.01,-3.12,-2.27,5.61,3.49,1.07,0.59,-0.04585889,-0.0406727,0.2354958,0.6578234,0.6131049,-10.25373,2
48936405,4515,1.75,-3.11,-2.49,6.0,3.4,1.04,1.86,-0.06327467,0.03581957,0.2087233,0.4854775,0.56702,-9.855895,2
49050904,4604,2.13,-3.07,-3.23,6.45,3.85,1.02,2.93,-0.2310007,0.116505,0.1077117,0.5643349,0.4737367,-10.09501,2
49156444,4653,2.22,-3.07,-3.66,6.9,4.21,1.0,3.46,-0.1670789,0.130629,0.06069607,0.5026826,0.5675174,-10.28679,2
49264555,4743,1.83,-3.07,-3.07,7.1,4.75,0.99,3.56,0.1240367,0.1228467,-0.01264551,0.4635507,0.5294887,-10.00641,2
49366369,4581,2.0,-3.12,-1.87,7.13,4.76,0.98,3.33,0.4028931,-0.1018684,-0.04070504,0.4340184,0.7276726,-10.41154,2
49483457,4431,2.6,-3.52,-1.22,6.77,4.85,1.0,3.01,-0.2941388,0.1708492,-0.03373093,0.2497988,0.3893079,-9.972343,2
49594724,4329,3.34,-3.83,-2.64,6.19,4.92,1.04,2.53,-0.3855567,-0.06113246,-0.09531172,0.3681034,0.7514838,-9.729341,2
49703960,4498,2.55,-4.24,-4.0,5.34,4.38,1.1,2.18,-0.1582337,-0.1249619,-0.03740045,0.4366389,0.8740229,-10.26851,2
49816465,4632,1.83,-4.36,-4.34,4.46,3.67,1.17,1.99,-0.1182557,0.03781588,-0.04421337,0.1833821,0.9921149,-10.06696,2
50027285,4778,1.69,-3.89,-3.33,3.01,2.53,1.27,2.18,0.2651283,-0.04951917,0.02653808,0.3361486,0.9139834,-9.871203,2
50136502,4411,2.05,-3.87,-2.86,2.76,1.87,1.29,2.63,0.08331954,-0.03650909,0.07355391,0.4307699,0.6118091,-10.15284,2
50251459,4372,1.68,-3.92,-3.02,2.56,1.63,1.31,3.0,0.127785,-0.06576604,0.04752763,0.3188723,0.8271746,-9.8815,2
50349262,4244,3.3,-3.97,-3.88,2.39,1.94,1.32,3.17,-0.4072138,0.0705248,0.02623928,0.4522867,0.6323314,-9.923005,2
50567890,4474,2.59,-3.75,-4.88,1.98,2.01,1.35,3.14,-0.2015101,0.01602824,-0.04379655,0.447701,0.4291498,-9.688902,2
50688915,4969,2.28,-3.15,-4.8,1.59,1.99,1.37,2.63,-0.02431857,0.03717944,-0.08359163,0.1532665,0.5502479,-9.800667,2
50796905,4978,2.24,-2.45,-4.1,1.03,2.4,1.4,2.07,0.06448764,0.1408702,-0.05411368,0.301737,0.4778142,-9.840073,2
50899231,5199,2.18,-1.79,-3.3,0.43,2.21,1.42,1.73,0.2352227,-0.139067,-0.07030728,0.5058886,0.8262664,-10.10975,2
51006809,5169,2.19,-1.22,-2.19,-0.29,1.98,1.44,1.58,0.110601,-0.03917298,0.03000902,0.2324254,0.7626599,-10.2343,2
51118215,5108,1.87,-1.05,-0.9,-0.82,0.88,1.45,1.59,0.2193525,-0.2488415,0.02213939,0.1858293,0.6797487,-10.20044,2
51228045,4828,1.97,-1.1,-1.12,-2.13,-0.04,1.47,1.8,-0.2995417,-0.1314919,0.05099831,0.2333482,0.2977468,-9.781872,2
51336415,4654,2.29,-1.29,-1.87,-3.49,-1.74,1.5,2.19,-0.1992747,-0.3273891,0.04911981,0.3041328,0.6055077,-9.961039,2
51552022,4796,1.8,-1.43,-2.04,-5.17,-6.39,1.54,2.57,-0.002853167,-0.09873635,-0.05932922,0.003503133,0.6564304,-10.37065,2
51665817,4382,2.75,-1.61,-0.99,-5.11,-6.59,1.54,1.99,-0.3068175,0.2904528,-0.08405542,-0.3496514,0.4575577,-9.36464,2
51771781,4049,3.34,-1.98,-1.35,-4.98,-5.26,1.54,1.33,-0.3143096,0.222894,-0.1040097,0.200033,0.5770378,-9.40851,2
51873409,4150,3.57,-2.45,-1.85,-4.79,-4.63,1.53,0.92,-0.396046,0.1486603,-0.03732799,0.4702134,0.9320714,-9.624767,2
51982986,4456,2.38,-3.09,-1.74,-4.63,-4.56,1.52,0.94,0.1437368,-0.009963956,0.012213,0.4314003,0.8006721,-9.406862,2
52092692,4432,2.14,-3.53,-2.07,-4.48,-3.88,1.51,1.34,-0.0747359799999999,0.1908206,0.1063854,0.0995527799999999,0.8050587,-9.606122,2
52203261,4458,2.05,-3.83,-2.54,-4.14,-3.68,1.49,1.81,-0.2299312,0.07248708,0.05132734,-0.1472594,0.6487,-10.07616,2
52304126,4333,2.12,-3.93,-2.9,-3.95,-3.56,1.48,2.17,-0.0118163,0.0812898,0.07217546,0.2052264,0.7590313,-10.11137,2
52521979,4457,2.04,-3.88,-2.59,-3.26,-4.17,1.43,3.15,0.2652129,-0.133167,0.09516613,0.5076383,0.5958211,-10.09733,2
52634898,4453,2.01,-3.6,-2.33,-2.74,-4.17,1.4,3.77,-0.05631471,0.1101545,0.08655469,0.4086678,0.3756072,-10.13666,2
52740880,4217,2.26,-3.38,-2.39,-1.86,-4.23,1.34,3.96,-0.1967429,0.06541121,0.01370293,-0.1354236,0.7157744,-10.12,2
52956701,4299,2.81,-3.68,-2.71,0.81,-1.34,1.17,3.37,-0.301163,0.3690425,-0.07827927,0.03926673,0.6098476,-10.37072,2
53069197,4182,2.9,-3.86,-3.28,2.17,1.47,1.08,2.63,-0.3325679,0.4446795,-0.1003917,0.453726,0.4923189,-9.546833,2
53177880,4105,3.68,-4.04,-3.75,2.9,2.43,1.03,1.8,-0.5388061,0.1706075,-0.1566282,0.133595,1.275435,-10.3211,2
53294981,4201,3.5,-4.07,-3.78,3.19,2.32,1.01,0.63,-0.4967681,0.1804986,-0.114484,0.1256144,0.788058,-10.03175,2
53398027,4233,3.28,-3.86,-3.88,3.22,1.79,1.01,359.92,-0.04378643,-0.0639097,-0.1039979,0.1230425,0.4650804,-10.33941,2
53506655,4580,1.95,-3.73,-3.5,3.16,2.13,1.02,359.49,0.2567159,0.1583116,-0.05337744,-0.2694328,0.3275003,-9.661806,2
53622213,4680,1.83,-3.66,-2.9,2.97,3.15,1.03,359.2,0.1526074,0.05311571,-0.02318135,0.04890462,0.4071461,-10.2192,2
53730969,4616,2.05,-3.61,-2.98,2.64,3.81,1.05,358.99,-0.1295453,0.06616215,-0.01919501,0.1909074,0.6676626,-9.890166,2
53831430,4644,1.6,-4.08,-3.22,2.22,3.74,1.08,358.8,-0.2098901,0.03538294,-0.03266531,0.2688957,0.3744559,-9.756701,2
53937436,4684,2.33,-5.59,-3.97,1.58,3.09,1.13,358.64,-0.1486036,-0.2224742,-0.06004798,0.0914498599999999,0.542322,-9.736593,2
54054466,4690,1.78,-7.16,-6.03,0.72,2.21,1.23,358.59,-0.1449875,-0.1746037,-0.07655494,-0.166778,0.8947998,-9.953612,2
54163716,4860,2.18,-8.01,-7.28,-0.08,1.25,1.34,358.45,-0.03497675,-0.2057328,-0.05327225,-0.05942042,1.239708,-10.06658,2
54267191,4714,2.24,-8.39,-7.12,-0.73,0.33,1.43,358.28,-0.07499927,-0.04285282,-0.04573624,-0.2056255,0.4977378,-9.777597,2
54387279,4711,2.05,-8.17,-7.22,-1.68,0.19,1.57,358.23,-0.07125843,-0.04958115,0.02577817,0.257549,0.7619924,-9.115436,2
54494498,4698,2.71,-7.21,-6.69,-2.16,-0.88,1.64,358.43,0.01359881,-0.1516766,0.01367847,-0.122336,1.217011,-9.720381,2
54713930,4816,1.73,-5.43,-2.73,-2.8,-2.43,1.71,359.01,0.3296753,-0.07063814,0.05388389,-0.4169722,0.482312,-9.841425,2
54818407,4569,2.25,-5.1,-2.46,-2.76,-2.51,1.7,359.35,0.04874514,-0.02223879,0.03432128,-0.1155466,0.5817443,-9.761209,2
54933410,4556,2.42,-4.95,-3.75,-2.93,-1.76,1.72,359.44,-0.1664273,0.0786139,-0.006205421,-0.4430516,0.7008949,-9.710625,2
55036804,4862,2.55,-4.7,-5.39,-4.0,-1.08,1.81,359.38,-0.1048002,0.04648494,0.01850739,0.148898,0.7999453,-9.337749,2
55146958,5059,2.2,-4.24,-5.59,-5.13,-1.69,1.9,359.63,0.0643615,-0.100928,0.04573207,0.05518846,0.7432908,-9.632524,2
55262167,5085,2.42,-3.3,-4.41,-5.8,-3.04,1.95,0.29,0.1520797,-0.04913596,0.1098325,-0.1509931,0.6794539,-9.479082,2
55375448,5080,2.47,-2.37,-3.13,-5.79,-3.42,1.95,0.95,0.2539766,-0.01617377,0.1051226,-0.2810603,0.6884909,-9.873952,2
55476798,5040,2.29,-1.91,-2.37,-5.37,-2.7,1.93,1.42,-0.02831868,0.2031532,0.1056189,-0.1874262,0.2736197,-10.13431,2
55702685,4915,2.2,-1.5,-2.57,-4.49,-1.68,1.9,2.6,-0.1416659,0.1632287,0.09721477,0.05088867,0.9527473,-9.652452,2
55813659,4937,2.02,-1.5,-2.52,-4.24,-1.4,1.9,3.17,0.1050725,-0.04598829,0.1055331,0.01431966,0.780044,-9.962509,2
55922232,4783,2.04,-1.22,-2.45,-4.03,-1.48,1.89,3.61,-0.0690625099999999,-0.02252675,0.06678292,-0.05702411,0.5663542,-9.941921,2
56027404,4754,2.04,-0.86,-2.23,-3.92,-1.74,1.89,3.91,0.08467519,-0.07765855,0.04508773,-0.05213081,0.7733901,-9.516205,2
56138915,4698,2.25,-0.74,-1.88,-3.79,-2.02,1.89,4.03,0.03103275,0.003508574,0.00711535,-0.1484278,0.7245741,-9.765349,2
56252281,4668,1.96,-0.76,-1.23,-3.61,-2.16,1.89,4.09,-0.1281818,0.03448094,0.01564007,-0.0001059756,0.6035759,-9.717455,2
56357798,4498,1.88,-0.74,-1.26,-3.31,-2.17,1.88,4.2,0.1387897,-0.02261954,0.005859559,-0.194156,0.4340242,-9.50769,2
56462913,4488,2.09,-0.36,-1.46,-3.41,-2.04,1.88,4.23,-0.1060872,0.05353041,0.0096375079999999,-0.08840198,0.9661654,-9.672331,2
56570799,4566,1.97,-0.11,-0.54,-3.51,-2.35,1.88,4.05,0.3713266,-0.0668441699999999,-0.04516071,-0.1196739,0.5553356,-9.443093,2
56681923,4343,2.25,-0.05,-0.38,-3.55,-2.42,1.88,3.79,-0.09578382,-0.03158256,-0.04034348,-0.05986288,0.4048023,-9.770168,2
56795705,4430,2.08,-0.15,-0.69,-3.41,-2.54,1.88,3.43,-0.04673094,-0.0198076,-0.05895391,-0.3203856,0.7992098,-9.608084,2
56903455,4572,2.05,-0.46,-1.29,-3.15,-2.68,1.88,3.06,0.1091557,-0.08750243,-0.03549274,-0.2299049,0.839371,-9.565533,2
57010038,4750,1.66,-0.96,-1.15,-2.78,-2.5,1.88,2.84,0.1140538,0.002398983,-0.005468014,-0.2665016,0.6659975,-9.176134,2
57114240,4671,1.84,-1.32,-1.04,-2.52,-1.86,1.87,2.72,0.01919382,0.1720049,0.003698341,-0.3247661,0.8169828,-9.752449,2
57223880,4673,1.95,-1.79,-1.17,-2.34,-1.13,1.87,2.74,0.007322567,0.06405769,0.008185097,-0.2440912,0.7606742,-9.941433,2
57333468,4717,1.88,-2.18,-1.74,-2.23,-0.82,1.86,2.85,-0.02259951,-0.02303467,0.01719262,-0.2626788,0.5561782,-9.832742,2
57440300,4775,2.12,-2.32,-2.82,-2.28,-0.7,1.87,2.81,-0.1893405,0.04927967,0.004820696,0.05616093,0.904225,-10.0568,2
57546672,4857,2.12,-2.47,-3.09,-2.32,-0.94,1.87,2.63,-0.05392201,-0.04534028,-0.06330404,-0.2305266,0.90371,-10.18974,2
57657800,4872,2.18,-2.46,-3.01,-2.29,-1.5,1.87,2.43,-0.014206,-0.05864156,-0.04191587,-0.5586491,0.6942179,-10.0448,2
57762592,4875,2.07,-2.52,-2.7,-2.27,-1.73,1.87,2.25,-0.02178185,0.03137434,-0.01673809,-0.1152215,0.3704751,-9.836299,2
57874943,4699,2.11,-2.65,-2.48,-2.2,-1.61,1.86,2.17,0.1741918,0.05609049,-0.01721072,-0.7264596,0.724072,-9.818217,2
57982812,4831,2.1,-2.92,-2.51,-2.08,-1.44,1.86,2.05,-2.913879e-05,0.1087673,-0.05188994,-0.3996261,1.024007,-9.892918,2
58081727,4727,2.11,-3.12,-2.71,-2.09,-1.37,1.86,1.85,0.03033132,-0.02768215,-0.0634200199999999,-0.3566439,0.8157089,-9.684405,2
58202233,4693,2.36,-3.36,-3.02,-2.1,-1.58,1.86,1.6,-0.04102254,0.004411581,-0.00598877,-0.3025809,0.8957157,-10.35303,2
58301974,4783,2.01,-3.66,-3.18,-2.2,-1.66,1.86,1.39,-0.1068604,-0.0001709275,-0.04607765,-0.6367053,0.9842367,-9.885483,2
58422717,4704,1.95,-4.01,-3.16,-2.33,-1.81,1.87,1.38,-0.0504205,-0.1114971,0.02442052,-0.2530642,0.825205,-9.802713,2
58519251,4599,1.53,-4.35,-3.35,-2.25,-2.3,1.87,1.57,-0.1714554,-0.04938063,0.04194064,-0.2846432,0.5626901,-9.51211,2
58634326,4588,2.22,-4.65,-3.68,-2.21,-2.46,1.86,2.03,-0.04181135,0.03969809,0.0691625399999999,-0.6247365,0.5837587,-9.701865,2
58742284,4625,2.06,-4.82,-4.11,-1.99,-2.45,1.85,2.52,-0.05800775,0.03475527,0.0610744,-0.7745547,0.6590341,-9.913645,2
58841963,4601,1.83,-4.65,-4.72,-1.88,-2.08,1.84,2.93,0.1535816,-0.1196735,0.0454615,-0.2822194,0.5393411,-9.796494,2
58953754,4680,1.86,-4.45,-4.83,-1.71,-1.65,1.82,3.15,0.0650545,0.03612101,0.01632995,-0.3745577,0.7731668,-9.552565,2
