TimeUS,RPM,Curr,DesRoll,Roll,DesPitch,Pitch,DesYaw,Yaw,GyrX,GyrY,GyrZ,AccX,AccY,AccZ,Guasto
0,4701,2.93,0.04,0.68,0.18,-1.11,22.93,23.0,-0.02978563,-0.05525744,0.005744657,-0.1122944,0.2297791,-9.919159,1
113492,5211,3.81,0.04,0.62,0.4,-1.28,22.93,23.09,-0.01338554,-0.01611879,0.04817425,-0.06131519,0.03272421,-10.99803,1
218539,5591,3.96,0.0,0.39,0.84,-0.94,22.93,23.58,0.03315518,0.1977122,0.1317185,-0.123062,0.3517007,-11.83068,1
441568,6069,3.65,-0.66,1.0,2.14,1.69,22.93,26.31,0.0812612499999999,0.1835521,0.2535223,0.3741331,0.334626,-11.06099,1
540982,6049,4.06,-1.1,1.38,2.38,2.31,22.92,27.64,0.0300826,0.05829016,0.224911,0.2435681,0.2544717,-10.59851,1
655755,6233,4.09,-1.84,1.18,2.61,2.06,22.92,28.94,-0.0693540099999999,-0.1299854,0.1644005,0.4455807,0.2532755,-10.04591,1
766568,6285,4.19,-2.55,0.51,2.94,1.61,22.91,29.85,-0.07466273,-0.06455244,0.1123398,0.2823856,0.3153494,-10.14231,1
871220,6285,4.05,-3.27,-0.21,3.13,1.81,22.69,30.39,-0.1344595,0.03769616,0.07114642,0.3725427,0.3322286,-9.595075,1
982524,6291,4.4,-3.76,-1.28,3.25,2.7,21.19,30.66,-0.177841,0.1196476,0.004273638,0.5271661,0.4474657,-9.708551,1
1199964,6403,4.72,-3.92,-1.79,3.38,3.23,16.02,29.19,0.05900317,0.03154216,-0.2238765,0.3854349,0.2728034,-10.0528,1
1304207,6553,4.85,-3.82,-1.57,2.93,2.99,13.7,27.59,0.1282729,-0.03582678,-0.3098197,0.3765553,0.4202677,-9.521373,1
1524703,6470,4.54,-3.34,-1.51,2.64,2.6,10.74,22.71,-0.00149492,0.02387382,-0.3873643,0.3260758,0.4982972,-9.885675,1
1639656,6425,3.81,-3.12,-1.45,2.88,2.65,10.72,20.25,-0.0475511,0.01503996,-0.3416553,0.3012975,0.4211627,-9.820303,1
1747626,6096,3.48,-3.0,-1.63,3.14,2.59,10.71,18.42,-0.06323349,-0.02000178,-0.2756598,0.4767467,0.3809903,-9.414056,1
1856314,6050,3.9,-2.93,-1.81,3.45,2.66,10.69,17.01,-0.02238944,0.02751499,-0.185167,0.2700872,0.3600912,-9.555564,1
1962144,5979,3.64,-2.83,-2.01,3.61,3.14,10.69,16.01,-0.02455768,0.1251184,-0.1459764,0.3522115,0.4384358,-9.567713,1
2067878,5860,4.02,-2.56,-1.86,3.66,3.38,10.68,15.27,0.08371094,0.03163537,-0.09342573,0.2842565,0.3651159,-9.884758,1
2176021,6084,3.97,-2.34,-1.56,3.56,3.64,10.69,14.77,0.0874581599999999,0.01112626,-0.06685819,0.5072448,0.3805827,-9.791274,1
2398508,6047,4.16,-2.56,-1.3,3.07,3.58,10.71,14.3,-0.01081492,0.03219288,0.0006940889,0.3726867,0.3823533,-10.26035,1
2610433,6156,3.87,-2.86,-1.83,2.17,2.6,10.75,14.18,-0.09733797,-0.09185696,-0.002950038,0.3103713,0.5163993,-9.772462,1
2730242,6136,3.98,-2.98,-2.17,1.78,2.2,10.77,14.18,-0.05761231,0.0374147,-0.003483076,0.1197564,0.4283552,-9.879162,1
2826508,6104,4.07,-2.84,-2.19,1.27,2.4,10.8,14.22,0.06629029,0.01229917,0.01482264,0.3611928,0.3672979,-9.843198,1
2935731,6212,4.19,-2.63,-1.83,0.76,2.08,10.82,14.49,0.08217002,-0.08867566,0.05642529,0.230043,0.3929007,-10.01382,1
3051121,6191,4.13,-2.36,-1.36,0.38,1.3,10.84,15.06,0.08964471,-0.1718114,0.09869606,0.2133855,0.449947,-9.902796,1
3153778,6256,4.28,-2.25,-0.99,0.24,0.8,10.84,15.66,0.06225045,-0.08420809,0.09100393,0.1669165,0.3469312,-9.982118,1
3261889,6240,4.28,-1.98,-1.39,0.2,0.62,10.85,16.22,-0.1518311,-0.02558202,0.08890756,0.4205331,0.3864503,-9.949539,1
3372892,6172,4.42,-1.85,-1.57,0.29,0.37,10.84,16.55,-0.01753278,-0.0462493,0.04561055,0.2541411,0.4032088,-9.747219,1
3482794,6260,4.38,-1.66,-1.74,0.41,0.3,10.84,16.68,-0.03728947,-0.01135685,0.01232986,0.1628904,0.4170206,-10.00443,1
3585671,6344,4.63,-1.62,-1.38,0.54,0.41,10.84,16.62,0.09550373,0.0151688,-0.01700189,0.2502995,0.4512277,-9.955947,1
3701718,6459,4.36,-1.85,-0.9,0.74,0.6,9.09,14.93,0.04784805,0.02241313,0.03029193,0.1469771,0.4905049,-10.02526,1
3807751,6307,5.0,-2.09,-0.59,0.88,0.77,9.09,15.36,0.0341136,-0.01708787,0.04388816,0.3514862,0.3653946,-10.52772,1
3919397,6482,5.05,-2.31,-0.56,1.03,0.98,9.08,15.95,-0.01950286,0.01094416,0.05227138,0.4648732,0.3886534,-10.71062,1
4029226,6486,5.36,-2.61,-0.88,1.37,0.71,9.07,16.31,-0.1430097,-0.1055526,0.01147838,0.3695934,0.3892103,-11.25935,1
4139283,6760,5.03,-2.79,-1.7,1.64,0.82,9.05,16.48,-0.1670672,0.04884415,-0.02794467,0.2893214,0.4045825,-11.25089,1
4247631,6660,5.08,-3.04,-2.34,1.67,1.32,9.05,16.87,-0.04200345,0.02164793,-0.06318768,0.2239249,0.4651356,-10.77034,1
4352691,6702,4.97,-3.02,-2.74,1.56,1.59,9.06,16.75,-0.003413762,0.07886606,-0.07766122,0.1680408,0.6115502,-10.76339,1
4463609,6742,4.88,-2.63,-2.16,1.51,1.6,9.06,16.11,0.1578549,-0.02931196,-0.07340959,0.201488,0.5272693,-10.8328,1
4673777,6739,4.06,-2.1,-1.12,2.04,1.88,9.04,14.31,0.01343518,0.1296106,-0.06887475,0.2244344,0.3404782,-9.768151,1
4788831,6303,3.64,-2.1,-1.31,2.35,2.73,9.03,13.81,-0.1129995,0.07509621,-0.08234029,0.2907277,0.4375463,-9.369743,1
4908962,6057,3.17,-2.08,-1.89,2.26,2.98,9.03,13.48,-0.09670106,0.04839461,-0.1020581,0.355077,0.401432,-8.667029,1
5005786,5869,3.48,-2.33,-2.05,2.0,2.91,9.04,13.06,0.04557522,-0.01766689,-0.08737613,0.2098588,0.3236034,-8.420415,1
5125462,5799,3.37,-2.79,-2.77,1.52,3.18,9.06,12.36,-0.01267477,-0.06001215,-0.08960012,0.2153395,0.6315863,-8.579663,1
5234884,5793,3.68,-3.64,-3.22,1.24,2.96,9.08,11.73,-0.0386752,0.002418054,-0.05855,0.02493329,0.6208588,-8.256983,1
5335003,5871,3.42,-4.61,-3.75,0.95,2.84,9.1,11.37,-0.2091148,-0.01963221,-0.03510695,0.09769557,0.5383838,-8.488765,1
5454639,5890,3.6,-5.75,-4.86,0.49,2.55,9.14,11.19,-0.200721,-0.1309911,-0.004737587,0.2965343,0.5855069,-8.714058,1
5554975,5931,3.96,-6.53,-5.83,0.14,1.84,9.18,11.41,-0.08187208,-0.1496425,0.03196806,-0.04363238,0.5799039,-9.200868,1
5664115,6097,3.92,-6.67,-6.21,-0.29,1.15,9.23,12.02,0.01713505,-0.1581428,0.06478842,-0.06750136,0.7722627,-9.382734,1
5778236,6029,4.19,-6.97,-6.04,-0.58,0.73,9.27,12.58,-0.02502345,-0.02858447,0.06582599,-0.01591315,0.6215838,-9.747118,1
5891589,6106,4.26,-7.69,-6.25,-0.66,0.57,9.27,13.02,-0.05358742,0.005360318,0.03199856,0.02971767,0.3150121,-9.669245,1
6006003,6201,4.61,-8.82,-7.12,-0.21,1.37,9.21,12.7,-0.1565738,0.1592359,0.0479176,0.1406083,0.6484653,-9.737761,1
6113738,6355,4.49,-9.76,-7.91,0.56,2.34,9.08,12.34,-0.1368307,0.1760033,0.04885594,-0.008635465,0.9570496,-9.846499,1
6215223,6343,4.38,-10.24,-8.34,1.0,2.83,9.0,12.38,-0.1218828,-0.01751394,0.04957124,0.1665206,0.7801441,-9.841202,1
6549749,6437,4.1,-8.02,-6.41,-0.14,0.96,9.18,12.93,0.1786127,-0.1710535,-0.002167764,0.3540349,0.7292319,-8.890409,1
6653877,6286,4.42,-6.98,-5.59,-0.87,-0.18,8.84,12.48,0.07310419,-0.1190342,0.003245006,0.08632115,0.6975536,-9.228336,1
6762716,6398,4.28,-6.28,-4.75,-1.04,-1.04,8.75,12.1,0.1031795,-0.08096631,-0.03237579,-0.1067034,0.6489726,-9.343309,1
6868459,6323,3.91,-6.02,-4.08,-0.06,-0.73,8.64,12.1,0.06311464,0.1069462,-0.01467558,-0.06948032,0.6913574,-9.407212,1
6981761,6207,3.57,-6.2,-4.71,1.37,1.25,8.49,11.74,-0.1567995,0.3337843,0.01157775,0.07530014,0.8600962,-9.242023,1
7088199,6125,3.84,-6.15,-5.27,2.41,2.85,8.38,11.4,-0.1045074,0.1775017,0.0484115,0.2395034,0.7989055,-9.128102,1
7203548,6044,4.26,-5.6,-4.77,3.36,3.96,8.28,11.1,0.1968271,0.0740300099999999,0.04919297,0.2432618,0.9409997,-9.57292,1
7314249,6286,4.19,-5.14,-3.76,3.97,4.48,8.22,11.06,0.1536452,0.04817522,0.05820756,0.3331025,0.9325218,-9.614157,1
7417721,6302,4.01,-4.5,-3.02,4.05,4.55,8.18,11.22,0.1541649,-0.08694509,0.05655954,0.2735374,0.8743749,-9.516124,1
7528115,6340,4.29,-4.21,-2.71,4.04,4.42,8.17,11.53,0.005326028,0.005606203,0.08506811,0.2814503,0.7687779,-9.693222,1
7640799,6331,4.08,-4.06,-2.85,4.09,4.27,8.17,11.92,-0.1177589,-0.02403507,0.1033318,0.09517865,0.777257,-9.54615,1
7751087,6371,4.3,-3.94,-3.0,4.51,4.4,8.14,12.42,0.07521429,0.02968768,0.07472914,0.1164835,1.062757,-9.439897,1
7853979,6374,4.31,-3.66,-3.12,4.79,5.02,8.12,12.9,0.01981606,0.08903591,0.03999718,0.1994181,0.8933837,-9.663216,1
7957633,6424,4.57,-3.43,-2.79,5.19,5.42,8.09,13.2,-0.03931892,0.1205865,0.02745385,0.2680607,0.6769298,-9.61742,1
8070650,6274,4.52,-3.19,-2.55,5.49,5.69,8.08,13.28,-0.07739326,-0.003066804,-0.000511656,0.2083257,0.652638,-9.542034,1
8176030,6429,4.64,-3.14,-2.22,5.7,5.9,8.07,13.05,-0.01615189,0.06946286,-0.004610168,0.2039818,0.783123,-9.912812,1
8289284,6486,4.64,-3.17,-1.97,5.77,6.2,8.06,12.8,0.01500111,0.08913628,0.00770442,0.2678524,0.7566522,-9.665862,1
8396399,6581,4.5,-3.28,-2.09,5.79,6.04,8.06,12.62,-0.0679868,-0.06247709,0.021838,0.3102831,0.8567263,-10.10035,1
8509958,6470,4.2,-3.47,-2.5,5.83,5.8,8.06,12.68,-0.1210914,0.04104603,0.0664053899999999,0.4769808,0.9630626,-9.871208,1
8618732,6451,4.29,-3.46,-2.87,5.56,5.15,8.07,12.82,-0.1676625,-0.08501846,0.01644376,0.2832496,0.977268,-9.504563,1
8730620,6330,4.42,-3.44,-2.99,5.24,4.8,8.09,12.93,-0.02594678,-0.007504399,-0.02866163,0.2703859,0.7072909,-9.994891,1
8830503,6355,4.31,-3.25,-3.04,4.82,4.6,8.12,13.33,0.02555871,-0.06101361,0.0009247747,0.2874551,1.132308,-9.485409,1
8944646,6267,4.46,-3.12,-2.97,4.56,4.55,8.13,13.63,-0.06559026,0.06352743,-0.01212762,0.4577028,0.87545,-9.291433,1
9051367,6221,4.61,-2.91,-2.21,3.9,4.19,8.17,14.14,0.2159794,-0.1320717,0.06498405,0.3075542,0.6014095,-9.743944,1
9160521,6523,4.68,-2.78,-1.6,2.42,2.26,8.24,14.55,0.1150868,-0.4924072,0.02882082,0.5494926,0.8070104,-9.878228,1
9271731,6434,4.98,-2.78,-2.0,1.3,0.71,8.3,14.54,-0.1232716,-0.0580392,-0.03141444,0.3530829,0.7135798,-9.514564,1
9382446,6334,4.68,-2.87,-2.64,0.87,-0.34,8.32,14.68,-0.06923632,-0.1657187,0.006374519,0.3943927,1.031862,-9.98281,1
9600802,6403,4.65,-3.22,-2.96,1.02,-0.14,8.31,14.71,-0.2291009,0.1516856,-0.03260119,0.1730178,0.4960055,-9.562358,1
9707722,6495,4.99,-3.41,-3.32,1.12,0.77,8.3,14.69,0.2439906,0.1636843,-0.03687368,0.491848,1.221173,-9.316776,1
9820085,6435,5.11,-3.6,-3.79,1.14,1.26,8.3,14.73,0.06871098,0.01678692,0.01156859,0.7013438,1.110039,-9.677278,1
9933632,6537,4.83,-3.62,-3.79,1.31,0.37,8.29,15.02,0.1436545,-0.1496952,0.03069925,0.304139,1.040529,-10.41579,1
10031702,6493,4.68,-3.46,-3.55,1.4,0.19,8.29,15.27,-0.08215024,-0.005626652,-0.01348731,0.3195134,0.6938294,-10.27118,1
10142476,6670,4.52,-3.23,-3.2,1.68,0.15,8.27,15.24,-0.0495087,0.1282913,-0.04756166,0.2572806,0.7963566,-10.01737,1
10249238,6499,4.6,-2.58,-3.09,0.75,0.58,8.31,14.88,0.05502488,0.007031477,-0.08996703,0.7323621,0.9805392,-9.579126,1
10360321,6461,4.69,-1.52,-2.09,-1.14,-0.64,8.38,14.4,-0.02469749,-0.2347199,-0.1435034,0.565832,0.7737864,-10.05048,1
10466523,6340,5.09,-0.29,-1.33,-2.81,-3.23,8.41,13.76,-0.02610097,-0.3896474,-0.1715519,0.03411598,0.6849886,-10.23352,1
10682954,6319,4.09,-0.77,0.46,-2.04,-4.31,8.4,11.61,0.1477796,0.1907698,-0.1379744,-0.2053629,0.6516104,-9.90729,1
10791777,6451,4.54,-2.06,-0.99,-0.08,-1.53,8.36,10.51,-0.2284569,0.5221799,-0.1237892,0.299702,0.8107359,-9.569964,1
10899890,6257,4.04,-3.34,-2.81,1.43,1.16,8.28,9.63,-0.288357,0.4280624,-0.06658632,0.126238,0.8381707,-9.975962,1
11010391,6270,3.97,-3.51,-4.28,2.16,3.32,8.24,9.15,-0.05775778,0.2515418,-0.02958813,0.5899608,1.084695,-9.888826,1
11117413,6111,4.49,-3.29,-3.75,2.03,3.67,8.25,9.16,0.2176494,0.05322352,0.05182046,0.2572778,1.008612,-10.16802,1
11223004,6369,4.44,-2.98,-2.49,1.4,3.11,8.28,9.35,0.2166112,-0.1463463,0.07520387,0.06418876,0.7352135,-10.46314,1
11336294,6283,4.37,-2.89,-1.86,0.7,1.89,8.32,9.75,-0.04171055,-0.1987185,0.07771376,0.05889746,0.6940377,-10.15882,1
11446429,6440,4.01,-2.86,-2.43,0.12,1.05,8.35,10.15,-0.0613697,-0.164791,0.04535791,-0.08037012,1.02873,-9.95642,1
11549263,6282,4.4,-2.97,-3.09,-0.2,0.84,8.36,10.54,0.0098091729999999,0.01113412,0.06883626,0.3602866,1.024458,-9.879045,1
11659556,6273,4.74,-3.15,-3.08,-0.34,0.53,8.37,10.92,-0.01820128,-0.06550056,0.05256042,0.3267633,0.5065348,-9.769948,1
11764219,6499,4.75,-3.21,-2.88,-0.42,0.37,8.37,11.13,-0.00901329,-0.02795081,0.006333995,0.1227141,0.867793,-10.19361,1
11876014,6483,4.59,-3.32,-2.88,-0.47,0.17,8.38,11.27,-0.01406085,-0.01343041,-0.007532444,-0.08672526,1.049144,-10.02518,1
11979716,6478,4.8,-3.5,-2.87,-0.53,0.03,8.38,11.25,0.05155914,-0.05468986,-0.03433299,0.1225081,0.8083395,-9.798631,1
12094833,6625,4.33,-3.68,-3.27,-0.7,0.26,8.39,10.97,-0.1468638,0.01559362,-0.05053275,0.04674974,0.8187021,-10.00282,1
12197220,6451,4.44,-3.72,-3.95,-0.86,0.52,8.4,10.72,-0.1111784,0.0292918,-0.0296677,0.03518808,1.094074,-9.534181,1
12318597,6337,4.44,-3.76,-4.08,-1.11,0.52,8.42,10.53,0.03134616,-0.07559145,0.01836655,0.1995255,0.9841738,-9.669381,1
12416037,6465,4.55,-3.02,-3.87,-1.89,-0.52,8.47,10.73,0.0438503,-0.3358378,0.04709697,0.3063194,0.6558135,-10.06449,1
12530717,6342,4.75,-2.16,-2.61,-2.47,-2.67,8.49,11.08,0.2157935,-0.2956072,0.01330181,0.1016346,0.4301273,-9.876797,1
12632224,6482,4.53,-1.66,-2.21,-2.35,-3.42,8.49,11.17,0.1019621,-0.02385537,0.005560331,-0.1668492,0.8899958,-10.03957,1
12746059,6365,4.67,-1.63,-1.53,-1.77,-3.0,8.47,10.91,0.09402356,0.08608952,-0.08201002,0.06678795,0.5708706,-10.08671,1
12853133,6447,4.37,-1.85,-1.09,-1.07,-1.96,8.45,9.91,-0.06046879,0.2529678,-0.1867604,0.1433984,0.572541,-9.949659,1
12963742,6228,3.82,-2.1,-1.4,-0.6,-0.96,8.43,8.65,-0.04087431,0.1881338,-0.1909112,-0.1988543,0.6688055,-9.730489,1
13069246,6215,3.64,-2.26,-2.25,-0.4,-0.23,8.43,7.51,-0.1420776,0.1690226,-0.1435486,-0.08489241,0.5653915,-9.547943,1
13175757,5985,3.55,-2.29,-2.84,-0.43,0.51,8.43,6.76,-0.06103897,0.08869544,-0.1035166,-0.05235738,0.6514447,-9.763784,1
13295431,5972,3.59,-2.31,-3.3,-0.27,1.05,8.42,6.23,-0.08671113,0.02844452,-0.01571584,0.2418826,0.4073419,-9.848204,1
13400730,5860,3.5,-2.24,-3.63,0.05,0.78,8.41,6.57,0.0860947,-0.1022923,0.109551,-0.06109484,0.7822725,-9.170825,1
13509691,5911,3.84,-2.06,-3.64,0.3,1.0,8.4,7.53,0.03850935,-0.01033469,0.1818575,0.3191234,0.8088387,-9.915671,1
13615679,6020,4.23,-1.79,-3.27,0.77,1.06,8.38,8.49,0.05644374,0.01071301,0.1635383,0.3151318,0.7963067,-9.733818,1
13722751,6164,4.2,-1.59,-2.72,1.22,1.07,8.37,9.37,0.09321988,-0.03826255,0.1250534,0.2270109,0.6779416,-9.694039,1
13834479,6303,4.44,-1.43,-2.38,1.62,1.22,8.36,10.18,0.1059441,0.03284165,0.1135038,0.1340038,0.8238842,-9.579571,1
13941249,6215,4.57,-1.42,-2.21,1.08,1.4,8.37,10.88,-0.08686118,-0.01510005,0.1057043,0.6150399,0.6911245,-9.637966,1
14044607,6428,4.79,-1.47,-1.76,0.24,0.47,8.39,11.43,0.1479663,-0.2395914,0.1002614,0.1474492,0.8497516,-10.13835,1
14266794,6483,4.42,-1.58,-1.71,-0.9,-2.02,8.42,12.18,-0.1431633,-0.09606135,0.06346039,0.1429858,0.6901287,-10.00338,1
14482518,6385,4.49,-1.59,-2.04,-0.04,-1.28,8.4,12.82,-0.08558663,0.1782117,-0.005108112,0.4679061,0.6063405,-9.521764,1
14593557,6444,4.53,-1.51,-2.09,0.5,-0.38,8.38,12.73,0.01075141,0.1846716,-0.02714152,0.3614608,0.7976606,-10.01577,1
14708456,6488,4.28,-1.53,-1.85,0.76,0.0,8.38,12.42,-0.05212852,0.007542531,-0.06073941,0.1793309,0.438684,-10.14644,1
14931793,6326,4.31,-1.52,-1.74,1.27,-0.84,8.36,11.13,0.03885693,-0.006142905,-0.1162719,0.1504028,0.4700849,-10.07976,1
15040414,6279,3.73,-1.39,-1.85,1.48,-0.26,8.36,10.19,-0.09787969,0.1190995,-0.1556288,0.4409461,0.4626211,-9.719333,1
15355690,6223,3.6,-1.08,-1.81,1.84,1.18,8.35,7.19,-0.03598854,0.05417816,-0.1238533,0.2225312,0.6260043,-9.855252,1
15469620,5910,3.51,-0.94,-1.75,1.87,1.28,8.35,6.53,-0.0005674319,-0.007220229,-0.07416808,0.2634104,0.5351973,-9.772959,1
15577536,5872,3.58,-0.85,-1.55,2.02,1.4,8.35,6.29,0.002208656,0.04456224,-0.004967296,0.06660309,0.2772985,-9.962313,1
15681686,6011,3.97,-0.62,-1.45,2.12,2.2,8.39,6.52,0.01207476,0.1053442,0.1082546,0.3079665,0.6276067,-9.825439,1
15785581,5972,3.69,-0.45,-1.12,2.28,2.56,9.43,7.38,0.01645679,0.0359929,0.2033702,0.2016118,0.3348095,-10.04079,1
15900573,6030,3.82,-0.2,-0.77,2.32,2.98,11.66,9.17,0.06109064,0.08107978,0.3257722,0.2754463,0.4467766,-10.09248,1
16003975,5909,3.68,-0.14,-0.62,2.11,3.36,13.36,11.66,-0.007505581,0.01906505,0.462625,0.310428,0.3761023,-10.34486,1
16116341,5844,4.14,-0.18,-0.9,1.63,3.01,13.58,14.72,-0.04935254,-0.1360949,0.4077428,0.3892162,0.5764745,-9.360598,1
16225432,6043,4.52,-0.21,-1.4,-0.18,1.55,13.58,16.86,-0.09696254,-0.4014575,0.2849136,0.4932258,0.7718541,-10.05274,1
16443537,6264,4.86,-0.15,-1.45,-3.16,-2.89,13.6,18.8,-0.01161239,-0.2604518,0.02161229,0.008150198,0.5676618,-9.823129,1
16550789,6514,4.97,-0.24,-1.32,-3.79,-3.54,13.6,18.96,-0.0186502,0.01790863,0.04075341,-0.1168697,0.5512679,-10.29827,1
16659798,6511,4.52,-0.27,-1.29,-4.06,-3.38,13.6,18.89,-0.1147049,0.01822302,-0.03155669,0.1274201,0.2379244,-10.16459,1
16778014,6310,4.47,-0.19,-1.75,-4.13,-3.05,13.6,18.66,-0.07532909,0.111866,-0.06659469,-0.01001011,0.3478581,-9.990147,1
16879034,6274,4.56,-0.24,-1.69,-4.09,-2.82,13.6,18.17,0.0801912,0.03744072,-0.1078266,-0.03728929,0.4514305,-10.18294,1
16995955,6362,4.54,-0.35,-1.46,-4.01,-2.19,13.6,17.55,0.01652492,0.1640442,-0.05604801,0.1005838,0.558561,-10.17517,1
17104415,6432,4.54,-0.68,-0.99,-3.87,-2.36,13.6,16.98,0.04728347,-0.1039563,-0.1128391,0.06808719,0.5294777,-10.1895,1
17204991,6314,4.21,-1.03,-0.64,-3.7,-2.8,13.59,16.44,0.04039271,-0.004569271,-0.1081008,-0.01551037,0.3960398,-10.07153,1
17320257,6345,4.09,-1.27,-1.18,-3.55,-2.72,13.59,15.72,-0.1254019,0.0910251,-0.1048486,0.08015229,0.5209225,-9.7125,1
17419527,6366,4.18,-1.63,-1.59,-3.25,-2.47,13.58,15.08,-0.06389076,0.08213665,-0.1162059,0.01794238,0.3893229,-9.833955,1
17538085,6184,3.97,-1.81,-2.34,-3.13,-2.14,13.58,14.33,-0.0738372999999999,0.01508333,-0.1085669,0.0563449,0.5450394,-9.723387,1
17643023,6047,4.05,-1.91,-2.48,-2.99,-1.92,13.58,13.73,-0.02037254,-0.02964368,-0.09488977,0.07187792,0.4806938,-9.817838,1
17755736,6299,4.1,-1.88,-2.24,-3.0,-1.79,13.58,13.35,0.03549753,0.02692125,-0.04269841,-0.0005584477999999,0.4239631,-9.864293,1
17860994,6156,4.12,-1.78,-1.84,-3.07,-1.84,13.58,13.1,0.09994134,-0.0123467,-0.03084162,0.07853975,0.401717,-9.900374,1
17967010,6139,3.92,-1.72,-1.5,-2.99,-1.99,13.58,12.87,0.02933745,0.05582178,-0.03102301,-0.02727007,0.466341,-9.983718,1
18076093,6084,3.78,-1.67,-1.45,-3.01,-1.89,13.58,12.51,-0.03398176,0.06506887,-0.0728608,-0.1750206,0.5224464,-10.04011,1
18183722,6066,3.57,-1.64,-1.83,-3.11,-1.54,13.58,11.97,-0.09062118,0.1102004,-0.09653153,-0.2339975,0.4015933,-9.724631,1
18299777,5978,3.5,-1.55,-2.57,-3.41,-1.12,13.59,11.36,-0.1499753,0.03565845,-0.08704948,-0.1501372,0.4509277,-9.730362,1
18409491,5909,3.58,-1.36,-2.8,-3.61,-1.27,13.59,10.91,-0.03027726,-0.1059472,-0.06957765,-0.01938226,0.4223181,-9.641993,1
18505079,5858,3.33,-1.09,-2.64,-3.84,-1.57,13.6,10.57,0.04202312,-0.07748315,-0.0756576,-0.1152198,0.2670192,-9.898039,1
18620174,5930,3.27,-0.61,-2.51,-4.05,-1.91,13.6,10.2,0.01114795,-0.08761035,-0.06719054,-0.4467498,0.4855021,-9.993717,1
18730369,5678,2.98,-0.09,-2.27,-4.2,-1.7,13.6,9.74,0.001361988,0.0329209,-0.08372667,-0.4285668,0.2669788,-9.88318,1
18834738,5764,3.34,0.01,-2.15,-3.25,-0.99,13.6,9.3,-0.01479958,0.3034985,-0.02950365,-0.6284171,0.3504692,-9.751554,1
18943518,5658,2.96,0.02,-2.43,-2.61,0.86,13.6,9.2,-0.05020854,0.2211652,0.04163607,-0.2945348,0.1043868,-9.751497,1
19049533,5489,3.21,0.25,-2.65,-2.3,1.69,13.6,9.64,0.06001185,0.0837876,0.0927005,-0.2207506,0.3224494,-9.711861,1
19163034,5569,3.37,0.13,-2.4,-2.22,1.46,13.6,10.42,0.01831086,-0.04445042,0.1572979,-0.3059956,0.4834268,-9.480565,1
19271015,5571,3.74,0.01,-2.17,-2.33,0.77,13.6,11.35,0.08978869,-0.1550046,0.1746586,-0.406466,0.4709212,-9.773154,1
19376356,5782,4.03,-0.23,-1.62,-2.53,-0.13,13.61,12.29,0.02920589,-0.1880037,0.1485409,-0.4473433,0.2521633,-10.00501,1
19483989,5954,4.24,-0.09,-0.51,-2.6,-1.25,13.61,13.0,0.2506566,-0.164663,0.09224261,-0.338102,0.4052417,-9.776928,1
19589750,6142,4.11,-0.15,0.57,-2.34,-2.02,13.6,13.29,0.125502,-0.07513783,0.0005720838,-0.4095311,0.3768593,-10.03419,1
19705716,6196,3.58,-0.61,0.95,-1.71,-1.75,14.71,13.26,-0.03875897,0.09129981,-0.02138859,-0.3617291,0.475893,-9.883784,1
19807401,6115,3.22,-1.08,0.58,-1.09,-1.35,16.85,13.31,-0.09931225,0.06931973,0.03610677,-0.148395,0.4168196,-10.01673,1
19916009,5880,2.97,-1.55,-0.29,-0.58,-0.63,18.17,13.96,-0.229031,0.09727942,0.1490238,-0.09167912,0.4695032,-9.797588,1
20025634,5634,3.71,-1.93,-1.24,-0.15,0.0,18.16,15.13,-0.02806502,0.04402241,0.1811429,-0.01883287,0.4950193,-9.564879,1
20138695,5782,4.25,-2.29,-1.72,0.66,0.45,18.13,16.24,-0.08502073,0.0930834299999999,0.1819511,-0.1393356,0.4781293,-9.987473,1
20256881,6047,4.23,-2.43,-1.54,2.24,1.56,18.06,17.37,0.09274544,0.1777634,0.1494258,-0.04154287,0.5140558,-9.999123,1
20363796,6214,4.39,-2.87,-0.97,3.89,3.08,17.99,18.18,0.08460676,0.2957599,0.1373046,0.02245709,0.5918714,-9.972683,1
20470888,6390,4.43,-3.35,-0.93,5.04,4.42,17.93,18.93,-0.09323488,0.243873,0.1089513,-0.0009532895,0.5003661,-9.983961,1
20581093,6474,4.4,-3.78,-1.36,5.33,5.36,17.91,19.39,-0.1417775,0.05093397,0.0617053,0.1960073,0.480368,-10.16544,1
20789675,6355,4.05,-4.39,-2.12,4.27,4.1,17.99,19.42,-0.02397013,-0.1939973,-0.02981753,-0.1734543,0.4482461,-9.822177,1
20901892,6226,3.77,-4.37,-3.02,3.8,2.68,18.02,19.18,-0.2003563,-0.170446,-0.02828117,-0.09749656,0.633584,-9.406819,1
21017773,6104,3.85,-4.21,-3.77,4.04,2.69,18.0,19.17,0.02089662,0.07294555,-0.01317591,-0.1831074,0.9832587,-9.417277,1
21135278,6031,4.13,-3.24,-3.03,4.24,3.15,17.99,19.24,0.3059126,0.002554501,0.0162029,0.2189406,0.9442292,-9.93324,1
21234534,6135,4.59,-1.84,-0.63,4.31,2.8,17.99,19.31,0.5068019,-0.06435075,-0.009432665,0.3420018,0.8375247,-9.689002,1
21354748,6307,4.53,-0.5,2.2,4.34,2.67,17.99,19.19,0.2364631,0.003882797,-0.04137059,0.04418441,0.588084,-9.827582,1
21455225,6457,4.54,-0.07,3.3,4.54,2.79,17.99,18.82,0.1036668,0.03942137,-0.0703105,0.02999714,0.5197478,-9.822793,1
21568630,6447,4.3,-0.22,2.93,4.74,3.03,17.98,18.34,-0.07523083,-0.004943503,-0.0660618199999999,0.01329631,0.6297566,-9.619834,1
21674605,6353,4.19,-0.67,1.99,4.85,3.21,17.98,17.92,-0.2286602,0.04013528,-0.0521953,0.30621,0.753369,-9.522077,1
21777768,6327,4.23,-1.05,1.13,4.84,3.25,17.98,17.65,-0.1405051,0.002557101,-0.04969768,0.1940954,0.4565524,-10.03138,1
21893768,6286,4.04,-1.22,0.04,4.66,3.24,17.99,17.49,-0.1599798,-0.01569405,-0.02995338,0.1956593,0.7574794,-9.488494,1
21994549,6298,4.16,-1.17,-0.54,4.41,3.1,17.99,17.42,-0.04614808,-0.07319771,-0.006813166,0.1186178,0.6356586,-9.882718,1
22113658,6219,4.1,-0.89,-0.79,4.04,2.95,18.0,17.52,-0.01676591,0.03697883,0.02778138,0.1690551,0.6533468,-9.460994,1
22212618,6256,4.34,-0.71,-0.63,3.76,3.0,18.0,17.57,0.08463995,0.01276152,0.01170038,0.2535541,0.551798,-9.623306,1
22320495,6241,4.13,-0.48,-0.23,3.57,2.95,18.01,17.59,-0.02088938,0.007769902,0.004482811,0.2103736,0.5042683,-9.83201,1
22427224,6221,4.05,-0.19,-0.22,3.4,2.79,18.01,17.61,-0.007338441,-0.006892186,0.004958862,0.0732825399999999,0.5633564,-9.95658,1
22529138,6103,4.11,0.08,-0.24,3.15,3.19,18.01,17.78,0.003538072,0.09172722,0.05618244,0.3321978,0.4658683,-9.825783,1
22639444,6296,4.23,0.35,-0.09,2.86,3.39,18.01,18.23,0.0930813,0.005407996,0.08185427,0.199141,0.5498459,-9.70149,1
22750249,6106,4.17,0.68,0.14,2.48,3.39,18.0,18.8,0.002202692,-0.03223146,0.1070821,0.1899333,0.4639448,-9.527022,1
22857521,6283,4.32,1.01,0.23,2.04,3.0,18.0,19.46,0.0561497,-0.06805352,0.1135989,0.1015183,0.67794,-9.621364,1
22972991,6240,4.27,1.56,0.69,1.65,1.86,17.99,20.17,0.07864226,-0.1849738,0.08974927,0.1038077,0.3522569,-9.783143,1
23073756,6370,4.27,2.23,1.11,1.51,0.93,17.98,20.5,0.0791598,-0.1789876,0.04701535,0.2646493,0.5698457,-9.759402,1
23180563,6314,4.69,2.76,2.26,1.67,-0.05,17.99,20.48,0.09571155,-0.07505982,-0.01558006,0.1005057,0.2244348,-9.709456,1
23295743,6328,4.23,3.24,3.02,1.96,-0.16,18.01,20.01,0.134762,0.001007295,-0.1038482,-0.002188171,0.4021666,-10.05824,1
23515475,6311,3.86,3.38,2.72,2.44,1.08,18.03,18.55,-0.1185572,0.07202669,-0.1277443,0.1875697,0.2394322,-9.696615,1
23614691,6044,3.84,3.49,2.13,2.47,1.62,18.04,17.85,-0.05722295,0.09698749,-0.1104188,0.1920116,0.5484105,-9.552009,1
23719530,6104,3.99,3.58,2.34,2.43,1.47,18.03,17.24,0.1249942,-0.05069749,-0.08592743,0.1299809,0.5138534,-9.887801,1
23830704,6160,3.78,3.57,2.78,2.37,1.07,18.03,16.79,0.01073093,-0.06778453,-0.05381512,0.0682463299999999,0.3347421,-10.07935,1
23942790,6007,3.78,3.45,2.89,2.31,0.85,18.03,16.4,0.03946634,-0.03553509,-0.05193569,0.1686711,0.4127409,-9.539464,1
24048243,5942,3.62,3.08,2.58,2.31,1.16,18.03,16.21,-0.02845697,0.06310274,-0.01342578,0.2339726,0.2626563,-9.787677,1
24160722,5974,3.68,2.87,2.23,2.38,1.37,18.03,16.36,-0.04568668,0.04936716,0.04891107,0.3092461,0.4307986,-9.45479,1
24270258,5834,3.59,2.82,1.69,2.38,1.54,18.03,16.87,-0.06601749,0.07912078,0.0957533,0.1200462,0.315567,-9.636133,1
24379547,5928,3.88,2.92,1.29,2.29,1.72,18.03,17.52,-0.1068166,-0.0337823,0.09762433,0.3293319,0.150771,-9.556562,1
24485747,5942,3.86,3.28,1.02,2.23,1.68,18.02,18.09,-0.01742963,-0.01880204,0.08598819,0.3543122,0.3316848,-9.692863,1
24590725,6214,4.04,3.61,1.24,2.31,1.43,18.03,18.46,0.0474265,-0.03792314,0.05826546,0.2494762,0.2278772,-9.59875,1
24699195,5921,3.9,3.96,1.67,2.52,1.54,18.04,18.82,0.08134236,0.04689234,0.07465852,0.03526666,0.1853049,-9.93282,1
24810215,6071,3.99,4.26,1.99,2.67,1.76,18.05,19.22,0.05509141,0.01305134,0.0560926,0.2901154,0.1242127,-9.883914,1
24920525,6074,3.8,4.61,1.99,2.8,1.93,18.06,19.68,0.005266065,0.01904316,0.07612001,0.3060865,0.40429,-10.02393,1
25029186,6106,3.87,4.82,2.24,2.87,1.82,18.07,20.09,0.01092618,0.03011291,0.04418517,0.3156746,0.1118667,-9.806757,1
25129716,6029,4.1,4.77,2.66,2.96,1.32,18.08,20.33,0.07733984,-0.1021894,0.03656669,0.2377139,-0.05506314,-9.802902,1
25240591,6140,3.97,4.23,2.48,2.95,1.34,18.07,20.47,-0.07770161,0.006917516,0.01056658,0.1925433,0.07901575,-9.738955,1
25356679,6085,3.83,2.37,0.72,2.87,1.5,18.07,20.56,-0.4196207,0.04548495,0.00784744,0.1767422,-0.01014756,-9.926698,1
25464745,6212,3.79,0.95,-1.41,2.77,1.45,18.07,20.55,-0.2433569,0.0036844,-0.0200483,0.2235556,0.1155823,-9.527411,1
25683375,6055,3.88,-2.15,-4.36,2.75,1.87,18.06,20.33,-0.1930931,0.07184999,-0.02086579,0.255798,0.0760134799999999,-9.862237,1
25785179,6305,3.87,-3.48,-5.55,2.77,2.22,18.06,20.29,-0.1277512,-0.02073464,-0.003735317,0.3391455,0.1652396,-9.874135,1
25904087,6031,3.92,-4.73,-6.23,2.83,2.4,18.06,20.32,-0.05361065,-0.0270868,-0.007924667,0.381802,0.1918735,-9.883367,1
26010015,6207,3.9,-5.48,-6.31,2.86,2.37,18.06,20.32,-0.0173871,0.04124363,-0.006713087,0.4211621,0.2393985,-9.864093,1
26119986,6116,3.75,-5.68,-5.97,2.82,2.44,18.06,20.24,0.05127024,0.04433456,-0.005232223,0.2720013,0.217985,-10.10579,1
26222860,6134,3.59,-4.75,-5.21,2.76,2.73,18.07,20.18,0.2098095,0.08968711,0.01004482,0.3524775,0.3168426,-9.824756,1
26334023,5992,4.08,-2.73,-3.0,2.71,2.92,18.07,20.28,0.4092379,0.02876478,0.04603879,0.3644233,0.115291,-9.681576,1
26448507,6168,3.94,-1.52,-1.0,2.72,2.61,18.07,20.44,0.2887937,-0.04952373,0.003318525,0.345105,0.1304465,-9.897053,1
26557111,6292,3.95,-1.0,-0.06,2.6,2.62,18.07,20.65,0.08486183,0.01001412,0.02866296,0.400024,0.09745696,-9.90873,1
26665797,6382,4.09,-1.47,-0.51,2.39,2.68,18.08,20.78,-0.1954813,-0.07200525,-0.00801839,0.478882,-0.1882361,-9.859153,1
26765784,6182,3.87,-2.76,-2.52,2.26,2.37,18.08,20.75,-0.4000892,-0.1050237,0.007732929,0.4863923,0.1879857,-9.808806,1
26880600,6072,3.68,-4.25,-4.99,2.11,1.96,18.09,20.66,-0.3385341,-0.01846049,-0.02093424,0.4524536,0.3516333,-9.884526,1
26986094,6086,3.49,-4.87,-6.33,2.14,1.57,18.09,20.58,-0.1260958,-0.0654803999999999,-0.04707943,0.3393151,0.2923004,-9.56489,1
27093402,5962,3.79,-4.87,-6.64,2.27,1.66,18.08,20.38,0.0920599099999999,0.04721707,-0.04442703,0.383968,0.2281857,-9.847342,1
27204186,6044,3.89,-4.33,-5.84,2.48,1.71,18.06,20.05,0.1530232,0.01122059,-0.06104874,0.3554068,0.1987699,-10.14982,1
27311660,6070,3.94,-2.19,-3.63,2.69,1.98,18.05,19.49,0.5544993,0.04168589,-0.0816234,0.3437837,0.5747938,-10.05241,1
27423474,6009,4.16,-0.95,-0.7,2.68,2.47,18.05,18.89,0.3882775,0.0887334,-0.08946031,0.3826022,0.2639482,-9.888316,1
27527533,6101,4.0,-0.41,1.23,3.13,2.83,18.04,18.37,0.1911122,0.1131689,-0.0860875,0.08503661,0.1772579,-10.26338,1
27754734,6209,3.98,-1.43,1.48,6.58,6.53,17.99,17.72,-0.1108322,0.4184788,-0.05279267,0.3664999,0.359051,-9.921183,1
27858540,6120,3.74,-2.08,0.26,7.84,8.57,17.95,17.52,-0.2800176,0.2764373,-0.01516458,0.3995971,0.3739748,-10.06113,1
27971017,6044,4.06,-2.5,-0.88,8.25,9.25,17.94,17.46,-0.1279812,-0.0748328199999999,0.02128099,0.5688917,0.3490633,-9.880363,1
28077592,6075,4.16,-2.73,-1.13,8.11,8.83,17.94,17.7,0.02250484,-0.0833357599999999,0.06802867,0.1647163,0.4466912,-10.08828,1
28188681,6120,4.09,-2.86,-1.08,7.61,8.16,17.97,18.16,-0.01539023,-0.1401296,0.06536888,0.6043478,0.2215108,-9.685734,1
28404799,6044,4.18,-3.11,-1.59,7.22,6.49,17.99,18.9,-0.02205625,-0.1009657,0.009742812,0.3440514,0.2721662,-9.88211,1
28516884,6100,4.05,-3.25,-1.88,7.34,6.49,17.98,19.05,-0.06100651,0.01799971,0.004924546,0.3229749,0.403573,-10.15583,1
28624772,6160,4.06,-3.43,-2.16,7.42,6.64,17.98,19.03,-0.04245595,0.02777808,-0.004996849,0.2576852,0.4444749,-10.2099,1
28848256,6228,4.06,-3.53,-2.74,7.55,6.58,17.97,18.87,-0.01090623,0.05918365,0.01043194,0.2833,0.5227462,-9.686292,1
28949246,6242,4.23,-3.51,-2.62,7.56,6.52,17.97,18.84,0.05022245,0.03396952,0.01446578,0.3084553,0.5962723,-10.23875,1
29060190,6257,4.07,-3.48,-2.37,7.57,6.64,17.97,18.76,-0.01363831,0.09065592,-0.01469575,0.210051,0.5629976,-10.22468,1
29170127,6256,4.36,-3.54,-2.01,7.61,6.63,17.97,18.7,0.06932868,-0.01633201,0.008583154,0.4307829,0.5383547,-9.965872,1
29277477,6248,4.26,-3.69,-1.84,7.58,6.46,17.97,18.79,0.004937951,-0.02756872,0.01692017,0.5902121,0.3493275,-10.10168,1
29390009,6307,3.98,-3.78,-2.32,7.41,6.61,17.98,18.9,-0.09703074,0.0714063499999999,0.01818344,0.5073658,0.5908761,-9.902853,1
29495954,6227,4.16,-3.95,-2.71,7.17,6.45,18.0,18.82,-0.06466183,-0.02004957,-0.02631721,0.4052786,0.4845521,-9.410249,1
29609517,6211,4.17,-3.98,-3.1,6.52,6.31,18.04,18.61,-0.01928121,-0.01791392,-0.03117065,0.4842687,0.5657281,-9.880888,1
29725100,6181,4.03,-3.92,-3.04,5.67,6.05,18.1,18.46,0.02635281,-0.0806845499999999,-0.01993611,0.3802319,0.4102276,-9.882924,1
29823252,6152,3.83,-3.69,-3.29,4.74,5.16,18.16,18.5,-0.0757746599999999,-0.2353824,-0.009284726,0.5004615,0.6376387,-9.502534,1
29934969,6114,4.3,-3.06,-2.81,3.5,3.89,18.24,18.58,0.1405809,-0.1835594,0.005422817,0.2679792,0.6225201,-9.683455,1
30158754,6119,4.51,1.39,1.97,0.21,0.31,18.31,18.77,0.555261,-0.1938078,-0.02499021,0.4089672,0.6642266,-9.862066,1
30269442,6241,4.39,2.75,4.37,-0.46,-0.77,18.28,18.61,0.3004349,-0.1893154,-0.003434134,0.4477657,0.4987381,-9.566605,1
30369126,6385,4.2,2.96,4.99,-0.5,-1.24,18.28,18.74,0.01145032,-0.09632729,0.0557692,0.3698363,0.1951188,-9.918593,1
30479392,6379,4.18,2.63,4.21,-0.05,-1.46,18.3,19.3,-0.1059396,-0.02080826,0.1319241,0.4312429,0.75731,-9.775395,1
30582592,6192,4.99,1.06,3.04,1.04,-1.13,18.34,20.23,-0.288729,0.1166224,0.1353578,0.7685793,0.03277056,-9.774812,1
30695753,6486,3.24,-1.11,-1.17,3.05,0.92,18.33,20.81,-0.7467099,0.3587524,0.04513352,0.6195875,0.4852505,-9.69257,1
30803138,6198,4.16,-2.25,-3.83,4.32,2.91,18.3,20.84,-0.3640654,0.3011951,-0.006394821,0.6017667,0.3667405,-9.552863,1
30910265,6165,4.04,-2.58,-4.9,5.2,4.41,18.26,20.62,-0.03338316,0.1631357,-0.02736555,0.6114956,0.6362146,-9.633032,1
31027789,6075,4.17,-2.31,-4.08,5.62,5.22,18.24,20.25,0.2143878,0.05661306,-0.03471719,0.4871312,0.5258607,-9.963679,1
31128416,6272,4.14,-2.03,-2.7,5.57,5.27,18.24,19.92,0.2216259,0.002261501,-0.06257416,0.4813988,0.2740153,-9.891611,1
31238322,6283,4.03,-1.6,-1.75,4.63,4.73,18.27,19.59,0.1444037,-0.1684854,-0.07418063,0.9143944,0.3693802,-9.747766,1
31351703,6086,4.32,-1.72,-1.09,3.66,2.94,18.3,19.4,0.03893809,-0.1881149,-0.02997723,0.6303682,0.440396,-9.780145,1
31457786,6298,4.08,-1.9,-0.97,3.17,1.83,18.31,19.26,-0.0116696,-0.0874827,-0.03421665,0.4911713,0.357039,-9.895686,1
31566544,6228,4.04,-2.03,-1.41,2.99,1.37,18.32,19.16,-0.1083949,-0.06220206,-0.01498096,0.4992383,0.3780157,-9.984857,1
31673610,6230,4.0,-2.11,-1.81,2.87,1.08,18.32,19.07,-0.06190164,-0.04944195,-0.01609441,0.6308433,0.3576971,-9.750311,1
31898579,6308,4.1,-1.54,-2.05,3.2,2.04,18.31,18.72,0.03709866,0.1826112,-0.03649432,0.6739128,0.3014208,-9.770064,1
32007736,6183,3.89,-1.19,-1.74,3.46,2.56,18.31,18.36,0.03678558,0.1125874,-0.05874605,0.3397915,0.4673142,-9.854532,1
32114234,6304,3.94,-0.81,-1.41,3.38,3.31,18.31,17.96,0.04612042,0.05194918,-0.0716841399999999,0.5114039,0.4388768,-9.869823,1
32330604,6173,4.16,-0.52,0.11,3.06,3.31,18.31,17.29,0.09962744,-0.00737949,-0.02812257,0.5431857,0.1428473,-10.04632,1
32443115,6219,3.69,-0.54,0.41,2.8,3.25,18.32,17.11,0.01309598,-0.02462192,-0.01747875,0.4807805,0.3921405,-9.829473,1
32544551,6128,3.86,-0.73,0.27,2.45,2.92,18.32,17.05,-0.01711591,-0.1422165,-0.008864573,0.4409636,0.2985264,-9.866885,1
32659722,6138,3.88,-1.06,-0.3,1.71,2.3,18.33,17.04,-0.09326588,-0.09627748,0.0009633816,0.5049875,0.4523377,-9.836245,1
32765065,6072,3.71,-1.27,-0.96,1.12,1.47,18.34,17.05,-0.0870990299999999,-0.1254842,-0.02682578,0.40251,0.4621751,-9.931506,1
32873034,5912,3.97,-1.47,-1.31,0.66,0.8,18.35,17.09,-0.0712974,-0.05928233,0.01180233,0.2373888,0.4771804,-9.769567,1
32985662,6179,3.9,-1.63,-1.23,0.31,0.64,18.36,17.33,0.00787528,-0.02095905,0.0666991,0.5998254,0.4495825,-9.574074,1
33104442,6103,4.11,-1.72,-1.02,-0.03,0.73,18.37,17.72,0.04348018,0.04442827,0.05764112,0.489053,0.3950799,-9.607283,1
33204242,6136,4.05,-1.78,-1.06,-0.28,0.67,18.38,18.11,-0.04685475,-0.07998202,0.07174985,0.3999747,0.4099273,-9.513697,1
33311091,6242,4.13,-1.87,-1.31,-0.45,0.49,18.39,18.65,-0.04259197,-0.05364548,0.08754844,0.3425629,0.2941729,-9.939983,1
33418467,6243,4.18,-1.97,-1.62,-0.58,0.42,18.39,19.16,-0.1060215,-0.03703671,0.07504898,0.5051188,0.2611839,-9.583712,1
33528885,6266,4.26,-2.03,-2.01,-0.64,0.16,18.39,19.5,-0.09546617,-0.03353103,0.0253791,0.4645291,0.3727642,-9.859888,1
33635516,6201,4.38,-2.06,-2.17,-0.8,0.17,18.4,19.54,0.02731287,-0.01600186,-0.001557475,0.2218601,0.5277992,-9.80428,1
33738487,6214,4.39,-2.13,-1.82,-1.24,-0.16,18.41,19.34,0.1020993,-0.1105488,-0.05176858,0.2490826,0.5009582,-10.05073,1
33855788,6257,4.11,-2.2,-1.46,-1.91,-0.87,18.44,19.08,0.001656438,-0.05592519,-0.03969594,0.351267,0.2278716,-10.12694,1
34072257,6255,3.9,-2.37,-1.85,-2.65,-1.53,18.47,18.49,0.001190094,-0.01303116,-0.05529914,0.2445724,0.545128,-9.674919,1
34180691,6159,4.04,-2.42,-2.29,-2.71,-1.37,18.47,18.28,-0.0834791399999999,0.06212188,-0.01942493,0.4271166,0.4571896,-9.722955,1
34293710,6205,4.09,-2.69,-2.39,-2.6,-1.37,18.47,18.14,-0.02361045,0.01452935,-0.01304748,0.05797078,0.4006474,-9.713018,1
34403373,6108,4.3,-3.88,-3.14,-2.05,-0.98,18.44,18.08,-0.2308742,0.1209316,3.111095e-05,0.3060077,0.1811918,-9.770667,1
34512960,6039,4.2,-5.71,-4.8,-1.36,-0.08,18.38,18.02,-0.2696041,0.1319029,-0.01081311,0.309539,0.1848489,-9.622417,1
34617278,6157,3.82,-7.4,-7.12,-0.79,0.68,18.31,18.0,-0.3662384,0.02221691,0.02064926,0.4313315,0.5410132,-9.843022,1
34729689,6175,4.06,-8.55,-8.76,-0.35,1.14,18.25,18.28,-0.1244516,0.03450492,0.06689531,0.365242,0.696743,-10.10658,1
34831289,6226,3.92,-8.94,-9.36,-0.12,1.2,18.22,18.73,-0.07033491,-0.005715259,0.0743253,0.2954623,0.5533555,-9.808221,1
34942584,6109,4.32,-8.95,-9.29,0.06,1.05,18.18,19.45,-0.01880559,-0.1096668,0.1178126,0.4379869,0.6186806,-10.06505,1
35050445,6238,4.15,-8.74,-9.17,0.42,0.36,18.13,20.23,0.004434386,-0.186363,0.09459355,0.2154429,0.6416216,-10.08317,1
35154245,6382,4.33,-8.47,-8.88,0.82,-0.05,18.07,20.79,0.1227129,-0.0712222099999999,0.06257901,0.1532286,0.6834003,-9.82182,1
35261524,6255,4.29,-8.33,-8.15,1.43,0.15,17.98,20.85,0.1500516,0.06203699,-0.05025303,0.3347907,0.4101532,-9.75226,1
35374507,6222,4.52,-8.33,-7.52,2.13,0.88,17.87,20.58,0.03187651,0.125612,-0.03422067,0.2953809,0.5931739,-9.790415,1
35482959,6334,4.34,-8.5,-7.05,2.76,1.73,17.78,20.31,-0.02253445,0.2096139,-0.04721578,0.4627039,0.4247437,-9.880687,1
35589197,6229,4.38,-8.57,-6.98,3.07,2.8,17.73,19.86,-0.05241854,0.1668462,-0.06967183,0.1220459,0.7268162,-9.551635,1
35705601,6316,4.42,-8.79,-7.06,3.11,3.61,17.73,19.29,-0.116218,0.09459632,-0.05881118,0.1695061,0.4159917,-9.581738,1
35814794,6350,4.49,-8.93,-7.16,2.91,3.73,17.76,18.83,-0.00566494,0.01037754,-0.06135725,0.2853381,0.6846914,-10.25266,1
35917981,6435,4.27,-9.22,-6.77,2.63,3.36,17.8,18.48,-0.06033759,-0.01442705,-0.08499295,0.3103341,0.7424238,-9.755033,1
36031502,6267,3.79,-9.17,-7.73,2.23,3.13,17.87,18.01,-0.0640165,-0.00365865,-0.04781513,0.1870807,1.010024,-9.726299,1
36138967,6037,3.59,-7.47,-7.35,1.91,2.69,17.92,17.51,0.3350635,0.01818193,-0.06794405,-0.1058533,1.199913,-9.329441,1
36247591,5975,4.47,-4.85,-4.38,1.39,3.23,17.97,17.01,0.5851106,0.1065967,-0.05016317,0.2668843,0.5999802,-9.961613,1
36362100,6112,4.57,-3.1,-0.85,0.82,3.45,18.01,16.64,0.4366331,-0.0221987,-0.04634925,0.04640272,0.623524,-9.924333,1
36468716,6466,4.23,-2.7,0.38,0.0,3.26,18.05,16.39,0.05438338,-0.04014035,-0.05161587,-0.0886073,0.7647538,-9.402759,1
36694967,6407,4.86,-4.15,-1.27,-1.85,1.62,18.15,16.44,-0.2436176,-0.2381952,0.01928501,0.02163483,0.6590843,-10.04887,1
36802760,6309,4.52,-6.81,-3.82,-2.58,0.03,18.22,16.77,-0.6603989,-0.2709,0.0364088,-0.07856978,0.5848125,-10.20982,1
36912263,6478,4.34,-9.0,-7.1,-2.95,-1.04,18.27,17.25,-0.4234211,-0.1400112,0.07161681,-0.01956878,0.9774118,-9.433116,1
37016709,6204,4.44,-10.47,-9.42,-3.14,-1.36,18.3,17.54,-0.3446284,-0.01382934,0.06948246,-0.3116902,1.040456,-10.22567,1
37119010,6467,4.69,-11.11,-10.5,-3.22,-1.61,18.32,17.72,-0.1000998,-0.03450395,0.03583081,-0.3144311,1.183074,-10.05616,1
37233709,6310,4.61,-11.05,-10.48,-3.27,-1.71,18.33,17.79,0.09589386,0.02478571,0.02048375,-0.01440866,1.151435,-9.939395,1
37457574,6451,4.39,-10.96,-9.88,-3.39,-1.39,18.35,17.61,-0.01038131,-0.009311109,-0.01665942,-0.09410939,1.109555,-9.938334,1
37556275,6387,4.04,-11.16,-10.43,-3.36,-1.52,18.35,17.49,-0.2497238,-0.05852537,-0.02090931,-0.1080904,0.9765651,-9.884977,1
37664247,6553,4.56,-11.29,-10.94,-3.44,-1.48,18.36,17.37,-0.09219226,-0.03844653,-0.01580264,0.1137238,1.219151,-9.459952,1
37775285,6370,4.63,-11.37,-10.97,-3.32,-1.94,18.34,17.34,0.06520651,-0.09650203,-0.02993424,-0.2255146,1.192134,-9.850382,1
37877543,6516,4.64,-11.35,-10.81,-3.17,-2.01,18.31,17.12,0.03988253,0.04014622,-0.06983337,-0.2747914,1.217019,-10.24205,1
38203743,6512,4.17,-11.25,-10.81,-2.89,-1.55,18.25,16.18,-0.1191379,-0.09061529,-0.008761329,-0.2369026,1.088745,-9.814514,1
38312454,6383,4.47,-10.41,-10.88,-2.78,-2.08,18.23,16.23,0.1022267,-0.1198267,-0.006593823,-0.3928942,1.392259,-9.999803,1
38427798,6372,4.53,-8.13,-8.66,-2.7,-2.11,18.22,16.37,0.380901,0.0613643,0.009210415,-0.07108827,1.60455,-9.828178,1
38531721,6493,4.31,-6.33,-6.12,-2.5,-1.84,18.19,16.42,0.3431847,0.1313944,-0.001362121,-0.1041325,1.374669,-9.818435,1
38649529,6340,4.33,-4.31,-3.0,-2.35,-1.58,18.18,16.31,0.4260395,-0.02125189,0.00937381,-0.307438,1.064737,-10.02748,1
38748970,6457,3.57,-3.53,-1.94,-1.88,-1.86,18.15,16.26,-0.01223775,0.04424429,0.01279778,-0.06650504,1.163605,-9.585948,1
38862273,6197,3.82,-3.11,-1.92,-0.98,-1.91,18.1,16.16,-0.110971,0.1262167,-0.03522392,-0.1652437,1.284321,-9.488981,1
38972439,6167,3.81,-3.01,-2.19,0.0,-0.94,18.04,15.95,-0.009408643,0.1748265,-0.04034895,0.2269707,1.150766,-9.085704,1
39071729,6111,3.42,-2.6,-2.61,0.89,-0.14,18.0,15.9,-0.149218,0.1456476,-0.002255517,0.2249452,1.227861,-9.242086,1
39184635,6057,3.84,-1.15,-1.75,1.55,0.78,17.97,15.83,0.3196706,0.1332308,0.01651718,0.210243,1.615376,-9.421752,1
39298554,6071,3.91,0.9,0.93,2.0,1.45,17.97,15.77,0.4109846,0.1330993,0.01015383,0.01737048,1.139609,-9.354104,1
39399594,6071,3.78,2.04,2.72,2.19,1.81,17.98,15.72,0.2715777,-0.010466,-0.02268905,-0.08703488,1.064794,-9.906624,1
39508048,6086,4.03,2.61,3.38,2.34,2.1,17.98,15.66,0.01223105,-0.09601222,0.006302205,0.121701,0.9971863,-9.812977,1
39618561,6241,4.01,2.65,3.76,2.62,1.47,18.0,15.8,0.06596275,-0.0686856099999999,0.04490679,0.1217275,1.155267,-9.869417,1
39731681,6224,3.89,2.45,3.55,2.97,0.96,18.01,16.09,-0.1834735,-0.003503042,0.05573262,-0.1239572,0.8419682,-9.81743,1
39842774,6155,3.9,2.21,3.14,3.52,0.62,18.04,16.53,-0.1366493,-0.02310205,0.05987709,0.004801816,1.275009,-10.2363,1
39950094,6138,3.82,1.92,2.8,4.19,0.71,18.06,16.82,-0.07723595,0.1405151,0.04361838,0.09256852,0.7339799,-9.259875,1
40060499,6253,3.76,1.69,1.58,4.67,1.46,18.08,17.08,-0.4696915,0.2174006,0.07543803,0.1533639,0.5758391,-9.861097,1
40166217,6075,4.09,1.47,0.66,5.09,2.35,18.09,17.46,-0.002273694,0.1487847,0.09422198,0.1740572,1.18223,-9.825709,1
40274506,6144,4.31,-0.35,-0.29,5.47,3.02,18.09,18.04,-0.5238992,0.1141295,0.1150855,0.3064698,0.4368845,-9.949667,1
40382780,6298,3.8,-1.47,-2.85,5.7,3.39,18.09,18.59,-0.308787,0.01900481,0.1019599,0.28216,1.025162,-9.233515,1
40488231,6064,4.33,-2.26,-3.84,5.91,3.8,18.08,19.1,-0.1455504,0.1326004,0.08108047,0.2857345,0.8578896,-9.645487,1
40601573,6214,4.17,-2.32,-3.96,5.91,4.36,18.08,19.53,-0.005847525,0.0649629699999999,0.06145804,0.4888623,0.8811286,-9.874545,1
40708190,6235,4.21,-2.06,-3.56,5.91,4.48,18.08,19.81,0.1348548,-0.03693829,0.04206814,0.1553885,0.9640263,-9.553683,1
40818525,6345,4.53,-1.88,-2.93,5.67,4.41,18.09,20.09,-0.01404796,-0.03843505,0.02082885,0.2986017,0.574183,-10.16241,1
41030801,6381,4.62,-1.83,-2.49,5.18,3.82,18.11,19.79,-0.1665679,-0.02385133,-0.06955364,0.2727219,0.6155532,-9.846665,1
41142879,6201,4.22,-1.48,-2.07,5.19,3.53,18.1,19.38,0.1274535,0.0146893,-0.05486206,0.289561,0.8525919,-9.652254,1
41249916,6214,4.16,-1.1,-1.38,5.05,3.51,18.11,18.9,0.0512316,0.1241175,-0.06714375,0.3222444,0.7634311,-9.930704,1
41357837,6226,4.16,-0.94,-0.65,4.9,3.47,18.11,18.4,0.2112244,-0.0136998,-0.07126201,0.3762987,0.8520606,-9.896019,1
41466462,6217,3.95,-0.9,-0.43,4.83,3.2,18.11,17.81,0.07748301,-0.0801732099999999,-0.0998324399999999,0.3721779,0.9067533,-9.803697,1
41572445,6250,3.79,-1.05,-0.32,4.7,3.23,18.11,17.31,0.1139009,0.01887263,-0.07200773,0.3410223,0.6236725,-9.718958,1
41681060,6125,4.12,-1.38,-0.72,4.56,3.3,18.12,16.96,-0.1550217,0.03717113,-0.0119315,0.2145126,0.8207908,-9.770684,1
41793989,6092,3.76,-1.65,-1.82,4.23,3.69,18.13,16.74,-0.2939359,0.08107717,-0.04358574,0.1044281,0.9718511,-9.315309,1
41898892,6169,4.1,-1.99,-2.53,3.51,4.17,18.15,16.66,0.0758170299999999,0.04006108,0.01452337,0.1738535,0.9057603,-9.69653,1
42011721,6156,4.54,-2.28,-2.38,2.6,4.24,18.18,16.87,0.08088409,-0.03714581,0.05893617,0.07213432,0.7836641,-10.18432,1
42129737,6424,4.2,-2.27,-2.61,1.54,3.63,18.23,17.39,-0.0892277499999999,-0.1291072,0.06746261,0.2714995,0.7318654,-9.734309,1
42228879,6245,5.02,-2.45,-2.33,0.71,2.9,18.26,17.93,0.135523,-0.17184,0.08574418,0.1246548,1.038,-9.840081,1
42338625,6440,4.49,-2.66,-2.09,0.01,1.64,18.29,18.6,-0.0234294,-0.210831,0.1005813,0.00897757,0.5671746,-10.75393,1
42443478,6537,4.41,-2.8,-2.63,-0.53,0.44,18.32,19.28,-0.02707563,-0.1596815,0.104716,0.05045069,0.9196715,-9.836728,1
42553687,6475,4.64,-3.04,-3.06,-0.86,0.11,18.33,19.77,-0.07230336,-0.07126258,0.05148729,0.265577,0.9734193,-9.821852,1
42664784,6536,4.59,-3.25,-3.3,-1.02,-0.19,18.34,20.05,-0.006413689,-0.07805059,-0.001864083,0.09479018,0.9063535,-9.734293,1
42767571,6470,4.76,-3.28,-3.69,-1.14,-0.28,18.35,20.09,-0.08341695,0.0581018,-0.0087639929999999,0.006312409,0.8786272,-9.674169,1
42874687,6460,4.89,-3.28,-3.33,-1.34,-0.2,18.36,20.21,0.0721997499999999,0.01639342,0.0175615,0.1228164,0.646675,-9.855064,1
42988636,6540,4.7,-3.08,-3.32,-1.56,0.23,18.37,20.33,0.01330414,0.07302452,-0.0005460433,0.1777982,0.8597506,-10.04152,1
43104875,6540,5.08,-3.08,-2.98,-1.84,0.11,18.39,20.38,0.0692956,-0.0492445,0.03740899,-0.006418087,1.060102,-10.16659,1
43203484,6603,5.09,-3.16,-2.72,-2.13,-0.33,18.4,20.5,0.07387659,-0.1132855,0.009349028,0.0685465,0.5398997,-10.17845,1
43528554,6654,4.06,-3.44,-4.23,-2.65,-1.14,20.42,20.47,-0.0819666399999999,-0.02047282,-0.0280127,0.0795771599999999,0.9177441,-9.89721,1
43645309,6414,4.29,-3.8,-4.03,-2.81,-0.87,22.62,20.59,0.07325718,0.09476792,0.07540854,-0.06811084,0.7885324,-10.5711,1
43752618,6386,3.42,-3.74,-4.4,-2.98,-0.47,24.47,21.51,-0.1181247,-0.03140434,0.2237935,0.0982004499999999,1.091906,-9.658963,1
43858546,6087,4.08,-3.7,-4.65,-3.1,-0.35,26.48,23.38,0.01292176,-0.05672321,0.3558012,0.1090934,0.6938935,-9.782784,1
43969140,6285,4.6,-3.6,-4.41,-3.0,-0.74,28.48,26.14,0.09738821,-0.07473195,0.5018305,2.237622e-05,0.9442899,-10.08197,1
44075892,6306,4.86,-3.36,-3.64,-2.75,-1.18,29.79,29.59,0.0977851099999999,-0.0628353,0.5253739,0.2943415,0.5212885,-10.32709,1
44184884,6512,5.32,-2.72,-2.75,-2.84,-1.3,29.89,32.81,0.1555042,-0.0986125499999999,0.4871367,0.2232981,0.8893945,-9.995098,1
44294609,6639,5.49,-2.18,-2.12,-2.66,-1.38,29.89,35.56,-0.0807437399999999,-0.0760813,0.3988475,0.2242113,0.6530811,-9.726261,1
44395968,6615,5.75,-1.68,-2.01,-2.17,-2.05,29.87,37.37,0.1732375,-0.258399,0.2352019,0.1994709,0.6793424,-9.881038,1
44508196,6700,5.23,-0.74,-2.1,-1.6,-1.98,29.86,38.57,-0.02215098,-0.007437585,0.1200427,0.2875499,0.8877711,-9.684715,1
44617625,6730,5.29,-0.06,-1.68,-0.86,-1.64,29.85,38.83,0.06626388,0.1702027,0.0007984409,0.2054157,0.6118856,-9.729502,1
44734997,6850,5.17,0.61,-0.56,-0.13,-1.32,29.86,38.42,0.1905809,0.07049632,-0.07908846,0.2228091,0.6150573,-9.733739,1
44831549,6629,5.1,1.01,0.2,0.38,-1.2,29.86,37.8,0.08299036,-0.01833071,-0.1342177,0.2019886,0.6900464,-9.983779,1
44948665,6687,4.89,1.24,0.66,0.85,-1.15,29.87,36.67,-0.0494279,-0.05705132,-0.1883106,0.118928,0.5944201,-9.780337,1
45060228,6525,4.31,1.57,0.6,1.32,-0.55,29.88,35.17,0.2263239,0.08897266,-0.2720813,-0.07466058,0.5742292,-9.940781,1
45159992,6505,4.44,1.82,0.2,1.5,0.48,29.89,33.85,-0.1230542,0.2441403,-0.2316561,0.1932751,0.8700563,-9.464367,1
45277004,6615,4.52,1.97,0.63,1.68,1.48,29.9,32.36,0.04908724,0.1155276,-0.1804293,0.1565969,0.4778344,-10.135,1
45379206,6477,4.21,2.14,1.1,1.74,1.51,29.9,31.4,0.03102104,-0.01155539,-0.1454044,0.1555434,0.5194805,-9.582456,1
45492890,6315,3.88,2.24,1.16,1.65,1.39,29.89,30.77,-0.004180042,0.006249371,-0.0588483,0.1834998,0.5546482,-9.78245,1
45594629,6133,4.21,2.24,1.05,1.71,1.34,29.9,30.35,-0.04209799,-0.01498955,-0.05089314,0.09099473,0.4772675,-9.75036,1
45703802,6237,3.97,2.24,0.75,1.81,1.38,29.9,29.98,-0.05546177,0.008123942,-0.05850784,0.1256218,0.5170142,-9.549731,1
45816791,6189,4.22,2.21,0.55,1.88,1.45,29.9,29.6,0.003626574,0.07088656,-0.04740131,0.02684165,0.6881372,-9.696821,1
45925483,6237,4.14,2.17,0.81,2.03,1.54,29.91,29.29,0.01308798,0.08113649,-0.02933524,0.0299066,0.5438341,-9.86688,1
46023731,6199,4.13,2.14,1.02,2.08,1.84,29.91,29.13,0.03034711,0.0899566,-0.01097782,0.1657788,0.2737323,-9.938636,1
46133580,6143,4.21,2.08,1.05,2.09,2.12,29.91,29.02,-0.02429253,0.01274114,-0.01544743,0.09954737,0.4454038,-9.798687,1
46244666,6171,4.02,1.93,0.93,2.04,2.24,29.91,29.02,-0.03740279,0.06570715,0.01798659,0.2638416,0.5869052,-9.712376,1
46352588,6185,4.1,1.74,0.85,1.97,2.02,29.91,29.19,0.0743256999999999,0.01130397,0.04483908,0.0853941399999999,0.6130503,-9.861973,1
46470554,6206,4.11,1.73,0.74,2.06,1.68,29.91,29.47,-0.002590469,-0.01617604,0.03849129,0.2429417,0.518647,-10.08222,1
46573509,6270,4.23,1.66,0.7,2.22,1.35,29.91,29.76,-0.05090962,-0.02110623,0.05206276,0.1853029,0.3300639,-10.02408,1
46680630,6254,4.34,1.61,0.59,2.46,1.47,29.92,30.02,-0.06030695,0.04990764,0.04716222,0.2370671,0.6764064,-9.864405,1
46794765,6204,4.27,1.5,0.71,2.7,1.66,29.93,30.09,0.006665918,0.1022354,-0.02601927,0.3303009,0.4272856,-10.09878,1
47003381,6284,4.38,0.61,0.46,1.94,1.6,29.91,29.61,-0.07892129,-0.106011,-0.06018931,0.406703,0.4991527,-9.620189,1
47112479,6270,4.11,-0.54,-0.61,0.81,0.54,29.91,29.26,-0.1723288,-0.1843739,-0.07328381,0.1594139,0.3895891,-9.958515,1
47223101,6226,3.84,-1.5,-2.05,-0.25,-0.39,29.93,29.02,-0.1784807,-0.1590051,-0.04680685,0.1553845,0.5405456,-9.993357,1
47327630,6199,4.05,-2.12,-2.98,-1.1,-1.2,29.96,28.87,-0.09640587,-0.07663937,-0.02615189,-0.01131402,0.4266853,-10.03807,1
47441101,6145,3.99,-2.38,-3.48,-1.7,-1.52,29.98,28.91,-0.02977475,-0.02878949,0.0104274,0.20032,0.5738119,-9.839853,1
47557703,6228,4.08,-2.39,-3.62,-2.16,-1.77,30.0,29.15,0.04764966,-0.06110166,0.05696174,0.07361636,0.7083659,-9.860758,1
47656552,6229,4.44,-2.36,-3.32,-2.26,-2.15,30.01,29.5,0.03592846,-0.1073873,0.0706126,0.1532063,0.2471228,-10.01894,1
47770659,6253,4.45,-2.26,-2.83,-2.3,-2.38,30.01,29.91,0.1137826,-0.04927521,0.07443798,0.04981348,0.5156569,-9.926301,1
47875879,6172,4.45,-2.28,-2.39,-2.35,-2.33,30.01,30.31,0.05240697,0.03428522,0.05482052,0.05660444,0.4312789,-10.14411,1
47986691,6243,4.38,-2.31,-2.4,-2.36,-2.04,30.01,30.67,-0.02443498,0.06371978,0.07284059,0.2396783,0.6499462,-9.801526,1
48095485,6304,4.44,-2.35,-2.5,-2.33,-2.02,30.01,31.09,-0.03776028,0.03401084,0.08256482,-0.1274465,0.4274932,-10.09125,1
48199535,6396,4.62,-2.36,-2.66,-2.4,-1.66,30.01,31.55,-0.03587316,0.09237941,0.09370174,0.2708103,0.3905497,-10.12339,1
48311213,6334,4.75,-2.39,-2.49,-2.29,-1.77,30.01,32.05,0.0201837,-0.01984745,0.09743749,0.03584038,0.5294341,-10.4347,1
48427014,6482,4.75,-2.67,-2.26,-1.95,-1.72,29.99,32.57,0.02721066,-0.03407095,0.08253144,0.06545301,0.4371717,-10.12878,1
48528974,6456,4.59,-3.12,-2.8,-1.56,-1.43,29.97,32.89,-0.1342496,0.07922181,0.07540507,0.1817213,0.4825428,-9.832143,1
48749105,6446,4.49,-3.24,-3.36,-0.65,-0.78,29.92,32.87,-0.01459968,0.08866414,-0.01661173,0.1480253,0.4526074,-9.984854,1
48859012,6558,4.33,-3.28,-3.59,0.03,0.01,29.88,32.5,-0.02397572,0.1722227,-0.06078529,0.01010726,0.4560332,-9.957342,1
48970755,6374,4.38,-3.41,-3.94,0.99,1.49,29.83,31.9,-0.04932935,0.3398809,-0.1040728,0.04496531,0.3461901,-9.88136,1
49080460,6200,4.14,-3.05,-4.19,1.35,2.99,29.81,31.31,-0.043154,0.2489768,-0.0562503,0.04669462,0.498854,-9.971559,1
49183082,6077,4.22,-2.54,-3.84,1.28,3.49,29.81,30.89,0.07423345,0.05828578,-0.05293472,0.1363894,0.5440081,-9.890811,1
49293737,6225,4.23,-2.09,-3.24,0.79,3.08,29.83,30.61,0.08457272,-0.1123706,-0.03180833,0.0392138,0.4391366,-9.797996,1
49406559,6185,4.27,-1.84,-2.37,0.24,2.28,29.85,30.48,0.100438,-0.139522,0.00527448,-0.02199578,0.4617367,-9.997617,1
49514782,6203,4.38,-1.77,-1.6,-0.05,1.55,29.86,30.54,0.1121799,-0.06197475,0.01363569,-0.01894208,0.5503482,-9.743702,1
49627060,6278,4.28,-1.84,-1.23,-0.06,0.91,29.86,30.65,0.09542646,-0.03750758,0.0007471858,0.03290834,0.4858298,-9.646653,1
49743758,6192,4.21,-1.96,-1.54,-0.06,1.16,29.86,30.74,-0.1000613,0.1077635,0.02417502,0.2177728,0.4602293,-9.89262,1
49843598,6270,4.08,-2.05,-1.91,0.04,1.29,29.85,30.91,0.01036496,0.01931007,0.007848132,-0.02768068,0.5012885,-9.690862,1
49958798,6255,4.26,-2.17,-1.91,0.05,1.4,29.85,31.09,0.1076191,0.007972162,0.01232199,0.1077865,0.5545952,-9.532908,1
50066593,6233,3.88,-2.21,-1.9,0.0,1.07,29.86,31.15,-0.07817317,-0.0774524999999999,0.02680217,0.06661873,0.4803128,-9.344505,1
50173613,6147,3.63,-2.27,-2.09,0.13,0.58,29.85,31.02,-0.09464297,-0.05518179,-0.069603,-0.101308,0.3798326,-8.889388,1
50285136,5967,3.73,-2.3,-2.66,0.66,0.97,29.83,30.72,-0.07985549,0.0953899099999999,-0.02826403,-0.0740820799999999,0.4384736,-8.744626,1
50504871,5920,4.3,-2.11,-2.53,1.2,1.68,28.41,29.94,0.1127629,0.001714117,-0.07084018,0.103715,0.3852616,-9.539702,1
50611567,6059,4.29,-2.07,-2.02,1.1,1.42,26.87,28.86,-0.02625218,-0.0435792,-0.2632944,0.02561557,0.3874684,-9.356041,1
50728760,6257,4.38,-2.04,-1.63,0.98,1.12,25.43,27.13,0.2728684,-0.1125502,-0.2760395,-0.02700805,0.5622032,-9.345514,1
50829501,6506,3.97,-1.99,-1.73,1.01,1.09,25.19,25.5,0.1139191,-0.05666382,-0.2808882,-0.1898165,0.4051029,-9.599017,1
50944077,6121,3.54,-1.89,-1.91,1.09,1.1,25.18,23.75,-0.002608504,-0.05674585,-0.2231227,-0.04955047,0.1733221,-9.923862,1
51041575,5900,3.34,-1.75,-2.19,0.99,1.06,25.19,22.56,-0.06370939,0.03831046,-0.1758553,0.03841736,0.4263332,-9.649722,1
51157011,5910,3.27,-1.56,-2.44,1.09,0.79,25.18,21.6,-0.003280016,-0.04931779,-0.1102947,-0.08528354,0.4664124,-9.588075,1
51265733,5769,3.47,-1.35,-2.29,1.35,1.14,25.18,21.17,0.02936994,0.0891893099999999,-0.03541491,0.0751232399999999,0.3771544,-9.698974,1
51371592,5673,3.57,-1.13,-2.24,1.7,1.63,25.17,21.26,0.02063014,0.05675937,0.05880599,0.1247678,0.5009773,-9.676538,1
51479315,5842,3.65,-1.11,-2.13,2.12,1.93,25.16,21.87,0.01012877,0.03344496,0.1409,0.001649729,0.5390156,-9.938131,1
51594259,5888,3.82,-1.09,-1.98,2.58,2.24,25.15,23.02,0.0389677,0.09188067,0.1923953,-0.1014839,0.6054324,-9.908373,1
51692006,6015,4.19,-1.04,-1.41,3.15,2.42,25.14,23.89,0.1499048,0.1024452,0.1513013,0.09402175,0.5197052,-9.860509,1
51803972,6094,4.27,-1.12,-0.44,4.04,2.78,25.12,24.79,0.1895445,0.03246535,0.1156497,0.2769761,0.3464211,-9.928901,1
51917455,6286,4.42,-1.35,0.03,4.98,3.35,25.1,25.52,0.006917422,0.07424219,0.1145156,0.2471303,0.2425453,-9.928317,1
52022705,6288,4.48,-1.82,-0.14,5.77,4.16,25.08,26.18,-0.128024,0.1540536,0.09097701,0.03989448,0.2556698,-9.635873,1
52130954,6178,4.34,-2.43,-0.64,6.26,5.18,25.06,26.89,-0.1045784,0.07296742,0.1147643,0.5447527,0.6313775,-9.779441,1
52240524,6295,4.36,-2.97,-1.17,6.45,5.59,25.05,27.48,-0.1714582,0.02930991,0.0754107,0.4083593,0.4719371,-9.721345,1
52351110,6443,4.5,-3.27,-1.78,6.49,5.32,25.05,27.95,-0.03284112,-0.08862149,0.03202488,0.3914777,0.4347149,-9.512726,1
52453536,6455,4.7,-3.34,-2.41,6.59,4.96,25.05,28.31,-0.03103319,-0.09023593,0.05988771,0.3038948,0.5880119,-9.894237,1
52569005,6347,4.55,-3.35,-2.54,6.74,4.85,25.04,28.48,-0.07771827,0.02029566,0.00562251,0.4108094,0.5338557,-9.971048,1
52684879,6232,4.55,-3.41,-2.6,6.93,4.74,25.03,28.36,-0.06357322,-0.005315335,-0.01764258,0.3304907,0.4108183,-9.87008,1
52789796,6464,4.83,-3.43,-2.67,7.04,4.87,25.02,28.05,0.008272913,0.00557897,-0.05138618,0.3336225,0.4066237,-10.26048,1
52899957,6283,4.48,-3.39,-2.58,7.13,4.88,25.01,27.58,-0.0006916208,0.07203241,-0.06407245,0.3320409,0.3813175,-9.878829,1
53009915,6405,4.26,-3.27,-2.39,7.12,4.92,25.02,27.19,0.03917639,-0.0203977,-0.05970494,0.5425639,0.5315135,-9.774592,1
53123758,6314,4.47,-3.18,-2.15,7.07,5.15,25.02,26.94,0.02322017,0.0653943699999999,-0.00727623,0.2969721,0.6350552,-10.21229,1
53222602,6310,4.3,-3.33,-1.79,6.81,5.01,25.03,26.79,0.07153901,-0.02564228,-0.02875211,0.5694911,0.2755103,-9.87785,1
53330196,6235,4.22,-3.53,-2.16,6.1,4.02,25.08,26.59,-0.109042,-0.1793365,-0.04046574,0.2944317,0.5382977,-10.09198,1
53437070,6338,4.22,-3.68,-2.55,5.71,3.04,25.1,26.32,-0.04778139,-0.04899279,-0.06620978,0.3390931,0.4780222,-10.03386,1
53554506,6271,4.44,-3.82,-2.39,5.56,2.75,25.11,25.95,0.07865735,-0.02276021,-0.07101046,0.4655275,0.5111052,-9.903088,1
53651652,6276,4.31,-3.89,-2.16,5.55,2.93,25.11,25.6,0.0834723899999999,-0.006715558,-0.05270578,0.4796712,0.4321126,-10.06604,1
53762502,6380,4.25,-4.22,-1.98,5.59,3.23,25.11,25.23,-0.07148619,0.09847333,-0.04376733,0.4018407,0.5677679,-9.620812,1
53976207,6284,4.21,-5.13,-2.93,5.5,3.25,25.12,24.76,-0.147227,-0.01392381,-0.02617792,0.461453,0.4830729,-10.09165,1
54085738,6268,3.67,-5.09,-3.65,5.19,3.42,25.14,24.61,-0.1810986,0.0473233,-0.01824992,0.5170702,0.5631093,-9.449,1
54200769,6128,4.15,-4.84,-4.47,4.01,2.94,25.25,24.56,-0.1065646,-0.1545057,-0.0110271,0.4781244,0.6935602,-9.613536,1
54306284,6151,4.51,-5.11,-4.25,3.32,2.16,25.31,24.72,-0.004197414,-0.0345576,0.01016694,0.2641271,0.4953346,-9.795146,1
54418245,6345,4.33,-5.19,-4.6,2.72,1.95,25.36,24.98,-0.09849389,-0.04139159,0.03392287,0.3575992,0.6501948,-9.902111,1
54529120,6399,4.4,-5.12,-4.84,2.29,1.83,25.4,25.34,-0.03203336,-0.03543475,0.05069694,0.5188712,0.6426556,-10.17065,1
54645434,6372,4.61,-4.69,-4.17,1.89,1.6,25.43,25.66,0.1561662,-0.0702634199999999,0.02879286,0.4585012,0.5698888,-10.27533,1
54746955,6386,4.32,-4.22,-3.52,1.6,1.36,25.46,25.86,-0.01633124,0.0081070299999999,0.03958105,0.299419,0.7081851,-10.10339,1
54857735,6425,4.62,-3.57,-2.88,0.99,1.18,25.5,26.05,0.06743054,-0.001329576,0.01954449,0.4347493,0.7045429,-9.712252,1
54965868,6401,4.54,-3.35,-2.23,0.48,0.83,25.53,26.12,0.01615063,-0.104074,0.003030565,0.2966326,0.6622295,-10.3187,1
55074730,6551,4.45,-3.47,-2.02,-0.1,-0.08,25.56,25.92,0.04458448,-0.1828759,-0.08231874,0.5599376,0.6205428,-10.0403,1
55185993,6332,4.01,-3.65,-2.51,-0.55,-1.09,25.59,25.57,0.04909602,-0.1133827,-0.0703439399999999,0.4758182,0.595746,-9.655963,1
55296879,6215,4.48,-3.78,-3.01,-0.82,-1.65,25.61,25.24,0.003604228,-0.0774565,-0.06186882,0.2733662,0.6053439,-10.10317,1
55397771,6365,4.21,-3.84,-2.91,-0.66,-1.59,25.6,24.89,0.0880611699999999,0.0787976799999999,-0.05733243,0.1005213,0.8871858,-9.670919,1
55624787,6231,3.94,-3.66,-3.0,1.24,1.28,25.47,24.17,-0.09128635,0.2773212,0.02987782,0.4496333,0.7745913,-9.495311,1
55838479,6300,4.27,-3.65,-3.24,1.89,2.66,25.43,24.35,0.04121528,0.04660751,0.04751465,0.339981,0.8463863,-9.64978,1
55949042,6303,3.95,-3.53,-3.43,1.71,2.39,25.44,24.53,0.009232291,-0.06517615,0.01878966,0.2738047,0.6454778,-9.555552,1
56059482,6179,4.03,-3.42,-3.93,1.32,2.14,25.46,24.59,-0.1483335,-0.05258453,-0.006062389,0.1537757,0.7899728,-9.863539,1
56166205,6140,4.31,-3.31,-3.73,1.0,1.87,25.48,24.46,0.09415497,-0.08467368,-0.06458163,0.3446349,0.6781738,-9.79853,1
56273200,6304,3.9,-3.14,-3.21,0.78,1.57,25.5,24.13,0.1269072,-0.04663524,-0.0759262899999999,0.2749378,0.6367818,-9.769918,1
56375745,6172,4.15,-3.06,-2.78,0.62,1.38,25.51,23.83,-0.01461324,-0.01729003,-0.03885534,0.1325091,0.648568,-10.03723,1
56483018,6197,3.79,-3.17,-2.66,0.58,0.93,25.51,23.69,-0.01930952,-0.0908513,-0.04533822,0.1993226,0.6297374,-9.862192,1
56599981,6115,3.49,-3.17,-3.17,0.56,0.83,25.51,23.57,-0.01372926,0.01132381,-0.01743885,0.3360067,0.9214946,-9.323441,1
56698239,5881,3.83,-3.0,-3.35,1.19,0.67,25.47,23.48,-0.0699218499999999,0.07034446,0.02809215,0.01369926,1.008092,-9.741275,1
56808198,6082,4.05,-2.89,-2.73,1.66,1.35,25.45,23.42,0.1111069,0.02302412,-0.0096122599999999,0.133674,0.7452586,-9.920996,1
56920284,6030,4.01,-2.77,-2.34,1.97,1.66,25.43,23.3,0.1676234,0.05061802,-0.03437686,0.06488118,0.818429,-9.367588,1
57026194,6170,3.79,-3.05,-2.38,1.86,2.0,25.44,23.14,-0.05361645,0.01603927,-0.03417679,0.07988849,0.756053,-9.526398,1
57136619,6154,3.94,-3.35,-2.87,1.75,1.92,25.45,23.08,-0.1106009,0.05044216,0.01081563,0.2120336,0.677454,-9.736955,1
57246724,6121,4.0,-3.48,-3.25,1.71,2.13,25.45,23.21,-0.1325528,0.0399417,0.03045768,0.29826,0.7013806,-9.851273,1
57450831,6057,4.03,-3.29,-3.08,1.88,2.16,25.44,23.72,-0.005538809,-0.01613388,0.0377816,0.3017301,0.4562773,-9.904547,1
57561619,6107,4.25,-3.15,-3.21,1.82,2.09,25.44,23.99,-0.03476276,-0.004564827,0.02079935,0.5080124,0.7872155,-9.966507,1
57673486,6257,4.07,-3.13,-3.39,1.62,1.68,25.45,24.23,-0.03030055,-0.08817767,0.0275215,0.2847108,0.6527718,-9.736136,1
57785019,6245,4.23,-3.09,-3.57,1.42,1.4,25.46,24.4,0.07937524,-0.07890785,-0.0007215732,0.2809231,0.7511475,-9.989459,1
57901795,6120,4.2,-3.15,-3.3,1.39,1.4,25.47,24.38,0.06059317,-0.06471338,-0.02655875,0.545225,0.7342319,-10.01591,1
57994980,6182,3.81,-3.11,-3.25,1.65,1.18,25.45,24.13,-0.0546084,-0.036472,-0.07295458,0.3566682,0.8166511,-9.935384,1
58113733,6040,4.1,-3.07,-3.11,2.11,1.3,25.43,23.78,0.01387505,0.03423421,-0.05412402,0.3815768,0.6440003,-9.543641,1
58222584,6158,3.76,-2.94,-3.29,2.47,1.69,25.41,23.43,-0.02108142,0.1005936,-0.0531218,0.2584094,0.8500037,-10.0314,1
58427573,6057,4.2,-2.62,-3.39,2.54,3.13,25.4,22.84,0.04092206,0.06064432,-0.0422268,0.5512922,0.723482,-9.348926,1
58653516,6087,4.07,-2.33,-2.2,2.1,3.07,25.42,22.77,-0.03620062,-0.01893608,0.05582032,0.1849233,0.4937968,-9.881543,1
58763704,6152,4.47,-1.97,-2.17,1.92,2.71,25.43,23.07,0.06433619,-0.06532539,0.05284149,0.1062912,0.6400282,-10.2968,1
58870678,6273,4.96,-1.66,-1.95,1.72,2.6,25.44,23.49,0.06282896,-0.05716572,0.05976916,0.2041772,0.7832843,-10.81548,1
58984636,6487,4.89,-1.54,-1.34,1.53,2.36,25.44,23.69,0.0675698099999999,-0.02195628,0.0191287,0.2964672,0.504288,-10.82538,1
59081550,6487,4.42,-1.66,-1.22,1.38,2.12,25.42,23.86,0.01526938,-0.009674231,0.03474536,0.1694547,0.4719709,-10.45757,1
59190763,6328,4.33,-1.76,-1.84,1.17,2.1,25.43,24.16,-0.05078581,0.02334429,0.05792719,0.185899,0.6147436,-10.29859,1
59301559,6323,4.29,-1.72,-2.36,1.06,1.82,25.43,24.61,-0.04288158,-0.1224508,0.07474796,0.2716423,0.4238378,-10.41555,1
