TimeUS,RPM,Curr,DesRoll,Roll,DesPitch,Pitch,DesYaw,Yaw,GyrX,GyrY,GyrZ,AccX,AccY,AccZ,Guasto
0,0,0.04,0.0,-0.51,0.0,-1.37,355.23,355.24,0.002946768,-0.0002080229,0.0007847052,-0.2887307,0.183038,-9.825877,0
102553,0,0.04,0.0,-0.51,0.0,-1.37,355.2,355.22,-0.002807971,0.004240917,0.001894883,-0.3192332,0.2014491,-9.834678,0
214713,0,0.04,0.0,-0.51,0.0,-1.37,355.19,355.21,-0.001689477,0.004630365,-0.00426986,-0.3318228,0.1932904,-9.839263,0
324887,0,0.04,0.0,-0.5,0.0,-1.37,355.2,355.22,0.002168532,0.003297736,0.0003172149,-0.3172902,0.185566,-9.80899,0
425968,0,0.03,0.0,-0.51,0.0,-1.38,355.21,355.23,-0.00543002,0.00153911,0.002083592,-0.3322447,0.1817259,-9.847082,0
537668,0,0.03,0.0,-0.5,0.0,-1.38,355.23,355.25,-0.000196352,-0.0002588629,0.0003654905,-0.3134653,0.1932777,-9.812315,0
640460,0,0.03,0.0,-0.51,0.0,-1.38,355.25,355.27,0.003883591,0.0002920064,-0.00170215,-0.3249034,0.1950956,-9.841606,0
745567,0,0.04,0.0,-0.5,0.0,-1.38,355.27,355.29,0.0002922045,-0.002627591,0.002057682,-0.2839955,0.209324,-9.828315,0
846879,0,0.04,0.0,-0.51,0.0,-1.38,355.28,355.3,-0.0001356904,-0.0003018074,0.002100744,-0.3012908,0.1780498,-9.847306,0
961132,0,0.04,0.0,-0.51,0.0,-1.38,355.29,355.31,-0.0002154709,0.001523255,-0.003347716,-0.3181255,0.2006865,-9.821705,0
1068053,0,0.04,0.0,-0.5,0.0,-1.38,355.29,355.3,0.001783788,0.001517821,0.003077479,-0.2857027,0.1860705,-9.843753,0
1169850,0,0.03,0.0,-0.51,0.0,-1.38,355.28,355.3,-0.000641242,0.004294166,0.001634039,-0.3346876,0.2060547,-9.839886,0
1284597,0,0.04,0.0,-0.5,0.0,-1.37,355.29,355.31,0.0008308567,0.003118576,-0.003159438,-0.2967309,0.1794061,-9.808121,0
1490731,0,0.04,0.0,-0.5,0.0,-1.37,355.29,355.31,-0.0004679553,0.002174784,0.002426324,-0.3125145,0.1787021,-9.831103,0
1601430,0,0.04,0.0,-0.49,0.0,-1.37,355.26,355.28,0.002489218,0.001670226,-0.001095668,-0.3075644,0.2089981,-9.844717,0
1709503,0,0.03,0.0,-0.5,0.0,-1.37,355.24,355.26,0.0009007103,-0.0006732942999999,-0.002321789,-0.316438,0.1900491,-9.830881,0
1813006,0,0.04,0.0,-0.49,0.0,-1.37,355.23,355.24,-0.00400408,-0.003288264,0.001270588,-0.2973239,0.173365,-9.816074,0
1916371,0,0.04,0.0,-0.5,0.0,-1.38,355.24,355.26,0.004459405,-0.002980498,-0.0002322049,-0.3218049,0.1985465,-9.813913,0
2028255,0,0.04,0.0,-0.5,0.0,-1.37,355.27,355.28,-0.001067063,-0.00137136,-0.000622812,-0.3057884,0.1953355,-9.834373,0
2128924,0,0.03,0.0,-0.49,0.0,-1.37,355.27,355.29,-0.002244051,-0.001098305,0.001505036,-0.302771,0.2004527,-9.84289,0
2243090,0,0.04,0.0,-0.5,0.0,-1.37,355.26,355.27,0.003027967,0.002417646,0.0006276367,-0.3066502,0.1928865,-9.852129,0
2348601,0,0.04,0.0,-0.5,0.0,-1.37,355.24,355.26,-0.001260424,-0.0006243864999999,-0.002047799,-0.3096722,0.1967288,-9.817596,0
2452710,0,0.04,0.0,-0.5,0.0,-1.37,355.23,355.25,-0.001929626,0.001069836,0.005314928,-0.3068432,0.2006448,-9.838059,0
2566910,0,0.04,0.0,-0.49,0.0,-1.37,355.21,355.23,0.0002129719,0.0006400486,0.003494522,-0.3078591,0.1885745,-9.846725,0
2670735,0,0.04,0.0,-0.5,0.0,-1.38,355.2,355.21,0.0008214845,0.0003612163,-0.002967122,-0.3055892,0.2027767,-9.851468,0
2773773,0,0.04,0.0,-0.5,0.0,-1.38,355.19,355.21,-0.0004152575,2.496266e-05,0.0001066799,-0.2951453,0.1843611,-9.831822,0
2990921,0,0.04,0.0,-0.49,0.0,-1.38,355.21,355.23,0.001313321,-0.0001992097,-0.001614788,-0.2972596,0.1827248,-9.851553,0
3094505,0,0.04,0.0,-0.49,0.0,-1.38,355.21,355.23,0.0001704796,0.0002604019,0.002677786,-0.3219146,0.1931103,-9.839958,0
3195591,0,0.04,0.0,-0.49,0.0,-1.38,355.21,355.23,0.001004167,0.00117071,-0.0002709386,-0.3140438,0.1894511,-9.839667,0
3311851,0,0.03,0.0,-0.49,0.0,-1.38,355.23,355.25,-0.000277055,0.001194746,-0.00194357,-0.3109123,0.1928683,-9.831424,0
3412078,0,0.04,0.0,-0.48,0.0,-1.38,355.25,355.27,0.001211827,-0.0003514982,-0.0008151957,-0.3022052,0.1910668,-9.850038,0
3519320,0,0.03,0.0,-0.48,0.0,-1.39,355.24,355.26,0.0026127,0.0004638062,0.0009890196,-0.3046209,0.1962124,-9.827018,0
3629621,0,0.03,0.0,-0.49,0.0,-1.38,355.23,355.24,-0.001635324,3.645179e-05,-0.0006763058,-0.3188015,0.2052711,-9.848032,0
3732814,0,0.04,0.0,-0.48,0.0,-1.38,355.21,355.23,0.001371097,0.001369469,0.0006586962999999,-0.3053942,0.1995481,-9.835188,0
3836605,0,0.03,0.0,-0.48,0.0,-1.39,355.2,355.22,0.001165054,-0.0009586365,0.0001194073,-0.3248417,0.2045822,-9.812531,0
3941705,0,0.04,0.0,-0.48,0.0,-1.38,355.19,355.2,-0.0007003852,0.002167453,-0.0004799951,-0.3163527,0.1882908,-9.83046,0
4056602,0,0.04,0.0,-0.48,0.0,-1.38,355.19,355.21,-0.0007067093,0.001295199,-0.0007817018,-0.3216777,0.1785362,-9.833702,0
4160345,0,0.04,0.0,-0.48,0.0,-1.38,355.19,355.21,0.004220007,0.0009727118,0.001539174,-0.3180506,0.2023906,-9.8141,0
4267147,0,0.03,0.0,-0.48,0.0,-1.39,355.19,355.21,-0.0005298753,0.002215153,0.00212204,-0.3230549,0.2051741,-9.844577,0
4369192,0,0.03,0.0,-0.48,0.0,-1.39,355.2,355.22,0.0002067163,5.068196e-05,-0.001142604,-0.3031774,0.1885356,-9.853493,0
4480398,0,0.03,0.0,-0.48,0.0,-1.39,355.2,355.22,4.608717e-06,0.000527132,0.001308836,-0.3072683,0.1971005,-9.836268,0
4586781,0,0.03,0.0,-0.48,0.0,-1.39,355.19,355.21,-0.0004973214,-0.001827916,-0.0006979376999999,-0.3149484,0.1941946,-9.811467,0
4691746,0,0.03,0.0,-0.48,0.0,-1.39,355.16,355.18,0.002311411,-0.0003849826,-0.0006447539,-0.3088467,0.1971503,-9.804733,0
4803173,0,0.03,0.0,-0.48,0.0,-1.39,355.16,355.17,-0.0001715537,0.0009640208,-0.0008465978,-0.3078694,0.1912521,-9.826861,0
4907569,0,0.04,0.0,-0.47,0.0,-1.38,355.16,355.17,-0.0006558965,-0.0001145528,0.0006723298,-0.2971524,0.2051229,-9.845257,0
5012088,0,0.04,0.0,-0.48,0.0,-1.39,355.17,355.18,-0.000549742,0.0008109913,0.00168743,-0.3089639,0.1893129,-9.839362,0
5116166,0,0.04,0.0,-0.48,0.0,-1.38,355.17,355.18,-9.881013e-05,0.0001981003,0.001789854,-0.3113058,0.1895253,-9.838854,0
5230993,0,0.03,0.0,-0.47,0.0,-1.39,355.16,355.18,-0.0004786682,0.0006114977,0.001472873,-0.3149259,0.1915853,-9.835133,0
5333149,0,0.03,0.0,-0.47,0.0,-1.38,355.15,355.17,0.002205225,-0.001122386,0.0005411371,-0.3240912,0.2046785,-9.823593,0
5434956,0,0.04,0.0,-0.47,0.0,-1.38,355.14,355.15,-0.002803559,-0.0001355926,-0.0004407083,-0.3095087,0.1935056,-9.83276,0
5549772,0,0.04,0.0,-0.47,0.0,-1.39,355.12,355.14,0.001839862,-0.0001262712,-0.0008660683,-0.3182271,0.1883672,-9.857682,0
5655318,0,0.04,0.0,-0.47,0.0,-1.39,355.12,355.13,0.002616503,-0.0002635201,-0.0006315497,-0.3130369,0.2074777,-9.847014,0
5759521,0,0.04,0.0,-0.47,0.0,-1.39,355.1,355.11,-0.001404044,3.153326e-05,-0.0002457647,-0.3137365,0.2020751,-9.827049,0
5871306,0,0.04,0.0,-0.47,0.0,-1.39,355.08,355.09,0.0008925916,0.0007874316,0.0003401027,-0.3054669,0.1965678,-9.827076,0
5977947,0,0.04,0.0,-0.47,0.0,-1.39,355.05,355.07,-0.0002278549,-0.0007266545,-0.0004721483,-0.3255497,0.1920713,-9.847038,0
6085275,0,0.04,0.0,-0.47,0.0,-1.39,355.03,355.05,0.0009148335,-0.0006321208,0.001492275,-0.3042978,0.2150771,-9.853846,0
6182068,0,0.04,0.0,-0.47,0.0,-1.38,355.03,355.05,-0.0005581945,-0.0006248434,-0.001620932,-0.3123688,0.1909784,-9.847544,0
6292749,0,0.03,0.0,-0.46,0.0,-1.38,355.04,355.06,-0.0009599315,0.001437043,-0.0008376319,-0.309653,0.190957,-9.844275,0
6398140,0,0.03,0.0,-0.47,0.0,-1.38,355.05,355.07,2.432027e-05,-0.0002524026,0.0004179337,-0.3025045,0.1941127,-9.825893,0
6510474,0,0.03,0.0,-0.47,0.0,-1.38,355.05,355.06,1.202072e-05,0.001627881,-0.0001282522,-0.3126466,0.1840519,-9.836078,0
6611748,0,0.04,0.0,-0.47,0.0,-1.37,355.04,355.05,0.002001167,0.001245051,0.001883685,-0.2947429,0.1857879,-9.867941,0
6723365,0,0.03,0.0,-0.46,0.0,-1.4,355.02,355.04,0.01846058,-0.02767704,-0.002217207,-0.2744946,0.1871372,-9.658818,0
6825153,0,0.03,0.0,-0.6,0.0,-1.82,354.84,354.85,-0.0514962,0.06442346,-0.005572622,-0.8504012,0.4932982,-10.04967,0
6939898,0,0.03,0.0,-0.43,0.0,-1.69,355.01,355.02,0.07329798,0.03651579,-0.01500992,-0.3997696,-0.03876687,-9.574676,0
7041783,0,0.04,0.0,-0.37,0.0,-1.57,354.99,355.01,-0.0359014,0.02284809,0.04973017,-0.1118477,0.437944,-9.62105,0
7151553,0,0.03,0.0,-0.34,0.0,-1.67,355.07,355.08,-0.01537117,0.006940714,-0.0653783,-0.4223123,-0.1873853,-9.836988,0
7252994,0,0.04,0.0,-0.35,0.0,-1.61,355.23,355.24,0.01159978,0.01250545,0.03539063,-0.3817301,0.3567658,-9.733693,0
7366385,0,0.04,0.0,-0.31,0.0,-1.64,355.15,355.17,-0.01283081,-0.006170367,0.0130432,-0.1424791,-0.121453,-9.744834,0
7467639,0,0.04,0.0,-0.33,0.0,-1.63,355.18,355.19,-0.004233218,0.007175736,-0.02097709,-0.6210288,0.3499631,-9.726804,0
7574174,0,0.03,0.0,-0.34,0.0,-1.62,355.15,355.17,-0.008950573,0.004721624,0.00470442,-0.142496,-0.07019249,-9.811161,0
7679748,0,0.04,0.0,-0.29,0.0,-1.64,355.09,355.1,0.01837507,-0.005417773,0.01461951,-0.4472972,0.3472673,-9.823709,0
7787400,0,0.03,0.0,-0.38,0.0,-1.67,355.02,355.03,0.003230653,-0.004394076,-0.007639996,-0.3057369,0.1424449,-9.8606,0
131291945,0,0.0,0.0,1.3,0.0,-1.13,11.87,11.86,-0.005363055,0.002562307,-0.003381161,-0.2187683,-0.0705908299999999,-9.842428,0
131396878,0,0.03,0.0,1.28,0.0,-1.13,11.93,11.92,0.004454579,-0.000892361,0.0007771215,-0.3027631,-0.112624,-9.785746,0
132042988,0,0.03,0.0,1.18,0.0,-0.57,12.23,12.22,0.01896919,-0.01989021,-0.001120164,0.03869214,0.02097741,-9.912079,0
132148686,0,0.03,0.0,1.01,0.0,-0.63,12.22,12.2,0.02278249,0.01295911,0.006649373,-0.4089823,-0.03029064,-9.895491,0
132271585,0,0.02,0.0,1.03,0.0,-0.54,12.24,12.23,-0.04826711,0.007422469,-0.007124681,0.1395632,-0.007501091,-9.894083,0
132374735,0,0.03,0.0,1.11,0.0,-0.61,12.27,12.26,0.02277101,0.0128778,-0.002262838,-0.3835918,-0.2291331,-9.941247,0
132581884,0,0.03,0.0,1.05,0.0,-0.62,12.29,12.28,-0.04186124,-0.01601765,-0.005010748,-0.1185957,-0.2233241,-9.914052,0
132696070,0,0.03,0.0,1.1,0.0,-0.63,12.32,12.3,0.0191887,0.0080554289999999,0.005384982,-0.244363,-0.1021665,-9.874337,0
132803948,0,0.02,0.0,1.01,0.0,-0.61,12.32,12.3,0.01257857,-0.01104396,0.0005457526,-0.08624622,0.03852454,-9.814459,0
132911590,0,0.03,0.0,1.06,0.0,-0.63,12.34,12.32,-0.02826792,-0.008023175,-0.0004145254,-0.3202837,-0.04471187,-9.819353,0
133014338,0,0.03,0.0,1.08,0.0,-0.59,12.35,12.34,0.02381334,-0.0002472758,0.004337183,-0.02240792,-0.1354984,-9.792462,0
133125342,0,0.03,0.0,1.02,0.0,-0.62,12.35,12.34,-0.001439107,-0.0003274631,0.0002310669,-0.2784241,0.04012673,-9.794862,0
133231281,0,0.03,0.0,1.07,0.0,-0.6,12.37,12.35,-0.01309469,0.007048245,-0.001993478,-0.1583356,-0.09915871,-9.797112,0
133338118,0,0.03,0.0,1.06,0.0,-0.61,12.38,12.36,0.01959436,-0.0008132556,0.001422667,-0.1715057,-0.05022682,-9.839221,0
133453586,0,0.03,0.0,1.03,0.0,-0.6,12.39,12.37,-0.005260397,0.006174112,-0.00119376,-0.1910246,-0.03868566,-9.837145,0
133555660,0,0.03,0.0,1.09,0.0,-0.6,12.41,12.4,-0.00605662,-0.0003586243,0.003347956,-0.1681593,-0.06671886,-9.833961,0
134562729,0,0.03,0.0,1.07,0.0,-0.6,12.52,12.5,-0.005955118,0.00192773,-0.0006964142,-0.2235561,-0.0647435299999999,-9.828748,0
134612550,0,0.03,0.0,1.06,0.0,-0.6,12.88,12.5,-0.004873516,0.0001415178,-2.846667e-07,-0.2079053,-0.0252549,-9.805954,0
134715974,0,0.03,0.0,1.08,0.0,-0.6,15.71,12.52,-0.007175914,-0.002403188,-0.002516479,-0.1635122,-0.09391148,-9.823896,0
134831122,0,0.03,0.0,1.08,0.0,-0.6,22.22,12.54,0.008459835,-0.001354531,0.001473867,-0.2048838,-0.05518241,-9.82316,0
134931480,0,0.03,0.0,1.06,0.0,-0.6,30.22,12.55,-0.001270631,0.002786049,-0.0002618744,-0.2032057,-0.04004926,-9.814586,0
135036155,0,0.03,0.0,1.09,0.0,-0.6,39.57,12.56,-0.002384039,3.855448e-05,0.0004561332,-0.187527,-0.07587575,-9.812868,0
135150859,0,0.03,0.0,1.08,0.0,-0.6,39.59,12.58,0.007056174,0.00332351,-0.0004247346,-0.1887808,-0.06928687,-9.833859,0
135266963,0,0.03,0.0,1.07,0.0,-0.6,39.52,12.59,0.0005561472,0.00155324,-0.0001288429,-0.1876409,-0.04970424,-9.83877,0
135363913,0,0.03,0.0,1.09,0.0,-0.6,39.47,12.6,-0.002957201,0.001955685,0.0002493446,-0.2097837,-0.07274512,-9.827149,0
135481964,0,0.03,0.0,1.08,0.0,-0.61,39.41,12.61,0.002518308,0.001235906,-0.002464607,-0.1911626,-0.06395394,-9.852568,0
135587399,0,0.03,0.0,1.07,0.0,-0.61,39.34,12.62,-0.001106357,0.0007078535,-0.0004174942,-0.204876,-0.06288646,-9.841852,0
135691615,0,0.03,0.0,1.07,0.0,-0.61,39.3,12.62,-0.003696875,-0.003493919,0.001528345,-0.1867577,-0.05784266,-9.828357,0
135796734,0,0.03,0.0,1.07,0.0,-0.61,39.3,12.63,0.005923206,-0.00441408,0.001227454,-0.1696671,-0.05940395,-9.822507,0
135907569,0,0.03,0.0,1.07,0.0,-0.61,39.3,12.64,-0.0002309913,0.00195092,-0.003004961,-0.1800902,-0.05465621,-9.803879,0
136010098,0,0.03,0.0,1.08,0.0,-0.61,39.3,12.65,-0.001493356,-0.0001212336,0.004657514,-0.1666311,-0.07175039,-9.823526,0
136118756,0,0.03,0.0,1.08,0.0,-0.6,39.3,12.68,0.006233959,0.0078846809999999,0.004277461,-0.1805431,-0.03509539,-9.810895,0
136230921,0,0.03,0.0,1.08,0.0,-0.62,39.3,12.69,-0.005098426,0.00363112,-0.0003088138,-0.2150864,-0.05397564,-9.835624,0
136344760,0,0.03,0.0,1.09,0.0,-0.62,39.3,12.7,0.002963877,0.006876214,-0.004608117,-0.19527,-0.1080102,-9.842076,0
136446922,0,0.03,0.0,1.08,0.0,-0.63,39.3,12.71,0.0004013305,-0.004643274,0.0008026158,-0.1736547,-0.03165307,-9.80705,0
136554587,0,0.03,0.0,1.08,0.0,-0.63,39.3,12.71,-0.0002004272,-0.005115933,0.0007261502,-0.1879106,-0.07540275,-9.806316,0
136675498,24,0.02,0.0,1.11,0.0,-0.63,12.7,12.69,-0.002371398,-0.002212873,-0.01642112,-0.1605394,-0.06292024,-9.782053,0
136772594,211,0.06,0.0,1.1,0.0,-0.61,12.75,12.74,-0.01153979,-0.01029408,0.01492988,-0.1570956,-0.06427838,-9.767429,0
136990516,489,0.13,0.0,1.1,0.0,-0.58,12.76,12.75,-0.0117972,0.02570406,0.01794159,-0.2348372,-0.03923717,-9.885415,0
137100327,1203,0.11,0.0,1.12,0.0,-0.6,12.75,12.74,-0.01309186,-0.02168133,-0.02781478,-0.3055421,-0.02103873,-9.905163,0
137202624,1258,0.11,0.0,1.12,0.0,-0.61,12.79,12.78,-0.02072356,-0.07449488,-0.01949866,-0.1995912,-0.06292499,-9.769848,0
137312622,1285,0.09999999,0.0,1.13,0.0,-0.56,12.79,12.78,0.0778209099999999,0.05417255,0.005945359,-0.1465616,0.09985244,-9.851954,0
137417361,1300,0.09999999,0.0,1.1,0.0,-0.61,12.8,12.78,-0.04690824,-0.09136362,0.002372961,-0.2403941,-0.07052435,-9.899423,0
137527554,1313,0.09999999,0.0,1.15,0.0,-0.52,12.83,12.82,0.02876574,0.06944292,0.02117778,-0.1774462,-0.2146041,-10.08237,0
137640536,1300,0.09999999,0.0,1.17,0.0,-0.62,12.83,12.82,0.07098636,-0.04704042,0.02182025,-0.2078787,-0.1350797,-9.558967,0
137746737,1301,0.09999999,0.0,1.12,0.0,-0.59,12.83,12.81,0.0079250339999999,0.003343689,-0.01811443,-0.2285247,0.1142721,-9.86803,0
137853538,1314,0.09999999,0.0,1.14,0.0,-0.58,12.86,12.84,0.03545742,-0.01870247,-0.001729294,-0.08822642,0.02221925,-9.742131,0
137958648,1314,0.09999999,0.0,1.11,0.0,-0.57,12.86,12.85,-0.0104892,0.04740079,0.001803184,-0.1687915,-0.1865249,-10.00443,0
138071864,1314,0.09999999,0.0,1.18,0.0,-0.58,12.87,12.86,0.04309537,0.04792572,0.03801136,-0.1487676,-0.1565133,-9.92872,0
138173004,1314,0.09999999,0.0,1.11,0.0,-0.58,12.87,12.86,-0.04359267,0.02438229,-0.02920987,-0.3094327,0.0276749,-9.86863,0
138289647,1314,0.09999999,0.0,1.09,0.0,-0.58,12.88,12.87,-0.04151246,0.05507877,-0.01754607,-0.2692656,0.03019514,-9.830985,0
138394683,1314,0.09999999,0.0,1.15,0.0,-0.6,12.89,12.87,0.009269421,-0.05930687,-0.03697352,-0.008433671,-0.1909943,-9.543468,0
138501563,1314,0.09999999,0.0,1.15,0.0,-0.59,12.91,12.9,-0.01919576,0.003960787,0.02021465,-0.1464751,-0.1003543,-9.921652,0
138603849,1314,0.09999999,0.0,1.14,0.0,-0.58,12.92,12.91,0.009901694,0.02258491,-0.01306037,-0.3332833,-0.05409786,-9.643025,0
138719775,1314,0.09999999,0.0,1.14,0.0,-0.59,12.92,12.91,-0.0111161,0.009664505,-0.01377121,-0.3097379,-0.07588857,-9.643011,0
138824911,1314,0.09999999,0.0,1.15,0.0,-0.58,12.94,12.92,0.03689921,0.03627809,0.005220034,-0.1115762,-0.03080928,-9.992726,0
138928976,1314,0.09999999,0.0,1.13,0.0,-0.61,12.95,12.94,-0.03359715,-0.06196905,0.002374884,-0.1001762,-0.06955296,-9.573535,0
139046929,1314,0.09999999,0.0,1.15,0.0,-0.57,12.96,12.95,0.03246923,0.06187843,0.007226427,0.003781122,-0.1734259,-9.767444,0
139152346,1314,0.09999999,0.0,1.12,0.0,-0.58,12.96,12.95,0.03493713,0.08041002,-0.002379121,-0.342405,-0.006205309,-9.856091,0
139254604,1314,0.09999999,0.0,1.13,0.0,-0.64,12.99,12.97,-0.04115204,-0.06365346,0.01607772,-0.1012689,0.01967743,-9.710619,0
139369004,1314,0.09999999,0.0,1.17,0.0,-0.62,12.99,12.98,-0.004501034,-0.0229141,0.001348837,-0.1135138,-0.0717695099999999,-9.757705,0
139473890,1314,0.09999999,0.0,1.15,0.0,-0.6,13.01,13.0,0.02200747,0.01765399,0.02556529,-0.04566764,-0.04244785,-9.822558,0
139577620,1314,0.09999999,0.0,1.12,0.0,-0.62,13.01,13.0,-0.03245782,0.03571987,0.002752243,-0.3679343,-0.03237753,-9.834796,0
139687779,1314,0.09999999,0.0,1.15,0.0,-0.63,13.03,13.02,0.0118214,0.005992781,0.009190178,-0.2856391,-0.04220993,-9.814968,0
139799147,1314,0.09999999,0.0,1.13,0.0,-0.63,13.04,13.02,0.01684657,-0.052466,-0.01626962,-0.1905482,-0.08595115,-9.752933,0
139904471,1314,0.11,0.0,1.14,0.0,-0.63,13.05,13.04,-0.02066053,-0.02082196,-0.002823104,-0.01614049,-0.09344608,-9.857707,0
140018605,1312,0.09999999,0.0,1.18,0.0,-0.63,13.07,13.06,-0.008177798,0.02596786,0.01120127,-0.02665306,-0.08620981,-9.976329,0
140116855,1300,0.09999999,0.0,1.12,0.0,-0.6,13.08,13.07,-0.02114913,0.05780647,0.01965201,-0.3256181,0.03021606,-10.05846,0
140229949,1314,0.11,0.0,1.15,0.0,-0.62,13.08,13.07,0.02664681,0.01847229,0.001002895,-0.2398336,-0.07292321,-9.902301,0
140344224,1314,0.09999999,0.0,1.17,0.0,-0.6,13.1,13.09,0.04483533,0.03789019,0.005680978,-0.298711,-0.05649421,-9.970143,0
140447138,1314,0.09999999,0.0,1.1,0.0,-0.63,13.1,13.09,-0.07225127,-0.03478938,0.00222442,-0.1010905,-0.03096186,-9.866137,0
140559892,1314,0.09999999,0.0,1.1,0.0,-0.64,13.1,13.09,-0.07269529,-0.08640388,-0.02651841,-0.1407723,-0.06206909,-9.854169,0
140661117,1314,0.09999999,0.0,1.15,0.0,-0.63,13.14,13.12,0.01142198,-0.0089599699999999,0.02635807,-0.1948716,0.02310678,-9.698508,0
140769003,1314,0.09999999,0.0,1.12,0.0,-0.6,13.13,13.12,0.0146181,0.0968346,0.02566922,-0.2505238,-0.1193754,-9.944948,0
140877284,1328,0.21,0.0,1.16,0.0,-0.62,13.14,13.13,0.04230557,0.0732880499999999,0.02418628,-0.245528,-0.09045059,-9.942157,0
140987578,1560,0.56,0.0,1.13,0.0,-0.59,13.14,13.14,0.009419725,0.01931407,-0.0087283699999999,-0.216834,-0.05080701,-9.747371,0
141091124,2044,0.43,0.0,1.17,0.0,-0.61,13.14,13.14,-0.0433269,-0.006265387,-0.001688217,-0.1617585,-0.06099167,-9.628909,0
141204546,2183,0.35,0.0,1.16,0.0,-0.62,13.14,13.16,0.01619071,-0.03146821,-0.005624802,-0.1971201,-0.08406461,-9.775384,0
141311372,2303,0.46,0.0,1.2,-0.01,-0.57,13.14,13.17,-0.004097571,0.0703733,0.007573151,-0.2227374,-0.1532098,-9.971925,0
141418424,2342,0.43,-0.01,1.2,-0.06,-0.62,13.14,13.19,0.101709,-0.01791544,-0.01333963,-0.1366234,-0.09844921,-9.876464,0
141534601,2388,1.25,-0.05,1.06,-0.04,-0.6,13.14,13.21,-0.09495435,-0.02977817,0.0094305169999999,-0.1897846,-0.07069597,-9.77849,0
141643627,2897,1.54,-0.07,1.07,-0.06,-0.58,13.14,13.24,-0.05993059,-0.1139795,-0.01052849,-0.1029514,0.1058021,-9.423249,0
141751540,3622,1.85,-0.19,1.3,-0.04,-0.52,13.14,13.28,0.185374,0.01781709,-0.03197199,-0.3147957,-0.04638274,-10.32272,0
141855727,4160,2.46,-0.25,1.41,-0.21,-0.32,13.14,13.27,0.005569751,0.1441217,0.02466211,-0.2813144,-0.2409987,-10.08697,0
141968788,4801,2.63,-0.4,1.69,-0.31,0.04,13.14,13.37,0.09284718,0.1399286,0.005437617,-0.6997744,0.2589849,-10.78984,0
142083684,5263,2.98,-1.16,2.15,-0.54,0.31,13.14,14.01,-0.01428301,0.07795389,0.1496806,-0.5158939,0.3167255,-12.27239,0
142181960,5453,2.14,-2.01,1.39,-0.87,0.41,13.15,15.17,-0.04861571,-0.02638164,0.2119193,-0.1520837,1.273365,-11.49957,0
142294783,5369,1.88,-3.11,-0.01,-1.24,0.14,13.17,16.67,-0.257426,-0.03235104,0.2471146,-0.203329,0.4842367,-10.87372,0
142400758,5132,1.49,-4.81,-1.21,-1.94,-0.26,13.22,18.1,-0.3195789,-0.1181658,0.2014376,-0.0801278,0.2244715,-10.02006,0
142512717,4926,1.83,-6.67,-4.06,-2.66,-0.55,13.29,19.54,-0.3583803,-0.001660468,0.1798875,-0.3886758,1.091316,-10.00227,0
142618614,4902,1.83,-8.07,-6.24,-3.24,-0.4,13.37,20.63,-0.2703219,-0.01737105,0.1638694,-0.4501667,1.138797,-9.709861,0
142728515,4779,1.62,-8.94,-7.31,-3.69,-0.5,13.43,21.48,-0.1688196,-0.05084028,0.1177983,-0.1178833,0.450279,-10.11221,0
142834162,4700,1.52,-8.92,-7.44,-3.84,-1.25,13.43,22.14,0.08215322,-0.1540884,0.08827759,-0.2315436,0.9317158,-9.604213,0
142943623,4710,1.53,-8.33,-6.85,-4.13,-1.92,12.67,22.51,0.02829663,0.030575,0.01992076,-0.3478506,1.030798,-9.671002,0
143062161,4612,1.43,-7.4,-5.26,-4.41,-2.32,11.89,22.29,0.2032954,-0.005226583,-0.0822375999999999,-0.3079,0.7228773,-9.660243,0
143157874,4500,1.33,-6.85,-4.49,-4.44,-2.29,11.19,21.73,0.01330907,0.1115556,-0.1085044,-0.4272338,0.565495,-10.18459,0
143266760,4513,1.39,-6.64,-4.05,-4.36,-2.17,10.4,20.86,-0.007921983,0.04647121,-0.16987,-0.4675815,1.007069,-9.998773,0
143383384,4454,1.42,-6.64,-4.21,-4.57,-2.18,9.22,19.73,0.04056354,0.009177815,-0.1619196,-0.2124172,0.9122311,-9.772201,0
143490112,4422,1.23,-6.74,-4.71,-4.98,-2.18,8.08,18.39,-0.0390671,0.004487894,-0.2484669,-0.7135254,0.8215418,-9.677073,0
143596347,4357,1.47,-6.51,-5.49,-5.28,-2.2,6.59,16.72,-0.1860536,0.02991733,-0.2860515,-0.4644607,0.9084833,-9.575212,0
143706776,4357,1.35,-6.21,-6.06,-5.57,-2.21,5.11,14.69,-0.01879656,-0.04503638,-0.380622,-0.431427,1.204215,-9.208842,0
143823481,4421,1.65,-6.01,-6.07,-6.01,-2.73,3.86,12.21,-0.04682308,-0.0802502799999999,-0.3728769,-0.4771008,1.04738,-9.274093,0
144044481,4513,1.77,-4.72,-4.97,-6.96,-4.5,1.93,7.6,0.0594192,-0.05901853,-0.3428487,-0.8507803,0.7345342,-9.431639,0
144143355,4813,1.78,-4.02,-3.87,-7.02,-5.11,1.35,5.62,0.1131795,-0.0209819,-0.3305185,-0.7849284,0.7514457,-9.421766,0
144258693,4811,2.19,-3.54,-3.22,-6.93,-5.25,1.18,3.58,-0.04535967,0.0427885,-0.2667574,-0.5684294,0.6107187,-9.156997,0
144365512,4968,2.4,-3.14,-3.41,-6.61,-5.06,1.16,2.15,-0.08116453,0.03736976,-0.1923834,-0.4415514,0.4021425,-9.317902,0
144594863,5313,2.23,-2.42,-2.85,-5.89,-4.23,1.12,0.25,0.07821137,0.09288169,-0.05940127,-0.6166371,0.4850805,-9.611258,0
144699967,5307,2.14,-2.05,-2.89,-5.66,-3.39,1.12,0.1,-0.0088927799999999,0.1608431,-0.005331846,-0.6487668,0.5622361,-9.484786,0
144803914,5397,1.95,-1.8,-2.63,-5.49,-2.9,1.11,0.22,0.07797927,0.07396013,0.04246594,-0.5419737,0.5620899,-9.510823,0
144915980,5230,1.91,-1.69,-2.36,-5.42,-2.73,1.11,0.58,0.04582876,-0.02534513,0.08195639,-0.6254968,0.6218505,-9.540372,0
145027982,5285,2.01,-1.54,-2.34,-5.48,-2.75,1.11,1.26,0.02026363,-0.01310491,0.1002498,-0.473204,0.7873748,-9.225789,0
145129508,5284,1.75,-1.49,-2.25,-5.56,-2.57,1.11,1.96,-0.01890214,0.006491504,0.118538,-0.8609805,0.5461674,-10.03229,0
145243216,5254,1.65,-1.34,-2.22,-5.5,-2.55,1.11,2.85,0.03407764,-0.1169008,0.1403116,-0.5518854,0.5645245,-9.609031,0
145355550,5002,1.94,-1.15,-2.23,-5.44,-2.96,1.11,3.61,0.0663660799999999,-0.1233112,0.1040121,-0.4871725,0.7991706,-9.531717,0
145459992,5026,1.54,-1.06,-1.8,-5.3,-3.47,1.11,4.15,0.07604899,-0.07857799,0.09756146,-0.6931298,0.4862233,-9.438625,0
145569522,5014,1.5,-0.98,-1.4,-5.02,-3.79,1.1,4.69,0.05096615,-0.07503141,0.06935672,-0.5623029,0.5053064,-9.875886,0
145688961,5005,1.56,-1.02,-1.12,-4.49,-4.04,1.09,5.23,0.001349381,0.01613916,0.06547239,-0.8606315,0.3411564,-9.618423,0
145795904,4917,1.6,-1.12,-1.1,-3.87,-3.91,1.08,5.64,0.001007692,0.02013619,0.03995196,-0.2810092,0.5542045,-9.717769,0
145895912,4955,1.7,-1.25,-1.07,-3.37,-3.56,1.07,5.83,0.08476444,0.1271079,0.01361702,-0.7404867,0.5496066,-9.848778,0
146010892,4911,1.81,-1.27,-1.62,-3.01,-2.19,1.06,5.8,-0.1313027,0.1954154,-0.009414151,-0.5441587,0.5165869,-9.978632,0
146119460,4887,1.65,-1.23,-1.85,-2.78,-1.58,1.06,5.75,0.05748958,0.04016852,-0.008652118,-0.3339905,0.7568281,-9.911408,0
146224424,4925,1.71,-1.16,-1.95,-2.64,-1.72,1.05,5.72,0.0182516,-0.08284701,-0.003937714,-0.4024835,0.5010586,-9.836541,0
146337097,4887,1.58,-1.09,-1.61,-2.56,-2.08,1.05,5.64,0.0749534699999999,-0.068666,-0.004667772,-0.7724381,0.4435468,-9.836215,0
146440550,4924,1.61,-0.91,-1.53,-2.45,-2.22,1.05,5.5,0.08094993,-0.05452862,-0.03534322,-0.4863042,0.3679193,-9.589229,0
146547751,4857,1.85,-0.82,-1.49,-2.21,-2.19,1.05,5.28,0.05709577,-0.03775011,-0.04153636,-0.5819495,0.5940843,-9.906056,0
146666734,4917,1.44,-1.0,-0.91,-1.73,-2.55,1.04,4.94,0.1274029,-0.07419062,-0.03850524,-0.3806624,0.5870352,-9.624325,0
146769911,4826,1.56,-1.21,-0.55,-1.22,-2.61,1.03,4.58,-0.03144514,0.1079573,-0.03123648,-0.4942793,0.3980253,-9.950131,0
146988928,4809,2.35,-1.99,-0.53,0.33,-1.96,5.83,4.77,-0.0622559,0.1095443,0.1529672,-0.4458979,0.638169,-9.661685,0
147098716,5128,3.22,-2.07,-1.36,1.09,-1.3,10.97,6.75,-0.1600957,0.07465336,0.4392181,-0.3817907,0.5555286,-9.681458,0
147204952,5572,2.3,-2.1,-1.99,1.82,-0.79,13.36,9.99,-0.05388625,0.0715770399999999,0.5721159,-0.1967031,0.5083001,-9.711991,0
147311128,5686,1.46,-2.2,-2.04,2.24,-0.04,13.52,13.28,0.00106929,0.0940878899999999,0.5240695,-0.2476893,0.412237,-10.09025,0
147415518,5257,1.18,-2.31,-1.89,2.7,0.04,13.5,16.0,-0.03970863,-0.02393913,0.4066822,-0.2161615,0.3964351,-9.862457,0
147524999,4934,1.31,-2.49,-1.78,3.06,-0.06,13.49,17.98,-0.03566079,-0.008547004,0.3172788,0.01578932,0.5858816,-9.928655,0
147636745,4758,1.1,-2.77,-1.71,3.53,0.04,13.47,19.52,0.1588392,-0.01947732,0.1682165,0.05251708,0.4620595,-9.918362,0
147859674,4581,1.47,-3.14,-2.05,4.52,0.74,13.62,20.62,-0.07390734,0.0379335,0.00255273,-0.2480678,0.6419566,-10.33793,0
147967587,4516,1.58,-3.28,-2.23,4.95,1.04,13.6,20.4,-0.06694855,0.01602058,-0.05609653,-0.05799356,0.4912271,-10.16934,0
148081607,4560,1.3,-3.33,-2.25,5.25,1.44,13.58,19.95,0.03337148,0.1160367,-0.08371098,-0.1216712,0.664542,-10.05013,0
148184873,4604,1.66,-3.32,-2.23,5.49,2.07,13.57,19.37,0.002002514,0.1502708,-0.09905663,0.06869588,0.4913891,-9.809976,0
148286506,4640,1.54,-3.4,-1.94,5.74,2.32,13.55,18.89,0.03086701,0.09269445,-0.03826122,-0.1024341,0.3761233,-10.0278,0
148393933,4618,1.55,-3.4,-2.17,5.81,2.85,13.55,18.58,-0.04326242,0.09949933,-0.06641149,0.0752164,0.5977635,-9.774817,0
148502317,4701,1.73,-3.43,-2.26,5.84,3.12,13.85,18.17,0.05281855,0.04531219,-0.06327816,0.1428544,0.512859,-9.585091,0
148611879,4747,1.89,-3.32,-2.59,5.68,3.46,14.89,18.0,-0.05895932,-0.02230943,0.001654967,-0.05531646,0.6348944,-9.941134,0
148718348,4813,1.58,-3.38,-2.68,5.34,3.43,14.91,17.98,-0.020583,-0.01407826,-0.0265687,0.03115431,0.6366441,-9.683685,0
148839028,4777,1.61,-3.45,-2.75,4.91,2.99,14.94,17.95,0.01132523,-0.06407092,-0.006229171,0.01018411,0.7798924,-10.05102,0
148944910,4829,1.55,-3.61,-2.38,4.63,2.32,14.95,18.0,0.001720035,-0.1047892,0.007105536,0.06798495,0.5440899,-9.745391,0
149050723,4701,1.47,-3.75,-2.37,4.38,2.1,14.97,18.04,-0.003899906,-0.04297139,-0.004989218,0.01614189,0.4719484,-9.614833,0
149159936,4719,1.71,-3.93,-2.9,4.23,2.29,14.98,17.98,-0.1929961,0.08955112,-0.007220135,-0.02005536,0.6543149,-9.802533,0
149271352,4789,1.63,-4.14,-3.59,3.99,2.9,15.0,17.98,-0.06521056,0.1150592,0.008937698,0.2541595,0.7901839,-9.898644,0
149377619,4705,1.75,-3.88,-3.63,-1.21,1.63,15.37,18.16,-0.02076034,-0.813332,0.01943089,1.460387,0.7455076,-9.651139,0
149496942,4764,1.64,-3.46,-3.16,-8.85,-8.73,15.85,18.83,0.06834448,-1.484442,0.01408732,-0.3427376,0.644715,-9.707745,0
149591617,4856,1.77,-3.24,-3.11,-13.08,-15.12,16.1,19.44,0.08756779,-0.9250506,0.04256489,-0.4737737,0.5478305,-10.34224,0
149701693,4841,1.4,-3.23,-3.11,-15.02,-18.77,16.21,20.29,0.04717318,-0.3249401,0.0934867,-0.288754,0.6858245,-10.57288,0
149817900,4800,1.78,-3.42,-3.51,-12.48,-16.61,16.06,20.99,-0.05559769,0.7041697,0.1281873,-0.1774835,0.7539071,-10.22256,0
149920129,4794,1.3,-3.62,-3.56,-5.4,-9.72,15.61,21.07,-0.01200877,1.765002,0.1083836,-0.7280343,0.6277943,-9.94944,0
150034096,4670,1.32,-2.89,-2.52,0.36,0.37,20.48,26.0,-0.09661267,1.18499,0.04295451,0.307986,0.4415658,-9.817027,0
150136903,4529,1.44,-3.09,-3.22,2.94,5.42,20.35,25.91,-0.06106684,0.5097365,0.005201234,0.2474812,0.61603,-9.760774,0
150243561,4575,1.52,-2.84,-3.54,2.99,6.5,20.34,25.73,0.03971441,-0.1202872,-0.02755184,0.3265435,0.7752476,-9.732424,0
150358622,4649,1.5,-2.3,-2.95,1.88,4.8,20.39,25.17,0.1553811,-0.318468,-0.0702937399999999,-0.02305311,0.6468168,-9.845692,0
150468737,4586,1.64,-1.81,-2.29,0.65,2.58,20.44,24.63,0.0968842699999999,-0.3078352,-0.09538563,-0.3107359,0.6202228,-10.03049,0
150563490,4714,1.57,-1.54,-1.9,0.11,1.25,20.45,24.11,0.15504,-0.1476243,-0.05476992,-0.1686841,0.6356454,-9.70267,0
150894012,4767,1.24,-1.15,-0.9,0.37,1.28,20.45,24.24,0.09011884,0.0270438,0.0930393,0.1110282,0.5577825,-9.672377,0
151002626,4567,1.32,-1.35,-0.78,1.77,2.08,20.42,24.8,-0.1817156,0.2514895,0.108783,-0.1042147,0.591858,-10.09028,0
151111926,4500,1.38,-1.62,-1.24,3.89,4.07,20.36,25.09,-0.0705142,0.3111334,0.02274117,-0.1601441,0.4853422,-9.867955,0
151226499,4506,1.4,-2.04,-1.8,5.03,5.76,20.33,24.93,-0.1353594,0.172885,-0.01158273,0.1065969,0.363609,-9.598269,0
151324754,4574,1.62,-2.23,-2.57,5.09,6.18,20.32,24.76,-0.05499843,-0.005855116,-0.02033298,-0.1142989,0.7619467,-9.753674,0
151552079,4740,1.64,-2.36,-3.16,3.16,4.04,20.41,24.75,-0.02820376,-0.1734255,0.009919861,-0.1159152,0.4242571,-10.00904,0
151666102,4717,1.51,-2.12,-2.89,2.47,2.9,20.43,24.74,-0.0098496279999999,-0.0985376,-0.002710077,-0.06103083,0.384406,-9.985352,0
151765560,4765,1.48,-2.13,-2.45,2.2,1.95,20.44,24.4,0.01755037,-0.1526556,0.01415333,0.01911946,0.5215783,-10.00731,0
151886596,4639,1.64,-2.43,-2.2,2.22,1.17,20.44,24.07,0.06105493,-0.08617008,-0.02805009,0.09845176,0.4907367,-9.628637,0
151990307,4619,1.68,-2.7,-2.46,2.5,1.05,20.43,23.54,-0.1118554,0.05884895,-0.07476792,-0.01895615,0.4010182,-10.42305,0
152097085,4699,1.57,-2.91,-2.68,2.8,1.14,20.41,22.95,-0.02782841,0.07117563,-0.0960529299999999,-0.01960835,0.5670502,-10.06794,0
152213109,4659,1.57,-3.31,-2.68,3.05,1.59,20.4,22.17,0.06304351,0.09925812,-0.08194103,-0.1215605,0.5115097,-9.716015,0
152318964,4685,1.8,-3.56,-3.12,3.02,2.14,20.4,21.52,-0.08560154,0.07322728,-0.09422405,0.01405901,0.9060531,-10.03628,0
152429172,4690,1.44,-3.82,-3.27,2.83,2.24,20.42,20.97,-0.000556377,-0.0558912,-0.0840868699999999,0.1843943,0.6831473,-9.423928,0
152532583,4813,1.65,-4.04,-3.16,2.64,1.92,20.43,20.64,-0.03021029,-0.03583493,-0.04173816,-0.007005824,0.6117371,-9.883332,0
152650523,4786,1.58,-4.23,-3.11,2.39,1.61,20.45,20.27,0.02609245,-0.04634189,-0.05443759,-0.06247602,0.780396,-9.995168,0
152753322,4795,1.52,-4.5,-3.07,2.2,1.63,20.46,20.2,0.01102899,0.0540386,-0.0001491462,0.01411147,0.6584827,-9.723161,0
152860362,4701,1.68,-4.79,-3.55,1.99,1.87,20.48,20.4,-0.0837277,-0.03031239,0.03421343,0.2518771,0.749332,-9.625662,0
152971155,4729,1.65,-5.11,-4.05,1.9,1.44,20.49,20.85,-0.1387575,-0.1153236,0.07922205,0.1199224,0.7393416,-9.477926,0
153095149,4793,1.47,-5.39,-4.33,1.79,1.32,20.5,21.42,-0.03567232,0.006789268,0.0695646199999999,0.1009209,0.8115606,-9.567894,0
153194142,4714,1.36,-5.49,-4.14,1.79,1.21,20.5,21.83,0.06842371,-0.04422926,0.07154039,0.2607476,0.7420547,-9.792732,0
153301328,4600,1.47,-5.43,-4.06,1.77,1.25,20.5,22.27,-0.02290037,0.05385447,0.07197776,-0.04865379,0.7968516,-9.901629,0
153412115,4607,1.26,-5.38,-4.05,1.72,1.39,20.5,22.73,0.01488343,-0.0003525193,0.0733904799999999,0.04895376,0.5560223,-9.855998,0
153520757,4549,1.57,-5.22,-4.46,1.62,1.24,20.51,22.88,-0.0477613,-0.05591123,-0.01638934,-0.02804506,0.6309251,-9.591305,0
153624959,4617,1.98,-4.97,-4.99,1.49,0.99,20.52,22.72,-0.1708861,0.03986986,-0.03372505,-0.1140272,0.5140756,-9.776155,0
153738396,4820,1.57,-4.54,-5.21,1.12,1.1,20.55,22.39,0.05856129,0.08340196,-0.04381424,-0.4948866,0.7645921,-9.711314,0
153850984,4871,1.55,-4.13,-4.42,0.53,1.37,20.6,22.08,0.1926072,-0.003488434,-0.01966884,-0.03216372,0.6458809,-9.884798,0
153946889,4776,1.51,-3.89,-3.42,-0.05,1.48,20.64,22.05,0.1065604,-0.008355325,0.03604946,-0.2349414,0.5590488,-9.777274,0
154055700,4688,1.56,-3.71,-2.87,-0.77,1.1,20.69,22.22,0.03050992,-0.08341301,0.01997707,-0.0550847,0.6798026,-9.624992,0
154170919,4715,1.21,-3.83,-2.5,-1.46,0.52,20.73,22.64,0.02214135,-0.149818,0.05585618,-0.1885505,0.6773005,-10.0043,0
154284354,4621,1.45,-3.96,-2.78,-2.1,0.0,20.78,23.27,0.00410204,-0.03980657,0.05940683,0.06523994,0.8187883,-9.83019,0
154387562,4583,1.38,-4.09,-3.57,-2.59,-0.58,20.81,23.74,-0.1746949,-0.1379042,0.06173413,-0.2436811,0.6079695,-9.976716,0
154494851,4574,1.57,-4.11,-4.06,-2.95,-1.54,20.84,24.05,0.05272919,-0.1602718,0.01687851,-0.4245102,0.7893103,-9.577552,0
154597432,4600,1.26,-4.12,-3.77,-3.24,-2.07,20.86,24.09,-0.02037139,-0.1016078,-0.01141505,-0.3593856,0.7213023,-9.95364,0
154705539,4486,1.52,-3.92,-3.38,-3.39,-2.39,20.87,23.98,-0.03324726,-0.0923615899999999,-0.04396232,0.03398703,0.7411214,-10.16676,0
154818192,4514,1.36,-3.9,-3.29,-3.22,-2.75,20.86,23.89,-0.01316433,0.00302477,-0.01076152,-0.3614171,0.9511547,-9.926314,0
154926490,4503,1.28,-3.99,-3.27,-3.01,-2.76,20.84,23.77,-0.04431376,0.01487733,0.00159933,-0.1681484,0.8685527,-10.0592,0
155037768,4436,1.42,-4.16,-3.43,-2.72,-2.52,20.82,23.52,-0.06900837,0.05201978,-0.02439974,-0.03501511,0.9211139,-10.05354,0
155130712,4612,1.38,-4.39,-3.52,-2.35,-2.37,20.79,23.39,-0.03435954,0.06816145,-0.01076971,-0.3529501,0.9760334,-9.889157,0
155249989,4539,1.61,-4.66,-3.86,-2.09,-1.64,20.77,23.19,-0.003435828,0.04516784,-0.06466772,-0.02755194,0.8944173,-9.700885,0
155358380,4631,1.3,-4.91,-3.99,-1.85,-1.28,20.75,22.81,0.01390458,0.02659424,-0.01323006,-0.210113,0.8888893,-9.88324,0
155469725,4532,1.31,-5.11,-3.84,-1.53,-1.24,20.73,22.59,-0.03039266,0.00955788,0.004111126,-0.05360788,0.9571183,-9.823142,0
155577720,4578,1.33,-5.29,-3.78,-1.18,-1.31,20.69,22.48,-0.003841219,0.01108245,0.03932572,0.2714942,1.236723,-10.03858,0
155690756,4486,1.28,-5.55,-3.77,-0.73,-1.2,20.65,22.59,-0.006754761,0.01890781,0.03675487,0.2041394,1.252283,-10.11053,0
155787598,4370,0.93,-5.99,-4.01,-0.07,-1.31,20.58,23.0,-0.0357365,0.05384891,0.1275593,-0.4657024,0.9539783,-10.17738,0
155900525,4146,1.23,-6.4,-4.55,0.59,-0.92,20.51,23.32,-0.0720135799999999,0.03073857,0.04046572,0.1163908,1.025255,-9.617907,0
156009861,4180,1.27,-6.64,-5.12,1.09,0.08,20.45,23.18,0.02057859,0.2131836,0.003998671,0.3709628,1.182479,-9.931859,0
156115469,4124,1.09,-6.9,-5.11,1.28,1.04,20.43,22.93,-0.08813002,0.04786216,-0.01516884,0.1937519,1.1155,-9.907434,0
156230127,3949,1.53,-7.07,-5.16,1.17,1.59,20.45,22.64,0.1761964,0.05845626,-0.03789905,0.3604019,1.417544,-9.749225,0
156334753,3993,1.85,-7.35,-5.31,1.01,1.43,20.47,22.41,-0.06047415,-0.1301096,-0.02487903,0.008257591,0.9460802,-9.751311,0
156441687,3957,1.41,-7.51,-6.02,0.73,1.39,20.5,22.26,0.06737389,0.04244922,0.003159865,0.2899194,1.392621,-10.00495,0
156542570,4131,1.89,-7.72,-6.6,0.62,1.17,20.52,22.17,-0.2330001,-0.1601583,-0.007154672,0.5126452,1.198681,-9.73732,0
156653147,4199,1.22,-7.77,-6.73,0.57,1.07,20.52,22.06,0.0326862,0.04650902,0.0405402,-0.1467337,1.200409,-9.452485,0
156766218,4199,1.36,-7.74,-7.1,0.38,1.5,20.55,22.13,-0.03319254,0.06534961,0.006957279,-0.212338,1.171652,-9.776883,0
156866617,4317,1.41,-7.7,-7.21,-0.01,1.93,20.6,22.27,-0.03878265,0.07017552,0.006259335,0.08594536,1.389642,-9.697087,0
156976537,4390,1.39,-7.51,-7.36,-0.58,1.64,20.68,22.4,0.02419498,-0.103619,0.0375371,-0.04707862,1.062441,-9.696446,0
157082986,4435,1.24,-7.25,-7.1,-1.08,0.73,20.75,22.58,0.03650673,-0.1493434,0.0092944829999999,-0.4788678,1.115826,-9.834212,0
157201013,4393,1.32,-6.96,-6.96,-1.31,0.04,20.77,22.89,-0.02900678,0.02479952,0.02484392,-0.3369427,1.003719,-10.02716,0
157298283,4459,1.54,-6.75,-7.33,-1.37,-0.03,20.78,23.11,-0.1153461,0.03675096,0.02249382,-0.1853148,0.9274447,-9.681231,0
157404174,4488,1.42,-6.48,-7.16,-1.38,-0.27,20.78,23.3,0.1583983,-0.07686687,0.0410602,-0.1798209,0.9031675,-9.680213,0
157521488,4557,1.43,-6.08,-6.52,-1.58,-0.19,20.8,23.45,0.1224756,0.0924576399999999,0.02843693,-0.4307363,1.229818,-9.980563,0
157624491,4466,1.38,-5.84,-6.01,-1.74,-0.34,20.82,23.49,0.0724150499999999,-0.03357771,0.01496372,-0.3353007,1.375558,-10.06285,0
157728736,4400,1.49,-5.82,-5.87,-1.86,-0.64,20.83,23.39,-0.005799119,0.002466209,-0.02749675,0.3289274,1.190279,-9.420185,0
157852688,4426,1.52,-5.91,-5.97,-1.95,-1.04,20.84,23.18,-0.03745745,-0.06028169,-0.02186069,-0.1873766,1.342038,-9.938361,0
157952525,4526,1.59,-6.06,-5.96,-1.84,-1.61,20.83,22.83,-0.03005374,-0.06052819,-0.0712255599999999,-0.3867263,1.197647,-9.926321,0
158071148,4460,1.68,-6.0,-6.27,-1.73,-1.67,20.82,22.0,-0.1346514,0.05868137,-0.1290416,-0.3634221,1.005453,-9.742261,0
158171477,4620,1.8,-5.97,-6.54,-1.71,-1.22,20.82,21.47,-0.03347949,0.06902181,-0.1109978,-0.2302799,1.037016,-9.570782,0
158281967,4724,2.26,-5.81,-6.92,-1.71,-0.63,20.82,21.01,-0.03350395,0.1434939,-0.04899529,-0.3889335,1.461695,-9.447021,0
158394490,4919,2.08,-5.53,-6.61,-1.96,-0.4,20.84,20.55,0.1261753,-0.03256452,-0.05059773,-0.309933,1.303672,-9.654626,0
158495532,4977,1.8,-5.15,-6.01,-2.29,-0.85,20.87,20.41,0.1404809,-0.1241044,-0.009226671,0.1210484,1.353616,-9.238073,0
158605143,5027,1.61,-4.82,-5.1,-2.58,-1.19,20.9,20.9,0.1122188,0.03220344,0.1252858,-0.4184309,1.112261,-9.98789,0
158711692,4853,1.49,-4.61,-4.79,-2.77,-1.14,20.91,21.63,0.04192897,-0.02136918,0.1456149,-0.1309927,0.9139878,-9.974759,0
159042537,4774,1.21,-4.46,-4.63,-2.55,-0.99,20.9,24.23,-0.1425515,-0.05759283,0.0899349,-0.3024735,0.9885996,-10.14682,0
159146761,4330,1.85,-4.36,-5.29,-2.52,-1.21,20.89,24.7,-0.2522106,-0.09304704,0.02613247,0.03846212,1.006907,-9.042971,0
159361528,4503,1.66,-4.19,-5.26,-2.68,-1.49,20.91,24.5,0.117043,0.0189091,-0.02558777,-0.1710717,1.158886,-9.591508,0
159478157,4762,1.32,-4.04,-4.16,-2.62,-1.84,20.9,24.35,0.2181337,-0.1170361,0.01401721,-0.1542212,1.085228,-9.897657,0
159589486,4512,1.02,-3.98,-3.42,-2.28,-2.39,20.88,24.52,0.04998169,-0.126098,0.01689208,-0.09364124,0.8253766,-10.5106,0
159688593,4371,1.52,-3.96,-3.59,-1.88,-2.56,20.85,24.53,-0.0631417,0.1000455,-0.03972887,-0.7494339,0.9750734,-9.545178,0
159807546,4403,1.51,-4.1,-4.01,-1.67,-1.73,20.84,23.98,0.03205927,0.01130841,-0.1202588,-0.1240686,1.020923,-9.655324,0
159911707,4437,1.32,-4.4,-4.11,-1.47,-1.05,20.82,23.53,-0.1023403,-0.006631121,-0.03178757,-0.1632418,1.075808,-9.692956,0
160024948,4353,1.63,-4.5,-4.57,-1.3,-0.85,20.81,23.26,-0.08501353,-0.0753643299999999,-0.004777391,-0.04168454,1.035159,-9.238019,0
160129534,4513,1.47,-4.64,-4.66,-1.03,-1.13,20.79,23.11,-0.02498843,-0.042499,-0.05972613,-0.2402853,0.8479394,-9.432402,0
160245719,4494,1.58,-4.48,-4.66,-1.06,-0.63,20.79,22.74,-0.02791242,0.1387863,-0.03425605,-0.1517609,1.094399,-9.681278,0
160352327,4591,1.69,-4.36,-4.81,-1.13,-0.08,20.79,22.49,-0.1501236,0.1290968,-0.007789514,-0.5157425,1.023175,-9.670063,0
160461291,4697,1.68,-4.38,-4.9,-1.31,-0.08,20.81,22.29,-0.04840046,0.006484664,-0.01749516,-0.5489033,0.8929997,-9.523758,0
160564601,4670,1.57,-4.48,-4.82,-1.54,-0.5,20.82,22.08,-0.0005508788,-0.08866469,-0.03063988,-0.9878528,0.9166023,-10.06001,0
160676109,4641,1.47,-4.58,-5.01,-2.0,-0.51,20.86,21.9,-0.03413704,-0.07275703,-0.01237193,-0.4663028,0.9869877,-10.06633,0
160787568,4634,1.46,-4.71,-4.96,-2.12,-1.09,20.87,21.88,0.01206656,-0.0949060199999999,0.03737417,-0.3540069,1.270631,-9.995477,0
160896763,4695,1.52,-4.81,-5.22,-2.2,-1.36,20.88,21.82,-0.0406097,-0.06339749,-0.06557009,-0.1054883,0.9658592,-9.409244,0
161003304,4643,1.49,-4.91,-5.33,-2.24,-1.45,20.88,21.77,0.1999777,-0.0769875399999999,-0.01313825,-0.04560668,1.205427,-9.431025,0
161105743,4669,1.59,-5.03,-5.18,-2.1,-1.74,20.87,21.86,-0.00717407,-0.0126082,0.01718418,-0.22208,1.30873,-9.710759,0
161222020,4586,1.56,-5.11,-5.25,-1.92,-1.84,20.85,21.97,-0.1102551,-0.02857666,0.0189629,-0.4279649,1.099818,-9.482254,0
161325867,4604,1.44,-5.21,-5.21,-1.74,-1.87,20.84,21.98,-0.03862039,0.03647012,0.01383658,-0.592389,1.154946,-10.21041,0
161433097,4666,1.38,-5.31,-5.06,-1.52,-1.89,20.82,22.0,-0.05790227,-0.03312362,-0.001166907,-0.2070452,1.230812,-9.884666,0
161540625,4572,1.63,-5.37,-5.17,-1.31,-1.86,20.8,21.84,0.05658612,0.0705505,-0.05996941,-0.4195494,1.300065,-9.449865,0
161660351,4626,1.62,-5.66,-5.19,-1.16,-1.58,20.78,21.6,0.02771336,-0.02366125,-0.04772175,-0.3268958,1.298673,-10.0041,0
161761932,4614,1.34,-5.99,-5.39,-0.98,-1.24,20.76,21.38,-0.0354546,0.07059724,-0.0440643,-0.5827556,1.14212,-9.736274,0
161980612,4613,1.67,-6.84,-6.15,-0.84,-0.93,20.75,20.83,-0.0686041399999999,0.02485738,-0.0553887,-0.0994198699999999,1.520144,-9.730832,0
162090118,4581,1.53,-7.22,-6.72,-0.8,-0.78,20.74,20.55,-0.07253618,0.06142983,-0.03360856,-0.4583389,1.368126,-9.740728,0
162198094,4734,1.64,-7.52,-6.82,-0.8,-0.82,20.74,20.25,-0.02778355,0.01848245,-0.03376539,-0.2840343,1.028045,-9.458938,0
162308542,4567,1.72,-7.61,-7.41,-0.87,-0.67,20.75,20.14,-0.09658232,0.04475932,-0.03124012,-0.531556,1.25847,-9.637798,0
162419960,4706,1.67,-7.71,-7.44,-0.98,-0.56,20.77,20.08,0.03468106,0.01585322,0.009284956,-0.1348124,1.512015,-9.585433,0
162529968,4771,1.84,-7.66,-7.43,-1.15,-0.2,20.79,20.09,-0.02491292,-0.002859593,0.02018674,-0.03232037,1.197,-10.21069,0
162630681,4769,1.61,-7.52,-7.22,-1.21,-0.35,20.8,20.25,0.1360249,-0.04241652,0.04749836,-0.471187,0.9933686,-9.967949,0
162737514,4742,1.6,-7.35,-6.87,-1.29,-0.63,20.81,20.6,0.1019651,-0.08047558,0.05025309,-0.4033457,1.064394,-9.899958,0
162845764,4785,1.6,-7.15,-6.81,-1.29,-0.78,20.81,20.99,-0.04479911,-0.007245989,0.05365428,-0.3592288,1.105255,-10.3884,0
163059287,4797,1.77,-6.71,-6.62,-1.16,-1.24,20.79,21.93,0.05242784,0.02309795,0.0775375299999999,-0.156176,1.207093,-9.924823,0
163171600,4653,1.48,-6.47,-6.4,-1.05,-1.31,20.78,22.44,0.1097227,0.02949086,0.1111732,-0.4050741,1.349547,-9.970152,0
163275535,4606,1.39,-6.33,-6.18,-0.92,-1.08,20.77,22.84,-0.1230191,0.06267742,0.08519537,-0.3053803,0.9944795,-9.863204,0
163492984,4430,1.19,-5.9,-6.12,-0.6,-0.89,20.73,23.68,0.09813756,-0.09216994,0.00976391,0.1489839,1.133213,-9.825489,0
163605933,4478,1.38,-5.68,-5.98,-0.53,-1.07,20.72,23.79,-0.05058245,-0.02353781,0.009253312,-0.2212655,1.1137,-9.797637,0
163707497,4414,1.48,-5.47,-5.8,-0.49,-0.99,20.72,23.76,-0.04120915,0.05756983,0.005975934,-0.08022767,0.9779961,-9.692764,0
163814383,4414,1.4,-5.28,-5.75,-0.39,-0.68,20.71,23.62,0.04786959,0.1080478,-0.01075195,-0.3063858,1.069786,-9.766506,0
163930176,4443,1.38,-5.18,-5.51,-0.33,-0.5,20.71,23.32,0.01447917,0.03943589,-0.04562122,-0.0002347824,1.005182,-9.678781,0
164037918,4457,1.33,-5.13,-5.16,-0.45,-0.36,20.72,22.93,0.119937,0.002248774,-0.05098194,-0.202797,1.136754,-9.649747,0
164143396,4469,1.45,-5.12,-5.04,-0.56,-0.65,20.73,22.57,0.0541322,-0.01405407,-0.04886604,-0.6653372,1.199582,-9.638545,0
164252778,4465,1.84,-5.19,-5.26,-0.69,-0.69,20.74,22.1,-0.1048376,0.0936633999999999,-0.06384776,-0.3132513,1.121514,-9.491004,0
164363621,4571,1.67,-5.26,-5.39,-0.69,-1.01,20.74,21.66,0.03770082,-0.06679738,-0.08849467,-0.4816616,1.098128,-9.624193,0
164476141,4715,1.61,-5.26,-5.01,-0.65,-1.14,20.74,21.44,0.116088,-0.02669621,-0.0340983,0.1522397,0.9473388,-9.488059,0
164576235,4627,1.32,-5.12,-4.86,-0.5,-1.0,20.72,21.38,-0.1109096,0.05696089,0.004853553,-0.4013334,1.020211,-10.30214,0
164684887,4609,1.41,-5.05,-5.09,-0.33,-0.72,20.71,21.3,-0.1116031,0.06289934,-0.04416357,-0.2024543,1.180766,-9.76959,0
164798323,4538,1.69,-4.99,-5.27,-0.12,-0.75,20.69,21.12,0.04612346,-0.07134347,-0.07389359,-0.03450415,0.9644615,-9.403689,0
164898071,4643,1.59,-4.91,-5.44,-0.12,-0.49,20.69,21.0,0.0837512,0.1613755,0.004082692,-0.6503197,1.312724,-9.733565,0
165122432,4713,1.5,-4.66,-5.08,-0.55,0.16,20.72,21.26,-0.0118211,0.03174176,0.03673879,-0.075973,0.9401468,-10.1559,0
165232585,4694,1.31,-4.62,-4.63,-0.6,-0.86,20.73,21.61,0.06605382,-0.2052877,0.01826005,0.01548216,0.9391621,-10.12841,0
165349566,4573,1.4,-4.64,-4.78,-0.61,-1.3,20.73,21.82,0.07416834,0.05188343,0.03439967,-0.4658996,1.123982,-9.58837,0
165455982,4467,1.55,-4.79,-4.85,-0.55,-1.11,20.72,21.89,-0.02472327,0.003953415,0.01458011,-0.4156149,1.123461,-9.869445,0
165555891,4568,1.46,-4.9,-4.8,-0.49,-0.75,20.72,21.82,-5.419651e-05,0.06489497,-0.007467422,-0.06991302,0.7973804,-9.388516,0
165665891,4517,1.52,-4.92,-5.03,-0.58,-0.47,20.73,21.72,-0.07291292,0.07099484,-0.01860205,-0.5998259,1.212745,-9.78978,0
165770764,4572,1.67,-5.0,-5.1,-0.66,-0.68,20.73,21.67,-0.01860024,0.02738461,0.03290899,-0.5697805,1.026644,-9.715084,0
165879476,4597,1.68,-5.04,-5.2,-0.79,-0.83,20.74,21.57,-0.0331955,-0.03298953,0.00831453,-0.3753486,1.020558,-9.955815,0
165990937,4523,1.8,-5.01,-5.45,-0.91,-0.86,20.75,21.44,-0.01492928,-0.05187457,-0.0281531,-0.1047849,0.8850569,-9.36669,0
166093578,4716,2.03,-4.95,-5.57,-1.09,-0.65,20.77,21.42,-0.1295653,0.09756624,0.02528843,-0.3666574,1.063708,-9.583659,0
166213293,4853,1.5,-4.75,-5.28,-1.26,-0.61,20.79,21.77,0.1091195,-0.05248729,0.0858957199999999,-0.470611,0.9447747,-10.26775,0
166317078,4799,1.36,-4.59,-4.94,-1.38,-0.78,20.79,22.38,0.09488808,-0.05635811,0.1103171,-0.08308449,0.785916,-9.878016,0
166433585,4606,1.22,-4.39,-4.53,-1.41,-1.01,20.8,23.19,0.07951852,-0.05574641,0.1169411,0.02993857,0.9022312,-9.875507,0
166534527,4520,1.03,-4.3,-4.0,-1.3,-1.34,20.79,23.84,0.06288908,-0.06103351,0.1010955,-0.2381555,0.8542023,-9.954665,0
166647926,4399,1.11,-4.21,-4.01,-1.09,-1.35,20.77,24.38,-0.02187172,0.07828074,0.07920388,-0.1293017,0.7503245,-9.944032,0
166755376,4251,0.97,-4.27,-4.05,-0.77,-1.6,20.75,24.73,-0.05561647,-0.05254417,0.02884421,-0.2282663,0.7460008,-9.761931,0
166866277,4177,1.32,-4.31,-4.42,-0.57,-1.58,20.73,24.83,-0.003051059,-0.1297858,-0.02207359,-0.3315938,1.192267,-9.330532,0
166979597,4245,1.42,-4.36,-4.92,-0.42,-1.14,20.72,24.6,-0.02159229,0.1033979,-0.03495605,-0.3052791,0.9366283,-9.786868,0
167075472,4272,1.41,-4.27,-4.76,-0.38,-0.58,20.72,24.28,0.01529089,0.08423708,-0.03995947,-0.196401,0.660942,-9.522529,0
167199951,4394,1.38,-3.99,-4.4,-0.28,-0.15,20.71,23.79,0.04023382,-0.05590276,-0.07485718,-0.3075855,0.7958693,-9.491764,0
167301885,4457,1.45,-3.74,-4.32,-0.34,0.01,20.72,23.45,-0.09276426,0.0765456,-0.03913124,-0.3417518,0.9263613,-9.78955,0
167410997,4459,1.21,-3.47,-4.04,-0.48,-0.05,20.73,23.32,0.06747849,0.02644433,0.004414195,-0.2436253,0.7076423,-10.06875,0
167525728,4478,1.17,-3.25,-3.64,-0.58,-0.54,20.73,23.43,-0.002800284,-0.1250004,0.02868073,-0.2960617,0.4394699,-9.717974,0
167633996,4415,1.23,-3.03,-3.45,-0.58,-1.05,20.73,23.54,0.09180164,-0.06501663,-0.01573558,-0.1423769,1.01648,-9.536319,0
167735709,4424,1.33,-3.05,-3.28,-0.58,-0.99,20.73,23.48,0.01857539,-0.0806741099999999,-0.01969946,-0.05827083,0.9532078,-9.66899,0
167843159,4343,1.22,-3.08,-3.13,-0.4,-1.01,20.72,23.29,0.003295445,0.03295905,-0.03344263,-0.2884754,0.5762664,-9.699234,0
167953744,4371,1.19,-3.25,-2.96,-0.32,-0.73,20.72,23.11,0.02113702,-0.002195785,-0.006330187,-0.3002527,1.012693,-9.801673,0
168059499,4370,1.36,-3.49,-3.25,-0.21,-0.5,20.71,22.91,-0.06639167,0.02971745,-0.02953978,-0.3808058,1.215298,-9.876554,0
168175357,4344,1.18,-3.78,-3.53,-0.21,-0.32,20.71,22.83,-0.06381752,-0.003387996,0.01960862,0.1493972,0.946236,-9.677894,0
168274047,4371,1.32,-3.91,-3.85,-0.26,-0.55,20.71,22.87,-0.01625152,-0.1099657,0.01849249,-0.6204712,1.094309,-9.980532,0
168386786,4396,1.21,-4.0,-3.91,-0.33,-0.76,20.72,23.11,-0.1020337,-0.02479616,0.03887138,-0.3950052,0.9459493,-9.764647,0
168500549,4322,1.41,-3.92,-4.1,-0.11,-0.75,20.7,23.37,-0.03412951,0.1020614,0.04521698,-0.1622626,1.053856,-9.706407,0
168610793,4408,1.24,-3.89,-4.27,0.08,-0.6,20.69,23.59,-0.002089212,-0.02894531,0.03340908,-0.06959914,0.7923678,-9.434634,0
168713955,4365,1.39,-3.8,-4.26,0.22,-0.16,20.68,23.67,0.05202963,0.02392816,-0.0008284298,-0.08398924,0.90257,-9.669625,0
168821732,4432,1.3,-3.71,-4.19,0.26,0.29,20.68,23.66,-0.07199518,0.084528,0.01930765,-0.1075463,0.956237,-10.34109,0
168927564,4346,1.32,-3.61,-4.06,0.17,0.31,20.68,23.51,0.004598958,-0.006586703,-0.01993489,-0.2218054,0.7001918,-9.563473,0
169039082,4445,1.28,-3.62,-3.87,0.1,0.03,20.69,23.25,-0.1021777,-0.05531148,-0.06010619,-0.4944845,0.5591404,-9.848828,0
169149896,4347,1.28,-3.64,-3.68,-0.02,-0.05,20.7,22.94,0.04975145,-0.0387861,-0.04611582,-0.2949255,0.9525135,-9.761861,0
169262709,4408,1.48,-3.73,-3.58,-0.17,0.05,20.71,22.63,0.08444667,-0.1004796,-0.05615842,0.04015037,0.8260391,-9.864004,0
169366613,4512,1.44,-3.82,-3.65,-0.22,-0.13,20.71,22.36,-0.04060491,0.01057476,-0.04679178,0.009601978,0.95635,-9.672412,0
169481349,4482,1.47,-3.92,-3.68,-0.35,-0.17,20.72,22.22,0.01804092,0.01929194,0.01981628,-0.06301859,0.7535663,-10.0012,0
169580356,4632,1.17,-3.99,-3.56,-0.26,-0.55,20.71,22.33,-0.02419226,-0.06553565,0.01028254,-0.303075,0.8692117,-9.875726,0
169690757,4457,1.37,-3.99,-3.83,-0.26,-0.41,20.71,22.44,0.01557251,0.001779276,0.0146622,-0.06800599,1.158733,-9.561117,0
169808114,4490,1.1,-4.25,-3.84,-0.14,-0.11,20.7,22.38,0.002185785,-0.0250433,-0.02992116,-0.142781,0.7238953,-9.790784,0
169906784,4382,1.35,-4.52,-4.12,-0.12,0.2,20.7,22.1,-0.1123223,0.002468107,-0.08089899,0.05299581,0.8342291,-9.466298,0
170015379,4332,1.62,-4.86,-4.71,-0.14,0.16,20.7,21.83,-0.1052743,-0.02649222,-0.007897194,-0.318274,1.234788,-9.742562,0
170133087,4444,1.24,-5.13,-4.92,-0.16,-0.31,20.71,21.74,0.05284479,-0.007630856,0.003683536,-0.2393523,1.191716,-9.418918,0
170232498,4471,1.36,-5.13,-5.14,-0.27,-0.24,20.72,21.72,0.04133289,0.002825607,0.025889,-0.4124469,0.85108,-9.81074,0
170341625,4473,1.4,-5.06,-5.17,-0.3,0.05,20.72,21.71,-0.02246426,0.06996698,0.0360309,-0.486395,0.9096156,-9.957357,0
170452423,4510,1.16,-4.99,-4.62,-0.3,-0.1,20.72,21.86,0.0724526,-0.03461497,0.01982543,0.0106985,0.9874157,-9.756402,0
170566006,4418,1.3,-4.87,-4.45,-0.29,-0.62,20.72,22.15,-0.0986308199999999,-0.03804201,0.0282994,-0.02761086,0.7785166,-9.586226,0
170681702,4326,1.16,-4.86,-4.34,-0.15,-0.86,20.71,22.29,0.07778765,-0.0891546399999999,-0.02280358,-0.1946973,0.6814599,-9.595755,0
170777525,4306,1.04,-4.79,-4.49,0.01,-0.78,20.69,22.25,0.01173637,0.06577114,-0.01671749,-0.1417401,0.8958465,-9.457603,0
170889753,4197,1.46,-4.69,-4.68,0.2,-0.66,20.68,22.0,0.002960363,-0.04018459,-0.071398,0.1316774,0.8882276,-9.245593,0
170997142,4022,1.9,-4.52,-4.8,0.42,-0.8,20.66,21.6,0.01955845,0.03532475,-0.0772962299999999,0.1911153,0.8422272,-8.654154,0
171100595,4144,1.93,-4.35,-5.27,0.56,-0.58,20.65,21.2,-0.2757499,0.1986502,-0.0442252,-0.3725704,0.7951184,-9.350024,0
171213965,4297,1.5,-4.09,-5.22,0.58,0.07,20.65,20.58,0.06728609,0.09324253,-0.07894123,0.007205268,0.963525,-9.149288,0
171325917,4461,1.38,-3.93,-4.48,0.6,0.12,20.64,20.08,0.1499886,-0.03507669,-0.08431175,0.1757929,0.9118036,-9.493836,0
171437303,4336,1.25,-3.74,-3.79,0.63,0.02,20.64,19.82,0.1382525,-0.04437687,-0.05784295,-0.05729078,1.036827,-9.600357,0
171537397,4456,1.37,-3.82,-3.37,0.72,-0.25,20.64,19.69,-0.01891509,0.01527832,-0.02232504,-0.2428198,0.9649636,-9.766499,0
171651131,4440,1.34,-4.15,-3.26,0.9,-0.39,20.62,19.64,-0.0784301,-0.0004048665,0.009509808,0.02683684,0.8389863,-9.384025,0
171764536,4407,1.45,-4.32,-3.75,1.14,-0.43,20.61,19.57,-0.04669332,0.02824343,-0.01673411,-0.2006245,0.9422336,-9.799005,0
171975539,4485,1.51,-4.42,-4.2,1.5,0.06,20.58,19.62,0.08061617,0.08819529,0.03231286,-0.0349929,1.050889,-9.396406,0
172080673,4500,1.47,-4.28,-4.15,1.73,0.43,20.56,19.99,0.0117547,0.08884882,0.09460895,0.01751451,0.8268103,-9.90399,0
172295350,4497,1.3,-4.25,-4.1,2.23,0.76,20.52,20.98,-0.09355982,0.002966581,0.08805374,0.0421126,0.9862656,-9.666431,0
172409560,4409,1.31,-4.28,-3.98,2.67,1.08,20.49,21.3,-0.0706008199999999,0.1297582,0.05800921,-0.02608912,0.9888456,-9.963709,0
172520904,4301,1.11,-4.35,-3.71,3.04,1.39,20.46,21.41,0.004093259,0.0109283,-0.01367544,0.1464292,0.8417236,-9.706741,0
172627988,4185,1.21,-4.51,-3.84,3.15,1.74,20.45,21.35,0.06060104,0.04876292,0.005588944,0.04921217,1.061285,-9.984486,0
172729564,4186,1.35,-4.81,-4.04,3.1,2.01,20.46,21.07,0.0817423699999999,-0.08529716,-0.08935118,0.1352719,1.135734,-9.606945,0
172844913,4220,1.6,-5.09,-4.19,2.7,2.14,20.49,20.5,-0.01741227,0.01567643,-0.1064782,0.1652294,1.139565,-9.790483,0
172948089,4288,1.43,-5.17,-4.46,2.33,1.67,20.53,20.0,-0.03474171,-0.111084,-0.1011484,-0.09780898,0.893601,-9.791815,0
173053596,4388,1.35,-5.22,-4.66,2.07,1.39,20.55,19.5,-0.05077944,0.02001122,-0.08031061,0.1293708,0.8707017,-9.450315,0
173165619,4455,1.36,-5.53,-4.51,1.89,1.55,20.57,19.27,-0.03103468,0.05346737,0.04697043,0.1592897,0.9903593,-9.883238,0
173276502,4426,1.29,-5.85,-4.57,1.83,1.37,20.57,19.23,-0.01109008,-0.01929427,-0.003767727,0.06158212,1.043769,-10.02982,0
173382569,4414,1.14,-5.98,-5.12,1.77,0.98,20.58,19.34,0.01081353,-0.03632515,0.01575399,0.1729982,1.047521,-9.80947,0
173493358,4410,1.46,-5.97,-5.89,1.75,0.73,20.58,19.45,-0.2390274,-0.02392679,-0.01117958,-0.1077749,0.8676903,-9.676784,0
173594135,4375,1.64,-5.8,-6.39,1.52,0.8,20.6,19.28,-0.1129007,0.06788138,-0.0547253,-0.3196398,1.029777,-9.692996,0
173711705,4602,1.67,-5.42,-6.31,1.15,0.75,20.64,18.93,0.1348292,-0.09721904,-0.05641259,-0.1664222,1.027553,-9.733349,0
173818246,4641,1.71,-4.93,-6.03,0.94,0.57,20.66,18.63,0.02986014,0.1148301,-0.01210007,-0.09356501,0.8727415,-9.500586,0
173924165,4777,1.51,-4.54,-5.08,0.43,1.43,20.7,18.53,0.1235502,0.1509581,0.04864893,0.2340734,0.7271571,-9.861382,0
174034603,4666,1.39,-4.21,-4.33,-0.03,1.53,20.74,18.85,0.2442476,-0.04178961,0.0868389299999999,-0.2086805,0.9177712,-9.927958,0
174142503,4621,1.74,-4.04,-3.84,-0.54,0.65,20.77,19.27,0.06773235,-0.2011094,0.09689013,-0.09538078,0.9084786,-10.35778,0
174257322,4708,1.55,-4.14,-3.31,-1.21,-0.47,20.82,19.8,-0.001992216,-0.1571317,0.08019762,0.1769598,0.7233298,-10.50712,0
174465583,4767,1.42,-4.23,-4.33,-1.6,-1.38,20.85,20.83,-0.0851098899999999,-0.03588855,0.07842754,0.03964568,1.009761,-10.33851,0
174574302,4678,1.36,-4.23,-4.17,-1.51,-1.62,20.84,21.3,0.03855503,0.07286257,0.04016759,-0.1103508,1.202739,-10.32087,0
174680603,4606,1.67,-4.11,-4.02,-1.48,-1.32,20.84,21.55,-0.03598637,0.1098135,0.05352119,-0.172848,0.8383305,-10.03371,0
174787696,4535,1.87,-3.98,-4.62,-1.37,-0.61,20.83,21.72,-0.1863036,0.05153449,0.04765993,0.2301176,0.8303824,-9.905285,0
174898879,4654,1.59,-3.88,-4.97,-1.08,-0.95,20.81,22.12,-0.0340155,-0.07273796,0.05471151,-0.1336842,0.8476102,-9.86405,0
175007983,4764,1.68,-3.55,-5.07,-0.92,-1.01,20.8,22.46,0.07943933,0.0541094,0.04992513,-0.1035142,0.9030182,-9.727162,0
175116020,4683,1.72,-3.17,-4.78,-0.72,-0.92,20.79,22.79,0.08716606,-0.01741584,0.07190521,-0.1091519,0.8438923,-9.972889,0
175224885,4666,1.58,-2.71,-4.26,-0.29,-0.68,20.77,23.17,0.1404214,0.01920189,0.04617072,0.1638679,0.8186333,-10.06761,0
175438377,4620,1.15,-2.27,-3.42,0.0,1.65,20.76,23.43,0.04418455,0.3719531,0.01544714,-0.05956341,0.770569,-10.37947,0
175544135,4485,1.48,-2.24,-3.17,-0.54,2.36,20.78,23.06,0.1172933,-0.125973,-0.0758237799999999,0.3344112,1.056783,-9.533857,0
175652023,4502,1.67,-2.23,-2.92,-1.37,1.36,20.81,22.54,0.0724215,-0.143497,-0.08260998,-0.01539652,0.9359378,-9.745028,0
175756855,4545,1.61,-2.08,-3.1,-2.24,0.12,20.84,22.16,-0.0666548099999999,-0.1460517,-0.05428191,-0.1483971,0.8143272,-9.566053,0
175980160,4618,1.62,-1.66,-3.01,-3.31,-1.11,20.88,21.59,-0.02451376,-0.008130806,-0.02040562,-0.1709867,0.8277194,-9.666059,0
176103155,4790,1.45,-1.56,-2.69,-3.44,-1.55,20.88,21.47,0.04431847,-0.04850102,0.006212351,-0.1016008,0.7313864,-9.490635,0
176191671,4684,1.54,-1.54,-2.53,-3.45,-1.74,20.88,21.5,-0.05163235,-0.005469985,0.0001812214,-0.1461502,0.6023363,-9.828053,0
176295489,4667,1.34,-1.52,-2.27,-3.36,-2.05,20.88,21.54,-0.0324159,0.006654948,-0.007841715,-0.09849801,0.7034695,-9.88966,0
176418130,4531,1.04,-1.72,-1.66,-3.15,-2.52,20.88,21.65,0.09375767,0.005398283,0.00609497,-0.01827426,0.5130999,-9.716218,0
176517384,4440,1.37,-1.97,-1.98,-3.03,-2.43,20.87,21.69,-0.1213316,0.01118299,0.004712493,-0.1972784,0.8086104,-9.666749,0
176622373,4402,1.4,-2.32,-2.46,-2.76,-2.41,20.86,21.71,-0.1430456,0.08492845,0.01662375,-0.1732419,0.508518,-9.255111,0
176730904,4460,1.48,-2.5,-2.89,-2.49,-2.12,20.85,21.67,0.009770269,-0.01373726,-0.01929715,-0.2721051,0.9753013,-9.458091,0
176950904,4675,1.24,-2.78,-2.5,-1.63,-2.06,20.81,21.51,0.06149964,0.08483167,-0.03011347,-0.2685089,0.7179115,-9.428041,0
177059471,4451,1.24,-2.98,-2.35,-1.08,-2.23,20.78,21.34,0.01392993,-0.008253191,-0.04867497,-0.0295341,0.4768217,-9.438793,0
177164954,4344,1.52,-3.11,-2.78,-0.63,-1.68,20.76,21.15,-0.08665432,0.1174431,-0.05873219,-0.2739834,0.6467746,-9.75683,0
177280952,4455,1.62,-3.26,-3.42,-0.09,-1.01,20.73,20.69,-0.05639491,0.2052787,-0.06416442,-0.4269294,0.9977427,-9.541975,0
177485020,4572,1.62,-3.26,-4.1,0.21,0.19,20.71,19.83,-0.07920355,0.1271039,-0.07248735,-0.07820385,1.034908,-9.787232,0
177596958,4790,1.76,-3.17,-4.23,0.06,0.54,20.72,19.55,0.03661075,0.003398363,-0.03495859,-0.1461334,0.893592,-9.113456,0
177706810,4863,1.76,-3.13,-3.62,-0.07,0.69,20.73,19.52,0.09538149,-0.00202513,0.02167759,0.1112277,0.816663,-9.465729,0
177819747,4769,1.46,-2.97,-2.94,-0.18,0.37,20.73,19.76,0.001442507,-0.01845687,0.0704422,-0.3088608,0.6716638,-10.08305,0
177929876,4737,1.2,-2.89,-2.47,-0.17,-0.08,20.73,20.45,0.06510311,-0.1563158,0.1263757,-0.03217423,0.5558717,-10.12786,0
178138730,4531,1.12,-2.99,-2.61,0.71,-1.07,20.69,22.39,0.01975849,0.05589806,0.132409,0.0002941895,0.5714289,-9.640079,0
178244377,4271,1.71,-3.03,-3.21,1.16,-0.1,20.66,22.86,-0.0659989,0.1924677,0.04390836,-0.06088096,0.6879753,-9.577923,0
178354577,4311,1.34,-2.95,-3.99,1.48,1.02,20.65,22.82,-0.1385823,0.1107263,-0.009475242,0.01742638,0.804741,-9.679478,0
178463927,4468,1.58,-2.74,-4.19,1.42,1.78,20.65,22.53,-0.08458626,0.03973949,-0.04256887,0.2138043,0.7286248,-9.602942,0
178564305,4584,1.31,-2.52,-3.62,1.35,1.72,20.65,22.22,0.005007357,0.04952786,-0.07828686,-0.01834851,0.7128861,-10.08332,0
178669137,4556,1.56,-2.29,-2.97,1.02,1.56,20.67,21.78,0.08833127,-0.09756972,-0.05879002,-0.004200621,0.8051502,-9.603664,0
178782398,4544,1.41,-2.31,-2.52,0.79,1.27,20.67,21.42,0.07207283,-0.00518273,-0.05249844,-0.0968821099999999,0.7687391,-9.742613,0
178889595,4599,1.46,-2.56,-2.12,0.59,0.98,20.68,21.18,0.02808109,-0.002432862,-0.04235268,-0.055579,0.7124586,-9.818885,0
178998533,4592,1.4,-2.9,-1.99,0.42,0.73,20.69,21.01,-0.01191544,0.003526311,-0.01928773,0.0660041299999999,0.6741216,-9.593826,0
179111984,4678,1.34,-3.34,-2.27,0.34,0.33,20.7,20.93,0.02960704,-0.1137904,-0.01499843,-0.1562458,0.820382,-9.708105,0
179223950,4611,1.49,-3.75,-2.71,0.4,0.15,20.69,20.9,-0.1139348,0.01445304,0.01109892,-0.135922,0.6716938,-9.680379,0
179327781,4588,1.75,-3.92,-3.46,0.42,0.4,20.69,20.9,-0.1819512,0.1084469,0.0007150301,-0.0450084,0.9234456,-9.79671,0
179436525,4643,1.54,-4.01,-3.66,0.39,0.69,20.69,20.97,0.05647418,-0.01075625,0.01382208,0.1785505,0.9005104,-9.971992,0
179554621,4717,1.56,-4.02,-3.66,0.23,0.84,20.7,21.17,-0.03291951,0.04962138,0.04779167,-0.1257333,0.7088833,-9.629908,0
179663886,4617,1.42,-3.93,-3.52,0.0,0.83,20.72,21.43,0.0941285,-0.03507959,0.05789183,0.09861051,1.008949,-9.923597,0
179762498,4630,1.0,-4.04,-2.62,0.02,-0.15,20.72,21.84,0.1126565,-0.1838638,0.08244759,-0.1093467,0.4573832,-10.33656,0
179875557,4358,1.39,-3.94,-3.2,0.12,-0.87,20.71,22.27,-0.1646899,-0.09604076,0.03396451,0.3237709,0.6933832,-9.622835,0
179981324,4372,1.41,-3.95,-4.31,0.47,-1.03,20.69,22.52,-0.08417726,-0.06929296,0.05665882,0.04559973,0.8767179,-9.57306,0
180199724,4314,1.37,-3.75,-4.58,1.57,0.1,20.61,23.23,0.1562819,0.04863405,0.01667044,0.4042081,0.614064,-9.524352,0
180308590,4326,1.27,-3.53,-4.02,2.12,0.5,20.58,23.26,0.1334395,0.1215392,0.007881993,0.4036375,0.8477317,-9.653988,0
180414683,4226,1.37,-3.54,-3.42,2.51,0.91,20.55,23.05,-0.08585233,0.1421964,-0.02660326,0.3360483,0.6488478,-9.737263,0
180521486,4143,1.39,-3.65,-3.19,2.75,1.3,20.54,22.69,-0.1601024,0.1285591,-0.04667377,0.2081596,0.5499868,-9.902801,0
180629767,4207,1.49,-3.79,-3.52,2.89,1.57,20.53,22.32,-0.02908493,0.09961717,-0.06148552,-0.06795138,0.7350883,-9.524874,0
180740686,4362,1.36,-3.95,-3.74,2.83,1.98,20.53,22.02,0.02381309,-0.04385086,-0.05172351,0.3232766,0.9383789,-9.541558,0
180846883,4447,1.54,-3.93,-4.1,2.71,2.4,20.54,21.7,-0.01995777,0.112354,-0.06580484,0.1746742,1.107805,-9.893279,0
