TimeUS,RPM,Curr,DesRoll,Roll,DesPitch,Pitch,DesYaw,Yaw,GyrX,GyrY,GyrZ,AccX,AccY,AccZ,Guasto
0,3622,1.85,-0.19,1.3,-0.04,-0.52,13.14,13.28,0.185374,0.01781709,-0.03197199,-0.3147957,-0.04638274,-10.32272,0
104187,4160,2.46,-0.25,1.41,-0.21,-0.32,13.14,13.27,0.005569751,0.1441217,0.02466211,-0.2813144,-0.2409987,-10.08697,0
217248,4801,2.63,-0.4,1.69,-0.31,0.04,13.14,13.37,0.09284718,0.1399286,0.005437617,-0.6997744,0.2589849,-10.78984,0
332144,5263,2.98,-1.16,2.15,-0.54,0.31,13.14,14.01,-0.01428301,0.07795389,0.1496806,-0.5158939,0.3167255,-12.27239,0
430420,5453,2.14,-2.01,1.39,-0.87,0.41,13.15,15.17,-0.04861571,-0.02638164,0.2119193,-0.1520837,1.273365,-11.49957,0
543243,5369,1.88,-3.11,-0.01,-1.24,0.14,13.17,16.67,-0.257426,-0.03235104,0.2471146,-0.203329,0.4842367,-10.87372,0
649218,5132,1.49,-4.81,-1.21,-1.94,-0.26,13.22,18.1,-0.3195789,-0.1181658,0.2014376,-0.0801278,0.2244715,-10.02006,0
761177,4926,1.83,-6.67,-4.06,-2.66,-0.55,13.29,19.54,-0.3583803,-0.001660468,0.1798875,-0.3886758,1.091316,-10.00227,0
867074,4902,1.83,-8.07,-6.24,-3.24,-0.4,13.37,20.63,-0.2703219,-0.01737105,0.1638694,-0.4501667,1.138797,-9.709861,0
976975,4779,1.62,-8.94,-7.31,-3.69,-0.5,13.43,21.48,-0.1688196,-0.05084028,0.1177983,-0.1178833,0.450279,-10.11221,0
1082622,4700,1.52,-8.92,-7.44,-3.84,-1.25,13.43,22.14,0.08215322,-0.1540884,0.08827759,-0.2315436,0.9317158,-9.604213,0
1192083,4710,1.53,-8.33,-6.85,-4.13,-1.92,12.67,22.51,0.02829663,0.030575,0.01992076,-0.3478506,1.030798,-9.671002,0
1310621,4612,1.43,-7.4,-5.26,-4.41,-2.32,11.89,22.29,0.2032954,-0.005226583,-0.0822375999999999,-0.3079,0.7228773,-9.660243,0
1406334,4500,1.33,-6.85,-4.49,-4.44,-2.29,11.19,21.73,0.01330907,0.1115556,-0.1085044,-0.4272338,0.565495,-10.18459,0
1515220,4513,1.39,-6.64,-4.05,-4.36,-2.17,10.4,20.86,-0.007921983,0.04647121,-0.16987,-0.4675815,1.007069,-9.998773,0
1631844,4454,1.42,-6.64,-4.21,-4.57,-2.18,9.22,19.73,0.04056354,0.009177815,-0.1619196,-0.2124172,0.9122311,-9.772201,0
1738572,4422,1.23,-6.74,-4.71,-4.98,-2.18,8.08,18.39,-0.0390671,0.004487894,-0.2484669,-0.7135254,0.8215418,-9.677073,0
1844807,4357,1.47,-6.51,-5.49,-5.28,-2.2,6.59,16.72,-0.1860536,0.02991733,-0.2860515,-0.4644607,0.9084833,-9.575212,0
1955236,4357,1.35,-6.21,-6.06,-5.57,-2.21,5.11,14.69,-0.01879656,-0.04503638,-0.380622,-0.431427,1.204215,-9.208842,0
2071941,4421,1.65,-6.01,-6.07,-6.01,-2.73,3.86,12.21,-0.04682308,-0.0802502799999999,-0.3728769,-0.4771008,1.04738,-9.274093,0
2292941,4513,1.77,-4.72,-4.97,-6.96,-4.5,1.93,7.6,0.0594192,-0.05901853,-0.3428487,-0.8507803,0.7345342,-9.431639,0
2391815,4813,1.78,-4.02,-3.87,-7.02,-5.11,1.35,5.62,0.1131795,-0.0209819,-0.3305185,-0.7849284,0.7514457,-9.421766,0
2507153,4811,2.19,-3.54,-3.22,-6.93,-5.25,1.18,3.58,-0.04535967,0.0427885,-0.2667574,-0.5684294,0.6107187,-9.156997,0
2613972,4968,2.4,-3.14,-3.41,-6.61,-5.06,1.16,2.15,-0.08116453,0.03736976,-0.1923834,-0.4415514,0.4021425,-9.317902,0
2843323,5313,2.23,-2.42,-2.85,-5.89,-4.23,1.12,0.25,0.07821137,0.09288169,-0.05940127,-0.6166371,0.4850805,-9.611258,0
2948427,5307,2.14,-2.05,-2.89,-5.66,-3.39,1.12,0.1,-0.0088927799999999,0.1608431,-0.005331846,-0.6487668,0.5622361,-9.484786,0
3052374,5397,1.95,-1.8,-2.63,-5.49,-2.9,1.11,0.22,0.07797927,0.07396013,0.04246594,-0.5419737,0.5620899,-9.510823,0
3164440,5230,1.91,-1.69,-2.36,-5.42,-2.73,1.11,0.58,0.04582876,-0.02534513,0.08195639,-0.6254968,0.6218505,-9.540372,0
3276442,5285,2.01,-1.54,-2.34,-5.48,-2.75,1.11,1.26,0.02026363,-0.01310491,0.1002498,-0.473204,0.7873748,-9.225789,0
3377968,5284,1.75,-1.49,-2.25,-5.56,-2.57,1.11,1.96,-0.01890214,0.006491504,0.118538,-0.8609805,0.5461674,-10.03229,0
3491676,5254,1.65,-1.34,-2.22,-5.5,-2.55,1.11,2.85,0.03407764,-0.1169008,0.1403116,-0.5518854,0.5645245,-9.609031,0
3604010,5002,1.94,-1.15,-2.23,-5.44,-2.96,1.11,3.61,0.0663660799999999,-0.1233112,0.1040121,-0.4871725,0.7991706,-9.531717,0
3708452,5026,1.54,-1.06,-1.8,-5.3,-3.47,1.11,4.15,0.07604899,-0.07857799,0.09756146,-0.6931298,0.4862233,-9.438625,0
3817982,5014,1.5,-0.98,-1.4,-5.02,-3.79,1.1,4.69,0.05096615,-0.07503141,0.06935672,-0.5623029,0.5053064,-9.875886,0
3937421,5005,1.56,-1.02,-1.12,-4.49,-4.04,1.09,5.23,0.001349381,0.01613916,0.06547239,-0.8606315,0.3411564,-9.618423,0
4044364,4917,1.6,-1.12,-1.1,-3.87,-3.91,1.08,5.64,0.001007692,0.02013619,0.03995196,-0.2810092,0.5542045,-9.717769,0
4144372,4955,1.7,-1.25,-1.07,-3.37,-3.56,1.07,5.83,0.08476444,0.1271079,0.01361702,-0.7404867,0.5496066,-9.848778,0
4259352,4911,1.81,-1.27,-1.62,-3.01,-2.19,1.06,5.8,-0.1313027,0.1954154,-0.009414151,-0.5441587,0.5165869,-9.978632,0
4367920,4887,1.65,-1.23,-1.85,-2.78,-1.58,1.06,5.75,0.05748958,0.04016852,-0.008652118,-0.3339905,0.7568281,-9.911408,0
4472884,4925,1.71,-1.16,-1.95,-2.64,-1.72,1.05,5.72,0.0182516,-0.08284701,-0.003937714,-0.4024835,0.5010586,-9.836541,0
4585557,4887,1.58,-1.09,-1.61,-2.56,-2.08,1.05,5.64,0.0749534699999999,-0.068666,-0.004667772,-0.7724381,0.4435468,-9.836215,0
4689010,4924,1.61,-0.91,-1.53,-2.45,-2.22,1.05,5.5,0.08094993,-0.05452862,-0.03534322,-0.4863042,0.3679193,-9.589229,0
4796211,4857,1.85,-0.82,-1.49,-2.21,-2.19,1.05,5.28,0.05709577,-0.03775011,-0.04153636,-0.5819495,0.5940843,-9.906056,0
4915194,4917,1.44,-1.0,-0.91,-1.73,-2.55,1.04,4.94,0.1274029,-0.07419062,-0.03850524,-0.3806624,0.5870352,-9.624325,0
5018371,4826,1.56,-1.21,-0.55,-1.22,-2.61,1.03,4.58,-0.03144514,0.1079573,-0.03123648,-0.4942793,0.3980253,-9.950131,0
5237388,4809,2.35,-1.99,-0.53,0.33,-1.96,5.83,4.77,-0.0622559,0.1095443,0.1529672,-0.4458979,0.638169,-9.661685,0
5347176,5128,3.22,-2.07,-1.36,1.09,-1.3,10.97,6.75,-0.1600957,0.07465336,0.4392181,-0.3817907,0.5555286,-9.681458,0
5453412,5572,2.3,-2.1,-1.99,1.82,-0.79,13.36,9.99,-0.05388625,0.0715770399999999,0.5721159,-0.1967031,0.5083001,-9.711991,0
5559588,5686,1.46,-2.2,-2.04,2.24,-0.04,13.52,13.28,0.00106929,0.0940878899999999,0.5240695,-0.2476893,0.412237,-10.09025,0
5663978,5257,1.18,-2.31,-1.89,2.7,0.04,13.5,16.0,-0.03970863,-0.02393913,0.4066822,-0.2161615,0.3964351,-9.862457,0
5773459,4934,1.31,-2.49,-1.78,3.06,-0.06,13.49,17.98,-0.03566079,-0.008547004,0.3172788,0.01578932,0.5858816,-9.928655,0
5885205,4758,1.1,-2.77,-1.71,3.53,0.04,13.47,19.52,0.1588392,-0.01947732,0.1682165,0.05251708,0.4620595,-9.918362,0
6108134,4581,1.47,-3.14,-2.05,4.52,0.74,13.62,20.62,-0.07390734,0.0379335,0.00255273,-0.2480678,0.6419566,-10.33793,0
6216047,4516,1.58,-3.28,-2.23,4.95,1.04,13.6,20.4,-0.06694855,0.01602058,-0.05609653,-0.05799356,0.4912271,-10.16934,0
6330067,4560,1.3,-3.33,-2.25,5.25,1.44,13.58,19.95,0.03337148,0.1160367,-0.08371098,-0.1216712,0.664542,-10.05013,0
6433333,4604,1.66,-3.32,-2.23,5.49,2.07,13.57,19.37,0.002002514,0.1502708,-0.09905663,0.06869588,0.4913891,-9.809976,0
6534966,4640,1.54,-3.4,-1.94,5.74,2.32,13.55,18.89,0.03086701,0.09269445,-0.03826122,-0.1024341,0.3761233,-10.0278,0
6642393,4618,1.55,-3.4,-2.17,5.81,2.85,13.55,18.58,-0.04326242,0.09949933,-0.06641149,0.0752164,0.5977635,-9.774817,0
6750777,4701,1.73,-3.43,-2.26,5.84,3.12,13.85,18.17,0.05281855,0.04531219,-0.06327816,0.1428544,0.512859,-9.585091,0
6860339,4747,1.89,-3.32,-2.59,5.68,3.46,14.89,18.0,-0.05895932,-0.02230943,0.001654967,-0.05531646,0.6348944,-9.941134,0
6966808,4813,1.58,-3.38,-2.68,5.34,3.43,14.91,17.98,-0.020583,-0.01407826,-0.0265687,0.03115431,0.6366441,-9.683685,0
7087488,4777,1.61,-3.45,-2.75,4.91,2.99,14.94,17.95,0.01132523,-0.06407092,-0.006229171,0.01018411,0.7798924,-10.05102,0
7193370,4829,1.55,-3.61,-2.38,4.63,2.32,14.95,18.0,0.001720035,-0.1047892,0.007105536,0.06798495,0.5440899,-9.745391,0
7299183,4701,1.47,-3.75,-2.37,4.38,2.1,14.97,18.04,-0.003899906,-0.04297139,-0.004989218,0.01614189,0.4719484,-9.614833,0
7408396,4719,1.71,-3.93,-2.9,4.23,2.29,14.98,17.98,-0.1929961,0.08955112,-0.007220135,-0.02005536,0.6543149,-9.802533,0
7519812,4789,1.63,-4.14,-3.59,3.99,2.9,15.0,17.98,-0.06521056,0.1150592,0.008937698,0.2541595,0.7901839,-9.898644,0
7626079,4705,1.75,-3.88,-3.63,-1.21,1.63,15.37,18.16,-0.02076034,-0.813332,0.01943089,1.460387,0.7455076,-9.651139,0
7745402,4764,1.64,-3.46,-3.16,-8.85,-8.73,15.85,18.83,0.06834448,-1.484442,0.01408732,-0.3427376,0.644715,-9.707745,0
7840077,4856,1.77,-3.24,-3.11,-13.08,-15.12,16.1,19.44,0.08756779,-0.9250506,0.04256489,-0.4737737,0.5478305,-10.34224,0
7950153,4841,1.4,-3.23,-3.11,-15.02,-18.77,16.21,20.29,0.04717318,-0.3249401,0.0934867,-0.288754,0.6858245,-10.57288,0
8066360,4800,1.78,-3.42,-3.51,-12.48,-16.61,16.06,20.99,-0.05559769,0.7041697,0.1281873,-0.1774835,0.7539071,-10.22256,0
8168589,4794,1.3,-3.62,-3.56,-5.4,-9.72,15.61,21.07,-0.01200877,1.765002,0.1083836,-0.7280343,0.6277943,-9.94944,0
8282556,4670,1.32,-2.89,-2.52,0.36,0.37,20.48,26.0,-0.09661267,1.18499,0.04295451,0.307986,0.4415658,-9.817027,0
8385363,4529,1.44,-3.09,-3.22,2.94,5.42,20.35,25.91,-0.06106684,0.5097365,0.005201234,0.2474812,0.61603,-9.760774,0
8492021,4575,1.52,-2.84,-3.54,2.99,6.5,20.34,25.73,0.03971441,-0.1202872,-0.02755184,0.3265435,0.7752476,-9.732424,0
8607082,4649,1.5,-2.3,-2.95,1.88,4.8,20.39,25.17,0.1553811,-0.318468,-0.0702937399999999,-0.02305311,0.6468168,-9.845692,0
8717197,4586,1.64,-1.81,-2.29,0.65,2.58,20.44,24.63,0.0968842699999999,-0.3078352,-0.09538563,-0.3107359,0.6202228,-10.03049,0
8811950,4714,1.57,-1.54,-1.9,0.11,1.25,20.45,24.11,0.15504,-0.1476243,-0.05476992,-0.1686841,0.6356454,-9.70267,0
9142472,4767,1.24,-1.15,-0.9,0.37,1.28,20.45,24.24,0.09011884,0.0270438,0.0930393,0.1110282,0.5577825,-9.672377,0
9251086,4567,1.32,-1.35,-0.78,1.77,2.08,20.42,24.8,-0.1817156,0.2514895,0.108783,-0.1042147,0.591858,-10.09028,0
9360386,4500,1.38,-1.62,-1.24,3.89,4.07,20.36,25.09,-0.0705142,0.3111334,0.02274117,-0.1601441,0.4853422,-9.867955,0
9474959,4506,1.4,-2.04,-1.8,5.03,5.76,20.33,24.93,-0.1353594,0.172885,-0.01158273,0.1065969,0.363609,-9.598269,0
9573214,4574,1.62,-2.23,-2.57,5.09,6.18,20.32,24.76,-0.05499843,-0.005855116,-0.02033298,-0.1142989,0.7619467,-9.753674,0
9800539,4740,1.64,-2.36,-3.16,3.16,4.04,20.41,24.75,-0.02820376,-0.1734255,0.009919861,-0.1159152,0.4242571,-10.00904,0
9914562,4717,1.51,-2.12,-2.89,2.47,2.9,20.43,24.74,-0.0098496279999999,-0.0985376,-0.002710077,-0.06103083,0.384406,-9.985352,0
10014020,4765,1.48,-2.13,-2.45,2.2,1.95,20.44,24.4,0.01755037,-0.1526556,0.01415333,0.01911946,0.5215783,-10.00731,0
10135056,4639,1.64,-2.43,-2.2,2.22,1.17,20.44,24.07,0.06105493,-0.08617008,-0.02805009,0.09845176,0.4907367,-9.628637,0
10238767,4619,1.68,-2.7,-2.46,2.5,1.05,20.43,23.54,-0.1118554,0.05884895,-0.07476792,-0.01895615,0.4010182,-10.42305,0
10345545,4699,1.57,-2.91,-2.68,2.8,1.14,20.41,22.95,-0.02782841,0.07117563,-0.0960529299999999,-0.01960835,0.5670502,-10.06794,0
10461569,4659,1.57,-3.31,-2.68,3.05,1.59,20.4,22.17,0.06304351,0.09925812,-0.08194103,-0.1215605,0.5115097,-9.716015,0
10567424,4685,1.8,-3.56,-3.12,3.02,2.14,20.4,21.52,-0.08560154,0.07322728,-0.09422405,0.01405901,0.9060531,-10.03628,0
10677632,4690,1.44,-3.82,-3.27,2.83,2.24,20.42,20.97,-0.000556377,-0.0558912,-0.0840868699999999,0.1843943,0.6831473,-9.423928,0
10781043,4813,1.65,-4.04,-3.16,2.64,1.92,20.43,20.64,-0.03021029,-0.03583493,-0.04173816,-0.007005824,0.6117371,-9.883332,0
10898983,4786,1.58,-4.23,-3.11,2.39,1.61,20.45,20.27,0.02609245,-0.04634189,-0.05443759,-0.06247602,0.780396,-9.995168,0
11001782,4795,1.52,-4.5,-3.07,2.2,1.63,20.46,20.2,0.01102899,0.0540386,-0.0001491462,0.01411147,0.6584827,-9.723161,0
11108822,4701,1.68,-4.79,-3.55,1.99,1.87,20.48,20.4,-0.0837277,-0.03031239,0.03421343,0.2518771,0.749332,-9.625662,0
11219615,4729,1.65,-5.11,-4.05,1.9,1.44,20.49,20.85,-0.1387575,-0.1153236,0.07922205,0.1199224,0.7393416,-9.477926,0
11343609,4793,1.47,-5.39,-4.33,1.79,1.32,20.5,21.42,-0.03567232,0.006789268,0.0695646199999999,0.1009209,0.8115606,-9.567894,0
11442602,4714,1.36,-5.49,-4.14,1.79,1.21,20.5,21.83,0.06842371,-0.04422926,0.07154039,0.2607476,0.7420547,-9.792732,0
11549788,4600,1.47,-5.43,-4.06,1.77,1.25,20.5,22.27,-0.02290037,0.05385447,0.07197776,-0.04865379,0.7968516,-9.901629,0
11660575,4607,1.26,-5.38,-4.05,1.72,1.39,20.5,22.73,0.01488343,-0.0003525193,0.0733904799999999,0.04895376,0.5560223,-9.855998,0
11769217,4549,1.57,-5.22,-4.46,1.62,1.24,20.51,22.88,-0.0477613,-0.05591123,-0.01638934,-0.02804506,0.6309251,-9.591305,0
11873419,4617,1.98,-4.97,-4.99,1.49,0.99,20.52,22.72,-0.1708861,0.03986986,-0.03372505,-0.1140272,0.5140756,-9.776155,0
11986856,4820,1.57,-4.54,-5.21,1.12,1.1,20.55,22.39,0.05856129,0.08340196,-0.04381424,-0.4948866,0.7645921,-9.711314,0
12099444,4871,1.55,-4.13,-4.42,0.53,1.37,20.6,22.08,0.1926072,-0.003488434,-0.01966884,-0.03216372,0.6458809,-9.884798,0
12195349,4776,1.51,-3.89,-3.42,-0.05,1.48,20.64,22.05,0.1065604,-0.008355325,0.03604946,-0.2349414,0.5590488,-9.777274,0
12304160,4688,1.56,-3.71,-2.87,-0.77,1.1,20.69,22.22,0.03050992,-0.08341301,0.01997707,-0.0550847,0.6798026,-9.624992,0
12419379,4715,1.21,-3.83,-2.5,-1.46,0.52,20.73,22.64,0.02214135,-0.149818,0.05585618,-0.1885505,0.6773005,-10.0043,0
12532814,4621,1.45,-3.96,-2.78,-2.1,0.0,20.78,23.27,0.00410204,-0.03980657,0.05940683,0.06523994,0.8187883,-9.83019,0
12636022,4583,1.38,-4.09,-3.57,-2.59,-0.58,20.81,23.74,-0.1746949,-0.1379042,0.06173413,-0.2436811,0.6079695,-9.976716,0
12743311,4574,1.57,-4.11,-4.06,-2.95,-1.54,20.84,24.05,0.05272919,-0.1602718,0.01687851,-0.4245102,0.7893103,-9.577552,0
12845892,4600,1.26,-4.12,-3.77,-3.24,-2.07,20.86,24.09,-0.02037139,-0.1016078,-0.01141505,-0.3593856,0.7213023,-9.95364,0
12953999,4486,1.52,-3.92,-3.38,-3.39,-2.39,20.87,23.98,-0.03324726,-0.0923615899999999,-0.04396232,0.03398703,0.7411214,-10.16676,0
13066652,4514,1.36,-3.9,-3.29,-3.22,-2.75,20.86,23.89,-0.01316433,0.00302477,-0.01076152,-0.3614171,0.9511547,-9.926314,0
13174950,4503,1.28,-3.99,-3.27,-3.01,-2.76,20.84,23.77,-0.04431376,0.01487733,0.00159933,-0.1681484,0.8685527,-10.0592,0
13286228,4436,1.42,-4.16,-3.43,-2.72,-2.52,20.82,23.52,-0.06900837,0.05201978,-0.02439974,-0.03501511,0.9211139,-10.05354,0
13379172,4612,1.38,-4.39,-3.52,-2.35,-2.37,20.79,23.39,-0.03435954,0.06816145,-0.01076971,-0.3529501,0.9760334,-9.889157,0
13498449,4539,1.61,-4.66,-3.86,-2.09,-1.64,20.77,23.19,-0.003435828,0.04516784,-0.06466772,-0.02755194,0.8944173,-9.700885,0
13606840,4631,1.3,-4.91,-3.99,-1.85,-1.28,20.75,22.81,0.01390458,0.02659424,-0.01323006,-0.210113,0.8888893,-9.88324,0
13718185,4532,1.31,-5.11,-3.84,-1.53,-1.24,20.73,22.59,-0.03039266,0.00955788,0.004111126,-0.05360788,0.9571183,-9.823142,0
13826180,4578,1.33,-5.29,-3.78,-1.18,-1.31,20.69,22.48,-0.003841219,0.01108245,0.03932572,0.2714942,1.236723,-10.03858,0
13939216,4486,1.28,-5.55,-3.77,-0.73,-1.2,20.65,22.59,-0.006754761,0.01890781,0.03675487,0.2041394,1.252283,-10.11053,0
14036058,4370,0.93,-5.99,-4.01,-0.07,-1.31,20.58,23.0,-0.0357365,0.05384891,0.1275593,-0.4657024,0.9539783,-10.17738,0
14148985,4146,1.23,-6.4,-4.55,0.59,-0.92,20.51,23.32,-0.0720135799999999,0.03073857,0.04046572,0.1163908,1.025255,-9.617907,0
14258321,4180,1.27,-6.64,-5.12,1.09,0.08,20.45,23.18,0.02057859,0.2131836,0.003998671,0.3709628,1.182479,-9.931859,0
14363929,4124,1.09,-6.9,-5.11,1.28,1.04,20.43,22.93,-0.08813002,0.04786216,-0.01516884,0.1937519,1.1155,-9.907434,0
14478587,3949,1.53,-7.07,-5.16,1.17,1.59,20.45,22.64,0.1761964,0.05845626,-0.03789905,0.3604019,1.417544,-9.749225,0
14583213,3993,1.85,-7.35,-5.31,1.01,1.43,20.47,22.41,-0.06047415,-0.1301096,-0.02487903,0.008257591,0.9460802,-9.751311,0
14690147,3957,1.41,-7.51,-6.02,0.73,1.39,20.5,22.26,0.06737389,0.04244922,0.003159865,0.2899194,1.392621,-10.00495,0
14791030,4131,1.89,-7.72,-6.6,0.62,1.17,20.52,22.17,-0.2330001,-0.1601583,-0.007154672,0.5126452,1.198681,-9.73732,0
14901607,4199,1.22,-7.77,-6.73,0.57,1.07,20.52,22.06,0.0326862,0.04650902,0.0405402,-0.1467337,1.200409,-9.452485,0
15014678,4199,1.36,-7.74,-7.1,0.38,1.5,20.55,22.13,-0.03319254,0.06534961,0.006957279,-0.212338,1.171652,-9.776883,0
15115077,4317,1.41,-7.7,-7.21,-0.01,1.93,20.6,22.27,-0.03878265,0.07017552,0.006259335,0.08594536,1.389642,-9.697087,0
15224997,4390,1.39,-7.51,-7.36,-0.58,1.64,20.68,22.4,0.02419498,-0.103619,0.0375371,-0.04707862,1.062441,-9.696446,0
15331446,4435,1.24,-7.25,-7.1,-1.08,0.73,20.75,22.58,0.03650673,-0.1493434,0.0092944829999999,-0.4788678,1.115826,-9.834212,0
15449473,4393,1.32,-6.96,-6.96,-1.31,0.04,20.77,22.89,-0.02900678,0.02479952,0.02484392,-0.3369427,1.003719,-10.02716,0
15546743,4459,1.54,-6.75,-7.33,-1.37,-0.03,20.78,23.11,-0.1153461,0.03675096,0.02249382,-0.1853148,0.9274447,-9.681231,0
15652634,4488,1.42,-6.48,-7.16,-1.38,-0.27,20.78,23.3,0.1583983,-0.07686687,0.0410602,-0.1798209,0.9031675,-9.680213,0
15769948,4557,1.43,-6.08,-6.52,-1.58,-0.19,20.8,23.45,0.1224756,0.0924576399999999,0.02843693,-0.4307363,1.229818,-9.980563,0
15872951,4466,1.38,-5.84,-6.01,-1.74,-0.34,20.82,23.49,0.0724150499999999,-0.03357771,0.01496372,-0.3353007,1.375558,-10.06285,0
15977196,4400,1.49,-5.82,-5.87,-1.86,-0.64,20.83,23.39,-0.005799119,0.002466209,-0.02749675,0.3289274,1.190279,-9.420185,0
16101148,4426,1.52,-5.91,-5.97,-1.95,-1.04,20.84,23.18,-0.03745745,-0.06028169,-0.02186069,-0.1873766,1.342038,-9.938361,0
16200985,4526,1.59,-6.06,-5.96,-1.84,-1.61,20.83,22.83,-0.03005374,-0.06052819,-0.0712255599999999,-0.3867263,1.197647,-9.926321,0
16319608,4460,1.68,-6.0,-6.27,-1.73,-1.67,20.82,22.0,-0.1346514,0.05868137,-0.1290416,-0.3634221,1.005453,-9.742261,0
16419937,4620,1.8,-5.97,-6.54,-1.71,-1.22,20.82,21.47,-0.03347949,0.06902181,-0.1109978,-0.2302799,1.037016,-9.570782,0
16530427,4724,2.26,-5.81,-6.92,-1.71,-0.63,20.82,21.01,-0.03350395,0.1434939,-0.04899529,-0.3889335,1.461695,-9.447021,0
16642950,4919,2.08,-5.53,-6.61,-1.96,-0.4,20.84,20.55,0.1261753,-0.03256452,-0.05059773,-0.309933,1.303672,-9.654626,0
16743992,4977,1.8,-5.15,-6.01,-2.29,-0.85,20.87,20.41,0.1404809,-0.1241044,-0.009226671,0.1210484,1.353616,-9.238073,0
16853603,5027,1.61,-4.82,-5.1,-2.58,-1.19,20.9,20.9,0.1122188,0.03220344,0.1252858,-0.4184309,1.112261,-9.98789,0
16960152,4853,1.49,-4.61,-4.79,-2.77,-1.14,20.91,21.63,0.04192897,-0.02136918,0.1456149,-0.1309927,0.9139878,-9.974759,0
17290997,4774,1.21,-4.46,-4.63,-2.55,-0.99,20.9,24.23,-0.1425515,-0.05759283,0.0899349,-0.3024735,0.9885996,-10.14682,0
17395221,4330,1.85,-4.36,-5.29,-2.52,-1.21,20.89,24.7,-0.2522106,-0.09304704,0.02613247,0.03846212,1.006907,-9.042971,0
17609988,4503,1.66,-4.19,-5.26,-2.68,-1.49,20.91,24.5,0.117043,0.0189091,-0.02558777,-0.1710717,1.158886,-9.591508,0
17726617,4762,1.32,-4.04,-4.16,-2.62,-1.84,20.9,24.35,0.2181337,-0.1170361,0.01401721,-0.1542212,1.085228,-9.897657,0
17837946,4512,1.02,-3.98,-3.42,-2.28,-2.39,20.88,24.52,0.04998169,-0.126098,0.01689208,-0.09364124,0.8253766,-10.5106,0
17937053,4371,1.52,-3.96,-3.59,-1.88,-2.56,20.85,24.53,-0.0631417,0.1000455,-0.03972887,-0.7494339,0.9750734,-9.545178,0
18056006,4403,1.51,-4.1,-4.01,-1.67,-1.73,20.84,23.98,0.03205927,0.01130841,-0.1202588,-0.1240686,1.020923,-9.655324,0
18160167,4437,1.32,-4.4,-4.11,-1.47,-1.05,20.82,23.53,-0.1023403,-0.006631121,-0.03178757,-0.1632418,1.075808,-9.692956,0
18273408,4353,1.63,-4.5,-4.57,-1.3,-0.85,20.81,23.26,-0.08501353,-0.0753643299999999,-0.004777391,-0.04168454,1.035159,-9.238019,0
18377994,4513,1.47,-4.64,-4.66,-1.03,-1.13,20.79,23.11,-0.02498843,-0.042499,-0.05972613,-0.2402853,0.8479394,-9.432402,0
18494179,4494,1.58,-4.48,-4.66,-1.06,-0.63,20.79,22.74,-0.02791242,0.1387863,-0.03425605,-0.1517609,1.094399,-9.681278,0
18600787,4591,1.69,-4.36,-4.81,-1.13,-0.08,20.79,22.49,-0.1501236,0.1290968,-0.007789514,-0.5157425,1.023175,-9.670063,0
18709751,4697,1.68,-4.38,-4.9,-1.31,-0.08,20.81,22.29,-0.04840046,0.006484664,-0.01749516,-0.5489033,0.8929997,-9.523758,0
18813061,4670,1.57,-4.48,-4.82,-1.54,-0.5,20.82,22.08,-0.0005508788,-0.08866469,-0.03063988,-0.9878528,0.9166023,-10.06001,0
18924569,4641,1.47,-4.58,-5.01,-2.0,-0.51,20.86,21.9,-0.03413704,-0.07275703,-0.01237193,-0.4663028,0.9869877,-10.06633,0
19036028,4634,1.46,-4.71,-4.96,-2.12,-1.09,20.87,21.88,0.01206656,-0.0949060199999999,0.03737417,-0.3540069,1.270631,-9.995477,0
19145223,4695,1.52,-4.81,-5.22,-2.2,-1.36,20.88,21.82,-0.0406097,-0.06339749,-0.06557009,-0.1054883,0.9658592,-9.409244,0
19251764,4643,1.49,-4.91,-5.33,-2.24,-1.45,20.88,21.77,0.1999777,-0.0769875399999999,-0.01313825,-0.04560668,1.205427,-9.431025,0
19354203,4669,1.59,-5.03,-5.18,-2.1,-1.74,20.87,21.86,-0.00717407,-0.0126082,0.01718418,-0.22208,1.30873,-9.710759,0
19470480,4586,1.56,-5.11,-5.25,-1.92,-1.84,20.85,21.97,-0.1102551,-0.02857666,0.0189629,-0.4279649,1.099818,-9.482254,0
19574327,4604,1.44,-5.21,-5.21,-1.74,-1.87,20.84,21.98,-0.03862039,0.03647012,0.01383658,-0.592389,1.154946,-10.21041,0
19681557,4666,1.38,-5.31,-5.06,-1.52,-1.89,20.82,22.0,-0.05790227,-0.03312362,-0.001166907,-0.2070452,1.230812,-9.884666,0
19789085,4572,1.63,-5.37,-5.17,-1.31,-1.86,20.8,21.84,0.05658612,0.0705505,-0.05996941,-0.4195494,1.300065,-9.449865,0
19908811,4626,1.62,-5.66,-5.19,-1.16,-1.58,20.78,21.6,0.02771336,-0.02366125,-0.04772175,-0.3268958,1.298673,-10.0041,0
20010392,4614,1.34,-5.99,-5.39,-0.98,-1.24,20.76,21.38,-0.0354546,0.07059724,-0.0440643,-0.5827556,1.14212,-9.736274,0
20229072,4613,1.67,-6.84,-6.15,-0.84,-0.93,20.75,20.83,-0.0686041399999999,0.02485738,-0.0553887,-0.0994198699999999,1.520144,-9.730832,0
20338578,4581,1.53,-7.22,-6.72,-0.8,-0.78,20.74,20.55,-0.07253618,0.06142983,-0.03360856,-0.4583389,1.368126,-9.740728,0
20446554,4734,1.64,-7.52,-6.82,-0.8,-0.82,20.74,20.25,-0.02778355,0.01848245,-0.03376539,-0.2840343,1.028045,-9.458938,0
20557002,4567,1.72,-7.61,-7.41,-0.87,-0.67,20.75,20.14,-0.09658232,0.04475932,-0.03124012,-0.531556,1.25847,-9.637798,0
20668420,4706,1.67,-7.71,-7.44,-0.98,-0.56,20.77,20.08,0.03468106,0.01585322,0.009284956,-0.1348124,1.512015,-9.585433,0
20778428,4771,1.84,-7.66,-7.43,-1.15,-0.2,20.79,20.09,-0.02491292,-0.002859593,0.02018674,-0.03232037,1.197,-10.21069,0
20879141,4769,1.61,-7.52,-7.22,-1.21,-0.35,20.8,20.25,0.1360249,-0.04241652,0.04749836,-0.471187,0.9933686,-9.967949,0
20985974,4742,1.6,-7.35,-6.87,-1.29,-0.63,20.81,20.6,0.1019651,-0.08047558,0.05025309,-0.4033457,1.064394,-9.899958,0
21094224,4785,1.6,-7.15,-6.81,-1.29,-0.78,20.81,20.99,-0.04479911,-0.007245989,0.05365428,-0.3592288,1.105255,-10.3884,0
21307747,4797,1.77,-6.71,-6.62,-1.16,-1.24,20.79,21.93,0.05242784,0.02309795,0.0775375299999999,-0.156176,1.207093,-9.924823,0
21420060,4653,1.48,-6.47,-6.4,-1.05,-1.31,20.78,22.44,0.1097227,0.02949086,0.1111732,-0.4050741,1.349547,-9.970152,0
21523995,4606,1.39,-6.33,-6.18,-0.92,-1.08,20.77,22.84,-0.1230191,0.06267742,0.08519537,-0.3053803,0.9944795,-9.863204,0
21741444,4430,1.19,-5.9,-6.12,-0.6,-0.89,20.73,23.68,0.09813756,-0.09216994,0.00976391,0.1489839,1.133213,-9.825489,0
21854393,4478,1.38,-5.68,-5.98,-0.53,-1.07,20.72,23.79,-0.05058245,-0.02353781,0.009253312,-0.2212655,1.1137,-9.797637,0
21955957,4414,1.48,-5.47,-5.8,-0.49,-0.99,20.72,23.76,-0.04120915,0.05756983,0.005975934,-0.08022767,0.9779961,-9.692764,0
22062843,4414,1.4,-5.28,-5.75,-0.39,-0.68,20.71,23.62,0.04786959,0.1080478,-0.01075195,-0.3063858,1.069786,-9.766506,0
22178636,4443,1.38,-5.18,-5.51,-0.33,-0.5,20.71,23.32,0.01447917,0.03943589,-0.04562122,-0.0002347824,1.005182,-9.678781,0
22286378,4457,1.33,-5.13,-5.16,-0.45,-0.36,20.72,22.93,0.119937,0.002248774,-0.05098194,-0.202797,1.136754,-9.649747,0
22391856,4469,1.45,-5.12,-5.04,-0.56,-0.65,20.73,22.57,0.0541322,-0.01405407,-0.04886604,-0.6653372,1.199582,-9.638545,0
22501238,4465,1.84,-5.19,-5.26,-0.69,-0.69,20.74,22.1,-0.1048376,0.0936633999999999,-0.06384776,-0.3132513,1.121514,-9.491004,0
22612081,4571,1.67,-5.26,-5.39,-0.69,-1.01,20.74,21.66,0.03770082,-0.06679738,-0.08849467,-0.4816616,1.098128,-9.624193,0
22724601,4715,1.61,-5.26,-5.01,-0.65,-1.14,20.74,21.44,0.116088,-0.02669621,-0.0340983,0.1522397,0.9473388,-9.488059,0
22824695,4627,1.32,-5.12,-4.86,-0.5,-1.0,20.72,21.38,-0.1109096,0.05696089,0.004853553,-0.4013334,1.020211,-10.30214,0
22933347,4609,1.41,-5.05,-5.09,-0.33,-0.72,20.71,21.3,-0.1116031,0.06289934,-0.04416357,-0.2024543,1.180766,-9.76959,0
23046783,4538,1.69,-4.99,-5.27,-0.12,-0.75,20.69,21.12,0.04612346,-0.07134347,-0.07389359,-0.03450415,0.9644615,-9.403689,0
23146531,4643,1.59,-4.91,-5.44,-0.12,-0.49,20.69,21.0,0.0837512,0.1613755,0.004082692,-0.6503197,1.312724,-9.733565,0
23370892,4713,1.5,-4.66,-5.08,-0.55,0.16,20.72,21.26,-0.0118211,0.03174176,0.03673879,-0.075973,0.9401468,-10.1559,0
23481045,4694,1.31,-4.62,-4.63,-0.6,-0.86,20.73,21.61,0.06605382,-0.2052877,0.01826005,0.01548216,0.9391621,-10.12841,0
23598026,4573,1.4,-4.64,-4.78,-0.61,-1.3,20.73,21.82,0.07416834,0.05188343,0.03439967,-0.4658996,1.123982,-9.58837,0
23704442,4467,1.55,-4.79,-4.85,-0.55,-1.11,20.72,21.89,-0.02472327,0.003953415,0.01458011,-0.4156149,1.123461,-9.869445,0
23804351,4568,1.46,-4.9,-4.8,-0.49,-0.75,20.72,21.82,-5.419651e-05,0.06489497,-0.007467422,-0.06991302,0.7973804,-9.388516,0
23914351,4517,1.52,-4.92,-5.03,-0.58,-0.47,20.73,21.72,-0.07291292,0.07099484,-0.01860205,-0.5998259,1.212745,-9.78978,0
24019224,4572,1.67,-5.0,-5.1,-0.66,-0.68,20.73,21.67,-0.01860024,0.02738461,0.03290899,-0.5697805,1.026644,-9.715084,0
24127936,4597,1.68,-5.04,-5.2,-0.79,-0.83,20.74,21.57,-0.0331955,-0.03298953,0.00831453,-0.3753486,1.020558,-9.955815,0
24239397,4523,1.8,-5.01,-5.45,-0.91,-0.86,20.75,21.44,-0.01492928,-0.05187457,-0.0281531,-0.1047849,0.8850569,-9.36669,0
24342038,4716,2.03,-4.95,-5.57,-1.09,-0.65,20.77,21.42,-0.1295653,0.09756624,0.02528843,-0.3666574,1.063708,-9.583659,0
24461753,4853,1.5,-4.75,-5.28,-1.26,-0.61,20.79,21.77,0.1091195,-0.05248729,0.0858957199999999,-0.470611,0.9447747,-10.26775,0
24565538,4799,1.36,-4.59,-4.94,-1.38,-0.78,20.79,22.38,0.09488808,-0.05635811,0.1103171,-0.08308449,0.785916,-9.878016,0
24682045,4606,1.22,-4.39,-4.53,-1.41,-1.01,20.8,23.19,0.07951852,-0.05574641,0.1169411,0.02993857,0.9022312,-9.875507,0
24782987,4520,1.03,-4.3,-4.0,-1.3,-1.34,20.79,23.84,0.06288908,-0.06103351,0.1010955,-0.2381555,0.8542023,-9.954665,0
24896386,4399,1.11,-4.21,-4.01,-1.09,-1.35,20.77,24.38,-0.02187172,0.07828074,0.07920388,-0.1293017,0.7503245,-9.944032,0
25003836,4251,0.97,-4.27,-4.05,-0.77,-1.6,20.75,24.73,-0.05561647,-0.05254417,0.02884421,-0.2282663,0.7460008,-9.761931,0
25114737,4177,1.32,-4.31,-4.42,-0.57,-1.58,20.73,24.83,-0.003051059,-0.1297858,-0.02207359,-0.3315938,1.192267,-9.330532,0
25228057,4245,1.42,-4.36,-4.92,-0.42,-1.14,20.72,24.6,-0.02159229,0.1033979,-0.03495605,-0.3052791,0.9366283,-9.786868,0
25323932,4272,1.41,-4.27,-4.76,-0.38,-0.58,20.72,24.28,0.01529089,0.08423708,-0.03995947,-0.196401,0.660942,-9.522529,0
25448411,4394,1.38,-3.99,-4.4,-0.28,-0.15,20.71,23.79,0.04023382,-0.05590276,-0.07485718,-0.3075855,0.7958693,-9.491764,0
25550345,4457,1.45,-3.74,-4.32,-0.34,0.01,20.72,23.45,-0.09276426,0.0765456,-0.03913124,-0.3417518,0.9263613,-9.78955,0
25659457,4459,1.21,-3.47,-4.04,-0.48,-0.05,20.73,23.32,0.06747849,0.02644433,0.004414195,-0.2436253,0.7076423,-10.06875,0
25774188,4478,1.17,-3.25,-3.64,-0.58,-0.54,20.73,23.43,-0.002800284,-0.1250004,0.02868073,-0.2960617,0.4394699,-9.717974,0
25882456,4415,1.23,-3.03,-3.45,-0.58,-1.05,20.73,23.54,0.09180164,-0.06501663,-0.01573558,-0.1423769,1.01648,-9.536319,0
25984169,4424,1.33,-3.05,-3.28,-0.58,-0.99,20.73,23.48,0.01857539,-0.0806741099999999,-0.01969946,-0.05827083,0.9532078,-9.66899,0
26091619,4343,1.22,-3.08,-3.13,-0.4,-1.01,20.72,23.29,0.003295445,0.03295905,-0.03344263,-0.2884754,0.5762664,-9.699234,0
26202204,4371,1.19,-3.25,-2.96,-0.32,-0.73,20.72,23.11,0.02113702,-0.002195785,-0.006330187,-0.3002527,1.012693,-9.801673,0
26307959,4370,1.36,-3.49,-3.25,-0.21,-0.5,20.71,22.91,-0.06639167,0.02971745,-0.02953978,-0.3808058,1.215298,-9.876554,0
26423817,4344,1.18,-3.78,-3.53,-0.21,-0.32,20.71,22.83,-0.06381752,-0.003387996,0.01960862,0.1493972,0.946236,-9.677894,0
26522507,4371,1.32,-3.91,-3.85,-0.26,-0.55,20.71,22.87,-0.01625152,-0.1099657,0.01849249,-0.6204712,1.094309,-9.980532,0
26635246,4396,1.21,-4.0,-3.91,-0.33,-0.76,20.72,23.11,-0.1020337,-0.02479616,0.03887138,-0.3950052,0.9459493,-9.764647,0
26749009,4322,1.41,-3.92,-4.1,-0.11,-0.75,20.7,23.37,-0.03412951,0.1020614,0.04521698,-0.1622626,1.053856,-9.706407,0
26859253,4408,1.24,-3.89,-4.27,0.08,-0.6,20.69,23.59,-0.002089212,-0.02894531,0.03340908,-0.06959914,0.7923678,-9.434634,0
26962415,4365,1.39,-3.8,-4.26,0.22,-0.16,20.68,23.67,0.05202963,0.02392816,-0.0008284298,-0.08398924,0.90257,-9.669625,0
27070192,4432,1.3,-3.71,-4.19,0.26,0.29,20.68,23.66,-0.07199518,0.084528,0.01930765,-0.1075463,0.956237,-10.34109,0
27176024,4346,1.32,-3.61,-4.06,0.17,0.31,20.68,23.51,0.004598958,-0.006586703,-0.01993489,-0.2218054,0.7001918,-9.563473,0
27287542,4445,1.28,-3.62,-3.87,0.1,0.03,20.69,23.25,-0.1021777,-0.05531148,-0.06010619,-0.4944845,0.5591404,-9.848828,0
27398356,4347,1.28,-3.64,-3.68,-0.02,-0.05,20.7,22.94,0.04975145,-0.0387861,-0.04611582,-0.2949255,0.9525135,-9.761861,0
27511169,4408,1.48,-3.73,-3.58,-0.17,0.05,20.71,22.63,0.08444667,-0.1004796,-0.05615842,0.04015037,0.8260391,-9.864004,0
27615073,4512,1.44,-3.82,-3.65,-0.22,-0.13,20.71,22.36,-0.04060491,0.01057476,-0.04679178,0.009601978,0.95635,-9.672412,0
27729809,4482,1.47,-3.92,-3.68,-0.35,-0.17,20.72,22.22,0.01804092,0.01929194,0.01981628,-0.06301859,0.7535663,-10.0012,0
27828816,4632,1.17,-3.99,-3.56,-0.26,-0.55,20.71,22.33,-0.02419226,-0.06553565,0.01028254,-0.303075,0.8692117,-9.875726,0
27939217,4457,1.37,-3.99,-3.83,-0.26,-0.41,20.71,22.44,0.01557251,0.001779276,0.0146622,-0.06800599,1.158733,-9.561117,0
28056574,4490,1.1,-4.25,-3.84,-0.14,-0.11,20.7,22.38,0.002185785,-0.0250433,-0.02992116,-0.142781,0.7238953,-9.790784,0
28155244,4382,1.35,-4.52,-4.12,-0.12,0.2,20.7,22.1,-0.1123223,0.002468107,-0.08089899,0.05299581,0.8342291,-9.466298,0
28263839,4332,1.62,-4.86,-4.71,-0.14,0.16,20.7,21.83,-0.1052743,-0.02649222,-0.007897194,-0.318274,1.234788,-9.742562,0
28381547,4444,1.24,-5.13,-4.92,-0.16,-0.31,20.71,21.74,0.05284479,-0.007630856,0.003683536,-0.2393523,1.191716,-9.418918,0
28480958,4471,1.36,-5.13,-5.14,-0.27,-0.24,20.72,21.72,0.04133289,0.002825607,0.025889,-0.4124469,0.85108,-9.81074,0
28590085,4473,1.4,-5.06,-5.17,-0.3,0.05,20.72,21.71,-0.02246426,0.06996698,0.0360309,-0.486395,0.9096156,-9.957357,0
28700883,4510,1.16,-4.99,-4.62,-0.3,-0.1,20.72,21.86,0.0724526,-0.03461497,0.01982543,0.0106985,0.9874157,-9.756402,0
28814466,4418,1.3,-4.87,-4.45,-0.29,-0.62,20.72,22.15,-0.0986308199999999,-0.03804201,0.0282994,-0.02761086,0.7785166,-9.586226,0
28930162,4326,1.16,-4.86,-4.34,-0.15,-0.86,20.71,22.29,0.07778765,-0.0891546399999999,-0.02280358,-0.1946973,0.6814599,-9.595755,0
29025985,4306,1.04,-4.79,-4.49,0.01,-0.78,20.69,22.25,0.01173637,0.06577114,-0.01671749,-0.1417401,0.8958465,-9.457603,0
29138213,4197,1.46,-4.69,-4.68,0.2,-0.66,20.68,22.0,0.002960363,-0.04018459,-0.071398,0.1316774,0.8882276,-9.245593,0
29245602,4022,1.9,-4.52,-4.8,0.42,-0.8,20.66,21.6,0.01955845,0.03532475,-0.0772962299999999,0.1911153,0.8422272,-8.654154,0
29349055,4144,1.93,-4.35,-5.27,0.56,-0.58,20.65,21.2,-0.2757499,0.1986502,-0.0442252,-0.3725704,0.7951184,-9.350024,0
29462425,4297,1.5,-4.09,-5.22,0.58,0.07,20.65,20.58,0.06728609,0.09324253,-0.07894123,0.007205268,0.963525,-9.149288,0
29574377,4461,1.38,-3.93,-4.48,0.6,0.12,20.64,20.08,0.1499886,-0.03507669,-0.08431175,0.1757929,0.9118036,-9.493836,0
29685763,4336,1.25,-3.74,-3.79,0.63,0.02,20.64,19.82,0.1382525,-0.04437687,-0.05784295,-0.05729078,1.036827,-9.600357,0
29785857,4456,1.37,-3.82,-3.37,0.72,-0.25,20.64,19.69,-0.01891509,0.01527832,-0.02232504,-0.2428198,0.9649636,-9.766499,0
29899591,4440,1.34,-4.15,-3.26,0.9,-0.39,20.62,19.64,-0.0784301,-0.0004048665,0.009509808,0.02683684,0.8389863,-9.384025,0
30012996,4407,1.45,-4.32,-3.75,1.14,-0.43,20.61,19.57,-0.04669332,0.02824343,-0.01673411,-0.2006245,0.9422336,-9.799005,0
30223999,4485,1.51,-4.42,-4.2,1.5,0.06,20.58,19.62,0.08061617,0.08819529,0.03231286,-0.0349929,1.050889,-9.396406,0
30329133,4500,1.47,-4.28,-4.15,1.73,0.43,20.56,19.99,0.0117547,0.08884882,0.09460895,0.01751451,0.8268103,-9.90399,0
30543810,4497,1.3,-4.25,-4.1,2.23,0.76,20.52,20.98,-0.09355982,0.002966581,0.08805374,0.0421126,0.9862656,-9.666431,0
30658020,4409,1.31,-4.28,-3.98,2.67,1.08,20.49,21.3,-0.0706008199999999,0.1297582,0.05800921,-0.02608912,0.9888456,-9.963709,0
30769364,4301,1.11,-4.35,-3.71,3.04,1.39,20.46,21.41,0.004093259,0.0109283,-0.01367544,0.1464292,0.8417236,-9.706741,0
30876448,4185,1.21,-4.51,-3.84,3.15,1.74,20.45,21.35,0.06060104,0.04876292,0.005588944,0.04921217,1.061285,-9.984486,0
30978024,4186,1.35,-4.81,-4.04,3.1,2.01,20.46,21.07,0.0817423699999999,-0.08529716,-0.08935118,0.1352719,1.135734,-9.606945,0
31093373,4220,1.6,-5.09,-4.19,2.7,2.14,20.49,20.5,-0.01741227,0.01567643,-0.1064782,0.1652294,1.139565,-9.790483,0
31196549,4288,1.43,-5.17,-4.46,2.33,1.67,20.53,20.0,-0.03474171,-0.111084,-0.1011484,-0.09780898,0.893601,-9.791815,0
31302056,4388,1.35,-5.22,-4.66,2.07,1.39,20.55,19.5,-0.05077944,0.02001122,-0.08031061,0.1293708,0.8707017,-9.450315,0
31414079,4455,1.36,-5.53,-4.51,1.89,1.55,20.57,19.27,-0.03103468,0.05346737,0.04697043,0.1592897,0.9903593,-9.883238,0
31524962,4426,1.29,-5.85,-4.57,1.83,1.37,20.57,19.23,-0.01109008,-0.01929427,-0.003767727,0.06158212,1.043769,-10.02982,0
31631029,4414,1.14,-5.98,-5.12,1.77,0.98,20.58,19.34,0.01081353,-0.03632515,0.01575399,0.1729982,1.047521,-9.80947,0
31741818,4410,1.46,-5.97,-5.89,1.75,0.73,20.58,19.45,-0.2390274,-0.02392679,-0.01117958,-0.1077749,0.8676903,-9.676784,0
31842595,4375,1.64,-5.8,-6.39,1.52,0.8,20.6,19.28,-0.1129007,0.06788138,-0.0547253,-0.3196398,1.029777,-9.692996,0
31960165,4602,1.67,-5.42,-6.31,1.15,0.75,20.64,18.93,0.1348292,-0.09721904,-0.05641259,-0.1664222,1.027553,-9.733349,0
32066706,4641,1.71,-4.93,-6.03,0.94,0.57,20.66,18.63,0.02986014,0.1148301,-0.01210007,-0.09356501,0.8727415,-9.500586,0
32172625,4777,1.51,-4.54,-5.08,0.43,1.43,20.7,18.53,0.1235502,0.1509581,0.04864893,0.2340734,0.7271571,-9.861382,0
32283063,4666,1.39,-4.21,-4.33,-0.03,1.53,20.74,18.85,0.2442476,-0.04178961,0.0868389299999999,-0.2086805,0.9177712,-9.927958,0
32390963,4621,1.74,-4.04,-3.84,-0.54,0.65,20.77,19.27,0.06773235,-0.2011094,0.09689013,-0.09538078,0.9084786,-10.35778,0
32505782,4708,1.55,-4.14,-3.31,-1.21,-0.47,20.82,19.8,-0.001992216,-0.1571317,0.08019762,0.1769598,0.7233298,-10.50712,0
32714043,4767,1.42,-4.23,-4.33,-1.6,-1.38,20.85,20.83,-0.0851098899999999,-0.03588855,0.07842754,0.03964568,1.009761,-10.33851,0
32822762,4678,1.36,-4.23,-4.17,-1.51,-1.62,20.84,21.3,0.03855503,0.07286257,0.04016759,-0.1103508,1.202739,-10.32087,0
32929063,4606,1.67,-4.11,-4.02,-1.48,-1.32,20.84,21.55,-0.03598637,0.1098135,0.05352119,-0.172848,0.8383305,-10.03371,0
33036156,4535,1.87,-3.98,-4.62,-1.37,-0.61,20.83,21.72,-0.1863036,0.05153449,0.04765993,0.2301176,0.8303824,-9.905285,0
33147339,4654,1.59,-3.88,-4.97,-1.08,-0.95,20.81,22.12,-0.0340155,-0.07273796,0.05471151,-0.1336842,0.8476102,-9.86405,0
33256443,4764,1.68,-3.55,-5.07,-0.92,-1.01,20.8,22.46,0.07943933,0.0541094,0.04992513,-0.1035142,0.9030182,-9.727162,0
33364480,4683,1.72,-3.17,-4.78,-0.72,-0.92,20.79,22.79,0.08716606,-0.01741584,0.07190521,-0.1091519,0.8438923,-9.972889,0
33473345,4666,1.58,-2.71,-4.26,-0.29,-0.68,20.77,23.17,0.1404214,0.01920189,0.04617072,0.1638679,0.8186333,-10.06761,0
33686837,4620,1.15,-2.27,-3.42,0.0,1.65,20.76,23.43,0.04418455,0.3719531,0.01544714,-0.05956341,0.770569,-10.37947,0
33792595,4485,1.48,-2.24,-3.17,-0.54,2.36,20.78,23.06,0.1172933,-0.125973,-0.0758237799999999,0.3344112,1.056783,-9.533857,0
33900483,4502,1.67,-2.23,-2.92,-1.37,1.36,20.81,22.54,0.0724215,-0.143497,-0.08260998,-0.01539652,0.9359378,-9.745028,0
34005315,4545,1.61,-2.08,-3.1,-2.24,0.12,20.84,22.16,-0.0666548099999999,-0.1460517,-0.05428191,-0.1483971,0.8143272,-9.566053,0
34228620,4618,1.62,-1.66,-3.01,-3.31,-1.11,20.88,21.59,-0.02451376,-0.008130806,-0.02040562,-0.1709867,0.8277194,-9.666059,0
34351615,4790,1.45,-1.56,-2.69,-3.44,-1.55,20.88,21.47,0.04431847,-0.04850102,0.006212351,-0.1016008,0.7313864,-9.490635,0
34440131,4684,1.54,-1.54,-2.53,-3.45,-1.74,20.88,21.5,-0.05163235,-0.005469985,0.0001812214,-0.1461502,0.6023363,-9.828053,0
34543949,4667,1.34,-1.52,-2.27,-3.36,-2.05,20.88,21.54,-0.0324159,0.006654948,-0.007841715,-0.09849801,0.7034695,-9.88966,0
34666590,4531,1.04,-1.72,-1.66,-3.15,-2.52,20.88,21.65,0.09375767,0.005398283,0.00609497,-0.01827426,0.5130999,-9.716218,0
34765844,4440,1.37,-1.97,-1.98,-3.03,-2.43,20.87,21.69,-0.1213316,0.01118299,0.004712493,-0.1972784,0.8086104,-9.666749,0
34870833,4402,1.4,-2.32,-2.46,-2.76,-2.41,20.86,21.71,-0.1430456,0.08492845,0.01662375,-0.1732419,0.508518,-9.255111,0
34979364,4460,1.48,-2.5,-2.89,-2.49,-2.12,20.85,21.67,0.009770269,-0.01373726,-0.01929715,-0.2721051,0.9753013,-9.458091,0
35199364,4675,1.24,-2.78,-2.5,-1.63,-2.06,20.81,21.51,0.06149964,0.08483167,-0.03011347,-0.2685089,0.7179115,-9.428041,0
35307931,4451,1.24,-2.98,-2.35,-1.08,-2.23,20.78,21.34,0.01392993,-0.008253191,-0.04867497,-0.0295341,0.4768217,-9.438793,0
35413414,4344,1.52,-3.11,-2.78,-0.63,-1.68,20.76,21.15,-0.08665432,0.1174431,-0.05873219,-0.2739834,0.6467746,-9.75683,0
35529412,4455,1.62,-3.26,-3.42,-0.09,-1.01,20.73,20.69,-0.05639491,0.2052787,-0.06416442,-0.4269294,0.9977427,-9.541975,0
35733480,4572,1.62,-3.26,-4.1,0.21,0.19,20.71,19.83,-0.07920355,0.1271039,-0.07248735,-0.07820385,1.034908,-9.787232,0
35845418,4790,1.76,-3.17,-4.23,0.06,0.54,20.72,19.55,0.03661075,0.003398363,-0.03495859,-0.1461334,0.893592,-9.113456,0
35955270,4863,1.76,-3.13,-3.62,-0.07,0.69,20.73,19.52,0.09538149,-0.00202513,0.02167759,0.1112277,0.816663,-9.465729,0
36068207,4769,1.46,-2.97,-2.94,-0.18,0.37,20.73,19.76,0.001442507,-0.01845687,0.0704422,-0.3088608,0.6716638,-10.08305,0
36178336,4737,1.2,-2.89,-2.47,-0.17,-0.08,20.73,20.45,0.06510311,-0.1563158,0.1263757,-0.03217423,0.5558717,-10.12786,0
36387190,4531,1.12,-2.99,-2.61,0.71,-1.07,20.69,22.39,0.01975849,0.05589806,0.132409,0.0002941895,0.5714289,-9.640079,0
36492837,4271,1.71,-3.03,-3.21,1.16,-0.1,20.66,22.86,-0.0659989,0.1924677,0.04390836,-0.06088096,0.6879753,-9.577923,0
36603037,4311,1.34,-2.95,-3.99,1.48,1.02,20.65,22.82,-0.1385823,0.1107263,-0.009475242,0.01742638,0.804741,-9.679478,0
36712387,4468,1.58,-2.74,-4.19,1.42,1.78,20.65,22.53,-0.08458626,0.03973949,-0.04256887,0.2138043,0.7286248,-9.602942,0
36812765,4584,1.31,-2.52,-3.62,1.35,1.72,20.65,22.22,0.005007357,0.04952786,-0.07828686,-0.01834851,0.7128861,-10.08332,0
36917597,4556,1.56,-2.29,-2.97,1.02,1.56,20.67,21.78,0.08833127,-0.09756972,-0.05879002,-0.004200621,0.8051502,-9.603664,0
37030858,4544,1.41,-2.31,-2.52,0.79,1.27,20.67,21.42,0.07207283,-0.00518273,-0.05249844,-0.0968821099999999,0.7687391,-9.742613,0
37138055,4599,1.46,-2.56,-2.12,0.59,0.98,20.68,21.18,0.02808109,-0.002432862,-0.04235268,-0.055579,0.7124586,-9.818885,0
37246993,4592,1.4,-2.9,-1.99,0.42,0.73,20.69,21.01,-0.01191544,0.003526311,-0.01928773,0.0660041299999999,0.6741216,-9.593826,0
37360444,4678,1.34,-3.34,-2.27,0.34,0.33,20.7,20.93,0.02960704,-0.1137904,-0.01499843,-0.1562458,0.820382,-9.708105,0
37472410,4611,1.49,-3.75,-2.71,0.4,0.15,20.69,20.9,-0.1139348,0.01445304,0.01109892,-0.135922,0.6716938,-9.680379,0
37576241,4588,1.75,-3.92,-3.46,0.42,0.4,20.69,20.9,-0.1819512,0.1084469,0.0007150301,-0.0450084,0.9234456,-9.79671,0
37684985,4643,1.54,-4.01,-3.66,0.39,0.69,20.69,20.97,0.05647418,-0.01075625,0.01382208,0.1785505,0.9005104,-9.971992,0
37803081,4717,1.56,-4.02,-3.66,0.23,0.84,20.7,21.17,-0.03291951,0.04962138,0.04779167,-0.1257333,0.7088833,-9.629908,0
37912346,4617,1.42,-3.93,-3.52,0.0,0.83,20.72,21.43,0.0941285,-0.03507959,0.05789183,0.09861051,1.008949,-9.923597,0
38010958,4630,1.0,-4.04,-2.62,0.02,-0.15,20.72,21.84,0.1126565,-0.1838638,0.08244759,-0.1093467,0.4573832,-10.33656,0
38124017,4358,1.39,-3.94,-3.2,0.12,-0.87,20.71,22.27,-0.1646899,-0.09604076,0.03396451,0.3237709,0.6933832,-9.622835,0
38229784,4372,1.41,-3.95,-4.31,0.47,-1.03,20.69,22.52,-0.08417726,-0.06929296,0.05665882,0.04559973,0.8767179,-9.57306,0
38448184,4314,1.37,-3.75,-4.58,1.57,0.1,20.61,23.23,0.1562819,0.04863405,0.01667044,0.4042081,0.614064,-9.524352,0
38557050,4326,1.27,-3.53,-4.02,2.12,0.5,20.58,23.26,0.1334395,0.1215392,0.007881993,0.4036375,0.8477317,-9.653988,0
38663143,4226,1.37,-3.54,-3.42,2.51,0.91,20.55,23.05,-0.08585233,0.1421964,-0.02660326,0.3360483,0.6488478,-9.737263,0
38769946,4143,1.39,-3.65,-3.19,2.75,1.3,20.54,22.69,-0.1601024,0.1285591,-0.04667377,0.2081596,0.5499868,-9.902801,0
38878227,4207,1.49,-3.79,-3.52,2.89,1.57,20.53,22.32,-0.02908493,0.09961717,-0.06148552,-0.06795138,0.7350883,-9.524874,0
38989146,4362,1.36,-3.95,-3.74,2.83,1.98,20.53,22.02,0.02381309,-0.04385086,-0.05172351,0.3232766,0.9383789,-9.541558,0
39095343,4447,1.54,-3.93,-4.1,2.71,2.4,20.54,21.7,-0.01995777,0.112354,-0.06580484,0.1746742,1.107805,-9.893279,0
39208000,4527,1.61,-3.85,-4.05,2.47,2.43,20.56,21.35,0.06147366,0.07609539,-0.0252057,-0.03218803,0.9490313,-9.460826,0
39315634,4522,1.64,-3.76,-4.05,2.12,2.45,20.58,20.94,0.08271978,0.02165814,-0.06524431,0.03814448,0.563932,-9.807337,0
39430368,4645,1.8,-3.65,-3.76,1.76,1.98,20.6,20.5,0.1461084,-0.07002368,-0.05820313,-0.1919085,0.8801551,-9.796702,0
39538982,4683,1.6,-3.58,-3.27,1.46,1.55,20.62,20.39,0.05605195,-0.06850679,-0.001444242,0.00337117,0.9150902,-10.01335,0
39751442,4657,1.42,-3.52,-3.03,0.94,1.62,20.66,20.92,-0.02122275,0.06714945,0.08655058,0.1990983,0.6404744,-9.939945,0
39863009,4677,1.3,-3.49,-2.98,0.58,1.97,20.68,21.47,0.0800283,0.002773148,0.1032612,0.05179993,0.5805756,-9.657402,0
39968630,4526,1.41,-3.46,-3.08,0.31,1.57,20.69,22.19,0.01771649,-0.1678061,0.09265801,-0.1799971,0.9375445,-10.01037,0
40077006,4484,1.36,-3.45,-3.49,-0.07,0.8,20.72,22.8,-0.09380129,-0.1149411,0.0804612299999999,-0.01625446,0.7651228,-9.684534,0
40189544,4461,1.36,-3.43,-3.55,-0.26,-0.03,20.73,23.2,-0.06271233,-0.1211238,0.01773317,0.04137655,0.5886737,-9.592261,0
40298035,4374,1.38,-3.23,-3.64,-0.21,-0.46,20.73,23.38,0.02110723,0.01525537,0.001824605,-0.1763236,0.7036433,-9.531113,0
40399159,4414,1.54,-3.02,-3.59,-0.15,-0.36,20.72,23.31,0.03788514,0.003417128,-0.005100083,0.1010056,0.5343084,-9.801135,0
40617344,4414,1.33,-2.55,-3.38,0.43,-0.41,20.69,22.99,0.04058291,0.05604706,-0.03350011,0.02220016,0.8255854,-9.870372,0
40740536,4483,1.51,-2.3,-3.36,0.74,-0.09,20.68,22.53,0.053205,-0.07844949,-0.09977178,0.4799558,0.8007138,-9.45538,0
40958175,4477,1.74,-1.93,-2.73,0.19,0.08,20.7,21.0,0.009909124,-0.07168846,-0.1360426,0.6019123,0.5782456,-10.09807,0
41065049,4618,1.62,-1.62,-2.23,-1.79,-1.8,20.76,20.21,0.09564234,-0.3991681,-0.1418776,0.1466474,0.641053,-9.538096,0
41283983,4689,1.76,-1.56,-1.54,-4.98,-5.45,20.85,18.64,0.02575196,-0.05841,-0.08290531,-0.05716243,0.5280957,-9.830834,0
41404814,4916,1.83,-1.73,-1.26,-5.67,-5.64,20.87,18.13,-0.007728414,0.06678531,-0.03754419,0.03519404,0.7846313,-9.934531,0
41500170,4937,1.55,-1.96,-1.0,-5.89,-5.62,20.87,18.01,0.0853895499999999,0.05632935,0.002764003,0.09324863,0.5488306,-9.906195,0
41611467,4825,1.58,-2.24,-0.96,-5.84,-5.41,20.87,18.16,-0.0182196,0.086226,0.0736174899999999,-0.2721974,0.7668589,-10.2052,0
41943348,4754,1.52,-2.22,-2.27,-5.72,-4.92,20.87,19.45,-0.0005328672,-0.004936423,0.09124616,0.1618367,0.6334301,-9.352058,0
42053436,4659,1.49,-2.02,-2.1,-5.56,-4.79,20.86,19.77,0.07809916,-0.0375224,0.08186524,-0.2481864,0.5678465,-9.800986,0
42157417,4695,1.45,-1.84,-1.96,-5.54,-4.64,20.86,20.09,0.0833583,0.01849379,0.07073981,-0.1638464,0.6616302,-9.575371,0
42268966,4603,1.55,-1.75,-1.99,-5.51,-4.46,20.86,20.56,-0.02776738,0.01239181,0.08803692,-0.1919548,0.4594331,-9.495632,0
42492985,4682,1.55,-1.62,-2.36,-5.36,-3.96,20.85,21.01,-0.04683872,-0.04749415,0.06927153,0.105021,0.4445863,-9.733756,0
42603180,4627,1.63,-1.43,-2.67,-5.09,-3.63,20.8,21.3,-0.006127811,0.04711905,0.1098634,-0.6365681,0.7714813,-9.795675,0
42711192,4611,1.12,-1.08,-2.19,-5.12,-2.87,19.67,21.73,0.2879946,0.01534119,0.0779246,-0.2080618,0.7327845,-9.779325,0
42819621,4542,0.83,-0.58,-1.5,-5.12,-2.73,16.05,21.85,0.02670679,-0.05286651,-0.05028058,-0.3074118,0.5820555,-10.05624,0
42924167,4123,0.82,-0.09,-0.82,-5.19,-3.18,10.74,20.84,0.309031,-0.166737,-0.3196795,-0.1388452,0.5914196,-9.861392,0
43041006,3351,0.76,0.2,-1.17,-5.15,-3.56,4.86,17.31,-0.1157331,0.01250913,-0.6302226,-0.2119877,0.7480068,-9.94821,0
43142571,3002,1.39,0.08,-1.81,-5.05,-3.74,2.48,13.15,-0.02269776,0.1418884,-0.7504888,-0.567891,0.3388573,-9.685293,0
43368596,3511,2.34,-0.83,-3.06,-5.01,-3.35,2.02,3.47,-0.02269872,0.1051214,-0.6130732,-0.4874314,0.5949576,-9.712268,0
43474060,4785,2.81,-1.08,-3.32,-5.03,-2.86,2.02,359.76,-0.1719119,0.1576939,-0.4983433,-0.4027942,0.6739529,-9.742264,0
43575478,5160,2.63,-1.25,-3.68,-4.94,-2.83,2.02,356.98,-0.0758569199999999,0.02912635,-0.4483214,-0.6763792,0.3440816,-9.682635,0
43691616,5435,2.82,-1.44,-4.02,-5.23,-2.67,2.02,354.57,-0.0988218,0.0226626,-0.2736773,-0.5517619,0.4051938,-9.779372,0
43798014,5616,2.53,-1.6,-4.04,-5.64,-2.68,2.03,353.28,0.05043021,0.006897175,-0.1370918,-0.6870999,0.6869426,-9.740302,0
44021421,5733,2.45,-2.18,-3.43,-6.43,-3.3,2.06,353.04,-0.004273025,-0.05798978,0.0894151599999999,-0.6206324,0.5066122,-9.665042,0
44123935,5486,2.37,-2.39,-3.62,-6.69,-3.55,2.07,353.73,-0.0695771,-0.01461296,0.1745115,-0.5689789,0.3510256,-9.71093,0
44237045,5545,2.1,-2.6,-3.74,-6.66,-4.01,2.07,355.04,0.02776634,-0.06154442,0.2084689,-0.6485219,0.5248007,-9.603834,0
44338568,5399,2.11,-2.79,-3.91,-5.83,-3.62,2.03,356.41,0.01382936,0.1049864,0.2350207,-0.6783516,0.8590492,-9.771436,0
44448884,5370,1.67,-2.34,-3.39,-4.66,-2.79,1.97,357.79,0.176281,0.09327083,0.2309035,-0.3794619,0.4112677,-9.50736,0
44557572,5160,1.38,-1.74,-1.77,-3.84,-2.06,1.94,359.07,0.3193536,0.0759323799999999,0.2103639,-0.6266885,0.4373639,-9.852548,0
44666406,4993,1.51,-1.63,-0.46,-3.26,-1.6,1.93,0.04,0.05399822,0.0404422,0.1366916,-0.2784821,0.5079217,-9.592494,0
44775965,4703,1.47,-1.84,-0.67,-2.88,-1.7,1.92,0.81,-0.01853536,-0.08477334,0.0726653,-0.3008035,0.6846441,-9.467939,0
44883470,4754,1.61,-2.39,-1.33,-2.63,-1.98,1.91,1.34,-0.1918814,-0.07090839,0.05670177,-0.4973877,0.3613223,-9.460883,0
44989050,4716,1.83,-2.86,-2.07,-2.24,-2.03,1.89,1.8,0.05564109,0.07354517,0.08601002,-0.6200582,0.6103995,-9.419025,0
45101010,4771,1.42,-3.32,-2.49,-1.75,-1.83,1.86,2.07,-0.1566374,0.1086681,0.05858912,-0.4498467,0.5037565,-9.670808,0
45209409,4638,1.18,-3.75,-2.78,-1.12,-1.47,1.82,2.05,-0.0001153465,0.09974568,0.006554358,-0.442084,0.7299688,-9.092877,0
45321955,4581,1.42,-4.33,-2.88,-0.52,-1.28,1.78,1.87,0.03030115,0.0888703099999999,-0.008466,-0.3126393,0.8930559,-9.14909,0
45419604,4529,1.63,-6.26,-3.93,0.09,-1.13,1.73,1.65,-0.4494149,0.08056954,-0.05420448,-0.4681332,0.5418675,-9.408874,0
45536598,4373,1.59,-8.47,-6.27,0.56,-0.54,1.66,1.37,-0.2740747,0.003113814,-0.01179398,-0.5393135,0.7654134,-9.475408,0
45643236,4570,1.84,-9.73,-8.2,0.95,-0.14,1.6,1.08,-0.3709277,0.05767471,-0.04333884,-0.4132876,1.064316,-10.07752,0
45854190,4743,1.36,-10.34,-8.39,1.63,-0.23,1.48,1.13,0.1770342,-0.01172498,0.01768644,-0.5369153,0.912678,-10.06738,0
45967673,4770,1.56,-10.23,-7.82,2.03,-0.06,1.4,1.26,0.05388497,0.1155,0.03589898,-0.515579,0.8369829,-10.12366,0
46078494,4642,1.88,-10.08,-7.53,2.44,0.76,1.33,1.42,-0.1272471,0.3248846,0.04012685,-0.4001485,0.7837042,-10.43305,0
46179432,4828,1.64,-10.01,-7.33,2.52,2.2,1.32,1.48,0.01734404,0.2028306,0.08060819,-0.09182557,1.050699,-10.4307,0
46298450,4822,1.48,-10.24,-7.35,2.49,2.24,1.32,1.89,0.0251274,-0.114282,0.1041894,-0.2035644,0.9108328,-10.7491,0
46409041,4752,1.39,-10.35,-7.67,2.2,1.74,1.38,2.59,-0.127961,-0.04984963,0.1643112,-0.459199,0.959259,-10.12987,0
46517243,4662,1.39,-10.4,-8.05,1.67,1.71,1.47,3.2,-0.1124491,0.01933143,0.1248917,-0.4332558,0.9826851,-10.48099,0
46629065,4574,1.51,-9.42,-7.78,1.25,1.67,1.55,3.65,0.2032986,0.01870587,0.06359462,-0.367744,1.346233,-10.02732,0
46741855,4572,1.19,-8.41,-6.73,0.88,1.37,1.6,3.87,0.2589129,-0.04966191,0.007958745,-0.4636135,1.17012,-9.925362,0
46836175,4342,1.21,-7.68,-5.84,0.61,0.83,1.64,3.96,0.1927841,-0.1241645,-0.03230587,-0.2599902,1.118347,-9.584469,0
46948380,4371,1.36,-7.02,-5.43,0.3,0.56,1.61,3.73,-0.01648652,-0.05755884,-0.0645487,-0.3506588,1.198497,-10.08725,0
47056232,4413,1.66,-5.53,-4.86,0.09,0.29,1.61,3.28,0.1393766,-0.09513576,-0.07522175,-0.0706305099999999,1.460867,-9.878207,0
47170075,4562,1.35,-3.25,-2.71,0.16,-0.34,1.61,2.77,0.3209111,0.01480593,-0.07062465,-0.3050467,1.016482,-9.673875,0
47278417,4484,1.43,-1.45,-0.08,0.12,-0.59,1.61,2.32,0.3736592,-0.01555546,-0.0688946,0.01654176,0.953536,-9.837773,0
47387954,4451,1.42,-0.34,1.64,0.19,-0.73,1.61,1.96,0.223617,0.04979351,-0.0388247,-0.4114382,0.9504071,-9.630793,0
47489390,4401,1.45,-0.12,1.64,0.19,-0.58,1.61,1.64,-0.005457382,0.04265936,-0.0818466199999999,-0.02196267,1.002513,-9.623708,0
47607817,4487,1.35,-0.75,0.89,0.53,-0.72,1.61,1.32,-0.1560261,-0.01791062,-0.04224775,-0.206103,0.7652864,-9.766344,0
47715470,4521,1.62,-1.8,-0.84,1.67,0.36,1.58,1.29,-0.3216089,0.2821323,-0.01847225,-0.1684361,0.9591143,-9.544151,0
47823532,4574,1.49,-2.37,-2.32,2.64,1.83,1.54,1.42,-0.1111535,0.2053343,0.006036688,-0.2683151,1.020265,-9.467415,0
47931046,4625,1.55,-2.65,-2.77,3.63,3.04,1.5,1.52,-0.07834128,0.2016053,0.07384242,-0.658407,0.7415323,-9.869013,0
48040396,4608,1.46,-2.53,-2.78,3.86,3.51,1.49,1.46,0.01541216,0.006638222,-0.00180119,-0.2535762,0.8344149,-9.835406,0
48146352,4726,1.47,-2.3,-2.42,3.57,3.05,1.5,1.19,0.06758133,-0.1062705,-0.08162674,-0.1977875,0.7669255,-9.654063,0
48254175,4647,1.97,-1.74,-2.58,3.19,2.21,1.52,0.78,0.0251694,-0.1770345,-0.06258457,-0.3907363,0.9866419,-9.372965,0
48367924,4790,1.89,-0.68,-1.94,2.85,1.36,1.52,0.25,0.1807452,-0.07953628,-0.0552205,-0.361657,0.6472822,-9.726487,0
48475354,4872,1.89,0.73,-0.64,2.29,1.5,1.52,359.86,0.1784674,0.09586632,-0.04350785,-0.1518416,0.6903757,-10.17449,0
48694412,4886,1.81,2.86,2.08,1.24,1.34,1.49,359.74,0.1967793,-0.07472726,0.05398565,-0.2133227,0.8385412,-10.01045,0
48796426,4925,1.68,3.32,2.97,0.73,0.82,1.46,0.08,0.0803763,-0.04411362,0.08737072,0.03290498,0.5592012,-10.25142,0
48909438,4854,1.29,3.61,3.55,0.58,-0.13,1.45,0.92,0.05019985,-0.09696845,0.1711552,-0.1554622,0.3754013,-10.24762,0
49016599,4675,1.28,3.48,3.44,0.84,-0.83,1.47,1.95,-0.05934802,-0.1638534,0.171404,0.2846167,0.7427711,-9.846936,0
49128377,4567,1.48,3.36,2.75,1.48,-1.06,1.5,2.87,-0.1314233,0.02283899,0.1209476,0.0887680099999999,0.4681605,-9.662916,0
49234856,4504,1.52,3.22,1.98,2.16,-0.49,1.54,3.34,-0.1437112,0.1881207,0.04834115,0.1171788,0.5690461,-9.86589,0
49343058,4558,1.56,3.35,1.61,2.74,0.56,1.58,3.31,-0.111545,0.224786,-0.03962461,-0.1722193,0.6454979,-9.763493,0
49449434,4590,1.54,3.57,1.72,3.03,1.68,1.59,3.04,0.1355713,0.1135549,-0.04750868,0.1143661,0.6195533,-9.604063,0
49564964,4706,1.49,3.79,1.91,3.07,2.32,1.6,2.68,-0.01430263,0.05139403,-0.04887058,-0.02405759,0.5024143,-9.915931,0
49664783,4764,1.4,3.97,2.25,3.02,2.39,1.59,2.43,0.149476,-0.01546303,-0.01940213,0.07061436,0.4624104,-9.831329,0
49774226,4634,1.56,4.07,2.4,2.78,2.57,1.58,2.28,0.02717449,0.03744358,-0.02319343,0.1382649,0.5370911,-9.868305,0
49881584,4712,1.68,4.08,2.65,2.65,2.14,1.57,2.13,0.1118167,-0.127982,-0.01852242,-0.002270193,0.4928944,-9.589952,0
49986177,4699,1.52,3.89,2.88,2.57,1.75,1.56,1.84,0.09196069,-0.1156411,-0.04333567,-0.04518965,0.542776,-9.998665,0
50098221,4684,1.66,3.68,2.76,2.61,1.45,1.56,1.55,-0.0935943999999999,0.003361936,-0.03643281,0.1277904,0.4024435,-9.6655,0
50210134,4689,1.74,3.62,2.15,2.74,1.08,1.57,1.25,-0.04141829,-0.07024134,-0.06617314,0.1925368,0.4997558,-9.669562,0
50315225,4857,1.73,3.59,1.9,2.84,0.94,1.58,0.86,-0.06256402,-0.05281788,-0.0736132699999999,-0.0940287499999999,0.4305914,-9.947013,0
50426509,4759,1.87,3.56,1.85,2.9,1.03,1.58,0.39,-0.002122276,0.03856839,-0.08290271,-0.08813751,0.5054465,-9.850468,0
50532822,4943,2.14,3.76,1.44,2.86,1.43,1.58,359.85,-0.09782622,0.07589894,-0.1205719,0.02044016,0.5387608,-9.674202,0
50636805,4991,2.32,3.87,1.1,2.68,1.69,1.57,359.01,-0.09641842,0.0001751691,-0.138844,-0.00392792,0.2544863,-9.559598,0
50739188,5085,2.25,4.06,0.97,2.48,1.8,1.55,358.23,0.05926699,0.008419558,-0.1432504,-0.02068187,0.6182284,-9.873374,0
50857380,5114,2.5,4.07,1.2,2.14,1.87,1.53,357.32,0.02046655,0.02588156,-0.1111842,0.02575008,0.4427831,-9.84721,0
50968397,5477,2.39,4.23,1.56,1.83,1.83,1.51,356.77,0.04297872,0.001428606,-0.04568734,0.04836257,0.3928253,-9.942315,0
51071973,5382,2.36,4.22,1.74,1.64,1.56,1.49,356.63,0.02283621,-0.04249445,0.005010883,0.02941412,0.2541662,-9.827506,0
51185593,5260,2.43,4.36,1.31,1.5,1.23,1.48,356.85,-0.08729592,-0.04704741,0.04516438,0.09674886,0.316763,-9.876832,0
51294947,5330,2.06,4.44,1.59,1.49,0.93,1.48,357.14,0.1245747,-0.006150385,0.05166717,-0.03844511,0.3443934,-9.674274,0
51405624,5344,2.03,4.21,1.97,1.4,1.17,1.47,357.6,0.07320329,0.02880268,0.09043093,0.08561718,0.07508934,-9.696573,0
51518120,5154,2.49,1.93,0.86,0.97,1.25,1.45,358.27,-0.3507327,-0.0746429,0.1085521,0.04366504,0.001058282,-9.760217,0
51616792,5128,2.19,0.44,-1.22,0.54,0.9,1.44,359.09,-0.274619,-0.1457359,0.1471341,0.02784587,0.2679508,-10.11489,0
51732473,5133,2.05,-0.84,-3.19,-0.04,0.42,1.45,0.25,-0.226422,-0.02697941,0.1706561,0.1087864,0.4954503,-9.650024,0
51831812,5202,1.39,-1.88,-3.9,-0.46,0.07,1.46,1.23,-0.06887321,-0.05128383,0.1667729,0.003147776,0.2401083,-9.97022,0
51947245,4925,1.55,-3.87,-4.91,-0.81,-0.35,1.47,2.29,-0.2993258,-0.03075819,0.1529103,-0.2084886,0.2957376,-9.763099,0
52053426,4759,1.65,-5.89,-6.68,-1.17,-0.57,1.5,3.2,-0.2486514,-0.03719774,0.1235774,-0.1228728,0.5190217,-9.970625,0
52156835,4794,1.44,-7.18,-7.95,-1.36,-0.82,1.53,3.75,-0.1757019,-0.0536069,0.08424025,-0.0609876,0.527121,-10.08266,0
52262196,4670,1.5,-8.24,-8.63,-1.44,-1.18,1.54,4.17,-0.04343854,-0.08757398,0.05744683,-0.2148348,0.6559773,-9.891935,0
52372089,4657,1.57,-8.94,-8.9,-1.42,-1.21,1.53,4.38,-0.0657047999999999,0.02922983,0.007777214,-0.1410624,0.5188798,-10.03816,0
52480933,4657,1.56,-9.5,-9.16,-1.21,-1.07,1.5,4.4,0.04563731,0.007516361,-0.003050953,-0.06450764,0.5259132,-9.939973,0
52594441,4652,1.57,-10.05,-9.32,-0.97,-0.89,1.46,4.14,-0.06465711,0.06087533,-0.03783599,-0.1528376,0.4995886,-10.14381,0
52707568,4596,1.71,-10.32,-9.36,-0.8,-0.71,1.43,3.71,-0.01790785,0.07419033,-0.06956024,-0.1148913,0.5497898,-10.06138,0
52815849,4706,1.81,-10.49,-9.24,-0.73,-0.33,1.41,3.22,-0.02720522,0.1241764,-0.04921135,-0.1013212,0.8019514,-9.9896,0
52917540,4782,1.67,-10.66,-8.77,-0.68,-0.03,1.4,2.97,0.06268311,0.06650945,0.01135119,-0.1310355,0.6121907,-9.93658,0
53027044,4667,1.28,-10.65,-8.28,-0.54,0.02,1.38,3.27,0.1317688,0.005500067,0.07304619,0.04840229,0.7928463,-9.943143,0
53144190,4582,1.54,-10.39,-7.83,-0.33,-0.07,1.34,3.68,-0.003074704,-0.001279936,0.05226907,-0.02573071,0.6549132,-9.985043,0
53256430,4538,1.32,-8.69,-6.87,-0.18,-0.33,1.31,3.76,0.2988153,-0.0527653,-0.01198101,-0.02690761,0.9536414,-9.999508,0
53370394,4485,1.06,-7.4,-4.64,-0.13,-0.5,1.31,3.47,0.3505402,0.01754033,-0.04444557,-0.2420999,0.7616687,-9.940487,0
53469074,4314,1.36,-6.73,-3.6,-0.13,-0.26,1.31,3.14,0.2101881,0.05071785,-0.06669686,-0.1992614,0.5764266,-9.415274,0
53586469,4322,1.28,-6.52,-3.44,-0.22,0.47,1.32,2.73,-0.0980240099999999,0.07339449,-0.05350548,-0.005918555,0.7580178,-9.457381,0
53697591,4416,1.44,-6.64,-3.94,-0.37,0.51,1.33,2.23,-0.1150966,-0.04613983,-0.096377,0.002950765,0.9172596,-9.747926,0
53803176,4562,1.46,-6.85,-4.15,-0.59,-0.05,1.36,1.57,-0.08235892,-0.0852412,-0.0968113,-0.1174405,0.8488506,-10.22037,0
53918810,4483,1.42,-6.87,-4.11,-0.65,-1.23,1.37,0.74,0.01418935,-0.2052887,-0.1401005,-0.1778334,0.7216249,-9.772574,0
54025381,4472,1.43,-6.84,-4.11,0.13,-1.5,1.27,0.0,-0.07116348,0.1203695,-0.07716841,-0.4167618,0.7273663,-9.592748,0
54232221,4492,1.82,-6.92,-5.51,4.29,2.89,0.77,359.32,-0.1007861,0.4455361,-0.006528584,0.2531515,0.7029231,-9.534078,0
54342566,4705,1.57,-6.56,-5.77,5.93,5.58,0.57,359.13,0.05940959,0.3768997,0.03198813,0.09954149,1.029932,-10.16955,0
54559394,4797,1.62,-5.67,-4.79,6.82,7.24,0.47,358.95,0.1669059,-0.0777775,0.009080767,0.3005296,0.7971935,-9.768954,0
54672051,4733,1.63,-5.48,-4.48,6.53,6.49,0.5,359.31,-0.04866057,-0.1482435,0.06751926,0.1681676,0.6878623,-10.03172,0
54781551,4764,1.76,-5.38,-4.48,6.27,5.93,0.52,359.85,-0.1132863,0.04566931,0.07069717,0.05842151,0.8102307,-9.999743,0
54885069,4731,1.8,-5.18,-4.85,6.06,6.28,0.54,0.04,-0.01047072,0.1146129,0.04845909,0.001271321,0.8174171,-10.113,0
54999358,4783,1.47,-5.03,-4.57,5.89,6.69,0.56,0.35,0.01214357,0.07780181,0.07652489,0.06399583,0.6449624,-9.92328,0
55099178,4766,1.65,-4.72,-4.28,5.62,6.56,0.58,0.75,-0.02706541,-0.04447262,0.0898577599999999,0.04549265,0.6784495,-9.723023,0
55212359,4683,1.41,-4.46,-3.91,4.96,5.9,0.64,1.31,0.1149721,-0.1840878,0.08426721,0.0735626499999999,0.826677,-10.01992,0
55322946,4649,1.54,-4.21,-3.89,3.75,4.21,0.73,1.97,0.001460175,-0.3721696,0.07353926,0.2703681,0.6209654,-9.848244,0
55436558,4566,1.26,-3.89,-3.93,2.3,1.68,0.83,2.49,0.0224702,-0.3710715,0.05892512,0.08451627,0.8133017,-10.16595,0
55538965,4512,1.34,-3.65,-3.48,1.58,-0.06,0.88,2.69,0.01900259,-0.07135612,0.01813934,-0.02177351,0.6454237,-10.12941,0
55648765,4437,1.17,-3.38,-3.02,1.28,-0.54,0.9,2.67,0.09318884,-0.01562314,-0.003944244,0.2352445,0.7903873,-9.824675,0
55762959,4355,1.3,-3.25,-2.62,1.41,0.07,0.89,2.65,0.04162614,0.1388576,0.01771221,0.2364988,0.6688707,-9.930526,0
55874381,4329,1.39,-3.16,-2.5,1.59,0.69,0.88,2.69,-0.01086283,0.1186896,0.03267911,0.1208779,0.5979293,-9.767164,0
55984731,4335,1.14,-3.1,-2.47,1.65,0.83,0.88,2.93,0.04150714,-0.05362161,0.05493387,0.1482667,0.6293463,-9.846357,0
56095360,4283,1.24,-3.11,-2.6,1.77,0.7,0.87,3.3,0.1149912,-0.0565073,0.06129403,0.0383007,0.7548774,-9.943398,0
56199621,4274,1.39,-3.05,-2.92,2.11,0.93,0.85,3.6,-0.1429071,0.07817473,0.05394643,0.253037,0.5785228,-9.747896,0
56418003,4311,1.2,-2.7,-3.42,4.52,3.37,0.73,4.01,0.1020572,0.2743826,0.02712853,-0.02099931,0.6918961,-9.711698,0
56531665,4277,1.54,-2.32,-3.44,5.67,5.42,0.68,3.72,0.005594777,0.2855912,-0.02400996,0.3098074,0.8516755,-10.25611,0
56630577,4425,1.29,-2.03,-2.85,6.02,6.09,0.66,3.24,0.1671999,0.1265582,-0.07440163,0.157406,0.6513914,-9.656054,0
56854963,4287,1.15,-1.53,-1.51,6.02,5.11,0.66,2.28,0.1924559,-0.1167953,-0.07747474,0.1131434,0.7171204,-9.91697,0
56963587,4358,1.38,-1.49,-1.19,6.23,4.51,0.66,1.84,-0.02207009,0.01206202,-0.08296811,0.1879079,0.7508516,-10.0734,0
57183045,4457,1.55,-2.11,-1.51,6.57,5.09,0.65,0.89,-0.1056496,0.1099833,-0.07165593,0.09466924,0.8628818,-9.677794,0
57301658,4534,1.58,-2.44,-1.89,6.63,5.72,0.65,0.6,-0.1067401,0.1353533,-0.002182912,0.4284209,0.7317861,-9.844071,0
57403408,4599,1.38,-2.66,-1.95,6.64,5.72,0.65,0.48,-0.05154424,-0.005344945,-0.00879688,0.3785203,0.7578773,-9.952065,0
57516521,4575,1.51,-2.92,-1.98,6.39,5.43,0.66,0.43,0.02887637,-0.09178591,-0.01137877,0.1660341,0.7562404,-10.37879,0
57621773,4616,1.33,-3.17,-2.22,6.12,5.08,0.67,0.44,0.02670904,-0.0769602499999999,-0.005549258,0.1784778,0.8169785,-9.973311,0
57730364,4643,1.51,-3.37,-2.76,5.98,4.98,0.68,0.49,-0.1097695,-0.01237426,0.01509145,0.1136937,0.8339147,-9.917019,0
57839362,4658,1.31,-3.68,-2.97,5.77,4.86,0.69,0.71,0.02375571,-0.06900744,0.05685297,0.2814628,0.7999481,-10.12661,0
57941446,4526,1.28,-3.92,-3.1,5.69,4.73,0.7,0.98,-0.001620624,0.05027589,0.03595417,0.3761628,0.8995284,-9.683896,0
58048224,4427,1.32,-4.2,-3.35,5.66,4.76,0.7,1.11,0.02008527,-0.04572992,-0.005246975,0.4668383,0.9524409,-9.735142,0
58158818,4386,1.58,-4.48,-3.85,5.64,4.65,0.7,1.06,-0.1106127,-0.07768269,-0.01407056,0.628941,0.800099,-9.688975,0
58267145,4457,1.29,-4.59,-4.23,5.4,4.35,0.72,0.8,-0.07938784,-0.02021904,-0.03832449,0.3284453,0.9180226,-9.907273,0
58378980,4457,1.51,-4.62,-4.37,3.95,3.29,0.84,0.49,-0.01642701,-0.2817249,-0.0624206,0.6058862,0.8130692,-9.213581,0
