TimeUS,RPM,Curr,DesRoll,Roll,DesPitch,Pitch,DesYaw,Yaw,GyrX,GyrY,GyrZ,AccX,AccY,AccZ,Guasto
0,4270,2.45,-0.02,-0.17,0.0,0.36,12.39,12.45,-0.01249224,0.009969063,-0.002763009,0.2234661,0.4693749,-9.84629,2
106767,5055,3.34,0.0,-0.17,0.07,0.22,12.39,12.66,0.05097207,-0.03684581,0.04235755,0.1614596,-0.03381575,-10.63993,2
323279,5634,3.58,-0.04,0.51,0.2,-0.48,12.39,14.06,0.08255517,0.04169213,0.1893062,-0.2395977,0.294622,-12.25198,2
428125,6230,3.66,-0.33,0.68,0.36,-0.48,12.39,15.54,0.01802038,0.08305398,0.262888,-0.3542639,0.3487217,-11.45436,2
537095,6287,3.91,-0.83,0.62,0.78,-0.77,12.38,17.47,-0.08575615,-0.03866014,0.3236857,0.01537969,0.5022058,-10.67515,2
653075,6326,3.89,-1.96,1.37,1.25,-0.54,12.37,19.35,0.1174166,0.01495421,0.2690637,-0.0480657,0.2890818,-10.61968,2
753904,6319,4.35,-2.88,1.13,1.7,-0.4,12.35,20.75,-0.1854142,-0.02617151,0.2057401,0.5686471,0.3218142,-10.00823,2
869661,6438,4.2,-3.84,-0.02,2.32,-0.13,11.91,21.84,-0.06169539,0.02695169,0.1079417,0.541871,0.7343923,-9.731608,2
978526,6592,4.56,-4.59,-1.5,2.72,0.56,10.82,22.24,-0.3501972,0.1289194,0.02595934,0.05270018,0.425186,-10.03067,2
1087126,6669,4.66,-5.17,-2.65,2.86,1.46,8.36,21.83,-0.2120808,0.1220031,-0.1206114,0.03333173,0.4642303,-9.923728,2
1197202,6661,4.45,-5.47,-3.19,2.83,2.15,6.61,20.47,0.001456533,0.01438537,-0.2581804,0.3951199,0.7628499,-9.667727,2
1304717,6692,4.04,-5.52,-3.53,2.87,2.52,6.45,18.78,-0.07547249,0.1130847,-0.244796,0.310364,0.5742904,-9.642384,2
1523005,6582,3.6,-5.01,-2.66,2.81,2.26,6.46,15.73,0.04938598,-0.02066413,-0.2206988,-0.09791611,0.3245118,-9.915055,2
1630035,6219,3.77,-4.84,-2.56,2.84,2.37,6.46,14.52,0.1271441,0.03202842,-0.1936061,0.2776288,0.612179,-9.606112,2
1736141,6377,3.59,-4.92,-2.45,2.92,2.62,6.45,13.39,-0.01486641,0.1134465,-0.209563,0.3127219,0.376486,-10.12856,2
1851784,6228,3.26,-5.18,-2.2,2.65,2.79,6.47,12.23,0.01954972,0.07187644,-0.170314,0.3044073,0.6425956,-9.974358,2
1950338,6081,3.31,-5.35,-2.45,2.43,2.74,6.49,11.54,-0.06955034,-0.006937439,-0.1079674,0.3710234,0.7326769,-9.413886,2
2068109,5887,3.16,-5.53,-2.72,2.33,2.44,6.5,10.87,0.04932006,0.041277,-0.09793135,-0.1219051,0.6438749,-10.04825,2
2184657,5938,3.37,-5.58,-3.04,2.12,2.32,6.52,10.56,0.0544562,-0.01062855,-0.04786212,0.02654908,0.6202082,-9.715661,2
2404708,6200,3.69,-5.33,-4.13,1.87,1.8,6.55,11.03,-0.04823641,-0.01761198,0.08194134,0.1616826,0.6357445,-9.34161,2
2507113,6221,3.72,-5.28,-4.36,1.91,1.76,6.54,11.49,0.04204508,0.0629446,0.07150835,0.1228214,0.7588164,-9.913273,2
2614684,6312,3.4,-5.17,-4.04,1.64,2.06,6.57,11.99,0.02565079,0.06533885,0.08630403,0.2358318,0.5550544,-10.06066,2
2724206,6224,3.4,-5.06,-3.29,1.21,2.08,6.61,12.45,0.06838071,0.03323168,0.1066008,-0.05746324,0.5097516,-9.572079,2
2830019,6085,3.36,-4.9,-2.95,0.46,1.86,7.92,14.03,0.02582807,0.004874319,0.0770326,-0.28042,0.6657789,-10.12615,2
2939529,6082,3.29,-4.91,-2.77,-0.25,1.11,7.98,14.36,0.04493908,-0.05228928,0.0638306,-0.05403614,0.6010809,-9.60861,2
3042450,6030,3.74,-4.81,-3.37,-0.72,0.26,8.02,14.53,-0.0006150596,-0.1878953,0.08429398,0.2997274,0.5707798,-9.202061,2
3258048,6134,3.47,-4.79,-3.42,-0.87,-0.56,8.04,15.05,0.0671863,-0.1378848,0.0082207589999999,-0.1051805,1.016647,-9.864778,2
3374505,6430,3.56,-4.98,-3.2,-1.0,-0.55,8.05,15.71,-0.12348,-0.04362519,0.02657232,0.1500321,0.7020985,-9.669954,2
3490097,6198,3.53,-5.26,-3.48,-1.27,-0.8,8.07,16.4,-0.1327557,-0.1319769,0.003116053,0.3723694,0.7675195,-9.458352,2
3590273,6188,3.71,-5.47,-4.07,-1.64,-0.92,8.11,16.97,-0.1048104,-0.03315725,-0.004255713,0.1839645,0.7449293,-9.825528,2
3699253,6231,3.85,-5.55,-4.68,-1.93,-1.3,8.13,17.27,-0.02816159,-0.07668179,-0.01103203,0.09765735,0.6903731,-10.21017,2
3806098,6316,3.79,-5.49,-4.53,-1.79,-1.61,8.12,16.58,0.07824326,0.01733781,-0.07039318,-0.1193828,0.8215725,-9.808719,2
3915776,6483,3.77,-5.31,-4.37,-1.25,-1.34,8.07,15.87,0.08848609,0.02230014,0.01722034,0.2102084,0.8288656,-9.923401,2
4023094,6244,3.84,-5.23,-4.68,-0.43,-0.49,7.99,15.74,-0.07936573,0.2309982,-0.01176382,0.3694117,0.9674169,-9.636948,2
4238553,6327,3.4,-5.35,-3.87,0.06,1.87,7.95,15.5,0.1419334,0.1445139,-0.03681001,0.07054692,1.015865,-10.09742,2
4355258,6273,3.46,-5.32,-3.75,-0.39,1.7,7.99,14.91,-0.003344495,-0.1936211,-0.08368675,0.07182835,0.8361236,-9.667455,2
4461130,6296,3.13,-4.88,-3.99,-0.77,1.09,8.03,13.59,-0.02348157,-0.04089021,-0.1035563,0.01082027,0.9834728,-9.626867,2
4568778,6240,3.24,-4.61,-3.72,-1.06,0.76,8.05,12.46,0.0375201,0.02744859,-0.04117788,-0.2315545,0.8859502,-9.514667,2
4676340,6083,3.45,-4.51,-3.28,-0.95,0.82,8.04,11.86,0.0949734899999999,0.1214152,0.01913479,-0.2712061,1.043106,-9.957645,2
4780234,6072,3.24,-4.67,-3.2,-0.99,1.14,8.04,12.08,0.02809885,0.07441734,0.03402745,0.01941306,0.9116017,-9.692643,2
4889657,6086,3.27,-5.34,-3.6,-1.27,0.96,8.07,12.73,-0.1356149,0.02499521,0.04001033,0.1121917,0.7371849,-9.407024,2
4992444,5924,3.6,-5.61,-4.73,-1.53,0.4,8.09,13.05,-0.1314925,-0.01432059,0.05232252,-0.422151,1.044114,-10.03082,2
5218893,6297,3.7,-5.27,-5.21,-1.57,0.28,8.1,13.24,-0.03808746,0.03505719,0.04136336,-0.1330131,0.7890851,-9.482553,2
5328462,6240,3.86,-4.87,-4.82,-1.43,0.1,8.09,13.6,0.1369237,-0.1506863,0.0967355399999999,-0.330727,0.9654999,-9.918548,2
5428039,6223,3.56,-4.69,-4.38,-1.29,-0.04,8.07,14.21,0.1047515,0.03397103,0.1160959,-0.3245481,1.057717,-9.923223,2
5649554,6170,3.58,-4.57,-4.6,-1.08,-0.72,8.06,15.09,-0.1556847,-0.01345914,-0.01394589,0.1139214,0.7570958,-8.769872,2
5761140,6165,3.4,-4.37,-4.86,-0.9,-0.88,8.04,14.96,0.007496369,-0.100049,-0.05949263,-0.1591012,1.063703,-8.95927,2
5862881,6248,3.32,-3.99,-4.62,-0.87,-1.02,8.04,14.64,0.1273205,-0.1141554,-0.06164059,0.03789133,0.7791295,-8.791205,2
5970065,6083,3.39,-3.48,-4.35,-0.84,-0.98,8.04,14.14,-0.0004428249,0.03575562,-0.07479171,-0.3660581,0.8550923,-9.219672,2
6082704,6055,3.14,-2.99,-3.66,-0.72,-0.85,8.03,13.62,0.1848838,0.0458179,-0.07949264,-0.150498,0.7654879,-9.118764,2
6192175,6002,2.84,-2.71,-3.06,-0.51,-0.59,8.02,13.15,0.01795549,-0.03689263,-0.08128235,-0.1218527,0.6937469,-8.455839,2
6303106,5838,2.81,-2.55,-2.92,-0.34,-0.1,8.01,12.75,0.0006686992,0.02954354,-0.05461428,-0.09031353,0.5847641,-8.54705,2
6398904,5809,2.94,-2.52,-2.89,-0.16,0.08,8.01,12.44,0.05168537,0.1026273,-0.03255112,-0.2112941,0.8577235,-8.973742,2
6512094,5977,2.94,-2.41,-2.73,-0.11,0.34,8.0,12.12,0.0238655,0.04781421,-0.01289548,-0.01611546,0.7333283,-9.28365,2
6616502,5883,2.74,-4.34,-3.45,0.45,0.5,7.97,11.97,-0.3980205,0.02515326,-0.01031385,-0.207754,0.135561,-9.198633,2
6721681,5869,3.32,-7.13,-6.44,2.07,1.78,7.8,11.89,-0.6184141,0.3237128,0.01104186,-0.2246156,0.5690027,-9.094717,2
6836904,6084,3.23,-10.14,-10.24,3.9,4.58,7.53,11.62,-0.4974361,0.3343443,0.009214005,0.003802085,1.057037,-9.864336,2
6948887,6082,3.35,-11.61,-11.84,4.58,6.16,7.4,11.31,-0.08984312,0.1781719,-0.03685031,0.3041061,0.8574297,-9.545218,2
7049043,6198,3.28,-11.94,-11.93,4.66,6.19,7.38,10.94,-0.03029096,-0.06675629,-0.04594529,-0.03243287,0.9060919,-10.01422,2
7161452,6099,3.14,-11.56,-11.13,4.38,5.57,7.44,10.44,0.1283027,-0.08673946,-0.04271954,0.008382541,0.8733136,-9.703801,2
7269289,6069,3.15,-11.26,-10.27,4.27,4.7,7.46,9.97,0.06668526,-0.0343627,-0.08575663,-0.1771191,0.5757723,-9.509169,2
7382011,5980,3.08,-11.02,-10.06,4.24,4.64,7.47,9.2,0.05836975,0.1274192,0.00197373,-0.2526941,0.9376264,-10.27846,2
7487172,6103,3.07,-11.3,-9.84,4.41,4.77,7.43,8.78,-0.06350553,-0.02886533,0.04094632,0.0080256029999999,0.8548841,-9.94295,2
7707685,5908,3.42,-11.47,-10.68,4.64,5.26,7.39,8.86,-0.1035398,0.01587753,0.1211801,0.2335814,1.007675,-9.710351,2
7923501,6090,3.75,-11.18,-10.67,4.62,4.8,7.39,9.69,0.1218333,-0.03841985,0.2148083,-0.2567082,1.138657,-10.09763,2
8029707,6326,3.78,-10.96,-10.34,4.66,4.45,7.38,10.48,0.07416394,-0.05280719,0.1978769,0.3632069,1.104653,-9.975101,2
8136991,6258,3.59,-10.58,-9.77,4.94,4.39,7.33,11.2,0.08161002,0.09073203,0.1773235,0.3240117,1.252152,-9.717864,2
8255045,6307,3.7,-9.9,-9.27,4.89,4.25,7.34,11.69,0.09521763,-0.1009962,0.09962789,0.2370355,1.336707,-9.980472,2
8365579,6374,3.55,-8.85,-7.92,3.99,3.52,7.49,11.92,0.222822,-0.2517406,0.02816668,0.5474574,1.211392,-9.604833,2
8467896,6268,3.41,-8.32,-6.94,3.27,2.43,7.6,11.91,0.1297024,-0.1331674,0.04703953,0.2872962,1.251658,-9.844141,2
8578672,6236,3.52,-7.43,-6.5,1.8,0.85,7.8,11.95,0.03186157,-0.3565449,0.0515655,0.641054,1.349455,-10.31185,2
8691995,6424,3.79,-5.87,-5.4,0.59,-0.94,7.94,12.0,0.3417713,-0.2333646,-0.009828817,0.2162938,1.625406,-10.63721,2
8791046,6514,3.59,-5.15,-3.77,0.03,-1.73,8.0,12.01,0.3157005,-0.02105823,0.04230683,0.07899203,1.278759,-10.78494,2
8902252,6513,3.56,-4.68,-2.74,-0.07,-1.81,8.01,12.17,0.05351569,0.04013811,0.01833866,0.344433,1.16533,-11.05082,2
9011260,6442,3.68,-4.64,-2.48,0.17,-1.28,7.99,12.47,0.02695566,0.2115094,0.0734218,0.1553336,1.37742,-10.93077,2
9128983,6450,3.75,-4.76,-3.15,0.37,-0.46,7.97,12.92,-0.09764817,0.08438101,0.06391504,0.2315144,1.127757,-10.16238,2
9236976,6532,3.71,-5.0,-3.85,0.44,0.26,7.96,13.25,-0.1081228,0.1307577,0.06341392,0.6812669,1.076875,-10.21124,2
9341837,6455,4.11,-4.92,-4.71,0.37,0.56,7.97,13.63,-0.07970262,0.1309497,0.0890613,-0.009493486,1.0798,-10.01769,2
9450884,6621,3.78,-4.82,-5.04,0.17,0.55,7.99,13.72,0.05715769,0.01563575,-0.02848851,0.1283341,0.821358,-10.22244,2
9564039,6472,3.67,-4.59,-5.05,0.08,0.47,7.99,13.63,-0.03538392,0.1015567,-0.005127393,-0.1455546,0.7673882,-9.599626,2
9663015,6343,3.86,-4.32,-5.04,0.03,0.56,8.0,13.44,0.1000267,0.05171689,-0.051902,0.044404,0.9530742,-9.377514,2
9775990,6428,3.63,-4.19,-5.13,0.04,0.73,8.0,13.12,-0.02764791,0.08640884,-0.0618967,0.03993714,0.8068463,-9.609184,2
9889902,6433,3.96,-4.42,-5.07,0.45,1.65,7.97,12.76,0.03738733,0.2215592,-0.03360926,-0.04576115,0.7830082,-10.12062,2
9991450,6483,3.97,-4.49,-4.85,1.25,2.61,7.9,12.38,0.05879105,0.1204601,-0.0432731,-0.1316258,0.8703726,-10.38149,2
10111029,6391,3.68,-4.0,-4.75,2.67,4.13,7.79,11.85,0.02590718,0.1715472,-0.03291795,0.1824158,1.0147,-9.790163,2
10221845,6316,3.57,-3.0,-3.91,3.17,4.86,7.76,11.45,0.2280371,0.04685049,-0.04748905,-0.1825957,0.9947443,-10.22833,2
10332898,6460,3.6,-1.99,-2.78,3.36,5.17,7.75,11.35,0.1805336,-0.02871685,-0.003490944,0.04481535,0.8410185,-9.752527,2
10433739,6206,3.87,-1.12,-1.51,3.09,4.48,7.76,11.27,0.30147,-0.1882666,0.01299364,-0.1377362,0.8702013,-9.982527,2
10544295,6274,3.42,-0.68,-0.66,2.16,3.41,7.77,11.29,0.05678465,-0.3095727,-0.004250706,0.493788,0.9443641,-9.730033,2
10654186,6141,3.29,-0.68,-0.35,0.9,1.51,7.79,11.01,-0.04719192,-0.3074856,-0.03660367,0.1891695,0.8788049,-10.12083,2
10764719,6267,3.08,-1.02,-0.69,-0.78,-0.24,7.81,10.59,-0.1924683,-0.2633645,-0.0626023099999999,0.2753493,0.8209432,-9.333358,2
10874603,5996,3.39,-1.54,-1.58,-1.7,-1.8,7.83,10.36,-0.09901733,-0.1539037,-0.004541794,-0.1160538,1.054128,-9.471612,2
10986650,5963,3.56,-1.68,-2.56,-2.08,-2.57,7.84,10.23,-0.08463559,0.01221948,0.005968593,-0.3597651,1.18141,-9.009757,2
11085680,6170,3.49,-1.52,-2.72,-2.09,-2.34,7.84,10.28,0.08547221,0.1568585,0.06623622,-0.03191137,0.8711241,-9.445163,2
11203251,6128,3.45,-1.25,-2.32,-2.24,-1.4,7.85,10.78,0.06003438,0.2048958,0.0630225,0.1715509,0.8063359,-9.348906,2
11308244,6127,3.42,-1.08,-2.08,-2.68,-0.9,7.86,11.1,0.01030763,0.01953974,0.01114474,-0.3193356,0.762076,-9.79764,2
11416107,6083,3.71,-1.05,-2.14,-3.49,-1.11,7.87,11.38,-0.03052331,-0.1761239,0.001361585,-0.1054221,0.860864,-9.053725,2
11532989,6091,3.84,-1.24,-2.08,-4.28,-2.11,7.89,11.56,-0.05609032,-0.2421148,0.03116754,-0.1887667,0.7623773,-9.623024,2
11643005,6312,3.82,-1.25,-2.05,-4.65,-3.27,7.9,11.93,0.06500983,-0.1069571,0.05933918,-0.2383121,0.8309011,-9.331721,2
11756978,6297,3.87,-1.2,-1.89,-4.75,-3.6,7.9,12.27,0.02569952,-0.02219123,0.03837333,-0.04294662,0.6616172,-9.610253,2
11855982,6279,3.67,-0.76,-1.92,-5.07,-3.8,7.9,12.52,0.1378165,-0.03091162,0.003252184,0.03632707,0.75156,-9.544463,2
11972425,6355,3.56,0.53,-1.07,-6.33,-4.76,7.91,12.78,0.2890593,-0.1875171,-0.008520857,-0.2226644,0.7769832,-9.883195,2
12066196,6271,3.51,2.09,0.23,-8.07,-6.08,7.86,12.89,0.2740826,-0.3570589,-0.03534113,-0.04315496,0.8444484,-9.984357,2
12184470,6300,3.68,3.24,2.0,-9.32,-8.62,7.81,12.73,0.1579871,-0.3928756,-0.01883402,-0.1423505,0.9260535,-9.705622,2
12300882,6342,3.47,3.26,2.73,-9.47,-9.44,7.8,12.52,0.03563152,0.1233167,0.004772149,-0.5236188,0.9082462,-9.760774,2
12401444,6262,3.2,2.59,2.28,-8.92,-8.63,7.82,12.42,-0.1933801,0.1725768,-0.04612735,-0.3029445,0.6529043,-9.370618,2
12506356,6309,3.52,1.64,1.24,-8.06,-7.4,7.86,12.31,-0.2212441,0.2860245,-0.04777687,-0.3268327,0.724624,-9.470368,2
12618217,6029,3.61,0.65,-0.33,-7.23,-6.02,7.87,11.94,-0.2338569,0.2397476,-0.0654148299999999,-0.1668854,0.6329999,-9.48342,2
12835614,6045,3.66,-0.31,-2.5,-6.33,-4.46,7.88,10.6,-0.1675601,0.03628596,-0.1122911,-0.1685133,0.8563866,-9.251495,2
12944671,6139,3.41,-0.46,-2.56,-6.09,-4.2,7.87,9.63,0.00149938,0.04834245,-0.1098526,-0.6401271,0.7176737,-10.04668,2
13054889,6112,3.01,-0.59,-2.23,-5.82,-3.81,7.87,8.83,0.1653398,0.1527218,-0.1316395,-0.4631723,0.7379181,-9.865747,2
13279490,6090,3.08,-1.07,-2.24,-5.28,-3.12,7.86,8.57,-0.1317597,-0.07409839,0.02256417,-0.319412,0.6930214,-9.700052,2
13379244,5957,3.18,-1.44,-2.17,-5.05,-3.21,7.86,9.04,0.09241802,-0.000372509,0.0740783099999999,-0.36108,0.7907963,-9.499337,2
13494844,5958,3.11,-2.14,-2.5,-4.9,-3.12,7.86,9.55,-0.160041,0.012876,0.06253084,-0.4015643,0.8735771,-10.11635,2
13593844,5876,3.16,-2.85,-3.39,-5.7,-3.63,7.89,10.23,-0.2180386,-0.2179743,0.09544943,-0.3117589,0.8279138,-9.440588,2
13709093,5971,3.46,-3.31,-4.1,-7.08,-5.52,7.97,10.63,-0.06238583,-0.288548,-0.006199233,-0.3825658,0.7125537,-9.301602,2
13817220,5996,3.24,-3.39,-4.6,-8.27,-6.9,8.04,10.52,-0.1404355,-0.2026489,-0.01514077,-0.525484,0.7517834,-9.563273,2
13930584,6140,3.38,-3.37,-4.47,-8.94,-8.1,8.08,10.23,0.07314231,-0.2167634,-0.0715983,-0.5834308,1.003216,-9.654857,2
14041134,6116,2.97,-3.34,-4.07,-9.11,-8.14,8.09,9.68,0.145212,0.09727494,-0.09293126,-0.4651398,0.8982781,-9.89426,2
14142033,5997,2.72,-3.28,-3.88,-9.17,-7.71,8.09,9.09,0.0972645199999999,0.0845881,-0.07209057,-0.5699794,0.3712731,-9.770125,2
14251066,5903,3.06,-3.28,-4.12,-9.24,-7.52,8.1,8.68,0.07061712,-0.0919963,-0.1017197,-0.4994682,0.7514635,-9.822969,2
14473856,5964,3.03,-3.11,-3.58,-9.26,-7.78,8.1,7.9,-0.1062122,0.04227453,-0.02684232,-0.9766074,0.6690304,-10.10851,2
14572758,5827,2.98,-2.99,-3.27,-8.99,-7.83,8.08,7.78,-0.07411563,0.03473423,-0.02982481,-0.7047121,0.7007939,-10.27845,2
14692073,5805,3.03,-2.93,-3.07,-8.82,-7.98,8.07,7.42,-0.0624373,0.03415379,-0.08039249,-0.8700073,0.5605551,-10.04652,2
14792985,5729,2.96,-2.76,-3.02,-8.68,-7.95,8.07,6.92,0.07298154,0.05798987,-0.09283673,-1.03164,0.5377606,-9.516918,2
14912677,5829,2.79,-2.38,-3.08,-8.4,-7.64,8.05,6.25,-0.02250725,0.0995234599999999,-0.08322738,-0.8837983,0.5908753,-9.983809,2
15021475,5821,2.91,-1.99,-2.95,-8.14,-7.05,8.04,5.85,-0.04359674,0.09053344,-0.01939381,-0.778001,0.5488008,-9.719171,2
15121036,5673,2.94,-1.65,-2.75,-7.94,-6.45,8.04,5.8,0.0760043299999999,0.1342224,0.0110893,-0.7219216,0.4388963,-9.869306,2
15229274,5855,2.83,-1.35,-2.58,-7.86,-6.08,8.04,6.09,0.006580701,-0.0250208,0.08322758,-0.8367082,0.616878,-9.922695,2
15331844,5841,3.03,-1.0,-2.74,-7.96,-6.1,8.04,6.41,-0.04305042,-0.06465213,0.05835345,-0.8438484,0.564266,-9.777906,2
15440889,5786,2.88,-0.51,-2.95,-8.28,-6.0,8.04,6.77,-0.02858209,-0.03102234,0.04952665,-0.8612931,0.6021194,-10.00167,2
15562214,5858,2.89,0.05,-2.52,-8.53,-6.15,8.04,7.11,0.1566528,-0.01241867,0.04384454,-0.6295342,0.4503375,-9.757549,2
15660706,5730,3.16,0.46,-1.59,-8.6,-6.77,8.04,7.41,0.2269534,-0.1687891,0.06992278,-0.5985641,0.3895442,-9.983685,2
15770353,5861,3.14,0.92,-0.97,-8.52,-7.14,8.04,7.73,0.006740781,-0.02361661,0.06536134,-0.7460824,0.3871426,-9.824594,2
15874794,5928,3.09,1.2,-0.68,-8.35,-7.25,8.05,7.98,0.1518587,-0.01191106,0.02426166,-0.8018718,0.3770039,-9.783617,2
15987546,5965,3.07,1.35,-0.33,-7.82,-7.07,8.06,8.23,0.105308,0.06850936,0.02467137,-0.6229274,0.5521667,-9.89397,2
16105274,5855,2.96,1.32,-0.01,-7.25,-6.51,8.07,8.35,0.04788804,0.1485156,0.006082199,-0.6887211,0.4576824,-10.09513,2
16212234,5844,2.99,1.2,0.04,-6.65,-5.95,8.09,8.3,-0.01124655,0.1137785,-0.03982752,-0.6511216,0.4722096,-9.843674,2
16322070,5871,2.81,1.04,-0.07,-6.31,-5.47,8.09,7.88,-0.0473089,0.1190254,-0.1081171,-0.7215896,0.1897246,-10.09274,2
16423460,5857,2.52,0.77,-0.28,-6.66,-5.72,8.09,7.31,-0.0009998838999999,-0.1108691,-0.1038019,-0.5160755,0.4067954,-9.703979,2
16534887,5602,2.49,0.5,-0.75,-7.04,-6.19,8.08,6.58,-0.09407689,-0.05903852,-0.1331445,-0.6950663,0.2796791,-9.948586,2
16650217,5635,2.63,0.55,-0.9,-7.21,-6.74,8.08,5.56,0.004637592,-0.07674842,-0.1436219,-0.7313789,0.4940181,-9.754358,2
16760774,5704,2.63,0.49,-0.06,-6.13,-6.33,8.09,4.87,0.0238785,0.1806839,-0.04244503,-0.9602522,0.4350579,-9.881849,2
16871639,5601,2.17,0.27,0.37,-4.1,-3.96,8.11,4.66,0.05781086,0.4143967,-0.008591768,-0.7109626,0.6439759,-9.612385,2
16974882,5608,2.34,-0.2,0.47,-2.71,-1.89,8.11,4.79,0.0088710579999999,0.3018216,0.04818005,-0.6806343,0.6393155,-9.936691,2
17092210,5371,2.59,-1.11,0.14,-1.61,-0.73,8.1,5.21,-0.1758597,0.03644121,0.0606008,-0.5804315,0.4449174,-10.09344,2
17194513,5517,2.65,-1.79,-0.64,-1.26,-0.78,8.09,5.65,-0.1402481,-0.03188278,0.03784196,-0.9068245,0.8733692,-9.793095,2
17309481,5705,2.84,-2.64,-1.28,-1.18,-1.1,8.09,5.88,-0.09234749,-0.07168557,0.03772475,-0.8432564,0.5352936,-9.645292,2
17418252,5522,2.35,-3.22,-1.76,-1.48,-1.29,8.1,6.01,-0.003165549,-0.05053413,0.02474712,-0.8865217,0.8375978,-9.91167,2
17521729,5739,2.69,-3.89,-1.82,-1.95,-2.09,8.13,6.08,-0.01489484,-0.1329658,-0.01903212,-0.3677,0.7166309,-9.949669,2
17628657,5628,2.64,-4.45,-2.18,-2.06,-3.06,8.14,6.2,-0.04970968,-0.09903035,0.02486849,-0.6963166,0.6433333,-9.751564,2
17743697,5681,2.48,-5.02,-3.22,-2.26,-3.19,8.16,6.32,-0.2434078,-0.009507686,0.02909794,-0.3930489,0.6132834,-10.03069,2
17861210,5609,2.57,-5.3,-4.17,-2.22,-3.15,8.15,6.55,-0.005255624,-0.04577887,0.04288859,-0.3260018,0.8875406,-9.746696,2
17962578,5744,2.98,-5.38,-4.8,-1.97,-3.57,8.13,7.0,0.006119391,-0.1525561,0.08070403,-0.4441905,0.7894649,-9.467204,2
18082699,5854,2.8,-5.3,-5.18,-0.66,-2.95,8.0,7.32,-0.1334301,0.2623603,0.08252239,-0.5984871,0.5384826,-9.93078,2
18186318,5830,2.68,-5.16,-4.65,0.36,-1.65,7.91,7.52,0.3287115,0.1821864,0.05227454,-0.6045656,0.634442,-9.942099,2
18300267,5853,2.55,-5.01,-3.82,1.23,-0.44,7.83,7.69,0.2108526,0.205639,0.03844253,-0.492579,0.174201,-9.668138,2
18397740,5825,2.58,-4.85,-3.31,1.52,0.2,7.81,7.67,0.1112417,0.0123615,-0.01645824,-0.4151213,0.3756766,-9.903529,2
18504715,5772,2.35,-4.67,-3.03,1.58,0.56,7.8,7.49,0.1829345,0.0912623,-0.0789913,-0.6979225,0.4755168,-9.931407,2
18622048,5833,2.71,-4.49,-3.56,1.53,0.69,7.81,7.18,-0.2496642,-0.008556776,-0.02422232,-0.6432391,0.5510665,-10.35051,2
18733905,5886,2.84,-4.17,-4.39,1.43,0.44,7.81,7.03,-0.1840746,-0.04239092,-0.02178333,-0.4496099,0.6010737,-9.934691,2
18841710,5894,2.77,-3.99,-4.2,1.27,0.55,7.83,6.84,0.2058387,-0.02038945,-0.01695931,-0.5360763,0.4282529,-10.06831,2
18945170,5845,3.02,-3.55,-3.97,1.09,0.32,7.84,6.64,0.143293,-0.06197959,-0.05661292,-0.3486444,0.4528368,-10.15946,2
19055110,5917,3.01,-2.77,-4.18,0.87,-0.06,7.85,6.21,-0.07358199,-0.02241841,-0.1026161,-0.7568946,0.5261043,-9.809134,2
19280262,5981,2.84,-1.11,-3.38,-1.08,0.1,7.9,5.37,0.2104772,-0.308774,0.00151259,-0.400581,0.5335358,-9.908364,2
19384812,5591,2.84,-0.73,-1.95,-2.53,-2.05,7.93,5.72,0.1773639,-0.3659696,0.0654431,-0.5151159,0.6226701,-9.893284,2
19494981,5733,2.98,-0.72,-0.59,-3.57,-4.12,7.94,6.33,0.1277338,-0.2411861,0.1144696,-0.6401976,0.604598,-10.21217,2
19607761,5854,3.07,-1.0,-0.51,-3.81,-5.33,7.94,7.05,0.07121058,-0.03685503,0.1066989,-0.603602,0.5830384,-9.747478,2
19716148,5832,3.11,-1.71,-1.04,-3.57,-5.29,7.94,7.88,-0.1264704,0.1494049,0.134777,-0.615141,1.029695,-9.676054,2
19827045,5889,3.06,-2.41,-0.99,-3.17,-4.49,7.92,8.76,0.0962167699999999,0.1264742,0.1520506,-0.5577938,0.7018552,-9.834167,2
19935778,5970,3.31,-2.72,-1.12,-2.76,-3.8,7.9,9.59,0.07356723,0.1787126,0.1400604,-0.5027688,0.8302366,-9.957724,2
20144872,6102,3.37,-3.08,-1.47,-0.5,-1.91,7.79,10.95,-0.1391168,0.2343605,0.1081164,-0.3566825,0.4503738,-9.586443,2
20254783,6205,3.53,-3.01,-2.37,0.29,-0.32,7.74,11.51,-0.07602803,0.2009773,0.07028685,-0.2204404,0.6864443,-9.625329,2
20366898,6262,3.6,-2.83,-3.01,0.66,0.56,7.72,11.83,0.07654044,0.1063171,0.05417991,-0.3648779,0.6900011,-9.714642,2
20476801,6358,3.91,-2.25,-3.32,0.6,0.67,7.73,12.06,-0.03780619,0.04762224,0.03890197,-0.3212236,0.5165691,-9.629162,2
20581118,6484,3.86,-0.2,-2.24,0.62,0.01,7.73,11.93,0.2807773,-0.1232364,-0.04635617,-0.3089436,0.6331601,-9.416636,2
20799132,6463,3.29,4.91,4.31,0.77,-0.89,7.74,10.74,0.4348945,0.02345181,-0.08631849,-0.4786769,0.4487416,-10.27988,2
20910610,6310,3.36,6.65,6.38,0.92,-0.67,7.75,10.09,0.1805626,0.01420811,-0.1047894,-0.4391073,0.4220939,-9.863627,2
21016072,6259,3.17,7.85,7.42,0.97,-0.16,7.76,9.52,0.1574168,0.05598472,-0.07045173,-0.4103712,0.4414315,-9.963673,2
21118688,6100,3.02,8.45,7.7,0.86,0.15,7.74,8.95,-0.0199622,-0.02576855,-0.07238545,-0.4172224,0.2077355,-9.880894,2
21232333,6097,3.19,8.44,7.24,0.52,0.33,7.69,8.51,-0.01459668,0.009812902,-0.0717077899999999,-0.2603638,0.204015,-9.784845,2
21344048,6041,3.12,8.42,6.42,0.12,0.31,7.63,8.2,-0.1954005,-0.01870314,-0.03466029,-0.4703977,0.2102884,-10.07708,2
21445700,5847,3.09,8.46,6.18,-0.24,0.02,7.58,7.87,0.0015412,-0.05414585,-0.05515013,-0.288827,0.2148364,-9.62602,2
21559300,5955,3.05,8.55,6.14,-0.66,-0.25,7.51,7.54,-0.004488248,-0.04145794,-0.05224629,-0.4484073,0.1649897,-9.751822,2
21667785,5907,3.15,8.37,6.25,-1.02,-0.63,7.46,7.23,0.08261058,-0.09941451,-0.05819036,-0.2476076,-0.04967901,-9.315675,2
21775480,5754,3.22,7.34,5.63,-1.23,-1.17,7.43,6.85,-0.1503711,-0.05737532,-0.03012752,-0.5272637,-0.1168837,-9.572631,2
21886716,5884,3.1,6.29,3.71,-1.37,-1.09,7.41,6.47,-0.3850787,0.05402447,-0.05649625,-0.5051087,-0.07840624,-9.658328,2
21986082,6009,3.0,5.99,2.27,-1.6,-0.81,7.39,6.06,-0.05008258,-0.004010687,-0.09129608,-0.1450821,0.109709,-9.490365,2
22094030,5770,2.83,5.83,2.13,-1.72,-1.13,7.38,5.4,0.004854992,-0.1059365,-0.1093324,-0.394856,-0.02933333,-9.558201,2
22205790,5755,2.72,4.73,2.03,-1.89,-1.74,7.36,4.88,-0.1580956,-0.1269255,-0.07255576,-0.3843395,-0.3069574,-9.949987,2
22311871,5738,3.18,3.69,0.72,-1.97,-2.02,7.35,4.89,-0.1992161,-0.01109585,0.02962335,-0.3532998,0.1486972,-9.552901,2
22419406,5882,2.97,2.74,-0.2,-2.02,-2.05,7.35,5.34,-0.02978893,0.02811811,0.09742264,-0.260814,-0.02623469,-9.51807,2
22538203,5738,3.31,2.09,-0.68,-1.92,-2.13,7.35,6.27,-0.002665584,-0.04855471,0.1590202,-0.4434882,0.1026584,-9.38536,2
22636680,5989,3.5,1.82,-0.86,-1.82,-2.29,7.36,7.09,0.04361968,0.01451601,0.1495719,-0.2285922,-0.02893988,-9.6305,2
22752792,6154,3.6,1.66,-0.77,-1.74,-2.41,7.36,7.96,0.1321459,-0.001733767,0.1064021,-0.3671734,0.05040624,-9.555442,2
22853647,6126,3.41,1.5,-0.5,-1.6,-2.17,7.36,8.56,0.1461744,0.03308215,0.100716,-0.4935894,0.1267497,-10.07783,2
23074230,6027,3.44,0.75,0.05,-1.32,-1.53,7.37,8.75,-0.04088038,0.02355526,-0.02383832,-0.3643067,0.4126509,-9.842671,2
23182034,6018,3.54,0.04,0.43,-1.11,-1.8,7.37,8.37,0.08666327,0.07137979,-0.06840435,-0.6085627,0.3212134,-10.15434,2
23294252,6086,3.35,-0.96,0.16,-0.72,-1.67,7.37,7.79,-0.159632,0.1243114,-0.08224366,-0.4023094,-0.0199242,-9.595795,2
23402243,6112,3.33,-3.33,-1.44,0.4,-0.77,7.32,7.22,-0.3583228,0.1771034,-0.0996364899999999,-0.1307642,-0.0328158,-9.804171,2
23507483,6070,3.24,-6.09,-4.48,1.85,0.52,7.21,6.73,-0.6487113,0.2317784,-0.06065853,-0.4304632,0.297117,-10.00806,2
23617768,6003,3.34,-8.09,-7.8,2.77,2.03,7.09,6.25,-0.4279901,0.2108125,-0.05892513,-0.2941898,0.7067962,-10.02704,2
23725289,6071,3.36,-8.64,-8.93,2.99,2.7,7.06,6.06,-0.05375364,-0.02075046,-0.009064406,-0.2656408,0.673194,-10.26701,2
23844575,6076,3.09,-8.26,-7.65,2.77,2.47,7.09,6.16,0.2236034,-0.0740358,0.005832694,-0.1779278,0.5368053,-10.49908,2
23948451,6002,3.18,-7.65,-6.24,2.44,1.92,7.14,6.44,0.2215977,-0.04390095,0.06143445,-0.08364766,0.4616187,-9.778671,2
24066488,6066,3.22,-7.26,-4.9,2.06,1.2,7.19,6.82,0.0889931499999999,-0.03058711,0.07349606,-0.2662003,0.2833881,-10.06648,2
24166496,6123,3.21,-7.12,-4.39,1.83,0.86,7.22,7.33,0.1261892,-0.06664666,0.1268784,-0.1713316,0.5710023,-10.22244,2
24272672,6015,3.28,-7.15,-4.33,1.83,0.61,7.22,8.15,-0.0190479,-0.02001861,0.1522622,-0.08336225,0.5606757,-9.987606,2
24380743,6103,3.59,-7.32,-4.42,1.93,0.61,7.2,9.29,0.02121383,0.05646094,0.2120998,-0.2798627,0.4918835,-9.805412,2
24497099,6191,3.62,-7.39,-4.6,1.97,0.92,7.2,10.44,0.05313137,-0.08025517,0.1658571,0.1679241,0.6607929,-9.367016,2
24607215,6329,3.76,-7.35,-4.87,1.95,0.82,7.2,11.41,-0.02134006,-0.1521362,0.152497,-0.110388,0.6949757,-9.709419,2
24714076,6415,3.8,-7.31,-4.62,1.81,0.56,7.22,11.99,0.06234229,-0.03922379,0.05382254,-0.156782,0.4590827,-10.02065,2
24823783,6438,3.93,-7.1,-4.54,1.69,0.44,7.23,12.06,-0.03258533,-0.125721,-0.02651634,-0.02798641,0.5019624,-9.663589,2
24939894,6384,3.74,-6.79,-4.77,1.69,0.48,7.23,11.53,-0.02011424,0.03434624,-0.1434452,-0.08758771,0.6562685,-9.659828,2
25164724,6516,3.09,-6.46,-4.54,1.26,1.21,7.28,9.7,0.01511522,0.08213671,-0.150124,0.0232851,0.5164329,-10.03025,2
25267179,6118,3.32,-6.19,-4.33,0.92,1.12,7.32,9.1,0.008007247,0.05203651,-0.0686042199999999,-0.1933571,0.6800507,-9.695923,2
25378120,6178,3.27,-5.9,-4.04,0.48,0.69,7.37,8.72,0.04750771,-0.138944,-0.03828178,-0.0785105,0.5955909,-9.770046,2
25485214,6101,3.18,-5.65,-3.84,0.15,0.23,7.4,8.75,-0.01065796,-0.06565815,0.03903117,0.1233101,0.5702178,-9.552319,2
25596226,6195,3.61,-5.35,-3.95,0.02,-0.34,7.41,9.18,-0.06630374,-0.2094326,0.07194969,-0.1438149,0.5245638,-10.12011,2
25710319,6315,3.77,-5.03,-3.98,0.13,-0.91,7.4,9.94,0.02548589,-0.1695406,0.1306142,-0.1232751,0.808326,-9.657438,2
25811262,6339,4.0,-4.74,-3.63,0.47,-1.37,7.38,10.5,0.06760797,-0.03397093,0.08785421,-0.02232193,0.592365,-9.969573,2
25918282,6481,3.76,-4.39,-3.37,1.0,-1.55,7.33,10.73,-0.007426922,0.05023188,-0.0093277529999999,-0.1493868,0.5134886,-9.817619,2
26027072,6395,3.29,-4.22,-2.62,1.29,-0.53,7.31,10.57,0.08472805,0.3472335,0.005966887,-0.02094432,0.6630902,-9.981515,2
26137700,6296,3.06,-4.14,-2.3,1.5,0.57,7.3,10.44,-0.03234657,0.1197191,-0.0346721,0.1698322,0.5208579,-9.29072,2
26258019,6219,3.22,-4.21,-2.25,1.42,1.06,7.3,9.93,-0.0633716099999999,-0.01174808,-0.09306214,-0.2418672,0.9999928,-10.09187,2
26358143,6266,2.94,-4.44,-2.34,1.1,0.9,7.33,9.42,-0.1224422,0.005692445,-0.0672453799999999,-0.004646713,0.5995411,-9.434973,2
26467995,6186,3.11,-4.6,-2.92,0.67,0.35,7.36,8.59,-0.06759224,-0.015012,-0.13803,-0.224118,1.014661,-9.578966,2
26571259,6037,3.0,-4.75,-3.21,0.33,-0.15,7.39,7.89,-0.07493631,-0.1037543,-0.09900694,-0.266782,0.6401028,-9.702816,2
26685284,5865,2.94,-4.71,-3.43,0.09,-0.38,7.41,7.46,-0.1033103,-0.07739677,-0.06556958,-0.2761717,0.7081295,-9.380857,2
27016495,5960,3.15,0.88,2.48,-0.6,-0.39,7.43,7.5,0.3253519,0.008632407,0.01742375,-0.01687028,0.6220477,-10.207,2
27117627,6098,3.14,1.71,3.94,-0.8,-0.97,7.43,7.54,0.1322068,-0.1368482,0.01014212,-0.1681885,0.36921,-9.955194,2
27228236,6021,3.36,2.36,4.12,-0.96,-1.31,7.42,7.53,0.03306564,0.004704876,-0.01790041,-0.2033568,0.4557791,-9.843478,2
27338744,6159,3.15,2.71,3.36,-1.35,-0.49,7.4,7.41,-0.09462734,0.2020146,-0.04776381,-0.1676774,0.8666155,-9.693018,2
27448992,6000,3.22,2.93,3.13,-1.74,0.0,7.38,7.31,0.0443028,0.03348595,0.001294771,-0.3621874,0.8159869,-10.1384,2
27560675,6018,3.14,3.08,2.79,-2.37,0.17,7.35,7.41,0.04303521,-0.0964018,0.0221434,-0.07021735,0.6765354,-9.94809,2
27669651,6080,3.02,2.31,2.53,-2.94,-0.69,7.32,7.45,-0.2062877,-0.1787966,0.01599047,-0.189472,0.4465639,-10.35538,2
27776264,6029,3.36,0.28,0.95,-3.21,-2.23,7.32,7.53,-0.3521346,-0.3211553,0.002369531,-0.4701815,0.2770006,-9.607168,2
27889510,6142,3.41,-1.48,-2.38,-3.3,-2.96,7.32,7.77,-0.5034668,-0.02310243,0.01327488,-0.2873182,0.779092,-10.16506,2
28003561,6150,3.35,-2.41,-4.61,-3.13,-3.08,7.31,8.14,-0.2639426,0.03807085,0.04425864,-0.04799006,0.6148224,-9.400035,2
28105976,6218,3.36,-2.36,-5.18,-2.91,-2.83,7.3,8.48,-0.09022829,0.0122586,0.05715067,-0.1525752,0.3967568,-9.630481,2
28215073,6097,3.44,-1.88,-4.73,-2.61,-2.38,7.29,8.85,0.1045933,0.01647063,0.06578849,-0.2186843,0.5630351,-9.509055,2
28326851,6068,3.54,-1.26,-3.56,-2.38,-2.11,7.28,9.15,0.2070094,0.07538322,0.03975593,-0.1303265,0.2469329,-9.976083,2
28436795,6043,3.65,-0.66,-2.71,-2.14,-2.22,7.28,9.2,0.0626798799999999,0.04390365,-0.03382925,-0.1980918,0.3133506,-9.601537,2
28545512,6072,3.42,1.19,-1.17,-1.94,-2.02,7.28,9.02,0.5583789,0.09155077,-0.0451287,-0.03485804,0.7371858,-9.586792,2
28655088,6220,3.48,3.07,1.44,-1.73,-1.67,7.29,8.71,0.3981083,0.09408861,-0.04799694,-0.1986016,0.5227205,-10.18712,2
28758114,6144,3.21,4.21,3.52,-1.54,-1.48,7.3,8.42,0.3012043,0.07555557,-0.02860538,-0.2372914,0.3347509,-9.96905,2
28874488,6277,3.4,4.73,4.47,-1.51,-1.28,7.3,8.27,0.06488423,-0.01281633,0.01837847,-0.2279596,0.3035344,-10.32021,2
28986774,6193,3.73,4.4,4.26,-1.34,-1.54,7.32,8.47,-0.0423529,0.01701376,0.03514937,-0.1786738,0.2399754,-9.929046,2
29094880,6142,3.92,3.72,3.2,-1.09,-1.63,7.33,8.9,-0.2248694,0.03230786,0.09695607,-0.001230913,0.1609951,-9.721098,2
29205717,6288,3.99,2.68,2.07,-0.62,-1.76,7.36,9.38,-0.1143763,-0.02185988,0.07874544,-0.03777139,-0.01876518,-9.878695,2
29317099,6408,4.3,0.97,-0.12,-0.04,-1.58,7.38,10.17,-0.3333339,0.0001331577,0.1309084,-0.05463255,0.3484751,-9.905828,2
29418715,6527,4.22,0.1,-1.22,0.48,-0.97,7.38,10.68,-0.02992209,0.06439821,0.0903842599999999,0.08052043,0.4350708,-9.789377,2
29538766,6514,4.2,-0.34,-1.76,1.2,-0.35,7.38,11.07,0.08932713,-0.07448853,0.0672746699999999,-0.003938293,0.4444036,-9.967018,2
29647716,6512,4.0,-0.37,-1.66,1.79,0.22,7.38,11.33,0.08980027,0.2505948,0.03692508,-0.02548343,0.3283443,-9.927159,2
29757023,6488,3.76,-0.43,-0.91,2.15,0.64,7.37,11.27,0.2306514,-0.003469963,-0.04350916,0.02082369,0.2483748,-9.44364,2
29855574,6369,3.51,-0.64,-0.41,2.28,0.92,7.37,10.61,0.06089349,0.007276329,-0.1722891,0.1806995,0.3669998,-9.358047,2
29971528,6331,3.42,-1.08,-0.32,2.37,0.98,7.37,9.47,-0.017229,-0.01776215,-0.1883851,-0.07647008,0.3753098,-9.721722,2
30071093,6348,3.31,-1.6,-0.7,2.4,1.14,7.37,8.51,-0.01257583,0.05068018,-0.1658439,0.11619,0.2766839,-9.508451,2
30180892,6059,3.21,-2.09,-1.42,2.48,1.45,7.37,7.62,-0.14442,0.04892986,-0.1352135,-0.1498933,0.4012438,-9.874654,2
30296172,6084,3.24,-2.45,-1.99,2.54,1.6,7.37,6.72,-0.04350178,-0.08162094,-0.1582673,0.1211657,0.158666,-9.780378,2
30402054,5975,2.98,-3.78,-3.35,2.56,1.54,7.37,5.94,-0.2656942,-0.03798888,-0.1173463,0.3268524,0.02673862,-9.658722,2
30504845,5868,3.01,-5.59,-5.28,2.43,1.59,7.38,5.39,-0.2987666,0.02017521,-0.0695134,-0.1571997,0.5389068,-9.70486,2
30614403,5834,3.36,-5.38,-6.86,2.28,1.42,7.39,4.96,-0.005421648,-0.02497336,-0.06330249,0.05121741,0.8954375,-10.0921,2
30721778,5988,2.93,-3.22,-4.26,2.15,1.03,7.4,4.65,0.7180274,-0.05993022,-0.04746423,0.1802327,0.64151,-9.647367,2
30830012,6047,2.74,-1.38,-0.53,2.02,0.98,7.41,4.61,0.5839246,0.01700649,0.0356589,-0.09734134,0.316604,-10.21073,2
30940988,5919,2.96,-0.21,2.02,1.97,1.16,7.41,5.06,0.2354091,-0.002424248,0.1159731,0.09208419,0.06599879,-9.967485,2
31048472,6003,3.18,0.21,2.82,2.01,1.4,7.41,5.78,0.06152612,0.08169949,0.1363027,0.2630215,0.245262,-10.21462,2
31159351,6058,3.48,0.1,2.3,2.09,1.28,7.41,6.5,-0.1420786,0.04397384,0.08575808,-0.03794091,0.4306061,-10.12507,2
31268887,6098,3.54,0.01,1.23,2.08,1.15,7.41,6.96,-0.1048029,0.0197854,0.04516714,0.2435974,0.4664499,-9.895688,2
31381867,6262,3.37,0.04,0.23,2.09,1.03,7.41,7.41,-0.1412361,0.01172598,0.0715276,0.05261828,0.5707881,-9.918777,2
31488793,6178,3.27,0.26,0.31,1.96,1.41,7.41,7.57,-0.02157724,0.03666836,0.02478586,0.1360381,0.5914503,-9.741896,2
31598464,6033,3.53,0.85,0.57,1.78,1.72,7.41,7.51,0.03900782,0.08292904,-0.01836781,0.05866406,0.429655,-9.728172,2
31708266,6097,3.49,1.38,0.96,1.52,1.52,7.4,7.19,0.002783561,-0.07855373,-0.02473239,0.05644121,0.5126151,-9.79917,2
31813256,6056,3.35,1.56,1.45,1.19,1.15,7.39,6.8,-0.02570376,-0.06371889,-0.06813493,-0.006084997,0.4600413,-9.858064,2
31925972,6032,3.34,1.73,1.67,0.78,0.74,7.38,6.39,0.03146584,0.01146623,-0.05623483,0.1399988,0.2439992,-9.832945,2
32030870,6127,3.46,1.84,1.45,0.4,0.49,7.37,6.2,-0.04436757,-0.09043921,-0.01334604,0.0419469,0.5915471,-9.859712,2
32151541,6085,3.46,1.93,1.37,0.17,0.07,7.36,6.15,0.04712885,-0.1414583,0.006135846,0.1870773,0.2845519,-9.746625,2
32260825,6085,3.38,2.07,1.31,0.02,-0.31,7.36,6.2,-0.05336006,0.05046381,0.02984501,-0.1417513,0.3836456,-9.993056,2
32361801,6078,3.33,2.25,1.27,-0.12,-0.05,7.35,6.32,0.01375515,0.05533397,0.02646963,0.07509463,0.3966589,-9.922854,2
32474576,6015,3.57,2.49,1.28,-0.24,0.29,7.35,6.5,0.1328807,0.02234149,0.0241085,0.1447368,0.3805487,-9.751701,2
32577892,6034,3.33,2.59,1.4,-0.37,0.38,7.34,6.65,0.01333301,0.05495269,0.03576462,0.1587395,0.3699802,-10.0143,2
32792013,6100,3.52,2.81,1.76,-0.66,-0.02,7.33,6.93,0.02032758,-0.102277,0.01961499,-0.02697705,0.241436,-9.979139,2
32906113,6172,3.68,2.91,1.95,-0.65,-0.35,7.33,7.09,-0.01766974,0.02339608,0.04887093,-0.03181622,0.2082041,-9.815738,2
33018791,6036,3.6,3.03,1.81,-0.67,-0.42,7.33,7.31,-0.1417301,0.03723936,0.02650717,-0.1469072,0.4907442,-10.0164,2
33134133,6157,3.51,3.17,2.09,-0.68,-0.28,7.32,7.53,0.05356035,0.03960719,0.02867681,0.03302021,0.3559404,-9.793445,2
33230287,6155,3.51,3.17,2.23,-0.77,-0.13,7.32,7.71,0.02063066,-0.007402419,0.03104295,-0.008392525,0.3265764,-9.809215,2
33341503,6025,3.48,3.17,2.25,-0.95,-0.06,7.31,7.86,0.01537482,0.02601119,0.03632254,-0.05455539,0.3102353,-9.780823,2
33447684,6142,3.6,3.03,1.93,-1.21,-0.15,7.3,7.93,-0.07420871,-0.06282871,0.01378422,0.1762113,0.2697633,-9.688777,2
33558019,6161,3.5,2.13,1.38,-1.39,-0.39,7.29,7.94,-0.08721849,-0.02523948,-0.0168888,-0.08206993,0.2021617,-9.812169,2
33669082,6255,3.95,0.02,-0.75,-1.46,-0.57,7.29,7.96,-0.568839,-0.009901422,0.02481304,0.1094818,0.1892632,-9.477103,2
33772784,6244,3.91,-1.2,-2.94,-1.43,-0.82,7.29,8.03,-0.3418689,-0.06549356,0.006954351,-0.07345435,0.2886029,-9.677884,2
33881100,6395,3.75,-1.95,-4.18,-1.32,-0.9,7.28,8.26,-0.06995587,0.0009576473,0.04169758,-0.05460025,0.2942989,-9.980859,2
33990084,6343,3.74,-2.01,-4.38,-1.19,-1.04,7.28,8.52,0.03524319,-0.1343532,0.01599681,-0.02736999,0.3305472,-10.07483,2
34098196,6370,3.62,-1.78,-3.72,-1.14,-0.98,7.28,8.68,0.1127829,-0.003090381,0.01547528,-0.3996203,0.4255866,-10.11088,2
34208563,6319,3.64,-1.36,-3.01,-1.11,-0.78,7.27,8.83,0.06881829,-0.01251101,-0.01022307,0.0476861,0.4918046,-9.524822,2
34323747,6201,3.59,0.27,-1.05,-1.04,-0.65,7.27,8.76,0.4089767,0.06480954,-0.04442896,-0.02022179,0.3352157,-9.228932,2
34429306,6203,3.21,1.65,1.25,-1.05,-0.39,7.27,8.67,0.4271,0.1330765,0.01609956,-0.1274831,0.1239517,-9.826386,2
34648886,6098,3.45,2.13,3.07,-1.26,-0.35,7.27,8.46,-0.001635058,0.02458351,0.009251006,-0.1643589,0.1878751,-10.03441,2
34754986,6076,3.35,1.04,1.56,-1.42,-0.53,7.26,8.22,-0.3288687,-0.03231343,-0.05574321,-0.1665417,0.232753,-9.782985,2
34863858,6200,3.67,-0.78,-0.94,-1.54,-0.77,7.26,7.99,-0.5164852,-0.009110623,-0.06855881,-0.2088914,0.1931429,-9.941437,2
34969217,6212,3.55,-1.79,-2.9,-1.63,-0.97,7.26,7.71,-0.3071847,-0.01432284,-0.0472278,-0.1779549,0.3584276,-9.739202,2
35087999,6110,3.5,-2.22,-4.09,-1.77,-1.05,7.27,7.19,-0.001779309,-0.0172419,-0.09002485,-0.1081169,0.2925006,-9.703359,2
35199779,6244,3.42,-2.09,-4.12,-1.77,-1.1,7.27,6.74,-0.01217317,-0.005354819,-0.07116349,-0.2296771,0.4321827,-9.937185,2
35308696,6110,3.39,-1.78,-3.28,-1.78,-0.99,7.27,6.38,0.1043397,0.01425999,-0.04635229,-0.1041455,0.2459858,-9.66246,2
35405258,6058,3.21,-1.75,-2.52,-1.72,-1.04,7.27,6.18,0.1041351,-0.0805889999999999,-0.01552126,-0.2967265,0.2973922,-10.05251,2
35515242,6128,3.36,-2.11,-2.22,-1.65,-1.0,7.26,6.12,0.01349131,0.01339451,0.002774456,-0.207037,0.3281068,-10.27489,2
35635250,6136,3.33,-3.15,-2.38,-1.55,-1.04,7.26,6.25,-0.02287689,-0.0138733,0.01291827,-0.01021536,0.1376298,-9.891107,2
35739743,6065,3.33,-4.1,-3.14,-1.38,-1.02,7.25,6.45,-0.1140681,0.08861028,0.02126756,-0.2621947,0.3546048,-10.40257,2
35846378,6165,3.57,-4.89,-4.31,-1.33,-1.04,7.24,6.77,-0.153212,0.01983687,0.06161425,0.01006558,0.4330964,-9.786899,2
35958110,6103,3.58,-5.41,-4.64,-1.17,-1.27,7.23,7.12,-0.07412953,-0.02324951,0.03655371,-0.1208839,0.5175467,-10.11457,2
36054861,6284,3.5,-5.67,-4.48,-1.02,-1.31,7.22,7.32,0.006119177,0.01167751,0.03036267,-0.1097121,0.5361968,-10.12798,2
36164106,6230,3.38,-5.98,-4.32,-0.8,-1.13,7.19,7.54,-0.02762562,0.1272468,0.05216898,-0.2941804,0.2869987,-9.994712,2
36277548,6325,3.54,-6.36,-4.5,-0.69,-0.61,7.18,7.74,-0.03866668,0.1445626,0.03260915,-0.1215481,0.3845306,-10.10128,2
36389722,6172,3.43,-6.6,-4.82,-0.6,-0.25,7.17,7.96,0.009136076,-0.006781823,0.0174163,-0.0771045,0.5672177,-9.677938,2
36610749,6052,3.6,-6.83,-5.33,-0.52,-0.44,7.16,8.46,-0.07510209,-0.08836105,0.03065959,0.04676778,0.5500472,-10.01976,2
36714487,6263,3.52,-6.86,-5.2,-0.44,-0.43,7.15,8.6,0.107781,0.06303815,0.005593578,-0.2346335,0.320423,-9.914811,2
36822881,6158,3.55,-6.74,-5.56,-0.29,-0.24,7.13,8.71,-0.007607761,0.04584289,-0.0310555,-0.1600531,0.4636881,-9.795469,2
36924477,6185,3.55,-6.67,-5.5,-0.19,0.06,7.12,8.61,0.1190798,0.04086579,-0.0248119,0.004661016,0.5494649,-9.595934,2
37035922,6179,3.5,-6.44,-5.54,-0.27,0.34,7.13,8.42,-0.05546942,-0.03848781,-0.03265826,-0.1726461,0.598085,-9.947482,2
37252677,6101,3.49,-4.75,-3.67,-0.68,0.22,7.17,8.13,0.0548912,-0.1327668,-0.0097344089999999,-0.04674872,0.4547414,-9.937753,2
37353986,6126,3.72,-4.37,-3.02,-0.57,-0.07,7.16,8.18,0.02016423,-0.04218227,0.003844781,-0.3612429,0.4864616,-9.841198,2
37465068,6120,3.76,-4.22,-2.8,1.29,0.88,7.02,8.27,0.004451438,0.3912559,0.03488499,-0.1812395,0.4451824,-9.717084,2
37577725,6385,3.34,-4.22,-2.74,3.64,3.53,6.85,8.26,-0.09540901,0.3937361,0.03002272,-0.0836354,0.4642955,-10.02776,2
37785265,6241,3.76,-4.22,-2.66,6.52,7.08,6.63,8.07,-0.02310892,0.134024,-0.03476201,0.2345101,0.2553928,-9.439746,2
38005692,6160,3.74,-4.15,-2.86,7.02,6.96,6.6,7.8,0.04417179,-0.1155522,-0.005103961,-0.2606992,0.59437,-9.867737,2
38115695,6253,3.75,-4.02,-2.96,7.07,6.92,6.59,7.76,0.1085763,-0.06152504,-0.0320105,-0.07359871,0.4917895,-9.870858,2
38223226,6201,3.77,-3.84,-2.85,7.26,6.78,6.58,7.74,0.06827711,-0.02390221,0.01032118,0.01613051,0.3845913,-10.10203,2
38332478,6234,3.87,-3.61,-2.82,7.38,6.63,6.57,7.79,-0.021851,0.0005520813,0.005171064,0.1355923,0.7037671,-10.13724,2
38440641,6300,3.86,-3.41,-2.64,7.34,6.6,6.58,7.75,-0.0964794,0.02369415,-0.007799853,-0.04045608,0.5397115,-9.852535,2
38555017,6316,3.7,-3.21,-2.55,7.4,6.45,6.57,7.72,0.09394455,-0.0670051,-0.009362156,-0.03893014,0.6731298,-9.723875,2
38661462,6469,3.84,-3.19,-2.34,7.41,6.27,6.57,7.74,0.1143239,0.03667901,-0.002075888,0.06376179,0.2594971,-9.751272,2
38768801,6276,3.65,-3.13,-2.38,7.32,6.3,6.58,7.74,0.02565872,0.1054267,-0.02029555,0.3719306,0.6103481,-9.682963,2
38879466,6353,3.64,-3.18,-2.34,7.26,6.06,6.58,7.67,0.01304081,0.100961,-0.02942536,0.174723,0.2933499,-9.898255,2
38988443,6278,3.6,-3.19,-2.54,7.19,5.92,6.58,7.6,-0.02936141,0.04020552,-0.02018791,0.005061455,0.5709671,-9.977815,2
39098131,6172,3.78,-3.14,-2.79,7.15,6.09,6.59,7.66,0.1152681,0.09280983,0.03905983,0.1646669,0.7688559,-9.918094,2
39209223,6416,3.95,-3.12,-2.72,6.95,5.98,6.6,7.66,-0.0030817,-0.1267633,-0.03372747,0.223357,0.4784275,-9.51663,2
39315960,6268,3.94,-2.91,-2.83,6.95,5.43,6.6,7.5,0.054547,-0.1581171,-0.03977745,0.2618573,0.5219874,-9.50351,2
39423070,6218,3.75,-2.63,-3.14,6.77,5.48,6.61,7.25,-0.07707619,0.1377555,-0.02851166,0.1912723,0.5720888,-9.48985,2
39533937,6398,3.75,-2.36,-2.66,6.63,5.61,6.61,6.85,0.1516499,0.07266185,-0.06995256,0.02591533,0.6084545,-10.05886,2
39643010,6364,3.46,-2.21,-1.95,6.47,5.69,6.62,6.54,0.1209589,0.02269222,-0.03810015,0.08324942,0.4442061,-10.19828,2
39754541,6122,3.16,-2.24,-1.11,6.21,5.51,6.63,6.32,0.1069525,-0.1395444,-0.03730198,0.05429308,0.6442952,-9.808101,2
39963488,6070,3.3,-2.72,-1.95,5.66,4.86,6.65,5.73,-0.0567501,0.0209698,-0.06882496,0.1662509,0.6492074,-9.450126,2
40081770,6062,3.13,-2.92,-2.61,5.28,4.51,6.67,5.25,-0.114455,-0.03548171,-0.07249984,0.1903241,0.7497973,-9.92161,2
40185796,6096,3.16,-2.95,-2.38,4.85,4.3,6.69,4.73,-0.04112405,-0.02995307,-0.06132526,0.1559609,0.6590658,-9.835013,2
40297088,5927,3.02,-2.86,-2.07,4.03,3.59,6.74,4.25,0.02136668,-0.1261041,-0.06792235,0.2045545,0.6272789,-9.708338,2
40402721,5917,3.07,-2.93,-1.97,3.26,2.72,6.77,3.94,0.02609734,-0.1214292,-0.05258685,0.4012325,0.465329,-9.689846,2
40513797,5948,3.13,-3.1,-2.15,2.94,2.32,6.79,3.63,-0.01135497,-0.07560145,-0.04171504,-0.001532891,0.6826483,-9.890503,2
40617029,5838,3.08,-3.19,-2.52,2.71,2.32,6.8,3.53,0.05029858,0.05674436,0.001819196,0.429533,0.5267371,-9.345221,2
40731743,6005,3.26,-3.27,-3.0,2.23,1.82,6.83,3.72,-0.1237923,-0.1275005,0.01949307,0.1730805,0.5572688,-9.657667,2
40837903,5926,3.36,-3.18,-2.97,1.6,1.13,6.87,4.12,0.08212984,-0.08067368,0.07209238,0.1489982,0.6596875,-9.980907,2
40950085,6074,2.92,-3.2,-2.62,-0.02,0.38,6.96,4.66,-0.08709173,-0.2502804,0.1218859,0.6236619,0.3524813,-9.628365,2
41061661,5978,3.51,-3.21,-2.53,-1.65,-1.38,7.05,5.44,-0.1138095,-0.2797646,0.1106749,0.3304756,0.5397894,-9.724192,2
41165490,6060,4.08,-3.18,-3.07,-2.69,-2.7,7.11,6.22,-0.1397899,-0.1524238,0.1077299,-0.2574136,0.5678024,-10.18391,2
41379665,6102,4.14,-2.77,-4.22,-3.86,-3.63,7.17,7.38,-0.09589446,-0.03722003,0.08557697,0.06438818,0.8048974,-9.758379,2
41497758,6440,4.15,-2.2,-3.8,-3.96,-3.64,7.17,7.79,-0.09877422,0.004420278,0.0867067599999999,-0.04522758,0.5758213,-9.886559,2
41598836,6428,4.28,-1.62,-3.09,-3.95,-3.63,7.17,8.13,0.09858667,-0.006664155,0.07439825,-0.2059716,0.3739986,-10.15607,2
41705436,6486,4.01,-1.12,-2.5,-3.95,-3.39,7.17,8.53,0.1539836,0.1014617,0.07714926,0.1750015,0.4302646,-9.746574,2
41817751,6510,3.94,-0.88,-1.82,-4.05,-3.06,7.18,8.85,0.2186808,0.0256821,0.0722869,-0.08650735,0.4906959,-9.966025,2
41928098,6415,3.92,-0.87,-1.28,-4.21,-2.77,7.18,9.09,0.09457887,-0.005991156,0.03193212,0.154667,0.4128506,-9.487563,2
42143646,6452,4.22,-1.39,-1.42,-5.54,-3.71,7.2,9.22,0.03318056,-0.1770355,-0.00828007,-0.2245911,0.4958125,-9.92844,2
42252741,6260,3.63,-1.82,-1.51,-5.29,-3.64,7.2,9.45,-0.00521966,0.08689869,0.06306593,-0.1593381,0.8724535,-9.763858,2
42367303,6310,3.55,-2.29,-1.61,-5.05,-3.18,7.19,9.87,-0.06742869,0.08937676,0.0608627,0.2323584,0.5752629,-9.517818,2
42479802,6273,3.83,-2.78,-1.88,-4.92,-3.01,7.18,10.25,-0.07551836,-0.07263142,0.0515443,0.01113962,0.7162675,-9.531337,2
42586988,6302,4.03,-3.15,-2.41,-4.91,-3.02,7.18,10.62,-0.09232692,-0.007587566,0.09162394,-0.1965699,0.6997374,-9.68656,2
42697882,6355,4.04,-3.5,-2.72,-4.91,-3.4,7.18,10.89,0.03450452,-0.04606589,0.02159922,-0.1671682,0.5756793,-9.62198,2
42805691,6479,3.57,-3.8,-2.71,-5.03,-3.3,7.19,11.0,0.05218356,0.01848923,-0.01301427,-0.1137483,0.6920584,-9.607521,2
42904515,6269,3.37,-4.03,-2.8,-5.16,-2.62,7.2,10.99,0.07893147,0.1549941,-0.01502584,-0.2807756,0.6236525,-9.985297,2
43021475,6239,3.53,-4.28,-3.5,-5.45,-2.43,7.22,11.17,-0.1306399,0.0190704,0.02258611,-0.1696886,0.4838876,-10.23555,2
43131647,6235,3.66,-4.29,-4.16,-5.62,-3.24,7.23,11.27,-0.01024417,-0.1263052,-0.02042781,-0.1969941,0.8464466,-10.09256,2
43239719,6429,3.39,-4.16,-4.14,-5.7,-4.33,7.24,11.1,0.01857469,-0.1101584,-0.06957511,-0.2889713,0.5619716,-9.633563,2
43353276,6302,3.48,-3.99,-3.85,-5.64,-5.16,7.23,10.76,0.1460638,-0.03167896,-0.0805357399999999,-0.497298,0.5913015,-9.463614,2
43566723,6325,3.34,-4.1,-4.46,-8.39,-8.03,7.43,10.09,-0.109937,-0.279494,-0.09696751,-0.1670116,0.3011785,-9.828625,2
43668702,6271,3.59,-4.19,-4.78,-10.32,-10.04,7.57,9.78,-0.03528573,-0.2718021,-0.05514127,-0.4195303,0.6320201,-9.562723,2
43777896,6315,3.43,-4.03,-4.75,-11.12,-11.57,7.63,9.44,0.1645883,-0.08703768,-0.07712226,-0.6403686,0.4663484,-9.71686,2
43894565,6345,3.26,-3.59,-4.68,-10.78,-10.86,7.61,9.0,0.05060661,0.1727878,-0.06789438,-0.4472622,0.572723,-9.525841,2
43996103,6262,3.07,-3.13,-4.26,-9.94,-9.22,7.56,8.57,0.08528312,0.2296595,-0.03168335,-0.6863505,0.6375141,-10.05159,2
44108712,6136,3.11,-2.71,-3.79,-9.17,-7.49,7.52,8.2,0.1086515,0.1582723,-0.06737055,-0.1801972,0.5362804,-9.516399,2
44216035,6101,2.89,-2.33,-3.24,-8.66,-6.43,7.5,7.85,0.177159,0.08626068,-0.06404773,-0.7451824,0.5152762,-9.379741,2
44326164,6113,2.76,-1.95,-3.0,-8.53,-5.77,7.49,7.41,-0.02891812,0.01316112,-0.07470959,-0.5731737,0.7163229,-9.925529,2
44434853,5886,2.68,-1.66,-2.65,-8.48,-5.4,7.49,6.92,0.08678508,0.05299352,-0.1102975,-0.6783636,0.672875,-9.571042,2
44546814,5703,2.81,-1.59,-2.05,-8.33,-5.74,7.48,6.38,0.0633798099999999,-0.0823513,-0.09946963,-0.5217084,0.5523329,-9.189466,2
44661849,5761,2.91,-1.6,-1.91,-8.01,-5.93,7.48,5.83,-0.006989026,0.06999705,-0.07637411,-0.8772833,0.6988548,-9.388476,2
44761308,5896,2.79,-1.75,-1.79,-7.68,-5.57,7.47,5.45,-0.1041415,0.106461,-0.07765704,-0.6497334,0.366549,-9.480265,2
44885092,5743,2.9,-1.87,-1.67,-7.16,-4.83,7.45,5.23,0.03087807,0.0754659,-0.02907939,-0.5155312,0.5798066,-9.707898,2
44987107,5857,2.78,-1.98,-1.76,-6.78,-4.47,7.44,5.17,-0.0636633999999999,0.0806137,0.03075165,-0.5616006,0.6176795,-9.807763,2
45102494,5759,2.91,-2.02,-2.14,-6.51,-4.27,7.43,5.25,-0.1580559,-0.01165214,0.02004152,-0.3760584,0.5422544,-9.974039,2
45196764,5883,3.02,-2.08,-2.19,-6.28,-4.37,7.42,5.39,0.08251725,-0.07801975,0.02061652,-0.7251857,0.8576437,-9.859914,2
45309490,5819,3.05,-1.95,-2.32,-4.49,-3.49,7.35,5.48,-0.02090447,0.3447392,0.04934489,-0.8980232,0.6841201,-10.12929,2
45412566,5885,2.65,-1.9,-2.45,-2.3,-0.94,7.28,5.52,-0.1113828,0.4818025,0.05154662,-0.6909347,0.6595017,-9.867461,2
45635480,5941,2.82,-1.87,-2.8,0.59,3.56,7.18,5.45,-0.03240404,0.2060337,0.008014759,-0.4904722,0.7630978,-9.985572,2
45752538,5826,2.67,-1.86,-2.74,1.07,3.86,7.17,5.33,0.0119098,-0.0917890299999999,-0.03162621,-0.4191599,0.5417298,-9.889616,2
45864680,5801,2.66,-1.88,-2.51,1.08,3.39,7.17,5.08,-0.01506087,-0.181487,-0.03795049,-0.5558971,0.6035228,-10.20496,2
45968774,5809,2.61,-1.9,-2.19,0.93,2.68,7.17,4.79,0.07684963,-0.1101643,-0.05422207,-0.7750933,0.548048,-9.899665,2
46081055,5711,2.47,-1.85,-2.11,0.27,1.77,7.19,4.58,0.08773308,-0.1613628,-0.03636592,-0.5833315,0.5802624,-9.490463,2
46196229,5681,2.7,-1.77,-2.35,-0.55,0.35,7.22,4.55,0.03194638,-0.2458957,0.01498831,-0.409009,0.4343624,-9.408463,2
46311904,5650,2.5,-1.75,-2.15,-1.2,-1.1,7.24,4.66,0.03299366,-0.2635418,0.03539546,-0.5590866,0.5294986,-9.603813,2
46408846,5710,2.68,-1.78,-1.99,-2.66,-2.62,7.29,4.82,0.01810016,-0.3803236,0.02032344,-0.1850132,0.5337629,-9.38105,2
46628760,5465,2.83,-3.37,-2.86,-4.09,-5.54,7.34,5.3,-0.1966543,-0.1136939,0.0306827,-0.4847625,0.3805057,-9.978687,2
46732089,5730,2.96,-4.56,-4.34,-4.0,-5.55,7.33,5.57,-0.2771943,0.07696416,0.05921244,-0.4483421,0.64968,-9.871079,2
46850199,5895,3.17,-5.81,-6.03,-3.59,-5.3,7.29,5.99,-0.2071876,-0.005957535,0.07055844,-0.4225564,0.8166131,-10.06687,2
46954111,5847,3.03,-6.57,-7.01,-3.16,-4.91,7.25,6.26,-0.1281368,0.09123652,0.05386036,-0.6418004,0.6676126,-10.05191,2
47063446,5954,3.19,-6.94,-7.26,-2.8,-4.51,7.2,6.51,0.07187446,0.04327466,0.05589288,-0.3806977,0.637779,-9.965666,2
47170045,5929,3.25,-7.08,-6.86,-2.3,-4.58,7.14,7.12,0.1407679,-0.01604836,0.1216985,-0.2612604,0.6792714,-10.28942,2
47277860,6225,2.91,-7.24,-6.39,-1.7,-4.54,7.07,7.91,-0.003560508,0.104489,0.1292293,-0.5375488,0.6365007,-10.34659,2
47389465,6180,3.13,-7.52,-5.94,-1.18,-3.59,7.0,8.66,0.04738964,0.2070834,0.1137781,-0.1383687,0.4265867,-9.853905,2
47502688,6293,3.29,-8.02,-5.58,-0.55,-2.97,6.91,9.22,0.0111227,0.1480553,0.0933692,-0.3684905,0.3483229,-9.850787,2
47609177,6236,3.56,-8.39,-6.26,0.12,-3.13,6.82,9.79,-0.2155856,0.05445345,0.08893065,-0.4760121,0.6611223,-10.28783,2
47712575,6342,3.23,-8.7,-7.2,0.66,-2.35,6.73,9.97,-0.1797848,0.2259802,0.02484144,-0.6383858,0.5646513,-10.30662,2
47821711,6339,3.34,-7.96,-7.39,1.19,-1.31,6.66,9.83,0.06127514,0.1357518,-0.000103978,-0.1326728,0.9126843,-9.626071,2
47942743,6255,3.41,-6.76,-5.83,1.78,-0.52,6.58,9.69,0.3014985,0.155697,0.02958018,0.08238187,0.844323,-9.726981,2
48040095,6242,3.45,-5.98,-4.38,2.05,-0.4,6.55,9.59,0.2127352,0.1270353,-0.02350729,0.1104345,0.6606666,-9.564904,2
48144061,6256,3.12,-5.82,-3.6,2.1,-0.68,6.54,9.2,0.1146087,-0.114171,-0.08113146,0.317692,0.6922575,-9.860518,2
48256149,6239,2.88,-6.01,-3.41,2.03,-0.96,6.55,8.27,-0.06800846,0.005999462,-0.140685,-0.6929463,0.6871367,-10.04697,2
48362268,6197,2.93,-6.44,-4.02,2.05,-1.05,6.55,7.4,-0.3346588,-0.04587289,-0.1458818,-0.381606,0.5286708,-9.823137,2
48480746,6110,2.56,-7.47,-5.58,2.52,-0.48,6.49,6.54,-0.1934363,0.201842,-0.09102179,-0.03962292,0.805854,-9.83749,2
48589150,6078,2.75,-8.56,-7.16,3.07,0.11,6.41,5.95,-0.2077031,0.0495895,-0.09823504,-0.04937414,0.9657001,-10.0545,2
48703562,6166,2.28,-9.43,-8.08,3.48,0.93,6.35,5.45,-0.140623,0.1857614,-0.0723406,0.05473677,0.5389355,-9.485606,2
48805135,6006,2.86,-9.85,-8.87,3.6,1.27,6.33,5.15,-0.03984068,0.1675377,-0.0647146,-0.4727123,1.118254,-10.03666,2
48910279,6072,2.81,-10.22,-9.13,3.3,1.85,6.38,4.92,-0.002315093,0.1023748,0.01063297,-0.4915087,1.199938,-10.17315,2
49019198,6085,2.58,-10.29,-8.72,2.64,2.28,6.5,5.13,-0.02699266,0.005026492,0.04733653,-0.1582208,0.7337003,-10.29482,2
49134773,5792,3.0,-10.18,-8.38,1.84,1.86,6.65,5.76,0.01050605,-0.09992057,0.08003256,-0.1546101,0.8223822,-10.09037,2
49238476,6022,3.21,-9.82,-8.29,0.98,0.71,6.8,6.45,0.0636889,-0.2059841,0.155705,-0.2835355,0.9389136,-10.18383,2
49348672,6132,3.46,-9.09,-8.56,0.43,-0.86,6.89,7.39,-0.06494426,-0.1705236,0.09823485,-0.3598385,1.080425,-9.777502,2
49458320,6447,2.93,-8.0,-7.67,0.02,-0.74,6.95,8.11,0.2188398,0.07080606,0.1276207,-0.2245514,0.7669147,-10.23219,2
49561729,6238,3.08,-7.14,-6.16,0.1,-0.69,6.94,8.86,0.2544309,-0.1623813,0.1439182,0.09985057,0.9075252,-10.05348,2
49672871,6358,2.91,-6.28,-4.91,0.33,-0.53,6.92,9.58,0.1538687,0.1185121,0.06237919,0.0945611299999999,0.4037278,-9.497652,2
49785784,6231,3.22,-5.66,-5.36,0.41,-0.62,6.91,9.82,-0.2424485,0.01006739,-0.001844552,-0.133872,0.8557385,-9.862143,2
49889403,6269,2.96,-5.51,-5.51,0.3,-0.43,6.92,9.64,0.07028675,-0.01102755,-0.07879893,-0.01866839,0.7869887,-9.794746,2
49999426,6238,3.1,-5.29,-5.71,0.1,-0.73,6.94,9.39,-0.1260028,0.1190694,-0.01955728,-0.06197649,0.7595329,-9.178984,2
50108976,6330,2.95,-4.87,-5.36,-0.33,-0.96,6.98,8.84,0.1576336,-0.03207463,-0.0346909,-0.06670398,1.131919,-9.473072,2
50210563,6243,2.8,-4.51,-4.81,-0.59,-1.2,7.0,8.43,-0.0931456,0.06663505,-0.0799805299999999,-0.4584366,0.8346005,-10.06669,2
50322118,6236,2.64,-4.26,-4.55,-0.85,-1.23,7.02,7.96,-0.02932336,0.04024754,-0.05999793,-0.1647689,0.5798393,-9.44835,2
50542114,6020,2.89,-4.13,-4.28,-1.21,-0.88,7.05,7.42,0.0757617399999999,0.03254739,0.01051495,-0.01455354,0.9909925,-9.669087,2
50648558,5875,2.87,-3.94,-3.56,-1.18,-1.55,7.04,7.3,0.0828287,-0.195005,-0.05213434,0.06030355,0.7271301,-9.650666,2
50760736,6147,2.82,-3.78,-3.31,-1.06,-2.55,7.04,7.08,0.08657467,-0.07512739,-0.08028349,0.1661925,0.6536899,-9.100435,2
50862660,6056,2.62,-3.7,-3.09,-0.89,-2.94,7.02,6.65,0.09999342,0.0318929,-0.05467222,0.07048822,0.9300835,-10.09685,2
50970131,6019,2.65,-3.86,-2.68,-0.38,-3.02,6.99,6.14,-0.1261551,0.1445796,-0.07642432,-0.2313614,1.259521,-9.47486,2
51078911,6193,1.92,-4.52,-2.63,-0.3,-1.47,6.98,5.64,-0.02793141,0.2759714,-0.04528481,-0.07604342,1.100395,-9.552612,2
51192274,5777,2.38,-5.07,-3.53,-0.34,-0.2,6.99,5.25,-0.2061693,0.1532523,-0.05158623,-0.2879162,1.034283,-9.73788,2
51309297,5751,2.69,-5.38,-4.31,-0.68,0.28,7.02,5.01,-0.1072053,0.03724736,-0.05357375,-0.1243457,0.8130977,-9.246365,2
51409139,5981,2.55,-5.15,-4.84,-1.26,-0.03,7.07,4.97,0.05224435,-0.07459626,0.01017721,-0.3890311,1.203717,-9.697153,2
51518681,5943,2.72,-4.7,-4.34,-2.03,-0.64,7.14,5.32,0.08217135,-0.1447124,0.07469689,-0.5147749,0.7668602,-10.09902,2
51632056,5979,2.91,-4.22,-3.49,-2.69,-1.46,7.19,6.05,0.1500918,-0.16596,0.1307995,-0.1947332,0.6775358,-9.633134,2
51740027,6086,2.97,-3.93,-3.01,-2.91,-2.55,7.21,6.86,0.06684882,-0.1175284,0.1224108,-0.5635141,0.7055966,-9.875267,2
51841064,6282,3.1,-3.9,-3.23,-2.87,-3.31,7.21,7.45,-0.1053396,-0.1308485,0.09180379,-0.1591089,0.8365328,-9.780284,2
51953007,6126,3.01,-3.82,-3.55,-2.6,-3.78,7.19,7.74,-0.06170048,-0.0691392,-0.01617756,0.05037065,0.774541,-9.625165,2
52052676,6383,2.59,-3.72,-3.86,-2.34,-3.58,7.17,7.56,-0.01217172,0.2092486,-0.04374078,-0.788382,0.6924141,-10.18051,2
52162806,6294,2.7,-3.78,-4.27,-2.26,-2.51,7.16,7.2,-0.04711266,0.2854758,0.00431697,-0.2457124,0.7750674,-9.277853,2
52271058,6068,2.58,-3.89,-3.93,-2.31,-1.45,7.17,6.87,0.02291684,0.01917224,-0.01760906,0.1315687,1.104051,-9.917987,2
52387856,6003,2.67,-4.23,-3.47,-2.51,-1.04,7.18,6.63,-0.008513733,0.1484159,-0.02504381,-0.1481822,0.8487121,-9.900647,2
52503758,5883,2.89,-4.26,-3.35,-2.77,-1.7,7.2,6.62,0.05619018,-0.128769,0.01661499,-0.2232139,0.832301,-10.19275,2
52607149,5901,3.5,-4.05,-3.82,-2.74,-3.21,7.2,6.62,-0.231387,-0.3691567,-0.05868826,0.2995585,0.8681703,-9.20742,2
52718241,6278,2.4,-3.75,-4.44,-2.55,-3.6,7.19,6.49,-0.1180501,0.1111535,-0.01496013,-0.8105739,1.172309,-9.9533,2
52829727,6127,2.57,-3.67,-4.06,-2.51,-1.95,7.18,6.43,0.1262217,0.1571001,0.007439347,-0.02746798,0.7620087,-9.651114,2
52934666,5994,2.7,-3.69,-3.64,-2.39,-1.24,7.18,6.47,0.1228816,0.0242936,0.003134484,-0.492208,1.096572,-9.986476,2
53047531,6195,3.11,-4.51,-3.76,-2.48,-1.81,7.18,6.57,-0.1621438,-0.2436353,-0.01187026,-0.01323784,0.9030073,-9.618587,2
53158508,6138,2.74,-5.37,-4.98,-2.52,-2.62,7.19,6.64,-0.2187404,-0.04577682,-0.009436572,-0.5188811,1.046289,-10.09688,2
53268068,6269,2.49,-6.16,-6.13,-2.36,-3.0,7.17,6.63,-0.2444398,0.1161957,-0.07572541,-0.368883,0.9363941,-9.508715,2
53368249,6100,2.65,-6.37,-6.83,-2.33,-2.26,7.17,6.5,-0.1062051,0.3001627,0.0274925,-0.3377849,1.127875,-9.969316,2
53487844,6098,2.64,-6.43,-7.17,-2.44,-1.25,7.18,6.34,-0.008151647,0.1327984,0.04274437,-0.766697,0.9285581,-9.919361,2
53599023,5987,2.94,-6.12,-7.22,-2.7,-0.88,7.21,6.52,0.006932871,0.0245923,0.0579172,-0.6571612,1.013806,-9.99034,2
53711016,6133,2.93,-5.65,-6.66,-3.03,-1.07,7.24,7.05,0.00500248,-0.1345277,0.09211759,-0.5156311,0.7245137,-9.749126,2
53807569,6057,3.3,-4.54,-6.05,-3.35,-1.41,7.27,7.54,0.2862551,-0.1250098,0.04954212,-0.4013936,1.094924,-9.350391,2
53926868,6101,3.25,-2.48,-4.31,-3.66,-1.25,7.29,8.0,0.3405282,0.01366489,0.07514133,-0.2482455,1.222534,-9.682256,2
54033276,6126,3.22,-0.99,-1.62,-3.89,-1.27,7.3,8.3,0.4787338,-0.0333357,0.04767932,-0.4316081,0.9808335,-9.988464,2
54138513,6096,3.48,-0.18,-0.03,-4.09,-1.66,7.3,8.55,0.1018824,-0.1329002,0.07355842,-0.5683687,0.8001903,-10.34926,2
54249008,6014,3.31,0.07,0.75,-4.21,-2.27,7.3,8.78,0.04463447,-0.1519386,0.03117804,-0.3584242,0.6623546,-9.999399,2
54360323,6066,3.01,0.16,0.5,-4.21,-2.71,7.3,9.2,-0.0688053899999999,-0.1216591,0.05040046,-0.486549,1.034045,-10.47698,2
54466882,6323,2.81,0.13,0.33,-4.12,-2.71,7.3,9.64,-0.01248153,-0.02713751,0.04885086,0.07878936,0.7644812,-9.847446,2
54577004,6213,3.28,-0.01,0.08,-3.92,-3.06,7.3,9.87,-0.1176255,-0.03196009,0.003864951,-0.3537965,0.5974842,-10.01756,2
54683787,6046,3.44,0.12,-1.28,-3.72,-3.59,7.3,9.83,-0.03699541,-0.01855961,-0.05296103,-0.4686678,1.176014,-8.831952,2
54791558,6265,3.13,0.28,-1.88,-3.4,-3.6,7.3,9.66,-0.09260511,0.03712808,-0.0012827,-0.3198043,0.7066216,-9.552214,2
54910282,6147,3.24,0.61,-1.43,-2.96,-2.9,7.3,9.5,0.1510018,0.09503631,-0.02101988,-0.2304992,0.4515914,-9.938321,2
55015804,6080,3.38,2.09,-0.68,-2.7,-2.24,7.31,9.11,0.1850265,0.07233166,-0.0690844,-0.2061221,0.7866511,-9.822049,2
55119042,6171,3.23,4.28,1.55,-2.67,-2.04,7.31,8.63,0.4260449,0.15918,-0.0591938,-0.05505295,0.6231387,-9.7866,2
55227721,6184,3.29,7.22,5.05,-2.78,-2.33,7.3,8.0,0.568868,0.03761098,-0.07717063,-0.364188,0.6193621,-9.812016,2
55447532,6167,3.16,9.2,9.51,-2.72,-2.6,7.31,7.11,-0.1193519,0.04960382,-0.01988041,-0.1855305,0.2839865,-9.652394,2
55569400,6057,3.26,8.15,7.71,-2.51,-2.02,7.34,7.09,-0.3207167,0.1479549,0.002858257,-0.2030289,0.3666973,-9.855443,2
55666112,6058,3.39,6.84,5.61,-2.32,-1.61,7.37,7.37,-0.2755407,0.06174427,0.01039443,-0.172225,0.5508872,-9.674395,2
55776202,6077,3.54,5.64,3.39,-2.23,-1.37,7.38,7.77,-0.3609583,-0.01331936,0.04339283,-0.4341178,0.5839288,-10.1042,2
55992735,6016,3.33,4.5,0.99,-2.79,-0.91,7.33,7.78,-0.08855277,-0.001622851,-0.04184775,-0.4301698,0.5643579,-9.668442,2
56208709,6085,3.09,3.93,1.18,-3.49,-1.48,7.28,6.91,0.05783092,-0.1349313,-0.0732679,-0.408527,0.4989926,-9.70886,2
56329853,6115,3.19,3.32,1.75,-3.8,-2.01,7.26,6.35,0.1813401,-0.09351588,-0.09802284,-0.4049029,0.6232462,-9.690065,2
56428206,5999,2.83,2.59,1.68,-3.97,-2.37,7.25,6.03,-0.01462968,-0.0740430599999999,-0.07375041,-0.3392599,0.397265,-9.949232,2
56539663,5978,2.84,1.68,1.19,-4.07,-2.73,7.25,5.7,-0.026427,-0.1022698,-0.04828994,-0.416065,0.6200742,-9.945888,2
56652234,5915,3.15,0.87,0.46,-4.05,-3.09,7.25,5.43,-0.2406337,-0.1009951,-0.03595283,-0.6279086,0.5529605,-10.09322,2
56757908,5918,3.14,0.3,-0.47,-3.95,-3.43,7.25,4.92,-0.1245632,0.03479219,-0.1003812,-0.4574216,0.4458978,-9.930325,2
56867745,5787,2.96,0.11,-1.26,-3.91,-3.32,7.25,4.04,-0.124692,0.0242412,-0.1680309,-0.7274181,0.3268014,-9.887781,2
56984127,5832,2.66,0.25,-1.71,-3.99,-2.62,7.25,2.86,-0.1416079,0.1469969,-0.1704641,-0.3327537,0.3883885,-9.91097,2
57095699,5734,2.42,0.6,-1.65,-4.15,-2.13,7.25,1.88,0.0768678,0.0774321,-0.1141222,-0.5571491,0.2046681,-10.07018,2
57420225,5536,2.53,0.17,-1.06,-5.39,-2.6,7.23,1.99,-0.04634819,-0.148257,0.1400672,-0.4289743,0.3654327,-9.531215,2
57529082,5395,2.9,-0.3,-1.58,-5.4,-3.78,7.23,3.52,0.002728681,-0.1701173,0.2732029,-0.5687199,0.7449573,-9.257929,2
57628674,5618,3.35,-0.97,-1.76,-5.08,-4.44,7.23,5.29,-0.02907335,-0.08558557,0.3251825,-0.3381557,0.6205886,-9.398586,2
57745554,5918,4.07,-1.6,-1.61,-4.98,-5.06,7.22,7.64,0.03299414,-0.1578843,0.4172522,-0.3199683,0.9385945,-9.676908,2
57854228,6238,4.22,-2.36,-1.32,-4.07,-5.63,7.19,10.42,0.0940413799999999,-0.04419625,0.4118238,-0.1626567,0.5637246,-9.950757,2
57963714,6470,4.21,-3.07,-1.13,-3.29,-5.16,7.16,12.83,0.002185717,0.08527114,0.3268673,0.1063356,0.4829731,-10.10409,2
58066079,6630,4.62,-3.7,-1.13,-2.56,-4.93,7.11,14.39,-0.05334675,-0.01556549,0.2108963,-0.07506415,0.791633,-10.48625,2
58178102,6673,4.74,-4.34,-1.6,-1.41,-4.97,7.03,15.32,-0.2237228,0.04523912,0.02807549,-0.09768298,0.6478161,-10.3256,2
58290402,6836,4.14,-4.85,-3.0,-0.41,-4.02,6.95,14.92,-0.3965131,0.2335122,-0.1390442,-0.1087868,0.6193205,-10.10222,2
58391654,6773,3.6,-5.14,-4.04,0.48,-2.75,6.87,13.67,-0.04447364,0.3599242,-0.2690631,-0.3543471,0.758586,-9.958571,2
58504896,6630,3.06,-5.38,-4.44,1.17,-1.11,6.81,11.56,-0.09057065,0.2348575,-0.3268636,0.06130052,0.5901056,-9.967716,2
58605229,6366,2.82,-5.33,-4.2,1.53,-0.27,6.77,9.85,0.01283315,0.1646362,-0.2290393,-0.2456065,0.715408,-10.18325,2
58825406,6289,2.53,-5.28,-3.49,1.67,-0.09,6.76,6.9,0.07557473,0.07294957,-0.1564247,-0.3307373,0.5443901,-9.71623,2
58926726,6054,2.45,-5.42,-3.55,1.36,0.25,6.79,6.02,0.02522292,0.1403485,-0.1463496,-0.3091682,0.6139489,-9.666434,2
59047655,5931,2.74,-5.29,-3.64,0.99,0.28,6.82,5.24,0.02484132,-0.04136132,-0.08692184,-0.1671847,0.6334691,-9.72086,2
59152733,5972,2.81,-4.83,-3.23,0.71,-0.03,6.85,4.78,0.147771,0.01595001,-0.06720719,-0.4036881,0.6949357,-9.790526,2
59260041,5976,2.67,-3.87,-2.23,0.57,-0.29,6.86,4.66,0.1706006,-0.03490172,0.01484157,-0.4404423,0.7652071,-9.599673,2
59364904,5859,2.73,-2.96,-1.39,0.41,0.0,6.87,4.8,0.1033219,0.102286,0.06624655,-0.4740013,0.6011548,-9.878982,2
