TimeUS,RPM,Curr,DesRoll,Roll,DesPitch,Pitch,DesYaw,Yaw,GyrX,GyrY,GyrZ,AccX,AccY,AccZ,Guasto
0,4052,3.84,0.04,-0.33,-0.01,0.35,12.39,12.46,-0.1053418,-0.1028175,-0.02405511,0.1376252,0.5950378,-9.912258,2
106631,4527,3.33,-0.01,-0.09,0.04,0.3,12.39,12.55,0.1413968,0.03577726,0.04072893,0.07537853,0.03576062,-9.717968,2
221033,5207,4.03,0.06,0.05,0.14,-0.1,12.39,12.92,0.1868843,-0.04956155,0.07853502,0.04612892,0.5123431,-11.09399,2
327961,5567,4.16,0.01,0.37,0.16,-0.47,12.39,13.62,-0.001401299,-0.05534552,0.156727,-0.1173148,0.6225894,-12.41867,2
438629,6126,4.11,-0.21,0.6,0.27,-0.43,12.39,15.08,0.02341344,-0.009445108,0.2862791,0.4757857,0.4312835,-11.43496,2
555530,6292,4.03,-0.74,0.71,0.68,-0.72,12.39,17.04,0.0330102,-0.01483452,0.2996226,-0.1236958,-0.04367932,-11.2305,2
651409,6110,5.02,-1.49,1.06,1.07,-0.56,12.38,18.71,0.0636024,0.05388516,0.2760834,0.03545943,0.6474611,-10.61543,2
764445,6329,4.91,-2.6,1.26,1.54,-0.39,12.36,20.37,-0.2300292,0.0908434,0.2568448,0.07253539,0.2595771,-10.45575,2
868392,6555,4.72,-3.5,0.51,2.15,-0.31,12.23,21.48,-0.09363585,0.01364539,0.1644649,0.03342654,0.3607364,-10.16978,2
979496,6519,4.78,-4.3,-0.88,2.57,0.26,11.34,22.16,-0.241487,0.1305382,0.0675156,0.2676731,0.4933929,-10.09809,2
1197422,6629,5.25,-5.37,-2.99,2.86,1.96,7.22,21.11,-0.04923378,0.2740489,-0.2063465,0.1572498,0.2537031,-10.18668,2
1302428,6698,4.79,-5.52,-3.39,2.86,2.29,6.45,19.48,0.0301476,-0.004889586,-0.3033818,0.1807208,0.4174241,-9.80633,2
1421423,6613,4.5,-5.36,-3.35,2.86,2.5,6.45,17.66,0.04034338,0.03089797,-0.2534705,0.3618398,0.624685,-9.971788,2
1529622,6470,4.41,-5.06,-2.78,2.84,2.22,6.46,16.17,0.04910852,-0.05889871,-0.2427608,0.2479443,0.5724679,-9.897462,2
1641562,6434,4.3,-4.86,-2.57,2.8,2.39,6.46,14.88,0.03504387,0.07674603,-0.1700936,0.07436124,0.4344672,-9.401531,2
1756589,6215,4.45,-4.88,-2.48,2.92,2.56,6.45,13.6,0.08209565,0.03474841,-0.2083197,0.0852948199999999,0.6613885,-9.739665,2
1850929,6373,4.41,-5.09,-2.2,2.78,2.78,6.46,12.62,0.07274197,0.1278628,-0.164073,0.2214403,0.6940621,-10.18809,2
1961527,6243,4.08,-5.31,-2.34,2.49,2.85,6.49,11.71,-0.09324136,0.03756411,-0.1157535,0.1933286,0.5238808,-9.768145,2
2076381,6292,4.11,-5.47,-2.73,2.36,2.47,6.5,11.04,-0.06259041,-0.006260373,-0.07918066,0.10769,0.638259,-10.24547,2
2185214,6367,3.95,-5.62,-2.89,2.18,2.38,6.52,10.64,-0.004658686,0.05559083,-0.06181486,0.0981455299999999,0.5974662,-9.752458,2
2291420,6278,4.05,-5.51,-3.44,2.04,2.15,6.53,10.54,-0.1500505,-0.1176187,-0.02090064,0.2606527,0.7694945,-9.556087,2
2401682,6115,4.06,-5.35,-3.84,1.91,1.82,6.54,10.79,0.009862565,-0.09120216,0.06649034,-0.1038355,0.7074388,-9.804232,2
2511771,6138,4.4,-5.29,-4.32,1.89,1.76,6.54,11.3,-0.03512916,0.04948304,0.06026745,0.1842602,0.5972883,-9.596637,2
2623516,6089,4.36,-5.21,-4.21,1.77,1.94,6.56,11.85,0.02338891,0.1415482,0.07722045,-0.1526656,0.662132,-9.807987,2
2744343,6308,4.47,-5.08,-3.41,1.29,2.03,6.6,12.34,0.0713534599999999,-0.1060346,0.08817904,-0.03766498,0.7258506,-9.820484,2
2838969,6276,4.52,-4.95,-3.04,0.66,1.98,6.65,12.73,0.04094258,-0.02654513,0.07648447,0.1687409,0.4438478,-9.866903,2
2946015,6415,4.43,-4.91,-2.75,-0.06,1.37,7.97,14.29,0.1032914,-0.06227661,0.0794229,-0.1899605,0.5947727,-9.877895,2
3054678,6438,4.2,-4.83,-3.2,-0.63,0.64,8.02,14.41,-0.0863266699999999,-0.06712954,0.062625,0.1147657,0.4439658,-9.696453,2
3162411,6283,4.79,-4.81,-3.54,-0.81,-0.13,8.03,14.65,0.04536212,-0.02789113,0.06924585,-0.09778027,0.4897765,-10.05517,2
3264005,6439,4.6,-4.79,-3.53,-0.87,-0.46,8.04,14.98,-0.01422553,-0.07273156,0.04455122,0.06109802,0.8843481,-10.11318,2
3373124,6394,4.65,-4.86,-3.16,-0.9,-0.57,8.04,15.34,0.04756685,-0.04988524,0.02058373,-0.0404608,0.7636756,-9.580176,2
3482419,6640,4.53,-5.16,-3.19,-1.16,-0.64,8.06,16.14,-0.07468617,0.01124987,0.007588075,0.215622,0.6310665,-9.427494,2
3599139,6523,4.68,-5.44,-3.88,-1.51,-0.91,8.09,16.82,-0.261349,-0.1115377,-0.03128309,0.1159079,0.705832,-9.509307,2
3707858,6474,4.54,-5.54,-4.57,-1.89,-1.13,8.13,17.22,-0.0429776,0.04713349,-0.0244269,0.04378868,0.9950453,-9.738345,2
3814407,6514,4.91,-5.5,-4.77,-1.88,-1.49,8.13,16.88,-0.01502733,0.09618574,-0.06690462,0.0792461099999999,1.047893,-9.956191,2
3920155,6518,4.56,-5.37,-4.44,-1.38,-1.47,8.08,16.04,-0.02529547,0.02870616,0.001051843,0.03692253,0.6278048,-9.85088,2
4031568,6578,4.8,-5.25,-4.53,-0.63,-0.88,8.01,15.75,0.01554383,0.1500922,-0.005359873,-0.1506874,0.6552871,-9.775071,2
4137877,6534,5.1,-5.3,-4.49,0.04,0.24,7.95,15.7,0.02766824,0.1434441,-0.01540118,0.02843383,1.123624,-9.766179,2
4255600,6713,4.95,-5.36,-4.1,0.12,1.72,7.94,15.57,0.005373603,0.2382418,-0.01948121,-0.01130208,0.9451104,-10.12286,2
4353138,6458,4.79,-5.37,-3.72,-0.22,1.97,7.98,15.31,0.004576537,0.05956451,-0.06403155,0.04746458,0.8046747,-9.806475,2
4471766,6564,4.38,-5.02,-3.93,-0.65,1.28,8.02,13.97,-0.004313039,-0.1275343,-0.06348439,-0.2364241,0.7820781,-9.845654,2
4574785,6511,4.51,-4.67,-3.91,-1.02,0.81,8.05,12.77,0.007894396,-0.01972166,-0.05921135,-0.09613607,1.044185,-9.456369,2
4685181,6489,4.7,-4.54,-3.38,-1.01,0.73,8.05,11.97,0.0753979199999999,0.003203247,-0.02315921,0.122952,0.9022286,-9.456536,2
4790001,6528,4.66,-4.54,-3.23,-0.95,1.08,8.04,11.88,0.01097716,0.0967755399999999,0.0297347,-0.2618405,1.051778,-10.08066,2
5013542,6527,4.59,-5.59,-4.62,-1.49,0.44,8.09,13.05,-0.1937522,-0.1327342,0.02178076,-0.1250762,0.9419742,-9.587132,2
5109668,6518,4.85,-5.68,-5.09,-1.67,0.24,8.11,13.18,0.01904089,-0.04125558,0.03132516,-0.46218,0.8480568,-10.20059,2
5226704,6699,4.65,-5.42,-5.2,-1.64,0.21,8.11,13.23,0.02038598,-0.0617314,0.03939646,0.09024021,0.9031879,-9.543598,2
5436665,6481,4.95,-4.74,-4.66,-1.31,-0.07,8.08,14.02,0.0498063,-0.007824453,0.1045009,-0.2265238,0.9171683,-9.916701,2
5546276,6629,4.87,-4.71,-4.2,-1.28,-0.25,8.07,14.68,-0.04473761,-0.08177033,0.1049814,-0.1492973,0.751588,-9.258131,2
5658628,6637,4.51,-4.61,-4.37,-1.11,-0.59,8.06,15.03,-0.01850317,0.06445257,0.03810526,-0.153197,0.8233549,-9.395446,2
5757443,6593,4.29,-4.47,-4.8,-0.96,-0.79,8.05,15.04,-0.02354463,-0.08645964,-0.0549453,0.05843724,0.7527971,-8.600199,2
5871443,6302,4.07,-4.13,-4.76,-0.88,-0.87,8.04,14.75,0.1219823,0.03922813,-0.04988387,-0.1407324,1.015691,-8.693009,2
5980998,6416,4.31,-3.67,-4.39,-0.86,-0.97,8.04,14.31,0.006128685,0.1149048,-0.0865733999999999,-0.1725584,0.8017468,-9.286341,2
6091380,6427,4.09,-3.12,-3.98,-0.77,-0.9,8.04,13.77,0.05382502,0.08659983,-0.04721032,-0.2847138,0.8157826,-8.907941,2
6199400,6211,3.88,-2.82,-3.11,-0.59,-0.72,8.03,13.31,-0.001359232,0.1080135,-0.02634559,-0.3846141,0.5923232,-8.804016,2
6307944,6166,3.75,-2.56,-2.97,-0.38,-0.25,8.02,12.89,0.01336609,0.0210443,-0.0784215,0.08654059,0.7483432,-8.651299,2
6407343,6138,3.98,-2.52,-2.9,-0.21,-0.02,8.01,12.52,-0.0875349599999999,0.01606057,-0.04871858,-0.05699159,0.4202343,-8.73699,2
6517139,6264,4.01,-2.42,-2.77,-0.12,0.23,8.01,12.24,0.01630623,0.01810528,-0.04189019,0.1354223,0.5860664,-8.62681,2
6636789,6209,4.68,-3.86,-3.04,0.3,0.46,7.98,11.99,-0.1434846,0.1805125,-0.04518829,-0.217287,0.3989055,-8.987817,2
6735443,6398,4.27,-6.45,-5.42,1.62,1.23,7.86,11.93,-0.6059296,0.2383391,0.01295405,-0.4699733,0.4942083,-9.201986,2
6844586,6301,4.39,-9.43,-9.26,3.52,3.81,7.6,11.7,-0.5724111,0.4512874,0.03787793,-0.2666065,0.7101611,-9.6636,2
6948445,6425,4.64,-11.22,-11.45,4.39,5.75,7.44,11.47,-0.2119727,0.2113997,0.0093578399999999,0.1960423,0.9897774,-9.410822,2
7070112,6385,4.48,-11.94,-11.91,4.69,6.25,7.38,11.04,0.1331414,0.008815981,-0.01171614,-0.4516632,0.9625662,-10.32976,2
7179645,6496,4.61,-11.66,-11.37,4.46,5.71,7.42,10.58,0.1098035,-0.05299702,-0.06725254,0.07695381,0.8198231,-9.829267,2
7390614,6586,4.25,-11.06,-10.16,4.23,4.54,7.47,9.46,-0.01436712,0.02644675,-0.0009843791999999,-0.1717331,0.9825978,-9.915651,2
7497428,6241,4.43,-11.22,-9.82,4.34,4.76,7.45,8.81,-0.05854524,0.09369935,-0.01154324,-0.02765875,0.9557616,-9.884952,2
7603432,6351,4.11,-11.32,-10.27,4.49,4.95,7.42,8.63,-0.1082983,0.01642472,0.08950204,0.1514246,1.136836,-9.39798,2
7706398,6246,4.76,-11.52,-10.5,4.66,5.11,7.38,8.72,-0.03918833,0.01070183,0.08957661,-0.1676009,1.098934,-9.821214,2
7821900,6463,4.88,-11.4,-10.6,4.66,5.24,7.38,8.88,0.02618661,0.002104231,0.145166,-0.06486665,0.8449368,-9.92674,2
7934954,6524,4.74,-11.3,-10.72,4.65,4.89,7.39,9.49,0.02989641,-0.02346946,0.1885115,-0.02311626,1.017322,-10.32554,2
8147594,6501,4.88,-10.83,-9.89,4.91,4.28,7.34,11.07,-0.0796090899999999,0.04704238,0.1488506,-0.05408714,0.9508328,-9.738046,2
8254930,6657,4.94,-10.24,-9.58,5.01,4.35,7.32,11.55,0.01361232,-0.03141838,0.1232657,0.6010048,1.153756,-9.454315,2
8365755,6649,4.64,-9.25,-8.57,4.36,4.03,7.43,11.92,0.07830465,-0.04394749,0.0835242,0.5984828,1.257979,-9.731877,2
8477742,6581,4.83,-8.53,-7.1,3.6,2.76,7.55,11.9,0.1921729,-0.1504151,0.04055463,0.5151196,0.9093858,-9.927745,2
8587383,6814,4.68,-7.81,-6.6,2.36,1.39,7.73,11.9,0.01613033,-0.2108523,0.02760575,0.007644102,1.170085,-10.68347,2
8696463,6527,4.93,-6.22,-5.89,0.91,-0.53,7.91,12.0,0.2268717,-0.2690796,0.002664292,-0.07529527,1.156064,-10.34037,2
8801652,6520,5.33,-5.39,-4.25,0.18,-1.58,7.98,11.99,0.3235286,-0.07091878,0.006006777,0.2531213,0.8602794,-11.02056,2
8916467,6662,4.89,-4.76,-2.92,-0.09,-1.82,8.01,12.12,0.05259758,0.06051751,0.02042205,0.09646751,1.236224,-10.59486,2
9022443,6558,5.23,-4.65,-2.34,0.11,-1.58,7.99,12.38,0.1432196,0.06559049,0.06522332,0.06330908,1.279886,-10.917,2
9128032,6874,5.15,-4.72,-2.83,0.31,-0.72,7.97,12.73,-0.04323569,0.1966975,0.0720802599999999,0.2367139,1.194101,-10.69687,2
9236539,6644,5.18,-4.87,-3.58,0.45,-0.02,7.96,13.09,-0.1027603,0.03323082,0.05959253,0.5449012,1.120057,-10.5565,2
9352130,6771,5.07,-5.05,-4.47,0.41,0.51,7.97,13.54,-0.05737096,0.0911002499999999,0.0545398,0.1672964,1.004898,-9.977592,2
9451007,6766,4.91,-4.81,-5.12,0.26,0.53,7.98,13.75,-0.1340305,-0.01502847,0.02755968,0.02669846,1.138183,-9.938331,2
9563551,6616,4.71,-4.74,-5.01,0.12,0.38,7.99,13.7,0.01419221,-0.08215363,-0.03683999,0.1848117,0.8637074,-9.496855,2
9786628,6666,4.86,-4.15,-5.2,0.04,0.63,8.0,13.22,-0.04142238,-0.006254057,-0.06245633,-0.09022059,1.084387,-9.745494,2
9896045,6566,5.01,-4.36,-5.08,0.24,1.41,7.98,12.86,0.02463313,0.3018539,-0.04011669,0.05377807,0.9991016,-9.726846,2
10000994,6537,5.14,-4.51,-4.91,0.89,2.29,7.93,12.52,0.08407552,0.1825097,-0.0228009,-0.127002,1.04927,-10.08344,2
10109159,6860,4.63,-4.29,-4.84,2.24,3.51,7.83,12.05,-0.01562699,0.1726074,-0.03276917,-0.1201431,0.8454976,-10.31012,2
10222623,6635,4.75,-3.45,-4.38,3.01,4.72,7.77,11.58,0.04474491,0.0772623999999999,-0.01090055,-0.1950138,1.008781,-10.46541,2
10330927,6553,4.83,-2.46,-3.23,3.36,5.12,7.75,11.37,0.2448756,0.06723984,-0.01293543,-0.1206333,0.9024763,-9.956302,2
10443626,6681,4.93,-1.33,-1.87,3.17,4.8,7.76,11.29,0.3124496,-0.1200863,0.01885804,0.06159626,1.075538,-10.03466,2
10554338,6489,4.75,-0.8,-0.74,2.55,3.8,7.77,11.25,0.2250369,-0.2505574,-0.03100379,0.3028576,0.8397933,-10.05799,2
10654010,6528,4.67,-0.59,-0.42,1.47,2.21,7.78,11.14,-0.0004803596,-0.4179086,-0.0675987,0.1478253,0.8388751,-9.628096,2
10764579,6569,4.3,-0.86,-0.35,-0.15,0.4,7.8,10.73,0.02849816,-0.1887869,-0.1033814,0.08116812,0.8821775,-9.423224,2
10885722,6478,4.12,-1.38,-1.36,-1.49,-1.47,7.83,10.38,-0.2527903,-0.2780022,-0.02882023,-0.0699849699999999,0.9329348,-9.432153,2
10984342,6406,4.24,-1.71,-2.25,-1.99,-2.49,7.84,10.26,-0.2984433,-0.189014,-0.02066466,-0.05566369,0.7711583,-9.19583,2
11096897,6277,4.27,-1.58,-2.84,-2.12,-2.41,7.85,10.26,0.02500624,0.1598597,0.02221251,0.2072272,0.9548325,-9.43364,2
11212570,6419,4.77,-1.34,-2.39,-2.14,-1.74,7.85,10.58,0.06587373,0.1796964,0.05177908,-0.1865296,0.9445368,-9.295809,2
11322759,6473,4.83,-1.09,-2.13,-2.58,-0.91,7.85,11.04,0.08545582,0.1698592,-0.005894286,-0.2155856,0.8638066,-9.890763,2
11425679,6505,4.89,-1.04,-2.06,-3.25,-0.92,7.87,11.29,-0.09392426,-0.04683244,0.02421913,-0.1454086,0.8506013,-9.372167,2
11539451,6453,4.98,-1.16,-2.18,-4.05,-1.62,7.88,11.52,0.005320621,-0.1536876,0.05124602,-0.1557293,0.9301084,-9.792577,2
11640655,6625,4.79,-1.23,-2.15,-4.56,-2.85,7.89,11.76,-0.02055201,-0.1607593,0.04241648,-0.1102818,1.007412,-9.439253,2
11750634,6591,5.01,-1.24,-1.95,-4.74,-3.56,7.9,12.13,-0.07903907,-0.08956962,0.02027027,-0.05820365,0.6847698,-9.414592,2
11862433,6670,4.78,-0.98,-2.02,-4.88,-3.68,7.9,12.46,-0.01002733,-0.001365907,0.04618616,-0.03140892,0.8686936,-9.809897,2
11973151,6461,4.69,0.08,-1.44,-5.85,-4.41,7.91,12.72,0.2480294,-0.1368349,0.0008574748,-0.00109666,0.8332314,-9.838724,2
12076794,6506,4.76,1.5,-0.22,-7.43,-5.52,7.89,12.85,0.2543024,-0.2059743,-0.04371376,-0.1808002,0.836148,-9.822234,2
12183372,6671,4.83,2.94,1.6,-8.96,-7.75,7.83,12.78,0.349427,-0.2984826,-0.0460716,-0.3829818,0.5963039,-9.758032,2
12300680,6678,4.88,3.35,2.67,-9.53,-9.41,7.79,12.56,0.1826228,-0.02622394,-0.04135188,-0.4310366,0.8271213,-9.806382,2
12409975,6575,4.86,2.83,2.51,-9.12,-9.0,7.82,12.48,-0.1035136,0.2384827,-0.00462515,-0.3664575,0.5408646,-9.668903,2
12509362,6489,4.67,1.96,1.64,-8.36,-7.84,7.85,12.38,-0.2060865,0.1743228,-0.0001537433,-0.2995034,0.7184507,-9.887953,2
12624637,6577,4.64,0.96,0.23,-7.49,-6.56,7.87,12.11,-0.3948373,0.1202678,-0.0547323,-0.1055697,0.5368407,-9.21828,2
12729596,6627,4.66,0.18,-1.3,-6.83,-5.25,7.88,11.58,-0.1995495,0.2694182,-0.08256199,-0.6280205,1.04585,-9.805613,2
12842452,6457,4.45,-0.26,-2.29,-6.42,-4.62,7.88,10.82,-0.241221,-0.03588955,-0.1410015,-0.4155758,0.8444074,-9.500054,2
13052424,6457,4.43,-0.52,-2.48,-5.93,-4.1,7.87,9.15,-1.069626e-05,0.01340534,-0.1416108,-0.5951062,0.9850644,-9.896901,2
13163190,6484,4.46,-0.67,-2.13,-5.69,-3.41,7.87,8.52,0.05852248,0.06952851,-0.07215233,-0.2142264,0.8812181,-9.996383,2
13273745,6271,4.26,-0.9,-2.19,-5.39,-3.11,7.87,8.47,-0.1175517,0.01943639,0.02333991,-0.2553575,0.8252547,-9.719574,2
13387887,6278,4.4,-1.3,-2.22,-5.12,-3.19,7.86,8.88,-0.01586998,0.02772739,0.0763031599999999,-0.4446581,0.8184761,-9.566496,2
13497600,6386,4.62,-1.91,-2.29,-4.83,-3.15,7.85,9.39,-0.07005675,0.05049136,0.09154283,-0.4298705,0.6094906,-9.782553,2
13603614,6416,4.65,-2.67,-3.1,-5.29,-3.39,7.87,10.03,-0.2708212,-0.07654403,0.09816774,-0.3012874,0.6110467,-9.701559,2
13713886,6471,4.57,-3.2,-3.93,-6.72,-4.81,7.95,10.53,-0.04648066,-0.3100948,0.03206416,-0.4562222,0.8540248,-9.724408,2
13824326,6454,4.31,-3.41,-4.39,-7.96,-6.51,8.02,10.58,-0.07131305,-0.2232335,-0.06286037,-0.4621703,0.6410346,-9.792847,2
13933538,6286,4.34,-3.36,-4.58,-8.85,-7.7,8.07,10.38,0.0791818299999999,-0.173234,-0.04840188,-0.3478887,0.9063463,-9.5085,2
14045996,6297,4.68,-3.37,-4.22,-9.06,-8.3,8.09,9.89,0.05674646,-0.04912913,-0.08942967,-0.6152737,0.4186735,-9.615054,2
14150686,6262,4.25,-3.29,-3.89,-9.17,-7.82,8.09,9.25,0.08863084,0.1070101,-0.04127143,-0.5365528,0.725557,-10.14742,2
14259880,6162,4.03,-3.27,-4.14,-9.18,-7.51,8.09,8.81,-0.1737758,-0.003383377,-0.0903186899999999,-0.8005212,0.8288608,-9.59031,2
14370618,6228,4.45,-3.34,-4.04,-9.27,-7.74,8.1,8.35,0.05832548,-0.05115391,-0.01860379,-0.8732289,0.4459799,-9.501448,2
14479951,6244,4.29,-3.17,-3.62,-9.29,-7.78,8.1,7.97,-0.007890083,0.01956643,-0.02693751,-0.5863001,0.6997691,-9.48279,2
14580939,6283,4.26,-3.01,-3.22,-9.06,-7.85,8.09,7.83,0.1196522,0.001344675,-0.01630302,-0.7763166,0.4764158,-10.05845,2
14691110,6217,4.31,-2.96,-3.14,-8.88,-7.95,8.08,7.6,-0.1691692,-0.02098479,-0.04973232,-0.7273665,0.342083,-9.673323,2
14801759,6310,4.0,-2.83,-2.99,-8.71,-7.99,8.07,7.12,0.0759372299999999,0.02771388,-0.08813277,-0.7862341,0.5879143,-9.384022,2
14909769,6219,3.97,-2.5,-3.09,-8.46,-7.81,8.06,6.49,0.01398854,0.08368737,-0.0817083,-0.946043,0.5750688,-9.949826,2
15019109,6124,4.03,-2.14,-2.93,-8.19,-7.32,8.05,5.98,-0.004025181,0.08304292,-0.05601403,-0.7798741,0.5108358,-9.732746,2
15126489,6226,4.1,-1.75,-2.81,-8.0,-6.66,8.04,5.77,-0.006625377,0.1187148,0.01021992,-0.8407542,0.5813046,-9.980529,2
15237631,6192,4.14,-1.42,-2.65,-7.82,-6.12,8.03,5.98,-0.02284508,0.0680608199999999,0.02722723,-0.7387127,0.539188,-9.886341,2
15340013,6086,3.81,-1.12,-2.63,-7.9,-6.12,8.04,6.29,-0.01958177,-0.03872158,0.06381487,-0.7718877,0.2729635,-9.584593,2
15449574,6114,3.91,-0.65,-2.84,-8.17,-6.06,8.04,6.67,-0.0261363,-0.03413791,0.05763951,-0.7304369,0.4189538,-9.804217,2
15666612,6131,4.18,0.36,-1.93,-8.59,-6.57,8.04,7.3,0.1783824,-0.1592247,0.06318505,-0.7514612,0.5123198,-10.04542,2
15770160,6227,4.09,0.77,-1.06,-8.53,-7.12,8.04,7.61,0.02750795,-0.06602051,0.05356395,-1.009972,0.3982714,-10.10929,2
15885957,6216,4.15,1.15,-0.73,-8.38,-7.27,8.05,7.93,0.1190608,-0.0707307799999999,0.0387937,-0.7087544,0.353411,-10.0202,2
15992455,6268,4.03,1.34,-0.51,-7.98,-7.12,8.05,8.15,0.02743167,0.02479469,0.03322792,-0.7161309,0.4517058,-10.15461,2
16106102,6171,4.13,1.35,-0.06,-7.35,-6.76,8.07,8.34,0.03821938,0.1127857,0.02321887,-0.8097405,0.4738718,-9.988116,2
16210142,6186,4.09,1.27,0.09,-6.86,-6.2,8.08,8.36,0.03099963,0.06552238,-0.02822996,-0.7020047,0.3366816,-9.812031,2
16317551,6219,3.83,1.1,0.0,-6.33,-5.7,8.09,8.09,-0.05849736,0.1229659,-0.05925099,-0.6173242,0.4171164,-9.793999,2
16538986,6016,3.67,0.55,-0.61,-6.9,-6.1,8.08,6.88,-0.2016239,-0.04000658,-0.1105758,-0.9082007,0.4277302,-9.770721,2
16658337,6021,3.39,0.53,-0.91,-7.28,-6.61,8.08,5.84,0.06679182,-0.09159169,-0.135729,-0.8385018,0.6416871,-9.739163,2
16768260,5699,3.71,0.49,-0.11,-6.63,-6.64,8.09,5.0,0.2202642,0.1418368,-0.09544669,-0.9643149,0.3698859,-9.731884,2
16879886,5832,3.56,0.39,0.24,-4.63,-4.85,8.1,4.68,0.06007277,0.4440242,-0.004219338,-1.1203,0.5385184,-9.639427,2
16984290,5897,4.0,-0.02,0.45,-3.13,-2.49,8.11,4.71,-0.05995076,0.3982753,0.04890161,-0.702444,0.5672913,-9.819302,2
17091762,6016,3.89,-0.75,0.39,-1.93,-0.89,8.1,5.03,-0.06245012,0.157067,0.07843329,-0.4056593,0.6668193,-9.802777,2
17204880,6188,3.73,-1.56,-0.37,-1.33,-0.69,8.09,5.52,-0.1613216,0.03036785,0.06992651,-0.7970145,0.7980413,-9.705961,2
17417387,6028,4.14,-2.96,-1.56,-1.2,-1.23,8.09,5.97,-0.1579093,-0.04358815,0.03907894,-1.011122,0.5964844,-10.12902,2
17543101,6044,4.02,-3.73,-1.86,-1.92,-1.89,8.13,6.08,-0.04334129,-0.1711535,0.02766537,-0.4851304,0.8294589,-9.97098,2
17637948,6078,4.03,-4.31,-2.12,-2.02,-2.84,8.14,6.19,-0.1275519,-0.1779255,0.01925503,-0.6670009,0.5694811,-9.66476,2
17764417,6262,3.98,-4.94,-2.95,-2.26,-3.2,8.16,6.32,-0.1759248,0.03890185,0.01012338,-0.8057709,0.5635291,-9.94174,2
17973204,6198,3.97,-5.37,-4.69,-2.16,-3.28,8.15,6.82,-0.0678823499999999,-0.03962649,0.06414916,-0.5329702,0.9463608,-9.886723,2
18081533,6156,3.84,-5.39,-4.96,-1.22,-3.47,8.06,7.22,0.0997590899999999,0.1288269,0.05548363,-0.7154202,0.5006703,-9.833784,2
18185956,6136,4.13,-5.18,-5.15,-0.13,-2.11,7.96,7.45,0.01361724,0.2744163,0.06180378,-0.6993523,0.9604093,-10.09386,2
18292977,6044,3.98,-5.1,-4.21,0.88,-0.92,7.86,7.65,0.1975868,0.114025,0.05822195,-0.5083008,0.5763916,-10.19728,2
18408130,6182,4.17,-4.88,-3.41,1.44,0.09,7.81,7.67,0.2018552,0.1612283,0.007819103,-0.6416804,0.7039525,-9.495751,2
18520128,6040,4.2,-4.7,-3.17,1.59,0.49,7.8,7.57,-0.007228525,0.06382532,-0.03369698,-0.3998868,0.5570832,-10.10135,2
18621943,6240,4.1,-4.58,-3.14,1.55,0.73,7.81,7.27,0.05089173,0.0843785299999999,-0.07259478,-0.3917701,0.5464902,-9.814276,2
18731679,6127,3.73,-4.32,-4.02,1.47,0.53,7.81,7.1,-0.1740019,0.002550901,-0.04400401,-0.521951,0.5695096,-9.992855,2
18853680,6106,4.05,-4.05,-4.46,1.3,0.59,7.82,6.87,-0.08937652,0.02775502,-0.02983255,-0.4136885,0.5407276,-9.966683,2
18965564,6030,3.95,-3.71,-4.11,1.12,0.41,7.84,6.7,0.004059199,-0.1039829,-0.004938513,-0.6226664,0.4152293,-10.08854,2
19064594,6050,3.61,-3.01,-4.1,0.95,0.04,7.85,6.37,0.01617246,0.007958896,-0.08933874,-0.592333,0.5201654,-9.752091,2
19165942,5970,3.64,-2.26,-4.08,0.85,0.37,7.85,5.72,0.04119475,0.1960501,-0.08711647,-0.9498541,0.3799379,-10.01368,2
19392607,5944,3.91,-0.81,-2.33,-2.11,-1.4,7.92,5.58,0.3157712,-0.3691809,0.05871825,-0.500261,0.55153,-9.938737,2
19504559,6025,4.2,-0.71,-0.82,-3.34,-3.63,7.94,6.13,0.1802593,-0.3740157,0.08228804,-0.5719343,0.1660878,-9.748489,2
19614584,6250,3.86,-0.85,-0.51,-3.81,-5.12,7.94,6.84,-0.04154506,-0.1296913,0.1052063,-0.548297,0.5170019,-9.600454,2
19827613,6071,4.57,-2.13,-0.97,-3.39,-4.83,7.93,8.45,0.1708546,0.1576209,0.1618576,-0.2764273,0.8041732,-9.519508,2
19930890,6341,4.57,-2.62,-1.06,-2.99,-4.12,7.91,9.22,-0.04695946,0.03360534,0.1679847,-0.08670695,0.6732292,-9.651647,2
20041795,6324,4.72,-2.87,-1.16,-2.3,-3.48,7.88,10.08,-0.002509928,0.1323426,0.1604905,-0.2854499,0.6725382,-10.00011,2
20153009,6267,4.65,-3.06,-1.27,-0.84,-2.38,7.8,10.78,0.001460038,0.2636238,0.136537,-0.2523419,0.6187326,-9.830369,2
20265014,6482,4.34,-3.02,-2.08,0.08,-0.69,7.76,11.39,-0.02227806,0.2684291,0.0760937899999999,-0.3528362,0.7357506,-10.26872,2
20367139,6450,4.34,-2.94,-2.92,0.55,0.35,7.73,11.75,-0.1798469,0.1194727,0.0887983299999999,-0.4139113,0.6429237,-9.707317,2
20484628,6317,4.67,-2.61,-3.27,0.62,0.66,7.73,12.01,-0.1114322,0.005838182,0.02770719,-0.1955277,0.3045237,-9.695706,2
20591973,6350,4.25,-1.05,-2.84,0.59,0.28,7.73,12.01,0.0998816,-0.1588179,-0.03309305,-0.1651331,0.5184107,-9.444028,2
20700127,6157,4.75,1.66,-0.1,0.66,-0.56,7.73,11.57,0.4737675,-0.1519537,-0.08902968,-0.3022169,0.5227728,-9.453218,2
20799418,6159,4.49,3.98,3.12,0.72,-0.94,7.73,10.97,0.5287101,-0.06855717,-0.1060571,-0.3760007,0.3238016,-10.10462,2
20914389,6266,4.32,6.04,5.93,0.85,-0.76,7.74,10.3,0.2673401,0.05845627,-0.097284,-0.3582667,0.3191657,-9.888704,2
21017177,6382,4.23,7.42,7.14,0.96,-0.35,7.76,9.72,0.1179393,0.07783448,-0.09513931,-0.3136477,0.2298971,-9.6991,2
21244038,6053,3.97,8.43,7.35,0.65,0.3,7.71,8.64,-0.3186246,0.05504824,-0.0576603,-0.4702739,0.1876419,-9.908655,2
21342053,5959,3.98,8.48,6.75,0.28,0.27,7.65,8.31,-0.04540839,-0.01796183,-0.0369418,-0.394282,0.3801967,-9.659412,2
21455659,6066,3.58,8.46,6.2,-0.13,0.12,7.59,7.99,0.005200492,-0.09926835,-0.04242146,-0.3329594,0.367235,-9.619602,2
21569960,5998,3.78,8.52,6.17,-0.53,-0.22,7.53,7.64,-0.01192107,-0.03273397,-0.0476064,-0.4064727,0.2741529,-9.809434,2
21775013,5985,3.71,7.86,6.03,-1.16,-0.98,7.44,6.99,-0.03669908,-0.04698119,-0.06036142,-0.5463807,0.1244143,-9.626693,2
21896608,5990,3.2,6.57,4.32,-1.32,-1.21,7.42,6.61,-0.2478535,0.00283747,-0.05903334,-0.4496696,-0.03209397,-9.717874,2
21996188,5722,2.78,6.06,2.49,-1.54,-0.83,7.39,6.19,-0.3199704,0.0748207,-0.0775961,-0.3010931,0.3195669,-9.423969,2
22104128,5655,2.95,5.9,2.06,-1.67,-0.99,7.38,5.62,0.008486675,-0.03712751,-0.1043105,-0.3215534,-0.1024003,-9.485028,2
22206912,5641,3.05,5.41,2.2,-1.83,-1.49,7.36,5.02,0.04417878,-0.0798866,-0.08946851,-0.351588,-0.1404881,-9.69179,2
22318299,5629,2.74,4.03,1.31,-1.96,-1.99,7.35,4.83,-0.2036107,-0.09858198,0.002114631,-0.4095391,-0.1042547,-9.559841,2
22533922,5657,3.2,2.31,-0.55,-1.98,-2.04,7.35,5.87,0.01649416,-0.0133067,0.1226104,-0.2702846,0.1888319,-9.530417,2
22647871,5769,3.41,1.87,-0.88,-1.84,-2.3,7.36,6.84,-0.06835648,-0.1024081,0.1625432,-0.3856959,-0.05085234,-9.251425,2
22763313,5758,3.84,1.73,-0.95,-1.79,-2.37,7.36,7.78,0.006978811,0.0647016,0.1420752,-0.3996695,0.0786936699999999,-9.756712,2
22864374,5935,3.66,1.57,-0.65,-1.66,-2.33,7.36,8.37,0.004768856,-0.06125008,0.1229659,-0.4435593,0.250502,-9.715592,2
22966426,5998,3.85,1.34,-0.19,-1.51,-1.83,7.37,8.78,-0.008430243,0.06981234,0.07797901,-0.2782648,0.2798724,-9.909898,2
23083547,5914,3.83,0.92,0.05,-1.36,-1.57,7.37,8.78,0.043899,-0.03373545,-0.05027174,-0.4378387,0.5675064,-9.870495,2
23190946,5921,4.12,0.25,0.4,-1.19,-1.8,7.37,8.52,0.04572672,-0.02688042,-0.0745963,-0.1368255,-0.07543948,-9.664136,2
23295004,6029,4.34,-0.4,0.34,-0.97,-1.76,7.37,8.02,-0.1987197,0.114776,-0.08005133,-0.386868,0.07604405,-10.2014,2
23402581,6089,4.23,-2.22,-0.73,-0.14,-1.19,7.35,7.44,-0.3137238,0.1612101,-0.09939826,-0.3310935,-0.0903547299999999,-10.20247,2
23515694,6234,4.09,-5.14,-3.42,1.37,0.07,7.25,6.9,-0.6383443,0.2503031,-0.06372392,-0.3179624,0.1967023,-9.648336,2
23628342,6048,3.39,-7.65,-7.03,2.57,1.73,7.12,6.37,-0.596498,0.2792571,-0.03047959,-0.1884764,0.4421932,-10.19248,2
23734563,5912,3.75,-8.6,-8.85,2.97,2.58,7.06,6.1,-0.1484195,0.01622462,-0.02127368,-0.3152407,0.527471,-10.11193,2
23958945,5886,4.0,-7.87,-6.68,2.56,2.07,7.12,6.34,0.1994733,-0.1284337,0.0316801,-0.04233576,0.5101345,-10.05955,2
24060797,6211,4.2,-7.37,-5.13,2.19,1.42,7.17,6.63,0.3038424,-0.07546913,0.04923119,-0.2545473,0.3447467,-9.954398,2
24164902,6169,4.26,-7.15,-4.51,1.9,0.96,7.21,7.05,0.1302828,-0.05716534,0.07184535,-0.2036131,0.4980714,-9.998816,2
24282434,6121,4.14,-7.13,-4.27,1.81,0.72,7.22,7.89,0.0707167499999999,-0.03706837,0.1249178,0.07355947,0.3416732,-9.966457,2
24499796,6327,4.67,-7.36,-4.62,1.95,0.89,7.2,10.11,0.01735305,-0.05777864,0.2122192,-0.01161691,0.5917541,-9.663476,2
24614621,6315,4.69,-7.38,-4.82,1.98,0.95,7.2,11.16,-0.04014768,-0.0145365,0.1596933,-0.07930403,0.5417801,-9.713363,2
24722993,6341,4.96,-7.33,-4.74,1.85,0.67,7.21,11.86,0.0877687,-0.02501338,0.09966055,-0.06535042,0.4278937,-9.748446,2
24832641,6464,4.67,-7.18,-4.51,1.7,0.58,7.23,12.12,0.03099003,0.001257847,-0.00116088,0.1717736,0.5260917,-9.51934,2
24946454,6401,4.56,-6.87,-4.66,1.7,0.4,7.23,11.75,0.01831792,-0.006149125,-0.05914055,-0.04099279,0.5403902,-9.70263,2
25045982,6413,4.67,-6.7,-4.83,1.61,0.64,7.24,11.04,-0.0256993,0.09202361,-0.1586639,-0.07164184,0.507059,-9.569283,2
25160587,6380,4.48,-6.56,-4.64,1.41,1.06,7.27,10.08,-0.03649457,0.1177066,-0.1493666,0.02145007,0.4201751,-9.696443,2
25271376,6301,4.27,-6.27,-4.44,1.02,1.17,7.31,9.33,0.04304199,-0.01100238,-0.1257574,-0.1322489,0.7294062,-9.698327,2
25374129,6326,4.17,-6.01,-4.14,0.62,0.99,7.35,8.8,0.1043497,-0.04242333,-0.07641052,0.05007179,0.5082553,-9.593675,2
25493145,6262,4.44,-5.72,-3.84,0.23,0.44,7.39,8.67,0.0296902,0.03046369,0.007166215,-0.1808366,0.560352,-9.849368,2
25601660,6346,4.2,-5.41,-3.93,0.03,-0.08,7.41,9.01,-0.003891133,-0.06630357,0.07000954,-0.008603784,0.5300556,-9.530422,2
25713381,6398,4.5,-5.11,-3.97,0.08,-0.69,7.41,9.67,0.08601142,-0.1119164,0.1155559,-0.2194863,0.8930572,-9.732929,2
25817833,6263,4.77,-4.85,-3.85,0.36,-1.23,7.39,10.34,-0.0733299,-0.0679932699999999,0.0831503299999999,0.05493324,0.684584,-9.631126,2
25926698,6534,4.61,-4.49,-3.44,0.86,-1.59,7.34,10.73,0.03753771,0.02066917,0.02005358,0.05153035,0.6000356,-9.573201,2
26144173,6429,4.31,-4.14,-2.31,1.48,0.19,7.3,10.52,-0.007355404,0.1219387,-0.01981965,0.1025034,0.7646707,-9.156264,2
26253107,6462,4.3,-4.16,-2.16,1.48,1.05,7.3,10.16,0.1209324,0.1021084,-0.08683007,0.02527104,0.6108148,-9.738217,2
26365166,6286,4.45,-4.36,-2.22,1.23,0.97,7.32,9.59,0.07973347,0.003526752,-0.09798497,-0.07777514,0.6360124,-9.742826,2
26473675,6296,4.08,-4.55,-2.76,0.79,0.52,7.35,8.85,-0.1731671,-0.07248946,-0.1526587,-0.2999046,0.8696011,-9.647962,2
26579944,6240,4.0,-4.71,-3.12,0.44,0.0,7.38,8.1,0.03478115,-0.02703786,-0.1331094,-0.1962704,0.6679274,-9.360879,2
26689369,6227,3.98,-4.72,-3.37,0.14,-0.26,7.4,7.53,0.01779917,0.04172936,-0.0525636,-0.326509,0.7466784,-9.762266,2
26794884,6208,3.81,-3.9,-3.31,-0.03,-0.47,7.42,7.43,0.002066577,-0.04790024,-0.004751001,-0.1857454,1.077228,-9.517118,2
26904128,6108,4.67,-1.71,-1.22,-0.26,-0.33,7.43,7.43,0.3484389,-0.02980228,0.0213116,-0.1327054,0.6209605,-9.914142,2
27137349,6277,4.6,1.59,3.64,-0.77,-0.84,7.43,7.51,0.2088918,-0.1183622,0.001631398,-0.3090048,0.6976607,-10.33208,2
27233453,6368,4.06,2.18,4.19,-0.91,-1.32,7.42,7.54,-0.04987258,-0.07281922,-0.01373598,-0.4110989,0.5765705,-10.0662,2
27566924,6314,4.28,3.05,2.72,-2.18,0.23,7.36,7.39,-0.1986488,-0.02178572,0.03205702,-0.0745815,0.7377058,-10.24078,2
27681393,6330,4.65,2.63,2.78,-2.78,-0.38,7.33,7.44,0.0701043799999999,-0.1203554,-0.01092708,-0.1380154,0.2505613,-9.727366,2
27906120,6345,3.9,-1.22,-1.73,-3.3,-2.88,7.32,7.76,-0.5018106,-0.1372339,0.0309965,-0.373946,0.4447536,-9.740251,2
28007718,6155,4.02,-2.3,-4.1,-3.18,-3.09,7.31,8.05,-0.2271197,0.07751309,0.05845923,-0.2539539,0.5001887,-9.43156,2
28225614,6140,4.14,-2.04,-4.88,-2.69,-2.48,7.29,8.74,0.2355608,0.07359727,0.052964,-0.2970221,0.534798,-9.385124,2
28332445,6121,4.16,-1.46,-3.93,-2.45,-2.16,7.29,9.09,0.2169051,0.06617888,0.05083382,-0.2703906,0.3385454,-9.675046,2
28443392,6311,4.14,-0.85,-2.91,-2.21,-2.19,7.28,9.24,0.1831254,0.03861054,0.03359814,-0.1134015,0.4280731,-9.592819,2
28542774,6125,4.0,0.3,-2.16,-2.01,-2.14,7.28,9.14,0.1842524,0.1125816,-0.02433385,-0.1242289,0.4692129,-9.208693,2
28664929,6000,4.33,2.57,0.64,-1.78,-1.7,7.29,8.81,0.4813671,0.1661443,-0.05529195,-0.1001652,0.3383004,-10.13824,2
28873931,6117,4.25,4.68,4.28,-1.53,-1.29,7.3,8.26,0.09250344,-0.0006241025,-0.01535436,-0.1697868,0.1746693,-10.15047,2
28987283,6283,4.28,4.63,4.43,-1.43,-1.45,7.31,8.37,0.03299153,0.01612123,0.005616948,-0.2587249,0.3624038,-9.956007,2
29094604,6215,4.37,4.01,3.6,-1.23,-1.52,7.32,8.72,-0.2481891,0.08805604,0.04149467,0.05871916,0.2373207,-9.894559,2
29205904,6313,4.49,3.34,2.45,-0.84,-1.73,7.35,9.17,-0.2544255,-0.04846631,0.05056871,-0.06695089,0.1477843,-10.0206,2
29315559,6289,4.51,1.64,0.75,-0.31,-1.75,7.37,9.86,-0.3674836,0.03471275,0.1055256,-0.04728452,0.1400597,-9.983145,2
29429682,6500,4.39,0.37,-0.95,0.29,-1.13,7.38,10.53,-0.1392008,0.1154874,0.1283585,-0.02369419,0.3906422,-9.846728,2
29546526,6484,4.49,-0.25,-1.73,0.98,-0.46,7.38,11.0,0.0346514,0.02987662,0.06160357,-0.04273831,0.6079996,-9.939169,2
29647889,6361,4.58,-0.4,-1.65,1.57,-0.02,7.38,11.23,0.1723081,0.1221656,0.06456686,-0.1033684,0.3535629,-10.02556,2
29756007,6408,4.46,-0.34,-1.24,2.01,0.59,7.38,11.33,0.2375384,0.1378753,0.02439379,0.1314611,0.4778858,-9.803864,2
29866768,6306,4.32,-0.55,-0.5,2.26,0.9,7.37,10.86,0.1583402,0.1131461,-0.1186301,0.0322289,0.1374477,-9.896595,2
29969665,6359,4.23,-0.86,-0.29,2.34,0.94,7.37,9.92,-0.08266975,-0.06118731,-0.1626987,-0.2214269,0.3851775,-9.921712,2
30078330,6169,3.87,-1.41,-0.54,2.38,1.08,7.37,8.79,-0.03179963,0.01961359,-0.1886391,-0.1199116,0.3998188,-9.543251,2
30191973,6323,3.83,-1.95,-1.15,2.45,1.37,7.37,7.86,-0.01245389,0.08014909,-0.120736,0.1101018,0.3725951,-9.934305,2
30297631,6124,3.68,-2.27,-1.8,2.51,1.67,7.37,6.99,-0.01766986,0.0726945799999999,-0.1304879,0.3627864,0.1677082,-9.570588,2
30401671,6083,3.72,-3.09,-2.64,2.6,1.49,7.36,6.24,-0.1785263,-0.06542831,-0.1452263,0.1029413,0.1899845,-9.725022,2
30515001,6043,3.84,-5.22,-4.84,2.46,1.58,7.37,5.49,-0.2861876,-0.04635919,-0.1031561,0.09779024,0.3999214,-9.936138,2
30625534,6033,2.98,-5.8,-6.69,2.34,1.48,7.39,5.04,-0.2161514,-0.01298463,-0.06574686,-0.1040199,0.6309283,-10.25399,2
30726792,5795,3.81,-4.01,-5.52,2.19,1.14,7.4,4.74,0.4796527,-0.1194641,-0.06603272,-0.07684924,0.7787663,-9.751819,2
30840459,5755,4.2,-1.89,-1.6,2.06,1.01,7.41,4.57,0.6086944,0.080606,0.01360165,-0.0482455,0.4543463,-10.28623,2
30950796,5922,4.29,-0.47,1.5,1.96,1.17,7.41,4.86,0.3763497,0.0387373,0.0753713,-0.04529431,0.4544829,-10.02559,2
31059456,6109,4.14,0.17,2.69,1.99,1.4,7.41,5.57,0.07207302,0.1206983,0.1204033,0.1255328,0.3822213,-10.12804,2
31169952,6085,4.15,0.15,2.52,2.08,1.26,7.41,6.33,-0.1595959,-0.06465753,0.1005899,-0.04621146,0.3821103,-9.984179,2
31278564,6222,4.04,-0.02,1.51,2.08,1.26,7.41,6.84,-0.2421437,0.0237885,0.06103927,0.1946447,0.4021964,-10.04596,2
31381024,6028,4.17,0.08,0.42,2.1,1.04,7.41,7.27,-0.1929536,0.0428443,0.0728141499999999,0.2355351,0.5928614,-9.800633,2
31499109,6036,4.39,0.13,0.3,2.02,1.24,7.41,7.52,0.02987765,0.01704022,0.01649587,0.0790241099999999,0.51064,-10.00742,2
31609546,6126,4.19,0.63,0.43,1.83,1.69,7.41,7.54,-0.1266226,0.02326488,-0.02028191,0.2655484,0.1992376,-9.698913,2
31716919,6108,4.15,1.23,0.85,1.6,1.56,7.4,7.31,0.03981475,-0.05612982,-0.04703281,0.04296094,0.5166458,-9.698238,2
31823130,6055,4.28,1.49,1.36,1.32,1.3,7.4,6.91,0.06147601,-0.04117188,-0.0637823899999999,0.1049608,0.3309551,-9.804999,2
31932612,6050,4.06,1.66,1.7,0.91,0.75,7.38,6.49,0.0505899,-0.153621,-0.0650956699999999,-0.152664,0.411275,-9.997883,2
32041204,6118,3.98,1.8,1.43,0.49,0.6,7.37,6.22,-0.1019797,-0.1062625,-0.04499687,0.07275636,0.3966897,-9.85906,2
32153363,5885,3.97,1.89,1.41,0.22,0.28,7.36,6.13,0.003983263,0.01808421,0.005204041,0.1857668,0.3845278,-9.888757,2
32256290,6150,3.9,1.98,1.34,0.08,-0.31,7.36,6.19,0.08026379,-0.1434053,0.003326199,-0.05668559,0.4064672,-9.807188,2
32367351,5994,3.98,2.16,1.19,-0.08,-0.18,7.35,6.29,-0.1765194,0.02358206,0.0281217,-0.03573336,0.3291485,-9.571726,2
32477150,5946,3.89,2.38,1.23,-0.22,0.19,7.35,6.46,-0.01716418,-0.01297626,0.01991942,-0.004737454,0.3624109,-9.64474,2
32584401,5998,4.15,2.52,1.27,-0.3,0.36,7.34,6.63,0.04618655,0.07529511,0.009584007,0.00389252,0.1796324,-9.841649,2
32684093,5986,4.15,2.69,1.52,-0.46,0.24,7.34,6.74,0.0196819,-0.12033,0.01989304,-0.01940949,0.4088812,-9.712741,2
32803311,6080,4.09,2.77,1.85,-0.64,0.08,7.33,6.86,0.01517241,-0.05413695,0.01756129,-0.129062,0.321799,-10.10028,2
32911588,6029,4.12,2.87,1.97,-0.65,-0.35,7.33,7.01,0.05265391,-0.1640464,0.04889032,-0.0099571179999999,0.3179522,-9.52773,2
33017595,6046,3.94,2.96,1.91,-0.67,-0.51,7.33,7.24,-0.008729335,-0.05474214,0.03961285,-0.07983839,0.2220972,-9.841982,2
33124329,6123,4.03,3.09,1.98,-0.67,-0.34,7.33,7.47,0.07136285,0.07164259,0.03206272,0.1109409,0.3453594,-9.694323,2
33359137,6036,4.2,3.17,2.34,-0.9,-0.05,7.31,7.83,0.0967422399999999,-0.02400135,-0.00437488,-0.1007289,0.1517678,-9.873714,2
33456669,6219,3.99,3.06,2.07,-1.13,-0.09,7.3,7.93,-0.03829182,0.06344307,0.008650961,0.1936119,0.220454,-9.368909,2
33671998,6271,4.12,0.46,0.29,-1.45,-0.54,7.29,7.91,-0.3163721,-0.08265537,0.01558836,-0.1566306,0.06563457,-9.725958,2
33778700,6283,4.0,-0.85,-2.2,-1.45,-0.78,7.29,8.01,-0.4696008,-0.0710547599999999,0.02538513,-0.03342829,0.1348842,-9.658628,2
33886670,6069,4.06,-1.84,-3.89,-1.35,-0.91,7.28,8.18,-0.2406391,-0.0714649,0.03818112,0.002226374,0.4362254,-9.7454,2
33999434,6047,3.79,-2.08,-4.39,-1.21,-0.93,7.28,8.44,0.06999624,0.06332704,0.0233018,-0.03854256,0.2414535,-9.967681,2
34107897,6092,4.17,-1.87,-3.99,-1.15,-1.03,7.28,8.65,0.1112062,-0.03265397,0.03818769,-0.288907,0.3151751,-10.31672,2
34213142,6014,4.09,-1.58,-3.17,-1.11,-0.89,7.28,8.77,0.1183686,0.01642088,0.01506503,-0.181367,0.2925179,-9.692804,2
34324612,6014,3.9,-0.45,-2.07,-1.07,-0.69,7.27,8.84,0.176814,0.009195864,-0.004377225,0.02349681,0.469413,-9.410303,2
34432492,6033,4.29,1.3,0.47,-1.03,-0.5,7.27,8.69,0.4893225,0.08344337,-0.02590699,-0.1040021,0.03455179,-9.840457,2
34545585,6111,4.44,2.28,2.54,-1.08,-0.35,7.27,8.59,0.2423716,0.05953142,0.01130331,-0.1536669,0.3995849,-9.904819,2
34772975,6088,3.9,1.42,1.92,-1.39,-0.46,7.26,8.3,-0.3664928,-0.003718861,-0.03520959,0.041873,0.2290828,-9.592879,2
34871652,6142,4.13,-0.32,-0.05,-1.5,-0.68,7.26,8.07,-0.4258341,0.04506266,-0.02360439,-0.1502232,0.1418888,-10.06839,2
34983110,6140,3.72,-1.66,-2.48,-1.62,-0.94,7.26,7.79,-0.2887405,-0.1137625,-0.02487842,-0.2221405,0.4901879,-9.66011,2
35085015,5915,3.66,-2.2,-3.83,-1.72,-0.96,7.27,7.42,-0.2099639,0.0451868,-0.05891579,-0.00370827,0.3565739,-9.742864,2
35196923,5999,3.68,-2.19,-4.22,-1.78,-1.06,7.27,6.91,-0.02041211,0.03160901,-0.0847949499999999,-0.1841968,0.3886989,-10.14881,2
35304588,5986,3.81,-1.9,-3.58,-1.78,-1.0,7.27,6.51,0.1798902,0.1187151,-0.04915179,-0.08041292,0.3439631,-9.72715,2
35413986,6085,3.79,-1.69,-2.72,-1.74,-1.02,7.27,6.26,0.1893004,0.005003441,-0.02825679,-0.1767615,0.2353285,-10.02024,2
35530959,6085,4.04,-1.98,-2.36,-1.66,-1.03,7.26,6.14,-0.08257219,0.01667559,0.006261442,-0.1925666,0.1882698,-9.65778,2
35630403,6088,4.35,-2.71,-2.3,-1.58,-1.05,7.26,6.21,-0.1265278,-0.05137429,0.01138017,-0.1478872,0.1411275,-9.875714,2
35749382,6221,4.11,-3.8,-2.83,-1.4,-1.08,7.25,6.37,-0.1442619,0.02965374,0.01629409,-0.2395912,0.3653799,-10.19098,2
35854723,6275,3.83,-4.76,-3.96,-1.34,-1.07,7.25,6.66,-0.140961,-0.1181885,0.01475824,-0.04749919,0.4678082,-9.753814,2
35967414,6040,4.29,-5.28,-4.52,-1.23,-1.19,7.24,7.04,0.07829177,-0.005463618,0.06413739,-0.0844807499999999,0.2474394,-9.651233,2
36076353,6155,4.45,-5.63,-4.41,-1.05,-1.31,7.22,7.27,0.1595982,-0.0001920585,0.03009882,-0.2698472,0.4039715,-9.858235,2
36172762,6243,4.3,-5.91,-4.35,-0.85,-1.28,7.2,7.5,-0.05173562,0.005229907,0.03264223,-0.08254106,0.1657712,-9.71216,2
36286442,6327,4.47,-6.25,-4.41,-0.73,-0.75,7.19,7.66,-0.02692623,0.0956391199999999,0.0277744,-0.2216745,0.3661464,-10.29698,2
36399081,6263,4.41,-6.56,-4.72,-0.6,-0.41,7.17,7.9,-0.02694126,-0.01612651,0.04886027,0.0193957,0.2307447,-9.501502,2
36508761,6321,4.39,-6.79,-5.04,-0.59,-0.23,7.17,8.12,-0.07458872,-0.08748155,0.04083059,-0.07704196,0.4583988,-10.15274,2
36607887,6117,4.29,-6.82,-5.29,-0.55,-0.36,7.17,8.37,-0.1265551,-0.05121724,0.05172687,0.06502698,0.5661451,-9.627724,2
36734573,6335,4.38,-6.87,-5.31,-0.46,-0.41,7.15,8.59,-0.02520473,0.08094609,0.01714891,-0.04666882,0.2925465,-9.696173,2
36832387,6304,4.44,-6.77,-5.49,-0.33,-0.26,7.14,8.68,-0.05370677,0.1045709,0.03560781,-0.1217713,0.605321,-10.09852,2
36939979,6350,4.53,-6.69,-5.55,-0.19,-0.08,7.12,8.67,0.07641705,-0.000328733,-0.01702786,-0.1369094,0.4907861,-9.751745,2
37044184,6411,4.54,-6.6,-5.43,-0.24,0.29,7.13,8.46,0.1383739,0.08291914,-0.02576772,-0.2733904,0.4221402,-9.815969,2
37151359,6274,4.33,-5.61,-5.11,-0.38,0.5,7.14,8.3,0.006660801,0.07870977,-0.0245853,-0.06563243,0.5444025,-10.04874,2
37359125,6328,4.38,-4.47,-3.2,-0.76,-0.05,7.18,8.18,0.1323742,-0.1127119,-0.001317374,-0.2695842,0.5091166,-9.848667,2
37472440,6338,4.47,-4.25,-2.79,0.59,0.37,7.07,8.26,0.0706853,0.2856922,0.03200091,-0.398511,0.4488351,-9.510333,2
37585578,6295,4.55,-4.21,-2.77,3.01,2.6,6.9,8.27,-0.06956095,0.3757242,0.004796022,-0.143861,0.4726963,-9.674848,2
37697131,6268,4.56,-4.22,-2.75,5.21,5.19,6.73,8.22,-0.02722229,0.3217843,0.005465588,-0.1949373,0.4496608,-9.989073,2
37793935,6343,4.63,-4.22,-2.65,6.27,6.75,6.65,8.12,0.001285656,0.1012765,0.002085869,0.1402115,0.5285619,-9.609147,2
37899660,6384,4.5,-4.18,-2.8,6.79,7.43,6.61,7.93,-0.09677032,0.1119513,-0.02293027,0.1313201,0.4701532,-10.05913,2
38120882,6328,4.46,-4.06,-2.97,7.03,6.97,6.6,7.78,0.0310492,-0.0303088,0.01172599,0.1514003,0.5783371,-9.833484,2
38222462,6330,4.57,-3.93,-2.95,7.19,6.84,6.59,7.76,0.04030168,-0.05189272,0.0003602053,0.07006025,0.4306013,-9.966163,2
38451439,6425,4.64,-3.48,-2.64,7.37,6.63,6.57,7.76,0.04969748,0.05681672,-0.02487929,-0.1534538,0.4560916,-10.42068,2
38562897,6393,4.5,-3.24,-2.64,7.43,6.5,6.57,7.73,0.01279522,-0.051984,0.002818229,-0.02626339,0.6061181,-9.930287,2
38671016,6457,4.66,-3.2,-2.39,7.39,6.37,6.57,7.73,0.08663308,-0.02182278,0.02827531,0.1233631,0.5676014,-9.708505,2
38779761,6444,4.38,-3.14,-2.43,7.4,6.27,6.57,7.76,-0.1236036,0.04583368,-0.002187074,0.2618393,0.3805377,-9.676736,2
38889889,6324,4.56,-3.15,-2.32,7.33,6.11,6.58,7.71,0.06152124,0.07507366,0.01530382,0.3515938,0.4045063,-9.818668,2
38999427,6401,4.44,-3.18,-2.4,7.24,5.88,6.58,7.6,-0.02560499,-0.03068141,0.002507931,0.06560601,0.3178575,-10.14419,2
39103781,6287,4.37,-3.16,-2.75,7.2,5.91,6.58,7.64,-0.06987,0.006307133,0.04091401,0.09824623,0.4981882,-10.0329,2
39220540,6328,4.52,-3.14,-2.76,7.04,6.14,6.59,7.65,-0.06485137,0.009860661,0.01369583,0.3722093,0.4844257,-9.846952,2
39333426,6324,4.31,-2.97,-2.8,7.0,5.6,6.59,7.54,-0.03697802,-0.02853762,-0.0281641,0.1585076,0.5483959,-9.789124,2
39443757,6297,4.25,-2.68,-3.13,6.8,5.41,6.6,7.3,0.0632699,-0.01548302,-0.077607,0.2754743,0.6422057,-9.460089,2
39653759,6263,4.57,-2.25,-2.21,6.57,5.62,6.62,6.63,0.08863223,-0.06487869,-0.05795545,0.2979816,0.565488,-9.786257,2
39766117,6437,4.49,-2.17,-1.32,6.37,5.6,6.62,6.36,0.1626434,-0.01460582,-0.01267015,0.03603596,0.6205469,-10.25284,2
39864157,6383,4.0,-2.38,-0.99,6.08,5.23,6.63,6.23,-0.01918798,-0.02956995,-0.02243438,0.4928983,0.2440773,-9.411482,2
39975219,6294,3.96,-2.65,-1.77,5.78,4.86,6.65,5.88,-0.1819014,-0.05245685,-0.0914182,0.1928998,0.5016064,-9.414622,2
40081622,6114,4.24,-2.87,-2.54,5.49,4.62,6.66,5.44,-0.1237218,-0.009819767,-0.06779833,0.2219091,0.6580971,-9.566459,2
40196922,6172,4.39,-2.97,-2.37,5.06,4.38,6.68,4.9,0.1827216,0.01942701,-0.1036177,0.1757873,0.7631367,-9.687279,2
40303333,6281,4.02,-2.88,-2.15,4.38,3.76,6.72,4.39,0.06119678,-0.1708371,-0.07818823,0.1366839,0.8072121,-9.739373,2
40413621,6120,3.97,-2.88,-1.94,3.47,2.92,6.76,4.01,0.03195828,-0.1971504,-0.03870035,0.09877368,0.5757217,-9.900476,2
40520107,6180,4.03,-3.06,-2.1,3.05,2.35,6.79,3.71,-0.02150215,-0.06449719,-0.03480303,-0.002602752,0.7323633,-9.872653,2
40737396,6128,4.09,-3.26,-2.9,2.5,1.96,6.82,3.68,-0.06930275,-0.1044832,0.04936998,0.2955225,0.5712387,-9.76442,2
40837883,6144,4.14,-3.21,-3.03,1.92,1.35,6.85,3.96,0.1413891,-0.1057069,0.0458576,0.3144254,0.5681514,-9.667406,2
40959949,6300,4.26,-3.19,-2.59,0.66,0.69,6.92,4.47,0.1500357,-0.1259299,0.06614224,0.3035523,0.6561415,-10.0319,2
41060311,6299,4.4,-3.18,-2.49,-1.02,-0.79,7.01,5.13,0.04705751,-0.3466396,0.1103141,0.2192339,0.6272587,-9.778947,2
41173693,6287,4.39,-3.19,-2.79,-2.34,-2.36,7.09,6.01,-0.02846999,-0.2126508,0.1238712,0.1061602,0.4849643,-9.897223,2
41390972,6326,4.63,-2.9,-4.17,-3.74,-3.6,7.16,7.25,-0.002528104,-0.1204368,0.05717406,0.007584821,0.7004511,-9.709658,2
41493652,6289,4.91,-2.45,-3.83,-3.91,-3.71,7.17,7.62,0.1224125,-0.0006450358,0.0695909599999999,-0.1141518,0.4543098,-10.3126,2
41607559,6488,4.77,-1.79,-3.33,-3.95,-3.65,7.17,8.02,0.08883871,-0.0255399,0.06175031,0.04484477,0.6584752,-10.03447,2
41710992,6528,4.77,-1.33,-2.64,-3.9,-3.59,7.17,8.34,0.1095553,0.008011648,0.06856818,-0.04079373,0.4034257,-10.03972,2
41828453,6588,4.93,-0.9,-2.07,-3.98,-3.16,7.18,8.76,0.08573624,0.03568667,0.05823637,-0.1776718,0.4609467,-9.991241,2
41934600,6623,5.06,-0.86,-1.47,-4.13,-2.82,7.18,9.04,0.1073836,0.06112141,0.03351404,0.06583526,0.4493046,-9.586527,2
42046235,6562,4.93,-0.91,-1.33,-4.36,-2.75,7.18,9.18,-0.0723865,0.03786951,0.02252848,0.0495953,0.4950113,-9.632243,2
42151090,6613,5.11,-1.24,-1.33,-5.42,-3.41,7.2,9.21,0.1479968,-0.1851459,0.004532563,0.09384736,0.7556984,-9.763988,2
42263563,6593,4.89,-1.66,-1.53,-5.37,-3.79,7.2,9.36,-0.03731246,0.0346407,0.03729486,-0.2730249,0.9066068,-9.862018,2
42480017,6533,4.94,-2.58,-1.82,-4.94,-3.02,7.18,10.14,-0.1235718,0.00489813,0.0345186,-0.01173244,0.967454,-9.301782,2
42587304,6683,4.93,-3.0,-2.21,-4.88,-3.02,7.18,10.47,-0.06162243,-0.1177668,0.09916886,-0.1566212,0.903394,-9.589972,2
42698698,6658,5.06,-3.35,-2.65,-4.92,-3.26,7.18,10.81,0.1154416,-0.1480862,0.0432941,0.1031974,0.7551396,-9.668519,2
42806861,6691,5.19,-3.67,-2.82,-4.95,-3.45,7.18,10.99,-0.08043941,0.08640522,-0.005077427,-0.1383703,0.7045353,-9.501089,2
42916457,6770,5.18,-3.97,-2.82,-5.12,-2.78,7.2,11.0,-0.03003901,0.1833536,-0.01095547,-0.104189,0.5883688,-9.61088,2
43020988,6628,4.97,-4.2,-3.17,-5.35,-2.37,7.21,11.11,-0.07433211,0.06061405,0.0415743,-0.05794283,0.5632192,-9.853895,2
43130373,6626,4.77,-4.3,-3.95,-5.57,-2.84,7.23,11.24,-0.1072618,-0.1713711,0.02291974,-0.2683287,0.8001701,-9.821129,2
43249460,6521,4.8,-4.21,-4.15,-5.68,-4.09,7.24,11.19,0.1111332,-0.1847506,-0.0508778,-0.3338105,0.6316458,-9.799127,2
43361365,6455,4.65,-4.01,-4.04,-5.61,-5.03,7.23,10.87,-0.05036008,-0.1402604,-0.08410147,-0.1029061,0.7860745,-9.46155,2
43462588,6434,4.58,-4.0,-3.93,-6.1,-5.6,7.27,10.57,0.02241268,-0.08806986,-0.04139486,-0.05363096,0.642971,-9.496517,2
43565216,6508,4.61,-4.07,-4.15,-7.48,-7.18,7.36,10.2,0.02780328,-0.3349107,-0.1296628,-0.3020372,0.2270899,-9.762267,2
43678562,6387,4.62,-4.16,-4.75,-9.75,-9.37,7.53,9.87,-0.06356853,-0.2706905,-0.1077395,-0.5382519,0.6871898,-9.919263,2
43788877,6423,4.48,-4.12,-4.96,-11.03,-11.33,7.62,9.56,-0.04995956,-0.05844012,-0.08085767,-0.4536375,0.5118482,-9.555671,2
43897422,6516,4.52,-3.73,-4.78,-10.96,-11.23,7.62,9.15,-0.03637344,0.1271531,-0.06010843,-0.619143,0.3839675,-9.597301,2
44105094,6398,4.42,-2.9,-4.05,-9.51,-8.09,7.54,8.34,0.08893733,0.2983923,-0.07674835,-0.3382409,0.3654017,-9.926891,2
44226613,6227,4.28,-2.44,-3.45,-8.76,-6.69,7.5,7.96,0.1133417,0.2060258,-0.06437975,-0.5317181,0.6307228,-9.629481,2
44324792,6215,4.18,-2.14,-3.03,-8.57,-5.93,7.49,7.61,0.09228417,0.1659731,-0.05815155,-0.6024017,0.434441,-10.19846,2
44435627,6312,3.85,-1.76,-2.79,-8.51,-5.45,7.49,7.11,0.1103387,0.1081043,-0.07537615,-0.7145987,0.5519156,-10.01373,2
44553982,6229,4.17,-1.59,-2.21,-8.39,-5.58,7.49,6.51,0.09882951,-0.0008054762,-0.09901032,-0.6536916,0.6716762,-9.812559,2
44658052,6098,4.05,-1.58,-1.93,-8.14,-5.95,7.48,6.03,-0.01119294,-0.03185908,-0.1003409,-0.8115149,0.4746261,-9.44027,2
44771317,6073,4.27,-1.7,-1.74,-7.82,-5.76,7.47,5.54,0.05599535,0.05042,-0.06112145,-0.577593,0.4570625,-9.432962,2
44877443,6107,4.08,-1.8,-1.66,-7.38,-5.17,7.46,5.27,0.08744127,0.09538624,-0.04733392,-0.9710204,0.7069154,-9.826263,2
44996392,6294,4.43,-1.95,-1.64,-6.87,-4.61,7.44,5.18,0.002249566,0.05754615,0.02778975,-0.8145462,0.7405661,-9.93802,2
45092417,6239,4.1,-2.0,-1.9,-6.61,-4.34,7.43,5.19,-0.05963416,-0.004763425,-0.004227577,-0.5924721,0.5551465,-10.09222,2
45207991,6125,4.18,-2.05,-2.25,-6.37,-4.23,7.42,5.32,-0.01773791,0.04806026,0.04272006,-0.6971542,0.7444429,-9.913851,2
45315554,6113,4.25,-2.03,-2.27,-5.21,-4.09,7.38,5.45,-0.05843522,0.1386708,0.005788477,-1.119485,0.4307286,-9.653249,2
45418759,6284,4.15,-1.91,-2.39,-2.98,-1.91,7.3,5.5,-0.1053734,0.461576,0.04132551,-0.8642223,0.6265905,-10.17626,2
45531581,6261,4.37,-1.93,-2.45,-0.95,0.76,7.24,5.48,0.01522435,0.3687945,-0.004979977,-0.5019032,0.450318,-9.3315,2
45644023,6170,4.36,-1.9,-2.76,0.34,3.15,7.19,5.43,-0.1047942,0.3042238,-0.00661615,-0.5065558,0.6682983,-10.25055,2
45757348,6151,4.1,-1.87,-2.83,0.99,3.95,7.17,5.4,-0.05577651,0.01559814,-0.02500464,-0.1034236,0.6952547,-9.805564,2
45870152,6104,4.32,-1.88,-2.56,1.04,3.6,7.17,5.14,0.01047339,-0.1153439,-0.01965263,-0.1935967,0.4576091,-9.734153,2
45971775,6161,4.11,-1.91,-2.26,0.98,2.94,7.17,4.88,-0.001746684,-0.1320027,-0.06931331,-0.868158,0.4816467,-9.631004,2
46085357,6235,3.78,-1.87,-2.13,0.53,2.12,7.19,4.65,-0.001173578,-0.186846,-0.06572502,-0.6809851,0.6251322,-10.11394,2
46193888,6019,3.67,-1.79,-2.34,-0.35,1.04,7.21,4.52,-0.03522302,-0.1966832,-0.02206886,-0.4037816,0.7034731,-9.859464,2
46303172,5904,3.86,-1.77,-2.18,-0.86,-0.48,7.23,4.61,0.09222706,-0.1985704,0.0117313,-0.5474767,0.386759,-9.8155,2
46416347,5973,3.86,-1.78,-2.04,-2.21,-1.94,7.27,4.77,0.0005562418,-0.3105226,0.03489487,-0.4322187,0.4678412,-9.683448,2
46524008,6038,4.2,-2.0,-2.06,-3.4,-4.16,7.31,4.97,-0.01396023,-0.3491595,0.018986,-0.7771955,0.5419564,-9.618621,2
46635147,6265,4.18,-3.02,-2.5,-4.03,-5.34,7.34,5.2,-0.1527963,-0.0813452499999999,0.02894578,-0.6328483,0.1865931,-9.795268,2
46740134,6214,4.18,-4.19,-3.83,-4.05,-5.63,7.34,5.47,-0.3433859,0.0111076,0.05214422,-0.7225574,0.3463089,-10.14609,2
46846202,6213,4.12,-5.4,-5.48,-3.78,-5.38,7.31,5.84,-0.2657665,0.01723759,0.04700928,-0.4434525,0.4719156,-9.98711,2
46964001,6177,4.18,-6.43,-6.82,-3.25,-5.06,7.26,6.19,-0.2305779,0.09948467,0.07787479,-0.6724086,0.6720055,-9.85389,2
47172907,6115,4.39,-7.05,-7.09,-2.49,-4.46,7.17,6.87,0.04315757,-0.06310303,0.105658,-0.1771208,0.5933869,-10.20652,2
47506010,6248,4.98,-7.78,-5.73,-0.76,-3.13,6.94,9.03,0.02652336,0.01534162,0.09079776,-0.2349086,0.9230202,-9.613387,2
47607180,6470,4.58,-8.24,-5.81,-0.12,-3.1,6.85,9.53,-0.07699139,-0.04584819,0.06312367,-0.4752559,0.6943669,-10.23031,2
47730344,6426,4.46,-8.66,-6.9,0.55,-2.69,6.75,9.95,-0.1969468,0.0778523899999999,0.02516916,-0.17357,0.692974,-10.0119,2
47830675,6412,4.26,-8.33,-7.57,1.04,-1.59,6.68,9.91,-0.09256142,0.2404372,0.003066985,-0.08718239,1.05627,-9.360939,2
47950764,6391,4.7,-7.09,-6.37,1.6,-0.61,6.6,9.67,0.2533086,0.114657,-0.02436304,0.02356627,0.7252262,-9.394105,2
48050005,6428,4.75,-6.23,-4.79,2.0,-0.41,6.56,9.66,0.2517287,0.1043801,-0.001581159,-0.04679991,0.6599903,-9.471817,2
48151179,6442,4.7,-5.8,-3.73,2.09,-0.5,6.55,9.35,0.1695415,0.05591014,-0.0850283399999999,-0.2003347,0.3540111,-10.13846,2
48267002,6445,4.61,-5.94,-3.38,2.07,-0.87,6.55,8.54,0.14258,0.07792001,-0.1558399,-0.1281988,0.811606,-9.874621,2
48372636,6325,4.2,-6.26,-3.63,1.96,-1.02,6.56,7.68,-0.05248522,-0.0084468589999999,-0.1496646,0.02920815,0.6115674,-9.666413,2
48481184,6187,4.13,-7.06,-5.02,2.38,-0.82,6.51,6.8,-0.2975662,0.08732457,-0.1224422,-0.5534968,0.7824662,-10.17993,2
48599409,6234,4.19,-8.31,-6.75,2.91,-0.06,6.44,6.12,-0.2611008,0.07443938,-0.05796513,-0.2588402,0.8108513,-10.04587,2
48709899,6164,4.36,-9.2,-7.82,3.43,0.6,6.36,5.61,-0.1282979,0.1853528,-0.03601549,-0.4225345,0.75302,-9.762378,2
48811718,6228,3.91,-9.76,-8.64,3.57,1.16,6.33,5.26,-0.08457495,0.01621349,-0.04617529,-0.2040292,0.8754887,-10.14923,2
48923969,6222,4.34,-10.13,-9.16,3.42,1.69,6.36,4.99,-0.05478986,0.1020188,0.009838299,0.001933304,0.7917238,-9.487523,2
49030173,6193,4.7,-10.29,-8.77,2.88,2.16,6.46,5.02,0.2679578,0.05457984,0.04340529,-0.2010031,0.9135633,-10.31312,2
49140054,6380,4.36,-10.3,-8.46,2.11,2.1,6.6,5.56,-0.07820041,-0.1261566,0.08484854,0.04190185,0.8296555,-9.696811,2
49242673,6336,4.75,-9.93,-8.28,1.24,1.15,6.75,6.19,0.112858,-0.1950521,0.05779381,-0.3491589,0.8012485,-9.91925,2
49347484,6272,4.39,-9.48,-8.31,0.6,-0.3,6.86,6.98,0.1147398,-0.2506648,0.1135068,-0.4156934,0.8246585,-9.950855,2
49455926,6343,4.7,-8.47,-8.14,0.16,-0.88,6.93,7.85,0.1493574,0.08976214,0.0810719699999999,-0.2085516,0.8865696,-9.947453,2
49671000,6427,4.75,-6.6,-5.44,0.29,-0.61,6.92,9.35,0.2823488,0.03596892,0.1438615,-0.2756851,1.198916,-9.849622,2
49785868,6395,3.97,-5.86,-5.12,0.37,-0.63,6.91,9.79,-0.1881873,-0.08648875,0.02302847,-0.03201817,1.006393,-9.71254,2
49903919,6353,4.73,-5.57,-5.66,0.35,-0.5,6.91,9.74,-0.2641145,-0.05899664,-0.04651601,0.01694853,0.7812341,-9.629022,2
50106631,6313,4.46,-5.09,-5.57,-0.13,-0.83,6.96,9.07,0.01730695,0.03687641,-0.04434843,-0.1436132,1.012863,-9.335219,2
50221385,6281,4.59,-4.69,-4.87,-0.48,-1.3,6.99,8.59,0.1810444,-0.142326,-0.02626487,-0.4651166,0.7107514,-9.864932,2
50326363,6226,4.26,-4.33,-4.57,-0.77,-1.23,7.01,8.12,0.09502476,0.06500493,-0.0752594199999999,-0.1306038,0.6157002,-9.561108,2
50429558,6158,4.25,-4.22,-4.57,-0.99,-1.1,7.03,7.75,0.003850958,0.1400719,-0.04310065,-0.2349133,0.8387304,-9.908587,2
50541531,6269,4.21,-4.22,-4.42,-1.17,-0.92,7.04,7.49,-0.002098768,-0.02934637,-0.03110878,-0.1425944,0.8261319,-9.67018,2
50649622,6244,4.35,-4.0,-3.83,-1.21,-1.23,7.05,7.32,0.08738377,-0.1563749,-0.0665124899999999,0.003113931,0.6021047,-9.564683,2
50768765,6334,3.99,-3.88,-3.4,-1.09,-2.31,7.04,7.19,-0.09692686,-0.1204039,-0.0633513,-0.02058257,0.9218397,-9.28764,2
50873004,6100,3.93,-3.7,-3.35,-0.97,-2.92,7.03,6.79,0.07798199,0.03652392,-0.09323479,-0.01613247,0.9560345,-9.266132,2
50980462,6147,4.22,-3.85,-2.53,-0.53,-3.12,7.0,6.27,0.1441216,0.0501499,-0.1063804,-0.4946249,0.5277641,-9.831724,2
51089456,6219,4.2,-4.29,-2.56,-0.25,-2.04,6.98,5.75,-0.05788114,0.289064,-0.08230247,-1.117728,1.044011,-10.12225,2
51201966,6256,3.95,-4.92,-3.22,-0.31,-0.52,6.99,5.35,-0.1380283,0.167987,-0.05636019,-0.3833182,0.8715882,-9.737557,2
51310407,6173,3.92,-5.36,-3.94,-0.54,0.23,7.01,5.09,-0.0777643799999999,0.05939438,0.01138088,-0.2220181,0.6896145,-9.434681,2
51417968,6306,3.92,-5.3,-4.85,-1.03,0.08,7.05,4.98,-0.1380649,-0.0561422,0.01272237,-0.06215505,1.049132,-9.302562,2
51630605,6207,4.58,-4.44,-3.77,-2.45,-1.09,7.17,5.75,0.1849755,-0.01949641,0.103084,-0.5127055,0.9614057,-10.19854,2
51751341,6517,4.71,-4.02,-3.16,-2.86,-2.34,7.2,6.66,0.01722891,-0.2300973,0.1040623,-0.280855,0.8795128,-10.08497,2
51851449,6534,4.57,-3.9,-3.08,-2.93,-3.07,7.21,7.3,0.102486,-0.05641496,0.08115836,-0.1580383,0.9481687,-9.982915,2
51951879,6326,4.4,-3.94,-3.39,-2.72,-3.63,7.2,7.69,-0.07973118,0.003072194,-0.005362694,0.116972,0.6345891,-9.455168,2
52073342,6263,4.14,-3.74,-3.84,-2.39,-3.77,7.17,7.65,-0.114889,0.1169717,-0.08516406,-0.2209012,0.5735435,-9.532779,2
52171877,6329,4.27,-3.76,-4.26,-2.26,-2.89,7.16,7.3,-0.05066018,0.1935562,-0.08422291,0.07989461,1.123643,-9.549202,2
52281388,6340,4.62,-3.83,-4.1,-2.28,-1.67,7.17,6.92,-0.04282951,0.1047368,-0.05848149,-0.1908661,0.835963,-9.416538,2
52388352,6323,4.67,-4.18,-3.44,-2.37,-1.23,7.17,6.7,0.1401356,0.09264237,-0.0501912,-0.4201555,0.6788775,-9.783242,2
52614659,6454,4.25,-4.16,-3.51,-2.8,-2.62,7.2,6.64,0.01524205,-0.2775881,-0.0210065,-0.0638416599999999,0.682285,-9.475173,2
52723951,6372,4.11,-3.87,-4.31,-2.55,-3.83,7.19,6.55,-0.1233153,0.06993961,-0.02988656,-0.2508858,0.8079001,-9.461731,2
52829931,6385,4.56,-3.71,-4.28,-2.56,-2.5,7.19,6.43,0.0397855,0.301068,0.02070087,0.02591771,0.787505,-9.616575,2
52939577,6427,4.49,-3.63,-3.77,-2.38,-1.37,7.18,6.47,0.07639193,0.06018553,0.01228847,-0.1585259,0.8410392,-9.294716,2
53057645,6416,4.63,-4.24,-3.49,-2.49,-1.47,7.18,6.51,0.04391714,-0.1983346,0.01106006,-0.05393686,0.8006185,-9.865161,2
53159324,6440,4.26,-5.06,-4.4,-2.48,-2.37,7.18,6.6,-0.1126241,-0.05515773,-0.02182922,-0.4627515,0.5741647,-9.873206,2
53268941,6384,4.45,-5.86,-5.77,-2.43,-3.03,7.18,6.7,-0.1843305,0.02016813,-0.0091809779999999,-0.187042,0.8728029,-9.871193,2
53378735,6328,4.28,-6.39,-6.64,-2.34,-2.59,7.17,6.56,-0.2526606,0.1285412,0.005929216,0.1349405,0.7674798,-9.499349,2
53496679,6331,4.32,-6.5,-7.13,-2.41,-1.47,7.18,6.35,0.04701008,0.09807055,-0.05240087,-0.04317407,0.8033285,-9.533059,2
53598359,6367,4.33,-6.26,-7.21,-2.56,-1.0,7.19,6.41,0.1119007,0.01515832,0.02220985,-0.2390037,0.9388542,-10.00919,2
53706919,6175,4.54,-5.87,-6.94,-2.87,-0.94,7.23,6.83,0.08197016,-0.0783988199999999,0.06896085,-0.3823673,1.014354,-9.720592,2
53818172,6373,4.09,-5.01,-6.35,-3.26,-1.27,7.26,7.39,0.1021641,-0.09139153,0.08035063,-0.4490246,1.096199,-9.777691,2
53936951,6439,4.66,-3.18,-4.84,-3.55,-1.37,7.28,7.88,0.2731745,0.01405795,0.08495071,-0.6076688,0.8513462,-9.416315,2
54043255,6416,5.23,-1.32,-2.49,-3.84,-1.2,7.3,8.27,0.4066128,-0.03753937,0.06647635,-0.2749536,0.8360746,-9.705914,2
54157152,6462,5.08,-0.32,-0.2,-4.05,-1.51,7.3,8.48,0.2446225,-0.01601352,0.05814523,-0.1902924,0.754446,-10.23864,2
54258740,6667,5.1,0.08,0.6,-4.19,-2.06,7.3,8.71,0.06992114,-0.1270967,0.06682322,-0.2598415,0.8540686,-9.963031,2
54360004,6611,4.45,0.12,0.56,-4.22,-2.56,7.3,9.02,-0.177091,-0.05586464,0.04922938,-0.602429,0.5556214,-10.52111,2
54468658,6511,4.5,0.17,0.29,-4.16,-2.81,7.3,9.48,-0.1045421,-0.062692,0.05901335,-0.2972952,0.8404497,-10.19167,2
54586824,6417,4.27,0.0,0.16,-4.0,-2.87,7.3,9.88,-0.03248893,-0.002743123,0.01762861,-0.1614022,0.7492124,-9.727776,2
54694284,6438,4.53,0.07,-1.0,-3.78,-3.49,7.3,9.86,-0.3162777,-0.03537095,-0.03799611,-0.4143825,0.6827348,-9.326297,2
54803407,6283,4.43,0.21,-1.75,-3.49,-3.69,7.3,9.7,0.03074884,0.1226499,-0.02511788,-0.4640667,0.7782791,-10.1167,2
54908321,6428,4.42,0.51,-1.76,-3.15,-3.06,7.3,9.56,0.1049302,0.1884614,-0.02669531,-0.1602015,0.7651374,-9.699092,2
55016007,6247,4.06,1.31,-1.09,-2.77,-2.44,7.31,9.28,0.1577392,0.144569,-0.0721774,-0.1181946,0.745329,-9.797341,2
55124530,6322,4.44,3.46,0.71,-2.67,-2.14,7.31,8.8,0.5312199,0.03314918,-0.08289971,-0.3102175,0.8276432,-9.68036,2
55237299,6236,4.5,6.26,3.94,-2.74,-2.24,7.3,8.21,0.5195763,-0.03787804,-0.04718609,-0.2807173,0.51327,-10.27492,2
55346548,6179,4.69,8.83,7.81,-2.84,-2.55,7.29,7.55,0.4874177,-0.001042444,-0.05325925,-0.3419215,0.1904969,-10.00593,2
55458065,6301,4.71,9.33,9.59,-2.77,-2.71,7.3,7.13,0.0640788999999999,-0.0950566999999999,-0.02766248,-0.454976,0.2100951,-10.04872,2
55675665,6326,4.44,7.23,6.26,-2.4,-1.77,7.36,7.27,-0.4767429,0.001430261,0.04247406,-0.2291215,0.3404144,-9.724033,2
55785465,6297,4.38,5.92,4.02,-2.23,-1.35,7.38,7.66,-0.3035252,0.03635454,0.09028769,-0.3246332,0.5557768,-10.16269,2
55885411,6269,4.15,5.14,2.49,-2.31,-1.44,7.37,7.92,-0.2548484,-0.02531845,0.006270089,-0.1955992,0.4865087,-9.429217,2
56004105,6200,4.15,4.58,1.25,-2.68,-0.94,7.34,7.82,-0.1217046,0.03699989,-0.03254139,-0.6322922,0.5274964,-9.682052,2
56110031,6197,4.39,4.34,0.71,-3.05,-0.88,7.31,7.5,0.08428103,-0.0590665,-0.06900625,-0.2876781,0.5673274,-9.870892,2
56222745,6158,4.8,4.03,1.1,-3.42,-1.35,7.28,7.0,0.2811902,-0.0513952,-0.1155641,-0.3831433,0.4782128,-9.811792,2
56324748,6192,4.34,3.58,1.59,-3.71,-1.75,7.26,6.59,0.04245843,-0.1230825,-0.0744289499999999,-0.6649814,0.4467061,-10.2506,2
56436938,6398,4.33,2.81,1.66,-3.92,-2.27,7.25,6.14,-0.08712762,-0.1238674,-0.05980003,-0.6837674,0.4966183,-10.56656,2
56654023,6380,4.08,1.09,0.78,-4.07,-2.97,7.25,5.52,-0.01052195,-0.06571273,-0.03724285,-0.5379398,0.3843685,-9.643269,2
56764118,6238,3.99,0.42,-0.14,-3.98,-3.36,7.25,5.11,-0.1247853,-0.0084500389999999,-0.08643193,-0.3863638,0.2374212,-9.796811,2
56876030,6191,3.91,0.13,-1.04,-3.92,-3.37,7.25,4.34,-0.1434093,0.04312716,-0.1230185,-0.6328576,0.314756,-9.660825,2
56974014,6094,3.68,0.16,-1.53,-3.94,-2.95,7.25,3.38,-0.09508645,0.1536154,-0.1829276,-0.4515654,0.1063341,-9.688456,2
57088681,5911,3.35,0.46,-1.78,-4.06,-2.29,7.25,2.26,-0.04277933,0.1220334,-0.1434376,-0.6215941,0.4995305,-10.16778,2
57194103,5848,3.1,0.77,-1.58,-4.31,-1.99,7.24,1.58,0.02126005,0.04093239,-0.07812259,-0.5450757,0.1453172,-10.07964,2
57311614,5671,3.19,0.75,-1.03,-4.92,-1.87,7.23,1.34,0.1621705,-0.00997976,0.01667008,-0.2767907,0.4360764,-9.959857,2
57423009,5669,3.27,0.27,-1.05,-5.31,-2.35,7.23,1.73,-0.08397048,-0.1339925,0.1137675,-0.2558133,0.3550503,-9.544351,2
57524536,5661,3.5,-0.12,-1.39,-5.45,-3.26,7.23,2.74,-0.1148144,-0.2315752,0.2607395,-0.4192541,0.4504893,-9.564263,2
57746568,5781,5.02,-1.44,-1.66,-5.05,-4.73,7.23,6.88,0.09814157,-0.1282391,0.3763781,-0.0909978699999999,0.7308605,-9.763844,2
57961594,6199,5.66,-2.8,-1.32,-3.55,-5.39,7.17,11.93,-0.02324853,0.03246288,0.3662746,0.04370979,0.7269371,-10.1113,2
58069617,6791,6.0,-3.5,-1.1,-2.81,-4.96,7.13,13.91,0.05322315,0.0789842,0.2485937,-0.02303607,0.5474176,-10.04243,2
58183708,6919,5.91,-4.21,-1.27,-1.76,-5.05,7.06,15.16,-0.1526077,-0.05293168,0.103069,-0.04308105,0.1072491,-10.47044,2
58296771,6973,5.21,-4.7,-2.38,-0.7,-4.38,6.97,15.17,-0.1350318,0.1402689,-0.08419362,0.01900318,0.5383778,-9.91447,2
58396557,6733,4.58,-5.05,-3.82,0.26,-3.3,6.89,14.18,-0.2737833,0.2377172,-0.2077522,-0.1581986,0.6698194,-10.01798,2
58510319,6606,4.9,-5.33,-4.48,0.99,-1.75,6.82,12.43,-0.1325631,0.2144128,-0.3017411,-0.02747484,0.7232115,-9.633204,2
58611133,6427,4.54,-5.37,-4.23,1.47,-0.49,6.78,10.39,0.1435044,0.2826898,-0.324473,-0.5120245,0.7110288,-10.03454,2
58720582,6402,4.25,-5.25,-3.84,1.67,-0.15,6.76,8.71,0.06343003,0.00829308,-0.258546,-0.2677941,0.6942859,-9.887641,2
58834380,6239,4.0,-5.26,-3.61,1.69,-0.18,6.76,7.31,-0.03590242,-0.1019911,-0.2253111,-0.3392009,0.8146743,-9.94824,2
58936624,6212,4.13,-5.4,-3.47,1.48,0.05,6.78,6.3,-0.01275338,0.03076787,-0.1797189,-0.1413728,0.6761252,-9.497133,2
59160023,6126,4.12,-5.05,-3.45,0.75,0.1,6.85,4.9,0.09461325,0.06279954,-0.06956659,-0.2002988,0.9157892,-9.837255,2
59269575,6111,4.14,-4.19,-2.54,0.62,-0.22,6.86,4.65,0.106738,-0.01781566,-0.03769957,-0.510158,0.7865197,-9.618795,2
59481557,6209,4.07,-2.21,-1.0,0.31,0.46,6.87,5.07,0.0085207389999999,0.0916376899999999,0.08916337,0.006891678,0.4825025,-9.928024,2
59586173,6106,4.43,-1.04,-0.11,0.43,0.63,6.87,5.6,0.1311957,0.003076901,0.0747548299999999,-0.359066,0.6686222,-9.761884,2
59808109,6206,4.38,1.17,1.36,0.52,0.49,6.87,6.56,0.0636879999999999,-0.0306926,0.04544155,-0.2579586,0.5328966,-9.675041,2
59914360,6339,4.49,2.24,1.96,0.58,0.66,6.87,6.86,0.1582787,0.08581751,0.02118963,-0.2507961,0.5912975,-9.986784,2
60030429,6179,4.34,2.97,2.66,0.44,0.73,6.86,7.03,0.0898133099999999,-0.03342489,0.04356767,-0.09875076,0.5305966,-9.484366,2
60128626,6286,4.27,3.59,3.22,-0.12,0.49,6.83,7.0,0.1063672,-0.09235638,0.03054772,-0.2356693,0.5144945,-10.02633,2
60237196,6314,4.06,4.38,3.47,-0.86,-0.42,6.78,6.89,-0.02498265,-0.1382386,-0.02932138,-0.3221851,0.3450007,-9.562916,2
60348642,6320,4.35,5.14,3.92,-1.81,-1.47,6.7,6.77,0.04794494,-0.2549258,-0.02163969,-0.3645196,0.5512473,-9.927904,2
