TimeUS,RPM,Curr,DesRoll,Roll,DesPitch,Pitch,DesYaw,Yaw,GyrX,GyrY,GyrZ,AccX,AccY,AccZ,Guasto
0,3616,1.88,0.12,2.12,0.25,-0.83,3.31,3.31,0.1658848,-0.004542504,-0.01461302,0.1097226,-0.1761646,-9.303755,0
99867,4180,2.78,0.12,2.02,0.27,-0.77,3.31,3.33,-0.0153491,0.018456,-0.01828221,-0.115746,0.4487954,-9.82908,0
208359,4737,3.27,-0.07,2.22,0.21,-0.63,3.31,3.37,-0.01056929,0.0200843,0.01860539,-0.5330989,0.03285605,-9.811556,0
322068,5238,3.87,-0.57,2.31,-0.03,-0.21,3.31,3.71,-0.05501349,0.06083969,0.0953802599999999,-0.1552465,-0.326952,-11.48387,0
432827,5589,3.71,-1.27,1.66,-0.18,0.6,3.31,4.64,-0.1137076,0.1564116,0.1688422,0.1390787,0.102167,-12.02768,0
537458,5783,4.4,-1.92,0.35,-0.22,0.87,3.31,5.75,-0.1981433,-0.02657832,0.1880765,0.00818337,0.530176,-12.02254,0
653840,6075,4.17,-2.55,-0.67,-0.34,0.83,3.32,6.79,-0.1135651,-0.07531284,0.1402498,-0.4741224,0.5441811,-11.41929,0
758387,6108,3.71,-2.95,-0.83,-0.52,0.92,3.33,7.65,-0.02407725,0.0652892999999999,0.1589472,-0.2933731,0.7501342,-11.13654,0
863781,5975,3.9,-3.17,-1.0,-0.88,0.83,3.35,8.56,-0.01243235,-0.07128974,0.1480505,-0.1440145,0.7552839,-10.63427,0
971795,6096,4.15,-3.48,-1.45,-1.21,0.14,3.37,9.43,-0.02138576,-0.167139,0.1286105,-0.43728,0.553228,-10.03166,0
1090060,5948,4.05,-3.93,-2.08,-1.44,-0.08,3.38,9.99,-0.1116889,-0.01373024,0.05149634,-0.3131598,0.2450623,-10.25564,0
1304223,6028,3.99,-4.71,-2.73,-1.65,-1.02,3.4,10.45,-0.01959211,-0.09960299,0.006563062,0.05208277,0.5491775,-9.952452,0
1417473,6057,3.73,-4.98,-2.97,-1.77,-1.47,3.41,10.53,-0.09655925,-0.01014282,0.02263115,0.6423118,0.7790426,-9.3048,0
1523802,6085,3.91,-5.17,-3.41,-1.74,-1.92,3.4,10.6,-0.07655228,-0.03591703,0.004616213,0.1058045,0.8483236,-9.426814,0
1632449,6127,4.01,-4.97,-4.18,-1.32,-1.95,3.37,10.6,-0.08521734,-0.02608653,-0.0182863,-0.1118964,0.4937301,-9.405519,0
1742866,6115,4.07,-4.62,-4.17,-0.64,-1.48,3.31,10.41,0.01452217,0.1070078,-0.02658248,-0.4534487,0.6147967,-9.397558,0
1850790,6139,4.0,-4.2,-3.8,0.23,-0.53,3.24,10.11,0.02897722,0.2641272,-0.01968536,-0.1219153,0.5006883,-9.568207,0
1961029,6088,3.7,-3.89,-3.17,0.81,0.7,3.2,9.75,0.04578059,0.2552089,-0.05175911,0.3458109,0.488995,-9.520046,0
2066039,5974,3.84,-3.79,-2.69,1.11,1.29,3.18,9.46,0.0189949,0.1120494,-0.03647858,0.1824668,0.9337111,-9.783154,0
2181052,6183,3.44,-3.93,-2.28,0.97,1.63,3.19,9.16,0.08952317,0.05174743,-0.02260549,-0.1187955,0.5901332,-9.834751,0
2286136,6024,3.86,-4.17,-2.19,0.64,1.64,3.21,9.13,-0.04694317,-0.03899459,0.01196355,-0.1126789,0.679044,-9.691615,0
2397338,5974,4.06,-4.48,-2.25,0.34,0.97,3.24,9.26,0.06633561,-0.2477589,-0.001137581,0.2930496,0.4209006,-9.771625,0
2501308,6016,3.94,-4.7,-2.53,0.37,-0.1,3.23,9.35,-0.08252265,-0.1122619,0.009880708,-0.3414718,0.7685967,-9.894035,0
2613983,6067,4.28,-4.86,-2.98,0.53,-0.52,3.22,9.43,-0.1141471,0.001741649,0.01656876,-0.4442311,0.499771,-9.705836,0
2729390,6001,4.16,-4.77,-3.92,0.74,0.13,3.2,9.42,-0.1872885,0.2456038,0.006061743,-0.03635591,0.7548442,-9.366684,0
2834534,6035,4.08,-4.72,-4.54,0.84,0.81,1.88,8.04,-0.002515,0.07293942,-0.001181536,0.0226637,0.5414429,-9.46266,0
2942900,6212,4.08,-4.46,-4.65,0.68,1.08,1.9,7.86,-0.006858238,0.03772752,-0.02536764,0.2297817,0.6451187,-9.736635,0
3052959,6097,3.81,-4.05,-4.65,0.54,0.9,1.91,7.4,-0.01968336,0.01279563,-0.06098179,0.02401653,0.5220061,-9.0635,0
3168113,6035,3.33,-3.62,-4.34,0.34,1.03,1.92,6.84,0.1529258,0.1065544,-0.08254483,-0.1282714,0.7782761,-8.913651,0
3276816,5965,3.95,-3.42,-3.19,0.18,1.02,1.93,6.45,0.1243006,-0.05802555,-0.04101531,0.1885191,0.6365301,-9.504523,0
3385422,5916,3.67,-3.12,-2.88,0.09,0.53,1.94,6.35,-0.01420767,0.05372075,-0.04321848,-0.6038526,0.6469066,-9.083617,0
3484125,5937,3.46,-2.89,-2.63,-0.44,0.97,1.96,6.57,0.04270973,0.07476805,0.04562202,-0.2707827,0.8044431,-9.427608,0
3598249,5735,3.87,-2.78,-2.2,-0.88,0.67,1.99,7.03,-0.04151474,-0.05830045,0.08393328,-0.2268745,0.5716363,-9.481528,0
3706877,5841,4.06,-2.78,-2.05,-1.32,0.46,2.01,7.37,0.053277,-0.04143493,0.0687246,-0.4581116,0.6542117,-9.779876,0
3818661,6101,4.11,-3.04,-1.79,-1.78,0.23,2.03,7.21,0.1485779,-0.05348109,-0.0007485656,-0.1156313,1.144474,-10.14608,0
3928228,6123,4.23,-3.51,-1.79,-2.16,-0.52,2.05,6.79,-0.1739131,-0.1260225,-0.02649545,-0.2765278,0.82457,-10.46969,0
4147008,6043,3.89,-4.63,-3.1,-3.15,-2.3,2.12,5.79,-0.1430019,-0.08108988,0.03133056,-0.5179111,0.8909505,-10.3164,0
4254301,6056,3.53,-4.94,-3.8,-3.18,-2.09,2.13,5.11,-0.07898239,0.07220219,0.01129877,-0.6410993,0.8577573,-9.864001,0
4468856,5856,3.4,-5.19,-4.1,-3.2,-1.18,2.13,5.18,-0.1356871,0.005626595,0.05485264,-0.3089445,0.8057452,-9.981133,0
4585032,5825,3.72,-5.03,-4.97,-3.7,-2.0,2.17,5.63,-0.1217038,-0.1874672,0.01966126,-0.01921754,0.7204821,-9.555277,0
4693309,5800,3.59,-4.73,-5.19,-3.69,-2.97,2.17,5.93,0.0759725099999999,-0.05454454,0.03714437,-0.4736311,0.5700312,-9.239861,0
4793450,5800,3.4,-4.43,-4.89,-3.49,-2.86,2.16,6.13,0.04024495,0.0693549599999999,0.04443482,0.0820659,0.7853197,-9.167733,0
4901525,5793,3.31,-4.23,-4.45,-3.07,-2.69,2.12,6.33,0.05840047,0.03653288,0.02630193,-0.3944239,0.5004411,-9.140512,0
5012366,5732,3.52,-3.94,-4.05,-2.66,-2.68,2.09,6.45,-0.01542396,0.0537608,0.0264956,-0.3084741,0.9735203,-9.252794,0
5122097,5786,2.95,-3.59,-3.54,-2.56,-2.67,2.09,6.37,0.1710141,-0.0490204,-0.04232859,-0.3664436,0.599773,-8.956544,0
5224053,5790,2.72,-3.32,-2.77,-2.57,-2.52,2.09,6.0,-0.03541186,0.06772487,-0.04888054,0.127913,0.7097852,-8.711381,0
5343328,5602,2.79,-2.97,-2.09,-2.61,-2.61,2.09,5.52,0.1022482,0.008464808,-0.01134064,-0.2621638,0.4127225,-9.028889,0
5451930,5629,2.81,-2.81,-2.13,-2.63,-2.6,2.09,5.33,0.03940332,0.05882534,-0.001596005,-0.5224383,0.6800451,-8.648817,0
5557906,5636,2.98,-2.84,-2.14,-2.61,-2.39,2.09,5.32,0.04475765,-0.01174198,0.03127261,-0.5092241,0.8767402,-9.442661,0
5666859,5568,3.19,-3.25,-1.82,-2.15,-2.51,2.07,5.5,0.08923937,-0.05459849,0.007904402,-0.6123445,0.4841602,-9.282315,0
5779018,5720,3.12,-3.89,-1.82,-1.46,-2.41,2.02,5.77,-0.01364058,0.01348974,0.04201483,-0.4657691,0.6083502,-9.250437,0
5887896,5805,3.31,-4.24,-2.68,-0.91,-1.81,1.98,5.98,-0.1547708,0.04474799,0.07737411,-0.1839831,0.7212523,-9.452719,0
5993993,5716,3.2,-4.44,-3.19,-0.41,-0.84,1.95,5.97,0.003519564,0.1703423,0.0807202499999999,0.2526841,0.921236,-9.545321,0
6104893,5748,3.01,-4.37,-3.23,-0.23,-0.08,1.93,5.83,-0.06844656,0.1567626,0.03981844,-0.1660221,0.5868173,-9.681929,0
6211025,5803,2.94,-4.25,-3.24,-0.38,0.32,1.94,5.95,0.02839447,0.06752249,0.02140608,-0.412299,0.978533,-9.664354,0
6324485,5711,3.65,-4.11,-3.55,-0.75,0.23,1.97,5.88,-0.09619389,-0.04627101,-0.08581327,-0.3535813,1.141986,-9.860802,0
6428153,5788,3.09,-4.11,-3.64,-1.09,-0.01,1.99,5.51,0.01757839,-0.1107416,0.005935659,0.2207854,1.219094,-9.662044,0
6529150,5675,3.2,-4.16,-3.51,-1.21,-0.3,2.0,5.52,0.09209011,-0.0381551,0.05249285,-0.6127,0.8994429,-9.225353,0
6646154,5843,3.33,-4.2,-3.48,-1.32,-0.19,2.01,5.89,-0.01363528,0.02540197,0.09985101,-0.1256391,1.033776,-9.800919,0
6870416,5705,3.9,-4.1,-3.73,-1.11,-1.22,2.0,7.04,-0.004301028,-0.07267074,0.0744074599999999,0.01200889,0.9562331,-9.602666,0
6980661,6059,3.7,-4.08,-3.58,-0.75,-1.4,1.97,7.4,0.04930087,0.01435785,0.05710706,-0.5111617,0.5316871,-10.01795,0
7088139,6075,3.57,-4.01,-3.33,-0.27,-1.14,1.94,7.6,0.1520426,-0.02180784,0.02726428,-0.1188574,0.4842642,-9.880229,0
7191911,5987,3.55,-4.07,-3.25,0.21,-0.62,1.9,7.75,-0.0841793599999999,0.2597586,0.0695129,-0.009952846,1.112679,-9.532037,0
7304094,6025,3.87,-4.23,-3.71,0.68,0.08,1.87,7.94,-0.1091441,0.06286619,0.03431002,-0.3728167,0.8045127,-9.625025,0
7407956,6116,3.6,-4.4,-3.96,0.97,0.59,1.85,8.09,-0.09597699,0.07313678,0.04283273,0.2874784,0.9251913,-9.54581,0
7515857,6129,3.39,-4.47,-4.21,0.91,1.03,1.85,7.86,-0.05870114,0.08981794,-0.04908678,-0.09290959,1.148877,-9.686166,0
7623493,5994,3.56,-4.59,-4.05,0.6,1.25,1.88,7.48,0.06472594,-0.03735263,-0.08190425,-0.1397214,0.8997183,-9.792905,0
7734825,6086,3.47,-4.7,-3.95,0.36,0.8,1.89,7.09,0.07661255,-0.07184632,-0.07272594,-0.30309,0.7250088,-9.551906,0
7848584,6085,3.49,-4.74,-4.18,0.09,0.59,1.92,6.52,-0.0216299,-0.05934886,-0.0732235599999999,-0.2751561,0.8533216,-9.570778,0
7947352,5929,3.48,-4.86,-4.16,-0.01,0.43,1.93,6.2,0.03521994,-0.05771718,-0.04419535,-0.1847665,0.9474288,-9.842783,0
8070098,5962,3.42,-4.96,-4.14,-0.02,0.36,1.93,6.08,0.02385665,0.01747805,0.005613379,-0.2174173,1.120529,-9.850273,0
8163045,6040,3.72,-5.01,-4.17,0.08,0.11,1.92,6.07,-0.003733025,-0.02299314,-0.01213229,-0.2575455,0.854885,-9.816546,0
8282515,5996,3.61,-5.23,-4.48,0.21,0.0,1.91,6.05,-0.09814099,-0.001120464,-0.03321455,0.1162332,1.024458,-10.02903,0
8391920,6124,3.57,-5.55,-4.73,0.34,0.19,1.89,5.87,-0.02895378,0.01465498,-0.03397933,-0.2677377,1.096913,-9.965746,0
8503913,6022,3.24,-5.76,-4.91,0.48,0.49,1.88,5.48,-0.1388917,0.1456877,-0.07210107,-0.09127491,0.9199342,-9.471761,0
8611692,5850,3.13,-5.85,-5.5,0.43,0.87,1.88,4.74,-0.04184848,0.04923923,-0.09047353,-0.02566492,1.221479,-9.433807,0
8724525,5797,3.43,-6.03,-5.97,0.34,0.97,1.89,4.15,-0.1132982,0.02652387,-0.04403736,-0.0458702,1.130006,-9.71244,0
8824389,5784,3.66,-5.88,-6.3,0.2,0.78,1.91,3.94,0.02609645,-0.08201643,-0.05581187,-0.6257889,1.203819,-9.773547,0
8932107,5951,3.62,-5.44,-6.07,0.02,0.46,1.93,3.89,0.06890199,-0.01901823,-0.006085796,-0.5071577,0.9791955,-9.471813,0
9031808,5870,3.47,-5.24,-5.38,0.05,0.3,1.92,4.13,0.1593155,0.005044844,0.07753167,-0.003957332,1.175668,-9.646709,0
9260479,5817,3.52,-5.51,-4.61,0.4,0.42,1.89,5.52,-0.1648532,0.005543815,0.08753941,-0.2399995,0.8916496,-9.407689,0
9371828,5908,3.81,-5.56,-5.45,0.45,0.29,1.89,5.7,-0.05859889,-0.07510512,0.007280163,-0.1874024,0.7998018,-9.674051,0
9482518,6098,3.67,-5.52,-5.66,0.26,0.16,1.9,5.47,0.008734277,-0.04866984,-0.05864256,0.06213313,0.9351207,-9.384288,0
9581115,6081,3.71,-5.39,-5.33,0.15,0.14,1.92,5.2,0.04207116,0.0225345,-0.06330565,-0.2044384,1.207507,-9.970998,0
9687147,5872,3.86,-4.97,-5.22,0.15,0.09,1.92,5.15,0.01462557,-0.0658762,-0.03435679,-0.1513534,0.9134818,-9.62269,0
9799764,5902,3.17,-4.71,-4.55,0.1,0.59,1.92,5.33,0.1097456,0.09428792,0.08907365,-0.5257085,0.6519188,-10.27087,0
9910528,5923,3.71,-4.51,-4.14,0.0,0.3,1.93,5.68,0.02019378,-0.05222103,0.05621869,-0.09801311,0.6888395,-9.745812,0
10018086,5885,3.44,-4.4,-4.47,-0.12,-0.02,1.94,5.96,-0.1024107,0.01163863,0.007049186,0.1086529,1.031056,-9.269093,0
10125936,5902,3.86,-4.55,-4.5,-0.22,-0.28,1.95,6.11,0.004763636,0.007426571,0.0082563959999999,0.08711734,0.9216422,-9.623656,0
10237028,6024,3.61,-4.57,-4.65,-0.28,0.02,1.95,6.21,-0.01450926,0.1369578,-0.01782532,-0.0466789,1.41494,-9.777482,0
10342110,5957,3.46,-4.65,-4.44,-0.32,0.47,1.95,6.29,-0.01024825,0.1055152,0.007721412,-0.004850916,0.6710138,-9.585962,0
10453696,5971,3.38,-4.6,-4.41,-0.51,0.48,1.97,6.33,-0.05725527,-0.02009114,-0.02860672,-0.1052029,1.043868,-9.722184,0
10565365,5983,3.68,-4.63,-4.4,-0.82,0.03,1.99,6.15,0.07904325,-0.089772,-0.04721645,-0.1186235,1.079097,-9.516322,0
10674837,5962,3.58,-4.69,-4.69,-1.19,-0.44,2.02,5.76,-0.0324549,-0.1762178,-0.1164137,0.1744951,0.7804335,-9.155572,0
10787051,6034,3.49,-4.79,-4.82,-1.36,-1.0,2.04,5.17,0.0337948,-0.08465412,-0.1295312,-0.2776198,1.081996,-9.49784,0
10897296,5928,3.66,-4.68,-4.76,-1.38,-1.36,2.04,4.6,-0.01853854,0.0007163632,-0.07679059,-0.4154662,0.7407845,-9.642567,0
11006855,5925,3.61,-4.45,-4.88,-1.35,-1.36,2.04,4.08,0.007435006,0.04933809,-0.0666503299999999,-0.3371218,0.8383692,-9.518589,0
11115771,5903,3.41,-4.11,-5.03,-1.38,-0.79,2.04,3.67,-0.001000641,0.1613109,-0.04269705,-0.3503692,0.7708049,-9.550649,0
11227022,5928,3.35,-3.72,-4.78,-1.4,-0.19,2.04,3.55,0.05836189,0.07723761,-0.02755172,-0.2944414,0.9112574,-9.706011,0
11324865,5798,3.56,-3.42,-4.06,-1.36,-0.18,2.04,3.75,0.1408489,-0.04393893,0.03374326,-0.04874193,0.7083583,-9.890176,0
11435848,5776,3.46,-3.07,-3.82,-1.29,-0.61,2.03,4.22,0.04856121,-0.03780673,0.1089698,-0.6049714,0.6773333,-9.975276,0
11654066,5861,3.71,-3.01,-3.35,-0.97,-1.27,2.02,5.43,-0.04385845,-0.04451384,0.1174743,0.1128866,0.9573566,-9.612749,0
11763080,5984,3.38,-3.22,-3.25,-0.63,-1.15,2.0,6.03,0.1638048,-0.03774074,0.08103848,-0.1622945,0.622568,-9.488625,0
11873800,5968,3.57,-3.64,-2.94,-0.07,-1.13,1.97,6.62,-0.2011575,0.06484905,0.113798,0.1519362,1.137626,-9.419911,0
11983817,5920,3.52,-3.84,-3.86,0.51,-0.51,1.93,7.11,-0.09116195,0.06003781,0.04130594,-0.2372864,0.9236878,-8.978415,0
12088856,6042,3.54,-4.07,-4.57,0.92,-0.04,1.9,7.32,0.1838055,0.008300425,0.03171801,-0.3332525,0.2302973,-9.429179,0
12308909,6055,3.51,-4.25,-4.05,1.47,0.26,1.86,6.71,0.00604208,0.2189962,-0.08919872,0.04962014,1.123405,-9.238669,0
12419567,6012,3.15,-4.23,-4.59,1.48,0.45,1.86,5.68,-0.3257494,0.01028503,-0.1958096,-0.2673734,0.4847972,-9.442064,0
12628064,5997,2.45,-4.32,-4.06,1.15,0.85,1.88,3.31,0.03333598,0.07928746,-0.1634693,-0.03836491,1.217122,-9.563378,0
12753359,5746,2.59,-4.31,-3.77,0.93,0.66,1.9,2.17,0.1713383,-0.0375457,-0.1667936,-0.07945559,0.6691125,-9.676371,0
12852508,5623,2.82,-4.43,-3.77,0.63,0.25,1.92,1.56,-0.01976692,-0.05690472,-0.08066673,-0.1719713,1.027805,-9.287122,0
12958256,5563,2.96,-4.64,-3.79,0.4,-0.38,1.94,1.2,-0.00154462,-0.09221504,-0.06410166,-0.3725321,1.200952,-9.606004,0
13064362,5735,3.19,-4.81,-4.18,0.32,-0.87,1.95,0.97,-0.05812034,0.01389548,-0.01835162,-0.3112217,1.194037,-9.525737,0
13169334,5820,2.64,-4.94,-4.03,0.33,-0.55,1.95,1.03,0.0260939,0.121429,0.02685361,0.2400102,0.5740853,-10.08168,0
13279450,5688,2.99,-4.82,-3.95,0.33,-0.06,1.95,1.45,-0.04480634,0.1122398,0.1139733,-0.2185508,0.9223958,-9.986872,0
13389612,5745,3.03,-4.68,-4.1,0.32,0.22,1.95,2.17,-0.01992085,0.09196624,0.1158953,-0.2441459,0.6514872,-9.399827,0
13497549,5833,3.31,-4.57,-4.34,0.13,0.4,1.96,2.8,-0.09968635,0.00653868,0.09540613,-0.1620059,0.9908824,-9.551507,0
13599038,5914,3.08,-4.45,-4.6,-0.05,0.35,1.98,3.36,-0.004758187,0.04501931,0.104964,-0.455571,0.7539171,-9.661224,0
13719767,5927,3.36,-4.26,-4.61,-0.38,0.36,2.0,4.18,0.05079859,-0.07089397,0.1198331,0.1382905,0.8752416,-9.841039,0
13828365,6133,3.48,-4.15,-4.32,-0.54,0.14,2.01,4.97,0.0179484,-0.0808305899999999,0.1410594,-0.5221765,0.5420227,-9.92829,0
13936528,6181,3.58,-4.06,-4.22,-0.67,-0.25,2.02,5.69,-0.1067818,-0.04812299,0.08191763,-0.1752444,1.10812,-9.680781,0
14048417,6122,3.5,-3.97,-4.35,-0.95,-0.08,2.04,6.14,-0.003337389,0.1588678,0.08463737,-0.4567197,0.8979446,-9.493527,0
14145860,5902,3.68,-3.9,-4.21,-1.18,0.16,2.06,6.31,0.07155743,0.1065805,0.03058876,-0.04393713,0.8355421,-9.862215,0
14259312,6050,3.85,-3.8,-4.04,-1.7,0.44,2.09,6.52,-0.01950043,0.04709542,0.01611395,0.160538,1.075482,-9.801795,0
14362332,5920,3.97,-3.71,-4.0,-2.12,0.01,2.12,6.53,0.03842109,-0.09397039,-0.01948554,-0.1958371,0.7941815,-10.14579,0
14483040,6189,3.92,-3.58,-3.82,-2.57,-1.02,2.15,6.38,-0.06794203,-0.1172747,-0.04608227,-0.1900474,0.7572933,-10.19296,0
14590852,6077,3.79,-3.35,-3.79,-2.77,-1.74,2.16,6.13,0.01170256,-0.0677617799999999,-0.06142498,-0.3779671,0.4947792,-10.00657,0
14690138,6139,4.14,-3.12,-3.83,-2.81,-2.44,2.16,5.85,-0.08012348,-0.1042666,-0.08541632,-0.3159631,1.100588,-9.88775,0
14803534,6023,3.83,-2.87,-3.98,-2.66,-2.87,2.16,5.46,-0.05576101,0.08802117,-0.04238359,-0.6108508,0.7102944,-9.834501,0
14912001,6311,3.83,-2.6,-3.66,-2.46,-2.66,2.15,5.11,0.1503319,-0.009124465,-0.03454478,-0.5739756,0.4454542,-9.896436,0
15012240,5863,3.73,-2.22,-3.52,-2.15,-2.3,2.13,4.9,-0.0694607,0.1132196,-0.0211746,-0.4748835,0.2757061,-9.663222,0
15121893,6018,3.61,-1.7,-3.51,-1.86,-1.56,2.12,4.95,-0.008378184,0.1286291,0.03693689,-0.1811075,0.8291157,-9.632187,0
15232058,6093,3.4,-1.49,-2.38,-1.44,-1.28,2.11,5.2,0.1505074,0.0854073199999999,0.03079854,0.1265861,0.5474851,-9.574484,0
15341322,6004,3.52,-1.32,-1.51,-0.96,-1.37,2.1,5.66,-0.02845943,0.08897442,0.09861696,0.238757,0.5052395,-9.88642,0
15455241,6062,3.65,-1.42,-1.6,-0.29,-1.73,2.08,6.17,-0.3593981,0.06131481,0.0603976,0.03272169,0.9795026,-9.380362,0
15556107,6115,3.68,-1.59,-2.87,0.3,-1.28,2.07,6.33,0.09016462,0.05394555,-0.01343808,-0.3183731,0.08808828,-9.081049,0
15679421,6157,3.85,-1.74,-3.53,1.08,-0.63,2.05,6.07,0.05524871,0.02777345,-0.06115586,0.1464207,0.8385143,-9.432853,0
15776334,6156,3.53,-1.75,-3.53,1.62,0.26,2.03,5.65,-0.008345513,0.1300299,-0.06307156,-0.3611085,0.5954067,-9.529045,0
15886965,6138,3.22,-1.66,-2.5,1.78,1.15,2.02,5.13,0.1927277,0.08572958,-0.0666032,0.1120651,0.4498746,-9.642161,0
15992274,6055,3.18,-1.59,-1.58,1.79,1.72,2.02,4.76,0.1429419,0.05835069,-0.04990941,0.1735237,0.6225718,-9.485179,0
16106817,5994,3.32,-1.84,-0.87,1.7,1.69,2.03,4.62,0.1465124,-0.1021755,-0.03716271,-0.5799958,0.3117461,-10.01014,0
16217852,5953,3.45,-2.37,-0.64,1.83,0.66,2.02,4.66,-0.08291899,-0.1434207,0.004955003,0.266857,0.6068758,-9.668351,0
16334041,6085,3.22,-2.97,-1.7,2.13,0.27,2.01,4.62,-0.3344837,0.05200455,-0.04715738,-0.109551,0.5442955,-9.593322,0
16426470,6085,3.51,-3.4,-3.07,2.44,0.91,1.99,4.26,-0.3042704,0.2060169,-0.06415586,-0.3962861,0.5067106,-9.684375,0
16543995,6070,3.33,-3.7,-3.83,2.74,2.13,1.97,3.85,-0.06337336,0.1717319,-0.006820892,-0.1219543,1.028993,-9.621091,0
16657028,5878,3.35,-3.65,-3.86,2.48,2.92,1.99,3.77,-0.02783743,0.04390534,0.0088564349999999,-0.343554,0.7589468,-9.703102,0
16756542,5973,3.47,-3.51,-3.64,2.15,2.5,2.01,3.82,0.04892856,-0.1237913,-0.0052425,0.1795203,0.8066977,-10.07272,0
16880382,6166,3.31,-3.58,-3.0,1.63,2.01,2.04,3.84,0.05101617,-0.07871799,0.01043964,-0.3489888,0.8600096,-9.991708,0
16985814,6126,3.35,-3.71,-2.94,1.31,1.75,2.06,3.8,0.01257399,-0.05033078,-0.04348463,-0.465736,0.3639123,-9.69762,0
17096161,6044,3.33,-3.78,-3.36,0.81,1.63,2.09,3.69,-0.1409026,0.05622262,-0.01811599,-0.09473756,0.8268391,-9.712575,0
17198569,6084,3.34,-3.76,-3.9,0.35,1.47,2.12,3.49,-0.03544885,-0.00229446,-0.0235389,-0.07763512,0.940241,-9.724007,0
17319891,6048,3.65,-3.71,-4.12,-0.16,1.3,2.16,3.31,0.06359661,-0.095516,-0.0160286,-0.5559704,0.6679509,-9.515318,0
17421055,5948,3.59,-3.57,-4.04,-0.59,0.96,2.19,3.24,-0.00200969,-0.03289586,-0.04430385,0.2027424,0.7731128,-9.827732,0
17539468,6070,3.57,-3.49,-3.59,-1.13,0.59,2.22,3.16,0.04857571,-0.07487681,0.001702419,-0.203029,1.105139,-10.07438,0
17640518,5828,3.41,-3.56,-3.29,-1.56,0.31,2.25,3.14,-0.01937703,-0.04786056,0.00321505,-0.3904975,0.9437299,-10.14408,0
17756882,5843,3.83,-3.64,-3.58,-2.02,-0.11,2.28,3.18,-0.08755876,-0.08128875,-0.004233264,-0.3031283,0.9560442,-9.782083,0
17852323,5940,3.66,-3.74,-3.95,-2.41,-0.58,2.3,3.32,-0.08531798,-0.06386883,0.02166757,-0.4169703,0.9435252,-10.16588,0
17972493,5881,3.76,-3.8,-4.01,-2.73,-1.36,2.32,3.56,0.01978459,-0.1211872,0.009250974,-0.3536688,0.8483241,-9.694641,0
18083898,5968,3.85,-3.72,-4.17,-2.92,-1.89,2.33,3.83,-0.03775726,-0.002917771,0.05070135,-0.1556823,0.843699,-9.614016,0
18183650,5858,3.86,-3.64,-4.13,-3.0,-1.8,2.34,4.08,0.05601656,-0.001959421,0.04938557,-0.11452,0.8461032,-9.739815,0
18300823,5890,3.94,-3.41,-4.19,-3.04,-1.87,2.34,4.43,-0.07267564,0.03646081,0.03513008,-0.2336095,0.8402642,-9.619257,0
18518564,5955,4.05,-2.92,-3.61,-2.74,-2.46,2.33,4.9,-0.03455342,-0.005361343,0.04266723,-0.2596075,0.8304269,-9.762068,0
18616980,6157,3.93,-2.68,-3.26,-2.31,-2.81,2.3,5.07,0.07037725,-0.01785952,-0.001055475,-0.3752975,0.4870645,-9.488403,0
18724781,6155,3.6,-2.54,-2.86,-1.89,-2.76,2.29,5.0,0.1169889,0.01490297,-0.0376636,-0.3680705,0.2889217,-9.604157,0
18844875,6053,3.34,-2.53,-2.55,-1.46,-2.08,2.27,4.72,0.1047052,0.02726468,-0.07962729,-0.2367581,0.5174963,-9.366843,0
19057013,6018,3.09,-2.75,-2.54,-0.9,-1.09,2.24,4.12,-0.04157066,0.04936288,-0.02435774,-0.1176537,0.8256584,-9.216226,0
19164877,5821,3.05,-2.88,-2.91,-0.8,-0.83,2.24,3.81,0.04109229,0.03381685,-0.04107335,0.3302513,0.7883781,-9.308694,0
19265999,6012,3.5,-3.05,-2.88,-0.64,-1.14,2.23,3.5,0.02217067,-0.03308918,-0.0717364499999999,0.04175954,0.9178674,-9.29017,0
19374231,5883,2.87,-3.21,-2.72,-0.41,-1.12,2.22,3.13,0.0793373,-0.01068504,-0.05862995,-0.2152058,0.607551,-9.603086,0
19606981,5801,3.02,-3.84,-3.06,-0.05,-0.59,2.19,2.47,0.01102868,0.05560273,-0.04116271,-0.3432949,0.7687737,-9.545223,0
19705762,5830,3.08,-4.14,-3.55,-0.09,-0.49,2.2,2.25,-0.04589167,-0.02273722,-0.02366588,-0.1391152,1.191558,-9.357198,0
19817828,5885,3.06,-4.58,-3.7,-0.16,-0.08,2.2,2.14,-0.03388075,0.09560196,0.006279811,-0.3642074,0.9083865,-9.247855,0
19927930,5882,3.41,-4.99,-3.81,-0.08,0.01,2.19,2.26,0.1000331,-0.0003183986,0.03928774,-0.3637649,0.8664379,-9.862329,0
20036540,5828,3.41,-5.39,-3.74,-0.02,-0.02,2.19,2.58,-0.02758849,0.005349658,0.05259483,-0.1191247,1.055429,-9.916883,0
20150980,5857,3.44,-5.88,-3.72,0.11,-0.39,2.18,3.04,0.01422595,-0.09767366,0.08364958,-0.3713179,0.8093163,-9.988908,0
20255853,5870,3.62,-6.2,-4.32,0.41,-1.06,2.14,3.53,-0.3328387,-0.0942689,0.093159,-0.1240927,0.8514097,-9.574256,0
20370297,6129,3.18,-6.36,-5.21,0.77,-0.93,2.1,3.77,-0.06457064,0.05530997,-0.001446225,-0.02949005,0.6278688,-9.741437,0
20477153,6125,3.56,-6.33,-5.82,1.2,-0.15,2.06,3.52,-0.09417985,0.2176752,-0.02113783,0.1218106,0.9199056,-9.857414,0
20687326,5957,3.57,-5.8,-6.02,1.75,1.15,1.57,2.85,-0.005250874,0.07009431,-0.04126833,-0.0923897,0.6000432,-9.731934,0
20790144,6000,3.85,-5.45,-5.71,1.76,1.5,0.26,2.57,0.1714307,-0.005201714,-0.06516157,0.2306309,0.9885581,-9.776078,0
20906466,6017,4.55,-5.26,-4.92,1.56,1.27,356.66,1.8,0.08809423,-0.07336141,-0.1937808,0.07737958,0.6646692,-10.12868,0
21011772,6254,5.19,-5.22,-4.8,1.21,1.25,351.03,0.04,-0.019631,-0.007876727,-0.4060596,-0.291349,0.7129166,-9.997632,0
21125692,6547,6.2,-5.33,-5.18,0.59,1.09,342.52,356.66,-0.1759078,0.01982257,-0.7071093,-0.00452335,1.091745,-9.814185,0
21226807,6962,6.29,-5.32,-5.38,-0.18,0.62,332.58,351.15,0.1547964,0.1439416,-1.014797,-0.2464309,1.284811,-9.964922,0
21339698,7063,5.85,-5.03,-5.33,-1.23,0.67,321.53,343.24,0.05215148,0.1800282,-1.348394,-0.4279733,1.129786,-9.584037,0
21444319,6992,4.89,-4.71,-4.64,-2.1,1.02,313.76,334.86,-0.004253097,0.09788679,-1.539575,-0.1958425,1.13399,-9.905686,0
21663975,6849,3.06,-3.68,-4.4,-3.67,-0.02,304.11,314.59,-0.06275205,0.04955747,-1.568589,-0.6202281,1.057268,-9.379683,0
21769227,6026,1.66,-3.02,-5.08,-4.7,-0.34,303.26,305.64,0.02738632,0.02806074,-1.374724,-0.8032102,0.7116228,-9.876657,0
21878134,5387,0.58,-2.43,-5.35,-5.71,-1.26,304.88,298.37,-0.09201051,-0.0674363199999999,-0.9545652,-1.143638,0.4657705,-9.334044,0
21981066,4807,0.15,-2.35,-5.0,-6.52,-2.1,308.47,294.23,0.1022246,-0.03688757,-0.5566273,-1.099898,1.121607,-9.373845,0
22091144,3694,0.47,-2.51,-4.47,-7.51,-3.33,313.88,292.54,0.1331481,-0.1753189,-0.06650309,-1.304528,0.582055,-9.356797,0
22317328,3034,0.94,-3.16,-2.85,-8.77,-5.21,322.37,296.23,0.04574939,-0.04295374,0.5579669,-0.5160104,0.4103262,-9.077614,0
22420065,3194,1.16,-3.63,-2.59,-8.87,-5.39,326.26,299.94,0.07093424,-0.09128173,0.7284111,-1.0092,0.8958964,-9.451632,0
22534771,3425,1.36,-4.22,-2.52,-8.51,-6.18,330.31,305.34,0.07485776,-0.1255587,0.868661,-0.9477692,0.9120588,-8.995356,0
22648897,3918,2.02,-4.95,-2.73,-8.12,-6.57,333.54,311.2,0.04112542,-0.2022522,0.9594201,-0.5729875,0.8718604,-9.568805,0
22747506,4263,2.69,-5.31,-3.11,-7.7,-6.84,334.56,316.73,0.01001388,-0.08341914,0.9490936,-0.7289252,0.6798083,-9.260012,0
22860897,4825,3.17,-5.56,-3.58,-7.22,-6.73,334.51,322.67,0.02205284,-0.09401482,0.8847237,-0.7424142,0.8670252,-9.80552,0
22961851,5243,3.24,-5.79,-4.06,-6.63,-6.28,334.45,327.71,0.02402274,0.07172111,0.7952576,-0.8831895,1.062592,-9.736574,0
23078932,5647,3.85,-6.12,-4.41,-5.94,-5.65,334.38,332.51,0.05127916,0.02847395,0.653535,-0.2665964,1.007617,-9.82423,0
23181105,5860,4.38,-6.36,-4.57,-5.28,-5.7,334.31,335.93,-0.03428945,-0.06901991,0.5476924,-0.5496457,1.055236,-10.19803,0
23289324,6041,4.39,-6.67,-4.92,-4.49,-5.7,334.93,338.91,0.02180792,0.01710837,0.4216224,-0.7548836,1.420347,-10.11198,0
23397239,6238,3.74,-6.96,-5.59,-3.57,-4.9,337.16,341.46,-0.1900977,0.1934091,0.4586775,-0.7469844,0.9521921,-10.12175,0
23506536,6174,4.35,-6.88,-6.03,-2.88,-3.54,337.96,344.0,0.0507536,0.09931205,0.3911307,-0.4635004,1.091241,-9.750543,0
23617768,6042,4.66,-6.62,-5.99,-2.19,-2.51,337.88,345.83,0.2521947,0.09876628,0.1909163,-0.2985128,1.0702,-9.844069,0
23726329,6226,3.84,-6.8,-5.66,-1.96,-1.52,337.86,346.37,0.2707867,0.1197055,0.019641,-0.882028,0.5792883,-10.15247,0
23840868,6204,4.39,-8.46,-7.25,-2.23,-0.52,337.89,346.11,-0.4377665,0.05755035,-0.09416801,-0.4229791,0.4746803,-9.990876,0
23953268,6389,4.42,-9.95,-9.98,-2.5,-0.37,337.93,345.37,-0.4011383,-0.03525824,-0.1575117,-0.3719932,1.157917,-10.04237,0
24059893,6320,4.36,-10.64,-11.99,-2.62,-0.91,337.96,344.2,-0.2845564,0.04394657,-0.1924887,-0.450509,1.086097,-10.01275,0
24162791,6373,4.09,-10.42,-12.49,-2.63,-1.25,337.96,342.79,0.05664678,-0.01534836,-0.2633632,-0.4187684,0.6795906,-10.23973,0
24272843,6126,4.08,-9.16,-11.52,-2.41,-1.86,337.92,340.92,0.2015245,-0.02803594,-0.2933559,-0.641149,0.9090545,-9.734849,0
24377156,6052,3.23,-8.32,-9.68,-2.21,-2.1,337.89,339.43,0.2894225,0.1314399,-0.2439786,-0.6359663,0.7736108,-10.10892,0
24493929,5817,3.33,-7.51,-8.0,-2.04,-2.14,337.87,338.07,0.1954912,-0.01805913,-0.1532367,-0.9757595,0.7337939,-9.884742,0
24602099,5713,3.58,-7.05,-7.41,-1.45,-2.06,337.79,337.22,0.1450686,0.0929452,-0.1121354,-1.185227,0.6376702,-9.362559,0
24711275,5701,3.11,-6.77,-7.34,-0.27,-0.32,337.65,336.75,-0.1010743,0.4131248,-0.002482105,-0.1364126,1.185488,-9.355613,0
24815254,5713,3.18,-6.35,-6.85,0.76,1.26,337.53,336.61,0.2114757,0.2575544,-0.02083215,-0.5836959,1.041087,-10.0712,0
25150899,5651,2.3,-5.2,-4.52,2.2,2.92,337.37,336.51,0.02241062,-0.0846041,0.01191186,-0.6226107,0.4723609,-9.698515,0
25262045,5414,2.34,-5.19,-4.38,2.14,2.11,337.38,336.83,0.003748754,-0.1515509,0.006800298,-0.4189243,1.177881,-8.880036,0
25478988,5413,2.39,-5.9,-4.09,2.02,1.04,337.46,337.15,0.02422996,-0.04725059,0.02467914,-0.8335462,1.076699,-9.654531,0
25581931,5402,2.2,-6.2,-4.17,2.3,0.9,338.63,337.33,-0.09664799,-0.02030825,0.04222405,-0.4979744,0.7962202,-9.249516,0
25801601,5451,2.01,-6.08,-5.43,3.53,0.38,345.27,339.78,-0.03171741,-0.004943525,0.3892376,-0.06961986,1.485085,-9.2157,0
25912433,5313,2.21,-6.1,-4.98,4.27,0.62,348.53,342.69,0.08219603,0.0728753699999999,0.5235719,-0.463552,1.115698,-9.657268,0
26021318,5179,2.22,-6.23,-4.88,4.67,1.53,351.3,346.37,0.05134521,0.05622509,0.6038408,0.0006794821,0.8812509,-9.480301,0
26132330,5313,2.81,-6.81,-5.0,4.91,2.12,353.5,350.16,-0.1346775,-0.05572431,0.6277224,-0.2780046,0.6753715,-9.806611,0
26234797,5478,3.7,-7.29,-5.92,4.59,2.23,353.86,353.69,-0.2178819,-0.1203384,0.5785314,0.3421574,0.9758388,-10.06696,0
26353901,5785,4.49,-8.1,-6.53,4.51,1.39,353.87,357.21,-0.05912173,-0.2506527,0.4513578,0.0284762,1.035161,-10.13016,0
26453561,6112,4.59,-8.58,-6.88,4.72,0.83,353.84,359.51,-0.3079078,-0.05951162,0.3709444,0.02629638,1.230354,-10.07455,0
26564253,6457,4.3,-8.79,-7.73,5.19,1.47,353.76,0.96,-0.1154109,0.090388,0.1786902,0.1368988,1.327465,-9.793051,0
26672501,6457,4.49,-9.0,-7.85,5.9,2.47,353.65,1.53,-0.0776181799999999,0.1148674,0.08372867,-0.003921537,0.4202663,-9.951921,0
26779048,6476,4.67,-8.91,-8.62,6.46,3.53,353.56,1.57,-0.2215349,0.2254507,0.009088484,0.02770833,0.9537539,-9.709805,0
26889236,6534,4.41,-8.6,-8.69,6.68,4.47,353.53,1.12,0.3021806,0.1388103,-0.09207258,0.5257103,0.9304381,-9.63862,0
26997281,6421,4.42,-8.06,-8.01,6.74,5.14,353.52,0.44,0.03908316,0.1627896,-0.08926567,0.4536503,1.029167,-9.816429,0
27116601,6296,4.34,-7.49,-7.44,6.65,5.4,353.53,359.65,0.1589528,0.07010402,-0.1321268,0.4736234,1.460067,-10.14963,0
27217867,6390,3.81,-6.95,-6.77,6.4,5.66,353.56,358.92,0.1533168,0.09764472,-0.144606,0.09840561,1.129034,-10.06408,0
27331888,6241,4.07,-6.5,-6.14,6.05,5.65,353.6,358.09,0.2015326,-0.09567869,-0.1781121,0.2340489,0.8899978,-9.725359,0
27449033,6073,3.69,-6.05,-5.73,5.5,5.31,353.67,357.22,0.1460756,-0.0960584399999999,-0.1410749,0.1910301,0.5713814,-9.751956,0
27561511,6096,3.91,-5.73,-5.48,4.98,4.36,353.72,356.59,0.08657777,-0.2086625,-0.130697,0.2262843,0.8067456,-9.814293,0
27670383,6044,3.7,-4.29,-4.87,3.58,2.88,353.84,356.17,0.276536,-0.4334069,-0.09173749,0.6155589,1.163645,-9.935784,0
27775371,5916,3.32,-2.71,-2.67,2.67,0.85,353.9,355.87,0.4082369,-0.3093793,-0.0808633899999999,-0.2932091,0.8454238,-10.04953,0
27880492,5940,2.98,-1.63,-0.51,1.99,-0.5,353.93,355.45,-0.018754,-0.08977219,-0.06116703,-0.2481699,0.7908385,-9.821701,0
27983461,5927,3.17,-0.99,0.0,1.88,-1.2,353.93,354.92,0.1074258,0.1396807,-0.03499389,-0.07176504,1.159317,-9.353362,0
28107812,5888,2.88,-1.21,-0.01,2.0,-0.97,353.93,354.41,-0.1469265,0.1106967,-0.06821893,0.0666124399999999,0.6890403,-9.330784,0
28213890,5767,2.96,-1.53,-0.26,1.79,-0.91,353.93,354.15,-0.207276,0.0934463,0.01786206,-0.3174876,1.202279,-9.258945,0
28322312,5896,2.75,-1.88,-0.24,1.68,-1.25,353.93,353.84,-0.07179109,0.09188554,-0.0554167,0.5370045,1.155999,-9.428257,0
28425062,5859,2.73,-2.22,-0.68,1.89,-1.51,353.93,353.52,-0.1056444,0.0227586,-0.025338,-0.1349313,0.09298006,-9.266589,0
28535348,6004,2.97,-2.6,-1.21,1.97,-0.86,353.92,353.32,0.003085152,0.2007399,-0.006003764,-0.4416929,1.43721,-9.334529,0
28754248,5831,2.93,-3.27,-2.73,1.98,0.94,353.92,353.21,0.1720114,0.1029237,0.01333608,0.170096,1.422385,-9.83963,0
28865363,5895,2.95,-3.44,-2.59,1.58,1.52,353.95,353.37,0.008561846,0.1306984,0.03494643,-0.2851012,1.000527,-10.09497,0
28966120,5837,3.28,-3.45,-2.81,0.96,1.66,353.98,353.47,-0.02764567,-0.09494358,0.003907227,-0.3304856,0.8632629,-9.680498,0
29074061,5743,3.01,-3.71,-2.85,0.31,0.63,354.02,353.65,-0.05606155,-0.1932075,-0.0273973,0.3916964,0.9862063,-10.20432,0
29187310,5815,2.56,-3.98,-3.08,-0.42,0.14,354.07,353.57,0.07190371,-0.01352647,-0.01974545,0.001298865,0.9772817,-9.740448,0
29304542,5845,2.52,-4.35,-3.08,-1.2,-0.31,354.13,353.36,-0.004582079,0.09711622,-0.02373162,-0.7727526,0.7160546,-9.786584,0
29403526,5727,2.26,-4.76,-2.94,-1.79,-0.32,354.18,353.27,0.05443476,-0.03912916,-0.0154906,-0.2077427,0.6738537,-9.947931,0
29510252,5697,2.41,-5.38,-3.33,-3.26,-0.84,354.31,353.27,-0.1086285,-0.115335,-0.04685868,0.0004304127,1.274665,-9.828451,0
29623334,5509,2.57,-5.95,-4.59,-4.85,-1.82,354.47,353.21,-0.2860498,-0.1403481,-0.05451739,-0.6711013,1.351604,-9.746157,0
29739527,5437,2.91,-6.44,-5.49,-6.46,-3.63,354.64,353.19,-0.01819903,-0.2967165,-0.09633179,0.04814747,1.60581,-9.521868,0
29839850,5535,2.84,-6.7,-5.83,-7.39,-5.33,354.75,353.44,-0.02601895,-0.121623,0.08423462,-0.4300801,1.082926,-10.41376,0
29950806,5686,2.97,-6.36,-6.18,-7.97,-6.07,354.82,353.86,-0.06000258,-0.03674571,0.06452097,-0.4272977,1.307537,-9.845591,0
30058347,5723,3.0,-5.45,-5.35,-7.99,-6.06,354.82,354.42,0.3078287,0.04389169,0.1158966,-0.1836327,1.166149,-10.2033,0
30160328,5825,3.13,-4.32,-3.36,-7.45,-5.8,354.78,355.12,0.3783324,-0.06507493,0.1108826,-0.1720736,0.6147809,-10.43495,0
30271288,5741,2.79,-3.27,-1.88,-6.42,-5.5,354.71,355.98,0.04518295,0.1040741,0.1459571,-0.4201966,1.115666,-9.715331,0
30386563,5741,2.82,-2.67,-1.17,-5.44,-4.77,354.66,356.68,0.2342893,0.1873747,0.06787847,-0.04058086,1.180988,-9.575802,0
30596872,5825,2.7,-2.61,-2.01,-5.19,-3.45,354.65,356.87,-0.1495722,0.1435059,-0.04495659,-0.0754864,1.179376,-9.364208,0
30706009,5752,3.15,-2.68,-3.07,-6.76,-4.17,354.72,356.55,0.102426,-0.2415265,-0.1136151,-0.5469196,0.8887735,-9.263071,0
30812384,5677,3.41,-2.68,-3.82,-8.28,-5.72,354.79,356.15,-0.1312667,-0.2520365,-0.1167357,-0.4919472,0.6473058,-9.609298,0
30923986,5830,2.79,-2.54,-3.62,-9.58,-7.52,354.85,355.68,0.158137,-0.1309601,-0.1128367,-0.5294712,1.021971,-9.714904,0
31030533,5850,2.77,-2.3,-3.03,-10.35,-8.28,354.88,355.14,0.1689443,-0.09834597,-0.0929726699999999,-0.3607973,1.666566,-9.689762,0
31139239,5745,2.69,-2.19,-2.32,-10.65,-8.83,354.9,354.62,0.1396084,-0.2059029,-0.05781093,-1.116577,0.7525319,-10.19426,0
31245259,5586,2.7,-2.28,-2.27,-10.61,-9.17,354.89,354.29,0.01619333,-0.0760890199999999,-0.07205517,-0.5825536,0.7345225,-9.35702,0
31578830,5611,2.41,-3.68,-3.78,-10.09,-8.28,354.86,353.91,-0.1674695,-0.02275456,-0.07106074,-0.4867679,1.251472,-9.848397,0
31687474,5457,2.55,-4.02,-4.13,-9.93,-8.05,354.85,353.81,-0.1638044,0.1402255,0.01656521,-0.4422201,1.078817,-9.327038,0
31790851,5469,2.5,-4.07,-4.72,-9.92,-7.76,354.85,353.68,-0.04132272,0.09357549,-0.05936236,-1.129277,1.1899,-8.810513,0
31898334,5430,2.82,-4.1,-4.77,-9.81,-7.71,354.84,353.61,0.04373888,0.04076165,-0.02436451,-0.475895,1.182599,-8.818513,0
32016635,5578,2.77,-4.16,-4.35,-9.51,-7.65,354.82,353.64,0.07268518,0.03983313,0.008972615,-0.6034396,1.144852,-9.665977,0
32116826,5510,2.67,-4.22,-4.28,-9.24,-7.23,354.8,353.53,-0.01688,0.06199176,-0.04568458,-0.8298244,1.061573,-9.608336,0
32346444,5448,2.89,-2.9,-3.42,-8.7,-7.03,354.76,353.35,0.2097647,-0.00581807,-0.06729192,-1.303161,0.6792886,-9.949586,0
32454053,5539,2.59,-1.82,-2.39,-8.56,-6.79,354.76,353.36,0.2443961,-0.0110156,0.01800356,-0.6908118,0.6687053,-9.811752,0
32560787,5503,3.03,-1.24,-1.84,-8.31,-6.5,354.75,353.43,-0.02550164,0.1585881,-0.01180855,-0.3617781,1.065546,-9.160755,0
32658515,5414,2.81,-0.75,-1.91,-8.27,-5.95,354.75,353.45,0.004356235,-0.04035997,-0.02230729,-0.7898872,0.3390523,-10.04919,0
32777488,5458,2.63,-0.28,-1.71,-8.11,-5.9,354.75,353.36,0.04957462,0.01134603,-0.05074362,-1.11914,0.8568611,-9.78502,0
32887687,5465,2.27,0.16,-1.62,-8.25,-5.23,354.75,353.25,-0.0642496699999999,0.1075845,0.0002297843,-0.7852581,0.979669,-10.31257,0
32995134,5395,2.56,0.63,-1.8,-8.39,-4.98,354.75,353.41,0.005648621,-0.02671147,0.06085299,-0.7012959,1.194187,-8.918531,0
33094533,5216,2.85,0.87,-2.06,-8.53,-5.23,354.75,353.79,0.02344049,-0.05736998,0.07772223,-1.32171,0.5226926,-9.477699,0
33206960,5375,3.1,0.94,-1.27,-8.69,-6.11,354.74,354.31,0.1461104,-0.1682843,0.0710081199999999,-0.9056425,0.9266132,-9.643556,0
33328081,5629,2.63,0.8,-0.37,-8.56,-6.92,354.75,354.88,0.06783994,-0.09131996,0.1119459,-0.6680593,1.021398,-9.612704,0
33439095,5491,2.98,0.51,-0.57,-8.24,-7.36,354.75,355.18,-0.1620823,-0.008500057,0.009268721,-0.6945812,1.011756,-8.784838,0
33542261,5556,3.24,0.15,-1.22,-8.18,-7.2,354.75,355.43,-0.1746198,-0.01470825,0.04601631,-1.170089,1.087203,-9.230349,0
33656255,5550,3.57,-0.58,-1.91,-7.63,-7.16,354.75,355.48,-0.1252332,0.1791215,-0.01614916,-1.3038,1.015772,-9.420279,0
33757020,5657,3.36,-1.2,-2.62,-7.26,-6.43,354.74,355.26,-0.1052008,0.1011145,-0.06406169,-0.7643435,1.096613,-9.365608,0
33868985,5685,3.05,-1.86,-2.87,-7.0,-5.62,354.73,354.94,0.003504585,0.0873929,-0.04045823,-1.085057,1.099737,-9.435765,0
33978860,5665,2.81,-2.46,-3.32,-6.91,-5.49,354.73,354.5,-0.2161069,0.1456542,-0.0822671299999999,-1.061504,0.9366557,-9.502504,0
34087764,5476,2.69,-3.25,-4.3,-6.79,-4.86,354.72,353.88,-0.1219576,0.002829667,-0.1473887,-1.21277,0.5007914,-9.408809,0
34198118,5551,2.76,-3.87,-4.96,-6.11,-4.63,354.68,353.31,-0.1106665,0.1227848,-0.06362318,-1.168806,0.5875419,-9.773209,0
34304355,5622,2.75,-4.09,-5.34,-5.44,-4.23,354.63,352.88,-0.04539457,0.1091896,-0.0635174399999999,-1.528708,0.4421345,-9.770547,0
34417331,5444,2.56,-4.28,-5.09,-4.4,-3.86,354.56,352.54,0.07362631,0.1242398,-0.005220732,-0.8372787,1.042727,-9.86839,0
34526912,5458,2.25,-4.44,-4.39,-3.47,-2.52,354.49,352.23,0.06135638,0.1988891,-0.04774491,-1.059047,-0.06452092,-9.702364,0
34637313,5328,2.09,-4.37,-4.52,-2.66,-1.15,354.42,351.89,-0.1292955,0.3219591,-0.02481725,-1.230061,0.7467665,-9.864653,0
34747813,5171,2.18,-4.31,-5.24,-2.35,-0.07,354.4,351.56,-0.07000206,0.05267911,-0.05423429,-0.6730431,0.6652933,-9.17516,0
34850652,5065,2.46,-4.25,-5.75,-2.24,-0.01,354.39,351.63,0.005900775,-0.04973626,0.03207179,-0.8330716,1.024823,-9.934891,0
34957341,5161,2.54,-4.35,-5.18,-2.33,-0.18,354.4,351.96,0.06287216,-0.1294935,0.04780526,-0.6643428,0.8310533,-10.51469,0
35177482,5229,2.52,-4.71,-3.7,-2.2,-1.87,354.39,352.87,-0.02863596,-0.143405,0.07621767,-0.7629665,1.116338,-10.39249,0
35284875,5291,2.03,-5.06,-3.0,-1.79,-2.63,354.35,353.28,0.05830951,-0.01343192,0.05558151,-0.8318499,0.7010137,-9.992178,0
35396909,5562,2.32,-5.55,-3.1,-1.4,-2.13,354.32,353.4,-0.07216973,0.1180577,-0.01485145,-1.219581,0.8405669,-10.20787,0
35505761,5454,2.79,-5.99,-3.82,-0.96,-1.8,354.27,353.36,-0.1756754,0.06845196,-0.05571362,-0.7440069,1.068289,-9.827277,0
35617585,5626,2.55,-6.4,-4.96,-0.49,-1.38,354.22,353.25,-0.2965641,0.1083209,0.002129385,-0.4794413,0.6555477,-9.842713,0
35726129,5613,2.91,-7.01,-5.86,1.0,-0.56,354.04,353.06,-0.1193925,0.2136617,-0.03158328,-1.115012,0.8181056,-10.30208,0
35833502,5797,2.6,-7.7,-7.05,3.13,1.79,353.77,352.89,-0.2983859,0.4933316,0.06689509,-1.070569,1.021632,-10.15005,0
35936186,5755,2.56,-8.29,-8.41,5.07,4.51,353.5,352.82,-0.246269,0.5095726,0.07134948,-1.148014,1.621731,-10.36166,0
36049989,5618,2.98,-8.49,-8.99,5.81,6.14,353.39,352.88,0.09736064,0.05008641,0.04135487,-0.397369,1.23645,-10.18413,0
36153341,5684,2.96,-8.19,-8.31,5.35,5.17,353.45,353.34,0.049681,-0.2248544,0.06879476,-0.6085649,0.8583546,-9.999233,0
36372063,5673,3.14,-7.06,-6.5,3.51,1.63,353.7,354.68,0.1075405,-0.1873145,0.100337,0.009616225,1.257274,-9.856681,0
36483859,5767,3.44,-6.95,-5.38,3.26,0.33,353.73,355.45,0.2382591,-0.1865986,0.06847066,-0.5933766,0.8839005,-9.468083,0
36599998,5900,3.05,-6.95,-5.22,3.29,0.3,353.73,355.88,-0.04789458,0.03695903,0.05641669,-0.6923536,0.9228248,-9.847364,0
36715523,5760,3.25,-7.41,-5.37,3.31,0.68,353.72,355.86,-0.2170606,0.02261958,-0.01331904,-0.5505458,0.7442586,-9.60045,0
36822291,5785,3.13,-7.7,-5.89,3.25,0.76,353.73,355.85,0.02800508,-0.02803422,-0.01538618,0.3248156,1.369773,-9.555668,0
36937313,5785,3.13,-7.83,-6.37,3.09,0.58,353.75,355.82,-0.05548577,-0.0288706,0.01889816,-0.4696799,1.066603,-9.754848,0
37039478,5791,3.01,-6.98,-6.42,2.46,0.17,353.84,355.66,0.1345332,-0.03753673,-0.07737593,-0.4067709,1.432529,-9.405137,0
37148200,5849,3.1,-4.5,-4.79,1.4,-1.09,353.95,355.32,0.3563932,-0.1790642,-0.1096379,-0.4160988,1.444947,-9.423449,0
37255873,5766,2.75,-2.01,-1.64,0.74,-1.7,353.98,354.69,0.5524338,-0.04194394,-0.1500537,-0.5313928,1.469429,-9.817554,0
37365075,5717,2.44,-0.04,1.28,0.52,-1.78,353.99,353.94,0.2853363,0.06794073,-0.1075264,0.03306205,1.069711,-9.622884,0
37476927,5586,2.57,0.73,3.15,0.57,-1.82,353.99,353.22,0.2344778,0.00106576,-0.1276383,-0.9840033,0.6793127,-9.833541,0
37580910,5407,2.53,0.97,2.99,0.59,-1.45,353.99,352.64,-0.1423866,0.08438691,-0.07959616,-0.1231708,1.313798,-9.671838,0
37693967,5478,2.73,0.88,1.87,0.47,-0.69,353.99,351.99,-0.2461211,0.1424716,-0.09038299,-0.8114996,0.8811667,-9.549051,0
37810094,5419,2.61,0.85,0.95,0.21,-0.05,353.98,351.63,-0.1514303,0.05938192,-0.03474853,-0.8332071,1.509543,-9.811823,0
38014811,5462,2.94,1.52,0.79,-0.68,-0.55,353.97,351.89,-0.004878787,-0.1233939,0.05563166,-0.2282982,0.7446097,-9.401152,0
38124359,5688,3.04,1.95,1.09,-1.01,-1.17,353.96,352.43,0.09684713,-0.06669924,0.08650562,-0.1676811,0.7907239,-9.750674,0
38238497,5765,2.89,2.38,1.38,-1.29,-1.38,353.95,353.17,0.07089841,-0.1040342,0.1148419,-1.050839,0.6027432,-9.645389,0
38339492,5712,3.2,2.7,1.73,-1.35,-1.8,353.94,353.72,0.1699343,-0.07398888,0.1013447,-0.4649354,0.6999306,-9.611401,0
38448336,5672,3.14,2.74,2.14,-1.41,-1.78,353.94,354.24,-0.03494883,0.1198238,0.07568041,-0.4808738,0.8520511,-9.568024,0
38569953,5773,3.2,2.74,2.07,-1.35,-1.92,353.94,354.64,-0.04044918,-0.06711428,0.03294891,-0.1413883,0.9052274,-9.591239,0
38670101,5950,3.46,2.66,1.57,-1.19,-1.95,353.95,354.76,-0.1339131,0.04221614,0.03260131,-0.3790495,0.9732645,-9.368881,0
38784334,5828,3.27,2.81,1.01,-1.19,-1.62,353.95,354.69,-0.1356038,0.03798838,-0.01815428,-0.2844431,0.6969464,-9.551198,0
38892445,5839,3.38,3.11,0.69,-1.25,-1.25,353.95,354.59,0.05786132,-0.01004241,0.002936047,-0.6772796,0.6781043,-9.531643,0
38997127,5795,3.35,3.23,1.07,-1.38,-1.13,353.94,354.48,0.05636482,0.04243853,-0.03526968,-0.2159786,0.5436602,-9.845018,0
39113113,5765,3.27,3.39,1.32,-1.6,-1.37,353.93,354.29,0.008104306,0.04032822,-0.005263065,-0.09852002,1.047051,-10.05321,0
39213888,5852,3.19,3.5,1.52,-1.84,-1.5,353.91,354.13,0.09951298,-0.1001665,-0.02300422,-1.000155,0.7231496,-9.561304,0
39328324,5757,3.25,3.63,1.59,-2.0,-1.69,353.9,354.0,0.01942414,-0.03954455,0.007309867,-0.5147728,0.5401777,-9.938231,0
39431019,5761,3.22,3.54,1.35,-2.12,-1.88,353.9,353.86,0.001965194,-0.074187,-0.01234849,-0.1196003,0.6211993,-9.48976,0
39547156,5826,3.09,3.68,0.98,-2.24,-1.91,353.89,353.78,0.03987198,-0.1030013,-0.01340305,-0.4609029,0.5130649,-9.699532,0
39653989,5805,3.16,3.97,1.09,-2.24,-2.0,353.89,353.72,0.1215766,-0.0736875699999999,-0.03115541,-0.5861946,0.5559266,-9.624255,0
39765286,5919,3.09,4.16,1.43,-2.21,-1.83,353.89,353.75,0.0239739,0.0777669,0.02344962,-0.3480654,0.5828143,-9.596263,0
39876805,5808,3.29,4.26,1.53,-2.11,-1.61,353.9,353.86,-0.04024677,0.0828972199999999,0.02905075,-0.5304109,0.6634392,-9.952482,0
39976332,5755,3.14,4.48,1.66,-2.08,-1.42,353.9,353.97,-0.07919287,0.05022564,0.01972267,-0.4154246,0.3694812,-9.510726,0
40086006,5719,3.29,4.71,1.52,-2.06,-1.55,353.9,353.74,0.03726595,-0.08111104,-0.05026073,-0.7123309,0.350655,-9.649295,0
40197331,5820,2.63,5.09,1.59,-2.22,-1.44,353.89,353.23,0.02640116,0.1028283,-0.1166335,-0.4030511,0.5772419,-9.385435,0
40310691,5693,2.96,5.33,1.86,-2.65,-1.27,353.85,352.67,0.01707031,0.04565979,-0.08101234,-0.3949612,0.6229494,-9.53765,0
40528920,5532,2.86,6.04,2.9,-3.34,-2.3,353.78,351.74,0.1373879,-0.1039298,-0.08260304,-0.5881807,0.4406005,-9.653782,0
40633028,5617,2.87,5.9,3.65,-3.46,-2.84,353.77,351.24,0.07530539,-0.03092699,-0.06733751,-0.4619189,0.355525,-9.512469,0
40742888,5518,2.96,5.66,4.21,-3.38,-3.17,353.78,350.69,0.06245806,0.01460743,-0.09529363,-0.6364937,0.1961011,-9.740115,0
40844954,5555,2.94,5.28,4.33,-3.27,-3.04,353.79,350.19,-0.04143796,0.03549487,-0.1014387,-0.1824941,0.2221547,-9.679907,0
40956643,5493,2.82,4.82,3.63,-3.16,-2.6,353.8,349.69,-0.1087208,0.05547331,-0.07677906,-0.4280154,0.1761862,-9.838756,0
41057331,5402,2.84,4.64,3.0,-3.11,-2.15,353.8,349.41,-0.05605746,0.06458464,-0.04782991,-0.3104231,0.2704669,-9.9067,0
41176316,5541,2.79,4.7,2.38,-3.09,-1.94,353.8,349.36,-0.04339596,-0.01724361,0.04378389,-0.570101,0.002391323,-9.776296,0
41274865,5390,3.15,4.78,1.64,-3.09,-2.02,353.8,349.67,-0.1503255,-0.0215278,0.0912916899999999,-0.7122784,0.04752121,-9.787724,0
41391681,5569,3.12,5.02,1.34,-3.07,-2.14,353.8,350.33,-0.02463769,0.03327751,0.1250436,-0.4020643,0.3216833,-9.645722,0
41499939,5555,3.27,5.04,1.4,-2.85,-2.21,353.82,351.19,-0.006811274,0.008212361,0.1450571,-0.3823933,0.1671842,-9.464011,0
41600599,5544,3.21,3.9,1.06,-2.5,-2.37,353.85,352.12,-0.1286976,-0.008928558,0.1791261,-0.4848633,0.1297568,-9.755792,0
41714663,5700,3.83,1.08,-1.6,-2.15,-2.26,353.87,353.36,-0.5352597,0.04756673,0.1948472,-0.3447942,0.2951991,-9.710618,0
41817275,5866,3.96,-1.93,-4.54,-1.78,-2.3,353.86,354.37,-0.5691485,0.08534049,0.1797904,-0.1248123,0.2289343,-9.622846,0
41929493,6057,4.22,-4.63,-7.88,-1.47,-1.91,353.85,355.23,-0.4188802,0.02881212,0.1336151,-0.8286912,-0.1321306,-9.779054,0
42029324,6060,4.28,-6.74,-10.15,-1.28,-1.64,353.83,355.9,-0.2069406,-0.0720937,0.1088668,-0.6863052,0.2076472,-9.895454,0
42152523,6126,3.93,-8.31,-11.33,-1.15,-1.31,353.81,356.41,-0.1032015,0.1750607,0.07065674,-0.2422603,0.5654277,-9.685912,0
42247468,6054,4.16,-8.92,-11.14,-1.13,-1.06,353.81,356.6,0.1392055,-0.003703628,0.01667144,-0.5875581,0.416341,-9.943932,0
42349015,6209,3.87,-9.15,-10.32,-1.14,-0.79,353.81,356.68,0.06724309,0.1465576,0.0161854,-0.2096351,0.2891676,-9.804358,0
42462937,6039,3.92,-9.39,-9.72,-1.21,-0.52,353.82,356.59,0.1517508,0.0004885917,-0.01417403,-0.3328833,0.3409112,-9.786473,0
42565689,5987,3.83,-9.84,-9.32,-1.24,-0.49,353.83,356.43,0.01229335,0.05083233,-0.02162802,-0.3110195,0.3095356,-10.10369,0
42678083,6071,3.76,-10.55,-8.93,-1.38,-0.55,353.85,356.28,0.09220556,-0.0759924399999999,-0.03951522,-0.4578082,0.3254036,-9.977852,0
42790076,5898,3.66,-11.57,-9.15,-1.42,-0.74,353.86,356.11,-0.1306689,0.03232882,-0.0407884,-0.5742143,0.3350599,-10.0677,0
42897896,6024,3.55,-12.64,-10.05,-1.44,-0.9,353.86,355.87,-0.114937,-0.0854730499999999,-0.0458538,-0.5956718,0.2604648,-10.44296,0
43007472,5993,3.71,-13.67,-10.91,-1.4,-1.09,353.85,355.61,-0.1185252,-0.03532443,-0.06441995,-0.7527878,0.4802418,-9.937543,0
43115675,6070,3.92,-14.4,-11.6,-1.29,-1.24,353.83,355.5,-0.1746538,0.03050679,0.006345971,-0.70697,0.8469049,-10.09828,0
43216282,5933,3.74,-14.89,-11.78,-1.09,-1.4,353.77,355.43,0.02491177,-0.0270865,-0.03493445,-0.4307222,0.8773424,-10.58193,0
43329357,6055,3.39,-15.31,-11.64,-0.91,-1.37,353.73,355.18,-0.02854395,0.004276556,-0.06476343,-0.6731076,0.671996,-9.96771,0
43439356,5937,3.09,-15.4,-11.94,-0.76,-1.05,353.68,354.66,-0.0629884899999999,0.1231996,-0.1038315,-0.3099427,1.11308,-9.925788,0
43558510,5821,3.43,-15.11,-12.62,-0.52,-0.53,353.62,354.17,0.04731759,0.008398577,-0.03878928,-1.37227,0.984885,-9.873814,0
43657114,5766,3.25,-13.84,-11.95,-0.48,-0.57,353.61,353.85,0.2391612,-0.03321673,-0.08119395,-0.02968354,1.11203,-9.729669,0
43757130,5841,3.1,-12.25,-9.89,0.07,-0.68,353.48,353.56,0.4097513,0.03653092,-0.05366469,-0.5880682,0.7835689,-9.559456,0
43875135,5826,2.89,-10.32,-7.17,1.36,0.37,353.22,353.32,0.317416,0.2736313,0.06173274,-0.5044481,0.5444208,-9.528398,0
43984033,5800,2.86,-8.83,-4.91,2.82,2.1,352.98,353.28,0.3118472,0.2627386,0.003406139,-0.7440441,0.9277864,-9.532632,0
44312978,5680,3.03,-8.67,-4.55,6.01,4.98,352.5,353.38,-0.2268273,0.08768225,-0.0007342845,-0.286917,1.073067,-9.819752,0
44416037,5984,3.06,-8.83,-5.39,6.56,5.67,352.42,353.21,-0.2131932,0.1209035,-0.01174536,-0.1701218,0.6632933,-9.735837,0
44519424,5845,3.08,-8.74,-5.72,7.04,6.33,352.34,353.2,-0.05182657,0.04826758,0.01004371,0.36261,0.883872,-9.608498,0
44633969,5916,3.09,-8.32,-5.29,7.36,6.5,352.29,353.48,0.1263611,-0.008558722,0.06798548,0.3042031,1.242802,-9.80304,0
44745456,5961,3.33,-7.86,-4.63,7.71,6.19,352.24,353.94,0.1765107,-0.05677076,0.07771412,-0.1067677,1.081154,-9.859684,0
44859832,5998,3.19,-7.38,-4.39,8.03,6.23,352.2,354.57,0.0129525,-0.02079685,0.07369265,-0.3726145,0.677057,-9.72773,0
44966255,5855,3.62,-7.0,-4.7,8.35,6.27,352.16,354.97,-0.1929153,0.08170636,0.0548746,-0.4292086,0.8325021,-9.515761,0
45072514,6006,3.52,-6.64,-5.29,8.51,6.58,352.14,355.05,-0.0915228,0.08409453,0.02939047,0.3585099,1.045992,-9.667849,0
45176145,6098,3.42,-6.37,-5.14,8.52,7.05,352.14,355.01,0.09816337,0.01949915,-0.004466207,-0.2529329,0.9451818,-10.13843,0
45285137,6058,3.29,-5.95,-4.51,8.42,7.03,352.15,354.87,0.08017746,0.0068868,-0.03918435,-0.1845476,0.6966931,-10.03843,0
45397447,5884,3.09,-5.53,-4.01,8.22,7.09,352.17,354.66,0.004224563,-0.03545729,-0.01827162,-0.09652627,0.8553879,-9.588595,0
45510023,6074,3.46,-5.07,-3.9,8.01,6.77,352.19,354.21,0.08408391,-0.1114747,-0.1184112,-0.2172041,0.8653696,-9.742008,0
45620142,5965,3.42,-4.67,-3.68,7.78,6.48,352.21,353.56,0.01991544,0.002395874,-0.1126808,-0.5505825,1.00965,-9.635574,0
45831533,6047,2.99,-3.86,-2.52,7.17,5.85,352.25,351.79,0.228623,-0.1447652,-0.1875982,0.1459854,1.149713,-9.659911,0
45938534,5856,2.66,-3.56,-2.17,6.87,5.65,352.27,351.05,0.1028259,-0.04024049,-0.08595838,0.4509954,0.8865815,-10.07529,0
46053842,5800,3.02,-3.46,-2.24,6.67,5.13,352.28,350.48,-0.05095902,0.02198127,-0.08988852,0.07075169,0.8596892,-9.338392,0
46163774,5671,3.03,-3.45,-2.41,6.6,4.94,352.29,350.12,0.02268969,-0.04903314,-0.05256392,-0.1484661,1.363337,-9.653047,0
46263890,5674,2.97,-3.46,-2.39,6.44,4.9,352.3,349.96,0.09765066,-0.04712791,-0.01714843,-0.1869728,0.6266193,-9.603805,0
46373992,5716,2.92,-3.41,-2.45,6.32,4.76,352.3,350.0,0.02931524,-0.07730861,0.0303606,-0.3180077,1.006388,-10.05704,0
46482241,5769,2.94,-3.4,-2.62,6.04,4.54,352.32,350.07,0.03963689,-0.02872506,0.03726398,-0.3631513,0.6865698,-9.69246,0
46600878,5709,2.88,-3.41,-2.67,5.89,4.61,352.33,350.15,-0.06135149,0.08295957,0.01019301,-0.7658535,1.019056,-9.369494,0
46712495,5678,3.19,-3.46,-2.72,5.63,4.56,352.35,350.47,0.06305214,-0.08390787,0.04644151,0.1761581,0.7610273,-9.629967,0
46914371,5857,3.44,-3.69,-2.76,5.27,4.15,352.37,351.49,0.0511056,-0.05149681,0.0991926999999999,-0.1871147,0.8385013,-9.985015,0
47034237,5887,3.36,-3.85,-3.01,5.17,3.8,352.38,352.14,-0.1029061,-0.1193731,0.0768475,-0.3175961,0.6273219,-9.592363,0
47145799,5923,3.37,-3.94,-3.75,5.21,3.5,352.37,352.51,-0.0640450199999999,-0.0710480099999999,0.02018783,-0.3286928,0.7138323,-9.07436,0
47257879,5997,3.33,-4.07,-3.93,5.04,3.88,352.38,352.73,-0.09907223,0.07099285,0.02542099,0.001503133,0.813415,-9.452703,0
47368521,5953,3.18,-4.12,-3.81,5.02,4.23,352.39,353.02,0.05577656,0.03301231,0.05723806,-0.3159662,0.7985949,-9.781676,0
47474114,5834,3.59,-4.09,-3.84,4.79,4.03,352.4,353.35,-0.008633684,-0.1106072,0.04531621,-0.2096151,0.8702007,-9.737369,0
47579537,6060,3.4,-4.0,-4.22,4.69,3.88,352.41,353.8,-0.1143129,-0.01937967,0.05688121,-0.3591554,1.057528,-9.256665,0
47689385,6081,3.85,-3.87,-4.87,4.52,4.12,352.42,354.07,-0.04449533,0.08234849,0.03078268,0.2835281,0.9771575,-9.163712,0
47789046,5930,3.69,-3.81,-4.82,4.31,4.16,352.44,354.24,0.0639269799999999,-0.01895303,0.02163244,0.2712333,0.5938795,-9.592675,0
47908298,6048,3.75,-3.51,-4.03,4.15,3.71,352.45,354.5,0.1490513,-0.1092265,0.02646416,0.4658663,0.5317143,-9.83112,0
48013307,5978,3.35,-3.23,-3.54,3.3,2.97,352.5,354.73,0.001981947,-0.1470451,0.005657095,0.4340016,0.9526017,-9.80387,0
48113150,5915,4.28,-2.98,-3.54,0.32,0.29,352.66,354.75,-0.02990208,-0.7888911,-0.0683848299999999,0.2136267,0.5128957,-9.647064,0
48334872,5999,3.5,-2.97,-3.33,-5.11,-6.87,352.94,354.46,0.03678567,-0.4353144,-0.044428,-0.443181,0.7158352,-9.531577,0
48445224,5918,3.43,-2.99,-3.26,-6.73,-8.58,353.02,354.37,-0.01736981,-0.1690651,-0.04145501,-0.2949378,0.7580222,-9.745707,0
48554184,5987,3.53,-3.05,-3.14,-7.39,-8.9,353.06,354.41,0.001801112,0.07934077,0.04696241,0.09657325,1.113343,-9.700452,0
48656475,6012,3.48,-3.08,-3.09,-7.5,-8.4,353.06,354.56,0.003594982,0.06479036,0.05807932,-0.005145783,0.5707593,-10.00257,0
48767128,5931,3.67,-3.05,-3.27,-7.79,-7.86,353.08,354.91,0.02625976,0.03907047,0.0669611299999999,0.1320589,0.449378,-9.730612,0
48873465,6125,3.92,-3.05,-3.63,-8.45,-7.7,353.11,355.37,0.04502888,-0.06210982,0.08884121,-0.4569288,0.8599748,-10.23218,0
48986352,6085,3.46,-3.01,-3.54,-9.0,-7.6,353.14,355.9,-0.05553594,0.113209,0.09266289,-0.07322325,0.776423,-9.962985,0
49100105,6098,3.88,-2.73,-3.68,-9.66,-7.39,353.18,356.46,-0.1478287,-0.004021319,0.09889719,-0.2251158,0.2339186,-9.637237,0
49208265,6094,3.91,-2.67,-4.11,-10.01,-7.68,353.19,357.13,-0.05266365,-0.06915356,0.1111805,-0.349261,0.3283581,-9.875562,0
49314325,6214,4.15,-2.84,-4.81,-10.21,-8.03,353.2,357.7,-0.08361819,-0.02421251,0.08540723,-0.2730879,0.8349875,-9.980557,0
49427270,6234,3.97,-2.8,-5.36,-10.13,-8.58,353.2,357.99,-0.003093817,-0.08653139,-0.002244689,-0.1089759,0.587191,-9.638148,0
49542393,6285,3.55,-2.53,-5.31,-10.23,-8.31,353.2,357.89,0.04506166,0.1784814,-0.01267376,-0.2336699,0.6681762,-9.65737,0
49641014,6164,3.95,-2.16,-4.98,-10.47,-7.97,353.21,357.73,0.1078485,0.022286,0.001711454,-0.2977341,0.519744,-9.596062,0
49864546,6070,3.62,-1.69,-3.83,-10.82,-7.48,353.23,357.29,0.07995792,0.06337178,-0.04132218,-0.4994702,0.5471689,-9.662399,0
49975019,6041,3.6,-1.35,-3.47,-11.3,-7.46,353.24,356.98,-0.0424295,-0.0257951,-0.03948744,-0.2966519,0.4680772,-9.764804,0
50080225,5895,3.62,-1.17,-3.27,-11.78,-7.97,353.25,356.72,-0.03930557,-0.09681285,-0.06852052,-0.1405885,0.5286551,-9.986138,0
50190046,6067,3.82,-1.04,-3.24,-12.19,-8.78,353.26,356.39,-0.03125015,-0.1076244,-0.0656031599999999,-0.2216747,0.7610796,-9.824305,0
50299514,6017,3.71,-1.04,-3.61,-12.43,-9.57,353.26,356.04,0.01994381,-0.1545158,-0.106219,-0.1531634,0.5448255,-9.762676,0
50400909,6058,3.67,-0.94,-3.43,-12.39,-10.02,353.26,355.62,0.05895432,0.02774865,-0.0820972799999999,-0.2300097,0.7002039,-9.978631,0
50513387,6115,3.64,-0.64,-2.85,-12.05,-10.05,353.26,354.92,0.06475076,0.03210246,-0.1285808,-0.413781,0.6704193,-9.733175,0
50621954,5871,3.69,-0.53,-2.01,-10.98,-9.38,353.25,354.22,0.01706395,0.2500812,-0.08902337,-0.6875075,0.8453609,-9.753162,0
50734536,5890,3.74,-1.24,-1.64,-8.51,-7.46,353.21,353.57,-0.04120642,0.4535649,-0.08052086,-0.6059173,0.3820023,-9.635403,0
50847887,5929,2.91,-2.5,-2.69,-5.9,-3.54,353.13,353.05,-0.1884125,0.4858574,-0.03092623,-0.2063472,0.4357973,-9.641355,0
50949837,5504,3.29,-5.09,-5.09,-4.37,-1.57,353.03,352.81,-0.5336643,0.2093807,-0.002734375,-0.4175336,0.2253312,-9.614695,0
51062044,5575,3.56,-7.63,-7.98,-3.69,-1.07,352.96,352.65,-0.2494234,-0.08134033,-0.0129982,-0.1751737,0.918745,-9.727009,0
51169314,5844,3.44,-9.82,-10.46,-3.35,-1.76,352.91,352.5,-0.339506,-0.1280039,-0.06559295,-0.4033004,0.9095231,-9.748734,0
51275527,5869,3.44,-11.41,-12.51,-3.13,-2.31,352.87,352.19,-0.4555484,0.03288744,-0.06527489,-0.4184422,0.717199,-9.478776,0
51390492,5823,3.5,-12.3,-13.92,-2.76,-2.39,352.79,351.78,-0.09718,0.06047911,-0.05592618,-0.6519114,0.7343624,-9.846998,0
51498113,5703,3.41,-12.53,-13.84,-2.34,-1.88,352.69,351.25,0.1267992,0.06080074,-0.03457238,-0.4644932,1.132599,-9.723271,0
51606094,5786,3.46,-12.42,-12.78,-1.81,-1.53,352.58,350.93,0.1733362,0.010677,-0.0457294,-0.20532,0.9137228,-9.968773,0
51709458,5811,3.16,-12.0,-11.71,-1.5,-1.34,352.51,350.74,0.1649788,0.1093044,-0.002173112,-0.5407767,1.033556,-9.884674,0
51826764,5639,3.09,-11.17,-10.39,-1.48,-0.93,352.51,350.64,0.2551875,0.03043179,-0.002161331,-0.8134435,1.219116,-9.774228,0
51940891,5576,2.88,-10.85,-9.14,-1.68,-0.75,352.55,350.83,0.142838,-0.0259693,0.02798321,-0.6178693,0.3155574,-10.09699,0
52040518,5515,3.06,-10.37,-8.58,-2.01,-0.94,352.61,351.03,0.02509341,-0.08218091,-0.003398457,-0.8339697,0.8293558,-9.557923,0
52149105,5570,3.21,-10.23,-8.39,-2.27,-1.37,352.65,351.49,-0.0516529,-0.02361669,0.08313709,-0.7371365,1.08115,-9.409399,0
52265452,5546,3.57,-9.18,-7.79,-2.31,-1.86,352.66,351.76,0.1763355,-0.03473555,0.01704334,-0.5288704,1.473253,-9.341743,0
52369312,5730,3.1,-6.95,-5.16,-2.09,-2.37,352.63,351.8,0.6002814,-0.02249161,-0.0477059,-0.4323199,1.34968,-9.815445,0
52477851,5800,2.55,-5.44,-2.45,-1.8,-2.35,352.6,351.77,0.2398784,0.0345815,-0.02590282,-0.3109464,0.762872,-9.889645,0
52580286,5626,2.86,-4.82,-1.49,-1.36,-2.22,352.56,351.77,0.1054098,0.06066183,-0.005398337,-0.3758379,1.077223,-9.732224,0
52698935,5557,2.78,-5.0,-1.55,-0.83,-1.89,352.51,351.56,-0.03692731,0.04297012,-0.07405577,-0.3736981,1.2947,-9.829009,0
52806769,5575,2.65,-5.45,-2.69,-0.58,-1.35,352.49,351.28,-0.260108,0.08542088,-0.07629596,-0.3346364,1.348773,-9.789032,0
52917118,5644,2.81,-5.86,-3.85,-0.51,-0.89,352.49,351.03,-0.1572639,0.1432614,-0.0243963,0.03577141,1.316402,-9.451557,0
53019871,5657,2.83,-6.06,-4.29,-0.47,-0.66,352.48,350.74,-0.05572751,0.05961964,-0.0813030399999999,-0.8213105,1.022097,-10.31707,0
53130904,5506,2.76,-6.03,-4.62,-0.62,-0.44,352.5,350.46,-0.1166872,0.06400915,-0.03103273,-0.3505067,1.131827,-10.40836,0
53229537,5570,2.5,-6.24,-4.82,-0.74,-0.53,352.51,350.27,0.04520198,0.0007233933,-0.01462048,-1.192927,1.451653,-10.05119,0
53343310,5559,2.88,-7.75,-5.9,-0.79,-0.77,352.51,350.2,-0.3489495,0.0483187,0.02156393,-1.031599,0.9358953,-9.954037,0
53463332,5603,2.73,-8.66,-8.06,-0.8,-0.91,352.52,350.4,-0.2502604,-0.05788648,0.03438612,-0.6765436,1.444075,-9.603262,0
53565477,5499,3.19,-9.09,-9.4,-0.82,-0.9,352.52,350.71,-0.3083729,0.03900348,0.1086163,-0.1358453,1.255288,-9.224735,0
53672860,5684,3.2,-9.13,-9.69,-0.81,-1.13,352.52,350.99,0.1650305,-0.1039743,0.01661442,-0.0675787999999999,1.203884,-9.641015,0
53783307,5665,3.36,-9.03,-9.12,-0.95,-1.15,352.54,351.12,0.007724009,-0.03188351,-0.001010802,-0.3043128,1.01247,-9.705628,0
53894958,5610,3.25,-8.76,-8.81,-1.01,-1.49,352.55,351.27,0.03392997,-0.03480079,0.01581936,0.01922205,1.394522,-9.471625,0
54002953,5728,3.59,-8.5,-8.48,-0.93,-1.73,352.54,351.44,-0.07473784,0.0002164862,0.04702774,-0.4992767,1.280244,-9.814863,0
54112065,5872,3.81,-8.26,-8.59,-0.78,-1.68,352.52,351.87,-0.0003873384,0.07952698,0.1045726,-0.817912,1.300162,-9.818502,0
54217121,5887,3.65,-7.9,-7.87,-0.75,-0.97,352.51,352.41,0.3167211,0.07015457,0.1004416,-0.3090443,1.438997,-10.12,0
54333905,5914,3.68,-7.44,-6.74,-0.86,-0.4,352.53,353.18,0.06531548,0.04008688,0.1213102,-0.2296091,1.454779,-10.18917,0
54432906,5919,3.93,-7.04,-6.14,-0.95,-0.86,352.54,353.94,0.1325074,-0.1664993,0.1208622,-0.1494564,0.9522023,-10.3455,0
54546282,5989,3.79,-6.67,-5.69,-1.08,-1.59,352.55,354.61,0.1196272,-0.04844716,0.07196371,-0.4624616,1.292572,-9.935786,0
54647005,6022,3.93,-6.76,-5.51,-0.99,-1.94,352.54,354.85,0.1612397,0.001504235,0.03683172,-0.319712,1.37145,-10.10943,0
54755079,5957,3.68,-6.89,-6.0,-0.69,-1.9,352.51,354.75,-0.01285489,0.06941528,-0.04559699,-0.1241692,1.404538,-9.798003,0
54865891,5968,3.42,-6.89,-6.28,-0.4,-1.34,352.47,354.45,-0.1522855,0.06005515,-0.046479,-0.5557191,1.417959,-9.713411,0
54971855,5843,3.31,-6.79,-6.54,-0.24,-0.45,352.45,353.99,-0.1103801,0.1485751,-0.0659916599999999,-0.08566709,1.578547,-9.669545,0
55091874,5892,3.51,-6.38,-6.59,-0.42,-0.35,352.47,353.55,0.0207583,-0.0729562,-0.08212642,0.01955984,1.173422,-9.149683,0
55200232,5807,3.42,-5.93,-6.28,-0.78,-0.65,352.51,353.21,0.1360514,0.0003116212,-0.05717876,-0.4352918,0.9334798,-9.358899,0
55309896,5734,3.57,-5.26,-5.67,-1.04,-0.98,352.54,353.02,0.1171079,-0.08682334,-0.04666233,-0.265334,0.8623334,-9.436537,0
55403115,5662,3.56,-4.84,-5.25,-1.1,-1.28,352.54,352.99,0.1460999,-0.06337695,-0.01256018,-0.5088941,1.063783,-9.522974,0
55521042,5882,3.31,-4.68,-4.62,-1.25,-1.3,352.56,352.82,0.1077928,-0.007431442,-0.05182013,-0.8427355,0.9915122,-9.612448,0
55629344,5722,2.9,-4.86,-4.19,-1.53,-0.89,352.58,352.57,-0.02568378,0.07742162,-0.05983094,-0.6329992,0.9780954,-9.151351,0
55727722,5796,2.87,-5.05,-4.76,-1.85,-1.03,352.61,352.1,-0.2146053,-0.04051634,-0.1014085,-0.7964018,1.372131,-9.512651,0
55845137,5557,2.91,-5.16,-5.73,-2.46,-1.67,352.66,351.52,-0.02188447,-0.1621549,-0.04649636,-0.5311958,1.113265,-9.359014,0
55951240,5558,3.27,-5.04,-5.89,-2.88,-2.44,352.7,351.6,0.07196718,-0.1788768,0.01552684,-0.8050236,1.104055,-9.36263,0
56062329,5590,2.7,-4.1,-4.53,-3.07,-3.19,352.72,351.9,0.2349994,-0.1112228,0.06164846,-0.5480973,1.134087,-9.51464,0
56163545,5644,2.76,-3.1,-3.46,-2.97,-3.05,352.71,352.01,0.2099117,0.03363028,-0.0001281005,-0.7772418,1.038902,-8.563841,0
56270371,5670,2.2,-2.65,-2.44,-3.1,-2.03,352.72,351.97,0.00995409,0.1892931,0.04438917,0.1615552,1.186912,-9.65174,0
56385103,5322,2.02,-2.8,-1.86,-3.34,-1.99,352.73,351.68,0.1087916,-0.05531828,-0.1066405,-0.4014071,1.307589,-9.155644,0
56492456,5273,2.51,-3.13,-2.49,-3.87,-2.25,352.75,351.19,-0.001278782,-0.1732627,-0.1144201,-0.7793607,1.648751,-8.841596,0
56595032,5297,2.53,-3.73,-3.02,-4.1,-3.33,352.77,350.71,-0.1381303,-0.0370632,-0.0570462,-0.04740089,1.461517,-8.555103,0
56703029,5243,2.34,-4.43,-3.39,-4.11,-3.73,352.77,350.37,0.006603654,0.007881355,-0.02664595,-0.8474416,1.258746,-9.382833,0
56805065,5267,1.78,-4.68,-3.89,-4.03,-3.51,352.76,350.0,-0.07992072,0.1030414,-0.0293307,-1.103704,1.510786,-9.152536,0
56921958,5072,2.04,-4.91,-4.51,-4.06,-3.14,352.76,349.55,-0.1413034,0.09382003,-0.05285184,-0.5993902,1.435556,-9.013835,0
57034153,4963,1.88,-4.99,-4.76,-4.06,-3.42,352.76,349.49,0.0471166,0.05648938,0.02638445,-1.176484,0.9692456,-9.348769,0
57143481,5023,2.14,-4.54,-4.69,-4.3,-3.3,352.79,349.33,-0.03951271,0.01330302,0.0265264,-1.07525,1.384316,-8.965047,0
57253251,4930,1.94,-2.95,-4.0,-4.64,-3.16,352.81,349.19,0.1610266,0.05340795,-0.01677033,-0.820513,1.444034,-8.63965,0
57368036,5061,2.13,-3.04,-2.28,-4.93,-4.22,352.82,349.34,0.1409734,-0.237176,0.04216595,-0.9205405,0.6282691,-9.603146,0
57461366,5004,2.36,-3.9,-2.34,-4.85,-5.04,352.82,349.74,-0.01397625,-0.1416632,0.04872353,-1.02969,0.8280175,-9.026591,0
57582724,5100,2.38,-4.98,-3.36,-4.42,-5.35,352.78,350.34,-0.1906691,-0.01719244,0.1179868,-0.1508623,0.7207655,-9.777699,0
