TimeUS,RPM,Curr,DesRoll,Roll,DesPitch,Pitch,DesYaw,Yaw,GyrX,GyrY,GyrZ,AccX,AccY,AccZ,Guasto
0,4141,3.47,-0.08,0.06,0.08,-0.32,355.26,355.37,0.3923357,-0.1432857,-0.012421,-0.1411153,0.9155251,-9.867387,2
110283,5281,3.66,-0.43,0.52,-0.04,0.21,355.27,355.59,-0.0006658859,0.09958591,0.06253278,-0.173972,0.4558274,-11.13579,2
224248,5936,3.12,-0.96,1.34,-0.24,0.47,355.27,356.42,0.1305888,0.0003108088,0.1485237,-0.2018602,0.07038423,-11.19634,2
331556,5856,2.57,-1.48,1.31,-0.35,0.22,355.27,357.67,-0.0936110099999999,-0.03106413,0.2474463,-0.2574165,0.3639514,-11.1963,2
441710,5587,2.45,-2.36,0.68,-0.5,0.19,355.27,359.25,-0.2332156,0.02699819,0.2346393,0.2101593,0.1543982,-11.23802,2
552522,5595,2.57,-3.14,-0.1,-0.64,0.11,355.28,0.75,-0.1496543,0.09516867,0.2054117,-0.09915055,0.4780943,-10.78133,2
660236,5406,2.17,-4.01,-0.33,-0.94,-0.37,355.3,2.04,-0.03641121,-0.1271677,0.1885771,-0.196749,0.3623237,-10.56836,2
768499,5290,1.68,-4.55,-1.18,-0.98,-1.2,355.3,3.09,-0.1995787,-0.1487457,0.126999,0.02794295,0.6010929,-9.820908,2
874196,4986,2.27,-4.89,-2.09,-0.82,-1.64,355.29,3.71,-0.06082836,-0.07996839,0.06740031,-0.3388732,0.5937598,-9.971426,2
1101712,5022,2.28,-5.54,-3.16,-0.28,-0.4,355.22,3.92,0.02746512,0.07176654,-0.04592088,-0.118968,0.3520871,-10.17041,2
1212558,5234,2.35,-5.7,-3.89,-0.08,0.35,355.2,3.65,-0.1746337,0.1119493,-0.05028408,0.03444405,0.5228795,-10.18221,2
1323279,5296,2.53,-5.91,-3.76,0.0,0.45,355.19,3.27,0.05962175,0.01681571,-0.08370808,-0.01144257,0.5892597,-9.891391,2
1433941,5271,2.7,-5.81,-4.04,-0.11,0.94,355.2,2.83,-0.1049246,0.1191877,-0.0858546,-0.08406274,0.5572318,-10.3773,2
1647645,5422,2.82,-5.33,-4.36,-0.85,0.72,355.27,2.12,-0.04776208,-0.0600915,-0.01189709,-0.01987622,0.7042758,-10.24992,2
1754591,5586,2.4,-5.0,-4.19,-1.19,-0.09,355.3,2.27,0.1008639,-0.1785783,0.03612811,-0.1288259,0.6777475,-10.38118,2
1861877,5456,2.44,-4.83,-3.77,-1.44,-0.73,355.32,2.76,0.1135428,-0.0899311,0.0682055699999999,-0.05410776,0.6215419,-10.13976,2
1972086,5378,2.36,-4.74,-3.48,-1.33,-1.06,355.32,3.25,-0.0666881099999999,0.05722682,0.07597712,-0.14073,0.5381758,-10.3897,2
2077482,5242,2.42,-4.58,-3.42,-1.09,-0.86,355.3,3.59,-0.006638767,0.06366157,0.05601612,0.03348208,0.7498975,-10.36047,2
2403388,5300,2.59,-4.12,-3.0,-0.04,0.94,355.21,4.1,0.07362422,0.09290687,0.03359203,-0.0825067699999999,0.7986944,-9.945243,2
2523698,5352,2.49,-4.03,-2.59,-0.04,1.33,355.21,4.34,0.05704558,0.03239652,0.05249578,0.1704449,0.7157004,-10.49367,2
2629906,5299,2.22,-4.15,-2.12,0.09,1.01,355.2,4.64,0.08268536,-0.0247755,0.02648987,-0.01590296,0.5828152,-10.54548,2
2739997,5164,2.64,-4.32,-2.29,0.13,0.64,355.2,4.84,0.1013419,-0.1606663,0.01240199,-0.0208052,0.6996697,-10.31299,2
2838454,5275,2.91,-4.48,-2.57,-0.09,0.73,355.93,5.58,0.006553693,-0.05693287,-0.01780973,0.01006098,0.7725515,-10.82995,2
2960018,5431,2.53,-4.68,-2.96,-0.23,0.6,355.95,5.69,-0.04572732,-0.02623103,-0.03669452,-0.1937773,0.8671752,-10.94638,2
3059447,5285,2.32,-4.55,-3.07,-0.32,0.4,355.95,5.84,0.01574141,-0.03000949,-0.06490767,-0.1366259,0.6856993,-10.65915,2
3178028,5292,2.56,-4.22,-3.33,-0.53,0.36,355.97,5.87,-0.05306233,0.0465797,-0.1241602,-0.08802947,0.7455801,-10.46666,2
3283474,5356,2.36,-3.91,-3.22,-0.95,0.31,356.0,5.72,0.01992571,0.004907796,-0.1419042,-0.1538888,0.5926955,-10.25876,2
3397297,5236,2.55,-3.5,-3.07,-1.47,-0.15,356.03,4.95,-0.02028902,-0.05592708,-0.1271962,-0.02290882,0.7630771,-9.951746,2
3505644,5478,2.47,-3.24,-3.07,-1.79,-0.69,356.05,3.92,0.0040471,-0.001371825,-0.1531484,-0.2220838,0.6840699,-10.26715,2
3724443,5387,2.83,-2.96,-2.5,-1.32,-1.2,356.03,1.25,0.1203817,0.09715708,-0.09314428,-0.1976863,0.7449706,-9.631375,2
3939043,5441,3.25,-3.67,-3.0,-0.53,0.37,355.98,359.39,-0.2635928,0.166177,-0.02494899,-0.4120532,1.096318,-9.310372,2
4049505,5735,3.24,-4.4,-4.25,-0.71,0.74,356.0,358.73,-0.2294389,0.008754128,-0.03139429,-0.306114,1.003032,-9.709497,2
4150301,5811,3.26,-4.67,-5.49,-0.87,0.21,356.01,358.57,-0.2203177,0.01884504,-0.02222558,-0.9327852,0.9669759,-9.647587,2
4259290,5751,3.33,-4.37,-6.45,-1.67,0.59,356.07,358.58,-0.04589233,-0.03203907,0.001261169,-0.3178734,0.8427472,-9.441133,2
4372025,5972,3.44,-3.86,-5.96,-2.44,-0.14,356.13,358.61,0.165055,-0.1770319,-0.01371476,-0.6933683,0.8511593,-9.617395,2
4475216,5981,3.22,-3.33,-5.33,-3.24,-1.07,356.18,358.54,0.08260223,-0.1540234,-0.006480146,-0.322722,0.8974669,-9.47838,2
4585691,5908,3.07,-3.08,-4.75,-3.75,-2.35,356.21,358.68,0.09286585,-0.144603,0.03721333,-0.3571002,1.190801,-9.510737,2
4703409,5765,3.05,-3.59,-3.38,-4.06,-3.34,356.23,358.77,0.1489719,-0.123689,0.0311385,-0.1046347,0.9282718,-9.692553,2
4807500,5698,2.2,-3.93,-2.89,-3.98,-3.94,356.22,359.44,0.1588458,-0.1247375,0.0935287,-0.378784,1.117923,-9.405306,2
5131519,5422,2.16,-5.75,-4.09,-3.45,-2.58,356.18,0.59,-0.4018323,0.09986629,0.02776972,-0.2215079,0.9116825,-8.347341,2
5244178,5084,2.01,-6.34,-5.0,-3.35,-2.18,356.17,0.51,-0.01024329,0.09292353,-0.05161313,-0.04982027,1.118108,-8.432231,2
5357794,5059,1.88,-6.91,-5.84,-3.18,-2.45,356.15,0.26,-0.07331057,0.06105168,-0.06045711,-0.4890594,1.120817,-8.478851,2
5469246,4921,2.64,-7.17,-6.41,-3.06,-2.01,356.13,359.84,-0.06065704,0.064303,-0.05349515,-0.09501189,0.9530094,-8.000257,2
5687237,5146,2.29,-7.34,-6.55,-2.95,-1.37,356.12,358.85,0.07927934,-0.0835217,-0.05991319,-0.3821081,1.075952,-8.461534,2
5790708,5240,2.45,-8.3,-7.02,-2.8,-1.43,356.1,358.55,-0.1717075,0.001805484,-0.05444802,-0.3010019,0.7083417,-8.499062,2
6012862,5214,2.61,-12.17,-11.05,-1.49,0.34,355.86,357.97,-0.4459198,0.2070661,-0.03709126,-0.5180873,1.00225,-8.7354,2
6118071,5329,2.36,-14.16,-13.64,-1.05,1.06,355.76,357.64,-0.4732081,0.2292729,-0.06061588,-0.9210711,0.8436295,-8.553326,2
6231020,5378,2.66,-15.59,-15.5,-1.15,1.14,355.78,357.37,-0.2106555,-0.08981333,-0.01841037,-0.3556117,1.235226,-8.769048,2
6343456,5483,2.48,-16.3,-16.25,-1.33,0.44,355.84,357.43,-0.0943099399999999,-0.1783674,-0.006361182,-0.3199723,1.393425,-8.900371,2
6444924,5469,2.67,-16.31,-16.13,-1.64,-0.26,355.93,357.42,0.1006175,-0.1109908,-0.001482021,-0.4822815,1.071147,-9.005908,2
6554918,5386,2.37,-15.67,-15.48,-1.68,-0.8,355.94,357.68,0.1020116,-0.05180442,0.04800315,-0.4143854,0.9242479,-9.009298,2
6662071,5453,2.32,-14.75,-14.58,-1.21,-0.75,355.81,358.12,0.1547209,0.006549831,0.04787498,-0.4800121,0.9862928,-8.776189,2
6771636,5370,2.73,-13.82,-13.53,-0.4,0.19,355.61,357.49,0.1137264,0.2232074,0.03186314,-0.3414536,1.145559,-9.015298,2
6884838,5360,2.66,-13.2,-12.01,0.4,1.01,355.41,356.61,0.241368,0.07620696,0.05216455,-0.3338728,1.002637,-9.328951,2
6988871,5391,2.41,-12.62,-11.5,1.16,1.52,355.24,356.21,-0.01193466,0.1336408,0.05385405,-0.4766082,1.223404,-9.085197,2
7098011,5287,2.95,-12.44,-10.9,2.1,2.34,355.03,356.02,0.0704012,0.1107624,0.05670631,-0.05766967,1.173566,-9.315051,2
7209010,5457,2.63,-12.48,-10.93,3.39,3.42,354.74,357.28,-0.01235253,0.168514,0.09653109,-0.4713628,1.351897,-9.368061,2
7328712,5465,2.94,-12.47,-10.86,4.55,4.99,354.49,358.15,0.07797343,0.2402071,0.08004015,-0.3320497,1.684493,-9.655582,2
7431673,5559,3.06,-12.13,-10.56,5.19,6.0,354.34,358.24,0.0764192,0.1574427,0.02784777,-0.06493224,1.798612,-10.00551,2
7541408,5604,3.18,-11.49,-9.51,5.54,6.28,354.27,358.04,0.1746277,-0.005707589,-0.002187007,-0.3523253,1.98086,-10.44861,2
7652650,5674,3.32,-10.44,-8.22,5.63,6.28,354.25,357.67,0.1865788,-0.01067131,-0.03442488,-0.1723433,1.693501,-10.51917,2
7754618,5729,3.35,-9.59,-7.03,5.68,6.05,354.24,357.75,0.1608385,0.006419775,-0.007836243,-0.1712832,1.685735,-10.64926,2
7870933,5853,3.42,-8.92,-5.89,5.52,5.75,354.27,358.14,0.1337556,-0.05476784,0.0117863,-0.192546,1.47943,-11.07452,2
7980403,5820,3.61,-8.33,-5.57,4.5,5.03,354.42,358.52,-0.07781861,-0.2108878,-0.0088208279999999,-0.1696122,1.44523,-11.03683,2
8090802,5915,2.89,-7.5,-4.99,1.1,1.68,354.89,358.93,0.1382926,-0.7407967,-0.0258127,0.02698119,1.585717,-10.70539,2
8191059,5925,2.99,-7.17,-4.86,-0.93,-1.92,355.16,359.51,-0.01616907,-0.5175834,-0.05648139,-0.4474894,1.676444,-11.18215,2
8309681,5756,2.64,-6.68,-4.96,-2.21,-4.06,355.31,359.88,0.09339166,-0.1735931,-0.06318145,-0.1616411,1.787574,-10.419,2
8417436,5601,2.68,-6.31,-4.94,-2.2,-4.14,355.31,359.87,-0.1463021,0.1578496,-0.07491606,-0.06727951,1.564525,-10.32957,2
8625510,5614,2.78,-6.15,-5.17,-1.4,-2.62,355.22,358.92,-0.09149105,0.04493402,-0.0970720499999999,-0.1190597,1.544749,-10.05787,2
8736433,5655,2.79,-6.05,-5.65,-1.26,-2.04,355.21,358.47,-0.04144459,0.01662216,-0.05268683,-0.02798143,1.42466,-9.612678,2
8844837,5600,2.97,-5.62,-5.82,-1.53,-1.93,355.24,358.29,0.0836538399999999,0.003191744,-0.03018954,-0.1220792,1.555672,-9.753095,2
9069652,5639,2.68,-5.15,-5.74,-2.25,-1.99,355.3,357.79,-0.1031814,0.05070728,-0.02506683,-0.3468348,1.198352,-9.500882,2
9172709,5570,2.61,-4.99,-5.91,-2.43,-2.27,355.32,357.65,-0.0004163148,-0.07926358,-0.02181474,-0.1634907,1.25163,-9.250117,2
9283842,5557,2.59,-4.67,-5.8,-2.43,-2.46,355.32,357.69,0.0614334,-0.004722274,0.008804238,-0.1512228,1.098789,-9.222335,2
9392832,5546,2.63,-4.13,-5.78,-2.75,-2.54,355.34,358.04,0.04193734,-0.03621562,0.03801892,-0.1122612,1.133094,-9.312627,2
9511406,5405,2.52,-2.79,-5.08,-4.19,-3.56,355.67,358.52,0.2127122,-0.2299994,0.0011071,-0.03497839,1.335142,-9.17054,2
9607545,5446,2.91,-1.02,-3.27,-5.91,-5.72,357.81,358.78,0.5229049,-0.4159009,0.04410657,0.01250459,1.392843,-8.966361,2
9726946,5569,3.72,0.64,-0.27,-8.19,-8.64,3.09,0.0,0.4899144,-0.4146039,0.2786671,-0.1792001,1.144675,-9.397784,2
9836056,5801,3.71,0.84,1.42,-9.18,-10.25,7.22,2.91,0.2082225,-0.1252143,0.546748,-0.2497801,0.9358686,-9.739638,2
9946510,6141,2.85,0.5,1.0,-8.8,-9.91,8.7,6.96,-0.0798822399999999,0.1529196,0.61061,-0.1947616,1.09051,-9.51296,2
10062269,5906,2.03,-0.7,-0.3,-7.51,-8.5,8.7,10.52,-0.1875133,0.3113983,0.4428935,-0.07176646,0.9949237,-9.615098,2
10160528,5450,1.78,-3.44,-2.59,-5.71,-6.49,8.64,13.04,-0.3531886,0.4194626,0.3163267,0.054967,1.016135,-9.473982,2
10278407,5023,1.4,-6.46,-6.77,-3.0,-3.62,8.39,14.99,-0.4378906,0.4087448,0.2499971,-0.3238765,0.9884194,-9.127604,2
10389672,4693,1.89,-7.85,-9.93,-1.36,-0.39,8.19,15.58,-0.5480903,0.4208528,0.1468849,0.2233604,1.234422,-9.353408,2
10605512,4799,2.46,-8.23,-8.36,-0.17,0.9,8.01,15.19,0.3545135,-0.0636301799999999,-0.1011159,-0.02173368,0.8366045,-10.00099,2
10714029,5216,1.97,-7.48,-8.23,-0.2,0.55,8.02,14.56,-0.389931,0.06001121,-0.1168097,0.01172845,1.495441,-9.34359,2
10825313,4962,2.38,-7.22,-8.18,-0.19,-0.11,8.02,13.94,0.055963,-0.1310226,-0.1418707,0.06459526,1.310376,-9.198595,2
10940426,5149,2.64,-7.4,-7.28,0.18,-0.89,7.97,13.17,0.3465474,-0.0855021,-0.1865232,-0.06060094,1.303424,-10.28844,2
11047601,5317,2.73,-7.38,-6.39,0.47,-0.21,7.93,11.73,0.04416725,0.3168631,-0.2108229,-0.2507577,1.010468,-9.898007,2
11157852,5373,2.84,-7.57,-6.05,0.53,0.91,7.92,10.1,0.0702383,0.1839201,-0.175478,-0.4659058,1.209813,-10.35028,2
11266276,5484,2.36,-8.16,-5.87,0.59,0.95,7.92,8.89,-0.0778697099999999,0.02733602,-0.1488429,-0.3124588,0.9687892,-9.650241,2
11371982,5353,2.62,-8.74,-6.88,0.51,0.85,7.93,8.22,-0.1930143,0.01163797,-0.09078406,0.0696878799999999,0.9875875,-9.336828,2
11481517,5455,2.61,-9.28,-8.14,0.45,0.61,7.94,7.88,-0.2212888,-0.0007169817,-0.05018737,-0.2583151,1.419913,-9.70891,2
11580457,5576,2.71,-9.49,-8.84,0.49,0.31,7.93,7.76,-0.1236993,0.03791486,0.03232763,-0.009132477,1.556653,-10.08183,2
11691807,5423,2.57,-9.57,-9.16,0.65,0.03,7.9,7.87,-0.150142,-0.05283085,0.05680329,0.07358176,1.356125,-9.539128,2
11794439,5357,2.7,-9.52,-9.24,0.69,0.26,7.9,8.21,-0.06211305,0.07490563,0.08801507,-0.08215835,1.356901,-9.775316,2
11912817,5414,2.48,-9.39,-9.23,0.64,0.48,7.91,8.87,-0.04264477,0.03183126,0.1386539,-0.0293287,1.547307,-9.884377,2
12020138,5429,2.34,-9.12,-8.96,0.67,0.28,7.9,9.42,-0.007189011,-0.09071708,0.0810464999999999,0.09817391,1.455972,-9.997223,2
12228027,5312,2.34,-8.52,-8.42,0.86,0.33,7.87,10.51,-0.01583503,0.0910509699999999,0.09878734,0.1549034,1.182851,-10.02936,2
12348514,5160,2.09,-8.25,-8.04,1.16,0.36,7.83,11.11,0.05674081,-0.002167057,0.0885935499999999,0.2569504,1.157471,-9.702134,2
12447182,5193,2.1,-8.04,-8.21,1.41,0.85,7.79,11.47,-0.1141074,0.1168133,0.08808525,0.2816492,1.314373,-9.886912,2
12556384,5066,2.01,-7.94,-7.9,1.8,1.1,7.74,11.75,0.04879778,0.1481243,0.004647896,0.459905,1.353007,-9.809484,2
12665465,4988,1.97,-7.77,-7.85,2.22,1.24,7.68,11.86,-0.01965533,0.008771371,0.02929705,0.3370075,1.079417,-9.733133,2
12781451,5073,2.57,-7.45,-8.36,2.49,1.71,7.64,11.74,0.03392002,0.002181788,0.02291361,0.2488897,1.205316,-9.175172,2
12893514,5119,2.45,-7.16,-7.78,2.63,1.81,7.62,11.7,0.2451235,-0.05837821,0.01799229,0.2851128,1.327115,-9.855991,2
12999306,5184,2.33,-6.67,-6.72,2.67,2.26,7.62,11.42,0.1600485,0.1623348,-0.05836206,-0.0731196,1.211056,-10.10505,2
13109298,5351,2.44,-6.45,-5.61,2.36,2.62,7.65,10.57,0.2454664,0.03319841,-0.1457283,-0.07130092,1.026628,-9.61523,2
13215824,5273,2.32,-6.28,-5.94,1.78,2.61,7.72,9.73,-0.218602,-0.1234924,-0.1146173,0.0899006599999999,1.535782,-9.018252,2
13330078,5320,2.44,-6.65,-5.82,1.35,1.71,7.77,9.04,-0.0276018,-0.1703024,-0.0648879,-0.208987,1.663314,-10.21576,2
13441267,5428,2.31,-6.54,-4.75,1.06,1.38,7.8,8.32,0.3955402,-0.04269138,-0.1616969,0.1810285,1.907959,-9.665937,2
13544291,5140,2.2,-6.5,-4.15,1.05,1.12,7.8,7.57,-0.006846803,-0.04887215,-0.1299026,0.2696475,1.496559,-9.722136,2
13654044,5114,2.47,-6.59,-4.33,1.07,0.69,7.8,6.91,-0.2624423,-0.0009570747,-0.07235596,-0.03636219,1.441699,-9.840867,2
13764386,5124,2.13,-6.61,-5.18,0.98,0.88,7.81,6.44,-0.1314425,-0.04680829,-0.02724325,-0.2674303,1.372431,-9.06351,2
13872834,5324,3.18,-6.65,-6.08,0.75,1.29,7.84,6.11,-0.2431651,0.02172414,0.007669319,-0.3629911,1.036617,-9.321568,2
13981386,5535,3.04,-6.34,-6.62,0.08,1.21,7.91,6.11,0.01549211,-0.1000232,-0.01663387,0.0345415,1.334513,-9.824749,2
14085412,5687,3.15,-5.98,-6.52,-0.57,0.66,7.98,6.41,0.06448297,-0.1193688,0.07030761,-0.0909832899999999,1.356576,-9.803122,2
14195625,5780,2.72,-3.77,-5.32,-1.14,-0.1,8.04,6.99,0.3458739,-0.09870803,0.1229127,-0.2237256,1.499178,-10.02048,2
14308823,5680,3.0,-0.8,-1.68,-1.37,-0.92,8.05,7.63,0.6708882,-0.06185865,0.1055723,-0.2884226,1.358256,-10.01329,2
14423498,5598,2.69,1.5,2.07,-1.47,-1.17,8.05,8.45,0.4452782,-0.0095194749999999,0.1121916,0.04151166,1.30821,-10.26655,2
14640589,5573,2.07,1.5,3.31,-0.83,-1.28,8.07,9.91,-0.3299619,0.01171838,0.1006826,0.1034036,1.425003,-9.555787,2
14743576,5256,2.09,0.97,1.97,-0.63,-1.0,8.07,10.32,-0.3162912,0.0006043125,0.0351693,0.05223937,1.356667,-9.828052,2
14854022,5197,1.92,0.67,0.96,-0.46,-0.71,8.08,10.69,-0.1092601,-0.07583919,0.001746218,0.05128489,0.9148359,-9.661242,2
14967418,5044,2.55,-0.89,0.01,-0.49,-0.9,8.08,10.88,-0.01970545,-0.1205835,0.0269501,0.2600086,0.8037452,-9.126307,2
15073511,5080,2.1,-2.65,-3.08,-1.3,-1.29,8.1,11.04,-0.6951304,-0.04507793,0.03610568,-0.04717391,0.7066795,-9.18652,2
15189483,5009,2.58,-3.6,-5.38,-2.82,-2.37,8.19,11.13,-0.1402615,-0.2656545,-0.03961585,-0.214521,1.247984,-9.647021,2
15287608,5105,2.48,-4.27,-6.14,-4.47,-3.37,8.3,11.22,-0.1001213,-0.2138653,-0.01867619,-0.1678475,1.012817,-9.872639,2
15399412,5366,2.45,-4.47,-6.17,-6.12,-4.72,8.43,11.24,-0.01342604,-0.219759,-0.02978498,-0.2483305,0.6977637,-10.11454,2
15620449,5299,2.67,-4.05,-5.97,-7.48,-7.34,8.54,10.79,0.04117201,-0.06594287,-0.05483973,-0.6167042,1.128624,-9.840487,2
15724666,5298,3.13,-3.93,-5.6,-7.52,-7.09,8.54,10.57,0.08889572,0.06087019,-0.01687171,-0.2832826,0.7486571,-10.02066,2
15842079,5566,3.05,-3.71,-5.26,-7.5,-6.22,8.54,10.57,0.0722079199999999,0.2178388,0.0349269,-0.3477366,1.129097,-9.81626,2
15941382,5520,3.1,-3.52,-4.87,-7.8,-5.61,8.56,10.77,0.1413263,0.05994943,0.06023626,-0.2119607,1.153817,-10.00521,2
16063518,5722,2.66,-3.38,-4.14,-8.19,-5.83,8.58,11.37,0.0960276999999999,-0.1144101,0.08135936,-0.1761877,0.9737143,-10.38754,2
16160449,5563,2.32,-3.32,-3.83,-8.47,-6.46,8.6,12.01,0.06070689,-0.04482535,0.09392859,-0.2381425,0.9287536,-9.969844,2
16270629,5428,2.67,-3.41,-4.08,-8.78,-6.81,8.61,12.5,-0.07550092,-0.03501557,0.05074592,-0.258299,0.9793987,-10.12173,2
16391931,5457,2.74,-3.65,-4.1,-9.07,-7.07,8.63,12.79,0.1542662,-0.08657149,0.002748292,-0.5090176,0.7785422,-10.17288,2
16492493,5447,2.56,-3.78,-4.36,-9.23,-7.08,8.64,12.83,-8.327664e-05,0.007710564,-0.01488818,-0.3118872,0.9690421,-9.543262,2
16596013,5257,2.23,-3.89,-4.73,-9.22,-7.6,8.64,12.73,-0.02404206,-0.1797412,-0.002097605,-0.5134916,1.230675,-9.955821,2
16718686,5263,2.47,-4.1,-4.76,-8.94,-7.78,8.62,12.41,-0.04470424,0.07066536,-0.07127889,-0.3809363,1.158084,-10.10143,2
16813257,5314,2.48,-4.21,-4.69,-8.57,-7.66,8.6,12.13,0.04924578,-0.0729881899999999,-0.05436916,-0.4346961,0.9527586,-9.610228,2
16928076,5324,2.7,-4.38,-5.13,-8.29,-7.1,8.57,11.65,-0.05715217,-0.034981,-0.1016213,-0.5492484,0.845217,-9.992293,2
17041606,5459,2.72,-4.72,-5.35,-8.31,-6.56,8.58,11.2,0.05270305,0.1141723,-0.0770594,-0.815537,1.435159,-9.774743,2
17154551,5498,2.5,-5.21,-5.39,-8.42,-6.28,8.59,10.63,0.03480013,0.08052543,-0.09349991,-0.8066544,1.382647,-9.341686,2
17255711,5559,3.0,-5.68,-5.57,-8.68,-6.14,8.61,9.79,0.003106453,0.08303276,-0.1261996,-0.5513411,1.083881,-9.301001,2
17369506,5450,2.57,-6.28,-5.95,-9.15,-6.58,8.66,8.97,0.05609222,-0.0708814599999999,-0.1974298,-0.6855538,1.158985,-8.832363,2
17477454,5516,2.65,-6.7,-6.83,-9.56,-7.3,8.71,8.19,-0.1811346,-0.2023488,-0.1341645,-0.43503,1.010246,-9.02388,2
17582626,5656,2.83,-6.98,-7.42,-9.76,-7.88,8.73,7.55,-0.1510812,-0.1261996,-0.1031713,-0.6150034,1.041898,-9.357239,2
17693402,5635,2.9,-6.95,-7.85,-9.85,-8.27,8.74,7.08,0.01921413,-0.06960835,-0.09978396,-0.6688348,1.346566,-8.72282,2
17798966,5584,2.94,-6.82,-8.11,-9.9,-8.29,8.75,6.81,-0.04260749,0.01860267,-0.019507,-0.9196427,1.076207,-8.940982,2
17910580,5744,3.36,-6.46,-8.13,-9.97,-8.24,8.76,6.75,-0.05483853,0.0712532,0.02648035,-0.8105597,1.191424,-9.115227,2
18026473,5759,3.24,-6.06,-7.72,-10.02,-8.02,8.76,6.88,0.1130282,0.02180053,-0.0007369093,-0.8838731,1.098106,-9.239409,2
18121305,5672,3.02,-5.75,-7.32,-10.12,-7.94,8.77,7.03,0.04820873,0.03062541,0.03396178,-1.014463,0.7847421,-9.577611,2
18230484,5749,3.17,-5.39,-6.82,-10.27,-8.25,8.79,7.3,0.200727,-0.1093951,0.05051784,-0.8360016,0.9179909,-9.31671,2
18346983,5885,3.39,-5.08,-6.51,-10.5,-8.7,8.81,7.53,0.002696553,-0.05686493,0.01869991,-1.180513,1.191757,-9.672989,2
18452538,5896,3.37,-4.85,-5.87,-10.43,-8.78,8.8,7.84,0.1897499,0.005021364,0.0326372,-0.841022,0.8331727,-9.787479,2
18561707,6032,3.34,-4.81,-5.48,-9.88,-8.54,8.76,8.2,0.03447796,0.08337579,0.0509082,-1.12956,1.22071,-9.972316,2
18671413,5900,3.25,-5.18,-5.17,-8.87,-7.72,8.67,8.66,0.07553519,0.155989,0.09677063,-1.040412,1.106936,-10.22729,2
18775899,5898,3.3,-5.5,-5.55,-7.72,-6.41,8.56,9.0,-0.1332018,0.2398688,0.1023563,-1.080568,1.151652,-10.10052,2
18883372,5867,3.32,-5.8,-6.06,-6.53,-4.92,8.44,9.25,-0.0553727,0.2438326,0.05915866,-0.8274918,1.292209,-10.07187,2
18991853,5829,3.31,-5.98,-6.06,-5.16,-3.34,8.3,9.36,-0.1025197,0.2972481,0.03911186,-0.761215,1.030174,-10.30608,2
19097842,5867,2.66,-6.0,-5.93,-4.26,-2.29,8.2,9.59,0.2539035,0.1237309,0.04531536,-0.9286635,1.387075,-9.765446,2
19211656,5792,2.93,-6.18,-5.75,-3.62,-2.2,8.13,9.77,-0.02886698,0.002318333,-0.005742411,-1.082252,0.962521,-10.32624,2
19323951,5703,2.82,-6.42,-5.31,-3.21,-2.06,8.09,9.61,0.1178361,0.04561386,-0.07434947,-0.8009531,1.250591,-10.07185,2
19422479,5740,2.5,-6.6,-5.62,-2.88,-1.99,8.05,9.06,-0.04320919,-0.01970973,-0.1530189,-0.5033316,1.122953,-9.286119,2
19534806,5671,2.57,-6.8,-6.3,-2.58,-2.16,8.02,8.37,-0.1049198,-0.003655055,-0.1133276,-0.7441938,1.088123,-9.69248,2
19651878,5709,3.05,-6.64,-7.1,-2.28,-2.1,7.98,7.81,0.04472006,0.0798848999999999,-0.0638063299999999,-1.029028,1.444785,-9.327322,2
19764390,5669,3.19,-6.23,-7.44,-2.22,-1.48,7.97,7.34,-0.000815517,0.1130849,-0.03517335,-0.8229513,0.7773803,-9.675829,2
19862122,5805,3.04,-5.71,-7.53,-2.32,-1.13,7.98,6.98,0.03081368,0.02070977,-0.03591567,-1.018265,0.9674174,-9.486843,2
19973894,5916,3.32,-5.08,-7.15,-2.59,-1.35,8.01,6.95,0.1009525,-0.08232129,0.03741745,-0.9377504,0.9579765,-9.802152,2
20082087,5759,3.07,-4.75,-6.07,-2.18,-1.74,7.98,7.24,0.1263468,0.03823226,0.07905719,-0.9914193,0.8455043,-9.91007,2
20197826,5914,2.85,-4.53,-5.21,-0.1,-0.57,7.81,7.73,0.1132326,0.3025109,0.1312153,-0.950717,1.017972,-9.900584,2
20301083,5657,2.94,-4.63,-4.72,2.5,1.81,7.6,7.98,0.02069693,0.5091924,0.09222452,-0.681253,0.7071733,-10.51563,2
20406892,5687,3.3,-4.59,-4.6,5.15,5.46,7.38,8.17,-0.01979984,0.5000934,0.05122052,-0.3326284,0.6680582,-9.882807,2
20519491,5794,3.19,-4.7,-4.29,6.37,6.99,7.28,8.3,0.1020823,0.01339718,0.04804106,-0.3856896,1.1905,-10.58254,2
20629612,5718,2.68,-5.05,-3.4,6.03,5.98,7.31,8.5,0.09506742,-0.2762438,0.04749271,-0.4292417,0.9730639,-10.38313,2
20841523,5781,2.72,-5.51,-3.49,4.81,1.54,7.43,9.13,-0.0765034899999999,-0.1704957,-0.001259279,-0.6972235,0.9561825,-10.07785,2
20957663,5332,2.73,-5.77,-3.53,4.39,0.77,7.47,9.06,-0.02048151,-0.001278991,-0.06308518,-0.780278,0.8765695,-10.6517,2
21064088,5580,2.93,-5.64,-3.85,4.2,1.13,7.49,8.56,-0.04668498,0.1490137,-0.131642,-0.5002263,0.8733845,-10.31784,2
21177778,5494,3.07,-5.4,-4.42,3.72,1.76,7.53,7.74,-0.1315204,0.09013704,-0.1236453,-0.5536368,0.6505992,-10.10319,2
21282973,5641,3.37,-4.92,-5.26,0.94,1.08,7.78,7.11,-0.1201051,-0.4391033,-0.1491849,0.03969844,0.8079488,-10.22966,2
21391713,5910,2.77,-4.45,-5.22,-2.27,-3.24,8.05,7.08,0.08283956,-0.7384703,-0.05024577,-0.7646407,1.052171,-10.01106,2
21508815,5785,3.29,-4.23,-3.98,-4.22,-6.8,8.2,7.23,0.1953596,-0.390707,0.009959222,-1.008424,0.7934971,-10.08713,2
21720087,5788,3.04,-4.28,-3.57,-4.42,-6.02,8.21,7.66,0.04378187,0.1492257,0.07249267,-0.3698929,0.7657678,-10.34211,2
21829419,5946,3.12,-4.26,-4.09,-4.05,-4.88,8.18,7.99,-0.06862616,0.2787089,0.0760999,-0.6265053,0.9955674,-9.968164,2
21940410,5785,3.01,-4.16,-4.31,-4.17,-4.26,8.19,8.19,0.01393561,0.0205203,0.01871301,-0.5289646,0.9688137,-10.15123,2
22046455,5781,2.96,-3.94,-4.86,-4.39,-4.33,8.21,8.26,-0.1924449,-0.02553988,0.003210253,-0.4096619,0.8566896,-9.831215,2
22159914,5729,3.36,-3.51,-5.67,-4.67,-4.29,8.23,8.28,-0.06143846,0.0400954,0.0090908,-0.646893,0.8707468,-9.864787,2
22267269,5751,2.86,-3.15,-5.0,-4.1,-3.94,8.2,8.22,0.1615542,0.1180644,0.005101006,-0.8799608,1.008031,-10.31429,2
22377972,5877,3.18,-2.8,-3.81,-2.95,-2.09,8.14,7.96,0.02041045,0.2844059,-0.03622901,-0.6462854,0.659745,-10.17956,2
22604896,5966,3.09,-2.31,-4.3,-2.74,-1.21,8.12,7.1,0.0003398415,-0.06649127,-0.03942826,-0.7498016,0.9902258,-9.409377,2
22711539,5858,3.23,-2.42,-4.4,-2.98,-1.86,8.13,6.92,0.00747122,-0.1524196,-0.02302826,-0.8289948,1.137766,-9.444057,2
22808257,5884,3.33,-2.75,-4.13,-3.3,-2.14,8.15,6.91,0.08774975,-0.08868992,0.02672179,-0.7438787,1.199312,-9.854957,2
22922477,5861,2.93,-3.13,-3.91,-3.55,-2.74,8.16,7.14,0.08856111,-0.09839233,0.05987793,-0.8403648,1.095582,-9.664877,2
23030601,5776,2.88,-3.42,-4.19,-3.74,-3.35,8.17,7.38,-0.1115977,-0.06229808,0.03355162,-0.8981029,1.214606,-9.189466,2
23133820,5829,3.16,-3.74,-4.32,-3.97,-3.55,8.19,7.5,-0.03759349,-0.009170586,0.02814153,-0.8639854,1.071174,-9.360625,2
23240904,5580,2.9,-3.86,-4.5,-4.09,-3.87,8.19,7.45,0.0237525,-0.09665098,-0.03200223,-0.8559235,1.141021,-9.293069,2
23350052,5798,2.94,-3.96,-4.64,-3.73,-4.11,8.17,7.33,-0.07579207,0.01758808,-0.04308704,-1.051967,0.9881709,-9.558356,2
23462109,5760,3.37,-4.13,-4.43,-2.13,-2.85,8.06,7.04,0.01827415,0.3032768,-0.01301744,-1.208528,0.8526011,-9.723998,2
23575312,5809,3.53,-4.29,-4.41,-1.02,-0.51,7.97,6.73,-0.1091183,0.2750798,-0.02851524,-0.7419183,0.9538246,-9.968169,2
23683387,5937,3.34,-4.44,-4.49,-0.89,0.13,7.97,6.48,0.004951863,0.009892444,-0.05102506,-0.6773821,1.049367,-9.578566,2
23801847,6173,3.61,-3.86,-4.4,-2.5,-0.83,8.08,6.27,0.02129665,-0.3262035,-0.04166674,-0.5987482,1.153216,-10.00506,2
23907980,6100,3.11,-3.16,-3.66,-4.41,-3.08,8.2,6.26,0.13285,-0.3702496,-0.03241211,-0.9280519,1.072752,-9.490514,2
24002255,5980,3.04,-2.25,-3.02,-5.68,-4.96,8.26,6.35,0.08300372,-0.3129403,0.009561286,-0.9438279,0.7279901,-9.599199,2
24228414,5819,3.28,0.66,0.51,-6.15,-6.13,8.28,6.84,0.2829032,0.05637978,0.04404639,-0.8308365,0.8241351,-9.768064,2
24328863,5939,3.26,1.26,1.69,-5.83,-5.82,8.29,7.16,0.1413935,0.04046979,0.05091975,-0.5216527,0.7479485,-9.918015,2
24541931,5882,3.03,0.73,1.39,-4.9,-4.89,8.31,7.88,-0.09138785,0.1131911,0.06581584,-0.8409925,0.7819522,-9.770829,2
24656841,5675,3.09,0.43,0.55,-4.53,-4.45,8.31,8.19,-0.1225682,0.02426904,0.04922606,-0.6724821,0.7486888,-9.369083,2
24764448,5838,3.05,0.23,-0.24,-4.18,-4.1,8.31,8.42,-0.1955782,0.105969,0.04717193,-0.6780075,0.792223,-9.741023,2
24875031,5772,3.1,0.33,-0.41,-4.09,-3.79,8.31,8.56,-0.03626974,0.04544298,0.02844274,-0.5231902,0.8000019,-9.617816,2
24982242,5782,3.08,0.31,-0.3,-3.94,-3.81,8.31,8.68,-0.04629058,0.007590788,0.03394594,-0.8365686,0.7218716,-9.837659,2
25084862,5742,2.94,0.34,-0.29,-3.87,-3.6,8.31,8.79,0.02193619,0.02877888,0.01989879,-0.6689005,0.7848813,-9.546597,2
25192047,5742,3.12,0.11,-0.22,-3.78,-3.62,8.31,8.84,-0.07856588,-0.01970419,0.004372014,-0.7169981,0.802834,-9.36886,2
25313964,5785,3.19,0.12,-0.49,-3.74,-3.68,8.31,8.85,0.02459103,-0.02730285,0.0079833319999999,-0.9138179,0.6748307,-9.870429,2
25520218,5785,3.28,0.55,-0.64,-3.59,-3.56,8.31,9.0,0.03144753,0.0727592,0.02478325,-0.7772657,0.6229299,-10.16919,2
25641589,5844,2.99,1.0,-0.44,-3.41,-3.29,8.32,9.17,0.001169028,0.04331937,0.01695495,-0.7516105,0.719067,-9.943179,2
25735865,5742,3.12,1.21,-0.08,-3.26,-3.12,8.32,9.26,0.07431593,0.01723582,0.004096221,-0.7308587,0.5731273,-9.994531,2
25856378,5805,3.07,1.43,0.48,-3.04,-2.95,8.33,9.24,0.1188344,0.0002569677,-0.002534156,-0.6701674,0.760956,-9.792676,2
25969511,5683,3.08,1.5,1.11,-2.86,-2.91,8.33,9.09,0.1418016,0.03669341,0.001289183,-0.8504385,0.5093687,-10.09713,2
26074811,5772,2.75,1.33,1.08,-2.75,-2.67,8.33,9.11,-0.1251844,-4.400553e-05,0.03260138,-0.4984877,0.7581105,-9.928175,2
26175833,5768,2.62,1.04,0.58,-2.44,-2.77,8.34,9.43,-0.2048114,0.04322855,0.0633269,-0.4694099,0.6804415,-9.744652,2
26287816,5509,2.71,0.84,0.1,-2.04,-2.6,8.35,9.98,-0.07243866,0.1342638,0.09353373,-0.5556568,0.7912288,-9.818677,2
26398303,5562,2.57,0.54,0.26,-1.75,-1.99,8.35,10.57,0.04202146,0.06814399,0.09961443,-0.5349231,0.7110754,-9.667805,2
26502789,5482,2.16,0.6,-0.15,-1.53,-1.98,8.35,11.03,-0.07213343,-0.07955762,0.05807214,-0.5124211,0.7564109,-9.670927,2
26615504,5259,2.06,0.33,-0.21,-1.25,-2.55,8.35,11.59,0.0727023599999999,-0.2036714,0.1305713,-0.381515,0.8587076,-9.207563,2
26727998,5154,2.45,0.0,-0.05,-0.81,-2.81,8.35,12.22,0.1566567,-0.0654726,0.06909633,-0.3471566,0.7542418,-9.341614,2
26833404,5111,2.25,-0.39,0.09,-0.08,-2.3,8.35,12.5,0.05521185,0.1943556,0.004470526,-0.4303851,0.6611605,-9.618208,2
27054799,5060,2.34,-0.99,0.05,1.06,-1.04,8.34,12.27,-0.06225196,0.1233209,-0.09067349,-0.4456491,0.6398765,-9.981843,2
27170605,5167,2.44,-1.32,-0.27,1.34,-0.6,8.33,11.7,0.06829618,0.05112693,-0.1113102,-0.3616391,0.6385375,-9.875327,2
27269080,5278,2.77,-1.54,-0.6,1.47,-0.12,8.33,11.16,-0.04900998,-0.005068087,-0.1061542,-0.2244427,0.7409392,-10.06753,2
27376489,5370,2.84,-1.88,-0.67,1.57,0.34,8.33,10.53,0.0385818,0.0906310699999999,-0.08041877,-0.2437832,0.7550906,-10.15214,2
27595394,5360,2.8,-2.06,-1.6,1.38,0.23,8.33,9.11,-0.0845975499999999,-0.01454108,-0.1585705,-0.3641054,0.6479748,-10.02427,2
27696077,5517,3.07,-2.1,-1.73,1.22,0.15,8.34,8.24,-0.06436715,0.02366976,-0.1653146,-0.43341,0.8738057,-10.21177,2
27807839,5670,2.89,-2.21,-2.0,1.12,-0.24,8.34,7.12,-0.0781138,-0.06389568,-0.1608342,-0.1775618,0.5877278,-10.08865,2
28025188,5614,3.23,-1.75,-3.04,0.86,0.34,8.35,5.82,-0.01674299,0.04838637,-0.07150806,-0.3114134,0.7536556,-9.768229,2
28133567,5630,3.25,-1.18,-2.83,0.57,0.71,8.36,5.48,0.149857,-0.0387412,-0.05311012,-0.3187713,0.6897599,-9.921065,2
28242431,5807,3.0,-0.78,-2.28,0.11,0.25,8.37,5.36,0.1226765,-0.1007278,0.006829386,-0.2547711,0.6371546,-9.82457,2
28352673,5725,3.05,-0.34,-1.88,-0.33,-0.48,8.37,5.55,0.116091,-0.1792329,0.03803144,-0.2111852,0.714166,-9.781525,2
28461490,5626,2.92,-0.3,-1.36,-0.53,-1.2,8.37,5.92,0.0703601799999999,-0.09617426,0.08592644,-0.3762499,0.5867066,-9.757147,2
28567774,5588,2.9,-0.14,-1.08,-0.43,-1.58,8.37,6.4,0.01659435,0.003729202,0.0851697,-0.290395,0.6427184,-9.931491,2
28681431,5722,3.07,-0.03,-0.82,-0.07,-1.37,8.37,6.73,0.04422088,0.05694189,0.04957765,-0.2741572,0.5214891,-9.76953,2
28789475,5591,3.05,-0.08,-0.57,0.21,-0.56,8.37,7.02,0.03728104,0.1147515,0.03792249,-0.1736415,0.3845382,-9.985763,2
28905637,5709,2.95,-0.1,-0.69,0.29,0.0,8.37,7.29,0.03270984,0.01568746,0.03709425,-0.08946846,0.3796625,-9.763414,2
29007926,5667,2.86,-0.17,-0.76,0.32,0.05,8.37,7.45,-0.007465136,0.01182094,0.02679062,-0.1294947,0.4434887,-9.779963,2
29111704,5614,2.85,-0.24,-0.87,0.22,0.0,8.37,7.46,0.0439152,0.01594046,-0.01705389,-0.1866999,0.3792007,-9.886239,2
29221162,5623,2.66,-0.06,-1.19,0.1,-0.31,8.37,7.37,-0.04161124,-0.04251146,-0.01558437,-0.2392381,0.5669019,-9.76083,2
29334512,5451,2.92,0.11,-1.12,-0.04,-0.43,8.37,7.16,0.0896030399999999,-0.006277657,-0.04685787,-0.2578064,0.4775572,-9.782509,2
29430458,5559,3.0,0.21,-0.73,-0.3,-0.2,8.37,6.81,0.06025386,0.03313517,-0.0744791,-0.1990877,0.4260347,-9.766878,2
29538381,5674,3.18,-0.82,-0.74,-0.57,-0.39,8.37,6.22,-0.2223225,-0.02363686,-0.106472,-0.3017336,-0.0651049499999999,-9.68009,2
29648833,5850,2.96,-2.2,-2.91,-1.12,-0.8,8.39,5.51,-0.3142256,-0.1195997,-0.1416557,-0.1434696,0.362731,-9.558638,2
29760633,5710,3.16,-3.05,-4.39,-2.09,-1.72,8.43,4.63,-0.2378506,-0.2018332,-0.1617058,-0.3091156,0.2629032,-9.435776,2
29869536,5678,3.23,-3.29,-5.32,-3.27,-2.78,8.5,3.78,-0.1016194,-0.1406226,-0.1486473,-0.4614685,0.4346268,-9.788469,2
29984084,5765,3.39,-3.06,-5.15,-4.16,-3.47,8.55,3.03,0.0702479399999999,-0.0652480899999999,-0.0855312,-0.4426883,0.2089789,-9.566729,2
30093833,5900,3.37,-2.55,-4.48,-4.63,-3.67,8.57,2.65,0.1346039,-0.03023912,-0.04598053,-0.3508664,0.1014973,-9.662216,2
30194631,5900,3.33,-2.14,-3.89,-4.88,-3.81,8.58,2.58,0.1085769,-0.03340547,0.008338882,-0.4841438,0.1372475,-9.476232,2
30316419,5908,3.41,-1.73,-3.34,-5.05,-4.0,8.59,2.73,0.0525914,-0.02082327,0.02802887,-0.5653497,0.1881034,-9.835951,2
30418878,5859,3.56,-1.8,-2.8,-5.01,-3.92,8.59,2.87,0.0735222,0.0459799,0.02923439,-0.354469,0.123495,-9.703506,2
30533403,6000,3.21,-2.37,-3.03,-4.52,-3.81,8.57,3.12,-0.09519108,-0.01002963,0.05935876,-0.5190674,0.198211,-9.804399,2
30639880,5855,3.28,-2.17,-3.4,-4.09,-3.39,8.55,3.62,0.06118201,0.09334974,0.0942385,-0.2970262,0.5054665,-9.791169,2
30747434,5735,3.19,-2.03,-2.83,-3.73,-3.0,8.54,4.34,0.06872576,0.02873734,0.1538517,-0.2763138,0.1906912,-9.759988,2
30961893,5945,2.77,-1.64,-2.57,-3.18,-2.84,8.52,6.48,-0.03112369,-0.02910702,0.2184876,-0.2554772,0.1646459,-9.993765,2
31068623,5596,2.41,-1.49,-2.92,-2.86,-2.66,8.51,7.83,-0.03602349,0.00940476,0.230317,-0.2495362,0.4280932,-10.02038,2
31175677,5393,2.28,-1.56,-2.67,-2.46,-3.02,8.5,9.07,0.1599045,-0.1570435,0.1867955,-0.1282283,0.42625,-9.900717,2
31285892,5272,2.52,-1.64,-2.44,-2.07,-3.0,8.49,10.03,0.07253431,0.02273328,0.1264351,-0.359137,0.3774331,-9.992488,2
31510042,5303,2.34,-5.32,-4.41,-1.67,-2.21,8.47,11.37,-0.5651692,0.1040965,0.09047802,-0.2883029,0.2524471,-9.740355,2
31613042,5368,2.31,-7.64,-7.37,-1.62,-1.94,8.47,11.82,-0.5090297,0.04191509,0.06133336,-0.2969598,0.5541852,-10.17766,2
31718078,5253,2.35,-9.19,-9.15,-1.58,-2.1,8.46,12.28,-0.157869,0.01626763,0.06287491,-0.4435812,0.5516921,-9.693127,2
31832887,5123,2.59,-9.68,-10.06,-1.62,-1.29,8.47,12.58,-0.1221801,0.2168547,0.06889869,-0.4811978,0.4695381,-10.27943,2
31945879,5311,2.58,-9.51,-10.0,-1.81,-0.12,8.5,12.58,0.02723037,0.1740766,-0.01600522,-0.4606829,0.5755013,-10.00873,2
32053243,5271,2.55,-9.24,-9.46,-2.23,0.18,8.57,12.19,0.0523421,0.03834245,-0.1085915,-0.5194294,0.6541774,-9.876466,2
32160522,5280,2.84,-9.15,-8.6,-2.79,-0.53,8.66,11.48,0.1985355,-0.1567473,-0.1742615,-0.5922792,0.6461249,-9.771565,2
32269605,5478,2.91,-9.21,-8.1,-3.36,-1.24,8.75,10.6,-0.01010025,-0.02888227,-0.1798241,-0.6006063,0.6279331,-9.801752,2
32373080,5565,3.24,-9.31,-7.75,-3.85,-1.97,8.83,9.67,0.07839963,-0.09068513,-0.1435541,-0.7807177,0.5730792,-9.984067,2
32493168,5757,2.94,-8.96,-7.76,-4.18,-2.74,8.89,8.61,0.004217248,-0.06274839,-0.1694659,-0.7421097,0.7831759,-9.725391,2
32595659,5757,3.27,-6.84,-6.2,-4.31,-3.58,8.91,7.65,0.3973122,-0.1062861,-0.2121279,-0.7749631,0.7505851,-9.511346,2
32706672,5780,3.51,-5.22,-3.71,-4.24,-4.63,8.9,6.69,0.2669847,-0.1189181,-0.1317787,-0.87798,0.3169393,-9.473357,2
32808845,5919,3.94,-4.19,-2.77,-4.23,-4.43,8.9,6.09,0.02224825,0.1032041,-0.08628392,-0.7742065,0.2699996,-9.815794,2
32924586,6112,3.97,-4.51,-3.19,-4.1,-3.66,8.89,5.9,-0.11826,0.09878059,0.005684419,-0.570734,0.2916019,-9.743976,2
33033678,6242,3.84,-5.6,-4.91,-4.09,-3.12,8.89,6.09,-0.3833827,0.03148654,0.06292253,-0.6387532,0.4624979,-10.06883,2
33144405,6229,3.43,-6.24,-6.84,-4.23,-3.17,8.9,6.7,-0.2297832,-0.0941785099999999,0.109877,-0.6255778,0.5916216,-10.29293,2
33254639,6027,3.36,-4.73,-7.05,-4.49,-3.33,8.93,7.42,0.2331259,0.003036548,0.1082807,-0.7423955,0.93484,-10.06395,2
33355385,5885,3.35,-3.13,-4.82,-4.69,-3.35,8.94,7.98,0.384782,-0.05471875,0.0822602999999999,-0.6221913,0.5333029,-10.19898,2
33465266,5908,2.75,-1.54,-2.57,-4.59,-4.0,8.94,8.58,0.3497255,-0.2054129,0.09933901,-0.4207381,0.2600161,-9.644291,2
33575228,5770,3.21,-0.84,-0.58,-4.32,-4.68,8.93,9.12,0.2395102,-0.01776018,0.06913997,-0.6602651,0.2633717,-9.763833,2
33682064,5761,2.8,-0.69,-0.23,-3.92,-4.72,8.93,9.66,-0.03137873,0.07154589,0.09133423,-0.7482746,0.504299,-9.738698,2
33791831,5853,2.87,-0.91,-0.59,-3.49,-4.33,8.92,10.0,-0.09164116,0.02392861,0.03383956,-0.5369726,0.4405318,-9.429448,2
33905430,5769,3.17,-1.21,-0.9,-2.27,-3.35,8.9,10.12,-0.03031493,0.2884392,0.01097741,-0.6350775,0.6534189,-9.944304,2
34019783,5758,3.33,-1.54,-0.53,-0.77,-0.95,8.86,10.36,0.1168879,0.4000991,0.06127055,-0.7041258,0.514304,-10.14719,2
34125409,5905,2.74,-1.97,-0.4,0.69,1.3,8.82,10.67,-0.0398983,0.2718162,0.05519299,-0.5427572,0.5337158,-10.02665,2
34235813,5710,2.56,-2.62,-0.55,1.71,2.42,8.78,10.99,-0.0257963,0.04604445,0.05554812,-0.4754603,0.7866684,-9.259542,2
34352068,5476,2.73,-3.3,-1.03,2.16,2.73,8.76,10.95,0.0005190092,-0.07198559,-0.06184066,-0.4585456,0.7558603,-9.642113,2
34460511,5526,2.91,-4.0,-1.44,2.29,2.41,8.75,10.49,-0.06648501,-0.08006153,-0.09640397,-0.3338532,0.5559911,-9.565591,2
34562855,5511,2.71,-4.36,-2.16,2.39,1.98,8.74,10.04,-0.1149549,-0.01891405,-0.06496258,-0.4555379,0.5438017,-9.792023,2
34676606,5454,2.66,-4.48,-3.52,2.56,1.86,8.73,9.7,-0.1869179,-0.03608621,-0.04185133,-0.4402414,0.6156553,-9.597366,2
34776282,5429,2.79,-4.34,-4.15,2.71,1.67,8.72,9.39,-0.01417014,-0.04482072,-0.082736,-0.3366536,0.563988,-9.676562,2
34895633,5555,2.92,-3.83,-4.4,3.07,1.78,8.69,8.94,-0.05091042,0.09140342,-0.05162018,-0.3478595,0.4319663,-9.813896,2
35006847,5540,2.68,-3.13,-4.25,3.45,2.05,8.67,8.73,0.1212681,-0.01681481,0.006078492,-0.158416,0.5947669,-9.777445,2
35223631,5526,2.54,-2.3,-2.45,4.76,2.61,8.61,9.11,0.1533636,0.0484944,0.07331335,-0.4052328,0.2723505,-9.937583,2
35325147,5496,2.53,-1.96,-1.85,5.5,3.38,8.58,9.42,0.1418194,0.1400956,0.05576048,-0.1708135,0.3751514,-9.794734,2
35429788,5412,2.69,-1.79,-1.24,6.3,4.25,8.55,9.72,0.04307153,0.1470208,0.04495046,-0.2725341,0.5465706,-10.3463,2
35540439,5290,2.36,-1.65,-0.52,6.85,5.28,8.54,10.24,0.1022968,0.167784,0.09844453,0.1080835,0.738913,-10.11567,2
35655526,5368,2.09,-1.73,0.5,7.37,5.25,8.52,11.1,0.08534003,-0.04851778,0.1367205,-0.01648192,0.3335149,-9.739259,2
35759831,5181,2.07,-1.71,0.66,7.56,5.13,8.51,11.85,0.06120009,-0.1288896,0.1101299,-0.0248725,0.2322985,-10.24293,2
35866057,5097,1.79,-1.82,0.18,7.48,4.95,8.52,12.48,-0.06811173,-0.05689384,0.0822296,0.03207842,0.5355704,-9.862369,2
35976664,4903,1.76,-2.04,-0.25,7.55,4.68,8.51,12.72,-0.03345352,-0.04827244,0.01529857,0.05499912,0.5356726,-9.686486,2
36082622,4832,1.82,-2.09,-0.68,7.66,5.05,8.51,12.77,-0.06238916,0.08785516,0.0006458115,0.1313163,0.5634026,-9.709776,2
36186985,4911,1.67,-1.95,-1.06,7.91,5.23,8.5,12.59,-0.01339135,0.08607772,-0.06258875,0.1305688,0.4110449,-9.442167,2
36305873,4758,1.65,-1.54,-1.21,8.11,5.45,8.5,12.19,0.07221733,0.06068774,-0.1048064,0.1815572,0.4391912,-9.251974,2
36413929,4896,1.78,-1.15,-1.05,8.29,5.45,8.49,11.51,0.09479648,0.02982915,-0.09551113,0.1560664,0.8026532,-9.441942,2
36515219,4861,1.96,-0.94,-0.61,8.43,5.56,8.49,10.71,0.0012989,0.12485,-0.143921,0.1445954,0.3721086,-9.943448,2
36630811,4969,1.98,-0.7,-0.16,8.41,5.25,8.49,9.78,0.1803455,-0.1180836,-0.1449979,0.1204915,0.47425,-9.481901,2
36957246,4966,2.35,-0.39,-0.55,8.01,5.44,8.49,8.02,0.0822121299999999,-0.01023558,-0.07380636,0.09309572,0.5627138,-9.774119,2
37064699,5255,2.41,-0.17,-0.9,7.88,5.61,8.49,7.69,-0.06291333,0.05534295,-0.04459258,0.08815242,0.5762904,-9.904419,2
37164832,5242,2.29,0.0,-0.86,7.82,5.42,8.49,7.6,-0.04824825,-0.04253075,0.001179328,0.378448,0.3177556,-9.972671,2
37273852,5241,2.19,0.28,-0.95,7.7,4.91,8.49,7.85,-0.03838982,-0.02280188,0.05631806,0.2596157,0.5214032,-9.742819,2
37384657,5228,2.38,0.53,-0.71,6.25,4.07,8.48,8.27,0.05766439,-0.2357635,0.06276242,0.7115222,0.3276929,-10.12894,2
37502462,5213,2.06,0.72,-0.53,4.21,1.48,8.46,8.67,0.03663835,-0.4017631,0.037376,0.3146945,0.3595059,-10.01762,2
37712802,5013,1.85,0.72,-0.25,2.26,-0.54,8.43,9.19,0.1635322,-0.07738277,0.0292254,0.1491266,0.2533712,-9.832697,2
37830670,4985,1.92,0.9,-0.08,2.86,0.45,8.44,9.22,0.1308834,0.07234669,-0.03211431,0.3763253,0.4915912,-9.784818,2
37940290,4988,2.04,1.09,-0.14,3.3,1.65,8.45,8.89,0.06285779,0.05981244,-0.07660376,0.1157463,0.4466735,-9.968971,2
38045413,5057,2.5,1.43,-0.04,3.38,2.72,8.45,8.42,0.06978527,0.2661062,-0.1019021,0.4658759,0.5864803,-9.439934,2
38158902,5102,2.63,1.49,0.99,3.25,3.19,8.45,7.94,0.1520514,0.1435768,-0.06369343,0.2159833,0.4187962,-9.628808,2
38269670,5161,2.43,1.37,1.92,2.8,2.99,8.44,7.51,0.1305034,-0.04299625,-0.06284665,0.1826133,0.4065927,-9.540586,2
38375575,5406,2.44,1.09,1.76,2.14,2.67,8.42,7.26,-0.1588583,-0.05334707,-0.049001,0.3791154,0.1656787,-9.822797,2
38481423,5227,2.32,0.79,0.95,1.61,1.94,8.41,7.22,-0.09245046,-0.06626303,0.003093552,0.2595551,0.536512,-9.542275,2
38591851,5207,2.48,0.52,0.3,1.23,0.91,8.41,7.4,-0.1224436,-0.200198,0.05368619,0.2917467,0.2089231,-9.715815,2
38691966,5367,2.28,0.54,-0.35,1.04,0.61,8.41,7.77,-0.1485502,-0.03540124,0.04827854,0.08248307,0.2728124,-10.0998,2
38806669,5211,2.06,0.8,-1.2,0.87,0.62,8.41,8.14,-0.1730048,0.03861368,0.05066029,0.2343606,0.1913994,-10.18136,2
39027631,5169,2.12,1.34,-0.39,1.02,0.44,8.41,8.48,0.1178437,-0.04297759,0.02273692,-0.02464308,0.315928,-9.952407,2
39135673,5128,2.07,1.58,0.07,0.98,0.68,8.41,8.28,0.06020557,-0.07309349,-0.05780783,0.4142305,0.1992751,-9.780406,2
39243450,5125,2.2,1.59,0.11,0.86,0.54,8.4,7.69,-0.03244385,-0.03423955,-0.1158196,0.2745648,0.2253989,-9.707952,2
39345668,5077,2.6,1.45,0.4,0.89,0.37,8.4,6.55,0.105233,0.040522,-0.2214938,0.1598606,0.4882251,-9.683837,2
39456793,5360,2.85,1.21,1.09,1.01,0.54,8.41,5.13,0.1078103,0.1023497,-0.2468518,0.05889218,0.5740844,-10.02408,2
39566138,5409,3.22,0.61,2.17,0.92,0.78,8.41,3.72,0.1863314,0.07289864,-0.1915371,0.1082554,0.475275,-9.962224,2
39683290,5716,3.2,-0.43,3.12,0.85,0.48,8.41,2.53,0.06841318,-0.08563137,-0.1629551,0.06711793,0.4868537,-10.24145,2
39789113,5896,3.6,-1.8,2.8,0.43,0.35,8.41,1.81,-0.1619316,-0.0662173,-0.0746845399999999,-0.04402687,0.5295528,-10.19873,2
39900917,5839,3.04,-3.41,1.08,-0.06,0.02,8.44,1.51,-0.3822469,-0.1173567,0.001536149,-0.008909225,0.6051434,-10.01026,2
40008475,5814,3.34,-4.81,-1.12,-0.81,-0.1,8.49,1.74,-0.2392914,-0.03935093,0.09609001,0.1868992,0.8351346,-9.860828,2
40124542,5813,2.71,-6.2,-3.11,-1.97,-0.99,8.61,2.65,-0.315819,-0.1642685,0.2132177,-0.06993558,0.7441375,-9.867083,2
40225462,5666,2.97,-6.97,-4.29,-3.91,-2.54,8.83,4.03,-0.1447285,-0.3656267,0.2344944,0.4228327,0.7758419,-9.767328,2
40333841,5795,2.5,-7.31,-4.91,-5.98,-5.38,9.09,5.71,-0.04419295,-0.4436202,0.2402592,0.06936075,0.7046072,-9.880514,2
40552663,5609,2.25,-7.45,-5.06,-8.39,-8.81,9.41,9.33,0.04843431,-0.1635256,0.2853373,0.02579093,0.6875842,-9.970367,2
40658784,5221,2.06,-7.37,-5.05,-8.61,-9.04,9.44,11.06,0.005166836,0.02613107,0.2827841,-0.2251389,0.607201,-10.20003,2
40769467,5080,1.94,-7.22,-5.16,-8.38,-8.53,9.41,12.65,0.03238304,0.03612465,0.2294347,0.07354955,0.5234626,-10.17897,2
40877695,5022,1.64,-7.09,-5.64,-7.85,-7.65,9.34,13.9,-0.03479188,0.07805613,0.1945805,0.04461232,0.8640582,-10.02533,2
40989607,4893,1.88,-6.92,-5.96,-7.24,-6.56,9.27,14.68,-0.1124357,0.1538664,0.09953961,-0.041228,0.4013369,-9.785501,2
41094579,4795,1.62,-6.43,-6.28,-6.84,-5.55,9.22,14.98,0.1249686,0.06242129,0.03038342,0.04735596,0.6834508,-9.824439,2
41211602,4700,1.68,-5.87,-6.12,-6.47,-5.26,9.18,14.79,0.05173944,-0.09042316,-0.02436584,0.08385562,0.7483077,-9.764705,2
41317576,4705,2.22,-5.45,-5.46,-6.22,-4.96,9.15,14.33,0.05804632,0.07254323,-0.08020701,0.2551127,0.6336451,-9.610071,2
41426293,4772,1.91,-5.06,-5.06,-5.95,-4.93,9.13,13.73,0.09825066,0.09050304,-0.1134905,-0.1523761,0.8771131,-9.309424,2
41537532,4808,2.19,-4.81,-4.88,-5.97,-4.41,9.13,12.99,-0.001579907,0.1615836,-0.1133619,0.09026813,0.6373207,-9.532763,2
41642832,4905,2.19,-4.67,-4.39,-5.78,-4.18,9.12,12.27,0.01867325,0.08302724,-0.1187007,-0.06094871,0.562031,-9.413359,2
41748191,4987,2.49,-4.58,-4.0,-5.21,-3.67,9.07,11.54,0.1743883,0.009445322,-0.1171829,-0.2925839,0.7003946,-10.03338,2
41864451,5130,2.62,-4.69,-3.78,-3.95,-1.71,8.97,10.71,0.01137137,0.2590968,-0.0788594299999999,-0.3484519,0.7451881,-9.779674,2
41969677,5307,2.68,-5.99,-4.12,-2.91,-0.3,8.87,10.22,-0.1986516,0.07222457,-0.04621422,-0.003116134,0.5147269,-9.7471,2
42078658,5396,2.42,-7.5,-5.69,-2.24,-0.11,8.79,9.93,-0.2024061,-0.1393996,-0.04818709,-0.4496587,0.5725057,-9.857597,2
42189091,5353,2.54,-9.28,-7.62,-2.03,-0.12,8.76,9.83,-0.2134873,-0.04829305,-0.02670287,0.148258,0.9055488,-9.520023,2
42302051,5322,2.41,-11.03,-9.48,-1.98,-0.4,8.75,9.83,-0.3390015,-0.1103845,-0.01306747,-0.0888459999999999,0.7727551,-9.41958,2
42397713,5383,2.54,-12.08,-11.29,-1.95,-0.33,8.75,9.92,-0.2840673,0.01755984,0.02559692,-0.255046,1.033205,-10.0689,2
42611475,5315,2.51,-13.23,-12.97,-1.71,-0.35,8.69,10.68,-0.1193728,-0.0244764,0.105899,-0.2787822,0.8161873,-10.03701,2
42725471,5414,2.55,-12.96,-12.57,-1.79,-0.15,8.71,11.39,0.02325642,0.04971273,0.1001958,-0.07451124,0.8145067,-10.0085,2
42836860,5397,2.55,-12.65,-12.16,-1.95,0.38,8.75,12.25,-0.05227367,0.1031273,0.1850193,-0.03859867,0.9749117,-9.877997,2
42940697,5240,2.22,-12.36,-11.43,-2.09,0.07,8.78,13.19,0.2031751,-0.1120787,0.1057678,-0.2261283,0.8780926,-10.28602,2
43052858,5214,2.25,-12.15,-11.12,-2.39,-0.15,8.84,13.86,0.05152504,-0.126457,0.0531052,-0.1779293,0.8158076,-10.404,2
43165644,5214,2.41,-12.19,-10.71,-2.67,-0.39,8.9,14.13,0.08631506,-0.1056639,-0.002602013,-0.1408994,1.326335,-9.873147,2
43271647,5259,2.29,-12.46,-10.62,-2.84,-0.66,8.94,13.83,0.2127727,-0.01794224,-0.1423759,-0.2134743,0.9633746,-9.819669,2
43386481,5322,2.46,-12.51,-11.43,-2.93,-1.01,8.96,13.3,-0.1827281,0.04934036,-0.1149131,-0.3406505,1.128615,-10.03096,2
43495675,5267,2.56,-12.22,-11.88,-2.97,-0.95,8.97,12.68,-0.04081503,0.1222305,-0.1014628,-0.2398931,1.275415,-9.714953,2
43600419,5374,2.35,-11.63,-11.43,-2.87,-1.05,8.95,12.19,0.2536318,0.009025237,-0.08766402,-0.09872404,1.039625,-9.533587,2
43709978,5278,2.72,-10.9,-10.35,-2.71,-1.24,8.92,11.88,0.06109421,0.002786717,-0.01998989,-0.231868,1.375816,-9.900644,2
43829937,5426,2.78,-10.19,-8.87,-2.53,-1.36,8.88,11.64,0.09013349,0.1350549,-0.04376531,-0.3291593,0.9411193,-10.15253,2
44053091,5412,2.35,-9.61,-8.25,-2.45,-1.5,8.87,10.98,0.01302509,-0.0705886,-0.09757863,-0.0674643999999999,0.9296093,-9.58149,2
44144871,5381,2.57,-9.45,-8.74,-2.43,-1.48,8.87,10.6,-0.170613,0.0607439,-0.06961346,-0.1161055,1.353475,-9.620703,2
44258359,5317,2.98,-9.31,-8.93,-2.42,-1.45,8.86,10.23,-0.05696321,0.03757267,-0.04857249,-0.2278643,1.245268,-9.683184,2
44475414,5400,3.03,-8.81,-8.2,-2.39,-1.65,8.86,9.96,0.06060785,0.04856332,0.004024565,-0.2964723,1.106639,-9.940375,2
44584868,5697,2.84,-8.44,-7.7,-2.33,-1.64,8.85,10.19,0.1158976,-0.05107405,0.04135827,-0.1884724,1.132453,-9.867633,2
44694890,5544,2.96,-8.27,-7.39,-2.28,-1.31,8.84,10.44,0.03471057,0.1059677,0.03506668,-0.2319233,1.074627,-10.19956,2
44806052,5569,2.56,-8.16,-7.37,-2.29,-1.28,8.84,10.71,-0.005690407,-0.05972312,0.02501814,-0.0963973999999999,1.067522,-9.883561,2
44905064,5546,2.56,-8.13,-7.67,-2.31,-1.47,8.85,10.94,-0.004468633,0.008726599,0.02116022,-0.1893906,1.076077,-9.729639,2
45018400,5365,2.63,-8.2,-7.95,-2.34,-1.63,8.85,11.0,-0.07725322,-0.04885135,-0.01076996,-0.3707517,1.218526,-10.12515,2
45232999,5319,2.8,-8.22,-8.3,-2.34,-1.58,8.85,10.32,-0.01963101,0.04335859,-0.04822593,-0.464703,1.209358,-9.479191,2
45448260,5414,2.63,-8.33,-7.94,-2.44,-2.1,8.87,9.16,0.05376539,-0.06241252,-0.09198551,-0.4556001,1.250699,-10.00454,2
45556471,5498,2.53,-8.36,-7.84,-2.3,-2.65,8.85,8.71,-0.02519198,-0.02910884,-0.0789463599999999,-0.4910123,0.9646627,-9.696102,2
45675914,5424,2.97,-8.4,-8.0,-2.05,-2.39,8.81,8.35,0.03876929,0.02429513,-0.00282315,-0.385584,1.163571,-9.624022,2
45781606,5533,2.86,-8.32,-8.14,-1.77,-1.87,8.77,8.29,0.01342595,0.07714282,0.02695988,-0.4162749,1.090945,-9.725589,2
45893248,5578,2.66,-8.31,-8.32,-1.63,-1.56,8.75,8.27,-0.05162878,0.02585734,-0.01301382,-0.5988855,1.173012,-9.875091,2
45995222,5532,2.93,-8.08,-8.61,-1.8,-1.5,8.77,8.34,-0.04914049,0.006726069,-0.01443644,-0.6181444,0.94258,-9.481241,2
46110569,5606,2.45,-7.85,-8.3,-1.96,-1.87,8.79,8.6,0.119416,-0.1978409,0.03006494,-0.4075696,1.180568,-9.767115,2
46206391,5556,3.1,-7.65,-8.15,-2.12,-1.77,8.82,8.77,0.04424505,0.08151069,0.01591616,-0.5816774,0.9589767,-9.381113,2
46321302,5544,3.05,-7.33,-8.21,-2.41,-1.23,8.86,9.05,0.06772284,0.07741116,0.06485657,-0.6232548,0.7670856,-9.850715,2
46431286,5583,2.74,-6.89,-8.05,-2.65,-1.2,8.88,9.47,0.06227832,-0.04367319,0.05134237,-0.5433399,1.070475,-9.769078,2
46540482,5563,2.61,-6.67,-7.6,-2.87,-1.44,8.91,9.92,0.02661857,-0.06211123,0.06115333,-0.4103564,1.027914,-9.649835,2
46850870,5471,2.58,-6.58,-6.56,-3.16,-2.3,8.94,10.37,0.0984662,-0.04593181,-0.001202827,-0.6580734,1.132179,-9.720216,2
46962216,5482,2.59,-6.61,-6.7,-3.27,-2.25,8.96,10.16,0.02727976,-0.06488558,-0.0375012,-0.5793028,1.076789,-9.737777,2
47180469,5458,2.83,-6.56,-6.89,-3.02,-2.42,8.93,9.93,-0.0329848,0.09324291,-0.003058805,-0.6185932,1.301231,-9.532612,2
47285708,5481,2.6,-6.55,-6.66,-2.87,-2.46,8.91,9.85,0.05783219,-0.0647371499999999,-0.01054673,-0.09974687,1.191754,-9.707992,2
47400099,5414,2.62,-6.37,-6.33,-2.59,-2.67,8.88,9.59,0.06692665,-0.06053679,-0.06266302,-0.3828121,1.118878,-9.45527,2
47510517,5562,2.91,-6.16,-6.16,-2.47,-2.13,8.87,9.33,0.09837296,0.01760382,-0.02877393,-0.2563466,1.124374,-9.560014,2
47611708,5604,2.79,-6.0,-6.22,-2.37,-1.9,8.85,9.17,-0.05701784,0.04219157,-0.03066029,-0.2787416,0.9510385,-9.829936,2
47726333,5415,2.76,-5.82,-6.17,-2.36,-1.81,8.85,9.06,-0.007318405,0.01388136,-0.01413749,-0.3418018,0.8683016,-9.803045,2
47833930,5608,2.64,-5.6,-6.0,-2.33,-2.01,8.85,9.11,0.06700534,-0.05126124,0.03946566,-0.215178,1.144935,-9.697692,2
47940875,5454,2.82,-5.52,-5.81,-2.32,-2.17,8.85,9.24,-0.03442814,0.03209987,0.02782811,-0.4034862,0.8034186,-9.793699,2
48052139,5411,2.86,-5.34,-5.58,-2.51,-2.08,8.87,9.54,-0.04457393,-0.00121357,0.09443841,-0.5338439,1.181005,-10.12275,2
48159711,5533,2.81,-5.49,-5.13,-2.67,-2.11,8.88,9.84,0.006870583,-0.008373513,0.05395357,-0.5399191,0.8272119,-9.869815,2
48271093,5645,2.5,-5.56,-5.13,-2.71,-2.34,8.89,10.05,-0.01078058,-0.0691338,0.002753717,-0.2456946,1.211822,-9.931997,2
48381250,5530,3.01,-5.87,-5.11,-2.6,-2.47,8.88,10.03,-0.02923482,0.0084121679999999,-0.05048513,-0.3312792,0.9869814,-10.31514,2
48483857,5559,2.81,-6.3,-5.36,-2.55,-2.17,8.87,9.87,-0.09751119,-0.0007712864,-0.03917674,-0.3785104,1.431927,-10.01378,2
48587622,5610,2.32,-6.68,-5.47,-2.21,-2.43,8.83,9.86,-0.1480859,-0.003908859,0.008612662,-0.3308789,1.434639,-10.08935,2
48706250,5409,2.36,-7.56,-6.06,-1.73,-2.68,8.77,9.75,-0.08982415,0.01990481,-0.05222353,-0.2101691,1.513705,-9.920542,2
48807570,5360,3.1,-8.24,-7.24,-1.3,-2.0,8.71,9.56,-0.3153376,0.233263,0.01048501,-0.5722535,1.544697,-9.947543,2
48921061,5561,2.73,-9.13,-8.18,-0.91,-1.13,8.65,9.24,-0.1200695,0.07337981,-0.004622418,-0.03495675,1.873538,-9.887413,2
49023479,5606,2.66,-9.48,-8.98,-0.67,-0.79,8.61,8.97,-0.1425691,0.03532405,0.001142044,-0.276935,1.708167,-9.930127,2
49130627,5459,2.9,-9.61,-9.48,-0.53,-0.94,8.59,8.79,-0.05061409,-0.08359779,-0.0445397,-0.3427412,1.370188,-9.677277,2
49242661,5508,2.85,-7.96,-8.92,-0.63,-0.85,8.61,8.6,0.2205315,0.02568693,-0.03984818,-0.3752702,1.739758,-10.29466,2
49347334,5626,2.64,-5.28,-5.8,-0.67,-0.89,8.61,8.48,0.5631871,-0.04527759,-0.0441381,-0.2365337,1.432605,-9.884027,2
49460432,5559,3.16,-2.28,-1.58,-0.8,-0.77,8.62,8.3,0.6738364,0.04044813,-0.05300518,-0.4029093,1.30553,-10.35118,2
49581303,5626,2.85,-0.28,1.38,-0.86,-0.66,8.62,8.1,0.2863567,0.1125948,-0.05108775,-0.356209,1.405183,-9.741435,2
49690923,5610,2.61,0.11,2.38,-0.9,-0.73,8.62,8.02,0.008089684,-0.0456107,0.0172037,-0.2673923,1.171878,-10.34164,2
49798798,5562,2.42,-0.07,1.65,-0.81,-1.02,8.62,8.05,-0.2424317,-0.03683665,-0.0080834329999999,-0.4164716,1.44152,-9.650764,2
49899589,5439,2.57,-0.34,0.54,-0.75,-1.07,8.62,8.1,-0.15104,0.03595881,0.048215,-0.5692282,1.385239,-9.224912,2
50010448,5272,2.44,-0.42,-0.36,-0.83,-0.88,8.62,8.07,0.1229572,-0.03573032,-0.001063864,-0.3766564,1.710277,-8.82244,2
50117659,5465,2.53,-0.24,-0.84,-0.94,-0.67,8.62,8.0,-0.05889427,-0.03407393,0.01468424,-0.1068257,1.699186,-9.181919,2
50229620,5348,2.56,0.67,-0.37,-0.82,-0.83,8.62,7.93,0.06536628,0.0544677,-0.001482599,-0.6970713,1.324893,-9.31032,2
50340854,5235,2.37,2.66,1.08,-0.76,-0.75,8.62,7.76,0.4051476,-0.02057589,-0.03506846,-0.09062219,1.302517,-8.997185,2
50451195,5315,2.6,5.0,3.76,-0.4,-0.51,8.65,7.57,0.4829586,0.02137723,0.007522662,-0.3379178,1.017245,-9.556366,2
50562509,5330,2.53,7.07,6.96,0.11,0.16,8.71,7.58,0.2399886,0.2650394,0.01686624,-0.3558981,0.9259897,-9.663939,2
50676131,5365,2.37,8.46,8.96,1.13,0.73,8.85,7.92,0.2838285,0.04493204,0.04227976,-0.2638128,0.9831878,-9.382196,2
50777446,5313,2.59,9.57,10.36,1.53,0.77,8.91,8.44,0.1849456,-0.01027243,0.060979,0.3165961,0.9906419,-9.705027,2
50895662,5243,1.92,11.23,12.24,1.3,-0.66,8.87,8.58,0.05033027,-0.1181061,0.06201305,-0.2153387,0.8674663,-10.30191,2
50998441,5168,2.58,12.39,13.45,1.13,-1.47,8.83,8.71,0.2080486,0.03493911,0.04725583,-0.2048474,0.7890679,-9.856286,2
51111849,5329,2.56,12.88,13.5,1.22,-1.57,8.85,9.08,-0.02463797,0.02170983,0.07161313,-0.09326304,0.8469909,-10.19158,2
51209803,5347,2.77,13.07,13.01,1.21,-1.18,8.85,9.55,-0.1042128,0.1863026,0.07977084,-0.1688932,0.677931,-10.40008,2
51320622,5468,2.85,13.16,12.25,0.85,-0.61,8.77,9.98,-0.1599615,0.02969527,0.03802377,0.1319185,0.6774557,-10.3467,2
51437791,5400,2.57,13.1,11.8,0.62,-0.56,8.71,10.06,-0.1005181,0.09264331,0.004235964,-0.177888,0.6886904,-10.40149,2
51541217,5421,2.76,13.2,11.23,0.15,-0.43,8.6,9.87,-0.1034201,0.005997318,-0.09158334,-0.01962532,0.6086935,-10.51319,2
51649372,5518,2.76,13.25,10.78,-1.1,-1.09,8.31,9.05,-0.1293974,-0.2590972,-0.1601281,-0.03632858,0.298854,-10.65147,2
51753577,5584,2.97,13.09,10.08,-3.37,-3.0,7.77,7.64,-0.1891939,-0.4719408,-0.2094309,0.2141247,0.4316612,-10.16212,2
51972809,5571,3.22,11.42,7.73,-8.94,-9.89,6.54,3.69,-0.2890723,-0.4877588,-0.1990963,-0.2453119,0.1446125,-10.34329,2
52083909,5614,3.17,10.44,6.39,-10.79,-12.12,6.17,2.32,-0.2091252,-0.2448341,-0.1294911,-0.3213404,0.2698359,-10.11945,2
52192110,5625,3.05,9.09,4.97,-11.7,-12.93,6.01,1.59,-0.2803211,-0.02459466,-0.06474338,-0.3593951,0.2349044,-10.19667,2
52411534,5586,3.1,7.17,1.89,-11.22,-11.58,6.07,1.38,-0.1579851,0.2766487,0.02787904,-0.2208196,0.196162,-9.918766,2
52532895,5662,3.31,5.82,0.85,-10.29,-9.66,6.18,1.8,-0.1621151,0.3023058,0.1027133,-0.3528219,0.01924139,-10.01004,2
52631470,5728,3.06,5.11,0.11,-9.98,-8.14,6.21,2.57,-0.01059536,0.1689151,0.1591155,-0.205348,0.2729919,-9.619121,2
52742003,5724,2.92,4.94,0.21,-9.87,-7.1,6.22,3.8,0.03137938,0.1615514,0.2019445,-0.4662172,0.2757474,-9.659951,2
52850200,5671,2.67,4.93,0.29,-9.97,-6.44,6.21,5.13,-0.008308839,0.1002832,0.2148366,-0.4638931,0.307979,-9.611662,2
52961141,5493,2.31,4.77,0.54,-10.12,-6.44,6.2,6.3,0.1214781,-0.07387826,0.1687254,-0.5613247,0.2120011,-9.636009,2
53071922,5329,2.37,4.55,0.74,-10.37,-6.6,6.18,7.08,0.1150867,-0.03785716,0.08784559,-0.4724886,0.07830549,-9.739084,2
53181051,5340,2.4,4.47,1.07,-10.19,-6.83,6.2,7.6,0.100685,0.03196722,0.06213935,-0.6293899,0.132545,-9.491142,2
53281289,5316,2.42,4.37,1.08,-9.87,-6.59,6.22,7.82,0.07772794,-0.03491496,0.02053534,-0.533435,0.2278909,-9.429698,2
53390052,5210,2.48,3.39,1.15,-8.42,-5.98,6.32,7.86,-0.1054194,0.2577584,0.01608224,-0.9473457,-0.02774596,-9.806247,2
53607047,5140,2.71,0.69,-1.66,-4.42,-1.24,6.46,7.58,-0.3349591,0.319535,-0.03385594,-0.6080499,0.08354744,-9.691942,2
53716923,5386,2.76,0.04,-2.96,-3.65,0.02,6.51,7.16,-0.07546248,0.2031857,-0.0561367,-0.4375393,0.3559356,-9.528039,2
53827477,5440,2.81,-0.09,-3.42,-3.52,0.24,6.62,6.98,-0.02886029,-0.01500931,-0.008127459,-0.4204251,0.3089239,-9.497232,2
53930701,5517,2.71,-0.01,-3.05,-3.63,-0.47,6.62,6.95,0.08065499,-0.08527219,-0.03426462,-0.6912527,0.2302342,-9.957227,2
54044460,5543,2.68,0.05,-2.64,-3.76,-1.26,6.62,6.98,-0.007136786,-0.01207232,0.00769488,-0.8315647,0.073799,-9.624178,2
54142265,5402,2.81,0.07,-2.4,-3.83,-1.68,6.62,6.99,0.05042735,-0.06546847,-0.003718385,-0.6889101,0.1668657,-10.12998,2
54260059,5549,2.96,-0.07,-2.35,-3.8,-1.59,6.62,7.32,0.003171655,0.1566362,0.08015382,-0.5293938,0.135737,-10.10682,2
54363834,5360,2.62,-0.28,-2.21,-3.77,-1.59,6.62,7.72,0.00668176,0.02386492,0.08813041,-0.7561636,0.04470663,-10.09347,2
54480683,5414,2.51,-2.28,-3.09,-3.69,-1.52,6.62,8.36,-0.3470372,0.04389913,0.1083479,-0.5451733,-0.07964366,-10.27196,2
54584413,5403,2.32,-4.35,-5.29,-3.52,-1.69,6.61,9.16,-0.3614378,-0.08195471,0.109089,-0.6158543,0.0210539,-10.23202,2
54698809,5257,2.27,-6.96,-7.62,-2.2,-1.11,6.47,9.75,-0.2880072,0.2006258,0.07075932,-0.6973052,-0.0007877249,-9.953861,2
54797842,5145,2.86,-8.78,-9.34,-0.21,0.99,6.2,9.57,-0.2980953,0.5598705,-0.01341558,-0.651926,0.2328526,-10.50617,2
54903930,5229,2.63,-9.76,-10.15,1.16,3.18,5.97,8.95,0.0004078995,0.1695992,-0.05463525,-0.2063822,0.4914722,-10.15139,2
55014958,5388,2.69,-9.92,-9.77,1.9,3.63,5.84,8.18,0.04784084,0.0765485999999999,-0.1043859,-0.3096992,0.3356123,-10.05433,2
55134312,5463,2.43,-10.0,-9.07,2.38,2.7,5.76,7.44,0.1383574,-0.1830827,-0.134521,-0.6081362,0.3377368,-10.1837,2
55340266,5383,2.75,-11.09,-9.32,3.49,2.09,5.55,6.3,-0.1964577,0.1048424,-0.1250238,-0.5676607,0.2281504,-10.30215,2
55446046,5359,2.92,-11.7,-10.25,4.87,3.11,5.27,5.45,-0.08585782,0.291847,-0.1229251,-0.4440685,0.5370852,-9.97324,2
55557435,5529,3.05,-11.93,-10.92,6.41,4.85,4.95,4.37,-0.0115837,0.2030097,-0.09161226,-0.2799418,0.5984716,-10.07305,2
55667618,5544,3.03,-11.29,-10.11,7.46,5.6,4.73,3.57,0.2970107,0.0642664399999999,-0.08693945,-0.3224717,0.6305967,-9.804996,2
55771309,5597,3.23,-10.68,-8.65,7.9,6.07,4.64,2.98,0.2839603,-0.006101548,-0.05952648,-0.06856203,0.5139757,-10.00914,2
55981214,5826,3.19,-9.71,-6.22,7.81,5.62,4.66,2.87,0.1458604,-0.0326485,0.05314912,-0.165706,0.5359313,-9.981323,2
56100479,5684,3.12,-9.65,-5.32,7.83,5.2,4.63,3.61,0.06508247,-0.05845439,0.1005853,-0.07918499,0.7073228,-10.12928,2
56203850,5670,2.58,-9.98,-4.96,7.95,4.98,4.27,4.38,0.03690307,-0.1199973,0.1455524,0.001998451,0.5449922,-10.32132,2
56313803,5621,2.14,-10.39,-5.62,8.1,4.62,3.76,5.18,-0.1843766,-0.06380106,0.1014292,-0.1267015,0.6535057,-10.1822,2
56421500,5214,2.38,-10.79,-6.47,8.08,4.72,3.15,5.77,-0.1154512,0.09786925,0.0750659199999999,-0.09409338,0.6624346,-9.967492,2
56535622,5223,2.44,-11.03,-7.02,7.82,5.1,2.35,6.1,-0.07970934,0.1535358,0.02262039,0.001088044,0.7227842,-9.952727,2
56644513,5155,2.37,-10.75,-7.3,7.39,5.39,1.73,5.98,-0.03805473,0.07189797,-0.01943866,0.119399,0.7476256,-10.06684,2
56745941,5142,2.3,-9.86,-6.83,6.44,4.99,1.31,5.74,0.0876932099999999,-0.112886,-0.05827808,0.2707334,0.7492155,-9.941274,2
56855062,5139,2.08,-8.1,-5.27,4.29,2.79,1.06,5.37,0.168074,-0.2703885,-0.08937572,-0.2039519,0.6865185,-10.14086,2
57077484,4929,2.2,-6.2,-3.49,1.98,-1.05,1.04,3.82,0.03061984,-0.05553443,-0.1145398,-0.1321331,0.9157152,-9.937594,2
57181525,4958,2.35,-5.86,-3.31,1.66,-1.37,1.07,3.05,0.09475467,-0.04102242,-0.120703,-0.02124498,0.7564446,-9.7296,2
57393239,5056,2.19,-5.38,-3.6,1.49,-0.18,1.09,1.68,-0.07341053,0.1238141,-0.09525015,0.01785849,0.6526318,-8.702937,2
57511469,5016,1.9,-5.11,-3.75,1.28,0.46,1.11,0.99,-0.08483134,0.1559557,-0.07047949,0.07773161,0.7313302,-8.240833,2
57620296,5048,1.74,-4.77,-4.09,0.99,0.43,1.13,0.45,0.04079403,-0.0851248,-0.09660123,-0.1701654,0.6985681,-7.939482,2
57729095,4859,2.05,-4.56,-3.96,0.66,0.27,1.16,359.92,0.1199098,0.02800137,-0.09260353,-0.01340316,0.6774341,-7.612872,2
57838916,4900,1.98,-4.26,-3.86,0.23,-0.29,1.19,359.6,-0.1021655,-0.1200241,0.001416112,-0.3047623,0.7150596,-7.450505,2
57941683,4914,2.05,-3.38,-2.93,-0.79,-1.3,1.26,359.54,0.08617581,-0.1776761,-0.0234562,0.01332929,0.5277532,-7.83848,2
58057528,4969,2.38,-1.73,-1.45,-1.81,-2.91,1.31,359.58,0.05829092,-0.01843218,0.01259813,-0.2981637,0.8596356,-8.472422,2
58169714,4947,2.18,-0.56,0.81,-1.5,-3.42,1.31,359.67,0.235842,0.123159,0.05369939,-0.3871232,0.7023476,-8.725138,2
58278460,5010,2.25,0.55,2.76,-1.01,-3.01,1.31,359.96,0.30369,0.06990282,0.07158995,-0.1034841,0.7132057,-8.724222,2
58387260,5112,2.41,1.08,3.69,-0.34,-2.24,1.32,0.33,0.03333878,0.104197,0.03650314,0.1908584,0.9717888,-9.407835,2
58493497,5100,2.33,0.98,3.8,0.32,-1.73,1.33,0.68,-0.1410531,0.1100569,0.01587197,-0.465189,0.6408991,-9.458421,2
58602255,5150,2.6,0.0,2.91,0.61,-0.6,1.34,1.0,-0.2513919,0.2241836,0.01762744,-0.05009108,0.6003695,-9.56319,2
58704089,5268,2.26,-2.02,0.61,0.78,-0.13,1.33,1.01,-0.506458,0.07051046,0.02015383,-0.2763779,0.6743755,-9.613433,2
58825407,5169,2.32,-4.04,-2.73,0.64,-0.08,1.34,1.02,-0.4000079,0.03453381,-0.0087166569999999,-0.1815306,0.8812868,-9.620804,2
58934456,5160,2.48,-5.12,-4.91,0.28,0.0,1.37,1.08,-0.2874868,-0.05542158,0.03639017,-0.2309037,0.9562701,-9.751953,2
59043202,5211,2.59,-5.57,-4.99,-0.25,-0.49,1.42,1.13,0.03449757,-0.1400938,0.003130534,0.02668997,0.6188783,-9.655784,2
59254647,5370,2.44,-5.42,-4.12,-0.56,-1.31,1.45,1.31,0.08948483,0.03464637,0.01735145,-0.3650948,0.7982749,-9.642538,2
59365694,5330,2.41,-5.26,-3.98,-0.54,-0.95,1.45,1.6,-0.01588329,0.008631635,0.06521551,-0.1635505,0.7700559,-9.875581,2
59471293,5183,2.23,-5.04,-4.1,-0.59,-0.71,1.45,2.0,-0.02905211,-0.03987998,0.08892097,-0.1098191,0.8153111,-9.815264,2
59586866,5118,2.05,-4.79,-4.28,-0.65,-0.72,1.46,2.4,-0.03484914,-0.03109837,0.03484767,-0.08479939,0.8920198,-9.863828,2
59699488,4977,2.21,-4.46,-4.35,-0.74,-0.72,1.47,2.7,-0.01638189,-0.02219133,0.03831588,0.02460765,0.6271111,-9.828482,2
59808038,5060,2.38,-4.26,-4.73,-1.03,-0.48,1.49,2.78,-0.06198315,0.02148352,-0.01448239,0.04243805,0.885033,-9.76387,2
59922233,5112,2.06,-4.18,-5.01,-1.77,-1.01,1.54,2.75,-0.05655558,-0.2595905,-0.03756522,-0.0278341,0.8006317,-9.74931,2
60020664,5095,1.98,-3.82,-5.23,-2.09,-1.94,1.57,2.74,0.01866018,-0.01599192,-0.009704216,-0.2123557,0.9040334,-9.676931,2
60132473,5003,2.03,-3.33,-4.85,-2.18,-2.58,1.57,2.84,0.1003295,0.03374824,-0.002971663,-0.04968135,0.7548389,-9.505019,2
