TimeUS,RPM,Curr,DesRoll,Roll,DesPitch,Pitch,DesYaw,Yaw,GyrX,GyrY,GyrZ,AccX,AccY,AccZ,Guasto
0,3998,3.42,0.32,1.0,-0.27,0.97,11.69,11.79,0.1238688,0.07582915,0.01879725,0.1944868,0.3490718,-9.800528,1
113935,4976,4.59,0.05,1.29,-0.32,0.84,11.69,12.0,0.08822639,-0.03557562,0.06567734,-0.02595261,0.1556056,-11.77978,1
222497,5916,4.88,-0.5,1.88,-0.31,0.59,11.69,12.78,0.2129736,-0.06150622,0.163912,0.1509886,0.5520939,-13.65682,1
334229,6328,4.06,-1.49,2.5,-0.24,0.15,11.69,13.96,0.06612191,-0.1181885,0.2040822,0.4314139,0.4961993,-13.33115,1
439976,6299,3.23,-2.87,2.2,0.28,-0.55,11.66,15.14,-0.1406386,-0.03348254,0.2076846,-0.01576779,0.4384795,-12.71967,1
548178,5916,3.24,-4.2,0.67,0.8,-0.05,11.63,16.31,-0.3271506,0.1819046,0.1832393,0.2864574,0.3581476,-12.30594,1
654107,5934,3.38,-6.49,-1.09,1.22,0.79,11.59,17.41,-0.2990208,0.04985884,0.2007012,0.5182403,0.6030101,-11.50139,1
765217,5765,2.85,-8.49,-3.51,1.58,1.19,11.55,18.71,-0.3740161,0.04447844,0.2126989,0.1621647,0.779256,-11.51467,1
874707,5646,3.04,-10.17,-5.76,1.58,2.06,11.55,19.63,-0.4264535,0.1329034,0.08957411,0.240177,0.6092955,-11.05292,1
992774,5719,3.09,-11.26,-7.89,1.26,2.8,11.61,20.06,-0.1908165,-0.05759375,0.04950758,0.2116223,0.8984682,-10.54878,1
1104292,5634,3.21,-12.26,-8.65,0.93,2.57,11.19,20.39,-0.1085443,-0.01962327,0.04088217,0.4277196,0.7216265,-10.45684,1
1204102,5676,1.95,-12.72,-9.6,0.65,1.91,9.17,20.47,-0.1994186,-0.05261819,-0.05546588,0.198987,0.7031785,-10.24915,1
1308935,5350,1.92,-12.83,-10.54,0.72,1.81,6.44,19.8,-0.1340422,0.0954218399999999,-0.1718901,0.3196995,0.509691,-10.10633,1
1526193,4997,1.7,-12.01,-9.89,1.43,3.42,358.66,15.1,0.2128633,0.3613105,-0.4785607,0.1267826,0.7915547,-9.050459,1
1750492,4694,2.01,-10.51,-7.46,3.04,5.97,354.38,10.16,0.3171355,0.3083637,-0.6802279,-0.01356411,0.8510145,-9.286474,1
1854853,4811,1.74,-9.76,-6.61,3.34,6.35,351.94,5.73,0.2643501,0.007404539,-0.7376655,0.1990616,0.6895457,-8.403902,1
1967951,4780,3.01,-8.87,-6.17,3.84,6.13,351.38,0.78,0.2184468,0.1968333,-0.6322342,-0.1232466,1.037939,-8.734621,1
2077638,5154,3.42,-8.29,-5.54,3.64,5.74,351.41,356.9,0.06260233,-0.03079926,-0.4931934,-0.05629333,0.7796978,-9.070104,1
2178099,5559,3.54,-7.74,-5.74,2.27,5.43,352.12,354.8,0.04200069,-0.2506759,-0.331394,0.155034,1.007935,-9.228576,1
2286104,5733,3.7,-6.94,-5.56,0.55,3.39,353.78,353.89,0.1012236,-0.4128369,-0.1335866,-0.2685055,1.183187,-9.175746,1
2391323,5844,3.78,-6.57,-4.35,-0.77,0.86,354.49,353.65,0.3089215,-0.2927609,0.025833,-0.1814684,1.178003,-9.637415,1
2503090,6006,2.94,-6.95,-4.06,-1.37,-0.8,354.88,353.61,-0.1210955,-0.113448,0.06161088,-0.1330411,1.392212,-9.619881,1
2603185,5908,3.08,-7.64,-4.55,-1.17,-1.25,354.86,353.39,-0.1996223,0.06795534,0.09571758,-0.1646214,1.183249,-9.412518,1
2832225,5674,3.16,-9.22,-7.06,0.39,0.9,354.62,354.13,-0.1455321,0.2303179,0.1846964,0.05027513,1.353665,-9.233672,1
2936316,5778,3.05,-9.22,-7.65,0.43,1.56,354.61,355.46,-0.02167418,0.000345639,0.1650757,-0.06317794,1.33919,-8.848552,1
3268946,5653,2.47,-6.96,-5.45,-3.84,-2.0,355.23,1.48,0.1389951,-0.279773,0.1003585,-0.3030307,0.7028752,-9.681458,1
3371128,5516,2.07,-6.49,-5.58,-4.14,-3.31,355.26,1.51,-0.1269774,-0.1550499,-0.03751443,-0.3922245,1.0023,-8.780613,1
3478130,5105,2.96,-6.21,-5.69,-3.72,-3.02,355.22,0.65,0.0683866999999999,0.1513803,-0.0785751799999999,-0.2174014,0.9335219,-8.744294,1
3595092,5337,3.01,-5.94,-5.42,-3.22,-1.94,355.16,359.97,-0.004330814,0.1386284,-0.04965021,-0.04333104,0.8969787,-9.451568,1
3706986,5440,2.56,-5.45,-4.85,-3.14,-1.21,355.15,359.61,0.06375027,0.03745739,-0.03553374,-0.01797727,0.9069542,-9.167459,1
3811085,5421,2.53,-6.36,-5.0,-3.28,-1.52,355.17,359.63,-0.2060233,-0.1182488,0.007187144,-0.2914017,0.6601823,-9.061246,1
3916603,5270,2.52,-7.65,-6.81,-3.09,-1.27,355.14,359.76,-0.3512053,0.1296006,0.02886865,-0.2850352,0.9268017,-9.020046,1
4027684,5243,2.45,-8.85,-9.06,-2.7,-0.79,355.09,359.98,-0.2984264,0.0901527699999999,0.04487268,-0.05463933,0.8261572,-8.640333,1
4135005,5274,2.22,-9.07,-10.56,-2.16,-0.27,355.0,359.87,-0.08524154,-0.001532843,0.03339339,0.03877354,0.9989412,-8.983703,1
4244850,5135,2.42,-8.14,-9.88,-2.09,-0.44,355.0,359.31,0.2645153,-0.1022059,0.002269668,-0.2039368,0.975976,-8.791686,1
4350253,5240,2.36,-6.49,-7.89,-1.94,-1.02,354.98,359.39,0.3976085,-0.05227365,0.04090536,-0.3897395,0.9591819,-9.403169,1
4453634,5226,2.17,-4.19,-5.05,-1.64,-1.28,354.95,0.19,0.5684009,-0.02687731,0.0517752,-0.06743331,0.8545082,-9.322997,1
4562971,5122,2.29,-2.46,-1.82,-0.52,-0.93,354.89,0.72,0.4460563,0.1560759,0.006786285,-0.09505244,0.809105,-9.316481,1
4674219,5006,2.46,-1.53,-0.31,0.34,-0.01,354.86,0.56,0.1091156,0.2675505,-0.08219957,-0.2242975,0.3646232,-9.285278,1
4778807,5093,2.9,-0.93,-0.67,0.51,1.28,355.38,359.92,-0.1102229,0.1142387,-0.114753,-0.1088044,0.500739,-9.39648,1
4882185,5400,3.16,-0.45,-1.12,0.17,1.73,356.45,359.58,-0.02782821,-0.04760924,0.00347546,0.1028578,0.854894,-9.330534,1
4997991,5468,2.93,-0.11,-0.49,-0.77,0.63,356.92,359.83,0.1002933,-0.3104118,0.07406326,-0.2517577,0.4252729,-10.0782,1
5111171,5685,2.66,0.1,-0.11,-1.3,-0.59,356.92,0.3,0.06985085,-0.1224944,0.104605,-0.230965,0.8606773,-10.01951,1
5210106,5384,2.52,0.03,0.21,-1.32,-1.31,357.27,0.69,0.05283758,-0.05032784,0.07186186,-0.2963042,0.7296548,-9.758843,1
5322231,5360,3.39,-0.04,0.14,-1.23,-1.05,358.94,1.27,-0.03583606,0.04769029,0.1707918,-0.2510358,0.5322818,-9.941848,1
5430417,5574,3.16,-0.23,-0.39,-1.12,-0.65,0.3,2.38,-0.1050449,0.1271703,0.2205642,-0.2937929,0.7698745,-9.946135,1
5543191,5751,2.99,-0.32,-0.75,-1.2,-0.59,1.25,3.78,-0.02493878,-0.005302209,0.2133937,-0.2180744,0.7198967,-10.19471,1
5644534,5633,2.78,-0.2,-0.85,-1.29,-0.79,1.76,4.78,0.001765204,-0.03208913,0.1885416,-0.05136322,0.6064753,-10.00875,1
5758107,5484,2.88,0.0,-0.8,-1.52,-0.99,1.89,5.9,0.01827784,-0.0689163099999999,0.149304,-0.04821848,0.5304692,-10.11966,1
5860977,5607,2.25,0.0,-0.66,-1.79,-1.48,1.89,6.64,0.002042496,-0.1285914,0.0762535,-0.2143693,0.4862396,-10.13895,1
5980140,5434,2.47,0.09,-1.25,-1.93,-2.25,1.89,6.83,-0.06663225,-0.08313429,-0.01616152,-0.283531,0.4280255,-9.872414,1
6081007,5358,2.9,0.22,-1.53,-2.03,-2.06,1.89,6.52,-0.0079367959999999,0.0980619499999999,-0.09490674,-0.1540959,0.4992827,-9.823378,1
6189195,5390,2.8,0.46,-1.14,-1.88,-2.07,1.89,5.82,0.09158839,0.0258167,-0.1152552,-0.2791825,0.7296209,-10.10088,1
6301546,5507,3.16,0.63,-0.35,-1.79,-1.87,2.33,4.84,0.06372775,0.05765126,-0.1643628,-0.2637773,0.3834277,-10.0885,1
6411145,5620,3.96,0.65,-0.11,-1.87,-1.44,4.93,4.01,0.006744192,0.06921618,-0.04595171,-0.3768344,0.7004368,-9.817421,1
6522557,5910,4.11,0.55,-0.37,-2.0,-1.03,6.25,4.29,-0.009065891,0.0764909,0.1295184,-0.2649068,0.6275898,-10.19297,1
6624387,6169,3.25,0.4,-0.26,-1.89,-0.98,6.25,4.65,0.005419926,0.03197147,0.154056,-0.2739745,0.5638153,-9.993542,1
6738185,6055,3.06,0.13,-0.22,-1.7,-0.98,6.27,5.38,0.01913065,-0.04126511,0.1833976,-0.116504,0.5618615,-9.791234,1
6846151,5848,3.5,0.05,-0.25,-1.82,-1.23,7.1,6.34,0.00710031,-0.03954304,0.2041556,-0.2716735,0.609746,-10.05667,1
6957902,5750,3.73,0.77,0.08,-3.1,-2.04,8.97,8.03,0.1145302,-0.2681928,0.3040851,-0.09492036,0.8346698,-9.808127,1
7065709,5845,3.15,1.24,0.79,-4.05,-3.48,9.25,10.3,0.1176587,-0.1863457,0.3611643,-0.5646042,0.4639491,-10.08598,1
7168133,5723,2.75,1.21,1.08,-4.5,-4.11,9.24,12.5,0.09649929,-0.08172288,0.317478,-0.3137712,0.7117752,-10.21358,1
7277944,5623,2.52,0.42,1.2,-4.4,-4.7,9.24,14.19,-0.04985703,-0.08523911,0.1584478,-0.3916784,0.2526163,-10.26207,1
7388406,5385,2.6,-2.17,-0.54,-3.44,-4.16,9.22,15.19,-0.5009894,0.130208,0.0993552,-0.2090374,0.1132367,-9.865346,1
7498683,5390,2.63,-5.29,-4.52,-2.51,-2.36,9.16,15.44,-0.6656789,0.3173211,0.03228193,-0.02903036,0.6821263,-9.753861,1
7600166,5300,2.62,-7.26,-7.54,-2.0,-1.23,9.11,15.06,-0.3984835,0.1107422,-0.05329223,-0.2382174,0.9523908,-10.11268,1
7711159,5304,2.72,-8.43,-9.15,-1.83,-0.66,9.08,14.39,-0.1747705,0.06035833,-0.0868868,-0.2552061,0.9656064,-10.23815,1
7819220,5431,2.84,-8.9,-9.16,-1.74,-0.92,9.07,13.36,0.05492196,-0.02203623,-0.1326571,-0.5129191,0.8856356,-10.5164,1
7936323,5481,2.77,-8.82,-8.92,-1.63,-1.11,9.05,12.41,0.04112688,-0.05011638,-0.0768840799999999,-0.135552,1.051837,-9.596729,1
8036004,5449,3.16,-8.9,-8.16,-1.48,-1.01,9.03,11.99,0.1070026,0.06445444,-0.02147802,-0.1365142,0.8271835,-9.927841,1
8147402,5608,2.67,-9.12,-7.9,-1.3,-0.88,9.0,11.85,0.0002388391,-0.04561484,0.004736055,-0.08816925,0.9459044,-9.869184,1
8253725,5481,2.81,-9.01,-8.39,-0.97,-0.82,8.95,11.73,-0.1397313,0.09922431,-0.02785555,-0.3542478,0.9393559,-9.701263,1
8368224,5416,3.11,-8.11,-7.81,-0.48,-0.16,8.88,11.45,0.1150909,0.1116808,-0.03291307,-0.2925088,0.8416998,-9.587357,1
8475824,5596,3.51,-7.21,-6.82,0.46,1.53,8.75,11.24,0.1530852,0.2582906,-0.01394343,-0.09753721,0.7279159,-9.65186,1
8578922,5762,2.89,-6.24,-5.82,0.67,2.15,8.72,11.09,0.1468048,0.005674712,0.0003293446,-0.2068375,0.9788007,-9.911492,1
8695518,5571,3.24,-5.35,-4.69,0.03,1.61,8.78,10.9,0.0937963099999999,-0.1260323,-0.03032856,-0.5765063,0.5299438,-9.889825,1
8798626,5561,2.06,-4.27,-4.72,-0.95,0.19,8.87,10.9,0.07019669,-0.4436027,0.01109507,-0.3002759,1.177697,-9.18003,1
8909562,5439,3.35,-3.52,-3.75,-1.58,-1.76,8.91,11.1,0.0774218099999999,-0.164058,0.01403627,-0.6613662,0.561874,-9.399308,1
9021293,5438,3.27,-2.89,-3.34,-1.92,-1.92,8.93,11.51,0.03624697,-0.03208832,0.005615308,-0.5447403,0.6570126,-9.713724,1
9124245,5696,3.02,-2.47,-2.93,-1.78,-1.63,8.92,11.69,0.1282194,0.09130783,-0.009907845,-0.4585001,1.003801,-9.963354,1
9239033,5651,3.77,-2.08,-2.21,-1.98,-0.58,8.93,11.4,0.09943411,0.07361833,-0.03137839,-0.1989516,0.8076502,-10.45713,1
9339616,5878,2.92,-1.79,-2.15,-2.41,-0.81,8.95,11.16,-0.0307979,-0.1049755,-0.03923796,-0.5010803,0.7913042,-9.862235,1
9452266,5745,3.21,-1.74,-2.23,-3.33,-1.99,8.97,10.86,0.06486094,-0.2892981,-0.05507778,-0.3577065,0.7766202,-9.66795,1
9557883,5784,3.12,-1.83,-2.14,-3.76,-3.36,8.99,10.64,0.01057802,-0.1469879,-0.05780814,-0.6978684,0.6161274,-10.0247,1
9675957,5749,3.18,-1.87,-1.87,-3.12,-3.4,8.97,10.49,-0.002449655,0.07198023,-0.02289623,-0.3452978,0.7401191,-9.608156,1
9780234,5535,3.07,-1.84,-1.95,-2.33,-2.61,8.94,10.39,0.01532543,0.09339987,-0.01098646,-0.1585094,0.8609496,-9.912484,1
9996163,5699,3.12,-1.81,-1.81,-1.05,-1.59,8.9,9.81,0.02898452,0.05428942,-0.08137874,-0.521127,0.7484133,-9.956385,1
10106087,5698,3.79,-1.74,-1.5,-1.29,-1.03,8.91,9.23,0.02595866,0.04580806,-0.06947535,-0.2312919,0.4966276,-9.687531,1
10220486,5880,2.89,-0.48,-0.56,-1.92,-1.59,8.92,8.88,0.2517183,-0.1149764,-0.05874358,-0.4117352,0.9051154,-10.03132,1
10327546,5831,2.99,0.59,1.26,-2.32,-2.25,8.92,8.76,0.2197667,-0.08550265,0.003616482,-0.3169847,0.8471158,-9.77948,1
10428549,5679,2.82,1.27,1.9,-2.49,-2.44,8.92,8.82,0.002399078,-0.01013359,0.02507395,-0.3623925,0.7322758,-9.932832,1
10537544,5555,3.05,1.7,1.66,-2.63,-2.14,8.91,9.26,-0.02128873,-0.01883879,0.06371574,-0.1617829,0.6154227,-9.442661,1
10646278,5804,2.85,1.69,1.66,-2.63,-2.59,8.91,9.98,0.06005014,-0.06824072,0.09642193,-0.246527,0.8182571,-9.39209,1
10761323,5586,3.13,1.37,1.61,-2.62,-2.92,8.91,10.62,0.02380684,-0.08031313,0.07786248,-0.2244291,0.6860104,-10.00027,1
10862510,5597,2.82,0.91,1.36,-2.19,-2.99,8.92,11.16,-0.03152064,-0.02480535,0.1202714,-0.110267,0.5404541,-9.384731,1
10973389,5459,2.38,0.4,0.92,-1.35,-3.04,8.93,11.89,-0.05344254,-0.0643291099999999,0.1262139,-0.05057817,0.6856163,-9.837997,1
11083887,5310,2.67,-0.14,0.66,-0.5,-2.44,8.93,12.73,-0.05767917,0.136278,0.1537819,-0.06863985,0.5411989,-9.731747,1
11193660,5405,2.33,-0.68,0.05,0.14,-1.11,8.93,13.58,-0.1265057,0.2081849,0.07469778,-0.0530134,0.7426378,-9.727623,1
11301013,5318,2.39,-1.82,-0.81,0.54,-0.44,8.92,14.08,-0.1928623,-0.001428236,0.02444684,0.1032814,0.5460157,-9.489186,1
11417694,5203,2.86,-3.06,-2.5,0.49,0.19,8.93,14.17,-0.2338325,0.1365581,-0.01697943,-0.2029765,0.6979672,-9.920429,1
11519078,5230,2.66,-3.53,-3.82,-0.69,0.03,9.0,14.03,-0.1590378,-0.2034519,-0.03416854,0.1205513,0.8048201,-9.66158,1
11629991,5449,2.76,-3.71,-4.2,-1.31,-1.25,9.04,13.53,-0.01009717,-0.0510498,-0.1178329,-0.4769224,0.8500116,-10.10829,1
11744290,5396,3.0,-3.72,-3.98,-1.18,-1.34,9.03,12.67,0.04641728,0.06018179,-0.1234647,-0.4624425,0.874544,-10.24084,1
11843828,5625,2.79,-3.71,-3.79,-0.97,-1.0,9.01,12.03,-0.04849677,0.009344088,-0.0937175299999999,-0.2472191,0.6370439,-10.09425,1
11962913,5491,2.38,-3.71,-3.92,-0.51,-0.99,8.98,11.95,-0.00487196,-0.07097694,0.02479424,-0.0580903,0.7862524,-9.234031,1
12076140,5249,2.72,-3.77,-3.78,-0.28,-0.8,8.97,12.02,0.04030609,0.04515485,-0.02875526,0.05982357,0.6234903,-9.599745,1
12177550,5309,2.38,-3.75,-3.86,-0.03,-0.72,8.95,11.88,-0.02006025,0.08389521,-0.02649315,-0.1918649,0.8333227,-9.636471,1
12288264,5272,2.47,-3.95,-3.6,0.29,-0.56,8.93,11.9,0.07425191,0.0920533,0.05983475,-0.07226304,0.825984,-9.25524,1
12404487,5272,2.1,-4.12,-3.11,0.64,-0.76,8.9,12.18,0.06082553,0.02752677,0.07635473,0.01612515,0.8442371,-9.519332,1
12516139,5157,2.54,-4.28,-3.18,0.83,-0.52,8.89,12.25,-0.1247103,0.0838573,0.009810934,-0.07947174,0.7208347,-9.528698,1
12608877,5159,2.38,-4.46,-3.45,1.01,-0.36,8.88,12.25,-0.0897946,0.07883417,0.003938685,-0.5297216,0.7704654,-9.484261,1
12719781,5210,2.67,-4.75,-3.63,0.88,0.4,8.89,12.07,0.08219831,0.06223269,-0.01629242,-0.2633768,0.9371265,-9.523443,1
12830140,5347,2.82,-5.02,-3.82,0.21,0.47,8.95,11.85,-0.06292358,-0.03343538,-0.03052707,0.10734,0.7280546,-9.206432,1
12938910,5231,2.49,-5.42,-4.3,-0.89,-0.65,9.05,11.63,-0.07165662,-0.28202,-0.08748338,-0.2022363,0.777072,-9.501609,1
13054483,5269,2.4,-5.84,-4.71,-1.88,-1.86,9.14,11.31,-0.1438751,-0.1382335,-0.06782197,-0.1858615,0.804796,-9.604475,1
13154432,5255,2.27,-5.97,-5.18,-2.49,-3.32,9.21,10.82,-0.07026493,-0.3001816,-0.1355968,-0.1514174,0.9303367,-9.484223,1
13263158,5162,3.13,-6.14,-5.67,-3.08,-3.97,9.27,10.09,0.0001990762,-0.0727357899999999,-0.1203016,-0.1000993,1.038619,-9.657516,1
13365611,5457,2.82,-6.11,-6.0,-3.34,-4.23,9.3,9.5,-0.1293479,0.0189424,-0.0807345399999999,0.1309422,0.9173291,-9.707361,1
13481563,5517,3.1,-6.06,-5.32,-3.63,-4.1,9.33,9.14,0.1104175,0.03601475,-0.01768132,-0.3603943,0.6123281,-9.883202,1
13711148,5543,2.85,-5.57,-4.98,-4.3,-3.6,9.4,9.26,-0.03151669,-0.03349828,0.0292479,-0.1888777,0.5988303,-9.618593,1
13814450,5574,3.09,-5.48,-4.87,-4.66,-3.93,9.43,9.71,0.03628537,-0.03975334,0.07092448,-0.3484833,0.6602055,-9.7995,1
13912246,5486,3.19,-5.34,-4.81,-5.04,-4.03,9.47,10.14,0.02494317,0.003586965,0.05227451,-0.3518489,0.6337445,-9.974856,1
14021458,5611,3.01,-4.99,-4.98,-5.82,-4.33,9.54,10.32,-0.01544919,-0.0678753099999999,0.01705048,-0.3381529,0.7625407,-10.03167,1
14233900,5514,2.84,-4.54,-4.51,-7.34,-6.27,9.67,10.82,0.09214628,-0.1702591,0.0294523,-0.2001406,0.9992807,-9.894026,1
14346015,5572,2.75,-4.55,-3.92,-7.67,-7.33,9.69,11.21,-0.002738553,-0.09215789,0.04040128,-0.340601,0.7228857,-9.771379,1
14461944,5621,3.02,-4.64,-3.85,-7.57,-7.69,9.68,11.48,0.07448211,-0.01025584,0.02319788,-0.3143911,1.139877,-9.915204,1
14564197,5400,2.86,-4.9,-3.62,-7.38,-7.55,9.67,11.37,0.004718126,0.1054594,-0.0443184,-0.3131458,0.7769812,-9.913836,1
14672769,5400,2.8,-5.1,-3.74,-7.29,-7.28,9.66,11.05,0.03933957,0.02266936,-0.07799356,-0.1817787,1.205664,-9.932418,1
14783243,5457,3.11,-5.28,-4.4,-7.22,-6.74,9.65,10.46,-0.07038949,0.1072258,-0.07406928,-0.3269758,1.032494,-9.625751,1
14893215,5458,3.06,-5.41,-5.05,-7.31,-6.57,9.66,9.82,-0.1139381,0.03505645,-0.1004231,-0.440969,1.050182,-10.22041,1
15010004,5593,3.38,-5.44,-5.15,-7.31,-6.2,9.66,9.26,-0.07097596,0.08457713,-0.05697869,-0.1509107,0.5310028,-10.03386,1
15122152,5806,3.13,-5.26,-4.97,-7.24,-6.24,9.66,9.03,0.06779596,0.01963801,-0.03625724,-0.6117664,0.7809657,-9.980175,1
15220284,5728,2.78,-5.0,-4.96,-6.63,-5.82,9.6,8.8,-0.03582986,0.1459407,-0.01078414,-0.7582797,0.7713404,-9.624879,1
15332421,5724,2.98,-4.6,-5.29,-5.1,-3.96,9.47,8.62,-0.06095497,0.3356275,0.02429208,-0.4694169,0.7312599,-9.525337,1
15433762,5588,3.16,-4.07,-5.26,-3.74,-2.15,9.37,8.76,0.04454004,0.3439436,0.0422411,-0.6775903,0.9376972,-9.747142,1
15550905,5790,2.91,-2.94,-4.66,-2.58,-0.17,9.29,8.88,0.1523263,0.1984719,0.04675172,-0.3172756,1.075536,-9.486049,1
15661015,5655,3.09,-1.94,-3.04,-2.13,0.45,9.28,8.96,0.3693039,-0.06676403,0.01819335,-0.25557,0.9539732,-9.015565,1
15765190,5633,2.89,-1.33,-1.69,-2.07,0.23,9.27,9.01,0.1538135,-0.02888266,0.04375165,-0.2728449,0.5129666,-9.5542,1
15877617,5531,2.77,-0.58,-0.9,-2.11,-0.25,9.27,9.08,0.1104974,-0.101283,-0.01289751,-0.423596,0.8160817,-9.515309,1
15982509,5584,2.85,0.14,-0.38,-2.04,-0.53,9.27,9.23,0.06738696,0.01117435,0.0139142,-0.4396412,0.6953067,-9.645261,1
16098655,5572,3.1,0.87,-0.05,-1.81,-0.48,9.28,9.4,0.04606963,0.03585142,0.002678815,-0.4130827,0.8945313,-9.6552,1
16197162,5588,3.29,1.09,0.32,-1.64,-0.4,9.28,9.47,0.1267641,-0.009274289,-6.457351e-06,-0.2851617,0.846481,-9.544348,1
16316001,5720,3.43,1.05,1.05,-1.62,-0.24,9.28,9.5,0.1362195,-0.02141684,0.01262881,-0.4872635,0.809023,-9.953066,1
16418167,5875,3.15,1.24,1.36,-1.69,-0.5,9.28,9.62,0.05966827,-0.134885,0.01891436,-0.3114093,0.9241261,-10.24406,1
16529051,5755,2.83,1.2,1.93,-1.67,-1.73,9.28,9.77,0.1123027,-0.2686943,0.03202733,-0.2489188,0.8805915,-10.10968,1
16638545,5730,2.98,0.66,2.34,-1.17,-2.74,9.29,9.82,0.0092354629999999,0.01594057,0.03497253,-0.5491468,0.395569,-10.12158,1
16749657,5586,3.03,0.22,1.54,-0.66,-2.21,9.29,9.92,-0.1669655,0.1231027,0.02477855,-0.09393229,0.7275124,-10.00376,1
16857446,5598,3.18,-1.03,0.37,0.29,-1.69,9.29,10.25,-0.1982374,0.08840568,0.06526488,-0.2805246,0.3590881,-10.28714,1
16960887,5584,2.95,-2.72,-1.49,0.97,-0.88,9.26,10.61,-0.3546112,0.1619769,0.06006849,-0.2103871,0.6221447,-10.2553,1
17071107,5577,3.02,-4.85,-4.29,1.31,0.13,9.24,10.82,-0.5203505,0.1754078,0.0332825,-0.3351709,0.9670714,-10.3855,1
17178486,5735,3.13,-6.17,-6.7,1.46,0.67,9.23,10.95,-0.2398499,0.09649231,-0.01490785,-0.4130896,1.022278,-10.63485,1
17294967,5599,3.14,-6.76,-7.62,1.38,0.92,9.24,10.97,-0.09384993,0.002972307,8.496641e-05,-0.168147,0.8868159,-10.48479,1
17401996,5548,3.01,-7.04,-7.96,1.3,0.83,9.25,10.97,-0.0732657699999999,0.02587223,-0.008749916,-0.4744229,0.6831391,-10.15241,1
17508120,5682,3.1,-7.1,-8.04,1.19,0.91,9.26,10.94,0.03336898,0.05756249,0.01621965,-0.2185463,1.067656,-9.974566,1
17614513,5630,2.94,-7.22,-7.47,1.3,0.71,9.25,11.11,0.0665075599999999,-0.05958484,0.04404426,-0.2131034,0.9140792,-10.41689,1
17835141,5718,2.48,-7.29,-6.74,1.92,0.38,9.17,11.47,-0.006865882,0.01160638,-0.05262546,-0.1929159,0.8068009,-9.604331,1
17945231,5360,2.68,-7.23,-7.3,2.13,0.86,9.14,11.06,-0.08709444,0.1155832,-0.05955084,-0.001231191,1.104578,-9.713103,1
18049836,5417,3.15,-7.15,-7.72,2.26,1.45,9.12,10.65,-0.0005041485,0.08701491,-0.009863379,-0.05197466,0.9507993,-9.162004,1
18169193,5621,3.23,-6.93,-7.64,2.27,2.31,9.12,10.5,-0.008358627,0.0959086299999999,0.003188745,-0.09246842,0.7888141,-9.863194,1
18278467,5697,3.04,-6.4,-7.4,2.03,2.7,9.15,10.6,0.05461132,-0.06633891,0.006384009,-0.04698454,0.6877174,-9.892715,1
18385994,5658,2.61,-5.46,-6.53,1.78,2.12,9.18,10.84,0.3030296,-0.1883645,0.0406959,-0.006434286,0.9391614,-9.47781,1
18504610,5462,1.82,-4.14,-4.68,1.74,1.16,9.18,11.17,0.2461925,-0.0974967,0.03127456,-0.0682158499999999,0.5095535,-9.144698,1
18603696,5092,1.91,-3.43,-2.96,1.94,0.35,9.17,11.24,0.1481402,-0.09994441,-0.01342176,-0.05810712,0.8214927,-8.786036,1
18709764,4999,2.93,-3.43,-2.57,2.11,0.67,9.16,11.07,-0.02868953,-0.0208302,-0.08843921,-0.1037895,1.219706,-9.208798,1
18818208,4979,2.04,-4.0,-2.77,2.53,1.17,9.13,10.8,-0.1428594,0.03455578,-0.03203078,0.07324883,0.9348018,-8.5581,1
18929105,4931,2.7,-4.84,-3.83,3.03,1.25,9.09,10.16,-0.1963562,0.1088943,-0.1287731,-0.3028708,1.025669,-8.702868,1
19038302,5186,2.93,-5.11,-4.89,3.43,2.26,9.06,9.46,-0.08595572,0.1755708,-0.072615,-0.0723201,1.562447,-9.37252,1
19142141,5350,3.19,-4.55,-4.45,3.89,3.53,9.02,8.9,0.2152412,0.2536931,-0.0752512999999999,-0.2486314,1.322948,-9.30789,1
19357556,5516,2.78,-2.91,-1.15,4.73,4.51,8.96,8.86,0.1167323,-0.1153029,0.01422491,0.08084302,0.6902968,-10.16242,1
19466493,5630,3.29,-2.65,-0.79,4.14,3.85,8.99,9.09,0.0359863,-0.2032146,0.06303501,0.05219881,1.03465,-10.42458,1
19574431,5685,3.19,-2.1,-0.8,3.06,2.72,9.03,9.73,0.0740495999999999,-0.250015,0.09368917,0.02009406,1.385579,-9.95414,1
19791318,5698,2.97,0.83,1.85,1.2,0.58,9.06,11.18,0.2638265,-0.08520804,0.0867732799999999,-0.06051657,0.7617356,-10.05478,1
19902980,5542,2.82,1.84,3.23,0.85,0.02,9.06,11.68,0.141237,-0.07836226,0.08703353,-0.04173135,0.7785618,-10.06745,1
20010714,5568,2.85,2.35,3.51,0.84,0.14,9.06,12.0,-0.06519741,0.1283267,0.06209565,-0.1940671,0.8755695,-10.22538,1
20124107,5410,2.87,2.6,3.14,0.87,0.42,9.06,12.33,-0.1064405,0.02260147,0.04524974,0.001568425,0.6467805,-10.03181,1
20234181,5561,3.04,2.79,2.46,0.89,0.64,9.06,12.51,-0.08645402,0.04331174,0.02240604,-0.03168764,0.8619057,-10.22543,1
20342903,5435,2.91,2.89,2.35,0.79,0.66,9.05,12.59,0.02060427,-0.0587693,0.01701454,0.1096739,0.7947857,-9.91116,1
20451312,5524,2.58,3.03,2.22,0.85,0.46,9.06,12.69,-0.03602617,-0.01103317,0.0247359,-0.03347456,0.6461758,-10.10561,1
20555428,5470,2.62,2.99,2.19,0.84,0.37,9.06,12.72,-0.05218992,-0.01069799,0.01199283,0.05214815,0.630402,-9.777895,1
20666222,5420,2.63,2.91,1.8,0.83,0.62,9.06,12.66,-0.1220582,0.1210425,-0.002733527,-0.03934286,0.520138,-9.91334,1
20776897,5263,2.79,2.86,1.31,0.74,0.64,9.05,12.57,-0.0656710499999999,-0.03228658,-0.04762345,-0.04334591,0.7322615,-9.702855,1
20886199,5357,2.58,3.1,1.04,0.56,0.6,9.04,12.46,0.03139311,0.01369112,-0.03135896,0.07598452,0.6168404,-9.723384,1
20995689,5358,2.71,3.2,1.14,0.39,0.22,9.03,12.16,0.02490447,-0.07903233,-0.04941856,0.1661439,0.4380305,-9.433657,1
21106444,5385,2.77,3.46,1.45,0.33,-0.16,9.03,11.76,0.100092,-0.05341339,-0.08279768,-0.09008989,0.5271602,-9.742924,1
21321195,5383,2.61,3.58,1.56,0.73,-0.05,9.05,10.87,-0.08216899,0.01532324,-0.04559913,-0.05074494,0.3722553,-9.603417,1
21434143,5302,2.72,3.72,1.47,0.78,0.2,9.06,10.59,0.0094474969999999,0.05271371,-0.0313422,0.05437676,0.6080933,-9.510647,1
21544192,5440,2.94,2.49,1.21,0.95,0.29,9.07,10.37,-0.1497436,0.02638778,-0.03079942,-0.08670353,0.06281745,-9.794273,1
21656992,5412,2.45,-1.04,-2.32,0.82,0.51,9.06,10.27,-0.7242454,-0.001087597,-0.01858266,0.1358499,0.5493675,-9.567069,1
21765126,5385,2.59,-4.19,-6.35,0.8,0.31,9.07,10.38,-0.5618786,-0.07523757,0.02189122,0.06483201,0.5881457,-9.703506,1
21881006,5417,2.78,-6.11,-9.05,0.68,0.4,9.08,10.59,-0.230265,-0.02665561,0.01365136,0.08597033,0.6007552,-9.962678,1
21981558,5455,2.61,-6.81,-9.95,0.69,0.38,9.08,10.66,-0.04231678,-0.02585469,-0.01176913,0.07023606,0.6364368,-9.4673,1
22106654,5370,2.62,-6.93,-9.95,0.8,0.02,9.06,10.53,0.07710259,-0.04671161,-0.04662015,-0.05906731,0.6151338,-9.682487,1
22204916,5276,2.99,-6.74,-9.61,0.77,0.1,9.07,10.2,0.07489071,0.03186379,-0.06295881,-0.07306338,0.3915198,-9.966241,1
22314418,5417,3.4,-6.38,-8.9,0.66,0.54,9.08,9.83,0.1333047,0.1270689,-0.03444646,-0.09308998,0.4699204,-9.806438,1
22423895,5621,3.41,-5.88,-8.07,0.35,1.1,9.11,9.67,0.09823991,0.03009842,0.01372605,-0.09490503,0.5347601,-10.63555,1
22529652,5778,3.37,-5.46,-7.29,-0.17,1.24,9.16,9.99,0.1314068,-0.06364849,0.08468167,0.05346083,0.6908922,-10.327,1
22639641,5648,2.8,-5.56,-6.37,-0.63,0.46,9.21,10.6,0.1482689,-0.2177857,0.07329814,-0.0643657,0.6996503,-10.54911,1
22747280,5521,2.82,-5.63,-5.73,-0.91,-0.46,9.24,11.02,-0.0091673339999999,-0.05543614,0.02307889,-0.1931308,0.5511861,-10.18504,1
22845211,5456,3.09,-5.42,-5.87,-1.03,-0.84,9.25,10.95,-0.03195557,0.01248642,-0.05231944,-0.2121673,0.7081287,-9.874422,1
22958173,5436,3.04,-5.16,-6.18,-1.0,-1.1,9.24,10.43,-0.03375947,-0.09309898,-0.08624764,-0.08602554,0.6058192,-9.980455,1
23074982,5619,3.45,-4.65,-5.54,-1.18,-0.93,9.26,9.8,0.2190097,0.02964438,-0.01282476,-0.1605126,0.7320758,-10.52363,1
23179280,5671,2.99,-4.42,-4.21,-1.14,-0.62,9.26,9.99,0.2130481,0.07027622,0.1026349,0.03279358,0.5564876,-10.28709,1
23287937,5655,2.57,-4.29,-3.42,-0.93,-0.39,9.24,10.76,0.05293973,0.06241819,0.1511952,0.2276391,0.4988045,-9.940429,1
23395012,5438,2.7,-4.58,-3.32,-0.68,-0.44,9.22,11.54,-0.04114497,0.03733487,0.1168143,0.0986339,0.5971105,-9.940411,1
23508916,5385,2.46,-5.2,-3.72,-0.38,-0.34,9.2,12.14,-0.1427278,-0.03408251,0.0628991099999999,0.209322,0.4485711,-9.916011,1
23619717,5378,3.07,-5.61,-5.15,0.03,-0.12,9.16,12.06,-0.1482664,0.132909,-0.06062072,0.08863705,1.084784,-9.895548,1
23732946,5317,3.39,-6.31,-4.92,0.1,0.49,9.15,11.4,0.1572644,0.05645719,-0.09764504,0.244297,0.8819124,-10.22301,1
23839183,5600,2.7,-6.87,-3.79,0.4,0.16,9.11,10.96,0.1779389,-0.0969838299999999,-0.05469855,0.1563769,0.6739799,-10.62846,1
23942181,5577,2.34,-7.28,-3.28,0.79,-0.62,9.07,10.91,0.01467138,-0.09392867,0.02047913,0.04385873,0.665544,-10.09708,1
24055662,5291,1.99,-7.9,-4.14,1.29,-0.78,9.0,11.15,-0.2045517,0.07297821,0.05585591,0.1722061,0.4513005,-10.15088,1
24162558,5086,2.1,-8.47,-5.57,1.96,-0.44,8.9,11.45,-0.3038045,0.05342143,0.03613147,0.0089586679999999,0.5633938,-9.952449,1
24272994,4914,1.97,-8.8,-6.96,2.6,0.38,8.8,11.54,-0.1261431,0.178984,0.002267561,0.1196094,0.9646911,-9.842786,1
24375201,4913,2.11,-8.82,-7.54,3.14,1.21,8.72,11.51,-0.004577839,0.07305717,0.02316279,0.1847638,0.8468171,-9.571164,1
24485006,4900,1.97,-8.5,-7.53,3.49,2.02,8.67,11.47,0.04499114,0.04652859,0.01322453,0.2131996,0.8584668,-10.14239,1
24598086,4902,2.12,-8.14,-7.05,3.78,2.14,8.62,11.39,0.01636895,0.0373919,-0.01917284,0.4897702,0.789714,-9.584317,1
24705716,4940,2.16,-7.85,-6.51,3.94,2.07,8.6,11.24,0.0410252,0.0778231,0.01249169,-0.07638928,0.6890196,-9.58588,1
24813691,4837,2.32,-7.6,-6.23,3.9,2.63,8.61,11.06,-0.01750195,0.1493239,0.00161227,0.220942,0.7138585,-9.706631,1
25034167,5071,2.38,-6.99,-6.08,3.59,3.15,8.65,10.47,0.02063175,0.0484981,-0.06008983,-0.08995143,0.6942326,-9.84351,1
25145193,5126,3.08,-6.44,-6.56,3.01,3.52,8.71,10.06,0.03053242,0.08209983,-0.04169255,0.216703,0.8793904,-9.738726,1
25255456,5290,3.04,-5.71,-5.86,2.37,3.59,8.78,9.92,0.1239194,-0.09122709,-0.0288338,0.1624077,0.6361949,-10.11682,1
25362847,5503,2.43,-4.97,-4.52,1.82,2.97,8.83,9.97,0.2387134,-0.1658407,0.02401186,0.1239653,0.8882942,-9.980161,1
25471521,5342,2.07,-4.02,-3.21,1.46,1.58,8.86,10.08,0.2169822,-0.1267574,0.01629927,0.2835921,1.058114,-9.962951,1
25691517,5163,2.24,-0.11,1.51,1.37,0.66,8.87,10.17,0.2544979,0.07093442,0.01379416,0.1374072,0.5059111,-10.04247,1
25789954,5028,2.55,0.75,2.32,1.28,0.99,8.87,10.05,0.1132216,0.0851236799999999,-0.0256558,-0.00568741,0.8164149,-9.511844,1
25899548,5087,2.74,1.07,2.37,0.93,1.44,8.86,9.89,-0.01202781,0.05994237,-0.00194075,0.1371492,1.014133,-10.16235,1
26020908,5300,2.29,1.01,2.34,0.59,0.82,8.86,9.72,-0.001887568,-0.1629894,-0.05351561,-0.0004739444,0.9668891,-10.1627,1
26126788,5279,2.18,0.71,2.36,0.48,0.2,8.85,9.44,-0.1012592,-0.004479166,-0.05645374,0.09314084,0.5189989,-9.505328,1
26229920,5120,2.91,-0.4,1.02,0.25,0.25,8.85,9.02,-0.3107797,0.04068791,-0.09110001,-0.3146739,0.8888676,-9.872918,1
26347280,5325,2.5,-3.21,-1.72,-0.04,0.17,8.86,8.6,-0.4068836,-0.1619217,-0.05333363,-0.05333216,1.063036,-10.26502,1
26672991,5427,2.88,-6.96,-8.01,-0.31,0.4,8.89,8.67,-0.1313697,0.1018389,0.0517906,-0.001031699,0.83406,-9.499327,1
26773937,5414,2.63,-6.84,-8.1,-0.4,0.67,8.9,9.04,0.09284224,0.0006225727,0.04547184,0.0894504899999999,0.9672577,-9.722817,1
26883493,5419,2.83,-6.02,-7.53,0.29,1.57,8.82,9.39,0.1146626,0.2068687,0.08340662,-0.2748126,0.8667359,-9.941195,1
26997768,5484,3.19,-5.27,-6.34,1.27,3.14,8.73,9.69,0.254754,0.231302,0.0537786,-0.2529522,0.8691752,-9.967274,1
27108038,5612,2.81,-4.91,-4.86,2.08,4.59,8.65,9.95,0.2008581,0.06600883,0.0715788599999999,0.2920627,1.03838,-9.796064,1
27202492,5598,2.52,-4.75,-4.31,2.57,4.89,8.61,10.41,0.05742268,-0.01422476,0.1203077,0.3086578,1.005323,-9.897864,1
27321129,5467,2.44,-4.85,-4.08,3.16,4.66,8.56,11.14,-0.02008711,-0.01033303,0.0844383799999999,-0.1822014,0.9063137,-9.767873,1
27433313,5250,2.39,-5.24,-3.62,3.35,4.7,8.55,11.74,0.1030319,-0.07187382,0.1164431,0.1327859,0.6955523,-10.35769,1
27545179,5292,0.98,-5.45,-3.12,3.98,3.11,8.49,12.8,-0.02016831,-0.1785959,0.1401075,-0.1106853,0.6479063,-10.00325,1
27651669,4585,1.02,-4.7,-3.91,4.35,1.89,8.45,13.79,-0.109278,-0.1464777,0.09385765,0.06948268,0.9777857,-9.549003,1
27747534,4255,1.46,-4.18,-4.1,4.96,1.47,8.41,13.96,0.1072382,0.03695433,0.01217941,0.1637413,0.8048432,-9.574582,1
27862963,4211,1.65,-3.75,-4.13,5.85,2.93,8.34,13.54,-0.100376,0.2844341,-0.04134192,-0.04316434,0.5962017,-9.769932,1
28081526,4486,2.06,-2.39,-2.97,6.19,5.2,8.32,11.84,0.1874475,0.09420568,-0.1052466,0.2957854,0.9158062,-9.543666,1
28183448,4825,2.17,-1.68,-1.63,5.84,4.66,8.33,10.88,0.1304683,-0.1015364,-0.1411426,0.3771057,0.5595534,-9.738394,1
28398203,4972,2.35,-0.92,-1.25,4.98,4.04,8.35,8.8,0.03997204,-0.00113135,-0.1411657,0.1139694,0.7630613,-9.319821,1
28512943,5128,2.42,-0.82,-1.32,4.72,3.91,8.36,7.97,-0.04696372,-0.02255009,-0.1209707,0.1582827,0.5917262,-10.00441,1
28617309,5127,2.3,-1.02,-1.72,4.88,3.78,8.35,7.39,-0.009830477,-0.006140313,-0.0819681399999999,0.1208972,0.6314783,-9.279449,1
28726667,5093,2.61,-1.93,-2.18,5.63,4.36,8.33,7.06,-0.09009924,0.0990867099999999,-0.03744842,0.1768211,0.5050819,-9.81027,1
28837438,5274,2.78,-2.51,-2.92,5.93,5.49,8.32,6.69,-0.0868249299999999,0.1587192,-0.06964295,0.4957627,0.8913709,-9.483821,1
28953080,5331,2.91,-2.9,-3.15,5.92,6.02,8.32,6.14,0.02188203,0.06161469,-0.07374252,0.04626966,0.4203886,-9.920977,1
29060463,5507,2.46,-2.91,-3.39,5.42,6.0,8.35,5.87,-0.09227718,-0.06838551,-0.01659313,0.3558565,0.4527415,-10.07814,1
29171551,5422,2.23,-3.07,-3.01,5.24,4.78,8.36,6.21,0.09523964,-0.1111361,0.07673982,0.1243627,0.7531283,-9.904141,1
29270898,5228,2.09,-3.43,-3.12,4.98,4.36,8.37,6.75,-0.137442,-0.02218451,0.1081136,0.4364148,0.3243787,-9.604986,1
29389595,5245,2.05,-3.72,-3.76,4.97,3.69,8.37,7.69,-0.09580207,-0.09313502,0.1267063,0.2942167,0.6503995,-10.02512,1
29497156,5064,2.02,-3.93,-4.19,5.18,3.29,8.36,8.54,0.0008438533,-0.09645645,0.1171075,0.2988567,0.742011,-9.888778,1
29598931,4945,2.08,-4.08,-4.06,5.44,3.55,8.34,9.13,0.0281167,0.0480608,0.0999429399999999,0.2699101,0.715637,-9.737228,1
29819293,5080,1.94,-3.7,-3.89,5.43,4.68,8.34,10.32,0.01352492,0.07073138,0.1206956,0.6413754,0.5063232,-10.14961,1
29924109,4878,1.4,-3.24,-3.52,5.16,4.27,8.36,10.97,0.1611812,-0.2722226,0.1037992,0.4729039,0.7980602,-9.702773,1
30040672,4716,1.54,-2.99,-2.74,4.81,3.41,8.38,11.64,0.03281897,-0.127954,0.05313195,0.5198625,0.363686,-9.427073,1
30143698,4609,1.63,-2.87,-2.71,5.02,3.04,8.37,12.1,-0.08542565,-0.02559474,0.06700751,0.4388715,0.5832427,-9.676899,1
30254039,4558,1.74,-3.05,-2.44,5.5,3.44,8.34,12.35,0.0697344,0.2833249,0.0565386,0.3559003,0.7095199,-9.770902,1
30367202,4582,1.63,-3.21,-2.4,5.9,4.14,8.32,12.32,-0.04901322,0.1234294,0.002340691,0.3393933,0.9534436,-9.625328,1
30474515,4563,1.68,-2.53,-1.73,5.39,4.3,8.34,12.2,0.1035197,0.00900363,-0.04462492,0.5411909,0.8048961,-10.19513,1
30577425,4626,1.71,-1.53,-0.85,4.76,3.27,8.37,11.86,0.1527962,-0.05139194,-0.05657467,0.2823358,0.9302158,-10.28376,1
30687079,4541,1.53,-0.79,0.0,4.2,2.42,8.38,11.18,0.1188888,-0.1192783,-0.1231428,0.1855741,0.9325886,-9.88645,1
30795649,4529,1.92,-0.77,0.16,3.84,2.31,8.38,10.53,0.08082659,-0.08682358,-0.1289238,0.4489263,0.5387473,-9.878943,1
30905996,4643,2.24,-1.17,-0.4,3.31,2.02,8.39,9.91,-0.2282514,0.02981638,-0.08268058,0.4758765,0.5552909,-9.711439,1
31015097,4791,1.78,-2.62,-1.55,2.31,1.17,8.42,9.35,-0.2364163,-0.2032711,-0.1253103,0.4160532,0.7293095,-9.668956,1
31115930,4944,2.12,-3.74,-3.23,0.8,0.11,8.51,8.83,-0.1938211,-0.2037395,-0.0794784999999999,0.3670343,0.9017481,-9.781815,1
31235135,5042,2.24,-4.46,-4.76,-1.2,-1.29,8.65,8.4,-0.1185893,-0.3062428,-0.07235008,0.5755439,0.836325,-9.771548,1
31336197,5049,2.26,-4.67,-5.17,-2.43,-2.8,8.75,8.31,0.08723417,-0.2765631,-0.01451897,0.4771444,1.038572,-9.96061,1
31448403,5200,2.31,-4.56,-5.35,-3.53,-4.24,8.84,8.41,0.0163295,-0.1292396,0.0004518591,-0.1484823,0.8091272,-10.27613,1
31557983,5215,2.3,-4.28,-5.31,-4.26,-4.37,8.9,8.64,0.04513591,-0.01356745,0.06164758,0.277598,0.9408327,-9.749768,1
31778402,5223,2.37,-3.87,-4.85,-4.52,-3.82,8.92,9.06,-0.04750495,0.09185132,0.02151755,0.3241074,0.4278265,-9.857467,1
31878215,5127,2.18,-3.76,-5.08,-4.44,-3.44,8.91,9.08,-0.03818747,0.03697463,0.008240012,0.1368321,0.6372931,-9.978622,1
31996237,5115,2.36,-3.48,-4.81,-4.41,-3.11,8.91,9.05,0.1053123,0.02833037,0.01809082,0.06525311,0.8010813,-10.19007,1
32107235,5135,1.99,-3.09,-4.4,-4.44,-2.81,8.91,9.16,0.04956636,0.05460397,0.0318161,0.2428259,0.4437816,-9.799406,1
32206114,5083,2.16,-2.79,-4.02,-4.34,-2.8,8.91,9.37,0.07075194,0.01886355,0.04681568,0.2482086,0.569438,-10.06736,1
32322134,5014,2.22,-2.48,-3.79,-4.24,-2.55,8.9,9.63,-0.03160107,0.02287306,0.03557362,0.3120195,0.7325227,-9.744509,1
32429574,5144,2.29,-2.09,-3.31,-4.24,-2.64,8.9,9.7,0.09598576,-0.07042067,0.02140775,0.09382474,0.4362867,-9.907339,1
32539054,5038,2.42,-1.6,-2.89,-4.31,-2.61,8.91,9.85,0.07465692,-0.02153816,0.03409304,0.1413305,0.4525786,-10.20681,1
32644747,5143,2.18,-1.1,-2.6,-4.01,-2.12,8.9,10.09,0.02756246,0.1168952,0.04633928,0.223917,0.4663093,-9.855101,1
32750281,5148,2.12,-0.73,-2.21,-2.84,-1.22,8.88,10.25,0.0755525799999999,0.2275928,0.02387611,-0.0736310399999999,0.3673749,-9.926466,1
32851531,5028,2.4,-0.4,-1.97,-2.04,0.35,8.87,10.34,0.003663032,0.2806675,0.03705299,0.5223756,0.4653952,-9.603106,1
32963231,5029,2.19,-0.13,-1.39,-1.41,0.93,8.87,10.41,0.1067555,0.02549358,0.01841221,0.262829,0.6869484,-9.961289,1
33077135,5093,2.08,0.02,-1.17,-1.01,0.69,8.87,10.35,-0.02459401,0.03007599,-0.0230068,0.07235007,0.5613387,-9.983782,1
33188279,5022,2.31,-0.09,-1.06,-0.77,0.17,8.87,10.08,0.021779,-0.1491192,-0.06044255,0.0251881,0.4523422,-10.13716,1
33293076,4973,2.5,-1.24,-1.63,-0.55,0.27,8.87,9.72,-0.2050344,0.03911345,-0.07931796,0.1335432,0.3117945,-9.831256,1
33402209,5176,2.44,-2.85,-3.54,-0.33,0.61,8.86,9.27,-0.2703607,-0.02958438,-0.06590089,0.291725,0.6899275,-9.734807,1
33503515,5227,2.47,-4.4,-5.28,-0.18,0.75,8.85,8.9,-0.3018318,-0.03274873,-0.04137308,0.132454,0.3907195,-9.652956,1
33617404,5217,2.81,-5.4,-6.51,-0.17,0.93,8.85,8.71,-0.1245921,0.004023246,-0.00169236,0.2290482,0.4341161,-9.822841,1
33729039,5288,2.59,-5.96,-6.68,-0.24,1.12,8.86,8.7,0.02696048,-0.01076738,0.01635254,0.1603183,0.6642402,-9.865632,1
33841318,5318,2.43,-6.38,-6.46,-0.31,0.88,8.87,8.85,0.01139104,0.01606345,0.01654092,-0.007117574,0.4025391,-9.977384,1
33944418,5228,2.5,-6.77,-6.74,-0.48,0.74,8.89,8.96,-0.07833084,-0.04373116,0.01343494,0.06730587,0.616239,-9.61498,1
34053223,5234,2.55,-7.38,-7.29,-0.57,0.55,8.9,9.08,-0.09876715,0.03101254,-0.01779475,-0.02887647,0.5461339,-9.888318,1
34162231,5300,2.56,-7.94,-7.78,-0.7,0.52,8.91,9.16,-0.08085135,-0.02789589,-0.01351698,0.07911149,0.7149724,-9.533424,1
34264579,5301,2.86,-8.36,-7.77,-0.76,0.54,8.92,9.26,0.02939858,0.0546937,0.0273078,-0.1521433,0.7205173,-9.788313,1
34374482,5332,2.7,-8.72,-7.61,-0.92,0.45,8.95,9.47,0.01314661,-0.08852103,0.02790518,0.03152033,0.7078235,-9.983046,1
34490688,5385,2.72,-8.95,-7.5,-1.16,0.28,8.98,9.73,-0.02999129,-0.03909882,0.05467375,0.05585907,0.6256248,-9.785122,1
34594091,5284,2.7,-9.13,-7.52,-1.32,-0.08,9.01,9.92,-0.02195374,-0.03553557,0.04572656,-0.08181416,0.8483574,-10.11807,1
34693539,5272,2.56,-9.47,-7.72,-1.42,-0.42,9.02,10.06,-0.03545624,-0.09805471,0.005958422,-0.04212762,0.8092319,-10.02901,1
34811440,5321,2.47,-9.85,-8.28,-1.21,-0.49,8.99,10.38,-0.06611625,-0.02322469,0.04499362,0.1216212,0.9043605,-9.975807,1
35240699,5228,2.45,-10.41,-9.34,-0.43,0.3,8.85,10.6,-0.01828467,0.07685111,0.04397722,0.09612436,0.7639278,-10.34039,1
35352118,5242,2.55,-10.16,-9.01,-0.29,0.36,8.82,10.72,0.119682,-0.02636674,0.03274599,0.3310075,0.9411471,-9.835609,1
35472438,5252,2.5,-10.09,-8.59,-0.13,-0.09,8.79,10.84,-0.115948,-0.09852535,-0.006289179,-0.1491475,0.7291257,-10.27118,1
35579885,5188,2.34,-9.87,-9.03,-0.13,0.01,8.79,10.7,-0.07671222,0.05910176,0.00131521,-0.05979278,1.224199,-9.390254,1
35685273,5073,2.85,-9.74,-9.08,-0.24,0.46,8.81,10.37,0.01986869,0.1143798,-0.01489081,-0.178294,1.115453,-9.657032,1
36003638,5299,2.52,-9.02,-8.29,0.44,0.74,8.7,9.62,-0.007547344,0.08799551,-0.02779599,0.1356942,0.986759,-9.625659,1
36114591,5283,2.74,-8.98,-8.33,0.7,1.23,8.66,9.31,-0.02728957,0.09501293,-0.04604972,0.0167431,1.114885,-10.13128,1
36224506,5272,2.79,-8.67,-8.33,0.7,1.42,8.66,8.91,0.09476838,0.04117306,-0.05781379,-0.1147453,1.113599,-10.02966,1
36333196,5323,3.04,-8.68,-7.77,0.43,1.35,8.7,8.42,0.04913757,-0.02495683,-0.1126262,-0.01564841,1.154838,-9.83475,1
36434299,5558,3.15,-8.88,-7.9,0.08,1.17,8.75,7.83,-0.0944456,-0.02909739,-0.1250415,-0.1270889,0.9212695,-9.590242,1
36544302,5600,3.09,-9.19,-8.2,-0.37,0.79,8.83,7.26,-0.07364456,-0.114435,-0.09896857,0.1295771,0.8810238,-10.23779,1
36655987,5589,2.45,-9.24,-8.3,-0.43,-0.32,8.84,7.03,-0.02496272,-0.147883,-0.05710727,-0.1011205,1.168259,-10.05051,1
36761906,5441,2.69,-9.02,-8.47,-0.39,-0.72,8.83,6.91,-0.004436716,-0.04658249,-0.02612946,-0.4047374,1.084772,-9.76506,1
36876201,5407,2.77,-9.04,-8.77,-0.27,-0.25,8.81,7.23,-0.1328764,-0.0362555,0.09495404,0.1335131,1.005955,-9.548335,1
36985086,5472,2.59,-8.84,-9.04,-0.08,-0.09,8.78,7.88,-0.03811229,0.03137973,0.08695226,0.1257692,0.9413853,-9.85537,1
37095624,5300,2.35,-8.7,-8.95,0.0,-0.3,8.77,8.6,0.04551074,-0.103605,0.1109553,0.1013023,1.2247,-9.762984,1
37198148,5291,2.16,-8.48,-8.11,0.27,-0.32,8.73,9.45,0.1510447,0.01845846,0.1467024,0.1765758,1.290748,-9.95027,1
37416845,5096,2.19,-8.61,-8.28,1.44,0.71,8.55,10.68,-0.1544192,0.1128176,0.09876879,0.3617828,1.049353,-9.854241,1
37530650,4949,2.15,-8.86,-8.87,1.79,1.5,8.5,10.83,-0.1877786,0.1418578,-0.005678563,0.553358,1.291179,-9.717203,1
37632273,5022,2.08,-8.7,-8.99,2.08,1.66,8.45,10.91,-0.07591069,-0.07965737,0.01126947,0.1945883,1.32767,-9.348963,1
37744493,4909,2.17,-8.71,-8.4,2.41,1.66,8.4,10.94,0.1421516,0.01934392,-0.01576822,0.3056421,1.073159,-9.937628,1
37852545,5039,2.29,-8.58,-8.48,2.77,2.12,8.35,10.82,-0.2124382,0.1939248,0.00560368,0.4618813,1.315169,-9.761965,1
37959992,4988,2.24,-8.61,-8.68,3.19,2.56,8.28,10.67,-0.08335217,-0.09868235,-0.02202978,0.1799915,1.660963,-10.08512,1
38064983,5019,1.82,-6.4,-7.79,3.54,2.84,8.23,10.43,0.3705754,0.07840809,-0.02228233,0.3654593,1.803812,-9.638572,1
38386986,4843,1.99,7.13,10.84,4.73,2.64,8.25,9.5,0.7941192,0.01129386,-0.03985165,0.4908893,0.4459597,-9.776019,1
38507171,4925,1.39,9.05,13.72,5.28,1.68,8.33,8.97,0.2304428,-0.04933883,0.004119848,0.3579571,0.6786065,-9.867646,1
38604831,4690,2.03,9.68,13.81,5.59,1.12,8.38,8.65,-0.1745744,0.05635659,-0.03705535,-0.003865046,0.5463933,-9.774947,1
38824966,4761,2.2,9.6,11.71,6.15,2.58,8.48,8.67,-0.2659248,0.2086929,-0.02423926,0.2136134,0.7603493,-10.44386,1
39045704,4879,2.24,9.59,9.14,5.99,4.59,8.45,8.47,-0.1196601,0.2033246,-0.06040563,0.2826493,0.8115022,-10.00308,1
39141922,5032,2.55,9.69,8.5,5.49,5.22,8.36,8.31,-0.0837498899999999,-0.01563674,-0.04234032,0.314392,0.6808619,-10.00332,1
39252865,5203,2.19,9.46,8.22,4.87,4.88,8.26,8.11,-0.02932714,-0.1332688,-0.05389432,0.3277273,0.3740207,-9.996668,1
39476004,5054,2.11,8.74,7.17,4.04,3.29,8.12,7.67,0.005214715,-0.17239,-0.04145562,0.4842944,0.8553421,-9.777438,1
39576124,5016,2.69,7.99,6.54,3.33,3.03,8.02,7.44,-0.231624,-0.01449019,-0.01079397,0.6220654,0.4273804,-9.519008,1
39685960,5081,1.76,6.09,4.46,0.7,0.58,7.69,6.9,-0.4153943,-0.6110982,-0.05804408,0.6362551,0.4528503,-9.760065,1
39796792,5000,2.04,4.36,1.83,-1.04,-2.57,7.53,6.48,-0.308538,-0.3942864,-0.04725777,0.224949,0.5573823,-9.779921,1
39908892,5010,2.31,3.14,0.09,-2.28,-3.58,7.45,6.28,-0.2240563,-0.03111369,-0.03463626,0.3838155,0.6687637,-10.03564,1
40025874,5102,2.26,2.78,-0.72,-2.73,-3.57,7.43,6.1,0.02507191,0.03434648,-0.01505789,0.1924599,0.9379196,-9.959987,1
40116945,5018,2.51,2.75,-0.58,-2.93,-2.86,7.42,6.09,0.06004664,0.1691973,0.001374473,0.3359566,0.5730939,-9.665422,1
40337147,5215,2.6,3.11,0.79,-3.38,-1.68,7.4,6.42,0.02328838,0.0535453,0.03644086,0.2187433,0.3755732,-10.02049,1
40574187,5311,2.81,3.06,1.92,-4.23,-1.78,7.35,6.49,-0.09304895,-0.04239183,-0.05293155,0.2188685,0.3218909,-10.03498,1
40686135,5456,2.67,2.69,1.49,-4.9,-2.37,7.32,6.1,-0.09144966,-0.1195337,-0.07112113,0.03744632,0.5527617,-9.794166,1
40788808,5385,2.72,2.16,0.9,-5.33,-3.26,7.3,5.83,-0.1199477,-0.1425091,-0.008820839,0.09453186,0.5445605,-9.8284,1
40892883,5378,2.63,1.85,0.38,-5.39,-3.78,7.3,5.75,-0.1060251,-0.02483661,-0.006090968,0.1439979,0.5196,-9.818029,1
41006203,5323,2.73,1.21,-0.49,-5.04,-3.62,7.3,5.7,-0.2174175,0.1726051,0.004260816,0.007690964,0.6092577,-9.866663,1
41228580,5408,3.0,-0.24,-1.74,-4.37,-2.36,7.31,5.85,-0.1157995,0.05269695,-0.01081117,0.007761025,0.3056079,-10.06741,1
41328824,5567,2.81,-1.07,-2.71,-3.69,-1.26,7.3,5.78,-0.1491054,0.2247565,-0.008934635,0.01841374,0.3327787,-9.827068,1
41434957,5404,3.15,-1.63,-3.19,-2.15,0.3,7.27,5.62,-0.02585004,0.251985,-0.0189744,0.1662788,0.5538394,-9.722337,1
41544635,5611,2.8,-1.91,-3.74,-1.31,1.7,7.24,5.42,-0.1111758,0.100178,-0.01401672,0.1637561,0.4670434,-9.965315,1
41655522,5565,3.08,-1.98,-3.85,-0.94,1.89,7.23,5.41,0.02481348,-0.00511159,0.0099593619999999,0.1065403,0.3983712,-9.880925,1
41874916,5514,2.69,-2.01,-2.91,-0.82,0.99,7.22,5.9,0.0789500499999999,-0.0646698,0.05250385,-0.2678102,0.6064335,-10.28769,1
41976579,5509,2.55,-2.14,-2.58,-0.25,0.31,7.2,6.21,0.03037798,-0.0835737399999999,0.0394397,-0.132431,0.487751,-10.15333,1
42201005,5246,2.65,-3.03,-2.7,2.05,1.76,7.1,6.75,-0.07818242,0.1780725,0.02774018,-0.0630843299999999,0.2626106,-10.04327,1
42309633,5329,2.78,-3.74,-4.02,3.61,3.94,7.01,6.82,-0.2811322,0.3818935,0.04360363,0.03822699,0.6514474,-9.64041,1
42417808,5364,2.71,-4.19,-5.12,5.48,6.1,6.88,6.9,-0.1546514,0.3548422,0.05192852,0.1614438,0.5921979,-9.840048,1
42534111,5323,2.98,-3.95,-5.03,7.05,8.01,6.76,7.14,0.04985861,0.270899,0.08606774,0.1908154,0.5179412,-10.01095,1
42635883,5408,2.74,-3.45,-4.16,7.74,8.94,6.72,7.6,0.1452511,0.0706321,0.1078437,0.1211026,0.442158,-9.969182,1
42745683,5467,2.57,-2.93,-3.75,7.95,9.09,6.7,8.3,0.09044985,0.03056693,0.1206473,0.002534156,0.7349808,-9.959438,1
42962612,5244,2.41,-3.11,-2.45,6.84,7.71,6.76,9.5,0.0422428,-0.2968716,0.09869206,0.1838872,0.3552896,-10.15582,1
43068320,5277,1.95,-3.68,-2.81,6.06,6.04,6.81,10.1,-0.0818397,-0.3149865,0.07827064,0.2045372,0.5184298,-9.983189,1
43182889,5011,1.84,-4.45,-3.7,5.74,4.78,6.83,10.45,-0.1961211,-0.1219398,-0.003878407,0.1505311,0.4216703,-9.91757,1
43289794,4847,2.18,-4.89,-4.78,5.74,4.56,6.83,10.42,-0.08148084,0.01267281,-0.04334601,0.2611835,0.403098,-9.423155,1
43391083,4902,2.41,-4.95,-5.35,5.79,4.9,6.83,10.28,-0.03443554,0.06035427,-0.01749185,0.09864341,0.4567716,-9.953767,1
43502091,5033,2.34,-4.73,-5.23,5.69,4.88,6.83,9.97,0.1017449,-0.004960828,-0.07536319,0.2636192,0.5283118,-9.779189,1
43618604,5132,2.22,-4.34,-4.61,5.41,4.46,6.86,9.61,0.1512156,-0.1082917,-0.068393,0.097211,0.5299942,-10.22919,1
43837512,5029,2.38,-3.59,-3.73,3.47,3.31,6.99,8.94,0.1422234,-0.3053268,-0.07529377,0.270859,0.5035295,-9.692542,1
44051081,5075,2.17,-4.59,-3.35,1.72,1.21,7.1,8.08,-0.117551,-0.02460689,-0.1079861,0.006463827,0.5603394,-9.876943,1
44161105,5168,2.47,-5.56,-3.65,1.33,0.81,7.14,7.49,-0.02241513,-0.06938153,-0.1043495,0.1490959,0.7912248,-9.89117,1
44270947,5115,2.88,-6.42,-5.04,0.69,0.53,7.21,6.81,-0.3864413,0.07968815,-0.1474884,-0.1244551,0.9137067,-8.992643,1
44383490,5232,3.54,-7.24,-6.43,-0.78,0.02,7.38,5.98,-0.0630180199999999,-0.158623,-0.1168958,-0.06261826,1.111543,-8.828164,1
44497675,5629,3.27,-7.73,-6.91,-2.01,-0.66,7.54,5.81,-0.07675873,-0.07327831,0.02855635,-0.1237971,0.869809,-9.98364,1
44599028,5877,3.08,-7.85,-7.05,-2.98,-1.61,7.68,6.21,0.0191751,-0.2359402,0.05519997,0.2872676,0.8583856,-9.455457,1
44713421,5690,2.98,-7.83,-6.73,-3.62,-2.81,7.76,6.82,0.07125147,-0.1219293,0.08744923,0.08940421,0.9125599,-10.05807,1
44820128,5552,2.59,-7.75,-6.52,-4.11,-3.64,7.83,7.48,0.04087694,-0.1385262,0.07552734,-0.1671603,0.8693403,-9.728757,1
44929096,5481,2.49,-7.72,-6.22,-4.36,-3.69,7.87,8.14,0.05941777,0.004805279,0.1293866,0.20767,0.7488854,-9.911258,1
45042127,5397,2.0,-7.73,-6.39,-4.3,-4.03,7.86,8.86,-0.1046712,7.421757e-05,0.1236353,-0.02041259,0.889774,-9.469067,1
45142623,5093,1.71,-7.79,-6.71,-4.12,-4.41,7.83,9.52,-0.161798,-0.05570348,0.1185471,0.2594995,0.7025205,-9.022182,1
45259550,4736,2.1,-7.68,-7.15,-3.84,-4.43,7.8,9.97,-0.02049089,0.1088374,0.04944796,-0.2243601,0.7594867,-8.818163,1
45367990,4860,1.94,-7.5,-7.29,-3.78,-3.59,7.79,10.14,0.1042681,0.08536024,0.02080546,-0.09935749,0.809134,-8.990632,1
45478539,4915,2.59,-7.24,-6.63,-3.79,-3.08,7.79,9.99,0.2467964,0.07796032,-0.006445765,-0.0172512,0.7163244,-8.635956,1
45582843,4944,2.2,-6.71,-6.25,-3.79,-2.6,7.79,9.71,0.172666,0.08922542,-0.02957598,0.01728569,0.832779,-9.456697,1
45696714,4998,2.05,-6.2,-5.79,-3.8,-2.75,7.79,9.44,-0.02290332,-0.0781615799999999,-0.08151044,-0.0772704,0.8192086,-8.855447,1
45808186,4913,2.6,-5.48,-5.06,-3.54,-2.73,7.76,8.88,0.06623319,0.1336007,-0.1032689,-0.358449,0.5703495,-9.300902,1
45916495,5055,2.59,-4.92,-4.06,-3.16,-1.81,7.73,8.34,0.1807609,0.1344886,-0.0712849,-0.06168024,0.6212385,-9.448612,1
46024530,5191,2.3,-4.49,-2.98,-2.53,-0.84,7.68,8.11,0.1252948,0.03315778,-0.01424234,0.1267608,0.2779848,-9.835829,1
46127514,5254,1.21,-4.13,-2.64,-1.85,-1.67,7.63,8.05,-0.0946703,-0.3224336,0.0005260849,0.6061077,0.4785379,-9.82621,1
46236617,4643,1.76,-4.03,-2.0,-0.81,-3.76,7.55,7.78,0.1351911,-0.1128239,-0.03298456,-0.1026349,0.6618035,-9.800397,1
46344443,4473,1.91,-4.2,-1.25,0.26,-3.78,7.48,7.24,0.0141997,0.03645326,-0.09209778,0.0642747199999999,0.5301785,-9.266234,1
46454615,4716,2.23,-4.31,-1.32,1.9,-2.53,7.35,6.91,-0.0319031,0.3938457,-0.0427848,-0.4860636,0.6883374,-9.619577,1
46567924,4769,1.86,-4.74,-1.35,3.27,-0.91,7.25,6.44,0.01618922,0.1393706,-0.117992,0.03161059,0.5821719,-9.410527,1
46666587,4903,2.65,-5.23,-2.47,4.22,0.61,7.16,5.82,-0.1436663,0.3078326,-0.116673,-0.2943135,0.8997611,-9.162948,1
46785651,5126,2.97,-5.72,-4.15,4.5,2.47,7.14,4.86,-0.1956131,0.260443,-0.1372922,0.2486576,1.046393,-9.80435,1
46883184,5272,3.28,-5.94,-4.8,4.12,3.77,7.18,4.03,-0.09006304,0.1603653,-0.1187681,-0.3412444,0.6770754,-10.31774,1
46992856,5610,3.07,-5.72,-5.15,3.27,4.54,7.26,3.36,0.06391718,0.04019274,-0.07050478,-0.009375849,0.9936417,-9.978255,1
47114990,5471,2.58,-4.74,-4.76,2.81,4.05,7.31,2.93,0.1229362,-0.08077814,-0.05012644,-0.2031089,0.9458631,-9.636472,1
47214670,5516,3.24,-4.06,-4.02,2.37,3.24,7.34,2.79,0.1023877,-0.1948507,-0.0292675,0.01492517,0.5948932,-9.633369,1
47329181,5561,3.35,-3.68,-3.57,1.83,2.27,7.38,2.6,0.1002486,-0.06909905,-0.0352006,-0.1536891,1.328408,-9.780172,1
47433507,5633,3.52,-3.67,-2.95,0.92,2.28,7.43,2.38,0.1136448,-0.01840781,-0.03132373,-0.2504493,1.291784,-9.71998,1
47545553,5917,3.13,-3.66,-2.75,0.08,2.17,7.49,2.47,0.01556143,-0.03747271,0.04872491,-0.1867914,0.7052516,-9.8137,1
47656492,5754,3.13,-3.67,-2.93,-0.56,1.3,7.53,2.77,-0.1572776,-0.173336,0.04164411,-0.2055809,0.4281539,-9.877959,1
47761658,5711,3.24,-3.66,-3.25,-1.03,0.77,7.56,3.16,-0.07711037,-0.04875882,0.08271012,-0.297899,0.7458941,-9.842999,1
47869279,5682,2.61,-3.48,-3.51,-1.11,-0.11,7.57,3.68,-0.02118605,-0.1090802,0.0632726,-0.3014413,0.9626733,-9.25685,1
47973229,5459,2.76,-3.39,-3.14,-1.12,-0.73,7.57,4.12,0.07490454,-0.02168373,0.05577771,-0.1404269,0.7884676,-9.268699,1
48084165,5507,2.78,-3.22,-2.64,-0.97,-0.85,7.56,4.66,0.1139882,0.04860828,0.1025648,-0.2025756,0.8918608,-9.445573,1
48187487,5411,2.69,-3.28,-2.51,-0.82,-1.14,7.55,5.15,0.03508734,-0.04539407,0.05882192,-0.3699453,0.9227422,-9.409866,1
48305104,5344,2.9,-3.38,-3.13,-0.71,-1.23,7.54,5.45,-0.09791972,0.01756224,0.007296399,-0.2298661,0.8255666,-10.06096,1
48413524,5367,2.98,-3.4,-3.77,-0.5,-0.85,7.53,5.64,0.007959974,0.0920335,0.03183756,-0.3207817,1.105963,-10.06705,1
48519572,5321,2.39,-3.44,-3.35,-0.32,-0.8,7.52,5.96,0.06031598,-0.09926445,0.06049219,-0.2903675,0.8133482,-10.28564,1
48628013,5235,2.6,-3.38,-3.0,-0.16,-1.12,7.51,6.26,0.02685238,-0.02935531,0.04821717,-0.2952082,0.6507034,-10.05194,1
48730184,5314,2.44,-3.49,-2.8,-0.08,-1.12,7.51,6.35,0.04953114,-0.04496425,-0.0009009418,0.159651,0.831767,-9.674681,1
48841883,5333,2.82,-3.87,-2.55,0.39,-0.67,7.48,6.23,0.1109547,0.2138597,-0.04907645,-0.2059688,1.162961,-10.77463,1
48957000,5402,1.88,-3.93,-2.44,1.33,-0.36,7.41,5.85,-0.05143043,0.01890601,-0.07208168,-0.2568414,0.910341,-10.07313,1
49501205,5029,2.59,-7.27,-7.44,5.43,4.74,7.05,4.96,-0.08526849,-0.04993614,-0.02643788,0.2680928,1.016964,-9.801038,1
49721434,5218,2.29,-6.16,-6.67,5.83,2.85,7.0,4.17,0.146905,0.07375216,-0.07000539,-0.5686953,1.273213,-9.958577,1
49828845,5020,2.2,-5.91,-5.51,6.32,3.49,6.95,3.62,0.1538549,0.1643114,-0.02430544,-0.08176846,0.9171008,-9.83901,1
50051666,5361,2.12,-5.21,-3.47,5.18,4.49,7.06,3.89,0.1647424,-0.2790163,0.105401,0.2175571,0.5582032,-9.141919,1
50152920,5252,1.78,-5.57,-3.71,4.41,2.86,7.13,4.68,-0.02275589,-0.4368801,0.1226308,0.9003342,0.8183718,-9.31266,1
50274941,5051,1.81,-6.2,-4.43,4.03,0.4,7.17,5.78,-0.04611704,-0.1492217,0.1258843,-0.2199276,0.6849866,-9.684782,1
50378944,4903,2.02,-6.56,-4.98,3.83,0.15,7.19,6.59,0.014433,-0.1182304,0.1193395,0.05407646,0.8200955,-9.893972,1
50488441,5050,1.58,-6.73,-5.05,4.33,-0.3,7.13,7.33,0.07279012,-0.05832149,0.09357346,-0.3091246,0.6936761,-10.22456,1
50592146,4712,2.74,-6.67,-5.57,4.39,2.08,7.13,7.66,-0.0723308399999999,0.4852562,0.1225405,0.267902,1.871146,-10.23666,1
50691692,5159,2.34,-6.64,-5.79,4.42,3.52,7.12,8.0,-0.05360666,0.1145355,0.0642481699999999,0.6377008,0.6970216,-10.35569,1
50802217,5323,2.42,-6.3,-6.0,4.08,3.67,7.16,8.76,0.09173224,-0.2084699,0.119542,0.8533764,1.467923,-11.08403,1
50913439,5269,1.95,-5.76,-5.91,3.67,3.0,7.2,9.65,0.009681735,-0.1504933,0.1108511,0.4952861,1.512152,-10.61377,1
51023851,5120,2.07,-5.16,-5.7,3.7,2.46,7.2,10.35,0.03383907,0.01240262,0.07892471,0.4998987,1.325965,-10.99817,1
51136506,5014,2.04,-4.77,-5.31,3.8,3.06,7.19,10.99,0.05577227,0.09179241,0.1219539,0.4487895,0.5864131,-11.02813,1
51235939,5135,1.94,-4.36,-5.15,4.01,3.64,7.18,11.44,-0.03282003,0.2227717,0.09595117,0.5709822,1.035528,-9.782613,1
51349317,4829,2.03,-3.47,-5.31,4.02,4.2,7.17,11.41,-0.07378197,0.1446102,-0.04166351,0.360802,1.00219,-10.21041,1
51567987,4844,2.68,-1.6,-3.46,2.7,3.69,7.23,9.49,0.2876133,-0.153221,-0.2179066,0.362328,1.021829,-10.42131,1
51682541,5177,2.6,-0.61,-2.2,1.7,2.74,7.25,8.24,0.1974961,-0.1419978,-0.1761253,0.03402588,0.8813585,-9.774999,1
51895702,5106,2.57,-0.32,-1.34,0.31,1.16,7.26,6.49,-0.1100349,-0.0941486099999999,-0.1336104,0.3492726,0.8912508,-9.56592,1
52005697,5296,3.06,-1.51,-2.25,-0.25,0.86,7.26,5.48,-0.2771388,-0.03424563,-0.1587515,0.1573394,1.056169,-9.751615,1
52110545,5463,2.99,-2.45,-3.3,-1.27,0.49,7.3,4.86,-0.1471499,-0.09472136,-0.07551458,-0.01771041,1.141591,-9.70953,1
52216747,5632,3.19,-3.27,-4.43,-2.85,-0.24,7.38,4.75,-0.1168565,-0.1987874,0.03043042,0.2913846,1.136665,-9.424332,1
52330546,5724,3.03,-3.51,-5.11,-4.22,-1.39,7.46,5.25,0.09595439,-0.2381526,0.05815903,0.220619,1.380324,-9.788977,1
52428582,5669,2.74,-3.42,-4.78,-5.15,-2.91,7.52,5.84,0.09424885,-0.3001257,0.0855148,-0.07632603,1.105757,-9.638891,1
52654894,5567,2.76,-3.05,-3.22,-6.03,-4.39,7.57,7.4,0.05481801,0.06923615,0.1158586,-0.1821626,0.9283571,-10.483,1
52760106,5485,2.45,-3.15,-2.75,-5.8,-4.44,7.56,8.08,0.04990045,-0.03928763,0.1044501,0.01319766,0.4870653,-10.17435,1
52871272,5283,1.79,-3.18,-2.95,-5.47,-5.24,7.54,8.72,-0.003852672,-0.1275959,0.09099007,0.2061142,0.7194147,-10.16989,1
52976488,5048,1.86,-3.13,-3.67,-4.79,-6.08,7.5,9.13,-0.07863376,-0.0884413899999999,0.03201322,0.1348909,0.8078746,-10.17222,1
53085677,4870,2.02,-3.07,-4.23,-3.9,-5.67,7.45,9.21,-0.152717,0.1883253,-0.005018598,0.2059662,0.6097552,-9.700045,1
53199960,4886,2.99,-3.86,-4.69,-2.37,-2.94,7.36,8.92,-0.1605336,0.5495353,-0.0094549749999999,-0.1320925,0.6788208,-9.49554,1
53407230,5191,2.93,-5.36,-6.05,-1.24,1.01,7.27,8.65,-0.02793095,0.1661896,0.03136205,0.4202605,0.8763621,-10.01304,1
53516912,5461,2.54,-5.52,-5.91,-1.3,1.05,7.28,8.76,-0.008150746,0.04221233,0.01072746,-0.05658604,0.7297289,-9.99877,1
53625203,5314,2.55,-5.65,-5.84,-1.49,0.37,7.3,8.82,0.01177384,-0.09336601,-0.0337409,-0.1261603,0.8726885,-9.865109,1
53729016,5318,2.93,-5.81,-5.91,-1.7,0.23,7.32,8.85,0.04443651,0.02224735,0.02618705,-0.08712804,0.8345914,-9.816004,1
53847320,5508,2.9,-6.0,-5.74,-1.84,0.24,7.33,8.91,0.08566575,-0.06530365,0.01888133,0.1604839,0.9412182,-9.759686,1
53945118,5437,2.39,-6.18,-6.13,-1.87,0.1,7.34,8.94,-0.1501937,0.02258323,0.0180719,-0.1784065,0.8446739,-9.569031,1
54059528,5272,2.71,-6.15,-7.03,-2.0,0.1,7.35,8.85,-0.03966468,-0.1753244,-0.05638615,0.0709674,0.9169192,-9.927817,1
54163190,5304,2.77,-6.16,-7.02,-1.94,-0.09,7.35,8.76,-0.01431319,0.03659036,-0.02690075,-0.08183946,0.8744053,-9.912405,1
54283648,5413,2.7,-5.54,-6.54,-1.97,-0.53,7.35,8.72,0.1011937,-0.1247267,-0.02699677,0.06972411,0.7521567,-9.805881,1
54387413,5396,2.52,-4.74,-5.55,-1.76,-0.84,7.33,8.85,0.2193862,0.005777013,0.02744913,-0.05935982,0.8946297,-10.39274,1
54495902,5341,2.16,-3.83,-4.11,-1.32,-1.44,7.3,8.94,0.2378864,-0.1197774,0.01635993,-0.237824,0.8998054,-9.633393,1
54606239,5091,2.73,-3.2,-3.46,-0.95,-1.03,7.27,8.91,0.1083572,0.04496354,0.002495015,0.03979675,0.6102785,-9.606444,1
54706959,5201,2.49,-2.88,-3.32,-0.61,-0.18,7.26,9.01,0.02489334,0.1688123,0.04126088,0.1127724,0.7568075,-9.54383,1
54829232,5336,2.38,-2.75,-3.18,-0.41,0.18,7.25,9.26,0.0254511,-0.05126804,0.04730177,0.1528081,0.8237132,-9.513379,1
54931911,5279,2.48,-2.56,-3.38,-0.3,-0.1,7.24,9.41,-0.005730079,0.02440956,0.01335955,-0.05442692,0.8624036,-9.509432,1
55045497,5042,1.97,-2.34,-2.95,-0.2,-0.28,7.24,9.5,0.04556274,-0.04677684,0.009074804,0.01294158,0.619176,-9.398431,1
55155930,5046,2.25,-2.14,-2.89,0.02,-0.19,7.23,9.55,-0.03260124,0.08917165,0.01631285,-0.1080045,0.6758396,-9.510873,1
55273128,4900,2.08,-2.0,-2.89,0.3,-0.36,7.22,9.6,0.003513369,-0.08204494,-0.01702181,-0.0113297,0.7485625,-9.455297,1
55490649,4897,2.08,-1.78,-2.7,1.67,0.74,7.17,9.64,0.01710012,0.1989763,0.04183974,0.2432351,0.7279271,-9.37881,1
55600651,4845,1.95,-1.76,-2.64,2.76,2.12,7.14,9.6,-0.116128,0.2637968,-0.01289918,0.07564551,0.8240513,-9.661838,1
55704687,4881,1.77,-1.82,-2.84,3.77,3.03,7.11,9.27,-0.04652528,0.1488826,-0.07009245,0.2226183,0.5593122,-9.308832,1
55808494,4849,2.42,-1.78,-3.41,4.82,3.6,7.07,8.68,0.02151119,0.1493054,-0.1078823,-0.1954901,0.6294646,-9.853586,1
55917645,4965,2.99,-1.59,-3.38,5.42,5.41,7.06,8.06,0.04241134,0.2388213,-0.0337006,0.3073805,0.5791235,-10.57291,1
56027997,5364,2.66,-1.05,-2.69,5.71,6.1,7.05,8.09,0.1732407,0.1095589,0.06153199,0.2988972,0.6834415,-10.12655,1
56132473,5243,2.52,-0.64,-1.87,5.41,6.53,7.05,8.73,0.1938783,-0.01339997,0.1318803,0.1117261,0.7033103,-10.43345,1
56356929,5255,1.7,0.57,0.12,4.33,4.87,7.05,11.56,0.1569537,-0.1716169,0.1966137,0.3338451,0.2801101,-10.03216,1
56462645,4789,1.4,0.6,0.11,4.02,3.75,7.05,12.8,-0.08407479,-0.1861508,0.1770873,0.07981636,0.3070706,-10.31033,1
56578847,4395,1.19,0.44,-0.93,3.85,3.81,7.05,13.82,-0.090045,-0.1121645,0.1174433,0.3385612,0.4758635,-9.779313,1
56687978,4287,1.3,0.22,-2.1,3.79,3.57,7.05,14.26,0.01534161,-0.1921297,-0.003298814,0.4522091,0.278601,-9.520213,1
56797091,4184,1.91,0.33,-3.42,3.68,3.38,7.05,13.95,0.1727439,-0.05746384,-0.1193738,0.4392406,0.602863,-9.265152,1
56900385,4331,1.82,0.53,-3.4,3.57,3.3,7.05,13.25,0.05566953,-0.1048569,-0.1247144,0.1952349,0.9609324,-10.36592,1
57117398,4515,1.93,1.55,-0.99,3.11,2.56,7.04,11.15,0.02332892,-0.0518744,-0.1688919,-0.0329229,-0.03182378,-9.785736,1
57229531,4660,1.96,2.18,-0.16,1.71,1.94,6.99,9.96,0.1546595,-0.2215129,-0.2332969,0.1789524,0.1113593,-9.539151,1
