TimeUS,RPM,Curr,DesRoll,Roll,DesPitch,Pitch,DesYaw,Yaw,GyrX,GyrY,GyrZ,AccX,AccY,AccZ,Guasto
0,3411,2.95,0.3,1.04,-0.22,0.88,11.69,11.74,-0.1855481,-0.01919055,-0.001543681,0.02361099,-0.1429128,-9.878959,1
106051,4155,4.28,0.2,1.05,-0.33,1.1,11.69,11.84,0.07772373,0.0652104,0.03009625,0.3931154,0.2309764,-10.32497,1
220786,5302,5.64,-0.15,1.45,-0.29,0.74,11.69,12.31,0.1060339,0.004737833,0.1251392,0.246357,0.5936413,-12.62406,1
328097,6127,5.49,-0.92,2.17,-0.29,0.39,11.69,13.32,0.08910104,-0.07029752,0.1925804,-0.07806762,0.2510866,-13.215,1
440743,6681,5.49,-2.16,2.5,0.0,-0.29,11.68,14.54,-0.05629276,-0.1574366,0.1766557,0.1853015,0.4070351,-13.25677,1
545334,6641,5.39,-3.56,1.63,0.51,-0.38,11.65,15.75,-0.2671985,0.04536775,0.180631,0.3054093,0.1396315,-12.3928,1
654836,6814,5.96,-5.37,-0.13,1.07,0.36,11.61,16.85,-0.2759549,0.156114,0.1670675,0.1717104,0.5491196,-12.15721,1
776510,6812,5.69,-7.73,-2.6,1.42,1.1,11.57,18.22,-0.3679152,0.007988963,0.2141181,0.4843314,0.5710886,-11.2733,1
885285,6810,5.69,-9.56,-4.88,1.65,1.59,11.53,19.38,-0.2907299,0.1210213,0.1436391,-0.05580766,0.8778243,-11.27771,1
993210,6920,5.48,-10.8,-7.1,1.41,2.67,11.58,19.88,-0.3130743,0.09262952,0.08832147,0.2072629,0.7899578,-10.45832,1
1101752,6982,6.24,-11.79,-8.3,1.06,2.75,11.62,20.22,-0.09420294,-0.02963303,0.04418992,0.2181683,0.9003242,-10.49358,1
1203794,6956,5.96,-12.52,-9.02,0.75,2.3,10.32,20.5,-0.1477543,-0.1418688,0.008332908,0.2965433,0.7493852,-10.64736,1
1311316,6950,6.04,-12.83,-10.19,0.69,1.71,7.74,20.19,-0.2200773,0.0478842,-0.1154875,0.01248681,0.6786936,-10.20253,1
1415996,7054,5.9,-12.71,-10.8,0.83,1.84,4.74,19.11,-0.04121138,0.06240489,-0.2419596,0.3754109,0.870562,-9.649902,1
1522034,6971,6.47,-12.18,-10.44,1.15,2.62,0.75,16.82,0.1798268,0.1822845,-0.415441,0.2137174,1.09689,-9.431446,1
1964810,6876,3.86,-9.31,-6.6,3.63,6.23,351.43,3.14,0.04569907,0.0655742899999999,-0.7051131,-0.2123972,1.04292,-8.750273,1
2078199,6283,4.09,-8.62,-5.71,3.9,5.92,351.37,358.68,0.1824164,0.02984119,-0.5546271,-0.197789,0.7504246,-9.034138,1
2178638,6267,3.56,-8.09,-5.57,3.18,5.72,351.53,355.75,0.03861147,-0.0345597,-0.3982003,-0.01846385,0.845085,-8.955162,1
2284966,6078,3.24,-7.36,-5.64,1.42,4.53,352.93,354.19,0.09043508,-0.3682601,-0.2245428,0.06117449,1.137288,-9.036933,1
2401970,5915,3.55,-6.65,-5.03,-0.19,1.85,354.3,353.71,0.1780931,-0.3581382,-0.03550486,0.02828269,1.246223,-9.278928,1
2502316,5787,3.73,-6.76,-3.92,-1.19,-0.16,354.75,353.61,0.05354578,-0.2212339,0.03048461,-0.09839154,0.9603322,-9.956537,1
2712628,5969,3.79,-8.17,-5.13,-0.87,-1.07,354.82,353.46,-0.2391191,0.1650099,0.1138694,-0.3011469,0.9919983,-9.263971,1
2829762,5880,3.99,-9.02,-6.65,0.11,0.27,354.67,353.84,-0.2295555,0.3258032,0.191532,-0.04781361,1.37284,-9.274518,1
2943579,6020,3.86,-9.29,-7.45,0.55,1.18,354.6,354.57,-0.0995862899999999,0.0711645999999999,0.1821716,0.00695385,1.331223,-8.92586,1
3044407,6092,4.26,-8.97,-7.72,-0.24,1.92,354.72,356.73,0.04716074,-0.06034814,0.1606984,0.1738254,1.156486,-8.642118,1
3151794,6174,4.8,-8.1,-7.23,-1.78,1.07,354.96,359.04,0.1537482,-0.4100849,0.1751039,-0.108218,1.177699,-9.713673,1
3269765,6460,5.26,-7.22,-5.96,-3.38,-1.11,355.17,0.96,0.2404499,-0.3682652,0.1583602,-0.2673958,0.827363,-9.518991,1
3381645,6500,4.4,-6.69,-5.4,-4.12,-2.86,355.26,1.72,-0.002478392,-0.1406868,0.03668579,-0.3713689,1.027054,-9.242205,1
3478546,6507,4.29,-6.31,-5.78,-3.96,-3.28,355.24,1.11,-0.0712312799999999,0.1539839,-0.005727674,-0.4256896,1.191818,-8.876204,1
3595782,6268,4.59,-6.17,-5.53,-3.46,-2.49,355.19,0.26,0.08326163,0.1323111,-0.06070802,-0.160938,0.9464222,-8.998409,1
3703500,6379,4.16,-5.6,-5.08,-3.15,-1.47,355.16,359.74,0.1425112,0.05575666,-0.01963661,-0.139718,0.9720249,-9.273582,1
3811712,6327,4.26,-5.8,-4.6,-3.23,-1.33,355.16,359.6,0.04194866,-0.00297755,-0.01891189,-0.0822637799999999,0.5940794,-9.002461,1
3919018,6308,4.04,-7.03,-5.86,-3.18,-1.54,355.16,359.72,-0.2543616,-0.05776439,-0.01268652,-0.4329131,0.4635665,-8.9001,1
4029277,6196,4.01,-8.38,-8.05,-2.93,-1.06,355.12,359.88,-0.3938341,0.1203374,0.05038514,-0.003499521,0.6502746,-8.696095,1
4145235,6105,3.93,-9.15,-10.19,-2.35,-0.42,355.03,0.06,-0.2012807,0.04320693,0.04456913,-0.1469295,0.8088091,-8.98448,1
4243721,6069,4.14,-8.72,-10.43,-2.09,-0.28,355.0,359.56,0.2020917,-0.1286618,0.01236139,-0.08327749,1.068079,-8.867496,1
4347744,6242,4.07,-7.59,-9.05,-2.04,-0.67,354.99,359.17,0.3768864,-0.008614681,0.01295192,-0.3410818,0.9467149,-9.028378,1
4564686,6242,4.4,-3.24,-3.12,-1.1,-1.23,354.92,0.55,0.5228076,0.0824609199999999,-0.000348535,-0.1666159,0.5161977,-9.195535,1
4674369,6318,4.62,-1.96,-0.64,-0.06,-0.52,354.87,0.71,0.3187834,0.1429805,-0.04129985,-0.1743568,0.4034946,-9.115758,1
4775659,6349,4.03,-1.24,-0.42,0.54,0.57,354.92,0.31,-0.01252812,0.1667097,-0.08925943,-0.1755404,0.6017995,-9.088198,1
4892542,6208,3.72,-0.66,-1.03,0.34,1.68,355.95,359.63,-0.1023559,0.000344779,-0.07547593,-0.07478479,0.7145944,-9.387158,1
4996230,6007,4.24,-0.29,-0.8,-0.24,1.28,356.91,359.65,0.06217666,-0.161464,0.0474251,-0.1345492,0.7128874,-9.650208,1
5109218,6157,4.22,0.0,-0.31,-1.1,-0.09,356.92,0.05,0.03096355,-0.2250635,0.09330904,-0.4978189,0.9454888,-9.811643,1
5210543,6162,4.54,0.07,0.04,-1.36,-1.02,356.93,0.51,0.01133241,-0.05798519,0.1092721,-0.4143889,0.7813737,-9.919735,1
5323562,6275,4.26,-0.02,0.2,-1.2,-1.22,358.24,0.96,-0.007614605,0.0699898999999999,0.09781982,-0.5369729,0.5111242,-10.1769,1
5430255,6344,4.1,-0.14,-0.08,-1.16,-0.86,359.6,1.75,-0.05790221,0.02237945,0.1883956,-0.2596437,0.5367439,-9.898229,1
5542039,6141,4.2,-0.32,-0.59,-1.14,-0.57,0.91,3.08,-0.09865028,-0.0137337,0.2269928,-0.2768957,0.4361071,-10.13309,1
5655747,6001,4.54,-0.28,-0.86,-1.24,-0.65,1.47,4.38,-0.02016069,-0.02479464,0.1993398,-0.3106501,0.4988529,-10.14636,1
5756315,6025,4.58,-0.1,-0.81,-1.34,-0.94,1.89,5.35,0.03407651,-0.06534192,0.1784409,-0.1860544,0.5522637,-10.0455,1
5861108,6231,4.92,0.01,-0.7,-1.66,-1.05,1.89,6.27,-0.004622349,-0.01263915,0.1123298,0.05027935,0.2888315,-10.32841,1
5977734,6447,4.43,0.02,-1.02,-1.86,-1.96,1.89,6.88,-0.1424003,-0.06086325,0.01309468,-0.4096039,0.4687419,-9.834938,1
6079946,6239,4.39,0.15,-1.51,-1.98,-2.19,1.89,6.7,-0.05476696,-0.02461602,-0.02725874,-0.3484395,0.5726296,-9.59782,1
6190963,6191,4.55,0.29,-1.41,-1.97,-2.09,1.89,6.2,0.05090799,-0.03370244,-0.0845299,-0.1263857,0.6796216,-9.631374,1
6301874,6291,4.56,0.54,-0.63,-1.82,-2.01,1.9,5.34,0.163167,0.0081368499999999,-0.1461139,-0.4283647,0.3604814,-10.09888,1
6418712,6344,3.78,0.67,-0.1,-1.81,-1.59,3.7,4.23,0.01774618,0.1272989,-0.1179311,-0.4996896,0.403895,-10.18657,1
6520109,6176,3.24,0.6,-0.23,-1.92,-1.27,5.87,4.03,-0.02485677,0.05014588,0.0515828,-0.302455,0.5240623,-9.870883,1
6635775,5815,3.92,0.47,-0.29,-1.98,-1.0,6.25,4.49,0.05538574,-0.02930764,0.1443412,-0.1676238,0.7596873,-9.900219,1
6742356,5965,3.91,0.3,-0.31,-1.8,-0.89,6.25,5.02,-0.005846883,0.04288395,0.1736081,-0.1774259,0.6881846,-9.98422,1
6844288,5938,4.29,-0.03,-0.21,-1.58,-1.2,6.45,5.82,-0.03034204,-0.09500859,0.1813157,-0.2698112,0.4443328,-9.713565,1
6957267,6259,3.72,0.36,-0.18,-2.37,-1.45,8.16,7.09,0.07811379,-0.09808448,0.2629466,-0.06527794,0.8344095,-9.913154,1
7064971,5986,4.17,1.05,0.52,-3.62,-2.78,9.25,9.15,0.1762283,-0.2786607,0.3500562,-0.1735888,0.6994196,-10.1776,1
7176754,5887,4.62,1.33,0.99,-4.37,-3.86,9.24,11.59,0.1204841,-0.1338318,0.3281273,-0.3246664,1.011376,-10.18801,1
7288562,6198,5.22,0.88,1.29,-4.52,-4.57,9.24,13.59,0.04258125,-0.1424533,0.2019091,-0.2583621,0.5333212,-10.0749,1
7387533,6489,5.54,-0.54,0.63,-4.04,-4.53,9.24,14.82,-0.2597104,0.1558266,0.132643,-0.3858066,0.2351411,-10.4849,1
7600528,6740,4.86,-6.26,-6.14,-2.26,-1.7,9.14,15.33,-0.5503093,0.1813787,0.003169696,-0.07135316,0.8497265,-9.862901,1
7719589,6512,4.89,-8.07,-8.63,-1.86,-0.81,9.09,14.67,-0.227354,0.0961207,-0.04792626,-0.3024361,0.8300081,-10.2026,1
7819330,6494,4.8,-8.75,-9.31,-1.78,-0.86,9.08,13.86,0.03755775,-0.1142077,-0.1103867,-0.2543914,1.072002,-10.09007,1
7932783,6366,4.45,-8.95,-9.0,-1.71,-0.97,9.06,12.81,0.04445192,0.06627996,-0.09987026,-0.3754826,0.8500925,-10.12661,1
8037404,6447,4.65,-8.85,-8.6,-1.55,-1.14,9.04,12.16,0.1599963,0.02162286,-0.0711349399999999,-0.1276136,1.007049,-9.709838,1
8155582,6333,4.4,-9.04,-7.96,-1.4,-0.82,9.02,11.87,-0.004154637,0.0715456399999999,-0.01291734,-0.2015939,0.8620047,-10.01751,1
8475343,6400,4.63,-7.79,-7.28,0.11,0.6,8.79,11.35,0.1512869,0.3329543,0.0002324606,-0.5070301,0.7819004,-9.832422,1
8580114,6411,4.41,-6.84,-6.33,0.62,2.07,8.73,11.17,0.1547955,0.1616689,-0.02887816,-0.03635328,0.5943888,-9.668962,1
8695629,6349,4.48,-5.76,-5.04,0.54,1.76,8.73,10.97,0.1990391,-0.0844702799999999,-0.003472179,-0.4590573,0.7767503,-9.641167,1
8797215,6265,3.61,-4.9,-4.73,-0.48,1.28,8.83,10.87,-0.06353356,-0.2231563,0.02393776,-0.07453874,0.621849,-9.746628,1
8908333,6195,4.5,-3.88,-4.31,-1.21,-1.04,8.89,11.01,0.2011455,-0.3860638,-0.0004073087,-0.4907073,0.9960589,-9.311498,1
9022143,6147,4.63,-3.19,-3.51,-1.86,-1.89,8.93,11.33,0.08305143,0.01112164,0.04735375,-0.345843,0.7737592,-9.607366,1
9118542,6482,4.61,-2.7,-3.2,-1.9,-1.78,8.93,11.65,0.06654944,0.06663747,-0.001458606,-0.425001,0.8886911,-9.986238,1
9228993,6389,4.79,-2.33,-2.62,-1.73,-1.2,8.92,11.6,0.1021527,0.239929,-0.02238475,-0.544623,0.9468318,-10.21287,1
9346205,6466,4.33,-1.93,-2.08,-2.19,-0.53,8.94,11.25,0.002042497,-0.02647034,-0.04737041,-0.2155404,0.8928901,-10.02439,1
9450786,6295,4.34,-1.71,-2.24,-2.89,-1.33,8.96,10.97,-0.01142864,-0.2249114,-0.07142406,-0.2313403,0.8480285,-9.576999,1
9568023,6207,4.56,-1.84,-2.13,-3.62,-2.94,8.98,10.73,0.05596247,-0.2660427,-0.05951081,-0.6624507,0.6512418,-9.674585,1
9790915,6283,4.42,-1.87,-1.88,-2.7,-2.95,8.95,10.41,-0.02266739,0.1372829,-0.0138913,-0.4093453,0.6933472,-10.03784,1
9887629,6259,4.45,-1.83,-2.06,-1.89,-2.2,8.93,10.35,-0.03243321,0.0685735,0.009655093,-0.09273954,0.8291994,-9.713546,1
9997526,6288,4.37,-1.82,-2.01,-1.27,-1.73,8.91,10.04,0.05198899,0.04263151,-0.0747950399999999,-0.1175649,0.8635711,-9.70115,1
10103974,6366,4.34,-1.82,-1.57,-0.96,-1.34,8.9,9.49,0.03786991,0.06709442,-0.09960511,-0.3095429,0.5099777,-9.748036,1
10208079,6307,3.87,-1.37,-1.31,-1.63,-1.12,8.92,9.07,0.1386515,-0.1115417,-0.05596672,0.02539419,1.001287,-9.656853,1
10322932,6172,4.15,-0.04,0.28,-2.09,-1.87,8.92,8.78,0.2812136,-0.08811887,-0.02316622,-0.3687097,0.7032149,-10.12433,1
10429347,6180,3.62,0.92,1.72,-2.43,-2.36,8.92,8.76,0.1502891,-0.02616425,0.002948811,-0.2060693,0.6097872,-9.728046,1
10536559,6072,3.83,1.53,1.79,-2.52,-2.33,8.92,8.95,-0.08548678,0.1000256,0.06154796,-0.5624518,0.4055406,-9.828684,1
10645324,6098,4.12,1.72,1.6,-2.66,-2.28,8.91,9.63,-0.02836458,-0.1086062,0.1079039,-0.01957568,0.9065853,-8.991607,1
10758108,6089,4.49,1.56,1.7,-2.64,-2.88,8.91,10.32,0.02298807,-0.0439126,0.07977345,-0.5443459,0.712101,-9.893463,1
10863556,6289,4.64,1.21,1.48,-2.47,-2.95,8.92,10.89,-0.03121679,-0.0091136329999999,0.1285531,-0.2241927,0.8368104,-9.442812,1
11075099,6328,4.88,0.22,0.77,-1.0,-2.91,8.93,12.22,-0.09472424,0.1404729,0.1628596,-0.3000757,0.7336864,-9.770653,1
11183154,6400,4.79,-0.37,0.42,-0.21,-1.94,8.93,13.1,-0.1219772,0.09837455,0.11438,-0.164828,0.4372151,-9.950751,1
11301115,6432,4.98,-1.13,-0.3,0.35,-0.63,8.93,13.89,-0.08380962,0.1237575,0.03533607,0.03172364,0.6323578,-9.95122,1
11415269,6497,4.72,-2.52,-1.67,0.64,-0.26,8.92,14.16,-0.2225732,0.05383982,-0.005382533,-0.2735621,0.6405734,-9.676787,1
11515188,6471,4.83,-3.31,-3.15,0.03,0.42,8.95,14.13,-0.2409413,0.03123321,-0.02542906,0.09545062,0.6807463,-9.700594,1
11628984,6473,4.97,-3.65,-4.14,-1.09,-0.72,9.02,13.83,-0.01673894,-0.1731697,-0.0966916,-0.196093,0.8662385,-9.697102,1
11739287,6494,4.76,-3.74,-4.1,-1.26,-1.46,9.03,13.15,0.009824607,-0.06684253,-0.1239425,-0.2613398,0.6119165,-10.26176,1
11845783,6400,4.54,-3.72,-3.86,-1.1,-1.14,9.02,12.36,0.05479992,0.1432298,-0.08861285,-0.2455593,0.7513988,-10.10322,1
11958355,6226,4.05,-3.73,-3.79,-0.76,-0.85,9.0,11.86,0.01374535,-0.007223958,-0.01041795,-0.172517,0.6585423,-9.555372,1
12060958,6215,4.45,-3.71,-3.97,-0.4,-0.9,8.98,12.02,-0.00861538,0.0976119399999999,0.02066673,-0.2118465,0.7479796,-9.404664,1
12177986,6238,4.26,-3.76,-3.79,-0.2,-0.8,8.96,11.95,-0.03768304,0.04430336,-0.02246901,-0.008917008,0.5444704,-9.926914,1
12284013,6207,4.4,-3.84,-3.73,0.12,-0.69,8.94,11.87,0.04440352,0.07501627,0.001823011,-0.1841046,0.8212699,-9.77978,1
12385308,6316,4.47,-4.01,-3.44,0.4,-0.63,8.92,11.96,0.02861525,0.00518885,0.0266496,-0.1084152,0.7173716,-9.495168,1
12502577,6423,4.38,-4.19,-2.99,0.78,-0.82,8.89,12.23,0.07101589,0.02608137,0.01558358,-0.2221325,0.5937419,-9.49788,1
12610797,6182,4.44,-4.35,-3.17,0.89,-0.56,8.89,12.26,0.002201125,0.02470801,0.0080768179999999,-0.01589779,0.8905693,-9.676628,1
12715631,6325,4.36,-4.56,-3.72,0.98,0.15,8.88,12.18,-0.008002295,0.195996,-0.008990846,0.1399762,0.9792163,-9.365493,1
12826582,6280,4.41,-4.95,-3.54,0.7,0.48,8.9,11.95,-0.05324264,0.00435269,-0.05469241,0.1228628,0.5060592,-9.598669,1
12937078,6219,4.09,-5.15,-4.16,-0.39,0.11,9.0,11.76,-0.1117769,-0.1456668,-0.009979778,0.2319553,1.107701,-9.112371,1
13047747,6124,4.26,-5.66,-4.46,-1.43,-1.2,9.1,11.5,-0.08482998,-0.1591837,-0.07472881,-0.1345135,0.7591823,-9.283481,1
13154535,6225,4.01,-5.93,-4.81,-2.2,-2.58,9.18,11.14,-0.0669665599999999,-0.2748536,-0.10683,-0.06032475,0.8917506,-9.280127,1
13260621,6190,4.04,-6.06,-5.52,-2.75,-3.73,9.23,10.47,-0.1575372,-0.06170709,-0.1325608,-0.496309,0.7595966,-9.383233,1
13366084,6239,3.8,-6.17,-5.86,-3.26,-4.07,9.29,9.8,-0.08358148,-0.07640693,-0.1203734,-0.129205,0.8110167,-9.491785,1
13588196,6084,4.07,-5.92,-5.13,-3.72,-3.79,9.34,9.09,0.03885599,0.1146448,0.001700743,-0.2852091,0.84037,-9.889889,1
13697296,6085,3.99,-5.74,-4.87,-4.09,-3.44,9.38,9.11,-0.02786805,0.04580227,0.007831384,0.02447735,0.913164,-9.507396,1
13808414,6278,4.3,-5.5,-4.91,-4.47,-3.79,9.41,9.44,0.08580349,-0.09482624,0.07344145,-0.2971752,0.9177365,-9.77534,1
13910504,6186,4.4,-5.42,-4.79,-4.82,-3.98,9.45,9.91,0.0397375,-0.03045157,0.06045666,-0.2281742,0.7914881,-9.711473,1
14027265,6279,4.19,-5.16,-4.92,-5.42,-4.1,9.5,10.27,-0.06114054,0.01595013,0.04098839,-0.2330131,0.7223235,-10.15391,1
14139297,6219,4.34,-4.78,-5.05,-6.38,-4.71,9.59,10.35,-0.02079418,-0.1422147,0.01634183,-0.3627909,0.6293386,-10.0415,1
14239880,6132,4.49,-4.58,-4.82,-7.1,-5.74,9.65,10.65,0.09131992,-0.1951026,0.03129556,-0.2939514,0.9352627,-9.67262,1
14350329,6258,4.56,-4.54,-4.04,-7.61,-6.93,9.69,11.07,0.1319035,-0.1577536,0.06359408,-0.2269398,0.7158176,-9.521454,1
14461089,6278,4.47,-4.56,-3.91,-7.57,-7.67,9.68,11.4,0.02084558,-0.0816545,0.02093572,-0.2600493,1.264473,-9.96211,1
14562181,6359,4.68,-4.76,-3.77,-7.48,-7.6,9.68,11.46,0.01955142,0.1321461,-0.02820668,-0.4923263,1.06164,-10.26915,1
14671291,6424,4.22,-5.0,-3.59,-7.27,-7.49,9.66,11.23,0.03128764,0.06054458,-0.02632397,-0.4555033,0.9432554,-9.918327,1
14782126,6339,4.1,-5.2,-4.04,-7.21,-7.08,9.65,10.77,-0.06579607,0.08072268,-0.09314375,-0.4993991,0.9382948,-9.803908,1
14893732,6288,4.02,-5.38,-4.8,-7.28,-6.6,9.66,10.13,-0.1686088,-0.02278695,-0.1178322,-0.3450658,0.900575,-9.588974,1
14998953,6335,4.05,-5.45,-5.16,-7.26,-6.47,9.66,9.55,-0.09863052,0.09508581,-0.120386,-0.4793667,0.9329709,-9.406682,1
15115808,6180,3.99,-5.33,-5.14,-7.29,-6.23,9.66,9.14,0.03630744,0.001656387,-0.0668821899999999,-0.4157012,0.9527716,-9.755213,1
15216205,5992,4.11,-5.15,-4.94,-7.06,-6.12,9.64,8.93,0.01612874,0.08342785,-0.04393402,-0.5347089,1.056566,-9.577592,1
15327410,6100,3.64,-4.78,-5.12,-5.93,-5.16,9.54,8.66,-0.03109591,0.2647238,-0.01080394,-0.7280732,0.9726855,-9.778424,1
15440335,6103,3.89,-4.37,-5.26,-4.24,-2.97,9.4,8.69,-0.01336114,0.3500034,0.02620061,-0.5327132,0.6063972,-9.530388,1
15554047,5963,3.8,-3.42,-5.06,-3.03,-0.87,9.32,8.85,0.0671441599999999,0.3253951,0.03575377,-0.3698978,0.8783391,-9.636143,1
15656558,5920,3.87,-2.37,-4.01,-2.25,0.25,9.28,8.91,0.2669258,0.08305576,0.03729054,-0.5049701,1.19938,-9.498524,1
15774350,6021,4.13,-1.57,-2.19,-2.07,0.38,9.27,9.0,0.2450663,-0.02728441,0.03326572,-0.5111449,0.8418692,-9.651948,1
15872756,6129,3.98,-0.97,-1.31,-2.09,0.1,9.27,9.02,0.06016236,-0.05686321,0.007676609,-0.4262415,0.2517428,-9.955115,1
15987007,6153,3.86,-0.17,-0.52,-2.09,-0.46,9.27,9.17,0.1284657,-0.0697070999999999,0.01340637,-0.5380326,0.6911396,-9.628065,1
16089058,6111,3.85,0.53,-0.25,-1.93,-0.55,9.27,9.31,0.02928718,0.05101775,0.01176424,-0.5697694,0.7266695,-9.617811,1
16193797,6043,4.05,1.0,0.03,-1.71,-0.36,9.28,9.46,0.03596764,0.07006975,0.03427583,-0.4200867,1.025511,-9.511435,1
16314990,6105,4.64,1.08,0.71,-1.62,-0.23,9.28,9.5,0.1186246,0.01716089,0.02069571,-0.369701,0.5193335,-9.874665,1
16523035,6172,4.61,1.27,1.57,-1.72,-0.91,9.28,9.68,0.08891467,-0.2095407,0.0188705,-0.3661085,0.7832953,-10.23462,1
16634657,6248,4.97,0.95,2.28,-1.4,-2.44,9.28,9.79,0.1273167,-0.1461599,0.002300473,-0.7030662,0.9288141,-10.29403,1
16749393,6405,4.48,0.38,2.12,-0.95,-2.57,9.29,9.82,-0.1796878,0.1421431,0.02012208,-0.3406713,0.5291787,-10.28426,1
16960086,6457,4.88,-1.87,-0.37,0.63,-1.3,9.28,10.42,-0.3281232,0.1432027,0.07370713,-0.01224004,0.4129059,-10.12776,1
17067533,6483,4.73,-3.95,-2.68,1.2,-0.42,9.25,10.72,-0.4561753,0.1927204,0.01596659,-0.2911896,0.4039448,-10.46098,1
17182600,6428,4.75,-5.76,-5.92,1.44,0.51,9.23,10.9,-0.3747137,0.1187585,0.01017971,-0.2141039,1.061438,-10.09137,1
17285589,6426,4.77,-6.57,-7.3,1.44,0.79,9.23,10.97,-0.153018,-0.05134595,0.00325288,-0.3763149,0.7545842,-10.46089,1
17399836,6382,4.72,-6.95,-7.73,1.35,0.83,9.24,10.99,-0.01764151,-0.1029708,-0.006205328,-0.3371591,0.7011582,-10.36653,1
17507635,6314,4.62,-7.07,-8.11,1.21,0.84,9.26,10.95,-0.02335438,-0.03021992,-0.01582274,-0.08665539,1.222677,-9.685523,1
17612234,6330,4.9,-7.16,-7.77,1.22,0.82,9.26,11.0,0.1536409,-0.04240455,0.0300703,-0.08475587,0.9647288,-9.846868,1
17732343,6442,4.89,-7.21,-7.11,1.49,0.44,9.22,11.33,0.08714267,-0.07798545,0.06398276,-0.2338325,0.759006,-10.46403,1
17836254,6443,4.62,-7.25,-6.74,1.79,0.31,9.18,11.54,0.04703891,-0.02584055,-0.00319083,-0.1908162,0.8893304,-10.04349,1
17941083,6465,4.26,-7.29,-6.95,2.04,0.58,9.15,11.31,-0.1033832,0.1165397,-0.04276666,-0.08294939,0.902407,-9.836174,1
18053058,6333,4.21,-7.17,-7.59,2.21,1.19,9.13,10.81,-0.08188714,0.07072108,-0.03450719,-0.1734821,0.8531141,-9.054128,1
18167661,6231,4.84,-7.1,-7.65,2.29,1.94,9.12,10.52,0.09512558,0.1750915,0.01474858,-0.06287038,0.6830099,-9.75227,1
18273667,6380,4.66,-6.68,-7.54,2.17,2.64,9.14,10.52,0.05308397,0.1017845,0.008270806,-0.01522282,0.9172527,-10.00902,1
18380550,6312,4.46,-6.08,-7.21,1.94,2.53,9.16,10.68,0.1085353,-0.08749326,0.02652058,-0.009938193,0.9913569,-9.779634,1
18493393,6273,4.22,-4.78,-5.67,1.71,1.76,9.18,11.01,0.278891,-0.1030424,0.0507639,0.1747586,0.7703897,-9.540634,1
18599274,6286,4.07,-3.72,-3.87,1.8,0.74,9.18,11.23,0.284494,-0.1350605,0.02611681,0.01930802,0.6463013,-9.127436,1
18711556,5997,3.78,-3.36,-2.64,2.06,0.34,9.16,11.2,0.03274322,-0.007311558,-0.04470465,-0.3535819,1.129477,-8.822097,1
18815326,6158,4.14,-3.7,-2.52,2.27,1.02,9.15,10.92,-0.1822965,-0.06529354,-0.06967376,0.09521641,0.97312,-10.10003,1
18925732,6209,3.58,-4.38,-3.21,2.76,0.94,9.11,10.55,0.0573418,0.0452635,-0.07133637,0.1221228,1.196425,-8.541575,1
19034454,5992,4.26,-5.21,-4.38,3.24,1.7,9.07,9.83,-0.07622083,0.1560973,-0.1139138,-0.02938431,1.162936,-9.137175,1
19150772,6086,3.95,-4.81,-4.85,3.66,3.0,9.04,9.12,0.1348009,0.2136584,-0.09457163,-0.02000928,1.307705,-9.847422,1
19247613,5974,4.32,-4.15,-3.71,4.25,4.02,8.99,8.72,0.2715223,0.1437542,-0.005580965,-0.1829904,1.074916,-9.999125,1
19354279,6173,4.37,-3.25,-1.81,4.73,4.61,8.96,8.78,0.2836787,0.03742456,0.03180726,0.1133957,0.8010322,-10.39899,1
19463264,6304,4.72,-2.76,-0.93,4.57,4.28,8.97,8.94,0.07158551,-0.0918385,0.04653183,0.05820939,1.239095,-10.03152,1
19573591,6387,4.81,-2.54,-0.79,3.64,3.26,9.01,9.32,-0.009111486,-0.2685014,0.05849623,-0.000523249,0.9808283,-10.2057,1
19693564,6480,4.81,-1.27,-0.36,2.24,2.16,9.06,10.25,0.1969996,-0.1988379,0.1137268,-0.1560672,1.201339,-10.71618,1
19798055,6447,5.27,0.29,1.1,1.42,0.93,9.07,10.96,0.3636934,-0.2254928,0.1025735,-0.2065426,1.072193,-10.33454,1
19908222,6522,5.3,1.5,2.78,0.92,0.18,9.06,11.47,0.224793,-0.1377053,0.0836022,-0.206205,0.8487072,-10.42106,1
20018766,6606,5.09,2.17,3.55,0.82,0.0,9.06,11.87,0.01786483,0.03493402,0.06956892,-0.2594313,0.7322913,-10.27808,1
20128973,6681,5.23,2.54,3.38,0.86,0.3,9.06,12.23,-0.07149794,0.08216732,0.08153509,-0.04953853,0.8030136,-10.08758,1
20234112,6659,4.91,2.72,2.75,0.9,0.53,9.06,12.42,-0.1484372,0.0777799,0.03899229,-0.1290146,0.7996708,-9.794725,1
20340784,6699,5.15,2.88,2.33,0.84,0.67,9.06,12.56,-0.02679561,-0.02598296,0.005094719,-0.05441003,0.8498852,-10.32164,1
20661344,6656,4.91,2.91,2.09,0.86,0.46,9.06,12.7,-0.02869587,0.04627284,-0.01133381,-0.1781394,0.6411242,-9.528876,1
20785762,6538,4.49,2.97,1.39,0.79,0.79,9.05,12.6,-0.09677123,0.1063572,-0.02298779,0.08659147,0.8061984,-9.801003,1
20885691,6498,4.6,2.94,1.1,0.65,0.68,9.05,12.53,-0.01761656,-0.003713391,-0.04292062,-0.01079798,0.7879887,-9.77894,1
21102598,6468,4.51,3.38,1.19,0.36,0.05,9.03,11.99,0.01526593,-0.03010697,-0.03669391,-0.01687134,0.7209587,-9.702783,1
21216572,6332,4.52,3.53,1.55,0.36,-0.19,9.03,11.54,0.0666113,-0.01299854,-0.04021086,-0.1040022,0.662418,-9.73313,1
21324281,6366,4.28,3.61,1.64,0.6,-0.12,9.05,11.06,0.03581902,0.0002427582,-0.06154566,0.008214153,0.7759409,-9.767514,1
21443974,6291,4.23,3.69,1.46,0.77,0.13,9.06,10.7,-0.0362738,0.04145163,-0.04184472,-0.02895389,0.8322645,-9.485104,1
21543276,6209,4.37,3.7,1.45,0.81,0.24,9.06,10.47,0.002432759,-0.002018874,-0.05181471,0.2658343,0.4124851,-9.619723,1
21658041,6358,4.39,0.63,-0.28,0.86,0.43,9.06,10.3,-0.6220879,0.006038261,-0.01347842,0.2398282,0.1385102,-9.31552,1
21765581,6501,4.28,-2.68,-4.55,0.8,0.47,9.07,10.29,-0.6505858,-0.004247651,-0.002018028,0.1138425,0.570835,-9.575477,1
21881033,6163,4.22,-5.3,-8.08,0.74,0.38,9.07,10.49,-0.4070243,0.01119516,0.004408746,-0.04177912,0.6141856,-9.730728,1
21983376,6228,4.49,-6.53,-9.59,0.66,0.4,9.08,10.64,-0.1138755,-0.03712461,0.01091354,-0.01285069,0.6006358,-9.852158,1
22206290,6241,4.27,-6.86,-9.86,0.82,0.07,9.06,10.4,0.03937177,0.05962639,-0.05048808,0.05832387,0.4254939,-9.712057,1
22312786,6222,4.4,-6.59,-9.33,0.72,0.28,9.07,10.02,0.09981508,0.04447224,-0.04775159,-0.05437334,0.3684331,-9.726918,1
22425192,6097,4.89,-6.17,-8.44,0.53,0.95,9.09,9.68,0.1239843,0.1674442,-0.008831914,0.01997255,0.4838263,-10.15411,1
22524248,6230,4.69,-5.65,-7.73,0.17,1.21,9.13,9.75,0.1008402,0.01376971,0.03962215,-0.2346666,0.6423067,-10.35225,1
22640033,6348,5.05,-5.49,-6.83,-0.44,0.97,9.19,10.28,0.1525519,-0.1928399,0.07419921,-0.1388269,0.6233147,-10.447,1
22744399,6423,5.11,-5.6,-5.93,-0.74,-0.07,9.22,10.88,0.1129321,-0.1534514,0.04920252,-0.1157681,0.4304361,-10.05174,1
22857352,6521,4.6,-5.53,-5.74,-1.0,-0.75,9.24,11.03,-0.02191927,-0.07686408,-0.02554866,-0.1617657,0.735054,-9.948491,1
22969347,6432,4.84,-5.27,-6.07,-1.03,-0.93,9.25,10.69,-0.09815989,-0.03469087,-0.06994876,-0.01883851,0.3984825,-10.13735,1
23180186,6305,4.95,-4.53,-4.93,-1.19,-0.77,9.26,9.81,0.2645584,0.05584843,0.04291343,0.1538019,0.8005015,-10.19603,1
23288619,6440,4.71,-4.3,-3.72,-1.06,-0.5,9.25,10.34,0.1257536,0.02044445,0.1335866,0.201284,0.481827,-10.03846,1
23397308,6425,5.11,-4.39,-3.21,-0.79,-0.54,9.23,11.2,0.0929880399999999,-0.05491876,0.1235161,0.06459504,0.4072805,-9.756452,1
23506561,6545,5.25,-4.86,-3.45,-0.55,-0.36,9.21,11.91,-0.004591163,0.0126693,0.1026254,0.07594402,0.8946144,-10.09645,1
23620090,6585,4.62,-5.42,-4.54,-0.12,-0.4,9.17,12.18,-0.2222606,-0.06034931,-0.01891529,-0.05828324,0.8776723,-9.432133,1
23727227,6575,5.58,-5.91,-5.31,0.06,0.22,9.15,11.79,0.01047811,0.1006065,-0.08463551,0.1411825,0.9010743,-10.0176,1
23828008,6486,5.51,-6.54,-4.48,0.17,0.5,9.14,11.18,0.2366682,-0.01867542,-0.09703442,0.1859392,0.9192756,-10.25149,1
23946427,6558,4.92,-7.08,-3.38,0.62,-0.32,9.09,10.91,0.1062788,-0.1394949,-0.01384603,0.02362406,0.7085995,-10.58253,1
24052001,6561,4.53,-7.57,-3.6,0.98,-0.83,9.04,10.99,-0.1136032,-0.06372069,0.04728228,0.0950071,0.6327089,-9.818209,1
24163783,6427,4.56,-8.19,-4.77,1.6,-0.69,8.96,11.34,-0.1400594,0.04200581,0.04965201,0.1618587,0.5642342,-10.22928,1
24270993,6394,4.4,-8.65,-6.31,2.27,-0.06,8.86,11.52,-0.234582,0.05930872,0.02070404,0.3645911,0.7710939,-9.416837,1
24373604,6132,4.51,-8.83,-7.28,2.88,0.76,8.76,11.54,-0.004261121,0.1067142,0.01038835,0.1350305,0.8438053,-9.733971,1
24485250,6246,4.58,-8.71,-7.6,3.32,1.78,8.69,11.49,-0.00790515,0.1525926,0.03273704,0.2805232,0.6273975,-9.429507,1
24597230,6471,4.48,-8.34,-7.32,3.69,2.07,8.64,11.45,0.07625418,-0.01117842,-0.01303597,-0.1854611,0.686444,-10.36651,1
24707607,6276,4.5,-7.96,-6.74,3.89,2.03,8.61,11.3,0.1290739,-0.03101182,-0.04986552,0.2651989,0.7557659,-9.483206,1
24813073,6176,4.23,-7.7,-6.34,3.94,2.35,8.6,11.15,0.0939079699999999,0.1621738,0.003236116,0.05324975,0.6985759,-9.816322,1
24922004,6356,4.35,-7.42,-6.17,3.9,2.71,8.61,10.93,0.03181703,0.05126939,-0.05052343,0.2669347,0.8826771,-9.994906,1
25033779,6343,4.64,-7.17,-6.14,3.74,2.98,8.63,10.62,0.007786419,0.03273899,-0.00644369,0.1378494,1.187027,-9.967748,1
25143740,6366,4.15,-6.72,-6.35,3.38,3.22,8.67,10.27,-0.06046029,0.04266379,-0.06982022,-0.3500626,0.8543397,-9.689738,1
25255141,6315,4.86,-6.11,-6.3,2.66,3.71,8.75,9.97,0.1186311,0.0628403399999999,0.01839406,0.3311117,0.6131355,-9.789408,1
25362321,6337,4.84,-5.33,-5.17,2.07,3.41,8.81,9.95,0.2393725,-0.1140925,0.02324326,0.1566322,0.8068421,-10.24989,1
25470283,6490,4.76,-4.68,-3.83,1.62,2.19,8.85,10.03,0.2119245,-0.2440365,0.02208233,-0.01549786,0.8062235,-10.21855,1
25573208,6364,4.3,-3.1,-2.44,1.38,1.13,8.87,10.1,0.3538554,-0.1346814,0.01495733,0.04245604,1.148481,-9.832961,1
25790949,6228,4.21,0.35,2.03,1.34,0.71,8.87,10.1,0.2511103,0.00269693,-0.03448336,0.02617233,0.8613642,-9.763206,1
25898093,6247,4.67,0.95,2.48,1.12,1.25,8.87,9.95,0.05213479,0.05441336,-0.01657493,-0.1124158,0.9153591,-9.731956,1
26018517,6354,4.8,1.03,2.35,0.7,1.29,8.86,9.81,-0.08065116,-0.02154386,-0.01307437,0.2144484,0.6581606,-10.19981,1
26117560,6332,4.7,0.85,2.43,0.53,0.59,8.86,9.64,0.02020627,-0.07761906,-0.03982301,0.0804034,0.7389301,-10.01615,1
26221325,6438,4.3,0.45,1.91,0.41,0.03,8.85,9.28,-0.1654191,-0.07616607,-0.1051984,-0.01340587,0.860254,-9.336704,1
26338281,6226,5.09,-1.87,-0.12,0.06,0.45,8.86,8.77,-0.3774845,0.03686222,-0.07643635,-0.07087363,0.6799015,-10.04912,1
26445583,6441,4.29,-4.15,-2.78,-0.05,-0.03,8.86,8.55,-0.3975531,-0.06520432,-0.05815277,0.01113343,0.848058,-9.836231,1
26555645,6139,3.95,-5.61,-5.53,-0.12,-0.4,8.87,8.51,-0.4298769,0.0010451,-0.0079923619999999,0.0496167,0.876526,-9.184361,1
26667249,6115,4.56,-6.68,-7.55,-0.26,0.17,8.88,8.58,-0.2253593,0.06184432,0.03422154,0.08762816,0.8782189,-9.921493,1
26879990,6314,4.49,-6.51,-7.82,-0.08,0.87,8.86,9.22,0.1574303,0.0697369999999999,0.05682554,-0.3431347,0.8322129,-9.925945,1
26995223,6321,4.75,-5.55,-7.05,0.75,2.42,8.78,9.57,0.1977786,0.2135356,0.0868607099999999,-0.03151002,1.157468,-9.771966,1
27102607,6247,5.04,-5.1,-5.64,1.68,3.96,8.69,9.77,0.1831816,0.2523233,0.06228556,0.02408085,0.9230023,-9.98279,1
27206070,6531,4.99,-4.82,-4.52,2.36,4.8,8.63,10.14,0.1384951,0.05407052,0.1239424,-0.1465567,0.8470357,-10.1297,1
27319052,6582,5.14,-4.8,-4.04,2.9,4.72,8.59,10.83,0.01113037,-0.1122805,0.08067836,0.1282632,0.6911786,-9.926805,1
27430274,6516,5.51,-5.02,-4.0,3.21,4.8,8.56,11.41,0.07209337,-0.02439312,0.0805917,0.3962978,1.05336,-10.17672,1
27539035,6564,5.51,-5.47,-3.15,3.57,4.06,8.53,12.19,0.05411955,-0.2791645,0.1746766,0.6244641,0.6038479,-10.36719,1
27651079,6660,4.38,-5.15,-3.45,4.17,2.44,8.47,13.37,-0.1187539,-0.1316279,0.1517514,0.09651367,0.6978021,-9.838724,1
27762432,6506,4.69,-4.34,-4.12,4.76,1.42,8.42,13.95,-0.1344806,0.02829682,0.02112567,-0.09963013,0.9016245,-10.06019,1
27861844,6418,4.72,-3.98,-4.12,5.43,2.11,8.37,13.83,0.03386885,0.2121407,-0.0367497,0.2545051,0.6623936,-9.699309,1
27965311,6475,4.28,-3.43,-4.17,6.07,3.8,8.33,13.2,0.09822994,0.354526,-0.1092614,0.2857214,0.9086702,-9.541313,1
28075248,6359,4.74,-2.8,-3.36,6.25,4.97,8.32,12.28,0.1505296,0.07318653,-0.1235454,0.2399463,0.7584435,-9.593546,1
28293083,6396,4.46,-1.37,-1.29,5.61,4.38,8.34,10.36,0.2218786,-0.1120174,-0.1667326,0.1423358,0.3765098,-9.697312,1
28396318,6298,4.36,-0.96,-1.29,5.19,4.09,8.35,9.35,0.05534554,-0.08040203,-0.1850459,0.0081338539999999,0.8908284,-9.925694,1
28514186,6200,4.02,-0.87,-1.21,4.77,3.92,8.36,8.29,0.04556912,-0.04321804,-0.131021,0.1901414,0.8795838,-9.776595,1
28617330,6194,3.95,-0.86,-1.51,4.64,3.82,8.36,7.62,-0.08978239,-0.07724754,-0.1036533,0.1656355,0.3949357,-9.797253,1
28723879,6047,4.71,-1.53,-1.88,5.27,4.02,8.34,7.2,-0.01147981,0.1423931,-0.04599588,0.2112337,0.5532094,-9.620118,1
28844328,6171,4.21,-2.31,-2.63,5.85,5.07,8.33,6.88,-0.1112227,0.1923133,-0.04524685,0.07743799,0.7584797,-9.40173,1
29047898,6170,4.12,-2.96,-3.21,5.69,6.22,8.33,5.99,0.004406483,0.03939099,-0.05005462,0.2266936,0.6662964,-9.791468,1
29161950,6109,4.17,-2.88,-3.36,5.28,5.49,8.36,5.95,0.06258865,-0.2143809,0.01786024,0.3006999,0.8043202,-9.91059,1
29277639,6005,4.29,-3.32,-2.93,5.05,4.42,8.37,6.47,0.01377217,-0.07012343,0.08754019,0.0371901,0.5396011,-9.815931,1
29383047,6059,4.31,-3.64,-3.41,4.92,4.0,8.38,7.23,-0.1411279,-0.1178165,0.1376568,0.302536,0.693203,-9.802991,1
29494788,6111,4.49,-3.85,-4.08,5.01,3.49,8.37,8.11,-0.1676679,-0.06884918,0.1346314,0.4833009,0.6533583,-9.859747,1
29605242,6075,4.8,-4.05,-4.17,5.34,3.44,8.35,8.89,-0.02217727,0.09994367,0.1165385,0.1778895,0.622984,-10.10546,1
29715277,6311,4.6,-4.03,-4.05,5.48,3.94,8.34,9.42,0.05504537,0.0909417899999999,0.09301452,0.5035211,0.6496801,-9.684083,1
29815276,6284,4.69,-3.91,-3.96,5.47,4.49,8.34,9.94,-0.01675119,-0.02128167,0.0944107899999999,0.4850753,0.3292623,-10.00285,1
29926762,6263,4.57,-3.41,-3.87,5.21,4.71,8.35,10.68,-0.02394353,0.01918511,0.1246143,0.524732,0.6302251,-9.739427,1
30029260,6384,5.05,-3.11,-3.1,4.95,3.89,8.37,11.29,0.1711104,-0.1510167,0.09697647,0.3909516,0.7179547,-9.933006,1
30145779,6338,4.67,-2.9,-2.72,4.87,3.23,8.37,11.89,-0.07183895,0.09703512,0.07525258,0.4768184,0.5259728,-9.658143,1
30252805,6292,4.89,-2.94,-2.64,5.2,3.17,8.36,12.26,-0.09854859,0.08081847,0.05042505,0.7234668,0.6582235,-9.518829,1
30367320,6198,4.79,-3.16,-2.37,5.77,3.71,8.33,12.33,0.1393932,0.04778337,-0.01726173,0.444487,0.890986,-9.979361,1
30472619,6197,4.62,-2.94,-2.21,5.65,4.39,8.33,12.28,0.005730999,0.05836081,-0.0007111066,0.714457,0.9494501,-9.978913,1
30575804,6368,4.42,-2.04,-1.42,5.06,3.86,8.36,12.07,0.1705791,-0.2114774,-0.0712356,0.7031266,0.8116446,-9.59487,1
30693516,6304,4.65,-1.08,-0.13,4.38,2.66,8.38,11.52,0.2606936,-0.2093251,-0.1015842,0.3517494,0.3533498,-9.599406,1
30801999,6352,4.5,-0.7,0.12,3.94,2.42,8.38,10.82,0.0170613,-0.04904275,-0.0924258,0.4338936,0.971655,-9.78124,1
30903230,6313,4.44,-0.96,-0.11,3.64,2.16,8.39,10.21,-0.1254566,-0.1164346,-0.09633295,0.193543,0.6889443,-10.0017,1
31011501,6270,4.74,-1.78,-0.69,2.69,1.72,8.41,9.64,-0.1075848,-0.09955236,-0.08677196,0.6077961,0.5215454,-9.612852,1
31119760,6254,4.55,-3.29,-2.5,1.54,0.71,8.46,9.08,-0.342826,-0.1333267,-0.0833768,0.3983702,1.133383,-9.846286,1
31234805,6179,4.08,-4.23,-4.27,-0.38,-0.39,8.59,8.57,-0.2472068,-0.1312335,-0.07297327,0.6150063,0.9370613,-9.5321,1
31341566,6122,4.31,-4.62,-5.08,-1.97,-2.18,8.72,8.32,-0.1087183,-0.3269168,-0.0674386399999999,0.1755495,0.6332334,-9.656851,1
31452394,6070,4.45,-4.68,-5.24,-3.14,-3.77,8.81,8.35,0.0159152,-0.2558376,-0.01382878,0.05951478,0.6481456,-9.995142,1
31553192,6200,4.4,-4.41,-5.41,-4.0,-4.29,8.88,8.49,0.03074611,-0.04336786,0.03486083,0.08610183,0.9066746,-9.697283,1
31664617,6201,4.65,-4.15,-5.1,-4.48,-4.3,8.92,8.75,0.08636691,-0.00947911,0.03518104,0.05064623,0.4765554,-10.31437,1
31766533,6215,4.68,-3.92,-4.79,-4.55,-4.13,8.92,8.93,0.07093656,-0.04764281,0.02870517,0.1559896,0.6665917,-10.18709,1
31885177,6308,4.33,-3.81,-4.94,-4.51,-3.6,8.92,9.08,-0.03879921,0.03690641,0.004160744,0.4273731,0.6397628,-9.945081,1
31991781,6255,4.27,-3.62,-5.11,-4.37,-3.2,8.91,9.03,-0.01277152,0.08925616,0.0003707815,0.1146747,0.7714581,-10.31339,1
32101519,6220,4.36,-3.33,-4.63,-4.46,-2.89,8.92,9.08,0.003484644,0.06916913,0.01476388,0.3608813,0.5213233,-10.33508,1
32214618,6126,4.53,-2.92,-4.13,-4.41,-2.83,8.91,9.27,0.03446363,0.01446381,0.03033808,0.402091,0.2144536,-9.926122,1
32325542,6242,4.25,-2.58,-3.87,-4.24,-2.63,8.9,9.54,0.06471831,0.09659518,0.04648427,0.2249684,0.5470342,-9.804986,1
32427649,6125,4.3,-2.3,-3.63,-4.24,-2.48,8.9,9.67,0.0942447,0.02161778,-0.0002347456,0.2833923,0.6075352,-9.680106,1
32534306,6276,4.41,-1.84,-3.16,-4.29,-2.6,8.91,9.75,0.005816652,0.01327322,0.01104783,0.1343537,0.523859,-10.11404,1
32756021,6178,4.42,-0.88,-2.43,-3.46,-1.83,8.89,10.18,0.04900132,0.1448865,0.04117557,-0.1702307,0.5314515,-9.881354,1
32855072,6305,4.37,-0.54,-2.04,-2.35,-0.39,8.88,10.29,0.04399094,0.1772051,0.03588534,0.2451263,0.4351594,-9.745542,1
32972515,6139,4.58,-0.21,-1.65,-1.6,0.82,8.87,10.37,0.0575077,0.0866579299999999,0.01521926,0.3354759,0.3747291,-9.841488,1
33068982,6243,4.57,-0.07,-1.15,-1.17,0.75,8.87,10.41,0.1238762,-0.0705857399999999,-0.02125818,0.2644849,0.3143225,-9.713097,1
33187181,6312,4.22,0.07,-1.19,-0.92,0.53,8.87,10.26,0.01280225,-0.04257334,-0.02940834,0.4472013,0.5968179,-9.571082,1
33293521,6163,4.75,-0.6,-1.16,-0.62,0.19,8.87,9.91,-0.1297748,0.0750250799999999,-0.05758679,-0.06000053,0.1390903,-10.09233,1
33400063,6237,4.3,-2.06,-2.54,-0.44,0.53,8.87,9.5,-0.3379822,0.1183947,-0.05467075,0.2693216,0.3907358,-9.463226,1
33507262,6347,4.45,-3.75,-4.41,-0.22,0.76,8.85,9.08,-0.3190538,0.1077313,-0.05456703,0.1239985,0.6634641,-9.675443,1
33611260,6225,4.23,-5.0,-6.15,-0.14,0.9,8.85,8.79,-0.2723703,0.05410092,-0.01876443,0.03859721,0.5025213,-9.706633,1
33722409,6157,4.52,-5.71,-6.7,-0.21,1.13,8.85,8.67,-0.006778178,0.03757032,0.006602562,0.1679207,0.4799234,-10.09883,1
33842253,6177,4.53,-6.15,-6.54,-0.27,0.93,8.86,8.78,0.05760615,-0.04217052,0.01707003,0.1041488,0.5859519,-9.606165,1
33949074,6252,4.36,-6.59,-6.55,-0.42,0.81,8.88,8.9,-0.07542466,0.03666171,0.008203604,0.2483727,0.7077882,-9.829773,1
34049054,6354,4.52,-7.07,-6.98,-0.52,0.63,8.89,9.04,-0.07747079,-0.04662813,0.005213229,0.2951229,0.5217326,-9.749108,1
34159688,6290,4.59,-7.73,-7.52,-0.66,0.56,8.91,9.12,-0.03707714,0.02070212,0.03995174,0.03276096,0.8212976,-9.799382,1
34271794,6378,4.79,-8.2,-7.85,-0.72,0.52,8.92,9.22,-0.03168701,0.04839846,0.01510752,-0.1211957,0.7643579,-9.528909,1
34497560,6439,4.83,-8.86,-7.47,-1.05,0.39,8.97,9.62,0.02927072,-0.07027131,0.03212541,0.03477775,0.5271856,-9.899391,1
34588297,6415,4.9,-9.05,-7.45,-1.23,0.0,8.99,9.81,0.0392465,-0.1698204,0.0006626699,-0.1294195,0.778927,-10.11523,1
34700581,6452,4.96,-9.35,-7.61,-1.4,-0.21,9.02,9.98,-0.04669388,0.01203601,0.01197072,0.06474122,0.7247139,-9.962408,1
34813293,6552,4.68,-9.63,-8.11,-1.38,-0.5,9.02,10.25,-0.08126098,-0.1190734,0.0343135,0.1614446,0.6593323,-9.768693,1
34918268,6422,5.2,-10.16,-8.38,-1.04,-0.48,8.96,10.47,-0.007588466,0.07114735,-0.003127733,-0.04210016,1.08481,-10.18253,1
35029333,6526,4.79,-10.46,-9.06,-0.78,-0.04,8.91,10.5,-0.1314074,0.02866726,0.006422711,-0.06613587,1.003875,-10.19427,1
35138091,6497,5.06,-10.56,-9.3,-0.6,0.0,8.88,10.49,0.04511894,-0.02658503,-0.004692275,-0.0003490145,0.7601706,-9.733104,1
35252804,6472,4.88,-10.5,-9.32,-0.5,0.16,8.86,10.55,0.05183548,-0.08633649,0.01237872,0.2334865,0.864575,-9.892966,1
35363074,6482,4.91,-10.32,-9.2,-0.36,0.42,8.83,10.65,0.01620706,0.09749018,0.03142455,0.06019956,1.05249,-10.10447,1
35460600,6470,5.36,-10.14,-8.68,-0.2,0.11,8.81,10.79,0.0878572,-0.1425974,-0.01441585,0.06758161,0.9899901,-10.06016,1
35568156,6641,4.85,-10.07,-8.72,-0.13,-0.1,8.79,10.81,-0.07242852,0.01741789,-0.02066198,0.0646273099999999,0.9724135,-9.465591,1
35687322,6565,4.98,-9.82,-9.12,-0.18,0.23,8.8,10.53,-0.06812123,0.113424,-0.05120172,0.0325395,1.142353,-9.811715,1
35798801,6522,5.03,-9.68,-9.01,-0.21,0.53,8.81,10.18,0.04681548,-0.08051334,-0.07663999,0.1110204,0.9334769,-9.462177,1
35899058,6637,4.9,-9.41,-8.67,0.1,0.31,8.75,9.9,0.08916253,-0.02939809,-0.05783863,-0.08042623,0.9114422,-10.56697,1
36004252,6548,4.76,-9.18,-8.37,0.3,0.53,8.72,9.73,0.02926403,0.08966776,-0.03780491,0.1887168,0.8932723,-9.534534,1
36121184,6451,4.81,-9.04,-8.18,0.62,1.02,8.67,9.45,-0.01822316,0.09240967,-0.05641326,-0.07213442,1.149603,-10.09408,1
36222864,6544,4.62,-8.9,-8.37,0.73,1.34,8.65,9.1,-0.0009645956,-0.01298864,-0.03441354,0.01432457,1.150171,-9.978821,1
36329408,6567,4.87,-8.66,-8.06,0.61,1.37,8.67,8.71,0.09814484,-0.004962329,-0.08467788,-0.1082359,1.126434,-9.898282,1
36446604,6520,4.59,-8.78,-7.83,0.27,1.3,8.72,8.07,-0.07479885,0.03491842,-0.1194781,-0.1728943,1.087087,-9.756592,1
36542020,6582,4.59,-9.09,-8.08,-0.14,1.07,8.79,7.52,-0.1047845,-0.02718709,-0.1006684,-0.117842,1.124173,-9.808497,1
36655819,6449,4.41,-9.28,-8.21,-0.44,0.26,8.84,7.1,0.0125769,-0.1504547,-0.0702946599999999,-0.06671489,1.036711,-9.780846,1
36763656,6338,4.12,-9.26,-8.43,-0.42,-0.56,8.83,6.98,-0.03544407,-0.03024684,-0.04211096,-0.1507823,1.36364,-9.463153,1
36877411,6262,4.38,-9.06,-8.54,-0.35,-0.47,8.82,7.0,-0.03194256,0.06013737,0.0421848,-0.2442549,1.053897,-9.827379,1
36986082,6314,4.31,-8.99,-8.91,-0.14,-0.26,8.79,7.59,-0.06562273,-0.01147043,0.1025096,-0.08463763,0.5994753,-9.771898,1
37086098,6311,4.59,-8.82,-9.11,-0.07,-0.14,8.78,8.15,-0.04619311,-0.06387248,0.1081268,0.04386071,1.190401,-9.535222,1
37196587,6280,4.62,-8.6,-8.65,0.06,-0.33,8.76,9.01,0.1895489,-0.002050234,0.1250394,0.1163748,1.310586,-9.956138,1
37306637,6465,4.44,-8.49,-7.71,0.56,-0.14,8.68,9.85,0.1131054,0.06430071,0.0937824,0.2482996,0.9969117,-9.645426,1
37417607,6262,4.43,-8.51,-7.98,1.18,0.33,8.59,10.49,-0.2387059,-0.06100629,0.08012047,0.4165945,0.9204267,-9.48391,1
37530524,6521,4.78,-8.78,-8.49,1.64,1.03,8.52,10.79,0.05262204,0.07756832,0.02847673,0.3323356,1.473135,-9.703525,1
37631785,6455,4.3,-8.82,-8.91,1.89,1.6,8.48,10.86,0.05557172,-0.01161511,0.007525946,0.4934848,1.223768,-9.505548,1
37740655,6430,5.24,-8.72,-8.7,2.24,1.68,8.43,10.95,0.118219,0.01790775,0.01004623,0.2275832,1.330948,-9.826348,1
37843056,6470,4.59,-8.67,-8.38,2.55,1.78,8.38,10.9,-0.0721122,0.1731458,-0.01769444,0.2791077,1.325829,-9.765329,1
37961504,6443,4.92,-8.64,-8.67,2.99,2.31,8.31,10.76,-0.2545742,0.03180241,0.007184142,0.6387483,1.096546,-9.763466,1
38067080,6458,4.68,-8.19,-8.42,3.36,2.79,8.26,10.54,0.0361449,0.1452463,-0.03602319,0.4422618,1.217908,-10.22745,1
38172020,6457,4.14,-4.56,-6.21,3.73,2.78,8.22,10.32,0.5965225,-0.007175847,-0.0418452,0.4150835,1.418653,-10.09204,1
38281107,6297,5.18,1.22,0.21,4.17,2.88,8.2,10.09,1.348173,0.1338514,0.009103125,0.5800726,1.623144,-9.603663,1
38389755,6449,5.35,5.61,8.22,4.55,2.75,8.23,9.7,1.109405,-0.0295493,-0.05907043,0.3168284,0.4444609,-10.60182,1
38494396,6731,4.5,8.14,12.78,4.94,2.23,8.28,9.24,0.5794984,-0.1790057,-0.02535339,0.3596634,0.3396504,-9.590591,1
38605754,6505,4.85,9.41,13.96,5.43,1.22,8.35,8.75,0.0433928,-0.1503007,-0.004487103,0.2154457,0.9675993,-9.367511,1
38704277,6571,4.58,9.8,13.45,5.71,1.18,8.4,8.61,-0.2116493,0.08407281,-0.009240675,-0.05205088,0.6952188,-10.13404,1
38927237,6582,4.72,9.57,11.36,6.18,2.91,8.48,8.64,-0.07917588,0.09013912,-0.03719015,0.3591757,0.9659491,-10.28121,1
39046080,6459,4.24,9.51,9.67,6.1,4.03,8.47,8.53,-0.1982273,0.005699643,-0.06677464,0.3019902,0.7573041,-9.873562,1
39141814,6341,4.33,9.68,8.74,5.81,5.01,8.42,8.42,-0.139172,0.226799,-0.05260814,0.2355527,0.8034678,-9.814251,1
39254240,6336,4.69,9.62,8.32,5.19,5.2,8.31,8.23,-0.04240324,-0.0699029,-0.02640336,0.2307924,0.5293447,-10.04205,1
39365704,6421,4.58,9.24,8.05,4.57,4.43,8.21,7.99,-0.03072623,-0.1638979,-0.02107294,0.3371643,0.3859508,-9.903411,1
39472025,6211,4.47,8.86,7.29,4.15,3.67,8.14,7.81,-0.09883586,-0.1273774,-0.03104372,0.4310509,0.9171845,-10.06701,1
39576116,6191,4.68,8.5,7.06,3.96,3.2,8.11,7.57,-0.01234248,-0.0674601299999999,-0.04154291,0.4801934,0.5316132,-9.810925,1
39682839,6339,4.5,7.0,5.71,1.93,2.18,7.84,7.18,-0.4344056,-0.3851224,-0.0582123,1.049216,0.166159,-9.776998,1
39795205,6185,4.23,5.22,3.04,-0.17,-1.15,7.61,6.65,-0.3768636,-0.5649819,-0.04213687,0.234807,0.6064907,-9.816439,1
39903069,6202,4.27,3.6,0.93,-1.74,-3.18,7.48,6.4,-0.2852944,-0.1082668,-0.01560243,0.3383761,0.5682884,-9.90341,1
40009641,6216,4.03,2.89,-0.31,-2.54,-3.74,7.44,6.21,-0.1691309,-0.1003848,-0.04647447,0.2197887,0.6717005,-9.909997,1
40123398,5992,4.44,2.71,-0.7,-2.82,-3.24,7.43,6.07,0.02411582,0.1091702,-0.01797673,0.1292597,0.4877719,-9.906861,1
40225986,6099,4.49,2.81,-0.27,-3.01,-2.61,7.42,6.14,0.1219899,0.09021218,0.0242057,0.1839769,0.6686173,-9.850416,1
40334242,6073,4.45,3.02,0.59,-3.24,-1.98,7.4,6.31,0.1356608,0.06624776,0.03060997,0.2403997,0.4322726,-9.810836,1
40566718,6225,4.66,3.11,1.94,-3.91,-1.74,7.37,6.63,0.0901415,-0.04530826,-0.04795782,-0.0905975599999999,0.3143974,-10.27266,1
40669237,6410,4.22,2.94,1.8,-4.47,-1.96,7.34,6.34,-0.04320851,-0.08242501,-0.06519976,0.05904145,0.5565688,-10.18657,1
40774212,6226,4.25,2.52,1.33,-5.07,-2.66,7.31,5.99,-0.0958781799999999,-0.1733925,-0.04058717,0.1693241,0.6201868,-9.541598,1
40891010,6133,4.16,2.02,0.62,-5.39,-3.54,7.3,5.79,-0.1096938,-0.1251224,-0.01417491,0.1008566,0.6083575,-10.03877,1
41000248,6177,4.43,1.45,0.06,-5.23,-3.84,7.3,5.72,-0.1497407,0.02354988,-0.002074399,0.09370036,0.258071,-9.961738,1
41101241,6096,4.11,1.06,-0.83,-4.92,-3.51,7.31,5.72,-0.1625747,0.05298162,0.02009412,0.01869665,0.4444663,-9.883537,1
41212676,5980,4.45,0.74,-1.46,-4.7,-2.76,7.31,5.81,-0.08976832,0.1687692,0.02844644,0.06272597,0.5077952,-9.960947,1
41323810,6183,4.27,-0.68,-2.19,-4.14,-1.89,7.31,5.84,-0.1748169,0.2027577,-0.001813581,-0.02828835,0.3386886,-9.768332,1
41434329,6157,4.46,-1.43,-3.0,-2.72,-0.52,7.28,5.71,-0.1022883,0.3545105,-0.007524238,-0.1221894,0.4241351,-9.926874,1
41541838,6151,4.18,-1.84,-3.4,-1.65,1.19,7.25,5.52,-0.0623938,0.2538288,-0.01783126,0.1608887,0.4953195,-9.732057,1
41652816,6094,4.13,-1.96,-3.92,-1.03,1.82,7.23,5.4,-0.01535959,0.03612369,0.0004548089,0.04279288,0.6751677,-9.615513,1
41765938,6219,4.4,-1.99,-3.62,-0.92,1.8,7.23,5.48,0.1187107,-0.07461502,0.02191531,0.04270098,0.3973685,-9.713404,1
41874495,6150,4.55,-2.0,-3.12,-0.87,1.34,7.23,5.73,0.1268317,-0.1320013,0.04491593,-0.08815463,0.4820184,-10.03337,1
41976336,6242,4.51,-2.07,-2.71,-0.59,0.58,7.22,6.06,0.04617805,-0.1162102,0.05598813,-0.1423029,0.5505788,-10.18763,1
42086221,6255,4.63,-2.26,-2.6,0.11,0.42,7.19,6.41,-0.03539367,0.03445838,0.06526715,-0.1090215,0.5334399,-9.794002,1
42197270,6249,4.89,-2.63,-2.59,1.26,1.18,7.14,6.69,0.01301715,0.1756144,0.04248584,0.004873545,0.4470594,-10.07836,1
42305380,6448,4.53,-3.41,-3.25,2.84,2.76,7.06,6.8,-0.2201593,0.3830326,0.04065825,0.03676564,0.3535236,-9.887346,1
42416556,6311,4.6,-4.03,-4.59,4.52,4.94,6.95,6.83,-0.2212437,0.4007807,0.06044932,-0.16593,0.5441196,-9.95826,1
42526341,6283,4.79,-4.16,-5.19,6.39,6.98,6.81,6.97,0.02153111,0.2821704,0.06131531,-0.1053031,0.7044645,-9.944012,1
42628092,6278,4.9,-3.74,-4.65,7.4,8.46,6.74,7.3,0.1736791,0.1137865,0.09584526,0.1635883,0.6334229,-9.82234,1
42740785,6445,4.72,-3.17,-3.97,7.9,9.09,6.71,7.92,0.03098132,-0.005033197,0.09750705,0.1494123,0.4811142,-9.984259,1
42852194,6504,5.29,-2.89,-3.34,7.77,9.02,6.71,8.6,0.1329681,0.01248694,0.09987697,0.1112225,0.5129293,-9.878194,1
42965676,6586,5.4,-2.96,-2.62,7.2,8.4,6.74,9.22,0.0983238699999999,-0.2131569,0.08062869,0.2247037,0.4844102,-10.24057,1
43067744,6706,5.37,-3.41,-2.55,6.34,6.9,6.79,9.8,-0.07693148,-0.2542008,0.11101,0.1936087,0.5272925,-10.35665,1
43288314,6555,4.82,-4.72,-4.34,5.7,4.63,6.83,10.48,-0.2647766,-0.003450978,0.02017033,0.1042719,0.5380041,-9.949035,1
43389050,6512,4.99,-4.98,-5.12,5.75,4.73,6.83,10.36,-0.01442682,-0.02879,-0.06125499,0.2587736,0.4878984,-9.596928,1
43496645,6457,4.88,-4.83,-5.32,5.73,4.86,6.83,10.13,0.04904198,-0.03016873,-0.06469786,0.3471878,0.5211139,-9.649476,1
43607562,6458,4.95,-4.59,-5.0,5.54,4.74,6.85,9.8,0.1031031,-0.05779525,-0.07249667,0.347968,0.4846813,-9.816026,1
43713828,6482,4.74,-4.15,-4.49,5.19,4.51,6.87,9.48,0.01446271,0.07646649,-0.05563023,0.1320275,0.3979416,-10.17148,1
43824748,6354,4.74,-3.78,-4.11,4.21,4.15,6.94,9.12,0.1142077,-0.122148,-0.04616708,0.5350827,0.6128233,-9.426681,1
43942050,6301,4.76,-3.4,-3.42,2.83,2.62,7.03,8.81,0.1256532,-0.2662875,-0.05399298,0.19575,0.7346025,-10.13534,1
44050109,6319,4.74,-4.12,-3.03,1.97,1.45,7.08,8.37,-0.04586691,-0.1932282,-0.1083439,0.2152692,0.3613707,-9.69756,1
44156758,6366,4.42,-5.04,-3.56,1.47,1.07,7.12,7.79,-0.08194455,-0.0086862209999999,-0.0977581899999999,0.2538882,0.8171232,-9.424892,1
44267207,6286,3.98,-6.13,-4.03,1.13,0.45,7.16,7.19,-0.1484653,-0.07147897,-0.1027713,0.0910029,0.810587,-9.663925,1
44384266,6298,4.18,-6.73,-6.16,-0.17,0.46,7.31,6.3,-0.1760307,-0.07991014,-0.1478395,0.2349804,1.090474,-8.86078,1
44490315,6108,4.84,-7.63,-6.66,-1.44,-0.27,7.47,5.8,-0.1222094,-0.05788022,-0.05340627,-0.184859,0.6921759,-10.2146,1
44607964,6291,4.77,-7.83,-7.04,-2.58,-1.19,7.62,6.01,-0.03060582,-0.188847,0.05887564,-0.2238109,0.7102792,-10.02085,1
44718222,6363,5.01,-7.85,-6.91,-3.37,-2.39,7.73,6.56,0.04572981,-0.1908523,0.07198112,-0.1533656,0.9472756,-10.02934,1
44823081,6444,4.8,-7.81,-6.59,-3.87,-3.35,7.8,7.15,-0.01195408,-0.158212,0.1054856,-0.08989424,0.734079,-10.03438,1
44920325,6485,4.75,-7.69,-6.39,-4.24,-3.69,7.85,7.71,0.1016066,-0.0002923827,0.1058848,0.001611863,0.7670978,-9.581096,1
45041964,6537,4.67,-7.73,-6.2,-4.38,-3.89,7.87,8.49,-0.004722845,-0.08974165,0.09728096,0.01710378,0.62071,-9.702258,1
45153318,6350,4.59,-7.76,-6.45,-4.26,-4.28,7.85,9.24,0.06284828,-0.1311926,0.1193494,0.3319516,0.7711448,-9.143601,1
45260263,6492,4.27,-7.76,-6.83,-3.92,-4.69,7.81,9.81,0.07517801,-0.02225944,0.06220781,0.003592424,0.8779181,-8.568247,1
45367114,6302,4.57,-7.63,-7.3,-3.88,-3.92,7.8,10.07,-0.1189949,0.1486632,0.05249666,0.06035303,0.7828093,-8.74319,1
45478305,6324,4.68,-7.38,-7.01,-3.75,-3.43,7.78,10.1,0.07503015,0.1192567,-0.01117833,-0.06966325,0.7179055,-8.53151,1
45582750,6271,4.91,-7.06,-6.39,-3.83,-2.77,7.79,9.84,0.1736795,0.02713683,-0.0461791,0.04347775,0.7042051,-8.866194,1
45692435,6286,4.5,-6.53,-6.04,-3.85,-2.53,7.8,9.58,-0.06900052,0.003265778,-0.01456821,0.2146414,0.6163858,-9.120478,1
45796058,6311,4.19,-5.88,-5.46,-3.66,-2.9,7.78,9.21,0.1481645,-0.0860451899999999,-0.1089113,-0.2775573,0.7288245,-9.332223,1
45911834,6213,4.41,-5.19,-4.59,-3.51,-2.34,7.76,8.61,0.2275912,0.1508554,-0.09489738,-0.3974455,0.7323861,-9.375288,1
46025958,6345,4.41,-4.7,-3.47,-2.87,-1.2,7.71,8.19,0.2127113,0.1249926,-0.01597709,-0.1698134,0.7889375,-9.971577,1
46132083,6373,3.81,-4.3,-2.62,-2.2,-1.07,7.65,8.08,0.03386018,-0.1296745,0.006383441,0.4036827,0.5373262,-9.702453,1
46237308,6204,4.45,-4.02,-2.29,-1.34,-3.04,7.59,7.96,0.1565753,-0.4097144,-0.08666224,0.05692478,0.6056129,-9.617508,1
46343875,6008,3.89,-4.09,-1.66,-0.41,-3.85,7.52,7.47,0.04629524,0.0684299,-0.06041118,0.2372235,0.72927,-9.64244,1
46455239,6142,4.09,-4.26,-1.28,1.08,-3.29,7.41,7.05,-0.1290315,0.3523268,-0.04708106,-0.6553081,0.5011173,-9.438987,1
46569411,6170,4.27,-4.47,-1.28,2.53,-1.61,7.31,6.69,0.01107675,0.2437633,-0.09933145,-0.3116058,0.5142637,-9.885441,1
46677013,6312,4.14,-5.04,-1.85,3.91,-0.13,7.19,6.13,-0.2835038,0.3385589,-0.09240158,-0.4001195,0.861865,-9.937922,1
46775864,6296,3.93,-5.41,-3.37,4.46,1.46,7.14,5.41,-0.319251,0.2783186,-0.1422013,-0.401107,0.6024346,-9.699455,1
46993518,6071,3.57,-5.9,-5.11,3.79,4.38,7.21,3.64,-0.1308175,0.2130469,-0.1013938,-0.1941886,0.6188554,-9.869822,1
47103026,6096,3.58,-5.39,-5.07,2.94,4.48,7.3,3.1,0.03172687,-0.06978437,-0.08171327,0.01297767,0.6914336,-9.667042,1
47222414,5960,3.99,-4.34,-4.35,2.62,3.56,7.32,2.85,0.1102829,-0.2028322,-0.02535842,0.07702384,0.6942252,-9.592226,1
47323801,6018,4.04,-3.82,-3.8,2.12,2.67,7.36,2.71,0.01782783,-0.2348706,-0.0342965,-0.02157765,0.8331677,-9.380624,1
47544525,6118,4.0,-3.69,-2.81,0.51,2.36,7.46,2.37,0.02486869,0.02237112,0.02245156,-0.04729248,0.8693456,-10.49148,1
47654079,6221,4.08,-3.71,-2.59,-0.23,1.74,7.51,2.62,-0.0475846,-0.1167503,0.04788074,-0.2017631,0.6851172,-9.838142,1
47763374,6103,4.02,-3.65,-3.15,-0.8,1.0,7.55,2.95,-0.09359415,-0.1279174,0.07418596,-0.04840303,0.5349613,-9.870641,1
47982344,6129,4.25,-3.45,-3.31,-1.12,-0.59,7.57,3.95,0.01564777,-0.0256003,0.06177631,-0.4690176,0.686522,-9.80504,1
48085645,6161,4.22,-3.28,-2.84,-1.06,-0.89,7.56,4.39,0.08909668,-0.0993991,0.09375316,-0.1146551,0.801051,-9.363474,1
48200195,6200,4.23,-3.24,-2.52,-0.91,-1.05,7.55,4.96,0.007461008,-0.08195884,0.0929749099999999,-0.4252915,0.9579552,-9.394962,1
48300923,6209,4.29,-3.34,-2.77,-0.76,-1.22,7.55,5.34,-0.07172965,-0.01938169,0.03772955,-0.3193543,0.8584526,-9.842529,1
48415731,6301,4.12,-3.38,-3.66,-0.62,-1.06,7.54,5.54,-0.1385168,0.02540432,0.03754749,-0.2720379,1.03598,-9.654689,1
48525582,6315,4.81,-3.47,-3.53,-0.46,-0.53,7.53,5.78,0.08594999,0.08053374,0.0630740199999999,-0.01340498,0.8038126,-10.54996,1
48630397,6317,4.6,-3.38,-3.18,-0.19,-0.97,7.51,6.14,0.07936252,-0.02822508,0.01445842,-0.4408769,0.6296726,-10.0664,1
48737766,6222,4.54,-3.42,-2.86,-0.16,-1.06,7.51,6.34,0.0434443,-0.06495781,0.02322369,-0.07199872,0.9636275,-9.797762,1
48843084,6314,4.39,-3.65,-2.77,0.19,-1.07,7.49,6.32,-0.02254956,0.03653962,-0.02640757,-0.2669547,1.202007,-10.06453,1
48956047,6331,4.05,-3.91,-2.38,0.65,-0.48,7.46,6.04,-0.01897575,-0.05610982,-0.06585833,0.2817431,0.7686143,-9.922163,1
49064115,6454,4.68,-4.28,-2.28,2.25,0.36,7.35,5.6,0.1320461,0.378007,-0.06261355,-0.4003595,1.133493,-9.728341,1
49176742,6217,3.78,-5.26,-3.44,3.82,3.38,7.21,5.27,-0.3627139,0.5396295,-0.003557613,0.1164767,1.303557,-9.945531,1
49284746,6073,4.33,-6.23,-4.99,4.96,5.58,7.1,5.08,-0.0746821399999999,0.2526253,0.01626187,0.1016977,1.73999,-10.11084,1
49393548,6108,3.77,-7.15,-6.24,5.5,5.76,7.04,5.03,-0.3420422,-0.09782554,0.00151078,0.3125882,0.9064126,-10.10696,1
49501663,6198,3.81,-7.35,-7.18,5.53,4.82,7.03,5.02,-0.0133209,-0.2027522,-0.0250214,0.06197143,0.8849742,-10.03955,1
49612177,6032,3.61,-7.06,-7.54,5.36,4.29,7.05,4.86,-0.03274434,-0.2077122,-0.06516626,0.3409391,0.8828205,-10.15691,1
49717308,5937,3.62,-6.5,-7.05,5.6,3.16,7.03,4.47,0.0871233399999999,-0.1151163,-0.1164698,0.2131403,0.892194,-9.760627,1
49826373,6050,4.06,-6.01,-6.04,5.94,3.3,6.99,3.83,0.26869,0.1900834,-0.06944841,0.1506027,1.001056,-9.786142,1
49935634,5965,4.04,-5.92,-4.86,6.61,4.09,6.92,3.46,0.16909,0.2902219,-0.02387024,0.2054801,0.9464376,-10.35753,1
50045582,6154,3.56,-5.36,-3.92,5.66,5.11,7.01,3.57,0.1373935,-0.1272809,0.0443228,1.086338,1.323623,-9.997231,1
50163279,6083,4.21,-5.36,-3.63,4.68,3.71,7.1,4.3,-0.1858636,-0.3176246,0.1124394,0.01978497,0.9660411,-9.968075,1
50261797,5980,4.3,-5.91,-4.05,4.26,1.57,7.14,5.18,-0.07336738,-0.2895657,0.1329335,-0.1081412,0.7999423,-9.590812,1
50373663,6171,4.34,-6.39,-4.72,3.85,0.35,7.19,6.14,-0.1660647,0.02741744,0.1337194,-0.2050682,0.6310046,-9.979727,1
50484225,6186,4.74,-6.68,-4.99,4.03,-0.13,7.17,7.0,0.1079573,-0.2186037,0.1064821,0.4637778,0.9069009,-9.584427,1
50588008,6413,4.18,-6.74,-5.31,4.42,0.5,7.12,7.49,-0.2488832,0.3948222,0.1055175,-0.3570195,0.711587,-10.47729,1
50809277,6405,5.48,-6.48,-6.12,4.24,3.92,7.14,8.42,-0.1080085,0.06787243,0.1376527,0.678559,0.959278,-10.74837,1
50912694,6537,5.35,-6.07,-5.92,3.88,3.43,7.18,9.23,0.04992238,-0.03316958,0.1354631,0.3176382,1.422741,-11.14823,1
51020109,6485,5.02,-5.41,-5.88,3.62,2.54,7.21,10.02,0.03370719,-0.1505281,0.09919827,0.4339064,1.100968,-10.73513,1
51128277,6503,5.32,-4.94,-5.58,3.76,2.65,7.2,10.61,0.0648278999999999,0.1359651,0.09038981,0.4423205,1.094665,-10.78081,1
51243054,6642,5.35,-4.59,-5.17,3.92,3.36,7.18,11.29,-0.01940652,0.146183,0.1159344,0.3681093,0.7577016,-10.34409,1
51352272,6655,5.02,-3.83,-5.13,4.06,3.91,7.17,11.49,0.1906007,0.001617053,-0.005226266,0.328555,1.50076,-10.15418,1
51455151,6642,5.14,-3.01,-5.11,3.82,4.23,7.19,11.17,0.08039005,0.02225146,-0.08084042,0.5633952,0.8428447,-9.762403,1
51564795,6658,4.91,-2.09,-4.17,3.18,3.95,7.21,10.15,0.1770581,-0.05936922,-0.2030043,0.3792309,1.076062,-10.18499,1
51673749,6734,4.79,-1.11,-2.99,2.18,3.42,7.24,8.92,0.1274321,-0.13097,-0.176161,0.4478214,1.008852,-10.23534,1
51779732,6400,4.52,-0.3,-1.82,1.29,2.54,7.25,7.85,0.2094703,-0.05350167,-0.1403494,0.1822127,0.8629038,-9.414643,1
51891596,6392,4.41,-0.17,-1.04,0.56,1.46,7.25,6.92,0.0081087209999999,-0.1554794,-0.1679334,0.03924626,0.6139266,-9.593575,1
51994409,6284,4.53,-0.67,-1.62,0.1,0.95,7.26,6.1,-0.1162469,-0.02036612,-0.1691571,-0.01516482,1.271085,-10.05897,1
52112676,6254,4.04,-2.08,-2.88,-0.85,0.78,7.28,5.1,-0.1834668,-0.05973957,-0.1097344,0.1204324,1.461307,-9.8509,1
52215710,6085,4.0,-2.96,-3.88,-2.06,0.18,7.34,4.7,-0.274078,-0.06810858,-0.03581825,0.1458969,0.9890103,-9.381523,1
52332029,6104,4.38,-3.46,-5.0,-3.71,-0.79,7.43,4.97,-0.07757794,-0.2327272,0.06101292,0.05682112,0.9214998,-9.736435,1
52545253,6167,4.84,-3.22,-4.44,-5.74,-3.55,7.55,6.25,0.1628353,-0.1744494,0.1146186,-0.09290912,0.9335401,-9.709966,1
52653227,6396,5.07,-3.09,-3.49,-6.04,-4.45,7.57,7.02,0.107351,-0.1021487,0.1176041,-0.1505973,0.8790392,-9.910481,1
52766752,6519,4.89,-3.07,-3.04,-5.94,-4.27,7.57,7.74,0.04160378,0.1047616,0.1153843,-0.0909187999999999,0.8138575,-10.10851,1
52867091,6553,4.72,-3.18,-2.78,-5.69,-4.71,7.55,8.38,-0.0685875,-0.1492932,0.0742380099999999,0.0959914,0.604256,-9.964968,1
52973239,6469,4.46,-3.18,-3.3,-5.15,-5.78,7.52,8.95,-0.1757037,-0.1769523,0.051014,0.1922902,0.7936247,-10.76143,1
53090260,6433,4.34,-3.08,-4.11,-4.26,-5.94,7.47,9.23,-0.1104065,0.1800839,0.04044415,0.00105647,1.101205,-10.19352,1
53192194,6340,4.71,-3.19,-4.41,-3.2,-4.81,7.42,9.11,0.009208564,0.3771489,-0.01768048,-0.2107473,0.9111885,-9.870903,1
53305569,6314,4.92,-4.43,-5.09,-1.9,-1.51,7.33,8.77,-0.2071803,0.4320657,-0.00711391,0.2085802,0.7868224,-9.589731,1
53416716,6338,5.01,-5.19,-5.95,-1.3,0.53,7.28,8.64,-0.09886889,0.2801239,0.02500779,0.0499397,1.011548,-10.04978,1
53522699,6556,4.93,-5.5,-5.92,-1.25,1.05,7.28,8.73,0.02901496,-0.1026069,0.01000002,-0.04252777,1.033125,-10.18151,1
53622159,6697,4.96,-5.58,-5.82,-1.43,0.62,7.29,8.8,-0.008136777,-0.2031751,0.002983974,0.1744664,0.8442609,-10.05072,1
53730508,6485,4.94,-5.7,-5.91,-1.63,0.25,7.31,8.83,-0.05617604,-0.0642202,-0.001634968,-0.1394023,1.005447,-9.477963,1
53845003,6510,5.03,-5.93,-5.88,-1.76,0.21,7.33,8.88,-0.01920714,0.02868505,-0.001115266,-0.05163796,1.002839,-9.944057,1
53953585,6643,4.91,-6.14,-5.86,-1.87,0.21,7.34,8.94,-0.06141071,0.0204757,0.006825301,-0.06829543,0.7810833,-10.05554,1
54066799,6618,4.59,-6.15,-6.75,-1.98,0.21,7.35,8.9,-0.125686,0.01000745,0.01660092,-0.03740503,1.107632,-9.506505,1
54159592,6345,5.11,-6.21,-7.07,-1.96,0.05,7.35,8.82,0.0004501888,0.005261001,-0.01297182,0.1776477,0.7817556,-9.389925,1
54268583,6515,4.92,-5.93,-6.87,-2.01,-0.26,7.35,8.72,0.07244588,-0.07285447,-0.01925794,-0.05156729,0.584264,-9.524011,1
54384118,6629,4.94,-5.2,-6.13,-1.87,-0.75,7.34,8.78,0.1740248,-0.09420561,0.0232174,-0.01525586,0.9304842,-9.917159,1
54505233,6648,4.77,-4.22,-4.68,-1.54,-1.14,7.31,8.92,0.2872603,-0.03373156,0.0233047,-0.09517159,0.9690042,-10.17149,1
54713302,6472,4.77,-3.0,-3.36,-0.76,-0.48,7.26,8.95,0.03373382,0.2071464,0.02893955,0.0649673999999999,0.8385718,-9.683718,1
54825073,6506,4.68,-2.78,-3.23,-0.47,0.07,7.25,9.12,0.02751046,0.04732099,0.03991984,0.0695581,0.8722129,-9.363418,1
54935599,6409,4.66,-2.69,-3.29,-0.34,0.03,7.24,9.36,-0.04643553,-0.01399202,0.02519736,-0.0736722499999999,0.842838,-9.501083,1
55054787,6374,4.87,-2.43,-3.15,-0.32,-0.1,7.24,9.47,0.05425246,0.02438504,0.01892037,0.3208724,0.6526125,-9.72769,1
55156187,6536,4.35,-2.24,-2.88,-0.09,-0.36,7.23,9.52,0.009308554,-0.0381025,-0.001534677,0.01343289,0.6537614,-9.365687,1
55262911,6468,4.73,-2.07,-2.92,0.11,-0.28,7.22,9.57,0.01364296,-0.1002126,-0.005218521,0.1279544,0.7038213,-9.345409,1
55371976,6314,4.77,-1.96,-2.93,0.38,-0.13,7.22,9.62,-0.01194944,0.0925114799999999,-0.01504242,-0.02768368,0.6947259,-9.417312,1
55490212,6333,4.6,-1.84,-2.81,1.09,0.25,7.19,9.62,0.001321734,0.1677028,-0.01006572,-0.09236629,0.6417341,-9.773164,1
55599259,6387,4.57,-1.74,-2.63,2.19,1.46,7.16,9.66,-0.0008562374,0.2825892,0.02960656,0.2281889,0.7786554,-9.763184,1
55698650,6218,4.35,-1.81,-2.59,3.14,2.57,7.13,9.52,0.01443985,0.1221327,-0.03175195,0.1408881,0.5047793,-9.411314,1
55806775,6395,4.19,-1.8,-3.22,4.26,3.19,7.09,9.02,-0.06301354,0.09757368,-0.09073538,-0.01025634,0.6046166,-9.806214,1
55916770,6176,4.67,-1.76,-3.45,5.19,4.55,7.06,8.33,0.003556159,0.2531926,-0.0828692199999999,0.1381468,0.5641087,-9.873445,1
56029261,6273,4.5,-1.33,-3.11,5.66,5.87,7.05,7.99,0.07263126,0.1420812,0.02565936,0.03310999,0.431976,-10.32414,1
56136201,6310,4.62,-0.87,-2.27,5.61,6.45,7.05,8.38,0.1563738,0.1296492,0.1241456,-0.03447654,0.7576211,-10.25197,1
56253213,6462,4.26,-0.2,-1.3,5.14,6.23,7.06,9.44,0.2011994,-0.113901,0.214545,-0.02505144,0.6637112,-10.16738,1
56355246,6365,4.85,0.42,-0.39,4.61,5.4,7.05,10.82,0.1467923,-0.1205501,0.2740279,-0.006801537,0.4806936,-10.39306,1
56463812,6308,4.9,0.63,0.24,4.18,4.24,7.05,12.25,-0.1037591,-0.1105405,0.1698278,0.2046384,0.3093905,-10.25238,1
56578798,6485,4.78,0.51,-0.43,3.96,3.88,7.05,13.4,-0.2756479,0.1695776,0.1725653,0.05834864,0.5471669,-9.902065,1
56685749,6489,4.54,0.34,-1.7,3.83,3.87,7.05,14.14,-0.3893822,0.1066357,0.08836798,-0.07110105,0.3773576,-9.79344,1
56796061,6341,4.48,0.2,-3.13,3.82,3.43,7.05,14.21,-0.3770884,0.09322742,-0.03077867,-0.1141187,0.3842287,-10.06829,1
57010265,6185,4.75,0.69,-2.64,3.51,3.12,7.05,12.79,0.3586203,-0.1380414,-0.1621728,0.0941362,0.33155,-9.974503,1
57124218,6218,3.95,1.24,-1.1,3.31,2.57,7.04,11.62,0.1575233,0.01181278,-0.1890646,0.1022005,0.06769268,-9.377685,1
57228964,6240,3.98,2.15,-0.58,2.37,2.41,7.01,10.55,0.3139558,-0.1895922,-0.1851459,0.416454,0.9783511,-9.817636,1
57337242,6069,3.35,2.26,-0.06,0.93,1.35,6.96,9.33,-0.02149035,-0.2447314,-0.1987915,0.3991357,0.4499118,-10.1381,1
