TimeUS,RPM,Curr,DesRoll,Roll,DesPitch,Pitch,DesYaw,Yaw,GyrX,GyrY,GyrZ,AccX,AccY,AccZ,Guasto
0,4018,3.31,0.05,0.56,-0.02,-0.33,17.98,17.99,-0.06728944,0.03414226,0.009819578,0.04444199,0.3435061,-10.11933,1
106912,4491,3.44,0.05,0.75,0.14,-0.76,17.98,18.06,0.0910841399999999,-0.1567214,0.009339339,0.08030052,0.08084888,-9.852399,1
210581,5211,4.3,0.01,0.75,0.39,-0.84,17.98,18.47,-0.08545148,-0.04442793,0.1188716,0.3188664,-0.1721117,-10.72514,1
324760,5761,4.59,-0.01,0.55,1.07,-0.89,17.98,19.42,0.02006223,0.1249414,0.176081,0.06633812,0.335322,-12.04087,1
540994,6075,4.93,-0.59,1.01,2.89,0.48,17.97,21.49,0.04448242,0.1615085,0.1456999,0.4411409,0.09941144,-11.8241,1
642214,6455,5.0,-0.93,0.61,3.76,1.41,17.96,22.43,-0.05620002,0.1826587,0.1320063,0.4653756,0.1856833,-11.80388,1
760871,6402,5.53,-1.69,0.57,4.38,2.69,17.49,23.06,0.04967603,0.3125125,0.1103266,0.3002286,0.3612713,-11.64224,1
869506,6668,5.07,-2.4,0.33,4.58,3.66,15.62,23.4,-0.1440766,-0.001162111,0.005416089,0.5692558,0.4216541,-10.85883,1
975382,6626,5.65,-2.97,-0.4,4.65,3.52,13.73,23.1,-0.0863279,-0.04180247,-0.1081152,0.4836628,0.2705384,-10.98042,1
1085964,6585,5.39,-3.45,-1.11,4.74,3.29,11.85,22.1,-0.04448553,-0.06793439,-0.2019469,0.4693316,0.4783766,-10.4702,1
1192903,6591,5.12,-3.75,-1.75,5.02,3.63,9.73,20.66,-0.1503092,0.1024102,-0.2692274,0.4965458,0.3463029,-10.62059,1
1306054,6708,5.13,-3.9,-2.4,5.35,4.23,7.8,18.78,-0.1055766,0.1839884,-0.320951,0.6107008,0.4645558,-10.3156,1
1412218,6586,5.08,-4.05,-2.25,5.54,4.6,7.08,16.6,0.1619431,0.1736453,-0.3405832,0.5277987,0.6593448,-9.889927,1
1527191,6651,4.47,-4.32,-1.72,5.34,5.31,7.09,14.28,0.04618809,0.05211332,-0.319949,0.425267,0.3273568,-10.2332,1
1641622,6362,4.2,-4.51,-2.0,4.87,5.67,7.13,12.36,0.05534794,0.02739522,-0.2734946,0.2003784,0.5232476,-9.952746,1
1742591,6287,4.21,-4.78,-1.93,4.19,5.79,7.19,11.11,0.05025334,0.03896528,-0.1703781,0.321692,0.5555294,-9.96634,1
1850563,6317,4.22,-5.27,-2.06,3.43,5.41,7.25,10.38,0.001973629,-0.08737873,-0.06321003,0.2145643,0.5117829,-9.649627,1
2064710,6171,4.53,-7.84,-6.18,1.75,4.57,7.44,10.43,-0.4484339,-0.0706693199999999,0.03472088,0.08836439,0.5326722,-9.574923,1
2183536,6257,5.16,-8.79,-7.78,0.86,3.82,7.58,10.79,-0.07671881,-0.1652701,0.04576145,0.02317943,0.6378667,-10.24249,1
2291732,6273,4.65,-8.47,-7.94,0.06,2.63,7.71,11.12,0.0936895,-0.1771448,0.06595127,0.07520185,0.6005175,-9.843181,1
2390887,6442,4.75,-7.67,-7.73,-0.52,1.85,7.79,11.44,0.1109253,-0.05209165,0.08219369,0.1405722,0.554781,-9.810091,1
2612339,6444,4.59,-6.07,-4.52,-1.5,0.34,7.91,13.14,0.2813056,-0.2546504,0.09781061,0.1645206,0.4546653,-9.684229,1
2718634,6518,5.05,-5.52,-3.03,-1.73,-0.78,7.93,14.1,0.2630528,-0.1497996,0.08666636,0.2284148,0.8134299,-9.994073,1
2827967,6605,4.18,-5.15,-1.75,-1.93,-1.44,7.95,14.7,0.06628444,-0.1113663,0.03966469,0.143655,0.4761736,-8.795737,1
2937516,6394,4.48,-5.07,-2.12,-1.83,-1.52,7.94,14.6,0.1043424,-0.08239701,-0.0601828,-0.06504965,0.6467571,-8.516781,1
3042020,6277,4.27,-5.32,-2.58,-1.64,-0.89,7.93,14.26,-0.05786704,0.1959256,-0.01802366,0.3904799,0.8020735,-8.895955,1
3148891,6099,4.15,-5.22,-3.2,-1.36,-0.64,7.9,13.31,-0.004961414,-0.05054839,-0.03071779,0.3384725,0.7707152,-9.007477,1
3268568,6071,4.01,-4.86,-3.38,-0.94,-0.56,7.86,12.85,0.01203922,-0.004624861,0.001670158,0.0670636,1.101592,-8.917171,1
3370733,6065,4.4,-4.7,-3.13,-1.08,-0.41,7.87,13.4,0.02389467,-0.08032734,0.003187584,0.4555987,0.9731244,-9.098011,1
3484350,6003,4.34,-5.03,-2.53,-1.18,-1.12,7.88,14.22,0.0521827,-0.1236569,-0.009615879,-0.02809006,0.7132906,-9.277855,1
3591122,6197,3.92,-5.77,-2.86,-1.16,-1.48,7.88,14.96,-0.02755966,0.03557455,-0.006355071,0.2848526,0.9743451,-9.00745,1
3697427,6159,3.5,-6.43,-4.1,-0.48,-1.63,7.8,13.9,-0.291618,0.08930206,0.01094802,0.1663437,0.8748934,-9.123302,1
3799157,5997,3.19,-6.48,-5.4,1.19,-0.88,7.61,11.99,-0.2529183,0.4092001,0.02599556,-0.06604362,0.8656708,-8.653899,1
3912932,5843,4.14,-5.48,-5.0,3.05,1.86,7.42,9.53,0.2925318,0.5621845,0.001159584,0.01798817,1.234348,-8.423883,1
4029893,5877,3.98,-4.55,-3.19,3.97,4.45,7.33,8.48,0.2415354,0.2814339,0.04217154,0.3934014,0.8804176,-9.169944,1
4135203,6025,4.07,-4.41,-1.91,3.87,5.34,7.34,9.3,0.02417061,0.01801328,0.07485741,0.3733259,0.772506,-8.861076,1
4232983,6144,4.82,-4.63,-2.32,3.28,4.89,7.39,10.56,-0.0899455,-0.2937731,0.1681831,0.5142603,1.194732,-9.369335,1
4460161,6286,4.76,-6.15,-3.92,2.88,1.83,7.42,13.25,-0.1414626,-0.2186446,0.1316014,0.303843,1.084323,-9.585861,1
4569173,6323,5.01,-6.82,-4.68,2.82,1.33,7.43,14.72,-0.1270977,-0.05024793,0.09117185,0.3082828,0.730116,-9.909833,1
4674558,6418,4.66,-7.13,-5.32,2.95,1.25,7.41,14.87,-0.1465339,0.09180056,-0.083318,0.1194864,1.105546,-10.21811,1
4782917,6227,4.55,-7.24,-5.33,3.24,1.61,7.38,13.79,0.0993156199999999,0.09531665,-0.2172122,0.2443557,0.8779743,-9.79286,1
4888100,6212,4.08,-7.1,-5.76,3.38,2.38,7.36,12.64,0.1298323,0.05576572,-0.1594437,0.6544213,1.058743,-10.26421,1
5005920,6125,4.29,-6.94,-4.9,3.6,2.18,7.33,12.13,0.1644978,-0.08557149,-0.1205367,0.7502695,0.7014838,-9.448054,1
5113924,6218,3.4,-6.51,-4.89,3.71,2.23,7.32,11.73,0.06468809,0.1142467,-0.08179796,0.3474628,0.9399333,-8.79445,1
5230174,5886,3.7,-6.16,-5.37,3.61,2.54,7.33,11.5,-0.01450435,0.0801349299999999,-0.1135849,0.3359791,0.9620268,-8.760283,1
5337747,5918,4.16,-6.11,-4.65,3.8,2.53,7.31,10.91,0.2072572,-0.01019145,-0.08649284,0.5371747,1.033675,-9.136878,1
5440546,6063,3.37,-6.15,-3.69,4.13,2.35,7.27,10.05,0.1670781,-0.01129791,-0.1073996,-0.03003302,0.6623209,-8.887871,1
5547980,5886,3.61,-6.74,-3.48,4.15,2.85,7.27,9.3,-0.1846518,0.06570262,-0.06015039,0.1887389,0.472921,-8.594875,1
5659419,5920,4.1,-8.67,-4.98,3.96,3.94,7.3,8.87,-0.3777702,0.1564302,-0.03727947,-0.495943,0.6432405,-9.450762,1
5769978,6090,3.38,-11.66,-8.33,4.39,5.34,7.22,8.82,-0.6443174,0.267244,-0.002071345,-0.0945045,1.168414,-9.504016,1
5879555,6095,4.03,-13.28,-11.32,4.86,7.0,7.11,8.7,-0.2114338,0.2605783,0.01648956,0.6826727,1.518778,-9.15939,1
5974416,5879,3.82,-13.94,-13.04,4.35,7.68,7.24,8.57,-0.2923193,0.06859772,-0.0119691,0.0699006499999999,1.57692,-9.415621,1
6094253,6115,4.48,-13.96,-14.19,3.64,6.92,7.41,8.87,-0.02058957,-0.1984461,0.04292253,0.3729024,1.504445,-9.962998,1
6203111,6240,4.72,-13.53,-13.65,2.59,5.42,7.67,9.41,0.1026614,-0.2979731,0.06792288,0.2062924,1.57178,-10.31701,1
6304033,6237,4.81,-12.74,-12.39,1.69,4.08,7.88,10.04,0.2176394,-0.2827537,0.07763306,0.009896059,1.766788,-10.29019,1
6422323,6393,4.55,-12.05,-10.7,0.98,2.71,8.04,10.69,0.1401184,-0.1731444,0.06208205,0.1446731,1.353834,-9.914984,1
6522157,6516,4.58,-11.62,-10.23,0.53,2.13,8.13,11.07,0.1317224,-0.07905668,0.02420593,0.2942512,1.284765,-9.767225,1
6625597,6554,4.5,-11.4,-10.48,0.22,2.03,8.2,11.35,-0.09523266,-0.04547102,0.06116519,0.387425,1.515387,-9.562418,1
6732514,6400,4.56,-11.37,-10.73,0.1,1.72,8.22,11.87,-0.06234405,-0.147525,0.04592749,0.6008419,1.610058,-10.42099,1
6860135,6433,4.72,-11.33,-11.2,0.19,1.53,8.2,12.56,0.006817022,0.0640128799999999,0.1141889,0.3609945,1.818907,-9.705994,1
6953655,6381,4.94,-11.25,-11.01,0.25,1.4,8.19,12.64,0.04707159,0.001133386,0.06047623,0.1681258,1.842966,-10.03412,1
7069978,6568,4.88,-11.13,-10.84,0.11,1.53,8.22,12.31,-0.02330453,-0.04203717,-0.000178243,0.3117089,1.520884,-9.891844,1
7189778,6542,4.53,-10.89,-11.06,-0.04,0.95,8.25,11.75,0.0602284,-0.06664811,-0.02741464,0.3536226,1.629375,-9.4865,1
7276392,6540,4.48,-10.71,-10.87,0.03,0.57,8.23,11.57,0.02120047,-0.02404052,-0.03054321,0.03900402,1.575172,-10.16048,1
7393372,6439,4.75,-10.24,-10.27,0.29,0.91,8.19,11.48,0.1455818,0.05951628,0.00265461,0.06453378,1.600919,-10.03856,1
7493117,6386,4.74,-9.8,-9.51,0.46,1.42,8.16,11.56,0.09156446,0.1213102,0.0470415,0.2089608,1.424628,-10.33742,1
7608311,6451,4.07,-8.92,-8.77,0.87,1.68,8.09,12.03,0.1014776,0.04073041,0.02847022,0.8095965,1.600078,-9.497292,1
7722673,6256,4.77,-7.84,-7.46,1.43,1.75,8.01,12.25,0.1908402,-0.0976973,0.009428878,0.5076298,1.649879,-9.850361,1
7829531,6413,4.91,-7.25,-5.84,2.01,1.7,7.93,12.22,0.2778617,-0.01427151,-0.01949096,0.3852388,1.130351,-9.869602,1
7937118,6554,3.93,-6.68,-4.91,2.65,1.61,7.85,12.2,-0.04210025,-0.07290716,-0.04473057,0.1135915,0.9207554,-9.006073,1
8048131,6329,4.63,-6.3,-5.18,3.54,2.52,7.75,12.19,0.04777454,0.1635755,0.01745494,0.101848,1.314053,-9.306356,1
8154907,6129,4.33,-5.87,-6.3,4.32,4.0,7.67,11.91,-0.3853194,0.2366974,-0.03402952,0.3101651,0.7790021,-8.879348,1
8259603,6150,4.94,-5.36,-6.56,4.81,5.37,7.62,11.51,0.07498916,0.1815421,-0.04803637,0.3318389,1.233288,-8.902447,1
8368315,6341,4.54,-4.65,-5.84,5.03,6.33,7.6,11.17,0.1098661,0.1185041,-0.03738987,0.01745729,1.016747,-9.477684,1
8482412,6294,4.98,-3.79,-4.76,4.71,6.53,7.62,11.04,0.2204035,0.002631664,0.004215253,0.3340866,1.101779,-9.44856,1
8595397,6494,4.8,-3.26,-3.88,4.28,6.4,7.65,11.03,0.1700234,-0.004110655,-0.04152066,0.1643784,1.053668,-9.596987,1
8698389,6431,4.92,-2.87,-3.57,3.87,5.86,7.67,10.95,0.1179785,-0.1139935,-0.03362942,0.2033731,1.297131,-9.652133,1
8816390,6538,5.02,-2.83,-2.92,3.74,4.53,7.68,11.06,0.09639597,-0.1518838,-0.02186616,-0.02546728,1.29176,-9.992408,1
8916972,6481,4.62,-2.88,-2.57,3.53,3.98,7.69,10.96,0.01002942,-0.06485984,-0.03718938,0.1109532,0.9965262,-9.755743,1
9038561,6418,4.74,-2.99,-2.5,3.35,4.05,7.7,10.64,0.01102499,0.05722712,-0.01117928,0.3285789,1.269953,-9.990104,1
9135570,6452,4.6,-3.32,-2.32,3.19,4.01,7.71,10.31,0.005211505,-0.0376456,-0.03055402,0.07413709,1.077604,-10.13512,1
9246990,6357,4.51,-3.64,-2.95,3.0,3.84,7.72,10.31,-0.1439974,0.05197407,0.07071207,0.395222,0.7735779,-9.565009,1
9365976,6367,4.38,-3.97,-3.4,2.88,3.37,7.73,10.96,-0.08961436,-0.1139699,0.09879375,0.2601174,1.165507,-10.03429,1
9475638,6337,4.48,-3.97,-4.04,2.77,2.69,7.73,11.63,-0.1339946,-0.06010443,0.08278499,0.1379695,1.113096,-10.02678,1
9574549,6427,4.93,-3.97,-4.05,2.42,2.53,7.76,12.08,-0.001821467,-0.03099399,0.04986602,0.1914205,0.8603672,-9.703507,1
9694884,6401,4.88,-3.95,-3.8,2.11,2.2,7.78,12.39,0.1468354,-0.0758791,0.0333075,0.3081291,1.407363,-9.926508,1
9799772,6413,4.65,-4.04,-3.67,1.9,2.12,7.79,12.59,0.02504716,0.01182195,0.01988862,0.2028741,1.221378,-9.651718,1
9913546,6402,5.03,-4.2,-3.92,1.73,2.03,7.81,12.72,-0.1002993,-0.05813697,0.06197687,0.3244014,1.081617,-9.979771,1
10120126,6429,4.43,-4.4,-4.03,1.9,1.25,7.79,12.94,0.1585476,-0.07461812,-0.006520193,0.2335309,1.013444,-9.534299,1
10230319,6517,4.89,-4.3,-4.41,2.19,1.25,7.77,12.69,-0.05814029,0.1036356,-0.04933544,0.2263494,0.9949383,-9.85134,1
10342426,6317,4.81,-4.12,-4.43,2.47,1.25,7.75,12.58,-0.01553257,0.02411921,0.02054062,0.2270544,0.9774855,-10.19535,1
10455989,6364,4.68,-3.95,-4.03,2.7,1.61,7.73,12.55,0.05320191,-0.003797782,-0.03783421,0.5934238,0.8943573,-9.423509,1
10551591,6427,4.83,-3.9,-3.89,2.19,1.79,7.77,12.48,-0.0277978,-0.1300899,-0.01149869,0.4111253,0.911526,-10.011,1
10666647,6387,5.09,-3.88,-4.03,1.53,0.84,7.81,12.41,-0.0888135,-0.04418727,-0.006801741,0.2678052,0.9241297,-9.857538,1
10775977,6279,4.57,-4.14,-4.27,0.75,0.36,7.87,12.4,-0.0750186999999999,-0.04938286,-0.04723321,0.3408273,1.091442,-9.917782,1
10989166,6494,4.88,-4.16,-4.32,-0.69,-0.02,7.97,11.67,0.008421433,-0.02988861,-0.05751669,0.2215758,1.139637,-9.660491,1
11313923,6484,4.61,-4.49,-4.09,-5.17,-4.01,8.31,10.91,0.05645829,-0.2197297,-0.03585151,0.2290259,1.306641,-9.739901,1
11422495,6456,4.53,-4.69,-4.83,-5.89,-5.53,8.37,10.92,-0.1983082,-0.1584304,-0.006747745,0.06900558,1.29572,-9.934146,1
11531773,6323,5.31,-4.91,-5.73,-6.26,-5.54,8.4,11.05,-0.0875218299999999,0.1160201,1.761444e-05,-0.1088013,1.124657,-10.30704,1
11644386,6486,5.32,-4.99,-5.66,-6.36,-5.04,8.41,11.09,0.0637741,0.02818738,-0.01059048,-0.05825153,1.087695,-10.15528,1
11749918,6648,5.27,-4.86,-5.4,-6.34,-4.34,8.41,10.9,-0.00749188,0.1395777,-0.02043342,-0.03428216,1.012087,-10.259,1
11851607,6708,5.41,-4.69,-4.77,-6.29,-3.81,8.41,10.9,0.2065511,-0.0009866158,0.04902605,-0.07285279,1.085705,-10.23962,1
11968551,6593,5.21,-4.61,-4.29,-5.64,-3.83,8.35,11.56,0.02996841,-0.06112847,0.1530216,0.2907571,1.131966,-10.58302,1
12078740,6703,4.81,-4.41,-4.59,-4.93,-4.06,8.3,12.22,-0.01713557,-0.04882787,0.1045776,-0.04739655,1.186418,-10.10453,1
12178907,6598,5.48,-4.35,-4.59,-4.5,-3.84,8.26,12.63,0.01071531,-0.0363006,0.09745971,0.140562,1.198493,-10.06895,1
12289715,6510,5.13,-4.24,-4.32,-4.08,-3.61,8.23,12.93,-0.01220188,0.05611927,0.07267603,0.06126454,1.073947,-10.04413,1
12405403,6692,4.95,-4.0,-4.59,-4.12,-3.68,8.23,12.93,-0.0513206,-0.02001626,0.006775159,0.3550332,1.035118,-9.303009,1
12506379,6461,5.21,-3.95,-4.32,-4.06,-4.08,8.23,12.89,0.0568404,-0.05419315,0.02164544,-0.120469,1.001948,-9.728607,1
12628589,6577,4.79,-3.88,-4.3,-3.92,-3.39,8.22,12.67,0.06266139,0.0927147,0.008329461,0.1755186,1.231803,-9.512122,1
12737105,6620,5.09,-4.14,-4.35,-2.46,-2.53,8.12,12.21,-0.06786063,0.285642,-0.0560361,-0.1145874,1.08656,-9.719897,1
12845424,6545,5.11,-4.49,-4.13,-0.46,-0.35,7.97,11.67,0.03785111,0.3932523,-0.03521905,0.01617433,0.8341011,-9.516177,1
12946044,6588,4.49,-4.5,-4.48,0.9,1.01,7.86,11.1,0.007148625,0.1463594,-0.07635263,0.3979735,0.832499,-9.700227,1
13054347,6318,4.77,-4.31,-4.82,1.72,2.24,7.79,10.5,-0.05998104,0.1290024,-0.06508151,0.2313787,0.776019,-9.81249,1
13162780,6384,4.59,-3.87,-4.75,1.49,2.57,7.81,10.14,-0.01027365,-0.05047913,-0.04023898,0.4097767,0.8341538,-10.02402,1
13268406,6177,4.8,-3.56,-3.84,1.15,1.82,7.83,10.24,0.2118993,-0.06734898,0.02912376,0.02871827,0.9111379,-9.919307,1
13390782,6589,4.09,-3.21,-3.94,0.84,0.74,7.85,10.51,-0.117021,-0.1452959,-0.02743764,0.1180623,0.7740937,-9.437174,1
13487513,6235,4.37,-2.6,-4.36,0.91,0.81,7.85,10.34,0.004138354,0.254618,-0.04448055,-0.0176346,0.8277653,-8.868065,1
13598750,6124,4.85,-1.52,-3.77,0.79,2.17,7.85,9.69,0.206442,0.1975856,-0.0936559399999999,0.1447213,0.5699909,-9.788666,1
13716896,6282,4.79,-0.42,-1.79,0.78,3.0,7.85,9.04,0.2489926,0.03887463,-0.0735439799999999,0.08710697,0.5446146,-10.31271,1
13825981,6485,4.46,0.56,-0.33,0.59,2.36,7.85,8.53,0.2038227,-0.13178,-0.0920722,0.0638618,0.5759934,-9.859679,1
13923248,6255,4.26,0.97,0.51,0.41,1.58,7.85,8.15,0.1403395,-0.1241511,-0.07173011,-0.005545416,0.5755258,-10.26536,1
14038171,6204,3.87,1.31,0.8,0.39,0.81,7.85,7.83,0.005278524,-0.1505862,-0.003583365,-0.02372059,0.6185064,-9.841354,1
14146400,6098,4.14,1.42,1.21,0.79,0.01,7.86,7.96,0.1667122,-0.06187968,0.06445795,0.2789809,1.032894,-9.625849,1
14255706,6089,4.02,1.21,2.04,1.68,-0.82,7.88,8.18,0.002274138,-0.1084587,0.03071921,0.2768868,0.6763638,-10.13803,1
14476192,6190,3.87,1.1,1.43,3.1,0.28,7.91,8.72,-0.2340818,0.07163193,0.0482129,0.6969662,0.5171524,-9.154543,1
14692613,5996,4.5,-0.2,0.73,1.76,-0.99,7.89,8.49,0.01654884,-0.1631507,-0.02664693,0.1681575,0.7418358,-9.924741,1
14803372,6265,3.99,-0.85,-0.02,1.33,-1.42,7.9,8.31,-0.08703105,-0.09501415,-0.05395883,0.3953417,0.8817982,-9.959784,1
14910121,6192,4.04,-1.43,-1.36,1.24,-1.41,7.9,8.0,-0.2363727,0.05177865,-0.05024958,0.05669089,0.9969721,-9.541111,1
15019760,6105,4.5,-2.05,-2.5,1.03,-0.61,7.91,7.81,-0.1171796,0.2587901,-0.007936291,0.2400598,1.038223,-9.892483,1
15132655,6176,4.48,-2.25,-2.64,0.5,0.62,7.93,7.73,-0.0318195,0.2106388,0.0112416,0.1230379,0.6261697,-9.62714,1
15238108,6231,4.3,-1.9,-2.95,-0.31,1.0,7.96,7.57,-0.00772493,-0.02822441,-0.01423808,-0.2047913,0.8216461,-10.23119,1
15347542,6282,4.73,-1.97,-2.7,-1.18,0.22,7.99,7.81,0.03754716,-0.1067738,0.07167809,-0.1016715,0.9010886,-9.934009,1
15449612,6243,4.87,-2.19,-2.36,-1.86,-0.11,8.01,8.27,0.02957878,-0.10527,0.1087217,0.01561521,0.8521041,-10.28429,1
15565381,6353,5.09,-2.8,-2.5,-2.32,-0.61,8.03,9.13,-0.1336458,-0.04179573,0.1204053,-0.1206162,0.6881073,-10.1874,1
15668327,6473,4.98,-3.75,-3.61,-2.73,-1.11,8.05,10.03,-0.2083422,-0.1742171,0.142577,0.2216704,0.8611195,-9.725378,1
15784776,6604,5.11,-4.56,-5.2,-3.38,-1.74,8.1,11.22,-0.2444024,-0.1211945,0.1429226,0.1182159,0.8059016,-10.22529,1
15893659,6665,5.4,-4.81,-5.83,-3.92,-2.56,8.15,12.16,-0.01565029,-0.1325933,0.1139974,-0.06238634,0.969492,-10.44012,1
16003866,6610,5.34,-4.64,-5.62,-4.32,-3.45,8.18,13.02,0.09029587,-0.1372127,0.125816,-0.1098866,0.7146161,-10.32816,1
16108821,6720,5.09,-4.12,-5.68,-4.42,-3.94,8.19,13.42,0.0091215299999999,-0.08331627,0.02376651,-0.08515046,0.8784674,-9.849605,1
16224158,6585,5.43,-3.78,-5.61,-4.67,-3.68,8.21,13.29,0.07302943,0.04208889,-0.04379429,-0.07925122,0.8136288,-9.75852,1
16330422,6589,5.29,-3.6,-5.36,-4.79,-2.94,8.21,12.87,0.09042944,0.1239563,-0.04822183,0.02607333,0.8391134,-10.14425,1
16440539,6644,5.15,-3.84,-5.15,-4.93,-2.58,8.22,12.37,-0.02725869,0.0779975599999999,-0.07727241,-0.2233244,0.7412593,-10.13661,1
16550050,6718,5.15,-4.12,-5.32,-5.19,-2.12,8.24,11.81,-0.06121601,0.07683223,-0.06560647,-0.2869539,0.833016,-10.21612,1
16655004,6582,4.83,-4.32,-5.31,-5.62,-2.0,8.27,11.37,-0.0278562,-0.1459913,-0.08913457,0.0701965,0.7637743,-10.34663,1
16770614,6459,4.61,-4.49,-5.43,-6.04,-2.86,8.31,10.89,0.03495555,-0.1680573,-0.1050006,-0.3545302,0.7644231,-9.630372,1
16873361,6481,5.07,-4.63,-5.16,-6.51,-3.75,8.34,10.31,0.1114195,-0.04858757,-0.129682,-0.3712193,0.7075946,-9.866424,1
16987003,6412,4.46,-4.64,-5.43,-6.87,-3.94,8.37,9.67,-0.1284798,0.04533681,-0.07050346,-0.6176793,0.944738,-9.905739,1
17099900,6383,4.42,-4.61,-5.61,-7.1,-4.08,8.39,9.03,-0.03874431,-0.09711365,-0.1030288,-0.5073944,0.8403141,-10.16814,1
17209414,6353,4.36,-4.4,-5.53,-7.16,-4.94,8.4,8.35,0.08171251,-0.1031058,-0.1019182,-0.382408,0.8907619,-9.356401,1
17317936,6311,4.25,-4.21,-5.16,-7.28,-5.18,8.41,7.71,0.06579569,0.01164068,-0.07856834,-0.4505088,0.6164345,-9.658287,1
17427648,6271,4.33,-3.84,-4.79,-7.12,-5.18,8.39,7.27,0.1300599,-0.05192862,-0.05948834,-0.545789,0.8176001,-9.832552,1
17536979,6256,4.49,-3.48,-4.47,-6.76,-5.29,8.37,7.03,0.08825,-0.07103428,-0.007002197,-0.3178794,0.5667056,-9.437058,1
17647644,6072,4.69,-3.63,-4.43,-5.73,-4.75,8.31,6.96,-0.03219375,0.199671,0.03309828,-0.7577955,0.859482,-9.740302,1
17755882,6264,4.03,-3.42,-4.49,-3.96,-2.56,8.19,6.94,0.006010786,0.358622,0.02239756,-0.3011126,0.7385703,-10.27914,1
17855592,6185,4.28,-2.9,-4.06,-2.85,-0.92,8.13,6.98,0.1278219,0.2137815,0.0129551,-0.5425354,0.9054544,-9.838468,1
18076724,6183,4.29,-2.27,-2.4,-1.73,0.27,8.08,6.77,0.0980694399999999,-0.01104144,-0.04087075,-0.5172582,0.7583714,-9.921851,1
18185882,6114,3.92,-2.14,-2.46,-1.28,0.51,8.07,6.79,-0.05156944,0.09308049,0.0221028,-0.3822032,0.8451574,-9.668674,1
18296881,6112,3.99,-2.28,-2.64,-0.6,0.74,8.04,6.81,-0.02565733,0.1000382,0.001214095,-0.4480205,0.735056,-9.744319,1
18408597,6096,4.07,-2.59,-3.18,0.22,0.99,8.0,6.82,-0.08318063,-0.05710427,-0.003150956,-0.3305005,0.5962206,-9.50541,1
18519658,6238,4.22,-2.93,-3.72,0.96,1.5,7.97,6.84,-0.1480357,0.1286835,0.03321911,-0.6251432,0.5808736,-9.740363,1
18629985,6064,4.55,-3.31,-3.65,1.58,1.92,7.93,6.79,0.0001968998,0.04459239,0.01307906,-0.3992063,0.6866318,-9.749547,1
18840868,6142,4.68,-4.81,-3.97,3.56,2.96,7.79,7.4,-0.08160158,0.08138692,0.08704156,-0.08486892,0.8296299,-9.728771,1
18953328,6177,4.92,-6.02,-4.63,5.1,3.76,7.65,8.19,-0.05182194,0.1178107,0.1474781,-0.1843538,0.9241652,-10.02456,1
19064989,6290,5.0,-7.27,-5.41,6.42,5.44,7.49,8.91,-0.1655459,0.237346,0.1495441,0.02398808,0.9090411,-9.873475,1
19174120,6495,5.08,-8.23,-6.48,7.39,6.68,7.36,9.63,-0.1473603,0.0183801,0.1419335,0.0758439499999999,0.8089445,-10.18591,1
19286674,6439,5.16,-8.9,-6.97,7.81,7.13,7.3,10.52,-0.0004926065,0.03115961,0.1308039,0.0792849999999999,0.9481441,-10.06055,1
19395351,6561,4.55,-7.86,-6.66,6.57,6.48,7.48,11.35,0.1657831,-0.2986127,0.1166292,0.2669739,1.378319,-10.30989,1
19497577,6474,5.25,-6.69,-5.29,4.7,4.1,7.72,11.86,0.279569,-0.4988247,0.02982664,0.07467242,0.9446263,-9.444458,1
19719861,6573,4.85,-5.23,-3.26,2.26,0.67,7.98,11.89,0.1422525,-0.01968539,-0.03064263,-0.3055696,0.9784566,-9.545989,1
19825386,6626,4.98,-4.24,-3.13,1.93,0.97,8.01,11.57,-0.0001825205,0.1182321,-0.003687433,-0.2565121,1.114593,-10.01617,1
19935570,6487,5.19,-3.25,-2.57,1.61,1.71,8.03,10.87,0.05934131,0.1149616,-0.1636944,-0.1138007,0.9403667,-9.724523,1
20045219,6633,4.86,-2.33,-2.29,0.82,2.5,8.07,9.95,0.007880194,0.0437457,-0.1563836,-0.2886976,1.137415,-10.48869,1
20157135,6471,4.83,-1.87,-2.05,0.25,2.23,8.09,9.0,0.103909,-0.04780356,-0.1547096,-0.2411592,0.9275521,-9.684985,1
20365959,6472,5.02,-0.55,-0.82,-0.37,-0.93,8.11,8.28,0.2640024,-0.2963367,-0.01392374,-0.2110718,0.8021257,-9.485661,1
20478712,6518,5.31,-0.01,1.18,0.02,-2.09,8.11,8.31,0.4145152,-0.138334,-0.00379756,-0.1390947,0.7399343,-10.1546,1
20583497,6565,4.65,0.42,3.26,0.46,-2.6,8.11,8.28,0.1787708,-0.08542378,-0.01820478,-0.1430849,0.250827,-10.31107,1
20802896,6665,4.05,1.37,0.89,0.77,0.3,8.11,7.63,-0.1525126,0.2378905,-0.02962238,0.004422658,0.8710608,-9.201872,1
20913325,6189,4.13,1.97,0.71,0.66,0.63,8.11,7.31,0.01756132,0.006625705,-0.09192095,0.03556225,0.7814919,-9.802071,1
21011633,6096,3.74,2.87,0.83,0.26,0.24,8.09,7.0,0.09976258,-0.1070115,-0.06680427,-0.4561433,0.6473304,-9.769923,1
21123603,5952,4.19,3.41,1.91,-0.08,-0.69,8.07,6.92,0.2476818,-0.2269298,0.02332095,-0.07081635,0.7658093,-9.509753,1
21223641,6056,4.02,3.66,2.87,0.02,-1.55,8.08,7.12,0.1533155,-0.02773363,0.09022571,-0.04551602,0.7297521,-9.250382,1
21347547,6024,4.35,3.76,3.36,0.42,-1.37,8.11,7.73,0.08587311,0.1023038,0.0939175,0.0330281,0.6956,-9.488065,1
21458724,6143,4.69,3.49,3.54,0.89,-0.38,8.14,8.46,-0.02984248,0.1676287,0.08715564,0.2989069,0.5268216,-9.72974,1
21555767,6158,4.12,3.12,3.44,1.42,0.06,8.17,8.96,0.02344287,0.04247965,0.07007006,0.02133645,0.5237935,-9.49473,1
21677113,6191,4.58,2.88,2.73,1.74,0.69,8.18,9.55,-0.1364016,0.08816019,0.1058106,-0.04774328,0.3795824,-9.798351,1
21777530,6251,4.33,2.87,2.2,1.84,0.71,8.19,9.76,0.04340576,-0.1260791,-0.008850798,0.04704989,0.5852605,-9.767407,1
21886940,6212,4.31,3.0,2.02,1.83,0.66,8.19,9.72,0.03856959,-0.03600246,-0.01797109,0.125137,0.5081948,-9.374263,1
21983972,6195,4.47,3.13,2.12,1.84,0.69,8.19,9.59,0.06827733,0.01977831,-0.02778664,0.1070176,0.6330649,-9.849622,1
22097426,6122,4.7,3.26,2.15,1.9,0.96,8.19,9.36,-0.01556655,0.0628108099999999,-0.0537959,0.2461627,0.6074512,-9.859051,1
22312410,6235,4.11,3.36,1.9,1.95,1.23,8.19,8.86,-0.0836453999999999,-0.003637405,-0.06330287,-0.02023626,0.5255067,-9.82853,1
22420995,6079,3.92,3.54,1.65,1.83,1.09,8.19,8.34,-0.0397113,-0.08401247,-0.102548,0.06925381,0.415009,-9.600639,1
22527142,5964,4.04,3.63,1.49,1.73,0.83,8.18,7.71,0.01186592,0.01992084,-0.08299507,-0.1105659,0.4732449,-9.437843,1
22649900,5822,4.19,3.75,1.77,1.63,0.98,8.17,7.34,0.06085803,0.08738585,-0.01655265,0.1144859,0.5110306,-9.845071,1
22860606,5886,4.23,3.6,2.05,1.86,1.43,8.19,7.33,-0.001668016,-0.003859951,0.01534508,0.1145784,0.673642,-9.855681,1
22978332,5957,4.12,3.22,1.96,2.03,1.61,8.2,7.39,-0.02638212,0.05214237,0.01097742,0.08251739,0.3800847,-9.813094,1
23075512,6116,4.04,2.99,1.58,2.05,1.71,8.2,7.46,-0.02765911,-0.0679009899999999,0.001712249,0.2010267,0.5914454,-9.90303,1
23188601,6164,4.07,2.74,1.24,1.95,1.52,8.2,7.65,-0.02606521,-0.0643027199999999,0.02156966,0.09410934,0.5616101,-9.684841,1
23303568,6025,4.06,2.75,1.15,1.81,1.3,8.19,7.88,0.04444297,-0.06665533,0.02950029,0.1859679,0.5161744,-9.817031,1
23408545,5994,4.33,2.67,1.4,1.95,1.08,8.2,8.15,0.04454765,-0.0582514,0.05079123,0.1848846,0.6635817,-10.04983,1
23516212,5951,4.28,2.49,1.55,2.06,1.04,8.2,8.47,-0.01674435,-0.02206548,0.04545701,0.04538614,0.5253279,-9.704892,1
23624932,6086,4.39,2.21,1.15,2.11,1.11,8.2,8.79,-0.05885473,0.03788321,0.0290389,0.1715055,0.4280157,-10.08226,1
23732386,6147,4.49,1.63,0.87,2.04,1.19,8.2,8.93,-0.0803821599999999,0.06288889,-0.004285643,0.4365405,0.3050872,-9.722555,1
23845065,6223,4.97,0.34,0.11,1.92,1.14,8.2,8.98,-0.2288576,0.02386075,0.009408352,0.05699942,0.1788432,-10.1162,1
23951243,6317,5.02,-2.89,-2.47,1.84,1.33,8.2,9.08,-0.6075193,0.007443855,0.007130736,0.2211601,0.0925444099999999,-10.17547,1
24059870,6339,4.39,-7.36,-7.12,1.86,1.33,8.2,9.31,-0.7834036,0.03730809,0.04298738,0.2449847,0.5551367,-9.863307,1
24166873,6160,4.49,-10.44,-11.09,1.93,1.55,8.19,9.47,-0.5048803,0.03205723,0.02902499,0.2628584,0.5888797,-9.942572,1
24277175,6217,4.58,-11.98,-13.37,2.08,1.63,8.15,9.55,-0.2323136,-0.0081714979999999,0.01934821,0.2271983,0.6610354,-10.14738,1
24385155,6267,4.74,-12.37,-13.51,2.38,1.65,8.09,9.61,0.05392665,0.02735348,0.02484107,0.1826564,0.6857195,-10.1964,1
24496904,6365,4.66,-12.23,-12.35,2.6,1.94,8.04,9.62,0.2116337,0.0146121,-0.003955582,0.1347132,0.6232312,-10.07154,1
24716778,6317,4.87,-12.49,-11.0,2.84,2.87,7.99,9.73,0.03694886,0.0639999599999999,-0.01405408,0.3171949,0.5940304,-9.728931,1
24922947,6384,4.25,-12.6,-11.28,3.02,2.92,7.95,9.45,-0.02724339,-0.002655713,-0.05575881,0.1435117,0.767647,-10.04336,1
25039419,6358,4.48,-9.8,-9.73,3.11,2.95,7.93,9.14,0.47289,0.01074558,-0.06277205,0.2929401,0.9923183,-9.830536,1
25152175,6217,5.08,-7.29,-6.21,2.89,3.1,7.96,8.79,0.5848469,0.02318852,-0.006381776,0.15017,0.7022631,-10.19326,1
25258926,6527,4.91,-5.68,-3.15,2.59,2.71,7.99,8.87,0.3759152,-0.09023821,0.05291262,0.2584971,0.6086639,-10.31326,1
25369112,6483,4.51,-5.08,-1.99,2.26,2.03,8.02,9.17,0.05502545,-0.07120426,0.07059187,0.1668072,0.625193,-10.04256,1
25482927,6416,4.58,-5.14,-2.62,2.15,1.23,8.04,9.57,-0.1525058,-0.174743,0.0430792,0.262273,0.6185042,-9.974169,1
25596013,6472,4.71,-5.41,-3.51,2.26,1.17,8.02,9.76,-0.07078712,0.01814907,0.02153863,0.4922436,0.7556497,-9.483455,1
25706355,6314,4.76,-5.5,-4.05,2.62,1.39,7.99,9.63,0.003907282,0.1208915,0.008541979,0.2039339,0.8261881,-9.743656,1
25919999,6328,4.97,-5.35,-3.78,4.08,3.37,7.85,9.11,0.02707447,0.183976,-0.009003815,0.3338539,0.7233374,-9.301737,1
26037205,6339,4.52,-5.33,-3.82,4.63,4.52,7.8,8.8,-0.03044898,0.1680152,-0.05609178,0.3122734,0.7500082,-9.522275,1
26127564,6315,4.54,-5.43,-4.1,4.77,5.02,7.79,8.57,-0.1264898,0.06899338,-0.05742902,0.1701668,0.6449944,-9.990122,1
26239909,6400,4.67,-5.58,-4.24,4.87,5.08,7.78,8.3,-0.06090602,-0.03676198,-0.03126627,0.2745719,1.001071,-9.939533,1
26349942,6413,4.65,-5.76,-4.46,4.73,5.2,7.79,8.28,-0.05978227,0.0891237,0.02609432,0.2423835,0.663824,-9.805566,1
26459028,6375,4.75,-5.8,-4.69,4.61,5.13,7.8,8.66,-0.07837813,-0.05371988,0.07834888,0.2217512,0.9117716,-10.00945,1
26571950,6464,4.85,-5.63,-4.99,4.56,4.57,7.81,8.96,-0.02308591,-0.1292679,0.002051142,0.4092797,0.9193241,-9.615374,1
26681531,6316,4.74,-5.42,-4.68,4.47,4.19,7.82,9.1,0.05985997,-0.04384085,0.002835043,0.3300172,0.7826189,-10.1173,1
26790536,6356,4.62,-5.07,-4.38,4.6,4.29,7.81,9.08,0.02675664,0.08711235,-0.01252009,0.349877,0.6822036,-9.746902,1
26904797,6344,4.67,-4.76,-4.22,4.55,4.75,7.81,8.69,0.0983087,0.05126103,-0.06793634,0.3930492,0.7294502,-9.510319,1
27007386,6371,4.56,-4.65,-4.24,4.3,4.81,7.83,8.19,-0.02071476,-0.05074708,-0.08243921,0.3304411,0.7306342,-9.503849,1
27124287,6401,4.43,-4.52,-4.14,3.86,4.29,7.87,7.67,0.01981593,-0.1737646,-0.08837647,0.2681331,0.6493703,-9.950315,1
27233615,6264,4.15,-4.24,-4.3,3.54,3.76,7.89,7.22,0.04907192,-0.06755804,-0.07893914,0.2228927,0.8331591,-9.969515,1
27345544,6196,4.5,-4.01,-3.95,3.29,3.44,7.91,6.87,0.194792,-0.02538752,-0.05839556,0.1511112,0.8698621,-9.664745,1
27457152,6157,4.57,-4.03,-2.9,3.14,3.21,7.92,6.83,0.1807556,-0.02976784,0.0088416369999999,0.2793452,0.7642362,-9.45042,1
27564678,6167,4.2,-4.07,-2.6,3.09,2.62,7.92,6.87,-0.0585646,-0.1421952,0.002154147,0.2019743,0.7195807,-9.753985,1
27670969,6253,3.95,-4.12,-3.52,3.04,2.48,7.93,6.89,-0.1261276,0.0820111,0.01788324,0.06203728,1.177541,-9.584608,1
27788877,6009,4.38,-4.3,-4.25,2.8,3.13,7.94,7.01,-0.09041302,0.1427331,0.0253283,-0.2693195,0.9856256,-10.13514,1
27888717,6228,4.38,-4.31,-4.46,2.24,3.44,7.99,7.19,-0.04252584,-0.001799463,0.03094339,0.4578336,0.8626099,-9.615237,1
28010226,6303,4.58,-4.04,-4.73,1.7,2.88,8.03,7.76,0.02503735,-0.115121,0.09505818,0.06843238,0.9089724,-9.36741,1
28112958,6446,5.43,-3.86,-4.58,1.44,2.37,8.04,8.4,0.05495491,-0.008230845,0.1163009,0.1986532,0.9566215,-9.704903,1
28222454,6605,5.42,-3.84,-3.77,1.29,2.58,8.05,9.21,0.1610797,0.04103957,0.1596689,0.3273807,0.9465553,-10.33284,1
28330127,6543,5.29,-3.73,-3.39,1.31,2.67,8.05,10.24,0.06523398,-0.05518525,0.1463027,0.3090737,0.8640099,-10.19923,1
28443140,6705,5.54,-3.77,-3.14,1.46,2.65,8.04,11.19,-0.004867234,-0.02764553,0.1161026,0.3125899,0.704908,-10.0541,1
28554862,6754,5.47,-3.74,-3.46,1.62,2.22,8.03,11.68,-0.06046629,-0.02924582,0.0508933,0.3447614,0.9209634,-9.923632,1
28653392,6725,5.22,-3.79,-3.51,1.86,1.51,8.02,11.82,0.003337018,-0.1727111,-0.0003653856,0.2124366,0.8651344,-9.993246,1
28765167,6686,5.02,-3.77,-3.79,2.18,1.34,8.0,11.63,-0.04015629,0.02991969,-0.05849853,0.123866,0.7387411,-9.898037,1
28979516,6723,4.93,-3.62,-4.06,2.58,2.8,7.97,10.74,-0.02753792,0.132744,-0.0660691999999999,0.3050971,0.821367,-10.13319,1
29097730,6592,4.94,-3.48,-3.8,2.52,3.07,7.97,10.27,0.06756222,0.0827181,-0.06381731,0.1532407,0.7575856,-9.970192,1
29198599,6471,4.92,-3.42,-3.31,2.31,2.94,7.99,9.88,0.07382295,-0.02953351,-0.03994528,0.03900537,0.6826482,-9.66538,1
29424031,6478,4.83,-3.74,-2.54,2.01,2.19,8.0,9.07,-0.1028919,-0.04336779,-0.02704374,0.3369922,0.7058154,-9.505783,1
29527736,6243,4.33,-4.11,-2.97,2.13,1.72,8.0,9.04,-0.1751104,-0.0965365,0.0005593234,0.3693346,0.7402171,-9.703686,1
29637724,6354,4.53,-4.5,-4.12,2.52,1.95,7.97,9.43,-0.2189071,0.0978885699999999,0.06612721,0.3278852,1.061836,-9.402442,1
29749797,6190,4.96,-5.03,-4.62,2.95,2.34,7.93,9.95,-0.07059848,0.06543693,0.07310583,0.6163328,1.051008,-9.676589,1
29853649,6391,5.04,-5.43,-4.4,3.5,2.51,7.88,10.38,0.1022545,0.04419914,0.07573347,0.5721262,0.9747223,-9.358169,1
29960996,6630,4.8,-5.59,-4.64,3.82,2.63,7.85,10.71,-0.01521067,-0.05718152,0.03714503,0.2407031,0.8503882,-9.948155,1
30065343,6348,5.09,-5.66,-5.09,4.05,2.87,7.83,10.84,-0.247319,0.0123877,0.01765862,0.302052,0.8335687,-9.389752,1
30176490,6637,4.9,-5.75,-5.23,4.09,3.1,7.82,10.97,-0.1472863,0.01823704,0.02191,0.4920626,0.8318091,-9.227491,1
30286019,6360,5.33,-5.8,-5.43,4.08,3.51,7.82,11.11,-0.3500026,0.08840375,0.01321426,0.60339,0.802035,-9.848416,1
30404597,6429,4.92,-5.79,-5.02,4.22,3.25,7.81,11.18,-0.05569739,-0.04147974,-0.02395489,0.2924103,1.128367,-10.02352,1
30510399,6436,4.69,-5.75,-4.92,4.19,3.28,7.81,11.11,0.03467263,0.005945361,0.01822682,0.4097213,0.9150747,-9.732264,1
30718777,6357,5.31,-5.5,-5.42,4.73,3.0,7.76,10.95,-0.1538561,-0.09006438,-0.04840343,0.3363866,0.9955301,-10.03012,1
30840953,6487,5.12,-5.23,-5.02,5.22,3.25,7.71,10.47,0.1438335,0.06469854,-0.08347777,0.6720726,0.7544237,-9.833014,1
30947200,6405,4.58,-4.93,-5.0,5.74,3.84,7.67,10.0,0.1538143,0.042591,-0.0569924,0.6384414,0.9872319,-10.00987,1
31058690,6460,4.62,-4.81,-4.97,6.5,4.25,7.6,9.58,-0.03318878,0.0848061,-0.07233621,0.8871814,0.8560947,-9.863113,1
31156138,6339,4.7,-4.48,-5.01,6.71,4.87,7.58,9.05,0.05519393,0.1038007,-0.0874444199999999,0.6458818,0.769332,-10.0515,1
31271585,6294,4.58,-4.43,-4.51,6.73,5.43,7.58,8.74,0.0470934,0.08988332,-0.001875399,0.6126499,1.139469,-9.748103,1
31381742,6421,4.65,-4.44,-4.08,6.51,5.76,7.6,8.69,0.0738867099999999,-0.02872005,0.03475751,0.2921861,0.6669346,-10.12657,1
31590361,6355,4.17,-4.55,-4.29,6.03,5.04,7.64,9.0,-0.09604588,-0.01466557,0.04361204,0.5370932,0.9051954,-9.50948,1
31708625,6152,4.59,-4.7,-4.52,5.77,5.08,7.66,8.98,-0.1966798,0.121903,-0.004051507,0.3139683,0.9422804,-9.539282,1
31817084,6257,4.99,-4.8,-4.67,5.65,5.1,7.67,8.9,0.004066403,0.04161526,-0.05096005,0.5542505,0.8743145,-9.952535,1
31924088,6257,4.66,-4.88,-4.68,5.21,5.17,7.71,8.71,0.06852836,-0.04054259,-0.0248554,0.5494424,0.8310035,-9.800282,1
32027648,6268,4.92,-4.84,-4.37,4.69,5.26,7.75,8.61,0.19444,0.08296655,0.002594429,0.3558618,1.232374,-9.489135,1
32137164,6178,4.96,-5.02,-4.1,3.83,4.7,7.82,8.66,-0.03421406,-0.05873467,0.03549668,0.3859371,0.9008446,-9.768639,1
32245554,6332,4.96,-5.41,-4.0,3.1,4.11,7.89,8.8,-0.03130984,-0.1306763,0.002756798,0.2199753,0.9732162,-10.03744,1
32357648,6517,4.95,-5.78,-3.81,2.69,2.9,7.93,9.07,-0.1074085,-0.2677787,0.01105838,0.176545,0.9148468,-10.6272,1
32464581,6549,4.25,-5.93,-4.98,1.14,1.82,8.09,9.41,-0.3651408,-0.1751746,0.02602737,0.3348782,1.049989,-10.0795,1
32577860,6396,5.42,-6.24,-5.75,-1.71,-0.29,8.39,9.93,0.02892211,-0.4121283,0.009253941,0.7228584,1.184933,-9.96413,1
32690341,6366,4.9,-6.33,-6.02,-4.17,-3.9,8.67,10.41,-0.108709,-0.5447492,0.02202608,0.4408764,1.124478,-10.38855,1
32785144,6442,5.03,-6.13,-6.3,-5.6,-5.8,8.82,10.78,0.030612,-0.2067944,0.03318775,0.04356689,1.100902,-9.999321,1
32902173,6512,5.49,-6.03,-6.07,-6.57,-6.09,8.93,10.77,0.02536812,0.0627046899999999,0.001457184,-0.01719153,1.186085,-10.31292,1
33008914,6714,5.35,-5.99,-5.61,-7.07,-5.84,8.98,10.67,0.05795182,0.07681863,-0.01033701,0.4007551,1.023363,-10.54977,1
33115296,6706,5.44,-6.01,-5.33,-7.28,-5.86,9.0,10.68,0.03967078,-0.0604355,0.01943396,0.1225389,1.193774,-10.47885,1
33232957,6582,5.17,-6.05,-5.29,-7.23,-6.4,9.0,10.94,0.03862477,-0.05351413,0.03772832,-0.142343,1.271478,-10.48867,1
33329748,6680,5.1,-6.02,-5.71,-7.14,-6.28,8.99,11.34,-0.0920415,0.02929714,0.0405591,-0.04769472,0.9946353,-10.1891,1
33441752,6602,5.44,-5.86,-6.16,-6.92,-5.87,8.97,11.76,0.1004579,0.05665294,0.03965512,0.1751848,1.047528,-9.816077,1
33543035,6642,5.65,-5.72,-5.93,-6.59,-5.81,8.93,11.83,-0.00955596,5.843986e-05,-0.02231629,-0.2386437,0.8236837,-10.10699,1
33653244,6641,5.16,-5.57,-5.52,-6.39,-5.79,8.91,11.45,0.1888505,-0.03543135,-0.09422393,0.1922799,1.036053,-9.98883,1
33763909,6595,5.2,-5.68,-5.2,-5.93,-5.74,8.87,10.69,-0.2113173,0.02917587,-0.126559,-0.2057654,0.8882488,-10.31488,1
33866635,6499,5.02,-6.19,-5.18,-5.37,-5.29,8.81,9.77,-0.175221,0.2059459,-0.1412243,-0.4327886,0.8476009,-9.643519,1
34088749,6482,4.66,-7.19,-7.74,-4.29,-2.04,8.68,7.91,-0.0941365,0.07977457,-0.0358263,-0.02988065,1.146821,-9.712884,1
34200994,6419,4.62,-7.07,-7.65,-3.82,-1.75,8.62,7.72,-0.03088845,0.04729363,0.01048135,0.06628333,0.7245658,-9.937919,1
34312020,6291,4.22,-6.4,-7.57,-2.33,-1.05,8.44,7.69,0.03119318,0.2811283,0.01563434,-0.0713347,0.9569981,-9.693684,1
34420640,6192,4.98,-5.61,-6.36,-1.01,0.36,8.31,7.65,0.21422,0.1788997,0.03379238,0.1708355,0.8687887,-9.798862,1
34526492,6401,4.72,-5.17,-5.1,0.77,1.8,8.14,7.66,0.1191589,0.2864956,0.01774025,0.04062173,0.847726,-9.625772,1
34638501,6429,4.77,-5.44,-4.92,1.87,3.22,8.04,7.5,-0.03883039,0.1134665,-0.04686454,0.335665,0.7947975,-9.54249,1
34750173,6285,4.46,-6.7,-5.7,2.34,3.23,7.99,7.11,-0.196075,-0.03756636,-0.08516544,0.0845035,0.6139342,-9.804067,1
34858425,6281,4.14,-8.28,-8.28,2.95,2.91,7.91,6.79,-0.431518,-0.0269943,-0.0273798,0.008547424,0.8651834,-9.869115,1
34964588,6202,4.57,-9.77,-10.67,3.75,3.65,7.78,6.65,-0.208246,0.1282724,0.02008529,0.4701102,1.03206,-9.629916,1
35076319,6253,4.25,-10.71,-12.31,4.54,4.79,7.64,6.59,-0.2849781,0.2984711,0.03356323,0.4483714,0.7888373,-9.523959,1
35184020,6210,4.97,-10.92,-12.5,5.01,5.9,7.55,6.73,0.1069164,0.1075375,0.08708527,0.3001275,0.9686322,-10.19579,1
35282781,6356,4.54,-10.67,-11.62,5.03,6.05,7.54,7.26,0.1156116,-0.005324255,0.1289314,0.6023069,0.6388842,-9.880021,1
35394022,6336,4.85,-10.29,-11.38,4.8,5.59,7.58,8.11,0.09374128,-0.0934654,0.137412,0.3012035,0.9950794,-9.869214,1
35505672,6255,5.03,-10.16,-10.67,4.56,4.78,7.63,9.23,0.1104341,-0.2396077,0.1320901,0.6476555,0.9814784,-9.765112,1
35614425,6525,4.88,-10.14,-10.71,4.37,4.27,7.66,10.07,-0.1861008,0.1081576,0.09139643,-0.071696,0.8692938,-9.912755,1
35714888,6502,5.78,-10.24,-10.96,4.15,4.92,7.7,10.36,0.02345985,0.09161349,0.05715128,0.1296739,1.134956,-9.631698,1
35824562,6690,5.47,-10.3,-11.1,3.94,5.37,7.74,10.41,0.04954918,-0.02822108,-0.0320231,0.2185294,1.458904,-10.15431,1
35940923,6510,5.4,-10.21,-10.48,3.4,4.83,7.84,10.21,0.1161614,0.0154539,-0.06133385,0.1058739,1.143265,-9.847991,1
36157501,6668,5.03,-9.59,-9.04,1.97,3.57,8.09,9.4,0.02987723,-0.02188174,-0.05623079,-0.1833372,1.221961,-10.1221,1
36261580,6596,5.06,-9.62,-9.11,1.66,2.98,8.14,9.04,-0.02374344,-0.1095803,-0.07338117,0.3602076,1.138037,-9.793379,1
36369928,6529,5.11,-9.27,-9.38,1.47,2.33,8.17,9.01,0.02977378,-0.1228931,-0.05301216,0.2192269,1.208189,-10.1274,1
36484775,6520,4.4,-7.55,-8.91,0.83,1.68,8.27,9.06,0.2410106,-0.1569827,-0.02237928,0.3444301,1.414629,-10.03102,1
36584497,6266,5.49,-5.39,-6.52,-0.31,0.66,8.4,9.14,0.5668862,-0.2161265,-0.03209927,0.4561602,1.289526,-10.35251,1
36696197,6478,5.32,-3.43,-3.21,-1.78,-1.72,8.51,9.32,0.4621108,-0.3782879,-0.004035643,-0.02028322,1.118535,-10.30784,1
36804753,6581,5.02,-2.38,-1.1,-3.03,-3.58,8.57,9.27,0.1306274,-0.2582719,-0.0333604,-0.1041554,1.133463,-10.1767,1
36912778,6526,4.79,-2.35,-0.79,-3.57,-4.38,8.59,9.11,-0.1247324,-0.0488469,-0.03563462,-0.04773904,0.9245571,-10.1447,1
37023634,6505,4.82,-2.89,-1.34,-3.65,-4.41,8.6,8.96,-0.1334591,0.08555736,-0.05734272,-0.1456085,0.9087334,-9.700885,1
37123417,6553,4.7,-3.4,-2.16,-3.65,-3.79,8.6,8.85,-0.07316069,0.1555854,0.01453372,0.5808554,1.403906,-9.521072,1
37235132,6412,4.7,-4.0,-2.37,-3.54,-3.56,8.59,8.87,-0.06927665,-0.01429695,0.01123485,0.182427,1.308801,-9.806895,1
37348200,6326,4.11,-4.32,-3.34,-3.43,-3.88,8.58,8.89,-0.3642734,0.07281809,0.01289838,0.1799939,1.252078,-9.598993,1
37456638,6162,4.86,-4.79,-4.1,-3.58,-3.62,8.59,8.83,0.01919827,0.01925126,-0.02813251,0.0808474899999999,1.424108,-9.311113,1
37679934,6238,4.56,-5.41,-4.56,-3.98,-2.9,8.63,8.5,0.07034913,-0.02099535,-0.04441267,0.04147466,1.4883,-9.837994,1
37883879,6439,4.59,-6.18,-4.61,-4.32,-3.68,8.66,8.14,-0.1469709,-0.193208,-0.04158631,-0.126305,1.379109,-10.30743,1
38008576,6217,4.2,-6.7,-5.07,-4.35,-3.77,8.67,8.06,-0.09487254,0.1573921,-0.005251689,-0.1844183,1.344193,-9.24997,1
38109956,6338,4.73,-7.03,-5.98,-4.23,-3.61,8.65,8.03,-0.1459175,-0.002927073,-0.03593418,0.03848786,1.21803,-9.953727,1
38329946,6320,4.71,-7.48,-6.93,-4.12,-3.4,8.64,7.64,0.06630468,-0.02822271,-0.08313706,0.1238913,1.463863,-10.30045,1
38431531,6498,4.81,-7.73,-6.61,-3.89,-3.57,8.61,7.38,0.01212821,-0.02074759,-0.06779398,-0.3242743,1.354208,-10.30405,1
38662409,6427,4.63,-12.85,-11.09,-0.26,-0.52,7.97,6.62,-0.4493143,0.3141442,-0.02516704,0.0976333499999999,1.362796,-9.439946,1
38768778,6401,4.46,-15.26,-15.13,0.89,1.31,7.68,5.87,-0.6898086,0.2739501,-0.07403505,0.365227,1.308525,-9.742407,1
38866596,6284,4.61,-16.77,-17.89,1.73,2.1,7.44,5.18,-0.3448798,0.05716943,-0.07359606,0.3690506,1.606802,-9.562142,1
38984388,6288,4.96,-17.54,-18.95,2.62,2.29,7.16,4.68,-0.02801511,0.1184361,-0.05421291,0.1508098,1.630871,-10.35624,1
39080988,6467,4.88,-17.15,-18.32,2.9,2.84,7.07,4.3,0.196484,0.1763705,-0.008715908,-0.1840227,1.248196,-10.12657,1
39191998,6331,3.62,-14.79,-16.71,2.7,3.38,7.13,4.18,0.3157138,0.02605218,0.01977999,0.1967326,1.785025,-10.49276,1
39304890,6097,4.33,-9.23,-11.37,2.33,2.57,7.21,4.2,1.113513,-0.1914812,-0.0001062515,0.201243,1.51265,-10.21895,1
39400906,6071,3.73,-5.52,-6.41,1.86,1.76,7.27,4.16,0.7430034,-0.05613265,-0.02684729,-0.2583666,1.308802,-9.588904,1
39526574,6076,4.09,-1.81,-1.32,1.35,1.54,7.3,4.15,0.6015016,-0.02331473,-0.002240016,-0.08377487,1.175006,-9.929787,1
39634518,6126,4.0,0.53,2.15,1.33,1.56,7.31,4.29,0.3958542,0.1474733,0.05533209,-0.1503533,0.9580634,-9.665858,1
39743542,6132,4.21,1.97,4.36,1.75,1.6,7.32,4.51,0.3776237,0.0852301699999999,0.04678063,0.1805166,1.239156,-9.820357,1
39843449,6325,4.21,2.78,5.75,3.31,2.15,7.38,5.01,0.2557264,0.1511233,0.0980642999999999,-0.2615734,1.081054,-9.797158,1
39956205,6257,3.91,3.55,6.07,5.93,4.38,7.53,5.94,0.04985431,0.4961507,0.1452086,-0.3501891,1.328518,-9.856017,1
40056520,6128,4.35,4.29,6.11,8.39,6.9,7.7,6.89,0.05178642,0.3247342,0.1046458,0.361506,1.190505,-9.576517,1
40164871,6167,4.48,4.59,6.5,10.15,8.78,7.84,7.69,-0.08708778,0.3702001,0.1301145,-0.114723,1.294828,-9.594973,1
40285585,6361,4.84,4.91,6.65,10.44,9.65,7.86,8.52,-0.010401,-0.0270239,0.07531653,0.7633876,0.9691998,-9.853412,1
40380868,6263,4.9,5.42,6.44,9.96,8.15,7.82,8.82,0.1071129,-0.3323907,0.04001686,0.2663558,0.9864442,-9.752934,1
40489011,6513,4.85,6.71,7.14,9.2,5.6,7.74,8.93,0.2421255,-0.3681143,0.06082283,0.3748202,1.044374,-10.67259,1
40603931,6493,4.48,8.22,8.94,9.0,3.12,7.72,8.95,0.2363037,-0.2275981,0.0116095,0.3060911,0.6402864,-10.35617,1
40822630,6430,5.09,10.44,11.04,10.35,3.57,7.95,9.14,0.2864782,0.1462071,-0.04628234,0.3196979,0.6540629,-9.982499,1
40927345,6484,4.98,11.28,11.5,11.3,4.96,8.13,8.97,-0.01441299,0.1227353,-0.1092575,0.5721169,0.5774934,-9.993295,1
41034133,6471,4.89,11.92,11.95,11.5,6.19,8.17,8.31,0.1360753,0.1185699,-0.2246346,0.741017,0.3043379,-9.664249,1
41145380,6488,4.85,11.56,11.05,9.83,5.73,7.81,7.0,-0.1538147,-0.2653286,-0.2289211,0.398784,0.4594642,-9.915199,1
41254775,6327,3.9,10.54,8.75,7.79,5.03,7.41,5.46,-0.2578065,-0.1237295,-0.2108866,0.9916397,0.5958371,-9.491874,1
41367925,6151,4.04,9.74,7.02,5.11,3.79,6.93,4.14,-0.2179468,-0.2287321,-0.1746704,0.7325398,0.4335536,-9.593556,1
41469787,5944,3.92,9.53,6.02,2.95,2.32,6.57,3.04,-0.09961037,-0.2672576,-0.1350847,0.3017981,0.8593354,-9.733425,1
41586515,5962,3.83,9.75,5.85,0.69,0.6,6.18,2.21,0.01058984,-0.1916286,-0.07345689,0.236732,0.6483069,-9.913442,1
41689383,5738,4.25,10.55,6.87,-1.05,-0.49,5.87,1.76,0.3061284,-0.1559433,-0.05420796,0.3583472,0.6880202,-9.559296,1
41795707,5871,4.4,10.95,8.23,-2.2,-1.35,5.65,1.46,0.2191682,-0.1457793,0.00434148,0.248125,0.3369018,-10.00336,1
41906788,5903,4.32,10.91,8.79,-3.08,-2.13,5.48,1.66,0.05203698,-0.13142,0.08677433,0.3492551,0.392534,-10.34924,1
42015084,6165,4.06,10.19,7.99,-3.97,-2.92,5.31,2.32,-0.25511,-0.08922133,0.1483908,0.1654321,0.1978166,-10.21591,1
42127171,6048,4.52,8.82,6.21,-4.61,-3.65,5.2,3.17,-0.3730641,-0.04398775,0.1649208,0.2353471,-0.09454867,-10.12984,1
42233611,6157,4.15,6.45,3.09,-4.93,-3.66,5.16,4.21,-0.5876958,-0.02150906,0.1730256,0.2615586,0.09828444,-10.31733,1
42351115,6153,4.07,3.26,-1.22,-4.85,-3.33,5.17,5.23,-0.6643695,0.1321266,0.1396499,0.4228026,0.2169925,-9.738013,1
42461127,6119,4.05,1.08,-4.7,-4.67,-2.98,5.17,6.02,-0.3036776,-0.05652497,0.1014358,0.2538448,0.3858131,-9.927695,1
42561966,6168,4.28,0.35,-5.58,-4.83,-2.69,5.17,6.48,-0.06418503,0.03837156,0.0681554999999999,0.4848487,0.4558187,-9.896348,1
42675927,6055,4.2,0.4,-5.1,-5.16,-3.15,5.17,6.82,0.02470811,-0.01152891,0.03791346,0.1966805,0.2458161,-10.06014,1
42786582,6224,4.43,0.74,-4.24,-5.68,-3.65,5.16,6.86,0.03557263,0.02616246,0.009306593,0.04125434,0.125573,-10.06069,1
42896552,6173,4.69,1.04,-3.46,-6.33,-4.19,5.15,6.74,0.1034221,-0.09033323,-0.02152576,0.1014674,0.2567752,-10.2162,1
42994927,6196,4.19,1.1,-2.91,-6.75,-4.4,5.14,6.54,0.0648645199999999,-0.04521519,-0.05230721,0.2321971,0.1616922,-9.892785,1
43113547,6044,4.52,1.01,-2.37,-6.22,-4.41,5.15,6.2,0.1412063,0.06328718,-0.08155978,-0.004109702,0.1159298,-9.960843,1
43219797,6216,4.73,-0.22,-2.07,-3.98,-2.96,5.17,5.62,-0.01854854,0.3568113,-0.1095969,-0.3558804,-0.02785739,-10.35307,1
43331004,6238,3.82,-1.83,-3.73,-1.47,0.33,5.12,4.82,-0.3058105,0.4353046,-0.09867223,0.2480278,0.1321956,-10.09966,1
43440988,6177,3.78,-2.63,-5.42,0.24,2.08,5.06,4.04,-0.2100247,0.1680595,-0.1081603,0.01515813,0.4213394,-10.20864,1
43554589,5938,3.75,-2.89,-6.04,1.78,3.1,4.98,3.34,0.03165307,0.1002674,-0.08013148,0.003294882,0.3049589,-9.903505,1
43656168,5899,3.93,-2.76,-6.2,3.02,4.11,4.92,2.8,-0.001646656,0.1973239,-0.07035431,0.07638787,0.3858879,-10.23817,1
43772635,5887,4.08,-2.63,-5.64,4.38,5.15,4.86,2.29,0.1453712,0.0879412599999999,-0.06064241,0.1713911,0.2576925,-10.08353,1
43876776,5907,3.93,-2.56,-5.2,5.26,6.14,4.82,1.87,0.06170246,0.1798883,-0.04407414,0.05302906,0.2707887,-9.908048,1
43989654,5808,4.03,-2.71,-4.84,5.94,6.9,4.79,1.44,0.103018,0.1136549,-0.0659560899999999,0.07593195,0.3265034,-9.874886,1
44094985,6032,3.94,-3.1,-4.62,6.25,7.54,4.77,0.99,-0.01715607,0.1076564,-0.06409404,0.1710805,0.3563217,-9.913201,1
44203687,5940,4.01,-3.79,-4.72,6.36,7.73,4.76,0.61,0.0007974974,-0.05372916,-0.06350569,0.1761923,0.2939929,-9.856348,1
44429197,5896,3.24,-5.51,-6.6,6.48,6.6,4.75,0.0,-0.09650911,-0.1545223,-0.0729391,0.2007835,0.4377642,-9.247995,1
44527245,5655,3.06,-6.47,-7.29,6.46,6.16,4.76,359.74,-0.1786437,-0.0141066,-0.04695997,0.05967082,0.3649277,-9.081899,1
44643135,5616,3.3,-7.53,-7.87,6.47,5.85,4.75,359.59,-0.07129516,-0.04529202,-0.004486603,0.08640921,0.4257205,-8.770213,1
44744421,5426,3.35,-8.7,-8.42,6.46,5.9,4.76,359.75,-0.111517,0.09121449,0.0532295,0.1339536,0.4246016,-8.691133,1
44855762,5728,3.37,-9.67,-9.04,6.14,6.16,4.81,0.13,-0.1498607,-0.004744664,0.08636866,0.3296701,0.4400443,-8.640846,1
44963281,5793,4.07,-10.63,-9.56,5.87,5.78,4.86,0.82,-0.0771486,-0.1161627,0.1121158,0.1353237,0.5409663,-9.072003,1
45066942,5687,3.65,-11.04,-9.61,5.12,5.21,5.0,1.56,0.01490676,-0.1283297,0.1240558,0.4725266,0.7523369,-9.26365,1
45187099,5852,3.83,-10.91,-8.91,3.68,3.47,5.28,2.5,0.1395517,-0.3909219,0.08139498,0.2070003,0.7011721,-9.199551,1
45293518,5814,3.76,-10.32,-8.36,2.32,1.54,5.54,3.33,0.1218762,-0.249488,0.07257026,0.1620052,0.5707556,-9.494946,1
45398604,5840,4.24,-9.01,-7.0,1.3,-0.25,5.72,4.09,0.3824648,-0.2437411,0.06645291,0.008189069,0.847415,-9.63406,1
45512987,6148,4.28,-7.63,-4.6,0.08,-1.04,5.89,4.71,0.2839979,-0.2063234,0.07213672,0.6190158,0.6052921,-9.763783,1
45622019,6251,4.75,-6.58,-2.88,-1.21,-2.29,6.05,5.29,0.2444756,-0.2241634,0.0776261699999999,0.1876473,0.6150717,-9.933127,1
45719962,6325,4.65,-6.16,-2.05,-2.03,-2.83,6.14,5.63,0.0953502299999999,-0.06001239,0.02435662,-0.04178154,0.9115746,-9.824039,1
45942009,6245,4.77,-6.29,-2.39,-2.85,-2.51,6.23,5.76,-0.1228336,0.08865595,0.008293108,0.4085676,0.6260942,-9.8596,1
46053394,6317,4.79,-6.49,-3.33,-2.81,-2.3,6.23,5.75,-0.2083583,0.1026837,0.005201931,0.0815913999999999,0.590677,-10.07228,1
46157915,6357,4.75,-6.84,-4.12,-2.21,-1.73,6.16,5.63,-0.0898048699999999,0.07905813,-0.01080514,0.07968475,0.8328685,-10.05558,1
46267199,6384,4.75,-7.11,-4.89,-1.36,-0.96,6.05,5.33,-0.1337703,0.1237185,-0.05988627,-0.0663894,0.5751599,-10.56088,1
46385330,6356,4.14,-6.78,-5.82,-0.36,0.02,5.93,4.9,-0.09402741,0.1970125,-0.04781545,0.04368114,0.5759124,-10.34903,1
46486023,6181,4.22,-6.01,-6.08,0.03,1.12,5.89,4.53,0.03232715,0.1552248,-0.0443769,0.03328345,0.6638599,-9.869785,1
46596544,6113,4.24,-5.01,-5.85,-0.19,2.0,5.91,4.26,0.08045822,-0.01338588,-0.02242496,0.3266595,0.4880845,-9.86061,1
46702134,6071,4.41,-3.93,-4.92,-0.6,1.64,5.94,4.22,0.2136394,-0.1338842,0.04003339,0.1221347,0.6449587,-9.950342,1
46925110,6103,4.47,-2.14,-2.78,-1.8,-0.02,6.0,4.91,0.02424069,-0.0977039,0.0915876199999999,0.1789713,0.5061406,-10.00157,1
47036024,6259,4.76,-1.82,-2.39,-1.74,-0.61,6.0,5.41,0.04887811,-0.07687146,0.07164232,-0.1555647,0.5383807,-10.10133,1
47145493,6310,4.63,-1.65,-1.97,-1.44,-0.23,5.99,6.12,0.09760516,0.02459953,0.1020099,0.05707936,0.6305293,-9.947212,1
47248332,6439,4.66,-1.61,-1.83,-1.01,0.13,5.98,6.6,0.002673446,0.0814935,0.05053706,-0.1845725,0.6059213,-9.914697,1
47358414,6272,5.0,-1.66,-1.98,-0.84,1.14,5.97,6.96,-0.02252427,0.1570453,0.02816938,0.08265151,0.5711216,-10.00445,1
47468956,6343,4.6,-1.27,-1.63,-0.82,1.49,5.97,7.07,0.07902191,0.01239837,0.007884108,0.07414969,0.6094871,-9.953836,1
47576418,6369,4.28,-0.72,-1.03,-0.75,1.19,5.97,6.81,0.06402797,-0.05892077,-0.1016831,-0.04717984,0.5286267,-9.596489,1
47686224,6253,4.27,-0.24,-0.51,-0.76,0.62,5.97,6.03,0.07876709,-0.1709386,-0.1734021,0.008733843,0.6714678,-9.906562,1
47793571,6029,4.07,0.41,0.31,-0.58,-0.14,5.97,5.27,0.1356153,-0.04257053,-0.1213746,-0.2553132,0.6888295,-9.591442,1
47910112,6089,4.17,1.07,1.95,-0.62,-0.07,5.97,4.42,0.1517324,0.09762444,-0.1372731,-0.154939,0.3052814,-9.696504,1
48009286,5983,3.5,1.62,2.1,-0.9,0.46,5.97,3.81,-0.002594677,0.1426357,-0.07440411,-0.3296038,0.8079133,-9.689527,1
48122612,5928,3.77,1.69,1.89,-1.32,0.67,5.95,3.38,-0.06981023,0.01669048,-0.06242397,-0.3222117,0.4576314,-9.565283,1
48227942,5946,4.04,1.2,1.62,-1.8,0.5,5.94,3.17,-0.03171808,-0.1030395,-0.02053284,-0.3298398,0.6067606,-9.46472,1
48339879,6025,4.15,-0.04,0.84,-2.05,-0.26,5.94,3.28,-0.1140376,-0.1184125,0.03654972,-0.503443,0.7831058,-9.733419,1
48451008,5991,4.15,-1.25,-0.53,-2.13,-0.98,5.94,3.5,-0.2393054,-0.0204313,0.05007721,-0.4003968,0.4895223,-9.958118,1
48558960,6138,4.04,-2.27,-1.76,-1.96,-1.31,5.93,3.88,-0.323473,0.0284492,0.06983758,-0.4997098,0.748596,-9.46232,1
48669131,5961,4.38,-2.88,-2.79,-1.85,-1.13,5.93,4.52,-0.08277684,0.0717506,0.1136575,-0.227947,0.7315205,-9.863461,1
48776585,6079,4.54,-3.27,-2.73,-1.86,-1.27,5.93,5.45,0.08418615,-0.1050994,0.1632452,-0.1552955,0.8215084,-9.778126,1
48889519,6261,4.78,-3.33,-2.44,-1.86,-1.77,5.93,6.33,0.1256891,-0.1601274,0.08420812,-0.3366148,0.6909876,-9.948125,1
48992608,6297,4.72,-3.41,-2.15,-1.74,-2.5,5.92,6.88,-0.04324464,-0.1129911,0.09040844,-0.4370773,0.699987,-10.11008,1
49103563,6236,4.43,-3.38,-2.61,-1.33,-3.26,5.9,7.08,-0.1275027,-0.1077521,0.007151123,-0.2624587,0.6444169,-10.24491,1
49212191,6156,4.09,-3.15,-3.23,-0.8,-2.64,5.86,7.0,-0.01329942,0.1271766,-0.01553884,-0.2551884,0.3759094,-9.944806,1
49321144,6128,4.53,-2.8,-3.66,-0.38,-1.09,5.84,6.76,0.03761078,0.1510418,-0.02452498,0.08867384,0.742007,-10.09788,1
49428575,6130,4.91,-2.75,-3.54,-0.13,-0.22,5.83,6.6,0.06116283,0.1057839,-0.01419852,0.1900199,0.784929,-10.50472,1
49542155,6201,5.56,-2.7,-3.02,0.06,-0.21,5.82,6.75,0.05425408,-0.05238237,0.05105386,-0.2335217,0.5108806,-11.26703,1
49656248,6431,5.09,-2.53,-2.79,0.05,-0.13,5.82,7.06,0.02605642,0.1094599,0.04498901,-0.1915334,0.7816294,-11.07791,1
49756592,6488,5.31,-2.34,-3.15,0.01,0.53,5.82,7.25,-0.1426951,0.1697666,0.02810896,-0.0946914799999999,0.459061,-11.50976,1
49860400,6522,5.3,-2.06,-3.36,-0.04,1.16,5.83,7.42,0.02671238,0.05787399,0.03484951,-0.0734528099999999,0.7373429,-11.37047,1
49965774,6465,4.93,-1.69,-3.15,-0.23,1.53,5.83,7.66,0.1219466,-0.03836877,0.02495435,-0.0802783,0.6860705,-10.92622,1
50072577,6380,4.79,-1.27,-2.84,-0.64,1.5,5.84,7.9,0.100632,-0.1302874,-0.006475954,-0.02972403,0.4034098,-10.11519,1
50181994,6273,4.36,-0.9,-2.68,-0.99,0.9,5.85,8.01,-0.06045267,-0.04962372,0.001384371,-0.3056681,0.4494261,-10.11421,1
50286505,6311,4.82,-0.65,-2.11,-1.29,0.08,5.85,7.99,0.1593773,-0.08023174,0.005914808,-0.06798553,0.5312414,-9.57191,1
50394409,6226,4.48,-0.45,-1.47,-1.29,-0.97,5.85,7.84,0.005311871,-0.1322139,-0.06199923,-0.3649964,0.3361739,-10.11175,1
50508576,6168,4.2,-0.14,-1.34,-1.19,-1.61,5.85,7.51,-0.02134977,0.01165057,-0.08378123,-0.3962948,0.4184721,-9.666856,1
50627716,6072,4.33,0.0,-1.11,-1.06,-1.58,5.85,7.01,0.1063269,0.000780627,-0.0872053099999999,-0.1801861,0.4440749,-9.375809,1
50727322,6208,4.37,0.12,-0.73,-0.97,-0.92,5.85,6.61,0.06768917,0.2025654,-0.05770159,-0.04168971,0.4478921,-9.465439,1
50840022,6100,4.16,0.32,-0.58,-0.9,-0.23,5.85,6.38,0.06890612,0.04555868,-0.007520582,-0.009833264,0.3199449,-9.631133,1
51054108,6098,3.88,0.5,-0.55,-1.0,-1.24,5.85,6.23,0.08419619,-0.2670928,-0.003179345,-0.3671443,0.4587868,-9.648904,1
51174418,5929,4.1,0.5,-0.61,-1.11,-1.71,5.85,6.18,0.0170409,0.001871911,-0.01798057,-0.1239023,0.4900559,-9.602845,1
51275021,5950,4.32,0.42,-0.45,-0.96,-1.93,5.85,6.1,0.02371409,0.0512408,-0.0289219,-0.2201239,0.3223279,-9.91946,1
51381571,6124,4.31,0.33,-0.29,-0.81,-1.56,5.85,6.0,-0.064855,0.1694761,-0.02711222,0.0882257999999999,0.406575,-9.676848,1
51497733,6012,4.38,0.04,-0.11,-0.73,-1.05,5.85,5.81,0.01922701,0.04696671,-0.02950912,-0.02446013,0.5273736,-9.566194,1
51606738,5997,4.11,-0.26,-0.45,-0.7,-0.9,5.85,5.46,-0.06476748,-0.03614054,-0.07604804,-0.1132242,0.4817303,-9.62009,1
51710359,6138,3.83,-0.51,-1.01,-0.84,-0.65,5.85,5.02,-0.1185862,0.0968312499999999,-0.06112032,-0.2846287,0.5278406,-9.7033,1
51825606,5940,3.81,-0.7,-1.47,-1.08,-0.53,5.86,4.49,0.004722048,-0.01038431,-0.0918138,-0.08855291,0.2789548,-9.800868,1
51923976,5922,3.61,-0.64,-1.82,-1.21,-0.67,5.86,4.12,-0.03647316,-0.03412904,-0.0627963,-0.178561,0.5070315,-9.872459,1
52034556,5814,3.55,-0.51,-1.66,-1.29,-0.99,5.86,3.66,0.01702907,-0.01587447,-0.0953034299999999,-0.05309987,0.2630231,-9.466578,1
52156167,5800,3.54,-0.14,-1.75,-1.38,-1.16,5.86,3.01,-0.0324381,0.03545227,-0.08253621,-0.2178057,0.2324747,-9.943567,1
52254615,5667,3.32,0.16,-1.54,-1.37,-1.24,5.86,2.57,0.03413499,0.0839015199999999,-0.07269235,-0.3361048,0.4836429,-10.09564,1
52366025,5630,3.15,0.5,-1.52,-1.37,-1.12,5.86,2.06,0.02790849,0.05289263,-0.06494424,-0.4414415,0.3869779,-9.664044,1
52466783,5648,3.3,0.74,-1.2,-1.49,-0.87,5.86,1.72,0.04690349,0.1380176,-0.02062532,-0.3449943,0.3367334,-9.731324,1
52586449,5496,3.45,0.91,-0.31,-1.68,-1.03,5.86,1.54,0.1424347,-0.01581487,0.003560109,-0.2559332,0.4096488,-9.843468,1
52689151,5634,3.56,0.92,1.03,-1.72,-1.5,5.86,1.59,0.280744,-0.08673546,0.01373022,0.007114303,0.4542466,-9.620888,1
52798342,5801,3.42,0.8,1.82,-1.64,-1.95,5.86,1.68,0.02048959,-0.08519436,-0.003191777,-0.3398178,-0.0145565,-10.17739,1
52904081,5805,2.77,0.7,1.22,-1.6,-1.75,5.86,1.48,-0.1237534,0.06664253,-0.04636541,-0.044033,0.1511949,-9.598512,1
53008917,5533,2.63,0.5,-0.03,-1.29,-1.81,5.86,1.3,-0.1915133,-0.009926467,-0.02095932,-0.4476617,0.2498426,-10.00773,1
53116218,5446,2.92,0.42,-0.85,-0.86,-1.94,5.86,1.2,-0.08086342,-0.09663247,-0.01704479,0.1168858,0.3802353,-9.827585,1
