TimeUS,RPM,Curr,DesRoll,Roll,DesPitch,Pitch,DesYaw,Yaw,GyrX,GyrY,GyrZ,AccX,AccY,AccZ,Guasto
0,3871,3.43,,,,,,,,,,,,,2
114288,4784,4.11,-0.4,-0.12,-0.2,0.69,2.27,2.61,0.0745511299999999,0.06325898,0.09506448,-0.1378325,0.237518,-10.99461,2
219732,5629,4.51,-0.65,0.71,-0.41,0.35,2.27,3.36,0.218656,-0.1299017,0.1703712,-0.03458726,0.2299813,-12.30146,2
325551,6031,3.76,-1.33,1.87,-0.68,-0.41,2.27,4.49,0.1460942,-0.07186887,0.2230005,-0.3780949,0.4609151,-12.8912,2
440271,6243,3.52,-2.35,1.89,-0.91,-1.09,2.28,6.05,-0.1147876,-0.03404025,0.247971,-0.257665,0.2333927,-12.30488,2
546152,6108,3.34,-3.54,0.6,-0.88,-1.04,2.28,7.54,-0.3036058,0.1073478,0.2444201,-0.3530118,0.515399,-12.36591,2
653794,6019,2.71,-4.59,-0.83,-0.75,-0.56,2.27,8.97,-0.2162523,0.1381913,0.2400533,-0.3032577,0.6737006,-11.70267,2
758650,5902,2.91,-5.32,-2.07,-0.66,-0.1,2.15,10.14,-0.1737681,0.06978992,0.1670111,-0.0623469,0.6863298,-11.17918,2
867976,5681,2.24,-5.62,-3.16,-0.91,0.12,0.11,10.87,-0.1780178,0.0717388199999999,0.06118271,-0.07160398,0.5787495,-10.96661,2
985715,5459,1.66,-5.49,-3.86,-1.57,-0.08,355.46,10.48,-0.02276629,0.0089828059999999,-0.1861969,-0.1320303,0.5801183,-10.53744,2
1088948,5066,2.43,-5.22,-4.16,-2.22,-0.77,351.76,8.76,0.01998419,-0.1063732,-0.3746923,-0.1459361,0.4114721,-10.37305,2
1302065,4911,2.94,-4.64,-4.44,-2.53,-1.06,349.8,3.18,0.007463318,0.1348725,-0.4292244,-0.09312809,0.5173427,-10.01066,2
1416753,5408,2.71,-4.44,-4.21,-2.45,-1.16,349.8,0.69,0.1117727,-0.03575617,-0.3771222,-0.1455193,0.6651978,-9.880652,2
1527615,5598,3.01,-4.01,-4.0,-2.59,-1.2,349.81,358.23,0.02804989,-0.002686387,-0.3347735,-0.2364719,0.4788137,-9.867532,2
1636180,5602,2.96,-3.64,-3.71,-2.59,-1.8,349.81,356.4,0.0726245799999999,0.001176268,-0.2562391,-0.2798021,0.5913833,-9.587795,2
1751006,5822,2.77,-3.29,-3.1,-2.63,-1.4,349.81,354.79,0.07236614,0.1516133,-0.2037578,-0.2622469,0.5474444,-9.769973,2
1850513,5758,3.24,-3.22,-2.48,-2.65,-1.11,349.81,353.8,0.07404403,0.04418658,-0.1208154,-0.2504727,0.6105715,-9.569036,2
1957706,5769,3.22,-3.43,-2.27,-2.65,-1.31,349.81,353.14,-0.0290193,-0.01802026,-0.09049587,-0.368152,0.4665162,-9.750295,2
2072596,5706,3.07,-3.59,-3.1,-2.92,-1.45,348.83,351.73,-0.1604009,0.01230272,-0.05685883,-0.6329718,0.58999,-9.869575,2
2181845,5781,3.16,-3.66,-3.87,-3.35,-1.53,348.86,351.36,-0.01616237,0.03687781,-0.0226705,-0.3884319,0.7583117,-9.573496,2
2285045,5742,3.19,-3.55,-3.62,-3.66,-1.97,348.88,351.15,0.05053267,-0.1001865,0.01600873,-0.4758826,0.7571126,-9.938991,2
2407967,5758,3.06,-3.38,-2.82,-3.78,-2.5,348.88,351.14,0.1237185,-0.1052805,0.04483941,-0.5637824,0.6827912,-10.01784,2
2621519,5773,3.05,-3.91,-2.03,-3.66,-3.26,348.88,351.42,-0.04484538,-0.06396903,0.0599197,-0.2402191,0.6389019,-9.590739,2
2722030,5827,3.38,-4.43,-2.25,-3.11,-3.76,348.84,351.15,-0.06319837,-0.0707642099999999,0.04716212,-0.3966669,0.5872235,-9.29184,2
2828068,5806,3.24,-4.82,-3.29,-2.44,-3.33,348.78,351.11,-0.2200771,0.2189199,0.07463297,-0.4067352,0.7118741,-9.613167,2
2936032,5912,3.11,-4.89,-4.24,-1.97,-2.24,348.74,351.61,-0.1183322,0.2009259,0.0854059,-0.1683345,0.7053452,-9.807319,2
3049164,5884,3.41,-4.62,-4.5,-1.67,-1.52,348.72,352.47,0.07091028,0.03525895,0.07834677,-0.05893256,0.6344244,-9.790428,2
3156278,5858,3.08,-4.07,-4.12,-1.83,-1.13,348.73,353.33,0.1343452,0.01448806,0.06611288,-0.1382507,0.5742675,-9.871807,2
3269393,5858,2.88,-3.43,-3.29,-2.0,-1.34,348.74,354.0,0.1551369,-0.03998055,0.07396181,-0.3579631,0.6269826,-9.878504,2
3368959,5689,2.91,-3.05,-2.98,-2.02,-1.46,348.74,354.38,-0.002561594,-0.02032886,0.07038525,-0.3208651,0.5593362,-9.889284,2
3479761,5769,2.63,-2.73,-2.75,-1.74,-1.54,348.73,354.57,0.05008316,0.04088819,0.03486295,-0.2434152,0.5757631,-9.585859,2
3591522,5595,2.62,-2.4,-2.71,-1.28,-1.33,348.71,354.47,0.03425144,0.1161985,-0.02451127,-0.137498,0.5621604,-9.050535,2
3914781,5555,2.43,-1.93,-2.37,-0.4,-1.1,348.67,353.69,0.1305481,-0.03485361,-0.04397421,-0.3355862,0.4560701,-8.839608,2
4026769,5325,2.25,-1.82,-2.13,-0.3,-0.79,348.67,353.46,0.0648585899999999,0.03124701,-0.04989044,-0.01477146,0.4475901,-8.434077,2
4137243,5268,2.44,-1.74,-1.95,-0.39,-0.68,348.67,353.14,0.04407619,0.0408546,-0.07713581,-0.2345604,0.6249217,-8.537902,2
4248275,5243,2.21,-1.74,-1.48,-0.67,-0.63,348.68,352.89,0.09835539,-0.004241472,-0.06735545,-0.03973208,0.3533348,-8.346976,2
4365284,5257,2.04,-1.57,-1.35,-1.01,-0.85,348.69,352.53,0.194231,-0.05893764,-0.1108373,-0.03308922,0.6401554,-8.318906,2
4467459,5117,2.37,-1.69,-1.18,-0.96,-1.3,348.69,351.82,0.0397137,-0.03673418,-0.09612998,-0.1847535,0.3683306,-8.229877,2
4686958,5192,2.66,-1.94,-1.81,-0.79,-0.33,348.68,351.37,-0.1045928,0.04427877,0.02147485,0.01391081,0.5593473,-8.115639,2
4805591,4983,2.03,-1.99,-2.03,-1.0,-0.93,348.69,351.82,-0.03007581,-0.1320372,0.04791541,-0.1161288,0.6643458,-8.362757,2
4904221,4968,2.23,-2.11,-2.29,-1.3,-1.12,348.7,352.05,-0.217757,0.05498423,0.0520332,-0.5523669,0.49573,-8.7283,2
5016002,4873,2.61,-2.61,-2.87,-1.74,-1.4,348.72,352.01,-0.1194987,0.04246869,-0.004419989,-0.4901557,0.3634495,-8.309812,2
5126288,4920,2.78,-3.58,-3.53,-1.81,-1.69,348.72,351.85,-0.04382625,-0.09483697,0.001690709,-0.2881543,0.2659627,-8.621674,2
5233164,5139,2.19,-5.02,-4.65,-1.06,-1.04,348.66,351.86,-0.2318777,0.2581553,0.03595455,-0.3504862,0.2131306,-8.793759,2
5445496,5255,2.08,-6.99,-6.76,2.68,2.48,348.25,352.12,-0.04410959,0.2555758,0.01956169,-0.101716,0.3445817,-9.261143,2
5553597,5195,2.47,-7.15,-7.42,4.5,4.53,348.02,351.89,-0.09647018,0.2563908,-0.01836231,0.02524729,0.5270542,-9.398004,2
5664138,5144,2.55,-7.03,-6.99,5.56,6.02,347.89,351.53,0.05841118,0.1755364,-0.001737512,-0.2257389,0.3708973,-9.639358,2
5775741,5180,2.69,-6.92,-6.32,6.18,6.48,347.81,351.26,0.02099105,0.02360103,-0.008686863,-0.1407108,0.5199351,-9.864884,2
5883612,5282,2.82,-6.75,-5.81,6.45,6.28,347.78,350.91,0.1275119,-0.12014,-0.05180507,-0.02182249,0.4854938,-9.791684,2
5984764,5399,2.6,-6.84,-5.57,6.78,5.95,347.74,350.57,0.07273303,0.008171828,-0.03771234,-0.01908731,0.4902767,-9.935143,2
6087364,5387,2.58,-6.82,-5.08,7.04,5.62,347.71,350.86,0.06092907,-0.02251767,-0.004869451,-0.1793662,0.7378436,-9.948605,2
6193333,5542,2.51,-6.97,-4.27,7.38,5.66,347.67,351.2,0.02454978,0.02051442,-0.007702358,0.02581459,0.5045894,-10.05536,2
6304477,5568,2.8,-7.09,-4.18,7.5,5.87,347.66,351.29,-0.1266661,0.05619612,0.012729,0.08298161,0.7400068,-10.1338,2
6422602,5430,2.65,-7.45,-4.39,7.59,6.09,347.64,351.31,-0.03202745,0.1564437,-0.007449596,0.07262056,0.7994454,-9.640396,2
6536531,5467,2.95,-7.91,-4.67,7.65,6.34,347.63,351.42,-0.03218963,0.05685189,0.01151041,0.151082,0.8650901,-10.02313,2
6641377,5580,2.65,-8.18,-4.98,7.62,6.25,347.64,351.88,0.002366722,-0.06607526,0.03278035,0.4537569,0.7588359,-9.602578,2
6751942,5532,2.45,-8.34,-5.22,7.55,6.06,347.65,352.62,-0.06249214,-0.09995438,0.06586715,0.1774484,0.7598838,-9.873821,2
6854906,5579,2.52,-8.43,-5.38,7.54,5.9,347.65,353.27,-0.08613405,-0.05037174,0.0398907,0.03804036,0.727053,-10.13359,2
6963777,5477,2.59,-8.46,-5.53,7.66,6.05,347.63,353.72,0.004632967,-0.02206886,0.02565596,0.185368,0.7966846,-10.01389,2
7066724,5555,2.76,-8.44,-5.81,7.7,6.24,347.63,353.88,-0.08576035,0.06142924,0.02187874,0.4335069,0.7238154,-10.37246,2
7184611,5447,2.45,-8.49,-5.99,7.92,6.37,347.59,353.85,0.06312105,0.06502394,-0.02237266,0.3679412,0.7193537,-10.1844,2
7284958,5523,2.61,-8.37,-6.37,7.71,6.37,347.63,353.54,-0.07454196,-0.1144272,-0.03064111,0.4011298,0.7893915,-10.02841,2
7387627,5470,2.54,-8.41,-6.34,7.2,5.96,347.7,353.33,0.07797807,-0.04644671,-0.02863711,0.4722938,0.881982,-9.896739,2
7505496,5431,3.0,-8.98,-7.06,5.35,4.5,347.98,353.66,-0.1521734,-0.2860058,0.009598907,0.2761213,0.7253296,-10.14289,2
7715499,5612,2.7,-11.34,-10.13,2.39,1.02,348.51,354.03,-0.2881193,-0.2584003,-0.02716129,0.4511386,0.8862084,-9.716951,2
7827334,5522,2.42,-12.17,-11.5,1.68,0.27,348.66,353.95,-0.1094698,-0.1022434,-0.01988995,0.2393698,0.8938093,-9.662202,2
7937556,5442,2.79,-12.36,-12.02,1.36,0.17,348.73,354.01,-0.01542255,-0.010469,-0.04196679,0.2768101,1.075233,-9.644341,2
8047033,5437,2.36,-11.89,-12.12,1.15,0.48,348.77,354.01,0.03630626,0.09275438,-0.0142648,0.5686976,0.9513218,-9.372005,2
8158073,5349,2.48,-10.74,-11.28,1.02,0.7,348.8,353.94,0.320159,0.1230397,-0.02910211,0.4159701,1.091425,-9.690501,2
8268764,5457,2.65,-9.45,-9.52,0.85,1.12,348.83,353.97,0.2661416,0.02853191,-0.01384385,0.4466597,0.9332142,-9.793446,2
8382495,5460,2.71,-8.7,-7.41,0.77,1.01,348.84,354.19,0.1517323,0.03564741,0.01969476,0.3006921,0.7080244,-10.12311,2
8483647,5337,2.23,-7.91,-6.7,0.61,0.58,348.87,354.16,0.2559804,-0.1532529,-0.0786819899999999,0.6000629,1.08621,-9.515951,2
8594967,5241,2.44,-7.05,-6.46,0.45,0.68,348.89,353.87,0.00634712,0.1851913,-0.04332834,0.1642514,1.293981,-9.33706,2
8700380,5227,2.43,-5.34,-4.93,0.25,0.73,348.91,353.46,0.3339578,0.05486655,-0.03537354,0.2581837,1.505207,-9.40801,2
8816771,5198,2.48,-3.43,-2.27,-0.07,0.76,348.93,353.29,0.289495,-0.009712551,0.02660611,0.1425005,0.7243165,-9.899097,2
8925400,5174,2.52,-2.12,-0.53,-0.4,0.58,348.95,353.57,0.1396098,0.1123026,0.08024647,0.2213589,1.366139,-9.688669,2
9032767,5220,3.02,-1.7,0.67,-0.65,-0.58,348.96,353.66,0.1368928,-0.2564318,0.01647321,0.1560386,0.9560106,-9.665684,2
9139386,5270,2.5,-0.85,0.95,-1.04,-1.03,348.97,353.73,0.2066368,-0.1964821,0.01809868,0.2659006,1.224948,-9.711189,2
9251534,5123,2.69,-0.1,1.53,-1.45,-0.7,348.97,353.98,0.0228066,0.0260323,0.07843368,-0.1003327,1.119778,-9.890315,2
9359924,5099,3.0,0.25,2.78,-1.66,-1.52,348.97,354.28,0.1632083,-0.08643403,0.09162392,-0.4008724,0.8878381,-10.28533,2
9469279,5369,2.46,0.65,3.35,-1.9,-2.74,348.97,354.61,0.1677486,-0.1960824,0.03436909,0.3234012,1.150799,-9.826387,2
9567886,5360,2.57,1.45,3.31,-1.68,-3.97,348.97,354.69,0.05022339,-0.2843598,0.01846351,-0.07389726,1.268939,-10.46437,2
9691606,5430,2.69,3.13,4.54,-1.23,-3.92,348.99,354.61,0.01183787,0.1211985,0.007744744,-0.1430107,0.8697268,-10.31106,2
9795517,5444,2.66,4.33,5.95,-0.74,-2.94,349.02,354.45,0.131337,0.06069677,-0.05468008,0.1984999,0.7985428,-10.13375,2
10009234,5349,2.81,5.61,6.69,0.06,-1.26,349.09,353.2,-0.02172791,0.2173473,-0.08062767,-0.03551041,0.8067329,-10.28628,2
10106948,5499,2.88,5.46,6.35,-0.07,-0.95,349.08,352.55,-0.01920298,-0.04781913,-0.1216005,0.2275929,0.7570941,-10.17436,2
10226233,5471,2.72,4.86,5.34,-0.37,-0.74,349.6,351.76,-0.2381655,-0.08832636,-0.09846594,0.1540012,0.7856674,-9.969802,2
10337294,5491,3.15,4.31,3.74,-0.81,-0.35,352.29,351.48,-0.1756427,-0.0008359303,0.03160847,-0.03079231,0.8733582,-9.685287,2
10555600,5727,3.3,3.13,2.5,-3.47,-1.54,356.97,354.14,-0.07497466,-0.3581004,0.3335453,0.159946,0.5753999,-9.935431,2
10669597,6065,3.06,2.1,1.75,-4.98,-4.02,356.9,356.2,-0.1870713,-0.2559854,0.339215,0.02829115,0.494211,-9.714116,2
10770276,5724,2.64,0.47,0.12,-5.07,-4.83,356.9,357.92,-0.3357721,0.05819248,0.3351598,0.002359115,0.4916827,-9.797924,2
10989602,5666,1.96,-1.67,-3.62,-3.57,-2.58,356.87,1.07,-0.1144939,0.2505426,0.2440702,0.2699731,0.5526406,-9.538736,2
11096066,5040,2.47,-1.9,-4.34,-3.14,-1.95,356.86,2.36,-0.1685414,0.04995991,0.2041791,0.3326526,0.5592583,-9.547624,2
11213690,4962,2.72,-1.71,-4.73,-2.85,-1.92,356.85,3.26,-0.06416744,0.0842440899999999,0.09654856,0.1280868,0.5023448,-9.735406,2
11327192,4864,2.45,-1.18,-4.82,-2.87,-2.09,356.85,3.51,0.09953743,-0.1206443,-0.005911927,0.3234477,0.5992188,-9.458055,2
11421509,4916,2.49,-0.75,-4.55,-2.81,-2.36,356.85,3.31,0.105189,-0.1136352,-0.0804169,-0.09762076,0.6276887,-9.736929,2
11538777,4997,2.55,-0.31,-3.1,-2.77,-2.51,356.85,2.72,0.2409578,0.028193,-0.1119845,-0.1679091,0.5899828,-9.861931,2
11653312,5133,2.6,-0.68,-1.69,-2.47,-2.55,356.84,1.68,0.1153391,0.003465846,-0.1768999,-0.1703894,0.3166407,-10.24264,2
11763715,5304,2.58,-2.08,-1.98,-2.21,-1.81,356.84,0.55,-0.1352293,0.02275529,-0.1916082,0.2717941,0.3192198,-9.643994,2
11865399,5223,2.74,-3.49,-3.74,-1.78,-1.71,356.82,359.44,-0.2673247,-0.01944948,-0.1915478,0.08296769,0.6959939,-9.703456,2
12075358,5514,3.0,-5.34,-5.82,-1.16,-1.4,356.77,357.55,0.02391187,0.02432145,-0.1127643,-0.083314,0.9203833,-9.725345,2
12195261,5628,2.84,-5.94,-6.09,-0.81,-0.52,356.73,356.78,-0.007409679,0.1047318,-0.05108796,-0.08149516,0.6572183,-9.770177,2
12402546,5515,2.54,-7.05,-6.48,-0.46,0.67,356.69,356.26,-0.1214819,0.1518408,-0.0253486,-0.3056684,0.7352989,-10.23767,2
12527182,5571,2.48,-7.44,-7.5,-0.77,0.84,356.73,356.17,-0.2712307,0.06850865,0.01295563,-0.3419171,1.062568,-10.17635,2
12620743,5568,2.67,-7.72,-7.69,-1.2,0.79,356.79,356.06,-0.05128053,-0.09731065,-0.02304215,0.01697409,0.7431836,-10.05008,2
12731779,5526,2.91,-7.97,-8.12,-1.52,0.28,356.83,356.05,-0.06833127,-0.0884501699999999,0.006983373,-0.4248207,0.9420819,-9.676749,2
12836976,5500,2.75,-8.27,-8.51,-1.82,0.21,356.88,356.32,-0.05241065,0.01854884,0.07438605,0.02589025,0.8715789,-9.788588,2
12944538,5497,2.98,-8.54,-8.54,-2.01,-0.05,356.91,357.1,0.0843394799999999,-0.1321983,0.1302207,-0.4136235,1.045953,-9.647724,2
13063532,5406,2.38,-8.97,-8.1,-2.26,-0.05,356.94,358.17,0.007688365,0.02350302,0.141035,-0.03597208,0.8690218,-9.876216,2
13161176,5465,2.41,-9.27,-8.02,-2.49,-0.36,356.98,358.99,-0.008160247,-0.1060248,0.1135909,0.1017629,0.8187072,-9.639348,2
13275301,5361,2.61,-8.87,-7.92,-2.65,-1.11,357.01,359.8,0.0772999199999999,-0.1425226,0.1020415,-0.2472377,1.113292,-10.10035,2
13382215,5394,2.67,-6.88,-6.44,-2.67,-1.5,357.01,0.25,0.3788646,-0.08921431,0.04254894,-0.155695,1.229931,-9.526423,2
13493186,5211,2.66,-5.62,-4.36,-2.59,-1.36,357.0,0.43,0.2219357,0.0874128,0.04081601,0.1525324,0.9838477,-10.08928,2
13598296,5328,2.47,-4.99,-3.17,-2.56,-1.28,357.0,0.29,0.1096154,0.02972527,-0.02072884,-0.3342301,1.020997,-10.34218,2
13708289,5341,2.35,-5.03,-2.63,-2.6,-1.28,357.0,0.12,-0.06755223,-0.0585092,-0.01370344,-0.04042735,1.01931,-9.963634,2
13816183,5255,2.89,-5.57,-3.27,-2.52,-1.31,356.99,0.0,-0.2199036,0.01432668,-0.01815817,-0.1028156,1.18726,-9.203588,2
13930735,5250,2.71,-6.17,-4.5,-2.43,-1.21,356.99,359.82,-0.3088816,-0.03437269,-0.05544027,0.0085372969999999,1.156573,-9.930761,2
14040786,5319,2.89,-6.44,-5.31,-2.35,-1.02,356.98,359.71,-0.06199581,0.06347887,0.001825307,-0.03813785,1.024938,-9.694601,2
14148768,5260,2.43,-6.33,-5.61,-2.31,-0.76,356.97,359.74,-0.0630846,0.1744009,0.04363051,0.00746042,1.072465,-9.481761,2
14248894,5293,2.31,-6.03,-5.43,-2.34,-0.66,356.98,359.89,0.07945792,-0.04995057,0.01107971,-0.1836508,1.210366,-9.552013,2
14370386,5061,2.06,-5.48,-5.16,-2.46,-0.86,356.99,0.01,0.09676751,-0.03208691,0.03438791,-0.4709032,1.394674,-9.77113,2
14474237,5150,2.28,-3.92,-4.12,-2.58,-1.24,357.0,359.93,0.4975135,-0.03810658,-0.02269176,-0.09812514,1.249671,-9.459831,2
14586044,5031,2.36,-1.86,-1.61,-2.73,-1.39,357.02,359.53,0.3970004,0.09306046,-0.03875309,-0.4538852,1.011419,-9.722026,2
14697047,5210,2.91,-1.12,0.27,-2.8,-1.71,358.13,359.16,0.10985,0.06973143,-9.469131e-05,-0.4536997,0.5986652,-10.00787,2
14795183,5315,2.63,-1.14,0.05,-2.8,-1.85,0.63,359.25,-0.2313845,0.08013213,0.101967,-0.3818811,0.795967,-9.547389,2
14904168,5397,2.99,-1.77,-0.74,-3.03,-1.88,2.84,0.08,-0.0782915099999999,-0.1120033,0.1887178,-0.4108047,0.870218,-9.357101,2
15121557,5643,3.01,-2.96,-2.92,-3.07,-2.65,7.24,3.73,-0.1744298,-0.1957908,0.3415126,-0.2884023,1.016528,-9.603307,2
15231591,5689,2.91,-3.39,-3.36,-2.74,-2.78,8.69,6.23,0.01847526,-0.04830205,0.4300697,-0.2063632,0.6768394,-9.547177,2
15341474,5707,1.99,-3.46,-3.65,-2.38,-2.09,8.75,8.75,0.01380171,0.05413404,0.4142292,-0.147822,1.006214,-9.527378,2
15450099,5360,2.31,-3.53,-3.67,-1.98,-1.77,8.72,10.67,-0.05711503,-0.1110074,0.2862679,-0.2863373,0.8067402,-9.476448,2
15554520,5253,2.25,-3.57,-4.09,-1.73,-1.7,8.71,12.08,0.1074041,-0.1600435,0.1636756,0.1687436,0.9091332,-9.396678,2
15668953,5158,2.41,-3.75,-4.2,-1.48,-1.79,8.69,13.02,-0.1315746,0.1557289,0.110573,-0.1247604,0.8911799,-10.12792,2
15776236,5167,2.64,-3.9,-3.76,-1.15,-2.26,8.67,13.5,0.1736909,-0.1472675,0.06324752,-0.03310898,0.7208109,-9.637894,2
15882560,5118,2.46,-4.28,-4.4,-1.41,-1.75,8.69,13.74,0.04996084,0.1185347,0.03554849,0.02937439,1.274195,-9.571809,2
15980468,5030,3.18,-4.64,-4.71,-2.28,-2.49,8.76,13.84,-0.09070282,-0.2399178,-0.0166372,-0.007753117,1.065312,-9.665932,2
16089338,5142,2.8,-4.62,-5.14,-3.29,-3.75,8.84,13.83,0.162321,-0.2493295,-0.04236835,-0.1134211,1.045845,-9.62326,2
16203015,5203,2.7,-4.45,-5.1,-4.08,-4.64,8.9,13.67,0.2203841,-0.1187811,-0.04312057,-0.2041623,0.9724632,-9.958392,2
16312387,5253,2.66,-4.1,-4.95,-4.32,-4.69,8.92,13.38,0.003796831,0.03387223,-0.06584465,-0.1731785,0.9438457,-9.507457,2
16423213,5197,2.53,-3.86,-4.37,-4.53,-4.25,8.93,12.98,0.01369377,0.1065606,-0.02214072,-0.5263771,1.166929,-10.5077,2
16642610,5173,2.41,-3.66,-3.79,-4.87,-3.94,8.96,12.02,-0.03993238,-0.08347743,-0.09501529,-0.7746105,0.9030432,-9.979017,2
16860042,5299,2.54,-3.77,-3.87,-5.34,-4.2,8.99,10.98,0.02344878,-0.1074547,-0.06302176,-0.4368778,1.120329,-10.22522,2
16984199,5224,2.65,-3.85,-3.83,-5.48,-5.16,9.0,10.43,0.0895117899999999,-0.08926769,-0.08779249,-0.6227816,1.001219,-9.548207,2
17083066,5348,2.46,-3.8,-4.2,-5.65,-5.05,9.01,9.96,-0.0931543299999999,-0.0006909298,-0.04787634,-0.6520905,1.016423,-9.790407,2
17184594,5427,2.31,-3.78,-4.22,-5.99,-4.48,9.03,9.56,-0.05966436,0.1947642,-0.04310096,-0.5849591,0.8873696,-9.687203,2
17299710,5387,1.97,-3.44,-4.51,-6.65,-3.86,9.07,9.14,-0.06634499,0.07387932,-0.06068126,-0.3025097,0.8201224,-9.510891,2
17519783,5210,2.16,-2.6,-4.61,-8.46,-4.97,9.17,8.32,0.1195246,-0.1338174,-0.09984266,-0.5238059,0.9391088,-9.200928,2
17628446,5155,2.34,-2.2,-4.22,-9.2,-5.96,9.2,7.83,0.08073341,-0.2237781,-0.09227732,-0.5213839,0.8208648,-9.395007,2
17736152,5308,2.65,-2.04,-3.49,-9.43,-6.8,9.21,7.61,0.07577333,-0.04534551,-0.02553863,-0.6471078,1.036249,-9.31758,2
17848968,5401,2.4,-2.11,-2.77,-9.48,-7.31,9.21,7.73,0.08352036,-0.09671686,0.05128266,-0.7262073,0.8737832,-9.864142,2
17955583,5413,2.24,-2.4,-2.35,-9.32,-7.55,9.21,8.08,0.0163108,-0.005767593,0.05766473,-0.6703269,0.6221643,-9.622818,2
18068169,5383,2.24,-2.85,-2.69,-9.04,-7.45,9.19,8.55,-0.006894344,0.08784492,0.07527295,-0.9913608,1.161429,-9.360289,2
18284507,5338,2.4,-3.85,-3.98,-8.86,-7.12,9.18,9.05,-0.0658732,-0.04204901,0.08627327,-0.8766469,1.066599,-9.630651,2
18396524,5181,2.1,-3.99,-4.39,-8.78,-7.04,9.18,9.29,0.09762098,-0.05020822,0.02247898,-0.8700143,1.471756,-9.715554,2
18503517,5139,2.52,-4.15,-4.05,-8.49,-7.09,9.16,9.73,0.1035068,-0.008978247,0.1588134,-0.3057335,0.9639653,-9.64121,2
18613890,5284,2.22,-4.13,-3.74,-7.93,-8.1,9.12,10.93,0.0854528299999999,-0.265052,0.2177459,-0.2449582,1.014923,-9.886928,2
18723963,5269,2.2,-4.14,-3.82,-6.95,-9.19,9.04,12.23,-0.009672846,-0.1095656,0.1933576,-0.6239022,0.7174175,-9.523574,2
18838210,5219,2.46,-4.14,-4.52,-6.07,-8.33,8.98,13.09,-0.327845,0.3088605,0.1341835,-0.9996107,0.9329475,-9.915548,2
18952204,4967,2.77,-4.32,-4.3,-5.19,-6.24,8.91,13.48,0.08016643,0.1878095,0.05005681,-0.1743085,0.9721264,-10.36478,2
19070894,4794,2.47,-4.39,-4.11,-3.95,-5.6,8.82,13.44,0.2354828,0.03116273,-0.03381569,-0.140667,1.007529,-9.202491,2
19161935,4906,2.58,-4.62,-3.88,-3.12,-5.41,8.75,13.11,-0.2261631,0.207596,-0.01090998,-0.9672244,0.8360356,-10.02194,2
19271261,5111,2.58,-4.91,-3.87,-2.94,-3.38,8.74,12.4,-0.1833487,0.3782968,-0.09366961,-0.4053901,0.8777949,-9.671236,2
19398606,4768,2.41,-5.13,-4.59,-3.13,-1.52,8.76,11.49,-0.09070382,0.1166729,-0.1143535,-0.3885356,0.916982,-10.02837,2
19488523,4748,2.82,-5.29,-4.69,-3.45,-1.49,8.79,10.92,0.006404301,-0.03599004,-0.1241533,-0.6559551,0.8646068,-10.24991,2
19606977,5202,1.85,-5.39,-4.72,-4.34,-1.79,8.87,10.11,-0.1178911,0.0771117,-0.1154023,-0.7403862,0.7711539,-10.24292,2
19724077,5064,1.96,-5.22,-5.35,-5.2,-2.42,8.95,9.32,-0.08264206,-0.2418104,-0.1042375,-0.493425,0.6026537,-9.917003,2
19824197,4838,2.27,-5.11,-5.68,-5.56,-3.25,8.98,8.85,-0.01637272,-0.1277283,-0.07080038,-0.7613908,1.15672,-9.388522,2
19931250,4957,2.68,-5.05,-5.66,-6.01,-3.87,9.02,8.41,-0.02748106,0.004831365,-0.09638737,-0.8087373,1.085649,-9.79953,2
20043499,5105,2.27,-5.0,-5.29,-6.24,-4.54,9.04,8.16,0.1196844,-0.1924312,-0.009384796,-0.6323577,1.221849,-9.494382,2
20154374,5209,2.4,-5.07,-4.76,-6.1,-5.22,9.03,8.23,0.1132337,-0.05468525,0.03011804,-0.7314622,0.9486655,-9.613936,2
20256565,5423,1.99,-5.25,-4.32,-6.01,-5.43,9.02,8.38,0.04437283,-0.08566305,0.0362194,-0.8611073,1.220012,-9.383894,2
20362768,5182,1.95,-5.52,-4.33,-5.87,-5.35,9.01,8.51,-0.03927585,-0.03742033,0.01898635,-0.5374121,1.243596,-9.60515,2
20474047,5126,2.04,-5.79,-4.4,-5.6,-5.25,8.98,8.6,-0.0326295,0.04087128,-0.03424697,-0.3064934,0.8928631,-9.092158,2
20588892,5081,1.96,-5.92,-4.77,-5.51,-5.06,8.97,8.49,-0.02852492,-0.0559374,0.00977561,-0.6664467,0.8915899,-9.080379,2
20686758,4914,2.3,-5.98,-4.75,-5.11,-4.8,8.93,8.21,0.1348181,0.02328976,-0.07465906,-0.4696637,0.9226519,-9.499255,2
20795248,4928,2.17,-5.99,-4.77,-4.77,-4.94,8.89,7.64,0.03847749,0.02679202,-0.0792543099999999,-0.4960612,0.9772978,-9.330582,2
20913153,4962,2.44,-6.09,-5.44,-4.21,-5.13,8.84,7.12,-0.2014006,0.09826619,-0.005155657,-0.7548096,0.9044353,-9.509864,2
21017254,5053,2.7,-6.28,-5.72,-3.87,-5.02,8.8,6.86,-0.02006241,0.03123359,0.01897693,-0.5711967,0.62132,-9.256059,2
21123146,5413,2.36,-6.21,-6.0,-3.34,-4.34,8.74,6.8,-0.06916778,0.1319494,0.03564896,-0.3887077,0.9838721,-9.750315,2
21227624,5398,2.55,-5.95,-5.94,-3.05,-3.73,8.71,6.85,0.08765522,0.1291385,0.05350183,-0.3981165,1.145105,-9.810289,2
21342296,5328,2.9,-5.59,-5.6,-2.61,-3.3,8.66,7.24,0.08908161,0.08560537,0.1023736,-0.4520615,0.8820393,-10.03673,2
21456790,5548,2.7,-5.33,-4.56,-2.07,-2.93,8.61,8.04,0.1451075,-0.05887707,0.1945017,-0.6613123,1.012996,-10.91958,2
21562294,5599,1.75,-5.05,-4.39,-0.51,-1.28,8.47,8.71,0.07568277,0.4185677,0.11996,-0.7281296,1.009053,-9.718517,2
21668752,5406,2.42,-4.88,-5.02,0.33,1.16,8.4,9.06,-0.08439542,0.4242722,0.0959959299999999,-0.7957821,1.069669,-10.27244,2
21889471,5228,2.46,-4.46,-4.75,0.72,2.27,8.36,9.08,0.01098311,-0.08330251,-0.01006451,-0.6323435,0.9472483,-11.01652,2
21996483,5259,2.69,-4.09,-4.49,0.3,1.59,8.39,9.02,0.06413516,-0.1062766,-0.02897323,-0.793816,0.9762083,-10.45811,2
22115700,5454,2.28,-3.76,-4.14,-0.15,1.04,8.43,8.99,-0.007583923,-0.1158429,-0.01534351,-0.2851758,0.8484586,-10.41985,2
22214845,5425,2.27,-3.44,-4.01,-0.23,1.04,8.43,9.0,0.007927019,0.07484161,0.02423352,-0.5457126,0.8564283,-10.33642,2
22325771,5351,2.19,-3.23,-3.76,-0.5,1.17,8.45,9.02,-0.0102002,-0.0751335499999999,-0.008866662,-0.4876195,0.8777382,-10.17419,2
22437236,5233,2.9,-3.13,-3.96,-1.0,0.15,8.47,8.94,0.03868437,-0.2229751,-0.05230612,-0.631304,0.9330837,-9.947887,2
22548300,5303,2.46,-3.11,-3.92,-1.35,-0.97,8.49,8.74,0.01652958,-0.1463734,-0.0646399899999999,-0.8356095,1.075377,-10.13153,2
22657270,5345,2.56,-3.11,-3.71,-1.39,-1.54,8.5,8.57,0.01409683,-0.001007798,-0.02423433,-0.7241504,0.9846426,-9.655869,2
22757250,5384,2.44,-3.0,-3.6,-1.29,-1.73,8.49,8.5,0.02717884,-0.1069741,-0.04761246,-0.3142926,0.9582187,-9.782644,2
22870543,5362,2.36,-2.86,-3.85,-0.98,-1.71,8.47,8.39,-0.08546525,0.08747631,-0.01996114,-0.8424296,0.813519,-9.473288,2
22980289,5283,2.47,-2.76,-3.74,-0.72,-1.47,8.46,8.28,0.009297242,-0.03689407,-0.03743855,-0.6878317,0.6893854,-9.510308,2
23080539,5272,2.58,-2.6,-3.82,-0.53,-1.0,8.45,8.26,-0.04779862,0.1089076,0.00548712,-0.4151934,0.8705803,-9.566046,2
23185728,5302,2.71,-2.56,-3.6,-0.49,-1.2,8.45,8.32,0.05129928,-0.1136285,-0.004608296,-0.4291338,0.7403763,-9.632059,2
23302368,5440,2.2,-2.24,-3.87,-0.26,-0.69,8.44,8.49,0.01138871,0.1583514,0.00299824,-0.8951283,1.04979,-9.448994,2
23405160,5199,2.38,-2.12,-3.34,0.0,-0.05,8.43,8.45,0.08949342,0.01508681,0.008710353,-0.3769725,0.6517312,-9.704541,2
23512576,5188,2.26,-1.8,-2.99,0.02,-0.18,8.43,8.38,0.03978608,-0.08425681,-0.01718712,-0.5419062,0.6914024,-9.732886,2
23627139,5254,2.39,-1.55,-2.63,-0.09,-1.06,8.43,8.16,0.04559425,-0.1747206,-0.03202592,-0.3959746,0.6559113,-9.360906,2
23841388,5225,2.47,-1.09,-2.85,0.35,-1.13,8.42,7.24,-0.02807643,-0.01807396,-0.03205545,-0.4845362,0.6003726,-9.39934,2
23955889,5134,2.48,-0.99,-3.01,0.68,-0.88,8.42,7.04,0.0007984374,0.01361823,0.01542933,-0.4681571,0.7975271,-9.47726,2
24063707,5211,2.62,-1.0,-2.65,0.88,-0.73,8.41,7.04,0.02121481,0.1048163,0.01982665,-0.4191245,0.8509011,-9.090321,2
24166926,5384,2.6,-1.08,-1.97,0.83,-0.64,8.42,7.2,0.1927921,0.04553382,0.03939834,-0.2962365,0.773241,-8.969444,2
24279476,5337,2.31,-0.54,-1.32,0.84,-0.45,8.41,7.56,0.07056966,0.08454639,0.0804990399999999,-0.2882928,0.8976656,-9.586726,2
24387271,5248,2.57,0.98,0.62,0.73,-0.17,8.41,8.05,0.244462,0.1012072,0.09970221,-0.4552515,0.7621483,-9.749455,2
24496971,5322,2.44,2.21,2.73,0.54,-0.01,8.41,8.58,0.2094077,0.07939504,0.1463962,-0.5577596,0.5129055,-9.801949,2
24608686,5438,2.54,2.93,4.17,0.43,-0.51,8.4,9.28,0.2281895,-0.2030395,0.1099042,-0.2730251,0.5354902,-9.9285,2
24714773,5399,2.56,2.86,4.56,0.63,-1.4,8.41,9.96,-0.05010425,-0.1910054,0.1089634,-0.3875045,0.6735243,-10.09018,2
24926957,5382,2.23,1.36,2.28,1.74,-0.75,8.46,10.92,-0.3017192,0.1822302,-0.00303768,-0.3091351,0.5882043,-9.717291,2
25042032,5254,2.07,0.62,0.62,2.72,1.07,8.47,11.01,-0.2277727,0.3238691,-0.01755165,-0.1097852,0.7520493,-9.809462,2
25147271,5095,2.8,-0.03,-0.13,3.55,2.01,8.48,10.71,-0.1793577,0.1115753,-0.06592114,-0.06421564,0.6480515,-10.08404,2
25256500,5295,2.31,-0.6,-0.73,4.21,2.64,8.47,10.3,-0.08394745,0.1705948,-0.05192841,-0.06277808,0.6819653,-9.333981,2
25380726,5202,2.4,-0.64,-1.58,4.39,3.26,8.47,9.73,-0.08430535,0.09289657,-0.07277237,-0.08615295,0.6779528,-9.357002,2
25705228,5228,2.4,0.01,-0.47,4.53,2.92,8.47,9.6,0.005571282,-0.02594126,0.02843418,-0.04494951,0.4357684,-9.829618,2
25807709,5229,2.7,0.19,-0.08,4.53,3.34,8.47,9.62,0.1428795,0.009585499,0.01097881,-0.1645814,0.6365877,-9.757577,2
25914077,5251,2.89,0.13,0.46,4.62,3.31,8.47,9.52,-0.005444176,-0.01249096,-0.01014428,-0.07990083,0.5540115,-9.800838,2
26021519,5386,2.59,0.11,0.46,4.68,3.29,8.47,9.28,-0.005342219,0.09017469,-0.04802005,0.094754,0.6378809,-9.872505,2
26129573,5455,2.77,0.04,0.49,4.7,3.59,8.47,8.97,-0.04751506,0.03876735,-0.02562567,-0.03154266,0.7529582,-9.809755,2
26242158,5378,2.73,0.18,0.27,4.62,3.93,8.47,8.78,-0.07270548,0.02029465,-0.00490494,0.166839,0.6120383,-9.85762,2
26351260,5303,2.57,0.5,0.09,4.44,3.72,8.47,8.82,0.01925334,0.008235549,0.03542286,0.1012752,0.5996684,-9.901805,2
26454588,5358,2.97,0.92,0.51,4.28,3.16,8.47,8.93,0.1164741,-0.1417334,0.008636632,0.1919148,0.644328,-10.0437,2
26568923,5416,2.74,1.31,0.78,4.14,2.76,8.46,9.03,0.06644501,-0.03374808,0.004983944,0.03944938,0.7754387,-10.09918,2
26669548,5485,2.76,1.5,1.38,4.03,2.37,8.46,9.06,0.01617521,-0.0083266669999999,0.01829167,0.1891142,0.5132755,-9.814332,2
26785918,5501,2.57,1.59,1.59,3.94,2.22,8.46,8.95,-0.0374958,0.05076821,-0.03640363,-0.01261723,0.4330607,-9.844681,2
26887152,5513,2.94,1.58,1.47,3.84,2.16,8.46,8.79,-0.08625848,-0.06155892,-0.006542492,-0.08428041,0.481702,-10.05345,2
26995741,5461,2.54,1.57,1.21,3.5,2.29,8.45,8.68,-0.1741551,-0.05721125,-0.01532876,0.1749945,0.3560055,-9.909932,2
27105374,5348,2.94,1.49,0.93,3.14,1.61,8.44,8.59,-0.05369394,-0.1443395,-0.018633,0.1146202,0.4842906,-9.661255,2
27217631,5448,2.74,1.52,0.84,2.79,1.05,8.43,8.45,-0.01017307,-0.1223343,-0.03435222,0.1139299,0.468434,-9.911481,2
27330240,5536,2.66,1.31,0.66,2.77,0.52,8.43,8.31,0.02772006,-0.0988802399999999,-0.0313502,0.02183315,0.6964481,-9.796867,2
27443532,5486,2.61,0.99,0.43,2.76,0.64,8.43,8.15,-0.06144866,0.04123232,-0.02141846,0.2118182,0.4926285,-9.659743,2
27541886,5495,2.71,0.92,0.2,2.83,1.01,8.43,7.93,-0.04071552,0.1103732,-0.02707488,0.1478632,0.5324866,-9.46139,2
27645039,5416,2.76,0.7,0.14,2.89,1.56,8.43,7.77,-0.09597582,0.09499129,-0.01380163,0.1152842,0.2598747,-9.596053,2
27751196,5581,2.43,0.84,0.06,2.97,2.08,8.43,7.89,-0.07350531,0.1649942,0.06586462,0.1069225,0.4531045,-9.596196,2
27858940,5342,2.33,1.2,0.33,2.86,2.42,8.43,8.32,-0.02223736,0.1085383,0.1046378,0.2366439,0.2763753,-9.564357,2
27970684,5350,2.32,1.61,0.43,2.61,2.36,8.42,9.08,0.001229314,-0.08368261,0.1227395,0.1035587,0.3429489,-9.681794,2
28072549,5240,2.28,1.86,0.58,2.34,2.23,8.41,9.79,0.02312913,-0.0001174637,0.1313094,0.01586826,0.3741597,-9.902912,2
28188699,5209,2.57,2.33,0.67,2.13,1.67,8.41,10.46,0.06355461,-0.08920233,0.06536756,0.1569819,0.4262325,-9.643708,2
28300790,5160,2.38,2.55,0.94,1.92,1.3,8.4,10.68,-0.03268319,-0.1038803,0.02384934,0.124119,0.2080982,-9.738489,2
28407023,5197,2.4,2.73,1.41,1.82,1.19,8.39,10.54,0.1428275,-0.0768448999999999,-0.03763122,0.1104973,0.298936,-9.367496,2
28515932,5156,2.76,2.88,1.57,1.64,1.39,8.38,10.02,0.02422713,0.02445112,-0.1221555,0.4164882,0.3421618,-9.469906,2
28625980,5144,2.5,2.89,1.51,1.56,0.92,8.38,9.11,0.03661175,-0.09133568,-0.1207734,0.2261487,0.3046601,-9.609238,2
28749928,5322,2.72,2.83,1.31,1.44,0.89,8.37,8.24,0.02683934,0.05752056,-0.08521082,-0.04856283,0.5493725,-9.977865,2
28848476,5437,2.32,2.79,1.31,1.34,1.15,8.37,7.78,0.03859742,-0.03243429,-0.04707731,0.2617599,0.3722762,-9.599492,2
28955291,5318,2.72,2.86,1.28,1.42,1.27,8.37,7.62,-0.04039531,0.03501837,0.0285315,-0.006499925,0.2156044,-9.983336,2
29181055,5445,2.63,2.92,1.29,1.44,1.0,8.37,8.05,-0.02080055,-0.0688858,0.0497191,0.1675898,0.1328975,-9.722034,2
29398254,5491,2.35,2.99,0.72,1.34,1.27,8.37,9.05,-0.0004846627,0.07378562,0.06236005,0.2276594,0.339937,-10.07128,2
29503064,5321,2.77,3.05,0.55,1.22,1.07,8.36,9.54,0.02979516,-0.1655982,0.0741923699999999,0.2349413,0.2647334,-10.11053,2
29606268,5255,2.57,3.27,0.62,1.08,0.88,8.35,9.86,0.03582733,-0.1123908,0.04689754,0.1428485,0.1814724,-9.807095,2
29725316,5160,2.33,3.53,0.84,0.87,0.91,8.34,10.14,0.1081343,-0.00587337,0.04292322,0.1989488,0.3452334,-9.778075,2
29827365,5072,2.65,3.41,1.09,0.69,1.01,8.33,10.3,0.07707682,-0.04588497,-0.009361967,0.2230246,0.01538762,-9.719694,2
29935254,5158,2.55,2.79,0.75,0.51,0.97,8.32,10.32,-0.05158988,-0.1523612,-0.01977816,0.2904555,0.2460502,-10.00441,2
30043214,5228,2.42,1.93,0.01,0.4,0.64,8.32,10.13,-0.217428,0.05542148,-0.04768466,0.1721729,0.1293075,-9.914509,2
30162040,5246,2.63,0.2,-1.3,0.36,0.27,8.32,9.81,-0.3479083,0.09589823,-0.05092397,0.06592768,0.0862064,-9.969967,2
30272257,5272,2.56,-1.25,-3.1,0.46,0.08,8.31,9.43,-0.3114357,-0.07037607,-0.08051646,0.2074637,0.3150378,-10.05231,2
30475953,5186,2.83,-2.33,-4.16,0.78,0.47,8.3,8.63,0.001801184,0.04687579,-0.03978704,0.2539673,0.2349563,-9.987856,2
30586370,5371,2.52,-2.3,-3.64,0.92,0.57,8.3,8.39,0.1130185,-0.04543845,-0.01621891,0.06729864,0.3649751,-10.07958,2
30689825,5384,2.49,-2.44,-3.15,0.95,0.92,8.3,8.29,0.006287203,-0.002745149,0.01293723,0.1116502,0.3421667,-10.03048,2
30807980,5368,2.78,-2.46,-2.9,1.02,0.88,8.29,8.33,0.003686724,-0.1051373,0.01176421,0.1066788,0.3863226,-10.05743,2
30914553,5337,2.65,-2.69,-2.74,1.05,0.83,8.29,8.37,0.05764186,0.06057975,0.01700438,0.1562975,0.3803756,-10.19667,2
31024144,5469,2.68,-3.08,-2.39,1.03,0.92,8.29,8.27,0.02996913,-0.01911834,-0.01456847,0.2072611,0.3444047,-10.10527,2
31130758,5450,2.65,-3.41,-2.32,1.13,1.31,8.29,8.03,0.03054095,0.08318465,-0.03322238,0.03400926,0.6048205,-9.93948,2
31342721,5357,2.57,-6.66,-3.92,0.81,1.37,8.32,7.78,-0.3218996,-0.08093801,0.004095345,0.1920144,0.03981395,-9.758124,2
31448100,5385,2.81,-9.83,-7.61,0.52,1.28,8.36,7.98,-0.7163908,0.01390397,0.01374512,0.2235605,0.2875066,-9.998124,2
31568147,5429,2.56,-13.58,-12.15,0.32,1.0,8.4,8.27,-0.6883097,-0.05868905,0.01789239,-0.03618414,0.4447204,-9.685873,2
31666302,5441,2.69,-15.39,-15.14,0.17,0.98,8.44,8.41,-0.320518,-0.1010659,-0.0008190752,0.208093,0.6751212,-9.906284,2
31882702,5385,2.65,-14.7,-14.47,0.0,0.46,8.49,8.65,0.3486433,0.0093355409999999,0.03771219,0.01967989,0.6061269,-9.888919,2
31996028,5385,2.58,-13.17,-11.51,-0.1,0.53,8.51,8.94,0.4694322,0.03046661,0.05304615,0.03277357,0.3825426,-9.863131,2
32105573,5395,2.54,-12.08,-9.36,-0.25,0.38,8.55,9.23,0.2582435,-0.01759769,0.06340438,-0.07150597,0.4838043,-9.71231,2
32207224,5490,2.56,-11.39,-8.46,-0.42,0.35,8.58,9.45,0.09238538,-0.02187289,0.05001837,0.1650068,0.6110369,-9.895594,2
32320080,5302,2.63,-10.88,-7.87,-0.58,-0.09,8.62,9.69,-0.002677287,-0.07069675,0.0389937,-0.002895146,0.6401132,-9.541728,2
32431695,5365,2.4,-10.4,-7.49,-0.66,-0.39,8.63,9.8,0.0848453099999999,0.006109715,-0.003492492,0.01850736,0.6513239,-9.620713,2
32534397,5316,2.47,-9.85,-7.34,-0.55,-0.51,8.61,9.78,0.07521493,0.04049315,0.009313668,0.0513986,0.7415382,-9.996367,2
32637194,5342,2.71,-9.3,-7.18,-0.43,-0.25,8.59,9.74,-0.01366418,0.02598454,-0.00164953,0.06769755,0.8703431,-9.798831,2
32742574,5356,2.78,-8.76,-6.65,-0.14,0.02,8.54,9.6,0.06717792,0.1350685,-0.03085591,-0.05896154,0.6594368,-9.883721,2
32854038,5333,2.73,-8.08,-6.28,-0.1,0.76,8.54,9.36,0.1174406,0.1496046,-0.001059057,0.1568912,0.8578342,-9.645214,2
32972257,5430,2.58,-7.65,-5.57,-0.31,1.05,8.57,9.23,0.08845478,-0.0078139549999999,0.0085060369999999,0.05138578,0.571121,-9.838775,2
33068063,5357,2.57,-7.28,-4.84,-0.52,0.93,8.59,9.38,0.1401313,0.02917355,0.07293656,-0.0002325267,0.5975033,-9.688866,2
33179150,5410,2.39,-6.93,-4.77,-0.8,0.98,8.63,9.82,-0.05390342,-0.01501967,0.0993337,-0.1328572,0.9684079,-9.937114,2
33298633,5166,2.74,-6.6,-4.93,-1.1,0.96,8.66,10.61,0.07983556,-0.01596169,0.1298835,0.1896838,0.7747617,-9.797622,2
33407932,5279,2.98,-5.89,-4.54,-0.24,0.56,8.57,11.37,0.13769,0.004730876,0.09216452,-0.1845121,0.7761822,-9.889608,2
33516041,5496,2.39,-5.04,-3.66,2.21,2.44,8.34,11.81,0.2146822,0.4077644,0.06725675,0.2311455,0.7284707,-9.847768,2
33618263,5440,2.69,-4.35,-2.9,4.47,4.51,8.15,11.9,0.1735644,0.4424302,0.0063747,-0.01960515,0.9381541,-9.722283,2
33738437,5382,2.46,-3.94,-1.64,5.89,6.3,8.05,11.65,0.0830736599999999,0.1113278,-0.04996508,0.2514335,0.6530298,-9.953569,2
33839569,5354,2.5,-3.61,-1.11,6.54,7.06,8.0,11.33,0.1443526,0.0338012,-0.07282086,0.1873443,0.6321177,-9.672297,2
33956290,5226,2.55,-3.54,-1.37,6.88,7.37,7.98,10.83,-0.05679481,-0.1105844,-0.09325983,0.1186591,0.5857983,-9.776067,2
34065636,5359,2.43,-3.35,-2.07,6.93,7.64,7.98,10.19,0.009167315,0.0246955,-0.1192843,-0.02992958,0.6463776,-9.773642,2
34167147,5381,2.46,-2.98,-2.96,6.67,7.9,7.99,9.32,-0.1434369,-0.0381652,-0.1600335,0.01465747,0.6310288,-9.532219,2
34284226,5234,3.39,-2.35,-3.17,6.25,7.36,8.01,8.28,0.09094432,-0.2399348,-0.1503159,0.241909,0.6181583,-9.527492,2
34504034,5540,3.26,-1.09,-1.77,5.98,4.82,8.02,7.01,0.2088943,-0.1831389,-0.08572943,0.01758779,0.832611,-9.879682,2
34608187,5815,3.03,-0.85,-0.78,6.13,4.11,8.02,6.68,0.1502034,-0.1119937,-0.04580158,0.03832707,0.4969647,-9.956871,2
34716178,5939,2.95,-0.73,-0.33,6.56,4.38,8.01,6.53,0.03908641,0.03509841,-0.0210972,0.05579881,0.7336521,-10.00256,2
34836063,5756,2.58,-0.85,-0.22,7.16,5.18,8.0,6.67,0.001942868,0.1681278,0.05139239,0.09308017,0.5374517,-9.294329,2
34942591,5444,2.56,-0.89,-0.94,7.53,6.24,8.0,7.11,-0.1437579,0.2545581,0.13006,0.3760067,0.5208127,-9.195498,2
35054873,5463,2.77,-0.72,-1.93,7.87,6.6,7.99,7.94,-0.1715803,-0.05531944,0.1385468,0.4790854,0.6177509,-9.226001,2
35154210,5391,3.07,-0.6,-1.72,7.98,5.96,7.99,8.59,0.08478421,-0.1531695,0.0992817399999999,0.1403079,0.6123078,-9.779487,2
35256277,5485,2.87,-0.36,-1.33,8.11,5.51,7.99,8.84,-0.002785644,-0.04870803,0.01182308,0.007024889,0.6112877,-9.903954,2
35380223,5564,2.89,-0.14,-0.53,8.43,5.91,7.99,8.77,0.1454292,0.03438856,-0.03136896,0.2385145,0.5237699,-9.665031,2
35478710,5504,2.77,-0.32,0.01,8.67,6.33,7.99,8.49,0.001778264,0.1040187,-0.02391475,0.3534929,0.4718058,-9.612799,2
35689839,5582,2.32,-0.71,-0.7,8.65,7.53,7.99,7.41,-0.1504112,0.08022835,-0.1169176,0.4491838,0.1948703,-9.156178,2
35804016,5334,2.69,-0.52,-2.7,8.39,8.08,7.99,6.69,-0.2003206,0.09662074,-0.09103588,0.2859108,0.6112467,-9.263382,2
36016199,5431,3.22,0.26,-1.52,7.5,6.89,8.0,5.9,0.1490773,-0.07785467,-0.02140859,0.1286052,0.4254389,-10.19154,2
36132600,5764,2.69,0.54,-0.82,6.56,6.19,7.99,5.81,0.0324456,-0.06005942,0.006057522,0.4665133,0.3560073,-9.7475,2
36344276,5671,3.3,-0.26,-0.75,1.34,0.48,7.97,6.38,-0.007006818,-0.6146077,0.06996929,0.1636114,0.3597929,-9.639588,2
36560069,5768,2.86,-0.86,-1.49,-1.2,-3.18,8.0,7.74,0.03435642,-0.1064091,0.1244885,0.1485472,0.4200884,-9.929139,2
36770380,5666,2.42,-1.13,-1.78,-1.29,-1.96,8.0,9.17,0.0240136,0.1881807,0.1136508,0.1632367,0.512747,-9.615372,2
36891763,5303,2.54,-1.15,-2.34,-1.34,-1.3,8.0,9.59,-0.03873334,-0.006753443,0.04161489,0.1536572,0.2676832,-9.815855,2
36993285,5343,2.86,-1.16,-2.3,-1.44,-1.15,8.0,9.72,0.05904644,0.02123548,0.01357074,0.3674535,0.2740984,-9.835989,2
37103129,5469,2.54,-1.01,-2.16,-1.56,-1.26,8.0,9.65,0.08952449,-0.04545442,-0.01910532,0.2937559,0.5015807,-9.873123,2
37213531,5377,2.77,-0.9,-1.91,-1.64,-1.45,8.01,9.41,0.1344577,-0.03946071,-0.03577839,0.1864712,0.5415918,-9.739234,2
37325609,5460,2.56,-1.02,-1.91,-2.45,-1.47,8.02,9.25,-0.07871233,-0.04025301,-0.02723793,0.4314416,0.4860946,-9.927634,2
37429398,5355,2.62,-1.47,-1.83,-4.13,-3.02,8.06,9.19,0.04198156,-0.3781766,-0.02670223,0.2859211,0.4366916,-9.873166,2
37748242,5329,2.96,-3.62,-3.66,-10.53,-11.19,8.33,9.22,-0.07925296,-0.2543585,-0.01916766,-0.1975033,0.5103464,-10.28887,2
37860769,5558,2.6,-3.86,-3.54,-10.09,-10.74,8.3,8.91,0.1132217,0.188518,-0.02366165,-0.04931597,0.5746143,-10.28944,2
37970317,5573,2.29,-3.89,-3.32,-8.84,-8.34,8.22,8.49,-0.0157616,0.41418,-0.01485141,0.01202481,0.387203,-9.762661,2
38079533,5348,2.42,-3.88,-3.32,-7.75,-5.7,8.14,8.23,-0.02177253,0.3628299,0.02423678,-0.01662889,0.5400884,-9.732153,2
38183689,5229,2.6,-3.77,-3.44,-7.01,-3.8,8.09,8.25,0.01622189,0.1781841,0.05381708,0.07782704,0.4225493,-10.06049,2
38404970,5308,2.55,-3.21,-3.93,-6.43,-2.63,8.06,9.64,-0.06151804,-0.1798458,0.1659086,-0.06783532,0.4821526,-10.09522,2
38514552,5153,2.67,-2.8,-3.89,-6.11,-3.24,8.04,10.72,0.139692,-0.255619,0.1541533,0.01593094,0.5288736,-9.885989,2
38622604,5133,2.5,-2.52,-3.35,-5.47,-3.68,8.01,11.63,-0.02785468,0.05102235,0.1155124,-0.1298023,0.4804825,-10.27275,2
38730773,5186,2.33,-2.38,-2.33,-4.78,-3.61,7.98,11.96,0.1548629,0.1855224,0.005303586,-0.04830717,0.5043846,-10.22292,2
38832578,5180,2.12,-2.34,-1.98,-4.24,-2.71,7.96,11.81,-0.07846961,0.2387616,-0.01767012,-0.06709046,0.6274243,-10.29578,2
38941364,4905,2.45,-2.46,-2.27,-3.61,-2.41,7.93,11.42,-0.2019607,0.02223758,-0.08388812,-0.1290413,0.4504882,-9.725681,2
39042707,4984,2.45,-2.44,-3.07,-3.12,-2.42,7.91,11.09,-0.0702998299999999,0.02450143,-0.0562612,-0.08532565,0.8112059,-9.281575,2
39163318,4992,2.82,-2.5,-3.01,-2.49,-2.46,7.88,10.39,0.06666486,0.186958,-0.1009469,-0.1759568,0.7500637,-9.789489,2
39258179,5229,2.62,-2.42,-2.43,-2.17,-1.67,7.87,9.77,0.02399579,0.2276175,-0.08951473,-0.1166349,0.6069459,-9.932128,2
39382816,5300,2.5,-2.23,-1.72,-1.79,-0.6,7.85,8.98,0.1337259,0.1372536,-0.1002292,-0.02056699,0.4999815,-9.724997,2
39480778,5300,2.45,-2.26,-1.53,-1.68,0.06,7.85,8.46,0.1180713,0.03680922,-0.08197931,0.05207535,0.6088616,-9.577672,2
39585749,5298,2.65,-2.31,-1.83,-1.71,0.24,7.85,8.01,-0.1060048,0.06272253,-0.0393932,-0.0648291,0.4155611,-10.00942,2
39688550,5263,2.7,-2.44,-1.8,-1.71,-0.2,7.85,7.72,0.08916901,-0.0736223399999999,-0.03316097,-0.166592,0.6487915,-9.847012,2
39813712,5408,2.42,-2.48,-2.18,-1.71,-0.52,7.85,7.5,-0.1430857,-0.02100323,-0.01195464,-0.267569,0.5364665,-10.19331,2
39911211,5361,2.73,-2.55,-2.1,-1.5,-0.87,7.84,7.36,-0.007340394,0.07648946,0.001006073,-0.221916,0.4776975,-9.778474,2
40024935,5415,2.4,-2.55,-2.3,-1.32,-0.64,7.83,7.31,-0.05910452,-0.002947433,-0.002161833,-0.1068736,0.5121944,-9.757276,2
40133275,5420,2.84,-2.61,-2.4,-1.05,-0.31,7.82,7.27,-0.07896003,0.05827591,-0.01197364,-0.2276709,0.696023,-9.854473,2
40342386,5355,2.5,-2.53,-2.9,-1.11,0.06,7.82,7.32,-0.05177303,-0.08664403,-0.005932962,-0.1685033,0.5361605,-9.846796,2
40570760,5300,2.67,-2.43,-2.44,-1.3,-0.5,7.83,7.27,0.06747875,-0.02124437,0.02475329,-0.3648575,0.4113288,-9.666115,2
40676231,5322,2.57,-2.37,-2.45,-1.35,-0.65,7.83,7.48,-0.02748774,-0.04659719,0.0604257,-0.2115095,0.4461232,-9.773608,2
40783371,5389,2.24,-2.34,-2.53,-1.38,-0.84,7.83,7.74,0.0680545,-0.1328274,0.06778718,-0.2263185,0.6724402,-9.504422,2
41115612,5175,2.55,-2.58,-2.27,-1.08,-1.2,7.82,8.8,0.02096911,0.02958054,0.04834819,-0.1692866,0.4246469,-9.743418,2
41217843,5288,2.24,-2.69,-2.34,-1.08,-0.62,7.82,9.0,-0.05430979,0.1105838,0.01397969,-0.179254,0.5568855,-9.890306,2
41328046,5183,2.53,-2.87,-2.26,-1.03,-0.44,7.82,9.18,0.001810179,0.09122808,0.04929887,-0.2630882,0.6097924,-9.950662,2
41446164,5178,2.44,-3.05,-2.18,-1.02,-0.66,7.82,9.36,0.03407177,-0.004596551,0.03929179,-0.3033927,0.5084895,-9.755125,2
41552807,5289,2.34,-3.25,-1.98,-1.07,-0.87,7.82,9.35,0.08268428,-0.1141302,-0.006122158,-0.0725695299999999,0.4841368,-9.640825,2
41663215,5132,2.56,-3.39,-2.16,-0.99,-1.2,7.82,9.15,0.004675923,-0.09819999,-0.03390608,-0.3322478,0.6910221,-10.1897,2
41770713,5181,2.43,-3.52,-2.72,-0.94,-1.02,7.81,8.67,-0.11251,0.08600438,-0.09047406,-0.2212194,0.6097904,-9.842683,2
41869728,5274,2.35,-3.57,-2.97,-0.93,-0.9,7.81,8.09,-0.04429826,0.0701311,-0.09338549,-0.3020787,0.5980486,-9.674073,2
41990637,5330,2.58,-3.54,-3.25,-0.99,-0.65,7.82,7.37,-0.1432355,0.06703939,-0.08380585,-0.363205,0.695785,-10.12445,2
42088829,5345,2.78,-3.43,-3.28,-1.13,-0.77,7.83,6.93,-0.00200226,-0.03812324,-0.09604727,-0.1892464,0.6241025,-10.05879,2
42202064,5391,2.58,-3.27,-3.21,-1.28,-1.16,7.83,6.49,0.03580904,-0.02928026,-0.05536234,-0.338122,0.7234262,-9.732675,2
42309289,5308,2.6,-3.17,-3.07,-1.43,-1.47,7.84,6.02,-0.077665,0.007423219,-0.06051186,-0.4752482,0.4896372,-9.419183,2
42418461,5517,2.84,-3.01,-3.18,-1.55,-1.42,7.85,5.73,-0.01613538,0.007059348,-0.004795797,-0.3967948,0.5910823,-9.849771,2
42527202,5385,2.48,-2.97,-3.11,-1.68,-1.02,7.86,5.56,0.01411372,0.1002706,-0.0150883,0.01580376,0.7309415,-9.680197,2
42629749,5393,2.92,-2.94,-3.16,-1.69,-1.3,7.86,5.48,-0.01047376,0.03995407,0.01400722,-0.3295393,0.8396291,-9.632985,2
42739485,5565,2.8,-3.05,-3.12,-1.81,-1.33,7.86,5.52,-0.07534714,0.09390039,0.03025909,-0.4124198,0.6604821,-9.784134,2
42856968,5453,2.77,-3.14,-3.14,-2.06,-1.08,7.88,5.73,0.03529147,-0.07336676,0.04522911,-0.2530269,0.7484055,-9.600134,2
42958068,5586,2.63,-3.22,-3.15,-2.33,-1.05,7.89,6.07,0.03699134,0.0139639,0.05577864,-0.4340005,0.6200569,-9.870113,2
43065387,5627,2.7,-3.26,-3.21,-2.73,-1.29,7.91,6.43,-0.01924138,-0.08036792,0.04426352,-0.3456459,0.662299,-10.22209,2
43176955,5612,2.57,-3.31,-3.05,-3.06,-1.9,7.93,6.91,0.1067393,-0.1694291,0.07741736,-0.4041612,0.957432,-9.94362,2
43284566,5454,2.59,-3.49,-2.97,-3.35,-2.43,7.95,7.47,0.05275245,-0.09596405,0.08959651,-0.382935,0.7614424,-9.599844,2
43397066,5355,2.42,-3.69,-2.94,-3.44,-2.76,7.96,7.95,0.0232932,-0.09163889,0.07644858,-0.1912426,0.8482623,-9.82127,2
43504550,5285,2.66,-3.94,-3.1,-3.28,-2.85,7.94,8.35,-0.0964663999999999,-0.03145104,0.07597312,-0.4155894,0.629959,-9.67567,2
43623277,5339,2.36,-4.2,-3.19,-3.13,-2.48,7.93,8.84,0.08996592,0.02741853,0.09087048,0.0916087399999999,0.8947964,-9.797878,2
43729794,5318,2.45,-4.45,-3.27,-2.73,-2.59,7.9,9.33,0.03954963,-0.07440127,0.04095085,-0.4815384,0.7381995,-9.50217,2
43832157,5381,2.54,-4.5,-3.58,-2.53,-2.08,7.89,9.84,0.003743802,0.0284709,0.09463915,-0.06181661,0.8181278,-9.555614,2
43939233,5314,2.58,-4.59,-3.35,-2.02,-2.09,7.85,10.58,0.0727938999999999,-0.03242921,0.148055,-0.2814205,0.7758226,-9.847131,2
44053146,5323,2.25,-4.59,-3.12,-1.58,-1.52,7.81,11.52,-0.014074,0.1623862,0.1886408,-0.1635184,0.6716912,-10.1109,2
44163954,5241,2.04,-4.6,-3.19,-1.26,-0.6,7.79,12.58,-0.09740134,0.2035931,0.1906641,0.048046,0.5497874,-9.569242,2
44273986,5020,2.08,-4.6,-3.48,-0.93,-0.09,7.76,13.77,-0.1268862,0.1658803,0.2243232,0.06682469,0.7066559,-10.1337,2
44391044,4920,2.58,-4.64,-3.61,-0.35,-0.7,7.71,14.64,-0.1088704,0.01122046,0.05276254,0.1260256,0.7047617,-9.512728,2
44493022,4966,2.62,-4.58,-4.17,0.11,-1.02,7.68,14.19,-0.179531,-0.03663751,-0.161454,-0.1055502,0.7852303,-9.558043,2
44597515,4724,2.8,-4.51,-4.59,0.56,-1.01,7.64,12.88,-0.01456578,0.004117379,-0.2653559,0.1219662,1.176551,-9.303426,2
44700749,4678,3.34,-4.47,-4.43,1.01,-0.69,7.6,11.31,0.1322244,0.1222907,-0.251063,-0.1693591,0.8054302,-9.324637,2
44813001,5123,2.91,-4.39,-4.19,1.42,0.08,7.57,9.75,-0.01472057,0.0328239,-0.1990893,-0.08435303,0.8670196,-9.418696,2
44925258,5276,2.98,-4.42,-3.06,1.88,0.38,7.54,8.64,0.1722731,-0.03361481,-0.1472753,0.121255,0.6897298,-9.871026,2
45034003,5528,2.63,-4.52,-2.44,2.21,0.59,7.51,7.77,0.03248902,0.1211353,-0.1141071,-0.2469816,1.075004,-9.818148,2
45134395,5398,2.59,-4.73,-2.57,2.31,0.64,7.5,7.04,-0.0518798,0.03134242,-0.1364771,-0.06814828,0.7058857,-9.35648,2
45246228,5336,2.74,-4.99,-3.56,2.31,0.7,7.5,6.16,-0.222402,0.1212341,-0.1118968,-0.2439385,0.8251983,-9.686872,2
45358908,5500,3.0,-5.14,-3.96,2.29,0.66,7.5,5.55,-0.04290762,-0.06718557,-0.1074877,-0.2148308,0.8690696,-9.8786,2
45467505,5509,3.16,-5.1,-4.36,2.23,0.74,7.51,4.87,-0.0845412,0.05719962,-0.0831509899999999,-0.109916,0.9027868,-9.624624,2
45577490,5677,3.01,-4.85,-4.72,2.16,1.11,7.52,4.36,-0.04912527,0.1948506,-0.0429412,0.01487078,0.7700536,-9.656215,2
45687294,5567,2.91,-4.52,-4.61,1.97,1.75,7.53,4.15,0.02430979,0.05599371,0.002423462,-0.2873813,0.8785168,-9.913344,2
45795013,5702,2.86,-4.14,-4.21,1.62,2.26,7.56,4.24,0.07862453,-0.009487012,0.03174755,-0.008379342,0.7693263,-9.850336,2
45904988,5562,2.59,-3.73,-4.17,1.18,1.99,7.59,4.77,-0.01912114,-0.09721463,0.1063738,-0.1512618,0.5595669,-9.937206,2
46005069,5626,2.86,-3.32,-4.28,0.69,1.48,7.62,5.54,0.04204187,-0.1410099,0.1238994,-0.02248611,0.6397275,-9.716436,2
46113733,5483,2.95,-2.81,-4.03,0.31,0.91,7.64,6.42,0.08892102,-0.1523204,0.1301716,-0.01014065,0.6528648,-9.912279,2
46223956,5465,2.77,-2.33,-3.38,0.07,0.41,7.65,7.17,0.1299364,-0.08847806,0.08992121,0.0771747899999999,0.597357,-9.889042,2
46332705,5388,2.62,-1.98,-2.5,-0.09,0.1,7.66,7.62,0.1324498,0.02390263,0.07739335,-0.1750649,0.6985172,-9.902478,2
46444396,5428,2.73,-1.77,-1.85,-0.19,-0.24,7.66,7.83,0.08943245,0.006166779,0.02423834,-0.07566673,0.4512041,-9.869143,2
46553053,5427,2.46,-1.63,-1.94,-0.26,-0.67,7.66,7.72,-0.0925090799999999,-0.07120245,-0.04611948,-0.1796106,0.5564862,-10.07701,2
46656071,5412,2.39,-1.47,-2.35,-0.3,-0.52,7.66,7.29,-0.145242,0.1597077,-0.08274845,-0.478098,0.4929625,-9.798456,2
46764745,5313,2.43,-1.1,-3.05,-0.77,0.32,7.67,6.41,-0.00168079,0.1681448,-0.1453871,-0.08254635,0.5691809,-9.458263,2
46873979,5302,2.84,-0.73,-3.02,-1.19,0.5,7.68,5.6,-0.03437277,-0.02645695,-0.09065416,-0.1948436,0.6421061,-9.877333,2
47087214,5362,2.88,0.03,-2.28,-2.02,-0.98,7.69,5.0,0.08288798,-0.2011666,-0.04394732,-0.3894974,0.7122991,-9.545541,2
47203535,5571,3.17,0.15,-1.84,-2.33,-1.64,7.68,4.85,0.07924423,-0.1220853,0.001216817,-0.4847801,0.5520288,-9.682586,2
47310465,5589,2.85,0.07,-1.23,-2.52,-1.68,7.68,5.16,0.1419948,-0.03129278,0.08985153,-0.05897608,0.6375318,-9.787812,2
47418019,5639,2.93,-0.19,-0.7,-2.41,-2.09,7.68,5.79,0.06039319,-0.01698031,0.1214014,-0.2739295,0.6181839,-10.11564,2
47527064,5594,2.5,-0.57,-0.54,-2.39,-2.18,7.68,6.55,-0.01765111,0.02531095,0.1304516,-0.2695873,0.6644927,-9.823785,2
47743372,5456,2.49,-1.27,-1.4,-2.36,-2.05,7.68,7.42,-0.1017222,-0.08195584,-0.003156525,-0.2097883,0.7584009,-9.855988,2
47854525,5431,2.63,-1.48,-2.15,-2.31,-2.14,7.68,7.32,-0.114835,-0.09137101,-0.0267323,-0.1104314,0.4920008,-9.958615,2
47969066,5311,2.54,-1.62,-2.28,-2.24,-2.17,7.68,7.06,0.01707916,0.05170104,-0.04121194,-0.4545949,0.6803826,-9.821078,2
48076063,5414,2.8,-1.65,-2.28,-2.23,-1.67,7.68,6.74,-0.0772927,0.1370369,-0.03178834,-0.1506298,0.6153712,-9.598645,2
48188489,5415,2.41,-1.57,-2.1,-2.24,-1.36,7.68,6.44,0.01625695,0.06395826,-0.0276362,-0.05969997,0.5744843,-9.642877,2
48292061,5423,2.53,-1.52,-1.97,-2.35,-1.1,7.68,6.25,0.04593875,0.03608353,-0.02092499,-0.1461147,0.3509311,-9.857663,2
48398917,5376,2.45,-1.33,-2.16,-2.61,-0.86,7.69,6.18,-0.02130394,0.04427901,0.005469814,-0.1661194,0.5345092,-10.00081,2
48509333,5285,2.59,-1.21,-2.35,-2.86,-1.37,7.7,6.22,-0.002363766,-0.1528953,-0.005172965,-0.3473469,0.5533861,-9.649708,2
48615213,5311,2.65,-1.19,-2.46,-3.15,-1.94,7.7,6.25,0.03898622,-0.1531126,-0.001680042,-0.3767997,0.7660269,-9.817766,2
48724565,5458,2.86,-1.39,-2.21,-3.39,-2.47,7.71,6.25,0.03508794,-0.1417135,0.0008421866,-0.5344531,0.7460403,-9.995473,2
48838994,5483,2.77,-1.73,-1.78,-3.41,-2.95,7.71,6.3,0.008605198,0.02905578,-0.00742956,-0.3094778,0.7648234,-9.872973,2
48941531,5471,2.63,-2.1,-1.62,-3.36,-3.12,7.71,6.22,0.03098374,-0.023563,-0.003709559,-0.5853691,0.6289468,-9.744164,2
49063215,5505,2.49,-2.51,-2.16,-3.25,-2.65,7.7,6.07,-0.0286616,-0.004194407,0.01183091,-0.3987128,0.67987,-9.412568,2
49168188,5429,2.54,-2.88,-2.65,-3.0,-2.66,7.69,6.04,-0.09949984,-0.1004337,-0.0025539,-0.1357269,0.7189845,-9.827927,2
49266782,5304,2.66,-3.18,-2.71,-2.8,-2.67,7.68,6.01,0.01861174,0.0874652,-0.002254093,-0.2395609,0.8640965,-9.321246,2
49380017,5435,3.06,-3.52,-2.24,-2.57,-2.94,7.66,5.92,0.04942387,-0.04169128,-0.002753062,-0.2836062,0.6476979,-9.915852,2
49487970,5603,2.85,-3.76,-2.52,-2.22,-3.25,7.64,5.89,-0.1036737,-0.01057118,0.005071091,-0.4473954,0.5830299,-9.716215,2
49590597,5456,2.47,-3.85,-3.46,-2.01,-2.9,7.63,5.71,-0.2467768,0.1664458,-0.02444367,-0.6584684,0.486915,-9.734507,2
49696465,5441,2.67,-3.84,-4.21,-1.9,-2.19,7.62,5.2,-0.107145,0.05614685,-0.09696702,-0.5283744,0.4841245,-9.63423,2
49814152,5411,2.58,-3.46,-4.85,-2.07,-1.3,7.63,4.47,-0.09321346,0.04161246,-0.07554274,-0.546024,0.6024649,-9.688044,2
49915767,5387,2.9,-2.99,-4.95,-2.35,-1.15,7.65,4.09,0.0899795699999999,0.05148914,-0.04762588,-0.2781742,0.5562892,-9.58425,2
50035253,5458,2.99,-2.34,-3.86,-1.84,-1.42,7.62,3.81,0.2578717,0.09765143,-0.03341872,-0.4314576,0.5228782,-9.786534,2
50142616,5602,2.98,-1.63,-2.85,0.12,-0.11,7.56,3.58,0.1154742,0.3799853,0.01112433,-0.5990335,0.4703666,-10.04327,2
50245789,5628,2.71,-1.12,-2.25,2.54,2.12,7.5,3.32,0.06147381,0.4671807,-0.009843737,-0.4026831,0.4080648,-9.693789,2
50364601,5625,2.71,-0.69,-2.18,4.59,4.57,7.47,3.0,-0.00683475,0.2485001,-0.03696639,-0.2445869,0.4742731,-9.836219,2
50466548,5580,2.9,-0.53,-1.98,5.56,5.9,7.46,2.79,0.06799086,0.07523324,0.0080754109999999,-0.1791864,0.4619719,-9.66297,2
50577650,5388,2.98,-0.52,-1.66,5.92,6.21,7.45,2.64,0.0850042399999999,-0.04983264,-0.01418359,-0.2901027,0.5028304,-9.915704,2
50676151,5630,2.93,-0.66,-1.29,5.82,6.09,7.45,2.6,0.04954762,-0.04033776,0.01144521,-0.1336847,0.5751213,-9.679798,2
50796959,5775,2.79,-0.88,-1.26,5.69,5.62,7.46,2.68,-0.09545644,-0.1173381,0.05776488,-0.4604298,0.5440697,-9.783477,2
50893863,5585,3.06,-1.05,-1.72,5.77,5.5,7.45,3.16,-0.1253748,0.02504198,0.1400034,-0.2655048,0.6868795,-9.996226,2
51008926,5624,3.07,-1.29,-1.66,6.16,5.1,7.45,4.18,0.05755486,-0.1277262,0.1897754,0.04258489,0.6307968,-9.704181,2
51115720,5544,2.97,-1.64,-1.41,6.66,4.55,7.43,5.21,0.0003844226,-0.003803151,0.1663176,-0.04997618,0.5678471,-9.930482,2
51224638,5706,2.67,-2.04,-1.29,7.1,4.52,7.42,6.11,-0.01475356,0.03507999,0.1521953,-0.05124049,0.5520491,-9.708235,2
51336205,5558,2.78,-2.45,-1.57,7.62,5.2,7.4,6.88,-0.0254667,0.09504688,0.1180495,-0.2278951,0.5848938,-9.880507,2
51458912,5595,2.52,-2.83,-1.68,7.92,5.86,7.38,7.67,0.06657064,0.01108441,0.1057113,-0.02119601,0.4761827,-9.692391,2
51559739,5394,2.69,-3.08,-2.08,8.06,6.12,7.38,8.28,-0.04147927,0.121017,0.1203958,0.04557652,0.7110525,-10.00044,2
51783321,5347,2.74,-3.7,-2.12,7.61,5.58,7.4,9.41,0.01431503,-0.08810902,0.07164425,0.01976042,0.5934514,-10.08001,2
51886322,5440,3.02,-3.84,-2.45,7.3,5.26,7.42,9.68,-0.09016751,-0.1026187,0.02093553,0.2183153,0.4001755,-9.959217,2
51987202,5426,2.08,-3.73,-3.28,6.53,4.77,7.48,9.84,-0.1449846,-0.06101036,0.02565025,0.3862084,0.6803661,-9.820461,2
52096230,5361,3.07,-3.56,-3.51,3.78,2.09,7.65,9.71,0.001562125,-0.5312279,-0.08205237,0.1581147,0.4624527,-10.11736,2
52208010,5458,2.73,-3.27,-3.45,1.88,-1.18,7.77,9.45,-0.03872874,-0.3253669,-0.0918824,-0.1156922,0.4879549,-10.07707,2
52315395,5539,3.06,-2.84,-3.18,0.95,-2.74,7.82,9.02,0.01569459,-0.09468037,-0.08771268,-0.2118004,0.4113975,-10.25818,2
52427184,5507,3.01,-2.52,-2.69,0.88,-2.64,7.82,8.35,0.06402808,0.05845216,-0.09646238,-0.03414714,0.4443484,-9.960495,2
52536293,5592,3.09,-2.43,-2.14,1.37,-1.39,7.8,7.69,0.1128162,0.2531424,-0.06448461,0.1754685,0.5967888,-9.699195,2
52647068,5693,2.89,-2.47,-1.6,2.37,0.15,7.76,7.2,-0.006665574,0.3441018,-0.03368404,0.03985717,0.5541265,-10.14226,2
52757785,5613,2.78,-2.58,-1.52,2.97,1.45,7.73,7.07,-0.07418216,0.1822245,0.0009799712999999,0.2117392,0.6399536,-9.811446,2
52860493,5592,2.83,-2.76,-1.76,2.35,1.57,7.76,7.22,-0.08676507,0.002400588,0.04033348,0.3693915,0.7058889,-9.534131,2
53082632,5421,2.6,-3.13,-2.25,1.15,-0.67,7.82,8.12,-0.00611385,-0.1008728,0.07674721,0.0702710899999999,0.6112677,-9.574287,2
53189760,5577,2.58,-3.17,-2.26,0.96,-0.67,7.83,8.59,-0.04593648,0.1190563,0.08863273,0.1145377,0.6923184,-9.980989,2
53401749,5427,2.62,-2.94,-2.48,1.08,0.01,7.83,9.42,0.01747226,-0.0332578,0.07889578,0.1791747,0.5393716,-9.655313,2
53625252,5399,2.52,-2.72,-2.64,1.18,0.25,7.82,10.28,-0.04829158,0.02139273,0.0645951699999999,0.2387472,0.5357995,-9.929747,2
53737014,5271,2.77,-2.45,-2.69,1.13,0.27,7.82,10.55,-0.02878491,0.0512455,0.05858288,0.1711294,0.6918467,-9.79419,2
53847039,5270,2.42,-2.3,-2.54,0.98,0.39,7.83,10.64,-0.04262732,0.008825135,0.03186158,0.2482802,0.6033421,-9.670731,2
53955257,5255,2.21,-2.2,-2.25,-0.15,-0.13,7.87,10.52,0.1356999,-0.2758235,-0.0106652,0.3996036,0.5056657,-9.302013,2
54069717,5208,2.37,-2.1,-2.41,-2.53,-2.39,7.96,10.29,0.05942738,-0.3805163,-0.05753167,0.3584208,0.6352251,-9.765516,2
54183554,5327,2.94,-2.11,-2.52,-5.02,-5.83,8.06,9.98,-0.0868293,-0.4293426,-0.05827489,-0.02394479,0.5817104,-9.857521,2
54293547,5458,2.83,-2.0,-2.44,-5.77,-7.33,8.08,9.58,0.02182592,0.001714171,-0.0671371999999999,0.0460753,0.5603378,-9.738371,2
54404364,5483,2.68,-1.87,-2.11,-5.35,-6.7,8.07,9.03,0.05188765,0.2591229,-0.07383481,0.0783930199999999,0.51117,-9.716564,2
54514054,5458,2.67,-1.73,-1.79,-4.41,-5.01,8.04,8.51,0.01284833,0.2392126,-0.06766727,-0.0535401,0.5512895,-10.20302,2
54627498,5488,2.8,-1.69,-1.44,-3.57,-3.21,8.01,8.21,-0.0005058371,0.2575675,-0.0176344,0.1139904,0.3481335,-9.926165,2
54729225,5525,2.65,-1.64,-1.55,-3.1,-2.26,8.0,8.04,-0.02000045,0.05144305,-0.03704468,0.02010111,0.5707026,-10.01501,2
54836516,5453,2.62,-1.67,-1.83,-2.79,-1.67,7.99,7.95,-0.06089619,0.1467484,-0.004874621,0.141038,0.5131813,-9.703385,2
54946257,5396,2.53,-1.63,-2.12,-2.6,-1.5,7.99,7.91,-0.01367912,-0.02952954,-0.01075393,-0.009538958,0.466922,-9.938908,2
55050492,5312,2.65,-1.58,-2.01,-2.51,-1.36,7.98,7.94,0.1249275,-0.01456968,0.01929115,0.04602786,0.5000336,-9.626998,2
55158763,5216,2.39,-1.49,-2.17,-2.46,-1.05,7.98,8.04,-0.071436,0.1383241,0.02670639,0.04788253,0.5701612,-9.635375,2
55381388,5401,2.6,-1.27,-1.71,-2.41,-1.21,7.98,7.78,-0.0803580099999999,0.005531861,-0.05009047,-0.1913053,0.5270164,-10.1433,2
55488172,5438,2.9,-1.22,-1.53,-2.3,-1.24,7.98,7.47,0.08456255,0.008792504,-0.0591216,-0.2300501,0.4365912,-9.761962,2
55600193,5386,2.55,-1.2,-1.5,-2.2,-1.23,7.98,7.13,0.02763561,-0.04074983,-0.04015138,0.1355505,0.4149819,-9.943533,2
55698633,5401,2.71,-1.74,-1.96,-1.68,-0.77,7.96,6.87,-0.148205,0.10819,-0.03424503,-0.3034863,0.3618967,-10.16807,2
55811206,5484,2.45,-3.38,-3.43,-1.26,0.24,7.95,6.61,-0.3457825,0.156038,-0.04884693,-0.03925689,0.4278042,-10.07413,2
55918244,5469,2.78,-5.43,-5.7,-1.1,0.73,7.93,6.36,-0.452178,0.1101978,-0.02406435,0.1390156,0.5079671,-9.956674,2
56029735,5399,2.49,-7.62,-8.36,-1.21,0.4,7.95,6.17,-0.3521955,-0.03604023,-0.03453447,-0.2530124,0.7595113,-9.572106,2
56139252,5390,2.53,-8.87,-10.22,-1.57,0.13,8.0,6.14,-0.2305987,-0.07741656,0.01418235,-0.1535275,0.7719213,-9.844605,2
56246548,5457,2.81,-9.74,-10.93,-1.9,-0.24,8.06,6.34,0.04294352,-0.110536,0.0385159,-0.04654256,0.6329368,-9.479077,2
56357258,5450,2.64,-10.15,-10.65,-2.18,-0.47,8.1,6.73,0.1513923,-0.0510799,0.07169291,-0.02970432,0.5931281,-9.672067,2
56571936,5511,2.62,-10.23,-9.35,-2.71,-0.94,8.2,8.0,0.1713488,-0.1866635,0.1140945,-0.1415594,0.5137665,-9.624002,2
56678449,5287,2.57,-10.37,-9.17,-3.05,-1.6,8.26,8.83,-0.0093492019999999,-0.1626086,0.1414187,-0.1345607,0.6896587,-9.78733,2
56790654,5401,2.35,-10.85,-9.41,-3.4,-1.98,8.33,9.75,-0.1455903,-0.09473278,0.121578,-0.2836992,0.926392,-10.04183,2
56894514,5244,2.31,-11.25,-9.39,-3.66,-1.97,8.38,10.49,0.06221251,0.07297829,0.1130462,-0.1974369,0.6306914,-10.0023,2
57009896,5260,2.66,-11.79,-9.21,-3.76,-2.3,8.4,11.24,0.07709663,-0.004710283,0.1091641,-0.08084581,0.9269577,-10.47354,2
57119268,5152,2.35,-12.26,-9.29,-3.73,-2.67,8.39,11.87,0.2119571,-0.1076219,0.06433126,0.04255531,1.009001,-9.731,2
57217291,5098,3.08,-12.8,-9.87,-3.54,-3.08,8.35,12.34,0.1420411,-0.009220195,0.0634372,-0.120858,1.280494,-9.616701,2
57329473,5081,2.94,-13.43,-10.49,-3.07,-3.03,8.24,12.64,-0.3586751,0.194023,0.01060912,-0.3100066,0.8521515,-9.792602,2
57437773,5302,3.19,-13.76,-10.81,-2.56,-2.53,8.12,12.58,-0.2996518,0.1317039,0.0360129,-0.2289269,1.014462,-9.631681,2
57549302,5033,2.97,-14.07,-11.13,-2.24,-2.02,8.04,12.31,0.3116437,-0.07164568,-0.02936026,-0.3025599,0.8812708,-9.550608,2
57656244,5169,3.49,-14.28,-11.57,-1.95,-1.51,7.96,11.84,-0.3520357,0.09806051,-0.08707011,-0.2010951,0.8607662,-10.04736,2
57763786,5137,3.33,-14.33,-11.91,-1.82,-0.88,7.93,11.26,0.2831584,0.006766414,-0.1252125,0.003132117,1.144517,-9.57095,2
57868932,5101,2.57,-14.31,-12.39,-1.72,-0.38,7.9,10.7,0.02879569,0.1404178,-0.06859443,-0.1486477,1.259023,-9.814813,2
57981074,5323,3.01,-14.19,-12.31,-1.55,-0.57,7.86,10.33,-0.01425758,-0.01005468,-0.06318451,-0.1589509,0.9218368,-9.877396,2
58087697,5412,2.57,-13.96,-12.1,-1.4,-0.6,7.82,9.92,0.01926532,-0.09585761,-0.0738416499999999,-0.1458956,1.185417,-10.12638,2
58191597,5388,2.73,-13.81,-11.97,-1.17,-0.83,7.77,9.47,-0.04298811,-0.05628064,-0.1096261,-0.2259404,1.077153,-10.21039,2
58304720,5464,2.81,-13.33,-12.0,-0.85,-0.74,7.69,9.0,0.04556821,-0.03868883,-0.06113904,-0.06617054,1.287673,-9.619193,2
58411757,5567,2.56,-12.9,-11.91,-0.53,-0.31,7.61,8.69,-0.03665281,0.1247921,-0.002069377,0.05651763,1.208596,-10.04701,2
58519809,5470,2.81,-12.44,-11.49,-0.25,-0.35,7.55,8.59,0.0900088899999999,-0.05559956,-0.04375976,-0.2575127,1.116632,-9.608678,2
58635537,5455,2.51,-11.92,-11.48,-0.2,0.01,7.54,8.21,-0.04985794,0.05719985,-0.07040173,-0.5736545,0.9119512,-9.441177,2
58740552,5449,2.91,-11.56,-11.43,-0.45,0.38,7.59,7.74,-0.01229166,0.1146508,-0.0403808,-0.2977085,1.234553,-9.704327,2
58848753,5549,2.77,-11.21,-10.67,-0.91,0.54,7.68,7.25,0.1762263,-0.04033693,-0.09082873,-0.2712717,1.256173,-9.803631,2
59068076,5472,2.53,-11.23,-9.85,-1.62,-0.54,7.82,6.72,-0.05754343,-0.06337216,-0.001516305,-0.2015772,1.286228,-9.28821,2
59182466,5498,2.7,-11.65,-10.54,-1.97,-0.92,7.9,6.49,-0.1108796,0.03068296,-0.01009818,-0.132551,1.649553,-9.959122,2
59289612,5492,3.03,-11.85,-10.94,-2.1,-1.47,7.92,6.15,-0.07907399,-0.06995766,-0.1228251,-0.4738176,1.592156,-9.741875,2
59391830,5548,2.66,-12.0,-11.31,-2.17,-1.63,7.94,5.84,-0.1560099,-0.03462566,-0.0867443299999999,-0.3380551,1.61982,-9.3726,2
59506768,5439,3.18,-12.16,-11.76,-2.05,-1.45,7.91,5.62,0.01493304,0.02643785,-0.0132822,-0.2383604,1.767555,-9.656738,2
59607619,5575,2.87,-12.26,-11.74,-1.87,-1.39,7.87,5.56,-0.05380083,0.05591036,0.004209512,-0.3461243,1.699074,-9.510056,2
59714592,5698,3.1,-12.25,-11.31,-1.77,-1.32,7.85,5.6,0.08461493,-0.0452655,0.003414571,-0.5154938,1.632428,-10.43232,2
59825157,5653,2.68,-12.29,-11.22,-1.77,-1.3,7.85,5.81,-0.001097543,0.01218764,0.08881411,-0.3055806,1.809713,-9.885793,2
59935615,5441,2.61,-12.43,-11.67,-1.99,-1.32,7.9,6.02,-0.06602149,-0.05103446,0.04901254,-0.4674215,1.658464,-9.375292,2
