TimeUS,RPM,Curr,DesRoll,Roll,DesPitch,Pitch,DesYaw,Yaw,GyrX,GyrY,GyrZ,AccX,AccY,AccZ,Guasto
0,4475,3.56,0.05,0.74,0.04,-0.55,17.98,18.01,0.0001546645,-0.09686612,0.01820787,0.03494136,0.05816486,-9.828582,1
114406,5169,3.84,0.05,0.84,0.31,-0.78,17.98,18.29,0.07952176,-0.001879054,0.07476596,-0.3602054,0.2300436,-10.50929,1
217636,5646,4.39,0.01,0.61,0.77,-1.05,17.98,19.03,-0.006198775,0.02853112,0.1521246,0.1187965,0.304341,-11.75539,1
332002,6083,3.73,-0.12,0.64,1.67,-0.54,17.98,20.16,0.01446798,0.06970614,0.1841355,0.1206338,0.3665534,-12.67395,1
431601,6212,3.63,-0.41,0.91,2.55,0.05,17.98,21.1,0.03071725,0.1824442,0.1643341,0.2520441,0.1274489,-11.92453,1
539006,6112,3.55,-0.8,0.82,3.44,0.98,17.97,22.06,-0.1623975,0.1723411,0.1630809,0.3356301,0.120647,-12.14541,1
663833,6004,3.46,-1.4,0.39,4.29,2.22,17.8,22.9,0.081438,0.2533841,0.1059268,0.4270735,0.815331,-11.95457,1
773993,5876,2.81,-2.26,0.64,4.48,3.55,16.19,23.37,-0.1036678,0.05148249,0.03408615,0.7331758,-0.10411,-11.13177,1
990028,5703,2.63,-3.35,-0.98,4.67,3.4,12.31,22.45,-0.1517441,0.01542091,-0.1870946,0.5736694,0.4494283,-10.71905,1
1095850,5480,2.77,-3.69,-1.48,4.95,3.44,10.41,21.11,-0.0370392,0.07459842,-0.2489632,0.485015,0.3373485,-10.62848,1
1208674,5422,2.57,-3.85,-2.16,5.25,3.98,8.35,19.39,-0.04533751,0.07323328,-0.3260461,0.5770094,0.4323576,-10.50962,1
1315571,5373,3.13,-4.01,-2.49,5.52,4.46,7.08,17.26,-0.02352276,0.1001538,-0.3564429,0.4674374,0.744929,-10.24062,1
1432328,5437,3.38,-4.27,-1.84,5.41,5.2,7.09,14.84,0.0565789,0.161239,-0.3260601,0.4525413,0.4028372,-10.55106,1
1540844,5543,2.94,-4.45,-1.95,5.06,5.6,7.12,12.94,-0.01552489,0.08189873,-0.2888732,0.3771591,0.6290948,-10.02126,1
1646382,5693,3.11,-4.67,-1.94,4.43,5.73,7.17,11.45,0.02875195,0.02113734,-0.2138418,0.2099712,0.4280051,-9.809354,1
1752958,5598,3.3,-5.08,-2.02,3.67,5.55,7.23,10.54,0.01522547,-0.0926025199999999,-0.109266,0.2427321,0.6034811,-9.993467,1
1863042,5564,3.08,-6.05,-2.73,2.85,5.06,7.31,10.22,-0.2678136,-0.1036731,-0.02111568,0.06319042,0.2173691,-9.568126,1
1979371,5725,3.22,-7.61,-5.68,1.92,4.63,7.42,10.39,-0.4420886,-0.1156809,0.01493563,0.1032971,0.4482768,-9.47809,1
2077387,5587,3.56,-8.55,-7.43,1.2,4.12,7.53,10.64,-0.25761,-0.1376851,0.03434465,0.00877119,0.552449,-9.789521,1
2195807,5701,3.39,-8.71,-8.0,0.3,2.97,7.67,11.06,0.0005944755,-0.1998778,0.05447174,0.169024,0.5289895,-10.05157,1
2294790,5873,3.17,-8.0,-7.84,-0.32,2.02,7.76,11.31,0.0152819,-0.1214934,0.06954546,-0.03758411,0.5479831,-10.09735,1
2405477,5774,3.21,-7.06,-6.85,-0.87,1.39,7.84,11.92,0.2792014,-0.1003734,0.07933838,0.1736297,0.7215565,-9.756246,1
2515629,5811,2.77,-6.37,-5.0,-1.38,0.66,7.9,12.86,0.2258394,-0.1652439,0.1133638,0.190496,0.5591813,-9.737206,1
2623463,5631,2.95,-5.66,-3.53,-1.67,-0.52,7.93,13.84,0.2435988,-0.289643,0.0973888,0.1407322,0.6990092,-10.04259,1
2721080,5667,1.97,-5.33,-2.03,-1.87,-1.24,7.95,14.51,0.189429,-0.09359863,0.05930514,0.3411452,0.4868479,-9.568831,1
2841857,5383,1.75,-5.0,-2.09,-1.91,-1.5,7.95,14.69,-0.09376368,0.008323146,0.0007631124,0.09339355,0.8281961,-8.797496,1
2949987,4974,2.54,-5.27,-2.53,-1.68,-1.05,7.93,14.36,-0.09358858,0.1278799,-0.01562355,-0.0163528,0.7432539,-9.236639,1
3052695,5018,2.35,-5.31,-3.07,-1.44,-0.72,7.91,13.59,-0.05368927,0.02095409,-0.01906261,0.3540069,0.7522845,-8.621012,1
3161137,5140,2.65,-5.0,-3.37,-1.1,-0.51,7.88,12.83,0.06052513,0.04016215,-0.004249273,0.3299664,0.9312042,-8.733024,1
3275326,5087,2.41,-4.72,-3.18,-1.01,-0.36,7.87,13.21,0.06889442,0.00615988,0.006825008,0.5737457,0.8318142,-9.087267,1
3378071,5124,2.83,-4.79,-2.74,-1.14,-0.85,7.88,13.83,0.05440947,-0.09319244,0.01750769,0.2089515,0.8010058,-9.301381,1
3485573,5266,2.02,-5.44,-2.78,-1.21,-1.39,7.88,14.71,-0.216308,-0.02962566,-0.02792607,0.1135653,0.9006873,-9.129138,1
3589175,5038,1.74,-6.25,-3.49,-0.98,-1.58,7.86,14.72,-0.170888,0.04583194,-0.05406811,0.3764841,0.7767881,-9.160899,1
3702986,4901,2.37,-6.51,-4.93,0.57,-1.27,7.68,12.62,-0.2599247,0.3401116,0.01229385,0.3103416,1.027883,-8.627405,1
3805184,4969,2.85,-5.89,-5.55,2.42,0.63,7.48,10.31,-0.01647589,0.3689757,-0.01772533,-0.007028251,1.451348,-8.726675,1
3927012,4934,2.62,-4.83,-3.81,3.74,3.95,7.35,8.64,0.2897743,0.4442251,0.01616566,0.1667738,1.025415,-8.859914,1
4028965,5018,2.79,-4.38,-2.14,4.07,5.18,7.33,8.87,0.275906,0.1760988,0.05189347,0.3868629,0.9075256,-9.106786,1
4136191,5256,3.14,-4.48,-2.23,3.46,5.35,7.37,10.1,-0.11884,-0.06883486,0.1384432,0.4163223,0.9693305,-9.113864,1
4241707,5245,3.33,-5.21,-2.43,3.06,3.65,7.41,11.54,-0.1411669,-0.2255781,0.1697185,0.2712432,1.018059,-9.541409,1
4360974,5647,2.85,-5.97,-3.57,2.85,2.18,7.43,12.77,-0.2113448,-0.2028062,0.1433205,0.1339789,1.102385,-10.04185,1
4464369,5554,2.68,-6.6,-4.37,2.81,1.56,7.43,14.24,-0.08452936,-0.06059347,0.1393871,0.4209867,0.8068962,-10.37076,1
4578465,5507,2.46,-7.04,-5.1,2.89,1.14,7.42,15.01,-0.01734059,-0.01827464,-0.06371984,0.2180347,0.9888707,-10.27789,1
4677036,5413,2.71,-7.23,-5.36,3.1,1.53,7.39,14.31,-0.1347003,0.1303321,-0.1755022,0.5315419,0.6972538,-9.713697,1
4791405,5350,2.73,-7.2,-5.79,3.35,2.1,7.36,12.93,-0.2585149,0.1090109,-0.1678535,0.1863264,0.9429007,-9.554964,1
4899029,5281,2.85,-7.01,-5.38,3.51,2.3,7.34,12.3,0.1461176,-0.03381743,-0.09873141,0.4812012,0.9121799,-9.812792,1
5007842,5424,2.48,-6.73,-4.87,3.75,2.05,7.31,11.84,-0.1651426,0.0627524099999999,-0.0918805,0.3176352,0.586319,-9.623159,1
5116468,5345,2.21,-6.27,-5.36,3.62,2.41,7.33,11.6,-0.1513593,0.08232085,-0.08232454,0.4645379,0.8074781,-8.685557,1
5230224,5107,2.62,-6.09,-5.14,3.65,2.62,7.33,11.2,0.04924922,0.06401203,-0.06101332,0.3850327,0.9718878,-9.437714,1
5339183,5218,2.71,-6.16,-3.96,4.03,2.41,7.29,10.38,0.05679916,0.08072661,-0.09309892,0.06549267,0.5912926,-9.482327,1
5442213,5324,2.37,-6.35,-3.26,4.17,2.6,7.27,9.55,0.1752552,0.1398411,-0.0867847,0.2236397,0.6801063,-8.204529,1
5553839,5258,2.66,-7.81,-4.29,4.05,3.5,7.28,8.97,-0.2871763,0.1778826,-0.03705456,0.1908739,0.8070754,-9.106107,1
5657353,5288,2.55,-10.59,-6.74,4.05,4.66,7.28,8.85,-0.6366511,0.1638361,0.007958524,-0.2787414,0.7448796,-9.413348,1
5774777,5343,2.25,-12.86,-10.8,4.78,6.64,7.13,8.75,-0.5344303,0.3186233,0.03287396,0.001897574,1.752444,-9.165337,1
5877564,5200,2.17,-13.8,-12.44,4.55,7.44,7.19,8.6,-0.2280767,0.07642981,-0.01824136,-0.2648855,1.336948,-9.912658,1
5990833,5220,3.09,-13.97,-14.05,3.84,7.32,7.36,8.75,-0.09828927,-0.1652188,0.02902673,0.33086,1.767146,-9.855185,1
6095065,5433,3.16,-13.75,-13.97,2.99,6.07,7.57,9.14,0.1095165,-0.3004793,0.05471474,0.1320182,1.622255,-10.3423,1
6206949,5554,2.9,-13.0,-12.79,1.94,4.51,7.83,9.85,0.3214673,-0.2604444,0.1130742,0.195093,1.560645,-10.02491,1
6308789,5501,3.07,-12.34,-11.29,1.24,3.25,7.98,10.43,0.2530938,-0.2189485,0.09566679,-0.05926215,1.442035,-10.69601,1
6425047,5602,2.68,-11.72,-10.38,0.66,2.26,8.11,10.96,0.02615778,-0.105397,0.05702905,0.123195,1.417904,-10.19098,1
6531184,5607,2.65,-11.41,-10.34,0.27,2.14,8.19,11.28,0.07060283,-0.05251645,0.0891781299999999,0.154257,1.687211,-9.742481,1
6636620,5413,2.71,-11.35,-10.69,0.09,1.87,8.22,11.7,-0.09432194,-0.05617135,0.05243553,0.5657399,1.701923,-9.840904,1
6743216,5400,2.73,-11.35,-11.09,0.18,1.47,8.2,12.31,-0.07936603,-0.0216217,0.07790318,0.2942219,1.696064,-9.571429,1
6850163,5397,2.85,-11.27,-11.09,0.22,1.38,8.2,12.61,0.02938547,-0.04286245,0.01713233,0.2686785,1.427534,-10.13816,1
6969428,5362,2.56,-11.16,-10.87,0.14,1.48,8.21,12.5,-0.04084472,-0.0545128,-0.01280123,0.3188663,1.667909,-10.36118,1
7071882,5419,2.7,-10.96,-10.98,0.0,1.3,8.24,12.0,-0.0425199,-0.06637909,0.004563729,0.3661578,1.770905,-9.807931,1
7183989,5493,3.32,-10.78,-10.91,0.01,0.63,8.24,11.59,0.05707731,-0.002501686,-0.03329561,0.04335032,1.530154,-9.718827,1
7295542,5596,2.99,-10.34,-10.57,0.18,0.8,8.21,11.5,0.07465345,0.04465424,-0.004994316,0.2655602,1.640473,-9.825779,1
7395435,5416,2.75,-9.91,-9.79,0.38,1.21,8.17,11.49,0.1703917,0.05683178,0.01746239,0.4321135,1.795664,-10.18325,1
7511836,5533,2.65,-9.23,-8.92,0.74,1.69,8.11,11.91,0.0655928,0.09236687,0.07317293,0.2319632,1.749188,-10.08221,1
7610832,5439,2.8,-8.17,-8.06,1.21,1.79,8.04,12.22,0.238264,-0.02461297,0.05606569,0.6472399,1.70278,-9.383915,1
7730952,5377,2.88,-7.35,-6.34,1.89,1.7,7.95,12.25,0.1952156,-0.091921,0.02501196,0.2802331,1.565539,-10.50268,1
7839431,5459,2.71,-6.82,-4.96,2.42,1.59,7.88,12.18,0.09614444,-0.09848497,-0.0437679,0.2756525,0.9219411,-9.855175,1
7948065,5333,2.57,-6.36,-5.04,3.31,2.1,7.78,12.21,0.02622194,0.1277345,0.01840863,0.07121195,1.30241,-9.260758,1
8046595,5254,2.2,-6.06,-5.7,4.03,3.39,7.7,12.06,-0.03453951,0.2785409,-0.05558938,0.4399973,0.758194,-8.919373,1
8162612,5174,2.61,-5.5,-6.7,4.71,5.0,7.63,11.63,-0.1259,0.3547981,-0.05055255,0.1556972,1.325063,-8.841773,1
8268976,5245,2.8,-4.86,-6.03,4.99,6.09,7.6,11.29,0.1810747,0.0853489,-0.0363787,0.3176358,1.344324,-9.336052,1
8379342,5414,2.87,-4.02,-5.26,4.85,6.48,7.61,11.04,0.1368382,-0.01921084,-0.0312135,0.0008978539,1.119848,-9.80295,1
8491438,5429,2.73,-3.4,-4.15,4.43,6.42,7.64,11.07,0.1448684,0.01534855,0.004434507,0.174124,1.078605,-9.59048,1
8598392,5459,2.88,-2.96,-3.7,3.97,6.11,7.67,10.99,0.08690172,-0.1181244,0.004263627,0.3608882,1.183094,-9.301714,1
8719606,5527,3.4,-2.83,-3.06,3.76,4.84,7.68,11.06,0.114338,-0.2641166,0.02378155,0.3021705,1.157322,-9.901691,1
8818350,5650,2.83,-2.87,-2.64,3.58,4.17,7.69,11.04,0.06866017,-0.1014525,-0.01577792,0.2317003,1.05336,-9.909197,1
8936609,5483,2.86,-2.93,-2.57,3.45,3.9,7.69,10.73,0.02953355,0.04465175,-0.05162835,-0.08501403,1.093697,-10.01972,1
9147454,5469,2.6,-3.54,-2.67,3.07,3.84,7.71,10.23,-0.07797084,-0.01434308,0.02417352,0.1471379,1.010224,-9.549718,1
9379588,5393,2.83,-4.01,-3.79,2.84,2.75,7.73,11.44,-0.03682671,-0.186474,0.0691157399999999,0.1598359,0.9687357,-9.597968,1
9488563,5286,2.43,-3.96,-4.1,2.52,2.58,7.75,11.99,0.005841897,0.03199616,0.04110416,0.3242716,1.182003,-9.72127,1
9596087,5302,2.56,-3.95,-4.04,2.27,2.28,7.77,12.33,0.02766327,-0.02129532,0.01966089,0.4949741,0.993921,-9.605311,1
9693573,5354,2.61,-4.01,-3.72,1.97,2.21,7.79,12.53,-0.00971821,0.06185446,-0.003918063,0.01721368,1.185906,-9.699241,1
9807611,5262,2.56,-4.11,-3.75,1.83,2.03,7.8,12.66,0.01599047,-0.03263824,0.01405915,-0.0347798,1.129164,-9.61572,1
9918101,5324,2.8,-4.35,-3.83,1.78,1.7,7.8,12.85,-0.001460709,-0.1070799,0.02405465,0.216657,1.046329,-9.840483,1
10024004,5265,2.25,-4.42,-4.07,1.83,1.48,7.8,12.96,-0.2292703,0.02493756,0.0290145,0.5008686,1.054615,-9.753097,1
10235622,5148,2.72,-4.2,-4.49,2.34,1.23,7.76,12.59,0.0507317,-0.0186621,-0.01230348,0.1861599,1.070334,-10.01268,1
10341119,5425,2.49,-4.02,-4.17,2.66,1.45,7.74,12.57,0.02241734,0.0675613,-0.01186844,0.2758681,0.9422008,-9.79889,1
10455478,5292,2.41,-3.93,-3.91,2.49,1.92,7.75,12.51,-0.002148948,0.0987396,0.0006085384,0.802165,0.9930143,-9.314277,1
10568552,5156,3.01,-3.89,-3.9,1.76,1.0,7.8,12.4,0.0691715299999999,-0.1569884,-0.005687322,0.1721468,1.022243,-9.756263,1
10667450,5329,2.75,-4.11,-4.14,1.04,0.49,7.85,12.4,-0.1050539,-0.03830009,-0.05378268,0.2290082,0.9023425,-9.883629,1
10783007,5384,2.84,-4.08,-4.42,0.54,0.23,7.88,12.31,-0.03344843,-0.01564708,-0.02959341,0.1760238,1.128999,-9.829273,1
10891815,5364,2.5,-4.16,-4.29,-0.24,0.1,7.94,11.8,0.009181338,0.06719941,-0.06722914,0.559882,0.9032088,-9.655123,1
10996344,5284,2.62,-4.19,-4.39,-1.65,-0.39,8.04,11.42,0.04564414,-0.1421136,-0.06934086,0.1801551,0.9645401,-10.16326,1
11101420,5278,2.96,-4.37,-4.0,-3.26,-2.02,8.16,11.17,0.1300113,-0.3056982,-0.0801529899999999,0.1060726,1.19972,-10.41787,1
11208151,5427,2.58,-4.45,-4.08,-4.65,-3.44,8.27,10.95,-0.03164544,-0.1785321,-0.02246828,0.04698757,1.316244,-10.25367,1
11316177,5386,2.87,-4.62,-4.43,-5.69,-4.99,8.35,10.91,-0.06380806,-0.2658647,-0.03115652,0.16023,1.213497,-10.19822,1
11436398,5467,2.75,-4.81,-5.56,-6.16,-5.7,8.39,11.03,-0.09177134,0.03286391,0.015281,0.006934634,1.378469,-9.703931,1
11536020,5583,3.11,-5.0,-5.76,-6.37,-5.22,8.41,11.09,0.01231402,0.08067634,0.01937521,0.01842347,1.237108,-10.36224,1
11643230,5485,2.94,-4.92,-5.45,-6.35,-4.67,8.41,10.98,0.1004476,0.07701954,-0.04120524,-0.005480594,1.141339,-10.13068,1
11764363,5520,2.63,-4.73,-5.02,-6.33,-3.91,8.41,10.87,0.0527357,0.04901688,0.0314246,0.0782079,1.072895,-10.20811,1
11861463,5583,3.17,-4.65,-4.41,-5.99,-3.69,8.38,11.25,0.1148352,-0.06255005,0.1299235,0.4542409,0.9797667,-10.27366,1
11969338,5554,2.42,-4.51,-4.43,-5.19,-4.0,8.32,12.02,-0.04352894,0.009087748,0.1406312,0.1641022,1.013789,-9.735494,1
12081572,5496,2.49,-4.36,-4.62,-4.65,-3.89,8.27,12.51,0.008147282,0.05573966,0.1180942,0.1315952,1.081364,-9.746542,1
12191037,5268,2.54,-4.29,-4.36,-4.17,-3.64,8.24,12.88,0.05527259,0.07126143,0.04208491,0.3011053,1.043315,-10.3213,1
12299068,5209,2.31,-4.09,-4.5,-4.07,-3.58,8.23,12.93,-0.1012545,-0.0362836,0.01047534,0.1695076,0.9891437,-10.06286,1
12410191,5152,2.71,-3.96,-4.39,-4.11,-4.01,8.23,12.9,0.09726766,-0.03749904,-0.002976999,0.2563821,0.9826945,-10.2565,1
12519557,5287,2.21,-3.91,-4.3,-4.0,-3.66,8.23,12.75,-0.06602034,0.1803538,-0.0192813,-0.02114737,0.968196,-9.74606,1
12630249,5125,3.36,-4.02,-4.28,-3.08,-3.05,8.16,12.41,0.1123522,0.2103716,-0.06754509,-0.2044634,0.9557724,-9.606962,1
12737406,5396,2.8,-4.34,-4.23,-1.27,-1.41,8.03,11.92,0.02018957,0.3113299,-0.06795878,-0.04051333,0.9817282,-10.14977,1
12850746,5329,2.34,-4.54,-4.39,0.5,0.67,7.89,11.29,-0.175032,0.2542014,-0.04814402,0.2508743,0.9110365,-9.836024,1
12956466,5348,2.45,-4.38,-4.74,1.52,1.94,7.81,10.69,0.0888996799999999,0.1863862,-0.07079003,0.5275544,0.9124717,-9.091754,1
13068346,5168,2.4,-4.02,-4.77,1.68,2.58,7.8,10.22,0.06989817,-0.01617538,-0.03074651,0.4180857,0.9409763,-9.556344,1
13183613,5162,2.91,-3.62,-4.06,1.21,1.98,7.83,10.17,0.1002011,-0.09087066,0.01365124,0.3132665,0.7811613,-9.812413,1
13280350,5390,2.45,-3.36,-3.59,0.88,1.11,7.85,10.44,-0.0925164599999999,-0.1752909,-0.01676652,0.0188779,0.3367499,-9.509829,1
13391800,5260,2.23,-2.88,-4.29,0.95,0.55,7.84,10.45,-0.1004128,0.1655323,-0.05127928,-0.3209952,0.7637498,-8.848605,1
13502225,5150,2.48,-1.9,-4.09,0.79,1.89,7.85,9.91,0.1349223,0.2557504,-0.05373253,0.1624386,0.7565008,-9.038422,1
13609176,5099,2.82,-0.85,-2.6,0.82,2.85,7.85,9.29,0.359555,0.1500141,-0.06342915,0.07674161,0.6192662,-10.15969,1
13718192,5290,2.79,0.25,-0.83,0.71,2.68,7.85,8.74,0.2453389,-0.130269,-0.101643,-0.1174587,0.5770584,-10.2216,1
13937115,5373,2.62,1.21,0.71,0.36,1.06,7.85,7.89,-0.04902606,-0.1077833,-0.06991412,-0.02015391,0.5864028,-10.05904,1
14049952,5454,2.75,1.39,1.03,0.62,0.18,7.85,7.88,0.0754245,-0.1711345,0.0417605,0.1542471,0.8263655,-9.918461,1
14158190,5439,3.07,1.24,1.99,1.41,-0.58,7.87,8.12,0.1901347,-0.1563274,0.02491916,0.3467768,0.4846105,-9.699082,1
14268417,5588,2.41,1.21,1.94,2.45,-0.7,7.89,8.39,-0.02675189,0.1181812,0.03020363,0.258689,0.7057161,-9.539451,1
14376614,5424,2.39,1.14,1.66,3.16,0.16,7.91,8.66,-0.1726938,0.1638186,0.03016569,0.4969075,0.461246,-9.475471,1
14476955,5256,2.7,0.87,0.81,2.74,0.09,7.9,8.73,-0.0653571,-0.06807443,0.01835225,0.5839967,1.014513,-9.460446,1
14591616,5263,3.16,0.06,0.67,1.94,-0.68,7.89,8.57,0.01065192,-0.1530004,-0.0272215,0.2372648,0.6835658,-9.9529,1
14702487,5445,2.73,-0.69,0.37,1.43,-1.27,7.9,8.38,-0.06801694,-0.07957872,-0.04557035,0.4914657,0.6979544,-9.802201,1
14808829,5484,2.88,-1.27,-0.78,1.28,-1.52,7.9,8.12,-0.2061456,-0.01222962,-0.02941956,-0.1642259,0.7149671,-9.576807,1
14918429,5479,3.03,-1.9,-2.18,1.13,-1.0,7.9,7.85,-0.1126373,0.09714279,-0.02746964,0.178113,0.9833848,-9.628439,1
15031259,5594,2.79,-2.27,-2.66,0.72,0.24,7.92,7.76,-0.04345396,0.2194127,-0.002821541,-0.02678952,0.9581428,-10.04945,1
15130358,5451,2.64,-2.05,-2.9,0.02,1.09,7.95,7.63,-0.07833332,0.0880050099999999,-0.04182499,0.1642554,0.9596885,-10.44569,1
15246845,5233,3.2,-1.91,-2.77,-0.96,0.47,7.98,7.67,0.05911486,-0.1413325,0.0534296,-0.2452787,0.9838728,-10.2033,1
15357443,5503,2.63,-2.15,-2.42,-1.72,-0.01,8.01,8.12,0.00287683,-0.05136383,0.09210338,-0.008304686,0.6361939,-10.3485,1
15458073,5536,2.93,-2.51,-2.31,-2.16,-0.47,8.02,8.81,0.0004959089,-0.1237704,0.1420612,-0.01081094,0.8198864,-9.944742,1
15580612,5414,2.48,-3.61,-3.36,-2.64,-0.92,8.05,9.8,-0.2057166,-0.0574025,0.1677725,-0.1640373,0.8542967,-10.02877,1
15676960,5413,2.54,-4.37,-4.56,-3.18,-1.45,8.09,10.79,-0.1797579,-0.143526,0.1626196,0.3027773,0.8829878,-9.908598,1
15902110,5357,2.56,-4.73,-5.82,-4.21,-3.16,8.17,12.73,0.01598729,-0.08327605,0.1226908,-0.0392396,0.9685901,-10.49556,1
16006377,5356,2.42,-4.32,-5.6,-4.4,-3.87,8.19,13.34,-0.03789816,-0.1637792,0.02976235,-0.07618278,0.5320512,-10.04507,1
16121161,5089,2.24,-3.85,-5.63,-4.6,-3.75,8.2,13.36,0.1515808,0.06858118,-0.03625239,-0.04583777,0.7513914,-9.607161,1
16233765,5123,2.32,-3.62,-5.53,-4.74,-3.14,8.21,13.01,-0.05320878,0.18893,-0.07292742,0.02917735,0.7173585,-10.07113,1
16340328,5100,2.62,-3.76,-5.17,-4.87,-2.62,8.22,12.54,0.03014427,0.1326815,-0.0390311,-0.1401318,0.7137899,-9.951852,1
16449390,5277,2.33,-4.03,-5.29,-5.11,-2.18,8.24,12.0,-0.06176246,0.06995268,-0.06886356,0.02190603,0.8449373,-10.1874,1
16565844,5157,1.85,-4.31,-5.27,-5.56,-1.86,8.27,11.46,-0.02174119,0.06993362,-0.06780438,0.1281938,0.848758,-9.793855,1
16662485,5044,2.46,-4.46,-5.39,-5.76,-2.5,8.28,11.1,-0.02202316,-0.09852209,-0.06270865,-0.6229296,0.8373673,-9.708306,1
16785951,5207,2.93,-4.59,-5.35,-6.42,-3.65,8.34,10.44,-0.02835986,-0.111761,-0.1088936,-0.6312067,0.6762794,-10.08865,1
16890789,5263,2.32,-4.67,-5.23,-6.83,-3.97,8.37,9.83,0.01544462,-0.05667131,-0.1456009,-0.257253,0.694599,-9.740883,1
17111471,5202,2.62,-4.48,-5.72,-7.21,-4.65,8.4,8.54,-0.07581278,-0.1324721,-0.1254316,-0.2687277,0.7292327,-10.14129,1
17317560,5328,2.77,-4.03,-4.98,-7.26,-5.08,8.4,7.42,0.05287582,0.05096402,-0.05489754,-0.4919899,0.7455361,-9.712903,1
17441804,5359,2.77,-3.54,-4.57,-6.89,-5.21,8.38,7.06,0.05120317,-0.002117631,-0.02563103,-0.1525753,0.8432034,-9.484184,1
17549857,5524,2.93,-3.53,-4.4,-6.32,-5.07,8.34,6.98,0.02573749,0.08691648,0.0001027195,-0.4141924,0.6398594,-9.47632,1
17648985,5372,2.09,-3.68,-4.51,-4.6,-3.4,8.23,6.94,-0.005831545,0.4074779,0.02835602,-0.3395337,0.706844,-10.01882,1
17758319,5453,2.21,-3.07,-4.21,-3.2,-1.39,8.15,7.0,0.1526528,0.2433583,0.03668659,-0.2211101,0.9075245,-9.629794,1
17866001,5255,2.3,-2.56,-3.39,-2.35,-0.06,8.11,6.94,0.0995095399999999,0.1534849,0.0366688,-0.1591935,0.6908836,-10.02441,1
18089445,5209,2.26,-2.17,-2.42,-1.43,0.42,8.07,6.75,-0.0575611,0.02305296,-0.009260802,-0.2207881,0.7814283,-9.607382,1
18200362,5074,2.44,-2.23,-2.6,-0.89,0.65,8.05,6.82,-0.02009391,0.0877099499999999,0.01241192,-0.2451032,0.766693,-9.380602,1
18412955,5114,2.51,-2.78,-3.49,0.65,1.25,7.98,6.83,-0.03312983,0.01289905,-0.01845898,-0.3068773,0.567971,-9.384488,1
18523342,5131,2.57,-3.14,-3.67,1.26,1.81,7.95,6.81,-0.01680577,0.0641856299999999,0.006009892,-0.3218009,0.7769676,-9.703513,1
18642338,5322,2.76,-3.68,-3.58,2.16,2.2,7.9,6.87,0.0866129,0.0891331,0.03357951,-0.2608405,0.7232586,-9.898577,1
18742243,5406,2.87,-4.51,-3.74,3.12,2.76,7.83,7.18,-0.03634716,0.09409953,0.08891255,-0.07751457,0.7028766,-9.898664,1
18845354,5483,2.88,-5.5,-4.42,4.45,3.5,7.71,7.86,-0.1342093,0.1300708,0.1401553,0.01165102,0.8432686,-10.21393,1
18956102,5427,2.28,-6.73,-5.03,5.94,4.63,7.55,8.63,-0.09695243,0.2363533,0.1361122,-0.1654191,0.8215735,-10.07476,1
19067431,5381,2.44,-7.9,-6.01,6.99,6.36,7.42,9.31,-0.1348173,0.09703071,0.1167787,0.4444212,0.7867295,-9.981102,1
19288975,5236,1.67,-8.68,-7.06,7.4,7.01,7.36,11.04,-0.02583722,-0.1328275,0.1393767,0.2154007,1.068785,-10.1196,1
19504614,5088,2.64,-6.1,-4.33,3.62,2.37,7.84,12.04,0.152218,-0.3542016,0.03931034,-0.2872927,0.9219939,-10.24701,1
19611573,5201,2.39,-5.55,-3.52,2.49,0.9,7.96,11.96,0.01180769,-0.100086,0.02104797,-0.2826129,0.8594088,-10.22568,1
19719165,5254,2.17,-4.75,-3.19,2.06,0.67,8.0,11.72,0.02047077,0.03939624,-0.06682666,-0.3332356,1.103452,-9.691242,1
19830217,5190,2.61,-3.61,-2.76,1.75,1.45,8.02,11.18,0.1377553,0.1146406,-0.0880271,-0.2887998,0.8681843,-9.979308,1
19935749,5071,2.24,-2.76,-2.28,1.23,2.19,8.05,10.38,0.08694338,0.1784454,-0.169245,-0.5248254,0.9790686,-10.09832,1
20047464,5093,2.82,-2.0,-2.17,0.53,2.3,8.08,9.38,0.03818907,-0.1544482,-0.1629693,-0.444148,1.097658,-9.826034,1
20161106,5313,2.76,-1.49,-2.07,-0.39,1.72,8.11,8.49,0.004579932,-0.177898,-0.1141356,-0.2433188,0.7212633,-9.788969,1
20371032,5425,3.41,-0.2,0.26,-0.08,-1.79,8.11,8.31,0.3585515,-0.167872,-0.006540194,-0.404669,0.8107905,-10.44102,1
20477485,5886,3.18,0.24,2.66,0.27,-2.45,8.11,8.3,0.3619459,-0.1163599,-0.0007743679,-0.1309267,0.7519414,-10.60044,1
20596433,5879,1.59,0.9,2.72,0.63,-1.97,8.11,8.05,-0.3084996,0.3155916,-0.0694125,-0.2994413,0.6649743,-9.792318,1
20695993,5385,2.1,1.21,1.32,0.67,-0.22,8.11,7.74,-0.1610691,0.2010906,-0.04649961,-0.0401026,0.9524508,-9.246069,1
20805803,5092,2.5,1.63,0.71,0.78,0.69,8.11,7.45,-0.02592637,0.08154306,-0.07153182,0.04190773,0.8711028,-9.669021,1
20915203,5255,2.44,2.57,0.68,0.42,0.42,8.1,7.08,-0.02811197,-0.08224399,-0.06846225,-0.2182132,0.4828386,-9.833658,1
21022454,5229,2.83,3.29,1.49,-0.08,-0.2,8.07,6.9,0.2770898,-0.1921599,0.01743923,0.2554573,0.751599,-9.512938,1
21133880,5274,2.8,3.6,2.66,0.0,-1.41,8.08,7.04,0.1416288,-0.0795212,0.07932036,-0.2424278,0.5730556,-9.922261,1
21237120,5438,2.53,3.69,3.19,0.24,-1.64,8.09,7.48,0.0237907,0.05259273,0.0941508,-0.3240832,0.6003187,-9.724082,1
21346008,5359,2.55,3.58,3.45,0.71,-0.77,8.12,8.16,0.01628553,0.1741444,0.1074597,-0.1983647,0.5744324,-9.942051,1
21455116,5400,2.54,3.15,3.52,1.28,-0.03,8.16,8.81,-0.07277052,0.1028198,0.08997322,-0.07074849,0.3573566,-9.781287,1
21564086,5384,2.4,2.94,2.99,1.64,0.54,8.18,9.34,-0.1515636,0.1373885,0.0725791799999999,0.2164412,0.4292543,-9.929754,1
21674564,5209,2.25,2.82,2.36,1.86,0.8,8.19,9.73,-0.1404647,0.08649953,0.05275662,0.1855579,0.6682634,-9.608963,1
21778757,5024,2.49,2.91,1.98,1.82,0.78,8.19,9.76,-0.06401837,0.01450939,-0.03693692,-0.07038923,0.6285727,-9.699487,1
21893624,5167,2.49,3.07,2.01,1.84,0.64,8.19,9.63,-0.02519516,-0.04710851,-0.03539224,-0.1244202,0.4351205,-9.722171,1
21996389,5140,2.54,3.22,2.16,1.86,0.9,8.19,9.45,0.0412869,0.1335072,-0.01362562,0.2266462,0.3317625,-9.808665,1
22213421,5314,2.37,3.3,2.08,1.98,1.23,8.2,8.96,0.009315439,-0.01911552,-0.08236541,-0.005885181,0.4908878,-9.813275,1
22321251,5310,2.53,3.44,1.75,1.87,1.2,8.19,8.52,-0.05194492,-0.02306573,-0.0936998899999999,-0.1497504,0.5459344,-10.01399,1
22430317,5271,2.83,3.58,1.51,1.76,0.85,8.18,7.89,-0.04128861,-0.0702436,-0.1019861,-0.1237388,0.4393725,-10.01681,1
22535970,5287,2.65,3.74,1.5,1.65,0.8,8.18,7.43,0.03689519,0.0086730609999999,-0.04434707,-0.1249769,0.5965865,-10.00126,1
22649579,5338,2.83,3.71,2.01,1.66,1.07,8.18,7.27,0.05614327,-0.03232543,0.001104302,0.1548163,0.2395336,-10.15022,1
22871082,5289,2.59,3.32,2.03,2.0,1.54,8.2,7.36,-0.07069179,0.03926861,0.0098619699999999,0.01683428,0.3692295,-10.16356,1
22978808,5362,2.38,3.09,1.74,2.05,1.72,8.2,7.42,-0.02232868,0.0440495,0.01230652,0.08105888,0.4832554,-9.709194,1
23089413,5271,2.57,2.79,1.28,1.97,1.64,8.2,7.59,-0.09926562,-0.06193979,0.01959105,0.1761372,0.4467674,-9.972789,1
23206449,5265,2.39,2.75,1.05,1.84,1.41,8.19,7.82,-0.02471248,-0.01953422,0.03377303,0.1090054,0.5022042,-10.04835,1
23312215,5219,2.62,2.71,1.3,1.89,1.19,8.19,8.06,0.0736002999999999,-0.04984855,0.02811448,0.2388107,0.4101253,-9.764219,1
23416950,5278,2.57,2.56,1.62,2.04,1.01,8.2,8.37,0.0664508,-0.04441169,0.04581716,0.2222041,0.353849,-9.516811,1
23526862,5363,2.54,2.31,1.28,2.07,1.06,8.2,8.69,-0.03295712,-0.03798748,0.03057955,0.1756405,0.5493708,-9.706727,1
23635419,5297,2.89,1.8,0.97,2.09,1.11,8.2,8.9,-0.05449989,-0.007252267,0.006861461,0.1169815,0.3644968,-9.944983,1
23735032,5273,2.83,1.21,0.5,1.98,1.16,8.2,8.96,-0.1026264,0.056619,-0.004826496,0.1858152,0.2752115,-9.644183,1
23854834,5436,2.66,-1.65,-1.48,1.84,1.29,8.2,9.05,-0.4876954,-0.0007833132,0.02711562,0.3680104,0.3278398,-9.762613,1
23964438,5391,2.72,-6.22,-5.59,1.84,1.24,8.2,9.24,-0.7653484,-0.06685446,0.0186636,0.05614013,0.4306737,-9.793743,1
24070156,5421,2.81,-9.61,-10.1,1.9,1.42,8.19,9.42,-0.628624,0.03549714,0.03234356,0.2082519,0.6977561,-9.913376,1
24170202,5358,2.79,-11.55,-12.7,1.99,1.64,8.17,9.53,-0.3263085,-0.05451319,0.02926672,0.358685,0.6526298,-9.734081,1
24278547,5389,2.98,-12.31,-13.64,2.26,1.61,8.11,9.6,0.02963501,0.0982126599999999,0.0210878,0.314938,0.7009814,-9.938381,1
24386992,5484,2.65,-12.31,-12.85,2.51,1.86,8.06,9.61,0.1924624,0.07952596,0.001988453,0.302101,0.6424888,-10.0771,1
24500039,5457,2.61,-12.2,-11.8,2.7,2.29,8.02,9.64,0.1537437,0.05844413,0.02341823,0.2934995,0.58598,-10.0027,1
24605995,5276,2.74,-12.36,-11.19,2.77,2.79,8.0,9.69,0.0836955499999999,0.04645861,0.01262007,0.3806287,0.5949865,-9.781854,1
24720030,5400,2.9,-12.64,-11.05,2.93,2.95,7.97,9.72,-0.07680834,0.08606273,-0.01052785,0.2236734,0.6572191,-9.917933,1
24827880,5403,2.69,-12.79,-11.2,3.0,2.92,7.95,9.55,0.02946516,-0.02365271,-0.02224167,0.3885136,0.6445196,-9.691586,1
24936227,5468,2.61,-10.88,-10.66,3.1,2.9,7.93,9.25,0.1950225,0.07845174,-0.02647464,0.2801891,0.9370279,-9.805556,1
25272879,5429,2.64,-5.19,-2.13,2.35,2.18,8.02,9.06,0.110648,-0.1783106,0.06691474,0.2784226,0.4994526,-9.982095,1
25387209,5470,2.68,-5.08,-2.36,2.14,1.43,8.04,9.46,-0.2139839,-0.1073599,0.04616299,0.2628845,0.7898784,-9.855067,1
25486628,5313,2.63,-5.3,-3.3,2.2,1.23,8.03,9.71,-0.21998,0.07214402,0.02482116,0.3601483,0.7469981,-10.29241,1
25599447,5291,2.86,-5.49,-3.96,2.42,1.26,8.01,9.68,-0.07152166,0.05703214,-0.01179677,0.3534387,0.752715,-9.667853,1
25714077,5419,2.65,-5.45,-4.1,3.01,1.9,7.95,9.48,0.06959046,0.1701929,-0.0081230999999999,0.3850041,0.7408149,-9.525446,1
25825239,5312,2.88,-5.33,-3.89,3.87,3.08,7.87,9.18,0.1516315,0.1725561,-0.01533796,0.2445069,0.8853952,-9.87222,1
25925108,5433,2.54,-5.35,-3.72,4.44,4.05,7.82,8.94,-0.03085593,0.179591,-0.01198878,0.3060964,0.7050397,-9.994214,1
26141982,5246,2.94,-5.52,-4.22,4.86,5.15,7.78,8.38,-0.01546792,0.05429056,-0.04449483,0.4121938,0.9105915,-9.782095,1
26253598,5458,2.74,-5.71,-4.37,4.79,5.09,7.79,8.24,-0.05939731,0.02275089,0.003382664,0.2828214,0.6709443,-9.693443,1
26362232,5482,2.85,-5.81,-4.56,4.61,5.26,7.8,8.5,0.01904337,-0.03709439,0.05915961,0.5448,0.8475467,-9.73597,1
26465044,5426,2.62,-5.7,-4.85,4.57,4.85,7.81,8.86,-0.03403906,-0.09706523,0.01762995,0.2740712,0.9829961,-10.00041,1
26575564,5343,2.63,-5.5,-4.86,4.49,4.34,7.82,9.06,0.01587324,-0.005922534,0.02629368,0.4179618,0.8417897,-9.509212,1
26684542,5455,2.69,-5.23,-4.48,4.56,4.15,7.81,9.12,0.02597305,-0.005974714,0.003213451,0.3652844,0.6593796,-9.86985,1
26795345,5387,2.45,-4.84,-4.37,4.62,4.58,7.8,8.87,0.0006107822,0.1584152,-0.0505813,0.2800128,0.6790907,-9.724691,1
26910835,5430,2.65,-4.69,-4.19,4.4,4.82,7.82,8.36,0.06366056,-0.06918479,-0.07368994,0.3851891,0.7437435,-9.992152,1
27018015,5451,2.6,-4.57,-4.2,4.03,4.65,7.85,7.85,0.02805816,-0.03829686,-0.09231518,0.1718383,0.7122948,-9.994404,1
27127829,5380,2.97,-4.39,-4.22,3.69,3.93,7.88,7.39,-0.02140211,-0.1345486,-0.07826377,0.1454862,0.7229099,-9.852483,1
27236251,5514,2.87,-4.07,-4.28,3.39,3.55,7.9,6.97,-0.02337656,-0.00729524,-0.04665525,0.1771759,0.9063356,-9.89222,1
27358985,5525,2.93,-4.02,-3.19,3.15,3.2,7.92,6.8,0.2137288,-0.08198225,0.003144422,0.1112095,0.8545086,-9.619082,1
27458393,5485,2.84,-4.04,-2.57,3.08,2.93,7.92,6.85,0.07211837,-0.1272034,-0.0199552,0.2875628,0.721975,-10.11042,1
27582237,5482,2.47,-4.11,-3.29,3.08,2.31,7.92,6.89,-0.2014782,-0.03654795,0.003491397,-0.003669076,0.7349443,-9.528363,1
27680458,5455,2.72,-4.26,-4.02,2.88,2.88,7.94,6.97,-0.08983938,0.06370497,0.01757004,0.212501,1.114251,-9.303458,1
27793218,5344,2.59,-4.33,-4.32,2.47,3.35,7.97,7.13,-0.006365751,0.005110865,0.05474082,0.1511744,1.023717,-9.323252,1
27900069,5385,2.91,-4.15,-4.7,1.82,3.14,8.02,7.51,-0.07628718,-0.1048314,0.08235992,0.2813928,0.9657553,-9.414198,1
28113794,5400,2.8,-3.84,-4.07,1.34,2.47,8.05,8.87,0.1757052,0.08050288,0.1480885,0.2849953,0.9028366,-10.00974,1
28221846,5483,2.53,-3.79,-3.48,1.25,2.75,8.06,9.83,0.06563359,0.05304727,0.1713264,0.4835706,0.873515,-10.08446,1
28339800,5383,2.51,-3.74,-3.18,1.43,2.64,8.04,10.89,0.03327352,-0.009528952,0.1228824,0.2661337,0.78657,-9.990539,1
28443367,5366,2.55,-3.72,-3.39,1.5,2.47,8.04,11.51,-0.07979789,-0.03372578,0.06426089,0.4033861,0.7992095,-9.806158,1
28551380,5294,2.8,-3.78,-3.46,1.75,1.82,8.02,11.79,0.02222236,-0.117749,-0.002559683,0.3563364,0.8035386,-9.796681,1
28774804,5466,2.43,-3.73,-3.9,2.34,1.84,7.98,11.33,-0.0270225,0.1337172,-0.0696224399999999,0.3361358,0.7424477,-9.492216,1
28882634,5338,2.54,-3.64,-4.06,2.54,2.63,7.97,10.87,-0.01198699,0.1154238,-0.06896403,0.2457969,0.7398463,-9.798753,1
28985186,5296,2.79,-3.54,-3.88,2.55,2.87,7.97,10.45,0.03101489,-0.03938198,-0.0675111199999999,0.1863063,0.6903461,-9.853616,1
29098004,5226,2.71,-3.43,-3.49,2.34,2.99,7.98,10.01,0.1189524,-0.05833943,-0.06382158,0.2093675,0.7546448,-9.923091,1
29207650,5209,2.67,-3.42,-2.82,2.22,2.63,7.99,9.57,0.102671,-0.07561704,-0.0963581,0.06646222,0.8252136,-10.00512,1
29429076,5357,2.65,-3.98,-2.64,2.07,1.87,8.0,9.01,-0.0467899,-0.01118851,0.01167809,0.3735678,0.8240926,-9.335918,1
29537572,5355,2.57,-4.41,-3.72,2.4,1.82,7.98,9.27,-0.265442,0.0639209699999999,0.06301031,0.5761263,0.8401984,-9.172062,1
29647096,5272,2.51,-4.91,-4.46,2.81,2.17,7.94,9.79,-0.06988906,0.05254889,0.07093235,0.5346244,1.027487,-9.26419,1
29757976,5285,2.81,-5.34,-4.51,3.37,2.41,7.89,10.25,0.1377986,0.009575319,0.0716885,0.4615264,0.913951,-9.61832,1
29863229,5277,2.38,-5.57,-4.59,3.73,2.6,7.86,10.61,-0.259728,-0.0154588,0.07923147,0.2684644,0.8078969,-9.28831,1
29976858,5172,3.0,-5.64,-4.99,4.03,2.87,7.83,10.84,-0.1878044,0.1070363,0.03351359,0.274012,1.091802,-9.724615,1
30076085,5184,2.51,-5.72,-5.09,4.05,3.09,7.83,10.95,0.09247122,0.022593,0.06524958,0.2744676,1.212649,-9.371793,1
30189436,5163,2.77,-5.79,-5.19,4.09,3.41,7.82,11.07,0.1889767,0.0119254,0.0057507,0.5430669,0.9558536,-9.147388,1
30525099,5046,2.71,-5.65,-5.24,4.28,3.34,7.8,11.12,-0.03968636,0.04052553,0.04583984,0.4277548,0.9355841,-9.625897,1
30621145,5149,3.08,-5.53,-5.32,4.6,3.13,7.77,11.04,0.05617167,-0.03302883,-0.006705156,0.591845,1.119232,-9.43591,1
30738397,5318,2.89,-5.29,-5.14,5.07,3.18,7.73,10.64,0.1045233,0.001524091,-0.06302707,0.4897031,0.8836567,-9.945169,1
30852390,5358,2.82,-5.0,-5.12,5.59,3.71,7.68,10.12,-0.09946243,0.1608139,-0.0543384,0.5461395,0.9016334,-9.857321,1
30958374,5389,3.22,-4.87,-4.89,6.32,4.11,7.62,9.73,-0.02214722,0.05364571,-0.0482575,0.785745,0.5319409,-9.792177,1
31060507,5500,2.52,-4.55,-5.05,6.67,4.69,7.59,9.2,0.06309489,0.07535965,-0.08869712,0.9303077,1.469363,-9.475951,1
31175210,5390,2.9,-4.43,-4.58,6.8,5.3,7.58,8.83,0.1173056,0.05940708,-0.01516031,0.5559429,0.8539876,-10.19029,1
31284436,5532,2.46,-4.42,-4.17,6.59,5.73,7.59,8.68,0.1073756,0.03137918,0.01690898,0.7917618,1.349242,-9.518722,1
31610423,5313,2.58,-4.69,-4.37,5.88,4.99,7.65,9.02,0.02192253,0.001094285,0.008122783,0.2904977,0.9615232,-9.605081,1
31709544,5286,2.96,-4.74,-4.61,5.69,5.09,7.66,8.93,-0.1166903,0.01981254,-0.03744709,0.7563081,0.6928638,-9.44104,1
31819087,5313,2.7,-4.88,-4.7,5.47,5.21,7.68,8.79,0.03536989,0.0869601099999999,-0.01577423,0.4755282,1.018038,-9.953663,1
31931633,5284,2.63,-4.84,-4.61,4.9,5.22,7.73,8.63,0.04602063,0.03214912,-0.01313692,0.1101087,1.186762,-10.05241,1
32040599,5264,2.89,-4.94,-4.08,4.1,4.81,7.8,8.62,0.063558,-0.1065268,-0.0078450929999999,0.1459241,0.9561722,-9.83037,1
32149465,5409,2.8,-5.27,-3.94,3.34,4.26,7.87,8.78,0.05724166,-0.1114628,0.02526273,0.2399993,1.281785,-9.865103,1
32259862,5263,3.29,-5.67,-3.8,2.79,3.33,7.92,8.98,0.0954003499999999,-0.2651432,0.04070248,0.2807514,1.022623,-10.39356,1
32378794,5453,2.21,-5.91,-4.6,1.61,2.01,8.04,9.32,-0.3915825,-0.1477248,0.05000181,0.2527791,0.8540064,-9.872889,1
32471200,5213,2.71,-6.07,-5.68,-0.44,0.76,8.26,9.75,-0.1110046,-0.3687357,0.04734862,0.7378915,1.53521,-10.25098,1
32592048,5177,3.09,-6.36,-5.9,-3.53,-2.89,8.6,10.26,-0.06511391,-0.5900347,0.01354665,0.3146803,1.248876,-10.13785,1
32687905,5474,2.89,-6.18,-6.29,-5.16,-5.4,8.78,10.69,-0.07984102,-0.2688208,0.01931804,0.000653317,1.186516,-10.18193,1
32795214,5539,2.87,-6.04,-6.19,-6.31,-6.18,8.9,10.81,0.08813607,-0.0814575,-0.007251729,0.2453965,1.268492,-9.863955,1
32912609,5421,2.82,-6.0,-5.73,-6.96,-5.91,8.97,10.69,0.0796958,0.04880828,-0.02757786,0.3151652,1.116587,-10.49108,1
33018963,5490,2.74,-5.97,-5.43,-7.22,-5.82,9.0,10.67,0.04191102,-0.03014592,-0.002588486,0.4024325,1.202701,-10.30741,1
33131982,5401,3.02,-6.04,-5.27,-7.29,-6.16,9.01,10.85,0.04255138,-0.08421648,0.06103742,0.3657796,1.095764,-10.2691,1
33230060,5414,2.48,-6.06,-5.58,-7.17,-6.37,8.99,11.22,-0.1314455,0.08005144,0.07284416,0.0109542,0.9070911,-10.03799,1
33447223,5420,2.75,-5.75,-5.98,-6.75,-5.81,8.95,11.87,0.1702905,-0.06398545,0.002795873,0.06832655,1.237002,-10.18856,1
33567204,5236,2.49,-5.61,-5.65,-6.43,-5.73,8.92,11.55,0.09413601,0.05057847,-0.09050946,0.1373837,1.124281,-10.06097,1
33668000,5293,2.66,-5.62,-5.11,-6.11,-5.89,8.88,10.95,0.2941437,-0.08251463,-0.1407216,0.0798566099999999,1.018583,-9.667017,1
33780634,5390,2.93,-6.02,-4.98,-5.53,-5.56,8.83,9.99,0.158083,0.0427318,-0.1864725,0.2321616,0.7380998,-9.522984,1
33872203,5466,2.5,-6.57,-6.14,-4.98,-4.17,8.76,9.06,-0.3200694,0.4129275,-0.1665506,-0.06790119,0.7706898,-9.603312,1
33990532,5294,2.86,-7.12,-7.46,-4.48,-2.3,8.7,8.05,-0.1543011,0.1061223,-0.1073909,0.1290981,0.9902428,-9.73407,1
34215468,5433,3.11,-6.71,-7.61,-2.76,-1.45,8.49,7.73,-0.05738279,0.1813622,0.002705229,-0.2577582,0.7789801,-9.70287,1
34314195,5554,2.67,-5.88,-6.9,-1.7,-0.1,8.38,7.64,0.2062791,0.2110642,-0.009274413,0.4959831,0.8709888,-9.850165,1
34430773,5429,2.77,-5.25,-5.38,0.3,1.32,8.18,7.7,0.2333487,0.2929419,0.03489311,-0.03487974,0.8256927,-10.12248,1
34642968,5626,2.96,-6.05,-5.3,2.24,3.33,8.0,7.28,-0.2252784,0.04466211,-0.05110096,0.06587724,0.7746941,-10.13598,1
34761835,5440,2.82,-7.78,-7.48,2.68,3.02,7.95,6.86,-0.4731018,-0.04006076,-0.05194887,0.2574365,0.814564,-9.274313,1
34868187,5428,2.55,-9.34,-10.17,3.52,3.38,7.82,6.66,-0.3590907,0.1169405,0.005269253,0.3437823,0.9178874,-10.02579,1
34979093,5433,2.48,-10.56,-11.81,4.33,4.31,7.68,6.61,-0.2897134,0.2308866,0.04078718,0.100457,0.8294102,-9.423806,1
35088878,5338,2.79,-10.89,-12.72,4.9,5.63,7.57,6.64,0.01130491,0.1966486,0.1004248,0.471543,1.284857,-9.972827,1
35187231,5304,2.61,-10.83,-11.87,5.09,6.02,7.53,7.04,0.1301689,0.005371337,0.0945087,0.3029114,0.9314871,-10.00491,1
35296065,5402,2.5,-10.38,-11.51,4.87,5.79,7.57,7.83,-0.01898692,-0.07026954,0.0963628599999999,0.53306,0.6935959,-9.638257,1
35409147,5255,2.43,-10.22,-10.95,4.64,5.16,7.61,8.87,0.06131088,-0.0984750499999999,0.1816392,0.4395834,0.924773,-9.826393,1
35508638,5241,2.44,-10.11,-10.53,4.51,4.13,7.64,9.86,0.01897902,-0.1529602,0.08867007,-0.06796943,0.845732,-9.667054,1
35618614,5225,2.37,-10.18,-10.9,4.21,4.67,7.69,10.29,0.01015511,0.1259541,0.06000657,0.249617,1.082686,-8.996227,1
35732097,5101,2.74,-10.3,-11.1,4.02,5.44,7.73,10.42,-0.00474542,0.07795203,-0.01162675,0.2673823,1.055826,-9.805677,1
35834417,5273,2.8,-10.32,-10.72,3.67,4.95,7.79,10.32,0.1090289,-0.1069871,-0.06911305,0.09366942,1.177943,-9.698534,1
35945207,5325,2.62,-9.98,-9.93,2.82,4.52,7.94,9.98,0.1604497,-0.05733807,-0.06220067,0.3823185,1.310772,-9.762407,1
36050989,5291,2.57,-9.62,-9.17,2.18,3.73,8.05,9.6,0.1414846,-0.1097917,-0.0358269,0.0003240853,1.121014,-9.827128,1
36176466,5422,2.97,-9.62,-9.04,1.72,3.11,8.13,9.1,0.02203234,-0.05373896,-0.06805981,-0.005805767,1.122221,-9.868763,1
36275034,5476,2.86,-9.42,-9.4,1.57,2.54,8.16,9.01,-0.03302847,-0.06502882,0.003829772,0.301066,1.16627,-9.83934,1
36375811,5521,2.38,-8.6,-9.32,1.12,2.05,8.23,9.04,0.005753838,-0.09024519,-0.01307431,0.2255801,1.00693,-9.860768,1
36488783,5402,2.78,-6.05,-7.52,0.18,1.08,8.35,9.13,0.4544687,-0.1009132,0.02167165,0.1982602,1.242011,-9.986881,1
36599638,5449,2.97,-3.98,-4.11,-1.34,-1.0,8.48,9.3,0.5960553,-0.4514687,0.002046569,0.1978047,1.165916,-10.46499,1
36708552,5511,2.66,-2.54,-1.43,-2.71,-3.15,8.56,9.31,0.4216731,-0.2841424,-0.03289474,0.003959891,1.11357,-9.671198,1
36813337,5344,2.76,-2.29,-0.69,-3.45,-4.26,8.59,9.15,-0.05444142,-0.137891,-0.05151287,-0.102212,0.9235032,-9.96769,1
36917004,5399,2.65,-2.58,-1.04,-3.67,-4.48,8.6,9.01,-0.1462353,-0.05845848,-0.02455392,-0.1130986,1.158217,-10.00659,1
37028029,5366,2.24,-3.24,-2.04,-3.64,-3.97,8.6,8.85,-0.096636,0.1964454,-0.00628841,0.02202554,1.363974,-10.16409,1
37138189,5263,2.45,-3.78,-2.3,-3.56,-3.45,8.59,8.85,-0.03142108,0.130485,0.01192801,0.4099139,1.146175,-9.749691,1
37242962,5171,2.29,-4.19,-2.95,-3.41,-3.83,8.58,8.9,-0.2714349,-0.06940373,-0.02169567,-0.03751947,1.193643,-9.920852,1
37468042,5177,2.49,-4.99,-4.53,-3.72,-3.19,8.61,8.74,0.04472598,0.1102122,-0.07153912,-0.1624011,1.234445,-9.424986,1
37579414,5041,2.71,-5.31,-4.73,-3.91,-2.89,8.62,8.55,-0.1828232,0.02937557,-0.0703088199999999,0.1609094,1.188937,-9.748318,1
37677828,5203,2.78,-5.6,-4.39,-4.1,-3.07,8.64,8.34,0.03550167,-0.1462243,-0.08610205,-0.1167835,0.8253515,-9.838943,1
37788371,5278,2.44,-6.0,-4.33,-4.28,-3.57,8.66,8.17,0.0965364799999999,-0.1429507,-0.03163723,-0.1507378,1.290199,-9.505308,1
37893585,5149,2.66,-6.53,-4.61,-4.29,-3.91,8.66,8.09,-0.2822618,0.03231166,-0.03360743,0.1140896,1.189079,-9.569015,1
38008741,5298,2.57,-6.87,-5.82,-4.28,-3.66,8.66,8.04,-0.3260485,-0.1063929,0.02908363,-0.07085405,1.467605,-9.45434,1
38110053,5131,2.89,-7.29,-6.22,-4.12,-3.53,8.64,8.04,-0.1402094,0.07144602,0.0123125,-0.1760145,1.264279,-9.670425,1
38220050,5204,2.69,-7.42,-6.88,-4.06,-3.5,8.63,7.79,-0.02825833,0.070576,-0.04941368,-0.1600137,1.311711,-9.557514,1
38328106,5278,3.09,-7.57,-6.73,-4.02,-3.55,8.63,7.47,0.133583,-0.006723111,-0.04296461,-0.08259999,1.445997,-9.808531,1
38442540,5440,3.65,-9.17,-6.7,-2.49,-3.19,8.4,7.17,-0.1635859,0.1740996,-0.02231732,-0.3858311,0.6396359,-10.01517,1
38553089,5678,2.33,-11.9,-9.51,-0.79,-1.38,8.08,6.81,-0.6288866,0.3305667,-0.02211822,-0.1879088,1.05279,-9.83387,1
38775987,5460,3.08,-16.38,-17.16,1.51,1.9,7.5,5.38,-0.6580666,0.1268689,-0.08827763,0.3045565,1.539829,-9.394135,1
38876984,5550,3.73,-17.39,-18.8,2.39,2.13,7.24,4.86,-0.09922546,0.09522264,-0.08153217,-0.0830659,1.596583,-9.77011,1
38979344,5714,3.06,-17.37,-18.78,2.84,2.57,7.09,4.47,0.08010319,0.1384916,-0.0191284,0.2272455,1.529077,-10.14977,1
39092148,5747,2.59,-15.92,-17.34,2.81,3.34,7.1,4.17,0.222734,0.07298279,0.02696274,0.1101225,1.419587,-10.51899,1
39195231,5538,2.35,-11.22,-14.39,2.48,3.07,7.18,4.18,0.8422034,-0.1412222,-0.04049266,0.2970906,1.889144,-10.25083,1
39305543,5322,2.59,-6.63,-7.82,2.04,2.04,7.25,4.17,0.9239292,-0.1131025,-0.0117055,-0.1551728,1.468015,-9.33457,1
39416816,5423,2.51,-2.89,-2.96,1.45,1.56,7.3,4.15,0.724798,0.01641605,0.02693515,-0.1732495,1.46335,-10.14975,1
39524877,5353,2.59,-0.15,0.85,1.3,1.64,7.31,4.22,0.5400228,0.07251724,0.02700381,0.07970289,0.9731327,-9.999466,1
39844394,5257,2.54,3.28,6.0,4.9,3.31,7.47,5.57,-0.01009045,0.4090784,0.1656745,-0.09839682,0.9663773,-9.421839,1
39964236,5338,2.34,4.12,6.05,7.78,6.22,7.66,6.61,-0.04573564,0.3957315,0.1342443,0.2951822,1.236492,-9.628469,1
40066867,5165,2.48,4.52,6.41,9.8,8.23,7.81,7.44,0.006276437,0.4246645,0.1341329,0.3406295,1.301624,-9.985681,1
40183055,5264,2.32,4.77,6.51,10.54,9.68,7.87,8.28,-0.2186861,0.1501155,0.1130795,0.4901145,0.7399676,-9.922233,1
40282990,5078,2.96,5.16,6.35,10.16,8.79,7.84,8.73,-0.05564198,-0.4224231,0.04973591,0.1269231,1.249739,-9.9262,1
40404253,5228,3.23,6.47,6.86,9.32,6.1,7.75,8.88,0.276772,-0.4771055,0.04219176,0.03657177,1.337632,-10.39122,1
40508870,5546,3.24,7.81,8.52,8.96,3.6,7.71,8.97,0.116402,-0.3418792,0.02570655,0.2822981,0.8591733,-10.19148,1
40615585,5583,3.04,9.21,9.63,9.37,2.57,7.77,8.94,0.08753254,0.008674446,0.01829737,0.1075438,0.8309463,-9.993961,1
40727443,5575,3.25,10.21,10.63,10.06,3.39,7.89,9.16,0.05601503,0.182901,0.006240896,0.6600375,0.6973798,-9.976882,1
40824454,5617,3.04,10.97,11.4,11.02,4.4,8.08,9.08,0.0646813,0.2662452,-0.06690492,0.3770577,0.384401,-9.756652,1
40948633,5694,3.05,11.84,11.84,11.61,6.0,8.2,8.53,0.002405218,0.1937069,-0.1564209,0.4532373,0.3227566,-10.2848,1
41050582,5635,3.64,11.91,11.41,10.24,6.15,7.9,7.45,-0.04683027,-0.2426808,-0.2436689,0.8316528,0.0831704999999999,-10.49035,1
41154294,5714,3.08,10.82,9.51,8.65,5.25,7.58,5.93,-0.3817508,-0.108543,-0.2327993,0.4666996,0.5432322,-10.47825,1
41269586,5758,3.21,9.99,7.41,5.96,4.16,7.08,4.49,-0.2376739,-0.2087693,-0.1754302,0.5059295,0.6390584,-10.11193,1
41479509,5771,3.22,9.61,5.86,1.53,1.17,6.33,2.47,-0.02165947,-0.2511023,-0.09943865,0.2662347,0.4579902,-9.953406,1
41808446,5774,3.28,11.06,8.73,-2.82,-1.85,5.53,1.57,0.0596665,-0.09655919,0.06007758,0.6557564,0.3034562,-10.09582,1
41919013,5872,2.91,10.48,8.43,-3.7,-2.73,5.36,2.09,-0.1437809,-0.1777811,0.1199229,0.2928708,0.1216235,-10.15606,1
42245543,5711,2.45,4.46,0.34,-4.9,-3.56,5.16,4.9,-0.7506857,0.0715932,0.1496291,0.5301997,-0.09240255,-9.787164,1
42360821,5303,2.61,1.63,-3.86,-4.75,-2.98,5.17,5.81,-0.5030607,0.1361746,0.1220264,0.5644819,0.5672846,-9.576306,1
42464953,5171,2.08,0.52,-5.53,-4.75,-2.69,5.17,6.35,-0.1669333,0.08022085,0.1285302,0.3644241,0.6568774,-9.961934,1
42577082,4914,2.31,0.33,-5.27,-5.07,-3.06,5.17,6.76,0.07309698,-0.0684678799999999,0.02259752,0.3141057,0.3109058,-10.02139,1
42679357,5220,2.25,0.62,-4.47,-5.51,-3.58,5.16,6.86,0.1517384,-0.1353216,0.003232197,0.2575119,0.2687151,-10.03544,1
42787082,5055,2.33,1.0,-3.74,-6.14,-3.97,5.16,6.79,0.1942318,-0.1330696,-0.02101462,0.3110923,0.3477183,-9.949908,1
42899021,4997,2.39,1.07,-3.0,-6.6,-4.35,5.15,6.61,0.1516089,-0.02880527,-0.05501194,0.2246625,0.1883848,-10.24526,1
43007948,5184,2.78,1.15,-2.62,-6.65,-4.47,5.15,6.34,0.129773,0.01365481,-0.05729337,0.07719152,0.344692,-9.974312,1
43113981,5174,3.14,0.52,-2.13,-5.13,-3.71,5.17,5.87,0.02567375,0.3094082,-0.08918866,-0.03716042,0.2276671,-10.10265,1
43224080,5351,2.23,-1.34,-2.97,-2.36,-0.81,5.15,5.12,-0.3367981,0.5458682,-0.07377838,0.1795424,0.07241431,-9.890646,1
43332044,5242,2.83,-2.34,-4.88,-0.36,1.62,5.08,4.33,-0.2204477,0.2472511,-0.09592272,0.2488633,0.367282,-10.12045,1
43444817,5257,2.94,-2.83,-5.98,1.19,2.83,5.01,3.58,-0.1072677,0.1802913,-0.0804306199999999,0.05641938,0.3651993,-9.994918,1
43560503,5305,2.98,-2.83,-6.19,2.6,3.82,4.94,2.98,-0.0188802,0.2650752,-0.05766403,0.07786281,0.2530154,-9.768831,1
43665573,5601,3.02,-2.64,-5.95,3.93,4.88,4.88,2.46,0.08310509,0.185156,-0.04729985,0.1447463,0.3971265,-10.18924,1
43780506,5620,2.86,-2.58,-5.34,5.01,5.88,4.83,1.98,0.02716003,0.1595043,-0.04701895,0.1488295,0.2483461,-9.952038,1
43884033,5545,2.98,-2.61,-5.05,5.7,6.65,4.8,1.61,0.0484661,0.1601498,-0.04906903,0.1056848,0.3987289,-10.02173,1
43986053,5584,3.06,-2.9,-4.68,6.16,7.4,4.77,1.18,0.1089447,0.1217161,-0.06440041,0.255754,0.3358517,-9.787444,1
44097451,5572,3.13,-3.49,-4.71,6.33,7.77,4.77,0.74,-0.06561495,0.08505262,-0.04872665,0.1272748,0.3224839,-10.05171,1
44218446,5627,3.26,-4.32,-5.26,6.4,7.54,4.76,0.4,-0.1498309,-0.08894476,-0.04106464,0.2520046,0.2365551,-9.850547,1
44326381,5754,2.93,-5.16,-6.31,6.49,6.94,4.75,0.12,-0.1654253,-0.02727088,-0.0605076,0.104687,0.4765819,-9.808204,1
44431098,5582,2.75,-6.17,-6.98,6.46,6.23,4.76,359.83,-0.07819415,-0.1297883,-0.06488896,0.1071544,0.3352688,-9.099119,1
44540155,5529,2.74,-7.15,-7.78,6.43,5.96,4.76,359.6,-0.1117656,-0.00656159,-0.01500706,0.2467238,0.5434843,-8.621529,1
44648828,5416,2.78,-8.35,-8.19,6.47,5.77,4.75,359.69,-0.08395486,-0.05809739,0.03252153,0.2105838,0.4996524,-8.742891,1
44757568,5425,2.47,-9.39,-8.85,6.23,6.15,4.79,359.98,-0.1379173,0.06478903,0.0804999,0.1931552,0.540652,-8.904454,1
44867470,5254,2.71,-10.29,-9.45,5.92,5.98,4.85,0.58,-0.02689626,-0.1752511,0.09813901,0.4688211,0.6358967,-8.720566,1
45076633,5228,2.63,-11.0,-9.14,4.2,4.26,5.18,2.17,0.1679113,-0.2818547,0.09441961,0.3393835,0.752931,-9.302266,1
45196847,5276,2.57,-10.57,-8.54,2.75,2.04,5.46,3.1,0.04697626,-0.3596265,0.08639719,0.0484721,0.6915274,-9.462694,1
45300777,5467,3.13,-9.37,-7.64,1.52,0.21,5.68,3.86,0.3028312,-0.3159424,0.08763466,0.01911777,1.029288,-9.420336,1
45411833,5418,2.45,-8.07,-5.33,0.54,-0.76,5.83,4.53,0.3636927,-0.1454717,0.0777009,0.1615929,0.6919558,-9.663887,1
45519559,5337,2.95,-6.77,-3.44,-0.89,-1.85,6.02,5.09,0.2824993,-0.1913915,0.1017562,0.1292869,0.8278663,-9.816236,1
45622122,5442,2.82,-6.27,-2.31,-1.76,-2.63,6.12,5.55,0.1809888,-0.04029592,0.06814515,0.06525236,0.8387003,-9.543758,1
45732066,5442,2.97,-6.09,-1.92,-2.46,-2.91,6.19,5.75,-0.05982797,-0.07217125,0.02092821,0.2608155,0.8076771,-9.821477,1
45842171,5447,2.68,-6.22,-2.16,-2.73,-2.64,6.22,5.78,-0.1089693,0.08588857,0.02614333,0.1494277,0.8534229,-10.13027,1
45950998,5525,3.14,-6.44,-2.97,-2.89,-2.43,6.24,5.75,-0.1354579,0.04666374,0.01355104,0.0598501,0.7505048,-10.48318,1
46061084,5502,2.88,-6.73,-3.99,-2.39,-1.87,6.18,5.67,-0.1772317,0.1607589,-0.02517002,0.2844037,0.5937064,-10.04679,1
46167087,5537,3.25,-7.06,-4.68,-1.6,-1.19,6.08,5.45,-0.1036432,0.1419842,-0.03529355,-0.01230182,0.5254194,-10.18835,1
46274962,5672,3.0,-7.02,-5.53,-0.6,-0.47,5.96,5.08,-0.1437824,0.1158483,-0.05945,0.02011495,0.81818,-10.30853,1
46385858,5685,2.62,-6.27,-6.1,-0.03,0.78,5.89,4.66,-0.06287999,0.2019086,-0.01837168,0.008453673,0.6494078,-10.15828,1
46500819,5368,2.39,-5.28,-5.99,-0.12,1.92,5.9,4.32,0.06730632,0.1535817,-0.03300911,0.3823058,0.546805,-9.730681,1
46616380,5242,3.01,-4.15,-5.19,-0.44,1.76,5.93,4.19,0.1688392,-0.1059711,0.02217471,0.4064424,0.5803902,-9.523066,1
46716766,5320,3.03,-3.18,-3.93,-1.13,0.88,5.97,4.35,0.2621368,-0.1794625,0.04744323,0.004800669,0.4367419,-9.568187,1
46825230,5407,2.75,-2.3,-2.97,-1.74,0.21,6.0,4.73,0.09506727,-0.06004822,0.07744996,0.3182771,0.43049,-9.669863,1
46938882,5529,2.99,-1.88,-2.41,-1.77,-0.56,6.0,5.31,0.09864707,-0.06512287,0.08827275,0.02981882,0.4656939,-9.642245,1
47047835,5526,2.53,-1.66,-2.15,-1.57,-0.28,6.0,5.92,0.01843004,0.09690076,0.1034592,0.1032377,0.5369396,-9.770461,1
47161372,5426,2.56,-1.62,-1.83,-1.07,0.07,5.98,6.51,0.06301762,0.1027052,0.07853092,0.04174827,0.4881469,-9.557508,1
47260850,5401,2.34,-1.61,-1.88,-0.86,0.74,5.98,6.88,0.04918002,0.0924218,0.05395225,-0.004820808,0.5831266,-9.476568,1
47479083,5127,2.4,-0.88,-1.17,-0.77,1.32,5.97,6.96,0.07956212,-0.03424837,-0.05295213,-0.05696265,0.5760576,-9.951711,1
47588991,5113,2.6,-0.33,-0.72,-0.75,1.01,5.97,6.33,0.08696194,0.0155186,-0.1047354,-0.1078388,0.8237572,-9.831371,1
47696611,5251,2.96,0.18,-0.05,-0.62,0.11,5.97,5.52,0.1706277,-0.0791070299999999,-0.1078584,-0.06316038,0.7759032,-9.578992,1
47802215,5356,2.53,0.85,1.42,-0.56,-0.2,5.97,4.74,0.1910232,0.05774362,-0.1063365,-0.2677318,0.5553933,-9.757158,1
47923429,5307,2.0,1.53,2.08,-0.81,0.32,5.97,3.94,-0.04844611,0.1545343,-0.08990373,-0.260479,0.4725702,-9.60213,1
48023153,5166,2.63,1.72,1.94,-1.22,0.72,5.96,3.48,-0.06099621,0.06179543,-0.05600411,-0.2206614,0.8041857,-9.626365,1
48132569,5274,2.41,1.44,1.67,-1.64,0.51,5.94,3.2,-0.003396462,-0.05541853,-0.01828239,-0.4070666,0.5932677,-9.50644,1
48242062,5158,2.73,0.44,1.16,-2.04,0.0,5.94,3.24,-0.1754514,-0.1135786,0.03668116,-0.02724326,0.4789149,-9.583822,1
48474149,5355,2.49,-2.1,-1.43,-2.01,-1.28,5.93,3.78,-0.225594,-0.04061667,0.05909785,-0.4056115,0.587944,-9.72586,1
48573329,5332,2.32,-2.71,-2.63,-1.87,-1.22,5.93,4.31,-0.2334398,0.05481637,0.1137814,-0.3337684,0.8197579,-9.435749,1
48680787,5370,2.5,-3.19,-2.77,-1.85,-1.21,5.93,5.16,0.06471009,-0.031983,0.1333179,-0.2052701,0.7673026,-9.956909,1
48783204,5351,2.62,-3.29,-2.57,-1.87,-1.59,5.93,6.03,0.05119026,-0.1325905,0.1316509,-0.3360026,0.5955299,-9.788545,1
48896404,5221,2.54,-3.39,-2.12,-1.83,-2.26,5.92,6.75,0.05652514,-0.1581203,0.07784761,-0.02894181,0.4487109,-9.868071,1
49007828,5329,2.45,-3.41,-2.37,-1.48,-3.12,5.9,7.06,-0.06080958,-0.06348105,0.03741022,-0.182475,0.6725533,-9.523369,1
49215212,5338,2.53,-2.93,-3.58,-0.56,-1.61,5.85,6.86,-0.003083198,0.1156824,-0.05011564,0.0276828,0.5697966,-9.430779,1
49326238,5011,2.83,-2.8,-3.56,-0.19,-0.41,5.83,6.64,0.06286013,0.170068,0.0007499121,0.07765053,0.5901133,-10.42087,1
49435332,5266,3.29,-2.68,-3.27,0.01,-0.12,5.82,6.65,0.09667128,0.01095293,0.03657881,-0.07466007,0.7396022,-10.79873,1
49545067,5571,2.71,-2.65,-2.8,0.07,-0.28,5.82,6.93,0.04511919,-0.01846049,0.04507339,-0.03734075,0.6355036,-11.09597,1
49650208,5580,2.56,-2.43,-2.86,0.02,0.17,5.82,7.17,-0.004541587,0.07734473,0.01985075,-0.1941052,0.2791077,-11.5529,1
49761057,5495,2.42,-2.14,-3.33,-0.01,1.01,5.82,7.37,-0.03384338,0.1497357,0.04357964,0.07131651,0.6914707,-11.37723,1
49870080,5418,2.09,-1.82,-3.22,-0.15,1.53,5.83,7.6,0.065643,0.03392326,0.04812977,0.01279557,0.6123487,-11.18358,1
49976842,5165,1.99,-1.4,-2.96,-0.5,1.66,5.84,7.86,0.07321735,-0.005129216,0.01880443,0.0390683,0.6085306,-10.47145,1
50190252,5106,1.97,-0.69,-2.38,-1.22,0.34,5.85,8.0,0.07076183,-0.09000903,-0.003397163,-0.1161285,0.7178156,-9.441074,1
50298412,4919,2.82,-0.52,-1.55,-1.32,-0.77,5.85,7.91,0.09568545,-0.1959759,-0.01480754,-0.1423448,0.4994108,-9.826794,1
50412372,5133,2.09,-0.22,-1.35,-1.25,-1.49,5.85,7.64,-0.01054872,-0.06867294,-0.04658743,-0.1780857,0.5108963,-9.67744,1
50520135,4957,2.27,-0.03,-1.23,-1.12,-1.57,5.85,7.22,0.06343801,0.0869942799999999,-0.04560551,-0.204133,0.4060958,-9.131803,1
50631646,4972,2.21,0.07,-0.91,-0.99,-1.12,5.85,6.74,0.05496443,0.2136524,-0.05958906,0.0207155,0.2402511,-9.392422,1
50742042,4998,2.18,0.26,-0.77,-0.9,-0.33,5.85,6.43,-0.04188457,0.1515016,-0.02776659,0.04477187,0.338783,-9.732383,1
50853197,4972,2.46,0.4,-0.58,-0.95,-0.06,5.85,6.33,0.01078986,-0.06305221,0.0106332,-0.213303,0.5516692,-9.868945,1
50957471,5005,2.39,0.47,-0.6,-0.99,-0.72,5.85,6.26,-0.04044067,-0.1457828,0.01672532,-0.1396205,0.2062102,-10.00878,1
51069420,5077,2.1,0.51,-0.68,-1.06,-1.62,5.85,6.2,-0.02535251,0.02779064,0.002518439,-0.4461688,0.5745504,-9.347142,1
51176980,5159,2.6,0.46,-0.53,-1.02,-1.95,5.85,6.11,-0.04703072,-0.03679583,-0.02342623,-0.1935996,0.4707327,-9.935315,1
51286161,5198,2.32,0.37,-0.31,-0.83,-1.81,5.85,6.03,0.0006732906,0.08035932,-0.01517472,-0.298352,0.5643836,-10.05578,1
51392043,5154,2.34,0.18,-0.16,-0.76,-1.11,5.85,5.9,0.04359053,0.1240487,-0.04108056,-0.0602599,0.5585655,-9.431139,1
51510052,5102,2.37,-0.17,-0.34,-0.69,-0.83,5.85,5.59,-0.1111738,0.04951237,-0.06058481,-0.2298913,0.526756,-9.691681,1
51615056,5130,2.26,-0.44,-0.82,-0.77,-0.74,5.85,5.16,-0.1332416,0.08746895,-0.09951672,-0.4387815,0.4913903,-9.96354,1
51721492,5184,2.39,-0.65,-1.39,-0.99,-0.56,5.86,4.68,-0.09297071,0.0005557106,-0.08271059,-0.2130126,0.2792008,-9.862622,1
51826849,5164,2.35,-0.67,-1.77,-1.18,-0.55,5.86,4.24,-0.03872145,0.01473841,-0.05453485,-0.1094751,0.5073435,-9.988702,1
51937196,5083,2.55,-0.57,-1.71,-1.26,-0.93,5.86,3.82,-0.01283517,0.004482131,-0.06736749,-0.2410169,0.3963529,-9.956585,1
52045986,5267,2.44,-0.27,-1.76,-1.34,-1.12,5.86,3.24,0.009470711,0.024003,-0.09795041,-0.2209437,0.2305083,-9.481313,1
52154793,5204,2.61,0.05,-1.54,-1.39,-1.22,5.86,2.73,0.07959726,-0.04151257,-0.07401565,-0.192413,0.171954,-10.31358,1
52264503,5260,2.09,0.4,-1.47,-1.38,-1.26,5.86,2.21,0.04259456,-0.03832299,-0.08620593,-0.2166416,0.1752242,-9.792737,1
52365380,5154,2.31,0.66,-1.35,-1.43,-1.12,5.86,1.79,0.08642245,-0.048816,-0.07237644,-0.248079,0.2124016,-9.603474,1
52475576,5116,2.71,0.85,-0.61,-1.68,-0.93,5.86,1.57,0.176898,-0.1103969,-0.01799852,-0.05386938,0.1527188,-9.621598,1
52689373,5277,2.62,0.83,1.57,-1.66,-1.76,5.86,1.68,0.03802106,-0.0213121,0.01886284,-0.282698,-0.3806846,-9.856544,1
52803353,5423,2.2,0.74,1.45,-1.6,-1.9,5.86,1.54,-0.2396862,0.08218857,-0.05477851,-0.3947227,0.06359091,-9.980616,1
52910798,5229,2.71,0.51,0.34,-1.4,-1.78,5.86,1.33,-0.2386733,-0.04235118,-0.0318625,-0.129943,0.04898141,-9.720102,1
53009985,5241,2.51,0.43,-0.61,-1.08,-1.77,5.86,1.24,-0.02656643,-0.06898122,-0.01085242,-0.03009053,0.4038237,-9.496654,1
53116846,5248,2.95,0.54,-0.69,-0.43,-2.42,5.87,1.17,0.1256644,-0.1073872,-0.0200097,-0.2116146,0.3116646,-10.50808,1
