TimeUS,RPM,Curr,DesRoll,Roll,DesPitch,Pitch,DesYaw,Yaw,GyrX,GyrY,GyrZ,AccX,AccY,AccZ,Guasto
0,4350,2.53,-0.09,1.94,0.16,-1.49,10.8,10.85,-0.004323727,-0.06038381,0.003363838,-0.3524922,-0.3974848,-9.895036,0
222916,4780,3.61,-0.6,2.39,-0.11,-0.86,10.81,11.08,0.01154729,0.1358585,0.06573755,-0.112239,0.3450868,-11.29628,0
327493,5743,2.62,-1.29,2.15,-0.27,0.22,10.81,11.85,-0.09206063,0.1440744,0.1559214,0.1000385,0.2278735,-11.62505,0
556847,5829,1.78,-2.84,0.25,-0.8,0.27,10.83,13.99,-0.07641189,-0.04703172,0.1267633,0.2251937,0.1891774,-9.83664,0
661721,5211,2.3,-3.33,-0.6,-1.07,0.06,10.84,14.66,-0.1655674,-0.02612826,0.082679,-0.1133086,0.3334669,-9.390116,0
768715,5171,2.31,-3.73,-1.21,-1.28,-0.05,10.86,15.18,-0.1036036,-0.01433307,0.06218179,-0.1272272,0.4270142,-9.855765,0
980993,5227,1.92,-4.49,-2.1,-1.4,-0.33,10.87,16.26,-0.1126602,0.006408462,0.1168431,-0.1799198,0.5381854,-9.349021,0
1096314,5151,2.07,-4.89,-2.98,-1.48,-0.33,10.87,17.1,-0.1317397,0.01509994,0.08851402,-0.2157365,0.5623766,-9.648141,0
1203772,5081,2.42,-5.07,-3.45,-1.48,-0.53,10.87,17.95,-0.0986947299999999,-3.369366e-05,0.1294887,-0.1554359,0.3912079,-10.03764,0
1319868,5250,2.64,-4.91,-3.37,-1.57,-0.8,10.88,18.92,0.04582714,0.0143536,0.1229027,-0.3273581,0.4258353,-10.57354,0
1427053,5343,2.47,-4.79,-2.81,-1.65,-0.74,10.89,19.65,0.1238694,-0.0198738,0.07000636,-0.1418978,0.636344,-10.54272,0
1642588,5356,2.54,-4.81,-2.78,-1.76,-0.36,10.9,20.4,-0.0998972999999999,0.003921341,0.05172752,-0.04160578,0.4564776,-11.14774,0
1753702,5353,2.56,-4.86,-3.18,-1.92,-0.53,10.91,20.51,-0.07999086,0.01644923,0.01037249,-0.3124657,0.5705058,-10.94768,0
1853875,5445,2.44,-4.84,-3.37,-2.18,-0.59,10.93,20.42,-0.007837423,-0.06299544,-0.03402586,0.1078409,0.8580207,-10.6721,0
1968076,5284,2.35,-4.8,-3.41,-2.3,-0.89,10.73,20.14,-0.08111387,-0.01143814,-0.04669841,-0.1683895,0.7519874,-10.84157,0
2073846,5407,2.22,-4.59,-3.68,-2.51,-0.85,9.69,19.68,-0.09817257,-0.00348042,-0.0940514499999999,-0.2642078,0.5282151,-10.70873,0
2180253,5326,2.3,-4.28,-4.0,-2.6,-1.02,8.66,18.88,0.0349184,-0.07736666,-0.2168803,-0.2173231,0.6120218,-10.25266,0
2296745,5218,2.58,-3.88,-4.07,-2.64,-1.39,8.59,17.7,0.0598245,-0.08814775,-0.2029241,-0.2062659,0.7772511,-10.23306,0
2396288,5273,2.53,-3.49,-3.83,-2.64,-1.53,8.59,16.72,0.02810246,0.04371825,-0.1627033,-0.1650905,0.5979942,-9.999532,0
2511836,5466,2.46,-3.04,-3.34,-2.53,-1.28,8.59,15.72,0.06207995,0.1029776,-0.1289282,-0.2317789,0.6208615,-10.09745,0
2725973,5419,2.41,-2.86,-2.07,-2.28,-1.29,8.57,14.39,0.01893587,0.03738569,-0.08305564,-0.3406533,0.4454717,-10.07352,0
2945249,5577,2.61,-3.08,-2.98,-2.45,-1.34,8.58,13.51,-0.05890818,-0.04774852,-0.01556987,-0.3067671,0.5693271,-9.905923,0
3053693,5431,2.47,-3.17,-3.33,-2.55,-1.58,8.59,13.41,-0.007877587,-0.1094429,-0.01861416,-0.2813522,0.5895972,-9.89535,0
3165876,5483,2.57,-3.09,-3.54,-2.52,-2.0,8.82,13.6,0.005463303,-0.1009668,-0.02393118,-0.3610883,0.55408,-9.514139,0
3266792,5611,2.61,-2.68,-3.83,-2.53,-2.43,8.82,13.86,-0.03544216,-0.1145007,-0.02987265,-0.2256743,0.4715395,-9.423724,0
3382265,5590,2.81,-2.33,-3.38,-2.3,-2.95,8.81,14.21,0.1378792,-0.02430017,0.03513877,-0.4117521,0.5529975,-9.468218,0
3487019,5787,2.91,-2.25,-2.26,-1.79,-2.66,8.79,14.43,0.25619,0.03630476,0.0701073,-0.1516838,0.6188332,-10.1752,0
3596327,5650,2.74,-2.52,-1.07,-1.02,-2.07,8.76,14.69,0.1321903,0.1634813,0.06808031,-0.2908182,0.3959631,-10.25861,0
3808841,5583,2.68,-3.33,-1.4,-0.27,0.43,8.72,15.48,-0.08982091,0.1097764,0.08702672,0.04831968,0.749301,-10.79226,0
3915992,5511,2.46,-3.61,-2.15,-0.36,0.88,8.72,15.92,-0.10532,-0.01876941,0.03824558,-0.08401905,0.7905472,-10.7728,0
4147990,5486,2.52,-3.36,-2.41,-0.41,0.14,8.73,16.02,0.07110877,0.01451712,-0.02527924,-0.2316998,0.6127058,-10.6788,0
4244803,5525,2.58,-3.21,-2.02,-0.26,0.08,8.71,15.79,0.01784767,-0.003466802,-0.0643393,-0.1202302,0.5955275,-10.42166,0
4364464,5401,2.0,-3.02,-2.1,-0.02,0.09,8.69,15.31,-0.1531536,0.06780657,-0.04594933,-0.2785818,0.5601194,-10.01247,0
4463019,5381,1.9,-2.94,-2.73,0.12,0.3,8.69,14.84,-0.1047358,-0.003020352,-0.06332909,-0.2295801,0.3550557,-9.353203,0
4579890,5002,1.96,-2.88,-3.33,0.31,0.66,8.68,14.4,0.06173797,0.001941698,-0.075239,-0.2358553,0.6459864,-8.879415,0
4672796,4922,1.37,-2.69,-3.32,0.0,1.08,8.69,14.1,0.07830642,-0.0377209,-0.08534642,-0.04078644,0.7949854,-8.548081,0
4787899,4570,1.48,-2.53,-3.08,-0.45,0.57,8.71,13.86,0.05280027,-0.1938278,-0.0744241,-0.2200603,0.5974722,-7.811954,0
4897346,4505,1.52,-2.43,-2.88,-0.88,-0.53,8.73,13.66,0.0353488,-0.2110025,-0.04542004,-0.199168,0.5475463,-7.415113,0
5015325,4385,1.61,-2.55,-2.61,-1.25,-1.3,8.75,13.53,0.1716377,-0.1218995,-0.02980458,-0.1949236,0.5363559,-7.464534,0
5120510,4492,1.54,-2.74,-2.87,-1.64,-1.87,8.77,13.6,0.02440723,-0.1430462,0.01229598,-0.2851582,0.6251767,-7.912926,0
5219218,4571,1.84,-3.14,-2.89,-1.94,-2.22,8.78,13.61,-0.02378634,-0.1367517,0.05074012,-0.09384169,0.4422895,-8.45999,0
5345752,4648,2.01,-3.7,-3.31,-2.08,-2.8,8.79,13.61,-0.174284,-0.1214772,0.01237493,-0.3908561,0.6192231,-8.637709,0
5446974,4796,2.28,-4.16,-3.52,-1.98,-2.75,8.78,13.23,0.07225867,0.1080403,-0.04195286,-0.432938,0.6391121,-8.630035,0
5561474,4983,2.33,-4.54,-3.6,-1.78,-2.2,8.77,12.67,0.009747471,0.04028457,-0.06493039,-0.007237825,0.7751216,-9.298532,0
5660565,4986,2.31,-4.71,-3.52,-1.16,-1.58,8.72,12.11,-0.004469335,0.1594084,-0.07874618,-0.548602,0.6562628,-9.402977,0
5781063,5194,2.07,-4.77,-3.11,-0.54,-0.64,8.67,11.59,0.06491686,0.1007447,-0.06394919,-0.05558494,0.5427858,-9.610795,0
5993745,5302,2.68,-4.73,-2.98,-0.06,-0.47,8.62,10.96,-0.02111882,0.03194071,-0.0678691,-0.1836602,0.7038398,-9.481523,0
6105439,5376,2.51,-5.51,-3.06,0.1,-0.18,8.61,10.7,-0.0731128999999999,0.05075756,-0.04182817,0.02222281,0.3199885,-9.980414,0
6213315,5463,2.7,-6.67,-4.47,0.42,-0.44,8.58,10.62,-0.2327065,-0.04728446,-0.02037356,-0.2496378,0.757392,-9.664542,0
6320345,5511,2.28,-6.26,-5.58,0.64,-0.24,8.55,10.66,-0.02237306,0.08438227,0.02634836,-0.229379,1.113913,-9.939076,0
6424001,5464,2.56,-5.64,-4.8,0.89,0.08,8.52,10.82,0.1188379,0.07948308,0.04337399,-0.05310928,0.6986279,-10.03451,0
6535374,5401,2.26,-4.91,-3.82,1.26,0.47,8.49,11.08,0.1022253,0.0870511499999999,0.0287802,-0.07678643,0.7176035,-10.06685,0
6644887,5423,2.92,-5.92,-4.15,2.13,1.06,8.41,11.49,-0.2087895,0.1800576,0.08352134,-0.1848559,0.3691565,-9.608879,0
6753984,5515,2.33,-7.45,-6.39,4.1,3.01,8.18,11.81,-0.4755272,0.3741055,0.07250294,0.04882582,0.4335174,-9.660955,0
6864310,5388,2.58,-8.69,-8.33,5.46,4.82,7.98,11.92,-0.1656174,0.1008036,0.04962846,0.0116918,0.6289725,-9.968464,0
6969984,5433,2.38,-9.58,-9.37,6.33,6.05,7.84,11.93,-0.08466094,0.1754288,0.04280833,0.1929054,1.046449,-9.902851,0
7078766,5506,2.42,-9.37,-9.45,6.63,6.52,7.79,11.84,0.01332709,-0.00409176,0.0145536,0.1586196,0.8708351,-9.989645,0
7193986,5414,2.62,-8.76,-8.63,6.82,6.44,7.76,11.83,0.1570831,0.002651615,-0.03042327,0.08550589,0.6541255,-10.26594,0
7289861,5415,2.69,-7.85,-7.28,7.04,6.23,7.73,12.02,0.3198064,-0.01579587,-0.02699339,0.1490794,0.7947397,-9.9383,0
7510982,5498,2.34,-7.02,-5.4,7.74,7.44,7.64,11.43,-0.01458928,0.2384108,0.04259333,-0.08835458,0.6417308,-9.726486,0
7623595,5432,2.64,-7.08,-5.29,8.22,8.34,7.58,11.08,0.03330139,0.1154972,0.0079578689999999,0.2599303,0.726494,-9.677584,0
7732362,5501,2.41,-7.26,-5.21,7.98,8.83,7.61,10.92,-0.02188996,-0.01079252,0.03282599,0.36644,0.6881852,-9.840279,0
7834049,5511,2.64,-7.1,-5.59,7.29,8.01,7.7,11.28,-0.02342839,-0.2124765,0.04697581,0.2137889,0.8685501,-9.346228,0
7954748,5427,2.42,-6.79,-5.73,6.12,6.46,7.84,11.82,-0.03173878,-0.2082324,0.02710509,0.155977,1.045812,-9.981016,0
8056080,5416,2.34,-6.51,-5.58,5.31,5.47,7.94,12.34,0.07139586,-0.1514778,0.0428694,0.02375093,0.9325393,-9.486805,0
8168836,5428,2.13,-6.05,-5.2,3.88,4.41,8.1,12.73,0.05035226,-0.2232374,0.0416856,0.1589963,0.7171321,-9.80506,0
8269270,5307,2.5,-5.96,-5.2,2.96,2.91,8.19,12.65,-0.03185462,-0.2383266,0.02484318,-0.2222442,0.7291911,-9.665438,0
8380329,5406,2.31,-6.19,-5.51,1.83,2.2,8.31,12.54,-0.005105432,-0.0795159,0.01799138,0.2540213,0.7599856,-9.755136,0
8487992,5296,2.57,-6.46,-5.7,0.16,0.48,8.5,12.7,-0.08219506,-0.381164,-0.0009805191,0.006794164,0.905413,-9.579178,0
8598366,5241,2.39,-6.69,-5.94,-1.06,-1.3,8.64,12.9,-0.01835269,-0.3012895,-0.02134504,0.00361437,0.7475111,-9.79507,0
8707346,5364,2.34,-7.52,-6.8,-1.82,-2.36,8.73,13.0,-0.2439531,-0.1252195,0.01764473,0.03870249,0.7483325,-9.713987,0
8818551,5290,2.18,-8.25,-8.21,-2.16,-2.86,8.78,13.06,-0.3062711,0.05275528,0.04102828,0.04485343,1.019536,-9.346089,0
8917242,5184,2.28,-8.79,-9.11,-2.19,-3.04,8.78,13.14,-0.1806943,0.04377611,0.01477918,0.1810017,0.8833928,-9.52956,0
9036039,5139,2.18,-8.91,-9.3,-1.95,-2.83,8.74,13.24,-0.04389469,0.0002264629,0.03700413,0.1834891,0.8541419,-9.373837,0
9148108,5304,2.23,-8.82,-9.27,-1.48,-2.19,8.67,13.42,-0.1486704,0.1309744,0.1027015,0.5797399,0.7939879,-9.371462,0
9257314,5182,2.26,-8.75,-8.86,-0.94,-1.87,8.59,13.5,0.07007732,0.1072678,0.04899054,0.4363606,1.348577,-9.84411,0
9360379,5157,2.16,-8.67,-8.49,-0.63,-1.35,8.54,13.54,0.1808795,0.077139,0.02971245,0.1027792,1.129956,-9.731702,0
9472103,5149,2.22,-8.33,-8.4,-0.32,-0.85,8.49,13.55,-0.07005922,0.05428791,0.02000854,0.03483475,0.7624496,-9.743351,0
9577298,5041,1.82,-7.89,-8.2,-0.18,-0.24,8.47,13.53,0.1121472,0.1800122,0.01745191,-0.08246137,1.146213,-9.156039,0
9694262,5010,2.28,-7.54,-7.67,-0.13,0.29,8.47,13.47,0.2082094,0.1091174,0.06208725,0.001654823,1.166409,-9.587593,0
9793365,5245,2.2,-7.28,-7.15,-0.2,0.38,8.48,13.57,0.08390047,-0.07261012,0.01032044,0.3659621,0.8534892,-9.926869,0
9909827,5016,2.23,-7.05,-6.3,-0.26,0.11,8.48,13.58,0.1507353,-0.02368122,-0.01774327,-0.1285453,1.103717,-10.30304,0
10015970,5055,2.14,-7.04,-5.91,-0.33,-0.11,8.49,13.5,0.0532021,0.009672401,-0.02540767,0.140988,1.084834,-9.631873,0
10120838,5043,2.28,-7.12,-5.84,-0.34,-0.37,8.49,13.4,0.04417695,-0.0549333,-0.007984111,0.1785308,0.9481555,-9.625594,0
10236032,5089,2.49,-7.13,-5.87,-0.2,-0.68,8.48,13.33,0.0397466,0.0079569989999999,-0.009105441,0.05535937,1.106727,-9.901415,0
10341998,5272,2.32,-6.89,-5.53,0.03,-0.81,8.45,13.16,-0.06005007,0.04830807,0.001880477,0.2957996,0.7393326,-10.33642,0
10452014,5289,2.26,-5.4,-4.94,0.2,-0.35,8.43,12.9,0.327916,0.178092,-0.01537489,-0.3193049,1.218053,-10.15845,0
10561294,5140,2.14,-3.17,-2.92,0.23,0.32,8.43,12.67,0.4079604,0.04894053,-0.01938267,0.1936914,1.712251,-9.899254,0
10664774,5120,2.71,0.36,0.78,0.53,-0.34,8.42,12.43,0.8085208,-0.1597064,-0.0404828,0.03231871,1.536983,-10.23467,0
10779078,5266,2.09,2.15,4.89,0.41,-0.11,8.41,12.21,0.3109411,0.02809804,-0.00854591,0.4402854,0.5970396,-10.64779,0
10884761,5217,2.65,3.07,6.4,0.74,-0.77,8.43,12.14,0.224685,-0.1524966,-0.03332775,0.1928727,0.4244856,-9.65208,0
10996773,5435,2.23,3.15,6.61,1.05,-0.67,8.45,12.41,-0.09987158,0.1085704,0.05825926,0.05998127,1.067996,-10.02525,0
11097651,5367,2.25,2.95,5.91,1.48,-0.23,8.47,12.76,-0.174076,0.08693313,0.0692948,0.2458267,1.039099,-10.22016,0
11214404,5277,2.0,2.68,4.88,1.92,0.5,8.49,13.11,-0.05612646,0.1122559,0.08329984,0.1218382,1.122123,-9.693206,0
11314336,5191,2.02,2.77,3.92,2.15,1.35,8.5,13.35,-0.01617033,0.02197351,0.03953757,0.6412237,1.331296,-9.50666,0
11424974,5066,2.01,2.89,2.8,2.19,2.42,8.51,13.43,-0.01177461,0.2347939,-0.03402068,0.3895636,1.414224,-9.460912,0
11535383,5013,2.63,3.12,2.0,1.97,2.99,8.49,13.46,-0.1897859,0.02211159,-0.01323414,0.3128021,1.129627,-9.985125,0
11638754,5155,2.31,3.52,1.77,1.45,2.88,8.46,13.33,-0.04775408,-0.0787878199999999,-0.05766992,-0.08184573,0.8222683,-10.24086,0
11857255,5142,2.36,1.06,0.92,-0.87,2.17,8.35,12.58,-0.4453824,-0.2150634,-0.04298649,0.0768631,0.4414366,-10.10129,0
11960544,5160,2.05,-1.26,-2.31,-2.05,0.74,8.35,12.57,-0.59962,-0.2335302,0.01300595,-0.2711116,0.659692,-9.817983,0
12075432,5314,1.87,-2.83,-5.81,-3.79,-0.58,8.42,12.72,-0.3731626,-0.06207642,-0.02985625,-0.7106197,0.9016658,-9.391421,0
12181968,5013,2.07,-3.14,-7.13,-6.53,-2.48,8.57,12.78,-0.1652441,-0.4903719,-0.07140104,-0.1593227,0.6843829,-9.742395,0
12300480,5009,2.47,-2.32,-7.42,-9.86,-6.48,8.74,12.88,-0.0112127,-0.6449085,-0.1064262,-0.3721655,0.5503911,-9.337605,0
12400881,5139,2.77,-1.45,-6.87,-11.68,-9.68,8.8,12.74,0.1987417,-0.529316,-0.1257033,-0.5551695,0.8796682,-9.771872,0
12516005,5483,2.9,-0.67,-5.06,-12.68,-11.67,8.82,12.09,0.2637392,-0.1492969,-0.1028846,-0.6675819,0.9736783,-10.16946,0
12617463,5614,2.54,-0.5,-2.9,-12.72,-11.74,8.82,11.33,0.2380762,0.1097676,-0.108963,-0.5127358,0.7564569,-9.848577,0
12724514,5624,2.65,-0.54,-2.03,-12.51,-11.47,8.82,10.37,0.01353451,0.02720187,-0.1451457,-0.5111661,0.879909,-9.813057,0
12842125,5479,2.68,-1.14,-1.71,-12.4,-11.27,8.81,9.21,0.0597872,0.02475486,-0.166046,-0.5012836,0.6093615,-9.577199,0
12941059,5574,3.1,-1.62,-1.86,-12.4,-11.33,8.81,8.16,-0.08597675,-0.02762784,-0.1483227,-0.4030284,0.5028064,-9.390682,0
13051859,5649,2.93,-1.93,-2.67,-12.13,-11.51,8.81,7.07,-0.1427903,0.07218997,-0.1472304,-0.5221143,0.7909316,-9.645384,0
13155290,5759,3.04,-2.13,-3.17,-11.94,-10.92,8.8,5.99,-0.1115675,0.1203513,-0.1723732,-0.5966647,0.6036286,-9.804694,0
13269897,5876,2.68,-1.82,-4.34,-11.8,-9.64,8.79,4.64,-0.2174946,0.2734543,-0.1469772,-0.5648497,0.5715522,-9.685072,0
13383820,5742,3.19,-1.23,-4.53,-12.01,-8.6,8.8,3.76,-0.005901249,0.04595589,-0.05802886,-0.4810815,0.5874311,-9.594547,0
13482379,5605,3.24,-0.51,-3.91,-12.25,-8.59,8.8,3.54,0.1818886,-0.02463423,0.009269374,-0.4019318,0.7759694,-9.951724,0
13591736,5964,2.8,0.16,-2.45,-12.67,-8.61,8.8,3.91,0.2139883,0.0009055592,0.105186,-0.6194491,0.4835378,-9.846107,0
13700761,5822,2.73,0.58,-1.51,-12.9,-9.03,8.8,4.76,0.0748540699999999,-0.05428249,0.1339077,-0.8662982,0.1813324,-10.10555,0
13814535,5701,2.63,0.87,-1.26,-13.07,-9.42,8.8,5.6,0.04390718,-0.05322462,0.1217247,-0.6281062,0.4551286,-9.890194,0
13921797,5556,2.31,1.2,-1.39,-13.06,-9.54,8.8,6.44,0.002602013,0.01189348,0.1348821,-0.6784778,0.5217409,-9.920835,0
14022988,5407,2.33,1.47,-1.34,-12.78,-9.59,8.81,7.32,0.1029809,-0.02176131,0.1467392,-0.6371002,0.4065009,-10.17583,0
14131769,5285,2.52,1.47,0.06,-12.23,-9.82,8.82,8.06,0.328699,-0.01712365,0.1021935,-0.3655262,0.6233699,-9.790614,0
14262736,5315,2.3,1.24,1.57,-11.35,-10.03,8.84,8.53,0.06948835,0.0904258,0.07169975,-0.7214614,0.3960833,-9.849389,0
14361361,5403,1.92,0.91,1.37,-10.63,-9.49,8.86,8.89,-0.1155666,0.114983,0.03467619,-0.507979,0.3954502,-9.59684,0
14467410,5099,2.03,0.38,0.57,-9.58,-8.62,8.87,9.32,-0.1158517,0.2216475,0.07590134,-0.8650327,0.31818,-9.731146,0
14582107,5067,1.83,0.24,0.1,-8.64,-7.08,8.87,9.47,0.0356461,0.1436513,-0.004508363,-0.4907644,0.7462725,-10.21909,0
14679335,4914,1.56,0.14,0.54,-7.91,-6.17,8.88,9.03,0.0130898,0.2646547,-0.09443065,-0.4986128,0.4322362,-9.745377,0
14790322,4910,1.31,0.15,0.54,-7.48,-5.04,8.88,8.04,-0.1495654,0.241936,-0.2045568,-0.6092814,0.2336525,-9.596444,0
14898505,4651,1.53,0.3,-0.63,-7.48,-4.03,8.88,7.09,-0.2820725,0.07766809,-0.1152299,-0.426334,0.4274406,-9.129693,0
15010926,4549,1.79,0.44,-1.94,-7.7,-4.01,8.88,6.62,-0.1973179,0.0797689199999999,-0.02984042,-1.069401,0.4483956,-9.192276,0
15116510,4632,2.1,0.57,-2.33,-8.11,-4.76,8.87,6.46,0.02419167,-0.1772445,0.009856636,-0.8489493,0.436655,-9.306215,0
15224321,4758,2.21,0.53,-1.48,-8.37,-5.62,8.87,6.33,0.1937042,-0.1816719,-0.02434605,-0.7649303,0.713273,-9.15435,0
15333331,4990,2.28,0.26,-0.21,-8.47,-6.63,8.87,6.32,0.1436067,-0.04760896,0.0077032,-0.782717,0.557353,-9.39703,0
15436099,5255,2.09,-0.13,0.26,-8.39,-6.82,8.87,6.36,0.03374229,0.05566793,0.0192975,-1.12066,0.6214731,-9.646493,0
15554983,5191,2.34,-0.96,0.48,-8.16,-6.91,8.87,6.01,-0.0984499499999999,0.1049865,-0.05827668,-1.239677,0.2312957,-10.31117,0
15669439,5382,1.68,-1.57,-0.64,-7.89,-6.26,8.86,5.79,-0.2674869,0.1188964,-0.02057157,-0.7652859,0.4243833,-9.617839,0
15773316,5109,2.14,-1.99,-1.97,-7.6,-6.0,8.85,5.71,-0.1252742,-0.02243204,-0.01901395,-0.7634217,0.8122196,-9.822796,0
15880434,5183,2.0,-2.25,-2.62,-7.31,-6.1,8.84,5.6,-0.08037914,0.06210459,-0.008058734,-1.015692,0.5079659,-9.751368,0
15985284,5152,2.25,-2.16,-2.69,-7.34,-5.95,8.84,5.64,0.0548671,-0.0009589909,0.02011769,-0.538601,0.403351,-9.685637,0
16211752,5053,1.9,-1.89,-2.64,-7.28,-5.57,8.84,6.15,-0.04985738,-0.03156318,0.05888782,-0.9524106,0.3886062,-10.09407,0
16322590,4977,1.78,-1.86,-2.73,-7.32,-5.56,8.84,6.52,-0.0364051,-0.04019568,0.07059659,-0.7204175,0.5249677,-10.01649,0
16537102,5053,1.65,-1.75,-2.64,-7.05,-5.55,8.83,7.35,-0.04400586,-0.001566956,0.0633725,-0.7502526,0.5250157,-9.714135,0
16645413,4823,1.61,-1.73,-2.46,-6.69,-5.1,8.82,7.85,0.09679167,0.0609116,0.07013042,-0.8885658,0.437452,-9.935609,0
16742979,4786,2.34,-1.69,-2.67,-5.05,-4.37,8.77,8.29,0.07061107,0.1365129,0.05509955,-1.141192,0.5939285,-9.896707,0
16847115,4897,1.55,-1.87,-2.22,-3.48,-1.68,8.72,8.56,0.03235055,0.4412006,0.05840966,-0.7348615,0.5053779,-9.89823,0
16957791,4713,1.71,-1.91,-2.03,-2.08,-0.06,8.68,8.83,0.04401321,0.2550186,0.0850157899999999,-1.35571,0.5683227,-10.39681,0
17078778,4685,1.95,-2.11,-1.64,-0.95,1.09,8.64,9.08,0.1147334,0.14189,0.0652779,-1.224123,0.1834327,-9.943086,0
17176244,4811,1.3,-2.13,-1.87,-0.56,1.59,8.62,9.37,-0.09832386,0.0360524,0.07017107,-1.023914,0.3471558,-10.2276,0
17406368,4682,1.16,-1.75,-2.51,-1.18,1.44,8.65,10.56,0.04011121,-0.1939444,0.09289548,-0.7956978,0.07461799,-9.98569,0
17515103,4288,1.05,-1.45,-2.32,-1.33,0.63,8.65,11.19,0.01369599,-0.1457829,0.06410842,-0.8172809,0.1850414,-9.919311,0
17630687,4200,1.28,-1.2,-1.82,-1.53,-0.06,8.65,11.67,0.1274621,-0.09991857,0.0839612899999999,-0.8788781,0.7313771,-9.494037,0
17728981,4197,1.16,-1.14,-1.21,-1.51,-0.58,8.65,12.12,0.1597101,-0.0820800099999999,0.07969575,-0.5276121,0.5677519,-9.349023,0
17844074,4187,1.37,-1.22,-1.06,-1.19,-0.86,8.65,12.47,-0.02633448,-0.006594897,0.06114038,-0.4683036,0.4317623,-9.526756,0
17954354,4304,1.6,-1.54,-0.52,-0.78,-0.78,8.64,12.64,0.1190181,0.0698925299999999,0.05547585,-0.6485951,0.5098386,-9.082046,0
18060052,4359,1.33,-1.86,-0.29,-0.21,-0.39,8.62,12.75,0.01968881,0.1172683,0.01049344,-0.8443842,0.4296964,-9.506269,0
18271799,4401,1.61,-2.28,-0.83,1.11,0.68,8.57,12.91,0.1394986,0.05699953,-0.0866864299999999,-0.3680924,0.4912421,-9.758616,0
18384377,4473,1.96,-2.68,-0.52,1.83,0.45,8.54,12.44,-0.04279477,-0.03587741,-0.1162115,-0.3418423,0.4372147,-9.857899,0
18497074,4828,2.44,-2.98,-0.31,2.65,0.09,8.5,11.62,0.07270058,-0.08723749,-0.1728045,-0.4350318,0.6393727,-10.12545,0
18602239,5139,2.09,-3.19,-0.74,3.45,0.07,8.46,10.68,-0.1876231,0.0423574,-0.2141551,-0.2165511,0.271125,-10.46476,0
18707832,5298,2.35,-3.37,-1.24,4.34,0.67,8.41,9.76,-0.1115667,0.1938156,-0.1343512,-0.4167021,0.3873839,-10.48849,0
18821344,5283,2.13,-3.55,-1.74,5.24,1.59,8.35,8.89,-0.1802001,0.2061608,-0.0895686,-0.4396047,0.2126946,-10.55497,0
18922043,5273,2.58,-3.57,-2.17,5.85,2.06,8.31,8.26,-0.014308,0.0252773,-0.07121673,-0.104379,0.4160517,-10.48716,0
19031261,5402,2.69,-3.71,-1.89,6.54,2.07,8.27,7.64,0.04229454,0.02152858,-0.0918705799999999,-0.4118982,0.2767509,-10.39284,0
19150467,5563,2.46,-3.86,-1.67,7.08,2.64,8.23,7.13,-0.06771126,0.2096901,-0.0343519,-0.3648005,0.6020716,-10.50181,0
19250727,5620,2.73,-3.99,-2.14,7.57,3.2,8.2,7.0,-0.08407638,0.1123219,0.002139317,-0.2797015,0.7080107,-10.4159,0
19365125,5529,2.68,-4.22,-2.48,8.08,3.64,8.16,7.15,-0.09328648,0.03441681,0.05732116,0.1117744,0.3399359,-10.27404,0
19472967,5539,2.74,-4.29,-2.71,8.37,3.95,8.14,7.53,-0.04183397,0.0698670599999999,0.04025545,-0.09183478,0.5185986,-10.15966,0
19582036,5489,2.27,-4.19,-2.88,8.36,3.97,8.14,8.01,0.0006880826,-0.01386249,0.08674212,-0.05583928,0.5458694,-10.0585,0
19692523,5388,2.43,-4.15,-2.74,7.93,3.75,8.17,8.45,0.01095412,-0.08870195,0.06368106,-0.2227881,0.4895537,-9.919781,0
19800109,5426,2.51,-4.0,-3.15,7.05,2.82,8.24,8.97,-0.1363259,-0.1506117,0.07673392,0.03470067,0.3430848,-9.846804,0
19902925,5400,2.62,-3.93,-2.97,6.4,1.86,8.28,9.41,0.06915455,-0.1777288,0.07501247,-0.3341936,0.5881568,-10.16997,0
20013857,5412,2.25,-3.95,-2.42,5.98,1.32,8.31,9.7,0.05873654,-0.008246453,0.03864822,-0.2329621,0.7132196,-10.05901,0
20125783,5367,2.23,-3.98,-2.63,5.96,1.51,8.31,9.68,-0.09131683,0.08427409,0.01149453,-0.1043409,0.6298854,-9.998764,0
20230591,5129,2.27,-4.15,-2.75,5.99,2.1,8.31,9.56,-0.03535746,0.1191021,0.001020298,0.1090156,0.4722438,-9.270961,0
20353365,5283,2.33,-3.78,-2.76,6.03,2.26,8.31,9.36,0.1298075,-0.04313278,-0.03046036,0.1830881,0.8542491,-9.759366,0
20455776,5272,2.44,-2.14,-1.0,5.96,2.44,8.31,9.24,0.4850248,0.04918307,-0.01310158,0.279335,0.7429313,-9.388566,0
20671878,5288,2.71,2.19,4.69,5.92,2.28,8.31,8.78,0.2503522,-0.06061511,-0.05620851,0.2168132,0.5464385,-9.555723,0
20775386,5387,2.74,3.48,6.08,5.97,2.02,8.31,8.5,0.1355213,0.04464785,-0.04075198,0.2178655,0.5242907,-9.673146,0
20894817,5498,2.92,4.41,6.36,5.91,2.29,8.31,8.29,-0.05988649,0.01409216,-0.06873111,0.09732917,0.5150844,-9.914031,0
20995026,5487,2.56,4.84,6.28,5.77,2.75,8.3,8.23,0.01272269,0.0771196,-0.01908975,0.2911369,0.4682055,-9.614742,0
21096718,5541,2.61,5.28,6.25,5.52,2.82,8.27,8.29,-0.01919498,0.06620687,-0.01358488,0.1241598,0.3425812,-9.835102,0
21210500,5518,2.39,5.94,5.78,5.02,3.22,8.22,8.55,-0.06991775,0.01586054,0.04562215,0.09348887,0.4307762,-9.649106,0
21317349,5342,2.72,6.75,5.3,4.59,2.98,8.18,8.8,0.01546905,-0.01285591,0.03816649,0.05317511,0.6951517,-9.790687,0
21432885,5365,2.53,7.28,5.94,4.05,2.55,8.11,9.1,0.0436964,-0.008034512,0.05869931,0.126951,0.3630095,-9.90339,0
21547276,5244,2.42,7.7,6.54,3.5,2.25,8.04,9.67,0.09248145,0.004120786,0.1337388,0.1029584,0.3797973,-9.698587,0
21654030,5263,2.21,8.12,7.26,2.64,2.09,7.92,10.4,0.07621555,-0.008425647,0.139178,0.1531166,0.2355076,-9.827652,0
21758994,5112,2.43,8.37,7.71,1.91,1.44,7.81,11.12,0.03443535,-0.1468164,0.1400589,-0.02695638,0.3702675,-9.973457,0
21875282,5071,2.07,8.71,7.73,1.2,0.65,7.7,11.78,-0.06615738,-0.131636,0.084713,-0.01362377,0.2801912,-9.835669,0
21980785,5051,1.97,9.41,7.06,0.55,-0.12,7.6,12.08,-0.1656783,-0.1404818,0.0504486,0.1227349,0.4570606,-9.757413,0
22082826,4819,2.23,9.31,7.12,0.38,-0.76,7.57,12.18,0.02590833,-0.08860463,0.0628582699999999,-0.2262108,0.0821569999999999,-9.786461,0
22195788,5057,2.02,9.18,6.25,0.33,-0.38,7.56,12.56,-0.1258949,0.0852606999999999,0.05136962,-0.1200867,0.1825268,-10.04423,0
22296893,5067,1.91,9.01,5.64,0.28,-0.27,7.56,12.81,-0.08006696,-0.01080188,0.0145233,0.2304006,0.1870207,-9.467835,0
22413205,4915,1.69,9.09,5.26,0.13,-0.04,7.53,12.85,-0.09506869,0.07576044,-0.01141809,0.233604,0.3120509,-9.585625,0
22628006,4746,2.15,9.52,5.59,-0.41,-0.37,7.44,11.98,0.0669220799999999,-0.05368376,-0.09968141,0.04642331,0.06180017,-9.86857,0
22745039,4940,2.01,9.74,5.8,-0.91,-0.78,7.36,11.21,0.01659917,-0.1087783,-0.1143011,-0.07806132,0.04685429,-9.606814,0
22846764,5014,2.28,9.79,5.96,-1.25,-1.16,7.3,10.36,0.05749654,-0.0905097099999999,-0.1181664,-0.01875553,0.09333959,-9.637493,0
22959126,4896,2.21,9.81,5.94,-1.55,-1.32,7.25,9.58,-0.0210635,-0.02463287,-0.09657026,-0.1301772,0.02701677,-9.80976,0
23058090,5086,2.36,9.94,6.38,-1.68,-1.47,7.22,8.74,0.0951070599999999,-0.04965955,-0.1417325,-0.05128237,-0.04932308,-9.830548,0
23165774,5141,2.23,10.07,6.57,-1.81,-1.35,7.2,7.91,0.02746768,0.02329824,-0.1386901,-0.1054455,0.0084030849999999,-9.85236,0
23274280,5130,2.37,10.03,6.65,-1.96,-1.03,7.17,7.06,0.000529427,0.06231964,-0.1438633,-0.002540144,0.04872153,-9.812172,0
23386526,5278,2.43,9.76,6.91,-2.04,-1.35,7.16,6.23,-0.01962335,-0.0881152199999999,-0.09802845,0.09924005,-0.09365944,-9.829433,0
23493559,5431,2.45,9.6,6.94,-2.13,-1.85,7.14,5.56,-0.001007693,-0.07160009,-0.09031627,-0.07917121,-0.1212878,-9.83412,0
23606304,5539,2.5,9.44,6.8,-2.19,-1.83,7.13,5.14,-0.04082097,0.05478626,-0.04245108,-0.01814383,-0.07617705,-9.854245,0
23715767,5479,2.19,8.64,6.2,-1.98,-1.56,7.17,4.92,-0.1679542,0.06035778,-0.03785992,-0.09394615,-0.05256761,-9.985596,0
23829508,5335,2.29,7.41,4.83,-1.66,-0.97,7.21,4.75,-0.2648087,0.03280845,-0.03347412,-0.1403923,-0.3076991,-9.972329,0
23937878,5251,1.8,6.58,2.94,-1.58,0.02,7.22,4.59,-0.2323851,0.1494263,-0.02331476,-0.04467577,-0.08915764,-9.794589,0
24039318,5058,2.19,4.67,1.32,-1.54,0.55,7.23,4.4,-0.4338188,0.06734146,-0.03240337,-0.1919698,-0.6638486,-9.733006,0
24147042,5143,2.0,1.78,-1.94,-1.64,0.31,7.22,4.24,-0.4980399,-0.0846158,-0.03795556,-0.1824079,-0.05877482,-9.650464,0
24249778,5156,2.66,-0.34,-4.19,-2.11,-0.33,7.22,4.15,-0.235315,-0.2345356,-0.03547921,0.04338984,0.0879688,-9.508181,0
24355071,5147,2.39,-3.78,-6.13,-1.96,-1.06,7.21,4.11,-0.4882349,-0.05893156,-0.02275063,-0.07562903,-0.3236,-9.994215,0
24472105,5480,2.52,-7.96,-10.19,-1.56,-1.38,7.17,4.14,-0.6568375,0.004527052,-0.005216664,-0.1894513,-0.1644352,-10.08057,0
24574006,5573,2.36,-11.11,-13.59,-1.21,-1.07,7.11,4.06,-0.5485885,0.1116383,-0.01552149,-0.1749623,0.06238059,-10.3938,0
24682866,5414,2.7,-13.76,-16.08,-0.96,-0.66,7.05,3.89,-0.3014936,0.05420651,-0.0084399249999999,-0.003739815,0.2583781,-10.23673,0
24792759,5432,2.59,-15.26,-17.03,-0.82,-0.58,7.02,3.83,-0.03805261,0.03398068,0.02112013,-0.1316678,0.2002727,-10.4837,0
24898782,5612,2.49,-15.9,-16.36,-0.85,-0.56,7.02,4.08,0.1310348,0.04443749,0.0818803699999999,-0.2472937,0.1035054,-10.5188,0
25017781,5563,2.58,-16.24,-15.41,-0.98,-0.72,7.06,4.83,0.1614038,-0.125044,0.08555696,-0.1137088,0.2328121,-10.25312,0
25123058,5451,2.57,-16.66,-15.0,-1.04,-0.94,7.08,5.51,0.03237616,-0.04150844,0.09339298,-0.1707616,0.4136743,-10.38178,0
25227007,5394,2.4,-17.07,-14.63,-1.11,-0.98,7.1,5.98,0.02377641,0.03095549,0.08126723,-0.09905459,0.337024,-10.32023,0
25337791,5503,2.58,-17.41,-14.61,-1.13,-0.94,7.11,6.29,0.009245913,-0.0700393,0.04712357,-0.1946507,0.5085048,-10.24838,0
25448889,5357,2.47,-17.7,-14.82,-1.11,-0.88,7.1,6.5,-0.02497941,0.01791689,0.03666696,-0.1334393,0.6422945,-10.34122,0
25554821,5370,2.68,-17.95,-15.02,-1.07,-1.08,7.09,6.95,-0.04572333,-0.06856932,0.08646145,-0.2387551,0.5125849,-10.2107,0
25667512,5356,2.45,-17.92,-14.85,-0.96,-1.3,7.05,7.7,0.0721232,-0.02358805,0.1051924,-0.002613097,0.6878387,-10.12654,0
25768127,5342,2.47,-16.3,-13.65,-0.64,-1.63,6.95,8.53,0.4292834,-0.07023221,0.1145239,-0.05770633,1.205533,-9.913825,0
25886485,5347,2.51,-11.27,-8.12,-0.02,-1.44,6.8,9.15,1.085661,0.1181865,0.1088082,-0.0343634,0.6584377,-9.824522,0
25987598,5252,2.44,-8.25,-2.65,0.56,-0.94,6.7,9.42,0.7286791,0.09142231,0.04710972,0.08320453,0.4336253,-10.10055,0
26101581,5447,2.5,-6.7,0.33,1.23,-0.77,6.61,9.34,0.2058602,0.01673726,-0.03277465,0.08246235,0.3494905,-10.06772,0
26205362,5298,2.32,-6.59,0.41,1.77,-0.28,6.55,9.07,-0.001220812,0.07400751,-0.05028467,0.009099046,0.5071425,-9.569695,0
26313029,5269,2.48,-7.06,-1.24,2.38,0.51,6.48,8.83,-0.3935518,0.1580878,-0.0238831,0.01815074,0.511407,-9.735619,0
26424903,5191,2.37,-7.49,-2.87,2.97,1.12,6.4,8.76,-0.2137263,0.1226282,0.01532983,-0.09926008,0.7546304,-9.87913,0
26531705,5281,2.11,-7.52,-3.75,3.14,2.09,6.38,8.93,-0.2243519,0.1088324,0.05542428,0.2608682,0.4097704,-9.728822,0
26648596,5189,2.29,-7.12,-4.26,3.2,2.89,6.37,9.3,0.009117244,0.04548283,0.04063556,-0.1277975,0.7095808,-9.69584,0
26750686,5083,2.26,-6.72,-4.22,2.94,3.61,6.4,9.49,0.03931778,0.07749522,0.01669348,0.000450631,0.5593249,-9.832518,0
26856108,5014,2.36,-6.24,-3.96,2.42,3.55,6.46,9.32,0.0765195,-0.1079686,-0.05950525,-0.1455,0.5209648,-9.692639,0
27191323,5052,2.63,-5.43,-3.32,1.09,1.82,6.6,7.7,0.02021536,-0.04162241,-0.09546142,-0.2133123,0.8523713,-9.912042,0
27301886,5398,2.5,-5.47,-3.05,0.65,1.61,6.64,7.26,0.01317822,-0.01385357,-0.07398601,-0.1069749,0.6923363,-9.868364,0
27511499,5385,2.39,-5.65,-3.27,-0.32,1.23,6.73,6.9,-0.07687837,-0.02879854,-0.02035129,-0.3366112,0.7882459,-9.574951,0
27619357,5426,2.58,-5.7,-3.41,-0.95,0.74,6.8,6.87,-0.04703766,-0.1498695,0.01714074,-0.395263,0.7198699,-10.15433,0
27740033,5325,2.49,-5.71,-3.54,-0.93,-0.04,6.79,7.06,-0.09432633,-0.0322248,0.01888367,-0.6203647,0.7958947,-9.834095,0
27839240,5429,2.7,-5.63,-3.67,0.56,0.31,6.65,7.27,0.02985373,0.2756909,0.01966406,-0.4731273,0.7520567,-9.911888,0
27952510,5511,1.96,-5.62,-3.55,2.52,2.98,6.45,7.45,0.006004166,0.4126912,0.07381734,-0.1882397,0.5748726,-9.603744,0
28065344,5206,2.11,-5.47,-3.86,4.09,5.07,6.3,7.68,-0.1413327,0.2956616,0.06433585,-0.2308423,0.7536166,-9.94235,0
28170766,5163,2.25,-5.34,-3.99,4.88,5.73,6.22,7.94,0.03190488,0.04771087,0.01429265,-0.04668625,0.7181839,-9.964547,0
28378313,5213,2.22,-4.84,-3.49,4.96,5.22,6.22,7.93,0.08121686,-0.1527752,-0.06887875,-0.2266357,0.588131,-9.430396,0
28494825,5207,2.81,-4.56,-3.43,4.62,4.22,6.24,7.62,0.05315535,-0.1986979,-0.05328032,-0.3426471,0.5976448,-9.623075,0
28606497,5346,2.69,-4.41,-3.33,4.09,3.07,6.29,7.3,-0.012388,-0.08955932,-0.06537774,-0.1263126,0.8687124,-9.602057,0
28708391,5377,2.2,-4.34,-3.12,3.72,2.81,6.31,7.0,0.005275878,0.01834512,-0.03539581,-0.3453296,0.8497404,-9.7974,0
28818324,5296,2.36,-4.18,-3.07,3.26,2.74,6.35,6.6,0.08102822,0.01225795,-0.06957176,-0.2108657,0.830216,-9.301128,0
29039294,5244,2.97,-3.25,-2.41,1.76,1.16,6.45,5.95,0.1263773,-0.09201616,-0.03673448,-0.4023446,0.7038293,-9.369305,0
29147815,5552,2.63,-2.6,-1.69,1.44,0.89,6.47,5.72,0.1364501,0.0091356489999999,-0.05232151,-0.3509931,0.7098328,-9.636991,0
29259072,5494,2.75,-1.76,-0.63,1.29,0.9,6.47,5.66,0.1655051,0.04461779,0.002616776,-0.3956127,0.997897,-9.74406,0
29474691,5446,2.7,-2.04,0.07,1.73,1.4,6.46,6.02,-0.1001564,-0.01535183,0.03578138,-0.07920878,0.5819388,-9.758261,0
29692712,5556,2.55,-3.14,-1.69,2.31,1.47,6.43,6.87,-0.23384,-0.01221822,0.1194113,-0.06271888,0.8797671,-10.17574,0
29796501,5528,2.47,-3.62,-2.73,2.75,1.26,6.41,7.47,-0.1872328,-0.04922273,0.1368955,-0.1921698,0.5926982,-10.23214,0
29903974,5382,2.2,-3.88,-4.26,3.3,1.74,6.37,7.96,-0.2400193,0.1029443,0.07994297,-0.008939736,0.7107934,-9.912658,0
30012084,5277,2.34,-3.72,-4.96,3.88,2.73,6.33,8.2,-0.01136771,0.1622218,0.07149187,-0.1064711,0.9521186,-9.836786,0
30133387,5148,2.45,-3.2,-4.53,4.39,3.63,6.3,8.16,0.1177346,0.09489524,0.01693462,0.08222218,0.446472,-9.710812,0
30241067,5217,2.3,-2.71,-3.88,4.48,4.18,6.29,7.96,0.09666456,0.08530363,-0.03212845,0.2028527,0.5943331,-9.709389,0
30339121,5257,2.56,-2.45,-3.05,4.42,4.48,6.3,7.72,0.06727033,0.04071305,-0.03531422,-0.06268018,0.6544167,-9.750409,0
30449672,5257,2.49,-2.23,-2.55,4.24,4.49,6.3,7.49,0.06346826,-0.04325383,-0.03212719,-0.05469491,0.6542463,-9.96798,0
30565065,5271,2.3,-2.23,-2.53,4.04,4.46,6.31,7.19,0.04296032,-0.0398409,-0.06508587,0.0006987706,0.5636147,-9.735242,0
30674099,5268,2.66,-2.25,-2.48,3.8,4.31,6.32,6.85,0.07271816,0.02848342,-0.01984801,-0.2103458,0.8729206,-9.765884,0
30775755,5257,2.51,-2.3,-2.35,3.64,4.2,6.33,6.56,0.01947163,0.006776986,-0.04833913,-0.08281442,0.6798168,-9.249636,0
30881773,5440,2.6,-2.41,-2.31,3.36,4.03,6.34,6.31,0.05076443,-0.05224494,-0.02195343,-0.08779468,0.7102726,-9.847883,0
30984289,5416,2.84,-2.47,-2.52,3.37,3.57,6.34,6.18,-0.004935496,-0.09280896,-0.02571072,-0.05719234,0.729164,-9.738546,0
31099862,5580,2.59,-2.66,-2.63,3.24,3.15,6.34,6.22,-0.02457943,-0.006827397,-0.008483948,-0.1529858,0.6771774,-10.0219,0
31208533,5510,2.47,-2.63,-2.84,3.23,3.23,6.35,6.25,-0.03318282,-0.01218532,-0.003429569,0.04506142,0.846989,-9.980354,0
31430812,5443,2.47,-2.52,-2.62,3.18,3.21,6.35,6.37,-0.02181398,-0.01738185,0.007456195,-0.1201078,0.8125398,-9.725145,0
31543733,5485,2.54,-2.41,-2.5,3.06,2.94,6.35,6.58,0.07812149,-0.06456534,0.03445286,-0.1220058,0.7517893,-9.736188,0
31651244,5378,2.56,-2.52,-2.36,2.98,2.67,6.36,6.77,-0.01577492,0.02374905,0.02112438,-0.09239115,0.5375455,-9.925607,0
31764488,5457,2.45,-2.59,-2.4,3.01,2.48,6.35,6.95,-0.04716333,-0.01162228,0.0003502287,-0.05757958,0.6116584,-9.671492,0
31860806,5459,2.44,-2.68,-2.65,3.1,2.61,6.35,7.01,-0.007286756,0.00446081,-0.006796472,-0.1574734,0.6654429,-9.883627,0
31973030,5489,2.41,-2.7,-2.98,3.22,3.08,6.34,6.86,-0.01193082,0.03358313,-0.03133811,0.02511112,0.7526596,-9.908799,0
32087539,5379,2.75,-2.66,-2.91,3.24,3.13,6.34,6.6,0.0153429,0.04839995,-0.03119791,-0.1246066,0.6639062,-9.773652,0
32187494,5466,2.38,-2.68,-2.56,3.19,3.05,6.35,6.41,0.08611359,0.01846223,-0.01928839,-0.1616214,0.7373583,-9.92067,0
32293882,5371,2.59,-2.71,-2.44,3.23,2.8,6.34,6.2,-0.06754375,-0.02835071,-0.04122718,-0.02429446,0.5944039,-10.0047,0
32406619,5404,2.3,-2.81,-2.59,3.35,2.75,6.34,6.16,-0.09311284,0.02049369,0.02996119,0.0184668,0.7027648,-9.857984,0
32510976,5454,2.69,-2.97,-3.12,3.69,2.54,6.32,6.31,-0.1489375,-0.0096678489999999,0.04039033,-0.1918037,0.7072076,-9.80354,0
32623246,5425,2.68,-3.09,-3.37,4.34,3.05,6.29,6.64,-0.04648197,0.1921577,0.101658,-0.1686473,0.7010311,-9.94129,0
32832844,5540,2.31,-2.88,-3.68,6.02,5.28,6.2,7.42,-0.02616199,0.1569093,0.06163494,0.004202358,0.5701188,-9.897196,0
32954781,5330,2.44,-2.76,-3.62,6.67,5.89,6.16,7.87,0.0270479,0.05806077,0.06900571,0.3351265,0.6138816,-9.955454,0
33057116,5349,2.18,-2.64,-3.36,6.89,6.12,6.15,8.11,0.0804310699999999,0.04049887,0.03678184,0.2447338,0.4921762,-10.00607,0
33162360,5281,2.48,-2.39,-3.49,7.06,5.89,6.15,8.37,0.06630803,-0.04483537,-0.002669297,0.1540716,0.6329976,-10.00057,0
33270991,5419,2.5,-2.16,-3.49,7.18,5.67,6.14,8.65,0.002095851,-0.06185156,0.04309609,0.02164857,0.5532706,-9.747941,0
33376927,5462,2.18,-1.87,-3.27,7.07,5.89,6.15,8.77,0.06451373,0.08646597,0.05129354,0.3881924,0.5054534,-9.640195,0
33489327,5255,2.69,-0.52,-2.47,3.5,3.72,6.21,8.86,0.3313104,-0.8338419,-0.05136039,0.6389017,0.6034739,-9.662524,0
33591312,4973,2.39,-0.39,-1.8,-1.72,-1.93,6.26,8.88,0.05470789,-1.162563,-0.02955424,0.3955965,0.4359582,-9.875629,0
33701028,5133,2.89,-0.19,-1.53,-7.06,-8.88,6.28,8.78,0.01644499,-1.11529,-0.07844748,-0.2325107,0.4663324,-9.987309,0
33818897,5396,2.85,-0.29,-1.43,-10.46,-13.86,6.3,8.56,0.02243331,-0.3476128,-0.07110938,-0.2236869,0.6134809,-10.00506,0
33925511,5514,2.72,-0.56,-1.28,-11.45,-14.45,6.3,8.28,-0.03466925,0.1262983,-0.0446775,-0.2352999,0.5950962,-9.954226,0
34041588,5512,2.62,-0.9,-0.99,-11.56,-13.12,6.3,7.95,0.01306521,0.2383949,-0.03510933,0.04802437,0.5031764,-10.18005,0
34136442,5498,2.46,-1.1,-1.17,-11.44,-11.69,6.3,7.67,-0.0806061,0.2420214,-0.04045288,-0.1337021,0.6024651,-10.22282,0
34246500,5441,2.53,-1.31,-1.41,-11.44,-10.85,6.3,7.17,-0.1143127,0.05523084,-0.09604708,0.0771787,0.4592007,-9.650822,0
34364894,5421,2.54,-1.47,-2.09,-11.68,-10.69,6.31,6.59,-0.116335,0.04362594,-0.1019611,-0.3143419,0.5921987,-10.28237,0
34475052,5351,2.41,-1.62,-2.36,-12.12,-10.56,6.32,6.27,-0.06120246,-0.008519094,-0.03668403,0.1578791,0.5677572,-10.15601,0
34577578,5312,2.45,-1.61,-2.39,-12.39,-10.61,6.33,6.13,0.003914376,-0.04353165,-0.02038059,-0.04588869,0.5529106,-10.32107,0
34686104,5463,2.35,-1.46,-2.35,-12.68,-10.53,6.34,6.15,0.08883165,0.01991969,0.04259762,-0.2912335,0.5687322,-10.08914,0
34794363,5354,2.44,-1.41,-2.06,-12.88,-10.39,6.34,6.19,0.009607241,0.01736307,0.001526816,-0.1487754,0.788976,-10.00544,0
34900834,5315,2.62,-1.42,-1.55,-12.98,-10.5,6.34,6.25,0.04794862,0.00732001,0.004308308,-0.1523978,0.645972,-10.21361,0
35014426,5340,2.51,-1.58,-1.37,-12.99,-10.69,6.34,6.35,-0.09015461,0.01282935,0.005576415,-0.444412,0.3666324,-10.29046,0
35120250,5315,2.51,-1.85,-1.46,-13.1,-10.48,6.35,6.39,-0.008104312,-0.0097990449999999,0.00849342,-0.3576078,0.4718645,-10.30743,0
35223059,5326,2.22,-2.12,-1.74,-13.11,-10.44,6.35,6.38,-0.03044166,-0.001576329,-0.01986531,-0.4578529,0.4803654,-10.00013,0
35339037,5265,2.19,-2.35,-2.31,-13.23,-10.32,6.35,6.22,-0.04622545,0.04615902,-0.01718899,-0.6614763,0.7946301,-10.17275,0
35448850,5364,2.35,-2.51,-2.69,-13.36,-10.16,6.36,5.91,-0.0702594,0.0232273,-0.05458588,-0.3260739,0.6241465,-10.13865,0
35561089,5301,2.15,-2.56,-3.07,-13.44,-10.15,6.36,5.53,-0.1317791,0.04906384,-0.08761308,-0.5034559,0.4645642,-10.21238,0
35666392,5316,2.32,-2.56,-3.17,-12.54,-9.77,6.32,4.98,-0.02374723,0.2156745,-0.1160652,-0.8336158,0.5690596,-10.12585,0
35778284,5357,2.6,-2.44,-3.21,-9.97,-7.4,6.21,4.36,-0.01532271,0.5485703,-0.05366564,-0.9856981,0.6043326,-9.972586,0
35878459,5353,1.65,-2.33,-3.14,-7.54,-3.89,6.1,3.94,-0.02533196,0.6829489,-0.0129017,-0.3623126,0.3878874,-9.614602,0
35988459,5142,1.97,-2.21,-3.07,-5.73,-0.95,6.03,3.72,0.07799306,0.2245356,0.03695505,-0.3459822,0.549575,-9.534535,0
36311546,5039,1.97,-2.09,-3.07,-5.49,-1.51,6.02,3.8,0.04774643,-0.09955321,-0.002638362,-0.6670709,0.4190569,-9.942472,0
36416647,5001,2.18,-2.51,-3.07,-5.71,-2.17,6.03,3.79,-0.04369996,-0.04878945,-0.005215076,-0.6267164,0.3244703,-9.961653,0
36525275,5128,1.82,-4.11,-4.16,-5.82,-2.42,6.04,3.89,-0.4242752,0.06492148,0.0495576,-0.5168651,0.205343,-10.18891,0
36634417,5156,2.13,-6.32,-6.5,-5.74,-2.74,6.03,4.07,-0.438746,-0.08251633,0.02686224,-0.4151817,0.3656483,-9.566084,0
36849809,5126,2.25,-10.08,-11.24,-5.62,-2.71,6.01,4.41,-0.2305989,-0.1702739,0.05358107,-0.60664,0.6941283,-9.844118,0
36963884,4996,2.23,-11.57,-12.53,-5.45,-3.62,5.98,4.55,-0.0486051,-0.1113796,-0.03552137,-0.8029764,0.9979714,-9.537902,0
37072461,5175,2.54,-12.52,-12.53,-5.25,-4.55,5.93,4.47,0.04740249,-0.06130607,-0.04472886,-0.412927,0.9381179,-9.541101,0
37295894,5414,2.38,-13.47,-12.77,-4.55,-4.1,5.77,3.72,-0.01768472,0.1464891,-0.02276302,-0.8416376,0.842461,-10.06937,0
37398257,5411,2.38,-13.82,-12.86,-4.18,-3.37,5.68,3.44,-0.03561962,0.1399949,0.02591241,-0.5270268,0.6546765,-10.26285,0
37510356,5391,2.42,-14.1,-13.22,-3.88,-3.17,5.61,3.46,-0.004409154,-0.04035882,0.02283735,-0.5454286,1.039895,-9.7716,0
37621125,5471,2.39,-14.18,-13.45,-3.75,-3.34,5.57,3.78,-0.004365887,-0.06287047,0.07059516,-0.6422876,0.8626453,-10.07105,0
37727093,5466,2.29,-14.59,-13.21,-3.7,-3.54,5.56,4.18,0.01136773,-0.02707337,0.04850449,-0.807661,0.9069911,-9.877935,0
37828521,5425,2.24,-14.94,-13.51,-3.61,-3.65,5.54,4.69,-0.01489526,-0.09326713,0.1089215,-0.5703593,0.9114661,-9.778852,0
37936696,5308,2.5,-15.31,-13.77,-3.27,-3.91,5.44,5.33,-0.0432396,-0.05053704,0.07787903,-0.5613208,1.0077,-9.701685,0
38052077,5379,2.33,-15.49,-13.65,-2.84,-3.75,5.33,5.83,0.005945796,0.03376982,0.08507022,-0.2128118,1.33969,-9.624681,0
38144825,5241,2.18,-15.47,-13.35,-2.43,-3.65,5.21,6.02,0.03821531,-0.01023255,0.04220248,-0.5562536,1.015602,-9.907773,0
38255897,5184,2.0,-15.37,-13.14,-2.0,-3.23,5.09,5.88,0.03867008,0.04772524,-0.0600591,-0.4940954,0.9841859,-9.309787,0
38381085,5173,2.21,-15.5,-13.36,-1.52,-2.57,4.96,5.34,-0.044839,0.1465507,-0.07787466,-0.3476543,0.9187813,-9.309887,0
38482862,5186,2.19,-15.77,-13.72,-1.18,-2.17,4.87,4.75,-0.03579229,0.07229049,-0.1468299,-0.4178927,1.022854,-9.485742,0
38593293,5204,2.49,-16.05,-14.23,-0.81,-1.8,4.76,4.17,-0.04398939,0.0778264,-0.06379716,-0.4274795,0.9880803,-9.466171,0
38696500,5303,2.35,-16.26,-14.37,-0.43,-1.3,4.65,3.77,0.02097359,0.1105654,-0.05374073,-0.1913841,1.576658,-9.865416,0
38810561,5353,2.43,-16.28,-14.29,-0.11,-0.94,4.56,3.54,0.0933349599999999,0.08419158,-0.02829009,-0.4715956,1.312113,-9.707962,0
38917237,5466,2.38,-16.34,-14.22,0.16,-0.76,4.48,3.62,-0.003065646,0.07336503,0.01465329,-0.4106723,1.171745,-9.793043,0
39028123,5415,2.34,-16.34,-14.33,0.31,-0.61,4.43,3.84,-0.03859912,0.03011847,0.07666887,-0.4183905,1.342605,-9.834869,0
39124728,5427,2.47,-16.34,-14.19,0.42,-0.84,4.4,4.29,0.1063273,-0.1116724,0.1207465,-0.3788667,1.535388,-10.01978,0
39247324,5352,2.11,-16.24,-14.62,0.54,-0.95,4.36,4.83,-0.1530575,-0.05431296,0.1000008,-0.4297259,1.677504,-9.533461,0
39358034,5306,2.55,-16.39,-15.3,0.61,-0.76,4.34,5.1,-0.03827821,0.08143555,0.07871109,-0.4915148,1.822368,-8.806407,0
39467099,5369,2.82,-16.54,-15.52,0.45,-0.41,4.39,5.02,0.04659367,0.03535945,0.02105698,-0.2552376,2.671246,-10.38203,0
39570327,5514,2.79,-16.24,-14.07,0.37,-0.7,4.42,5.14,0.3911085,-0.0955327599999999,-0.005479495,-0.5358225,2.101706,-10.69671,0
39680420,5623,2.34,-13.31,-11.79,0.45,-0.85,4.39,5.48,0.5408267,0.02224832,0.06083969,-0.4836932,1.957637,-10.24982,0
39781066,5425,2.31,-10.02,-8.57,0.58,-0.66,4.37,5.66,0.4839763,0.05896237,0.0001636243,-0.687268,1.714442,-10.89703,0
39890513,5346,2.67,-7.39,-4.93,0.78,-0.42,4.34,5.7,0.5816764,0.002170963,0.05092503,-0.3835929,1.738677,-10.69413,0
39996343,5417,2.2,-5.83,-2.67,1.03,-0.48,4.31,5.86,0.1928966,0.1038937,0.004260257,-0.4350276,1.268812,-9.961468,0
40105492,5473,2.75,-5.34,-2.96,1.1,-0.44,4.3,5.89,-0.005147122,0.08625644,-0.02637039,-0.5860687,1.863381,-10.18692,0
40215696,5218,2.97,-5.28,-3.52,0.88,0.12,4.32,6.03,-0.0785616299999999,-0.06237642,0.0548511,-0.269399,1.918538,-10.45107,0
40325605,5577,2.41,-5.32,-3.45,0.81,0.05,4.33,6.22,0.01833608,0.02178779,-0.006774541,-0.4510512,1.921115,-10.70169,0
40436003,5501,2.48,-5.29,-3.83,0.77,0.11,4.33,6.49,-0.103044,-0.0503854,0.03136569,-0.2428632,1.645091,-10.26553,0
40536842,5354,2.56,-5.29,-4.65,0.9,0.1,4.32,6.48,-0.1597948,0.0480016,-0.02104167,-0.05310623,1.817825,-10.08727,0
40647004,5243,2.91,-5.1,-4.5,0.96,-0.15,4.32,6.16,0.2117288,-0.02201072,-0.08353857,-0.425323,1.564816,-10.13788,0
40761592,5531,2.51,-4.85,-4.46,1.01,-0.35,4.31,5.63,0.02785951,-0.006330669,-0.09592396,-0.2008587,1.591993,-9.875512,0
40861850,5538,1.98,-3.46,-4.5,1.02,-0.05,4.31,5.09,0.1050787,0.06865444,-0.09989422,-0.3628537,1.550523,-9.701435,0
40973253,5283,2.79,2.8,-0.11,0.86,0.01,4.31,4.47,1.297322,0.03200802,-0.1044861,-0.1954113,2.204535,-9.684782,0
41085087,5260,2.77,9.52,9.47,0.56,0.25,4.28,3.93,1.289555,0.09071026,-0.05844623,0.1030151,0.8819725,-10.04084,0
41188254,5508,2.3,12.95,14.93,0.4,0.11,4.25,3.71,0.7131166,-0.004365388,0.008264238,-0.351676,0.7201004,-10.34486,0
41303962,5388,2.63,14.81,17.65,0.33,-0.8,4.23,3.39,0.2143757,-0.1939757,-0.02758982,-0.2391161,0.3960213,-9.863642,0
41405802,5422,2.16,15.53,17.11,0.13,-1.08,4.17,3.11,-0.2299881,0.003069966,-0.0508934,-0.4327374,0.5294069,-9.247934,0
41522717,5298,1.93,16.26,15.94,-0.27,-0.38,4.06,3.22,-0.1483101,0.1402577,-0.0085806089999999,-0.4150544,0.7405853,-9.707138,0
41625016,5143,1.87,16.74,15.58,-0.65,0.12,3.94,3.29,-0.0527971,0.03041459,-0.02124614,-0.2188522,0.6490859,-9.331318,0
41734112,5172,2.83,15.87,15.23,-0.89,-0.28,3.87,3.17,-0.237667,-0.04888353,0.006778084,-0.4042264,0.02989568,-9.127439,0
41952228,5189,1.57,4.42,1.5,-1.55,-1.0,3.76,3.51,-1.183603,-0.04046707,-0.01052297,-0.476675,0.5944682,-8.630666,0
42165320,4900,1.89,0.64,-5.28,-2.4,-1.77,3.73,3.32,0.01397582,-0.1034013,-0.04477148,-0.3284912,0.9448782,-8.70768,0
42282759,4943,2.24,0.88,-4.24,-2.53,-2.51,3.73,2.93,0.1716261,-0.05058593,-0.0568865,-0.7224277,0.6346886,-9.549919,0
42391742,5100,2.35,1.64,-2.73,-2.6,-2.96,3.73,2.35,0.2340461,-0.08816046,-0.1298355,-0.3084469,0.4042798,-9.022191,0
42499998,5114,2.4,2.42,-1.12,-2.67,-2.99,3.73,1.23,0.2542462,0.1149151,-0.1943995,-0.7397547,0.3573065,-9.009234,0
42602864,5254,2.4,3.15,-0.07,-3.13,-1.69,3.7,0.01,0.1336362,0.242701,-0.2103329,-0.4329816,0.01483404,-9.485188,0
42718317,5214,2.1,4.7,0.96,-4.2,-1.03,3.63,358.8,0.172968,-0.004028264,-0.1279598,-0.2808037,0.2949537,-9.72222,0
42825511,5370,2.89,6.58,2.77,-6.31,-2.73,3.42,358.21,0.2545331,-0.4090405,-0.03207996,-0.4672549,-0.007499758,-10.02213,0
42934777,5551,2.69,8.97,4.33,-8.54,-5.56,3.12,358.03,0.2783765,-0.5509222,0.005447138,-0.07803961,0.1999312,-10.03892,0
43041339,5492,3.25,11.86,6.64,-10.05,-8.52,2.84,357.76,0.4889196,-0.3872795,-0.01946248,-0.512673,0.1915186,-10.05944,0
43150096,5662,3.28,14.22,10.66,-10.67,-9.69,2.7,357.27,0.7200264,-0.07951061,-0.08588031,-0.3456104,0.001585425,-10.6946,0
43260639,5800,3.41,15.68,14.64,-10.29,-9.38,2.8,356.47,0.4911171,0.103702,-0.152756,-0.4011254,-0.2201054,-10.92725,0
43374511,5993,3.01,16.24,16.14,-9.39,-8.25,3.06,355.73,-0.01288018,0.1484614,-0.1680623,-0.216489,-0.3340472,-10.61189,0
43471541,5783,2.82,16.51,15.01,-8.67,-7.09,3.28,355.03,-0.3152631,0.1653402,-0.1847667,-0.1770722,-0.09721753,-10.24896,0
43583739,5726,3.45,16.76,13.04,-8.0,-6.26,3.48,354.04,-0.2801965,0.0006687183,-0.1419778,-0.13275,-0.2524879,-10.31548,0
43690551,5875,2.65,17.15,11.48,-7.54,-5.54,3.62,353.55,-0.2216567,0.1645929,-0.06265835,-0.1337175,-0.03947398,-10.05948,0
43798859,5737,3.0,17.64,10.68,-7.21,-4.98,3.73,353.49,-0.07130221,0.1424115,0.01403414,-0.2657199,-0.08062365,-9.715655,0
43908063,5679,3.1,17.91,11.13,-6.65,-4.59,3.91,354.09,0.2129719,0.08400238,0.1404658,-0.149795,-0.1509325,-10.13343,0
44021255,5833,2.85,17.96,12.8,-5.97,-4.23,4.13,355.24,0.2517856,0.1200423,0.2102045,-0.1928119,-0.3280014,-10.01441,0
44126725,5746,2.41,17.83,14.02,-5.21,-3.97,4.38,357.07,0.2239016,0.1587934,0.3437017,-0.2035677,-0.2316406,-9.674074,0
44237118,5581,1.83,17.33,14.57,-4.41,-3.54,4.63,359.59,-0.08492576,0.2419649,0.4030948,-0.2862146,-0.7146365,-9.879919,0
44336982,5362,0.9899999,16.97,13.52,-3.88,-2.35,4.8,2.26,-0.1977639,0.3848333,0.4110984,-0.3046885,-0.1835327,-9.778633,0
44451067,4917,1.25,15.96,12.87,-3.32,-1.19,4.96,4.89,-0.008081938,0.1406202,0.3157532,-0.3158393,-0.3005912,-9.751784,0
44562475,4637,1.1,15.06,12.37,-3.23,-0.33,4.99,6.8,0.007027138,0.1314675,0.2249588,-0.4006188,-0.2126492,-9.483925,0
44659337,4305,1.42,13.91,12.03,-3.32,-0.44,4.97,7.76,-0.07128137,-0.05189115,0.1362553,-0.207745,-0.4393373,-9.981186,0
44775814,4401,1.28,12.31,10.95,-3.9,-0.94,4.83,8.18,-0.3126011,-0.07491857,0.0415378,-0.2354987,-0.425896,-9.951865,0
44881247,4295,1.83,8.36,8.17,-4.44,-2.01,4.73,7.94,-0.5443746,-0.1518881,-0.0730601,-0.332574,-0.286784,-9.390211,0
44991709,4523,1.72,3.4,2.08,-5.19,-2.73,4.64,7.26,-1.063392,-0.1887419,-0.1589379,-0.5888796,-0.1006047,-9.689661,0
45100109,4360,1.6,-1.98,-4.23,-5.4,-2.87,4.64,6.17,-1.127447,0.02383953,-0.2137624,-0.4857539,-0.2155456,-9.576753,0
45207022,4560,2.4,-6.64,-9.5,-4.86,-2.65,4.59,4.62,-0.7620414,0.2338198,-0.2568121,-0.5885332,0.0854890299999999,-9.851392,0
45318974,4813,2.05,-10.67,-13.5,-3.75,-1.06,4.42,2.68,-0.6023955,0.3105821,-0.2336526,-0.7795768,0.01187876,-10.37931,0
45426076,4947,2.11,-13.21,-15.87,-2.72,0.07,4.2,1.26,-0.2442223,0.1252033,-0.1378065,-0.5306968,0.2779196,-10.21071,0
45534878,5023,2.3,-14.97,-16.73,-2.45,0.72,4.13,0.46,-0.0007321555,0.05807739,-0.07695813,-0.1968604,0.2561733,-10.21709,0
45645277,5247,2.88,-16.03,-16.44,-2.46,-0.32,4.14,0.57,0.06901278,-0.226704,0.007504405,-0.4024785,0.05238474,-10.6484,0
45745377,5571,2.71,-16.69,-15.87,-2.61,-1.17,4.18,1.11,0.1469971,-0.1861884,0.081067,-0.6427448,0.3625782,-10.73833,0
45858795,5614,2.75,-16.7,-14.68,-2.77,-2.09,4.23,2.1,0.2604888,-0.1904679,0.1319682,-0.355446,0.4252681,-10.63861,0
45970019,5621,2.42,-14.87,-12.59,-2.75,-2.82,4.22,3.24,0.4919,-0.09618938,0.1642821,-0.788412,0.8677891,-10.59733,0
46076525,5521,2.31,-11.6,-8.9,-1.63,-2.3,3.96,4.08,0.7004325,0.2586,0.1246049,-0.6082386,0.6497168,-10.32759,0
46189125,5272,2.5,-9.22,-4.5,0.52,-0.07,3.57,4.56,0.5987603,0.4084902,0.1200348,-0.3884065,0.3149164,-10.41597,0
46307497,5309,2.35,-8.72,-2.3,3.35,2.53,3.13,5.04,0.03933376,0.3629944,0.0854982299999999,-0.278258,-0.03479716,-9.98625,0
46407296,5398,2.14,-9.1,-2.68,5.52,4.41,2.79,5.28,-0.1927917,0.3703344,0.04777382,-0.2779366,0.2332443,-9.933151,0
46515984,5298,2.19,-9.64,-4.08,7.09,6.24,2.53,5.27,-0.244917,0.2242063,-0.0009970872999999,0.0354538,0.4740207,-9.965244,0
46625654,5200,2.36,-9.97,-5.47,8.24,6.92,2.33,5.13,-0.1988046,0.1248866,-0.0321866,-0.01457579,0.3078665,-10.13752,0
46738687,5209,2.3,-9.89,-5.98,8.89,7.21,2.22,4.82,-0.02648651,0.08579336,-0.04465925,-0.1450119,0.4846953,-9.878551,0
46859866,5324,2.43,-9.63,-6.44,9.26,7.63,2.15,4.42,-0.1574003,0.06105098,-0.04848963,-0.04752043,0.1605802,-9.969461,0
46954724,5300,2.48,-9.2,-7.31,9.53,7.53,2.11,4.35,-0.1742449,-0.05431486,-0.003850037,0.1156892,0.3176922,-10.02655,0
47067025,5336,2.34,-8.27,-7.9,9.25,6.95,2.15,4.54,-0.06580126,-0.1024591,0.02498444,0.08454926,0.4125514,-9.895252,0
47179387,5277,3.01,-6.09,-6.3,6.69,4.14,2.47,4.88,0.3934575,-0.5168297,-0.025198,0.09080321,0.312379,-10.06595,0
47284760,5349,2.89,-4.34,-4.1,4.94,1.33,2.63,4.9,0.3775528,-0.3628183,-0.04440127,-0.1202427,0.4148958,-10.24111,0
47402792,5448,2.95,-3.25,-2.33,4.2,-0.6,2.68,4.66,0.2189168,-0.2699319,-0.07569278,0.1851876,0.5015194,-10.0894,0
47509066,5520,2.8,-2.67,-1.45,4.22,-1.45,2.68,4.21,0.1343395,-0.04877466,-0.08792886,-0.05356886,0.378807,-10.04104,0
47616294,5588,2.93,-2.57,-0.66,4.62,-0.98,2.66,3.5,0.07530331,0.1711391,-0.1094843,0.04007303,0.4046339,-9.973291,0
47832586,5626,2.83,-2.48,-0.74,5.56,0.83,2.62,1.53,-0.07199627,0.1651497,-0.1838433,0.1613686,0.6047748,-9.435024,0
48058390,5562,3.16,-2.49,-1.14,5.61,2.24,2.62,359.04,-0.04920421,0.03670483,-0.1628329,0.218626,0.3634923,-9.565776,0
48166043,5697,3.02,-2.4,-1.15,5.55,2.32,2.62,358.2,-0.03389189,0.04688285,-0.08071818,0.07435235,0.2250883,-9.518857,0
48274409,5799,2.49,-2.12,-1.36,5.4,2.9,2.63,358.08,-0.04954909,0.1214735,0.02510452,0.2116367,0.3449165,-8.754998,0
48491795,5548,2.63,-1.36,-1.25,5.29,3.62,2.63,359.2,-0.02798623,0.03363325,0.1249495,0.1820279,0.2894464,-8.664289,0
48593987,5379,2.21,-0.65,-0.62,5.0,3.4,2.64,359.94,0.1290721,-0.04676602,0.1226651,0.243745,0.3037918,-8.696284,0
48711373,5263,2.08,-0.04,0.04,4.64,3.04,2.64,0.68,0.06782843,-0.07549646,0.0970473699999999,0.1604689,0.2676424,-8.34877,0
48811989,5154,2.15,0.27,0.05,4.5,2.83,2.64,1.18,-0.06344666,-0.0216923,0.0713453899999999,0.2583243,0.3273021,-8.707286,0
48936815,5073,2.24,0.57,-0.26,4.43,2.87,2.64,1.52,-0.04668555,0.07105234,0.04989624,0.2816476,0.3763122,-8.937398,0
49036573,5271,2.52,1.03,0.06,4.59,2.91,2.64,1.66,0.07597578,0.06886178,0.02348953,0.03577466,0.5466396,-9.287127,0
49156858,5305,2.81,1.46,1.43,5.4,3.59,2.66,1.83,0.2738967,0.1687601,0.01643734,0.06276797,0.366507,-9.253047,0
49251728,5347,2.49,1.11,2.21,6.28,4.86,2.68,1.96,0.03933026,0.2614153,0.005773576,0.1585806,0.2994029,-9.505577,0
49362808,5445,2.22,1.39,2.09,6.23,6.03,2.68,2.04,0.01551996,0.03242547,0.006187898,0.3773464,0.58429,-9.467511,0
49464995,5183,3.16,1.86,2.7,5.13,4.91,2.65,1.94,0.123946,-0.3172232,-0.01110349,0.0936152299999999,0.04311354,-9.880513,0
49578516,5451,2.88,1.66,2.68,4.03,3.19,2.61,1.69,-0.09188495,-0.2133816,-0.02180909,0.178111,0.236553,-9.802699,0
49688773,5542,2.89,1.1,2.23,3.35,2.28,2.6,1.37,-0.03072286,-0.03152275,-0.07270324,-0.03030453,0.2625804,-9.720086,0
49797660,5539,2.88,0.41,1.4,2.78,2.43,2.59,0.81,-0.221777,-0.05653024,-0.1104084,0.2025011,0.3004687,-9.969893,0
49907637,5527,2.76,-0.42,-0.19,2.26,2.03,2.59,0.13,-0.1796319,-0.0672858499999999,-0.1222369,0.1154581,0.5996211,-9.609275,0
50007844,5669,2.81,-1.06,-1.02,1.58,1.74,2.6,359.46,-0.05996914,-0.02777249,-0.1220786,-0.1606308,0.5962408,-9.866735,0
50119280,5599,2.99,-1.33,-1.4,0.63,1.5,2.62,358.91,-0.02080484,-0.1357093,-0.07039266,0.01496887,0.5022225,-9.571356,0
50235251,5564,3.33,-1.5,-1.42,-0.21,0.71,2.64,358.78,-0.001910039,-0.2063134,0.007161695,0.01347986,0.319335,-9.827821,0
50344000,5654,3.2,-1.68,-1.06,-0.67,-0.29,2.65,359.19,0.1142961,-0.1323693,0.1053186,-0.1374345,0.4558928,-9.888941,0
50445267,5769,2.87,-2.1,-0.52,-1.2,-0.6,2.67,359.85,0.08743338,-0.06452697,0.1139438,0.06995032,0.4209841,-10.0077,0
50567317,5694,3.18,-2.93,-0.77,-1.82,-1.16,2.7,0.59,-0.1003947,-0.1274706,0.06789909,0.1244527,0.4311744,-9.935278,0
50665729,5802,3.03,-3.6,-1.77,-2.43,-1.72,2.73,1.04,-0.2715256,-0.06329715,0.0867569,-0.09213833,0.4117599,-10.45916,0
50769551,5853,2.82,-4.16,-2.97,-3.17,-2.25,2.78,1.61,-0.1571988,-0.02574255,0.09905501,-0.3458143,0.6689373,-10.66707,0
50888557,5768,2.48,-4.39,-3.41,-4.73,-2.52,2.9,2.41,0.03297637,-0.1748401,0.1096944,-0.07351873,0.5514038,-10.27359,0
50991008,5535,2.75,-4.38,-3.01,-5.82,-3.7,2.98,3.27,0.1123187,-0.237883,0.1389713,-0.1477418,0.4789229,-10.10102,0
51099096,5457,2.57,-4.22,-2.46,-6.51,-5.14,3.04,4.41,0.08626299,-0.1143852,0.202431,-0.1483206,0.478878,-10.43539,0
51209597,5455,2.35,-4.17,-2.26,-6.3,-5.57,3.02,5.57,0.04632416,0.002485484,0.1803913,-0.3171189,0.3470598,-10.11368,0
51318305,5235,1.78,-4.24,-2.86,-5.43,-4.48,2.96,6.61,-0.201524,0.2820299,0.1522526,0.03507889,0.4764351,-9.904213,0
51430127,5079,2.0,-4.36,-3.43,-4.58,-3.69,2.89,7.46,-0.09241986,0.04406895,0.08997284,-0.1789069,0.5892074,-9.763903,0
51537592,5028,2.01,-4.35,-3.71,-4.08,-2.98,2.85,8.0,-0.06779959,0.1003025,0.06611641,-0.1941091,0.5567116,-9.643613,0
51638103,5025,2.0,-4.27,-3.58,-3.72,-2.74,2.83,8.33,0.005794275,-0.001461108,0.01683563,-0.120387,0.6331407,-9.784434,0
51744813,4872,2.17,-4.1,-3.61,-3.27,-3.0,2.79,8.53,-0.03926658,-0.06181708,0.02262635,-0.1371258,0.6847501,-10.18156,0
51851459,4943,2.18,-3.97,-3.25,-2.63,-3.08,2.75,8.49,0.1706118,0.05932467,0.002238473,0.04815069,0.5479,-9.58424,0
51968774,4991,2.41,-3.93,-2.88,-1.69,-2.5,2.68,8.19,0.06477879,0.04169126,-0.07238029,-0.07872348,0.7041374,-9.752864,0
52076326,5182,2.21,-3.95,-2.59,-0.88,-1.74,2.63,7.72,-0.02104393,0.1685271,-0.08183559,-0.04832676,0.7649901,-9.73297,0
52185262,5149,2.27,-3.94,-2.58,-0.17,-1.05,2.58,7.12,0.0358828,0.03089111,-0.1058131,-0.1565175,0.5373878,-9.690296,0
52300743,5050,2.68,-3.73,-2.63,0.29,-0.96,2.55,6.17,0.03063418,-0.07618923,-0.150282,-0.005223957,0.6628228,-9.909868,0
52402746,5124,2.57,-3.57,-2.48,0.74,-1.35,2.52,5.22,0.009682302,-0.005686864,-0.1465384,-0.2022695,0.528676,-9.984671,0
52528321,5418,2.76,-3.8,-2.05,1.26,-0.88,2.49,4.37,0.06773806,0.1361789,-0.1115549,-0.0786167,0.4702145,-9.91149,0
52627352,5500,2.59,-4.23,-1.87,1.89,-0.04,2.44,3.95,-0.07986506,0.1295142,-0.06761851,0.03282131,0.3750737,-9.873447,0
52734874,5503,3.03,-4.66,-2.15,2.72,0.14,2.38,3.56,-0.136364,0.0966302099999999,-0.05963063,-0.2789106,0.5486571,-9.455673,0
52849114,5540,2.75,-5.01,-2.62,3.1,0.91,2.34,3.25,-0.03722566,0.0909552,-0.03635007,0.164481,0.8505435,-9.71016,0
52958750,5523,2.66,-5.06,-3.27,3.52,1.79,2.31,2.97,-0.1824331,0.2314934,-0.02192589,0.04304634,0.7962399,-9.736214,0
53066813,5493,2.61,-5.11,-3.78,4.64,3.12,2.21,2.76,-0.1493471,0.3486188,-0.01448578,-0.3275857,0.6750571,-10.09654,0
53181017,5561,2.67,-5.08,-4.02,5.4,4.56,2.14,2.6,0.03349702,0.2042887,0.02830122,-0.1005984,0.9596108,-10.02916,0
53274729,5611,2.23,-5.11,-3.78,5.35,5.47,2.14,2.85,-0.02792829,0.1592012,0.1202439,0.3269067,0.3671682,-9.540546,0
53394356,5440,2.73,-5.08,-3.55,4.63,5.61,2.21,3.58,-0.0240839,-0.1779934,0.09133001,0.13158,0.6597882,-9.664716,0
53494510,5414,2.82,-5.0,-3.65,3.5,4.24,2.31,4.3,0.003132011,-0.3363591,0.1264517,-0.07485689,0.8375318,-10.05733,0
53612997,5449,2.29,-4.82,-4.31,2.31,2.55,2.41,5.25,-0.1762639,-0.07164427,0.1267,-0.5683959,0.9246737,-9.970766,0
53720330,5317,2.11,-4.61,-4.58,1.34,2.84,2.49,5.99,-0.14008,0.0663239999999999,0.1378316,-0.003260382,0.6715482,-9.806257,0
53836287,5091,2.34,-4.11,-4.6,0.61,2.78,2.55,6.88,0.1972469,-0.04981189,0.1195324,-0.04463439,0.8706613,-9.480733,0
53936720,5002,2.23,-3.56,-4.56,-0.05,2.38,2.59,7.59,0.01289949,-0.1303304,0.0785422499999999,0.031557,0.6501705,-9.937686,0
54051870,5034,2.13,-3.04,-4.19,-0.97,1.63,2.64,7.98,0.1849856,-0.1438699,0.01752113,-0.3358523,0.5788408,-9.759558,0
54256736,4932,2.42,-2.57,-2.83,-2.31,-0.23,2.71,7.35,0.02038114,-0.0900063599999999,-0.09989351,-0.05211158,0.7523756,-10.00741,0
54369695,5256,2.45,-2.45,-2.37,-2.62,-1.26,2.72,6.59,0.1352293,-0.143185,-0.1419188,-0.2142991,0.8231441,-9.525651,0
54478938,5225,2.24,-2.45,-2.2,-3.02,-1.57,2.74,5.69,0.01778816,0.005428039,-0.1448247,-0.2069232,0.8841352,-10.04711,0
54590316,5196,2.77,-2.68,-1.67,-3.26,-2.38,2.75,4.71,0.07027729,-0.2009861,-0.1604471,-0.1468052,1.030979,-10.07464,0
54701114,5483,2.32,-3.04,-1.73,-3.24,-2.9,2.75,3.89,-0.007533706,-0.006198646,-0.1393497,-0.0945092399999999,0.8523571,-10.07258,0
54810773,5449,2.43,-3.48,-1.74,-3.4,-2.83,2.76,2.89,-0.10134,0.001573037,-0.1828496,-0.2603588,0.7001482,-10.1073,0
54915936,5380,2.82,-3.71,-2.42,-3.56,-3.46,2.77,1.73,-0.07715138,-0.1125513,-0.2130425,-0.3751061,0.6390849,-9.534723,0
55026754,5628,2.92,-3.82,-2.77,-3.31,-3.79,2.75,0.49,0.007785279,0.02737897,-0.1727119,0.1546075,0.6108403,-9.874105,0
55138866,5658,2.79,-3.77,-2.58,-2.67,-3.02,2.71,359.26,-0.08496929,0.1827485,-0.160595,-0.2385146,0.7666146,-9.580995,0
55249467,5668,2.62,-3.74,-3.26,-2.14,-2.15,2.68,358.41,-0.2341327,0.174134,-0.0867255599999999,-0.04175629,0.4670705,-9.735682,0
55356333,5643,2.98,-3.7,-4.3,-1.9,-1.16,2.66,358.14,-0.05243811,0.08041927,-0.0006631696,0.05266349,0.8669949,-9.557509,0
55456810,5659,3.36,-3.56,-4.22,-1.68,-1.15,2.65,358.41,0.1171379,-0.07991771,0.0778938899999999,0.09572654,0.8467104,-10.07776,0
55569094,5847,3.15,-3.13,-3.52,-1.34,-2.0,2.63,359.18,0.09799971,-0.08600153,0.142804,-0.2459423,0.6270074,-9.993026,0
55677336,5954,2.99,-2.87,-2.97,-0.81,-2.04,2.6,359.99,-0.004657427,0.08230459,0.1593405,-0.1256297,0.5113311,-10.03528,0
55792795,5808,2.82,-2.59,-3.17,-0.09,-1.22,2.57,0.72,-0.0650081899999999,0.1369671,0.1155079,0.03588774,0.7351289,-9.841605,0
55897836,5612,2.94,-2.54,-3.15,0.27,-0.49,2.55,1.24,0.07194155,0.06961498,0.08583377,0.07063825,0.7541831,-9.984947,0
56000884,5583,2.59,-2.41,-3.16,0.47,0.17,2.54,1.81,0.000125308,0.09118783,0.1260416,0.1855116,0.5652022,-9.727418,0
56118799,5493,2.53,-2.13,-3.17,0.79,0.56,2.53,2.6,-0.06237284,0.07919018,0.1174545,0.02390088,0.5151352,-10.04057,0
56230044,5413,2.34,-1.8,-2.89,0.97,0.65,2.52,3.4,0.08734968,-0.02912951,0.1117438,0.1132392,0.6390785,-9.497799,0
56335760,5269,2.36,-1.45,-2.74,1.06,0.53,2.52,4.16,0.04847103,-0.04889721,0.1191099,0.1542063,0.5063348,-9.930799,0
56436859,5259,2.13,-1.11,-2.5,1.19,0.39,2.52,4.68,0.0671268899999999,0.0133184,0.05486427,0.1293917,0.6171268,-9.356138,0
56556822,5322,2.31,-0.73,-2.12,1.4,0.7,2.51,5.04,0.09457707,0.05665066,0.05322066,-0.003676626,0.4650377,-9.634122,0
56767260,5128,2.31,-0.65,-0.73,1.46,1.28,2.51,5.22,0.09218526,0.04862596,0.01491196,0.2250659,0.621961,-9.769235,0
56875022,5162,2.58,-0.77,-0.55,1.85,1.25,2.51,5.37,0.06494587,-0.05147346,0.01103306,0.1164157,0.4985009,-9.637945,0
56987028,5246,2.53,-1.14,-0.54,3.36,2.27,2.48,5.54,0.01511263,0.271763,0.06128651,0.1342373,0.4554848,-9.977311,0
57096903,5309,2.31,-1.58,-0.81,4.75,3.65,2.45,5.54,-0.06536298,0.2526414,-0.008438879,0.1464653,0.5692207,-10.03602,0
57196363,5269,2.3,-1.89,-1.21,5.49,4.93,2.43,5.33,-0.09824093,0.1764359,-0.04257447,0.2720175,0.6303319,-9.907457,0
57306804,5189,2.54,-2.21,-1.4,5.68,5.14,2.42,4.89,0.04500503,0.02139114,-0.06123413,0.1476957,0.7155275,-10.139,0
57417600,5285,2.28,-2.39,-1.72,5.27,4.93,2.44,4.44,-0.08525638,-0.06189628,-0.08872321,0.4571409,0.4305566,-9.559288,0
57526887,5278,2.71,-2.36,-2.34,4.01,4.03,2.49,4.2,0.01578196,-0.2804232,-0.02401597,0.4921558,0.5262098,-9.710644,0
57638523,5198,2.77,-2.43,-2.46,3.02,2.45,2.53,4.08,0.006279176,-0.2575341,-0.02865678,0.1833068,0.5925896,-9.51987,0
57748349,5405,2.71,-2.46,-2.47,2.54,1.17,2.55,3.95,0.07806918,-0.148802,-0.04181626,0.2522133,0.6591195,-9.64741,0
57860333,5481,2.74,-2.56,-2.5,2.41,0.94,2.56,3.77,-0.001596616,0.02221274,-0.04593103,0.0001332905,0.7574422,-9.799434,0
57971123,5443,2.5,-2.71,-2.38,2.47,1.55,2.55,3.67,-0.003570574,0.1384847,0.007753757,0.1626297,0.7732323,-10.02864,0
58069557,5456,2.6,-2.82,-2.54,2.63,2.05,2.55,3.73,-0.05669779,0.06568907,0.03549897,0.1668495,0.559311,-9.539764,0
58181878,5414,2.71,-2.89,-3.04,2.69,2.17,2.54,3.82,-0.04063619,-0.007447076,0.02072955,0.2894633,0.5227578,-9.491069,0
58289884,5414,2.53,-2.89,-3.48,2.54,2.16,2.55,3.76,-0.03195054,-0.06009066,0.001196938,0.1841243,0.6510593,-10.08514,0
58400979,5443,2.83,-2.81,-3.52,2.36,1.9,2.56,3.68,0.07631414,-0.03012231,-0.01628053,0.2496513,0.8117476,-9.866208,0
58508478,5514,2.82,-2.64,-3.26,2.17,1.58,2.57,3.55,0.1031973,-0.07514034,-0.03317283,0.1728965,0.7368184,-10.26126,0
58623237,5558,3.02,-2.46,-2.99,1.42,0.82,2.6,3.47,0.04401646,-0.1928838,0.00214848,0.08349794,0.5050857,-10.28632,0
58733982,5596,2.73,-2.47,-2.88,0.96,0.31,2.62,3.49,-0.01393204,-0.01014364,0.005138518,0.1182292,0.5744871,-10.06649,0
58851266,5524,2.54,-2.49,-3.19,0.83,0.09,2.63,3.62,-0.03583999,0.004161329,0.01747007,0.08075538,0.5538179,-9.908194,0
