TimeUS,RPM,Curr,DesRoll,Roll,DesPitch,Pitch,DesYaw,Yaw,GyrX,GyrY,GyrZ,AccX,AccY,AccZ,Guasto
0,4525,3.56,0.02,0.93,0.65,-1.39,28.71,28.85,-0.003889131,-0.06410064,0.01282965,-0.1068457,0.0180651,-10.28682,1
119026,5147,4.09,-0.22,1.18,0.88,-1.08,28.71,29.26,0.08678064,0.141015,0.1272715,0.03277876,0.3266844,-11.03958,1
232017,5687,4.8,-0.56,1.53,1.26,0.13,28.7,30.3,0.06056147,0.2536342,0.1687108,0.4124304,0.3603397,-12.35452,1
339397,6255,4.83,-1.25,1.65,1.65,1.43,28.7,31.35,0.003903804,0.1452379,0.1706374,0.6590855,0.2194067,-11.83243,1
442602,6372,4.11,-1.97,1.17,1.86,1.88,28.69,32.32,-0.1518789,0.1182259,0.1527458,0.2304195,0.4362783,-11.73181,1
550059,6217,4.82,-3.9,-0.09,1.74,1.99,28.7,33.26,-0.226605,-0.03739719,0.16222,0.4718824,0.4574037,-10.9311,1
660047,6257,4.52,-6.27,-2.17,1.71,1.88,28.5,34.31,-0.4137356,0.007266162,0.1622959,0.4022914,0.4513987,-10.32038,1
765396,6260,4.78,-7.94,-4.46,1.48,1.68,27.52,35.17,-0.3779828,-0.1072157,0.1090532,0.2723335,0.5952198,-10.12733,1
881835,6495,4.95,-8.99,-6.66,1.13,1.56,26.08,35.71,-0.204638,-0.08412205,0.04572212,0.3374237,0.6035394,-10.46002,1
987891,6434,5.16,-9.39,-7.46,0.82,1.31,24.3,35.59,-0.02317155,-0.03831816,-0.08317086,0.582257,0.53216,-10.01066,1
1096945,6533,5.06,-9.47,-7.35,0.68,1.2,21.61,34.56,-0.01992463,0.1695197,-0.1984918,0.2781445,0.4367168,-9.828761,1
1201742,6591,5.51,-9.17,-7.12,0.35,1.6,17.86,32.68,0.1113113,0.1945074,-0.3660148,0.294587,0.6526899,-9.617944,1
1310836,6689,5.59,-8.75,-6.64,0.2,2.08,14.96,29.7,0.0508795,0.1088745,-0.5316712,0.5674248,0.5471267,-9.588765,1
1526646,6746,4.05,-7.99,-4.78,0.26,1.65,13.44,22.84,0.1214973,-0.01525089,-0.4787666,0.3349281,0.4889796,-9.699363,1
1642608,6305,3.96,-8.32,-4.67,0.04,1.81,13.47,19.82,-0.01888785,0.02254838,-0.4030327,0.09163436,0.6849358,-10.01265,1
1745421,6180,3.9,-8.9,-5.14,-0.09,2.01,13.49,18.21,-0.1190877,0.04059566,-0.2061797,0.0639409799999999,0.7768535,-9.525592,1
1851064,6072,4.3,-9.38,-5.67,-0.33,1.83,13.53,17.43,-0.0497701,-0.06527252,-0.0685772,0.2227096,1.078832,-9.688599,1
1969998,6184,4.28,-9.37,-5.57,-0.51,1.83,13.56,17.46,0.007681123,0.09061506,0.04865463,0.2503751,0.9449452,-10.03825,1
2082857,6357,4.48,-9.37,-5.75,-0.72,2.38,13.6,17.49,-0.1034227,0.1147201,-0.01070445,0.2529028,1.028085,-10.0223,1
2186876,6355,4.95,-9.92,-6.01,-1.09,2.19,13.66,17.5,-0.04015414,-0.06857683,-0.01649398,0.1867431,1.184718,-9.838223,1
2302088,6353,4.75,-10.67,-6.95,-1.77,1.38,13.78,17.53,-0.1722466,-0.104519,-0.0078319199999999,0.05310182,1.241974,-9.818648,1
2409479,6491,4.85,-11.54,-8.17,-2.44,0.55,13.92,17.79,-0.1792712,-0.1554487,0.06430017,0.1229563,1.117462,-9.716501,1
2521468,6664,4.85,-11.33,-9.23,-2.52,0.11,12.19,16.65,-0.08680825,-0.003789913,0.07634546,-0.1476418,1.258249,-9.8931,1
2624206,6464,5.3,-10.46,-8.86,-1.74,0.44,12.04,17.23,0.177093,0.164443,0.0755416899999999,-0.04578644,1.379515,-10.25418,1
2735597,6650,5.58,-9.15,-7.47,-0.36,1.3,11.81,17.69,0.2282208,0.311674,0.09750924,-0.1890273,1.051197,-10.76351,1
2857817,6748,5.58,-8.03,-5.84,0.66,3.11,11.65,18.31,0.1728069,0.212653,0.08286006,-0.02812437,0.9146018,-10.0608,1
2955023,6933,5.62,-7.52,-4.88,0.17,4.14,11.71,19.19,0.1306881,-0.07702608,0.0690154999999999,0.528688,0.838676,-9.968784,1
3069379,6997,4.77,-7.0,-4.8,-1.34,2.48,11.91,20.29,-0.06779785,-0.5079604,-0.002687708,0.1289294,0.8401249,-9.786733,1
3168917,6671,4.44,-6.48,-5.81,-3.28,-0.14,12.14,21.08,-0.2371964,-0.5968674,-0.05469408,0.01348045,0.960507,-9.236337,1
3280054,6385,4.37,-6.08,-6.46,-4.83,-3.33,12.31,21.14,-0.007334057,-0.3696021,-0.109462,-0.0805351099999999,1.045692,-8.711992,1
3387071,6373,4.26,-5.75,-6.52,-4.61,-4.82,12.29,20.23,-0.06005979,0.1382732,-0.09040159,-0.3294951,1.071421,-8.273355,1
3494746,6267,4.17,-5.39,-6.06,-3.94,-3.81,12.22,19.43,0.08925261,0.2481807,-0.1217393,0.2827137,0.9519206,-8.896983,1
3614035,6214,4.24,-4.94,-5.47,-3.41,-2.73,12.17,18.76,0.1073789,0.1808445,-0.12132,0.1154822,1.205608,-8.673886,1
3712475,6214,4.38,-4.73,-4.93,-3.01,-2.48,12.14,17.89,0.2162407,0.04070717,-0.1297838,-0.1844677,1.042581,-8.71307,1
3821004,6272,4.2,-4.65,-4.46,-1.56,-1.43,12.02,16.53,0.1017391,0.3433457,-0.1555516,-0.2668475,0.9341241,-8.919162,1
3934476,6292,3.99,-4.45,-4.16,-0.01,0.72,11.9,14.99,0.1017525,0.3669824,-0.1206903,0.1992188,1.049952,-9.088028,1
4155444,6216,3.97,-3.94,-3.11,2.35,3.14,11.72,12.64,0.05728466,0.1679135,0.002184044,0.05858924,1.036396,-9.601416,1
4265826,6269,4.09,-3.77,-2.8,3.39,4.34,11.65,12.2,0.02835475,0.1699013,0.03842565,0.230145,0.9713611,-9.55674,1
4373516,6262,4.06,-3.87,-2.75,4.24,5.04,11.59,12.29,-0.01214613,0.1059048,0.0996363599999999,-0.03526598,0.9677338,-9.611946,1
4477596,6311,4.08,-4.04,-3.08,4.52,5.84,11.58,12.91,-0.0514259,0.107075,0.1340473,0.5350106,0.9464006,-9.401472,1
4583417,6259,4.33,-4.19,-3.58,3.46,4.85,11.65,13.83,-0.0826799899999999,-0.3350493,0.128456,0.2066693,1.061069,-9.559036,1
4696467,6297,4.59,-4.24,-3.59,2.46,2.69,11.73,14.85,0.04379394,-0.3090108,0.1753481,0.07883084,1.076374,-9.573947,1
4804834,6288,4.57,-4.21,-3.58,2.03,1.42,11.76,15.77,0.01789133,-0.1547786,0.1609957,0.0981458,1.147695,-9.77984,1
4905445,6464,4.63,-4.33,-3.44,1.97,1.11,11.76,16.5,0.02080042,-0.02923689,0.169145,0.4213611,0.9408091,-9.607402,1
5024578,6392,4.86,-4.62,-4.04,2.24,1.18,11.74,17.23,-0.1176375,0.02133134,0.1204282,0.1751102,1.291694,-9.849313,1
5125425,6487,5.11,-4.92,-4.12,2.51,1.45,11.72,17.7,-0.03072619,0.1364808,0.09630995,-0.03935088,1.107553,-10.19722,1
5239106,6696,4.76,-5.04,-4.24,2.73,2.02,11.7,18.02,-0.0495004,0.1767316,0.01887395,0.4373899,1.151968,-9.454724,1
5454082,6498,5.06,-5.44,-4.69,2.72,2.4,11.7,18.1,-0.1226379,-0.009196772,-0.05162565,0.3742743,0.7956531,-9.314027,1
5570625,6451,4.81,-5.41,-4.68,2.61,2.23,11.71,18.0,0.06909148,-0.02517994,-0.009004674,0.4470001,1.241774,-9.44683,1
5669036,6691,4.44,-4.54,-4.16,2.06,1.76,11.76,17.83,0.2021084,-0.08503252,-0.009272274,0.4280244,0.961499,-9.851324,1
5783550,6520,4.6,-3.81,-3.46,1.76,1.08,11.78,17.62,0.05912266,-0.1113276,-0.03767919,0.3895106,1.073918,-9.399837,1
5997820,6417,4.4,-3.87,-3.01,1.93,1.1,11.77,17.06,-0.003141274,0.001778426,-0.0346507,0.1951607,0.9573787,-9.820934,1
6104289,6547,4.33,-4.21,-3.59,2.11,1.46,11.76,16.8,-0.1590404,0.0742958799999999,0.01825934,0.3984139,1.063007,-9.42881,1
6214043,6355,4.39,-4.54,-4.38,2.32,1.71,11.74,16.69,-0.05354343,0.01445263,-0.003403577,0.3564718,1.119336,-9.597141,1
6321516,6303,4.43,-4.72,-4.74,2.49,1.91,11.73,16.73,0.06177401,0.03533966,0.009461205,0.5426556,1.081098,-9.402839,1
6540105,6372,4.69,-4.81,-4.38,2.56,2.05,11.72,16.99,-0.01645235,-0.0564362,0.01470242,0.4165281,0.8963388,-9.712115,1
6650746,6498,4.55,-4.97,-4.5,2.58,2.04,11.72,17.15,0.02900635,0.06370994,0.02700717,0.173942,1.00394,-9.368539,1
6758819,6483,4.5,-5.23,-4.88,2.39,2.4,11.74,17.14,-0.1451631,0.04274663,-0.01619414,0.2631911,1.008679,-9.883864,1
6866274,6455,4.58,-5.45,-5.24,2.24,2.45,11.75,17.22,-0.1728533,-0.002466354,0.0456359,0.2285798,1.087725,-9.733478,1
6974514,6440,4.9,-5.63,-5.67,1.95,2.61,11.78,16.97,-0.07503991,0.02740594,-0.05155395,0.3945034,1.269178,-9.236638,1
7083448,6406,4.92,-5.86,-5.41,1.55,2.55,11.82,16.77,-0.006975173,-0.01517352,0.008218998,0.3226918,1.027152,-9.828285,1
7192449,6488,4.61,-5.95,-5.27,1.26,1.98,11.85,16.74,-0.0397173,-0.1259392,-0.009449038,0.212246,1.160413,-9.417056,1
7302090,6337,4.82,-6.06,-5.6,0.99,1.51,11.88,16.87,-0.04178602,-0.003211934,0.03906214,0.1313151,1.055519,-9.37306,1
7414254,6471,4.93,-6.13,-6.0,0.78,1.11,11.9,17.13,-0.0439995,-0.1270331,0.02855511,0.1914256,1.400379,-10.32806,1
7512999,6473,5.17,-6.12,-5.74,0.71,0.82,11.91,17.43,0.01096281,-0.000815691,0.04256555,-0.07583918,1.067095,-10.55441,1
7738068,6646,5.45,-8.34,-6.81,2.79,2.76,11.65,17.99,-0.3540156,0.225868,0.02168337,-0.1135463,0.7980826,-10.63731,1
7848192,6763,5.33,-10.29,-9.73,4.18,5.29,11.43,17.64,-0.4171821,0.4552999,-0.0370443,0.08923171,1.137828,-9.562542,1
7953602,6671,5.43,-11.39,-11.36,4.75,6.97,11.32,17.03,-0.1061817,0.2660292,-0.1051954,-0.08860321,1.335414,-10.24492,1
8065425,6745,5.15,-11.26,-12.28,4.13,7.85,11.44,15.71,-0.0430437,-0.04311624,-0.1678512,0.4011119,1.671067,-9.708551,1
8283986,6812,4.36,-9.88,-10.29,2.21,2.94,11.81,14.61,0.154771,-0.3457729,-0.1473521,-0.1654917,1.446653,-10.13736,1
8392845,6510,4.78,-9.5,-8.83,1.77,1.26,11.88,13.92,0.2038763,-0.0408487,-0.1296355,0.2597772,1.107489,-10.41831,1
8501469,6604,4.32,-9.1,-8.2,2.07,1.47,11.83,13.78,0.02170371,0.1733946,-0.05977183,0.1952029,1.261201,-10.51909,1
8611257,6500,4.43,-8.5,-8.15,2.91,2.97,11.7,14.23,-0.02328365,0.2430154,0.02825913,0.5766878,1.076631,-9.861264,1
8720067,6336,4.71,-7.07,-7.62,2.72,3.41,11.72,14.86,0.2227778,-0.08839609,0.06503309,0.7062513,1.497306,-9.97089,1
8826745,6443,5.04,-5.52,-5.95,2.12,2.27,11.79,15.52,0.2548016,-0.1289528,0.09332789,0.2446402,1.006413,-10.02886,1
8944758,6548,5.02,-4.17,-3.9,1.78,1.21,11.82,15.72,0.2026886,-0.07119646,0.025601,-0.01333234,1.101362,-10.17333,1
9044730,6614,5.01,-3.68,-2.89,1.6,1.2,11.83,15.48,0.132812,-0.03688391,0.01666207,0.5059231,0.9903507,-10.20605,1
9163635,6621,4.61,-3.84,-2.92,1.15,0.75,11.86,14.81,-0.0613346,-0.05325831,0.02935913,0.2626533,1.212763,-10.25636,1
9271742,6548,4.24,-4.2,-3.75,0.94,0.77,11.88,14.72,-0.150296,-0.006254916,-0.02962666,0.4476151,1.065797,-9.486604,1
9372374,6411,4.47,-4.47,-4.49,1.04,1.32,11.87,14.95,-0.1128968,0.1033295,-0.02188906,-0.006574129,1.233841,-9.710091,1
9485451,6224,4.38,-4.48,-4.98,1.02,1.61,11.87,15.01,-0.05482201,0.01669112,-0.0643172,-0.0963986399999999,1.175696,-9.6147,1
9595598,6329,4.13,-4.28,-4.83,0.49,1.13,11.91,14.84,0.05546409,-0.03057401,-0.09232039,0.0140516,0.8581215,-9.278811,1
9697005,6338,3.64,-3.87,-5.04,-0.21,0.96,11.96,14.38,-0.07885205,0.03565888,-0.1229658,0.3705613,0.7640279,-8.661312,1
9802579,6115,4.01,-3.65,-4.82,-0.49,-0.1,11.98,14.15,-0.000937028,-0.1640668,-0.05197905,-0.1230756,1.271907,-9.404026,1
9921258,6161,3.94,-3.36,-4.45,-0.74,-0.45,12.0,13.79,0.03291635,-0.02268044,-0.02547511,0.01102653,0.7563465,-9.250311,1
10024397,6031,3.92,-3.02,-4.26,-0.82,-1.04,12.0,13.45,-0.001447896,-0.1222079,-0.03634811,-0.1139957,0.8041558,-9.278074,1
10132081,6150,3.86,-2.5,-3.85,-0.86,-1.22,12.0,13.27,0.07549402,0.05322174,0.003478504,-0.02861603,0.6346931,-9.00291,1
10245201,6009,4.22,-1.89,-3.18,-1.02,-0.77,12.01,13.47,0.09684067,0.08036691,0.07653072,-0.01116757,0.5756587,-9.328407,1
10354521,6093,4.22,-1.27,-2.86,-1.44,-1.04,12.02,13.9,0.01368746,-0.1482829,0.04683264,-0.2271339,0.4748773,-9.474319,1
10464496,6045,4.68,-0.85,-2.41,-1.75,-1.06,12.03,14.23,0.1095409,0.01018691,0.05437091,-0.05549707,0.7427466,-9.721704,1
10566758,6219,4.7,-0.75,-1.87,-0.9,-0.39,12.02,14.57,0.08227017,0.2229295,0.07077287,-0.2493309,0.5927193,-9.690891,1
10681523,6345,4.34,0.33,-1.48,-0.18,0.86,12.01,14.95,0.1367108,0.06727046,0.06588963,0.4134352,0.9046072,-9.941763,1
10787873,6380,4.92,2.22,0.56,0.29,0.1,12.02,15.05,0.4086639,-0.2333536,-0.001455419,0.1210182,0.6681288,-10.01365,1
10889253,6315,4.54,3.41,2.93,0.85,-0.25,12.05,14.67,0.294449,0.01399727,-0.09114786,0.1878344,0.2470916,-10.16099,1
11011982,6392,4.51,4.09,4.48,1.28,0.43,12.08,13.68,0.1574497,0.1038732,-0.1795474,0.2793064,0.4416098,-9.736078,1
11112595,6332,4.5,3.45,5.17,1.63,0.82,12.1,12.42,0.04088296,0.04617799,-0.2111039,0.05394845,0.4303158,-10.18442,1
11331258,6383,3.4,1.85,2.51,2.45,1.45,12.14,9.61,-0.214224,0.06872652,-0.1357258,0.1084415,0.7880048,-9.850186,1
11434751,5898,3.61,1.21,1.76,2.87,1.99,12.15,8.77,-0.03050149,0.1310141,-0.0703947199999999,0.5306453,0.5428249,-9.759897,1
11558482,5864,3.31,0.74,0.77,3.67,2.36,12.16,8.43,-0.1807823,0.1072927,0.04821471,0.1017956,0.6948831,-9.634622,1
11655423,5823,3.86,0.35,0.25,4.16,3.08,12.17,8.88,-0.0780415899999999,0.04132954,0.1404158,0.5387608,0.6169621,-9.548985,1
11759047,5900,3.86,-0.16,-0.6,4.83,3.29,12.17,9.73,-0.165817,0.04759279,0.1830064,0.5066681,0.6004698,-9.693751,1
11870295,5918,4.39,-0.7,-1.27,5.46,3.37,12.16,10.88,-0.06691269,0.105998,0.2117353,0.5313047,0.5701202,-9.713176,1
11979426,5983,4.41,-1.23,-1.62,5.83,3.92,12.16,11.91,-0.02312935,0.1092144,0.1849468,0.3296739,0.7214078,-9.921701,1
12092401,6126,4.79,-2.07,-1.77,6.08,4.21,12.15,12.66,-0.06347475,-0.0009412803,0.1008679,0.4238249,0.5609518,-9.932794,1
12190236,6270,4.5,-2.7,-2.18,5.82,4.22,12.16,12.99,-0.09584502,-0.03075411,0.03613409,0.607199,0.6858945,-9.641447,1
12310518,6220,4.38,-3.34,-2.96,4.81,3.51,12.21,13.41,-0.1346588,-0.1913778,0.02417655,0.5620492,0.7051473,-9.884387,1
12419231,6274,4.06,-3.64,-3.78,3.96,2.79,12.27,13.72,-0.07979102,-0.0890536299999999,0.01443124,0.3746606,0.9082554,-9.810775,1
12519469,6287,4.58,-3.77,-3.93,3.17,2.58,12.32,13.9,0.0820760299999999,-0.0200515,0.04290675,0.401978,0.8379666,-9.753256,1
12631286,6104,4.66,-4.19,-3.68,2.69,2.74,12.35,14.32,-0.1001862,0.07557575,0.08942405,0.3236677,0.3606186,-9.80995,1
12741427,6413,4.61,-4.98,-4.8,2.12,2.77,12.4,14.89,-0.1956777,-0.03026845,0.0978796599999999,0.509516,0.5019512,-9.786567,1
12960407,6398,4.51,-6.78,-6.54,1.09,1.72,12.51,15.67,-0.04968451,-0.1053806,0.03630198,0.2989076,0.9040775,-10.30694,1
13066450,6318,4.15,-6.83,-7.06,0.69,1.13,12.55,16.01,-0.02855979,-0.1363844,0.02709785,0.4061221,0.5770453,-9.781872,1
13179284,6213,4.54,-5.92,-6.75,0.47,0.54,12.58,16.36,0.140047,-0.03529098,0.0002791327,0.3270991,0.7868929,-9.592423,1
13277280,6356,4.8,-4.95,-5.27,-0.08,0.14,12.63,16.55,0.3938276,-0.09429686,0.03836685,0.4076812,0.8995451,-10.04107,1
13399746,6350,4.77,-4.27,-3.87,-1.11,-1.0,12.71,16.77,-0.06469929,-0.1500489,-0.006147096,0.2945789,0.6267037,-9.856556,1
13500050,6435,4.82,-4.37,-3.45,-1.81,-2.03,12.77,16.89,0.103294,-0.27027,-0.00359638,0.3499962,0.7010353,-9.401768,1
13610095,6372,4.63,-4.98,-4.74,-2.19,-1.97,12.8,16.9,-0.3674963,0.06342547,0.02778727,-0.178756,1.005905,-9.785665,1
13720782,6376,4.86,-5.42,-5.9,-2.39,-1.56,12.81,16.95,-0.1590987,0.03195835,0.069677,0.3355329,1.072875,-9.552956,1
13824397,6295,5.05,-5.67,-5.88,-2.32,-1.44,12.81,16.94,0.0815742899999999,0.06348777,-0.06753045,0.158128,1.083936,-9.729634,1
13932964,6512,4.48,-5.99,-5.86,-2.45,-0.74,12.82,16.57,-0.03466575,0.07670198,0.02763273,0.2564591,0.9207437,-9.918449,1
14041763,6469,4.61,-6.04,-5.88,-2.6,-0.7,12.84,16.48,0.06931033,-0.03376522,0.05489846,0.3819553,0.7996038,-9.623976,1
14150808,6429,4.38,-5.98,-5.98,-2.94,-1.35,12.87,16.63,-0.0999999699999999,-0.1808847,0.0279456,0.2516208,1.179127,-10.18549,1
14260374,6448,4.66,-5.49,-5.92,-4.26,-2.28,13.0,16.85,0.06776192,-0.2112794,-0.01347222,0.3590414,1.1727,-9.594614,1
14369995,6375,5.05,-5.33,-5.22,-6.1,-4.09,13.18,17.06,0.09790023,-0.3100877,-0.03862205,0.07353255,0.811443,-10.16882,1
14472513,6570,5.28,-5.15,-4.34,-7.46,-6.11,13.31,17.53,0.1333484,-0.3391694,0.0565825,0.003141438,0.8508998,-10.0969,1
14589496,6561,4.6,-4.92,-4.07,-8.39,-7.91,13.39,18.05,-0.1851975,-0.08986307,0.0720225699999999,0.0806061099999999,0.7387487,-10.1964,1
14692431,6598,5.55,-4.84,-4.49,-8.87,-8.74,13.43,18.44,-0.2488891,-0.0677432,0.04894616,-0.02230916,0.8216915,-9.808311,1
14802146,6487,5.1,-4.69,-5.44,-9.11,-8.66,13.45,18.91,0.05073455,0.0575947,0.08145643,0.1050022,0.8251508,-9.853867,1
14910242,6648,5.36,-4.4,-5.95,-9.06,-8.19,13.45,19.19,0.1620403,0.0831629599999999,0.08047631,-0.1340223,0.9327868,-10.07678,1
15023980,6542,5.16,-3.94,-5.57,-8.94,-7.46,13.44,19.12,0.01968494,0.1639686,0.001780752,0.09384937,0.8251658,-10.41867,1
15143083,6549,5.31,-3.42,-4.63,-8.78,-6.7,13.43,18.83,0.1529582,0.2160672,-0.04677804,0.03733903,0.8231101,-10.19629,1
15351980,6629,4.83,-3.3,-3.23,-8.48,-6.34,13.41,18.39,-0.2178731,-0.1068171,-0.04836947,-0.1072798,0.6956394,-10.73008,1
15452792,6667,4.74,-3.52,-3.12,-8.28,-6.65,13.4,18.12,-0.1508755,-0.06264173,-0.03389367,0.02206565,0.7389767,-10.06567,1
15567477,6538,4.68,-3.77,-3.58,-8.02,-6.73,13.38,17.71,0.05638591,0.05893497,-0.09263477,-0.1033954,1.143346,-9.626802,1
15671820,6455,4.63,-4.03,-3.92,-7.61,-6.75,13.35,17.22,0.02241203,-0.02418821,-0.0882410899999999,-0.2022347,0.8714199,-10.36822,1
15781499,6385,4.81,-4.08,-4.04,-7.05,-6.46,13.31,16.68,-0.08507357,0.08883765,-0.1197989,0.29655,0.5328745,-9.632513,1
15895497,6414,4.11,-3.93,-4.49,-6.4,-5.8,13.27,15.95,-0.07941308,0.2102499,-0.1006122,-0.1840944,0.89614,-9.348843,1
16003848,6426,4.69,-3.81,-4.32,-6.12,-4.78,13.25,15.27,0.09969678,0.1031535,-0.04284184,0.06752613,0.7836683,-9.963608,1
16110422,6386,4.36,-3.64,-3.7,-5.86,-4.0,13.23,14.77,0.07788858,0.1690157,-0.09306134,-0.084519,0.8895283,-9.841228,1
16228987,6478,4.31,-3.66,-3.16,-5.97,-3.64,13.24,14.16,-0.09434761,-0.08153508,-0.08420178,-0.02451844,0.6077576,-9.718141,1
16327618,6397,4.24,-3.67,-3.57,-5.68,-4.46,13.22,13.59,-0.1103932,-0.08534601,-0.1064929,-0.4939724,0.9806163,-9.975134,1
16438246,6265,3.66,-4.32,-4.81,-2.9,-2.47,13.01,12.8,-0.2750079,0.7786049,-0.07230891,-0.6156203,0.7956904,-9.883062,1
16546875,6129,3.98,-3.95,-5.56,-1.4,2.05,12.9,11.92,-0.1616535,0.5835187,-0.04528387,-0.1523485,0.6618226,-9.800713,1
16660563,6217,4.34,-3.21,-5.61,-0.54,4.06,12.85,11.6,0.09409036,0.1885083,0.0760517,-0.3805485,1.058344,-10.07778,1
16766428,6092,4.86,-3.36,-4.53,-0.57,3.53,12.85,12.07,0.112404,-0.1766762,0.09046575,-0.3500616,0.673143,-9.736563,1
16989869,6509,4.94,-4.33,-3.87,-0.06,1.57,12.82,13.54,-0.03811689,-0.0681810999999999,0.08280518,-0.333651,0.9848382,-10.00818,1
17102871,6760,4.9,-4.81,-4.49,0.23,1.68,12.79,13.96,-0.05732132,0.01839081,0.03123453,-0.1297189,0.9812499,-9.935433,1
17218512,6580,4.7,-5.0,-4.75,0.3,1.47,12.79,14.09,-0.02422969,0.01570877,0.03086609,-0.3514563,1.01131,-9.612712,1
17320727,6454,4.81,-4.69,-4.77,0.13,1.11,12.8,14.16,0.04758075,-0.1196339,0.01548595,-0.03289218,0.666189,-9.613402,1
17427387,6430,5.18,-4.29,-4.47,-0.16,1.24,12.82,14.19,0.09990635,-0.05064882,0.04344792,-0.248734,1.059546,-9.948504,1
17538766,6545,4.98,-3.99,-3.88,-0.54,1.25,12.85,14.11,0.02339197,0.05858259,-0.02759603,-0.3251692,0.8961697,-10.48276,1
17658082,6700,4.85,-3.87,-3.76,-0.88,0.42,12.88,13.99,-0.01911402,-0.1779872,-0.01693219,-0.163348,0.7027776,-9.48166,1
17764629,6515,4.78,-3.85,-4.46,-1.03,-0.37,12.89,13.77,-0.05546072,-0.1271606,-0.05532239,-0.3603702,0.9228145,-9.751189,1
17866609,6539,5.11,-3.91,-4.7,-1.11,-0.6,12.89,13.55,0.04451055,-0.01910831,-0.04541886,-0.2401724,1.017652,-9.764781,1
17976516,6503,5.17,-3.98,-4.17,-1.12,-0.48,12.89,13.29,0.08179109,0.007116371,-0.03129545,-0.1453193,0.9685544,-10.58749,1
18082779,6695,4.68,-3.95,-3.66,-1.03,-0.2,12.89,13.1,0.03840356,0.02849533,0.004977517,-0.4162501,0.7357373,-10.04636,1
18190393,6609,4.64,-3.97,-3.81,-1.03,-0.13,12.89,12.97,-0.1093307,0.07551207,-0.01834497,-0.04651905,0.8966877,-9.730087,1
18298753,6416,4.64,-3.99,-4.13,-1.15,-0.02,12.89,12.96,-0.05862709,-0.1046252,0.003832733,-0.08459005,0.8462389,-10.13423,1
18409411,6453,4.36,-3.35,-4.31,-1.16,-0.51,12.89,13.08,0.08503773,-0.0830513799999999,-0.003336607,-0.1927245,1.108372,-9.809305,1
18522045,6224,4.61,-1.73,-2.27,-1.2,-0.95,12.9,13.07,0.3919293,-0.1312236,0.01218565,-0.04808329,0.9016179,-9.954786,1
18634465,6410,4.17,-0.24,-0.07,-1.09,-1.17,12.9,13.07,0.2641588,0.02958459,0.001491656,-0.1203768,0.7436155,-9.347607,1
18732630,6244,4.31,0.67,1.26,-0.9,-1.07,12.9,13.06,0.1759981,-0.01044132,-0.01838811,-0.07964262,0.721382,-9.854503,1
18852093,6338,4.44,1.16,2.23,-0.58,-0.83,12.9,13.11,0.04797712,-0.04222514,-0.00714437,-0.1700346,0.6595894,-9.570414,1
18962270,6300,4.25,1.12,2.22,-0.32,-0.48,12.91,13.2,-0.03974473,0.02227233,0.02733894,-0.162114,0.7539057,-9.680253,1
19072642,6304,4.26,0.98,1.63,-0.09,-0.1,12.91,13.24,-0.127218,0.1105607,0.01257017,-0.1025752,0.8015022,-9.585636,1
19173441,6218,4.36,0.77,1.01,0.05,0.01,12.91,13.26,-0.1551056,-0.04976267,0.0268445,-0.6250066,0.8349868,-9.703292,1
19284648,6292,4.22,0.63,0.52,0.11,0.09,12.91,13.45,-0.09029461,-0.1227511,0.0211605,0.02206012,0.6598619,-9.611763,1
19393206,6389,4.81,0.19,0.01,0.24,-0.34,12.91,13.61,-0.06407943,-0.08302683,0.02771247,-0.5724431,0.7881954,-9.950708,1
19495997,6257,4.36,-0.42,-0.45,0.88,-0.08,12.91,13.87,-0.1445514,0.1603538,0.012409,-0.1934829,0.7153503,-9.985803,1
19604257,6271,4.4,-0.45,-1.16,1.44,0.76,12.91,13.99,-0.1053367,0.2007244,0.02091013,-0.1717945,0.7274473,-9.62464,1
19722741,6290,4.57,-0.08,-1.0,2.03,1.83,12.91,13.95,0.06284069,0.2638007,-0.003112673,-0.1330881,0.7107739,-9.797357,1
19941781,6495,4.58,1.07,0.03,2.74,3.06,12.91,13.98,0.04628465,0.1562276,0.04222986,-0.2890823,0.568512,-9.765939,1
20039364,6400,4.57,1.52,0.06,2.85,3.5,12.91,14.16,-0.08098436,0.09386872,0.04601413,0.003279351,0.4875227,-9.951731,1
20149475,6386,4.51,2.0,0.1,2.83,3.69,12.91,14.29,0.01683737,0.07022301,-0.01325948,-0.01481985,0.526058,-9.916513,1
20255455,6225,4.71,2.33,0.53,2.74,3.2,12.91,14.16,0.1017731,-0.1651955,-0.04422136,0.1262701,0.403249,-10.23975,1
20359635,6387,4.52,2.64,1.04,2.55,2.21,12.9,13.98,0.09891313,-0.1621452,-0.03246893,0.1179237,0.4932396,-9.827828,1
20569847,6440,4.46,3.04,1.61,2.65,1.31,12.91,13.75,0.1112146,-0.06571762,-0.01119836,0.0708617099999999,0.437883,-9.666421,1
20684632,6352,4.35,3.06,1.81,2.89,1.41,12.92,13.71,0.005549599,0.03171135,-0.005156951,-0.08240553,0.3871783,-9.696198,1
20904856,6234,4.54,3.07,1.75,3.48,2.5,12.95,13.47,0.01519604,0.03690626,-0.0172161,0.2059934,0.3765123,-9.88185,1
21014985,6344,4.49,2.94,2.0,3.64,2.43,12.96,13.35,0.06520442,-0.0104834,-0.0162378,0.1820985,0.3286486,-10.04692,1
21122846,6236,4.19,2.78,2.03,3.65,2.2,12.96,13.37,-0.01661556,-0.05015581,0.01150506,-0.01219751,0.4380302,-10.10359,1
21229381,6183,4.35,2.71,1.87,3.74,1.91,12.96,13.25,-0.04005899,-0.007269676,-0.03396187,0.0204602,0.4865926,-9.706894,1
21448450,6154,4.22,2.33,1.29,3.63,2.26,12.96,12.61,-0.02625502,0.00912951,-0.04581124,-0.0245813,0.4053594,-9.664221,1
21558231,6051,4.18,2.11,0.92,2.87,2.62,12.93,12.25,-0.07695355,-0.003907887,-0.06368454,0.2532738,0.3263191,-9.66785,1
21671752,6178,4.35,1.13,0.37,1.81,1.72,12.9,11.95,-0.1714617,-0.1648751,-0.04365165,-0.03766273,0.1705088,-9.663994,1
21769989,6114,4.02,-0.45,-1.31,1.13,1.0,12.89,11.84,-0.335073,-0.09139551,-0.0238633,0.06174717,0.3568836,-9.732471,1
21880871,6136,4.04,-1.8,-3.39,0.67,0.37,12.9,11.92,-0.2406907,-0.07076419,0.02108731,0.04925516,0.3795805,-10.07791,1
21990372,6055,4.05,-2.84,-4.61,0.49,-0.05,12.91,12.07,-0.1748316,-0.04952415,0.01464945,-0.04873861,0.4561701,-10.0176,1
22096426,6024,4.22,-3.3,-4.95,0.45,-0.11,12.91,12.43,0.01001024,-0.003367171,0.0705014499999999,0.09271223,0.6467742,-9.744473,1
22204394,5957,4.33,-3.36,-4.57,0.49,-0.19,12.91,13.01,0.1422577,-0.06260377,0.09161611,-0.02473965,0.3445347,-10.10891,1
22316648,6280,4.34,-3.34,-4.0,0.46,0.1,12.91,13.64,0.1157476,0.01614526,0.07501172,0.2328966,0.4884078,-9.985349,1
22433082,6239,4.25,-3.14,-3.54,0.48,0.09,12.91,14.15,0.04073701,0.07200665,0.07612562,0.1895296,0.5978429,-9.7547,1
22538223,6310,4.44,-3.26,-3.29,0.44,-0.23,12.91,14.4,-0.01973726,-0.08924478,0.03072964,0.1184919,0.5440317,-10.00248,1
22642788,6271,4.51,-3.48,-3.42,0.4,-0.54,12.91,14.45,-0.003006874,-0.07589021,-0.01122599,0.2268706,0.4473819,-9.687444,1
22743056,6267,4.38,-3.67,-3.63,0.39,-0.68,12.91,14.39,-0.09334259,0.03864732,-0.009466577,0.01830024,0.4557144,-9.818619,1
22858979,6130,4.45,-3.82,-3.61,0.46,-0.5,12.91,14.28,0.04928317,0.07483009,-0.02705708,0.02619769,0.3489193,-9.791238,1
22961014,6154,4.27,-3.97,-3.68,0.51,-0.12,12.91,13.99,-0.0307812,0.0600119,-0.05978941,0.137114,0.4367624,-10.15895,1
23077278,6113,4.41,-4.13,-3.63,0.56,0.2,12.9,13.72,0.0130786,0.03763083,-0.02952181,0.1163807,0.4393787,-9.78938,1
23185213,6248,4.52,-4.33,-3.71,0.72,0.35,12.89,13.48,-0.06765798,0.05291613,-0.02059026,-0.1574608,0.6028098,-9.876535,1
23296246,6135,4.59,-4.68,-3.56,0.6,0.61,12.9,13.2,-0.002730649,0.05104677,-0.04009512,0.346294,0.6276774,-9.905719,1
23414902,6300,4.18,-4.99,-3.67,0.36,0.22,12.92,13.02,-0.08053325,-0.1219199,-0.004749406,-0.1696302,0.7553668,-10.05906,1
23515018,6314,4.83,-5.95,-4.12,0.2,-0.11,12.94,13.11,-0.1450649,-0.1112065,0.006739678,0.2356567,0.3892674,-9.764246,1
23620546,6473,4.86,-8.21,-5.72,-0.03,-0.18,12.97,13.36,-0.3970256,0.03778495,0.03939166,0.1094792,0.3115742,-9.923139,1
23732742,6507,4.52,-10.69,-8.84,-0.41,-0.02,13.03,13.7,-0.4017526,0.07639846,0.0552856,0.1923065,0.7508442,-9.693233,1
23837839,6347,4.87,-11.73,-11.1,-0.59,0.08,13.07,14.19,-0.265925,0.02077417,0.0918334299999999,-0.3251475,0.9121059,-10.16565,1
23941032,6404,4.85,-11.6,-11.51,-0.76,0.25,13.1,14.7,0.04641392,0.04310571,0.08744288,-0.0784393699999999,1.112218,-9.922836,1
24049856,6500,5.19,-10.86,-10.36,-0.9,0.31,13.13,15.12,0.236244,-0.03049749,0.0630811399999999,-0.1689857,0.7775678,-10.21919,1
24156054,6500,4.97,-9.99,-8.92,-1.26,0.38,13.2,15.39,0.1918869,-0.07513766,0.04140601,0.3140278,0.7297878,-9.933651,1
24269479,6541,5.1,-9.18,-7.67,-1.49,-0.18,13.23,15.76,0.2186134,-0.1505357,0.04002535,-0.06919599,0.7098683,-10.52569,1
24367734,6668,4.76,-8.68,-7.25,-1.5,-1.22,13.24,16.03,0.05379669,-0.2051204,-0.02126559,0.0185692,0.6777617,-9.880572,1
24480418,6512,4.81,-8.14,-6.84,-1.4,-1.91,13.22,16.1,0.1431963,0.01209314,-0.0403253,0.01206455,0.7491336,-9.535033,1
24589281,6487,4.67,-7.84,-5.92,-1.12,-1.82,13.18,15.81,0.2342188,0.07602511,-0.04629318,-0.2020317,0.7700935,-9.914412,1
24693230,6538,4.37,-7.55,-5.77,-0.95,-1.11,13.16,15.32,0.03932374,0.2467392,-0.04491081,-0.2135467,0.815565,-9.496647,1
24818037,6349,4.46,-7.27,-6.42,-0.92,-0.42,13.15,14.71,-0.02835554,0.03275087,-0.08583432,-0.08486836,1.115872,-9.541786,1
25032892,6376,4.73,-3.15,-2.76,-0.87,-0.28,13.15,14.12,0.540766,-0.003321364,-0.01794144,0.1111684,0.9678522,-9.606268,1
25131013,6236,4.88,-1.02,0.5,-0.86,-0.46,13.15,13.92,0.5595282,-0.05017625,-0.06007345,-0.0673328599999999,0.7689683,-9.824494,1
25243092,6401,4.35,0.05,2.71,-0.84,-0.76,13.15,13.62,0.07129824,-0.1182655,-0.03688511,0.1667266,0.5403485,-9.81127,1
25352421,6260,4.27,0.09,2.45,-0.73,-1.27,13.15,13.18,-0.2354622,0.02466151,-0.08242533,0.01934161,0.3825927,-9.856708,1
25466826,6294,4.36,-0.22,1.06,-0.71,-1.04,13.15,12.84,-0.1783176,0.1106305,-0.04220328,-0.1209899,1.05075,-9.709287,1
25578586,6342,4.36,-0.47,-0.17,-0.8,-0.19,13.15,12.77,-0.1410826,0.009086599,0.02276772,-0.01332359,0.8580982,-9.867374,1
25784860,6217,4.7,-0.42,-0.42,-1.46,-0.12,13.16,13.21,-0.0295216,-0.1250442,0.06900845,-0.3535824,0.7944493,-10.11444,1
25888741,6300,5.11,-1.87,-0.64,-1.77,-1.06,13.16,13.46,-0.1575734,-0.1659085,0.05334289,-0.2955126,0.3900716,-10.05895,1
25997972,6601,4.36,-3.25,-2.56,-1.95,-1.81,13.17,13.64,-0.285509,-0.104221,0.01451938,-0.09076773,0.5472282,-9.849425,1
26112606,6396,4.4,-4.18,-4.36,-1.87,-1.79,13.16,13.75,-0.2356581,0.0948698999999999,0.025777,-0.2906441,0.8241568,-9.455159,1
26223489,6337,4.7,-4.57,-5.31,-1.74,-1.33,13.15,13.67,-0.08345826,0.0646907199999999,-0.01314348,-0.08178189,0.6282759,-9.467268,1
26329043,6183,4.54,-4.57,-5.47,-1.7,-0.58,13.15,13.54,0.0003735713,0.124955,-0.002695837,-0.1323977,0.8419741,-9.864149,1
26436239,6312,4.62,-4.41,-5.12,-1.74,-0.19,13.15,13.59,0.08890302,-0.04203442,0.02187973,-0.01893075,0.8395639,-9.747514,1
26536837,6301,4.64,-4.22,-4.77,-1.85,-0.08,13.16,13.82,0.0425766,0.03493706,0.03152655,0.1617062,0.5752336,-9.591599,1
26654840,6377,4.97,-4.07,-4.06,-1.99,-0.51,13.17,14.18,0.05584034,-0.1301505,0.01533189,-0.1192445,0.5738335,-10.33692,1
26757242,6469,4.64,-3.99,-3.77,-2.08,-0.97,13.18,14.29,0.07421329,-0.01513152,-0.05441543,-0.01225012,0.9231733,-10.29641,1
26864763,6439,4.33,-4.0,-3.84,-2.04,-1.22,13.18,14.53,-0.07484224,0.01175033,0.06697623,-0.1758418,0.5744356,-10.10352,1
26971253,6316,5.22,-4.52,-4.46,-1.87,-0.96,13.16,15.16,-0.1024895,-0.0225979,0.1206477,0.084838,0.5696549,-9.828177,1
27197373,6495,5.0,-7.36,-7.35,-1.33,-0.82,13.11,15.68,-0.09443173,0.003791456,-0.008922311,0.007653655,0.9946001,-10.09421,1
27294066,6401,4.75,-7.51,-7.78,-1.14,-1.12,13.08,15.51,0.03248261,0.004823077,-0.02343707,-0.2140839,0.9922611,-9.870006,1
27421641,6542,4.67,-7.09,-7.16,-1.01,-1.05,13.07,15.11,0.1495096,0.06978432,-0.07766018,-0.1824637,0.674992,-9.823006,1
27516781,6609,4.61,-6.64,-6.31,-0.86,-0.95,13.05,14.75,0.150096,0.05687211,-0.08504083,-0.1684509,0.6065673,-10.14055,1
27629499,6529,4.48,-6.05,-5.78,-0.68,-1.03,13.03,14.27,0.07319847,-0.02698437,-0.06206892,-0.2685558,0.8078222,-10.23918,1
27746720,6337,4.59,-5.66,-5.07,-0.57,-1.04,13.02,13.71,0.01151721,-0.0765657399999999,-0.06702793,-0.1330462,0.6981326,-9.802273,1
27849588,6288,4.32,-5.41,-4.61,-0.39,-1.21,13.0,13.19,0.01874474,-0.03165441,-0.0819264,0.2738914,0.5523504,-9.969549,1
27959397,6307,3.68,-4.97,-5.48,-0.21,-0.97,12.98,12.84,-0.149189,0.01228808,0.002966927,0.02401367,1.162799,-9.167392,1
28063987,6093,4.82,-4.59,-5.5,0.15,-0.11,12.95,12.73,0.1283425,0.1643548,0.03332321,-0.2596872,1.108054,-9.724495,1
28168380,6263,5.02,-3.85,-4.13,1.11,0.86,12.88,12.74,0.3270618,0.2203405,0.02502788,0.1576032,1.037762,-9.698875,1
28277733,6572,5.07,-3.26,-2.28,2.38,2.14,12.8,12.96,0.236056,0.2127174,0.0761387699999999,0.1763788,0.6533051,-10.17318,1
28500360,6659,4.5,-3.2,-2.01,3.74,3.39,12.73,13.57,-0.06260263,-0.01691282,0.03095305,0.3214154,0.6748999,-9.79876,1
28612808,6325,4.29,-3.4,-3.1,3.98,3.29,12.71,13.47,-0.1162867,0.02567829,-0.01913233,-0.005125785,0.728273,-9.828508,1
28717872,6307,4.63,-3.47,-3.85,3.95,3.9,12.72,13.27,-0.05891093,0.1375848,-0.02138115,-0.05027054,0.779997,-9.856216,1
28827511,6386,4.52,-3.28,-3.83,3.87,4.31,12.72,13.1,0.002408005,0.04508033,-0.01927785,0.2862571,0.6686246,-9.864283,1
28933510,6257,4.63,-2.95,-3.57,3.72,4.07,12.73,13.09,0.1014057,-0.07277466,0.03065304,0.348605,0.6853319,-9.514488,1
29044440,6269,4.75,-2.71,-2.93,3.55,3.48,12.74,13.21,0.1579022,-0.1266989,0.03768728,0.1844928,0.5721796,-9.465172,1
29152016,6438,4.58,-2.34,-2.46,3.51,2.66,12.74,13.24,0.05481082,-0.1450122,-0.01258355,-0.008795491,0.7570355,-9.509599,1
29376932,6355,4.57,-1.7,-1.6,4.01,2.1,12.72,13.4,0.007724202,0.008743483,0.01029058,0.2482053,0.5392033,-9.696431,1
29488956,6307,4.59,-1.44,-1.31,4.24,2.61,12.72,13.63,0.05824125,0.08249358,0.04200893,0.214767,0.6170898,-9.774765,1
29589410,6250,4.63,-1.28,-1.31,4.18,2.92,12.72,13.89,0.03075523,-0.003041529,0.04578237,0.1290024,1.010384,-10.08524,1
29706752,6472,4.87,-1.17,-1.14,3.94,3.06,12.72,14.24,0.03185009,-0.004254765,0.061718,0.2407916,0.6801889,-9.951466,1
29808256,6485,5.01,-1.28,-0.99,3.65,2.79,12.73,14.5,-0.05148995,-0.06147848,0.001571317,0.3748342,0.5322806,-9.628546,1
29909854,6485,4.84,-1.66,-1.04,3.49,2.29,12.73,14.64,-0.01133134,-0.06233304,0.01104467,0.244742,0.7306637,-10.07397,1
30024354,6497,4.95,-2.1,-1.46,3.62,2.24,12.73,14.53,-0.03265032,0.07442022,-0.0371451,0.02001355,0.5615111,-9.638318,1
30136457,6451,4.65,-2.43,-2.07,3.76,2.33,12.72,14.34,-0.1060852,-0.002375716,-0.04747342,0.1196024,0.802958,-9.966619,1
30239853,6398,4.74,-2.54,-2.25,4.04,2.7,12.71,13.88,-0.0805631099999999,0.1207066,-0.08359899,0.09954332,0.8112738,-10.00842,1
30356487,6304,4.33,-2.43,-3.11,4.21,3.56,12.7,13.22,-0.09537327,0.1893066,-0.05103696,-0.02708158,0.8394799,-9.845561,1
30467805,6220,4.87,-2.39,-3.03,4.31,3.84,12.7,12.9,0.01206008,-0.03300446,-0.02360501,0.1381195,0.7358232,-10.09243,1
30570581,6428,4.59,-2.18,-2.82,4.27,3.72,12.7,12.96,-0.04716481,-0.02387421,0.03147563,0.1773335,0.6449821,-10.14354,1
30787403,6428,4.82,-1.9,-2.33,4.0,3.24,12.71,13.49,0.1251407,-0.04770066,0.05245948,0.2148191,0.5717602,-9.626797,1
30899481,6455,4.97,-2.03,-2.26,3.93,3.18,12.71,13.76,-0.01442445,0.001858012,0.04315474,0.1577475,0.7035117,-10.25778,1
31008096,6443,4.75,-2.29,-2.41,4.04,3.11,12.71,14.07,-0.02682993,-0.01590127,0.02464533,0.3331164,0.5128729,-9.828317,1
31116764,6474,4.73,-2.4,-2.85,4.05,3.22,12.71,14.32,-0.09701021,9.741095e-05,0.01933143,0.3489651,0.5787402,-9.86721,1
31230847,6335,4.53,-2.35,-3.4,4.04,3.39,12.71,14.36,-0.0459297,0.04017864,0.01255704,0.3130262,0.7260938,-9.755264,1
31337869,6284,4.42,-2.27,-3.27,4.1,3.5,12.71,14.3,0.04221008,0.06408358,-0.01895604,0.3600052,0.5372818,-9.762285,1
31454774,6400,4.49,-1.98,-3.05,4.2,3.64,12.7,14.13,0.05523175,0.08171568,-0.05120115,0.1638619,0.5480894,-9.965031,1
31551752,6234,4.63,-1.78,-2.79,4.06,3.54,12.71,13.92,0.1095003,-0.01452527,-0.06511182,0.2880383,0.5487934,-9.839055,1
31673374,6305,4.43,-1.52,-1.98,3.97,2.85,12.71,13.6,0.1527667,-0.1735979,-0.0822325899999999,0.5295896,0.5159123,-10.13441,1
31770743,6254,4.17,-1.22,-1.55,3.96,2.21,12.71,13.19,0.0638064899999999,-0.1040922,-0.09845404,0.2333573,0.5857101,-9.822488,1
31883604,6222,4.12,-1.08,-1.33,4.11,2.05,12.71,12.67,0.02784153,-0.02141496,-0.06942222,0.317164,0.7087115,-9.793321,1
31993041,6165,4.37,-1.07,-1.36,4.59,2.43,12.7,12.36,0.07852385,0.09170467,-0.01770286,0.6283295,0.4018354,-9.491178,1
32107565,6153,4.25,-1.2,-1.41,5.02,2.84,12.69,12.19,-0.01419817,-0.002986711,-0.01236876,0.4067829,0.6030206,-10.06245,1
32217966,6293,4.53,-1.46,-1.09,5.49,3.07,12.68,12.03,-0.02562812,0.06799863,-0.008562877,0.2341948,0.4586823,-9.81064,1
32318215,6175,3.97,-1.74,-1.35,5.72,3.34,12.67,11.97,-0.1023838,0.01722512,0.007300347,0.4157212,0.5106707,-9.67161,1
32532073,6085,4.14,-2.62,-2.82,6.46,4.14,12.64,12.13,-0.1139814,-0.01865632,-0.005264547,0.7404189,0.8383752,-9.593052,1
32753735,6106,4.52,-3.14,-2.14,6.86,5.16,12.03,12.71,-0.1101265,0.09239674,0.05484508,0.6396219,0.6353101,-9.489791,1
32858886,6221,5.37,-3.46,-2.38,6.96,5.12,9.78,12.86,-0.02477013,-0.01396041,-0.02425705,0.6775817,0.4745065,-10.07814,1
32964469,6422,5.3,-4.06,-2.57,6.55,4.89,7.14,12.0,-0.003720129,-0.09188148,-0.2337723,0.3920099,0.5875486,-9.856212,1
33076449,6602,4.78,-4.11,-3.37,6.11,4.44,6.65,10.19,0.02300672,-0.2125206,-0.2653628,0.5329762,0.7227683,-9.536674,1
33185065,6458,4.49,-4.0,-3.51,5.7,4.13,6.67,8.59,-0.07421242,-0.07653299,-0.1988496,0.4183405,0.752358,-10.0359,1
33288267,6289,4.73,-3.93,-2.98,5.28,4.14,6.7,7.56,0.07054275,-0.005763832,-0.1384233,0.3970459,0.6980376,-9.744283,1
33407272,6457,4.21,-3.71,-3.24,4.1,3.44,6.78,7.03,0.009089508,-0.2986053,-0.04252105,0.9475051,0.8799228,-10.02954,1
33510521,6144,4.37,-3.78,-3.2,3.44,1.93,6.83,6.91,-0.00154837,-0.1286267,-0.01537744,0.4086725,0.4951807,-9.754989,1
33620225,6174,4.57,-3.83,-3.08,3.29,1.33,6.84,6.79,0.0990225899999999,0.0637423399999999,-0.01864014,0.3016208,0.7346688,-10.46721,1
33720480,6214,4.43,-4.03,-2.91,3.39,1.84,6.83,6.62,0.04211452,0.2556563,-0.01280677,0.4113768,0.6186579,-9.796776,1
33837220,6242,4.67,-4.34,-3.21,3.48,3.36,6.82,6.45,-0.03267545,0.2175194,0.04213379,0.5685871,0.743092,-9.543977,1
33946985,6242,4.61,-4.58,-3.72,3.32,4.35,6.84,6.9,-0.01193037,0.1222969,0.1371016,0.3978635,0.9791368,-9.941459,1
34054474,6254,4.8,-4.72,-4.07,3.02,4.54,6.86,7.9,-0.113314,0.01029358,0.2282933,0.5938274,0.7690284,-9.771439,1
34163410,6425,5.01,-4.67,-4.31,2.26,4.13,6.92,9.15,-0.003531526,-0.08323094,0.1694343,0.1827326,0.9356296,-10.09666,1
34271428,6419,5.18,-4.71,-4.25,1.12,3.39,7.02,10.28,-0.008614606,-0.1120707,0.1828618,0.05528552,0.712014,-10.06181,1
34385026,6664,5.16,-4.65,-4.72,-0.12,2.14,7.12,11.27,0.04839394,-0.3254774,0.1027324,0.163886,0.9212161,-9.998529,1
34490999,6461,5.18,-4.58,-4.77,-1.03,0.24,7.19,12.06,-0.0003475744,-0.4459146,0.08541952,0.6277804,0.8731412,-10.03966,1
34608602,6543,4.56,-4.35,-4.58,-1.44,-1.79,7.23,12.45,0.06832711,-0.1881184,0.006128587,0.3383509,0.6532827,-9.21266,1
34708952,6402,4.72,-4.29,-5.02,-1.51,-1.73,7.23,12.28,-0.02653973,0.1345727,-0.05903172,0.6111495,0.8022099,-9.414818,1
34827035,6497,5.08,-4.34,-5.25,-1.54,-1.08,7.23,11.98,0.05156451,0.1369513,-0.05878637,0.2070465,1.026021,-9.797553,1
34932470,6482,5.53,-4.35,-4.82,-1.8,-0.16,7.25,11.67,0.0868333,0.2006116,-0.03605434,0.3825362,0.6198628,-9.89814,1
35040423,6626,5.11,-4.22,-4.43,-2.91,-0.51,7.34,11.34,0.008073777,-0.1830206,-0.05723735,0.4538337,0.9122972,-10.09741,1
35149369,6589,4.93,-4.06,-4.3,-4.64,-2.29,7.46,11.04,-0.0316967,-0.219912,-0.08302948,0.1019876,0.9448467,-10.52757,1
35252656,6448,4.94,-4.03,-4.14,-5.92,-3.98,7.55,10.75,0.03814359,-0.1566367,-0.04678245,-0.131227,0.9067858,-10.01783,1
35365642,6563,4.92,-4.04,-4.41,-6.98,-4.9,7.63,10.38,-0.1448461,-0.0958808399999999,-0.09377351,0.200987,0.9640813,-10.02299,1
35476292,6469,5.04,-4.36,-4.18,-7.62,-5.13,7.67,9.93,0.002621728,0.06960077,-0.03964017,-0.07573882,0.8707005,-9.774229,1
35577764,6624,4.7,-4.58,-4.28,-8.11,-5.54,7.71,9.52,-0.08055805,-0.1092834,-0.08196515,0.1376522,0.7981557,-9.801797,1
35692373,6446,4.88,-4.95,-4.81,-8.53,-5.71,7.75,9.02,-0.1499906,0.03826242,-0.07259846,0.2109879,0.8709906,-9.612538,1
35804831,6519,5.09,-5.35,-4.89,-8.69,-6.03,7.76,8.68,0.04594726,-0.007559435,-0.01111155,-0.2672976,1.152159,-9.9597,1
35904391,6571,4.85,-5.52,-5.04,-8.63,-6.17,7.76,8.48,-0.05674331,-0.0507526,0.003579312,0.06464975,0.8159599,-10.3617,1
36023091,6575,4.95,-5.66,-5.11,-8.32,-6.1,7.73,8.3,0.009229767,0.03410315,0.004378555,-0.04137367,0.8601133,-10.01297,1
36122652,6478,4.93,-5.63,-5.08,-8.25,-5.87,7.72,8.28,-0.04163769,-0.01442262,0.05056106,-0.1896428,1.009167,-10.07482,1
36236423,6623,4.8,-5.4,-5.05,-7.2,-5.3,7.62,8.21,-0.01556371,0.30086,0.01468625,-0.6397117,1.092137,-10.23068,1
36342890,6552,4.6,-5.12,-4.88,-5.91,-3.14,7.5,7.88,-0.01540136,0.3516446,-0.01342604,-0.449002,1.101943,-9.985439,1
36448457,6457,4.74,-4.81,-4.92,-5.06,-1.66,7.42,7.72,0.04992513,0.1727159,0.01523661,-0.02798172,0.7210292,-9.729091,1
36556487,6455,4.53,-4.53,-5.12,-4.72,-0.91,7.39,7.72,0.005886558,0.0008801185,0.05973982,-0.01985118,0.9370878,-9.878255,1
36672007,6439,4.93,-4.45,-4.9,-4.57,-1.19,7.38,7.8,0.02919092,-0.1071156,-0.0445203,-0.0936309,0.8992919,-9.489098,1
36779425,6580,5.71,-5.2,-4.55,-4.47,-1.93,7.38,7.83,0.0635559599999999,-0.0683966,0.02255756,0.0414825,0.7556943,-9.778979,1
36889532,6798,4.84,-7.01,-5.75,-4.13,-2.49,7.34,7.96,-0.3869225,0.003773222,0.04964206,-0.4114539,0.7782373,-10.46298,1
37002064,6608,4.34,-8.61,-7.96,-3.89,-2.08,7.3,7.97,-0.2363323,-0.02064232,-0.005597184,-0.26062,1.026477,-9.389553,1
37109101,6407,4.46,-9.44,-10.14,-3.51,-2.07,7.24,7.64,-0.2414106,-0.06998978,-0.0322942,-0.04428994,1.150862,-10.1218,1
37223046,6320,4.53,-9.81,-10.61,-3.03,-2.41,7.16,7.12,0.003989641,0.01179526,-0.1037388,-0.508355,0.9696187,-10.37779,1
37321632,6369,4.36,-9.84,-10.26,-2.67,-2.23,7.1,6.56,0.02770126,0.006285307,-0.08003812,-0.3412513,1.103826,-10.46202,1
37437852,6194,4.12,-9.77,-9.91,-2.2,-1.49,7.02,5.93,-0.05546996,0.2043565,-0.07983781,-0.1828164,1.128969,-9.912766,1
37538016,6273,4.25,-9.61,-9.69,-1.87,-1.06,6.96,5.61,0.08195628,0.07484436,-0.01773042,-0.2400482,1.09053,-9.558895,1
37647781,6301,4.13,-9.26,-9.29,-1.74,-0.84,6.94,5.29,0.1167544,-0.01826864,-0.02949041,-0.0805980699999999,1.029548,-9.160263,1
37754092,6324,4.56,-9.21,-8.8,-1.61,-0.97,6.92,4.94,0.04628251,-0.02865145,-0.0302566,-0.2594264,0.9606467,-10.12399,1
37867875,6277,4.1,-9.08,-8.83,-1.57,-0.57,6.91,4.57,-0.005198121,0.1030589,-0.02838402,-0.7873029,0.969756,-9.665528,1
37978551,6334,4.26,-9.16,-8.85,-1.67,0.03,6.93,4.35,0.002347501,0.0664546,0.0002999397,-0.03649008,1.27917,-9.05984,1
38078091,6256,4.17,-9.31,-9.12,-1.79,0.06,6.95,4.24,-0.06436763,-0.0392416,-0.04520252,-0.1332526,1.153781,-9.309414,1
38194776,6222,4.41,-9.51,-9.49,-1.91,-0.58,6.97,4.4,-0.04778159,-0.1377177,-0.0005407235,-0.3133497,1.36237,-9.692888,1
38305480,6340,4.44,-9.48,-9.68,-2.09,-0.97,7.0,4.57,-0.03949964,-0.06463058,0.02548312,-0.4763842,1.244247,-9.654525,1
38408639,6317,4.63,-9.48,-9.31,-2.19,-1.21,7.01,5.06,0.0795497399999999,-0.06423087,0.1186602,-0.3111656,0.6709062,-10.55008,1
38525807,6443,4.3,-9.33,-8.91,-1.82,-1.64,6.95,6.25,0.06490938,-0.1111989,0.1789038,-0.2763902,1.181347,-9.698134,1
38628772,6268,4.77,-9.17,-8.69,-1.48,-1.76,6.9,7.09,-0.007613242,-0.01633572,0.128156,-0.3582943,1.195269,-9.6469,1
38734287,6416,4.95,-9.61,-8.92,-1.17,-1.43,6.85,7.46,-0.1961685,0.1490575,0.01840239,-0.01334265,1.088121,-9.327803,1
38950085,6473,5.13,-9.84,-9.51,-0.85,-0.7,6.79,7.37,0.05050914,-0.01689759,-0.0457916,-0.4225498,1.148219,-9.857351,1
39056586,6545,4.84,-9.69,-9.33,-0.87,-0.64,6.79,7.04,0.05425197,0.004830036,-0.08621328,-0.2441638,1.248235,-10.04619,1
39160828,6581,4.85,-9.36,-9.14,-0.94,-0.81,6.81,6.65,0.03311694,-0.04531036,-0.04939624,-0.1945199,1.139321,-9.754991,1
39267044,6526,4.92,-9.29,-8.6,-0.89,-1.25,6.8,6.45,0.1172857,-0.1388595,-0.0704410199999999,-0.2485464,1.021301,-10.29202,1
39376405,6497,4.55,-9.19,-8.63,-0.76,-1.37,6.78,6.32,-0.05184618,0.02137502,-0.0188224,-0.3109153,1.354946,-9.79786,1
39482248,6406,4.53,-9.11,-8.64,-0.65,-0.94,6.76,6.2,-0.006335749,0.08979046,-0.006309459,-0.212254,1.156965,-9.819098,1
39591801,6574,4.62,-8.87,-8.41,-0.54,-0.35,6.74,6.09,0.04661204,0.0568225,0.05096142,-0.2084151,1.366579,-10.23833,1
39703589,6596,4.23,-8.49,-7.74,-0.42,-0.59,6.72,6.23,0.01066364,-0.07477837,0.0225326,-0.08347967,1.32988,-10.4059,1
39924502,6408,4.34,-7.97,-7.49,0.03,-1.38,6.66,6.44,0.05785808,0.1579755,0.0004854714,-0.1894285,1.010081,-9.486885,1
40138273,6299,4.78,-6.26,-7.28,0.53,-0.03,6.59,5.92,0.1312737,0.0002807426,-0.06004813,-0.3250318,0.8613266,-9.921938,1
40248250,6273,4.46,-4.58,-5.81,0.45,0.42,6.6,5.66,0.3293964,0.02398757,-0.03752999,-0.5375239,1.174446,-10.06289,1
40358410,6316,4.99,-2.81,-3.09,0.28,0.62,6.69,5.59,0.4370304,-0.0352037,0.006244111,0.1800187,1.012867,-9.821912,1
40470484,6538,4.2,-1.72,-1.02,0.19,0.48,8.65,5.73,0.1822462,-0.06694443,0.05099342,-0.02121139,0.7516164,-10.20985,1
40579385,6363,3.51,-1.31,-0.54,0.09,0.13,11.62,6.68,0.01374543,-0.04385098,0.246728,-0.2947583,1.078642,-9.848814,1
40689833,6088,4.2,-1.28,-0.76,-0.13,0.0,12.57,8.53,-0.03647841,-0.02328828,0.3103334,-0.3387751,0.8360702,-10.10412,1
40798452,6159,4.61,-1.42,-0.97,-0.32,-0.49,12.57,10.47,-0.0663646299999999,-0.1963136,0.2724908,-0.3655489,0.9969708,-9.934637,1
40909282,6420,4.9,-1.46,-1.27,-0.46,-0.88,12.57,12.1,0.05972685,-0.008345271,0.258194,-0.4069997,1.00534,-10.2266,1
41008430,6361,4.89,-1.45,-1.36,-0.86,-1.1,12.59,13.25,-0.01977284,-0.02710826,0.1444428,-0.03472355,0.8956691,-9.81956,1
41128354,6467,5.03,-1.18,-1.72,-2.04,-2.18,12.61,14.24,0.01034391,-0.08944347,0.1277719,-0.2268244,0.8563431,-9.659607,1
41238292,6564,5.32,-1.16,-1.44,-2.95,-3.71,12.63,14.83,0.1209095,-0.285566,0.05625135,-0.04814288,0.871685,-9.335256,1
41346494,6630,5.09,-1.04,-1.38,-3.51,-4.64,12.64,15.16,-0.08151181,-0.1477158,-0.006166246,-0.2587115,0.7409269,-10.12166,1
41458500,6668,5.1,-0.98,-1.48,-3.81,-4.51,12.65,15.13,-0.0970929299999999,0.0804719099999999,0.007264591,-0.2604686,0.8759562,-9.978184,1
41554915,6642,5.04,-0.93,-1.44,-3.83,-4.32,12.65,15.02,-0.02206898,0.07326725,0.003501542,-0.2911414,0.8748191,-9.950562,1
41674743,6646,5.01,-0.91,-1.36,-3.9,-3.68,12.65,14.72,0.0552435,0.04786859,-0.05334572,-0.2735326,1.0508,-10.26041,1
41782470,6676,5.02,-1.05,-0.98,-3.98,-3.68,12.65,14.46,-0.0212124,-0.0370987,-0.04147755,-0.1011931,0.7295787,-10.21378,1
41887465,6585,4.62,-1.13,-1.2,-3.97,-3.83,12.65,14.07,-0.07193615,0.02992284,-0.1069899,-0.2507568,0.9005373,-9.725139,1
41990680,6466,4.59,-1.33,-1.51,-4.04,-3.74,12.65,13.65,-0.09940299,0.09185289,-0.1082238,-0.3390116,0.9350991,-10.00568,1
42094601,6370,4.46,-1.52,-1.93,-4.12,-3.34,12.65,13.0,-0.01015304,0.09613334,-0.1035619,-0.1793763,0.836128,-9.561661,1
42218866,6318,4.31,-1.61,-2.38,-4.13,-3.34,12.65,12.31,-0.05791989,-0.07662163,-0.0775903,-0.3498805,0.9418464,-9.707709,1
42314588,6445,4.71,-2.3,-2.49,-3.28,-3.33,12.62,11.89,-0.1600571,0.1361362,-0.05330899,-0.3437619,0.5885028,-9.881866,1
42431407,6505,4.49,-3.68,-3.49,-2.21,-2.21,12.57,11.58,-0.1234841,0.2418713,-0.04169651,-0.1426577,0.9051385,-10.04898,1
42543196,6417,4.25,-5.72,-5.73,-1.02,-0.82,12.47,11.19,-0.3887356,0.1183247,-0.03154713,-0.2220442,1.099901,-9.577386,1
42648408,6449,4.72,-7.19,-7.43,-0.38,0.16,12.4,11.03,-0.2772294,0.2133537,0.01076283,-0.1060405,0.657395,-9.758678,1
42763466,6328,4.6,-8.0,-8.25,-0.1,0.34,12.36,11.16,0.02117299,-0.08663905,-0.001916994,-0.07009747,1.076725,-9.485613,1
42980835,6334,4.52,-8.17,-8.19,-0.11,-0.13,12.37,11.41,0.08353443,-0.04357607,-0.02078844,0.003443033,0.9777309,-9.503454,1
43196994,6462,4.5,-7.62,-7.49,-0.04,-0.36,12.35,11.54,0.01438484,0.1245717,0.0102636,-0.2086688,0.8871526,-9.672744,1
43300730,6275,4.15,-6.61,-6.94,-0.06,0.14,12.36,11.76,0.1845228,0.08172115,0.0733623999999999,0.05965539,0.8432755,-9.829398,1
43409679,6323,4.29,-4.19,-4.32,-0.03,-0.16,12.35,11.8,0.560212,-0.1033465,-0.02372031,-0.03448754,1.064202,-9.766286,1
43518943,6230,4.21,-1.18,-0.68,-0.29,-0.27,12.37,11.5,0.6123733,-0.02453716,-0.07293028,-0.02152617,0.9903857,-9.80583,1
43621962,6256,4.19,1.13,2.76,-0.59,-0.44,12.36,11.0,0.5980488,0.007128106,-0.1014604,-0.2187284,0.9520635,-10.08044,1
43732974,6246,4.08,2.14,4.81,-0.79,-0.37,12.36,10.44,0.05146072,0.03420702,-0.1103075,-0.2658337,0.848514,-9.96789,1
43846471,6334,3.71,2.22,4.89,-0.81,-0.43,12.36,9.98,-0.01225032,0.0788181,-0.04644659,-0.05563942,0.7599132,-9.519791,1
43957882,6227,4.2,1.73,3.25,-0.62,-0.8,12.36,9.49,-0.186687,-0.03455862,-0.0719937799999999,-0.1780148,1.145702,-9.452131,1
44068408,6098,4.33,1.1,1.79,-0.45,-0.77,12.37,9.2,-0.1944823,0.06588656,-0.02431821,0.05031949,0.6362433,-9.688169,1
44177285,6230,4.44,0.58,1.01,-0.23,-0.89,12.37,9.27,-0.06081873,-0.03962593,0.05507264,-0.35267,0.9786495,-9.901729,1
44279501,6259,4.29,0.38,0.61,0.01,-1.4,12.37,9.52,-0.08195225,-0.06481855,0.06799682,0.04936158,0.796941,-9.687306,1
44388637,6309,4.55,0.26,0.4,0.26,-1.56,12.37,9.88,-0.03351556,-0.03647057,0.03042245,-0.105444,0.767172,-9.795835,1
44491561,6270,4.46,0.18,0.06,0.52,-0.91,12.38,10.38,-0.07986923,0.04394131,0.09332992,0.0366768,0.8879345,-9.959176,1
44603733,6268,4.6,0.17,-0.13,0.81,-0.42,12.38,10.89,-0.02079373,0.04394939,0.07024198,-0.0798833999999999,0.7728804,-10.03289,1
44710156,6406,4.32,0.35,-0.71,0.95,0.16,12.38,11.38,-0.05970005,0.04729831,0.07134791,-0.03622436,0.9541817,-9.851577,1
44930011,6266,4.79,1.25,-0.39,1.3,0.64,12.38,12.51,0.07298083,-0.0484512,0.05692653,0.03740965,0.486148,-10.06499,1
45043207,6442,4.65,2.95,1.02,1.24,0.27,12.38,12.73,0.2942764,-0.1058733,-0.001277702,-0.1921071,0.4142591,-10.0913,1
45247405,6327,4.53,6.49,4.56,1.48,0.11,12.39,12.43,0.3129182,-0.02942887,-0.04459772,-0.3108358,0.5300793,-10.51507,1
45355040,6302,4.85,8.07,6.75,1.45,0.31,12.39,12.29,0.3942388,-0.06101288,-0.03168925,-0.0192276,0.5623531,-10.29297,1
45463461,6337,4.57,9.01,7.95,1.62,0.36,12.42,12.13,0.1024212,0.01910239,-0.008967084,0.03953098,0.2934526,-9.914943,1
45577029,6266,4.7,9.16,8.16,1.74,0.87,12.44,12.2,0.001232723,0.06536296,0.03129628,0.1442719,0.5570939,-9.954742,1
45689014,6407,4.45,8.92,7.45,1.96,1.42,12.47,12.55,-0.06511529,0.05728839,0.07628128,0.1627401,0.4570067,-9.860016,1
45898240,6327,4.55,8.73,6.23,0.84,0.95,12.3,13.06,-0.1098457,-0.2126284,0.01169524,0.3129345,0.2536265,-9.981938,1
46117076,6228,4.48,8.66,4.86,-0.42,-1.11,12.1,13.16,-0.05878355,-0.1727793,0.001801438,0.2312403,0.1864425,-9.87012,1
46229735,6231,4.58,8.36,4.26,-0.52,-1.4,12.09,13.14,-0.09786559,-0.0745806599999999,-0.0001250712,0.07880511,0.1172885,-9.838103,1
46335317,6119,4.33,7.73,3.44,-0.56,-1.46,12.08,13.03,-0.0993919999999999,-0.1208248,-0.01573506,0.2204944,0.1222877,-9.930653,1
46447353,6169,4.37,6.41,1.94,-0.45,-1.48,12.1,12.86,-0.2104299,-0.06594677,-0.04248198,0.05598231,0.0183521,-10.23011,1
46548057,6155,4.03,5.23,0.26,-0.48,-1.56,12.09,12.73,-0.3362663,-0.03624946,-0.05077698,0.2848085,0.187768,-9.883852,1
46657513,6086,4.12,3.85,-1.38,-0.47,-1.91,12.09,12.4,-0.1882037,-0.00830089,-0.06869715,0.1630044,0.1458568,-9.813616,1
46764958,6109,3.81,3.08,-2.5,-0.45,-1.94,12.1,11.94,-0.0401636,-0.003930262,-0.09494714,0.0864839699999999,0.3074155,-9.911681,1
46880367,5871,4.02,2.75,-2.27,-0.28,-1.58,12.1,11.29,0.1105083,0.05838782,-0.1007035,0.1005768,0.1642057,-10.00907,1
46986964,6014,3.99,2.75,-1.4,0.13,-1.0,12.12,10.68,0.1273705,0.1667549,-0.07597595,-0.06284644,0.1997637,-10.18813,1
47088229,6011,3.9,2.76,-0.47,0.53,-0.41,12.14,10.23,0.1468291,0.06981877,-0.06608129,0.03673446,0.04719886,-10.065,1
47197760,5957,4.16,2.35,-0.07,1.24,0.21,12.18,9.91,0.03052887,0.04310534,-0.04599181,0.1567735,-0.1224369,-9.928582,1
47312976,5970,4.07,0.95,-0.81,2.34,1.31,12.21,9.7,-0.1892783,0.2266942,-0.02490411,0.2329619,0.01487471,-9.721995,1
47416048,6110,3.88,-0.63,-2.45,3.02,2.32,12.21,9.52,-0.3442799,0.1341686,-0.02536014,0.3487991,0.0734015799999999,-9.95643,1
47527041,5869,3.85,-2.15,-4.25,3.44,2.9,12.2,9.34,-0.2436414,0.002434807,-0.02960893,0.2258743,0.2055471,-10.0004,1
47640080,5851,3.91,-3.23,-5.25,3.52,3.1,12.2,9.27,-0.08122496,-0.02953281,0.00216888,-0.000679756,0.2834235,-10.22622,1
47749462,5955,4.01,-3.98,-5.5,3.25,3.23,12.22,9.46,-0.01451167,0.08403317,0.05039535,0.1412968,0.2152214,-9.987206,1
47850031,5942,4.12,-4.67,-5.61,3.3,3.26,12.21,9.87,-0.02591419,0.06095575,0.09625401,0.05232066,0.1808529,-10.03744,1
47961292,5947,4.17,-5.26,-5.78,3.7,3.62,12.18,10.46,-0.04004347,0.0402127,0.115672,0.2159864,0.1493768,-9.71374,1
48070259,6022,4.45,-5.59,-5.97,4.13,4.32,12.14,11.2,0.002878528,0.1231735,0.1510619,0.3033496,0.262518,-9.997002,1
48179504,6153,4.42,-5.86,-5.91,4.44,4.58,12.1,11.98,-0.05864173,0.06495392,0.1275961,0.345312,0.1905384,-10.1201,1
48289830,6302,4.56,-5.95,-5.63,4.36,4.39,12.11,12.6,0.06187254,-0.0644093699999999,0.0995997099999999,0.06240407,0.3213444,-10.21624,1
48394420,6201,4.5,-5.81,-5.32,3.71,3.96,12.18,13.11,0.09530962,-0.1113222,0.05930047,0.3733397,0.3236144,-9.59305,1
48499806,6214,4.78,-5.74,-4.96,3.04,3.07,12.25,13.58,0.04312578,-0.1662532,0.0403639,0.4475511,0.1765146,-9.571892,1
48622355,6268,4.71,-5.87,-4.66,2.58,2.16,12.29,14.05,0.04383044,-0.1521835,0.03117532,0.3892229,0.1622966,-9.816772,1
48843035,6339,4.55,-5.49,-4.51,2.18,1.32,12.34,14.37,0.03992648,0.05601913,0.01934251,0.1973559,0.4076661,-9.695299,1
48944095,6282,4.54,-5.05,-3.86,2.15,1.27,12.34,14.28,0.09803655,0.01271801,-0.007137998,0.3145074,0.3728821,-9.439518,1
49044540,6254,4.24,-4.77,-3.21,2.22,1.15,12.33,14.15,0.1219717,-0.04734897,-0.01376848,0.2451049,0.4188304,-9.224853,1
49153792,6194,3.93,-4.67,-2.63,2.3,1.34,12.33,13.82,0.08869911,0.05187782,-0.0724359,0.2342766,0.3249231,-9.001105,1
49257860,6081,3.72,-4.56,-2.66,2.36,1.7,12.32,13.16,-0.1348738,0.1651132,-0.1346761,0.310732,0.2993006,-8.788309,1
49377553,5951,3.23,-4.54,-2.63,2.57,1.73,12.3,12.25,0.1709845,0.006375063,-0.1695439,0.3136732,0.2353365,-8.014935,1
49592375,5742,3.62,-4.76,-2.51,2.68,1.86,12.3,11.0,-0.01625165,-0.03283953,-0.04956074,0.405576,0.6928884,-8.521347,1
49695742,5739,3.59,-4.91,-2.35,2.84,1.36,12.28,10.48,0.1584368,-0.04359585,-0.08592468,0.3182839,0.5045673,-8.732527,1
49822836,5698,3.75,-5.24,-2.5,3.01,1.13,12.27,9.98,0.04847017,0.04963628,-0.03994475,0.2673709,0.5875001,-9.028168,1
49923968,5817,3.92,-5.64,-2.73,3.09,1.0,12.26,9.79,-0.0837904399999999,0.04341281,-0.0207729,0.1651399,0.6268523,-9.192217,1
50036012,5874,3.84,-6.03,-3.06,3.19,0.98,12.25,9.52,-0.07278722,0.09565123,-0.02656302,0.1099354,0.6017027,-9.445538,1
50142441,5919,3.82,-6.35,-3.73,3.43,1.29,12.22,9.36,-0.1683328,0.08157931,-0.01413186,-0.06092137,0.7768449,-9.588797,1
50247040,5987,4.19,-6.62,-4.11,3.32,2.64,12.24,9.34,-0.02145196,0.156942,0.03728023,0.2267445,0.625683,-9.812552,1
50355068,6139,4.25,-6.53,-4.17,3.1,3.17,12.26,9.44,0.06964429,-0.0005700032,0.04387119,0.4972,0.8676903,-9.996805,1
50468744,6115,4.51,-6.39,-3.65,2.9,2.32,12.28,9.66,0.01721203,-0.09486498,0.022993,0.1573872,0.7290124,-9.928255,1
50567453,6128,4.37,-6.47,-3.23,2.7,1.77,12.31,9.81,0.04999349,-0.02133772,0.02354983,0.4721977,0.5562719,-10.05127,1
50686376,6155,4.36,-6.6,-3.37,2.82,1.33,12.29,10.14,-0.1154135,-0.1035053,0.04125631,0.4412289,0.4084643,-10.02352,1
50793816,6149,4.29,-6.65,-3.93,3.23,1.31,12.24,10.52,-0.0785465999999999,0.01790192,0.06682825,0.390578,0.6869167,-9.946633,1
50905929,6228,4.15,-6.35,-4.19,3.83,1.68,12.18,10.87,-0.0006768249,0.1127362,0.03871913,0.3094466,0.9407853,-9.819819,1
51001794,6228,4.22,-5.9,-3.9,4.43,2.25,12.11,11.02,0.04028237,0.1995838,0.04778274,0.3169696,0.7009126,-9.905654,1
51117377,6234,4.17,-5.41,-3.97,4.85,3.16,12.07,11.15,-0.0215781,0.1052304,0.01979032,0.2998118,0.767769,-9.658596,1
51217319,6130,4.6,-5.18,-4.04,4.94,4.06,12.06,11.23,0.0007825697,0.2017286,0.02344014,0.569453,0.8483565,-10.07074,1
51331817,6257,4.54,-5.2,-3.74,4.8,4.29,12.07,11.29,0.009237465,0.002286652,0.01224741,0.4174519,0.7100431,-9.941306,1
51435484,6266,3.97,-5.15,-4.07,4.47,3.93,12.1,11.34,-0.02811369,-0.0841364,-0.001580195,0.2905514,0.7917511,-9.647897,1
51543746,6056,4.3,-5.04,-4.44,4.02,3.83,12.14,11.52,-0.04387779,0.01553136,0.0283949,0.1576149,0.6964334,-9.884659,1
51653453,6044,4.47,-4.75,-4.58,3.6,3.78,12.18,11.71,0.04533016,-0.01464755,0.01746088,-0.1626306,0.9441624,-9.710251,1
51769358,6164,4.83,-4.55,-4.0,3.01,4.09,12.23,12.01,0.09039121,0.09866906,0.04828488,0.1535547,0.6007062,-9.57878,1
51877080,6233,4.76,-4.41,-3.26,2.41,3.76,12.27,12.35,0.154649,-0.08268638,0.0805761599999999,0.5311589,0.9046107,-9.660424,1
51972270,6294,4.51,-4.33,-2.96,1.57,2.62,12.34,12.68,-0.04722529,-0.2587696,0.06665587,0.6260228,0.5132584,-9.588417,1
52081747,6471,4.29,-4.15,-3.42,1.05,1.08,12.38,13.11,-0.104774,-0.1688651,0.05615668,0.1758189,0.9462789,-10.04451,1
52189386,6286,4.56,-3.83,-3.51,0.96,0.42,12.38,13.53,-0.006652509,-0.007128508,0.05254262,0.05547678,0.722031,-9.802106,1
52301022,6376,4.26,-2.76,-2.95,1.21,0.3,12.37,13.72,0.07903524,0.04803294,0.02492803,0.3880323,0.8021296,-9.490559,1
52418237,6209,4.5,-1.79,-1.88,1.57,0.79,12.36,13.78,0.05383328,0.1140216,0.003702359,0.3475729,0.5152673,-9.751985,1
52527283,6279,4.48,-0.76,-0.97,1.97,1.22,12.35,13.81,0.06767872,-0.0114472,0.01792623,0.4139367,0.6502903,-9.776024,1
52641942,6220,4.78,-0.09,0.12,2.32,1.51,12.35,13.87,0.2093012,-0.008350176,-0.002558087,0.3436318,0.6732968,-10.02212,1
52742089,6354,4.48,0.29,0.78,2.51,1.95,12.35,13.8,-0.172399,0.1492395,-0.01754823,0.2949364,0.4184043,-9.6781,1
52853739,6326,4.96,0.4,1.0,2.65,1.91,12.35,13.42,0.0096664379999999,-0.1146956,-0.060619,0.3627965,0.5481319,-9.746291,1
52960183,6286,4.12,0.22,0.52,2.7,1.91,12.35,12.88,-0.2240886,-0.01653357,-0.1095026,0.4228303,0.6875551,-9.823225,1
53062892,6161,4.64,-0.02,-0.21,2.77,1.93,12.35,12.54,-0.07020272,0.05181937,-0.03182177,0.500172,0.5065122,-9.70437,1
53172403,6244,4.91,-0.2,-0.95,3.03,2.44,12.35,12.51,-0.1411752,0.1070925,0.03060993,0.2640301,0.7440192,-10.64243,1
53277717,6284,5.44,-0.29,-1.18,3.18,3.18,12.35,12.88,-0.01877211,-0.02103165,0.0848879699999999,0.749329,0.5108888,-10.57354,1
53495778,6453,5.79,0.13,-0.95,3.0,3.46,12.35,13.85,0.03165106,-0.08687621,0.08238603,0.5553735,0.380973,-11.71514,1
53609477,6740,5.28,0.51,-0.82,2.89,3.01,12.35,14.42,0.05174666,-0.03421529,0.09101658,0.5654495,0.4528477,-11.05987,1
53822848,6631,5.05,1.67,-0.84,2.72,3.34,12.34,15.04,0.03951991,0.1079852,0.02133059,0.4701869,0.2759331,-10.4091,1
53930228,6441,4.5,1.88,-0.96,2.7,3.11,12.34,15.04,-0.04414988,-0.06305247,-0.01295715,0.2660284,0.2505293,-10.88804,1
54044992,6424,4.34,2.12,-1.0,2.8,3.33,12.34,14.74,0.0508391,0.1369877,-0.03924689,0.3945525,0.4403825,-10.24872,1
54145237,6383,4.24,2.36,-0.52,3.05,3.56,12.35,14.3,0.1330438,0.03878382,-0.06645751,0.5775498,0.2874124,-9.857042,1
54362657,6348,4.0,2.86,0.55,3.17,4.18,12.36,12.89,-0.008020251,0.03537085,-0.08810902,0.391324,0.3087047,-9.994471,1
54475268,6007,4.12,2.89,0.66,2.96,3.97,12.35,12.46,-0.1196975,-0.08505438,-0.04001289,0.3307717,0.1734096,-10.28162,1
54583999,6078,3.85,3.02,0.02,2.63,3.25,12.33,12.25,-0.1010431,-0.1409571,-0.01082029,0.5998113,0.4252912,-9.583673,1
54686996,5982,3.99,3.11,-0.44,2.35,2.54,12.32,12.26,-0.0495653,-0.005823394,0.01266018,0.2374395,0.481876,-9.637341,1
54803871,5945,4.25,3.19,0.26,2.01,2.47,12.3,12.45,0.1802005,-0.02009422,0.03914715,0.426162,0.4051444,-10.17922,1
54914075,6129,4.27,3.19,1.04,1.84,2.76,12.29,12.83,0.06950115,0.07587916,0.06609356,0.3763569,0.1955765,-9.993512,1
55007965,6169,4.3,2.84,1.34,1.73,2.52,12.28,13.29,-0.03430103,-0.06533866,0.09397175,0.5013273,0.1576405,-9.855455,1
55120051,6131,4.47,2.01,1.09,1.68,1.91,12.28,13.75,-0.0773877199999999,-0.07787753,0.06123077,0.3770478,0.282745,-9.940958,1
55234195,6200,4.07,1.0,-0.03,1.6,1.59,12.28,13.99,-0.2046907,-0.1360032,0.0223324,0.5148846,0.1656242,-9.762001,1
55333165,6111,4.26,0.12,-1.44,1.75,1.68,12.28,14.01,-0.2495697,-0.02083731,-0.05135247,0.4178982,0.08110618,-9.782161,1
55449248,6026,4.11,-0.54,-2.98,1.9,2.18,12.28,14.02,-0.1699802,0.04979423,0.006372876,0.2102283,0.2250439,-9.927798,1
55559015,6148,4.11,-0.87,-3.42,1.99,2.58,12.28,14.08,0.03977394,0.1067372,0.01343813,0.4247445,0.3561692,-9.543633,1
55663993,6060,4.44,-1.15,-2.86,1.92,2.58,12.28,14.21,0.1355526,-0.05566751,0.01991846,0.5487342,0.2762701,-9.725851,1
55775430,6103,4.09,-1.27,-2.4,1.85,2.19,12.28,14.26,0.1046536,-0.05764775,0.000241984,0.4822363,0.3676849,-9.450057,1
55886199,6131,4.09,-1.49,-2.35,1.87,1.77,12.28,14.29,-0.05410347,0.01301403,-0.02824909,0.3514115,0.2431833,-9.64817,1
55993935,6030,4.26,-1.84,-2.6,2.01,1.9,12.28,14.27,-0.1158089,0.0445441,-0.0177412,0.3429317,0.3044727,-9.85928,1
56096410,6063,4.02,-2.09,-2.95,2.15,2.35,12.27,14.05,-0.08755857,0.09240767,-0.05863483,0.2428572,0.2777718,-10.02522,1
56206260,6153,4.22,-2.28,-3.03,2.34,2.5,12.26,13.62,0.03390517,0.0086987079999999,-0.03035196,0.4284088,0.3618753,-9.503361,1
56311280,6101,4.05,-2.45,-2.93,2.33,2.61,12.26,13.26,0.06766453,-0.01432103,-0.01064472,0.4403864,0.6031396,-9.549724,1
56423501,6183,3.83,-2.76,-2.43,2.2,2.71,12.27,12.99,0.09651686,0.001219887,-0.05785806,0.4809173,0.3724716,-9.451213,1
56540622,6133,3.76,-2.54,-2.19,1.9,2.59,12.28,12.79,0.05732323,-0.09746718,-0.03018172,0.5208203,0.3783108,-9.516113,1
56638768,5886,4.11,-1.68,-1.51,0.31,1.32,12.34,12.8,0.2347269,-0.4026965,0.004322239,0.5678561,0.4357996,-9.129696,1
56749884,5922,3.98,-1.21,-0.74,-0.83,-0.55,12.37,12.91,0.06208039,-0.2632437,0.04941773,0.136037,0.4360602,-9.660742,1
57083585,6086,4.13,-1.48,-0.61,0.28,0.2,12.34,14.11,0.03672896,0.1181189,0.05614823,0.1852023,0.3649333,-10.1875,1
57188973,6139,3.75,-1.61,-1.19,0.94,1.4,12.32,14.12,-0.03506303,0.2112246,-0.0788637799999999,0.02966774,0.2926441,-9.931824,1
57303478,6098,3.72,-1.52,-1.87,1.16,2.39,12.32,13.47,-0.03137209,0.02282591,-0.1635334,0.5573099,0.4427161,-9.980617,1
57411974,6050,3.33,-1.3,-2.23,1.23,2.11,12.32,12.53,0.04062272,-0.2503329,-0.1826496,0.3959782,0.6864886,-10.46899,1
