TimeUS,RPM,Curr,DesRoll,Roll,DesPitch,Pitch,DesYaw,Yaw,GyrX,GyrY,GyrZ,AccX,AccY,AccZ,Guasto
0,4112,3.05,-0.15,0.27,-0.35,0.93,22.79,22.93,-0.3955233,0.04387007,0.007665787,0.3309942,-0.0713956,-9.785621,1
112834,4856,3.41,-0.21,0.58,-0.38,1.09,22.79,22.98,0.1215922,0.04496859,0.01001932,0.0894105699999999,0.2674747,-9.996786,1
218194,5301,3.75,-0.4,0.91,-0.52,1.05,22.79,23.27,0.0421144,-0.04546681,0.09060195,0.07017887,0.2711536,-11.22859,1
328161,5763,3.42,-0.85,1.33,-0.83,0.38,22.79,24.01,0.007449036,-0.2042711,0.1262819,0.02717651,0.259441,-11.94492,1
433606,6072,2.91,-1.18,0.77,-0.97,-0.9,22.79,24.97,-0.06555263,-0.1324936,0.1773206,-0.3959289,0.4169896,-11.05667,1
542118,5717,2.85,-1.73,0.12,-0.96,-1.58,22.79,26.0,-0.1481108,-0.04848266,0.1759225,-0.1263043,0.4014382,-10.11437,1
757370,5772,3.43,-2.52,-0.89,-0.36,-0.54,22.77,28.27,-0.06852075,0.1683592,0.1885603,-0.1207122,0.4364789,-9.682377,1
878262,6015,3.2,-2.86,-1.28,0.07,-0.18,22.75,29.51,-0.0294927,0.03581886,0.1792007,-0.2734571,0.1964469,-10.0787,1
985154,6026,3.46,-2.95,-1.52,0.18,0.25,22.74,30.64,0.07537114,-0.03073519,0.1715944,0.07667994,0.4460926,-9.863052,1
1096049,6010,3.17,-3.3,-0.98,0.26,0.16,22.5,31.6,0.08718375,-0.03074425,0.1292415,0.149219,0.2924038,-9.616832,1
1200749,5961,3.69,-3.67,-1.24,0.41,-0.31,20.74,31.97,-0.2425553,-0.03162026,0.02345964,0.01365351,0.1527967,-10.10936,1
1426358,6075,4.12,-4.1,-3.61,1.02,0.46,17.92,30.38,-0.04276489,0.1316488,-0.1907398,0.1769894,0.4489146,-9.768944,1
1534145,6456,3.5,-4.05,-2.95,1.43,0.9,17.89,29.29,0.1390777,0.08936746,-0.1425528,0.319608,0.5167755,-9.779041,1
1638704,6300,3.52,-3.83,-1.79,1.79,1.23,17.87,28.45,0.1820471,0.1053593,-0.1262337,0.0889891,0.5646457,-10.14644,1
1749373,6280,3.37,-3.81,-1.06,2.09,1.46,17.85,27.69,-0.06344337,0.0748782499999999,-0.1079907,0.2237675,0.391728,-9.893238,1
1855817,6086,3.17,-4.08,-0.83,2.27,1.84,17.83,26.91,0.01757438,0.09847756,-0.1286815,0.1751925,0.3694564,-10.00881,1
1966644,6109,3.25,-4.2,-1.56,2.26,2.22,17.83,26.12,-0.1221594,0.05270522,-0.1376529,0.2122054,0.5566627,-9.489389,1
2190838,5843,3.05,-4.6,-2.67,2.31,1.68,17.83,24.75,-0.1291344,-0.004779704,-0.09550928,0.1167736,0.6406171,-9.432408,1
2301765,5880,3.2,-4.75,-3.14,2.52,1.54,17.81,24.2,0.03675765,-0.05538418,-0.0836495399999999,0.1515699,0.518216,-9.494979,1
2405278,5968,3.03,-4.57,-3.29,2.73,1.75,17.8,23.75,0.1326916,-0.02987151,-0.0795608399999999,0.1770296,0.6233606,-9.477366,1
2514271,5909,3.17,-4.42,-3.13,2.9,2.2,17.78,23.28,0.03634669,0.1597575,-0.0627689,0.1100245,0.4810579,-9.858679,1
2628285,5683,2.97,-4.4,-2.68,2.93,2.7,17.78,22.95,0.0890208599999999,0.09714134,-0.04137938,0.367601,0.4792292,-9.790082,1
2736377,5871,2.8,-4.51,-2.52,2.89,2.83,17.78,22.78,-0.03024867,-0.02259485,-0.01880535,0.4815144,0.6502731,-9.725009,1
2846175,5703,3.1,-4.75,-2.91,2.8,2.64,17.79,22.8,-0.06444339,-0.06786575,0.001892844,0.3830511,0.5702086,-8.784132,1
2951233,5772,4.19,-4.78,-3.57,2.68,2.9,17.8,22.96,0.01579408,0.02051889,0.03777124,0.4179304,0.8047451,-9.601441,1
3058450,6080,4.22,-4.78,-3.33,2.4,3.21,17.82,23.15,-0.01117771,0.1385513,0.05840714,0.1422832,0.7647911,-10.54269,1
3164175,6322,4.44,-4.55,-2.87,1.85,3.42,17.87,23.55,-0.08075713,0.06602047,0.05866465,0.1263654,0.475433,-10.69158,1
3286200,6504,4.56,-4.18,-3.22,1.11,3.11,17.93,23.87,-0.1496956,-0.1151828,0.04067102,0.1092937,0.5599545,-10.62384,1
3390765,6542,4.27,-3.97,-3.36,0.64,1.72,17.96,24.2,0.03750703,-0.2710618,0.04507238,0.2967702,0.8629498,-10.4503,1
3490719,6542,4.59,-3.84,-3.06,0.28,0.73,17.98,24.61,0.08586928,-0.06781738,0.07415004,-0.002329015,0.5169781,-10.81052,1
3608604,6586,4.31,-3.35,-3.18,0.35,0.19,17.98,25.19,-0.02938352,-0.07425617,0.05581152,0.0797538,0.6031517,-10.46622,1
3824211,6600,4.62,-2.94,-2.9,0.92,0.38,17.95,25.65,0.1136213,0.03066959,0.02430899,0.07259073,0.5262284,-10.77083,1
3937589,6630,4.32,-2.83,-2.63,0.98,1.11,17.95,25.73,0.02107036,0.150945,0.03525607,0.0425582,0.7496228,-10.47754,1
4041176,6649,4.18,-2.83,-2.13,0.75,1.5,17.96,25.87,0.1369437,0.0171735,0.03214509,0.206631,0.4870729,-9.959636,1
4150238,6507,4.27,-2.95,-1.88,0.5,1.24,17.97,26.1,-0.03681759,-0.01086719,0.04769304,0.1164574,0.3933822,-10.55721,1
4266138,6416,4.38,-2.88,-2.38,0.33,1.36,17.98,26.42,-0.1301476,-0.08277277,0.05367843,0.4805428,0.5613976,-10.28687,1
4361145,6441,3.98,-2.7,-2.92,0.6,0.81,17.97,26.68,-0.07856876,-0.105849,0.02584203,0.088065,0.5637963,-10.10743,1
4480355,6409,4.15,-2.19,-2.99,0.65,1.49,17.75,26.89,0.00372421,0.2104411,0.09560768,0.1707712,0.5754846,-9.785559,1
4591376,6574,3.79,-1.55,-2.1,0.41,1.91,17.75,28.1,0.1707211,-0.03588672,0.2233246,0.3118866,0.6197165,-9.279744,1
4706283,6493,4.33,-1.08,-0.9,-0.08,1.91,17.77,29.8,0.05457825,-0.04016479,0.2092862,0.3145429,0.4276048,-9.788859,1
4802122,6694,3.72,-1.1,-0.63,-0.73,0.79,17.78,31.47,-0.236719,-0.2244183,0.1407395,0.03045038,0.6567817,-10.12549,1
4916206,6329,3.92,-1.42,-0.62,-1.43,-0.55,17.79,32.35,0.08690865,-0.2172032,0.06631548,-0.06223634,0.5690102,-9.305012,1
5032496,6423,3.79,-1.91,-1.26,-1.91,-1.41,17.81,32.25,0.02285972,-0.1828522,-0.05495609,-0.214763,0.6934962,-9.388266,1
5141794,6380,4.01,-2.21,-1.86,-2.24,-1.48,17.82,31.41,-0.02956337,0.03821559,-0.1458482,-0.152888,0.6718475,-9.095169,1
5241043,6320,3.13,-2.39,-1.6,-2.43,-1.29,17.83,30.51,-0.004050759,0.003137413,-0.136669,-0.04601834,0.5651913,-9.126275,1
5366162,6109,2.93,-2.53,-1.26,-2.22,-1.7,17.82,29.31,0.00688937,-0.1424781,-0.1357378,-0.04518013,0.68725,-9.310821,1
5573374,5966,3.03,-3.22,-2.35,-1.48,-1.99,17.78,27.65,-0.2758163,0.04517364,-0.1428941,-0.03846666,0.6702986,-9.225002,1
5790503,5757,3.37,-4.03,-3.25,-0.96,-1.33,17.41,26.33,0.005750488,-0.0185453,-0.1586601,-0.06263484,0.9692191,-9.379166,1
5904058,5926,3.81,-4.37,-3.23,-1.1,-0.92,15.08,25.13,0.04827332,-0.02881721,-0.2492147,0.01278237,0.7929632,-9.547153,1
6015245,6163,3.54,-4.68,-3.21,-0.96,-0.63,13.31,22.34,0.05391925,0.03551365,-0.3408644,-0.2365136,1.071031,-10.04947,1
6119702,6211,3.02,-4.96,-3.06,-0.65,-0.25,13.28,19.8,-0.07843322,0.1203679,-0.2804826,-0.03439439,0.7667506,-9.685479,1
6342109,5905,3.31,-5.41,-4.16,0.16,1.71,13.2,15.86,-0.1398239,0.1583087,-0.1275811,0.1683756,0.8771014,-9.762106,1
6447897,6010,3.0,-5.51,-4.2,0.23,1.85,13.2,14.94,-0.06446966,-0.00421597,-0.08093247,-0.2716897,1.069546,-10.00022,1
6548365,5832,3.75,-5.49,-4.54,-0.23,2.29,13.24,14.27,-0.06398893,0.09069871,-0.04971208,-0.233931,0.8040701,-9.5774,1
6659697,6144,3.75,-5.28,-4.94,-1.37,2.84,13.35,13.85,0.02300752,-0.1061484,0.03129446,-0.01582223,0.8758156,-9.71533,1
6766751,6270,3.3,-5.13,-4.77,-2.45,1.33,13.45,13.9,0.08996596,-0.3767786,0.01075361,-0.4833508,0.7867693,-10.0643,1
6886682,6197,3.4,-5.02,-4.18,-3.54,-0.53,13.54,14.36,0.09628666,-0.2134437,0.1155643,-0.005884418,0.9574752,-9.640227,1
6995740,6061,3.19,-4.97,-4.18,-3.77,-1.83,13.57,15.3,-0.07174658,-0.03329384,0.1872829,-0.5059764,0.7442428,-9.582146,1
7099222,5971,3.41,-5.0,-4.34,-3.59,-2.37,13.55,16.33,-0.04636015,-0.06171977,0.1917872,-0.486931,0.9281554,-9.60509,1
7216138,5993,3.7,-5.06,-4.53,-3.15,-2.28,13.51,17.41,-0.04203803,0.09392349,0.1377742,-0.1564959,0.7983989,-10.13615,1
7316124,6093,3.6,-5.03,-4.74,-2.85,-1.93,13.48,18.01,-0.08923762,-0.04478667,0.1013891,-0.183152,0.9580471,-10.05184,1
7537282,6276,3.45,-4.78,-4.83,-2.4,-1.58,13.44,18.25,0.006326784,0.05619893,0.01704723,-0.3956733,0.9151381,-9.733013,1
7644791,6093,3.23,-4.51,-4.87,-2.2,-1.93,13.43,18.33,0.07267416,-0.01734825,0.0309336,-0.1269974,0.9268368,-9.571006,1
7752508,6034,3.37,-4.39,-4.36,-1.75,-1.99,13.39,18.62,0.05184112,0.0794832,0.03669318,-0.09467675,0.7937929,-10.31916,1
7855483,6183,3.57,-4.42,-3.56,-1.16,-1.5,13.35,18.73,0.1641788,0.1454026,-0.02302382,0.0094421379999999,0.981511,-9.532778,1
7970027,6094,3.45,-4.45,-3.39,-0.87,-0.57,13.33,18.59,0.014252,0.0969333099999999,0.05460837,-0.0513473,0.7366031,-9.442276,1
8078161,6042,3.35,-4.53,-3.59,-0.75,-0.39,13.32,18.5,-0.1096917,0.04476951,0.01844877,0.08559584,0.890606,-10.25273,1
8185071,6042,3.2,-4.72,-3.62,-0.75,-0.87,13.32,18.24,0.03332466,-0.1080282,-0.01542414,-0.1295843,1.014768,-9.379395,1
8294578,6038,3.14,-4.93,-3.77,-0.79,-1.25,13.32,17.97,0.0890502,-0.0671769,-0.03088392,0.2141183,0.775705,-9.495258,1
8411143,5812,3.56,-4.89,-4.08,-0.37,-1.47,13.28,17.78,0.1424407,-0.03801399,0.009874801,0.100254,0.8065645,-9.561933,1
8518145,5949,4.19,-4.8,-4.55,0.09,-0.73,13.24,17.71,-0.1034914,0.1696451,-0.01087972,-0.4384242,1.003305,-9.967442,1
8618704,6174,4.73,-4.67,-5.64,0.03,0.59,13.25,17.57,-0.3093552,0.1063019,-0.02498944,-0.3989576,0.6907942,-9.994299,1
8729247,6534,4.64,-4.2,-6.63,-0.11,0.3,13.26,17.23,-0.008142149,-0.1529223,-0.1068285,-0.5026445,0.4052086,-10.64141,1
8830142,6630,5.3,-3.44,-6.5,-0.48,0.01,13.28,16.78,0.05879092,-0.0122467,-0.07688501,-0.6027238,0.7369819,-10.69592,1
8946823,6720,5.03,-2.37,-5.49,-0.92,0.14,13.31,16.12,0.114433,0.0728450499999999,-0.1201333,-0.2500973,0.9412604,-10.54785,1
9056511,6810,4.98,-1.27,-4.79,-1.17,0.08,13.32,15.46,0.05805132,-0.02153861,-0.1212625,-0.2611971,0.6361411,-10.11022,1
9166216,6762,5.06,-0.22,-4.35,-1.41,-0.01,13.32,14.75,0.05811948,0.02291464,-0.1189675,-0.1442388,0.5863768,-10.11046,1
9277612,6819,4.76,0.76,-3.67,-1.76,-0.29,13.32,13.98,0.06108977,-0.03595941,-0.1099596,-0.3458002,0.901625,-9.779466,1
9382599,6864,4.61,1.51,-2.56,-2.31,-0.81,13.31,13.25,0.1812254,-0.1006664,-0.1030069,-0.4658311,0.3346105,-9.992847,1
9489341,6794,4.52,2.17,-1.38,-2.98,-1.34,13.28,12.55,0.1332767,-0.02191106,-0.07987195,-0.6851022,0.3231112,-9.630187,1
9597858,6716,4.71,2.62,-0.52,-3.79,-1.68,13.25,12.24,0.004543953,0.006531143,0.01846357,-0.5511131,0.346818,-9.872948,1
9706365,6744,4.48,2.98,-0.43,-4.45,-1.83,13.22,12.29,0.1023151,-0.09263869,0.04003436,-0.4595895,0.4652059,-9.525031,1
9814998,6757,3.73,2.93,0.32,-4.8,-2.62,13.2,12.25,0.1175768,-0.1224669,0.03382782,-0.216068,0.5709835,-9.16972,1
9921137,6462,3.07,2.52,1.88,-4.87,-3.76,13.19,12.61,0.2664936,-0.309199,0.1117411,-0.1671233,0.4657978,-9.600717,1
10029044,5972,3.28,1.79,2.33,-4.49,-4.69,13.21,13.34,-0.070652,-0.04078792,0.1620125,-0.2541343,0.6798053,-8.896809,1
10131762,6000,3.55,1.05,1.69,-4.16,-4.74,13.22,14.17,-0.1003899,0.007539123,0.1219783,-0.3954166,0.9231807,-8.629759,1
10248306,6042,3.55,-0.07,0.53,-3.81,-3.76,13.22,14.93,-0.1929384,0.1389329,0.07980158,-0.4620103,0.6751885,-8.957037,1
10468686,6049,3.42,-1.42,-0.68,-3.57,-2.61,13.22,14.72,-0.05461193,-0.08059961,-0.0650208699999999,-0.3487269,0.6547727,-8.514835,1
10581096,6194,3.45,-1.72,-1.92,-3.62,-2.78,13.22,14.4,-0.08027796,-0.1509931,-0.05722121,-0.364128,0.7156632,-8.121296,1
10794088,6055,3.23,-2.08,-1.19,-3.77,-3.3,13.22,14.13,0.3469693,0.04453883,-0.03074996,-0.3021894,0.5189151,-9.500899,1
10899700,6010,3.13,-2.32,-0.85,-3.46,-2.94,13.21,14.01,-0.1063311,0.1578594,-0.01755967,-0.4060988,0.5283151,-9.046697,1
11006143,5790,3.71,-2.92,-1.86,-3.42,-2.25,13.21,13.93,-0.1756249,0.09683074,-0.003956316,-0.6998854,0.3924695,-8.943856,1
11123785,6098,3.54,-3.64,-3.41,-3.77,-1.74,13.23,13.87,-0.1739181,-0.02335761,0.01267757,-0.6823884,0.8032727,-9.261933,1
11223235,6077,3.79,-3.76,-4.31,-4.21,-2.07,13.26,13.8,-0.05495729,-0.194957,0.01633045,-0.2479816,0.9022602,-8.645412,1
11335035,6214,3.76,-3.9,-4.31,-4.49,-3.36,13.17,13.8,0.1035547,-0.3035881,-0.03847584,-0.4049896,0.959258,-9.338408,1
11452086,6233,4.5,-4.17,-4.33,-4.73,-4.26,10.88,13.68,-0.1524155,-0.06030563,-0.04015992,-0.443672,0.7029947,-9.503958,1
11552613,6306,5.72,-4.13,-4.4,-4.81,-4.47,6.44,12.72,-0.05868571,0.07367177,-0.2293708,-0.6893798,0.6126502,-9.764058,1
11662509,6773,6.49,-3.73,-4.39,-4.97,-4.11,359.26,9.95,-0.01289652,0.1066751,-0.5677622,-0.6621334,0.5555235,-9.839471,1
11769227,7174,7.7,-3.01,-3.96,-5.28,-3.74,350.25,5.23,0.03055802,0.2373363,-0.8866601,-0.6461179,0.9279068,-10.17911,1
11882834,7569,7.6,-2.47,-1.78,-6.14,-2.76,338.88,358.35,0.1006061,0.1703231,-1.204296,-0.6722738,0.6287909,-11.45976,1
11995729,7838,6.82,-2.1,-0.29,-7.1,-2.83,329.14,349.0,0.005931874,-0.03589942,-1.490555,-0.7320477,0.6023259,-10.959,1
12105261,7742,5.35,-1.9,-0.19,-8.18,-4.02,322.03,339.3,-0.1801105,-0.2618912,-1.568492,-1.090997,0.2669817,-10.37769,1
12199999,7297,4.8,-1.64,-1.09,-8.89,-5.22,317.9,330.45,-0.4547325,-0.1768038,-1.533745,-0.8679358,0.4657913,-9.803419,1
12307274,6882,4.17,-1.6,-2.71,-9.21,-6.23,315.84,321.52,-0.381637,0.01509636,-1.322237,-1.231491,0.1951647,-9.857709,1
12518739,6630,1.79,-1.09,-4.62,-8.46,-6.51,319.2,308.24,-0.06689341,0.1303786,-0.6742846,-0.6343458,0.2085758,-9.717987,1
12627694,5563,1.55,-0.43,-4.49,-8.13,-6.12,323.23,305.81,0.1238247,0.08665156,-0.1165877,-0.7071089,0.4252161,-9.840574,1
12741361,5052,1.28,0.17,-3.05,-8.0,-6.6,327.83,306.27,0.2348648,-0.2461345,0.2714354,-0.7285378,-0.09023497,-9.222791,1
12840162,4558,2.13,0.63,-1.92,-8.21,-6.7,332.31,308.35,0.255818,0.04493283,0.5196114,-0.6299927,0.163423,-9.525219,1
12949050,4677,2.37,0.9,-0.9,-8.43,-6.24,337.31,312.77,0.2039348,0.05901789,0.8159859,-0.8329859,0.006827397,-9.864753,1
13068726,4849,2.4,1.01,-0.05,-8.39,-6.24,341.4,319.34,0.1423169,0.0090366289999999,1.035488,-1.179987,-0.01135765,-9.354015,1
13171728,5114,3.38,1.05,-0.07,-8.43,-6.08,344.0,325.26,0.162544,-0.02949596,1.099001,-0.9128711,0.1223565,-9.585873,1
13283177,5602,3.49,0.81,0.29,-8.26,-6.13,346.79,332.17,0.1906514,-0.008841628,1.104032,-0.6031091,0.08924462,-9.546215,1
13393363,5894,4.03,0.69,0.55,-7.94,-6.45,347.63,339.44,0.1372487,-0.08229375,1.048814,-0.7407247,0.1409315,-9.298833,1
13491771,6151,5.06,0.64,0.16,-7.63,-6.41,347.64,344.85,0.15571,-0.02805234,0.8630238,-0.9575076,0.4743822,-10.05397,1
13612326,6560,5.32,0.23,0.03,-7.18,-5.95,347.64,350.03,0.1055139,0.07234285,0.6667326,-0.426697,0.3708962,-9.68195,1
13832113,6805,4.7,-0.87,0.2,-6.27,-5.45,350.14,355.29,0.04303907,0.04565672,0.2811883,-0.6017682,0.6565062,-9.949691,1
13936803,6921,4.33,-1.44,0.1,-5.83,-5.08,351.91,356.85,0.03394633,0.04075866,0.2607183,-0.8265333,0.4592009,-10.29703,1
14046254,6631,4.02,-1.92,-0.45,-5.39,-4.77,354.11,358.06,-0.04900481,-0.03823939,0.1689923,-0.6181057,0.4682291,-9.646156,1
14164688,6505,3.98,-2.4,-1.39,-4.84,-4.29,358.45,359.29,-0.1538659,0.1420958,0.2428113,-0.797881,0.6050097,-9.60687,1
14260970,6433,3.67,-2.86,-1.9,-4.46,-3.73,2.08,0.93,0.004987431,0.02564515,0.3539008,-0.6295507,0.5093224,-9.916473,1
14375368,6241,3.92,-2.82,-1.91,-4.13,-3.51,3.76,3.53,0.1029531,0.03432779,0.4290043,-0.8226338,0.5484124,-10.3879,1
14590768,6147,4.39,-4.65,-2.61,-3.85,-3.65,3.78,7.37,-0.1466119,-0.11264,0.1734053,-0.8290152,0.3623628,-9.756922,1
14697714,6537,4.42,-5.47,-4.09,-3.63,-3.66,3.76,8.11,-0.2137861,0.05495054,0.08096404,-0.4666102,0.6905313,-9.691975,1
14794234,6600,4.26,-6.61,-5.28,-3.17,-3.5,3.72,8.12,-0.2449511,0.06761373,-0.02492721,-0.5451404,0.5711156,-9.795907,1
14908375,6629,4.62,-7.64,-6.88,-2.46,-2.55,3.63,7.68,-0.2075211,0.2411371,-0.05929534,-0.8088949,0.4396787,-9.94734,1
15027902,6646,4.36,-7.95,-8.02,-1.89,-1.66,3.55,6.89,-0.1101862,0.105478,-0.09883966,-0.5326319,0.7098832,-9.527385,1
15130994,6548,4.22,-7.67,-8.07,-1.58,-1.23,3.5,6.08,-0.009823214,0.1138243,-0.0999332099999999,-0.7713264,0.5671895,-9.841596,1
15239717,6592,3.93,-7.09,-7.53,-1.49,-1.28,3.49,5.39,0.04531975,-0.00770689,-0.06325959,-0.7783172,0.5263535,-10.39071,1
15351970,6423,3.77,-6.48,-6.18,-1.57,-1.27,3.5,5.2,0.2148638,-0.08535977,-0.0277544,-0.7386751,0.531296,-10.09123,1
15463466,6365,3.73,-6.09,-4.94,-1.5,-1.41,3.49,5.15,0.2171327,-0.0904751,-0.02342076,-0.4883351,0.5485055,-10.096,1
15568502,6314,3.88,-5.89,-4.37,-1.48,-1.96,3.49,4.97,0.007665244,-0.0753712099999999,-0.03436304,-0.8263729,0.4094374,-9.785022,1
15674736,6314,3.85,-5.76,-4.59,-1.58,-1.76,3.5,4.68,-0.0932601599999999,0.07647519,-0.04133923,-0.734874,0.7047178,-9.771615,1
15782549,6308,3.81,-5.78,-4.8,-1.45,-1.52,3.49,4.36,0.03523347,0.02133028,-0.05504891,-0.8409894,0.8214282,-9.891686,1
15895371,6162,3.41,-5.85,-4.81,-1.28,-1.67,3.47,3.91,-0.006871225,-0.04302887,-0.06826949,-0.9363549,0.6241962,-10.02582,1
16005508,6054,3.47,-5.89,-4.68,-1.03,-1.87,3.45,3.39,-0.001670053,0.06643308,-0.03030352,-0.1875904,0.5437515,-9.486494,1
16115535,6033,3.44,-5.97,-4.91,-0.72,-1.9,3.41,3.24,-0.1941388,0.159425,0.03662094,-0.740827,0.6881088,-10.20075,1
16217816,6136,3.33,-6.18,-4.89,-0.24,-1.78,3.36,3.54,0.1697518,-0.05096112,0.06005738,-0.4217686,0.7427149,-9.167398,1
16334121,6058,4.0,-6.32,-5.21,0.08,-1.04,3.33,3.9,-0.04705559,0.1195265,0.08159259,-0.7642166,0.5603899,-10.32238,1
16443045,6306,3.68,-6.37,-5.24,0.1,-0.9,3.33,4.17,-0.05152132,0.05780828,0.07910597,-0.33898,0.497747,-9.347072,1
16553758,6221,3.9,-6.45,-5.08,0.0,-0.8,3.34,4.35,0.1132816,-0.04017993,0.08222878,-0.6268371,0.9193249,-9.830636,1
16661678,6310,3.68,-6.62,-5.17,0.14,-0.49,3.32,4.5,0.03087992,0.001926926,0.1004367,-0.7563234,0.6620402,-10.15202,1
16771284,6266,3.45,-6.62,-5.25,0.93,-0.07,3.23,4.69,0.05625523,0.0285925,0.05959792,-0.4376436,0.5653073,-9.44627,1
16883687,6235,4.08,-6.4,-5.54,2.35,1.65,3.07,4.75,0.03309665,0.2350203,0.03506148,-0.2510476,0.8317031,-9.824736,1
16985236,6301,3.24,-6.23,-5.51,3.78,3.02,2.91,4.57,-0.1520663,0.2615302,0.04045417,-0.7923664,0.335895,-10.41282,1
17098349,6322,4.01,-5.74,-5.44,5.08,4.63,2.77,4.29,0.01235498,0.1177701,0.0091444419999999,-0.2131712,0.7634997,-9.819762,1
17197771,6259,3.4,-5.0,-4.98,5.44,4.99,2.74,4.01,0.06880942,-0.02355504,0.007661674,-0.2755255,0.7684312,-9.878984,1
17309174,6311,3.44,-4.2,-3.74,5.71,4.53,2.71,3.92,0.2294814,-0.08943505,0.01596513,-0.3518524,0.4407051,-10.06768,1
17416771,6253,3.26,-3.44,-2.61,5.81,4.19,2.71,4.1,0.06316787,0.009073067,0.04619051,-0.02422482,0.3726622,-9.512568,1
17530609,6105,3.04,-3.14,-1.87,6.05,3.62,2.69,4.48,0.0807786499999999,-0.1044779,0.04006368,-0.3441545,0.5914398,-9.305787,1
17636054,5942,3.3,-3.17,-1.77,6.3,3.6,2.68,4.89,-0.03571642,0.07475007,0.06225689,-0.5869458,0.391822,-9.9282,1
17756609,5985,3.29,-3.24,-1.86,6.48,3.72,2.67,5.07,0.0127136,0.03102675,0.04430146,-0.2215607,0.5565664,-10.0302,1
17968262,5983,3.45,-3.62,-2.75,6.6,4.16,2.66,5.05,-0.140689,0.1062341,-0.002920065,0.0733416499999999,0.7027162,-9.750666,1
18085478,5928,3.27,-3.67,-3.09,6.48,3.87,2.67,5.12,-0.002519273,-0.01965473,0.03215563,0.07199071,0.5678287,-9.826272,1
18190084,5922,3.08,-3.57,-3.0,6.52,3.31,2.67,5.17,-0.01964569,-0.07700723,-0.004905881,0.06183887,0.5543677,-10.05209,1
18293261,5865,2.88,-3.52,-2.59,6.56,2.82,2.66,5.16,0.05878844,-0.009663199,0.005759207,-0.1954711,0.6661991,-9.780583,1
18395742,5728,2.91,-3.62,-2.1,6.81,3.01,2.65,5.14,0.08447713,0.1283481,0.007933169,0.2550187,0.6340809,-9.790626,1
18511480,5730,2.89,-3.79,-2.19,7.13,3.42,2.63,5.09,0.0001241944,0.06242769,0.002943518,-0.02739282,0.7501494,-9.502131,1
18623478,5789,3.47,-4.07,-3.24,6.8,3.96,2.65,5.0,-0.2769145,0.07867803,0.01642466,0.3004597,0.8740193,-9.480644,1
18730189,5965,3.33,-4.56,-3.82,6.52,4.28,2.67,4.8,-0.08831555,0.1448566,0.02215595,0.1102582,1.254732,-9.402578,1
18840489,5889,2.92,-5.0,-3.96,6.06,4.01,2.71,4.77,-0.1340325,-0.07359311,0.03915048,0.2026719,1.131334,-9.952094,1
18945804,5954,3.14,-5.34,-3.76,5.4,3.25,2.77,4.87,0.004340352,-0.07611384,0.04663118,0.1855562,1.017945,-9.569525,1
19056117,5894,2.38,-6.06,-3.42,5.09,2.49,2.8,5.1,0.005088969,-0.09929742,0.06106998,0.07268722,0.9446471,-10.37615,1
19162162,5651,3.02,-6.58,-4.04,4.38,2.37,2.88,5.39,-0.2287264,-0.0002809619,0.03785835,0.3932155,0.9523169,-9.93153,1
19390189,5779,2.67,-7.4,-5.99,2.09,0.04,3.17,5.78,-0.1728995,-0.1146759,-0.02669167,0.2954707,1.15948,-9.319127,1
19489026,5669,2.76,-7.87,-6.69,1.34,-0.98,3.27,5.81,-0.1987537,-0.1662313,-0.01536966,-0.109885,1.074574,-9.813353,1
19605074,5590,3.23,-7.76,-7.55,0.74,-1.3,3.35,5.86,-0.05242006,-0.0391411,0.01215037,-0.02448446,1.071697,-9.161899,1
19827081,5734,3.22,-6.82,-6.05,0.35,-0.5,3.4,6.04,0.2782951,0.04399221,0.04416064,0.282764,1.219703,-9.949087,1
19938523,5873,3.21,-5.79,-4.84,0.11,-0.2,3.42,6.18,0.2902404,0.0166337,0.03193554,0.1589316,1.200385,-10.12272,1
20036067,5903,3.15,-5.31,-3.84,-0.07,-0.19,3.44,6.41,0.1326503,-0.06432667,0.03282189,0.3430728,0.8682179,-10.0232,1
20155372,6059,3.12,-4.97,-3.37,-0.22,-0.57,3.46,6.91,0.1304678,-0.1169889,0.06093647,0.1636203,1.109862,-9.730455,1
20254462,5914,3.37,-4.96,-3.56,-0.32,-0.79,3.47,7.24,0.1190795,-0.1146929,0.08243755,0.08380875,1.112971,-9.671014,1
20362105,5942,3.5,-5.23,-4.43,-0.42,-0.57,3.47,7.53,-0.1706553,0.0881759399999999,0.05133608,0.3736609,1.280406,-9.672124,1
20482559,5953,3.34,-5.61,-5.21,-0.41,-0.33,3.47,7.77,-0.20034,0.03082469,0.05086816,0.2254867,1.162674,-10.03121,1
20579010,6071,3.4,-5.32,-5.6,-0.5,-0.32,3.48,7.81,-0.1099838,0.0337341,-0.02981864,0.3311054,1.052729,-9.364018,1
20691159,6069,3.04,-4.72,-5.03,-0.52,-0.72,3.48,7.76,0.2571288,-0.1041404,-0.01163971,0.1964679,0.8604944,-9.730667,1
20793016,5967,3.33,-4.17,-4.2,-0.62,-0.59,3.49,7.67,0.2028003,0.09521474,-0.00889964,0.2472314,0.9329973,-9.499027,1
20896760,5902,3.11,-3.77,-3.42,-0.66,-0.55,3.49,7.59,0.07114854,0.02475352,0.01262279,0.08047765,1.008069,-9.861073,1
21006888,6058,3.4,-3.45,-3.29,-0.81,-0.59,3.5,7.43,-0.0907151499999999,0.04680694,-0.02018593,0.02687485,1.04781,-9.35256,1
21116167,6171,3.52,-3.35,-3.19,-1.09,-0.76,3.52,7.26,-0.02943256,0.00818013,-0.05575981,0.2680995,1.19434,-8.855824,1
21226796,5907,3.39,-3.37,-3.11,-1.24,-0.66,3.53,7.18,-0.02621858,0.05982576,0.03380511,0.02939491,0.9865648,-9.827064,1
21337260,6034,3.19,-3.33,-2.75,-1.34,-0.95,3.54,7.25,0.05290854,-0.05267377,0.01147598,-0.01768646,0.993873,-10.29802,1
21447373,5931,3.47,-3.63,-2.61,-1.59,-1.04,3.55,7.24,0.003145773,-0.01430347,0.01312766,-0.196327,0.8212711,-10.1799,1
21549996,5978,3.99,-3.85,-2.6,-2.33,-1.17,3.6,7.28,-0.02801234,-0.1256098,0.03661821,0.3661321,1.122093,-10.04785,1
21660059,6116,3.32,-4.12,-2.92,-4.21,-2.96,3.73,7.27,-0.343606,-0.2936428,0.005418823,-0.2499083,1.189045,-10.07741,1
21768058,6146,3.26,-4.38,-3.28,-6.14,-5.32,3.87,7.45,-0.1737806,-0.5018167,0.0188347,-0.05964664,1.07782,-10.51536,1
21875741,6019,4.09,-4.56,-4.23,-7.53,-7.04,3.98,7.84,-0.1013147,-0.2012111,0.05462139,0.0009087502,1.557973,-10.08989,1
21986687,6251,3.74,-4.64,-4.95,-8.45,-7.96,4.06,7.98,-0.136254,-0.03151425,0.003144477,-0.4462465,1.272649,-10.58524,1
22096707,6205,3.61,-4.64,-4.69,-8.62,-7.62,4.07,7.77,0.1458035,0.102119,-0.0460556,-0.2682181,1.357,-9.7917,1
22196705,6405,3.82,-4.64,-4.13,-8.71,-6.78,4.08,7.5,0.1675563,0.08093984,-0.006519501,-0.3050696,0.9086735,-10.20125,1
22308962,6216,3.32,-4.67,-4.12,-8.84,-6.54,4.09,7.24,-0.06956207,-0.1415126,-0.06696713,-0.002869168,1.190565,-10.05303,1
22522243,6255,4.01,-3.39,-3.98,-6.86,-4.9,3.94,6.65,0.09601118,0.2885981,-0.06585632,-0.2385828,1.260476,-9.835347,1
22632540,6198,3.57,-1.63,-2.08,-5.56,-3.38,3.88,6.02,0.4197032,0.2272674,-0.08725613,-0.3532296,1.353882,-9.709647,1
22745051,6168,3.44,-0.11,0.21,-4.87,-2.1,3.87,5.34,0.2907174,0.1451282,-0.1182881,-0.3228508,1.042234,-10.31761,1
22863278,6116,3.24,0.52,1.54,-4.94,-1.69,3.87,4.61,0.1707033,-0.02037705,-0.08768568,-0.4071155,0.9018957,-9.566092,1
22955363,5974,3.32,0.53,1.4,-5.47,-1.88,3.87,4.0,-0.2124438,-0.06167842,-0.1289362,-0.263636,0.800283,-9.408501,1
23064803,6037,3.02,0.01,0.64,-7.71,-3.82,3.86,3.3,-0.1198455,-0.5571962,-0.1204031,-0.1993206,1.027574,-9.296948,1
23182051,5921,2.64,-0.53,-0.23,-9.89,-7.37,3.86,2.3,-0.01711834,-0.4072168,-0.123573,-0.6765618,1.145618,-9.313527,1
23284151,5845,2.87,-1.02,-0.79,-11.06,-9.59,3.88,1.84,-0.0526158,-0.3059013,-0.01566691,-0.7011081,0.8470523,-9.464362,1
23500709,5729,2.93,-2.16,-2.24,-11.59,-11.41,3.89,1.92,-0.1357911,-0.03272747,0.06860782,-0.5850551,0.8866925,-9.467262,1
23609239,5765,2.9,-3.14,-3.3,-11.08,-10.97,3.87,2.22,-0.09940112,0.1622191,0.0857219199999999,-0.7571482,0.698886,-9.391056,1
23721208,5688,3.33,-3.86,-4.29,-10.52,-9.66,3.83,2.56,-0.1231643,0.1518648,0.05997643,-0.2951416,0.9772168,-9.489741,1
23932470,5843,3.08,-4.19,-4.76,-10.38,-8.49,3.82,2.98,0.1545432,0.01997407,0.04205866,-0.2946402,0.9552936,-9.001822,1
24039272,5956,3.31,-3.99,-5.03,-10.53,-8.31,3.83,3.2,-0.09891671,0.1210068,0.06911122,-0.8674381,1.101793,-9.51006,1
24151765,5950,3.38,-3.96,-4.64,-10.67,-8.33,3.84,3.43,0.05250659,-0.05234405,0.02917988,-0.5456361,0.6332452,-9.319633,1
24269200,6155,3.54,-3.89,-4.66,-10.68,-8.27,3.84,3.44,-0.1169926,0.1049408,-0.01726108,-0.4989745,1.012865,-10.09854,1
24377607,6058,3.48,-3.84,-4.57,-10.07,-8.0,3.8,3.37,0.08815489,0.1379851,-0.01182035,-1.048246,0.7200782,-9.553034,1
24491145,6071,3.38,-3.81,-4.2,-9.45,-7.07,3.76,3.06,0.05109724,0.2417257,-0.01401134,-0.8978385,1.352737,-9.833154,1
24587877,6075,3.37,-3.75,-4.01,-9.13,-6.73,3.74,2.73,0.0161463,-0.02339217,-0.01780562,-0.7204877,1.453575,-9.947285,1
24702448,6146,3.56,-3.84,-3.75,-9.04,-6.39,3.73,2.41,0.003599363,0.09808933,-0.03302067,-0.588484,0.8221833,-10.01171,1
24800097,6041,3.42,-3.83,-3.94,-8.88,-6.53,3.72,2.19,0.01864474,-0.05749908,-0.01018659,-1.020493,0.9352536,-9.998623,1
24913997,6020,3.06,-3.95,-3.89,-8.7,-6.35,3.71,1.9,-0.0623594,0.03995936,-0.01112371,-0.6684619,1.007367,-9.847527,1
25013369,6085,3.11,-3.99,-3.82,-8.47,-6.51,3.69,1.85,0.07831913,-0.01912206,0.008457991,-0.9304178,0.6945761,-9.52596,1
25133690,6090,3.36,-4.0,-3.96,-8.33,-6.34,3.68,1.98,0.05093864,0.02356631,0.04972903,-0.6483414,0.8000184,-9.493741,1
25241149,5997,3.31,-3.92,-4.05,-8.15,-6.33,3.67,2.11,0.1180441,-0.07180609,0.02570762,-0.579809,0.4394476,-9.519485,1
25348255,5975,3.27,-3.78,-4.16,-7.94,-6.05,3.65,2.25,-0.06730852,0.1275812,0.0716472799999999,-1.050067,0.6975127,-10.01948,1
25463575,6020,3.01,-3.77,-3.7,-7.71,-5.83,3.64,2.27,-0.003863017,0.1419408,-0.003936973,-0.5929601,0.6407952,-9.675322,1
25561382,5953,3.09,-3.78,-3.47,-7.5,-5.88,3.62,2.21,-0.02259867,-0.05597515,-0.04735056,-0.7227738,1.227468,-10.00486,1
25673157,5893,3.44,-3.92,-3.68,-7.47,-6.26,3.62,2.09,-0.1316747,-0.003552051,-0.0390417,-0.7957007,0.6775886,-9.587922,1
25794578,6055,3.5,-4.06,-4.33,-7.59,-5.8,3.63,1.78,-0.07901067,0.1972517,-0.04405646,-0.9159631,1.010505,-9.471443,1
25893790,6049,3.53,-4.1,-4.7,-7.69,-5.75,3.64,1.37,-0.06764694,-0.01892821,-0.05104393,-0.9108317,1.073056,-9.513963,1
26000124,6087,3.17,-4.05,-4.7,-7.88,-6.05,3.65,1.06,-0.01581743,-0.01615829,-0.08028778,-0.8555171,0.6943089,-8.803872,1
26113141,5919,3.08,-3.93,-4.53,-8.15,-6.94,3.67,0.94,0.1630217,-0.151239,-0.06129323,-0.8667584,0.6955667,-9.337919,1
26221255,6094,3.17,-3.86,-4.41,-8.43,-7.06,3.69,1.02,0.114043,0.02621464,-0.0093878899999999,-0.7188085,0.6357696,-8.846362,1
26337202,5884,3.53,-3.67,-4.46,-8.47,-7.04,3.69,1.28,-0.04964957,0.07764797,0.03072349,-0.880245,1.108716,-9.490182,1
26444155,6049,3.33,-3.56,-4.63,-8.24,-6.97,3.68,1.58,0.007463036,0.06321037,0.05957879,-0.8851853,0.9229406,-9.446805,1
26554805,5912,3.32,-3.43,-4.65,-8.09,-6.7,3.67,1.91,0.001228201,0.07202071,0.03098056,-0.5480066,0.8285586,-9.340103,1
26648983,6042,3.16,-3.62,-4.15,-8.08,-6.74,3.67,2.14,0.03312912,0.02834368,-0.01261083,-0.6211352,0.7655283,-9.231975,1
26758765,6036,3.12,-4.01,-3.57,-7.91,-6.88,3.66,2.11,0.1750604,0.03686637,-0.0584671,-0.6677549,0.8885399,-9.733558,1
26886268,5813,3.44,-4.5,-3.85,-7.88,-6.82,3.66,1.76,-0.07232687,-0.05573697,-0.05815298,-0.6739722,0.9005405,-9.966627,1
26986676,5980,3.22,-4.79,-4.33,-7.7,-6.78,3.64,1.37,0.05867416,-0.0080883299999999,-0.1143584,-1.160423,1.408856,-8.968862,1
27103097,6084,3.38,-4.88,-4.75,-6.93,-5.92,3.57,1.01,-0.000248615,0.2235563,-0.05409227,-0.9514217,0.9407296,-9.688229,1
27201177,5955,3.56,-4.81,-4.84,-5.29,-4.26,3.43,0.72,0.05124634,0.3062927,-0.008462193,-0.9877902,1.089757,-9.932993,1
27307108,6060,3.45,-4.74,-4.5,-4.15,-2.23,3.34,0.29,-0.005689131,0.346201,-0.04520871,-0.5752217,1.064254,-9.689487,1
27417230,5930,2.99,-4.73,-3.81,-3.62,-1.61,3.3,359.87,0.1127084,-0.001271367,-0.02187096,-0.5915913,0.9763166,-10.25862,1
27530756,5936,2.36,-4.89,-3.39,-3.3,-2.21,4.16,359.52,0.05811645,-0.1153101,-0.0246793,-0.754959,0.7480737,-10.16686,1
27649211,5504,2.51,-5.17,-3.98,-3.15,-2.55,6.85,0.02,-0.0986704,-0.002357426,0.1339756,-1.092565,0.5125803,-9.568361,1
27752822,5409,2.44,-5.28,-4.91,-2.76,-2.56,9.59,1.7,-0.1416967,-0.01901838,0.3673419,-0.9384769,0.9639695,-10.00216,1
27854219,5360,3.24,-5.16,-5.28,-2.41,-1.84,10.8,3.99,0.09649144,0.1071915,0.4758756,-0.8756678,1.138903,-9.677851,1
27971180,5598,4.01,-4.01,-5.16,-2.13,-1.35,10.78,7.29,0.4012671,-0.1291448,0.4329664,-0.7910943,1.340146,-9.817502,1
28068683,5890,3.84,-1.56,-2.74,-1.99,-1.69,10.77,9.52,0.7017019,-0.1165544,0.3634674,-0.536207,1.249574,-10.11838,1
28180181,6258,3.81,1.01,1.47,-1.49,-2.7,10.77,11.57,0.6618809,-0.1506903,0.2801845,-0.6237896,1.142735,-10.4661,1
28294686,6280,3.99,2.0,4.27,-1.08,-2.28,10.78,13.01,0.2427327,0.1360355,0.1916802,-0.5013456,0.7292831,-10.38562,1
28510473,6226,5.25,1.4,1.69,-0.29,-0.34,10.81,14.5,-0.3205925,0.1420545,0.04192065,-0.8702335,0.7294813,-10.63601,1
28725453,6757,4.82,-1.63,-2.75,-0.82,-1.24,10.82,14.17,-0.4051012,-0.1232376,-0.1074665,-0.6546823,0.7192448,-10.38371,1
28835806,6798,5.07,-2.38,-4.72,-1.16,-1.99,10.83,13.48,-0.2314287,-0.1152687,-0.1475218,-0.8069295,0.8514063,-10.67619,1
29055696,6727,4.73,-1.76,-5.33,-0.84,-2.43,10.82,11.81,-0.02710813,0.07157796,-0.1378704,-0.8049502,0.80596,-10.74358,1
29270376,6695,4.16,-0.59,-3.24,-0.23,-1.87,10.8,10.41,0.1424226,0.06799407,-0.0969856,-0.525839,0.7231547,-10.52924,1
29380657,6501,4.29,-0.31,-2.37,0.05,-1.63,10.8,10.1,0.03275289,0.07679461,-0.01311652,-0.477118,0.5652065,-10.42385,1
29609172,6576,4.03,-0.18,-2.25,0.63,-1.75,10.8,9.97,0.0178283,-0.04400052,0.02324322,-0.8508379,0.4918938,-10.13659,1
29718260,6404,4.16,-0.13,-2.43,0.96,-1.32,10.8,10.17,0.0631683,0.03613877,0.05796413,-0.467297,0.6646969,-10.07974,1
29817592,6470,3.96,-0.36,-2.09,2.17,-0.29,10.79,10.6,0.08322582,0.203387,0.1018378,-0.9968669,0.395533,-10.40451,1
29931073,6443,3.93,-0.83,-2.01,4.47,2.12,10.77,11.2,-0.03046734,0.5433531,0.1196086,-0.7130992,0.5443507,-10.20257,1
30039053,6270,4.31,-1.4,-1.98,6.58,4.82,10.73,11.81,0.07784442,0.3201214,0.1198516,-0.2425488,0.6851185,-9.876437,1
30147351,6448,3.98,-1.82,-1.98,7.34,6.14,10.71,12.28,0.003665681,0.03797804,0.05599166,-0.08201148,0.567347,-9.517424,1
30258224,6248,3.57,-2.03,-1.97,6.91,5.79,10.72,12.57,0.01026237,-0.05478746,-0.007816691,-0.4208846,0.610928,-9.167523,1
30367273,6357,3.45,-2.21,-2.16,6.09,4.32,10.75,12.66,-0.04433018,-0.3068081,-0.03730557,-0.4850786,0.6388329,-9.685025,1
30490469,6088,3.42,-2.2,-2.37,5.25,2.79,10.79,12.27,-0.0204772,-0.0792073799999999,-0.0777183199999999,-0.3310587,0.6031776,-8.739948,1
30589504,6122,4.43,-0.53,-2.02,3.89,2.21,10.82,11.76,0.2298048,-0.127314,-0.105799,-0.3776248,0.8096332,-9.508738,1
30701162,6285,3.94,2.37,0.46,2.0,0.91,10.79,11.09,0.5194044,-0.1743454,-0.09280252,-0.489637,0.6955866,-9.460576,1
30806756,6286,3.52,4.68,3.87,0.43,-0.63,10.69,10.32,0.5580503,-0.2993945,-0.08738928,-0.198623,0.4287854,-9.56892,1
30917511,6351,3.21,5.77,6.25,-0.37,-2.23,10.62,9.5,0.2263173,-0.1865375,-0.09335704,-0.3389133,0.6578968,-9.725442,1
31027209,5901,3.44,5.66,7.26,-0.52,-2.75,10.6,8.78,0.06930864,0.009237547,-0.09903695,-0.4195052,0.3935771,-9.753631,1
31134350,5946,3.58,5.05,6.8,-0.41,-2.24,10.62,8.28,-0.1168166,0.1331029,-0.1043253,-0.4928263,0.337988,-9.888699,1
31238738,6197,3.53,4.09,5.3,-0.29,-1.42,10.62,7.82,-0.3253478,0.1720372,-0.06745998,-0.5358317,0.376506,-10.20073,1
31567565,6140,3.54,2.86,0.93,-0.43,-1.02,10.62,7.96,-0.1367978,-0.01072927,0.06964011,-0.439586,0.4347937,-10.09205,1
31684063,6043,3.55,2.98,0.77,-0.51,-1.28,10.61,8.39,-0.04090654,0.06321148,0.07686179,-0.2905897,0.4637066,-9.536359,1
31790599,5961,3.67,3.06,0.94,-0.56,-1.46,10.61,8.72,0.0985921,-0.1019689,0.0756119299999999,-0.124166,0.4103958,-9.178978,1
31894215,6003,3.89,2.84,0.88,-0.52,-1.45,10.61,9.04,-0.0654413799999999,0.02564587,0.07048237,-0.5853894,0.1611036,-9.766382,1
32003036,6071,3.6,2.84,0.96,-0.42,-1.49,10.62,9.32,0.08129831,-0.02685132,0.04820565,-0.1969259,0.323913,-9.686179,1
32109608,6072,3.6,2.78,1.21,-0.3,-1.38,10.62,9.46,-0.03735097,-0.001180761,0.01933503,-0.3126301,-0.0039046,-9.688059,1
32215042,6115,3.84,2.26,0.71,-0.22,-1.13,10.63,9.59,-0.1834584,-0.03369453,0.01832748,-0.1259189,0.04662769,-9.850904,1
32328144,6148,3.92,1.94,-0.36,-0.08,-1.0,10.63,9.67,-0.1958976,-0.02602851,0.006762088,-0.1896,0.2127327,-9.721783,1
32439597,6241,3.59,1.49,-1.17,0.0,-0.9,10.64,9.66,-0.1427189,0.0880032,-0.03232095,0.004422888,0.3518857,-9.804607,1
32551611,6207,3.5,1.02,-1.68,0.15,-0.87,10.64,9.58,-0.1148879,0.08757966,-0.01289141,-0.2182159,0.151489,-9.51719,1
32657267,6002,3.62,1.5,-1.59,0.3,-0.92,10.64,9.47,0.1265734,-0.02692514,-0.02622609,-0.1606865,0.3289269,-9.67658,1
32775475,6086,3.76,2.51,-0.2,0.44,-0.48,10.65,9.33,0.3047615,0.1103892,-0.02059131,-0.05806113,0.4978312,-9.54747,1
32889838,6100,3.9,3.77,1.33,0.39,0.31,10.64,9.02,0.1584824,0.1521998,-0.06722657,-0.2665181,0.2538531,-9.398756,1
32989827,6096,3.37,4.59,2.79,0.06,0.43,10.62,8.64,0.3063646,-0.1015157,-0.05262329,-0.4988542,-0.02886979,-9.890276,1
33100990,6038,3.65,4.87,3.99,-0.53,0.29,10.57,8.76,0.1313016,-0.1079727,0.0913447,-0.265403,0.1830831,-9.928024,1
33435818,5985,3.94,2.39,2.66,-1.06,-1.59,10.52,11.12,-0.0845772,-0.03960864,0.1016774,-0.2354972,0.4405698,-9.497174,1
33554772,6160,4.06,0.51,0.84,-0.92,-1.43,10.53,12.0,-0.2537751,0.04353892,0.1530716,-0.1343257,0.2726254,-9.624146,1
33760685,6215,4.26,-1.27,-1.62,-0.36,-1.35,10.52,13.6,-0.1046436,0.02468692,0.1173781,-0.1585271,0.5118023,-9.652058,1
33985081,6295,4.4,-0.49,-0.07,-0.1,-0.06,10.51,14.17,0.07050168,0.1681841,0.02290064,-0.005775186,0.4188829,-9.674443,1
34090753,6483,4.12,-0.68,1.2,-0.2,0.1,10.52,14.38,0.2087739,-0.0005387095,0.04924339,-0.4518369,0.2506686,-10.1203,1
34204961,6478,4.19,-1.73,1.52,-0.65,-0.03,10.53,14.74,0.06919479,-0.1397481,0.05759325,-0.1574368,0.3565841,-10.11763,1
34307208,6541,4.31,-2.89,0.03,-1.04,-0.41,10.54,14.86,-0.4017175,-0.06815095,0.01136684,-0.116846,0.3795005,-9.811997,1
34417217,6342,4.21,-4.23,-2.49,-1.15,-1.2,10.55,14.6,-0.4619506,-0.008147715,-0.09735014,-0.4379699,0.3658552,-9.881118,1
34518636,6345,4.39,-5.3,-4.95,-1.12,-1.52,10.54,13.73,-0.2884806,0.07114246,-0.199867,-0.3794885,0.4892108,-9.703649,1
34632303,6515,4.19,-5.62,-6.28,-0.99,-1.16,10.53,12.34,-0.06971439,0.132773,-0.2064766,-0.1870634,0.4845977,-9.97084,1
34737540,6532,4.01,-5.36,-6.24,-0.9,-0.49,10.52,11.17,0.1948366,0.1521371,-0.1622031,0.0431822,0.5804088,-9.629838,1
34844126,6411,3.71,-4.9,-5.66,-0.99,-0.28,10.53,10.48,0.1216986,-0.08159676,-0.08500027,-0.006173265,0.5411822,-9.691703,1
35066783,6371,4.41,-4.09,-6.13,-1.18,-1.26,10.55,9.78,-0.1112985,-0.05330479,-0.05994052,-0.2477258,0.3355408,-9.726223,1
35175824,6386,4.09,-3.56,-5.55,-1.09,-2.01,10.54,9.6,0.1113219,-0.07590809,-0.02214631,-0.4583008,0.2722603,-9.942308,1
35281682,6413,4.33,-2.89,-4.44,-1.05,-2.1,10.54,9.55,0.1975957,0.0571576,0.002928154,-0.2248555,0.1390094,-9.750666,1
35383264,6543,4.75,-2.11,-3.41,-1.1,-1.37,10.54,9.54,0.1203213,0.2003433,0.02822373,-0.3326894,0.2036512,-10.19285,1
35597872,6639,4.12,-0.03,-0.81,-1.53,-0.81,10.55,9.75,0.2120735,0.004530391,0.03342988,-0.1070306,0.5293995,-9.700886,1
35714141,6443,4.13,0.55,0.55,-1.72,-1.08,10.55,9.77,0.1088751,0.07031323,0.0007013696,-0.3056399,0.3361822,-9.999059,1
35812132,6455,4.08,0.96,1.2,-1.92,-1.12,10.54,9.67,-0.0103876,0.1008806,-0.02535286,-0.1483257,0.3169865,-9.762596,1
35929772,6367,4.09,1.6,1.2,-2.19,-1.19,10.54,9.24,0.09485375,0.02795931,-0.06158359,-0.1949988,0.5023624,-9.612812,1
36037086,6191,3.73,2.28,1.84,-2.47,-1.4,10.53,9.03,0.2003495,-0.1512253,-0.006371255,-0.477004,0.1583728,-9.880373,1
36142341,6271,3.77,2.77,2.33,-2.64,-1.73,10.52,8.99,-0.006457441,-0.04096919,0.0128715,-0.5397823,0.2680767,-9.518958,1
36249704,6284,4.04,3.18,2.75,-2.84,-2.03,10.51,9.13,0.03655438,0.03576981,0.03201655,-0.4271531,0.2887855,-9.696033,1
36364387,6271,3.87,3.22,3.01,-3.03,-2.08,10.5,9.5,0.01682977,0.06184145,0.07451726,-0.5413909,0.1253516,-9.489312,1
36581272,6269,3.88,3.17,3.28,-3.19,-2.48,10.49,10.14,0.07092239,-0.06098048,0.04646776,-0.4278877,0.2533672,-9.510791,1
36694372,6242,4.08,2.98,3.38,-3.23,-2.59,10.49,10.41,-0.01076386,-0.06048981,0.02635972,-0.677224,0.01292514,-9.750242,1
36792068,6384,4.18,2.6,3.38,-3.3,-2.29,10.49,10.64,0.1474591,-0.02433612,0.0463817,-0.3956439,-0.06748268,-9.858734,1
36894191,6372,3.97,2.3,3.49,-3.29,-2.12,10.49,10.91,-0.07253298,0.04938933,0.05969183,-0.5019291,0.0008425997,-10.30061,1
37011783,6424,3.97,1.79,3.32,-3.36,-2.2,10.48,11.24,0.0133485,-0.07591017,0.03940921,-0.3164348,0.3843317,-9.549511,1
37120090,6372,3.73,1.17,2.74,-3.41,-2.28,10.48,11.31,-0.1076968,-0.04883263,0.0166464,-0.2724743,0.2778213,-9.662105,1
37230784,6177,3.88,0.62,1.32,-3.51,-2.37,10.48,11.31,-0.3173946,0.1276172,-0.00198784,-0.5720016,0.4556647,-9.791025,1
37331307,6244,3.92,0.26,0.16,-3.58,-2.49,10.48,11.19,-0.2271545,0.0083809179999999,-0.01501152,-0.6375916,0.2800161,-9.830766,1
37448775,6317,3.71,0.05,-0.38,-3.57,-2.71,10.48,10.82,-0.1172632,0.02852247,-0.05001871,-0.2142765,0.3461137,-9.245358,1
37551124,6352,3.78,-0.14,-0.49,-3.5,-3.0,10.48,10.44,-0.06786982,0.005814465,-0.0632899,-0.5992426,0.4128477,-9.70462,1
37663127,6239,3.96,-0.14,-0.29,-3.49,-2.86,10.48,10.07,-0.002017955,0.002302617,-0.07540707,-0.5878128,0.1301898,-9.905938,1
37771571,6173,3.89,-0.13,0.28,-3.39,-3.07,10.48,9.75,0.2140195,-0.0904610099999999,-0.04175125,-0.2726058,0.4080583,-9.506801,1
37988952,6200,3.92,-0.98,1.54,-3.16,-2.86,10.48,9.09,-0.1379111,0.09050199,-0.03971206,-0.5618638,0.2054136,-10.55071,1
38101224,6241,4.13,-1.35,-0.12,-3.18,-2.37,10.48,8.87,-0.3322826,0.1352395,-0.03872086,-0.2242456,0.5125591,-9.883441,1
38212020,6412,3.9,-1.8,-1.74,-3.28,-2.36,10.48,8.64,-0.08682718,-0.1798,-0.03553655,-0.3857976,0.5250548,-9.811059,1
38322828,6384,3.78,-1.93,-2.59,-3.32,-2.51,10.48,8.6,-0.04551468,-0.0874818599999999,0.009619443,-0.2020257,0.7332344,-9.937599,1
38419814,6168,3.6,-2.55,-2.27,-3.04,-3.14,10.47,8.73,0.07756135,-0.1544138,0.03588472,-0.338785,0.2177655,-9.873562,1
38530841,6030,3.57,-3.24,-2.48,-2.58,-3.36,10.45,9.02,-0.02470765,-0.01895043,0.04164255,-0.1053184,0.5888335,-10.05898,1
38640478,6152,3.65,-4.55,-3.4,-1.89,-2.76,10.43,9.27,-0.1771911,0.09114439,0.02545336,-0.3336193,0.4938127,-9.818697,1
38749385,6090,3.19,-5.49,-4.77,-1.12,-1.98,11.82,9.43,-0.2766884,0.1936291,0.06025739,-0.6244475,0.393445,-10.42043,1
38854702,5961,2.48,-5.77,-5.98,-0.29,-1.53,15.18,10.11,-0.09694893,-0.02614352,0.1834416,-0.08585455,0.766471,-9.876726,1
38969223,5798,2.21,-5.79,-5.95,0.48,-1.24,18.91,12.07,0.07509004,-0.04560539,0.4176958,-0.3246761,0.4853656,-9.866744,1
39078179,5385,2.73,-5.58,-5.69,0.94,-0.56,21.44,15.08,0.06462041,0.02656966,0.5372191,-0.2474064,0.558679,-9.727498,1
39187073,5579,2.9,-5.56,-5.39,1.22,-0.05,22.64,18.43,0.04232538,-0.02210012,0.5668035,-0.2967388,0.6775805,-10.06298,1
39287141,5674,3.46,-5.68,-5.03,1.38,0.23,22.78,21.32,0.07919096,-0.03453968,0.474394,-0.1382372,0.4578727,-9.612771,1
39509058,5963,3.79,-6.45,-3.81,1.7,0.3,22.74,26.02,0.08673857,0.02402227,0.2892774,-0.2825902,0.5874894,-9.835621,1
39618998,6147,3.56,-7.04,-3.5,1.93,-0.18,22.72,27.6,-0.0782978399999999,-0.0431956,0.2222884,-0.1099285,0.742384,-10.29919,1
39729277,6188,3.54,-8.76,-4.18,2.62,-0.43,22.62,28.87,-0.3912096,-0.0548221,0.1605972,-0.2716917,0.5689483,-10.2451,1
39839822,6026,3.72,-11.45,-6.8,3.69,0.65,22.43,29.56,-0.4966532,0.2405801,0.07375337,0.1978564,0.78659,-9.783996,1
39947126,6156,4.28,-14.69,-10.98,4.76,2.91,21.21,29.54,-0.5975763,0.4055453,0.001751503,-0.03596421,0.8333471,-9.948914,1
40055832,6378,5.42,-16.28,-14.62,5.23,4.82,19.73,28.75,-0.4509087,0.2733401,-0.1489913,0.3588046,1.003798,-9.554093,1
40168219,6672,5.21,-15.99,-16.14,5.41,5.77,19.5,27.13,0.1468566,0.06876833,-0.23232,0.2453366,1.170257,-10.27953,1
40270080,6897,4.35,-14.87,-14.28,5.12,5.6,19.58,25.77,0.5034057,-0.02167156,-0.2205637,-0.06615888,1.316662,-10.77435,1
40385626,6736,3.88,-13.28,-10.72,4.43,5.0,19.76,24.48,0.4764973,-0.03434251,-0.1891771,0.2147471,1.445363,-10.36311,1
40497247,6425,3.44,-12.27,-8.64,4.0,4.37,19.86,23.83,0.1512458,-0.2146725,-0.06099166,0.3287811,1.054802,-10.5164,1
40597154,6115,4.01,-11.94,-8.36,3.85,4.23,19.89,23.45,0.01994652,0.009231237,-0.0738607,0.5863771,0.8630618,-9.327836,1
40710189,6173,4.46,-11.77,-9.1,3.83,4.62,19.89,23.43,-0.0647266299999999,0.180901,0.05503589,0.5289025,1.666757,-9.227536,1
40818211,6415,3.92,-11.65,-8.7,3.79,4.31,19.9,24.17,0.1655707,-0.323642,0.1509497,0.6062728,1.001584,-9.234938,1
40923498,6515,4.73,-10.98,-8.55,3.81,3.32,19.9,25.07,-0.01462223,-0.05758286,0.1013372,0.4467354,1.152366,-9.246164,1
41032099,6547,5.01,-10.29,-8.21,3.69,3.07,19.92,25.7,0.06095848,0.009633688,0.09024934,0.3645921,0.8178971,-9.523299,1
41146365,6679,4.95,-9.22,-8.28,3.81,2.41,19.9,26.36,0.0591306,-0.2337804,0.0885771499999999,0.2151064,0.7466154,-9.679044,1
41251709,6802,5.57,-7.91,-8.06,3.71,2.34,19.91,26.67,0.1628878,0.06881724,0.04319039,0.1315912,0.6864924,-9.682046,1
41367911,6869,5.15,-6.49,-7.19,3.63,2.79,19.92,26.66,0.2225419,0.02349883,-0.03133266,0.2276327,0.9035122,-10.10888,1
41466629,7050,4.25,-5.57,-5.67,3.74,2.23,19.91,26.34,0.1545972,-0.06029424,-0.07705802,0.3057446,0.9872231,-10.31091,1
41571731,6750,4.92,-4.72,-4.12,3.7,2.03,19.91,25.69,0.1121648,0.0672603299999999,-0.1048238,0.1305037,0.6485032,-10.04425,1
41683213,6617,4.46,-4.18,-3.5,3.53,2.51,19.93,24.93,0.1088804,0.07882559,-0.0732203,0.3099705,1.234823,-9.803799,1
41793603,6645,3.91,-4.33,-1.85,3.25,2.65,19.95,24.64,0.2521977,-0.06896109,-0.02014089,0.3522601,0.675783,-10.6168,1
41905033,6516,3.43,-4.3,-1.42,3.2,1.8,19.95,24.78,-0.1239009,-0.09616456,0.0120772,0.09611785,0.6934148,-9.843178,1
42015276,6187,3.61,-4.24,-2.56,3.26,1.4,19.95,24.72,-0.0912582599999999,-0.08963137,-0.01059698,0.1846877,0.4641029,-9.65454,1
42120513,6218,3.82,-4.12,-3.78,3.41,1.64,19.94,24.32,-0.1530512,-0.02879138,-0.09690693,0.4372123,0.4132275,-8.874051,1
42228207,6276,4.39,-3.38,-4.94,3.52,2.28,19.93,23.56,-0.05268306,0.06214466,-0.1197728,-0.2964471,0.495342,-9.238043,1
42454498,6404,4.3,-1.37,-3.1,2.14,3.27,19.98,22.3,0.2606918,0.06770981,-0.00226199,-0.04253761,0.6868234,-9.250537,1
42546168,6487,4.26,-0.68,-2.06,1.1,3.1,20.0,22.43,0.2059935,-0.02346577,0.05339558,0.0239779,0.7741042,-9.350121,1
42664630,6583,4.46,-0.14,-1.72,-0.17,1.84,20.01,22.86,-0.02369207,-0.2575908,0.03984632,-0.1011883,0.6702343,-9.20704,1
42778079,6442,4.76,0.13,-1.38,-1.3,0.54,20.01,23.23,0.02343385,-0.2432894,0.05684871,0.07172508,0.06955189,-9.438284,1
42876079,6557,4.69,0.62,-1.77,-1.98,-0.59,20.0,23.45,-0.04690945,-0.1905725,0.01309111,-0.2231521,0.5707424,-9.75545,1
42989073,6627,4.33,0.9,-1.46,-2.38,-1.83,20.0,23.5,0.1779007,-0.2779725,-0.01468676,-0.1394655,0.3859401,-9.7371,1
43087865,6497,4.21,1.17,-0.87,-2.43,-2.68,20.0,23.36,0.1943705,-0.08018632,-0.03929975,-0.3509794,0.6187899,-10.13508,1
43204988,6390,3.93,1.16,0.68,-2.32,-2.71,20.0,22.9,0.0771139099999999,0.02699834,-0.07590006,-0.2371464,0.2780579,-10.25634,1
43312681,6429,4.02,1.26,1.3,-2.09,-2.34,20.0,22.34,0.1727522,0.01813868,-0.1071603,0.01643001,0.4807794,-9.408092,1
43419205,6328,3.83,1.59,2.01,-1.9,-2.02,20.01,21.56,0.01890363,0.1454142,-0.1490132,-0.08309481,0.6130975,-9.983665,1
43524770,6323,3.53,1.76,3.01,-1.91,-1.47,20.01,20.66,0.0465979,0.160563,-0.1362343,-0.07312158,0.6107982,-10.36348,1
43635801,6238,3.3,1.27,3.15,-1.91,-1.46,20.01,19.76,-0.1040255,0.06311645,-0.1342137,-0.2016765,0.3990561,-9.850582,1
43741131,5984,3.4,0.04,1.17,-2.06,-1.53,20.01,19.07,-0.5365679,0.011087,-0.0988076799999999,-0.2493782,0.2998301,-9.368476,1
43865155,5959,3.61,-1.11,-1.9,-2.25,-1.95,20.01,18.16,-0.3102415,-0.06202644,-0.1612238,-0.4472536,0.5448409,-9.195219,1
43966570,6020,4.03,-1.42,-3.6,-2.64,-1.66,20.02,17.27,-0.2320995,0.1235014,-0.1538361,-0.3800268,0.8327554,-9.497727,1
44072524,6286,3.74,-1.48,-2.28,-2.77,-0.67,20.02,16.57,0.3369436,0.2350641,-0.02597547,-0.634263,0.5698519,-10.13109,1
44175468,6301,3.66,-1.56,-0.51,-2.88,0.6,20.02,16.99,0.2441607,0.09696348,0.1783491,-0.3336399,0.2542093,-10.20333,1
44281794,6324,3.06,-1.76,-0.17,-2.66,0.82,20.02,18.86,-0.001359582,-0.2536203,0.3521737,0.03251526,0.3365172,-9.913044,1
44393195,6165,3.36,-2.53,-0.71,-1.71,-0.26,19.98,21.14,-0.1174326,-0.1705493,0.334806,-0.2302298,0.3390518,-10.02399,1
44508963,6075,3.48,-3.31,-1.85,-0.31,-0.68,19.91,23.17,-0.06574024,-0.09843067,0.2984883,-0.004030607,0.4407287,-10.05244,1
44617876,6111,3.61,-3.91,-3.07,1.54,-0.42,19.79,24.39,0.01341355,0.05172066,0.1550812,-0.03590254,0.8945845,-9.66182,1
44729257,6090,4.14,-4.37,-4.01,3.07,1.07,19.68,24.85,-0.447309,0.269049,0.06443479,0.161699,0.4679298,-9.324707,1
44943377,6144,3.45,-4.53,-4.61,5.17,3.54,19.52,24.72,0.2785006,0.08469886,-0.01033693,0.2390386,0.5709538,-9.756259,1
45051494,6198,3.65,-4.64,-4.17,5.96,4.4,19.45,24.2,0.03282201,0.09931514,-0.0932497199999999,0.2363334,0.854232,-9.273788,1
45151469,6172,3.74,-4.76,-4.11,6.35,5.2,19.42,23.33,-0.04514417,0.2237655,-0.1718727,-0.1837797,0.6759978,-10.10525,1
45275481,6195,3.6,-4.95,-4.05,6.43,5.72,19.41,22.31,0.0949846699999999,0.01465747,-0.1136689,0.2392244,0.8553166,-9.596886,1
45484769,6017,3.26,-5.04,-3.9,6.15,5.8,19.44,20.98,-0.03013798,0.08379069,-0.06277728,0.03623398,0.6565046,-9.92453,1
45591622,6149,3.49,-4.98,-3.85,6.02,5.83,19.45,20.68,-0.03973185,0.02694121,-0.03674121,-0.0428626,0.7688981,-10.16703,1
45707164,6213,3.56,-4.86,-4.3,6.07,5.73,19.45,20.58,0.01962242,-0.1188236,-0.03045731,0.3428145,0.6401592,-9.871076,1
45804762,6044,3.51,-4.7,-4.58,6.29,5.33,19.43,20.65,0.0005568857,-0.08615991,0.02460024,0.07924127,0.6467016,-9.877692,1
45916184,6115,3.64,-4.46,-4.48,6.57,5.29,19.4,20.72,-0.0084686139999999,0.05759396,0.009167582,0.1264275,0.8215272,-10.23942,1
46024487,6130,3.36,-4.3,-3.89,6.78,5.45,19.39,20.57,0.03128076,0.02646548,-0.02745937,0.06394229,0.7273207,-10.20911,1
46120122,6159,3.65,-4.26,-3.38,6.8,5.84,19.39,20.35,0.07879499,0.06052355,-0.0241957,0.2317103,0.6222853,-10.15327,1
46235773,6242,3.12,-4.28,-3.32,6.8,5.67,19.39,20.19,0.0303493,-0.1173602,-0.02924563,0.08175217,0.7456211,-10.20744,1
46561761,5943,3.14,-4.42,-4.05,5.67,4.68,19.47,19.6,0.03285541,-0.1689393,0.0009243652,0.2913329,0.8247738,-9.789287,1
46673386,6012,3.48,-4.37,-4.19,5.04,4.25,19.52,19.65,-0.0334746,-0.05522774,0.04076926,0.05798854,0.7669436,-9.734396,1
46780714,5914,3.28,-4.26,-4.16,4.52,3.76,19.56,19.88,0.06010696,-0.1421874,0.06136201,0.07833698,0.7219195,-9.674001,1
46892300,5957,3.33,-4.23,-3.87,3.92,3.46,19.61,20.35,0.126165,-0.05100363,0.09060455,0.1826169,0.5707363,-9.476487,1
47003350,5974,3.83,-3.72,-3.77,2.87,3.09,19.68,20.95,-0.0699585,-0.0796041,0.07633884,0.3772939,0.765023,-9.62261,1
47215775,6056,3.41,-1.0,-0.87,1.53,1.26,19.74,21.94,0.203457,-0.09285634,0.0735506799999999,0.3707826,0.7010966,-9.41962,1
47324215,6000,3.65,0.54,0.52,1.12,0.34,19.74,22.16,0.1520535,-0.02418078,0.02996003,0.3746665,0.7534866,-9.465345,1
47441135,6022,2.97,1.83,2.25,0.59,-0.77,19.73,22.03,0.0869452,-0.1646511,-0.03840312,0.2158715,0.569618,-9.661168,1
47547226,5869,3.05,2.53,3.29,0.37,-1.03,19.72,21.53,0.1241321,-0.06312018,-0.0877976699999999,0.1339224,0.6292207,-9.521,1
47659449,5820,3.32,2.9,3.53,0.26,-0.7,19.72,20.99,0.1108061,0.04602122,-0.1118589,0.2367831,0.7801803,-9.29956,1
47773219,5951,3.29,2.82,3.66,0.17,-0.62,19.71,20.45,-0.08258056,-0.04274217,-0.08162527,0.2295175,0.5225546,-9.482827,1
47885598,5868,2.73,2.63,3.36,0.24,-0.99,19.72,20.24,-0.01879055,-0.04483091,-0.0005448243,0.5192549,0.9408109,-9.736536,1
47996097,5707,2.67,1.07,2.49,1.55,-1.09,19.76,20.23,-0.3202105,0.1497171,-0.004777136,0.02884827,0.347781,-9.647018,1
48095173,5527,3.39,0.0,0.36,3.25,0.5,19.77,20.26,-0.333003,0.3425615,-0.0098549439999999,0.5789215,0.5288756,-9.914219,1
48212769,5787,3.11,-1.21,-1.27,5.03,2.77,19.75,20.15,-0.1958012,0.3020473,-0.01028951,0.4587942,0.7732064,-9.86558,1
48321277,5854,3.32,-2.16,-2.2,6.48,4.75,19.71,19.91,-0.2295046,0.3729312,-0.04263489,0.3999722,0.7430578,-10.46174,1
48537035,5831,3.18,-2.59,-2.46,7.34,6.55,19.67,19.42,-0.08166801,0.01679387,-0.006063296,0.6464805,0.537127,-10.12935,1
48644830,5912,3.15,-2.52,-2.69,7.27,6.46,19.68,19.42,-0.008766013,-0.08001141,0.01357214,0.4873875,0.6364792,-10.10882,1
48755488,5827,3.55,-2.53,-2.93,6.97,6.4,19.69,19.51,-0.03819488,0.008685254,0.03569506,0.6733567,0.7013494,-10.52384,1
48863753,6003,3.36,-2.42,-3.18,6.81,6.43,19.7,19.6,-0.02732127,0.03660164,0.0093148539999999,0.2375983,0.3472039,-10.55371,1
48970267,6056,3.66,-2.19,-3.21,6.53,6.44,19.71,19.78,0.006524259,-0.0732987799999999,0.04652593,0.5106243,0.6908464,-10.45475,1
49079269,6016,3.55,-1.98,-3.13,6.09,6.22,19.73,20.03,0.04234326,-0.1382058,0.03845857,0.8467072,0.5606133,-9.925117,1
49193101,6204,3.46,-1.77,-2.93,5.63,5.53,19.74,20.24,0.1837807,-0.09000967,0.02999447,0.4000499,0.5569823,-10.10521,1
49305256,6080,3.39,-1.49,-2.9,5.3,5.25,19.75,20.27,-0.04080945,-0.09370043,-0.0086524689999999,0.6283939,0.6747221,-10.31829,1
49412611,6172,3.24,-1.39,-2.49,5.08,4.57,19.76,20.34,0.1451846,-0.129904,-0.02453948,0.4722078,0.4604216,-9.714436,1
49519236,6008,3.24,-1.32,-2.08,4.81,4.01,19.76,20.4,0.2099838,-0.1164893,5.45371e-05,0.4437792,0.3900644,-9.856555,1
49625038,5940,3.09,-1.19,-1.96,4.3,3.58,19.77,20.43,-0.03013365,-0.08976115,0.003879974,0.5166863,0.564073,-9.902413,1
49743551,5860,3.22,-1.14,-1.71,3.6,3.04,19.79,20.42,0.05876479,-0.1682334,0.008225365,0.7171885,0.8272955,-9.556567,1
49852144,5908,2.76,-1.54,-1.81,2.4,1.83,19.81,20.31,-0.03826121,-0.1989133,-0.04910013,0.6890967,0.862564,-9.553526,1
49956765,5851,2.8,-2.32,-2.49,1.59,0.66,19.84,20.1,-0.1404732,-0.06996179,-0.05733464,0.2765977,0.7227377,-9.774518,1
50076056,5730,2.67,-2.98,-3.51,1.14,0.16,19.86,20.09,-0.0737462,-0.05642321,0.01410934,0.3018662,0.7259307,-9.260727,1
50179146,5758,2.92,-3.33,-4.02,0.91,0.45,19.88,20.15,-0.04979891,0.03091689,0.02689718,0.4774151,0.5740604,-9.148126,1
50390018,5770,2.49,-3.51,-3.79,0.67,0.49,19.89,20.17,0.02679652,-0.005741664,-0.02145512,0.6077418,0.7024265,-9.519431,1
50498591,5725,2.68,-3.57,-3.23,0.48,0.45,19.46,19.81,0.1199126,0.00380748,-0.05102185,0.3927867,0.7708845,-9.332541,1
50606226,5679,3.05,-3.76,-2.95,0.31,0.27,17.32,19.06,0.1134816,-0.06706069,-0.155464,0.600079,0.5315655,-9.539542,1
50717551,5807,2.87,-4.05,-3.02,0.3,0.17,16.58,17.67,0.01600826,-0.02023278,-0.2136949,0.3136181,0.7460088,-9.521763,1
50824608,5868,2.66,-4.29,-3.5,0.41,0.11,16.57,16.42,-0.08617803,0.002667671,-0.1818195,0.4700033,0.7193232,-9.577088,1
50929085,5642,2.71,-4.54,-3.76,0.48,0.19,16.57,15.72,-0.05518392,0.05777697,-0.09626857,0.4013274,0.917259,-9.662018,1
51044788,5660,2.89,-5.34,-4.02,-0.52,-0.11,16.65,15.39,-0.05137304,-0.1357908,-0.008574569,0.8285111,0.4154487,-9.799644,1
51146385,5698,2.68,-6.28,-4.65,-2.18,-1.74,16.82,15.46,-0.1180334,-0.4468379,-0.02907491,0.7184481,0.6839758,-10.20747,1
51255047,5601,2.48,-7.51,-5.58,-4.24,-4.8,17.07,15.79,-0.1302523,-0.538336,0.02610228,0.1310119,0.6888744,-10.05432,1
51366824,5625,2.74,-8.06,-6.43,-5.03,-6.67,17.18,16.27,-0.009932289,-0.1375459,0.04272977,-0.02553744,0.8353584,-10.46339,1
51473148,5572,3.12,-7.97,-6.51,-4.58,-6.06,17.12,16.61,0.06648011,0.2547899,0.0498041,-0.0102624,0.9473337,-10.30233,1
51583269,5673,3.27,-7.66,-5.9,-3.56,-4.15,16.97,16.85,0.08324233,0.3252697,0.0815767,0.03226271,0.7388878,-10.3929,1
51703082,5766,3.46,-7.28,-5.77,-2.72,-1.99,16.86,17.19,-0.0841919099999999,0.2743272,0.06209611,0.2161055,0.8639277,-10.13203,1
51803559,5913,3.51,-7.04,-5.8,-2.31,-0.89,16.81,17.49,0.02129009,0.08780252,0.07836765,0.4547727,0.7679686,-10.04765,1
51915028,5913,3.63,-6.71,-6.16,-2.18,-0.3,16.8,17.83,-0.03454401,0.0751017499999999,0.0396075,0.4017444,0.8524612,-9.847361,1
52022080,6057,3.47,-6.37,-6.15,-2.33,-0.08,16.81,17.89,0.03341274,0.09634732,-0.0243013,-0.2502576,0.9212437,-10.65986,1
52139719,6068,3.49,-6.15,-5.41,-2.51,-0.28,16.83,18.03,0.2029136,-0.02798704,0.03773986,0.155745,1.021049,-10.04802,1
52252067,6214,3.35,-5.92,-4.83,-2.59,-0.7,16.84,18.27,0.1480886,-0.1185512,0.03262914,0.08187068,0.928122,-9.960543,1
52360217,6120,3.3,-5.77,-4.58,-2.53,-0.76,16.57,18.46,-0.02793005,-0.02979853,4.422157e-05,-0.3267027,0.5588161,-10.65747,1
52459021,6187,4.31,-5.53,-4.85,-2.53,-0.55,14.99,18.37,-0.0653580899999999,-0.01175241,-0.05360926,-0.02012706,1.031452,-9.932327,1
52568988,6337,4.77,-5.31,-4.66,-2.83,-0.31,11.14,17.51,0.1130061,-0.0006770435,-0.1879951,0.05781834,0.9060659,-9.906898,1
52676529,6490,4.54,-4.95,-4.41,-3.06,-0.68,7.63,15.49,0.1689669,-0.1334201,-0.4304589,0.1784469,0.7832476,-9.967694,1
52790239,6590,4.08,-4.64,-4.51,-3.06,-0.84,6.69,12.75,-0.2403868,0.1577057,-0.450042,-0.08453817,0.9071319,-9.931884,1
52902238,6483,3.47,-4.35,-4.8,-2.94,-0.87,6.68,9.97,-0.2029999,0.09944479,-0.3627245,-0.08804487,0.8423885,-9.456096,1
53013718,6415,3.41,-4.03,-4.29,-2.96,-0.59,6.68,8.09,0.1211693,0.1399007,-0.2482358,-0.1165745,0.7629633,-9.977076,1
53114809,6110,3.21,-3.66,-3.62,-2.96,-0.51,6.68,6.93,0.1268742,0.03442385,-0.1781902,-0.06688035,0.5998299,-10.07811,1
53222762,6026,3.01,-3.34,-3.07,-3.01,-0.72,6.68,6.18,0.04226184,0.02056097,-0.09570067,-0.130218,0.7820663,-9.742853,1
53330744,6015,3.15,-3.13,-2.91,-3.08,-1.24,6.69,5.93,0.05375528,-0.1422996,-0.01495645,-0.2201747,0.7391552,-9.881309,1
53440808,6043,3.43,-3.0,-3.06,-3.2,-1.19,6.69,6.02,-0.01483951,0.02007787,0.0459275,-0.2287225,0.7654333,-9.565056,1
53661781,6069,3.3,-2.68,-2.88,-3.33,-1.7,6.7,6.68,-0.008132177,-0.1194713,0.04960801,0.008649241,0.6747943,-9.737919,1
53777479,5976,3.5,-2.47,-2.9,-3.35,-1.99,6.7,6.99,-0.08658127,0.06297176,0.05086037,-0.2033566,0.7663165,-9.490635,1
53987554,6057,3.35,-2.37,-2.51,-3.22,-1.78,6.69,7.3,0.112928,-0.07202066,0.01643771,0.2550171,0.6878112,-8.927002,1
54093572,6114,3.49,-2.39,-2.56,-3.14,-1.62,6.69,7.23,-0.02421191,0.03525855,-0.004443259,-0.3789083,0.6173381,-9.505494,1
54209254,6142,3.37,-2.48,-2.61,-3.13,-1.78,6.69,7.06,-0.06064683,-0.04181754,-0.02647684,-0.3604531,0.6767098,-9.132192,1
54315470,5950,3.25,-2.62,-2.49,-3.12,-1.82,6.69,6.95,0.01897981,-0.06816961,-0.02206997,0.01618396,0.7241125,-9.768364,1
54424122,6061,3.44,-2.69,-2.71,-2.91,-2.01,6.68,6.78,0.09491169,-0.04400314,-0.0002006095,-0.1181427,0.9846653,-9.16118,1
54527926,5927,3.17,-2.86,-2.91,-2.71,-1.98,6.67,6.62,-0.08375687,0.09707871,-0.02767157,-0.2593305,0.8726352,-9.408499,1
54637046,5921,3.39,-2.99,-3.18,-2.34,-1.9,6.65,6.65,-0.08851165,0.06042927,0.04140012,-0.2651295,0.755887,-9.548093,1
54749276,6020,3.65,-3.06,-3.14,-1.97,-1.59,6.63,6.91,0.08907109,-0.01453635,0.08075199,-0.1323925,0.7982173,-9.812002,1
54857619,6084,3.35,-3.11,-2.9,-1.52,-1.71,6.61,7.12,-0.04479597,0.08374801,0.0314195,-0.265409,0.6293497,-9.996598,1
54977356,6055,3.26,-3.16,-2.97,-1.11,-1.4,6.59,7.27,-0.02521863,0.07954992,0.01393643,-0.3660545,0.6784146,-9.941811,1
55080076,5871,3.23,-3.3,-3.05,-0.76,-1.05,6.51,7.17,0.02848152,0.05238291,-0.04651612,-0.1920669,0.7503217,-9.365675,1
55191060,5887,3.65,-3.33,-3.43,-0.66,-0.35,5.02,6.66,-0.0533988,0.1776954,-0.1105054,0.05805895,0.9889998,-9.732624,1
55289161,6065,4.07,-3.46,-3.07,-0.82,-0.28,2.01,5.55,0.01668928,-0.06357121,-0.2818919,-0.3994762,0.9495888,-9.868036,1
55401584,6278,4.04,-3.59,-2.91,-1.23,-0.56,358.54,2.92,0.02509923,-0.00310101,-0.4605386,-0.7010028,1.031823,-10.74299,1
55508471,6207,3.0,-3.89,-2.49,-1.53,-0.7,357.85,0.0,0.1403384,0.08197395,-0.4603837,-0.4107329,1.086747,-9.004375,1
55620598,6094,2.73,-4.17,-2.93,-1.8,-0.53,357.87,357.37,-0.07917056,0.06860455,-0.3633295,-0.6469694,0.8495716,-9.791368,1
55737130,5830,3.05,-4.69,-3.6,-2.14,-0.42,357.89,355.29,-0.1518155,0.0207879,-0.262624,-0.1865293,0.6262217,-9.016088,1
55847012,5861,3.45,-5.13,-4.29,-2.55,-0.22,357.93,353.76,-0.08922838,0.05558779,-0.1984761,-0.6385965,0.9063767,-10.05585,1
56059185,5912,2.89,-5.38,-5.35,-3.5,-1.25,358.02,352.35,0.1015419,-0.2843888,-0.08385552,-0.1610734,0.8509087,-9.560589,1
56170146,5795,2.93,-5.39,-5.19,-3.73,-2.46,358.04,352.41,0.03225163,-0.1967076,0.04846587,-0.5337085,0.8854774,-9.91548,1
56281228,5703,3.2,-5.27,-4.91,-3.8,-3.08,358.05,352.88,0.02586249,-0.04574021,0.09306448,-0.6968001,1.162834,-9.56737,1
56391117,5944,3.51,-5.14,-4.84,-3.62,-3.21,358.03,353.61,-0.06548242,0.07550657,0.1188134,-0.07722658,0.6440278,-9.926104,1
56499010,5995,3.52,-5.01,-4.92,-3.38,-3.08,358.01,354.41,0.04774712,-0.05995284,0.1377036,-0.2512439,0.9302087,-9.768781,1
56605226,6136,3.36,-5.0,-4.39,-3.17,-2.78,357.99,354.97,0.1891631,-0.02525923,0.09360535,-0.4022072,0.8383073,-10.26231,1
56710597,6025,3.08,-4.96,-3.97,-2.96,-2.87,357.97,355.4,0.001301696,0.001606636,0.0630880999999999,-0.6557695,0.9730917,-10.32193,1
56829119,5915,2.92,-4.76,-3.17,-1.81,-2.2,357.87,355.74,0.1102635,0.2264699,0.05162744,-0.7940932,0.6158151,-9.98984,1
56934830,5929,3.48,-4.92,-3.11,0.82,1.01,357.65,355.63,-0.02237512,0.670379,0.01796545,-0.5851539,1.107446,-9.720445,1
57040953,5751,3.45,-4.84,-2.98,2.75,4.43,357.48,355.21,0.2648412,0.3545124,-0.0606694,0.1627464,0.7307855,-9.657618,1
57148266,5627,2.89,-4.62,-3.14,3.53,4.91,357.42,354.57,-0.1905194,0.01575301,-0.1216365,-0.6385171,1.005611,-10.19242,1
57266410,5608,2.73,-4.62,-2.85,3.44,4.72,357.42,353.86,-0.08146171,-0.04207122,-0.1292726,-0.4651982,0.534042,-9.847916,1
57369165,5535,3.12,-4.46,-3.52,3.23,4.2,357.44,353.54,-0.264157,-0.1354424,-0.001111488,-0.5551856,0.7898108,-9.664268,1
57595375,5705,3.07,-4.33,-4.43,2.79,3.18,357.47,353.82,-0.07111239,-0.1519368,0.0668035,-0.5217229,0.8303096,-9.707512,1
57707246,5849,3.36,-4.67,-4.87,0.83,1.16,357.63,354.49,-0.1065047,-0.4044267,0.0879019999999999,0.1346238,0.9796591,-9.285014,1
57805129,6069,3.25,-4.81,-5.34,-1.07,-1.63,357.79,355.23,-0.002922557,-0.5231956,0.09225463,-0.0603997,0.7965257,-9.370947,1
57922105,5990,3.62,-4.69,-5.61,-2.59,-3.89,357.92,356.04,-0.07643408,-0.119472,0.08687904,-0.7305973,0.9031965,-10.1801,1
58028598,6076,3.64,-4.21,-5.23,-3.1,-4.38,357.96,356.55,-0.002393146,-0.01874828,0.0620796,-0.3449526,0.7096812,-10.17247,1
58145981,6142,3.55,-4.81,-5.21,-2.96,-4.12,357.95,357.05,-0.1314076,0.05582153,0.07923912,-0.473838,0.3991355,-10.10921,1
58250192,6034,3.82,-6.39,-6.66,-2.67,-3.09,357.92,357.46,-0.3777259,0.1646477,0.1074757,-0.3705966,0.5946932,-10.07981,1
58350266,6246,3.95,-7.82,-8.81,-2.73,-2.64,357.93,358.0,-0.2418492,-0.07261267,0.08915581,-0.6114316,0.9703895,-10.4332,1
58463062,6415,4.35,-9.45,-10.82,-3.16,-2.1,357.99,358.45,-0.2275343,-0.0009834176,0.07269622,-0.3035747,0.9181599,-9.922975,1
58807133,6440,4.14,-8.75,-10.24,-3.87,-3.24,358.12,359.28,0.3262892,0.1214515,0.000154729,-0.1952794,1.274423,-9.851281,1
58909477,6391,3.77,-6.15,-6.92,-3.8,-3.36,358.12,359.24,0.5105201,0.06884994,-0.005968976,-0.5118208,1.106518,-10.11499,1
59022591,6530,3.61,-4.06,-3.63,-3.5,-3.22,358.09,359.16,0.4468428,0.01365595,-0.0274461,-0.4348488,0.9161255,-10.23078,1
59134244,6407,3.76,-3.05,-2.01,-3.23,-3.01,358.07,359.12,0.2220154,-0.05902965,0.009965543,-0.6179341,0.8742666,-10.31169,1
59240141,6255,4.05,-2.91,-1.87,-4.08,-3.32,358.12,359.1,-0.05614625,-0.1550265,-0.001581057,-0.1393324,0.9478356,-10.11018,1
59339107,6240,3.23,-5.02,-3.03,-4.6,-4.47,358.14,359.05,-0.5196817,-0.1035891,0.001052945,-0.6832929,0.5112171,-9.68716,1
59455069,6160,4.52,-8.41,-7.26,-4.28,-4.15,358.11,358.98,-0.4828851,0.03919048,-0.0555457,-0.4375819,1.082715,-9.531789,1
59559997,6481,4.82,-9.75,-11.22,-4.31,-3.51,358.11,358.76,-0.4664181,0.02959307,-0.05752255,-0.4657517,1.518965,-9.658665,1
59669233,6682,4.55,-9.96,-12.44,-4.35,-3.6,358.12,358.44,-0.04039987,0.0563353,-0.04390475,-0.4065303,1.330358,-9.784476,1
59780838,6491,4.12,-9.5,-11.63,-4.41,-3.73,358.13,358.22,0.1977257,0.02464538,-0.01113806,-0.5287676,0.948188,-10.05214,1
59890995,6567,4.39,-9.24,-10.9,-4.12,-3.77,358.08,358.24,0.130852,-0.05009814,0.01616892,-0.2434076,1.182951,-9.581124,1
