TimeUS,RPM,Curr,DesRoll,Roll,DesPitch,Pitch,DesYaw,Yaw,GyrX,GyrY,GyrZ,AccX,AccY,AccZ,Guasto
0,4223,2.79,0.02,0.94,0.62,-1.41,28.71,28.84,0.05776773,-0.08785147,-0.01124617,0.005377453,0.002172575,-10.1371,1
217313,4818,4.35,-0.48,1.45,1.16,-0.17,28.7,30.04,0.06335431,0.2369523,0.1896758,0.4196369,0.3383443,-12.13654,1
328053,5805,3.97,-1.1,1.64,1.59,1.23,28.7,31.16,0.03904204,0.1714638,0.1553708,0.3382891,0.2726979,-12.32938,1
442076,6018,3.45,-1.88,1.28,1.85,1.8,28.69,32.22,-0.1870778,0.06121817,0.1638619,0.3687125,0.1494121,-11.56088,1
539026,5912,3.14,-3.39,0.14,1.75,2.05,28.7,33.07,-0.2038817,0.01383677,0.1450126,0.3336926,0.4504748,-10.97369,1
647273,5873,3.47,-5.85,-1.67,1.74,1.87,28.65,34.08,-0.3992994,-0.006203665,0.1661879,0.3741591,0.433354,-10.65762,1
754235,5971,3.82,-7.64,-3.94,1.52,1.75,27.73,35.02,-0.3774955,-0.0930300399999999,0.1256978,0.487519,0.3215311,-10.16498,1
871178,6021,4.19,-8.86,-6.36,1.2,1.58,26.32,35.66,-0.2799326,-0.1346511,0.06074226,0.2716508,0.5675407,-10.29614,1
978417,6180,4.08,-9.35,-7.38,0.87,1.32,24.74,35.68,-0.03190965,-0.1309947,-0.0672181,0.5948914,0.3586086,-9.852399,1
1086285,6108,3.8,-9.51,-7.34,0.74,1.09,22.29,34.85,0.004721478,0.0420675,-0.2071445,0.4338874,0.3881459,-10.01241,1
1191331,6270,4.54,-9.23,-7.24,0.42,1.49,18.61,33.15,0.0744141599999999,0.1116645,-0.3283446,0.3576005,0.5309063,-9.652008,1
1301882,6259,4.5,-8.86,-6.69,0.2,2.03,15.42,30.32,0.2465474,0.155963,-0.5149369,0.438579,0.5473379,-9.685359,1
1418695,6290,3.68,-8.29,-5.83,0.28,1.93,13.48,26.65,0.08674525,-0.01878005,-0.5626264,0.154809,0.6450611,-9.887296,1
1526846,6179,2.95,-8.0,-4.84,0.26,1.7,13.44,23.12,0.1701438,0.0364029,-0.5247233,0.3746246,0.6289256,-9.807358,1
1850944,5964,3.18,-9.37,-5.69,-0.31,1.89,13.53,17.46,-0.02791203,-0.06076589,-0.05945627,0.2184825,1.117285,-9.802447,1
1955447,5751,3.14,-9.39,-5.56,-0.43,1.66,13.55,17.43,0.0668443299999999,0.1112351,-0.002239207,0.1266316,1.12911,-10.25729,1
2071289,5650,3.32,-9.33,-5.63,-0.67,2.31,13.59,17.49,-0.05038699,0.08355214,0.003309353,-0.05249366,0.8579482,-9.626743,1
2177069,5780,3.31,-9.77,-5.97,-1.0,2.3,13.65,17.48,-0.04146842,-0.117517,-0.04372739,0.04916042,1.175481,-9.832584,1
2289077,5948,3.41,-10.49,-6.69,-1.6,1.5,13.75,17.51,-0.1428247,-0.1606678,-0.004178495,-0.0968205,1.055187,-9.826655,1
2396280,5849,3.77,-11.42,-7.94,-2.33,0.72,13.89,17.72,-0.3404524,-0.0736227,0.04629546,0.0167303,1.186725,-9.821664,1
2510042,5955,3.86,-11.48,-9.12,-2.56,0.11,12.2,16.53,-0.05422739,0.01086779,0.08252817,-0.1044195,1.151889,-9.838723,1
2622529,6141,3.99,-10.55,-8.97,-1.84,0.36,12.06,17.17,0.09345629,-0.002554558,0.09021732,0.0396169,1.322064,-10.04012,1
2734984,6257,4.3,-9.27,-7.66,-0.5,1.12,11.83,17.62,0.238785,0.2717514,0.1205068,-0.1065245,1.299269,-10.5404,1
2843209,6276,4.4,-8.18,-6.12,0.55,2.78,11.67,18.12,0.127153,0.3121859,0.07017526,0.2968526,0.9775214,-10.33612,1
2954727,6445,4.72,-7.57,-4.97,0.3,4.09,11.7,19.09,0.0878879,-0.09380843,0.05745658,0.5387765,1.003833,-10.08343,1
3166844,6478,3.56,-6.54,-5.67,-3.08,0.13,12.12,21.03,-0.1717583,-0.6388121,-0.07678366,-0.01862181,1.022597,-9.051987,1
3280241,6088,3.28,-6.12,-6.5,-4.76,-3.06,12.3,21.2,-0.1741521,-0.3813088,-0.0663152,-0.0007212787999999,0.9161406,-8.513454,1
3386545,5973,3.18,-5.77,-6.51,-4.66,-4.83,12.29,20.32,0.03262842,0.0700041099999999,-0.1335902,-0.1777658,1.138882,-8.341152,1
3492564,5808,3.39,-5.44,-6.14,-4.0,-3.92,12.23,19.47,-0.02977603,0.256195,-0.113731,0.2035293,0.9324006,-8.849488,1
3702730,5769,3.5,-4.78,-5.03,-3.14,-2.58,12.15,18.13,0.1934792,0.01350503,-0.1178186,-0.09869058,1.163313,-8.988699,1
3924914,5658,3.49,-4.5,-4.29,-0.28,0.31,11.92,15.25,0.02266809,0.4081216,-0.10103,0.03741983,1.083982,-9.248171,1
4144336,5728,3.07,-4.01,-3.2,2.09,2.95,11.74,12.81,0.1109576,0.2144867,-0.002899959,-0.193679,0.9874374,-9.652172,1
4253101,5722,3.04,-3.78,-2.88,3.24,4.14,11.66,12.27,0.009326424,0.1661999,0.03854891,-0.09714703,1.081303,-9.544291,1
4467200,5642,3.4,-3.99,-3.02,4.61,5.72,11.57,12.73,-0.1101292,0.1104311,0.1418601,0.1684753,1.109962,-9.612699,1
4583192,5772,3.59,-4.18,-3.54,3.6,5.01,11.64,13.75,-0.1112099,-0.3195538,0.1416719,0.3118315,0.9894359,-9.422347,1
4683475,5936,3.01,-4.24,-3.64,2.63,3.1,11.71,14.65,0.0426312,-0.2745516,0.1635352,0.1730154,0.8717497,-9.44853,1
4794694,5714,3.27,-4.22,-3.61,2.08,1.62,11.75,15.6,0.01375477,-0.1119093,0.1880998,0.2331934,0.9094336,-9.528428,1
4894818,5720,3.36,-4.29,-3.43,1.96,1.13,11.76,16.39,0.01519954,-0.05985778,0.1941066,0.1689933,0.9125371,-9.300204,1
5012236,5880,3.57,-4.56,-3.9,2.15,1.24,11.75,17.11,-0.1059147,0.06396514,0.1514003,0.4960556,1.112729,-8.965612,1
5113955,5830,3.65,-4.87,-4.06,2.47,1.25,11.72,17.61,0.04567237,-0.03458695,0.09757746,0.3243116,1.046919,-9.569711,1
5222290,5983,3.52,-5.02,-4.21,2.68,1.87,11.7,17.97,-0.0713001199999999,0.02109435,0.0196255,0.4843423,0.9036072,-9.906177,1
5334237,5958,3.3,-5.2,-4.28,2.81,2.19,11.69,18.14,-0.1520116,0.03751741,0.04459693,0.3196672,0.9688045,-9.741311,1
5454198,5998,3.73,-5.41,-4.61,2.73,2.37,11.7,18.15,0.01075033,-0.0004392659,0.01131034,0.3982687,1.095102,-9.250684,1
5560048,6114,3.35,-5.5,-4.68,2.68,2.24,11.71,18.0,0.04882047,-0.03867035,-0.03092701,0.07506736,1.010172,-10.08305,1
5669336,5836,3.38,-4.65,-4.25,2.11,1.76,11.76,17.86,0.09645267,-0.172814,-0.03853997,0.3971952,1.100287,-9.634462,1
5772240,5941,3.14,-3.91,-3.62,1.8,1.22,11.78,17.68,0.0832244199999999,-0.1012231,0.01636563,0.2755781,1.145881,-9.671244,1
5889505,5926,3.05,-3.63,-2.97,1.75,0.94,11.78,17.37,-0.01502761,0.01421182,-0.05027018,0.3031791,1.018324,-9.722306,1
5998169,5898,3.07,-3.85,-2.96,1.91,1.06,11.77,17.08,-0.05040494,-0.01272781,-0.02350617,0.4837001,0.908999,-9.75538,1
6103818,5738,3.11,-4.17,-3.49,2.09,1.4,11.76,16.81,-0.07863897,0.04416881,-0.02013149,0.5224636,0.949931,-9.311378,1
6213221,5708,3.13,-4.51,-4.34,2.29,1.7,11.74,16.7,-0.07277044,0.01478206,0.02697526,0.2146851,1.309428,-9.432764,1
6320841,5798,3.21,-4.72,-4.76,2.49,1.9,11.73,16.72,0.01030456,0.04196618,0.007894683,0.2801639,1.214177,-9.687304,1
6421324,5791,3.23,-4.72,-4.71,2.56,2.06,11.72,16.81,0.03339374,0.04007541,0.02205296,0.2795186,1.209898,-9.535178,1
6529245,5940,3.22,-4.78,-4.43,2.56,2.13,11.72,16.98,-0.05946514,0.01671183,0.006401442,0.478635,1.136996,-9.448537,1
6640495,5800,3.2,-4.93,-4.51,2.6,2.0,11.72,17.12,0.004108803,0.02433331,0.02512324,0.1315682,1.126575,-10.03096,1
6748081,5618,3.38,-5.18,-4.79,2.44,2.33,11.73,17.12,-0.1543585,0.08104268,-0.01462786,0.3217002,1.055408,-9.662683,1
6855700,5913,3.09,-5.41,-5.09,2.27,2.39,11.75,17.23,-0.01796683,0.01134576,0.01277278,0.3386641,1.082808,-9.404838,1
6974697,5900,3.59,-5.61,-5.65,1.99,2.66,11.78,17.01,-0.1030649,0.09672707,-0.007000245,0.5417755,1.353646,-9.069217,1
7073892,5899,3.33,-5.82,-5.43,1.63,2.55,11.81,16.8,0.06428228,-0.0746574099999999,-0.0088649349999999,0.3203872,1.235474,-9.787047,1
7182857,5885,3.21,-5.94,-5.25,1.3,2.12,11.85,16.73,0.02211258,-0.13569,-0.01627122,0.4505658,1.022117,-9.667314,1
7289199,5897,3.5,-6.03,-5.52,1.05,1.55,11.87,16.84,-0.03407089,-0.0690627199999999,0.03406985,0.1373203,1.204108,-9.956743,1
7399424,5846,3.64,-6.12,-5.96,0.8,1.28,11.9,17.07,-0.03435281,-0.02455788,0.06691785,0.326401,0.9776474,-9.888383,1
7503164,5914,3.54,-6.13,-5.76,0.73,0.84,11.91,17.39,0.04169244,-0.02907068,0.08493658,0.3780902,1.171561,-10.11556,1
7619731,5933,3.42,-6.41,-5.43,1.24,1.03,11.85,17.7,0.05781075,0.05204239,0.03711478,-0.1236097,0.9658579,-10.28578,1
7727612,6020,3.5,-7.89,-6.44,2.51,2.49,11.69,17.99,-0.2889913,0.3747053,0.05369767,0.304184,0.8150621,-10.04173,1
7848127,6160,4.57,-10.11,-9.47,4.07,5.0,11.45,17.7,-0.4068648,0.390685,-0.05511143,0.2672923,1.147654,-9.334698,1
7942939,6203,4.73,-11.3,-11.15,4.7,6.65,11.33,17.21,-0.2140036,0.1550716,-0.08155734,-0.1364982,1.243924,-10.72528,1
8054741,6406,5.13,-11.33,-12.15,4.32,7.9,11.4,15.89,-0.02042595,-0.01687661,-0.2092938,0.6251127,1.329251,-10.06231,1
8158068,6534,3.84,-11.02,-11.47,3.4,6.65,11.58,15.21,0.3700224,-0.3021227,-0.1465712,0.5746467,1.594345,-10.60663,1
8272291,6329,3.11,-10.09,-10.41,2.42,3.44,11.77,14.73,0.1261858,-0.435624,-0.1495659,-0.3137236,1.450855,-10.49027,1
8381233,5906,2.97,-9.56,-9.09,1.77,1.43,11.88,14.05,0.2039155,-0.1751951,-0.1732963,0.2600248,1.148861,-10.00524,1
8490541,5701,3.14,-9.23,-8.25,1.92,1.32,11.86,13.71,0.001892532,0.1305909,-0.07091168,0.3466001,1.005671,-10.32898,1
8600102,5741,3.71,-8.67,-8.11,2.8,2.7,11.72,14.14,-0.02413553,0.2231827,0.03787022,0.3140365,1.154771,-9.747107,1
8708401,5747,4.1,-7.46,-7.88,2.83,3.52,11.71,14.73,0.1023418,-0.0121061,0.08177955,0.7300748,1.251679,-9.996717,1
8827238,6180,3.37,-5.68,-6.18,2.18,2.35,11.78,15.47,0.3022706,-0.2074008,0.07499725,0.350373,1.29911,-10.06693,1
8934558,5932,3.27,-4.36,-4.21,1.78,1.29,11.82,15.74,0.2781672,-0.1233022,0.01128163,0.204664,0.9725769,-9.841493,1
9044565,5960,3.34,-3.7,-2.91,1.64,1.2,11.83,15.54,0.1579443,0.002481584,0.03590174,0.2233565,1.09793,-10.43128,1
9152664,5859,3.03,-3.78,-2.82,1.19,0.8,11.86,14.92,-0.014325,-0.2121894,0.0521926,0.3922814,0.9213871,-9.773755,1
9371872,5883,3.33,-4.45,-4.4,1.02,1.25,11.87,14.93,-0.09504177,0.06168417,-0.01635385,0.2843218,1.210638,-9.010013,1
9474819,5854,3.43,-4.5,-4.93,1.07,1.62,11.87,15.02,-0.04836521,0.0704418899999999,-0.07418743,0.3128906,1.202246,-9.499535,1
9584402,5796,2.74,-4.35,-4.89,0.6,1.18,11.9,14.88,-0.02496862,-0.1047338,-0.1047789,-0.1486603,1.105748,-9.670113,1
9686940,5740,2.97,-3.94,-4.98,-0.05,0.96,11.95,14.48,0.01094781,-0.04759111,-0.1014065,0.03495598,1.178234,-8.870742,1
9910820,5658,3.0,-3.41,-4.52,-0.66,-0.47,11.99,13.85,0.004298688,-0.1315183,-0.06704438,0.3073784,0.9723035,-9.039721,1
10024649,5689,2.64,-3.06,-4.25,-0.82,-0.97,12.0,13.49,0.02609233,-0.09267982,-0.01946958,-0.04554181,0.6034138,-9.282455,1
10132928,5600,2.76,-2.56,-3.91,-0.88,-1.24,12.0,13.27,0.06545824,0.02364348,-0.007131451,-0.1293732,0.6717017,-9.220047,1
10234514,5600,3.18,-2.02,-3.32,-0.93,-0.82,12.01,13.39,0.1003043,0.04225955,0.04932912,-0.0148485,0.7981481,-9.481318,1
10344853,5611,3.21,-1.38,-2.9,-1.39,-0.9,12.02,13.82,0.0665989,-0.08864677,0.062112,0.1951783,0.6325459,-8.870308,1
10454257,5774,3.89,-0.9,-2.53,-1.78,-1.08,12.03,14.17,0.06529703,-0.06704731,0.04253928,-0.1455157,0.6365079,-9.594968,1
10556482,5954,3.64,-0.77,-1.91,-1.12,-0.68,12.02,14.49,0.1257222,0.1046365,0.05837635,0.03653384,0.4613185,-9.565683,1
10670530,5853,4.44,-0.04,-1.62,-0.24,0.75,12.01,14.88,0.1157176,0.07261214,0.0711056999999999,0.4355127,0.7462007,-9.850122,1
10777418,6027,3.05,1.89,0.09,0.1,0.36,12.01,15.07,0.4054228,-0.2195119,0.01970771,0.5005866,0.7696327,-9.798525,1
10889714,5995,3.35,3.29,2.76,0.81,-0.27,12.05,14.74,0.3115766,-0.04034026,-0.07006712,0.1513679,0.3404461,-10.1118,1
10999721,5743,3.07,4.08,4.18,1.22,0.25,12.07,13.93,0.1785314,0.07944874,-0.1673107,0.08478006,0.62665,-10.1144,1
11102088,5744,2.47,3.63,5.05,1.53,0.75,12.09,12.69,0.004081641,0.05495415,-0.2205134,0.1669061,0.3416153,-10.2028,1
11217928,5553,2.39,2.61,4.59,1.99,1.17,12.12,11.18,-0.2471617,0.1529678,-0.2171624,0.2350294,0.3699873,-9.732986,1
11321175,5364,2.39,1.97,2.78,2.35,1.36,12.13,9.84,-0.3012697,-0.05105617,-0.1566827,0.03928055,0.6206268,-10.07063,1
11434576,5216,2.09,1.27,1.8,2.8,1.94,12.15,8.85,-0.02897354,0.1282796,-0.07401934,0.4854091,0.5787941,-9.585323,1
11541216,5093,2.2,0.79,0.94,3.51,2.26,12.16,8.4,-0.2001045,0.02164296,0.04028727,0.1658985,0.5007229,-9.775797,1
11643866,5006,2.61,0.48,0.35,4.04,3.0,12.16,8.77,-0.07330739,0.1073259,0.1460052,0.4350564,0.5666597,-9.727345,1
11749053,5157,2.49,-0.07,-0.39,4.68,3.31,12.17,9.54,-0.1598748,0.08602098,0.1646492,0.3664912,0.6414495,-9.532732,1
11860346,5208,2.79,-0.57,-1.2,5.37,3.31,12.16,10.68,-0.1205556,0.0511493,0.2037388,0.3430784,0.6971575,-9.792057,1
11968816,5332,3.13,-1.13,-1.58,5.75,3.8,12.16,11.71,-0.05593982,0.1054097,0.1808862,0.6144651,0.4418283,-9.637867,1
12079260,5409,2.68,-1.91,-1.73,6.04,4.27,12.15,12.55,-0.001618137,0.0885975299999999,0.09955952,0.6510273,0.5427741,-9.946686,1
12188439,5536,2.94,-2.63,-2.09,5.88,4.13,12.16,12.96,-0.05350392,-0.1441186,0.0737081099999999,0.4820425,0.7248576,-9.747729,1
12291718,5488,2.98,-3.18,-2.65,5.09,3.82,12.2,13.28,-0.02898605,-0.1352864,0.02202016,0.5117666,0.7016463,-9.664341,1
12406522,5571,3.19,-3.62,-3.58,4.11,2.89,12.26,13.66,-0.1473279,-0.1418811,0.01727253,0.3475007,0.6150841,-9.881773,1
12509809,5578,3.17,-3.74,-3.98,3.31,2.58,12.31,13.83,0.07783035,-0.0734569999999999,0.02141346,0.4336258,0.7049792,-9.622428,1
12630205,5710,3.39,-4.15,-3.66,2.72,2.65,12.35,14.24,-0.05759148,0.00238919,0.07742159,0.2008379,0.4823134,-9.859972,1
12737864,5692,3.51,-4.88,-4.68,2.18,2.8,12.39,14.81,-0.1939476,-0.05060749,0.07309195,0.3361846,0.5036023,-9.832057,1
12839738,5769,3.23,-5.94,-5.66,1.71,2.32,12.44,15.35,-0.1247705,-0.09563006,0.05502899,0.1144947,0.6983432,-9.851563,1
12950539,5666,3.26,-6.7,-6.41,1.17,1.84,12.5,15.63,-0.1193674,-0.1580897,0.04714274,0.2112326,0.5445206,-10.30618,1
13164511,5824,3.29,-6.13,-6.98,0.5,0.65,12.58,16.3,0.1218944,-0.1071327,0.006701204,0.3470271,0.9099979,-9.553356,1
13277088,5706,3.14,-5.04,-5.52,0.0,0.23,12.62,16.52,0.2853595,-0.04702505,0.01113137,0.4547215,0.9219181,-10.33006,1
13595239,5770,3.71,-4.88,-4.25,-2.12,-2.16,12.79,16.91,-0.2582396,0.03400291,-0.0089344219999999,0.2373514,0.6838999,-9.617491,1
13707460,5736,3.38,-5.36,-5.71,-2.38,-1.59,12.81,16.91,-0.1026731,0.005143504,-0.02192973,0.3072844,0.9359037,-9.511566,1
13817503,5844,3.17,-5.62,-5.94,-2.34,-1.5,12.81,16.98,0.03447931,0.01536944,0.02760763,0.3312876,1.117595,-10.08618,1
13919894,5729,3.91,-5.96,-5.82,-2.4,-0.86,12.82,16.64,-0.05873189,0.1787469,-0.02545506,0.3122538,1.046706,-9.754651,1
14042105,5858,3.11,-6.04,-5.89,-2.59,-0.65,12.84,16.44,0.0754922299999999,-0.02907683,0.02272679,0.165322,1.255739,-10.08278,1
14136502,5872,3.23,-6.01,-5.87,-2.88,-1.11,12.87,16.57,-0.03556389,-0.09359103,0.01219938,0.4640484,1.113814,-9.901637,1
14258723,5955,3.82,-5.52,-6.07,-4.05,-2.17,12.98,16.82,-0.05265285,-0.2173671,0.0126977,0.5375353,1.148121,-9.659869,1
14357717,6087,3.39,-5.36,-5.34,-5.8,-3.71,13.15,17.02,0.2123058,-0.3117368,-0.01268347,0.1218622,1.047766,-9.787817,1
14460309,5955,3.11,-5.16,-4.54,-7.22,-5.56,13.28,17.41,0.2443921,-0.4236525,0.02249207,0.2838189,1.1526,-9.982242,1
14577539,5875,3.31,-4.96,-3.91,-8.24,-7.78,13.38,17.94,0.1812967,-0.2256313,0.02938459,0.2011263,0.8392149,-9.622391,1
14691321,5759,3.74,-4.83,-4.4,-8.85,-8.63,13.43,18.39,-0.03224291,0.008524812,0.05359665,0.1599925,0.7628195,-9.686526,1
14798406,5806,3.87,-4.71,-5.4,-9.1,-8.72,13.45,18.85,-0.1101217,0.0671708699999999,0.01676388,0.05634631,0.8859681,-10.06081,1
14907908,5998,4.37,-4.43,-6.0,-9.06,-8.2,13.45,19.13,0.07104125,0.1691391,-0.01269581,-0.152269,0.8458585,-10.05364,1
15009465,6201,4.14,-4.03,-5.67,-9.0,-7.57,13.44,19.14,0.1375057,0.1304469,-0.02706556,0.275889,0.7786334,-9.860358,1
15118763,6284,4.38,-3.52,-5.09,-8.74,-6.97,13.42,18.95,0.04585713,0.2542009,-0.03516599,-0.04905143,0.9477689,-9.899657,1
15235318,6251,3.69,-3.27,-3.87,-8.59,-6.41,13.42,18.61,0.0229497,0.0445069,-0.08714284,0.006011861,0.658735,-9.844896,1
15351729,6085,3.7,-3.29,-3.11,-8.49,-6.29,13.41,18.4,-0.08259797,-0.07559948,-0.0753364599999999,0.0197819,0.8203788,-10.1771,1
15452723,6084,3.64,-3.5,-3.01,-8.31,-6.58,13.4,18.13,-0.07491653,0.04380096,-0.09642459,-0.002131397,0.7522391,-10.25491,1
15557686,6037,3.28,-3.7,-3.59,-8.12,-6.83,13.39,17.78,-0.1277738,-0.1043572,-0.1319256,0.08306395,0.8601274,-9.58052,1
15671781,5926,3.39,-4.02,-3.92,-7.68,-6.74,13.36,17.28,-0.006672151,0.002394914,-0.1016674,0.01783845,0.8305289,-9.830902,1
15781201,5902,3.37,-4.08,-3.98,-7.13,-6.48,13.32,16.75,0.1096143,0.08847175,-0.0745002,0.2145817,0.7683207,-9.602868,1
15883545,5786,3.63,-3.98,-4.35,-6.5,-6.09,13.27,16.1,-0.1602844,0.0842817,-0.1127121,-0.0842628099999999,0.7114102,-9.828341,1
16110177,5841,3.4,-3.66,-3.81,-5.85,-4.13,13.23,14.84,0.04425126,0.1628269,-0.0882472599999999,-0.3103984,0.5691352,-9.952206,1
16217428,5835,3.42,-3.66,-3.14,-5.98,-3.6,13.24,14.28,0.0003883715,-0.007400104,-0.06774732,-0.09261227,0.7296856,-9.453722,1
16327538,5926,2.98,-3.63,-3.5,-5.83,-4.41,13.23,13.65,-0.1215099,-0.1585657,-0.1218049,-0.2825955,0.6027736,-9.785632,1
16438492,5756,4.23,-4.38,-4.66,-3.12,-2.91,13.03,12.89,-0.2604592,0.6953686,-0.06636104,-0.5747168,0.8401441,-9.54837,1
16547191,5783,4.03,-4.0,-5.43,-1.55,1.64,12.92,12.0,-0.05035232,0.5282699,-0.05140024,0.1158223,0.6102246,-9.874415,1
16649682,6167,3.83,-3.33,-5.72,-0.6,3.77,12.85,11.6,0.07154017,0.1116764,0.06232297,-0.1980611,1.065771,-9.848312,1
16756287,6082,3.45,-3.31,-4.71,-0.61,3.7,12.85,11.96,0.1680144,-0.2532094,0.0976776,0.159041,0.8163732,-9.934122,1
16878251,5975,3.38,-3.51,-4.02,-0.49,2.27,12.85,12.79,0.0939355999999999,-0.2442637,0.1245734,-0.1503108,1.004287,-10.05987,1
16989404,5896,3.6,-4.26,-3.86,-0.11,1.57,12.82,13.5,-0.06521438,-0.1221654,0.06459018,-0.009521493,0.7553642,-9.979913,1
17093248,6160,4.04,-4.73,-4.43,0.18,1.61,12.8,13.9,-0.190384,-0.01959362,0.02924851,-0.2925972,1.056673,-10.51852,1
17200376,6211,3.65,-5.05,-4.72,0.29,1.52,12.79,14.06,-0.05690962,-0.03799147,-0.009836019,0.2034878,1.011677,-9.708227,1
17309893,6155,4.0,-4.77,-4.8,0.17,1.21,12.8,14.13,0.03875973,-0.02328558,0.01829333,-0.2750841,1.023893,-9.550929,1
17427206,6134,4.38,-4.33,-4.54,-0.13,1.28,12.82,14.15,0.04910167,0.0823258999999999,-0.01552835,-0.2517402,0.9894909,-9.932157,1
17529010,6268,4.08,-4.05,-3.93,-0.47,1.2,12.85,14.14,0.1094915,-0.0601901,-0.02180767,-0.2879595,0.8332239,-10.09922,1
17647878,6172,3.97,-3.88,-3.72,-0.83,0.65,12.87,14.0,-0.01802152,-0.07187941,-0.04515464,-0.04453199,0.8392506,-9.634989,1
17753972,6190,4.0,-3.85,-4.38,-0.99,-0.29,12.88,13.8,-0.1866521,-0.07888269,-0.01917817,-0.6288633,1.051999,-10.13938,1
17864467,6031,4.29,-3.91,-4.72,-1.11,-0.56,12.89,13.57,-0.03406785,0.05399403,-0.03550737,-0.3440915,0.9882915,-9.891198,1
17975709,6277,4.12,-3.98,-4.22,-1.13,-0.42,12.89,13.3,0.1228363,0.103929,-0.02697149,-0.2095552,0.901742,-10.49769,1
18080490,6330,3.71,-3.94,-3.67,-1.03,-0.22,12.89,13.11,0.09412129,-0.002973605,-0.04348656,-0.2537713,0.7112287,-10.49441,1
18180183,6182,3.87,-3.96,-3.71,-1.01,-0.21,12.88,13.01,0.001974417,-0.004785504,0.0079018909999999,-0.31868,0.7881053,-9.495342,1
18295841,6079,4.07,-3.99,-4.1,-1.15,0.02,12.89,12.94,-0.0991154499999999,0.02441862,0.02831308,-0.09204585,0.906966,-10.0141,1
18408626,6196,3.81,-3.47,-4.37,-1.15,-0.38,12.89,13.06,0.05250212,-0.001545675,0.004554966,-0.1909069,1.186104,-9.799851,1
18511301,6151,3.28,-2.03,-2.76,-1.19,-0.83,12.9,13.04,0.4188343,0.02246201,0.01125602,-0.3644608,1.07515,-9.765221,1
18634195,6010,3.05,-0.4,-0.26,-1.1,-1.16,12.9,13.07,0.3097237,0.04556306,0.02172093,-0.5091523,1.088152,-9.614706,1
18732806,5840,3.22,0.6,1.15,-0.93,-1.11,12.9,13.08,0.1661766,0.03181191,0.03928381,-0.1241207,0.6969901,-9.485438,1
18840832,5817,3.14,1.13,2.1,-0.66,-0.81,12.9,13.12,0.1562699,0.0958915199999999,0.003428121,-0.2749106,0.8254731,-9.788174,1
18950953,5855,3.25,1.14,2.29,-0.37,-0.52,12.91,13.2,0.006031787,0.08928213,0.0671115,-0.09766434,0.6623552,-9.175069,1
19060045,5831,3.36,1.01,1.8,-0.13,-0.19,12.91,13.23,-0.1594882,0.06558901,0.0330317,-0.4607973,0.4883951,-9.740075,1
19163713,5914,3.28,0.8,1.13,0.0,0.04,12.91,13.25,-0.06992212,0.049801,0.02669275,0.04397156,0.7730848,-9.522992,1
19274227,5939,3.49,0.66,0.6,0.13,0.15,12.91,13.39,-0.1205797,0.0090654529999999,0.03288908,-0.2298138,0.7255925,-9.625036,1
19380541,5887,3.34,0.37,0.13,0.11,-0.27,12.91,13.57,-0.007144701,-0.2058613,0.007055145,0.04114837,0.5984763,-9.645288,1
19495704,5970,3.41,-0.37,-0.37,0.81,-0.18,12.91,13.84,-0.1578083,0.04434939,0.04359955,-0.5003228,0.6064667,-9.966664,1
19604374,5839,3.76,-0.47,-1.11,1.38,0.6,12.91,13.98,-0.1280967,0.1653485,-0.05419768,-0.3353371,0.6458732,-9.495614,1
19712738,5985,3.72,-0.2,-1.08,1.94,1.64,12.91,13.92,0.02131411,0.1499178,-0.02817725,-0.0900571,0.6335058,-9.653573,1
19823700,5989,3.64,0.36,-0.43,2.37,2.39,12.91,13.85,0.0721919,0.09729023,-0.02749625,-0.241108,0.4086842,-10.31544,1
19930918,6059,3.93,0.96,-0.03,2.69,2.94,12.91,13.93,-0.01811796,0.06950545,0.0184176,0.0952122,0.5107732,-9.966,1
20039227,6114,4.25,1.47,0.1,2.85,3.42,12.91,14.15,0.03101956,0.03854802,0.0283765,0.1192544,0.4240984,-9.674733,1
20138510,6230,4.12,1.9,0.08,2.83,3.57,12.91,14.28,-0.02449929,-0.08051762,0.01411362,0.09156758,0.568141,-9.85426,1
20244499,6265,3.81,2.28,0.42,2.75,3.38,12.91,14.21,0.1468424,-0.003309007,-0.02020371,0.03663547,0.528321,-9.992615,1
20359895,6171,3.69,2.61,0.97,2.58,2.33,12.9,13.99,0.06178482,-0.04783731,-0.03760666,0.1224711,0.47789,-9.535717,1
20461043,6035,3.65,2.92,1.25,2.5,1.64,12.9,13.81,0.04341229,-0.130992,-0.02537084,-0.1525417,0.5856604,-10.07528,1
20569952,5961,3.41,3.05,1.54,2.62,1.35,12.9,13.75,0.0687001,-0.05530949,-0.004876896,0.0932019199999999,0.5393137,-9.611864,1
20674235,5831,3.7,3.08,1.78,2.85,1.35,12.92,13.75,0.054696,0.03970101,-0.004056546,-0.1025764,0.3725144,-9.963449,1
20781335,5985,3.87,3.14,1.6,3.15,1.96,12.93,13.62,-0.0132389,0.1050975,-0.0263022,-0.1440959,0.600892,-9.895684,1
20893094,6003,3.62,3.1,1.73,3.45,2.5,12.95,13.48,0.006372096,0.1619306,-0.01802695,-0.1141902,0.5323731,-10.12182,1
21007928,6070,3.41,2.96,1.97,3.63,2.48,12.96,13.35,0.07513562,0.006123007,-0.01030655,-0.06767642,0.5268958,-10.00646,1
21111964,5924,3.35,2.8,2.07,3.67,2.23,12.96,13.36,0.01813556,-0.04872246,-0.02062406,0.1428165,0.3267232,-9.754934,1
21229216,5834,3.14,2.73,1.84,3.73,1.94,12.96,13.28,-0.04664478,-0.02495682,-0.02671347,0.1873237,0.4157664,-9.826015,1
21329065,5771,3.47,2.55,1.63,3.74,1.9,12.96,13.04,-0.04709582,-0.01582765,-0.05504138,0.0123453,0.5806239,-9.631823,1
21437498,5774,3.53,2.38,1.34,3.7,2.19,12.96,12.68,-0.03559396,0.03006561,-0.06982107,0.09804667,0.4061021,-9.843003,1
21548081,5847,3.76,2.18,1.03,3.1,2.61,12.94,12.31,-0.07884858,0.02670828,-0.0633045,0.1666447,0.4795455,-9.611384,1
21659026,5971,3.26,1.45,0.59,1.99,1.93,12.9,11.99,-0.1408918,-0.1649593,-0.04335064,0.1326611,0.1690383,-9.558788,1
21769706,5968,3.67,-0.29,-1.12,1.2,1.06,12.89,11.84,-0.3993961,-0.1312529,0.002162742,-0.0843095299999999,0.2545942,-9.703005,1
21872344,5939,3.61,-1.57,-3.09,0.74,0.46,12.9,11.87,-0.3343101,-0.06831922,0.01223703,-0.02695794,0.4251647,-9.722122,1
21979845,5899,3.6,-2.68,-4.41,0.5,0.0,12.91,12.05,-0.2461177,-0.0677061999999999,0.02410218,0.0567031,0.3325264,-10.17857,1
22096907,5894,3.75,-3.27,-4.95,0.45,-0.1,12.91,12.37,0.0093896009999999,-0.0099174269999999,0.04448229,0.1514108,0.4498787,-9.963067,1
22202295,5982,3.44,-3.37,-4.68,0.49,-0.18,12.91,12.96,0.0662547099999999,-0.05287271,0.09140581,-0.06165225,0.4587201,-10.03707,1
22315958,5930,3.76,-3.34,-4.09,0.47,0.12,12.91,13.58,0.06717674,0.07502663,0.1150336,0.4081524,0.5249507,-9.931153,1
22415481,5816,3.56,-3.22,-3.65,0.47,0.08,12.91,14.03,0.02047624,0.04169775,0.06756987,-0.01896452,0.3772135,-10.03252,1
22527173,5930,3.55,-3.21,-3.25,0.45,-0.15,12.91,14.38,0.02560628,-0.04762482,0.04545921,0.1802502,0.1935208,-9.812853,1
22632210,5957,3.59,-3.43,-3.43,0.4,-0.38,12.91,14.42,-0.07866842,-0.00315392,-0.007992031,-0.07917372,0.3061922,-9.925434,1
22743202,5989,3.4,-3.65,-3.6,0.39,-0.7,12.91,14.41,-0.05844245,0.02775443,-0.02217835,0.09594232,0.4731958,-9.626242,1
22848218,5856,3.31,-3.78,-3.67,0.43,-0.66,12.91,14.31,-0.03200371,0.01839115,-0.03625334,0.1959017,0.3980664,-9.875399,1
22951170,5843,3.56,-3.94,-3.64,0.49,-0.19,12.91,14.06,-0.0357859,0.04996797,-0.04394121,-0.01789104,0.5085402,-9.726045,1
23066997,5914,3.45,-4.09,-3.66,0.54,0.21,12.9,13.76,0.004893504,0.1789681,-0.04440502,0.1594269,0.590068,-9.652748,1
23174486,5927,3.4,-4.28,-3.65,0.69,0.3,12.89,13.51,0.008086971,-0.01589379,-0.05146577,0.2107456,0.4531702,-9.714991,1
23285809,5913,3.51,-4.6,-3.59,0.68,0.57,12.89,13.26,0.06828284,0.1032153,-0.01263271,-0.09291217,0.592383,-9.95083,1
23401305,5885,3.16,-4.94,-3.58,0.39,0.34,12.92,13.04,0.02575086,-0.1337217,-0.03031537,0.1961757,0.5301787,-9.589888,1
23505472,5881,3.32,-5.62,-3.92,0.24,-0.01,12.93,13.09,-0.02751496,-0.05560226,0.03408838,-0.05947049,0.5307759,-9.443526,1
23620475,5785,3.33,-7.93,-5.5,0.0,-0.19,12.96,13.32,-0.3604462,-0.005201508,0.03098781,0.06132381,0.4261489,-9.9455,1
23719834,5806,3.94,-10.3,-8.17,-0.34,-0.1,13.02,13.61,-0.4959257,0.01956721,0.06503837,0.05747513,0.6427165,-9.734287,1
23822818,6104,4.02,-11.6,-10.66,-0.57,0.02,13.06,14.07,-0.2636373,-0.005310827,0.07294073,0.1861405,0.8233087,-9.747396,1
23930532,6200,4.18,-11.7,-11.56,-0.73,0.2,13.09,14.6,-0.01278983,0.01313321,0.05470568,0.1839752,0.8932484,-9.892859,1
24040191,6210,3.97,-11.03,-10.65,-0.85,0.3,13.12,15.07,0.2399247,-0.00953683,0.0918521,0.0388011,0.8113235,-10.09304,1
24155924,6123,4.13,-10.08,-8.98,-1.22,0.4,13.19,15.37,0.2886966,-0.004047906,0.06265148,0.153106,0.675716,-9.863443,1
24258849,6216,3.65,-9.31,-7.92,-1.45,0.03,13.23,15.67,0.1615582,-0.0852628099999999,0.05182682,0.1374573,0.7150152,-10.3388,1
24368356,6079,3.39,-8.74,-7.28,-1.51,-1.12,13.24,16.04,0.06639798,-0.2178847,0.06206391,0.07685482,0.7591916,-10.07591,1
24480328,6140,3.38,-8.18,-6.94,-1.41,-1.9,13.22,16.13,0.1252106,-0.09999911,-0.0083190179999999,-0.008663977,0.845204,-9.769876,1
24586955,5947,3.21,-7.87,-6.01,-1.15,-1.87,13.19,15.85,0.2201536,0.01058521,-0.069646,-0.07713802,0.9712381,-9.917861,1
24692860,5833,3.42,-7.6,-5.7,-0.96,-1.28,13.16,15.37,0.1350954,0.1196742,-0.06936245,-0.02206943,0.5966859,-9.858829,1
24799294,5883,3.4,-7.3,-6.38,-0.92,-0.51,13.16,14.84,-0.1698366,0.1402293,-0.07031513,-0.29045,1.056841,-9.736919,1
24903862,5856,3.9,-6.49,-6.17,-0.91,-0.3,13.15,14.45,0.1389358,-0.05577835,-0.05153326,-0.157211,1.168922,-9.920362,1
25015242,5830,3.34,-3.75,-3.74,-0.88,-0.25,13.15,14.19,0.5029301,0.002401811,-0.02484029,-0.2751284,1.166289,-9.894949,1
25120053,5857,3.08,-1.4,-0.2,-0.85,-0.43,13.15,13.96,0.5252802,-0.02992007,-0.04844588,-0.05008981,0.7691725,-10.24457,1
25231315,5869,2.95,-0.08,2.5,-0.86,-0.61,13.15,13.69,0.2337166,-0.04312329,-0.02323022,0.1775396,0.8179601,-10.12742,1
25340022,5745,3.03,0.1,2.65,-0.73,-1.3,13.15,13.26,-0.2328986,-0.09975658,-0.05371499,-0.4078018,0.6895946,-9.751932,1
25449849,5607,3.47,-0.15,1.28,-0.7,-1.12,13.15,12.89,-0.2541885,0.1032106,-0.05591282,-0.09122039,0.6992254,-9.560189,1
25560237,5769,3.67,-0.47,0.12,-0.77,-0.31,13.15,12.73,-0.1468216,0.2068618,-0.01988343,0.06782687,0.8245699,-9.591839,1
25665514,6040,3.7,-0.45,-0.43,-0.94,0.16,13.15,12.88,-0.03098354,0.01578947,0.06649621,-0.3122368,0.719895,-10.06339,1
25772694,5999,3.47,-0.4,-0.37,-1.38,0.05,13.16,13.13,0.05995201,-0.1132889,0.03361588,-0.1186142,0.6995177,-9.892282,1
25888203,5976,3.08,-1.69,-0.56,-1.74,-0.94,13.16,13.43,-0.1443135,-0.1821247,0.03099752,-0.2228636,0.4691017,-10.1774,1
25996388,5887,3.49,-3.13,-2.26,-1.95,-1.73,13.17,13.6,-0.3277014,-0.14663,0.02952097,-0.3137259,0.7504085,-10.32517,1
26100328,5916,3.65,-4.08,-4.06,-1.88,-1.89,13.17,13.72,-0.2993921,-0.01846629,0.002096392,-0.07097434,0.4862694,-9.934147,1
26208253,5974,3.64,-4.53,-5.18,-1.77,-1.48,13.16,13.71,-0.0718715,0.1037088,-0.03562119,-0.1271637,0.9081275,-9.998384,1
26323824,6023,3.89,-4.59,-5.46,-1.69,-0.72,13.15,13.55,-0.01080375,0.1671544,-0.001522325,-0.3416117,0.7829125,-9.558043,1
26430955,5994,3.77,-4.43,-5.24,-1.73,-0.19,13.15,13.54,0.03800705,0.09693715,0.008424381,0.1447668,0.7564557,-9.567305,1
26536709,6172,3.82,-4.25,-4.83,-1.84,-0.14,13.16,13.79,0.03316119,-0.02225524,0.02938803,0.01322043,0.6416383,-9.664741,1
26643404,6042,3.65,-4.08,-4.16,-1.98,-0.38,13.17,14.14,0.1684217,-0.08024145,0.03470843,-0.2178363,0.8033936,-9.61369,1
26757075,6172,3.78,-4.0,-3.77,-2.07,-0.97,13.18,14.32,0.03850621,-0.06857974,0.04070231,-0.2075206,0.8745267,-10.40015,1
26864913,6043,3.66,-4.01,-3.77,-2.05,-1.24,13.18,14.48,-0.05801832,-0.002210784,0.06313046,-0.1696778,0.574472,-9.889842,1
26969970,6058,3.88,-4.39,-4.39,-1.91,-0.98,13.17,15.09,-0.04730278,0.0001609701,0.0847001399999999,0.02234512,0.7452896,-9.70013,1
27083073,6192,4.15,-6.18,-5.75,-1.56,-0.69,13.14,15.6,-0.2570738,0.01988177,0.04153023,0.1874586,0.7056063,-9.541917,1
27195442,6290,4.08,-7.3,-7.31,-1.35,-0.82,13.11,15.68,-0.1754878,-0.06612898,-0.02196661,-0.3088827,0.9276462,-10.18666,1
27292856,6336,3.9,-7.52,-7.78,-1.15,-1.08,13.08,15.54,0.0421164,-0.05452537,-0.0594337,0.214751,0.9923561,-10.01933,1
27403527,6203,3.63,-7.24,-7.43,-1.06,-1.04,13.07,15.21,0.09712108,0.1372059,-0.05976693,-0.3107974,0.7269976,-9.96357,1
27516880,6052,3.3,-6.7,-6.42,-0.87,-1.0,13.05,14.79,0.06729453,0.009967573,-0.07933071,-0.4497687,0.631902,-10.02228,1
27614287,5857,3.27,-6.14,-5.88,-0.73,-0.97,13.03,14.39,0.0999497,-0.04747615,-0.04477905,-0.198744,0.9090835,-9.429892,1
27736647,5911,3.42,-5.72,-5.11,-0.6,-0.98,13.02,13.8,0.1397911,-0.04395781,-0.08580365,-0.02226647,0.9565764,-10.02605,1
27835573,5867,3.15,-5.46,-4.71,-0.42,-1.17,13.0,13.3,0.0461899,0.07207236,-0.0854619499999999,-0.3931555,0.9639249,-10.11251,1
27949233,5748,3.59,-5.06,-5.26,-0.26,-1.02,12.99,12.86,-0.194946,0.1270768,-0.05452228,-0.019803,0.7014748,-9.217867,1
28064098,5857,3.8,-4.66,-5.59,0.09,-0.22,12.96,12.72,0.06451239,0.100984,-0.02410095,0.06095643,1.043455,-9.520268,1
28489528,6011,3.38,-3.15,-1.86,3.7,3.36,12.73,13.55,-0.1450769,0.0738243299999999,0.05097694,-0.0436177,0.5689448,-9.81851,1
28597809,5744,3.53,-3.36,-2.91,3.97,3.27,12.72,13.51,-0.202339,0.06675386,0.01770361,0.0667129999999999,0.7881094,-9.379117,1
28933822,5804,3.61,-2.97,-3.63,3.75,4.12,12.73,13.07,0.1020487,-0.01398776,-0.001234502,-0.07495536,0.867766,-9.985483,1
29032170,5939,3.34,-2.76,-3.12,3.61,3.61,12.73,13.18,0.1086148,-0.07409273,0.02937324,-0.0455342,0.5770597,-10.01548,1
29152028,5845,3.23,-2.37,-2.5,3.51,2.73,12.74,13.26,0.05677194,-0.1098184,-0.01548176,0.2791699,0.599264,-9.783323,1
29260281,5877,3.33,-2.0,-2.11,3.63,2.27,12.73,13.21,0.1132498,-0.0396246,-0.002538271,-0.1525818,0.7017906,-9.989409,1
29367341,5793,2.96,-1.76,-1.65,3.92,2.1,12.73,13.37,0.0263761,-0.01053421,0.02068397,-0.09273573,0.7811902,-10.00427,1
29477837,5715,3.35,-1.45,-1.37,4.25,2.49,12.72,13.59,0.04518496,0.1686527,0.06964106,0.1492281,0.8109542,-9.675684,1
29579685,5869,3.35,-1.33,-1.35,4.2,2.92,12.72,13.82,-0.02466926,0.05656174,0.03367347,0.4439325,0.5983284,-9.201137,1
29693426,5773,3.56,-1.16,-1.16,4.02,3.11,12.72,14.16,0.03023254,0.0441856,0.0346793,0.1840478,0.6903961,-9.652866,1
29796866,6093,3.63,-1.24,-1.01,3.74,2.89,12.73,14.45,0.02378047,-0.005510897,0.04514699,0.07257138,0.9181044,-9.86334,1
29909948,5862,3.18,-1.61,-1.02,3.49,2.35,12.73,14.62,-0.0294287,-0.0913620599999999,-0.01220414,-0.007756277,0.6908809,-10.29107,1
30012415,5762,3.39,-1.97,-1.31,3.6,2.12,12.73,14.58,-0.01474946,-0.03363504,-0.004012895,0.07977396,0.9503335,-9.943805,1
30125532,5872,3.4,-2.39,-1.96,3.71,2.34,12.72,14.4,-0.0961037099999999,-0.003904503,-0.05841367,0.5506415,0.6742905,-9.760255,1
30239854,5913,3.36,-2.54,-2.22,4.02,2.58,12.71,13.92,-0.06667068,0.1166417,-0.1063088,0.4887083,0.6023926,-9.702708,1
30346277,5898,3.64,-2.46,-2.98,4.18,3.36,12.7,13.34,-0.1402165,0.1325835,-0.07394736,0.4243445,0.6213347,-9.518729,1
30457440,5886,3.34,-2.41,-3.09,4.3,3.87,12.7,12.93,0.101427,0.05428325,-0.03677637,0.4322102,0.6626078,-9.76853,1
30570854,5891,3.31,-2.2,-2.79,4.29,3.76,12.7,12.94,0.02135637,0.008574217,0.01447169,0.2320921,0.6781409,-10.04303,1
30674878,5805,3.49,-2.02,-2.72,4.12,3.51,12.71,13.13,-0.01523426,-0.03946033,0.03305105,0.2350874,0.5913234,-9.995837,1
30786812,5918,3.45,-1.9,-2.4,4.0,3.29,12.71,13.44,0.05320195,-0.01215377,0.04599811,0.2001987,0.5217037,-9.738522,1
30888811,5828,3.68,-1.98,-2.22,3.93,3.16,12.71,13.73,0.04655837,-0.0550278,0.05619832,0.2194487,0.4414091,-9.832987,1
30998760,5843,3.53,-2.25,-2.39,4.01,3.14,12.71,14.02,-0.101903,-0.05357272,0.03650725,0.1253512,0.64279,-10.34622,1
31106897,5928,3.66,-2.37,-2.77,4.08,3.16,12.71,14.3,-0.02420477,-0.06972863,0.006643858,0.4487205,0.481773,-9.746441,1
31216067,5940,3.56,-2.38,-3.28,4.03,3.3,12.71,14.37,0.0112358,-0.06498323,-0.0008592681,0.2982554,0.6002312,-9.745571,1
31442459,5909,3.4,-2.02,-3.08,4.19,3.56,12.7,14.15,0.05788415,-0.05685042,-0.03096218,0.2753851,0.505805,-9.564987,1
31541288,5832,3.36,-1.83,-2.89,4.08,3.57,12.71,13.96,0.05027539,-0.1214,-0.03209942,0.3590752,0.7553344,-10.04124,1
31655254,5912,3.15,-1.59,-2.24,4.03,3.13,12.71,13.7,0.1405712,-0.0575829,-0.0612581,0.4525386,0.4695322,-9.932009,1
31759806,5728,2.83,-1.31,-1.65,3.92,2.37,12.71,13.3,0.06290713,-0.06716128,-0.09217328,0.5207494,0.5467524,-10.00928,1
31872526,5535,2.89,-1.1,-1.34,4.04,2.08,12.71,12.75,-0.002383671,0.004090741,-0.0685183999999999,0.5515775,0.328717,-9.462868,1
31978441,5599,2.89,-1.05,-1.4,4.48,2.3,12.7,12.38,0.02386168,0.1323375,-0.02373028,0.4889332,0.7308866,-9.78919,1
32089838,5405,2.87,-1.18,-1.38,4.92,2.87,12.69,12.22,0.03359094,0.09480494,-0.01667087,0.7057371,0.6979421,-10.05253,1
32199882,5519,2.46,-1.39,-1.12,5.39,2.96,12.68,12.06,0.03125694,-0.02875063,-0.02015327,0.4785388,0.6640441,-9.99513,1
32302344,5397,2.54,-1.67,-1.16,5.58,3.28,12.68,11.95,-0.0656905,-0.04068569,-0.02897282,0.7095091,0.602275,-9.832792,1
32410849,5323,2.55,-2.23,-1.53,6.0,3.59,12.66,11.99,-0.004463729,0.04045238,-0.0119838,0.461915,0.4964986,-9.464909,1
32521967,5254,2.91,-2.56,-2.65,6.36,4.16,12.65,12.1,-0.1943958,0.0647136,0.002750532,0.6781937,0.4959762,-9.538552,1
32630685,5440,2.53,-2.95,-2.71,6.75,4.48,12.63,12.37,0.1012152,0.1031178,0.04095146,0.4630882,0.8475567,-9.724228,1
32738955,5375,2.83,-3.14,-2.06,6.82,5.13,12.26,12.65,0.1313733,0.05513207,0.03549976,0.7673384,0.4999327,-9.491228,1
32845863,5473,3.27,-3.36,-2.31,6.93,5.12,10.4,12.87,-0.03435999,-0.002321933,0.0095100459999999,0.8078796,0.8400197,-9.423527,1
32964529,5651,3.64,-4.03,-2.55,6.61,4.9,7.33,12.12,-0.07720239,-0.08775949,-0.2202421,0.4025208,0.3908099,-9.832428,1
33062327,5881,3.25,-4.11,-3.28,6.17,4.66,6.64,10.61,-0.07448153,-0.02254601,-0.2874509,0.4989944,0.7373212,-9.949809,1
33185186,5780,2.64,-4.01,-3.47,5.73,4.19,6.67,8.71,-0.0961261,-0.00593461,-0.259826,0.5779718,0.623377,-9.597131,1
33287279,5498,2.94,-3.94,-2.95,5.33,4.17,6.7,7.65,0.02784939,0.08027432,-0.1327312,0.5962949,0.500186,-9.771744,1
33396048,5498,3.03,-3.75,-3.21,4.25,3.78,6.77,7.07,-0.08912096,-0.2575923,-0.05574763,0.5926886,0.7311594,-10.2157,1
33509126,5579,2.38,-3.77,-3.21,3.5,1.99,6.82,6.9,-0.03532608,-0.2308678,-0.02493545,0.494644,0.4943475,-9.688743,1
33720901,5272,2.67,-4.01,-2.92,3.37,1.61,6.83,6.62,0.03453286,0.1377741,-0.05089861,0.3654171,0.4981841,-10.18457,1
33827037,5350,3.03,-4.28,-3.2,3.47,3.12,6.82,6.42,-0.0683619699999999,0.2502611,0.02802188,0.7561837,0.8111545,-9.696095,1
33946934,5567,3.21,-4.56,-3.75,3.34,4.28,6.83,6.83,-0.1279415,0.1143923,0.09649136,0.538242,0.8261286,-9.812601,1
34042815,5686,3.23,-4.71,-3.98,3.1,4.51,6.85,7.66,-0.09923269,-0.04534663,0.1775553,0.5260347,0.6959655,-9.919922,1
34260900,5801,3.55,-4.7,-4.23,1.36,3.52,7.0,10.07,0.01746698,-0.2344743,0.1359349,0.327243,0.8908029,-10.2135,1
34490927,5940,3.41,-4.59,-4.8,-0.97,0.49,7.19,11.99,-0.1151917,-0.4274388,0.07345035,0.7004368,0.835795,-9.702229,1
34598101,5900,3.06,-4.4,-4.59,-1.39,-1.52,7.22,12.43,0.02135758,-0.2369263,-0.007203401,0.2489208,0.9460458,-9.935106,1
34708883,5741,3.4,-4.29,-5.01,-1.49,-1.76,7.23,12.32,-0.1741814,0.2104977,0.006019839,0.1024617,0.5855568,-9.607633,1
34819273,5864,3.52,-4.33,-5.3,-1.54,-1.15,7.23,12.05,0.06024957,0.04672477,-0.02118267,0.1269358,1.12693,-9.63868,1
34921398,5942,3.83,-4.37,-4.98,-1.7,-0.39,7.25,11.75,0.1008194,0.01961318,-0.02706909,0.4151606,0.9920316,-9.88246,1
35040553,6019,3.89,-4.23,-4.53,-2.73,-0.39,7.32,11.38,-0.05315865,-0.1259902,-0.06109126,0.4466177,0.8452089,-9.862548,1
35139191,6061,3.44,-4.08,-4.29,-4.3,-1.98,7.44,11.12,0.05508523,-0.3657213,-0.06980957,0.06017131,1.009736,-9.994338,1
35252695,5884,3.68,-4.04,-4.1,-5.79,-3.89,7.54,10.76,0.05761815,-0.1465768,-0.1150846,0.1209885,0.6566279,-9.680981,1
35354454,6022,3.61,-3.99,-4.27,-6.81,-4.79,7.62,10.46,0.08137989,-0.06201562,-0.0845690999999999,0.1473298,0.8580661,-9.573817,1
35577255,5907,3.51,-4.56,-4.27,-8.08,-5.4,7.71,9.55,-0.1474348,-0.02581126,-0.09547268,-0.01058121,0.7993768,-9.609854,1
35679927,6100,3.66,-4.87,-4.63,-8.48,-5.72,7.74,9.12,-0.02242889,-0.0883147299999999,-0.0346952,-0.06237702,0.9404014,-9.531213,1
35794022,6094,3.52,-5.27,-4.91,-8.68,-6.03,7.76,8.75,-0.02916712,-0.1357813,-0.04557437,0.005026956,0.6434797,-10.19716,1
35894545,6013,3.66,-5.51,-4.98,-8.68,-6.09,7.76,8.51,0.02315142,0.03065247,-0.03602555,-0.005920673,1.181297,-9.585354,1
36011086,5966,3.53,-5.63,-5.11,-8.37,-6.15,7.73,8.33,-0.0429838,0.004147584,0.01599512,0.02467074,1.115287,-9.98373,1
36112496,6057,3.78,-5.67,-5.03,-8.26,-5.94,7.72,8.3,0.05290211,-0.02788,0.05071206,0.181237,0.858929,-9.735974,1
36224294,6068,3.31,-5.45,-5.06,-7.61,-5.62,7.66,8.24,0.005791867,0.1182761,-0.03573195,-0.1684526,0.8246915,-9.900182,1
36332761,6014,4.2,-5.19,-4.88,-6.14,-3.53,7.52,7.96,0.0406971,0.3974321,-0.009689928,0.2280863,0.6491448,-9.941993,1
36449391,6041,3.7,-4.85,-4.92,-5.13,-1.72,7.43,7.71,0.008151555,0.2540149,-0.02101529,-0.07572133,0.7997038,-9.921826,1
36556426,6178,3.99,-4.55,-5.15,-4.74,-0.93,7.4,7.68,-0.06107782,0.02853425,-0.02002276,-0.3708547,0.9538732,-10.07521,1
36661961,6251,3.85,-4.47,-4.92,-4.6,-1.05,7.39,7.79,0.1029042,-0.09364255,0.0208546,0.2189316,0.96017,-9.770858,1
36768986,6191,3.22,-4.79,-4.65,-4.51,-1.78,7.38,7.83,-0.02816518,-0.1866058,0.02422775,-0.1820756,0.9002529,-10.14646,1
36879502,5981,3.47,-6.65,-5.33,-4.21,-2.49,7.35,7.95,-0.2033873,-0.07842968,0.04529584,-0.1868898,0.8489893,-9.986208,1
36990956,5907,4.01,-8.39,-7.71,-3.94,-2.13,7.31,7.99,-0.4533147,0.03977698,-0.0248396,-0.1675774,0.6692371,-10.09326,1
37097995,6029,3.59,-9.31,-9.8,-3.6,-2.02,7.26,7.7,-0.2746049,-0.0748174,-0.05944052,-0.3013709,1.047664,-10.00069,1
37210938,6051,3.33,-9.76,-10.65,-3.14,-2.39,7.18,7.26,-0.02038849,-0.07105714,-0.07191338,-0.2749901,1.293196,-9.893514,1
37311424,5996,3.21,-9.86,-10.33,-2.77,-2.27,7.12,6.7,0.06454801,-0.01709231,-0.06377199,0.06355875,0.7305018,-9.685255,1
37420091,5911,3.41,-9.82,-9.85,-2.31,-1.77,7.04,6.06,0.05877135,0.1730786,-0.09619171,-0.07983251,0.8400764,-9.739125,1
37527296,5808,3.2,-9.67,-9.77,-1.94,-1.14,6.97,5.65,0.0510592,0.1041623,-0.06148712,0.04343552,0.8948165,-9.797988,1
37647185,5721,3.31,-9.3,-9.35,-1.76,-0.82,6.94,5.31,0.08739635,-0.02461694,-0.07538661,0.0504729,1.103858,-9.833651,1
37744961,5955,3.11,-9.21,-8.87,-1.62,-0.91,6.92,5.01,0.09809215,-0.01027588,-0.005521137,-0.4935079,1.120859,-9.792696,1
37855701,5664,3.28,-9.12,-8.76,-1.57,-0.68,6.91,4.65,-0.009697011,0.07369196,-0.04918825,-0.3435878,1.049586,-10.10785,1
37967941,5820,3.53,-9.13,-8.82,-1.65,-0.02,6.92,4.37,-0.02814002,0.1295162,0.03824624,-0.5268872,1.017417,-9.963145,1
38077840,5901,3.5,-9.31,-9.03,-1.77,0.09,6.94,4.26,-0.0004800503,-0.07313656,0.02481752,-0.04984805,1.376449,-9.477539,1
38184327,5932,3.39,-9.48,-9.44,-1.87,-0.47,6.96,4.37,-0.04881737,-0.08364551,-0.005684949,-0.6245979,1.058673,-9.959567,1
38295049,6034,3.66,-9.49,-9.69,-2.05,-0.86,6.99,4.55,0.05356258,-0.08683533,0.04485814,-0.1691255,1.144832,-9.799579,1
38408086,6167,3.57,-9.49,-9.33,-2.2,-1.17,7.02,4.97,0.06759635,-0.05093795,0.1018063,-0.2914362,0.8852836,-10.43028,1
38617868,6082,3.33,-9.18,-8.77,-1.56,-1.8,6.91,6.92,0.02222908,-0.03859635,0.08832829,-0.1766688,1.237269,-9.525575,1
38725259,5778,3.91,-9.51,-8.74,-1.22,-1.57,6.86,7.43,-0.1248493,0.03180955,0.01710863,-0.3946001,1.078698,-9.991752,1
38839252,5958,3.88,-9.82,-9.37,-0.97,-1.07,6.81,7.53,-0.007386366,0.0803627,-0.006777312,-0.4882699,1.364674,-9.90401,1
38938935,6102,4.03,-9.83,-9.54,-0.85,-0.72,6.79,7.44,0.1070936,0.1037476,-0.02818714,-0.01273216,1.126557,-9.483903,1
39055966,6153,3.87,-9.71,-9.36,-0.87,-0.56,6.79,7.06,0.01996176,-0.00520234,-0.08819355,-0.05789441,1.203089,-10.49665,1
39150882,6098,3.67,-9.4,-9.19,-0.94,-0.75,6.81,6.73,0.1002792,-0.05084087,-0.08221839,-0.0304017,1.452822,-10.19349,1
39267075,6071,3.25,-9.29,-8.66,-0.9,-1.16,6.8,6.47,0.1886887,-0.03705987,-0.01922257,-0.1141059,1.196081,-9.451955,1
39376094,6063,3.66,-9.19,-8.66,-0.78,-1.39,6.78,6.34,-0.08078202,0.01337564,-0.01867109,-0.3916274,1.388264,-9.847196,1
39473209,5982,3.8,-9.17,-8.63,-0.65,-1.0,6.76,6.2,0.01613734,0.1405796,-0.02928594,-0.304208,1.143322,-9.887543,1
39581516,5935,3.56,-8.91,-8.47,-0.58,-0.44,6.75,6.08,0.07182505,-0.0171335,-0.05002848,-0.1407427,1.191669,-9.970659,1
39693546,6025,2.92,-8.61,-7.78,-0.45,-0.56,6.73,6.19,0.1292867,-0.1468039,0.0355122,-0.1603003,0.7995843,-9.95627,1
39803189,5810,2.75,-8.26,-7.64,-0.33,-1.05,6.71,6.33,-0.0347291,-0.09316186,-0.03203815,-0.2672483,1.165318,-9.827812,1
39913952,5558,3.07,-7.99,-7.58,-0.03,-1.47,6.67,6.43,0.04412685,0.05134628,0.006331587,-0.2697032,1.114775,-9.874873,1
40022531,5605,3.29,-7.63,-7.45,0.36,-1.02,6.61,6.34,0.02598625,0.06544691,-0.03017226,-0.0735736,0.8190703,-9.320364,1
40137884,5729,3.49,-6.35,-7.41,0.52,-0.05,6.59,5.98,0.1139035,0.08059991,-0.05165727,-0.004774875,1.175151,-9.354194,1
40347235,5884,3.43,-3.09,-3.65,0.3,0.64,6.61,5.55,0.4677577,0.0846238099999999,-0.00566137,-0.2462729,1.115244,-9.70994,1
40460539,5870,3.09,-1.86,-1.28,0.23,0.56,8.11,5.67,0.2729504,0.001951558,0.02775585,-0.01531682,0.8004534,-9.645777,1
40567972,5844,2.51,-1.35,-0.58,0.12,0.23,11.1,6.39,-0.02913875,-0.02347776,0.1645534,-0.2200559,0.7436926,-9.907708,1
40680183,5576,3.05,-1.24,-0.72,-0.08,0.05,12.56,8.14,0.002959119,-0.02548881,0.2921019,0.131979,1.11689,-9.780203,1
40786912,5660,3.31,-1.4,-0.9,-0.31,-0.26,12.57,10.07,-0.09215841,-0.09228715,0.3190516,-0.05186435,0.7805743,-10.25789,1
40897032,5720,3.61,-1.43,-1.28,-0.43,-0.85,12.57,11.78,-0.006919632,-0.07661693,0.2329236,0.04614153,1.00505,-9.648733,1
41004859,5823,3.72,-1.45,-1.29,-0.79,-1.08,12.58,13.14,0.02770429,-0.09545344,0.2335308,-0.169966,0.7124612,-9.993725,1
41116434,5949,4.12,-1.19,-1.72,-1.81,-1.95,12.61,14.1,-0.008567607,-0.2255894,0.1162684,0.09064759,1.109727,-9.415407,1
41221693,6151,3.72,-1.15,-1.47,-2.83,-3.4,12.63,14.71,0.1998699,-0.1978472,0.0273582,-0.1765764,0.9279848,-9.844036,1
41331519,6072,3.78,-1.04,-1.33,-3.4,-4.46,12.64,15.12,0.0271522,-0.1728415,0.01467937,-0.1375073,0.8054956,-9.853726,1
41437091,6115,4.08,-0.98,-1.36,-3.76,-4.68,12.65,15.14,-0.07560372,0.04452568,-0.01015358,-0.3728214,0.9629648,-10.25162,1
41554086,6182,3.84,-0.93,-1.46,-3.82,-4.31,12.65,15.0,-0.02561244,0.1264855,-0.06785089,0.04752367,0.7841812,-9.579617,1
41769175,6156,3.4,-1.02,-1.04,-3.96,-3.66,12.65,14.52,-0.004106486,-0.1164111,-0.09562263,-0.07284725,0.8005394,-9.687828,1
41874824,6139,3.56,-1.1,-1.14,-3.98,-3.83,12.65,14.18,-0.1170889,0.05791886,-0.08045705,-0.2222489,0.7664528,-9.714135,1
41983891,6113,3.64,-1.3,-1.48,-4.02,-3.78,12.65,13.71,-0.0926572299999999,0.04188521,-0.04656478,-0.4975956,0.8257819,-9.989774,1
42090993,6091,3.66,-1.5,-1.92,-4.1,-3.39,12.65,13.06,-0.03890605,0.08883762,-0.1509462,-0.7564778,0.9012082,-10.1033,1
42201985,5916,3.49,-1.58,-2.37,-4.22,-3.18,12.66,12.45,-0.1174626,-0.06890833,-0.1293843,-0.02997003,0.9772187,-9.874728,1
42314495,5938,2.91,-2.16,-2.42,-3.4,-3.41,12.63,11.93,-0.1055886,0.1129306,-0.06140073,-0.5572286,0.7385873,-9.939885,1
42418956,5729,3.3,-3.45,-3.16,-2.37,-2.57,12.58,11.64,-0.1689767,0.1588625,-0.02940944,-0.2450678,0.6032731,-9.695584,1
42543544,5831,3.59,-5.55,-5.48,-1.12,-0.9,12.48,11.23,-0.3599193,0.1950332,-0.001102563,0.02556766,0.882747,-9.568727,1
42643398,5876,3.49,-7.05,-7.3,-0.43,0.02,12.41,11.06,-0.2814923,0.137637,0.03563759,-0.0369533,1.192894,-10.09022,1
42762437,6051,3.28,-7.96,-8.28,-0.12,0.37,12.37,11.18,-0.0858681,-0.03694728,0.04653681,0.2308142,1.254862,-9.895795,1
42860230,5983,3.25,-8.32,-8.48,-0.03,0.08,12.35,11.3,-0.04847013,-0.002771941,0.001698223,0.0481462,0.8855124,-9.632192,1
42968176,5820,3.34,-8.23,-8.28,-0.11,-0.06,12.36,11.41,0.0700224099999999,-0.06407517,-0.02697732,0.02267905,1.037009,-9.875127,1
43079038,5932,2.97,-7.92,-7.78,-0.06,-0.53,12.36,11.45,0.0814303599999999,0.0008379396,0.02160953,-0.3893477,1.061713,-9.893975,1
43184209,5796,3.37,-7.66,-7.57,-0.03,-0.5,12.35,11.5,0.05436135,0.1290237,-0.005867931,-0.2988315,0.988998,-9.767313,1
43287229,5763,3.73,-7.13,-7.13,-0.06,0.07,12.36,11.68,0.1463669,0.05576565,0.02458933,-0.03180935,1.141424,-9.805797,1
43405935,6014,2.82,-4.4,-4.66,-0.03,-0.11,12.35,11.83,0.5000278,-0.08306774,-0.03501932,-0.2700447,0.6862847,-9.624116,1
43508732,5735,3.11,-1.78,-1.36,-0.21,-0.27,12.36,11.56,0.720679,0.02389582,-0.07688486,-0.2705989,1.099209,-9.860178,1
43617698,5648,3.09,0.89,2.27,-0.53,-0.39,12.37,11.09,0.4755221,0.06578749,-0.06957801,-0.5240152,1.046566,-9.916122,1
43730613,5480,2.56,2.08,4.79,-0.78,-0.38,12.36,10.5,0.0538749,-0.01372167,-0.06234982,-0.5259024,0.7871364,-10.02325,1
43845993,5442,2.84,2.25,4.84,-0.81,-0.42,12.36,10.01,-0.2267134,0.01663184,-0.02974953,-0.3305116,0.9161005,-9.54186,1
43946847,5457,3.04,1.83,3.47,-0.68,-0.73,12.36,9.57,-0.4688964,-0.06386656,-0.0727530599999999,-0.3064222,0.6249554,-9.726089,1
44057839,5462,2.93,1.24,1.99,-0.48,-0.87,12.37,9.24,-0.158922,0.01517229,-0.02958786,-0.3869613,1.189205,-9.905689,1
44164699,5542,2.77,0.68,1.05,-0.3,-0.9,12.37,9.23,-0.0661807299999999,-0.1133664,0.02445494,-0.127909,1.187238,-9.880359,1
44388441,5559,3.06,0.28,0.45,0.22,-1.55,12.37,9.86,-0.01900502,0.01001865,0.0602169,0.09592965,0.7749337,-9.922851,1
44481326,5616,3.22,0.18,0.07,0.47,-0.97,12.38,10.28,-0.05728512,0.1231399,0.08925979,0.1371005,0.8476143,-9.857615,1
44603202,5704,3.37,0.17,-0.12,0.79,-0.49,12.38,10.84,-0.0169536,0.08550017,0.06373756,-0.02959589,0.7875775,-9.730467,1
44707680,5613,3.51,0.33,-0.67,0.93,0.11,12.38,11.34,-0.05700212,0.0689259599999999,0.1182666,-0.1396324,0.9381368,-10.08098,1
44823297,5816,3.48,0.57,-0.87,1.3,0.57,12.38,11.93,-0.05938971,0.07949128,0.09985758,-0.1171146,0.742661,-9.890145,1
44919336,5935,3.73,1.05,-0.48,1.31,0.69,12.38,12.43,0.1084043,-0.0962406299999999,0.06919232,0.1024846,0.9603219,-9.976797,1
45026446,6124,3.64,2.55,0.55,1.21,0.4,12.38,12.74,0.2248251,-0.03399668,0.04174518,0.03900677,0.9563957,-10.01437,1
45130998,6048,3.25,4.13,2.36,1.42,0.2,12.39,12.68,0.2965941,-0.05433725,-0.02280796,0.1153946,0.4626564,-9.865483,1
45245286,5844,3.63,6.29,4.38,1.48,0.11,12.39,12.46,0.3221262,-0.03337711,-0.02985965,-0.3113582,0.6638266,-10.30278,1
45344437,5872,3.5,7.82,6.27,1.44,0.33,12.39,12.32,0.3235052,0.01149349,-0.03609306,0.1419655,0.4478315,-10.24878,1
45463083,5951,3.11,8.95,7.86,1.59,0.33,12.41,12.14,0.09924746,-0.01426835,-0.03436197,0.1481024,0.4022145,-10.07023,1
45566829,5716,3.71,9.22,8.14,1.7,0.79,12.43,12.19,-0.0450459,0.1120186,0.01677756,0.4086298,0.4835345,-9.780164,1
45678827,5835,3.82,9.0,7.6,1.95,1.36,12.47,12.46,-0.1158172,0.1154207,0.0569408,0.3073874,0.6504254,-9.91533,1
45788004,5935,3.89,8.82,6.88,1.77,1.56,12.44,12.82,-0.09925521,-0.03043959,0.04977228,0.2226829,0.5992731,-10.00501,1
45898179,6044,3.85,8.76,6.29,0.93,1.07,12.31,13.07,-0.08916583,-0.1547771,0.0377899,0.3296961,0.421816,-9.920127,1
46007094,6201,3.87,8.72,5.4,0.09,-0.15,12.18,13.13,-0.06486575,-0.2630961,0.02285994,0.01476434,0.447104,-10.23073,1
46228476,6082,3.95,8.43,4.32,-0.51,-1.39,12.09,13.15,-0.06551709,0.007776823,-0.006381487,0.2136657,0.2119827,-9.684252,1
46323684,6042,4.08,7.89,3.59,-0.57,-1.36,12.08,13.06,-0.1644968,-0.01491833,-0.01366935,0.08887433,0.161816,-10.0618,1
46536870,6042,3.97,5.52,0.66,-0.49,-1.52,12.09,12.77,-0.2218826,-0.04642364,-0.05546631,0.400154,0.1363658,-9.596492,1
46657454,6079,3.86,4.0,-1.24,-0.48,-1.93,12.09,12.45,-0.2082033,-0.1127103,-0.08242355,0.2690682,0.0894739299999999,-9.677137,1
46765902,6033,4.08,3.14,-2.46,-0.46,-1.98,12.09,12.0,-0.08946385,-0.01147111,-0.07842398,-0.01673261,0.2991929,-9.994331,1
46869863,6083,3.75,2.79,-2.41,-0.34,-1.64,12.1,11.43,0.08616014,0.1113335,-0.0874955,0.07378066,0.2075403,-9.858098,1
46976509,6050,3.57,2.76,-1.58,0.02,-1.24,12.12,10.79,0.1411416,0.04263249,-0.0987557399999999,0.03311342,0.1296368,-10.02804,1
47088737,5965,3.42,2.76,-0.56,0.47,-0.47,12.14,10.29,0.1520773,0.0605387,-0.06265452,0.1536092,0.04484452,-10.06879,1
47187518,5910,3.36,2.53,-0.12,1.06,0.13,12.17,9.97,0.04711179,0.1128795,-0.04251866,0.06672481,0.08576386,-9.889132,1
47302963,5757,3.37,1.33,-0.6,2.14,1.08,12.21,9.73,-0.2024263,0.2129107,-0.02138611,0.08102638,-0.05523775,-9.912549,1
47415168,5767,3.63,-0.39,-2.15,2.92,2.2,12.21,9.54,-0.269755,0.1296149,-0.02204552,0.3932305,0.05775273,-9.756249,1
47526296,5859,3.58,-2.01,-4.11,3.41,2.89,12.2,9.36,-0.223202,0.02923832,-0.01747265,0.2968804,0.2916286,-9.753513,1
47739050,5885,3.57,-3.84,-5.5,3.32,3.2,12.21,9.38,-0.07729806,0.02856041,0.04570892,0.1772367,0.1771336,-10.25296,1
47839816,5886,3.27,-4.5,-5.56,3.24,3.18,12.22,9.76,-0.03137347,-0.01570904,0.08239178,0.03903675,0.2079102,-10.04638,1
47960911,5930,3.58,-5.22,-5.75,3.66,3.58,12.18,10.4,-0.07559462,0.1267768,0.1193841,0.2746865,0.3100894,-9.664724,1
48057497,5958,3.88,-5.51,-5.96,4.06,4.14,12.14,11.05,-0.003449056,0.04826953,0.1308366,0.2304668,0.2534583,-10.09964,1
48169242,5994,3.83,-5.83,-5.88,4.38,4.54,12.11,11.84,0.03513192,0.03553184,0.1237185,0.2675733,0.1532315,-9.92856,1
48278252,5891,3.87,-5.95,-5.73,4.44,4.47,12.1,12.49,0.0523165,-0.02157724,0.08723459,0.3126881,0.329697,-10.03747,1
48385191,5978,3.96,-5.87,-5.39,3.9,4.04,12.16,13.02,0.008690434,-0.1195533,0.07353237,0.3127622,0.3147317,-9.754903,1
48499923,6071,3.84,-5.74,-4.98,3.1,3.19,12.24,13.54,0.02323034,-0.1013342,0.08490665,0.3888895,0.2883945,-9.677979,1
48607722,6069,3.74,-5.83,-4.71,2.71,2.39,12.28,13.96,0.02810579,-0.1034453,0.05412226,0.2228135,0.277733,-9.784423,1
48710023,6054,4.01,-5.85,-4.72,2.36,1.73,12.32,14.24,0.03536423,-0.1283666,0.02707565,0.2302627,0.3173726,-9.900845,1
48820321,6002,3.67,-5.66,-4.57,2.21,1.31,12.33,14.36,0.0528299,-0.0393221,-0.007162417,0.2344088,0.3887847,-9.563725,1
48933974,6046,3.51,-5.13,-3.96,2.14,1.24,12.34,14.31,0.1655933,-0.03985971,0.001819415,0.3446808,0.477645,-9.370111,1
49044722,5900,3.18,-4.79,-3.26,2.21,1.19,12.33,14.16,0.1889908,-0.05032487,-0.04193157,0.4553918,0.2850809,-8.930058,1
49143280,5893,2.82,-4.69,-2.75,2.28,1.27,12.33,13.94,0.07168238,0.02104407,-0.04508727,0.1526406,0.2536752,-9.310679,1
49257899,5625,2.77,-4.58,-2.56,2.35,1.67,12.32,13.24,-0.02862317,0.1085792,-0.1116344,0.3364424,0.4583876,-8.750306,1
49366066,5561,2.13,-4.54,-2.7,2.52,1.7,12.31,12.4,0.06645706,0.009821863,-0.152275,0.32769,0.5254374,-8.305544,1
49469372,5235,2.55,-4.53,-3.0,2.63,1.84,12.3,11.65,-0.2100275,-0.0127678,-0.1023602,0.1692405,0.709375,-8.599719,1
49582033,5098,2.49,-4.73,-2.4,2.68,1.87,12.3,11.09,0.06844828,0.02069831,-0.06478935,0.3842916,0.404013,-8.339866,1
49685452,5068,2.39,-4.89,-2.42,2.81,1.53,12.28,10.57,-0.2169322,-0.02161858,-0.08918826,0.1733872,0.5544488,-9.07164,1
49805425,4971,2.13,-5.16,-2.52,2.98,1.04,12.27,10.04,0.0872141699999999,-0.0898407299999999,-0.06115974,0.06141885,0.5616635,-8.840215,1
49913897,4973,2.52,-5.56,-2.63,3.08,1.04,12.26,9.82,0.02162562,0.05207158,-0.0095281889999999,0.4813053,0.5953199,-9.081641,1
50025316,5016,2.57,-5.95,-2.97,3.18,0.95,12.25,9.56,-0.06686754,0.1029747,-0.03325893,0.2184449,0.6715847,-9.49634,1
50131521,5072,2.36,-6.3,-3.62,3.38,1.19,12.23,9.38,-0.202674,0.05091831,-0.01798165,0.04308307,0.5811899,-9.417216,1
50233868,5101,3.16,-6.57,-4.05,3.36,2.36,12.23,9.35,0.003443438,0.1931519,0.01712578,0.2681548,0.7090534,-9.687333,1
50345240,5388,2.95,-6.56,-4.21,3.16,3.14,12.25,9.41,-0.03277525,0.01254773,0.0411666,0.05386891,0.910108,-9.657276,1
50457943,5428,2.46,-6.42,-3.72,2.94,2.46,12.28,9.61,0.1171141,-0.08281477,0.01781292,0.2230452,0.5947244,-9.969003,1
50675193,5285,2.44,-6.57,-3.31,2.76,1.39,12.3,10.05,-0.07171215,-0.08211029,0.03063793,0.274655,0.7710776,-10.34168,1
50783898,5307,2.72,-6.65,-3.82,3.14,1.24,12.25,10.44,-0.08722478,-0.05728113,0.05909574,0.3657597,0.7123569,-10.0849,1
50893937,5215,2.43,-6.49,-4.18,3.65,1.57,12.2,10.8,-0.06808098,-0.0006816894,0.03164937,0.3755051,0.7134845,-10.28483,1
51001964,5239,2.54,-5.95,-3.95,4.38,2.16,12.12,11.0,0.02039533,0.1948183,0.04780149,0.4359738,0.6233098,-10.11657,1
51104529,5207,2.76,-5.5,-3.91,4.77,3.02,12.08,11.11,-0.00332508,0.107399,0.01355603,0.662603,0.5975204,-9.552998,1
51213241,5362,3.1,-5.2,-4.04,4.94,3.91,12.06,11.22,0.03986355,0.1071684,0.008048467,0.6000968,0.8178877,-9.671959,1
51322717,5472,2.81,-5.19,-3.81,4.87,4.28,12.07,11.3,-0.02180255,0.02070208,0.03074867,0.1204924,0.9171848,-10.44979,1
51424278,5498,2.86,-5.18,-4.02,4.57,4.06,12.09,11.32,-0.0933408399999999,-0.006689326,0.003432163,0.4126664,0.7671783,-10.08428,1
51532967,5400,2.97,-5.06,-4.37,4.13,3.78,12.13,11.49,-0.03219054,0.03277712,0.04003578,0.129956,0.8976514,-9.887399,1
51653179,5468,3.01,-4.78,-4.63,3.64,3.77,12.18,11.7,-0.002622017,-0.0946894499999999,0.02270831,0.1115209,0.8933623,-9.824475,1
51862437,5758,2.96,-4.44,-3.42,2.59,3.89,12.26,12.26,0.0524482,-0.01234803,0.07781862,0.1594625,0.6627212,-10.18757,1
51972079,5579,2.84,-4.35,-2.95,1.64,2.76,12.33,12.63,-0.03832127,-0.2508195,0.04404241,0.3387815,0.6068386,-10.05329,1
52071853,5505,2.79,-4.2,-3.3,1.12,1.29,12.37,13.04,-0.1275152,-0.2583179,0.06477496,-0.03675422,0.7228798,-9.745116,1
52300956,5335,2.99,-2.89,-3.01,1.17,0.28,12.37,13.71,0.09075113,0.06454314,0.03567901,0.3285674,0.8080865,-9.695583,1
52409972,5511,2.97,-1.92,-2.05,1.53,0.57,12.36,13.76,0.191307,0.02893394,0.002237755,0.2693859,0.7426051,-9.377621,1
52515884,5620,3.16,-0.93,-1.14,1.88,1.23,12.35,13.82,0.00115701,0.06564911,0.01383969,0.4690138,0.7471544,-9.743289,1
52627407,5505,3.17,-0.19,-0.15,2.27,1.53,12.35,13.87,-0.03167029,0.1021648,0.0276062,0.50851,0.6074829,-9.85932,1
52735234,5409,2.7,0.24,0.83,2.49,1.8,12.35,13.83,0.1461211,0.08022281,-0.05489367,0.4407448,0.5547169,-9.664721,1
52850078,5489,2.73,0.42,0.95,2.63,2.0,12.35,13.47,-0.09398652,-0.07430879,-0.09177361,0.522924,0.5083995,-9.87518,1
52949265,5414,2.88,0.24,0.81,2.72,1.87,12.35,13.01,0.05393223,-0.04914912,-0.1148295,0.435895,0.5655382,-9.544486,1
53061685,5414,2.87,0.0,-0.11,2.76,1.91,12.35,12.58,-0.06245511,0.01870072,-0.03821337,0.2607486,0.492319,-9.682961,1
53161027,5421,3.51,-0.17,-0.8,2.99,2.33,12.35,12.49,-0.07282089,0.1537913,0.01756955,0.4869252,0.6617855,-10.09448,1
53271948,5595,4.05,-0.3,-1.13,3.17,3.18,12.35,12.8,-0.0716686,0.122042,0.07424958,0.4901151,0.5730004,-10.90962,1
53371763,5906,4.4,-0.22,-1.16,3.22,3.54,12.35,13.25,0.03109947,0.06574801,0.07030986,0.4196368,0.5594982,-11.27291,1
53484802,6148,4.4,0.07,-1.02,3.04,3.53,12.35,13.76,0.008466071,-0.02227261,0.08915006,0.5637152,0.6529087,-11.47219,1
53590848,6234,4.08,0.43,-0.83,2.92,3.1,12.35,14.29,0.008824379,-0.04644609,0.1044293,0.2993022,0.4618486,-11.24644,1
53703476,6049,4.16,0.95,-0.87,2.82,2.97,12.34,14.75,-0.003146394,-0.02377569,0.05666973,0.2503022,0.3577022,-11.4699,1
53821323,6179,3.93,1.67,-0.81,2.72,3.25,12.34,15.02,0.03887638,0.0088949159999999,0.04660784,0.5345889,0.3137353,-10.62792,1
53920267,6236,3.59,1.82,-0.9,2.69,3.2,12.34,15.04,-0.1007906,-0.05944272,-0.0202296,0.2073061,0.2133712,-11.01294,1
54032854,6155,3.61,2.08,-0.97,2.79,3.18,12.34,14.81,0.02753117,0.007261964,-0.04361262,0.3813207,0.3330953,-10.37432,1
54140829,5981,3.16,2.34,-0.62,3.03,3.55,12.35,14.34,0.07877246,0.1072662,-0.1020042,0.4678214,0.1883763,-10.05562,1
54250447,5917,3.29,2.62,0.01,3.16,3.85,12.36,13.68,0.1307546,0.08442237,-0.0807393,0.5286431,0.2567349,-9.778811,1
54362838,5962,3.16,2.84,0.58,3.18,4.15,12.36,12.94,0.0109934,0.05722865,-0.0795177299999999,0.3336492,0.3508281,-9.56107,1
54475872,5871,3.19,2.89,0.73,2.98,4.02,12.35,12.48,-0.01612887,-0.1027677,-0.06826762,0.4756271,0.08150779,-9.707378,1
54584214,5855,3.57,3.0,0.08,2.66,3.31,12.33,12.25,-0.1160085,-0.1498289,-0.04068489,0.4719726,0.4439908,-9.72079,1
54791373,5762,3.46,3.17,0.0,2.07,2.52,12.3,12.39,0.0922473999999999,0.03320145,0.04833546,0.240811,0.2780048,-9.917387,1
54899498,5874,3.51,3.2,0.88,1.87,2.73,12.29,12.75,0.0866851399999999,0.04509457,0.07821587,0.5134882,0.1635639,-9.806587,1
55007828,5915,3.17,2.91,1.35,1.74,2.56,12.28,13.23,0.02647943,-0.05451019,0.08034769,0.363892,0.254592,-9.921436,1
55119492,5931,3.28,2.11,1.14,1.69,1.97,12.28,13.72,-0.0898167099999999,-0.07857689,0.07261141,0.3702706,0.2539067,-9.74631,1
55215186,5828,3.6,1.19,0.3,1.6,1.77,12.28,13.97,-0.2638324,-0.003845695,0.05827078,0.4819822,0.1370939,-9.730934,1
55328961,5855,3.48,0.24,-1.15,1.72,1.71,12.28,14.03,-0.224389,0.1389725,-0.008555238,0.2550759,0.162956,-9.683308,1
55449826,5849,3.45,-0.49,-2.89,1.88,2.14,12.28,14.01,-0.1797682,0.04510858,-0.002656478,0.3396265,0.3042835,-9.615363,1
55545197,6039,3.44,-0.83,-3.46,1.97,2.53,12.28,14.07,-0.0396726,0.1305369,0.03105635,0.4556583,0.5278517,-9.776957,1
55662494,5990,3.45,-1.13,-2.96,1.93,2.61,12.28,14.19,0.1204816,-0.02733705,-0.00753418,0.595501,0.3090611,-9.734632,1
55763858,6049,3.38,-1.24,-2.48,1.86,2.31,12.28,14.26,0.1198294,-0.06273314,-0.007410177,0.5874611,0.1535647,-9.355905,1
55873885,5834,3.19,-1.45,-2.38,1.85,1.8,12.28,14.28,-0.1230528,-0.02432083,-0.01138361,0.3921007,0.1695871,-9.476294,1
55992926,5917,3.4,-1.8,-2.54,1.98,1.84,12.28,14.27,-0.09972498,-0.06008475,-0.02378441,0.4153897,0.2434265,-9.963206,1
56083885,5955,3.42,-2.05,-2.78,2.12,2.14,12.27,14.13,0.004053972,0.06942847,-0.06658088,0.5343766,0.3040057,-9.427984,1
56206039,5887,3.14,-2.25,-3.05,2.32,2.53,12.26,13.65,0.03005857,0.09679761,-0.1062748,0.4850612,0.2535253,-9.388853,1
56309486,5906,3.3,-2.43,-3.02,2.33,2.67,12.26,13.27,-0.04339556,0.09058618,-0.07747487,0.4018982,0.301237,-9.853106,1
56528907,5811,3.09,-2.68,-2.21,2.08,2.67,12.28,12.83,0.09028024,-0.05213724,-0.03537475,0.2465515,0.3996659,-9.158898,1
56638823,5746,2.91,-1.74,-1.63,0.46,1.52,12.34,12.78,0.1902973,-0.3536533,-0.02022348,0.4912247,0.4740534,-9.430212,1
56750069,5814,3.01,-1.25,-0.77,-0.75,-0.39,12.37,12.88,0.0708636899999999,-0.1733058,0.00995993,0.2450166,0.1645678,-9.52458,1
56851085,5630,3.08,-1.17,-0.05,-1.17,-1.4,12.38,13.06,0.03598318,-0.02431734,0.04201395,-0.1254278,0.03401102,-9.678557,1
56958095,5742,3.2,-1.24,-0.07,-1.08,-0.84,12.38,13.48,-0.07729518,0.1277272,0.05948837,0.4268494,0.1005702,-9.692254,1
57072887,5766,3.46,-1.45,-0.67,0.08,0.04,12.35,14.05,-0.1186324,0.2046396,0.09288841,0.3286511,0.3926278,-9.909976,1
57178507,5719,3.25,-1.62,-1.11,0.84,1.2,12.33,14.18,-0.1770817,0.1907604,-0.05315489,0.1039915,0.09705741,-9.476321,1
57291043,5831,3.28,-1.53,-1.85,1.13,2.29,12.32,13.62,0.01863724,0.09809808,-0.1491053,0.3572594,0.5646541,-10.0038,1
57401042,5898,2.77,-1.37,-2.18,1.22,2.35,12.32,12.74,-0.01425937,-0.1643056,-0.1399992,0.4521703,0.3126101,-10.06703,1
