TimeUS,RPM,Curr,DesRoll,Roll,DesPitch,Pitch,DesYaw,Yaw,GyrX,GyrY,GyrZ,AccX,AccY,AccZ,Guasto
0,4948,3.76,-0.42,1.82,-0.39,-1.27,18.84,16.6,-0.05620751,0.08929003,0.1127613,-0.04906458,0.1582465,-11.58962,0
211434,5831,4.05,-1.39,0.06,0.03,-0.36,18.84,19.23,-0.100028,0.1196047,0.2773764,0.107022,0.4861691,-12.03462,0
321344,5897,3.67,-1.76,-0.32,0.46,-0.46,18.83,21.01,-0.06919797,-0.04112564,0.2764248,-0.07479995,0.3573534,-12.36374,0
438518,5864,4.09,-1.98,-0.73,0.9,-0.25,18.81,22.88,-0.1135566,-0.01560366,0.2678135,0.06643142,0.07468729,-11.77308,0
538885,6100,4.18,-1.98,-1.03,1.41,0.0,18.79,24.34,0.006906703,0.04773695,0.2511421,0.4179584,0.53,-11.48659,0
644279,6143,4.28,-1.87,-1.06,1.97,0.21,18.77,26.02,-0.00596399,-0.03255757,0.2844483,0.6646644,0.1996263,-11.39946,0
764264,6237,4.05,-1.74,-1.1,2.98,0.17,18.74,28.1,0.06078446,0.003063195,0.2828557,0.3563097,0.3112752,-11.23866,0
861838,6331,4.24,-1.85,-0.91,4.12,0.76,18.71,29.32,-0.02530465,0.1816254,0.1627391,0.4674501,0.3077635,-10.87823,0
972184,6369,4.11,-2.23,-0.96,5.23,2.22,18.67,29.99,0.002769596,0.2776152,0.02382667,0.2130217,0.4455695,-10.47596,0
1087551,6191,4.67,-3.0,-1.43,5.51,4.22,17.2,29.85,-0.01707477,0.2237477,-0.0840187399999999,0.380679,0.8091046,-10.03369,0
1195267,6416,5.35,-4.3,-0.69,5.1,5.18,13.57,28.82,0.1129947,0.0576319,-0.2500475,0.4280109,0.595269,-10.38203,0
1298306,6734,4.81,-5.13,-0.94,4.54,5.48,11.77,26.87,-0.160641,0.02227237,-0.4151697,0.3033089,0.6716321,-10.5886,0
1403927,6622,3.95,-5.77,-2.04,3.87,4.78,11.75,24.25,-0.1928632,-0.08750167,-0.441989,-0.07557306,0.506956,-10.22561,0
1519132,6266,4.36,-5.85,-4.12,3.27,3.78,11.82,21.45,-0.290942,-0.08217619,-0.4262913,0.07051119,0.6093256,-9.546541,0
1624481,6215,5.14,-5.29,-5.52,2.97,3.57,11.84,18.92,-0.1158806,0.1586279,-0.4258862,-0.2658587,0.5911828,-9.728612,0
1737892,6540,4.62,-4.41,-5.43,2.43,3.98,11.89,16.31,0.1352276,0.02084905,-0.3508501,0.1311824,0.6668116,-10.4729,0
1952332,6519,4.15,-2.85,-3.18,0.89,2.03,12.78,14.52,0.2012105,-0.0980096,-0.1054792,-0.05451241,0.4845118,-10.27945,0
2061860,6239,4.04,-2.53,-2.26,0.06,1.48,12.82,14.14,0.1246982,-0.0729947299999999,-0.03717165,-0.04925273,0.4096782,-10.01221,0
2285919,6211,4.02,-2.73,-1.57,-0.74,0.38,12.85,13.63,-0.02778025,0.07187495,0.1021759,-0.2105375,0.4321449,-10.08627,0
2500807,6151,3.86,-3.88,-1.47,-0.68,0.58,12.85,15.49,-0.06370393,0.04336925,0.2164473,-0.05030163,0.7206932,-10.16244,0
2605937,6066,4.07,-4.54,-2.0,-1.05,0.78,12.88,17.2,-0.1732884,-0.0766119,0.1659224,0.1629434,0.6608421,-9.846078,0
2715133,6169,3.98,-5.08,-2.96,-1.56,0.23,12.92,18.54,-0.08423788,-0.1405878,0.09641609,-0.1053433,1.264069,-9.324894,0
2925505,6269,3.57,-5.98,-4.51,-3.35,-1.47,13.1,20.08,-0.1407108,-0.25582,0.1043233,0.1307048,0.8359982,-9.142215,0
3041938,6010,3.75,-6.03,-5.23,-3.9,-2.53,13.15,20.95,-0.1148972,-0.1544143,0.06047124,0.01760098,0.5661794,-9.245296,0
3253183,5990,4.16,-5.14,-6.23,-3.9,-3.68,13.15,20.35,0.1311683,0.04225475,-0.0580244,-0.01550158,0.8637756,-8.546691,0
3354473,6145,4.27,-4.5,-5.54,-3.78,-2.98,13.14,19.7,0.08256341,0.06660871,-0.04665928,0.1867798,0.6375943,-8.532822,0
3477317,6308,4.32,-3.85,-4.27,-3.36,-2.33,13.11,19.04,0.2594557,0.2890141,-0.0825255,-0.2219069,0.7123054,-9.051782,0
3578838,6269,3.89,-3.57,-3.27,-3.56,-1.19,13.13,18.83,0.07173021,0.03268294,-0.04508962,0.08060055,0.660925,-8.985928,0
3682354,6198,3.45,-3.49,-2.96,-3.89,-1.56,13.15,18.88,0.09205358,-0.1840937,-0.03229862,0.02157064,0.7194124,-9.023408,0
3912982,6115,2.8,-3.55,-2.14,-4.93,-3.88,13.21,18.53,0.1592035,-0.1736031,0.0414056,0.0113459,0.6934428,-8.820836,0
4009806,5794,2.94,-3.76,-1.86,-4.87,-4.16,13.21,18.34,-0.0999725,0.04037716,0.03266721,-0.3984616,0.7473089,-8.739103,0
4125650,5645,2.5,-3.92,-2.01,-4.48,-3.7,13.18,18.32,-0.2041663,0.1178742,0.02856954,-0.2313477,0.5918882,-8.218723,0
4237528,5513,2.62,-4.6,-2.57,-3.87,-3.12,13.13,18.93,-0.09876037,0.06105476,-0.006500348,0.0905474899999999,0.7825245,-8.260123,0
4344254,5359,2.82,-5.39,-3.62,-3.35,-2.4,13.09,19.07,-0.3140672,0.2056241,-0.03747794,-0.004425703,0.6926607,-8.08516,0
4452599,5389,2.95,-5.65,-4.96,-3.1,-1.73,13.06,18.5,-0.1687362,0.1807288,-0.05459032,0.02465618,0.5261721,-7.975685,0
4555466,5445,2.89,-5.44,-5.9,-2.9,-1.37,13.04,17.62,-0.1004734,0.09368364,-0.03730873,-0.03574942,0.9862859,-8.165257,0
4663488,5525,2.54,-4.94,-4.99,-2.66,-1.42,13.02,16.76,0.2680198,-0.04846711,-0.04076633,0.1565737,1.097449,-8.333931,0
4882690,5496,2.82,-4.26,-2.63,-1.85,-1.35,12.96,16.02,0.1499389,0.09679177,0.04326298,-0.05227228,0.9949358,-8.330921,0
4996245,5402,3.05,-4.68,-2.34,-1.4,-1.06,12.92,16.21,-0.04723536,0.03109147,0.03489554,-0.2244942,1.042633,-9.027644,0
5102059,5438,2.87,-5.43,-2.72,-1.03,-0.55,12.89,16.54,-0.08241782,0.02893955,0.0183666,0.0432252,1.120889,-8.943908,0
5213351,5558,3.41,-6.26,-3.6,-0.62,0.02,12.85,16.7,-0.1290582,0.131655,0.0349009,0.0938793899999999,0.9910776,-9.024805,0
5320121,5722,3.07,-7.01,-3.98,-0.18,0.22,12.8,16.87,-0.06105754,-0.004072324,0.0425699,-0.1557387,1.147173,-9.935035,0
5429819,5583,2.88,-7.6,-4.03,0.05,0.11,12.72,17.22,-0.05926027,0.01369888,0.0648027999999999,-0.387673,0.8864608,-9.948882,0
5535394,5571,2.89,-7.94,-4.67,0.03,0.23,12.08,17.33,-0.212733,0.0087007019999999,-0.01188809,-0.0894921,0.8324512,-9.828537,0
5635893,5574,3.46,-8.31,-5.51,0.11,0.31,11.1,17.08,-0.0002631934,0.02706677,-0.03659669,-0.1883329,1.182028,-9.851665,0
5753616,5760,3.72,-8.7,-6.84,0.36,0.83,10.75,16.45,-0.09262853,0.007901144,-0.04546159,0.1116478,1.176039,-9.474684,0
5862850,5798,3.1,-8.75,-7.19,0.8,1.18,10.68,15.85,-0.0279543,0.06615326,-0.0587887,-0.364804,1.008247,-9.698627,0
5962382,5783,2.99,-8.63,-6.78,1.06,1.42,10.64,15.36,0.1757676,0.07016749,-0.02631063,-0.1317992,1.124386,-10.27884,0
6071915,5715,3.14,-8.42,-6.51,1.26,1.83,10.61,14.93,0.04576919,0.07662926,-0.0023932,-0.1780798,0.9662371,-10.30712,0
6181610,5743,2.96,-8.36,-6.24,1.33,1.89,10.6,14.73,0.07894921,-0.009024063,0.003453779,0.01022796,1.337509,-10.18637,0
6298149,5821,2.83,-8.92,-6.57,1.37,1.67,10.59,14.79,-0.1118984,0.01407437,-0.008437386,-0.05152188,1.080832,-9.908462,0
6400561,5742,2.95,-10.14,-7.67,1.78,1.95,10.52,14.81,-0.313197,0.007321575,-0.01474183,0.0251021,0.9514996,-9.94151,0
6513917,5558,3.22,-11.92,-9.73,3.1,3.36,10.26,14.65,-0.339752,0.2249099,0.0210214,-0.06596933,1.146594,-10.4298,0
6613990,5781,3.19,-13.14,-11.59,4.22,4.67,10.02,14.7,-0.3337488,0.2075784,0.03556325,0.1591282,1.304485,-9.676253,0
6834519,5732,3.34,-13.76,-13.24,5.24,6.44,9.77,14.55,0.03151716,0.09671237,-0.03125453,0.1180649,1.101397,-9.730083,0
6936033,5870,3.66,-13.11,-12.85,5.19,6.48,9.78,14.31,0.1401576,0.04611632,-0.03659866,-0.08862286,1.499919,-10.1886,0
7047330,5848,2.73,-12.26,-11.32,4.85,5.82,9.86,13.84,0.3319761,-0.1562644,-0.08489502,0.04958669,1.308321,-9.997045,0
7153934,5671,2.93,-11.68,-10.54,4.56,5.15,9.92,13.38,0.01610904,-0.1068844,-0.09415605,0.06832125,1.142199,-9.798656,0
7265547,5685,3.24,-10.91,-10.6,4.43,5.14,9.94,12.65,-0.04241846,0.07348285,-0.1176923,-0.3453344,1.136981,-9.641667,0
7483150,5684,2.92,-8.7,-8.6,4.12,4.52,10.0,12.15,0.2560405,0.07201413,-0.0772155499999999,-0.402202,0.9761992,-10.01791,0
7596915,5577,2.84,-7.83,-7.47,3.85,4.4,10.04,11.42,0.1295603,-0.03548354,-0.08120476,-0.1746135,1.179698,-9.528451,0
7706372,5491,2.52,-7.65,-6.8,3.65,3.92,10.06,10.9,0.1521003,-0.1287049,-0.0766447,-0.033372,1.5469,-10.01843,0
7918882,5551,2.12,-7.72,-6.56,3.1,2.66,10.14,10.62,-0.1022382,-0.06943631,-0.05827737,-0.05667296,1.371316,-10.00642,0
8029364,5314,2.29,-7.9,-7.04,3.38,2.54,10.1,10.53,-0.0815040499999999,0.01877037,-0.05952264,0.1512477,1.265519,-9.879183,0
8132208,5318,3.06,-8.06,-8.17,3.75,3.35,10.05,10.28,-0.1634321,0.2363128,-0.01021311,-0.08484013,1.829831,-9.222906,0
8243777,5411,3.17,-8.08,-8.77,3.74,4.06,10.05,10.2,0.05148606,0.08604807,0.01668238,-0.07004657,1.745684,-9.334449,0
8355085,5771,3.83,-7.97,-8.73,3.11,4.33,10.14,10.52,-0.004080339,-0.03840913,0.08756419,0.1296242,1.396709,-9.944139,0
8462780,5783,3.64,-7.67,-8.52,0.57,2.48,10.49,11.47,0.07190274,-0.5922948,0.1543486,0.3350561,1.471465,-9.822838,0
8573948,5940,3.38,-7.76,-8.25,-1.39,-0.96,10.75,12.93,0.02777657,-0.4810832,0.1811297,-0.2756754,1.258415,-10.13654,0
8675862,5914,3.66,-7.88,-8.21,-2.55,-2.83,10.91,14.21,0.04220839,-0.2378221,0.2021473,-0.2086318,1.084615,-10.05196,0
8790177,5925,3.93,-7.96,-8.5,-2.84,-3.24,10.95,15.31,-0.09734552,0.0307666,0.1455689,-0.4055068,1.041892,-10.03203,0
8907100,6082,4.12,-8.34,-8.97,-2.38,-2.54,10.89,16.02,-0.1146647,0.143268,0.118274,0.1307873,1.201486,-9.893321,0
9005643,6023,4.12,-8.21,-9.11,-2.06,-2.01,10.84,16.36,0.06692217,-5.580459e-05,0.04493778,-0.04501176,1.433018,-9.936977,0
9224924,6198,4.17,-7.31,-8.55,-1.84,-0.95,10.81,16.83,0.05888748,-0.03693129,0.06742114,-0.05609207,1.207951,-9.720988,0
9335841,6163,3.87,-7.06,-8.03,-1.78,-0.98,10.8,17.07,0.1286539,-0.07243004,-0.004843871,0.1042001,1.014727,-9.600706,0
9454306,6281,3.95,-6.97,-7.39,-1.75,-0.95,10.8,17.04,0.09388168,0.01175374,-0.03388966,0.1108933,1.207236,-10.15727,0
9664522,6076,3.86,-7.18,-7.45,-1.28,-0.89,10.74,16.82,-0.03984491,0.04805607,-0.04782245,0.0119581,1.225487,-9.658089,0
9773134,6211,4.23,-7.49,-7.78,-0.86,-0.27,10.69,16.4,-0.06119362,0.1320365,-0.04837152,-0.1081696,1.109318,-10.01013,0
9879980,6173,4.21,-7.64,-7.67,-0.65,0.76,10.66,15.95,-0.02769618,0.2127789,-0.02863025,-0.05199775,0.8851193,-9.802028,0
9991648,6221,4.16,-7.23,-7.95,-0.51,1.04,10.64,15.99,-0.07491,-0.1300882,0.06543826,0.4088812,1.067814,-9.581427,0
10103530,6337,4.01,-6.9,-7.92,0.0,-0.05,10.57,16.8,0.1644385,-0.1812669,0.1207058,0.2715875,1.643764,-10.21355,0
10199932,6397,3.92,-6.97,-6.4,0.48,-0.08,10.52,17.47,0.18665,0.0780732299999999,0.1024835,0.3823769,0.8895941,-10.58568,0
10310578,6251,2.92,-7.08,-6.18,1.28,0.13,10.42,17.65,-0.04209029,0.03971479,0.00907548,0.1928034,1.155904,-9.588261,0
10420113,5832,3.29,-7.87,-6.89,1.97,0.76,10.33,17.54,-0.28263,0.09472954,-0.03947787,0.45375,1.208992,-9.210068,0
10520105,6096,3.79,-8.65,-8.07,2.63,1.53,10.23,17.23,-0.1316756,0.1361786,-0.03904125,0.2731441,1.43079,-9.479799,0
10634914,5906,3.92,-9.24,-9.42,3.23,2.75,10.14,16.61,-0.145545,0.1531067,-0.03041424,0.3079562,1.466517,-9.675867,0
10735259,6126,3.45,-9.28,-9.74,3.67,3.5,10.06,16.03,-0.04859181,0.0727382699999999,-0.09364524,0.5817,1.559432,-9.525509,0
10852693,6060,3.56,-8.99,-9.65,3.9,3.82,10.03,15.36,-0.05657572,0.0935999899999999,-0.08834667,0.3150211,1.400146,-8.898413,0
10956562,5975,4.1,-7.13,-8.4,3.34,3.89,10.11,14.77,0.4704065,-0.08135484,-0.1067138,0.4805222,1.842836,-9.497344,0
11061985,6193,2.63,-5.15,-4.49,2.99,3.46,10.14,14.15,0.6542261,-0.06081505,-0.08808352,0.3541109,1.077382,-9.945488,0
11174903,5683,2.59,-1.2,-0.74,2.32,2.75,10.18,13.77,0.725868,-0.1822207,-0.06740098,0.4781502,1.89926,-9.859587,0
11285122,5626,2.05,2.93,4.66,2.27,1.38,10.19,13.37,0.7113086,-0.08469835,-0.05554514,-0.1666484,0.8891513,-9.492826,0
11386144,5308,2.04,6.21,9.39,2.3,0.75,10.19,12.85,0.640624,-0.06916811,-0.06868154,0.3217404,0.7417046,-9.891706,0
11504539,5184,2.06,9.32,13.21,2.6,-0.08,10.23,12.36,0.4421468,-0.1139458,-0.05630163,0.4180889,0.8997329,-9.571417,0
11615283,5042,1.92,11.09,15.33,2.82,-1.0,10.27,12.04,0.3351098,-0.2291407,-0.0105212,-0.08439779,0.8904787,-10.29445,0
11713135,5198,2.16,11.61,16.56,3.12,-1.51,10.33,12.05,0.1141119,-0.07608476,0.04706513,0.07957129,0.5583732,-10.03193,0
11934907,5102,2.29,10.72,14.66,4.36,-0.4,10.58,12.65,-0.2722268,-0.04148154,0.1199372,0.3377703,0.6572659,-10.28843,0
12053360,5318,2.07,9.58,11.68,5.55,-0.94,10.8,12.75,-0.5139113,-0.0081185749999999,0.03589758,0.1978816,0.2909009,-9.839464,0
12155140,5216,3.05,5.9,7.7,5.28,-0.25,10.77,12.88,-1.06637,0.09023667,0.01785938,0.6352994,0.2436981,-9.979722,0
12272891,5367,3.16,2.68,1.19,4.01,0.18,10.68,12.86,-0.775463,-0.1137906,0.02850663,0.2462487,0.8846368,-9.891843,0
12376382,5636,3.57,1.62,-1.92,2.32,-0.04,10.62,13.21,-0.2445451,-0.07389054,0.03425199,0.5141404,0.887035,-10.07548,0
12487064,5812,3.21,1.72,-2.09,0.36,-1.08,10.57,13.62,0.1145179,-0.1881431,0.02596811,0.2760797,0.9238905,-10.14945,0
12710562,5734,2.94,1.66,-1.33,-2.24,-2.52,10.48,13.35,-0.0319081,-0.108795,-0.06157805,0.3007404,0.6409263,-9.800333,0
12820265,5592,2.84,0.19,-2.12,-2.83,-2.83,10.47,12.81,-0.2739694,-0.05950489,-0.08371848,0.2487383,0.3572516,-9.785086,0
12937986,5527,3.12,-1.45,-4.33,-3.37,-2.56,10.48,12.26,-0.3282849,0.04136262,-0.0639265599999999,0.2674428,0.5089829,-9.748076,0
13042330,5663,3.04,-1.91,-5.53,-4.34,-2.96,10.51,11.97,-0.1360078,-0.1614448,-0.06984383,0.4421242,0.7175298,-9.578369,0
13151341,5694,2.97,-1.75,-5.6,-5.42,-4.32,10.55,11.6,0.08059685,-0.1707702,-0.08591224,0.2294317,0.665383,-9.618243,0
13257811,5515,2.92,-1.65,-4.81,-6.66,-5.54,10.58,11.09,0.1333868,-0.2150424,-0.1175371,0.1480874,0.5139045,-9.598121,0
13372587,5520,3.0,-1.42,-4.21,-7.81,-6.82,10.61,10.61,0.1067009,-0.1646449,-0.0749186,-0.07623368,0.7149022,-9.769633,0
13587937,5446,2.77,-1.2,-2.55,-9.04,-8.08,10.64,10.12,0.06145765,-0.08962007,-0.009967067,0.1243456,0.5928518,-9.73578,0
13696866,5543,3.1,-1.08,-2.57,-9.44,-8.13,10.65,10.16,-0.05394652,0.02681178,0.01379536,-0.0921889199999999,0.4166908,-9.913363,0
13799275,5565,3.04,-1.01,-2.64,-9.81,-7.9,10.66,10.45,0.01032145,0.05251009,0.05670208,0.02570507,0.6870363,-9.915662,0
13899581,5657,3.24,-0.84,-2.61,-10.08,-8.12,10.66,10.97,-0.01367194,-0.0486065,0.0738171299999999,0.1291452,0.4700576,-9.873978,0
14010453,5672,3.37,-0.55,-2.49,-10.47,-8.38,10.67,11.68,0.08594104,-0.08200265,0.1372629,-0.02021297,0.4456929,-9.826856,0
14238148,5733,3.92,-0.99,-2.55,-11.3,-8.65,10.68,13.99,-0.07909461,-0.07010665,0.1927179,-0.1296334,0.4258347,-9.964983,0
14347548,5924,4.12,-1.56,-3.58,-11.39,-8.78,10.68,15.06,-0.167926,-0.004286366,0.1296007,-0.08483582,0.3935289,-10.00439,0
14562546,6071,4.76,-2.33,-4.86,-11.81,-7.84,10.69,16.53,-0.08130406,0.06198989,0.1002422,-0.09816096,0.7813344,-9.842566,0
14673071,6448,4.35,-2.28,-4.63,-11.89,-8.11,10.7,16.86,0.1009879,-0.08902087,0.03011863,-0.09022189,0.6188541,-9.984063,0
14883146,6354,4.21,-2.19,-3.92,-11.81,-8.7,10.69,16.78,0.02011688,0.05813269,-0.01665391,-0.2269446,0.7157786,-10.24356,0
14994550,6235,3.9,-2.65,-4.18,-11.21,-8.26,10.67,16.49,-0.1135613,0.1864684,-0.02010754,-0.2747202,0.5690706,-10.30289,0
15100697,6101,3.83,-3.49,-4.51,-10.57,-7.99,10.63,15.82,-0.1328353,-0.02838687,-0.1340847,-0.03190225,0.3400063,-9.576881,0
15209367,6155,4.06,-4.42,-6.12,-9.78,-7.33,10.58,14.64,-0.3117776,0.219165,-0.1530754,-0.4099667,0.5379662,-9.769788,0
15326510,6072,3.57,-5.46,-7.37,-9.13,-6.48,10.52,13.09,-0.1450236,0.1098307,-0.2082313,-0.4409523,0.443644,-9.835416,0
15431096,6179,3.68,-5.9,-8.1,-8.26,-5.52,10.44,11.63,-0.1503692,0.227995,-0.2238911,-0.3322502,0.6489449,-10.03953,0
15546106,5850,2.99,-5.18,-7.83,-6.0,-4.04,10.21,9.56,0.09382005,0.4263891,-0.2499872,-0.5733663,0.7213475,-9.867884,0
15764917,5784,2.91,-1.52,-3.69,-0.97,1.97,9.89,5.86,0.2970701,0.4865097,-0.1606745,-0.2829581,0.4423125,-9.797308,0
15874932,5771,3.06,-0.19,-1.68,0.07,3.91,9.87,4.97,0.2885658,0.2244355,-0.105091,-0.2537625,0.2256208,-9.634414,0
15982368,5768,3.02,0.36,-0.6,0.31,4.63,9.87,4.64,0.151775,0.0002460135,-0.0229516,-0.3609191,0.2605238,-9.770919,0
16099262,5726,3.17,0.42,-0.53,-0.01,4.38,9.87,4.82,-0.0972744599999999,-0.07294662,0.05734108,-0.2975254,0.2234915,-9.637322,0
16205828,5605,3.29,0.28,-1.01,-0.5,3.49,9.86,5.38,-0.07293144,-0.1367076,0.09259679,-0.3084279,0.3509426,-9.703706,0
16308479,5811,3.33,0.05,-1.15,-0.98,2.5,9.86,5.96,-0.02890125,-0.1475933,0.0736476799999999,-0.5253204,0.2538724,-9.9992,0
16420305,5770,3.19,-0.16,-0.84,-1.29,1.73,9.86,6.45,0.01105127,-0.1000694,0.0847855,-0.6453676,0.6388743,-9.908244,0
16529816,5751,2.9,-0.34,-0.41,-0.5,1.67,9.86,6.92,0.1056065,0.0477512,0.08243088,-0.8665532,0.2673221,-9.807289,0
16635939,5701,3.06,-0.62,-0.05,2.37,3.36,9.84,7.64,0.1293554,0.4050952,0.1323334,-0.5292812,0.807418,-9.980415,0
16739645,5727,2.98,-1.21,0.01,6.03,6.42,9.78,8.41,-0.02782327,0.5333062,0.1672328,-0.06533376,0.4098715,-10.10244,0
16851797,5714,3.38,-2.2,-0.37,10.26,10.48,9.66,9.33,-0.1839085,0.5303724,0.1913204,-0.06747983,0.3404477,-10.22581,0
16964136,5731,3.29,-3.33,-0.85,12.78,12.55,9.53,9.89,-0.1457608,0.1511826,0.06191892,0.1943015,0.7768982,-10.1115,0
17076473,5785,3.18,-4.5,-1.52,14.04,12.92,9.45,10.12,-0.07739401,-0.0091622019999999,0.01259782,-0.03231723,0.8176334,-10.30943,0
17183478,5757,2.66,-5.48,-2.35,14.63,11.92,9.39,10.15,-0.1561835,-0.2499367,8.4773e-05,-0.2875828,0.4942071,-10.24836,0
17284333,5386,2.96,-6.14,-3.41,14.71,11.49,9.39,10.1,-0.1644567,-0.01645404,-0.008430299,0.05095864,0.8425051,-10.3135,0
17395779,5493,4.41,-6.43,-4.28,13.78,11.0,9.5,10.18,-0.1425008,-0.08628342,0.01356256,0.3591692,0.7171445,-10.34692,0
17510687,5644,1.77,-6.54,-4.04,9.25,6.39,10.02,10.35,0.007303148,-1.005054,-0.06563192,0.07039107,0.5443534,-9.337436,0
17611649,5363,2.48,-6.5,-4.19,6.25,1.2,10.37,10.48,-0.03263511,-0.6948462,-0.07745174,-0.1688277,0.959148,-10.2402,0
17835079,5217,2.99,-6.34,-4.87,4.18,-1.44,10.6,10.65,-0.1504808,0.2721219,-0.01105549,-0.2970355,0.6693916,-9.572361,0
17946259,5366,4.35,-6.27,-5.57,3.87,1.66,10.64,10.02,-0.09679553,0.5765786,-0.1104052,-0.06916381,1.011727,-9.768641,0
18056272,5920,3.85,-6.25,-5.54,3.03,3.99,10.73,9.11,-0.08409648,0.2724267,-0.1185179,-0.2621024,0.4340237,-10.03672,0
18168358,6007,3.37,-5.81,-5.85,1.58,4.09,10.88,8.59,-0.01030402,-0.118285,-0.08253818,-0.3345492,0.9034448,-10.21961,0
18276897,5908,3.34,-5.4,-5.74,-0.19,2.32,11.06,8.44,-0.04251216,-0.3245002,-0.01669756,-0.6521852,0.7099444,-9.874448,0
18387817,5862,3.98,-4.86,-6.24,-1.96,0.93,11.22,9.06,-0.05464195,-0.2849185,0.1420665,-0.1308213,0.9019212,-9.531541,0
18496602,5943,3.66,-4.09,-6.4,-2.24,-0.94,11.24,10.73,0.0570857,-0.2329253,0.3022147,-0.3417146,1.021474,-9.637185,0
18599016,5964,4.3,-3.23,-5.53,-1.91,-1.24,11.22,12.75,0.2483588,-0.07056426,0.3851962,-0.2085864,0.6990515,-9.7947,0
18706830,6085,4.47,-2.22,-4.4,-1.57,-1.02,11.2,14.9,0.09041162,-0.04786056,0.3391295,-0.09557541,0.5173307,-10.09339,0
18815522,6286,4.43,-0.07,-2.89,-1.38,-1.78,11.2,16.45,0.4440098,-0.1696522,0.1907651,-0.09273805,1.101232,-9.890118,0
18919887,6282,3.93,3.57,1.6,-1.2,-2.66,11.2,17.21,0.9110156,-0.004149067,0.1010455,-0.2965841,0.6730163,-9.91673,0
19028778,6060,4.02,7.09,6.54,-0.79,-2.67,11.24,17.57,0.691131,0.05623758,0.03444027,0.1597615,0.3451953,-9.593848,0
19142969,6138,4.02,8.93,9.47,0.05,-2.64,11.37,17.63,0.2687279,0.09987282,0.004274687,0.0821781199999999,0.3389804,-9.852817,0
19250557,6098,4.26,9.09,10.37,0.67,-2.06,11.47,17.57,0.04767838,0.0784352299999999,-0.03244748,0.06203869,0.1610808,-10.0823,0
19352096,6072,4.1,8.88,9.56,1.17,-1.11,11.55,17.44,-0.1891471,0.1796319,-0.04797726,0.05845689,0.3379329,-9.72225,0
19471575,6110,4.19,8.4,8.14,1.61,-0.21,11.61,17.19,-0.1682211,0.007971377,-0.06788578,0.04817497,0.3699809,-9.868697,0
19579299,6215,4.42,8.06,6.83,1.87,0.12,11.65,16.96,-0.140066,0.01254597,-0.04775143,0.2095704,0.5226215,-9.572552,0
19690583,6098,4.1,7.93,6.34,2.0,0.1,11.67,16.67,-0.02568569,0.02670268,-0.04690637,0.05662707,0.3037489,-9.979807,0
19792258,6220,3.96,7.83,6.07,2.08,0.17,11.68,16.31,-0.04810494,0.05392243,-0.07211281,0.04527674,0.3265122,-9.903849,0
20011813,6026,3.81,7.13,5.77,2.33,0.7,11.71,15.1,-0.09440707,0.1072966,-0.1361882,0.1730153,0.2447609,-9.842208,0
20231925,5969,3.65,5.7,4.44,2.26,1.36,11.71,13.36,-0.1262859,0.003294737,-0.1634828,0.2305151,0.2940415,-9.610783,0
20343352,5907,3.19,5.08,3.47,2.28,0.97,11.6,12.28,-0.1522096,-0.06823354,-0.1962307,0.03819916,0.3146882,-9.520545,0
20453518,5729,3.17,4.54,2.85,2.26,1.06,10.89,11.02,-0.0876807,0.01820441,-0.2076394,0.05254128,0.3446051,-9.720551,0
20558018,5648,2.82,4.05,2.57,2.21,1.37,10.89,9.73,-0.02707506,0.04676099,-0.2083486,0.08662815,0.4130443,-9.66421,0
20670543,5713,2.87,3.49,2.58,2.16,1.66,10.89,8.55,-0.02832719,0.04744656,-0.1657837,0.02885205,0.3158246,-9.859835,0
20781323,5530,3.07,2.86,2.5,2.05,1.75,10.88,7.7,-0.008894549,-0.007785179,-0.1051583,0.2374035,0.4727481,-9.684371,0
20883284,5430,2.9,2.48,2.22,1.94,1.62,10.88,7.33,-0.08407877,-1.350198e-05,-0.02852633,0.09428918,0.3484527,-9.758332,0
20992881,5558,3.29,1.88,2.0,1.73,1.88,10.87,7.48,-0.01156678,0.06162532,0.06661208,-0.0231659,0.4377291,-10.06566,0
21108096,5594,3.48,1.35,1.94,1.55,2.15,10.86,8.17,0.03226241,-0.01059986,0.1358165,0.1919913,0.3769878,-9.848459,0
21326543,5670,3.88,1.0,0.1,1.45,1.67,10.86,10.86,-0.2101383,-0.09431435,0.2206375,0.2020926,0.1967563,-9.886316,0
21427285,5970,3.98,0.94,-0.75,1.47,1.26,10.86,12.14,-0.08977757,-0.1015923,0.2196627,0.2247336,0.3842058,-9.827856,0
21546481,5951,3.58,1.2,-0.8,1.7,0.71,10.86,13.27,-0.03430417,-0.01346982,0.125168,0.02469622,0.299485,-10.18109,0
21643304,6024,3.7,0.67,-0.91,1.86,0.56,10.87,13.72,-0.1108748,-0.02197027,0.06294829,0.07878143,0.2066286,-9.888882,0
21751870,5900,3.7,-0.3,-2.03,1.42,0.61,10.87,13.72,-0.2234655,-0.06260204,-0.04113774,0.2002827,0.1884018,-9.651811,0
21970127,6109,3.57,-2.23,-4.21,-0.01,-0.63,10.9,12.68,-0.1246337,-0.05867789,-0.1270069,0.1209871,0.3493107,-9.966904,0
22082519,5892,3.12,-2.53,-3.97,-0.66,-1.45,10.93,11.96,0.06886269,-0.06082105,-0.1163629,0.05524878,0.3592661,-9.519558,0
22193349,5807,3.29,-2.76,-3.35,-1.26,-1.63,10.96,11.37,0.09204002,0.006645071,-0.06257426,0.2848273,0.346894,-9.915075,0
22304000,5736,2.85,-2.89,-2.67,-1.7,-1.91,10.98,11.0,0.1191756,-0.01181398,-0.05075165,0.09116283,0.4161819,-9.715568,0
22400065,5682,2.94,-3.18,-2.25,-1.99,-2.15,11.0,10.76,0.05769602,-0.0249211,-0.04942201,0.02315376,0.292851,-9.706303,0
22506067,5627,2.99,-3.55,-2.43,-2.2,-2.26,11.01,10.59,-0.05530651,0.03779818,-0.01561133,-0.1085802,0.430394,-9.752576,0
22623555,5576,3.1,-3.96,-2.91,-2.21,-2.16,11.01,10.55,-0.07961097,0.0082454799999999,0.01382187,0.07586437,0.3517274,-9.957839,0
22722557,5644,3.18,-4.26,-3.28,-2.02,-2.01,11.0,10.6,-0.07036464,0.05627703,0.02928142,0.1097829,0.4623757,-9.952136,0
22834560,5827,3.18,-4.58,-3.5,-1.79,-1.83,10.98,10.77,-0.05560273,0.02967473,0.0236355,-0.01156836,0.4363545,-9.943829,0
22943808,5810,3.16,-4.7,-3.77,-1.65,-1.6,10.97,10.97,-0.04204213,0.02714561,0.03227738,0.2319743,0.342879,-10.02525,0
23056517,5747,3.26,-4.82,-3.69,-1.63,-1.66,10.96,11.12,0.04865322,-0.05694209,0.02443141,0.09945464,0.509868,-9.775708,0
23159854,5823,3.25,-4.93,-3.89,-1.61,-1.47,10.96,11.26,-0.06014277,0.05377261,0.01484277,0.04502337,0.5335013,-9.761436,0
23268906,5720,3.12,-5.07,-3.86,-1.53,-1.58,10.96,11.33,-0.01723814,-0.006014314,-0.007282053,0.1655796,0.4132647,-9.881788,0
23383543,5859,3.25,-5.15,-3.98,-1.39,-1.4,10.94,11.35,0.002198461,0.03655666,0.002047751,0.00682763,0.6313047,-9.808313,0
23503492,5742,3.39,-5.16,-3.99,-1.26,-1.02,10.93,11.47,0.04187335,0.04961522,0.03941049,0.06673255,0.6079777,-9.940772,0
23708071,5870,3.53,-5.25,-3.88,-1.17,-0.47,10.92,11.92,0.0517824,0.0115052,0.04453158,0.1036634,0.4285998,-9.668477,0
23820058,5846,3.53,-5.23,-4.05,-1.2,-0.25,10.93,12.14,-0.02435632,-0.01397217,0.02295405,0.1090441,0.6382467,-10.05905,0
23933291,5934,3.25,-5.17,-4.13,-1.18,-0.68,10.92,12.19,-0.01504671,-0.08163023,-0.02424574,0.05237359,0.4156115,-10.11898,0
24035349,5855,3.19,-5.13,-4.18,-0.99,-1.0,10.91,12.07,-0.03117278,-0.01083702,-0.04837399,0.1152681,0.5521252,-9.612028,0
24147149,5742,3.19,-5.21,-4.16,-0.66,-0.84,10.88,11.68,-0.006837963,0.1262414,-0.08147048,-0.1175057,0.5522985,-9.934305,0
24255570,5740,3.43,-5.37,-4.52,-0.45,0.1,10.86,11.03,-0.07991758,0.1509945,-0.1028915,0.1808523,0.5407322,-9.88047,0
24364866,5714,3.13,-5.21,-4.52,-0.35,0.49,10.85,10.33,0.02371588,0.08186954,-0.1212228,0.06121931,0.4439023,-9.670977,0
24476507,5719,3.14,-4.9,-4.22,0.17,0.6,10.8,9.65,0.0484041,0.05149695,-0.09061763,-0.01730607,0.3818667,-9.823345,0
24580066,5640,3.07,-4.47,-3.88,0.45,0.75,10.78,9.07,0.06837695,0.0968838499999999,-0.08727418,-0.3437176,0.4656705,-9.845504,0
24689000,5607,3.3,-3.36,-3.04,0.29,1.35,10.79,8.6,0.2625176,0.07956001,-0.04032052,-0.03797729,0.5879406,-9.667367,0
24797999,5710,3.16,-2.0,-1.47,0.08,1.76,10.8,8.36,0.2038056,0.08233559,0.003091635,-0.02612538,0.3478039,-9.895966,0
24905391,5668,3.07,-0.8,-0.28,-0.18,1.45,10.81,8.62,0.1671979,-0.0960393799999999,0.06774192,0.07505599,0.492277,-9.977989,0
25014371,5631,3.19,-0.25,0.5,-0.36,0.64,10.81,9.22,0.161418,-0.1584675,0.09600452,-0.1228858,0.5560405,-9.718331,0
25129343,5683,2.64,-0.12,1.22,-0.28,-0.32,10.81,9.75,0.1278088,-0.1543355,0.05894305,-0.0768617199999999,0.6216427,-10.16525,0
25234322,5668,2.95,-0.29,1.38,-0.16,-0.83,10.81,9.84,0.006640086,-0.05607343,0.00167519,-0.173511,0.6926557,-9.728281,0
25341843,5622,2.83,-1.09,1.07,0.13,-0.57,10.8,9.93,-0.1461234,0.1051107,0.0268321,-0.2199765,0.3453786,-10.2407,0
25443943,5544,2.69,-3.43,-0.77,0.42,0.0,10.79,10.07,-0.5044912,0.1005704,0.04828918,0.07415445,0.3142152,-9.760653,0
25557130,5588,3.27,-8.82,-6.34,0.76,0.7,10.76,10.43,-1.186445,0.1552095,0.0732627099999999,0.05360913,0.202574,-9.405414,0
25667115,5653,3.97,-13.48,-13.31,0.85,1.44,10.74,11.14,-0.947916,-0.01475817,0.1676764,-0.05879512,0.8530018,-9.678346,0
25773103,5989,4.01,-15.89,-17.97,0.81,1.85,10.75,11.95,-0.5399259,-0.103696,0.1305948,0.3047023,0.9916162,-9.642764,0
25880998,6083,4.11,-16.57,-19.35,0.65,1.45,10.8,12.96,-0.05155432,-0.1090146,0.1046096,0.0878921399999999,1.055069,-10.29289,0
25991071,6061,3.82,-16.1,-18.12,0.52,0.8,10.84,14.09,0.2602406,-0.1323097,0.1258001,-0.03896514,0.7674729,-10.23952,0
26101128,6128,4.21,-14.13,-16.01,0.69,0.57,10.79,15.12,0.4069382,-0.03854389,0.1565282,-0.04805982,0.9502403,-10.27846,0
26207911,6143,3.65,-8.12,-9.99,1.28,0.9,10.68,15.78,1.311711,0.1447603,0.06961507,-0.0113709,1.056997,-9.907513,0
26316788,6163,3.67,-3.86,-2.19,1.81,1.73,10.62,15.9,1.111062,0.1593224,0.005344174,0.08801952,0.6740807,-10.19558,0
26429129,6014,3.15,-1.84,1.99,2.07,2.12,10.61,15.76,0.3285188,0.05027103,-0.03674752,0.297907,0.4937051,-9.835678,0
26542987,5798,3.31,-1.66,2.66,2.17,1.62,10.61,15.31,-0.0085762719999999,-0.1249684,-0.09081142,0.1379011,0.8321291,-9.818034,0
26651647,5768,3.16,-2.0,1.53,2.17,0.97,10.61,14.52,-0.205299,-0.05005062,-0.1637579,0.03221283,0.8749263,-9.743737,0
26749595,5600,3.23,-2.47,0.31,2.27,0.74,10.6,13.67,-0.2178702,0.03522477,-0.1473571,-0.2144866,0.9124146,-9.478774,0
26857861,5598,2.85,-3.54,-1.23,4.43,2.07,10.48,12.73,-0.2855172,0.575133,-0.1218351,-0.877685,0.7951413,-9.615066,0
26971852,5543,3.38,-4.19,-2.56,8.68,7.64,10.19,11.75,-0.151058,0.9108636,-0.1244799,-0.1646345,0.7379172,-9.751146,0
27083123,5757,3.29,-4.12,-2.73,11.49,12.35,9.98,11.02,0.01305209,0.6203201,-0.04834143,0.09762564,0.553436,-9.945099,0
27186155,5903,3.01,-4.0,-2.31,12.48,13.94,9.91,10.62,0.1059169,0.04890201,-0.01718062,0.1552675,0.7008496,-10.10205,0
27297965,5669,2.91,-3.81,-1.95,12.56,13.68,9.9,10.48,0.055661,-0.1785081,-0.02083646,0.3884956,0.7060533,-9.78963,0
27401162,5651,2.73,-3.45,-2.18,12.17,12.48,9.93,10.55,-0.1255922,-0.1798267,0.03660129,0.144592,0.9784321,-9.718712,0
27627401,5552,2.89,-1.41,-0.78,10.15,9.99,10.02,10.82,0.1745177,-0.3215057,-0.01191696,0.01436555,1.175284,-10.07098,0
27734027,5727,2.94,-0.57,0.23,9.35,8.9,10.03,10.77,0.1415509,-0.1558256,0.004861096,0.1731337,0.7172333,-9.836627,0
27842339,5583,2.93,-0.23,0.7,8.99,8.13,10.03,10.77,-0.001619629,-0.0716140599999999,0.002776718,0.2616621,0.6823528,-9.730686,0
27943409,5557,3.01,-0.26,0.33,9.05,7.93,10.03,10.78,-0.137153,-0.02397571,0.00700973,0.1213898,0.8097935,-9.927379,0
28052544,5585,2.88,-0.52,-0.45,9.62,7.9,10.03,10.98,-0.1428418,-0.01958989,0.04754961,0.2272137,0.5895173,-10.0102,0
28168812,5583,3.11,-0.55,-1.33,10.43,8.16,10.02,11.32,-0.08185641,-0.02104722,0.0248935,0.5647737,0.8397402,-9.774435,0
28501892,5572,2.81,0.64,-0.65,10.63,7.59,10.01,11.22,0.08444477,-0.1421464,-0.0725446,0.7933732,0.6955723,-9.787174,0
28610103,5598,2.42,0.91,-0.36,10.07,6.64,10.0,10.73,0.05982069,-0.135263,-0.1175234,0.4435875,0.8108317,-10.0174,0
28724594,5571,2.27,1.01,-0.2,9.86,6.53,10.0,10.09,-0.01939759,-0.02099203,-0.1003932,0.4415467,0.7359601,-9.68348,0
28823053,5453,2.23,1.07,-0.06,9.98,6.6,10.0,9.57,0.03077829,0.1223089,-0.06703115,0.2370371,0.6569046,-9.677033,0
28937422,5212,2.0,1.3,-0.22,10.31,7.35,10.01,9.01,0.02795557,0.086436,-0.0524604,0.4277094,0.6417882,-9.197732,0
29045558,5195,1.92,1.28,0.02,10.49,8.1,10.01,8.58,0.06322005,0.0914745,-0.04723737,0.2193937,0.3796659,-9.328624,0
29152016,5152,2.04,1.03,0.15,10.61,8.55,10.02,8.28,0.01606945,0.03934112,-0.07365356,0.3808764,0.4371632,-9.379795,0
29259876,5092,1.91,0.66,0.23,10.74,8.73,10.02,8.02,0.03616745,0.06356852,0.0116053,0.4721659,0.7175107,-9.127884,0
29362942,4972,2.12,0.3,0.18,10.81,9.23,10.02,8.08,-0.07691304,0.0971885599999999,0.04813406,0.5971816,0.4545223,-9.367808,0
29480154,5070,1.94,0.0,-0.49,11.06,9.49,10.02,8.32,-0.09098146,0.01550489,0.06667463,0.6165609,0.5325892,-9.173494,0
29586542,5057,2.16,-0.22,-0.95,11.15,9.53,10.02,8.63,-0.1159411,0.02634914,0.06037826,0.8123647,0.2924834,-9.013515,0
29695568,5100,2.2,-0.36,-1.17,11.17,9.43,10.02,9.0,0.01460695,-0.02275198,0.01137219,0.9242316,0.5819727,-9.051162,0
29810364,5114,2.22,-0.69,-1.16,10.98,9.3,10.02,9.37,-0.02073216,0.0497572,0.06799594,0.8356186,0.5164461,-9.164483,0
29915893,5222,2.35,-0.99,-1.48,10.78,9.15,10.02,9.81,-0.07947394,-0.05743212,0.06116141,1.084073,0.7083731,-9.501808,0
30027851,5328,2.49,-1.53,-2.26,10.74,8.76,10.02,10.16,-0.05981779,-0.0631365,0.07070948,0.5418128,0.8804224,-10.07483,0
30128179,5328,2.33,-1.94,-2.52,10.66,8.52,10.03,10.52,-0.0677491499999999,-0.06588905,0.06518723,0.7992501,0.5267109,-10.50877,0
30246486,5332,2.25,-2.01,-2.75,10.37,8.24,10.04,10.64,-0.09231728,-0.0737774,-0.001863099,0.9445588,0.5748522,-9.578491,0
30351832,5201,2.76,-1.82,-3.18,10.26,7.95,10.04,10.54,-0.05039486,-0.02802207,-0.05421934,0.8838449,0.3368961,-9.953048,0
30469026,5281,2.36,-1.54,-3.88,10.01,7.73,10.05,10.73,-0.0206654,-0.05849821,0.02482055,0.8337371,1.013198,-10.24389,0
30568890,5387,2.61,-1.6,-2.83,9.75,8.08,10.06,10.84,0.1628348,0.06860486,0.01153966,0.5887148,0.5238261,-10.07255,0
30676245,5443,2.84,-1.67,-2.31,9.27,7.97,10.07,11.03,0.06679317,-0.09326028,-0.003005284,0.8220806,0.5689016,-10.37614,0
30788553,5558,3.0,-1.67,-1.83,6.62,6.44,10.15,11.38,0.1041852,-0.4178114,0.06043208,1.525156,0.3298214,-10.20822,0
30897108,5711,2.16,-2.04,-1.9,4.1,2.81,10.23,11.59,-0.0004891032999999,-0.5802897,0.01855337,0.6156551,0.5729596,-10.57423,0
31001833,5532,2.65,-2.73,-2.95,2.45,0.52,10.3,11.58,-0.2045955,-0.2866962,-0.05859805,0.9083254,0.7703332,-10.42474,0
31116372,5422,2.65,-3.3,-3.91,1.28,-0.68,10.36,11.51,-0.2011643,-0.1252474,-0.02102713,0.405261,0.8427595,-9.934757,0
31222952,5506,3.24,-3.69,-4.46,0.55,-1.26,10.4,11.63,-0.06189561,-0.0707646599999999,0.02257547,0.8215195,0.6270949,-10.24574,0
31333902,5673,3.56,-3.6,-4.56,-0.4,-1.29,10.46,11.95,0.02517803,0.01092678,0.07689997,1.002525,0.5290594,-10.738,0
31443024,5883,3.48,-3.15,-4.72,-2.05,-2.21,10.56,12.39,0.04876655,-0.2777177,0.02228361,1.108412,0.5269871,-10.12596,0
31549818,5871,3.58,-2.5,-4.84,-4.19,-4.3,10.67,12.97,-0.0213137,-0.3847759,0.0561734,1.094904,0.4415937,-10.42321,0
31657999,5884,3.58,-1.52,-4.5,-6.4,-6.44,10.74,13.28,0.1295131,-0.244134,-0.02385578,0.5340295,0.4068959,-10.50181,0
31760349,5874,3.89,-0.9,-3.54,-7.95,-7.76,10.78,13.14,0.209769,-0.1725123,-0.0396026,0.4929784,0.6016022,-10.33515,0
31976317,6057,3.56,-0.56,-0.53,-11.04,-9.51,10.81,11.91,0.2266119,-0.1649008,-0.1062391,0.2960959,0.6276248,-10.77011,0
32099273,6073,3.3,-1.03,0.02,-12.43,-10.35,10.83,11.17,-0.03522711,-0.06494343,-0.09804481,0.1442866,0.4228943,-10.75518,0
32198090,5868,2.94,-1.62,-0.29,-13.18,-10.92,10.85,10.69,-0.08423193,-0.1271232,-0.0776052,0.09511296,0.6538582,-10.56644,0
32308345,5657,3.25,-2.33,-1.03,-13.58,-11.5,10.86,10.29,-0.2116533,-0.07242245,-0.07859259,0.03573565,0.4104815,-10.22141,0
32423044,5719,2.94,-2.89,-1.77,-13.84,-11.85,10.87,9.91,0.02624574,-0.01790955,-0.0331725,-0.02713988,0.5509768,-10.32007,0
32531887,5765,3.59,-3.27,-1.68,-14.1,-11.12,10.89,9.67,-0.03248767,0.1862634,-0.01601804,0.01895447,0.5697114,-10.14863,0
32640930,5710,3.37,-3.34,-1.86,-14.37,-10.35,10.9,9.6,-0.003893316,0.1218237,0.01270097,-0.1409088,0.7251142,-10.20068,0
32747093,5817,3.25,-3.6,-1.69,-14.37,-9.44,10.9,9.68,0.01812964,0.1428842,-0.001419878,-0.3591965,0.7245657,-10.06852,0
32856004,5893,3.62,-3.9,-2.12,-12.43,-7.39,10.77,9.93,-0.09466568,0.4958813,0.0884460299999999,-0.5451481,0.6876643,-9.644372,0
32970417,5752,3.53,-4.43,-2.69,-9.39,-3.83,10.55,10.19,-0.1523972,0.5831283,0.07675532,-0.08641577,0.7184055,-9.81458,0
33069537,5919,4.08,-4.81,-3.63,-7.49,-0.88,10.39,10.35,-0.2247807,0.4274428,0.02300248,-0.07886565,0.7809811,-9.596773,0
33177872,6183,3.77,-5.08,-4.49,-6.45,0.23,10.3,10.36,0.01160925,-0.06023749,-0.01322811,-0.0535599,0.8325846,-9.444753,0
33294012,6098,3.68,-5.25,-4.57,-6.23,-0.42,10.28,10.26,-0.01317903,-0.1130016,-0.04396348,-0.07652254,0.6582515,-9.628482,0
33392468,5955,3.56,-5.12,-4.4,-6.31,-1.56,10.29,9.99,-0.01722725,-0.1159578,-0.07341831,-0.4044321,0.7597274,-9.481436,0
33502796,5842,3.3,-5.04,-4.07,-6.51,-2.24,10.3,9.31,-0.01797671,-0.02679811,-0.1168083,-0.5658349,0.6101226,-10.1641,0
33618831,5864,3.16,-7.5,-5.6,-6.55,-2.57,10.31,8.7,-0.4361824,-0.01302604,-0.0464653,-0.3766531,0.3388908,-9.523811,0
33729679,5724,3.62,-10.73,-9.91,-6.47,-2.65,10.3,8.3,-0.734822,0.003042883,-0.05089399,-0.4406349,0.5923323,-9.456564,0
33838799,5834,3.51,-13.31,-13.66,-6.42,-2.81,10.28,8.22,-0.5534524,-0.07304343,-0.01321962,-0.2171377,0.9902779,-9.458911,0
33948175,5931,3.48,-15.05,-15.39,-6.27,-2.97,10.24,8.44,-0.1097088,-0.1103507,0.03299499,-0.3384736,1.069425,-9.723489,0
34065549,5981,3.64,-16.42,-15.96,-6.09,-3.14,10.2,9.03,-0.03150065,-0.09031755,0.1300278,-0.2436703,0.8437647,-10.23186,0
34164390,6085,3.75,-17.39,-16.48,-5.88,-3.41,10.13,9.67,-0.06962922,-0.04393849,0.07706527,-0.3126704,1.012873,-10.22082,0
34276386,5891,3.55,-18.55,-16.9,-5.63,-3.37,10.05,10.34,-0.04943984,-0.1030575,0.08974672,-0.1679932,1.216261,-9.6962,0
34392804,6072,3.79,-19.32,-17.4,-5.33,-3.24,9.95,11.05,0.0269171,0.02097198,0.08462217,-0.494217,1.005523,-9.812881,0
34497515,6101,3.88,-20.08,-18.15,-5.02,-2.94,9.83,11.51,-0.01139191,0.04216076,0.09198322,0.07954177,1.179109,-10.20476,0
34597339,6286,3.18,-20.32,-18.4,-4.47,-2.98,9.63,12.02,-0.01630863,-0.01438023,0.07705078,-0.3619628,1.049232,-9.814977,0
34708320,5970,3.24,-20.58,-18.27,-3.81,-2.81,9.38,12.34,0.07522943,0.0657304799999999,0.008682251,-0.641209,0.9230801,-10.23434,0
34815168,5921,3.78,-20.46,-18.64,-3.31,-1.85,9.19,12.27,-0.2184552,0.1493589,0.03953543,-0.3607991,1.021337,-10.12702,0
34925665,6123,4.37,-20.38,-19.34,-2.92,-0.55,9.05,11.92,-0.1462639,0.1775821,-0.02619405,-0.1187095,1.185411,-9.808697,0
35040887,6250,3.81,-19.89,-19.18,-2.62,-0.07,8.94,11.59,0.09291995,-0.01717403,-0.06925391,-0.1179697,1.233005,-10.04406,0
35143539,6201,4.18,-19.16,-18.84,-2.54,0.19,8.91,11.06,-0.07785051,0.07613301,-0.0919546,-0.2149383,1.128707,-10.15458,0
35257886,6235,3.83,-18.26,-18.06,-2.52,0.09,8.9,10.15,0.1566979,-0.01661218,-0.1727995,-0.4054714,1.361656,-9.932484,0
35370538,6031,3.61,-17.19,-16.61,-2.5,-0.42,8.9,9.19,0.1839266,-0.05000306,-0.1530512,-0.5663779,1.273126,-10.64006,0
35472535,6123,3.34,-16.18,-15.34,-2.32,-0.92,8.84,8.5,0.2406134,-0.01393748,-0.1271823,-0.4451984,1.460704,-9.529776,0
35578112,5974,3.39,-15.65,-14.41,-2.05,-1.08,8.77,7.71,0.07562152,0.01959044,-0.1345157,-0.40037,1.324284,-9.962449,0
35691578,5857,3.67,-15.62,-13.96,-1.85,-1.17,8.71,6.97,0.03408634,0.04545751,-0.1560692,-0.3207336,1.540885,-9.991912,0
35798985,5877,3.61,-15.48,-14.2,-1.73,-0.61,8.68,6.28,-0.08002417,0.125402,-0.0754127899999999,-0.5069061,1.299077,-10.09937,0
35909967,6064,3.62,-15.52,-14.36,-1.6,-0.62,8.64,5.83,-0.0001115556,-0.02446729,-0.05727489,-0.2284233,1.604012,-9.217592,0
36229415,5990,3.02,-15.79,-14.28,-1.29,-2.18,8.56,6.39,-0.06043284,-0.009337991,0.02057294,-0.5327875,1.610852,-9.38414,0
36344150,5662,3.1,-16.09,-14.76,-0.85,-1.85,8.43,6.32,0.01915066,0.04129186,0.01855377,-0.4306608,1.815473,-9.879249,0
36450178,5713,3.01,-16.26,-15.14,-0.46,-1.3,8.32,6.14,-0.07321366,0.1562533,-0.04228087,-0.3472652,1.560724,-9.464706,0
36555486,5707,2.88,-16.36,-15.48,-0.09,-1.13,8.21,6.15,0.1044514,0.0308832,-0.03506282,-0.1804066,1.891979,-9.242632,0
36661110,5769,2.75,-16.68,-15.76,0.31,-0.83,8.09,6.15,-0.08293142,0.1044793,0.05874145,-0.2979971,1.736952,-9.603815,0
36872845,5716,3.53,-17.02,-17.29,0.84,-0.4,7.93,6.38,-0.1510139,0.02557284,0.01655676,-0.5502864,1.898235,-9.272655,0
36987509,5863,4.02,-17.07,-17.29,0.79,0.2,7.94,6.31,0.07141802,0.1437445,0.01644448,-0.6737419,2.202059,-9.952616,0
37088544,5939,3.88,-16.7,-16.89,0.46,0.62,8.04,6.24,0.08404035,-0.007521891,-0.0001571872,-0.2482407,2.12378,-9.910136,0
37199114,6229,4.2,-14.56,-15.39,-0.04,0.23,8.19,6.26,0.2698125,-0.03330348,-0.01977113,-0.5292059,2.181838,-10.11982,0
37309139,6244,3.22,-11.48,-11.74,-0.53,-0.46,8.3,6.31,0.7335668,-0.1054137,-0.03044729,-0.5655807,2.169545,-10.73999,0
37415904,6118,2.94,-7.38,-6.8,-0.91,-1.03,8.37,6.45,0.8286585,-0.05599456,0.009235113,-0.6518169,2.228673,-10.31268,0
37527336,5877,2.84,-4.61,-3.11,-1.02,-1.35,8.38,6.7,0.4266135,-0.1036534,0.009569602,-0.4772456,1.834974,-9.822347,0
37635384,5564,3.09,-3.25,-1.37,-0.67,-1.35,8.36,7.04,0.1341668,0.05536148,0.02087571,-0.4179843,1.588587,-10.04534,0
37750314,5653,2.89,-2.95,-1.32,-0.26,-0.88,8.33,7.57,-0.1197503,0.02449051,0.07920662,-0.07755856,1.767527,-10.20259,0
37849331,5604,2.81,-2.83,-1.76,-0.05,-0.84,8.32,8.02,0.05471564,-0.04494983,0.06060389,-0.2668253,2.316106,-10.52214,0
37950677,5700,3.18,0.34,-0.44,-0.06,-0.76,8.32,8.37,0.442902,0.01500214,0.01837369,-0.2078179,2.433996,-10.35493,0
38068391,5699,2.39,4.29,4.51,-0.1,-0.82,8.32,8.51,0.6281845,-0.03656153,0.01334675,0.1194424,1.799329,-9.578745,0
38167995,5552,1.94,7.0,8.43,0.03,-1.43,8.34,8.38,0.5189727,-0.1902199,-0.01921431,-0.3891507,1.119999,-9.375678,0
38288399,5301,2.73,9.21,11.3,0.13,-1.25,8.35,8.38,0.4113386,0.129231,0.0106393,-0.241988,1.438367,-9.862674,0
38392082,5311,2.33,10.58,13.02,0.25,-1.11,8.37,8.39,0.1944812,-0.02541166,-0.001914555,-0.3994291,1.380882,-9.547379,0
38499331,5292,2.6,11.82,13.93,0.3,-0.91,8.38,8.32,0.1333908,0.04558978,-0.05483947,-0.1427494,1.447948,-9.163505,0
38597106,5427,2.67,12.68,14.48,0.39,-0.76,8.4,8.14,-0.01276904,-0.12014,-0.03041574,-0.2356815,1.529929,-9.341249,0
38708359,5411,2.54,13.17,14.55,0.62,-0.74,8.45,7.92,-0.2625897,0.05262317,-0.03224846,-0.355764,1.028251,-9.177481,0
38817554,5393,2.76,12.95,14.19,0.89,-0.43,8.52,7.92,0.2158753,0.04263567,-0.04115613,-0.0171259,1.111983,-9.469979,0
38918903,5468,2.3,11.97,13.42,1.35,-0.46,8.62,7.85,-0.3584795,0.07510196,0.01902451,-0.2978865,1.094388,-10.27638,0
39028169,5358,2.68,9.75,11.16,1.59,0.05,8.67,8.13,-0.609138,0.01113615,0.06454785,0.07558883,1.166401,-9.179507,0
39142422,5393,2.86,5.44,6.61,1.87,0.51,8.71,8.61,-0.7979053,0.03295477,0.05014159,0.3653519,0.9018379,-8.898611,0
39251959,5474,3.4,0.81,0.36,2.23,0.67,8.73,9.11,-0.8189778,0.04193358,0.1066994,0.1188372,1.381199,-8.875057,0
39352778,5540,3.86,-2.57,-5.12,2.5,1.07,8.72,9.39,-0.7861905,0.08881687,0.02496576,-0.1950772,1.421041,-9.312991,0
39461926,5787,3.45,-4.44,-7.52,2.66,1.5,8.71,9.66,-0.1403172,0.04585713,0.03144056,0.1165316,1.221881,-9.48911,0
39567525,5968,3.39,-4.72,-7.53,2.79,1.61,8.7,10.02,0.1005371,0.02114401,0.04563514,0.07628619,1.184692,-10.19292,0
39679113,5849,3.19,-4.46,-6.35,2.75,1.62,8.7,10.37,0.2046502,-0.03757885,0.05549386,0.01030556,1.067561,-10.14697,0
39783049,5938,3.43,-4.13,-5.39,2.77,1.7,8.7,10.62,0.1331864,0.02902285,0.036055,0.1241403,1.132695,-10.2336,0
39900499,5870,3.56,-4.17,-4.72,2.84,2.07,8.7,10.93,0.066664,0.0681765,0.05368445,0.2251488,1.095996,-9.954128,0
40010028,5972,3.63,-4.24,-4.86,2.74,2.07,8.71,11.37,-0.0749185899999999,-0.1014714,0.06916446,-0.008542584,0.9339734,-10.33165,0
40108917,5857,3.66,-4.3,-4.94,2.5,1.76,8.72,11.69,-0.03406647,-0.1215449,0.02583326,0.3093596,1.004935,-9.781358,0
40221925,5897,3.4,-4.27,-4.95,2.26,1.4,8.74,12.01,-0.04918651,-0.0473706,0.0337416,0.04308362,0.8040527,-9.779735,0
40325153,6014,3.96,-4.05,-5.1,2.11,1.57,8.75,12.23,-0.01446095,0.01075772,0.03176619,0.07362887,0.9706245,-9.607723,0
40433937,6034,3.71,-2.43,-4.07,1.94,1.73,8.76,12.42,0.3147497,0.02083875,0.04393767,0.03639122,1.139805,-10.0463,0
40543338,6083,3.15,-1.15,-1.54,1.79,1.31,8.77,12.53,0.3151838,-0.07372848,-0.005020807,0.2161137,0.8043047,-10.15159,0
40765411,5855,3.36,-0.82,-0.56,1.29,0.2,8.77,12.45,0.0790707799999999,-0.1370312,-0.007561473,-0.1116575,0.7004812,-9.429207,0
40866420,5835,3.66,-1.21,-1.55,1.17,0.34,8.78,12.42,-0.1760461,0.09598523,0.002198532,-0.0649262699999999,0.8673146,-9.511443,0
41085915,5945,3.77,-1.8,-2.7,1.0,0.94,8.78,12.16,-0.003088793,0.07062536,0.004713322,0.04839246,0.9452349,-9.924081,0
41194150,6022,3.73,-1.68,-2.78,0.88,0.7,8.78,12.11,-0.04562285,-0.03401286,-0.02345475,0.1513055,0.784549,-9.609529,0
41303300,5971,3.72,-1.44,-2.74,0.72,0.15,8.79,12.06,-0.0677949199999999,-0.07740937,-0.01150495,0.05614219,0.7193785,-10.3021,0
41408280,5983,3.8,-1.22,-2.58,0.61,-0.1,8.79,12.01,0.02796461,-0.01237686,-0.001684832,0.100963,0.8316905,-9.727688,0
41625391,6122,3.16,-0.87,-1.57,0.71,-0.38,8.79,12.12,0.1240315,0.006007302,0.02671286,0.01806552,0.5300102,-10.20236,0
41850075,5875,3.15,-0.8,-1.44,1.33,-0.28,8.78,12.47,-0.1007948,0.01880056,0.03210814,0.1651037,0.6091479,-9.820356,0
41952530,5671,3.07,-0.84,-1.25,1.63,-0.05,8.78,12.57,0.222226,-0.02959148,0.009340113,0.1723482,0.6035958,-9.766537,0
42166870,5729,3.22,-0.68,-1.58,2.06,0.86,8.77,12.81,0.1154384,-0.04305486,0.02465788,0.308138,0.6089805,-9.877511,0
42275077,5801,3.18,-0.57,-1.84,2.25,0.91,8.77,13.03,-0.1718819,0.05425052,0.05469247,0.1661449,0.4975544,-9.636859,0
42386773,5914,3.26,-0.48,-1.91,1.97,0.26,8.77,13.12,-0.1606372,-0.08146196,0.01176736,0.3629202,0.6081901,-9.330419,0
42597560,5915,3.26,3.17,0.05,1.28,-0.32,8.77,12.62,0.4432047,0.007326852,-0.05845184,0.1646513,0.7182953,-9.821914,0
42718047,5951,2.73,5.81,5.01,1.58,-0.61,8.79,11.98,0.5142018,0.02688337,-0.05527313,-0.01148027,0.2164741,-9.821611,0
42826911,5672,3.17,7.35,7.89,1.92,0.13,8.83,11.42,0.3211378,0.06566391,-0.1128009,0.4496183,0.3580037,-9.62335,0
42927006,5688,3.32,7.95,8.43,2.22,0.81,8.87,10.92,-0.0691425299999999,0.1076005,-0.07918646,0.1662947,0.1642075,-9.944568,0
43036265,5842,3.22,8.34,7.5,1.99,0.99,8.84,10.34,-0.2075092,-0.1298673,-0.1045307,0.4319328,0.3414482,-9.798764,0
43145514,5873,3.3,9.04,6.89,1.41,0.26,8.75,9.64,0.02392714,-0.1623923,-0.0712629699999999,0.479359,0.5840238,-10.0129,0
43252316,5905,3.3,9.61,7.16,0.53,-0.67,8.61,8.99,0.07917042,-0.06561793,-0.08412306,0.2484657,0.2741519,-10.08613,0
43364508,5797,3.12,9.81,7.62,-0.44,-1.2,8.44,8.37,0.01331436,-0.1600754,-0.1138874,0.3863612,0.2438242,-10.33576,0
43476914,5904,2.79,9.71,7.13,-1.11,-1.96,8.32,7.41,-0.1438983,-0.1266128,-0.1374018,0.2424599,0.1075566,-9.865499,0
43579026,5665,2.55,9.03,6.42,-1.6,-2.11,8.24,6.15,-0.1114134,-0.02182757,-0.2678259,0.1096495,0.1811594,-9.617531,0
43691968,5595,2.38,8.31,5.54,-2.08,-1.71,8.17,4.48,-0.1784751,0.009624175,-0.2953009,0.1654989,0.293913,-9.70348,0
43799094,5462,2.25,7.25,4.75,-2.56,-1.46,8.1,2.43,-0.1093773,0.02056286,-0.3458698,-0.144235,0.2169197,-9.255336,0
43919276,5149,1.99,6.18,4.2,-3.34,-1.29,8.01,0.04,-0.04189755,-0.03366506,-0.3410959,-0.08751412,0.3131871,-9.098827,0
44012942,5069,2.05,5.12,3.73,-3.94,-1.08,7.95,358.31,-0.07139236,0.02969774,-0.2902737,0.02188209,0.2381973,-9.086897,0
44240281,5036,2.28,2.46,2.13,-5.04,-1.78,7.87,356.16,-0.1050965,-0.09395578,-0.04759113,-0.2120016,0.611992,-9.431766,0
44343055,4933,2.57,1.22,1.13,-5.39,-2.12,7.86,356.23,-0.2076236,-0.05085189,0.06001751,-0.2905197,0.3506079,-9.572725,0
44448550,5127,2.89,-0.08,-0.09,-5.79,-2.28,7.86,357.13,-0.1216022,-0.05393431,0.2081828,-0.3577576,0.3413259,-9.624054,0
44559278,5325,2.83,-1.21,-1.2,-6.07,-3.06,7.86,358.91,-0.09620702,-0.1923226,0.3273383,-0.0863556999999999,0.4626863,-10.03098,0
44668548,5500,3.05,-2.41,-2.23,-6.13,-4.02,7.86,1.28,-0.06942996,-0.154973,0.4016479,-0.03968201,0.4055002,-9.785321,0
44776569,5657,3.25,-3.46,-3.13,-5.92,-4.79,7.85,3.94,-0.06993344,-0.1081133,0.41693,-0.07675584,0.5972636,-10.34518,0
44886926,5660,3.47,-4.21,-3.41,-5.52,-5.07,7.82,6.44,0.012494,-0.05116456,0.3967521,-0.01747287,0.4330245,-10.56916,0
44998028,5722,3.67,-4.6,-3.34,-5.03,-4.93,7.78,8.47,0.03854981,0.04852607,0.2971229,-0.02482039,0.2589553,-10.77662,0
45105522,5955,3.76,-4.76,-3.24,-4.55,-4.63,7.74,9.95,0.002277583,0.09415458,0.206013,-0.2507655,0.3562129,-10.78474,0
45212254,6114,3.73,-5.09,-3.23,-4.02,-4.09,7.7,10.84,0.01520237,0.09932265,0.1212794,-0.009355851,0.2457832,-10.17383,0
45323898,5988,3.78,-5.36,-4.02,-3.58,-3.27,7.66,11.21,-0.2425725,0.06865105,0.00653725,0.03045937,0.4536309,-10.49543,0
45421111,6029,3.71,-5.47,-4.4,-3.21,-3.11,7.62,11.13,-0.008997089,-0.00579004,-0.005655532,-0.2785009,0.3148864,-10.29092,0
45538134,6121,3.53,-5.33,-4.92,-2.92,-2.69,7.6,10.75,-0.08107509,0.05955961,-0.04271636,-0.05408671,0.4357953,-10.35469,0
45646555,6049,3.18,-5.11,-4.76,-2.13,-2.57,7.52,10.19,0.1328533,0.04055107,-0.1109168,0.01905939,0.5412157,-10.02294,0
45758301,5967,3.65,-4.89,-4.72,-1.03,-1.2,7.43,9.42,0.06296805,0.2405313,-0.1093141,0.02042232,0.4219466,-10.11971,0
45868577,5911,3.4,-4.57,-4.65,-0.11,0.03,7.35,8.69,0.0705115199999999,0.1461982,-0.08031677,0.0695836,0.4180033,-10.10542,0
45978343,5871,3.31,-4.37,-4.35,0.78,1.02,7.28,8.08,0.027888,0.1839423,-0.1015026,0.02443395,0.4334741,-10.29846,0
46086038,5687,3.25,-4.35,-3.59,1.54,2.26,7.22,7.53,0.1375077,0.2442696,-0.07653864,-0.09689776,0.3734621,-10.2324,0
46199436,5722,3.13,-4.35,-3.37,2.02,2.88,7.19,6.94,-0.03514986,0.08354375,-0.08545791,0.1086386,0.3068954,-9.710484,0
46308549,5672,3.1,-4.31,-3.62,2.19,3.04,7.17,6.1,-0.09710325,0.04328717,-0.1300514,0.000553995,0.5598873,-10.028,0
46410288,5676,2.77,-3.89,-3.32,2.19,2.54,7.17,5.13,0.1128917,-0.09248766,-0.1763006,-0.2444187,0.683239,-9.890398,0
46629122,5553,2.63,-1.34,-1.06,1.72,1.84,7.19,2.26,0.2447182,-0.01784909,-0.25474,-0.2666332,0.4568941,-9.790359,0
46745366,5437,2.33,-0.74,-0.05,1.46,1.8,7.2,0.61,0.08315237,0.009766433,-0.2101084,-0.394183,0.2288304,-9.901989,0
46853891,5230,2.54,-1.29,-0.91,1.39,2.08,7.2,359.52,-0.2853777,0.07671515,-0.1366244,-0.1117484,0.1822922,-9.890306,0
46958351,5258,2.59,-2.16,-2.5,1.73,2.34,7.19,358.98,-0.2937244,0.03723943,-0.05717409,-0.1718497,0.3312593,-9.893566,0
47068895,5301,2.35,-2.72,-3.93,1.92,2.34,7.18,359.06,-0.1345235,-0.07229368,0.04205831,-0.1271613,0.4783063,-10.18777,0
47179355,5313,2.55,-2.76,-4.28,1.93,2.25,7.18,359.79,0.02124022,-0.05475477,0.1382141,-0.02174695,0.6022845,-9.739247,0
47288174,5277,2.72,-2.56,-3.88,2.08,2.14,7.17,0.85,0.1135737,-0.03504213,0.1917915,-0.1041107,0.5732277,-9.854325,0
47386921,5344,2.74,-2.41,-2.98,2.29,2.23,7.16,1.9,0.1915721,-0.02171908,0.1787776,0.03201788,0.4187202,-10.05305,0
47608323,5427,2.6,-2.26,-1.92,3.11,2.28,7.13,3.9,0.04164621,-0.02566842,0.1364427,-0.03077852,0.5914945,-9.855278,0
47718112,5343,2.67,-2.66,-2.15,3.79,2.61,7.1,4.68,-0.1256281,0.1115225,0.1085374,0.02367766,0.2193154,-9.755848,0
47824418,5407,2.87,-3.17,-2.56,4.42,3.08,7.07,5.23,-0.06271451,0.07473804,0.07468463,0.05634195,0.6643825,-10.14281,0
47938441,5502,2.97,-3.2,-3.11,4.66,3.54,7.06,5.77,-0.04016963,0.0956236,0.06816342,-0.03142227,0.6358546,-9.766843,0
48048984,5546,3.17,-3.19,-3.4,4.62,3.89,7.06,6.32,-0.09019165,0.03420727,0.0998410899999999,0.1617763,0.4815802,-9.629048,0
48158498,5706,3.33,-3.07,-3.85,4.55,4.14,7.06,6.93,-0.0378362,0.04694207,0.1035999,0.01309963,0.7818072,-10.03237,0
48263491,5640,3.24,-3.0,-3.26,4.21,4.21,7.08,7.85,0.1180535,-0.06289446,0.1412622,0.2923215,0.5992565,-9.913781,0
48377294,5911,3.47,-2.85,-2.69,3.44,3.38,7.12,9.04,0.02453487,-0.1909634,0.1780799,0.4351346,0.6021101,-9.75549,0
48483774,5878,2.95,-2.84,-2.16,2.7,1.74,7.16,10.27,0.04912712,-0.2000676,0.167602,0.1738077,0.404773,-9.721171,0
48593789,5748,3.78,-2.92,-2.23,2.37,0.87,7.17,11.23,-0.1221814,-0.1190845,0.1401683,0.1802835,0.2997712,-9.740672,0
48814551,5885,3.67,-2.99,-3.04,2.61,1.12,7.16,11.58,-0.01250684,0.1574667,-0.05834385,0.2203276,0.6062009,-9.938583,0
48923784,5883,3.29,-3.05,-2.91,2.75,1.66,7.15,11.12,-0.03846839,0.06117627,-0.1238037,0.1810289,0.5517996,-9.970574,0
49030114,5869,3.2,-3.39,-3.0,2.99,2.03,7.14,10.45,0.0752676,0.08590758,-0.115952,0.02846632,0.4867578,-9.922342,0
49141020,5799,3.09,-5.01,-4.08,2.98,2.47,7.14,9.55,-0.1589887,0.02772183,-0.192883,0.06263692,0.3340391,-9.438487,0
49246625,5780,2.98,-7.2,-6.46,2.92,2.62,7.15,8.47,-0.4035164,-0.04405371,-0.1796982,0.1194635,0.6498339,-10.13564,0
49359924,5650,3.08,-8.82,-8.63,2.77,2.49,7.17,7.3,-0.2967092,-0.01941324,-0.1847357,0.01287208,0.7872013,-9.784578,0
49474573,5515,2.87,-8.2,-8.81,2.48,2.05,7.21,6.4,0.177411,-0.02775981,-0.113645,0.0813480699999999,0.8257012,-9.483952,0
49575813,5530,2.78,-6.53,-6.65,2.16,1.73,7.25,5.7,0.5193167,-0.04881905,-0.1123994,0.01129968,0.945622,-9.549459,0
49684322,5582,2.43,-4.91,-3.85,1.79,1.56,7.29,5.19,0.4518494,-0.001466232,-0.06177092,-0.1353411,0.3683411,-9.692514,0
49791535,5389,2.75,-4.0,-2.19,1.46,1.59,7.32,4.91,0.1211866,0.01693738,-0.02829211,0.09745011,0.5767118,-9.668215,0
49899916,5481,2.75,-3.86,-1.76,1.34,1.44,7.33,4.94,-0.03455042,0.01694589,0.03063988,-0.0561457,0.4994569,-9.603333,0
50007386,5415,2.77,-4.07,-2.41,1.17,1.3,7.34,5.1,-0.1142106,-0.04041567,0.0293113,0.1034773,0.699028,-9.518155,0
50113930,5441,2.81,-4.34,-3.28,1.15,0.87,7.34,5.43,-0.1711416,-0.02762563,0.05816631,0.1126922,0.8360581,-9.853374,0
50232867,5425,2.95,-4.52,-3.88,1.22,0.67,7.33,6.09,-0.1109557,-0.01782084,0.1078141,0.01711309,0.8025133,-9.726077,0
50332563,5557,3.0,-4.41,-4.24,1.28,0.73,7.33,6.7,-0.09535324,0.05588062,0.08294906,0.2007596,0.8008823,-9.808308,0
50450273,5579,3.08,-4.84,-4.52,1.33,0.99,7.32,7.24,-0.05629774,0.03620214,0.07563698,0.1544961,0.6618953,-9.860029,0
50554305,5692,3.03,-5.75,-5.24,1.44,0.86,7.31,7.87,-0.1294382,-0.04367017,0.0699302599999999,0.1938673,0.644012,-9.748769,0
50662395,5556,3.2,-6.88,-6.52,1.52,1.11,7.31,8.54,-0.2899459,0.04637039,0.1266887,0.178367,0.5731108,-10.16661,0
50774322,5756,2.93,-8.01,-8.13,2.15,1.39,7.22,9.08,-0.2491355,0.0667402099999999,0.08885387,-0.09647807,0.3959341,-9.865237,0
50882274,5626,3.51,-9.14,-9.83,3.19,2.69,7.07,9.24,-0.2326356,0.2998269,0.01714776,0.1943065,0.8136575,-9.52925,0
50980825,5749,3.64,-10.44,-10.92,4.15,4.07,6.9,9.18,-0.2123185,0.249876,0.02228298,0.1636551,0.6268445,-9.84024,0
51091128,5862,3.72,-11.29,-12.02,5.01,5.62,6.73,8.97,-0.1007615,0.2232315,-0.003391795,0.2451085,0.8931994,-9.717428,0
51203551,5992,3.57,-11.56,-11.98,5.49,6.17,6.64,8.82,0.03115673,0.01820893,-0.009903832,0.2041053,0.9038122,-10.06156,0
51308285,5873,4.05,-10.81,-11.25,4.92,6.06,6.75,8.81,0.1954263,-0.1084991,-0.006979176,0.429832,0.9410089,-10.19108,0
51420912,6045,2.78,-6.67,-7.49,2.98,3.46,7.06,9.11,0.8440999,-0.4939504,-0.03771697,0.1048839,0.9671395,-10.0843,0
51632281,5724,3.15,-2.13,-1.02,1.31,0.63,7.19,8.74,0.3303273,-0.1160684,-0.08075639,0.03440325,0.6994597,-9.768525,0
51747080,5558,2.8,-1.31,-0.28,1.55,0.65,7.19,8.11,0.1227749,0.07798484,-0.1195715,-0.02260941,0.4807446,-9.665743,0
51856175,5587,3.23,-0.99,-0.5,3.27,2.52,7.15,7.19,-0.003069782,0.3915997,-0.1656641,-0.02540482,0.4900848,-9.495674,0
51957908,5616,3.47,-0.93,-0.44,4.76,5.44,7.13,6.23,0.03649181,0.5129877,-0.1694589,0.2750489,0.74788,-9.377525,0
52068480,5668,2.97,-0.82,-0.26,5.18,6.72,7.12,5.34,0.07790989,-0.03686385,-0.1337035,0.7656529,0.7788591,-9.556568,0
52183287,5534,2.36,-1.01,0.12,4.74,5.28,7.13,4.66,0.1414803,-0.32167,-0.1001755,0.2906119,0.7642142,-9.915878,0
52290041,5307,1.8,-1.65,0.71,3.61,3.04,7.15,4.39,0.1269722,-0.3976012,0.01255564,0.3423192,0.6408033,-9.994547,0
52400877,4869,1.78,-2.11,0.65,2.25,0.63,7.2,4.44,-0.1162988,-0.3833602,0.01286446,0.3740641,0.8187789,-10.21431,0
52511852,4857,2.39,-2.79,-0.56,1.83,-0.65,7.22,4.76,-0.2586697,-0.04787058,0.03813499,-0.1980897,0.7703112,-9.384514,0
52617059,4906,2.75,-2.91,-1.74,1.86,-0.61,7.21,5.31,-0.06805743,0.0638945,0.0844295199999999,0.2702566,0.9918653,-9.578101,0
52727910,5196,2.71,-2.07,-1.17,2.05,0.06,7.21,6.08,0.1727293,0.1838274,0.1520051,0.2385079,0.5532104,-9.635291,0
52837064,5373,2.94,-1.28,-0.57,3.28,1.62,7.17,7.13,0.03122381,0.3074572,0.2012755,0.2507163,0.695732,-9.428892,0
52944872,5404,3.01,-0.44,0.15,4.25,3.26,7.15,8.07,0.146711,0.1455678,0.1157511,0.3982522,0.7933617,-9.600649,0
53054335,5487,2.74,0.08,1.27,4.71,3.94,7.15,8.83,0.2006479,0.09725121,0.1391505,0.2669953,0.469018,-9.990303,0
53155471,5525,2.48,0.46,1.64,4.5,2.9,7.15,9.51,-0.08637767,-0.3674947,0.1212233,0.6632931,0.2720172,-9.991476,0
53374565,5439,2.66,-0.41,0.76,4.24,-0.7,7.15,10.63,-0.2868455,0.0109288,0.03619329,0.04673498,0.5161262,-9.848883,0
53487337,5272,2.33,-1.5,0.28,4.58,0.02,7.14,10.56,-0.1747571,0.2293514,-0.06016332,0.10965,0.484256,-10.42958,0
53601599,5300,2.61,-2.69,-0.64,4.86,1.9,7.13,9.93,-0.2393671,0.3495595,-0.1493468,0.4375269,0.3807946,-9.434387,0
53706379,5298,2.58,-3.42,-2.21,5.13,2.99,7.12,8.8,-0.1914398,0.2367964,-0.178458,0.1698957,0.4560473,-9.436717,0
53818425,5242,2.43,-3.92,-3.16,4.73,3.7,7.15,7.55,-0.09981092,0.01378296,-0.2198298,0.4129597,0.8026697,-9.643476,0
53923809,5253,2.57,-4.07,-3.72,4.11,4.11,7.19,6.62,-0.1359313,0.03367576,-0.1485406,0.7748742,0.5570207,-9.828078,0
54027368,5099,2.26,-4.1,-3.77,3.45,3.9,7.24,5.86,0.02438091,-0.01087404,-0.1184864,0.4569539,0.7506692,-9.954243,0
54145861,5042,1.97,-3.97,-3.64,2.88,2.96,7.28,5.27,0.05845573,-0.2130365,-0.08241376,0.1466518,0.9102421,-10.08752,0
54245915,5027,2.19,-3.87,-3.61,2.45,1.92,7.31,4.89,0.08367106,-0.0726495999999999,-0.09311555,-0.1272524,0.7208988,-9.673665,0
54358015,4861,2.24,-4.02,-3.4,1.88,1.74,7.35,4.5,0.001368544,0.0283465,-0.05742219,0.1737179,1.016675,-9.776856,0
54461305,5062,2.88,-4.22,-3.2,1.01,2.14,7.41,4.23,-0.04541129,0.08457755,-0.01984559,-0.009911097,0.6796709,-9.745744,0
54566037,5146,3.06,-4.14,-3.59,-0.11,1.99,7.49,3.98,-0.04653249,-0.01105397,0.001684832,-0.4153422,0.8699513,-9.438635,0
54679032,5279,2.87,-4.01,-3.4,-2.85,1.28,7.69,3.75,0.09876629,-0.1819976,-0.03967452,-0.6386583,1.043498,-10.40894,0
54791077,5387,2.3,-4.07,-2.58,-4.92,-0.66,7.83,3.86,0.2809422,-0.3259165,0.01646901,0.1508115,1.447059,-9.981501,0
54903811,5224,1.91,-4.44,-1.75,-5.91,-3.33,7.91,4.23,0.0697741999999999,-0.3982304,0.07989783,-0.2182493,0.3514107,-10.23748,0
54999343,4989,2.38,-4.88,-2.62,-6.09,-4.57,7.92,4.66,-0.2882086,-0.2112621,0.07373921,0.4060173,0.7387456,-9.980183,0
55234792,5182,2.69,-5.9,-4.45,-5.19,-4.7,7.83,5.56,-0.2216176,0.08729212,-0.0008947701,0.08381122,1.020179,-9.918517,0
55335097,5306,2.47,-5.84,-5.11,-4.51,-4.64,7.76,5.71,-0.1896066,0.06324071,0.04724972,-0.3282657,1.124021,-9.884766,0
55443170,5152,2.72,-5.73,-5.41,-3.92,-3.96,7.7,5.84,-0.04561303,0.1286867,0.01365954,0.0919597,0.9741896,-10.01898,0
55552333,5267,2.5,-5.53,-5.39,-3.27,-3.46,7.64,5.92,0.009144574,0.04730788,-0.007366153,-0.09978113,0.8787504,-9.565112,0
55769145,5235,2.69,-5.01,-5.26,-2.79,-1.36,7.59,5.92,0.04516384,0.1931462,0.01997704,-0.3766478,0.9589034,-9.726259,0
55992104,5452,2.88,-4.52,-4.93,-3.02,-1.12,7.61,6.39,0.05230042,-0.07724488,0.09244972,-0.2573289,0.9637939,-9.314122,0
56103182,5394,3.37,-4.23,-4.71,-3.33,-0.96,7.64,7.08,-0.04620259,0.07546024,0.1371242,-0.2410369,0.5945897,-9.985877,0
56197089,5771,3.37,-3.88,-4.54,-3.57,-0.81,7.65,7.96,0.1027239,-0.01999166,0.1708785,-0.2340534,0.81711,-9.694145,0
56422038,5785,2.81,-3.35,-3.94,-3.71,-1.21,7.66,9.8,0.141677,-0.1042636,0.0751856,-0.05435804,0.7327609,-9.177878,0
56536152,5782,3.16,-3.13,-3.89,-3.71,-1.68,7.66,10.11,0.2509312,-0.1669929,0.02525755,-0.234675,0.7679633,-8.96304,0
56633891,5597,2.77,-2.93,-4.49,-3.59,-1.96,7.66,10.02,-0.2926464,-0.079383,-0.04669471,-0.1418468,0.6498168,-8.83882,0
56745505,5472,3.12,-2.68,-4.35,-3.49,-1.88,7.65,9.68,0.1553368,0.002009923,-0.06717275,-0.3084412,0.8197218,-8.494039,0
56854294,5506,3.17,-2.38,-4.45,-3.43,-1.43,7.65,9.16,-0.1925305,0.003499418,-0.05906505,-0.3047472,0.8555874,-8.885278,0
56965095,5622,3.16,-2.28,-3.37,-3.41,-1.47,7.65,8.45,0.0255854,-0.01398397,-0.1201309,0.05656828,0.8223167,-9.047891,0
57068532,5560,3.42,-2.16,-3.12,-3.38,-1.86,7.65,7.85,0.02029657,-0.03057481,-0.1339836,-0.2215496,0.8391243,-9.288269,0
57176322,5640,2.91,-2.26,-3.01,-3.48,-1.93,7.65,7.33,0.1000107,-0.05608034,-0.1035288,-0.2319595,1.127189,-9.711969,0
57295116,5557,2.36,-2.77,-2.0,-3.29,-2.27,7.64,6.97,0.1941296,-0.08362158,-0.01626239,-0.4884236,0.8287679,-9.853192,0
57393859,5442,3.08,-3.0,-1.91,-2.98,-2.4,7.62,6.67,-0.08025827,0.08695165,-0.03693766,-0.6326979,1.133037,-9.857043,0
57508984,5466,2.83,-3.46,-2.07,-2.79,-1.56,7.61,6.36,-0.04705604,0.1295374,-0.02223986,-0.1727137,1.053431,-9.661093,0
57605106,5526,2.5,-3.89,-2.07,-2.46,-0.97,7.59,6.49,0.03548497,0.01764784,0.07612233,-0.02776051,0.8391915,-9.966523,0
57719972,5416,3.12,-4.16,-3.01,-2.0,-0.86,7.56,6.79,-0.2030052,0.1826421,0.07186297,-0.3317198,1.318838,-10.02295,0
57832316,5455,2.76,-4.89,-3.01,-2.06,-0.76,7.57,7.08,-0.0793679999999999,-0.07266833,0.07832741,-0.04910214,0.8722248,-10.16491,0
57934272,5438,2.59,-5.34,-3.47,-1.91,-1.85,7.55,7.39,-0.08728001,-0.1168347,-0.003570141,-0.494609,0.6861916,-9.598948,0
58045397,5374,2.95,-5.4,-5.16,-2.04,-2.82,7.56,7.66,-0.1700184,-0.120933,-0.003897975,-0.03884228,1.258692,-9.524091,0
58150066,5426,3.49,-5.48,-5.9,-2.0,-2.76,7.56,7.82,-0.1465072,0.1545319,0.02468619,-0.546206,0.911211,-9.370045,0
58256282,5586,3.59,-5.11,-6.43,-1.79,-1.69,7.54,8.14,-0.03610009,0.2039664,0.06962909,-0.4574624,1.128011,-9.858718,0
58362306,5639,3.9,-4.51,-6.48,-1.7,-0.42,7.53,8.55,-0.01919116,0.130609,0.1314508,0.09822773,0.8064576,-9.583427,0
58472822,6057,3.92,-3.86,-5.95,-1.9,-0.12,7.55,9.01,0.0549508,-0.02029195,0.0801191,-0.4381145,0.7593039,-10.07825,0
58589538,6077,4.31,-3.35,-5.31,-2.47,-0.22,7.58,9.43,0.07124933,-0.04366287,0.05223736,-0.3398911,1.068514,-9.854739,0
58695162,6212,4.08,-3.13,-4.7,-2.96,-0.99,7.61,9.76,0.09076872,-0.1666049,0.02355888,-0.3144467,0.7216913,-9.858747,0
58802557,6159,4.13,-3.19,-4.54,-3.2,-1.73,7.62,10.12,-0.01994212,-0.0657361499999999,0.02136045,-0.2735418,0.657656,-10.18932,0
58915414,6202,4.3,-3.2,-5.19,-3.26,-1.65,7.63,10.52,-0.1266669,0.01972592,0.0837578499999999,-0.1864167,0.7866119,-10.31016,0
59021409,6226,4.21,-3.15,-5.6,-2.97,-1.58,7.61,10.72,-0.009565821,0.02644319,0.03122338,-0.6768991,0.7813886,-10.04801,0
59132031,6203,3.93,-3.01,-4.88,-2.73,-1.03,7.6,10.72,0.280718,0.05581395,-0.008062227,-0.1233339,0.937137,-9.888974,0
59240692,6246,3.88,-2.71,-3.73,-2.18,-0.99,7.57,10.57,0.1555981,0.05974717,-0.02267241,-0.3326666,0.8588164,-10.14252,0
59344167,6105,3.98,-2.48,-3.08,-2.03,-0.37,7.56,10.27,0.004826976,0.0857694,-0.04487336,-0.3012471,0.851172,-9.730112,0
59452860,6224,3.44,-2.55,-2.51,-1.94,-0.11,7.56,10.0,0.1161797,0.1145387,-0.04880885,-0.2950026,0.9289154,-10.2814,0
59560796,6059,3.71,-2.83,-2.62,-2.18,-0.37,7.57,9.78,-0.1439342,0.1233479,-0.01358614,-0.6625228,1.048049,-9.946203,0
59673101,6151,4.08,-3.39,-3.32,-2.74,-0.33,7.6,9.55,-0.3025424,-0.02027043,-0.01984969,-0.6318181,1.148737,-9.069175,0
59783074,6011,4.51,-3.61,-4.78,-3.26,-0.7,7.63,9.35,-0.3465893,-0.1260682,-0.03164651,-0.4576274,0.9730368,-8.712801,0
59888299,6280,3.96,-3.47,-5.27,-3.06,-2.57,7.62,9.3,0.1799593,-0.3129181,-0.05393242,-0.1617769,1.368164,-9.597113,0
59991182,6185,3.85,-3.15,-4.26,-2.6,-3.71,7.59,9.13,0.1287575,-0.0948339,-0.02990807,-0.4365369,0.7751735,-11.00411,0
60208612,6209,2.89,-2.8,-1.64,-0.76,-3.24,7.51,9.86,0.3028754,0.1663443,0.07737035,-0.09209009,0.8544819,-10.24967,0
