LineNo,TimeUS,ThI,ABst,ThO,ThH,DAlt,Alt,BAlt,DSAlt,SAlt,TAlt,DCRt,CRt
754,55942694,-2.95043e-06,-1.407216e-09,0,0.2585996,-1.30124,-1.30124,-1.02,NaN,0,0.9333991,-2,-2
1805,56284917,-2.95043e-06,-1.4129e-09,0,0.2585996,-1.202754,-1.202754,-0.75,NaN,0,1.031726,46,46
2191,56386887,-2.95043e-06,-1.415401e-09,0,0.2585996,-1.137579,-1.137579,-0.62,NaN,0,1.095276,46,46
2599,56489612,-2.95043e-06,-1.417447e-09,0,0.2585996,-1.067387,-1.067387,-1.01,NaN,0,1.165467,47,47
3014,56593153,-2.95043e-06,-1.413127e-09,0,0.2585996,-1.002762,-1.002762,-0.93,NaN,0,1.230092,47,47
3422,56696489,-2.95043e-06,-1.416083e-09,0,0.2585996,-0.9404565,-0.9404565,-1,NaN,0,1.292398,47,47
3831,56799182,-2.95043e-06,-1.417675e-09,0,0.2585996,-0.8845541,-0.8845541,-1.01,NaN,0,1.347499,47,47
4211,56901056,-2.95043e-06,-1.412218e-09,0,0.2585996,-0.832461,-0.832461,-1.11,NaN,0,1.399592,47,47
4619,57002562,-2.95043e-06,-1.41813e-09,0,0.2585996,-0.7845626,-0.7845626,-1.08,NaN,0,1.444813,47,47
5025,57105585,-2.95043e-06,-1.424496e-09,0,0.2585996,-0.7416825,-0.7416825,-0.82,NaN,0,1.487693,47,47
5434,57208526,-2.95043e-06,-1.434046e-09,0,0.2585996,-0.6989251,-0.6989251,-1.07,NaN,0,1.530687,47,47
5844,57312342,-2.95043e-06,-1.437456e-09,0,0.2585996,-0.6584612,-0.6584612,-1,NaN,0,1.571151,47,47
6260,57416222,-2.95043e-06,-1.441322e-09,0,0.2585996,-0.6207168,-0.6207168,-0.77,NaN,0,1.608086,47,47
6675,57520167,-2.95043e-06,-1.442004e-09,0,0.2585996,-0.5839510999999999,-0.5839510999999999,-0.79,NaN,0,1.644852,46,46
7088,57622476,-2.95043e-06,-1.439275e-09,0,0.2585996,-0.5462892,-0.5462892,-0.68,NaN,0,1.682514,46,46
7473,57724746,-2.95043e-06,-1.443368e-09,0,0.2585996,-0.5079496999999999,-0.5079496999999999,-0.66,NaN,0,1.720853,46,46
7883,57825094,-2.95043e-06,-1.441322e-09,0,0.2585996,-0.4702932,-0.4702932,-1.07,NaN,0,1.75851,45,45
8270,57925963,-2.95043e-06,-1.44064e-09,0,0.2585996,-0.4367873,-0.4367873,-1.07,NaN,0,1.790398,45,45
8682,58029428,-2.95043e-06,-1.445642e-09,0,0.2585996,-0.4089402,-0.4089402,-0.82,NaN,0,1.818246,45,45
9093,58130915,-2.95043e-06,-1.445187e-09,0,0.2585996,-0.3825603,-0.3825603,-0.87,NaN,0,1.844786,44,44
9500,58232871,-2.95043e-06,-1.450417e-09,0,0.2585996,-0.3575647,-0.3575647,-0.78,NaN,0,1.869781,44,44
9879,58335135,-2.95043e-06,-1.45269e-09,0,0.2585996,-0.3333734,-0.3333734,-0.64,NaN,0,1.893972,43,43
10285,58437995,-2.95043e-06,-1.4536e-09,0,0.2585996,-0.3099838,-0.3099838,-0.86,NaN,0,1.917362,43,43
10948,58643802,-2.95043e-06,-1.453373e-09,0,0.2585996,-0.2704572,-0.2704572,-0.68,NaN,0,1.956248,42,42
11367,58746919,-2.95043e-06,-1.442004e-09,0,0.2585996,-0.2526461,-0.2526461,-0.82,NaN,0,1.974219,41,41
11774,58850428,-2.95043e-06,-1.44837e-09,0,0.2585996,-0.234317,-0.234317,-0.85,NaN,0,1.992548,41,41
12188,58953145,-2.95043e-06,-1.443141e-09,0,0.2585996,-0.2217041,-0.2217041,-0.79,NaN,0,2.005161,40,40
12571,59056447,-2.95043e-06,-1.442004e-09,0,0.2585996,-0.2072786,-0.2072786,-0.93,NaN,0,2.019587,39,39
12982,59159609,-2.95043e-06,-1.439503e-09,0,0.2585996,-0.1972588,-0.1972588,-1,NaN,0,2.029767,38,38
13395,59264204,-2.95043e-06,-1.430863e-09,0,0.2585996,-0.1883787,-0.1883787,-0.96,NaN,0,2.038647,38,38
13804,59365443,-2.95043e-06,-1.43632e-09,0,0.2585996,-0.1856615,-0.1856615,-0.79,NaN,0,2.042333,37,37
14213,59469904,-2.95043e-06,-1.438593e-09,0,0.2585996,-0.1790235,-0.1790235,-0.72,NaN,0,2.048971,36,36
14625,59571986,-2.95043e-06,-1.445642e-09,0,0.2585996,-0.1749707,-0.1749707,-0.85,NaN,0,2.053184,35,35
15032,59673897,-2.95043e-06,-1.442686e-09,0,0.2585996,-0.1691007,-0.1691007,-0.9399999999999999,NaN,0,2.059054,34,34
15444,59777567,-2.95043e-06,-1.445642e-09,0,0.2585996,-0.1643338,-0.1643338,-1.09,NaN,0,2.063821,33,33
15826,59880776,-2.95043e-06,-1.443368e-09,0,0.2585996,-0.1666483,-0.1666483,-1.01,NaN,0,2.061506,32,32
16241,59985063,-2.95043e-06,-1.441322e-09,0,0.2585996,-0.1756292,-0.1756292,-1.14,NaN,0,2.053982,31,31
16653,60087970,-2.95043e-06,-1.439957e-09,0,0.2585996,-0.1827927,-0.1827927,-1.1,NaN,0,2.046819,30,30
17068,60192973,-2.95043e-06,-1.568424e-09,0,0.2585996,-0.195536,-0.195536,-1.1,NaN,0,2.034076,29,29
17477,60295443,-2.95043e-06,-1.784656e-09,0,0.2585996,-0.2071,-0.2071,-1,NaN,0,2.022512,28,28
17887,60398769,-2.95043e-06,-2.018623e-09,0,0.2585996,-0.2181627,-0.2181627,-1.11,NaN,0,2.009832,27,27
18294,60501617,-2.95043e-06,-2.409251e-09,0,0.2585996,-0.2359414,-0.2359414,-1.15,NaN,0,1.992053,26,26
18678,60603370,-2.95043e-06,-2.732804e-09,0,0.2585996,-0.2514017,-0.2514017,-1.09,NaN,0,1.975784,25,25
19088,60705986,-2.95043e-06,-2.986098e-09,0,0.2585996,-0.2705535,-0.2705535,-1.13,NaN,0,1.956632,24,24
19474,60808990,-2.95043e-06,-3.316018e-09,0,0.2585996,-0.2856199,-0.2856199,-1,NaN,0,1.939788,22,22
19882,60911927,-2.95043e-06,-3.387868e-09,0,0.2585996,-0.3051399,-0.3051399,-0.97,NaN,0,1.920268,21,21
20294,61015346,-2.95043e-06,-3.604782e-09,0,0.2585996,-0.3191986,-0.3191986,-1.24,NaN,0,1.905393,21,21
20700,61117344,-2.95043e-06,-3.640253e-09,0,0.2585996,-0.3386558,-0.3386558,-1.13,NaN,0,1.885936,20,20
21015,61220990,-2.95043e-06,-3.608193e-09,0,0.2585996,-0.3562073,-0.3562073,-0.88,NaN,0,1.868545,19,19
21424,61322970,-2.95043e-06,-3.405603e-09,0,0.2585996,-0.374851,-0.374851,-1.19,NaN,0,1.849901,18,18
21828,61425552,-2.95043e-06,-2.942215e-09,0,0.2585996,-0.3905608,-0.3905608,-1.14,NaN,0,1.834191,17,17
22209,61526852,-2.95043e-06,-1.398803e-09,0,0.2585996,-0.4107686,-0.4107686,-1.07,NaN,0,1.814144,17,17
22609,61630016,-2.95043e-06,-1.667104e-09,0,0.2585996,-0.4277185,-0.4277185,-0.8100000000000001,NaN,0,1.797194,16,16
23018,61733799,-2.95043e-06,-1.498393e-09,0,0.2585996,-0.4451208,-0.4451208,-0.79,NaN,0,1.779791,15,15
23395,61835217,-2.95043e-06,-1.655508e-09,0,0.2585996,-0.4555084,-0.4555084,-0.98,NaN,0,1.769404,14,14
23804,61936138,-2.95043e-06,-1.600938e-09,0,0.2585996,-0.4662422,-0.4662422,-1.34,NaN,0,1.75867,13,13
24207,62037885,-2.95043e-06,-1.388344e-09,0,0.2585996,-0.4842497,-0.4842497,-0.87,NaN,0,1.74553,12,12
24613,62139432,-2.95043e-06,-1.536364e-09,0,0.2585996,-0.4996311,-0.4996311,-1.14,NaN,0,1.733544,11,11
25018,62241549,-2.95043e-06,-1.212356e-09,0,0.2585996,-0.5162529,-0.5162529,-1.01,NaN,0,1.716922,11,11
25424,62343380,-2.95043e-06,-2.717343e-09,0,0.2585996,-0.5339296,-0.5339296,-0.92,NaN,0,1.702648,14,14
25831,62446455,-2.95043e-06,-1.932449e-08,0,0.2585996,-0.5386119,-0.5386119,-0.85,NaN,0,1.697966,22,22
26234,62549182,-2.95043e-06,-5.268998e-08,0,0.2585996,-0.5409728,-0.5409728,-1.05,NaN,0,1.699496,19,19
26638,62652083,-2.95043e-06,-8.326106e-08,0,0.2585996,-0.5374764,-0.5374764,-0.97,NaN,0,1.702992,26,26
27050,62755919,-0.01085693,-0.0002207495,0,0.2585996,-0.5180764,-0.5180764,-0.8100000000000001,NaN,0,1.727649,55,55
27429,62857161,-0.008319646,-8.9176e-05,0,0.2585996,-0.4667538,-0.4667538,-0.93,NaN,0,1.778971,78,78
27835,62958412,-0.004475027,-4.88041e-05,0,0.2585996,-0.4019766,-0.4019766,-0.77,NaN,0,1.846343,85,85
28239,63060728,-0.002407372,-3.148592e-05,0,0.2585996,-0.3347746,-0.3347746,-0.82,NaN,0,1.913544,83,83
28644,63163891,-0.001295179,-2.072973e-05,0,0.2585996,-0.2702066,-0.2702066,-0.49,NaN,0,1.976335,76,76
29022,63264361,-0.0006968975,-1.279579e-05,0,0.2585996,-0.212202,-0.212202,-0.47,NaN,0,2.034339,68,68
29427,63366521,-0.0003753006,-6.710325e-06,0,0.2585996,-0.1628952,-0.1628952,-0.25,NaN,0,2.086233,57,57
29832,63469910,-0.000202179,-2.94541e-06,0,0.2585996,-0.1175507,-0.1175507,-0.35,NaN,0,2.131577,54,54
30241,63573460,-0.0001092851,-1.592154e-06,0,0.2585996,-0.07176717000000001,-0.07176717000000001,-0.15,NaN,0,2.177834,50,50
30645,63676766,-5.924702e-05,-1.210279e-06,0,0.2585996,-0.03076238,-0.03076238,-0.07000000000000001,NaN,0,2.218838,44,44
31053,63778949,-3.224611e-05,-1.082e-06,0,0.2585996,0.006779429,0.006779429,-0.13,NaN,0,2.257509,38,38
31458,63881553,-1.779199e-05,-8.554979999999999e-07,0,0.2585996,0.03694175,0.03694175,-0.25,NaN,0,2.287672,28,28
31866,63984409,-1.004338e-05,-5.881457e-07,0,0.2585996,0.05416308,0.05416308,-0.12,NaN,0,2.301246,18,18
32271,64086882,-5.841255e-06,-3.982891e-07,0,0.2585996,0.05885666,0.05885666,-0.19,NaN,0,2.30594,4,4
32652,64189127,-3.695488e-06,-2.940615e-07,0,0.2585996,0.04913879,0.04913879,0.05,NaN,0,2.290721,-6,-6
33058,64292024,-2.95043e-06,-2.709567e-07,0,0.2585996,0.03106174,0.03106174,-0.17,NaN,0,2.272644,-12,-12
33464,64394618,-2.95043e-06,-2.93066e-07,0,0.2585996,0.01516683,0.01516683,0.03,NaN,0,2.245328,-2,-2
33866,64497003,-2.95043e-06,-2.73825e-07,0,0.2585996,0.01294398,0.01294398,-0.39,NaN,0,2.243105,5,5
34278,64598339,-2.95043e-06,-2.901286e-07,0,0.2585996,0.01176605,0.01176605,0.2,NaN,0,2.226241,2,2
34686,64700525,-2.95043e-06,-3.390624e-07,0,0.2585996,0.002492109,0.002492109,-0.17,NaN,0,2.208727,-8,-8
35088,64803194,-2.95043e-06,-3.434177e-07,0,0.2585996,-0.007684163,-0.007684163,-0.23,NaN,0,2.189892,-5,-5
35496,64905170,-2.95043e-06,-3.332675e-07,0,0.2585996,-0.01163221,-0.01163221,0.01,NaN,0,2.174477,6,6
35872,65006938,-2.95043e-06,-3.695518e-07,0,0.2585996,-0.005352591,-0.005352591,-0.03,NaN,0,2.169839,14,14
36282,65109259,-2.95043e-06,-5.156339e-07,0,0.2585996,0.004664952,0.004664952,-0.02,NaN,0,2.168694,13,13
36687,65210354,-2.95043e-06,-6.597018e-07,0,0.2585996,0.01510832,0.01510832,-0.27,NaN,0,2.167907,3,3
37095,65312948,-2.95043e-06,-7.131371e-07,0,0.2585996,0.01048989,0.01048989,0.12,NaN,0,2.151334,-8,-8
37470,65416223,-2.95043e-06,-7.09477e-07,0,0.2585996,-0.001758414,-0.001758414,-0.11,NaN,0,2.129701,-15,-15
37875,65518181,-2.95043e-06,-6.977923e-07,0,0.2585996,-0.01557683,-0.01557683,-0.02,NaN,0,2.105789,-8,-8
38278,65619115,-2.95043e-06,-6.388811e-07,0,0.2585996,-0.02053189,-0.02053189,-0.08,NaN,0,2.09129,-4,-4
38688,65724401,-2.95043e-06,-6.369801e-07,0,0.2585996,-0.02932311,-0.02932311,-0.02,NaN,0,2.076029,-10,-10
39095,65827009,-2.95043e-06,-6.203318e-07,0,0.2585996,-0.03655615,-0.03655615,-0.23,NaN,0,2.062982,-13,-13
39470,65929248,-2.95043e-06,-5.699414e-07,0,0.2585996,-0.0488287,-0.0488287,-0.15,NaN,0,2.046422,-14,-14
39881,66031779,-2.95043e-06,-5.383195e-07,0,0.2585996,-0.06794119999999999,-0.06794119999999999,0.12,NaN,0,2.025684,-14,-14
40284,66133175,-2.95043e-06,-5.105674e-07,0,0.2585996,-0.084635,-0.084635,-0.1,NaN,0,2.009471,-13,-13
40692,66235198,-2.95043e-06,-4.728367e-07,0,0.2585996,-0.1007227,-0.1007227,-0.2,NaN,0,1.995489,-16,-16
41095,66337006,-2.95043e-06,-4.416615e-07,0,0.2585996,-0.1170173,-0.1170173,-0.03,NaN,0,1.982262,-15,-15
41501,66440123,-2.95043e-06,-4.223987e-07,0,0.2585996,-0.1268956,-0.1268956,-0.28,NaN,0,1.977228,-14,-14
41905,66541758,-2.95043e-06,-4.190956e-07,0,0.2585996,-0.1365053,-0.1365053,-0.25,NaN,0,1.971654,-11,-11
42312,66644881,-2.95043e-06,-4.152571e-07,0,0.2585996,-0.1431964,-0.1431964,-0.14,NaN,0,1.969823,-7,-7
42718,66748419,-2.95043e-06,-3.995876e-07,0,0.2585996,-0.1444008,-0.1444008,-0.22,NaN,0,1.973631,-4,-4
43125,66848667,-2.95043e-06,-4.048886e-07,0,0.2585996,-0.1452291,-0.1452291,-0.05,NaN,0,1.975405,-8,-8
43501,66951351,-2.95043e-06,-4.085514e-07,0,0.2585996,-0.1498528,-0.1498528,-0.22,NaN,0,1.973199,-18,-18
43910,67053937,-2.95043e-06,-4.168405e-07,0,0.2585996,-0.1628765,-0.1628765,-0.02,NaN,0,1.960817,-26,-26
44312,67157589,-2.95043e-06,-4.42722e-07,0,0.2585996,-0.1815505,-0.1815505,-0.04,NaN,0,1.944241,-30,-30
44721,67259372,-2.95043e-06,-4.834644e-07,0,0.2585996,-0.1958562,-0.1958562,-0.12,NaN,0,1.934215,-22,-22
45124,67361174,-2.95043e-06,-4.835081e-07,0,0.2585996,-0.2046887,-0.2046887,-0.05,NaN,0,1.92877,-16,-16
45532,67463114,-2.95043e-06,-4.798078e-07,0,0.2585996,-0.2126197,-0.2126197,0.09,NaN,0,1.926973,-15,-15
45934,67565392,-2.95043e-06,-4.608773e-07,0,0.2585996,-0.217259,-0.217259,-0.01,NaN,0,1.929192,-12,-12
46343,67666436,-2.95043e-06,-4.697322e-07,0,0.2585996,-0.2179166,-0.2179166,0.06,NaN,0,1.936302,-13,-13
46747,67770468,-2.95043e-06,-5.216987e-07,0,0.2585996,-0.2155237,-0.2155237,-0.23,NaN,0,1.947659,-11,-11
47155,67873219,-2.95043e-06,-5.422246e-07,0,0.2585996,-0.2142252,-0.2142252,-0.01,NaN,0,1.958174,-13,-13
47529,67976381,-2.95043e-06,-4.80286e-07,0,0.2585996,-0.2164007,-0.2164007,-0.38,NaN,0,1.966023,-17,-17
47939,68080001,-2.95043e-06,-3.940859e-07,0,0.2585996,-0.2245289,-0.2245289,-0.32,NaN,0,1.968164,-23,-23
48344,68184118,-2.95043e-06,-3.446928e-07,0,0.2585996,-0.2370931,-0.2370931,-0.54,NaN,0,1.96442,-23,-23
48751,68285932,-2.95043e-06,-3.328391e-07,0,0.2585996,-0.2568447,-0.2568447,-0.49,NaN,0,1.954945,-28,-28
49150,68388969,-2.95043e-06,-3.31059e-07,0,0.2585996,-0.2844744,-0.2844744,-0.38,NaN,0,1.934197,-35,-35
49559,68491148,-2.95043e-06,-3.208283e-07,0,0.2585996,-0.3209938,-0.3209938,-0.68,NaN,0,1.905604,-43,-43
49961,68594182,-2.95043e-06,-2.758984e-07,0,0.2585996,-0.3707326,-0.3707326,-0.64,NaN,0,1.863312,-47,-47
50371,68695533,-2.95043e-06,-1.921931e-07,0,0.2585996,-0.42265,-0.42265,-0.31,NaN,0,1.816499,-43,-43
50746,68797168,-2.95043e-06,-1.136673e-07,0,0.2585996,-0.4661953,-0.4661953,-0.61,NaN,0,1.776348,-34,-34
51153,68898874,-2.95043e-06,-6.64445e-08,0,0.2585996,-0.5005307,-0.5005307,-0.46,NaN,0,1.743073,-26,-26
51557,69003118,-2.95043e-06,-4.388471e-08,0,0.2585996,-0.5250064,-0.5250064,-0.7,NaN,0,1.718598,-18,-18
51966,69104987,-2.95043e-06,-3.739251e-08,0,0.2585996,-0.5433188,-0.5433188,-0.85,NaN,0,1.700117,-13,-13
52371,69208426,-2.95043e-06,-4.221829e-08,0,0.2585996,-0.5574229000000001,-0.5574229000000001,-0.9399999999999999,NaN,0,1.685777,-9,-9
52778,69310724,-2.95043e-06,-6.234677e-08,0,0.2585996,-0.5679525,-0.5679525,-0.62,NaN,0,1.67646,-1,-1
53153,69413992,-2.95043e-06,-1.110857e-07,0,0.2585996,-0.5712294999999999,-0.5712294999999999,-0.96,NaN,0,1.673496,-4,-4
53561,69514603,-2.95043e-06,-1.515259e-07,0,0.2585996,-0.5846492,-0.5846492,-0.93,NaN,0,1.662022,-14,-14
53935,69617055,-2.95043e-06,-1.54185e-07,0,0.2585996,-0.5995049,-0.5995049,-0.75,NaN,0,1.649196,-23,-23
54339,69718973,-2.95043e-06,-1.532749e-07,0,0.2585996,-0.6225514,-0.6225514,-0.87,NaN,0,1.628179,-25,-25
54629,81864245,-2.95043e-06,-2.228944e-09,0,0.2585996,-1.117919,-1.117919,-1.16,NaN,0,0.002080768,0,0
55053,81966117,-2.95043e-06,-2.22667e-09,0,0.2585996,-1.116996,-1.116996,-1.23,NaN,0,0.003004044,0,0
55506,82067737,-2.95043e-06,-2.234174e-09,0,0.2585996,-1.116611,-1.116611,-0.89,NaN,0,0.00177905,0,0
55957,82170621,-2.95043e-06,-2.234174e-09,0,0.2585996,-1.115699,-1.115699,-1.06,NaN,0,0.002690881,0,0
56377,82271587,-2.95043e-06,-2.228489e-09,0,0.2585996,-1.114522,-1.114522,-1.17,NaN,0,0.003051609,0,0
56825,82374906,-2.95043e-06,-2.2319e-09,0,0.2585996,-1.112861,-1.112861,-1.08,NaN,0,0.004713148,0,0
57272,82476227,-2.95043e-06,-2.236902e-09,0,0.2585996,-1.110806,-1.110806,-1.3,NaN,0,0.006767362,0,0
57724,82580562,-2.95043e-06,-2.233492e-09,0,0.2585996,-1.110552,-1.110552,-1.29,NaN,0,0.006220549,0,0
58174,82682407,-2.95043e-06,-2.234401e-09,0,0.2585996,-1.11108,-1.11108,-1.2,NaN,0,0.005692333,0,0
58623,82786277,-2.95043e-06,-2.234174e-09,0,0.2585996,-1.111809,-1.111809,-1.22,NaN,0,0.004963368,0,0
59044,82888424,-2.95043e-06,-2.232809e-09,0,0.2585996,-1.113076,-1.113076,-1.02,NaN,0,0.004497737,0,0
59493,82992659,-2.95043e-06,-2.238721e-09,0,0.2585996,-1.114058,-1.114058,-1.26,NaN,0,0.003355473,0,0
59946,83096077,-2.95043e-06,-2.234174e-09,0,0.2585996,-1.11542,-1.11542,-1,NaN,0,0.001993507,0,0
60393,83198688,-2.95043e-06,-2.22667e-09,0,0.2585996,-1.117486,-1.117486,-1.48,NaN,0,-7.203221000000001e-05,0,0
60845,83302661,-2.95043e-06,-2.231218e-09,0,0.2585996,-1.120335,-1.120335,-1.11,NaN,0,-0.003081352,0,0
61293,83405927,-2.95043e-06,-2.22667e-09,0,0.2585996,-1.122665,-1.122665,-1.2,NaN,0,-0.005411536,0,0
61744,83508331,-2.95043e-06,-2.234174e-09,0,0.2585996,-1.124503,-1.124503,-1.07,NaN,0,-0.007249504,0,0
62162,83611988,-2.95043e-06,-2.241904e-09,0,0.2585996,-1.125423,-1.125423,-1.11,NaN,0,-0.009138972,0,0
62616,83714175,-2.95043e-06,-2.232809e-09,0,0.2585996,-1.125668,-1.125668,-1.15,NaN,0,-0.009383707999999999,0,0
63058,83817373,-2.95043e-06,-2.243269e-09,0,0.2585996,-1.126523,-1.126523,-1.01,NaN,0,-0.01023844,0,0
63512,83925167,-2.95043e-06,-2.239631e-09,0,0.2585996,-1.126804,-1.126804,-1.13,NaN,0,-0.01051918,0,0
63967,84028571,-2.95043e-06,-2.228035e-09,0,0.2585996,-1.127181,-1.127181,-1.24,NaN,0,-0.01089683,0,0
64414,84131503,-2.95043e-06,-2.238721e-09,0,0.2585996,-1.127744,-1.127744,-1.26,NaN,0,-0.0114595,0,0
64869,84234956,-2.95043e-06,-2.255319e-09,0,0.2585996,-1.129037,-1.129037,-1.3,NaN,0,-0.01275209,0,0
65315,84338984,-2.95043e-06,-2.283969e-09,0,0.2585996,-1.130547,-1.130547,-0.88,NaN,0,-0.01443043,0,0
65769,84442090,-2.95043e-06,-2.283969e-09,0,0.2585996,-1.131036,-1.131036,-1.01,NaN,0,-0.01491919,0,0
66219,84545948,-2.95043e-06,-2.282377e-09,0,0.2585996,-1.130122,-1.130122,-1.13,NaN,0,-0.01319686,0,0
66670,84648768,-2.95043e-06,-2.260776e-09,0,0.2585996,-1.128328,-1.128328,-1.11,NaN,0,-0.01140252,0,0
67117,84752655,-2.95043e-06,-2.331262e-09,0,0.2585996,-1.126784,-1.126784,-1.14,NaN,0,-0.009858519,0,0
67569,84854359,-2.95043e-06,-2.285788e-09,0,0.2585996,-1.125689,-1.125689,-1,NaN,0,-0.007947594000000001,0,0
67787,84957060,0.001247019,9.234063e-07,0,0.2585996,-1.123894,-1.123894,-1.28,NaN,0,-0.006312162,0,0
68238,85060912,0.05124642,3.30992e-05,0.02177003,0.2585996,-1.1218,-1.1218,-1.18,NaN,0,-0.004218727,1,1
68649,85165331,0.09874599000000001,6.934255e-05,0.06267577000000001,0.2585996,-1.121609,-1.121609,-0.97,NaN,0,-0.00418821,1,1
69105,85268897,0.1487457,0.0001010597,0.1092125,0.2585996,-1.121489,-1.121489,-1.24,NaN,0,-0.002458125,3,3
69555,85374647,0.1962457,0.000155285,0.1573055,0.2585996,-1.122404,-1.122404,-1.28,NaN,0,-0.003372461,2,2
69968,85480959,0.2462456,0.0001546443,0.2059247,0.2585996,-1.124887,-1.124887,-1.04,NaN,0,-0.005200177,1,1
70415,85586147,0.2949956,0.0002417266,0.2549965,0.2585996,-1.125092,-1.125092,-0.95,NaN,0,-0.005405098,2,2
70869,85690434,0.329757,0.0002901852,0.3035351,0.2585996,-1.119377,-1.119447,-0.79,NaN,0,0.0002405345,12,12
71287,85796959,0.3012163,0.0001602173,0.3064133,0.2585996,-1.100754,-1.095165,-0.19,NaN,0,0.02630028,26,35
71739,85901392,0.3064023,6.142259e-05,0.3002871,0.2585996,-1.0632,-1.043796,-0.38,NaN,0,0.07766888,46,58
72189,86008555,0.2831447,4.655123e-05,0.2921861,0.2585996,-1.006264,-0.9661043,0.07000000000000001,NaN,0,0.1564897,63,79
72643,86112626,0.2770482,6.124377e-05,0.2864103,0.2585996,-0.9300507,-0.8673937,-0.63,NaN,0,0.2571457,77,94
73088,86218245,0.2642098,6.774068000000001e-05,0.2738902,0.2585996,-0.8390651,-0.7502748,-0.66,NaN,0,0.3744248,88,107
73511,86322238,0.2729121,6.890297e-05,0.269637,0.2585996,-0.7361159,-0.626304,-0.55,NaN,0,0.4969308,97,114
73957,86430224,0.2749608,0.0001336932,0.2746303,0.2585996,-0.6235779,-0.4891891,-0.74,NaN,0,0.6345416,103,119
74407,86537395,0.2677242,0.000236541,0.2729775,0.2585996,-0.5031354,-0.3523981,-0.59,NaN,0,0.7709283,108,122
74855,86641960,0.2568974,0.0003039241,0.265792,0.2585996,-0.3764743,-0.2123965,-0.24,NaN,0,0.9088166,112,126
75271,86748071,0.2312953,0.0003389269,0.2479853,0.2585996,-0.2467354,-0.06885794000000001,-0.42,NaN,0,1.050417,111,128
75725,86853233,0.2471335,0.0004900545,0.2434955,0.2585996,-0.1175753,0.07155102000000001,-0.3,NaN,0,1.188553,109,124
76172,86960470,0.2477253,0.0006674379,0.2465921,0.2585996,0.007323713,0.2051093,-0.1,NaN,0,1.32147,107,120
76592,87066130,0.2588896,0.000842452,0.2509747,0.2585996,0.1345685,0.3312013,0.23,NaN,0,1.447562,107,115
77040,87174024,0.2598727,0.0007096529000000001,0.2589021,0.2585996,0.2579603,0.4565022,0.26,NaN,0,1.573672,106,111
77492,87279482,0.2610418,0.0005126894,0.2610525,0.2585996,0.3840253,0.5756386999999999,0.22,NaN,0,1.695234,106,109
77941,87385579,0.2650586,0.0003849566,0.261831,0.2585996,0.5065572,0.6888621,0.24,NaN,0,1.809274,107,108
78392,87490635,0.2631038,0.0003190637,0.2616875,0.2585996,0.6318395999999999,0.7978893,0.45,NaN,0,1.919919,108,108
78843,87598392,0.2602991,0.0003044009,0.2626217,0.2585996,0.7568466,0.9152562,0.44,NaN,0,2.038094,109,108
79293,87702251,0.2561612,0.0003049076,0.2619986,0.2585996,0.8815687,1.024188,0.51,NaN,0,2.147026,110,109
79739,87808225,0.2546564,0.0002295971,0.2549602,0.2585996,1.002976,1.1405,1.02,NaN,0,2.264955,110,111
80191,87913920,0.2547361,0.0002549887,0.2549328,0.2585996,1.127366,1.254429,0.96,NaN,0,2.378885,111,111
80606,88020386,0.2693303,0.0004155338,0.2612241,0.2585996,1.251636,1.373614,1.14,NaN,0,2.499038,112,111
81061,88124922,0.2727354,0.0006727576000000001,0.2677485,0.2585996,1.375812,1.486107,1.3,NaN,0,2.611768,113,110
81509,88230869,0.2726254,0.0009303093,0.2725585,0.2585996,1.493573,1.608069,1.32,NaN,0,2.735347,112,109
81919,88338556,0.2448126,0.0008476526000000001,0.2616025,0.2585996,1.609645,1.725622,1.41,NaN,0,2.8529,108,108
82367,88446245,0.2491838,0.0008703321,0.2495066,0.2585996,1.720093,1.832481,1.41,NaN,0,2.960583,100,102
82779,88555735,0.2655369,0.0008096695,0.2579965,0.2585996,1.823038,1.931263,1.74,NaN,0,3.059114,93,93
83224,88661773,0.2594251,0.0004469156,0.2619092,0.2585996,1.919593,2.022976,1.63,NaN,0,3.151475,88,86
83666,88771155,0.2640137,0.0003471375,0.2614015,0.2585996,2.008523,2.10631,1.8,NaN,0,3.234649,84,81
84116,88876971,0.252535,0.0003038645,0.2614218,0.2585996,2.095599,2.181856,2.26,NaN,0,3.309867,81,78
84523,88986092,0.2706717,0.0002186894,0.2627871,0.2585996,2.179762,2.260648,2.23,NaN,0,3.387537,80,77
84972,89094574,0.302727,0.0002039671,0.2841785,0.2585996,2.264744,2.342837,2.28,NaN,0,3.46859,83,77
85414,89204116,0.2802045,0.0001364648,0.2893353,0.2585996,2.354352,2.430512,2.25,NaN,0,3.55586,89,82
85859,89310395,0.2743533,0.0001399815,0.2813905,0.2585996,2.448854,2.522681,2.35,NaN,0,3.646412,94,89
86301,89419191,0.2701219,0.0003063679,0.2738067,0.2585996,2.547458,2.620001,2.38,NaN,0,3.740657,98,96
86745,89527408,0.2779952,0.0006177425,0.274345,0.2585996,2.649357,2.722111,2.61,NaN,0,3.840577,101,100
87192,89635224,0.2704504,0.0007722676,0.2738618,0.2585996,2.75403,2.824773,2.69,NaN,0,3.942591,104,103
87632,89743453,0.2607418,0.0007463396,0.2697458,0.2585996,2.861063,2.932849,2.91,NaN,0,4.048241,106,108
88078,89851475,0.2562227,0.0007240474,0.2632202,0.2585996,2.969842,3.044269,3.05,NaN,0,4.155938,107,110
88492,89959644,0.2463079,0.001039565,0.2510629,0.2585996,3.07929,3.159746,2.93,NaN,0,4.26979,106,111
88941,90066874,0.2435641,0.001332358,0.2524174,0.2585996,3.18717,3.271395,3.43,NaN,0,4.379013,103,109
89351,90173072,0.2313412,0.001154438,0.2461122,0.2585996,3.292449,3.383281,3.27,NaN,0,4.488633,100,105
89796,90279554,0.2345676,0.0009869634999999999,0.2372809,0.2585996,3.393699,3.492936,3.37,NaN,0,4.598287,93,101
90239,90387316,0.224061,0.0008404553,0.2365605,0.2585996,3.484604,3.599582,3.46,NaN,0,4.702996,86,95
90687,90494555,0.2112694,0.0006558746,0.2206871,0.2585996,3.574097,3.698863,3.7,NaN,0,4.801147,77,88
91134,90604630,0.2262095,0.0004752278,0.2227446,0.2585996,3.65654,3.793687,3.7,NaN,0,4.894667,69,79
91581,90708982,0.2252486,0.0003989339,0.2251139,0.2585996,3.733138,3.872919,3.68,NaN,0,4.973334,63,71
91992,90816182,0.2430109,0.0004188716,0.2318715,0.2585996,3.804938,3.949763,3.93,NaN,0,5.048073,58,62
92439,90922750,0.2436009,0.0003895909,0.2409451,0.2585996,3.87278,4.016352,4.06,NaN,0,5.114341,55,57
92884,91030776,0.2353356,0.0003383309,0.2389056,0.2585996,3.937466,4.077059,4.26,NaN,0,5.176498,52,53
93326,91141134,0.2316437,0.000341028,0.2347313,0.2585996,3.999382,4.138772,4.06,NaN,0,5.238698,50,51
93772,91247935,0.2502114,0.000388056,0.2395767,0.2585996,4.059124,4.199966,3.78,NaN,0,5.300466,47,47
94181,91355657,0.2427448,0.0004077852,0.2458064,0.2585996,4.117076,4.249766,4.36,NaN,0,5.351883,46,44
94629,91461588,0.2383257,0.0003698468,0.2425753,0.2585996,4.173426,4.294046,4.43,NaN,0,5.398429,46,44
95070,91570163,0.2575042,0.0004111826,0.2474354,0.2585996,4.227035,4.342073,4.17,NaN,0,5.446455,45,42
95487,91675784,0.2504587,0.0004490316,0.2517623,0.2585996,4.281119,4.388515,4.56,NaN,0,5.493623,45,41
95929,91781946,0.2533972,0.000539422,0.2498169,0.2585996,4.333004,4.432641,4.27,NaN,0,5.537748,45,41
96378,91890535,0.2544618,0.0004999936,0.2529515,0.2585996,4.385652,4.474781,4.1,NaN,0,5.581269,46,40
96821,91997583,0.2589864,0.0004869103,0.2535428,0.2585996,4.43773,4.51483,4.49,NaN,0,5.621318,46,41
97264,92104543,0.2546579,0.0005057156,0.2552929,0.2585996,4.489379,4.555681,4.32,NaN,0,5.662978,47,41
97673,92211886,0.2550449,0.0005835891,0.2562774,0.2585996,4.539281,4.596713,4.62,NaN,0,5.703842,48,43
98119,92318709,0.2490361,0.0005669743,0.2543004,0.2585996,4.590196,4.639972,4.58,NaN,0,5.747102,48,44
98560,92425751,0.2387436,0.0004888326,0.2460065,0.2585996,4.640814,4.683399,4.74,NaN,0,5.790368,48,47
98971,92532016,0.2524759,0.000415802,0.2464834,0.2585996,4.689703,4.730665,4.89,NaN,0,5.840067,48,48
99419,92640234,0.2518712,0.0004594624,0.2516737,0.2585996,4.739785,4.781245,4.76,NaN,0,5.890647,48,47
99863,92748624,0.2432235,0.0005562901,0.2479945,0.2585996,4.789691,4.832383,4.53,NaN,0,5.942595,48,48
100311,92855734,0.2495644,0.00066939,0.247446,0.2585996,4.839486,4.879485,4.67,NaN,0,5.991481,48,47
100723,92963428,0.2525282,0.0007276237,0.2525472,0.2585996,4.889306,4.925442,4.8,NaN,0,6.038247,48,47
101170,93070972,0.2497506,0.0006441772,0.2506901,0.2585996,4.939093,4.971854,4.82,NaN,0,6.084819,49,48
101579,93178941,0.2523567,0.0006539524,0.2513666,0.2585996,4.988936,5.019259,4.81,NaN,0,6.134086,49,48
102026,93285909,0.2598442,0.0006960928,0.2562827,0.2585996,5.038679,5.064557,4.77,NaN,0,6.179468,49,47
102467,93394167,0.2474916,0.0006467104,0.2550753,0.2585996,5.088439,5.105368,5.04,NaN,0,6.220279,50,48
102884,93499597,0.2538376,0.0006848574,0.2546728,0.2585996,5.138136,5.145877,5.33,NaN,0,6.260789,51,48
103326,93608882,0.2594655,0.0007268786,0.2552267,0.2585996,5.187792,5.194251,4.76,NaN,0,6.309314,51,49
103771,93716192,0.2571786,0.0008254647,0.2556019,0.2585996,5.23734,5.240255,5.02,NaN,0,6.355731,51,50
104183,93824604,0.2443779,0.0008283406,0.2521953,0.2585996,5.286861,5.291919,5.12,NaN,0,6.408203,51,51
104627,93931463,0.2612369,0.001046628,0.2500723,0.2585996,5.336267,5.344588,5.04,NaN,0,6.461033,51,51
105075,94039645,0.2616139,0.001358002,0.2594129,0.2585996,5.385616,5.396376,4.91,NaN,0,6.513958,50,50
105518,94147381,0.2635923,0.001542747,0.2613467,0.2585996,5.433607,5.442685,5.48,NaN,0,6.560426,50,48
105963,94253961,0.2662292,0.001599729,0.2637947,0.2585996,5.482891,5.48942,5.38,NaN,0,6.607162,51,47
106373,94361513,0.2645926,0.001414716,0.2674378,0.2585996,5.532184,5.537398,5.61,NaN,0,6.65514,51,48
106821,94466554,0.2479783,0.0009841025000000001,0.2585152,0.2585996,5.581633,5.589857,5.49,NaN,0,6.707759,51,51
107261,94573422,0.2383076,0.0007304996,0.2476235,0.2585996,5.631006,5.642015,5.67,NaN,0,6.759917,50,53
107675,94678877,0.2581217,0.0009117723,0.2485294,0.2585996,5.68028,5.691395,5.59,NaN,0,6.809297,50,52
108117,94788408,0.2590515,0.001217306,0.2562418,0.2585996,5.729596,5.741838,5.51,NaN,0,6.85974,50,50
108566,94894178,0.2679831,0.001269579,0.2642076,0.2585996,5.778811,5.78676,5.68,NaN,0,6.903846,51,48
108979,95000735,0.2586415,0.001106918,0.2623956,0.2585996,5.825417,5.835845,6.01,NaN,0,6.95293,50,49
109394,95107030,0.2547769,0.001025528,0.2629415,0.2585996,5.874598,5.887693,6.08,NaN,0,7.004619,50,49
109836,95216120,0.2414092,0.0007167459,0.2496431,0.2585996,5.923656,5.951069,5.94,NaN,0,7.068155,48,52
110253,95322235,0.2386964,0.0006520152,0.2430151,0.2585996,5.972716,6.015273,6.04,NaN,0,7.131389,47,52
110695,95432313,0.2587944,0.0008238852,0.2522237,0.2585996,6.021769,6.077398,6.13,NaN,0,7.193354,46,50
111135,95538916,0.263271,0.0008559227,0.2589265,0.2585996,6.070837,6.132843,6.36,NaN,0,7.2488,45,47
111549,95645885,0.2525665,0.0008275807,0.2590407,0.2585996,6.119862,6.18545,6.15,NaN,0,7.301246,45,45
111992,95753430,0.2452789,0.0007364005,0.2514769,0.2585996,6.167591,6.238859,6.52,NaN,0,7.354495,44,46
112439,95860242,0.2452488,0.0007285029,0.2480812,0.2585996,6.21665,6.294068,6.33,NaN,0,7.407918,43,47
112886,95969245,0.253836,0.000785917,0.2485603,0.2585996,6.265787,6.349218,5.94,NaN,0,7.462267,43,47
113332,96075980,0.2636185,0.0009212494,0.2568322,0.2585996,6.314936,6.395553,6.13,NaN,0,7.508442,43,43
113743,96185588,0.2562708,0.0009316206,0.2593992,0.2585996,6.36352,6.436988,6.41,NaN,0,7.547444,43,41
114188,96293610,0.2650999,0.00101611,0.2597145,0.2585996,6.410961,6.478477,6.48,NaN,0,7.588933,42,39
114628,96400553,0.2622172,0.001036406,0.264926,0.2585996,6.456785,6.517415,6.68,NaN,0,7.626009,41,36
115074,96506369,0.2636993,0.001059115,0.2656901,0.2585996,6.500632,6.555813,6.61,NaN,0,7.664408,39,35
115484,96614670,0.2579827,0.0009022057,0.2618561,0.2585996,6.541151,6.591702,6.66,NaN,0,7.699319,37,34
115931,96720562,0.2453442,0.0006102473,0.2556144,0.2585996,6.580323,6.627015,6.99,NaN,0,7.734548,35,33
116375,96829340,0.2401222,0.0005590469,0.2465791,0.2585996,6.616872,6.663305,6.66,NaN,0,7.770434,32,34
116817,96938134,0.2462845,0.0005079806,0.2467594,0.2585996,6.650646,6.700285,7.04,NaN,0,7.806446,29,31
117265,97044703,0.235492,0.000444442,0.2430791,0.2585996,6.681526,6.735824,6.63,NaN,0,7.841664,25,29
117706,97153807,0.2368327,0.0004176497,0.237608,0.2585996,6.709427,6.769037,6.91,NaN,0,7.874877,21,26
118152,97260087,0.2242162,0.0003433824,0.2312733,0.2585996,6.734325,6.797731,6.94,NaN,0,7.903571,18,23
118563,97366901,0.2342662,0.0005594045,0.2319289,0.2585996,6.756264,6.823186,6.86,NaN,0,7.929827,14,20
119008,97471427,0.2401901,0.0006462187,0.236242,0.2585996,6.775347,6.842206,7.03,NaN,0,7.949831,11,16
119451,97580021,0.2266913,0.0006128699,0.2327506,0.2585996,6.790948,6.858197,6.82,NaN,0,7.967432,9,12
119897,97686963,0.2324705,0.0006188452,0.2302018,0.2585996,6.804981,6.871236,6.96,NaN,0,7.981287,6,11
120339,97795474,0.2396036,0.0006693751,0.2319634,0.2585996,6.816734,6.878283,6.85,NaN,0,7.990768,5,7
120754,97900779,0.2330712,0.0007581711,0.238918,0.2585996,6.826481,6.881052,6.84,NaN,0,7.995316,3,3
121194,98008155,0.2333835,0.0006543845,0.2360903,0.2585996,6.834527,6.881595,6.6,NaN,0,7.996667,2,3
121643,98114604,0.2284892,0.0005563945,0.2356099,0.2585996,6.841156,6.879371,7.01,NaN,0,7.995419,2,0
122083,98223162,0.2388596,0.0005089194,0.2410184,0.2585996,6.846519,6.87443,6.91,NaN,0,7.990479,2,0
122495,98330896,0.2530425,0.0005626678,0.2442713,0.2585996,6.851174,6.870489,6.61,NaN,0,7.986698,2,-1
122942,98437681,0.2588699,0.0007182658,0.2533104,0.2585996,6.855193,6.859559,6.69,NaN,0,7.976004,3,-2
123351,98546027,0.2438253,0.0006234646,0.2504038,0.2585996,6.858849,6.848904,6.75,NaN,0,7.965348,4,0
123799,98654754,0.2493686,0.0005881488,0.2462885,0.2585996,6.862369,6.842328,6.86,NaN,0,7.958048,5,1
124240,98762991,0.2497666,0.0006215572,0.2483285,0.2585996,6.865895,6.8385,6.84,NaN,0,7.95438,6,3
124687,98868204,0.2540388,0.0007328391,0.2483351,0.2585996,6.869488,6.837018,6.92,NaN,0,7.952082,7,4
125131,98977407,0.2468501,0.0008050948,0.2476925,0.2585996,6.873158,6.839016,6.83,NaN,0,7.954081,7,4
125545,99084134,0.2530459,0.0008205175000000001,0.2513419,0.2585996,6.876868,6.842131,6.88,NaN,0,7.957447,7,4
125988,99193386,0.2438153,0.0007098615,0.249006,0.2585996,6.880557,6.84441,6.47,NaN,0,7.958101,7,6
126436,99298619,0.2478009,0.000633955,0.2454166,0.2585996,6.884191,6.845717,6.56,NaN,0,7.959408,7,6
126880,99408143,0.2685133,0.0007623136,0.2548882,0.2585996,6.887774,6.839968,6.56,NaN,0,7.952857,8,4
127296,99516443,0.2641916,0.0007447302,0.2625806,0.2585996,6.891407,6.832368,6.49,NaN,0,7.943632,9,3
127736,99626347,0.2713859,0.0007202923,0.269005,0.2585996,6.895201,6.824119,6.55,NaN,0,7.934574,11,3
128183,99735557,0.2627023,0.0006420314,0.2677154,0.2585996,6.899255,6.817105,6.61,NaN,0,7.924882,12,5
128598,99840218,0.260517,0.0006291568,0.2641909,0.2585996,6.90363,6.813434,6.9,NaN,0,7.920411,13,9
129042,99946945,0.2598186,0.0006681979,0.2612405,0.2585996,6.908337,6.814521,6.63,NaN,0,7.919713,14,11
129489,100054243,0.2631668,0.0008020997,0.26315,0.2585996,6.913303,6.816371,6.67,NaN,0,7.919053,15,11
129931,100164948,0.2544539,0.0009469092,0.2640112,0.2585996,6.918447,6.820814,6.81,NaN,0,7.922442,15,13
130380,100272134,0.2454211,0.0008125156,0.2536833,0.2585996,6.923663,6.829302,6.9,NaN,0,7.929152,14,16
130792,100380251,0.2527041,0.0007030964,0.2532,0.2585996,6.928674,6.840385,7.22,NaN,0,7.939267,14,15
131240,100486216,0.2495649,0.0005950332,0.2509058,0.2585996,6.933573,6.855683,7.55,NaN,0,7.954245,12,16
131680,100594990,0.2380178,0.0003360659,0.2461526,0.2585996,6.938012,6.877566,7.38,NaN,0,7.975967,10,15
132127,100700153,0.2247883,0.0001587123,0.2332165,0.2585996,6.941716,6.90278,7.22,NaN,0,8.001014,7,15
132572,100809144,0.2150206,0.0001646429,0.2228022,0.2585996,6.944395,6.928531,7.16,NaN,0,8.027412999999999,3,15
133026,100922982,0.2399981,0.0003268719,0.2279055,0.2585996,6.945851,6.950187,7.1,NaN,0,8.048908000000001,0,9
133471,101030438,0.2458543,0.000472337,0.2367482,0.2585996,6.94582,6.962355,6.91,NaN,0,8.062695,-2,3
133887,101142962,0.243057,0.0004748404,0.2430521,0.2585996,6.944397,6.967463,7.03,NaN,0,8.070067999999999,-4,-1
134337,101249399,0.236408,0.0003059208,0.2427664,0.2585996,6.941801,6.968279,7.03,NaN,0,8.073318,-5,-4
134780,101356916,0.2367489,0.0001936704,0.2400394,0.2585996,6.938307,6.965071,7.09,NaN,0,8.07091,-6,-5
135229,101463606,0.2364948,0.0001398921,0.2394494,0.2585996,6.933958,6.957885,7.22,NaN,0,8.064534,-7,-6
135638,101571944,0.2232204,4.419684e-05,0.232579,0.2585996,6.929082,6.950682,7.03,NaN,0,8.059765000000001,-7,-4
136085,101680164,0.2259677,4.899502e-05,0.2247364,0.2585996,6.923887,6.945041,6.77,NaN,0,8.055908000000001,-7,-3
136528,101790413,0.2503627,0.0002933443,0.2401994,0.2585996,6.918527,6.936481,6.43,NaN,0,8.049935,-7,-7
136979,101898989,0.2494316,0.0006347895,0.2444973,0.2585996,6.913174,6.923979,6.96,NaN,0,8.039210000000001,-6,-9
137416,102006698,0.249546,0.0008242278999999999,0.2480469,0.2585996,6.908029,6.909869,6.73,NaN,0,8.025262,-5,-8
137861,102112219,0.2554062,0.0008217692,0.2518108,0.2585996,6.903284,6.897251,6.96,NaN,0,8.014436,-4,-8
138302,102219940,0.2513946,0.0005617142,0.2508206,0.2585996,6.899077,6.886109,6.71,NaN,0,8.003454,-2,-7
138751,102330423,0.2521178,0.0004665852,0.2507273,0.2585996,6.895411,6.876949,6.77,NaN,0,7.994614,-1,-5
139199,102437213,0.2570973,0.0005002617999999999,0.2529865,0.2585996,6.892519,6.866847,6.97,NaN,0,7.984673,0,-4
139641,102545858,0.2563829,0.0006466508,0.2542234,0.2585996,6.890343,6.85899,6.81,NaN,0,7.97706,1,-2
140086,102653594,0.2663143,0.000744909,0.2600193,0.2585996,6.888896,6.851184,7.06,NaN,0,7.967713,2,-2
140500,102763047,0.270725,0.0007297993,0.2697436,0.2585996,6.888175,6.844069,6.75,NaN,0,7.959949,4,-3
140946,102870154,0.2633228,0.0006327331,0.2699169,0.2585996,6.888177,6.836388,6.99,NaN,0,7.952505,5,-1
141391,102980166,0.2607589,0.00044927,0.2641148,0.2585996,6.88889,6.833301,6.71,NaN,0,7.947152,6,2
141838,103085856,0.2609233,0.0004597902,0.2631958,0.2585996,6.89025,6.830912,6.76,NaN,0,7.943962,7,3
142279,103194242,0.2555115,0.0005842149,0.2629504,0.2585996,6.892185,6.828547,6.51,NaN,0,7.939323,8,5
142724,103302442,0.2580896,0.0006594062,0.2598895,0.2585996,6.894628,6.826426,6.9,NaN,0,7.934775,9,7
143136,103410596,0.2653586,0.0007772148,0.2619945,0.2585996,6.897535,6.824585,6.96,NaN,0,7.929693,10,8
143587,103522070,0.2683939,0.0008744894999999999,0.2669594,0.2585996,6.90093,6.82888,6.48,NaN,0,7.932539,10,8
144030,103628971,0.2525997,0.0007938445,0.263248,0.2585996,6.904514,6.832329,6.77,NaN,0,7.933553,11,9
144440,103737567,0.2527623,0.000816375,0.2572314,0.2585996,6.90826,6.836902,6.73,NaN,0,7.937165,11,11
144886,103845931,0.2469113,0.0007302314000000001,0.2512158,0.2585996,6.912063,6.841789,7.1,NaN,0,7.93961,11,13
145331,103954707,0.2483796,0.0007172823,0.2475272,0.2585996,6.915726,6.853016,7.22,NaN,0,7.950838,10,14
145777,104061142,0.2466012,0.0006616712,0.2462081,0.2585996,6.919281,6.866738,7.34,NaN,0,7.963751,8,13
146219,104169346,0.2346624,0.0004671961,0.2412869,0.2585996,6.922429,6.887428,7.2,NaN,0,7.984281,6,12
146633,104275467,0.2374929,0.0003637671,0.2385233,0.2585996,6.924903,6.908185,6.97,NaN,0,8.004877,3,11
147076,104384202,0.2347651,0.0002885312,0.2344757,0.2585996,6.926481,6.926916,6.83,NaN,0,8.023607999999999,1,9
147521,104490403,0.2360923,0.0003088564,0.2329055,0.2585996,6.927019,6.939737,7,NaN,0,8.036994,-1,6
147934,104597120,0.2414813,0.0003701448,0.2387883,0.2585996,6.92649,6.945052,7.05,NaN,0,8.043934,-2,2
148382,104704973,0.2327251,0.0003397167,0.2371575,0.2585996,6.924982,6.946433,7.12,NaN,0,8.046124000000001,-4,0
148824,104814575,0.2397982,0.0003143549,0.2336067,0.2585996,6.922651,6.944204,6.82,NaN,0,8.044703,-4,-1
149484,105029944,0.2425855,0.000409916,0.2396045,0.2585996,6.916206,6.934299,6.77,NaN,0,8.036827000000001,-5,-4
149897,105137753,0.2495043,0.0005162656,0.2488223,0.2585996,6.912455,6.924664,6.84,NaN,0,8.027994,-5,-7
150343,105245389,0.2575511,0.0005652308,0.2545719,0.2585996,6.908628,6.911013,6.48,NaN,0,8.016121,-4,-9
150789,105353350,0.2506668,0.0005469024,0.2560498,0.2585996,6.904955,6.896976,6.61,NaN,0,8.003221,-2,-8
151235,105460939,0.2435095,0.0005128533,0.2516373,0.2585996,6.901636,6.884131,6.51,NaN,0,7.992313,-1,-5
151646,105569389,0.2375346,0.0005216748,0.2446878,0.2585996,6.898818,6.873573,6.34,NaN,0,7.982084,0,-1
152094,105675215,0.2422449,0.0008136928,0.2434112,0.2585996,6.896587,6.86597,6.43,NaN,0,7.975693,1,0
152538,105785118,0.2474001,0.001134247,0.2470671,0.2585996,6.894974,6.857878,6.63,NaN,0,7.970271,2,1
152986,105890923,0.250699,0.001335144,0.2475323,0.2585996,6.894006,6.850581,6.79,NaN,0,7.964195,3,1
153427,105999655,0.253519,0.001483381,0.2542181,0.2585996,6.893684,6.845143,6.59,NaN,0,7.960535,4,1
153874,106107638,0.2494891,0.001411572,0.253214,0.2585996,6.893993,6.839212,6.78,NaN,0,7.955573,6,3
154287,106213955,0.2511164,0.001181036,0.2522513,0.2585996,6.894911,6.836023,6.55,NaN,0,7.954001,7,4
154735,106324979,0.2502434,0.0009054244,0.250392,0.2585996,6.896441,6.833837,6.41,NaN,0,7.952624,8,6
155149,106430870,0.2502975,0.0009386539,0.2515976,0.2585996,6.898453,6.828142,6.34,NaN,0,7.947577,9,5
155589,106536661,0.252446,0.001080453,0.2523086,0.2585996,6.900903,6.821547,6.49,NaN,0,7.942607,10,8
156037,106642968,0.2537372,0.001249224,0.2548462,0.2585996,6.903928,6.816435,6.53,NaN,0,7.938297,12,7
156451,106751763,0.2529876,0.001053393,0.2579848,0.2585996,6.907465,6.812222,6.74,NaN,0,7.935549,13,9
156900,106858420,0.2463266,0.0008356869,0.252252,0.2585996,6.911502,6.811958,6.8,NaN,0,7.935689,14,12
157310,106965967,0.2363976,0.0006631464,0.2428401,0.2585996,6.915828,6.820193,6.79,NaN,0,7.945458,14,15
157757,107073573,0.2496687,0.0007894784,0.2406056,0.2585996,6.92048,6.832767,7.55,NaN,0,7.956254,13,16
158198,107183416,0.2205631,0.0008842349,0.2370611,0.2585996,6.92509,6.853976,8.460000000000001,NaN,0,7.976647,11,17
158644,107288894,0.2390401,0.001145899,0.2276411,0.2585996,6.929315,6.889516,7.49,NaN,0,8.010332999999999,8,16
159088,107398215,0.2320769,0.001043826,0.2339387,0.2585996,6.932634,6.932115,7.55,NaN,0,8.050504999999999,2,13
159533,107505252,0.2281033,0.001127079,0.2324898,0.2585996,6.934542,6.964877,7.27,NaN,0,8.080261,-1,8
159943,107613336,0.2251537,0.001139909,0.2293199,0.2585996,6.934729,6.991278,7.14,NaN,0,8.101978000000001,-6,2
160355,107719746,0.2204227,0.001194134,0.2264295,0.2585996,6.933063,7.006522,7.27,NaN,0,8.114223000000001,-10,-1
160802,107827126,0.2250123,0.001306176,0.2239989,0.2585996,6.929624,7.011562,7.09,NaN,0,8.116426000000001,-12,-5
161215,107935158,0.2449366,0.001706868,0.2353303,0.2585996,6.924627,7.007179,7.37,NaN,0,8.109785,-14,-11
161660,108043071,0.2475299,0.001935989,0.2468128,0.2585996,6.918418,6.992675,7.55,NaN,0,8.092359,-14,-17
162101,108149048,0.2618476,0.002265543,0.257263,0.2585996,6.911628,6.973968,7.6,NaN,0,8.072354000000001,-13,-20
162515,108256573,0.2648175,0.002370805,0.2618895,0.2585996,6.904326,6.951698,6.73,NaN,0,8.049436999999999,-12,-21
162958,108365589,0.2688155,0.002289295,0.2645112,0.2585996,6.897113,6.928433,6.77,NaN,0,8.024721,-10,-20
163404,108472126,0.2728002,0.002155513,0.2711545,0.2585996,6.890357,6.903896,7.4,NaN,0,8.000588,-8,-17
163814,108580199,0.2573796,0.002105266,0.2641643,0.2585996,6.884518,6.882342,7.14,NaN,0,7.980652,-5,-13
164260,108688013,0.2616814,0.002285987,0.2599952,0.2585996,6.879383,6.867225,6.68,NaN,0,7.966428,-3,-8
164707,108795882,0.2566138,0.002128959,0.2603844,0.2585996,6.875467,6.855013,6.4,NaN,0,7.955833,-1,-6
165157,108902112,0.2655944,0.002013087,0.2594343,0.2585996,6.872643,6.844416,6.18,NaN,0,7.945961,0,-2
165599,109011143,0.2725571,0.001772732,0.2676963,0.2585996,6.870898,6.834175,6.55,NaN,0,7.937993,2,-2
166009,109120005,0.2640607,0.001386106,0.2648367,0.2585996,6.870203,6.826899,6.66,NaN,0,7.932899,4,0
166454,109226106,0.2814476,0.002182811,0.2745518,0.2585996,6.870507,6.819818,6.62,NaN,0,7.928084,5,-1
166902,109333128,0.2708584,0.004036903,0.2739659,0.2585996,6.871752,6.813545,6.64,NaN,0,7.923588,7,2
167345,109440462,0.265159,0.00585404,0.2745219,0.2585996,6.873874,6.810591,6.56,NaN,0,7.920551,8,4
167787,109548334,0.2665391,0.006522834,0.2760538,0.2585996,6.87677,6.810423,6.82,NaN,0,7.919086,10,6
168233,109655368,0.2664402,0.005714267,0.2730097,0.2585996,6.880304,6.815413,7.1,NaN,0,7.921573,10,8
168676,109763110,0.2552319,0.003855586,0.2668721,0.2585996,6.884276,6.829804,6.88,NaN,0,7.93257,9,10
169125,109869614,0.2569336,0.002745748,0.2618767,0.2585996,6.888384,6.848535,6.39,NaN,0,7.946692,8,11
169539,109977788,0.2639451,0.002437234,0.2658547,0.2585996,6.892311,6.859471,6.6,NaN,0,7.954629,7,8
169985,110083446,0.2636039,0.002219141,0.2668359,0.2585996,6.8959,6.864989,6.84,NaN,0,7.954723,6,7
170427,110193019,0.2485205,0.001877829,0.2611824,0.2585996,6.899116,6.871264,6.8,NaN,0,7.953537,5,8
170873,110300368,0.2436718,0.001333714,0.2468524,0.2585996,6.901913,6.881032,7.58,NaN,0,7.956102,4,10
171284,110407043,0.2125698,0.0009600371,0.2344865,0.2585996,6.9042,6.896758,7.71,NaN,0,7.963643,2,13
171729,110520020,0.2157572,0.0009704977,0.2208192,0.2585996,6.905827,6.92552,7.27,NaN,0,7.983395,0,13
172175,110627173,0.2196959,0.0008545667,0.2194602,0.2585996,6.906388,6.952329,6.54,NaN,0,7.999583,-4,9
172619,110736017,0.2354155,0.0007738024,0.2276061,0.2585996,6.905675,6.970212,6.45,NaN,0,8.005212999999999,-7,3
173072,110842880,0.2220961,0.0006252527,0.2290081,0.2585996,6.903626,6.976056,6.62,NaN,0,7.999773,-10,-1
173513,110951974,0.2207221,0.0006125718,0.2205858,0.2585996,6.900358,6.975111,8.039999999999999,NaN,0,7.986079,-11,-3
173962,111060207,0.2333183,0.0007979125,0.2313325,0.2585996,6.896091,6.970845,6.77,NaN,0,7.968889,-12,-9
174370,111168472,0.2571543,0.00114578,0.2469491,0.2585996,6.891081,6.959572,6.8,NaN,0,7.944792,-12,-14
174815,111276437,0.2433461,0.0009743273,0.2490505,0.2585996,6.885637,6.94373,6.48,NaN,0,7.915369,-11,-13
175259,111386757,0.2462424,0.0009672046,0.2460103,0.2585996,6.880099,6.921339,6.78,NaN,0,7.879397,-9,-14
175704,111491633,0.2529477,0.001063854,0.247095,0.2585996,6.874837,6.900367,7,NaN,0,7.844922,-7,-12
176114,111599246,0.2537614,0.001426876,0.2522567,0.2585996,6.870271,6.882024,6.87,NaN,0,7.812175,-5,-11
176559,111705373,0.2549299,0.001717538,0.2541115,0.2585996,6.866352,6.86794,6.54,NaN,0,7.783694,-3,-8
177001,111813862,0.2379375,0.001702622,0.2449218,0.2585996,6.86339,6.852026,7.17,NaN,0,7.75336,-1,-3
177448,111921602,0.2437282,0.002136275,0.2433055,0.2585996,6.861313,6.843306,7.01,NaN,0,7.730061,0,-1
177864,112027597,0.2383413,0.002358943,0.2426107,0.2585996,6.860191,6.840345,7.01,NaN,0,7.712527,1,0
178275,112134601,0.2528064,0.003103882,0.247933,0.2585996,6.859914,6.840899,6.3,NaN,0,7.69815,2,1
178722,112242921,0.2603571,0.003923386,0.2534352,0.2585996,6.860343,6.835442,6.38,NaN,0,7.678502,3,0
179167,112351950,0.2595058,0.003726989,0.260253,0.2585996,6.861434,6.82617,7.05,NaN,0,7.653148,5,0
179612,112457063,0.2513327,0.003479749,0.2612685,0.2585996,6.863221,6.818946,7.07,NaN,0,7.629682,6,1
180022,112564374,0.2397052,0.002949521,0.252399,0.2585996,6.865688,6.820921,6.98,NaN,0,7.614345,7,5
180467,112671051,0.2516849,0.002898902,0.2501261,0.2585996,6.868694,6.8276,6.77,NaN,0,7.603598,7,6
180908,112781660,0.2494178,0.002521709,0.249739,0.2585996,6.871947,6.835834,7.04,NaN,0,7.591889,7,7
181357,112889578,0.2448552,0.002095103,0.251122,0.2585996,6.875432,6.845256,6.43,NaN,0,7.582825,6,7
181800,112999457,0.2319576,0.001585394,0.2424068,0.2585996,6.878889,6.851731,7.21,NaN,0,7.56761,6,8
182247,113107428,0.2190228,0.0006072223,0.2298427,0.2585996,6.882204,6.861192,7.54,NaN,0,7.556105,5,12
182689,113217210,0.2083437,4.354119e-05,0.2176215,0.2585996,6.885246,6.878818,7.25,NaN,0,7.551942,3,13
182959,113322347,0.2143411,3.658235e-05,0.2094937,0.2585996,6.887777,6.901195,6.55,NaN,0,7.554315,0,12
183401,113430446,0.2129947,4.781783e-05,0.2124622,0.2585996,6.889528,6.915709,7.55,NaN,0,7.549725,-1,9
183658,113535129,0.2137697,2.446771e-05,0.21304,0.2585996,6.890389,6.929647,6.72,NaN,0,7.544787,-3,5
184066,113643049,0.2159577,3.869832e-05,0.2146602,0.2585996,6.890281,6.941259,6.51,NaN,0,7.537769,-5,2
184508,113751971,0.2263558,6.505847000000001e-05,0.2183174,0.2585996,6.889233,6.943421,6.34,NaN,0,7.522933,-7,-3
184958,113858250,0.2306884,8.684397e-05,0.2314472,0.2585996,6.887322,6.932843,6.21,NaN,0,7.495424,-6,-8
185402,113967332,0.2497534,0.000174135,0.2447188,0.2585996,6.884881,6.912365,6.73,NaN,0,7.459986,-5,-10
185846,114073444,0.227591,0.0003231019,0.2405127,0.2585996,6.882325,6.892121,6.99,NaN,0,7.42404,-3,-9
186289,114182572,0.2413191,0.0003017932,0.2381351,0.2585996,6.880002,6.876613,6.55,NaN,0,7.392823,-1,-6
186738,114291158,0.2349881,0.0003700256,0.2371605,0.2585996,6.878136,6.863851,6.65,NaN,0,7.365328,0,-4
187180,114399554,0.2394987,0.000343293,0.2383205,0.2585996,6.876881,6.852601,7.34,NaN,0,7.338706,1,-2
187594,114506240,0.2503346,0.0003434122,0.2372973,0.2585996,6.876244,6.85088,6.78,NaN,0,7.321771,2,0
188039,114616118,0.2303106,0.0003571659,0.2397831,0.2585996,6.876195,6.849029,6.99,NaN,0,7.30534,2,1
188479,114722859,0.2260641,0.0003039092,0.2308114,0.2585996,6.876651,6.851127,6.65,NaN,0,7.29247,3,2
188929,114830590,0.2209892,0.0002948344,0.2250506,0.2585996,6.877507,6.85283,6.64,NaN,0,7.278212,3,5
189343,114942676,0.2330594,0.0005590767,0.2268559,0.2585996,6.878694,6.854563,6.75,NaN,0,7.264969,3,5
189791,115051158,0.2482786,0.001159117,0.2407733,0.2585996,6.880082,6.852304,6.21,NaN,0,7.247809,4,1
190201,115160214,0.228723,0.001777738,0.2476742,0.2585996,6.881691,6.843999,6.34,NaN,0,7.226236,5,1
190648,115267170,0.2465427,0.002546519,0.2419235,0.2585996,6.883618,6.833434,6.67,NaN,0,7.202487,7,4
191097,115375520,0.2652879,0.003040016,0.2510762,0.2585996,6.885899,6.8265,6.8,NaN,0,7.18311,8,2
191542,115483188,0.2276431,0.002037764,0.2480779,0.2585996,6.888718,6.821654,6.84,NaN,0,7.167446,9,6
191950,115592097,0.2035103,0.001296669,0.2263036,0.2585996,6.891908,6.82667,6.84,NaN,0,7.160995,10,13
192396,115699426,0.2231486,0.001061022,0.2209735,0.2585996,6.895475,6.839568,6.6,NaN,0,7.165958,9,13
192844,115809536,0.2191211,0.0006791502,0.2189216,0.2585996,6.899092,6.851338,6.67,NaN,0,7.170702,8,13
193291,115916785,0.2294355,0.0005531162,0.2235467,0.2585996,6.902552,6.861048,6.42,NaN,0,7.174461,7,12
193734,116023969,0.247621,0.0006738603,0.236876,0.2585996,6.905727,6.864645,7.12,NaN,0,7.171458,7,8
194182,116130975,0.2558852,0.001270741,0.2498125,0.2585996,6.908599,6.867184,7.06,NaN,0,7.169771,7,4
194589,116240196,0.2484176,0.002172038,0.2527566,0.2585996,6.911183,6.870384,6.81,NaN,0,7.167928,6,1
195001,116348446,0.2359136,0.002620623,0.2453865,0.2585996,6.913475,6.87426,7.44,NaN,0,7.167829,6,3
195451,116455992,0.2384274,0.00288628,0.2382301,0.2585996,6.915452,6.885592,7.48,NaN,0,7.177658,4,5
195891,116562445,0.2292891,0.003062025,0.2328113,0.2585996,6.916951,6.902654,7.22,NaN,0,7.195025,2,5
196337,116668577,0.2447125,0.003318787,0.2398136,0.2585996,6.917865,6.919317,8.029999999999999,NaN,0,7.211909,0,2
196747,116777569,0.2320157,0.002884254,0.2433949,0.2585996,6.917981,6.936051,8.699999999999999,NaN,0,7.230848,-2,0
197195,116884781,0.2326069,0.002933219,0.2356227,0.2585996,6.917147,6.952952,7.79,NaN,0,7.252251,-5,0
197636,116992119,0.2268344,0.002910972,0.2305166,0.2585996,6.915319,6.966078,7.53,NaN,0,7.270947,-7,-2
198081,117100077,0.2334883,0.002961427,0.235442,0.2585996,6.912369,6.972583,7.95,NaN,0,7.283021,-9,-5
198524,117207566,0.2546741,0.003273368,0.2460089,0.2585996,6.908422,6.971495,7.07,NaN,0,7.289973,-10,-10
198939,117316244,0.2515565,0.003155023,0.2468809,0.2585996,6.903658,6.965135,8,NaN,0,7.291647,-11,-12
199381,117425995,0.2481658,0.002901763,0.2458973,0.2585996,6.898324,6.956064,8.359999999999999,NaN,0,7.293075,-11,-14
199832,117539638,0.2567876,0.002759963,0.2477869,0.2585996,6.892356,6.94813,8.119999999999999,NaN,0,7.29647,-11,-13
200277,117645552,0.2460895,0.002532274,0.2466604,0.2585996,6.886546,6.939022,7.96,NaN,0,7.298684,-11,-13
200690,117753071,0.2518954,0.002331644,0.2486188,0.2585996,6.880774,6.930399,8.140000000000001,NaN,0,7.303023,-10,-13
201137,117860546,0.258765,0.001997828,0.2519265,0.2585996,6.875176,6.921467,7.77,NaN,0,7.308039,-10,-13
201580,117970973,0.2540061,0.001681596,0.2545055,0.2585996,6.869863,6.913573,7.32,NaN,0,7.315747,-9,-13
202026,118079173,0.2495678,0.001491442,0.2524752,0.2585996,6.864912,6.909965,8.140000000000001,NaN,0,7.32626,-9,-11
202436,118186561,0.2398473,0.001347765,0.2492836,0.2585996,6.86032,6.91703,7.75,NaN,0,7.348272,-10,-10
202884,118294183,0.2298786,0.0010093,0.2366454,0.2585996,6.855919,6.929084,7.66,NaN,0,7.376751,-11,-6
203325,118401953,0.2535489,0.001107186,0.24027,0.2585996,6.851574,6.941978,7.6,NaN,0,7.40656,-13,-10
203772,118509714,0.2530524,0.001296997,0.2538925,0.2585996,6.846869,6.948941,8.039999999999999,NaN,0,7.430452,-15,-13
204214,118618042,0.2348768,0.001479238,0.2489607,0.2585996,6.841832,6.961522,8.56,NaN,0,7.461763,-17,-14
204659,118725121,0.2382587,0.001786754,0.2351528,0.2585996,6.836338,6.980423,7.16,NaN,0,7.498579,-20,-13
205102,118832663,0.2549165,0.002113432,0.2426298,0.2585996,6.830166,6.993672,7.29,NaN,0,7.529902,-23,-17
205514,118940233,0.2564877,0.002111554,0.2516806,0.2585996,6.823217,6.991763,8.220000000000001,NaN,0,7.547958,-24,-21
205959,119049527,0.2612278,0.0021846,0.2631585,0.2585996,6.815629,6.987534,7.36,NaN,0,7.564588,-25,-27
206402,119159354,0.2578906,0.001840949,0.2660183,0.2585996,6.807594,6.977585,7.13,NaN,0,7.577398,-25,-29
206851,119267931,0.2559542,0.00159955,0.2593785,0.2585996,6.79936,6.960348,7.67,NaN,0,7.581096,-24,-28
207261,119374973,0.2623007,0.001651645,0.2611572,0.2585996,6.791236,6.945321,7.75,NaN,0,7.588903,-23,-26
207705,119480729,0.2588981,0.001698971,0.2582843,0.2585996,6.783436,6.935552,7.83,NaN,0,7.601703,-23,-25
208146,119588786,0.2456876,0.001739457,0.2498486,0.2585996,6.776069,6.929626,7.12,NaN,0,7.617688,-22,-21
208592,119695211,0.2454382,0.001744941,0.2472792,0.2585996,6.769166,6.923921,7.62,NaN,0,7.634635,-22,-20
209005,119803170,0.2491305,0.001561105,0.2508278,0.2585996,6.762909,6.914495,7.69,NaN,0,7.646936,-21,-20
209455,119909895,0.2366241,0.0009284914,0.2451857,0.2585996,6.757026,6.907576,7.01,NaN,0,7.661922,-20,-18
209893,120015409,0.2323742,0.000766933,0.2325321,0.2585996,6.751719,6.89881,6.54,NaN,0,7.673977,-19,-15
210340,120122378,0.2382923,0.001037985,0.2357346,0.2585996,6.747029,6.885745,6.37,NaN,0,7.681816,-18,-15
210749,120228359,0.2589496,0.001329809,0.2472667,0.2585996,6.743082,6.860014,6.19,NaN,0,7.676898,-15,-15
211194,120337995,0.2395445,0.001001716,0.2501273,0.2585996,6.740155,6.827928,6.11,NaN,0,7.664732,-11,-14
211640,120445365,0.2321225,0.0007664412,0.2419553,0.2585996,6.738587,6.7969,5.76,NaN,0,7.652877,-6,-9
212054,120554618,0.2383334,0.0006308854,0.2386897,0.2585996,6.738655,6.765981,5.78,NaN,0,7.640215,-1,-4
212499,120661555,0.2475936,0.0006112009,0.2438101,0.2585996,6.740592,6.733576,5.71,NaN,0,7.625998,3,0
212947,120769582,0.2498728,0.0005310178,0.2497921,0.2585996,6.744613,6.700349,5.71,NaN,0,7.611685,9,1
213396,120876894,0.2583039,0.0006721616,0.2545031,0.2585996,6.750884,6.67198,5.6,NaN,0,7.600673,15,6
213806,120984248,0.2647032,0.001001626,0.2609249,0.2585996,6.759186,6.644781,5.97,NaN,0,7.590907,21,10
214253,121091445,0.2662447,0.001385391,0.2652776,0.2585996,6.769822,6.625561,6.01,NaN,0,7.587403,26,15
214695,121198386,0.260753,0.001823038,0.2595101,0.2585996,6.781771,6.620911,5.69,NaN,0,7.597486,29,22
215144,121304388,0.269859,0.0035083,0.263929,0.2585996,6.795358,6.619627,5.86,NaN,0,7.610179,32,24
215586,121412469,0.2611366,0.004801542,0.2658068,0.2585996,6.810137,6.625921,6.02,NaN,0,7.627765,34,28
215998,121517973,0.2504673,0.003991306,0.2589307,0.2585996,6.825805,6.638086,6.14,NaN,0,7.651137,35,32
216438,121627150,0.2416459,0.00262484,0.2551032,0.2585996,6.842283,6.654773,5.83,NaN,0,7.674782,36,35
216883,121732381,0.2538542,0.001883149,0.2554689,0.2585996,6.859443,6.675036,5.95,NaN,0,7.702812,36,36
217293,121840567,0.2462689,0.001203716,0.2513273,0.2585996,6.877004,6.69201,5.97,NaN,0,7.724043,37,38
217738,121949362,0.2422396,0.001026213,0.2485622,0.2585996,6.894151,6.711143,5.81,NaN,0,7.748242,36,38
218150,122055452,0.2445001,0.0009494573,0.2458079,0.2585996,6.91148,6.730837,5.65,NaN,0,7.773337,36,38
218592,122165387,0.2409302,0.001196355,0.2437672,0.2585996,6.927821,6.74876,5.58,NaN,0,7.795671,35,37
219039,122270884,0.2374131,0.001432672,0.2430251,0.2585996,6.943865,6.765964,6.02,NaN,0,7.817291,34,36
219483,122378444,0.2359276,0.001514852,0.238238,0.2585996,6.958631,6.781834,5.93,NaN,0,7.836595,33,35
219928,122484579,0.2373524,0.001251698,0.2378266,0.2585996,6.972796,6.796196,5.69,NaN,0,7.85381,32,34
220336,122594933,0.2351562,0.000456199,0.2393782,0.2585996,6.985879,6.804272,6.06,NaN,0,7.86458,31,33
220784,122703247,0.2290524,0.0001141131,0.2345168,0.2585996,6.99822,6.812409,6.19,NaN,0,7.876478,30,32
221195,122810586,0.2285897,0.0003147721,0.2340636,0.2585996,7.009244,6.824409,6.22,NaN,0,7.89166,29,31
221644,122916929,0.2388944,0.0005092472,0.2368858,0.2585996,7.019283,6.834602,6.37,NaN,0,7.906079,28,29
222053,123024364,0.2563693,0.0003076196,0.2469469,0.2585996,7.02831,6.845862,6.22,NaN,0,7.921986,27,26
222494,123133851,0.2578567,8.052588e-05,0.2561911,0.2585996,7.036127,6.854797,6.43,NaN,0,7.937436,26,22
222909,123240215,0.2624803,3.519654e-05,0.2604153,0.2585996,7.043176,6.867068,6.37,NaN,0,7.953835,24,19
223347,123347898,0.253984,1.987815e-05,0.2568809,0.2585996,7.049209,6.87773,6.54,NaN,0,7.969777,22,20
223789,123455742,0.2516053,6.130338000000001e-05,0.2533507,0.2585996,7.054225,6.889211,6.74,NaN,0,7.985873,21,20
224232,123564070,0.2443272,0.0001189858,0.2519373,0.2585996,7.058212,6.903475,6.77,NaN,0,8.005898,19,19
224677,123670115,0.2525077,0.0002031028,0.2505495,0.2585996,7.061114,6.91924,6.67,NaN,0,8.026598,16,17
225121,123780014,0.2490754,0.0002885163,0.252069,0.2585996,7.062867,6.932358,6.72,NaN,0,8.044973000000001,14,15
225534,123885983,0.2493947,0.0003141612,0.2493937,0.2585996,7.063457,6.942015,6.69,NaN,0,8.061092,12,14
225978,123995216,0.2492799,0.0002882481,0.2485112,0.2585996,7.06295,6.950053,6.74,NaN,0,8.076499999999999,10,11
226425,124101171,0.2592835,0.0002233386,0.2538721,0.2585996,7.061378,6.954948,6.93,NaN,0,8.088017000000001,8,9
226867,124209193,0.265441,0.0001346767,0.2590607,0.2585996,7.058842,6.958141,6.86,NaN,0,8.098167999999999,6,6
227314,124316160,0.2579012,8.052588e-05,0.2598425,0.2585996,7.055458,6.960011,6.83,NaN,0,8.107058,5,4
227722,124425087,0.2475295,0.000112921,0.2547076,0.2585996,7.05134,6.962436,6.94,NaN,0,8.117471,4,3
228162,124532134,0.2454161,0.0001469254,0.2519041,0.2585996,7.046577,6.965276,7.01,NaN,0,8.127817,2,4
228606,124637900,0.2514525,0.0001808107,0.2533708,0.2585996,7.041239,6.966752,6.97,NaN,0,8.136863,1,3
229017,124746630,0.2470971,0.0001965016,0.2517464,0.2585996,7.035717,6.968679,6.78,NaN,0,8.146525,0,1
229462,124853893,0.2545294,0.0001729429,0.2507879,0.2585996,7.029448,6.969858,7.18,NaN,0,8.156402999999999,0,2
229874,124961148,0.2477541,0.0001836717,0.2514436,0.2585996,7.022786,6.972089,7.04,NaN,0,8.166437999999999,-2,0
230321,125068333,0.2500722,0.0002057552,0.2491708,0.2585996,7.015761,6.976134,7.45,NaN,0,8.178601,-3,0
230762,125177885,0.2470069,0.0002202839,0.2482156,0.2585996,7.008767,6.982894,6.86,NaN,0,8.195347999999999,-5,-1
231178,125283340,0.2412765,0.0001831949,0.2441331,0.2585996,7.000988,6.986288,7.41,NaN,0,8.206935,-6,-2
231619,125390388,0.2456958,0.0001960546,0.2427947,0.2585996,6.993243,6.989888,7.16,NaN,0,8.220758,-8,-3
232064,125498453,0.2375822,0.0001583546,0.2391752,0.2585996,6.984685,6.993014,7.45,NaN,0,8.233848999999999,-10,-4
232473,125606996,0.2437867,0.0001747459,0.2409489,0.2585996,6.97599,6.998385,7.12,NaN,0,8.248695,-11,-6
232921,125714447,0.2490018,0.0002003312,0.245133,0.2585996,6.966677,6.998852,7.08,NaN,0,8.259447,-13,-9
233360,125821201,0.2444104,0.0003122538,0.2454671,0.2585996,6.957018,6.996395,7.23,NaN,0,8.265878000000001,-14,-11
233772,125928196,0.2431357,0.0005282611,0.2455152,0.2585996,6.94712,6.991576,7.19,NaN,0,8.270917000000001,-14,-12
234217,126034638,0.2552615,0.0008643866,0.2481683,0.2585996,6.937101,6.985269,7.29,NaN,0,8.274627000000001,-15,-13
234627,126142251,0.2584128,0.001113653,0.2559409,0.2585996,6.927092,6.977,7.16,NaN,0,8.277245000000001,-15,-16
235075,126250769,0.2583215,0.001068532,0.2588512,0.2585996,6.917231,6.965653,7.44,NaN,0,8.278007000000001,-15,-16
235516,126358614,0.2609973,0.0007316768,0.2598339,0.2585996,6.907667,6.9557,7.31,NaN,0,8.279337,-14,-17
235961,126464117,0.2520562,0.0004629493,0.2580841,0.2585996,6.898512,6.947155,7.36,NaN,0,8.282876999999999,-14,-15
236374,126573145,0.25236,0.0003589094,0.253874,0.2585996,6.889837,6.941712,7.4,NaN,0,8.289656000000001,-14,-14
236820,126681186,0.2486172,0.0002683103,0.2520688,0.2585996,6.881653,6.938871,7.27,NaN,0,8.299205000000001,-14,-12
237231,126787896,0.2512376,0.0002467036,0.2506962,0.2585996,6.874121,6.93786,7.21,NaN,0,8.31195,-14,-11
237677,126893941,0.2506726,0.0002451241,0.2514817,0.2585996,6.866776,6.935973,7.06,NaN,0,8.322430000000001,-14,-12
238120,127001413,0.2519075,0.0002216399,0.2503889,0.2585996,6.859795,6.931606,7.04,NaN,0,8.330437999999999,-14,-12
238565,127108210,0.2572419,0.0003273487,0.2533491,0.2585996,6.853173,6.925128,7,NaN,0,8.336312,-13,-13
238984,127215240,0.2559594,0.001121402,0.2568167,0.2585996,6.846951,6.918348,7.14,NaN,0,8.343730000000001,-13,-13
239430,127323101,0.2584963,0.002741218,0.259587,0.2585996,6.841183,6.909998,6.98,NaN,0,8.347564999999999,-12,-13
239872,127430227,0.257289,0.004398495,0.2588646,0.2585996,6.835914,6.903262,7.06,NaN,0,8.352456,-12,-12
240284,127540731,0.2646055,0.005336255,0.2620127,0.2585996,6.83106,6.894994,6.88,NaN,0,8.355715999999999,-11,-12
240729,127645997,0.2591049,0.004934698,0.266001,0.2585996,6.82691,6.887341,7.06,NaN,0,8.358734999999999,-10,-12
241171,127752742,0.2606419,0.004238218,0.2635165,0.2585996,6.823362,6.879689,6.69,NaN,0,8.360620000000001,-9,-11
241614,127859217,0.2674356,0.003941208,0.2680681,0.2585996,6.820442,6.869468,6.83,NaN,0,8.360424,-7,-11
242026,127966361,0.264491,0.003523588,0.2665435,0.2585996,6.818204,6.858051,6.7,NaN,0,8.357911,-5,-10
242471,128074463,0.2633145,0.003231913,0.2653362,0.2585996,6.816716,6.846282,6.77,NaN,0,8.353999999999999,-4,-7
242912,128184249,0.2636146,0.003470361,0.2644949,0.2585996,6.816037,6.837774,6.49,NaN,0,8.352886,-2,-4
243359,128288638,0.2609041,0.004129589,0.264532,0.2585996,6.816168,6.831565,6.67,NaN,0,8.353825000000001,0,-3
243800,128396320,0.2684549,0.005008876,0.2677533,0.2585996,6.817045,6.82451,6.88,NaN,0,8.353529,0,-2
244244,128504398,0.2646093,0.005515873,0.2702289,0.2585996,6.818694,6.819663,6.46,NaN,0,8.354473,2,-1
244655,128612329,0.2503741,0.005484134,0.2638738,0.2585996,6.82105,6.815975,6.64,NaN,0,8.356102,3,1
245100,128720206,0.2453236,0.005215243,0.2552681,0.2585996,6.824046,6.815167,6.46,NaN,0,8.359346,4,5
245542,128827618,0.250979,0.005692184,0.2514069,0.2585996,6.827589,6.816186,6.81,NaN,0,8.366491,5,7
245991,128938945,0.2455968,0.006064966,0.2534195,0.2585996,6.831672,6.81928,6.52,NaN,0,8.373889,5,6
246436,129045553,0.2460931,0.00540705,0.2523528,0.2585996,6.835958,6.825161,6.41,NaN,0,8.382631,5,8
246878,129153988,0.2494495,0.003531903,0.2514721,0.2585996,6.840406,6.828949,6.58,NaN,0,8.387625,5,8
247289,129260434,0.242943,0.001921803,0.246254,0.2585996,6.844923,6.832902,6.69,NaN,0,8.393324,5,9
