LineNo,TimeUS,Instance,RPM,RawRPM,Volt,Curr,Temp,CTot,MotTemp,Err
1599,56231423,5,0,0,15.64,0.03,21,0,0,0
2430,56443618,5,0,0,15.64,0.03,21,0,0,0
2844,56550771,5,0,0,15.64,0.03,21,0,0,0
3257,56656086,5,0,0,15.64,0.03,21,0,0,0
3669,56758122,5,0,0,15.64,0.03,21,0,0,0
4120,56872932,5,0,0,15.64,0.03,21,0,0,0
4530,56977051,5,0,0,15.63,0.03,21,0,0,0
4937,57080103,5,0,0,15.63,0.03,21,0,0,0
5389,57196094,5,0,0,15.63,0.03,21,0,0,0
5800,57299406,5,0,0,15.64,0.03,21,0,0,0
6256,57413618,5,0,0,15.64,0.03,21,0,0,0
6671,57517358,5,0,0,15.64,0.03,21,0,0,0
7092,57622870,5,0,0,15.64,0.03,21,0,0,0
7514,57731400,5,0,0,15.64,0.03,21,0,0,0
7930,57834762,5,0,0,15.64,0.03,21,0,0,0
8349,57941459,5,0,0,15.64,0.03,21,0,0,0
8801,58054382,5,0,0,15.64,0.03,21,0,0,0
9215,58158603,5,0,0,15.64,0.03,21,0,0,0
9626,58264199,5,0,0,15.64,0.02,21,0,0,0
10074,58381561,5,0,0,15.64,0.02,21,0,0,0
10448,58476923,5,0,0,15.64,0.02,21,0,0,0
10776,58595468,5,0,0,15.64,0.02,21,0,0,0
11190,58697469,5,0,0,15.64,0.02,21,0,0,0
11607,58804190,5,0,0,15.64,0.03,21,0,0,0
12030,58917409,5,0,0,15.64,0.03,21,0,0,0
12479,59027785,5,0,0,15.64,0.03,21,0,0,0
12891,59132097,5,0,0,15.64,0.03,21,0,0,0
13305,59237323,5,0,0,15.64,0.03,21,0,0,0
13758,59353152,5,0,0,15.64,0.03,21,0,0,0
14168,59457163,5,0,0,15.64,0.03,21,0,0,0
14621,59569436,5,0,0,15.64,0.03,21,0,0,0
15036,59674369,5,0,0,15.64,0.03,21,0,0,0
15448,59777951,5,0,0,15.64,0.03,21,0,0,0
15867,59886086,5,0,0,15.65,0.03,21,0,0,0
16320,60000405,5,0,0,15.64,0.03,21,0,0,0
16733,60104107,5,0,0,15.64,0.03,21,0,0,0
17154,60214112,5,0,0,15.64,0.03,21,0,0,0
17610,60329758,5,0,0,15.64,0.03,21,0,0,0
18018,60432364,5,0,0,15.63,0.03,21,0,0,0
18467,60549392,5,0,0,15.64,0.03,21,0,0,0
18844,60647459,5,0,0,15.64,0.03,21,0,0,0
19264,60753588,5,0,0,15.64,0.03,21,0,0,0
19714,60868362,5,0,0,15.64,0.03,21,0,0,0
20130,60974475,5,0,0,15.64,0.03,21,0,0,0
20540,61079359,5,0,0,15.64,0.03,21,0,0,0
20920,61193275,5,0,0,15.64,0.03,21,0,0,0
54669,81867929,5,0,0,15.64,0.04,21,0,0,0
54750,81887222,5,0,0,15.64,0.04,21,0,0,0
55182,81989762,5,0,0,15.64,0.04,21,0,0,0
55679,82100410,5,0,0,15.64,0.04,21,0,0,0
56136,82208872,5,0,0,15.64,0.04,21,0,0,0
56557,82310475,5,0,0,15.63,0.04,21,0,0,0
57039,82418128,5,0,0,15.64,0.04,21,0,0,0
57534,82531602,5,0,0,15.64,0.04,21,0,0,0
57988,82637466,5,0,0,15.64,0.04,22,0,0,0
58440,82743226,5,0,0,15.64,0.04,21,0,0,0
58899,82851213,5,0,0,15.64,0.04,21,0,0,0
59355,82959933,5,0,0,15.64,0.04,21,0,0,0
59809,83062343,5,0,0,15.64,0.04,21,0,0,0
60336,83181270,5,0,0,15.64,0.04,21,0,0,0
60793,83287977,5,0,0,15.64,0.04,21,0,0,0
61244,83393614,5,0,0,15.64,0.05,21,0,0,0
61695,83495338,5,0,0,15.64,0.05,21,0,0,0
62152,83605239,5,0,0,15.64,0.04,22,0,0,0
62604,83707107,5,0,0,15.64,0.05,21,0,0,0
63100,83823116,5,0,0,15.64,0.05,21,0,0,0
63551,83927971,5,0,0,15.63,0.03,21,0,0,0
64009,84033913,5,11,271,15.62,0.07000000000000001,22,0,0,0
64917,84245232,5,276,1042,15.6,0.17,22,0,0,0
65403,84355088,5,1048,1185,15.62,0.12,22,0,0,0
65903,84469575,5,1188,1228,15.62,0.12,22,0,0,0
66352,84573411,5,1228,1242,15.63,0.11,22,0,0,0
66850,84687393,5,1242,1242,15.63,0.11,22,0,0,0
67301,84793405,5,1243,1271,15.61,0.14,22,0,0,0
68047,85011018,5,1574,2071,15.58,0.6,22,0,0,0
68464,85114997,5,2114,2728,15.52,1.13,22,0,0,0
68918,85226011,5,2757,3028,15.35,1.3,22,0,0,0
69413,85334961,5,3065,3542,15.28,1.6,22,0,0,0
70239,85547652,5,4085,4842,15.03,2.93,22,0,0,0
70735,85660990,5,4889,5357,14.91,3.62,22,0,0,0
71190,85770870,5,5390,5700,14.84,4.42,22,0,0,0
71643,85875563,5,5721,6028,14.91,4.35,22,0,0,0
72091,85983382,5,6035,6128,14.95,4.61,22,0,0,0
72513,86085429,5,6126,6071,14.87,4.3,22,1,0,0
73005,86202437,5,6079,6314,14.94,4.27,22,1,0,0
73505,86317051,5,6299,6157,14.98,4.09,22,1,0,0
73956,86428145,5,6151,6100,14.91,4.41,22,1,0,0
74859,86642179,5,6100,6114,14.94,4.16,22,1,0,0
75316,86755593,5,6108,5957,15.04,3.75,22,1,0,0
75770,86861220,5,5958,5985,15.03,3.43,22,1,0,0
76676,87079865,5,5981,5871,15.01,3.87,22,2,0,0
77125,87187627,5,5869,5842,14.94,3.89,22,2,0,0
77620,87304433,5,5859,6028,14.91,4.09,22,2,0,0
78032,87404885,5,6024,5957,14.91,3.96,22,2,0,0
78485,87509330,5,5958,6028,14.94,3.76,22,2,0,0
79423,87733472,5,6029,6071,14.94,3.91,22,2,0,0
79877,87839432,5,6055,5842,14.98,3.28,22,3,0,0
80327,87948948,5,5839,5671,14.98,3.5,22,3,0,0
80827,88068957,5,5690,5957,14.92,4.13,22,3,0,0
81246,88174107,5,5971,6100,14.85,4.34,22,3,0,0
81692,88279942,5,6099,6042,14.9,4.32,22,3,0,0
82136,88387983,5,6042,6071,14.95,3.8,23,3,0,0
82592,88504600,5,6056,5914,14.94,3.74,23,3,0,0
83038,88611465,5,5920,6014,14.89,3.8,23,3,0,0
83483,88721997,5,5995,5842,14.89,3.52,22,3,0,0
83931,88834552,5,5855,6000,14.86,4.32,23,4,0,0
84783,89043799,5,6000,6000,14.84,4.41,23,4,0,0
85224,89154561,5,6015,6342,14.79,4.88,23,4,0,0
85718,89274542,5,6332,6242,14.85,4.34,23,4,0,0
86119,89374924,5,6238,6171,14.9,4.03,23,4,0,0
86569,89483551,5,6161,6014,14.82,3.94,23,4,0,0
87013,89593995,5,6026,6142,14.83,4.27,23,4,0,0
87461,89702329,5,6142,6171,14.84,4.12,23,5,0,0
87896,89806967,5,6166,6085,14.94,3.96,23,5,0,0
88346,89917442,5,6087,6128,14.92,4.06,23,5,0,0
88755,90020347,5,6121,5814,14.88,3.39,23,5,0,0
89207,90131471,5,5818,5900,14.93,3.72,23,5,0,0
90096,90348480,5,5895,5800,14.93,3.59,23,5,0,0
90502,90448575,5,5797,5742,14.97,3.39,23,5,0,0
90950,90560116,5,5744,5785,15,3.23,23,5,0,0
91445,90678177,5,5774,5657,15,3.08,23,6,0,0
91896,90790445,5,5652,5600,14.96,3.06,23,6,0,0
92304,90891384,5,5603,5685,14.96,3.42,23,6,0,0
92788,91004869,5,5684,5671,14.93,3.1,23,6,0,0
93237,91115104,5,5658,5542,15,2.99,23,6,0,0
93682,91225969,5,5552,5657,14.98,3.15,23,6,0,0
94085,91330135,5,5667,5771,14.95,3.56,23,6,0,0
94495,91433382,5,5771,5800,14.93,3.4,23,6,0,0
94976,91547414,5,5801,5828,14.98,3.52,23,6,0,0
95385,91648468,5,5829,5900,14.94,3.59,23,6,0,0
95829,91754461,5,5900,5914,14.91,3.5,23,7,0,0
96282,91866566,5,5913,5857,14.88,3.39,23,7,0,0
96727,91975103,5,5857,5857,14.88,3.64,23,7,0,0
97219,92094574,5,5870,6014,14.91,3.91,23,7,0,0
97663,92205093,5,6001,5885,14.88,3.72,23,7,0,0
98118,92316139,5,5883,5871,14.92,3.63,23,7,0,0
98515,92415360,5,5874,5942,14.97,3.68,23,7,0,0
99010,92536222,5,5942,5942,14.91,3.42,23,7,0,0
99412,92634463,5,5936,5857,14.87,3.68,23,8,0,0
99853,92741548,5,5859,5914,14.88,3.84,23,8,0,0
100307,92853959,5,5917,5957,14.89,3.94,23,8,0,0
100713,92955559,5,5959,6014,14.84,3.98,23,8,0,0
101166,93067925,5,6009,5942,14.88,3.57,23,8,0,0
101618,93182391,5,5939,5914,14.89,3.64,23,8,0,0
102022,93283892,5,5921,6071,14.85,3.68,23,8,0,0
102471,93394442,5,6061,5871,14.86,3.6,23,8,0,0
102923,93502581,5,5873,5928,14.9,3.6,23,8,0,0
103819,93726184,5,5924,5828,14.86,3.34,24,9,0,0
104266,93838167,5,5829,5857,14.9,3.65,23,9,0,0
104670,93940611,5,5855,5828,14.89,3.62,24,9,0,0
105163,94055114,5,5828,5828,14.82,3.67,24,9,0,0
105570,94160468,5,5827,5814,14.83,3.63,23,9,0,0
106014,94266929,5,5814,5857,14.85,3.73,24,9,0,0
106460,94377408,5,5858,5885,14.78,3.58,23,9,0,0
106910,94485213,5,5884,5871,14.89,3.54,24,9,0,0
107355,94595120,5,5866,5814,14.87,3.61,24,9,0,0
108251,94817920,5,5816,5900,14.79,3.85,24,10,0,0
108663,94921368,5,5903,5971,14.75,3.82,24,10,0,0
109076,95024014,5,5971,6014,14.83,3.63,24,10,0,0
109566,95146353,5,6005,5885,14.8,3.73,24,10,0,0
109971,95243981,5,5880,5814,14.91,3.44,24,10,0,0
110379,95351456,5,5807,5714,14.85,3.56,24,10,0,0
110830,95460572,5,5731,5971,14.87,3.6,24,10,0,0
111722,95680220,5,5972,6028,14.78,3.88,24,11,0,0
112130,95785007,5,6027,6000,14.88,3.8,24,11,0,0
112658,95909407,5,5995,5957,14.88,3.73,24,11,0,0
113063,96010626,5,5956,5942,14.85,3.6,24,11,0,0
113511,96119615,5,5942,5985,14.8,3.67,24,11,0,0
113958,96233189,5,5974,5885,14.78,3.56,24,11,0,0
114363,96334208,5,5884,5871,14.83,3.72,24,11,0,0
115298,96564540,5,5871,5871,14.83,4.03,24,11,0,0
115703,96659619,5,5873,6057,14.86,3.98,24,12,0,0
116148,96774245,5,6041,5871,14.82,3.54,24,12,0,0
116595,96880397,5,5870,5857,14.8,3.64,24,12,0,0
117042,96991619,5,5854,5828,14.84,3.58,24,12,0,0
117489,97098136,5,5824,5742,14.87,3.54,24,12,0,0
117980,97224010,5,5739,5714,14.83,3.15,24,12,0,0
118419,97323782,5,5722,5814,14.92,3.56,24,12,0,0
119271,97534366,5,5811,5700,14.77,3.11,24,12,0,0
119720,97647410,5,5706,5785,14.79,3.45,24,13,0,0
120121,97748402,5,5786,5814,14.83,3.18,24,13,0,0
120612,97863920,5,5803,5685,14.85,3.16,24,13,0,0
121503,98080735,5,5677,5485,14.8,2.87,24,13,0,0
122399,98300228,5,5479,5371,14.83,2.57,24,13,0,0
122803,98404131,5,5374,5428,14.82,2.77,24,13,0,0
123209,98502368,5,5427,5400,14.83,2.98,24,13,0,0
123657,98618333,5,5407,5500,14.91,3.05,24,13,0,0
124553,98836848,5,5510,5742,14.85,3.66,24,14,0,0
124958,98936655,5,5741,5700,14.85,3.44,24,14,0,0
125449,99057460,5,5719,5928,14.85,3.7,24,14,0,0
125845,99156446,5,5923,5828,14.83,3.76,24,14,0,0
126299,99268507,5,5828,5871,14.87,3.55,24,14,0,0
126743,99376468,5,5870,5857,14.75,4.08,24,14,0,0
127194,99487381,5,5872,6171,14.76,4.4,24,14,0,0
127637,99598241,5,6173,6228,14.72,4.33,24,14,0,0
128045,99700399,5,6230,6328,14.72,4.16,24,15,0,0
128494,99809985,5,6324,6200,14.73,4.09,24,15,0,0
128953,99922069,5,6198,6171,14.78,3.89,24,15,0,0
129392,100027090,5,6168,5985,14.74,3.84,24,15,0,0
129879,100149874,5,5985,5985,14.75,3.86,24,15,0,0
130285,100248887,5,5985,5985,14.8,3.84,24,15,0,0
130693,100352220,5,5984,5971,14.76,3.81,24,15,0,0
131141,100458251,5,5974,6100,14.78,4.12,24,15,0,0
132038,100679598,5,6094,5942,14.87,3.42,24,16,0,0
132442,100783403,5,5938,5757,14.85,3.01,24,16,0,0
132971,100903964,5,5748,5628,14.74,3.77,24,16,0,0
133378,101006545,5,5644,5857,14.85,3.55,24,16,0,0
133827,101117993,5,5848,5742,14.82,3.66,24,16,0,0
134240,101225625,5,5739,5714,14.85,3.74,24,16,0,0
134728,101342195,5,5722,5785,14.88,3.24,24,16,0,0
135142,101446340,5,5781,5742,14.87,3.25,24,16,0,0
135586,101556609,5,5729,5600,14.88,2.86,24,16,0,0
136032,101664117,5,5591,5500,14.95,2.79,24,17,0,0
136431,101764449,5,5505,5614,14.82,3.25,24,17,0,0
136882,101874974,5,5614,5671,14.84,3.61,24,17,0,0
137813,102099634,5,5676,5842,14.8,3.54,24,17,0,0
138254,102207913,5,5839,5800,14.78,3.56,24,17,0,0
138704,102316688,5,5799,5785,14.86,3.53,24,17,0,0
139156,102429230,5,5786,5814,14.75,3.85,24,17,0,0
139602,102540922,5,5816,5971,14.81,3.89,24,17,0,0
140493,102758612,5,5972,6014,14.67,3.96,24,18,0,0
140990,102875575,5,6018,6071,14.74,4.1,24,18,0,0
141387,102977907,5,6063,5971,14.69,3.91,24,18,0,0
141834,103084032,5,5971,5985,14.74,3.97,24,18,0,0
142240,103188621,5,5985,5985,14.75,3.95,24,18,0,0
142734,103308194,5,5987,6014,14.79,3.88,24,18,0,0
143178,103416181,5,6015,6042,14.8,3.87,24,18,0,0
143583,103516634,5,6043,6100,14.71,4.24,24,18,0,0
144026,103626753,5,6101,6185,14.71,4.3,24,19,0,0
144479,103741153,5,6186,6214,14.75,3.73,24,19,0,0
144928,103851562,5,6199,6014,14.79,3.69,24,19,0,0
145335,103955163,5,6011,5900,14.84,3.57,24,19,0,0
145781,104061370,5,5900,5900,14.76,3.72,24,19,0,0
146223,104169757,5,5900,5914,14.8,3.73,24,19,0,0
146672,104278609,5,5912,5885,14.8,3.59,24,19,0,0
147121,104392237,5,5877,5771,14.83,3.46,24,19,0,0
147569,104501385,5,5773,5800,14.83,3.5,25,20,0,0
148017,104610350,5,5789,5685,14.86,3.14,25,20,0,0
148470,104721346,5,5683,5671,14.88,3.14,25,20,0,0
148912,104831332,5,5668,5642,14.89,3.05,24,20,0,0
149577,105050382,5,5660,5542,14.81,3.33,25,20,0,0
150026,105161335,5,5552,5671,14.72,3.42,24,20,0,0
150475,105271688,5,5675,5728,14.73,3.36,24,20,0,0
150840,105366182,5,5728,5785,14.72,3.33,25,20,0,0
151328,105482592,5,5782,5742,14.8,3.13,24,20,0,0
151774,105593084,5,5736,5657,14.83,3.02,25,21,0,0
152225,105701430,5,5655,5614,14.77,3.43,25,21,0,0
152674,105814128,5,5619,5671,14.79,3.55,25,21,0,0
153120,105919173,5,5674,5728,14.78,3.51,25,21,0,0
153566,106031090,5,5724,5685,14.82,3.47,25,21,0,0
154018,106145905,5,5700,5871,14.77,3.85,25,21,0,0
154422,106241585,5,5884,6014,14.74,3.97,25,21,0,0
154866,106351991,5,6024,6157,14.78,4.68,25,21,0,0
155321,106464343,5,6200,6657,14.72,5.84,25,21,0,0
155728,106567909,5,6665,6757,14.57,6.01,25,22,0,0
156169,106669484,5,6766,6971,14.6,6.17,25,22,0,0
156624,106786226,5,6965,6914,14.6,6.87,25,22,0,0
157035,106886657,5,6902,6742,14.72,5.56,25,22,0,0
157484,107000408,5,6734,6657,14.71,4.82,25,22,0,0
157932,107108738,5,6632,6300,14.72,3.98,25,22,0,0
158333,107212318,5,6259,5871,14.82,2.71,25,23,0,0
158782,107320752,5,5819,5114,14.82,1.5,25,23,0,0
159188,107424028,5,5102,4457,14.83,1.11,25,23,0,0
159674,107543477,5,4432,4171,14.85,1.16,25,23,0,0
160123,107651979,5,4174,4214,14.84,1.74,25,23,0,0
160568,107762363,5,4227,4528,14.81,2.11,25,23,0,0
161023,107879879,5,4533,4571,14.86,1.77,25,23,0,0
161429,107985249,5,4591,4757,14.84,2.54,25,23,0,0
161882,108096067,5,4795,5128,14.77,2.94,25,23,0,0
162284,108195438,5,5164,5557,14.69,3.77,25,23,0,0
162733,108305608,5,5578,5757,14.71,4.1,25,23,0,0
163139,108405014,5,5770,6100,14.7,4.46,25,23,0,0
163626,108526009,5,6111,6185,14.7,4.44,25,23,0,0
164033,108624913,5,6197,6328,14.79,4.39,25,24,0,0
164481,108732619,5,6322,6185,14.71,4.25,25,24,0,0
165819,109066131,5,6193,6457,14.66,5.52,25,24,0,0
166264,109173939,5,6467,6571,14.66,5.12,25,24,0,0
166716,109284918,5,6573,6614,14.56,5.5,25,25,0,0
167167,109398104,5,6616,6642,14.63,5.31,25,25,0,0
167573,109496124,5,6639,6414,14.67,4.87,25,25,0,0
168019,109607162,5,6414,6428,14.61,4.65,25,25,0,0
168501,109727577,5,6412,6271,14.67,4.13,25,25,0,0
168906,109821750,5,6269,6171,14.69,3.89,25,25,0,0
169395,109941632,5,6152,6000,14.72,3.88,25,25,0,0
169846,110051093,5,5997,5971,14.65,4.07,25,25,0,0
170251,110153725,5,5972,6014,14.69,4.22,25,26,0,0
170697,110261423,5,6015,6100,14.76,3.59,25,26,0,0
171186,110378961,5,6082,5900,14.72,3.42,25,26,0,0
171631,110488159,5,5893,5828,14.83,3.36,25,26,0,0
172035,110590865,5,5816,5671,14.87,3.03,25,26,0,0
172484,110700085,5,5669,5571,14.8,2.95,25,26,0,0
172971,110816442,5,5571,5571,14.79,3.17,25,26,0,0
173423,110930575,5,5554,5442,14.85,2.81,25,26,0,0
173827,111027914,5,5433,5328,14.82,2.55,25,26,0,0
174268,111137602,5,5301,5000,14.79,1.97,25,26,0,0
174675,111238891,5,5000,5000,14.8,1.97,25,26,0,0
175163,111361063,5,5004,5071,14.73,2.47,25,27,0,0
175569,111461927,5,5073,5228,14.79,2.62,25,27,0,0
176017,111573977,5,5240,5414,14.69,3.52,25,27,0,0
176466,111681876,5,5419,5814,14.71,3.64,25,27,0,0
176912,111792439,5,5815,5857,14.75,3.49,25,27,0,0
177365,111899580,5,5857,5900,14.75,4.12,25,27,0,0
177811,112012188,5,5911,6000,14.82,3.66,25,27,0,0
178218,112110106,5,6000,6028,14.73,3.81,25,27,0,0
178670,112227674,5,6042,6185,14.7,4.18,25,27,0,0
179114,112337120,5,6183,6128,14.66,4.2,25,28,0,0
179563,112444440,5,6122,6000,14.7,4.46,25,28,0,0
180012,112556931,5,6004,6071,14.64,4.07,25,28,0,0
180904,112779433,5,6061,5857,14.73,3.79,25,28,0,0
181796,112996975,5,5857,5857,14.78,3.54,25,28,0,0
182243,113105185,5,5849,5714,14.77,2.59,25,28,0,0
183001,113332285,5,5336,5157,14.85,2.49,25,28,0,0
183741,113556113,5,5088,5142,14.8,2.51,25,29,0,0
184152,113659910,5,5128,5000,14.8,2.52,25,29,0,0
184550,113757615,5,5000,5014,14.85,2.17,25,29,0,0
185007,113868623,5,5013,5000,14.77,3.23,25,29,0,0
185453,113979895,5,5021,5328,14.58,3.62,25,29,0,0
185898,114086459,5,5329,5442,14.78,3.15,25,29,0,0
186343,114197697,5,5437,5328,14.8,3.01,25,29,0,0
186832,114311595,5,5337,5442,14.79,3.27,25,29,0,0
187273,114419992,5,5440,5428,14.77,2.82,25,29,0,0
187721,114532168,5,5426,5414,14.8,2.98,25,29,0,0
188127,114632419,5,5412,5342,14.79,2.74,25,29,0,0
188574,114744018,5,5343,5385,14.8,2.78,25,30,0,0
189029,114856980,5,5390,5442,14.81,2.83,25,30,0,0
189472,114966936,5,5457,5614,14.79,3.22,25,30,0,0
189881,115068599,5,5612,5571,14.75,3.08,25,30,0,0
190330,115184187,5,5564,5500,14.76,2.96,25,30,0,0
190737,115283351,5,5501,5571,14.73,3.32,25,30,0,0
191186,115395009,5,5573,5685,14.75,3.38,25,30,0,0
191632,115502198,5,5691,5814,14.81,3.29,25,30,0,0
192078,115616441,5,5794,5600,14.88,2.83,25,30,0,0
192528,115728203,5,5585,5442,14.79,3.09,25,30,0,0
192938,115830567,5,5453,5557,14.88,2.85,25,30,0,0
193383,115941406,5,5567,5657,14.76,3.43,25,31,0,0
193823,116043119,5,5673,5885,14.77,3.68,25,31,0,0
194268,116154345,5,5879,5828,14.68,4.14,25,31,0,0
194722,116265195,5,5829,5842,14.7,3.3,25,31,0,0
195130,116372605,5,5845,5885,14.75,3.61,25,31,0,0
195541,116473946,5,5881,5814,14.75,3.16,25,31,0,0
195985,116583012,5,5796,5542,14.8,2.97,25,31,0,0
196431,116690745,5,5553,5785,14.74,3.54,25,31,0,0
196879,116803962,5,5785,5785,14.72,3.29,25,31,0,0
197330,116913607,5,5777,5571,14.75,3.2,25,32,0,0
197771,117021899,5,5572,5614,14.83,3.04,25,32,0,0
198178,117127327,5,5616,5742,14.81,3.43,25,32,0,0
198624,117235127,5,5740,5685,14.79,3.45,25,32,0,0
199070,117346094,5,5685,5685,14.71,3.14,25,32,0,0
199553,117460764,5,5695,5800,14.75,3.54,25,32,0,0
199960,117563374,5,5803,5885,14.76,3.63,25,32,0,0
200409,117671448,5,5880,5785,14.72,3.52,25,32,0,0
200821,117780178,5,5788,5857,14.72,3.54,25,32,0,0
201314,117901918,5,5862,5914,14.77,3.71,25,32,0,0
202201,118119980,5,5922,6014,14.71,3.75,25,33,0,0
203062,118329967,5,6009,5885,14.72,4.11,25,33,0,0
203501,118439467,5,5885,5885,14.72,4.06,26,33,0,0
203906,118542992,5,5888,6071,14.73,4.22,25,33,0,0
204397,118660779,5,6055,5914,14.67,3.77,25,33,0,0
204872,118775443,5,5914,5928,14.81,3.61,25,33,0,0
205323,118886785,5,5941,6042,14.7,4.74,25,34,0,0
206180,119103906,5,6050,6171,14.66,4.7,25,34,0,0
206585,119201430,5,6173,6314,14.62,4.55,25,34,0,0
207036,119311338,5,6305,6200,14.7,4.12,26,34,0,0
207925,119531964,5,6200,6200,14.75,3.88,25,34,0,0
208816,119754566,5,6186,5942,14.67,3.7,26,34,0,0
209225,119855527,5,5941,5914,14.73,4,25,35,0,0
209717,119977403,5,5915,5928,14.7,3.87,25,35,0,0
210600,120183779,5,5927,5871,14.71,4,25,35,0,0
211052,120297078,5,5877,6014,14.63,4.32,26,35,0,0
211498,120409337,5,6022,6085,14.7,4.06,26,35,0,0
211952,120520978,5,6069,5914,14.79,3.57,26,35,0,0
212356,120623381,5,5904,5714,14.72,3.53,26,35,0,0
212809,120735983,5,5717,5771,14.76,3.93,26,36,0,0
213259,120845198,5,5787,6028,14.69,4.01,26,36,0,0
213707,120956221,5,6015,5871,14.7,3.96,25,36,0,0
214157,121065095,5,5876,5957,14.66,3.91,26,36,0,0
214599,121173139,5,5960,6000,14.72,3.75,26,36,0,0
215054,121283249,5,6008,6100,14.73,3.94,26,36,0,0
215489,121386610,5,6104,6200,14.65,4.34,26,36,0,0
215940,121497936,5,6193,6114,14.73,3.88,26,36,0,0
216345,121604018,5,6115,6128,14.67,3.65,26,37,0,0
217238,121822866,5,6119,5928,14.69,3.49,26,37,0,0
217692,121938565,5,5921,5857,14.66,3.9,26,37,0,0
218140,122048350,5,5857,5857,14.74,3.7,26,37,0,0
218584,122160366,5,5862,5914,14.78,3.41,26,37,0,0
219035,122268896,5,5912,5900,14.75,3.5,26,37,0,0
219441,122370563,5,5898,5785,14.77,3.45,26,37,0,0
219924,122482592,5,5794,5914,14.77,3.39,26,37,0,0
220326,122586735,5,5903,5700,14.73,3.26,26,37,0,0
220777,122698747,5,5703,5785,14.82,2.86,26,38,0,0
221231,122811864,5,5775,5585,14.8,2.62,26,38,0,0
221686,122922197,5,5569,5414,14.7,2.92,26,38,0,0
222092,123027561,5,5420,5500,14.76,3.19,26,38,0,0
222536,123139227,5,5508,5628,14.69,3.39,26,38,0,0
223796,123458341,5,5629,5771,14.69,3.45,26,38,0,0
224242,123569190,5,5771,5771,14.74,3.42,26,38,0,0
224725,123680893,5,5771,5785,14.63,3.54,26,38,0,0
225131,123785069,5,5786,5900,14.73,3.65,26,39,0,0
225620,123902110,5,5897,5871,14.77,3.62,26,39,0,0
226024,124004123,5,5871,5914,14.71,3.29,26,39,0,0
226508,124115221,5,5918,6000,14.75,3.64,26,39,0,0
226960,124230411,5,5993,5928,14.64,3.92,26,39,0,0
227357,124328659,5,5927,5914,14.64,4,26,39,0,0
227809,124439967,5,5917,5971,14.71,3.76,26,39,0,0
228252,124551075,5,5979,6100,14.74,3.86,26,39,0,0
228699,124658361,5,6089,5928,14.69,3.77,26,40,0,0
229104,124762868,5,5928,5942,14.67,3.9,26,40,0,0
229559,124877407,5,5947,6028,14.72,3.97,26,40,0,0
230008,124989936,5,6011,5828,14.7,3.81,26,40,0,0
230455,125097225,5,5840,6042,14.73,3.82,26,40,0,0
230861,125201161,5,6040,5942,14.73,3.94,26,40,0,0
231799,125430149,5,5946,6057,14.68,4.19,26,40,0,0
232205,125530043,5,6045,5828,14.66,4.09,26,40,0,0
232647,125642745,5,5831,5885,14.69,3.79,26,41,0,0
233094,125756212,5,5882,5857,14.66,4.15,26,41,0,0
233545,125862849,5,5858,5871,14.69,3.85,26,41,0,0
233992,125979677,5,5852,5742,14.71,3.55,26,41,0,0
234848,126187915,5,5739,5685,14.69,3.74,26,41,0,0
235293,126298381,5,5685,5685,14.67,3.87,26,41,0,0
235699,126404240,5,5695,5785,14.66,4.02,26,41,0,0
236106,126500340,5,5787,5900,14.65,3.94,26,41,0,0
236588,126624029,5,5896,5871,14.66,3.89,26,42,0,0
237004,126729364,5,5877,5971,14.64,4.15,26,42,0,0
237448,126838662,5,5953,5814,14.61,4.12,26,42,0,0
237895,126946976,5,5825,5914,14.66,3.99,26,42,0,0
238749,127151977,5,5915,6028,14.64,4.36,26,42,0,0
239650,127377209,5,6035,6214,14.56,4.78,26,43,0,0
240092,127484425,5,6232,6385,14.61,4.88,26,43,0,0
240502,127585165,5,6383,6357,14.66,4.83,26,43,0,0
240948,127694333,5,6349,6257,14.67,4.78,26,43,0,0
241396,127811919,5,6266,6371,14.61,4.84,26,43,0,0
241833,127911101,5,6366,6314,14.65,4.56,26,43,0,0
242243,128010577,5,6314,6342,14.63,4.63,26,43,0,0
242687,128123169,5,6325,6142,14.69,4.21,26,43,0,0
243133,128234886,5,6137,6100,14.67,4.36,26,44,0,0
243580,128347566,5,6105,6157,14.64,4.6,26,44,0,0
244423,128551963,5,6157,6214,14.68,4.25,26,44,0,0
244877,128666687,5,6208,6085,14.65,4.02,26,44,0,0
245277,128768159,5,6082,5871,14.65,4.04,26,44,0,0
245768,128885914,5,5877,6071,14.66,3.85,26,44,0,0
246216,128995589,5,6071,6071,14.69,4.01,26,45,0,0
247103,129213250,5,6056,5785,14.74,3.25,26,45,0,0
247507,129312314,5,5786,5871,14.7,3.51,26,45,0,0
247994,129432362,5,5869,5857,14.65,3.45,26,45,0,0
248395,129527881,5,5854,5757,14.74,3.31,26,45,0,0
248841,129639394,5,5760,5857,14.64,3.67,26,45,0,0
250176,129969924,5,5857,5885,14.7,3.41,26,45,0,0
250627,130082599,5,5866,5671,14.66,3.38,26,46,0,0
251032,130185367,5,5673,5771,14.76,3.25,26,46,0,0
251483,130296553,5,5768,5728,14.75,3.46,26,46,0,0
251937,130411550,5,5730,5757,14.62,3.82,26,46,0,0
252381,130518421,5,5762,5842,14.69,3.61,26,46,0,0
252787,130624443,5,5847,5900,14.73,3.46,26,46,0,0
253237,130735430,5,5887,5742,14.7,3.54,26,46,0,0
253640,130836191,5,5744,5828,14.69,3.45,26,46,0,0
254089,130948583,5,5827,5814,14.73,3.38,26,46,0,0
254538,131058071,5,5807,5685,14.72,3.12,26,47,0,0
254983,131169608,5,5681,5628,14.69,3.27,26,47,0,0
255433,131280126,5,5614,5485,14.74,2.81,26,47,0,0
255835,131382766,5,5482,5300,14.72,2.57,26,47,0,0
257211,131711548,5,5301,5400,14.66,2.95,26,47,0,0
257655,131821938,5,5398,5371,14.75,2.84,26,47,0,0
258143,131935045,5,5374,5414,14.72,3.05,26,47,0,0
258543,132038424,5,5421,5585,14.69,3.1,26,47,0,0
259040,132162911,5,5582,5557,14.69,3.11,26,47,0,0
259397,132254352,5,5556,5542,14.64,3.23,26,48,0,0
259884,132371342,5,5542,5557,14.75,3.11,26,48,0,0
260330,132480889,5,5540,5385,14.72,2.9,26,48,0,0
260780,132591547,5,5392,5471,14.72,3.36,26,48,0,0
261626,132801126,5,5472,5642,14.75,3.12,26,48,0,0
262120,132917722,5,5641,5614,14.77,3.18,26,48,0,0
262560,133024192,5,5620,5700,14.67,3.53,26,48,0,0
263007,133137092,5,5705,5771,14.66,3.63,26,48,0,0
263406,133232182,5,5769,5742,14.68,3.55,26,48,0,0
263901,133355242,5,5727,5557,14.76,3.21,26,49,0,0
264342,133458387,5,5578,5800,14.7,4.32,26,49,0,0
264744,133560173,5,5791,5614,14.66,3.25,26,49,0,0
265196,133670402,5,5610,5528,14.69,2.92,26,49,0,0
265641,133782097,5,5524,5428,14.73,3.01,26,49,0,0
266088,133888197,5,5430,5500,14.7,3.14,26,49,0,0
266537,134002377,5,5508,5585,14.62,3.17,26,49,0,0
266940,134100986,5,5586,5671,14.69,3.59,26,49,0,0
267382,134210637,5,5678,5828,14.72,3.97,26,49,0,0
268276,134431544,5,5830,5914,14.64,4.26,26,49,0,0
268725,134544938,5,5924,6085,14.61,4.24,26,50,0,0
269614,134760366,5,6090,6257,14.6,4.16,26,50,0,0
270064,134870598,5,6253,6200,14.68,4.2,26,50,0,0
270469,134976150,5,6200,6228,14.44,4.9,26,50,0,0
270918,135085373,5,6226,6157,14.61,4.37,26,50,0,0
271398,135200004,5,6168,6385,14.58,4.79,26,50,0,0
271845,135307583,5,6380,6314,14.65,4.85,26,51,0,0
272290,135419241,5,6306,6242,14.66,4.41,26,51,0,0
272734,135523924,5,6245,6300,14.54,4.92,26,51,0,0
273180,135633559,5,6295,6228,14.6,4.32,26,51,0,0
273621,135749910,5,6217,6128,14.61,4.5,26,51,0,0
274032,135844228,5,6128,6128,14.63,4.37,26,51,0,0
274551,135971174,5,6149,6342,14.65,4.27,26,51,0,0
274962,136071378,5,6318,6057,14.59,4.01,26,52,0,0
275408,136183249,5,6061,6100,14.63,4.68,26,52,0,0
275859,136295556,5,6101,6114,14.63,4.08,26,52,0,0
276747,136516352,5,6114,6128,14.61,3.9,26,52,0,0
277179,136621411,5,6106,5985,14.66,3.79,26,52,0,0
277591,136726849,5,5983,5957,14.63,4.1,26,52,0,0
278516,136952408,5,5965,6100,14.65,3.89,26,53,0,0
278927,137058599,5,6080,5957,14.61,3.84,26,53,0,0
279373,137165856,5,5964,6100,14.57,4.1,26,53,0,0
279824,137275895,5,6089,6000,14.62,3.62,26,53,0,0
280268,137388916,5,5995,5928,14.68,3.89,26,53,0,0
280715,137493042,5,5933,6042,14.61,3.61,26,53,0,0
281118,137597444,5,6044,6085,14.61,3.9,26,53,0,0
281527,137704349,5,6083,6028,14.7,3.62,26,53,0,0
282021,137822414,5,6002,5728,14.72,3.14,26,53,0,0
282875,138037206,5,5725,5685,14.71,3.21,26,54,0,0
283318,138145948,5,5686,5700,14.65,3.45,26,54,0,0
283766,138252053,5,5712,5857,14.64,3.6,26,54,0,0
284172,138354177,5,5852,5771,14.74,3.46,26,54,0,0
284617,138464619,5,5784,5985,14.67,3.64,26,54,0,0
285017,138569411,5,5974,5785,14.64,3.52,26,54,0,0
285499,138680067,5,5783,5757,14.67,3.14,26,54,0,0
285959,138798980,5,5774,5957,14.7,3.53,27,54,0,0
286408,138911543,5,5947,5857,14.67,3.62,26,54,0,0
286808,139010989,5,5864,5971,14.56,3.72,27,55,0,0
287263,139120917,5,5964,5885,14.64,3.84,26,55,0,0
287708,139234240,5,5877,5828,14.64,3.62,27,55,0,0
288149,139341216,5,5829,5871,14.57,3.6,26,55,0,0
288598,139450390,5,5884,6000,14.54,3.81,27,55,0,0
288998,139552417,5,6004,6057,14.55,4.71,26,55,0,0
289410,139657198,5,6057,6100,14.58,4.46,27,55,0,0
289889,139771247,5,6106,6200,14.56,4.12,26,55,0,0
290340,139884107,5,6206,6271,14.59,4.03,27,56,0,0
290741,139983178,5,6245,5928,14.66,3.83,26,56,0,0
291609,140204319,5,5930,6014,14.6,3.79,26,56,0,0
292496,140419644,5,6014,6042,14.58,4.11,26,56,0,0
293380,140636358,5,6040,5942,14.66,3.98,26,56,0,0
293830,140751133,5,5952,6057,14.61,3.78,26,57,0,0
294278,140859608,5,6048,5971,14.58,3.98,26,57,0,0
294676,140956776,5,5971,6014,14.63,3.87,27,57,0,0
295125,141066175,5,6017,6100,14.68,3.53,26,57,0,0
295609,141181418,5,6088,5928,14.63,3.66,26,57,0,0
296055,141289873,5,5922,5842,14.61,3.74,26,57,0,0
296499,141400449,5,5831,5728,14.71,3.33,27,57,0,0
297343,141608391,5,5728,5757,14.67,3.89,27,57,0,0
297790,141721352,5,5758,5771,14.76,3.07,26,57,0,0
298198,141821901,5,5771,5771,14.79,3.84,26,58,0,0
298649,141930468,5,5763,5614,14.72,2.94,26,58,0,0
299089,142040648,5,5612,5571,14.72,3.08,26,58,0,0
299497,142144454,5,5572,5671,14.79,2.93,26,58,0,0
299989,142261192,5,5648,5414,14.75,2.95,26,58,0,0
300392,142362178,5,5413,5385,14.73,2.67,26,58,0,0
300840,142471006,5,5387,5542,14.76,2.98,27,58,0,0
301326,142590914,5,5554,5685,14.8,3.04,26,58,0,0
301771,142696677,5,5684,5671,14.7,2.67,26,58,0,0
302174,142801330,5,5653,5442,14.76,2.73,27,58,0,0
302629,142913429,5,5438,5400,14.76,2.74,26,58,0,0
303033,143017988,5,5408,5528,14.75,2.77,26,58,0,0
303926,143236372,5,5535,5757,14.7,3.39,26,59,0,0
304777,143450821,5,5756,5728,14.63,3.41,26,59,0,0
305224,143564316,5,5733,5814,14.72,3.13,26,59,0,0
305678,143674000,5,5801,5671,14.63,3,26,59,0,0
306077,143777779,5,5674,5714,14.63,3.84,26,59,0,0
306523,143884642,5,5733,5985,14.6,4.03,26,59,0,0
306927,143988119,5,5984,5971,14.65,3.7,26,59,0,0
307381,144098885,5,5978,6100,14.6,3.94,26,60,0,0
307864,144213225,5,6084,5928,14.63,3.76,26,60,0,0
308268,144314615,5,5928,5971,14.65,3.79,26,60,0,0
308721,144428544,5,5980,6071,14.64,3.93,26,60,0,0
309121,144533342,5,6070,6057,14.62,3.92,26,60,0,0
309578,144645458,5,6052,6014,14.65,3.48,26,60,0,0
309977,144747476,5,6011,5828,14.66,3.55,26,60,0,0
310430,144857145,5,5829,5914,14.69,3.76,26,60,0,0
310872,144966330,5,5916,6057,14.66,3.75,26,60,0,0
311322,145074244,5,6058,6114,14.69,3.73,26,61,0,0
311764,145181980,5,6101,5857,14.72,3.62,26,61,0,0
312216,145294055,5,5861,5928,14.61,3.41,26,61,0,0
312662,145402555,5,5932,5985,14.63,3.73,27,61,0,0
313120,145515572,5,5971,5828,14.6,3.81,26,61,0,0
313554,145620932,5,5834,5985,14.65,4.13,26,61,0,0
313999,145725094,5,5988,6071,14.65,3.96,26,61,0,0
314445,145837369,5,6067,5985,14.61,3.89,26,61,0,0
314849,145941962,5,5985,6014,14.63,4,26,62,0,0
315603,146164109,5,6091,5971,14.6,4.12,26,62,0,0
316051,146273160,5,5971,6042,14.69,4.18,26,62,0,0
316493,146382784,5,6042,6057,14.67,4.01,26,62,0,0
316982,146498144,5,6049,5942,14.6,4.94,26,62,0,0
317430,146608886,5,5960,6242,14.61,4.94,26,62,0,0
317880,146722372,5,6240,6228,14.65,4.75,27,62,0,0
318280,146818552,5,6230,6414,14.64,5.07,26,63,0,0
318759,146931405,5,6427,6571,14.63,5.23,26,63,0,0
319213,147042188,5,6564,6500,14.6,5.04,26,63,0,0
319620,147148187,5,6483,6285,14.63,4.33,26,63,0,0
320029,147251431,5,6281,6214,14.57,4.54,26,63,0,0
320965,147484538,5,6209,6114,14.72,4.17,27,63,0,0
321367,147587437,5,6104,6028,14.73,3.52,26,64,0,0
321817,147695639,5,6021,5971,14.61,4.38,27,64,0,0
322260,147807141,5,5990,6185,14.64,4.21,26,64,0,0
322707,147918032,5,6141,5885,14.72,4.13,27,64,0,0
323152,148023249,5,5905,6114,14.67,4.47,27,64,0,0
323599,148132242,5,6115,6128,14.67,4.29,27,64,0,0
324043,148245186,5,6132,6185,14.64,4.46,27,64,0,0
324484,148353355,5,6168,5942,14.63,3.94,27,64,0,0
324933,148462988,5,5942,5957,14.67,3.87,27,65,0,0
325382,148574532,5,5972,6142,14.55,4.68,27,65,0,0
325832,148683449,5,6143,6157,14.63,4.45,27,65,0,0
326239,148787626,5,6162,6228,14.58,4.34,27,65,0,0
326690,148900721,5,6203,5985,14.6,4.08,27,65,0,0
327095,149003947,5,5987,6028,14.6,4.35,27,65,0,0
327545,149113609,5,6018,5885,14.6,4.11,27,65,0,0
327989,149223943,5,5892,5971,14.58,4.17,27,65,0,0
328433,149333469,5,5981,6100,14.61,4.06,27,66,0,0
329316,149545581,5,6095,6000,14.64,3.73,27,66,0,0
329767,149656236,5,5989,5885,14.64,3.48,27,66,0,0
330217,149770537,5,5869,5700,14.61,3.12,27,66,0,0
330616,149867143,5,5697,5542,14.67,2.72,27,66,0,0
331062,149978889,5,5540,5514,14.62,3.21,27,66,0,0
331509,150086903,5,5523,5728,14.57,3.75,27,66,0,0
331957,150200114,5,5736,5871,14.64,4.04,27,66,0,0
332403,150307681,5,5881,6085,14.6,3.91,27,67,0,0
332849,150420967,5,6086,6100,14.63,3.78,27,67,0,0
333259,150522192,5,6097,5971,14.65,4.03,27,67,0,0
333705,150636005,5,5981,6242,14.65,4.31,27,67,0,0
334186,150751868,5,6233,6128,14.6,4.09,27,67,0,0
334601,150856409,5,6125,6100,14.57,4.01,27,67,0,0
335039,150962237,5,6095,6000,14.68,3.77,27,67,0,0
335492,151072387,5,5995,5885,14.6,3.77,27,67,0,0
335940,151185379,5,5870,5728,14.68,3.32,27,68,0,0
336388,151293986,5,5723,5657,14.72,3.07,27,68,0,0
336791,151396088,5,5653,5571,14.79,2.69,27,68,0,0
337244,151509001,5,5566,5457,14.82,2.61,27,68,0,0
337645,151609871,5,5451,5200,14.83,2.41,27,68,0,0
338094,151718330,5,5199,5185,14.72,2.57,27,68,0,0
338539,151831413,5,5172,4985,14.75,2.29,27,68,0,0
339031,151948888,5,4986,5000,14.75,2.65,27,68,0,0
339431,152044597,5,5002,5042,14.75,2.53,27,68,0,0
339874,152155566,5,5046,5114,14.72,2.34,27,68,0,0
340323,152263962,5,5103,5000,14.72,2.71,27,68,0,0
340726,152366155,5,5000,5028,14.73,2.61,27,68,0,0
341174,152475542,5,5025,4971,14.72,2.6,27,68,0,0
341616,152584243,5,4974,5114,14.72,2.57,27,69,0,0
342112,152704638,5,5102,4985,14.64,2.75,27,69,0,0
342556,152814338,5,5001,5185,14.7,2.47,27,69,0,0
342961,152913013,5,5182,5128,14.75,2.78,27,69,0,0
343859,153139874,5,5136,5328,14.69,3.08,27,69,0,0
344266,153240595,5,5327,5314,14.68,3.19,27,69,0,0
344751,153354350,5,5319,5400,14.71,3.21,27,69,0,0
345602,153561232,5,5399,5385,14.65,3,27,69,0,0
346051,153669773,5,5389,5542,14.72,3.14,27,69,0,0
346459,153778959,5,5539,5414,14.67,3.17,27,70,0,0
346946,153893603,5,5416,5442,14.69,3.19,27,70,0,0
347358,153998227,5,5444,5485,14.71,3.2,27,70,0,0
347809,154107001,5,5479,5400,14.7,3.1,27,70,0,0
348252,154215007,5,5409,5585,14.71,3.45,27,70,0,0
348701,154325447,5,5575,5471,14.74,2.93,27,70,0,0
349146,154433170,5,5471,5471,14.61,3.02,27,70,0,0
349553,154535875,5,5469,5385,14.7,2.87,27,70,0,0
350035,154647734,5,5379,5300,14.72,3.05,27,70,0,0
350442,154753590,5,5302,5442,14.72,3.52,27,70,0,0
350932,154870378,5,5455,5600,14.63,3.61,27,70,0,0
351375,154979394,5,5597,5571,14.59,3.53,27,71,0,0
351827,155091115,5,5575,5628,14.67,3.16,27,71,0,0
352274,155200914,5,5628,5628,14.67,3.07,27,71,0,0
352678,155300535,5,5630,5671,14.68,3.45,27,71,0,0
353123,155412012,5,5667,5628,14.69,3.19,27,71,0,0
353575,155526896,5,5620,5571,14.65,3.3,27,71,0,0
354020,155633043,5,5579,5671,14.69,3.28,27,71,0,0
354462,155744379,5,5671,5671,14.66,3.26,27,71,0,0
354873,155841776,5,5671,5685,14.57,3.66,27,71,0,0
355317,155956185,5,5707,5914,14.62,3.71,27,72,0,0
355805,156064978,5,5909,5857,14.58,3.78,27,72,0,0
356249,156177341,5,5860,5885,14.55,3.83,27,72,0,0
356659,156274955,5,5888,5971,14.6,3.99,27,72,0,0
357097,156384324,5,5975,6057,14.64,3.78,27,72,0,0
357549,156494543,5,6047,5957,14.63,3.87,27,72,0,0
357996,156610964,5,5944,5842,14.61,3.91,27,72,0,0
358447,156726777,5,5853,5942,14.61,3.81,27,72,0,0
358886,156825405,5,5942,5942,14.66,3.42,27,72,0,0
359335,156943060,5,5911,5700,14.74,3.19,27,73,0,0
359699,157033046,5,5697,5542,14.69,3.23,27,73,0,0
360146,157141964,5,5543,5628,14.72,3.28,27,73,0,0
360637,157260312,5,5643,5814,14.67,3.25,27,73,0,0
361075,157365390,5,5801,5685,14.69,3.12,27,73,0,0
361566,157480630,5,5683,5671,14.67,3.27,27,73,0,0
361966,157582975,5,5677,5742,14.66,3.34,27,73,0,0
362857,157801559,5,5742,5757,14.64,3.63,27,73,0,0
363302,157906866,5,5759,5785,14.63,3.69,27,73,0,0
363750,158017059,5,5782,5742,14.68,3.54,27,74,0,0
364153,158121918,5,5749,5942,14.59,3.68,27,74,0,0
364599,158228629,5,5940,5814,14.63,3.74,27,74,0,0
365042,158338857,5,5814,5885,14.67,3.44,27,74,0,0
365487,158447436,5,5884,5814,14.69,3.68,27,74,0,0
365933,158557078,5,5822,6000,14.69,3.58,27,74,0,0
366426,158676240,5,6004,6071,14.66,3.68,27,74,0,0
366832,158780576,5,6064,5942,14.63,3.84,27,74,0,0
367283,158891921,5,5939,5900,14.64,3.56,27,74,0,0
367727,158997992,5,5893,5757,14.67,3.61,27,74,0,0
368215,159114360,5,5758,5785,14.67,3.57,27,75,0,0
368615,159215553,5,5786,5828,14.6,3.43,27,75,0,0
369069,159335241,5,5797,5600,14.65,3.46,27,75,0,0
369917,159540735,5,5601,5771,14.61,3.51,27,75,0,0
370404,159655972,5,5774,5814,14.67,3.44,27,75,0,0
370854,159768387,5,5802,5685,14.58,3.49,27,75,0,0
371299,159874975,5,5698,5885,14.61,3.73,27,75,0,0
371750,159986006,5,5891,5957,14.62,3.51,27,75,0,0
372600,160196985,5,5953,5800,14.63,3.54,27,76,0,0
373094,160315982,5,5804,5857,14.67,3.42,27,76,0,0
373528,160418562,5,5857,5857,14.65,3.48,27,76,0,0
374387,160631419,5,5855,5700,14.65,3.45,27,76,0,0
374868,160747080,5,5701,5728,14.64,3.41,27,76,0,0
375322,160855984,5,5713,5571,14.67,3.27,27,76,0,0
375770,160967588,5,5584,5728,14.61,3.67,27,76,0,0
376171,161066339,5,5729,5757,14.57,3.73,27,77,0,0
376616,161176038,5,5758,5857,14.62,3.87,27,77,0,0
377106,161290328,5,5864,5971,14.63,3.83,27,77,0,0
377550,161398988,5,5966,5900,14.69,3.68,27,77,0,0
378001,161507545,5,5901,5928,14.61,3.87,27,77,0,0
378444,161615540,5,5931,5985,14.63,4.03,27,77,0,0
378897,161727924,5,5992,6057,14.72,3.82,27,77,0,0
379338,161837544,5,6048,5957,14.7,3.67,27,77,0,0
380228,162053866,5,5951,5800,14.64,3.35,27,78,0,0
380674,162166246,5,5795,5728,14.75,3.37,27,78,0,0
381126,162276226,5,5730,5757,14.73,3.16,27,78,0,0
381530,162382629,5,5752,5428,14.74,2.78,27,78,0,0
382020,162498008,5,5445,5628,14.75,3.2,27,78,0,0
382429,162604383,5,5620,5542,14.72,3.25,27,78,0,0
382878,162713354,5,5545,5585,14.75,2.77,27,78,0,0
383319,162821461,5,5562,5042,15.17,0.9399999999999999,27,78,0,0
383766,162928037,5,5021,4071,14.82,1.21,27,78,0,0
384215,163037946,5,4073,4100,15.23,1.33,27,78,0,0
384661,163154193,5,4102,4128,15.11,1.18,27,78,0,0
385067,163251242,5,4119,3600,15.18,0.77,27,78,0,0
385512,163364204,5,3564,3014,15.22,0.26,27,78,0,0
385959,163470785,5,2994,2571,15.14,0.24,27,78,0,0
386403,163587449,5,2563,2500,15.14,0.39,27,78,0,0
386728,163694118,5,2496,2471,15.16,0.27,27,78,0,0
387574,163898950,5,2470,2442,15.14,0.36,26,78,0,0
388063,164021233,5,2444,2471,15.16,0.37,27,78,0,0
388508,164128074,5,2472,2485,15.16,0.35,26,78,0,0
388911,164225378,5,2485,2500,15.16,0.38,27,78,0,0
389352,164337401,5,2501,2585,15.18,0.41,27,78,0,0
389842,164458333,5,2583,2571,15.19,0.38,27,78,0,0
390279,164560432,5,2575,2614,15.16,0.39,26,78,0,0
390690,164662956,5,2613,2600,15.16,0.45,26,78,0,0
391136,164772363,5,2602,2700,15.19,0.51,26,79,0,0
391584,164882353,5,2700,2757,15.17,0.49,26,79,0,0
392070,164995190,5,2759,2800,15.2,0.5,26,79,0,0
392518,165102552,5,2798,2785,15.17,0.43,26,79,0,0
392921,165207369,5,2727,2042,15.27,0.03,26,79,0,0
393370,165310429,5,2029,1500,15.26,0,26,79,0,0
393856,165427143,5,1486,1300,15.24,0.06,26,79,0,0
394303,165536667,5,1294,1242,15.25,0.09,26,79,0,0
394751,165644783,5,1241,1228,15.25,0.09,26,79,0,0
395195,165753155,5,1228,1228,15.25,0.09,26,79,0,0
395689,165867179,5,1228,1228,15.25,0.09,26,79,0,0
396091,165964184,5,1228,1228,15.25,0.09999999,26,79,0,0
396584,166081553,5,1228,1228,15.25,0.09999999,26,79,0,0
396988,166182567,5,1228,1228,15.25,0.09999999,26,79,0,0
397436,166288948,5,1228,1228,15.25,0.09999999,26,79,0,0
397930,166407934,5,1228,1228,15.26,0.09999999,26,79,0,0
398371,166511926,5,1229,1242,15.25,0.09999999,26,79,0,0
398818,166620593,5,1240,1228,15.25,0.09,26,79,0,0
399259,166725229,5,1228,1228,15.26,0.09,26,79,0,0
399709,166834394,5,1228,1228,15.26,0.09999999,26,79,0,0
400160,166945540,5,1228,1228,15.27,0.09999999,26,79,0,0
400611,167050599,5,1228,1228,15.26,0.09999999,26,79,0,0
401092,167162987,5,1228,1228,15.26,0.09999999,26,79,0,0
401946,167371112,5,1228,1228,15.27,0.09999999,26,79,0,0
402438,167485123,5,1228,1228,15.27,0.09999999,26,79,0,0
402882,167595915,5,1228,1228,15.26,0.09999999,26,79,0,0
403329,167697937,5,1228,1228,15.27,0.09999999,26,79,0,0
403776,167815248,5,1228,1228,15.28,0.09999999,26,79,0,0
404708,168030630,5,1228,1228,15.27,0.09999999,26,79,0,0
406450,168456364,5,1228,1228,15.28,0.09999999,26,79,0,0
406898,168570154,5,1228,1228,15.28,0.09999999,26,79,0,0
407387,168683889,5,1229,1242,15.28,0.09999999,26,79,0,0
407790,168784589,5,1242,1242,15.28,0.09999999,26,79,0,0
408241,168892147,5,1242,1242,15.29,0.09,26,79,0,0
408730,169008138,5,1240,1228,15.29,0.09999999,26,79,0,0
409180,169116162,5,1228,1228,15.29,0.09999999,26,79,0,0
409632,169228019,5,1228,1228,15.29,0.09999999,26,79,0,0
410077,169335342,5,1228,1228,15.29,0.09999999,26,79,0,0
410527,169442149,5,1228,1228,15.29,0.09999999,26,79,0,0
410972,169548970,5,1228,1228,15.29,0.09999999,26,79,0,0
411417,169654190,5,1228,1228,15.29,0.09999999,26,79,0,0
411857,169758785,5,1228,1228,15.3,0.09999999,26,79,0,0
412352,169874401,5,1229,1242,15.29,0.09999999,26,79,0,0
412756,169976411,5,1242,1242,15.29,0.09999999,26,79,0,0
413248,170090896,5,1242,1242,15.29,0.09999999,26,79,0,0
413692,170198415,5,1240,1228,15.3,0.09999999,26,79,0,0
414134,170298993,5,1228,1228,15.29,0.09999999,26,79,0,0
414582,170405662,5,1228,1228,15.3,0.09999999,26,79,0,0
415077,170526981,5,1229,1242,15.3,0.09999999,26,79,0,0
415516,170633241,5,1242,1242,15.31,0.09999999,26,79,0,0
415957,170740153,5,1242,1242,15.3,0.09999999,26,79,0,0
416410,170852673,5,1240,1228,15.3,0.09,26,79,0,0
416805,170963491,5,1228,1228,15.3,0.09999999,26,79,0,0
417217,171059561,5,1228,1228,15.3,0.09999999,26,79,0,0
417698,171176557,5,1228,1228,15.3,0.09999999,26,79,0,0
418146,171284208,5,1228,1228,15.3,0.09999999,26,79,0,0
419006,171490708,5,1228,1228,15.31,0.09999999,26,79,0,0
419488,171608105,5,1228,1228,15.32,0.09999999,26,79,0,0
420373,171819506,5,1228,1228,15.31,0.09999999,26,79,0,0
420824,171926738,5,1228,1228,15.31,0.09999999,25,79,0,0
421271,172037963,5,1228,1228,15.3,0.09999999,26,79,0,0
421723,172151362,5,1228,1228,15.3,0.09999999,26,79,0,0
422167,172254879,5,1228,1228,15.31,0.09999999,25,79,0,0
422651,172367951,5,1228,1228,15.32,0.09999999,26,79,0,0
423101,172477341,5,1228,1228,15.32,0.09999999,25,79,0,0
423504,172579193,5,1228,1242,15.32,0.09999999,25,79,0,0
423949,172682923,5,1242,1242,15.32,0.09999999,25,79,0,0
424390,172790865,5,1242,1242,15.33,0.09999999,25,79,0,0
424847,172902956,5,1242,1242,15.32,0.09999999,25,79,0,0
425293,173012456,5,1242,1242,15.32,0.09999999,25,79,0,0
425743,173122431,5,1242,1242,15.32,0.09999999,25,79,0,0
426196,173231482,5,1242,1242,15.32,0.09999999,25,79,0,0
426643,173336102,5,1241,1228,15.32,0.09999999,25,79,0,0
427089,173441381,5,1228,1228,15.33,0.09999999,25,79,0,0
427529,173546467,5,1228,1228,15.32,0.09999999,25,79,0,0
428017,173662246,5,1228,1228,15.33,0.11,25,79,0,0
428458,173767488,5,1228,1242,15.33,0.11,25,79,0,0
428906,173872652,5,1241,1228,15.33,0.09999999,25,79,0,0
429358,173985601,5,1228,1228,15.33,0.09999999,25,79,0,0
429806,174092390,5,1228,1228,15.33,0.09999999,25,79,0,0
430250,174199229,5,1228,1228,15.33,0.09999999,25,79,0,0
430734,174308242,5,1228,1228,15.33,0.09999999,25,79,0,0
431187,174420245,5,1228,1228,15.33,0.09999999,25,79,0,0
431635,174530923,5,1229,1242,15.33,0.09999999,25,79,0,0
432035,174625777,5,1242,1242,15.33,0.09999999,25,79,0,0
432479,174733341,5,1241,1228,15.33,0.09999999,25,79,0,0
432926,174837890,5,1228,1228,15.34,0.09999999,25,79,0,0
433406,174953609,5,1228,1242,15.34,0.09999999,25,79,0,0
433858,175063457,5,1242,1242,15.33,0.09999999,25,79,0,0
434312,175171628,5,1210,742,15.36,0.02,25,79,0,0
434765,175277884,5,716,257,15.35,0.01,25,79,0,0
435223,175388070,5,231,0,15.35,0.03,25,79,0,0
435674,175490877,5,0,0,15.35,0.03,25,79,0,0
436124,175599561,5,0,0,15.36,0.03,25,79,0,0
436621,175713157,5,0,0,15.35,0.04,25,79,0,0
437071,175817857,5,0,0,15.35,0.03,25,79,0,0
437565,175934615,5,0,0,15.36,0.03,25,79,0,0
438020,176041928,5,0,0,15.36,0.04,25,79,0,0
438467,176146153,5,0,0,15.36,0.04,25,79,0,0
438924,176255113,5,0,0,15.35,0.04,25,79,0,0
439385,176367437,5,0,0,15.36,0.04,25,79,0,0
439804,176471246,5,0,0,15.36,0.04,25,79,0,0
440297,176587429,5,0,0,15.36,0.04,25,79,0,0
440751,176693483,5,0,0,15.36,0.03,25,79,0,0
441160,176794004,5,0,0,15.36,0.04,25,79,0,0
441656,176909555,5,0,0,15.36,0.04,25,79,0,0
442067,177008899,5,0,0,15.36,0.04,25,79,0,0
442488,177113563,5,0,0,15.36,0.04,25,79,0,0
442977,177227156,5,0,0,15.36,0.04,25,79,0,0
443423,177331325,5,0,0,15.36,0.04,25,79,0,0
443880,177438497,5,0,0,15.36,0.04,25,79,0,0
444328,177548992,5,0,0,15.36,0.04,25,79,0,0
444824,177663800,5,0,0,15.36,0.04,25,79,0,0
445233,177764331,5,0,0,15.37,0.04,25,79,0,0
445733,177881936,5,0,0,15.36,0.04,25,79,0,0
446179,177989347,5,0,0,15.37,0.04,25,79,0,0
447084,178207190,5,0,0,15.36,0.04,25,79,0,0
447577,178323099,5,0,0,15.36,0.04,25,79,0,0
448034,178429017,5,0,0,15.37,0.04,25,79,0,0
448483,178538416,5,0,0,15.37,0.04,25,79,0,0
448936,178645057,5,0,0,15.37,0.04,25,79,0,0
449387,178753389,5,0,0,15.37,0.04,25,79,0,0
449840,178859369,5,0,0,15.36,0.04,25,79,0,0
450293,178971226,5,0,0,15.37,0.03,25,79,0,0
450788,179085396,5,0,0,15.36,0.04,25,79,0,0
451235,179190150,5,0,0,15.37,0.04,25,79,0,0
451691,179296624,5,0,0,15.37,0.04,25,79,0,0
452138,179404071,5,0,0,15.37,0.03,25,79,0,0
452636,179518436,5,0,0,15.37,0.03,25,79,0,0
453045,179620582,5,0,0,15.37,0.04,25,79,0,0
453993,179839916,5,0,0,15.38,0.04,25,79,0,0
454444,179947098,5,0,0,15.38,0.03,25,79,0,0
454896,180050317,5,0,0,15.37,0.04,25,79,0,0
455390,180168579,5,0,0,15.38,0.04,25,79,0,0
455845,180274353,5,0,0,15.38,0.04,25,79,0,0
456297,180381447,5,0,0,15.38,0.03,25,79,0,0
456752,180488888,5,0,0,15.38,0.03,25,79,0,0
457209,180602177,5,0,0,15.38,0.03,25,79,0,0
457660,180709173,5,0,0,15.38,0.03,25,79,0,0
458121,180821881,5,0,0,15.38,0.04,25,79,0,0
458576,180930441,5,0,0,15.38,0.04,25,79,0,0
459026,181039632,5,0,0,15.38,0.04,25,79,0,0
459435,181140180,5,0,0,15.38,0.04,25,79,0,0
459930,181255156,5,0,0,15.38,0.04,25,79,0,0
460391,181371160,5,0,0,15.38,0.04,25,79,0,0
460843,181475086,5,0,0,15.38,0.03,25,79,0,0
461293,181581197,5,0,0,15.38,0.03,25,79,0,0
461791,181697420,5,0,0,15.38,0.03,24,79,0,0
462245,181805440,5,0,0,15.39,0.04,25,79,0,0
462740,181921422,5,0,0,15.38,0.04,25,79,0,0
463188,182029700,5,0,0,15.38,0.04,25,79,0,0
463640,182140433,5,0,0,15.38,0.03,25,79,0,0
464091,182244610,5,0,0,15.38,0.03,25,79,0,0
464542,182351472,5,0,0,15.39,0.04,25,79,0,0
464994,182459241,5,0,0,15.38,0.03,25,79,0,0
465449,182574044,5,0,0,15.39,0.04,25,79,0,0
465911,182681444,5,0,0,15.38,0.04,24,79,0,0
466363,182790455,5,0,0,15.38,0.04,25,79,0,0
466858,182904047,5,0,0,15.39,0.04,24,79,0,0
