LineNo,TimeUS,Instance,RPM,RawRPM,Volt,Curr,Temp,CTot,MotTemp,Err
1720,5.6262e+07,1,0,0,15.61,0.05,23,0,0,0
2140,5.637e+07,1,0,0,15.61,0.05,23,0,0,0
2552,5.6474e+07,1,0,0,15.61,0.05,23,0,0,0
2970,5.658e+07,1,0,0,15.61,0.05,23,0,0,0
3381,5.6686e+07,1,0,0,15.61,0.05,23,0,0,0
3837,5.68e+07,1,0,0,15.61,0.04,23,0,0,0
4246,5.6904e+07,1,0,0,15.61,0.04,23,0,0,0
4657,5.7008e+07,1,0,0,15.61,0.04,23,0,0,0
5105,5.7122e+07,1,0,0,15.61,0.05,23,0,0,0
5515,5.7227e+07,1,0,0,15.61,0.05,23,0,0,0
5969,5.7341e+07,1,0,0,15.61,0.05,23,0,0,0
6383,5.7444e+07,1,0,0,15.6,0.05,23,0,0,0
6838,5.7559e+07,1,0,0,15.61,0.05,23,0,0,0
7255,5.7663e+07,1,0,0,15.61,0.05,23,0,0,0
7638,5.7762e+07,1,0,0,15.61,0.04,23,0,0,0
8053,5.7868e+07,1,0,0,15.61,0.04,23,0,0,0
9335,5.8192e+07,1,0,0,15.61,0.04,23,0,0,0
10196,5.8413e+07,1,0,0,15.61,0.05,23,0,0,0
10613,5.8521e+07,1,0,0,15.61,0.05,23,0,0,0
10898,5.8626e+07,1,0,0,15.61,0.05,23,0,0,0
11357,5.8739e+07,1,0,0,15.61,0.05,23,0,0,0
11767,5.8845e+07,1,0,0,15.61,0.05,23,0,0,0
12153,5.8947e+07,1,0,0,15.61,0.04,23,0,0,0
12606,5.906e+07,1,0,0,15.61,0.04,23,0,0,0
13058,5.9173e+07,1,0,0,15.61,0.04,23,0,0,0
13473,5.928e+07,1,0,0,15.61,0.04,23,0,0,0
13886,5.9384e+07,1,0,0,15.61,0.04,23,0,0,0
14336,5.9498e+07,1,0,0,15.61,0.04,23,0,0,0
14747,5.96e+07,1,0,0,15.61,0.04,23,0,0,0
15161,5.9704e+07,1,0,0,15.61,0.04,23,0,0,0
15615,5.9824e+07,1,0,0,15.61,0.04,23,0,0,0
16029,5.9927e+07,1,0,0,15.61,0.04,23,0,0,0
16483,6.0041e+07,1,0,0,15.61,0.04,23,0,0,0
16861,6.0139e+07,1,0,0,15.61,0.04,23,0,0,0
17316,6.0258e+07,1,0,0,15.61,0.04,23,0,0,0
17727,6.0361e+07,1,0,0,15.61,0.04,23,0,0,0
18175,6.0473e+07,1,0,0,15.61,0.04,23,0,0,0
18592,6.0581e+07,1,0,0,15.61,0.04,23,0,0,0
18967,6.0678e+07,1,0,0,15.61,0.04,23,0,0,0
19426,6.0793e+07,1,0,0,15.61,0.04,23,0,0,0
19837,6.0899e+07,1,0,0,15.61,0.04,23,0,0,0
20253,6.1005e+07,1,0,0,15.61,0.05,23,0,0,0
20662,6.1109e+07,1,0,0,15.61,0.05,23,0,0,0
54665,8.1868e+07,1,0,0,15.61,0.04,24,0,0,0
54872,8.1918e+07,1,0,0,15.61,0.04,24,0,0,0
55360,8.2029e+07,1,0,0,15.61,0.04,24,0,0,0
55815,8.2138e+07,1,0,0,15.6,0.04,24,0,0,0
56238,8.2239e+07,1,0,0,15.61,0.04,24,0,0,0
56725,8.2347e+07,1,0,0,15.61,0.04,24,0,0,0
57217,8.2459e+07,1,0,0,15.61,0.04,24,0,0,0
57669,8.2563e+07,1,0,0,15.6,0.04,24,0,0,0
58126,8.267e+07,1,0,0,15.61,0.04,24,0,0,0
58578,8.2777e+07,1,0,0,15.6,0.04,24,0,0,0
59083,8.2892e+07,1,0,0,15.61,0.04,24,0,0,0
59492,8.299e+07,1,0,0,15.61,0.04,24,0,0,0
59992,8.3104e+07,1,0,0,15.61,0.04,24,0,0,0
60478,8.3212e+07,1,0,0,15.61,0.04,24,0,0,0
60934,8.3318e+07,1,0,0,15.6,0.04,24,0,0,0
61383,8.3425e+07,1,0,0,15.61,0.04,24,0,0,0
61882,8.3543e+07,1,0,0,15.61,0.04,24,0,0,0
62335,8.3645e+07,1,0,0,15.61,0.04,24,0,0,0
63685,8.3959e+07,1,3,200,15.6,0.04,24,0,0,0
64188,8.4075e+07,1,215,457,15.59,0.07,24,0,0,0
64597,8.4173e+07,1,464,814,15.58,0.13,24,0,0,0
65095,8.4286e+07,1,825,1128,15.59,0.14,24,0,0,0
65585,8.4399e+07,1,1134,1200,15.59,0.12,24,0,0,0
66037,8.4502e+07,1,1202,1228,15.6,0.11,24,0,0,0
66530,8.4616e+07,1,1228,1242,15.59,0.11,24,0,0,0
66983,8.4722e+07,1,1243,1257,15.6,0.11,24,0,0,0
67435,8.4825e+07,1,1260,1328,15.56,0.17,24,0,0,0
67732,8.494e+07,1,1359,1700,15.41,0.38,24,0,0,0
68185,8.5045e+07,1,1751,2285,15.37,0.69,24,0,0,0
68597,8.5149e+07,1,2305,2771,15.29,1.69,25,0,0,0
69104,8.5266e+07,1,2801,3242,15.32,1.25,24,0,0,0
69550,8.5369e+07,1,3287,3900,15.19,1.97,24,0,0,0
69923,8.5471e+07,1,3910,4485,15.11,2.41,24,0,0,0
70422,8.5588e+07,1,4498,4842,14.94,2.88,24,0,0,0
70876,8.5693e+07,1,4883,5400,14.88,3.25,24,0,0,0
71329,8.5803e+07,1,5428,5800,14.92,3.23,24,0,0,0
71781,8.5908e+07,1,5793,5671,14.91,3.14,24,0,0,0
72275,8.6024e+07,1,5660,5557,14.95,2.66,24,0,0,0
72691,8.6129e+07,1,5555,5428,14.97,2.36,24,0,0,0
73143,8.6234e+07,1,5424,5271,15.01,2.29,25,1,0,0
73637,8.6351e+07,1,5254,5028,14.95,2.03,25,1,0,0
74091,8.6458e+07,1,5031,5085,14.96,2.1,25,1,0,0
74543,8.6568e+07,1,5084,5071,14.92,2.11,24,1,0,0
75037,8.6684e+07,1,5057,4928,15.01,1.77,25,1,0,0
75453,8.6788e+07,1,4920,4757,15.01,1.66,25,1,0,0
75905,8.6894e+07,1,4755,4685,14.98,1.78,25,1,0,0
76400,8.7013e+07,1,4691,4757,14.99,2.21,25,1,0,0
76851,8.7123e+07,1,4769,4885,14.96,1.91,25,1,0,0
77303,8.7231e+07,1,4892,4971,14.96,1.96,25,1,0,0
77757,8.7342e+07,1,4968,4942,14.95,2.01,25,1,0,0
78166,8.7436e+07,1,4941,4885,14.98,2.07,25,1,0,0
78658,8.7551e+07,1,4881,4828,14.98,1.89,25,1,0,0
79108,8.7656e+07,1,4826,4785,14.97,2,25,1,0,0
80008,8.7872e+07,1,4785,4785,14.96,1.72,25,1,0,0
80962,8.8099e+07,1,4791,4928,14.98,2.24,25,2,0,0
81380,8.8205e+07,1,4931,5000,14.95,2.27,25,2,0,0
81873,8.8322e+07,1,5003,5042,14.92,2.15,25,2,0,0
82318,8.8434e+07,1,5040,5028,14.97,1.96,25,2,0,0
82724,8.8538e+07,1,5029,5057,14.95,2.13,25,2,0,0
83172,8.8647e+07,1,5042,4842,14.92,2.18,25,2,0,0
83614,8.8755e+07,1,4858,5014,14.96,2.29,25,2,0,0
84066,8.8865e+07,1,5012,5000,14.97,2.16,25,2,0,0
84469,8.8967e+07,1,4995,4900,14.97,1.81,25,2,0,0
84962,8.9087e+07,1,4905,4957,14.83,2.18,25,2,0,0
85410,8.9199e+07,1,4955,4942,14.82,2.17,25,2,0,0
85858,8.9308e+07,1,4947,5028,14.87,2.16,25,2,0,0
86300,8.9416e+07,1,5028,5042,14.87,2,25,2,0,0
86749,8.9528e+07,1,5035,4971,14.84,2.18,25,2,0,0
87147,8.9624e+07,1,4971,5014,14.9,2.24,25,2,0,0
87639,8.9746e+07,1,5021,5100,14.92,2.08,25,2,0,0
88077,8.985e+07,1,5097,5071,14.92,2.19,25,3,0,0
88488,8.9955e+07,1,5068,5028,14.9,2.02,25,3,0,0
88940,9.0064e+07,1,5025,4985,14.88,1.99,25,3,0,0
89338,9.0164e+07,1,4980,4900,14.97,1.87,25,3,0,0
89786,9.0272e+07,1,4881,4628,14.94,1.6,25,3,0,0
90686,9.0492e+07,1,4621,4485,15.04,1.34,25,3,0,0
91138,9.0605e+07,1,4478,4385,14.97,1.35,25,3,0,0
91585,9.0709e+07,1,4390,4471,14.99,1.54,25,3,0,0
92034,9.0822e+07,1,4480,4614,15.02,1.63,25,3,0,0
92521,9.0938e+07,1,4623,4685,14.94,1.59,25,3,0,0
92926,9.1036e+07,1,4679,4557,14.99,1.24,25,3,0,0
93371,9.1149e+07,1,4552,4457,14.99,1.17,25,3,0,0
93820,9.1258e+07,1,4461,4528,14.99,1.48,25,3,0,0
94227,9.1364e+07,1,4528,4528,14.95,1.58,25,3,0,0
94681,9.1475e+07,1,4523,4485,14.96,1.45,25,3,0,0
95119,9.1581e+07,1,4488,4571,14.89,1.44,25,3,0,0
95570,9.1689e+07,1,4571,4571,14.93,1.89,25,3,0,0
96017,9.1799e+07,1,4578,4671,14.9,1.54,25,3,0,0
96911,9.2017e+07,1,4671,4671,14.9,1.52,25,4,0,0
97801,9.2236e+07,1,4668,4557,14.9,1.35,25,4,0,0
98249,9.2348e+07,1,4550,4457,14.88,1.44,25,4,0,0
98701,9.2457e+07,1,4458,4471,14.94,1.15,25,4,0,0
99146,9.2571e+07,1,4446,4271,14.89,1.3,25,4,0,0
99552,9.2667e+07,1,4275,4357,14.93,1.58,25,4,0,0
99994,9.2775e+07,1,4360,4428,14.91,1.38,25,4,0,0
1.0045e+05,9.2884e+07,1,4420,4257,14.92,1.43,25,4,0,0
1.009e+05,9.3e+07,1,4270,4400,14.92,1.23,25,4,0,0
1.013e+05,9.3099e+07,1,4399,4342,14.95,1.41,25,4,0,0
1.0175e+05,9.3214e+07,1,4349,4485,14.89,1.73,25,4,0,0
1.022e+05,9.3327e+07,1,4488,4514,14.88,1.67,25,4,0,0
1.0265e+05,9.3435e+07,1,4520,4614,14.88,1.59,25,4,0,0
1.0306e+05,9.3542e+07,1,4612,4600,14.92,1.49,25,4,0,0
1.0351e+05,9.3651e+07,1,4595,4528,14.88,1.51,25,4,0,0
1.044e+05,9.3872e+07,1,4527,4514,14.89,1.55,25,4,0,0
1.0488e+05,9.399e+07,1,4526,4614,14.89,1.81,25,4,0,0
1.053e+05,9.4091e+07,1,4628,4785,14.86,1.94,25,4,0,0
1.057e+05,9.4193e+07,1,4785,4842,14.83,2.24,25,4,0,0
1.0619e+05,9.4313e+07,1,4851,4914,14.86,1.97,25,4,0,0
1.0664e+05,9.4423e+07,1,4914,4914,14.85,1.69,25,5,0,0
1.0704e+05,9.4517e+07,1,4909,4614,14.9,1.22,25,5,0,0
1.0748e+05,9.4628e+07,1,4606,4471,14.91,1.33,25,5,0,0
1.0793e+05,9.4741e+07,1,4474,4514,14.87,1.75,25,5,0,0
1.0838e+05,9.4851e+07,1,4521,4585,14.83,1.72,25,5,0,0
1.0876e+05,9.4951e+07,1,4586,4671,14.79,1.85,25,5,0,0
1.0925e+05,9.5068e+07,1,4677,4742,14.85,2.1,25,5,0,0
1.0965e+05,9.5168e+07,1,4740,4685,14.88,1.3,25,5,0,0
1.1051e+05,9.5386e+07,1,4682,4485,14.89,1.39,25,5,0,0
1.1096e+05,9.5497e+07,1,4483,4371,14.83,1.53,25,5,0,0
1.114e+05,9.5607e+07,1,4381,4600,14.8,1.73,25,5,0,0
1.1186e+05,9.5722e+07,1,4589,4500,14.84,1.5,25,5,0,0
1.1234e+05,9.5834e+07,1,4492,4414,14.89,1.4,25,5,0,0
1.1279e+05,9.5944e+07,1,4412,4400,14.87,1.53,25,5,0,0
1.132e+05,9.6045e+07,1,4403,4485,14.79,1.59,25,5,0,0
1.1364e+05,9.6157e+07,1,4489,4557,14.85,1.71,25,5,0,0
1.1498e+05,9.6486e+07,1,4562,4814,14.85,2.21,25,5,0,0
1.1543e+05,9.6597e+07,1,4827,4957,14.85,2.02,25,6,0,0
1.1588e+05,9.6705e+07,1,4945,4828,14.86,1.71,25,6,0,0
1.1628e+05,9.6806e+07,1,4825,4685,14.86,1.67,25,6,0,0
1.1678e+05,9.6927e+07,1,4671,4571,14.86,1.32,25,6,0,0
1.1717e+05,9.7024e+07,1,4568,4457,14.88,1.5,25,6,0,0
1.1766e+05,9.7143e+07,1,4445,4328,14.91,1.13,25,6,0,0
1.1807e+05,9.7244e+07,1,4322,4071,14.97,1.03,25,6,0,0
1.1851e+05,9.7351e+07,1,4070,4057,14.91,2.04,25,6,0,0
1.1896e+05,9.7459e+07,1,4058,4142,14.68,2.66,25,6,0,0
1.1945e+05,9.7577e+07,1,4128,3985,14.9,2.61,25,6,0,0
1.1986e+05,9.7679e+07,1,3982,3814,14.84,2.44,25,6,0,0
1.203e+05,9.779e+07,1,3841,4100,14.88,2.68,25,6,0,0
1.2075e+05,9.7896e+07,1,4108,4214,14.86,2.53,25,6,0,0
1.212e+05,9.8008e+07,1,4231,4400,14.83,1.8,25,6,0,0
1.2164e+05,9.8112e+07,1,4402,4557,14.89,1.47,25,6,0,0
1.2209e+05,9.8224e+07,1,4564,4657,14.79,1.8,25,6,0,0
1.2249e+05,9.8328e+07,1,4655,4628,14.86,1.78,25,6,0,0
1.2339e+05,9.8549e+07,1,4637,4828,14.86,1.74,25,7,0,0
1.2379e+05,9.8649e+07,1,4827,4771,14.89,1.52,25,7,0,0
1.2424e+05,9.876e+07,1,4769,4728,14.83,1.66,25,7,0,0
1.2469e+05,9.8868e+07,1,4727,4685,14.86,1.58,25,7,0,0
1.2514e+05,9.898e+07,1,4680,4642,14.86,1.49,25,7,0,0
1.2559e+05,9.909e+07,1,4636,4585,14.89,1.52,25,7,0,0
1.2603e+05,9.9198e+07,1,4578,4485,14.88,1.25,25,7,0,0
1.2648e+05,9.9309e+07,1,4473,4357,14.86,1.28,25,7,0,0
1.2693e+05,9.9419e+07,1,4359,4400,14.86,1.51,25,7,0,0
1.2734e+05,9.9526e+07,1,4400,4485,14.81,1.59,25,7,0,0
1.2778e+05,9.9629e+07,1,4484,4442,14.76,1.59,25,7,0,0
1.2823e+05,9.9743e+07,1,4443,4485,14.8,1.69,25,7,0,0
1.2868e+05,9.9854e+07,1,4487,4528,14.78,1.5,25,7,0,0
1.2913e+05,9.9961e+07,1,4532,4571,14.77,1.81,25,7,0,0
1.2958e+05,1.0007e+08,1,4569,4557,14.78,1.82,25,7,0,0
1.2997e+05,1.0017e+08,1,4561,4728,14.79,1.84,25,7,0,0
1.3043e+05,1.0028e+08,1,4725,4685,14.85,1.52,25,7,0,0
1.3088e+05,1.0039e+08,1,4676,4585,14.8,1.81,25,7,0,0
1.3128e+05,1.0049e+08,1,4586,4714,14.79,1.76,25,7,0,0
1.3172e+05,1.006e+08,1,4705,4514,14.88,1.04,25,7,0,0
1.3218e+05,1.0071e+08,1,4503,4285,14.91,1.12,25,8,0,0
1.3263e+05,1.0083e+08,1,4278,4114,14.94,1.07,25,8,0,0
1.3311e+05,1.0094e+08,1,4110,4071,14.73,2.13,25,8,0,0
1.3356e+05,1.0105e+08,1,4090,4300,14.8,2.63,25,8,0,0
1.3397e+05,1.0116e+08,1,4311,4428,14.85,1.68,25,8,0,0
1.3438e+05,1.0126e+08,1,4425,4357,14.86,1.3,25,8,0,0
1.3482e+05,1.0136e+08,1,4356,4342,14.84,1.46,25,8,0,0
1.3528e+05,1.0148e+08,1,4335,4242,14.86,1.23,25,8,0,0
1.3572e+05,1.0159e+08,1,4235,4171,14.89,1.05,25,8,0,0
1.3617e+05,1.017e+08,1,4168,4142,14.91,1.33,25,8,0,0
1.3662e+05,1.0181e+08,1,4159,4328,14.83,1.89,25,8,0,0
1.371e+05,1.0192e+08,1,4348,4485,14.77,1.88,25,8,0,0
1.3751e+05,1.0203e+08,1,4490,4557,14.82,1.59,25,8,0,0
1.38e+05,1.0215e+08,1,4554,4528,14.83,1.46,25,8,0,0
1.3844e+05,1.0225e+08,1,4521,4442,14.82,1.31,25,8,0,0
1.3888e+05,1.0236e+08,1,4451,4542,14.85,1.44,25,8,0,0
1.393e+05,1.0246e+08,1,4544,4657,14.75,1.67,25,8,0,0
1.3974e+05,1.0257e+08,1,4658,4757,14.78,1.9,25,8,0,0
1.4022e+05,1.0268e+08,1,4757,4771,14.82,1.95,25,8,0,0
1.4068e+05,1.028e+08,1,4775,4828,14.7,2.06,25,8,0,0
1.4112e+05,1.0291e+08,1,4828,4828,14.77,1.77,25,8,0,0
1.4157e+05,1.0302e+08,1,4810,4657,14.77,1.7,25,9,0,0
1.4202e+05,1.0313e+08,1,4673,4785,14.76,2,25,9,0,0
1.4242e+05,1.0323e+08,1,4785,4800,14.75,1.77,25,9,0,0
1.4286e+05,1.0334e+08,1,4794,4728,14.8,1.72,25,9,0,0
1.4331e+05,1.0345e+08,1,4728,4742,14.72,1.87,25,9,0,0
1.4376e+05,1.0356e+08,1,4760,4885,14.75,1.82,25,9,0,0
1.4421e+05,1.0367e+08,1,4872,4742,14.79,1.82,25,9,0,0
1.4466e+05,1.0379e+08,1,4734,4671,14.85,1.55,25,9,0,0
1.4506e+05,1.0388e+08,1,4670,4628,14.8,1.53,25,9,0,0
1.4552e+05,1.04e+08,1,4617,4514,14.74,1.58,25,9,0,0
1.4596e+05,1.041e+08,1,4512,4500,14.83,1.46,25,9,0,0
1.4685e+05,1.0432e+08,1,4497,4457,14.84,1.51,25,9,0,0
1.477e+05,1.0453e+08,1,4456,4442,14.86,1.48,25,9,0,0
1.4819e+05,1.0466e+08,1,4443,4457,14.82,1.52,25,9,0,0
1.486e+05,1.0475e+08,1,4459,4485,14.88,1.36,25,9,0,0
1.49e+05,1.0486e+08,1,4484,4428,14.86,1.42,25,9,0,0
1.4926e+05,1.0498e+08,1,4438,4528,14.79,1.52,25,9,0,0
1.4971e+05,1.0508e+08,1,4531,4571,14.8,1.73,25,9,0,0
1.5016e+05,1.052e+08,1,4572,4585,14.79,1.45,25,10,0,0
1.506e+05,1.0531e+08,1,4587,4642,14.76,1.64,25,10,0,0
1.5105e+05,1.0542e+08,1,4642,4642,14.79,1.38,25,10,0,0
1.515e+05,1.0553e+08,1,4611,4328,14.83,1.06,25,10,0,0
1.519e+05,1.0562e+08,1,4329,4371,14.82,1.41,25,10,0,0
1.5236e+05,1.0574e+08,1,4371,4428,14.83,1.38,25,10,0,0
1.5324e+05,1.0596e+08,1,4433,4571,14.83,1.6,25,10,0,0
1.5365e+05,1.0606e+08,1,4572,4671,14.81,1.45,25,10,0,0
1.541e+05,1.0617e+08,1,4664,4557,14.79,1.29,25,10,0,0
1.5455e+05,1.0628e+08,1,4532,4214,14.8,0.79,25,10,0,0
1.55e+05,1.0639e+08,1,4173,3614,14.77,0.93,25,10,0,0
1.5545e+05,1.065e+08,1,3571,2985,14.74,0.7,25,10,0,0
1.559e+05,1.0661e+08,1,2915,2285,14.72,0.26,25,10,0,0
1.5634e+05,1.0672e+08,1,2287,2314,14.63,0.65,25,10,0,0
1.5676e+05,1.0683e+08,1,2303,2200,14.71,0.6,25,10,0,0
1.5721e+05,1.0694e+08,1,2254,2785,14.75,1.35,25,10,0,0
1.5762e+05,1.0703e+08,1,2838,3485,14.72,2.49,25,10,0,0
1.5802e+05,1.0714e+08,1,3581,4642,14.74,3.2,25,10,0,0
1.5846e+05,1.0725e+08,1,4700,5571,14.8,3.61,25,10,0,0
1.5891e+05,1.0736e+08,1,5635,6314,14.78,4.3,25,10,0,0
1.594e+05,1.0747e+08,1,6338,6671,14.75,4.86,25,11,0,0
1.598e+05,1.0758e+08,1,6664,6600,14.8,3.67,25,11,0,0
1.6025e+05,1.0769e+08,1,6580,6385,14.77,3.59,25,11,0,0
1.607e+05,1.078e+08,1,6360,6114,14.83,3.12,25,11,0,0
1.6111e+05,1.079e+08,1,6112,6057,14.8,2.82,25,11,0,0
1.6157e+05,1.0802e+08,1,6041,5885,14.73,2.86,25,11,0,0
1.6242e+05,1.0823e+08,1,5865,5342,14.68,1.67,25,11,0,0
1.6286e+05,1.0834e+08,1,5307,5014,14.73,1.6,25,11,0,0
1.6331e+05,1.0845e+08,1,4993,4785,14.73,1.44,25,11,0,0
1.6371e+05,1.0855e+08,1,4771,4514,14.77,1.15,25,11,0,0
1.6416e+05,1.0866e+08,1,4501,4242,14.77,1.1,25,11,0,0
1.6461e+05,1.0877e+08,1,4243,4271,14.69,1.73,26,11,0,0
1.6506e+05,1.0888e+08,1,4273,4385,14.76,1.5,25,11,0,0
1.655e+05,1.0899e+08,1,4371,4128,14.69,1.2,25,12,0,0
1.6596e+05,1.091e+08,1,4110,3871,14.62,1.9,26,12,0,0
1.664e+05,1.0921e+08,1,3871,3871,14.62,2.03,25,12,0,0
1.6685e+05,1.0932e+08,1,3898,4271,14.7,2.42,25,12,0,0
1.673e+05,1.0943e+08,1,4295,4642,14.68,2,25,12,0,0
1.677e+05,1.0953e+08,1,4643,4800,14.69,2.19,26,12,0,0
1.6818e+05,1.0964e+08,1,4805,5014,14.68,2.43,26,12,0,0
1.6864e+05,1.0976e+08,1,5017,5057,14.71,1.9,25,12,0,0
1.6909e+05,1.0986e+08,1,5053,4957,14.71,2.26,26,12,0,0
1.6953e+05,1.0997e+08,1,4967,5100,14.74,2.29,26,12,0,0
1.6998e+05,1.1008e+08,1,5098,5071,14.72,2.54,26,12,0,0
1.7038e+05,1.1018e+08,1,5071,5100,14.75,2.02,26,12,0,0
1.7088e+05,1.103e+08,1,5073,4800,14.8,1.41,26,12,0,0
1.7176e+05,1.1052e+08,1,4798,4700,14.88,1.25,25,12,0,0
1.7222e+05,1.1063e+08,1,4692,4614,14.85,1.12,25,12,0,0
1.7262e+05,1.1074e+08,1,4603,4428,14.78,1.38,25,12,0,0
1.7311e+05,1.1085e+08,1,4424,4385,14.8,1.24,26,12,0,0
1.7352e+05,1.1095e+08,1,4384,4357,14.83,1.41,25,13,0,0
1.7397e+05,1.1106e+08,1,4362,4671,14.81,2.54,26,13,0,0
1.7441e+05,1.1117e+08,1,4710,5228,14.79,2.63,26,13,0,0
1.7486e+05,1.1128e+08,1,5228,5228,14.78,2.08,25,13,0,0
1.7575e+05,1.115e+08,1,5218,4928,14.81,1.56,26,13,0,0
1.7616e+05,1.116e+08,1,4922,4785,14.79,1.41,26,13,0,0
1.766e+05,1.1171e+08,1,4777,4371,14.75,0.82,25,13,0,0
1.7705e+05,1.1182e+08,1,4361,3828,14.8,1.14,25,13,0,0
1.775e+05,1.1193e+08,1,3827,3800,14.84,1.28,26,13,0,0
1.7795e+05,1.1204e+08,1,3795,3685,14.77,1.21,25,13,0,0
1.7836e+05,1.1215e+08,1,3688,3771,14.66,1.72,26,13,0,0
1.7881e+05,1.1226e+08,1,3781,4014,14.75,1.42,25,13,0,0
1.7925e+05,1.1237e+08,1,4015,4071,14.76,2.36,25,13,0,0
1.7975e+05,1.1248e+08,1,4082,4257,14.71,2.32,25,13,0,0
1.8015e+05,1.1259e+08,1,4257,4271,14.73,1.42,26,13,0,0
1.8064e+05,1.1271e+08,1,4271,4271,14.78,1.39,26,13,0,0
1.8104e+05,1.1281e+08,1,4272,4342,14.73,1.69,26,13,0,0
1.8154e+05,1.1293e+08,1,4344,4371,14.74,1.57,25,13,0,0
1.8198e+05,1.1304e+08,1,4387,4628,14.74,1.82,26,13,0,0
1.8238e+05,1.1314e+08,1,4601,4328,14.82,0.92,25,13,0,0
1.8313e+05,1.1336e+08,1,3971,3814,14.85,2.16,26,14,0,0
1.8383e+05,1.1358e+08,1,3981,4085,14.85,1.69,26,14,0,0
1.8432e+05,1.137e+08,1,4065,3842,14.66,2.26,26,14,0,0
1.8469e+05,1.138e+08,1,3846,4071,14.85,2.64,26,14,0,0
1.8519e+05,1.1391e+08,1,4068,4042,14.81,3,26,14,0,0
1.8558e+05,1.1401e+08,1,4045,4271,14.72,3.51,25,14,0,0
1.8607e+05,1.1413e+08,1,4279,4385,14.83,1.29,26,14,0,0
1.8655e+05,1.1425e+08,1,4385,4385,14.79,1.49,26,14,0,0
1.874e+05,1.1445e+08,1,4384,4371,14.8,1.18,26,14,0,0
1.8786e+05,1.1456e+08,1,4371,4371,14.77,1.52,26,14,0,0
1.8871e+05,1.1478e+08,1,4369,4200,14.86,0.98,26,14,0,0
1.8916e+05,1.1489e+08,1,4198,4128,14.85,1.16,26,14,0,0
1.896e+05,1.15e+08,1,4143,4271,14.77,1.72,26,14,0,0
1.9001e+05,1.151e+08,1,4282,4471,14.75,1.74,26,14,0,0
1.9046e+05,1.1522e+08,1,4472,4500,14.83,1.37,26,14,0,0
1.9087e+05,1.1532e+08,1,4503,4642,14.71,1.62,26,15,0,0
1.9136e+05,1.1544e+08,1,4639,4614,14.72,1.41,26,15,0,0
1.9221e+05,1.1565e+08,1,4602,4000,14.9,0.8,26,15,0,0
1.9266e+05,1.1576e+08,1,3977,3671,14.8,0.84,26,15,0,0
1.9355e+05,1.1598e+08,1,3672,3771,14.77,1.44,26,15,0,0
1.94e+05,1.1609e+08,1,3795,3971,14.76,2.33,26,15,0,0
1.944e+05,1.1619e+08,1,4008,4371,14.63,2.31,26,15,0,0
1.9485e+05,1.163e+08,1,4387,4528,14.79,1.62,26,15,0,0
1.9526e+05,1.1641e+08,1,4519,4442,14.8,1.27,26,15,0,0
1.9567e+05,1.1651e+08,1,4442,4442,14.85,1.16,26,15,0,0
1.9611e+05,1.1662e+08,1,4441,4371,14.78,1.61,26,15,0,0
1.9657e+05,1.1673e+08,1,4375,4471,14.79,1.46,26,15,0,0
1.9706e+05,1.1685e+08,1,4477,4528,14.78,1.42,26,15,0,0
1.9746e+05,1.1695e+08,1,4527,4500,14.82,1.24,26,15,0,0
1.979e+05,1.1706e+08,1,4491,4328,14.86,1.46,26,15,0,0
1.9831e+05,1.1716e+08,1,4331,4571,14.79,1.68,26,15,0,0
1.988e+05,1.1728e+08,1,4580,4671,14.72,1.72,26,15,0,0
1.9924e+05,1.1739e+08,1,4664,4585,14.8,1.4,26,15,0,0
1.9969e+05,1.175e+08,1,4591,4657,14.76,1.47,26,15,0,0
2.0014e+05,1.1761e+08,1,4661,4714,14.79,1.89,26,15,0,0
2.0054e+05,1.1771e+08,1,4715,4728,14.72,1.72,26,16,0,0
2.0099e+05,1.1782e+08,1,4731,4785,14.67,1.64,26,16,0,0
2.0144e+05,1.1794e+08,1,4786,4800,14.76,1.8,26,16,0,0
2.0185e+05,1.1804e+08,1,4800,4871,14.66,1.98,26,16,0,0
2.0229e+05,1.1815e+08,1,4873,4914,14.79,1.69,26,16,0,0
2.0274e+05,1.1826e+08,1,4913,4900,14.77,1.69,26,16,0,0
2.0318e+05,1.1837e+08,1,4900,4900,14.81,1.68,26,16,0,0
2.0363e+05,1.1848e+08,1,4904,4971,14.72,1.86,26,16,0,0
2.0456e+05,1.187e+08,1,4962,4700,14.79,1.35,26,16,0,0
2.0546e+05,1.1892e+08,1,4698,4671,14.75,1.74,26,16,0,0
2.0587e+05,1.1903e+08,1,4673,4714,14.62,1.89,26,16,0,0
2.0627e+05,1.1913e+08,1,4716,4842,14.69,2.17,26,16,0,0
2.0672e+05,1.1924e+08,1,4841,4828,14.76,1.75,26,16,0,0
2.0716e+05,1.1935e+08,1,4828,4842,14.69,2.03,26,16,0,0
2.085e+05,1.1967e+08,1,4847,5114,14.73,1.92,25,16,0,0
2.0895e+05,1.1979e+08,1,5110,5071,14.73,1.84,26,17,0,0
2.094e+05,1.199e+08,1,5063,4985,14.79,1.37,26,17,0,0
2.1029e+05,1.2011e+08,1,4989,5171,14.72,2.04,26,17,0,0
2.1074e+05,1.2022e+08,1,5169,5114,14.78,1.8,26,17,0,0
2.112e+05,1.2034e+08,1,5115,5128,14.76,1.35,26,17,0,0
2.1163e+05,1.2044e+08,1,5119,5000,14.78,1.4,26,17,0,0
2.1254e+05,1.2067e+08,1,4981,4600,14.77,1.14,26,17,0,0
2.1294e+05,1.2077e+08,1,4600,4600,14.69,1.55,26,17,0,0
2.134e+05,1.2088e+08,1,4602,4728,14.77,1.64,26,17,0,0
2.1384e+05,1.2099e+08,1,4742,5028,14.7,1.9,26,17,0,0
2.1434e+05,1.2111e+08,1,5023,4971,14.73,1.62,26,17,0,0
2.1474e+05,1.212e+08,1,4970,4928,14.75,1.77,26,17,0,0
2.1519e+05,1.2131e+08,1,4932,5000,14.7,1.92,26,17,0,0
2.1608e+05,1.2153e+08,1,4996,4857,14.73,1.46,26,17,0,0
2.1692e+05,1.2174e+08,1,4855,4700,14.75,1.45,26,17,0,0
2.1738e+05,1.2185e+08,1,4690,4457,14.75,1.16,26,17,0,0
2.1783e+05,1.2197e+08,1,4455,4442,14.72,1.29,26,18,0,0
2.1828e+05,1.2208e+08,1,4435,4285,14.75,1.47,26,18,0,0
2.1872e+05,1.2219e+08,1,4287,4314,14.73,1.67,26,18,0,0
2.1918e+05,1.223e+08,1,4312,4300,14.77,1.39,26,18,0,0
2.1962e+05,1.2241e+08,1,4305,4357,14.79,1.6,26,18,0,0
2.2006e+05,1.2252e+08,1,4364,4528,14.75,1.72,26,18,0,0
2.2047e+05,1.2262e+08,1,4526,4442,14.8,1.33,25,18,0,0
2.2091e+05,1.2273e+08,1,4439,4328,14.81,1.12,26,18,0,0
2.2136e+05,1.2284e+08,1,4324,4257,14.82,1.03,26,18,0,0
2.2178e+05,1.2295e+08,1,4259,4385,14.8,1.77,26,18,0,0
2.2227e+05,1.2307e+08,1,4428,4742,14.72,2.06,26,18,0,0
2.2272e+05,1.2319e+08,1,4761,4900,14.74,1.96,26,18,0,0
2.2352e+05,1.2339e+08,1,4903,5000,14.74,1.83,26,18,0,0
2.2397e+05,1.2351e+08,1,4995,4957,14.73,1.63,26,18,0,0
2.2438e+05,1.236e+08,1,4954,4871,14.72,1.65,26,18,0,0
2.2576e+05,1.2394e+08,1,4861,4585,14.67,1.73,26,18,0,0
2.2623e+05,1.2405e+08,1,4581,4557,14.69,1.84,26,18,0,0
2.2664e+05,1.2415e+08,1,4569,4785,14.76,1.88,26,18,0,0
2.2709e+05,1.2426e+08,1,4792,4971,14.68,2.31,26,19,0,0
2.2754e+05,1.2438e+08,1,4972,4985,14.73,1.73,26,19,0,0
2.2798e+05,1.2448e+08,1,4970,4842,14.75,1.87,26,19,0,0
2.2888e+05,1.2471e+08,1,4843,4871,14.74,2.04,26,19,0,0
2.2928e+05,1.2481e+08,1,4879,4971,14.7,2.04,26,19,0,0
2.2973e+05,1.2492e+08,1,4983,5114,14.76,2.34,25,19,0,0
2.3014e+05,1.2502e+08,1,5112,5057,14.74,2.21,26,19,0,0
2.3063e+05,1.2515e+08,1,5052,5000,14.73,2.08,26,19,0,0
2.3104e+05,1.2525e+08,1,5002,5028,14.7,2.18,26,19,0,0
2.3148e+05,1.2536e+08,1,5025,5000,14.78,1.91,26,19,0,0
2.3193e+05,1.2546e+08,1,5005,5071,14.72,2.22,26,19,0,0
2.3233e+05,1.2557e+08,1,5072,5100,14.75,2.1,26,19,0,0
2.3278e+05,1.2568e+08,1,5101,5128,14.69,2.27,26,19,0,0
2.3322e+05,1.2579e+08,1,5142,5328,14.76,2.21,26,19,0,0
2.3367e+05,1.259e+08,1,5324,5285,14.76,2.31,26,19,0,0
2.3408e+05,1.26e+08,1,5279,5157,14.72,2.15,26,20,0,0
2.3453e+05,1.2611e+08,1,5164,5271,14.69,2.43,26,20,0,0
2.3494e+05,1.2621e+08,1,5271,5328,14.75,2.65,26,20,0,0
2.3543e+05,1.2634e+08,1,5354,5542,14.72,2.91,26,20,0,0
2.3583e+05,1.2644e+08,1,5553,5671,14.69,2.93,26,20,0,0
2.3627e+05,1.2654e+08,1,5671,5685,14.69,2.99,26,20,0,0
2.3672e+05,1.2666e+08,1,5686,5714,14.7,2.96,26,20,0,0
2.3758e+05,1.2687e+08,1,5709,5571,14.68,2.59,26,20,0,0
2.3803e+05,1.2698e+08,1,5551,5357,14.7,2.18,26,20,0,0
2.3847e+05,1.2709e+08,1,5345,5185,14.76,2.55,26,20,0,0
2.3888e+05,1.2719e+08,1,5186,5228,14.69,2.24,26,20,0,0
2.3933e+05,1.2729e+08,1,5229,5271,14.67,2.5,26,20,0,0
2.3978e+05,1.2741e+08,1,5259,5142,14.73,2.4,26,21,0,0
2.4023e+05,1.2752e+08,1,5151,5271,14.69,2.15,25,21,0,0
2.4108e+05,1.2773e+08,1,5259,5014,14.63,2.11,26,21,0,0
2.4149e+05,1.2783e+08,1,5013,5000,14.64,2.17,26,21,0,0
2.4237e+05,1.2805e+08,1,4999,4928,14.69,1.9,26,21,0,0
2.4282e+05,1.2816e+08,1,4928,4928,14.64,1.95,26,21,0,0
2.4327e+05,1.2827e+08,1,4929,4957,14.66,2,26,21,0,0
2.4371e+05,1.2838e+08,1,4963,5057,14.67,2.23,26,21,0,0
2.4416e+05,1.2849e+08,1,5053,5014,14.65,2.19,26,21,0,0
2.446e+05,1.286e+08,1,5010,4971,14.66,1.87,26,21,0,0
2.4501e+05,1.287e+08,1,4967,4900,14.71,1.72,26,21,0,0
2.4546e+05,1.2881e+08,1,4900,4914,14.67,1.95,26,21,0,0
2.459e+05,1.2892e+08,1,4915,5028,14.72,2.13,26,21,0,0
2.4635e+05,1.2903e+08,1,5028,5028,14.73,2.17,26,21,0,0
2.4679e+05,1.2914e+08,1,5022,4900,14.72,1.59,26,21,0,0
2.4724e+05,1.2925e+08,1,4889,4800,14.73,1.69,26,22,0,0
2.4768e+05,1.2935e+08,1,4790,4700,14.74,1.45,26,22,0,0
2.4813e+05,1.2946e+08,1,4688,4528,14.77,1.24,26,22,0,0
2.4902e+05,1.2968e+08,1,4529,4571,14.7,1.6,26,22,0,0
2.4943e+05,1.2979e+08,1,4571,4585,14.71,1.63,26,22,0,0
2.4991e+05,1.299e+08,1,4593,4700,14.7,1.7,26,22,0,0
2.5031e+05,1.3e+08,1,4700,4700,14.73,1.34,26,22,0,0
2.5076e+05,1.3011e+08,1,4685,4471,14.77,1.22,26,22,0,0
2.5122e+05,1.3023e+08,1,4454,4285,14.76,1.11,26,22,0,0
2.5162e+05,1.3033e+08,1,4288,4357,14.7,1.51,26,22,0,0
2.5208e+05,1.3044e+08,1,4361,4457,14.72,1.56,26,22,0,0
2.5247e+05,1.3055e+08,1,4456,4414,14.74,1.25,26,22,0,0
2.5292e+05,1.3066e+08,1,4414,4428,14.66,1.57,26,22,0,0
2.5337e+05,1.3077e+08,1,4424,4371,14.75,1.62,26,22,0,0
2.5383e+05,1.3088e+08,1,4378,4485,14.72,1.51,26,22,0,0
2.5427e+05,1.3099e+08,1,4497,4671,14.7,1.69,26,22,0,0
2.5472e+05,1.311e+08,1,4676,4728,14.7,1.79,26,22,0,0
2.5517e+05,1.3121e+08,1,4722,4671,14.72,1.57,26,22,0,0
2.5557e+05,1.3131e+08,1,4673,4714,14.75,1.93,26,22,0,0
2.5602e+05,1.3142e+08,1,4717,4771,14.72,1.85,26,22,0,0
2.5647e+05,1.3153e+08,1,4772,4785,14.75,1.85,26,22,0,0
2.569e+05,1.3163e+08,1,4786,4814,14.74,1.65,25,23,0,0
2.5739e+05,1.3175e+08,1,4818,4871,14.72,1.76,26,23,0,0
2.5779e+05,1.3185e+08,1,4871,4885,14.74,1.82,26,23,0,0
2.5872e+05,1.3208e+08,1,4882,4828,14.73,1.84,26,23,0,0
2.5913e+05,1.3218e+08,1,4828,4842,14.74,1.76,26,23,0,0
2.5958e+05,1.323e+08,1,4833,4628,14.73,1.35,26,23,0,0
2.6002e+05,1.324e+08,1,4626,4600,14.77,1.56,26,23,0,0
2.6047e+05,1.3251e+08,1,4595,4500,14.76,1.57,26,23,0,0
2.6091e+05,1.3262e+08,1,4497,4471,14.74,1.35,26,23,0,0
2.6136e+05,1.3273e+08,1,4472,4500,14.77,1.34,26,23,0,0
2.6181e+05,1.3284e+08,1,4498,4385,14.71,1.5,26,23,0,0
2.6225e+05,1.3295e+08,1,4389,4428,14.77,1.45,26,23,0,0
2.627e+05,1.3306e+08,1,4433,4485,14.65,1.91,26,23,0,0
2.631e+05,1.3316e+08,1,4486,4557,14.7,1.51,26,23,0,0
2.6399e+05,1.3338e+08,1,4555,4457,14.73,1.25,26,23,0,0
2.6492e+05,1.3361e+08,1,4454,4414,14.73,1.44,26,23,0,0
2.6537e+05,1.3371e+08,1,4409,4371,14.72,1.45,26,23,0,0
2.6578e+05,1.3381e+08,1,4372,4442,14.76,1.47,26,23,0,0
2.6622e+05,1.3392e+08,1,4442,4457,14.75,1.41,26,24,0,0
2.6667e+05,1.3404e+08,1,4455,4442,14.69,1.44,26,24,0,0
2.6716e+05,1.3416e+08,1,4446,4471,14.66,1.54,26,24,0,0
2.68e+05,1.3437e+08,1,4470,4457,14.72,1.38,25,24,0,0
2.6841e+05,1.3447e+08,1,4455,4414,14.7,1.46,25,24,0,0
2.689e+05,1.3459e+08,1,4408,4357,14.7,1.37,26,24,0,0
2.693e+05,1.3468e+08,1,4360,4442,14.66,1.7,26,24,0,0
2.6979e+05,1.3481e+08,1,4442,4442,14.67,1.61,26,24,0,0
2.702e+05,1.3491e+08,1,4441,4428,14.67,1.56,26,24,0,0
2.7064e+05,1.3502e+08,1,4435,4514,14.68,1.61,26,24,0,0
2.7109e+05,1.3513e+08,1,4516,4542,14.71,1.52,26,24,0,0
2.7242e+05,1.3545e+08,1,4542,4614,14.66,1.82,26,24,0,0
2.7286e+05,1.3556e+08,1,4617,4757,14.66,1.94,25,24,0,0
2.7331e+05,1.3567e+08,1,4758,4828,14.66,2.01,26,24,0,0
2.7376e+05,1.3578e+08,1,4824,4742,14.67,1.93,26,24,0,0
2.7424e+05,1.3589e+08,1,4747,4800,14.66,2.07,26,24,0,0
2.7464e+05,1.3599e+08,1,4801,4871,14.66,1.97,26,24,0,0
2.7509e+05,1.361e+08,1,4870,4842,14.68,1.75,25,25,0,0
2.7554e+05,1.3622e+08,1,4844,4871,14.61,2.16,26,25,0,0
2.7599e+05,1.3633e+08,1,4861,4785,14.67,1.7,25,25,0,0
2.7639e+05,1.3643e+08,1,4787,4942,14.66,1.87,26,25,0,0
2.7688e+05,1.3655e+08,1,4936,4885,14.68,1.8,26,25,0,0
2.7732e+05,1.3666e+08,1,4887,4914,14.71,2.29,26,25,0,0
2.7772e+05,1.3676e+08,1,4917,5000,14.65,2.43,26,25,0,0
2.7865e+05,1.3698e+08,1,5001,5042,14.66,2.03,26,25,0,0
2.7906e+05,1.3709e+08,1,5043,5057,14.67,1.97,26,25,0,0
2.795e+05,1.372e+08,1,5058,5100,14.66,2.25,26,25,0,0
2.7996e+05,1.3731e+08,1,5080,4828,14.71,1.82,26,25,0,0
2.804e+05,1.3742e+08,1,4829,4857,14.65,1.72,26,25,0,0
2.8085e+05,1.3753e+08,1,4852,4800,14.65,1.71,26,25,0,0
2.8126e+05,1.3764e+08,1,4804,4871,14.64,1.92,26,25,0,0
2.8166e+05,1.3774e+08,1,4868,4771,14.74,1.53,26,25,0,0
2.8211e+05,1.3785e+08,1,4762,4585,14.77,1.03,25,25,0,0
2.8256e+05,1.3796e+08,1,4568,4400,14.72,1.34,26,26,0,0
2.8301e+05,1.3807e+08,1,4398,4371,14.73,1.62,26,26,0,0
2.8345e+05,1.3818e+08,1,4383,4557,14.6,2.04,26,26,0,0
2.839e+05,1.3829e+08,1,4568,4728,14.63,1.74,26,26,0,0
2.843e+05,1.3839e+08,1,4727,4700,14.7,1.56,26,26,0,0
2.8475e+05,1.385e+08,1,4702,4857,14.71,2.05,26,26,0,0
2.852e+05,1.3861e+08,1,4859,4885,14.69,1.66,26,26,0,0
2.8568e+05,1.3872e+08,1,4870,4714,14.72,1.86,26,26,0,0
2.8609e+05,1.3883e+08,1,4727,4871,14.71,2.01,26,26,0,0
2.8654e+05,1.3894e+08,1,4864,4800,14.64,2.31,26,26,0,0
2.8739e+05,1.3915e+08,1,4802,4900,14.64,1.96,26,26,0,0
2.8784e+05,1.3927e+08,1,4897,4871,14.69,1.97,26,26,0,0
2.8828e+05,1.3937e+08,1,4868,4842,14.62,2.13,26,26,0,0
2.8874e+05,1.3948e+08,1,4855,4985,14.57,2.31,25,26,0,0
2.8914e+05,1.3959e+08,1,4986,5028,14.57,2.06,26,26,0,0
2.8959e+05,1.397e+08,1,5004,4771,14.6,1.88,25,26,0,0
2.9002e+05,1.398e+08,1,4767,4685,14.63,1.6,26,26,0,0
2.9088e+05,1.4002e+08,1,4678,4428,14.68,1.45,25,27,0,0
2.9137e+05,1.4014e+08,1,4424,4385,14.69,1.64,26,27,0,0
2.9175e+05,1.4024e+08,1,4387,4500,14.7,1.56,25,27,0,0
2.9223e+05,1.4035e+08,1,4502,4542,14.67,1.81,26,27,0,0
2.9268e+05,1.4046e+08,1,4549,4657,14.59,2.07,25,27,0,0
2.9357e+05,1.4068e+08,1,4660,4757,14.61,1.83,26,27,0,0
2.9397e+05,1.4078e+08,1,4758,4800,14.68,1.76,25,27,0,0
2.9486e+05,1.41e+08,1,4794,4657,14.67,1.82,25,27,0,0
2.9531e+05,1.4111e+08,1,4654,4628,14.68,1.8,25,27,0,0
2.9575e+05,1.4122e+08,1,4634,4785,14.67,2,25,27,0,0
2.9623e+05,1.4133e+08,1,4789,4828,14.67,1.92,25,27,0,0
2.9708e+05,1.4154e+08,1,4819,4585,14.72,1.51,25,27,0,0
2.9753e+05,1.4165e+08,1,4574,4471,14.72,1.5,26,27,0,0
2.9793e+05,1.4175e+08,1,4457,4271,14.78,1.25,26,27,0,0
2.9838e+05,1.4186e+08,1,4277,4342,14.74,1.83,25,27,0,0
2.9923e+05,1.4207e+08,1,4345,4542,14.76,1.47,25,28,0,0
2.9968e+05,1.4219e+08,1,4536,4485,14.83,1.55,25,28,0,0
3.0013e+05,1.4229e+08,1,4485,4485,14.76,1.67,26,28,0,0
3.0057e+05,1.424e+08,1,4486,4528,14.71,1.57,25,28,0,0
3.0102e+05,1.4251e+08,1,4529,4557,14.77,1.84,25,28,0,0
3.0146e+05,1.4262e+08,1,4578,4871,14.77,1.88,25,28,0,0
3.0191e+05,1.4273e+08,1,4852,4485,14.77,1.21,26,28,0,0
3.0231e+05,1.4283e+08,1,4483,4428,14.81,1.4,25,28,0,0
3.0276e+05,1.4295e+08,1,4424,4371,14.73,1.6,25,28,0,0
3.0317e+05,1.4305e+08,1,4377,4514,14.71,1.91,25,28,0,0
3.0366e+05,1.4317e+08,1,4524,4628,14.72,1.9,25,28,0,0
3.0406e+05,1.4327e+08,1,4628,4628,14.71,1.55,25,28,0,0
3.0451e+05,1.4338e+08,1,4631,4685,14.69,1.65,25,28,0,0
3.0496e+05,1.4349e+08,1,4681,4628,14.68,1.44,25,28,0,0
3.0536e+05,1.436e+08,1,4632,4714,14.67,1.7,26,28,0,0
3.0581e+05,1.437e+08,1,4721,4814,14.64,1.76,25,28,0,0
3.0626e+05,1.4382e+08,1,4808,4757,14.63,1.55,25,28,0,0
3.0666e+05,1.4392e+08,1,4754,4714,14.69,1.56,25,28,0,0
3.0711e+05,1.4403e+08,1,4704,4600,14.69,1.37,26,28,0,0
3.0752e+05,1.4413e+08,1,4597,4557,14.7,1.46,25,28,0,0
3.08e+05,1.4425e+08,1,4550,4457,14.69,1.46,26,28,0,0
3.084e+05,1.4435e+08,1,4462,4585,14.68,1.88,25,29,0,0
3.0886e+05,1.4446e+08,1,4583,4542,14.67,1.44,25,29,0,0
3.0926e+05,1.4456e+08,1,4539,4485,14.69,1.5,25,29,0,0
3.0971e+05,1.4468e+08,1,4483,4457,14.7,1.26,25,29,0,0
3.1016e+05,1.4479e+08,1,4451,4400,14.67,1.37,25,29,0,0
3.106e+05,1.449e+08,1,4405,4457,14.72,1.52,25,29,0,0
3.1105e+05,1.4501e+08,1,4454,4428,14.7,1.5,25,29,0,0
3.115e+05,1.4512e+08,1,4447,4571,14.71,1.8,25,29,0,0
3.1194e+05,1.4523e+08,1,4580,4700,14.64,2.05,25,29,0,0
3.124e+05,1.4534e+08,1,4719,4885,14.7,1.79,25,29,0,0
3.128e+05,1.4544e+08,1,4889,4928,14.66,1.99,25,29,0,0
3.1373e+05,1.4566e+08,1,4930,4985,14.63,2.47,25,29,0,0
3.1413e+05,1.4576e+08,1,4988,5142,14.69,2.29,25,29,0,0
3.1462e+05,1.4589e+08,1,5153,5257,14.67,2.39,25,29,0,0
3.1506e+05,1.4599e+08,1,5251,5200,14.7,2.27,25,29,0,0
3.1533e+05,1.461e+08,1,5202,5257,14.65,2.18,26,29,0,0
3.1573e+05,1.462e+08,1,5252,4985,14.7,1.81,25,29,0,0
3.1618e+05,1.4631e+08,1,4984,4971,14.72,2.09,25,30,0,0
3.1711e+05,1.4653e+08,1,4970,4942,14.65,2.26,26,30,0,0
3.1756e+05,1.4664e+08,1,4947,5014,14.69,2.2,25,30,0,0
3.1844e+05,1.4686e+08,1,5012,4971,14.69,2.15,25,30,0,0
3.1889e+05,1.4697e+08,1,4981,5071,14.68,2.21,26,30,0,0
3.1934e+05,1.4708e+08,1,5056,4857,14.63,2.02,25,30,0,0
3.1975e+05,1.4719e+08,1,4854,4828,14.7,1.96,26,30,0,0
3.202e+05,1.473e+08,1,4853,5100,14.71,2.5,26,30,0,0
3.2065e+05,1.4741e+08,1,5116,5285,14.68,2.63,25,30,0,0
3.2106e+05,1.4751e+08,1,5285,5328,14.69,2.57,25,30,0,0
3.215e+05,1.4762e+08,1,5333,5400,14.7,2.41,25,30,0,0
3.2195e+05,1.4773e+08,1,5398,5385,14.67,2.61,25,30,0,0
3.224e+05,1.4784e+08,1,5369,5228,14.75,2.08,25,30,0,0
3.2284e+05,1.4795e+08,1,5230,5257,14.73,2.14,25,30,0,0
3.2328e+05,1.4806e+08,1,5257,5271,14.71,2.46,25,31,0,0
3.2418e+05,1.4828e+08,1,5272,5328,14.68,2.22,26,31,0,0
3.2462e+05,1.4838e+08,1,5318,5114,14.73,1.79,25,31,0,0
3.2512e+05,1.485e+08,1,5123,5257,14.69,2.19,25,31,0,0
3.2552e+05,1.4861e+08,1,5259,5300,14.67,2.25,25,31,0,0
3.2598e+05,1.4872e+08,1,5300,5300,14.68,2.07,25,31,0,0
3.2637e+05,1.4882e+08,1,5296,5171,14.59,2.03,25,31,0,0
3.2683e+05,1.4894e+08,1,5174,5214,14.64,1.95,25,31,0,0
3.2723e+05,1.4904e+08,1,5215,5285,14.64,2.19,25,31,0,0
3.2768e+05,1.4915e+08,1,5289,5357,14.65,2.15,25,31,0,0
3.2813e+05,1.4926e+08,1,5369,5528,14.66,2.41,25,31,0,0
3.2857e+05,1.4936e+08,1,5531,5585,14.65,2.41,25,31,0,0
3.2902e+05,1.4947e+08,1,5573,5414,14.61,2.57,25,31,0,0
3.2946e+05,1.4958e+08,1,5424,5557,14.63,2.44,25,32,0,0
3.299e+05,1.4969e+08,1,5549,5442,14.64,2.12,25,32,0,0
3.308e+05,1.4991e+08,1,5448,5628,14.6,2.59,26,32,0,0
3.3125e+05,1.5002e+08,1,5624,5585,14.64,2.81,25,32,0,0
3.3165e+05,1.5012e+08,1,5583,5471,14.6,2.06,26,32,0,0
3.321e+05,1.5023e+08,1,5463,4957,14.67,1.35,26,32,0,0
3.3258e+05,1.5035e+08,1,4924,4585,14.66,0.99,25,32,0,0
3.3299e+05,1.5045e+08,1,4562,4228,14.71,1.05,25,32,0,0
3.3344e+05,1.5057e+08,1,4218,4114,14.67,1.39,25,32,0,0
3.3384e+05,1.5067e+08,1,4114,4142,14.63,1.88,26,32,0,0
3.3433e+05,1.5079e+08,1,4157,4314,14.62,1.4,26,32,0,0
3.3474e+05,1.5089e+08,1,4310,4271,14.62,1.54,25,32,0,0
3.3522e+05,1.51e+08,1,4273,4314,14.6,1.65,25,32,0,0
3.3563e+05,1.511e+08,1,4314,4328,14.67,1.44,26,32,0,0
3.3608e+05,1.5122e+08,1,4329,4357,14.77,1.19,25,32,0,0
3.3652e+05,1.5133e+08,1,4358,4385,14.75,1.43,25,32,0,0
3.3697e+05,1.5144e+08,1,4370,4228,14.82,1.11,26,32,0,0
3.3742e+05,1.5155e+08,1,4221,4128,14.83,1.47,26,32,0,0
3.3783e+05,1.5165e+08,1,4126,4114,14.81,1.5,26,32,0,0
3.3827e+05,1.5176e+08,1,4124,4228,14.79,1.49,26,33,0,0
3.3872e+05,1.5187e+08,1,4249,4457,14.78,1.43,26,33,0,0
3.3917e+05,1.5198e+08,1,4463,4528,14.77,1.55,25,33,0,0
3.3961e+05,1.5209e+08,1,4530,4557,14.71,1.39,26,33,0,0
3.4001e+05,1.5219e+08,1,4556,4542,14.77,1.19,26,33,0,0
3.4046e+05,1.523e+08,1,4546,4642,14.76,1.35,25,33,0,0
3.4091e+05,1.5241e+08,1,4635,4571,14.74,1.45,26,33,0,0
3.4224e+05,1.5274e+08,1,4571,4600,14.75,1.08,26,33,0,0
3.4269e+05,1.5285e+08,1,4592,4514,14.74,1.6,26,33,0,0
3.431e+05,1.5295e+08,1,4515,4542,14.75,1.49,26,33,0,0
3.4355e+05,1.5306e+08,1,4541,4528,14.75,1.26,26,33,0,0
3.4399e+05,1.5318e+08,1,4508,4371,14.73,1.26,26,33,0,0
3.4444e+05,1.5328e+08,1,4383,4485,14.69,1.56,25,33,0,0
3.4488e+05,1.5339e+08,1,4486,4500,14.73,1.22,26,33,0,0
3.4533e+05,1.5349e+08,1,4489,4385,14.73,1.36,26,33,0,0
3.4573e+05,1.536e+08,1,4386,4457,14.74,1.36,26,33,0,0
3.4623e+05,1.5372e+08,1,4446,4400,14.77,1.38,26,33,0,0
3.4708e+05,1.5393e+08,1,4398,4371,14.75,1.4,26,33,0,0
3.4749e+05,1.5403e+08,1,4375,4457,14.68,1.7,25,33,0,0
3.4839e+05,1.5425e+08,1,4463,4685,14.72,1.75,25,34,0,0
3.4883e+05,1.5436e+08,1,4688,4742,14.69,1.91,25,34,0,0
3.4928e+05,1.5447e+08,1,4721,4528,14.74,1.02,25,34,0,0
3.4972e+05,1.5457e+08,1,4526,4485,14.72,1.34,26,34,0,0
3.5017e+05,1.5468e+08,1,4483,4457,14.73,1.47,25,34,0,0
3.5062e+05,1.548e+08,1,4470,4600,14.7,1.9,26,34,0,0
3.5151e+05,1.5502e+08,1,4606,4785,14.67,1.63,25,34,0,0
3.5196e+05,1.5512e+08,1,4776,4685,14.69,1.33,25,34,0,0
3.524e+05,1.5524e+08,1,4677,4614,14.66,1.51,25,34,0,0
3.5285e+05,1.5535e+08,1,4603,4514,14.7,1.36,25,34,0,0
3.5366e+05,1.5555e+08,1,4513,4500,14.67,1.58,25,34,0,0
3.5415e+05,1.5567e+08,1,4503,4542,14.73,1.59,25,34,0,0
3.546e+05,1.5578e+08,1,4545,4585,14.69,1.48,26,34,0,0
3.55e+05,1.5588e+08,1,4594,4785,14.6,2.09,25,34,0,0
3.5549e+05,1.5599e+08,1,4792,4871,14.59,1.83,25,34,0,0
3.5593e+05,1.561e+08,1,4871,4871,14.64,1.67,26,34,0,0
3.5634e+05,1.562e+08,1,4870,4842,14.6,1.95,25,34,0,0
3.5679e+05,1.5631e+08,1,4837,4742,14.6,1.63,25,34,0,0
3.5723e+05,1.5642e+08,1,4743,4771,14.65,1.68,25,34,0,0
3.5768e+05,1.5653e+08,1,4769,4757,14.63,1.61,25,35,0,0
3.5813e+05,1.5664e+08,1,4759,4785,14.61,1.69,26,35,0,0
3.5854e+05,1.5675e+08,1,4783,4757,14.72,1.66,26,35,0,0
3.5902e+05,1.5686e+08,1,4754,4728,14.75,1.52,25,35,0,0
3.5988e+05,1.5707e+08,1,4726,4700,14.73,1.6,25,35,0,0
3.6077e+05,1.5729e+08,1,4700,4785,14.72,1.66,25,35,0,0
3.6126e+05,1.5741e+08,1,4778,4714,14.69,1.64,25,35,0,0
3.617e+05,1.5751e+08,1,4704,4614,14.67,1.56,25,35,0,0
3.621e+05,1.5761e+08,1,4614,4657,14.69,1.53,25,35,0,0
3.6255e+05,1.5773e+08,1,4658,4700,14.63,1.62,25,35,0,0
3.6299e+05,1.5783e+08,1,4693,4557,14.67,1.49,25,35,0,0
3.6343e+05,1.5794e+08,1,4557,4571,14.69,1.53,25,35,0,0
3.6389e+05,1.5805e+08,1,4573,4600,14.69,1.66,26,35,0,0
3.6429e+05,1.5815e+08,1,4599,4585,14.69,1.52,25,35,0,0
3.6478e+05,1.5827e+08,1,4572,4457,14.69,1.41,25,35,0,0
3.6522e+05,1.5838e+08,1,4459,4485,14.72,1.32,25,35,0,0
3.6567e+05,1.5849e+08,1,4474,4371,14.6,1.48,25,35,0,0
3.6612e+05,1.586e+08,1,4377,4457,14.67,1.57,25,35,0,0
3.6657e+05,1.5871e+08,1,4462,4542,14.68,1.4,25,35,0,0
3.6697e+05,1.5881e+08,1,4543,4585,14.68,1.56,25,36,0,0
3.6742e+05,1.5892e+08,1,4583,4485,14.71,1.4,25,36,0,0
3.6791e+05,1.5904e+08,1,4486,4500,14.67,1.38,25,36,0,0
3.6835e+05,1.5915e+08,1,4502,4528,14.71,1.51,25,36,0,0
3.688e+05,1.5926e+08,1,4530,4557,14.72,1.61,25,36,0,0
3.6916e+05,1.5936e+08,1,4557,4614,14.66,1.47,25,36,0,0
3.6965e+05,1.5947e+08,1,4609,4542,14.7,1.55,25,36,0,0
3.701e+05,1.5958e+08,1,4543,4585,14.68,1.61,25,36,0,0
3.7054e+05,1.5969e+08,1,4584,4528,14.69,1.56,25,36,0,0
3.7099e+05,1.598e+08,1,4530,4657,14.61,2,25,36,0,0
3.7144e+05,1.5991e+08,1,4659,4771,14.67,1.88,25,36,0,0
3.7189e+05,1.6002e+08,1,4770,4742,14.63,1.61,25,36,0,0
3.7234e+05,1.6013e+08,1,4745,4785,14.65,1.76,25,36,0,0
3.7278e+05,1.6024e+08,1,4784,4771,14.69,1.72,25,36,0,0
3.7319e+05,1.6034e+08,1,4771,4842,14.66,1.93,25,36,0,0
3.7367e+05,1.6045e+08,1,4839,4728,14.67,1.65,25,36,0,0
3.7412e+05,1.6056e+08,1,4730,4785,14.72,1.66,25,36,0,0
3.7457e+05,1.6067e+08,1,4775,4685,14.7,1.66,25,36,0,0
3.7501e+05,1.6078e+08,1,4685,4685,14.67,1.69,25,36,0,0
3.7546e+05,1.6089e+08,1,4687,4714,14.67,1.67,25,36,0,0
3.7591e+05,1.61e+08,1,4710,4657,14.67,1.56,25,37,0,0
3.7635e+05,1.6111e+08,1,4657,4657,14.65,1.69,25,37,0,0
3.768e+05,1.6122e+08,1,4649,4571,14.6,1.55,25,37,0,0
3.7728e+05,1.6133e+08,1,4563,4500,14.66,1.33,25,37,0,0
3.7773e+05,1.6145e+08,1,4497,4485,14.67,1.45,25,37,0,0
3.7813e+05,1.6154e+08,1,4484,4442,14.67,1.44,25,37,0,0
3.7862e+05,1.6166e+08,1,4432,4371,14.67,1.33,25,37,0,0
3.7902e+05,1.6176e+08,1,4369,4328,14.7,1.26,25,37,0,0
3.7947e+05,1.6187e+08,1,4332,4371,14.76,1.96,25,37,0,0
3.7992e+05,1.6198e+08,1,4363,4271,14.72,1.64,26,37,0,0
3.8081e+05,1.622e+08,1,4283,4642,14.74,2.02,25,37,0,0
3.813e+05,1.6232e+08,1,4657,4785,14.75,1.87,25,37,0,0
3.817e+05,1.6243e+08,1,4775,4685,14.7,1.84,25,37,0,0
3.8215e+05,1.6254e+08,1,4669,4542,14.76,1.64,25,37,0,0
3.83e+05,1.6275e+08,1,4544,4900,14.73,1.92,25,37,0,0
3.8345e+05,1.6285e+08,1,4825,2871,15.32,0.12,25,37,0,0
3.839e+05,1.6297e+08,1,2847,2528,14.8,0.86,25,37,0,0
3.8434e+05,1.6307e+08,1,2539,2757,15.08,1.49,25,37,0,0
3.8475e+05,1.6318e+08,1,2756,2700,15.14,0.72,25,37,0,0
3.8524e+05,1.633e+08,1,2667,2328,15.15,0.46,25,37,0,0
3.8564e+05,1.634e+08,1,2319,2142,15.16,0.17,25,38,0,0
3.8613e+05,1.6352e+08,1,2120,1914,15.15,0.15,25,38,0,0
3.8726e+05,1.6383e+08,1,1884,1857,15.15,0.19,25,38,0,0
3.8775e+05,1.6395e+08,1,1855,1842,15.16,0.2,25,38,0,0
3.8819e+05,1.6405e+08,1,1842,1842,15.17,0.19,25,38,0,0
3.8859e+05,1.6415e+08,1,1842,1857,15.16,0.15,25,38,0,0
3.8908e+05,1.6427e+08,1,1858,1871,15.16,0.18,25,38,0,0
3.8993e+05,1.6448e+08,1,1870,1828,15.16,0.15,25,38,0,0
3.9042e+05,1.646e+08,1,1828,1842,15.17,0.17,25,38,0,0
3.9082e+05,1.647e+08,1,1841,1828,15.16,0.19,25,38,0,0
3.9131e+05,1.6482e+08,1,1828,1828,15.17,0.15,25,38,0,0
3.9176e+05,1.6492e+08,1,1829,1857,15.17,0.2,25,38,0,0
3.922e+05,1.6503e+08,1,1857,1857,15.17,0.23,25,38,0,0
3.9261e+05,1.6513e+08,1,1857,1885,15.27,0.15,25,38,0,0
3.9306e+05,1.6524e+08,1,1879,1628,15.24,0.02,25,38,0,0
3.9355e+05,1.6535e+08,1,1615,1357,15.23,0.02,25,38,0,0
3.9399e+05,1.6546e+08,1,1352,1257,15.23,0.08,25,38,0,0
3.9444e+05,1.6557e+08,1,1256,1242,15.23,0.09,25,38,0,0
3.9489e+05,1.6568e+08,1,1241,1228,15.23,0.09,25,38,0,0
3.9533e+05,1.6578e+08,1,1228,1228,15.22,0.09,25,38,0,0
3.9583e+05,1.659e+08,1,1228,1228,15.23,0.09,25,38,0,0
3.9628e+05,1.66e+08,1,1228,1242,15.24,0.09,25,38,0,0
3.9672e+05,1.6611e+08,1,1240,1228,15.23,0.09,25,38,0,0
3.9717e+05,1.6622e+08,1,1228,1228,15.23,0.09,25,38,0,0
3.9757e+05,1.6632e+08,1,1228,1228,15.23,0.09,25,38,0,0
3.9806e+05,1.6644e+08,1,1228,1228,15.24,0.09,25,38,0,0
3.9895e+05,1.6665e+08,1,1228,1228,15.25,0.09,25,38,0,0
3.9989e+05,1.6688e+08,1,1228,1228,15.25,0.09,25,38,0,0
4.0029e+05,1.6698e+08,1,1228,1228,15.25,0.09,25,38,0,0
4.0078e+05,1.6709e+08,1,1228,1228,15.25,0.09,25,38,0,0
4.0123e+05,1.672e+08,1,1228,1228,15.25,0.09,25,38,0,0
4.0168e+05,1.6731e+08,1,1228,1228,15.25,0.09,25,38,0,0
4.0212e+05,1.6741e+08,1,1228,1228,15.25,0.09,25,38,0,0
4.0256e+05,1.6752e+08,1,1228,1228,15.25,0.09,25,38,0,0
4.0301e+05,1.6763e+08,1,1228,1228,15.26,0.09,25,38,0,0
4.0346e+05,1.6774e+08,1,1228,1242,15.26,0.09,25,38,0,0
4.0391e+05,1.6785e+08,1,1240,1228,15.26,0.09,25,38,0,0
4.0439e+05,1.6796e+08,1,1228,1228,15.26,0.09,25,38,0,0
4.0484e+05,1.6806e+08,1,1228,1228,15.26,0.09,25,38,0,0
4.0529e+05,1.6817e+08,1,1228,1228,15.27,0.09,25,38,0,0
4.0574e+05,1.6828e+08,1,1228,1228,15.27,0.09,25,38,0,0
4.0618e+05,1.6839e+08,1,1228,1228,15.26,0.09,25,38,0,0
4.0664e+05,1.685e+08,1,1228,1228,15.27,0.09,25,38,0,0
4.0704e+05,1.686e+08,1,1228,1228,15.27,0.1,25,38,0,0
4.0753e+05,1.6871e+08,1,1228,1228,15.27,0.09,25,38,0,0
4.0797e+05,1.6883e+08,1,1228,1228,15.27,0.09,25,38,0,0
4.0842e+05,1.6894e+08,1,1228,1228,15.27,0.1,25,38,0,0
4.0887e+05,1.6904e+08,1,1228,1228,15.27,0.1,25,38,0,0
4.0932e+05,1.6915e+08,1,1228,1228,15.27,0.1,25,38,0,0
4.0977e+05,1.6926e+08,1,1228,1228,15.27,0.09,25,38,0,0
4.1021e+05,1.6937e+08,1,1228,1242,15.27,0.09,25,38,0,0
4.1066e+05,1.6947e+08,1,1241,1228,15.28,0.1,25,38,0,0
4.1111e+05,1.6958e+08,1,1228,1228,15.27,0.1,25,38,0,0
4.1163e+05,1.697e+08,1,1228,1228,15.27,0.09,25,38,0,0
4.1203e+05,1.698e+08,1,1228,1228,15.29,0.1,25,38,0,0
4.1249e+05,1.6991e+08,1,1228,1228,15.27,0.1,25,38,0,0
4.1293e+05,1.7002e+08,1,1228,1228,15.27,0.1,25,38,0,0
4.1338e+05,1.7013e+08,1,1228,1228,15.28,0.1,25,38,0,0
4.1386e+05,1.7024e+08,1,1229,1242,15.28,0.1,25,38,0,0
4.143e+05,1.7034e+08,1,1240,1228,15.28,0.1,25,38,0,0
4.1476e+05,1.7045e+08,1,1228,1228,15.28,0.09,25,38,0,0
4.152e+05,1.7056e+08,1,1228,1228,15.29,0.09,25,38,0,0
4.1565e+05,1.7067e+08,1,1228,1228,15.29,0.1,25,38,0,0
4.1609e+05,1.7077e+08,1,1228,1228,15.29,0.09,25,38,0,0
4.1655e+05,1.7088e+08,1,1228,1228,15.29,0.1,25,38,0,0
4.169e+05,1.7099e+08,1,1228,1242,15.29,0.1,25,38,0,0
4.1739e+05,1.711e+08,1,1240,1228,15.29,0.09,25,38,0,0
4.1784e+05,1.7121e+08,1,1228,1242,15.29,0.1,25,38,0,0
4.1829e+05,1.7132e+08,1,1240,1228,15.29,0.09,25,38,0,0
4.1869e+05,1.7142e+08,1,1228,1228,15.29,0.1,25,38,0,0
4.1922e+05,1.7154e+08,1,1228,1228,15.3,0.1,25,38,0,0
4.1962e+05,1.7164e+08,1,1228,1228,15.3,0.1,25,38,0,0
4.2006e+05,1.7175e+08,1,1228,1228,15.3,0.09,25,38,0,0
4.2056e+05,1.7186e+08,1,1228,1228,15.3,0.1,25,38,0,0
4.21e+05,1.7197e+08,1,1228,1228,15.3,0.1,25,38,0,0
4.2146e+05,1.7208e+08,1,1228,1228,15.3,0.1,25,38,0,0
4.2186e+05,1.7218e+08,1,1228,1228,15.3,0.1,25,38,0,0
4.2235e+05,1.723e+08,1,1228,1228,15.3,0.1,25,38,0,0
4.2279e+05,1.724e+08,1,1228,1228,15.3,0.1,25,38,0,0
4.2324e+05,1.7251e+08,1,1228,1228,15.3,0.1,25,38,0,0
4.2364e+05,1.7261e+08,1,1228,1228,15.3,0.1,25,38,0,0
4.2413e+05,1.7272e+08,1,1228,1228,15.3,0.1,25,38,0,0
4.2458e+05,1.7283e+08,1,1228,1228,15.3,0.1,25,38,0,0
4.2498e+05,1.7294e+08,1,1228,1228,15.3,0.1,25,38,0,0
4.2543e+05,1.7304e+08,1,1228,1228,15.3,0.1,25,38,0,0
4.2588e+05,1.7315e+08,1,1228,1242,15.3,0.1,25,38,0,0
4.2633e+05,1.7326e+08,1,1242,1242,15.3,0.1,25,38,0,0
4.2678e+05,1.7337e+08,1,1241,1228,15.31,0.1,25,38,0,0
4.2726e+05,1.7348e+08,1,1228,1228,15.31,0.1,25,38,0,0
4.2771e+05,1.7359e+08,1,1228,1228,15.31,0.1,25,38,0,0
4.2815e+05,1.737e+08,1,1228,1228,15.31,0.1,25,38,0,0
4.2863e+05,1.7381e+08,1,1228,1228,15.32,0.1,25,38,0,0
4.2909e+05,1.7392e+08,1,1228,1228,15.32,0.1,25,38,0,0
4.2949e+05,1.7402e+08,1,1228,1228,15.31,0.1,25,38,0,0
4.2994e+05,1.7413e+08,1,1228,1228,15.32,0.1,25,38,0,0
4.3042e+05,1.7424e+08,1,1228,1228,15.32,0.1,25,38,0,0
4.3087e+05,1.7435e+08,1,1228,1228,15.32,0.09,25,38,0,0
4.3132e+05,1.7445e+08,1,1229,1242,15.32,0.09,25,38,0,0
4.3172e+05,1.7455e+08,1,1242,1242,15.32,0.1,25,38,0,0
4.322e+05,1.7467e+08,1,1242,1242,15.32,0.1,25,38,0,0
4.3261e+05,1.7477e+08,1,1242,1242,15.32,0.09,25,38,0,0
4.3309e+05,1.7488e+08,1,1242,1242,15.32,0.1,25,38,0,0
4.3354e+05,1.7498e+08,1,1242,1242,15.32,0.09,25,38,0,0
4.3399e+05,1.7509e+08,1,1241,1228,15.31,0.1,25,38,0,0
4.3449e+05,1.7521e+08,1,1160,457,15.33,0,25,38,0,0
4.3495e+05,1.7532e+08,1,421,171,15.33,0.02,25,38,0,0
4.3536e+05,1.7542e+08,1,168,0,15.33,0.03,25,38,0,0
4.3586e+05,1.7554e+08,1,0,0,15.33,0.03,25,38,0,0
4.3631e+05,1.7564e+08,1,0,0,15.34,0.03,25,38,0,0
4.3675e+05,1.7575e+08,1,0,0,15.34,0.03,25,38,0,0
4.3725e+05,1.7586e+08,1,0,0,15.34,0.03,25,38,0,0
4.377e+05,1.7597e+08,1,0,0,15.34,0.03,25,38,0,0
4.3816e+05,1.7607e+08,1,0,0,15.34,0.03,25,38,0,0
4.3861e+05,1.7618e+08,1,0,0,15.34,0.03,25,38,0,0
4.3911e+05,1.763e+08,1,0,0,15.34,0.03,25,38,0,0
4.3952e+05,1.764e+08,1,0,0,15.35,0.03,25,38,0,0
4.3994e+05,1.765e+08,1,0,0,15.35,0.03,25,38,0,0
4.4043e+05,1.7662e+08,1,0,0,15.35,0.03,25,38,0,0
4.4088e+05,1.7673e+08,1,0,0,15.35,0.03,25,38,0,0
4.4179e+05,1.7695e+08,1,0,0,15.35,0.03,25,38,0,0
4.4221e+05,1.7705e+08,1,0,0,15.35,0.03,25,38,0,0
4.4266e+05,1.7715e+08,1,0,0,15.35,0.04,25,38,0,0
4.4315e+05,1.7727e+08,1,0,0,15.35,0.03,25,38,0,0
4.4361e+05,1.7738e+08,1,0,0,15.35,0.03,25,38,0,0
4.4451e+05,1.7759e+08,1,0,0,15.35,0.03,25,38,0,0
4.4496e+05,1.7769e+08,1,0,0,15.35,0.03,25,38,0,0
4.4541e+05,1.7781e+08,1,0,0,15.35,0.03,25,38,0,0
4.4587e+05,1.7791e+08,1,0,0,15.35,0.03,25,38,0,0
4.4681e+05,1.7814e+08,1,0,0,15.35,0.03,25,38,0,0
4.4726e+05,1.7825e+08,1,0,0,15.35,0.03,25,38,0,0
4.4771e+05,1.7836e+08,1,0,0,15.35,0.03,25,38,0,0
4.4817e+05,1.7846e+08,1,0,0,15.35,0.04,25,38,0,0
4.4862e+05,1.7857e+08,1,0,0,15.35,0.03,25,38,0,0
4.4907e+05,1.7868e+08,1,0,0,15.36,0.03,25,38,0,0
4.4952e+05,1.7879e+08,1,0,0,15.35,0.03,25,38,0,0
4.5002e+05,1.789e+08,1,0,0,15.36,0.03,25,38,0,0
4.5093e+05,1.7912e+08,1,0,0,15.36,0.03,25,38,0,0
4.5137e+05,1.7922e+08,1,0,0,15.36,0.03,25,38,0,0
4.5187e+05,1.7934e+08,1,0,0,15.36,0.03,25,38,0,0
4.5232e+05,1.7944e+08,1,0,0,15.36,0.03,25,38,0,0
4.5278e+05,1.7956e+08,1,0,0,15.36,0.03,25,38,0,0
4.5323e+05,1.7966e+08,1,0,0,15.36,0.03,25,38,0,0
4.5372e+05,1.7978e+08,1,0,0,15.36,0.03,25,38,0,0
4.5417e+05,1.7988e+08,1,0,0,15.36,0.03,25,38,0,0
4.5462e+05,1.7999e+08,1,0,0,15.36,0.03,25,38,0,0
4.5507e+05,1.8009e+08,1,0,0,15.36,0.03,25,38,0,0
4.5552e+05,1.802e+08,1,0,0,15.36,0.03,25,38,0,0
4.5602e+05,1.8031e+08,1,0,0,15.36,0.03,25,38,0,0
4.5648e+05,1.8043e+08,1,0,0,15.36,0.03,25,38,0,0
4.5689e+05,1.8053e+08,1,0,0,15.36,0.04,25,38,0,0
4.5734e+05,1.8063e+08,1,0,0,15.37,0.04,24,38,0,0
4.578e+05,1.8075e+08,1,0,0,15.37,0.03,25,38,0,0
4.5826e+05,1.8085e+08,1,0,0,15.36,0.03,25,38,0,0
4.5871e+05,1.8097e+08,1,0,0,15.37,0.03,25,38,0,0
4.592e+05,1.8108e+08,1,0,0,15.36,0.03,25,38,0,0
4.5961e+05,1.8118e+08,1,0,0,15.36,0.03,25,38,0,0
4.6011e+05,1.813e+08,1,0,0,15.37,0.03,25,38,0,0
4.6053e+05,1.814e+08,1,0,0,15.37,0.03,24,38,0,0
4.6098e+05,1.8151e+08,1,0,0,15.37,0.03,25,38,0,0
4.6148e+05,1.8162e+08,1,0,0,15.37,0.03,24,38,0,0
4.6192e+05,1.8173e+08,1,0,0,15.37,0.03,25,38,0,0
4.6243e+05,1.8185e+08,1,0,0,15.37,0.03,25,38,0,0
4.6287e+05,1.8195e+08,1,0,0,15.37,0.03,25,38,0,0
4.6378e+05,1.8217e+08,1,0,0,15.37,0.03,25,38,0,0
4.6423e+05,1.8228e+08,1,0,0,15.37,0.03,24,38,0,0
4.6468e+05,1.8238e+08,1,0,0,15.37,0.03,25,38,0,0
4.6518e+05,1.825e+08,1,0,0,15.37,0.03,24,38,0,0
4.6559e+05,1.826e+08,1,0,0,15.37,0.03,24,38,0,0
4.6609e+05,1.8272e+08,1,0,0,15.38,0.03,24,38,0,0
4.6654e+05,1.8283e+08,1,0,0,15.38,0.03,24,38,0,0
4.6699e+05,1.8294e+08,1,0,0,15.37,0.03,25,38,0,0
