LineNo,TimeUS,Instance,RPM,RawRPM,Volt,Curr,Temp,CTot,MotTemp,Err
1761,56272723,2,0,0,15.44,0.04,24,0,0,0
2181,56379904,2,0,0,15.44,0.04,24,0,0,0
2637,56494382,2,0,0,15.43,0.05,25,0,0,0
3055,56600578,2,0,0,15.42,0.05,24,0,0,0
3466,56707408,2,0,0,15.43,0.05,24,0,0,0
3918,56819255,2,0,0,15.44,0.05,24,0,0,0
4738,57028874,2,0,0,15.44,0.05,24,0,0,0
5186,57142773,2,0,0,15.43,0.05,25,0,0,0
5598,57246868,2,0,0,15.42,0.04,25,0,0,0
6010,57351159,2,0,0,15.43,0.04,24,0,0,0
6464,57465008,2,0,0,15.44,0.04,24,0,0,0
6882,57570570,2,0,0,15.42,0.04,25,0,0,0
7340,57688182,2,0,0,15.43,0.04,25,0,0,0
7757,57792186,2,0,0,15.43,0.04,24,0,0,0
8135,57888455,2,0,0,15.43,0.04,24,0,0,0
8592,58004053,2,0,0,15.42,0.04,25,0,0,0
9004,58107395,2,0,0,15.42,0.04,24,0,0,0
9416,58212853,2,0,0,15.44,0.04,24,0,0,0
9827,58317057,2,0,0,15.44,0.04,24,0,0,0
10277,58432922,2,0,0,15.43,0.04,24,0,0,0
10983,58646601,2,0,0,15.43,0.04,24,0,0,0
11402,58750161,2,0,0,15.43,0.04,25,0,0,0
11854,58866221,2,0,0,15.43,0.04,24,0,0,0
12238,58967613,2,0,0,15.43,0.04,24,0,0,0
12688,59080360,2,0,0,15.43,0.04,24,0,0,0
13099,59183345,2,0,0,15.42,0.04,24,0,0,0
13554,59298788,2,0,0,15.43,0.04,25,0,0,0
13964,59405390,2,0,0,15.43,0.04,24,0,0,0
14377,59508628,2,0,0,15.43,0.04,24,0,0,0
14826,59621132,2,0,0,15.42,0.04,24,0,0,0
15243,59724593,2,0,0,15.42,0.04,24,0,0,0
15656,59834134,2,0,0,15.44,0.04,24,0,0,0
16111,59949304,2,0,0,15.42,0.04,25,0,0,0
16524,60051583,2,0,0,15.42,0.04,25,0,0,0
16945,60161372,2,0,0,15.42,0.04,25,0,0,0
17357,60267899,2,0,0,15.43,0.04,24,0,0,0
17808,60381144,2,0,0,15.42,0.04,25,0,0,0
18216,60483118,2,0,0,15.43,0.05,25,0,0,0
18634,60591120,2,0,0,15.43,0.05,25,0,0,0
19050,60699340,2,0,0,15.43,0.04,25,0,0,0
19512,60814887,2,0,0,15.44,0.04,24,0,0,0
19925,60919500,2,0,0,15.44,0.04,24,0,0,0
20338,61025194,2,0,0,15.43,0.04,25,0,0,0
20747,61130016,2,0,0,15.43,0.04,24,0,0,0
54666,81867888,2,0,0,15.44,0.05,25,0,0,0
54953,81937900,2,0,0,15.42,0.05,25,0,0,0
55450,82049466,2,0,0,15.43,0.05,25,0,0,0
55905,82157670,2,0,0,15.43,0.05,25,0,0,0
56327,82259380,2,0,0,15.42,0.05,25,0,0,0
56814,82367349,2,0,0,15.43,0.05,25,0,0,0
57311,82479040,2,0,0,15.42,0.05,25,0,0,0
57763,82583788,2,0,0,15.43,0.05,25,0,0,0
58219,82690120,2,0,0,15.42,0.05,25,0,0,0
58672,82796761,2,0,0,15.42,0.05,25,0,0,0
59129,82902239,2,0,0,15.43,0.05,25,0,0,0
59584,83011135,2,0,0,15.43,0.05,25,0,0,0
60567,83231944,2,0,0,15.42,0.05,25,0,0,0
61018,83339956,2,0,0,15.43,0.05,25,0,0,0
61473,83443541,2,0,0,15.42,0.05,25,0,0,0
61927,83554381,2,0,0,15.43,0.05,25,0,0,0
62381,83655995,2,0,0,15.42,0.05,25,0,0,0
62827,83760991,2,0,0,15.43,0.05,25,0,0,0
63778,83981981,2,5,128,15.42,0.04,25,0,0,0
64233,84084238,2,142,514,15.42,0.09,25,0,0,0
64686,84194250,2,527,857,15.41,0.15,25,0,0,0
65141,84296343,2,860,1142,15.41,0.13,25,0,0,0
65630,84408924,2,1144,1200,15.42,0.12,25,0,0,0
66131,84520929,2,1201,1242,15.41,0.11,25,0,0,0
66575,84625172,2,1242,1257,15.42,0.11,25,0,0,0
67072,84741979,2,1257,1257,15.41,0.11,25,0,0,0
67524,84844505,2,1263,1371,15.4,0.2,25,0,0,0
67780,84950154,2,1392,1885,15.33,0.6,25,0,0,0
68237,85057654,2,1917,2671,15.19,1.07,25,0,0,0
68692,85170887,2,2701,3114,15.2,1.28,25,0,0,0
69150,85276457,2,3120,3557,15.12,1.59,25,0,0,0
69641,85391090,2,3616,4171,15.04,1.88,25,0,0,0
70016,85490957,2,4180,4728,14.86,2.78,25,0,0,0
70468,85599449,2,4737,5214,14.8,3.27,25,0,0,0
70965,85713158,2,5238,5571,14.71,3.87,25,0,0,0
71419,85823917,2,5589,5771,14.77,3.71,25,0,0,0
71873,85928548,2,5783,6071,14.76,4.4,25,0,0,0
72364,86044930,2,6075,6114,14.72,4.17,25,0,0,0
72780,86149477,2,6108,5971,14.75,3.71,25,1,0,0
73232,86254871,2,5975,6100,14.83,3.9,25,1,0,0
73682,86362885,2,6096,5942,14.79,4.15,25,1,0,0
74180,86481150,2,5948,6028,14.79,4.05,25,1,0,0
75082,86695313,2,6028,6057,14.84,3.99,25,1,0,0
75542,86808563,2,6057,6085,14.85,3.73,25,1,0,0
75994,86914892,2,6085,6128,14.88,3.91,25,1,0,0
76445,87023539,2,6127,6114,14.87,4.01,25,2,0,0
76896,87133956,2,6115,6142,14.8,4.07,25,2,0,0
77348,87241880,2,6139,6100,14.82,4,25,2,0,0
77802,87352119,2,6088,5971,14.78,3.7,26,2,0,0
78255,87457129,2,5974,6200,14.82,3.84,25,2,0,0
78747,87572142,2,6183,6028,14.75,3.44,26,2,0,0
79198,87677226,2,6024,5971,14.82,3.86,26,2,0,0
79650,87788428,2,5974,6014,14.82,4.06,25,2,0,0
80099,87892398,2,6016,6071,14.8,3.94,26,3,0,0
80555,88005073,2,6067,6000,14.8,4.28,26,3,0,0
81055,88120480,2,6001,6028,14.75,4.16,26,3,0,0
81473,88225624,2,6035,6214,14.7,4.08,26,3,0,0
81915,88333990,2,6212,6100,14.77,4.08,26,3,0,0
82366,88444049,2,6097,6042,14.8,3.81,26,3,0,0
82818,88559203,2,6035,5971,14.82,3.33,26,3,0,0
83266,88667906,2,5965,5914,14.77,3.95,26,3,0,0
83708,88776512,2,5916,5942,14.77,3.67,26,4,0,0
84115,88875215,2,5937,5728,14.76,3.46,26,4,0,0
84564,88989339,2,5735,5828,14.7,3.87,26,4,0,0
85011,89097967,2,5841,6100,14.69,4.06,26,4,0,0
85456,89209751,2,6101,6128,14.7,4.11,26,4,0,0
85907,89319318,2,6123,6042,14.71,4.23,26,4,0,0
86795,89538098,2,6043,6071,14.71,3.89,26,4,0,0
87240,89645391,2,6056,5857,14.75,3.53,26,5,0,0
88123,89859946,2,5856,5828,14.75,3.4,26,5,0,0
88580,89976122,2,5825,5800,14.84,3.72,26,5,0,0
89031,90084399,2,5800,5800,14.81,3.59,26,5,0,0
89432,90184540,2,5800,5800,14.79,3.4,26,5,0,0
89879,90292615,2,5793,5728,14.77,3.31,26,5,0,0
90325,90403456,2,5732,5785,14.79,3.52,26,5,0,0
90776,90513187,2,5786,5800,14.85,2.95,26,5,0,0
91183,90615143,2,5790,5600,14.84,2.72,26,5,0,0
91674,90734418,2,5602,5628,14.83,2.79,26,5,0,0
92124,90843020,2,5629,5642,14.79,2.81,26,6,0,0
92564,90948996,2,5636,5557,14.77,2.98,26,6,0,0
93012,91057949,2,5568,5714,14.79,3.19,26,6,0,0
93460,91170108,2,5720,5814,14.83,3.12,26,6,0,0
93910,91278986,2,5805,5714,14.76,3.31,26,6,0,0
94316,91385083,2,5716,5742,14.76,3.2,26,6,0,0
94770,91495983,2,5748,5814,14.8,3.01,26,6,0,0
95208,91602115,2,5803,5700,14.77,2.94,26,6,0,0
95663,91715575,2,5711,5800,14.78,3.65,26,6,0,0
96106,91819243,2,5788,5671,14.78,3.09,26,6,0,0
96511,91920240,2,5675,5857,14.73,3.2,26,6,0,0
97000,92037244,2,5843,5685,14.71,3.33,26,7,0,0
97887,92261506,2,5705,6057,14.73,3.9,27,7,0,0
98333,92371751,2,6059,6085,14.74,3.7,26,7,0,0
98787,92479229,2,6075,5985,14.76,3.57,27,7,0,0
99188,92583001,2,5987,6014,14.73,3.55,27,7,0,0
99641,92695184,2,6025,6114,14.77,3.87,27,7,0,0
100079,92799046,2,6116,6142,14.73,3.6,27,7,0,0
100533,92906947,2,6129,5985,14.75,3.39,27,7,0,0
100939,93014583,2,5994,6085,14.73,3.56,27,8,0,0
101393,93125915,2,6086,6100,14.74,3.47,27,8,0,0
101839,93239674,2,6085,5928,14.7,3.49,27,8,0,0
102247,93338442,2,5929,5957,14.68,3.48,26,8,0,0
102739,93461188,2,5962,6042,14.74,3.42,27,8,0,0
103101,93554135,2,6040,5985,14.73,3.72,27,8,0,0
103592,93673605,2,5996,6128,14.71,3.61,27,8,0,0
104032,93783010,2,6124,6042,14.75,3.57,27,8,0,0
104487,93895003,2,6022,5857,14.76,3.24,27,8,0,0
104932,94002782,2,5850,5800,14.72,3.13,27,9,0,0
105386,94115615,2,5797,5771,14.67,3.43,27,9,0,0
105787,94215479,2,5784,5957,14.73,3.66,27,9,0,0
106236,94323197,2,5951,5871,14.71,3.62,27,9,0,0
106636,94422898,2,5870,5814,14.73,3.47,27,9,0,0
107576,94651569,2,5817,5900,14.77,3.52,27,9,0,0
108020,94762918,2,5908,6100,14.67,3.81,27,9,0,0
108473,94873608,2,6098,6085,14.69,3.67,27,9,0,0
108847,94972205,2,6081,5871,14.7,3.71,27,10,0,0
109293,95078237,2,5872,5900,14.7,3.86,27,10,0,0
109739,95190854,2,5902,5928,14.76,3.17,27,10,0,0
110191,95301618,2,5923,5885,14.72,3.71,27,10,0,0
110599,95409176,2,5885,5900,14.73,3.44,27,10,0,0
111051,95517026,2,5902,6028,14.66,3.86,27,10,0,0
111494,95628118,2,6024,5957,14.66,3.61,27,10,0,0
111903,95733200,2,5957,5971,14.68,3.46,27,10,0,0
112388,95844786,2,5971,5985,14.72,3.38,27,10,0,0
112838,95956455,2,5983,5957,14.7,3.68,27,11,0,0
113287,96065927,2,5962,6042,14.69,3.58,27,11,0,0
113733,96178141,2,6034,5928,14.67,3.49,27,11,0,0
114181,96288386,2,5928,5928,14.7,3.66,27,11,0,0
114624,96397945,2,5925,5900,14.71,3.61,27,11,0,0
115078,96506861,2,5903,5942,14.66,3.41,27,11,0,0
115523,96618112,2,5928,5800,14.68,3.35,27,11,0,0
115924,96715955,2,5798,5771,14.69,3.56,27,11,0,0
116371,96826938,2,5776,5857,14.73,3.46,27,11,0,0
117269,97045156,2,5861,5985,14.7,3.71,27,12,0,0
117710,97154170,2,5984,5971,14.7,3.38,27,12,0,0
118162,97264890,2,5968,5914,14.73,3.57,27,12,0,0
118609,97374907,2,5920,6042,14.73,3.52,27,12,0,0
119053,97479946,2,6042,6057,14.61,3.54,27,12,0,0
119948,97699999,2,6055,6014,14.72,3.51,27,12,0,0
120393,97810657,2,6012,6000,14.68,3.15,27,12,0,0
121243,98019154,2,5997,5757,14.73,2.45,27,13,0,0
121772,98144449,2,5746,5628,14.74,2.59,27,13,0,0
122178,98243598,2,5623,5557,14.7,2.82,27,13,0,0
122584,98349346,2,5563,5728,14.73,2.96,27,13,0,0
123031,98455452,2,5735,5828,14.67,3.19,27,13,0,0
123436,98560424,2,5820,5685,14.73,2.64,27,13,0,0
123885,98670540,2,5688,5742,14.7,2.99,27,13,0,0
124330,98780702,2,5745,5828,14.68,3.03,27,13,0,0
124781,98888639,2,5833,5914,14.66,3.31,27,13,0,0
125183,98990128,2,5914,5914,14.7,3.08,27,13,0,0
125677,99110857,2,5927,6128,14.73,3.36,27,13,0,0
126120,99219455,2,6133,6185,14.69,3.48,27,14,0,0
126563,99327618,2,6181,6142,14.69,3.58,27,14,0,0
127017,99439507,2,6122,5900,14.69,3.5,27,14,0,0
127381,99536950,2,5902,6057,14.63,3.68,27,14,0,0
127865,99650402,2,6050,5914,14.6,3.85,27,14,0,0
128273,99753422,2,5920,6200,14.64,3.97,27,14,0,0
128771,99874130,2,6189,6071,14.66,3.92,27,14,0,0
129216,99981942,2,6077,6142,14.66,3.79,27,14,0,0
129621,100081228,2,6139,6000,14.62,4.14,27,14,0,0
130066,100194624,2,6023,6342,14.69,3.83,27,15,0,0
130519,100303091,2,6311,5857,14.62,3.83,27,15,0,0
130923,100403330,2,5863,6014,14.61,3.73,27,15,0,0
131372,100512983,2,6018,6100,14.64,3.61,27,15,0,0
131816,100623148,2,6093,6000,14.7,3.4,27,15,0,0
132270,100732412,2,6004,6057,14.71,3.52,27,15,0,0
132716,100846331,2,6062,6114,14.69,3.65,27,15,0,0
133155,100947197,2,6115,6157,14.64,3.68,27,15,0,0
133651,101070511,2,6157,6157,14.67,3.85,27,15,0,0
134017,101167424,2,6156,6142,14.65,3.53,27,16,0,0
134472,101278055,2,6138,6057,14.71,3.22,27,16,0,0
134914,101383364,2,6055,6000,14.69,3.18,27,16,0,0
135370,101497907,2,5994,5942,14.69,3.32,27,16,0,0
135815,101608942,2,5953,6085,14.76,3.45,27,16,0,0
136264,101725131,2,6085,6085,14.68,3.22,28,16,0,0
136661,101817560,2,6085,6085,14.66,3.51,27,16,0,0
137147,101935085,2,6070,5871,14.7,3.33,28,16,0,0
137593,102048118,2,5878,5971,14.65,3.35,28,16,0,0
138000,102147632,2,5973,6171,14.71,3.47,28,16,0,0
138524,102271472,2,6166,6128,14.64,3.31,28,17,0,0
138927,102376904,2,6126,6042,14.63,3.35,27,17,0,0
139382,102487251,2,6044,6085,14.65,3.33,28,17,0,0
139821,102589659,2,6084,6057,14.65,3.34,27,17,0,0
140312,102710981,2,6048,5942,14.57,3.65,28,17,0,0
140716,102812145,2,5948,6100,14.6,3.59,27,17,0,0
141214,102930558,2,6070,5828,14.56,3.57,28,17,0,0
141613,103031608,2,5828,5828,14.61,3.41,28,17,0,0
142061,103147972,2,5843,5942,14.63,3.83,28,17,0,0
142466,103243413,2,5940,5871,14.61,3.66,28,18,0,0
142952,103363583,2,5881,5985,14.6,3.76,27,18,0,0
143401,103474988,2,5968,5857,14.6,3.85,28,18,0,0
143803,103574740,2,5858,5885,14.58,3.86,28,18,0,0
144293,103691913,2,5890,5942,14.58,3.94,28,18,0,0
145153,103909654,2,5955,6157,14.64,4.05,28,18,0,0
145557,104008070,2,6157,6157,14.6,3.93,28,18,0,0
146002,104115871,2,6155,6057,14.66,3.6,28,18,0,0
146488,104235965,2,6053,6028,14.62,3.34,28,19,0,0
147341,104448103,2,6018,5800,14.67,3.09,28,19,0,0
147784,104555967,2,5821,6014,14.72,3.05,28,19,0,0
148194,104657089,2,6012,5885,14.65,3.5,28,19,0,0
148640,104765321,2,5883,5800,14.71,2.87,28,19,0,0
149350,104998071,2,5801,5828,14.63,3.02,28,19,0,0
149755,105096852,2,5830,5885,14.64,3.08,28,19,0,0
150202,105208918,2,5885,5885,14.67,3.06,28,19,0,0
150653,105319020,2,5882,5828,14.62,3.41,28,19,0,0
151096,105427630,2,5828,5857,14.61,3.41,28,20,0,0
151546,105542070,2,5857,5857,14.64,3.44,28,20,0,0
151993,105646943,2,5870,6128,14.66,3.62,28,20,0,0
152444,105761387,2,6129,6142,14.7,3.18,28,20,0,0
152892,105868243,2,6125,5957,14.63,3.56,28,20,0,0
153742,106078416,2,5957,6000,14.64,3.57,28,20,0,0
154149,106181234,2,6000,6000,14.64,3.85,28,20,0,0
154639,106297556,2,6017,6242,14.59,4.55,28,20,0,0
155049,106402862,2,6254,6500,14.61,5.19,28,21,0,0
155499,106516782,2,6547,6957,14.49,6.2,28,21,0,0
155940,106617897,2,6962,7071,14.5,6.29,28,21,0,0
156396,106730788,2,7063,7000,14.52,5.85,28,21,0,0
156805,106835409,2,6992,6885,14.57,4.89,28,21,0,0
157701,107055065,2,6849,6071,14.64,3.06,28,22,0,0
158105,107160317,2,6026,5442,14.63,1.66,28,22,0,0
158553,107269224,2,5387,4828,14.72,0.58,28,22,0,0
158960,107372156,2,4807,3728,14.67,0.15,28,22,0,0
159441,107482234,2,3694,3028,14.69,0.47,28,22,0,0
160343,107708418,2,3034,3185,14.68,0.9399999999999999,28,22,0,0
160749,107811155,2,3194,3400,14.71,1.16,28,22,0,0
161202,107925861,2,3425,3885,14.66,1.36,28,22,0,0
161656,108039987,2,3918,4257,14.62,2.02,28,22,0,0
162056,108138596,2,4263,4785,14.63,2.69,28,22,0,0
162508,108251987,2,4825,5214,14.61,3.17,28,22,0,0
162910,108352941,2,5243,5628,14.58,3.24,28,22,0,0
163400,108470022,2,5647,5842,14.48,3.85,28,22,0,0
163804,108572195,2,5860,6028,14.58,4.38,28,22,0,0
164250,108680414,2,6041,6242,14.57,4.39,28,23,0,0
164697,108788329,2,6238,6185,14.54,3.74,28,23,0,0
165150,108897626,2,6174,6028,14.5,4.35,28,23,0,0
165595,109008858,2,6042,6228,14.54,4.66,28,23,0,0
166005,109117419,2,6226,6185,14.55,3.84,28,23,0,0
166496,109231958,2,6204,6400,14.47,4.39,28,23,0,0
166949,109344358,2,6389,6314,14.51,4.42,28,23,0,0
167393,109450983,2,6320,6385,14.52,4.36,28,23,0,0
167797,109553881,2,6373,6128,14.55,4.09,28,24,0,0
168278,109663933,2,6126,6057,14.52,4.08,28,24,0,0
168687,109768246,2,6052,5828,14.56,3.23,28,24,0,0
169180,109885019,2,5817,5714,14.57,3.33,28,24,0,0
169625,109993189,2,5713,5700,14.51,3.58,28,24,0,0
170074,110102365,2,5701,5714,14.52,3.11,28,24,0,0
170478,110206344,2,5713,5657,14.56,3.18,28,24,0,0
171854,110541989,2,5651,5414,14.72,2.3,28,24,0,0
172306,110653135,2,5414,5414,14.73,2.34,28,25,0,0
173204,110870078,2,5413,5400,14.7,2.39,28,25,0,0
173608,110973021,2,5402,5457,14.74,2.2,28,25,0,0
174498,111192691,2,5451,5328,14.61,2.01,28,25,0,0
174946,111303523,2,5313,5171,14.66,2.21,28,25,0,0
175390,111412408,2,5179,5300,14.67,2.22,28,25,0,0
175841,111523420,2,5313,5457,14.6,2.81,28,25,0,0
176246,111625887,2,5478,5757,14.65,3.7,28,25,0,0
176734,111744991,2,5785,6100,14.63,4.49,28,25,0,0
177144,111844651,2,6112,6457,14.6,4.59,28,25,0,0
177589,111955343,2,6457,6457,14.63,4.3,28,26,0,0
178039,112063591,2,6457,6471,14.58,4.49,28,26,0,0
178449,112170138,2,6476,6542,14.62,4.67,28,26,0,0
178899,112280326,2,6534,6428,14.54,4.41,28,26,0,0
179343,112388371,2,6421,6285,14.51,4.42,28,26,0,0
179833,112507691,2,6296,6400,14.53,4.34,28,26,0,0
180240,112608957,2,6390,6257,14.62,3.81,28,26,0,0
180688,112722978,2,6241,6071,14.6,4.07,28,27,0,0
181168,112840123,2,6073,6100,14.61,3.69,28,27,0,0
181614,112952601,2,6096,6057,14.58,3.91,28,27,0,0
182063,113061473,2,6044,5914,14.65,3.7,28,27,0,0
182467,113166461,2,5916,5942,14.7,3.32,28,27,0,0
182735,113271582,2,5940,5928,14.69,2.98,28,27,0,0
183177,113374551,2,5927,5900,14.64,3.17,28,27,0,0
183482,113498902,2,5888,5757,14.66,2.88,28,27,0,0
183921,113604980,2,5767,5900,14.67,2.96,28,27,0,0
184369,113713402,2,5896,5857,14.69,2.75,28,27,0,0
184780,113816152,2,5859,6014,14.61,2.73,28,28,0,0
185231,113926438,2,6004,5828,14.55,2.97,28,28,0,0
186115,114145338,2,5831,5900,14.61,2.93,28,28,0,0
186598,114256453,2,5895,5842,14.64,2.95,28,28,0,0
187000,114357210,2,5837,5742,14.62,3.28,28,28,0,0
187447,114465151,2,5743,5814,14.61,3.01,28,28,0,0
187898,114578400,2,5815,5857,14.63,2.56,28,28,0,0
188387,114695632,2,5845,5728,14.68,2.52,28,28,0,0
188756,114794616,2,5727,5700,14.69,2.26,28,28,0,0
189203,114901342,2,5697,5514,14.64,2.41,28,28,0,0
189650,115014424,2,5509,5428,14.63,2.57,28,28,0,0
190104,115130617,2,5437,5528,14.57,2.91,28,28,0,0
190506,115230940,2,5535,5685,14.67,2.84,28,29,0,0
190957,115341896,2,5686,5714,14.61,2.97,28,29,0,0
191403,115449437,2,5723,5828,14.61,3,28,29,0,0
191803,115551418,2,5825,5742,14.68,3.13,28,29,0,0
192255,115662378,2,5741,5728,14.66,2.79,28,29,0,0
192710,115777653,2,5741,5828,14.67,2.82,28,29,0,0
193591,115987962,2,5825,5757,14.68,2.7,28,29,0,0
194041,116097099,2,5752,5671,14.44,3.15,28,29,0,0
194447,116203474,2,5677,5828,14.57,3.41,28,29,0,0
194903,116315076,2,5830,5857,14.65,2.79,28,29,0,0
195311,116421623,2,5850,5757,14.61,2.77,28,30,0,0
195763,116530329,2,5745,5585,14.7,2.69,28,30,0,0
196202,116636349,2,5586,5614,14.63,2.7,28,30,0,0
197543,116969920,2,5611,5457,14.65,2.41,28,30,0,0
197992,117078564,2,5457,5471,14.61,2.55,28,30,0,0
198395,117181941,2,5469,5428,14.62,2.5,28,30,0,0
198843,117289424,2,5430,5585,14.6,2.82,28,30,0,0
199326,117407725,2,5578,5514,14.61,2.77,28,30,0,0
199734,117507916,2,5510,5442,14.55,2.67,28,30,0,0
200635,117737534,2,5448,5542,14.63,2.89,28,31,0,0
201085,117845143,2,5539,5514,14.66,2.59,28,31,0,0
201492,117951877,2,5503,5414,14.53,3.03,28,31,0,0
201894,118049605,2,5414,5457,14.55,2.81,28,31,0,0
202382,118168578,2,5458,5471,14.57,2.63,29,31,0,0
202832,118278777,2,5465,5414,14.62,2.27,28,31,0,0
203273,118386224,2,5395,5214,14.66,2.56,29,31,0,0
203679,118485623,2,5216,5371,14.57,2.85,28,31,0,0
204125,118598050,2,5375,5642,14.58,3.1,28,31,0,0
204655,118719171,2,5629,5485,14.65,2.63,28,31,0,0
205098,118830185,2,5491,5557,14.55,2.98,28,31,0,0
205503,118933351,2,5556,5542,14.55,3.24,28,31,0,0
205955,119047345,2,5550,5657,14.54,3.57,28,32,0,0
206355,119148110,2,5657,5685,14.48,3.36,28,32,0,0
206808,119260075,2,5685,5685,14.61,3.05,28,32,0,0
207254,119369950,2,5665,5471,14.57,2.81,28,32,0,0
207701,119478854,2,5476,5542,14.58,2.69,28,32,0,0
208150,119589208,2,5551,5642,14.6,2.76,28,32,0,0
208596,119695445,2,5622,5442,14.55,2.75,28,32,0,0
209047,119808421,2,5444,5471,14.57,2.56,28,32,0,0
209497,119918002,2,5458,5342,14.58,2.25,28,32,0,0
209944,120028403,2,5328,5185,14.63,2.09,28,32,0,0
210388,120138903,2,5171,5057,14.64,2.18,28,32,0,0
210834,120241742,2,5065,5157,14.55,2.46,28,32,0,0
211243,120348431,2,5161,5228,14.6,2.54,28,33,0,0
212137,120568572,2,5229,5285,14.63,2.52,28,33,0,0
212584,120675965,2,5291,5571,14.61,2.03,28,33,0,0
213037,120787999,2,5562,5442,14.62,2.32,28,33,0,0
213489,120896851,2,5454,5628,14.58,2.79,28,33,0,0
213935,121008675,2,5626,5600,14.53,2.55,28,33,0,0
214385,121117219,2,5613,5800,14.55,2.91,29,33,0,0
214828,121224592,2,5797,5757,14.59,2.6,28,33,0,0
215233,121327276,2,5755,5614,14.59,2.56,28,33,0,0
215719,121441079,2,5618,5685,14.59,2.98,28,33,0,0
216122,121544431,2,5684,5671,14.58,2.96,28,33,0,0
217011,121763153,2,5673,5757,14.57,3.14,28,34,0,0
217468,121874949,2,5767,5914,14.57,3.44,28,34,0,0
217921,121991088,2,5900,5757,14.58,3.05,28,34,0,0
218366,122106613,2,5760,5785,14.54,3.25,28,34,0,0
218812,122213381,2,5785,5785,14.54,3.13,28,34,0,0
219264,122328403,2,5785,5785,14.62,3.13,28,34,0,0
219701,122430568,2,5791,5857,14.54,3.01,28,34,0,0
220154,122539290,2,5849,5771,14.67,3.1,28,34,0,0
220552,122646963,2,5766,5728,14.63,2.75,28,34,0,0
221002,122756165,2,5717,5600,14.64,2.44,28,34,0,0
221452,122868017,2,5586,5400,14.63,2.57,28,34,0,0
221861,122972000,2,5407,5485,14.64,2.53,28,35,0,0
222312,123085057,2,5478,5414,14.58,2.73,28,35,0,0
222764,123201184,2,5419,5457,14.57,2.61,28,35,0,0
223570,123405901,2,5462,5685,14.58,2.94,28,35,0,0
224018,123515449,2,5688,5771,14.62,3.04,29,35,0,0
224498,123629587,2,5765,5714,14.6,2.89,28,35,0,0
224908,123730582,2,5712,5671,14.56,3.2,28,35,0,0
225348,123839426,2,5672,5757,14.59,3.14,28,35,0,0
225840,123961043,2,5773,5957,14.6,3.2,28,35,0,0
226278,124061191,2,5950,5828,14.59,3.46,28,35,0,0
226728,124175424,2,5828,5842,14.53,3.27,28,36,0,0
227181,124283535,2,5839,5800,14.58,3.38,29,36,0,0
227582,124388217,2,5795,5757,14.58,3.35,28,36,0,0
228070,124504203,2,5765,5857,14.6,3.27,28,36,0,0
228469,124604978,2,5852,5757,14.56,3.19,28,36,0,0
228925,124719414,2,5757,5757,14.54,3.25,28,36,0,0
229327,124822109,2,5761,5828,14.58,3.22,28,36,0,0
229780,124938246,2,5826,5800,14.52,3.09,28,36,0,0
230227,125045079,2,5805,5928,14.6,3.16,28,36,0,0
230672,125156376,2,5919,5814,14.58,3.09,28,36,0,0
231125,125267895,2,5808,5757,14.57,3.29,28,37,0,0
231526,125367422,2,5755,5714,14.55,3.14,28,37,0,0
231975,125477096,2,5719,5828,14.61,3.29,28,37,0,0
232419,125588421,2,5820,5714,14.61,2.63,28,37,0,0
232872,125701781,2,5693,5528,14.64,2.96,28,37,0,0
233764,125920010,2,5532,5628,14.61,2.86,28,37,0,0
234172,126024118,2,5617,5514,14.6,2.87,28,37,0,0
234620,126133978,2,5518,5557,14.51,2.96,28,37,0,0
235024,126236044,2,5555,5500,14.57,2.94,28,37,0,0
235471,126347733,2,5493,5400,14.55,2.82,28,37,0,0
235878,126448421,2,5402,5557,14.48,2.84,28,38,0,0
236367,126567406,2,5541,5385,14.58,2.79,28,38,0,0
236767,126665955,2,5390,5571,14.57,3.15,28,38,0,0
237224,126782771,2,5569,5557,14.58,3.12,28,38,0,0
237673,126891029,2,5555,5542,14.55,3.27,28,38,0,0
238074,126991689,2,5544,5685,14.55,3.21,28,38,0,0
238561,127105753,2,5700,5857,14.53,3.83,28,38,0,0
238974,127208365,2,5866,6057,14.55,3.96,28,38,0,0
239426,127320583,2,6057,6057,14.53,4.22,28,38,0,0
239827,127420414,2,6060,6142,14.5,4.28,28,38,0,0
240323,127543613,2,6126,6042,14.52,3.93,28,39,0,0
240718,127638558,2,6054,6214,14.51,4.16,28,39,0,0
241123,127740105,2,6209,6042,14.49,3.87,28,39,0,0
241575,127854027,2,6039,5985,14.54,3.92,28,39,0,0
242013,127956779,2,5987,6085,14.47,3.83,29,39,0,0
242463,128069173,2,6071,5885,14.5,3.76,28,39,0,0
242908,128181166,2,5898,6028,14.5,3.66,29,39,0,0
243363,128288986,2,6024,5985,14.47,3.55,29,39,0,0
243807,128398562,2,5993,6085,14.47,3.71,29,40,0,0
244251,128506765,2,6070,5928,14.48,3.92,29,40,0,0
244648,128607372,2,5933,6057,14.5,3.74,28,40,0,0
245104,128720447,2,6055,5942,14.54,3.39,29,40,0,0
245549,128830446,2,5937,5828,14.51,3.09,28,40,0,0
246039,128949600,2,5821,5757,14.53,3.43,29,40,0,0
246443,129048204,2,5766,5842,14.5,3.25,28,40,0,0
246837,129148220,2,5841,5828,14.58,3.1,28,40,0,0
247331,129266225,2,5826,5814,14.55,2.89,29,40,0,0
247774,129375123,2,5800,5671,14.51,2.86,28,40,0,0
249115,129704068,2,5680,6000,14.57,3.03,28,41,0,0
249521,129807127,2,5984,5842,14.54,3.06,29,41,0,0
249960,129910514,2,5845,5914,14.54,3.08,29,41,0,0
250407,130025059,2,5916,5957,14.59,3.09,29,41,0,0
250851,130136546,2,5961,6014,14.57,3.33,29,41,0,0
251307,130250922,2,5998,5842,14.65,3.19,29,41,0,0
251718,130357345,2,5855,6000,14.48,3.62,29,41,0,0
252165,130463604,2,6006,6100,14.56,3.52,29,41,0,0
252567,130567235,2,6098,6071,14.57,3.42,29,41,0,0
253018,130676227,2,6058,5871,14.57,3.29,29,42,0,0
253464,130788537,2,5884,6085,14.59,3.09,28,42,0,0
253916,130901113,2,6074,5957,14.56,3.46,29,42,0,0
254362,131011232,2,5965,6057,14.55,3.42,29,42,0,0
255212,131222623,2,6047,5857,14.57,2.99,29,42,0,0
255618,131329624,2,5856,5814,14.61,2.66,29,42,0,0
256107,131444932,2,5800,5671,14.56,3.02,29,42,0,0
256551,131554864,2,5671,5671,14.59,3.03,29,42,0,0
256990,131654980,2,5674,5714,14.59,2.97,29,42,0,0
257434,131765082,2,5716,5771,14.58,2.92,29,43,0,0
257883,131873331,2,5769,5714,14.58,2.94,29,43,0,0
258366,131991968,2,5709,5657,14.61,2.88,29,43,0,0
258808,132103585,2,5678,5857,14.55,3.19,29,43,0,0
259626,132305461,2,5857,5885,14.54,3.44,29,43,0,0
260108,132425327,2,5887,5914,14.56,3.36,29,43,0,0
260550,132536889,2,5923,6000,14.58,3.37,29,43,0,0
261002,132648969,2,5997,5971,14.58,3.33,29,43,0,0
261445,132759611,2,5953,5814,14.58,3.18,29,43,0,0
261894,132865204,2,5834,6057,14.6,3.59,29,44,0,0
262333,132970627,2,6060,6100,14.59,3.4,29,44,0,0
262780,133080475,2,6081,5928,14.48,3.85,29,44,0,0
263182,133180136,2,5930,6057,14.55,3.69,29,44,0,0
263673,133299388,2,6048,5985,14.6,3.75,29,44,0,0
264111,133404397,2,5978,5914,14.57,3.35,29,44,0,0
264517,133504240,2,5915,6000,14.53,4.28,29,44,0,0
265413,133725962,2,5999,5914,14.56,3.5,29,44,0,0
265859,133836314,2,5918,5985,14.55,3.43,29,44,0,0
266309,133945274,2,5987,6014,14.58,3.53,29,45,0,0
266716,134047565,2,6012,5928,14.57,3.48,29,45,0,0
267156,134158218,2,5931,6128,14.51,3.67,28,45,0,0
267599,134264555,2,6125,6085,14.53,3.92,29,45,0,0
268045,134377442,2,6085,6100,14.55,3.46,29,45,0,0
268499,134491195,2,6098,6085,14.52,3.88,29,45,0,0
268942,134599355,2,6094,6214,14.5,3.91,29,45,0,0
269390,134705415,2,6214,6228,14.47,4.15,29,45,0,0
269835,134818360,2,6234,6300,14.56,3.97,29,45,0,0
270291,134933483,2,6285,6171,14.54,3.55,29,46,0,0
270690,135032104,2,6164,6071,14.52,3.95,29,46,0,0
271618,135255636,2,6070,6057,14.55,3.62,29,46,0,0
272063,135366109,2,6041,5885,14.5,3.6,29,46,0,0
272510,135471315,2,5895,6071,14.51,3.62,29,46,0,0
272950,135581136,2,6067,6014,14.47,3.82,29,46,0,0
273401,135690604,2,6017,6057,14.5,3.71,29,46,0,0
273805,135791999,2,6058,6128,14.5,3.67,29,47,0,0
274290,135904477,2,6115,5871,14.5,3.64,29,47,0,0
274731,136013044,2,5871,5885,14.5,3.69,29,47,0,0
275184,136125626,2,5890,5971,14.49,3.74,29,47,0,0
275632,136238977,2,5929,5500,14.56,2.91,29,47,0,0
276031,136340927,2,5504,5557,14.47,3.29,29,47,0,0
276481,136453134,2,5575,5842,14.52,3.56,29,47,0,0
276920,136560404,2,5844,5871,14.51,3.44,29,47,0,0
277363,136666617,2,5869,5828,14.48,3.44,29,47,0,0
277814,136781582,2,5823,5700,14.48,3.5,29,47,0,0
278259,136889203,2,5703,5785,14.44,3.41,29,48,0,0
278699,136997184,2,5786,5814,14.49,3.46,29,48,0,0
279107,137100548,2,5811,5642,14.47,3.16,29,48,0,0
279594,137217854,2,5639,5585,14.48,3.09,29,48,0,0
280045,137331981,2,5576,5514,14.55,2.88,29,48,0,0
280444,137431608,2,5515,5571,14.51,3.06,29,48,0,0
280890,137540195,2,5570,5528,14.51,3.21,29,48,0,0
281351,137656542,2,5546,5728,14.5,3.57,29,48,0,0
281753,137760402,2,5730,5814,14.57,3.1,29,48,0,0
282205,137868941,2,5800,5628,14.57,2.55,29,48,0,0
282606,137971376,2,5626,5557,14.54,2.86,29,49,0,0
283103,138090025,2,5557,5571,14.54,2.78,29,49,0,0
283546,138197859,2,5575,5642,14.5,2.65,29,49,0,0
283994,138308208,2,5644,5671,14.55,2.81,29,49,0,0
284397,138410961,2,5657,5500,14.55,2.83,29,49,0,0
284843,138521994,2,5506,5571,14.51,2.76,29,49,0,0
285243,138620627,2,5570,5557,14.51,2.5,29,49,0,0
285732,138734400,2,5559,5614,14.52,2.88,29,49,0,0
286187,138854422,2,5603,5485,14.57,2.73,29,49,0,0
286590,138956567,2,5499,5685,14.48,3.19,29,49,0,0
287039,139063950,2,5684,5671,14.44,3.2,29,49,0,0
287485,139174397,2,5665,5600,14.5,3.36,29,49,0,0
287936,139286048,2,5610,5714,14.47,3.25,29,50,0,0
288377,139394043,2,5728,5871,14.51,3.59,29,50,0,0
288826,139503155,2,5872,5885,14.42,3.81,29,50,0,0
289231,139608211,2,5887,5914,14.45,3.65,29,50,0,0
289713,139724995,2,5914,5914,14.44,3.68,29,50,0,0
290117,139823996,2,5919,5985,14.51,3.93,29,50,0,0
290564,139937372,2,5989,6028,14.5,3.79,29,50,0,0
290972,140038095,2,6022,5957,14.44,3.93,29,50,0,0
291418,140146169,2,5957,5971,14.48,3.68,29,50,0,0
291837,140256981,2,5968,5842,14.5,3.42,29,51,0,0
292276,140362945,2,5843,5900,14.52,3.31,29,51,0,0
292768,140482964,2,5892,5814,14.49,3.51,29,51,0,0
293206,140591322,2,5807,5742,14.44,3.42,29,51,0,0
293655,140700986,2,5734,5657,14.49,3.57,29,51,0,0
294016,140794205,2,5662,5900,14.5,3.56,29,51,0,0
294507,140912132,2,5882,5714,14.48,3.31,29,51,0,0
294948,141020434,2,5722,5800,14.5,2.9,29,51,0,0
295356,141118812,2,5796,5557,14.51,2.87,29,51,0,0
295840,141236227,2,5557,5557,14.49,2.91,29,51,0,0
296279,141342330,2,5558,5585,14.51,3.27,29,52,0,0
296726,141453419,2,5590,5642,14.6,2.7,29,52,0,0
297125,141554635,2,5644,5685,14.57,2.76,29,52,0,0
297574,141661461,2,5670,5328,14.6,2.2,29,52,0,0
298021,141776193,2,5322,5271,14.61,2.02,29,52,0,0
298470,141883546,2,5273,5300,14.61,2.51,29,52,0,0
298873,141986122,2,5297,5242,14.52,2.53,29,52,0,0
299322,142094119,2,5243,5271,14.55,2.34,29,52,0,0
299726,142196155,2,5267,5085,14.69,1.78,29,52,0,0
300220,142313048,2,5072,4957,14.63,2.04,29,52,0,0
300664,142425243,2,4963,5028,14.65,1.88,29,52,0,0
301113,142534571,2,5023,4914,14.64,2.14,29,52,0,0
301550,142644341,2,4930,5071,14.59,1.94,29,52,0,0
301995,142759126,2,5061,5000,14.61,2.13,29,52,0,0
302401,142852456,2,5004,5085,14.66,2.36,29,53,0,0
302850,142973814,2,5100,5242,14.57,2.38,29,53,0,0
303260,143070215,2,5248,5414,14.55,2.66,29,53,0,0
303701,143184950,2,5428,5614,14.55,2.7,29,53,0,0
304147,143290926,2,5614,5614,14.58,2.66,29,53,0,0
304598,143404462,2,5601,5471,14.57,2.46,29,53,0,0
305043,143515361,2,5480,5571,14.51,2.61,29,53,0,0
305451,143618586,2,5567,5528,14.54,2.66,29,53,0,0
305895,143729485,2,5541,5642,14.54,3.06,29,53,0,0
306302,143831764,2,5648,5714,14.49,2.92,29,53,0,0
306751,143942084,2,5728,5842,14.52,3.19,29,53,0,0
307155,144047417,2,5850,5914,14.49,3.25,29,53,0,0
307637,144158060,2,5911,5885,14.5,3.24,29,54,0,0
308048,144261418,2,5888,6157,14.55,3.36,29,54,0,0
308491,144373002,2,6133,5885,14.5,3.45,29,54,0,0
308944,144480088,2,5886,5900,14.52,3.06,29,54,0,0
309347,144587401,2,5889,5771,14.51,3.08,29,54,0,0
309801,144700443,2,5780,5885,14.53,3.26,29,54,0,0
310202,144801524,2,5883,5757,14.54,3.18,29,54,0,0
310648,144911415,2,5756,5742,14.5,2.78,29,54,0,0
311095,145021774,2,5737,5657,14.56,2.68,29,54,0,0
311621,145148630,2,5669,5742,14.56,3.04,29,54,0,0
311987,145237976,2,5743,5771,14.52,2.86,29,54,0,0
312434,145350160,2,5763,5628,14.51,2.98,29,55,0,0
312844,145453968,2,5629,5714,14.52,3.13,29,55,0,0
313323,145565461,2,5711,5671,14.48,2.95,29,55,0,0
313771,145673942,2,5671,5700,14.47,3.03,29,55,0,0
314217,145784076,2,5703,5742,14.48,2.87,29,55,0,0
314665,145896093,2,5740,5728,14.49,3.03,29,55,0,0
315105,146001207,2,5720,5571,14.52,2.92,29,55,0,0
315373,146106204,2,5571,5571,14.53,2.87,29,55,0,0
315824,146221781,2,5558,5385,14.5,2.44,29,55,0,0
316269,146327939,2,5385,5428,14.55,3.21,29,55,0,0
316754,146446352,2,5448,5657,14.52,3.48,29,55,0,0
317199,146555247,2,5662,5742,14.48,3.74,29,56,0,0
317650,146665930,2,5753,5871,14.52,3.9,29,56,0,0
318052,146767994,2,5873,5942,14.5,3.86,29,56,0,0
318535,146878344,2,5931,5785,14.47,3.58,29,56,0,0
318983,146990221,2,5781,5742,14.5,3.25,29,56,0,0
319392,147091863,2,5724,5500,14.48,2.71,29,56,0,0
319799,147195943,2,5501,5528,14.49,3.2,29,56,0,0
320292,147315926,2,5533,5585,14.57,2.74,29,56,0,0
320694,147418172,2,5572,5314,14.54,2.68,29,56,0,0
321144,147533901,2,5319,5371,14.52,2.79,29,56,0,0
321592,147640628,2,5379,5500,14.56,3.03,29,57,0,0
321996,147742989,2,5484,5271,14.51,2.29,29,57,0,0
322440,147849582,2,5270,5214,14.54,2.87,29,57,0,0
322933,147970903,2,5212,5200,14.52,2.42,29,57,0,0
323379,148077478,2,5194,5142,14.55,2.46,29,57,0,0
323819,148186075,2,5145,5200,14.51,2.38,29,57,0,0
324271,148296876,2,5195,5128,14.57,2.51,29,57,0,0
324715,148408130,2,5128,5128,14.54,2.42,29,57,0,0
325163,148520338,2,5131,5157,14.54,2.8,29,57,0,0
325613,148628868,2,5180,5428,14.52,3.01,29,57,0,0
326066,148740979,2,5425,5400,14.5,2.89,29,57,0,0
326470,148842739,2,5415,5628,14.46,3.41,29,57,0,0
326873,148947090,2,5626,5600,14.45,2.98,29,57,0,0
327324,149056576,2,5599,5585,14.46,2.95,29,58,0,0
327772,149170642,2,5583,5571,14.54,2.95,29,58,0,0
328217,149275849,2,5572,5600,14.49,2.61,29,58,0,0
328661,149385379,2,5593,5500,14.49,2.49,29,58,0,0
329107,149493847,2,5500,5500,14.51,2.68,29,58,0,0
329546,149599605,2,5497,5457,14.51,2.66,29,58,0,0
329995,149708771,2,5458,5485,14.51,2.86,29,58,0,0
330399,149812142,2,5484,5471,14.47,2.53,29,58,0,0
330889,149935044,2,5448,5200,14.52,2.41,29,58,0,0
331292,150031331,2,5200,5228,14.5,2.49,29,58,0,0
331740,150145237,2,5238,5514,14.5,3.37,29,58,0,0
332185,150252646,2,5520,5928,14.5,3.7,29,59,0,0
332627,150361987,2,5929,5957,14.47,3.57,29,59,0,0
333077,150472371,2,5957,5971,14.51,3.72,29,59,0,0
333483,150577409,2,5967,5885,14.49,3.76,29,59,0,0
333932,150687867,2,5887,6057,14.45,3.84,29,59,0,0
334374,150796177,2,6057,6071,14.48,3.97,29,59,0,0
334829,150912367,2,6066,6028,14.42,3.95,29,59,0,0
335309,151028855,2,6033,6071,14.44,3.77,29,59,0,0
335719,151128267,2,6062,5971,14.54,3.5,29,59,0,0
336165,151237940,2,5964,5885,14.54,3.06,29,60,0,0
336611,151350625,2,5876,5785,14.61,2.86,29,60,0,0
337018,151453801,2,5766,5571,14.66,2.29,29,60,0,0
337464,151564411,2,5555,5414,14.66,2.2,29,60,0,0
338360,151789811,2,5406,5285,14.61,2.5,29,60,0,0
338807,151894200,2,5303,5500,14.57,2.32,29,60,0,0
339212,151989606,2,5494,5371,14.6,2.2,29,60,0,0
339655,152098206,2,5371,5371,14.62,2.03,29,60,0,0
340099,152208252,2,5364,5285,14.59,2.04,29,60,0,0
340552,152322473,2,5303,5428,14.64,2.19,29,60,0,0
340994,152433137,2,5420,5342,14.6,2.18,29,60,0,0
341442,152541158,2,5353,5457,14.54,2.42,29,60,0,0
341884,152650438,2,5472,5642,14.62,2.96,29,60,0,0
342325,152760226,2,5643,5657,14.57,2.5,29,61,0,0
342776,152872230,2,5671,5814,14.56,2.84,29,61,0,0
343178,152972219,2,5818,5871,14.54,2.82,29,61,0,0
343592,153075594,2,5880,6071,14.58,2.94,29,61,0,0
344527,153305467,2,6075,6171,14.55,2.85,29,61,0,0
344968,153406618,2,6144,5871,14.6,2.78,29,61,0,0
345373,153504867,2,5875,6057,14.56,3.31,29,61,0,0
345823,153618559,2,6053,5985,14.58,2.9,29,61,0,0
346276,153735754,2,5991,6057,14.58,2.9,29,61,0,0
346674,153831872,2,6048,5914,14.53,2.96,29,61,0,0
347125,153941544,2,5910,5742,14.57,2.94,29,62,0,0
347577,154053025,2,5752,5885,14.58,2.85,29,62,0,0
348023,154163142,2,5883,5871,14.55,2.97,29,62,0,0
348472,154271156,2,5866,5771,14.56,2.77,29,62,0,0
348915,154379787,2,5777,5857,14.57,3.05,29,62,0,0
349325,154481992,2,5855,5785,14.6,2.75,29,62,0,0
349809,154596016,2,5779,5714,14.53,3.02,29,62,0,0
350260,154707638,2,5721,5800,14.57,2.66,29,62,0,0
350660,154807594,2,5800,5842,14.55,3.11,29,62,0,0
351144,154927148,2,5854,5971,14.54,2.95,29,62,0,0
351552,155026085,2,5968,5871,14.55,2.98,29,62,0,0
352045,155148940,2,5885,6014,14.58,3.32,29,63,0,0
352450,155247586,2,6010,5942,14.58,2.94,29,63,0,0
352893,155357086,2,5942,5957,14.54,3.35,29,63,0,0
353302,155460427,2,5957,5971,14.54,3.24,29,63,0,0
353748,155571185,2,5974,6057,14.58,3.46,29,63,0,0
354196,155679972,2,6056,6028,14.54,3.21,29,63,0,0
354645,155790744,2,6033,6114,14.5,3.4,29,63,0,0
355090,155896327,2,6116,6171,14.48,3.79,29,63,0,0
355533,156004557,2,6176,6300,14.44,3.65,29,63,0,0
356021,156119951,2,6298,6285,14.45,3.77,29,63,0,0
356431,156223039,2,6288,6342,14.44,3.76,29,64,0,0
356885,156339550,2,6324,6228,14.46,3.95,29,64,0,0
357320,156440160,2,6231,6271,14.49,3.81,29,64,0,0
357779,156556470,2,6272,6285,14.44,4.11,29,64,0,0
358179,156654946,2,6285,6285,14.46,3.86,29,64,0,0
358630,156768390,2,6279,6114,14.51,3.53,29,64,0,0
359115,156880954,2,6093,5885,14.53,3.22,29,64,0,0
359523,156986759,2,5880,5842,14.58,3.16,29,64,0,0
359971,157093777,2,5833,5742,14.56,3.09,29,64,0,0
360414,157204322,2,5764,6000,14.53,3.14,29,64,0,0
360865,157310736,2,5976,5728,14.52,3.19,29,65,0,0
361302,157416333,2,5736,5857,14.49,3.29,29,65,0,0
361748,157525021,2,5858,5942,14.51,3.14,29,65,0,0
362194,157635346,2,5944,5971,14.5,3.36,29,65,0,0
362640,157747926,2,5971,5971,14.57,3.48,29,65,0,0
363086,157852945,2,5977,6071,14.48,3.49,29,65,0,0
363529,157960736,2,6067,6028,14.5,3.63,29,65,0,0
363978,158070435,2,6030,6071,14.45,3.78,29,65,0,0
364381,158174609,2,6069,6028,14.51,3.63,29,65,0,0
364870,158292148,2,6030,6057,14.52,3.74,29,66,0,0
365270,158392358,2,6060,6300,14.52,4.03,29,66,0,0
365761,158511098,2,6292,6214,14.52,4.18,29,66,0,0
366161,158609580,2,6211,6114,14.49,4.1,29,66,0,0
366655,158732388,2,6129,6271,14.51,4.01,29,66,0,0
367059,158832325,2,6261,6085,14.51,4.07,29,66,0,0
367514,158948322,2,6086,6214,14.49,3.97,29,66,0,0
367999,159061660,2,6218,6257,14.56,3.74,29,66,0,0
368439,159169156,2,6241,6042,14.5,3.75,29,67,0,0
368843,159268209,2,6041,6028,14.57,3.77,29,67,0,0
369296,159386449,2,6022,5971,14.54,3.72,29,67,0,0
369743,159492655,2,5980,6100,14.48,3.75,29,67,0,0
370189,159604116,2,6089,5985,14.45,3.86,29,67,0,0
370631,159708563,2,5987,6100,14.46,4.04,29,67,0,0
371080,159820080,2,6104,6214,14.44,4.34,29,67,0,0
371529,159931347,2,6226,6328,14.44,4.14,29,67,0,0
371976,160038385,2,6318,6200,14.47,3.82,29,67,0,0
372419,160152580,2,6207,6271,14.48,3.84,29,68,0,0
372870,160263590,2,6256,6157,14.46,4.03,29,68,0,0
373308,160365096,2,6154,6114,14.54,3.86,29,68,0,0
373759,160473895,2,6119,6214,14.48,3.94,29,68,0,0
374207,160587386,2,6199,6057,14.48,3.84,29,68,0,0
374655,160694687,2,6061,6100,14.51,3.9,29,68,0,0
375098,160802953,2,6095,6057,14.55,3.88,29,68,0,0
375542,160911169,2,6061,6114,14.5,3.84,29,68,0,0
375948,161010441,2,6111,5885,14.48,3.85,29,69,0,0
376401,161122603,2,5887,6085,14.49,4.17,29,69,0,0
376843,161232213,2,6085,6100,14.49,4.18,29,69,0,0
377320,161345544,2,6097,6042,14.47,4.32,29,69,0,0
377773,161455251,2,6049,6157,14.5,4.52,29,69,0,0
378213,161561172,2,6159,6257,14.47,4.47,29,69,0,0
378667,161671422,2,6259,6300,14.48,4.49,29,69,0,0
379067,161775853,2,6299,6242,14.51,4.23,29,70,0,0
380897,162224632,2,6234,5885,14.59,3.39,29,70,0,0
381348,162340585,2,5861,5700,14.55,3.47,29,70,0,0
381750,162436249,2,5695,5600,14.58,2.84,29,70,0,0
382606,162651191,2,5599,5528,14.58,3.17,29,70,0,0
383091,162769149,2,5539,5657,14.55,3.15,29,70,0,0
383537,162875228,2,5588,4657,14.85,0.7,29,71,0,0
383987,162986372,2,4688,5028,14.72,2.73,29,71,0,0
384840,163199537,2,4996,4114,14.81,1.14,29,71,0,0
385286,163307395,2,4107,3657,14.91,0.74,29,71,0,0
385732,163419195,2,3629,3085,14.98,0.29,29,71,0,0
386175,163528241,2,3071,2814,14.96,0.37,29,71,0,0
386904,163741013,2,2782,2757,14.97,0.44,29,71,0,0
387347,163848281,2,2753,2714,14.97,0.4,29,71,0,0
387841,163968122,2,2718,2771,14.98,0.45,29,71,0,0
388239,164062947,2,2771,2771,14.97,0.46,29,71,0,0
388683,164173475,2,2770,2757,14.97,0.45,29,71,0,0
389176,164290103,2,2757,2757,14.96,0.47,29,71,0,0
389570,164390918,2,2757,2814,14.98,0.43,29,71,0,0
390020,164500045,2,2810,2771,14.96,0.48,29,71,0,0
390510,164617385,2,2768,2742,14.97,0.43,29,71,0,0
390916,164718234,2,2742,2771,15,0.48,29,71,0,0
391407,164836956,2,2772,2785,14.96,0.48,29,71,0,0
391848,164942352,2,2782,2757,14.98,0.44,29,71,0,0
392298,165049975,2,2758,2785,14.98,0.41,29,71,0,0
392701,165152175,2,2775,2600,15.07,0.17,29,71,0,0
393149,165258750,2,2558,1757,15.04,0,29,71,0,0
393637,165374219,2,1730,1357,15.04,0.01,29,71,0,0
394084,165478007,2,1350,1271,15.04,0.08,29,71,0,0
394531,165587751,2,1268,1242,15.03,0.09,29,71,0,0
394979,165695244,2,1242,1242,15.04,0.09999999,29,71,0,0
395425,165805104,2,1242,1242,15.04,0.09999999,29,71,0,0
395921,165917693,2,1242,1242,15.04,0.09999999,29,71,0,0
396361,166026625,2,1242,1242,15.04,0.09999999,29,71,0,0
396812,166141202,2,1242,1242,15.04,0.09999999,29,71,0,0
397660,166345247,2,1242,1242,15.04,0.09999999,29,71,0,0
398183,166464459,2,1243,1257,15.05,0.09999999,29,71,0,0
398588,166567883,2,1255,1242,15.04,0.09999999,29,71,0,0
399039,166672183,2,1242,1242,15.05,0.09999999,29,71,0,0
399482,166783609,2,1243,1257,15.05,0.09999999,29,71,0,0
399934,166890156,2,1255,1242,15.06,0.09999999,29,71,0,0
400383,167000868,2,1242,1242,15.06,0.09999999,29,71,0,0
401313,167218714,2,1242,1242,15.06,0.09999999,29,71,0,0
401763,167328200,2,1242,1242,15.06,0.09999999,29,71,0,0
402210,167434411,2,1242,1242,15.06,0.09999999,29,71,0,0
402657,167544558,2,1242,1242,15.07,0.09999999,29,71,0,0
403102,167647901,2,1242,1242,15.06,0.09999999,29,71,0,0
403553,167757471,2,1242,1242,15.07,0.09999999,29,71,0,0
403956,167856606,2,1242,1257,15.07,0.09999999,29,71,0,0
404443,167968963,2,1256,1242,15.07,0.09999999,29,71,0,0
404933,168082937,2,1242,1242,15.07,0.09999999,28,71,0,0
405335,168183433,2,1242,1242,15.08,0.09999999,29,71,0,0
405785,168292604,2,1242,1242,15.07,0.09999999,29,71,0,0
406230,168400939,2,1242,1242,15.08,0.09999999,29,71,0,0
407126,168620711,2,1242,1242,15.07,0.09999999,29,71,0,0
407611,168736379,2,1242,1242,15.08,0.09999999,28,71,0,0
408062,168846099,2,1242,1242,15.08,0.09999999,29,71,0,0
408468,168947102,2,1242,1242,15.08,0.09999999,28,71,0,0
408957,169060441,2,1242,1242,15.08,0.09999999,29,71,0,0
409404,169173965,2,1242,1242,15.08,0.09999999,28,71,0,0
409888,169286589,2,1242,1242,15.08,0.09999999,29,71,0,0
410300,169391119,2,1242,1242,15.09,0.09999999,28,71,0,0
410748,169497024,2,1242,1242,15.08,0.09999999,28,71,0,0
411189,169602162,2,1242,1242,15.08,0.09999999,29,71,0,0
411672,169712403,2,1242,1242,15.08,0.11,29,71,0,0
412119,169822027,2,1242,1242,15.09,0.11,28,71,0,0
412571,169934371,2,1242,1242,15.08,0.09999999,28,71,0,0
413023,170038012,2,1242,1242,15.1,0.11,28,71,0,0
413464,170147430,2,1242,1242,15.09,0.11,29,71,0,0
413905,170248346,2,1242,1242,15.1,0.11,28,71,0,0
414355,170354970,2,1242,1242,15.1,0.09999999,28,71,0,0
414803,170461861,2,1242,1257,15.1,0.09999999,28,71,0,0
415291,170580604,2,1257,1257,15.1,0.11,28,71,0,0
415695,170678008,2,1255,1228,15.1,0.09999999,28,71,0,0
416182,170794479,2,1229,1242,15.11,0.09999999,28,71,0,0
416591,170893112,2,1242,1242,15.1,0.11,28,71,0,0
416989,171006853,2,1241,1228,15.1,0.11,28,71,0,0
417437,171111948,2,1228,1228,15.1,0.11,28,71,0,0
417929,171229426,2,1228,1242,15.11,0.09999999,28,71,0,0
418340,171334415,2,1242,1242,15.1,0.09999999,28,71,0,0
418786,171439013,2,1242,1242,15.1,0.09999999,28,71,0,0
419265,171549630,2,1242,1242,15.11,0.09999999,28,71,0,0
419716,171658989,2,1242,1242,15.1,0.09999999,28,71,0,0
420156,171766744,2,1242,1242,15.12,0.09999999,28,71,0,0
420648,171880895,2,1240,1228,15.11,0.11,28,71,0,0
421051,171981858,2,1228,1228,15.11,0.11,28,71,0,0
421502,172091110,2,1228,1242,15.11,0.09999999,28,71,0,0
421951,172202918,2,1242,1242,15.11,0.09999999,28,71,0,0
422395,172305635,2,1242,1242,15.11,0.11,28,71,0,0
423331,172537237,2,1242,1242,15.11,0.11,28,71,0,0
423732,172629950,2,1242,1242,15.11,0.11,28,71,0,0
424173,172737573,2,1242,1242,15.11,0.11,28,71,0,0
424664,172859598,2,1242,1242,15.11,0.11,28,71,0,0
425070,172959922,2,1242,1242,15.12,0.11,28,71,0,0
425561,173074757,2,1242,1242,15.12,0.09999999,28,71,0,0
425968,173180970,2,1242,1242,15.11,0.09999999,28,71,0,0
426413,173284963,2,1242,1242,15.12,0.09999999,28,71,0,0
426863,173389410,2,1242,1257,15.12,0.09999999,28,71,0,0
427306,173494586,2,1257,1257,15.12,0.09999999,28,71,0,0
427746,173600252,2,1256,1242,15.12,0.11,28,71,0,0
428198,173710338,2,1242,1242,15.12,0.11,28,71,0,0
429125,173930960,2,1242,1242,15.12,0.11,28,71,0,0
429578,174040390,2,1242,1242,15.12,0.11,28,71,0,0
430022,174148933,2,1242,1242,15.13,0.11,28,71,0,0
430507,174257385,2,1242,1242,15.13,0.11,28,71,0,0
430912,174357947,2,1242,1242,15.12,0.11,28,71,0,0
431363,174465860,2,1242,1242,15.13,0.11,28,71,0,0
431807,174574345,2,1242,1242,15.13,0.11,28,71,0,0
432294,174686950,2,1242,1242,15.13,0.11,28,71,0,0
432697,174786197,2,1242,1242,15.13,0.11,28,71,0,0
433183,174897014,2,1242,1257,15.13,0.09999999,28,71,0,0
433631,175004043,2,1256,1242,15.13,0.11,28,71,0,0
434088,175115274,2,1242,1242,15.13,0.11,28,71,0,0
434539,175224362,2,1209,414,15.14,0,28,71,0,0
434999,175336131,2,391,171,15.14,0.04,28,71,0,0
435451,175439770,2,163,0,15.14,0.04,28,71,0,0
436352,175650900,2,0,0,15.14,0.04,28,71,0,0
436843,175765596,2,0,0,15.15,0.04,28,71,0,0
437343,175880174,2,0,0,15.15,0.04,28,71,0,0
437792,175987606,2,0,0,15.15,0.04,28,71,0,0
438248,176093497,2,0,0,15.15,0.04,28,71,0,0
438698,176199657,2,0,0,15.15,0.04,28,71,0,0
439208,176325372,2,0,0,15.16,0.04,28,71,0,0
439581,176420236,2,0,0,15.15,0.04,28,71,0,0
440032,176524143,2,0,0,15.16,0.04,28,71,0,0
440524,176641132,2,0,0,15.16,0.04,28,71,0,0
440930,176739427,2,0,0,15.16,0.04,28,71,0,0
441429,176856009,2,0,0,15.16,0.04,28,71,0,0
441838,176957036,2,0,0,15.15,0.04,28,71,0,0
442258,177061464,2,0,0,15.16,0.04,28,71,0,0
442749,177175959,2,0,0,15.16,0.04,28,71,0,0
443197,177278452,2,0,0,15.16,0.04,28,71,0,0
443652,177387213,2,0,0,15.16,0.04,28,71,0,0
444146,177502237,2,0,0,15.16,0.04,28,71,0,0
444551,177599969,2,0,0,15.16,0.04,28,71,0,0
445048,177714851,2,0,0,15.16,0.04,28,71,0,0
445462,177818573,2,0,0,15.16,0.04,28,71,0,0
445951,177936072,2,0,0,15.17,0.04,28,71,0,0
446402,178040774,2,0,0,15.16,0.04,28,71,0,0
446853,178151968,2,0,0,15.16,0.04,28,71,0,0
447307,178259165,2,0,0,15.16,0.04,28,71,0,0
447763,178366377,2,0,0,15.16,0.04,28,71,0,0
448669,178582330,2,0,0,15.17,0.04,28,71,0,0
449164,178696940,2,0,0,15.16,0.04,28,71,0,0
449617,178806944,2,0,0,15.17,0.04,28,71,0,0
450067,178912443,2,0,0,15.17,0.04,28,71,0,0
450520,179023107,2,0,0,15.17,0.04,28,71,0,0
451011,179138404,2,0,0,15.17,0.04,27,71,0,0
451462,179242097,2,0,0,15.17,0.04,27,71,0,0
451914,179350901,2,0,0,15.16,0.04,28,71,0,0
452410,179465594,2,0,0,15.17,0.04,27,71,0,0
452821,179567874,2,0,0,15.17,0.04,27,71,0,0
453316,179682892,2,0,0,15.17,0.04,28,71,0,0
453765,179788180,2,0,0,15.17,0.04,28,71,0,0
454260,179900986,2,0,0,15.17,0.04,28,71,0,0
454713,180008108,2,0,0,15.17,0.04,28,71,0,0
455163,180111398,2,0,0,15.17,0.04,27,71,0,0
455616,180222139,2,0,0,15.17,0.04,27,71,0,0
456073,180325934,2,0,0,15.17,0.04,28,71,0,0
456525,180436780,2,0,0,15.17,0.04,28,71,0,0
456983,180549425,2,0,0,15.17,0.04,28,71,0,0
457432,180656036,2,0,0,15.18,0.04,28,71,0,0
457891,180769916,2,0,0,15.17,0.04,28,71,0,0
458345,180875334,2,0,0,15.17,0.04,28,71,0,0
458797,180986204,2,0,0,15.17,0.04,27,71,0,0
459249,181090954,2,0,0,15.18,0.04,28,71,0,0
459702,181202268,2,0,0,15.17,0.04,28,71,0,0
460155,181308789,2,0,0,15.18,0.04,27,71,0,0
460619,181423139,2,0,0,15.18,0.04,28,71,0,0
461072,181527213,2,0,0,15.17,0.04,28,71,0,0
461567,181645142,2,0,0,15.18,0.04,28,71,0,0
462014,181750183,2,0,0,15.18,0.04,28,71,0,0
462472,181857533,2,0,0,15.18,0.04,27,71,0,0
462963,181974632,2,0,0,15.18,0.04,27,71,0,0
463414,182082200,2,0,0,15.19,0.04,27,71,0,0
463867,182191456,2,0,0,15.18,0.04,27,71,0,0
464770,182404190,2,0,0,15.18,0.04,27,71,0,0
465224,182515992,2,0,0,15.18,0.04,27,71,0,0
465677,182625877,2,0,0,15.18,0.04,28,71,0,0
466131,182733423,2,0,0,15.19,0.04,27,71,0,0
467041,182953100,2,0,0,15.18,0.04,28,71,0,0
