LineNo,TimeUS,Instance,RPM,RawRPM,Volt,Curr,Temp,CTot,MotTemp,Err
1849,5.6296e+07,3,0,0,15.51,0.04,26,0,0,0
2266,5.64e+07,3,0,0,15.51,0.04,26,0,0,0
2679,5.6505e+07,3,0,0,15.5,0.04,26,0,0,0
3137,5.6622e+07,3,0,0,15.51,0.04,26,0,0,0
3549,5.6728e+07,3,0,0,15.5,0.04,26,0,0,0
3959,5.6829e+07,3,0,0,15.51,0.04,26,0,0,0
4406,5.6947e+07,3,0,0,15.51,0.03,26,0,0,0
4813,5.7049e+07,3,0,0,15.51,0.03,26,0,0,0
5677,5.7268e+07,3,0,0,15.51,0.03,26,0,0,0
6093,5.7373e+07,3,0,0,15.51,0.04,25,0,0,0
6545,5.7486e+07,3,0,0,15.51,0.04,26,0,0,0
6964,5.7591e+07,3,0,0,15.51,0.03,26,0,0,0
7381,5.7699e+07,3,0,0,15.51,0.04,26,0,0,0
7801,5.7804e+07,3,0,0,15.51,0.04,25,0,0,0
8217,5.7909e+07,3,0,0,15.51,0.03,26,0,0,0
8633,5.8014e+07,3,0,0,15.51,0.04,25,0,0,0
9046,5.8118e+07,3,0,0,15.51,0.03,26,0,0,0
9504,5.8233e+07,3,0,0,15.51,0.03,26,0,0,0
9914,5.8338e+07,3,0,0,15.51,0.03,26,0,0,0
10323,5.8444e+07,3,0,0,15.5,0.03,25,0,0,0
11067,5.8667e+07,3,0,0,15.51,0.03,26,0,0,0
11483,5.877e+07,3,0,0,15.5,0.03,26,0,0,0
11895,5.8876e+07,3,0,0,15.51,0.04,25,0,0,0
12354,5.8994e+07,3,0,0,15.51,0.04,25,0,0,0
12766,5.9101e+07,3,0,0,15.51,0.03,25,0,0,0
13180,5.9204e+07,3,0,0,15.5,0.03,25,0,0,0
13594,5.931e+07,3,0,0,15.51,0.03,25,0,0,0
14046,5.9425e+07,3,0,0,15.51,0.03,26,0,0,0
14457,5.9529e+07,3,0,0,15.51,0.03,25,0,0,0
15322,5.9746e+07,3,0,0,15.51,0.03,26,0,0,0
15738,5.9855e+07,3,0,0,15.51,0.03,25,0,0,0
16152,5.996e+07,3,0,0,15.5,0.03,25,0,0,0
16606,6.0073e+07,3,0,0,15.51,0.03,26,0,0,0
17026,6.0183e+07,3,0,0,15.5,0.03,26,0,0,0
17439,6.0289e+07,3,0,0,15.5,0.03,26,0,0,0
17894,6.0402e+07,3,0,0,15.51,0.03,26,0,0,0
18303,6.0505e+07,3,0,0,15.51,0.03,26,0,0,0
18720,6.0611e+07,3,0,0,15.51,0.03,26,0,0,0
19140,6.072e+07,3,0,0,15.5,0.03,26,0,0,0
19553,6.0825e+07,3,0,0,15.51,0.03,25,0,0,0
20011,6.094e+07,3,0,0,15.51,0.03,25,0,0,0
20421,6.1047e+07,3,0,0,15.5,0.03,26,0,0,0
20830,6.1151e+07,3,0,0,15.5,0.03,26,0,0,0
54667,8.1868e+07,3,0,0,15.51,0.05,26,0,0,0
55043,8.1958e+07,3,0,0,15.51,0.04,26,0,0,0
55495,8.206e+07,3,0,0,15.5,0.05,26,0,0,0
55956,8.2169e+07,3,0,0,15.5,0.05,26,0,0,0
56422,8.228e+07,3,0,0,15.51,0.05,26,0,0,0
56908,8.2387e+07,3,0,0,15.5,0.05,26,0,0,0
57357,8.2489e+07,3,0,0,15.5,0.05,26,0,0,0
57854,8.2603e+07,3,0,0,15.5,0.05,26,0,0,0
58309,8.271e+07,3,0,0,15.51,0.05,26,0,0,0
58762,8.2818e+07,3,0,0,15.51,0.05,26,0,0,0
59218,8.2923e+07,3,0,0,15.51,0.05,26,0,0,0
59675,8.3031e+07,3,0,0,15.51,0.05,26,0,0,0
60615,8.3246e+07,3,0,0,15.5,0.05,26,0,0,0
61110,8.3362e+07,3,0,0,15.51,0.04,26,0,0,0
61560,8.3465e+07,3,0,0,15.5,0.04,26,0,0,0
62016,8.3575e+07,3,0,0,15.5,0.05,26,0,0,0
62917,8.3782e+07,3,0,0,15.5,0.04,26,0,0,0
63371,8.3887e+07,3,0,0,15.51,0.04,26,0,0,0
63868,8.4002e+07,3,15,185,15.5,0.05,26,0,0,0
64323,8.4105e+07,3,210,557,15.48,0.1,26,0,0,0
64777,8.4215e+07,3,590,942,15.47,0.16,26,0,0,0
65721,8.4429e+07,3,950,1214,15.49,0.12,26,0,0,0
66218,8.4542e+07,3,1216,1242,15.5,0.11,26,0,0,0
66669,8.4647e+07,3,1242,1257,15.48,0.11,26,0,0,0
67121,8.4753e+07,3,1257,1257,15.49,0.11,26,0,0,0
67617,8.4865e+07,3,1267,1414,15.47,0.22,26,0,0,0
67870,8.497e+07,3,1434,1957,15.41,0.54,26,0,0,0
68327,8.5079e+07,3,2006,2714,15.17,1.35,26,0,0,0
68781,8.5192e+07,3,2747,3085,15.32,1.33,26,0,0,0
69239,8.5297e+07,3,3120,3457,15.13,1.7,26,0,0,0
69686,8.5402e+07,3,3491,4171,15.05,2.17,26,0,0,0
70108,8.5513e+07,3,4224,4857,14.83,2.86,26,0,0,0
70557,8.5619e+07,3,4865,5414,14.8,3.58,26,0,0,0
71056,8.5736e+07,3,5463,5857,14.64,4.03,26,0,0,0
71464,8.5834e+07,3,5867,6085,14.79,3.85,26,0,0,0
71912,8.5941e+07,3,6083,5985,14.74,3.22,26,0,0,0
72410,8.6055e+07,3,5982,5942,14.82,3,26,0,0,0
72826,8.6161e+07,3,5939,5814,14.79,3.24,26,1,0,0
73321,8.6276e+07,3,5807,5714,14.82,2.64,26,1,0,0
73771,8.6383e+07,3,5710,5542,14.83,2.7,26,1,0,0
74272,8.6502e+07,3,5548,5614,14.84,2.69,26,1,0,0
75174,8.6718e+07,3,5606,5385,14.95,2.33,26,1,0,0
75631,8.683e+07,3,5364,5157,14.92,2.05,26,1,0,0
76082,8.694e+07,3,5143,5028,14.9,2.11,26,1,0,0
76538,8.7048e+07,3,5026,5014,14.86,2.15,26,1,0,0
76985,8.7155e+07,3,5012,5000,14.81,2.23,26,1,0,0
77437,8.7263e+07,3,5018,5200,14.78,2.62,26,1,0,0
77847,8.7363e+07,3,5202,5342,14.82,2.74,26,1,0,0
78344,8.7478e+07,3,5342,5357,14.78,2.7,26,1,0,0
78792,8.7584e+07,3,5363,5471,14.82,3.05,26,2,0,0
79743,8.7808e+07,3,5467,5285,14.85,1.98,26,2,0,0
80195,8.7914e+07,3,5273,5142,14.84,2.34,26,2,0,0
80648,8.8026e+07,3,5138,5085,14.83,2.46,26,2,0,0
81103,8.813e+07,3,5092,5285,14.76,2.69,26,2,0,0
81563,8.8246e+07,3,5291,5357,14.69,2.88,26,2,0,0
82005,8.8355e+07,3,5356,5342,14.8,2.52,26,2,0,0
82456,8.8465e+07,3,5334,5228,14.81,2.25,26,2,0,0
82863,8.8569e+07,3,5229,5385,14.85,3.11,26,2,0,0
83355,8.8687e+07,3,5383,5371,14.82,2.51,26,2,0,0
83754,8.8788e+07,3,5371,5414,14.81,2.99,26,2,0,0
84206,8.8896e+07,3,5420,5500,14.76,3.02,26,3,0,0
84654,8.901e+07,3,5494,5414,14.75,2.67,26,3,0,0
85100,8.9118e+07,3,5424,5657,14.72,3.22,26,3,0,0
85546,8.923e+07,3,5665,5800,14.72,3.44,26,3,0,0
85994,8.9344e+07,3,5788,5671,14.72,2.87,26,3,0,0
86436,8.9448e+07,3,5666,5557,14.81,3.06,26,3,0,0
87330,8.9667e+07,3,5562,5714,14.68,3.32,26,3,0,0
88218,8.9883e+07,3,5715,5771,14.82,2.99,26,3,0,0
88626,8.9987e+07,3,5765,5442,14.87,2.25,26,3,0,0
89119,9.0111e+07,3,5442,5442,14.81,2.74,26,4,0,0
89524,9.0208e+07,3,5439,5414,14.83,2.55,26,4,0,0
89969,9.0314e+07,3,5401,5271,14.88,2.24,26,4,0,0
90370,9.0413e+07,3,5266,5171,14.85,2.36,26,4,0,0
90863,9.0538e+07,3,5153,5000,14.88,2.17,27,4,0,0
91273,9.0636e+07,3,5009,5142,14.89,2.37,27,4,0,0
91719,9.0744e+07,3,5140,5071,14.91,2.31,27,4,0,0
92169,9.086e+07,3,5082,5171,14.82,2.68,27,4,0,0
92655,9.0974e+07,3,5175,5242,14.85,2.61,27,4,0,0
93103,9.108e+07,3,5239,5214,14.83,2.32,27,4,0,0
93505,9.118e+07,3,5213,5185,14.84,2.19,27,4,0,0
93993,9.1302e+07,3,5183,5171,14.79,2.39,27,4,0,0
94405,9.1413e+07,3,5187,5357,14.82,2.63,27,4,0,0
95295,9.1627e+07,3,5355,5300,14.73,3,27,5,0,0
95710,9.1726e+07,3,5306,5385,14.76,2.49,27,5,0,0
96148,9.1835e+07,3,5385,5400,14.78,2.81,27,5,0,0
96599,9.1941e+07,3,5401,5428,14.78,2.87,27,5,0,0
97487,9.2162e+07,3,5427,5385,14.73,2.3,27,5,0,0
97935,9.2274e+07,3,5367,5142,14.76,2.22,27,5,0,0
98378,9.2382e+07,3,5136,5014,14.81,2.34,27,5,0,0
98832,9.2489e+07,3,5017,5100,14.79,2.04,27,5,0,0
99234,9.2594e+07,3,5096,5028,14.8,2.39,27,5,0,0
99686,9.2705e+07,3,5028,5028,14.71,2.37,27,5,0,0
1.0013e+05,9.2812e+07,3,5029,5042,14.81,2.1,27,5,0,0
1.0058e+05,9.2922e+07,3,5044,5185,14.77,2.48,27,5,0,0
1.0099e+05,9.3027e+07,3,5190,5300,14.77,2.58,27,6,0,0
1.0148e+05,9.3148e+07,3,5290,5157,14.82,2.55,27,6,0,0
1.0188e+05,9.325e+07,3,5165,5328,14.75,2.69,27,6,0,0
1.0233e+05,9.3361e+07,3,5331,5385,14.72,2.73,27,6,0,0
1.0278e+05,9.3471e+07,3,5379,5300,14.75,2.55,27,6,0,0
1.0319e+05,9.3577e+07,3,5300,5314,14.69,2.55,27,6,0,0
1.0364e+05,9.3684e+07,3,5310,5228,14.75,2.4,27,6,0,0
1.0408e+05,9.3793e+07,3,5232,5414,14.75,2.66,27,6,0,0
1.0453e+05,9.3906e+07,3,5410,5242,14.72,2.49,27,6,0,0
1.0498e+05,9.4013e+07,3,5253,5500,14.75,2.9,27,6,0,0
1.0543e+05,9.413e+07,3,5498,5485,14.72,2.96,27,6,0,0
1.0588e+05,9.4236e+07,3,5483,5457,14.67,2.86,27,6,0,0
1.0632e+05,9.4346e+07,3,5467,5557,14.68,3.02,27,6,0,0
1.0673e+05,9.4444e+07,3,5557,5571,14.69,2.99,27,7,0,0
1.0717e+05,9.4553e+07,3,5564,5414,14.79,2.29,27,7,0,0
1.0766e+05,9.4671e+07,3,5393,5157,14.83,2.11,27,7,0,0
1.0807e+05,9.4775e+07,3,5160,5228,14.67,2.48,27,7,0,0
1.0852e+05,9.4884e+07,3,5235,5342,14.67,2.78,27,7,0,0
1.0894e+05,9.4993e+07,3,5343,5357,14.72,2.87,27,7,0,0
1.0938e+05,9.5099e+07,3,5359,5400,14.7,2.63,27,7,0,0
1.0978e+05,9.5201e+07,3,5401,5471,14.78,2.72,27,7,0,0
1.1024e+05,9.5312e+07,3,5453,5100,14.75,1.97,27,7,0,0
1.1069e+05,9.543e+07,3,5101,5128,14.73,2.42,27,7,0,0
1.1114e+05,9.5541e+07,3,5134,5200,14.66,2.51,27,7,0,0
1.1159e+05,9.5649e+07,3,5213,5385,14.67,2.86,27,7,0,0
1.12e+05,9.5754e+07,3,5379,5271,14.68,2.66,27,8,0,0
1.1248e+05,9.5866e+07,3,5268,5242,14.77,2.62,27,8,0,0
1.1293e+05,9.5977e+07,3,5240,5214,14.69,2.45,27,8,0,0
1.1338e+05,9.6086e+07,3,5210,5157,14.72,2.51,27,8,0,0
1.1383e+05,9.6199e+07,3,5173,5357,14.67,2.96,27,8,0,0
1.1423e+05,9.6299e+07,3,5357,5414,14.69,2.69,27,8,0,0
1.1467e+05,9.6408e+07,3,5411,5357,14.69,3.02,27,8,0,0
1.1517e+05,9.6528e+07,3,5382,5642,14.66,3.24,27,8,0,0
1.1557e+05,9.6628e+07,3,5637,5571,14.67,2.98,27,8,0,0
1.1601e+05,9.6738e+07,3,5572,5614,14.67,2.59,27,8,0,0
1.1646e+05,9.6848e+07,3,5587,5228,14.75,2.42,27,8,0,0
1.1691e+05,9.6959e+07,3,5231,5271,14.7,2.37,27,8,0,0
1.1736e+05,9.7066e+07,3,5258,5085,14.73,1.99,27,9,0,0
1.178e+05,9.7175e+07,3,5086,5100,14.77,2.24,27,9,0,0
1.1825e+05,9.7285e+07,3,5083,4914,14.79,1.8,27,9,0,0
1.187e+05,9.7395e+07,3,4891,4671,14.75,1.84,27,9,0,0
1.1914e+05,9.75e+07,3,4675,4742,14.75,2.15,27,9,0,0
1.1958e+05,9.7609e+07,3,4750,4857,14.73,1.96,27,9,0,0
1.2004e+05,9.7726e+07,3,4841,4742,14.66,2.17,27,9,0,0
1.2044e+05,9.782e+07,3,4746,4857,14.71,2.35,27,9,0,0
1.2093e+05,9.7941e+07,3,4871,4971,14.77,2.54,27,9,0,0
1.2133e+05,9.804e+07,3,4976,5271,14.75,2.71,27,9,0,0
1.2182e+05,9.8155e+07,3,5273,5300,14.77,2.84,27,9,0,0
1.2222e+05,9.8253e+07,3,5301,5371,14.78,2.72,27,9,0,0
1.2263e+05,9.836e+07,3,5370,5357,14.7,2.81,27,9,0,0
1.2312e+05,9.8481e+07,3,5377,5514,14.7,2.96,27,9,0,0
1.2353e+05,9.8582e+07,3,5506,5414,14.74,2.87,27,10,0,0
1.2398e+05,9.8692e+07,3,5414,5414,14.77,2.57,27,10,0,0
1.2442e+05,9.8802e+07,3,5413,5400,14.75,2.72,27,10,0,0
1.2487e+05,9.8913e+07,3,5396,5371,14.7,2.43,27,10,0,0
1.2527e+05,9.9011e+07,3,5367,5200,14.76,2.5,27,10,0,0
1.2572e+05,9.9121e+07,3,5201,5228,14.71,2.43,27,10,0,0
1.2616e+05,9.923e+07,3,5226,5200,14.69,2.27,27,10,0,0
1.2661e+05,9.9341e+07,3,5184,4928,14.75,1.93,27,10,0,0
1.2706e+05,9.9452e+07,3,4944,5214,14.67,2.67,27,10,0,0
1.275e+05,9.9566e+07,3,5225,5342,14.66,2.77,27,10,0,0
1.2796e+05,9.9678e+07,3,5331,5242,14.7,2.72,27,10,0,0
1.2836e+05,9.9776e+07,3,5258,5457,14.64,2.69,27,10,0,0
1.2882e+05,9.9889e+07,3,5457,5457,14.67,2.48,27,10,0,0
1.293e+05,1.0001e+08,3,5437,5228,14.7,2.4,27,11,0,0
1.2971e+05,1.001e+08,3,5220,5142,14.69,2.37,27,11,0,0
1.3015e+05,1.0022e+08,3,5154,5257,14.58,2.77,27,11,0,0
1.3061e+05,1.0033e+08,3,5248,5185,14.66,2.36,27,11,0,0
1.3101e+05,1.0043e+08,3,5177,5100,14.71,2.57,27,11,0,0
1.3145e+05,1.0054e+08,3,5116,5314,14.62,2.51,27,11,0,0
1.319e+05,1.0065e+08,3,5299,5157,14.75,2.36,27,11,0,0
1.3232e+05,1.0075e+08,3,5153,4885,14.8,1.68,27,11,0,0
1.3279e+05,1.0086e+08,3,4877,4528,14.78,1.41,27,11,0,0
1.3324e+05,1.0097e+08,3,4528,4528,14.73,1.74,27,11,0,0
1.3369e+05,1.0109e+08,3,4535,4600,14.69,1.95,27,11,0,0
1.3411e+05,1.012e+08,3,4632,4900,14.68,2.32,27,11,0,0
1.3459e+05,1.013e+08,3,4926,5085,14.75,2.28,27,11,0,0
1.3501e+05,1.0141e+08,3,5070,4985,14.72,2.38,27,11,0,0
1.3546e+05,1.0152e+08,3,4999,5100,14.71,2.15,27,11,0,0
1.3585e+05,1.0162e+08,3,5091,4871,14.76,1.7,27,12,0,0
1.3631e+05,1.0174e+08,3,4854,4700,14.79,1.65,27,12,0,0
1.3675e+05,1.0184e+08,3,4722,4942,14.73,2.35,27,12,0,0
1.3768e+05,1.0207e+08,3,4948,5157,14.7,2.4,27,12,0,0
1.3857e+05,1.0228e+08,3,5157,5185,14.69,2.38,27,12,0,0
1.3902e+05,1.024e+08,3,5184,5171,14.69,2.49,27,12,0,0
1.3947e+05,1.0251e+08,3,5174,5214,14.67,2.66,27,12,0,0
1.3991e+05,1.0261e+08,3,5215,5242,14.67,2.77,27,12,0,0
1.404e+05,1.0274e+08,3,5257,5371,14.65,2.85,27,12,0,0
1.4081e+05,1.0283e+08,3,5394,5614,14.63,2.94,27,12,0,0
1.4125e+05,1.0294e+08,3,5605,5514,14.63,2.86,27,12,0,0
1.417e+05,1.0305e+08,3,5513,5500,14.64,2.98,27,13,0,0
1.4211e+05,1.0316e+08,3,5501,5528,14.57,2.87,27,13,0,0
1.4256e+05,1.0327e+08,3,5526,5428,14.63,2.71,27,13,0,0
1.43e+05,1.0337e+08,3,5427,5414,14.65,2.66,27,13,0,0
1.4389e+05,1.0359e+08,3,5415,5514,14.62,2.84,27,13,0,0
1.4434e+05,1.037e+08,3,5502,5257,14.69,2.41,27,13,0,0
1.4479e+05,1.0382e+08,3,5255,5242,14.67,2.24,27,13,0,0
1.452e+05,1.0392e+08,3,5240,5157,14.69,2.05,27,13,0,0
1.4564e+05,1.0403e+08,3,5142,5014,14.69,2.21,27,13,0,0
1.4608e+05,1.0414e+08,3,5020,5085,14.69,2.25,27,13,0,0
1.4653e+05,1.0425e+08,3,5084,5071,14.66,2.2,27,13,0,0
1.4698e+05,1.0436e+08,3,5068,5042,14.7,2.38,27,13,0,0
1.4743e+05,1.0447e+08,3,5042,5042,14.73,2.19,27,14,0,0
1.4783e+05,1.0457e+08,3,5043,5071,14.64,2.38,27,14,0,0
1.4828e+05,1.0468e+08,3,5069,5042,14.66,2.4,27,14,0,0
1.4873e+05,1.0479e+08,3,5048,5142,14.73,2.36,27,14,0,0
1.494e+05,1.0501e+08,3,5157,5157,14.7,2.55,27,14,0,0
1.4989e+05,1.0513e+08,3,5162,5228,14.71,2.78,27,14,0,0
1.5029e+05,1.0523e+08,3,5244,5457,14.71,2.78,27,14,0,0
1.507e+05,1.0533e+08,3,5457,5485,14.64,2.8,27,14,0,0
1.5119e+05,1.0545e+08,3,5481,5414,14.67,2.6,27,14,0,0
1.5159e+05,1.0555e+08,3,5407,5171,14.73,2.18,27,14,0,0
1.5209e+05,1.0567e+08,3,5159,5042,14.66,1.99,27,14,0,0
1.5249e+05,1.0577e+08,3,5042,5042,14.67,2.22,27,14,0,0
1.5294e+05,1.0588e+08,3,5042,5042,14.7,2.2,27,15,0,0
1.5338e+05,1.0599e+08,3,5048,5142,14.64,2.64,27,15,0,0
1.5383e+05,1.061e+08,3,5142,5142,14.66,2.32,27,15,0,0
1.5424e+05,1.062e+08,3,5142,5142,14.67,2.14,27,15,0,0
1.5473e+05,1.0632e+08,3,5108,4771,14.62,1.41,27,15,0,0
1.5514e+05,1.0642e+08,3,4751,4314,14.63,0.87,27,15,0,0
1.5554e+05,1.0653e+08,3,4301,3671,14.58,0.53,27,15,0,0
1.5603e+05,1.0664e+08,3,3648,3328,14.58,1.31,27,15,0,0
1.5644e+05,1.0674e+08,3,3326,3271,14.51,1.8,27,15,0,0
1.569e+05,1.0686e+08,3,3328,3928,14.57,1.95,27,15,0,0
1.573e+05,1.0696e+08,3,3956,4328,14.65,2.23,27,15,0,0
1.5775e+05,1.0707e+08,3,4360,5028,14.69,3.05,27,15,0,0
1.586e+05,1.0728e+08,3,5035,6085,14.66,4.89,27,15,0,0
1.5905e+05,1.0739e+08,3,6117,6842,14.63,6.24,27,16,0,0
1.5954e+05,1.0751e+08,3,6848,6942,14.64,5.75,27,16,0,0
1.5994e+05,1.0761e+08,3,6935,6857,14.59,5.23,27,16,0,0
1.6039e+05,1.0772e+08,3,6854,6742,14.68,4.91,27,16,0,0
1.6084e+05,1.0783e+08,3,6742,6757,14.69,4.35,27,16,0,0
1.613e+05,1.0795e+08,3,6730,6457,14.67,4.38,27,16,0,0
1.617e+05,1.0805e+08,3,6456,6442,14.61,4.03,27,16,0,0
1.6215e+05,1.0816e+08,3,6414,6028,14.63,3.54,27,17,0,0
1.6256e+05,1.0826e+08,3,6025,5871,14.63,2.99,27,17,0,0
1.63e+05,1.0837e+08,3,5861,5742,14.61,3.04,27,17,0,0
1.6345e+05,1.0848e+08,3,5726,5514,14.57,2.64,27,17,0,0
1.639e+05,1.0859e+08,3,5487,5228,14.62,2.14,27,17,0,0
1.6434e+05,1.087e+08,3,5219,5100,14.59,2.07,27,17,0,0
1.6479e+05,1.0881e+08,3,5101,5114,14.57,2.88,27,17,0,0
1.6524e+05,1.0892e+08,3,5108,5028,14.57,1.95,27,17,0,0
1.6564e+05,1.0902e+08,3,5028,5042,14.55,2.12,27,17,0,0
1.6605e+05,1.0913e+08,3,5044,5200,14.53,2.8,27,17,0,0
1.6654e+05,1.0924e+08,3,5202,5257,14.49,2.62,27,17,0,0
1.6699e+05,1.0935e+08,3,5257,5271,14.51,2.65,27,17,0,0
1.6748e+05,1.0947e+08,3,5275,5328,14.54,2.67,27,18,0,0
1.6789e+05,1.0958e+08,3,5331,5428,14.51,2.9,27,18,0,0
1.6837e+05,1.0969e+08,3,5438,5542,14.62,3.05,27,18,0,0
1.6878e+05,1.0979e+08,3,5542,5585,14.57,3.4,27,18,0,0
1.6923e+05,1.0989e+08,3,5589,5814,14.6,3.07,27,18,0,0
1.6972e+05,1.1001e+08,3,5805,5714,14.57,3.08,27,18,0,0
1.7017e+05,1.1013e+08,3,5742,5900,14.56,3.38,27,18,0,0
1.7057e+05,1.1023e+08,3,5893,5742,14.63,3.18,27,18,0,0
1.7101e+05,1.1034e+08,3,5737,5485,14.61,2.92,27,18,0,0
1.715e+05,1.1045e+08,3,5492,5585,14.7,2.92,27,18,0,0
1.719e+05,1.1055e+08,3,5578,5328,14.66,2.36,27,18,0,0
1.7235e+05,1.1066e+08,3,5322,5257,14.76,2.28,27,19,0,0
1.7276e+05,1.1077e+08,3,5258,5328,14.74,2.63,27,19,0,0
1.7325e+05,1.1088e+08,3,5325,5271,14.66,2.75,27,19,0,0
1.737e+05,1.1099e+08,3,5285,5428,14.7,2.74,27,19,0,0
1.7414e+05,1.111e+08,3,5430,5457,14.68,3.13,27,19,0,0
1.7454e+05,1.112e+08,3,5475,5842,14.64,3.82,27,19,0,0
1.7499e+05,1.1131e+08,3,5842,5885,14.65,3.75,27,19,0,0
1.7544e+05,1.1142e+08,3,5881,5742,14.69,3.3,27,19,0,0
1.7589e+05,1.1154e+08,3,5726,5571,14.69,2.8,27,19,0,0
1.7634e+05,1.1165e+08,3,5551,5342,14.64,1.91,27,19,0,0
1.7678e+05,1.1176e+08,3,5323,4900,14.63,1.58,27,19,0,0
1.7723e+05,1.1187e+08,3,4855,4485,14.7,1.15,27,19,0,0
1.7768e+05,1.1198e+08,3,4479,4428,14.64,1.45,27,19,0,0
1.7813e+05,1.1209e+08,3,4421,4357,14.69,1.35,27,20,0,0
1.7854e+05,1.1219e+08,3,4358,4371,14.54,1.57,27,20,0,0
1.7894e+05,1.1229e+08,3,4373,4585,14.56,2.21,27,20,0,0
1.7943e+05,1.1241e+08,3,4595,4742,14.6,2.04,27,20,0,0
1.7988e+05,1.1252e+08,3,4762,4942,14.61,2.11,27,20,0,0
1.8032e+05,1.1263e+08,3,4943,4957,14.69,2.23,27,20,0,0
1.8077e+05,1.1275e+08,3,4962,5014,14.64,2.1,27,20,0,0
1.8121e+05,1.1285e+08,3,5010,4971,14.58,2.29,27,20,0,0
1.8166e+05,1.1296e+08,3,4980,5114,14.69,1.91,27,20,0,0
1.8211e+05,1.1307e+08,3,5108,5028,14.71,1.76,27,20,0,0
1.8251e+05,1.1318e+08,3,5020,4842,14.75,1.81,27,20,0,0
1.8278e+05,1.1328e+08,3,4840,4757,14.72,1.35,27,20,0,0
1.8327e+05,1.134e+08,3,4744,4585,14.7,1.86,27,20,0,0
1.8353e+05,1.1351e+08,3,4591,4742,14.77,1.75,27,20,0,0
1.8397e+05,1.1362e+08,3,4740,4714,14.65,1.85,27,20,0,0
1.8442e+05,1.1372e+08,3,4714,4728,14.73,1.9,27,20,0,0
1.8487e+05,1.1384e+08,3,4730,4757,14.63,2.24,27,20,0,0
1.8531e+05,1.1395e+08,3,4779,5014,14.48,2.73,27,21,0,0
1.8576e+05,1.1406e+08,3,5018,5057,14.65,2.45,27,21,0,0
1.8616e+05,1.1416e+08,3,5059,5200,14.64,2.34,27,21,0,0
1.8664e+05,1.1427e+08,3,5202,5300,14.66,2.55,27,21,0,0
1.8709e+05,1.1438e+08,3,5290,5171,14.69,2.11,27,21,0,0
1.8754e+05,1.1449e+08,3,5164,5028,14.61,2.16,27,21,0,0
1.8799e+05,1.146e+08,3,5047,5242,14.7,2.67,27,21,0,0
1.8848e+05,1.1472e+08,3,5236,5200,14.7,2.76,27,21,0,0
1.8929e+05,1.1492e+08,3,5201,5328,14.7,2.49,27,21,0,0
1.8974e+05,1.1504e+08,3,5324,5271,14.7,2.84,27,21,0,0
1.9015e+05,1.1514e+08,3,5273,5428,14.63,2.87,28,21,0,0
1.906e+05,1.1525e+08,3,5425,5400,14.64,2.64,27,21,0,0
1.9105e+05,1.1536e+08,3,5384,5228,14.61,2.59,27,22,0,0
1.9149e+05,1.1547e+08,3,5236,5357,14.58,2.83,27,22,0,0
1.9189e+05,1.1557e+08,3,5354,5300,14.7,1.8,27,22,0,0
1.9234e+05,1.1568e+08,3,5273,4957,14.64,1.9,27,22,0,0
1.9276e+05,1.1579e+08,3,4951,4885,14.77,1.94,27,22,0,0
1.932e+05,1.159e+08,3,4886,4957,14.72,2.07,27,22,0,0
1.9368e+05,1.1601e+08,3,4972,5171,14.65,2.57,27,22,0,0
1.9414e+05,1.1612e+08,3,5173,5200,14.64,2.82,27,22,0,0
1.9454e+05,1.1623e+08,3,5211,5357,14.64,2.65,27,22,0,0
1.9499e+05,1.1634e+08,3,5361,5400,14.6,3.04,27,22,0,0
1.954e+05,1.1644e+08,3,5402,5428,14.72,2.73,28,22,0,0
1.9585e+05,1.1655e+08,3,5421,5357,14.67,2.59,27,22,0,0
1.9629e+05,1.1666e+08,3,5362,5428,14.63,2.78,27,22,0,0
1.9719e+05,1.1688e+08,3,5431,5514,14.69,2.7,27,23,0,0
1.9763e+05,1.1699e+08,3,5511,5471,14.64,2.6,27,23,0,0
1.9808e+05,1.171e+08,3,5466,5428,14.65,2.98,27,23,0,0
1.9848e+05,1.172e+08,3,5432,5542,14.63,2.99,27,23,0,0
1.9894e+05,1.1731e+08,3,5556,5728,14.64,3.03,27,23,0,0
1.9937e+05,1.1742e+08,3,5720,5557,14.67,3.04,27,23,0,0
1.9982e+05,1.1753e+08,3,5555,5514,14.62,3.08,27,23,0,0
2.0027e+05,1.1764e+08,3,5528,5714,14.7,2.87,27,23,0,0
2.0068e+05,1.1775e+08,3,5707,5642,14.63,2.93,27,23,0,0
2.0113e+05,1.1786e+08,3,5643,5671,14.63,3.21,27,23,0,0
2.0154e+05,1.1796e+08,3,5669,5585,14.64,2.99,27,24,0,0
2.0198e+05,1.1807e+08,3,5585,5628,14.64,2.8,27,24,0,0
2.0248e+05,1.1819e+08,3,5632,5671,14.6,3.34,27,24,0,0
2.0288e+05,1.1829e+08,3,5672,5771,14.66,2.96,28,24,0,0
2.0337e+05,1.1841e+08,3,5751,5557,14.64,2.85,27,24,0,0
2.0377e+05,1.1851e+08,3,5559,5671,14.59,3.14,27,24,0,0
2.0422e+05,1.1862e+08,3,5669,5614,14.63,2.88,27,24,0,0
2.047e+05,1.1873e+08,3,5607,5485,14.7,2.45,27,24,0,0
2.056e+05,1.1895e+08,3,5482,5428,14.53,2.72,27,24,0,0
2.06e+05,1.1906e+08,3,5433,5542,14.55,3.22,28,24,0,0
2.0645e+05,1.1917e+08,3,5555,5685,14.53,3.27,27,25,0,0
2.069e+05,1.1928e+08,3,5688,5728,14.58,3.08,27,25,0,0
2.073e+05,1.1938e+08,3,5730,5785,14.53,3.37,28,25,0,0
2.078e+05,1.195e+08,3,5793,5885,14.58,3.22,28,25,0,0
2.082e+05,1.196e+08,3,5885,5885,14.63,3.11,27,25,0,0
2.0864e+05,1.1971e+08,3,5876,5685,14.6,3.19,27,25,0,0
2.0909e+05,1.1982e+08,3,5691,5785,14.58,3.34,27,25,0,0
2.0999e+05,1.2004e+08,3,5785,5814,14.67,3.38,28,25,0,0
2.1043e+05,1.2015e+08,3,5812,5728,14.66,3.32,28,25,0,0
2.1092e+05,1.2026e+08,3,5743,5885,14.54,3.47,28,26,0,0
2.1133e+05,1.2037e+08,3,5887,5928,14.61,3.5,27,26,0,0
2.1182e+05,1.2048e+08,3,5915,5785,14.57,3.03,27,26,0,0
2.1223e+05,1.2059e+08,3,5779,5714,14.7,2.95,28,26,0,0
2.1313e+05,1.2081e+08,3,5715,5757,14.58,3.28,28,26,0,0
2.1358e+05,1.2092e+08,3,5753,5714,14.63,3.1,27,26,0,0
2.1402e+05,1.2103e+08,3,5719,5785,14.58,3.29,27,26,0,0
2.1443e+05,1.2113e+08,3,5784,5742,14.61,3.32,28,26,0,0
2.1492e+05,1.2125e+08,3,5749,5800,14.61,3.3,28,26,0,0
2.1532e+05,1.2135e+08,3,5806,5971,14.55,3.69,28,27,0,0
2.1581e+05,1.2147e+08,3,5953,5814,14.57,3.39,28,27,0,0
2.171e+05,1.2179e+08,3,5797,5442,14.63,2.75,28,27,0,0
2.1756e+05,1.219e+08,3,5439,5414,14.55,2.39,28,27,0,0
2.1886e+05,1.2223e+08,3,5412,5300,14.69,2.62,28,27,0,0
2.1931e+05,1.2234e+08,3,5297,5271,14.63,2.45,28,27,0,0
2.206e+05,1.2266e+08,3,5270,5242,14.66,2.61,28,28,0,0
2.2105e+05,1.2277e+08,3,5246,5328,14.61,2.79,28,28,0,0
2.215e+05,1.2288e+08,3,5328,5342,14.66,2.83,28,28,0,0
2.2195e+05,1.23e+08,3,5350,5428,14.62,2.93,28,28,0,0
2.2236e+05,1.231e+08,3,5433,5642,14.6,3.36,28,28,0,0
2.2281e+05,1.2321e+08,3,5650,5785,14.61,3.37,28,28,0,0
2.2325e+05,1.2332e+08,3,5783,5771,14.63,3.3,28,28,0,0
2.241e+05,1.2354e+08,3,5763,5600,14.54,2.95,28,28,0,0
2.2454e+05,1.2364e+08,3,5595,5514,14.61,2.68,28,28,0,0
2.2544e+05,1.2386e+08,3,5513,5500,14.64,2.69,28,29,0,0
2.2588e+05,1.2397e+08,3,5496,5400,14.61,2.45,28,29,0,0
2.2637e+05,1.2408e+08,3,5392,5300,14.6,2.51,28,29,0,0
2.2677e+05,1.2419e+08,3,5303,5457,14.57,2.79,28,29,0,0
2.2727e+05,1.2431e+08,3,5454,5428,14.55,2.94,28,29,0,0
2.2767e+05,1.2441e+08,3,5434,5500,14.58,2.88,28,29,0,0
2.2812e+05,1.2452e+08,3,5491,5414,14.61,2.93,28,29,0,0
2.2856e+05,1.2463e+08,3,5415,5442,14.6,2.78,28,29,0,0
2.2897e+05,1.2473e+08,3,5442,5442,14.55,2.86,28,29,0,0
2.2942e+05,1.2484e+08,3,5437,5371,14.61,2.75,28,29,0,0
2.2982e+05,1.2495e+08,3,5371,5371,14.58,2.72,28,29,0,0
2.3032e+05,1.2507e+08,3,5377,5442,14.55,2.88,28,30,0,0
2.3077e+05,1.2518e+08,3,5430,5342,14.59,2.9,28,30,0,0
2.3117e+05,1.2528e+08,3,5345,5528,14.59,2.74,28,30,0,0
2.3162e+05,1.2539e+08,3,5512,5314,14.6,2.74,28,30,0,0
2.3207e+05,1.255e+08,3,5309,5257,14.54,2.47,28,30,0,0
2.3251e+05,1.2561e+08,3,5275,5457,14.63,3.13,28,30,0,0
2.3292e+05,1.2571e+08,3,5457,5471,14.6,3.01,28,30,0,0
2.3336e+05,1.2582e+08,3,5468,5442,14.55,2.9,28,30,0,0
2.3381e+05,1.2593e+08,3,5444,5485,14.58,3.01,28,30,0,0
2.3422e+05,1.2604e+08,3,5486,5514,14.56,3.03,28,30,0,0
2.3471e+05,1.2616e+08,3,5530,5700,14.52,3.42,28,30,0,0
2.3512e+05,1.2626e+08,3,5703,5742,14.55,3.42,28,30,0,0
2.3556e+05,1.2637e+08,3,5751,5857,14.55,3.49,28,31,0,0
2.3597e+05,1.2647e+08,3,5852,5728,14.55,3.32,28,31,0,0
2.3646e+05,1.2659e+08,3,5726,5714,14.58,3.29,28,31,0,0
2.3686e+05,1.2669e+08,3,5711,5600,14.53,2.96,28,31,0,0
2.3727e+05,1.2679e+08,3,5599,5571,14.57,2.85,28,31,0,0
2.3777e+05,1.2691e+08,3,5561,5457,14.6,2.78,28,31,0,0
2.3817e+05,1.2701e+08,3,5456,5442,14.53,2.76,28,31,0,0
2.3866e+05,1.2713e+08,3,5418,5228,14.6,2.32,28,31,0,0
2.3907e+05,1.2723e+08,3,5220,5128,14.52,2.41,28,31,0,0
2.3952e+05,1.2734e+08,3,5126,5114,14.54,2.34,28,31,0,0
2.3992e+05,1.2744e+08,3,5104,4985,14.55,2.28,28,31,0,0
2.4037e+05,1.2755e+08,3,4995,5114,14.47,2.61,28,31,0,0
2.4081e+05,1.2766e+08,3,5129,5271,14.52,2.64,28,32,0,0
2.4167e+05,1.2787e+08,3,5273,5328,14.5,2.83,28,32,0,0
2.4211e+05,1.2798e+08,3,5333,5400,14.52,2.98,28,32,0,0
2.4296e+05,1.2819e+08,3,5400,5428,14.44,2.95,28,32,0,0
2.4345e+05,1.2831e+08,3,5429,5442,14.5,2.94,28,32,0,0
2.4385e+05,1.2841e+08,3,5440,5385,14.53,2.92,28,32,0,0
2.443e+05,1.2852e+08,3,5385,5400,14.47,2.99,28,32,0,0
2.4474e+05,1.2863e+08,3,5402,5471,14.51,2.95,28,32,0,0
2.4519e+05,1.2874e+08,3,5460,5357,14.53,2.75,28,32,0,0
2.4559e+05,1.2884e+08,3,5360,5571,14.56,3.01,28,33,0,0
2.4604e+05,1.2895e+08,3,5568,5428,14.58,2.86,28,33,0,0
2.4649e+05,1.2906e+08,3,5426,5342,14.56,2.75,28,33,0,0
2.4738e+05,1.2928e+08,3,5342,5414,14.52,2.7,28,33,0,0
2.4782e+05,1.2939e+08,3,5414,5428,14.58,2.92,28,33,0,0
2.4827e+05,1.2949e+08,3,5422,5314,14.57,2.53,28,33,0,0
2.4916e+05,1.2971e+08,3,5314,5328,14.56,2.73,28,33,0,0
2.4957e+05,1.2982e+08,3,5329,5385,14.57,2.74,28,33,0,0
2.505e+05,1.3005e+08,3,5383,5342,14.55,2.44,28,33,0,0
2.509e+05,1.3015e+08,3,5336,5128,14.61,2.09,28,33,0,0
2.5135e+05,1.3026e+08,3,5120,5014,14.61,1.91,28,34,0,0
2.5176e+05,1.3037e+08,3,5011,4885,14.55,1.98,28,34,0,0
2.5225e+05,1.3049e+08,3,4890,4942,14.6,2.35,28,34,0,0
2.5266e+05,1.3059e+08,3,4947,5014,14.59,2.21,28,34,0,0
2.5311e+05,1.307e+08,3,5018,5085,14.62,2.43,28,34,0,0
2.5351e+05,1.308e+08,3,5085,5142,14.62,2.28,28,34,0,0
2.5396e+05,1.3091e+08,3,5142,5142,14.57,2.32,28,34,0,0
2.5441e+05,1.3102e+08,3,5142,5157,14.57,2.44,28,34,0,0
2.5485e+05,1.3114e+08,3,5176,5342,14.58,2.75,28,34,0,0
2.553e+05,1.3125e+08,3,5356,5457,14.54,2.66,28,34,0,0
2.557e+05,1.3135e+08,3,5452,5414,14.65,2.65,28,34,0,0
2.5615e+05,1.3146e+08,3,5412,5342,14.59,2.7,28,34,0,0
2.5708e+05,1.3168e+08,3,5345,5485,14.63,2.63,28,35,0,0
2.5752e+05,1.3179e+08,3,5485,5485,14.57,2.71,28,35,0,0
2.5845e+05,1.3202e+08,3,5485,5500,14.62,2.83,28,35,0,0
2.5885e+05,1.3211e+08,3,5496,5414,14.6,2.52,28,35,0,0
2.5931e+05,1.3223e+08,3,5409,5357,14.6,2.55,28,35,0,0
2.5975e+05,1.3234e+08,3,5344,5185,14.64,2.26,28,35,0,0
2.6059e+05,1.3255e+08,3,5183,5028,14.6,2.12,28,35,0,0
2.6149e+05,1.3277e+08,3,5029,5114,14.66,2.31,28,35,0,0
2.6198e+05,1.3289e+08,3,5095,4900,14.57,1.85,28,35,0,0
2.6242e+05,1.3299e+08,3,4898,4885,14.58,2.13,28,35,0,0
2.6282e+05,1.3309e+08,3,4887,4928,14.57,2.19,28,35,0,0
2.6327e+05,1.332e+08,3,4937,5085,14.63,2.23,28,36,0,0
2.6372e+05,1.3331e+08,3,5077,5000,14.6,2.09,28,36,0,0
2.6416e+05,1.3342e+08,3,5000,5000,14.62,2.42,28,36,0,0
2.6461e+05,1.3352e+08,3,4993,4900,14.6,1.37,28,36,0,0
2.6546e+05,1.3374e+08,3,4900,4971,14.61,2.2,28,36,0,0
2.6595e+05,1.3386e+08,3,4969,4957,14.57,2.13,28,36,0,0
2.6639e+05,1.3397e+08,3,4952,4914,14.56,2.22,28,36,0,0
2.668e+05,1.3407e+08,3,4923,5014,14.58,2.39,28,36,0,0
2.6769e+05,1.3429e+08,3,5018,5157,14.57,2.26,28,36,0,0
2.6814e+05,1.344e+08,3,5155,5142,14.56,2.61,28,36,0,0
2.6899e+05,1.3461e+08,3,5141,5042,14.55,2.36,28,36,0,0
2.6948e+05,1.3473e+08,3,5031,4928,14.61,2,28,37,0,0
2.6992e+05,1.3484e+08,3,4921,4857,14.52,1.99,28,37,0,0
2.7078e+05,1.3505e+08,3,4865,5042,14.47,2.41,28,37,0,0
2.7122e+05,1.3516e+08,3,5051,5242,14.53,2.68,28,37,0,0
2.7171e+05,1.3528e+08,3,5247,5328,14.54,2.66,28,37,0,0
2.7211e+05,1.3538e+08,3,5329,5342,14.57,2.61,28,37,0,0
2.726e+05,1.3549e+08,3,5343,5357,14.53,2.66,28,37,0,0
2.7304e+05,1.356e+08,3,5349,5271,14.5,2.43,28,37,0,0
2.7349e+05,1.3571e+08,3,5265,5214,14.51,2.62,28,37,0,0
2.739e+05,1.3581e+08,3,5217,5300,14.54,2.76,28,37,0,0
2.7438e+05,1.3592e+08,3,5306,5400,14.48,2.99,28,37,0,0
2.7482e+05,1.3603e+08,3,5408,5514,14.54,2.91,28,37,0,0
2.7523e+05,1.3614e+08,3,5511,5428,14.49,2.88,28,38,0,0
2.7568e+05,1.3625e+08,3,5443,5657,14.5,3.3,28,38,0,0
2.7613e+05,1.3636e+08,3,5651,5571,14.55,2.98,28,38,0,0
2.7701e+05,1.3658e+08,3,5559,5328,14.59,2.7,28,38,0,0
2.7746e+05,1.3669e+08,3,5330,5371,14.54,2.88,28,38,0,0
2.7791e+05,1.368e+08,3,5390,5600,14.55,3.2,28,38,0,0
2.7835e+05,1.3691e+08,3,5615,5771,14.51,3.31,28,38,0,0
2.7879e+05,1.3702e+08,3,5764,5700,14.55,3.01,28,38,0,0
2.792e+05,1.3712e+08,3,5700,5700,14.48,3.28,28,38,0,0
2.7969e+05,1.3724e+08,3,5698,5685,14.54,3.53,28,38,0,0
2.8009e+05,1.3734e+08,3,5697,5928,14.51,3.11,28,39,0,0
2.8054e+05,1.3745e+08,3,5918,5728,14.57,3.03,28,39,0,0
2.8098e+05,1.3756e+08,3,5729,5757,14.54,3.09,28,39,0,0
2.814e+05,1.3767e+08,3,5749,5600,14.49,2.82,28,39,0,0
2.8185e+05,1.3778e+08,3,5597,5542,14.55,3.05,28,39,0,0
2.823e+05,1.3789e+08,3,5537,5471,14.54,2.89,28,39,0,0
2.827e+05,1.3799e+08,3,5471,5485,14.51,2.74,28,39,0,0
2.8319e+05,1.3811e+08,3,5485,5485,14.54,2.97,28,39,0,0
2.8364e+05,1.3822e+08,3,5485,5485,14.57,3.18,28,39,0,0
2.8408e+05,1.3833e+08,3,5489,5542,14.54,3.28,28,39,0,0
2.8449e+05,1.3843e+08,3,5562,5742,14.55,3.46,28,40,0,0
2.8489e+05,1.3853e+08,3,5741,5700,14.57,3.21,28,40,0,0
2.8534e+05,1.3864e+08,3,5702,5885,14.54,3.72,28,40,0,0
2.8582e+05,1.3876e+08,3,5857,5628,14.62,3.02,28,40,0,0
2.8623e+05,1.3887e+08,3,5626,5600,14.57,2.95,28,40,0,0
2.8668e+05,1.3898e+08,3,5602,5628,14.5,3.09,28,40,0,0
2.8713e+05,1.3908e+08,3,5630,5671,14.45,3.34,28,40,0,0
2.8753e+05,1.3919e+08,3,5673,5714,14.56,3.1,28,40,0,0
2.8798e+05,1.393e+08,3,5714,5757,14.48,3.16,28,40,0,0
2.8842e+05,1.394e+08,3,5756,5742,14.49,3.29,28,40,0,0
2.8891e+05,1.3953e+08,3,5743,5757,14.42,3.41,28,40,0,0
2.8932e+05,1.3964e+08,3,5781,5914,14.48,3.67,28,41,0,0
2.8976e+05,1.3974e+08,3,5911,5885,14.44,3.27,28,41,0,0
2.9021e+05,1.3984e+08,3,5859,5614,14.55,2.58,28,41,0,0
2.9061e+05,1.3995e+08,3,5600,5428,14.51,2.66,28,41,0,0
2.9106e+05,1.4006e+08,3,5422,5342,14.5,2.58,28,41,0,0
2.9151e+05,1.4017e+08,3,5347,5400,14.51,2.59,28,41,0,0
2.9196e+05,1.4028e+08,3,5395,5357,14.53,2.83,28,41,0,0
2.9236e+05,1.4038e+08,3,5360,5428,14.5,2.8,28,41,0,0
2.9281e+05,1.4049e+08,3,5428,5428,14.48,2.89,28,41,0,0
2.937e+05,1.4072e+08,3,5431,5500,14.53,2.82,28,41,0,0
2.941e+05,1.4082e+08,3,5498,5414,14.52,2.97,28,42,0,0
2.9459e+05,1.4093e+08,3,5438,5642,14.45,3.47,28,42,0,0
2.9499e+05,1.4103e+08,3,5644,5771,14.48,3.23,28,42,0,0
2.9548e+05,1.4115e+08,3,5750,5514,14.52,3.08,28,42,0,0
2.9632e+05,1.4136e+08,3,5514,5628,14.58,2.86,28,42,0,0
2.9681e+05,1.4148e+08,3,5600,5357,14.63,2.48,28,42,0,0
2.9766e+05,1.4169e+08,3,5373,5671,14.63,3.09,28,42,0,0
2.9807e+05,1.4179e+08,3,5662,5485,14.57,3.08,28,42,0,0
2.9851e+05,1.419e+08,3,5486,5600,14.6,2.67,28,42,0,0
2.9941e+05,1.4212e+08,3,5600,5600,14.68,2.93,28,43,0,0
2.9982e+05,1.4222e+08,3,5600,5657,14.7,2.93,28,43,0,0
3.0026e+05,1.4233e+08,3,5648,5457,14.68,2.79,28,43,0,0
3.0071e+05,1.4244e+08,3,5457,5485,14.61,3.02,28,43,0,0
3.0115e+05,1.4255e+08,3,5487,5542,14.62,2.9,28,43,0,0
3.0159e+05,1.4266e+08,3,5542,5600,14.62,3.19,28,43,0,0
3.0204e+05,1.4277e+08,3,5609,5742,14.62,2.91,28,43,0,0
3.0249e+05,1.4288e+08,3,5706,5457,14.63,2.71,28,43,0,0
3.029e+05,1.4298e+08,3,5464,5542,14.66,2.68,28,43,0,0
3.0379e+05,1.4321e+08,3,5541,5528,14.57,3.26,28,44,0,0
3.0419e+05,1.433e+08,3,5528,5557,14.51,3.19,28,44,0,0
3.0464e+05,1.4342e+08,3,5565,5671,14.5,3.5,28,44,0,0
3.0509e+05,1.4353e+08,3,5687,5900,14.52,3.38,28,44,0,0
3.0549e+05,1.4363e+08,3,5894,5685,14.57,3.33,28,44,0,0
3.0594e+05,1.4374e+08,3,5692,5771,14.49,3.22,28,44,0,0
3.0639e+05,1.4385e+08,3,5772,5785,14.51,3.18,28,44,0,0
3.0679e+05,1.4395e+08,3,5774,5671,14.54,3.24,28,44,0,0
3.072e+05,1.4406e+08,3,5667,5600,14.57,2.99,28,44,0,0
3.0768e+05,1.4417e+08,3,5599,5571,14.54,2.61,28,44,0,0
3.0813e+05,1.4428e+08,3,5550,5385,14.57,2.48,28,44,0,0
3.0854e+05,1.4438e+08,3,5383,5300,14.51,2.62,28,45,0,0
3.094e+05,1.446e+08,3,5301,5471,14.55,2.65,28,45,0,0
3.0985e+05,1.4471e+08,3,5470,5428,14.58,2.75,28,45,0,0
3.1074e+05,1.4493e+08,3,5428,5457,14.55,3.15,28,45,0,0
3.1118e+05,1.4504e+08,3,5458,5528,14.55,2.66,28,45,0,0
3.1162e+05,1.4515e+08,3,5529,5585,14.55,2.95,28,45,0,0
3.1207e+05,1.4526e+08,3,5582,5557,14.54,2.79,28,45,0,0
3.1252e+05,1.4537e+08,3,5557,5557,14.47,3.06,28,45,0,0
3.1294e+05,1.4547e+08,3,5560,5614,14.45,3.07,28,45,0,0
3.1342e+05,1.4559e+08,3,5631,5800,14.54,3.33,28,46,0,0
3.1386e+05,1.457e+08,3,5784,5571,14.47,3.01,28,46,0,0
3.1431e+05,1.4581e+08,3,5573,5600,14.6,3.05,28,46,0,0
3.1476e+05,1.4592e+08,3,5596,5557,14.57,3.14,28,46,0,0
3.1546e+05,1.4613e+08,3,5584,5457,14.54,2.95,28,46,0,0
3.1591e+05,1.4624e+08,3,5474,5657,14.58,3.33,28,46,0,0
3.1636e+05,1.4635e+08,3,5642,5485,14.54,2.54,28,46,0,0
3.168e+05,1.4646e+08,3,5476,5314,14.51,2.56,28,46,0,0
3.1724e+05,1.4657e+08,3,5308,5085,14.49,2.28,28,46,0,0
3.177e+05,1.4668e+08,3,5091,5242,14.57,2.35,28,46,0,0
3.1814e+05,1.4679e+08,3,5244,5271,14.49,2.71,28,46,0,0
3.1863e+05,1.469e+08,3,5267,5228,14.48,2.55,28,47,0,0
3.1903e+05,1.47e+08,3,5238,5442,14.51,3.19,28,47,0,0
3.1949e+05,1.4711e+08,3,5448,5514,14.57,2.83,28,47,0,0
3.199e+05,1.4722e+08,3,5503,5400,14.58,2.75,28,47,0,0
3.2034e+05,1.4733e+08,3,5406,5542,14.55,3.02,28,47,0,0
3.2079e+05,1.4744e+08,3,5545,5628,14.61,3.22,28,47,0,0
3.212e+05,1.4754e+08,3,5627,5600,14.53,2.91,28,47,0,0
3.2168e+05,1.4766e+08,3,5585,5371,14.55,2.91,28,47,0,0
3.2209e+05,1.4776e+08,3,5392,5685,14.53,3.49,28,47,0,0
3.2298e+05,1.4798e+08,3,5682,5600,14.6,3.03,28,47,0,0
3.2342e+05,1.4809e+08,3,5600,5600,14.5,3.2,28,48,0,0
3.2387e+05,1.482e+08,3,5605,5742,14.54,3.63,28,48,0,0
3.2436e+05,1.4832e+08,3,5739,5714,14.58,3.25,28,48,0,0
3.248e+05,1.4843e+08,3,5714,5714,14.55,3.19,28,48,0,0
3.2521e+05,1.4853e+08,3,5707,5585,14.52,3.04,28,48,0,0
3.257e+05,1.4865e+08,3,5583,5571,14.47,3.34,28,48,0,0
3.2611e+05,1.4875e+08,3,5578,5742,14.53,3.64,28,48,0,0
3.2656e+05,1.4887e+08,3,5754,5842,14.51,3.11,28,48,0,0
3.2696e+05,1.4897e+08,3,5826,5685,14.47,3.54,28,48,0,0
3.2741e+05,1.4908e+08,3,5683,5671,14.49,3.42,28,48,0,0
3.2831e+05,1.493e+08,3,5679,5871,14.45,3.77,28,49,0,0
3.2875e+05,1.4941e+08,3,5876,5914,14.48,3.9,28,49,0,0
3.2915e+05,1.495e+08,3,5913,5871,14.46,3.7,28,49,0,0
3.2963e+05,1.4962e+08,3,5875,5914,14.53,3.44,28,49,0,0
3.3004e+05,1.4972e+08,3,5914,5928,14.51,3.43,28,49,0,0
3.3049e+05,1.4983e+08,3,5930,5971,14.51,3.96,28,49,0,0
3.3093e+05,1.4995e+08,3,5971,5971,14.42,4.12,28,49,0,0
3.3138e+05,1.5005e+08,3,5972,6128,14.43,3.89,28,50,0,0
3.3183e+05,1.5017e+08,3,6108,5942,14.51,2.93,28,50,0,0
3.3272e+05,1.5039e+08,3,5914,5342,14.51,2.38,28,50,0,0
3.3312e+05,1.5049e+08,3,5338,5100,14.52,2.26,28,50,0,0
3.3357e+05,1.5061e+08,3,5105,5157,14.5,2.42,28,50,0,0
3.3402e+05,1.5071e+08,3,5151,5100,14.52,2.12,28,50,0,0
3.3442e+05,1.5081e+08,3,5099,5028,14.47,2.33,28,50,0,0
3.3536e+05,1.5104e+08,3,5034,5214,14.57,2.39,28,50,0,0
3.358e+05,1.5115e+08,3,5202,5085,14.64,2.26,28,50,0,0
3.3621e+05,1.5125e+08,3,5081,5014,14.64,2.07,28,50,0,0
3.3666e+05,1.5136e+08,3,5007,4928,14.55,2.2,28,50,0,0
3.3711e+05,1.5148e+08,3,4926,4914,14.71,2.07,28,50,0,0
3.3751e+05,1.5158e+08,3,4908,4842,14.74,2.1,28,50,0,0
3.3796e+05,1.5169e+08,3,4844,4900,14.7,2.22,28,51,0,0
3.3836e+05,1.5179e+08,3,4900,4900,14.7,2.17,28,51,0,0
3.3974e+05,1.5212e+08,3,4908,5285,14.64,2.57,28,51,0,0
3.4018e+05,1.5223e+08,3,5288,5328,14.6,2.85,28,51,0,0
3.4059e+05,1.5234e+08,3,5331,5400,14.58,2.58,28,51,0,0
3.4104e+05,1.5244e+08,3,5400,5414,14.64,2.59,28,51,0,0
3.4148e+05,1.5255e+08,3,5414,5414,14.61,2.59,28,51,0,0
3.4193e+05,1.5266e+08,3,5405,5228,14.55,2.32,28,51,0,0
3.4237e+05,1.5277e+08,3,5231,5300,14.6,2.58,28,51,0,0
3.4282e+05,1.5288e+08,3,5293,5200,14.58,2.36,28,51,0,0
3.4322e+05,1.5298e+08,3,5194,5000,14.58,2.19,28,51,0,0
3.4413e+05,1.5321e+08,3,4998,4971,14.63,1.9,28,52,0,0
3.4461e+05,1.5332e+08,3,4971,4971,14.61,2.23,28,52,0,0
3.4501e+05,1.5342e+08,3,4977,5114,14.61,2.21,28,52,0,0
3.4546e+05,1.5353e+08,3,5096,4885,14.61,1.75,28,52,0,0
3.4591e+05,1.5364e+08,3,4886,4914,14.61,2.25,28,52,0,0
3.4632e+05,1.5375e+08,3,4918,4971,14.61,2.15,28,52,0,0
3.4676e+05,1.5385e+08,3,4974,5028,14.61,2.45,28,52,0,0
3.4721e+05,1.5396e+08,3,5030,5071,14.61,2.17,28,52,0,0
3.4762e+05,1.5406e+08,3,5071,5100,14.58,2.54,28,52,0,0
3.4807e+05,1.5417e+08,3,5098,5042,14.55,2.57,28,52,0,0
3.4852e+05,1.5428e+08,3,5043,5100,14.62,2.54,28,52,0,0
3.4896e+05,1.5439e+08,3,5101,5157,14.56,2.42,28,52,0,0
3.4942e+05,1.545e+08,3,5159,5242,14.6,2.71,28,52,0,0
3.499e+05,1.5462e+08,3,5240,5228,14.57,2.33,28,53,0,0
3.5035e+05,1.5473e+08,3,5234,5300,14.6,2.79,28,53,0,0
3.5075e+05,1.5483e+08,3,5298,5285,14.56,2.5,28,53,0,0
3.5119e+05,1.5494e+08,3,5285,5300,14.51,2.79,28,53,0,0
3.5164e+05,1.5505e+08,3,5307,5414,14.52,2.72,28,53,0,0
3.5209e+05,1.5516e+08,3,5404,5271,14.55,2.18,28,53,0,0
3.5254e+05,1.5527e+08,3,5265,5200,14.58,2.49,28,53,0,0
3.5299e+05,1.5538e+08,3,5193,5128,14.58,2.02,28,53,0,0
3.5339e+05,1.5548e+08,3,5124,5042,14.55,2.12,28,53,0,0
3.5384e+05,1.5559e+08,3,5040,5014,14.55,2.07,28,53,0,0
3.5429e+05,1.557e+08,3,5013,5000,14.6,2.13,28,53,0,0
3.5474e+05,1.5581e+08,3,5007,5085,14.45,2.47,28,53,0,0
3.5563e+05,1.5602e+08,3,5092,5314,14.47,2.89,28,53,0,0
3.5607e+05,1.5613e+08,3,5311,5271,14.42,2.6,28,54,0,0
3.5652e+05,1.5624e+08,3,5282,5428,14.5,2.75,28,54,0,0
3.5693e+05,1.5635e+08,3,5416,5300,14.5,2.57,28,54,0,0
3.5741e+05,1.5646e+08,3,5298,5285,14.53,2.24,28,54,0,0
3.5782e+05,1.5657e+08,3,5278,5185,14.55,2.29,28,54,0,0
3.5827e+05,1.5668e+08,3,5186,5200,14.47,2.52,28,54,0,0
3.5872e+05,1.5679e+08,3,5196,5157,14.57,2.42,28,54,0,0
3.5916e+05,1.5689e+08,3,5149,4971,14.62,2.16,28,54,0,0
3.5957e+05,1.57e+08,3,4972,5000,14.58,2.22,28,54,0,0
3.6006e+05,1.5712e+08,3,5005,5042,14.57,2.36,28,54,0,0
3.605e+05,1.5722e+08,3,5039,5014,14.6,2.27,28,54,0,0
3.6094e+05,1.5733e+08,3,5018,5228,14.58,2.42,28,54,0,0
3.6139e+05,1.5744e+08,3,5219,5142,14.51,2.43,28,54,0,0
3.6184e+05,1.5755e+08,3,5140,5128,14.6,2.34,28,54,0,0
3.6228e+05,1.5766e+08,3,5129,5142,14.57,2.23,28,55,0,0
3.6268e+05,1.5776e+08,3,5140,5071,14.58,2.32,28,55,0,0
3.6318e+05,1.5787e+08,3,5067,5028,14.58,2.16,28,55,0,0
3.6362e+05,1.5798e+08,3,5024,4985,14.61,2.11,28,55,0,0
3.6407e+05,1.581e+08,3,4989,5014,14.54,2.21,28,55,0,0
3.6447e+05,1.582e+08,3,5011,4985,14.54,2.34,28,55,0,0
3.6492e+05,1.583e+08,3,4986,5057,14.53,2.15,28,55,0,0
3.6536e+05,1.5841e+08,3,5040,4828,14.58,1.78,28,55,0,0
3.658e+05,1.5852e+08,3,4826,4728,14.55,1.87,28,55,0,0
3.6625e+05,1.5863e+08,3,4730,4771,14.55,1.8,28,55,0,0
3.667e+05,1.5874e+08,3,4771,4785,14.51,1.92,28,55,0,0
3.6715e+05,1.5886e+08,3,4790,4857,14.49,1.88,28,55,0,0
3.6893e+05,1.593e+08,3,4858,4900,14.54,2.07,28,56,0,0
3.6934e+05,1.594e+08,3,4902,4942,14.57,2.06,28,56,0,0
3.6978e+05,1.5951e+08,3,4943,4971,14.6,2.02,28,56,0,0
3.7027e+05,1.5962e+08,3,4969,4957,14.56,1.94,28,56,0,0
3.7072e+05,1.5974e+08,3,4951,4885,14.47,2.01,28,56,0,0
3.7116e+05,1.5984e+08,3,4893,4971,14.54,2.25,28,56,0,0
3.7157e+05,1.5994e+08,3,4970,4928,14.54,2.08,28,56,0,0
3.7206e+05,1.6006e+08,3,4950,5114,14.55,2.15,28,56,0,0
3.7339e+05,1.6039e+08,3,5108,4928,14.56,2.2,28,56,0,0
3.7385e+05,1.605e+08,3,4938,5057,14.51,2.05,28,56,0,0
3.7425e+05,1.606e+08,3,5063,5114,14.55,2.05,28,56,0,0
3.747e+05,1.6071e+08,3,5111,5057,14.57,2.06,28,56,0,0
3.7518e+05,1.6082e+08,3,5053,5014,14.57,2.08,28,56,0,0
3.7558e+05,1.6092e+08,3,5014,5014,14.53,2.05,28,56,0,0
3.7604e+05,1.6104e+08,3,5015,5042,14.54,2.09,28,56,0,0
3.7648e+05,1.6115e+08,3,5036,4985,14.49,2.08,28,57,0,0
3.7696e+05,1.6126e+08,3,4976,4857,14.54,1.85,28,57,0,0
3.7741e+05,1.6137e+08,3,4851,4785,14.57,1.67,28,57,0,0
3.7786e+05,1.6148e+08,3,4769,4614,14.52,1.58,28,57,0,0
3.783e+05,1.6158e+08,3,4617,4657,14.49,1.92,28,57,0,0
3.7871e+05,1.6169e+08,3,4663,4785,14.53,1.62,28,57,0,0
3.7916e+05,1.618e+08,3,4775,4657,14.57,1.52,28,57,0,0
3.796e+05,1.619e+08,3,4645,4428,14.63,1.27,28,57,0,0
3.8046e+05,1.6212e+08,3,4430,4785,14.58,2.04,28,57,0,0
3.8094e+05,1.6224e+08,3,4785,4800,14.6,2.03,28,57,0,0
3.8184e+05,1.6246e+08,3,4804,5000,14.62,2.45,28,57,0,0
3.8225e+05,1.6256e+08,3,4999,4985,14.66,2.12,28,57,0,0
3.827e+05,1.6267e+08,3,4984,4971,14.61,2.04,28,57,0,0
3.8318e+05,1.6279e+08,3,4958,4828,14.7,1.92,28,57,0,0
3.8363e+05,1.629e+08,3,4705,3485,14.98,0.18,28,57,0,0
3.8403e+05,1.63e+08,3,3486,3571,14.92,1.13,28,57,0,0
3.8452e+05,1.6311e+08,3,3512,2742,14.81,0.96,28,58,0,0
3.8493e+05,1.6322e+08,3,2728,2600,14.73,1.01,28,58,0,0
3.8538e+05,1.6333e+08,3,2575,2371,15.04,0.45,28,58,0,0
3.8582e+05,1.6344e+08,3,2350,2057,15.05,0.16,28,58,0,0
3.8627e+05,1.6355e+08,3,2055,2042,15.05,0.23,28,58,0,0
3.8655e+05,1.6365e+08,3,2039,2000,15.04,0.21,28,58,0,0
3.87e+05,1.6376e+08,3,2000,2000,15.06,0.26,28,58,0,0
3.8744e+05,1.6387e+08,3,2000,2028,15.05,0.23,28,58,0,0
3.8789e+05,1.6398e+08,3,2027,2014,15.06,0.23,28,58,0,0
3.8833e+05,1.6408e+08,3,2014,2014,15.04,0.29,28,58,0,0
3.8878e+05,1.642e+08,3,2011,1985,15.06,0.19,28,58,0,0
3.8922e+05,1.643e+08,3,1984,1971,15.06,0.22,28,58,0,0
3.8967e+05,1.6441e+08,3,1972,1985,15.05,0.24,28,58,0,0
3.9012e+05,1.6452e+08,3,1978,1928,15.07,0.21,28,58,0,0
3.9056e+05,1.6463e+08,3,1930,2000,15.07,0.22,28,58,0,0
3.91e+05,1.6474e+08,3,1999,1985,15.08,0.25,28,58,0,0
3.9145e+05,1.6485e+08,3,1983,1957,15.07,0.2,28,58,0,0
3.9189e+05,1.6495e+08,3,1957,1985,15.08,0.22,28,58,0,0
3.9239e+05,1.6507e+08,3,1986,2000,15.07,0.26,28,58,0,0
3.9279e+05,1.6517e+08,3,1993,1914,15.16,0.08,28,58,0,0
3.9324e+05,1.6528e+08,3,1896,1542,15.14,0.01,28,58,0,0
3.9368e+05,1.6538e+08,3,1536,1300,15.13,0.06,27,58,0,0
3.9418e+05,1.655e+08,3,1293,1242,15.12,0.1,27,58,0,0
3.9462e+05,1.6561e+08,3,1242,1242,15.13,0.11,27,58,0,0
3.9506e+05,1.6572e+08,3,1240,1228,15.13,0.11,27,58,0,0
3.9551e+05,1.6583e+08,3,1229,1242,15.13,0.11,27,58,0,0
3.9596e+05,1.6593e+08,3,1241,1228,15.13,0.11,28,58,0,0
3.9641e+05,1.6604e+08,3,1228,1228,15.13,0.11,27,58,0,0
3.9686e+05,1.6615e+08,3,1228,1228,15.13,0.11,27,58,0,0
3.973e+05,1.6626e+08,3,1228,1228,15.14,0.11,27,58,0,0
3.9775e+05,1.6637e+08,3,1228,1228,15.13,0.11,27,58,0,0
3.9823e+05,1.6647e+08,3,1228,1228,15.13,0.11,28,58,0,0
3.9863e+05,1.6658e+08,3,1228,1228,15.14,0.11,27,58,0,0
3.9912e+05,1.6669e+08,3,1228,1228,15.14,0.11,27,58,0,0
3.9953e+05,1.6679e+08,3,1228,1242,15.14,0.11,27,58,0,0
4.0002e+05,1.6691e+08,3,1242,1242,15.14,0.11,27,58,0,0
4.0043e+05,1.6701e+08,3,1241,1228,15.14,0.11,27,58,0,0
4.0091e+05,1.6712e+08,3,1228,1228,15.14,0.11,27,58,0,0
4.0136e+05,1.6723e+08,3,1228,1228,15.14,0.11,27,58,0,0
4.018e+05,1.6734e+08,3,1228,1228,15.14,0.11,27,58,0,0
4.023e+05,1.6745e+08,3,1228,1228,15.15,0.11,27,58,0,0
4.0271e+05,1.6755e+08,3,1228,1228,15.15,0.11,27,58,0,0
4.032e+05,1.6767e+08,3,1228,1228,15.15,0.11,27,58,0,0
4.0364e+05,1.6778e+08,3,1228,1228,15.15,0.11,27,58,0,0
4.0405e+05,1.6788e+08,3,1228,1228,15.16,0.11,27,58,0,0
4.0453e+05,1.6799e+08,3,1228,1228,15.16,0.11,27,58,0,0
4.0498e+05,1.6809e+08,3,1228,1228,15.16,0.11,27,58,0,0
4.0542e+05,1.682e+08,3,1228,1228,15.16,0.11,27,58,0,0
4.0588e+05,1.6831e+08,3,1228,1228,15.16,0.11,27,58,0,0
4.0632e+05,1.6842e+08,3,1228,1242,15.16,0.11,27,58,0,0
4.0722e+05,1.6864e+08,3,1241,1228,15.16,0.11,27,58,0,0
4.077e+05,1.6876e+08,3,1228,1228,15.16,0.11,27,58,0,0
4.0815e+05,1.6887e+08,3,1228,1228,15.16,0.11,27,58,0,0
4.0855e+05,1.6896e+08,3,1228,1228,15.17,0.11,27,58,0,0
4.09e+05,1.6907e+08,3,1228,1228,15.17,0.11,27,58,0,0
4.0949e+05,1.692e+08,3,1228,1228,15.16,0.11,27,58,0,0
4.0993e+05,1.693e+08,3,1228,1228,15.17,0.11,27,58,0,0
4.1034e+05,1.694e+08,3,1228,1242,15.17,0.11,27,58,0,0
4.1079e+05,1.6951e+08,3,1241,1228,15.17,0.11,27,58,0,0
4.1123e+05,1.6961e+08,3,1228,1228,15.17,0.11,27,58,0,0
4.1172e+05,1.6972e+08,3,1228,1228,15.17,0.11,27,58,0,0
4.1217e+05,1.6983e+08,3,1228,1228,15.17,0.11,27,58,0,0
4.1262e+05,1.6994e+08,3,1228,1228,15.18,0.11,27,58,0,0
4.1307e+05,1.7005e+08,3,1228,1228,15.18,0.11,27,58,0,0
4.1351e+05,1.7016e+08,3,1228,1242,15.18,0.11,27,58,0,0
4.1399e+05,1.7027e+08,3,1242,1242,15.19,0.1,27,58,0,0
4.1444e+05,1.7038e+08,3,1242,1242,15.18,0.11,27,58,0,0
4.149e+05,1.7048e+08,3,1241,1228,15.19,0.11,27,58,0,0
4.1534e+05,1.7059e+08,3,1228,1228,15.18,0.11,27,58,0,0
4.1579e+05,1.707e+08,3,1228,1228,15.19,0.11,27,58,0,0
4.1628e+05,1.7081e+08,3,1228,1228,15.19,0.11,27,58,0,0
4.1708e+05,1.7103e+08,3,1228,1228,15.18,0.11,27,58,0,0
4.1749e+05,1.7113e+08,3,1228,1228,15.19,0.11,27,58,0,0
4.1797e+05,1.7124e+08,3,1228,1228,15.19,0.11,27,58,0,0
4.1838e+05,1.7134e+08,3,1228,1228,15.18,0.11,27,58,0,0
4.1888e+05,1.7146e+08,3,1228,1228,15.19,0.11,27,58,0,0
4.1936e+05,1.7157e+08,3,1228,1228,15.19,0.11,27,58,0,0
4.198e+05,1.7168e+08,3,1228,1228,15.2,0.11,27,58,0,0
4.2024e+05,1.7179e+08,3,1228,1228,15.19,0.11,27,58,0,0
4.2069e+05,1.7189e+08,3,1228,1228,15.19,0.11,27,58,0,0
4.2114e+05,1.72e+08,3,1228,1228,15.19,0.11,27,58,0,0
4.2159e+05,1.7212e+08,3,1229,1242,15.19,0.11,27,58,0,0
4.2204e+05,1.7222e+08,3,1240,1228,15.19,0.11,27,58,0,0
4.2248e+05,1.7233e+08,3,1228,1228,15.2,0.11,27,58,0,0
4.2337e+05,1.7255e+08,3,1228,1242,15.2,0.11,27,58,0,0
4.2382e+05,1.7265e+08,3,1241,1228,15.2,0.11,27,58,0,0
4.2426e+05,1.7276e+08,3,1228,1228,15.2,0.11,27,58,0,0
4.2471e+05,1.7287e+08,3,1228,1228,15.2,0.11,27,58,0,0
4.2512e+05,1.7297e+08,3,1228,1228,15.2,0.11,27,58,0,0
4.2601e+05,1.7319e+08,3,1228,1228,15.2,0.11,27,58,0,0
4.2646e+05,1.7329e+08,3,1228,1228,15.2,0.11,27,58,0,0
4.2695e+05,1.7341e+08,3,1229,1242,15.2,0.11,27,58,0,0
4.274e+05,1.7352e+08,3,1241,1228,15.2,0.11,27,58,0,0
4.2832e+05,1.7374e+08,3,1228,1228,15.21,0.11,27,58,0,0
4.2922e+05,1.7395e+08,3,1228,1242,15.2,0.11,27,58,0,0
4.2967e+05,1.7406e+08,3,1240,1228,15.2,0.11,27,58,0,0
4.3012e+05,1.7417e+08,3,1228,1228,15.21,0.11,27,58,0,0
4.306e+05,1.7428e+08,3,1229,1242,15.21,0.11,27,58,0,0
4.3101e+05,1.7438e+08,3,1242,1242,15.2,0.11,27,58,0,0
4.3146e+05,1.7449e+08,3,1241,1228,15.21,0.11,27,58,0,0
4.319e+05,1.746e+08,3,1228,1228,15.22,0.11,27,58,0,0
4.3234e+05,1.747e+08,3,1228,1242,15.22,0.11,27,58,0,0
4.3279e+05,1.7481e+08,3,1241,1228,15.22,0.11,27,58,0,0
4.3328e+05,1.7492e+08,3,1229,1242,15.21,0.11,27,58,0,0
4.3372e+05,1.7502e+08,3,1242,1242,15.23,0.11,27,58,0,0
4.3418e+05,1.7514e+08,3,1240,1228,15.23,0.08,27,58,0,0
4.3463e+05,1.7524e+08,3,1173,300,15.23,0.01,27,58,0,0
4.3504e+05,1.7535e+08,3,297,157,15.23,0.04,27,58,0,0
4.3554e+05,1.7546e+08,3,143,0,15.23,0.04,27,58,0,0
4.3599e+05,1.7557e+08,3,0,0,15.23,0.04,27,58,0,0
4.3644e+05,1.7567e+08,3,0,0,15.24,0.04,27,58,0,0
4.3693e+05,1.7579e+08,3,0,0,15.24,0.04,27,58,0,0
4.3739e+05,1.7589e+08,3,0,0,15.24,0.05,27,58,0,0
4.3784e+05,1.76e+08,3,0,0,15.24,0.05,27,58,0,0
4.3834e+05,1.7611e+08,3,0,0,15.24,0.04,27,58,0,0
4.3879e+05,1.7622e+08,3,0,0,15.24,0.04,27,58,0,0
4.3921e+05,1.7633e+08,3,0,0,15.24,0.04,27,58,0,0
4.3967e+05,1.7644e+08,3,0,0,15.24,0.04,27,58,0,0
4.4016e+05,1.7655e+08,3,0,0,15.25,0.05,27,58,0,0
4.4057e+05,1.7665e+08,3,0,0,15.24,0.05,27,58,0,0
4.4102e+05,1.7676e+08,3,0,0,15.25,0.04,27,58,0,0
4.4147e+05,1.7687e+08,3,0,0,15.25,0.05,27,58,0,0
4.4193e+05,1.7698e+08,3,0,0,15.25,0.05,27,58,0,0
4.4235e+05,1.7708e+08,3,0,0,15.25,0.05,27,58,0,0
4.428e+05,1.7719e+08,3,0,0,15.25,0.05,27,58,0,0
4.4329e+05,1.773e+08,3,0,0,15.25,0.05,27,58,0,0
4.4374e+05,1.7741e+08,3,0,0,15.24,0.05,27,58,0,0
4.4419e+05,1.7752e+08,3,0,0,15.25,0.05,27,58,0,0
4.4464e+05,1.7762e+08,3,0,0,15.25,0.05,27,58,0,0
4.451e+05,1.7773e+08,3,0,0,15.25,0.05,27,58,0,0
4.4556e+05,1.7784e+08,3,0,0,15.25,0.05,27,58,0,0
4.46e+05,1.7795e+08,3,0,0,15.25,0.05,27,58,0,0
4.465e+05,1.7806e+08,3,0,0,15.25,0.05,27,58,0,0
4.4695e+05,1.7818e+08,3,0,0,15.26,0.05,27,58,0,0
4.474e+05,1.7828e+08,3,0,0,15.25,0.05,27,58,0,0
4.4785e+05,1.7839e+08,3,0,0,15.25,0.05,27,58,0,0
4.483e+05,1.7849e+08,3,0,0,15.25,0.05,27,58,0,0
4.4876e+05,1.786e+08,3,0,0,15.25,0.05,27,58,0,0
4.4925e+05,1.7872e+08,3,0,0,15.26,0.05,27,58,0,0
4.4971e+05,1.7883e+08,3,0,0,15.26,0.05,27,58,0,0
4.5016e+05,1.7894e+08,3,0,0,15.26,0.05,27,58,0,0
4.5061e+05,1.7904e+08,3,0,0,15.26,0.05,27,58,0,0
4.5106e+05,1.7915e+08,3,0,0,15.25,0.05,27,58,0,0
4.5155e+05,1.7927e+08,3,0,0,15.25,0.05,27,58,0,0
4.52e+05,1.7937e+08,3,0,0,15.25,0.05,27,58,0,0
4.5246e+05,1.7948e+08,3,0,0,15.25,0.05,27,58,0,0
4.5291e+05,1.7959e+08,3,0,0,15.26,0.05,27,58,0,0
4.5336e+05,1.7969e+08,3,0,0,15.26,0.05,27,58,0,0
4.5386e+05,1.7981e+08,3,0,0,15.26,0.05,27,58,0,0
4.5431e+05,1.7991e+08,3,0,0,15.26,0.05,27,58,0,0
4.5476e+05,1.8002e+08,3,0,0,15.26,0.05,27,58,0,0
4.5521e+05,1.8013e+08,3,0,0,15.26,0.05,27,58,0,0
4.5566e+05,1.8023e+08,3,0,0,15.26,0.05,27,58,0,0
4.5616e+05,1.8035e+08,3,0,0,15.26,0.05,27,58,0,0
4.5661e+05,1.8046e+08,3,0,0,15.26,0.05,27,58,0,0
4.5703e+05,1.8056e+08,3,0,0,15.26,0.05,27,58,0,0
4.5753e+05,1.8068e+08,3,0,0,15.26,0.05,27,58,0,0
4.5798e+05,1.8079e+08,3,0,0,15.27,0.05,26,58,0,0
4.5844e+05,1.809e+08,3,0,0,15.27,0.05,26,58,0,0
4.5885e+05,1.81e+08,3,0,0,15.26,0.05,26,58,0,0
4.5934e+05,1.8111e+08,3,0,0,15.26,0.05,27,58,0,0
4.598e+05,1.8122e+08,3,0,0,15.27,0.05,27,58,0,0
4.6024e+05,1.8133e+08,3,0,0,15.26,0.05,27,58,0,0
4.6066e+05,1.8143e+08,3,0,0,15.26,0.05,27,58,0,0
4.6116e+05,1.8155e+08,3,0,0,15.27,0.05,26,58,0,0
4.6161e+05,1.8165e+08,3,0,0,15.27,0.05,26,58,0,0
4.621e+05,1.8177e+08,3,0,0,15.27,0.05,26,58,0,0
4.6256e+05,1.8188e+08,3,0,0,15.27,0.05,26,58,0,0
4.6305e+05,1.82e+08,3,0,0,15.27,0.05,26,58,0,0
4.6346e+05,1.8209e+08,3,0,0,15.27,0.05,26,58,0,0
4.6396e+05,1.8221e+08,3,0,0,15.27,0.05,26,58,0,0
4.6441e+05,1.8232e+08,3,0,0,15.27,0.05,26,58,0,0
4.6486e+05,1.8243e+08,3,0,0,15.27,0.05,26,58,0,0
4.6531e+05,1.8254e+08,3,0,0,15.27,0.05,26,58,0,0
4.6577e+05,1.8265e+08,3,0,0,15.27,0.05,26,58,0,0
4.6622e+05,1.8276e+08,3,0,0,15.27,0.05,26,58,0,0
4.6668e+05,1.8286e+08,3,0,0,15.27,0.05,26,58,0,0
4.6713e+05,1.8297e+08,3,0,0,15.27,0.05,26,58,0,0
