LineNo,TimeUS,Instance,RPM,RawRPM,Volt,Curr,Temp,CTot,MotTemp,Err
1720,56262391,1,0,0,15.61,0.05,23,0,0,0
2140,56369651,1,0,0,15.61,0.05,23,0,0,0
2552,56474418,1,0,0,15.61,0.05,23,0,0,0
2970,56580325,1,0,0,15.61,0.05,23,0,0,0
3381,56685864,1,0,0,15.61,0.05,23,0,0,0
3837,56799637,1,0,0,15.61,0.04,23,0,0,0
4246,56904165,1,0,0,15.61,0.04,23,0,0,0
4657,57007926,1,0,0,15.61,0.04,23,0,0,0
5105,57121911,1,0,0,15.61,0.05,23,0,0,0
5515,57226878,1,0,0,15.61,0.05,23,0,0,0
5969,57341179,1,0,0,15.61,0.05,23,0,0,0
6383,57444378,1,0,0,15.6,0.05,23,0,0,0
6838,57558508,1,0,0,15.61,0.05,23,0,0,0
7255,57663134,1,0,0,15.61,0.05,23,0,0,0
7638,57761919,1,0,0,15.61,0.04,23,0,0,0
8053,57868371,1,0,0,15.61,0.04,23,0,0,0
9335,58192342,1,0,0,15.61,0.04,23,0,0,0
10196,58412617,1,0,0,15.61,0.05,23,0,0,0
10613,58520991,1,0,0,15.61,0.05,23,0,0,0
10898,58626149,1,0,0,15.61,0.05,23,0,0,0
11357,58739262,1,0,0,15.61,0.05,23,0,0,0
11767,58845333,1,0,0,15.61,0.05,23,0,0,0
12153,58947402,1,0,0,15.61,0.04,23,0,0,0
12606,59059890,1,0,0,15.61,0.04,23,0,0,0
13058,59172642,1,0,0,15.61,0.04,23,0,0,0
13473,59279786,1,0,0,15.61,0.04,23,0,0,0
13886,59384312,1,0,0,15.61,0.04,23,0,0,0
14336,59497886,1,0,0,15.61,0.04,23,0,0,0
14747,59600101,1,0,0,15.61,0.04,23,0,0,0
15161,59704246,1,0,0,15.61,0.04,23,0,0,0
15615,59824091,1,0,0,15.61,0.04,23,0,0,0
16029,59927444,1,0,0,15.61,0.04,23,0,0,0
16483,60041361,1,0,0,15.61,0.04,23,0,0,0
16861,60138559,1,0,0,15.61,0.04,23,0,0,0
17316,60257589,1,0,0,15.61,0.04,23,0,0,0
17727,60361070,1,0,0,15.61,0.04,23,0,0,0
18175,60473328,1,0,0,15.61,0.04,23,0,0,0
18592,60581321,1,0,0,15.61,0.04,23,0,0,0
18967,60677767,1,0,0,15.61,0.04,23,0,0,0
19426,60793457,1,0,0,15.61,0.04,23,0,0,0
19837,60899415,1,0,0,15.61,0.04,23,0,0,0
20253,61004619,1,0,0,15.61,0.05,23,0,0,0
20662,61109451,1,0,0,15.61,0.05,23,0,0,0
54665,81867874,1,0,0,15.61,0.04,24,0,0,0
54872,81917555,1,0,0,15.61,0.04,24,0,0,0
55360,82029225,1,0,0,15.61,0.04,24,0,0,0
55815,82137605,1,0,0,15.6,0.04,24,0,0,0
56238,82238778,1,0,0,15.61,0.04,24,0,0,0
56725,82347437,1,0,0,15.61,0.04,24,0,0,0
57217,82458699,1,0,0,15.61,0.04,24,0,0,0
57669,82562961,1,0,0,15.6,0.04,24,0,0,0
58126,82670103,1,0,0,15.61,0.04,24,0,0,0
58578,82776558,1,0,0,15.6,0.04,24,0,0,0
59083,82891592,1,0,0,15.61,0.04,24,0,0,0
59492,82990459,1,0,0,15.61,0.04,24,0,0,0
59992,83103767,1,0,0,15.61,0.04,24,0,0,0
60478,83211978,1,0,0,15.61,0.04,24,0,0,0
60934,83318482,1,0,0,15.6,0.04,24,0,0,0
61383,83424579,1,0,0,15.61,0.04,24,0,0,0
61882,83543093,1,0,0,15.61,0.04,24,0,0,0
62335,83645128,1,0,0,15.61,0.04,24,0,0,0
63685,83959458,1,3,200,15.6,0.04,24,0,0,0
64188,84074577,1,215,457,15.59,0.07000000000000001,24,0,0,0
64597,84173451,1,464,814,15.58,0.13,24,0,0,0
65095,84286197,1,825,1128,15.59,0.14,24,0,0,0
65585,84399175,1,1134,1200,15.59,0.12,24,0,0,0
66037,84501511,1,1202,1228,15.6,0.11,24,0,0,0
66530,84615961,1,1228,1242,15.59,0.11,24,0,0,0
66983,84721728,1,1243,1257,15.6,0.11,24,0,0,0
67435,84825118,1,1260,1328,15.56,0.17,24,0,0,0
67732,84939955,1,1359,1700,15.41,0.38,24,0,0,0
68185,85044907,1,1751,2285,15.37,0.6899999999999999,24,0,0,0
68597,85148861,1,2305,2771,15.29,1.69,25,0,0,0
69104,85265920,1,2801,3242,15.32,1.25,24,0,0,0
69550,85368747,1,3287,3900,15.19,1.97,24,0,0,0
69923,85470532,1,3910,4485,15.11,2.41,24,0,0,0
70422,85588330,1,4498,4842,14.94,2.88,24,0,0,0
70876,85692966,1,4883,5400,14.88,3.25,24,0,0,0
71329,85803121,1,5428,5800,14.92,3.23,24,0,0,0
71781,85908119,1,5793,5671,14.91,3.14,24,0,0,0
72275,86023892,1,5660,5557,14.95,2.66,24,0,0,0
72691,86129319,1,5555,5428,14.97,2.36,24,0,0,0
73143,86234416,1,5424,5271,15.01,2.29,25,1,0,0
73637,86350974,1,5254,5028,14.95,2.03,25,1,0,0
74091,86458332,1,5031,5085,14.96,2.1,25,1,0,0
74543,86568243,1,5084,5071,14.92,2.11,24,1,0,0
75037,86684483,1,5057,4928,15.01,1.77,25,1,0,0
75453,86788136,1,4920,4757,15.01,1.66,25,1,0,0
75905,86894205,1,4755,4685,14.98,1.78,25,1,0,0
76400,87013154,1,4691,4757,14.99,2.21,25,1,0,0
76851,87123378,1,4769,4885,14.96,1.91,25,1,0,0
77303,87230606,1,4892,4971,14.96,1.96,25,1,0,0
77757,87342152,1,4968,4942,14.95,2.01,25,1,0,0
78166,87436135,1,4941,4885,14.98,2.07,25,1,0,0
78658,87551383,1,4881,4828,14.98,1.89,25,1,0,0
79108,87655992,1,4826,4785,14.97,2,25,1,0,0
80008,87871939,1,4785,4785,14.96,1.72,25,1,0,0
80962,88098997,1,4791,4928,14.98,2.24,25,2,0,0
81380,88205241,1,4931,5000,14.95,2.27,25,2,0,0
81873,88322181,1,5003,5042,14.92,2.15,25,2,0,0
82318,88433552,1,5040,5028,14.97,1.96,25,2,0,0
82724,88537685,1,5029,5057,14.95,2.13,25,2,0,0
83172,88646596,1,5042,4842,14.92,2.18,25,2,0,0
83614,88754858,1,4858,5014,14.96,2.29,25,2,0,0
84066,88865142,1,5012,5000,14.97,2.16,25,2,0,0
84469,88967154,1,4995,4900,14.97,1.81,25,2,0,0
84962,89087141,1,4905,4957,14.83,2.18,25,2,0,0
85410,89198944,1,4955,4942,14.82,2.17,25,2,0,0
85858,89308275,1,4947,5028,14.87,2.16,25,2,0,0
86300,89416356,1,5028,5042,14.87,2,25,2,0,0
86749,89527769,1,5035,4971,14.84,2.18,25,2,0,0
87147,89624465,1,4971,5014,14.9,2.24,25,2,0,0
87639,89745865,1,5021,5100,14.92,2.08,25,2,0,0
88077,89849511,1,5097,5071,14.92,2.19,25,3,0,0
88488,89955083,1,5068,5028,14.9,2.02,25,3,0,0
88940,90064049,1,5025,4985,14.88,1.99,25,3,0,0
89338,90163898,1,4980,4900,14.97,1.87,25,3,0,0
89786,90272423,1,4881,4628,14.94,1.6,25,3,0,0
90686,90491554,1,4621,4485,15.04,1.34,25,3,0,0
91138,90604986,1,4478,4385,14.97,1.35,25,3,0,0
91585,90709328,1,4390,4471,14.99,1.54,25,3,0,0
92034,90821600,1,4480,4614,15.02,1.63,25,3,0,0
92521,90937905,1,4623,4685,14.94,1.59,25,3,0,0
92926,91036209,1,4679,4557,14.99,1.24,25,3,0,0
93371,91149368,1,4552,4457,14.99,1.17,25,3,0,0
93820,91258438,1,4461,4528,14.99,1.48,25,3,0,0
94227,91363975,1,4528,4528,14.95,1.58,25,3,0,0
94681,91475172,1,4523,4485,14.96,1.45,25,3,0,0
95119,91581180,1,4488,4571,14.89,1.44,25,3,0,0
95570,91689325,1,4571,4571,14.93,1.89,25,3,0,0
96017,91798889,1,4578,4671,14.9,1.54,25,3,0,0
96911,92017048,1,4671,4671,14.9,1.52,25,4,0,0
97801,92235953,1,4668,4557,14.9,1.35,25,4,0,0
98249,92348217,1,4550,4457,14.88,1.44,25,4,0,0
98701,92457344,1,4458,4471,14.94,1.15,25,4,0,0
99146,92570917,1,4446,4271,14.89,1.3,25,4,0,0
99552,92667182,1,4275,4357,14.93,1.58,25,4,0,0
99994,92774998,1,4360,4428,14.91,1.38,25,4,0,0
100446,92884416,1,4420,4257,14.92,1.43,25,4,0,0
100895,92999572,1,4270,4400,14.92,1.23,25,4,0,0
101305,93098980,1,4399,4342,14.95,1.41,25,4,0,0
101753,93214358,1,4349,4485,14.89,1.73,25,4,0,0
102205,93326925,1,4488,4514,14.88,1.67,25,4,0,0
102650,93435406,1,4520,4614,14.88,1.59,25,4,0,0
103059,93541617,1,4612,4600,14.92,1.49,25,4,0,0
103509,93650986,1,4595,4528,14.88,1.51,25,4,0,0
104401,93872360,1,4527,4514,14.89,1.55,25,4,0,0
104884,93990079,1,4526,4614,14.89,1.81,25,4,0,0
105297,94090897,1,4628,4785,14.86,1.94,25,4,0,0
105701,94193059,1,4785,4842,14.83,2.24,25,4,0,0
106191,94313201,1,4851,4914,14.86,1.97,25,4,0,0
106635,94422688,1,4914,4914,14.85,1.69,25,5,0,0
107042,94516603,1,4909,4614,14.9,1.22,25,5,0,0
107484,94628225,1,4606,4471,14.91,1.33,25,5,0,0
107934,94740861,1,4474,4514,14.87,1.75,25,5,0,0
108381,94851067,1,4521,4585,14.83,1.72,25,5,0,0
108758,94951453,1,4586,4671,14.79,1.85,25,5,0,0
109248,95067985,1,4677,4742,14.85,2.1,25,5,0,0
109653,95168227,1,4740,4685,14.88,1.3,25,5,0,0
110507,95385547,1,4682,4485,14.89,1.39,25,5,0,0
110960,95496620,1,4483,4371,14.83,1.53,25,5,0,0
111404,95607405,1,4381,4600,14.8,1.73,25,5,0,0
111858,95722427,1,4589,4500,14.84,1.5,25,5,0,0
112343,95834115,1,4492,4414,14.89,1.4,25,5,0,0
112787,95944038,1,4412,4400,14.87,1.53,25,5,0,0
113198,96045431,1,4403,4485,14.79,1.59,25,5,0,0
113643,96156933,1,4489,4557,14.85,1.71,25,5,0,0
114985,96485773,1,4562,4814,14.85,2.21,25,5,0,0
115430,96596555,1,4827,4957,14.85,2.02,25,6,0,0
115879,96704944,1,4945,4828,14.86,1.71,25,6,0,0
116281,96806464,1,4825,4685,14.86,1.67,25,6,0,0
116775,96926968,1,4671,4571,14.86,1.32,25,6,0,0
117173,97024314,1,4568,4457,14.88,1.5,25,6,0,0
117661,97142882,1,4445,4328,14.91,1.13,25,6,0,0
118069,97244024,1,4322,4071,14.97,1.03,25,6,0,0
118511,97351347,1,4070,4057,14.91,2.04,25,6,0,0
118960,97458860,1,4058,4142,14.68,2.66,25,6,0,0
119447,97577079,1,4128,3985,14.9,2.61,25,6,0,0
119855,97679008,1,3982,3814,14.84,2.44,25,6,0,0
120300,97790245,1,3841,4100,14.88,2.68,25,6,0,0
120747,97896085,1,4108,4214,14.86,2.53,25,6,0,0
121198,98008391,1,4231,4400,14.83,1.8,25,6,0,0
121639,98111927,1,4402,4557,14.89,1.47,25,6,0,0
122087,98223553,1,4564,4657,14.79,1.8,25,6,0,0
122491,98328244,1,4655,4628,14.86,1.78,25,6,0,0
123390,98549055,1,4637,4828,14.86,1.74,25,7,0,0
123791,98649324,1,4827,4771,14.89,1.52,25,7,0,0
124236,98760478,1,4769,4728,14.83,1.66,25,7,0,0
124691,98868459,1,4727,4685,14.86,1.58,25,7,0,0
125138,98980119,1,4680,4642,14.86,1.49,25,7,0,0
125587,99089939,1,4636,4585,14.89,1.52,25,7,0,0
126030,99198197,1,4578,4485,14.88,1.25,25,7,0,0
126484,99309221,1,4473,4357,14.86,1.28,25,7,0,0
126928,99418903,1,4359,4400,14.86,1.51,25,7,0,0
127335,99526144,1,4400,4485,14.81,1.59,25,7,0,0
127775,99629454,1,4484,4442,14.76,1.59,25,7,0,0
128228,99743382,1,4443,4485,14.8,1.69,25,7,0,0
128681,99854059,1,4487,4528,14.78,1.5,25,7,0,0
129127,99961142,1,4532,4571,14.77,1.81,25,7,0,0
129576,100070606,1,4569,4557,14.78,1.82,25,7,0,0
129973,100171039,1,4561,4728,14.79,1.84,25,7,0,0
130428,100283103,1,4725,4685,14.85,1.52,25,7,0,0
130878,100393378,1,4676,4585,14.8,1.81,25,7,0,0
131282,100491893,1,4586,4714,14.79,1.76,25,7,0,0
131725,100602659,1,4705,4514,14.88,1.04,25,7,0,0
132178,100710873,1,4503,4285,14.91,1.12,25,8,0,0
132627,100825110,1,4278,4114,14.94,1.07,25,8,0,0
133109,100936913,1,4110,4071,14.73,2.13,25,8,0,0
133562,101048474,1,4090,4300,14.8,2.63,25,8,0,0
133972,101156870,1,4311,4428,14.85,1.68,25,8,0,0
134382,101257449,1,4425,4357,14.86,1.3,25,8,0,0
134822,101362788,1,4356,4342,14.84,1.46,25,8,0,0
135280,101476340,1,4335,4242,14.86,1.23,25,8,0,0
135725,101588565,1,4235,4171,14.89,1.05,25,8,0,0
136173,101696608,1,4168,4142,14.91,1.33,25,8,0,0
136615,101807130,1,4159,4328,14.83,1.89,25,8,0,0
137102,101924403,1,4348,4485,14.77,1.88,25,8,0,0
137507,102025803,1,4490,4557,14.82,1.59,25,8,0,0
137999,102147618,1,4554,4528,14.83,1.46,25,8,0,0
138438,102247925,1,4521,4442,14.82,1.31,25,8,0,0
138885,102362468,1,4451,4542,14.85,1.44,25,8,0,0
139296,102461363,1,4544,4657,14.75,1.67,25,8,0,0
139741,102571913,1,4658,4757,14.78,1.9,25,8,0,0
140225,102684575,1,4757,4771,14.82,1.95,25,8,0,0
140677,102799924,1,4775,4828,14.7,2.06,25,8,0,0
141125,102907571,1,4828,4828,14.77,1.77,25,8,0,0
141568,103021396,1,4810,4657,14.77,1.7,25,9,0,0
142019,103132441,1,4673,4785,14.76,2,25,9,0,0
142424,103231919,1,4785,4800,14.75,1.77,25,9,0,0
142862,103341626,1,4794,4728,14.8,1.72,25,9,0,0
143314,103448857,1,4728,4742,14.72,1.87,25,9,0,0
143761,103563467,1,4760,4885,14.75,1.82,25,9,0,0
144210,103668006,1,4872,4742,14.79,1.82,25,9,0,0
144659,103787648,1,4734,4671,14.85,1.55,25,9,0,0
145065,103883403,1,4670,4628,14.8,1.53,25,9,0,0
145515,103995990,1,4617,4514,14.74,1.58,25,9,0,0
145958,104104135,1,4512,4500,14.83,1.46,25,9,0,0
146848,104324973,1,4497,4457,14.84,1.51,25,9,0,0
147701,104533404,1,4456,4442,14.86,1.48,25,9,0,0
148193,104657075,1,4443,4457,14.82,1.52,25,9,0,0
148595,104754978,1,4459,4485,14.88,1.36,25,9,0,0
149004,104858904,1,4484,4428,14.86,1.42,25,9,0,0
149261,104976625,1,4438,4528,14.79,1.52,25,9,0,0
149707,105084133,1,4531,4571,14.8,1.73,25,9,0,0
150157,105198114,1,4572,4585,14.79,1.45,25,10,0,0
150605,105306173,1,4587,4642,14.76,1.64,25,10,0,0
151051,105417162,1,4642,4642,14.79,1.38,25,10,0,0
151501,105528248,1,4611,4328,14.83,1.06,25,10,0,0
151905,105624997,1,4329,4371,14.82,1.41,25,10,0,0
152361,105735095,1,4371,4428,14.83,1.38,25,10,0,0
153245,105955434,1,4433,4571,14.83,1.6,25,10,0,0
153653,106057581,1,4572,4671,14.81,1.45,25,10,0,0
154104,106170623,1,4664,4557,14.79,1.29,25,10,0,0
154550,106275663,1,4532,4214,14.8,0.79,25,10,0,0
155000,106390097,1,4173,3614,14.77,0.93,25,10,0,0
155449,106497778,1,3571,2985,14.74,0.7,25,10,0,0
155895,106607860,1,2915,2285,14.72,0.26,25,10,0,0
156345,106717218,1,2287,2314,14.63,0.65,25,10,0,0
156760,106825330,1,2303,2200,14.71,0.6,25,10,0,0
157208,106935559,1,2254,2785,14.75,1.35,25,10,0,0
157615,107034135,1,2838,3485,14.72,2.49,25,10,0,0
158016,107138990,1,3581,4642,14.74,3.2,25,10,0,0
158464,107248380,1,4700,5571,14.8,3.61,25,10,0,0
158914,107361454,1,5635,6314,14.78,4.3,25,10,0,0
159396,107471453,1,6338,6671,14.75,4.86,25,11,0,0
159802,107577313,1,6664,6600,14.8,3.67,25,11,0,0
160253,107688005,1,6580,6385,14.77,3.59,25,11,0,0
160704,107801012,1,6360,6114,14.83,3.12,25,11,0,0
161113,107900602,1,6112,6057,14.8,2.82,25,11,0,0
161566,108018675,1,6041,5885,14.73,2.86,25,11,0,0
162419,108230441,1,5865,5342,14.68,1.67,25,11,0,0
162865,108342360,1,5307,5014,14.73,1.6,25,11,0,0
163311,108448545,1,4993,4785,14.73,1.44,25,11,0,0
163710,108548615,1,4771,4514,14.77,1.15,25,11,0,0
164161,108659877,1,4501,4242,14.77,1.1,25,11,0,0
164608,108767336,1,4243,4271,14.69,1.73,26,11,0,0
165060,108876998,1,4273,4385,14.76,1.5,25,11,0,0
165505,108988146,1,4371,4128,14.69,1.2,25,12,0,0
165958,109100087,1,4110,3871,14.62,1.9,26,12,0,0
166400,109208570,1,3871,3871,14.62,2.03,25,12,0,0
166852,109320151,1,3898,4271,14.7,2.42,25,12,0,0
167300,109430355,1,4295,4642,14.68,2,25,12,0,0
167704,109532370,1,4643,4800,14.69,2.19,26,12,0,0
168185,109642869,1,4805,5014,14.68,2.43,26,12,0,0
168637,109757628,1,5017,5057,14.71,1.9,25,12,0,0
169086,109864018,1,5053,4957,14.71,2.26,26,12,0,0
169532,109973125,1,4967,5100,14.74,2.29,26,12,0,0
169981,110081227,1,5098,5071,14.72,2.54,26,12,0,0
170385,110184939,1,5071,5100,14.75,2.02,26,12,0,0
170880,110302638,1,5073,4800,14.8,1.41,26,12,0,0
171765,110521165,1,4798,4700,14.88,1.25,25,12,0,0
172217,110631865,1,4692,4614,14.85,1.12,25,12,0,0
172623,110736497,1,4603,4428,14.78,1.38,25,12,0,0
173114,110848334,1,4424,4385,14.8,1.24,26,12,0,0
173517,110952341,1,4384,4357,14.83,1.41,25,13,0,0
173966,111060450,1,4362,4671,14.81,2.54,26,13,0,0
174409,111171871,1,4710,5228,14.79,2.63,26,13,0,0
174857,111281920,1,5228,5228,14.78,2.08,25,13,0,0
175752,111501938,1,5218,4928,14.81,1.56,26,13,0,0
176156,111604484,1,4922,4785,14.79,1.41,26,13,0,0
176605,111713016,1,4777,4371,14.75,0.82,25,13,0,0
177054,111824211,1,4361,3828,14.8,1.14,25,13,0,0
177500,111934434,1,3827,3800,14.84,1.28,26,13,0,0
177950,112042736,1,3795,3685,14.77,1.21,25,13,0,0
178359,112148185,1,3688,3771,14.66,1.72,26,13,0,0
178809,112259244,1,3781,4014,14.75,1.42,25,13,0,0
179254,112368122,1,4015,4071,14.76,2.36,25,13,0,0
179747,112484962,1,4082,4257,14.71,2.32,25,13,0,0
180150,112588555,1,4257,4271,14.73,1.42,26,13,0,0
180643,112713232,1,4271,4271,14.78,1.39,26,13,0,0
181045,112810993,1,4272,4342,14.73,1.69,26,13,0,0
181537,112927322,1,4344,4371,14.74,1.57,25,13,0,0
181980,113038948,1,4387,4628,14.74,1.82,26,13,0,0
182384,113143163,1,4601,4328,14.82,0.92,25,13,0,0
183132,113364130,1,3971,3814,14.85,2.16,26,14,0,0
183831,113584462,1,3981,4085,14.85,1.69,26,14,0,0
184324,113702978,1,4065,3842,14.66,2.26,26,14,0,0
184689,113795152,1,3846,4071,14.85,2.64,26,14,0,0
185187,113914502,1,4068,4042,14.81,3,26,14,0,0
185584,114012136,1,4045,4271,14.72,3.51,25,14,0,0
186070,114134759,1,4279,4385,14.83,1.29,26,14,0,0
186551,114245587,1,4385,4385,14.79,1.49,26,14,0,0
187402,114454727,1,4384,4371,14.8,1.18,26,14,0,0
187856,114564236,1,4371,4371,14.77,1.52,26,14,0,0
188709,114783361,1,4369,4200,14.86,0.98,26,14,0,0
189157,114890962,1,4198,4128,14.85,1.16,26,14,0,0
189605,115003597,1,4143,4271,14.77,1.72,26,14,0,0
190010,115103385,1,4282,4471,14.75,1.74,26,14,0,0
190458,115217952,1,4472,4500,14.83,1.37,26,14,0,0
190872,115319921,1,4503,4642,14.71,1.62,26,15,0,0
191361,115438334,1,4639,4614,14.72,1.41,26,15,0,0
192210,115647952,1,4602,4000,14.9,0.8,26,15,0,0
192660,115760984,1,3977,3671,14.8,0.84,26,15,0,0
193546,115977461,1,3672,3771,14.77,1.44,26,15,0,0
193996,116086902,1,3795,3971,14.76,2.33,26,15,0,0
194402,116192948,1,4008,4371,14.63,2.31,26,15,0,0
194854,116302224,1,4387,4528,14.79,1.62,26,15,0,0
195261,116409432,1,4519,4442,14.8,1.27,26,15,0,0
195672,116509899,1,4442,4442,14.85,1.16,26,15,0,0
196113,116615337,1,4441,4371,14.78,1.61,26,15,0,0
196567,116729135,1,4375,4471,14.79,1.46,26,15,0,0
197058,116851200,1,4477,4528,14.78,1.42,26,15,0,0
197457,116947928,1,4527,4500,14.82,1.24,26,15,0,0
197903,117057429,1,4491,4328,14.86,1.46,26,15,0,0
198306,117160645,1,4331,4571,14.79,1.68,26,15,0,0
198798,117279460,1,4580,4671,14.72,1.72,26,15,0,0
199237,117385998,1,4664,4585,14.8,1.4,26,15,0,0
199689,117497424,1,4591,4657,14.76,1.47,26,15,0,0
200137,117609681,1,4661,4714,14.79,1.89,26,15,0,0
200544,117709812,1,4715,4728,14.72,1.72,26,16,0,0
200994,117823357,1,4731,4785,14.67,1.64,26,16,0,0
201445,117935221,1,4786,4800,14.76,1.8,26,16,0,0
201849,118038974,1,4800,4871,14.66,1.98,26,16,0,0
202290,118145393,1,4873,4914,14.79,1.69,26,16,0,0
202740,118255876,1,4913,4900,14.77,1.69,26,16,0,0
203184,118365175,1,4900,4900,14.81,1.68,26,16,0,0
203634,118475174,1,4904,4971,14.72,1.86,26,16,0,0
204562,118698465,1,4962,4700,14.79,1.35,26,16,0,0
205461,118921893,1,4698,4671,14.75,1.74,26,16,0,0
205866,119025493,1,4673,4714,14.62,1.89,26,16,0,0
206266,119126974,1,4716,4842,14.69,2.17,26,16,0,0
206718,119238467,1,4841,4828,14.76,1.75,26,16,0,0
207160,119346788,1,4828,4842,14.69,2.03,26,16,0,0
208503,119674231,1,4847,5114,14.73,1.92,25,16,0,0
208953,119787849,1,5110,5071,14.73,1.84,26,17,0,0
209405,119896089,1,5063,4985,14.79,1.37,26,17,0,0
210293,120111871,1,4989,5171,14.72,2.04,26,17,0,0
210735,120218639,1,5169,5114,14.78,1.8,26,17,0,0
211198,120338322,1,5115,5128,14.76,1.35,26,17,0,0
211633,120440786,1,5119,5000,14.78,1.4,26,17,0,0
212539,120665590,1,4981,4600,14.77,1.14,26,17,0,0
212943,120767196,1,4600,4600,14.69,1.55,26,17,0,0
213400,120877118,1,4602,4728,14.77,1.64,26,17,0,0
213845,120987747,1,4742,5028,14.7,1.9,26,17,0,0
214340,121106498,1,5023,4971,14.73,1.62,26,17,0,0
214737,121203205,1,4970,4928,14.75,1.77,26,17,0,0
215192,121314933,1,4932,5000,14.7,1.92,26,17,0,0
216081,121531884,1,4996,4857,14.73,1.46,26,17,0,0
216922,121742885,1,4855,4700,14.75,1.45,26,17,0,0
217378,121853943,1,4690,4457,14.75,1.16,26,17,0,0
217832,121970228,1,4455,4442,14.72,1.29,26,18,0,0
218280,122079463,1,4435,4285,14.75,1.47,26,18,0,0
218724,122191212,1,4287,4314,14.73,1.67,26,18,0,0
219176,122300474,1,4312,4300,14.77,1.39,26,18,0,0
219624,122412913,1,4305,4357,14.79,1.6,26,18,0,0
220065,122515482,1,4364,4528,14.75,1.72,26,18,0,0
220466,122619938,1,4526,4442,14.8,1.33,25,18,0,0
220913,122732359,1,4439,4328,14.81,1.12,26,18,0,0
221364,122842449,1,4324,4257,14.82,1.03,26,18,0,0
221775,122946993,1,4259,4385,14.8,1.77,26,18,0,0
222267,123074541,1,4428,4742,14.72,2.06,26,18,0,0
222717,123186893,1,4761,4900,14.74,1.96,26,18,0,0
223525,123388237,1,4903,5000,14.74,1.83,26,18,0,0
223971,123505179,1,4995,4957,14.73,1.63,26,18,0,0
224377,123601139,1,4954,4871,14.72,1.65,26,18,0,0
225755,123938021,1,4861,4585,14.67,1.73,26,18,0,0
226233,124050874,1,4581,4557,14.69,1.84,26,18,0,0
226642,124154059,1,4569,4785,14.76,1.88,26,18,0,0
227091,124262350,1,4792,4971,14.68,2.31,26,19,0,0
227536,124377416,1,4972,4985,14.73,1.73,26,19,0,0
227980,124482783,1,4970,4842,14.75,1.87,26,19,0,0
228879,124708202,1,4843,4871,14.74,2.04,26,19,0,0
229282,124811436,1,4879,4971,14.7,2.04,26,19,0,0
229732,124921931,1,4983,5114,14.76,2.34,25,19,0,0
230139,125023453,1,5112,5057,14.74,2.21,26,19,0,0
230627,125145328,1,5052,5000,14.73,2.08,26,19,0,0
231036,125246537,1,5002,5028,14.7,2.18,26,19,0,0
231481,125357113,1,5025,5000,14.78,1.91,26,19,0,0
231927,125464345,1,5005,5071,14.72,2.22,26,19,0,0
232327,125565248,1,5072,5100,14.75,2.1,26,19,0,0
232780,125678819,1,5101,5128,14.69,2.27,26,19,0,0
233224,125788337,1,5142,5328,14.76,2.21,26,19,0,0
233673,125895959,1,5324,5285,14.76,2.31,26,19,0,0
234080,126001966,1,5279,5157,14.72,2.15,26,20,0,0
234532,126112095,1,5164,5271,14.69,2.43,26,20,0,0
234935,126214399,1,5271,5328,14.75,2.65,26,20,0,0
235426,126337397,1,5354,5542,14.72,2.91,26,20,0,0
235833,126438480,1,5553,5671,14.69,2.93,26,20,0,0
236274,126544126,1,5671,5685,14.69,2.99,26,20,0,0
236722,126655240,1,5686,5714,14.7,2.96,26,20,0,0
237584,126870076,1,5709,5571,14.68,2.59,26,20,0,0
238029,126981401,1,5551,5357,14.7,2.18,26,20,0,0
238471,127085178,1,5345,5185,14.76,2.55,26,20,0,0
238884,127187913,1,5186,5228,14.69,2.24,26,20,0,0
239328,127293599,1,5229,5271,14.67,2.5,26,20,0,0
239782,127410226,1,5259,5142,14.73,2.4,26,21,0,0
240228,127515782,1,5151,5271,14.69,2.15,25,21,0,0
241078,127729892,1,5259,5014,14.63,2.11,26,21,0,0
241486,127832624,1,5013,5000,14.64,2.17,26,21,0,0
242374,128048031,1,4999,4928,14.69,1.9,26,21,0,0
242817,128160343,1,4928,4928,14.64,1.95,26,21,0,0
243270,128268238,1,4929,4957,14.66,2,26,21,0,0
243714,128377633,1,4963,5057,14.67,2.23,26,21,0,0
244158,128485251,1,5053,5014,14.65,2.19,26,21,0,0
244603,128597010,1,5010,4971,14.66,1.87,26,21,0,0
245012,128697996,1,4967,4900,14.71,1.72,26,21,0,0
245456,128809171,1,4900,4914,14.67,1.95,26,21,0,0
245902,128917236,1,4915,5028,14.72,2.13,26,21,0,0
246349,129026371,1,5028,5028,14.73,2.17,26,21,0,0
246792,129137452,1,5022,4900,14.72,1.59,26,21,0,0
247238,129245936,1,4889,4800,14.73,1.69,26,22,0,0
247681,129354433,1,4790,4700,14.74,1.45,26,22,0,0
248128,129463002,1,4688,4528,14.77,1.24,26,22,0,0
249019,129681217,1,4529,4571,14.7,1.6,26,22,0,0
249428,129786085,1,4571,4585,14.71,1.63,26,22,0,0
249911,129899621,1,4593,4700,14.7,1.7,26,22,0,0
250314,130004111,1,4700,4700,14.73,1.34,26,22,0,0
250762,130113199,1,4685,4471,14.77,1.22,26,22,0,0
251218,130229991,1,4454,4285,14.76,1.11,26,22,0,0
251623,130330427,1,4288,4357,14.7,1.51,26,22,0,0
252076,130443584,1,4361,4457,14.72,1.56,26,22,0,0
252473,130545927,1,4456,4414,14.74,1.25,26,22,0,0
252925,130655766,1,4414,4428,14.66,1.57,26,22,0,0
253374,130768090,1,4424,4371,14.75,1.62,26,22,0,0
253827,130880555,1,4378,4485,14.72,1.51,26,22,0,0
254273,130991174,1,4497,4671,14.7,1.69,26,22,0,0
254721,131100240,1,4676,4728,14.7,1.79,26,22,0,0
255167,131212326,1,4722,4671,14.72,1.57,26,22,0,0
255571,131312117,1,4673,4714,14.75,1.93,26,22,0,0
256018,131424324,1,4717,4771,14.72,1.85,26,22,0,0
256468,131532378,1,4772,4785,14.75,1.85,26,22,0,0
256899,131634364,1,4786,4814,14.74,1.65,25,23,0,0
257389,131754243,1,4818,4871,14.72,1.76,26,23,0,0
257793,131853235,1,4871,4885,14.74,1.82,26,23,0,0
258725,132081249,1,4882,4828,14.73,1.84,26,23,0,0
259130,132184160,1,4828,4842,14.74,1.76,26,23,0,0
259581,132295099,1,4833,4628,14.73,1.35,26,23,0,0
260022,132402568,1,4626,4600,14.77,1.56,26,23,0,0
260468,132512444,1,4595,4500,14.76,1.57,26,23,0,0
260914,132623434,1,4497,4471,14.74,1.35,26,23,0,0
261364,132732576,1,4472,4500,14.77,1.34,26,23,0,0
261808,132843929,1,4498,4385,14.71,1.5,26,23,0,0
262253,132953882,1,4389,4428,14.77,1.45,26,23,0,0
262697,133058627,1,4433,4485,14.65,1.91,26,23,0,0
263099,133157331,1,4486,4557,14.7,1.51,26,23,0,0
263990,133375778,1,4555,4457,14.73,1.25,26,23,0,0
264922,133609247,1,4454,4414,14.73,1.44,26,23,0,0
265369,133714849,1,4409,4371,14.72,1.45,26,23,0,0
265776,133814170,1,4372,4442,14.76,1.47,26,23,0,0
266219,133920741,1,4442,4457,14.75,1.41,26,24,0,0
266671,134037388,1,4455,4442,14.69,1.44,26,24,0,0
267155,134158204,1,4446,4471,14.66,1.54,26,24,0,0
268000,134366615,1,4470,4457,14.72,1.38,25,24,0,0
268410,134470229,1,4455,4414,14.7,1.46,25,24,0,0
268897,134588387,1,4408,4357,14.7,1.37,26,24,0,0
269298,134684916,1,4360,4442,14.66,1.7,26,24,0,0
269790,134807760,1,4442,4442,14.67,1.61,26,24,0,0
270197,134907388,1,4441,4428,14.67,1.56,26,24,0,0
270645,135021941,1,4435,4514,14.68,1.61,26,24,0,0
271086,135125413,1,4516,4542,14.71,1.52,26,24,0,0
272420,135450561,1,4542,4614,14.66,1.82,26,24,0,0
272858,135559025,1,4617,4757,14.66,1.94,25,24,0,0
273311,135669188,1,4758,4828,14.66,2.01,26,24,0,0
273759,135781054,1,4824,4742,14.67,1.93,26,24,0,0
274245,135893578,1,4747,4800,14.66,2.07,26,24,0,0
274642,135991941,1,4801,4871,14.66,1.97,26,24,0,0
275093,136104552,1,4870,4842,14.68,1.75,25,25,0,0
275542,136218596,1,4844,4871,14.61,2.16,26,25,0,0
275986,136330396,1,4861,4785,14.67,1.7,25,25,0,0
276391,136431544,1,4787,4942,14.66,1.87,26,25,0,0
276875,136550462,1,4936,4885,14.68,1.8,26,25,0,0
277318,136656026,1,4887,4914,14.71,2.29,26,25,0,0
277725,136760998,1,4917,5000,14.65,2.43,26,25,0,0
278651,136984028,1,5001,5042,14.66,2.03,26,25,0,0
279062,137090144,1,5043,5057,14.67,1.97,26,25,0,0
279505,137197429,1,5058,5100,14.66,2.25,26,25,0,0
279956,137308602,1,5080,4828,14.71,1.82,26,25,0,0
280398,137421354,1,4829,4857,14.65,1.72,26,25,0,0
280846,137529193,1,4852,4800,14.65,1.71,26,25,0,0
281257,137635085,1,4804,4871,14.64,1.92,26,25,0,0
281663,137739681,1,4868,4771,14.74,1.53,26,25,0,0
282112,137847237,1,4762,4585,14.77,1.03,25,25,0,0
282561,137961153,1,4568,4400,14.72,1.34,26,26,0,0
283009,138068443,1,4398,4371,14.73,1.62,26,26,0,0
283453,138177608,1,4383,4557,14.6,2.04,26,26,0,0
283901,138287954,1,4568,4728,14.63,1.74,26,26,0,0
284303,138388631,1,4727,4700,14.7,1.56,26,26,0,0
284748,138497920,1,4702,4857,14.71,2.05,26,26,0,0
285196,138610200,1,4859,4885,14.69,1.66,26,26,0,0
285680,138722953,1,4870,4714,14.72,1.86,26,26,0,0
286094,138834018,1,4727,4871,14.71,2.01,26,26,0,0
286537,138944201,1,4864,4800,14.64,2.31,26,26,0,0
287392,139153953,1,4802,4900,14.64,1.96,26,26,0,0
287843,139265750,1,4897,4871,14.69,1.97,26,26,0,0
288284,139373015,1,4868,4842,14.62,2.13,26,26,0,0
288737,139482421,1,4855,4985,14.57,2.31,25,26,0,0
289136,139586318,1,4986,5028,14.57,2.06,26,26,0,0
289593,139699310,1,5004,4771,14.6,1.88,25,26,0,0
290024,139802041,1,4767,4685,14.63,1.6,26,26,0,0
290878,140016896,1,4678,4428,14.68,1.45,25,27,0,0
291373,140135731,1,4424,4385,14.69,1.64,26,27,0,0
291748,140235600,1,4387,4500,14.7,1.56,25,27,0,0
292231,140352993,1,4502,4542,14.67,1.81,26,27,0,0
292679,140461568,1,4549,4657,14.59,2.07,25,27,0,0
293566,140680417,1,4660,4757,14.61,1.83,26,27,0,0
293970,140783026,1,4758,4800,14.68,1.76,25,27,0,0
294859,140998781,1,4794,4657,14.67,1.82,25,27,0,0
295309,141108560,1,4654,4628,14.68,1.8,25,27,0,0
295751,141215423,1,4634,4785,14.67,2,25,27,0,0
296233,141332121,1,4789,4828,14.67,1.92,25,27,0,0
297079,141544342,1,4819,4585,14.72,1.51,25,27,0,0
297529,141651766,1,4574,4471,14.72,1.5,26,27,0,0
297932,141754465,1,4457,4271,14.78,1.25,26,27,0,0
298380,141862226,1,4277,4342,14.74,1.83,25,27,0,0
299231,142073586,1,4345,4542,14.76,1.47,25,28,0,0
299680,142185582,1,4536,4485,14.83,1.55,25,28,0,0
300128,142292336,1,4485,4485,14.76,1.67,26,28,0,0
300574,142403136,1,4486,4528,14.71,1.57,25,28,0,0
301021,142513559,1,4529,4557,14.77,1.84,25,28,0,0
301464,142622105,1,4578,4871,14.77,1.88,25,28,0,0
301911,142728416,1,4852,4485,14.77,1.21,26,28,0,0
302312,142831992,1,4483,4428,14.81,1.4,25,28,0,0
302763,142947157,1,4424,4371,14.73,1.6,25,28,0,0
303171,143049872,1,4377,4514,14.71,1.91,25,28,0,0
303656,143171150,1,4524,4628,14.72,1.9,25,28,0,0
304064,143268175,1,4628,4628,14.71,1.55,25,28,0,0
304509,143380406,1,4631,4685,14.69,1.65,25,28,0,0
304960,143491599,1,4681,4628,14.68,1.44,25,28,0,0
305365,143596162,1,4632,4714,14.67,1.7,26,28,0,0
305813,143704895,1,4721,4814,14.64,1.76,25,28,0,0
306260,143819558,1,4808,4757,14.63,1.55,25,28,0,0
306663,143915579,1,4754,4714,14.69,1.56,25,28,0,0
307110,144029484,1,4704,4600,14.69,1.37,26,28,0,0
307522,144131149,1,4597,4557,14.7,1.46,25,28,0,0
308002,144247911,1,4550,4457,14.69,1.46,26,28,0,0
308402,144348317,1,4462,4585,14.68,1.88,25,29,0,0
308855,144459046,1,4583,4542,14.67,1.44,25,29,0,0
309261,144564499,1,4539,4485,14.69,1.5,25,29,0,0
309712,144676902,1,4483,4457,14.7,1.26,25,29,0,0
310160,144790166,1,4451,4400,14.67,1.37,25,29,0,0
310605,144900215,1,4405,4457,14.72,1.52,25,29,0,0
311050,145007895,1,4454,4428,14.7,1.5,25,29,0,0
311498,145119894,1,4447,4571,14.71,1.8,25,29,0,0
311939,145225191,1,4580,4700,14.64,2.05,25,29,0,0
312395,145337248,1,4719,4885,14.7,1.79,25,29,0,0
312799,145443038,1,4889,4928,14.66,1.99,25,29,0,0
313726,145663480,1,4930,4985,14.63,2.47,25,29,0,0
314126,145759902,1,4988,5142,14.69,2.29,25,29,0,0
314620,145885212,1,5153,5257,14.67,2.39,25,29,0,0
315060,145990886,1,5251,5200,14.7,2.27,25,29,0,0
315328,146095885,1,5202,5257,14.65,2.18,26,29,0,0
315734,146200466,1,5252,4985,14.7,1.81,25,29,0,0
316183,146306585,1,4984,4971,14.72,2.09,25,30,0,0
317112,146532687,1,4970,4942,14.65,2.26,26,30,0,0
317561,146641737,1,4947,5014,14.69,2.2,25,30,0,0
318443,146855366,1,5012,4971,14.69,2.15,25,30,0,0
318894,146968871,1,4981,5071,14.68,2.21,26,30,0,0
319344,147078966,1,5056,4857,14.63,2.02,25,30,0,0
319754,147185893,1,4854,4828,14.7,1.96,26,30,0,0
320202,147295004,1,4853,5100,14.71,2.5,26,30,0,0
320649,147407852,1,5116,5285,14.68,2.63,25,30,0,0
321055,147509408,1,5285,5328,14.69,2.57,25,30,0,0
321503,147619360,1,5333,5400,14.7,2.41,25,30,0,0
321951,147732569,1,5398,5385,14.67,2.61,25,30,0,0
322395,147838577,1,5369,5228,14.75,2.08,25,30,0,0
322839,147950514,1,5230,5257,14.73,2.14,25,30,0,0
323285,148056129,1,5257,5271,14.71,2.46,25,31,0,0
324178,148276178,1,5272,5328,14.68,2.22,26,31,0,0
324618,148384947,1,5318,5114,14.73,1.79,25,31,0,0
325116,148503367,1,5123,5257,14.69,2.19,25,31,0,0
325524,148608013,1,5259,5300,14.67,2.25,25,31,0,0
325975,148717881,1,5300,5300,14.68,2.07,25,31,0,0
326373,148819588,1,5296,5171,14.59,2.03,25,31,0,0
326828,148936867,1,5174,5214,14.64,1.95,25,31,0,0
327231,149035563,1,5215,5285,14.64,2.19,25,31,0,0
327683,149149468,1,5289,5357,14.65,2.15,25,31,0,0
328127,149255970,1,5369,5528,14.66,2.41,25,31,0,0
328571,149364812,1,5531,5585,14.65,2.41,25,31,0,0
329018,149474043,1,5573,5414,14.61,2.57,25,31,0,0
329457,149579923,1,5424,5557,14.63,2.44,25,32,0,0
329905,149687885,1,5549,5442,14.64,2.12,25,32,0,0
330799,149909610,1,5448,5628,14.6,2.59,26,32,0,0
331247,150020593,1,5624,5585,14.64,2.81,25,32,0,0
331649,150124920,1,5583,5471,14.6,2.06,26,32,0,0
332095,150231744,1,5463,4957,14.67,1.35,26,32,0,0
332581,150351894,1,4924,4585,14.66,0.9899999,25,32,0,0
332987,150450965,1,4562,4228,14.71,1.05,25,32,0,0
333437,150566569,1,4218,4114,14.67,1.39,25,32,0,0
333842,150666705,1,4114,4142,14.63,1.88,26,32,0,0
334329,150785746,1,4157,4314,14.62,1.4,26,32,0,0
334739,150888068,1,4310,4271,14.62,1.54,25,32,0,0
335223,151002893,1,4273,4314,14.6,1.65,25,32,0,0
335630,151102919,1,4314,4328,14.67,1.44,26,32,0,0
336078,151216363,1,4329,4357,14.77,1.19,25,32,0,0
336522,151326592,1,4358,4385,14.75,1.43,25,32,0,0
336973,151438975,1,4370,4228,14.82,1.11,26,32,0,0
337416,151548186,1,4221,4128,14.83,1.47,26,32,0,0
337827,151651038,1,4126,4114,14.81,1.5,26,32,0,0
338270,151761621,1,4124,4228,14.79,1.49,26,33,0,0
338721,151872991,1,4249,4457,14.78,1.43,26,33,0,0
339167,151979966,1,4463,4528,14.77,1.55,25,33,0,0
339613,152086148,1,4530,4557,14.71,1.39,26,33,0,0
340013,152186366,1,4556,4542,14.77,1.19,26,33,0,0
340461,152295132,1,4546,4642,14.76,1.35,25,33,0,0
340908,152407467,1,4635,4571,14.74,1.45,26,33,0,0
342242,152737200,1,4571,4600,14.75,1.08,26,33,0,0
342687,152847604,1,4592,4514,14.74,1.6,26,33,0,0
343095,152948437,1,4515,4542,14.75,1.49,26,33,0,0
343547,153058117,1,4541,4528,14.75,1.26,26,33,0,0
343994,153178244,1,4508,4371,14.73,1.26,26,33,0,0
344438,153284912,1,4383,4485,14.69,1.56,25,33,0,0
344882,153385320,1,4486,4500,14.73,1.22,26,33,0,0
345328,153494397,1,4489,4385,14.73,1.36,26,33,0,0
345734,153597979,1,4386,4457,14.74,1.36,26,33,0,0
346234,153724497,1,4446,4400,14.77,1.38,26,33,0,0
347080,153928368,1,4398,4371,14.75,1.4,26,33,0,0
347489,154031057,1,4375,4457,14.68,1.7,25,33,0,0
348386,154249458,1,4463,4685,14.72,1.75,25,34,0,0
348829,154358174,1,4688,4742,14.69,1.91,25,34,0,0
349280,154471749,1,4721,4528,14.74,1.02,25,34,0,0
349720,154571361,1,4526,4485,14.72,1.34,26,34,0,0
350167,154684328,1,4483,4457,14.73,1.47,25,34,0,0
350615,154797771,1,4470,4600,14.7,1.9,26,34,0,0
351507,155015865,1,4606,4785,14.67,1.63,25,34,0,0
351959,155124990,1,4776,4685,14.69,1.33,25,34,0,0
352405,155236243,1,4677,4614,14.66,1.51,25,34,0,0
352848,155346864,1,4603,4514,14.7,1.36,25,34,0,0
353659,155550324,1,4513,4500,14.67,1.58,25,34,0,0
354151,155669171,1,4503,4542,14.73,1.59,25,34,0,0
354597,155778550,1,4545,4585,14.69,1.48,26,34,0,0
355001,155875402,1,4594,4785,14.6,2.09,25,34,0,0
355488,155993687,1,4792,4871,14.59,1.83,25,34,0,0
355933,156098371,1,4871,4871,14.64,1.67,26,34,0,0
356342,156201751,1,4870,4842,14.6,1.95,25,34,0,0
356793,156310995,1,4837,4742,14.6,1.63,25,34,0,0
357231,156418497,1,4743,4771,14.65,1.68,25,34,0,0
357683,156530593,1,4769,4757,14.63,1.61,25,35,0,0
358134,156644499,1,4759,4785,14.61,1.69,26,35,0,0
358537,156747875,1,4783,4757,14.72,1.66,26,35,0,0
359022,156860396,1,4754,4728,14.75,1.52,25,35,0,0
359877,157074597,1,4726,4700,14.73,1.6,25,35,0,0
360772,157290187,1,4700,4785,14.72,1.66,25,35,0,0
361257,157405938,1,4778,4714,14.69,1.64,25,35,0,0
361704,157513562,1,4704,4614,14.67,1.56,25,35,0,0
362100,157614102,1,4614,4657,14.69,1.53,25,35,0,0
362546,157727134,1,4658,4700,14.63,1.62,25,35,0,0
362991,157833149,1,4693,4557,14.67,1.49,25,35,0,0
363432,157939365,1,4557,4571,14.69,1.53,25,35,0,0
363888,158049318,1,4573,4600,14.69,1.66,26,35,0,0
364287,158154203,1,4599,4585,14.69,1.52,25,35,0,0
364781,158271437,1,4572,4457,14.69,1.41,25,35,0,0
365224,158381453,1,4459,4485,14.72,1.32,25,35,0,0
365672,158490416,1,4474,4371,14.6,1.48,25,35,0,0
366116,158599194,1,4377,4457,14.67,1.57,25,35,0,0
366567,158710162,1,4462,4542,14.68,1.4,25,35,0,0
366970,158811550,1,4543,4585,14.68,1.56,25,36,0,0
367423,158922980,1,4583,4485,14.71,1.4,25,36,0,0
367910,159040563,1,4486,4500,14.67,1.38,25,36,0,0
368350,159148003,1,4502,4528,14.71,1.51,25,36,0,0
368798,159257557,1,4530,4557,14.72,1.61,25,36,0,0
369163,159355380,1,4557,4614,14.66,1.47,25,36,0,0
369654,159471404,1,4609,4542,14.7,1.55,25,36,0,0
370100,159582856,1,4543,4585,14.68,1.61,25,36,0,0
370542,159686905,1,4584,4528,14.69,1.56,25,36,0,0
370991,159799548,1,4530,4657,14.61,2,25,36,0,0
371438,159906593,1,4659,4771,14.67,1.88,25,36,0,0
371887,160016450,1,4770,4742,14.63,1.61,25,36,0,0
372336,160129278,1,4745,4785,14.65,1.76,25,36,0,0
372784,160237999,1,4784,4771,14.69,1.72,25,36,0,0
373187,160340438,1,4771,4842,14.66,1.93,25,36,0,0
373669,160449324,1,4839,4728,14.67,1.65,25,36,0,0
374118,160562850,1,4730,4785,14.72,1.66,25,36,0,0
374569,160673052,1,4775,4685,14.7,1.66,25,36,0,0
375012,160781551,1,4685,4685,14.67,1.69,25,36,0,0
375457,160888003,1,4687,4714,14.67,1.67,25,36,0,0
375906,160998781,1,4710,4657,14.67,1.56,25,37,0,0
376354,161112674,1,4657,4657,14.65,1.69,25,37,0,0
376798,161218571,1,4649,4571,14.6,1.55,25,37,0,0
377278,161334405,1,4563,4500,14.66,1.33,25,37,0,0
377728,161445678,1,4497,4485,14.67,1.45,25,37,0,0
378134,161543365,1,4484,4442,14.67,1.44,25,37,0,0
378622,161661377,1,4432,4371,14.67,1.33,25,37,0,0
379025,161764465,1,4369,4328,14.7,1.26,25,37,0,0
379467,161871915,1,4332,4371,14.76,1.96,25,37,0,0
379917,161980014,1,4363,4271,14.72,1.64,26,37,0,0
380811,162203571,1,4283,4642,14.74,2.02,25,37,0,0
381301,162322963,1,4657,4785,14.75,1.87,25,37,0,0
381705,162425859,1,4775,4685,14.7,1.84,25,37,0,0
382151,162536015,1,4669,4542,14.76,1.64,25,37,0,0
383002,162748480,1,4544,4900,14.73,1.92,25,37,0,0
383448,162853965,1,4825,2871,15.32,0.12,25,37,0,0
383897,162965623,1,2847,2528,14.8,0.86,25,37,0,0
384344,163071777,1,2539,2757,15.08,1.49,25,37,0,0
384750,163178967,1,2756,2700,15.14,0.72,25,37,0,0
385241,163296409,1,2667,2328,15.15,0.46,25,37,0,0
385640,163397902,1,2319,2142,15.16,0.17,25,38,0,0
386130,163516613,1,2120,1914,15.15,0.15,25,38,0,0
387258,163827004,1,1884,1857,15.15,0.19,25,38,0,0
387747,163947364,1,1855,1842,15.16,0.2,25,38,0,0
388194,164052181,1,1842,1842,15.17,0.19,25,38,0,0
388591,164150431,1,1842,1857,15.16,0.15,25,38,0,0
389083,164269429,1,1858,1871,15.16,0.18,25,38,0,0
389931,164478423,1,1870,1828,15.16,0.15,25,38,0,0
390417,164597082,1,1828,1842,15.17,0.17,25,38,0,0
390824,164696164,1,1841,1828,15.16,0.19,25,38,0,0
391314,164816618,1,1828,1828,15.17,0.15,25,38,0,0
391755,164921789,1,1829,1857,15.17,0.2,25,38,0,0
392204,165030104,1,1857,1857,15.17,0.23,25,38,0,0
392607,165131216,1,1857,1885,15.27,0.15,25,38,0,0
393055,165238316,1,1879,1628,15.24,0.02,25,38,0,0
393547,165353394,1,1615,1357,15.23,0.02,25,38,0,0
393994,165457410,1,1352,1257,15.23,0.08,25,38,0,0
394441,165567185,1,1256,1242,15.23,0.09,25,38,0,0
394890,165676082,1,1241,1228,15.23,0.09,25,38,0,0
395334,165784382,1,1228,1228,15.22,0.09,25,38,0,0
395830,165897621,1,1228,1228,15.23,0.09,25,38,0,0
396275,166004465,1,1228,1242,15.24,0.09,25,38,0,0
396724,166112955,1,1240,1228,15.23,0.09,25,38,0,0
397171,166222682,1,1228,1228,15.23,0.09,25,38,0,0
397574,166323924,1,1228,1228,15.23,0.09,25,38,0,0
398065,166438619,1,1228,1228,15.24,0.09,25,38,0,0
398953,166650507,1,1228,1228,15.25,0.09,25,38,0,0
399887,166879914,1,1228,1228,15.25,0.09,25,38,0,0
400293,166976879,1,1228,1228,15.25,0.09,25,38,0,0
400780,167087539,1,1228,1228,15.25,0.09,25,38,0,0
401227,167196660,1,1228,1228,15.25,0.09,25,38,0,0
401675,167306472,1,1228,1228,15.25,0.09,25,38,0,0
402124,167413928,1,1228,1228,15.25,0.09,25,38,0,0
402565,167521350,1,1228,1228,15.25,0.09,25,38,0,0
403013,167627475,1,1228,1228,15.26,0.09,25,38,0,0
403460,167736500,1,1228,1242,15.26,0.09,25,38,0,0
403911,167846923,1,1240,1228,15.26,0.09,25,38,0,0
404394,167958924,1,1228,1228,15.26,0.09,25,38,0,0
404839,168062924,1,1228,1228,15.26,0.09,25,38,0,0
405286,168173324,1,1228,1228,15.27,0.09,25,38,0,0
405740,168282643,1,1228,1228,15.27,0.09,25,38,0,0
406185,168391127,1,1228,1228,15.26,0.09,25,38,0,0
406636,168500333,1,1228,1228,15.27,0.09,25,38,0,0
407036,168600319,1,1228,1228,15.27,0.09999999,25,38,0,0
407528,168714957,1,1228,1228,15.27,0.09,25,38,0,0
407973,168825321,1,1228,1228,15.27,0.09,25,38,0,0
408423,168936473,1,1228,1228,15.27,0.09999999,25,38,0,0
408868,169038972,1,1228,1228,15.27,0.09999999,25,38,0,0
409315,169149399,1,1228,1228,15.27,0.09999999,25,38,0,0
409767,169258392,1,1228,1228,15.27,0.09,25,38,0,0
410214,169366891,1,1228,1242,15.27,0.09,25,38,0,0
410662,169472232,1,1241,1228,15.28,0.09999999,25,38,0,0
411106,169579938,1,1228,1228,15.27,0.09999999,25,38,0,0
411627,169702227,1,1228,1228,15.27,0.09,25,38,0,0
412033,169800111,1,1228,1228,15.29,0.09999999,25,38,0,0
412488,169912604,1,1228,1228,15.27,0.09999999,25,38,0,0
412932,170017156,1,1228,1228,15.27,0.09999999,25,38,0,0
413381,170126135,1,1228,1228,15.28,0.09999999,25,38,0,0
413860,170238893,1,1229,1242,15.28,0.09999999,25,38,0,0
414305,170342574,1,1240,1228,15.28,0.09999999,25,38,0,0
414755,170449905,1,1228,1228,15.28,0.09,25,38,0,0
415202,170559971,1,1228,1228,15.29,0.09,25,38,0,0
415650,170667983,1,1228,1228,15.29,0.09999999,25,38,0,0
416091,170773886,1,1228,1228,15.29,0.09,25,38,0,0
416546,170883147,1,1228,1228,15.29,0.09999999,25,38,0,0
416899,170986465,1,1228,1242,15.29,0.09999999,25,38,0,0
417392,171102074,1,1240,1228,15.29,0.09,25,38,0,0
417836,171209330,1,1228,1242,15.29,0.09999999,25,38,0,0
418290,171320557,1,1240,1228,15.29,0.09,25,38,0,0
418693,171417563,1,1228,1228,15.29,0.09999999,25,38,0,0
419220,171539567,1,1228,1228,15.3,0.09999999,25,38,0,0
419623,171638442,1,1228,1228,15.3,0.09999999,25,38,0,0
420063,171745168,1,1228,1228,15.3,0.09,25,38,0,0
420559,171860987,1,1228,1228,15.3,0.09999999,25,38,0,0
421005,171971955,1,1228,1228,15.3,0.09999999,25,38,0,0
421457,172081021,1,1228,1228,15.3,0.09999999,25,38,0,0
421862,172182577,1,1228,1228,15.3,0.09999999,25,38,0,0
422350,172295145,1,1228,1228,15.3,0.09999999,25,38,0,0
422794,172401103,1,1228,1228,15.3,0.09999999,25,38,0,0
423240,172508464,1,1228,1228,15.3,0.09999999,25,38,0,0
423643,172609909,1,1228,1228,15.3,0.09999999,25,38,0,0
424134,172724396,1,1228,1228,15.3,0.09999999,25,38,0,0
424578,172833611,1,1228,1228,15.3,0.09999999,25,38,0,0
424984,172937372,1,1228,1228,15.3,0.09999999,25,38,0,0
425431,173042623,1,1228,1228,15.3,0.09999999,25,38,0,0
425877,173152381,1,1228,1242,15.3,0.09999999,25,38,0,0
426330,173262874,1,1242,1242,15.3,0.09999999,25,38,0,0
426777,173367937,1,1241,1228,15.31,0.09999999,25,38,0,0
427264,173483043,1,1228,1228,15.31,0.09999999,25,38,0,0
427707,173587873,1,1228,1228,15.31,0.09999999,25,38,0,0
428151,173700164,1,1228,1228,15.31,0.09999999,25,38,0,0
428633,173809237,1,1228,1228,15.32,0.09999999,25,38,0,0
429086,173920342,1,1228,1228,15.32,0.09999999,25,38,0,0
429489,174019943,1,1228,1228,15.31,0.09999999,25,38,0,0
429937,174127581,1,1228,1228,15.32,0.09999999,25,38,0,0
430418,174236863,1,1228,1228,15.32,0.09999999,25,38,0,0
430867,174347948,1,1228,1228,15.32,0.09,25,38,0,0
431315,174453617,1,1229,1242,15.32,0.09,25,38,0,0
431718,174553322,1,1242,1242,15.32,0.09999999,25,38,0,0
432204,174665905,1,1242,1242,15.32,0.09999999,25,38,0,0
432607,174765960,1,1242,1242,15.32,0.09,25,38,0,0
433093,174876018,1,1242,1242,15.32,0.09999999,25,38,0,0
433540,174984407,1,1242,1242,15.32,0.09,25,38,0,0
433992,175094380,1,1241,1228,15.31,0.09999999,25,38,0,0
434490,175214357,1,1160,457,15.33,0,25,38,0,0
434950,175322589,1,421,171,15.33,0.02,25,38,0,0
435357,175418377,1,168,0,15.33,0.03,25,38,0,0
435856,175536457,1,0,0,15.33,0.03,25,38,0,0
436306,175640575,1,0,0,15.34,0.03,25,38,0,0
436753,175745174,1,0,0,15.34,0.03,25,38,0,0
437253,175859916,1,0,0,15.34,0.03,25,38,0,0
437703,175965587,1,0,0,15.34,0.03,25,38,0,0
438158,176073346,1,0,0,15.34,0.03,25,38,0,0
438608,176179532,1,0,0,15.34,0.03,25,38,0,0
439106,176296373,1,0,0,15.34,0.03,25,38,0,0
439523,176398172,1,0,0,15.35,0.03,25,38,0,0
439942,176502317,1,0,0,15.35,0.03,25,38,0,0
440431,176617513,1,0,0,15.35,0.03,25,38,0,0
440884,176729045,1,0,0,15.35,0.03,25,38,0,0
441793,176946335,1,0,0,15.35,0.03,25,38,0,0
442213,177051084,1,0,0,15.35,0.03,25,38,0,0
442660,177154982,1,0,0,15.35,0.04,25,38,0,0
443152,177268345,1,0,0,15.35,0.03,25,38,0,0
443607,177376357,1,0,0,15.35,0.03,25,38,0,0
444506,177590145,1,0,0,15.35,0.03,25,38,0,0
444958,177693920,1,0,0,15.35,0.03,25,38,0,0
445413,177806194,1,0,0,15.35,0.03,25,38,0,0
445868,177914155,1,0,0,15.35,0.03,25,38,0,0
446808,178141397,1,0,0,15.35,0.03,25,38,0,0
447262,178248457,1,0,0,15.35,0.03,25,38,0,0
447714,178355330,1,0,0,15.35,0.03,25,38,0,0
448168,178460530,1,0,0,15.35,0.04,25,38,0,0
448620,178571121,1,0,0,15.35,0.03,25,38,0,0
449071,178675651,1,0,0,15.36,0.03,25,38,0,0
449523,178785933,1,0,0,15.35,0.03,25,38,0,0
450022,178901469,1,0,0,15.36,0.03,25,38,0,0
450928,179115957,1,0,0,15.36,0.03,25,38,0,0
451373,179220480,1,0,0,15.36,0.03,25,38,0,0
451869,179340081,1,0,0,15.36,0.03,25,38,0,0
452321,179444906,1,0,0,15.36,0.03,25,38,0,0
452776,179556463,1,0,0,15.36,0.03,25,38,0,0
453227,179662347,1,0,0,15.36,0.03,25,38,0,0
453720,179777981,1,0,0,15.36,0.03,25,38,0,0
454171,179879955,1,0,0,15.36,0.03,25,38,0,0
454622,179988356,1,0,0,15.36,0.03,25,38,0,0
455074,180090977,1,0,0,15.36,0.03,25,38,0,0
455523,180199750,1,0,0,15.36,0.03,25,38,0,0
456025,180314451,1,0,0,15.36,0.03,25,38,0,0
456479,180425195,1,0,0,15.36,0.03,25,38,0,0
456893,180528546,1,0,0,15.36,0.04,25,38,0,0
457343,180634756,1,0,0,15.37,0.04,24,38,0,0
457796,180747008,1,0,0,15.37,0.03,25,38,0,0
458255,180854363,1,0,0,15.36,0.03,25,38,0,0
458708,180965388,1,0,0,15.37,0.03,25,38,0,0
459204,181079624,1,0,0,15.36,0.03,25,38,0,0
459613,181182097,1,0,0,15.36,0.03,25,38,0,0
460110,181298555,1,0,0,15.37,0.03,25,38,0,0
460526,181401951,1,0,0,15.37,0.03,24,38,0,0
460977,181506055,1,0,0,15.37,0.03,25,38,0,0
461478,181624480,1,0,0,15.37,0.03,24,38,0,0
461925,181729553,1,0,0,15.37,0.03,25,38,0,0
462427,181847387,1,0,0,15.37,0.03,25,38,0,0
462874,181953212,1,0,0,15.37,0.03,25,38,0,0
463778,182170416,1,0,0,15.37,0.03,25,38,0,0
464231,182275852,1,0,0,15.37,0.03,24,38,0,0
464680,182382647,1,0,0,15.37,0.03,25,38,0,0
465176,182502961,1,0,0,15.37,0.03,24,38,0,0
465588,182604185,1,0,0,15.37,0.03,24,38,0,0
466086,182722968,1,0,0,15.38,0.03,24,38,0,0
466542,182831570,1,0,0,15.38,0.03,24,38,0,0
466994,182942363,1,0,0,15.37,0.03,25,38,0,0
