LineNo,TimeUS,Instance,RPM,RawRPM,Volt,Curr,Temp,CTot,MotTemp,Err
1599,5.6231e+07,5,0,0,15.64,0.03,21,0,0,0
2430,5.6444e+07,5,0,0,15.64,0.03,21,0,0,0
2844,5.6551e+07,5,0,0,15.64,0.03,21,0,0,0
3257,5.6656e+07,5,0,0,15.64,0.03,21,0,0,0
3669,5.6758e+07,5,0,0,15.64,0.03,21,0,0,0
4120,5.6873e+07,5,0,0,15.64,0.03,21,0,0,0
4530,5.6977e+07,5,0,0,15.63,0.03,21,0,0,0
4937,5.708e+07,5,0,0,15.63,0.03,21,0,0,0
5389,5.7196e+07,5,0,0,15.63,0.03,21,0,0,0
5800,5.7299e+07,5,0,0,15.64,0.03,21,0,0,0
6256,5.7414e+07,5,0,0,15.64,0.03,21,0,0,0
6671,5.7517e+07,5,0,0,15.64,0.03,21,0,0,0
7092,5.7623e+07,5,0,0,15.64,0.03,21,0,0,0
7514,5.7731e+07,5,0,0,15.64,0.03,21,0,0,0
7930,5.7835e+07,5,0,0,15.64,0.03,21,0,0,0
8349,5.7941e+07,5,0,0,15.64,0.03,21,0,0,0
8801,5.8054e+07,5,0,0,15.64,0.03,21,0,0,0
9215,5.8159e+07,5,0,0,15.64,0.03,21,0,0,0
9626,5.8264e+07,5,0,0,15.64,0.02,21,0,0,0
10074,5.8382e+07,5,0,0,15.64,0.02,21,0,0,0
10448,5.8477e+07,5,0,0,15.64,0.02,21,0,0,0
10776,5.8595e+07,5,0,0,15.64,0.02,21,0,0,0
11190,5.8697e+07,5,0,0,15.64,0.02,21,0,0,0
11607,5.8804e+07,5,0,0,15.64,0.03,21,0,0,0
12030,5.8917e+07,5,0,0,15.64,0.03,21,0,0,0
12479,5.9028e+07,5,0,0,15.64,0.03,21,0,0,0
12891,5.9132e+07,5,0,0,15.64,0.03,21,0,0,0
13305,5.9237e+07,5,0,0,15.64,0.03,21,0,0,0
13758,5.9353e+07,5,0,0,15.64,0.03,21,0,0,0
14168,5.9457e+07,5,0,0,15.64,0.03,21,0,0,0
14621,5.9569e+07,5,0,0,15.64,0.03,21,0,0,0
15036,5.9674e+07,5,0,0,15.64,0.03,21,0,0,0
15448,5.9778e+07,5,0,0,15.64,0.03,21,0,0,0
15867,5.9886e+07,5,0,0,15.65,0.03,21,0,0,0
16320,6e+07,5,0,0,15.64,0.03,21,0,0,0
16733,6.0104e+07,5,0,0,15.64,0.03,21,0,0,0
17154,6.0214e+07,5,0,0,15.64,0.03,21,0,0,0
17610,6.033e+07,5,0,0,15.64,0.03,21,0,0,0
18018,6.0432e+07,5,0,0,15.63,0.03,21,0,0,0
18467,6.0549e+07,5,0,0,15.64,0.03,21,0,0,0
18844,6.0647e+07,5,0,0,15.64,0.03,21,0,0,0
19264,6.0754e+07,5,0,0,15.64,0.03,21,0,0,0
19714,6.0868e+07,5,0,0,15.64,0.03,21,0,0,0
20130,6.0974e+07,5,0,0,15.64,0.03,21,0,0,0
20540,6.1079e+07,5,0,0,15.64,0.03,21,0,0,0
20920,6.1193e+07,5,0,0,15.64,0.03,21,0,0,0
54669,8.1868e+07,5,0,0,15.64,0.04,21,0,0,0
54750,8.1887e+07,5,0,0,15.64,0.04,21,0,0,0
55182,8.199e+07,5,0,0,15.64,0.04,21,0,0,0
55679,8.21e+07,5,0,0,15.64,0.04,21,0,0,0
56136,8.2209e+07,5,0,0,15.64,0.04,21,0,0,0
56557,8.231e+07,5,0,0,15.63,0.04,21,0,0,0
57039,8.2418e+07,5,0,0,15.64,0.04,21,0,0,0
57534,8.2532e+07,5,0,0,15.64,0.04,21,0,0,0
57988,8.2637e+07,5,0,0,15.64,0.04,22,0,0,0
58440,8.2743e+07,5,0,0,15.64,0.04,21,0,0,0
58899,8.2851e+07,5,0,0,15.64,0.04,21,0,0,0
59355,8.296e+07,5,0,0,15.64,0.04,21,0,0,0
59809,8.3062e+07,5,0,0,15.64,0.04,21,0,0,0
60336,8.3181e+07,5,0,0,15.64,0.04,21,0,0,0
60793,8.3288e+07,5,0,0,15.64,0.04,21,0,0,0
61244,8.3394e+07,5,0,0,15.64,0.05,21,0,0,0
61695,8.3495e+07,5,0,0,15.64,0.05,21,0,0,0
62152,8.3605e+07,5,0,0,15.64,0.04,22,0,0,0
62604,8.3707e+07,5,0,0,15.64,0.05,21,0,0,0
63100,8.3823e+07,5,0,0,15.64,0.05,21,0,0,0
63551,8.3928e+07,5,0,0,15.63,0.03,21,0,0,0
64009,8.4034e+07,5,11,271,15.62,0.07,22,0,0,0
64917,8.4245e+07,5,276,1042,15.6,0.17,22,0,0,0
65403,8.4355e+07,5,1048,1185,15.62,0.12,22,0,0,0
65903,8.447e+07,5,1188,1228,15.62,0.12,22,0,0,0
66352,8.4573e+07,5,1228,1242,15.63,0.11,22,0,0,0
66850,8.4687e+07,5,1242,1242,15.63,0.11,22,0,0,0
67301,8.4793e+07,5,1243,1271,15.61,0.14,22,0,0,0
68047,8.5011e+07,5,1574,2071,15.58,0.6,22,0,0,0
68464,8.5115e+07,5,2114,2728,15.52,1.13,22,0,0,0
68918,8.5226e+07,5,2757,3028,15.35,1.3,22,0,0,0
69413,8.5335e+07,5,3065,3542,15.28,1.6,22,0,0,0
70239,8.5548e+07,5,4085,4842,15.03,2.93,22,0,0,0
70735,8.5661e+07,5,4889,5357,14.91,3.62,22,0,0,0
71190,8.5771e+07,5,5390,5700,14.84,4.42,22,0,0,0
71643,8.5876e+07,5,5721,6028,14.91,4.35,22,0,0,0
72091,8.5983e+07,5,6035,6128,14.95,4.61,22,0,0,0
72513,8.6085e+07,5,6126,6071,14.87,4.3,22,1,0,0
73005,8.6202e+07,5,6079,6314,14.94,4.27,22,1,0,0
73505,8.6317e+07,5,6299,6157,14.98,4.09,22,1,0,0
73956,8.6428e+07,5,6151,6100,14.91,4.41,22,1,0,0
74859,8.6642e+07,5,6100,6114,14.94,4.16,22,1,0,0
75316,8.6756e+07,5,6108,5957,15.04,3.75,22,1,0,0
75770,8.6861e+07,5,5958,5985,15.03,3.43,22,1,0,0
76676,8.708e+07,5,5981,5871,15.01,3.87,22,2,0,0
77125,8.7188e+07,5,5869,5842,14.94,3.89,22,2,0,0
77620,8.7304e+07,5,5859,6028,14.91,4.09,22,2,0,0
78032,8.7405e+07,5,6024,5957,14.91,3.96,22,2,0,0
78485,8.7509e+07,5,5958,6028,14.94,3.76,22,2,0,0
79423,8.7733e+07,5,6029,6071,14.94,3.91,22,2,0,0
79877,8.7839e+07,5,6055,5842,14.98,3.28,22,3,0,0
80327,8.7949e+07,5,5839,5671,14.98,3.5,22,3,0,0
80827,8.8069e+07,5,5690,5957,14.92,4.13,22,3,0,0
81246,8.8174e+07,5,5971,6100,14.85,4.34,22,3,0,0
81692,8.828e+07,5,6099,6042,14.9,4.32,22,3,0,0
82136,8.8388e+07,5,6042,6071,14.95,3.8,23,3,0,0
82592,8.8505e+07,5,6056,5914,14.94,3.74,23,3,0,0
83038,8.8611e+07,5,5920,6014,14.89,3.8,23,3,0,0
83483,8.8722e+07,5,5995,5842,14.89,3.52,22,3,0,0
83931,8.8835e+07,5,5855,6000,14.86,4.32,23,4,0,0
84783,8.9044e+07,5,6000,6000,14.84,4.41,23,4,0,0
85224,8.9155e+07,5,6015,6342,14.79,4.88,23,4,0,0
85718,8.9275e+07,5,6332,6242,14.85,4.34,23,4,0,0
86119,8.9375e+07,5,6238,6171,14.9,4.03,23,4,0,0
86569,8.9484e+07,5,6161,6014,14.82,3.94,23,4,0,0
87013,8.9594e+07,5,6026,6142,14.83,4.27,23,4,0,0
87461,8.9702e+07,5,6142,6171,14.84,4.12,23,5,0,0
87896,8.9807e+07,5,6166,6085,14.94,3.96,23,5,0,0
88346,8.9917e+07,5,6087,6128,14.92,4.06,23,5,0,0
88755,9.002e+07,5,6121,5814,14.88,3.39,23,5,0,0
89207,9.0131e+07,5,5818,5900,14.93,3.72,23,5,0,0
90096,9.0348e+07,5,5895,5800,14.93,3.59,23,5,0,0
90502,9.0449e+07,5,5797,5742,14.97,3.39,23,5,0,0
90950,9.056e+07,5,5744,5785,15,3.23,23,5,0,0
91445,9.0678e+07,5,5774,5657,15,3.08,23,6,0,0
91896,9.079e+07,5,5652,5600,14.96,3.06,23,6,0,0
92304,9.0891e+07,5,5603,5685,14.96,3.42,23,6,0,0
92788,9.1005e+07,5,5684,5671,14.93,3.1,23,6,0,0
93237,9.1115e+07,5,5658,5542,15,2.99,23,6,0,0
93682,9.1226e+07,5,5552,5657,14.98,3.15,23,6,0,0
94085,9.133e+07,5,5667,5771,14.95,3.56,23,6,0,0
94495,9.1433e+07,5,5771,5800,14.93,3.4,23,6,0,0
94976,9.1547e+07,5,5801,5828,14.98,3.52,23,6,0,0
95385,9.1648e+07,5,5829,5900,14.94,3.59,23,6,0,0
95829,9.1754e+07,5,5900,5914,14.91,3.5,23,7,0,0
96282,9.1867e+07,5,5913,5857,14.88,3.39,23,7,0,0
96727,9.1975e+07,5,5857,5857,14.88,3.64,23,7,0,0
97219,9.2095e+07,5,5870,6014,14.91,3.91,23,7,0,0
97663,9.2205e+07,5,6001,5885,14.88,3.72,23,7,0,0
98118,9.2316e+07,5,5883,5871,14.92,3.63,23,7,0,0
98515,9.2415e+07,5,5874,5942,14.97,3.68,23,7,0,0
99010,9.2536e+07,5,5942,5942,14.91,3.42,23,7,0,0
99412,9.2634e+07,5,5936,5857,14.87,3.68,23,8,0,0
99853,9.2742e+07,5,5859,5914,14.88,3.84,23,8,0,0
1.0031e+05,9.2854e+07,5,5917,5957,14.89,3.94,23,8,0,0
1.0071e+05,9.2956e+07,5,5959,6014,14.84,3.98,23,8,0,0
1.0117e+05,9.3068e+07,5,6009,5942,14.88,3.57,23,8,0,0
1.0162e+05,9.3182e+07,5,5939,5914,14.89,3.64,23,8,0,0
1.0202e+05,9.3284e+07,5,5921,6071,14.85,3.68,23,8,0,0
1.0247e+05,9.3394e+07,5,6061,5871,14.86,3.6,23,8,0,0
1.0292e+05,9.3503e+07,5,5873,5928,14.9,3.6,23,8,0,0
1.0382e+05,9.3726e+07,5,5924,5828,14.86,3.34,24,9,0,0
1.0427e+05,9.3838e+07,5,5829,5857,14.9,3.65,23,9,0,0
1.0467e+05,9.3941e+07,5,5855,5828,14.89,3.62,24,9,0,0
1.0516e+05,9.4055e+07,5,5828,5828,14.82,3.67,24,9,0,0
1.0557e+05,9.416e+07,5,5827,5814,14.83,3.63,23,9,0,0
1.0601e+05,9.4267e+07,5,5814,5857,14.85,3.73,24,9,0,0
1.0646e+05,9.4377e+07,5,5858,5885,14.78,3.58,23,9,0,0
1.0691e+05,9.4485e+07,5,5884,5871,14.89,3.54,24,9,0,0
1.0736e+05,9.4595e+07,5,5866,5814,14.87,3.61,24,9,0,0
1.0825e+05,9.4818e+07,5,5816,5900,14.79,3.85,24,10,0,0
1.0866e+05,9.4921e+07,5,5903,5971,14.75,3.82,24,10,0,0
1.0908e+05,9.5024e+07,5,5971,6014,14.83,3.63,24,10,0,0
1.0957e+05,9.5146e+07,5,6005,5885,14.8,3.73,24,10,0,0
1.0997e+05,9.5244e+07,5,5880,5814,14.91,3.44,24,10,0,0
1.1038e+05,9.5351e+07,5,5807,5714,14.85,3.56,24,10,0,0
1.1083e+05,9.5461e+07,5,5731,5971,14.87,3.6,24,10,0,0
1.1172e+05,9.568e+07,5,5972,6028,14.78,3.88,24,11,0,0
1.1213e+05,9.5785e+07,5,6027,6000,14.88,3.8,24,11,0,0
1.1266e+05,9.5909e+07,5,5995,5957,14.88,3.73,24,11,0,0
1.1306e+05,9.6011e+07,5,5956,5942,14.85,3.6,24,11,0,0
1.1351e+05,9.612e+07,5,5942,5985,14.8,3.67,24,11,0,0
1.1396e+05,9.6233e+07,5,5974,5885,14.78,3.56,24,11,0,0
1.1436e+05,9.6334e+07,5,5884,5871,14.83,3.72,24,11,0,0
1.153e+05,9.6565e+07,5,5871,5871,14.83,4.03,24,11,0,0
1.157e+05,9.666e+07,5,5873,6057,14.86,3.98,24,12,0,0
1.1615e+05,9.6774e+07,5,6041,5871,14.82,3.54,24,12,0,0
1.166e+05,9.688e+07,5,5870,5857,14.8,3.64,24,12,0,0
1.1704e+05,9.6992e+07,5,5854,5828,14.84,3.58,24,12,0,0
1.1749e+05,9.7098e+07,5,5824,5742,14.87,3.54,24,12,0,0
1.1798e+05,9.7224e+07,5,5739,5714,14.83,3.15,24,12,0,0
1.1842e+05,9.7324e+07,5,5722,5814,14.92,3.56,24,12,0,0
1.1927e+05,9.7534e+07,5,5811,5700,14.77,3.11,24,12,0,0
1.1972e+05,9.7647e+07,5,5706,5785,14.79,3.45,24,13,0,0
1.2012e+05,9.7748e+07,5,5786,5814,14.83,3.18,24,13,0,0
1.2061e+05,9.7864e+07,5,5803,5685,14.85,3.16,24,13,0,0
1.215e+05,9.8081e+07,5,5677,5485,14.8,2.87,24,13,0,0
1.224e+05,9.83e+07,5,5479,5371,14.83,2.57,24,13,0,0
1.228e+05,9.8404e+07,5,5374,5428,14.82,2.77,24,13,0,0
1.2321e+05,9.8502e+07,5,5427,5400,14.83,2.98,24,13,0,0
1.2366e+05,9.8618e+07,5,5407,5500,14.91,3.05,24,13,0,0
1.2455e+05,9.8837e+07,5,5510,5742,14.85,3.66,24,14,0,0
1.2496e+05,9.8937e+07,5,5741,5700,14.85,3.44,24,14,0,0
1.2545e+05,9.9057e+07,5,5719,5928,14.85,3.7,24,14,0,0
1.2584e+05,9.9156e+07,5,5923,5828,14.83,3.76,24,14,0,0
1.263e+05,9.9269e+07,5,5828,5871,14.87,3.55,24,14,0,0
1.2674e+05,9.9376e+07,5,5870,5857,14.75,4.08,24,14,0,0
1.2719e+05,9.9487e+07,5,5872,6171,14.76,4.4,24,14,0,0
1.2764e+05,9.9598e+07,5,6173,6228,14.72,4.33,24,14,0,0
1.2804e+05,9.97e+07,5,6230,6328,14.72,4.16,24,15,0,0
1.2849e+05,9.981e+07,5,6324,6200,14.73,4.09,24,15,0,0
1.2895e+05,9.9922e+07,5,6198,6171,14.78,3.89,24,15,0,0
1.2939e+05,1.0003e+08,5,6168,5985,14.74,3.84,24,15,0,0
1.2988e+05,1.0015e+08,5,5985,5985,14.75,3.86,24,15,0,0
1.3028e+05,1.0025e+08,5,5985,5985,14.8,3.84,24,15,0,0
1.3069e+05,1.0035e+08,5,5984,5971,14.76,3.81,24,15,0,0
1.3114e+05,1.0046e+08,5,5974,6100,14.78,4.12,24,15,0,0
1.3204e+05,1.0068e+08,5,6094,5942,14.87,3.42,24,16,0,0
1.3244e+05,1.0078e+08,5,5938,5757,14.85,3.01,24,16,0,0
1.3297e+05,1.009e+08,5,5748,5628,14.74,3.77,24,16,0,0
1.3338e+05,1.0101e+08,5,5644,5857,14.85,3.55,24,16,0,0
1.3383e+05,1.0112e+08,5,5848,5742,14.82,3.66,24,16,0,0
1.3424e+05,1.0123e+08,5,5739,5714,14.85,3.74,24,16,0,0
1.3473e+05,1.0134e+08,5,5722,5785,14.88,3.24,24,16,0,0
1.3514e+05,1.0145e+08,5,5781,5742,14.87,3.25,24,16,0,0
1.3559e+05,1.0156e+08,5,5729,5600,14.88,2.86,24,16,0,0
1.3603e+05,1.0166e+08,5,5591,5500,14.95,2.79,24,17,0,0
1.3643e+05,1.0176e+08,5,5505,5614,14.82,3.25,24,17,0,0
1.3688e+05,1.0187e+08,5,5614,5671,14.84,3.61,24,17,0,0
1.3781e+05,1.021e+08,5,5676,5842,14.8,3.54,24,17,0,0
1.3825e+05,1.0221e+08,5,5839,5800,14.78,3.56,24,17,0,0
1.387e+05,1.0232e+08,5,5799,5785,14.86,3.53,24,17,0,0
1.3916e+05,1.0243e+08,5,5786,5814,14.75,3.85,24,17,0,0
1.396e+05,1.0254e+08,5,5816,5971,14.81,3.89,24,17,0,0
1.4049e+05,1.0276e+08,5,5972,6014,14.67,3.96,24,18,0,0
1.4099e+05,1.0288e+08,5,6018,6071,14.74,4.1,24,18,0,0
1.4139e+05,1.0298e+08,5,6063,5971,14.69,3.91,24,18,0,0
1.4183e+05,1.0308e+08,5,5971,5985,14.74,3.97,24,18,0,0
1.4224e+05,1.0319e+08,5,5985,5985,14.75,3.95,24,18,0,0
1.4273e+05,1.0331e+08,5,5987,6014,14.79,3.88,24,18,0,0
1.4318e+05,1.0342e+08,5,6015,6042,14.8,3.87,24,18,0,0
1.4358e+05,1.0352e+08,5,6043,6100,14.71,4.24,24,18,0,0
1.4403e+05,1.0363e+08,5,6101,6185,14.71,4.3,24,19,0,0
1.4448e+05,1.0374e+08,5,6186,6214,14.75,3.73,24,19,0,0
1.4493e+05,1.0385e+08,5,6199,6014,14.79,3.69,24,19,0,0
1.4534e+05,1.0396e+08,5,6011,5900,14.84,3.57,24,19,0,0
1.4578e+05,1.0406e+08,5,5900,5900,14.76,3.72,24,19,0,0
1.4622e+05,1.0417e+08,5,5900,5914,14.8,3.73,24,19,0,0
1.4667e+05,1.0428e+08,5,5912,5885,14.8,3.59,24,19,0,0
1.4712e+05,1.0439e+08,5,5877,5771,14.83,3.46,24,19,0,0
1.4757e+05,1.045e+08,5,5773,5800,14.83,3.5,25,20,0,0
1.4802e+05,1.0461e+08,5,5789,5685,14.86,3.14,25,20,0,0
1.4847e+05,1.0472e+08,5,5683,5671,14.88,3.14,25,20,0,0
1.4891e+05,1.0483e+08,5,5668,5642,14.89,3.05,24,20,0,0
1.4958e+05,1.0505e+08,5,5660,5542,14.81,3.33,25,20,0,0
1.5003e+05,1.0516e+08,5,5552,5671,14.72,3.42,24,20,0,0
1.5048e+05,1.0527e+08,5,5675,5728,14.73,3.36,24,20,0,0
1.5084e+05,1.0537e+08,5,5728,5785,14.72,3.33,25,20,0,0
1.5133e+05,1.0548e+08,5,5782,5742,14.8,3.13,24,20,0,0
1.5177e+05,1.0559e+08,5,5736,5657,14.83,3.02,25,21,0,0
1.5222e+05,1.057e+08,5,5655,5614,14.77,3.43,25,21,0,0
1.5267e+05,1.0581e+08,5,5619,5671,14.79,3.55,25,21,0,0
1.5312e+05,1.0592e+08,5,5674,5728,14.78,3.51,25,21,0,0
1.5357e+05,1.0603e+08,5,5724,5685,14.82,3.47,25,21,0,0
1.5402e+05,1.0615e+08,5,5700,5871,14.77,3.85,25,21,0,0
1.5442e+05,1.0624e+08,5,5884,6014,14.74,3.97,25,21,0,0
1.5487e+05,1.0635e+08,5,6024,6157,14.78,4.68,25,21,0,0
1.5532e+05,1.0646e+08,5,6200,6657,14.72,5.84,25,21,0,0
1.5573e+05,1.0657e+08,5,6665,6757,14.57,6.01,25,22,0,0
1.5617e+05,1.0667e+08,5,6766,6971,14.6,6.17,25,22,0,0
1.5662e+05,1.0679e+08,5,6965,6914,14.6,6.87,25,22,0,0
1.5704e+05,1.0689e+08,5,6902,6742,14.72,5.56,25,22,0,0
1.5748e+05,1.07e+08,5,6734,6657,14.71,4.82,25,22,0,0
1.5793e+05,1.0711e+08,5,6632,6300,14.72,3.98,25,22,0,0
1.5833e+05,1.0721e+08,5,6259,5871,14.82,2.71,25,23,0,0
1.5878e+05,1.0732e+08,5,5819,5114,14.82,1.5,25,23,0,0
1.5919e+05,1.0742e+08,5,5102,4457,14.83,1.11,25,23,0,0
1.5967e+05,1.0754e+08,5,4432,4171,14.85,1.16,25,23,0,0
1.6012e+05,1.0765e+08,5,4174,4214,14.84,1.74,25,23,0,0
1.6057e+05,1.0776e+08,5,4227,4528,14.81,2.11,25,23,0,0
1.6102e+05,1.0788e+08,5,4533,4571,14.86,1.77,25,23,0,0
1.6143e+05,1.0799e+08,5,4591,4757,14.84,2.54,25,23,0,0
1.6188e+05,1.081e+08,5,4795,5128,14.77,2.94,25,23,0,0
1.6228e+05,1.082e+08,5,5164,5557,14.69,3.77,25,23,0,0
1.6273e+05,1.0831e+08,5,5578,5757,14.71,4.1,25,23,0,0
1.6314e+05,1.0841e+08,5,5770,6100,14.7,4.46,25,23,0,0
1.6363e+05,1.0853e+08,5,6111,6185,14.7,4.44,25,23,0,0
1.6403e+05,1.0862e+08,5,6197,6328,14.79,4.39,25,24,0,0
1.6448e+05,1.0873e+08,5,6322,6185,14.71,4.25,25,24,0,0
1.6582e+05,1.0907e+08,5,6193,6457,14.66,5.52,25,24,0,0
1.6626e+05,1.0917e+08,5,6467,6571,14.66,5.12,25,24,0,0
1.6672e+05,1.0928e+08,5,6573,6614,14.56,5.5,25,25,0,0
1.6717e+05,1.094e+08,5,6616,6642,14.63,5.31,25,25,0,0
1.6757e+05,1.095e+08,5,6639,6414,14.67,4.87,25,25,0,0
1.6802e+05,1.0961e+08,5,6414,6428,14.61,4.65,25,25,0,0
1.685e+05,1.0973e+08,5,6412,6271,14.67,4.13,25,25,0,0
1.6891e+05,1.0982e+08,5,6269,6171,14.69,3.89,25,25,0,0
1.694e+05,1.0994e+08,5,6152,6000,14.72,3.88,25,25,0,0
1.6985e+05,1.1005e+08,5,5997,5971,14.65,4.07,25,25,0,0
1.7025e+05,1.1015e+08,5,5972,6014,14.69,4.22,25,26,0,0
1.707e+05,1.1026e+08,5,6015,6100,14.76,3.59,25,26,0,0
1.7119e+05,1.1038e+08,5,6082,5900,14.72,3.42,25,26,0,0
1.7163e+05,1.1049e+08,5,5893,5828,14.83,3.36,25,26,0,0
1.7204e+05,1.1059e+08,5,5816,5671,14.87,3.03,25,26,0,0
1.7248e+05,1.107e+08,5,5669,5571,14.8,2.95,25,26,0,0
1.7297e+05,1.1082e+08,5,5571,5571,14.79,3.17,25,26,0,0
1.7342e+05,1.1093e+08,5,5554,5442,14.85,2.81,25,26,0,0
1.7383e+05,1.1103e+08,5,5433,5328,14.82,2.55,25,26,0,0
1.7427e+05,1.1114e+08,5,5301,5000,14.79,1.97,25,26,0,0
1.7468e+05,1.1124e+08,5,5000,5000,14.8,1.97,25,26,0,0
1.7516e+05,1.1136e+08,5,5004,5071,14.73,2.47,25,27,0,0
1.7557e+05,1.1146e+08,5,5073,5228,14.79,2.62,25,27,0,0
1.7602e+05,1.1157e+08,5,5240,5414,14.69,3.52,25,27,0,0
1.7647e+05,1.1168e+08,5,5419,5814,14.71,3.64,25,27,0,0
1.7691e+05,1.1179e+08,5,5815,5857,14.75,3.49,25,27,0,0
1.7736e+05,1.119e+08,5,5857,5900,14.75,4.12,25,27,0,0
1.7781e+05,1.1201e+08,5,5911,6000,14.82,3.66,25,27,0,0
1.7822e+05,1.1211e+08,5,6000,6028,14.73,3.81,25,27,0,0
1.7867e+05,1.1223e+08,5,6042,6185,14.7,4.18,25,27,0,0
1.7911e+05,1.1234e+08,5,6183,6128,14.66,4.2,25,28,0,0
1.7956e+05,1.1244e+08,5,6122,6000,14.7,4.46,25,28,0,0
1.8001e+05,1.1256e+08,5,6004,6071,14.64,4.07,25,28,0,0
1.809e+05,1.1278e+08,5,6061,5857,14.73,3.79,25,28,0,0
1.818e+05,1.13e+08,5,5857,5857,14.78,3.54,25,28,0,0
1.8224e+05,1.1311e+08,5,5849,5714,14.77,2.59,25,28,0,0
1.83e+05,1.1333e+08,5,5336,5157,14.85,2.49,25,28,0,0
1.8374e+05,1.1356e+08,5,5088,5142,14.8,2.51,25,29,0,0
1.8415e+05,1.1366e+08,5,5128,5000,14.8,2.52,25,29,0,0
1.8455e+05,1.1376e+08,5,5000,5014,14.85,2.17,25,29,0,0
1.8501e+05,1.1387e+08,5,5013,5000,14.77,3.23,25,29,0,0
1.8545e+05,1.1398e+08,5,5021,5328,14.58,3.62,25,29,0,0
1.859e+05,1.1409e+08,5,5329,5442,14.78,3.15,25,29,0,0
1.8634e+05,1.142e+08,5,5437,5328,14.8,3.01,25,29,0,0
1.8683e+05,1.1431e+08,5,5337,5442,14.79,3.27,25,29,0,0
1.8727e+05,1.1442e+08,5,5440,5428,14.77,2.82,25,29,0,0
1.8772e+05,1.1453e+08,5,5426,5414,14.8,2.98,25,29,0,0
1.8813e+05,1.1463e+08,5,5412,5342,14.79,2.74,25,29,0,0
1.8857e+05,1.1474e+08,5,5343,5385,14.8,2.78,25,30,0,0
1.8903e+05,1.1486e+08,5,5390,5442,14.81,2.83,25,30,0,0
1.8947e+05,1.1497e+08,5,5457,5614,14.79,3.22,25,30,0,0
1.8988e+05,1.1507e+08,5,5612,5571,14.75,3.08,25,30,0,0
1.9033e+05,1.1518e+08,5,5564,5500,14.76,2.96,25,30,0,0
1.9074e+05,1.1528e+08,5,5501,5571,14.73,3.32,25,30,0,0
1.9119e+05,1.154e+08,5,5573,5685,14.75,3.38,25,30,0,0
1.9163e+05,1.155e+08,5,5691,5814,14.81,3.29,25,30,0,0
1.9208e+05,1.1562e+08,5,5794,5600,14.88,2.83,25,30,0,0
1.9253e+05,1.1573e+08,5,5585,5442,14.79,3.09,25,30,0,0
1.9294e+05,1.1583e+08,5,5453,5557,14.88,2.85,25,30,0,0
1.9338e+05,1.1594e+08,5,5567,5657,14.76,3.43,25,31,0,0
1.9382e+05,1.1604e+08,5,5673,5885,14.77,3.68,25,31,0,0
1.9427e+05,1.1615e+08,5,5879,5828,14.68,4.14,25,31,0,0
1.9472e+05,1.1627e+08,5,5829,5842,14.7,3.3,25,31,0,0
1.9513e+05,1.1637e+08,5,5845,5885,14.75,3.61,25,31,0,0
1.9554e+05,1.1647e+08,5,5881,5814,14.75,3.16,25,31,0,0
1.9598e+05,1.1658e+08,5,5796,5542,14.8,2.97,25,31,0,0
1.9643e+05,1.1669e+08,5,5553,5785,14.74,3.54,25,31,0,0
1.9688e+05,1.168e+08,5,5785,5785,14.72,3.29,25,31,0,0
1.9733e+05,1.1691e+08,5,5777,5571,14.75,3.2,25,32,0,0
1.9777e+05,1.1702e+08,5,5572,5614,14.83,3.04,25,32,0,0
1.9818e+05,1.1713e+08,5,5616,5742,14.81,3.43,25,32,0,0
1.9862e+05,1.1724e+08,5,5740,5685,14.79,3.45,25,32,0,0
1.9907e+05,1.1735e+08,5,5685,5685,14.71,3.14,25,32,0,0
1.9955e+05,1.1746e+08,5,5695,5800,14.75,3.54,25,32,0,0
1.9996e+05,1.1756e+08,5,5803,5885,14.76,3.63,25,32,0,0
2.0041e+05,1.1767e+08,5,5880,5785,14.72,3.52,25,32,0,0
2.0082e+05,1.1778e+08,5,5788,5857,14.72,3.54,25,32,0,0
2.0131e+05,1.179e+08,5,5862,5914,14.77,3.71,25,32,0,0
2.022e+05,1.1812e+08,5,5922,6014,14.71,3.75,25,33,0,0
2.0306e+05,1.1833e+08,5,6009,5885,14.72,4.11,25,33,0,0
2.035e+05,1.1844e+08,5,5885,5885,14.72,4.06,26,33,0,0
2.0391e+05,1.1854e+08,5,5888,6071,14.73,4.22,25,33,0,0
2.044e+05,1.1866e+08,5,6055,5914,14.67,3.77,25,33,0,0
2.0487e+05,1.1878e+08,5,5914,5928,14.81,3.61,25,33,0,0
2.0532e+05,1.1889e+08,5,5941,6042,14.7,4.74,25,34,0,0
2.0618e+05,1.191e+08,5,6050,6171,14.66,4.7,25,34,0,0
2.0658e+05,1.192e+08,5,6173,6314,14.62,4.55,25,34,0,0
2.0704e+05,1.1931e+08,5,6305,6200,14.7,4.12,26,34,0,0
2.0792e+05,1.1953e+08,5,6200,6200,14.75,3.88,25,34,0,0
2.0882e+05,1.1975e+08,5,6186,5942,14.67,3.7,26,34,0,0
2.0922e+05,1.1986e+08,5,5941,5914,14.73,4,25,35,0,0
2.0972e+05,1.1998e+08,5,5915,5928,14.7,3.87,25,35,0,0
2.106e+05,1.2018e+08,5,5927,5871,14.71,4,25,35,0,0
2.1105e+05,1.203e+08,5,5877,6014,14.63,4.32,26,35,0,0
2.115e+05,1.2041e+08,5,6022,6085,14.7,4.06,26,35,0,0
2.1195e+05,1.2052e+08,5,6069,5914,14.79,3.57,26,35,0,0
2.1236e+05,1.2062e+08,5,5904,5714,14.72,3.53,26,35,0,0
2.1281e+05,1.2074e+08,5,5717,5771,14.76,3.93,26,36,0,0
2.1326e+05,1.2085e+08,5,5787,6028,14.69,4.01,26,36,0,0
2.1371e+05,1.2096e+08,5,6015,5871,14.7,3.96,25,36,0,0
2.1416e+05,1.2107e+08,5,5876,5957,14.66,3.91,26,36,0,0
2.146e+05,1.2117e+08,5,5960,6000,14.72,3.75,26,36,0,0
2.1505e+05,1.2128e+08,5,6008,6100,14.73,3.94,26,36,0,0
2.1549e+05,1.2139e+08,5,6104,6200,14.65,4.34,26,36,0,0
2.1594e+05,1.215e+08,5,6193,6114,14.73,3.88,26,36,0,0
2.1634e+05,1.216e+08,5,6115,6128,14.67,3.65,26,37,0,0
2.1724e+05,1.2182e+08,5,6119,5928,14.69,3.49,26,37,0,0
2.1769e+05,1.2194e+08,5,5921,5857,14.66,3.9,26,37,0,0
2.1814e+05,1.2205e+08,5,5857,5857,14.74,3.7,26,37,0,0
2.1858e+05,1.2216e+08,5,5862,5914,14.78,3.41,26,37,0,0
2.1904e+05,1.2227e+08,5,5912,5900,14.75,3.5,26,37,0,0
2.1944e+05,1.2237e+08,5,5898,5785,14.77,3.45,26,37,0,0
2.1992e+05,1.2248e+08,5,5794,5914,14.77,3.39,26,37,0,0
2.2033e+05,1.2259e+08,5,5903,5700,14.73,3.26,26,37,0,0
2.2078e+05,1.227e+08,5,5703,5785,14.82,2.86,26,38,0,0
2.2123e+05,1.2281e+08,5,5775,5585,14.8,2.62,26,38,0,0
2.2169e+05,1.2292e+08,5,5569,5414,14.7,2.92,26,38,0,0
2.2209e+05,1.2303e+08,5,5420,5500,14.76,3.19,26,38,0,0
2.2254e+05,1.2314e+08,5,5508,5628,14.69,3.39,26,38,0,0
2.238e+05,1.2346e+08,5,5629,5771,14.69,3.45,26,38,0,0
2.2424e+05,1.2357e+08,5,5771,5771,14.74,3.42,26,38,0,0
2.2472e+05,1.2368e+08,5,5771,5785,14.63,3.54,26,38,0,0
2.2513e+05,1.2379e+08,5,5786,5900,14.73,3.65,26,39,0,0
2.2562e+05,1.239e+08,5,5897,5871,14.77,3.62,26,39,0,0
2.2602e+05,1.24e+08,5,5871,5914,14.71,3.29,26,39,0,0
2.2651e+05,1.2412e+08,5,5918,6000,14.75,3.64,26,39,0,0
2.2696e+05,1.2423e+08,5,5993,5928,14.64,3.92,26,39,0,0
2.2736e+05,1.2433e+08,5,5927,5914,14.64,4,26,39,0,0
2.2781e+05,1.2444e+08,5,5917,5971,14.71,3.76,26,39,0,0
2.2825e+05,1.2455e+08,5,5979,6100,14.74,3.86,26,39,0,0
2.287e+05,1.2466e+08,5,6089,5928,14.69,3.77,26,40,0,0
2.291e+05,1.2476e+08,5,5928,5942,14.67,3.9,26,40,0,0
2.2956e+05,1.2488e+08,5,5947,6028,14.72,3.97,26,40,0,0
2.3001e+05,1.2499e+08,5,6011,5828,14.7,3.81,26,40,0,0
2.3046e+05,1.251e+08,5,5840,6042,14.73,3.82,26,40,0,0
2.3086e+05,1.252e+08,5,6040,5942,14.73,3.94,26,40,0,0
2.318e+05,1.2543e+08,5,5946,6057,14.68,4.19,26,40,0,0
2.322e+05,1.2553e+08,5,6045,5828,14.66,4.09,26,40,0,0
2.3265e+05,1.2564e+08,5,5831,5885,14.69,3.79,26,41,0,0
2.3309e+05,1.2576e+08,5,5882,5857,14.66,4.15,26,41,0,0
2.3354e+05,1.2586e+08,5,5858,5871,14.69,3.85,26,41,0,0
2.3399e+05,1.2598e+08,5,5852,5742,14.71,3.55,26,41,0,0
2.3485e+05,1.2619e+08,5,5739,5685,14.69,3.74,26,41,0,0
2.3529e+05,1.263e+08,5,5685,5685,14.67,3.87,26,41,0,0
2.357e+05,1.264e+08,5,5695,5785,14.66,4.02,26,41,0,0
2.3611e+05,1.265e+08,5,5787,5900,14.65,3.94,26,41,0,0
2.3659e+05,1.2662e+08,5,5896,5871,14.66,3.89,26,42,0,0
2.37e+05,1.2673e+08,5,5877,5971,14.64,4.15,26,42,0,0
2.3745e+05,1.2684e+08,5,5953,5814,14.61,4.12,26,42,0,0
2.379e+05,1.2695e+08,5,5825,5914,14.66,3.99,26,42,0,0
2.3875e+05,1.2715e+08,5,5915,6028,14.64,4.36,26,42,0,0
2.3965e+05,1.2738e+08,5,6035,6214,14.56,4.78,26,43,0,0
2.4009e+05,1.2748e+08,5,6232,6385,14.61,4.88,26,43,0,0
2.405e+05,1.2759e+08,5,6383,6357,14.66,4.83,26,43,0,0
2.4095e+05,1.2769e+08,5,6349,6257,14.67,4.78,26,43,0,0
2.414e+05,1.2781e+08,5,6266,6371,14.61,4.84,26,43,0,0
2.4183e+05,1.2791e+08,5,6366,6314,14.65,4.56,26,43,0,0
2.4224e+05,1.2801e+08,5,6314,6342,14.63,4.63,26,43,0,0
2.4269e+05,1.2812e+08,5,6325,6142,14.69,4.21,26,43,0,0
2.4313e+05,1.2823e+08,5,6137,6100,14.67,4.36,26,44,0,0
2.4358e+05,1.2835e+08,5,6105,6157,14.64,4.6,26,44,0,0
2.4442e+05,1.2855e+08,5,6157,6214,14.68,4.25,26,44,0,0
2.4488e+05,1.2867e+08,5,6208,6085,14.65,4.02,26,44,0,0
2.4528e+05,1.2877e+08,5,6082,5871,14.65,4.04,26,44,0,0
2.4577e+05,1.2889e+08,5,5877,6071,14.66,3.85,26,44,0,0
2.4622e+05,1.29e+08,5,6071,6071,14.69,4.01,26,45,0,0
2.471e+05,1.2921e+08,5,6056,5785,14.74,3.25,26,45,0,0
2.4751e+05,1.2931e+08,5,5786,5871,14.7,3.51,26,45,0,0
2.4799e+05,1.2943e+08,5,5869,5857,14.65,3.45,26,45,0,0
2.484e+05,1.2953e+08,5,5854,5757,14.74,3.31,26,45,0,0
2.4884e+05,1.2964e+08,5,5760,5857,14.64,3.67,26,45,0,0
2.5018e+05,1.2997e+08,5,5857,5885,14.7,3.41,26,45,0,0
2.5063e+05,1.3008e+08,5,5866,5671,14.66,3.38,26,46,0,0
2.5103e+05,1.3019e+08,5,5673,5771,14.76,3.25,26,46,0,0
2.5148e+05,1.303e+08,5,5768,5728,14.75,3.46,26,46,0,0
2.5194e+05,1.3041e+08,5,5730,5757,14.62,3.82,26,46,0,0
2.5238e+05,1.3052e+08,5,5762,5842,14.69,3.61,26,46,0,0
2.5279e+05,1.3062e+08,5,5847,5900,14.73,3.46,26,46,0,0
2.5324e+05,1.3074e+08,5,5887,5742,14.7,3.54,26,46,0,0
2.5364e+05,1.3084e+08,5,5744,5828,14.69,3.45,26,46,0,0
2.5409e+05,1.3095e+08,5,5827,5814,14.73,3.38,26,46,0,0
2.5454e+05,1.3106e+08,5,5807,5685,14.72,3.12,26,47,0,0
2.5498e+05,1.3117e+08,5,5681,5628,14.69,3.27,26,47,0,0
2.5543e+05,1.3128e+08,5,5614,5485,14.74,2.81,26,47,0,0
2.5584e+05,1.3138e+08,5,5482,5300,14.72,2.57,26,47,0,0
2.5721e+05,1.3171e+08,5,5301,5400,14.66,2.95,26,47,0,0
2.5766e+05,1.3182e+08,5,5398,5371,14.75,2.84,26,47,0,0
2.5814e+05,1.3194e+08,5,5374,5414,14.72,3.05,26,47,0,0
2.5854e+05,1.3204e+08,5,5421,5585,14.69,3.1,26,47,0,0
2.5904e+05,1.3216e+08,5,5582,5557,14.69,3.11,26,47,0,0
2.594e+05,1.3225e+08,5,5556,5542,14.64,3.23,26,48,0,0
2.5988e+05,1.3237e+08,5,5542,5557,14.75,3.11,26,48,0,0
2.6033e+05,1.3248e+08,5,5540,5385,14.72,2.9,26,48,0,0
2.6078e+05,1.3259e+08,5,5392,5471,14.72,3.36,26,48,0,0
2.6163e+05,1.328e+08,5,5472,5642,14.75,3.12,26,48,0,0
2.6212e+05,1.3292e+08,5,5641,5614,14.77,3.18,26,48,0,0
2.6256e+05,1.3302e+08,5,5620,5700,14.67,3.53,26,48,0,0
2.6301e+05,1.3314e+08,5,5705,5771,14.66,3.63,26,48,0,0
2.6341e+05,1.3323e+08,5,5769,5742,14.68,3.55,26,48,0,0
2.639e+05,1.3336e+08,5,5727,5557,14.76,3.21,26,49,0,0
2.6434e+05,1.3346e+08,5,5578,5800,14.7,4.32,26,49,0,0
2.6474e+05,1.3356e+08,5,5791,5614,14.66,3.25,26,49,0,0
2.652e+05,1.3367e+08,5,5610,5528,14.69,2.92,26,49,0,0
2.6564e+05,1.3378e+08,5,5524,5428,14.73,3.01,26,49,0,0
2.6609e+05,1.3389e+08,5,5430,5500,14.7,3.14,26,49,0,0
2.6654e+05,1.34e+08,5,5508,5585,14.62,3.17,26,49,0,0
2.6694e+05,1.341e+08,5,5586,5671,14.69,3.59,26,49,0,0
2.6738e+05,1.3421e+08,5,5678,5828,14.72,3.97,26,49,0,0
2.6828e+05,1.3443e+08,5,5830,5914,14.64,4.26,26,49,0,0
2.6872e+05,1.3454e+08,5,5924,6085,14.61,4.24,26,50,0,0
2.6961e+05,1.3476e+08,5,6090,6257,14.6,4.16,26,50,0,0
2.7006e+05,1.3487e+08,5,6253,6200,14.68,4.2,26,50,0,0
2.7047e+05,1.3498e+08,5,6200,6228,14.44,4.9,26,50,0,0
2.7092e+05,1.3509e+08,5,6226,6157,14.61,4.37,26,50,0,0
2.714e+05,1.352e+08,5,6168,6385,14.58,4.79,26,50,0,0
2.7184e+05,1.3531e+08,5,6380,6314,14.65,4.85,26,51,0,0
2.7229e+05,1.3542e+08,5,6306,6242,14.66,4.41,26,51,0,0
2.7273e+05,1.3552e+08,5,6245,6300,14.54,4.92,26,51,0,0
2.7318e+05,1.3563e+08,5,6295,6228,14.6,4.32,26,51,0,0
2.7362e+05,1.3575e+08,5,6217,6128,14.61,4.5,26,51,0,0
2.7403e+05,1.3584e+08,5,6128,6128,14.63,4.37,26,51,0,0
2.7455e+05,1.3597e+08,5,6149,6342,14.65,4.27,26,51,0,0
2.7496e+05,1.3607e+08,5,6318,6057,14.59,4.01,26,52,0,0
2.7541e+05,1.3618e+08,5,6061,6100,14.63,4.68,26,52,0,0
2.7586e+05,1.363e+08,5,6101,6114,14.63,4.08,26,52,0,0
2.7675e+05,1.3652e+08,5,6114,6128,14.61,3.9,26,52,0,0
2.7718e+05,1.3662e+08,5,6106,5985,14.66,3.79,26,52,0,0
2.7759e+05,1.3673e+08,5,5983,5957,14.63,4.1,26,52,0,0
2.7852e+05,1.3695e+08,5,5965,6100,14.65,3.89,26,53,0,0
2.7893e+05,1.3706e+08,5,6080,5957,14.61,3.84,26,53,0,0
2.7937e+05,1.3717e+08,5,5964,6100,14.57,4.1,26,53,0,0
2.7982e+05,1.3728e+08,5,6089,6000,14.62,3.62,26,53,0,0
2.8027e+05,1.3739e+08,5,5995,5928,14.68,3.89,26,53,0,0
2.8072e+05,1.3749e+08,5,5933,6042,14.61,3.61,26,53,0,0
2.8112e+05,1.376e+08,5,6044,6085,14.61,3.9,26,53,0,0
2.8153e+05,1.377e+08,5,6083,6028,14.7,3.62,26,53,0,0
2.8202e+05,1.3782e+08,5,6002,5728,14.72,3.14,26,53,0,0
2.8288e+05,1.3804e+08,5,5725,5685,14.71,3.21,26,54,0,0
2.8332e+05,1.3815e+08,5,5686,5700,14.65,3.45,26,54,0,0
2.8377e+05,1.3825e+08,5,5712,5857,14.64,3.6,26,54,0,0
2.8417e+05,1.3835e+08,5,5852,5771,14.74,3.46,26,54,0,0
2.8462e+05,1.3846e+08,5,5784,5985,14.67,3.64,26,54,0,0
2.8502e+05,1.3857e+08,5,5974,5785,14.64,3.52,26,54,0,0
2.855e+05,1.3868e+08,5,5783,5757,14.67,3.14,26,54,0,0
2.8596e+05,1.388e+08,5,5774,5957,14.7,3.53,27,54,0,0
2.8641e+05,1.3891e+08,5,5947,5857,14.67,3.62,26,54,0,0
2.8681e+05,1.3901e+08,5,5864,5971,14.56,3.72,27,55,0,0
2.8726e+05,1.3912e+08,5,5964,5885,14.64,3.84,26,55,0,0
2.8771e+05,1.3923e+08,5,5877,5828,14.64,3.62,27,55,0,0
2.8815e+05,1.3934e+08,5,5829,5871,14.57,3.6,26,55,0,0
2.886e+05,1.3945e+08,5,5884,6000,14.54,3.81,27,55,0,0
2.89e+05,1.3955e+08,5,6004,6057,14.55,4.71,26,55,0,0
2.8941e+05,1.3966e+08,5,6057,6100,14.58,4.46,27,55,0,0
2.8989e+05,1.3977e+08,5,6106,6200,14.56,4.12,26,55,0,0
2.9034e+05,1.3988e+08,5,6206,6271,14.59,4.03,27,56,0,0
2.9074e+05,1.3998e+08,5,6245,5928,14.66,3.83,26,56,0,0
2.9161e+05,1.402e+08,5,5930,6014,14.6,3.79,26,56,0,0
2.925e+05,1.4042e+08,5,6014,6042,14.58,4.11,26,56,0,0
2.9338e+05,1.4064e+08,5,6040,5942,14.66,3.98,26,56,0,0
2.9383e+05,1.4075e+08,5,5952,6057,14.61,3.78,26,57,0,0
2.9428e+05,1.4086e+08,5,6048,5971,14.58,3.98,26,57,0,0
2.9468e+05,1.4096e+08,5,5971,6014,14.63,3.87,27,57,0,0
2.9512e+05,1.4107e+08,5,6017,6100,14.68,3.53,26,57,0,0
2.9561e+05,1.4118e+08,5,6088,5928,14.63,3.66,26,57,0,0
2.9606e+05,1.4129e+08,5,5922,5842,14.61,3.74,26,57,0,0
2.965e+05,1.414e+08,5,5831,5728,14.71,3.33,27,57,0,0
2.9734e+05,1.4161e+08,5,5728,5757,14.67,3.89,27,57,0,0
2.9779e+05,1.4172e+08,5,5758,5771,14.76,3.07,26,57,0,0
2.982e+05,1.4182e+08,5,5771,5771,14.79,3.84,26,58,0,0
2.9865e+05,1.4193e+08,5,5763,5614,14.72,2.94,26,58,0,0
2.9909e+05,1.4204e+08,5,5612,5571,14.72,3.08,26,58,0,0
2.995e+05,1.4214e+08,5,5572,5671,14.79,2.93,26,58,0,0
2.9999e+05,1.4226e+08,5,5648,5414,14.75,2.95,26,58,0,0
3.0039e+05,1.4236e+08,5,5413,5385,14.73,2.67,26,58,0,0
3.0084e+05,1.4247e+08,5,5387,5542,14.76,2.98,27,58,0,0
3.0133e+05,1.4259e+08,5,5554,5685,14.8,3.04,26,58,0,0
3.0177e+05,1.427e+08,5,5684,5671,14.7,2.67,26,58,0,0
3.0217e+05,1.428e+08,5,5653,5442,14.76,2.73,27,58,0,0
3.0263e+05,1.4291e+08,5,5438,5400,14.76,2.74,26,58,0,0
3.0303e+05,1.4302e+08,5,5408,5528,14.75,2.77,26,58,0,0
3.0393e+05,1.4324e+08,5,5535,5757,14.7,3.39,26,59,0,0
3.0478e+05,1.4345e+08,5,5756,5728,14.63,3.41,26,59,0,0
3.0522e+05,1.4356e+08,5,5733,5814,14.72,3.13,26,59,0,0
3.0568e+05,1.4367e+08,5,5801,5671,14.63,3,26,59,0,0
3.0608e+05,1.4378e+08,5,5674,5714,14.63,3.84,26,59,0,0
3.0652e+05,1.4388e+08,5,5733,5985,14.6,4.03,26,59,0,0
3.0693e+05,1.4399e+08,5,5984,5971,14.65,3.7,26,59,0,0
3.0738e+05,1.441e+08,5,5978,6100,14.6,3.94,26,60,0,0
3.0786e+05,1.4421e+08,5,6084,5928,14.63,3.76,26,60,0,0
3.0827e+05,1.4431e+08,5,5928,5971,14.65,3.79,26,60,0,0
3.0872e+05,1.4443e+08,5,5980,6071,14.64,3.93,26,60,0,0
3.0912e+05,1.4453e+08,5,6070,6057,14.62,3.92,26,60,0,0
3.0958e+05,1.4465e+08,5,6052,6014,14.65,3.48,26,60,0,0
3.0998e+05,1.4475e+08,5,6011,5828,14.66,3.55,26,60,0,0
3.1043e+05,1.4486e+08,5,5829,5914,14.69,3.76,26,60,0,0
3.1087e+05,1.4497e+08,5,5916,6057,14.66,3.75,26,60,0,0
3.1132e+05,1.4507e+08,5,6058,6114,14.69,3.73,26,61,0,0
3.1176e+05,1.4518e+08,5,6101,5857,14.72,3.62,26,61,0,0
3.1222e+05,1.4529e+08,5,5861,5928,14.61,3.41,26,61,0,0
3.1266e+05,1.454e+08,5,5932,5985,14.63,3.73,27,61,0,0
3.1312e+05,1.4552e+08,5,5971,5828,14.6,3.81,26,61,0,0
3.1355e+05,1.4562e+08,5,5834,5985,14.65,4.13,26,61,0,0
3.14e+05,1.4573e+08,5,5988,6071,14.65,3.96,26,61,0,0
3.1444e+05,1.4584e+08,5,6067,5985,14.61,3.89,26,61,0,0
3.1485e+05,1.4594e+08,5,5985,6014,14.63,4,26,62,0,0
3.156e+05,1.4616e+08,5,6091,5971,14.6,4.12,26,62,0,0
3.1605e+05,1.4627e+08,5,5971,6042,14.69,4.18,26,62,0,0
3.1649e+05,1.4638e+08,5,6042,6057,14.67,4.01,26,62,0,0
3.1698e+05,1.465e+08,5,6049,5942,14.6,4.94,26,62,0,0
3.1743e+05,1.4661e+08,5,5960,6242,14.61,4.94,26,62,0,0
3.1788e+05,1.4672e+08,5,6240,6228,14.65,4.75,27,62,0,0
3.1828e+05,1.4682e+08,5,6230,6414,14.64,5.07,26,63,0,0
3.1876e+05,1.4693e+08,5,6427,6571,14.63,5.23,26,63,0,0
3.1921e+05,1.4704e+08,5,6564,6500,14.6,5.04,26,63,0,0
3.1962e+05,1.4715e+08,5,6483,6285,14.63,4.33,26,63,0,0
3.2003e+05,1.4725e+08,5,6281,6214,14.57,4.54,26,63,0,0
3.2096e+05,1.4748e+08,5,6209,6114,14.72,4.17,27,63,0,0
3.2137e+05,1.4759e+08,5,6104,6028,14.73,3.52,26,64,0,0
3.2182e+05,1.477e+08,5,6021,5971,14.61,4.38,27,64,0,0
3.2226e+05,1.4781e+08,5,5990,6185,14.64,4.21,26,64,0,0
3.2271e+05,1.4792e+08,5,6141,5885,14.72,4.13,27,64,0,0
3.2315e+05,1.4802e+08,5,5905,6114,14.67,4.47,27,64,0,0
3.236e+05,1.4813e+08,5,6115,6128,14.67,4.29,27,64,0,0
3.2404e+05,1.4825e+08,5,6132,6185,14.64,4.46,27,64,0,0
3.2448e+05,1.4835e+08,5,6168,5942,14.63,3.94,27,64,0,0
3.2493e+05,1.4846e+08,5,5942,5957,14.67,3.87,27,65,0,0
3.2538e+05,1.4857e+08,5,5972,6142,14.55,4.68,27,65,0,0
3.2583e+05,1.4868e+08,5,6143,6157,14.63,4.45,27,65,0,0
3.2624e+05,1.4879e+08,5,6162,6228,14.58,4.34,27,65,0,0
3.2669e+05,1.489e+08,5,6203,5985,14.6,4.08,27,65,0,0
3.271e+05,1.49e+08,5,5987,6028,14.6,4.35,27,65,0,0
3.2754e+05,1.4911e+08,5,6018,5885,14.6,4.11,27,65,0,0
3.2799e+05,1.4922e+08,5,5892,5971,14.58,4.17,27,65,0,0
3.2843e+05,1.4933e+08,5,5981,6100,14.61,4.06,27,66,0,0
3.2932e+05,1.4955e+08,5,6095,6000,14.64,3.73,27,66,0,0
3.2977e+05,1.4966e+08,5,5989,5885,14.64,3.48,27,66,0,0
3.3022e+05,1.4977e+08,5,5869,5700,14.61,3.12,27,66,0,0
3.3062e+05,1.4987e+08,5,5697,5542,14.67,2.72,27,66,0,0
3.3106e+05,1.4998e+08,5,5540,5514,14.62,3.21,27,66,0,0
3.3151e+05,1.5009e+08,5,5523,5728,14.57,3.75,27,66,0,0
3.3196e+05,1.502e+08,5,5736,5871,14.64,4.04,27,66,0,0
3.324e+05,1.5031e+08,5,5881,6085,14.6,3.91,27,67,0,0
3.3285e+05,1.5042e+08,5,6086,6100,14.63,3.78,27,67,0,0
3.3326e+05,1.5052e+08,5,6097,5971,14.65,4.03,27,67,0,0
3.337e+05,1.5064e+08,5,5981,6242,14.65,4.31,27,67,0,0
3.3419e+05,1.5075e+08,5,6233,6128,14.6,4.09,27,67,0,0
3.346e+05,1.5086e+08,5,6125,6100,14.57,4.01,27,67,0,0
3.3504e+05,1.5096e+08,5,6095,6000,14.68,3.77,27,67,0,0
3.3549e+05,1.5107e+08,5,5995,5885,14.6,3.77,27,67,0,0
3.3594e+05,1.5119e+08,5,5870,5728,14.68,3.32,27,68,0,0
3.3639e+05,1.5129e+08,5,5723,5657,14.72,3.07,27,68,0,0
3.3679e+05,1.514e+08,5,5653,5571,14.79,2.69,27,68,0,0
3.3724e+05,1.5151e+08,5,5566,5457,14.82,2.61,27,68,0,0
3.3764e+05,1.5161e+08,5,5451,5200,14.83,2.41,27,68,0,0
3.3809e+05,1.5172e+08,5,5199,5185,14.72,2.57,27,68,0,0
3.3854e+05,1.5183e+08,5,5172,4985,14.75,2.29,27,68,0,0
3.3903e+05,1.5195e+08,5,4986,5000,14.75,2.65,27,68,0,0
3.3943e+05,1.5204e+08,5,5002,5042,14.75,2.53,27,68,0,0
3.3987e+05,1.5216e+08,5,5046,5114,14.72,2.34,27,68,0,0
3.4032e+05,1.5226e+08,5,5103,5000,14.72,2.71,27,68,0,0
3.4073e+05,1.5237e+08,5,5000,5028,14.73,2.61,27,68,0,0
3.4117e+05,1.5248e+08,5,5025,4971,14.72,2.6,27,68,0,0
3.4162e+05,1.5258e+08,5,4974,5114,14.72,2.57,27,69,0,0
3.4211e+05,1.527e+08,5,5102,4985,14.64,2.75,27,69,0,0
3.4256e+05,1.5281e+08,5,5001,5185,14.7,2.47,27,69,0,0
3.4296e+05,1.5291e+08,5,5182,5128,14.75,2.78,27,69,0,0
3.4386e+05,1.5314e+08,5,5136,5328,14.69,3.08,27,69,0,0
3.4427e+05,1.5324e+08,5,5327,5314,14.68,3.19,27,69,0,0
3.4475e+05,1.5335e+08,5,5319,5400,14.71,3.21,27,69,0,0
3.456e+05,1.5356e+08,5,5399,5385,14.65,3,27,69,0,0
3.4605e+05,1.5367e+08,5,5389,5542,14.72,3.14,27,69,0,0
3.4646e+05,1.5378e+08,5,5539,5414,14.67,3.17,27,70,0,0
3.4695e+05,1.5389e+08,5,5416,5442,14.69,3.19,27,70,0,0
3.4736e+05,1.54e+08,5,5444,5485,14.71,3.2,27,70,0,0
3.4781e+05,1.5411e+08,5,5479,5400,14.7,3.1,27,70,0,0
3.4825e+05,1.5422e+08,5,5409,5585,14.71,3.45,27,70,0,0
3.487e+05,1.5433e+08,5,5575,5471,14.74,2.93,27,70,0,0
3.4915e+05,1.5443e+08,5,5471,5471,14.61,3.02,27,70,0,0
3.4955e+05,1.5454e+08,5,5469,5385,14.7,2.87,27,70,0,0
3.5004e+05,1.5465e+08,5,5379,5300,14.72,3.05,27,70,0,0
3.5044e+05,1.5475e+08,5,5302,5442,14.72,3.52,27,70,0,0
3.5093e+05,1.5487e+08,5,5455,5600,14.63,3.61,27,70,0,0
3.5138e+05,1.5498e+08,5,5597,5571,14.59,3.53,27,71,0,0
3.5183e+05,1.5509e+08,5,5575,5628,14.67,3.16,27,71,0,0
3.5227e+05,1.552e+08,5,5628,5628,14.67,3.07,27,71,0,0
3.5268e+05,1.553e+08,5,5630,5671,14.68,3.45,27,71,0,0
3.5312e+05,1.5541e+08,5,5667,5628,14.69,3.19,27,71,0,0
3.5358e+05,1.5553e+08,5,5620,5571,14.65,3.3,27,71,0,0
3.5402e+05,1.5563e+08,5,5579,5671,14.69,3.28,27,71,0,0
3.5446e+05,1.5574e+08,5,5671,5671,14.66,3.26,27,71,0,0
3.5487e+05,1.5584e+08,5,5671,5685,14.57,3.66,27,71,0,0
3.5532e+05,1.5596e+08,5,5707,5914,14.62,3.71,27,72,0,0
3.558e+05,1.5606e+08,5,5909,5857,14.58,3.78,27,72,0,0
3.5625e+05,1.5618e+08,5,5860,5885,14.55,3.83,27,72,0,0
3.5666e+05,1.5627e+08,5,5888,5971,14.6,3.99,27,72,0,0
3.571e+05,1.5638e+08,5,5975,6057,14.64,3.78,27,72,0,0
3.5755e+05,1.5649e+08,5,6047,5957,14.63,3.87,27,72,0,0
3.58e+05,1.5661e+08,5,5944,5842,14.61,3.91,27,72,0,0
3.5845e+05,1.5673e+08,5,5853,5942,14.61,3.81,27,72,0,0
3.5889e+05,1.5683e+08,5,5942,5942,14.66,3.42,27,72,0,0
3.5934e+05,1.5694e+08,5,5911,5700,14.74,3.19,27,73,0,0
3.597e+05,1.5703e+08,5,5697,5542,14.69,3.23,27,73,0,0
3.6015e+05,1.5714e+08,5,5543,5628,14.72,3.28,27,73,0,0
3.6064e+05,1.5726e+08,5,5643,5814,14.67,3.25,27,73,0,0
3.6108e+05,1.5737e+08,5,5801,5685,14.69,3.12,27,73,0,0
3.6157e+05,1.5748e+08,5,5683,5671,14.67,3.27,27,73,0,0
3.6197e+05,1.5758e+08,5,5677,5742,14.66,3.34,27,73,0,0
3.6286e+05,1.578e+08,5,5742,5757,14.64,3.63,27,73,0,0
3.633e+05,1.5791e+08,5,5759,5785,14.63,3.69,27,73,0,0
3.6375e+05,1.5802e+08,5,5782,5742,14.68,3.54,27,74,0,0
3.6415e+05,1.5812e+08,5,5749,5942,14.59,3.68,27,74,0,0
3.646e+05,1.5823e+08,5,5940,5814,14.63,3.74,27,74,0,0
3.6504e+05,1.5834e+08,5,5814,5885,14.67,3.44,27,74,0,0
3.6549e+05,1.5845e+08,5,5884,5814,14.69,3.68,27,74,0,0
3.6593e+05,1.5856e+08,5,5822,6000,14.69,3.58,27,74,0,0
3.6643e+05,1.5868e+08,5,6004,6071,14.66,3.68,27,74,0,0
3.6683e+05,1.5878e+08,5,6064,5942,14.63,3.84,27,74,0,0
3.6728e+05,1.5889e+08,5,5939,5900,14.64,3.56,27,74,0,0
3.6773e+05,1.59e+08,5,5893,5757,14.67,3.61,27,74,0,0
3.6822e+05,1.5911e+08,5,5758,5785,14.67,3.57,27,75,0,0
3.6862e+05,1.5922e+08,5,5786,5828,14.6,3.43,27,75,0,0
3.6907e+05,1.5934e+08,5,5797,5600,14.65,3.46,27,75,0,0
3.6992e+05,1.5954e+08,5,5601,5771,14.61,3.51,27,75,0,0
3.704e+05,1.5966e+08,5,5774,5814,14.67,3.44,27,75,0,0
3.7085e+05,1.5977e+08,5,5802,5685,14.58,3.49,27,75,0,0
3.713e+05,1.5987e+08,5,5698,5885,14.61,3.73,27,75,0,0
3.7175e+05,1.5999e+08,5,5891,5957,14.62,3.51,27,75,0,0
3.726e+05,1.602e+08,5,5953,5800,14.63,3.54,27,76,0,0
3.7309e+05,1.6032e+08,5,5804,5857,14.67,3.42,27,76,0,0
3.7353e+05,1.6042e+08,5,5857,5857,14.65,3.48,27,76,0,0
3.7439e+05,1.6063e+08,5,5855,5700,14.65,3.45,27,76,0,0
3.7487e+05,1.6075e+08,5,5701,5728,14.64,3.41,27,76,0,0
3.7532e+05,1.6086e+08,5,5713,5571,14.67,3.27,27,76,0,0
3.7577e+05,1.6097e+08,5,5584,5728,14.61,3.67,27,76,0,0
3.7617e+05,1.6107e+08,5,5729,5757,14.57,3.73,27,77,0,0
3.7662e+05,1.6118e+08,5,5758,5857,14.62,3.87,27,77,0,0
3.7711e+05,1.6129e+08,5,5864,5971,14.63,3.83,27,77,0,0
3.7755e+05,1.614e+08,5,5966,5900,14.69,3.68,27,77,0,0
3.78e+05,1.6151e+08,5,5901,5928,14.61,3.87,27,77,0,0
3.7844e+05,1.6162e+08,5,5931,5985,14.63,4.03,27,77,0,0
3.789e+05,1.6173e+08,5,5992,6057,14.72,3.82,27,77,0,0
3.7934e+05,1.6184e+08,5,6048,5957,14.7,3.67,27,77,0,0
3.8023e+05,1.6205e+08,5,5951,5800,14.64,3.35,27,78,0,0
3.8067e+05,1.6217e+08,5,5795,5728,14.75,3.37,27,78,0,0
3.8113e+05,1.6228e+08,5,5730,5757,14.73,3.16,27,78,0,0
3.8153e+05,1.6238e+08,5,5752,5428,14.74,2.78,27,78,0,0
3.8202e+05,1.625e+08,5,5445,5628,14.75,3.2,27,78,0,0
3.8243e+05,1.626e+08,5,5620,5542,14.72,3.25,27,78,0,0
3.8288e+05,1.6271e+08,5,5545,5585,14.75,2.77,27,78,0,0
3.8332e+05,1.6282e+08,5,5562,5042,15.17,0.94,27,78,0,0
3.8377e+05,1.6293e+08,5,5021,4071,14.82,1.21,27,78,0,0
3.8422e+05,1.6304e+08,5,4073,4100,15.23,1.33,27,78,0,0
3.8466e+05,1.6315e+08,5,4102,4128,15.11,1.18,27,78,0,0
3.8507e+05,1.6325e+08,5,4119,3600,15.18,0.77,27,78,0,0
3.8551e+05,1.6336e+08,5,3564,3014,15.22,0.26,27,78,0,0
3.8596e+05,1.6347e+08,5,2994,2571,15.14,0.24,27,78,0,0
3.864e+05,1.6359e+08,5,2563,2500,15.14,0.39,27,78,0,0
3.8673e+05,1.6369e+08,5,2496,2471,15.16,0.27,27,78,0,0
3.8757e+05,1.639e+08,5,2470,2442,15.14,0.36,26,78,0,0
3.8806e+05,1.6402e+08,5,2444,2471,15.16,0.37,27,78,0,0
3.8851e+05,1.6413e+08,5,2472,2485,15.16,0.35,26,78,0,0
3.8891e+05,1.6423e+08,5,2485,2500,15.16,0.38,27,78,0,0
3.8935e+05,1.6434e+08,5,2501,2585,15.18,0.41,27,78,0,0
3.8984e+05,1.6446e+08,5,2583,2571,15.19,0.38,27,78,0,0
3.9028e+05,1.6456e+08,5,2575,2614,15.16,0.39,26,78,0,0
3.9069e+05,1.6466e+08,5,2613,2600,15.16,0.45,26,78,0,0
3.9114e+05,1.6477e+08,5,2602,2700,15.19,0.51,26,79,0,0
3.9158e+05,1.6488e+08,5,2700,2757,15.17,0.49,26,79,0,0
3.9207e+05,1.65e+08,5,2759,2800,15.2,0.5,26,79,0,0
3.9252e+05,1.651e+08,5,2798,2785,15.17,0.43,26,79,0,0
3.9292e+05,1.6521e+08,5,2727,2042,15.27,0.03,26,79,0,0
3.9337e+05,1.6531e+08,5,2029,1500,15.26,0,26,79,0,0
3.9386e+05,1.6543e+08,5,1486,1300,15.24,0.06,26,79,0,0
3.943e+05,1.6554e+08,5,1294,1242,15.25,0.09,26,79,0,0
3.9475e+05,1.6564e+08,5,1241,1228,15.25,0.09,26,79,0,0
3.952e+05,1.6575e+08,5,1228,1228,15.25,0.09,26,79,0,0
3.9569e+05,1.6587e+08,5,1228,1228,15.25,0.09,26,79,0,0
3.9609e+05,1.6596e+08,5,1228,1228,15.25,0.1,26,79,0,0
3.9658e+05,1.6608e+08,5,1228,1228,15.25,0.1,26,79,0,0
3.9699e+05,1.6618e+08,5,1228,1228,15.25,0.1,26,79,0,0
3.9744e+05,1.6629e+08,5,1228,1228,15.25,0.1,26,79,0,0
3.9793e+05,1.6641e+08,5,1228,1228,15.26,0.1,26,79,0,0
3.9837e+05,1.6651e+08,5,1229,1242,15.25,0.1,26,79,0,0
3.9882e+05,1.6662e+08,5,1240,1228,15.25,0.09,26,79,0,0
3.9926e+05,1.6673e+08,5,1228,1228,15.26,0.09,26,79,0,0
3.9971e+05,1.6683e+08,5,1228,1228,15.26,0.1,26,79,0,0
4.0016e+05,1.6695e+08,5,1228,1228,15.27,0.1,26,79,0,0
4.0061e+05,1.6705e+08,5,1228,1228,15.26,0.1,26,79,0,0
4.0109e+05,1.6716e+08,5,1228,1228,15.26,0.1,26,79,0,0
4.0195e+05,1.6737e+08,5,1228,1228,15.27,0.1,26,79,0,0
4.0244e+05,1.6749e+08,5,1228,1228,15.27,0.1,26,79,0,0
4.0288e+05,1.676e+08,5,1228,1228,15.26,0.1,26,79,0,0
4.0333e+05,1.677e+08,5,1228,1228,15.27,0.1,26,79,0,0
4.0378e+05,1.6782e+08,5,1228,1228,15.28,0.1,26,79,0,0
4.0471e+05,1.6803e+08,5,1228,1228,15.27,0.1,26,79,0,0
4.0645e+05,1.6846e+08,5,1228,1228,15.28,0.1,26,79,0,0
4.069e+05,1.6857e+08,5,1228,1228,15.28,0.1,26,79,0,0
4.0739e+05,1.6868e+08,5,1229,1242,15.28,0.1,26,79,0,0
4.0779e+05,1.6878e+08,5,1242,1242,15.28,0.1,26,79,0,0
4.0824e+05,1.6889e+08,5,1242,1242,15.29,0.09,26,79,0,0
4.0873e+05,1.6901e+08,5,1240,1228,15.29,0.1,26,79,0,0
4.0918e+05,1.6912e+08,5,1228,1228,15.29,0.1,26,79,0,0
4.0963e+05,1.6923e+08,5,1228,1228,15.29,0.1,26,79,0,0
4.1008e+05,1.6934e+08,5,1228,1228,15.29,0.1,26,79,0,0
4.1053e+05,1.6944e+08,5,1228,1228,15.29,0.1,26,79,0,0
4.1097e+05,1.6955e+08,5,1228,1228,15.29,0.1,26,79,0,0
4.1142e+05,1.6965e+08,5,1228,1228,15.29,0.1,26,79,0,0
4.1186e+05,1.6976e+08,5,1228,1228,15.3,0.1,26,79,0,0
4.1235e+05,1.6987e+08,5,1229,1242,15.29,0.1,26,79,0,0
4.1276e+05,1.6998e+08,5,1242,1242,15.29,0.1,26,79,0,0
4.1325e+05,1.7009e+08,5,1242,1242,15.29,0.1,26,79,0,0
4.1369e+05,1.702e+08,5,1240,1228,15.3,0.1,26,79,0,0
4.1413e+05,1.703e+08,5,1228,1228,15.29,0.1,26,79,0,0
4.1458e+05,1.7041e+08,5,1228,1228,15.3,0.1,26,79,0,0
4.1508e+05,1.7053e+08,5,1229,1242,15.3,0.1,26,79,0,0
4.1552e+05,1.7063e+08,5,1242,1242,15.31,0.1,26,79,0,0
4.1596e+05,1.7074e+08,5,1242,1242,15.3,0.1,26,79,0,0
4.1641e+05,1.7085e+08,5,1240,1228,15.3,0.09,26,79,0,0
4.168e+05,1.7096e+08,5,1228,1228,15.3,0.1,26,79,0,0
4.1722e+05,1.7106e+08,5,1228,1228,15.3,0.1,26,79,0,0
4.177e+05,1.7118e+08,5,1228,1228,15.3,0.1,26,79,0,0
4.1815e+05,1.7128e+08,5,1228,1228,15.3,0.1,26,79,0,0
4.1901e+05,1.7149e+08,5,1228,1228,15.31,0.1,26,79,0,0
4.1949e+05,1.7161e+08,5,1228,1228,15.32,0.1,26,79,0,0
4.2037e+05,1.7182e+08,5,1228,1228,15.31,0.1,26,79,0,0
4.2082e+05,1.7193e+08,5,1228,1228,15.31,0.1,25,79,0,0
4.2127e+05,1.7204e+08,5,1228,1228,15.3,0.1,26,79,0,0
4.2172e+05,1.7215e+08,5,1228,1228,15.3,0.1,26,79,0,0
4.2217e+05,1.7225e+08,5,1228,1228,15.31,0.1,25,79,0,0
4.2265e+05,1.7237e+08,5,1228,1228,15.32,0.1,26,79,0,0
4.231e+05,1.7248e+08,5,1228,1228,15.32,0.1,25,79,0,0
4.235e+05,1.7258e+08,5,1228,1242,15.32,0.1,25,79,0,0
4.2395e+05,1.7268e+08,5,1242,1242,15.32,0.1,25,79,0,0
4.2439e+05,1.7279e+08,5,1242,1242,15.33,0.1,25,79,0,0
4.2485e+05,1.729e+08,5,1242,1242,15.32,0.1,25,79,0,0
4.2529e+05,1.7301e+08,5,1242,1242,15.32,0.1,25,79,0,0
4.2574e+05,1.7312e+08,5,1242,1242,15.32,0.1,25,79,0,0
4.262e+05,1.7323e+08,5,1242,1242,15.32,0.1,25,79,0,0
4.2664e+05,1.7334e+08,5,1241,1228,15.32,0.1,25,79,0,0
4.2709e+05,1.7344e+08,5,1228,1228,15.33,0.1,25,79,0,0
4.2753e+05,1.7355e+08,5,1228,1228,15.32,0.1,25,79,0,0
4.2802e+05,1.7366e+08,5,1228,1228,15.33,0.11,25,79,0,0
4.2846e+05,1.7377e+08,5,1228,1242,15.33,0.11,25,79,0,0
4.2891e+05,1.7387e+08,5,1241,1228,15.33,0.1,25,79,0,0
4.2936e+05,1.7399e+08,5,1228,1228,15.33,0.1,25,79,0,0
4.2981e+05,1.7409e+08,5,1228,1228,15.33,0.1,25,79,0,0
4.3025e+05,1.742e+08,5,1228,1228,15.33,0.1,25,79,0,0
4.3073e+05,1.7431e+08,5,1228,1228,15.33,0.1,25,79,0,0
4.3119e+05,1.7442e+08,5,1228,1228,15.33,0.1,25,79,0,0
4.3164e+05,1.7453e+08,5,1229,1242,15.33,0.1,25,79,0,0
4.3204e+05,1.7463e+08,5,1242,1242,15.33,0.1,25,79,0,0
4.3248e+05,1.7473e+08,5,1241,1228,15.33,0.1,25,79,0,0
4.3293e+05,1.7484e+08,5,1228,1228,15.34,0.1,25,79,0,0
4.3341e+05,1.7495e+08,5,1228,1242,15.34,0.1,25,79,0,0
4.3386e+05,1.7506e+08,5,1242,1242,15.33,0.1,25,79,0,0
4.3431e+05,1.7517e+08,5,1210,742,15.36,0.02,25,79,0,0
4.3476e+05,1.7528e+08,5,716,257,15.35,0.01,25,79,0,0
4.3522e+05,1.7539e+08,5,231,0,15.35,0.03,25,79,0,0
4.3567e+05,1.7549e+08,5,0,0,15.35,0.03,25,79,0,0
4.3612e+05,1.756e+08,5,0,0,15.36,0.03,25,79,0,0
4.3662e+05,1.7571e+08,5,0,0,15.35,0.04,25,79,0,0
4.3707e+05,1.7582e+08,5,0,0,15.35,0.03,25,79,0,0
4.3756e+05,1.7593e+08,5,0,0,15.36,0.03,25,79,0,0
4.3802e+05,1.7604e+08,5,0,0,15.36,0.04,25,79,0,0
4.3847e+05,1.7615e+08,5,0,0,15.36,0.04,25,79,0,0
4.3892e+05,1.7626e+08,5,0,0,15.35,0.04,25,79,0,0
4.3938e+05,1.7637e+08,5,0,0,15.36,0.04,25,79,0,0
4.398e+05,1.7647e+08,5,0,0,15.36,0.04,25,79,0,0
4.403e+05,1.7659e+08,5,0,0,15.36,0.04,25,79,0,0
4.4075e+05,1.7669e+08,5,0,0,15.36,0.03,25,79,0,0
4.4116e+05,1.7679e+08,5,0,0,15.36,0.04,25,79,0,0
4.4166e+05,1.7691e+08,5,0,0,15.36,0.04,25,79,0,0
4.4207e+05,1.7701e+08,5,0,0,15.36,0.04,25,79,0,0
4.4249e+05,1.7711e+08,5,0,0,15.36,0.04,25,79,0,0
4.4298e+05,1.7723e+08,5,0,0,15.36,0.04,25,79,0,0
4.4342e+05,1.7733e+08,5,0,0,15.36,0.04,25,79,0,0
4.4388e+05,1.7744e+08,5,0,0,15.36,0.04,25,79,0,0
4.4433e+05,1.7755e+08,5,0,0,15.36,0.04,25,79,0,0
4.4482e+05,1.7766e+08,5,0,0,15.36,0.04,25,79,0,0
4.4523e+05,1.7776e+08,5,0,0,15.37,0.04,25,79,0,0
4.4573e+05,1.7788e+08,5,0,0,15.36,0.04,25,79,0,0
4.4618e+05,1.7799e+08,5,0,0,15.37,0.04,25,79,0,0
4.4708e+05,1.7821e+08,5,0,0,15.36,0.04,25,79,0,0
4.4758e+05,1.7832e+08,5,0,0,15.36,0.04,25,79,0,0
4.4803e+05,1.7843e+08,5,0,0,15.37,0.04,25,79,0,0
4.4848e+05,1.7854e+08,5,0,0,15.37,0.04,25,79,0,0
4.4894e+05,1.7865e+08,5,0,0,15.37,0.04,25,79,0,0
4.4939e+05,1.7875e+08,5,0,0,15.37,0.04,25,79,0,0
4.4984e+05,1.7886e+08,5,0,0,15.36,0.04,25,79,0,0
4.5029e+05,1.7897e+08,5,0,0,15.37,0.03,25,79,0,0
4.5079e+05,1.7909e+08,5,0,0,15.36,0.04,25,79,0,0
4.5124e+05,1.7919e+08,5,0,0,15.37,0.04,25,79,0,0
4.5169e+05,1.793e+08,5,0,0,15.37,0.04,25,79,0,0
4.5214e+05,1.794e+08,5,0,0,15.37,0.03,25,79,0,0
4.5264e+05,1.7952e+08,5,0,0,15.37,0.03,25,79,0,0
4.5304e+05,1.7962e+08,5,0,0,15.37,0.04,25,79,0,0
4.5399e+05,1.7984e+08,5,0,0,15.38,0.04,25,79,0,0
4.5444e+05,1.7995e+08,5,0,0,15.38,0.03,25,79,0,0
4.549e+05,1.8005e+08,5,0,0,15.37,0.04,25,79,0,0
4.5539e+05,1.8017e+08,5,0,0,15.38,0.04,25,79,0,0
4.5584e+05,1.8027e+08,5,0,0,15.38,0.04,25,79,0,0
4.563e+05,1.8038e+08,5,0,0,15.38,0.03,25,79,0,0
4.5675e+05,1.8049e+08,5,0,0,15.38,0.03,25,79,0,0
4.5721e+05,1.806e+08,5,0,0,15.38,0.03,25,79,0,0
4.5766e+05,1.8071e+08,5,0,0,15.38,0.03,25,79,0,0
4.5812e+05,1.8082e+08,5,0,0,15.38,0.04,25,79,0,0
4.5858e+05,1.8093e+08,5,0,0,15.38,0.04,25,79,0,0
4.5903e+05,1.8104e+08,5,0,0,15.38,0.04,25,79,0,0
4.5944e+05,1.8114e+08,5,0,0,15.38,0.04,25,79,0,0
4.5993e+05,1.8126e+08,5,0,0,15.38,0.04,25,79,0,0
4.6039e+05,1.8137e+08,5,0,0,15.38,0.04,25,79,0,0
4.6084e+05,1.8148e+08,5,0,0,15.38,0.03,25,79,0,0
4.6129e+05,1.8158e+08,5,0,0,15.38,0.03,25,79,0,0
4.6179e+05,1.817e+08,5,0,0,15.38,0.03,24,79,0,0
4.6224e+05,1.8181e+08,5,0,0,15.39,0.04,25,79,0,0
4.6274e+05,1.8192e+08,5,0,0,15.38,0.04,25,79,0,0
4.6319e+05,1.8203e+08,5,0,0,15.38,0.04,25,79,0,0
4.6364e+05,1.8214e+08,5,0,0,15.38,0.03,25,79,0,0
4.6409e+05,1.8224e+08,5,0,0,15.38,0.03,25,79,0,0
4.6454e+05,1.8235e+08,5,0,0,15.39,0.04,25,79,0,0
4.6499e+05,1.8246e+08,5,0,0,15.38,0.03,25,79,0,0
4.6545e+05,1.8257e+08,5,0,0,15.39,0.04,25,79,0,0
4.6591e+05,1.8268e+08,5,0,0,15.38,0.04,24,79,0,0
4.6636e+05,1.8279e+08,5,0,0,15.38,0.04,25,79,0,0
4.6686e+05,1.829e+08,5,0,0,15.39,0.04,24,79,0,0
