LineNo,TimeUS,Instance,RPM,RawRPM,Volt,Curr,Temp,CTot,MotTemp,Err
1761,5.6273e+07,2,0,0,15.44,0.04,24,0,0,0
2181,5.638e+07,2,0,0,15.44,0.04,24,0,0,0
2637,5.6494e+07,2,0,0,15.43,0.05,25,0,0,0
3055,5.6601e+07,2,0,0,15.42,0.05,24,0,0,0
3466,5.6707e+07,2,0,0,15.43,0.05,24,0,0,0
3918,5.6819e+07,2,0,0,15.44,0.05,24,0,0,0
4738,5.7029e+07,2,0,0,15.44,0.05,24,0,0,0
5186,5.7143e+07,2,0,0,15.43,0.05,25,0,0,0
5598,5.7247e+07,2,0,0,15.42,0.04,25,0,0,0
6010,5.7351e+07,2,0,0,15.43,0.04,24,0,0,0
6464,5.7465e+07,2,0,0,15.44,0.04,24,0,0,0
6882,5.7571e+07,2,0,0,15.42,0.04,25,0,0,0
7340,5.7688e+07,2,0,0,15.43,0.04,25,0,0,0
7757,5.7792e+07,2,0,0,15.43,0.04,24,0,0,0
8135,5.7888e+07,2,0,0,15.43,0.04,24,0,0,0
8592,5.8004e+07,2,0,0,15.42,0.04,25,0,0,0
9004,5.8107e+07,2,0,0,15.42,0.04,24,0,0,0
9416,5.8213e+07,2,0,0,15.44,0.04,24,0,0,0
9827,5.8317e+07,2,0,0,15.44,0.04,24,0,0,0
10277,5.8433e+07,2,0,0,15.43,0.04,24,0,0,0
10983,5.8647e+07,2,0,0,15.43,0.04,24,0,0,0
11402,5.875e+07,2,0,0,15.43,0.04,25,0,0,0
11854,5.8866e+07,2,0,0,15.43,0.04,24,0,0,0
12238,5.8968e+07,2,0,0,15.43,0.04,24,0,0,0
12688,5.908e+07,2,0,0,15.43,0.04,24,0,0,0
13099,5.9183e+07,2,0,0,15.42,0.04,24,0,0,0
13554,5.9299e+07,2,0,0,15.43,0.04,25,0,0,0
13964,5.9405e+07,2,0,0,15.43,0.04,24,0,0,0
14377,5.9509e+07,2,0,0,15.43,0.04,24,0,0,0
14826,5.9621e+07,2,0,0,15.42,0.04,24,0,0,0
15243,5.9725e+07,2,0,0,15.42,0.04,24,0,0,0
15656,5.9834e+07,2,0,0,15.44,0.04,24,0,0,0
16111,5.9949e+07,2,0,0,15.42,0.04,25,0,0,0
16524,6.0052e+07,2,0,0,15.42,0.04,25,0,0,0
16945,6.0161e+07,2,0,0,15.42,0.04,25,0,0,0
17357,6.0268e+07,2,0,0,15.43,0.04,24,0,0,0
17808,6.0381e+07,2,0,0,15.42,0.04,25,0,0,0
18216,6.0483e+07,2,0,0,15.43,0.05,25,0,0,0
18634,6.0591e+07,2,0,0,15.43,0.05,25,0,0,0
19050,6.0699e+07,2,0,0,15.43,0.04,25,0,0,0
19512,6.0815e+07,2,0,0,15.44,0.04,24,0,0,0
19925,6.092e+07,2,0,0,15.44,0.04,24,0,0,0
20338,6.1025e+07,2,0,0,15.43,0.04,25,0,0,0
20747,6.113e+07,2,0,0,15.43,0.04,24,0,0,0
54666,8.1868e+07,2,0,0,15.44,0.05,25,0,0,0
54953,8.1938e+07,2,0,0,15.42,0.05,25,0,0,0
55450,8.2049e+07,2,0,0,15.43,0.05,25,0,0,0
55905,8.2158e+07,2,0,0,15.43,0.05,25,0,0,0
56327,8.2259e+07,2,0,0,15.42,0.05,25,0,0,0
56814,8.2367e+07,2,0,0,15.43,0.05,25,0,0,0
57311,8.2479e+07,2,0,0,15.42,0.05,25,0,0,0
57763,8.2584e+07,2,0,0,15.43,0.05,25,0,0,0
58219,8.269e+07,2,0,0,15.42,0.05,25,0,0,0
58672,8.2797e+07,2,0,0,15.42,0.05,25,0,0,0
59129,8.2902e+07,2,0,0,15.43,0.05,25,0,0,0
59584,8.3011e+07,2,0,0,15.43,0.05,25,0,0,0
60567,8.3232e+07,2,0,0,15.42,0.05,25,0,0,0
61018,8.334e+07,2,0,0,15.43,0.05,25,0,0,0
61473,8.3444e+07,2,0,0,15.42,0.05,25,0,0,0
61927,8.3554e+07,2,0,0,15.43,0.05,25,0,0,0
62381,8.3656e+07,2,0,0,15.42,0.05,25,0,0,0
62827,8.3761e+07,2,0,0,15.43,0.05,25,0,0,0
63778,8.3982e+07,2,5,128,15.42,0.04,25,0,0,0
64233,8.4084e+07,2,142,514,15.42,0.09,25,0,0,0
64686,8.4194e+07,2,527,857,15.41,0.15,25,0,0,0
65141,8.4296e+07,2,860,1142,15.41,0.13,25,0,0,0
65630,8.4409e+07,2,1144,1200,15.42,0.12,25,0,0,0
66131,8.4521e+07,2,1201,1242,15.41,0.11,25,0,0,0
66575,8.4625e+07,2,1242,1257,15.42,0.11,25,0,0,0
67072,8.4742e+07,2,1257,1257,15.41,0.11,25,0,0,0
67524,8.4845e+07,2,1263,1371,15.4,0.2,25,0,0,0
67780,8.495e+07,2,1392,1885,15.33,0.6,25,0,0,0
68237,8.5058e+07,2,1917,2671,15.19,1.07,25,0,0,0
68692,8.5171e+07,2,2701,3114,15.2,1.28,25,0,0,0
69150,8.5276e+07,2,3120,3557,15.12,1.59,25,0,0,0
69641,8.5391e+07,2,3616,4171,15.04,1.88,25,0,0,0
70016,8.5491e+07,2,4180,4728,14.86,2.78,25,0,0,0
70468,8.5599e+07,2,4737,5214,14.8,3.27,25,0,0,0
70965,8.5713e+07,2,5238,5571,14.71,3.87,25,0,0,0
71419,8.5824e+07,2,5589,5771,14.77,3.71,25,0,0,0
71873,8.5929e+07,2,5783,6071,14.76,4.4,25,0,0,0
72364,8.6045e+07,2,6075,6114,14.72,4.17,25,0,0,0
72780,8.6149e+07,2,6108,5971,14.75,3.71,25,1,0,0
73232,8.6255e+07,2,5975,6100,14.83,3.9,25,1,0,0
73682,8.6363e+07,2,6096,5942,14.79,4.15,25,1,0,0
74180,8.6481e+07,2,5948,6028,14.79,4.05,25,1,0,0
75082,8.6695e+07,2,6028,6057,14.84,3.99,25,1,0,0
75542,8.6809e+07,2,6057,6085,14.85,3.73,25,1,0,0
75994,8.6915e+07,2,6085,6128,14.88,3.91,25,1,0,0
76445,8.7024e+07,2,6127,6114,14.87,4.01,25,2,0,0
76896,8.7134e+07,2,6115,6142,14.8,4.07,25,2,0,0
77348,8.7242e+07,2,6139,6100,14.82,4,25,2,0,0
77802,8.7352e+07,2,6088,5971,14.78,3.7,26,2,0,0
78255,8.7457e+07,2,5974,6200,14.82,3.84,25,2,0,0
78747,8.7572e+07,2,6183,6028,14.75,3.44,26,2,0,0
79198,8.7677e+07,2,6024,5971,14.82,3.86,26,2,0,0
79650,8.7788e+07,2,5974,6014,14.82,4.06,25,2,0,0
80099,8.7892e+07,2,6016,6071,14.8,3.94,26,3,0,0
80555,8.8005e+07,2,6067,6000,14.8,4.28,26,3,0,0
81055,8.812e+07,2,6001,6028,14.75,4.16,26,3,0,0
81473,8.8226e+07,2,6035,6214,14.7,4.08,26,3,0,0
81915,8.8334e+07,2,6212,6100,14.77,4.08,26,3,0,0
82366,8.8444e+07,2,6097,6042,14.8,3.81,26,3,0,0
82818,8.8559e+07,2,6035,5971,14.82,3.33,26,3,0,0
83266,8.8668e+07,2,5965,5914,14.77,3.95,26,3,0,0
83708,8.8777e+07,2,5916,5942,14.77,3.67,26,4,0,0
84115,8.8875e+07,2,5937,5728,14.76,3.46,26,4,0,0
84564,8.8989e+07,2,5735,5828,14.7,3.87,26,4,0,0
85011,8.9098e+07,2,5841,6100,14.69,4.06,26,4,0,0
85456,8.921e+07,2,6101,6128,14.7,4.11,26,4,0,0
85907,8.9319e+07,2,6123,6042,14.71,4.23,26,4,0,0
86795,8.9538e+07,2,6043,6071,14.71,3.89,26,4,0,0
87240,8.9645e+07,2,6056,5857,14.75,3.53,26,5,0,0
88123,8.986e+07,2,5856,5828,14.75,3.4,26,5,0,0
88580,8.9976e+07,2,5825,5800,14.84,3.72,26,5,0,0
89031,9.0084e+07,2,5800,5800,14.81,3.59,26,5,0,0
89432,9.0185e+07,2,5800,5800,14.79,3.4,26,5,0,0
89879,9.0293e+07,2,5793,5728,14.77,3.31,26,5,0,0
90325,9.0403e+07,2,5732,5785,14.79,3.52,26,5,0,0
90776,9.0513e+07,2,5786,5800,14.85,2.95,26,5,0,0
91183,9.0615e+07,2,5790,5600,14.84,2.72,26,5,0,0
91674,9.0734e+07,2,5602,5628,14.83,2.79,26,5,0,0
92124,9.0843e+07,2,5629,5642,14.79,2.81,26,6,0,0
92564,9.0949e+07,2,5636,5557,14.77,2.98,26,6,0,0
93012,9.1058e+07,2,5568,5714,14.79,3.19,26,6,0,0
93460,9.117e+07,2,5720,5814,14.83,3.12,26,6,0,0
93910,9.1279e+07,2,5805,5714,14.76,3.31,26,6,0,0
94316,9.1385e+07,2,5716,5742,14.76,3.2,26,6,0,0
94770,9.1496e+07,2,5748,5814,14.8,3.01,26,6,0,0
95208,9.1602e+07,2,5803,5700,14.77,2.94,26,6,0,0
95663,9.1716e+07,2,5711,5800,14.78,3.65,26,6,0,0
96106,9.1819e+07,2,5788,5671,14.78,3.09,26,6,0,0
96511,9.192e+07,2,5675,5857,14.73,3.2,26,6,0,0
97000,9.2037e+07,2,5843,5685,14.71,3.33,26,7,0,0
97887,9.2262e+07,2,5705,6057,14.73,3.9,27,7,0,0
98333,9.2372e+07,2,6059,6085,14.74,3.7,26,7,0,0
98787,9.2479e+07,2,6075,5985,14.76,3.57,27,7,0,0
99188,9.2583e+07,2,5987,6014,14.73,3.55,27,7,0,0
99641,9.2695e+07,2,6025,6114,14.77,3.87,27,7,0,0
1.0008e+05,9.2799e+07,2,6116,6142,14.73,3.6,27,7,0,0
1.0053e+05,9.2907e+07,2,6129,5985,14.75,3.39,27,7,0,0
1.0094e+05,9.3015e+07,2,5994,6085,14.73,3.56,27,8,0,0
1.0139e+05,9.3126e+07,2,6086,6100,14.74,3.47,27,8,0,0
1.0184e+05,9.324e+07,2,6085,5928,14.7,3.49,27,8,0,0
1.0225e+05,9.3338e+07,2,5929,5957,14.68,3.48,26,8,0,0
1.0274e+05,9.3461e+07,2,5962,6042,14.74,3.42,27,8,0,0
1.031e+05,9.3554e+07,2,6040,5985,14.73,3.72,27,8,0,0
1.0359e+05,9.3674e+07,2,5996,6128,14.71,3.61,27,8,0,0
1.0403e+05,9.3783e+07,2,6124,6042,14.75,3.57,27,8,0,0
1.0449e+05,9.3895e+07,2,6022,5857,14.76,3.24,27,8,0,0
1.0493e+05,9.4003e+07,2,5850,5800,14.72,3.13,27,9,0,0
1.0539e+05,9.4116e+07,2,5797,5771,14.67,3.43,27,9,0,0
1.0579e+05,9.4215e+07,2,5784,5957,14.73,3.66,27,9,0,0
1.0624e+05,9.4323e+07,2,5951,5871,14.71,3.62,27,9,0,0
1.0664e+05,9.4423e+07,2,5870,5814,14.73,3.47,27,9,0,0
1.0758e+05,9.4652e+07,2,5817,5900,14.77,3.52,27,9,0,0
1.0802e+05,9.4763e+07,2,5908,6100,14.67,3.81,27,9,0,0
1.0847e+05,9.4874e+07,2,6098,6085,14.69,3.67,27,9,0,0
1.0885e+05,9.4972e+07,2,6081,5871,14.7,3.71,27,10,0,0
1.0929e+05,9.5078e+07,2,5872,5900,14.7,3.86,27,10,0,0
1.0974e+05,9.5191e+07,2,5902,5928,14.76,3.17,27,10,0,0
1.1019e+05,9.5302e+07,2,5923,5885,14.72,3.71,27,10,0,0
1.106e+05,9.5409e+07,2,5885,5900,14.73,3.44,27,10,0,0
1.1105e+05,9.5517e+07,2,5902,6028,14.66,3.86,27,10,0,0
1.1149e+05,9.5628e+07,2,6024,5957,14.66,3.61,27,10,0,0
1.119e+05,9.5733e+07,2,5957,5971,14.68,3.46,27,10,0,0
1.1239e+05,9.5845e+07,2,5971,5985,14.72,3.38,27,10,0,0
1.1284e+05,9.5956e+07,2,5983,5957,14.7,3.68,27,11,0,0
1.1329e+05,9.6066e+07,2,5962,6042,14.69,3.58,27,11,0,0
1.1373e+05,9.6178e+07,2,6034,5928,14.67,3.49,27,11,0,0
1.1418e+05,9.6288e+07,2,5928,5928,14.7,3.66,27,11,0,0
1.1462e+05,9.6398e+07,2,5925,5900,14.71,3.61,27,11,0,0
1.1508e+05,9.6507e+07,2,5903,5942,14.66,3.41,27,11,0,0
1.1552e+05,9.6618e+07,2,5928,5800,14.68,3.35,27,11,0,0
1.1592e+05,9.6716e+07,2,5798,5771,14.69,3.56,27,11,0,0
1.1637e+05,9.6827e+07,2,5776,5857,14.73,3.46,27,11,0,0
1.1727e+05,9.7045e+07,2,5861,5985,14.7,3.71,27,12,0,0
1.1771e+05,9.7154e+07,2,5984,5971,14.7,3.38,27,12,0,0
1.1816e+05,9.7265e+07,2,5968,5914,14.73,3.57,27,12,0,0
1.1861e+05,9.7375e+07,2,5920,6042,14.73,3.52,27,12,0,0
1.1905e+05,9.748e+07,2,6042,6057,14.61,3.54,27,12,0,0
1.1995e+05,9.77e+07,2,6055,6014,14.72,3.51,27,12,0,0
1.2039e+05,9.7811e+07,2,6012,6000,14.68,3.15,27,12,0,0
1.2124e+05,9.8019e+07,2,5997,5757,14.73,2.45,27,13,0,0
1.2177e+05,9.8144e+07,2,5746,5628,14.74,2.59,27,13,0,0
1.2218e+05,9.8244e+07,2,5623,5557,14.7,2.82,27,13,0,0
1.2258e+05,9.8349e+07,2,5563,5728,14.73,2.96,27,13,0,0
1.2303e+05,9.8455e+07,2,5735,5828,14.67,3.19,27,13,0,0
1.2344e+05,9.856e+07,2,5820,5685,14.73,2.64,27,13,0,0
1.2388e+05,9.8671e+07,2,5688,5742,14.7,2.99,27,13,0,0
1.2433e+05,9.8781e+07,2,5745,5828,14.68,3.03,27,13,0,0
1.2478e+05,9.8889e+07,2,5833,5914,14.66,3.31,27,13,0,0
1.2518e+05,9.899e+07,2,5914,5914,14.7,3.08,27,13,0,0
1.2568e+05,9.9111e+07,2,5927,6128,14.73,3.36,27,13,0,0
1.2612e+05,9.9219e+07,2,6133,6185,14.69,3.48,27,14,0,0
1.2656e+05,9.9328e+07,2,6181,6142,14.69,3.58,27,14,0,0
1.2702e+05,9.944e+07,2,6122,5900,14.69,3.5,27,14,0,0
1.2738e+05,9.9537e+07,2,5902,6057,14.63,3.68,27,14,0,0
1.2786e+05,9.965e+07,2,6050,5914,14.6,3.85,27,14,0,0
1.2827e+05,9.9753e+07,2,5920,6200,14.64,3.97,27,14,0,0
1.2877e+05,9.9874e+07,2,6189,6071,14.66,3.92,27,14,0,0
1.2922e+05,9.9982e+07,2,6077,6142,14.66,3.79,27,14,0,0
1.2962e+05,1.0008e+08,2,6139,6000,14.62,4.14,27,14,0,0
1.3007e+05,1.0019e+08,2,6023,6342,14.69,3.83,27,15,0,0
1.3052e+05,1.003e+08,2,6311,5857,14.62,3.83,27,15,0,0
1.3092e+05,1.004e+08,2,5863,6014,14.61,3.73,27,15,0,0
1.3137e+05,1.0051e+08,2,6018,6100,14.64,3.61,27,15,0,0
1.3182e+05,1.0062e+08,2,6093,6000,14.7,3.4,27,15,0,0
1.3227e+05,1.0073e+08,2,6004,6057,14.71,3.52,27,15,0,0
1.3272e+05,1.0085e+08,2,6062,6114,14.69,3.65,27,15,0,0
1.3316e+05,1.0095e+08,2,6115,6157,14.64,3.68,27,15,0,0
1.3365e+05,1.0107e+08,2,6157,6157,14.67,3.85,27,15,0,0
1.3402e+05,1.0117e+08,2,6156,6142,14.65,3.53,27,16,0,0
1.3447e+05,1.0128e+08,2,6138,6057,14.71,3.22,27,16,0,0
1.3491e+05,1.0138e+08,2,6055,6000,14.69,3.18,27,16,0,0
1.3537e+05,1.015e+08,2,5994,5942,14.69,3.32,27,16,0,0
1.3582e+05,1.0161e+08,2,5953,6085,14.76,3.45,27,16,0,0
1.3626e+05,1.0173e+08,2,6085,6085,14.68,3.22,28,16,0,0
1.3666e+05,1.0182e+08,2,6085,6085,14.66,3.51,27,16,0,0
1.3715e+05,1.0194e+08,2,6070,5871,14.7,3.33,28,16,0,0
1.3759e+05,1.0205e+08,2,5878,5971,14.65,3.35,28,16,0,0
1.38e+05,1.0215e+08,2,5973,6171,14.71,3.47,28,16,0,0
1.3852e+05,1.0227e+08,2,6166,6128,14.64,3.31,28,17,0,0
1.3893e+05,1.0238e+08,2,6126,6042,14.63,3.35,27,17,0,0
1.3938e+05,1.0249e+08,2,6044,6085,14.65,3.33,28,17,0,0
1.3982e+05,1.0259e+08,2,6084,6057,14.65,3.34,27,17,0,0
1.4031e+05,1.0271e+08,2,6048,5942,14.57,3.65,28,17,0,0
1.4072e+05,1.0281e+08,2,5948,6100,14.6,3.59,27,17,0,0
1.4121e+05,1.0293e+08,2,6070,5828,14.56,3.57,28,17,0,0
1.4161e+05,1.0303e+08,2,5828,5828,14.61,3.41,28,17,0,0
1.4206e+05,1.0315e+08,2,5843,5942,14.63,3.83,28,17,0,0
1.4247e+05,1.0324e+08,2,5940,5871,14.61,3.66,28,18,0,0
1.4295e+05,1.0336e+08,2,5881,5985,14.6,3.76,27,18,0,0
1.434e+05,1.0347e+08,2,5968,5857,14.6,3.85,28,18,0,0
1.438e+05,1.0357e+08,2,5858,5885,14.58,3.86,28,18,0,0
1.4429e+05,1.0369e+08,2,5890,5942,14.58,3.94,28,18,0,0
1.4515e+05,1.0391e+08,2,5955,6157,14.64,4.05,28,18,0,0
1.4556e+05,1.0401e+08,2,6157,6157,14.6,3.93,28,18,0,0
1.46e+05,1.0412e+08,2,6155,6057,14.66,3.6,28,18,0,0
1.4649e+05,1.0424e+08,2,6053,6028,14.62,3.34,28,19,0,0
1.4734e+05,1.0445e+08,2,6018,5800,14.67,3.09,28,19,0,0
1.4778e+05,1.0456e+08,2,5821,6014,14.72,3.05,28,19,0,0
1.4819e+05,1.0466e+08,2,6012,5885,14.65,3.5,28,19,0,0
1.4864e+05,1.0477e+08,2,5883,5800,14.71,2.87,28,19,0,0
1.4935e+05,1.05e+08,2,5801,5828,14.63,3.02,28,19,0,0
1.4976e+05,1.051e+08,2,5830,5885,14.64,3.08,28,19,0,0
1.502e+05,1.0521e+08,2,5885,5885,14.67,3.06,28,19,0,0
1.5065e+05,1.0532e+08,2,5882,5828,14.62,3.41,28,19,0,0
1.511e+05,1.0543e+08,2,5828,5857,14.61,3.41,28,20,0,0
1.5155e+05,1.0554e+08,2,5857,5857,14.64,3.44,28,20,0,0
1.5199e+05,1.0565e+08,2,5870,6128,14.66,3.62,28,20,0,0
1.5244e+05,1.0576e+08,2,6129,6142,14.7,3.18,28,20,0,0
1.5289e+05,1.0587e+08,2,6125,5957,14.63,3.56,28,20,0,0
1.5374e+05,1.0608e+08,2,5957,6000,14.64,3.57,28,20,0,0
1.5415e+05,1.0618e+08,2,6000,6000,14.64,3.85,28,20,0,0
1.5464e+05,1.063e+08,2,6017,6242,14.59,4.55,28,20,0,0
1.5505e+05,1.064e+08,2,6254,6500,14.61,5.19,28,21,0,0
1.555e+05,1.0652e+08,2,6547,6957,14.49,6.2,28,21,0,0
1.5594e+05,1.0662e+08,2,6962,7071,14.5,6.29,28,21,0,0
1.564e+05,1.0673e+08,2,7063,7000,14.52,5.85,28,21,0,0
1.568e+05,1.0684e+08,2,6992,6885,14.57,4.89,28,21,0,0
1.577e+05,1.0706e+08,2,6849,6071,14.64,3.06,28,22,0,0
1.581e+05,1.0716e+08,2,6026,5442,14.63,1.66,28,22,0,0
1.5855e+05,1.0727e+08,2,5387,4828,14.72,0.58,28,22,0,0
1.5896e+05,1.0737e+08,2,4807,3728,14.67,0.15,28,22,0,0
1.5944e+05,1.0748e+08,2,3694,3028,14.69,0.47,28,22,0,0
1.6034e+05,1.0771e+08,2,3034,3185,14.68,0.94,28,22,0,0
1.6075e+05,1.0781e+08,2,3194,3400,14.71,1.16,28,22,0,0
1.612e+05,1.0793e+08,2,3425,3885,14.66,1.36,28,22,0,0
1.6166e+05,1.0804e+08,2,3918,4257,14.62,2.02,28,22,0,0
1.6206e+05,1.0814e+08,2,4263,4785,14.63,2.69,28,22,0,0
1.6251e+05,1.0825e+08,2,4825,5214,14.61,3.17,28,22,0,0
1.6291e+05,1.0835e+08,2,5243,5628,14.58,3.24,28,22,0,0
1.634e+05,1.0847e+08,2,5647,5842,14.48,3.85,28,22,0,0
1.638e+05,1.0857e+08,2,5860,6028,14.58,4.38,28,22,0,0
1.6425e+05,1.0868e+08,2,6041,6242,14.57,4.39,28,23,0,0
1.647e+05,1.0879e+08,2,6238,6185,14.54,3.74,28,23,0,0
1.6515e+05,1.089e+08,2,6174,6028,14.5,4.35,28,23,0,0
1.656e+05,1.0901e+08,2,6042,6228,14.54,4.66,28,23,0,0
1.66e+05,1.0912e+08,2,6226,6185,14.55,3.84,28,23,0,0
1.665e+05,1.0923e+08,2,6204,6400,14.47,4.39,28,23,0,0
1.6695e+05,1.0934e+08,2,6389,6314,14.51,4.42,28,23,0,0
1.6739e+05,1.0945e+08,2,6320,6385,14.52,4.36,28,23,0,0
1.678e+05,1.0955e+08,2,6373,6128,14.55,4.09,28,24,0,0
1.6828e+05,1.0966e+08,2,6126,6057,14.52,4.08,28,24,0,0
1.6869e+05,1.0977e+08,2,6052,5828,14.56,3.23,28,24,0,0
1.6918e+05,1.0989e+08,2,5817,5714,14.57,3.33,28,24,0,0
1.6962e+05,1.0999e+08,2,5713,5700,14.51,3.58,28,24,0,0
1.7007e+05,1.101e+08,2,5701,5714,14.52,3.11,28,24,0,0
1.7048e+05,1.1021e+08,2,5713,5657,14.56,3.18,28,24,0,0
1.7185e+05,1.1054e+08,2,5651,5414,14.72,2.3,28,24,0,0
1.7231e+05,1.1065e+08,2,5414,5414,14.73,2.34,28,25,0,0
1.732e+05,1.1087e+08,2,5413,5400,14.7,2.39,28,25,0,0
1.7361e+05,1.1097e+08,2,5402,5457,14.74,2.2,28,25,0,0
1.745e+05,1.1119e+08,2,5451,5328,14.61,2.01,28,25,0,0
1.7495e+05,1.113e+08,2,5313,5171,14.66,2.21,28,25,0,0
1.7539e+05,1.1141e+08,2,5179,5300,14.67,2.22,28,25,0,0
1.7584e+05,1.1152e+08,2,5313,5457,14.6,2.81,28,25,0,0
1.7625e+05,1.1163e+08,2,5478,5757,14.65,3.7,28,25,0,0
1.7673e+05,1.1174e+08,2,5785,6100,14.63,4.49,28,25,0,0
1.7714e+05,1.1184e+08,2,6112,6457,14.6,4.59,28,25,0,0
1.7759e+05,1.1196e+08,2,6457,6457,14.63,4.3,28,26,0,0
1.7804e+05,1.1206e+08,2,6457,6471,14.58,4.49,28,26,0,0
1.7845e+05,1.1217e+08,2,6476,6542,14.62,4.67,28,26,0,0
1.789e+05,1.1228e+08,2,6534,6428,14.54,4.41,28,26,0,0
1.7934e+05,1.1239e+08,2,6421,6285,14.51,4.42,28,26,0,0
1.7983e+05,1.1251e+08,2,6296,6400,14.53,4.34,28,26,0,0
1.8024e+05,1.1261e+08,2,6390,6257,14.62,3.81,28,26,0,0
1.8069e+05,1.1272e+08,2,6241,6071,14.6,4.07,28,27,0,0
1.8117e+05,1.1284e+08,2,6073,6100,14.61,3.69,28,27,0,0
1.8161e+05,1.1295e+08,2,6096,6057,14.58,3.91,28,27,0,0
1.8206e+05,1.1306e+08,2,6044,5914,14.65,3.7,28,27,0,0
1.8247e+05,1.1317e+08,2,5916,5942,14.7,3.32,28,27,0,0
1.8274e+05,1.1327e+08,2,5940,5928,14.69,2.98,28,27,0,0
1.8318e+05,1.1337e+08,2,5927,5900,14.64,3.17,28,27,0,0
1.8348e+05,1.135e+08,2,5888,5757,14.66,2.88,28,27,0,0
1.8392e+05,1.136e+08,2,5767,5900,14.67,2.96,28,27,0,0
1.8437e+05,1.1371e+08,2,5896,5857,14.69,2.75,28,27,0,0
1.8478e+05,1.1382e+08,2,5859,6014,14.61,2.73,28,28,0,0
1.8523e+05,1.1393e+08,2,6004,5828,14.55,2.97,28,28,0,0
1.8612e+05,1.1415e+08,2,5831,5900,14.61,2.93,28,28,0,0
1.866e+05,1.1426e+08,2,5895,5842,14.64,2.95,28,28,0,0
1.87e+05,1.1436e+08,2,5837,5742,14.62,3.28,28,28,0,0
1.8745e+05,1.1447e+08,2,5743,5814,14.61,3.01,28,28,0,0
1.879e+05,1.1458e+08,2,5815,5857,14.63,2.56,28,28,0,0
1.8839e+05,1.147e+08,2,5845,5728,14.68,2.52,28,28,0,0
1.8876e+05,1.1479e+08,2,5727,5700,14.69,2.26,28,28,0,0
1.892e+05,1.149e+08,2,5697,5514,14.64,2.41,28,28,0,0
1.8965e+05,1.1501e+08,2,5509,5428,14.63,2.57,28,28,0,0
1.901e+05,1.1513e+08,2,5437,5528,14.57,2.91,28,28,0,0
1.9051e+05,1.1523e+08,2,5535,5685,14.67,2.84,28,29,0,0
1.9096e+05,1.1534e+08,2,5686,5714,14.61,2.97,28,29,0,0
1.914e+05,1.1545e+08,2,5723,5828,14.61,3,28,29,0,0
1.918e+05,1.1555e+08,2,5825,5742,14.68,3.13,28,29,0,0
1.9226e+05,1.1566e+08,2,5741,5728,14.66,2.79,28,29,0,0
1.9271e+05,1.1578e+08,2,5741,5828,14.67,2.82,28,29,0,0
1.9359e+05,1.1599e+08,2,5825,5757,14.68,2.7,28,29,0,0
1.9404e+05,1.161e+08,2,5752,5671,14.44,3.15,28,29,0,0
1.9445e+05,1.162e+08,2,5677,5828,14.57,3.41,28,29,0,0
1.949e+05,1.1632e+08,2,5830,5857,14.65,2.79,28,29,0,0
1.9531e+05,1.1642e+08,2,5850,5757,14.61,2.77,28,30,0,0
1.9576e+05,1.1653e+08,2,5745,5585,14.7,2.69,28,30,0,0
1.962e+05,1.1664e+08,2,5586,5614,14.63,2.7,28,30,0,0
1.9754e+05,1.1697e+08,2,5611,5457,14.65,2.41,28,30,0,0
1.9799e+05,1.1708e+08,2,5457,5471,14.61,2.55,28,30,0,0
1.984e+05,1.1718e+08,2,5469,5428,14.62,2.5,28,30,0,0
1.9884e+05,1.1729e+08,2,5430,5585,14.6,2.82,28,30,0,0
1.9933e+05,1.1741e+08,2,5578,5514,14.61,2.77,28,30,0,0
1.9973e+05,1.1751e+08,2,5510,5442,14.55,2.67,28,30,0,0
2.0064e+05,1.1774e+08,2,5448,5542,14.63,2.89,28,31,0,0
2.0108e+05,1.1785e+08,2,5539,5514,14.66,2.59,28,31,0,0
2.0149e+05,1.1795e+08,2,5503,5414,14.53,3.03,28,31,0,0
2.0189e+05,1.1805e+08,2,5414,5457,14.55,2.81,28,31,0,0
2.0238e+05,1.1817e+08,2,5458,5471,14.57,2.63,29,31,0,0
2.0283e+05,1.1828e+08,2,5465,5414,14.62,2.27,28,31,0,0
2.0327e+05,1.1839e+08,2,5395,5214,14.66,2.56,29,31,0,0
2.0368e+05,1.1849e+08,2,5216,5371,14.57,2.85,28,31,0,0
2.0412e+05,1.186e+08,2,5375,5642,14.58,3.1,28,31,0,0
2.0466e+05,1.1872e+08,2,5629,5485,14.65,2.63,28,31,0,0
2.051e+05,1.1883e+08,2,5491,5557,14.55,2.98,28,31,0,0
2.055e+05,1.1893e+08,2,5556,5542,14.55,3.24,28,31,0,0
2.0596e+05,1.1905e+08,2,5550,5657,14.54,3.57,28,32,0,0
2.0636e+05,1.1915e+08,2,5657,5685,14.48,3.36,28,32,0,0
2.0681e+05,1.1926e+08,2,5685,5685,14.61,3.05,28,32,0,0
2.0725e+05,1.1937e+08,2,5665,5471,14.57,2.81,28,32,0,0
2.077e+05,1.1948e+08,2,5476,5542,14.58,2.69,28,32,0,0
2.0815e+05,1.1959e+08,2,5551,5642,14.6,2.76,28,32,0,0
2.086e+05,1.197e+08,2,5622,5442,14.55,2.75,28,32,0,0
2.0905e+05,1.1981e+08,2,5444,5471,14.57,2.56,28,32,0,0
2.095e+05,1.1992e+08,2,5458,5342,14.58,2.25,28,32,0,0
2.0994e+05,1.2003e+08,2,5328,5185,14.63,2.09,28,32,0,0
2.1039e+05,1.2014e+08,2,5171,5057,14.64,2.18,28,32,0,0
2.1083e+05,1.2024e+08,2,5065,5157,14.55,2.46,28,32,0,0
2.1124e+05,1.2035e+08,2,5161,5228,14.6,2.54,28,33,0,0
2.1214e+05,1.2057e+08,2,5229,5285,14.63,2.52,28,33,0,0
2.1258e+05,1.2068e+08,2,5291,5571,14.61,2.03,28,33,0,0
2.1304e+05,1.2079e+08,2,5562,5442,14.62,2.32,28,33,0,0
2.1349e+05,1.209e+08,2,5454,5628,14.58,2.79,28,33,0,0
2.1394e+05,1.2101e+08,2,5626,5600,14.53,2.55,28,33,0,0
2.1438e+05,1.2112e+08,2,5613,5800,14.55,2.91,29,33,0,0
2.1483e+05,1.2122e+08,2,5797,5757,14.59,2.6,28,33,0,0
2.1523e+05,1.2133e+08,2,5755,5614,14.59,2.56,28,33,0,0
2.1572e+05,1.2144e+08,2,5618,5685,14.59,2.98,28,33,0,0
2.1612e+05,1.2154e+08,2,5684,5671,14.58,2.96,28,33,0,0
2.1701e+05,1.2176e+08,2,5673,5757,14.57,3.14,28,34,0,0
2.1747e+05,1.2187e+08,2,5767,5914,14.57,3.44,28,34,0,0
2.1792e+05,1.2199e+08,2,5900,5757,14.58,3.05,28,34,0,0
2.1837e+05,1.2211e+08,2,5760,5785,14.54,3.25,28,34,0,0
2.1881e+05,1.2221e+08,2,5785,5785,14.54,3.13,28,34,0,0
2.1926e+05,1.2233e+08,2,5785,5785,14.62,3.13,28,34,0,0
2.197e+05,1.2243e+08,2,5791,5857,14.54,3.01,28,34,0,0
2.2015e+05,1.2254e+08,2,5849,5771,14.67,3.1,28,34,0,0
2.2055e+05,1.2265e+08,2,5766,5728,14.63,2.75,28,34,0,0
2.21e+05,1.2276e+08,2,5717,5600,14.64,2.44,28,34,0,0
2.2145e+05,1.2287e+08,2,5586,5400,14.63,2.57,28,34,0,0
2.2186e+05,1.2297e+08,2,5407,5485,14.64,2.53,28,35,0,0
2.2231e+05,1.2309e+08,2,5478,5414,14.58,2.73,28,35,0,0
2.2276e+05,1.232e+08,2,5419,5457,14.57,2.61,28,35,0,0
2.2357e+05,1.2341e+08,2,5462,5685,14.58,2.94,28,35,0,0
2.2402e+05,1.2352e+08,2,5688,5771,14.62,3.04,29,35,0,0
2.245e+05,1.2363e+08,2,5765,5714,14.6,2.89,28,35,0,0
2.2491e+05,1.2373e+08,2,5712,5671,14.56,3.2,28,35,0,0
2.2535e+05,1.2384e+08,2,5672,5757,14.59,3.14,28,35,0,0
2.2584e+05,1.2396e+08,2,5773,5957,14.6,3.2,28,35,0,0
2.2628e+05,1.2406e+08,2,5950,5828,14.59,3.46,28,35,0,0
2.2673e+05,1.2418e+08,2,5828,5842,14.53,3.27,28,36,0,0
2.2718e+05,1.2428e+08,2,5839,5800,14.58,3.38,29,36,0,0
2.2758e+05,1.2439e+08,2,5795,5757,14.58,3.35,28,36,0,0
2.2807e+05,1.245e+08,2,5765,5857,14.6,3.27,28,36,0,0
2.2847e+05,1.246e+08,2,5852,5757,14.56,3.19,28,36,0,0
2.2892e+05,1.2472e+08,2,5757,5757,14.54,3.25,28,36,0,0
2.2933e+05,1.2482e+08,2,5761,5828,14.58,3.22,28,36,0,0
2.2978e+05,1.2494e+08,2,5826,5800,14.52,3.09,28,36,0,0
2.3023e+05,1.2505e+08,2,5805,5928,14.6,3.16,28,36,0,0
2.3067e+05,1.2516e+08,2,5919,5814,14.58,3.09,28,36,0,0
2.3112e+05,1.2527e+08,2,5808,5757,14.57,3.29,28,37,0,0
2.3153e+05,1.2537e+08,2,5755,5714,14.55,3.14,28,37,0,0
2.3198e+05,1.2548e+08,2,5719,5828,14.61,3.29,28,37,0,0
2.3242e+05,1.2559e+08,2,5820,5714,14.61,2.63,28,37,0,0
2.3287e+05,1.257e+08,2,5693,5528,14.64,2.96,28,37,0,0
2.3376e+05,1.2592e+08,2,5532,5628,14.61,2.86,28,37,0,0
2.3417e+05,1.2602e+08,2,5617,5514,14.6,2.87,28,37,0,0
2.3462e+05,1.2613e+08,2,5518,5557,14.51,2.96,28,37,0,0
2.3502e+05,1.2624e+08,2,5555,5500,14.57,2.94,28,37,0,0
2.3547e+05,1.2635e+08,2,5493,5400,14.55,2.82,28,37,0,0
2.3588e+05,1.2645e+08,2,5402,5557,14.48,2.84,28,38,0,0
2.3637e+05,1.2657e+08,2,5541,5385,14.58,2.79,28,38,0,0
2.3677e+05,1.2667e+08,2,5390,5571,14.57,3.15,28,38,0,0
2.3722e+05,1.2678e+08,2,5569,5557,14.58,3.12,28,38,0,0
2.3767e+05,1.2689e+08,2,5555,5542,14.55,3.27,28,38,0,0
2.3807e+05,1.2699e+08,2,5544,5685,14.55,3.21,28,38,0,0
2.3856e+05,1.2711e+08,2,5700,5857,14.53,3.83,28,38,0,0
2.3897e+05,1.2721e+08,2,5866,6057,14.55,3.96,28,38,0,0
2.3943e+05,1.2732e+08,2,6057,6057,14.53,4.22,28,38,0,0
2.3983e+05,1.2742e+08,2,6060,6142,14.5,4.28,28,38,0,0
2.4032e+05,1.2754e+08,2,6126,6042,14.52,3.93,28,39,0,0
2.4072e+05,1.2764e+08,2,6054,6214,14.51,4.16,28,39,0,0
2.4112e+05,1.2774e+08,2,6209,6042,14.49,3.87,28,39,0,0
2.4158e+05,1.2785e+08,2,6039,5985,14.54,3.92,28,39,0,0
2.4201e+05,1.2796e+08,2,5987,6085,14.47,3.83,29,39,0,0
2.4246e+05,1.2807e+08,2,6071,5885,14.5,3.76,28,39,0,0
2.4291e+05,1.2818e+08,2,5898,6028,14.5,3.66,29,39,0,0
2.4336e+05,1.2829e+08,2,6024,5985,14.47,3.55,29,39,0,0
2.4381e+05,1.284e+08,2,5993,6085,14.47,3.71,29,40,0,0
2.4425e+05,1.2851e+08,2,6070,5928,14.48,3.92,29,40,0,0
2.4465e+05,1.2861e+08,2,5933,6057,14.5,3.74,28,40,0,0
2.451e+05,1.2872e+08,2,6055,5942,14.54,3.39,29,40,0,0
2.4555e+05,1.2883e+08,2,5937,5828,14.51,3.09,28,40,0,0
2.4604e+05,1.2895e+08,2,5821,5757,14.53,3.43,29,40,0,0
2.4644e+05,1.2905e+08,2,5766,5842,14.5,3.25,28,40,0,0
2.4684e+05,1.2915e+08,2,5841,5828,14.58,3.1,28,40,0,0
2.4733e+05,1.2927e+08,2,5826,5814,14.55,2.89,29,40,0,0
2.4777e+05,1.2938e+08,2,5800,5671,14.51,2.86,28,40,0,0
2.4912e+05,1.297e+08,2,5680,6000,14.57,3.03,28,41,0,0
2.4952e+05,1.2981e+08,2,5984,5842,14.54,3.06,29,41,0,0
2.4996e+05,1.2991e+08,2,5845,5914,14.54,3.08,29,41,0,0
2.5041e+05,1.3003e+08,2,5916,5957,14.59,3.09,29,41,0,0
2.5085e+05,1.3014e+08,2,5961,6014,14.57,3.33,29,41,0,0
2.5131e+05,1.3025e+08,2,5998,5842,14.65,3.19,29,41,0,0
2.5172e+05,1.3036e+08,2,5855,6000,14.48,3.62,29,41,0,0
2.5216e+05,1.3046e+08,2,6006,6100,14.56,3.52,29,41,0,0
2.5257e+05,1.3057e+08,2,6098,6071,14.57,3.42,29,41,0,0
2.5302e+05,1.3068e+08,2,6058,5871,14.57,3.29,29,42,0,0
2.5346e+05,1.3079e+08,2,5884,6085,14.59,3.09,28,42,0,0
2.5392e+05,1.309e+08,2,6074,5957,14.56,3.46,29,42,0,0
2.5436e+05,1.3101e+08,2,5965,6057,14.55,3.42,29,42,0,0
2.5521e+05,1.3122e+08,2,6047,5857,14.57,2.99,29,42,0,0
2.5562e+05,1.3133e+08,2,5856,5814,14.61,2.66,29,42,0,0
2.5611e+05,1.3144e+08,2,5800,5671,14.56,3.02,29,42,0,0
2.5655e+05,1.3155e+08,2,5671,5671,14.59,3.03,29,42,0,0
2.5699e+05,1.3165e+08,2,5674,5714,14.59,2.97,29,42,0,0
2.5743e+05,1.3177e+08,2,5716,5771,14.58,2.92,29,43,0,0
2.5788e+05,1.3187e+08,2,5769,5714,14.58,2.94,29,43,0,0
2.5837e+05,1.3199e+08,2,5709,5657,14.61,2.88,29,43,0,0
2.5881e+05,1.321e+08,2,5678,5857,14.55,3.19,29,43,0,0
2.5963e+05,1.3231e+08,2,5857,5885,14.54,3.44,29,43,0,0
2.6011e+05,1.3243e+08,2,5887,5914,14.56,3.36,29,43,0,0
2.6055e+05,1.3254e+08,2,5923,6000,14.58,3.37,29,43,0,0
2.61e+05,1.3265e+08,2,5997,5971,14.58,3.33,29,43,0,0
2.6144e+05,1.3276e+08,2,5953,5814,14.58,3.18,29,43,0,0
2.6189e+05,1.3287e+08,2,5834,6057,14.6,3.59,29,44,0,0
2.6233e+05,1.3297e+08,2,6060,6100,14.59,3.4,29,44,0,0
2.6278e+05,1.3308e+08,2,6081,5928,14.48,3.85,29,44,0,0
2.6318e+05,1.3318e+08,2,5930,6057,14.55,3.69,29,44,0,0
2.6367e+05,1.333e+08,2,6048,5985,14.6,3.75,29,44,0,0
2.6411e+05,1.334e+08,2,5978,5914,14.57,3.35,29,44,0,0
2.6452e+05,1.335e+08,2,5915,6000,14.53,4.28,29,44,0,0
2.6541e+05,1.3373e+08,2,5999,5914,14.56,3.5,29,44,0,0
2.6586e+05,1.3384e+08,2,5918,5985,14.55,3.43,29,44,0,0
2.6631e+05,1.3395e+08,2,5987,6014,14.58,3.53,29,45,0,0
2.6672e+05,1.3405e+08,2,6012,5928,14.57,3.48,29,45,0,0
2.6716e+05,1.3416e+08,2,5931,6128,14.51,3.67,28,45,0,0
2.676e+05,1.3426e+08,2,6125,6085,14.53,3.92,29,45,0,0
2.6804e+05,1.3438e+08,2,6085,6100,14.55,3.46,29,45,0,0
2.685e+05,1.3449e+08,2,6098,6085,14.52,3.88,29,45,0,0
2.6894e+05,1.346e+08,2,6094,6214,14.5,3.91,29,45,0,0
2.6939e+05,1.3471e+08,2,6214,6228,14.47,4.15,29,45,0,0
2.6984e+05,1.3482e+08,2,6234,6300,14.56,3.97,29,45,0,0
2.7029e+05,1.3493e+08,2,6285,6171,14.54,3.55,29,46,0,0
2.7069e+05,1.3503e+08,2,6164,6071,14.52,3.95,29,46,0,0
2.7162e+05,1.3526e+08,2,6070,6057,14.55,3.62,29,46,0,0
2.7206e+05,1.3537e+08,2,6041,5885,14.5,3.6,29,46,0,0
2.7251e+05,1.3547e+08,2,5895,6071,14.51,3.62,29,46,0,0
2.7295e+05,1.3558e+08,2,6067,6014,14.47,3.82,29,46,0,0
2.734e+05,1.3569e+08,2,6017,6057,14.5,3.71,29,46,0,0
2.738e+05,1.3579e+08,2,6058,6128,14.5,3.67,29,47,0,0
2.7429e+05,1.359e+08,2,6115,5871,14.5,3.64,29,47,0,0
2.7473e+05,1.3601e+08,2,5871,5885,14.5,3.69,29,47,0,0
2.7518e+05,1.3613e+08,2,5890,5971,14.49,3.74,29,47,0,0
2.7563e+05,1.3624e+08,2,5929,5500,14.56,2.91,29,47,0,0
2.7603e+05,1.3634e+08,2,5504,5557,14.47,3.29,29,47,0,0
2.7648e+05,1.3645e+08,2,5575,5842,14.52,3.56,29,47,0,0
2.7692e+05,1.3656e+08,2,5844,5871,14.51,3.44,29,47,0,0
2.7736e+05,1.3667e+08,2,5869,5828,14.48,3.44,29,47,0,0
2.7781e+05,1.3678e+08,2,5823,5700,14.48,3.5,29,47,0,0
2.7826e+05,1.3689e+08,2,5703,5785,14.44,3.41,29,48,0,0
2.787e+05,1.37e+08,2,5786,5814,14.49,3.46,29,48,0,0
2.7911e+05,1.371e+08,2,5811,5642,14.47,3.16,29,48,0,0
2.7959e+05,1.3722e+08,2,5639,5585,14.48,3.09,29,48,0,0
2.8004e+05,1.3733e+08,2,5576,5514,14.55,2.88,29,48,0,0
2.8044e+05,1.3743e+08,2,5515,5571,14.51,3.06,29,48,0,0
2.8089e+05,1.3754e+08,2,5570,5528,14.51,3.21,29,48,0,0
2.8135e+05,1.3766e+08,2,5546,5728,14.5,3.57,29,48,0,0
2.8175e+05,1.3776e+08,2,5730,5814,14.57,3.1,29,48,0,0
2.822e+05,1.3787e+08,2,5800,5628,14.57,2.55,29,48,0,0
2.8261e+05,1.3797e+08,2,5626,5557,14.54,2.86,29,49,0,0
2.831e+05,1.3809e+08,2,5557,5571,14.54,2.78,29,49,0,0
2.8355e+05,1.382e+08,2,5575,5642,14.5,2.65,29,49,0,0
2.8399e+05,1.3831e+08,2,5644,5671,14.55,2.81,29,49,0,0
2.844e+05,1.3841e+08,2,5657,5500,14.55,2.83,29,49,0,0
2.8484e+05,1.3852e+08,2,5506,5571,14.51,2.76,29,49,0,0
2.8524e+05,1.3862e+08,2,5570,5557,14.51,2.5,29,49,0,0
2.8573e+05,1.3873e+08,2,5559,5614,14.52,2.88,29,49,0,0
2.8619e+05,1.3885e+08,2,5603,5485,14.57,2.73,29,49,0,0
2.8659e+05,1.3896e+08,2,5499,5685,14.48,3.19,29,49,0,0
2.8704e+05,1.3906e+08,2,5684,5671,14.44,3.2,29,49,0,0
2.8748e+05,1.3917e+08,2,5665,5600,14.5,3.36,29,49,0,0
2.8794e+05,1.3929e+08,2,5610,5714,14.47,3.25,29,50,0,0
2.8838e+05,1.3939e+08,2,5728,5871,14.51,3.59,29,50,0,0
2.8883e+05,1.395e+08,2,5872,5885,14.42,3.81,29,50,0,0
2.8923e+05,1.3961e+08,2,5887,5914,14.45,3.65,29,50,0,0
2.8971e+05,1.3972e+08,2,5914,5914,14.44,3.68,29,50,0,0
2.9012e+05,1.3982e+08,2,5919,5985,14.51,3.93,29,50,0,0
2.9056e+05,1.3994e+08,2,5989,6028,14.5,3.79,29,50,0,0
2.9097e+05,1.4004e+08,2,6022,5957,14.44,3.93,29,50,0,0
2.9142e+05,1.4015e+08,2,5957,5971,14.48,3.68,29,50,0,0
2.9184e+05,1.4026e+08,2,5968,5842,14.5,3.42,29,51,0,0
2.9228e+05,1.4036e+08,2,5843,5900,14.52,3.31,29,51,0,0
2.9277e+05,1.4048e+08,2,5892,5814,14.49,3.51,29,51,0,0
2.9321e+05,1.4059e+08,2,5807,5742,14.44,3.42,29,51,0,0
2.9366e+05,1.407e+08,2,5734,5657,14.49,3.57,29,51,0,0
2.9402e+05,1.4079e+08,2,5662,5900,14.5,3.56,29,51,0,0
2.9451e+05,1.4091e+08,2,5882,5714,14.48,3.31,29,51,0,0
2.9495e+05,1.4102e+08,2,5722,5800,14.5,2.9,29,51,0,0
2.9536e+05,1.4112e+08,2,5796,5557,14.51,2.87,29,51,0,0
2.9584e+05,1.4124e+08,2,5557,5557,14.49,2.91,29,51,0,0
2.9628e+05,1.4134e+08,2,5558,5585,14.51,3.27,29,52,0,0
2.9673e+05,1.4145e+08,2,5590,5642,14.6,2.7,29,52,0,0
2.9712e+05,1.4155e+08,2,5644,5685,14.57,2.76,29,52,0,0
2.9757e+05,1.4166e+08,2,5670,5328,14.6,2.2,29,52,0,0
2.9802e+05,1.4178e+08,2,5322,5271,14.61,2.02,29,52,0,0
2.9847e+05,1.4188e+08,2,5273,5300,14.61,2.51,29,52,0,0
2.9887e+05,1.4199e+08,2,5297,5242,14.52,2.53,29,52,0,0
2.9932e+05,1.4209e+08,2,5243,5271,14.55,2.34,29,52,0,0
2.9973e+05,1.422e+08,2,5267,5085,14.69,1.78,29,52,0,0
3.0022e+05,1.4231e+08,2,5072,4957,14.63,2.04,29,52,0,0
3.0066e+05,1.4243e+08,2,4963,5028,14.65,1.88,29,52,0,0
3.0111e+05,1.4253e+08,2,5023,4914,14.64,2.14,29,52,0,0
3.0155e+05,1.4264e+08,2,4930,5071,14.59,1.94,29,52,0,0
3.02e+05,1.4276e+08,2,5061,5000,14.61,2.13,29,52,0,0
3.024e+05,1.4285e+08,2,5004,5085,14.66,2.36,29,53,0,0
3.0285e+05,1.4297e+08,2,5100,5242,14.57,2.38,29,53,0,0
3.0326e+05,1.4307e+08,2,5248,5414,14.55,2.66,29,53,0,0
3.037e+05,1.4318e+08,2,5428,5614,14.55,2.7,29,53,0,0
3.0415e+05,1.4329e+08,2,5614,5614,14.58,2.66,29,53,0,0
3.046e+05,1.434e+08,2,5601,5471,14.57,2.46,29,53,0,0
3.0504e+05,1.4352e+08,2,5480,5571,14.51,2.61,29,53,0,0
3.0545e+05,1.4362e+08,2,5567,5528,14.54,2.66,29,53,0,0
3.059e+05,1.4373e+08,2,5541,5642,14.54,3.06,29,53,0,0
3.063e+05,1.4383e+08,2,5648,5714,14.49,2.92,29,53,0,0
3.0675e+05,1.4394e+08,2,5728,5842,14.52,3.19,29,53,0,0
3.0716e+05,1.4405e+08,2,5850,5914,14.49,3.25,29,53,0,0
3.0764e+05,1.4416e+08,2,5911,5885,14.5,3.24,29,54,0,0
3.0805e+05,1.4426e+08,2,5888,6157,14.55,3.36,29,54,0,0
3.0849e+05,1.4437e+08,2,6133,5885,14.5,3.45,29,54,0,0
3.0894e+05,1.4448e+08,2,5886,5900,14.52,3.06,29,54,0,0
3.0935e+05,1.4459e+08,2,5889,5771,14.51,3.08,29,54,0,0
3.098e+05,1.447e+08,2,5780,5885,14.53,3.26,29,54,0,0
3.102e+05,1.448e+08,2,5883,5757,14.54,3.18,29,54,0,0
3.1065e+05,1.4491e+08,2,5756,5742,14.5,2.78,29,54,0,0
3.111e+05,1.4502e+08,2,5737,5657,14.56,2.68,29,54,0,0
3.1162e+05,1.4515e+08,2,5669,5742,14.56,3.04,29,54,0,0
3.1199e+05,1.4524e+08,2,5743,5771,14.52,2.86,29,54,0,0
3.1243e+05,1.4535e+08,2,5763,5628,14.51,2.98,29,55,0,0
3.1284e+05,1.4545e+08,2,5629,5714,14.52,3.13,29,55,0,0
3.1332e+05,1.4557e+08,2,5711,5671,14.48,2.95,29,55,0,0
3.1377e+05,1.4567e+08,2,5671,5700,14.47,3.03,29,55,0,0
3.1422e+05,1.4578e+08,2,5703,5742,14.48,2.87,29,55,0,0
3.1466e+05,1.459e+08,2,5740,5728,14.49,3.03,29,55,0,0
3.151e+05,1.46e+08,2,5720,5571,14.52,2.92,29,55,0,0
3.1537e+05,1.4611e+08,2,5571,5571,14.53,2.87,29,55,0,0
3.1582e+05,1.4622e+08,2,5558,5385,14.5,2.44,29,55,0,0
3.1627e+05,1.4633e+08,2,5385,5428,14.55,3.21,29,55,0,0
3.1675e+05,1.4645e+08,2,5448,5657,14.52,3.48,29,55,0,0
3.172e+05,1.4656e+08,2,5662,5742,14.48,3.74,29,56,0,0
3.1765e+05,1.4667e+08,2,5753,5871,14.52,3.9,29,56,0,0
3.1805e+05,1.4677e+08,2,5873,5942,14.5,3.86,29,56,0,0
3.1854e+05,1.4688e+08,2,5931,5785,14.47,3.58,29,56,0,0
3.1898e+05,1.4699e+08,2,5781,5742,14.5,3.25,29,56,0,0
3.1939e+05,1.4709e+08,2,5724,5500,14.48,2.71,29,56,0,0
3.198e+05,1.472e+08,2,5501,5528,14.49,3.2,29,56,0,0
3.2029e+05,1.4732e+08,2,5533,5585,14.57,2.74,29,56,0,0
3.2069e+05,1.4742e+08,2,5572,5314,14.54,2.68,29,56,0,0
3.2114e+05,1.4753e+08,2,5319,5371,14.52,2.79,29,56,0,0
3.2159e+05,1.4764e+08,2,5379,5500,14.56,3.03,29,57,0,0
3.22e+05,1.4774e+08,2,5484,5271,14.51,2.29,29,57,0,0
3.2244e+05,1.4785e+08,2,5270,5214,14.54,2.87,29,57,0,0
3.2293e+05,1.4797e+08,2,5212,5200,14.52,2.42,29,57,0,0
3.2338e+05,1.4808e+08,2,5194,5142,14.55,2.46,29,57,0,0
3.2382e+05,1.4819e+08,2,5145,5200,14.51,2.38,29,57,0,0
3.2427e+05,1.483e+08,2,5195,5128,14.57,2.51,29,57,0,0
3.2472e+05,1.4841e+08,2,5128,5128,14.54,2.42,29,57,0,0
3.2516e+05,1.4852e+08,2,5131,5157,14.54,2.8,29,57,0,0
3.2561e+05,1.4863e+08,2,5180,5428,14.52,3.01,29,57,0,0
3.2607e+05,1.4874e+08,2,5425,5400,14.5,2.89,29,57,0,0
3.2647e+05,1.4884e+08,2,5415,5628,14.46,3.41,29,57,0,0
3.2687e+05,1.4895e+08,2,5626,5600,14.45,2.98,29,57,0,0
3.2732e+05,1.4906e+08,2,5599,5585,14.46,2.95,29,58,0,0
3.2777e+05,1.4917e+08,2,5583,5571,14.54,2.95,29,58,0,0
3.2822e+05,1.4928e+08,2,5572,5600,14.49,2.61,29,58,0,0
3.2866e+05,1.4939e+08,2,5593,5500,14.49,2.49,29,58,0,0
3.2911e+05,1.4949e+08,2,5500,5500,14.51,2.68,29,58,0,0
3.2955e+05,1.496e+08,2,5497,5457,14.51,2.66,29,58,0,0
3.3e+05,1.4971e+08,2,5458,5485,14.51,2.86,29,58,0,0
3.304e+05,1.4981e+08,2,5484,5471,14.47,2.53,29,58,0,0
3.3089e+05,1.4994e+08,2,5448,5200,14.52,2.41,29,58,0,0
3.3129e+05,1.5003e+08,2,5200,5228,14.5,2.49,29,58,0,0
3.3174e+05,1.5015e+08,2,5238,5514,14.5,3.37,29,58,0,0
3.3218e+05,1.5025e+08,2,5520,5928,14.5,3.7,29,59,0,0
3.3263e+05,1.5036e+08,2,5929,5957,14.47,3.57,29,59,0,0
3.3308e+05,1.5047e+08,2,5957,5971,14.51,3.72,29,59,0,0
3.3348e+05,1.5058e+08,2,5967,5885,14.49,3.76,29,59,0,0
3.3393e+05,1.5069e+08,2,5887,6057,14.45,3.84,29,59,0,0
3.3437e+05,1.508e+08,2,6057,6071,14.48,3.97,29,59,0,0
3.3483e+05,1.5091e+08,2,6066,6028,14.42,3.95,29,59,0,0
3.3531e+05,1.5103e+08,2,6033,6071,14.44,3.77,29,59,0,0
3.3572e+05,1.5113e+08,2,6062,5971,14.54,3.5,29,59,0,0
3.3616e+05,1.5124e+08,2,5964,5885,14.54,3.06,29,60,0,0
3.3661e+05,1.5135e+08,2,5876,5785,14.61,2.86,29,60,0,0
3.3702e+05,1.5145e+08,2,5766,5571,14.66,2.29,29,60,0,0
3.3746e+05,1.5156e+08,2,5555,5414,14.66,2.2,29,60,0,0
3.3836e+05,1.5179e+08,2,5406,5285,14.61,2.5,29,60,0,0
3.3881e+05,1.5189e+08,2,5303,5500,14.57,2.32,29,60,0,0
3.3921e+05,1.5199e+08,2,5494,5371,14.6,2.2,29,60,0,0
3.3966e+05,1.521e+08,2,5371,5371,14.62,2.03,29,60,0,0
3.401e+05,1.5221e+08,2,5364,5285,14.59,2.04,29,60,0,0
3.4055e+05,1.5232e+08,2,5303,5428,14.64,2.19,29,60,0,0
3.4099e+05,1.5243e+08,2,5420,5342,14.6,2.18,29,60,0,0
3.4144e+05,1.5254e+08,2,5353,5457,14.54,2.42,29,60,0,0
3.4188e+05,1.5265e+08,2,5472,5642,14.62,2.96,29,60,0,0
3.4232e+05,1.5276e+08,2,5643,5657,14.57,2.5,29,61,0,0
3.4278e+05,1.5287e+08,2,5671,5814,14.56,2.84,29,61,0,0
3.4318e+05,1.5297e+08,2,5818,5871,14.54,2.82,29,61,0,0
3.4359e+05,1.5308e+08,2,5880,6071,14.58,2.94,29,61,0,0
3.4453e+05,1.5331e+08,2,6075,6171,14.55,2.85,29,61,0,0
3.4497e+05,1.5341e+08,2,6144,5871,14.6,2.78,29,61,0,0
3.4537e+05,1.535e+08,2,5875,6057,14.56,3.31,29,61,0,0
3.4582e+05,1.5362e+08,2,6053,5985,14.58,2.9,29,61,0,0
3.4628e+05,1.5374e+08,2,5991,6057,14.58,2.9,29,61,0,0
3.4667e+05,1.5383e+08,2,6048,5914,14.53,2.96,29,61,0,0
3.4712e+05,1.5394e+08,2,5910,5742,14.57,2.94,29,62,0,0
3.4758e+05,1.5405e+08,2,5752,5885,14.58,2.85,29,62,0,0
3.4802e+05,1.5416e+08,2,5883,5871,14.55,2.97,29,62,0,0
3.4847e+05,1.5427e+08,2,5866,5771,14.56,2.77,29,62,0,0
3.4892e+05,1.5438e+08,2,5777,5857,14.57,3.05,29,62,0,0
3.4932e+05,1.5448e+08,2,5855,5785,14.6,2.75,29,62,0,0
3.4981e+05,1.546e+08,2,5779,5714,14.53,3.02,29,62,0,0
3.5026e+05,1.5471e+08,2,5721,5800,14.57,2.66,29,62,0,0
3.5066e+05,1.5481e+08,2,5800,5842,14.55,3.11,29,62,0,0
3.5114e+05,1.5493e+08,2,5854,5971,14.54,2.95,29,62,0,0
3.5155e+05,1.5503e+08,2,5968,5871,14.55,2.98,29,62,0,0
3.5204e+05,1.5515e+08,2,5885,6014,14.58,3.32,29,63,0,0
3.5245e+05,1.5525e+08,2,6010,5942,14.58,2.94,29,63,0,0
3.5289e+05,1.5536e+08,2,5942,5957,14.54,3.35,29,63,0,0
3.533e+05,1.5546e+08,2,5957,5971,14.54,3.24,29,63,0,0
3.5375e+05,1.5557e+08,2,5974,6057,14.58,3.46,29,63,0,0
3.542e+05,1.5568e+08,2,6056,6028,14.54,3.21,29,63,0,0
3.5464e+05,1.5579e+08,2,6033,6114,14.5,3.4,29,63,0,0
3.5509e+05,1.559e+08,2,6116,6171,14.48,3.79,29,63,0,0
3.5553e+05,1.56e+08,2,6176,6300,14.44,3.65,29,63,0,0
3.5602e+05,1.5612e+08,2,6298,6285,14.45,3.77,29,63,0,0
3.5643e+05,1.5622e+08,2,6288,6342,14.44,3.76,29,64,0,0
3.5688e+05,1.5634e+08,2,6324,6228,14.46,3.95,29,64,0,0
3.5732e+05,1.5644e+08,2,6231,6271,14.49,3.81,29,64,0,0
3.5778e+05,1.5656e+08,2,6272,6285,14.44,4.11,29,64,0,0
3.5818e+05,1.5665e+08,2,6285,6285,14.46,3.86,29,64,0,0
3.5863e+05,1.5677e+08,2,6279,6114,14.51,3.53,29,64,0,0
3.5912e+05,1.5688e+08,2,6093,5885,14.53,3.22,29,64,0,0
3.5952e+05,1.5699e+08,2,5880,5842,14.58,3.16,29,64,0,0
3.5997e+05,1.5709e+08,2,5833,5742,14.56,3.09,29,64,0,0
3.6041e+05,1.572e+08,2,5764,6000,14.53,3.14,29,64,0,0
3.6086e+05,1.5731e+08,2,5976,5728,14.52,3.19,29,65,0,0
3.613e+05,1.5742e+08,2,5736,5857,14.49,3.29,29,65,0,0
3.6175e+05,1.5753e+08,2,5858,5942,14.51,3.14,29,65,0,0
3.6219e+05,1.5764e+08,2,5944,5971,14.5,3.36,29,65,0,0
3.6264e+05,1.5775e+08,2,5971,5971,14.57,3.48,29,65,0,0
3.6309e+05,1.5785e+08,2,5977,6071,14.48,3.49,29,65,0,0
3.6353e+05,1.5796e+08,2,6067,6028,14.5,3.63,29,65,0,0
3.6398e+05,1.5807e+08,2,6030,6071,14.45,3.78,29,65,0,0
3.6438e+05,1.5817e+08,2,6069,6028,14.51,3.63,29,65,0,0
3.6487e+05,1.5829e+08,2,6030,6057,14.52,3.74,29,66,0,0
3.6527e+05,1.5839e+08,2,6060,6300,14.52,4.03,29,66,0,0
3.6576e+05,1.5851e+08,2,6292,6214,14.52,4.18,29,66,0,0
3.6616e+05,1.5861e+08,2,6211,6114,14.49,4.1,29,66,0,0
3.6666e+05,1.5873e+08,2,6129,6271,14.51,4.01,29,66,0,0
3.6706e+05,1.5883e+08,2,6261,6085,14.51,4.07,29,66,0,0
3.6751e+05,1.5895e+08,2,6086,6214,14.49,3.97,29,66,0,0
3.68e+05,1.5906e+08,2,6218,6257,14.56,3.74,29,66,0,0
3.6844e+05,1.5917e+08,2,6241,6042,14.5,3.75,29,67,0,0
3.6884e+05,1.5927e+08,2,6041,6028,14.57,3.77,29,67,0,0
3.693e+05,1.5939e+08,2,6022,5971,14.54,3.72,29,67,0,0
3.6974e+05,1.5949e+08,2,5980,6100,14.48,3.75,29,67,0,0
3.7019e+05,1.596e+08,2,6089,5985,14.45,3.86,29,67,0,0
3.7063e+05,1.5971e+08,2,5987,6100,14.46,4.04,29,67,0,0
3.7108e+05,1.5982e+08,2,6104,6214,14.44,4.34,29,67,0,0
3.7153e+05,1.5993e+08,2,6226,6328,14.44,4.14,29,67,0,0
3.7198e+05,1.6004e+08,2,6318,6200,14.47,3.82,29,67,0,0
3.7242e+05,1.6015e+08,2,6207,6271,14.48,3.84,29,68,0,0
3.7287e+05,1.6026e+08,2,6256,6157,14.46,4.03,29,68,0,0
3.7331e+05,1.6037e+08,2,6154,6114,14.54,3.86,29,68,0,0
3.7376e+05,1.6047e+08,2,6119,6214,14.48,3.94,29,68,0,0
3.7421e+05,1.6059e+08,2,6199,6057,14.48,3.84,29,68,0,0
3.7466e+05,1.6069e+08,2,6061,6100,14.51,3.9,29,68,0,0
3.751e+05,1.608e+08,2,6095,6057,14.55,3.88,29,68,0,0
3.7554e+05,1.6091e+08,2,6061,6114,14.5,3.84,29,68,0,0
3.7595e+05,1.6101e+08,2,6111,5885,14.48,3.85,29,69,0,0
3.764e+05,1.6112e+08,2,5887,6085,14.49,4.17,29,69,0,0
3.7684e+05,1.6123e+08,2,6085,6100,14.49,4.18,29,69,0,0
3.7732e+05,1.6135e+08,2,6097,6042,14.47,4.32,29,69,0,0
3.7777e+05,1.6146e+08,2,6049,6157,14.5,4.52,29,69,0,0
3.7821e+05,1.6156e+08,2,6159,6257,14.47,4.47,29,69,0,0
3.7867e+05,1.6167e+08,2,6259,6300,14.48,4.49,29,69,0,0
3.7907e+05,1.6178e+08,2,6299,6242,14.51,4.23,29,70,0,0
3.809e+05,1.6222e+08,2,6234,5885,14.59,3.39,29,70,0,0
3.8135e+05,1.6234e+08,2,5861,5700,14.55,3.47,29,70,0,0
3.8175e+05,1.6244e+08,2,5695,5600,14.58,2.84,29,70,0,0
3.8261e+05,1.6265e+08,2,5599,5528,14.58,3.17,29,70,0,0
3.8309e+05,1.6277e+08,2,5539,5657,14.55,3.15,29,70,0,0
3.8354e+05,1.6288e+08,2,5588,4657,14.85,0.7,29,71,0,0
3.8399e+05,1.6299e+08,2,4688,5028,14.72,2.73,29,71,0,0
3.8484e+05,1.632e+08,2,4996,4114,14.81,1.14,29,71,0,0
3.8529e+05,1.6331e+08,2,4107,3657,14.91,0.74,29,71,0,0
3.8573e+05,1.6342e+08,2,3629,3085,14.98,0.29,29,71,0,0
3.8618e+05,1.6353e+08,2,3071,2814,14.96,0.37,29,71,0,0
3.869e+05,1.6374e+08,2,2782,2757,14.97,0.44,29,71,0,0
3.8735e+05,1.6385e+08,2,2753,2714,14.97,0.4,29,71,0,0
3.8784e+05,1.6397e+08,2,2718,2771,14.98,0.45,29,71,0,0
3.8824e+05,1.6406e+08,2,2771,2771,14.97,0.46,29,71,0,0
3.8868e+05,1.6417e+08,2,2770,2757,14.97,0.45,29,71,0,0
3.8918e+05,1.6429e+08,2,2757,2757,14.96,0.47,29,71,0,0
3.8957e+05,1.6439e+08,2,2757,2814,14.98,0.43,29,71,0,0
3.9002e+05,1.645e+08,2,2810,2771,14.96,0.48,29,71,0,0
3.9051e+05,1.6462e+08,2,2768,2742,14.97,0.43,29,71,0,0
3.9092e+05,1.6472e+08,2,2742,2771,15,0.48,29,71,0,0
3.9141e+05,1.6484e+08,2,2772,2785,14.96,0.48,29,71,0,0
3.9185e+05,1.6494e+08,2,2782,2757,14.98,0.44,29,71,0,0
3.923e+05,1.6505e+08,2,2758,2785,14.98,0.41,29,71,0,0
3.927e+05,1.6515e+08,2,2775,2600,15.07,0.17,29,71,0,0
3.9315e+05,1.6526e+08,2,2558,1757,15.04,0,29,71,0,0
3.9364e+05,1.6537e+08,2,1730,1357,15.04,0.01,29,71,0,0
3.9408e+05,1.6548e+08,2,1350,1271,15.04,0.08,29,71,0,0
3.9453e+05,1.6559e+08,2,1268,1242,15.03,0.09,29,71,0,0
3.9498e+05,1.657e+08,2,1242,1242,15.04,0.1,29,71,0,0
3.9542e+05,1.6581e+08,2,1242,1242,15.04,0.1,29,71,0,0
3.9592e+05,1.6592e+08,2,1242,1242,15.04,0.1,29,71,0,0
3.9636e+05,1.6603e+08,2,1242,1242,15.04,0.1,29,71,0,0
3.9681e+05,1.6614e+08,2,1242,1242,15.04,0.1,29,71,0,0
3.9766e+05,1.6635e+08,2,1242,1242,15.04,0.1,29,71,0,0
3.9818e+05,1.6646e+08,2,1243,1257,15.05,0.1,29,71,0,0
3.9859e+05,1.6657e+08,2,1255,1242,15.04,0.1,29,71,0,0
3.9904e+05,1.6667e+08,2,1242,1242,15.05,0.1,29,71,0,0
3.9948e+05,1.6678e+08,2,1243,1257,15.05,0.1,29,71,0,0
3.9993e+05,1.6689e+08,2,1255,1242,15.06,0.1,29,71,0,0
4.0038e+05,1.67e+08,2,1242,1242,15.06,0.1,29,71,0,0
4.0131e+05,1.6722e+08,2,1242,1242,15.06,0.1,29,71,0,0
4.0176e+05,1.6733e+08,2,1242,1242,15.06,0.1,29,71,0,0
4.0221e+05,1.6743e+08,2,1242,1242,15.06,0.1,29,71,0,0
4.0266e+05,1.6754e+08,2,1242,1242,15.07,0.1,29,71,0,0
4.031e+05,1.6765e+08,2,1242,1242,15.06,0.1,29,71,0,0
4.0355e+05,1.6776e+08,2,1242,1242,15.07,0.1,29,71,0,0
4.0396e+05,1.6786e+08,2,1242,1257,15.07,0.1,29,71,0,0
4.0444e+05,1.6797e+08,2,1256,1242,15.07,0.1,29,71,0,0
4.0493e+05,1.6808e+08,2,1242,1242,15.07,0.1,28,71,0,0
4.0534e+05,1.6818e+08,2,1242,1242,15.08,0.1,29,71,0,0
4.0578e+05,1.6829e+08,2,1242,1242,15.07,0.1,29,71,0,0
4.0623e+05,1.684e+08,2,1242,1242,15.08,0.1,29,71,0,0
4.0713e+05,1.6862e+08,2,1242,1242,15.07,0.1,29,71,0,0
4.0761e+05,1.6874e+08,2,1242,1242,15.08,0.1,28,71,0,0
4.0806e+05,1.6885e+08,2,1242,1242,15.08,0.1,29,71,0,0
4.0847e+05,1.6895e+08,2,1242,1242,15.08,0.1,28,71,0,0
4.0896e+05,1.6906e+08,2,1242,1242,15.08,0.1,29,71,0,0
4.094e+05,1.6917e+08,2,1242,1242,15.08,0.1,28,71,0,0
4.0989e+05,1.6929e+08,2,1242,1242,15.08,0.1,29,71,0,0
4.103e+05,1.6939e+08,2,1242,1242,15.09,0.1,28,71,0,0
4.1075e+05,1.695e+08,2,1242,1242,15.08,0.1,28,71,0,0
4.1119e+05,1.696e+08,2,1242,1242,15.08,0.1,29,71,0,0
4.1167e+05,1.6971e+08,2,1242,1242,15.08,0.11,29,71,0,0
4.1212e+05,1.6982e+08,2,1242,1242,15.09,0.11,28,71,0,0
4.1257e+05,1.6993e+08,2,1242,1242,15.08,0.1,28,71,0,0
4.1302e+05,1.7004e+08,2,1242,1242,15.1,0.11,28,71,0,0
4.1346e+05,1.7015e+08,2,1242,1242,15.09,0.11,29,71,0,0
4.139e+05,1.7025e+08,2,1242,1242,15.1,0.11,28,71,0,0
4.1436e+05,1.7035e+08,2,1242,1242,15.1,0.1,28,71,0,0
4.148e+05,1.7046e+08,2,1242,1257,15.1,0.1,28,71,0,0
4.1529e+05,1.7058e+08,2,1257,1257,15.1,0.11,28,71,0,0
4.157e+05,1.7068e+08,2,1255,1228,15.1,0.1,28,71,0,0
4.1618e+05,1.7079e+08,2,1229,1242,15.11,0.1,28,71,0,0
4.1659e+05,1.7089e+08,2,1242,1242,15.1,0.11,28,71,0,0
4.1699e+05,1.7101e+08,2,1241,1228,15.1,0.11,28,71,0,0
4.1744e+05,1.7111e+08,2,1228,1228,15.1,0.11,28,71,0,0
4.1793e+05,1.7123e+08,2,1228,1242,15.11,0.1,28,71,0,0
4.1834e+05,1.7133e+08,2,1242,1242,15.1,0.1,28,71,0,0
4.1879e+05,1.7144e+08,2,1242,1242,15.1,0.1,28,71,0,0
4.1926e+05,1.7155e+08,2,1242,1242,15.11,0.1,28,71,0,0
4.1972e+05,1.7166e+08,2,1242,1242,15.1,0.1,28,71,0,0
4.2016e+05,1.7177e+08,2,1242,1242,15.12,0.1,28,71,0,0
4.2065e+05,1.7188e+08,2,1240,1228,15.11,0.11,28,71,0,0
4.2105e+05,1.7198e+08,2,1228,1228,15.11,0.11,28,71,0,0
4.215e+05,1.7209e+08,2,1228,1242,15.11,0.1,28,71,0,0
4.2195e+05,1.722e+08,2,1242,1242,15.11,0.1,28,71,0,0
4.224e+05,1.7231e+08,2,1242,1242,15.11,0.11,28,71,0,0
4.2333e+05,1.7254e+08,2,1242,1242,15.11,0.11,28,71,0,0
4.2373e+05,1.7263e+08,2,1242,1242,15.11,0.11,28,71,0,0
4.2417e+05,1.7274e+08,2,1242,1242,15.11,0.11,28,71,0,0
4.2466e+05,1.7286e+08,2,1242,1242,15.11,0.11,28,71,0,0
4.2507e+05,1.7296e+08,2,1242,1242,15.12,0.11,28,71,0,0
4.2556e+05,1.7307e+08,2,1242,1242,15.12,0.1,28,71,0,0
4.2597e+05,1.7318e+08,2,1242,1242,15.11,0.1,28,71,0,0
4.2641e+05,1.7328e+08,2,1242,1242,15.12,0.1,28,71,0,0
4.2686e+05,1.7339e+08,2,1242,1257,15.12,0.1,28,71,0,0
4.2731e+05,1.7349e+08,2,1257,1257,15.12,0.1,28,71,0,0
4.2775e+05,1.736e+08,2,1256,1242,15.12,0.11,28,71,0,0
4.282e+05,1.7371e+08,2,1242,1242,15.12,0.11,28,71,0,0
4.2912e+05,1.7393e+08,2,1242,1242,15.12,0.11,28,71,0,0
4.2958e+05,1.7404e+08,2,1242,1242,15.12,0.11,28,71,0,0
4.3002e+05,1.7415e+08,2,1242,1242,15.13,0.11,28,71,0,0
4.3051e+05,1.7426e+08,2,1242,1242,15.13,0.11,28,71,0,0
4.3091e+05,1.7436e+08,2,1242,1242,15.12,0.11,28,71,0,0
4.3136e+05,1.7447e+08,2,1242,1242,15.13,0.11,28,71,0,0
4.3181e+05,1.7457e+08,2,1242,1242,15.13,0.11,28,71,0,0
4.3229e+05,1.7469e+08,2,1242,1242,15.13,0.11,28,71,0,0
4.327e+05,1.7479e+08,2,1242,1242,15.13,0.11,28,71,0,0
4.3318e+05,1.749e+08,2,1242,1257,15.13,0.1,28,71,0,0
4.3363e+05,1.75e+08,2,1256,1242,15.13,0.11,28,71,0,0
4.3409e+05,1.7512e+08,2,1242,1242,15.13,0.11,28,71,0,0
4.3454e+05,1.7522e+08,2,1209,414,15.14,0,28,71,0,0
4.35e+05,1.7534e+08,2,391,171,15.14,0.04,28,71,0,0
4.3545e+05,1.7544e+08,2,163,0,15.14,0.04,28,71,0,0
4.3635e+05,1.7565e+08,2,0,0,15.14,0.04,28,71,0,0
4.3684e+05,1.7577e+08,2,0,0,15.15,0.04,28,71,0,0
4.3734e+05,1.7588e+08,2,0,0,15.15,0.04,28,71,0,0
4.3779e+05,1.7599e+08,2,0,0,15.15,0.04,28,71,0,0
4.3825e+05,1.7609e+08,2,0,0,15.15,0.04,28,71,0,0
4.387e+05,1.762e+08,2,0,0,15.15,0.04,28,71,0,0
4.3921e+05,1.7633e+08,2,0,0,15.16,0.04,28,71,0,0
4.3958e+05,1.7642e+08,2,0,0,15.15,0.04,28,71,0,0
4.4003e+05,1.7652e+08,2,0,0,15.16,0.04,28,71,0,0
4.4052e+05,1.7664e+08,2,0,0,15.16,0.04,28,71,0,0
4.4093e+05,1.7674e+08,2,0,0,15.16,0.04,28,71,0,0
4.4143e+05,1.7686e+08,2,0,0,15.16,0.04,28,71,0,0
4.4184e+05,1.7696e+08,2,0,0,15.15,0.04,28,71,0,0
4.4226e+05,1.7706e+08,2,0,0,15.16,0.04,28,71,0,0
4.4275e+05,1.7718e+08,2,0,0,15.16,0.04,28,71,0,0
4.432e+05,1.7728e+08,2,0,0,15.16,0.04,28,71,0,0
4.4365e+05,1.7739e+08,2,0,0,15.16,0.04,28,71,0,0
4.4415e+05,1.775e+08,2,0,0,15.16,0.04,28,71,0,0
4.4455e+05,1.776e+08,2,0,0,15.16,0.04,28,71,0,0
4.4505e+05,1.7771e+08,2,0,0,15.16,0.04,28,71,0,0
4.4546e+05,1.7782e+08,2,0,0,15.16,0.04,28,71,0,0
4.4595e+05,1.7794e+08,2,0,0,15.17,0.04,28,71,0,0
4.464e+05,1.7804e+08,2,0,0,15.16,0.04,28,71,0,0
4.4685e+05,1.7815e+08,2,0,0,15.16,0.04,28,71,0,0
4.4731e+05,1.7826e+08,2,0,0,15.16,0.04,28,71,0,0
4.4776e+05,1.7837e+08,2,0,0,15.16,0.04,28,71,0,0
4.4867e+05,1.7858e+08,2,0,0,15.17,0.04,28,71,0,0
4.4916e+05,1.787e+08,2,0,0,15.16,0.04,28,71,0,0
4.4962e+05,1.7881e+08,2,0,0,15.17,0.04,28,71,0,0
4.5007e+05,1.7891e+08,2,0,0,15.17,0.04,28,71,0,0
4.5052e+05,1.7902e+08,2,0,0,15.17,0.04,28,71,0,0
4.5101e+05,1.7914e+08,2,0,0,15.17,0.04,27,71,0,0
4.5146e+05,1.7924e+08,2,0,0,15.17,0.04,27,71,0,0
4.5191e+05,1.7935e+08,2,0,0,15.16,0.04,28,71,0,0
4.5241e+05,1.7947e+08,2,0,0,15.17,0.04,27,71,0,0
4.5282e+05,1.7957e+08,2,0,0,15.17,0.04,27,71,0,0
4.5332e+05,1.7968e+08,2,0,0,15.17,0.04,28,71,0,0
4.5376e+05,1.7979e+08,2,0,0,15.17,0.04,28,71,0,0
4.5426e+05,1.799e+08,2,0,0,15.17,0.04,28,71,0,0
4.5471e+05,1.8001e+08,2,0,0,15.17,0.04,28,71,0,0
4.5516e+05,1.8011e+08,2,0,0,15.17,0.04,27,71,0,0
4.5562e+05,1.8022e+08,2,0,0,15.17,0.04,27,71,0,0
4.5607e+05,1.8033e+08,2,0,0,15.17,0.04,28,71,0,0
4.5652e+05,1.8044e+08,2,0,0,15.17,0.04,28,71,0,0
4.5698e+05,1.8055e+08,2,0,0,15.17,0.04,28,71,0,0
4.5743e+05,1.8066e+08,2,0,0,15.18,0.04,28,71,0,0
4.5789e+05,1.8077e+08,2,0,0,15.17,0.04,28,71,0,0
4.5834e+05,1.8088e+08,2,0,0,15.17,0.04,28,71,0,0
4.588e+05,1.8099e+08,2,0,0,15.17,0.04,27,71,0,0
4.5925e+05,1.8109e+08,2,0,0,15.18,0.04,28,71,0,0
4.597e+05,1.812e+08,2,0,0,15.17,0.04,28,71,0,0
4.6016e+05,1.8131e+08,2,0,0,15.18,0.04,27,71,0,0
4.6062e+05,1.8142e+08,2,0,0,15.18,0.04,28,71,0,0
4.6107e+05,1.8153e+08,2,0,0,15.17,0.04,28,71,0,0
4.6157e+05,1.8165e+08,2,0,0,15.18,0.04,28,71,0,0
4.6201e+05,1.8175e+08,2,0,0,15.18,0.04,28,71,0,0
4.6247e+05,1.8186e+08,2,0,0,15.18,0.04,27,71,0,0
4.6296e+05,1.8197e+08,2,0,0,15.18,0.04,27,71,0,0
4.6341e+05,1.8208e+08,2,0,0,15.19,0.04,27,71,0,0
4.6387e+05,1.8219e+08,2,0,0,15.18,0.04,27,71,0,0
4.6477e+05,1.824e+08,2,0,0,15.18,0.04,27,71,0,0
4.6522e+05,1.8252e+08,2,0,0,15.18,0.04,27,71,0,0
4.6568e+05,1.8263e+08,2,0,0,15.18,0.04,28,71,0,0
4.6613e+05,1.8273e+08,2,0,0,15.19,0.04,27,71,0,0
4.6704e+05,1.8295e+08,2,0,0,15.18,0.04,28,71,0,0
