LineNo,TimeUS,Instance,RPM,RawRPM,Volt,Curr,Temp,CTot,MotTemp,Err
1640,5.6241e+07,0,0,0,15.48,0.04,30,0,0,0
2052,5.6347e+07,0,0,0,15.48,0.04,30,0,0,0
2471,5.6455e+07,0,0,0,15.47,0.04,30,0,0,0
2885,5.6561e+07,0,0,0,15.47,0.04,30,0,0,0
3339,5.6676e+07,0,0,0,15.48,0.04,30,0,0,0
3750,5.6778e+07,0,0,0,15.47,0.04,30,0,0,0
4161,5.6883e+07,0,0,0,15.48,0.04,30,0,0,0
4612,5.6998e+07,0,0,0,15.48,0.04,30,0,0,0
5018,5.7101e+07,0,0,0,15.48,0.04,30,0,0,0
5430,5.7206e+07,0,0,0,15.48,0.04,30,0,0,0
5886,5.7321e+07,0,0,0,15.48,0.04,30,0,0,0
6301,5.7424e+07,0,0,0,15.48,0.04,30,0,0,0
6757,5.7537e+07,0,0,0,15.47,0.04,30,0,0,0
7174,5.7642e+07,0,0,0,15.48,0.04,30,0,0,0
7597,5.7752e+07,0,0,0,15.48,0.04,30,0,0,0
8012,5.7855e+07,0,0,0,15.47,0.04,30,0,0,0
8431,5.7963e+07,0,0,0,15.47,0.04,30,0,0,0
8883,5.8078e+07,0,0,0,15.47,0.04,30,0,0,0
9294,5.8182e+07,0,0,0,15.47,0.04,30,0,0,0
10115,5.8392e+07,0,0,0,15.47,0.04,30,0,0,0
10532,5.85e+07,0,0,0,15.47,0.04,30,0,0,0
10817,5.8606e+07,0,0,0,15.47,0.04,30,0,0,0
11273,5.8718e+07,0,0,0,15.48,0.04,30,0,0,0
11686,5.8824e+07,0,0,0,15.48,0.04,30,0,0,0
12112,5.8938e+07,0,0,0,15.47,0.04,30,0,0,0
12521,5.9038e+07,0,0,0,15.48,0.04,30,0,0,0
12972,5.9152e+07,0,0,0,15.47,0.04,30,0,0,0
13387,5.9258e+07,0,0,0,15.47,0.04,30,0,0,0
13799,5.9363e+07,0,0,0,15.47,0.04,30,0,0,0
14254,5.9477e+07,0,0,0,15.47,0.04,30,0,0,0
14666,5.9579e+07,0,0,0,15.47,0.04,30,0,0,0
15119,5.9694e+07,0,0,0,15.48,0.04,30,0,0,0
15531,5.9798e+07,0,0,0,15.48,0.05,30,0,0,0
15949,5.9907e+07,0,0,0,15.48,0.05,30,0,0,0
16402,6.0022e+07,0,0,0,15.48,0.04,30,0,0,0
16817,6.0124e+07,0,0,0,15.48,0.04,30,0,0,0
17238,6.0237e+07,0,0,0,15.47,0.05,30,0,0,0
17686,6.0351e+07,0,0,0,15.48,0.05,30,0,0,0
18093,6.0453e+07,0,0,0,15.47,0.05,30,0,0,0
18511,6.0561e+07,0,0,0,15.48,0.04,30,0,0,0
18926,6.0668e+07,0,0,0,15.47,0.04,30,0,0,0
19345,6.0773e+07,0,0,0,15.47,0.04,30,0,0,0
19755,6.0879e+07,0,0,0,15.47,0.04,30,0,0,0
20211,6.0995e+07,0,0,0,15.48,0.04,30,0,0,0
20621,6.11e+07,0,0,0,15.47,0.04,30,0,0,0
20961,6.1203e+07,0,0,0,15.47,0.04,30,0,0,0
54664,8.1868e+07,0,0,0,15.48,0.04,30,0,0,0
54832,8.1908e+07,0,0,0,15.48,0.04,30,0,0,0
55269,8.2009e+07,0,0,0,15.47,0.04,30,0,0,0
55770,8.2121e+07,0,0,0,15.48,0.04,30,0,0,0
56193,8.2229e+07,0,0,0,15.47,0.04,30,0,0,0
56680,8.2337e+07,0,0,0,15.47,0.04,30,0,0,0
57128,8.2438e+07,0,0,0,15.47,0.04,30,0,0,0
57624,8.2553e+07,0,0,0,15.47,0.04,30,0,0,0
58081,8.266e+07,0,0,0,15.48,0.05,30,0,0,0
58533,8.2766e+07,0,0,0,15.47,0.04,30,0,0,0
58990,8.2871e+07,0,0,0,15.48,0.04,30,0,0,0
59444,8.298e+07,0,0,0,15.47,0.04,30,0,0,0
59898,8.3084e+07,0,0,0,15.47,0.04,30,0,0,0
60383,8.3192e+07,0,0,0,15.47,0.04,30,0,0,0
60838,8.3298e+07,0,0,0,15.47,0.04,30,0,0,0
61338,8.3414e+07,0,0,0,15.47,0.05,30,0,0,0
61791,8.3517e+07,0,0,0,15.48,0.04,30,0,0,0
62245,8.3625e+07,0,0,0,15.48,0.04,30,0,0,0
63145,8.3833e+07,0,0,0,15.47,0.04,30,0,0,0
63640,8.3949e+07,0,0,0,15.47,0.03,30,0,0,0
64099,8.4054e+07,0,17,271,15.45,0.08,30,0,0,0
64508,8.4152e+07,0,279,728,15.44,0.13,30,0,0,0
65006,8.4265e+07,0,749,1085,15.44,0.16,30,0,0,0
65493,8.4376e+07,0,1089,1185,15.45,0.12,30,0,0,0
66441,8.4595e+07,0,1188,1257,15.45,0.11,30,0,0,0
66895,8.4698e+07,0,1257,1257,15.45,0.11,30,0,0,0
67390,8.4814e+07,0,1259,1300,15.45,0.15,30,0,0,0
68092,8.5021e+07,0,1608,2471,15.23,1.02,30,0,0,0
68552,8.5138e+07,0,2497,2900,15.34,1.62,30,0,0,0
68963,8.5235e+07,0,2906,3285,15.22,1.72,30,0,0,0
69455,8.5346e+07,0,3301,4042,15.1,2.13,30,0,0,0
69878,8.5461e+07,0,4107,4742,15,3.02,30,0,0,0
70328,8.5568e+07,0,4789,5271,14.88,3.57,30,0,0,0
70781,8.5671e+07,0,5278,5800,14.75,4.39,30,0,0,0
71235,8.5781e+07,0,5817,6185,14.76,4.41,30,0,0,0
71735,8.5897e+07,0,6190,6242,14.76,4.26,30,0,0,0
72185,8.6004e+07,0,6260,6442,14.76,4.57,30,1,0,0
72605,8.6106e+07,0,6441,6414,14.76,4.8,30,1,0,0
73098,8.6223e+07,0,6416,6471,14.79,4.52,30,1,0,0
73591,8.634e+07,0,6468,6442,14.83,4.57,30,1,0,0
74002,8.6438e+07,0,6438,6371,14.75,4.64,30,1,0,0
74948,8.6663e+07,0,6376,6542,14.76,4.84,30,1,0,0
75407,8.6777e+07,0,6521,6314,14.89,4.36,30,2,0,0
75860,8.6882e+07,0,6311,6285,14.84,4.36,30,2,0,0
76309,8.6992e+07,0,6281,6228,14.82,4.11,30,2,0,0
76766,8.7101e+07,0,6221,6157,14.77,4.41,30,2,0,0
77214,8.7208e+07,0,6157,6171,14.77,4.51,30,2,0,0
77666,8.7314e+07,0,6181,6328,14.78,4.5,30,2,0,0
78121,8.7427e+07,0,6343,6485,14.75,4.45,30,2,0,0
78564,8.7528e+07,0,6482,6371,14.77,4.7,30,2,0,0
79063,8.7646e+07,0,6371,6371,14.78,4.68,30,3,0,0
79963,8.7862e+07,0,6373,6428,14.8,4.45,30,3,0,0
80416,8.7971e+07,0,6425,6400,14.79,4.52,30,3,0,0
80872,8.8078e+07,0,6397,6342,14.77,4.23,30,3,0,0
81335,8.8194e+07,0,6342,6342,14.71,4.54,30,3,0,0
81781,8.83e+07,0,6344,6400,14.76,4.71,30,3,0,0
82226,8.8409e+07,0,6393,6314,14.79,4.08,30,4,0,0
82640,8.8516e+07,0,6310,6242,14.77,4.03,30,4,0,0
83083,8.8626e+07,0,6244,6300,14.73,4.66,30,4,0,0
83569,8.8744e+07,0,6290,6200,14.76,4.25,30,4,0,0
83976,8.8844e+07,0,6205,6257,14.78,4.38,30,4,0,0
84421,8.8954e+07,0,6253,6214,14.73,4.59,30,4,0,0
84872,8.9065e+07,0,6232,6428,14.71,4.91,30,4,0,0
85317,8.9178e+07,0,6437,6585,14.66,5.53,30,5,0,0
85763,8.9285e+07,0,6586,6600,14.71,5.11,30,5,0,0
86208,8.9395e+07,0,6597,6557,14.71,4.92,30,5,0,0
86658,8.9505e+07,0,6557,6557,14.67,4.69,30,5,0,0
87102,8.9615e+07,0,6544,6428,14.67,4.68,30,5,0,0
87506,8.9714e+07,0,6429,6485,14.72,4.84,30,5,0,0
87985,8.9829e+07,0,6489,6571,14.73,4.57,30,5,0,0
88440,8.9945e+07,0,6541,6342,14.81,4.13,30,6,0,0
88845,9.0041e+07,0,6342,6342,14.8,4.3,30,6,0,0
89293,9.0153e+07,0,6345,6428,14.73,4.4,30,6,0,0
89741,9.0262e+07,0,6407,6228,14.79,4.2,30,6,0,0
90141,9.0359e+07,0,6221,6100,14.75,4.13,30,6,0,0
90594,9.0471e+07,0,6103,6157,14.83,4,30,6,0,0
91043,9.0583e+07,0,6151,6071,14.84,3.9,30,6,0,0
91490,9.0689e+07,0,6067,6000,14.8,3.94,30,6,0,0
91941,9.08e+07,0,6006,6100,14.72,3.91,30,7,0,0
92394,9.0912e+07,0,6098,6085,14.78,4.09,30,7,0,0
92880,9.1026e+07,0,6098,6242,14.77,4.55,30,7,0,0
93325,9.1139e+07,0,6237,6200,14.83,4.3,30,7,0,0
93727,9.1237e+07,0,6202,6257,14.79,4.1,30,7,0,0
94585,9.1454e+07,0,6259,6385,14.78,4.49,31,7,0,0
95021,9.1558e+07,0,6383,6314,14.73,4.47,31,8,0,0
95477,9.1669e+07,0,6312,6271,14.7,4.44,31,8,0,0
95922,9.1777e+07,0,6272,6300,14.71,4.48,31,8,0,0
96377,9.1888e+07,0,6311,6428,14.73,4.44,31,8,0,0
96820,9.1995e+07,0,6431,6485,14.75,4.65,31,8,0,0
97268,9.2105e+07,0,6489,6585,14.7,4.56,31,8,0,0
97756,9.2225e+07,0,6574,6457,14.7,4.85,31,8,0,0
98166,9.2326e+07,0,6456,6400,14.71,4.91,31,8,0,0
98609,9.2437e+07,0,6403,6471,14.74,4.74,31,9,0,0
99055,9.2546e+07,0,6471,6471,14.66,5.08,31,9,0,0
99505,9.2656e+07,0,6478,6557,14.72,4.87,31,9,0,0
99946,9.2762e+07,0,6548,6428,14.76,4.8,31,9,0,0
1.0036e+05,9.2864e+07,0,6433,6542,14.71,4.88,31,9,0,0
1.0081e+05,9.2977e+07,0,6539,6500,14.72,5.01,31,9,0,0
1.0126e+05,9.3088e+07,0,6498,6485,14.73,4.81,31,10,0,0
1.0171e+05,9.3203e+07,0,6490,6557,14.67,4.56,31,10,0,0
1.0212e+05,9.3304e+07,0,6551,6428,14.66,4.7,31,10,0,0
1.0256e+05,9.3415e+07,0,6428,6428,14.67,4.83,31,10,0,0
1.0301e+05,9.3531e+07,0,6428,6428,14.72,4.68,31,10,0,0
1.0342e+05,9.3629e+07,0,6428,6471,14.72,4.8,31,10,0,0
1.039e+05,9.3749e+07,0,6469,6457,14.67,4.92,31,10,0,0
1.0436e+05,9.3859e+07,0,6454,6428,14.74,4.63,31,11,0,0
1.0476e+05,9.3961e+07,0,6428,6442,14.69,4.4,31,11,0,0
1.0525e+05,9.4076e+07,0,6438,6400,14.68,4.75,31,11,0,0
1.0566e+05,9.4181e+07,0,6402,6428,14.71,4.37,31,11,0,0
1.061e+05,9.4287e+07,0,6427,6414,14.68,4.57,31,11,0,0
1.065e+05,9.4388e+07,0,6414,6428,14.67,4.8,31,11,0,0
1.07e+05,9.4505e+07,0,6426,6414,14.66,4.98,31,11,0,0
1.0744e+05,9.4615e+07,0,6434,6657,14.76,4.68,31,11,0,0
1.0785e+05,9.4716e+07,0,6654,6442,14.66,4.66,31,12,0,0
1.083e+05,9.4828e+07,0,6439,6385,14.72,4.74,31,12,0,0
1.0876e+05,9.4951e+07,0,6408,6671,14.65,4.87,31,12,0,0
1.0916e+05,9.5045e+07,0,6660,6414,14.69,4.61,31,12,0,0
1.0961e+05,9.5158e+07,0,6430,6628,14.67,5.25,31,12,0,0
1.1005e+05,9.5268e+07,0,6617,6542,14.76,4.55,31,12,0,0
1.1046e+05,9.5375e+07,0,6543,6557,14.66,4.57,31,13,0,0
1.1136e+05,9.5597e+07,0,6554,6500,14.66,4.83,31,13,0,0
1.1177e+05,9.5696e+07,0,6501,6600,14.69,5.01,31,13,0,0
1.1225e+05,9.5811e+07,0,6591,6457,14.7,4.73,31,13,0,0
1.1275e+05,9.5931e+07,0,6457,6457,14.7,4.78,31,13,0,0
1.1315e+05,9.6035e+07,0,6459,6485,14.69,4.77,31,13,0,0
1.1359e+05,9.6144e+07,0,6481,6442,14.63,4.83,31,14,0,0
1.1445e+05,9.6356e+07,0,6440,6400,14.63,4.58,31,14,0,0
1.1494e+05,9.6476e+07,0,6387,6285,14.67,4.36,31,14,0,0
1.1534e+05,9.6575e+07,0,6284,6271,14.6,4.65,31,14,0,0
1.1579e+05,9.6682e+07,0,6278,6442,14.66,4.65,32,14,0,0
1.1619e+05,9.6784e+07,0,6442,6442,14.73,4.36,31,14,0,0
1.1668e+05,9.6902e+07,0,6438,6385,14.69,4.64,32,14,0,0
1.1713e+05,9.7014e+07,0,6386,6400,14.66,4.72,32,15,0,0
1.1758e+05,9.712e+07,0,6414,6557,14.63,4.64,32,15,0,0
1.1798e+05,9.7224e+07,0,6558,6628,14.7,4.97,32,15,0,0
1.1851e+05,9.7351e+07,0,6606,6371,14.76,4.16,32,15,0,0
1.1936e+05,9.7556e+07,0,6374,6457,14.72,5.04,32,15,0,0
1.1981e+05,9.7668e+07,0,6453,6414,14.57,5.06,32,16,0,0
1.2021e+05,9.7769e+07,0,6416,6471,14.73,4.8,32,16,0,0
1.2066e+05,9.7874e+07,0,6460,6242,14.75,4.69,32,16,0,0
1.211e+05,9.7987e+07,0,6239,6085,14.68,4.51,32,16,0,0
1.2159e+05,9.8102e+07,0,6082,6057,14.76,4.05,32,16,0,0
1.2199e+05,9.8202e+07,0,6059,6200,14.7,4.05,32,16,0,0
1.2244e+05,9.8311e+07,0,6202,6242,14.7,4.15,32,16,0,0
1.2289e+05,9.8425e+07,0,6235,6171,14.69,4.15,32,16,0,0
1.233e+05,9.8525e+07,0,6170,6142,14.71,4.51,32,17,0,0
1.2419e+05,9.875e+07,0,6146,6228,14.66,4.4,32,17,0,0
1.246e+05,9.8847e+07,0,6228,6242,14.64,4.46,32,17,0,0
1.2504e+05,9.8959e+07,0,6257,6457,14.66,4.55,32,17,0,0
1.2549e+05,9.9068e+07,0,6452,6385,14.69,4.71,32,17,0,0
1.2594e+05,9.9178e+07,0,6387,6428,14.69,4.93,32,17,0,0
1.2639e+05,9.9289e+07,0,6430,6485,14.67,4.73,32,18,0,0
1.2684e+05,9.9398e+07,0,6495,6628,14.66,4.87,32,18,0,0
1.2728e+05,9.9509e+07,0,6622,6542,14.59,5.11,32,18,0,0
1.2773e+05,9.9619e+07,0,6547,6614,14.6,5.25,32,18,0,0
1.2814e+05,9.9721e+07,0,6620,6757,14.64,5.27,32,18,0,0
1.2858e+05,9.9831e+07,0,6756,6742,14.6,5.25,32,18,0,0
1.2908e+05,9.9948e+07,0,6740,6728,14.63,4.97,32,19,0,0
1.2948e+05,1.0005e+08,0,6731,6771,14.6,4.79,32,19,0,0
1.2992e+05,1.0016e+08,0,6760,6628,14.58,4.81,32,19,0,0
1.3033e+05,1.0026e+08,0,6621,6371,14.61,4.81,32,19,0,0
1.3078e+05,1.0037e+08,0,6374,6428,14.67,4.4,32,19,0,0
1.3123e+05,1.0048e+08,0,6414,6285,14.67,4.37,32,19,0,0
1.3168e+05,1.0059e+08,0,6287,6314,14.61,5,32,19,0,0
1.3213e+05,1.007e+08,0,6321,6400,14.7,4.64,32,19,0,0
1.3253e+05,1.008e+08,0,6399,6385,14.73,4.48,32,20,0,0
1.3302e+05,1.0091e+08,0,6376,6214,14.67,4.55,32,20,0,0
1.3347e+05,1.0103e+08,0,6210,6157,14.67,4.26,32,20,0,0
1.3388e+05,1.0113e+08,0,6170,6314,14.6,4.65,32,20,0,0
1.3429e+05,1.0124e+08,0,6312,6214,14.61,4.83,32,20,0,0
1.3477e+05,1.0135e+08,0,6220,6314,14.67,4.58,32,20,0,0
1.3519e+05,1.0146e+08,0,6318,6514,14.67,4.72,32,20,0,0
1.3563e+05,1.0157e+08,0,6510,6457,14.66,4.72,32,21,0,0
1.3608e+05,1.0167e+08,0,6454,6400,14.79,4.25,32,21,0,0
1.3652e+05,1.0179e+08,0,6388,6228,14.64,4.5,32,21,0,0
1.3697e+05,1.019e+08,0,6226,6200,14.61,4.62,32,21,0,0
1.3741e+05,1.02e+08,0,6200,6228,14.6,4.62,32,21,0,0
1.3791e+05,1.0212e+08,0,6237,6371,14.63,4.7,32,21,0,0
1.3835e+05,1.0223e+08,0,6376,6457,14.65,4.89,32,21,0,0
1.388e+05,1.0234e+08,0,6440,6285,14.57,4.74,32,22,0,0
1.3925e+05,1.0245e+08,0,6291,6357,14.63,4.61,32,22,0,0
1.397e+05,1.0256e+08,0,6353,6314,14.6,4.44,32,22,0,0
1.4018e+05,1.0267e+08,0,6311,6285,14.54,4.65,32,22,0,0
1.4059e+05,1.0278e+08,0,6315,6600,14.59,4.89,32,22,0,0
1.4104e+05,1.0289e+08,0,6592,6485,14.52,4.97,32,22,0,0
1.4148e+05,1.03e+08,0,6494,6628,14.57,4.79,32,22,0,0
1.4193e+05,1.0311e+08,0,6605,6385,14.57,4.53,32,22,0,0
1.4233e+05,1.0321e+08,0,6385,6442,14.59,4.73,32,23,0,0
1.4278e+05,1.0332e+08,0,6440,6342,14.57,4.77,32,23,0,0
1.4327e+05,1.0344e+08,0,6355,6500,14.57,4.79,32,23,0,0
1.4367e+05,1.0354e+08,0,6498,6485,14.52,4.94,32,23,0,0
1.4412e+05,1.0365e+08,0,6485,6485,14.6,4.82,32,23,0,0
1.4457e+05,1.0376e+08,0,6494,6628,14.6,4.89,32,23,0,0
1.4497e+05,1.0386e+08,0,6625,6471,14.6,4.66,32,24,0,0
1.4542e+05,1.0397e+08,0,6471,6485,14.64,4.58,33,24,0,0
1.4587e+05,1.0408e+08,0,6485,6485,14.65,4.65,33,24,0,0
1.4631e+05,1.0419e+08,0,6482,6442,14.63,4.42,33,24,0,0
1.4676e+05,1.043e+08,0,6435,6328,14.65,4.35,33,24,0,0
1.4721e+05,1.0441e+08,0,6318,6185,14.66,4.39,32,24,0,0
1.4766e+05,1.0452e+08,0,6196,6300,14.64,4.2,33,24,0,0
1.4811e+05,1.0463e+08,0,6297,6271,14.65,4.62,33,25,0,0
1.4851e+05,1.0473e+08,0,6271,6300,14.68,4.18,33,25,0,0
1.4896e+05,1.0484e+08,0,6298,6257,14.65,4.2,33,25,0,0
1.4918e+05,1.0495e+08,0,6257,6257,14.68,4.02,33,25,0,0
1.4962e+05,1.0506e+08,0,6251,6114,14.63,4.18,33,25,0,0
1.5007e+05,1.0517e+08,0,6124,6342,14.6,4.69,33,25,0,0
1.5052e+05,1.0528e+08,0,6345,6414,14.57,4.7,33,25,0,0
1.5093e+05,1.0539e+08,0,6415,6485,14.6,4.84,33,25,0,0
1.5142e+05,1.055e+08,0,6489,6557,14.58,5.02,33,26,0,0
1.5186e+05,1.0561e+08,0,6547,6428,14.68,4.38,33,26,0,0
1.5231e+05,1.0572e+08,0,6421,6342,14.6,4.64,33,26,0,0
1.5272e+05,1.0582e+08,0,6342,6371,14.67,4.73,33,26,0,0
1.5321e+05,1.0594e+08,0,6364,6228,14.6,4.4,33,26,0,0
1.5361e+05,1.0604e+08,0,6230,6285,14.55,4.8,33,26,0,0
1.5402e+05,1.0615e+08,0,6287,6500,14.63,4.79,33,26,0,0
1.545e+05,1.0627e+08,0,6516,6657,14.58,5.53,33,27,0,0
1.5496e+05,1.0638e+08,0,6664,6728,14.54,6.39,33,27,0,0
1.5536e+05,1.0648e+08,0,6745,7014,14.48,7.21,33,27,0,0
1.558e+05,1.0658e+08,0,7017,7171,14.4,7.52,33,27,0,0
1.5626e+05,1.0669e+08,0,7188,7328,14.51,7.25,33,27,0,0
1.5667e+05,1.068e+08,0,7333,7400,14.55,7.41,33,28,0,0
1.5712e+05,1.0691e+08,0,7387,7257,14.5,6.1,33,28,0,0
1.5757e+05,1.0702e+08,0,7199,6657,14.5,5.29,33,28,0,0
1.5797e+05,1.0712e+08,0,6634,6300,14.6,3.52,33,28,0,0
1.5842e+05,1.0724e+08,0,6241,5714,14.7,1.98,33,28,0,0
1.5883e+05,1.0734e+08,0,5671,4814,14.67,1.25,33,28,0,0
1.5931e+05,1.0745e+08,0,4777,4157,14.64,0.66,33,28,0,0
1.5976e+05,1.0757e+08,0,4143,3985,14.69,1.36,33,28,0,0
1.6061e+05,1.0778e+08,0,3992,4328,14.65,1.77,33,28,0,0
1.6107e+05,1.0789e+08,0,4346,4600,14.66,2.24,33,28,0,0
1.6193e+05,1.0811e+08,0,4620,5257,14.6,3.66,33,29,0,0
1.6237e+05,1.0822e+08,0,5308,5842,14.55,4.44,33,29,0,0
1.6282e+05,1.0833e+08,0,5872,6171,14.52,4.97,33,29,0,0
1.6322e+05,1.0843e+08,0,6180,6257,14.52,5.32,33,29,0,0
1.6366e+05,1.0854e+08,0,6302,6671,14.54,5.56,33,29,0,0
1.6407e+05,1.0864e+08,0,6673,6800,14.55,5.64,33,29,0,0
1.6456e+05,1.0876e+08,0,6797,6742,14.54,5.25,33,30,0,0
1.6501e+05,1.0887e+08,0,6735,6642,14.58,5.27,33,30,0,0
1.6546e+05,1.0898e+08,0,6655,6785,14.49,5.93,33,30,0,0
1.6586e+05,1.0908e+08,0,6789,6957,14.38,6.06,33,30,0,0
1.6631e+05,1.0919e+08,0,6963,7071,14.48,6.17,33,30,0,0
1.6681e+05,1.0931e+08,0,7057,6900,14.5,5.74,33,31,0,0
1.677e+05,1.0953e+08,0,6889,6657,14.5,5,33,31,0,0
1.6814e+05,1.0963e+08,0,6632,6414,14.49,4.87,33,31,0,0
1.6855e+05,1.0974e+08,0,6414,6428,14.52,4.92,33,31,0,0
1.69e+05,1.0984e+08,0,6428,6457,14.54,4.45,33,31,0,0
1.6944e+05,1.0995e+08,0,6447,6242,14.52,4.21,33,31,0,0
1.6989e+05,1.1006e+08,0,6247,6357,14.49,4.45,33,31,0,0
1.7034e+05,1.1017e+08,0,6356,6342,14.5,4.52,33,32,0,0
1.7079e+05,1.1028e+08,0,6343,6414,14.62,4.5,33,32,0,0
1.7172e+05,1.1051e+08,0,6405,6242,14.7,3.65,33,32,0,0
1.7212e+05,1.1061e+08,0,6225,5985,14.68,3.93,33,32,0,0
1.7258e+05,1.1072e+08,0,5993,6100,14.64,4.27,34,32,0,0
1.7302e+05,1.1083e+08,0,6111,6371,14.61,4.25,33,32,0,0
1.7347e+05,1.1094e+08,0,6343,6057,14.68,3.8,33,32,0,0
1.7392e+05,1.1105e+08,0,6042,5900,14.67,2.93,33,33,0,0
1.7432e+05,1.1115e+08,0,5890,5685,14.58,3.07,34,33,0,0
1.7476e+05,1.1126e+08,0,5685,5685,14.58,3.82,34,33,0,0
1.7521e+05,1.1137e+08,0,5698,5957,14.63,3.68,34,33,0,0
1.7566e+05,1.1148e+08,0,5965,6085,14.6,4.28,34,33,0,0
1.7611e+05,1.1159e+08,0,6085,6100,14.59,4.53,33,33,0,0
1.7656e+05,1.117e+08,0,6156,6700,14.55,5.51,34,33,0,0
1.77e+05,1.1181e+08,0,6701,6714,14.63,5.69,34,34,0,0
1.7746e+05,1.1192e+08,0,6711,6685,14.6,5.13,34,34,0,0
1.7786e+05,1.1202e+08,0,6681,6600,14.58,5.35,34,34,0,0
1.7831e+05,1.1214e+08,0,6603,6628,14.54,5.26,34,34,0,0
1.7876e+05,1.1225e+08,0,6630,6657,14.54,5.19,33,34,0,0
1.7921e+05,1.1236e+08,0,6657,6657,14.6,5.89,34,34,0,0
1.7966e+05,1.1246e+08,0,6655,6628,14.54,5.63,34,34,0,0
1.801e+05,1.1258e+08,0,6609,6428,14.57,5.09,34,35,0,0
1.8145e+05,1.1291e+08,0,6429,6471,14.51,4.76,34,35,0,0
1.8189e+05,1.1302e+08,0,6463,6385,14.61,4.02,34,35,0,0
1.8234e+05,1.1313e+08,0,6369,6285,14.67,4.45,34,35,0,0
1.8305e+05,1.1334e+08,0,6257,6085,14.67,3.98,34,36,0,0
1.8379e+05,1.1357e+08,0,6064,6000,14.69,3.96,34,36,0,0
1.842e+05,1.1367e+08,0,6001,6042,14.63,4.71,34,36,0,0
1.8464e+05,1.1378e+08,0,6033,5914,14.7,4.5,34,36,0,0
1.851e+05,1.1389e+08,0,5924,6071,14.65,4.28,34,36,0,0
1.8554e+05,1.14e+08,0,6072,6100,14.57,5.08,34,36,0,0
1.8599e+05,1.1411e+08,0,6105,6185,14.62,4.66,34,37,0,0
1.8643e+05,1.1422e+08,0,6191,6257,14.6,4.26,34,37,0,0
1.8688e+05,1.1432e+08,0,6251,6142,14.58,4.48,34,37,0,0
1.8732e+05,1.1443e+08,0,6148,6285,14.66,4.55,34,37,0,0
1.8777e+05,1.1454e+08,0,6278,6185,14.64,4.36,34,37,0,0
1.8822e+05,1.1465e+08,0,6185,6185,14.58,4.57,34,37,0,0
1.8866e+05,1.1477e+08,0,6198,6328,14.69,4.36,34,37,0,0
1.8912e+05,1.1488e+08,0,6332,6371,14.73,4.23,34,37,0,0
1.8952e+05,1.1498e+08,0,6360,6142,14.61,4.06,34,38,0,0
1.8997e+05,1.1509e+08,0,6147,6200,14.55,4.11,34,38,0,0
1.9038e+05,1.1519e+08,0,6206,6357,14.61,4.46,34,38,0,0
1.9083e+05,1.153e+08,0,6351,6228,14.6,4.13,34,38,0,0
1.9127e+05,1.1542e+08,0,6244,6385,14.51,4.88,34,38,0,0
1.9172e+05,1.1553e+08,0,6392,6457,14.64,4.88,34,38,0,0
1.9212e+05,1.1563e+08,0,6454,6400,14.69,4.44,34,38,0,0
1.9257e+05,1.1574e+08,0,6405,6485,14.6,4.64,34,39,0,0
1.9299e+05,1.1584e+08,0,6484,6457,14.68,4.43,34,39,0,0
1.9343e+05,1.1595e+08,0,6451,6314,14.63,4.5,34,39,0,0
1.9391e+05,1.1606e+08,0,6316,6342,14.6,4.62,34,39,0,0
1.9432e+05,1.1617e+08,0,6343,6385,14.53,4.74,34,39,0,0
1.9477e+05,1.1628e+08,0,6383,6357,14.56,4.49,34,39,0,0
1.9518e+05,1.1638e+08,0,6356,6314,14.57,4.66,34,39,0,0
1.9563e+05,1.165e+08,0,6326,6414,14.6,4.46,34,40,0,0
1.9607e+05,1.166e+08,0,6397,6142,14.64,4.15,34,40,0,0
1.9652e+05,1.1671e+08,0,6153,6300,14.61,4.24,34,40,0,0
1.9696e+05,1.1683e+08,0,6301,6314,14.57,4.49,34,40,0,0
1.9871e+05,1.1726e+08,0,6313,6185,14.61,4.29,34,40,0,0
1.9919e+05,1.1737e+08,0,6219,6414,14.62,4.38,34,41,0,0
1.9959e+05,1.1747e+08,0,6412,6328,14.58,4.4,34,41,0,0
2.0005e+05,1.1758e+08,0,6324,6271,14.6,4.18,34,41,0,0
2.005e+05,1.177e+08,0,6274,6300,14.6,4.31,34,41,0,0
2.0091e+05,1.178e+08,0,6298,6271,14.53,4.49,34,41,0,0
2.0136e+05,1.1791e+08,0,6271,6271,14.56,4.28,34,41,0,0
2.0176e+05,1.1801e+08,0,6270,6242,14.58,4.14,34,41,0,0
2.0224e+05,1.1814e+08,0,6235,6185,14.55,4.2,34,41,0,0
2.027e+05,1.1825e+08,0,6173,6071,14.6,3.98,34,42,0,0
2.0314e+05,1.1835e+08,0,6061,5985,14.62,3.86,34,42,0,0
2.0354e+05,1.1845e+08,0,6000,6171,14.55,3.66,34,42,0,0
2.0399e+05,1.1857e+08,0,6175,6242,14.61,4.76,34,42,0,0
2.0537e+05,1.189e+08,0,6241,6228,14.52,4.38,34,42,0,0
2.0577e+05,1.19e+08,0,6231,6285,14.52,4.77,34,43,0,0
2.0622e+05,1.1912e+08,0,6283,6257,14.51,4.54,34,43,0,0
2.0667e+05,1.1923e+08,0,6281,6442,14.52,4.82,34,43,0,0
2.0708e+05,1.1932e+08,0,6438,6285,14.52,4.34,34,43,0,0
2.0757e+05,1.1945e+08,0,6282,6257,14.49,4.45,34,43,0,0
2.0801e+05,1.1956e+08,0,6262,6314,14.56,4.18,34,43,0,0
2.0841e+05,1.1965e+08,0,6305,6142,14.61,3.83,34,43,0,0
2.0886e+05,1.1977e+08,0,6140,6114,14.57,4.07,34,43,0,0
2.0932e+05,1.1988e+08,0,6113,6057,14.54,4.45,34,44,0,0
2.0976e+05,1.1999e+08,0,6058,6085,14.64,3.85,34,44,0,0
2.1025e+05,1.201e+08,0,6061,5828,14.6,3.37,34,44,0,0
2.1069e+05,1.2021e+08,0,5826,5800,14.58,3.72,34,44,0,0
2.111e+05,1.2031e+08,0,5817,6042,14.58,4.41,34,44,0,0
2.1154e+05,1.2042e+08,0,6040,6014,14.61,4.15,34,44,0,0
2.12e+05,1.2053e+08,0,6020,6314,14.55,4.78,34,44,0,0
2.1244e+05,1.2064e+08,0,6308,6242,14.58,4.38,34,44,0,0
2.129e+05,1.2076e+08,0,6250,6342,14.54,4.51,34,45,0,0
2.1335e+05,1.2087e+08,0,6335,6271,14.5,4.37,34,45,0,0
2.1375e+05,1.2097e+08,0,6270,6242,14.53,4.37,34,45,0,0
2.1425e+05,1.2109e+08,0,6248,6314,14.47,4.59,34,45,0,0
2.1469e+05,1.2119e+08,0,6320,6385,14.56,4.44,34,45,0,0
2.151e+05,1.2129e+08,0,6380,6285,14.52,4.64,34,45,0,0
2.1558e+05,1.2141e+08,0,6291,6357,14.52,4.78,34,45,0,0
2.1598e+05,1.2151e+08,0,6356,6328,14.54,4.85,34,46,0,0
2.1643e+05,1.2162e+08,0,6335,6414,14.6,4.53,34,46,0,0
2.1688e+05,1.2173e+08,0,6415,6442,14.53,4.71,34,46,0,0
2.1733e+05,1.2184e+08,0,6442,6442,14.57,5.16,34,46,0,0
2.1774e+05,1.2195e+08,0,6444,6485,14.54,4.63,34,46,0,0
2.1819e+05,1.2206e+08,0,6493,6657,14.6,4.9,34,46,0,0
2.1863e+05,1.2217e+08,0,6654,6442,14.57,4.43,34,46,0,0
2.1913e+05,1.2229e+08,0,6439,6414,14.55,4.7,34,47,0,0
2.1954e+05,1.2239e+08,0,6414,6428,14.57,4.24,34,47,0,0
2.2002e+05,1.225e+08,0,6421,6328,14.56,4.21,34,47,0,0
2.2042e+05,1.2261e+08,0,6327,6314,14.6,4.49,34,47,0,0
2.2087e+05,1.2272e+08,0,6311,6285,14.64,4.29,34,47,0,0
2.2173e+05,1.2294e+08,0,6282,6228,14.59,3.9,34,47,0,0
2.2218e+05,1.2305e+08,0,6218,6114,14.54,4,34,47,0,0
2.2263e+05,1.2316e+08,0,6126,6257,14.57,4.11,34,48,0,0
2.2304e+05,1.2326e+08,0,6255,6214,14.51,4.46,34,48,0,0
2.2348e+05,1.2338e+08,0,6217,6257,14.51,4.41,34,48,0,0
2.2388e+05,1.2348e+08,0,6248,6142,14.57,4.36,34,48,0,0
2.2433e+05,1.2359e+08,0,6149,6228,14.52,4.46,34,48,0,0
2.2482e+05,1.237e+08,0,6231,6271,14.54,4.55,34,48,0,0
2.2522e+05,1.2381e+08,0,6270,6257,14.55,4.74,34,48,0,0
2.2567e+05,1.2391e+08,0,6257,6285,14.5,4.57,34,49,0,0
2.2611e+05,1.2402e+08,0,6287,6357,14.54,4.62,34,49,0,0
2.266e+05,1.2414e+08,0,6346,6242,14.53,4.51,34,49,0,0
2.27e+05,1.2424e+08,0,6237,6157,14.54,4.46,34,49,0,0
2.2745e+05,1.2435e+08,0,6164,6271,14.5,4.56,34,49,0,0
2.2834e+05,1.2457e+08,0,6269,6228,14.55,4.22,34,49,0,0
2.2879e+05,1.2468e+08,0,6214,6042,14.54,4.16,34,50,0,0
2.2919e+05,1.2479e+08,0,6046,6100,14.55,4.12,34,50,0,0
2.2964e+05,1.249e+08,0,6100,6100,14.58,3.86,34,50,0,0
2.3005e+05,1.25e+08,0,6100,6114,14.56,3.96,34,50,0,0
2.3054e+05,1.2512e+08,0,6102,6000,14.54,4.03,34,50,0,0
2.3099e+05,1.2524e+08,0,6007,6142,14.58,3.83,34,50,0,0
2.3143e+05,1.2534e+08,0,6113,5871,14.6,3.78,34,50,0,0
2.3184e+05,1.2544e+08,0,5872,5942,14.58,3.59,34,50,0,0
2.3228e+05,1.2555e+08,0,5937,5885,14.57,3.58,34,50,0,0
2.3273e+05,1.2567e+08,0,5885,5885,14.56,3.53,34,51,0,0
2.3363e+05,1.2589e+08,0,5876,5728,14.54,3.47,35,51,0,0
2.3404e+05,1.2599e+08,0,5725,5700,14.59,3.5,34,51,0,0
2.3449e+05,1.261e+08,0,5714,5871,14.54,3.61,34,51,0,0
2.3489e+05,1.262e+08,0,5871,5871,14.54,3.51,34,51,0,0
2.3538e+05,1.2632e+08,0,5863,5757,14.54,3.13,34,51,0,0
2.3579e+05,1.2643e+08,0,5744,5614,14.48,3.07,34,51,0,0
2.3623e+05,1.2653e+08,0,5612,5600,14.51,3.01,34,51,0,0
2.3705e+05,1.2674e+08,0,5597,5314,14.52,3,34,52,0,0
2.3749e+05,1.2685e+08,0,5319,5657,14.47,3.09,34,52,0,0
2.3794e+05,1.2696e+08,0,5665,5771,14.55,3.57,34,52,0,0
2.3838e+05,1.2706e+08,0,5781,5957,14.53,3.63,34,52,0,0
2.3884e+05,1.2718e+08,0,5962,6042,14.48,3.94,35,52,0,0
2.3928e+05,1.2728e+08,0,6036,5928,14.51,3.82,34,52,0,0
2.3969e+05,1.2739e+08,0,5924,5885,14.5,4.32,34,52,0,0
2.4014e+05,1.275e+08,0,5890,5971,14.55,3.96,34,52,0,0
2.4099e+05,1.2771e+08,0,5973,6171,14.45,4.43,35,53,0,0
2.4144e+05,1.2782e+08,0,6177,6242,14.51,4.52,35,53,0,0
2.4193e+05,1.2793e+08,0,6251,6342,14.42,4.7,34,53,0,0
2.4233e+05,1.2804e+08,0,6335,6285,14.47,4.84,34,53,0,0
2.4273e+05,1.2814e+08,0,6287,6442,14.47,4.72,34,53,0,0
2.4318e+05,1.2825e+08,0,6437,6357,14.5,4.67,35,53,0,0
2.4362e+05,1.2836e+08,0,6354,6314,14.45,4.57,35,54,0,0
2.4407e+05,1.2846e+08,0,6316,6371,14.43,4.79,34,54,0,0
2.4451e+05,1.2857e+08,0,6377,6500,14.45,4.96,35,54,0,0
2.4497e+05,1.2869e+08,0,6502,6528,14.5,4.84,35,54,0,0
2.4537e+05,1.2879e+08,0,6522,6228,14.49,4.2,34,54,0,0
2.4586e+05,1.2891e+08,0,6234,6300,14.52,4.03,35,54,0,0
2.4715e+05,1.2922e+08,0,6300,6314,14.55,4.5,35,55,0,0
2.4764e+05,1.2934e+08,0,6312,6300,14.54,4.45,34,55,0,0
2.4804e+05,1.2944e+08,0,6310,6442,14.53,4.79,35,55,0,0
2.4848e+05,1.2955e+08,0,6441,6428,14.52,4.71,35,55,0,0
2.4893e+05,1.2966e+08,0,6420,6271,14.47,4.63,35,55,0,0
2.4934e+05,1.2976e+08,0,6274,6385,14.5,4.52,35,55,0,0
2.4982e+05,1.2988e+08,0,6385,6385,14.5,4.54,35,55,0,0
2.5022e+05,1.2998e+08,0,6384,6357,14.5,4.73,35,56,0,0
2.5067e+05,1.3009e+08,0,6358,6400,14.55,4.64,35,56,0,0
2.5112e+05,1.3021e+08,0,6398,6371,14.49,4.54,34,56,0,0
2.5158e+05,1.3032e+08,0,6368,6342,14.49,4.51,34,56,0,0
2.5203e+05,1.3043e+08,0,6338,6300,14.5,4.7,35,56,0,0
2.5243e+05,1.3053e+08,0,6304,6357,14.52,4.9,35,56,0,0
2.5288e+05,1.3065e+08,0,6360,6400,14.55,4.71,35,56,0,0
2.5328e+05,1.3075e+08,0,6401,6485,14.58,4.65,35,56,0,0
2.5373e+05,1.3086e+08,0,6478,6385,14.55,4.45,34,57,0,0
2.5418e+05,1.3097e+08,0,6389,6457,14.5,4.48,35,57,0,0
2.5463e+05,1.3108e+08,0,6440,6200,14.56,4.33,35,57,0,0
2.5507e+05,1.3119e+08,0,6218,6400,14.51,4.62,35,57,0,0
2.5548e+05,1.3129e+08,0,6393,6257,14.58,3.99,35,57,0,0
2.5592e+05,1.314e+08,0,6255,6228,14.51,4.14,35,57,0,0
2.5637e+05,1.3151e+08,0,6224,6142,14.57,4.13,35,57,0,0
2.5685e+05,1.3162e+08,0,6140,6128,14.51,4.18,35,58,0,0
2.5775e+05,1.3184e+08,0,6129,6171,14.55,4.31,35,58,0,0
2.5864e+05,1.3206e+08,0,6166,6057,14.55,4.3,35,58,0,0
2.5908e+05,1.3217e+08,0,6070,6214,14.5,4.51,35,58,0,0
2.5949e+05,1.3227e+08,0,6216,6271,14.51,4.72,35,58,0,0
2.5998e+05,1.3239e+08,0,6265,6200,14.53,4.5,35,59,0,0
2.6042e+05,1.325e+08,0,6202,6228,14.56,4.14,35,59,0,0
2.6087e+05,1.3261e+08,0,6230,6257,14.52,4.56,35,59,0,0
2.6127e+05,1.3271e+08,0,6259,6385,14.52,4.54,35,59,0,0
2.6172e+05,1.3282e+08,0,6383,6285,14.57,4.37,35,59,0,0
2.6217e+05,1.3293e+08,0,6281,6128,14.57,4.36,35,59,0,0
2.6261e+05,1.3304e+08,0,6130,6171,14.55,4.32,35,59,0,0
2.6305e+05,1.3315e+08,0,6191,6400,14.55,4.73,35,59,0,0
2.635e+05,1.3325e+08,0,6390,6257,14.49,4.72,35,60,0,0
2.639e+05,1.3336e+08,0,6258,6342,14.55,4.52,35,60,0,0
2.6439e+05,1.3347e+08,0,6336,6214,14.58,4.32,35,60,0,0
2.6483e+05,1.3358e+08,0,6219,6300,14.58,4.49,35,60,0,0
2.6529e+05,1.3369e+08,0,6291,6214,14.55,4.4,35,60,0,0
2.6573e+05,1.338e+08,0,6222,6314,14.6,4.33,35,60,0,0
2.6618e+05,1.3391e+08,0,6308,6228,14.56,4.44,35,60,0,0
2.6658e+05,1.3401e+08,0,6231,6314,14.55,4.75,35,60,0,0
2.6703e+05,1.3412e+08,0,6320,6414,14.51,4.52,35,61,0,0
2.6747e+05,1.3423e+08,0,6407,6300,14.45,4.77,35,61,0,0
2.6791e+05,1.3434e+08,0,6311,6557,14.5,4.97,35,61,0,0
2.6836e+05,1.3445e+08,0,6560,6600,14.42,5.01,35,61,0,0
2.6881e+05,1.3457e+08,0,6570,6300,14.42,5.26,35,61,0,0
2.6926e+05,1.3467e+08,0,6327,6571,14.47,5.08,35,61,0,0
2.697e+05,1.3478e+08,0,6555,6414,14.54,5,35,62,0,0
2.7015e+05,1.349e+08,0,6414,6414,14.48,5.06,35,62,0,0
2.7056e+05,1.35e+08,0,6417,6471,14.46,5.12,35,62,0,0
2.7104e+05,1.3511e+08,0,6481,6542,14.47,5.04,35,62,0,0
2.7144e+05,1.3521e+08,0,6543,6600,14.46,5.18,35,62,0,0
2.7189e+05,1.3532e+08,0,6598,6471,14.48,4.8,35,62,0,0
2.7282e+05,1.3555e+08,0,6465,6371,14.49,4.72,35,63,0,0
2.7327e+05,1.3566e+08,0,6374,6414,14.46,4.8,35,63,0,0
2.7367e+05,1.3576e+08,0,6415,6528,14.51,4.69,35,63,0,0
2.7415e+05,1.3587e+08,0,6518,6385,14.42,4.74,35,63,0,0
2.746e+05,1.3598e+08,0,6387,6414,14.42,4.69,35,63,0,0
2.7505e+05,1.3609e+08,0,6408,6342,14.48,4.58,35,63,0,0
2.7545e+05,1.362e+08,0,6336,6228,14.47,4.26,35,63,0,0
2.759e+05,1.3631e+08,0,6240,6371,14.44,4.94,35,64,0,0
2.7679e+05,1.3653e+08,0,6366,6228,14.49,4.45,35,64,0,0
2.7723e+05,1.3663e+08,0,6228,6228,14.5,4.44,35,64,0,0
2.7768e+05,1.3675e+08,0,6228,6228,14.47,4.7,35,64,0,0
2.7856e+05,1.3696e+08,0,6229,6271,14.47,4.56,35,64,0,0
2.7897e+05,1.3707e+08,0,6272,6300,14.47,4.49,35,65,0,0
2.7946e+05,1.3719e+08,0,6303,6357,14.41,4.35,35,65,0,0
2.7991e+05,1.373e+08,0,6350,6285,14.47,4.77,35,65,0,0
2.8076e+05,1.3751e+08,0,6284,6257,14.49,4.57,35,65,0,0
2.8121e+05,1.3762e+08,0,6268,6385,14.48,4.78,35,65,0,0
2.8162e+05,1.3773e+08,0,6378,6300,14.47,4.73,35,65,0,0
2.8206e+05,1.3783e+08,0,6308,6428,14.55,4.79,35,65,0,0
2.8247e+05,1.3794e+08,0,6434,6571,14.52,4.39,35,66,0,0
2.8292e+05,1.3805e+08,0,6567,6485,14.54,4.48,35,66,0,0
2.8336e+05,1.3816e+08,0,6484,6471,14.55,4.32,35,66,0,0
2.8386e+05,1.3828e+08,0,6459,6342,14.45,4.45,35,66,0,0
2.8426e+05,1.3838e+08,0,6332,6228,14.45,4.44,35,66,0,0
2.847e+05,1.3849e+08,0,6246,6400,14.48,4.12,35,66,0,0
2.8511e+05,1.3859e+08,0,6395,6300,14.48,4.41,35,66,0,0
2.8559e+05,1.387e+08,0,6305,6428,14.55,4.52,35,67,0,0
2.86e+05,1.3881e+08,0,6423,6228,14.48,3.95,35,67,0,0
2.869e+05,1.3903e+08,0,6225,6171,14.45,4.62,35,67,0,0
2.8731e+05,1.3913e+08,0,6177,6457,14.44,4.94,35,67,0,0
2.8775e+05,1.3924e+08,0,6449,6342,14.44,4.47,35,67,0,0
2.882e+05,1.3935e+08,0,6347,6428,14.43,4.63,35,67,0,0
2.8864e+05,1.3946e+08,0,6417,6271,14.42,4.75,35,68,0,0
2.8909e+05,1.3958e+08,0,6285,6442,14.37,5.33,35,68,0,0
2.895e+05,1.3968e+08,0,6453,6742,14.39,5.67,35,68,0,0
2.8998e+05,1.3979e+08,0,6745,6785,14.42,5.34,35,68,0,0
2.9039e+05,1.3989e+08,0,6777,6685,14.45,5.15,35,68,0,0
2.9083e+05,1.4e+08,0,6693,6800,14.45,5.36,35,68,0,0
2.9128e+05,1.4011e+08,0,6796,6742,14.47,5.03,35,68,0,0
2.917e+05,1.4023e+08,0,6727,6585,14.54,4.66,35,69,0,0
2.9214e+05,1.4033e+08,0,6589,6657,14.49,4.64,35,69,0,0
2.9258e+05,1.4044e+08,0,6645,6485,14.48,4.64,35,69,0,0
2.9347e+05,1.4066e+08,0,6484,6442,14.45,4.66,35,69,0,0
2.9388e+05,1.4076e+08,0,6444,6500,14.48,4.8,35,69,0,0
2.9432e+05,1.4087e+08,0,6499,6485,14.4,4.87,35,70,0,0
2.9476e+05,1.4098e+08,0,6486,6571,14.46,4.77,35,70,0,0
2.9521e+05,1.4109e+08,0,6565,6442,14.49,4.34,35,70,0,0
2.957e+05,1.412e+08,0,6431,6314,14.52,3.99,35,70,0,0
2.9614e+05,1.4131e+08,0,6315,6342,14.47,4.27,35,70,0,0
2.9654e+05,1.4141e+08,0,6341,6271,14.57,4.24,35,70,0,0
2.9699e+05,1.4152e+08,0,6264,6185,14.57,3.72,35,70,0,0
2.9744e+05,1.4163e+08,0,6201,6442,14.47,4.5,35,70,0,0
2.9784e+05,1.4173e+08,0,6455,6628,14.55,4.27,35,71,0,0
2.9829e+05,1.4184e+08,0,6591,6100,14.57,3.76,35,71,0,0
2.9873e+05,1.4195e+08,0,6120,6328,14.55,3.93,35,71,0,0
2.9918e+05,1.4206e+08,0,6316,6200,14.56,4.17,35,71,0,0
2.9959e+05,1.4217e+08,0,6192,6028,14.66,3.41,35,71,0,0
3.0008e+05,1.4228e+08,0,6015,5885,14.61,3.39,35,71,0,0
3.0048e+05,1.4238e+08,0,5885,5914,14.61,3.48,35,71,0,0
3.0138e+05,1.426e+08,0,5909,5728,14.63,2.8,35,71,0,0
3.0186e+05,1.4272e+08,0,5750,6085,14.57,4.29,35,71,0,0
3.0227e+05,1.4282e+08,0,6083,6057,14.59,3.65,35,72,0,0
3.0272e+05,1.4294e+08,0,6059,6085,14.54,3.79,35,72,0,0
3.0313e+05,1.4304e+08,0,6094,6228,14.55,4.04,35,72,0,0
3.0402e+05,1.4326e+08,0,6239,6485,14.52,4.48,35,72,0,0
3.0442e+05,1.4336e+08,0,6484,6471,14.5,4.21,35,72,0,0
3.0487e+05,1.4347e+08,0,6459,6300,14.48,4.44,35,72,0,0
3.0532e+05,1.4359e+08,0,6311,6428,14.47,4.51,35,73,0,0
3.0572e+05,1.4368e+08,0,6420,6271,14.49,4.39,35,73,0,0
3.0617e+05,1.438e+08,0,6285,6500,14.45,4.85,35,73,0,0
3.0662e+05,1.4391e+08,0,6501,6514,14.41,4.92,35,73,0,0
3.0702e+05,1.4401e+08,0,6536,6757,14.48,5.01,35,73,0,0
3.0747e+05,1.4412e+08,0,6752,6700,14.45,5.09,35,73,0,0
3.0791e+05,1.4422e+08,0,6695,6600,14.49,4.98,35,73,0,0
3.0836e+05,1.4434e+08,0,6578,6400,14.47,4.36,35,74,0,0
3.0877e+05,1.4444e+08,0,6411,6642,14.47,5.08,35,74,0,0
3.0921e+05,1.4455e+08,0,6643,6657,14.44,4.97,35,74,0,0
3.0962e+05,1.4466e+08,0,6655,6542,14.51,4.83,35,74,0,0
3.1007e+05,1.4477e+08,0,6545,6614,14.52,4.84,35,74,0,0
3.1052e+05,1.4488e+08,0,6609,6485,14.46,4.93,35,74,0,0
3.1096e+05,1.4499e+08,0,6492,6600,14.48,4.89,35,74,0,0
3.1141e+05,1.451e+08,0,6586,6400,14.48,4.23,35,75,0,0
3.1185e+05,1.452e+08,0,6398,6371,14.45,4.65,35,75,0,0
3.123e+05,1.4532e+08,0,6367,6314,14.44,4.45,35,75,0,0
3.1275e+05,1.4543e+08,0,6311,6285,14.52,4.35,35,75,0,0
3.132e+05,1.4554e+08,0,6286,6300,14.49,4.34,35,75,0,0
3.1364e+05,1.4564e+08,0,6293,6200,14.48,3.94,35,75,0,0
3.1408e+05,1.4575e+08,0,6189,5985,14.55,3.69,35,75,0,0
3.1453e+05,1.4586e+08,0,5974,5842,14.55,3.75,35,75,0,0
3.1494e+05,1.4596e+08,0,5841,5828,14.54,3.74,35,76,0,0
3.1524e+05,1.4607e+08,0,5830,5871,14.54,3.51,35,76,0,0
3.1569e+05,1.4619e+08,0,5865,5814,14.55,4.12,35,76,0,0
3.1614e+05,1.463e+08,0,5829,6014,14.53,3.65,35,76,0,0
3.1658e+05,1.464e+08,0,6008,5900,14.47,4.16,35,76,0,0
3.1706e+05,1.4652e+08,0,5907,5971,14.53,3.94,35,76,0,0
3.1752e+05,1.4663e+08,0,5973,6000,14.49,3.98,35,76,0,0
3.1792e+05,1.4674e+08,0,6002,6057,14.47,4.32,35,76,0,0
3.184e+05,1.4684e+08,0,6064,6200,14.49,4.06,35,77,0,0
3.1885e+05,1.4696e+08,0,6195,6128,14.42,4.26,35,77,0,0
3.1926e+05,1.4706e+08,0,6132,6185,14.53,4.21,35,77,0,0
3.1971e+05,1.4717e+08,0,6180,6128,14.47,3.98,35,77,0,0
3.2016e+05,1.4728e+08,0,6104,5871,14.51,3.5,35,77,0,0
3.2101e+05,1.475e+08,0,5859,5685,14.58,2.63,35,77,0,0
3.2146e+05,1.4761e+08,0,5691,5757,14.61,2.86,35,77,0,0
3.2186e+05,1.4771e+08,0,5753,5685,14.52,2.92,35,77,0,0
3.2231e+05,1.4782e+08,0,5683,5657,14.57,3.23,35,77,0,0
3.2275e+05,1.4793e+08,0,5659,5685,14.54,2.88,35,78,0,0
3.232e+05,1.4803e+08,0,5687,5728,14.5,2.94,35,78,0,0
3.2368e+05,1.4816e+08,0,5712,5557,14.53,3.1,35,78,0,0
3.2409e+05,1.4826e+08,0,5565,5742,14.56,3.35,35,78,0,0
3.2453e+05,1.4836e+08,0,5743,5785,14.55,3.55,35,78,0,0
3.2502e+05,1.4848e+08,0,5781,5728,14.51,3.29,35,78,0,0
3.2543e+05,1.4859e+08,0,5727,5714,14.48,3.58,35,78,0,0
3.2588e+05,1.487e+08,0,5719,5842,14.48,3.95,35,78,0,0
3.2633e+05,1.4881e+08,0,5855,6028,14.41,4.61,35,78,0,0
3.2674e+05,1.4891e+08,0,6029,6071,14.44,4.4,35,79,0,0
3.2718e+05,1.4902e+08,0,6080,6185,14.45,4.3,35,79,0,0
3.2759e+05,1.4913e+08,0,6185,6185,14.45,3.8,35,79,0,0
3.2803e+05,1.4923e+08,0,6171,5914,14.46,3.8,35,79,0,0
3.2848e+05,1.4934e+08,0,5912,5828,14.45,3.75,35,79,0,0
3.2892e+05,1.4945e+08,0,5829,5942,14.49,4.04,35,79,0,0
3.2936e+05,1.4956e+08,0,5944,6014,14.48,3.76,35,79,0,0
3.2981e+05,1.4967e+08,0,6008,5900,14.42,4.2,35,79,0,0
3.3026e+05,1.4978e+08,0,5906,5971,14.48,3.89,35,80,0,0
3.307e+05,1.4989e+08,0,5958,5785,14.46,3.72,35,80,0,0
3.3115e+05,1.5e+08,0,5791,5885,14.46,3.76,35,80,0,0
3.316e+05,1.5011e+08,0,5887,5942,14.45,4.21,35,80,0,0
3.3205e+05,1.5022e+08,0,5970,6257,14.44,4.97,35,80,0,0
3.3249e+05,1.5033e+08,0,6275,6471,14.38,5.46,35,80,0,0
3.3289e+05,1.5043e+08,0,6480,6685,14.48,5.44,35,80,0,0
3.3334e+05,1.5055e+08,0,6683,6671,14.46,5.04,35,81,0,0
3.3424e+05,1.5076e+08,0,6669,6614,14.41,5.2,35,81,0,0
3.3465e+05,1.5087e+08,0,6616,6757,14.48,5.11,35,81,0,0
3.3513e+05,1.5098e+08,0,6744,6557,14.39,5.04,35,81,0,0
3.3558e+05,1.5109e+08,0,6553,6514,14.51,4.78,35,81,0,0
3.3599e+05,1.512e+08,0,6509,6400,14.57,4.33,35,81,0,0
3.3644e+05,1.513e+08,0,6386,6085,14.52,3.91,35,82,0,0
3.3688e+05,1.5142e+08,0,6085,6100,14.59,3.79,35,82,0,0
3.3729e+05,1.5152e+08,0,6094,5771,14.64,3.66,35,82,0,0
3.3774e+05,1.5163e+08,0,5777,5857,14.65,3.15,35,82,0,0
3.3818e+05,1.5174e+08,0,5844,5657,14.61,3.27,35,82,0,0
3.3863e+05,1.5185e+08,0,5661,5714,14.58,3.36,35,82,0,0
3.3908e+05,1.5196e+08,0,5714,5714,14.56,3.54,35,82,0,0
3.3952e+05,1.5207e+08,0,5730,5900,14.55,3.54,35,82,0,0
3.3992e+05,1.5217e+08,0,5901,5985,14.56,3.85,35,82,0,0
3.4042e+05,1.5228e+08,0,5983,5957,14.58,3.75,35,83,0,0
3.4082e+05,1.5239e+08,0,5953,5914,14.58,3.62,35,83,0,0
3.4127e+05,1.525e+08,0,5923,6042,14.55,3.88,35,83,0,0
3.4171e+05,1.5261e+08,0,6047,6128,14.52,3.8,35,83,0,0
3.422e+05,1.5273e+08,0,6132,6185,14.55,4.36,35,83,0,0
3.426e+05,1.5282e+08,0,6189,6271,14.54,4.26,35,83,0,0
3.4305e+05,1.5294e+08,0,6263,6171,14.57,4.14,35,83,0,0
3.435e+05,1.5304e+08,0,6168,6142,14.55,4.37,35,83,0,0
3.439e+05,1.5315e+08,0,6147,6228,14.53,4.49,35,84,0,0
3.4436e+05,1.5326e+08,0,6234,6300,14.48,4.3,35,84,0,0
3.448e+05,1.5336e+08,0,6297,6242,14.52,4.46,35,84,0,0
3.4528e+05,1.5348e+08,0,6252,6357,14.58,4.32,35,84,0,0
3.457e+05,1.5358e+08,0,6350,6257,14.5,4.19,35,84,0,0
3.4655e+05,1.538e+08,0,6258,6300,14.6,4.44,35,84,0,0
3.4699e+05,1.539e+08,0,6292,6100,14.6,4.1,35,84,0,0
3.4745e+05,1.5402e+08,0,6094,6042,14.52,4.28,35,85,0,0
3.479e+05,1.5413e+08,0,6057,6214,14.52,4.27,35,85,0,0
3.4834e+05,1.5424e+08,0,6203,6057,14.55,3.83,35,85,0,0
3.4924e+05,1.5446e+08,0,6069,6257,14.51,4.66,35,85,0,0
3.4968e+05,1.5456e+08,0,6261,6314,14.51,4.47,35,85,0,0
3.5012e+05,1.5467e+08,0,6335,6500,14.48,4.57,35,85,0,0
3.5057e+05,1.5479e+08,0,6480,6285,14.48,4.12,35,85,0,0
3.5102e+05,1.5489e+08,0,6264,6100,14.47,4.02,35,86,0,0
3.5142e+05,1.5499e+08,0,6100,6157,14.51,4.35,35,86,0,0
3.5236e+05,1.5522e+08,0,6167,6371,14.47,4.55,35,86,0,0
3.5277e+05,1.5532e+08,0,6369,6257,14.52,4.5,35,86,0,0
3.5321e+05,1.5544e+08,0,6262,6300,14.56,4.23,35,86,0,0
3.5362e+05,1.5554e+08,0,6289,6171,14.52,4.35,35,86,0,0
3.5406e+05,1.5565e+08,0,6171,6200,14.51,4.35,35,87,0,0
3.5496e+05,1.5586e+08,0,6206,6342,14.39,4.75,35,87,0,0
3.5585e+05,1.5608e+08,0,6342,6457,14.42,5.05,35,87,0,0
3.5629e+05,1.5619e+08,0,6459,6485,14.34,5.2,35,87,0,0
3.5675e+05,1.563e+08,0,6495,6600,14.43,5.34,35,87,0,0
3.5718e+05,1.5641e+08,0,6598,6585,14.44,5.17,35,88,0,0
3.5764e+05,1.5652e+08,0,6576,6457,14.46,4.98,35,88,0,0
3.5804e+05,1.5662e+08,0,6459,6514,14.46,4.87,35,88,0,0
3.5845e+05,1.5673e+08,0,6511,6300,14.5,4.51,35,88,0,0
3.5893e+05,1.5684e+08,0,6296,6142,14.52,4.1,35,88,0,0
3.5938e+05,1.5695e+08,0,6145,6200,14.54,4.15,35,88,0,0
3.5983e+05,1.5706e+08,0,6182,6000,14.5,3.94,35,88,0,0
3.6023e+05,1.5716e+08,0,6000,6014,14.49,4.12,35,89,0,0
3.6068e+05,1.5727e+08,0,6015,6085,14.52,4.11,35,89,0,0
3.6116e+05,1.5739e+08,0,6094,6185,14.52,4.27,35,89,0,0
3.6161e+05,1.5749e+08,0,6176,6057,14.44,4.39,35,89,0,0
3.6206e+05,1.576e+08,0,6078,6314,14.51,4.36,35,89,0,0
3.625e+05,1.5771e+08,0,6312,6300,14.46,4.34,35,89,0,0
3.629e+05,1.5781e+08,0,6296,6228,14.53,4.37,35,89,0,0
3.6339e+05,1.5793e+08,0,6230,6257,14.46,4.55,35,89,0,0
3.6384e+05,1.5804e+08,0,6255,6242,14.45,4.73,35,90,0,0
3.6424e+05,1.5814e+08,0,6252,6357,14.41,4.68,35,90,0,0
3.6513e+05,1.5836e+08,0,6354,6300,14.42,4.83,35,90,0,0
3.6558e+05,1.5847e+08,0,6306,6442,14.47,4.74,35,90,0,0
3.6602e+05,1.5858e+08,0,6434,6300,14.48,4.55,35,90,0,0
3.6647e+05,1.5869e+08,0,6296,6257,14.51,4.68,35,90,0,0
3.6692e+05,1.588e+08,0,6262,6342,14.5,4.58,35,91,0,0
3.6737e+05,1.5891e+08,0,6335,6271,14.48,4.72,35,91,0,0
3.6782e+05,1.5902e+08,0,6274,6328,14.47,4.86,35,91,0,0
3.683e+05,1.5914e+08,0,6326,6314,14.5,4.55,35,91,0,0
3.687e+05,1.5924e+08,0,6310,6242,14.43,4.62,35,91,0,0
3.6911e+05,1.5934e+08,0,6242,6257,14.51,4.48,36,91,0,0
3.6956e+05,1.5945e+08,0,6257,6271,14.5,4.46,35,91,0,0
3.7001e+05,1.5956e+08,0,6269,6228,14.5,4.54,36,92,0,0
3.705e+05,1.5968e+08,0,6230,6271,14.48,4.69,35,92,0,0
3.7139e+05,1.599e+08,0,6274,6357,14.46,4.76,35,92,0,0
3.7224e+05,1.6011e+08,0,6356,6300,14.42,4.69,35,92,0,0
3.7269e+05,1.6022e+08,0,6306,6400,14.49,4.45,35,92,0,0
3.7314e+05,1.6033e+08,0,6394,6314,14.45,4.48,35,93,0,0
3.7362e+05,1.6044e+08,0,6310,6257,14.49,4.49,35,93,0,0
3.7403e+05,1.6054e+08,0,6257,6271,14.47,4.44,36,93,0,0
3.7448e+05,1.6065e+08,0,6270,6257,14.52,4.38,35,93,0,0
3.7492e+05,1.6076e+08,0,6259,6300,14.47,4.37,35,93,0,0
3.7537e+05,1.6087e+08,0,6294,6171,14.48,4.39,36,93,0,0
3.7582e+05,1.6098e+08,0,6171,6185,14.52,4.31,36,93,0,0
3.7626e+05,1.6109e+08,0,6188,6228,14.45,4.56,36,93,0,0
3.7671e+05,1.612e+08,0,6235,6342,14.44,4.59,36,94,0,0
3.772e+05,1.6131e+08,0,6337,6257,14.46,4.75,36,94,0,0
3.7764e+05,1.6142e+08,0,6257,6271,14.44,4.5,36,94,0,0
3.7809e+05,1.6153e+08,0,6283,6400,14.52,4.6,36,94,0,0
3.7853e+05,1.6164e+08,0,6400,6414,14.48,5.06,36,94,0,0
3.7894e+05,1.6174e+08,0,6419,6514,14.5,4.62,36,94,0,0
3.7938e+05,1.6185e+08,0,6511,6371,14.53,3.97,36,94,0,0
3.7983e+05,1.6196e+08,0,6369,6342,14.51,4.29,36,95,0,0
3.8027e+05,1.6206e+08,0,6338,6171,14.5,4.07,36,95,0,0
3.8072e+05,1.6218e+08,0,6166,6057,14.56,3.47,36,95,0,0
3.8121e+05,1.623e+08,0,6031,5785,14.58,3.38,36,95,0,0
3.8162e+05,1.624e+08,0,5788,5871,14.54,3.6,36,95,0,0
3.8206e+05,1.6251e+08,0,5860,5700,14.58,3.65,36,95,0,0
3.8252e+05,1.6263e+08,0,5681,5542,14.56,2.97,36,95,0,0
3.8296e+05,1.6274e+08,0,5545,5585,14.57,3.36,36,95,0,0
3.834e+05,1.6284e+08,0,5611,5814,15.12,2.6,36,95,0,0
3.8385e+05,1.6295e+08,0,5765,5357,14.45,4.32,36,96,0,0
3.8425e+05,1.6305e+08,0,5339,4542,14.84,1.52,36,96,0,0
3.8515e+05,1.6327e+08,0,4512,3914,15.01,0.79,36,96,0,0
3.856e+05,1.6339e+08,0,3864,3300,15.02,0.22,36,96,0,0
3.8604e+05,1.6349e+08,0,3273,2971,14.98,0.35,36,96,0,0
3.8645e+05,1.636e+08,0,2963,2871,15,0.41,36,96,0,0
3.8678e+05,1.637e+08,0,2871,2871,14.98,0.58,36,96,0,0
3.881e+05,1.6403e+08,0,2871,2885,14.99,0.51,36,96,0,0
3.8984e+05,1.6446e+08,0,2884,2871,15.01,0.51,36,96,0,0
3.9032e+05,1.6457e+08,0,2871,2871,15,0.49,36,96,0,0
3.9078e+05,1.6469e+08,0,2871,2871,15.02,0.49,35,96,0,0
3.9122e+05,1.648e+08,0,2870,2857,15.02,0.51,36,96,0,0
3.9171e+05,1.6491e+08,0,2857,2857,15.02,0.47,35,96,0,0
3.9216e+05,1.6502e+08,0,2855,2842,15.01,0.48,35,96,0,0
3.9261e+05,1.6513e+08,0,2840,2828,15.01,0.48,36,96,0,0
3.9301e+05,1.6523e+08,0,2761,1928,15.1,0.01,35,96,0,0
3.935e+05,1.6534e+08,0,1898,1471,15.08,0,35,96,0,0
3.939e+05,1.6544e+08,0,1465,1271,15.07,0.07,35,96,0,0
3.9435e+05,1.6555e+08,0,1270,1228,15.07,0.1,35,96,0,0
3.9484e+05,1.6567e+08,0,1228,1228,15.07,0.1,35,96,0,0
3.9529e+05,1.6577e+08,0,1228,1228,15.08,0.1,35,96,0,0
3.9574e+05,1.6588e+08,0,1227,1214,15.08,0.1,35,96,0,0
3.9618e+05,1.6598e+08,0,1214,1228,15.07,0.1,35,96,0,0
3.9663e+05,1.6609e+08,0,1228,1228,15.08,0.1,35,96,0,0
3.9708e+05,1.662e+08,0,1228,1228,15.08,0.1,35,96,0,0
3.9753e+05,1.6631e+08,0,1228,1228,15.08,0.1,35,96,0,0
3.9798e+05,1.6642e+08,0,1228,1228,15.08,0.1,35,96,0,0
3.9846e+05,1.6653e+08,0,1228,1228,15.08,0.1,35,96,0,0
3.9891e+05,1.6664e+08,0,1228,1228,15.1,0.1,35,96,0,0
3.9935e+05,1.6675e+08,0,1228,1228,15.09,0.1,35,96,0,0
3.998e+05,1.6686e+08,0,1228,1228,15.09,0.1,35,96,0,0
4.0025e+05,1.6697e+08,0,1228,1228,15.1,0.1,35,96,0,0
4.007e+05,1.6707e+08,0,1228,1228,15.09,0.1,35,96,0,0
4.0118e+05,1.6718e+08,0,1228,1228,15.1,0.1,35,96,0,0
4.0158e+05,1.6728e+08,0,1228,1228,15.09,0.1,35,96,0,0
4.0204e+05,1.6739e+08,0,1228,1228,15.1,0.1,35,96,0,0
4.0252e+05,1.6751e+08,0,1228,1228,15.1,0.1,35,96,0,0
4.0297e+05,1.6762e+08,0,1228,1228,15.1,0.1,35,96,0,0
4.0342e+05,1.6772e+08,0,1228,1228,15.1,0.1,35,96,0,0
4.0382e+05,1.6783e+08,0,1228,1228,15.11,0.1,35,96,0,0
4.043e+05,1.6794e+08,0,1228,1228,15.1,0.1,35,96,0,0
4.0475e+05,1.6804e+08,0,1228,1228,15.1,0.1,35,96,0,0
4.052e+05,1.6815e+08,0,1228,1228,15.1,0.1,35,96,0,0
4.0654e+05,1.6848e+08,0,1228,1228,15.11,0.1,35,96,0,0
4.0699e+05,1.6859e+08,0,1228,1228,15.11,0.1,35,96,0,0
4.0743e+05,1.6869e+08,0,1228,1228,15.11,0.1,35,96,0,0
4.0788e+05,1.6881e+08,0,1228,1228,15.12,0.1,35,96,0,0
4.0834e+05,1.6891e+08,0,1228,1228,15.11,0.1,35,96,0,0
4.0878e+05,1.6902e+08,0,1228,1228,15.11,0.1,35,96,0,0
4.0927e+05,1.6914e+08,0,1228,1228,15.12,0.1,35,96,0,0
4.0968e+05,1.6924e+08,0,1228,1228,15.12,0.1,35,96,0,0
4.1012e+05,1.6935e+08,0,1228,1228,15.12,0.11,35,96,0,0
4.1057e+05,1.6945e+08,0,1228,1228,15.12,0.1,35,96,0,0
4.1102e+05,1.6956e+08,0,1228,1228,15.12,0.11,35,96,0,0
4.1151e+05,1.6967e+08,0,1228,1228,15.13,0.1,35,96,0,0
4.1195e+05,1.6978e+08,0,1228,1242,15.12,0.1,35,96,0,0
4.124e+05,1.6988e+08,0,1241,1228,15.13,0.1,35,96,0,0
4.1284e+05,1.7e+08,0,1228,1228,15.13,0.11,35,96,0,0
4.1329e+05,1.701e+08,0,1228,1228,15.12,0.11,35,96,0,0
4.1422e+05,1.7032e+08,0,1228,1228,15.13,0.11,35,96,0,0
4.1467e+05,1.7043e+08,0,1228,1228,15.13,0.1,34,96,0,0
4.1512e+05,1.7054e+08,0,1228,1228,15.13,0.11,35,96,0,0
4.1556e+05,1.7065e+08,0,1228,1228,15.13,0.11,35,96,0,0
4.16e+05,1.7075e+08,0,1228,1228,15.13,0.1,35,96,0,0
4.1646e+05,1.7086e+08,0,1228,1228,15.14,0.1,34,96,0,0
4.1685e+05,1.7098e+08,0,1228,1228,15.13,0.11,34,96,0,0
4.173e+05,1.7108e+08,0,1228,1228,15.14,0.11,34,96,0,0
4.1774e+05,1.7119e+08,0,1228,1228,15.13,0.11,34,96,0,0
4.182e+05,1.713e+08,0,1228,1228,15.14,0.11,34,96,0,0
4.186e+05,1.714e+08,0,1228,1228,15.13,0.11,34,96,0,0
4.1909e+05,1.7151e+08,0,1228,1228,15.14,0.11,34,96,0,0
4.1953e+05,1.7162e+08,0,1227,1214,15.14,0.11,34,96,0,0
4.2002e+05,1.7174e+08,0,1215,1228,15.14,0.11,34,96,0,0
4.2046e+05,1.7184e+08,0,1228,1228,15.14,0.1,34,96,0,0
4.2136e+05,1.7206e+08,0,1228,1228,15.14,0.1,34,96,0,0
4.2182e+05,1.7217e+08,0,1229,1242,15.14,0.1,34,96,0,0
4.2226e+05,1.7228e+08,0,1242,1242,15.15,0.1,34,96,0,0
4.227e+05,1.7238e+08,0,1241,1228,15.15,0.11,34,96,0,0
4.2315e+05,1.7249e+08,0,1228,1228,15.14,0.11,34,96,0,0
4.236e+05,1.726e+08,0,1228,1228,15.16,0.11,34,96,0,0
4.2404e+05,1.727e+08,0,1228,1228,15.14,0.1,34,96,0,0
4.2448e+05,1.7281e+08,0,1228,1228,15.15,0.11,34,96,0,0
4.2494e+05,1.7293e+08,0,1228,1228,15.16,0.1,34,96,0,0
4.2539e+05,1.7303e+08,0,1228,1228,15.15,0.11,34,96,0,0
4.2579e+05,1.7313e+08,0,1228,1228,15.14,0.1,34,96,0,0
4.2624e+05,1.7324e+08,0,1228,1228,15.15,0.1,34,96,0,0
4.2673e+05,1.7336e+08,0,1228,1228,15.15,0.1,34,96,0,0
4.2718e+05,1.7346e+08,0,1228,1228,15.16,0.1,34,96,0,0
4.2762e+05,1.7357e+08,0,1228,1228,15.16,0.1,34,96,0,0
4.2811e+05,1.7369e+08,0,1228,1228,15.15,0.1,34,96,0,0
4.2855e+05,1.7379e+08,0,1228,1228,15.16,0.1,34,96,0,0
4.29e+05,1.7389e+08,0,1228,1228,15.16,0.1,34,96,0,0
4.2944e+05,1.7401e+08,0,1228,1228,15.16,0.1,34,96,0,0
4.2989e+05,1.7411e+08,0,1229,1242,15.16,0.1,34,96,0,0
4.3037e+05,1.7422e+08,0,1240,1228,15.16,0.1,34,96,0,0
4.3082e+05,1.7434e+08,0,1228,1228,15.16,0.11,34,96,0,0
4.3127e+05,1.7444e+08,0,1228,1228,15.16,0.1,34,96,0,0
4.3211e+05,1.7464e+08,0,1228,1228,15.16,0.11,34,96,0,0
4.3256e+05,1.7476e+08,0,1228,1228,15.17,0.11,34,96,0,0
4.3304e+05,1.7486e+08,0,1228,1228,15.17,0.11,34,96,0,0
4.335e+05,1.7497e+08,0,1228,1228,15.17,0.11,34,96,0,0
4.339e+05,1.7507e+08,0,1228,1228,15.17,0.11,34,96,0,0
4.344e+05,1.7519e+08,0,1172,585,15.19,0.01,34,96,0,0
4.3485e+05,1.753e+08,0,561,228,15.18,0.02,34,96,0,0
4.3527e+05,1.754e+08,0,224,0,15.19,0.04,34,96,0,0
4.3576e+05,1.7551e+08,0,0,0,15.19,0.04,34,96,0,0
4.3621e+05,1.7562e+08,0,0,0,15.19,0.03,34,96,0,0
4.367e+05,1.7573e+08,0,0,0,15.19,0.04,34,96,0,0
4.3716e+05,1.7584e+08,0,0,0,15.19,0.04,34,96,0,0
4.3761e+05,1.7595e+08,0,0,0,15.19,0.04,34,96,0,0
4.3806e+05,1.7605e+08,0,0,0,15.19,0.04,34,96,0,0
4.3856e+05,1.7617e+08,0,0,0,15.19,0.04,34,96,0,0
4.3902e+05,1.7627e+08,0,0,0,15.19,0.04,34,96,0,0
4.3943e+05,1.7638e+08,0,0,0,15.19,0.04,34,96,0,0
4.399e+05,1.7649e+08,0,0,0,15.19,0.04,34,96,0,0
4.4034e+05,1.766e+08,0,0,0,15.19,0.04,34,96,0,0
4.408e+05,1.767e+08,0,0,0,15.2,0.04,34,96,0,0
4.4125e+05,1.7682e+08,0,0,0,15.19,0.04,34,96,0,0
4.417e+05,1.7692e+08,0,0,0,15.2,0.04,34,96,0,0
4.4216e+05,1.7703e+08,0,0,0,15.2,0.04,34,96,0,0
4.4257e+05,1.7713e+08,0,0,0,15.19,0.04,34,96,0,0
4.4302e+05,1.7724e+08,0,0,0,15.19,0.04,34,96,0,0
4.4351e+05,1.7735e+08,0,0,0,15.19,0.04,34,96,0,0
4.4442e+05,1.7757e+08,0,0,0,15.2,0.04,34,96,0,0
4.4487e+05,1.7767e+08,0,0,0,15.2,0.04,34,96,0,0
4.4532e+05,1.7779e+08,0,0,0,15.2,0.04,34,96,0,0
4.4627e+05,1.7801e+08,0,0,0,15.2,0.04,34,96,0,0
4.4717e+05,1.7823e+08,0,0,0,15.2,0.04,34,96,0,0
4.4762e+05,1.7834e+08,0,0,0,15.2,0.04,34,96,0,0
4.4808e+05,1.7844e+08,0,0,0,15.2,0.04,34,96,0,0
4.4853e+05,1.7855e+08,0,0,0,15.2,0.04,34,96,0,0
4.4898e+05,1.7866e+08,0,0,0,15.2,0.04,34,96,0,0
4.4943e+05,1.7876e+08,0,0,0,15.2,0.04,34,96,0,0
4.4993e+05,1.7888e+08,0,0,0,15.2,0.04,34,96,0,0
4.5038e+05,1.7899e+08,0,0,0,15.2,0.04,34,96,0,0
4.5083e+05,1.791e+08,0,0,0,15.2,0.04,34,96,0,0
4.5133e+05,1.7921e+08,0,0,0,15.2,0.04,34,96,0,0
4.5178e+05,1.7932e+08,0,0,0,15.2,0.04,33,96,0,0
4.5223e+05,1.7942e+08,0,0,0,15.2,0.04,33,96,0,0
4.5273e+05,1.7954e+08,0,0,0,15.2,0.04,33,96,0,0
4.5314e+05,1.7964e+08,0,0,0,15.21,0.04,33,96,0,0
4.5363e+05,1.7976e+08,0,0,0,15.21,0.04,33,96,0,0
4.5408e+05,1.7986e+08,0,0,0,15.21,0.04,33,96,0,0
4.5453e+05,1.7997e+08,0,0,0,15.21,0.04,33,96,0,0
4.5498e+05,1.8007e+08,0,0,0,15.21,0.04,33,96,0,0
4.5593e+05,1.803e+08,0,0,0,15.21,0.03,33,96,0,0
4.5639e+05,1.804e+08,0,0,0,15.21,0.04,33,96,0,0
4.5684e+05,1.8051e+08,0,0,0,15.21,0.04,33,96,0,0
4.5725e+05,1.8061e+08,0,0,0,15.21,0.04,33,96,0,0
4.5775e+05,1.8074e+08,0,0,0,15.22,0.04,33,96,0,0
4.5821e+05,1.8084e+08,0,0,0,15.22,0.04,33,96,0,0
4.5912e+05,1.8106e+08,0,0,0,15.22,0.04,33,96,0,0
4.5957e+05,1.8117e+08,0,0,0,15.22,0.04,33,96,0,0
4.6002e+05,1.8128e+08,0,0,0,15.22,0.04,33,96,0,0
4.6044e+05,1.8138e+08,0,0,0,15.22,0.04,33,96,0,0
4.6093e+05,1.815e+08,0,0,0,15.22,0.04,33,96,0,0
4.6138e+05,1.816e+08,0,0,0,15.22,0.04,33,96,0,0
4.6188e+05,1.8172e+08,0,0,0,15.22,0.04,33,96,0,0
4.6233e+05,1.8183e+08,0,0,0,15.22,0.04,33,96,0,0
4.6279e+05,1.8193e+08,0,0,0,15.22,0.04,33,96,0,0
4.6323e+05,1.8204e+08,0,0,0,15.22,0.04,33,96,0,0
4.6368e+05,1.8215e+08,0,0,0,15.22,0.04,33,96,0,0
4.6419e+05,1.8227e+08,0,0,0,15.21,0.04,33,96,0,0
4.6464e+05,1.8237e+08,0,0,0,15.22,0.04,33,96,0,0
4.6509e+05,1.8248e+08,0,0,0,15.22,0.04,33,96,0,0
4.6554e+05,1.8259e+08,0,0,0,15.22,0.03,33,96,0,0
4.66e+05,1.827e+08,0,0,0,15.23,0.04,33,96,0,0
4.6645e+05,1.8281e+08,0,0,0,15.22,0.04,33,96,0,0
4.669e+05,1.8291e+08,0,0,0,15.23,0.04,33,96,0,0
