LineNo,TimeUS,Instance,RPM,RawRPM,Volt,Curr,Temp,CTot,MotTemp,Err
1640,56241008,0,0,0,15.48,0.04,30,0,0,0
2052,56347213,0,0,0,15.48,0.04,30,0,0,0
2471,56454608,0,0,0,15.47,0.04,30,0,0,0
2885,56560852,0,0,0,15.47,0.04,30,0,0,0
3339,56676140,0,0,0,15.48,0.04,30,0,0,0
3750,56778374,0,0,0,15.47,0.04,30,0,0,0
4161,56882942,0,0,0,15.48,0.04,30,0,0,0
4612,56997782,0,0,0,15.48,0.04,30,0,0,0
5018,57101025,0,0,0,15.48,0.04,30,0,0,0
5430,57205795,0,0,0,15.48,0.04,30,0,0,0
5886,57320980,0,0,0,15.48,0.04,30,0,0,0
6301,57424442,0,0,0,15.48,0.04,30,0,0,0
6757,57537124,0,0,0,15.47,0.04,30,0,0,0
7174,57642067,0,0,0,15.48,0.04,30,0,0,0
7597,57752215,0,0,0,15.48,0.04,30,0,0,0
8012,57855225,0,0,0,15.47,0.04,30,0,0,0
8431,57963206,0,0,0,15.47,0.04,30,0,0,0
8883,58077917,0,0,0,15.47,0.04,30,0,0,0
9294,58181681,0,0,0,15.47,0.04,30,0,0,0
10115,58391577,0,0,0,15.47,0.04,30,0,0,0
10532,58500348,0,0,0,15.47,0.04,30,0,0,0
10817,58605962,0,0,0,15.47,0.04,30,0,0,0
11273,58718317,0,0,0,15.48,0.04,30,0,0,0
11686,58824110,0,0,0,15.48,0.04,30,0,0,0
12112,58937567,0,0,0,15.47,0.04,30,0,0,0
12521,59038326,0,0,0,15.48,0.04,30,0,0,0
12972,59151565,0,0,0,15.47,0.04,30,0,0,0
13387,59258341,0,0,0,15.47,0.04,30,0,0,0
13799,59363435,0,0,0,15.47,0.04,30,0,0,0
14254,59477358,0,0,0,15.47,0.04,30,0,0,0
14666,59579450,0,0,0,15.47,0.04,30,0,0,0
15119,59693908,0,0,0,15.48,0.04,30,0,0,0
15531,59797545,0,0,0,15.48,0.05,30,0,0,0
15949,59906611,0,0,0,15.48,0.05,30,0,0,0
16402,60021508,0,0,0,15.48,0.04,30,0,0,0
16817,60123950,0,0,0,15.48,0.04,30,0,0,0
17238,60237375,0,0,0,15.47,0.05,30,0,0,0
17686,60351076,0,0,0,15.48,0.05,30,0,0,0
18093,60452886,0,0,0,15.47,0.05,30,0,0,0
18511,60561186,0,0,0,15.48,0.04,30,0,0,0
18926,60667631,0,0,0,15.47,0.04,30,0,0,0
19345,60773333,0,0,0,15.47,0.04,30,0,0,0
19755,60878926,0,0,0,15.47,0.04,30,0,0,0
20211,60995193,0,0,0,15.48,0.04,30,0,0,0
20621,61099535,0,0,0,15.47,0.04,30,0,0,0
20961,61203437,0,0,0,15.47,0.04,30,0,0,0
54664,81867861,0,0,0,15.48,0.04,30,0,0,0
54832,81907986,0,0,0,15.48,0.04,30,0,0,0
55269,82009378,0,0,0,15.47,0.04,30,0,0,0
55770,82121341,0,0,0,15.48,0.04,30,0,0,0
56193,82229173,0,0,0,15.47,0.04,30,0,0,0
56680,82336909,0,0,0,15.47,0.04,30,0,0,0
57128,82438362,0,0,0,15.47,0.04,30,0,0,0
57624,82553384,0,0,0,15.47,0.04,30,0,0,0
58081,82659617,0,0,0,15.48,0.05,30,0,0,0
58533,82766365,0,0,0,15.47,0.04,30,0,0,0
58990,82870561,0,0,0,15.48,0.04,30,0,0,0
59444,82980414,0,0,0,15.47,0.04,30,0,0,0
59898,83083902,0,0,0,15.47,0.04,30,0,0,0
60383,83191582,0,0,0,15.47,0.04,30,0,0,0
60838,83298274,0,0,0,15.47,0.04,30,0,0,0
61338,83414162,0,0,0,15.47,0.05,30,0,0,0
61791,83517039,0,0,0,15.48,0.04,30,0,0,0
62245,83625161,0,0,0,15.48,0.04,30,0,0,0
63145,83833000,0,0,0,15.47,0.04,30,0,0,0
63640,83948749,0,0,0,15.47,0.03,30,0,0,0
64099,84054202,0,17,271,15.45,0.08,30,0,0,0
64508,84152081,0,279,728,15.44,0.13,30,0,0,0
65006,84265217,0,749,1085,15.44,0.16,30,0,0,0
65493,84376076,0,1089,1185,15.45,0.12,30,0,0,0
66441,84595340,0,1188,1257,15.45,0.11,30,0,0,0
66895,84697896,0,1257,1257,15.45,0.11,30,0,0,0
67390,84813933,0,1259,1300,15.45,0.15,30,0,0,0
68092,85021487,0,1608,2471,15.23,1.02,30,0,0,0
68552,85138192,0,2497,2900,15.34,1.62,30,0,0,0
68963,85235181,0,2906,3285,15.22,1.72,30,0,0,0
69455,85345626,0,3301,4042,15.1,2.13,30,0,0,0
69878,85460531,0,4107,4742,15,3.02,30,0,0,0
70328,85568346,0,4789,5271,14.88,3.57,30,0,0,0
70781,85671396,0,5278,5800,14.75,4.39,30,0,0,0
71235,85781062,0,5817,6185,14.76,4.41,30,0,0,0
71735,85897039,0,6190,6242,14.76,4.26,30,0,0,0
72185,86003888,0,6260,6442,14.76,4.57,30,1,0,0
72605,86106479,0,6441,6414,14.76,4.8,30,1,0,0
73098,86223365,0,6416,6471,14.79,4.52,30,1,0,0
73591,86340184,0,6468,6442,14.83,4.57,30,1,0,0
74002,86438115,0,6438,6371,14.75,4.64,30,1,0,0
74948,86662945,0,6376,6542,14.76,4.84,30,1,0,0
75407,86776784,0,6521,6314,14.89,4.36,30,2,0,0
75860,86882422,0,6311,6285,14.84,4.36,30,2,0,0
76309,86991864,0,6281,6228,14.82,4.11,30,2,0,0
76766,87100739,0,6221,6157,14.77,4.41,30,2,0,0
77214,87208453,0,6157,6171,14.77,4.51,30,2,0,0
77666,87314322,0,6181,6328,14.78,4.5,30,2,0,0
78121,87426613,0,6343,6485,14.75,4.45,30,2,0,0
78564,87527619,0,6482,6371,14.77,4.7,30,2,0,0
79063,87645611,0,6371,6371,14.78,4.68,30,3,0,0
79963,87862026,0,6373,6428,14.8,4.45,30,3,0,0
80416,87971019,0,6425,6400,14.79,4.52,30,3,0,0
80872,88078203,0,6397,6342,14.77,4.23,30,3,0,0
81335,88194421,0,6342,6342,14.71,4.54,30,3,0,0
81781,88300430,0,6344,6400,14.76,4.71,30,3,0,0
82226,88409033,0,6393,6314,14.79,4.08,30,4,0,0
82640,88515870,0,6310,6242,14.77,4.03,30,4,0,0
83083,88625861,0,6244,6300,14.73,4.66,30,4,0,0
83569,88744334,0,6290,6200,14.76,4.25,30,4,0,0
83976,88844394,0,6205,6257,14.78,4.38,30,4,0,0
84421,88954458,0,6253,6214,14.73,4.59,30,4,0,0
84872,89065249,0,6232,6428,14.71,4.91,30,4,0,0
85317,89177615,0,6437,6585,14.66,5.53,30,5,0,0
85763,89284537,0,6586,6600,14.71,5.11,30,5,0,0
86208,89394882,0,6597,6557,14.71,4.92,30,5,0,0
86658,89504978,0,6557,6557,14.67,4.69,30,5,0,0
87102,89614917,0,6544,6428,14.67,4.68,30,5,0,0
87506,89713820,0,6429,6485,14.72,4.84,30,5,0,0
87985,89828781,0,6489,6571,14.73,4.57,30,5,0,0
88440,89944913,0,6541,6342,14.81,4.13,30,6,0,0
88845,90041442,0,6342,6342,14.8,4.3,30,6,0,0
89293,90153251,0,6345,6428,14.73,4.4,30,6,0,0
89741,90262126,0,6407,6228,14.79,4.2,30,6,0,0
90141,90358958,0,6221,6100,14.75,4.13,30,6,0,0
90594,90470520,0,6103,6157,14.83,4,30,6,0,0
91043,90583351,0,6151,6071,14.84,3.9,30,6,0,0
91490,90688949,0,6067,6000,14.8,3.94,30,6,0,0
91941,90800373,0,6006,6100,14.72,3.91,30,7,0,0
92394,90912393,0,6098,6085,14.78,4.09,30,7,0,0
92880,91026374,0,6098,6242,14.77,4.55,30,7,0,0
93325,91139150,0,6237,6200,14.83,4.3,30,7,0,0
93727,91236882,0,6202,6257,14.79,4.1,30,7,0,0
94585,91454361,0,6259,6385,14.78,4.49,31,7,0,0
95021,91557553,0,6383,6314,14.73,4.47,31,8,0,0
95477,91668606,0,6312,6271,14.7,4.44,31,8,0,0
95922,91776970,0,6272,6300,14.71,4.48,31,8,0,0
96377,91888409,0,6311,6428,14.73,4.44,31,8,0,0
96820,91995364,0,6431,6485,14.75,4.65,31,8,0,0
97268,92105132,0,6489,6585,14.7,4.56,31,8,0,0
97756,92225389,0,6574,6457,14.7,4.85,31,8,0,0
98166,92326482,0,6456,6400,14.71,4.91,31,8,0,0
98609,92436604,0,6403,6471,14.74,4.74,31,9,0,0
99055,92546095,0,6471,6471,14.66,5.08,31,9,0,0
99505,92656423,0,6478,6557,14.72,4.87,31,9,0,0
99946,92762399,0,6548,6428,14.76,4.8,31,9,0,0
100356,92864247,0,6433,6542,14.71,4.88,31,9,0,0
100806,92977446,0,6539,6500,14.72,5.01,31,9,0,0
101259,93088329,0,6498,6485,14.73,4.81,31,10,0,0
101708,93203156,0,6490,6557,14.67,4.56,31,10,0,0
102115,93304131,0,6551,6428,14.66,4.7,31,10,0,0
102560,93415333,0,6428,6428,14.67,4.83,31,10,0,0
103014,93531378,0,6428,6428,14.72,4.68,31,10,0,0
103418,93629456,0,6428,6471,14.72,4.8,31,10,0,0
103904,93749329,0,6469,6457,14.67,4.92,31,10,0,0
104355,93858633,0,6454,6428,14.74,4.63,31,11,0,0
104762,93961467,0,6428,6442,14.69,4.4,31,11,0,0
105252,94076318,0,6438,6400,14.68,4.75,31,11,0,0
105659,94181166,0,6402,6428,14.71,4.37,31,11,0,0
106104,94286980,0,6427,6414,14.68,4.57,31,11,0,0
106505,94387629,0,6414,6428,14.67,4.8,31,11,0,0
107000,94505132,0,6426,6414,14.66,4.98,31,11,0,0
107445,94615066,0,6434,6657,14.76,4.68,31,11,0,0
107853,94716421,0,6654,6442,14.66,4.66,31,12,0,0
108296,94827555,0,6439,6385,14.72,4.74,31,12,0,0
108757,94951439,0,6408,6671,14.65,4.87,31,12,0,0
109165,95044873,0,6660,6414,14.69,4.61,31,12,0,0
109608,95157631,0,6430,6628,14.67,5.25,31,12,0,0
110054,95267873,0,6617,6542,14.76,4.55,31,12,0,0
110462,95375038,0,6543,6557,14.66,4.57,31,13,0,0
111359,95596970,0,6554,6500,14.66,4.83,31,13,0,0
111771,95696477,0,6501,6600,14.69,5.01,31,13,0,0
112251,95811354,0,6591,6457,14.7,4.73,31,13,0,0
112748,95931142,0,6457,6457,14.7,4.78,31,13,0,0
113152,96035341,0,6459,6485,14.69,4.77,31,13,0,0
113594,96144333,0,6481,6442,14.63,4.83,31,14,0,0
114446,96356337,0,6440,6400,14.63,4.58,31,14,0,0
114939,96475927,0,6387,6285,14.67,4.36,31,14,0,0
115344,96574628,0,6284,6271,14.6,4.65,31,14,0,0
115786,96682379,0,6278,6442,14.66,4.65,32,14,0,0
116194,96784079,0,6442,6442,14.73,4.36,31,14,0,0
116681,96902175,0,6438,6385,14.69,4.64,32,14,0,0
117128,97014350,0,6386,6400,14.66,4.72,32,15,0,0
117577,97120016,0,6414,6557,14.63,4.64,32,15,0,0
117979,97223996,0,6558,6628,14.7,4.97,32,15,0,0
118510,97351334,0,6606,6371,14.76,4.16,32,15,0,0
119358,97555603,0,6374,6457,14.72,5.04,32,15,0,0
119810,97668358,0,6453,6414,14.57,5.06,32,16,0,0
120210,97769371,0,6416,6471,14.73,4.8,32,16,0,0
120657,97874180,0,6460,6242,14.75,4.69,32,16,0,0
121105,97986863,0,6239,6085,14.68,4.51,32,16,0,0
121594,98101933,0,6082,6057,14.76,4.05,32,16,0,0
121994,98201600,0,6059,6200,14.7,4.05,32,16,0,0
122444,98311131,0,6202,6242,14.7,4.15,32,16,0,0
122894,98425239,0,6235,6171,14.69,4.15,32,16,0,0
123297,98524911,0,6170,6142,14.71,4.51,32,17,0,0
124190,98750001,0,6146,6228,14.66,4.4,32,17,0,0
124598,98847123,0,6228,6242,14.64,4.46,32,17,0,0
125045,98958609,0,6257,6457,14.66,4.55,32,17,0,0
125494,99068098,0,6452,6385,14.69,4.71,32,17,0,0
125937,99177885,0,6387,6428,14.69,4.93,32,17,0,0
126390,99288936,0,6430,6485,14.67,4.73,32,18,0,0
126835,99398087,0,6495,6628,14.66,4.87,32,18,0,0
127284,99508620,0,6622,6542,14.59,5.11,32,18,0,0
127726,99619376,0,6547,6614,14.6,5.25,32,18,0,0
128138,99721313,0,6620,6757,14.64,5.27,32,18,0,0
128585,99830978,0,6756,6742,14.6,5.25,32,18,0,0
129078,99948092,0,6740,6728,14.63,4.97,32,19,0,0
129482,100048827,0,6731,6771,14.6,4.79,32,19,0,0
129924,100160448,0,6760,6628,14.58,4.81,32,19,0,0
130332,100259413,0,6621,6371,14.61,4.81,32,19,0,0
130782,100373174,0,6374,6428,14.67,4.4,32,19,0,0
131233,100480758,0,6414,6285,14.67,4.37,32,19,0,0
131676,100592410,0,6287,6314,14.61,5,32,19,0,0
132131,100700381,0,6321,6400,14.7,4.64,32,19,0,0
132533,100804335,0,6399,6385,14.73,4.48,32,20,0,0
133019,100914539,0,6376,6214,14.67,4.55,32,20,0,0
133467,101027876,0,6210,6157,14.67,4.26,32,20,0,0
133880,101134607,0,6170,6314,14.6,4.65,32,20,0,0
134286,101236003,0,6312,6214,14.61,4.83,32,20,0,0
134773,101352404,0,6220,6314,14.67,4.58,32,20,0,0
135187,101456926,0,6318,6514,14.67,4.72,32,20,0,0
135631,101567331,0,6510,6457,14.66,4.72,32,21,0,0
136077,101674539,0,6454,6400,14.79,4.25,32,21,0,0
136520,101785321,0,6388,6228,14.64,4.5,32,21,0,0
136974,101896193,0,6226,6200,14.61,4.62,32,21,0,0
137412,102004595,0,6200,6228,14.6,4.62,32,21,0,0
137907,102120336,0,6237,6371,14.63,4.7,32,21,0,0
138349,102227871,0,6376,6457,14.65,4.89,32,21,0,0
138796,102341451,0,6440,6285,14.57,4.74,32,22,0,0
139250,102450446,0,6291,6357,14.63,4.61,32,22,0,0
139695,102561427,0,6353,6314,14.6,4.44,32,22,0,0
140179,102674319,0,6311,6285,14.54,4.65,32,22,0,0
140586,102779985,0,6315,6600,14.59,4.89,32,22,0,0
141036,102886312,0,6592,6485,14.52,4.97,32,22,0,0
141480,102998369,0,6494,6628,14.57,4.79,32,22,0,0
141930,103106984,0,6605,6385,14.57,4.53,32,22,0,0
142333,103210177,0,6385,6442,14.59,4.73,32,23,0,0
142782,103318581,0,6440,6342,14.57,4.77,32,23,0,0
143269,103437404,0,6355,6500,14.57,4.79,32,23,0,0
143670,103538918,0,6498,6485,14.52,4.94,32,23,0,0
144119,103647659,0,6485,6485,14.6,4.82,32,23,0,0
144570,103761884,0,6494,6628,14.6,4.89,32,23,0,0
144973,103862027,0,6625,6471,14.6,4.66,32,24,0,0
145425,103974852,0,6471,6485,14.64,4.58,33,24,0,0
145872,104081965,0,6485,6485,14.65,4.65,33,24,0,0
146314,104190381,0,6482,6442,14.63,4.42,33,24,0,0
146762,104298562,0,6435,6328,14.65,4.35,33,24,0,0
147211,104412911,0,6318,6185,14.66,4.39,32,24,0,0
147662,104522108,0,6196,6300,14.64,4.2,33,24,0,0
148107,104630859,0,6297,6271,14.65,4.62,33,25,0,0
148509,104733017,0,6271,6300,14.68,4.18,33,25,0,0
148957,104841562,0,6298,6257,14.65,4.2,33,25,0,0
149177,104954365,0,6257,6257,14.68,4.02,33,25,0,0
149622,105060365,0,6251,6114,14.63,4.18,33,25,0,0
150071,105171985,0,6124,6342,14.6,4.69,33,25,0,0
150520,105283007,0,6345,6414,14.57,4.7,33,25,0,0
150930,105388635,0,6415,6485,14.6,4.84,33,25,0,0
151418,105503920,0,6489,6557,14.58,5.02,33,26,0,0
151863,105613430,0,6547,6428,14.68,4.38,33,26,0,0
152314,105723571,0,6421,6342,14.6,4.64,33,26,0,0
152719,105824140,0,6342,6371,14.67,4.73,33,26,0,0
153206,105942470,0,6364,6228,14.6,4.4,33,26,0,0
153611,106041909,0,6230,6285,14.55,4.8,33,26,0,0
154017,106145891,0,6287,6500,14.63,4.79,33,26,0,0
154505,106265104,0,6516,6657,14.58,5.53,33,27,0,0
154955,106379634,0,6664,6728,14.54,6.39,33,27,0,0
155363,106475854,0,6745,7014,14.48,7.21,33,27,0,0
155805,106582620,0,7017,7171,14.4,7.52,33,27,0,0
156258,106694596,0,7188,7328,14.51,7.25,33,27,0,0
156670,106800591,0,7333,7400,14.55,7.41,33,28,0,0
157120,106910592,0,7387,7257,14.5,6.1,33,28,0,0
157570,107023603,0,7199,6657,14.5,5.29,33,28,0,0
157971,107121482,0,6634,6300,14.6,3.52,33,28,0,0
158419,107237998,0,6241,5714,14.7,1.98,33,28,0,0
158829,107338471,0,5671,4814,14.67,1.25,33,28,0,0
159309,107449335,0,4777,4157,14.64,0.66,33,28,0,0
159757,107566985,0,4143,3985,14.69,1.36,33,28,0,0
160613,107776024,0,3992,4328,14.65,1.77,33,28,0,0
161068,107890346,0,4346,4600,14.66,2.24,33,28,0,0
161927,108106343,0,4620,5257,14.6,3.66,33,29,0,0
162374,108219681,0,5308,5842,14.55,4.44,33,29,0,0
162821,108328332,0,5872,6171,14.52,4.97,33,29,0,0
163222,108427629,0,6180,6257,14.52,5.32,33,29,0,0
163665,108538435,0,6302,6671,14.54,5.56,33,29,0,0
164072,108638588,0,6673,6800,14.55,5.64,33,29,0,0
164563,108756927,0,6797,6742,14.54,5.25,33,30,0,0
165013,108866196,0,6735,6642,14.58,5.27,33,30,0,0
165459,108977355,0,6655,6785,14.49,5.93,33,30,0,0
165864,109076466,0,6789,6957,14.38,6.06,33,30,0,0
166310,109187871,0,6963,7071,14.48,6.17,33,30,0,0
166806,109309204,0,7057,6900,14.5,5.74,33,31,0,0
167703,109532357,0,6889,6657,14.5,5,33,31,0,0
168140,109632250,0,6632,6414,14.49,4.87,33,31,0,0
168546,109738014,0,6414,6428,14.52,4.92,33,31,0,0
168997,109843223,0,6428,6457,14.54,4.45,33,31,0,0
169442,109951614,0,6447,6242,14.52,4.21,33,31,0,0
169892,110061334,0,6247,6357,14.49,4.45,33,31,0,0
170340,110174329,0,6356,6342,14.5,4.52,33,32,0,0
170786,110282004,0,6343,6414,14.62,4.5,33,32,0,0
171722,110509224,0,6405,6242,14.7,3.65,33,32,0,0
172124,110611048,0,6225,5985,14.68,3.93,33,32,0,0
172577,110721748,0,5993,6100,14.64,4.27,34,32,0,0
173020,110827347,0,6111,6371,14.61,4.25,33,32,0,0
173468,110941153,0,6343,6057,14.68,3.8,33,32,0,0
173916,111049387,0,6042,5900,14.67,2.93,33,33,0,0
174316,111150328,0,5890,5685,14.58,3.07,34,33,0,0
174764,111260565,0,5685,5685,14.58,3.82,34,33,0,0
175208,111371570,0,5698,5957,14.63,3.68,34,33,0,0
175658,111482207,0,5965,6085,14.6,4.28,34,33,0,0
176107,111594421,0,6085,6100,14.59,4.53,33,33,0,0
176555,111703091,0,6156,6700,14.55,5.51,34,33,0,0
177005,111814206,0,6701,6714,14.63,5.69,34,34,0,0
177455,111923860,0,6711,6685,14.6,5.13,34,34,0,0
177856,112022680,0,6681,6600,14.58,5.35,34,34,0,0
178314,112137646,0,6603,6628,14.54,5.26,34,34,0,0
178764,112248774,0,6630,6657,14.54,5.19,33,34,0,0
179209,112357929,0,6657,6657,14.6,5.89,34,34,0,0
179658,112464456,0,6655,6628,14.54,5.63,34,34,0,0
180105,112578130,0,6609,6428,14.57,5.09,34,35,0,0
181446,112906103,0,6429,6471,14.51,4.76,34,35,0,0
181891,113018355,0,6463,6385,14.61,4.02,34,35,0,0
182339,113133433,0,6369,6285,14.67,4.45,34,35,0,0
183046,113342859,0,6257,6085,14.67,3.98,34,36,0,0
183789,113568904,0,6064,6000,14.69,3.96,34,36,0,0
184197,113670320,0,6001,6042,14.63,4.71,34,36,0,0
184642,113781005,0,6033,5914,14.7,4.5,34,36,0,0
185097,113889389,0,5924,6071,14.65,4.28,34,36,0,0
185542,114000639,0,6072,6100,14.57,5.08,34,36,0,0
185987,114107495,0,6105,6185,14.62,4.66,34,37,0,0
186433,114218936,0,6191,6257,14.6,4.26,34,37,0,0
186879,114321928,0,6251,6142,14.58,4.48,34,37,0,0
187318,114430470,0,6148,6285,14.66,4.55,34,37,0,0
187766,114542765,0,6278,6185,14.64,4.36,34,37,0,0
188216,114652348,0,6185,6185,14.58,4.57,34,37,0,0
188663,114769002,0,6198,6328,14.69,4.36,34,37,0,0
189115,114879198,0,6332,6371,14.73,4.23,34,37,0,0
189517,114977447,0,6360,6142,14.61,4.06,34,38,0,0
189971,115090132,0,6147,6200,14.55,4.11,34,38,0,0
190375,115194464,0,6206,6357,14.61,4.46,34,38,0,0
190826,115304172,0,6351,6228,14.6,4.13,34,38,0,0
191272,115417580,0,6244,6385,14.51,4.88,34,38,0,0
191720,115528653,0,6392,6457,14.64,4.88,34,38,0,0
192124,115626964,0,6454,6400,14.69,4.44,34,38,0,0
192573,115737993,0,6405,6485,14.6,4.64,34,39,0,0
192986,115841406,0,6484,6457,14.68,4.43,34,39,0,0
193428,115951900,0,6451,6314,14.63,4.5,34,39,0,0
193913,116063971,0,6316,6342,14.6,4.62,34,39,0,0
194316,116166976,0,6343,6385,14.53,4.74,34,39,0,0
194767,116276681,0,6383,6357,14.56,4.49,34,39,0,0
195175,116382925,0,6356,6314,14.57,4.66,34,39,0,0
195630,116498175,0,6326,6414,14.6,4.46,34,40,0,0
196074,116602848,0,6397,6142,14.64,4.15,34,40,0,0
196520,116711783,0,6153,6300,14.61,4.24,34,40,0,0
196965,116826034,0,6301,6314,14.57,4.49,34,40,0,0
198712,117256884,0,6313,6185,14.61,4.29,34,40,0,0
199189,117373024,0,6219,6414,14.62,4.38,34,41,0,0
199593,117473896,0,6412,6328,14.58,4.4,34,41,0,0
200051,117583984,0,6324,6271,14.6,4.18,34,41,0,0
200499,117699448,0,6274,6300,14.6,4.31,34,41,0,0
200911,117800461,0,6298,6271,14.53,4.49,34,41,0,0
201356,117913604,0,6271,6271,14.56,4.28,34,41,0,0
201765,118014957,0,6270,6242,14.58,4.14,34,41,0,0
202243,118135113,0,6235,6185,14.55,4.2,34,41,0,0
202695,118245610,0,6173,6071,14.6,3.98,34,42,0,0
203142,118354040,0,6061,5985,14.62,3.86,34,42,0,0
203545,118454980,0,6000,6171,14.55,3.66,34,42,0,0
203992,118565185,0,6175,6242,14.61,4.76,34,42,0,0
205369,118897190,0,6241,6228,14.52,4.38,34,42,0,0
205773,119002419,0,6231,6285,14.52,4.77,34,43,0,0
206224,119115463,0,6283,6257,14.51,4.54,34,43,0,0
206671,119227865,0,6281,6442,14.52,4.82,34,43,0,0
207075,119324246,0,6438,6285,14.52,4.34,34,43,0,0
207568,119447872,0,6282,6257,14.49,4.45,34,43,0,0
208008,119555239,0,6262,6314,14.56,4.18,34,43,0,0
208414,119653209,0,6305,6142,14.61,3.83,34,43,0,0
208864,119767219,0,6140,6114,14.57,4.07,34,43,0,0
209316,119875381,0,6113,6057,14.54,4.45,34,44,0,0
209762,119987462,0,6058,6085,14.64,3.85,34,44,0,0
210247,120100452,0,6061,5828,14.6,3.37,34,44,0,0
210690,120207942,0,5826,5800,14.58,3.72,34,44,0,0
211100,120309864,0,5817,6042,14.58,4.41,34,44,0,0
211543,120419668,0,6040,6014,14.61,4.15,34,44,0,0
211997,120534045,0,6020,6314,14.55,4.78,34,44,0,0
212445,120644351,0,6308,6242,14.58,4.38,34,44,0,0
212898,120756435,0,6250,6342,14.54,4.51,34,45,0,0
213350,120866320,0,6335,6271,14.5,4.37,34,45,0,0
213752,120966810,0,6270,6242,14.53,4.37,34,45,0,0
214246,121086151,0,6248,6314,14.47,4.59,34,45,0,0
214688,121193054,0,6320,6385,14.56,4.44,34,45,0,0
215099,121294209,0,6380,6285,14.52,4.64,34,45,0,0
215582,121409936,0,6291,6357,14.52,4.78,34,45,0,0
215985,121508548,0,6356,6328,14.54,4.85,34,46,0,0
216434,121624242,0,6335,6414,14.6,4.53,34,46,0,0
216879,121730858,0,6415,6442,14.53,4.71,34,46,0,0
217332,121843886,0,6442,6442,14.57,5.16,34,46,0,0
217742,121949585,0,6444,6485,14.54,4.63,34,46,0,0
218189,122058866,0,6493,6657,14.6,4.9,34,46,0,0
218634,122170228,0,6654,6442,14.57,4.43,34,46,0,0
219130,122288948,0,6439,6414,14.55,4.7,34,47,0,0
219535,122391486,0,6414,6428,14.57,4.24,34,47,0,0
220017,122503057,0,6421,6328,14.56,4.21,34,47,0,0
220420,122608554,0,6327,6314,14.6,4.49,34,47,0,0
220871,122720629,0,6311,6285,14.64,4.29,34,47,0,0
221730,122936996,0,6282,6228,14.59,3.9,34,47,0,0
222181,123048561,0,6218,6114,14.54,4,34,47,0,0
222628,123161463,0,6126,6257,14.57,4.11,34,48,0,0
223036,123264229,0,6255,6214,14.51,4.46,34,48,0,0
223480,123377437,0,6217,6257,14.51,4.41,34,48,0,0
223885,123479421,0,6248,6142,14.57,4.36,34,48,0,0
224332,123589771,0,6149,6228,14.52,4.46,34,48,0,0
224817,123701955,0,6231,6271,14.54,4.55,34,48,0,0
225221,123806150,0,6270,6257,14.55,4.74,34,48,0,0
225666,123912882,0,6257,6285,14.5,4.57,34,49,0,0
226113,124024720,0,6287,6357,14.54,4.62,34,49,0,0
226596,124140192,0,6346,6242,14.53,4.51,34,49,0,0
227005,124241203,0,6237,6157,14.54,4.46,34,49,0,0
227449,124351414,0,6164,6271,14.5,4.56,34,49,0,0
228341,124570873,0,6269,6228,14.55,4.22,34,49,0,0
228788,124680230,0,6214,6042,14.54,4.16,34,50,0,0
229193,124787624,0,6046,6100,14.55,4.12,34,50,0,0
229645,124898671,0,6100,6100,14.58,3.86,34,50,0,0
230053,125000971,0,6100,6114,14.56,3.96,34,50,0,0
230544,125123364,0,6102,6000,14.54,4.03,34,50,0,0
230994,125235243,0,6007,6142,14.58,3.83,34,50,0,0
231433,125344618,0,6113,5871,14.6,3.78,34,50,0,0
231838,125443458,0,5872,5942,14.58,3.59,34,50,0,0
232285,125553972,0,5937,5885,14.57,3.58,34,50,0,0
232733,125668175,0,5885,5885,14.56,3.53,34,51,0,0
233628,125885384,0,5876,5728,14.54,3.47,35,51,0,0
234035,125991934,0,5725,5700,14.59,3.5,34,51,0,0
234487,126101629,0,5714,5871,14.54,3.61,34,51,0,0
234890,126200230,0,5871,5871,14.54,3.51,34,51,0,0
235379,126321093,0,5863,5757,14.54,3.13,34,51,0,0
235788,126428239,0,5744,5614,14.48,3.07,34,51,0,0
236229,126533349,0,5612,5600,14.51,3.01,34,51,0,0
237046,126741177,0,5597,5314,14.52,3,34,52,0,0
237493,126849891,0,5319,5657,14.47,3.09,34,52,0,0
237940,126960426,0,5665,5771,14.55,3.57,34,52,0,0
238382,127064420,0,5781,5957,14.53,3.63,34,52,0,0
238839,127177395,0,5962,6042,14.48,3.94,35,52,0,0
239283,127283320,0,6036,5928,14.51,3.82,34,52,0,0
239692,127388888,0,5924,5885,14.5,4.32,34,52,0,0
240137,127495164,0,5890,5971,14.55,3.96,34,52,0,0
240990,127705580,0,5973,6171,14.45,4.43,35,53,0,0
241441,127822771,0,6177,6242,14.51,4.52,35,53,0,0
241928,127934376,0,6251,6342,14.42,4.7,34,53,0,0
242329,128037104,0,6335,6285,14.47,4.84,34,53,0,0
242734,128137347,0,6287,6442,14.47,4.72,34,53,0,0
243181,128248321,0,6437,6357,14.5,4.67,35,53,0,0
243625,128357221,0,6354,6314,14.45,4.57,35,54,0,0
244069,128464243,0,6316,6371,14.43,4.79,34,54,0,0
244510,128573939,0,6377,6500,14.45,4.96,35,54,0,0
244967,128687448,0,6502,6528,14.5,4.84,35,54,0,0
245366,128788964,0,6522,6228,14.49,4.2,34,54,0,0
245857,128906471,0,6234,6300,14.52,4.03,35,54,0,0
247148,129223619,0,6300,6314,14.55,4.5,35,55,0,0
247636,129344206,0,6312,6300,14.54,4.45,34,55,0,0
248039,129442448,0,6310,6442,14.53,4.79,35,55,0,0
248481,129552351,0,6441,6428,14.52,4.71,35,55,0,0
248929,129661166,0,6420,6271,14.47,4.63,35,55,0,0
249337,129764630,0,6274,6385,14.5,4.52,35,55,0,0
249821,129878599,0,6385,6385,14.5,4.54,35,55,0,0
250221,129980568,0,6384,6357,14.5,4.73,35,56,0,0
250672,130093108,0,6358,6400,14.55,4.64,35,56,0,0
251124,130208789,0,6398,6371,14.49,4.54,34,56,0,0
251578,130319943,0,6368,6342,14.49,4.51,34,56,0,0
252027,130433133,0,6338,6300,14.5,4.7,35,56,0,0
252431,130534579,0,6304,6357,14.52,4.9,35,56,0,0
252878,130645006,0,6360,6400,14.55,4.71,35,56,0,0
253279,130746923,0,6401,6485,14.58,4.65,35,56,0,0
253733,130859184,0,6478,6385,14.55,4.45,34,57,0,0
254179,130970127,0,6389,6457,14.5,4.48,35,57,0,0
254627,131078575,0,6440,6200,14.56,4.33,35,57,0,0
255074,131190448,0,6218,6400,14.51,4.62,35,57,0,0
255478,131290557,0,6393,6257,14.58,3.99,35,57,0,0
255925,131403906,0,6255,6228,14.51,4.14,35,57,0,0
256372,131511072,0,6224,6142,14.57,4.13,35,57,0,0
256850,131623916,0,6140,6128,14.51,4.18,35,58,0,0
257748,131842566,0,6129,6171,14.55,4.31,35,58,0,0
258636,132060101,0,6166,6057,14.55,4.3,35,58,0,0
259085,132173374,0,6070,6214,14.5,4.51,35,58,0,0
259492,132274869,0,6216,6271,14.51,4.72,35,58,0,0
259977,132391439,0,6265,6200,14.53,4.5,35,59,0,0
260423,132502108,0,6202,6228,14.56,4.14,35,59,0,0
260869,132612012,0,6230,6257,14.52,4.56,35,59,0,0
261273,132711861,0,6259,6385,14.52,4.54,35,59,0,0
261719,132822185,0,6383,6285,14.57,4.37,35,59,0,0
262167,132928849,0,6281,6128,14.57,4.36,35,59,0,0
262608,133037325,0,6130,6171,14.55,4.32,35,59,0,0
263054,133147202,0,6191,6400,14.55,4.73,35,59,0,0
263499,133252869,0,6390,6257,14.49,4.72,35,60,0,0
263900,133355228,0,6258,6342,14.55,4.52,35,60,0,0
264387,133469423,0,6336,6214,14.58,4.32,35,60,0,0
264833,133581330,0,6219,6300,14.58,4.49,35,60,0,0
265286,133692248,0,6291,6214,14.55,4.4,35,60,0,0
265731,133802955,0,6222,6314,14.6,4.33,35,60,0,0
266177,133908623,0,6308,6228,14.56,4.44,35,60,0,0
266582,134012602,0,6231,6314,14.55,4.75,35,60,0,0
267030,134122117,0,6320,6414,14.51,4.52,35,61,0,0
267472,134230143,0,6407,6300,14.45,4.77,35,61,0,0
267914,134341228,0,6311,6557,14.5,4.97,35,61,0,0
268365,134453420,0,6560,6600,14.42,5.01,35,61,0,0
268811,134567215,0,6570,6300,14.42,5.26,35,61,0,0
269256,134673938,0,6327,6571,14.47,5.08,35,61,0,0
269704,134784912,0,6555,6414,14.54,5,35,62,0,0
270152,134897089,0,6414,6414,14.48,5.06,35,62,0,0
270558,135000206,0,6417,6471,14.46,5.12,35,62,0,0
271039,135114893,0,6481,6542,14.47,5.04,35,62,0,0
271443,135210549,0,6543,6600,14.46,5.18,35,62,0,0
271892,135318120,0,6598,6471,14.48,4.8,35,62,0,0
272816,135548364,0,6465,6371,14.49,4.72,35,63,0,0
273266,135658382,0,6374,6414,14.46,4.8,35,63,0,0
273666,135759943,0,6415,6528,14.51,4.69,35,63,0,0
274150,135870472,0,6518,6385,14.42,4.74,35,63,0,0
274596,135981574,0,6387,6414,14.42,4.69,35,63,0,0
275048,136093139,0,6408,6342,14.48,4.58,35,63,0,0
275450,136195222,0,6336,6228,14.47,4.26,35,63,0,0
275904,136305866,0,6240,6371,14.44,4.94,35,64,0,0
276792,136526106,0,6366,6228,14.49,4.45,35,64,0,0
277229,136634622,0,6228,6228,14.5,4.44,35,64,0,0
277679,136750107,0,6228,6228,14.47,4.7,35,64,0,0
278561,136962679,0,6229,6271,14.47,4.56,35,64,0,0
278972,137069172,0,6272,6300,14.47,4.49,35,65,0,0
279460,137187381,0,6303,6357,14.41,4.35,35,65,0,0
279910,137297563,0,6350,6285,14.47,4.77,35,65,0,0
280757,137508161,0,6284,6257,14.49,4.57,35,65,0,0
281212,137624243,0,6268,6385,14.48,4.78,35,65,0,0
281618,137729342,0,6378,6300,14.47,4.73,35,65,0,0
282063,137834410,0,6308,6428,14.55,4.79,35,65,0,0
282472,137940531,0,6434,6571,14.52,4.39,35,66,0,0
282920,138047911,0,6567,6485,14.54,4.48,35,66,0,0
283363,138156185,0,6484,6471,14.55,4.32,35,66,0,0
283855,138277362,0,6459,6342,14.45,4.45,35,66,0,0
284258,138378555,0,6332,6228,14.45,4.44,35,66,0,0
284703,138486990,0,6246,6400,14.48,4.12,35,66,0,0
285106,138590168,0,6395,6300,14.48,4.41,35,66,0,0
285591,138702378,0,6305,6428,14.55,4.52,35,67,0,0
286001,138811252,0,6423,6228,14.48,3.95,35,67,0,0
286900,139031554,0,6225,6171,14.45,4.62,35,67,0,0
287306,139132102,0,6177,6457,14.44,4.94,35,67,0,0
287754,139244377,0,6449,6342,14.44,4.47,35,67,0,0
288195,139351618,0,6347,6428,14.43,4.63,35,67,0,0
288643,139460881,0,6417,6271,14.42,4.75,35,68,0,0
289090,139575345,0,6285,6442,14.37,5.33,35,68,0,0
289500,139677859,0,6453,6742,14.39,5.67,35,68,0,0
289978,139791384,0,6745,6785,14.42,5.34,35,68,0,0
290386,139894983,0,6777,6685,14.45,5.15,35,68,0,0
290830,140003940,0,6693,6800,14.45,5.36,35,68,0,0
291283,140113313,0,6796,6742,14.47,5.03,35,68,0,0
291698,140225916,0,6727,6585,14.54,4.66,35,69,0,0
292138,140332460,0,6589,6657,14.49,4.64,35,69,0,0
292585,140440429,0,6645,6485,14.48,4.64,35,69,0,0
293470,140657127,0,6484,6442,14.45,4.66,35,69,0,0
293875,140762199,0,6444,6500,14.48,4.8,35,69,0,0
294323,140870367,0,6499,6485,14.4,4.87,35,70,0,0
294765,140977783,0,6486,6571,14.46,4.77,35,70,0,0
295214,141087597,0,6565,6442,14.49,4.34,35,70,0,0
295702,141204433,0,6431,6314,14.52,3.99,35,70,0,0
296144,141309811,0,6315,6342,14.47,4.27,35,70,0,0
296544,141411063,0,6341,6271,14.57,4.24,35,70,0,0
296989,141522879,0,6264,6185,14.57,3.72,35,70,0,0
297435,141631213,0,6201,6442,14.47,4.5,35,70,0,0
297838,141733901,0,6455,6628,14.55,4.27,35,71,0,0
298287,141842575,0,6591,6100,14.57,3.76,35,71,0,0
298732,141953336,0,6120,6328,14.55,3.93,35,71,0,0
299185,142064379,0,6316,6200,14.56,4.17,35,71,0,0
299587,142165188,0,6192,6028,14.66,3.41,35,71,0,0
300083,142281876,0,6015,5885,14.61,3.39,35,71,0,0
300485,142383435,0,5885,5914,14.61,3.48,35,71,0,0
301375,142601780,0,5909,5728,14.63,2.8,35,71,0,0
301864,142717902,0,5750,6085,14.57,4.29,35,71,0,0
302267,142822039,0,6083,6057,14.59,3.65,35,72,0,0
302718,142936448,0,6059,6085,14.54,3.79,35,72,0,0
303126,143039230,0,6094,6228,14.55,4.04,35,72,0,0
304019,143257614,0,6239,6485,14.52,4.48,35,72,0,0
304419,143358962,0,6484,6471,14.5,4.21,35,72,0,0
304870,143471072,0,6459,6300,14.48,4.44,35,72,0,0
305319,143585042,0,6311,6428,14.47,4.51,35,73,0,0
305723,143684123,0,6420,6271,14.49,4.39,35,73,0,0
306171,143798073,0,6285,6500,14.45,4.85,35,73,0,0
306617,143905117,0,6501,6514,14.41,4.92,35,73,0,0
307020,144008783,0,6536,6757,14.48,5.01,35,73,0,0
307474,144119660,0,6752,6700,14.45,5.09,35,73,0,0
307909,144224236,0,6695,6600,14.49,4.98,35,73,0,0
308357,144338243,0,6578,6400,14.47,4.36,35,74,0,0
308766,144438968,0,6411,6642,14.47,5.08,35,74,0,0
309214,144554434,0,6643,6657,14.44,4.97,35,74,0,0
309623,144655434,0,6655,6542,14.51,4.83,35,74,0,0
310070,144769170,0,6545,6614,14.52,4.84,35,74,0,0
310519,144877994,0,6609,6485,14.46,4.93,35,74,0,0
310961,144986886,0,6492,6600,14.48,4.89,35,74,0,0
311411,145095053,0,6586,6400,14.48,4.23,35,75,0,0
311853,145202190,0,6398,6371,14.45,4.65,35,75,0,0
312305,145315251,0,6367,6314,14.44,4.45,35,75,0,0
312754,145425892,0,6311,6285,14.52,4.35,35,75,0,0
313203,145538451,0,6286,6300,14.49,4.34,35,75,0,0
313643,145641199,0,6293,6200,14.48,3.94,35,75,0,0
314084,145748336,0,6189,5985,14.55,3.69,35,75,0,0
314534,145858898,0,5974,5842,14.55,3.75,35,75,0,0
314938,145962444,0,5841,5828,14.54,3.74,35,76,0,0
315244,146072772,0,5830,5871,14.54,3.51,35,76,0,0
315692,146188367,0,5865,5814,14.55,4.12,35,76,0,0
316138,146295231,0,5829,6014,14.53,3.65,35,76,0,0
316580,146403887,0,6008,5900,14.47,4.16,35,76,0,0
317065,146522197,0,5907,5971,14.53,3.94,35,76,0,0
317516,146631240,0,5973,6000,14.49,3.98,35,76,0,0
317922,146735917,0,6002,6057,14.47,4.32,35,76,0,0
318398,146844968,0,6064,6200,14.49,4.06,35,77,0,0
318846,146956862,0,6195,6128,14.42,4.26,35,77,0,0
319258,147056333,0,6132,6185,14.53,4.21,35,77,0,0
319706,147173395,0,6180,6128,14.47,3.98,35,77,0,0
320157,147283957,0,6104,5871,14.51,3.5,35,77,0,0
321010,147498293,0,5859,5685,14.58,2.63,35,77,0,0
321458,147608232,0,5691,5757,14.61,2.86,35,77,0,0
321862,147706613,0,5753,5685,14.52,2.92,35,77,0,0
322306,147817486,0,5683,5657,14.57,3.23,35,77,0,0
322750,147929515,0,5659,5685,14.54,2.88,35,78,0,0
323199,148034471,0,5687,5728,14.5,2.94,35,78,0,0
323682,148155015,0,5712,5557,14.53,3.1,35,78,0,0
324088,148255461,0,5565,5742,14.56,3.35,35,78,0,0
324529,148363958,0,5743,5785,14.55,3.55,35,78,0,0
325022,148482979,0,5781,5728,14.51,3.29,35,78,0,0
325430,148587571,0,5727,5714,14.48,3.58,35,78,0,0
325880,148696216,0,5719,5842,14.48,3.95,35,78,0,0
326328,148808907,0,5855,6028,14.41,4.61,35,78,0,0
326735,148910931,0,6029,6071,14.44,4.4,35,79,0,0
327184,149024487,0,6080,6185,14.45,4.3,35,79,0,0
327589,149128402,0,6185,6185,14.45,3.8,35,79,0,0
328034,149234772,0,6171,5914,14.46,3.8,35,79,0,0
328478,149344568,0,5912,5828,14.45,3.75,35,79,0,0
328924,149452211,0,5829,5942,14.49,4.04,35,79,0,0
329361,149556152,0,5944,6014,14.48,3.76,35,79,0,0
329812,149667597,0,6008,5900,14.42,4.2,35,79,0,0
330262,149781541,0,5906,5971,14.48,3.89,35,80,0,0
330705,149888413,0,5958,5785,14.46,3.72,35,80,0,0
331151,149999958,0,5791,5885,14.46,3.76,35,80,0,0
331598,150107787,0,5887,5942,14.45,4.21,35,80,0,0
332046,150221119,0,5970,6257,14.44,4.97,35,80,0,0
332494,150328422,0,6275,6471,14.38,5.46,35,80,0,0
332894,150431000,0,6480,6685,14.48,5.44,35,80,0,0
333344,150545612,0,6683,6671,14.46,5.04,35,81,0,0
334238,150764622,0,6669,6614,14.41,5.2,35,81,0,0
334646,150866616,0,6616,6757,14.48,5.11,35,81,0,0
335132,150983178,0,6744,6557,14.39,5.04,35,81,0,0
335585,151092679,0,6553,6514,14.51,4.78,35,81,0,0
335989,151195224,0,6509,6400,14.57,4.33,35,81,0,0
336437,151304470,0,6386,6085,14.52,3.91,35,82,0,0
336884,151417944,0,6085,6100,14.59,3.79,35,82,0,0
337293,151520224,0,6094,5771,14.64,3.66,35,82,0,0
337738,151630102,0,5777,5857,14.65,3.15,35,82,0,0
338181,151739993,0,5844,5657,14.61,3.27,35,82,0,0
338632,151851164,0,5661,5714,14.58,3.36,35,82,0,0
339076,151959233,0,5714,5714,14.56,3.54,35,82,0,0
339524,152065922,0,5730,5900,14.55,3.54,35,82,0,0
339924,152165569,0,5901,5985,14.56,3.85,35,82,0,0
340416,152284413,0,5983,5957,14.58,3.75,35,83,0,0
340819,152387082,0,5953,5914,14.58,3.62,35,83,0,0
341269,152497150,0,5923,6042,14.55,3.88,35,83,0,0
341712,152606925,0,6047,6128,14.52,3.8,35,83,0,0
342203,152725414,0,6132,6185,14.55,4.36,35,83,0,0
342601,152824974,0,6189,6271,14.54,4.26,35,83,0,0
343047,152936150,0,6263,6171,14.57,4.14,35,83,0,0
343499,153044534,0,6168,6142,14.55,4.37,35,83,0,0
343904,153150324,0,6147,6228,14.53,4.49,35,84,0,0
344355,153261665,0,6234,6300,14.48,4.3,35,84,0,0
344796,153364338,0,6297,6242,14.52,4.46,35,84,0,0
345284,153479185,0,6252,6357,14.58,4.32,35,84,0,0
345695,153584543,0,6350,6257,14.5,4.19,35,84,0,0
346549,153800120,0,6258,6300,14.6,4.44,35,84,0,0
346991,153903492,0,6292,6100,14.6,4.1,35,84,0,0
347447,154018998,0,6094,6042,14.52,4.28,35,85,0,0
347896,154130201,0,6057,6214,14.52,4.27,35,85,0,0
348341,154235553,0,6203,6057,14.55,3.83,35,85,0,0
349235,154458447,0,6069,6257,14.51,4.66,35,85,0,0
349675,154560913,0,6261,6314,14.51,4.47,35,85,0,0
350122,154673952,0,6335,6500,14.48,4.57,35,85,0,0
350570,154787188,0,6480,6285,14.48,4.12,35,85,0,0
351015,154893423,0,6264,6100,14.47,4.02,35,86,0,0
351421,154989789,0,6100,6157,14.51,4.35,35,86,0,0
352357,155223919,0,6167,6371,14.47,4.55,35,86,0,0
352768,155322406,0,6369,6257,14.52,4.5,35,86,0,0
353213,155439895,0,6262,6300,14.56,4.23,35,86,0,0
353617,155538641,0,6289,6171,14.52,4.35,35,86,0,0
354062,155645011,0,6171,6200,14.51,4.35,35,87,0,0
354956,155864993,0,6206,6342,14.39,4.75,35,87,0,0
355847,156077005,0,6342,6457,14.42,5.05,35,87,0,0
356293,156189363,0,6459,6485,14.34,5.2,35,87,0,0
356748,156300569,0,6495,6600,14.43,5.34,35,87,0,0
357183,156406328,0,6598,6585,14.44,5.17,35,88,0,0
357635,156517135,0,6576,6457,14.46,4.98,35,88,0,0
358041,156621336,0,6459,6514,14.46,4.87,35,88,0,0
358446,156726635,0,6511,6300,14.5,4.51,35,88,0,0
358929,156836899,0,6296,6142,14.52,4.1,35,88,0,0
359381,156953240,0,6145,6200,14.54,4.15,35,88,0,0
359832,157063121,0,6182,6000,14.5,3.94,35,88,0,0
360232,157162868,0,6000,6014,14.49,4.12,35,89,0,0
360682,157270391,0,6015,6085,14.52,4.11,35,89,0,0
361164,157385254,0,6094,6185,14.52,4.27,35,89,0,0
361611,157491228,0,6176,6057,14.44,4.39,35,89,0,0
362055,157603420,0,6078,6314,14.51,4.36,35,89,0,0
362504,157713910,0,6312,6300,14.46,4.34,35,89,0,0
362902,157812362,0,6296,6228,14.53,4.37,35,89,0,0
363393,157928166,0,6230,6257,14.46,4.55,35,89,0,0
363839,158038934,0,6255,6242,14.45,4.73,35,90,0,0
364242,158142758,0,6252,6357,14.41,4.68,35,90,0,0
365131,158360052,0,6354,6300,14.42,4.83,35,90,0,0
365578,158469147,0,6306,6442,14.47,4.74,35,90,0,0
366022,158577977,0,6434,6300,14.48,4.55,35,90,0,0
366474,158689174,0,6296,6257,14.51,4.68,35,90,0,0
366921,158801184,0,6262,6342,14.5,4.58,35,91,0,0
367374,158912912,0,6335,6271,14.48,4.72,35,91,0,0
367817,159018669,0,6274,6328,14.47,4.86,35,91,0,0
368305,159137449,0,6326,6314,14.5,4.55,35,91,0,0
368705,159236541,0,6310,6242,14.43,4.62,35,91,0,0
369114,159344484,0,6242,6257,14.51,4.48,36,91,0,0
369561,159450934,0,6257,6271,14.5,4.46,35,91,0,0
370007,159561353,0,6269,6228,14.5,4.54,36,92,0,0
370497,159677110,0,6230,6271,14.48,4.69,35,92,0,0
371393,159895958,0,6274,6357,14.46,4.76,35,92,0,0
372245,160106199,0,6356,6300,14.42,4.69,35,92,0,0
372694,160217104,0,6306,6400,14.49,4.45,35,92,0,0
373143,160326149,0,6394,6314,14.45,4.48,35,93,0,0
373624,160438873,0,6310,6257,14.49,4.49,35,93,0,0
374028,160542123,0,6257,6271,14.47,4.44,36,93,0,0
374480,160652371,0,6270,6257,14.52,4.38,35,93,0,0
374921,160760165,0,6259,6300,14.47,4.37,35,93,0,0
375368,160866141,0,6294,6171,14.48,4.39,36,93,0,0
375816,160977985,0,6171,6185,14.52,4.31,36,93,0,0
376265,161087904,0,6188,6228,14.45,4.56,36,93,0,0
376709,161197475,0,6235,6342,14.44,4.59,36,94,0,0
377196,161309584,0,6337,6257,14.46,4.75,36,94,0,0
377640,161420558,0,6257,6271,14.44,4.5,36,94,0,0
378092,161529177,0,6283,6400,14.52,4.6,36,94,0,0
378533,161636137,0,6400,6414,14.48,5.06,36,94,0,0
378939,161742356,0,6419,6514,14.5,4.62,36,94,0,0
379383,161848315,0,6511,6371,14.53,3.97,36,94,0,0
379826,161955628,0,6369,6342,14.51,4.29,36,95,0,0
380273,162064117,0,6338,6171,14.5,4.07,36,95,0,0
380722,162178557,0,6166,6057,14.56,3.47,36,95,0,0
381212,162298185,0,6031,5785,14.58,3.38,36,95,0,0
381620,162403477,0,5788,5871,14.54,3.6,36,95,0,0
382062,162510337,0,5860,5700,14.58,3.65,36,95,0,0
382517,162630090,0,5681,5542,14.56,2.97,36,95,0,0
382960,162737104,0,5545,5585,14.57,3.36,36,95,0,0
383403,162843962,0,5611,5814,15.12,2.6,36,95,0,0
383851,162954918,0,5765,5357,14.45,4.32,36,96,0,0
384254,163050600,0,5339,4542,14.84,1.52,36,96,0,0
385154,163273954,0,4512,3914,15.01,0.79,36,96,0,0
385595,163387076,0,3864,3300,15.02,0.22,36,96,0,0
386042,163494997,0,3273,2971,14.98,0.35,36,96,0,0
386448,163597943,0,2963,2871,15,0.41,36,96,0,0
386775,163704962,0,2871,2871,14.98,0.58,36,96,0,0
388105,164032073,0,2871,2885,14.99,0.51,36,96,0,0
389841,164458319,0,2884,2871,15.01,0.51,36,96,0,0
390324,164574469,0,2871,2871,15,0.49,36,96,0,0
390779,164686867,0,2871,2871,15.02,0.49,35,96,0,0
391225,164795522,0,2870,2857,15.02,0.51,36,96,0,0
391709,164911185,0,2857,2857,15.02,0.47,35,96,0,0
392159,165019384,0,2855,2842,15.01,0.48,35,96,0,0
392606,165131202,0,2840,2828,15.01,0.48,36,96,0,0
393010,165228224,0,2761,1928,15.1,0.01,35,96,0,0
393498,165342955,0,1898,1471,15.08,0,35,96,0,0
393901,165437587,0,1465,1271,15.07,0.07000000000000001,35,96,0,0
394348,165547201,0,1270,1228,15.07,0.09999999,35,96,0,0
394844,165666090,0,1228,1228,15.07,0.09999999,35,96,0,0
395288,165774122,0,1228,1228,15.08,0.09999999,35,96,0,0
395738,165876957,0,1227,1214,15.08,0.09999999,35,96,0,0
396185,165984359,0,1214,1228,15.07,0.09999999,35,96,0,0
396633,166091181,0,1228,1228,15.08,0.09999999,35,96,0,0
397081,166202322,0,1228,1228,15.08,0.09999999,35,96,0,0
397532,166310534,0,1228,1228,15.08,0.09999999,35,96,0,0
397975,166418164,0,1228,1228,15.08,0.09999999,35,96,0,0
398458,166532930,0,1228,1228,15.08,0.09999999,35,96,0,0
398908,166640928,0,1228,1228,15.1,0.09999999,35,96,0,0
399352,166748314,0,1228,1228,15.09,0.09999999,35,96,0,0
399799,166855046,0,1228,1228,15.09,0.09999999,35,96,0,0
400247,166966931,0,1228,1228,15.1,0.09999999,35,96,0,0
400700,167071182,0,1228,1228,15.09,0.09999999,35,96,0,0
401179,167184375,0,1228,1228,15.1,0.09999999,35,96,0,0
401585,167283213,0,1228,1228,15.09,0.09999999,35,96,0,0
402035,167393018,0,1228,1228,15.1,0.09999999,35,96,0,0
402521,167508330,0,1228,1228,15.1,0.09999999,35,96,0,0
402968,167617238,0,1228,1228,15.1,0.09999999,35,96,0,0
403418,167722463,0,1228,1228,15.1,0.09999999,35,96,0,0
403822,167825421,0,1228,1228,15.11,0.09999999,35,96,0,0
404305,167935594,0,1228,1228,15.1,0.09999999,35,96,0,0
404750,168042102,0,1228,1228,15.1,0.09999999,35,96,0,0
405196,168152946,0,1228,1228,15.1,0.09999999,35,96,0,0
406542,168479469,0,1228,1228,15.11,0.09999999,35,96,0,0
406987,168589887,0,1228,1228,15.11,0.09999999,35,96,0,0
407432,168693931,0,1228,1228,15.11,0.09999999,35,96,0,0
407880,168805427,0,1228,1228,15.12,0.09999999,35,96,0,0
408335,168913186,0,1228,1228,15.11,0.09999999,35,96,0,0
408779,169019211,0,1228,1228,15.11,0.09999999,35,96,0,0
409267,169137364,0,1228,1228,15.12,0.09999999,35,96,0,0
409677,169238228,0,1228,1228,15.12,0.09999999,35,96,0,0
410122,169345541,0,1228,1228,15.12,0.11,35,96,0,0
410573,169452170,0,1228,1228,15.12,0.09999999,35,96,0,0
411017,169559252,0,1228,1228,15.12,0.11,35,96,0,0
411506,169674274,0,1228,1228,15.13,0.09999999,35,96,0,0
411947,169779669,0,1228,1242,15.12,0.09999999,35,96,0,0
412397,169884722,0,1241,1228,15.13,0.09999999,35,96,0,0
412845,169995866,0,1228,1228,15.13,0.11,35,96,0,0
413293,170101222,0,1228,1228,15.12,0.11,35,96,0,0
414222,170321393,0,1228,1228,15.13,0.11,35,96,0,0
414669,170428429,0,1228,1228,15.13,0.09999999,34,96,0,0
415116,170539481,0,1228,1228,15.13,0.11,35,96,0,0
415558,170645228,0,1228,1228,15.13,0.11,35,96,0,0
415999,170751208,0,1228,1228,15.13,0.09999999,35,96,0,0
416457,170863069,0,1228,1228,15.14,0.09999999,34,96,0,0
416853,170975929,0,1228,1228,15.13,0.11,34,96,0,0
417302,171081516,0,1228,1228,15.14,0.11,34,96,0,0
417743,171186451,0,1228,1228,15.13,0.11,34,96,0,0
418195,171296353,0,1228,1228,15.14,0.11,34,96,0,0
418603,171397337,0,1228,1228,15.13,0.11,34,96,0,0
419092,171512333,0,1228,1228,15.14,0.11,34,96,0,0
419533,171618739,0,1227,1214,15.14,0.11,34,96,0,0
420018,171735361,0,1215,1228,15.14,0.11,34,96,0,0
420465,171840913,0,1228,1228,15.14,0.09999999,34,96,0,0
421363,172060863,0,1228,1228,15.14,0.09999999,34,96,0,0
421817,172172929,0,1229,1242,15.14,0.09999999,34,96,0,0
422261,172275223,0,1242,1242,15.15,0.09999999,34,96,0,0
422704,172380338,0,1241,1228,15.15,0.11,34,96,0,0
423151,172487922,0,1228,1228,15.14,0.11,34,96,0,0
423598,172599418,0,1228,1228,15.16,0.11,34,96,0,0
424043,172703432,0,1228,1228,15.14,0.09999999,34,96,0,0
424484,172811152,0,1228,1228,15.15,0.11,34,96,0,0
424942,172926953,0,1228,1228,15.16,0.09999999,34,96,0,0
425386,173032868,0,1228,1228,15.15,0.11,34,96,0,0
425788,173132210,0,1228,1228,15.14,0.09999999,34,96,0,0
426241,173242208,0,1228,1228,15.15,0.09999999,34,96,0,0
426732,173357439,0,1228,1228,15.15,0.09999999,34,96,0,0
427178,173461596,0,1228,1228,15.16,0.09999999,34,96,0,0
427618,173567363,0,1228,1228,15.16,0.09999999,34,96,0,0
428106,173686354,0,1228,1228,15.15,0.09999999,34,96,0,0
428547,173788608,0,1228,1228,15.16,0.09999999,34,96,0,0
428995,173892622,0,1228,1228,15.16,0.09999999,34,96,0,0
429444,174009911,0,1228,1228,15.16,0.09999999,34,96,0,0
429892,174113974,0,1229,1242,15.16,0.09999999,34,96,0,0
430368,174224470,0,1240,1228,15.16,0.09999999,34,96,0,0
430821,174337615,0,1228,1228,15.16,0.11,34,96,0,0
431270,174443481,0,1228,1228,15.16,0.09999999,34,96,0,0
432112,174643373,0,1228,1228,15.16,0.11,34,96,0,0
432562,174755943,0,1228,1228,15.17,0.11,34,96,0,0
433045,174863872,0,1228,1228,15.17,0.11,34,96,0,0
433495,174974594,0,1228,1228,15.17,0.11,34,96,0,0
433903,175074137,0,1228,1228,15.17,0.11,34,96,0,0
434401,175192397,0,1172,585,15.19,0.01,34,96,0,0
434854,175298473,0,561,228,15.18,0.02,34,96,0,0
435268,175397865,0,224,0,15.19,0.04,34,96,0,0
435764,175512060,0,0,0,15.19,0.04,34,96,0,0
436213,175619993,0,0,0,15.19,0.03,34,96,0,0
436704,175733969,0,0,0,15.19,0.04,34,96,0,0
437160,175838388,0,0,0,15.19,0.04,34,96,0,0
437610,175945060,0,0,0,15.19,0.04,34,96,0,0
438065,176051901,0,0,0,15.19,0.04,34,96,0,0
438563,176169572,0,0,0,15.19,0.04,34,96,0,0
439017,176274944,0,0,0,15.19,0.04,34,96,0,0
439434,176378400,0,0,0,15.19,0.04,34,96,0,0
439897,176491937,0,0,0,15.19,0.04,34,96,0,0
440342,176597473,0,0,0,15.19,0.04,34,96,0,0
440796,176703808,0,0,0,15.2,0.04,34,96,0,0
441251,176815161,0,0,0,15.19,0.04,34,96,0,0
441701,176919330,0,0,0,15.2,0.04,34,96,0,0
442156,177029900,0,0,0,15.2,0.04,34,96,0,0
442571,177134166,0,0,0,15.19,0.04,34,96,0,0
443022,177238135,0,0,0,15.19,0.04,34,96,0,0
443512,177353021,0,0,0,15.19,0.04,34,96,0,0
444417,177570632,0,0,0,15.2,0.04,34,96,0,0
444869,177674413,0,0,0,15.2,0.04,34,96,0,0
445322,177785648,0,0,0,15.2,0.04,34,96,0,0
446269,178010440,0,0,0,15.2,0.04,34,96,0,0
447173,178227947,0,0,0,15.2,0.04,34,96,0,0
447625,178335388,0,0,0,15.2,0.04,34,96,0,0
448079,178439592,0,0,0,15.2,0.04,34,96,0,0
448528,178548459,0,0,0,15.2,0.04,34,96,0,0
448982,178655399,0,0,0,15.2,0.04,34,96,0,0
449432,178764090,0,0,0,15.2,0.04,34,96,0,0
449929,178880586,0,0,0,15.2,0.04,34,96,0,0
450382,178992135,0,0,0,15.2,0.04,34,96,0,0
450833,179095568,0,0,0,15.2,0.04,34,96,0,0
451328,179210335,0,0,0,15.2,0.04,34,96,0,0
451784,179317183,0,0,0,15.2,0.04,33,96,0,0
452232,179424923,0,0,0,15.2,0.04,33,96,0,0
452728,179543944,0,0,0,15.2,0.04,33,96,0,0
453138,179641117,0,0,0,15.21,0.04,33,96,0,0
453629,179756479,0,0,0,15.21,0.04,33,96,0,0
454082,179859534,0,0,0,15.21,0.04,33,96,0,0
454533,179967083,0,0,0,15.21,0.04,33,96,0,0
454985,180071106,0,0,0,15.21,0.04,33,96,0,0
455934,180295118,0,0,0,15.21,0.03,33,96,0,0
456387,180402333,0,0,0,15.21,0.04,33,96,0,0
456844,180512145,0,0,0,15.21,0.04,33,96,0,0
457254,180613909,0,0,0,15.21,0.04,33,96,0,0
457751,180736887,0,0,0,15.22,0.04,33,96,0,0
458210,180844003,0,0,0,15.22,0.04,33,96,0,0
459115,181060187,0,0,0,15.22,0.04,33,96,0,0
459568,181171908,0,0,0,15.22,0.04,33,96,0,0
460021,181276957,0,0,0,15.22,0.04,33,96,0,0
460436,181381930,0,0,0,15.22,0.04,33,96,0,0
460932,181495057,0,0,0,15.22,0.04,33,96,0,0
461385,181603544,0,0,0,15.22,0.04,33,96,0,0
461882,181717780,0,0,0,15.22,0.04,33,96,0,0
462334,181825748,0,0,0,15.22,0.04,33,96,0,0
462787,181931195,0,0,0,15.22,0.04,33,96,0,0
463233,182040759,0,0,0,15.22,0.04,33,96,0,0
463685,182150438,0,0,0,15.22,0.04,33,96,0,0
464186,182265115,0,0,0,15.21,0.04,33,96,0,0
464635,182372927,0,0,0,15.22,0.04,33,96,0,0
465087,182481128,0,0,0,15.22,0.04,33,96,0,0
465543,182593916,0,0,0,15.22,0.03,33,96,0,0
466001,182700885,0,0,0,15.23,0.04,33,96,0,0
466453,182811166,0,0,0,15.22,0.04,33,96,0,0
466903,182914940,0,0,0,15.23,0.04,33,96,0,0
