LineNo,TimeUS,C,Roll,Pitch,Yaw,VN,VE,VD,dPD,PN,PE,PD,GX,GY,GZ,OH
541,5.5896e+07,1,0.97,-1.45,22.22,0.021055,-0.23805,0.093063,-0.056498,20.906,-4.8932,1.4558,-0.08,0.25,-0.23,92.87
772,5.5941e+07,1,0.96,-1.45,22.23,0.024453,-0.23693,0.092651,-0.081082,20.906,-4.8932,1.4509,-0.08,0.24,-0.23,92.87
997,5.5997e+07,1,0.98,-1.46,22.25,0.025871,-0.2345,0.089107,-0.08796,20.906,-4.8932,1.4458,-0.08,0.24,-0.23,92.87
1104,5.6037e+07,1,0.98,-1.46,22.26,0.025322,-0.23491,0.08813,-0.077897,20.906,-4.8932,1.4426,-0.08,0.24,-0.22,92.87
1564,5.6217e+07,1,0.98,-1.45,22.29,0.027637,-0.24168,-0.39527,-0.48952,20.906,-4.9013,1.3938,-0.08,0.23,-0.21,92.87
1582,5.6227e+07,1,0.98,-1.45,22.29,0.027276,-0.24226,-0.39589,-0.49391,20.906,-4.9013,1.3899,-0.08,0.23,-0.21,92.87
1623,5.6237e+07,1,0.98,-1.45,22.29,0.026929,-0.24249,-0.39788,-0.50129,20.906,-4.9013,1.3836,-0.08,0.23,-0.21,92.87
1666,5.6247e+07,1,0.98,-1.45,22.29,0.027538,-0.24265,-0.39683,-0.50578,20.906,-4.9013,1.3775,-0.08,0.23,-0.21,92.87
1706,5.626e+07,1,0.97,-1.45,22.29,0.026964,-0.24176,-0.39741,-0.51602,20.906,-4.9013,1.3703,-0.08,0.23,-0.21,92.87
1747,5.6271e+07,1,0.97,-1.45,22.29,0.027554,-0.24197,-0.39807,-0.52534,20.906,-4.9013,1.3632,-0.08,0.23,-0.21,92.87
1788,5.6281e+07,1,0.97,-1.46,22.29,0.027743,-0.24067,-0.39879,-0.53555,20.906,-4.9013,1.3563,-0.08,0.23,-0.21,92.87
1832,5.6291e+07,1,0.97,-1.46,22.3,0.02784,-0.24033,-0.40061,-0.54916,20.906,-4.9013,1.3519,-0.08,0.23,-0.21,92.87
1874,5.6302e+07,1,0.97,-1.46,22.29,0.028519,-0.23875,-0.40092,-0.55864,20.906,-4.9013,1.345,-0.08,0.23,-0.21,92.87
1915,5.6312e+07,1,0.97,-1.46,22.29,0.028779,-0.23638,-0.40159,-0.56864,20.906,-4.9013,1.3383,-0.08,0.23,-0.21,92.87
1958,5.6322e+07,1,0.97,-1.46,22.3,0.029464,-0.23604,-0.40081,-0.57522,20.895,-4.9013,1.3317,-0.08,0.23,-0.21,92.87
1998,5.6335e+07,1,0.98,-1.46,22.3,0.030513,-0.23481,-0.40136,-0.58787,20.895,-4.9013,1.3225,-0.08,0.23,-0.21,92.87
2038,5.6345e+07,1,0.98,-1.46,22.3,0.030299,-0.23299,-0.40302,-0.6033,20.895,-4.9013,1.3146,-0.08,0.23,-0.21,92.87
2080,5.6355e+07,1,0.98,-1.47,22.31,0.03132,-0.23143,-0.40439,-0.61885,20.895,-4.9013,1.3069,-0.08,0.23,-0.22,92.87
2123,5.6365e+07,1,0.98,-1.47,22.31,0.031981,-0.23325,-0.40446,-0.63773,20.895,-4.9013,1.3025,-0.08,0.23,-0.22,92.87
2164,5.6376e+07,1,0.98,-1.47,22.32,0.03306,-0.23104,-0.40442,-0.65003,20.895,-4.9013,1.295,-0.08,0.23,-0.21,92.87
2209,5.6386e+07,1,0.99,-1.47,22.32,0.033745,-0.23007,-0.40472,-0.661,20.895,-4.9013,1.2877,-0.08,0.23,-0.22,92.87
2249,5.6396e+07,1,0.99,-1.47,22.32,0.033754,-0.22971,-0.40487,-0.66841,20.895,-4.9013,1.2806,-0.08,0.23,-0.22,92.87
2290,5.6406e+07,1,0.99,-1.47,22.33,0.034034,-0.23073,-0.40548,-0.67463,20.895,-4.9013,1.2765,-0.08,0.23,-0.22,92.87
2332,5.6416e+07,1,0.99,-1.47,22.33,0.033609,-0.23055,-0.40612,-0.67762,20.895,-4.9013,1.2696,-0.08,0.23,-0.22,92.87
2376,5.6429e+07,1,1,-1.48,22.33,0.03395,-0.23079,-0.40486,-0.67652,20.895,-4.9013,1.2611,-0.08,0.23,-0.22,92.87
2413,5.644e+07,1,1,-1.48,22.33,0.034802,-0.23081,-0.40594,-0.67558,20.895,-4.9013,1.2526,-0.08,0.23,-0.21,92.87
2454,5.645e+07,1,1.01,-1.48,22.33,0.035918,-0.23056,-0.40656,-0.67793,20.895,-4.9013,1.2485,-0.08,0.23,-0.21,92.87
2495,5.6461e+07,1,1.01,-1.48,22.33,0.037115,-0.22942,-0.40691,-0.68188,20.895,-4.9013,1.2398,-0.08,0.23,-0.21,92.87
2535,5.6471e+07,1,1.01,-1.48,22.34,0.037673,-0.22802,-0.40777,-0.68721,20.895,-4.9013,1.2317,-0.08,0.23,-0.21,92.87
2576,5.648e+07,1,1.01,-1.48,22.34,0.037485,-0.22809,-0.40832,-0.6932,20.895,-4.9013,1.2238,-0.08,0.23,-0.21,92.87
2620,5.649e+07,1,1.01,-1.48,22.35,0.036887,-0.22643,-0.41037,-0.69893,20.895,-4.9013,1.2161,-0.08,0.24,-0.21,92.87
2662,5.6501e+07,1,1.01,-1.49,22.35,0.037804,-0.22699,-0.41066,-0.70658,20.895,-4.9013,1.2119,-0.08,0.24,-0.21,92.87
2703,5.6511e+07,1,1.01,-1.48,22.36,0.03809,-0.22694,-0.41244,-0.70844,20.895,-4.9013,1.204,-0.08,0.23,-0.21,92.87
2746,5.6522e+07,1,1.01,-1.48,22.36,0.038439,-0.22565,-0.41342,-0.70769,20.895,-4.9013,1.1966,-0.08,0.23,-0.21,92.87
2787,5.6533e+07,1,1.01,-1.48,22.36,0.037851,-0.2255,-0.41524,-0.70683,20.895,-4.9013,1.189,-0.08,0.24,-0.21,92.87
2827,5.6546e+07,1,1.01,-1.49,22.37,0.037415,-0.22338,-0.41616,-0.70782,20.895,-4.9013,1.1801,-0.08,0.24,-0.21,92.87
2868,5.6557e+07,1,1.01,-1.49,22.37,0.037978,-0.22439,-0.41576,-0.70655,20.895,-4.9013,1.1755,-0.08,0.24,-0.21,92.87
2910,5.6567e+07,1,1.01,-1.49,22.37,0.037704,-0.22259,-0.41819,-0.70332,20.895,-4.9013,1.1681,-0.08,0.23,-0.21,92.87
2953,5.6577e+07,1,1.01,-1.49,22.37,0.0383,-0.22074,-0.41889,-0.69807,20.895,-4.9013,1.1608,-0.08,0.24,-0.21,92.87
2994,5.6587e+07,1,1.02,-1.49,22.37,0.038054,-0.22175,-0.41949,-0.69427,20.895,-4.9013,1.1566,-0.08,0.24,-0.21,92.87
3038,5.6597e+07,1,1.02,-1.49,22.37,0.039064,-0.22056,-0.42101,-0.69027,20.895,-4.9013,1.1494,-0.08,0.23,-0.21,92.87
3080,5.6607e+07,1,1.02,-1.49,22.38,0.03904,-0.21879,-0.42117,-0.68559,20.895,-4.9013,1.1423,-0.08,0.24,-0.21,92.87
3120,5.6618e+07,1,1.02,-1.49,22.38,0.039084,-0.21805,-0.42234,-0.6795,20.895,-4.9013,1.135,-0.08,0.24,-0.21,92.87
3161,5.6628e+07,1,1.02,-1.5,22.38,0.038726,-0.21787,-0.42228,-0.67489,20.895,-4.9013,1.1283,-0.08,0.24,-0.21,92.87
3199,5.6641e+07,1,1.02,-1.5,22.38,0.03917,-0.21676,-0.42362,-0.6705,20.895,-4.9013,1.1194,-0.08,0.24,-0.22,92.87
3240,5.6651e+07,1,1.02,-1.49,22.39,0.040049,-0.21539,-0.42504,-0.66693,20.895,-4.9013,1.1127,-0.08,0.24,-0.21,92.87
3281,5.6662e+07,1,1.03,-1.49,22.39,0.039639,-0.21538,-0.42512,-0.66555,20.895,-4.9013,1.1081,-0.08,0.24,-0.21,92.87
3322,5.6672e+07,1,1.03,-1.5,22.4,0.040103,-0.21428,-0.42555,-0.66229,20.895,-4.9013,1.1011,-0.08,0.24,-0.21,92.87
3364,5.6682e+07,1,1.03,-1.5,22.4,0.040974,-0.21325,-0.42584,-0.6608,20.895,-4.9013,1.0944,-0.09,0.24,-0.22,92.87
3405,5.6692e+07,1,1.04,-1.5,22.4,0.040203,-0.21156,-0.4256,-0.65654,20.895,-4.9013,1.0873,-0.09,0.24,-0.22,92.87
3449,5.6703e+07,1,1.04,-1.5,22.41,0.040444,-0.2092,-0.42544,-0.65069,20.895,-4.9013,1.0809,-0.09,0.24,-0.22,92.87
3492,5.6713e+07,1,1.04,-1.5,22.41,0.042068,-0.20911,-0.42596,-0.64396,20.883,-4.9013,1.0741,-0.09,0.24,-0.22,92.87
3532,5.6724e+07,1,1.05,-1.5,22.4,0.041508,-0.20961,-0.42609,-0.63893,20.883,-4.9013,1.0698,-0.09,0.24,-0.22,92.87
3571,5.6734e+07,1,1.05,-1.5,22.41,0.041359,-0.20896,-0.42875,-0.63465,20.883,-4.9013,1.0635,-0.09,0.24,-0.22,92.87
3611,5.6744e+07,1,1.05,-1.5,22.41,0.041562,-0.20688,-0.43079,-0.63003,20.883,-4.9013,1.057,-0.09,0.24,-0.22,92.87
3652,5.6754e+07,1,1.05,-1.5,22.42,0.042328,-0.20618,-0.43174,-0.62633,20.883,-4.9013,1.0506,-0.09,0.24,-0.22,92.87
3693,5.6765e+07,1,1.05,-1.5,22.42,0.041732,-0.2055,-0.43228,-0.62236,20.883,-4.9013,1.044,-0.09,0.24,-0.22,92.87
3733,5.6775e+07,1,1.05,-1.5,22.42,0.042098,-0.20426,-0.43218,-0.61693,20.883,-4.9013,1.0379,-0.09,0.24,-0.22,92.87
3774,5.6785e+07,1,1.06,-1.51,22.42,0.042424,-0.20348,-0.43337,-0.61121,20.883,-4.9013,1.0319,-0.09,0.24,-0.22,92.87
3814,5.6795e+07,1,1.06,-1.5,22.42,0.043156,-0.20607,-0.43277,-0.60523,20.883,-4.9013,1.0275,-0.09,0.24,-0.22,92.87
3861,5.6805e+07,1,1.06,-1.5,22.42,0.043013,-0.20551,-0.43372,-0.59931,20.883,-4.9013,1.0216,-0.09,0.24,-0.22,92.87
3901,5.6815e+07,1,1.06,-1.5,22.42,0.042375,-0.20376,-0.43508,-0.59339,20.883,-4.9013,1.0157,-0.09,0.24,-0.22,92.87
3942,5.6825e+07,1,1.06,-1.5,22.42,0.042353,-0.20323,-0.43534,-0.58552,20.883,-4.9013,1.01,-0.09,0.24,-0.22,92.87
3983,5.6838e+07,1,1.06,-1.5,22.42,0.042118,-0.20111,-0.4376,-0.57829,20.883,-4.9013,1.0028,-0.09,0.25,-0.22,92.87
4020,5.6848e+07,1,1.06,-1.5,22.42,0.043107,-0.19947,-0.43634,-0.56996,20.883,-4.9013,0.99668,-0.09,0.25,-0.22,92.87
4062,5.6858e+07,1,1.07,-1.51,22.42,0.043146,-0.19969,-0.43563,-0.56282,20.883,-4.9013,0.99146,-0.09,0.25,-0.22,92.87
4103,5.6869e+07,1,1.07,-1.51,22.43,0.044143,-0.19969,-0.43478,-0.55588,20.883,-4.9013,0.98664,-0.09,0.25,-0.22,92.87
4144,5.6879e+07,1,1.07,-1.51,22.43,0.043632,-0.19856,-0.43449,-0.54897,20.883,-4.9013,0.9811,-0.09,0.25,-0.22,92.87
4185,5.6889e+07,1,1.07,-1.51,22.44,0.04454,-0.19782,-0.43367,-0.54067,20.883,-4.9013,0.97518,-0.09,0.25,-0.22,92.87
4229,5.69e+07,1,1.07,-1.51,22.44,0.044891,-0.1962,-0.43308,-0.533,20.883,-4.9013,0.96978,-0.09,0.25,-0.22,92.87
4270,5.691e+07,1,1.07,-1.51,22.45,0.046337,-0.1964,-0.43363,-0.52681,20.883,-4.9013,0.96444,-0.09,0.25,-0.22,92.87
4312,5.692e+07,1,1.07,-1.51,22.45,0.046233,-0.19536,-0.43365,-0.52131,20.861,-4.9093,0.95916,-0.09,0.25,-0.22,92.87
4352,5.693e+07,1,1.07,-1.52,22.45,0.045825,-0.19558,-0.43317,-0.51568,20.861,-4.9093,0.9544,-0.09,0.25,-0.22,92.87
4389,5.6943e+07,1,1.07,-1.52,22.45,0.046668,-0.19296,-0.43071,-0.50516,20.861,-4.9093,0.94815,-0.09,0.25,-0.22,92.87
4431,5.6953e+07,1,1.08,-1.52,22.45,0.046672,-0.19217,-0.43035,-0.49891,20.861,-4.9093,0.94369,-0.09,0.25,-0.22,92.87
4473,5.6963e+07,1,1.08,-1.52,22.45,0.04717,-0.19126,-0.43174,-0.49316,20.861,-4.9093,0.93876,-0.09,0.25,-0.22,92.87
4513,5.6973e+07,1,1.08,-1.52,22.45,0.046425,-0.19019,-0.43205,-0.48662,20.861,-4.9093,0.93399,-0.09,0.25,-0.22,92.87
4555,5.6983e+07,1,1.08,-1.53,22.46,0.045746,-0.18952,-0.43279,-0.48059,20.861,-4.9093,0.92917,-0.09,0.25,-0.22,92.87
4595,5.6993e+07,1,1.07,-1.53,22.46,0.046622,-0.19017,-0.43241,-0.4736,20.861,-4.9093,0.92439,-0.09,0.25,-0.22,92.87
4640,5.7003e+07,1,1.07,-1.53,22.46,0.047604,-0.19121,-0.43267,-0.46785,20.861,-4.9093,0.91966,-0.09,0.25,-0.22,92.87
4681,5.7014e+07,1,1.08,-1.53,22.47,0.049053,-0.1905,-0.43499,-0.46481,20.861,-4.9093,0.91493,-0.09,0.25,-0.22,92.87
4721,5.7025e+07,1,1.08,-1.54,22.47,0.049053,-0.18844,-0.43423,-0.45862,20.861,-4.9093,0.90977,-0.09,0.25,-0.22,92.87
4762,5.7034e+07,1,1.08,-1.54,22.48,0.04956,-0.18732,-0.43388,-0.4536,20.861,-4.9093,0.9051,-0.09,0.25,-0.22,92.87
4796,5.7045e+07,1,1.08,-1.54,22.48,0.049569,-0.18599,-0.43398,-0.44849,20.861,-4.9093,0.90033,-0.09,0.25,-0.22,92.87
4839,5.7055e+07,1,1.08,-1.54,22.48,0.049717,-0.18657,-0.43422,-0.44349,20.861,-4.9093,0.89598,-0.09,0.25,-0.22,92.87
4879,5.7066e+07,1,1.08,-1.54,22.48,0.04995,-0.18769,-0.4327,-0.43658,20.861,-4.9093,0.8916,-0.09,0.25,-0.22,92.87
4920,5.7076e+07,1,1.08,-1.54,22.48,0.050644,-0.18722,-0.4329,-0.43154,20.861,-4.9093,0.88731,-0.09,0.25,-0.22,92.87
4961,5.7086e+07,1,1.08,-1.54,22.49,0.051144,-0.186,-0.43418,-0.42731,20.861,-4.9093,0.88258,-0.09,0.25,-0.22,92.87
5001,5.7097e+07,1,1.09,-1.54,22.49,0.052017,-0.18587,-0.43379,-0.4222,20.861,-4.9093,0.87823,-0.09,0.25,-0.22,92.87
5046,5.7107e+07,1,1.09,-1.54,22.49,0.052119,-0.18532,-0.43448,-0.41868,20.861,-4.9093,0.87398,-0.09,0.25,-0.22,92.87
5086,5.7117e+07,1,1.09,-1.54,22.49,0.052334,-0.18487,-0.43137,-0.4113,20.861,-4.9093,0.86923,-0.09,0.25,-0.22,92.87
5129,5.7128e+07,1,1.09,-1.54,22.49,0.053459,-0.18647,-0.43051,-0.40707,20.861,-4.9013,0.86497,-0.09,0.25,-0.22,92.87
5172,5.7141e+07,1,1.1,-1.54,22.49,0.054424,-0.18491,-0.43027,-0.40304,20.861,-4.9013,0.85941,-0.09,0.25,-0.22,92.87
5210,5.7151e+07,1,1.1,-1.54,22.49,0.055219,-0.18394,-0.43059,-0.40168,20.861,-4.9013,0.85453,-0.09,0.25,-0.22,92.87
5251,5.7161e+07,1,1.1,-1.54,22.49,0.055397,-0.18242,-0.43032,-0.40107,20.861,-4.9013,0.85004,-0.09,0.25,-0.22,92.87
5291,5.7172e+07,1,1.1,-1.55,22.49,0.056537,-0.18077,-0.43006,-0.40085,20.861,-4.9013,0.84557,-0.09,0.25,-0.22,92.87
5332,5.7182e+07,1,1.1,-1.55,22.49,0.056487,-0.18171,-0.42912,-0.40057,20.861,-4.9013,0.84127,-0.09,0.25,-0.22,92.87
5372,5.7192e+07,1,1.1,-1.55,22.5,0.055708,-0.17953,-0.42977,-0.40217,20.861,-4.9013,0.83683,-0.09,0.25,-0.22,92.87
5413,5.7202e+07,1,1.1,-1.55,22.5,0.056273,-0.17683,-0.42855,-0.40225,20.861,-4.9013,0.83239,-0.09,0.25,-0.22,92.87
5458,5.7212e+07,1,1.1,-1.55,22.5,0.056267,-0.17552,-0.42857,-0.40365,20.861,-4.9013,0.82801,-0.09,0.25,-0.22,92.87
5498,5.7222e+07,1,1.1,-1.55,22.5,0.057621,-0.17604,-0.42974,-0.40623,20.861,-4.9013,0.82329,-0.09,0.25,-0.22,92.87
5539,5.7233e+07,1,1.1,-1.55,22.5,0.057414,-0.17516,-0.42962,-0.40735,20.861,-4.9013,0.8189,-0.09,0.25,-0.22,92.87
5581,5.7243e+07,1,1.1,-1.55,22.5,0.057667,-0.17539,-0.43029,-0.40926,20.861,-4.9013,0.81454,-0.09,0.25,-0.22,92.87
5620,5.7254e+07,1,1.1,-1.55,22.5,0.058094,-0.17472,-0.43039,-0.4103,20.861,-4.9013,0.81019,-0.09,0.25,-0.22,92.87
5660,5.7264e+07,1,1.1,-1.55,22.51,0.057973,-0.17363,-0.43197,-0.41121,20.861,-4.9013,0.80583,-0.09,0.25,-0.22,92.87
5702,5.7275e+07,1,1.11,-1.55,22.51,0.057095,-0.1734,-0.43281,-0.4101,20.861,-4.9013,0.80151,-0.09,0.25,-0.22,92.87
5743,5.7285e+07,1,1.11,-1.56,22.51,0.057566,-0.17281,-0.43193,-0.40695,20.861,-4.9013,0.79757,-0.09,0.25,-0.22,92.87
5783,5.7295e+07,1,1.11,-1.57,22.51,0.057341,-0.1736,-0.43012,-0.40247,20.861,-4.9013,0.79326,-0.09,0.25,-0.22,92.87
5824,5.7306e+07,1,1.12,-1.57,22.52,0.057507,-0.17282,-0.43059,-0.40052,20.861,-4.9013,0.78929,-0.09,0.25,-0.22,92.87
5869,5.7316e+07,1,1.11,-1.57,22.51,0.058162,-0.17394,-0.43031,-0.39774,20.861,-4.9013,0.78498,-0.09,0.25,-0.22,92.87
5912,5.7327e+07,1,1.12,-1.57,22.52,0.058628,-0.17387,-0.43045,-0.39535,20.861,-4.9013,0.78068,-0.09,0.25,-0.22,92.87
5952,5.7337e+07,1,1.12,-1.57,22.52,0.060153,-0.17373,-0.4297,-0.39228,20.85,-4.9013,0.77632,-0.09,0.25,-0.22,92.87
5993,5.7347e+07,1,1.12,-1.57,22.52,0.059868,-0.17376,-0.43016,-0.39099,20.85,-4.9013,0.7724,-0.09,0.25,-0.22,92.87
6034,5.7358e+07,1,1.13,-1.58,22.53,0.058866,-0.17191,-0.43069,-0.38956,20.85,-4.9013,0.76883,-0.09,0.25,-0.22,92.87
6076,5.7368e+07,1,1.13,-1.58,22.53,0.058378,-0.1726,-0.4314,-0.38761,20.85,-4.9013,0.76412,-0.09,0.25,-0.22,92.87
6117,5.7379e+07,1,1.13,-1.58,22.53,0.05913,-0.17056,-0.43122,-0.38488,20.85,-4.9013,0.76048,-0.09,0.25,-0.21,92.87
6158,5.7389e+07,1,1.13,-1.58,22.53,0.059234,-0.17035,-0.43105,-0.38273,20.85,-4.9013,0.75681,-0.09,0.25,-0.21,92.87
6199,5.7399e+07,1,1.13,-1.58,22.54,0.05923,-0.17101,-0.42947,-0.37897,20.85,-4.9013,0.75326,-0.09,0.25,-0.21,92.87
6239,5.7409e+07,1,1.13,-1.59,22.54,0.059237,-0.1703,-0.42841,-0.37474,20.85,-4.9013,0.74915,-0.09,0.25,-0.21,92.87
6284,5.742e+07,1,1.14,-1.59,22.53,0.059641,-0.17107,-0.42882,-0.37202,20.85,-4.9013,0.74492,-0.09,0.25,-0.21,92.87
6325,5.743e+07,1,1.13,-1.59,22.53,0.060626,-0.16871,-0.42801,-0.36854,20.85,-4.9013,0.74088,-0.09,0.25,-0.21,92.87
6366,5.744e+07,1,1.13,-1.59,22.54,0.061833,-0.16739,-0.42592,-0.3646,20.85,-4.9013,0.73722,-0.09,0.25,-0.21,92.87
6407,5.7451e+07,1,1.13,-1.59,22.54,0.061898,-0.1674,-0.42526,-0.36324,20.85,-4.9013,0.73298,-0.09,0.25,-0.21,92.87
6447,5.7461e+07,1,1.13,-1.58,22.54,0.061638,-0.16652,-0.42537,-0.36298,20.85,-4.9013,0.72889,-0.09,0.25,-0.21,92.87
6488,5.7471e+07,1,1.13,-1.58,22.53,0.061668,-0.16463,-0.4248,-0.36251,20.85,-4.9013,0.72512,-0.09,0.25,-0.21,92.87
6528,5.7482e+07,1,1.13,-1.58,22.54,0.062594,-0.16472,-0.4238,-0.36217,20.85,-4.9013,0.72138,-0.09,0.25,-0.21,92.87
6571,5.7492e+07,1,1.13,-1.58,22.54,0.062985,-0.16276,-0.42218,-0.36097,20.85,-4.9013,0.71758,-0.09,0.25,-0.21,92.87
6612,5.7502e+07,1,1.13,-1.58,22.55,0.062727,-0.16155,-0.42358,-0.36312,20.85,-4.9013,0.71387,-0.09,0.25,-0.21,92.87
6654,5.7512e+07,1,1.13,-1.59,22.55,0.06476,-0.16228,-0.42269,-0.36282,20.85,-4.9013,0.70923,-0.09,0.25,-0.21,92.87
6699,5.7523e+07,1,1.13,-1.59,22.55,0.064873,-0.1624,-0.42195,-0.36321,20.85,-4.9013,0.70545,-0.09,0.25,-0.21,92.87
6740,5.7533e+07,1,1.13,-1.59,22.55,0.065088,-0.16193,-0.4224,-0.36503,20.85,-4.9013,0.70196,-0.09,0.25,-0.21,92.87
6781,5.7543e+07,1,1.14,-1.59,22.55,0.064926,-0.1611,-0.42273,-0.36686,20.85,-4.9013,0.69793,-0.09,0.25,-0.21,92.87
6821,5.7554e+07,1,1.14,-1.59,22.55,0.064388,-0.16029,-0.42393,-0.36937,20.85,-4.9013,0.69373,-0.09,0.25,-0.21,92.87
6862,5.7564e+07,1,1.14,-1.59,22.55,0.064781,-0.1601,-0.42363,-0.37036,20.85,-4.9013,0.68946,-0.09,0.25,-0.21,92.87
6903,5.7574e+07,1,1.14,-1.6,22.55,0.064417,-0.15942,-0.4229,-0.37107,20.85,-4.9013,0.68532,-0.09,0.25,-0.21,92.87
6944,5.7584e+07,1,1.14,-1.6,22.55,0.06496,-0.15922,-0.42234,-0.37176,20.85,-4.9013,0.68159,-0.09,0.25,-0.21,92.87
6985,5.7595e+07,1,1.15,-1.6,22.55,0.066158,-0.15748,-0.42176,-0.37251,20.85,-4.9013,0.67788,-0.09,0.25,-0.21,92.87
7026,5.7605e+07,1,1.15,-1.6,22.56,0.066502,-0.15646,-0.42096,-0.37309,20.85,-4.9013,0.67371,-0.09,0.25,-0.21,92.87
7068,5.7616e+07,1,1.15,-1.6,22.56,0.066474,-0.15713,-0.42111,-0.37396,20.85,-4.9013,0.66949,-0.09,0.25,-0.21,92.87
7113,5.7626e+07,1,1.15,-1.6,22.56,0.067874,-0.15762,-0.4201,-0.37383,20.85,-4.9013,0.66578,-0.09,0.25,-0.21,92.87
7154,5.7636e+07,1,1.15,-1.61,22.56,0.068188,-0.15647,-0.42124,-0.37542,20.85,-4.9013,0.66206,-0.1,0.25,-0.21,92.87
7195,5.7646e+07,1,1.15,-1.61,22.56,0.068334,-0.15681,-0.42106,-0.37673,20.85,-4.9013,0.65781,-0.1,0.25,-0.21,92.87
7238,5.7659e+07,1,1.15,-1.61,22.56,0.066341,-0.15542,-0.42106,-0.37869,20.85,-4.9013,0.65279,-0.09,0.25,-0.21,92.87
7282,5.7671e+07,1,1.16,-1.6,22.56,0.067522,-0.15396,-0.42144,-0.38071,20.85,-4.9013,0.64778,-0.09,0.25,-0.21,92.87
7322,5.7681e+07,1,1.16,-1.6,22.57,0.067714,-0.15306,-0.42063,-0.38221,20.85,-4.9013,0.64354,-0.09,0.25,-0.21,92.87
7361,5.7692e+07,1,1.16,-1.6,22.57,0.066964,-0.15213,-0.42158,-0.38543,20.85,-4.9013,0.63957,-0.09,0.25,-0.2,92.87
7403,5.7703e+07,1,1.16,-1.6,22.57,0.06776,-0.15029,-0.42144,-0.38732,20.85,-4.9013,0.63532,-0.09,0.25,-0.21,92.87
7444,5.7713e+07,1,1.17,-1.6,22.57,0.068365,-0.14824,-0.42086,-0.38883,20.85,-4.9013,0.63141,-0.09,0.25,-0.2,92.87
7494,5.7725e+07,1,1.17,-1.61,22.57,0.06796,-0.14787,-0.42022,-0.3903,20.85,-4.9013,0.62627,-0.09,0.25,-0.2,92.87
7537,5.7735e+07,1,1.17,-1.61,22.57,0.067763,-0.14716,-0.42113,-0.39285,20.85,-4.9013,0.62235,-0.09,0.25,-0.2,92.87
7577,5.7745e+07,1,1.17,-1.61,22.57,0.06933,-0.14677,-0.41981,-0.39263,20.85,-4.9013,0.61816,-0.09,0.25,-0.2,92.87
7618,5.7755e+07,1,1.17,-1.62,22.57,0.069953,-0.14652,-0.42134,-0.39514,20.85,-4.9013,0.61419,-0.09,0.25,-0.21,92.87
7657,5.7766e+07,1,1.17,-1.62,22.57,0.070022,-0.1455,-0.4219,-0.39651,20.85,-4.9013,0.61033,-0.09,0.25,-0.21,92.87
7700,5.7778e+07,1,1.17,-1.62,22.57,0.070274,-0.14389,-0.42197,-0.39797,20.85,-4.9013,0.6055,-0.09,0.25,-0.2,92.87
7743,5.779e+07,1,1.17,-1.62,22.58,0.069534,-0.14213,-0.42158,-0.39898,20.85,-4.9013,0.60026,-0.09,0.25,-0.2,92.87
7784,5.78e+07,1,1.17,-1.62,22.58,0.069647,-0.14139,-0.42205,-0.40066,20.85,-4.9013,0.59623,-0.09,0.25,-0.2,92.87
7825,5.781e+07,1,1.17,-1.62,22.58,0.070252,-0.14145,-0.42303,-0.40247,20.85,-4.9013,0.59205,-0.09,0.25,-0.2,92.87
7866,5.7821e+07,1,1.18,-1.63,22.58,0.070912,-0.13969,-0.42301,-0.40332,20.85,-4.9013,0.58803,-0.09,0.25,-0.2,92.87
7913,5.7831e+07,1,1.18,-1.63,22.58,0.072173,-0.1391,-0.42124,-0.40241,20.85,-4.9013,0.58406,-0.09,0.25,-0.2,92.87
7954,5.7841e+07,1,1.18,-1.63,22.58,0.072863,-0.13985,-0.42025,-0.40219,20.85,-4.9013,0.58008,-0.09,0.25,-0.2,92.87
7995,5.7851e+07,1,1.18,-1.64,22.58,0.072603,-0.13774,-0.42017,-0.40278,20.85,-4.9013,0.57606,-0.09,0.25,-0.2,92.87
8039,5.7866e+07,1,1.18,-1.64,22.58,0.071928,-0.13582,-0.42244,-0.40428,20.85,-4.9013,0.57069,-0.09,0.25,-0.2,92.87
8080,5.7876e+07,1,1.18,-1.64,22.58,0.071153,-0.13701,-0.42293,-0.40122,20.85,-4.9013,0.56651,-0.09,0.25,-0.2,92.87
8121,5.7886e+07,1,1.18,-1.63,22.58,0.071762,-0.13551,-0.42185,-0.39444,20.85,-4.9013,0.56354,-0.09,0.25,-0.2,92.87
8163,5.7896e+07,1,1.18,-1.64,22.58,0.072195,-0.13398,-0.42181,-0.38782,20.85,-4.9013,0.5605,-0.09,0.25,-0.2,92.87
8203,5.7907e+07,1,1.17,-1.64,22.59,0.072924,-0.13204,-0.42213,-0.38159,20.85,-4.9013,0.5575,-0.09,0.25,-0.2,92.87
8245,5.7917e+07,1,1.18,-1.64,22.59,0.073348,-0.13391,-0.42147,-0.37374,20.85,-4.9013,0.55324,-0.09,0.25,-0.2,92.87
8291,5.7927e+07,1,1.18,-1.64,22.59,0.073855,-0.13276,-0.42098,-0.3703,20.839,-4.9013,0.55021,-0.09,0.25,-0.2,92.87
8332,5.7938e+07,1,1.18,-1.64,22.6,0.07485,-0.13212,-0.42125,-0.36525,20.839,-4.9013,0.54667,-0.09,0.25,-0.2,92.87
8374,5.7948e+07,1,1.18,-1.64,22.6,0.076413,-0.13096,-0.42092,-0.35902,20.839,-4.9013,0.54246,-0.09,0.25,-0.2,92.87
8414,5.7958e+07,1,1.18,-1.64,22.6,0.078271,-0.13147,-0.42104,-0.35368,20.839,-4.9013,0.5389,-0.09,0.25,-0.2,92.87
8455,5.7969e+07,1,1.18,-1.65,22.6,0.079295,-0.1312,-0.42073,-0.34915,20.839,-4.9013,0.53569,-0.09,0.25,-0.2,92.87
8495,5.7979e+07,1,1.18,-1.65,22.61,0.08018,-0.13013,-0.41942,-0.34269,20.839,-4.9013,0.53323,-0.09,0.25,-0.2,92.87
8535,5.7989e+07,1,1.19,-1.65,22.61,0.079642,-0.12826,-0.41813,-0.3349,20.839,-4.9013,0.53106,-0.09,0.25,-0.2,92.87
8575,5.8e+07,1,1.19,-1.65,22.61,0.079405,-0.12824,-0.41609,-0.32243,20.839,-4.9013,0.52691,-0.09,0.25,-0.2,92.87
8616,5.801e+07,1,1.19,-1.65,22.61,0.080119,-0.12731,-0.41295,-0.3095,20.839,-4.9013,0.52473,-0.09,0.25,-0.2,92.87
8659,5.802e+07,1,1.2,-1.64,22.61,0.080159,-0.12655,-0.4122,-0.29862,20.839,-4.9013,0.52207,-0.09,0.25,-0.2,92.87
8703,5.803e+07,1,1.2,-1.65,22.62,0.081699,-0.12545,-0.41144,-0.28927,20.839,-4.9013,0.51981,-0.09,0.25,-0.2,92.87
8744,5.804e+07,1,1.2,-1.65,22.62,0.08254,-0.12497,-0.41007,-0.281,20.839,-4.9013,0.51742,-0.09,0.25,-0.2,92.87
8784,5.805e+07,1,1.2,-1.65,22.61,0.082414,-0.12394,-0.41105,-0.27445,20.839,-4.9013,0.51504,-0.1,0.25,-0.2,92.87
8826,5.806e+07,1,1.2,-1.64,22.62,0.082108,-0.12365,-0.41238,-0.26769,20.839,-4.9013,0.51086,-0.1,0.25,-0.2,92.87
8866,5.8071e+07,1,1.2,-1.65,22.62,0.082787,-0.12254,-0.41083,-0.25847,20.839,-4.9013,0.50898,-0.1,0.25,-0.2,92.87
8904,5.8081e+07,1,1.2,-1.65,22.62,0.083155,-0.12098,-0.41051,-0.25176,20.839,-4.9013,0.50693,-0.1,0.25,-0.2,92.87
8944,5.8091e+07,1,1.2,-1.65,22.62,0.0843,-0.12024,-0.40952,-0.24521,20.839,-4.9013,0.50485,-0.1,0.25,-0.2,92.87
8984,5.8101e+07,1,1.2,-1.65,22.62,0.084838,-0.11932,-0.40909,-0.2409,20.839,-4.9013,0.50261,-0.1,0.25,-0.2,92.87
9026,5.8111e+07,1,1.2,-1.64,22.62,0.084697,-0.11957,-0.40932,-0.23606,20.839,-4.9013,0.49855,-0.1,0.25,-0.2,92.87
9067,5.8122e+07,1,1.2,-1.65,22.63,0.085094,-0.11991,-0.40783,-0.23207,20.839,-4.9013,0.49584,-0.1,0.25,-0.2,92.87
9114,5.8132e+07,1,1.19,-1.65,22.63,0.083801,-0.11956,-0.40826,-0.23273,20.839,-4.8932,0.49364,-0.1,0.25,-0.2,92.87
9155,5.8142e+07,1,1.19,-1.65,22.63,0.084397,-0.11767,-0.40877,-0.23466,20.839,-4.8932,0.49123,-0.1,0.25,-0.2,92.87
9195,5.8152e+07,1,1.19,-1.65,22.63,0.083635,-0.11871,-0.41158,-0.23762,20.839,-4.8932,0.48878,-0.1,0.25,-0.2,92.87
9237,5.8162e+07,1,1.19,-1.65,22.63,0.083538,-0.1197,-0.41166,-0.23722,20.839,-4.8932,0.48422,-0.1,0.25,-0.2,92.87
9277,5.8175e+07,1,1.19,-1.66,22.63,0.084815,-0.11932,-0.41234,-0.24032,20.839,-4.8932,0.48045,-0.1,0.25,-0.2,92.87
9315,5.8186e+07,1,1.2,-1.66,22.63,0.084696,-0.11871,-0.41272,-0.24071,20.839,-4.8932,0.47855,-0.1,0.25,-0.2,92.87
9356,5.8196e+07,1,1.2,-1.66,22.63,0.084293,-0.1173,-0.41238,-0.24033,20.839,-4.8932,0.47654,-0.1,0.25,-0.2,92.87
9396,5.8206e+07,1,1.2,-1.66,22.63,0.085351,-0.11747,-0.41105,-0.24118,20.839,-4.8932,0.47457,-0.1,0.25,-0.2,92.87
9437,5.8216e+07,1,1.2,-1.66,22.63,0.086615,-0.11867,-0.41112,-0.24023,20.839,-4.8932,0.47007,-0.1,0.25,-0.2,92.87
9479,5.8226e+07,1,1.2,-1.66,22.64,0.087702,-0.11893,-0.41027,-0.23897,20.839,-4.8932,0.46794,-0.1,0.25,-0.2,92.87
9525,5.8236e+07,1,1.2,-1.66,22.64,0.088566,-0.11734,-0.41041,-0.23955,20.839,-4.8932,0.46571,-0.1,0.25,-0.2,92.87
9566,5.8246e+07,1,1.2,-1.66,22.64,0.089167,-0.11718,-0.41033,-0.24222,20.839,-4.8932,0.46165,-0.1,0.25,-0.2,92.87
9606,5.8257e+07,1,1.21,-1.66,22.64,0.089357,-0.11633,-0.40895,-0.2438,20.839,-4.8932,0.4594,-0.1,0.25,-0.2,92.87
9647,5.8267e+07,1,1.21,-1.66,22.65,0.089327,-0.11586,-0.40871,-0.24591,20.839,-4.8932,0.45709,-0.1,0.25,-0.2,92.87
9684,5.8277e+07,1,1.21,-1.66,22.65,0.089759,-0.11408,-0.40883,-0.24907,20.839,-4.8932,0.45467,-0.1,0.25,-0.2,92.87
9725,5.829e+07,1,1.21,-1.66,22.65,0.091483,-0.1145,-0.40763,-0.24961,20.839,-4.8932,0.45164,-0.1,0.25,-0.2,92.87
9765,5.83e+07,1,1.21,-1.66,22.65,0.091419,-0.11283,-0.40845,-0.25169,20.839,-4.8932,0.44971,-0.1,0.25,-0.2,92.87
9810,5.8313e+07,1,1.21,-1.66,22.65,0.091099,-0.11301,-0.40773,-0.24985,20.839,-4.8932,0.44647,-0.1,0.25,-0.2,92.87
9851,5.8323e+07,1,1.21,-1.67,22.65,0.091636,-0.11319,-0.40688,-0.24675,20.839,-4.8932,0.442,-0.1,0.25,-0.2,92.87
9897,5.8334e+07,1,1.22,-1.67,22.65,0.09208,-0.11239,-0.40458,-0.24399,20.839,-4.8932,0.43983,-0.1,0.25,-0.2,92.87
9938,5.8344e+07,1,1.22,-1.67,22.65,0.092845,-0.11141,-0.40626,-0.24528,20.839,-4.8932,0.43775,-0.1,0.25,-0.2,92.87
9978,5.8354e+07,1,1.22,-1.67,22.65,0.093443,-0.1106,-0.40519,-0.2449,20.839,-4.8932,0.43549,-0.1,0.25,-0.2,92.87
10019,5.8364e+07,1,1.22,-1.67,22.65,0.093424,-0.11066,-0.40439,-0.24493,20.839,-4.8932,0.43345,-0.1,0.25,-0.2,92.87
10057,5.8378e+07,1,1.22,-1.68,22.66,0.093322,-0.11039,-0.40464,-0.24369,20.839,-4.8932,0.42953,-0.1,0.25,-0.2,92.87
10098,5.8388e+07,1,1.22,-1.68,22.66,0.092795,-0.11001,-0.40537,-0.24555,20.839,-4.8932,0.42736,-0.1,0.25,-0.2,92.87
10139,5.8398e+07,1,1.22,-1.68,22.66,0.093313,-0.11062,-0.40468,-0.24362,20.839,-4.8932,0.42357,-0.1,0.25,-0.2,92.87
10179,5.8409e+07,1,1.22,-1.68,22.66,0.094381,-0.11001,-0.4048,-0.24482,20.839,-4.8932,0.42071,-0.1,0.25,-0.2,92.87
10220,5.8419e+07,1,1.23,-1.68,22.67,0.094031,-0.11002,-0.40461,-0.24722,20.839,-4.8932,0.41842,-0.1,0.25,-0.2,92.87
10260,5.8429e+07,1,1.23,-1.68,22.66,0.093751,-0.10879,-0.40376,-0.24973,20.839,-4.8932,0.41606,-0.1,0.25,-0.2,92.87
10306,5.8439e+07,1,1.23,-1.67,22.66,0.094082,-0.10943,-0.40436,-0.25159,20.839,-4.8932,0.41202,-0.1,0.25,-0.2,92.87
10347,5.8449e+07,1,1.23,-1.67,22.66,0.094105,-0.10781,-0.40576,-0.25627,20.839,-4.8932,0.40919,-0.1,0.25,-0.2,92.87
10387,5.846e+07,1,1.23,-1.68,22.67,0.096174,-0.10773,-0.4062,-0.25965,20.839,-4.8932,0.40667,-0.1,0.25,-0.2,92.87
10431,5.8473e+07,1,1.23,-1.68,22.67,0.096556,-0.10565,-0.40755,-0.26509,20.839,-4.8932,0.40288,-0.1,0.25,-0.2,92.87
10475,5.8485e+07,1,1.23,-1.68,22.67,0.097944,-0.10479,-0.40834,-0.2684,20.839,-4.8932,0.39989,-0.1,0.25,-0.2,92.87
10515,5.8496e+07,1,1.23,-1.68,22.67,0.099265,-0.10457,-0.40668,-0.26929,20.839,-4.8932,0.39814,-0.1,0.25,-0.2,92.87
10556,5.8507e+07,1,1.23,-1.68,22.67,0.09912,-0.10437,-0.40751,-0.26784,20.839,-4.8932,0.39367,-0.1,0.25,-0.2,92.87
10596,5.8517e+07,1,1.24,-1.68,22.67,0.09996,-0.10374,-0.40812,-0.26687,20.839,-4.8932,0.3918,-0.1,0.25,-0.19,92.87
10639,5.8527e+07,1,1.24,-1.68,22.67,0.1009,-0.1023,-0.40835,-0.26514,20.828,-4.8851,0.38937,-0.1,0.25,-0.19,92.87
10675,5.8568e+07,1,1.24,-1.68,22.68,0.10048,-0.10059,-0.40681,-0.25651,20.828,-4.8851,0.3788,-0.1,0.25,-0.2,92.87
10719,5.8581e+07,1,1.24,-1.69,22.67,0.10101,-0.102,-0.40559,-0.25628,20.828,-4.8851,0.37532,-0.1,0.25,-0.19,92.87
10759,5.8591e+07,1,1.24,-1.69,22.67,0.10106,-0.10172,-0.40454,-0.25423,20.828,-4.8851,0.37471,-0.1,0.25,-0.19,92.87
10800,5.8602e+07,1,1.24,-1.69,22.67,0.10114,-0.099584,-0.40501,-0.2473,20.828,-4.8851,0.37355,-0.1,0.25,-0.19,92.87
10841,5.8612e+07,1,1.24,-1.68,22.67,0.1013,-0.099753,-0.40429,-0.23805,20.828,-4.8851,0.37264,-0.1,0.25,-0.19,92.87
10881,5.8622e+07,1,1.24,-1.69,22.67,0.10186,-0.10097,-0.40272,-0.2227,20.828,-4.8851,0.36821,-0.1,0.25,-0.19,92.87
10922,5.8632e+07,1,1.25,-1.69,22.67,0.10242,-0.09894,-0.40206,-0.21106,20.828,-4.8851,0.36719,-0.1,0.25,-0.19,92.87
10966,5.8642e+07,1,1.25,-1.68,22.67,0.10422,-0.098387,-0.40291,-0.2019,20.828,-4.8851,0.36608,-0.1,0.25,-0.19,92.87
11007,5.8653e+07,1,1.25,-1.68,22.66,0.10461,-0.097414,-0.40118,-0.19384,20.828,-4.8851,0.36478,-0.1,0.25,-0.19,92.87
11050,5.8663e+07,1,1.24,-1.69,22.66,0.10542,-0.0967,-0.40063,-0.18554,20.828,-4.8851,0.36341,-0.1,0.25,-0.2,92.87
11091,5.8673e+07,1,1.25,-1.68,22.66,0.10597,-0.097344,-0.40051,-0.17918,20.828,-4.8851,0.35939,-0.1,0.25,-0.2,92.87
11132,5.8683e+07,1,1.25,-1.68,22.66,0.10573,-0.09736,-0.4002,-0.17466,20.828,-4.8851,0.3575,-0.1,0.25,-0.19,92.87
11173,5.8694e+07,1,1.25,-1.68,22.66,0.10488,-0.097192,-0.39822,-0.17325,20.828,-4.8851,0.35652,-0.1,0.25,-0.19,92.87
11214,5.8704e+07,1,1.25,-1.68,22.66,0.10462,-0.098103,-0.39621,-0.1715,20.828,-4.8851,0.35254,-0.1,0.25,-0.19,92.87
11256,5.8714e+07,1,1.25,-1.68,22.66,0.10457,-0.097044,-0.3977,-0.17976,20.828,-4.8771,0.35149,-0.1,0.25,-0.19,92.87
11299,5.8724e+07,1,1.25,-1.68,22.66,0.10411,-0.097585,-0.39676,-0.18253,20.828,-4.8771,0.34713,-0.1,0.25,-0.19,92.87
11340,5.8735e+07,1,1.25,-1.69,22.66,0.10418,-0.096511,-0.39672,-0.18564,20.828,-4.8771,0.34595,-0.1,0.25,-0.19,92.87
11385,5.8746e+07,1,1.25,-1.69,22.66,0.10509,-0.096455,-0.39736,-0.18892,20.828,-4.8771,0.34428,-0.1,0.25,-0.19,92.87
11426,5.8756e+07,1,1.25,-1.69,22.66,0.10408,-0.095553,-0.39732,-0.19099,20.828,-4.8771,0.34279,-0.1,0.25,-0.19,92.87
11466,5.8766e+07,1,1.25,-1.68,22.66,0.10456,-0.095734,-0.39765,-0.19236,20.828,-4.8771,0.33889,-0.1,0.25,-0.19,92.87
11508,5.8776e+07,1,1.25,-1.69,22.66,0.10449,-0.094498,-0.39731,-0.19387,20.828,-4.8771,0.33733,-0.1,0.25,-0.19,92.87
11549,5.8787e+07,1,1.25,-1.69,22.66,0.10508,-0.095241,-0.39574,-0.19663,20.828,-4.8771,0.33534,-0.1,0.25,-0.19,92.87
11587,5.8797e+07,1,1.25,-1.69,22.66,0.10651,-0.096718,-0.39546,-0.20045,20.828,-4.8771,0.33135,-0.1,0.25,-0.19,92.87
11629,5.8808e+07,1,1.25,-1.69,22.66,0.10816,-0.095581,-0.39563,-0.2079,20.828,-4.8771,0.3293,-0.1,0.24,-0.19,92.87
11666,5.8818e+07,1,1.26,-1.7,22.66,0.1094,-0.094314,-0.39546,-0.21151,20.828,-4.8771,0.32851,-0.1,0.24,-0.19,92.87
11707,5.8828e+07,1,1.26,-1.7,22.67,0.10986,-0.093272,-0.39472,-0.21225,20.828,-4.8771,0.32762,-0.1,0.24,-0.19,92.87
11747,5.8838e+07,1,1.26,-1.7,22.66,0.11113,-0.093604,-0.39562,-0.20843,20.828,-4.8771,0.32324,-0.1,0.24,-0.19,92.87
11797,5.8851e+07,1,1.26,-1.7,22.67,0.11,-0.093685,-0.39321,-0.20789,20.828,-4.8771,0.3211,-0.1,0.24,-0.19,92.87
11837,5.8862e+07,1,1.26,-1.7,22.67,0.11017,-0.093296,-0.39391,-0.20864,20.828,-4.8771,0.3199,-0.1,0.24,-0.19,92.87
11878,5.8872e+07,1,1.26,-1.7,22.67,0.11033,-0.092063,-0.39299,-0.20414,20.828,-4.8771,0.31868,-0.1,0.24,-0.19,92.87
11921,5.8882e+07,1,1.26,-1.7,22.67,0.11152,-0.092233,-0.39455,-0.2017,20.828,-4.8771,0.31476,-0.1,0.24,-0.19,92.87
11965,5.8897e+07,1,1.26,-1.7,22.68,0.11207,-0.091598,-0.39356,-0.19491,20.828,-4.8771,0.31456,-0.1,0.24,-0.19,92.87
12005,5.8907e+07,1,1.26,-1.7,22.68,0.11188,-0.090948,-0.39298,-0.18924,20.828,-4.8771,0.31407,-0.1,0.24,-0.19,92.87
12048,5.8918e+07,1,1.26,-1.7,22.68,0.11094,-0.090281,-0.39206,-0.17799,20.828,-4.8771,0.31015,-0.1,0.24,-0.19,92.87
12089,5.8928e+07,1,1.26,-1.7,22.68,0.1109,-0.089338,-0.39021,-0.16813,20.828,-4.8771,0.3095,-0.1,0.24,-0.19,92.87
12130,5.8938e+07,1,1.26,-1.7,22.67,0.11147,-0.087848,-0.38899,-0.1623,20.828,-4.8771,0.30833,-0.1,0.24,-0.19,92.87
12171,5.8949e+07,1,1.26,-1.7,22.67,0.11121,-0.088283,-0.38892,-0.16005,20.828,-4.8771,0.30744,-0.1,0.24,-0.19,92.87
12215,5.8959e+07,1,1.26,-1.71,22.67,0.11116,-0.089079,-0.38882,-0.15439,20.828,-4.8771,0.30355,-0.1,0.24,-0.19,92.87
12256,5.8969e+07,1,1.26,-1.71,22.67,0.11197,-0.086941,-0.38798,-0.15058,20.828,-4.8771,0.30253,-0.1,0.24,-0.19,92.87
12297,5.8979e+07,1,1.26,-1.72,22.68,0.11162,-0.086218,-0.38704,-0.15458,20.828,-4.8771,0.30103,-0.1,0.24,-0.18,92.87
12337,5.899e+07,1,1.26,-1.72,22.68,0.11217,-0.086705,-0.38554,-0.15512,20.828,-4.8771,0.29935,-0.1,0.24,-0.18,92.87
12381,5.9003e+07,1,1.26,-1.72,22.68,0.11257,-0.087422,-0.38227,-0.14902,20.828,-4.8771,0.2979,-0.1,0.25,-0.19,92.87
12422,5.9013e+07,1,1.26,-1.72,22.68,0.11262,-0.087618,-0.38075,-0.14539,20.828,-4.8771,0.29406,-0.1,0.25,-0.19,92.87
12462,5.9023e+07,1,1.26,-1.72,22.68,0.11265,-0.08605,-0.37998,-0.14287,20.828,-4.8771,0.29366,-0.1,0.24,-0.18,92.87
12504,5.9034e+07,1,1.26,-1.72,22.68,0.1126,-0.084663,-0.37908,-0.14324,20.828,-4.8771,0.29304,-0.1,0.24,-0.18,92.87
12545,5.9045e+07,1,1.26,-1.73,22.68,0.11226,-0.083918,-0.37991,-0.14151,20.828,-4.8771,0.29194,-0.1,0.24,-0.18,92.87
12589,5.9055e+07,1,1.26,-1.73,22.69,0.11131,-0.082933,-0.3789,-0.13906,20.828,-4.8771,0.29108,-0.1,0.25,-0.18,92.87
12630,5.9066e+07,1,1.26,-1.73,22.69,0.11038,-0.081387,-0.37692,-0.13355,20.828,-4.8771,0.28972,-0.1,0.25,-0.19,92.87
12671,5.9076e+07,1,1.26,-1.72,22.69,0.11156,-0.081662,-0.3769,-0.12948,20.828,-4.8771,0.28592,-0.1,0.25,-0.19,92.87
12712,5.9086e+07,1,1.26,-1.72,22.69,0.1114,-0.081188,-0.37653,-0.12837,20.828,-4.8771,0.28484,-0.1,0.25,-0.19,92.87
12749,5.9097e+07,1,1.26,-1.72,22.7,0.11219,-0.080427,-0.37439,-0.12429,20.828,-4.8771,0.28432,-0.1,0.25,-0.19,92.87
12792,5.9107e+07,1,1.26,-1.72,22.7,0.11177,-0.079983,-0.37435,-0.11837,20.828,-4.869,0.28432,-0.1,0.25,-0.18,92.87
12832,5.9117e+07,1,1.26,-1.72,22.7,0.11285,-0.079683,-0.37411,-0.11193,20.828,-4.869,0.28418,-0.1,0.25,-0.18,92.87
12874,5.9128e+07,1,1.26,-1.72,22.69,0.1134,-0.07898,-0.37188,-0.10581,20.828,-4.869,0.28389,-0.1,0.25,-0.18,92.87
12915,5.9138e+07,1,1.26,-1.73,22.69,0.11485,-0.080141,-0.37291,-0.099638,20.828,-4.869,0.28017,-0.1,0.25,-0.18,92.87
12955,5.9148e+07,1,1.27,-1.73,22.69,0.11321,-0.078513,-0.3728,-0.095672,20.828,-4.869,0.2797,-0.1,0.25,-0.19,92.87
13000,5.9158e+07,1,1.27,-1.74,22.69,0.11385,-0.077517,-0.37206,-0.099626,20.828,-4.869,0.27915,-0.1,0.25,-0.18,92.87
13041,5.9169e+07,1,1.27,-1.74,22.69,0.11304,-0.078076,-0.37037,-0.099375,20.828,-4.869,0.27803,-0.1,0.25,-0.18,92.87
13082,5.9179e+07,1,1.27,-1.74,22.68,0.11386,-0.078751,-0.36978,-0.097837,20.828,-4.869,0.27458,-0.1,0.25,-0.18,92.87
13123,5.919e+07,1,1.27,-1.74,22.68,0.1145,-0.077988,-0.36824,-0.10473,20.828,-4.869,0.27319,-0.1,0.25,-0.18,92.87
13163,5.92e+07,1,1.27,-1.75,22.68,0.1149,-0.078256,-0.36779,-0.10971,20.828,-4.869,0.27227,-0.1,0.25,-0.18,92.87
13205,5.9213e+07,1,1.27,-1.75,22.68,0.11559,-0.078651,-0.36636,-0.11128,20.828,-4.869,0.27173,-0.1,0.25,-0.18,92.87
13247,5.9224e+07,1,1.27,-1.75,22.68,0.11682,-0.078335,-0.36553,-0.11061,20.828,-4.869,0.26771,-0.1,0.25,-0.18,92.87
13288,5.9233e+07,1,1.27,-1.75,22.68,0.11769,-0.077645,-0.36651,-0.10931,20.828,-4.869,0.2681,-0.1,0.25,-0.18,92.87
13330,5.9243e+07,1,1.26,-1.74,22.68,0.11877,-0.075749,-0.36648,-0.10967,20.828,-4.869,0.26835,-0.1,0.25,-0.18,92.87
13370,5.9254e+07,1,1.26,-1.75,22.67,0.1182,-0.075187,-0.36445,-0.10415,20.828,-4.869,0.26841,-0.1,0.25,-0.18,92.87
13416,5.9265e+07,1,1.26,-1.75,22.67,0.11849,-0.074004,-0.36202,-0.094494,20.828,-4.869,0.26792,-0.1,0.25,-0.18,92.87
13456,5.9275e+07,1,1.26,-1.75,22.67,0.11954,-0.072304,-0.36011,-0.088321,20.828,-4.869,0.26734,-0.1,0.25,-0.18,92.87
13497,5.9285e+07,1,1.27,-1.75,22.67,0.12131,-0.072266,-0.36118,-0.083579,20.828,-4.869,0.26375,-0.1,0.25,-0.18,92.87
13537,5.9295e+07,1,1.27,-1.76,22.67,0.12191,-0.07208,-0.36115,-0.080243,20.828,-4.869,0.26369,-0.1,0.25,-0.18,92.87
13575,5.9306e+07,1,1.27,-1.75,22.68,0.12134,-0.069793,-0.36141,-0.079768,20.828,-4.869,0.26276,-0.1,0.25,-0.18,92.87
13619,5.9316e+07,1,1.27,-1.76,22.67,0.12199,-0.070639,-0.36059,-0.083532,20.839,-4.861,0.25917,-0.1,0.25,-0.18,92.87
13656,5.9327e+07,1,1.27,-1.76,22.67,0.12196,-0.070147,-0.35937,-0.083533,20.839,-4.861,0.25974,-0.1,0.25,-0.18,92.87
13697,5.9337e+07,1,1.27,-1.76,22.67,0.12211,-0.06853,-0.359,-0.078268,20.839,-4.861,0.26044,-0.1,0.25,-0.18,92.87
13738,5.9347e+07,1,1.27,-1.76,22.67,0.12303,-0.068446,-0.35671,-0.069814,20.839,-4.861,0.26095,-0.1,0.25,-0.18,92.87
13779,5.9357e+07,1,1.27,-1.76,22.67,0.12329,-0.067453,-0.35569,-0.064601,20.839,-4.861,0.26128,-0.1,0.25,-0.18,92.87
13825,5.9367e+07,1,1.28,-1.76,22.67,0.12174,-0.066888,-0.35543,-0.060483,20.839,-4.861,0.26141,-0.1,0.25,-0.18,92.87
13865,5.9377e+07,1,1.27,-1.76,22.67,0.12097,-0.06767,-0.35559,-0.054337,20.839,-4.861,0.26105,-0.1,0.25,-0.18,92.87
13907,5.9388e+07,1,1.27,-1.76,22.67,0.12152,-0.067945,-0.35497,-0.046998,20.839,-4.861,0.25748,-0.1,0.25,-0.18,92.87
13947,5.9401e+07,1,1.27,-1.76,22.67,0.12278,-0.06828,-0.35608,-0.046456,20.839,-4.861,0.25621,-0.1,0.25,-0.18,92.87
13988,5.9411e+07,1,1.28,-1.76,22.67,0.12219,-0.067431,-0.35542,-0.043129,20.839,-4.861,0.25702,-0.1,0.25,-0.18,92.87
14029,5.9421e+07,1,1.28,-1.77,22.67,0.12205,-0.066251,-0.35453,-0.038495,20.839,-4.861,0.25754,-0.1,0.25,-0.18,92.87
14070,5.9432e+07,1,1.28,-1.77,22.67,0.12291,-0.067158,-0.35241,-0.039412,20.839,-4.861,0.25771,-0.1,0.25,-0.18,92.87
14111,5.9442e+07,1,1.28,-1.77,22.66,0.12294,-0.066013,-0.35192,-0.037947,20.839,-4.861,0.25759,-0.1,0.25,-0.18,92.87
14151,5.9453e+07,1,1.28,-1.77,22.66,0.12312,-0.06724,-0.35109,-0.033372,20.839,-4.861,0.25407,-0.1,0.25,-0.18,92.87
14193,5.9463e+07,1,1.28,-1.76,22.66,0.1233,-0.065017,-0.35167,-0.033589,20.839,-4.861,0.25382,-0.1,0.25,-0.18,92.87
14237,5.9473e+07,1,1.28,-1.76,22.66,0.12423,-0.065862,-0.35119,-0.033831,20.839,-4.861,0.25405,-0.1,0.25,-0.18,92.87
14279,5.9483e+07,1,1.29,-1.76,22.67,0.12506,-0.065713,-0.35116,-0.037569,20.839,-4.861,0.25385,-0.1,0.25,-0.18,92.87
14319,5.9494e+07,1,1.29,-1.76,22.67,0.12536,-0.065061,-0.35019,-0.039044,20.839,-4.861,0.25309,-0.1,0.25,-0.18,92.87
14360,5.9504e+07,1,1.29,-1.77,22.67,0.12616,-0.065557,-0.35205,-0.044858,20.839,-4.861,0.24958,-0.1,0.25,-0.18,92.87
14400,5.9515e+07,1,1.29,-1.77,22.67,0.1263,-0.065997,-0.35146,-0.048321,20.839,-4.861,0.24967,-0.1,0.25,-0.18,92.87
14440,5.9525e+07,1,1.29,-1.77,22.67,0.12555,-0.0649,-0.34993,-0.047105,20.839,-4.8529,0.24993,-0.1,0.25,-0.18,92.87
14481,5.9535e+07,1,1.29,-1.77,22.67,0.12553,-0.064786,-0.34881,-0.046261,20.839,-4.8529,0.24999,-0.1,0.25,-0.18,92.87
14522,5.9545e+07,1,1.29,-1.77,22.66,0.12683,-0.06458,-0.34784,-0.050282,20.839,-4.8529,0.24657,-0.1,0.25,-0.18,92.87
14564,5.9555e+07,1,1.3,-1.77,22.66,0.12719,-0.063681,-0.34724,-0.055922,20.839,-4.8529,0.24618,-0.1,0.25,-0.18,92.87
14604,5.9565e+07,1,1.3,-1.77,22.66,0.12877,-0.063129,-0.34653,-0.060907,20.839,-4.8529,0.24601,-0.1,0.25,-0.18,92.87
14649,5.9575e+07,1,1.3,-1.77,22.66,0.12817,-0.062324,-0.34616,-0.063143,20.839,-4.8529,0.24568,-0.1,0.25,-0.18,92.87
14690,5.9585e+07,1,1.3,-1.77,22.66,0.12857,-0.06189,-0.34657,-0.066906,20.839,-4.8529,0.24519,-0.1,0.25,-0.18,92.87
14730,5.9596e+07,1,1.3,-1.77,22.66,0.12936,-0.062096,-0.34606,-0.07169,20.839,-4.8529,0.24175,-0.1,0.25,-0.18,92.87
14772,5.9609e+07,1,1.3,-1.77,22.66,0.12932,-0.061108,-0.34367,-0.078937,20.839,-4.8529,0.24015,-0.1,0.25,-0.18,92.87
14812,5.9619e+07,1,1.3,-1.77,22.66,0.12872,-0.060558,-0.34408,-0.08265,20.839,-4.8529,0.24075,-0.1,0.25,-0.18,92.87
14853,5.9629e+07,1,1.31,-1.77,22.66,0.12829,-0.060214,-0.34281,-0.081503,20.839,-4.8529,0.24121,-0.1,0.25,-0.18,92.87
14893,5.9639e+07,1,1.31,-1.77,22.65,0.12893,-0.059116,-0.34115,-0.080231,20.839,-4.8529,0.24149,-0.1,0.25,-0.18,92.87
14933,5.9649e+07,1,1.31,-1.77,22.66,0.13051,-0.058456,-0.3416,-0.079473,20.839,-4.8529,0.23806,-0.1,0.25,-0.18,92.87
14975,5.9659e+07,1,1.3,-1.78,22.66,0.13154,-0.058121,-0.34055,-0.078498,20.839,-4.8529,0.23785,-0.1,0.25,-0.18,92.87
15015,5.967e+07,1,1.3,-1.78,22.66,0.13002,-0.057987,-0.33938,-0.07802,20.839,-4.8529,0.23786,-0.1,0.25,-0.18,92.87
15061,5.968e+07,1,1.3,-1.78,22.66,0.12965,-0.057552,-0.33706,-0.076359,20.839,-4.8529,0.23771,-0.1,0.25,-0.18,92.87
15101,5.969e+07,1,1.3,-1.77,22.66,0.13068,-0.058244,-0.33603,-0.077828,20.839,-4.8529,0.2374,-0.1,0.25,-0.18,92.87
15144,5.97e+07,1,1.3,-1.77,22.66,0.13142,-0.058942,-0.33718,-0.078256,20.839,-4.8529,0.23406,-0.1,0.25,-0.18,92.87
15185,5.971e+07,1,1.3,-1.77,22.66,0.13157,-0.058298,-0.33583,-0.081308,20.839,-4.8529,0.23363,-0.1,0.25,-0.18,92.87
15226,5.9721e+07,1,1.31,-1.77,22.66,0.1298,-0.05687,-0.33444,-0.083422,20.839,-4.8529,0.23432,-0.1,0.25,-0.18,92.87
15265,5.9731e+07,1,1.31,-1.77,22.66,0.13033,-0.056026,-0.33268,-0.083361,20.839,-4.8529,0.23484,-0.1,0.25,-0.18,92.87
15305,5.9742e+07,1,1.31,-1.77,22.66,0.13046,-0.056608,-0.33077,-0.075482,20.839,-4.8529,0.23155,-0.1,0.25,-0.18,92.87
15346,5.9752e+07,1,1.31,-1.77,22.66,0.13026,-0.05557,-0.32808,-0.067868,20.839,-4.8529,0.23228,-0.1,0.25,-0.18,92.87
15386,5.9762e+07,1,1.31,-1.77,22.66,0.12998,-0.05521,-0.32788,-0.058244,20.839,-4.8529,0.23248,-0.1,0.25,-0.18,92.87
15427,5.9773e+07,1,1.31,-1.77,22.66,0.13062,-0.054613,-0.32769,-0.049211,20.839,-4.8529,0.23286,-0.1,0.25,-0.18,92.87
15472,5.9784e+07,1,1.31,-1.77,22.66,0.13123,-0.054495,-0.32507,-0.040507,20.839,-4.8529,0.2327,-0.1,0.25,-0.18,92.87
15514,5.9794e+07,1,1.31,-1.77,22.66,0.13119,-0.054942,-0.3243,-0.038257,20.839,-4.8529,0.23276,-0.1,0.25,-0.18,92.87
15555,5.9804e+07,1,1.31,-1.77,22.66,0.13147,-0.054509,-0.32443,-0.037643,20.839,-4.8529,0.22951,-0.1,0.25,-0.18,92.87
15598,5.982e+07,1,1.31,-1.78,22.66,0.12977,-0.052758,-0.32169,-0.035039,20.839,-4.8529,0.23247,-0.1,0.25,-0.18,92.87
15639,5.983e+07,1,1.32,-1.78,22.66,0.12988,-0.052368,-0.32169,-0.025639,20.839,-4.8529,0.23363,-0.1,0.25,-0.18,92.87
15681,5.984e+07,1,1.31,-1.77,22.66,0.129,-0.051424,-0.32073,-0.018318,20.839,-4.8529,0.23489,-0.1,0.25,-0.18,92.87
15721,5.9851e+07,1,1.32,-1.77,22.66,0.12972,-0.050566,-0.32228,-0.0082554,20.839,-4.8529,0.23174,-0.1,0.25,-0.18,92.87
15762,5.9861e+07,1,1.32,-1.78,22.66,0.12955,-0.050295,-0.32209,0.00017236,20.839,-4.8529,0.23278,-0.1,0.25,-0.18,92.87
15802,5.9871e+07,1,1.32,-1.78,22.66,0.12885,-0.051038,-0.32315,0.00056746,20.839,-4.8529,0.23364,-0.1,0.25,-0.18,92.87
15850,5.9882e+07,1,1.32,-1.78,22.66,0.12849,-0.051204,-0.32388,0.001488,20.839,-4.8529,0.23016,-0.1,0.25,-0.18,92.87
15891,5.9892e+07,1,1.32,-1.78,22.66,0.12706,-0.050156,-0.32271,-0.0017203,20.839,-4.8529,0.23091,-0.1,0.25,-0.18,92.87
15932,5.9902e+07,1,1.32,-1.78,22.66,0.12726,-0.04996,-0.32326,-0.012072,20.839,-4.8529,0.23114,-0.1,0.25,-0.18,92.87
15972,5.9913e+07,1,1.32,-1.78,22.66,0.12869,-0.05138,-0.32312,-0.014815,20.85,-4.861,0.22791,-0.1,0.25,-0.18,92.87
16012,5.9923e+07,1,1.32,-1.77,22.66,0.1276,-0.049411,-0.32317,-0.023693,20.85,-4.861,0.22802,-0.1,0.25,-0.18,92.87
16053,5.9934e+07,1,1.32,-1.78,22.66,0.12713,-0.048982,-0.3228,-0.029841,20.85,-4.861,0.23002,-0.1,0.25,-0.18,92.87
16094,5.9945e+07,1,1.32,-1.78,22.66,0.12812,-0.049585,-0.32276,-0.03003,20.85,-4.861,0.23146,-0.1,0.25,-0.17,92.87
16135,5.9955e+07,1,1.32,-1.77,22.66,0.12882,-0.047815,-0.31936,-0.018814,20.85,-4.861,0.23268,-0.1,0.25,-0.18,92.87
16177,5.9966e+07,1,1.32,-1.78,22.67,0.1288,-0.048412,-0.31931,-0.0063217,20.85,-4.861,0.2295,-0.1,0.25,-0.18,92.87
16217,5.9976e+07,1,1.32,-1.78,22.67,0.12846,-0.048334,-0.31834,0.0036722,20.85,-4.861,0.2308,-0.1,0.25,-0.18,92.87
16262,5.9986e+07,1,1.32,-1.79,22.67,0.12839,-0.048568,-0.31832,0.011605,20.85,-4.861,0.23192,-0.1,0.25,-0.18,92.87
16303,5.9996e+07,1,1.32,-1.79,22.67,0.12928,-0.049792,-0.31694,0.014402,20.85,-4.861,0.22877,-0.1,0.25,-0.18,92.87
16344,6.0006e+07,1,1.32,-1.79,22.67,0.13045,-0.048356,-0.31588,0.015217,20.85,-4.861,0.22945,-0.1,0.25,-0.17,92.87
16385,6.0017e+07,1,1.32,-1.79,22.67,0.1298,-0.047282,-0.31434,0.018476,20.85,-4.861,0.23017,-0.1,0.25,-0.18,92.87
16426,6.0027e+07,1,1.32,-1.79,22.67,0.13032,-0.047191,-0.31345,0.025427,20.85,-4.861,0.23261,-0.1,0.25,-0.18,92.87
16466,6.0038e+07,1,1.32,-1.79,22.67,0.13114,-0.04744,-0.31119,0.039577,20.85,-4.861,0.23503,-0.1,0.25,-0.18,92.87
16507,6.0048e+07,1,1.32,-1.79,22.67,0.13064,-0.046426,-0.30927,0.051391,20.85,-4.861,0.2372,-0.1,0.25,-0.18,92.87
16548,6.0058e+07,1,1.32,-1.79,22.67,0.13023,-0.045489,-0.30759,0.062503,20.85,-4.861,0.23914,-0.1,0.25,-0.18,92.87
16589,6.0068e+07,1,1.32,-1.79,22.67,0.13211,-0.045549,-0.3074,0.077081,20.85,-4.861,0.23575,-0.1,0.25,-0.18,92.87
16630,6.0079e+07,1,1.32,-1.79,22.67,0.13126,-0.04496,-0.30562,0.085784,20.85,-4.861,0.2375,-0.1,0.25,-0.18,92.87
16674,6.0089e+07,1,1.33,-1.79,22.67,0.12962,-0.043559,-0.30535,0.080714,20.85,-4.861,0.23906,-0.1,0.25,-0.17,92.87
16716,6.01e+07,1,1.32,-1.79,22.67,0.12981,-0.044787,-0.30358,0.083156,20.85,-4.861,0.23571,-0.1,0.25,-0.17,92.87
16758,6.011e+07,1,1.33,-1.79,22.67,0.13042,-0.04502,-0.29963,0.083895,20.85,-4.861,0.23712,-0.1,0.25,-0.17,92.87
16800,6.012e+07,1,1.33,-1.79,22.67,0.13068,-0.043912,-0.29878,0.072047,20.85,-4.861,0.23834,-0.1,0.25,-0.17,92.87
16847,6.0136e+07,1,1.33,-1.8,22.67,0.13151,-0.043461,-0.29817,0.063331,20.85,-4.861,0.2393,-0.1,0.25,-0.17,92.87
16888,6.0146e+07,1,1.33,-1.8,22.67,0.13115,-0.043907,-0.29871,0.059197,20.85,-4.861,0.24203,-0.1,0.25,-0.17,92.87
16928,6.0157e+07,1,1.34,-1.8,22.67,0.1309,-0.042432,-0.29814,0.066426,20.85,-4.861,0.24418,-0.1,0.25,-0.17,92.87
16969,6.0168e+07,1,1.34,-1.81,22.67,0.13299,-0.039901,-0.29682,0.07889,20.85,-4.861,0.24633,-0.1,0.25,-0.17,92.87
17009,6.0178e+07,1,1.35,-1.82,22.67,0.13469,-0.03866,-0.29754,0.093721,20.85,-4.861,0.24309,-0.1,0.25,-0.17,92.87
17051,6.0189e+07,1,1.36,-1.85,22.66,0.13546,-0.038664,-0.29778,0.10101,20.85,-4.861,0.24503,-0.1,0.25,-0.17,92.87
17095,6.02e+07,1,1.38,-1.87,22.66,0.13657,-0.037858,-0.29684,0.10631,20.85,-4.861,0.24645,-0.1,0.25,-0.17,92.87
17137,6.021e+07,1,1.38,-1.88,22.66,0.1366,-0.037756,-0.2978,0.10176,20.85,-4.861,0.24348,-0.1,0.25,-0.17,92.87
17181,6.022e+07,1,1.39,-1.89,22.65,0.13762,-0.038893,-0.29758,0.092974,20.85,-4.861,0.24505,-0.1,0.25,-0.17,92.87
17218,6.023e+07,1,1.4,-1.9,22.65,0.13845,-0.041637,-0.29702,0.088215,20.85,-4.861,0.24605,-0.1,0.25,-0.17,92.87
17256,6.0241e+07,1,1.41,-1.91,22.64,0.1398,-0.041529,-0.29617,0.086618,20.85,-4.861,0.24915,-0.1,0.25,-0.17,92.87
17296,6.0251e+07,1,1.4,-1.93,22.63,0.141,-0.041009,-0.29294,0.088898,20.85,-4.861,0.25202,-0.1,0.25,-0.17,92.87
17337,6.0261e+07,1,1.4,-1.96,22.62,0.14212,-0.04123,-0.29201,0.098959,20.85,-4.861,0.24882,-0.1,0.25,-0.17,92.87
17379,6.0271e+07,1,1.4,-1.98,22.61,0.14084,-0.04066,-0.29044,0.10765,20.85,-4.861,0.25139,-0.1,0.25,-0.17,92.87
17419,6.0282e+07,1,1.39,-2,22.61,0.1386,-0.040733,-0.28865,0.11818,20.85,-4.861,0.25375,-0.1,0.25,-0.17,92.87
17460,6.0292e+07,1,1.38,-2.02,22.6,0.1357,-0.040931,-0.29059,0.12336,20.85,-4.861,0.25574,-0.1,0.25,-0.17,92.87
17504,6.0302e+07,1,1.38,-2.02,22.6,0.13134,-0.039105,-0.29088,0.12486,20.85,-4.861,0.25765,-0.1,0.25,-0.17,92.87
17550,6.0312e+07,1,1.39,-2.01,22.61,0.12858,-0.038828,-0.28948,0.12758,20.839,-4.861,0.25473,-0.1,0.25,-0.17,92.87
17590,6.0322e+07,1,1.41,-2,22.61,0.12929,-0.036555,-0.28603,0.12765,20.839,-4.861,0.2561,-0.1,0.25,-0.17,92.87
17632,6.0333e+07,1,1.42,-2,22.61,0.13019,-0.034576,-0.28559,0.12292,20.839,-4.861,0.25758,-0.1,0.25,-0.17,92.87
17666,6.0344e+07,1,1.44,-2.02,22.61,0.1326,-0.034262,-0.28368,0.11643,20.839,-4.861,0.26026,-0.1,0.25,-0.17,92.87
17707,6.0355e+07,1,1.45,-2.04,22.61,0.13515,-0.034632,-0.2851,0.11169,20.839,-4.861,0.25713,-0.1,0.25,-0.17,92.87
17748,6.0365e+07,1,1.45,-2.07,22.6,0.13705,-0.033752,-0.28243,0.11116,20.839,-4.861,0.25986,-0.1,0.25,-0.17,92.87
17788,6.0375e+07,1,1.45,-2.09,22.58,0.13887,-0.031857,-0.28243,0.11121,20.839,-4.861,0.26232,-0.1,0.25,-0.17,92.87
17829,6.0385e+07,1,1.44,-2.13,22.57,0.14041,-0.029489,-0.28075,0.1115,20.839,-4.861,0.26455,-0.1,0.25,-0.17,92.87
17870,6.0395e+07,1,1.43,-2.15,22.56,0.14275,-0.028732,-0.27806,0.11325,20.839,-4.861,0.26656,-0.1,0.25,-0.17,92.87
17917,6.0405e+07,1,1.42,-2.17,22.54,0.14324,-0.027751,-0.2786,0.116,20.839,-4.861,0.26833,-0.1,0.25,-0.17,92.87
17958,6.0415e+07,1,1.42,-2.19,22.53,0.14285,-0.025558,-0.27854,0.12175,20.839,-4.861,0.26528,-0.1,0.25,-0.17,92.87
17998,6.0425e+07,1,1.43,-2.19,22.53,0.14116,-0.023161,-0.27786,0.11774,20.839,-4.861,0.2671,-0.1,0.25,-0.17,92.87
18039,6.0436e+07,1,1.45,-2.19,22.53,0.13884,-0.022187,-0.27738,0.11659,20.839,-4.861,0.26819,-0.1,0.25,-0.17,92.87
18073,6.0446e+07,1,1.47,-2.18,22.54,0.13755,-0.023103,-0.2767,0.11695,20.839,-4.861,0.271,-0.1,0.25,-0.17,92.87
18115,6.0457e+07,1,1.5,-2.18,22.54,0.13693,-0.021048,-0.27699,0.11321,20.839,-4.861,0.27381,-0.1,0.25,-0.17,92.87
18155,6.0467e+07,1,1.52,-2.19,22.55,0.13568,-0.022229,-0.27594,0.12012,20.839,-4.861,0.27105,-0.1,0.25,-0.17,92.87
18196,6.0477e+07,1,1.55,-2.21,22.57,0.13517,-0.022306,-0.27716,0.12238,20.839,-4.861,0.27362,-0.1,0.25,-0.17,92.87
18237,6.0487e+07,1,1.57,-2.24,22.58,0.13552,-0.022757,-0.27694,0.12993,20.839,-4.861,0.27593,-0.1,0.25,-0.17,92.87
18277,6.0498e+07,1,1.57,-2.28,22.58,0.13447,-0.024034,-0.2746,0.13609,20.839,-4.861,0.27773,-0.1,0.25,-0.17,92.87
18324,6.0508e+07,1,1.58,-2.33,22.58,0.13484,-0.025187,-0.27293,0.13681,20.839,-4.861,0.27957,-0.1,0.25,-0.17,92.87
18366,6.0519e+07,1,1.58,-2.35,22.58,0.13548,-0.025905,-0.27107,0.13619,20.828,-4.861,0.27659,-0.1,0.25,-0.17,92.87
18410,6.0532e+07,1,1.57,-2.37,22.57,0.13435,-0.027631,-0.2694,0.12814,20.828,-4.861,0.2775,-0.1,0.25,-0.17,92.87
18453,6.0547e+07,1,1.58,-2.37,22.55,0.13249,-0.024573,-0.26605,0.12326,20.828,-4.861,0.28337,-0.1,0.25,-0.17,92.87
18494,6.0557e+07,1,1.59,-2.36,22.54,0.13253,-0.024145,-0.26553,0.12191,20.828,-4.861,0.28638,-0.1,0.25,-0.17,92.87
18535,6.0567e+07,1,1.61,-2.35,22.53,0.13378,-0.022894,-0.2678,0.12704,20.828,-4.861,0.28374,-0.1,0.25,-0.17,92.87
18575,6.0577e+07,1,1.64,-2.35,22.52,0.13336,-0.022094,-0.2685,0.13261,20.828,-4.861,0.28673,-0.11,0.25,-0.17,92.87
18617,6.0587e+07,1,1.67,-2.36,22.52,0.13389,-0.021154,-0.26815,0.13719,20.828,-4.861,0.28897,-0.11,0.25,-0.17,92.87
18658,6.0597e+07,1,1.7,-2.37,22.53,0.13387,-0.020879,-0.26659,0.14153,20.828,-4.861,0.2912,-0.11,0.25,-0.17,92.87
18703,6.0607e+07,1,1.73,-2.39,22.54,0.13303,-0.0208,-0.26406,0.14269,20.828,-4.861,0.29322,-0.11,0.25,-0.17,92.87
18744,6.0618e+07,1,1.75,-2.42,22.55,0.13215,-0.021666,-0.26274,0.14677,20.828,-4.861,0.2906,-0.11,0.25,-0.17,92.87
18784,6.0628e+07,1,1.76,-2.43,22.56,0.13056,-0.02141,-0.25982,0.14782,20.828,-4.861,0.29245,-0.11,0.25,-0.17,92.87
18826,6.0641e+07,1,1.76,-2.45,22.58,0.12995,-0.022062,-0.258,0.14777,20.828,-4.861,0.29331,-0.11,0.25,-0.17,92.87
18866,6.0651e+07,1,1.76,-2.45,22.6,0.12898,-0.022127,-0.25559,0.15085,20.828,-4.861,0.2966,-0.11,0.25,-0.17,92.87
18906,6.0661e+07,1,1.75,-2.45,22.6,0.12954,-0.021188,-0.25598,0.15185,20.828,-4.861,0.29936,-0.11,0.25,-0.17,92.87
18947,6.0671e+07,1,1.74,-2.46,22.59,0.12968,-0.021095,-0.25541,0.15439,20.828,-4.861,0.30209,-0.11,0.25,-0.17,92.87
18989,6.0681e+07,1,1.74,-2.47,22.58,0.12968,-0.019684,-0.25498,0.15409,20.828,-4.861,0.30458,-0.11,0.25,-0.17,92.87
19029,6.0692e+07,1,1.74,-2.48,22.58,0.13167,-0.018101,-0.2552,0.1586,20.828,-4.861,0.30205,-0.11,0.25,-0.17,92.87
19071,6.0702e+07,1,1.75,-2.5,22.57,0.1322,-0.016196,-0.25432,0.15938,20.828,-4.861,0.30406,-0.11,0.25,-0.17,92.87
19117,6.0712e+07,1,1.76,-2.51,22.56,0.13166,-0.015208,-0.25272,0.14765,20.828,-4.861,0.30616,-0.11,0.25,-0.17,92.87
19162,6.0723e+07,1,1.78,-2.53,22.55,0.13147,-0.016057,-0.251,0.14383,20.817,-4.869,0.30366,-0.11,0.25,-0.17,92.87
19202,6.0733e+07,1,1.8,-2.54,22.55,0.13183,-0.016976,-0.24926,0.13551,20.817,-4.869,0.30534,-0.11,0.25,-0.17,92.87
19243,6.0743e+07,1,1.82,-2.55,22.55,0.13127,-0.018336,-0.24769,0.1292,20.817,-4.869,0.30708,-0.11,0.25,-0.17,92.87
19282,6.0754e+07,1,1.84,-2.56,22.55,0.13255,-0.019739,-0.24673,0.12292,20.817,-4.869,0.31022,-0.11,0.25,-0.17,92.87
19322,6.0764e+07,1,1.85,-2.57,22.56,0.13256,-0.020776,-0.24549,0.1277,20.817,-4.869,0.31335,-0.11,0.25,-0.17,92.87
19363,6.0774e+07,1,1.86,-2.58,22.57,0.13394,-0.022481,-0.24518,0.13112,20.817,-4.869,0.31088,-0.11,0.25,-0.17,92.87
19406,6.0787e+07,1,1.86,-2.6,22.58,0.13459,-0.023129,-0.24053,0.13807,20.817,-4.869,0.31833,-0.11,0.25,-0.17,92.87
19447,6.0797e+07,1,1.85,-2.62,22.58,0.13511,-0.024515,-0.24146,0.14652,20.817,-4.869,0.31571,-0.11,0.25,-0.17,92.87
19492,6.0808e+07,1,1.84,-2.63,22.58,0.13476,-0.025374,-0.24179,0.14917,20.817,-4.869,0.31815,-0.11,0.25,-0.17,92.87
19533,6.0818e+07,1,1.82,-2.64,22.58,0.13313,-0.026,-0.24287,0.1498,20.817,-4.869,0.32034,-0.11,0.25,-0.17,92.87
19575,6.0828e+07,1,1.8,-2.64,22.57,0.13042,-0.026987,-0.24281,0.14348,20.817,-4.869,0.32231,-0.11,0.25,-0.17,92.87
19615,6.0839e+07,1,1.78,-2.62,22.57,0.12855,-0.026172,-0.24293,0.14118,20.817,-4.869,0.31963,-0.11,0.25,-0.17,92.87
19656,6.0854e+07,1,1.77,-2.6,22.56,0.12616,-0.023275,-0.23881,0.13818,20.817,-4.869,0.32546,-0.11,0.25,-0.17,92.87
19697,6.0865e+07,1,1.78,-2.59,22.56,0.12439,-0.02,-0.23545,0.13898,20.817,-4.869,0.32831,-0.11,0.25,-0.17,92.87
19738,6.0875e+07,1,1.8,-2.58,22.56,0.12379,-0.018053,-0.23162,0.14797,20.817,-4.869,0.32592,-0.11,0.25,-0.17,92.87
19779,6.0885e+07,1,1.82,-2.58,22.56,0.1228,-0.01646,-0.22882,0.15296,20.817,-4.869,0.32868,-0.11,0.25,-0.17,92.87
19820,6.0895e+07,1,1.85,-2.59,22.56,0.12161,-0.016196,-0.22648,0.15575,20.817,-4.869,0.33096,-0.11,0.25,-0.17,92.87
19862,6.0906e+07,1,1.87,-2.61,22.57,0.12154,-0.016114,-0.22648,0.15344,20.817,-4.869,0.33321,-0.11,0.25,-0.17,92.87
19908,6.0916e+07,1,1.88,-2.61,22.57,0.12103,-0.016241,-0.22625,0.15463,20.817,-4.869,0.33525,-0.11,0.25,-0.18,92.87
19953,6.0926e+07,1,1.89,-2.62,22.58,0.12008,-0.017159,-0.22588,0.15356,20.805,-4.869,0.33706,-0.11,0.25,-0.18,92.87
19994,6.0936e+07,1,1.88,-2.62,22.58,0.12014,-0.017827,-0.22631,0.15335,20.805,-4.869,0.33458,-0.11,0.25,-0.18,92.87
20032,6.0947e+07,1,1.87,-2.61,22.58,0.12131,-0.016596,-0.22729,0.14398,20.805,-4.869,0.33625,-0.11,0.25,-0.17,92.87
20072,6.0956e+07,1,1.87,-2.61,22.59,0.12194,-0.014411,-0.22691,0.13119,20.805,-4.869,0.33399,-0.11,0.25,-0.17,92.87
20110,6.0967e+07,1,1.87,-2.61,22.59,0.12223,-0.012595,-0.22392,0.12373,20.805,-4.869,0.33672,-0.11,0.25,-0.17,92.87
20151,6.0978e+07,1,1.88,-2.61,22.6,0.1227,-0.010591,-0.22256,0.12312,20.805,-4.869,0.33945,-0.11,0.25,-0.17,92.87
20191,6.0988e+07,1,1.9,-2.62,22.6,0.12357,-0.0092645,-0.22188,0.11844,20.805,-4.869,0.34175,-0.11,0.25,-0.17,92.87
20233,6.0998e+07,1,1.92,-2.64,22.6,0.12357,-0.0079935,-0.21979,0.12078,20.805,-4.869,0.344,-0.11,0.25,-0.17,92.87
20274,6.1008e+07,1,1.95,-2.65,22.6,0.12371,-0.0076452,-0.22012,0.11896,20.805,-4.869,0.34609,-0.11,0.25,-0.17,92.87
20318,6.1019e+07,1,1.97,-2.66,22.61,0.1238,-0.0076676,-0.22131,0.12088,20.805,-4.869,0.34389,-0.11,0.25,-0.17,92.87
20359,6.1029e+07,1,1.99,-2.66,22.6,0.12521,-0.0081105,-0.22014,0.12114,20.805,-4.869,0.3457,-0.11,0.25,-0.17,92.87
20401,6.1039e+07,1,2.01,-2.67,22.6,0.12629,-0.0080362,-0.22049,0.11741,20.805,-4.869,0.34718,-0.11,0.25,-0.17,92.87
20442,6.105e+07,1,2.02,-2.68,22.6,0.12613,-0.0093106,-0.21974,0.11699,20.805,-4.869,0.34864,-0.11,0.25,-0.18,92.87
20476,6.106e+07,1,2.02,-2.68,22.6,0.12695,-0.011195,-0.2184,0.12097,20.805,-4.869,0.35178,-0.11,0.25,-0.18,92.87
20517,6.107e+07,1,2.01,-2.68,22.6,0.12543,-0.011605,-0.21758,0.12536,20.805,-4.869,0.35508,-0.11,0.25,-0.18,92.87
20558,6.108e+07,1,2,-2.67,22.6,0.12261,-0.01464,-0.21528,0.13303,20.805,-4.869,0.35793,-0.11,0.25,-0.18,92.87
20598,6.1091e+07,1,1.99,-2.67,22.6,0.1216,-0.015245,-0.21274,0.14686,20.805,-4.869,0.35557,-0.11,0.25,-0.18,92.87
20639,6.1101e+07,1,1.97,-2.66,22.6,0.12032,-0.015071,-0.21044,0.15044,20.805,-4.869,0.35826,-0.11,0.25,-0.18,92.87
20680,6.1111e+07,1,1.96,-2.66,22.6,0.11878,-0.014445,-0.20775,0.15818,20.805,-4.869,0.36076,-0.11,0.25,-0.18,92.87
20724,6.1121e+07,1,1.96,-2.66,22.61,0.11826,-0.015416,-0.20577,0.16231,20.805,-4.869,0.36282,-0.11,0.25,-0.18,92.87
20767,6.1131e+07,1,1.96,-2.66,22.62,0.11657,-0.013652,-0.20578,0.15991,20.805,-4.869,0.36491,-0.11,0.25,-0.18,92.87
20807,6.1142e+07,1,1.97,-2.66,22.63,0.11613,-0.013898,-0.20726,0.15968,20.805,-4.861,0.36287,-0.11,0.25,-0.18,92.87
20854,6.1158e+07,1,1.98,-2.65,22.64,0.1147,-0.012743,-0.20766,0.15721,20.805,-4.861,0.36895,-0.11,0.25,-0.18,92.87
20903,6.1189e+07,1,2.01,-2.63,22.65,0.11937,-0.011243,-0.20721,0.17299,20.805,-4.861,0.37264,-0.11,0.25,-0.18,92.87
20944,6.1199e+07,1,2,-2.63,22.64,0.1206,-0.0097026,-0.20543,0.17904,20.805,-4.861,0.37533,-0.11,0.25,-0.18,92.87
20988,6.121e+07,1,2.01,-2.62,22.64,0.12097,-0.0081817,-0.20333,0.18263,20.805,-4.861,0.37758,-0.11,0.25,-0.18,92.87
21033,6.122e+07,1,2,-2.62,22.64,0.12241,-0.0072853,-0.20279,0.18046,20.805,-4.861,0.37986,-0.11,0.25,-0.18,92.87
21073,6.123e+07,1,1.98,-2.62,22.63,0.12455,-0.0065123,-0.2011,0.17845,20.805,-4.861,0.38191,-0.11,0.25,-0.18,92.87
21113,6.124e+07,1,1.97,-2.62,22.63,0.12708,-0.006584,-0.20029,0.1788,20.805,-4.861,0.37991,-0.11,0.25,-0.18,92.87
21153,6.125e+07,1,1.95,-2.62,22.64,0.12856,-0.0054741,-0.20169,0.17264,20.805,-4.861,0.3818,-0.11,0.25,-0.18,92.87
21197,6.1263e+07,1,1.92,-2.62,22.64,0.12901,-0.0053838,-0.20122,0.16848,20.805,-4.861,0.38399,-0.11,0.25,-0.18,92.87
21237,6.1273e+07,1,1.91,-2.61,22.64,0.12733,-0.0038016,-0.20157,0.16887,20.805,-4.861,0.38655,-0.11,0.26,-0.18,92.87
21277,6.1283e+07,1,1.9,-2.61,22.64,0.1249,-0.0021926,-0.20211,0.16673,20.805,-4.861,0.38868,-0.11,0.26,-0.18,92.87
21317,6.1293e+07,1,1.89,-2.6,22.64,0.12402,-0.00081337,-0.20064,0.161,20.805,-4.861,0.38668,-0.11,0.26,-0.18,92.87
21358,6.1303e+07,1,1.89,-2.6,22.65,0.12171,0.001374,-0.19877,0.15132,20.805,-4.861,0.3889,-0.11,0.25,-0.18,92.87
21398,6.1313e+07,1,1.89,-2.59,22.65,0.12078,0.00046618,-0.19645,0.14454,20.805,-4.861,0.39093,-0.11,0.25,-0.18,92.87
21445,6.1324e+07,1,1.89,-2.59,22.66,0.11979,-0.00028644,-0.19525,0.13577,20.805,-4.861,0.3928,-0.11,0.25,-0.18,92.87
21485,6.1334e+07,1,1.9,-2.58,22.66,0.12027,-0.00026375,-0.19318,0.13343,20.805,-4.861,0.39087,-0.11,0.25,-0.18,92.87
21525,6.1345e+07,1,1.9,-2.58,22.67,0.11801,-0.0020358,-0.19281,0.1251,20.805,-4.861,0.39239,-0.11,0.25,-0.18,92.87
21565,6.1355e+07,1,1.89,-2.57,22.66,0.11761,-0.0027022,-0.19435,0.11637,20.805,-4.861,0.39393,-0.11,0.25,-0.18,92.87
21605,6.1365e+07,1,1.88,-2.55,22.65,0.11662,-0.0044933,-0.19544,0.10623,20.805,-4.861,0.39527,-0.11,0.25,-0.18,92.87
21645,6.1378e+07,1,1.87,-2.53,22.64,0.11653,-0.006423,-0.19809,0.096755,20.805,-4.861,0.3977,-0.11,0.25,-0.18,92.87
21685,6.1388e+07,1,1.85,-2.51,22.64,0.11576,-0.0061345,-0.19777,0.098041,20.805,-4.861,0.40047,-0.11,0.25,-0.18,92.87
21726,6.1398e+07,1,1.83,-2.48,22.64,0.11535,-0.0045159,-0.19723,0.10165,20.805,-4.861,0.40301,-0.11,0.25,-0.18,92.87
21768,6.1408e+07,1,1.81,-2.45,22.64,0.11457,-0.0030845,-0.197,0.10987,20.805,-4.861,0.40512,-0.11,0.25,-0.18,92.87
21808,6.1419e+07,1,1.8,-2.42,22.64,0.11451,-0.0019179,-0.19611,0.12028,20.805,-4.861,0.40316,-0.11,0.25,-0.18,92.87
21852,6.1429e+07,1,1.79,-2.38,22.65,0.1138,-0.00092393,-0.19703,0.1246,20.805,-4.861,0.40508,-0.11,0.25,-0.18,92.87
21892,6.1439e+07,1,1.78,-2.35,22.67,0.1142,4.4416e-05,-0.19756,0.12254,20.805,-4.861,0.40703,-0.11,0.25,-0.18,92.87
21933,6.1449e+07,1,1.77,-2.3,22.68,0.11424,0.00085267,-0.19966,0.12166,20.805,-4.861,0.40873,-0.11,0.25,-0.18,92.87
21976,6.1462e+07,1,1.75,-2.24,22.69,0.11241,0.0010632,-0.20374,0.11738,20.805,-4.861,0.41152,-0.11,0.25,-0.18,92.87
22019,6.1475e+07,1,1.7,-2.15,22.71,0.1093,-0.0022168,-0.21008,0.11855,20.805,-4.861,0.41376,-0.11,0.25,-0.18,92.87
22059,6.1485e+07,1,1.65,-2.06,22.72,0.10584,-0.0039835,-0.21203,0.12408,20.805,-4.861,0.41631,-0.11,0.26,-0.18,92.87
22099,6.1495e+07,1,1.57,-1.97,22.74,0.10117,-0.0038761,-0.21344,0.12862,20.805,-4.861,0.41865,-0.11,0.26,-0.18,92.87
22142,6.1505e+07,1,1.48,-1.85,22.76,0.095669,-0.0033793,-0.21318,0.13844,20.805,-4.861,0.41633,-0.11,0.26,-0.18,92.87
22182,6.1515e+07,1,1.4,-1.77,22.78,0.091325,-0.0034562,-0.2022,0.15415,20.805,-4.8529,0.41852,-0.11,0.26,-0.18,92.87
22227,6.1525e+07,1,1.34,-1.68,22.8,0.094109,-0.0030016,-0.18989,0.16887,20.805,-4.8529,0.4206,-0.11,0.26,-0.18,92.87
22267,6.1536e+07,1,1.27,-1.64,22.82,0.098589,-0.002962,-0.17539,0.17631,20.805,-4.8529,0.42267,-0.11,0.25,-0.18,92.87
22307,6.1546e+07,1,1.2,-1.63,22.82,0.10409,-0.00054366,-0.16266,0.18556,20.805,-4.8529,0.42082,-0.11,0.25,-0.18,92.87
22347,6.1556e+07,1,1.15,-1.66,22.83,0.10486,0.0044381,-0.15785,0.18497,20.805,-4.8529,0.42293,-0.11,0.25,-0.18,92.87
22384,6.1567e+07,1,1.15,-1.69,22.82,0.10657,0.0082904,-0.16122,0.17414,20.805,-4.8529,0.42487,-0.11,0.25,-0.18,92.87
22425,6.1577e+07,1,1.18,-1.72,22.82,0.10995,0.012628,-0.1703,0.15328,20.805,-4.8529,0.42321,-0.11,0.25,-0.18,92.87
22462,6.1587e+07,1,1.24,-1.74,22.81,0.11578,0.016908,-0.17926,0.1361,20.805,-4.8529,0.42621,-0.11,0.25,-0.18,92.87
22502,6.1598e+07,1,1.32,-1.76,22.79,0.12218,0.016869,-0.18605,0.12883,20.805,-4.8529,0.42903,-0.11,0.25,-0.18,92.87
22542,6.1608e+07,1,1.39,-1.75,22.77,0.12825,0.016137,-0.19161,0.1247,20.805,-4.8529,0.43157,-0.11,0.25,-0.18,92.87
22583,6.1619e+07,1,1.46,-1.73,22.76,0.13104,0.014181,-0.18764,0.13347,20.805,-4.8529,0.43367,-0.11,0.25,-0.18,92.87
22627,6.1629e+07,1,1.49,-1.7,22.76,0.13109,0.014457,-0.17986,0.14224,20.805,-4.8529,0.43583,-0.11,0.25,-0.18,92.87
22667,6.1639e+07,1,1.52,-1.66,22.77,0.1326,0.014986,-0.16938,0.15265,20.805,-4.8529,0.43788,-0.11,0.25,-0.18,92.87
22708,6.1649e+07,1,1.53,-1.64,22.78,0.13631,0.014399,-0.16015,0.16354,20.805,-4.8529,0.43966,-0.11,0.25,-0.18,92.87
22751,6.1662e+07,1,1.5,-1.65,22.8,0.14059,0.012423,-0.15146,0.17135,20.805,-4.8529,0.44105,-0.11,0.25,-0.18,92.87
22794,6.1678e+07,1,1.41,-1.73,22.82,0.14117,0.009955,-0.15572,0.16392,20.805,-4.8529,0.44271,-0.11,0.25,-0.18,92.87
22834,6.1688e+07,1,1.33,-1.79,22.83,0.13504,0.010713,-0.16232,0.15174,20.805,-4.8529,0.44503,-0.11,0.25,-0.18,92.87
