LineNo,TimeUS,C,Roll,Pitch,Yaw,VN,VE,VD,dPD,PN,PE,PD,GX,GY,GZ,OH
541,55896195,1,0.97,-1.45,22.22,0.02105453,-0.2380463,0.09306285,-0.05649763,20.90568,-4.893199,1.455782,-0.08,0.25,-0.23,92.87
772,55941056,1,0.96,-1.45,22.23,0.02445264,-0.2369303,0.09265139,-0.08108231,20.90568,-4.893199,1.450939,-0.08,0.24,-0.23,92.87
997,55996878,1,0.98,-1.46,22.25,0.02587071,-0.2344973,0.08910679000000001,-0.08795981999999999,20.90568,-4.893199,1.445757,-0.08,0.24,-0.23,92.87
1104,56037083,1,0.98,-1.46,22.26,0.0253224,-0.2349128,0.08813003,-0.07789724000000001,20.90568,-4.893199,1.442647,-0.08,0.24,-0.22,92.87
1564,56217367,1,0.98,-1.45,22.29,0.027637,-0.2416789,-0.3952714,-0.48952,20.90568,-4.90126,1.393845,-0.08,0.23,-0.21,92.87
1582,56227431,1,0.98,-1.45,22.29,0.02727617,-0.2422628,-0.3958911,-0.4939083,20.90568,-4.90126,1.389867,-0.08,0.23,-0.21,92.87
1623,56237445,1,0.98,-1.45,22.29,0.02692886,-0.2424905,-0.3978752,-0.5012915,20.90568,-4.90126,1.383639,-0.08,0.23,-0.21,92.87
1666,56247368,1,0.98,-1.45,22.29,0.02753847,-0.2426452,-0.3968279,-0.5057762,20.90568,-4.90126,1.377517,-0.08,0.23,-0.21,92.87
1706,56260385,1,0.97,-1.45,22.29,0.02696403,-0.2417556,-0.3974071,-0.5160181,20.90568,-4.90126,1.370349,-0.08,0.23,-0.21,92.87
1747,56270916,1,0.97,-1.45,22.29,0.02755366,-0.2419675,-0.3980657,-0.5253428999999999,20.90568,-4.90126,1.363225,-0.08,0.23,-0.21,92.87
1788,56281016,1,0.97,-1.46,22.29,0.02774264,-0.2406729,-0.3987895,-0.5355524,20.90568,-4.90126,1.356251,-0.08,0.23,-0.21,92.87
1832,56291106,1,0.97,-1.46,22.3,0.02783977,-0.2403348,-0.4006128,-0.5491571,20.90568,-4.90126,1.351871,-0.08,0.23,-0.21,92.87
1874,56301649,1,0.97,-1.46,22.29,0.02851931,-0.2387539,-0.4009228,-0.5586409,20.90568,-4.90126,1.344992,-0.08,0.23,-0.21,92.87
1915,56311596,1,0.97,-1.46,22.29,0.02877916,-0.2363833,-0.4015866,-0.5686361,20.90568,-4.90126,1.338289,-0.08,0.23,-0.21,92.87
1958,56322132,1,0.97,-1.46,22.3,0.02946383,-0.2360405,-0.4008071,-0.5752242,20.89455,-4.90126,1.331721,-0.08,0.23,-0.21,92.87
1998,56335083,1,0.98,-1.46,22.3,0.03051263,-0.2348117,-0.401355,-0.5878654,20.89455,-4.90126,1.32246,-0.08,0.23,-0.21,92.87
2038,56345145,1,0.98,-1.46,22.3,0.03029853,-0.2329876,-0.403015,-0.6033029,20.89455,-4.90126,1.314594,-0.08,0.23,-0.21,92.87
2080,56355087,1,0.98,-1.47,22.31,0.03131994,-0.231428,-0.4043857,-0.6188539,20.89455,-4.90126,1.306946,-0.08,0.23,-0.22,92.87
2123,56365403,1,0.98,-1.47,22.31,0.03198147,-0.2332496,-0.4044621,-0.6377299,20.89455,-4.90126,1.30248,-0.08,0.23,-0.22,92.87
2164,56375691,1,0.98,-1.47,22.32,0.03305991,-0.2310375,-0.4044233,-0.650027,20.89455,-4.90126,1.295011,-0.08,0.23,-0.21,92.87
2209,56385621,1,0.99,-1.47,22.32,0.03374491,-0.2300732,-0.4047179,-0.6610019,20.89455,-4.90126,1.28773,-0.08,0.23,-0.22,92.87
2249,56395617,1,0.99,-1.47,22.32,0.03375418,-0.2297097,-0.4048724,-0.6684126,20.89455,-4.90126,1.280553,-0.08,0.23,-0.22,92.87
2290,56405607,1,0.99,-1.47,22.33,0.03403386,-0.2307331,-0.4054821,-0.6746315000000001,20.89455,-4.90126,1.27653,-0.08,0.23,-0.22,92.87
2332,56415603,1,0.99,-1.47,22.33,0.03360879,-0.2305465,-0.4061199,-0.6776241,20.89455,-4.90126,1.269555,-0.08,0.23,-0.22,92.87
2376,56429292,1,1,-1.48,22.33,0.03395034,-0.2307886,-0.4048615,-0.6765217,20.89455,-4.90126,1.261101,-0.08,0.23,-0.22,92.87
2413,56439561,1,1,-1.48,22.33,0.03480238,-0.2308104,-0.405943,-0.6755786,20.89455,-4.90126,1.252586,-0.08,0.23,-0.21,92.87
2454,56450157,1,1.01,-1.48,22.33,0.03591783,-0.2305609,-0.4065573,-0.6779299,20.89455,-4.90126,1.248519,-0.08,0.23,-0.21,92.87
2495,56460545,1,1.01,-1.48,22.33,0.03711517,-0.2294198,-0.4069139,-0.6818823000000001,20.89455,-4.90126,1.239779,-0.08,0.23,-0.21,92.87
2535,56470547,1,1.01,-1.48,22.34,0.03767336,-0.2280208,-0.4077657,-0.6872051,20.89455,-4.90126,1.231678,-0.08,0.23,-0.21,92.87
2576,56480499,1,1.01,-1.48,22.34,0.03748533,-0.2280852,-0.4083216,-0.6932047,20.89455,-4.90126,1.223802,-0.08,0.23,-0.21,92.87
2620,56490469,1,1.01,-1.48,22.35,0.03688714,-0.2264315,-0.4103722,-0.698926,20.89455,-4.90126,1.216089,-0.08,0.24,-0.21,92.87
2662,56501018,1,1.01,-1.49,22.35,0.03780401,-0.2269899,-0.4106604,-0.7065812,20.89455,-4.90126,1.21189,-0.08,0.24,-0.21,92.87
2703,56511381,1,1.01,-1.48,22.36,0.03808977,-0.226938,-0.4124448,-0.7084379,20.89455,-4.90126,1.203969,-0.08,0.23,-0.21,92.87
2746,56521768,1,1.01,-1.48,22.36,0.03843866,-0.2256533,-0.4134198,-0.7076889,20.89455,-4.90126,1.196612,-0.08,0.23,-0.21,92.87
2787,56532503,1,1.01,-1.48,22.36,0.03785056,-0.2255034,-0.4152372,-0.7068316,20.89455,-4.90126,1.188974,-0.08,0.24,-0.21,92.87
2827,56546119,1,1.01,-1.49,22.37,0.03741457,-0.2233844,-0.4161561,-0.7078157,20.89455,-4.90126,1.180138,-0.08,0.24,-0.21,92.87
2868,56556777,1,1.01,-1.49,22.37,0.03797792,-0.2243922,-0.4157577,-0.7065517,20.89455,-4.90126,1.175543,-0.08,0.24,-0.21,92.87
2910,56566656,1,1.01,-1.49,22.37,0.03770375,-0.2225905,-0.4181917,-0.7033155,20.89455,-4.90126,1.168071,-0.08,0.23,-0.21,92.87
2953,56576642,1,1.01,-1.49,22.37,0.03829953,-0.2207433,-0.4188873,-0.6980679,20.89455,-4.90126,1.160751,-0.08,0.24,-0.21,92.87
2994,56586636,1,1.02,-1.49,22.37,0.03805365,-0.2217509,-0.4194869,-0.6942703,20.89455,-4.90126,1.156562,-0.08,0.24,-0.21,92.87
3038,56596657,1,1.02,-1.49,22.37,0.03906357,-0.2205552,-0.42101,-0.6902658,20.89455,-4.90126,1.14937,-0.08,0.23,-0.21,92.87
3080,56607168,1,1.02,-1.49,22.38,0.03903984,-0.2187878,-0.4211695,-0.6855888,20.89455,-4.90126,1.142311,-0.08,0.24,-0.21,92.87
3120,56617702,1,1.02,-1.49,22.38,0.03908437,-0.2180522,-0.4223445,-0.6794966,20.89455,-4.90126,1.134999,-0.08,0.24,-0.21,92.87
3161,56627931,1,1.02,-1.5,22.38,0.03872606,-0.21787,-0.4222825,-0.674894,20.89455,-4.90126,1.128349,-0.08,0.24,-0.21,92.87
3199,56641166,1,1.02,-1.5,22.38,0.03917035,-0.2167624,-0.4236208,-0.6704966,20.89455,-4.90126,1.119416,-0.08,0.24,-0.22,92.87
3240,56651311,1,1.02,-1.49,22.39,0.04004947,-0.2153851,-0.4250372,-0.666926,20.89455,-4.90126,1.112702,-0.08,0.24,-0.21,92.87
3281,56662145,1,1.03,-1.49,22.39,0.03963881,-0.2153836,-0.4251159,-0.6655511,20.89455,-4.90126,1.108078,-0.08,0.24,-0.21,92.87
3322,56672087,1,1.03,-1.5,22.4,0.04010321,-0.2142843,-0.4255479,-0.662286,20.89455,-4.90126,1.101134,-0.08,0.24,-0.21,92.87
3364,56682110,1,1.03,-1.5,22.4,0.04097367,-0.2132486,-0.4258364,-0.6608001,20.89455,-4.90126,1.094422,-0.09,0.24,-0.22,92.87
3405,56692150,1,1.04,-1.5,22.4,0.04020321,-0.2115557,-0.4255975,-0.6565425,20.89455,-4.90126,1.087347,-0.09,0.24,-0.22,92.87
3449,56702976,1,1.04,-1.5,22.41,0.04044439,-0.2091958,-0.4254438,-0.6506917,20.89455,-4.90126,1.080878,-0.09,0.24,-0.22,92.87
3492,56713228,1,1.04,-1.5,22.41,0.04206793,-0.2091141,-0.4259565,-0.6439576,20.88342,-4.90126,1.074052,-0.09,0.24,-0.22,92.87
3532,56724132,1,1.05,-1.5,22.4,0.04150756,-0.209611,-0.4260893,-0.6389345,20.88342,-4.90126,1.069758,-0.09,0.24,-0.22,92.87
3571,56734002,1,1.05,-1.5,22.41,0.04135916,-0.2089599,-0.428755,-0.6346462,20.88342,-4.90126,1.063459,-0.09,0.24,-0.22,92.87
3611,56744059,1,1.05,-1.5,22.41,0.04156225,-0.2068811,-0.4307945,-0.6300337,20.88342,-4.90126,1.057018,-0.09,0.24,-0.22,92.87
3652,56754192,1,1.05,-1.5,22.42,0.04232789,-0.2061797,-0.4317395,-0.6263309,20.88342,-4.90126,1.050639,-0.09,0.24,-0.22,92.87
3693,56764659,1,1.05,-1.5,22.42,0.04173163,-0.2054972,-0.4322817,-0.6223573,20.88342,-4.90126,1.044029,-0.09,0.24,-0.22,92.87
3733,56774602,1,1.05,-1.5,22.42,0.04209803,-0.2042612,-0.4321754,-0.6169276,20.88342,-4.90126,1.037898,-0.09,0.24,-0.22,92.87
3774,56784595,1,1.06,-1.51,22.42,0.04242371,-0.2034825,-0.4333653,-0.6112087,20.88342,-4.90126,1.031873,-0.09,0.24,-0.22,92.87
3814,56795170,1,1.06,-1.5,22.42,0.04315611,-0.2060715,-0.4327658,-0.6052257,20.88342,-4.90126,1.027539,-0.09,0.24,-0.22,92.87
3861,56805093,1,1.06,-1.5,22.42,0.04301292,-0.2055131,-0.4337166,-0.5993072,20.88342,-4.90126,1.021618,-0.09,0.24,-0.22,92.87
3901,56815128,1,1.06,-1.5,22.42,0.0423746,-0.2037646,-0.4350804,-0.5933883,20.88342,-4.90126,1.015745,-0.09,0.24,-0.22,92.87
3942,56825174,1,1.06,-1.5,22.42,0.04235318,-0.2032256,-0.4353372,-0.5855161,20.88342,-4.90126,1.009984,-0.09,0.24,-0.22,92.87
3983,56837687,1,1.06,-1.5,22.42,0.04211792,-0.2011058,-0.4375961,-0.5782926,20.88342,-4.90126,1.002845,-0.09,0.25,-0.22,92.87
4020,56848101,1,1.06,-1.5,22.42,0.04310679,-0.1994721,-0.4363353,-0.569957,20.88342,-4.90126,0.9966825,-0.09,0.25,-0.22,92.87
4062,56858148,1,1.07,-1.51,22.42,0.04314608,-0.1996866,-0.4356278,-0.5628155,20.88342,-4.90126,0.9914553,-0.09,0.25,-0.22,92.87
4103,56868813,1,1.07,-1.51,22.43,0.04414332,-0.1996851,-0.4347771,-0.5558845,20.88342,-4.90126,0.986639,-0.09,0.25,-0.22,92.87
4144,56879003,1,1.07,-1.51,22.43,0.04363209,-0.1985631,-0.4344861,-0.5489748,20.88342,-4.90126,0.9811046,-0.09,0.25,-0.22,92.87
4185,56889358,1,1.07,-1.51,22.44,0.04454016,-0.1978188,-0.4336749,-0.5406664,20.88342,-4.90126,0.975183,-0.09,0.25,-0.22,92.87
4229,56900045,1,1.07,-1.51,22.44,0.04489122,-0.1961999,-0.4330805,-0.5330046000000001,20.88342,-4.90126,0.9697763,-0.09,0.25,-0.22,92.87
4270,56910008,1,1.07,-1.51,22.45,0.04633727,-0.1964028,-0.4336275,-0.5268114,20.88342,-4.90126,0.9644352,-0.09,0.25,-0.22,92.87
4312,56920225,1,1.07,-1.51,22.45,0.0462335,-0.1953587,-0.433654,-0.5213141,20.86115,-4.909322,0.9591641,-0.09,0.25,-0.22,92.87
4352,56930215,1,1.07,-1.52,22.45,0.04582455,-0.195584,-0.4331656,-0.515682,20.86115,-4.909322,0.9544008,-0.09,0.25,-0.22,92.87
4389,56943109,1,1.07,-1.52,22.45,0.04666785,-0.1929565,-0.4307106,-0.5051616,20.86115,-4.909322,0.9481496,-0.09,0.25,-0.22,92.87
4431,56953196,1,1.08,-1.52,22.45,0.04667201,-0.1921676,-0.4303521,-0.4989073,20.86115,-4.909322,0.943692,-0.09,0.25,-0.22,92.87
4473,56963093,1,1.08,-1.52,22.45,0.04717024,-0.1912585,-0.4317431,-0.4931629,20.86115,-4.909322,0.9387599,-0.09,0.25,-0.22,92.87
4513,56973126,1,1.08,-1.52,22.45,0.04642455,-0.1901861,-0.4320486,-0.4866231,20.86115,-4.909322,0.9339866999999999,-0.09,0.25,-0.22,92.87
4555,56983012,1,1.08,-1.53,22.46,0.04574561,-0.189519,-0.4327924,-0.4805924,20.86115,-4.909322,0.9291661,-0.09,0.25,-0.22,92.87
4595,56993406,1,1.07,-1.53,22.46,0.04662179,-0.1901706,-0.432411,-0.4735957,20.86115,-4.909322,0.9243859,-0.09,0.25,-0.22,92.87
4640,57003440,1,1.07,-1.53,22.46,0.04760361,-0.1912141,-0.432668,-0.4678457,20.86115,-4.909322,0.9196588,-0.09,0.25,-0.22,92.87
4681,57014136,1,1.08,-1.53,22.47,0.04905307,-0.1905017,-0.4349864,-0.4648081,20.86115,-4.909322,0.9149262,-0.09,0.25,-0.22,92.87
4721,57024531,1,1.08,-1.54,22.47,0.04905321,-0.1884352,-0.4342346,-0.4586175,20.86115,-4.909322,0.9097698,-0.09,0.25,-0.22,92.87
4762,57034353,1,1.08,-1.54,22.48,0.04956019,-0.1873239,-0.4338804,-0.4535959,20.86115,-4.909322,0.9050953,-0.09,0.25,-0.22,92.87
4796,57045204,1,1.08,-1.54,22.48,0.04956929,-0.1859853,-0.433979,-0.4484854,20.86115,-4.909322,0.900325,-0.09,0.25,-0.22,92.87
4839,57055192,1,1.08,-1.54,22.48,0.04971744,-0.1865665,-0.4342188,-0.4434925,20.86115,-4.909322,0.8959793,-0.09,0.25,-0.22,92.87
4879,57065976,1,1.08,-1.54,22.48,0.04994962,-0.1876947,-0.4327023,-0.436582,20.86115,-4.909322,0.8916015,-0.09,0.25,-0.22,92.87
4920,57076029,1,1.08,-1.54,22.48,0.05064426,-0.1872152,-0.4329044,-0.4315421,20.86115,-4.909322,0.8873105999999999,-0.09,0.25,-0.22,92.87
4961,57086468,1,1.08,-1.54,22.49,0.05114371,-0.1859978,-0.4341797,-0.4273051,20.86115,-4.909322,0.8825837,-0.09,0.25,-0.22,92.87
5001,57097002,1,1.09,-1.54,22.49,0.05201689,-0.1858726,-0.4337892,-0.4222036,20.86115,-4.909322,0.8782304,-0.09,0.25,-0.22,92.87
5046,57106762,1,1.09,-1.54,22.49,0.05211862,-0.1853197,-0.4344819,-0.4186824,20.86115,-4.909322,0.8739765,-0.09,0.25,-0.22,92.87
5086,57117443,1,1.09,-1.54,22.49,0.05233428,-0.1848656,-0.4313653,-0.4112959,20.86115,-4.909322,0.8692260000000001,-0.09,0.25,-0.22,92.87
5129,57127984,1,1.09,-1.54,22.49,0.05345939,-0.186474,-0.4305112,-0.4070659,20.86115,-4.90126,0.8649698,-0.09,0.25,-0.22,92.87
5172,57140656,1,1.1,-1.54,22.49,0.05442389,-0.1849146,-0.4302656,-0.4030381,20.86115,-4.90126,0.8594142,-0.09,0.25,-0.22,92.87
5210,57151382,1,1.1,-1.54,22.49,0.05521932,-0.1839387,-0.4305925,-0.4016775,20.86115,-4.90126,0.854526,-0.09,0.25,-0.22,92.87
5251,57161406,1,1.1,-1.54,22.49,0.05539702,-0.1824179,-0.4303204,-0.4010675,20.86115,-4.90126,0.8500388,-0.09,0.25,-0.22,92.87
5291,57171978,1,1.1,-1.55,22.49,0.05653717,-0.1807657,-0.4300573,-0.4008504,20.86115,-4.90126,0.8455743,-0.09,0.25,-0.22,92.87
5332,57182083,1,1.1,-1.55,22.49,0.05648669,-0.1817063,-0.4291157,-0.4005747,20.86115,-4.90126,0.8412742,-0.09,0.25,-0.22,92.87
5372,57192043,1,1.1,-1.55,22.5,0.05570842,-0.179526,-0.4297698,-0.4021741,20.86115,-4.90126,0.8368323,-0.09,0.25,-0.22,92.87
5413,57202013,1,1.1,-1.55,22.5,0.05627282,-0.176827,-0.4285491,-0.4022546,20.86115,-4.90126,0.8323942,-0.09,0.25,-0.22,92.87
5458,57212047,1,1.1,-1.55,22.5,0.05626725,-0.1755206,-0.4285659,-0.4036471,20.86115,-4.90126,0.8280122,-0.09,0.25,-0.22,92.87
5498,57222226,1,1.1,-1.55,22.5,0.05762111,-0.1760396,-0.4297403,-0.4062285,20.86115,-4.90126,0.8232908,-0.09,0.25,-0.22,92.87
5539,57233120,1,1.1,-1.55,22.5,0.0574141,-0.1751623,-0.4296235,-0.4073518,20.86115,-4.90126,0.818899,-0.09,0.25,-0.22,92.87
5581,57243058,1,1.1,-1.55,22.5,0.05766732,-0.1753949,-0.4302922,-0.409264,20.86115,-4.90126,0.8145389,-0.09,0.25,-0.22,92.87
5620,57253954,1,1.1,-1.55,22.5,0.05809439,-0.1747156,-0.4303878,-0.4103026,20.86115,-4.90126,0.810186,-0.09,0.25,-0.22,92.87
5660,57264145,1,1.1,-1.55,22.51,0.05797312,-0.1736346,-0.4319659,-0.4112125,20.86115,-4.90126,0.805827,-0.09,0.25,-0.22,92.87
5702,57275030,1,1.11,-1.55,22.51,0.05709482,-0.1733993,-0.4328068,-0.4101031,20.86115,-4.90126,0.8015147,-0.09,0.25,-0.22,92.87
5743,57285031,1,1.11,-1.56,22.51,0.05756615,-0.1728144,-0.4319304,-0.4069463,20.86115,-4.90126,0.7975713,-0.09,0.25,-0.22,92.87
5783,57295215,1,1.11,-1.57,22.51,0.05734076,-0.1736012,-0.4301239,-0.4024658,20.86115,-4.90126,0.7932588,-0.09,0.25,-0.22,92.87
5824,57306066,1,1.12,-1.57,22.52,0.05750669,-0.172818,-0.4305907,-0.4005172,20.86115,-4.90126,0.789295,-0.09,0.25,-0.22,92.87
5869,57316100,1,1.11,-1.57,22.51,0.0581619,-0.17394,-0.4303095,-0.3977377,20.86115,-4.90126,0.7849753,-0.09,0.25,-0.22,92.87
5912,57327095,1,1.12,-1.57,22.52,0.05862847,-0.1738708,-0.4304456,-0.3953517,20.86115,-4.90126,0.780676,-0.09,0.25,-0.22,92.87
5952,57337159,1,1.12,-1.57,22.52,0.06015324,-0.1737345,-0.4296972,-0.3922785,20.85002,-4.90126,0.7763162,-0.09,0.25,-0.22,92.87
5993,57347426,1,1.12,-1.57,22.52,0.05986752,-0.1737613,-0.4301649,-0.3909883,20.85002,-4.90126,0.7724029,-0.09,0.25,-0.22,92.87
6034,57357600,1,1.13,-1.58,22.53,0.05886574,-0.1719106,-0.4306926,-0.3895551,20.85002,-4.90126,0.7688299,-0.09,0.25,-0.22,92.87
6076,57368299,1,1.13,-1.58,22.53,0.05837779,-0.1725962,-0.431402,-0.3876098,20.85002,-4.90126,0.7641215,-0.09,0.25,-0.22,92.87
6117,57379131,1,1.13,-1.58,22.53,0.05913006,-0.1705578,-0.4312204,-0.3848773,20.85002,-4.90126,0.7604839,-0.09,0.25,-0.21,92.87
6158,57389024,1,1.13,-1.58,22.53,0.05923362,-0.1703483,-0.4310528,-0.3827308,20.85002,-4.90126,0.756806,-0.09,0.25,-0.21,92.87
6199,57399130,1,1.13,-1.58,22.54,0.05922977,-0.171013,-0.4294746,-0.3789694,20.85002,-4.90126,0.753257,-0.09,0.25,-0.21,92.87
6239,57409424,1,1.13,-1.59,22.54,0.05923747,-0.1702993,-0.4284084,-0.3747352,20.85002,-4.90126,0.749152,-0.09,0.25,-0.21,92.87
6284,57420229,1,1.14,-1.59,22.53,0.05964072,-0.1710668,-0.4288232,-0.3720194,20.85002,-4.90126,0.7449249999999999,-0.09,0.25,-0.21,92.87
6325,57430448,1,1.13,-1.59,22.53,0.06062568,-0.1687111,-0.4280141,-0.3685377,20.85002,-4.90126,0.7408805000000001,-0.09,0.25,-0.21,92.87
6366,57440433,1,1.13,-1.59,22.54,0.06183274,-0.1673887,-0.4259168,-0.3645988,20.85002,-4.90126,0.7372198,-0.09,0.25,-0.21,92.87
6407,57450609,1,1.13,-1.59,22.54,0.06189758,-0.1674034,-0.4252626,-0.3632407,20.85002,-4.90126,0.7329792000000001,-0.09,0.25,-0.21,92.87
6447,57461187,1,1.13,-1.58,22.54,0.06163752,-0.1665188,-0.4253651,-0.3629753,20.85002,-4.90126,0.7288881,-0.09,0.25,-0.21,92.87
6488,57471110,1,1.13,-1.58,22.53,0.06166782,-0.1646326,-0.4247961,-0.3625077,20.85002,-4.90126,0.7251213,-0.09,0.25,-0.21,92.87
6528,57482074,1,1.13,-1.58,22.54,0.06259371,-0.1647206,-0.4238028,-0.3621746,20.85002,-4.90126,0.7213818,-0.09,0.25,-0.21,92.87
6571,57492025,1,1.13,-1.58,22.54,0.06298514,-0.1627565,-0.4221784,-0.3609666,20.85002,-4.90126,0.7175791,-0.09,0.25,-0.21,92.87
6612,57502154,1,1.13,-1.58,22.55,0.06272708,-0.1615466,-0.42358,-0.363118,20.85002,-4.90126,0.71387,-0.09,0.25,-0.21,92.87
6654,57512402,1,1.13,-1.59,22.55,0.06475982,-0.1622847,-0.4226947,-0.362824,20.85002,-4.90126,0.7092325,-0.09,0.25,-0.21,92.87
6699,57523114,1,1.13,-1.59,22.55,0.06487276,-0.1624014,-0.421952,-0.36321,20.85002,-4.90126,0.7054526,-0.09,0.25,-0.21,92.87
6740,57533086,1,1.13,-1.59,22.55,0.06508823,-0.1619349,-0.4224035,-0.3650324,20.85002,-4.90126,0.7019551000000001,-0.09,0.25,-0.21,92.87
6781,57543033,1,1.14,-1.59,22.55,0.06492636,-0.1610994,-0.4227339,-0.3668647,20.85002,-4.90126,0.6979347,-0.09,0.25,-0.21,92.87
6821,57553928,1,1.14,-1.59,22.55,0.06438847,-0.1602873,-0.4239319,-0.3693658,20.85002,-4.90126,0.6937333999999999,-0.09,0.25,-0.21,92.87
6862,57564085,1,1.14,-1.59,22.55,0.06478114,-0.1601017,-0.4236325,-0.3703642,20.85002,-4.90126,0.6894565,-0.09,0.25,-0.21,92.87
6903,57574237,1,1.14,-1.6,22.55,0.06441711,-0.1594177,-0.4228988,-0.3710708,20.85002,-4.90126,0.6853164,-0.09,0.25,-0.21,92.87
6944,57584256,1,1.14,-1.6,22.55,0.06495989000000001,-0.1592151,-0.422335,-0.3717606,20.85002,-4.90126,0.681592,-0.09,0.25,-0.21,92.87
6985,57595044,1,1.15,-1.6,22.55,0.06615835,-0.1574796,-0.4217567,-0.3725124,20.85002,-4.90126,0.6778758,-0.09,0.25,-0.21,92.87
7026,57605122,1,1.15,-1.6,22.56,0.06650174,-0.1564565,-0.4209563,-0.3730925,20.85002,-4.90126,0.673709,-0.09,0.25,-0.21,92.87
7068,57616123,1,1.15,-1.6,22.56,0.06647354,-0.1571278,-0.4211081,-0.3739592,20.85002,-4.90126,0.6694854,-0.09,0.25,-0.21,92.87
7113,57626085,1,1.15,-1.6,22.56,0.06787363,-0.1576199,-0.4200971,-0.3738259,20.85002,-4.90126,0.6657753,-0.09,0.25,-0.21,92.87
7154,57636082,1,1.15,-1.61,22.56,0.06818836,-0.1564735,-0.421239,-0.3754165,20.85002,-4.90126,0.6620589,-0.1,0.25,-0.21,92.87
7195,57646106,1,1.15,-1.61,22.56,0.06833437000000001,-0.1568143,-0.4210609,-0.3767327,20.85002,-4.90126,0.6578101,-0.1,0.25,-0.21,92.87
7238,57658992,1,1.15,-1.61,22.56,0.06634071,-0.1554214,-0.4210552,-0.3786851,20.85002,-4.90126,0.6527854,-0.09,0.25,-0.21,92.87
7282,57671393,1,1.16,-1.6,22.56,0.06752233000000001,-0.1539603,-0.4214372,-0.3807107,20.85002,-4.90126,0.647782,-0.09,0.25,-0.21,92.87
7322,57681250,1,1.16,-1.6,22.57,0.06771389,-0.1530571,-0.4206312,-0.3822071,20.85002,-4.90126,0.6435425,-0.09,0.25,-0.21,92.87
7361,57692091,1,1.16,-1.6,22.57,0.06696386,-0.1521325,-0.4215786,-0.385426,20.85002,-4.90126,0.6395696,-0.09,0.25,-0.2,92.87
7403,57703057,1,1.16,-1.6,22.57,0.06776003,-0.150288,-0.421441,-0.3873173,20.85002,-4.90126,0.6353174,-0.09,0.25,-0.21,92.87
7444,57712687,1,1.17,-1.6,22.57,0.06836494,-0.1482443,-0.4208631,-0.3888299,20.85002,-4.90126,0.6314071,-0.09,0.25,-0.2,92.87
7494,57725402,1,1.17,-1.61,22.57,0.0679599,-0.1478693,-0.4202203,-0.3903028,20.85002,-4.90126,0.6262685,-0.09,0.25,-0.2,92.87
7537,57735228,1,1.17,-1.61,22.57,0.06776271,-0.1471582,-0.4211256,-0.3928517,20.85002,-4.90126,0.622348,-0.09,0.25,-0.2,92.87
7577,57745337,1,1.17,-1.61,22.57,0.06932979,-0.14677,-0.4198145,-0.3926308,20.85002,-4.90126,0.6181576,-0.09,0.25,-0.2,92.87
7618,57755172,1,1.17,-1.62,22.57,0.06995317,-0.1465238,-0.421339,-0.3951418,20.85002,-4.90126,0.6141907,-0.09,0.25,-0.21,92.87
7657,57765565,1,1.17,-1.62,22.57,0.07002155,-0.1454976,-0.4218971,-0.3965122,20.85002,-4.90126,0.6103308,-0.09,0.25,-0.21,92.87
7700,57777997,1,1.17,-1.62,22.57,0.070274,-0.1438872,-0.4219661,-0.3979713,20.85002,-4.90126,0.6055003,-0.09,0.25,-0.2,92.87
7743,57790229,1,1.17,-1.62,22.58,0.06953428,-0.1421273,-0.4215822,-0.398977,20.85002,-4.90126,0.6002566,-0.09,0.25,-0.2,92.87
7784,57800178,1,1.17,-1.62,22.58,0.0696473,-0.1413915,-0.422045,-0.4006554,20.85002,-4.90126,0.5962269,-0.09,0.25,-0.2,92.87
7825,57810210,1,1.17,-1.62,22.58,0.07025173,-0.1414487,-0.4230276,-0.4024687,20.85002,-4.90126,0.5920534,-0.09,0.25,-0.2,92.87
7866,57821085,1,1.18,-1.63,22.58,0.07091208,-0.1396901,-0.4230139,-0.4033218,20.85002,-4.90126,0.5880345,-0.09,0.25,-0.2,92.87
7913,57831106,1,1.18,-1.63,22.58,0.07217347,-0.1390977,-0.4212358,-0.4024068,20.85002,-4.90126,0.5840554999999999,-0.09,0.25,-0.2,92.87
7954,57841048,1,1.18,-1.63,22.58,0.07286268,-0.1398473,-0.4202485,-0.4021904,20.85002,-4.90126,0.5800782,-0.09,0.25,-0.2,92.87
7995,57851016,1,1.18,-1.64,22.58,0.07260274999999999,-0.1377426,-0.4201733,-0.4027755,20.85002,-4.90126,0.5760568,-0.09,0.25,-0.2,92.87
8039,57866327,1,1.18,-1.64,22.58,0.07192750000000001,-0.1358219,-0.4224367,-0.4042811,20.85002,-4.90126,0.5706944,-0.09,0.25,-0.2,92.87
8080,57876373,1,1.18,-1.64,22.58,0.07115272,-0.1370073,-0.4229283,-0.4012244,20.85002,-4.90126,0.5665114,-0.09,0.25,-0.2,92.87
8121,57886355,1,1.18,-1.63,22.58,0.07176175999999999,-0.1355057,-0.4218481,-0.3944413,20.85002,-4.90126,0.5635394,-0.09,0.25,-0.2,92.87
8163,57896450,1,1.18,-1.64,22.58,0.07219465999999999,-0.1339843,-0.4218146,-0.387817,20.85002,-4.90126,0.5605043,-0.09,0.25,-0.2,92.87
8203,57907062,1,1.17,-1.64,22.59,0.07292360000000001,-0.1320394,-0.4221341,-0.3815874,20.85002,-4.90126,0.557498,-0.09,0.25,-0.2,92.87
8245,57917060,1,1.18,-1.64,22.59,0.07334830000000001,-0.1339144,-0.4214667,-0.3737402,20.85002,-4.90126,0.5532373,-0.09,0.25,-0.2,92.87
8291,57927060,1,1.18,-1.64,22.59,0.07385464,-0.1327609,-0.4209825,-0.3703023,20.83889,-4.90126,0.550212,-0.09,0.25,-0.2,92.87
8332,57937505,1,1.18,-1.64,22.6,0.07484956,-0.1321155,-0.421253,-0.3652541,20.83889,-4.90126,0.5466706,-0.09,0.25,-0.2,92.87
8374,57948075,1,1.18,-1.64,22.6,0.07641313,-0.130965,-0.4209245,-0.359017,20.83889,-4.90126,0.5424557,-0.09,0.25,-0.2,92.87
8414,57958477,1,1.18,-1.64,22.6,0.07827144,-0.1314685,-0.4210408,-0.3536834,20.83889,-4.90126,0.5389029,-0.09,0.25,-0.2,92.87
8455,57968939,1,1.18,-1.65,22.6,0.07929464999999999,-0.1312007,-0.420734,-0.3491542,20.83889,-4.90126,0.5356922,-0.09,0.25,-0.2,92.87
8495,57979246,1,1.18,-1.65,22.61,0.0801798,-0.1301322,-0.419417,-0.3426943,20.83889,-4.90126,0.5332341,-0.09,0.25,-0.2,92.87
8535,57989338,1,1.19,-1.65,22.61,0.07964175,-0.1282649,-0.4181292,-0.3349022,20.83889,-4.90126,0.5310563,-0.09,0.25,-0.2,92.87
8575,58000062,1,1.19,-1.65,22.61,0.07940460000000001,-0.1282357,-0.4160913,-0.3224258,20.83889,-4.90126,0.5269085,-0.09,0.25,-0.2,92.87
8616,58010115,1,1.19,-1.65,22.61,0.08011904,-0.1273126,-0.4129503,-0.3094999,20.83889,-4.90126,0.5247292,-0.09,0.25,-0.2,92.87
8659,58020345,1,1.2,-1.64,22.61,0.08015943,-0.1265533,-0.4122012,-0.2986195,20.83889,-4.90126,0.5220735,-0.09,0.25,-0.2,92.87
8703,58030240,1,1.2,-1.65,22.62,0.08169895000000001,-0.1254512,-0.4114403,-0.289273,20.83889,-4.90126,0.5198140999999999,-0.09,0.25,-0.2,92.87
8744,58040334,1,1.2,-1.65,22.62,0.08254042,-0.1249699,-0.4100662,-0.2810048,20.83889,-4.90126,0.5174204,-0.09,0.25,-0.2,92.87
8784,58050231,1,1.2,-1.65,22.61,0.08241385,-0.1239404,-0.4110548,-0.2744522,20.83889,-4.90126,0.5150406,-0.1,0.25,-0.2,92.87
8826,58060194,1,1.2,-1.64,22.62,0.08210839,-0.1236511,-0.4123788,-0.2676919,20.83889,-4.90126,0.5108578,-0.1,0.25,-0.2,92.87
8866,58070960,1,1.2,-1.65,22.62,0.08278671,-0.1225423,-0.410828,-0.2584734,20.83889,-4.90126,0.5089751,-0.1,0.25,-0.2,92.87
8904,58080921,1,1.2,-1.65,22.62,0.08315525999999999,-0.1209828,-0.4105104,-0.2517636,20.83889,-4.90126,0.5069311,-0.1,0.25,-0.2,92.87
8944,58090651,1,1.2,-1.65,22.62,0.08430035,-0.1202445,-0.4095215,-0.245211,20.83889,-4.90126,0.5048462,-0.1,0.25,-0.2,92.87
8984,58100683,1,1.2,-1.65,22.62,0.08483797999999999,-0.1193189,-0.4090928,-0.2408996,20.83889,-4.90126,0.5026136,-0.1,0.25,-0.2,92.87
9026,58111151,1,1.2,-1.64,22.62,0.0846973,-0.1195686,-0.4093247,-0.2360605,20.83889,-4.90126,0.4985525,-0.1,0.25,-0.2,92.87
9067,58121624,1,1.2,-1.65,22.63,0.08509421,-0.1199134,-0.4078327,-0.2320696,20.83889,-4.90126,0.4958425,-0.1,0.25,-0.2,92.87
9114,58131610,1,1.19,-1.65,22.63,0.08380081,-0.1195595,-0.4082631,-0.2327258,20.83889,-4.893199,0.4936382,-0.1,0.25,-0.2,92.87
9155,58141630,1,1.19,-1.65,22.63,0.08439657,-0.1176737,-0.4087675,-0.2346561,20.83889,-4.893199,0.4912253,-0.1,0.25,-0.2,92.87
9195,58152148,1,1.19,-1.65,22.63,0.08363538,-0.118706,-0.411575,-0.2376217,20.83889,-4.893199,0.4887785,-0.1,0.25,-0.2,92.87
9237,58162417,1,1.19,-1.65,22.63,0.08353787,-0.1197013,-0.4116563,-0.2372199,20.83889,-4.893199,0.4842242,-0.1,0.25,-0.2,92.87
9277,58175458,1,1.19,-1.66,22.63,0.08481545,-0.1193195,-0.412344,-0.240318,20.83889,-4.893199,0.4804482,-0.1,0.25,-0.2,92.87
9315,58185541,1,1.2,-1.66,22.63,0.08469644,-0.1187092,-0.4127174,-0.240706,20.83889,-4.893199,0.4785483,-0.1,0.25,-0.2,92.87
9356,58196002,1,1.2,-1.66,22.63,0.08429250000000001,-0.1173042,-0.4123773,-0.2403311,20.83889,-4.893199,0.4765413,-0.1,0.25,-0.2,92.87
9396,58206064,1,1.2,-1.66,22.63,0.08535144,-0.1174696,-0.4110509,-0.2411768,20.83889,-4.893199,0.4745667,-0.1,0.25,-0.2,92.87
9437,58216348,1,1.2,-1.66,22.63,0.08661522000000001,-0.1186691,-0.4111186,-0.2402258,20.83889,-4.893199,0.470073,-0.1,0.25,-0.2,92.87
9479,58226254,1,1.2,-1.66,22.64,0.08770227,-0.1189338,-0.410271,-0.2389662,20.83889,-4.893199,0.4679381,-0.1,0.25,-0.2,92.87
9525,58236346,1,1.2,-1.66,22.64,0.08856649,-0.1173359,-0.410408,-0.2395469,20.83889,-4.893199,0.465709,-0.1,0.25,-0.2,92.87
9566,58246229,1,1.2,-1.66,22.64,0.08916718999999999,-0.1171822,-0.41033,-0.2422236,20.83889,-4.893199,0.4616547,-0.1,0.25,-0.2,92.87
9606,58257107,1,1.21,-1.66,22.64,0.08935655000000001,-0.1163311,-0.4089451,-0.2437975,20.83889,-4.893199,0.4594046,-0.1,0.25,-0.2,92.87
9647,58267198,1,1.21,-1.66,22.65,0.08932664,-0.11586,-0.4087104,-0.2459147,20.83889,-4.893199,0.457087,-0.1,0.25,-0.2,92.87
9684,58277195,1,1.21,-1.66,22.65,0.08975906,-0.1140785,-0.4088304,-0.2490652,20.83889,-4.893199,0.4546717,-0.1,0.25,-0.2,92.87
9725,58289891,1,1.21,-1.66,22.65,0.09148327000000001,-0.1145032,-0.4076346,-0.2496077,20.83889,-4.893199,0.4516432,-0.1,0.25,-0.2,92.87
9765,58299615,1,1.21,-1.66,22.65,0.09141862000000001,-0.1128264,-0.4084491,-0.2516875,20.83889,-4.893199,0.4497062,-0.1,0.25,-0.2,92.87
9810,58312775,1,1.21,-1.66,22.65,0.09109899,-0.113013,-0.4077253,-0.2498523,20.83889,-4.893199,0.4464692,-0.1,0.25,-0.2,92.87
9851,58323242,1,1.21,-1.67,22.65,0.09163622,-0.1131884,-0.4068836,-0.2467471,20.83889,-4.893199,0.441999,-0.1,0.25,-0.2,92.87
9897,58333989,1,1.22,-1.67,22.65,0.09207962,-0.1123871,-0.4045784,-0.2439881,20.83889,-4.893199,0.4398324,-0.1,0.25,-0.2,92.87
9938,58344168,1,1.22,-1.67,22.65,0.09284504,-0.1114121,-0.4062603,-0.2452763,20.83889,-4.893199,0.437751,-0.1,0.25,-0.2,92.87
9978,58354178,1,1.22,-1.67,22.65,0.09344286,-0.1106019,-0.4051868,-0.2449001,20.83889,-4.893199,0.4354922,-0.1,0.25,-0.2,92.87
10019,58364053,1,1.22,-1.67,22.65,0.0934238,-0.1106636,-0.4043881,-0.244931,20.83889,-4.893199,0.433445,-0.1,0.25,-0.2,92.87
10057,58377703,1,1.22,-1.68,22.66,0.09332196,-0.1103853,-0.4046386,-0.2436917,20.83889,-4.893199,0.4295262,-0.1,0.25,-0.2,92.87
10098,58387685,1,1.22,-1.68,22.66,0.09279463,-0.11001,-0.4053655,-0.2455517,20.83889,-4.893199,0.4273586,-0.1,0.25,-0.2,92.87
10139,58398135,1,1.22,-1.68,22.66,0.09331272,-0.1106199,-0.4046765,-0.2436175,20.83889,-4.893199,0.4235733,-0.1,0.25,-0.2,92.87
10179,58408625,1,1.22,-1.68,22.66,0.09438094,-0.1100119,-0.4048036,-0.2448179,20.83889,-4.893199,0.4207116,-0.1,0.25,-0.2,92.87
10220,58418621,1,1.23,-1.68,22.67,0.09403119,-0.1100174,-0.4046111,-0.2472214,20.83889,-4.893199,0.4184172,-0.1,0.25,-0.2,92.87
10260,58428611,1,1.23,-1.68,22.66,0.09375064,-0.1087884,-0.4037648,-0.249728,20.83889,-4.893199,0.4160637,-0.1,0.25,-0.2,92.87
10306,58439343,1,1.23,-1.67,22.66,0.09408226,-0.1094268,-0.4043582,-0.2515948,20.83889,-4.893199,0.4120154,-0.1,0.25,-0.2,92.87
10347,58449490,1,1.23,-1.67,22.66,0.09410473,-0.1078078,-0.4057616,-0.2562702,20.83889,-4.893199,0.4091882,-0.1,0.25,-0.2,92.87
10387,58459568,1,1.23,-1.68,22.67,0.09617439,-0.1077296,-0.4061963,-0.2596524,20.83889,-4.893199,0.4066682,-0.1,0.25,-0.2,92.87
10431,58473082,1,1.23,-1.68,22.67,0.09655573000000001,-0.1056483,-0.4075482,-0.2650939,20.83889,-4.893199,0.4028785,-0.1,0.25,-0.2,92.87
10475,58485381,1,1.23,-1.68,22.67,0.0979442,-0.1047899,-0.4083436,-0.2684016,20.83889,-4.893199,0.3998902,-0.1,0.25,-0.2,92.87
10515,58495658,1,1.23,-1.68,22.67,0.0992647,-0.1045663,-0.4066783,-0.2692949,20.83889,-4.893199,0.3981444,-0.1,0.25,-0.2,92.87
10556,58506668,1,1.23,-1.68,22.67,0.09911992,-0.1043738,-0.4075124,-0.2678421,20.83889,-4.893199,0.393668,-0.1,0.25,-0.2,92.87
10596,58517060,1,1.24,-1.68,22.67,0.09996012999999999,-0.103743,-0.4081234,-0.2668661,20.83889,-4.893199,0.3917951,-0.1,0.25,-0.19,92.87
10639,58527317,1,1.24,-1.68,22.67,0.1009034,-0.1022999,-0.408353,-0.2651393,20.82776,-4.885138,0.3893746,-0.1,0.25,-0.19,92.87
10675,58568024,1,1.24,-1.68,22.68,0.1004838,-0.1005923,-0.4068125,-0.2565123,20.82776,-4.885138,0.3788046,-0.1,0.25,-0.2,92.87
10719,58580979,1,1.24,-1.69,22.67,0.1010094,-0.1019952,-0.405593,-0.2562781,20.82776,-4.885138,0.375321,-0.1,0.25,-0.19,92.87
10759,58590995,1,1.24,-1.69,22.67,0.1010594,-0.1017201,-0.4045394,-0.2542334,20.82776,-4.885138,0.374712,-0.1,0.25,-0.19,92.87
10800,58601696,1,1.24,-1.69,22.67,0.1011401,-0.09958404,-0.4050063,-0.2473015,20.82776,-4.885138,0.3735515,-0.1,0.25,-0.19,92.87
10841,58611915,1,1.24,-1.68,22.67,0.1013024,-0.09975278,-0.4042918,-0.238046,20.82776,-4.885138,0.3726411,-0.1,0.25,-0.19,92.87
10881,58622057,1,1.24,-1.69,22.67,0.1018597,-0.1009704,-0.402722,-0.222704,20.82776,-4.885138,0.3682092,-0.1,0.25,-0.19,92.87
10922,58632064,1,1.25,-1.69,22.67,0.1024165,-0.09894028000000001,-0.4020585,-0.2110634,20.82776,-4.885138,0.3671914,-0.1,0.25,-0.19,92.87
10966,58642057,1,1.25,-1.68,22.67,0.1042223,-0.09838687,-0.4029106,-0.2019043,20.82776,-4.885138,0.3660754,-0.1,0.25,-0.19,92.87
11007,58652768,1,1.25,-1.68,22.66,0.1046106,-0.09741437,-0.4011832,-0.1938404,20.82776,-4.885138,0.3647804,-0.1,0.25,-0.19,92.87
11050,58662763,1,1.24,-1.69,22.66,0.1054169,-0.09669967,-0.4006279,-0.1855396,20.82776,-4.885138,0.3634068,-0.1,0.25,-0.2,92.87
11091,58673232,1,1.25,-1.68,22.66,0.1059705,-0.09734419,-0.4005086,-0.1791847,20.82776,-4.885138,0.3593934,-0.1,0.25,-0.2,92.87
11132,58683127,1,1.25,-1.68,22.66,0.1057339,-0.09735992,-0.4001993,-0.1746612,20.82776,-4.885138,0.3575044,-0.1,0.25,-0.19,92.87
11173,58693580,1,1.25,-1.68,22.66,0.1048778,-0.09719155,-0.3982233,-0.1732514,20.82776,-4.885138,0.3565226,-0.1,0.25,-0.19,92.87
11214,58704073,1,1.25,-1.68,22.66,0.1046205,-0.0981031,-0.3962142,-0.1715011,20.82776,-4.885138,0.3525431,-0.1,0.25,-0.19,92.87
11256,58714027,1,1.25,-1.68,22.66,0.1045719,-0.09704428,-0.3977005,-0.1797643,20.82776,-4.877077,0.3514931,-0.1,0.25,-0.19,92.87
11299,58724492,1,1.25,-1.68,22.66,0.1041056,-0.09758504,-0.3967571,-0.1825265,20.82776,-4.877077,0.347133,-0.1,0.25,-0.19,92.87
11340,58735137,1,1.25,-1.69,22.66,0.1041796,-0.09651079999999999,-0.3967165,-0.18564,20.82776,-4.877077,0.3459465,-0.1,0.25,-0.19,92.87
11385,58745518,1,1.25,-1.69,22.66,0.10509,-0.09645533000000001,-0.3973579,-0.1889222,20.82776,-4.877077,0.3442751,-0.1,0.25,-0.19,92.87
11426,58756137,1,1.25,-1.69,22.66,0.1040753,-0.09555347,-0.397321,-0.1909858,20.82776,-4.877077,0.3427903,-0.1,0.25,-0.19,92.87
11466,58766150,1,1.25,-1.68,22.66,0.1045591,-0.09573428,-0.3976511,-0.1923636,20.82776,-4.877077,0.3388914,-0.1,0.25,-0.19,92.87
11508,58776140,1,1.25,-1.69,22.66,0.1044879,-0.09449837,-0.3973085,-0.193874,20.82776,-4.877077,0.3373312,-0.1,0.25,-0.19,92.87
11549,58786610,1,1.25,-1.69,22.66,0.1050821,-0.09524061,-0.3957383,-0.1966273,20.82776,-4.877077,0.3353408,-0.1,0.25,-0.19,92.87
11587,58797170,1,1.25,-1.69,22.66,0.1065148,-0.09671811,-0.395459,-0.2004508,20.82776,-4.877077,0.3313503,-0.1,0.25,-0.19,92.87
11629,58807512,1,1.25,-1.69,22.66,0.1081625,-0.09558063,-0.3956347,-0.2079049,20.82776,-4.877077,0.3293027,-0.1,0.24,-0.19,92.87
11666,58817929,1,1.26,-1.7,22.66,0.1093973,-0.09431405,-0.3954586,-0.2115125,20.82776,-4.877077,0.328509,-0.1,0.24,-0.19,92.87
11707,58828033,1,1.26,-1.7,22.67,0.1098551,-0.0932717,-0.3947178,-0.212246,20.82776,-4.877077,0.3276239,-0.1,0.24,-0.19,92.87
11747,58838329,1,1.26,-1.7,22.66,0.1111316,-0.09360362,-0.3956234,-0.2084259,20.82776,-4.877077,0.3232363,-0.1,0.24,-0.19,92.87
11797,58851391,1,1.26,-1.7,22.67,0.1099951,-0.09368536,-0.3932077,-0.2078891,20.82776,-4.877077,0.321095,-0.1,0.24,-0.19,92.87
11837,58861773,1,1.26,-1.7,22.67,0.110168,-0.09329604,-0.3939132,-0.2086437,20.82776,-4.877077,0.3198956,-0.1,0.24,-0.19,92.87
11878,58872028,1,1.26,-1.7,22.67,0.1103336,-0.09206273,-0.3929929,-0.2041365,20.82776,-4.877077,0.3186812,-0.1,0.24,-0.19,92.87
11921,58882082,1,1.26,-1.7,22.67,0.1115204,-0.09223349,-0.3945502,-0.2017022,20.82776,-4.877077,0.3147594,-0.1,0.24,-0.19,92.87
11965,58897407,1,1.26,-1.7,22.68,0.1120674,-0.0915985,-0.3935587,-0.1949147,20.82776,-4.877077,0.3145554,-0.1,0.24,-0.19,92.87
12005,58907129,1,1.26,-1.7,22.68,0.111884,-0.09094795,-0.3929763,-0.1892367,20.82776,-4.877077,0.3140664,-0.1,0.24,-0.19,92.87
12048,58918104,1,1.26,-1.7,22.68,0.1109394,-0.09028111,-0.3920558,-0.1779939,20.82776,-4.877077,0.3101506,-0.1,0.24,-0.19,92.87
12089,58928077,1,1.26,-1.7,22.68,0.1109011,-0.08933818,-0.3902067,-0.1681331,20.82776,-4.877077,0.3094952,-0.1,0.24,-0.19,92.87
12130,58938227,1,1.26,-1.7,22.67,0.1114702,-0.08784807,-0.3889922,-0.1623015,20.82776,-4.877077,0.3083252,-0.1,0.24,-0.19,92.87
12171,58948630,1,1.26,-1.7,22.67,0.1112086,-0.08828268,-0.3889227,-0.1600508,20.82776,-4.877077,0.3074396,-0.1,0.24,-0.19,92.87
12215,58959152,1,1.26,-1.71,22.67,0.1111593,-0.08907932,-0.3888224,-0.1543868,20.82776,-4.877077,0.303553,-0.1,0.24,-0.19,92.87
12256,58969153,1,1.26,-1.71,22.67,0.1119677,-0.08694114,-0.3879834,-0.1505837,20.82776,-4.877077,0.3025273,-0.1,0.24,-0.19,92.87
12297,58979340,1,1.26,-1.72,22.68,0.1116198,-0.08621837,-0.387035,-0.154577,20.82776,-4.877077,0.3010349,-0.1,0.24,-0.18,92.87
12337,58990224,1,1.26,-1.72,22.68,0.112168,-0.08670478,-0.3855437,-0.1551177,20.82776,-4.877077,0.299351,-0.1,0.24,-0.18,92.87
12381,59003237,1,1.26,-1.72,22.68,0.112573,-0.08742174,-0.3822694,-0.1490205,20.82776,-4.877077,0.2979028,-0.1,0.25,-0.19,92.87
12422,59013357,1,1.26,-1.72,22.68,0.1126235,-0.0876175,-0.3807457,-0.1453858,20.82776,-4.877077,0.2940564,-0.1,0.25,-0.19,92.87
12462,59023342,1,1.26,-1.72,22.68,0.1126537,-0.08604985,-0.3799765,-0.1428692,20.82776,-4.877077,0.2936561,-0.1,0.24,-0.18,92.87
12504,59034113,1,1.26,-1.72,22.68,0.1125975,-0.08466303999999999,-0.3790825,-0.1432368,20.82776,-4.877077,0.2930386,-0.1,0.24,-0.18,92.87
12545,59045005,1,1.26,-1.73,22.68,0.1122594,-0.08391778,-0.3799112,-0.1415061,20.82776,-4.877077,0.2919422,-0.1,0.24,-0.18,92.87
12589,59055042,1,1.26,-1.73,22.69,0.1113082,-0.0829334,-0.3789047,-0.139058,20.82776,-4.877077,0.2910833,-0.1,0.25,-0.18,92.87
12630,59065579,1,1.26,-1.73,22.69,0.1103796,-0.08138652,-0.3769174,-0.1335511,20.82776,-4.877077,0.2897168,-0.1,0.25,-0.19,92.87
12671,59076169,1,1.26,-1.72,22.69,0.1115578,-0.08166176999999999,-0.3768973,-0.1294824,20.82776,-4.877077,0.2859178,-0.1,0.25,-0.19,92.87
12712,59086325,1,1.26,-1.72,22.69,0.1113992,-0.08118828,-0.3765346,-0.128374,20.82776,-4.877077,0.2848395,-0.1,0.25,-0.19,92.87
12749,59097120,1,1.26,-1.72,22.7,0.1121865,-0.08042668,-0.3743945,-0.1242918,20.82776,-4.877077,0.2843178,-0.1,0.25,-0.19,92.87
12792,59107209,1,1.26,-1.72,22.7,0.1117697,-0.07998329,-0.3743526,-0.1183702,20.82776,-4.869015,0.2843242,-0.1,0.25,-0.18,92.87
12832,59117199,1,1.26,-1.72,22.7,0.1128539,-0.07968279,-0.3741145,-0.1119316,20.82776,-4.869015,0.2841843,-0.1,0.25,-0.18,92.87
12874,59127565,1,1.26,-1.72,22.69,0.1134027,-0.07897997,-0.3718764,-0.1058074,20.82776,-4.869015,0.2838883,-0.1,0.25,-0.18,92.87
12915,59138097,1,1.26,-1.73,22.69,0.1148521,-0.08014142,-0.3729146,-0.09963818000000001,20.82776,-4.869015,0.2801667,-0.1,0.25,-0.18,92.87
12955,59148128,1,1.27,-1.73,22.69,0.1132055,-0.07851305,-0.3728015,-0.09567220999999999,20.82776,-4.869015,0.279698,-0.1,0.25,-0.19,92.87
13000,59158090,1,1.27,-1.74,22.69,0.1138522,-0.07751682,-0.3720573,-0.09962567,20.82776,-4.869015,0.2791471,-0.1,0.25,-0.18,92.87
13041,59168744,1,1.27,-1.74,22.69,0.1130377,-0.07807628,-0.3703652,-0.09937497000000001,20.82776,-4.869015,0.2780313,-0.1,0.25,-0.18,92.87
13082,59179356,1,1.27,-1.74,22.68,0.1138558,-0.07875142,-0.3697772,-0.09783691999999999,20.82776,-4.869015,0.2745757,-0.1,0.25,-0.18,92.87
13123,59189530,1,1.27,-1.74,22.68,0.1145034,-0.07798773000000001,-0.368245,-0.1047251,20.82776,-4.869015,0.2731907,-0.1,0.25,-0.18,92.87
13163,59199974,1,1.27,-1.75,22.68,0.1148967,-0.0782559,-0.3677858,-0.1097102,20.82776,-4.869015,0.2722707,-0.1,0.25,-0.18,92.87
13205,59213249,1,1.27,-1.75,22.68,0.1155922,-0.07865147,-0.3663574,-0.1112818,20.82776,-4.869015,0.2717345,-0.1,0.25,-0.18,92.87
13247,59223710,1,1.27,-1.75,22.68,0.1168237,-0.07833503999999999,-0.3655278,-0.1106082,20.82776,-4.869015,0.2677137,-0.1,0.25,-0.18,92.87
13288,59233363,1,1.27,-1.75,22.68,0.1176895,-0.07764494,-0.3665082,-0.1093076,20.82776,-4.869015,0.268096,-0.1,0.25,-0.18,92.87
13330,59243344,1,1.26,-1.74,22.68,0.1187742,-0.07574937,-0.3664826,-0.1096665,20.82776,-4.869015,0.2683543,-0.1,0.25,-0.18,92.87
13370,59254086,1,1.26,-1.75,22.67,0.1182034,-0.07518717,-0.3644479,-0.104155,20.82776,-4.869015,0.2684129,-0.1,0.25,-0.18,92.87
13416,59265041,1,1.26,-1.75,22.67,0.1184874,-0.07400355,-0.3620226,-0.0944937,20.82776,-4.869015,0.2679238,-0.1,0.25,-0.18,92.87
13456,59275098,1,1.26,-1.75,22.67,0.1195425,-0.07230435,-0.360112,-0.0883211,20.82776,-4.869015,0.2673398,-0.1,0.25,-0.18,92.87
13497,59285122,1,1.27,-1.75,22.67,0.1213121,-0.0722662,-0.3611841,-0.08357872,20.82776,-4.869015,0.2637479,-0.1,0.25,-0.18,92.87
13537,59295186,1,1.27,-1.76,22.67,0.1219083,-0.0720804,-0.3611499,-0.08024297,20.82776,-4.869015,0.2636874,-0.1,0.25,-0.18,92.87
13575,59305659,1,1.27,-1.75,22.68,0.1213436,-0.06979346,-0.3614103,-0.07976817,20.82776,-4.869015,0.2627604,-0.1,0.25,-0.18,92.87
13619,59316125,1,1.27,-1.76,22.67,0.1219855,-0.07063935,-0.3605879,-0.08353182000000001,20.83889,-4.860954,0.2591691,-0.1,0.25,-0.18,92.87
13656,59326559,1,1.27,-1.76,22.67,0.1219647,-0.07014731,-0.3593692,-0.08353272,20.83889,-4.860954,0.2597431,-0.1,0.25,-0.18,92.87
13697,59336563,1,1.27,-1.76,22.67,0.1221068,-0.06853032000000001,-0.3590036,-0.07826803,20.83889,-4.860954,0.260435,-0.1,0.25,-0.18,92.87
13738,59347068,1,1.27,-1.76,22.67,0.1230314,-0.06844625999999999,-0.3567106,-0.06981384,20.83889,-4.860954,0.2609458,-0.1,0.25,-0.18,92.87
13779,59357040,1,1.27,-1.76,22.67,0.1232937,-0.06745263,-0.355688,-0.06460067999999999,20.83889,-4.860954,0.261279,-0.1,0.25,-0.18,92.87
13825,59367105,1,1.28,-1.76,22.67,0.1217383,-0.06688834,-0.3554337,-0.06048305,20.83889,-4.860954,0.2614115,-0.1,0.25,-0.18,92.87
13865,59377227,1,1.27,-1.76,22.67,0.1209664,-0.06766961000000001,-0.3555934,-0.05433697,20.83889,-4.860954,0.2610494,-0.1,0.25,-0.18,92.87
13907,59388032,1,1.27,-1.76,22.67,0.1215154,-0.06794485,-0.3549736,-0.04699778,20.83889,-4.860954,0.2574799,-0.1,0.25,-0.18,92.87
13947,59400615,1,1.27,-1.76,22.67,0.1227794,-0.06828032000000001,-0.3560846,-0.04645569,20.83889,-4.860954,0.256211,-0.1,0.25,-0.18,92.87
13988,59411000,1,1.28,-1.76,22.67,0.1221905,-0.06743129,-0.3554177,-0.04312859,20.83889,-4.860954,0.2570237,-0.1,0.25,-0.18,92.87
14029,59421097,1,1.28,-1.77,22.67,0.122047,-0.06625063,-0.3545257,-0.03849518,20.83889,-4.860954,0.257544,-0.1,0.25,-0.18,92.87
14070,59431616,1,1.28,-1.77,22.67,0.1229062,-0.06715834,-0.3524132,-0.03941212,20.83889,-4.860954,0.2577053,-0.1,0.25,-0.18,92.87
14111,59442187,1,1.28,-1.77,22.66,0.1229395,-0.06601284,-0.3519167,-0.03794731,20.83889,-4.860954,0.2575868,-0.1,0.25,-0.18,92.87
14151,59453143,1,1.28,-1.77,22.66,0.1231228,-0.06723970999999999,-0.3510945,-0.0333719,20.83889,-4.860954,0.2540652,-0.1,0.25,-0.18,92.87
14193,59463086,1,1.28,-1.76,22.66,0.1232965,-0.06501675,-0.3516689,-0.03358945,20.83889,-4.860954,0.2538197,-0.1,0.25,-0.18,92.87
14237,59473100,1,1.28,-1.76,22.66,0.1242335,-0.06586155,-0.3511872,-0.03383109,20.83889,-4.860954,0.254052,-0.1,0.25,-0.18,92.87
14279,59483057,1,1.29,-1.76,22.67,0.1250564,-0.06571325,-0.3511613,-0.03756893,20.83889,-4.860954,0.2538508,-0.1,0.25,-0.18,92.87
14319,59493897,1,1.29,-1.76,22.67,0.1253559,-0.06506120999999999,-0.3501913,-0.03904415,20.83889,-4.860954,0.2530864,-0.1,0.25,-0.18,92.87
14360,59504068,1,1.29,-1.77,22.67,0.1261554,-0.06555656,-0.3520526,-0.04485821,20.83889,-4.860954,0.2495827,-0.1,0.25,-0.18,92.87
14400,59514539,1,1.29,-1.77,22.67,0.1263033,-0.06599729,-0.3514599,-0.04832119,20.83889,-4.860954,0.2496694,-0.1,0.25,-0.18,92.87
14440,59525115,1,1.29,-1.77,22.67,0.1255518,-0.06490008,-0.3499274,-0.04710501,20.83889,-4.852893,0.249926,-0.1,0.25,-0.18,92.87
14481,59535064,1,1.29,-1.77,22.67,0.1255287,-0.06478573,-0.3488106,-0.04626105,20.83889,-4.852893,0.249986,-0.1,0.25,-0.18,92.87
14522,59545092,1,1.29,-1.77,22.66,0.1268296,-0.06457983,-0.3478429,-0.05028239,20.83889,-4.852893,0.246568,-0.1,0.25,-0.18,92.87
14564,59555438,1,1.3,-1.77,22.66,0.1271937,-0.06368119,-0.3472438,-0.05592221,20.83889,-4.852893,0.2461833,-0.1,0.25,-0.18,92.87
14604,59565440,1,1.3,-1.77,22.66,0.1287652,-0.06312903,-0.3465315,-0.06090731,20.83889,-4.852893,0.2460113,-0.1,0.25,-0.18,92.87
14649,59575419,1,1.3,-1.77,22.66,0.1281706,-0.06232404,-0.3461574,-0.06314334000000001,20.83889,-4.852893,0.2456825,-0.1,0.25,-0.18,92.87
14690,59585440,1,1.3,-1.77,22.66,0.1285683,-0.06189032,-0.3465688,-0.06690558000000001,20.83889,-4.852893,0.2451909,-0.1,0.25,-0.18,92.87
14730,59595536,1,1.3,-1.77,22.66,0.1293588,-0.0620964,-0.3460617,-0.0716898,20.83889,-4.852893,0.2417509,-0.1,0.25,-0.18,92.87
14772,59608702,1,1.3,-1.77,22.66,0.129319,-0.0611081,-0.3436661,-0.07893695000000001,20.83889,-4.852893,0.2401468,-0.1,0.25,-0.18,92.87
14812,59619035,1,1.3,-1.77,22.66,0.1287156,-0.06055814,-0.3440767,-0.08265027,20.83889,-4.852893,0.240752,-0.1,0.25,-0.18,92.87
14853,59629016,1,1.31,-1.77,22.66,0.1282928,-0.0602144,-0.3428084,-0.08150277,20.83889,-4.852893,0.2412131,-0.1,0.25,-0.18,92.87
14893,59639026,1,1.31,-1.77,22.65,0.1289297,-0.05911579,-0.3411456,-0.08023109,20.83889,-4.852893,0.2414875,-0.1,0.25,-0.18,92.87
14933,59648789,1,1.31,-1.77,22.66,0.130509,-0.05845553,-0.3415975,-0.07947268,20.83889,-4.852893,0.2380562,-0.1,0.25,-0.18,92.87
14975,59659378,1,1.3,-1.78,22.66,0.1315412,-0.05812072,-0.3405458,-0.07849786,20.83889,-4.852893,0.2378517,-0.1,0.25,-0.18,92.87
15015,59669654,1,1.3,-1.78,22.66,0.1300163,-0.0579874,-0.3393756,-0.07802024,20.83889,-4.852893,0.2378591,-0.1,0.25,-0.18,92.87
15061,59679642,1,1.3,-1.78,22.66,0.1296459,-0.05755219,-0.337062,-0.07635889999999999,20.83889,-4.852893,0.2377073,-0.1,0.25,-0.18,92.87
15101,59689591,1,1.3,-1.77,22.66,0.1306799,-0.05824434,-0.3360349,-0.07782828,20.83889,-4.852893,0.2374045,-0.1,0.25,-0.18,92.87
15144,59700233,1,1.3,-1.77,22.66,0.1314238,-0.05894173,-0.3371809,-0.07825635,20.83889,-4.852893,0.2340584,-0.1,0.25,-0.18,92.87
15185,59710147,1,1.3,-1.77,22.66,0.1315742,-0.05829818,-0.3358341,-0.08130788999999999,20.83889,-4.852893,0.2336277,-0.1,0.25,-0.18,92.87
15226,59720601,1,1.31,-1.77,22.66,0.1298031,-0.05686998,-0.3344355,-0.08342187,20.83889,-4.852893,0.2343186,-0.1,0.25,-0.18,92.87
15265,59731381,1,1.31,-1.77,22.66,0.1303278,-0.05602624,-0.3326806,-0.0833605,20.83889,-4.852893,0.2348403,-0.1,0.25,-0.18,92.87
15305,59741967,1,1.31,-1.77,22.66,0.1304565,-0.05660842,-0.3307743,-0.07548233,20.83889,-4.852893,0.2315539,-0.1,0.25,-0.18,92.87
15346,59751897,1,1.31,-1.77,22.66,0.1302629,-0.05556997,-0.3280821,-0.06786828,20.83889,-4.852893,0.2322797,-0.1,0.25,-0.18,92.87
15386,59762292,1,1.31,-1.77,22.66,0.129982,-0.05520957,-0.3278796,-0.05824393,20.83889,-4.852893,0.2324768,-0.1,0.25,-0.18,92.87
15427,59773394,1,1.31,-1.77,22.66,0.1306217,-0.05461314,-0.3276931,-0.0492115,20.83889,-4.852893,0.2328589,-0.1,0.25,-0.18,92.87
15472,59783597,1,1.31,-1.77,22.66,0.1312274,-0.05449494,-0.3250697,-0.04050693,20.83889,-4.852893,0.2327009,-0.1,0.25,-0.18,92.87
15514,59793996,1,1.31,-1.77,22.66,0.1311916,-0.05494235,-0.3242973,-0.03825716,20.83889,-4.852893,0.2327604,-0.1,0.25,-0.18,92.87
15555,59804024,1,1.31,-1.77,22.66,0.1314658,-0.05450932,-0.3244347,-0.03764303,20.83889,-4.852893,0.2295136,-0.1,0.25,-0.18,92.87
15598,59819972,1,1.31,-1.78,22.66,0.1297699,-0.05275833,-0.3216895,-0.0350394,20.83889,-4.852893,0.2324737,-0.1,0.25,-0.18,92.87
15639,59830253,1,1.32,-1.78,22.66,0.1298763,-0.05236837,-0.3216908,-0.0256388,20.83889,-4.852893,0.2336309,-0.1,0.25,-0.18,92.87
15681,59840198,1,1.31,-1.77,22.66,0.1289964,-0.05142371,-0.3207265,-0.01831771,20.83889,-4.852893,0.2348935,-0.1,0.25,-0.18,92.87
15721,59850940,1,1.32,-1.77,22.66,0.1297223,-0.05056645,-0.3222827,-0.0082554,20.83889,-4.852893,0.2317369,-0.1,0.25,-0.18,92.87
15762,59860974,1,1.32,-1.78,22.66,0.1295533,-0.05029537,-0.3220886,0.0001723637,20.83889,-4.852893,0.2327792,-0.1,0.25,-0.18,92.87
15802,59871049,1,1.32,-1.78,22.66,0.1288517,-0.05103758,-0.3231473,0.0005674623,20.83889,-4.852893,0.2336359,-0.1,0.25,-0.18,92.87
15850,59882024,1,1.32,-1.78,22.66,0.1284905,-0.05120424,-0.3238806,0.00148797,20.83889,-4.852893,0.2301561,-0.1,0.25,-0.18,92.87
15891,59892003,1,1.32,-1.78,22.66,0.1270645,-0.05015622,-0.322714,-0.001720336,20.83889,-4.852893,0.2309068,-0.1,0.25,-0.18,92.87
15932,59902247,1,1.32,-1.78,22.66,0.127264,-0.04996024,-0.323257,-0.01207168,20.83889,-4.852893,0.2311405,-0.1,0.25,-0.18,92.87
15972,59913197,1,1.32,-1.78,22.66,0.128687,-0.05137968,-0.3231194,-0.01481473,20.85002,-4.860954,0.2279117,-0.1,0.25,-0.18,92.87
16012,59923392,1,1.32,-1.77,22.66,0.1276044,-0.0494111,-0.3231677,-0.02369318,20.85002,-4.860954,0.2280211,-0.1,0.25,-0.18,92.87
16053,59934008,1,1.32,-1.78,22.66,0.1271278,-0.04898201,-0.3228014,-0.02984101,20.85002,-4.860954,0.2300232,-0.1,0.25,-0.18,92.87
16094,59944559,1,1.32,-1.78,22.66,0.1281247,-0.04958487,-0.3227644,-0.0300303,20.85002,-4.860954,0.2314554,-0.1,0.25,-0.17,92.87
16135,59955132,1,1.32,-1.77,22.66,0.1288151,-0.04781481,-0.3193595,-0.0188144,20.85002,-4.860954,0.2326788,-0.1,0.25,-0.18,92.87
16177,59966039,1,1.32,-1.78,22.67,0.1288016,-0.04841198,-0.3193081,-0.00632173,20.85002,-4.860954,0.2294959,-0.1,0.25,-0.18,92.87
16217,59975977,1,1.32,-1.78,22.67,0.128461,-0.04833369,-0.3183375,0.003672178,20.85002,-4.860954,0.2307979,-0.1,0.25,-0.18,92.87
16262,59985986,1,1.32,-1.79,22.67,0.1283908,-0.04856787,-0.318317,0.0116052,20.85002,-4.860954,0.2319242,-0.1,0.25,-0.18,92.87
16303,59996044,1,1.32,-1.79,22.67,0.1292768,-0.04979171,-0.3169416,0.01440239,20.85002,-4.860954,0.2287683,-0.1,0.25,-0.18,92.87
16344,60006210,1,1.32,-1.79,22.67,0.1304525,-0.0483565,-0.3158801,0.01521718,20.85002,-4.860954,0.2294519,-0.1,0.25,-0.17,92.87
16385,60017089,1,1.32,-1.79,22.67,0.1297978,-0.0472821,-0.3143378,0.01847606,20.85002,-4.860954,0.2301667,-0.1,0.25,-0.18,92.87
16426,60027394,1,1.32,-1.79,22.67,0.130319,-0.0471905,-0.3134492,0.02542678,20.85002,-4.860954,0.2326129,-0.1,0.25,-0.18,92.87
16466,60037764,1,1.32,-1.79,22.67,0.131139,-0.0474401,-0.3111937,0.03957653,20.85002,-4.860954,0.2350336,-0.1,0.25,-0.18,92.87
16507,60047670,1,1.32,-1.79,22.67,0.1306414,-0.04642649,-0.3092744,0.05139133,20.85002,-4.860954,0.237197,-0.1,0.25,-0.18,92.87
16548,60057681,1,1.32,-1.79,22.67,0.1302327,-0.04548871,-0.3075917,0.06250331000000001,20.85002,-4.860954,0.2391423,-0.1,0.25,-0.18,92.87
16589,60068279,1,1.32,-1.79,22.67,0.1321066,-0.04554879,-0.3074031,0.07708145,20.85002,-4.860954,0.2357515,-0.1,0.25,-0.18,92.87
16630,60079083,1,1.32,-1.79,22.67,0.1312643,-0.04496047,-0.3056237,0.08578382,20.85002,-4.860954,0.2374975,-0.1,0.25,-0.18,92.87
16674,60089203,1,1.33,-1.79,22.67,0.1296249,-0.04355917,-0.3053512,0.08071378,20.85002,-4.860954,0.2390633,-0.1,0.25,-0.17,92.87
16716,60100004,1,1.32,-1.79,22.67,0.1298079,-0.04478739,-0.303578,0.08315598,20.85002,-4.860954,0.2357105,-0.1,0.25,-0.17,92.87
16758,60110000,1,1.33,-1.79,22.67,0.1304202,-0.04501976,-0.2996283,0.08389458,20.85002,-4.860954,0.2371168,-0.1,0.25,-0.17,92.87
16800,60120032,1,1.33,-1.79,22.67,0.1306759,-0.04391237,-0.2987772,0.07204665,20.85002,-4.860954,0.2383404,-0.1,0.25,-0.17,92.87
16847,60136438,1,1.33,-1.8,22.67,0.1315078,-0.0434614,-0.2981672,0.06333128,20.85002,-4.860954,0.2392977,-0.1,0.25,-0.17,92.87
16888,60146454,1,1.33,-1.8,22.67,0.1311459,-0.04390658,-0.2987118,0.05919727,20.85002,-4.860954,0.2420265,-0.1,0.25,-0.17,92.87
16928,60157238,1,1.34,-1.8,22.67,0.1308956,-0.04243181,-0.2981394,0.06642621,20.85002,-4.860954,0.2441831,-0.1,0.25,-0.17,92.87
16969,60167898,1,1.34,-1.81,22.67,0.132991,-0.03990051,-0.2968207,0.07889035,20.85002,-4.860954,0.246335,-0.1,0.25,-0.17,92.87
17009,60178458,1,1.35,-1.82,22.67,0.134688,-0.03866004,-0.2975413,0.09372134,20.85002,-4.860954,0.2430918,-0.1,0.25,-0.17,92.87
17051,60188995,1,1.36,-1.85,22.66,0.1354623,-0.03866423,-0.2977792,0.1010116,20.85002,-4.860954,0.2450265,-0.1,0.25,-0.17,92.87
17095,60199509,1,1.38,-1.87,22.66,0.1365697,-0.03785768,-0.2968396,0.1063071,20.85002,-4.860954,0.2464534,-0.1,0.25,-0.17,92.87
17137,60210084,1,1.38,-1.88,22.66,0.1365963,-0.03775558,-0.2977967,0.1017625,20.85002,-4.860954,0.243476,-0.1,0.25,-0.17,92.87
17181,60220094,1,1.39,-1.89,22.65,0.1376244,-0.03889327,-0.2975754,0.09297353999999999,20.85002,-4.860954,0.2450542,-0.1,0.25,-0.17,92.87
17218,60230403,1,1.4,-1.9,22.65,0.1384488,-0.04163722,-0.2970187,0.08821511,20.85002,-4.860954,0.2460545,-0.1,0.25,-0.17,92.87
17256,60240644,1,1.41,-1.91,22.64,0.1398031,-0.04152857,-0.2961687,0.08661777,20.85002,-4.860954,0.2491519,-0.1,0.25,-0.17,92.87
17296,60251114,1,1.4,-1.93,22.63,0.1410029,-0.04100895,-0.2929419,0.08889762,20.85002,-4.860954,0.2520171,-0.1,0.25,-0.17,92.87
17337,60261433,1,1.4,-1.96,22.62,0.1421184,-0.04122951,-0.292013,0.09895867999999999,20.85002,-4.860954,0.2488206,-0.1,0.25,-0.17,92.87
17379,60271377,1,1.4,-1.98,22.61,0.140841,-0.04065989,-0.290441,0.1076452,20.85002,-4.860954,0.2513888,-0.1,0.25,-0.17,92.87
17419,60282024,1,1.39,-2,22.61,0.1385976,-0.04073309,-0.2886463,0.1181801,20.85002,-4.860954,0.2537478,-0.1,0.25,-0.17,92.87
17460,60291933,1,1.38,-2.02,22.6,0.1356988,-0.0409312,-0.2905897,0.1233569,20.85002,-4.860954,0.2557401,-0.1,0.25,-0.17,92.87
17504,60301978,1,1.38,-2.02,22.6,0.1313448,-0.03910509,-0.290876,0.1248604,20.85002,-4.860954,0.2576506,-0.1,0.25,-0.17,92.87
17550,60312145,1,1.39,-2.01,22.61,0.1285757,-0.03882768,-0.2894757,0.1275786,20.83889,-4.860954,0.2547268,-0.1,0.25,-0.17,92.87
17590,60322447,1,1.41,-2,22.61,0.129285,-0.03655533,-0.2860294,0.1276475,20.83889,-4.860954,0.2561021,-0.1,0.25,-0.17,92.87
17632,60333291,1,1.42,-2,22.61,0.1301872,-0.03457605,-0.285588,0.1229215,20.83889,-4.860954,0.2575844,-0.1,0.25,-0.17,92.87
17666,60344019,1,1.44,-2.02,22.61,0.1326048,-0.03426162,-0.283682,0.1164329,20.83889,-4.860954,0.2602565,-0.1,0.25,-0.17,92.87
17707,60354545,1,1.45,-2.04,22.61,0.1351454,-0.03463178,-0.2850983,0.1116928,20.83889,-4.860954,0.2571341,-0.1,0.25,-0.17,92.87
17748,60364980,1,1.45,-2.07,22.6,0.1370532,-0.03375231,-0.2824264,0.1111612,20.83889,-4.860954,0.259862,-0.1,0.25,-0.17,92.87
17788,60374913,1,1.45,-2.09,22.58,0.1388733,-0.03185658,-0.282432,0.1112115,20.83889,-4.860954,0.2623249,-0.1,0.25,-0.17,92.87
17829,60384965,1,1.44,-2.13,22.57,0.1404074,-0.02948943,-0.2807504,0.1114989,20.83889,-4.860954,0.2645517,-0.1,0.25,-0.17,92.87
17870,60394874,1,1.43,-2.15,22.56,0.1427475,-0.02873206,-0.278056,0.11325,20.83889,-4.860954,0.2665611,-0.1,0.25,-0.17,92.87
17917,60405154,1,1.42,-2.17,22.54,0.1432383,-0.02775127,-0.2786019,0.1159969,20.83889,-4.860954,0.2683347,-0.1,0.25,-0.17,92.87
17958,60415077,1,1.42,-2.19,22.53,0.1428458,-0.02555785,-0.2785363,0.1217549,20.83889,-4.860954,0.2652805,-0.1,0.25,-0.17,92.87
17998,60425096,1,1.43,-2.19,22.53,0.1411552,-0.02316143,-0.2778605,0.1177356,20.83889,-4.860954,0.267103,-0.1,0.25,-0.17,92.87
18039,60435590,1,1.45,-2.19,22.53,0.1388361,-0.02218688,-0.2773831,0.1165903,20.83889,-4.860954,0.2681921,-0.1,0.25,-0.17,92.87
18073,60446198,1,1.47,-2.18,22.54,0.1375493,-0.0231027,-0.2767004,0.1169535,20.83889,-4.860954,0.2709989,-0.1,0.25,-0.17,92.87
18115,60456530,1,1.5,-2.18,22.54,0.1369346,-0.02104781,-0.2769885,0.113208,20.83889,-4.860954,0.2738113,-0.1,0.25,-0.17,92.87
18155,60467016,1,1.52,-2.19,22.55,0.1356789,-0.02222872,-0.2759363,0.1201223,20.83889,-4.860954,0.2710484,-0.1,0.25,-0.17,92.87
18196,60477008,1,1.55,-2.21,22.57,0.1351712,-0.02230603,-0.2771596,0.1223832,20.83889,-4.860954,0.2736232,-0.1,0.25,-0.17,92.87
18237,60487089,1,1.57,-2.24,22.58,0.13552,-0.022757,-0.2769418,0.129925,20.83889,-4.860954,0.2759275,-0.1,0.25,-0.17,92.87
18277,60497507,1,1.57,-2.28,22.58,0.134468,-0.0240337,-0.2745991,0.1360898,20.83889,-4.860954,0.2777306,-0.1,0.25,-0.17,92.87
18324,60508123,1,1.58,-2.33,22.58,0.1348435,-0.02518664,-0.2729321,0.1368083,20.83889,-4.860954,0.2795711,-0.1,0.25,-0.17,92.87
18366,60518632,1,1.58,-2.35,22.58,0.1354802,-0.02590501,-0.2710745,0.1361907,20.82776,-4.860954,0.2765888,-0.1,0.25,-0.17,92.87
18410,60531961,1,1.57,-2.37,22.57,0.1343453,-0.02763068,-0.269398,0.128138,20.82776,-4.860954,0.2774968,-0.1,0.25,-0.17,92.87
18453,60547395,1,1.58,-2.37,22.55,0.1324851,-0.02457311,-0.2660546,0.1232573,20.82776,-4.860954,0.2833661,-0.1,0.25,-0.17,92.87
18494,60557134,1,1.59,-2.36,22.54,0.1325266,-0.02414533,-0.2655337,0.1219098,20.82776,-4.860954,0.2863804,-0.1,0.25,-0.17,92.87
18535,60567125,1,1.61,-2.35,22.53,0.1337773,-0.02289378,-0.2678,0.1270447,20.82776,-4.860954,0.2837399,-0.1,0.25,-0.17,92.87
18575,60577140,1,1.64,-2.35,22.52,0.1333576,-0.02209351,-0.2684988,0.1326115,20.82776,-4.860954,0.2867281,-0.11,0.25,-0.17,92.87
18617,60587215,1,1.67,-2.36,22.52,0.133886,-0.02115412,-0.2681485,0.1371874,20.82776,-4.860954,0.2889723,-0.11,0.25,-0.17,92.87
18658,60597101,1,1.7,-2.37,22.53,0.1338723,-0.02087893,-0.2665894,0.141534,20.82776,-4.860954,0.2912004,-0.11,0.25,-0.17,92.87
18703,60607092,1,1.73,-2.39,22.54,0.1330295,-0.02080018,-0.2640568,0.1426944,20.82776,-4.860954,0.29322,-0.11,0.25,-0.17,92.87
18744,60617503,1,1.75,-2.42,22.55,0.1321477,-0.02166593,-0.2627434,0.146774,20.82776,-4.860954,0.2905982,-0.11,0.25,-0.17,92.87
18784,60627525,1,1.76,-2.43,22.56,0.1305619,-0.02141023,-0.2598163,0.1478224,20.82776,-4.860954,0.2924481,-0.11,0.25,-0.17,92.87
18826,60640677,1,1.76,-2.45,22.58,0.1299491,-0.0220622,-0.2579982,0.1477689,20.82776,-4.860954,0.2933089,-0.11,0.25,-0.17,92.87
18866,60651096,1,1.76,-2.45,22.6,0.1289849,-0.02212706,-0.255593,0.1508466,20.82776,-4.860954,0.2965959,-0.11,0.25,-0.17,92.87
18906,60661469,1,1.75,-2.45,22.6,0.1295354,-0.02118757,-0.2559795,0.1518474,20.82776,-4.860954,0.2993555,-0.11,0.25,-0.17,92.87
18947,60671497,1,1.74,-2.46,22.59,0.1296813,-0.0210954,-0.2554094,0.1543929,20.82776,-4.860954,0.3020943,-0.11,0.25,-0.17,92.87
18989,60681473,1,1.74,-2.47,22.58,0.1296775,-0.01968376,-0.2549838,0.1540946,20.82776,-4.860954,0.3045834,-0.11,0.25,-0.17,92.87
19029,60692082,1,1.74,-2.48,22.58,0.131675,-0.01810051,-0.2552004,0.1586005,20.82776,-4.860954,0.3020469,-0.11,0.25,-0.17,92.87
19071,60702342,1,1.75,-2.5,22.57,0.1322028,-0.01619644,-0.2543185,0.1593813,20.82776,-4.860954,0.3040598,-0.11,0.25,-0.17,92.87
19117,60712329,1,1.76,-2.51,22.56,0.1316583,-0.01520756,-0.2527227,0.1476547,20.82776,-4.860954,0.306164,-0.11,0.25,-0.17,92.87
19162,60723083,1,1.78,-2.53,22.55,0.1314731,-0.01605714,-0.2510045,0.1438267,20.81662,-4.869015,0.303656,-0.11,0.25,-0.17,92.87
19202,60733415,1,1.8,-2.54,22.55,0.1318347,-0.01697562,-0.2492597,0.1355063,20.81662,-4.869015,0.3053405,-0.11,0.25,-0.17,92.87
19243,60743397,1,1.82,-2.55,22.55,0.1312675,-0.01833632,-0.2476914,0.129205,20.81662,-4.869015,0.3070815,-0.11,0.25,-0.17,92.87
19282,60754198,1,1.84,-2.56,22.55,0.1325539,-0.01973919,-0.2467296,0.1229197,20.81662,-4.869015,0.3102227,-0.11,0.25,-0.17,92.87
19322,60764244,1,1.85,-2.57,22.56,0.13256,-0.02077638,-0.2454872,0.1277034,20.81662,-4.869015,0.313348,-0.11,0.25,-0.17,92.87
19363,60774117,1,1.86,-2.58,22.57,0.1339412,-0.02248085,-0.2451789,0.1311165,20.81662,-4.869015,0.3108824,-0.11,0.25,-0.17,92.87
19406,60786977,1,1.86,-2.6,22.58,0.1345858,-0.0231289,-0.2405309,0.1380685,20.81662,-4.869015,0.3183277,-0.11,0.25,-0.17,92.87
19447,60797142,1,1.85,-2.62,22.58,0.1351107,-0.02451536,-0.2414573,0.1465226,20.81662,-4.869015,0.3157147,-0.11,0.25,-0.17,92.87
19492,60807995,1,1.84,-2.63,22.58,0.134763,-0.02537434,-0.2417937,0.1491718,20.81662,-4.869015,0.3181547,-0.11,0.25,-0.17,92.87
19533,60818150,1,1.82,-2.64,22.58,0.133129,-0.02600048,-0.2428718,0.1498034,20.81662,-4.869015,0.3203425,-0.11,0.25,-0.17,92.87
19575,60828116,1,1.8,-2.64,22.57,0.1304216,-0.02698733,-0.2428123,0.1434797,20.81662,-4.869015,0.3223056,-0.11,0.25,-0.17,92.87
19615,60838767,1,1.78,-2.62,22.57,0.1285492,-0.02617204,-0.2429345,0.141179,20.81662,-4.869015,0.3196261,-0.11,0.25,-0.17,92.87
19656,60854395,1,1.77,-2.6,22.56,0.1261589,-0.02327508,-0.2388118,0.138181,20.81662,-4.869015,0.3254606,-0.11,0.25,-0.17,92.87
19697,60864631,1,1.78,-2.59,22.56,0.1243889,-0.01999984,-0.2354474,0.1389766,20.81662,-4.869015,0.3283116,-0.11,0.25,-0.17,92.87
19738,60875020,1,1.8,-2.58,22.56,0.1237943,-0.01805272,-0.2316247,0.147966,20.81662,-4.869015,0.3259194,-0.11,0.25,-0.17,92.87
19779,60885005,1,1.82,-2.58,22.56,0.1227972,-0.01646023,-0.2288218,0.1529587,20.81662,-4.869015,0.328677,-0.11,0.25,-0.17,92.87
19820,60895316,1,1.85,-2.59,22.56,0.1216066,-0.01619559,-0.2264796,0.1557499,20.81662,-4.869015,0.3309628,-0.11,0.25,-0.17,92.87
19862,60906042,1,1.87,-2.61,22.57,0.1215416,-0.01611406,-0.2264775,0.153444,20.81662,-4.869015,0.3332116,-0.11,0.25,-0.17,92.87
19908,60915929,1,1.88,-2.61,22.57,0.1210316,-0.01624134,-0.2262456,0.1546257,20.81662,-4.869015,0.3352468,-0.11,0.25,-0.18,92.87
19953,60925964,1,1.89,-2.62,22.58,0.120083,-0.01715884,-0.2258814,0.1535605,20.80549,-4.869015,0.3370591,-0.11,0.25,-0.18,92.87
19994,60936231,1,1.88,-2.62,22.58,0.1201396,-0.01782708,-0.2263096,0.1533455,20.80549,-4.869015,0.334579,-0.11,0.25,-0.18,92.87
20032,60946602,1,1.87,-2.61,22.58,0.1213053,-0.01659562,-0.2272908,0.14398,20.80549,-4.869015,0.3362511,-0.11,0.25,-0.17,92.87
20072,60956213,1,1.87,-2.61,22.59,0.1219402,-0.0144113,-0.2269092,0.1311936,20.80549,-4.869015,0.333988,-0.11,0.25,-0.17,92.87
20110,60967447,1,1.87,-2.61,22.59,0.1222315,-0.01259499,-0.2239214,0.1237294,20.80549,-4.869015,0.3367225,-0.11,0.25,-0.17,92.87
20151,60978109,1,1.88,-2.61,22.6,0.1227025,-0.01059086,-0.2225575,0.123124,20.80549,-4.869015,0.3394473,-0.11,0.25,-0.17,92.87
20191,60988497,1,1.9,-2.62,22.6,0.1235685,-0.009264523,-0.2218773,0.118438,20.80549,-4.869015,0.3417459,-0.11,0.25,-0.17,92.87
20233,60998420,1,1.92,-2.64,22.6,0.1235685,-0.007993521,-0.219788,0.1207759,20.80549,-4.869015,0.3440035,-0.11,0.25,-0.17,92.87
20274,61008418,1,1.95,-2.65,22.6,0.1237138,-0.007645249,-0.2201168,0.1189579,20.80549,-4.869015,0.3460911,-0.11,0.25,-0.17,92.87
20318,61018772,1,1.97,-2.66,22.61,0.1237958,-0.0076676,-0.2213105,0.1208835,20.80549,-4.869015,0.3438897,-0.11,0.25,-0.17,92.87
20359,61028966,1,1.99,-2.66,22.6,0.1252142,-0.008110496,-0.2201359,0.1211446,20.80549,-4.869015,0.3457049,-0.11,0.25,-0.17,92.87
20401,61039199,1,2.01,-2.67,22.6,0.1262946,-0.008036152,-0.22049,0.1174084,20.80549,-4.869015,0.3471823,-0.11,0.25,-0.17,92.87
20442,61049992,1,2.02,-2.68,22.6,0.1261334,-0.009310583000000001,-0.219736,0.1169917,20.80549,-4.869015,0.3486444,-0.11,0.25,-0.18,92.87
20476,61060100,1,2.02,-2.68,22.6,0.1269531,-0.01119517,-0.2184041,0.1209728,20.80549,-4.869015,0.3517828,-0.11,0.25,-0.18,92.87
20517,61070128,1,2.01,-2.68,22.6,0.1254312,-0.01160487,-0.2175772,0.1253552,20.80549,-4.869015,0.3550775,-0.11,0.25,-0.18,92.87
20558,61080159,1,2,-2.67,22.6,0.1226116,-0.01463979,-0.2152758,0.1330264,20.80549,-4.869015,0.3579296,-0.11,0.25,-0.18,92.87
