LineNo,TimeUS,C,Roll,Pitch,Yaw,VN,VE,VD,dPD,PN,PE,PD,GX,GY,GZ,OH
534,55896195,0,1.31,-1.18,23.02,-0.09224684,-0.01672584,0.02702307,-0.09085838,20.90568,-4.893199,1.305477,-0.03,-0.02,-0.24,92.92
765,55941056,0,1.3,-1.19,23.02,-0.09427422000000001,-0.01567679,0.02659685,-0.101549,20.90568,-4.893199,1.30124,-0.03,-0.02,-0.24,92.92
990,55996878,0,1.31,-1.19,23.03,-0.09697103999999999,-0.01478995,0.02538012,-0.1098148,20.90568,-4.893199,1.295875,-0.03,-0.02,-0.24,92.92
1097,56037083,0,1.31,-1.19,23.04,-0.09945539,-0.01503653,0.02494089,-0.1037675,20.90568,-4.893199,1.292928,-0.03,-0.02,-0.23,92.92
1557,56217367,0,1.32,-1.18,23.05,-0.1072278,-0.01316518,-0.4641883,-0.5034634,20.90568,-4.90126,1.242844,-0.03,-0.02,-0.23,92.92
1575,56227431,0,1.31,-1.18,23.05,-0.1078194,-0.01303124,-0.4641969,-0.509062,20.90568,-4.90126,1.236878,-0.03,-0.02,-0.23,92.92
1616,56237445,0,1.31,-1.18,23.05,-0.1081081,-0.01302005,-0.4644744,-0.5152463,20.90568,-4.90126,1.230949,-0.03,-0.02,-0.23,92.92
1657,56247368,0,1.31,-1.18,23.06,-0.1084651,-0.01273682,-0.4646039,-0.5211317,20.90568,-4.90126,1.225092,-0.03,-0.02,-0.23,92.92
1699,56260385,0,1.31,-1.18,23.06,-0.1091124,-0.0124709,-0.4649615,-0.5293965,20.90568,-4.90126,1.217078,-0.03,-0.02,-0.22,92.92
1740,56270916,0,1.31,-1.18,23.05,-0.1097387,-0.01228546,-0.4652323,-0.5380297000000001,20.90568,-4.90126,1.210566,-0.03,-0.02,-0.23,92.92
1781,56281016,0,1.31,-1.18,23.05,-0.1099705,-0.01208729,-0.4658227,-0.5473036,20.90568,-4.90126,1.20415,-0.03,-0.02,-0.23,92.92
1825,56291106,0,1.32,-1.18,23.05,-0.1104717,-0.01188837,-0.4661941,-0.5583808,20.90568,-4.90126,1.197363,-0.03,-0.02,-0.23,92.92
1867,56301649,0,1.32,-1.18,23.05,-0.1108019,-0.01194025,-0.4660277,-0.5681543999999999,20.90568,-4.90126,1.192707,-0.03,-0.02,-0.23,92.92
1908,56311596,0,1.32,-1.18,23.05,-0.111146,-0.01160165,-0.4659682,-0.5755948,20.90568,-4.90126,1.186471,-0.03,-0.02,-0.23,92.92
1951,56322132,0,1.32,-1.18,23.04,-0.1114656,-0.01131219,-0.4663301,-0.5858192,20.89455,-4.90126,1.178631,-0.03,-0.02,-0.23,92.92
1991,56335083,0,1.32,-1.18,23.04,-0.1118674,-0.01124713,-0.4667952,-0.6015698,20.89455,-4.90126,1.170001,-0.03,-0.02,-0.23,92.92
2031,56345145,0,1.32,-1.18,23.04,-0.11201,-0.01103136,-0.4671488,-0.6140141,20.89455,-4.90126,1.162892,-0.03,-0.02,-0.23,92.92
2073,56355087,0,1.32,-1.18,23.04,-0.112087,-0.01077012,-0.467714,-0.6244774,20.89455,-4.90126,1.155904,-0.03,-0.02,-0.23,92.92
2116,56365403,0,1.32,-1.17,23.03,-0.1122822,-0.01048917,-0.4679817,-0.6322535,20.89455,-4.90126,1.149026,-0.03,-0.02,-0.23,92.92
2157,56375691,0,1.32,-1.17,23.03,-0.112652,-0.01046958,-0.4678541,-0.640985,20.89455,-4.90126,1.144352,-0.03,-0.02,-0.23,92.92
2202,56385621,0,1.32,-1.17,23.03,-0.1129865,-0.01015112,-0.4682542,-0.6473287,20.89455,-4.90126,1.137579,-0.03,-0.02,-0.23,92.92
2242,56395617,0,1.32,-1.17,23.03,-0.1134195,-0.009854005000000001,-0.4687223,-0.6522632,20.89455,-4.90126,1.13091,-0.03,-0.02,-0.23,92.92
2283,56405607,0,1.32,-1.17,23.03,-0.1137192,-0.009565149,-0.4691501,-0.6546636,20.89455,-4.90126,1.124337,-0.03,-0.02,-0.23,92.92
2325,56415603,0,1.32,-1.17,23.02,-0.1140317,-0.009436468,-0.4695345,-0.6557024,20.89455,-4.90126,1.117858,-0.03,-0.02,-0.23,92.92
2369,56429292,0,1.32,-1.17,23.02,-0.1145097,-0.009097522,-0.4697704,-0.65952,20.89455,-4.90126,1.10825,-0.03,-0.02,-0.23,92.92
2406,56439561,0,1.32,-1.17,23.02,-0.1147976,-0.008890333,-0.4701734,-0.6624666,20.89455,-4.90126,1.10066,-0.03,-0.02,-0.23,92.92
2447,56450157,0,1.32,-1.17,23.02,-0.1153274,-0.008607429,-0.4706535,-0.6698887,20.89455,-4.90126,1.092747,-0.03,-0.02,-0.23,92.92
2488,56460545,0,1.32,-1.17,23.02,-0.1157669,-0.008752052999999999,-0.4706015,-0.6783195,20.89455,-4.90126,1.088046,-0.03,-0.02,-0.23,92.92
2528,56470547,0,1.32,-1.17,23.02,-0.1159848,-0.008757300000000001,-0.4711341,-0.6846727,20.89455,-4.90126,1.080723,-0.03,-0.02,-0.23,92.92
2569,56480499,0,1.32,-1.17,23.02,-0.1162808,-0.008499347000000001,-0.4716501,-0.6899267,20.89455,-4.90126,1.073526,-0.03,-0.02,-0.23,92.92
2613,56490469,0,1.33,-1.17,23.02,-0.1164868,-0.008227897,-0.4722347,-0.69271,20.89455,-4.90126,1.066444,-0.03,-0.02,-0.23,92.92
2655,56501018,0,1.33,-1.17,23.02,-0.1168033,-0.008058831000000001,-0.4723598,-0.6938144000000001,20.89455,-4.90126,1.059477,-0.03,-0.02,-0.23,92.92
2696,56511381,0,1.33,-1.17,23.02,-0.1172257,-0.007974177000000001,-0.4726944,-0.6957227,20.89455,-4.90126,1.052155,-0.03,-0.02,-0.23,92.92
2739,56521768,0,1.33,-1.17,23.02,-0.1176066,-0.008098658,-0.472667,-0.6971614,20.89455,-4.90126,1.047433,-0.03,-0.02,-0.23,92.92
2780,56532503,0,1.33,-1.17,23.02,-0.1178531,-0.007966015999999999,-0.4729221,-0.6961528,20.89455,-4.90126,1.040056,-0.03,-0.02,-0.23,92.92
2820,56546119,0,1.33,-1.17,23.02,-0.1180691,-0.007657624,-0.4739444,-0.6939276,20.89455,-4.90126,1.029412,-0.03,-0.02,-0.23,92.92
2861,56556777,0,1.33,-1.16,23.02,-0.1183996,-0.007563618,-0.4738784,-0.6926295,20.89455,-4.90126,1.024678,-0.03,-0.02,-0.23,92.92
2903,56566656,0,1.33,-1.17,23.02,-0.1187367,-0.007440455,-0.4743266,-0.689229,20.89455,-4.90126,1.018077,-0.03,-0.02,-0.23,92.92
2946,56576642,0,1.33,-1.17,23.02,-0.1189902,-0.007082796,-0.4747203,-0.6847275,20.89455,-4.90126,1.011566,-0.03,-0.02,-0.23,92.92
2987,56586636,0,1.33,-1.16,23.02,-0.1191995,-0.007007734,-0.4753995,-0.6787549,20.89455,-4.90126,1.005136,-0.03,-0.02,-0.23,92.92
3031,56596657,0,1.33,-1.16,23.02,-0.1192009,-0.006712434,-0.47551,-0.6716316,20.89455,-4.90126,0.9987897999999999,-0.03,-0.02,-0.23,92.92
3073,56607168,0,1.33,-1.16,23.02,-0.1193817,-0.006435952,-0.4755678,-0.6645861,20.89455,-4.90126,0.9920541,-0.03,-0.02,-0.23,92.92
3113,56617702,0,1.33,-1.16,23.02,-0.1197743,-0.006099895,-0.4754165,-0.6585809,20.89455,-4.90126,0.9873044,-0.03,-0.02,-0.23,92.92
3154,56627931,0,1.33,-1.16,23.02,-0.1199647,-0.005639548,-0.4757531,-0.6515398999999999,20.89455,-4.90126,0.9811145,-0.03,-0.02,-0.23,92.92
3192,56641166,0,1.33,-1.16,23.02,-0.1201372,-0.005409654,-0.4761085,-0.641804,20.89455,-4.90126,0.9728854,-0.03,-0.02,-0.23,92.92
3233,56651311,0,1.33,-1.16,23.02,-0.1201272,-0.005150843,-0.4763308,-0.6361914,20.89455,-4.90126,0.9666383,-0.03,-0.02,-0.23,92.92
3274,56662145,0,1.33,-1.16,23.02,-0.1203049,-0.005058814,-0.476428,-0.6302470999999999,20.89455,-4.90126,0.9599962,-0.03,-0.02,-0.23,92.92
3315,56672087,0,1.33,-1.16,23.02,-0.120297,-0.004749772,-0.4767354,-0.6247246,20.89455,-4.90126,0.9543727,-0.03,-0.02,-0.23,92.92
3357,56682110,0,1.33,-1.16,23.02,-0.1204022,-0.004576355,-0.4772038,-0.6183128,20.89455,-4.90126,0.947862,-0.03,-0.02,-0.23,92.92
3398,56692150,0,1.33,-1.16,23.02,-0.1205727,-0.004359232,-0.4775458,-0.6114616,20.89455,-4.90126,0.9418876,-0.03,-0.02,-0.23,92.92
3442,56702976,0,1.33,-1.16,23.02,-0.1210038,-0.004610105,-0.4779855,-0.6051663,20.89455,-4.90126,0.9354995,-0.03,-0.02,-0.23,92.92
3485,56713228,0,1.33,-1.16,23.02,-0.1214143,-0.00471206,-0.4781417,-0.6000474,20.88342,-4.90126,0.9307238,-0.03,-0.02,-0.23,92.92
3525,56724132,0,1.33,-1.16,23.02,-0.1217853,-0.004740288,-0.4779788,-0.5931519,20.88342,-4.90126,0.924387,-0.03,-0.02,-0.23,92.92
3564,56734002,0,1.33,-1.16,23.02,-0.1219149,-0.004421944,-0.4782101,-0.5871837,20.88342,-4.90126,0.9186695,-0.03,-0.02,-0.23,92.92
3602,56744059,0,1.33,-1.16,23.02,-0.1221761,-0.004253603,-0.478186,-0.5803523,20.88342,-4.90126,0.9130006000000001,-0.03,-0.02,-0.23,92.92
3645,56754192,0,1.33,-1.16,23.02,-0.1223799,-0.004249674,-0.478484,-0.5734384,20.88342,-4.90126,0.9073771,-0.03,-0.02,-0.23,92.92
3686,56764659,0,1.33,-1.16,23.02,-0.122957,-0.004301664,-0.4783435,-0.5672952,20.88342,-4.90126,0.902598,-0.03,-0.02,-0.23,92.92
3726,56774602,0,1.33,-1.16,23.02,-0.1231259,-0.004106433,-0.4783085,-0.5609342,20.88342,-4.90126,0.8970177,-0.03,-0.02,-0.23,92.92
3767,56784595,0,1.33,-1.16,23.02,-0.1231451,-0.004050469,-0.4786855,-0.5552661,20.88342,-4.90126,0.8914816,-0.03,-0.02,-0.23,92.92
3807,56795170,0,1.33,-1.16,23.02,-0.1232821,-0.003761729,-0.478947,-0.5495785,20.88342,-4.90126,0.885511,-0.03,-0.02,-0.23,92.92
3854,56805093,0,1.33,-1.16,23.02,-0.1233397,-0.003573188,-0.47905,-0.5443928,20.88342,-4.90126,0.8800582,-0.03,-0.02,-0.23,92.92
3894,56815128,0,1.33,-1.16,23.02,-0.1236383,-0.003285798,-0.4788746,-0.5387444,20.88342,-4.90126,0.8746419,-0.03,-0.02,-0.23,92.92
3935,56825174,0,1.33,-1.16,23.02,-0.1240399,-0.003247046,-0.4786221,-0.5340191,20.88342,-4.90126,0.8698601,-0.03,-0.02,-0.23,92.92
3976,56837687,0,1.33,-1.16,23.02,-0.1242634,-0.003125269,-0.4787825,-0.528769,20.88342,-4.90126,0.8635275,-0.03,-0.02,-0.23,92.92
4013,56848101,0,1.33,-1.16,23.02,-0.1245317,-0.002755401,-0.4786071,-0.5231181,20.88342,-4.90126,0.8579412,-0.03,-0.02,-0.23,92.92
4055,56858148,0,1.33,-1.16,23.02,-0.1246205,-0.002427632,-0.4787121,-0.5178528,20.88342,-4.90126,0.8528559999999999,-0.03,-0.02,-0.23,92.92
4096,56868813,0,1.33,-1.16,23.02,-0.1247295,-0.002024117,-0.4786819,-0.5122965,20.88342,-4.90126,0.8477911,-0.03,-0.02,-0.23,92.92
4137,56879003,0,1.33,-1.16,23.02,-0.1248653,-0.001834326,-0.4790154,-0.507265,20.88342,-4.90126,0.8427472,-0.03,-0.02,-0.23,92.92
4178,56889358,0,1.33,-1.16,23.02,-0.1252139,-0.001500314,-0.4790153,-0.5018716,20.88342,-4.90126,0.8372462000000001,-0.03,-0.02,-0.23,92.92
4222,56900045,0,1.33,-1.16,23.02,-0.1255425,-0.001481804,-0.4789889,-0.4974109,20.88342,-4.90126,0.832461,-0.03,-0.02,-0.23,92.92
4263,56910008,0,1.33,-1.16,23.02,-0.1255517,-0.001337029,-0.4788854,-0.4930132,20.88342,-4.90126,0.827457,-0.03,-0.02,-0.23,92.92
4305,56920225,0,1.33,-1.16,23.02,-0.1256257,-0.001114161,-0.4788422,-0.4885646,20.86115,-4.909322,0.8219936,-0.03,-0.02,-0.23,92.92
4345,56930215,0,1.33,-1.16,23.02,-0.1257532,-0.0008754699,-0.4786145,-0.4847186,20.86115,-4.909322,0.8170291,-0.03,-0.02,-0.23,92.92
4382,56943109,0,1.33,-1.16,23.02,-0.1259804,-0.0007144594,-0.478462,-0.4797242,20.86115,-4.909322,0.8112200000000001,-0.03,-0.02,-0.23,92.92
4424,56953196,0,1.33,-1.16,23.02,-0.1263812,-0.0008091539,-0.4782487,-0.4744851,20.86115,-4.909322,0.8064415,-0.03,-0.02,-0.23,92.92
4466,56963093,0,1.33,-1.16,23.01,-0.1267339,-0.0007121154,-0.4782181,-0.4687268,20.86115,-4.909322,0.8020595,-0.03,-0.02,-0.23,92.92
4506,56973126,0,1.33,-1.16,23.01,-0.1269218,-0.000828358,-0.4783191,-0.4629589,20.86115,-4.909322,0.7976681,-0.03,-0.02,-0.23,92.92
4548,56983012,0,1.34,-1.16,23.01,-0.1269756,-0.0005871981,-0.4783233,-0.4566067,20.86115,-4.909322,0.7927913,-0.03,-0.02,-0.23,92.92
4588,56993406,0,1.34,-1.16,23.01,-0.1272875,-0.0003228069,-0.4784305,-0.4510873,20.86115,-4.909322,0.7883861,-0.03,-0.02,-0.23,92.92
4633,57003440,0,1.34,-1.16,23.01,-0.1275304,-0.0002309442,-0.4782684,-0.4457567,20.86115,-4.909322,0.7839745,-0.03,-0.02,-0.23,92.92
4674,57014136,0,1.34,-1.16,23.01,-0.1279611,-0.0001154431,-0.4780624,-0.4401643,20.86115,-4.909322,0.7790826,-0.03,-0.02,-0.23,92.92
4714,57024531,0,1.34,-1.16,23.01,-0.1284097,-0.0001487516,-0.477939,-0.4355171,20.86115,-4.909322,0.7743078,-0.03,-0.02,-0.23,92.92
4755,57034353,0,1.34,-1.16,23.02,-0.1285904,5.397043e-05,-0.4778764,-0.4318306,20.86115,-4.909322,0.7698897,-0.03,-0.02,-0.23,92.92
4789,57045204,0,1.34,-1.16,23.01,-0.1286299,0.0003002797,-0.4778254,-0.4270126,20.86115,-4.909322,0.7655776,-0.03,-0.02,-0.23,92.92
4832,57055192,0,1.34,-1.16,23.01,-0.1285325,0.0006052083,-0.4778939,-0.421466,20.86115,-4.909322,0.7617128,-0.03,-0.02,-0.23,92.92
4872,57065976,0,1.34,-1.16,23.01,-0.1284836,0.0005953624999999999,-0.4779041,-0.4161415,20.86115,-4.909322,0.7578173,-0.03,-0.02,-0.23,92.92
4913,57076029,0,1.34,-1.16,23.01,-0.1287258,0.0006962347999999999,-0.4776158,-0.4106482,20.86115,-4.909322,0.7538947,-0.03,-0.02,-0.23,92.92
4954,57086468,0,1.34,-1.16,23.01,-0.1289587,0.0009222179,-0.477432,-0.4044356,20.86115,-4.909322,0.74947,-0.04,-0.02,-0.23,92.92
4994,57097002,0,1.34,-1.16,23.01,-0.1293062,0.0009744508,-0.4775052,-0.3990666,20.86115,-4.909322,0.7447006,-0.04,-0.02,-0.23,92.92
5039,57106762,0,1.34,-1.16,23.01,-0.1293782,0.001183427,-0.4770671,-0.3945231,20.86115,-4.909322,0.7407294,-0.04,-0.02,-0.23,92.92
5079,57117443,0,1.34,-1.16,23.01,-0.1295181,0.0015004,-0.4771157,-0.3912136,20.86115,-4.909322,0.7362577,-0.04,-0.02,-0.23,92.92
5122,57127984,0,1.34,-1.16,23.01,-0.1294095,0.001648773,-0.476818,-0.3889975,20.86115,-4.90126,0.7322391,-0.04,-0.02,-0.23,92.92
5165,57140656,0,1.34,-1.16,23.01,-0.1297457,0.001728225,-0.4764015,-0.3863712,20.86115,-4.90126,0.7268138,-0.04,-0.02,-0.23,92.92
5203,57151382,0,1.34,-1.16,23.01,-0.1297385,0.001719632,-0.476114,-0.3846202,20.86115,-4.90126,0.72232,-0.04,-0.02,-0.23,92.92
5244,57161406,0,1.34,-1.16,23.01,-0.1299885,0.001926979,-0.4762038,-0.384519,20.86115,-4.90126,0.7182803,-0.04,-0.02,-0.23,92.92
5284,57171978,0,1.34,-1.16,23.01,-0.1303543,0.002038052,-0.4759433,-0.3837207,20.86115,-4.90126,0.7135248,-0.04,-0.02,-0.23,92.92
5325,57182083,0,1.34,-1.16,23.01,-0.1303404,0.002054925,-0.4755485,-0.3837258,20.86115,-4.90126,0.7094681,-0.04,-0.02,-0.23,92.92
5365,57192043,0,1.35,-1.16,23.01,-0.1306395,0.002227646,-0.4752953,-0.3842746,20.86115,-4.90126,0.7053924,-0.04,-0.02,-0.23,92.92
5406,57202013,0,1.35,-1.16,23.01,-0.1308031,0.002230804,-0.4750553,-0.3855424,20.86115,-4.90126,0.7012981,-0.04,-0.02,-0.23,92.92
5451,57212047,0,1.35,-1.16,23.01,-0.130978,0.002378589,-0.47499,-0.3872664,20.86115,-4.90126,0.6971858,-0.04,-0.02,-0.23,92.92
5491,57222226,0,1.35,-1.16,23.01,-0.1309727,0.002401416,-0.4747278,-0.3886952,20.86115,-4.90126,0.6925834,-0.04,-0.02,-0.23,92.92
5532,57233120,0,1.35,-1.16,23,-0.131534,0.002395637,-0.4746362,-0.3899362,20.86115,-4.90126,0.6878417,-0.04,-0.02,-0.23,92.92
5572,57243058,0,1.35,-1.16,23,-0.1317015,0.002577913,-0.4745626,-0.3918585,20.86115,-4.90126,0.6836992,-0.04,-0.02,-0.23,92.92
5613,57253954,0,1.35,-1.16,23,-0.1319286,0.002667298,-0.474535,-0.3927072,20.86115,-4.90126,0.6793649,-0.03,-0.02,-0.23,92.92
5653,57264145,0,1.35,-1.16,23,-0.1320112,0.002708266,-0.474168,-0.3904575,20.86115,-4.90126,0.6759308000000001,-0.04,-0.02,-0.23,92.92
5695,57275030,0,1.35,-1.16,23,-0.1318816,0.002826164,-0.4738137,-0.3879923,20.86115,-4.90126,0.6724516,-0.04,-0.02,-0.23,92.92
5736,57285031,0,1.35,-1.16,23,-0.1317848,0.003166129,-0.4732841,-0.3848971,20.86115,-4.90126,0.6689308,-0.04,-0.02,-0.23,92.92
5776,57295215,0,1.35,-1.16,23,-0.1318511,0.003337467,-0.4731544,-0.3808047,20.86115,-4.90126,0.6648965,-0.04,-0.02,-0.23,92.92
5817,57306066,0,1.35,-1.16,23,-0.1324213,0.003436694,-0.4730402,-0.3765236,20.86115,-4.90126,0.6601703,-0.04,-0.02,-0.23,92.92
5862,57316100,0,1.35,-1.16,23,-0.1325762,0.003484531,-0.4726257,-0.373034,20.86115,-4.90126,0.6561005,-0.04,-0.02,-0.23,92.92
5905,57327095,0,1.35,-1.16,23,-0.1326596,0.003628792,-0.4723769,-0.3701194,20.86115,-4.90126,0.6524644000000001,-0.04,-0.02,-0.23,92.92
5945,57337159,0,1.35,-1.16,23,-0.1327637,0.003695102,-0.4720881,-0.3681673,20.85002,-4.90126,0.6483217,-0.04,-0.02,-0.23,92.92
5986,57347426,0,1.35,-1.16,23,-0.1326151,0.003811531,-0.4717305,-0.3662465,20.85002,-4.90126,0.6452699,-0.04,-0.02,-0.23,92.92
6027,57357600,0,1.35,-1.16,23,-0.1325909,0.003966571,-0.4712494,-0.3638658,20.85002,-4.90126,0.6421585,-0.04,-0.02,-0.23,92.92
6069,57368299,0,1.35,-1.16,22.99,-0.1325945,0.004119022,-0.4707321,-0.3590027,20.85002,-4.90126,0.6385202,-0.04,-0.02,-0.23,92.92
6110,57379131,0,1.35,-1.16,22.99,-0.1329752,0.004133027,-0.4709459,-0.354019,20.85002,-4.90126,0.6338171,-0.04,-0.02,-0.23,92.92
6151,57389024,0,1.35,-1.16,22.99,-0.1330215,0.004274314,-0.4704542,-0.3494187,20.85002,-4.90126,0.6301276,-0.04,-0.02,-0.23,92.92
6192,57399130,0,1.35,-1.16,22.99,-0.1330784,0.004426345,-0.4702205,-0.3469557,20.85002,-4.90126,0.6273251,-0.04,-0.02,-0.23,92.92
6232,57409424,0,1.35,-1.16,22.99,-0.1332589,0.004603993,-0.4698358,-0.3446228,20.85002,-4.90126,0.6235333,-0.04,-0.02,-0.23,92.92
6277,57420229,0,1.35,-1.16,22.99,-0.1333105,0.004515475,-0.4697816,-0.3437726,20.85002,-4.90126,0.6196918,-0.04,-0.02,-0.23,92.92
6318,57430448,0,1.35,-1.16,22.99,-0.1339612,0.004471077,-0.4698684,-0.342417,20.85002,-4.90126,0.6149985,-0.04,-0.02,-0.23,92.92
6359,57440433,0,1.35,-1.16,22.99,-0.1341605,0.004489024,-0.4695088,-0.3419811,20.85002,-4.90126,0.6115815999999999,-0.04,-0.02,-0.23,92.92
6400,57450609,0,1.35,-1.16,22.99,-0.1343621,0.004535016,-0.4692882,-0.3421628,20.85002,-4.90126,0.6081197,-0.04,-0.02,-0.23,92.92
6440,57461187,0,1.35,-1.16,22.99,-0.1344331,0.004696596,-0.4688277,-0.342818,20.85002,-4.90126,0.6043652,-0.03,-0.02,-0.22,92.92
6481,57471110,0,1.35,-1.16,22.99,-0.1345364,0.004878925,-0.4684906,-0.3441302,20.85002,-4.90126,0.6010296000000001,-0.03,-0.02,-0.22,92.92
6521,57482074,0,1.35,-1.16,22.98,-0.1345754,0.005026998,-0.4681978,-0.3442587,20.85002,-4.90126,0.5971772,-0.03,-0.02,-0.22,92.92
6564,57492025,0,1.35,-1.16,22.98,-0.1350126,0.00499571,-0.4682965,-0.3438973,20.85002,-4.90126,0.5924997,-0.03,-0.02,-0.22,92.92
6605,57502154,0,1.35,-1.16,22.98,-0.1349601,0.005285807,-0.4681199,-0.3439702,20.85002,-4.90126,0.5890706999999999,-0.03,-0.02,-0.22,92.92
6647,57512402,0,1.35,-1.16,22.98,-0.134838,0.005568693,-0.4678098,-0.3439707,20.85002,-4.90126,0.5855971,-0.04,-0.02,-0.22,92.92
6692,57523114,0,1.36,-1.16,22.98,-0.1348239,0.005645283,-0.4671082,-0.3447584,20.85002,-4.90126,0.5816175,-0.04,-0.02,-0.22,92.92
6733,57533086,0,1.36,-1.16,22.98,-0.1348447,0.005615281,-0.4665786,-0.346121,20.85002,-4.90126,0.578068,-0.04,-0.02,-0.22,92.92
6774,57543033,0,1.36,-1.16,22.98,-0.1347978,0.005821959,-0.4661639,-0.3486269,20.85002,-4.90126,0.5744825,-0.04,-0.02,-0.22,92.92
6814,57553928,0,1.36,-1.16,22.98,-0.1351959,0.005807331,-0.4663619,-0.350762,20.85002,-4.90126,0.5698246,-0.04,-0.02,-0.22,92.92
6855,57564085,0,1.36,-1.16,22.98,-0.1350876,0.005936409,-0.4659191,-0.3521832,20.85002,-4.90126,0.5665603,-0.04,-0.02,-0.22,92.92
6896,57574237,0,1.36,-1.16,22.98,-0.1350776,0.006057551,-0.4655646,-0.3547471,20.85002,-4.90126,0.5627845,-0.03,-0.02,-0.22,92.92
6937,57584256,0,1.36,-1.16,22.97,-0.1348699,0.006194353,-0.4652322,-0.3570816,20.85002,-4.90126,0.5594254,-0.03,-0.02,-0.22,92.92
6978,57595044,0,1.36,-1.16,22.97,-0.1351638,0.006283276,-0.4653694,-0.3577964,20.85002,-4.90126,0.5547773,-0.03,-0.02,-0.22,92.92
7019,57605122,0,1.36,-1.16,22.97,-0.1351332,0.006369513,-0.4650101,-0.3586866,20.85002,-4.90126,0.5509093,-0.03,-0.02,-0.22,92.92
7061,57616123,0,1.36,-1.16,22.97,-0.135062,0.006469919,-0.4645508,-0.3586746,20.85002,-4.90126,0.5474604,-0.03,-0.02,-0.22,92.92
7106,57626085,0,1.35,-1.16,22.97,-0.1349333,0.00660742,-0.4641477,-0.3589414,20.85002,-4.90126,0.5439706,-0.03,-0.02,-0.22,92.92
7147,57636082,0,1.35,-1.16,22.97,-0.1352036,0.00671823,-0.4635337,-0.3598493,20.85002,-4.90126,0.5404423,-0.03,-0.02,-0.22,92.92
7188,57646106,0,1.35,-1.16,22.97,-0.1351559,0.00678926,-0.4631784,-0.3612363,20.85002,-4.90126,0.5368776,-0.03,-0.02,-0.22,92.92
7231,57658992,0,1.35,-1.16,22.97,-0.135124,0.006849649,-0.4628503,-0.3616133,20.85002,-4.90126,0.5316163,-0.03,-0.02,-0.22,92.92
7275,57671393,0,1.36,-1.16,22.96,-0.1349535,0.007117504,-0.4627027,-0.3621471,20.85002,-4.90126,0.5272359,-0.03,-0.02,-0.22,92.92
7315,57681250,0,1.36,-1.16,22.96,-0.1349162,0.007089945,-0.4624661,-0.3633873,20.85002,-4.90126,0.5237397,-0.03,-0.02,-0.22,92.92
7354,57692091,0,1.36,-1.16,22.96,-0.135053,0.007136952,-0.4619755,-0.3635811,20.85002,-4.90126,0.5197425,-0.03,-0.02,-0.22,92.92
7396,57703057,0,1.36,-1.16,22.96,-0.1355336,0.007093561,-0.4617882,-0.3634321,20.85002,-4.90126,0.5151285,-0.03,-0.02,-0.22,92.92
7437,57712687,0,1.36,-1.16,22.96,-0.1356315,0.007066579,-0.4617576,-0.3644902,20.85002,-4.90126,0.511558,-0.03,-0.02,-0.22,92.92
7487,57725402,0,1.36,-1.16,22.96,-0.1357913,0.007072974,-0.4612958,-0.3658592,20.85002,-4.90126,0.5065672,-0.03,-0.02,-0.22,92.92
7528,57735228,0,1.36,-1.16,22.95,-0.1357851,0.007167194,-0.4610991,-0.3668261,20.85002,-4.90126,0.5029238,-0.03,-0.02,-0.22,92.92
7570,57745337,0,1.36,-1.16,22.95,-0.1359199,0.007095334,-0.4606309,-0.3679556,20.85002,-4.90126,0.4992485,-0.03,-0.02,-0.22,92.92
7611,57755172,0,1.36,-1.16,22.95,-0.1360381,0.007058337,-0.4602613,-0.3688215,20.85002,-4.90126,0.4955412,-0.04,-0.02,-0.22,92.92
7650,57765565,0,1.36,-1.16,22.95,-0.1357398,0.006910919,-0.4599246,-0.3700231,20.85002,-4.90126,0.4920366,-0.03,-0.02,-0.22,92.92
7693,57777997,0,1.35,-1.16,22.95,-0.1357782,0.007063285,-0.4596395,-0.3699763,20.85002,-4.90126,0.4871158,-0.04,-0.02,-0.22,92.92
7736,57790229,0,1.35,-1.16,22.95,-0.1357718,0.007319391,-0.4593465,-0.3706398,20.85002,-4.90126,0.482618,-0.04,-0.02,-0.22,92.92
7777,57800178,0,1.35,-1.16,22.95,-0.1357545,0.007563664,-0.4593576,-0.3716873,20.85002,-4.90126,0.4790019,-0.04,-0.02,-0.22,92.92
7818,57810210,0,1.35,-1.16,22.94,-0.1357535,0.007706498,-0.4589936,-0.3731314,20.85002,-4.90126,0.4753511,-0.04,-0.02,-0.22,92.92
7859,57821085,0,1.35,-1.16,22.94,-0.1361739,0.007805051,-0.4588493,-0.3738632,20.85002,-4.90126,0.4707663,-0.04,-0.02,-0.22,92.92
7906,57831106,0,1.35,-1.16,22.94,-0.136228,0.00785715,-0.4585624,-0.375228,20.85002,-4.90126,0.4670874,-0.03,-0.02,-0.22,92.92
7947,57841048,0,1.35,-1.16,22.94,-0.1363438,0.007843367,-0.4580565,-0.3764291,20.85002,-4.90126,0.4633769,-0.04,-0.02,-0.22,92.92
7988,57851016,0,1.35,-1.16,22.94,-0.1364591,0.007884617,-0.4581227,-0.3789144,20.85002,-4.90126,0.4591792,-0.03,-0.02,-0.22,92.92
8032,57866327,0,1.35,-1.16,22.94,-0.136567,0.007914679000000001,-0.4577249,-0.3791422,20.85002,-4.90126,0.4544143,-0.03,-0.02,-0.22,92.92
8073,57876373,0,1.35,-1.16,22.94,-0.1364674,0.008009495,-0.4572985,-0.3734052,20.85002,-4.90126,0.4518527,-0.03,-0.02,-0.22,92.92
8114,57886355,0,1.35,-1.16,22.94,-0.1361507,0.008027639,-0.4568492,-0.36617,20.85002,-4.90126,0.4492154,-0.03,-0.02,-0.22,92.92
8156,57896450,0,1.35,-1.16,22.93,-0.1361459,0.007995947,-0.4567286,-0.3595675,20.85002,-4.90126,0.4460497,-0.03,-0.02,-0.22,92.92
8196,57907062,0,1.35,-1.16,22.93,-0.1364791,0.00793811,-0.4567886,-0.3517357,20.85002,-4.90126,0.4414869,-0.03,-0.02,-0.22,92.92
8238,57917060,0,1.35,-1.16,22.93,-0.1362241,0.007907325,-0.4561753,-0.3446602,20.85002,-4.90126,0.4387123,-0.03,-0.02,-0.22,92.92
8284,57927060,0,1.35,-1.16,22.93,-0.1360504,0.007976746,-0.4556985,-0.3404995,20.83889,-4.90126,0.4358769,-0.03,-0.02,-0.22,92.92
8325,57937505,0,1.35,-1.16,22.93,-0.1360815,0.008135946999999999,-0.4551256,-0.3346136,20.83889,-4.90126,0.4325209,-0.03,-0.02,-0.22,92.92
8367,57948075,0,1.35,-1.16,22.93,-0.1362301,0.008263579,-0.4546117,-0.3303193,20.83889,-4.90126,0.4291062,-0.03,-0.02,-0.22,92.92
8407,57958477,0,1.35,-1.16,22.93,-0.1367786,0.008310239000000001,-0.4545567,-0.3261219,20.83889,-4.90126,0.4245651,-0.03,-0.02,-0.22,92.92
8448,57968939,0,1.35,-1.16,22.93,-0.1365871,0.008389875999999999,-0.453919,-0.3192814,20.83889,-4.90126,0.4229062,-0.03,-0.02,-0.22,92.92
8488,57979246,0,1.35,-1.16,22.93,-0.1364751,0.008743717,-0.4533244,-0.3089108,20.83889,-4.90126,0.4206793,-0.03,-0.02,-0.22,92.92
8528,57989338,0,1.35,-1.16,22.93,-0.1363411,0.008902828999999999,-0.4528504,-0.2975457,20.83889,-4.90126,0.418794,-0.03,-0.02,-0.22,92.92
8568,58000062,0,1.35,-1.16,22.93,-0.1363764,0.008891135999999999,-0.4525658,-0.2880756,20.83889,-4.90126,0.4168084,-0.03,-0.02,-0.22,92.92
8609,58010115,0,1.35,-1.16,22.93,-0.1364008,0.008910692,-0.4518911,-0.2789469,20.83889,-4.90126,0.4147233,-0.03,-0.02,-0.22,92.92
8652,58020345,0,1.36,-1.16,22.93,-0.1364093,0.008778866,-0.4511599,-0.2680548,20.83889,-4.90126,0.4120943,-0.03,-0.02,-0.22,92.92
8696,58030240,0,1.36,-1.16,22.93,-0.136912,0.008713679,-0.4512042,-0.2587475,20.83889,-4.90126,0.4075881,-0.03,-0.02,-0.22,92.92
8737,58040334,0,1.36,-1.17,22.93,-0.1368232,0.008731772,-0.4507164,-0.254062,20.83889,-4.90126,0.4053327,-0.03,-0.02,-0.22,92.92
8777,58050231,0,1.36,-1.16,22.93,-0.1368902,0.008801352,-0.4502378,-0.2505352,20.83889,-4.90126,0.4029905,-0.03,-0.02,-0.22,92.92
8819,58060194,0,1.36,-1.16,22.93,-0.1369942,0.008940125,-0.4498505,-0.2494724,20.83889,-4.90126,0.400567,-0.03,-0.02,-0.22,92.92
8859,58070960,0,1.36,-1.17,22.93,-0.1373641,0.008856551000000001,-0.450074,-0.2475912,20.83889,-4.90126,0.3960724,-0.03,-0.02,-0.22,92.92
8897,58080921,0,1.35,-1.16,22.93,-0.1372167,0.008815019,-0.4495473,-0.2450404,20.83889,-4.90126,0.3943804,-0.03,-0.02,-0.21,92.92
8937,58090651,0,1.35,-1.16,22.93,-0.1371602,0.008654115,-0.4487875,-0.2413022,20.83889,-4.90126,0.3925779,-0.03,-0.02,-0.21,92.92
8977,58100683,0,1.35,-1.16,22.93,-0.1371321,0.008757762000000001,-0.4479237,-0.2385936,20.83889,-4.90126,0.3906763,-0.03,-0.02,-0.21,92.92
9019,58111151,0,1.35,-1.16,22.93,-0.1370296,0.008860998,-0.4476915,-0.2368265,20.83889,-4.90126,0.3882274,-0.03,-0.02,-0.21,92.92
9060,58121624,0,1.35,-1.16,22.93,-0.1375119,0.008788107999999999,-0.447384,-0.2331633,20.83889,-4.90126,0.3837575,-0.03,-0.02,-0.21,92.92
9107,58131610,0,1.35,-1.17,22.93,-0.1373728,0.008834603999999999,-0.4468877,-0.2315118,20.83889,-4.893199,0.3816675,-0.03,-0.02,-0.21,92.92
9148,58141630,0,1.35,-1.16,22.93,-0.1374897,0.008913706,-0.4463392,-0.2304768,20.83889,-4.893199,0.3794854,-0.03,-0.02,-0.21,92.92
9188,58152148,0,1.36,-1.17,22.93,-0.1376473,0.008924237,-0.4458779,-0.2292224,20.83889,-4.893199,0.3767646,-0.03,-0.02,-0.21,92.92
9230,58162417,0,1.36,-1.17,22.93,-0.1377468,0.0088422,-0.4453884,-0.2304482,20.83889,-4.893199,0.3744077,-0.03,-0.02,-0.21,92.92
9270,58175458,0,1.36,-1.17,22.93,-0.1378157,0.008935105,-0.4447582,-0.2306534,20.83889,-4.893199,0.3716138,-0.03,-0.02,-0.21,92.92
9308,58185541,0,1.36,-1.17,22.93,-0.1375593,0.009074921,-0.444253,-0.2283164,20.83889,-4.893199,0.3700312,-0.03,-0.02,-0.21,92.92
9349,58196002,0,1.36,-1.17,22.93,-0.1374449,0.009203017000000001,-0.443609,-0.2255234,20.83889,-4.893199,0.3683344,-0.03,-0.02,-0.21,92.92
9389,58206064,0,1.36,-1.17,22.93,-0.1379631,0.009263508,-0.4435835,-0.2204432,20.83889,-4.893199,0.3639034,-0.03,-0.02,-0.21,92.92
9430,58216348,0,1.36,-1.17,22.93,-0.1378506,0.009221431,-0.4429296,-0.2170239,20.83889,-4.893199,0.3616668,-0.03,-0.02,-0.21,92.92
9470,58226254,0,1.36,-1.17,22.93,-0.1376223,0.009359371,-0.4421908,-0.2154615,20.83889,-4.893199,0.3597732,-0.03,-0.02,-0.21,92.92
9518,58236346,0,1.36,-1.17,22.93,-0.137433,0.009276882,-0.4416677,-0.214871,20.83889,-4.893199,0.3577805,-0.03,-0.02,-0.21,92.92
9559,58246229,0,1.36,-1.17,22.93,-0.1373547,0.009288452000000001,-0.4414296,-0.2167412,20.83889,-4.893199,0.3556929,-0.03,-0.02,-0.21,92.92
9599,58257107,0,1.36,-1.17,22.93,-0.1376552,0.009313577,-0.4416138,-0.2170003,20.83889,-4.893199,0.3512818,-0.03,-0.02,-0.21,92.92
9640,58267198,0,1.36,-1.17,22.93,-0.13771,0.00953669,-0.4411409,-0.2191768,20.83889,-4.893199,0.3486656,-0.03,-0.02,-0.21,92.92
9677,58277195,0,1.35,-1.17,22.93,-0.1374064,0.009753512000000001,-0.4405922,-0.2207365,20.83889,-4.893199,0.3472352,-0.03,-0.02,-0.21,92.92
9718,58289891,0,1.36,-1.17,22.93,-0.1372046,0.009849784,-0.4400508,-0.2200266,20.83889,-4.893199,0.344804,-0.03,-0.02,-0.21,92.92
9758,58299615,0,1.36,-1.17,22.93,-0.137075,0.009958382,-0.4394816,-0.220001,20.83889,-4.893199,0.3431416,-0.03,-0.02,-0.21,92.92
9803,58312775,0,1.36,-1.17,22.92,-0.1369355,0.01009334,-0.4388916,-0.2189467,20.83889,-4.893199,0.3400584,-0.03,-0.02,-0.21,92.92
9844,58323242,0,1.36,-1.17,22.92,-0.1368615,0.01011503,-0.4384204,-0.219819,20.83889,-4.893199,0.3377524,-0.03,-0.02,-0.21,92.92
9890,58333989,0,1.36,-1.17,22.92,-0.1373013,0.01017368,-0.4382742,-0.2187702,20.83889,-4.893199,0.3333734,-0.03,-0.02,-0.21,92.92
9931,58344168,0,1.36,-1.17,22.92,-0.1372117,0.01018478,-0.4377143,-0.2195135,20.83889,-4.893199,0.330977,-0.03,-0.02,-0.21,92.92
9971,58354178,0,1.36,-1.17,22.92,-0.1372189,0.01029136,-0.4371331,-0.221372,20.83889,-4.893199,0.3289246,-0.03,-0.02,-0.21,92.92
10012,58364053,0,1.36,-1.17,22.92,-0.1372844,0.01043748,-0.4366231,-0.2236955,20.83889,-4.893199,0.3267787,-0.03,-0.02,-0.21,92.92
10050,58377703,0,1.36,-1.17,22.92,-0.1373312,0.01024138,-0.4362776,-0.2245688,20.83889,-4.893199,0.3237911,-0.03,-0.02,-0.21,92.92
10091,58387685,0,1.36,-1.17,22.92,-0.1371849,0.01035394,-0.4355803,-0.2256542,20.83889,-4.893199,0.3220068,-0.03,-0.02,-0.21,92.92
10132,58398135,0,1.35,-1.17,22.92,-0.1368502,0.010406,-0.4352699,-0.2273833,20.83889,-4.893199,0.3196868,-0.03,-0.02,-0.21,92.92
10172,58408625,0,1.35,-1.17,22.92,-0.1372858,0.01022751,-0.435394,-0.2270118,20.83889,-4.893199,0.3153379,-0.03,-0.02,-0.21,92.92
10213,58418621,0,1.36,-1.17,22.92,-0.1371233,0.01014257,-0.4347932,-0.2277307,20.83889,-4.893199,0.3133594,-0.03,-0.02,-0.21,92.92
10253,58428611,0,1.36,-1.17,22.92,-0.1371634,0.01013527,-0.4343379,-0.2289096,20.83889,-4.893199,0.3112854,-0.03,-0.02,-0.21,92.92
10299,58439343,0,1.36,-1.17,22.92,-0.1369897,0.01016266,-0.433482,-0.2292216,20.83889,-4.893199,0.3086846,-0.03,-0.02,-0.21,92.92
10340,58449490,0,1.36,-1.17,22.92,-0.136968,0.0103394,-0.4328559,-0.2317551,20.83889,-4.893199,0.3064353,-0.03,-0.02,-0.21,92.92
10380,58459568,0,1.36,-1.17,22.92,-0.1370132,0.0103922,-0.4323492,-0.23509,20.83889,-4.893199,0.3041027,-0.03,-0.02,-0.21,92.92
10424,58473082,0,1.36,-1.17,22.92,-0.1368281,0.01034952,-0.4317947,-0.2367117,20.83889,-4.893199,0.301538,-0.03,-0.02,-0.21,92.92
10468,58485381,0,1.36,-1.17,22.91,-0.1368635,0.01031735,-0.4312119,-0.233613,20.83889,-4.893199,0.2988533,-0.03,-0.02,-0.21,92.92
10508,58495658,0,1.36,-1.17,22.91,-0.1367067,0.01019064,-0.4307415,-0.2298394,20.83889,-4.893199,0.2973388,-0.03,-0.02,-0.21,92.92
10549,58506668,0,1.36,-1.17,22.91,-0.1364917,0.01031904,-0.4300553,-0.2236332,20.83889,-4.893199,0.295277,-0.03,-0.02,-0.21,92.92
10589,58517060,0,1.36,-1.17,22.91,-0.1362782,0.01038421,-0.4293518,-0.2198011,20.83889,-4.893199,0.293539,-0.03,-0.02,-0.21,92.92
10632,58527317,0,1.36,-1.17,22.91,-0.1362036,0.01031512,-0.4289108,-0.2151379,20.82776,-4.885138,0.2912643,-0.03,-0.02,-0.21,92.92
10668,58568024,0,1.35,-1.17,22.9,-0.1362888,0.01024373,-0.4275309,-0.2165284,20.82776,-4.885138,0.2809141,-0.03,-0.02,-0.21,92.92
10712,58580979,0,1.35,-1.17,22.9,-0.1361821,0.01019147,-0.4266642,-0.2160129,20.82776,-4.885138,0.278892,-0.03,-0.02,-0.21,92.92
10752,58590995,0,1.35,-1.17,22.9,-0.1360655,0.009874509,-0.4259477,-0.2137751,20.82776,-4.885138,0.278423,-0.03,-0.02,-0.21,92.92
10793,58601696,0,1.35,-1.17,22.9,-0.1364395,0.009895604000000001,-0.4259821,-0.204907,20.82776,-4.885138,0.2741681,-0.03,-0.02,-0.21,92.92
10834,58611915,0,1.35,-1.17,22.9,-0.1363321,0.01003228,-0.425199,-0.1963813,20.82776,-4.885138,0.2735556,-0.03,-0.02,-0.21,92.92
10874,58622057,0,1.35,-1.17,22.89,-0.1364242,0.01013423,-0.4240546,-0.1874729,20.82776,-4.885138,0.2723774,-0.03,-0.02,-0.21,92.92
10915,58632064,0,1.35,-1.17,22.89,-0.1363865,0.01008126,-0.4233727,-0.1800046,20.82776,-4.885138,0.2714824,-0.03,-0.02,-0.21,92.92
10959,58642057,0,1.36,-1.17,22.89,-0.1361841,0.01016473,-0.4226082,-0.1750413,20.82776,-4.885138,0.2704572,-0.03,-0.02,-0.2,92.92
11000,58652768,0,1.35,-1.17,22.89,-0.1365744,0.0101677,-0.4225714,-0.1679057,20.82776,-4.885138,0.2662359,-0.03,-0.02,-0.2,92.92
11043,58662763,0,1.35,-1.17,22.89,-0.13648,0.01018536,-0.4216972,-0.1632326,20.82776,-4.885138,0.2650959,-0.03,-0.02,-0.2,92.92
11084,58673232,0,1.36,-1.17,22.89,-0.1363816,0.01025673,-0.4209743,-0.1576339,20.82776,-4.885138,0.2638243,-0.03,-0.02,-0.21,92.92
11125,58683127,0,1.35,-1.17,22.89,-0.1361082,0.01043523,-0.4202184,-0.1533635,20.82776,-4.885138,0.2627887,-0.03,-0.02,-0.21,92.92
11166,58693580,0,1.35,-1.17,22.88,-0.1359354,0.01041105,-0.4195123,-0.1463391,20.82776,-4.885138,0.2620219,-0.03,-0.02,-0.2,92.92
11207,58704073,0,1.35,-1.17,22.88,-0.1356525,0.01049831,-0.4189011,-0.1412824,20.82776,-4.885138,0.2607017,-0.03,-0.02,-0.2,92.92
11249,58714027,0,1.35,-1.17,22.88,-0.1353233,0.01070679,-0.417881,-0.1395188,20.82776,-4.877077,0.2596707,-0.03,-0.02,-0.2,92.92
11290,58724492,0,1.35,-1.17,22.88,-0.1352204,0.01076548,-0.4169486,-0.1360128,20.82776,-4.877077,0.2585067,-0.03,-0.02,-0.21,92.92
11333,58735137,0,1.35,-1.17,22.88,-0.1351483,0.01078737,-0.4161489,-0.1321462,20.82776,-4.877077,0.2568031,-0.03,-0.02,-0.21,92.92
11378,58745518,0,1.35,-1.17,22.88,-0.1354935,0.01077908,-0.4161234,-0.1294572,20.82776,-4.877077,0.2526461,-0.03,-0.02,-0.21,92.92
11419,58756137,0,1.35,-1.17,22.88,-0.1353656,0.01076515,-0.4153844,-0.1303671,20.82776,-4.877077,0.2508404,-0.03,-0.02,-0.21,92.92
11459,58766150,0,1.35,-1.17,22.88,-0.1352885,0.0108875,-0.4150085,-0.1364408,20.82776,-4.877077,0.2493484,-0.03,-0.02,-0.2,92.92
11501,58776140,0,1.35,-1.17,22.88,-0.1353185,0.01092988,-0.4141448,-0.1438954,20.82776,-4.877077,0.2477533,-0.03,-0.02,-0.2,92.92
11542,58786610,0,1.35,-1.17,22.88,-0.1356592,0.01100067,-0.4142746,-0.1495684,20.82776,-4.877077,0.2436157,-0.03,-0.02,-0.2,92.92
11580,58797170,0,1.35,-1.17,22.88,-0.1352972,0.01100815,-0.4134119,-0.1531649,20.82776,-4.877077,0.2426911,-0.03,-0.02,-0.2,92.92
11622,58807512,0,1.35,-1.17,22.88,-0.1352781,0.01099095,-0.4125461,-0.153406,20.82776,-4.877077,0.2416169,-0.03,-0.02,-0.2,92.92
11659,58817929,0,1.35,-1.17,22.88,-0.1350464,0.01115062,-0.4114928,-0.1521014,20.82776,-4.877077,0.2408157,-0.03,-0.02,-0.2,92.92
11700,58828033,0,1.35,-1.17,22.88,-0.1349858,0.01120852,-0.4108105,-0.1525472,20.82776,-4.877077,0.239883,-0.03,-0.02,-0.2,92.92
11740,58838329,0,1.35,-1.17,22.88,-0.135345,0.01119455,-0.4100608,-0.153491,20.82776,-4.877077,0.238413,-0.03,-0.02,-0.2,92.92
11790,58851391,0,1.35,-1.17,22.88,-0.1354299,0.01113517,-0.4094472,-0.1543191,20.82776,-4.877077,0.2360075,-0.03,-0.02,-0.2,92.92
11830,58861773,0,1.35,-1.17,22.88,-0.1357513,0.01102965,-0.4094768,-0.1543471,20.82776,-4.877077,0.2319165,-0.03,-0.02,-0.2,92.92
11871,58872028,0,1.35,-1.17,22.88,-0.1357611,0.01102569,-0.4086751,-0.1559253,20.82776,-4.877077,0.2306318,-0.03,-0.02,-0.2,92.92
11914,58882082,0,1.35,-1.17,22.88,-0.1357073,0.01104515,-0.4079017,-0.1616186,20.82776,-4.877077,0.2292479,-0.03,-0.02,-0.2,92.92
11958,58897407,0,1.35,-1.17,22.88,-0.1357955,0.01075205,-0.4069602,-0.1639964,20.82776,-4.877077,0.2266023,-0.03,-0.02,-0.2,92.92
11998,58907129,0,1.35,-1.17,22.88,-0.1355787,0.01077591,-0.4058639,-0.159872,20.82776,-4.877077,0.2262352,-0.03,-0.02,-0.2,92.92
12041,58918104,0,1.35,-1.17,22.87,-0.1354617,0.01087516,-0.4051999,-0.1569806,20.82776,-4.877077,0.2257205,-0.03,-0.02,-0.2,92.92
12082,58928077,0,1.35,-1.17,22.87,-0.135331,0.01087992,-0.4044109,-0.1535483,20.82776,-4.877077,0.2250582,-0.03,-0.02,-0.2,92.92
12123,58938227,0,1.35,-1.17,22.87,-0.1352599,0.01108027,-0.4036736,-0.147244,20.82776,-4.877077,0.223847,-0.03,-0.02,-0.2,92.92
12164,58948630,0,1.35,-1.17,22.87,-0.1356456,0.01095614,-0.4035925,-0.1407573,20.82776,-4.877077,0.219815,-0.03,-0.02,-0.2,92.92
12208,58959152,0,1.35,-1.17,22.87,-0.1356857,0.01108277,-0.4029796,-0.1372419,20.82776,-4.877077,0.2184837,-0.03,-0.02,-0.2,92.92
12249,58969153,0,1.35,-1.17,22.87,-0.1357635,0.01122962,-0.402253,-0.1363919,20.82776,-4.877077,0.2174315,-0.03,-0.02,-0.2,92.92
12290,58979340,0,1.35,-1.17,22.87,-0.1357404,0.01129865,-0.4015703,-0.1367763,20.82776,-4.877077,0.216258,-0.03,-0.02,-0.2,92.92
12330,58990224,0,1.35,-1.17,22.87,-0.1352692,0.01121722,-0.4005044,-0.134988,20.82776,-4.877077,0.2157315,-0.03,-0.02,-0.2,92.92
12374,59003237,0,1.35,-1.17,22.87,-0.1351467,0.01120582,-0.3995346,-0.1275637,20.82776,-4.877077,0.2142416,-0.03,-0.02,-0.2,92.92
12415,59013357,0,1.35,-1.17,22.86,-0.1349221,0.0112049,-0.3984403,-0.1238518,20.82776,-4.877077,0.2138078,-0.03,-0.02,-0.2,92.92
12455,59023342,0,1.35,-1.17,22.86,-0.1346508,0.011155,-0.3977754,-0.1210757,20.82776,-4.877077,0.2132273,-0.03,-0.02,-0.2,92.92
12497,59034113,0,1.35,-1.17,22.86,-0.1344909,0.01094698,-0.3971749,-0.11621,20.82776,-4.877077,0.2121002,-0.03,-0.02,-0.2,92.92
12538,59045005,0,1.35,-1.17,22.86,-0.1349746,0.01098422,-0.3972998,-0.1115499,20.82776,-4.877077,0.2081319,-0.03,-0.02,-0.2,92.92
12582,59055042,0,1.35,-1.17,22.86,-0.1348568,0.01106263,-0.3966373,-0.1100518,20.82776,-4.877077,0.2072786,-0.03,-0.02,-0.2,92.92
12623,59065579,0,1.35,-1.17,22.86,-0.134731,0.01119761,-0.3957158,-0.1085962,20.82776,-4.877077,0.2058952,-0.03,-0.02,-0.2,92.92
12664,59076169,0,1.35,-1.17,22.86,-0.1347054,0.011119,-0.3951118,-0.1107372,20.82776,-4.877077,0.2043971,-0.03,-0.02,-0.2,92.92
12705,59086325,0,1.35,-1.17,22.86,-0.1349538,0.01099541,-0.3945563,-0.1142866,20.82776,-4.877077,0.2031738,-0.03,-0.02,-0.2,92.92
12742,59097120,0,1.35,-1.17,22.86,-0.1347812,0.01114086,-0.3935854,-0.1156575,20.82776,-4.877077,0.2029741,-0.03,-0.02,-0.2,92.92
12785,59107209,0,1.35,-1.17,22.86,-0.1345786,0.01120454,-0.392816,-0.1128602,20.82776,-4.869015,0.2029921,-0.03,-0.02,-0.2,92.92
12825,59117199,0,1.35,-1.16,22.86,-0.1343707,0.01119486,-0.3918747,-0.1092457,20.82776,-4.869015,0.2028461,-0.03,-0.02,-0.2,92.92
12867,59127565,0,1.35,-1.16,22.85,-0.1346545,0.01121656,-0.3918418,-0.1023614,20.82776,-4.869015,0.1989311,-0.03,-0.02,-0.2,92.92
12908,59138097,0,1.35,-1.16,22.85,-0.1344395,0.0110902,-0.390854,-0.09755124,20.82776,-4.869015,0.1982538,-0.03,-0.02,-0.2,92.92
12948,59148128,0,1.35,-1.16,22.85,-0.1342658,0.01127872,-0.3898671,-0.09531338,20.82776,-4.869015,0.1978285,-0.03,-0.02,-0.2,92.92
12993,59158090,0,1.35,-1.17,22.85,-0.134031,0.01131801,-0.3889637,-0.09412029,20.82776,-4.869015,0.1972588,-0.03,-0.02,-0.2,92.92
13034,59168744,0,1.35,-1.17,22.85,-0.1338985,0.01138374,-0.3879753,-0.09273618,20.82776,-4.869015,0.1965484,-0.03,-0.02,-0.2,92.92
13075,59179356,0,1.35,-1.17,22.85,-0.1342859,0.01150778,-0.3882471,-0.09448371999999999,20.82776,-4.869015,0.1922838,-0.03,-0.02,-0.2,92.92
13116,59189530,0,1.35,-1.17,22.85,-0.1341954,0.01142469,-0.3877205,-0.0985993,20.82776,-4.869015,0.1914699,-0.03,-0.02,-0.2,92.92
13156,59199974,0,1.35,-1.17,22.85,-0.1337937,0.01164406,-0.3865172,-0.09890127999999999,20.82776,-4.869015,0.1922328,-0.03,-0.02,-0.2,92.92
13198,59213249,0,1.35,-1.17,22.85,-0.1336212,0.01161477,-0.3857106,-0.09110675,20.82776,-4.869015,0.191256,-0.03,-0.02,-0.2,92.92
13238,59223710,0,1.35,-1.17,22.85,-0.1333915,0.01155597,-0.3846005,-0.08140958,20.82776,-4.869015,0.1916314,-0.03,-0.02,-0.2,92.92
13281,59233363,0,1.35,-1.16,22.85,-0.133169,0.01157803,-0.3834179,-0.07800724000000001,20.82776,-4.869015,0.1918571,-0.03,-0.02,-0.2,92.92
13323,59243344,0,1.35,-1.16,22.84,-0.1329815,0.01165515,-0.3826096,-0.074922,20.82776,-4.869015,0.1919161,-0.03,-0.02,-0.2,92.92
13363,59254086,0,1.34,-1.16,22.84,-0.1329187,0.01176056,-0.38148,-0.06855406999999999,20.82776,-4.869015,0.1914257,-0.03,-0.02,-0.2,92.92
13409,59265041,0,1.34,-1.16,22.84,-0.1334201,0.01188951,-0.3811254,-0.0620785,20.82776,-4.869015,0.1876173,-0.03,-0.02,-0.2,92.92
13449,59275098,0,1.34,-1.16,22.84,-0.1330787,0.01178838,-0.3803,-0.05940018,20.82776,-4.869015,0.1869932,-0.03,-0.02,-0.2,92.92
13490,59285122,0,1.34,-1.17,22.84,-0.1328299,0.01190394,-0.3794841,-0.05714538,20.82776,-4.869015,0.1865978,-0.03,-0.02,-0.2,92.92
13530,59295186,0,1.35,-1.17,22.84,-0.1327935,0.01201756,-0.3783585,-0.05678983,20.82776,-4.869015,0.1860634,-0.03,-0.02,-0.2,92.92
13568,59305659,0,1.35,-1.17,22.84,-0.1326786,0.01196333,-0.377362,-0.05670113,20.82776,-4.869015,0.1870217,-0.03,-0.02,-0.19,92.92
13612,59316125,0,1.35,-1.17,22.84,-0.1325173,0.01191303,-0.3762387,-0.0503113,20.83889,-4.860954,0.1873986,-0.03,-0.02,-0.2,92.92
13649,59326559,0,1.35,-1.17,22.83,-0.132323,0.01188029,-0.3752438,-0.04293796,20.83889,-4.860954,0.1879624,-0.03,-0.02,-0.2,92.92
13690,59336563,0,1.35,-1.17,22.83,-0.132231,0.01182025,-0.3742012,-0.03685019,20.83889,-4.860954,0.1883484,-0.03,-0.02,-0.2,92.92
13731,59347068,0,1.35,-1.17,22.83,-0.1328704,0.01180184,-0.3740198,-0.02856748,20.83889,-4.860954,0.1846116,-0.03,-0.02,-0.2,92.92
13772,59357040,0,1.35,-1.17,22.83,-0.1327301,0.01180153,-0.3729786,-0.02414502,20.83889,-4.860954,0.1848456,-0.03,-0.02,-0.2,92.92
13818,59367105,0,1.35,-1.17,22.83,-0.1326532,0.01169452,-0.3719023,-0.02156587,20.83889,-4.860954,0.1849185,-0.03,-0.02,-0.2,92.92
13858,59377227,0,1.35,-1.17,22.83,-0.1324885,0.01169707,-0.3709359,-0.0191483,20.83889,-4.860954,0.1844565,-0.03,-0.02,-0.2,92.92
13900,59388032,0,1.34,-1.17,22.83,-0.1325379,0.01160636,-0.3703143,-0.02165905,20.83889,-4.860954,0.1842236,-0.03,-0.02,-0.2,92.92
13940,59400615,0,1.34,-1.17,22.82,-0.1322949,0.01174483,-0.3692189,-0.02315417,20.83889,-4.860954,0.183964,-0.03,-0.02,-0.2,92.92
13981,59411000,0,1.34,-1.17,22.82,-0.1319256,0.01171006,-0.3683634,-0.02174462,20.83889,-4.860954,0.1846183,-0.03,-0.02,-0.19,92.92
14022,59421097,0,1.34,-1.17,22.82,-0.1317682,0.01190979,-0.3671895,-0.02075381,20.83889,-4.860954,0.184735,-0.03,-0.02,-0.19,92.92
14063,59431616,0,1.34,-1.17,22.82,-0.1320625,0.01199606,-0.3673252,-0.01762035,20.83889,-4.860954,0.1810661,-0.03,-0.02,-0.19,92.92
14104,59442187,0,1.34,-1.17,22.82,-0.1318912,0.01192133,-0.3660052,-0.0166422,20.83889,-4.860954,0.1810299,-0.03,-0.02,-0.19,92.92
14144,59453143,0,1.34,-1.17,22.81,-0.1318056,0.01198124,-0.3649714,-0.01513256,20.83889,-4.860954,0.1811923,-0.03,-0.02,-0.19,92.92
14186,59463086,0,1.34,-1.17,22.81,-0.1317322,0.01206759,-0.3639876,-0.01685378,20.83889,-4.860954,0.180841,-0.03,-0.02,-0.19,92.92
14230,59473100,0,1.34,-1.17,22.81,-0.1315754,0.0121692,-0.3628882,-0.01974508,20.83889,-4.860954,0.1807033,-0.03,-0.02,-0.19,92.92
14272,59483057,0,1.35,-1.17,22.81,-0.1314712,0.01205123,-0.3617876,-0.02582616,20.83889,-4.860954,0.1804307,-0.03,-0.02,-0.19,92.92
14312,59493897,0,1.35,-1.17,22.81,-0.1319574,0.01184632,-0.3617204,-0.02991047,20.83889,-4.860954,0.1768173,-0.03,-0.02,-0.19,92.92
14353,59504068,0,1.35,-1.17,22.81,-0.1318206,0.01177838,-0.3607438,-0.03618951,20.83889,-4.860954,0.1764221,-0.03,-0.02,-0.19,92.92
14393,59514539,0,1.35,-1.17,22.81,-0.1313422,0.01188805,-0.3595531,-0.04256385,20.83889,-4.860954,0.1766436,-0.03,-0.02,-0.19,92.92
14433,59525115,0,1.35,-1.17,22.81,-0.1310814,0.01196428,-0.3583841,-0.04376329,20.83889,-4.852893,0.1766881,-0.03,-0.02,-0.19,92.92
14474,59535064,0,1.35,-1.17,22.81,-0.1309545,0.01197195,-0.3572626,-0.04431403,20.83889,-4.852893,0.176928,-0.03,-0.02,-0.19,92.92
14515,59545092,0,1.35,-1.17,22.81,-0.1307586,0.01203159,-0.3562148,-0.0470824,20.83889,-4.852893,0.1770168,-0.03,-0.02,-0.19,92.92
14557,59555438,0,1.35,-1.18,22.81,-0.1312384,0.01204568,-0.3559077,-0.04644563,20.83889,-4.852893,0.1734604,-0.03,-0.02,-0.19,92.92
14597,59565440,0,1.35,-1.17,22.8,-0.1311374,0.01205089,-0.3551879,-0.04696134,20.83889,-4.852893,0.1734079,-0.03,-0.02,-0.19,92.92
14642,59575419,0,1.35,-1.17,22.8,-0.1309,0.0119152,-0.3544889,-0.04736054,20.83889,-4.852893,0.1732002,-0.03,-0.02,-0.19,92.92
14683,59585440,0,1.35,-1.17,22.8,-0.1307564,0.01197211,-0.3537721,-0.04936108,20.83889,-4.852893,0.1728518,-0.03,-0.02,-0.19,92.92
14723,59595536,0,1.35,-1.17,22.8,-0.1307424,0.01207863,-0.353092,-0.05737374,20.83889,-4.852893,0.1723927,-0.03,-0.02,-0.19,92.92
14765,59608702,0,1.35,-1.17,22.8,-0.1307081,0.01222013,-0.352076,-0.06216795,20.83889,-4.852893,0.1721732,-0.03,-0.02,-0.19,92.92
14805,59619035,0,1.35,-1.17,22.8,-0.131166,0.01229317,-0.3517104,-0.0632364,20.83889,-4.852893,0.1686577,-0.03,-0.02,-0.19,92.92
14846,59629016,0,1.35,-1.17,22.8,-0.1309025,0.01239991,-0.3505157,-0.06324837,20.83889,-4.852893,0.1693509,-0.03,-0.02,-0.19,92.92
14886,59639026,0,1.34,-1.17,22.8,-0.1305549,0.01254402,-0.3494148,-0.06149507,20.83889,-4.852893,0.1698685,-0.03,-0.02,-0.19,92.92
14926,59648789,0,1.34,-1.17,22.8,-0.1301337,0.01256921,-0.3485583,-0.06489432000000001,20.83889,-4.852893,0.1702403,-0.03,-0.02,-0.19,92.92
14968,59659378,0,1.34,-1.18,22.8,-0.1299302,0.01250692,-0.3479412,-0.06379045999999999,20.83889,-4.852893,0.170091,-0.03,-0.02,-0.19,92.92
15008,59669654,0,1.34,-1.18,22.8,-0.1304218,0.01234993,-0.3475035,-0.05982964,20.83889,-4.852893,0.1666175,-0.03,-0.02,-0.19,92.92
15054,59679642,0,1.34,-1.18,22.8,-0.1302283,0.01236996,-0.3465286,-0.05841875,20.83889,-4.852893,0.1666771,-0.03,-0.02,-0.19,92.92
15094,59689591,0,1.34,-1.18,22.8,-0.1300022,0.01228862,-0.3454264,-0.06216561,20.83889,-4.852893,0.1666087,-0.03,-0.02,-0.19,92.92
15137,59700233,0,1.34,-1.18,22.8,-0.1304015,0.01240542,-0.3454741,-0.06699165999999999,20.83889,-4.852893,0.1628125,-0.03,-0.02,-0.19,92.92
15178,59710147,0,1.34,-1.18,22.8,-0.1300243,0.01237947,-0.344473,-0.07066248999999999,20.83889,-4.852893,0.1626301,-0.03,-0.02,-0.19,92.92
15217,59720601,0,1.34,-1.18,22.8,-0.1299227,0.01265806,-0.3436851,-0.07727198,20.83889,-4.852893,0.1619714,-0.03,-0.02,-0.19,92.92
15258,59731381,0,1.34,-1.18,22.8,-0.1295646,0.01252738,-0.3424314,-0.07741515,20.83889,-4.852893,0.1628835,-0.03,-0.02,-0.19,92.92
15298,59741967,0,1.34,-1.18,22.8,-0.1292315,0.01240294,-0.3414798,-0.07557388,20.83889,-4.852893,0.1639463,-0.03,-0.02,-0.19,92.92
15339,59751897,0,1.34,-1.18,22.8,-0.1287546,0.01239595,-0.3405433,-0.07109604,20.83889,-4.852893,0.1648178,-0.03,-0.02,-0.19,92.92
15379,59762292,0,1.34,-1.18,22.8,-0.1286006,0.0123031,-0.3390976,-0.0606988,20.83889,-4.852893,0.1651578,-0.03,-0.02,-0.19,92.92
15420,59773394,0,1.34,-1.18,22.79,-0.1290236,0.01219518,-0.3385874,-0.04900118,20.83889,-4.852893,0.1614349,-0.03,-0.02,-0.19,92.92
15465,59783597,0,1.34,-1.18,22.79,-0.1287655,0.01222881,-0.337425,-0.04237389,20.83889,-4.852893,0.161974,-0.03,-0.02,-0.19,92.92
15507,59793996,0,1.34,-1.18,22.79,-0.1287061,0.01199384,-0.336731,-0.0373184,20.83889,-4.852893,0.1623449,-0.03,-0.02,-0.19,92.92
15548,59804024,0,1.34,-1.18,22.79,-0.1287002,0.01196976,-0.335716,-0.03520962,20.83889,-4.852893,0.1625634,-0.03,-0.02,-0.19,92.92
15591,59819972,0,1.34,-1.18,22.79,-0.1288322,0.01189378,-0.334227,-0.02660548,20.83889,-4.852893,0.1623405,-0.03,-0.02,-0.19,92.92
15632,59830253,0,1.34,-1.18,22.79,-0.128385,0.01183451,-0.3329588,-0.01475404,20.83889,-4.852893,0.1642195,-0.03,-0.02,-0.18,92.92
15674,59840198,0,1.34,-1.18,22.79,-0.1283231,0.01192622,-0.3316074,-0.00202197,20.83889,-4.852893,0.1658775,-0.03,-0.02,-0.18,92.92
15714,59850940,0,1.34,-1.18,22.79,-0.1281654,0.01195092,-0.3302398,0.01212014,20.83889,-4.852893,0.1673147,-0.03,-0.02,-0.19,92.92
15755,59860974,0,1.34,-1.18,22.79,-0.1279586,0.0120034,-0.3287168,0.0241057,20.83889,-4.852893,0.1685526,-0.03,-0.02,-0.19,92.92
15795,59871049,0,1.34,-1.18,22.79,-0.1277605,0.01198931,-0.3273937,0.03793233,20.83889,-4.852893,0.1692649,-0.03,-0.02,-0.19,92.92
15843,59882024,0,1.34,-1.18,22.79,-0.1282026,0.012055,-0.3273152,0.04933409,20.83889,-4.852893,0.1659944,-0.03,-0.02,-0.19,92.92
15884,59892003,0,1.34,-1.18,22.79,-0.1281583,0.01198819,-0.3262807,0.05542035,20.83889,-4.852893,0.1668701,-0.03,-0.02,-0.19,92.92
15925,59902247,0,1.34,-1.18,22.79,-0.1282647,0.01185402,-0.3251347,0.0574068,20.83889,-4.852893,0.1672541,-0.03,-0.02,-0.19,92.92
15965,59913197,0,1.33,-1.18,22.79,-0.1279158,0.01180094,-0.3237702,0.0625952,20.85002,-4.860954,0.169267,-0.03,-0.02,-0.19,92.92
16005,59923392,0,1.33,-1.18,22.79,-0.1274507,0.01169355,-0.3223207,0.06685617000000001,20.85002,-4.860954,0.1713793,-0.03,-0.02,-0.18,92.92
16046,59934008,0,1.33,-1.18,22.79,-0.1270131,0.01179833,-0.3208863,0.07170179,20.85002,-4.860954,0.1729559,-0.03,-0.02,-0.18,92.92
16087,59944559,0,1.33,-1.18,22.78,-0.1274347,0.01181258,-0.3208509,0.07976442,20.85002,-4.860954,0.1697503,-0.03,-0.02,-0.18,92.92
16128,59955132,0,1.33,-1.18,22.78,-0.1271842,0.01216196,-0.3194872,0.08543460999999999,20.85002,-4.860954,0.1711339,-0.03,-0.02,-0.18,92.92
16170,59966039,0,1.33,-1.18,22.78,-0.1267915,0.01230329,-0.3186186,0.09120868,20.85002,-4.860954,0.1726173,-0.03,-0.02,-0.18,92.92
16210,59975977,0,1.33,-1.18,22.78,-0.1266052,0.0122423,-0.3177132,0.09472339,20.85002,-4.860954,0.1738971,-0.03,-0.02,-0.18,92.92
16255,59985986,0,1.33,-1.18,22.78,-0.126341,0.01224093,-0.3162524,0.09424435,20.85002,-4.860954,0.1749974,-0.03,-0.02,-0.18,92.92
16296,59996044,0,1.33,-1.19,22.78,-0.1261067,0.01208811,-0.3154683,0.09117361,20.85002,-4.860954,0.1759155,-0.03,-0.02,-0.18,92.92
16337,60006210,0,1.33,-1.19,22.78,-0.1261812,0.01213526,-0.3141652,0.08969352,20.85002,-4.860954,0.1763355,-0.03,-0.02,-0.18,92.92
16378,60017089,0,1.33,-1.19,22.78,-0.1267645,0.012209,-0.3142918,0.08776142000000001,20.85002,-4.860954,0.1731973,-0.03,-0.02,-0.18,92.92
16419,60027394,0,1.33,-1.19,22.78,-0.1265428,0.0120379,-0.3129231,0.08861463,20.85002,-4.860954,0.1755726,-0.03,-0.02,-0.18,92.92
16459,60037764,0,1.33,-1.19,22.78,-0.1262976,0.01204249,-0.3114056,0.09545238,20.85002,-4.860954,0.1780074,-0.03,-0.02,-0.18,92.92
16500,60047670,0,1.33,-1.19,22.78,-0.1260483,0.01200327,-0.3101763,0.1023196,20.85002,-4.860954,0.1802086,-0.03,-0.02,-0.18,92.92
16541,60057681,0,1.33,-1.19,22.78,-0.1257776,0.01203151,-0.3090554,0.1057573,20.85002,-4.860954,0.182193,-0.03,-0.02,-0.18,92.92
16582,60068279,0,1.33,-1.19,22.78,-0.1258504,0.01209073,-0.3079401,0.1076425,20.85002,-4.860954,0.1836633,-0.03,-0.02,-0.18,92.92
16623,60079083,0,1.33,-1.19,22.78,-0.1263506,0.01214359,-0.3079144,0.1117835,20.85002,-4.860954,0.1805875,-0.03,-0.02,-0.18,92.92
16667,60089203,0,1.33,-1.19,22.78,-0.1261993,0.01225117,-0.3063803,0.1127523,20.85002,-4.860954,0.1818742,-0.03,-0.02,-0.18,92.92
16709,60100004,0,1.33,-1.19,22.78,-0.1261341,0.01239628,-0.3050435,0.1141525,20.85002,-4.860954,0.183264,-0.03,-0.02,-0.18,92.92
16751,60110000,0,1.33,-1.19,22.78,-0.1262253,0.01253386,-0.3040929,0.1128889,20.85002,-4.860954,0.1844628,-0.03,-0.02,-0.18,92.92
16793,60120032,0,1.34,-1.19,22.78,-0.126066,0.01279686,-0.3032818,0.1072467,20.85002,-4.860954,0.1854864,-0.03,-0.02,-0.18,92.92
16840,60136438,0,1.34,-1.19,22.78,-0.125864,0.01304046,-0.3018531,0.1025983,20.85002,-4.860954,0.1862194,-0.03,-0.02,-0.18,92.92
16881,60146454,0,1.35,-1.2,22.78,-0.1250954,0.01312266,-0.2999911,0.1071682,20.85002,-4.860954,0.188814,-0.03,-0.02,-0.18,92.92
16921,60157238,0,1.35,-1.2,22.78,-0.1238094,0.01325392,-0.2975183,0.1167089,20.85002,-4.860954,0.1908717,-0.03,-0.02,-0.18,92.92
16962,60167898,0,1.35,-1.21,22.78,-0.1219111,0.01393378,-0.2953703,0.1213799,20.85002,-4.860954,0.1930248,-0.03,-0.02,-0.18,92.92
17002,60178458,0,1.36,-1.23,22.77,-0.1199111,0.01528495,-0.292939,0.1293715,20.85002,-4.860954,0.1946689,-0.03,-0.02,-0.18,92.92
17044,60188995,0,1.37,-1.25,22.77,-0.1190447,0.01607632,-0.2909934,0.1325644,20.85002,-4.860954,0.1964078,-0.03,-0.02,-0.18,92.92
17088,60199509,0,1.38,-1.27,22.76,-0.1190897,0.01597252,-0.2900052,0.1361776,20.85002,-4.860954,0.1976538,-0.03,-0.02,-0.18,92.92
17130,60210084,0,1.39,-1.29,22.76,-0.1191869,0.01503062,-0.2893774,0.1386767,20.85002,-4.860954,0.1989855,-0.03,-0.02,-0.18,92.92
17172,60220094,0,1.4,-1.3,22.75,-0.1193522,0.01417725,-0.2897538,0.1407961,20.85002,-4.860954,0.1960935,-0.03,-0.02,-0.18,92.92
17211,60230403,0,1.41,-1.31,22.75,-0.1183465,0.01300099,-0.2881957,0.1442133,20.85002,-4.860954,0.1989188,-0.03,-0.02,-0.18,92.92
17249,60240644,0,1.41,-1.32,22.74,-0.1167904,0.01187338,-0.2861513,0.1477952,20.85002,-4.860954,0.2017986,-0.03,-0.02,-0.18,92.92
17289,60251114,0,1.41,-1.34,22.74,-0.1146016,0.01114025,-0.2840347,0.1555991,20.85002,-4.860954,0.2041469,-0.03,-0.02,-0.18,92.92
17330,60261433,0,1.4,-1.36,22.73,-0.1134048,0.01115786,-0.2821989,0.1610296,20.85002,-4.860954,0.2065585,-0.03,-0.02,-0.18,92.92
17372,60271377,0,1.4,-1.39,22.72,-0.1137659,0.01097866,-0.2812926,0.1609278,20.85002,-4.860954,0.2087607,-0.03,-0.02,-0.18,92.92
17412,60282024,0,1.39,-1.41,22.71,-0.115997,0.01008819,-0.2820602,0.1635425,20.85002,-4.860954,0.2059468,-0.03,-0.02,-0.18,92.92
17453,60291933,0,1.39,-1.42,22.71,-0.1189959,0.009488195,-0.2817341,0.1621578,20.85002,-4.860954,0.207945,-0.03,-0.02,-0.18,92.92
17497,60301978,0,1.39,-1.42,22.71,-0.1226605,0.009754041,-0.282319,0.1581991,20.85002,-4.860954,0.2097242,-0.03,-0.02,-0.18,92.92
17543,60312145,0,1.39,-1.42,22.71,-0.1255817,0.01068484,-0.2804603,0.1526854,20.83889,-4.860954,0.2113122,-0.03,-0.02,-0.18,92.92
17583,60322447,0,1.41,-1.4,22.71,-0.1268601,0.01184695,-0.2790074,0.1440801,20.83889,-4.860954,0.2124411,-0.03,-0.02,-0.18,92.92
17625,60333291,0,1.43,-1.4,22.72,-0.1257867,0.01290384,-0.2782227,0.1370313,20.83889,-4.860954,0.2093815,-0.03,-0.02,-0.18,92.92
17659,60344019,0,1.44,-1.42,22.72,-0.122898,0.01360421,-0.2766041,0.1317419,20.83889,-4.860954,0.2120845,-0.03,-0.02,-0.18,92.92
17700,60354545,0,1.45,-1.44,22.71,-0.120631,0.01310952,-0.2759253,0.1282392,20.83889,-4.860954,0.2148292,-0.03,-0.02,-0.18,92.92
17741,60364980,0,1.45,-1.47,22.71,-0.1185089,0.01269088,-0.2751624,0.1246253,20.83889,-4.860954,0.2173391,-0.03,-0.02,-0.18,92.92
17781,60374913,0,1.44,-1.5,22.7,-0.1157624,0.01354061,-0.2744518,0.1224847,20.83889,-4.860954,0.219621,-0.03,-0.02,-0.18,92.92
17822,60384965,0,1.43,-1.53,22.69,-0.1134835,0.01513904,-0.2738006,0.1264882,20.83889,-4.860954,0.2168819,-0.03,-0.02,-0.18,92.92
17863,60394874,0,1.42,-1.56,22.68,-0.1111391,0.01581378,-0.2720065,0.1278223,20.83889,-4.860954,0.2189778,-0.03,-0.02,-0.18,92.92
17910,60405154,0,1.41,-1.58,22.66,-0.1098339,0.01617654,-0.2709217,0.1259557,20.83889,-4.860954,0.220606,-0.03,-0.02,-0.18,92.92
17951,60415077,0,1.41,-1.59,22.65,-0.1103357,0.01792644,-0.2703039,0.1230009,20.83889,-4.860954,0.2223046,-0.03,-0.02,-0.18,92.92
17991,60425096,0,1.41,-1.59,22.64,-0.1121956,0.02030824,-0.2694015,0.1169472,20.83889,-4.860954,0.223818,-0.03,-0.02,-0.18,92.92
18032,60435590,0,1.43,-1.58,22.64,-0.1147421,0.02155611,-0.2692625,0.114338,20.83889,-4.860954,0.2211277,-0.03,-0.02,-0.18,92.92
18066,60446198,0,1.46,-1.57,22.65,-0.115841,0.02185804,-0.267609,0.1151787,20.83889,-4.860954,0.2241671,-0.03,-0.01,-0.18,92.92
18108,60456530,0,1.48,-1.58,22.66,-0.116168,0.02253494,-0.2665404,0.121942,20.83889,-4.860954,0.227208,-0.03,-0.01,-0.18,92.92
18148,60467016,0,1.51,-1.59,22.67,-0.1162118,0.02270388,-0.2657974,0.1290409,20.83889,-4.860954,0.2299991,-0.03,-0.01,-0.18,92.92
18189,60477008,0,1.54,-1.61,22.67,-0.1159999,0.02133512,-0.2650933,0.1329344,20.83889,-4.860954,0.232561,-0.03,-0.01,-0.18,92.92
18230,60487089,0,1.55,-1.65,22.68,-0.1156015,0.01887577,-0.2644841,0.1359513,20.83889,-4.860954,0.2348915,-0.03,-0.01,-0.18,92.92
18270,60497507,0,1.56,-1.69,22.69,-0.115686,0.01633262,-0.2633018,0.1428192,20.83889,-4.860954,0.2367303,-0.03,-0.01,-0.18,92.92
18317,60508123,0,1.56,-1.73,22.68,-0.1161708,0.01455144,-0.2619812,0.1490486,20.83889,-4.860954,0.2383568,-0.03,-0.02,-0.18,92.92
18359,60518632,0,1.55,-1.76,22.68,-0.1164353,0.0132522,-0.2597138,0.1551631,20.82776,-4.860954,0.2400435,-0.03,-0.02,-0.18,92.92
18403,60531961,0,1.54,-1.77,22.67,-0.1172452,0.01235308,-0.2564613,0.1647256,20.82776,-4.860954,0.2427708,-0.03,-0.01,-0.18,92.92
18446,60547395,0,1.55,-1.77,22.65,-0.1182939,0.01440846,-0.254013,0.1783293,20.82776,-4.860954,0.2445199,-0.03,-0.01,-0.18,92.92
18487,60557134,0,1.56,-1.77,22.64,-0.1183706,0.01594399,-0.2534009,0.1838022,20.82776,-4.860954,0.247552,-0.03,-0.01,-0.18,92.92
18528,60567125,0,1.58,-1.76,22.63,-0.1181254,0.01709289,-0.2535291,0.1844977,20.82776,-4.860954,0.2503487,-0.03,-0.01,-0.18,92.92
18568,60577140,0,1.61,-1.76,22.63,-0.1179566,0.01832431,-0.2554078,0.1886478,20.82776,-4.860954,0.2478074,-0.03,-0.01,-0.18,92.92
18610,60587215,0,1.64,-1.77,22.63,-0.1167617,0.0191489,-0.2557892,0.1912051,20.82776,-4.860954,0.2503526,-0.03,-0.01,-0.18,92.92
18651,60597101,0,1.66,-1.79,22.63,-0.1162907,0.01912514,-0.2553774,0.1901965,20.82776,-4.860954,0.2526771,-0.03,-0.01,-0.18,92.92
18696,60607092,0,1.69,-1.81,22.64,-0.1162476,0.01815115,-0.2539688,0.188377,20.82776,-4.860954,0.2547877,-0.03,-0.01,-0.18,92.92
18737,60617503,0,1.71,-1.83,22.66,-0.1167303,0.01679665,-0.2518047,0.1872101,20.82776,-4.860954,0.2566918,-0.03,-0.01,-0.18,92.92
18777,60627525,0,1.72,-1.84,22.67,-0.1179252,0.01513615,-0.2492322,0.1825867,20.82776,-4.860954,0.2581702,-0.03,-0.01,-0.18,92.92
18818,60640677,0,1.72,-1.86,22.69,-0.1187031,0.01312741,-0.246074,0.1802716,20.82776,-4.860954,0.2607954,-0.03,-0.01,-0.18,92.92
18859,60651096,0,1.72,-1.86,22.7,-0.1186161,0.01186664,-0.2441745,0.177942,20.82776,-4.860954,0.2636949,-0.03,-0.01,-0.18,92.92
18899,60661469,0,1.71,-1.87,22.7,-0.118419,0.0117915,-0.2441896,0.1811877,20.82776,-4.860954,0.2612567,-0.03,-0.01,-0.18,92.92
18940,60671497,0,1.71,-1.87,22.7,-0.1174867,0.01207576,-0.2435617,0.184076,20.82776,-4.860954,0.2641738,-0.03,-0.01,-0.18,92.92
18982,60681473,0,1.7,-1.88,22.7,-0.1163252,0.01284012,-0.242925,0.1880393,20.82776,-4.860954,0.2668445,-0.03,-0.01,-0.18,92.92
19022,60692082,0,1.7,-1.89,22.69,-0.1152195,0.01410458,-0.2423555,0.1898866,20.82776,-4.860954,0.2692915,-0.03,-0.01,-0.18,92.92
19064,60702342,0,1.71,-1.91,22.68,-0.1145324,0.01541462,-0.2410465,0.1928272,20.82776,-4.860954,0.2712761,-0.03,-0.01,-0.18,92.92
19108,60712329,0,1.72,-1.93,22.67,-0.1143618,0.01602987,-0.2402984,0.1914801,20.82776,-4.860954,0.2733073,-0.03,-0.01,-0.18,92.92
19155,60723083,0,1.74,-1.94,22.67,-0.1145932,0.01608746,-0.2390716,0.1841694,20.81662,-4.869015,0.2749243,-0.03,-0.01,-0.18,92.92
19195,60733415,0,1.76,-1.95,22.66,-0.1152958,0.01555512,-0.2395132,0.1784057,20.81662,-4.869015,0.2725339,-0.03,-0.01,-0.18,92.92
19236,60743397,0,1.78,-1.96,22.66,-0.1147299,0.01464723,-0.2385674,0.1699854,20.81662,-4.869015,0.2742201,-0.03,-0.01,-0.18,92.92
19275,60754198,0,1.8,-1.97,22.67,-0.1135639,0.01327587,-0.2373062,0.1648237,20.81662,-4.869015,0.277361,-0.03,-0.01,-0.18,92.92
19315,60764244,0,1.81,-1.97,22.67,-0.1123092,0.01193968,-0.234982,0.1673481,20.81662,-4.869015,0.2804859,-0.03,-0.01,-0.18,92.92
19356,60774117,0,1.81,-1.99,22.68,-0.1109138,0.01106413,-0.2326583,0.1707315,20.81662,-4.869015,0.2833875,-0.03,-0.01,-0.18,92.92
19399,60786977,0,1.81,-2,22.69,-0.1095275,0.009909697,-0.2299919,0.1738656,20.81662,-4.869015,0.2856286,-0.03,-0.01,-0.18,92.92
19440,60797142,0,1.8,-2.02,22.7,-0.1088784,0.008130569000000001,-0.2286506,0.1728779,20.81662,-4.869015,0.2879069,-0.03,-0.01,-0.18,92.92
19485,60807995,0,1.78,-2.04,22.7,-0.1099562,0.00659903,-0.2294519,0.1737166,20.81662,-4.869015,0.2856199,-0.03,-0.01,-0.18,92.92
19526,60818150,0,1.76,-2.05,22.7,-0.1115237,0.005687852,-0.230784,0.1695715,20.81662,-4.869015,0.2876921,-0.03,-0.01,-0.18,92.92
19568,60828116,0,1.75,-2.05,22.7,-0.1133017,0.005417939,-0.2320173,0.1632749,20.81662,-4.869015,0.2897815,-0.03,-0.01,-0.18,92.92
19608,60838767,0,1.73,-2.04,22.7,-0.1150692,0.005956423,-0.2329243,0.1544847,20.81662,-4.869015,0.2916676,-0.03,-0.01,-0.18,92.92
19649,60854395,0,1.73,-2.02,22.7,-0.1179514,0.008855759,-0.2313198,0.1510683,20.81662,-4.869015,0.2934993,-0.03,-0.01,-0.18,92.92
19690,60864631,0,1.74,-2.01,22.69,-0.1187115,0.01138988,-0.2282719,0.1561401,20.81662,-4.869015,0.2964867,-0.03,-0.01,-0.18,92.92
19731,60875020,0,1.76,-2.01,22.69,-0.1189308,0.01334342,-0.2249982,0.1592845,20.81662,-4.869015,0.2992772,-0.03,-0.01,-0.18,92.92
19772,60885005,0,1.78,-2.02,22.69,-0.119037,0.01429293,-0.222152,0.1619927,20.81662,-4.869015,0.3018686,-0.03,-0.01,-0.18,92.92
19813,60895316,0,1.8,-2.03,22.69,-0.1191237,0.01448055,-0.2199048,0.1675248,20.81662,-4.869015,0.3040332,-0.03,-0.01,-0.18,92.92
19855,60906042,0,1.82,-2.04,22.7,-0.1195553,0.01380188,-0.2199774,0.1722479,20.81662,-4.869015,0.3018366,-0.03,-0.01,-0.18,92.92
19901,60915929,0,1.83,-2.04,22.7,-0.1192604,0.0126778,-0.2198844,0.1719265,20.81662,-4.869015,0.3040432,-0.03,-0.01,-0.18,92.92
19946,60925964,0,1.83,-2.04,22.71,-0.1188133,0.01164359,-0.2196886,0.1697863,20.80549,-4.869015,0.3060469,-0.03,-0.01,-0.18,92.92
19987,60936231,0,1.83,-2.04,22.71,-0.1183273,0.0111623,-0.2192924,0.1676512,20.80549,-4.869015,0.3076298,-0.03,-0.01,-0.18,92.92
20025,60946602,0,1.82,-2.04,22.72,-0.1170276,0.01205149,-0.2178326,0.1657406,20.80549,-4.869015,0.3106893,-0.03,-0.01,-0.18,92.92
20065,60956213,0,1.82,-2.04,22.73,-0.1155118,0.01353528,-0.2162712,0.16307,20.80549,-4.869015,0.3135365,-0.03,-0.01,-0.18,92.92
20103,60967447,0,1.82,-2.04,22.74,-0.1139688,0.01546409,-0.2148856,0.1657392,20.80549,-4.869015,0.315943,-0.03,-0.01,-0.18,92.92
20144,60978109,0,1.83,-2.04,22.74,-0.1122189,0.01744466,-0.213859,0.1699661,20.80549,-4.869015,0.318135,-0.03,-0.01,-0.18,92.92
20184,60988497,0,1.85,-2.05,22.75,-0.1115049,0.01912604,-0.2138745,0.1746868,20.80549,-4.869015,0.3159982,-0.03,-0.01,-0.18,92.92
20226,60998420,0,1.87,-2.07,22.75,-0.110456,0.01990457,-0.2135196,0.1763427,20.80549,-4.869015,0.3182115,-0.03,-0.01,-0.18,92.92
20267,61008418,0,1.9,-2.08,22.75,-0.1096547,0.01982916,-0.2127992,0.170615,20.80549,-4.869015,0.3202618,-0.03,-0.01,-0.18,92.92
