LineNo,TimeUS,C,Roll,Pitch,Yaw,VN,VE,VD,dPD,PN,PE,PD,GX,GY,GZ,OH
534,5.5896e+07,0,1.31,-1.18,23.02,-0.092247,-0.016726,0.027023,-0.090858,20.906,-4.8932,1.3055,-0.03,-0.02,-0.24,92.92
765,5.5941e+07,0,1.3,-1.19,23.02,-0.094274,-0.015677,0.026597,-0.10155,20.906,-4.8932,1.3012,-0.03,-0.02,-0.24,92.92
990,5.5997e+07,0,1.31,-1.19,23.03,-0.096971,-0.01479,0.02538,-0.10981,20.906,-4.8932,1.2959,-0.03,-0.02,-0.24,92.92
1097,5.6037e+07,0,1.31,-1.19,23.04,-0.099455,-0.015037,0.024941,-0.10377,20.906,-4.8932,1.2929,-0.03,-0.02,-0.23,92.92
1557,5.6217e+07,0,1.32,-1.18,23.05,-0.10723,-0.013165,-0.46419,-0.50346,20.906,-4.9013,1.2428,-0.03,-0.02,-0.23,92.92
1575,5.6227e+07,0,1.31,-1.18,23.05,-0.10782,-0.013031,-0.4642,-0.50906,20.906,-4.9013,1.2369,-0.03,-0.02,-0.23,92.92
1616,5.6237e+07,0,1.31,-1.18,23.05,-0.10811,-0.01302,-0.46447,-0.51525,20.906,-4.9013,1.2309,-0.03,-0.02,-0.23,92.92
1657,5.6247e+07,0,1.31,-1.18,23.06,-0.10847,-0.012737,-0.4646,-0.52113,20.906,-4.9013,1.2251,-0.03,-0.02,-0.23,92.92
1699,5.626e+07,0,1.31,-1.18,23.06,-0.10911,-0.012471,-0.46496,-0.5294,20.906,-4.9013,1.2171,-0.03,-0.02,-0.22,92.92
1740,5.6271e+07,0,1.31,-1.18,23.05,-0.10974,-0.012285,-0.46523,-0.53803,20.906,-4.9013,1.2106,-0.03,-0.02,-0.23,92.92
1781,5.6281e+07,0,1.31,-1.18,23.05,-0.10997,-0.012087,-0.46582,-0.5473,20.906,-4.9013,1.2042,-0.03,-0.02,-0.23,92.92
1825,5.6291e+07,0,1.32,-1.18,23.05,-0.11047,-0.011888,-0.46619,-0.55838,20.906,-4.9013,1.1974,-0.03,-0.02,-0.23,92.92
1867,5.6302e+07,0,1.32,-1.18,23.05,-0.1108,-0.01194,-0.46603,-0.56815,20.906,-4.9013,1.1927,-0.03,-0.02,-0.23,92.92
1908,5.6312e+07,0,1.32,-1.18,23.05,-0.11115,-0.011602,-0.46597,-0.57559,20.906,-4.9013,1.1865,-0.03,-0.02,-0.23,92.92
1951,5.6322e+07,0,1.32,-1.18,23.04,-0.11147,-0.011312,-0.46633,-0.58582,20.895,-4.9013,1.1786,-0.03,-0.02,-0.23,92.92
1991,5.6335e+07,0,1.32,-1.18,23.04,-0.11187,-0.011247,-0.4668,-0.60157,20.895,-4.9013,1.17,-0.03,-0.02,-0.23,92.92
2031,5.6345e+07,0,1.32,-1.18,23.04,-0.11201,-0.011031,-0.46715,-0.61401,20.895,-4.9013,1.1629,-0.03,-0.02,-0.23,92.92
2073,5.6355e+07,0,1.32,-1.18,23.04,-0.11209,-0.01077,-0.46771,-0.62448,20.895,-4.9013,1.1559,-0.03,-0.02,-0.23,92.92
2116,5.6365e+07,0,1.32,-1.17,23.03,-0.11228,-0.010489,-0.46798,-0.63225,20.895,-4.9013,1.149,-0.03,-0.02,-0.23,92.92
2157,5.6376e+07,0,1.32,-1.17,23.03,-0.11265,-0.01047,-0.46785,-0.64099,20.895,-4.9013,1.1444,-0.03,-0.02,-0.23,92.92
2202,5.6386e+07,0,1.32,-1.17,23.03,-0.11299,-0.010151,-0.46825,-0.64733,20.895,-4.9013,1.1376,-0.03,-0.02,-0.23,92.92
2242,5.6396e+07,0,1.32,-1.17,23.03,-0.11342,-0.009854,-0.46872,-0.65226,20.895,-4.9013,1.1309,-0.03,-0.02,-0.23,92.92
2283,5.6406e+07,0,1.32,-1.17,23.03,-0.11372,-0.0095651,-0.46915,-0.65466,20.895,-4.9013,1.1243,-0.03,-0.02,-0.23,92.92
2325,5.6416e+07,0,1.32,-1.17,23.02,-0.11403,-0.0094365,-0.46953,-0.6557,20.895,-4.9013,1.1179,-0.03,-0.02,-0.23,92.92
2369,5.6429e+07,0,1.32,-1.17,23.02,-0.11451,-0.0090975,-0.46977,-0.65952,20.895,-4.9013,1.1082,-0.03,-0.02,-0.23,92.92
2406,5.644e+07,0,1.32,-1.17,23.02,-0.1148,-0.0088903,-0.47017,-0.66247,20.895,-4.9013,1.1007,-0.03,-0.02,-0.23,92.92
2447,5.645e+07,0,1.32,-1.17,23.02,-0.11533,-0.0086074,-0.47065,-0.66989,20.895,-4.9013,1.0927,-0.03,-0.02,-0.23,92.92
2488,5.6461e+07,0,1.32,-1.17,23.02,-0.11577,-0.0087521,-0.4706,-0.67832,20.895,-4.9013,1.088,-0.03,-0.02,-0.23,92.92
2528,5.6471e+07,0,1.32,-1.17,23.02,-0.11598,-0.0087573,-0.47113,-0.68467,20.895,-4.9013,1.0807,-0.03,-0.02,-0.23,92.92
2569,5.648e+07,0,1.32,-1.17,23.02,-0.11628,-0.0084993,-0.47165,-0.68993,20.895,-4.9013,1.0735,-0.03,-0.02,-0.23,92.92
2613,5.649e+07,0,1.33,-1.17,23.02,-0.11649,-0.0082279,-0.47223,-0.69271,20.895,-4.9013,1.0664,-0.03,-0.02,-0.23,92.92
2655,5.6501e+07,0,1.33,-1.17,23.02,-0.1168,-0.0080588,-0.47236,-0.69381,20.895,-4.9013,1.0595,-0.03,-0.02,-0.23,92.92
2696,5.6511e+07,0,1.33,-1.17,23.02,-0.11723,-0.0079742,-0.47269,-0.69572,20.895,-4.9013,1.0522,-0.03,-0.02,-0.23,92.92
2739,5.6522e+07,0,1.33,-1.17,23.02,-0.11761,-0.0080987,-0.47267,-0.69716,20.895,-4.9013,1.0474,-0.03,-0.02,-0.23,92.92
2780,5.6533e+07,0,1.33,-1.17,23.02,-0.11785,-0.007966,-0.47292,-0.69615,20.895,-4.9013,1.0401,-0.03,-0.02,-0.23,92.92
2820,5.6546e+07,0,1.33,-1.17,23.02,-0.11807,-0.0076576,-0.47394,-0.69393,20.895,-4.9013,1.0294,-0.03,-0.02,-0.23,92.92
2861,5.6557e+07,0,1.33,-1.16,23.02,-0.1184,-0.0075636,-0.47388,-0.69263,20.895,-4.9013,1.0247,-0.03,-0.02,-0.23,92.92
2903,5.6567e+07,0,1.33,-1.17,23.02,-0.11874,-0.0074405,-0.47433,-0.68923,20.895,-4.9013,1.0181,-0.03,-0.02,-0.23,92.92
2946,5.6577e+07,0,1.33,-1.17,23.02,-0.11899,-0.0070828,-0.47472,-0.68473,20.895,-4.9013,1.0116,-0.03,-0.02,-0.23,92.92
2987,5.6587e+07,0,1.33,-1.16,23.02,-0.1192,-0.0070077,-0.4754,-0.67875,20.895,-4.9013,1.0051,-0.03,-0.02,-0.23,92.92
3031,5.6597e+07,0,1.33,-1.16,23.02,-0.1192,-0.0067124,-0.47551,-0.67163,20.895,-4.9013,0.99879,-0.03,-0.02,-0.23,92.92
3073,5.6607e+07,0,1.33,-1.16,23.02,-0.11938,-0.006436,-0.47557,-0.66459,20.895,-4.9013,0.99205,-0.03,-0.02,-0.23,92.92
3113,5.6618e+07,0,1.33,-1.16,23.02,-0.11977,-0.0060999,-0.47542,-0.65858,20.895,-4.9013,0.9873,-0.03,-0.02,-0.23,92.92
3154,5.6628e+07,0,1.33,-1.16,23.02,-0.11996,-0.0056395,-0.47575,-0.65154,20.895,-4.9013,0.98111,-0.03,-0.02,-0.23,92.92
3192,5.6641e+07,0,1.33,-1.16,23.02,-0.12014,-0.0054097,-0.47611,-0.6418,20.895,-4.9013,0.97289,-0.03,-0.02,-0.23,92.92
3233,5.6651e+07,0,1.33,-1.16,23.02,-0.12013,-0.0051508,-0.47633,-0.63619,20.895,-4.9013,0.96664,-0.03,-0.02,-0.23,92.92
3274,5.6662e+07,0,1.33,-1.16,23.02,-0.1203,-0.0050588,-0.47643,-0.63025,20.895,-4.9013,0.96,-0.03,-0.02,-0.23,92.92
3315,5.6672e+07,0,1.33,-1.16,23.02,-0.1203,-0.0047498,-0.47674,-0.62472,20.895,-4.9013,0.95437,-0.03,-0.02,-0.23,92.92
3357,5.6682e+07,0,1.33,-1.16,23.02,-0.1204,-0.0045764,-0.4772,-0.61831,20.895,-4.9013,0.94786,-0.03,-0.02,-0.23,92.92
3398,5.6692e+07,0,1.33,-1.16,23.02,-0.12057,-0.0043592,-0.47755,-0.61146,20.895,-4.9013,0.94189,-0.03,-0.02,-0.23,92.92
3442,5.6703e+07,0,1.33,-1.16,23.02,-0.121,-0.0046101,-0.47799,-0.60517,20.895,-4.9013,0.9355,-0.03,-0.02,-0.23,92.92
3485,5.6713e+07,0,1.33,-1.16,23.02,-0.12141,-0.0047121,-0.47814,-0.60005,20.883,-4.9013,0.93072,-0.03,-0.02,-0.23,92.92
3525,5.6724e+07,0,1.33,-1.16,23.02,-0.12179,-0.0047403,-0.47798,-0.59315,20.883,-4.9013,0.92439,-0.03,-0.02,-0.23,92.92
3564,5.6734e+07,0,1.33,-1.16,23.02,-0.12191,-0.0044219,-0.47821,-0.58718,20.883,-4.9013,0.91867,-0.03,-0.02,-0.23,92.92
3602,5.6744e+07,0,1.33,-1.16,23.02,-0.12218,-0.0042536,-0.47819,-0.58035,20.883,-4.9013,0.913,-0.03,-0.02,-0.23,92.92
3645,5.6754e+07,0,1.33,-1.16,23.02,-0.12238,-0.0042497,-0.47848,-0.57344,20.883,-4.9013,0.90738,-0.03,-0.02,-0.23,92.92
3686,5.6765e+07,0,1.33,-1.16,23.02,-0.12296,-0.0043017,-0.47834,-0.5673,20.883,-4.9013,0.9026,-0.03,-0.02,-0.23,92.92
3726,5.6775e+07,0,1.33,-1.16,23.02,-0.12313,-0.0041064,-0.47831,-0.56093,20.883,-4.9013,0.89702,-0.03,-0.02,-0.23,92.92
3767,5.6785e+07,0,1.33,-1.16,23.02,-0.12315,-0.0040505,-0.47869,-0.55527,20.883,-4.9013,0.89148,-0.03,-0.02,-0.23,92.92
3807,5.6795e+07,0,1.33,-1.16,23.02,-0.12328,-0.0037617,-0.47895,-0.54958,20.883,-4.9013,0.88551,-0.03,-0.02,-0.23,92.92
3854,5.6805e+07,0,1.33,-1.16,23.02,-0.12334,-0.0035732,-0.47905,-0.54439,20.883,-4.9013,0.88006,-0.03,-0.02,-0.23,92.92
3894,5.6815e+07,0,1.33,-1.16,23.02,-0.12364,-0.0032858,-0.47887,-0.53874,20.883,-4.9013,0.87464,-0.03,-0.02,-0.23,92.92
3935,5.6825e+07,0,1.33,-1.16,23.02,-0.12404,-0.003247,-0.47862,-0.53402,20.883,-4.9013,0.86986,-0.03,-0.02,-0.23,92.92
3976,5.6838e+07,0,1.33,-1.16,23.02,-0.12426,-0.0031253,-0.47878,-0.52877,20.883,-4.9013,0.86353,-0.03,-0.02,-0.23,92.92
4013,5.6848e+07,0,1.33,-1.16,23.02,-0.12453,-0.0027554,-0.47861,-0.52312,20.883,-4.9013,0.85794,-0.03,-0.02,-0.23,92.92
4055,5.6858e+07,0,1.33,-1.16,23.02,-0.12462,-0.0024276,-0.47871,-0.51785,20.883,-4.9013,0.85286,-0.03,-0.02,-0.23,92.92
4096,5.6869e+07,0,1.33,-1.16,23.02,-0.12473,-0.0020241,-0.47868,-0.5123,20.883,-4.9013,0.84779,-0.03,-0.02,-0.23,92.92
4137,5.6879e+07,0,1.33,-1.16,23.02,-0.12487,-0.0018343,-0.47902,-0.50726,20.883,-4.9013,0.84275,-0.03,-0.02,-0.23,92.92
4178,5.6889e+07,0,1.33,-1.16,23.02,-0.12521,-0.0015003,-0.47902,-0.50187,20.883,-4.9013,0.83725,-0.03,-0.02,-0.23,92.92
4222,5.69e+07,0,1.33,-1.16,23.02,-0.12554,-0.0014818,-0.47899,-0.49741,20.883,-4.9013,0.83246,-0.03,-0.02,-0.23,92.92
4263,5.691e+07,0,1.33,-1.16,23.02,-0.12555,-0.001337,-0.47889,-0.49301,20.883,-4.9013,0.82746,-0.03,-0.02,-0.23,92.92
4305,5.692e+07,0,1.33,-1.16,23.02,-0.12563,-0.0011142,-0.47884,-0.48856,20.861,-4.9093,0.82199,-0.03,-0.02,-0.23,92.92
4345,5.693e+07,0,1.33,-1.16,23.02,-0.12575,-0.00087547,-0.47861,-0.48472,20.861,-4.9093,0.81703,-0.03,-0.02,-0.23,92.92
4382,5.6943e+07,0,1.33,-1.16,23.02,-0.12598,-0.00071446,-0.47846,-0.47972,20.861,-4.9093,0.81122,-0.03,-0.02,-0.23,92.92
4424,5.6953e+07,0,1.33,-1.16,23.02,-0.12638,-0.00080915,-0.47825,-0.47449,20.861,-4.9093,0.80644,-0.03,-0.02,-0.23,92.92
4466,5.6963e+07,0,1.33,-1.16,23.01,-0.12673,-0.00071212,-0.47822,-0.46873,20.861,-4.9093,0.80206,-0.03,-0.02,-0.23,92.92
4506,5.6973e+07,0,1.33,-1.16,23.01,-0.12692,-0.00082836,-0.47832,-0.46296,20.861,-4.9093,0.79767,-0.03,-0.02,-0.23,92.92
4548,5.6983e+07,0,1.34,-1.16,23.01,-0.12698,-0.0005872,-0.47832,-0.45661,20.861,-4.9093,0.79279,-0.03,-0.02,-0.23,92.92
4588,5.6993e+07,0,1.34,-1.16,23.01,-0.12729,-0.00032281,-0.47843,-0.45109,20.861,-4.9093,0.78839,-0.03,-0.02,-0.23,92.92
4633,5.7003e+07,0,1.34,-1.16,23.01,-0.12753,-0.00023094,-0.47827,-0.44576,20.861,-4.9093,0.78397,-0.03,-0.02,-0.23,92.92
4674,5.7014e+07,0,1.34,-1.16,23.01,-0.12796,-0.00011544,-0.47806,-0.44016,20.861,-4.9093,0.77908,-0.03,-0.02,-0.23,92.92
4714,5.7025e+07,0,1.34,-1.16,23.01,-0.12841,-0.00014875,-0.47794,-0.43552,20.861,-4.9093,0.77431,-0.03,-0.02,-0.23,92.92
4755,5.7034e+07,0,1.34,-1.16,23.02,-0.12859,5.397e-05,-0.47788,-0.43183,20.861,-4.9093,0.76989,-0.03,-0.02,-0.23,92.92
4789,5.7045e+07,0,1.34,-1.16,23.01,-0.12863,0.00030028,-0.47783,-0.42701,20.861,-4.9093,0.76558,-0.03,-0.02,-0.23,92.92
4832,5.7055e+07,0,1.34,-1.16,23.01,-0.12853,0.00060521,-0.47789,-0.42147,20.861,-4.9093,0.76171,-0.03,-0.02,-0.23,92.92
4872,5.7066e+07,0,1.34,-1.16,23.01,-0.12848,0.00059536,-0.4779,-0.41614,20.861,-4.9093,0.75782,-0.03,-0.02,-0.23,92.92
4913,5.7076e+07,0,1.34,-1.16,23.01,-0.12873,0.00069623,-0.47762,-0.41065,20.861,-4.9093,0.75389,-0.03,-0.02,-0.23,92.92
4954,5.7086e+07,0,1.34,-1.16,23.01,-0.12896,0.00092222,-0.47743,-0.40444,20.861,-4.9093,0.74947,-0.04,-0.02,-0.23,92.92
4994,5.7097e+07,0,1.34,-1.16,23.01,-0.12931,0.00097445,-0.47751,-0.39907,20.861,-4.9093,0.7447,-0.04,-0.02,-0.23,92.92
5039,5.7107e+07,0,1.34,-1.16,23.01,-0.12938,0.0011834,-0.47707,-0.39452,20.861,-4.9093,0.74073,-0.04,-0.02,-0.23,92.92
5079,5.7117e+07,0,1.34,-1.16,23.01,-0.12952,0.0015004,-0.47712,-0.39121,20.861,-4.9093,0.73626,-0.04,-0.02,-0.23,92.92
5122,5.7128e+07,0,1.34,-1.16,23.01,-0.12941,0.0016488,-0.47682,-0.389,20.861,-4.9013,0.73224,-0.04,-0.02,-0.23,92.92
5165,5.7141e+07,0,1.34,-1.16,23.01,-0.12975,0.0017282,-0.4764,-0.38637,20.861,-4.9013,0.72681,-0.04,-0.02,-0.23,92.92
5203,5.7151e+07,0,1.34,-1.16,23.01,-0.12974,0.0017196,-0.47611,-0.38462,20.861,-4.9013,0.72232,-0.04,-0.02,-0.23,92.92
5244,5.7161e+07,0,1.34,-1.16,23.01,-0.12999,0.001927,-0.4762,-0.38452,20.861,-4.9013,0.71828,-0.04,-0.02,-0.23,92.92
5284,5.7172e+07,0,1.34,-1.16,23.01,-0.13035,0.0020381,-0.47594,-0.38372,20.861,-4.9013,0.71352,-0.04,-0.02,-0.23,92.92
5325,5.7182e+07,0,1.34,-1.16,23.01,-0.13034,0.0020549,-0.47555,-0.38373,20.861,-4.9013,0.70947,-0.04,-0.02,-0.23,92.92
5365,5.7192e+07,0,1.35,-1.16,23.01,-0.13064,0.0022276,-0.4753,-0.38427,20.861,-4.9013,0.70539,-0.04,-0.02,-0.23,92.92
5406,5.7202e+07,0,1.35,-1.16,23.01,-0.1308,0.0022308,-0.47506,-0.38554,20.861,-4.9013,0.7013,-0.04,-0.02,-0.23,92.92
5451,5.7212e+07,0,1.35,-1.16,23.01,-0.13098,0.0023786,-0.47499,-0.38727,20.861,-4.9013,0.69719,-0.04,-0.02,-0.23,92.92
5491,5.7222e+07,0,1.35,-1.16,23.01,-0.13097,0.0024014,-0.47473,-0.3887,20.861,-4.9013,0.69258,-0.04,-0.02,-0.23,92.92
5532,5.7233e+07,0,1.35,-1.16,23,-0.13153,0.0023956,-0.47464,-0.38994,20.861,-4.9013,0.68784,-0.04,-0.02,-0.23,92.92
5572,5.7243e+07,0,1.35,-1.16,23,-0.1317,0.0025779,-0.47456,-0.39186,20.861,-4.9013,0.6837,-0.04,-0.02,-0.23,92.92
5613,5.7254e+07,0,1.35,-1.16,23,-0.13193,0.0026673,-0.47453,-0.39271,20.861,-4.9013,0.67936,-0.03,-0.02,-0.23,92.92
5653,5.7264e+07,0,1.35,-1.16,23,-0.13201,0.0027083,-0.47417,-0.39046,20.861,-4.9013,0.67593,-0.04,-0.02,-0.23,92.92
5695,5.7275e+07,0,1.35,-1.16,23,-0.13188,0.0028262,-0.47381,-0.38799,20.861,-4.9013,0.67245,-0.04,-0.02,-0.23,92.92
5736,5.7285e+07,0,1.35,-1.16,23,-0.13178,0.0031661,-0.47328,-0.3849,20.861,-4.9013,0.66893,-0.04,-0.02,-0.23,92.92
5776,5.7295e+07,0,1.35,-1.16,23,-0.13185,0.0033375,-0.47315,-0.3808,20.861,-4.9013,0.6649,-0.04,-0.02,-0.23,92.92
5817,5.7306e+07,0,1.35,-1.16,23,-0.13242,0.0034367,-0.47304,-0.37652,20.861,-4.9013,0.66017,-0.04,-0.02,-0.23,92.92
5862,5.7316e+07,0,1.35,-1.16,23,-0.13258,0.0034845,-0.47263,-0.37303,20.861,-4.9013,0.6561,-0.04,-0.02,-0.23,92.92
5905,5.7327e+07,0,1.35,-1.16,23,-0.13266,0.0036288,-0.47238,-0.37012,20.861,-4.9013,0.65246,-0.04,-0.02,-0.23,92.92
5945,5.7337e+07,0,1.35,-1.16,23,-0.13276,0.0036951,-0.47209,-0.36817,20.85,-4.9013,0.64832,-0.04,-0.02,-0.23,92.92
5986,5.7347e+07,0,1.35,-1.16,23,-0.13262,0.0038115,-0.47173,-0.36625,20.85,-4.9013,0.64527,-0.04,-0.02,-0.23,92.92
6027,5.7358e+07,0,1.35,-1.16,23,-0.13259,0.0039666,-0.47125,-0.36387,20.85,-4.9013,0.64216,-0.04,-0.02,-0.23,92.92
6069,5.7368e+07,0,1.35,-1.16,22.99,-0.13259,0.004119,-0.47073,-0.359,20.85,-4.9013,0.63852,-0.04,-0.02,-0.23,92.92
6110,5.7379e+07,0,1.35,-1.16,22.99,-0.13298,0.004133,-0.47095,-0.35402,20.85,-4.9013,0.63382,-0.04,-0.02,-0.23,92.92
6151,5.7389e+07,0,1.35,-1.16,22.99,-0.13302,0.0042743,-0.47045,-0.34942,20.85,-4.9013,0.63013,-0.04,-0.02,-0.23,92.92
6192,5.7399e+07,0,1.35,-1.16,22.99,-0.13308,0.0044263,-0.47022,-0.34696,20.85,-4.9013,0.62733,-0.04,-0.02,-0.23,92.92
6232,5.7409e+07,0,1.35,-1.16,22.99,-0.13326,0.004604,-0.46984,-0.34462,20.85,-4.9013,0.62353,-0.04,-0.02,-0.23,92.92
6277,5.742e+07,0,1.35,-1.16,22.99,-0.13331,0.0045155,-0.46978,-0.34377,20.85,-4.9013,0.61969,-0.04,-0.02,-0.23,92.92
6318,5.743e+07,0,1.35,-1.16,22.99,-0.13396,0.0044711,-0.46987,-0.34242,20.85,-4.9013,0.615,-0.04,-0.02,-0.23,92.92
6359,5.744e+07,0,1.35,-1.16,22.99,-0.13416,0.004489,-0.46951,-0.34198,20.85,-4.9013,0.61158,-0.04,-0.02,-0.23,92.92
6400,5.7451e+07,0,1.35,-1.16,22.99,-0.13436,0.004535,-0.46929,-0.34216,20.85,-4.9013,0.60812,-0.04,-0.02,-0.23,92.92
6440,5.7461e+07,0,1.35,-1.16,22.99,-0.13443,0.0046966,-0.46883,-0.34282,20.85,-4.9013,0.60437,-0.03,-0.02,-0.22,92.92
6481,5.7471e+07,0,1.35,-1.16,22.99,-0.13454,0.0048789,-0.46849,-0.34413,20.85,-4.9013,0.60103,-0.03,-0.02,-0.22,92.92
6521,5.7482e+07,0,1.35,-1.16,22.98,-0.13458,0.005027,-0.4682,-0.34426,20.85,-4.9013,0.59718,-0.03,-0.02,-0.22,92.92
6564,5.7492e+07,0,1.35,-1.16,22.98,-0.13501,0.0049957,-0.4683,-0.3439,20.85,-4.9013,0.5925,-0.03,-0.02,-0.22,92.92
6605,5.7502e+07,0,1.35,-1.16,22.98,-0.13496,0.0052858,-0.46812,-0.34397,20.85,-4.9013,0.58907,-0.03,-0.02,-0.22,92.92
6647,5.7512e+07,0,1.35,-1.16,22.98,-0.13484,0.0055687,-0.46781,-0.34397,20.85,-4.9013,0.5856,-0.04,-0.02,-0.22,92.92
6692,5.7523e+07,0,1.36,-1.16,22.98,-0.13482,0.0056453,-0.46711,-0.34476,20.85,-4.9013,0.58162,-0.04,-0.02,-0.22,92.92
6733,5.7533e+07,0,1.36,-1.16,22.98,-0.13484,0.0056153,-0.46658,-0.34612,20.85,-4.9013,0.57807,-0.04,-0.02,-0.22,92.92
6774,5.7543e+07,0,1.36,-1.16,22.98,-0.1348,0.005822,-0.46616,-0.34863,20.85,-4.9013,0.57448,-0.04,-0.02,-0.22,92.92
6814,5.7554e+07,0,1.36,-1.16,22.98,-0.1352,0.0058073,-0.46636,-0.35076,20.85,-4.9013,0.56982,-0.04,-0.02,-0.22,92.92
6855,5.7564e+07,0,1.36,-1.16,22.98,-0.13509,0.0059364,-0.46592,-0.35218,20.85,-4.9013,0.56656,-0.04,-0.02,-0.22,92.92
6896,5.7574e+07,0,1.36,-1.16,22.98,-0.13508,0.0060576,-0.46556,-0.35475,20.85,-4.9013,0.56278,-0.03,-0.02,-0.22,92.92
6937,5.7584e+07,0,1.36,-1.16,22.97,-0.13487,0.0061944,-0.46523,-0.35708,20.85,-4.9013,0.55943,-0.03,-0.02,-0.22,92.92
6978,5.7595e+07,0,1.36,-1.16,22.97,-0.13516,0.0062833,-0.46537,-0.3578,20.85,-4.9013,0.55478,-0.03,-0.02,-0.22,92.92
7019,5.7605e+07,0,1.36,-1.16,22.97,-0.13513,0.0063695,-0.46501,-0.35869,20.85,-4.9013,0.55091,-0.03,-0.02,-0.22,92.92
7061,5.7616e+07,0,1.36,-1.16,22.97,-0.13506,0.0064699,-0.46455,-0.35867,20.85,-4.9013,0.54746,-0.03,-0.02,-0.22,92.92
7106,5.7626e+07,0,1.35,-1.16,22.97,-0.13493,0.0066074,-0.46415,-0.35894,20.85,-4.9013,0.54397,-0.03,-0.02,-0.22,92.92
7147,5.7636e+07,0,1.35,-1.16,22.97,-0.1352,0.0067182,-0.46353,-0.35985,20.85,-4.9013,0.54044,-0.03,-0.02,-0.22,92.92
7188,5.7646e+07,0,1.35,-1.16,22.97,-0.13516,0.0067893,-0.46318,-0.36124,20.85,-4.9013,0.53688,-0.03,-0.02,-0.22,92.92
7231,5.7659e+07,0,1.35,-1.16,22.97,-0.13512,0.0068496,-0.46285,-0.36161,20.85,-4.9013,0.53162,-0.03,-0.02,-0.22,92.92
7275,5.7671e+07,0,1.36,-1.16,22.96,-0.13495,0.0071175,-0.4627,-0.36215,20.85,-4.9013,0.52724,-0.03,-0.02,-0.22,92.92
7315,5.7681e+07,0,1.36,-1.16,22.96,-0.13492,0.0070899,-0.46247,-0.36339,20.85,-4.9013,0.52374,-0.03,-0.02,-0.22,92.92
7354,5.7692e+07,0,1.36,-1.16,22.96,-0.13505,0.007137,-0.46198,-0.36358,20.85,-4.9013,0.51974,-0.03,-0.02,-0.22,92.92
7396,5.7703e+07,0,1.36,-1.16,22.96,-0.13553,0.0070936,-0.46179,-0.36343,20.85,-4.9013,0.51513,-0.03,-0.02,-0.22,92.92
7437,5.7713e+07,0,1.36,-1.16,22.96,-0.13563,0.0070666,-0.46176,-0.36449,20.85,-4.9013,0.51156,-0.03,-0.02,-0.22,92.92
7487,5.7725e+07,0,1.36,-1.16,22.96,-0.13579,0.007073,-0.4613,-0.36586,20.85,-4.9013,0.50657,-0.03,-0.02,-0.22,92.92
7528,5.7735e+07,0,1.36,-1.16,22.95,-0.13579,0.0071672,-0.4611,-0.36683,20.85,-4.9013,0.50292,-0.03,-0.02,-0.22,92.92
7570,5.7745e+07,0,1.36,-1.16,22.95,-0.13592,0.0070953,-0.46063,-0.36796,20.85,-4.9013,0.49925,-0.03,-0.02,-0.22,92.92
7611,5.7755e+07,0,1.36,-1.16,22.95,-0.13604,0.0070583,-0.46026,-0.36882,20.85,-4.9013,0.49554,-0.04,-0.02,-0.22,92.92
7650,5.7766e+07,0,1.36,-1.16,22.95,-0.13574,0.0069109,-0.45992,-0.37002,20.85,-4.9013,0.49204,-0.03,-0.02,-0.22,92.92
7693,5.7778e+07,0,1.35,-1.16,22.95,-0.13578,0.0070633,-0.45964,-0.36998,20.85,-4.9013,0.48712,-0.04,-0.02,-0.22,92.92
7736,5.779e+07,0,1.35,-1.16,22.95,-0.13577,0.0073194,-0.45935,-0.37064,20.85,-4.9013,0.48262,-0.04,-0.02,-0.22,92.92
7777,5.78e+07,0,1.35,-1.16,22.95,-0.13575,0.0075637,-0.45936,-0.37169,20.85,-4.9013,0.479,-0.04,-0.02,-0.22,92.92
7818,5.781e+07,0,1.35,-1.16,22.94,-0.13575,0.0077065,-0.45899,-0.37313,20.85,-4.9013,0.47535,-0.04,-0.02,-0.22,92.92
7859,5.7821e+07,0,1.35,-1.16,22.94,-0.13617,0.0078051,-0.45885,-0.37386,20.85,-4.9013,0.47077,-0.04,-0.02,-0.22,92.92
7906,5.7831e+07,0,1.35,-1.16,22.94,-0.13623,0.0078572,-0.45856,-0.37523,20.85,-4.9013,0.46709,-0.03,-0.02,-0.22,92.92
7947,5.7841e+07,0,1.35,-1.16,22.94,-0.13634,0.0078434,-0.45806,-0.37643,20.85,-4.9013,0.46338,-0.04,-0.02,-0.22,92.92
7988,5.7851e+07,0,1.35,-1.16,22.94,-0.13646,0.0078846,-0.45812,-0.37891,20.85,-4.9013,0.45918,-0.03,-0.02,-0.22,92.92
8032,5.7866e+07,0,1.35,-1.16,22.94,-0.13657,0.0079147,-0.45772,-0.37914,20.85,-4.9013,0.45441,-0.03,-0.02,-0.22,92.92
8073,5.7876e+07,0,1.35,-1.16,22.94,-0.13647,0.0080095,-0.4573,-0.37341,20.85,-4.9013,0.45185,-0.03,-0.02,-0.22,92.92
8114,5.7886e+07,0,1.35,-1.16,22.94,-0.13615,0.0080276,-0.45685,-0.36617,20.85,-4.9013,0.44922,-0.03,-0.02,-0.22,92.92
8156,5.7896e+07,0,1.35,-1.16,22.93,-0.13615,0.0079959,-0.45673,-0.35957,20.85,-4.9013,0.44605,-0.03,-0.02,-0.22,92.92
8196,5.7907e+07,0,1.35,-1.16,22.93,-0.13648,0.0079381,-0.45679,-0.35174,20.85,-4.9013,0.44149,-0.03,-0.02,-0.22,92.92
8238,5.7917e+07,0,1.35,-1.16,22.93,-0.13622,0.0079073,-0.45618,-0.34466,20.85,-4.9013,0.43871,-0.03,-0.02,-0.22,92.92
8284,5.7927e+07,0,1.35,-1.16,22.93,-0.13605,0.0079767,-0.4557,-0.3405,20.839,-4.9013,0.43588,-0.03,-0.02,-0.22,92.92
8325,5.7938e+07,0,1.35,-1.16,22.93,-0.13608,0.0081359,-0.45513,-0.33461,20.839,-4.9013,0.43252,-0.03,-0.02,-0.22,92.92
8367,5.7948e+07,0,1.35,-1.16,22.93,-0.13623,0.0082636,-0.45461,-0.33032,20.839,-4.9013,0.42911,-0.03,-0.02,-0.22,92.92
8407,5.7958e+07,0,1.35,-1.16,22.93,-0.13678,0.0083102,-0.45456,-0.32612,20.839,-4.9013,0.42457,-0.03,-0.02,-0.22,92.92
8448,5.7969e+07,0,1.35,-1.16,22.93,-0.13659,0.0083899,-0.45392,-0.31928,20.839,-4.9013,0.42291,-0.03,-0.02,-0.22,92.92
8488,5.7979e+07,0,1.35,-1.16,22.93,-0.13648,0.0087437,-0.45332,-0.30891,20.839,-4.9013,0.42068,-0.03,-0.02,-0.22,92.92
8528,5.7989e+07,0,1.35,-1.16,22.93,-0.13634,0.0089028,-0.45285,-0.29755,20.839,-4.9013,0.41879,-0.03,-0.02,-0.22,92.92
8568,5.8e+07,0,1.35,-1.16,22.93,-0.13638,0.0088911,-0.45257,-0.28808,20.839,-4.9013,0.41681,-0.03,-0.02,-0.22,92.92
8609,5.801e+07,0,1.35,-1.16,22.93,-0.1364,0.0089107,-0.45189,-0.27895,20.839,-4.9013,0.41472,-0.03,-0.02,-0.22,92.92
8652,5.802e+07,0,1.36,-1.16,22.93,-0.13641,0.0087789,-0.45116,-0.26805,20.839,-4.9013,0.41209,-0.03,-0.02,-0.22,92.92
8696,5.803e+07,0,1.36,-1.16,22.93,-0.13691,0.0087137,-0.4512,-0.25875,20.839,-4.9013,0.40759,-0.03,-0.02,-0.22,92.92
8737,5.804e+07,0,1.36,-1.17,22.93,-0.13682,0.0087318,-0.45072,-0.25406,20.839,-4.9013,0.40533,-0.03,-0.02,-0.22,92.92
8777,5.805e+07,0,1.36,-1.16,22.93,-0.13689,0.0088014,-0.45024,-0.25054,20.839,-4.9013,0.40299,-0.03,-0.02,-0.22,92.92
8819,5.806e+07,0,1.36,-1.16,22.93,-0.13699,0.0089401,-0.44985,-0.24947,20.839,-4.9013,0.40057,-0.03,-0.02,-0.22,92.92
8859,5.8071e+07,0,1.36,-1.17,22.93,-0.13736,0.0088566,-0.45007,-0.24759,20.839,-4.9013,0.39607,-0.03,-0.02,-0.22,92.92
8897,5.8081e+07,0,1.35,-1.16,22.93,-0.13722,0.008815,-0.44955,-0.24504,20.839,-4.9013,0.39438,-0.03,-0.02,-0.21,92.92
8937,5.8091e+07,0,1.35,-1.16,22.93,-0.13716,0.0086541,-0.44879,-0.2413,20.839,-4.9013,0.39258,-0.03,-0.02,-0.21,92.92
8977,5.8101e+07,0,1.35,-1.16,22.93,-0.13713,0.0087578,-0.44792,-0.23859,20.839,-4.9013,0.39068,-0.03,-0.02,-0.21,92.92
9019,5.8111e+07,0,1.35,-1.16,22.93,-0.13703,0.008861,-0.44769,-0.23683,20.839,-4.9013,0.38823,-0.03,-0.02,-0.21,92.92
9060,5.8122e+07,0,1.35,-1.16,22.93,-0.13751,0.0087881,-0.44738,-0.23316,20.839,-4.9013,0.38376,-0.03,-0.02,-0.21,92.92
9107,5.8132e+07,0,1.35,-1.17,22.93,-0.13737,0.0088346,-0.44689,-0.23151,20.839,-4.8932,0.38167,-0.03,-0.02,-0.21,92.92
9148,5.8142e+07,0,1.35,-1.16,22.93,-0.13749,0.0089137,-0.44634,-0.23048,20.839,-4.8932,0.37949,-0.03,-0.02,-0.21,92.92
9188,5.8152e+07,0,1.36,-1.17,22.93,-0.13765,0.0089242,-0.44588,-0.22922,20.839,-4.8932,0.37676,-0.03,-0.02,-0.21,92.92
9230,5.8162e+07,0,1.36,-1.17,22.93,-0.13775,0.0088422,-0.44539,-0.23045,20.839,-4.8932,0.37441,-0.03,-0.02,-0.21,92.92
9270,5.8175e+07,0,1.36,-1.17,22.93,-0.13782,0.0089351,-0.44476,-0.23065,20.839,-4.8932,0.37161,-0.03,-0.02,-0.21,92.92
9308,5.8186e+07,0,1.36,-1.17,22.93,-0.13756,0.0090749,-0.44425,-0.22832,20.839,-4.8932,0.37003,-0.03,-0.02,-0.21,92.92
9349,5.8196e+07,0,1.36,-1.17,22.93,-0.13744,0.009203,-0.44361,-0.22552,20.839,-4.8932,0.36833,-0.03,-0.02,-0.21,92.92
9389,5.8206e+07,0,1.36,-1.17,22.93,-0.13796,0.0092635,-0.44358,-0.22044,20.839,-4.8932,0.3639,-0.03,-0.02,-0.21,92.92
9430,5.8216e+07,0,1.36,-1.17,22.93,-0.13785,0.0092214,-0.44293,-0.21702,20.839,-4.8932,0.36167,-0.03,-0.02,-0.21,92.92
9470,5.8226e+07,0,1.36,-1.17,22.93,-0.13762,0.0093594,-0.44219,-0.21546,20.839,-4.8932,0.35977,-0.03,-0.02,-0.21,92.92
9518,5.8236e+07,0,1.36,-1.17,22.93,-0.13743,0.0092769,-0.44167,-0.21487,20.839,-4.8932,0.35778,-0.03,-0.02,-0.21,92.92
9559,5.8246e+07,0,1.36,-1.17,22.93,-0.13735,0.0092885,-0.44143,-0.21674,20.839,-4.8932,0.35569,-0.03,-0.02,-0.21,92.92
9599,5.8257e+07,0,1.36,-1.17,22.93,-0.13766,0.0093136,-0.44161,-0.217,20.839,-4.8932,0.35128,-0.03,-0.02,-0.21,92.92
9640,5.8267e+07,0,1.36,-1.17,22.93,-0.13771,0.0095367,-0.44114,-0.21918,20.839,-4.8932,0.34867,-0.03,-0.02,-0.21,92.92
9677,5.8277e+07,0,1.35,-1.17,22.93,-0.13741,0.0097535,-0.44059,-0.22074,20.839,-4.8932,0.34724,-0.03,-0.02,-0.21,92.92
9718,5.829e+07,0,1.36,-1.17,22.93,-0.1372,0.0098498,-0.44005,-0.22003,20.839,-4.8932,0.3448,-0.03,-0.02,-0.21,92.92
9758,5.83e+07,0,1.36,-1.17,22.93,-0.13708,0.0099584,-0.43948,-0.22,20.839,-4.8932,0.34314,-0.03,-0.02,-0.21,92.92
9803,5.8313e+07,0,1.36,-1.17,22.92,-0.13694,0.010093,-0.43889,-0.21895,20.839,-4.8932,0.34006,-0.03,-0.02,-0.21,92.92
9844,5.8323e+07,0,1.36,-1.17,22.92,-0.13686,0.010115,-0.43842,-0.21982,20.839,-4.8932,0.33775,-0.03,-0.02,-0.21,92.92
9890,5.8334e+07,0,1.36,-1.17,22.92,-0.1373,0.010174,-0.43827,-0.21877,20.839,-4.8932,0.33337,-0.03,-0.02,-0.21,92.92
9931,5.8344e+07,0,1.36,-1.17,22.92,-0.13721,0.010185,-0.43771,-0.21951,20.839,-4.8932,0.33098,-0.03,-0.02,-0.21,92.92
9971,5.8354e+07,0,1.36,-1.17,22.92,-0.13722,0.010291,-0.43713,-0.22137,20.839,-4.8932,0.32892,-0.03,-0.02,-0.21,92.92
10012,5.8364e+07,0,1.36,-1.17,22.92,-0.13728,0.010437,-0.43662,-0.2237,20.839,-4.8932,0.32678,-0.03,-0.02,-0.21,92.92
10050,5.8378e+07,0,1.36,-1.17,22.92,-0.13733,0.010241,-0.43628,-0.22457,20.839,-4.8932,0.32379,-0.03,-0.02,-0.21,92.92
10091,5.8388e+07,0,1.36,-1.17,22.92,-0.13718,0.010354,-0.43558,-0.22565,20.839,-4.8932,0.32201,-0.03,-0.02,-0.21,92.92
10132,5.8398e+07,0,1.35,-1.17,22.92,-0.13685,0.010406,-0.43527,-0.22738,20.839,-4.8932,0.31969,-0.03,-0.02,-0.21,92.92
10172,5.8409e+07,0,1.35,-1.17,22.92,-0.13729,0.010228,-0.43539,-0.22701,20.839,-4.8932,0.31534,-0.03,-0.02,-0.21,92.92
10213,5.8419e+07,0,1.36,-1.17,22.92,-0.13712,0.010143,-0.43479,-0.22773,20.839,-4.8932,0.31336,-0.03,-0.02,-0.21,92.92
10253,5.8429e+07,0,1.36,-1.17,22.92,-0.13716,0.010135,-0.43434,-0.22891,20.839,-4.8932,0.31129,-0.03,-0.02,-0.21,92.92
10299,5.8439e+07,0,1.36,-1.17,22.92,-0.13699,0.010163,-0.43348,-0.22922,20.839,-4.8932,0.30868,-0.03,-0.02,-0.21,92.92
10340,5.8449e+07,0,1.36,-1.17,22.92,-0.13697,0.010339,-0.43286,-0.23176,20.839,-4.8932,0.30644,-0.03,-0.02,-0.21,92.92
10380,5.846e+07,0,1.36,-1.17,22.92,-0.13701,0.010392,-0.43235,-0.23509,20.839,-4.8932,0.3041,-0.03,-0.02,-0.21,92.92
10424,5.8473e+07,0,1.36,-1.17,22.92,-0.13683,0.01035,-0.43179,-0.23671,20.839,-4.8932,0.30154,-0.03,-0.02,-0.21,92.92
10468,5.8485e+07,0,1.36,-1.17,22.91,-0.13686,0.010317,-0.43121,-0.23361,20.839,-4.8932,0.29885,-0.03,-0.02,-0.21,92.92
10508,5.8496e+07,0,1.36,-1.17,22.91,-0.13671,0.010191,-0.43074,-0.22984,20.839,-4.8932,0.29734,-0.03,-0.02,-0.21,92.92
10549,5.8507e+07,0,1.36,-1.17,22.91,-0.13649,0.010319,-0.43006,-0.22363,20.839,-4.8932,0.29528,-0.03,-0.02,-0.21,92.92
10589,5.8517e+07,0,1.36,-1.17,22.91,-0.13628,0.010384,-0.42935,-0.2198,20.839,-4.8932,0.29354,-0.03,-0.02,-0.21,92.92
10632,5.8527e+07,0,1.36,-1.17,22.91,-0.1362,0.010315,-0.42891,-0.21514,20.828,-4.8851,0.29126,-0.03,-0.02,-0.21,92.92
10668,5.8568e+07,0,1.35,-1.17,22.9,-0.13629,0.010244,-0.42753,-0.21653,20.828,-4.8851,0.28091,-0.03,-0.02,-0.21,92.92
10712,5.8581e+07,0,1.35,-1.17,22.9,-0.13618,0.010191,-0.42666,-0.21601,20.828,-4.8851,0.27889,-0.03,-0.02,-0.21,92.92
10752,5.8591e+07,0,1.35,-1.17,22.9,-0.13607,0.0098745,-0.42595,-0.21378,20.828,-4.8851,0.27842,-0.03,-0.02,-0.21,92.92
10793,5.8602e+07,0,1.35,-1.17,22.9,-0.13644,0.0098956,-0.42598,-0.20491,20.828,-4.8851,0.27417,-0.03,-0.02,-0.21,92.92
10834,5.8612e+07,0,1.35,-1.17,22.9,-0.13633,0.010032,-0.4252,-0.19638,20.828,-4.8851,0.27356,-0.03,-0.02,-0.21,92.92
10874,5.8622e+07,0,1.35,-1.17,22.89,-0.13642,0.010134,-0.42405,-0.18747,20.828,-4.8851,0.27238,-0.03,-0.02,-0.21,92.92
10915,5.8632e+07,0,1.35,-1.17,22.89,-0.13639,0.010081,-0.42337,-0.18,20.828,-4.8851,0.27148,-0.03,-0.02,-0.21,92.92
10959,5.8642e+07,0,1.36,-1.17,22.89,-0.13618,0.010165,-0.42261,-0.17504,20.828,-4.8851,0.27046,-0.03,-0.02,-0.2,92.92
11000,5.8653e+07,0,1.35,-1.17,22.89,-0.13657,0.010168,-0.42257,-0.16791,20.828,-4.8851,0.26624,-0.03,-0.02,-0.2,92.92
11043,5.8663e+07,0,1.35,-1.17,22.89,-0.13648,0.010185,-0.4217,-0.16323,20.828,-4.8851,0.2651,-0.03,-0.02,-0.2,92.92
11084,5.8673e+07,0,1.36,-1.17,22.89,-0.13638,0.010257,-0.42097,-0.15763,20.828,-4.8851,0.26382,-0.03,-0.02,-0.21,92.92
11125,5.8683e+07,0,1.35,-1.17,22.89,-0.13611,0.010435,-0.42022,-0.15336,20.828,-4.8851,0.26279,-0.03,-0.02,-0.21,92.92
11166,5.8694e+07,0,1.35,-1.17,22.88,-0.13594,0.010411,-0.41951,-0.14634,20.828,-4.8851,0.26202,-0.03,-0.02,-0.2,92.92
11207,5.8704e+07,0,1.35,-1.17,22.88,-0.13565,0.010498,-0.4189,-0.14128,20.828,-4.8851,0.2607,-0.03,-0.02,-0.2,92.92
11249,5.8714e+07,0,1.35,-1.17,22.88,-0.13532,0.010707,-0.41788,-0.13952,20.828,-4.8771,0.25967,-0.03,-0.02,-0.2,92.92
11290,5.8724e+07,0,1.35,-1.17,22.88,-0.13522,0.010765,-0.41695,-0.13601,20.828,-4.8771,0.25851,-0.03,-0.02,-0.21,92.92
11333,5.8735e+07,0,1.35,-1.17,22.88,-0.13515,0.010787,-0.41615,-0.13215,20.828,-4.8771,0.2568,-0.03,-0.02,-0.21,92.92
11378,5.8746e+07,0,1.35,-1.17,22.88,-0.13549,0.010779,-0.41612,-0.12946,20.828,-4.8771,0.25265,-0.03,-0.02,-0.21,92.92
11419,5.8756e+07,0,1.35,-1.17,22.88,-0.13537,0.010765,-0.41538,-0.13037,20.828,-4.8771,0.25084,-0.03,-0.02,-0.21,92.92
11459,5.8766e+07,0,1.35,-1.17,22.88,-0.13529,0.010887,-0.41501,-0.13644,20.828,-4.8771,0.24935,-0.03,-0.02,-0.2,92.92
11501,5.8776e+07,0,1.35,-1.17,22.88,-0.13532,0.01093,-0.41414,-0.1439,20.828,-4.8771,0.24775,-0.03,-0.02,-0.2,92.92
11542,5.8787e+07,0,1.35,-1.17,22.88,-0.13566,0.011001,-0.41427,-0.14957,20.828,-4.8771,0.24362,-0.03,-0.02,-0.2,92.92
11580,5.8797e+07,0,1.35,-1.17,22.88,-0.1353,0.011008,-0.41341,-0.15316,20.828,-4.8771,0.24269,-0.03,-0.02,-0.2,92.92
11622,5.8808e+07,0,1.35,-1.17,22.88,-0.13528,0.010991,-0.41255,-0.15341,20.828,-4.8771,0.24162,-0.03,-0.02,-0.2,92.92
11659,5.8818e+07,0,1.35,-1.17,22.88,-0.13505,0.011151,-0.41149,-0.1521,20.828,-4.8771,0.24082,-0.03,-0.02,-0.2,92.92
11700,5.8828e+07,0,1.35,-1.17,22.88,-0.13499,0.011209,-0.41081,-0.15255,20.828,-4.8771,0.23988,-0.03,-0.02,-0.2,92.92
11740,5.8838e+07,0,1.35,-1.17,22.88,-0.13534,0.011195,-0.41006,-0.15349,20.828,-4.8771,0.23841,-0.03,-0.02,-0.2,92.92
11790,5.8851e+07,0,1.35,-1.17,22.88,-0.13543,0.011135,-0.40945,-0.15432,20.828,-4.8771,0.23601,-0.03,-0.02,-0.2,92.92
11830,5.8862e+07,0,1.35,-1.17,22.88,-0.13575,0.01103,-0.40948,-0.15435,20.828,-4.8771,0.23192,-0.03,-0.02,-0.2,92.92
11871,5.8872e+07,0,1.35,-1.17,22.88,-0.13576,0.011026,-0.40868,-0.15593,20.828,-4.8771,0.23063,-0.03,-0.02,-0.2,92.92
11914,5.8882e+07,0,1.35,-1.17,22.88,-0.13571,0.011045,-0.4079,-0.16162,20.828,-4.8771,0.22925,-0.03,-0.02,-0.2,92.92
11958,5.8897e+07,0,1.35,-1.17,22.88,-0.1358,0.010752,-0.40696,-0.164,20.828,-4.8771,0.2266,-0.03,-0.02,-0.2,92.92
11998,5.8907e+07,0,1.35,-1.17,22.88,-0.13558,0.010776,-0.40586,-0.15987,20.828,-4.8771,0.22624,-0.03,-0.02,-0.2,92.92
12041,5.8918e+07,0,1.35,-1.17,22.87,-0.13546,0.010875,-0.4052,-0.15698,20.828,-4.8771,0.22572,-0.03,-0.02,-0.2,92.92
12082,5.8928e+07,0,1.35,-1.17,22.87,-0.13533,0.01088,-0.40441,-0.15355,20.828,-4.8771,0.22506,-0.03,-0.02,-0.2,92.92
12123,5.8938e+07,0,1.35,-1.17,22.87,-0.13526,0.01108,-0.40367,-0.14724,20.828,-4.8771,0.22385,-0.03,-0.02,-0.2,92.92
12164,5.8949e+07,0,1.35,-1.17,22.87,-0.13565,0.010956,-0.40359,-0.14076,20.828,-4.8771,0.21982,-0.03,-0.02,-0.2,92.92
12208,5.8959e+07,0,1.35,-1.17,22.87,-0.13569,0.011083,-0.40298,-0.13724,20.828,-4.8771,0.21848,-0.03,-0.02,-0.2,92.92
12249,5.8969e+07,0,1.35,-1.17,22.87,-0.13576,0.01123,-0.40225,-0.13639,20.828,-4.8771,0.21743,-0.03,-0.02,-0.2,92.92
12290,5.8979e+07,0,1.35,-1.17,22.87,-0.13574,0.011299,-0.40157,-0.13678,20.828,-4.8771,0.21626,-0.03,-0.02,-0.2,92.92
12330,5.899e+07,0,1.35,-1.17,22.87,-0.13527,0.011217,-0.4005,-0.13499,20.828,-4.8771,0.21573,-0.03,-0.02,-0.2,92.92
12374,5.9003e+07,0,1.35,-1.17,22.87,-0.13515,0.011206,-0.39953,-0.12756,20.828,-4.8771,0.21424,-0.03,-0.02,-0.2,92.92
12415,5.9013e+07,0,1.35,-1.17,22.86,-0.13492,0.011205,-0.39844,-0.12385,20.828,-4.8771,0.21381,-0.03,-0.02,-0.2,92.92
12455,5.9023e+07,0,1.35,-1.17,22.86,-0.13465,0.011155,-0.39778,-0.12108,20.828,-4.8771,0.21323,-0.03,-0.02,-0.2,92.92
12497,5.9034e+07,0,1.35,-1.17,22.86,-0.13449,0.010947,-0.39717,-0.11621,20.828,-4.8771,0.2121,-0.03,-0.02,-0.2,92.92
12538,5.9045e+07,0,1.35,-1.17,22.86,-0.13497,0.010984,-0.3973,-0.11155,20.828,-4.8771,0.20813,-0.03,-0.02,-0.2,92.92
12582,5.9055e+07,0,1.35,-1.17,22.86,-0.13486,0.011063,-0.39664,-0.11005,20.828,-4.8771,0.20728,-0.03,-0.02,-0.2,92.92
12623,5.9066e+07,0,1.35,-1.17,22.86,-0.13473,0.011198,-0.39572,-0.1086,20.828,-4.8771,0.2059,-0.03,-0.02,-0.2,92.92
12664,5.9076e+07,0,1.35,-1.17,22.86,-0.13471,0.011119,-0.39511,-0.11074,20.828,-4.8771,0.2044,-0.03,-0.02,-0.2,92.92
12705,5.9086e+07,0,1.35,-1.17,22.86,-0.13495,0.010995,-0.39456,-0.11429,20.828,-4.8771,0.20317,-0.03,-0.02,-0.2,92.92
12742,5.9097e+07,0,1.35,-1.17,22.86,-0.13478,0.011141,-0.39359,-0.11566,20.828,-4.8771,0.20297,-0.03,-0.02,-0.2,92.92
12785,5.9107e+07,0,1.35,-1.17,22.86,-0.13458,0.011205,-0.39282,-0.11286,20.828,-4.869,0.20299,-0.03,-0.02,-0.2,92.92
12825,5.9117e+07,0,1.35,-1.16,22.86,-0.13437,0.011195,-0.39187,-0.10925,20.828,-4.869,0.20285,-0.03,-0.02,-0.2,92.92
12867,5.9128e+07,0,1.35,-1.16,22.85,-0.13465,0.011217,-0.39184,-0.10236,20.828,-4.869,0.19893,-0.03,-0.02,-0.2,92.92
12908,5.9138e+07,0,1.35,-1.16,22.85,-0.13444,0.01109,-0.39085,-0.097551,20.828,-4.869,0.19825,-0.03,-0.02,-0.2,92.92
12948,5.9148e+07,0,1.35,-1.16,22.85,-0.13427,0.011279,-0.38987,-0.095313,20.828,-4.869,0.19783,-0.03,-0.02,-0.2,92.92
12993,5.9158e+07,0,1.35,-1.17,22.85,-0.13403,0.011318,-0.38896,-0.09412,20.828,-4.869,0.19726,-0.03,-0.02,-0.2,92.92
13034,5.9169e+07,0,1.35,-1.17,22.85,-0.1339,0.011384,-0.38798,-0.092736,20.828,-4.869,0.19655,-0.03,-0.02,-0.2,92.92
13075,5.9179e+07,0,1.35,-1.17,22.85,-0.13429,0.011508,-0.38825,-0.094484,20.828,-4.869,0.19228,-0.03,-0.02,-0.2,92.92
13116,5.919e+07,0,1.35,-1.17,22.85,-0.1342,0.011425,-0.38772,-0.098599,20.828,-4.869,0.19147,-0.03,-0.02,-0.2,92.92
13156,5.92e+07,0,1.35,-1.17,22.85,-0.13379,0.011644,-0.38652,-0.098901,20.828,-4.869,0.19223,-0.03,-0.02,-0.2,92.92
13198,5.9213e+07,0,1.35,-1.17,22.85,-0.13362,0.011615,-0.38571,-0.091107,20.828,-4.869,0.19126,-0.03,-0.02,-0.2,92.92
13238,5.9224e+07,0,1.35,-1.17,22.85,-0.13339,0.011556,-0.3846,-0.08141,20.828,-4.869,0.19163,-0.03,-0.02,-0.2,92.92
13281,5.9233e+07,0,1.35,-1.16,22.85,-0.13317,0.011578,-0.38342,-0.078007,20.828,-4.869,0.19186,-0.03,-0.02,-0.2,92.92
13323,5.9243e+07,0,1.35,-1.16,22.84,-0.13298,0.011655,-0.38261,-0.074922,20.828,-4.869,0.19192,-0.03,-0.02,-0.2,92.92
13363,5.9254e+07,0,1.34,-1.16,22.84,-0.13292,0.011761,-0.38148,-0.068554,20.828,-4.869,0.19143,-0.03,-0.02,-0.2,92.92
13409,5.9265e+07,0,1.34,-1.16,22.84,-0.13342,0.01189,-0.38113,-0.062079,20.828,-4.869,0.18762,-0.03,-0.02,-0.2,92.92
13449,5.9275e+07,0,1.34,-1.16,22.84,-0.13308,0.011788,-0.3803,-0.0594,20.828,-4.869,0.18699,-0.03,-0.02,-0.2,92.92
13490,5.9285e+07,0,1.34,-1.17,22.84,-0.13283,0.011904,-0.37948,-0.057145,20.828,-4.869,0.1866,-0.03,-0.02,-0.2,92.92
13530,5.9295e+07,0,1.35,-1.17,22.84,-0.13279,0.012018,-0.37836,-0.05679,20.828,-4.869,0.18606,-0.03,-0.02,-0.2,92.92
13568,5.9306e+07,0,1.35,-1.17,22.84,-0.13268,0.011963,-0.37736,-0.056701,20.828,-4.869,0.18702,-0.03,-0.02,-0.19,92.92
13612,5.9316e+07,0,1.35,-1.17,22.84,-0.13252,0.011913,-0.37624,-0.050311,20.839,-4.861,0.1874,-0.03,-0.02,-0.2,92.92
13649,5.9327e+07,0,1.35,-1.17,22.83,-0.13232,0.01188,-0.37524,-0.042938,20.839,-4.861,0.18796,-0.03,-0.02,-0.2,92.92
13690,5.9337e+07,0,1.35,-1.17,22.83,-0.13223,0.01182,-0.3742,-0.03685,20.839,-4.861,0.18835,-0.03,-0.02,-0.2,92.92
13731,5.9347e+07,0,1.35,-1.17,22.83,-0.13287,0.011802,-0.37402,-0.028567,20.839,-4.861,0.18461,-0.03,-0.02,-0.2,92.92
13772,5.9357e+07,0,1.35,-1.17,22.83,-0.13273,0.011802,-0.37298,-0.024145,20.839,-4.861,0.18485,-0.03,-0.02,-0.2,92.92
13818,5.9367e+07,0,1.35,-1.17,22.83,-0.13265,0.011695,-0.3719,-0.021566,20.839,-4.861,0.18492,-0.03,-0.02,-0.2,92.92
13858,5.9377e+07,0,1.35,-1.17,22.83,-0.13249,0.011697,-0.37094,-0.019148,20.839,-4.861,0.18446,-0.03,-0.02,-0.2,92.92
13900,5.9388e+07,0,1.34,-1.17,22.83,-0.13254,0.011606,-0.37031,-0.021659,20.839,-4.861,0.18422,-0.03,-0.02,-0.2,92.92
13940,5.9401e+07,0,1.34,-1.17,22.82,-0.13229,0.011745,-0.36922,-0.023154,20.839,-4.861,0.18396,-0.03,-0.02,-0.2,92.92
13981,5.9411e+07,0,1.34,-1.17,22.82,-0.13193,0.01171,-0.36836,-0.021745,20.839,-4.861,0.18462,-0.03,-0.02,-0.19,92.92
14022,5.9421e+07,0,1.34,-1.17,22.82,-0.13177,0.01191,-0.36719,-0.020754,20.839,-4.861,0.18474,-0.03,-0.02,-0.19,92.92
14063,5.9432e+07,0,1.34,-1.17,22.82,-0.13206,0.011996,-0.36733,-0.01762,20.839,-4.861,0.18107,-0.03,-0.02,-0.19,92.92
14104,5.9442e+07,0,1.34,-1.17,22.82,-0.13189,0.011921,-0.36601,-0.016642,20.839,-4.861,0.18103,-0.03,-0.02,-0.19,92.92
14144,5.9453e+07,0,1.34,-1.17,22.81,-0.13181,0.011981,-0.36497,-0.015133,20.839,-4.861,0.18119,-0.03,-0.02,-0.19,92.92
14186,5.9463e+07,0,1.34,-1.17,22.81,-0.13173,0.012068,-0.36399,-0.016854,20.839,-4.861,0.18084,-0.03,-0.02,-0.19,92.92
14230,5.9473e+07,0,1.34,-1.17,22.81,-0.13158,0.012169,-0.36289,-0.019745,20.839,-4.861,0.1807,-0.03,-0.02,-0.19,92.92
14272,5.9483e+07,0,1.35,-1.17,22.81,-0.13147,0.012051,-0.36179,-0.025826,20.839,-4.861,0.18043,-0.03,-0.02,-0.19,92.92
14312,5.9494e+07,0,1.35,-1.17,22.81,-0.13196,0.011846,-0.36172,-0.02991,20.839,-4.861,0.17682,-0.03,-0.02,-0.19,92.92
14353,5.9504e+07,0,1.35,-1.17,22.81,-0.13182,0.011778,-0.36074,-0.03619,20.839,-4.861,0.17642,-0.03,-0.02,-0.19,92.92
14393,5.9515e+07,0,1.35,-1.17,22.81,-0.13134,0.011888,-0.35955,-0.042564,20.839,-4.861,0.17664,-0.03,-0.02,-0.19,92.92
14433,5.9525e+07,0,1.35,-1.17,22.81,-0.13108,0.011964,-0.35838,-0.043763,20.839,-4.8529,0.17669,-0.03,-0.02,-0.19,92.92
14474,5.9535e+07,0,1.35,-1.17,22.81,-0.13095,0.011972,-0.35726,-0.044314,20.839,-4.8529,0.17693,-0.03,-0.02,-0.19,92.92
14515,5.9545e+07,0,1.35,-1.17,22.81,-0.13076,0.012032,-0.35621,-0.047082,20.839,-4.8529,0.17702,-0.03,-0.02,-0.19,92.92
14557,5.9555e+07,0,1.35,-1.18,22.81,-0.13124,0.012046,-0.35591,-0.046446,20.839,-4.8529,0.17346,-0.03,-0.02,-0.19,92.92
14597,5.9565e+07,0,1.35,-1.17,22.8,-0.13114,0.012051,-0.35519,-0.046961,20.839,-4.8529,0.17341,-0.03,-0.02,-0.19,92.92
14642,5.9575e+07,0,1.35,-1.17,22.8,-0.1309,0.011915,-0.35449,-0.047361,20.839,-4.8529,0.1732,-0.03,-0.02,-0.19,92.92
14683,5.9585e+07,0,1.35,-1.17,22.8,-0.13076,0.011972,-0.35377,-0.049361,20.839,-4.8529,0.17285,-0.03,-0.02,-0.19,92.92
14723,5.9596e+07,0,1.35,-1.17,22.8,-0.13074,0.012079,-0.35309,-0.057374,20.839,-4.8529,0.17239,-0.03,-0.02,-0.19,92.92
14765,5.9609e+07,0,1.35,-1.17,22.8,-0.13071,0.01222,-0.35208,-0.062168,20.839,-4.8529,0.17217,-0.03,-0.02,-0.19,92.92
14805,5.9619e+07,0,1.35,-1.17,22.8,-0.13117,0.012293,-0.35171,-0.063236,20.839,-4.8529,0.16866,-0.03,-0.02,-0.19,92.92
14846,5.9629e+07,0,1.35,-1.17,22.8,-0.1309,0.0124,-0.35052,-0.063248,20.839,-4.8529,0.16935,-0.03,-0.02,-0.19,92.92
14886,5.9639e+07,0,1.34,-1.17,22.8,-0.13055,0.012544,-0.34941,-0.061495,20.839,-4.8529,0.16987,-0.03,-0.02,-0.19,92.92
14926,5.9649e+07,0,1.34,-1.17,22.8,-0.13013,0.012569,-0.34856,-0.064894,20.839,-4.8529,0.17024,-0.03,-0.02,-0.19,92.92
14968,5.9659e+07,0,1.34,-1.18,22.8,-0.12993,0.012507,-0.34794,-0.06379,20.839,-4.8529,0.17009,-0.03,-0.02,-0.19,92.92
15008,5.967e+07,0,1.34,-1.18,22.8,-0.13042,0.01235,-0.3475,-0.05983,20.839,-4.8529,0.16662,-0.03,-0.02,-0.19,92.92
15054,5.968e+07,0,1.34,-1.18,22.8,-0.13023,0.01237,-0.34653,-0.058419,20.839,-4.8529,0.16668,-0.03,-0.02,-0.19,92.92
15094,5.969e+07,0,1.34,-1.18,22.8,-0.13,0.012289,-0.34543,-0.062166,20.839,-4.8529,0.16661,-0.03,-0.02,-0.19,92.92
15137,5.97e+07,0,1.34,-1.18,22.8,-0.1304,0.012405,-0.34547,-0.066992,20.839,-4.8529,0.16281,-0.03,-0.02,-0.19,92.92
15178,5.971e+07,0,1.34,-1.18,22.8,-0.13002,0.012379,-0.34447,-0.070662,20.839,-4.8529,0.16263,-0.03,-0.02,-0.19,92.92
15217,5.9721e+07,0,1.34,-1.18,22.8,-0.12992,0.012658,-0.34369,-0.077272,20.839,-4.8529,0.16197,-0.03,-0.02,-0.19,92.92
15258,5.9731e+07,0,1.34,-1.18,22.8,-0.12956,0.012527,-0.34243,-0.077415,20.839,-4.8529,0.16288,-0.03,-0.02,-0.19,92.92
15298,5.9742e+07,0,1.34,-1.18,22.8,-0.12923,0.012403,-0.34148,-0.075574,20.839,-4.8529,0.16395,-0.03,-0.02,-0.19,92.92
15339,5.9752e+07,0,1.34,-1.18,22.8,-0.12875,0.012396,-0.34054,-0.071096,20.839,-4.8529,0.16482,-0.03,-0.02,-0.19,92.92
15379,5.9762e+07,0,1.34,-1.18,22.8,-0.1286,0.012303,-0.3391,-0.060699,20.839,-4.8529,0.16516,-0.03,-0.02,-0.19,92.92
15420,5.9773e+07,0,1.34,-1.18,22.79,-0.12902,0.012195,-0.33859,-0.049001,20.839,-4.8529,0.16143,-0.03,-0.02,-0.19,92.92
15465,5.9784e+07,0,1.34,-1.18,22.79,-0.12877,0.012229,-0.33742,-0.042374,20.839,-4.8529,0.16197,-0.03,-0.02,-0.19,92.92
15507,5.9794e+07,0,1.34,-1.18,22.79,-0.12871,0.011994,-0.33673,-0.037318,20.839,-4.8529,0.16234,-0.03,-0.02,-0.19,92.92
15548,5.9804e+07,0,1.34,-1.18,22.79,-0.1287,0.01197,-0.33572,-0.03521,20.839,-4.8529,0.16256,-0.03,-0.02,-0.19,92.92
15591,5.982e+07,0,1.34,-1.18,22.79,-0.12883,0.011894,-0.33423,-0.026605,20.839,-4.8529,0.16234,-0.03,-0.02,-0.19,92.92
15632,5.983e+07,0,1.34,-1.18,22.79,-0.12838,0.011835,-0.33296,-0.014754,20.839,-4.8529,0.16422,-0.03,-0.02,-0.18,92.92
15674,5.984e+07,0,1.34,-1.18,22.79,-0.12832,0.011926,-0.33161,-0.002022,20.839,-4.8529,0.16588,-0.03,-0.02,-0.18,92.92
15714,5.9851e+07,0,1.34,-1.18,22.79,-0.12817,0.011951,-0.33024,0.01212,20.839,-4.8529,0.16731,-0.03,-0.02,-0.19,92.92
15755,5.9861e+07,0,1.34,-1.18,22.79,-0.12796,0.012003,-0.32872,0.024106,20.839,-4.8529,0.16855,-0.03,-0.02,-0.19,92.92
15795,5.9871e+07,0,1.34,-1.18,22.79,-0.12776,0.011989,-0.32739,0.037932,20.839,-4.8529,0.16926,-0.03,-0.02,-0.19,92.92
15843,5.9882e+07,0,1.34,-1.18,22.79,-0.1282,0.012055,-0.32732,0.049334,20.839,-4.8529,0.16599,-0.03,-0.02,-0.19,92.92
15884,5.9892e+07,0,1.34,-1.18,22.79,-0.12816,0.011988,-0.32628,0.05542,20.839,-4.8529,0.16687,-0.03,-0.02,-0.19,92.92
15925,5.9902e+07,0,1.34,-1.18,22.79,-0.12826,0.011854,-0.32513,0.057407,20.839,-4.8529,0.16725,-0.03,-0.02,-0.19,92.92
15965,5.9913e+07,0,1.33,-1.18,22.79,-0.12792,0.011801,-0.32377,0.062595,20.85,-4.861,0.16927,-0.03,-0.02,-0.19,92.92
16005,5.9923e+07,0,1.33,-1.18,22.79,-0.12745,0.011694,-0.32232,0.066856,20.85,-4.861,0.17138,-0.03,-0.02,-0.18,92.92
16046,5.9934e+07,0,1.33,-1.18,22.79,-0.12701,0.011798,-0.32089,0.071702,20.85,-4.861,0.17296,-0.03,-0.02,-0.18,92.92
16087,5.9945e+07,0,1.33,-1.18,22.78,-0.12743,0.011813,-0.32085,0.079764,20.85,-4.861,0.16975,-0.03,-0.02,-0.18,92.92
16128,5.9955e+07,0,1.33,-1.18,22.78,-0.12718,0.012162,-0.31949,0.085435,20.85,-4.861,0.17113,-0.03,-0.02,-0.18,92.92
16170,5.9966e+07,0,1.33,-1.18,22.78,-0.12679,0.012303,-0.31862,0.091209,20.85,-4.861,0.17262,-0.03,-0.02,-0.18,92.92
16210,5.9976e+07,0,1.33,-1.18,22.78,-0.12661,0.012242,-0.31771,0.094723,20.85,-4.861,0.1739,-0.03,-0.02,-0.18,92.92
16255,5.9986e+07,0,1.33,-1.18,22.78,-0.12634,0.012241,-0.31625,0.094244,20.85,-4.861,0.175,-0.03,-0.02,-0.18,92.92
16296,5.9996e+07,0,1.33,-1.19,22.78,-0.12611,0.012088,-0.31547,0.091174,20.85,-4.861,0.17592,-0.03,-0.02,-0.18,92.92
16337,6.0006e+07,0,1.33,-1.19,22.78,-0.12618,0.012135,-0.31417,0.089694,20.85,-4.861,0.17634,-0.03,-0.02,-0.18,92.92
16378,6.0017e+07,0,1.33,-1.19,22.78,-0.12676,0.012209,-0.31429,0.087761,20.85,-4.861,0.1732,-0.03,-0.02,-0.18,92.92
16419,6.0027e+07,0,1.33,-1.19,22.78,-0.12654,0.012038,-0.31292,0.088615,20.85,-4.861,0.17557,-0.03,-0.02,-0.18,92.92
16459,6.0038e+07,0,1.33,-1.19,22.78,-0.1263,0.012042,-0.31141,0.095452,20.85,-4.861,0.17801,-0.03,-0.02,-0.18,92.92
16500,6.0048e+07,0,1.33,-1.19,22.78,-0.12605,0.012003,-0.31018,0.10232,20.85,-4.861,0.18021,-0.03,-0.02,-0.18,92.92
16541,6.0058e+07,0,1.33,-1.19,22.78,-0.12578,0.012032,-0.30906,0.10576,20.85,-4.861,0.18219,-0.03,-0.02,-0.18,92.92
16582,6.0068e+07,0,1.33,-1.19,22.78,-0.12585,0.012091,-0.30794,0.10764,20.85,-4.861,0.18366,-0.03,-0.02,-0.18,92.92
16623,6.0079e+07,0,1.33,-1.19,22.78,-0.12635,0.012144,-0.30791,0.11178,20.85,-4.861,0.18059,-0.03,-0.02,-0.18,92.92
16667,6.0089e+07,0,1.33,-1.19,22.78,-0.1262,0.012251,-0.30638,0.11275,20.85,-4.861,0.18187,-0.03,-0.02,-0.18,92.92
16709,6.01e+07,0,1.33,-1.19,22.78,-0.12613,0.012396,-0.30504,0.11415,20.85,-4.861,0.18326,-0.03,-0.02,-0.18,92.92
16751,6.011e+07,0,1.33,-1.19,22.78,-0.12623,0.012534,-0.30409,0.11289,20.85,-4.861,0.18446,-0.03,-0.02,-0.18,92.92
16793,6.012e+07,0,1.34,-1.19,22.78,-0.12607,0.012797,-0.30328,0.10725,20.85,-4.861,0.18549,-0.03,-0.02,-0.18,92.92
16840,6.0136e+07,0,1.34,-1.19,22.78,-0.12586,0.01304,-0.30185,0.1026,20.85,-4.861,0.18622,-0.03,-0.02,-0.18,92.92
16881,6.0146e+07,0,1.35,-1.2,22.78,-0.1251,0.013123,-0.29999,0.10717,20.85,-4.861,0.18881,-0.03,-0.02,-0.18,92.92
16921,6.0157e+07,0,1.35,-1.2,22.78,-0.12381,0.013254,-0.29752,0.11671,20.85,-4.861,0.19087,-0.03,-0.02,-0.18,92.92
16962,6.0168e+07,0,1.35,-1.21,22.78,-0.12191,0.013934,-0.29537,0.12138,20.85,-4.861,0.19302,-0.03,-0.02,-0.18,92.92
17002,6.0178e+07,0,1.36,-1.23,22.77,-0.11991,0.015285,-0.29294,0.12937,20.85,-4.861,0.19467,-0.03,-0.02,-0.18,92.92
17044,6.0189e+07,0,1.37,-1.25,22.77,-0.11904,0.016076,-0.29099,0.13256,20.85,-4.861,0.19641,-0.03,-0.02,-0.18,92.92
17088,6.02e+07,0,1.38,-1.27,22.76,-0.11909,0.015973,-0.29001,0.13618,20.85,-4.861,0.19765,-0.03,-0.02,-0.18,92.92
17130,6.021e+07,0,1.39,-1.29,22.76,-0.11919,0.015031,-0.28938,0.13868,20.85,-4.861,0.19899,-0.03,-0.02,-0.18,92.92
17172,6.022e+07,0,1.4,-1.3,22.75,-0.11935,0.014177,-0.28975,0.1408,20.85,-4.861,0.19609,-0.03,-0.02,-0.18,92.92
17211,6.023e+07,0,1.41,-1.31,22.75,-0.11835,0.013001,-0.2882,0.14421,20.85,-4.861,0.19892,-0.03,-0.02,-0.18,92.92
17249,6.0241e+07,0,1.41,-1.32,22.74,-0.11679,0.011873,-0.28615,0.1478,20.85,-4.861,0.2018,-0.03,-0.02,-0.18,92.92
17289,6.0251e+07,0,1.41,-1.34,22.74,-0.1146,0.01114,-0.28403,0.1556,20.85,-4.861,0.20415,-0.03,-0.02,-0.18,92.92
17330,6.0261e+07,0,1.4,-1.36,22.73,-0.1134,0.011158,-0.2822,0.16103,20.85,-4.861,0.20656,-0.03,-0.02,-0.18,92.92
17372,6.0271e+07,0,1.4,-1.39,22.72,-0.11377,0.010979,-0.28129,0.16093,20.85,-4.861,0.20876,-0.03,-0.02,-0.18,92.92
17412,6.0282e+07,0,1.39,-1.41,22.71,-0.116,0.010088,-0.28206,0.16354,20.85,-4.861,0.20595,-0.03,-0.02,-0.18,92.92
17453,6.0292e+07,0,1.39,-1.42,22.71,-0.119,0.0094882,-0.28173,0.16216,20.85,-4.861,0.20794,-0.03,-0.02,-0.18,92.92
17497,6.0302e+07,0,1.39,-1.42,22.71,-0.12266,0.009754,-0.28232,0.1582,20.85,-4.861,0.20972,-0.03,-0.02,-0.18,92.92
17543,6.0312e+07,0,1.39,-1.42,22.71,-0.12558,0.010685,-0.28046,0.15269,20.839,-4.861,0.21131,-0.03,-0.02,-0.18,92.92
17583,6.0322e+07,0,1.41,-1.4,22.71,-0.12686,0.011847,-0.27901,0.14408,20.839,-4.861,0.21244,-0.03,-0.02,-0.18,92.92
17625,6.0333e+07,0,1.43,-1.4,22.72,-0.12579,0.012904,-0.27822,0.13703,20.839,-4.861,0.20938,-0.03,-0.02,-0.18,92.92
17659,6.0344e+07,0,1.44,-1.42,22.72,-0.1229,0.013604,-0.2766,0.13174,20.839,-4.861,0.21208,-0.03,-0.02,-0.18,92.92
17700,6.0355e+07,0,1.45,-1.44,22.71,-0.12063,0.01311,-0.27593,0.12824,20.839,-4.861,0.21483,-0.03,-0.02,-0.18,92.92
17741,6.0365e+07,0,1.45,-1.47,22.71,-0.11851,0.012691,-0.27516,0.12463,20.839,-4.861,0.21734,-0.03,-0.02,-0.18,92.92
17781,6.0375e+07,0,1.44,-1.5,22.7,-0.11576,0.013541,-0.27445,0.12248,20.839,-4.861,0.21962,-0.03,-0.02,-0.18,92.92
17822,6.0385e+07,0,1.43,-1.53,22.69,-0.11348,0.015139,-0.2738,0.12649,20.839,-4.861,0.21688,-0.03,-0.02,-0.18,92.92
17863,6.0395e+07,0,1.42,-1.56,22.68,-0.11114,0.015814,-0.27201,0.12782,20.839,-4.861,0.21898,-0.03,-0.02,-0.18,92.92
17910,6.0405e+07,0,1.41,-1.58,22.66,-0.10983,0.016177,-0.27092,0.12596,20.839,-4.861,0.22061,-0.03,-0.02,-0.18,92.92
17951,6.0415e+07,0,1.41,-1.59,22.65,-0.11034,0.017926,-0.2703,0.123,20.839,-4.861,0.2223,-0.03,-0.02,-0.18,92.92
17991,6.0425e+07,0,1.41,-1.59,22.64,-0.1122,0.020308,-0.2694,0.11695,20.839,-4.861,0.22382,-0.03,-0.02,-0.18,92.92
18032,6.0436e+07,0,1.43,-1.58,22.64,-0.11474,0.021556,-0.26926,0.11434,20.839,-4.861,0.22113,-0.03,-0.02,-0.18,92.92
18066,6.0446e+07,0,1.46,-1.57,22.65,-0.11584,0.021858,-0.26761,0.11518,20.839,-4.861,0.22417,-0.03,-0.01,-0.18,92.92
18108,6.0457e+07,0,1.48,-1.58,22.66,-0.11617,0.022535,-0.26654,0.12194,20.839,-4.861,0.22721,-0.03,-0.01,-0.18,92.92
18148,6.0467e+07,0,1.51,-1.59,22.67,-0.11621,0.022704,-0.2658,0.12904,20.839,-4.861,0.23,-0.03,-0.01,-0.18,92.92
18189,6.0477e+07,0,1.54,-1.61,22.67,-0.116,0.021335,-0.26509,0.13293,20.839,-4.861,0.23256,-0.03,-0.01,-0.18,92.92
18230,6.0487e+07,0,1.55,-1.65,22.68,-0.1156,0.018876,-0.26448,0.13595,20.839,-4.861,0.23489,-0.03,-0.01,-0.18,92.92
18270,6.0498e+07,0,1.56,-1.69,22.69,-0.11569,0.016333,-0.2633,0.14282,20.839,-4.861,0.23673,-0.03,-0.01,-0.18,92.92
18317,6.0508e+07,0,1.56,-1.73,22.68,-0.11617,0.014551,-0.26198,0.14905,20.839,-4.861,0.23836,-0.03,-0.02,-0.18,92.92
18359,6.0519e+07,0,1.55,-1.76,22.68,-0.11644,0.013252,-0.25971,0.15516,20.828,-4.861,0.24004,-0.03,-0.02,-0.18,92.92
18403,6.0532e+07,0,1.54,-1.77,22.67,-0.11725,0.012353,-0.25646,0.16473,20.828,-4.861,0.24277,-0.03,-0.01,-0.18,92.92
18446,6.0547e+07,0,1.55,-1.77,22.65,-0.11829,0.014408,-0.25401,0.17833,20.828,-4.861,0.24452,-0.03,-0.01,-0.18,92.92
18487,6.0557e+07,0,1.56,-1.77,22.64,-0.11837,0.015944,-0.2534,0.1838,20.828,-4.861,0.24755,-0.03,-0.01,-0.18,92.92
18528,6.0567e+07,0,1.58,-1.76,22.63,-0.11813,0.017093,-0.25353,0.1845,20.828,-4.861,0.25035,-0.03,-0.01,-0.18,92.92
18568,6.0577e+07,0,1.61,-1.76,22.63,-0.11796,0.018324,-0.25541,0.18865,20.828,-4.861,0.24781,-0.03,-0.01,-0.18,92.92
18610,6.0587e+07,0,1.64,-1.77,22.63,-0.11676,0.019149,-0.25579,0.19121,20.828,-4.861,0.25035,-0.03,-0.01,-0.18,92.92
18651,6.0597e+07,0,1.66,-1.79,22.63,-0.11629,0.019125,-0.25538,0.1902,20.828,-4.861,0.25268,-0.03,-0.01,-0.18,92.92
18696,6.0607e+07,0,1.69,-1.81,22.64,-0.11625,0.018151,-0.25397,0.18838,20.828,-4.861,0.25479,-0.03,-0.01,-0.18,92.92
18737,6.0618e+07,0,1.71,-1.83,22.66,-0.11673,0.016797,-0.2518,0.18721,20.828,-4.861,0.25669,-0.03,-0.01,-0.18,92.92
18777,6.0628e+07,0,1.72,-1.84,22.67,-0.11793,0.015136,-0.24923,0.18259,20.828,-4.861,0.25817,-0.03,-0.01,-0.18,92.92
18818,6.0641e+07,0,1.72,-1.86,22.69,-0.1187,0.013127,-0.24607,0.18027,20.828,-4.861,0.2608,-0.03,-0.01,-0.18,92.92
18859,6.0651e+07,0,1.72,-1.86,22.7,-0.11862,0.011867,-0.24417,0.17794,20.828,-4.861,0.26369,-0.03,-0.01,-0.18,92.92
18899,6.0661e+07,0,1.71,-1.87,22.7,-0.11842,0.011791,-0.24419,0.18119,20.828,-4.861,0.26126,-0.03,-0.01,-0.18,92.92
18940,6.0671e+07,0,1.71,-1.87,22.7,-0.11749,0.012076,-0.24356,0.18408,20.828,-4.861,0.26417,-0.03,-0.01,-0.18,92.92
18982,6.0681e+07,0,1.7,-1.88,22.7,-0.11633,0.01284,-0.24293,0.18804,20.828,-4.861,0.26684,-0.03,-0.01,-0.18,92.92
19022,6.0692e+07,0,1.7,-1.89,22.69,-0.11522,0.014105,-0.24236,0.18989,20.828,-4.861,0.26929,-0.03,-0.01,-0.18,92.92
19064,6.0702e+07,0,1.71,-1.91,22.68,-0.11453,0.015415,-0.24105,0.19283,20.828,-4.861,0.27128,-0.03,-0.01,-0.18,92.92
19108,6.0712e+07,0,1.72,-1.93,22.67,-0.11436,0.01603,-0.2403,0.19148,20.828,-4.861,0.27331,-0.03,-0.01,-0.18,92.92
19155,6.0723e+07,0,1.74,-1.94,22.67,-0.11459,0.016087,-0.23907,0.18417,20.817,-4.869,0.27492,-0.03,-0.01,-0.18,92.92
19195,6.0733e+07,0,1.76,-1.95,22.66,-0.1153,0.015555,-0.23951,0.17841,20.817,-4.869,0.27253,-0.03,-0.01,-0.18,92.92
19236,6.0743e+07,0,1.78,-1.96,22.66,-0.11473,0.014647,-0.23857,0.16999,20.817,-4.869,0.27422,-0.03,-0.01,-0.18,92.92
19275,6.0754e+07,0,1.8,-1.97,22.67,-0.11356,0.013276,-0.23731,0.16482,20.817,-4.869,0.27736,-0.03,-0.01,-0.18,92.92
19315,6.0764e+07,0,1.81,-1.97,22.67,-0.11231,0.01194,-0.23498,0.16735,20.817,-4.869,0.28049,-0.03,-0.01,-0.18,92.92
19356,6.0774e+07,0,1.81,-1.99,22.68,-0.11091,0.011064,-0.23266,0.17073,20.817,-4.869,0.28339,-0.03,-0.01,-0.18,92.92
19399,6.0787e+07,0,1.81,-2,22.69,-0.10953,0.0099097,-0.22999,0.17387,20.817,-4.869,0.28563,-0.03,-0.01,-0.18,92.92
19440,6.0797e+07,0,1.8,-2.02,22.7,-0.10888,0.0081306,-0.22865,0.17288,20.817,-4.869,0.28791,-0.03,-0.01,-0.18,92.92
19485,6.0808e+07,0,1.78,-2.04,22.7,-0.10996,0.006599,-0.22945,0.17372,20.817,-4.869,0.28562,-0.03,-0.01,-0.18,92.92
19526,6.0818e+07,0,1.76,-2.05,22.7,-0.11152,0.0056879,-0.23078,0.16957,20.817,-4.869,0.28769,-0.03,-0.01,-0.18,92.92
19568,6.0828e+07,0,1.75,-2.05,22.7,-0.1133,0.0054179,-0.23202,0.16327,20.817,-4.869,0.28978,-0.03,-0.01,-0.18,92.92
19608,6.0839e+07,0,1.73,-2.04,22.7,-0.11507,0.0059564,-0.23292,0.15448,20.817,-4.869,0.29167,-0.03,-0.01,-0.18,92.92
19649,6.0854e+07,0,1.73,-2.02,22.7,-0.11795,0.0088558,-0.23132,0.15107,20.817,-4.869,0.2935,-0.03,-0.01,-0.18,92.92
19690,6.0865e+07,0,1.74,-2.01,22.69,-0.11871,0.01139,-0.22827,0.15614,20.817,-4.869,0.29649,-0.03,-0.01,-0.18,92.92
19731,6.0875e+07,0,1.76,-2.01,22.69,-0.11893,0.013343,-0.225,0.15928,20.817,-4.869,0.29928,-0.03,-0.01,-0.18,92.92
19772,6.0885e+07,0,1.78,-2.02,22.69,-0.11904,0.014293,-0.22215,0.16199,20.817,-4.869,0.30187,-0.03,-0.01,-0.18,92.92
19813,6.0895e+07,0,1.8,-2.03,22.69,-0.11912,0.014481,-0.2199,0.16752,20.817,-4.869,0.30403,-0.03,-0.01,-0.18,92.92
19855,6.0906e+07,0,1.82,-2.04,22.7,-0.11956,0.013802,-0.21998,0.17225,20.817,-4.869,0.30184,-0.03,-0.01,-0.18,92.92
19901,6.0916e+07,0,1.83,-2.04,22.7,-0.11926,0.012678,-0.21988,0.17193,20.817,-4.869,0.30404,-0.03,-0.01,-0.18,92.92
19946,6.0926e+07,0,1.83,-2.04,22.71,-0.11881,0.011644,-0.21969,0.16979,20.805,-4.869,0.30605,-0.03,-0.01,-0.18,92.92
19987,6.0936e+07,0,1.83,-2.04,22.71,-0.11833,0.011162,-0.21929,0.16765,20.805,-4.869,0.30763,-0.03,-0.01,-0.18,92.92
20025,6.0947e+07,0,1.82,-2.04,22.72,-0.11703,0.012051,-0.21783,0.16574,20.805,-4.869,0.31069,-0.03,-0.01,-0.18,92.92
20065,6.0956e+07,0,1.82,-2.04,22.73,-0.11551,0.013535,-0.21627,0.16307,20.805,-4.869,0.31354,-0.03,-0.01,-0.18,92.92
20103,6.0967e+07,0,1.82,-2.04,22.74,-0.11397,0.015464,-0.21489,0.16574,20.805,-4.869,0.31594,-0.03,-0.01,-0.18,92.92
20144,6.0978e+07,0,1.83,-2.04,22.74,-0.11222,0.017445,-0.21386,0.16997,20.805,-4.869,0.31814,-0.03,-0.01,-0.18,92.92
20184,6.0988e+07,0,1.85,-2.05,22.75,-0.1115,0.019126,-0.21387,0.17469,20.805,-4.869,0.316,-0.03,-0.01,-0.18,92.92
20226,6.0998e+07,0,1.87,-2.07,22.75,-0.11046,0.019905,-0.21352,0.17634,20.805,-4.869,0.31821,-0.03,-0.01,-0.18,92.92
20267,6.1008e+07,0,1.9,-2.08,22.75,-0.10965,0.019829,-0.2128,0.17061,20.805,-4.869,0.32026,-0.03,-0.01,-0.18,92.92
20311,6.1019e+07,0,1.92,-2.09,22.75,-0.10902,0.019227,-0.21197,0.16603,20.805,-4.869,0.32211,-0.03,-0.01,-0.18,92.92
20352,6.1029e+07,0,1.94,-2.1,22.75,-0.10839,0.018357,-0.21107,0.15996,20.805,-4.869,0.32379,-0.03,-0.01,-0.18,92.92
20394,6.1039e+07,0,1.96,-2.1,22.74,-0.10802,0.016851,-0.21001,0.15503,20.805,-4.869,0.32508,-0.03,-0.01,-0.18,92.92
20435,6.105e+07,0,1.96,-2.11,22.74,-0.10847,0.015007,-0.20986,0.15072,20.805,-4.869,0.32298,-0.03,-0.01,-0.18,92.92
20469,6.106e+07,0,1.96,-2.11,22.74,-0.10869,0.013152,-0.20886,0.14889,20.805,-4.869,0.32618,-0.03,-0.01,-0.18,92.92
20510,6.107e+07,0,1.96,-2.11,22.74,-0.10927,0.011628,-0.20797,0.14906,20.805,-4.869,0.32936,-0.03,-0.01,-0.18,92.92
20551,6.108e+07,0,1.94,-2.11,22.75,-0.11012,0.010342,-0.2073,0.15107,20.805,-4.869,0.3323,-0.03,-0.01,-0.18,92.92
20591,6.1091e+07,0,1.93,-2.11,22.75,-0.11092,0.0097848,-0.20574,0.15657,20.805,-4.869,0.33502,-0.03,-0.01,-0.18,92.92
20632,6.1101e+07,0,1.92,-2.11,22.76,-0.11241,0.0094986,-0.2041,0.16094,20.805,-4.869,0.33753,-0.03,-0.01,-0.18,92.92
20673,6.1111e+07,0,1.91,-2.11,22.77,-0.1145,0.0096697,-0.20278,0.16864,20.805,-4.869,0.3355,-0.03,-0.01,-0.18,92.92
20717,6.1121e+07,0,1.9,-2.11,22.78,-0.11646,0.0099747,-0.20077,0.17212,20.805,-4.869,0.33765,-0.03,-0.01,-0.18,92.92
20760,6.1131e+07,0,1.9,-2.1,22.78,-0.11787,0.010225,-0.19932,0.17165,20.805,-4.869,0.33984,-0.03,-0.01,-0.18,92.92
20800,6.1142e+07,0,1.91,-2.1,22.79,-0.11902,0.010318,-0.19901,0.16671,20.805,-4.861,0.34184,-0.03,-0.01,-0.18,92.92
20847,6.1158e+07,0,1.92,-2.09,22.8,-0.11974,0.009645,-0.19966,0.16451,20.805,-4.861,0.3442,-0.03,-0.01,-0.18,92.92
20896,6.1189e+07,0,1.94,-2.07,22.8,-0.11514,0.0091645,-0.19773,0.17106,20.805,-4.861,0.35324,-0.03,-0.01,-0.18,92.92
20937,6.1199e+07,0,1.94,-2.07,22.8,-0.11274,0.0090344,-0.19555,0.17968,20.805,-4.861,0.35567,-0.03,-0.01,-0.18,92.92
20979,6.121e+07,0,1.93,-2.07,22.79,-0.11115,0.0090538,-0.19403,0.18868,20.805,-4.861,0.35373,-0.03,-0.01,-0.18,92.92
21026,6.122e+07,0,1.93,-2.07,22.79,-0.1091,0.0090241,-0.19157,0.19319,20.805,-4.861,0.35621,-0.03,-0.01,-0.18,92.92
21066,6.123e+07,0,1.91,-2.07,22.79,-0.10727,0.0090689,-0.1895,0.19513,20.805,-4.861,0.3585,-0.03,-0.01,-0.18,92.92
21106,6.124e+07,0,1.9,-2.07,22.79,-0.1058,0.0095197,-0.18852,0.1918,20.805,-4.861,0.36063,-0.03,-0.01,-0.18,92.92
21146,6.125e+07,0,1.88,-2.07,22.79,-0.10513,0.010146,-0.18819,0.18621,20.805,-4.861,0.36258,-0.03,-0.01,-0.18,92.92
21190,6.1263e+07,0,1.86,-2.07,22.8,-0.10494,0.011055,-0.18863,0.1831,20.805,-4.861,0.36472,-0.03,-0.01,-0.18,92.92
21230,6.1273e+07,0,1.85,-2.07,22.8,-0.10519,0.011609,-0.18895,0.17757,20.805,-4.861,0.3674,-0.03,-0.01,-0.18,92.92
21270,6.1283e+07,0,1.84,-2.06,22.81,-0.10664,0.01231,-0.18955,0.1779,20.805,-4.861,0.36551,-0.03,-0.01,-0.18,92.92
21310,6.1293e+07,0,1.83,-2.06,22.81,-0.10775,0.012699,-0.18884,0.17817,20.805,-4.861,0.36799,-0.03,-0.01,-0.18,92.92
21351,6.1303e+07,0,1.83,-2.05,22.82,-0.10934,0.012903,-0.18725,0.17983,20.805,-4.861,0.37026,-0.03,-0.01,-0.18,92.92
21391,6.1313e+07,0,1.83,-2.05,22.82,-0.11072,0.012863,-0.1852,0.18011,20.805,-4.861,0.37236,-0.03,-0.01,-0.18,92.92
21438,6.1324e+07,0,1.83,-2.04,22.82,-0.11189,0.012378,-0.18252,0.17909,20.805,-4.861,0.3743,-0.03,-0.01,-0.18,92.92
21478,6.1334e+07,0,1.84,-2.04,22.82,-0.11297,0.011259,-0.18061,0.17218,20.805,-4.861,0.37592,-0.03,-0.01,-0.18,92.92
21518,6.1345e+07,0,1.84,-2.03,22.82,-0.11455,0.0094744,-0.18041,0.16686,20.805,-4.861,0.37412,-0.03,-0.01,-0.18,92.92
21558,6.1355e+07,0,1.83,-2.02,22.82,-0.11561,0.0074885,-0.18052,0.15809,20.805,-4.861,0.37578,-0.03,-0.01,-0.18,92.92
21598,6.1365e+07,0,1.82,-2.01,22.82,-0.11603,0.0057635,-0.18123,0.15191,20.805,-4.861,0.37911,-0.03,-0.01,-0.18,92.92
21638,6.1378e+07,0,1.8,-1.98,22.82,-0.11686,0.0039867,-0.18287,0.14881,20.805,-4.861,0.38148,-0.03,-0.01,-0.18,92.92
21678,6.1388e+07,0,1.78,-1.97,22.82,-0.11695,0.0035739,-0.18281,0.15113,20.805,-4.861,0.38451,-0.03,-0.01,-0.18,92.92
21719,6.1398e+07,0,1.76,-1.94,22.82,-0.117,0.0041117,-0.18192,0.15617,20.805,-4.861,0.38696,-0.03,-0.01,-0.18,92.92
21761,6.1408e+07,0,1.75,-1.92,22.82,-0.11706,0.0051149,-0.18043,0.16172,20.805,-4.861,0.38939,-0.03,-0.01,-0.18,92.92
21801,6.1419e+07,0,1.74,-1.89,22.83,-0.11768,0.0061445,-0.17937,0.16472,20.805,-4.861,0.39164,-0.03,-0.01,-0.18,92.92
21845,6.1429e+07,0,1.73,-1.85,22.84,-0.11838,0.0071506,-0.17888,0.16848,20.805,-4.861,0.39352,-0.03,-0.01,-0.18,92.92
21885,6.1439e+07,0,1.73,-1.81,22.85,-0.11957,0.0078845,-0.18064,0.17007,20.805,-4.861,0.39172,-0.03,-0.01,-0.18,92.92
21926,6.1449e+07,0,1.72,-1.77,22.87,-0.12013,0.0077916,-0.18241,0.16799,20.805,-4.861,0.39358,-0.03,-0.01,-0.18,92.92
21969,6.1462e+07,0,1.7,-1.71,22.88,-0.12084,0.0064556,-0.18549,0.16425,20.805,-4.861,0.39655,-0.03,-0.01,-0.18,92.92
22012,6.1475e+07,0,1.65,-1.62,22.9,-0.1229,0.0028396,-0.19045,0.16312,20.805,-4.861,0.39904,-0.03,-0.01,-0.18,92.92
22052,6.1485e+07,0,1.6,-1.55,22.91,-0.12563,-0.00057425,-0.19313,0.1666,20.805,-4.861,0.40182,-0.03,-0.01,-0.18,92.92
22092,6.1495e+07,0,1.53,-1.45,22.92,-0.12942,-0.0033077,-0.19446,0.16999,20.805,-4.861,0.40437,-0.03,-0.01,-0.18,92.92
22135,6.1505e+07,0,1.44,-1.33,22.94,-0.13496,-0.0048907,-0.19429,0.17561,20.805,-4.861,0.40649,-0.03,-0.01,-0.18,92.92
22175,6.1515e+07,0,1.36,-1.26,22.96,-0.1371,-0.0043776,-0.18302,0.18871,20.805,-4.8529,0.40867,-0.03,-0.01,-0.18,92.92
22220,6.1525e+07,0,1.3,-1.18,22.97,-0.13579,-0.0044505,-0.1718,0.19725,20.805,-4.8529,0.41077,-0.03,-0.01,-0.18,92.92
22260,6.1536e+07,0,1.25,-1.16,22.97,-0.13048,-0.0045537,-0.157,0.21151,20.805,-4.8529,0.40914,-0.03,-0.01,-0.18,92.92
22300,6.1546e+07,0,1.18,-1.16,22.98,-0.12421,-0.003663,-0.14265,0.21696,20.805,-4.8529,0.41108,-0.03,-0.01,-0.18,92.92
22340,6.1556e+07,0,1.14,-1.19,22.98,-0.12156,0.00057674,-0.13744,0.21406,20.805,-4.8529,0.41325,-0.03,-0.01,-0.18,92.92
22377,6.1567e+07,0,1.15,-1.23,22.97,-0.11906,0.0055952,-0.13961,0.2048,20.805,-4.8529,0.41672,-0.03,-0.01,-0.18,92.92
22418,6.1577e+07,0,1.19,-1.26,22.96,-0.11561,0.01087,-0.14752,0.19511,20.805,-4.8529,0.41992,-0.03,-0.01,-0.18,92.92
