LineNo,TimeUS,Roll,Pitch,Yaw,Alt,Lat,Lng,Q1,Q2,Q3,Q4
315,1.9492e+07,2.25,1.49,24.23,-0.8,43.601,13.482,0.97751,0.016532,0.016917,0.20956
659,1.9559e+07,2.25,1.49,24.22,-0.8,43.601,13.482,0.97753,0.016509,0.016921,0.20945
886,1.9604e+07,2.25,1.49,24.22,-0.8,43.601,13.482,0.97753,0.016477,0.016917,0.20946
1228,1.9765e+07,2.24,1.5,24.18,-0.9,43.601,13.482,0.97762,0.016414,0.016922,0.20907
1504,1.9836e+07,2.24,1.5,24.14,-0.9,43.601,13.482,0.97768,0.016419,0.016914,0.20878
1599,1.9858e+07,2.24,1.5,24.13,-0.74,43.601,13.482,0.97769,0.01644,0.01693,0.20871
1639,1.9868e+07,2.24,1.5,24.14,-0.74,43.601,13.482,0.97769,0.016453,0.016932,0.20873
1681,1.9878e+07,2.25,1.5,24.14,-0.74,43.601,13.482,0.97768,0.016468,0.016944,0.20876
1722,1.9888e+07,2.25,1.5,24.14,-0.74,43.601,13.482,0.97768,0.016473,0.016953,0.20879
1762,1.9901e+07,2.25,1.5,24.15,-0.74,43.601,13.482,0.97767,0.016461,0.016957,0.20882
1803,1.9912e+07,2.25,1.5,24.15,-0.74,43.601,13.482,0.97766,0.016463,0.016958,0.20884
1843,1.9922e+07,2.25,1.5,24.15,-0.74,43.601,13.482,0.97766,0.016465,0.016955,0.20888
1885,1.9932e+07,2.25,1.5,24.16,-0.74,43.601,13.482,0.97765,0.016463,0.01695,0.20891
1925,1.9942e+07,2.25,1.5,24.16,-0.74,43.601,13.482,0.97764,0.01645,0.016953,0.20893
1966,1.9952e+07,2.25,1.5,24.16,-0.74,43.601,13.482,0.97764,0.016451,0.01695,0.20896
2011,1.9962e+07,2.25,1.5,24.16,-0.45,43.601,13.482,0.97764,0.016451,0.016939,0.20898
2054,1.9972e+07,2.24,1.5,24.18,-0.45,43.601,13.482,0.97761,0.016448,0.016938,0.20908
2095,1.9983e+07,2.25,1.5,24.19,-0.45,43.601,13.482,0.97759,0.016449,0.016949,0.20918
2135,1.9993e+07,2.25,1.5,24.2,-0.45,43.601,13.482,0.97757,0.01646,0.016957,0.20926
2176,2.0004e+07,2.25,1.5,24.21,-0.45,43.601,13.482,0.97756,0.016474,0.016959,0.20932
2217,2.0013e+07,2.25,1.5,24.21,-0.45,43.601,13.482,0.97755,0.016486,0.016965,0.20938
2258,2.0024e+07,2.25,1.5,24.22,-0.45,43.601,13.482,0.97754,0.016499,0.016963,0.20944
2299,2.0034e+07,2.25,1.5,24.22,-0.45,43.601,13.482,0.97752,0.016512,0.016955,0.20949
2339,2.0044e+07,2.25,1.5,24.23,-0.45,43.601,13.482,0.97752,0.016524,0.01695,0.20953
2382,2.0054e+07,2.26,1.5,24.23,-0.45,43.601,13.482,0.97751,0.016531,0.016946,0.20957
2426,2.0064e+07,2.25,1.5,24.24,-0.63,43.601,13.482,0.9775,0.016526,0.016948,0.20961
2467,2.0074e+07,2.26,1.5,24.25,-0.63,43.601,13.482,0.97749,0.016531,0.016946,0.20967
2510,2.0084e+07,2.25,1.5,24.25,-0.63,43.601,13.482,0.97748,0.016527,0.016943,0.20972
2550,2.0095e+07,2.25,1.5,24.26,-0.63,43.601,13.482,0.97746,0.016521,0.016949,0.20977
2590,2.0105e+07,2.25,1.5,24.26,-0.63,43.601,13.482,0.97746,0.016521,0.016958,0.20981
2628,2.0115e+07,2.26,1.5,24.27,-0.63,43.601,13.482,0.97745,0.016527,0.016959,0.20984
2669,2.0125e+07,2.25,1.5,24.27,-0.63,43.601,13.482,0.97744,0.016519,0.016971,0.20987
2710,2.0135e+07,2.26,1.5,24.27,-0.63,43.601,13.482,0.97744,0.016528,0.016979,0.2099
2751,2.0145e+07,2.26,1.5,24.28,-0.63,43.601,13.482,0.97743,0.01653,0.01699,0.20993
2792,2.0155e+07,2.26,1.5,24.28,-0.63,43.601,13.482,0.97742,0.016537,0.016996,0.20995
2836,2.0165e+07,2.26,1.5,24.28,-0.75,43.601,13.482,0.97742,0.016542,0.017007,0.20997
2878,2.0175e+07,2.26,1.5,24.28,-0.75,43.601,13.482,0.97743,0.016552,0.017012,0.20993
2919,2.0186e+07,2.26,1.5,24.27,-0.75,43.601,13.482,0.97744,0.016561,0.017018,0.20989
2960,2.0195e+07,2.26,1.5,24.27,-0.75,43.601,13.482,0.97744,0.016567,0.017019,0.20987
3001,2.0205e+07,2.26,1.5,24.27,-0.75,43.601,13.482,0.97745,0.016571,0.017023,0.20985
3039,2.0215e+07,2.26,1.5,24.26,-0.75,43.601,13.482,0.97745,0.016576,0.017025,0.20982
3080,2.0226e+07,2.26,1.5,24.26,-0.75,43.601,13.482,0.97746,0.016582,0.017024,0.2098
3120,2.0235e+07,2.26,1.5,24.26,-0.75,43.601,13.482,0.97746,0.016574,0.017026,0.20978
3161,2.0246e+07,2.26,1.5,24.26,-0.75,43.601,13.482,0.97746,0.016567,0.017031,0.20976
3204,2.0256e+07,2.26,1.5,24.26,-0.75,43.601,13.482,0.97747,0.016574,0.017023,0.20975
3249,2.0265e+07,2.26,1.5,24.25,-0.44,43.601,13.482,0.97747,0.016565,0.017018,0.20973
3290,2.0275e+07,2.26,1.5,24.26,-0.44,43.601,13.482,0.97746,0.016563,0.017016,0.20977
3331,2.0286e+07,2.26,1.5,24.26,-0.44,43.601,13.482,0.97746,0.016559,0.017002,0.20981
3372,2.0296e+07,2.26,1.5,24.27,-0.44,43.601,13.482,0.97745,0.016549,0.016995,0.20984
3414,2.0306e+07,2.26,1.5,24.27,-0.44,43.601,13.482,0.97744,0.016544,0.016995,0.20987
3454,2.0316e+07,2.26,1.5,24.27,-0.44,43.601,13.482,0.97743,0.016537,0.016984,0.20991
3494,2.0326e+07,2.26,1.5,24.28,-0.44,43.601,13.482,0.97743,0.016535,0.016985,0.20993
3535,2.0337e+07,2.26,1.5,24.28,-0.44,43.601,13.482,0.97742,0.016541,0.01698,0.20996
3575,2.0347e+07,2.26,1.5,24.28,-0.44,43.601,13.482,0.97742,0.016536,0.016982,0.20999
3617,2.0357e+07,2.26,1.5,24.29,-0.44,43.601,13.482,0.97741,0.016535,0.016986,0.21002
3665,2.0368e+07,2.26,1.5,24.29,-0.81,43.601,13.482,0.97741,0.016532,0.016991,0.21004
3705,2.0378e+07,2.26,1.5,24.29,-0.81,43.601,13.482,0.9774,0.016538,0.016997,0.21007
3748,2.0388e+07,2.26,1.5,24.3,-0.81,43.601,13.482,0.97739,0.016542,0.017007,0.21009
3790,2.0398e+07,2.26,1.5,24.3,-0.81,43.601,13.482,0.97739,0.016537,0.017008,0.21012
3827,2.0408e+07,2.26,1.5,24.3,-0.81,43.601,13.482,0.97738,0.016529,0.017005,0.21014
3865,2.0419e+07,2.26,1.5,24.3,-0.81,43.601,13.482,0.97738,0.016517,0.017009,0.21016
3905,2.0429e+07,2.26,1.5,24.31,-0.81,43.601,13.482,0.97737,0.016511,0.017002,0.21018
3946,2.0439e+07,2.25,1.5,24.31,-0.81,43.601,13.482,0.97737,0.016506,0.016996,0.2102
3987,2.0449e+07,2.25,1.5,24.31,-0.81,43.601,13.482,0.97737,0.016492,0.016989,0.2102
4029,2.046e+07,2.25,1.5,24.31,-0.81,43.601,13.482,0.97737,0.016492,0.016973,0.21022
4075,2.047e+07,2.25,1.5,24.31,-0.4,43.601,13.482,0.97736,0.016494,0.016974,0.21023
4115,2.048e+07,2.25,1.5,24.31,-0.4,43.601,13.482,0.97738,0.016495,0.016969,0.21018
4157,2.049e+07,2.25,1.5,24.3,-0.4,43.601,13.482,0.97738,0.016506,0.016973,0.21014
4198,2.05e+07,2.25,1.5,24.3,-0.4,43.601,13.482,0.97739,0.016504,0.016975,0.2101
4235,2.051e+07,2.25,1.5,24.29,-0.4,43.601,13.482,0.9774,0.016516,0.016974,0.21006
4277,2.0521e+07,2.26,1.5,24.29,-0.4,43.601,13.482,0.97741,0.016528,0.016973,0.21003
4317,2.053e+07,2.26,1.5,24.29,-0.4,43.601,13.482,0.97741,0.016538,0.016964,0.21001
4358,2.0541e+07,2.26,1.5,24.28,-0.4,43.601,13.482,0.97742,0.016551,0.016953,0.20999
4398,2.0551e+07,2.26,1.49,24.28,-0.4,43.601,13.482,0.97742,0.016555,0.016928,0.20998
4439,2.0561e+07,2.26,1.49,24.28,-0.4,43.601,13.482,0.97742,0.016567,0.016924,0.20997
4486,2.0571e+07,2.26,1.49,24.28,-0.55,43.601,13.482,0.97742,0.016572,0.016914,0.20996
4526,2.0582e+07,2.26,1.49,24.27,-0.55,43.601,13.482,0.97744,0.016567,0.0169,0.2099
4568,2.0592e+07,2.26,1.49,24.27,-0.55,43.601,13.482,0.97745,0.016568,0.016897,0.20983
4611,2.0604e+07,2.26,1.49,24.26,-0.55,43.601,13.482,0.97746,0.016567,0.016896,0.20978
4655,2.0616e+07,2.26,1.49,24.25,-0.55,43.601,13.482,0.97747,0.016563,0.016898,0.20973
4696,2.0627e+07,2.26,1.49,24.25,-0.55,43.601,13.482,0.97748,0.016564,0.016909,0.20969
4736,2.0637e+07,2.26,1.49,24.24,-0.55,43.601,13.482,0.97749,0.016567,0.016906,0.20964
4779,2.0647e+07,2.26,1.49,24.24,-0.55,43.601,13.482,0.9775,0.016574,0.016903,0.20962
4820,2.0657e+07,2.26,1.49,24.24,-0.55,43.601,13.482,0.9775,0.016582,0.016905,0.20959
4861,2.0668e+07,2.26,1.49,24.23,-0.55,43.601,13.482,0.97751,0.016592,0.016907,0.20957
4906,2.0678e+07,2.26,1.49,24.24,-0.15,43.601,13.482,0.9775,0.016603,0.01691,0.20962
4947,2.0688e+07,2.26,1.49,24.26,-0.15,43.601,13.482,0.97747,0.016612,0.016919,0.20975
4988,2.0698e+07,2.27,1.49,24.27,-0.15,43.601,13.482,0.97744,0.016626,0.016925,0.20987
5029,2.0708e+07,2.27,1.49,24.28,-0.15,43.601,13.482,0.97742,0.016633,0.016932,0.20997
5070,2.072e+07,2.27,1.49,24.3,-0.15,43.601,13.482,0.97739,0.016641,0.016937,0.2101
5110,2.0731e+07,2.27,1.49,24.31,-0.15,43.601,13.482,0.97738,0.01663,0.016934,0.21018
5152,2.0741e+07,2.27,1.49,24.31,-0.15,43.601,13.482,0.97736,0.016616,0.016927,0.21025
5193,2.0751e+07,2.26,1.49,24.32,-0.15,43.601,13.482,0.97735,0.01661,0.016922,0.21031
5233,2.0761e+07,2.26,1.49,24.33,-0.15,43.601,13.482,0.97734,0.016598,0.016914,0.21036
5278,2.0771e+07,2.26,1.49,24.33,-0.42,43.601,13.482,0.97732,0.016587,0.016907,0.21042
5319,2.0781e+07,2.26,1.49,24.34,-0.42,43.601,13.482,0.9773,0.016575,0.016903,0.21051
5363,2.0792e+07,2.26,1.49,24.36,-0.42,43.601,13.482,0.97728,0.016565,0.016889,0.21063
5406,2.0801e+07,2.26,1.49,24.37,-0.42,43.601,13.482,0.97726,0.016563,0.016893,0.21073
5446,2.0811e+07,2.26,1.49,24.38,-0.42,43.601,13.482,0.97724,0.016561,0.016897,0.21083
5484,2.0824e+07,2.26,1.49,24.39,-0.42,43.601,13.482,0.97721,0.016565,0.016891,0.21094
5525,2.0834e+07,2.26,1.49,24.4,-0.42,43.601,13.482,0.9772,0.016572,0.0169,0.21101
5569,2.0845e+07,2.26,1.49,24.41,-0.42,43.601,13.482,0.97718,0.016584,0.016909,0.21108
5610,2.0854e+07,2.26,1.49,24.42,-0.42,43.601,13.482,0.97717,0.016594,0.016925,0.21114
5650,2.0865e+07,2.27,1.49,24.42,-0.42,43.601,13.482,0.97716,0.016604,0.016941,0.21119
5695,2.0875e+07,2.27,1.49,24.43,-0.28,43.601,13.482,0.97715,0.01661,0.01695,0.21124
5735,2.0885e+07,2.27,1.49,24.44,-0.28,43.601,13.482,0.97713,0.016613,0.016965,0.2113
5778,2.0895e+07,2.27,1.49,24.44,-0.28,43.601,13.482,0.97712,0.016623,0.016967,0.21136
5818,2.0906e+07,2.27,1.49,24.45,-0.28,43.601,13.482,0.97711,0.016615,0.016965,0.21141
5856,2.0915e+07,2.27,1.49,24.46,-0.28,43.601,13.482,0.9771,0.016612,0.016959,0.21146
5895,2.0925e+07,2.27,1.49,24.46,-0.28,43.601,13.482,0.97709,0.016602,0.016964,0.21149
5935,2.0936e+07,2.26,1.49,24.46,-0.28,43.601,13.482,0.97708,0.016586,0.016966,0.21153
5977,2.0946e+07,2.26,1.49,24.47,-0.28,43.601,13.482,0.97708,0.016577,0.01697,0.21156
6018,2.0956e+07,2.26,1.49,24.47,-0.28,43.601,13.482,0.97707,0.016561,0.016968,0.21157
6058,2.0966e+07,2.26,1.49,24.47,-0.28,43.601,13.482,0.97707,0.016559,0.016967,0.21159
6103,2.0976e+07,2.26,1.49,24.47,-0.65,43.601,13.482,0.97707,0.01656,0.016967,0.21161
6143,2.0986e+07,2.26,1.49,24.49,-0.65,43.601,13.482,0.97704,0.016573,0.016969,0.21173
6185,2.0996e+07,2.27,1.49,24.5,-0.65,43.601,13.482,0.97702,0.016592,0.01697,0.21183
6226,2.1006e+07,2.27,1.49,24.51,-0.65,43.601,13.482,0.977,0.016605,0.016991,0.21192
6266,2.1015e+07,2.27,1.49,24.52,-0.65,43.601,13.482,0.97698,0.016632,0.017006,0.212
6304,2.1026e+07,2.27,1.5,24.53,-0.65,43.601,13.482,0.97696,0.016648,0.017015,0.21207
6345,2.1035e+07,2.28,1.5,24.54,-0.65,43.601,13.482,0.97695,0.016676,0.017022,0.21214
6389,2.1046e+07,2.28,1.49,24.54,-0.65,43.601,13.482,0.97694,0.016688,0.017017,0.21219
6429,2.1056e+07,2.28,1.49,24.55,-0.65,43.601,13.482,0.97692,0.016682,0.01701,0.21225
6473,2.1069e+07,2.27,1.49,24.55,-0.65,43.601,13.482,0.97691,0.016661,0.016978,0.2123
6517,2.1079e+07,2.27,1.49,24.56,-0.63,43.601,13.482,0.97691,0.016642,0.016963,0.21234
6558,2.1089e+07,2.27,1.49,24.56,-0.63,43.601,13.482,0.9769,0.01662,0.016955,0.21237
6600,2.1099e+07,2.27,1.49,24.56,-0.63,43.601,13.482,0.9769,0.016596,0.016959,0.21238
6640,2.1111e+07,2.27,1.49,24.57,-0.63,43.601,13.482,0.9769,0.016575,0.016974,0.21239
6678,2.1122e+07,2.26,1.49,24.57,-0.63,43.601,13.482,0.97689,0.016556,0.016991,0.2124
6718,2.1132e+07,2.26,1.5,24.57,-0.63,43.601,13.482,0.97689,0.016548,0.017013,0.21243
6761,2.1142e+07,2.26,1.5,24.57,-0.63,43.601,13.482,0.97689,0.016553,0.017028,0.21244
6801,2.1152e+07,2.26,1.5,24.57,-0.63,43.601,13.482,0.97688,0.016549,0.017046,0.21246
6842,2.1161e+07,2.27,1.5,24.58,-0.63,43.601,13.482,0.97688,0.016563,0.017059,0.21248
6883,2.1172e+07,2.27,1.5,24.58,-0.63,43.601,13.482,0.97687,0.016596,0.01708,0.21249
6928,2.1182e+07,2.27,1.5,24.58,-0.48,43.601,13.482,0.97687,0.016632,0.017086,0.21252
6969,2.1192e+07,2.28,1.5,24.59,-0.48,43.601,13.482,0.97686,0.016657,0.017083,0.21257
7009,2.1203e+07,2.28,1.5,24.59,-0.48,43.601,13.482,0.97685,0.016671,0.017089,0.2126
7050,2.1215e+07,2.28,1.5,24.59,-0.48,43.601,13.482,0.97684,0.016701,0.017095,0.21264
7090,2.1226e+07,2.29,1.5,24.6,-0.48,43.601,13.482,0.97683,0.016722,0.017102,0.21267
7131,2.1235e+07,2.28,1.5,24.6,-0.48,43.601,13.482,0.97682,0.016711,0.0171,0.2127
7174,2.1246e+07,2.28,1.5,24.6,-0.48,43.601,13.482,0.97682,0.016692,0.017106,0.21272
7216,2.1256e+07,2.28,1.5,24.61,-0.48,43.601,13.482,0.97681,0.016679,0.017113,0.21275
7257,2.1265e+07,2.28,1.5,24.61,-0.48,43.601,13.482,0.97681,0.016657,0.017115,0.21277
7301,2.1276e+07,2.28,1.51,24.61,-0.69,43.601,13.482,0.9768,0.016641,0.017128,0.2128
7343,2.1286e+07,2.27,1.51,24.61,-0.69,43.601,13.482,0.97681,0.016616,0.017129,0.21279
7386,2.1296e+07,2.27,1.51,24.61,-0.69,43.601,13.482,0.9768,0.016604,0.017118,0.2128
7426,2.1306e+07,2.27,1.51,24.61,-0.69,43.601,13.482,0.97681,0.016595,0.017107,0.2128
7470,2.1321e+07,2.27,1.5,24.61,-0.69,43.601,13.482,0.97681,0.016604,0.017096,0.21279
7511,2.1332e+07,2.27,1.5,24.61,-0.69,43.601,13.482,0.97681,0.016613,0.017083,0.21278
7552,2.1341e+07,2.27,1.5,24.61,-0.69,43.601,13.482,0.97681,0.016629,0.017071,0.21278
7594,2.1352e+07,2.27,1.5,24.61,-0.69,43.601,13.482,0.97681,0.016627,0.01706,0.21277
7634,2.1361e+07,2.27,1.5,24.61,-0.69,43.601,13.482,0.97681,0.016636,0.017051,0.21277
7675,2.1372e+07,2.28,1.5,24.61,-0.69,43.601,13.482,0.97681,0.016642,0.017058,0.21276
7721,2.1382e+07,2.27,1.5,24.6,-0.4,43.601,13.482,0.97683,0.016632,0.017068,0.21268
7762,2.1392e+07,2.27,1.5,24.57,-0.4,43.601,13.482,0.97689,0.016615,0.017075,0.21243
7804,2.1402e+07,2.27,1.5,24.55,-0.4,43.601,13.482,0.97693,0.016598,0.017078,0.21222
7847,2.1414e+07,2.27,1.5,24.52,-0.4,43.601,13.482,0.97698,0.016587,0.017071,0.21201
7888,2.1426e+07,2.26,1.5,24.5,-0.4,43.601,13.482,0.97702,0.016563,0.01705,0.2118
7928,2.1437e+07,2.26,1.5,24.48,-0.4,43.601,13.482,0.97705,0.016542,0.017043,0.21168
7969,2.1447e+07,2.26,1.5,24.47,-0.4,43.601,13.482,0.97707,0.016529,0.017036,0.21158
8014,2.1457e+07,2.26,1.5,24.46,-0.4,43.601,13.482,0.97709,0.01653,0.017037,0.21149
8054,2.1468e+07,2.26,1.5,24.45,-0.4,43.601,13.482,0.97711,0.016534,0.017038,0.21142
8099,2.1478e+07,2.26,1.5,24.44,-0.69,43.601,13.482,0.97713,0.016552,0.017043,0.21133
8139,2.1487e+07,2.26,1.5,24.43,-0.69,43.601,13.482,0.97714,0.016561,0.017044,0.21126
8181,2.1498e+07,2.26,1.5,24.43,-0.69,43.601,13.482,0.97715,0.016561,0.017054,0.2112
8222,2.1508e+07,2.26,1.51,24.42,-0.69,43.601,13.482,0.97717,0.016566,0.017067,0.21113
8262,2.1518e+07,2.27,1.51,24.41,-0.69,43.601,13.482,0.97718,0.016581,0.017083,0.21108
8297,2.1528e+07,2.27,1.51,24.4,-0.69,43.601,13.482,0.97719,0.016613,0.017102,0.21101
8338,2.1539e+07,2.27,1.51,24.4,-0.69,43.601,13.482,0.9772,0.016637,0.01711,0.21096
8378,2.1548e+07,2.28,1.51,24.39,-0.69,43.601,13.482,0.97722,0.016657,0.017108,0.2109
8419,2.1559e+07,2.28,1.5,24.39,-0.69,43.601,13.482,0.97722,0.01667,0.017082,0.21086
8460,2.1568e+07,2.28,1.5,24.38,-0.69,43.601,13.482,0.97723,0.016669,0.017069,0.21083
8510,2.1582e+07,2.28,1.5,24.38,-0.53,43.601,13.482,0.97724,0.016671,0.017056,0.21081
8551,2.1591e+07,2.27,1.5,24.38,-0.53,43.601,13.482,0.97723,0.016653,0.017054,0.21083
8592,2.1601e+07,2.27,1.5,24.38,-0.53,43.601,13.482,0.97723,0.016636,0.017037,0.21084
8633,2.1612e+07,2.27,1.5,24.39,-0.53,43.601,13.482,0.97722,0.016615,0.017034,0.21087
8670,2.1621e+07,2.27,1.5,24.39,-0.53,43.601,13.482,0.97722,0.016585,0.017031,0.21089
8711,2.1634e+07,2.26,1.5,24.39,-0.53,43.601,13.482,0.97722,0.016556,0.017032,0.21091
8753,2.1645e+07,2.26,1.5,24.39,-0.53,43.601,13.482,0.97721,0.016546,0.017045,0.21093
8794,2.1655e+07,2.26,1.51,24.4,-0.53,43.601,13.482,0.97721,0.016546,0.017057,0.21095
8836,2.1665e+07,2.26,1.51,24.4,-0.53,43.601,13.482,0.97721,0.016556,0.017068,0.21095
8877,2.1675e+07,2.26,1.51,24.4,-0.53,43.601,13.482,0.97721,0.016564,0.01707,0.21094
8922,2.1685e+07,2.26,1.51,24.4,-0.52,43.601,13.482,0.97721,0.016567,0.017074,0.21094
8962,2.1695e+07,2.27,1.51,24.39,-0.52,43.601,13.482,0.97721,0.016574,0.01707,0.21092
9003,2.1705e+07,2.27,1.5,24.39,-0.52,43.601,13.482,0.97721,0.016589,0.017065,0.21092
9043,2.1715e+07,2.27,1.5,24.39,-0.52,43.601,13.482,0.97721,0.016593,0.017063,0.21091
9084,2.1725e+07,2.27,1.51,24.39,-0.52,43.601,13.482,0.97721,0.016606,0.017078,0.21091
9122,2.1735e+07,2.27,1.51,24.39,-0.52,43.601,13.482,0.97722,0.016607,0.01709,0.21091
9162,2.1746e+07,2.27,1.51,24.39,-0.52,43.601,13.482,0.97722,0.016588,0.017106,0.21091
9203,2.1756e+07,2.27,1.51,24.39,-0.52,43.601,13.482,0.97721,0.016564,0.017117,0.21092
9243,2.1766e+07,2.26,1.51,24.4,-0.52,43.601,13.482,0.97721,0.016547,0.017122,0.21094
9284,2.1776e+07,2.26,1.51,24.4,-0.52,43.601,13.482,0.97721,0.016535,0.017133,0.21096
9328,2.1786e+07,2.26,1.51,24.4,-0.25,43.601,13.482,0.9772,0.016516,0.017126,0.21097
9372,2.1796e+07,2.26,1.51,24.4,-0.25,43.601,13.482,0.9772,0.016501,0.017113,0.21097
9413,2.1806e+07,2.26,1.51,24.4,-0.25,43.601,13.482,0.9772,0.016493,0.017099,0.21098
9453,2.1815e+07,2.26,1.51,24.4,-0.25,43.601,13.482,0.9772,0.016488,0.017086,0.211
9492,2.1825e+07,2.26,1.51,24.4,-0.25,43.601,13.482,0.9772,0.016488,0.01707,0.21099
9537,2.1876e+07,2.26,1.51,24.4,-0.25,43.601,13.482,0.9772,0.016555,0.017099,0.21097
9582,2.1886e+07,2.26,1.51,24.39,-0.33,43.601,13.482,0.97721,0.016554,0.017114,0.21093
9623,2.1896e+07,2.27,1.51,24.38,-0.33,43.601,13.482,0.97723,0.016568,0.017135,0.21084
9664,2.1906e+07,2.27,1.51,24.37,-0.33,43.601,13.482,0.97725,0.016574,0.017142,0.21076
9704,2.1915e+07,2.27,1.51,24.37,-0.33,43.601,13.482,0.97726,0.016568,0.017141,0.2107
9738,2.1926e+07,2.26,1.51,24.36,-0.33,43.601,13.482,0.97727,0.016551,0.017133,0.21066
9779,2.1936e+07,2.26,1.51,24.36,-0.33,43.601,13.482,0.97728,0.016534,0.017129,0.21062
9820,2.1946e+07,2.26,1.51,24.35,-0.33,43.601,13.482,0.97729,0.016512,0.017123,0.21059
9861,2.1956e+07,2.26,1.52,24.35,-0.33,43.601,13.482,0.97729,0.016499,0.017128,0.21056
9902,2.1965e+07,2.26,1.52,24.35,-0.33,43.601,13.482,0.9773,0.016477,0.017131,0.21054
9943,2.1975e+07,2.25,1.52,24.34,-0.33,43.601,13.482,0.9773,0.016472,0.017138,0.2105
9988,2.1985e+07,2.25,1.52,24.34,-0.53,43.601,13.482,0.97731,0.016462,0.01715,0.21047
10029,2.1996e+07,2.25,1.52,24.33,-0.53,43.601,13.482,0.97732,0.016465,0.017166,0.21041
10070,2.2006e+07,2.26,1.52,24.33,-0.53,43.601,13.482,0.97734,0.016468,0.017184,0.21035
10110,2.2015e+07,2.26,1.52,24.32,-0.53,43.601,13.482,0.97735,0.016475,0.01719,0.2103
10148,2.2025e+07,2.26,1.52,24.32,-0.53,43.601,13.482,0.97735,0.016491,0.0172,0.21028
10188,2.2036e+07,2.26,1.52,24.31,-0.53,43.601,13.482,0.97736,0.016509,0.017199,0.21025
10231,2.2046e+07,2.26,1.52,24.31,-0.53,43.601,13.482,0.97736,0.016526,0.017195,0.21023
10271,2.2056e+07,2.26,1.52,24.31,-0.53,43.601,13.482,0.97737,0.016532,0.017184,0.21021
10313,2.2065e+07,2.26,1.52,24.31,-0.53,43.601,13.482,0.97737,0.016527,0.01718,0.21019
10353,2.2076e+07,2.26,1.52,24.31,-0.53,43.601,13.482,0.97737,0.016526,0.017173,0.21018
10399,2.2085e+07,2.26,1.52,24.31,-0.24,43.601,13.482,0.97736,0.016518,0.017181,0.21024
10439,2.2096e+07,2.26,1.52,24.34,-0.24,43.601,13.482,0.97732,0.016516,0.017184,0.21044
10481,2.2106e+07,2.26,1.52,24.36,-0.24,43.601,13.482,0.97728,0.016507,0.017187,0.21062
10522,2.2116e+07,2.26,1.52,24.38,-0.24,43.601,13.482,0.97724,0.016494,0.017191,0.21078
10559,2.2126e+07,2.26,1.52,24.39,-0.24,43.601,13.482,0.97721,0.016475,0.017196,0.21092
10600,2.2136e+07,2.26,1.52,24.41,-0.24,43.601,13.482,0.97719,0.016468,0.017196,0.21103
10640,2.2147e+07,2.26,1.52,24.42,-0.24,43.601,13.482,0.97717,0.016459,0.017196,0.21114
10682,2.2157e+07,2.26,1.52,24.43,-0.24,43.601,13.482,0.97714,0.016461,0.017195,0.21125
10722,2.2168e+07,2.26,1.52,24.44,-0.24,43.601,13.482,0.97712,0.016467,0.017192,0.21134
10764,2.2178e+07,2.26,1.52,24.45,-0.24,43.601,13.482,0.97711,0.016457,0.017192,0.21142
10809,2.2188e+07,2.26,1.52,24.46,-0.26,43.601,13.482,0.97709,0.016451,0.017191,0.21147
10849,2.2198e+07,2.25,1.52,24.45,-0.26,43.601,13.482,0.9771,0.016445,0.017194,0.21144
10890,2.2209e+07,2.25,1.52,24.45,-0.26,43.601,13.482,0.97711,0.016442,0.017203,0.21141
10936,2.2224e+07,2.26,1.52,24.45,-0.26,43.601,13.482,0.97711,0.016455,0.01721,0.21138
10978,2.2234e+07,2.26,1.52,24.45,-0.26,43.601,13.482,0.97712,0.016459,0.017221,0.21137
11018,2.2244e+07,2.26,1.53,24.44,-0.26,43.601,13.482,0.97712,0.016448,0.017223,0.21135
11061,2.2255e+07,2.25,1.53,24.44,-0.26,43.601,13.482,0.97712,0.016437,0.017225,0.21133
11101,2.2265e+07,2.25,1.53,24.44,-0.26,43.601,13.482,0.97712,0.016428,0.017228,0.21133
11143,2.2274e+07,2.25,1.53,24.44,-0.26,43.601,13.482,0.97713,0.016433,0.01722,0.21132
11189,2.2285e+07,2.25,1.52,24.44,-0.62,43.601,13.482,0.97713,0.016429,0.017207,0.21132
11231,2.2295e+07,2.25,1.52,24.42,-0.62,43.601,13.482,0.97716,0.016434,0.01719,0.21118
11272,2.2305e+07,2.25,1.52,24.41,-0.62,43.601,13.482,0.97719,0.016439,0.01719,0.21104
11312,2.2316e+07,2.25,1.52,24.39,-0.62,43.601,13.482,0.97721,0.016441,0.017174,0.21092
11354,2.2326e+07,2.25,1.52,24.38,-0.62,43.601,13.482,0.97724,0.016438,0.017162,0.21081
11391,2.2336e+07,2.25,1.52,24.37,-0.62,43.601,13.482,0.97726,0.01643,0.017152,0.21071
11432,2.2346e+07,2.25,1.52,24.36,-0.62,43.601,13.482,0.97728,0.016437,0.017151,0.21063
11473,2.2356e+07,2.25,1.52,24.35,-0.62,43.601,13.482,0.97729,0.016441,0.017149,0.21055
11513,2.2366e+07,2.25,1.52,24.34,-0.62,43.601,13.482,0.97731,0.016437,0.017153,0.21049
11555,2.2377e+07,2.25,1.52,24.34,-0.62,43.601,13.482,0.97732,0.016441,0.017151,0.21043
11600,2.2387e+07,2.25,1.52,24.33,-0.2,43.601,13.482,0.97733,0.01644,0.017147,0.21037
11643,2.2398e+07,2.25,1.52,24.34,-0.2,43.601,13.482,0.97731,0.016447,0.017148,0.21046
11684,2.2407e+07,2.25,1.52,24.35,-0.2,43.601,13.482,0.97729,0.016452,0.017145,0.21059
11724,2.2418e+07,2.25,1.52,24.37,-0.2,43.601,13.482,0.97726,0.01646,0.017137,0.21071
11765,2.2427e+07,2.25,1.52,24.38,-0.2,43.601,13.482,0.97724,0.016471,0.017128,0.21081
11802,2.2439e+07,2.25,1.51,24.39,-0.2,43.601,13.482,0.97722,0.016464,0.017122,0.2109
11844,2.2449e+07,2.25,1.51,24.4,-0.2,43.601,13.482,0.9772,0.016461,0.017117,0.21099
11886,2.2458e+07,2.25,1.51,24.41,-0.2,43.601,13.482,0.97718,0.016464,0.017112,0.21107
11927,2.2469e+07,2.26,1.51,24.42,-0.2,43.601,13.482,0.97717,0.016472,0.017116,0.21113
11969,2.2479e+07,2.26,1.51,24.43,-0.2,43.601,13.482,0.97715,0.016473,0.017108,0.2112
12014,2.2489e+07,2.26,1.51,24.43,-0.59,43.601,13.482,0.97714,0.016473,0.017106,0.21125
12055,2.2499e+07,2.26,1.51,24.43,-0.59,43.601,13.482,0.97715,0.016477,0.017107,0.2112
12095,2.251e+07,2.26,1.51,24.42,-0.59,43.601,13.482,0.97717,0.016483,0.017117,0.21113
12139,2.2523e+07,2.26,1.51,24.41,-0.59,43.601,13.482,0.97719,0.016483,0.017111,0.21104
12181,2.2534e+07,2.26,1.51,24.4,-0.59,43.601,13.482,0.9772,0.016498,0.017104,0.21098
12221,2.2544e+07,2.26,1.51,24.39,-0.59,43.601,13.482,0.97721,0.016518,0.017104,0.21092
12259,2.2554e+07,2.26,1.51,24.39,-0.59,43.601,13.482,0.97722,0.016531,0.017096,0.21088
12299,2.2564e+07,2.26,1.51,24.38,-0.59,43.601,13.482,0.97723,0.016529,0.017088,0.21083
12340,2.2574e+07,2.26,1.51,24.38,-0.59,43.601,13.482,0.97724,0.01653,0.017083,0.2108
12382,2.2584e+07,2.26,1.51,24.37,-0.59,43.601,13.482,0.97725,0.016527,0.01708,0.21077
12429,2.2595e+07,2.26,1.51,24.37,-0.26,43.601,13.482,0.97725,0.016528,0.017079,0.21074
12469,2.2605e+07,2.26,1.51,24.38,-0.26,43.601,13.482,0.97724,0.016537,0.017085,0.2108
12510,2.2615e+07,2.26,1.51,24.38,-0.26,43.601,13.482,0.97723,0.016541,0.017085,0.21084
12551,2.2625e+07,2.26,1.51,24.39,-0.26,43.601,13.482,0.97722,0.016538,0.017094,0.21089
12588,2.2635e+07,2.26,1.51,24.39,-0.26,43.601,13.482,0.97721,0.016539,0.017092,0.21092
12628,2.2645e+07,2.26,1.51,24.4,-0.26,43.601,13.482,0.97721,0.016539,0.017094,0.21094
12669,2.2656e+07,2.26,1.51,24.4,-0.26,43.601,13.482,0.9772,0.016552,0.017106,0.21097
12710,2.2666e+07,2.26,1.51,24.4,-0.26,43.601,13.482,0.9772,0.016556,0.017098,0.211
12750,2.2676e+07,2.26,1.51,24.41,-0.26,43.601,13.482,0.97719,0.016565,0.017091,0.21104
12793,2.2685e+07,2.27,1.51,24.41,-0.26,43.601,13.482,0.97718,0.01657,0.017079,0.21106
12838,2.2695e+07,2.26,1.51,24.41,-0.44,43.601,13.482,0.97718,0.016568,0.017072,0.21108
12878,2.2706e+07,2.27,1.51,24.42,-0.44,43.601,13.482,0.97716,0.016569,0.017079,0.21115
12919,2.2716e+07,2.27,1.51,24.43,-0.44,43.601,13.482,0.97715,0.016573,0.017072,0.21123
12959,2.2726e+07,2.27,1.51,24.43,-0.44,43.601,13.482,0.97714,0.016574,0.017081,0.21128
12997,2.2738e+07,2.27,1.51,24.44,-0.44,43.601,13.482,0.97712,0.016581,0.017083,0.21134
13037,2.2748e+07,2.27,1.51,24.45,-0.44,43.601,13.482,0.97711,0.016581,0.017096,0.21138
13079,2.2758e+07,2.27,1.51,24.45,-0.44,43.601,13.482,0.97711,0.016585,0.017103,0.21142
13120,2.2769e+07,2.27,1.51,24.46,-0.44,43.601,13.482,0.9771,0.016591,0.017101,0.21145
13160,2.2779e+07,2.27,1.51,24.46,-0.44,43.601,13.482,0.97709,0.016601,0.0171,0.21149
13203,2.2789e+07,2.27,1.51,24.46,-0.44,43.601,13.482,0.97708,0.016604,0.01709,0.21153
13248,2.2799e+07,2.27,1.5,24.47,-0.33,43.601,13.482,0.97707,0.016616,0.017076,0.21158
13289,2.281e+07,2.27,1.5,24.48,-0.33,43.601,13.482,0.97705,0.01662,0.017074,0.21166
13330,2.282e+07,2.27,1.5,24.49,-0.33,43.601,13.482,0.97703,0.016622,0.017068,0.21175
13370,2.283e+07,2.27,1.5,24.5,-0.33,43.601,13.482,0.97702,0.01662,0.01707,0.21182
13411,2.2841e+07,2.27,1.5,24.51,-0.33,43.601,13.482,0.97701,0.016618,0.017073,0.21188
13451,2.2851e+07,2.27,1.5,24.51,-0.33,43.601,13.482,0.97699,0.016603,0.01708,0.21194
13493,2.2861e+07,2.27,1.5,24.52,-0.33,43.601,13.482,0.97698,0.016595,0.017077,0.212
13534,2.2871e+07,2.27,1.5,24.52,-0.33,43.601,13.482,0.97697,0.016584,0.017068,0.21204
13574,2.2881e+07,2.27,1.5,24.53,-0.33,43.601,13.482,0.97696,0.016562,0.017057,0.21208
13616,2.2891e+07,2.26,1.5,24.53,-0.33,43.601,13.482,0.97696,0.016541,0.017045,0.2121
13660,2.2901e+07,2.26,1.5,24.53,-0.48,43.601,13.482,0.97696,0.016523,0.017033,0.2121
13702,2.2912e+07,2.26,1.5,24.52,-0.48,43.601,13.482,0.97699,0.016515,0.017033,0.21198
13742,2.2921e+07,2.26,1.5,24.5,-0.48,43.601,13.482,0.97701,0.01651,0.017043,0.21187
13783,2.2931e+07,2.26,1.5,24.49,-0.48,43.601,13.482,0.97703,0.016518,0.017053,0.21178
13821,2.2942e+07,2.26,1.5,24.48,-0.48,43.601,13.482,0.97705,0.016531,0.017066,0.21169
13861,2.2952e+07,2.26,1.51,24.47,-0.48,43.601,13.482,0.97706,0.016542,0.017079,0.21161
13902,2.2963e+07,2.27,1.51,24.47,-0.48,43.601,13.482,0.97708,0.01656,0.017093,0.21154
13944,2.2973e+07,2.27,1.51,24.46,-0.48,43.601,13.482,0.97709,0.016596,0.017099,0.21149
13985,2.2982e+07,2.27,1.51,24.45,-0.48,43.601,13.482,0.9771,0.016616,0.017106,0.21145
14026,2.2993e+07,2.27,1.51,24.45,-0.48,43.601,13.482,0.9771,0.016643,0.017105,0.21142
14070,2.3003e+07,2.28,1.51,24.45,-0.43,43.601,13.482,0.97711,0.01665,0.017106,0.21138
14112,2.3013e+07,2.27,1.51,24.44,-0.43,43.601,13.482,0.97712,0.016645,0.017109,0.21134
14152,2.3023e+07,2.27,1.51,24.44,-0.43,43.601,13.482,0.97713,0.016629,0.017103,0.2113
14197,2.3036e+07,2.27,1.51,24.43,-0.43,43.601,13.482,0.97714,0.016605,0.017099,0.21126
14239,2.3046e+07,2.27,1.51,24.43,-0.43,43.601,13.482,0.97714,0.016581,0.017108,0.21124
14277,2.3056e+07,2.26,1.51,24.43,-0.43,43.601,13.482,0.97715,0.016541,0.0171,0.2112
14319,2.3066e+07,2.26,1.51,24.42,-0.43,43.601,13.482,0.97716,0.016501,0.01709,0.21118
14359,2.3076e+07,2.25,1.51,24.42,-0.43,43.601,13.482,0.97716,0.016472,0.017086,0.21116
14400,2.3087e+07,2.25,1.51,24.42,-0.43,43.601,13.482,0.97717,0.016471,0.017095,0.21113
14440,2.3097e+07,2.26,1.51,24.42,-0.43,43.601,13.482,0.97717,0.016484,0.017087,0.21112
14486,2.3107e+07,2.25,1.51,24.42,-0.48,43.601,13.482,0.97717,0.016475,0.017077,0.21111
14527,2.3117e+07,2.26,1.51,24.41,-0.48,43.601,13.482,0.97718,0.016483,0.017065,0.21111
14568,2.3127e+07,2.26,1.51,24.41,-0.48,43.601,13.482,0.97717,0.016513,0.017058,0.21111
14609,2.3137e+07,2.26,1.5,24.42,-0.48,43.601,13.482,0.97717,0.016547,0.01706,0.21112
14649,2.315e+07,2.27,1.5,24.42,-0.48,43.601,13.482,0.97717,0.016589,0.017051,0.21113
14690,2.3161e+07,2.27,1.5,24.42,-0.48,43.601,13.482,0.97717,0.016621,0.017052,0.21114
14730,2.317e+07,2.27,1.5,24.42,-0.48,43.601,13.482,0.97716,0.016646,0.017041,0.21115
14771,2.318e+07,2.27,1.5,24.42,-0.48,43.601,13.482,0.97716,0.016658,0.017037,0.21115
14812,2.3191e+07,2.27,1.5,24.42,-0.48,43.601,13.482,0.97716,0.016647,0.017033,0.21116
14857,2.3201e+07,2.27,1.5,24.42,-0.69,43.601,13.482,0.97716,0.016618,0.017028,0.21115
14899,2.3211e+07,2.26,1.5,24.41,-0.69,43.601,13.482,0.97719,0.016577,0.01702,0.21104
14939,2.3221e+07,2.26,1.5,24.39,-0.69,43.601,13.482,0.97722,0.016522,0.017013,0.21091
14980,2.3231e+07,2.25,1.5,24.38,-0.69,43.601,13.482,0.97724,0.016468,0.016996,0.21079
15020,2.3241e+07,2.25,1.5,24.36,-0.69,43.601,13.482,0.97727,0.016431,0.016989,0.21068
15061,2.3251e+07,2.25,1.5,24.35,-0.69,43.601,13.482,0.97729,0.016424,0.016993,0.21059
15099,2.3262e+07,2.25,1.5,24.35,-0.69,43.601,13.482,0.9773,0.016431,0.017005,0.21052
15139,2.3272e+07,2.25,1.5,24.34,-0.69,43.601,13.482,0.97732,0.016455,0.017012,0.21046
15182,2.3283e+07,2.26,1.5,24.33,-0.69,43.601,13.482,0.97733,0.016505,0.017019,0.21041
15222,2.3293e+07,2.26,1.5,24.33,-0.69,43.601,13.482,0.97733,0.016543,0.017034,0.21037
15268,2.3304e+07,2.27,1.5,24.32,-0.72,43.601,13.482,0.97734,0.016586,0.017053,0.21033
15308,2.3314e+07,2.27,1.5,24.32,-0.72,43.601,13.482,0.97734,0.016631,0.017062,0.21033
15350,2.3324e+07,2.27,1.51,24.32,-0.72,43.601,13.482,0.97734,0.016655,0.017072,0.21034
15393,2.3336e+07,2.27,1.51,24.33,-0.72,43.601,13.482,0.97733,0.01666,0.017086,0.21035
15434,2.3347e+07,2.27,1.51,24.33,-0.72,43.601,13.482,0.97733,0.016656,0.01709,0.21035
15476,2.3357e+07,2.27,1.51,24.33,-0.72,43.601,13.482,0.97733,0.016629,0.017078,0.21037
15513,2.3368e+07,2.26,1.51,24.33,-0.72,43.601,13.482,0.97733,0.016578,0.017063,0.21037
15554,2.3378e+07,2.26,1.5,24.33,-0.72,43.601,13.482,0.97734,0.016521,0.017037,0.21036
15596,2.3388e+07,2.25,1.5,24.33,-0.72,43.601,13.482,0.97734,0.016465,0.017008,0.21035
15636,2.3398e+07,2.25,1.5,24.32,-0.72,43.601,13.482,0.97734,0.016424,0.016983,0.21034
15683,2.3408e+07,2.24,1.5,24.32,-0.46,43.601,13.482,0.97734,0.016398,0.016968,0.21034
15723,2.3419e+07,2.24,1.5,24.32,-0.46,43.601,13.482,0.97736,0.016382,0.016941,0.21028
15765,2.3429e+07,2.24,1.5,24.31,-0.46,43.601,13.482,0.97737,0.016387,0.016925,0.21024
15807,2.3439e+07,2.24,1.5,24.31,-0.46,43.601,13.482,0.97738,0.016396,0.01692,0.21019
15851,2.3452e+07,2.24,1.5,24.3,-0.46,43.601,13.482,0.97738,0.016419,0.016943,0.21015
15892,2.3463e+07,2.25,1.5,24.3,-0.46,43.601,13.482,0.97739,0.016454,0.016961,0.21012
15933,2.3472e+07,2.25,1.5,24.3,-0.46,43.601,13.482,0.97739,0.016488,0.016984,0.21011
15974,2.3482e+07,2.26,1.5,24.3,-0.46,43.601,13.482,0.97739,0.016512,0.017012,0.2101
16014,2.3493e+07,2.26,1.5,24.3,-0.46,43.601,13.482,0.97739,0.016523,0.017029,0.2101
16055,2.3503e+07,2.26,1.51,24.29,-0.46,43.601,13.482,0.97739,0.016527,0.01704,0.21009
16100,2.3513e+07,2.25,1.51,24.29,-0.48,43.601,13.482,0.9774,0.0165,0.017039,0.21008
16141,2.3523e+07,2.25,1.51,24.3,-0.48,43.601,13.482,0.97739,0.016473,0.017048,0.21009
16182,2.3533e+07,2.25,1.51,24.3,-0.48,43.601,13.482,0.97739,0.016441,0.017044,0.21011
16222,2.3543e+07,2.24,1.51,24.3,-0.48,43.601,13.482,0.97739,0.016382,0.017037,0.21011
16267,2.3559e+07,2.23,1.51,24.3,-0.48,43.601,13.482,0.97739,0.016302,0.017036,0.21011
16308,2.3569e+07,2.23,1.51,24.3,-0.48,43.601,13.482,0.97739,0.016263,0.017055,0.2101
16350,2.358e+07,2.23,1.51,24.3,-0.48,43.601,13.482,0.9774,0.016247,0.017063,0.21009
16390,2.359e+07,2.23,1.52,24.29,-0.48,43.601,13.482,0.9774,0.016241,0.017089,0.21009
16431,2.36e+07,2.23,1.52,24.29,-0.48,43.601,13.482,0.9774,0.016261,0.01711,0.21008
16477,2.3611e+07,2.23,1.52,24.29,-0.51,43.601,13.482,0.9774,0.016289,0.017121,0.21008
16518,2.3621e+07,2.24,1.52,24.29,-0.51,43.601,13.482,0.9774,0.016336,0.017131,0.21007
16560,2.3631e+07,2.24,1.52,24.29,-0.51,43.601,13.482,0.9774,0.016379,0.017135,0.21007
16603,2.3641e+07,2.25,1.52,24.29,-0.51,43.601,13.482,0.9774,0.016429,0.017137,0.21008
16643,2.3656e+07,2.25,1.52,24.3,-0.51,43.601,13.482,0.97739,0.016478,0.017122,0.2101
16684,2.3667e+07,2.25,1.51,24.3,-0.51,43.601,13.482,0.97739,0.01649,0.017097,0.21009
16726,2.3677e+07,2.26,1.51,24.3,-0.51,43.601,13.482,0.97739,0.016492,0.017085,0.2101
16766,2.3687e+07,2.25,1.51,24.3,-0.51,43.601,13.482,0.97739,0.01647,0.017076,0.2101
16807,2.3697e+07,2.25,1.51,24.3,-0.51,43.601,13.482,0.97739,0.016437,0.01707,0.2101
16847,2.3707e+07,2.24,1.51,24.29,-0.51,43.601,13.482,0.9774,0.016394,0.01707,0.21008
16893,2.3718e+07,2.24,1.51,24.29,-0.22,43.601,13.482,0.9774,0.016345,0.017077,0.21007
16933,2.3728e+07,2.23,1.52,24.29,-0.22,43.601,13.482,0.9774,0.016306,0.017086,0.21005
16974,2.3738e+07,2.23,1.52,24.29,-0.22,43.601,13.482,0.97741,0.016282,0.017087,0.21004
17015,2.3748e+07,2.23,1.52,24.29,-0.22,43.601,13.482,0.97741,0.016277,0.0171,0.21002
17049,2.3758e+07,2.23,1.52,24.29,-0.22,43.601,13.482,0.97741,0.016281,0.017103,0.21002
17089,2.3769e+07,2.23,1.52,24.29,-0.22,43.601,13.482,0.97741,0.016305,0.017121,0.21001
17132,2.3779e+07,2.24,1.52,24.29,-0.22,43.601,13.482,0.97741,0.016341,0.017123,0.21002
17174,2.3789e+07,2.24,1.52,24.29,-0.22,43.601,13.482,0.97741,0.016378,0.017123,0.21004
17214,2.3799e+07,2.25,1.52,24.29,-0.22,43.601,13.482,0.9774,0.016414,0.017123,0.21005
17255,2.3809e+07,2.25,1.52,24.29,-0.22,43.601,13.482,0.9774,0.016449,0.017125,0.21006
17300,2.382e+07,2.25,1.52,24.29,-0.46,43.601,13.482,0.9774,0.016474,0.017133,0.21005
17341,2.3829e+07,2.25,1.52,24.29,-0.46,43.601,13.482,0.97741,0.01646,0.017147,0.21002
17382,2.384e+07,2.25,1.52,24.28,-0.46,43.601,13.482,0.97742,0.016436,0.017146,0.20998
17424,2.3849e+07,2.25,1.52,24.28,-0.46,43.601,13.482,0.97743,0.016418,0.017152,0.20994
17466,2.3859e+07,2.25,1.52,24.28,-0.46,43.601,13.482,0.97743,0.016402,0.017149,0.20992
17506,2.387e+07,2.24,1.52,24.27,-0.46,43.601,13.482,0.97744,0.016362,0.01716,0.20989
17548,2.388e+07,2.24,1.52,24.27,-0.46,43.601,13.482,0.97744,0.016317,0.017156,0.20987
17589,2.389e+07,2.23,1.53,24.27,-0.46,43.601,13.482,0.97745,0.016293,0.01716,0.20985
17630,2.39e+07,2.23,1.52,24.27,-0.46,43.601,13.482,0.97745,0.01628,0.017152,0.20984
17671,2.391e+07,2.23,1.52,24.26,-0.46,43.601,13.482,0.97745,0.016279,0.017135,0.20982
17715,2.392e+07,2.23,1.52,24.26,-0.55,43.601,13.482,0.97745,0.016304,0.017116,0.20982
17756,2.393e+07,2.24,1.52,24.26,-0.55,43.601,13.482,0.97745,0.016354,0.01711,0.20982
17797,2.3941e+07,2.24,1.52,24.26,-0.55,43.601,13.482,0.97745,0.016402,0.017093,0.20983
17845,2.3956e+07,2.25,1.51,24.27,-0.55,43.601,13.482,0.97745,0.016465,0.017088,0.20984
17885,2.3967e+07,2.26,1.51,24.27,-0.55,43.601,13.482,0.97745,0.016498,0.017108,0.20984
17927,2.3977e+07,2.26,1.52,24.27,-0.55,43.601,13.482,0.97745,0.016521,0.017118,0.20984
17968,2.3987e+07,2.26,1.52,24.27,-0.55,43.601,13.482,0.97745,0.01652,0.017133,0.20984
18009,2.3997e+07,2.26,1.52,24.27,-0.55,43.601,13.482,0.97745,0.016512,0.017147,0.20984
18050,2.4008e+07,2.26,1.52,24.27,-0.55,43.601,13.482,0.97744,0.016495,0.017144,0.20985
18094,2.4019e+07,2.25,1.52,24.27,-0.53,43.601,13.482,0.97744,0.016465,0.017139,0.20987
18136,2.4029e+07,2.25,1.52,24.26,-0.53,43.601,13.482,0.97746,0.016421,0.017114,0.20977
18176,2.4039e+07,2.24,1.51,24.25,-0.53,43.601,13.482,0.97749,0.016388,0.017086,0.20967
18219,2.4049e+07,2.24,1.51,24.24,-0.53,43.601,13.482,0.9775,0.016363,0.017061,0.20959
18259,2.4059e+07,2.24,1.51,24.23,-0.53,43.601,13.482,0.97752,0.016345,0.017033,0.20951
18299,2.4069e+07,2.24,1.51,24.22,-0.53,43.601,13.482,0.97754,0.016341,0.017019,0.20943
18340,2.408e+07,2.24,1.51,24.21,-0.53,43.601,13.482,0.97755,0.01635,0.017008,0.20937
18381,2.409e+07,2.24,1.51,24.2,-0.53,43.601,13.482,0.97756,0.016383,0.017029,0.20932
18422,2.41e+07,2.24,1.51,24.2,-0.53,43.601,13.482,0.97757,0.016423,0.01704,0.20927
18463,2.4109e+07,2.25,1.51,24.19,-0.53,43.601,13.482,0.97758,0.01647,0.017075,0.20921
18510,2.4122e+07,2.26,1.51,24.19,-0.62,43.601,13.482,0.97759,0.016541,0.017099,0.20917
18551,2.4133e+07,2.26,1.51,24.19,-0.62,43.601,13.482,0.97759,0.016579,0.017111,0.20919
18592,2.4142e+07,2.27,1.51,24.19,-0.62,43.601,13.482,0.97758,0.016601,0.017105,0.20921
18633,2.4153e+07,2.27,1.51,24.19,-0.62,43.601,13.482,0.97758,0.016627,0.017099,0.20923
18674,2.4163e+07,2.27,1.51,24.2,-0.62,43.601,13.482,0.97757,0.01662,0.01706,0.20925
18711,2.4176e+07,2.26,1.5,24.2,-0.62,43.601,13.482,0.97757,0.016584,0.017005,0.20927
18752,2.4186e+07,2.26,1.5,24.2,-0.62,43.601,13.482,0.97757,0.016539,0.016977,0.20928
18794,2.4197e+07,2.25,1.5,24.2,-0.62,43.601,13.482,0.97757,0.016499,0.016961,0.20929
18834,2.4207e+07,2.25,1.5,24.2,-0.62,43.601,13.482,0.97757,0.01645,0.016958,0.2093
18876,2.4217e+07,2.24,1.5,24.2,-0.62,43.601,13.482,0.97756,0.016405,0.016951,0.20931
18920,2.4227e+07,2.24,1.5,24.21,-0.56,43.601,13.482,0.97756,0.016375,0.016953,0.20933
18961,2.4237e+07,2.24,1.5,24.21,-0.56,43.601,13.482,0.97756,0.016362,0.016965,0.20934
19002,2.4248e+07,2.24,1.5,24.21,-0.56,43.601,13.482,0.97755,0.016372,0.016974,0.20936
19044,2.426e+07,2.24,1.5,24.21,-0.56,43.601,13.482,0.97755,0.0164,0.016986,0.20938
19085,2.4271e+07,2.25,1.5,24.21,-0.56,43.601,13.482,0.97755,0.016444,0.016989,0.20939
19125,2.4281e+07,2.25,1.5,24.22,-0.56,43.601,13.482,0.97754,0.016491,0.016989,0.20941
19167,2.4291e+07,2.26,1.5,24.22,-0.56,43.601,13.482,0.97754,0.01654,0.016966,0.20942
19208,2.4301e+07,2.26,1.5,24.22,-0.56,43.601,13.482,0.97754,0.016579,0.016964,0.20943
19248,2.4311e+07,2.26,1.5,24.22,-0.56,43.601,13.482,0.97753,0.016616,0.016963,0.20945
19289,2.4321e+07,2.27,1.5,24.22,-0.56,43.601,13.482,0.97753,0.016619,0.016962,0.20946
19333,2.4331e+07,2.26,1.5,24.21,-0.84,43.601,13.482,0.97754,0.016596,0.016962,0.2094
19375,2.4341e+07,2.26,1.5,24.2,-0.84,43.601,13.482,0.97757,0.016555,0.016969,0.20928
19415,2.4351e+07,2.25,1.5,24.19,-0.84,43.601,13.482,0.97759,0.016516,0.016965,0.20918
19456,2.4361e+07,2.25,1.5,24.18,-0.84,43.601,13.482,0.97761,0.016468,0.016969,0.20908
19497,2.4374e+07,2.24,1.5,24.17,-0.84,43.601,13.482,0.97763,0.016403,0.016951,0.20898
19538,2.4384e+07,2.24,1.5,24.16,-0.84,43.601,13.482,0.97765,0.01637,0.016947,0.2089
19581,2.4394e+07,2.23,1.5,24.15,-0.84,43.601,13.482,0.97766,0.01635,0.01694,0.20885
19621,2.4404e+07,2.23,1.5,24.14,-0.84,43.601,13.482,0.97768,0.016342,0.016923,0.20878
19663,2.4415e+07,2.23,1.5,24.14,-0.84,43.601,13.482,0.97769,0.016357,0.016897,0.20873
19708,2.4425e+07,2.24,1.49,24.13,-0.55,43.601,13.482,0.9777,0.016387,0.016885,0.20868
19749,2.4435e+07,2.24,1.49,24.15,-0.55,43.601,13.482,0.97767,0.016438,0.016886,0.20883
19790,2.4445e+07,2.25,1.49,24.17,-0.55,43.601,13.482,0.97763,0.016482,0.016892,0.20901
19833,2.4455e+07,2.25,1.49,24.19,-0.55,43.601,13.482,0.97759,0.016519,0.016915,0.20917
19874,2.4465e+07,2.26,1.5,24.21,-0.55,43.601,13.482,0.97756,0.016551,0.01694,0.20933
19911,2.4476e+07,2.26,1.5,24.22,-0.55,43.601,13.482,0.97753,0.016566,0.016961,0.20947
19952,2.4486e+07,2.26,1.5,24.24,-0.55,43.601,13.482,0.9775,0.016574,0.016973,0.20959
19993,2.4496e+07,2.26,1.5,24.25,-0.55,43.601,13.482,0.97748,0.01657,0.016971,0.2097
20033,2.4507e+07,2.26,1.5,24.26,-0.55,43.601,13.482,0.97746,0.016543,0.016972,0.20978
20074,2.4517e+07,2.25,1.5,24.27,-0.55,43.601,13.482,0.97744,0.016504,0.01696,0.20988
20120,2.4527e+07,2.25,1.5,24.28,-0.48,43.601,13.482,0.97743,0.016458,0.016947,0.20995
20161,2.4538e+07,2.24,1.5,24.26,-0.48,43.601,13.482,0.97746,0.016434,0.01694,0.20978
20201,2.4548e+07,2.24,1.5,24.24,-0.48,43.601,13.482,0.97751,0.016406,0.016921,0.20958
20242,2.4558e+07,2.24,1.5,24.21,-0.48,43.601,13.482,0.97755,0.016383,0.016911,0.2094
20283,2.4567e+07,2.24,1.5,24.2,-0.48,43.601,13.482,0.97758,0.016376,0.016911,0.20924
20322,2.4578e+07,2.24,1.5,24.18,-0.48,43.601,13.482,0.97761,0.016383,0.016911,0.20912
20362,2.4588e+07,2.24,1.5,24.17,-0.48,43.601,13.482,0.97763,0.016408,0.016925,0.20899
20403,2.4598e+07,2.24,1.5,24.16,-0.48,43.601,13.482,0.97765,0.016423,0.016934,0.2089
20443,2.4609e+07,2.24,1.5,24.15,-0.48,43.601,13.482,0.97767,0.016452,0.016937,0.20881
20485,2.4619e+07,2.25,1.5,24.14,-0.48,43.601,13.482,0.97768,0.016493,0.016937,0.20875
20532,2.4629e+07,2.25,1.5,24.13,-0.52,43.601,13.482,0.9777,0.016523,0.016931,0.20868
20574,2.4639e+07,2.26,1.5,24.13,-0.52,43.601,13.482,0.9777,0.01655,0.016923,0.20869
20615,2.4649e+07,2.26,1.49,24.13,-0.52,43.601,13.482,0.97769,0.016568,0.016925,0.20871
20655,2.4659e+07,2.26,1.49,24.14,-0.52,43.601,13.482,0.97769,0.016572,0.016911,0.20874
20696,2.4669e+07,2.26,1.49,24.14,-0.52,43.601,13.482,0.97768,0.016562,0.016898,0.20875
20736,2.468e+07,2.25,1.49,24.14,-0.52,43.601,13.482,0.97768,0.016542,0.016889,0.20874
20777,2.469e+07,2.25,1.49,24.14,-0.52,43.601,13.482,0.97768,0.016528,0.016886,0.20875
20818,2.47e+07,2.25,1.49,24.14,-0.52,43.601,13.482,0.97769,0.016504,0.016891,0.20873
20859,2.471e+07,2.25,1.49,24.13,-0.52,43.601,13.482,0.97769,0.016496,0.016899,0.20871
20900,2.472e+07,2.25,1.5,24.13,-0.52,43.601,13.482,0.9777,0.016488,0.016911,0.2087
20944,2.4731e+07,2.25,1.49,24.13,-0.35,43.601,13.482,0.97769,0.016498,0.016909,0.2087
20987,2.474e+07,2.25,1.49,24.13,-0.35,43.601,13.482,0.9777,0.016504,0.016912,0.20868
21027,2.4751e+07,2.25,1.5,24.13,-0.35,43.601,13.482,0.9777,0.016521,0.016922,0.20868
21070,2.4761e+07,2.26,1.5,24.13,-0.35,43.601,13.482,0.9777,0.016547,0.016935,0.20868
21110,2.4771e+07,2.26,1.5,24.13,-0.35,43.601,13.482,0.9777,0.016569,0.016942,0.20868
21151,2.4782e+07,2.26,1.5,24.13,-0.35,43.601,13.482,0.97769,0.016591,0.016966,0.20869
21193,2.4792e+07,2.26,1.5,24.13,-0.35,43.601,13.482,0.97769,0.016599,0.016974,0.2087
21233,2.4802e+07,2.27,1.5,24.13,-0.35,43.601,13.482,0.97769,0.016626,0.016981,0.20871
21274,2.4813e+07,2.27,1.5,24.14,-0.35,43.601,13.482,0.97768,0.016631,0.016994,0.20873
21315,2.4823e+07,2.27,1.5,24.14,-0.35,43.601,13.482,0.97768,0.016621,0.017005,0.20873
21362,2.4834e+07,2.26,1.5,24.14,-0.42,43.601,13.482,0.97768,0.016604,0.017012,0.20874
21404,2.4844e+07,2.26,1.5,24.14,-0.42,43.601,13.482,0.97769,0.016584,0.017012,0.20872
21445,2.4853e+07,2.26,1.5,24.14,-0.42,43.601,13.482,0.97769,0.016562,0.017001,0.20873
21487,2.4864e+07,2.26,1.5,24.14,-0.42,43.601,13.482,0.97769,0.016556,0.016994,0.20872
21527,2.4874e+07,2.26,1.5,24.13,-0.42,43.601,13.482,0.97769,0.016549,0.016978,0.20871
21568,2.4885e+07,2.26,1.5,24.13,-0.42,43.601,13.482,0.97769,0.016548,0.016971,0.2087
21608,2.4896e+07,2.26,1.5,24.13,-0.42,43.601,13.482,0.97769,0.016554,0.016966,0.20869
21649,2.4906e+07,2.26,1.5,24.13,-0.42,43.601,13.482,0.97769,0.016561,0.016958,0.20869
21689,2.4916e+07,2.26,1.5,24.13,-0.42,43.601,13.482,0.97769,0.016576,0.016947,0.2087
21731,2.4926e+07,2.26,1.5,24.13,-0.42,43.601,13.482,0.97769,0.016593,0.016942,0.20872
21778,2.4936e+07,2.26,1.5,24.14,-0.51,43.601,13.482,0.97769,0.016615,0.016939,0.20873
21818,2.4946e+07,2.26,1.49,24.14,-0.51,43.601,13.482,0.97769,0.016627,0.016936,0.20872
21859,2.4956e+07,2.27,1.5,24.13,-0.51,43.601,13.482,0.97769,0.016635,0.016946,0.2087
21900,2.4966e+07,2.27,1.5,24.13,-0.51,43.601,13.482,0.9777,0.016635,0.016948,0.20868
21944,2.4979e+07,2.27,1.5,24.13,-0.51,43.601,13.482,0.9777,0.01664,0.016949,0.20865
21984,2.4989e+07,2.27,1.49,24.12,-0.51,43.601,13.482,0.97771,0.01664,0.016934,0.20862
22025,2.4999e+07,2.27,1.49,24.12,-0.51,43.601,13.482,0.97771,0.016637,0.016929,0.2086
22065,2.501e+07,2.26,1.49,24.12,-0.51,43.601,13.482,0.97772,0.016624,0.016917,0.20856
22107,2.502e+07,2.26,1.49,24.11,-0.51,43.601,13.482,0.97773,0.016617,0.016915,0.20854
22148,2.503e+07,2.26,1.49,24.11,-0.51,43.601,13.482,0.97773,0.016596,0.016902,0.20852
22193,2.504e+07,2.26,1.49,24.11,-0.54,43.601,13.482,0.97774,0.016576,0.016899,0.2085
22236,2.505e+07,2.26,1.49,24.12,-0.54,43.601,13.482,0.97771,0.016573,0.016909,0.2086
22276,2.5061e+07,2.26,1.49,24.13,-0.54,43.601,13.482,0.97769,0.016567,0.016905,0.2087
22317,2.5072e+07,2.26,1.49,24.14,-0.54,43.601,13.482,0.97767,0.016583,0.016922,0.20879
22358,2.5083e+07,2.26,1.5,24.15,-0.54,43.601,13.482,0.97766,0.016589,0.016935,0.20887
22399,2.5093e+07,2.26,1.5,24.16,-0.54,43.601,13.482,0.97764,0.016605,0.016944,0.20896
22440,2.5103e+07,2.27,1.5,24.17,-0.54,43.601,13.482,0.97762,0.016627,0.016947,0.20902
22480,2.5114e+07,2.27,1.49,24.18,-0.54,43.601,13.482,0.97761,0.016652,0.016945,0.20908
22522,2.5124e+07,2.27,1.49,24.18,-0.54,43.601,13.482,0.9776,0.016676,0.016938,0.20913
22562,2.5134e+07,2.27,1.49,24.19,-0.54,43.601,13.482,0.97759,0.016692,0.016937,0.20919
22608,2.5144e+07,2.27,1.49,24.19,-0.68,43.601,13.482,0.97758,0.016695,0.016932,0.20922
22648,2.5155e+07,2.27,1.49,24.18,-0.68,43.601,13.482,0.97761,0.016688,0.01693,0.20909
22690,2.5165e+07,2.27,1.49,24.16,-0.68,43.601,13.482,0.97763,0.01667,0.016927,0.20897
22731,2.5175e+07,2.27,1.49,24.15,-0.68,43.601,13.482,0.97765,0.016646,0.016917,0.20887
22768,2.5185e+07,2.26,1.49,24.14,-0.68,43.601,13.482,0.97768,0.01662,0.016917,0.20877
22808,2.5196e+07,2.26,1.49,24.13,-0.68,43.601,13.482,0.97769,0.016602,0.016913,0.20869
22848,2.5206e+07,2.26,1.49,24.12,-0.68,43.601,13.482,0.97771,0.016583,0.016915,0.20861
22890,2.5216e+07,2.26,1.49,24.12,-0.68,43.601,13.482,0.97772,0.016565,0.01691,0.20856
22930,2.5226e+07,2.26,1.49,24.11,-0.68,43.601,13.482,0.97773,0.016554,0.016906,0.20851
22971,2.5236e+07,2.25,1.49,24.11,-0.68,43.601,13.482,0.97774,0.016554,0.01689,0.20847
23016,2.5247e+07,2.26,1.49,24.1,-0.49,43.601,13.482,0.97775,0.016561,0.01688,0.20843
23061,2.5257e+07,2.26,1.49,24.13,-0.49,43.601,13.482,0.97769,0.016577,0.016878,0.20872
23102,2.5267e+07,2.26,1.49,24.16,-0.49,43.601,13.482,0.97764,0.016589,0.016888,0.20895
23143,2.5278e+07,2.26,1.49,24.19,-0.49,43.601,13.482,0.9776,0.016604,0.016893,0.20915
23184,2.5289e+07,2.26,1.49,24.21,-0.49,43.601,13.482,0.97755,0.016618,0.016903,0.20936
23224,2.5299e+07,2.27,1.49,24.23,-0.49,43.601,13.482,0.97751,0.016627,0.016909,0.20955
23265,2.531e+07,2.26,1.49,24.25,-0.49,43.601,13.482,0.97748,0.016619,0.016913,0.20971
23308,2.5319e+07,2.26,1.49,24.27,-0.49,43.601,13.482,0.97745,0.01661,0.016914,0.20984
23349,2.533e+07,2.26,1.49,24.28,-0.49,43.601,13.482,0.97743,0.016597,0.016909,0.20995
23390,2.534e+07,2.26,1.49,24.29,-0.49,43.601,13.482,0.9774,0.016583,0.016906,0.21005
23434,2.535e+07,2.26,1.49,24.3,-0.54,43.601,13.482,0.97739,0.016551,0.016895,0.21012
23476,2.536e+07,2.25,1.49,24.29,-0.54,43.601,13.482,0.97741,0.016534,0.016888,0.21005
23516,2.537e+07,2.25,1.49,24.28,-0.54,43.601,13.482,0.97742,0.016513,0.016895,0.20998
23558,2.538e+07,2.25,1.49,24.27,-0.54,43.601,13.482,0.97743,0.016499,0.016891,0.20992
23601,2.539e+07,2.25,1.49,24.27,-0.54,43.601,13.482,0.97745,0.016486,0.016899,0.20986
23642,2.54e+07,2.25,1.49,24.26,-0.54,43.601,13.482,0.97745,0.016481,0.016911,0.20982
23683,2.5411e+07,2.25,1.5,24.26,-0.54,43.601,13.482,0.97746,0.016479,0.016929,0.20978
23724,2.5422e+07,2.25,1.5,24.25,-0.54,43.601,13.482,0.97747,0.016482,0.016941,0.20974
23766,2.5431e+07,2.25,1.5,24.25,-0.54,43.601,13.482,0.97748,0.016497,0.016945,0.20972
23808,2.5441e+07,2.25,1.5,24.25,-0.54,43.601,13.482,0.97748,0.016524,0.016959,0.20969
23853,2.5451e+07,2.26,1.5,24.25,-0.63,43.601,13.482,0.97748,0.016542,0.016967,0.20968
23895,2.5461e+07,2.26,1.5,24.25,-0.63,43.601,13.482,0.97748,0.016554,0.016977,0.2097
23935,2.5472e+07,2.26,1.5,24.25,-0.63,43.601,13.482,0.97747,0.016563,0.016977,0.20972
23977,2.5481e+07,2.26,1.5,24.25,-0.63,43.601,13.482,0.97747,0.016573,0.016976,0.20973
24017,2.5491e+07,2.26,1.5,24.25,-0.63,43.601,13.482,0.97747,0.016573,0.016954,0.20975
24058,2.5501e+07,2.26,1.5,24.26,-0.63,43.601,13.482,0.97747,0.016559,0.016947,0.20976
24098,2.5511e+07,2.26,1.49,24.26,-0.63,43.601,13.482,0.97746,0.016549,0.016943,0.20977
24139,2.5522e+07,2.26,1.5,24.26,-0.63,43.601,13.482,0.97746,0.01653,0.016947,0.20977
24180,2.5532e+07,2.25,1.5,24.26,-0.63,43.601,13.482,0.97746,0.016501,0.016951,0.20977
24221,2.5541e+07,2.25,1.5,24.26,-0.63,43.601,13.482,0.97746,0.016483,0.016963,0.20978
24266,2.5551e+07,2.25,1.5,24.26,-0.66,43.601,13.482,0.97746,0.01646,0.016967,0.20978
24306,2.5561e+07,2.25,1.5,24.26,-0.66,43.601,13.482,0.97747,0.01645,0.016977,0.20976
24348,2.5572e+07,2.25,1.5,24.25,-0.66,43.601,13.482,0.97747,0.016452,0.016986,0.20974
24389,2.5581e+07,2.25,1.5,24.25,-0.66,43.601,13.482,0.97747,0.016462,0.016991,0.20972
24430,2.5592e+07,2.25,1.5,24.25,-0.66,43.601,13.482,0.97748,0.016485,0.016995,0.20971
24467,2.5602e+07,2.25,1.5,24.25,-0.66,43.601,13.482,0.97748,0.016513,0.016999,0.2097
24508,2.5613e+07,2.26,1.5,24.25,-0.66,43.601,13.482,0.97748,0.016542,0.016993,0.20969
24550,2.5622e+07,2.26,1.5,24.25,-0.66,43.601,13.482,0.97748,0.016566,0.016997,0.20969
24590,2.5633e+07,2.26,1.5,24.25,-0.66,43.601,13.482,0.97748,0.016571,0.017017,0.20968
24633,2.5644e+07,2.26,1.5,24.25,-0.66,43.601,13.482,0.97748,0.016572,0.017023,0.20968
24684,2.5654e+07,2.26,1.5,24.25,82.78,43.601,13.482,0.97748,0.016572,0.017024,0.20967
24725,2.5665e+07,2.26,1.5,24.24,82.78,43.601,13.482,0.97749,0.016546,0.017029,0.20962
24766,2.5675e+07,2.25,1.51,24.23,82.78,43.601,13.482,0.9775,0.016511,0.017032,0.20957
24807,2.5685e+07,2.25,1.51,24.23,82.78,43.601,13.482,0.97751,0.016482,0.017022,0.20954
24848,2.5698e+07,2.25,1.51,24.23,82.78,43.601,13.482,0.97752,0.016457,0.017016,0.2095
24889,2.5708e+07,2.24,1.51,24.22,82.78,43.601,13.482,0.97753,0.016424,0.017009,0.20948
24930,2.5718e+07,2.24,1.5,24.22,82.78,43.601,13.482,0.97753,0.016416,0.016994,0.20947
24970,2.5729e+07,2.24,1.5,24.22,82.78,43.601,13.482,0.97754,0.016431,0.016973,0.20944
25011,2.5739e+07,2.25,1.5,24.22,82.78,43.601,13.482,0.97754,0.016451,0.016966,0.20944
25053,2.5749e+07,2.25,1.5,24.22,82.78,43.601,13.482,0.97754,0.016479,0.016973,0.20943
25098,2.576e+07,2.25,1.5,24.22,82.57,43.601,13.482,0.97754,0.016518,0.016985,0.20941
25139,2.577e+07,2.26,1.5,24.21,82.57,43.601,13.482,0.97754,0.01656,0.017017,0.20939
25180,2.578e+07,2.26,1.51,24.21,82.57,43.601,13.482,0.97755,0.016593,0.017038,0.20937
25222,2.5791e+07,2.27,1.51,24.21,82.57,43.601,13.482,0.97755,0.016622,0.017057,0.20936
25262,2.5801e+07,2.27,1.51,24.21,82.57,43.601,13.482,0.97755,0.016632,0.017071,0.20935
25303,2.5811e+07,2.27,1.51,24.21,82.57,43.601,13.482,0.97755,0.016625,0.017075,0.20934
25343,2.5821e+07,2.27,1.51,24.21,82.57,43.601,13.482,0.97755,0.016617,0.017077,0.20935
25383,2.5832e+07,2.26,1.51,24.21,82.57,43.601,13.482,0.97755,0.016587,0.017066,0.20934
25423,2.5842e+07,2.26,1.51,24.21,82.57,43.601,13.482,0.97755,0.016562,0.017054,0.20934
25466,2.5851e+07,2.26,1.51,24.21,82.57,43.601,13.482,0.97756,0.016537,0.017052,0.20932
25511,2.5862e+07,2.26,1.51,24.2,82.67,43.601,13.482,0.97756,0.016512,0.017046,0.20932
25551,2.5872e+07,2.25,1.51,24.21,82.67,43.601,13.482,0.97756,0.016486,0.017046,0.20932
25593,2.5882e+07,2.25,1.51,24.21,82.67,43.601,13.482,0.97756,0.016475,0.017054,0.20933
25634,2.5892e+07,2.25,1.51,24.21,82.67,43.601,13.482,0.97756,0.016458,0.017058,0.20934
25675,2.5902e+07,2.25,1.51,24.21,82.67,43.601,13.482,0.97755,0.016452,0.017065,0.20936
25713,2.5912e+07,2.25,1.51,24.21,82.67,43.601,13.482,0.97755,0.016476,0.017072,0.20937
25753,2.5922e+07,2.26,1.51,24.21,82.67,43.601,13.482,0.97754,0.016507,0.017073,0.20938
25794,2.5933e+07,2.26,1.51,24.22,82.67,43.601,13.482,0.97754,0.01655,0.017065,0.20941
25834,2.5943e+07,2.27,1.51,24.22,82.67,43.601,13.482,0.97753,0.016599,0.017053,0.20943
25876,2.5954e+07,2.27,1.5,24.22,82.67,43.601,13.482,0.97752,0.016641,0.017043,0.20947
25921,2.5964e+07,2.27,1.5,24.22,82.42,43.601,13.482,0.97753,0.016667,0.017029,0.20945
25961,2.5973e+07,2.27,1.5,24.21,82.42,43.601,13.482,0.97755,0.016688,0.017033,0.20933
26004,2.5984e+07,2.27,1.5,24.19,82.42,43.601,13.482,0.97758,0.016692,0.017028,0.20922
26042,2.5993e+07,2.27,1.5,24.18,82.42,43.601,13.482,0.9776,0.016668,0.017031,0.20912
26084,2.6004e+07,2.27,1.5,24.17,82.42,43.601,13.482,0.97762,0.016639,0.017032,0.20903
26125,2.6013e+07,2.26,1.51,24.16,82.42,43.601,13.482,0.97764,0.016601,0.01704,0.20895
26165,2.6026e+07,2.26,1.51,24.15,82.42,43.601,13.482,0.97766,0.016568,0.017047,0.20886
26208,2.6037e+07,2.26,1.51,24.14,82.42,43.601,13.482,0.97767,0.016537,0.017061,0.20878
26248,2.6047e+07,2.26,1.51,24.14,82.42,43.601,13.482,0.97769,0.016524,0.01706,0.20872
26290,2.6057e+07,2.26,1.51,24.13,82.42,43.601,13.482,0.9777,0.016533,0.017053,0.20867
26335,2.6068e+07,2.26,1.51,24.11,82.63,43.601,13.482,0.97774,0.01654,0.017046,0.20848
26375,2.6078e+07,2.26,1.51,24.07,82.63,43.601,13.482,0.97781,0.016556,0.01704,0.20816
26416,2.6088e+07,2.26,1.51,24.04,82.63,43.601,13.482,0.97786,0.016577,0.017038,0.2079
26458,2.6098e+07,2.26,1.51,24.01,82.63,43.601,13.482,0.97791,0.016616,0.017046,0.20765
26496,2.6111e+07,2.27,1.51,23.98,82.63,43.601,13.482,0.97796,0.01666,0.017067,0.20741
26537,2.6121e+07,2.27,1.51,23.96,82.63,43.601,13.482,0.978,0.016682,0.017094,0.20724
26577,2.6131e+07,2.27,1.52,23.95,82.63,43.601,13.482,0.97803,0.016693,0.017121,0.2071
26619,2.6142e+07,2.28,1.52,23.93,82.63,43.601,13.482,0.97806,0.016706,0.017138,0.20697
26659,2.6152e+07,2.27,1.52,23.91,82.63,43.601,13.482,0.97808,0.016692,0.017145,0.20683
26704,2.6162e+07,2.27,1.52,23.9,82.65,43.601,13.482,0.97811,0.016673,0.017139,0.20673
26744,2.6171e+07,2.27,1.52,23.91,82.65,43.601,13.482,0.9781,0.016638,0.017117,0.20678
26786,2.6182e+07,2.26,1.52,23.92,82.65,43.601,13.482,0.97808,0.01661,0.017092,0.20685
26827,2.6191e+07,2.26,1.51,23.92,82.65,43.601,13.482,0.97807,0.016582,0.017061,0.20692
26867,2.6204e+07,2.25,1.51,23.93,82.65,43.601,13.482,0.97805,0.016545,0.017032,0.20699
26908,2.6215e+07,2.25,1.51,23.94,82.65,43.601,13.482,0.97804,0.016519,0.017025,0.20704
26948,2.6225e+07,2.25,1.51,23.94,82.65,43.601,13.482,0.97804,0.016521,0.017031,0.20708
26990,2.6234e+07,2.25,1.51,23.95,82.65,43.601,13.482,0.97802,0.016533,0.017061,0.20713
27035,2.6245e+07,2.26,1.52,23.96,82.65,43.601,13.482,0.97801,0.016549,0.017075,0.20719
27076,2.6254e+07,2.26,1.52,23.96,82.65,43.601,13.482,0.978,0.016557,0.017103,0.20723
27121,2.6265e+07,2.26,1.52,23.97,82.93,43.601,13.482,0.97799,0.016578,0.017116,0.20728
27161,2.6274e+07,2.26,1.52,23.96,82.93,43.601,13.482,0.978,0.016609,0.017131,0.20724
27202,2.6285e+07,2.27,1.52,23.96,82.93,43.601,13.482,0.978,0.01664,0.01712,0.20721
27242,2.6294e+07,2.27,1.52,23.95,82.93,43.601,13.482,0.97801,0.016652,0.017092,0.20718
27284,2.6305e+07,2.27,1.51,23.95,82.93,43.601,13.482,0.97802,0.016658,0.017057,0.20716
27318,2.6315e+07,2.27,1.51,23.95,82.93,43.601,13.482,0.97802,0.016646,0.017026,0.20714
27359,2.6325e+07,2.26,1.51,23.95,82.93,43.601,13.482,0.97803,0.016629,0.017021,0.20711
27401,2.6336e+07,2.26,1.51,23.94,82.93,43.601,13.482,0.97804,0.016591,0.017016,0.20708
27442,2.6345e+07,2.25,1.51,23.94,82.93,43.601,13.482,0.97805,0.016537,0.017022,0.20704
27483,2.6355e+07,2.25,1.51,23.93,82.93,43.601,13.482,0.97805,0.016492,0.017031,0.20701
27528,2.6366e+07,2.25,1.52,23.93,82.32,43.601,13.482,0.97806,0.01646,0.017047,0.20698
27568,2.6375e+07,2.24,1.52,23.94,82.32,43.601,13.482,0.97805,0.016438,0.017062,0.20704
27609,2.6385e+07,2.24,1.52,23.94,82.32,43.601,13.482,0.97804,0.016422,0.017065,0.20709
27649,2.6395e+07,2.24,1.52,23.95,82.32,43.601,13.482,0.97802,0.016413,0.017067,0.20715
27687,2.6406e+07,2.24,1.52,23.96,82.32,43.601,13.482,0.97801,0.016422,0.017062,0.2072
27732,2.6418e+07,2.25,1.51,23.97,82.32,43.601,13.482,0.978,0.016462,0.017043,0.20727
27776,2.6431e+07,2.25,1.51,23.97,82.32,43.601,13.482,0.97798,0.016513,0.017019,0.20733
27820,2.6441e+07,2.25,1.51,23.98,82.32,43.601,13.482,0.97797,0.016542,0.017004,0.20738
27861,2.6451e+07,2.26,1.51,23.98,82.32,43.601,13.482,0.97796,0.016571,0.017,0.20742
27902,2.6462e+07,2.26,1.51,23.99,82.32,43.601,13.482,0.97796,0.016584,0.017012,0.20746
27947,2.6471e+07,2.26,1.51,23.99,82.56,43.601,13.482,0.97795,0.016592,0.017034,0.2075
27988,2.6482e+07,2.26,1.51,24,82.56,43.601,13.482,0.97794,0.016588,0.017061,0.20755
28029,2.6492e+07,2.26,1.52,24,82.56,43.601,13.482,0.97793,0.016567,0.017087,0.20758
28069,2.6502e+07,2.26,1.52,24.01,82.56,43.601,13.482,0.97792,0.016546,0.017092,0.20761
28104,2.6512e+07,2.25,1.52,24.01,82.56,43.601,13.482,0.97792,0.016508,0.017094,0.20764
28145,2.6522e+07,2.25,1.52,24.01,82.56,43.601,13.482,0.97791,0.016474,0.017078,0.20767
28186,2.6532e+07,2.25,1.52,24.01,82.56,43.601,13.482,0.97791,0.016442,0.01706,0.20769
28227,2.6543e+07,2.24,1.51,24.02,82.56,43.601,13.482,0.97791,0.016414,0.017019,0.20771
28268,2.6553e+07,2.24,1.51,24.02,82.56,43.601,13.482,0.9779,0.016394,0.016977,0.20773
28309,2.6563e+07,2.24,1.5,24.02,82.56,43.601,13.482,0.9779,0.016386,0.016944,0.20776
28354,2.6573e+07,2.24,1.5,24.02,82.59,43.601,13.482,0.9779,0.016392,0.016929,0.20776
28395,2.6583e+07,2.24,1.5,24.02,82.59,43.601,13.482,0.9779,0.016413,0.016936,0.20773
28436,2.6593e+07,2.24,1.5,24.02,82.59,43.601,13.482,0.9779,0.016445,0.016954,0.20771
28476,2.6606e+07,2.25,1.51,24.01,82.59,43.601,13.482,0.97791,0.01649,0.016994,0.2077
28517,2.6616e+07,2.25,1.51,24.01,82.59,43.601,13.482,0.97791,0.016505,0.017026,0.20769
28558,2.6627e+07,2.25,1.51,24.01,82.59,43.601,13.482,0.97791,0.01653,0.017036,0.20769
28599,2.6637e+07,2.26,1.51,24.01,82.59,43.601,13.482,0.97791,0.016549,0.017043,0.20769
28642,2.6647e+07,2.26,1.51,24.01,82.59,43.601,13.482,0.97791,0.016544,0.017029,0.20768
28683,2.6657e+07,2.25,1.51,24.01,82.59,43.601,13.482,0.97791,0.016528,0.017008,0.20767
28733,2.667e+07,2.25,1.5,24.01,82.46,43.601,13.482,0.97792,0.016514,0.01697,0.20765
28774,2.668e+07,2.25,1.5,24.01,82.46,43.601,13.482,0.97792,0.0165,0.016918,0.20763
28815,2.669e+07,2.24,1.5,24,82.46,43.601,13.482,0.97793,0.016476,0.0169,0.20759
28855,2.67e+07,2.24,1.5,24,82.46,43.601,13.482,0.97794,0.016468,0.016895,0.20756
28896,2.671e+07,2.24,1.5,24,82.46,43.601,13.482,0.97794,0.016465,0.016914,0.20753
28933,2.6721e+07,2.24,1.5,23.99,82.46,43.601,13.482,0.97795,0.016465,0.016936,0.20752
28974,2.6731e+07,2.25,1.5,23.99,82.46,43.601,13.482,0.97795,0.016476,0.016964,0.20749
29017,2.6741e+07,2.25,1.51,23.99,82.46,43.601,13.482,0.97795,0.016495,0.016984,0.20749
29058,2.6751e+07,2.26,1.51,23.99,82.46,43.601,13.482,0.97795,0.016545,0.017012,0.20749
29100,2.6761e+07,2.26,1.51,23.99,82.46,43.601,13.482,0.97795,0.016586,0.017028,0.2075
29144,2.6772e+07,2.26,1.51,23.99,82.83,43.601,13.482,0.97795,0.016627,0.017031,0.2075
29185,2.6782e+07,2.27,1.51,23.98,82.83,43.601,13.482,0.97797,0.016661,0.01702,0.2074
29226,2.6792e+07,2.27,1.5,23.97,82.83,43.601,13.482,0.97799,0.016692,0.017007,0.20731
29267,2.6801e+07,2.27,1.5,23.96,82.83,43.601,13.482,0.978,0.016708,0.016976,0.20724
29307,2.6811e+07,2.27,1.5,23.95,82.83,43.601,13.482,0.97802,0.016703,0.016961,0.20716
29348,2.6822e+07,2.27,1.5,23.94,82.83,43.601,13.482,0.97803,0.016684,0.01695,0.20709
29389,2.6832e+07,2.27,1.5,23.94,82.83,43.601,13.482,0.97805,0.016661,0.016951,0.20702
29430,2.6842e+07,2.26,1.5,23.93,82.83,43.601,13.482,0.97806,0.016638,0.016972,0.20696
29473,2.6852e+07,2.26,1.5,23.92,82.83,43.601,13.482,0.97808,0.016594,0.016984,0.20689
29515,2.6862e+07,2.26,1.51,23.91,82.83,43.601,13.482,0.97809,0.016567,0.01701,0.20684
29559,2.6872e+07,2.25,1.51,23.91,82.64,43.601,13.482,0.9781,0.016549,0.017017,0.2068
29601,2.6883e+07,2.25,1.51,23.91,82.64,43.601,13.482,0.9781,0.016535,0.017013,0.20679
29641,2.6893e+07,2.25,1.51,23.91,82.64,43.601,13.482,0.9781,0.016538,0.017002,0.20678
29683,2.6904e+07,2.25,1.51,23.91,82.64,43.601,13.482,0.9781,0.016556,0.016994,0.20679
29723,2.6913e+07,2.26,1.5,23.91,82.64,43.601,13.482,0.9781,0.016587,0.016977,0.2068
29764,2.6923e+07,2.26,1.5,23.91,82.64,43.601,13.482,0.97809,0.016618,0.016952,0.20681
29801,2.6934e+07,2.26,1.5,23.91,82.64,43.601,13.482,0.97809,0.016652,0.016941,0.20682
29843,2.6944e+07,2.27,1.5,23.91,82.64,43.601,13.482,0.97809,0.016682,0.016937,0.20683
29884,2.6954e+07,2.27,1.5,23.92,82.64,43.601,13.482,0.97808,0.016691,0.016954,0.20684
29924,2.6965e+07,2.27,1.5,23.92,82.64,43.601,13.482,0.97808,0.016678,0.016978,0.20685
29969,2.6975e+07,2.27,1.51,23.91,82.35,43.601,13.482,0.97808,0.016666,0.017021,0.20684
30010,2.6985e+07,2.27,1.51,23.93,82.35,43.601,13.482,0.97806,0.016661,0.017042,0.20696
30051,2.6995e+07,2.27,1.51,23.94,82.35,43.601,13.482,0.97804,0.016636,0.017058,0.20705
30092,2.7005e+07,2.26,1.51,23.95,82.35,43.601,13.482,0.97802,0.016622,0.017058,0.20714
30130,2.7015e+07,2.26,1.51,23.96,82.35,43.601,13.482,0.97801,0.016611,0.017055,0.20721
30169,2.7025e+07,2.26,1.51,23.97,82.35,43.601,13.482,0.97799,0.0166,0.017037,0.20729
30209,2.7036e+07,2.26,1.51,23.97,82.35,43.601,13.482,0.97798,0.016575,0.017008,0.20735
30251,2.7046e+07,2.26,1.51,23.98,82.35,43.601,13.482,0.97797,0.016556,0.016988,0.20741
30293,2.7056e+07,2.26,1.5,23.99,82.35,43.601,13.482,0.97796,0.016571,0.01697,0.20746
