LineNo,TimeUS,RMSRollP,RMSRollD,RMSPitchP,RMSPitchD,RMSYaw
323,1.9493e+07,0.021203,0.00034847,0.011772,0.00037292,0.0007309
667,1.9559e+07,0.021212,0.000352,0.011782,0.00036436,0.00073407
894,1.9604e+07,0.021214,0.00034898,0.011787,0.00035438,0.00073541
1236,1.9765e+07,0.021202,0.00037258,0.011799,0.00033988,0.0007309
1512,1.9836e+07,0.021206,0.00038621,0.011779,0.00035012,0.00073497
1607,1.9858e+07,0.021231,0.00038485,0.011785,0.00034891,0.00074858
1647,1.9868e+07,0.021237,0.00038113,0.011785,0.00034629,0.00075559
1689,1.9878e+07,0.021253,0.00038128,0.011789,0.00034128,0.00076195
1730,1.9888e+07,0.021263,0.00037735,0.011795,0.00033607,0.00076841
1770,1.9901e+07,0.021252,0.00041835,0.0118,0.00033161,0.00077507
1811,1.9912e+07,0.021246,0.00041134,0.011801,0.00032697,0.0007799
1851,1.9922e+07,0.021248,0.00041419,0.011797,0.0003239,0.00078392
1893,1.9932e+07,0.021242,0.00040961,0.011791,0.00032091,0.00078614
1933,1.9942e+07,0.02123,0.00041359,0.011787,0.00032188,0.00078665
1974,1.9952e+07,0.021222,0.00041101,0.011788,0.00032208,0.00078576
2019,1.9962e+07,0.021219,0.00040618,0.01178,0.00032614,0.00078415
2062,1.9973e+07,0.021213,0.00040096,0.01177,0.00033662,0.0007793
2103,1.9983e+07,0.021203,0.00040162,0.011778,0.00036101,0.00076987
2143,1.9993e+07,0.021211,0.00042401,0.011787,0.00036392,0.00075634
2184,2.0004e+07,0.021225,0.0004327,0.01179,0.00035986,0.00074155
2225,2.0014e+07,0.021233,0.00042524,0.011791,0.00035374,0.00072683
2266,2.0024e+07,0.021244,0.00042062,0.011787,0.00035135,0.00071298
2307,2.0034e+07,0.021253,0.00041389,0.011781,0.00035301,0.00070108
2347,2.0044e+07,0.021259,0.00040873,0.011768,0.00035724,0.00069158
2390,2.0054e+07,0.021263,0.00040289,0.011763,0.00035512,0.00068489
2434,2.0064e+07,0.02126,0.00040253,0.011762,0.00035435,0.00068151
2475,2.0075e+07,0.021259,0.00039934,0.011755,0.00034987,0.00068189
2518,2.0085e+07,0.021255,0.00039417,0.011749,0.00034374,0.00068528
2558,2.0095e+07,0.021247,0.0003915,0.011751,0.00034793,0.00069228
2598,2.0105e+07,0.021245,0.00038632,0.01176,0.00035072,0.00070192
2636,2.0115e+07,0.021248,0.0003851,0.011757,0.00035537,0.0007134
2677,2.0125e+07,0.021245,0.00038405,0.01177,0.00037802,0.00072596
2718,2.0135e+07,0.021246,0.00038925,0.011772,0.00037777,0.0007404
2759,2.0146e+07,0.021253,0.00039229,0.011778,0.00037199,0.0007551
2800,2.0155e+07,0.021259,0.00038469,0.011784,0.00036573,0.00077056
2844,2.0165e+07,0.021267,0.0003811,0.011788,0.00036392,0.00078709
2886,2.0175e+07,0.021273,0.0003751,0.011791,0.00036071,0.00080461
2927,2.0186e+07,0.021284,0.00037032,0.011792,0.00035397,0.00082221
2968,2.0196e+07,0.021288,0.00036721,0.011794,0.00035262,0.00084078
3009,2.0206e+07,0.021294,0.00036031,0.01179,0.0003488,0.00086214
3047,2.0216e+07,0.021295,0.0003585,0.01179,0.00034246,0.00088351
3088,2.0226e+07,0.021303,0.00035791,0.011788,0.00034008,0.00090392
3128,2.0236e+07,0.021299,0.00036761,0.011787,0.00034279,0.00092378
3169,2.0246e+07,0.021293,0.00036423,0.011786,0.00034021,0.000943
3212,2.0256e+07,0.021289,0.00036933,0.011782,0.00034354,0.00096
3257,2.0266e+07,0.021283,0.00037179,0.011773,0.00034564,0.00097666
3298,2.0276e+07,0.021281,0.00036781,0.011771,0.00034323,0.00099071
3339,2.0286e+07,0.021274,0.00036704,0.011762,0.00034449,0.001003
3380,2.0296e+07,0.021264,0.00036618,0.011752,0.00034189,0.0010146
3422,2.0306e+07,0.021259,0.00036066,0.011751,0.00034796,0.0010262
3462,2.0317e+07,0.021253,0.00035421,0.011743,0.0003495,0.0010366
3502,2.0326e+07,0.021249,0.00035052,0.011741,0.00034803,0.0010473
3543,2.0337e+07,0.021247,0.00035027,0.011738,0.0003496,0.0010632
3583,2.0347e+07,0.02125,0.00036827,0.011735,0.00035702,0.001091
3625,2.0357e+07,0.021252,0.00036515,0.011745,0.00036826,0.0011316
3673,2.0368e+07,0.021249,0.00036271,0.011749,0.00036167,0.0011824
3713,2.0378e+07,0.021247,0.00036043,0.011756,0.0003557,0.0012415
3756,2.0388e+07,0.021259,0.00037734,0.011763,0.00035007,0.0013064
3798,2.0398e+07,0.021257,0.00038307,0.01177,0.00034451,0.0013743
3835,2.0408e+07,0.021247,0.00038999,0.011767,0.0003548,0.0014447
3873,2.0419e+07,0.02124,0.00038371,0.011775,0.00035822,0.0015152
3913,2.0429e+07,0.02123,0.0003773,0.011776,0.00036246,0.0015867
3954,2.0439e+07,0.021223,0.00037,0.011771,0.00036189,0.0016576
3995,2.0449e+07,0.021212,0.00037122,0.011766,0.00035547,0.0017259
4037,2.046e+07,0.021205,0.00036812,0.011755,0.00035938,0.0017925
4083,2.047e+07,0.021204,0.00036986,0.011748,0.00035853,0.0018584
4123,2.048e+07,0.0212,0.00036775,0.011748,0.00035754,0.0019232
4165,2.049e+07,0.021207,0.0003766,0.011753,0.00035592,0.0019859
4206,2.0501e+07,0.021209,0.00037603,0.011759,0.00035048,0.0020453
4243,2.051e+07,0.021212,0.00037393,0.011757,0.00034886,0.0021009
4285,2.0521e+07,0.021226,0.0003835,0.011756,0.0003423,0.002154
4325,2.0531e+07,0.021233,0.00038028,0.011752,0.00033949,0.0022053
4366,2.0541e+07,0.021237,0.00037458,0.011742,0.00033915,0.002255
4406,2.0551e+07,0.021238,0.00037488,0.01172,0.00036133,0.0023044
4447,2.0561e+07,0.021244,0.0003728,0.011709,0.00036322,0.0023527
4494,2.0572e+07,0.021248,0.00036969,0.011702,0.00036231,0.0024011
4534,2.0582e+07,0.021243,0.00037446,0.011694,0.00035531,0.0024489
4576,2.0592e+07,0.021239,0.00037118,0.011688,0.00035523,0.0024949
4619,2.0604e+07,0.021234,0.00036227,0.011687,0.00035191,0.0025491
4663,2.0617e+07,0.021227,0.00035394,0.011694,0.00034948,0.0026025
4704,2.0627e+07,0.021227,0.00035055,0.011704,0.00034919,0.0026429
4744,2.0637e+07,0.021228,0.00034615,0.011706,0.00034969,0.0026801
4787,2.0647e+07,0.021234,0.00034726,0.011705,0.00034636,0.0027143
4828,2.0657e+07,0.02124,0.00034348,0.011701,0.000345,0.0027477
4869,2.0668e+07,0.021255,0.00034825,0.011702,0.00034057,0.0027789
4914,2.0678e+07,0.021268,0.00034265,0.011704,0.00033514,0.0028075
4955,2.0688e+07,0.02128,0.00033635,0.011706,0.00033144,0.0028343
4996,2.0698e+07,0.021297,0.00033441,0.011713,0.00033102,0.0028603
5037,2.0708e+07,0.021309,0.00032941,0.011716,0.00032829,0.0028849
5078,2.0721e+07,0.021321,0.00032307,0.011718,0.00032396,0.0029142
5118,2.0731e+07,0.021318,0.00035155,0.011721,0.00032011,0.0029379
5160,2.0741e+07,0.021307,0.00036262,0.011717,0.00031865,0.0029601
5201,2.0751e+07,0.021296,0.00036144,0.011714,0.00031345,0.002981
5241,2.0761e+07,0.021288,0.00035754,0.011709,0.00031039,0.0030007
5286,2.0771e+07,0.021272,0.00036032,0.011703,0.00030627,0.0030195
5327,2.0781e+07,0.021265,0.00036155,0.011703,0.00030404,0.0030373
5371,2.0792e+07,0.021252,0.00035581,0.011691,0.00031494,0.0030531
5414,2.0801e+07,0.021246,0.00036721,0.01169,0.0003259,0.0030684
5454,2.0811e+07,0.021245,0.00036472,0.011691,0.0003227,0.0030827
5492,2.0824e+07,0.021253,0.00037347,0.01169,0.00032303,0.003101
5533,2.0834e+07,0.021259,0.00036961,0.011691,0.00032229,0.0031156
5577,2.0845e+07,0.021273,0.00037351,0.011697,0.00032314,0.0031296
5618,2.0855e+07,0.02129,0.00037221,0.011708,0.00032498,0.003144
5658,2.0865e+07,0.021302,0.0003671,0.011715,0.00032078,0.0031578
5703,2.0875e+07,0.02131,0.00036224,0.011722,0.00031609,0.0031708
5743,2.0885e+07,0.021315,0.00035765,0.011724,0.00031887,0.0031842
5786,2.0895e+07,0.021321,0.0003527,0.011727,0.00032423,0.0031988
5826,2.0906e+07,0.021319,0.0003687,0.01172,0.0003288,0.003214
5864,2.0916e+07,0.021309,0.00037587,0.011713,0.00033315,0.0032293
5903,2.0926e+07,0.021301,0.00036943,0.011708,0.0003371,0.003244
5943,2.0936e+07,0.02129,0.00037465,0.01171,0.00033672,0.0032573
5985,2.0946e+07,0.021274,0.00037749,0.011713,0.00033696,0.0032712
6026,2.0956e+07,0.021257,0.00037425,0.011711,0.00033322,0.0032835
6066,2.0966e+07,0.021248,0.00038031,0.011702,0.00033665,0.0032918
6111,2.0976e+07,0.021249,0.00038602,0.011696,0.00033139,0.0032921
6151,2.0986e+07,0.021252,0.00039228,0.011689,0.0003266,0.0032833
6193,2.0996e+07,0.021273,0.00042121,0.011677,0.00032501,0.0032627
6234,2.1006e+07,0.02129,0.00041568,0.011675,0.00034983,0.0032306
6274,2.1016e+07,0.021321,0.00043537,0.011678,0.00034904,0.0031895
6312,2.1026e+07,0.021342,0.00043812,0.011678,0.00034237,0.0031419
6353,2.1036e+07,0.021371,0.00043985,0.011672,0.0003416,0.0030899
6397,2.1046e+07,0.021395,0.0004429,0.011663,0.00034848,0.0030352
6437,2.1057e+07,0.021393,0.00049658,0.011646,0.00035634,0.0029791
6481,2.1069e+07,0.021369,0.00054039,0.01161,0.00038833,0.002908
6525,2.1079e+07,0.021345,0.00054325,0.011584,0.00038725,0.002851
6566,2.1089e+07,0.021323,0.00053508,0.011567,0.00038602,0.0027947
6608,2.1099e+07,0.021305,0.00052685,0.011567,0.00042115,0.0027391
6648,2.1111e+07,0.021285,0.00051762,0.011573,0.00042609,0.0026712
6686,2.1122e+07,0.021271,0.00051027,0.011583,0.00042408,0.0026184
6726,2.1132e+07,0.021263,0.00050696,0.011594,0.00042009,0.0025665
6769,2.1142e+07,0.021268,0.00051537,0.011609,0.00042366,0.0025155
6809,2.1152e+07,0.021271,0.00050934,0.011623,0.0004168,0.0024655
6850,2.1162e+07,0.021286,0.00052537,0.011633,0.00041309,0.0024172
6891,2.1172e+07,0.021313,0.00055422,0.011635,0.00041389,0.0023707
6936,2.1182e+07,0.02135,0.00055997,0.011634,0.00042147,0.0023261
6977,2.1192e+07,0.021382,0.00055975,0.01162,0.00043382,0.0022837
7017,2.1203e+07,0.021404,0.00056111,0.011614,0.00042846,0.002243
7058,2.1215e+07,0.021428,0.00054981,0.011605,0.00042375,0.0021942
7098,2.1226e+07,0.021461,0.00055583,0.011606,0.00042131,0.0021573
7139,2.1236e+07,0.021463,0.00061112,0.011594,0.00044324,0.0021226
7182,2.1246e+07,0.02144,0.00067737,0.011599,0.000452,0.0020891
7224,2.1256e+07,0.021427,0.00066553,0.011601,0.00044493,0.0020575
7265,2.1266e+07,0.021412,0.00065693,0.011614,0.00045863,0.0020279
7309,2.1276e+07,0.021396,0.00065073,0.011627,0.00045948,0.0019998
7351,2.1286e+07,0.021375,0.00065378,0.011638,0.0004516,0.0019741
7394,2.1296e+07,0.021365,0.00064887,0.011636,0.00046722,0.0019497
7434,2.1307e+07,0.021356,0.00063777,0.011636,0.00046321,0.0019275
7478,2.1321e+07,0.021359,0.00063985,0.011615,0.00050929,0.0018963
7519,2.1332e+07,0.02137,0.00063336,0.011605,0.00050501,0.0018761
7560,2.1342e+07,0.02138,0.00062255,0.011594,0.0004958,0.0018562
7602,2.1352e+07,0.021389,0.00062776,0.011581,0.00048798,0.0018368
7642,2.1362e+07,0.021399,0.00061703,0.01157,0.00047886,0.0018177
7683,2.1372e+07,0.021408,0.00060538,0.011571,0.00049935,0.001799
7729,2.1382e+07,0.021409,0.00060676,0.01158,0.00050158,0.0017803
7770,2.1392e+07,0.021406,0.00061034,0.011602,0.00052831,0.0017617
7812,2.1402e+07,0.021389,0.00061583,0.01161,0.00052247,0.0017432
7855,2.1414e+07,0.021373,0.00060635,0.011613,0.00051883,0.001721
7896,2.1427e+07,0.021351,0.00061072,0.011603,0.00052348,0.001701
7936,2.1437e+07,0.021334,0.00060247,0.011601,0.00051435,0.0016877
7977,2.1447e+07,0.021323,0.0005971,0.011596,0.00050513,0.001676
8022,2.1457e+07,0.021321,0.00060232,0.011599,0.00049985,0.0016671
8062,2.1468e+07,0.021325,0.00059795,0.0116,0.0004922,0.001661
8107,2.1478e+07,0.02134,0.00060531,0.011597,0.00048784,0.001656
8147,2.1488e+07,0.021356,0.00060113,0.011598,0.00048306,0.0016507
8189,2.1498e+07,0.021355,0.00060818,0.011607,0.00048522,0.0016454
8230,2.1508e+07,0.021359,0.00059636,0.011618,0.0004795,0.0016427
8270,2.1518e+07,0.021376,0.00060048,0.011637,0.00047967,0.0016457
8305,2.1528e+07,0.021406,0.00062363,0.011646,0.00047474,0.0016549
8346,2.1539e+07,0.021439,0.00061644,0.011656,0.00046658,0.0016683
8386,2.1549e+07,0.021453,0.00062505,0.011655,0.0004713,0.001687
8427,2.1559e+07,0.021469,0.00061547,0.011637,0.00051438,0.0017095
8468,2.1569e+07,0.021467,0.00062998,0.011615,0.00051866,0.0017372
8518,2.1582e+07,0.021465,0.00061704,0.011605,0.00051882,0.0017784
8559,2.1592e+07,0.021452,0.00062092,0.011602,0.00051562,0.001818
8600,2.1602e+07,0.021434,0.00061596,0.011598,0.00051042,0.0018639
8641,2.1612e+07,0.021409,0.00061086,0.01159,0.0005121,0.0019143
8678,2.1622e+07,0.021378,0.0006085,0.011596,0.00051284,0.0019697
8719,2.1634e+07,0.021342,0.00059664,0.011602,0.00050128,0.002042
8761,2.1645e+07,0.021328,0.00060746,0.011615,0.00050274,0.0021015
8802,2.1655e+07,0.021332,0.00062814,0.01163,0.00049629,0.0021613
8844,2.1665e+07,0.021349,0.00064192,0.011637,0.00048981,0.0022185
8885,2.1675e+07,0.021363,0.00063115,0.011639,0.00048482,0.0022711
8930,2.1685e+07,0.02137,0.00062108,0.011636,0.00048774,0.0023184
8970,2.1695e+07,0.02138,0.00060919,0.011631,0.0004818,0.002362
9011,2.1705e+07,0.021397,0.00060202,0.011622,0.00047756,0.0024009
9051,2.1715e+07,0.021407,0.00059458,0.011618,0.00046886,0.0024369
9092,2.1725e+07,0.021426,0.00059093,0.011623,0.00047668,0.0024717
9130,2.1736e+07,0.021436,0.00058389,0.011634,0.00047485,0.0025052
9170,2.1746e+07,0.021434,0.00059089,0.011651,0.0004746,0.0025366
9211,2.1756e+07,0.021412,0.00062685,0.011669,0.00047004,0.0025674
9251,2.1766e+07,0.021402,0.0006165,0.011675,0.00047093,0.0026005
9292,2.1776e+07,0.021396,0.00060791,0.01169,0.0004716,0.0026357
9336,2.1786e+07,0.021384,0.00059894,0.011689,0.00048558,0.0026663
9380,2.1796e+07,0.021368,0.00059035,0.011679,0.00049142,0.0026872
9421,2.1806e+07,0.021356,0.00058042,0.011661,0.00049363,0.0026995
9461,2.1816e+07,0.021354,0.00057668,0.011646,0.0004874,0.0027047
9500,2.1826e+07,0.021354,0.00056818,0.011627,0.00047937,0.0027038
9545,2.1876e+07,0.021435,0.00054412,0.011602,0.00045865,0.002614
9590,2.1886e+07,0.021442,0.00054087,0.011612,0.00045741,0.0025865
9631,2.1896e+07,0.021452,0.000538,0.011621,0.00044915,0.0025563
9672,2.1906e+07,0.021465,0.00053024,0.01163,0.00044768,0.0025241
9712,2.1916e+07,0.021466,0.00053003,0.011625,0.00045679,0.0024915
9746,2.1926e+07,0.021448,0.00056193,0.011614,0.00045761,0.002459
9787,2.1936e+07,0.021432,0.00055296,0.011605,0.00044973,0.0024274
9828,2.1946e+07,0.021409,0.00054974,0.011598,0.00044148,0.0023972
9869,2.1956e+07,0.02139,0.0005447,0.011599,0.00044008,0.0023676
9910,2.1966e+07,0.021374,0.0005391,0.0116,0.00043182,0.0023387
9951,2.1976e+07,0.021364,0.00053953,0.011602,0.00042419,0.0023101
9996,2.1986e+07,0.021357,0.00053039,0.011607,0.00042137,0.002281
10037,2.1996e+07,0.021357,0.00052984,0.011619,0.00041941,0.0022512
10078,2.2006e+07,0.021362,0.00052337,0.011632,0.00041318,0.0022205
10118,2.2016e+07,0.021374,0.00052089,0.011634,0.00041477,0.0021887
10156,2.2026e+07,0.021386,0.00051528,0.011634,0.00041083,0.0021568
10196,2.2036e+07,0.021407,0.00051405,0.011628,0.00041404,0.0021258
10239,2.2046e+07,0.021424,0.00050406,0.011612,0.00042179,0.0020954
10279,2.2056e+07,0.021436,0.00049825,0.011601,0.00041478,0.002066
10321,2.2066e+07,0.021435,0.0005061,0.011592,0.00041234,0.0020371
10361,2.2076e+07,0.02143,0.0005063,0.011582,0.00040473,0.002009
10407,2.2086e+07,0.021433,0.00050139,0.011585,0.00042083,0.0019822
10447,2.2096e+07,0.021429,0.00049502,0.011591,0.00042102,0.0019565
10489,2.2106e+07,0.021427,0.00048977,0.01159,0.00041808,0.0019315
10530,2.2116e+07,0.021419,0.00048454,0.011594,0.00041448,0.0019076
10567,2.2126e+07,0.021405,0.0004807,0.0116,0.00040659,0.0018844
10608,2.2136e+07,0.021397,0.00047555,0.011599,0.00040226,0.0018617
10648,2.2147e+07,0.021388,0.00046743,0.011603,0.00039759,0.0018392
10690,2.2158e+07,0.021391,0.00047339,0.011599,0.00039682,0.0018169
10730,2.2168e+07,0.021397,0.00046844,0.011597,0.0003932,0.0017951
10772,2.2179e+07,0.021396,0.00046326,0.01159,0.00039036,0.0017742
10817,2.2188e+07,0.02139,0.00046321,0.011588,0.00038393,0.0017539
10857,2.2198e+07,0.021384,0.00045762,0.011589,0.00038083,0.0017344
10898,2.2209e+07,0.021382,0.00045208,0.011596,0.00037781,0.0017155
10944,2.2224e+07,0.0214,0.00045996,0.011601,0.00036798,0.0016882
10986,2.2234e+07,0.021413,0.00045298,0.011607,0.00036446,0.001671
11026,2.2245e+07,0.021409,0.00047102,0.011611,0.00035785,0.0016543
11069,2.2255e+07,0.021398,0.00047411,0.011612,0.00035466,0.0016377
11109,2.2265e+07,0.021389,0.00046632,0.011625,0.00036236,0.0016219
11151,2.2275e+07,0.021387,0.00046331,0.011625,0.00037016,0.0016072
11197,2.2286e+07,0.021384,0.00046212,0.011617,0.000374,0.0015934
11239,2.2295e+07,0.021382,0.00045393,0.011608,0.00037592,0.0015795
11280,2.2306e+07,0.021385,0.00044979,0.011606,0.00038257,0.0015647
11320,2.2316e+07,0.021384,0.00044172,0.011597,0.00038568,0.0015502
11362,2.2326e+07,0.021376,0.00044319,0.011593,0.00038228,0.0015357
11399,2.2336e+07,0.021369,0.00043468,0.011587,0.00037715,0.0015217
11440,2.2346e+07,0.021367,0.00044025,0.011584,0.00037421,0.0015082
11481,2.2357e+07,0.021373,0.00043976,0.011589,0.00037968,0.0014946
11521,2.2367e+07,0.021375,0.00044067,0.011598,0.00037958,0.0014817
11563,2.2377e+07,0.021374,0.00043586,0.0116,0.00037717,0.0014691
11608,2.2387e+07,0.021369,0.00043036,0.011603,0.00037109,0.0014562
11651,2.2398e+07,0.021375,0.00043482,0.011604,0.00036759,0.0014439
11692,2.2407e+07,0.021377,0.00042688,0.011608,0.00036289,0.0014321
11732,2.2418e+07,0.021377,0.0004205,0.011603,0.00036399,0.0014206
11773,2.2428e+07,0.021388,0.00042806,0.011598,0.0003584,0.0014095
11810,2.2439e+07,0.021385,0.0004338,0.011596,0.00035742,0.0013986
11852,2.2449e+07,0.021377,0.00043319,0.011592,0.00035312,0.0013877
11894,2.2459e+07,0.021378,0.00043369,0.011591,0.00034728,0.0013775
11935,2.2469e+07,0.021379,0.00042817,0.011591,0.00034191,0.0013682
11977,2.2479e+07,0.02138,0.00042298,0.011591,0.00034228,0.0013597
12022,2.2489e+07,0.021376,0.00041779,0.011585,0.00034311,0.0013522
12063,2.2499e+07,0.021373,0.00041269,0.011587,0.00034444,0.0013447
12103,2.251e+07,0.021376,0.00040693,0.011594,0.000344,0.0013376
12147,2.2523e+07,0.021376,0.0003997,0.011594,0.00034825,0.0013298
12189,2.2534e+07,0.021378,0.00040005,0.011587,0.00034731,0.0013233
12229,2.2544e+07,0.021396,0.00041928,0.01158,0.00034371,0.0013168
12267,2.2554e+07,0.021405,0.00041192,0.01157,0.00034211,0.0013103
12307,2.2564e+07,0.021405,0.00042547,0.011567,0.00033988,0.0013029
12348,2.2575e+07,0.0214,0.0004228,0.011561,0.00033432,0.001295
12390,2.2585e+07,0.021393,0.00041773,0.011559,0.00033088,0.0012873
12437,2.2595e+07,0.021387,0.00041534,0.011555,0.00032727,0.0012795
12477,2.2605e+07,0.021392,0.000421,0.011564,0.00034666,0.0012728
12518,2.2615e+07,0.021398,0.00042051,0.011568,0.00034119,0.0012671
12559,2.2625e+07,0.021395,0.00041764,0.011572,0.00035007,0.0012617
12596,2.2635e+07,0.021393,0.00040997,0.011577,0.00035215,0.0012564
12636,2.2646e+07,0.021388,0.0004028,0.011576,0.00035038,0.0012503
12677,2.2656e+07,0.021396,0.0004165,0.011584,0.00035042,0.0012436
12718,2.2666e+07,0.0214,0.00041683,0.011586,0.0003573,0.0012367
12758,2.2676e+07,0.021405,0.00041331,0.011577,0.00036844,0.0012308
12801,2.2686e+07,0.021407,0.00040576,0.011567,0.00036362,0.001227
12846,2.2695e+07,0.021399,0.00041275,0.011556,0.00036082,0.0012233
12886,2.2706e+07,0.021395,0.00040653,0.011561,0.00038756,0.0012192
12927,2.2716e+07,0.021392,0.00040105,0.011561,0.00039495,0.0012154
12967,2.2726e+07,0.021395,0.00039747,0.011564,0.0003927,0.0012121
13005,2.2738e+07,0.021398,0.00038953,0.01157,0.00039403,0.0012079
13045,2.2749e+07,0.021401,0.00038331,0.011583,0.00040484,0.0012037
13087,2.2759e+07,0.021402,0.00037824,0.011596,0.00040057,0.0011991
13128,2.2769e+07,0.021403,0.00037125,0.011594,0.00041255,0.0011938
13168,2.2779e+07,0.021406,0.00036557,0.011594,0.00040512,0.0011886
13211,2.279e+07,0.021409,0.0003611,0.011586,0.00040586,0.001184
13256,2.28e+07,0.021412,0.00035443,0.011575,0.00040287,0.0011815
13297,2.281e+07,0.021416,0.00034817,0.011567,0.00040152,0.0011808
13338,2.282e+07,0.021412,0.00034934,0.011562,0.00039523,0.0011803
13378,2.283e+07,0.021411,0.00034387,0.011565,0.00039534,0.00118
13419,2.2841e+07,0.021407,0.00033949,0.01157,0.00039164,0.0011802
13459,2.2851e+07,0.021395,0.00034755,0.011576,0.00039098,0.0011804
13501,2.2861e+07,0.021387,0.00034238,0.011575,0.00039411,0.0011812
13542,2.2871e+07,0.021375,0.00034171,0.011571,0.00039622,0.0011826
13582,2.2882e+07,0.021354,0.00036113,0.011561,0.00039416,0.001184
13624,2.2892e+07,0.021331,0.00035759,0.011552,0.00038706,0.0011834
13668,2.2901e+07,0.021311,0.00035162,0.011539,0.00038356,0.0011816
13710,2.2912e+07,0.021299,0.00036356,0.011537,0.00038769,0.0011789
13750,2.2921e+07,0.021292,0.00036239,0.011538,0.00039185,0.0011744
13791,2.2931e+07,0.021299,0.00038599,0.011546,0.00039631,0.0011684
13829,2.2943e+07,0.021317,0.00040417,0.011558,0.00039612,0.001162
13869,2.2953e+07,0.021334,0.0004027,0.011563,0.00039211,0.001155
13910,2.2963e+07,0.021356,0.00040552,0.011574,0.00038817,0.0011466
13952,2.2973e+07,0.021389,0.0004366,0.011577,0.0003875,0.0011376
13993,2.2983e+07,0.021418,0.00043117,0.011572,0.0003972,0.0011291
14034,2.2993e+07,0.021445,0.00042418,0.011565,0.00039879,0.0011221
14078,2.3003e+07,0.021462,0.00043602,0.011563,0.0003952,0.001117
14120,2.3013e+07,0.021462,0.0004597,0.011562,0.00038968,0.0011127
14160,2.3023e+07,0.021454,0.00048323,0.011559,0.00038372,0.0011092
14205,2.3036e+07,0.02143,0.00049064,0.011555,0.00038403,0.0011047
14247,2.3046e+07,0.02141,0.0004832,0.011565,0.00039753,0.0011023
14285,2.3056e+07,0.021374,0.00051484,0.011568,0.00039422,0.0011004
14327,2.3066e+07,0.021336,0.00051326,0.01157,0.00038919,0.0010972
14367,2.3077e+07,0.021305,0.00051285,0.011573,0.00038363,0.0010938
14408,2.3087e+07,0.02129,0.00058275,0.011583,0.00038471,0.0010896
14448,2.3097e+07,0.021299,0.00063086,0.011585,0.00040392,0.0010847
14494,2.3107e+07,0.021291,0.00064431,0.011581,0.00041274,0.0010799
14535,2.3117e+07,0.021296,0.0006402,0.011575,0.00041329,0.0010758
14576,2.3128e+07,0.021324,0.0006766,0.011559,0.00041614,0.0010719
14617,2.3137e+07,0.021361,0.00068524,0.011551,0.00041254,0.0010691
14657,2.315e+07,0.021403,0.00067384,0.01154,0.00040387,0.0010674
14698,2.3161e+07,0.021441,0.00066631,0.011534,0.00039827,0.0010674
14738,2.3171e+07,0.021466,0.00066374,0.011521,0.00039887,0.0010684
14779,2.3181e+07,0.021488,0.00065349,0.011513,0.00039313,0.0010698
14820,2.3191e+07,0.021488,0.00068465,0.011518,0.00041579,0.0010708
14865,2.3202e+07,0.021465,0.000729,0.011515,0.00041201,0.0010716
14907,2.3211e+07,0.021426,0.00075563,0.011521,0.00041152,0.0010705
14947,2.3221e+07,0.021373,0.0007745,0.011523,0.00041106,0.001067
14988,2.3231e+07,0.021317,0.00076824,0.011524,0.00041406,0.0010626
15028,2.3241e+07,0.021276,0.00076118,0.011527,0.00040812,0.0010577
15069,2.3252e+07,0.021267,0.00082926,0.011534,0.00040266,0.001053
15107,2.3262e+07,0.021271,0.00085092,0.011545,0.00040675,0.0010498
15147,2.3273e+07,0.021289,0.00085979,0.011557,0.00039958,0.0010473
15190,2.3283e+07,0.021328,0.00088405,0.011556,0.00040728,0.001046
15230,2.3294e+07,0.021385,0.0009091,0.011564,0.00040997,0.001046
15276,2.3304e+07,0.021439,0.0008952,0.011577,0.00040686,0.0010474
15316,2.3314e+07,0.021488,0.00087767,0.011579,0.00041083,0.0010496
15358,2.3324e+07,0.021527,0.00086538,0.011587,0.00040416,0.0010525
15401,2.3336e+07,0.021553,0.00087074,0.011605,0.00040266,0.0010564
15442,2.3347e+07,0.021547,0.00090083,0.011611,0.00040436,0.0010604
15484,2.3357e+07,0.021531,0.00090491,0.011617,0.00041263,0.0010636
15521,2.3368e+07,0.021489,0.00094491,0.011612,0.0004189,0.0010665
15562,2.3378e+07,0.021431,0.00096506,0.011607,0.00042219,0.0010678
15604,2.3388e+07,0.021373,0.00095097,0.011595,0.00042259,0.0010664
15644,2.3398e+07,0.02132,0.00093605,0.011576,0.0004243,0.0010626
15691,2.3408e+07,0.021284,0.00093635,0.011571,0.00043266,0.001057
15731,2.3419e+07,0.021263,0.00093127,0.011554,0.00043929,0.0010508
15773,2.3429e+07,0.021259,0.00094245,0.011539,0.00043135,0.0010448
15815,2.3439e+07,0.021263,0.00093542,0.011528,0.00042632,0.0010398
15859,2.3452e+07,0.021291,0.00093537,0.011532,0.00043961,0.0010336
15900,2.3463e+07,0.021329,0.00093988,0.01154,0.00043646,0.0010297
15941,2.3473e+07,0.021377,0.00093791,0.011549,0.00042994,0.001027
15982,2.3483e+07,0.021412,0.00092196,0.011562,0.00042717,0.0010271
16022,2.3493e+07,0.021438,0.0009118,0.011574,0.00042025,0.0010291
16063,2.3503e+07,0.021454,0.00089968,0.011584,0.00041567,0.0010315
16108,2.3513e+07,0.02144,0.00094421,0.01158,0.0004305,0.0010341
16149,2.3524e+07,0.021414,0.00094901,0.011587,0.00042833,0.0010357
16190,2.3533e+07,0.021384,0.00093704,0.011591,0.00043205,0.0010371
16230,2.3544e+07,0.021335,0.00095742,0.011587,0.00043515,0.0010382
16275,2.3559e+07,0.021262,0.00093317,0.011587,0.00043525,0.0010364
16316,2.357e+07,0.021225,0.00092162,0.011606,0.00045956,0.0010327
16358,2.358e+07,0.021207,0.00093146,0.011618,0.00047248,0.001026
16398,2.359e+07,0.021205,0.00093444,0.011634,0.00046879,0.0010172
16439,2.3601e+07,0.021222,0.00095732,0.011651,0.00046122,0.0010078
16485,2.3611e+07,0.021254,0.00095975,0.011652,0.00047499,0.00099785
16526,2.3621e+07,0.021303,0.00096812,0.011648,0.0004772,0.00098785
16568,2.3631e+07,0.021351,0.00095299,0.011642,0.00047312,0.00097849
16611,2.3641e+07,0.021408,0.00094247,0.011625,0.00047923,0.00097089
16651,2.3657e+07,0.021472,0.00092882,0.0116,0.00046685,0.00096309
16692,2.3668e+07,0.021487,0.00094,0.011577,0.00046814,0.00095947
16734,2.3678e+07,0.021492,0.00093316,0.011554,0.00046702,0.00095617
16774,2.3688e+07,0.02148,0.00094431,0.011547,0.00048251,0.00095339
16815,2.3698e+07,0.021448,0.00096098,0.011546,0.00048014,0.00095015
16855,2.3708e+07,0.021408,0.00095681,0.011559,0.0005012,0.00094579
16901,2.3718e+07,0.021363,0.00094518,0.011569,0.00049723,0.00093929
16941,2.3728e+07,0.021324,0.00092936,0.011587,0.00049248,0.00093217
16982,2.3738e+07,0.021299,0.00091902,0.011596,0.00048583,0.0009241
17023,2.3748e+07,0.021294,0.00093221,0.011606,0.00048063,0.00091457
17057,2.3759e+07,0.021296,0.00092441,0.01161,0.00047742,0.00090454
17097,2.3769e+07,0.021318,0.00093576,0.01162,0.00047077,0.00089488
17140,2.3779e+07,0.021358,0.00094622,0.011624,0.00046825,0.00088619
17182,2.379e+07,0.0214,0.00093275,0.011613,0.00048297,0.00087957
17222,2.38e+07,0.021445,0.00091779,0.011602,0.00047645,0.00087566
17263,2.381e+07,0.021479,0.0009028,0.011594,0.00046745,0.0008728
17308,2.382e+07,0.021516,0.0008868,0.011592,0.00046684,0.00087145
17349,2.383e+07,0.021525,0.00091785,0.011606,0.00048891,0.00087059
17390,2.384e+07,0.021506,0.00095387,0.011616,0.00048522,0.00087038
17432,2.385e+07,0.021486,0.00094071,0.011626,0.00047576,0.00086929
17474,2.3859e+07,0.021464,0.00092539,0.011633,0.00047182,0.00086821
17514,2.387e+07,0.021425,0.0009285,0.011648,0.00047806,0.00086698
17556,2.388e+07,0.021374,0.00093493,0.011661,0.00047679,0.00086592
17597,2.389e+07,0.02134,0.00092647,0.011674,0.00047178,0.0008639
17638,2.39e+07,0.021317,0.00092022,0.011678,0.00047797,0.00086185
17679,2.391e+07,0.021296,0.00091129,0.011665,0.00050144,0.00086015
17723,2.3921e+07,0.021301,0.00093584,0.011641,0.00052582,0.00085902
17764,2.3931e+07,0.021332,0.00097609,0.011625,0.00051696,0.00085786
17805,2.3941e+07,0.021382,0.00099477,0.011606,0.00051443,0.0008578
17853,2.3956e+07,0.02143,0.00096881,0.011583,0.00051584,0.00085942
17893,2.3967e+07,0.021463,0.00095123,0.011593,0.00055622,0.00086081
17935,2.3977e+07,0.021487,0.00094166,0.011601,0.0005475,0.00086075
17976,2.3987e+07,0.021494,0.00093978,0.011618,0.00054786,0.00086022
18017,2.3998e+07,0.021484,0.00094228,0.011633,0.00054118,0.00085976
18058,2.4008e+07,0.021465,0.00093707,0.011645,0.00053766,0.00085948
18102,2.4019e+07,0.021427,0.00094915,0.011644,0.00054525,0.00086058
18144,2.4029e+07,0.021379,0.00095191,0.011638,0.00054874,0.00086321
18184,2.4039e+07,0.021332,0.00093458,0.011623,0.00054862,0.00086671
18227,2.4049e+07,0.021291,0.00091623,0.011601,0.00055046,0.00087221
18267,2.4059e+07,0.021259,0.00090577,0.011586,0.00054037,0.00088
18307,2.407e+07,0.021239,0.00090928,0.011575,0.00053533,0.00088863
18348,2.408e+07,0.021238,0.00091318,0.011567,0.00052575,0.00089696
18389,2.409e+07,0.021253,0.00093493,0.011578,0.00055756,0.00090444
18430,2.41e+07,0.021294,0.00096068,0.011592,0.00055547,0.00091188
18471,2.411e+07,0.02134,0.00095668,0.011618,0.00057795,0.00091718
18518,2.4123e+07,0.02142,0.00096213,0.011644,0.00056764,0.00092091
18559,2.4133e+07,0.021464,0.00095755,0.011655,0.00056146,0.00092217
18600,2.4143e+07,0.021488,0.00096014,0.011652,0.00057603,0.00092094
18641,2.4153e+07,0.021513,0.00094464,0.011648,0.0005668,0.00091866
18682,2.4163e+07,0.021509,0.00098298,0.011624,0.00060845,0.00091487
18719,2.4176e+07,0.021462,0.0010451,0.011584,0.00061203,0.00090969
18760,2.4187e+07,0.021411,0.0010468,0.011565,0.00061652,0.00090492
18802,2.4197e+07,0.021355,0.0010381,0.011561,0.00062521,0.00089984
18842,2.4207e+07,0.021307,0.0010182,0.01157,0.0006362,0.00089401
18884,2.4217e+07,0.021253,0.0010012,0.011581,0.0006287,0.00088823
18928,2.4228e+07,0.021205,0.00098825,0.011595,0.00061986,0.00088244
18969,2.4238e+07,0.021185,0.0010052,0.011618,0.00061938,0.00087703
19010,2.4248e+07,0.021187,0.0010246,0.011636,0.00061153,0.0008723
19052,2.426e+07,0.021211,0.0010341,0.011642,0.00061231,0.00086732
19093,2.4271e+07,0.021255,0.0010561,0.011645,0.0006094,0.00086453
19133,2.4281e+07,0.021303,0.0010431,0.011638,0.00060513,0.00086238
19175,2.4291e+07,0.021349,0.0010232,0.011614,0.00064207,0.00086018
19216,2.4301e+07,0.021394,0.0010036,0.011594,0.00063673,0.00085844
19256,2.4311e+07,0.021438,0.00098395,0.011587,0.00063354,0.00085699
19297,2.4321e+07,0.021455,0.0010052,0.01158,0.00062601,0.00085701
19341,2.4332e+07,0.021448,0.001032,0.011587,0.0006273,0.00085585
19383,2.4342e+07,0.021416,0.0010608,0.011604,0.0006293,0.00085435
19423,2.4351e+07,0.021376,0.0010562,0.011612,0.00061931,0.0008521
19464,2.4362e+07,0.02133,0.0010445,0.011628,0.00061205,0.00084914
19505,2.4374e+07,0.021265,0.0010262,0.01163,0.00061407,0.00084321
19546,2.4384e+07,0.021225,0.0010103,0.011635,0.00060253,0.00083779
19589,2.4395e+07,0.0212,0.0010009,0.011638,0.00059277,0.00083178
19629,2.4405e+07,0.021187,0.00099414,0.011626,0.00060229,0.00082541
19671,2.4415e+07,0.021197,0.0010139,0.011606,0.00061039,0.00081836
19716,2.4426e+07,0.021214,0.0010134,0.011585,0.00060282,0.00081089
19757,2.4436e+07,0.021262,0.0010451,0.011576,0.00059874,0.00080345
19798,2.4445e+07,0.021309,0.0010314,0.011571,0.00058963,0.00079593
19841,2.4456e+07,0.021363,0.0010166,0.011578,0.00059713,0.00078902
19882,2.4466e+07,0.021408,0.00099806,0.011604,0.00062599,0.00078402
19919,2.4476e+07,0.021432,0.00099583,0.011621,0.00061626,0.0007805
19960,2.4487e+07,0.02144,0.00099662,0.011633,0.00060553,0.00077706
20001,2.4497e+07,0.021435,0.00099786,0.011636,0.00060308,0.00077427
20041,2.4507e+07,0.02142,0.0010039,0.011641,0.00059417,0.00077206
20082,2.4517e+07,0.021386,0.0010134,0.011643,0.00058661,0.00076975
20128,2.4528e+07,0.021336,0.0010175,0.011641,0.00058107,0.00076779
20169,2.4538e+07,0.021299,0.0010221,0.01164,0.00057299,0.00076525
20209,2.4548e+07,0.021266,0.0010092,0.011627,0.00057736,0.00076324
20250,2.4558e+07,0.021235,0.00099158,0.011623,0.00057119,0.00076178
20291,2.4568e+07,0.02122,0.00098568,0.011623,0.00056451,0.00076084
20330,2.4579e+07,0.021225,0.00099614,0.011625,0.00055411,0.0007604
20370,2.4589e+07,0.021245,0.001003,0.011628,0.0005591,0.00076112
20411,2.4599e+07,0.021261,0.00098431,0.011639,0.00055316,0.00076245
20451,2.4609e+07,0.021287,0.00097177,0.011641,0.00054697,0.00076617
20493,2.4619e+07,0.021323,0.00096166,0.011637,0.00054243,0.00077228
20540,2.4629e+07,0.021359,0.00094509,0.011629,0.00053964,0.00078062
20582,2.4639e+07,0.021384,0.00092956,0.011611,0.00054027,0.00078988
20623,2.4649e+07,0.021399,0.0009166,0.011606,0.0005396,0.00079911
20663,2.466e+07,0.021395,0.00092423,0.011589,0.00053859,0.00080905
20704,2.467e+07,0.02138,0.00092324,0.011567,0.00053788,0.00081861
20744,2.468e+07,0.021354,0.00091916,0.011558,0.00053848,0.00082498
20785,2.469e+07,0.021328,0.00090458,0.011551,0.00053044,0.00082691
20826,2.47e+07,0.021292,0.00089669,0.01155,0.00052518,0.00082587
20867,2.471e+07,0.021272,0.00088673,0.011559,0.00053258,0.00082069
20908,2.472e+07,0.021254,0.00087053,0.011567,0.00052297,0.00081232
20952,2.4731e+07,0.021251,0.00086843,0.011566,0.00052903,0.00080279
20995,2.474e+07,0.021246,0.00085184,0.01156,0.00052746,0.00079271
21035,2.4751e+07,0.021252,0.00084403,0.011559,0.00051787,0.00078217
21078,2.4761e+07,0.021268,0.0008372,0.011563,0.00051127,0.00077262
21118,2.4771e+07,0.021286,0.00082539,0.01156,0.0005052,0.00076469
21159,2.4782e+07,0.021302,0.00081049,0.01157,0.00051484,0.00075771
21201,2.4792e+07,0.021308,0.00081118,0.011577,0.00050694,0.00075259
21241,2.4803e+07,0.021324,0.00080225,0.011574,0.00050576,0.00074957
21282,2.4813e+07,0.021329,0.00079577,0.011576,0.00050742,0.00074911
21323,2.4823e+07,0.021316,0.00080259,0.011585,0.00050349,0.00075033
21370,2.4834e+07,0.021294,0.00080349,0.011593,0.00049399,0.00075098
21412,2.4844e+07,0.021271,0.00079512,0.011599,0.00048967,0.00075066
21453,2.4854e+07,0.021239,0.00078876,0.011597,0.00048608,0.00074907
21495,2.4864e+07,0.021222,0.00078542,0.011589,0.00048482,0.00074683
21535,2.4874e+07,0.021211,0.00077297,0.011581,0.00048388,0.00074297
21576,2.4885e+07,0.021202,0.00076041,0.01157,0.00047822,0.00073714
21616,2.4896e+07,0.021204,0.00075365,0.01157,0.0004829,0.00073049
21657,2.4906e+07,0.021209,0.00074091,0.011567,0.00047743,0.00072402
21697,2.4916e+07,0.021217,0.00073145,0.011548,0.00049935,0.00071773
21739,2.4926e+07,0.021226,0.00072426,0.011542,0.00049783,0.00071319
21786,2.4936e+07,0.021243,0.00071849,0.011533,0.00048881,0.00071064
21826,2.4946e+07,0.021261,0.00071041,0.011535,0.00049873,0.00071138
21867,2.4956e+07,0.021271,0.00069877,0.011536,0.0004987,0.0007153
21908,2.4966e+07,0.021272,0.00069363,0.011546,0.00049808,0.00072177
21952,2.4979e+07,0.021274,0.00068397,0.011547,0.00048909,0.00073171
21992,2.4989e+07,0.021272,0.00067379,0.011535,0.00050286,0.00073906
22033,2.5e+07,0.021268,0.00066157,0.011532,0.0004964,0.00074386
22073,2.501e+07,0.021254,0.00065852,0.011524,0.00048858,0.00074619
22115,2.502e+07,0.021244,0.00064554,0.011525,0.00048477,0.00074612
22156,2.503e+07,0.021226,0.00064593,0.011516,0.00048374,0.00074489
22201,2.504e+07,0.0212,0.00064267,0.011522,0.00049246,0.00074305
22244,2.505e+07,0.021191,0.00065564,0.011527,0.0004851,0.00074002
22284,2.5061e+07,0.021186,0.00064561,0.011533,0.00048555,0.00073619
22325,2.5072e+07,0.021196,0.00066606,0.011542,0.00049117,0.00073229
22366,2.5083e+07,0.021204,0.0006568,0.011557,0.00048651,0.00072941
22407,2.5094e+07,0.021222,0.00065229,0.011567,0.00047752,0.00072718
22448,2.5104e+07,0.021241,0.00064419,0.011571,0.00047348,0.00072665
22488,2.5114e+07,0.021274,0.00065737,0.011569,0.00047222,0.00072679
22530,2.5124e+07,0.021301,0.000647,0.011563,0.00047122,0.00072822
22570,2.5135e+07,0.021314,0.00065154,0.011555,0.00046998,0.00073046
22616,2.5145e+07,0.021322,0.00064774,0.011548,0.0004625,0.00073328
22656,2.5155e+07,0.021318,0.00065319,0.011555,0.00047397,0.00073531
22698,2.5165e+07,0.021305,0.00065597,0.011558,0.00046627,0.00073718
22739,2.5175e+07,0.021282,0.00066159,0.011558,0.0004582,0.00073773
22776,2.5186e+07,0.021261,0.00064936,0.01156,0.00045877,0.00073738
22816,2.5196e+07,0.021239,0.00063696,0.011567,0.00045155,0.00073612
22856,2.5206e+07,0.021222,0.00062551,0.011575,0.00044709,0.0007337
22898,2.5216e+07,0.021201,0.0006149,0.011579,0.00044267,0.00073072
22938,2.5226e+07,0.021188,0.00060486,0.011577,0.00043892,0.00072844
22979,2.5236e+07,0.021182,0.00060048,0.011571,0.00043629,0.00072636
23024,2.5247e+07,0.021188,0.00060403,0.011563,0.00043669,0.0007249
23069,2.5257e+07,0.0212,0.00060256,0.011556,0.00043194,0.00072388
23110,2.5267e+07,0.021218,0.00059705,0.011557,0.00043404,0.00072334
23151,2.5278e+07,0.021234,0.00058587,0.011554,0.0004291,0.00072313
23192,2.5289e+07,0.021256,0.00058165,0.011559,0.00042809,0.00072405
23232,2.5299e+07,0.021273,0.00057281,0.011555,0.00043063,0.00072648
23273,2.531e+07,0.021276,0.00058875,0.011561,0.00042987,0.00073027
23316,2.532e+07,0.021273,0.00058735,0.011562,0.00042184,0.00073452
23357,2.533e+07,0.021262,0.00058636,0.011559,0.0004181,0.00073797
23398,2.534e+07,0.021247,0.0005851,0.011554,0.00041271,0.00074061
23442,2.535e+07,0.021221,0.00059709,0.011548,0.00040654,0.00074165
23484,2.536e+07,0.021199,0.00059368,0.011543,0.00039956,0.00074
23524,2.537e+07,0.021184,0.0005847,0.011549,0.00041176,0.00073704
23566,2.538e+07,0.021167,0.00057726,0.011551,0.00041026,0.00073288
23609,2.539e+07,0.021154,0.00057087,0.011556,0.00040679,0.00072742
23650,2.54e+07,0.021158,0.00058758,0.011564,0.00040224,0.00072098
23691,2.5411e+07,0.021159,0.00057774,0.011589,0.000436,0.00071452
23732,2.5422e+07,0.021169,0.00057433,0.011591,0.00047617,0.00070794
23774,2.5431e+07,0.021182,0.00056904,0.011601,0.00047053,0.00070175
23816,2.5441e+07,0.021213,0.00058975,0.011597,0.00048918,0.00069603
23861,2.5451e+07,0.021247,0.00060172,0.011603,0.00048167,0.00069056
23903,2.5461e+07,0.021267,0.00059802,0.011604,0.00047351,0.00068625
23943,2.5472e+07,0.021276,0.0005967,0.011599,0.00047733,0.0006834
23985,2.5481e+07,0.021292,0.00058919,0.011592,0.00047002,0.0006813
24025,2.5492e+07,0.021295,0.00059027,0.011574,0.00049927,0.0006794
24066,2.5501e+07,0.021285,0.00059918,0.011559,0.00049594,0.00067747
24106,2.5511e+07,0.021271,0.00060185,0.011549,0.00048872,0.00067581
24147,2.5522e+07,0.021253,0.00059628,0.011555,0.00050587,0.00067286
24188,2.5532e+07,0.021226,0.00060545,0.01156,0.00050045,0.00066899
24229,2.5542e+07,0.021212,0.00059892,0.01157,0.00049707,0.00066508
24274,2.5552e+07,0.021194,0.00059372,0.011575,0.00049012,0.00066152
24314,2.5562e+07,0.021188,0.00059845,0.011583,0.00048145,0.00065765
24356,2.5572e+07,0.021187,0.00059509,0.01159,0.00047188,0.00065437
24397,2.5582e+07,0.021196,0.00059393,0.01159,0.00046908,0.00065108
24438,2.5592e+07,0.021217,0.00060135,0.011586,0.00046322,0.00064803
24475,2.5603e+07,0.021253,0.00062027,0.011578,0.00045936,0.00064558
24516,2.5613e+07,0.021281,0.00060857,0.011571,0.00046306,0.00064416
24558,2.5623e+07,0.021312,0.00059752,0.011558,0.00047659,0.00064379
24598,2.5633e+07,0.021329,0.00059776,0.011561,0.00049848,0.00064395
24641,2.5644e+07,0.021338,0.00059421,0.011573,0.0005045,0.00064355
24692,2.5654e+07,0.02134,0.00058938,0.011571,0.00050352,0.00064413
24733,2.5665e+07,0.02132,0.00062862,0.011579,0.00050321,0.00064311
24774,2.5675e+07,0.021282,0.00066848,0.011589,0.00049548,0.0006394
24815,2.5685e+07,0.021248,0.00065773,0.011586,0.00050232,0.00063386
24856,2.5698e+07,0.021216,0.00064881,0.011585,0.00049093,0.00062557
24897,2.5708e+07,0.021178,0.00065101,0.011584,0.0004818,0.00061886
24938,2.5718e+07,0.021151,0.0006555,0.011578,0.00048113,0.00061225
24978,2.5729e+07,0.021148,0.00069606,0.011556,0.00050118,0.00060562
25019,2.5739e+07,0.021164,0.00072256,0.011536,0.00050048,0.00059961
25061,2.575e+07,0.02119,0.0007272,0.011534,0.00051385,0.0005947
25106,2.576e+07,0.021229,0.00074214,0.011532,0.0005069,0.00058982
25147,2.577e+07,0.021273,0.00075058,0.011553,0.00054947,0.00058503
25188,2.578e+07,0.021307,0.00074663,0.011568,0.00054064,0.00058026
25230,2.5791e+07,0.021337,0.00073501,0.011584,0.00053214,0.00057632
25270,2.5801e+07,0.021359,0.00074215,0.011593,0.00052414,0.00057362
25311,2.5811e+07,0.021359,0.00076254,0.011607,0.00053024,0.00057222
25351,2.5822e+07,0.02135,0.00076309,0.011604,0.00054143,0.00057265
25391,2.5832e+07,0.02132,0.00079092,0.011603,0.00053386,0.00057489
25431,2.5842e+07,0.021281,0.00080407,0.011593,0.00053269,0.00057696
25474,2.5852e+07,0.021253,0.00078968,0.011592,0.00052663,0.00057831
25519,2.5862e+07,0.021228,0.00077691,0.011594,0.00052051,0.00057809
25559,2.5872e+07,0.021201,0.00076376,0.0116,0.00051416,0.00057624
25601,2.5882e+07,0.021179,0.00076122,0.011607,0.00050634,0.00057258
25642,2.5892e+07,0.021156,0.00074962,0.011612,0.00050117,0.00056839
25683,2.5902e+07,0.021148,0.00074861,0.011627,0.0005041,0.00056456
25721,2.5912e+07,0.021164,0.00079116,0.01163,0.00050002,0.00056179
25761,2.5923e+07,0.021191,0.00079856,0.011629,0.00049943,0.00055992
25802,2.5933e+07,0.02123,0.0008057,0.01162,0.00050193,0.00055986
25842,2.5943e+07,0.02127,0.00079813,0.011595,0.00052399,0.00056224
25884,2.5954e+07,0.021313,0.00078376,0.01158,0.00051935,0.00056695
25929,2.5964e+07,0.021331,0.00080132,0.011555,0.00052123,0.0005755
25969,2.5974e+07,0.021352,0.00078877,0.011554,0.00055115,0.00058525
26012,2.5984e+07,0.021362,0.00080561,0.011552,0.00054319,0.00059567
26050,2.5994e+07,0.021354,0.0008338,0.011554,0.00053882,0.00060548
26092,2.6004e+07,0.021322,0.00085883,0.01156,0.00053177,0.00061309
26133,2.6014e+07,0.021287,0.00085288,0.011574,0.00053398,0.00061805
26173,2.6026e+07,0.021244,0.00083392,0.011599,0.00053263,0.00062122
26216,2.6037e+07,0.021215,0.00081861,0.011618,0.00053152,0.00062111
26256,2.6047e+07,0.021194,0.00081225,0.011625,0.00053725,0.00061855
26298,2.6057e+07,0.021196,0.00083672,0.011617,0.00055152,0.00061498
26343,2.6068e+07,0.021201,0.00082507,0.011611,0.00054545,0.00061041
26383,2.6078e+07,0.021203,0.0008223,0.011601,0.00053761,0.00060587
26424,2.6089e+07,0.021223,0.00082056,0.011591,0.00052738,0.00060338
26466,2.6099e+07,0.021258,0.00082881,0.011589,0.00052434,0.00060164
26504,2.6112e+07,0.02131,0.00082659,0.011597,0.00052387,0.00059965
26545,2.6121e+07,0.021341,0.00081521,0.011617,0.00053468,0.00059845
26585,2.6132e+07,0.021364,0.00080776,0.011643,0.00053561,0.0005992
26627,2.6142e+07,0.021377,0.000797,0.011661,0.0005293,0.0006015
26667,2.6152e+07,0.021373,0.00082131,0.011676,0.00052089,0.00060398
26712,2.6162e+07,0.021352,0.00083144,0.011678,0.00052595,0.00060499
26752,2.6172e+07,0.02132,0.00083968,0.011668,0.00054049,0.00060566
26794,2.6182e+07,0.021279,0.00083475,0.011647,0.00055174,0.0006054
26835,2.6192e+07,0.021245,0.00081902,0.01162,0.00055242,0.00060311
26875,2.6205e+07,0.021195,0.00080222,0.011598,0.00054248,0.00059859
26916,2.6215e+07,0.021161,0.00078951,0.011585,0.00054279,0.00059431
26956,2.6225e+07,0.021152,0.00081998,0.011588,0.00055757,0.00058911
26998,2.6235e+07,0.021156,0.00082875,0.011608,0.00059074,0.00058333
27043,2.6245e+07,0.021185,0.00086244,0.011626,0.0005929,0.00057963
27084,2.6255e+07,0.021206,0.00084593,0.011652,0.00059558,0.00057822
27129,2.6265e+07,0.021238,0.00084206,0.011667,0.00059577,0.00057773
27169,2.6275e+07,0.021274,0.00083521,0.011676,0.00058803,0.00057863
27210,2.6285e+07,0.021313,0.00082044,0.011666,0.00061813,0.00058164
27250,2.6295e+07,0.021336,0.00081989,0.01164,0.00064121,0.00058591
27292,2.6305e+07,0.021345,0.00081881,0.011603,0.00065631,0.00059069
27326,2.6315e+07,0.021338,0.00083234,0.011574,0.00064531,0.00059569
27367,2.6325e+07,0.021332,0.00081941,0.011559,0.00066375,0.00060101
27409,2.6336e+07,0.021306,0.00083186,0.011557,0.00066864,0.00060315
27450,2.6346e+07,0.021261,0.00085505,0.011567,0.00067947,0.00060184
27491,2.6356e+07,0.021225,0.00084506,0.011589,0.00068675,0.00059841
27536,2.6366e+07,0.021199,0.00084298,0.01162,0.00069733,0.00059322
27576,2.6376e+07,0.021181,0.00083582,0.011634,0.00069269,0.00058641
27617,2.6386e+07,0.021163,0.00082688,0.011648,0.00068416,0.00057918
27657,2.6396e+07,0.021155,0.00081699,0.011648,0.0006872,0.00057186
27695,2.6406e+07,0.02117,0.00083741,0.011652,0.00068526,0.00056589
27740,2.6419e+07,0.021207,0.00085159,0.011622,0.00072459,0.00056038
27784,2.6431e+07,0.02126,0.00085351,0.011589,0.00072124,0.00055819
27828,2.6442e+07,0.021304,0.00084763,0.011567,0.00070863,0.00055889
27869,2.6452e+07,0.021333,0.0008363,0.011556,0.00070933,0.00056163
27910,2.6462e+07,0.021355,0.00082446,0.011561,0.0007224,0.00056554
27955,2.6472e+07,0.021369,0.00081782,0.011581,0.00073498,0.0005696
27996,2.6482e+07,0.021375,0.00081297,0.01162,0.00075767,0.00057323
28037,2.6492e+07,0.021368,0.00081697,0.011655,0.00074335,0.00057556
28077,2.6502e+07,0.021353,0.00080912,0.011682,0.00073494,0.00057533
28112,2.6512e+07,0.021324,0.00081632,0.011697,0.00073523,0.00057333
28153,2.6522e+07,0.021284,0.00081773,0.011696,0.00074604,0.00057048
28194,2.6532e+07,0.021247,0.00080249,0.011688,0.00074258,0.00056696
28235,2.6543e+07,0.021208,0.00079066,0.011664,0.00076793,0.00056279
28276,2.6553e+07,0.021175,0.00078066,0.011635,0.00075872,0.00055841
28317,2.6563e+07,0.021168,0.00080664,0.011605,0.00074645,0.00055429
28362,2.6573e+07,0.021161,0.00080347,0.011585,0.00073942,0.00055151
28403,2.6583e+07,0.02117,0.00082339,0.011586,0.00075637,0.0005492
28444,2.6593e+07,0.021207,0.00086082,0.011601,0.00076802,0.00054762
28484,2.6606e+07,0.021261,0.00086348,0.011637,0.00078162,0.00054739
28525,2.6617e+07,0.021294,0.00085231,0.011667,0.00077177,0.00054959
28566,2.6627e+07,0.021325,0.00083662,0.011687,0.00077546,0.00055411
28607,2.6638e+07,0.02135,0.00082083,0.011692,0.00077224,0.00056053
28650,2.6647e+07,0.021355,0.00084215,0.011697,0.00076852,0.00056764
28691,2.6657e+07,0.021332,0.00088586,0.011675,0.00079871,0.00057337
28741,2.667e+07,0.021297,0.00087937,0.011633,0.00083844,0.0005778
28782,2.668e+07,0.021267,0.0008673,0.0116,0.00086163,0.00057861
28823,2.669e+07,0.021233,0.00085498,0.01158,0.00086545,0.00057781
28863,2.67e+07,0.021203,0.00084466,0.011565,0.00086039,0.0005735
28904,2.671e+07,0.021194,0.00085086,0.011582,0.00090228,0.000567
28941,2.6721e+07,0.021192,0.00084552,0.011608,0.0009058,0.00055989
28982,2.6731e+07,0.021187,0.00083629,0.011636,0.0008924,0.00055258
29025,2.6742e+07,0.021202,0.00083962,0.011654,0.00087717,0.00054517
29066,2.6752e+07,0.021241,0.00088001,0.011673,0.00086024,0.00053877
29108,2.6762e+07,0.021286,0.00087581,0.011682,0.00084711,0.00053406
29152,2.6772e+07,0.02132,0.00085962,0.01169,0.00084526,0.00053049
29193,2.6782e+07,0.021347,0.00084531,0.01167,0.00087051,0.00052834
29234,2.6792e+07,0.021374,0.00082947,0.011647,0.00086408,0.00052833
29275,2.6802e+07,0.021383,0.00083032,0.011619,0.00086105,0.00052943
29315,2.6812e+07,0.021372,0.00084775,0.0116,0.00085075,0.00053154
29356,2.6822e+07,0.021348,0.00085722,0.011587,0.00083836,0.00053263
29397,2.6832e+07,0.021319,0.00084823,0.011592,0.00084501,0.00053272
29438,2.6842e+07,0.021286,0.00083811,0.011607,0.00084573,0.00053052
29481,2.6852e+07,0.021241,0.00084325,0.011636,0.00085377,0.00052612
29523,2.6862e+07,0.02121,0.00083458,0.011668,0.00084372,0.00051991
29567,2.6873e+07,0.021189,0.00082636,0.01168,0.00084136,0.00051358
29609,2.6883e+07,0.021175,0.00082159,0.011681,0.00083906,0.00050692
29649,2.6893e+07,0.021168,0.00081502,0.011675,0.00083336,0.00050088
29691,2.6904e+07,0.021178,0.00082554,0.011668,0.00082088,0.0004959
29731,2.6914e+07,0.021202,0.00083201,0.011648,0.00081891,0.00049319
29772,2.6924e+07,0.021225,0.00081935,0.01161,0.00083428,0.00049281
29809,2.6934e+07,0.02125,0.00080564,0.011589,0.0008252,0.00049487
29851,2.6944e+07,0.021282,0.00079401,0.011576,0.00081446,0.00049843
29892,2.6954e+07,0.021306,0.00078609,0.011582,0.00083149,0.00050373
29932,2.6965e+07,0.021298,0.0008262,0.011602,0.00084108,0.00050989
29977,2.6975e+07,0.021293,0.00081302,0.011643,0.00086207,0.00051538
30018,2.6985e+07,0.02129,0.00079723,0.011674,0.00085271,0.00051789
30059,2.6995e+07,0.021272,0.00079917,0.011698,0.00083913,0.00051869
30100,2.7005e+07,0.021252,0.00078929,0.011707,0.00083918,0.00051611
30138,2.7015e+07,0.021236,0.00077438,0.011703,0.00083747,0.00051162
30177,2.7026e+07,0.021223,0.00076077,0.011689,0.00083348,0.00050671
30217,2.7036e+07,0.021194,0.00076563,0.011667,0.0008292,0.00050175
30259,2.7046e+07,0.021163,0.00075275,0.011644,0.00081518,0.00049535
30301,2.7056e+07,0.021166,0.00081515,0.011626,0.00080168,0.00048928
30342,2.7066e+07,0.021172,0.0008065,0.011614,0.00079068,0.00048368
30387,2.7076e+07,0.021174,0.0007908,0.011617,0.00079443,0.00047867
30427,2.7087e+07,0.021188,0.00078671,0.011635,0.00080116,0.0004744
30470,2.7097e+07,0.021218,0.00079428,0.01166,0.00079764,0.00047243
30510,2.7106e+07,0.021248,0.00078287,0.011676,0.00079342,0.00047224
30545,2.7117e+07,0.021267,0.00077253,0.011699,0.0007852,0.00047251
30586,2.7127e+07,0.021289,0.00076642,0.011707,0.00077879,0.00047182
30627,2.7137e+07,0.021312,0.00075143,0.011702,0.000777,0.00047148
30668,2.7147e+07,0.021325,0.00074515,0.011688,0.00077564,0.00047017
30708,2.7157e+07,0.02132,0.00075783,0.011666,0.00077449,0.00046722
30749,2.7168e+07,0.021295,0.00078213,0.011637,0.00076706,0.00046359
30793,2.7178e+07,0.021275,0.00076725,0.011609,0.00075505,0.00045912
30834,2.7188e+07,0.021255,0.00075679,0.011589,0.00074219,0.00045433
30877,2.7198e+07,0.021233,0.00074351,0.011587,0.00075212,0.00044978
30920,2.7211e+07,0.021198,0.00072986,0.011607,0.00077957,0.00044448
30961,2.7222e+07,0.021182,0.0007257,0.011637,0.00078034,0.00044042
30998,2.7232e+07,0.021169,0.0007172,0.011664,0.00076781,0.00043703
31043,2.7242e+07,0.021177,0.00073268,0.011682,0.000762,0.00043501
31084,2.7252e+07,0.02119,0.00072712,0.011689,0.00075485,0.00043405
31125,2.7262e+07,0.021218,0.00073271,0.011689,0.00074545,0.00043351
31165,2.7272e+07,0.021247,0.00072306,0.011677,0.00074581,0.00043378
31210,2.7281e+07,0.021274,0.00070938,0.011659,0.00073931,0.00043555
31251,2.7292e+07,0.021283,0.00071505,0.011635,0.00073213,0.00043768
31291,2.7302e+07,0.021299,0.0007019,0.011615,0.00071916,0.00044017
31333,2.7312e+07,0.021314,0.000691,0.01161,0.00072743,0.0004415
31373,2.7322e+07,0.021311,0.00070098,0.011619,0.00073308,0.00044183
31408,2.7332e+07,0.021299,0.0007015,0.01164,0.00073446,0.00044155
31450,2.7342e+07,0.021274,0.00070608,0.011657,0.00072021,0.00044021
31490,2.7353e+07,0.021243,0.00070339,0.011676,0.00070762,0.00043713
31531,2.7363e+07,0.021221,0.00069216,0.011686,0.00069683,0.0004331
31571,2.7373e+07,0.021197,0.00067981,0.01169,0.00068899,0.0004291
31616,2.7383e+07,0.021188,0.00068593,0.011681,0.00068837,0.00042555
31657,2.7393e+07,0.021181,0.0006756,0.011669,0.00067917,0.00042206
31698,2.7404e+07,0.021183,0.00067504,0.011661,0.00066871,0.0004192
31740,2.7414e+07,0.021189,0.00066707,0.011645,0.00066216,0.00041726
31782,2.7427e+07,0.021222,0.00069001,0.011629,0.00064686,0.00041714
31828,2.744e+07,0.02125,0.0006749,0.011622,0.00063576,0.00041862
31869,2.745e+07,0.021275,0.00066274,0.011628,0.00063704,0.00042197
31910,2.7461e+07,0.021302,0.00065433,0.011644,0.00063866,0.00042488
31950,2.747e+07,0.02131,0.00067238,0.01166,0.00063093,0.00042696
31995,2.7481e+07,0.021302,0.00068111,0.011666,0.00062282,0.00042881
32036,2.7491e+07,0.021289,0.00067796,0.011677,0.00061531,0.00042919
32076,2.7501e+07,0.021272,0.00066901,0.011687,0.00060537,0.00042935
32117,2.7511e+07,0.021248,0.0006629,0.011685,0.00060227,0.00042865
32158,2.7521e+07,0.021215,0.00066246,0.011674,0.0006044,0.00042735
32193,2.7531e+07,0.0212,0.00066259,0.011671,0.00059441,0.00042606
32233,2.7542e+07,0.021189,0.00066675,0.011658,0.00059156,0.00042489
32274,2.7552e+07,0.021176,0.0006643,0.011657,0.0005876,0.00042421
32316,2.7562e+07,0.021173,0.00065708,0.011654,0.00057616,0.00042393
32356,2.7572e+07,0.021178,0.00065366,0.011658,0.00056938,0.00042387
32401,2.7582e+07,0.021196,0.00066342,0.011664,0.0005605,0.00042413
32441,2.7592e+07,0.021216,0.0006547,0.011679,0.00056004,0.00042488
32483,2.7602e+07,0.021237,0.00064527,0.01169,0.00055577,0.00042634
32523,2.7612e+07,0.021263,0.00063949,0.011695,0.0005621,0.00042774
32565,2.7622e+07,0.021276,0.00063524,0.011695,0.00055489,0.00042792
32600,2.7632e+07,0.021289,0.00062543,0.011688,0.00055231,0.0004274
32642,2.7643e+07,0.02129,0.00062441,0.011678,0.00054927,0.00042571
32684,2.7653e+07,0.021285,0.00061852,0.011668,0.00053925,0.00042307
32725,2.7662e+07,0.021272,0.00061733,0.011664,0.00053202,0.00041974
32765,2.7673e+07,0.021256,0.00061,0.011652,0.00053176,0.00041635
32815,2.7685e+07,0.021225,0.00060645,0.011647,0.00052408,0.00041187
32856,2.7696e+07,0.021206,0.00059665,0.011645,0.00051859,0.00040772
32897,2.7706e+07,0.021196,0.0005926,0.011649,0.00051206,0.00040362
32937,2.7716e+07,0.021185,0.00058453,0.011659,0.00050745,0.00040016
32978,2.7728e+07,0.021172,0.00057626,0.011673,0.00049995,0.00039711
33021,2.7739e+07,0.021178,0.00059556,0.011682,0.00049127,0.00039632
33062,2.7749e+07,0.021197,0.00060586,0.011687,0.00048372,0.00039556
33103,2.7759e+07,0.02122,0.00060103,0.011695,0.00048391,0.00039562
33144,2.7769e+07,0.021245,0.00059049,0.01169,0.0004902,0.00039588
33185,2.7779e+07,0.021264,0.00057991,0.011682,0.00048441,0.00039656
33229,2.779e+07,0.021277,0.00057137,0.011671,0.00047742,0.0003986
33270,2.78e+07,0.021276,0.00058269,0.011663,0.00046969,0.00040088
33312,2.781e+07,0.021276,0.00057355,0.011664,0.00047161,0.00040342
33352,2.782e+07,0.02127,0.00056616,0.011671,0.0004776,0.0004057
33394,2.7832e+07,0.02126,0.00055916,0.011686,0.00047244,0.00040649
33435,2.7843e+07,0.021244,0.00055929,0.0117,0.00046904,0.00040629
33478,2.7853e+07,0.021221,0.00056093,0.011712,0.00046216,0.00040564
33520,2.7863e+07,0.021204,0.00055632,0.01172,0.00045821,0.00040463
33560,2.7873e+07,0.021199,0.00055621,0.011724,0.00045344,0.00040314
33601,2.7883e+07,0.021196,0.0005503,0.011722,0.00045115,0.00040107
33645,2.7893e+07,0.021187,0.00054085,0.011711,0.00045502,0.00039925
33687,2.7903e+07,0.021189,0.0005444,0.011702,0.00044692,0.00039692
33727,2.7914e+07,0.021202,0.00054596,0.011686,0.00044529,0.0003947
33768,2.7924e+07,0.021209,0.0005359,0.011674,0.00043937,0.00039352
33809,2.7936e+07,0.021225,0.00053095,0.011666,0.0004351,0.00039464
33849,2.7947e+07,0.021244,0.00052628,0.011675,0.00046079,0.00039605
33891,2.7957e+07,0.021266,0.00051865,0.011686,0.00045538,0.00039695
33932,2.7967e+07,0.021276,0.00053136,0.011701,0.00045062,0.00039748
33973,2.7978e+07,0.021271,0.00054662,0.011709,0.00044532,0.00039771
34021,2.799e+07,0.021254,0.00054713,0.01172,0.00043613,0.00039799
34061,2.8001e+07,0.02124,0.0005386,0.011718,0.0004432,0.00039857
34103,2.8011e+07,0.021223,0.00053022,0.011712,0.00044014,0.00039926
34143,2.8021e+07,0.021207,0.00051979,0.011707,0.00043232,0.00039931
34178,2.8031e+07,0.021198,0.00051564,0.011699,0.00043178,0.00039952
34219,2.8042e+07,0.021188,0.00051207,0.011701,0.00043147,0.0003989
34262,2.8053e+07,0.021184,0.00050547,0.011698,0.00042548,0.00039863
34304,2.8063e+07,0.021193,0.00051833,0.011691,0.00041885,0.00039958
34345,2.8073e+07,0.021206,0.00051382,0.011697,0.00042509,0.00040119
34386,2.8083e+07,0.021214,0.00050549,0.011705,0.00042156,0.00040208
34431,2.8093e+07,0.021217,0.00050201,0.011715,0.00041452,0.00040301
34472,2.8103e+07,0.02122,0.00049395,0.011721,0.00040691,0.0004037
34513,2.8114e+07,0.021232,0.00049073,0.011725,0.00040479,0.00040491
34554,2.8124e+07,0.021239,0.00048343,0.011719,0.00040788,0.00040584
34594,2.8134e+07,0.021245,0.00048321,0.011707,0.00040889,0.00040672
34632,2.8145e+07,0.021243,0.00047923,0.011707,0.00041261,0.0004078
34672,2.8155e+07,0.021243,0.00047182,0.011699,0.00041066,0.0004092
34713,2.8165e+07,0.021238,0.00046643,0.011689,0.00040703,0.00041038
34755,2.8176e+07,0.021232,0.00046657,0.01168,0.0003993,0.00041147
34796,2.8186e+07,0.021215,0.0004794,0.011676,0.00039956,0.00041252
34840,2.8195e+07,0.021195,0.00047739,0.011673,0.00039231,0.00041444
34881,2.8205e+07,0.021178,0.00046875,0.011676,0.00040072,0.00041775
34922,2.8215e+07,0.021171,0.00047263,0.011689,0.0004056,0.00042203
34963,2.8225e+07,0.021163,0.00046626,0.011695,0.00039907,0.00042462
35008,2.8239e+07,0.021166,0.00046517,0.011706,0.00039508,0.0004258
35051,2.8251e+07,0.021169,0.00045739,0.011701,0.00040667,0.00042586
35092,2.8262e+07,0.021182,0.0004609,0.011702,0.00039936,0.00042483
35133,2.8272e+07,0.021199,0.00045928,0.011696,0.00039672,0.00042386
35175,2.8282e+07,0.021217,0.00045529,0.011689,0.00039512,0.00042294
35216,2.8292e+07,0.021232,0.00045417,0.011693,0.00040595,0.00042207
35260,2.8302e+07,0.021236,0.00045838,0.011688,0.00040402,0.00042178
35301,2.8312e+07,0.021249,0.00045385,0.011683,0.00039684,0.0004225
35341,2.8322e+07,0.021256,0.00045064,0.011673,0.00039682,0.00042322
35383,2.8332e+07,0.02125,0.00046475,0.011667,0.00039161,0.00042445
35418,2.8343e+07,0.021233,0.00047915,0.011672,0.00039794,0.00042616
35458,2.8353e+07,0.021215,0.00047472,0.011674,0.00039171,0.00042626
35499,2.8363e+07,0.021192,0.00047031,0.011673,0.00038457,0.00042512
35539,2.8374e+07,0.021171,0.00047301,0.011665,0.00038843,0.0004228
35580,2.8383e+07,0.021158,0.00046698,0.011657,0.00038425,0.0004196
35622,2.8393e+07,0.021145,0.00046115,0.011653,0.00037801,0.00041584
35667,2.8404e+07,0.021143,0.00046891,0.011655,0.00038046,0.00041141
35707,2.8414e+07,0.021142,0.00046427,0.011657,0.00037937,0.00040642
35749,2.8424e+07,0.021136,0.00046312,0.011652,0.00037721,0.00040151
35795,2.8437e+07,0.021156,0.00051961,0.011646,0.00036875,0.00039559
35834,2.8448e+07,0.021177,0.00051352,0.011641,0.00036639,0.00039114
35875,2.8458e+07,0.021185,0.00051357,0.011645,0.00037355,0.0003871
35916,2.8468e+07,0.021186,0.00051636,0.011647,0.00036796,0.00038545
35958,2.8478e+07,0.021194,0.00052348,0.011641,0.00036895,0.00038561
35999,2.8488e+07,0.021195,0.00052131,0.011647,0.00037903,0.00038711
36043,2.8499e+07,0.021187,0.00052545,0.01165,0.00037205,0.00038982
36084,2.8509e+07,0.021176,0.00052523,0.011655,0.0003654,0.00039306
36124,2.8519e+07,0.021168,0.00051851,0.011652,0.00036607,0.00039569
36166,2.8529e+07,0.021151,0.00053198,0.011652,0.00036291,0.00039651
36206,2.8541e+07,0.021119,0.0005318,0.01165,0.00035627,0.00039601
36247,2.8552e+07,0.021111,0.00054264,0.011654,0.00035411,0.00039515
36288,2.8562e+07,0.021105,0.00053576,0.011652,0.00035196,0.00039265
36328,2.8572e+07,0.021103,0.00053833,0.011653,0.00034565,0.00038934
36371,2.8582e+07,0.021099,0.00054654,0.011659,0.00034379,0.0003855
36412,2.8592e+07,0.021099,0.00053969,0.011665,0.00034181,0.00038142
36456,2.8603e+07,0.021114,0.00055491,0.011668,0.00033635,0.00037771
36497,2.8613e+07,0.021124,0.00054445,0.01167,0.00033665,0.00037506
36538,2.8623e+07,0.021125,0.00054371,0.011672,0.0003466,0.00037321
36579,2.8633e+07,0.021138,0.00054127,0.011668,0.00034263,0.0003728
36619,2.8643e+07,0.021149,0.00053471,0.011668,0.00033679,0.00037364
36659,2.8654e+07,0.021157,0.00052515,0.011665,0.00033121,0.00037501
36699,2.8664e+07,0.021156,0.00052259,0.011661,0.00032819,0.00037717
36740,2.8674e+07,0.021154,0.00051683,0.011658,0.00032359,0.0003799
36783,2.8684e+07,0.021151,0.00050928,0.011657,0.00032061,0.00038242
36823,2.8694e+07,0.021146,0.00050096,0.011654,0.00032526,0.00038423
36870,2.8705e+07,0.021133,0.00049833,0.011653,0.0003238,0.00038487
36910,2.8715e+07,0.021121,0.00049338,0.011654,0.00032405,0.00038381
36951,2.8725e+07,0.021121,0.00049426,0.011656,0.00032,0.00038175
36993,2.8735e+07,0.021111,0.00049216,0.011651,0.00031938,0.00037876
37034,2.8746e+07,0.021092,0.00050322,0.011643,0.00031787,0.0003751
37072,2.8756e+07,0.021098,0.00056125,0.011647,0.00033268,0.00037061
37113,2.8766e+07,0.021112,0.00056192,0.011656,0.00033429,0.00036607
37154,2.8776e+07,0.021124,0.00055688,0.011656,0.00033941,0.00036217
37194,2.8786e+07,0.021129,0.00055032,0.011658,0.00033347,0.00035949
37236,2.8796e+07,0.02114,0.00054109,0.01167,0.00034412,0.00035778
37282,2.8806e+07,0.02115,0.00053044,0.011684,0.00034359,0.00035778
37322,2.8816e+07,0.021152,0.00052527,0.011686,0.00036215,0.00035875
37363,2.8826e+07,0.021154,0.00052302,0.01168,0.00037706,0.00035946
37403,2.8836e+07,0.021159,0.00051501,0.011687,0.00038757,0.00036193
37445,2.8846e+07,0.021164,0.00051067,0.011686,0.00038996,0.00036467
37485,2.8857e+07,0.021156,0.00052328,0.011683,0.00038574,0.00036636
37525,2.8867e+07,0.02113,0.00055597,0.011674,0.00038756,0.00036737
37566,2.8878e+07,0.021123,0.00056966,0.01167,0.00040349,0.0003665
37606,2.8888e+07,0.021121,0.00056955,0.01167,0.00040655,0.00036474
37648,2.8898e+07,0.021113,0.00056082,0.011664,0.00040077,0.00036241
37693,2.8908e+07,0.021097,0.00055676,0.011666,0.00040034,0.00035979
37734,2.8919e+07,0.021092,0.00055793,0.011668,0.0003929,0.00035713
37774,2.8929e+07,0.021094,0.00055644,0.011669,0.00038552,0.00035383
37815,2.8939e+07,0.021098,0.0005505,0.011661,0.00039043,0.00035053
37856,2.8951e+07,0.021102,0.00054598,0.011665,0.00039101,0.0003482
37894,2.8961e+07,0.02111,0.00053713,0.01167,0.00039107,0.00034714
37935,2.8972e+07,0.021107,0.00054215,0.011663,0.00039766,0.00034681
37975,2.8981e+07,0.021102,0.00053449,0.011665,0.00039755,0.00034738
38017,2.8992e+07,0.021104,0.00052865,0.011664,0.00039035,0.00034969
38058,2.9002e+07,0.021109,0.00052226,0.011662,0.00038453,0.00035258
38104,2.9012e+07,0.021114,0.00051598,0.01167,0.00039315,0.0003553
38145,2.9023e+07,0.021101,0.00053567,0.011667,0.0003954,0.00035771
38185,2.9033e+07,0.021083,0.00053423,0.011679,0.00041584,0.00035932
38228,2.9043e+07,0.021084,0.00054625,0.011694,0.00041791,0.00035925
38265,2.9053e+07,0.021078,0.00053956,0.011695,0.00042114,0.00035797
38307,2.9066e+07,0.021064,0.00053574,0.011702,0.00041161,0.0003557
38348,2.9076e+07,0.021064,0.00053174,0.011703,0.00040682,0.00035303
38388,2.9086e+07,0.021062,0.00052244,0.0117,0.0004027,0.00035025
38429,2.9097e+07,0.021066,0.0005173,0.011691,0.00040108,0.00034747
38469,2.9107e+07,0.021072,0.00051086,0.011689,0.00039934,0.00034613
