LineNo,TimeUS,ThI,ABst,ThO,ThH,DAlt,Alt,BAlt,DSAlt,SAlt,TAlt,DCRt,CRt
1576,1.9857e+07,0,0,0,0.22177,0,-0.59208,-0.74,NaN,0,-88.917,0,49
1985,1.9959e+07,0,0,0,0.22177,0,-0.55544,-0.45,NaN,0,-88.629,0,48
2400,2.0061e+07,0,0,0,0.22177,0,-0.51132,-0.63,NaN,0,-88.81,0,48
2810,2.0163e+07,0,0,0,0.22177,0,-0.46767,-0.75,NaN,0,-88.928,0,48
3222,2.0263e+07,0,0,0,0.22177,0,-0.43012,-0.44,NaN,0,-88.618,0,47
3638,2.0364e+07,0,0,0,0.22177,0,-0.39108,-0.81,NaN,0,-88.991,0,47
4049,2.0466e+07,0,0,0,0.22177,0,-0.35781,-0.4,NaN,0,-88.579,0,46
4458,2.0568e+07,0,0,0,0.22177,0,-0.32636,-0.55,NaN,0,-88.731,0,46
4873,2.0669e+07,0,0,0,0.22177,0,-0.29367,-0.15,NaN,0,-88.33,0,45
5255,2.077e+07,0,0,0,0.22177,0,-0.25516,-0.42,NaN,0,-88.601,0,45
5669,2.0871e+07,0,0,0,0.22177,0,-0.21561,-0.28,NaN,0,-88.46,0,45
6076,2.0973e+07,0,0,0,0.22177,0,-0.1774,-0.65,NaN,0,-88.827,0,45
6488,2.1073e+07,0,0,0,0.22177,0,-0.14738,-0.63,NaN,0,-88.804,0,44
6895,2.1173e+07,0,0,0,0.22177,0,-0.12694,-0.48,NaN,0,-88.651,0,43
7278,2.1275e+07,0,0,0,0.22177,0,-0.1091,-0.69,NaN,0,-88.865,0,42
7691,2.1376e+07,0,0,0,0.22177,0,-0.10094,-0.4,NaN,0,-88.577,0,41
8076,2.1477e+07,0,0,0,0.22177,0,-0.090384,-0.69,NaN,0,-88.864,0,40
8482,2.1578e+07,0,0,0,0.22177,0,-0.083814,-0.53,NaN,0,-88.7,0,38
8892,2.168e+07,0,0,0,0.22177,0,-0.084722,-0.52,NaN,0,-88.694,0,37
9299,2.178e+07,0,0,0,0.22177,0,-0.083198,-0.25,NaN,0,-88.428,0,35
9552,2.188e+07,0,0,0,0.22177,0,-0.077458,-0.33,NaN,0,-88.507,0,34
9959,2.198e+07,0,0,0,0.22177,0,-0.069043,-0.53,NaN,0,-88.699,0,33
10369,2.208e+07,0,0,0,0.22177,0,-0.063897,-0.24,NaN,0,-88.409,0,32
10779,2.2183e+07,0,0,0,0.22177,0,-0.055944,-0.26,NaN,0,-88.431,0,31
11166,2.2285e+07,0,0,0,0.22177,0,-0.045725,-0.62,NaN,0,-88.787,0,30
11577,2.2386e+07,0,0,0,0.22177,0,-0.043713,-0.2,NaN,0,-88.369,0,29
11991,2.2488e+07,0,0,0,0.22177,0,-0.037786,-0.59,NaN,0,-88.764,0,28
12401,2.2591e+07,0,0,0,0.22177,0,-0.036893,-0.26,NaN,0,-88.43,0,27
12812,2.2693e+07,0,0,0,0.22177,0,-0.038314,-0.44,NaN,0,-88.606,0,26
13219,2.2794e+07,0,0,0,0.22177,0,-0.038354,-0.33,NaN,0,-88.498,0,24
13631,2.2896e+07,0,0,0,0.22177,0,-0.03847,-0.48,NaN,0,-88.65,0,23
14041,2.2998e+07,0,0,0,0.22177,0,-0.043536,-0.43,NaN,0,-88.599,0,22
14452,2.3099e+07,0,0,0,0.22177,0,-0.048731,-0.48,NaN,0,-88.648,0,21
14834,2.32e+07,0,0,0,0.22177,0,-0.055446,-0.69,NaN,0,-88.857,0,20
15245,2.3303e+07,0,0,0,0.22177,0,-0.068464,-0.72,NaN,0,-88.883,0,18
15657,2.3405e+07,0,0,0,0.22177,0,-0.093788,-0.46,NaN,0,-88.623,0,16
16070,2.3507e+07,0,0,0,0.22177,0,-0.11263,-0.48,NaN,0,-88.645,0,15
16452,2.361e+07,0,0,0,0.22177,0,-0.12942,-0.51,NaN,0,-88.673,0,14
16863,2.3712e+07,0,0,0,0.22177,0,-0.14616,-0.22,NaN,0,-88.378,0,12
17271,2.3814e+07,0,0,0,0.22177,0,-0.16086,-0.46,NaN,0,-88.621,0,11
17686,2.3915e+07,0,0,0,0.22177,0,-0.17138,-0.55,NaN,0,-88.711,0,10
18071,2.4018e+07,0,0,0,0.22177,0,-0.18435,-0.53,NaN,0,-88.688,0,9
18484,2.412e+07,0,0,0,0.22177,0,-0.19848,-0.62,NaN,0,-88.778,0,8
18891,2.4222e+07,0,0,0,0.22177,0,-0.21567,-0.56,NaN,0,-88.722,0,7
19301,2.4323e+07,0,0,0,0.22177,0,-0.23522,-0.84,NaN,0,-89.004,0,5
19685,2.4424e+07,0,0,0,0.22177,0,-0.25884,-0.55,NaN,0,-88.716,0,4
20097,2.4526e+07,0,0,0,0.22177,0,-0.28348,-0.48,NaN,0,-88.635,0,3
20507,2.4628e+07,0,0,0,0.22177,0,-0.30512,-0.52,NaN,0,-88.68,0,2
20921,2.473e+07,0,0,0,0.22177,0,-0.32471,-0.35,NaN,0,-88.504,0,1
21339,2.4833e+07,0,0,0,0.22177,0,-0.34032,-0.42,NaN,0,-88.578,0,0
21755,2.4935e+07,0,0,0,0.22177,0,-0.35403,-0.51,NaN,0,-88.672,0,0
22166,2.5037e+07,0,0,0,0.22177,0,-0.36625,-0.54,NaN,0,-88.695,0,-1
22581,2.5141e+07,0,0,0,0.22177,0,-0.37949,-0.68,NaN,0,-88.842,0,-2
22989,2.5243e+07,0,0,0,0.22177,0,-0.39669,-0.49,NaN,0,-88.644,0,-3
23408,2.5347e+07,0,0,0,0.22177,0,-0.41346,-0.54,NaN,0,-88.695,0,-4
23827,2.5448e+07,0,0,0,0.22177,0,-0.4281,-0.63,NaN,0,-88.791,0,-4
24240,2.5549e+07,0,0,0,0.22177,0,-0.44429,-0.66,NaN,0,-88.814,0,-5
24655,2.5651e+07,0,0,0,0.22177,0,-0.46194,-0.38,NaN,0,-0.011939,0,-6
25068,2.5754e+07,0,0,0,0.22177,0,-0.47796,-0.59,NaN,0,-0.027965,0,-7
25482,2.5856e+07,0,0,0,0.22177,0,-0.49251,-0.49,NaN,0,-0.042511,0,-7
25892,2.5958e+07,0,0,0,0.22177,0,-0.50613,-0.74,NaN,0,-0.056132,0,-8
26302,2.6059e+07,0,0,0,0.22177,0,-0.52253,-0.53,NaN,0,-0.071692,0,-9
26681,2.6161e+07,0,0,0,0.22177,0,-0.53861,-0.51,NaN,0,-0.087766,0,-9
27095,2.6261e+07,0,0,0,0.22177,0,-0.55281,-0.23,NaN,0,-0.10197,0,-10
27501,2.6362e+07,0,0,0,0.22177,0,-0.56185,-0.84,NaN,0,-0.11101,0,-10
27914,2.6463e+07,0,0,0,0.22177,0,-0.57348,-0.6,NaN,0,-0.12281,0,-11
28321,2.6565e+07,0,0,0,0.22177,0,-0.58822,-0.57,NaN,0,-0.13755,0,-11
28705,2.6667e+07,0,0,0,0.22177,0,-0.60231,-0.7,NaN,0,-0.15164,0,-12
29118,2.6769e+07,0,0,0,0.22177,0,-0.61767,-0.33,NaN,0,-0.167,0,-12
29533,2.687e+07,0,0,0,0.22177,0,-0.62901,-0.52,NaN,0,-0.17766,0,-13
29943,2.6972e+07,0,0,0,0.22177,0,-0.63858,-0.81,NaN,0,-0.18723,0,-13
30353,2.7073e+07,0,0,0,0.22177,0,-0.65187,-0.64,NaN,0,-0.20068,0,-14
30759,2.7174e+07,0,0,0,0.22177,0,-0.66722,-0.45,NaN,0,-0.21603,0,-14
31172,2.7276e+07,0,0,0,0.22177,0,-0.67936,-0.6,NaN,0,-0.2265,0,-14
31578,2.7377e+07,0,0,0,0.22177,0,-0.69101,-0.59,NaN,0,-0.23815,0,-15
31964,2.748e+07,0,0,0,0.22177,0,-0.7026,-0.73,NaN,0,-0.24906,0,-15
32370,2.7581e+07,0,0,0,0.22177,0,-0.71586,-0.5,NaN,0,-0.26232,0,-16
32779,2.7683e+07,0,0,0,0.22177,0,-0.72713,-0.43,NaN,0,-0.27215,0,-16
33192,2.7784e+07,0,0,0,0.22177,0,-0.73533,-0.47,NaN,0,-0.28035,0,-16
33605,2.7885e+07,0,0,0,0.22177,0,-0.7417,-0.32,NaN,0,-0.28422,0,-16
33987,2.7987e+07,0,0,0,0.22177,0,-0.74375,0.06,NaN,0,-0.28628,0,-17
34396,2.809e+07,0,0,0,0.22177,0,-0.73798,-0.08,NaN,0,-0.27965,0,-16
34806,2.8192e+07,0,0,0,0.22177,0,-0.72762,-0.52,NaN,0,-0.26929,0,-16
35220,2.8293e+07,0,0,0,0.22177,0,-0.71925,-0.2,NaN,0,-0.26026,0,-16
35626,2.8395e+07,0,0,0,0.22177,0,-0.71155,-0.08,NaN,0,-0.25255,0,-16
36012,2.8498e+07,0,0,0,0.22177,0,-0.69742,-0.23,NaN,0,-0.23699,0,-16
36422,2.8599e+07,0,0,0,0.22177,0,-0.68893,-0.64,NaN,0,-0.2285,0,-15
36834,2.8701e+07,0,0,0,0.22177,0,-0.68087,-0.44,NaN,0,-0.22044,0,-15
37248,2.8802e+07,0,0,0,0.22177,0,-0.67918,-0.71,NaN,0,-0.21875,0,-15
37658,2.8905e+07,0,0,0,0.22177,0,-0.68364,-0.48,NaN,0,-0.22238,0,-16
38066,2.9006e+07,0,0,0,0.22177,0,-0.68955,-0.36,NaN,0,-0.22829,0,-16
38473,2.9109e+07,0,0,0,0.22177,0,-0.69279,-0.44,NaN,0,-0.2301,0,-16
38882,2.921e+07,0,0,0,0.22177,0,-0.69641,-0.32,NaN,0,-0.23371,0,-16
39264,2.9311e+07,0,0,0,0.22177,0,-0.69872,-0.7,NaN,0,-0.23619,0,-16
39672,2.9412e+07,0,0,0,0.22177,0,-0.70401,-0.82,NaN,0,-0.24147,0,-16
40084,2.9513e+07,0,0,0,0.22177,0,-0.71475,-0.48,NaN,0,-0.25222,0,-16
40492,2.9615e+07,0,0,0,0.22177,0,-0.72598,-0.64,NaN,0,-0.26377,0,-17
40906,2.9718e+07,0,0,0,0.22177,0,-0.73729,-0.75,NaN,0,-0.27441,0,-17
41317,2.9821e+07,0,0,0,0.22177,0,-0.75094,-0.66,NaN,0,-0.28806,0,-17
41729,2.9923e+07,0,0,0,0.22177,0,-0.76518,-0.66,NaN,0,-0.30078,0,-17
42141,3.0024e+07,0,0,0,0.22177,0,-0.77952,-0.61,NaN,0,-0.31513,0,-18
42557,3.0125e+07,0,0,0,0.22177,0,-0.79256,-0.45,NaN,0,-0.32833,0,-18
42969,3.0226e+07,0,0,0,0.22177,0,-0.80339,-0.58,NaN,0,-0.33915,0,-18
43382,3.0327e+07,0,0,0,0.22177,0,-0.81292,-0.63,NaN,0,-0.34802,0,-18
43767,3.0428e+07,0,0,0,0.22177,0,-0.82251,-0.49,NaN,0,-0.3576,0,-19
44183,3.0531e+07,0,0,0,0.22177,0,-0.83118,-0.57,NaN,0,-0.36559,0,-19
44591,3.0631e+07,0,0,0,0.22177,0,-0.83843,-0.62,NaN,0,-0.37284,0,-19
45001,3.0734e+07,0,0,0,0.22177,0,-0.84655,-0.52,NaN,0,-0.38121,0,-19
45416,3.0836e+07,0,0,0,0.22177,0,-0.85397,-1.14,NaN,0,-0.38863,0,-19
45823,3.0937e+07,0,0,0,0.22177,0,-0.86697,-0.75,NaN,0,-0.40011,0,-19
46201,3.1039e+07,0,0,0,0.22177,0,-0.88284,-0.57,NaN,0,-0.41598,0,-20
46612,3.1141e+07,0,0,0,0.22177,0,-0.89688,-0.87,NaN,0,-0.42928,0,-20
47022,3.1243e+07,0,0,0,0.22177,0,-0.91157,-0.85,NaN,0,-0.44396,0,-20
47434,3.1345e+07,0,0,0,0.22177,0,-0.92855,-0.9,NaN,0,-0.45943,0,-21
47847,3.1446e+07,0,0,0,0.22177,0,-0.94729,-0.58,NaN,0,-0.47816,0,-21
48263,3.1548e+07,0,0,0,0.22177,0,-0.96321,-0.67,NaN,0,-0.49348,0,-21
48647,3.165e+07,0,0,0,0.22177,0,-0.97554,-0.38,NaN,0,-0.50582,0,-21
49058,3.1752e+07,0,0,0,0.22177,0,-0.98311,-0.62,NaN,0,-0.51339,0,-22
49475,3.1856e+07,0,0,0,0.22177,0,-0.9897,-0.49,NaN,0,-0.51862,0,-22
49885,3.1957e+07,0,0,0,0.22177,0,-0.99417,-0.61,NaN,0,-0.52309,0,-22
50297,3.2059e+07,0,0,0,0.22177,0,-0.99788,-0.54,NaN,0,-0.52697,0,-22
50679,3.2161e+07,0,0,0,0.22177,0,-0.99833,-0.71,NaN,0,-0.52742,0,-21
51098,3.2263e+07,0,0,0,0.22177,0,-1.0025,-0.7,NaN,0,-0.53325,0,-21
51506,3.2363e+07,0,0,0,0.22177,0,-1.0081,-0.46,NaN,0,-0.53883,0,-21
51886,3.2464e+07,0,0,0,0.22177,0,-1.0115,-0.58,NaN,0,-0.54243,0,-21
52294,3.2565e+07,0,0,0,0.22177,0,-1.0118,-0.84,NaN,0,-0.54274,0,-21
52709,3.2666e+07,0,0,0,0.22177,0,-1.0172,-0.87,NaN,0,-0.54842,0,-21
53122,3.2767e+07,0,0,0,0.22177,0,-1.0261,-0.86,NaN,0,-0.55731,0,-21
53537,3.2869e+07,0,0,0,0.22177,0,-1.0372,-0.46,NaN,0,-0.56722,0,-22
53945,3.297e+07,0,0,0,0.22177,0,-1.0454,-0.78,NaN,0,-0.57547,0,-22
54357,3.3072e+07,0,0,0,0.22177,0,-1.0528,-0.38,NaN,0,-0.5824,0,-22
54763,3.3174e+07,0,0,0,0.22177,0,-1.0546,-0.48,NaN,0,-0.58419,0,-22
55178,3.3276e+07,0,0,0,0.22177,0,-1.0553,-0.27,NaN,0,-0.58431,0,-22
55587,3.3377e+07,0,0,0,0.22177,0,-1.0511,-0.35,NaN,0,-0.58008,0,-22
55973,3.3477e+07,0,0,0,0.22177,0,-1.0453,-0.48,NaN,0,-0.57351,0,-21
56382,3.3581e+07,0,0,0,0.22177,0,-1.0391,-0.59,NaN,0,-0.56737,0,-21
56792,3.3683e+07,0,0,0,0.22177,0,-1.0341,-0.63,NaN,0,-0.56254,0,-22
57206,3.3787e+07,0,0,0,0.22177,0,-1.029,-0.71,NaN,0,-0.55741,0,-20
57619,3.3889e+07,0,0,0,0.22177,0,-1.0314,-0.76,NaN,0,-0.55767,0,-21
58030,3.3991e+07,0,0,0,0.22177,0,-1.0316,-0.6,NaN,0,-0.55786,0,-21
58412,3.4093e+07,0,0,0,0.22177,0,-1.0342,-0.8,NaN,0,-0.56012,0,-21
58821,3.4195e+07,0,0,0,0.22177,0,-1.0374,-0.81,NaN,0,-0.56332,0,-20
59238,3.4297e+07,0,0,0,0.22177,0,-1.0449,-0.8,NaN,0,-0.5688,0,-21
59645,3.4398e+07,0,0,0,0.22177,0,-1.0537,-1,NaN,0,-0.57767,0,-21
60058,3.45e+07,0,0,0,0.22177,0,-1.0656,-0.77,NaN,0,-0.58511,0,-21
60468,3.4602e+07,0,0,0,0.22177,0,-1.0777,-0.78,NaN,0,-0.59725,0,-21
60849,3.4704e+07,0,0,0,0.22177,0,-1.0872,-0.96,NaN,0,-0.60323,0,-21
61257,3.4805e+07,0,0,0,0.22177,0,-1.0994,-0.64,NaN,0,-0.61537,0,-21
61666,3.4906e+07,0,0,0,0.22177,0,-1.1096,-0.71,NaN,0,-0.62043,0,-21
62074,3.5007e+07,0,0,0,0.22177,0,-1.1175,-0.93,NaN,0,-0.62827,0,-21
62484,3.511e+07,0,0,0,0.22177,0,-1.1251,-0.49,NaN,0,-0.63174,0,-21
62892,3.5211e+07,0,0,0,0.22177,0,-1.13,-1,NaN,0,-0.63668,0,-21
63277,3.5314e+07,0,0,0,0.22177,0,-1.1372,-0.97,NaN,0,-0.63945,0,-21
63686,3.5415e+07,0,0,0,0.22177,0,-1.1452,-1.14,NaN,0,-0.64743,0,-21
64097,3.5516e+07,0,0,0,0.22177,0,-1.1586,-1.11,NaN,0,-0.65566,0,-21
64504,3.5618e+07,0,0,0,0.22177,0,-1.1746,-1.18,NaN,0,-0.67159,0,-21
64908,3.572e+07,0,0,0,0.22177,0,-1.1918,-0.9,NaN,0,-0.68388,0,-20
65286,3.582e+07,0,0,0,0.22177,0,-1.2084,-0.77,NaN,0,-0.70045,0,-21
65687,3.5923e+07,0,0,0,0.22177,0,-1.2189,-0.59,NaN,0,-0.70659,0,-20
66082,3.6023e+07,0,0,0,0.22177,0,-1.2256,-0.93,NaN,0,-0.71331,0,-19
66461,3.6124e+07,0,0,0,0.22177,0,-1.2317,-0.83,NaN,0,-0.71415,0,-20
66863,3.6225e+07,0,0,0,0.22177,0,-1.2371,-0.48,NaN,0,-0.71954,0,-21
67267,3.6326e+07,0,0,0,0.22177,0,-1.2373,-0.61,NaN,0,-0.71458,0,-21
67674,3.6428e+07,0,0,0,0.22177,0,-1.2307,-0.87,NaN,0,-0.70799,0,-20
68058,3.6528e+07,0,0,0,0.22177,0,-1.2279,-0.94,NaN,0,-0.69815,0,-20
68459,3.6629e+07,0,0,0,0.22177,0,-1.2279,-0.53,NaN,0,-0.69813,0,-19
68868,3.673e+07,0,0,0,0.22177,0,-1.2248,-0.82,NaN,0,-0.68971,0,-19
69273,3.6831e+07,0,0,0,0.22177,0,-1.2223,-0.58,NaN,0,-0.6872,0,-18
69680,3.6933e+07,0,0,0,0.22177,0,-1.2155,-1.34,NaN,0,-0.67668,0,-18
70085,3.7034e+07,0,0,0,0.22177,0,-1.2179,-1.18,NaN,0,-0.67901,0,-18
70488,3.7135e+07,0,0,0,0.22177,0,-1.2256,-1.08,NaN,0,-0.68291,0,-18
70863,3.7237e+07,0,0,0,0.22177,0,-1.234,-1.18,NaN,0,-0.69127,0,-16
71269,3.7339e+07,0,0,0,0.22177,0,-1.2461,-0.82,NaN,0,-0.70022,0,-16
71671,3.744e+07,0,0,0,0.22177,0,-1.2555,-1.02,NaN,0,-0.70963,0,-11
72076,3.754e+07,0,0,0,0.22177,0,-1.2573,-1.08,NaN,0,-0.70609,0,-6
72477,3.7641e+07,0,0,0,0.22177,0,-1.2522,-0.85,NaN,0,-0.70092,0,-2
72884,3.7743e+07,0,0,0,0.22177,0,-1.2338,-0.68,NaN,0,-0.67786,0,16
73289,3.7845e+07,0,0,0,0.22177,0,-1.1858,-0.81,NaN,0,-0.62263,0,47
73665,3.7947e+07,0,0,0,0.22177,0,-1.1053,-0.55,NaN,0,-0.54221,0,75
74073,3.8049e+07,0,0,0,0.22177,0,-0.99736,-0.59,NaN,0,-0.4252,0,94
74476,3.815e+07,0,0,0,0.22177,0,-0.87192,-0.32,NaN,0,-0.29977,0,110
74887,3.8251e+07,0,0,0,0.22177,0,-0.73338,-0.36,NaN,0,-0.15619,0,110
75291,3.8353e+07,0,0,0,0.22177,0,-0.60266,0.07,NaN,0,-0.025463,0,100
75696,3.8455e+07,0,0,0,0.22177,0,-0.48444,0.16,NaN,0,0.093922,0,80
76101,3.8557e+07,0,0,0,0.22177,0,-0.38682,0.56,NaN,0,0.19155,0,51
76507,3.8658e+07,0,0,0,0.22177,0,-0.31025,0.65,NaN,0,0.25939,0,34
76913,3.8759e+07,0,0,0,0.22177,0,-0.24304,0.58,NaN,0,0.32659,0,23
77318,3.8861e+07,0,0,0,0.22177,0,-0.18168,0.48,NaN,0,0.37627,0,20
77723,3.8961e+07,0,0,0,0.22177,0,-0.12642,0.59,NaN,0,0.43154,0,16
78126,3.9062e+07,0,0,0,0.22177,0,-0.075446,0.63,NaN,0,0.46664,0,11
78533,3.9162e+07,0,0,0,0.22177,0,-0.037078,0.64,NaN,0,0.50501,0,-6
78944,3.9263e+07,0,0,0,0.22177,0,-0.014491,0.42,NaN,0,0.50296,0,-18
79348,3.9364e+07,0,0,0,0.22177,0,-0.0061529,0.4,NaN,0,0.5113,0,-27
79756,3.9465e+07,0,0,0,0.22177,0,-0.0036656,0.8,NaN,0,0.48329,0,-27
80157,3.9565e+07,0,0,0,0.22177,0,0.0048542,0.71,NaN,0,0.49181,0,-7
80562,3.9665e+07,0,0,0,0.22177,0,0.045029,0.69,NaN,0,0.50994,0,15
80966,3.9767e+07,0,0,0,0.22177,0,0.061556,0.59,NaN,0,0.60548,0,11
81344,3.9867e+07,0,0,0,0.22177,0,0.061556,0.65,NaN,0,0.64942,0,6
81749,3.9969e+07,0,0,0,0.22177,0,0.061556,0.62,NaN,0,0.62399,0,15
82152,4.0069e+07,0,0,0,0.22177,0,0.061556,0.51,NaN,0,0.48717,0,25
82557,4.0171e+07,0,0,0,0.22177,0,0.061556,0.54,NaN,0,0.51825,0,22
82960,4.0271e+07,0,0,0,0.22177,0,0.061556,0.74,NaN,0,0.69636,0,17
83366,4.0372e+07,0,0,0,0.22177,0,0.061556,0.91,NaN,0,0.86308,0,1
83775,4.0473e+07,0,0,0,0.22177,0,0.061556,0.61,NaN,0,0.54033,0,-16
84154,4.0573e+07,0,0,0,0.22177,0,0.061556,0.6,NaN,0,0.53185,0,-15
84559,4.0674e+07,0,0,0,0.22177,0,0.061556,0.69,NaN,0,0.6021,0,-2
84962,4.0774e+07,0,0,0,0.22177,0,0.061556,0.74,NaN,0,0.65579,0,15
85371,4.0874e+07,0,0,0,0.22177,0,0.061556,0.7,NaN,0,0.5883,0,8
85744,4.0976e+07,0,0,0,0.22177,0,0.061556,0.59,NaN,0,0.4781,0,-5
86151,4.1077e+07,0,0,0,0.22177,0,0.061556,0.64,NaN,0,0.49207,0,-7
86553,4.1177e+07,0,0,0,0.22177,0,0.061556,0.36,NaN,0,0.21798,0,1
86928,4.1278e+07,0,0,0,0.22177,0,0.061556,0.67,NaN,0,0.49534,0,11
87332,4.1379e+07,0,0,0,0.22177,0,0.061556,0.55,NaN,0,0.37101,0,8
87737,4.1478e+07,0,0,0,0.22177,0,0.061556,0.63,NaN,0,0.42863,0,-4
88146,4.1579e+07,0,0,0,0.22177,0,0.53729,0.51,NaN,0,0.77731,0,-22
88551,4.1679e+07,0,0,0,0.22177,0,0.52682,0.48,NaN,0,0.73845,0,-11
88956,4.1781e+07,0,0,0,0.22177,0,0.53418,0.54,NaN,0,0.7458,0,12
89331,4.1883e+07,0,0,0,0.22177,0,0.56356,0.57,NaN,0,0.74294,0,30
89736,4.1985e+07,0,0,0,0.22177,0,0.59855,0.55,NaN,0,0.77793,0,20
90146,4.2086e+07,0,0,0,0.22177,0,0.616,0.57,NaN,0,0.76597,0,5
90551,4.2187e+07,0,0,0,0.22177,0,0.62816,0.84,NaN,0,0.77813,0,12
90955,4.2288e+07,0,0,0,0.22177,0,0.65649,0.31,NaN,0,0.77211,0,23
91356,4.2388e+07,0,0,0,0.22177,0,0.68394,0.45,NaN,0,0.79955,0,24
91735,4.2489e+07,0,0,0,0.22177,0,0.70433,0.33,NaN,0,0.78683,0,28
92138,4.259e+07,0,0,0,0.22177,0,0.71301,0.25,NaN,0,0.79551,0,9
92547,4.2691e+07,0,0,0,0.22177,0,0.6889,0.54,NaN,0,0.74683,0,-10
92948,4.2792e+07,0,0,0,0.22177,0,0.6594,0.3,NaN,0,0.71733,0,3
93326,4.2893e+07,0,0,0,0.22177,0,0.65067,0.61,NaN,0,0.67983,0,25
93727,4.2993e+07,0,0,0,0.22177,0,0.66298,0.59,NaN,0,0.69214,0,29
94133,4.3095e+07,0,0,0,0.22177,0,0.67361,0.48,NaN,0,0.67677,0,13
94540,4.3196e+07,0,0,0,0.22177,0,0.66518,0.76,NaN,0,0.66834,0,-2
94943,4.3297e+07,0,0,0,0.22177,0,0.65839,0.54,NaN,0,0.62924,0,6
95347,4.3397e+07,0,0,0,0.22177,0,0.66772,0.37,NaN,0,0.63856,0,17
95750,4.3498e+07,0,0,0,0.22177,0,0.67709,0.44,NaN,0,0.62181,0,19
96125,4.36e+07,0,0,0,0.22177,0,0.67627,0.54,NaN,0,0.62099,0,9
96532,4.3703e+07,0,0,0,0.22177,0,0.66173,0.43,NaN,0,0.58083,0,-10
96940,4.3804e+07,0,0,0,0.22177,0,0.63172,0.5,NaN,0,0.55081,0,-14
97345,4.3906e+07,0,0,0,0.22177,0,0.61078,0.4,NaN,0,0.50491,0,5
97722,4.4008e+07,0,0,0,0.22177,0,0.615,0.31,NaN,0,0.50913,0,30
98128,4.4111e+07,0,0,0,0.22177,0,0.631,0.41,NaN,0,0.49815,0,30
98531,4.4212e+07,0,0,0,0.22177,0,0.63548,0.47,NaN,0,0.50263,0,11
98937,4.4313e+07,0,0,0,0.22177,0,0.62019,0.58,NaN,0,0.4628,0,-2
99338,4.4412e+07,0,0,0,0.22177,0,0.61165,0.62,NaN,0,0.45426,0,7
99742,4.4513e+07,0,0,0,0.22177,0,0.61736,0.84,NaN,0,0.42926,0,18
1.0015e+05,4.4614e+07,0,0,0,0.22177,0,0.64424,0.47,NaN,0,0.45613,0,23
1.0055e+05,4.4716e+07,0,0,0,0.22177,0,0.6627,0.56,NaN,0,0.44764,0,9
1.0092e+05,4.4817e+07,0,0,0,0.22177,0,0.66452,0.67,NaN,0,0.44946,0,-4
1.0133e+05,4.4918e+07,0,0,0,0.22177,0,0.65371,0.66,NaN,0,0.41631,0,-14
1.0173e+05,4.502e+07,0,0,0,0.22177,0,0.6446,0.55,NaN,0,0.4072,0,-5
1.0214e+05,4.5119e+07,0,0,0,0.22177,0,0.64754,0.57,NaN,0,0.37192,0,8
1.0255e+05,4.5219e+07,0,0,0,0.22177,0,0.65911,0.59,NaN,0,0.36521,0,14
1.0295e+05,4.5321e+07,0,0,0,0.22177,0,0.70779,0.6,NaN,0,0.39963,0,6
1.0336e+05,4.5423e+07,0,0,0,0.22177,0,0.73076,0.45,NaN,0,0.40759,0,-9
1.0374e+05,4.5524e+07,0,0,0,0.22177,0,0.73188,0.32,NaN,0,0.39572,0,-7
1.0415e+05,4.5624e+07,0,0,0,0.22177,0,0.72995,0.5,NaN,0,0.38139,0,0
1.0455e+05,4.5725e+07,0,0,0,0.22177,0,0.71086,0.43,NaN,0,0.35183,0,7
1.0496e+05,4.5825e+07,0,0,0,0.22177,0,0.69326,0.31,NaN,0,0.32468,0,4
1.0536e+05,4.5928e+07,0,0,0,0.22177,0,0.66158,0.29,NaN,0,0.28355,0,-8
1.0577e+05,4.603e+07,0,0,0,0.22177,0,0.61971,0.38,NaN,0,0.23063,0,-21
1.0615e+05,4.6132e+07,0,0,0,0.22177,0,0.57383,0.71,NaN,0,0.17563,0,-26
1.0656e+05,4.6234e+07,0,0,0,0.22177,0,0.53169,0.36,NaN,0,0.12354,0,-20
1.0693e+05,4.6335e+07,0,0,0,0.22177,0,0.49416,0.35,NaN,0,0.077652,0,-21
1.0734e+05,4.6436e+07,0,0,0,0.22177,0,0.45959,0.36,NaN,0,0.035648,0,-18
1.0774e+05,4.6537e+07,0,0,0,0.22177,0,0.43686,-0.02,NaN,0,0.0069097,0,-12
1.0815e+05,4.6638e+07,0,0,0,0.22177,0,0.41126,0.08,NaN,0,-0.024785,0,-12
1.0853e+05,4.6738e+07,0,0,0,0.22177,0,0.378,0.39,NaN,0,-0.062955,0,-13
1.0894e+05,4.6839e+07,0,0,0,0.22177,0,0.35067,0.11,NaN,0,-0.093422,0,-3
1.0931e+05,4.694e+07,0,0,0,0.22177,0,0.32261,0.25,NaN,0,-0.12489,0,-2
1.0972e+05,4.7041e+07,0,0,0,0.22177,0,0.29615,0.09,NaN,0,-0.1544,0,-13
1.1013e+05,4.7141e+07,0,0,0,0.22177,0,0.26097,0.25,NaN,0,-0.19364,0,-20
1.1053e+05,4.7242e+07,0,0,0,0.22177,0,0.23245,-0.01,NaN,0,-0.22335,0,-12
1.1091e+05,4.7344e+07,0,0,0,0.22177,0,0.2152,-0.02,NaN,0,-0.24373,0,-7
1.1131e+05,4.7444e+07,0,0,0,0.22177,0,0.20676,-0.01,NaN,0,-0.25522,0,-2
1.1172e+05,4.7545e+07,0,0,0,0.22177,0,0.19619,0.42,NaN,0,-0.26903,0,-8
1.1213e+05,4.7648e+07,0,0,0,0.22177,0,0.19394,-0.09,NaN,0,-0.27486,0,3
1.1254e+05,4.7751e+07,0,0,0,0.22177,0,0.19249,0.1,NaN,0,-0.27979,0,-1
1.1294e+05,4.7852e+07,0,0,0,0.22177,0,0.18552,-0.1,NaN,0,-0.28796,0,-9
1.1335e+05,4.7953e+07,0,0,0,0.22177,0,0.18168,-0.2,NaN,0,-0.29494,0,1
1.1375e+05,4.8056e+07,0,0,0,0.22177,0,0.17155,0.13,NaN,0,-0.3059,0,-7
1.1416e+05,4.8156e+07,0,0,0,0.22177,0,0.17007,0.05,NaN,0,-0.31,0,-1
1.1456e+05,4.8258e+07,0,0,0,0.22177,0,0.16745,0.48,NaN,0,-0.31533,0,0
1.1497e+05,4.836e+07,0,0,0,0.22177,0,0.16563,0.37,NaN,0,-0.32011,0,-3
1.1534e+05,4.8461e+07,0,0,0,0.22177,0,0.16638,0.14,NaN,0,-0.32055,0,-3
1.1575e+05,4.8564e+07,0,0,0,0.22177,0,0.16861,0.27,NaN,0,-0.3201,0,-6
1.1583e+05,1.0782e+08,0,0,0,0.22177,0,0.39395,0.36,NaN,0,0.0039451,0,0
1.1628e+05,1.0792e+08,0,0,0,0.22177,0,0.39415,0.43,NaN,0,0.0041487,0,0
1.1673e+05,1.0803e+08,0,0,0,0.22177,0,0.39448,0.44,NaN,0,0.0042979,0,0
1.1718e+05,1.0813e+08,0,0,0,0.22177,0,0.39798,0.43,NaN,0,0.0077947,0,0
1.1763e+05,1.0823e+08,0,0,0,0.22177,0,0.40126,0.35,NaN,0,0.011074,0,1
1.1804e+05,1.0833e+08,0,0,0,0.22177,0,0.40439,0.05,NaN,0,0.013934,0,1
1.1849e+05,1.0843e+08,0,0,0,0.22177,0,0.40617,0.44,NaN,0,0.015715,0,1
1.1891e+05,1.0854e+08,0,0,0,0.22177,0,0.40712,0.51,NaN,0,0.016662,0,1
1.1936e+05,1.0864e+08,0,0,0,0.22177,0,0.40842,0.31,NaN,0,0.017799,0,1
1.1981e+05,1.0874e+08,0,0,0,0.22177,0,0.40837,0.4,NaN,0,0.017748,0,1
1.2023e+05,1.0884e+08,0,0,0,0.22177,0,0.40863,0.26,NaN,0,0.017818,0,1
1.2065e+05,1.0895e+08,0,0,0,0.22177,0,0.41007,0.46,NaN,0,0.019265,0,1
1.211e+05,1.0905e+08,0,0,0,0.22177,0,0.41184,0.36,NaN,0,0.02178,0,1
1.2155e+05,1.0915e+08,0,0,0,0.22177,0,0.41474,0.54,NaN,0,0.024677,0,1
1.22e+05,1.0925e+08,0,0,0,0.22177,0,0.4188,0.53,NaN,0,0.028481,0,1
1.2245e+05,1.0936e+08,0,0,0,0.22177,0,0.42509,0.06,NaN,0,0.034769,0,1
1.229e+05,1.0946e+08,0,0,0,0.22177,0,0.42975,0.44,NaN,0,0.039428,0,2
1.2335e+05,1.0956e+08,0,0,0,0.22177,0,0.43315,0.51,NaN,0,0.042643,0,2
1.238e+05,1.0966e+08,0,0,0,0.22177,0,0.43792,0.43,NaN,0,0.047415,0,2
1.2425e+05,1.0976e+08,0,0,0,0.22177,0,0.44561,0.22,NaN,0,0.055111,0,2
1.247e+05,1.0987e+08,0,0,0,0.22177,0,0.45192,0.36,NaN,0,0.061246,0,2
1.2515e+05,1.0997e+08,0,0,0,0.22177,0,0.45781,0.18,NaN,0,0.067136,0,3
1.2557e+05,1.1007e+08,0,0,0,0.22177,0,0.46177,0.26,NaN,0,0.071101,0,3
1.2603e+05,1.1017e+08,0,0,0,0.22177,0,0.46399,0.46,NaN,0,0.073133,0,3
1.2648e+05,1.1027e+08,0,0,0,0.22177,0,0.46643,0.47,NaN,0,0.075571,0,3
1.2693e+05,1.1038e+08,0,0,0,0.22177,0,0.47055,0.33,NaN,0,0.079883,0,3
1.2738e+05,1.1048e+08,0,0,0,0.22177,0,0.47409,0.3,NaN,0,0.083422,0,3
1.2784e+05,1.1058e+08,0,0,0,0.22177,0,0.47702,0.66,NaN,0,0.086165,0,3
1.2858e+05,1.1078e+08,0,0,0,0.22177,0,0.48035,0.47,NaN,0,0.089491,0,3
1.2903e+05,1.1089e+08,0,0,0,0.22177,0,0.48151,0.57,NaN,0,0.090473,0,2
1.2948e+05,1.1099e+08,0,0,0,0.22177,0,0.48392,0.48,NaN,0,0.092884,0,2
1.2994e+05,1.1109e+08,0,0,0,0.22177,0,0.4872,0.73,NaN,0,0.096161,0,3
1.3036e+05,1.112e+08,0,0,0,0.22177,0,0.4914,0.59,NaN,0,0.10011,0,3
1.308e+05,1.113e+08,0,0,0,0.22177,0,0.49697,0.61,NaN,0,0.10567,0,3
1.3126e+05,1.114e+08,0,0,0,0.22177,0,0.50357,0.59,NaN,0,0.11218,0,2
1.3171e+05,1.1151e+08,0,0,0,0.22177,0,0.51007,0.3,NaN,0,0.11868,0,3
1.3216e+05,1.1161e+08,0,0,0,0.22177,0,0.51575,0.44,NaN,0,0.12437,0,3
1.3261e+05,1.1171e+08,0,0,0,0.22177,0,0.52014,0.46,NaN,0,0.12857,0,3
1.3306e+05,1.1181e+08,0,0,0,0.22177,0,0.52377,0.49,NaN,0,0.1322,0,2
1.3351e+05,1.1192e+08,0,0,0,0.22177,0,0.52706,0.46,NaN,0,0.13532,0,3
1.3396e+05,1.1202e+08,0,0,0,0.22177,0,0.52985,0.47,NaN,0,0.13811,0,2
1.3438e+05,1.1212e+08,0,0,0,0.22177,0,0.53138,0.4,NaN,0,0.13965,0,3
1.3484e+05,1.1223e+08,0,0,0,0.22177,0,0.53252,0.53,NaN,0,0.14078,0,4
1.3525e+05,1.1233e+08,0,0,0,0.22177,0,0.53608,0.63,NaN,0,0.14434,0,3
1.357e+05,1.1243e+08,0,0,0,0.22177,0,0.54025,0.41,NaN,0,0.14851,0,2
1.3616e+05,1.1253e+08,0,0,0,0.22177,0,0.54536,0.5,NaN,0,0.15363,0,3
1.3661e+05,1.1263e+08,0,0,0,0.22177,0,0.54985,0.69,NaN,0,0.15811,0,3
1.3706e+05,1.1274e+08,0,0,0,0.22177,0,0.55279,0.26,NaN,0,0.16105,0,3
1.3751e+05,1.1284e+08,0,0,0,0.22177,0,0.55508,0.46,NaN,0,0.16307,0,4
1.3796e+05,1.1294e+08,0,0,0,0.22177,0,0.55662,0.2,NaN,0,0.16461,0,3
1.3841e+05,1.1304e+08,0,0,0,0.22177,0,0.55788,0.72,NaN,0,0.16587,0,3
1.3883e+05,1.1314e+08,0,0,0,0.22177,0,0.55771,0.53,NaN,0,0.16569,0,3
1.3925e+05,1.1325e+08,0,0,0,0.22177,0,0.55761,0.43,NaN,0,0.16541,0,4
1.3966e+05,1.1335e+08,0,0,0,0.22177,0,0.55437,0.8,NaN,0,0.16218,0,3
1.4007e+05,1.1345e+08,0,0,0,0.22177,0,0.55548,0.74,NaN,0,0.16328,0,3
1.4048e+05,1.1355e+08,0,0,0,0.22177,0,0.5602,0.71,NaN,0,0.16783,0,3
1.4089e+05,1.1366e+08,0,0,0,0.22177,0,0.56654,0.35,NaN,0,0.17418,0,3
1.413e+05,1.1376e+08,0,0,0,0.22177,0,0.56749,0.48,NaN,0,0.17513,0,3
1.4168e+05,1.1386e+08,0,0,0,0.22177,0,0.56588,0.5,NaN,0,0.17351,0,2
1.421e+05,1.1396e+08,0,0,0,0.22177,0,0.56172,0.51,NaN,0,0.16926,0,2
1.4251e+05,1.1406e+08,0,0,0,0.22177,0,0.55746,0.46,NaN,0,0.165,0,2
1.4292e+05,1.1417e+08,0,0,0,0.22177,0,0.55075,0.34,NaN,0,0.15803,0,2
1.433e+05,1.1427e+08,0,0,0,0.22177,0,0.54423,0.36,NaN,0,0.15151,0,1
1.4372e+05,1.1437e+08,0,0,0,0.22177,0,0.53631,0.55,NaN,0,0.14341,0,1
1.4412e+05,1.1447e+08,0,0,0,0.22177,0,0.53074,0.48,NaN,0,0.13868,0,1
1.4454e+05,1.1457e+08,0,0,0,0.22177,0,0.52612,0.36,NaN,0,0.13406,0,1
1.4492e+05,1.1467e+08,0,0,0,0.22177,0,0.52219,0.41,NaN,0,0.12996,0,1
1.4533e+05,1.1477e+08,0,0,0,0.22177,0,0.51865,0.35,NaN,0,0.12642,0,1
1.4571e+05,1.1488e+08,0,0,0,0.22177,0,0.51366,0.35,NaN,0,0.12143,0,1
1.4612e+05,1.1498e+08,0,0,0,0.22177,0,0.50824,0.37,NaN,0,0.11601,0,1
1.4654e+05,1.1508e+08,0,0,0,0.22177,0,0.50322,0.61,NaN,0,0.11267,0,0
1.4695e+05,1.1519e+08,0,0,0,0.22177,0,0.50004,0.25,NaN,0,0.10949,0,0
1.4736e+05,1.1529e+08,0,0,0,0.22177,0,0.49545,0.4,NaN,0,0.10472,0,0
1.4774e+05,1.1539e+08,0,0,0,0.22177,0,0.49053,0.33,NaN,0,0.099802,0,0
1.4815e+05,1.1549e+08,0,0,0,0.22177,0,0.48554,0.22,NaN,0,0.095661,0,0
1.4857e+05,1.156e+08,0,0,0,0.22177,0,0.47853,0.41,NaN,0,0.088656,0,0
1.4898e+05,1.157e+08,0,0,0,0.22177,0,0.47299,0.4,NaN,0,0.083115,0,0
1.4939e+05,1.158e+08,0,0,0,0.22177,0,0.46859,0.5,NaN,0,0.078716,0,0
1.498e+05,1.1591e+08,0,0,0,0.22177,0,0.4667,0.44,NaN,0,0.078337,0,0
1.5022e+05,1.1601e+08,0,0,0,0.22177,0,0.46634,-0.02,NaN,0,0.078813,0,0
1.5063e+05,1.1611e+08,0,0,0,0.22177,0,0.46232,0.17,NaN,0,0.074793,0,0
1.5104e+05,1.1622e+08,0,0,0,0.22177,0,0.45658,0.51,NaN,0,0.069053,0,0
1.5145e+05,1.1632e+08,0,0,0,0.22177,0,0.45272,0.16,NaN,0,0.066888,0,0
1.5186e+05,1.1642e+08,0,0,0,0.22177,0,0.44808,0.24,NaN,0,0.062247,0,0
1.5225e+05,1.1653e+08,0,0,0,0.22177,0,0.44184,0.51,NaN,0,0.055826,0,0
1.5266e+05,1.1663e+08,0,0,0,0.22177,0,0.43813,0.49,NaN,0,0.05295,0,0
1.5307e+05,1.1673e+08,0,0,0,0.22177,0,0.43704,0.46,NaN,0,0.052697,0,0
1.5348e+05,1.1683e+08,0,0,0,0.22177,0,0.43657,0.35,NaN,0,0.052062,0,0
1.5386e+05,1.1694e+08,0,0,0,0.22177,0,0.43672,0.46,NaN,0,0.053895,0,0
1.5428e+05,1.1704e+08,0,0,0,0.22177,0,0.43671,0.49,NaN,0,0.054741,0,0
1.5469e+05,1.1714e+08,0,0,0,0.22177,0,0.43783,0.29,NaN,0,0.055851,0,0
1.551e+05,1.1724e+08,0,0,0,0.22177,0,0.43748,0.46,NaN,0,0.055328,0,0
1.5551e+05,1.1735e+08,0,0,0,0.22177,0,0.43631,0.44,NaN,0,0.056019,0,0
1.5592e+05,1.1745e+08,0,0,0,0.22177,0,0.43579,0.32,NaN,0,0.055497,0,0
1.5633e+05,1.1755e+08,0,0,0,0.22177,0,0.43602,0.16,NaN,0,0.055727,0,0
1.5672e+05,1.1766e+08,0,0,0,0.22177,0,0.43393,0.5,NaN,0,0.054306,0,0
1.5713e+05,1.1776e+08,0,0,0,0.22177,0,0.43322,0.85,NaN,0,0.053592,0,0
1.5754e+05,1.1786e+08,0,0,0,0.22177,0,0.43659,0.25,NaN,0,0.058663,0,0
1.5796e+05,1.1796e+08,0,0,0,0.22177,0,0.43982,0.15,NaN,0,0.06189,0,0
1.5834e+05,1.1807e+08,0,0,0,0.22177,0,0.44,0.43,NaN,0,0.062913,0,0
1.5875e+05,1.1817e+08,0,0,0,0.22177,0,0.44036,0.14,NaN,0,0.064126,0,0
1.5916e+05,1.1827e+08,0,0,0,0.22177,0,0.43907,0.26,NaN,0,0.062832,0,0
1.5957e+05,1.1837e+08,0,0,0,0.22177,0,0.43648,0.27,NaN,0,0.061925,0,0
1.5998e+05,1.1848e+08,0,0,0,0.22177,0,0.43337,0.14,NaN,0,0.058809,0,0
1.604e+05,1.1858e+08,0,0,0,0.22177,0,0.42885,0.38,NaN,0,0.055132,0,0
1.6081e+05,1.1868e+08,0,0,0,0.22177,0,0.42517,0.38,NaN,0,0.051454,0,0
1.6122e+05,1.1879e+08,0,0,0,0.22177,0,0.42245,0.54,NaN,0,0.050257,0,0
1.6163e+05,1.1889e+08,0,0,0,0.22177,0,0.42156,0.42,NaN,0,0.04937,0,0
1.6202e+05,1.1899e+08,0,0,0,0.22177,0,0.42161,0.32,NaN,0,0.050254,0,0
1.6242e+05,1.1909e+08,0,0,0,0.22177,0,0.42104,0.48,NaN,0,0.049686,0,0
1.6284e+05,1.1919e+08,0,0,0,0.22177,0,0.42101,0.14,NaN,0,0.049653,0,0
1.6324e+05,1.193e+08,0,0,0,0.22177,0,0.4186,0.37,NaN,0,0.04725,0,0
1.6366e+05,1.194e+08,0,0,0,0.22177,0,0.41583,0.44,NaN,0,0.046157,0,0
1.6406e+05,1.195e+08,0,0,0,0.22177,0,0.41399,0.17,NaN,0,0.042638,0,0
1.6448e+05,1.1961e+08,0,0,0,0.22177,0,0.41105,0.33,NaN,0,0.039701,0,0
1.6489e+05,1.1971e+08,0,0,0,0.22177,0,0.40943,0.41,NaN,0,0.037888,0,0
1.6527e+05,1.1981e+08,0,0,0,0.22177,0,0.40845,0.2,NaN,0,0.036911,0,0
1.6568e+05,1.1991e+08,0,0,0,0.22177,0,0.40742,0.18,NaN,0,0.037573,0,0
1.6607e+05,1.2001e+08,0,0,0,0.22177,0,0.40494,0.69,NaN,0,0.035262,0,0
1.6648e+05,1.2012e+08,0,0,0,0.22177,0,0.40568,0.35,NaN,0,0.036003,0,0
1.6686e+05,1.2022e+08,0,0,0,0.22177,0,0.40719,0.2,NaN,0,0.037511,0,0
1.6728e+05,1.2032e+08,0,0,0,0.22177,0,0.40803,0.33,NaN,0,0.038356,0,0
1.6769e+05,1.2042e+08,0,0,0,0.22177,0,0.40801,0.45,NaN,0,0.038338,0,0
1.6808e+05,1.2052e+08,0,0,0,0.22177,0,0.40835,0.28,NaN,0,0.038674,0,0
1.6849e+05,1.2063e+08,0,0,0,0.22177,0,0.40783,0.51,NaN,0,0.03815,0,0
1.689e+05,1.2073e+08,0,0,0,0.22177,0,0.40917,0.52,NaN,0,0.039497,0,0
1.6931e+05,1.2083e+08,0,0,0,0.22177,0,0.41183,0.4,NaN,0,0.042154,0,0
1.6972e+05,1.2093e+08,0,0,0,0.22177,0,0.41283,0.27,NaN,0,0.043158,0,0
1.7014e+05,1.2103e+08,0,0,0,0.22177,0,0.41253,0.51,NaN,0,0.04285,0,0
1.7054e+05,1.2114e+08,0,0,0,0.22177,0,0.41263,0.41,NaN,0,0.043134,0,0
1.7093e+05,1.2124e+08,0,0,0,0.22177,0,0.41291,0.22,NaN,0,0.04342,0,0
1.7134e+05,1.2134e+08,0,0,0,0.22177,0,0.41334,0.76,NaN,0,0.04385,0,0
1.7175e+05,1.2144e+08,0,0,0,0.22177,0,0.41566,0.45,NaN,0,0.046167,0,0
1.7216e+05,1.2154e+08,0,0,0,0.22177,0,0.41954,0.93,NaN,0,0.050045,0,0
1.7257e+05,1.2164e+08,0,0,0,0.22177,0,0.42701,0.46,NaN,0,0.057516,0,0
1.7295e+05,1.2175e+08,0,0,0,0.22177,0,0.433,0.43,NaN,0,0.063506,0,0
1.7336e+05,1.2185e+08,0,0,0,0.22177,0,0.43764,0.65,NaN,0,0.068316,0,0
1.7378e+05,1.2195e+08,0,0,0,0.22177,0,0.44334,0.43,NaN,0,0.074019,0,0
1.7418e+05,1.2205e+08,0,0,0,0.22177,0,0.44831,0.1,NaN,0,0.078981,0,1
1.746e+05,1.2215e+08,0,0,0,0.22177,0,0.44942,0.46,NaN,0,0.080091,0,1
1.75e+05,1.2226e+08,0,0,0,0.22177,0,0.44944,0.39,NaN,0,0.080114,0,1
1.7542e+05,1.2236e+08,0,0,0,0.22177,0,0.44934,0.29,NaN,0,0.080011,0,1
1.758e+05,1.2246e+08,0,0,0,0.22177,0,0.44801,0.27,NaN,0,0.078683,0,0
1.7622e+05,1.2256e+08,0,0,0,0.22177,0,0.44565,0.22,NaN,0,0.076322,0,0
1.7662e+05,1.2266e+08,0,0,0,0.22177,0,0.44217,0.4,NaN,0,0.073697,0,0
1.7704e+05,1.2277e+08,0,0,0,0.22177,0,0.43787,0.13,NaN,0,0.069402,0,0
1.7745e+05,1.2287e+08,0,0,0,0.22177,0,0.43387,0.25,NaN,0,0.065403,0,0
1.7786e+05,1.2297e+08,0,0,0,0.22177,0,0.43037,0.55,NaN,0,0.061903,0,0
1.7827e+05,1.2307e+08,0,0,0,0.22177,0,0.42864,0.2,NaN,0,0.061008,0,0
1.7869e+05,1.2317e+08,0,0,0,0.22177,0,0.42664,0.55,NaN,0,0.059008,0,0
1.7907e+05,1.2327e+08,0,0,0,0.22177,0,0.42541,0.36,NaN,0,0.057784,0,0
1.7948e+05,1.2338e+08,0,0,0,0.22177,0,0.42491,0.38,NaN,0,0.057284,0,0
1.7989e+05,1.2348e+08,0,0,0,0.22177,0,0.42474,0.47,NaN,0,0.058789,0,0
1.803e+05,1.2358e+08,0,0,0,0.22177,0,0.42562,0.34,NaN,0,0.059666,0,0
1.8071e+05,1.2368e+08,0,0,0,0.22177,0,0.42623,0.63,NaN,0,0.061136,0,0
1.8112e+05,1.2379e+08,0,0,0,0.22177,0,0.42861,0.02,NaN,0,0.063512,0,0
1.8153e+05,1.2389e+08,0,0,0,0.22177,0,0.42861,0.52,NaN,0,0.065188,0,0
1.8195e+05,1.2399e+08,0,0,0,0.22177,0,0.42882,0.19,NaN,0,0.065235,0,0
1.8236e+05,1.2409e+08,0,0,0,0.22177,0,0.42795,0.59,NaN,0,0.065202,0,0
1.8277e+05,1.242e+08,0,0,0,0.22177,0,0.42852,0.75,NaN,0,0.06577,0,0
1.8318e+05,1.243e+08,0,0,0,0.22177,0,0.43247,0.14,NaN,0,0.07132,0,0
1.836e+05,1.244e+08,0,0,0,0.22177,0,0.43519,0.31,NaN,0,0.074045,0,0
1.8401e+05,1.2451e+08,0,0,0,0.22177,0,0.43473,0.52,NaN,0,0.073582,0,0
1.8442e+05,1.2461e+08,0,0,0,0.22177,0,0.43454,0.22,NaN,0,0.073396,0,0
1.848e+05,1.2471e+08,0,0,0,0.22177,0,0.43318,0.2,NaN,0,0.072876,0,0
1.8521e+05,1.2481e+08,0,0,0,0.22177,0,0.43014,0.45,NaN,0,0.069836,0,0
1.8563e+05,1.2492e+08,0,0,0,0.22177,0,0.42683,0.38,NaN,0,0.067196,0,0
1.8604e+05,1.2502e+08,0,0,0,0.22177,0,0.42461,0.38,NaN,0,0.064974,0,0
1.8645e+05,1.2512e+08,0,0,0,0.22177,0,0.42437,0.37,NaN,0,0.066433,0,0
1.8686e+05,1.2522e+08,0,0,0,0.22177,0,0.42435,0.36,NaN,0,0.066412,0,0
1.8724e+05,1.2532e+08,0,0,0,0.22177,0,0.42409,0.25,NaN,0,0.066991,0,0
1.8766e+05,1.2543e+08,0,0,0,0.22177,0,0.42276,0.06,NaN,0,0.067355,0,0
1.8807e+05,1.2553e+08,0,0,0,0.22177,0,0.41775,0.36,NaN,0,0.062345,0,0
1.8848e+05,1.2563e+08,0,0,0,0.22177,0,0.41329,0.59,NaN,0,0.057881,0,0
1.8886e+05,1.2573e+08,0,0,0,0.22177,0,0.41106,0.29,NaN,0,0.056495,0,0
1.8928e+05,1.2583e+08,0,0,0,0.22177,0,0.40941,0.35,NaN,0,0.054839,0,0
1.8969e+05,1.2594e+08,0,0,0,0.22177,0,0.40905,0.43,NaN,0,0.055319,0,0
1.901e+05,1.2604e+08,0,0,0,0.22177,0,0.40918,-0.1,NaN,0,0.05545,0,0
1.9051e+05,1.2614e+08,0,0,0,0.22177,0,0.40422,0.05,NaN,0,0.052,0,0
1.9093e+05,1.2625e+08,0,0,0,0.22177,0,0.39651,-0.01,NaN,0,0.044291,0,0
1.9134e+05,1.2635e+08,0,0,0,0.22177,0,0.38876,0.16,NaN,0,0.037395,0,0
1.9175e+05,1.2645e+08,0,0,0,0.22177,0,0.37952,0.12,NaN,0,0.027967,0,0
1.9216e+05,1.2655e+08,0,0,0,0.22177,0,0.37353,0.34,NaN,0,0.023658,0,0
1.9254e+05,1.2665e+08,0,0,0,0.22177,0,0.36792,0.18,NaN,0,0.018055,0,0
1.9295e+05,1.2676e+08,0,0,0,0.22177,0,0.36314,-0.15,NaN,0,0.01412,0,0
1.9368e+05,1.2696e+08,0,0,0,0.22177,0,0.34218,0.3,NaN,0,-0.005161,0,0
1.941e+05,1.2706e+08,0,0,0,0.22177,0,0.33237,0.4,NaN,0,-0.014112,0,0
1.9451e+05,1.2717e+08,0,0,0,0.22177,0,0.3271,0.03,NaN,0,-0.019381,0,-1
1.9489e+05,1.2727e+08,0,0,0,0.22177,0,0.32091,0.12,NaN,0,-0.024731,0,-1
1.953e+05,1.2737e+08,0,0,0,0.22177,0,0.31672,0.01,NaN,0,-0.02892,0,-1
1.9571e+05,1.2747e+08,0,0,0,0.22177,0,0.31154,0.02,NaN,0,-0.032683,0,-1
1.9613e+05,1.2757e+08,0,0,0,0.22177,0,0.3061,0.1,NaN,0,-0.038124,0,-1
1.9653e+05,1.2768e+08,0,0,0,0.22177,0,0.29993,0.31,NaN,0,-0.043454,0,0
1.9692e+05,1.2778e+08,0,0,0,0.22177,0,0.29622,0.12,NaN,0,-0.047162,0,0
1.9733e+05,1.2788e+08,0,0,0,0.22177,0,0.29288,0.15,NaN,0,-0.048807,0,0
1.9774e+05,1.2798e+08,0,0,0,0.22177,0,0.29077,-0.03,NaN,0,-0.050078,0,0
1.9815e+05,1.2809e+08,0,0,0,0.22177,0,0.28617,0.38,NaN,0,-0.053169,0,0
1.9841e+05,1.7388e+08,0,0,0,0.22177,0,-0.59303,-0.5,NaN,0,0.0069739,0,2
1.9882e+05,1.7398e+08,0,0,0,0.22177,0,-0.59336,-0.46,NaN,0,0.0066408,0,2
1.9924e+05,1.7408e+08,0,0,0,0.22177,0,-0.59208,-0.7,NaN,0,0.007923,0,2
1.997e+05,1.7418e+08,0,0,0,0.22177,0,-0.58957,-0.82,NaN,0,0.010274,0,2
2.0011e+05,1.7428e+08,0,0,0,0.22177,0,-0.5879,-0.46,NaN,0,0.011939,0,2
2.0056e+05,1.7438e+08,0,0,0,0.22177,0,-0.5863,-0.49,NaN,0,0.013378,0,2
2.0102e+05,1.7449e+08,0,0,0,0.22177,0,-0.58456,-0.51,NaN,0,0.015123,0,2
2.0147e+05,1.7459e+08,0,0,0,0.22177,0,-0.58248,-0.53,NaN,0,0.017195,0,2
2.0192e+05,1.7469e+08,0,0,0,0.22177,0,-0.58009,-0.7,NaN,0,0.019427,0,2
2.0237e+05,1.7479e+08,0,0,0,0.22177,0,-0.57788,-0.42,NaN,0,0.021482,0,2
2.0279e+05,1.749e+08,0,0,0,0.22177,0,-0.57577,-0.53,NaN,0,0.023584,0,2
2.0321e+05,1.75e+08,0,0,0,0.22177,0,-0.57356,-0.5,NaN,0,0.025634,0,2
2.0366e+05,1.751e+08,0,0,0,0.22177,0,-0.57178,-0.79,NaN,0,0.027423,0,2
2.0411e+05,1.752e+08,0,0,0,0.22177,0,-0.57058,-0.71,NaN,0,0.028468,0,2
2.0452e+05,1.753e+08,0,0,0,0.22177,0,-0.57059,-0.16,NaN,0,0.028454,0,2
2.0498e+05,1.754e+08,0,0,0,0.22177,0,-0.56959,-0.07,NaN,0,0.029459,0,2
2.0543e+05,1.7551e+08,0,0,0,0.22177,0,-0.56774,-0.37,NaN,0,0.031151,0,2
2.0588e+05,1.7561e+08,0,0,0,0.22177,0,-0.56533,-0.51,NaN,0,0.033554,0,2
2.063e+05,1.7571e+08,0,0,0,0.22177,0,-0.56413,-0.52,NaN,0,0.03476,0,2
2.0675e+05,1.7581e+08,0,0,0,0.22177,0,-0.56288,-0.43,NaN,0,0.035848,0,2
2.072e+05,1.7591e+08,0,0,0,0.22177,0,-0.56155,-0.43,NaN,0,0.036944,0,2
2.0765e+05,1.7602e+08,0,0,0,0.22177,0,-0.55966,-0.24,NaN,0,0.03883,0,2
2.081e+05,1.7612e+08,0,0,0,0.22177,0,-0.55802,-0.43,NaN,0,0.04031,0,2
2.0856e+05,1.7622e+08,0,0,0,0.22177,0,-0.55592,-0.5,NaN,0,0.042405,0,2
2.0897e+05,1.7632e+08,0,0,0,0.22177,0,-0.55402,-0.4,NaN,0,0.04431,0,2
2.0942e+05,1.7642e+08,0,0,0,0.22177,0,-0.55165,-0.28,NaN,0,0.04668,0,2
2.0972e+05,1.7652e+08,0,0,0,0.22177,0,-0.54885,-0.57,NaN,0,0.049401,0,3
2.1017e+05,1.7662e+08,0,0,0,0.22177,0,-0.54589,-0.25,NaN,0,0.051512,0,2
2.1062e+05,1.7673e+08,0,0,0,0.22177,0,-0.54262,-0.55,NaN,0,0.054788,0,2
2.1108e+05,1.7683e+08,0,0,0,0.22177,0,-0.53924,-0.22,NaN,0,0.05801,0,3
2.1152e+05,1.7693e+08,0,0,0,0.22177,0,-0.53521,-0.31,NaN,0,0.062036,0,3
2.1198e+05,1.7703e+08,0,0,0,0.22177,0,-0.53048,-0.01,NaN,0,0.066526,0,3
2.1243e+05,1.7713e+08,0,0,0,0.22177,0,-0.52429,-0.26,NaN,0,0.072723,0,3
2.1288e+05,1.7724e+08,0,0,0,0.22177,0,-0.5175,-0.41,NaN,0,0.077828,0,3
2.133e+05,1.7734e+08,0,0,0,0.22177,0,-0.51229,-0.48,NaN,0,0.082869,0,3
2.1375e+05,1.7744e+08,0,0,0,0.22177,0,-0.50739,-0.45,NaN,0,0.087772,0,4
2.1417e+05,1.7754e+08,0,0,0,0.22177,0,-0.50425,-0.38,NaN,0,0.090916,0,3
2.1462e+05,1.7764e+08,0,0,0,0.22177,0,-0.50084,-0.19,NaN,0,0.093491,0,3
2.1507e+05,1.7774e+08,0,0,0,0.22177,0,-0.49912,-0.63,NaN,0,0.095211,0,3
2.1549e+05,1.7784e+08,0,0,0,0.22177,0,-0.49686,-0.63,NaN,0,0.097307,0,3
2.1595e+05,1.7795e+08,0,0,0,0.22177,0,-0.49405,-0.98,NaN,0,0.10012,0,4
2.164e+05,1.7805e+08,0,0,0,0.22177,0,-0.49247,-0.8,NaN,0,0.1017,0,2
2.1685e+05,1.7815e+08,0,0,0,0.22177,0,-0.49193,-0.72,NaN,0,0.10208,0,3
2.1731e+05,1.7826e+08,0,0,0,0.22177,-0.4913,-0.4913,-1.03,NaN,0,0.10102,4,4
2.1776e+05,1.7836e+08,0,0,0,0.22177,-0.49409,-0.49409,-0.9,NaN,0,0.098082,3,3
2.1821e+05,1.7846e+08,0,0,0,0.22177,-0.49604,-0.49604,-1.09,NaN,0,0.096133,3,3
2.1866e+05,1.7857e+08,0,0,0,0.22177,-0.49773,-0.49773,-0.84,NaN,0,0.094281,2,2
2.1911e+05,1.7867e+08,0,0,0,0.22177,-0.50024,-0.50024,-0.92,NaN,0,0.091768,3,3
2.1956e+05,1.7877e+08,0,0,0,0.22177,-0.50304,-0.50304,-0.57,NaN,0,0.088814,4,4
2.2001e+05,1.7887e+08,0,0,0,0.22177,-0.50522,-0.50522,-0.26,NaN,0,0.086627,4,4
2.2043e+05,1.7898e+08,0,0,0,0.22177,-0.50477,-0.50477,-0.81,NaN,0,0.086925,4,4
2.2088e+05,1.7908e+08,0,0,0,0.22177,-0.5042,-0.5042,-1.02,NaN,0,0.087489,3,3
2.2133e+05,1.7918e+08,0,0,0,0.22177,-0.50477,-0.50477,-0.74,NaN,0,0.086922,2,2
2.2178e+05,1.7928e+08,0,0,0,0.22177,-0.50622,-0.50622,-0.72,NaN,0,0.085319,3,3
2.2223e+05,1.7938e+08,0,0,0,0.22177,-0.5072,-0.5072,-0.74,NaN,0,0.084339,3,3
2.2264e+05,1.7949e+08,0,0,0,0.22177,-0.50779,-0.50779,-0.51,NaN,0,0.083593,4,4
2.2309e+05,1.7959e+08,0,0,0,0.22177,-0.50886,-0.50886,-0.53,NaN,0,0.082523,3,3
2.2354e+05,1.7969e+08,0,0,0,0.22177,-0.50846,-0.50846,-0.53,NaN,0,0.082678,3,3
2.2399e+05,1.7979e+08,0,0,0,0.22177,-0.50728,-0.50728,-0.49,NaN,0,0.083859,3,3
2.2441e+05,1.799e+08,0,0,0,0.22177,-0.50554,-0.50554,-0.43,NaN,0,0.084602,3,3
2.2486e+05,1.8e+08,0,0,0,0.22177,-0.50283,-0.50283,-0.53,NaN,0,0.087239,3,3
2.2531e+05,1.801e+08,0,0,0,0.22177,-0.50149,-0.50149,-0.59,NaN,0,0.088574,3,3
2.2576e+05,1.802e+08,0,0,0,0.22177,-0.50044,-0.50044,-0.59,NaN,0,0.089469,4,4
2.2618e+05,1.8031e+08,0,0,0,0.22177,-0.49881,-0.49881,-0.65,NaN,0,0.090246,4,4
2.2663e+05,1.8041e+08,0,0,0,0.22177,-0.49666,-0.49666,-0.72,NaN,0,0.092398,4,4
2.2705e+05,1.8051e+08,0,0,0,0.22177,-0.49509,-0.49509,-0.19,NaN,0,0.09373,3,3
2.275e+05,1.8061e+08,0,0,0,0.22177,-0.49235,-0.49235,-0.38,NaN,0,0.096469,3,3
2.2795e+05,1.8071e+08,0,0,0,0.22177,-0.48976,-0.48976,-0.44,NaN,0,0.098901,3,3
2.2841e+05,1.8082e+08,0,0,0,0.22177,-0.48677,-0.48677,-0.55,NaN,0,0.10189,4,4
2.2883e+05,1.8092e+08,0,0,0,0.22177,-0.48474,-0.48474,-0.47,NaN,0,0.10377,3,3
2.2928e+05,1.8103e+08,0,0,0,0.22177,-0.48259,-0.48259,-0.38,NaN,0,0.10592,2,2
2.2973e+05,1.8113e+08,0,0,0,0.22177,-0.47944,-0.47944,-0.58,NaN,0,0.10907,3,3
2.3015e+05,1.8123e+08,0,0,0,0.22177,-0.47621,-0.47621,-0.01,NaN,0,0.11046,4,4
2.306e+05,1.8134e+08,0,0,0,0.22177,-0.47469,-0.47469,-0.44,NaN,0,0.11197,3,3
2.3105e+05,1.8144e+08,0,0,0,0.22177,-0.47191,-0.47191,-0.58,NaN,0,0.11475,3,3
2.315e+05,1.8155e+08,0,0,0,0.22177,-0.47008,-0.47008,-0.45,NaN,0,0.11658,4,4
2.3192e+05,1.8165e+08,0,0,0,0.22177,-0.46829,-0.46829,-0.78,NaN,0,0.11821,3,3
2.3237e+05,1.8175e+08,0,0,0,0.22177,-0.46907,-0.46907,-0.55,NaN,0,0.11659,3,3
2.3282e+05,1.8186e+08,0,0,0,0.22177,-0.46942,-0.46942,-0.58,NaN,0,0.11625,3,3
2.3324e+05,1.8196e+08,0,0,0,0.22177,-0.4699,-0.4699,-0.45,NaN,0,0.11408,3,3
2.337e+05,1.8206e+08,0,0,0,0.22177,-0.46909,-0.46909,-0.53,NaN,0,0.1149,2,2
2.3415e+05,1.8217e+08,0,0,0,0.22177,-0.46912,-0.46912,-0.58,NaN,0,0.11403,3,3
2.346e+05,1.8227e+08,0,0,0,0.22177,-0.46867,-0.46867,-0.43,NaN,0,0.11448,3,3
2.3505e+05,1.8237e+08,0,0,0,0.22177,-0.46878,-0.46878,-0.37,NaN,0,0.11421,3,3
2.355e+05,1.8248e+08,0,0,0,0.22177,-0.46881,-0.46881,-0.54,NaN,0,0.11417,1,1
2.3595e+05,1.8258e+08,0,0,0,0.22177,-0.46967,-0.46967,-0.4,NaN,0,0.11164,2,2
2.364e+05,1.8268e+08,0,0,0,0.22177,-0.46902,-0.46902,-0.55,NaN,0,0.11228,3,3
2.3685e+05,1.8279e+08,0,0,0,0.22177,-0.46808,-0.46808,-0.39,NaN,0,0.11323,2,2
2.373e+05,1.8289e+08,0,0,0,0.22177,-0.46721,-0.46721,-0.58,NaN,0,0.1141,1,1
2.3775e+05,1.8299e+08,0,0,0,0.22177,-0.46634,-0.46634,-1.06,NaN,0,0.11412,2,2
2.3817e+05,1.831e+08,0,0,0,0.22177,-0.4669,-0.4669,-0.7,NaN,0,0.11356,3,3
2.3862e+05,1.832e+08,0,0,0,0.22177,-0.46728,-0.46728,-0.58,NaN,0,0.11318,2,2
2.3907e+05,1.8331e+08,0,0,0,0.22177,-0.46622,-0.46622,-0.42,NaN,0,0.11424,2,2
2.3952e+05,1.8341e+08,0,0,0,0.22177,-0.46356,-0.46356,-0.44,NaN,0,0.11606,3,3
2.3997e+05,1.8351e+08,0,0,0,0.22177,-0.46313,-0.46313,-0.58,NaN,0,0.11633,2,2
2.4042e+05,1.8362e+08,0,0,0,0.22177,-0.46329,-0.46329,-0.83,NaN,0,0.11617,2,2
2.4087e+05,1.8372e+08,0,0,0,0.22177,-0.46487,-0.46487,-0.67,NaN,0,0.11459,3,3
2.4133e+05,1.8382e+08,0,0,0,0.22177,-0.46644,-0.46644,-0.68,NaN,0,0.11302,2,2
2.4175e+05,1.8393e+08,0,0,0,0.22177,-0.4692,-0.4692,-0.92,NaN,0,0.10858,3,3
2.422e+05,1.8403e+08,0,0,0,0.22177,-0.47852,-0.47852,-0.84,NaN,0,0.099257,3,3
2.4265e+05,1.8414e+08,0,0,0,0.22177,-0.49215,-0.49215,-0.67,NaN,0,0.084796,2,2
2.431e+05,1.8424e+08,0,0,0,0.22177,-0.5045,-0.5045,-0.62,NaN,0,0.072445,2,2
2.4355e+05,1.8435e+08,0,0,0,0.22177,-0.5138,-0.5138,-0.58,NaN,0,0.06314,2,2
2.4397e+05,1.8446e+08,0,0,0,0.22177,-0.52061,-0.52061,-0.63,NaN,0,0.054645,2,2
2.4442e+05,1.8456e+08,0,0,0,0.22177,-0.52721,-0.52721,-0.49,NaN,0,0.048044,2,2
2.4487e+05,1.8467e+08,0,0,0,0.22177,-0.52982,-0.52982,-0.79,NaN,0,0.0446,2,2
2.4532e+05,1.8477e+08,0,0,0,0.22177,-0.53427,-0.53427,-0.54,NaN,0,0.040153,2,2
2.4577e+05,1.8488e+08,0,0,0,0.22177,-0.53734,-0.53734,-0.43,NaN,0,0.037078,2,2
2.4622e+05,1.8499e+08,0,0,0,0.22177,-0.53758,-0.53758,-0.54,NaN,0,0.035159,2,2
2.4668e+05,1.8509e+08,0,0,0,0.22177,-0.53642,-0.53642,-0.5,NaN,0,0.036318,2,2
2.4713e+05,1.852e+08,0,0,0,0.22177,-0.53417,-0.53417,-0.81,NaN,0,0.03857,2,2
2.4755e+05,1.853e+08,0,0,0,0.22177,-0.53452,-0.53452,-0.59,NaN,0,0.037379,2,2
2.48e+05,1.854e+08,0,0,0,0.22177,-0.535,-0.535,-0.43,NaN,0,0.036899,3,3
2.4842e+05,1.8551e+08,0,0,0,0.22177,-0.53498,-0.53498,-0.71,NaN,0,0.036925,3,3
2.4887e+05,1.8562e+08,0,0,0,0.22177,-0.53546,-0.53546,-0.8,NaN,0,0.036442,3,3
2.4932e+05,1.8572e+08,0,0,0,0.22177,-0.53837,-0.53837,-0.81,NaN,0,0.032683,3,3
2.4974e+05,1.8583e+08,0,0,0,0.22177,-0.54283,-0.54283,-1.02,NaN,0,0.028389,3,3
2.5019e+05,1.8593e+08,0,0,0,0.22177,-0.55051,-0.55051,-1.2,NaN,0,0.020704,3,3
2.5064e+05,1.8603e+08,0,0,0,0.22177,-0.56169,-0.56169,-0.94,NaN,0,0.0095213,2,2
2.5109e+05,1.8614e+08,0,0,0,0.22177,-0.57494,-0.57494,-0.85,NaN,0,-0.0054056,2,2
2.5155e+05,1.8625e+08,0,0,0,0.22177,-0.58696,-0.58696,-0.98,NaN,0,-0.017269,2,2
2.5199e+05,1.8636e+08,0,0,0,0.22177,-0.60328,-0.60328,-0.97,NaN,0,-0.033581,2,2
2.5244e+05,1.8646e+08,0,0,0,0.22177,-0.61466,-0.61466,-0.71,NaN,0,-0.04496,2,2
2.5289e+05,1.8656e+08,0,0,0,0.22177,-0.62407,-0.62407,-0.53,NaN,0,-0.055222,2,2
2.5331e+05,1.8667e+08,0,0,0,0.22177,-0.62827,-0.62827,-0.85,NaN,0,-0.059418,2,2
2.5376e+05,1.8677e+08,0,0,0,0.22177,-0.63247,-0.63247,-0.92,NaN,0,-0.065298,2,2
2.5421e+05,1.8688e+08,0,0,0,0.22177,-0.63701,-0.63701,-0.79,NaN,0,-0.069676,2,2
2.5467e+05,1.8699e+08,0,0,0,0.22177,-0.64212,-0.64212,-0.98,NaN,0,-0.075625,2,2
2.5509e+05,1.8709e+08,0,0,0,0.22177,-0.64758,-0.64758,-0.98,NaN,0,0.0024232,2,2
2.5554e+05,1.872e+08,0,0,0,0.22177,-0.65278,-0.65278,-0.74,NaN,0,-0.0027796,2,2
2.5599e+05,1.873e+08,0,0,0,0.22177,-0.65453,-0.65453,-0.53,NaN,0,-0.0062139,2,2
2.5645e+05,1.8741e+08,0,0,0,0.22177,-0.65436,-0.65436,-0.9,NaN,0,-0.006046,2,2
2.569e+05,1.8751e+08,0,0,0,0.22177,-0.65205,-0.65205,-0.54,NaN,0,-0.0045803,2,2
2.5735e+05,1.8761e+08,0,0,0,0.22177,-0.64823,-0.64823,-0.59,NaN,0,-0.00075524,2,2
2.578e+05,1.8772e+08,0,0,0,0.22177,-0.64429,-0.64429,-0.5,NaN,0,0.0030255,3,3
2.5825e+05,1.8782e+08,0,0,0,0.22177,-0.64007,-0.64007,-0.61,NaN,0,0.0064063,3,3
2.5867e+05,1.8792e+08,0,0,0,0.22177,-0.63516,-0.63516,-0.63,NaN,0,0.011315,3,3
2.5912e+05,1.8802e+08,0,0,0,0.22177,-0.63007,-0.63007,-0.61,NaN,0,0.016403,3,3
2.5954e+05,1.8813e+08,0,0,0,0.22177,-0.62483,-0.62483,-0.56,NaN,0,0.021805,3,3
2.5999e+05,1.8823e+08,0,0,0,0.22177,-0.61973,-0.61973,-0.41,NaN,0,0.026905,3,3
2.6044e+05,1.8833e+08,0,0,0,0.22177,-0.61452,-0.61452,-0.84,NaN,0,0.032114,3,3
2.6086e+05,1.8844e+08,0,0,0,0.22177,-0.60963,-0.60963,-0.74,NaN,0,0.037009,4,4
2.6131e+05,1.8854e+08,0,0,0,0.22177,-0.60781,-0.60781,-0.45,NaN,0,0.037297,4,4
2.6176e+05,1.8864e+08,0,0,0,0.22177,-0.60516,-0.60516,-0.53,NaN,0,0.039948,4,4
2.6221e+05,1.8874e+08,0,0,0,0.22177,-0.6025,-0.6025,-0.8,NaN,0,0.041943,4,4
2.6266e+05,1.8885e+08,0,0,0,0.22177,-0.59978,-0.59978,-0.77,NaN,0,0.044662,4,4
2.6308e+05,1.8895e+08,0,0,0,0.22177,-0.59893,-0.59893,-0.57,NaN,0,0.04551,4,4
2.6353e+05,1.8906e+08,0,0,0,0.22177,-0.59763,-0.59763,-0.59,NaN,0,0.045123,4,4
2.6398e+05,1.8916e+08,0,0,0,0.22177,-0.59674,-0.59674,-0.75,NaN,0,0.046173,4,4
2.6443e+05,1.8926e+08,0,0,0,0.22177,-0.59553,-0.59553,-0.6,NaN,0,0.047386,4,4
2.6485e+05,1.8936e+08,0,0,0,0.22177,-0.59403,-0.59403,-0.64,NaN,0,0.048277,3,3
2.653e+05,1.8947e+08,0,0,0,0.22177,-0.59187,-0.59187,-0.64,NaN,0,0.050438,3,3
2.6575e+05,1.8957e+08,0,0,0,0.22177,-0.58975,-0.58975,-0.84,NaN,0,0.052564,3,3
2.662e+05,1.8967e+08,0,0,0,0.22177,-0.58844,-0.58844,-0.35,NaN,0,0.053871,3,3
2.6666e+05,1.8978e+08,0,0,0,0.22177,-0.58731,-0.58731,-0.72,NaN,0,0.054999,3,3
2.671e+05,1.8988e+08,0,0,0,0.22177,-0.58587,-0.58587,-0.2,NaN,0,0.055753,3,3
2.6755e+05,1.8998e+08,0,0,0,0.22177,-0.58393,-0.58393,-0.5,NaN,0,0.057691,4,4
2.68e+05,1.9009e+08,0,0,0,0.22177,-0.58132,-0.58132,-0.41,NaN,0,0.060304,4,4
2.6846e+05,1.9019e+08,0,0,0,0.22177,-0.5788,-0.5788,-0.42,NaN,0,0.061225,3,3
2.6887e+05,1.9029e+08,0,0,0,0.22177,-0.57576,-0.57576,-0.18,NaN,0,0.064267,2,2
2.6911e+05,1.9039e+08,0,0,0,0.22177,-0.57215,-0.57215,-0.33,NaN,0,0.067877,3,3
2.6956e+05,1.905e+08,0,0,0,0.22177,-0.56763,-0.56763,-0.47,NaN,0,0.072402,3,3
2.7001e+05,1.906e+08,0,0,0,0.22177,-0.56336,-0.56336,-0.38,NaN,0,0.076832,3,3
2.7046e+05,1.9071e+08,0,0,0,0.22177,-0.55852,-0.55852,-0.25,NaN,0,0.080826,3,3
2.7091e+05,1.9081e+08,0,0,0,0.22177,-0.55287,-0.55287,-0.32,NaN,0,0.086718,3,3
2.7136e+05,1.9091e+08,0,0,0,0.22177,-0.54873,-0.54873,-0.51,NaN,0,0.090857,4,4
2.7181e+05,1.9102e+08,0,0,0,0.22177,-0.54544,-0.54544,-0.46,NaN,0,0.094145,3,3
2.7223e+05,1.9112e+08,0,0,0,0.22177,-0.54304,-0.54304,-0.33,NaN,0,0.096702,3,3
2.7268e+05,1.9122e+08,0,0,0,0.22177,-0.54013,-0.54013,-0.67,NaN,0,0.097936,2,2
2.7313e+05,1.9133e+08,0,0,0,0.22177,-0.53776,-0.53776,-0.49,NaN,0,0.10047,2,2
2.7359e+05,1.9143e+08,0,0,0,0.22177,-0.53528,-0.53528,-0.58,NaN,0,0.10311,3,3
2.74e+05,1.9153e+08,0,0,0,0.22177,-0.53321,-0.53321,-0.59,NaN,0,0.10433,3,3
2.7446e+05,1.9163e+08,0,0,0,0.22177,-0.53123,-0.53123,-0.59,NaN,0,0.10631,2,2
2.749e+05,1.9174e+08,0,0,0,0.22177,-0.52921,-0.52921,-0.82,NaN,0,0.1085,2,2
2.7532e+05,1.9184e+08,0,0,0,0.22177,-0.52789,-0.52789,-0.67,NaN,0,0.10982,3,3
2.7577e+05,1.9194e+08,0,0,0,0.22177,-0.52898,-0.52898,-0.33,NaN,0,0.10703,2,2
2.7622e+05,1.9204e+08,0,0,0,0.22177,-0.52791,-0.52791,-0.59,NaN,0,0.10826,1,1
2.7667e+05,1.9215e+08,0.03,8.0224e-06,0.0084975,0.22177,-0.52599,-0.52599,-0.62,NaN,0,0.11019,2,2
2.7708e+05,1.9226e+08,0.078749,2.1338e-05,0.044603,0.22177,-0.52355,-0.52355,-0.46,NaN,0,0.11262,1,1
2.7754e+05,1.9236e+08,0.12875,3.3393e-05,0.089732,0.22177,-0.52008,-0.52008,-0.58,NaN,0,0.11626,3,3
2.7799e+05,1.9246e+08,0.1775,4.8906e-05,0.13829,0.22177,-0.51639,-0.51639,-0.36,NaN,0,0.11995,2,2
2.7844e+05,1.9257e+08,0.2275,7.6964e-05,0.18703,0.22177,-0.51144,-0.51144,-0.75,NaN,0,0.12406,2,2
2.7889e+05,1.9268e+08,0.27625,7.1228e-05,0.23628,0.22177,-0.50672,-0.50672,-0.55,NaN,0,0.12878,3,3
2.7934e+05,1.9278e+08,0.32625,5.3078e-05,0.28557,0.22177,-0.50135,-0.50135,0.04,NaN,0,0.13431,7,7
2.7976e+05,1.9289e+08,0.32189,4.5598e-05,0.32309,0.22177,-0.48744,-0.48502,-0.23,NaN,0,0.15063,19,22
2.8021e+05,1.9299e+08,0.27676,2.0772e-05,0.29741,0.22177,-0.46,-0.44588,-0.45,NaN,0,0.18894,33,45
2.8066e+05,1.931e+08,0.25802,2.3574e-05,0.27464,0.22177,-0.42057,-0.38277,-0.6,NaN,0,0.2522,42,64
2.8111e+05,1.9321e+08,0.26299,4.831e-05,0.26588,0.22177,-0.36943,-0.30933,-0.24,NaN,0,0.32565,49,74
2.8153e+05,1.9331e+08,0.24749,3.3215e-05,0.25631,0.22177,-0.31273,-0.22523,-0.65,NaN,0,0.40807,54,80
2.8198e+05,1.9341e+08,0.22012,1.1861e-05,0.23601,0.22177,-0.24764,-0.13882,-0.44,NaN,0,0.4938,55,84
2.8243e+05,1.9352e+08,0.22695,8.9407e-07,0.22807,0.22177,-0.18503,-0.04955,-0.53,NaN,0,0.58138,51,79
2.8288e+05,1.9363e+08,0.23919,2.1666e-05,0.23154,0.22177,-0.12195,0.028372,-0.36,NaN,0,0.6587,46,69
2.8333e+05,1.9373e+08,0.24234,9.4116e-05,0.23856,0.22177,-0.064794,0.089703,0.01,NaN,0,0.72003,43,60
2.8378e+05,1.9384e+08,0.2527,0.00014982,0.24284,0.22177,-0.0068313,0.14357,0.21,NaN,0,0.77406,42,54
2.842e+05,1.9395e+08,0.26422,0.00011066,0.25651,0.22177,0.049595,0.19948,-0.16,NaN,0,0.83022,44,50
2.8464e+05,1.9405e+08,0.26055,8.2135e-05,0.26146,0.22177,0.1088,0.25065,0.44,NaN,0,0.88178,48,51
2.851e+05,1.9416e+08,0.26861,0.00011817,0.26451,0.22177,0.17309,0.30911,-0.02,NaN,0,0.94057,52,53
2.8554e+05,1.9426e+08,0.26882,0.00016338,0.26655,0.22177,0.24154,0.36666,0.19,NaN,0,0.99843,58,57
2.86e+05,1.9437e+08,0.25909,0.00017798,0.26346,0.22177,0.31383,0.42872,0.19,NaN,0,1.0606,62,61
2.8645e+05,1.9448e+08,0.26669,0.00015306,0.26581,0.22177,0.38721,0.49112,0.25,NaN,0,1.1215,66,63
2.8687e+05,1.9458e+08,0.26621,0.00013444,0.26718,0.22177,0.46484,0.55202,0.32,NaN,0,1.1817,69,66
2.8731e+05,1.9469e+08,0.26037,0.00014487,0.26382,0.22177,0.54247,0.61696,0.49,NaN,0,1.2478,72,70
2.8776e+05,1.948e+08,0.26813,0.00019106,0.26554,0.22177,0.62367,0.68594,0.54,NaN,0,1.3167,75,73
2.8818e+05,1.9491e+08,0.26301,0.00026247,0.26506,0.22177,0.70414,0.75939,0.54,NaN,0,1.392,77,75
2.8864e+05,1.9501e+08,0.26476,0.00033858,0.26576,0.22177,0.78771,0.83349,0.4,NaN,0,1.467,79,77
2.8908e+05,1.9512e+08,0.26642,0.00032312,0.26452,0.22177,0.87007,0.90963,0.79,NaN,0,1.5448,80,79
2.8953e+05,1.9523e+08,0.26626,0.00029361,0.26528,0.22177,0.95523,0.98694,0.89,NaN,0,1.6221,82,81
2.8999e+05,1.9533e+08,0.26683,0.00023946,0.26724,0.22177,1.0409,1.0699,0.94,NaN,0,1.7051,83,80
2.9044e+05,1.9544e+08,0.25608,0.00018954,0.26436,0.22177,1.1272,1.1525,0.84,NaN,0,1.7878,83,82
2.9086e+05,1.9555e+08,0.24044,0.00017668,0.252,0.22177,1.2121,1.2375,1.05,NaN,0,1.8729,80,83
2.9131e+05,1.9566e+08,0.24277,0.00020657,0.24332,0.22177,1.295,1.3222,0.99,NaN,0,1.9559,75,80
2.9176e+05,1.9576e+08,0.24924,0.00024572,0.24544,0.22177,1.3712,1.4027,1.38,NaN,0,2.0362,70,75
2.9221e+05,1.9587e+08,0.25185,0.00028783,0.24847,0.22177,1.4435,1.4799,1.11,NaN,0,2.115,67,70
2.9266e+05,1.9598e+08,0.25069,0.00020555,0.24925,0.22177,1.5127,1.5469,1.41,NaN,0,2.1824,64,67
2.9311e+05,1.9609e+08,0.24747,0.00012608,0.2477,0.22177,1.5793,1.6103,1.69,NaN,0,2.2471,62,65
2.9356e+05,1.9619e+08,0.25594,9.9748e-05,0.24932,0.22177,1.6438,1.6731,1.73,NaN,0,2.3104,60,61
2.9401e+05,1.963e+08,0.25329,0.00011009,0.2545,0.22177,1.7051,1.7367,1.56,NaN,0,2.3745,58,59
2.9446e+05,1.964e+08,0.25093,0.00011909,0.25207,0.22177,1.7664,1.7975,2,NaN,0,2.4369,57,58
2.949e+05,1.9651e+08,0.25357,8.8781e-05,0.2499,0.22177,1.8235,1.8576,1.72,NaN,0,2.4967,56,57
2.9536e+05,1.9662e+08,0.25288,5.6773e-05,0.25225,0.22177,1.8811,1.9161,1.83,NaN,0,2.556,55,56
2.958e+05,1.9672e+08,0.24323,5.7995e-05,0.24908,0.22177,1.935,1.9742,2.17,NaN,0,2.6157,54,54
2.9625e+05,1.9683e+08,0.24415,0.00010253,0.24715,0.22177,1.9898,2.0354,2.08,NaN,0,2.6777,52,55
2.9669e+05,1.9694e+08,0.24135,0.00015853,0.24286,0.22177,2.0438,2.0977,2.07,NaN,0,2.7416,50,54
2.971e+05,1.9705e+08,0.23217,0.00019524,0.23863,0.22177,2.0963,2.1569,2.04,NaN,0,2.8008,48,52
2.9755e+05,1.9716e+08,0.22995,0.00021113,0.2329,0.22177,2.1465,2.2123,2.22,NaN,0,2.8569,44,49
2.9799e+05,1.9727e+08,0.2437,0.00023529,0.23468,0.22177,2.1933,2.2645,2.42,NaN,0,2.9083,40,44
2.9844e+05,1.9738e+08,0.23122,0.00029331,0.23703,0.22177,2.2372,2.3128,2.52,NaN,0,2.9567,37,40
2.9885e+05,1.9749e+08,0.23251,0.00047103,0.2345,0.22177,2.2787,2.3606,2.57,NaN,0,3.0046,34,37
2.9929e+05,1.9759e+08,0.23215,0.00056569,0.2348,0.22177,2.3183,2.4053,2.47,NaN,0,3.0492,32,35
2.9974e+05,1.977e+08,0.24179,0.00073108,0.23732,0.22177,2.3562,2.4478,2.61,NaN,0,3.0918,30,32
3.0018e+05,1.9781e+08,0.24024,0.0010084,0.23842,0.22177,2.3928,2.488,2.86,NaN,0,3.1318,28,30
3.0062e+05,1.9792e+08,0.23977,0.0014182,0.23958,0.22177,2.4284,2.5264,2.41,NaN,0,3.1682,27,28
3.0107e+05,1.9803e+08,0.24977,0.0016572,0.24528,0.22177,2.463,2.5591,2.65,NaN,0,3.2006,26,24
3.0148e+05,1.9814e+08,0.23969,0.0015828,0.24625,0.22177,2.4969,2.5906,2.52,NaN,0,3.2293,25,24
3.0193e+05,1.9824e+08,0.24184,0.0014951,0.24324,0.22177,2.5302,2.6199,2.69,NaN,0,3.2549,25,24
3.0237e+05,1.9835e+08,0.23922,0.0012852,0.2442,0.22177,2.563,2.6472,2.63,NaN,0,3.2787,25,25
3.0279e+05,1.9846e+08,0.24265,0.0011189,0.24442,0.22177,2.5954,2.6739,2.43,NaN,0,3.2998,26,25
3.0323e+05,1.9857e+08,0.25242,0.0010061,0.24737,0.22177,2.6274,2.7004,2.46,NaN,0,3.3201,26,25
3.0367e+05,1.9867e+08,0.24159,0.00092104,0.24767,0.22177,2.6592,2.7228,2.35,NaN,0,3.3363,26,23
3.0412e+05,1.9878e+08,0.24537,0.00091332,0.2478,0.22177,2.6906,2.7418,2.55,NaN,0,3.3474,27,23
3.0456e+05,1.9889e+08,0.25843,0.001028,0.25276,0.22177,2.7218,2.76,2.63,NaN,0,3.3567,28,24
3.0498e+05,1.99e+08,0.24993,0.00093694,0.25023,0.22177,2.7527,2.7776,2.83,NaN,0,3.3648,29,26
3.0542e+05,1.9911e+08,0.2457,0.00068107,0.24541,0.22177,2.7835,2.7995,2.31,NaN,0,3.3762,30,29
3.0586e+05,1.9922e+08,0.24692,0.00069915,0.24876,0.22177,2.8142,2.8212,2.65,NaN,0,3.3883,31,27
3.0631e+05,1.9932e+08,0.24907,0.00078793,0.25263,0.22177,2.8448,2.8428,2.65,NaN,0,3.3984,32,28
3.0672e+05,1.9943e+08,0.25087,0.00090948,0.25072,0.22177,2.8754,2.8654,2.96,NaN,0,3.4112,33,29
3.0716e+05,1.9954e+08,0.24893,0.0010673,0.25297,0.22177,2.906,2.8937,2.7,NaN,0,3.428,33,30
3.0761e+05,1.9965e+08,0.24714,0.0010011,0.2495,0.22177,2.9375,2.9238,2.79,NaN,0,3.4485,33,32
3.0806e+05,1.9976e+08,0.23337,0.00076996,0.24403,0.22177,2.9682,2.9526,2.83,NaN,0,3.4663,33,34
3.0847e+05,1.9986e+08,0.24478,0.00067367,0.24239,0.22177,2.999,2.984,3.11,NaN,0,3.4887,33,35
3.0888e+05,1.9997e+08,0.24384,0.00063087,0.24426,0.22177,3.0297,3.0151,2.98,NaN,0,3.5097,33,34
3.0933e+05,2.0008e+08,0.24753,0.00070262,0.24797,0.22177,3.0604,3.0479,3,NaN,0,3.5333,33,33
3.0978e+05,2.0019e+08,0.24056,0.00064404,0.24447,0.22177,3.091,3.0796,2.84,NaN,0,3.5539,33,33
3.1022e+05,2.003e+08,0.25016,0.00070634,0.24544,0.22177,3.1214,3.1114,2.95,NaN,0,3.5757,33,32
3.1067e+05,2.0041e+08,0.2527,0.00079632,0.25277,0.22177,3.1518,3.1395,2.95,NaN,0,3.5944,33,31
3.1111e+05,2.0051e+08,0.25473,0.00097936,0.25433,0.22177,3.1821,3.1686,2.96,NaN,0,3.6135,33,30
3.1156e+05,2.0062e+08,0.2673,0.0010137,0.25998,0.22177,3.2124,3.1968,3.17,NaN,0,3.6322,33,29
3.12e+05,2.0073e+08,0.26869,0.0010869,0.2655,0.22177,3.2427,3.2229,3.35,NaN,0,3.6487,33,29
3.1244e+05,2.0084e+08,0.2562,0.00096887,0.26245,0.22177,3.273,3.2508,3.71,NaN,0,3.6672,34,29
3.1286e+05,2.0094e+08,0.25745,0.00091556,0.26162,0.22177,3.3032,3.2838,3.37,NaN,0,3.6888,33,31
3.133e+05,2.0105e+08,0.26234,0.00090381,0.26184,0.22177,3.3334,3.3202,3.13,NaN,0,3.7149,33,31
3.1374e+05,2.0116e+08,0.2588,0.00073165,0.25807,0.22177,3.3636,3.3535,3.26,NaN,0,3.7386,32,32
3.1418e+05,2.0127e+08,0.25083,0.00050715,0.25759,0.22177,3.3939,3.3885,3.27,NaN,0,3.7612,32,33
3.146e+05,2.0138e+08,0.2685,0.00053111,0.25967,0.22177,3.4243,3.4224,3.67,NaN,0,3.7847,32,31
3.1504e+05,2.0149e+08,0.26319,0.00047863,0.26633,0.22177,3.4539,3.4569,3.32,NaN,0,3.807,31,30
3.1549e+05,2.0159e+08,0.25043,0.00031784,0.2616,0.22177,3.4843,3.4899,3.71,NaN,0,3.8296,31,31
3.1593e+05,2.017e+08,0.23562,0.00019713,0.25037,0.22177,3.5147,3.5257,3.97,NaN,0,3.8533,30,33
3.1637e+05,2.0181e+08,0.23671,0.00016059,0.24095,0.22177,3.5451,3.5664,3.82,NaN,0,3.883,29,36
3.1681e+05,2.0192e+08,0.24244,0.00014214,0.23753,0.22177,3.5755,3.6131,3.34,NaN,0,3.9194,28,36
3.1726e+05,2.0203e+08,0.21691,0.00012448,0.22957,0.22177,3.6051,3.6552,3.43,NaN,0,3.9497,24,34
3.1767e+05,2.0213e+08,0.22075,0.00014676,0.21995,0.22177,3.6313,3.6865,3.1,NaN,0,3.9717,19,29
3.1812e+05,2.0225e+08,0.23638,0.00019182,0.22568,0.22177,3.6537,3.708,3.66,NaN,0,3.9842,15,21
3.1856e+05,2.0235e+08,0.24026,0.00027083,0.23512,0.22177,3.6717,3.7186,3.74,NaN,0,3.9858,12,14
3.1901e+05,2.0246e+08,0.24159,0.00039856,0.23835,0.22177,3.6866,3.726,3.7,NaN,0,3.9859,10,10
3.1945e+05,2.0257e+08,0.24581,0.00047816,0.24204,0.22177,3.6989,3.7299,3.67,NaN,0,3.9809,8,6
3.1986e+05,2.0267e+08,0.2425,0.00051266,0.24431,0.22177,3.7091,3.7316,3.8,NaN,0,3.9746,7,4
3.2028e+05,2.0278e+08,0.24965,0.0005199,0.24778,0.22177,3.7175,3.7286,3.43,NaN,0,3.9643,6,2
3.2072e+05,2.0289e+08,0.25309,0.00047442,0.24915,0.22177,3.7244,3.7226,3.41,NaN,0,3.9491,6,1
3.2116e+05,2.03e+08,0.24743,0.00036934,0.24894,0.22177,3.7302,3.7127,3.9,NaN,0,3.931,7,2
3.2161e+05,2.031e+08,0.24425,0.00024182,0.24768,0.22177,3.7349,3.706,3.91,NaN,0,3.9153,7,3
3.2205e+05,2.0321e+08,0.24971,0.0003376,0.24684,0.22177,3.7389,3.7042,3.78,NaN,0,3.9069,7,4
3.225e+05,2.0332e+08,0.25214,0.00016949,0.2497,0.22177,3.742,3.701,3.93,NaN,0,3.8982,7,3
3.2294e+05,2.0343e+08,0.25325,0.00025848,0.25081,0.22177,3.7447,3.702,3.62,NaN,0,3.8933,6,3
3.2338e+05,2.0354e+08,0.2474,0.00068709,0.24978,0.22177,3.7469,3.7034,3.72,NaN,0,3.8902,6,5
3.2383e+05,2.0364e+08,0.24613,0.00080931,0.24746,0.22177,3.7488,3.7069,3.59,NaN,0,3.888,5,5
3.2427e+05,2.0375e+08,0.24304,0.000615,0.2461,0.22177,3.7503,3.7084,3.93,NaN,0,3.8838,5,5
3.2472e+05,2.0386e+08,0.25437,0.00063002,0.24726,0.22177,3.7516,3.7117,3.84,NaN,0,3.8806,5,3
3.2517e+05,2.0397e+08,0.252,0.0010612,0.25331,0.22177,3.7526,3.7124,3.68,NaN,0,3.8766,5,4
3.2557e+05,2.0408e+08,0.24503,0.0014115,0.25206,0.22177,3.7535,3.7134,3.74,NaN,0,3.8702,4,3
3.2602e+05,2.0419e+08,0.25016,0.0015104,0.25087,0.22177,3.7542,3.7153,3.65,NaN,0,3.867,4,3
3.2647e+05,2.043e+08,0.24873,0.0011851,0.25009,0.22177,3.7548,3.7151,3.78,NaN,0,3.8615,4,4
3.2692e+05,2.044e+08,0.24126,0.00081994,0.24501,0.22177,3.7553,3.7169,3.64,NaN,0,3.8591,4,5
3.2736e+05,2.0452e+08,0.2458,0.0007609,0.24374,0.22177,3.7557,3.7162,3.69,NaN,0,3.8539,4,5
3.2781e+05,2.0462e+08,0.24309,0.00065672,0.24316,0.22177,3.756,3.7164,3.79,NaN,0,3.8505,4,5
3.2825e+05,2.0473e+08,0.24007,0.00051409,0.24519,0.22177,3.7563,3.7158,3.53,NaN,0,3.8451,4,5
3.2866e+05,2.0484e+08,0.25715,0.00027817,0.24818,0.22177,3.7565,3.7139,3.72,NaN,0,3.8395,4,4
3.2911e+05,2.0495e+08,0.25229,0.00021905,0.25024,0.22177,3.7567,3.7125,3.92,NaN,0,3.8343,4,3
3.2952e+05,2.0506e+08,0.26623,0.00028458,0.25822,0.22177,3.7568,3.7132,3.91,NaN,0,3.833,4,0
3.2996e+05,2.0516e+08,0.25959,0.00047576,0.26688,0.22177,3.7569,3.7122,3.91,NaN,0,3.828,4,0
3.3041e+05,2.0528e+08,0.25053,0.00041708,0.26025,0.22177,3.7571,3.7141,4.25,NaN,0,3.8287,4,1
3.3074e+05,2.0549e+08,0.24933,0.00054736,0.24431,0.22177,3.7572,3.7323,3.98,NaN,0,3.8417,2,4
3.3119e+05,2.056e+08,0.24908,0.00046401,0.2493,0.22177,3.7573,3.7441,4.21,NaN,0,3.8514,1,4
3.3163e+05,2.057e+08,0.23762,0.00028293,0.24597,0.22177,3.7573,3.7577,3.67,NaN,0,3.8622,0,3
3.3205e+05,2.0581e+08,0.24055,9.957e-05,0.23677,0.22177,3.7574,3.7692,3.67,NaN,0,3.8718,-1,5
3.3249e+05,2.0592e+08,0.24179,9.9421e-05,0.23454,0.22177,3.7574,3.7764,3.53,NaN,0,3.8762,-1,4
3.3294e+05,2.0602e+08,0.24514,0.00045627,0.23771,0.22177,3.7574,3.7787,3.52,NaN,0,3.8768,-2,3
3.3334e+05,2.0613e+08,0.23395,0.00099181,0.23534,0.22177,3.7574,3.7753,2.87,NaN,0,3.8724,-1,1
3.338e+05,2.0624e+08,0.22071,0.0012813,0.23008,0.22177,3.7575,3.7671,3.07,NaN,0,3.8614,0,3
3.3424e+05,2.0634e+08,0.23851,0.0018185,0.2304,0.22177,3.7575,3.7543,3.28,NaN,0,3.8491,0,2
3.3468e+05,2.0645e+08,0.22633,0.0017087,0.22977,0.22177,3.7575,3.7408,2.8,NaN,0,3.8353,1,2
3.3512e+05,2.0656e+08,0.23345,0.0015558,0.23048,0.22177,3.7575,3.7213,2.87,NaN,0,3.8145,3,3
3.3554e+05,2.0667e+08,0.25282,0.0015763,0.23718,0.22177,3.7575,3.7006,2.91,NaN,0,3.794,5,1
3.3598e+05,2.0678e+08,0.24206,0.0014316,0.24134,0.22177,3.7575,3.6761,3.09,NaN,0,3.7689,8,2
3.364e+05,2.0688e+08,0.26378,0.0019488,0.24954,0.22177,3.7575,3.6523,2.91,NaN,0,3.745,10,1
3.3684e+05,2.0699e+08,0.25512,0.0024239,0.26109,0.22177,3.7575,3.6266,2.82,NaN,0,3.7182,13,1
3.3728e+05,2.071e+08,0.24349,0.0021044,0.25833,0.22177,3.7575,3.604,3.31,NaN,0,3.696,15,4
3.3773e+05,2.0721e+08,0.24191,0.0016415,0.24855,0.22177,3.7575,3.5913,3.47,NaN,0,3.682,16,9
3.3818e+05,2.0732e+08,0.22884,0.0013594,0.23913,0.22177,3.7575,3.5872,3.23,NaN,0,3.6799,17,14
3.3862e+05,2.0743e+08,0.22984,0.0014591,0.23122,0.22177,3.7575,3.589,3.43,NaN,0,3.6827,16,17
3.3904e+05,2.0753e+08,0.2272,0.0016398,0.23368,0.22177,3.7575,3.591,3.3,NaN,0,3.6856,16,17
