LineNo,TimeUS,ThI,ABst,ThO,ThH,DAlt,Alt,BAlt,DSAlt,SAlt,TAlt,DCRt,CRt
1576,19857195,0,0,0,0.2217716,0,-0.5920762000000001,-0.74,NaN,0,-88.91724000000001,0,49
1985,19959164,0,0,0,0.2217716,0,-0.5554361,-0.45,NaN,0,-88.62900999999999,0,48
2400,20060917,0,0,0,0.2217716,0,-0.5113220000000001,-0.63,NaN,0,-88.80970000000001,0,48
2810,20162622,0,0,0,0.2217716,0,-0.4676687,-0.75,NaN,0,-88.92838,0,48
3222,20262651,0,0,0,0.2217716,0,-0.4301192,-0.44,NaN,0,-88.61754999999999,0,47
3638,20364383,0,0,0,0.2217716,0,-0.3910828,-0.8100000000000001,NaN,0,-88.99055,0,47
4049,20465963,0,0,0,0.2217716,0,-0.3578121,-0.4,NaN,0,-88.57850999999999,0,46
4458,20567972,0,0,0,0.2217716,0,-0.3263624,-0.55,NaN,0,-88.73108999999999,0,46
4873,20669022,0,0,0,0.2217716,0,-0.2936668,-0.15,NaN,0,-88.32966999999999,0,45
5255,20770277,0,0,0,0.2217716,0,-0.255164,-0.42,NaN,0,-88.60093999999999,0,45
5669,20871395,0,0,0,0.2217716,0,-0.2156125,-0.28,NaN,0,-88.45950000000001,0,45
6076,20972591,0,0,0,0.2217716,0,-0.177399,-0.65,NaN,0,-88.82684,0,45
6488,21073000,0,0,0,0.2217716,0,-0.1473802,-0.63,NaN,0,-88.80399,0,44
6895,21173416,0,0,0,0.2217716,0,-0.1269389,-0.48,NaN,0,-88.6514,0,43
7278,21275161,0,0,0,0.2217716,0,-0.1091023,-0.6899999999999999,NaN,0,-88.86533,0,42
7691,21375642,0,0,0,0.2217716,0,-0.1009449,-0.4,NaN,0,-88.5771,0,41
8076,21476736,0,0,0,0.2217716,0,-0.09038404999999999,-0.6899999999999999,NaN,0,-88.86365000000001,0,40
8482,21578073,0,0,0,0.2217716,0,-0.08381350999999999,-0.53,NaN,0,-88.69974999999999,0,38
8892,21679764,0,0,0,0.2217716,0,-0.08472185,-0.52,NaN,0,-88.69392999999999,0,37
9299,21780268,0,0,0,0.2217716,0,-0.08319809,-0.25,NaN,0,-88.42831,0,35
9552,21880381,0,0,0,0.2217716,0,-0.07745816,-0.33,NaN,0,-88.50660000000001,0,34
9959,21980257,0,0,0,0.2217716,0,-0.06904327,-0.53,NaN,0,-88.69875,0,33
10369,22080490,0,0,0,0.2217716,0,-0.06389668,-0.24,NaN,0,-88.40885,0,32
10779,22182604,0,0,0,0.2217716,0,-0.0559443,-0.26,NaN,0,-88.43146,0,31
11166,22284535,0,0,0,0.2217716,0,-0.0457248,-0.62,NaN,0,-88.78733,0,30
11577,22386045,0,0,0,0.2217716,0,-0.0437125,-0.2,NaN,0,-88.36913,0,29
11991,22487984,0,0,0,0.2217716,0,-0.03778636,-0.59,NaN,0,-88.76389,0,28
12401,22591008,0,0,0,0.2217716,0,-0.0368931,-0.26,NaN,0,-88.43046,0,27
12812,22692715,0,0,0,0.2217716,0,-0.0383144,-0.44,NaN,0,-88.60557,0,26
13219,22793607,0,0,0,0.2217716,0,-0.03835426,-0.33,NaN,0,-88.49818999999999,0,24
13631,22895711,0,0,0,0.2217716,0,-0.03846978,-0.48,NaN,0,-88.64995,0,23
14041,22997553,0,0,0,0.2217716,0,-0.0435358,-0.43,NaN,0,-88.59908,0,22
14452,23099187,0,0,0,0.2217716,0,-0.04873065,-0.48,NaN,0,-88.64834999999999,0,21
14834,23200450,0,0,0,0.2217716,0,-0.0554463,-0.6899999999999999,NaN,0,-88.85746,0,20
15245,23302650,0,0,0,0.2217716,0,-0.06846405999999999,-0.72,NaN,0,-88.8832,0,18
15657,23404939,0,0,0,0.2217716,0,-0.09378772,-0.46,NaN,0,-88.62324,0,16
16070,23507259,0,0,0,0.2217716,0,-0.112634,-0.48,NaN,0,-88.64516,0,15
16452,23609708,0,0,0,0.2217716,0,-0.1294246,-0.51,NaN,0,-88.67341999999999,0,14
16863,23711664,0,0,0,0.2217716,0,-0.1461611,-0.22,NaN,0,-88.37804,0,12
17271,23813973,0,0,0,0.2217716,0,-0.1608609,-0.46,NaN,0,-88.62106,0,11
17686,23914927,0,0,0,0.2217716,0,-0.1713814,-0.55,NaN,0,-88.71088,0,10
18071,24017765,0,0,0,0.2217716,0,-0.1843538,-0.53,NaN,0,-88.68827,0,9
18484,24119536,0,0,0,0.2217716,0,-0.1984846,-0.62,NaN,0,-88.77802,0,8
18891,24221598,0,0,0,0.2217716,0,-0.2156687,-0.5600000000000001,NaN,0,-88.72150999999999,0,7
19301,24323167,0,0,0,0.2217716,0,-0.2352239,-0.84,NaN,0,-89.00408,0,5
19685,24424376,0,0,0,0.2217716,0,-0.2588361,-0.55,NaN,0,-88.71586000000001,0,4
20097,24526447,0,0,0,0.2217716,0,-0.2834815,-0.48,NaN,0,-88.63522,0,3
20507,24627946,0,0,0,0.2217716,0,-0.3051192,-0.52,NaN,0,-88.68043,0,2
20921,24729610,0,0,0,0.2217716,0,-0.3247055,-0.35,NaN,0,-88.5044,0,1
21339,24832632,0,0,0,0.2217716,0,-0.3403198,-0.42,NaN,0,-88.57787,0,0
21755,24935251,0,0,0,0.2217716,0,-0.3540263,-0.51,NaN,0,-88.67243999999999,0,0
22166,25036683,0,0,0,0.2217716,0,-0.366248,-0.54,NaN,0,-88.69504999999999,0,-1
22581,25140755,0,0,0,0.2217716,0,-0.3794916,-0.68,NaN,0,-88.84198000000001,0,-2
22989,25242974,0,0,0,0.2217716,0,-0.3966863,-0.49,NaN,0,-88.64418000000001,0,-3
23408,25346729,0,0,0,0.2217716,0,-0.4134553,-0.54,NaN,0,-88.69504999999999,0,-4
23827,25448487,0,0,0,0.2217716,0,-0.4280976,-0.63,NaN,0,-88.79111,0,-4
24240,25548523,0,0,0,0.2217716,0,-0.4442905,-0.66,NaN,0,-88.81372,0,-5
24655,25650559,0,0,0,0.2217716,0,-0.4619387,-0.38,NaN,0,-0.01193875,0,-6
25068,25754334,0,0,0,0.2217716,0,-0.477965,-0.59,NaN,0,-0.02796504,0,-7
25482,25856263,0,0,0,0.2217716,0,-0.4925105,-0.49,NaN,0,-0.04251054,0,-7
25892,25958043,0,0,0,0.2217716,0,-0.5061321,-0.74,NaN,0,-0.05613214,0,-8
26302,26059040,0,0,0,0.2217716,0,-0.5225313,-0.53,NaN,0,-0.07169211,0,-9
26681,26160620,0,0,0,0.2217716,0,-0.5386052,-0.51,NaN,0,-0.08776593000000001,0,-9
27095,26261186,0,0,0,0.2217716,0,-0.5528058,-0.23,NaN,0,-0.1019666,0,-10
27501,26362252,0,0,0,0.2217716,0,-0.5618468,-0.84,NaN,0,-0.1110076,0,-10
27914,26463374,0,0,0,0.2217716,0,-0.5734785,-0.6,NaN,0,-0.1228071,0,-11
28321,26564792,0,0,0,0.2217716,0,-0.5882174,-0.57,NaN,0,-0.1375461,0,-11
28705,26666721,0,0,0,0.2217716,0,-0.6023101,-0.7,NaN,0,-0.1516387,0,-12
29118,26768582,0,0,0,0.2217716,0,-0.6176733,-0.33,NaN,0,-0.167002,0,-12
29533,26869621,0,0,0,0.2217716,0,-0.6290065,-0.52,NaN,0,-0.1776561,0,-13
29943,26971595,0,0,0,0.2217716,0,-0.6385819,-0.8100000000000001,NaN,0,-0.1872315,0,-13
30353,27072906,0,0,0,0.2217716,0,-0.6518686,-0.64,NaN,0,-0.2006785,0,-14
30759,27173999,0,0,0,0.2217716,0,-0.6672202,-0.45,NaN,0,-0.2160301,0,-14
31172,27275710,0,0,0,0.2217716,0,-0.6793612999999999,-0.6,NaN,0,-0.2265003,0,-14
31578,27376944,0,0,0,0.2217716,0,-0.6910129,-0.59,NaN,0,-0.2381518,0,-15
31964,27479594,0,0,0,0.2217716,0,-0.7025955,-0.73,NaN,0,-0.2490555,0,-15
32370,27580929,0,0,0,0.2217716,0,-0.7158611,-0.5,NaN,0,-0.2623211,0,-16
32779,27682802,0,0,0,0.2217716,0,-0.7271254,-0.43,NaN,0,-0.2721511,0,-16
33192,27783704,0,0,0,0.2217716,0,-0.7353252,-0.47,NaN,0,-0.2803509,0,-16
33605,27885491,0,0,0,0.2217716,0,-0.7416984,-0.32,NaN,0,-0.2842216,0,-16
33987,27987229,0,0,0,0.2217716,0,-0.7437548,0.06,NaN,0,-0.286278,0,-17
34396,28089975,0,0,0,0.2217716,0,-0.7379778,-0.08,NaN,0,-0.2796541,0,-16
34806,28191647,0,0,0,0.2217716,0,-0.7276183000000001,-0.52,NaN,0,-0.2692947,0,-16
35220,28293265,0,0,0,0.2217716,0,-0.719255,-0.2,NaN,0,-0.26026,0,-16
35626,28394651,0,0,0,0.2217716,0,-0.711549,-0.08,NaN,0,-0.2525541,0,-16
36012,28497657,0,0,0,0.2217716,0,-0.6974243,-0.23,NaN,0,-0.2369949,0,-16
36422,28598663,0,0,0,0.2217716,0,-0.6889336,-0.64,NaN,0,-0.2285043,0,-15
36834,28701190,0,0,0,0.2217716,0,-0.6808741,-0.44,NaN,0,-0.2204447,0,-15
37248,28802059,0,0,0,0.2217716,0,-0.6791791,-0.71,NaN,0,-0.2187498,0,-15
37658,28904664,0,0,0,0.2217716,0,-0.6836388,-0.48,NaN,0,-0.2223778,0,-16
38066,29006193,0,0,0,0.2217716,0,-0.6895468,-0.36,NaN,0,-0.2282858,0,-16
38473,29108536,0,0,0,0.2217716,0,-0.6927934,-0.44,NaN,0,-0.2300981,0,-16
38882,29210210,0,0,0,0.2217716,0,-0.6964063,-0.32,NaN,0,-0.233711,0,-16
39264,29310665,0,0,0,0.2217716,0,-0.6987234,-0.7,NaN,0,-0.2361884,0,-16
39672,29411656,0,0,0,0.2217716,0,-0.7040085,-0.82,NaN,0,-0.2414734,0,-16
40084,29513385,0,0,0,0.2217716,0,-0.7147532,-0.48,NaN,0,-0.2522181,0,-16
40492,29614648,0,0,0,0.2217716,0,-0.7259797,-0.64,NaN,0,-0.2637727,0,-17
40906,29717734,0,0,0,0.2217716,0,-0.7372865,-0.75,NaN,0,-0.2744082,0,-17
41317,29821128,0,0,0,0.2217716,0,-0.7509355,-0.66,NaN,0,-0.2880571,0,-17
41729,29923312,0,0,0,0.2217716,0,-0.7651806,-0.66,NaN,0,-0.300784,0,-17
42141,30024125,0,0,0,0.2217716,0,-0.7795244,-0.61,NaN,0,-0.3151277,0,-18
42557,30124760,0,0,0,0.2217716,0,-0.7925624999999999,-0.45,NaN,0,-0.328326,0,-18
42969,30225509,0,0,0,0.2217716,0,-0.8033868,-0.58,NaN,0,-0.3391504,0,-18
43382,30326827,0,0,0,0.2217716,0,-0.8129236,-0.63,NaN,0,-0.3480157,0,-18
43767,30428424,0,0,0,0.2217716,0,-0.8225052,-0.49,NaN,0,-0.3575974,0,-19
44183,30530833,0,0,0,0.2217716,0,-0.8311796,-0.57,NaN,0,-0.3655927,0,-19
44591,30631091,0,0,0,0.2217716,0,-0.8384305,-0.62,NaN,0,-0.3728437,0,-19
45001,30733679,0,0,0,0.2217716,0,-0.8465545,-0.52,NaN,0,-0.3812118,0,-19
45416,30836032,0,0,0,0.2217716,0,-0.8539717999999999,-1.14,NaN,0,-0.3886292,0,-19
45823,30937213,0,0,0,0.2217716,0,-0.8669742,-0.75,NaN,0,-0.4001132,0,-19
46201,31038948,0,0,0,0.2217716,0,-0.8828433999999999,-0.57,NaN,0,-0.4159825,0,-20
46612,31141418,0,0,0,0.2217716,0,-0.8968842,-0.87,NaN,0,-0.4292756,0,-20
47022,31243183,0,0,0,0.2217716,0,-0.91157,-0.85,NaN,0,-0.4439614,0,-20
47434,31344731,0,0,0,0.2217716,0,-0.9285548,-0.9,NaN,0,-0.459428,0,-21
47847,31446491,0,0,0,0.2217716,0,-0.9472854000000001,-0.58,NaN,0,-0.4781585,0,-21
48263,31547621,0,0,0,0.2217716,0,-0.9632052,-0.67,NaN,0,-0.4934832,0,-21
48647,31649656,0,0,0,0.2217716,0,-0.9755411,-0.38,NaN,0,-0.5058191,0,-21
49058,31751602,0,0,0,0.2217716,0,-0.9831075,-0.62,NaN,0,-0.5133855000000001,0,-22
49475,31855700,0,0,0,0.2217716,0,-0.9896962,-0.49,NaN,0,-0.5186238,0,-22
49885,31957035,0,0,0,0.2217716,0,-0.9941672,-0.61,NaN,0,-0.5230949,0,-22
50297,32058504,0,0,0,0.2217716,0,-0.9978826,-0.54,NaN,0,-0.5269703999999999,0,-22
50679,32160617,0,0,0,0.2217716,0,-0.998332,-0.71,NaN,0,-0.5274198,0,-21
51098,32262714,0,0,0,0.2217716,0,-1.002484,-0.7,NaN,0,-0.5332502,0,-21
51506,32363486,0,0,0,0.2217716,0,-1.008059,-0.46,NaN,0,-0.5388255,0,-21
51886,32463523,0,0,0,0.2217716,0,-1.011495,-0.58,NaN,0,-0.5424289,0,-21
52294,32564800,0,0,0,0.2217716,0,-1.011803,-0.84,NaN,0,-0.5427371,0,-21
52709,32665969,0,0,0,0.2217716,0,-1.017168,-0.87,NaN,0,-0.5484224,0,-21
53122,32767070,0,0,0,0.2217716,0,-1.026051,-0.86,NaN,0,-0.5573051999999999,0,-21
53537,32868776,0,0,0,0.2217716,0,-1.037153,-0.46,NaN,0,-0.5672176,0,-22
53945,32969806,0,0,0,0.2217716,0,-1.045406,-0.78,NaN,0,-0.5754699,0,-22
54357,33072405,0,0,0,0.2217716,0,-1.052847,-0.38,NaN,0,-0.5824003,0,-22
54763,33173923,0,0,0,0.2217716,0,-1.054637,-0.48,NaN,0,-0.5841901,0,-22
55178,33275614,0,0,0,0.2217716,0,-1.055274,-0.27,NaN,0,-0.5843089,0,-22
55587,33376795,0,0,0,0.2217716,0,-1.05105,-0.35,NaN,0,-0.5800841,0,-22
55973,33477392,0,0,0,0.2217716,0,-1.045258,-0.48,NaN,0,-0.5735068,0,-21
56382,33580934,0,0,0,0.2217716,0,-1.039118,-0.59,NaN,0,-0.5673662,0,-21
56792,33683342,0,0,0,0.2217716,0,-1.034122,-0.63,NaN,0,-0.5625386999999999,0,-22
57206,33786623,0,0,0,0.2217716,0,-1.028997,-0.71,NaN,0,-0.5574133999999999,0,-20
57619,33889185,0,0,0,0.2217716,0,-1.031446,-0.76,NaN,0,-0.5576732,0,-21
58030,33991233,0,0,0,0.2217716,0,-1.031637,-0.6,NaN,0,-0.5578641,0,-21
58412,34092817,0,0,0,0.2217716,0,-1.03417,-0.8,NaN,0,-0.5601218,0,-21
58821,34194580,0,0,0,0.2217716,0,-1.037371,-0.8100000000000001,NaN,0,-0.5633227,0,-20
59238,34296678,0,0,0,0.2217716,0,-1.044875,-0.8,NaN,0,-0.5687979,0,-21
59645,34397861,0,0,0,0.2217716,0,-1.053749,-1,NaN,0,-0.5776716,0,-21
60058,34499771,0,0,0,0.2217716,0,-1.065567,-0.77,NaN,0,-0.5851102,0,-21
60468,34601626,0,0,0,0.2217716,0,-1.07771,-0.78,NaN,0,-0.5972534,0,-21
60849,34703634,0,0,0,0.2217716,0,-1.087231,-0.96,NaN,0,-0.6032346,0,-21
61257,34804518,0,0,0,0.2217716,0,-1.09937,-0.64,NaN,0,-0.6153734,0,-21
61666,34906471,0,0,0,0.2217716,0,-1.109646,-0.71,NaN,0,-0.6204307999999999,0,-21
62074,35006991,0,0,0,0.2217716,0,-1.117484,-0.93,NaN,0,-0.6282693,0,-21
62484,35109640,0,0,0,0.2217716,0,-1.125094,-0.49,NaN,0,-0.6317362,0,-21
62892,35211152,0,0,0,0.2217716,0,-1.13004,-1,NaN,0,-0.6366822,0,-21
63277,35313800,0,0,0,0.2217716,0,-1.137183,-0.97,NaN,0,-0.6394463,0,-21
63686,35414667,0,0,0,0.2217716,0,-1.145162,-1.14,NaN,0,-0.6474251,0,-21
64097,35516312,0,0,0,0.2217716,0,-1.158622,-1.11,NaN,0,-0.6556589,0,-21
64504,35617719,0,0,0,0.2217716,0,-1.174553,-1.18,NaN,0,-0.6715894,0,-21
64908,35719768,0,0,0,0.2217716,0,-1.191813,-0.9,NaN,0,-0.6838753,0,-20
65286,35820363,0,0,0,0.2217716,0,-1.208392,-0.77,NaN,0,-0.7004543,0,-21
65687,35922915,0,0,0,0.2217716,0,-1.218922,-0.59,NaN,0,-0.7065898,0,-20
66082,36023387,0,0,0,0.2217716,0,-1.225643,-0.93,NaN,0,-0.7133111,0,-19
66461,36124021,0,0,0,0.2217716,0,-1.231696,-0.83,NaN,0,-0.7141457,0,-20
66863,36224566,0,0,0,0.2217716,0,-1.237087,-0.48,NaN,0,-0.7195361,0,-21
67267,36325577,0,0,0,0.2217716,0,-1.23727,-0.61,NaN,0,-0.7145767,0,-21
67674,36427717,0,0,0,0.2217716,0,-1.230679,-0.87,NaN,0,-0.7079865,0,-20
68058,36528179,0,0,0,0.2217716,0,-1.22791,-0.9399999999999999,NaN,0,-0.6981525,0,-20
68459,36629204,0,0,0,0.2217716,0,-1.227889,-0.53,NaN,0,-0.6981309999999999,0,-19
68868,36729562,0,0,0,0.2217716,0,-1.22485,-0.82,NaN,0,-0.689706,0,-19
69273,36830601,0,0,0,0.2217716,0,-1.222346,-0.58,NaN,0,-0.687202,0,-18
69680,36932929,0,0,0,0.2217716,0,-1.215532,-1.34,NaN,0,-0.6766799,0,-18
70085,37033613,0,0,0,0.2217716,0,-1.217859,-1.18,NaN,0,-0.6790072,0,-18
70488,37135327,0,0,0,0.2217716,0,-1.225648,-1.08,NaN,0,-0.682913,0,-18
70863,37237183,0,0,0,0.2217716,0,-1.234002,-1.18,NaN,0,-0.6912672,0,-16
71269,37338606,0,0,0,0.2217716,0,-1.246064,-0.82,NaN,0,-0.7002234000000001,0,-16
71671,37439781,0,0,0,0.2217716,0,-1.255469,-1.02,NaN,0,-0.7096283,0,-11
72076,37540425,0,0,0,0.2217716,0,-1.257327,-1.08,NaN,0,-0.7060921999999999,0,-6
72477,37641149,0,0,0,0.2217716,0,-1.25215,-0.85,NaN,0,-0.7009159,0,-2
72884,37743189,0,0,0,0.2217716,0,-1.233764,-0.68,NaN,0,-0.6778604,0,16
73289,37845058,0,0,0,0.2217716,0,-1.185761,-0.8100000000000001,NaN,0,-0.6226323,0,47
73665,37947187,0,0,0,0.2217716,0,-1.105343,-0.55,NaN,0,-0.5422145,0,75
74073,38048577,0,0,0,0.2217716,0,-0.9973563,-0.59,NaN,0,-0.4252021,0,94
74476,38149767,0,0,0,0.2217716,0,-0.8719208000000001,-0.32,NaN,0,-0.2997666,0,110
74887,38251144,0,0,0,0.2217716,0,-0.7333828,-0.36,NaN,0,-0.1561855,0,110
75291,38352644,0,0,0,0.2217716,0,-0.6026605,0.07000000000000001,NaN,0,-0.02546328,0,100
75696,38455383,0,0,0,0.2217716,0,-0.4844424,0.16,NaN,0,0.09392217,0,80
76101,38557063,0,0,0,0.2217716,0,-0.3868184,0.5600000000000001,NaN,0,0.1915462,0,51
76507,38658376,0,0,0,0.2217716,0,-0.3102468,0.65,NaN,0,0.2593897,0,34
76913,38759424,0,0,0,0.2217716,0,-0.2430428,0.58,NaN,0,0.3265938,0,23
77318,38860954,0,0,0,0.2217716,0,-0.1816834,0.48,NaN,0,0.3762725,0,20
77723,38961338,0,0,0,0.2217716,0,-0.1264158,0.59,NaN,0,0.4315401,0,16
78126,39061601,0,0,0,0.2217716,0,-0.07544562,0.63,NaN,0,0.4666412,0,11
78533,39161596,0,0,0,0.2217716,0,-0.03707847,0.64,NaN,0,0.5050083,0,-6
78944,39262686,0,0,0,0.2217716,0,-0.01449068,0.42,NaN,0,0.5029608,0,-18
79348,39363984,0,0,0,0.2217716,0,-0.006152931,0.4,NaN,0,0.5112985,0,-27
79756,39464941,0,0,0,0.2217716,0,-0.003665638,0.8,NaN,0,0.4832911,0,-27
80157,39565007,0,0,0,0.2217716,0,0.004854171,0.71,NaN,0,0.4918109,0,-7
80562,39665050,0,0,0,0.2217716,0,0.04502941,0.6899999999999999,NaN,0,0.5099372,0,15
80966,39766537,0,0,0,0.2217716,0,0.06155566,0.59,NaN,0,0.6054832,0,11
81344,39867449,0,0,0,0.2217716,0,0.06155566,0.65,NaN,0,0.6494224,0,6
81749,39968959,0,0,0,0.2217716,0,0.06155566,0.62,NaN,0,0.623991,0,15
82152,40069193,0,0,0,0.2217716,0,0.06155566,0.51,NaN,0,0.4871661,0,25
82557,40170555,0,0,0,0.2217716,0,0.06155566,0.54,NaN,0,0.518249,0,22
82960,40270712,0,0,0,0.2217716,0,0.06155566,0.74,NaN,0,0.6963636,0,17
83366,40371717,0,0,0,0.2217716,0,0.06155566,0.91,NaN,0,0.863081,0,1
83775,40472631,0,0,0,0.2217716,0,0.06155566,0.61,NaN,0,0.540328,0,-16
84154,40572999,0,0,0,0.2217716,0,0.06155566,0.6,NaN,0,0.5318509,0,-15
84559,40673529,0,0,0,0.2217716,0,0.06155566,0.6899999999999999,NaN,0,0.6021018,0,-2
84962,40773595,0,0,0,0.2217716,0,0.06155566,0.74,NaN,0,0.6557904,0,15
85371,40874416,0,0,0,0.2217716,0,0.06155566,0.7,NaN,0,0.588304,0,8
85744,40975739,0,0,0,0.2217716,0,0.06155566,0.59,NaN,0,0.4781009,0,-5
86151,41076735,0,0,0,0.2217716,0,0.06155566,0.64,NaN,0,0.49207,0,-7
86553,41177238,0,0,0,0.2217716,0,0.06155566,0.36,NaN,0,0.2179753,0,1
86928,41277901,0,0,0,0.2217716,0,0.06155566,0.67,NaN,0,0.495339,0,11
87332,41378729,0,0,0,0.2217716,0,0.06155566,0.55,NaN,0,0.3710074,0,8
87737,41478265,0,0,0,0.2217716,0,0.06155566,0.63,NaN,0,0.4286288,0,-4
88146,41579195,0,0,0,0.2217716,0,0.5372898,0.51,NaN,0,0.7773060000000001,0,-22
88551,41679062,0,0,0,0.2217716,0,0.526823,0.48,NaN,0,0.7384501999999999,0,-11
88956,41781032,0,0,0,0.2217716,0,0.5341768,0.54,NaN,0,0.745804,0,12
89331,41883379,0,0,0,0.2217716,0,0.5635595,0.57,NaN,0,0.7429448,0,30
89736,41985415,0,0,0,0.2217716,0,0.5985473,0.55,NaN,0,0.7779328,0,20
90146,42086048,0,0,0,0.2217716,0,0.6159989,0.57,NaN,0,0.7659653,0,5
90551,42187272,0,0,0,0.2217716,0,0.6281609,0.84,NaN,0,0.7781273,0,12
90955,42287808,0,0,0,0.2217716,0,0.6564863,0.31,NaN,0,0.7721052,0,23
91356,42387751,0,0,0,0.2217716,0,0.6839353,0.45,NaN,0,0.7995542,0,24
91735,42489229,0,0,0,0.2217716,0,0.7043258999999999,0.33,NaN,0,0.7868255,0,28
92138,42589928,0,0,0,0.2217716,0,0.7130074,0.25,NaN,0,0.7955072,0,9
92547,42690754,0,0,0,0.2217716,0,0.6888974,0.54,NaN,0,0.7468305,0,-10
92948,42791822,0,0,0,0.2217716,0,0.6593962,0.3,NaN,0,0.7173292999999999,0,3
93326,42892814,0,0,0,0.2217716,0,0.6506658,0.61,NaN,0,0.6798284,0,25
93727,42993031,0,0,0,0.2217716,0,0.6629756999999999,0.59,NaN,0,0.6921383,0,29
94133,43095011,0,0,0,0.2217716,0,0.6736141,0.48,NaN,0,0.6767682,0,13
94540,43196430,0,0,0,0.2217716,0,0.6651840999999999,0.76,NaN,0,0.6683381,0,-2
94943,43297030,0,0,0,0.2217716,0,0.6583934,0.54,NaN,0,0.6292371,0,6
95347,43397074,0,0,0,0.2217716,0,0.6677174,0.37,NaN,0,0.638561,0,17
95750,43497832,0,0,0,0.2217716,0,0.67709,0.44,NaN,0,0.6218106,0,19
96125,43599524,0,0,0,0.2217716,0,0.6762703,0.54,NaN,0,0.6209908,0,9
96532,43702656,0,0,0,0.2217716,0,0.6617334,0.43,NaN,0,0.5808269,0,-10
96940,43804354,0,0,0,0.2217716,0,0.6317196,0.5,NaN,0,0.550813,0,-14
97345,43906016,0,0,0,0.2217716,0,0.6107762,0.4,NaN,0,0.5049062,0,5
97722,44007792,0,0,0,0.2217716,0,0.614997,0.31,NaN,0,0.509127,0,30
98128,44110801,0,0,0,0.2217716,0,0.6309989,0.41,NaN,0,0.4981513,0,30
98531,44211596,0,0,0,0.2217716,0,0.6354794,0.47,NaN,0,0.5026319,0,11
98937,44312592,0,0,0,0.2217716,0,0.6201929,0.58,NaN,0,0.4628016,0,-2
99338,44412195,0,0,0,0.2217716,0,0.611653,0.62,NaN,0,0.4542617,0,7
99742,44512576,0,0,0,0.2217716,0,0.6173644,0.84,NaN,0,0.4292572,0,18
100147,44613996,0,0,0,0.2217716,0,0.6442407,0.47,NaN,0,0.4561335,0,23
100551,44716002,0,0,0,0.2217716,0,0.6627047,0.5600000000000001,NaN,0,0.4476428,0,9
100924,44816968,0,0,0,0.2217716,0,0.6645184,0.67,NaN,0,0.4494565,0,-4
101332,44917535,0,0,0,0.2217716,0,0.6537076000000001,0.66,NaN,0,0.4163144,0,-14
101734,45019505,0,0,0,0.2217716,0,0.6445959,0.55,NaN,0,0.4072028,0,-5
102140,45118815,0,0,0,0.2217716,0,0.6475444,0.57,NaN,0,0.3719203,0,8
102546,45219396,0,0,0,0.2217716,0,0.6591146,0.59,NaN,0,0.3652105,0,14
102951,45321348,0,0,0,0.2217716,0,0.7077889000000001,0.6,NaN,0,0.3996255,0,6
103357,45422963,0,0,0,0.2217716,0,0.730756,0.45,NaN,0,0.4075856,0,-9
103737,45524066,0,0,0,0.2217716,0,0.7318773,0.32,NaN,0,0.3957217,0,-7
104147,45624395,0,0,0,0.2217716,0,0.7299475,0.5,NaN,0,0.3813864,0,0
104552,45724683,0,0,0,0.2217716,0,0.7108629,0.43,NaN,0,0.3518268,0,7
104958,45825279,0,0,0,0.2217716,0,0.6932557,0.31,NaN,0,0.3246827,0,4
105364,45928039,0,0,0,0.2217716,0,0.6615828,0.29,NaN,0,0.2835494,0,-8
105771,46030141,0,0,0,0.2217716,0,0.6197098,0.38,NaN,0,0.230629,0,-21
106148,46131740,0,0,0,0.2217716,0,0.5738319,0.71,NaN,0,0.175634,0,-26
106555,46233970,0,0,0,0.2217716,0,0.5316921,0.36,NaN,0,0.1235378,0,-20
106930,46334978,0,0,0,0.2217716,0,0.4941607,0.35,NaN,0,0.07765221999999999,0,-21
107338,46435794,0,0,0,0.2217716,0,0.4595877,0.36,NaN,0,0.03564817,0,-18
107742,46536739,0,0,0,0.2217716,0,0.4368612,-0.02,NaN,0,0.006909728,0,-12
108148,46637972,0,0,0,0.2217716,0,0.4112552,0.08,NaN,0,-0.02478451,0,-12
108528,46737527,0,0,0,0.2217716,0,0.377998,0.39,NaN,0,-0.06295502,0,-13
108935,46838585,0,0,0,0.2217716,0,0.3506669,0.11,NaN,0,-0.09342176000000001,0,-3
109313,46939806,0,0,0,0.2217716,0,0.3226063,0.25,NaN,0,-0.1248851,0,-2
109721,47040986,0,0,0,0.2217716,0,0.2961473,0.09,NaN,0,-0.1543959,0,-13
110126,47141167,0,0,0,0.2217716,0,0.2609667,0.25,NaN,0,-0.1936429,0,-20
110533,47241604,0,0,0,0.2217716,0,0.2324462,-0.01,NaN,0,-0.2233537,0,-12
110908,47343568,0,0,0,0.2217716,0,0.2152027,-0.02,NaN,0,-0.2437329,0,-7
111311,47443915,0,0,0,0.2217716,0,0.2067602,-0.01,NaN,0,-0.2552195,0,-2
111719,47544720,0,0,0,0.2217716,0,0.1961869,0.42,NaN,0,-0.2690276,0,-8
112128,47648039,0,0,0,0.2217716,0,0.1939399,-0.09,NaN,0,-0.2748604,0,3
112537,47750641,0,0,0,0.2217716,0,0.1924893,0.1,NaN,0,-0.27979,0,-1
112940,47852091,0,0,0,0.2217716,0,0.1855203,-0.1,NaN,0,-0.2879568,0,-9
113350,47952824,0,0,0,0.2217716,0,0.1816752,-0.2,NaN,0,-0.2949377,0,1
113751,48055520,0,0,0,0.2217716,0,0.171548,0.13,NaN,0,-0.3059041,0,-7
114160,48155772,0,0,0,0.2217716,0,0.1700703,0.05,NaN,0,-0.3099987,0,-1
114560,48258040,0,0,0,0.2217716,0,0.1674495,0.48,NaN,0,-0.3153279,0,0
114967,48360151,0,0,0,0.2217716,0,0.1656333,0.37,NaN,0,-0.3201119,0,-3
115340,48461164,0,0,0,0.2217716,0,0.1663803,0.14,NaN,0,-0.3205475,0,-3
115748,48563637,0,0,0,0.2217716,0,0.1686053,0.27,NaN,0,-0.3201001,0,-6
115833,107820644,0,0,0,0.2217716,0,0.3939451,0.36,NaN,0,0.003945107,0,0
116276,107923670,0,0,0,0.2217716,0,0.3941487,0.43,NaN,0,0.004148746,0,0
116729,108025997,0,0,0,0.2217716,0,0.394481,0.44,NaN,0,0.004297907,0,0
117178,108127554,0,0,0,0.2217716,0,0.3979777,0.43,NaN,0,0.007794673,0,0
117629,108230034,0,0,0,0.2217716,0,0.4012574,0.35,NaN,0,0.01107433,0,1
118045,108332135,0,0,0,0.2217716,0,0.4043919,0.05,NaN,0,0.0139341,0,1
118492,108433683,0,0,0,0.2217716,0,0.4061728,0.44,NaN,0,0.01571503,0,1
118908,108536052,0,0,0,0.2217716,0,0.4071202,0.51,NaN,0,0.01666244,0,1
119363,108637951,0,0,0,0.2217716,0,0.4084248,0.31,NaN,0,0.01779919,0,1
119812,108741535,0,0,0,0.2217716,0,0.4083733,0.4,NaN,0,0.01774769,0,1
120230,108843988,0,0,0,0.2217716,0,0.4086266,0.26,NaN,0,0.01781788,0,1
120648,108947556,0,0,0,0.2217716,0,0.4100735,0.46,NaN,0,0.01926481,0,1
121098,109049698,0,0,0,0.2217716,0,0.411841,0.36,NaN,0,0.02178001,0,1
121552,109151712,0,0,0,0.2217716,0,0.4147377,0.54,NaN,0,0.0246767,0,1
122000,109252921,0,0,0,0.2217716,0,0.4188012,0.53,NaN,0,0.02848079,0,1
122449,109355589,0,0,0,0.2217716,0,0.4250892,0.06,NaN,0,0.03476881,0,1
122897,109457579,0,0,0,0.2217716,0,0.4297486,0.44,NaN,0,0.03942817,0,2
123352,109559417,0,0,0,0.2217716,0,0.4331469,0.51,NaN,0,0.04264336,0,2
123798,109660996,0,0,0,0.2217716,0,0.4379185,0.43,NaN,0,0.04741498,0,2
124251,109763007,0,0,0,0.2217716,0,0.4456146,0.22,NaN,0,0.0551111,0,2
124700,109865766,0,0,0,0.2217716,0,0.4519173,0.36,NaN,0,0.06124597,0,2
125154,109967800,0,0,0,0.2217716,0,0.4578072,0.18,NaN,0,0.06713577,0,3
125572,110068958,0,0,0,0.2217716,0,0.4617724,0.26,NaN,0,0.07110105999999999,0,3
126029,110170050,0,0,0,0.2217716,0,0.4639875,0.46,NaN,0,0.07313306999999999,0,3
126479,110272972,0,0,0,0.2217716,0,0.4664257,0.47,NaN,0,0.07557120000000001,0,3
126933,110375769,0,0,0,0.2217716,0,0.4705544,0.33,NaN,0,0.07988309,0,3
127381,110478501,0,0,0,0.2217716,0,0.4740938,0.3,NaN,0,0.08342241,0,3
127835,110580350,0,0,0,0.2217716,0,0.4770195,0.66,NaN,0,0.08616500000000001,0,3
128583,110784027,0,0,0,0.2217716,0,0.4803452,0.47,NaN,0,0.08949079,0,3
129031,110887971,0,0,0,0.2217716,0,0.481511,0.57,NaN,0,0.09047344,0,2
129484,110990538,0,0,0,0.2217716,0,0.4839212,0.48,NaN,0,0.09288367,0,2
129936,111094046,0,0,0,0.2217716,0,0.4871989,0.73,NaN,0,0.09616136,0,3
130359,111197619,0,0,0,0.2217716,0,0.4914033,0.59,NaN,0,0.1001064,0,3
130805,111300686,0,0,0,0.2217716,0,0.4969662,0.61,NaN,0,0.1056692,0,3
131258,111404360,0,0,0,0.2217716,0,0.5035733999999999,0.59,NaN,0,0.1121849,0,2
131708,111506023,0,0,0,0.2217716,0,0.5100664,0.3,NaN,0,0.1186779,0,3
132160,111608945,0,0,0,0.2217716,0,0.5157541,0.44,NaN,0,0.1243656,0,3
132609,111711671,0,0,0,0.2217716,0,0.5201387,0.46,NaN,0,0.1285671,0,3
133063,111813639,0,0,0,0.2217716,0,0.5237748,0.49,NaN,0,0.1322032,0,2
133509,111920000,0,0,0,0.2217716,0,0.5270556,0.46,NaN,0,0.1353161,0,3
133964,112021483,0,0,0,0.2217716,0,0.5298498,0.47,NaN,0,0.1381103,0,2
134381,112123982,0,0,0,0.2217716,0,0.5313849,0.4,NaN,0,0.1396455,0,3
134836,112225449,0,0,0,0.2217716,0,0.5325239,0.53,NaN,0,0.1407844,0,4
135252,112328765,0,0,0,0.2217716,0,0.536081,0.63,NaN,0,0.1443415,0,3
135704,112430078,0,0,0,0.2217716,0,0.5402493,0.41,NaN,0,0.1485098,0,2
136155,112532168,0,0,0,0.2217716,0,0.5453648,0.5,NaN,0,0.1536253,0,3
136608,112633034,0,0,0,0.2217716,0,0.5498523,0.6899999999999999,NaN,0,0.1581128,0,3
137057,112736453,0,0,0,0.2217716,0,0.5527892,0.26,NaN,0,0.1610497,0,3
137508,112840039,0,0,0,0.2217716,0,0.5550798,0.46,NaN,0,0.1630656,0,4
137958,112941138,0,0,0,0.2217716,0,0.5566232,0.2,NaN,0,0.164609,0,3
138413,113041786,0,0,0,0.2217716,0,0.5578793,0.72,NaN,0,0.1658652,0,3
138831,113144807,0,0,0,0.2217716,0,0.5577089,0.53,NaN,0,0.1656947,0,3
139246,113247726,0,0,0,0.2217716,0,0.5576056,0.43,NaN,0,0.1654083,0,4
139656,113349904,0,0,0,0.2217716,0,0.5543731,0.8,NaN,0,0.1621759,0,3
140066,113452192,0,0,0,0.2217716,0,0.5554785,0.74,NaN,0,0.1632813,0,3
140481,113554728,0,0,0,0.2217716,0,0.5601994,0.71,NaN,0,0.1678343,0,3
140890,113656766,0,0,0,0.2217716,0,0.5665439,0.35,NaN,0,0.1741788,0,3
141303,113758785,0,0,0,0.2217716,0,0.5674908,0.48,NaN,0,0.1751257,0,3
141684,113860382,0,0,0,0.2217716,0,0.5658795,0.5,NaN,0,0.1735144,0,2
142097,113961625,0,0,0,0.2217716,0,0.5617155,0.51,NaN,0,0.1692588,0,2
142508,114064081,0,0,0,0.2217716,0,0.5574566,0.46,NaN,0,0.165,0,2
142923,114165321,0,0,0,0.2217716,0,0.5507486,0.34,NaN,0,0.1580326,0,2
143304,114266178,0,0,0,0.2217716,0,0.544226,0.36,NaN,0,0.1515099,0,1
143716,114368020,0,0,0,0.2217716,0,0.5363123,0.55,NaN,0,0.1434132,0,1
144120,114469608,0,0,0,0.2217716,0,0.530739,0.48,NaN,0,0.1386791,0,1
144536,114572549,0,0,0,0.2217716,0,0.5261224,0.36,NaN,0,0.1340625,0,1
144916,114674271,0,0,0,0.2217716,0,0.5221901,0.41,NaN,0,0.1299623,0,1
145329,114774938,0,0,0,0.2217716,0,0.5186453,0.35,NaN,0,0.1264176,0,1
145711,114878935,0,0,0,0.2217716,0,0.5136617999999999,0.35,NaN,0,0.121434,0,1
146125,114980741,0,0,0,0.2217716,0,0.5082383,0.37,NaN,0,0.1160105,0,1
146535,115083308,0,0,0,0.2217716,0,0.5032192,0.61,NaN,0,0.1126699,0,0
146949,115185570,0,0,0,0.2217716,0,0.5000402,0.25,NaN,0,0.1094909,0,0
147359,115289668,0,0,0,0.2217716,0,0.4954532,0.4,NaN,0,0.1047208,0,0
147745,115391647,0,0,0,0.2217716,0,0.4905342,0.33,NaN,0,0.09980182999999999,0,0
148154,115494188,0,0,0,0.2217716,0,0.4855389,0.22,NaN,0,0.09566104,0,0
148569,115597703,0,0,0,0.2217716,0,0.4785338,0.41,NaN,0,0.08865588000000001,0,0
148981,115699935,0,0,0,0.2217716,0,0.4729933,0.4,NaN,0,0.08311536,0,0
149393,115803152,0,0,0,0.2217716,0,0.4685938,0.5,NaN,0,0.07871591,0,0
149802,115906178,0,0,0,0.2217716,0,0.4667042,0.44,NaN,0,0.07833695,0,0
150217,116008448,0,0,0,0.2217716,0,0.4663415,-0.02,NaN,0,0.07881346,0,0
150628,116112785,0,0,0,0.2217716,0,0.4623212,0.17,NaN,0,0.07479318,0,0
151038,116215819,0,0,0,0.2217716,0,0.4565813,0.51,NaN,0,0.06905327999999999,0,0
151449,116319990,0,0,0,0.2217716,0,0.4527221,0.16,NaN,0,0.06688776,0,0
151862,116423222,0,0,0,0.2217716,0,0.4480809,0.24,NaN,0,0.06224652,0,0
152246,116527945,0,0,0,0.2217716,0,0.4418432,0.51,NaN,0,0.05582576,0,0
152658,116630592,0,0,0,0.2217716,0,0.4381287,0.49,NaN,0,0.05295046,0,0
153067,116733028,0,0,0,0.2217716,0,0.4370358,0.46,NaN,0,0.05269685,0,0
153480,116834186,0,0,0,0.2217716,0,0.4365691,0.35,NaN,0,0.0520623,0,0
153861,116937011,0,0,0,0.2217716,0,0.4367232,0.46,NaN,0,0.05389487,0,0
154277,117038953,0,0,0,0.2217716,0,0.4367148,0.49,NaN,0,0.05474096,0,0
154687,117141523,0,0,0,0.2217716,0,0.437825,0.29,NaN,0,0.05585112,0,0
155095,117244204,0,0,0,0.2217716,0,0.4374847,0.46,NaN,0,0.05532768,0,0
155510,117348324,0,0,0,0.2217716,0,0.4363147,0.44,NaN,0,0.0560193,0,0
155921,117450773,0,0,0,0.2217716,0,0.4357923,0.32,NaN,0,0.05549686,0,0
156334,117553168,0,0,0,0.2217716,0,0.4360229,0.16,NaN,0,0.05572747,0,0
156719,117656019,0,0,0,0.2217716,0,0.4339302,0.5,NaN,0,0.05430623,0,0
157133,117758015,0,0,0,0.2217716,0,0.4332158,0.85,NaN,0,0.05359181,0,0
157541,117860413,0,0,0,0.2217716,0,0.4365937,0.25,NaN,0,0.05866336,0,0
157956,117962522,0,0,0,0.2217716,0,0.4398207,0.15,NaN,0,0.06189042,0,0
158337,118065536,0,0,0,0.2217716,0,0.4400045,0.43,NaN,0,0.06291347,0,0
158751,118167043,0,0,0,0.2217716,0,0.4403622,0.14,NaN,0,0.06412565000000001,0,0
159159,118270103,0,0,0,0.2217716,0,0.4390689,0.26,NaN,0,0.06283232,0,0
159574,118373811,0,0,0,0.2217716,0,0.4364826,0.27,NaN,0,0.06192457,0,0
159984,118477723,0,0,0,0.2217716,0,0.4333675,0.14,NaN,0,0.05880942,0,0
160397,118580789,0,0,0,0.2217716,0,0.4288505,0.38,NaN,0,0.05513164,0,0
160808,118683581,0,0,0,0.2217716,0,0.4251724,0.38,NaN,0,0.05145352,0,0
161220,118785012,0,0,0,0.2217716,0,0.4224498,0.54,NaN,0,0.05025681,0,0
161630,118888802,0,0,0,0.2217716,0,0.4215626,0.42,NaN,0,0.0493696,0,0
162015,118989499,0,0,0,0.2217716,0,0.4216077,0.32,NaN,0,0.05025398,0,0
162424,119092006,0,0,0,0.2217716,0,0.4210393,0.48,NaN,0,0.04968556,0,0
162838,119194206,0,0,0,0.2217716,0,0.4210069,0.14,NaN,0,0.04965317,0,0
163242,119297110,0,0,0,0.2217716,0,0.4186035,0.37,NaN,0,0.04724976,0,0
163656,119400652,0,0,0,0.2217716,0,0.4158319,0.44,NaN,0,0.04615664,0,0
164065,119503624,0,0,0,0.2217716,0,0.4139916,0.17,NaN,0,0.04263788,0,0
164478,119605724,0,0,0,0.2217716,0,0.4110543,0.33,NaN,0,0.03970053,0,0
164888,119707669,0,0,0,0.2217716,0,0.4094251,0.41,NaN,0,0.03788831,0,0
165274,119810321,0,0,0,0.2217716,0,0.4084478,0.2,NaN,0,0.03691097,0,0
165685,119911613,0,0,0,0.2217716,0,0.4074161,0.18,NaN,0,0.03757303,0,0
166072,120013524,0,0,0,0.2217716,0,0.4049374,0.6899999999999999,NaN,0,0.0352621,0,0
166479,120116189,0,0,0,0.2217716,0,0.4056785,0.35,NaN,0,0.03600319,0,0
166865,120217533,0,0,0,0.2217716,0,0.4071867,0.2,NaN,0,0.0375114,0,0
167276,120319903,0,0,0,0.2217716,0,0.4080315,0.33,NaN,0,0.03835618,0,0
167692,120421964,0,0,0,0.2217716,0,0.4080131,0.45,NaN,0,0.03833788,0,0
168076,120524507,0,0,0,0.2217716,0,0.408349,0.28,NaN,0,0.03867372,0,0
168488,120626796,0,0,0,0.2217716,0,0.4078251,0.51,NaN,0,0.03814983,0,0
168898,120728418,0,0,0,0.2217716,0,0.4091726,0.52,NaN,0,0.03949734,0,0
169311,120829826,0,0,0,0.2217716,0,0.4118293,0.4,NaN,0,0.04215404,0,0
169722,120932602,0,0,0,0.2217716,0,0.4128332,0.27,NaN,0,0.04315796,0,0
170135,121034001,0,0,0,0.2217716,0,0.4125252,0.51,NaN,0,0.04284995,0,0
170544,121135985,0,0,0,0.2217716,0,0.4126267,0.41,NaN,0,0.0431345,0,0
170929,121238149,0,0,0,0.2217716,0,0.4129117,0.22,NaN,0,0.04341953,0,0
171338,121338823,0,0,0,0.2217716,0,0.4133423,0.76,NaN,0,0.04385015,0,0
171751,121440048,0,0,0,0.2217716,0,0.4156591,0.45,NaN,0,0.04616698,0,0
172156,121543008,0,0,0,0.2217716,0,0.4195368,0.93,NaN,0,0.05004465,0,0
172570,121644944,0,0,0,0.2217716,0,0.427008,0.46,NaN,0,0.05751579,0,0
172952,121746560,0,0,0,0.2217716,0,0.4329979,0.43,NaN,0,0.06350573,0,0
173359,121849783,0,0,0,0.2217716,0,0.43764,0.65,NaN,0,0.06831571,0,0
173775,121951178,0,0,0,0.2217716,0,0.4433438,0.43,NaN,0,0.07401942,0,0
174184,122052803,0,0,0,0.2217716,0,0.4483053,0.1,NaN,0,0.07898094999999999,0,1
174596,122153527,0,0,0,0.2217716,0,0.4494151,0.46,NaN,0,0.08009081,0,1
175005,122255808,0,0,0,0.2217716,0,0.4494388,0.39,NaN,0,0.08011445,0,1
175417,122357526,0,0,0,0.2217716,0,0.4493358,0.29,NaN,0,0.08001145,0,1
175802,122458734,0,0,0,0.2217716,0,0.4480069,0.27,NaN,0,0.07868256,0,0
176215,122562276,0,0,0,0.2217716,0,0.4456458,0.22,NaN,0,0.07632151,0,0
176624,122664953,0,0,0,0.2217716,0,0.4421672,0.4,NaN,0,0.07369732,0,0
177037,122765725,0,0,0,0.2217716,0,0.4378722,0.13,NaN,0,0.06940238999999999,0,0
177448,122869028,0,0,0,0.2217716,0,0.4338728,0.25,NaN,0,0.06540292,0,0
177863,122970410,0,0,0,0.2217716,0,0.4303729,0.55,NaN,0,0.06190308,0,0
178272,123071746,0,0,0,0.2217716,0,0.4286386,0.2,NaN,0,0.06100803,0,0
178686,123172986,0,0,0,0.2217716,0,0.4266384,0.55,NaN,0,0.05900776,0,0
179067,123274812,0,0,0,0.2217716,0,0.4254143,0.36,NaN,0,0.05778366,0,0
179479,123376723,0,0,0,0.2217716,0,0.4249142,0.38,NaN,0,0.05728357,0,0
179891,123479983,0,0,0,0.2217716,0,0.424741,0.47,NaN,0,0.05878883,0,0
180305,123582684,0,0,0,0.2217716,0,0.4256185,0.34,NaN,0,0.05966642,0,0
180712,123684918,0,0,0,0.2217716,0,0.4262336,0.63,NaN,0,0.06113597,0,0
181125,123785809,0,0,0,0.2217716,0,0.4286099,0.02,NaN,0,0.06351226,0,0
181534,123890359,0,0,0,0.2217716,0,0.4286067,0.52,NaN,0,0.06518754,0,0
181951,123992195,0,0,0,0.2217716,0,0.4288217,0.19,NaN,0,0.06523474,0,0
182360,124093741,0,0,0,0.2217716,0,0.4279499,0.59,NaN,0,0.06520214000000001,0,0
182774,124196130,0,0,0,0.2217716,0,0.4285182,0.75,NaN,0,0.06577038,0,0
183182,124298388,0,0,0,0.2217716,0,0.4324657,0.14,NaN,0,0.07132005,0,0
183597,124401192,0,0,0,0.2217716,0,0.4351906,0.31,NaN,0,0.07404497,0,0
184007,124505523,0,0,0,0.2217716,0,0.4347277,0.52,NaN,0,0.07358211000000001,0,0
184420,124607518,0,0,0,0.2217716,0,0.4345417,0.22,NaN,0,0.07339611,0,0
184801,124709411,0,0,0,0.2217716,0,0.4331824,0.2,NaN,0,0.072876,0,0
185214,124811745,0,0,0,0.2217716,0,0.4301428,0.45,NaN,0,0.06983643,0,0
185626,124915177,0,0,0,0.2217716,0,0.426831,0.38,NaN,0,0.06719600000000001,0,0
186040,125015764,0,0,0,0.2217716,0,0.4246087,0.38,NaN,0,0.0649737,0,0
186448,125118040,0,0,0,0.2217716,0,0.4243738,0.37,NaN,0,0.06643253,0,0
186861,125219514,0,0,0,0.2217716,0,0.4243534,0.36,NaN,0,0.06641208,0,0
187243,125323571,0,0,0,0.2217716,0,0.4240929,0.25,NaN,0,0.06699084,0,0
187659,125425664,0,0,0,0.2217716,0,0.4227629,0.06,NaN,0,0.06735463999999999,0,0
188072,125528613,0,0,0,0.2217716,0,0.4177535,0.36,NaN,0,0.06234526,0,0
188485,125630242,0,0,0,0.2217716,0,0.4132891,0.59,NaN,0,0.05788081,0,0
188864,125731999,0,0,0,0.2217716,0,0.4110643,0.29,NaN,0,0.05649518,0,0
189278,125834683,0,0,0,0.2217716,0,0.4094083,0.35,NaN,0,0.05483922,0,0
189693,125938005,0,0,0,0.2217716,0,0.4090487,0.43,NaN,0,0.05531882,0,0
190105,126040726,0,0,0,0.2217716,0,0.4091803,-0.1,NaN,0,0.0554504,0,0
190513,126143173,0,0,0,0.2217716,0,0.4042188,0.05,NaN,0,0.05199959,0,0
190926,126246202,0,0,0,0.2217716,0,0.3965099,-0.01,NaN,0,0.04429071,0,0
191338,126347949,0,0,0,0.2217716,0,0.3887601,0.16,NaN,0,0.03739541,0,0
191748,126451942,0,0,0,0.2217716,0,0.3795153,0.12,NaN,0,0.02796748,0,0
192160,126552146,0,0,0,0.2217716,0,0.3735278,0.34,NaN,0,0.02365842,0,0
192542,126654807,0,0,0,0.2217716,0,0.3679245,0.18,NaN,0,0.01805514,0,0
192954,126755832,0,0,0,0.2217716,0,0.3631353,-0.15,NaN,0,0.01412045,0,0
193683,126962685,0,0,0,0.2217716,0,0.3421754,0.3,NaN,0,-0.005160965,0,0
194095,127064519,0,0,0,0.2217716,0,0.3323703,0.4,NaN,0,-0.01411159,0,0
194509,127166466,0,0,0,0.2217716,0,0.327101,0.03,NaN,0,-0.01938093,0,-1
194888,127268597,0,0,0,0.2217716,0,0.3209121,0.12,NaN,0,-0.02473057,0,-1
195301,127370911,0,0,0,0.2217716,0,0.3167222,0.01,NaN,0,-0.02892045,0,-1
195712,127472162,0,0,0,0.2217716,0,0.3115408,0.02,NaN,0,-0.03268281,0,-1
196127,127573710,0,0,0,0.2217716,0,0.3060999,0.1,NaN,0,-0.03812373,0,-1
196534,127677195,0,0,0,0.2217716,0,0.2999305,0.31,NaN,0,-0.04345385,0,0
196919,127779666,0,0,0,0.2217716,0,0.2962223,0.12,NaN,0,-0.04716212,0,0
197330,127882233,0,0,0,0.2217716,0,0.2928842,0.15,NaN,0,-0.0488065,0,0
197743,127984135,0,0,0,0.2217716,0,0.2907734,-0.03,NaN,0,-0.05007801,0,0
198153,128087994,0,0,0,0.2217716,0,0.2861718,0.38,NaN,0,-0.05316905,0,0
198406,173878246,0,0,0,0.2217716,0,-0.5930260000000001,-0.5,NaN,0,0.006973945,0,2
198824,173978979,0,0,0,0.2217716,0,-0.5933592,-0.46,NaN,0,0.006640755,0,2
199241,174080655,0,0,0,0.2217716,0,-0.592077,-0.7,NaN,0,0.00792297,0,2
199695,174181604,0,0,0,0.2217716,0,-0.5895661,-0.82,NaN,0,0.01027366,0,2
200111,174283214,0,0,0,0.2217716,0,-0.5879008,-0.46,NaN,0,0.01193895,0,2
200563,174384023,0,0,0,0.2217716,0,-0.5863013,-0.49,NaN,0,0.01337823,0,2
201015,174486780,0,0,0,0.2217716,0,-0.5845561,-0.51,NaN,0,0.01512345,0,2
201468,174588644,0,0,0,0.2217716,0,-0.5824844,-0.53,NaN,0,0.01719513,0,2
201915,174691609,0,0,0,0.2217716,0,-0.5800925,-0.7,NaN,0,0.01942685,0,2
202370,174794212,0,0,0,0.2217716,0,-0.5778771,-0.42,NaN,0,0.02148201,0,2
202788,174895786,0,0,0,0.2217716,0,-0.5757748,-0.53,NaN,0,0.02358427,0,2
203209,174997725,0,0,0,0.2217716,0,-0.5735649,-0.5,NaN,0,0.02563395,0,2
203657,175100686,0,0,0,0.2217716,0,-0.5717761,-0.79,NaN,0,0.02742281,0,2
204110,175202205,0,0,0,0.2217716,0,-0.5705782,-0.71,NaN,0,0.02846809,0,2
204523,175303674,0,0,0,0.2217716,0,-0.5705924,-0.16,NaN,0,0.02845391,0,2
204978,175404171,0,0,0,0.2217716,0,-0.5695872,-0.07000000000000001,NaN,0,0.02945908,0,2
205426,175508388,0,0,0,0.2217716,0,-0.5677353000000001,-0.37,NaN,0,0.03115078,0,2
205878,175608944,0,0,0,0.2217716,0,-0.5653319,-0.51,NaN,0,0.03355422,0,2
206295,175709918,0,0,0,0.2217716,0,-0.5641257,-0.52,NaN,0,0.03476044,0,2
206749,175811264,0,0,0,0.2217716,0,-0.5628784,-0.43,NaN,0,0.03584751,0,2
207200,175914940,0,0,0,0.2217716,0,-0.5615458,-0.43,NaN,0,0.03694352,0,2
207653,176015621,0,0,0,0.2217716,0,-0.5596596,-0.24,NaN,0,0.03882977,0,2
208103,176115800,0,0,0,0.2217716,0,-0.5580195,-0.43,NaN,0,0.04030969,0,2
208555,176217621,0,0,0,0.2217716,0,-0.5559242,-0.5,NaN,0,0.04240497,0,2
208971,176319647,0,0,0,0.2217716,0,-0.5540192,-0.4,NaN,0,0.04430994,0,2
209420,176420926,0,0,0,0.2217716,0,-0.5516495,-0.28,NaN,0,0.04667964,0,2
209718,176523019,0,0,0,0.2217716,0,-0.5488518,-0.57,NaN,0,0.04940107,0,3
210171,176624039,0,0,0,0.2217716,0,-0.5458941,-0.25,NaN,0,0.05151185,0,2
210620,176726540,0,0,0,0.2217716,0,-0.5426177,-0.55,NaN,0,0.05478831,0,2
211076,176829031,0,0,0,0.2217716,0,-0.5392362000000001,-0.22,NaN,0,0.05800959,0,3
211525,176931194,0,0,0,0.2217716,0,-0.5352097,-0.31,NaN,0,0.06203612,0,3
211980,177032567,0,0,0,0.2217716,0,-0.5304835,-0.01,NaN,0,0.06652578000000001,0,3
212430,177134202,0,0,0,0.2217716,0,-0.5242864,-0.26,NaN,0,0.07272281,0,3
212883,177236000,0,0,0,0.2217716,0,-0.5174955999999999,-0.41,NaN,0,0.0778276,0,3
213300,177337199,0,0,0,0.2217716,0,-0.5122938,-0.48,NaN,0,0.08286913,0,3
213751,177439221,0,0,0,0.2217716,0,-0.5073913,-0.45,NaN,0,0.08777161999999999,0,4
214170,177541754,0,0,0,0.2217716,0,-0.5042465,-0.38,NaN,0,0.09091647999999999,0,3
214624,177642144,0,0,0,0.2217716,0,-0.5008402,-0.19,NaN,0,0.09349116,0,3
215073,177743208,0,0,0,0.2217716,0,-0.49912,-0.63,NaN,0,0.09521132,0,3
215493,177844951,0,0,0,0.2217716,0,-0.4968639,-0.63,NaN,0,0.09730722999999999,0,3
215946,177947162,0,0,0,0.2217716,0,-0.494051,-0.98,NaN,0,0.1001201,0,4
216399,178050803,0,0,0,0.2217716,0,-0.4924727,-0.8,NaN,0,0.1016984,0,2
216853,178153394,0,0,0,0.2217716,0,-0.4919293,-0.72,NaN,0,0.1020816,0,3
217307,178258548,0,0,0,0.2217716,-0.4913028,-0.4913028,-1.03,NaN,0,0.1010221,4,4
217761,178360938,0,0,0,0.2217716,-0.4940906,-0.4940906,-0.9,NaN,0,0.09808164,3,3
218211,178463208,0,0,0,0.2217716,-0.4960395,-0.4960395,-1.09,NaN,0,0.09613275,3,3
218660,178565535,0,0,0,0.2217716,-0.4977314,-0.4977314,-0.84,NaN,0,0.09428062,2,2
219111,178668805,0,0,0,0.2217716,-0.500244,-0.500244,-0.92,NaN,0,0.09176798999999999,3,3
219562,178770969,0,0,0,0.2217716,-0.5030378,-0.5030378,-0.57,NaN,0,0.08881398,4,4
220009,178874189,0,0,0,0.2217716,-0.5052243,-0.5052243,-0.26,NaN,0,0.08662744999999999,4,4
220431,178975579,0,0,0,0.2217716,-0.5047662000000001,-0.5047662000000001,-0.8100000000000001,NaN,0,0.08692535,4,4
220876,179078940,0,0,0,0.2217716,-0.5042021,-0.5042021,-1.02,NaN,0,0.08748945,3,3
221330,179180492,0,0,0,0.2217716,-0.5047695,-0.5047695,-0.74,NaN,0,0.08692207,2,2
221777,179282619,0,0,0,0.2217716,-0.5062203,-0.5062203,-0.72,NaN,0,0.08531871000000001,3,3
222229,179383635,0,0,0,0.2217716,-0.5072005000000001,-0.5072005000000001,-0.74,NaN,0,0.08433851000000001,3,3
222644,179487258,0,0,0,0.2217716,-0.5077862,-0.5077862,-0.51,NaN,0,0.0835925,4,4
223092,179589739,0,0,0,0.2217716,-0.508856,-0.508856,-0.53,NaN,0,0.08252277,3,3
223539,179692509,0,0,0,0.2217716,-0.5084644,-0.5084644,-0.53,NaN,0,0.08267786000000001,3,3
223994,179793576,0,0,0,0.2217716,-0.5072837,-0.5072837,-0.49,NaN,0,0.08385856999999999,3,3
224410,179897228,0,0,0,0.2217716,-0.5055408,-0.5055408,-0.43,NaN,0,0.08460202,3,3
224865,179998594,0,0,0,0.2217716,-0.5028279,-0.5028279,-0.53,NaN,0,0.08723857,3,3
225313,180100165,0,0,0,0.2217716,-0.5014928,-0.5014928,-0.59,NaN,0,0.08857371999999999,3,3
225763,180202725,0,0,0,0.2217716,-0.5004374,-0.5004374,-0.59,NaN,0,0.08946886,4,4
226175,180305338,0,0,0,0.2217716,-0.4988137,-0.4988137,-0.65,NaN,0,0.09024578,4,4
226629,180406984,0,0,0,0.2217716,-0.4966612,-0.4966612,-0.72,NaN,0,0.09239819000000001,4,4
227049,180509262,0,0,0,0.2217716,-0.4950927,-0.4950927,-0.19,NaN,0,0.09373017,3,3
227504,180611202,0,0,0,0.2217716,-0.4923535,-0.4923535,-0.38,NaN,0,0.09646937,3,3
227952,180713796,0,0,0,0.2217716,-0.489762,-0.489762,-0.44,NaN,0,0.09890069999999999,3,3
228406,180817052,0,0,0,0.2217716,-0.4867702,-0.4867702,-0.55,NaN,0,0.1018925,4,4
228827,180921743,0,0,0,0.2217716,-0.4847403,-0.4847403,-0.47,NaN,0,0.1037698,3,3
229280,181026166,0,0,0,0.2217716,-0.48259,-0.48259,-0.38,NaN,0,0.10592,2,2
229728,181130626,0,0,0,0.2217716,-0.4794423,-0.4794423,-0.58,NaN,0,0.1090678,3,3
230151,181234196,0,0,0,0.2217716,-0.4762071,-0.4762071,-0.01,NaN,0,0.1104567,4,4
230599,181339831,0,0,0,0.2217716,-0.4746929,-0.4746929,-0.44,NaN,0,0.1119709,3,3
231052,181442145,0,0,0,0.2217716,-0.4719117,-0.4719117,-0.58,NaN,0,0.1147521,3,3
231500,181545548,0,0,0,0.2217716,-0.4700806,-0.4700806,-0.45,NaN,0,0.1165832,4,4
231916,181649167,0,0,0,0.2217716,-0.4682906,-0.4682906,-0.78,NaN,0,0.118213,3,3
232369,181754048,0,0,0,0.2217716,-0.4690713,-0.4690713,-0.55,NaN,0,0.116593,3,3
232818,181856829,0,0,0,0.2217716,-0.4694157,-0.4694157,-0.58,NaN,0,0.1162486,3,3
233243,181958662,0,0,0,0.2217716,-0.4699041,-0.4699041,-0.45,NaN,0,0.1140818,3,3
233695,182064590,0,0,0,0.2217716,-0.4690882,-0.4690882,-0.53,NaN,0,0.1148977,2,2
234148,182167699,0,0,0,0.2217716,-0.4691208,-0.4691208,-0.58,NaN,0,0.1140258,3,3
234596,182269930,0,0,0,0.2217716,-0.468669,-0.468669,-0.43,NaN,0,0.1144777,3,3
235047,182371930,0,0,0,0.2217716,-0.4687774,-0.4687774,-0.37,NaN,0,0.114209,3,3
235498,182475989,0,0,0,0.2217716,-0.4688119,-0.4688119,-0.54,NaN,0,0.1141746,1,1
235950,182580534,0,0,0,0.2217716,-0.4696656,-0.4696656,-0.4,NaN,0,0.1116424,2,2
236396,182683578,0,0,0,0.2217716,-0.4690236,-0.4690236,-0.55,NaN,0,0.1122843,3,3
236849,182786545,0,0,0,0.2217716,-0.4680803,-0.4680803,-0.39,NaN,0,0.1132276,2,2
237298,182890494,0,0,0,0.2217716,-0.467209,-0.467209,-0.58,NaN,0,0.114099,1,1
237754,182993056,0,0,0,0.2217716,-0.4663385,-0.4663385,-1.06,NaN,0,0.1141227,2,2
238169,183098541,0,0,0,0.2217716,-0.4669036,-0.4669036,-0.7,NaN,0,0.1135575,3,3
238622,183200696,0,0,0,0.2217716,-0.4672812,-0.4672812,-0.58,NaN,0,0.1131799,2,2
239071,183306427,0,0,0,0.2217716,-0.4662202,-0.4662202,-0.42,NaN,0,0.1142409,2,2
239523,183408926,0,0,0,0.2217716,-0.4635634,-0.4635634,-0.44,NaN,0,0.1160585,3,3
239973,183513546,0,0,0,0.2217716,-0.4631267,-0.4631267,-0.58,NaN,0,0.1163349,2,2
240425,183615727,0,0,0,0.2217716,-0.4632934,-0.4632934,-0.83,NaN,0,0.1161683,2,2
240873,183719365,0,0,0,0.2217716,-0.4648715,-0.4648715,-0.67,NaN,0,0.1145901,3,3
241328,183822569,0,0,0,0.2217716,-0.466443,-0.466443,-0.68,NaN,0,0.1130186,2,2
241747,183927045,0,0,0,0.2217716,-0.4691961,-0.4691961,-0.92,NaN,0,0.1085795,3,3
242202,184033145,0,0,0,0.2217716,-0.478519,-0.478519,-0.84,NaN,0,0.09925654,3,3
242650,184138347,0,0,0,0.2217716,-0.4921475,-0.4921475,-0.67,NaN,0,0.08479647999999999,2,2
243103,184244605,0,0,0,0.2217716,-0.504499,-0.504499,-0.62,NaN,0,0.07244494,2,2
243550,184352538,0,0,0,0.2217716,-0.5138044,-0.5138044,-0.58,NaN,0,0.06313952,2,2
243967,184458722,0,0,0,0.2217716,-0.5206125,-0.5206125,-0.63,NaN,0,0.05464532,2,2
244420,184564782,0,0,0,0.2217716,-0.527214,-0.527214,-0.49,NaN,0,0.04804387,2,2
244868,184669641,0,0,0,0.2217716,-0.5298191,-0.5298191,-0.79,NaN,0,0.04459956,2,2
245321,184774739,0,0,0,0.2217716,-0.5342654999999999,-0.5342654999999999,-0.54,NaN,0,0.04015311,2,2
245770,184879909,0,0,0,0.2217716,-0.5373405,-0.5373405,-0.43,NaN,0,0.0370781,2,2
246225,184986177,0,0,0,0.2217716,-0.537581,-0.537581,-0.54,NaN,0,0.03515913,2,2
246676,185092586,0,0,0,0.2217716,-0.5364225,-0.5364225,-0.5,NaN,0,0.03631767,2,2
247129,185196191,0,0,0,0.2217716,-0.5341706000000001,-0.5341706000000001,-0.8100000000000001,NaN,0,0.03856953,2,2
247547,185301034,0,0,0,0.2217716,-0.5345220000000001,-0.5345220000000001,-0.59,NaN,0,0.03737893,2,2
248001,185404951,0,0,0,0.2217716,-0.5350018,-0.5350018,-0.43,NaN,0,0.03689917,3,3
248416,185511140,0,0,0,0.2217716,-0.5349755,-0.5349755,-0.71,NaN,0,0.0369254,3,3
248869,185616517,0,0,0,0.2217716,-0.5354593,-0.5354593,-0.8,NaN,0,0.03644159,3,3
249316,185723186,0,0,0,0.2217716,-0.5383712,-0.5383712,-0.8100000000000001,NaN,0,0.03268286,3,3
249739,185828141,0,0,0,0.2217716,-0.542825,-0.542825,-1.02,NaN,0,0.02838924,3,3
250189,185932529,0,0,0,0.2217716,-0.5505106,-0.5505106,-1.2,NaN,0,0.02070364,3,3
250641,186034914,0,0,0,0.2217716,-0.561693,-0.561693,-0.9399999999999999,NaN,0,0.009521267999999999,2,2
251093,186143392,0,0,0,0.2217716,-0.5749415,-0.5749415,-0.85,NaN,0,-0.005405642,2,2
251547,186247071,0,0,0,0.2217716,-0.5869645,-0.5869645,-0.98,NaN,0,-0.01726852,2,2
251993,186356684,0,0,0,0.2217716,-0.6032774,-0.6032774,-0.97,NaN,0,-0.03358141,2,2
252444,186460016,0,0,0,0.2217716,-0.6146557,-0.6146557,-0.71,NaN,0,-0.0449597,2,2
252894,186564411,0,0,0,0.2217716,-0.6240714000000001,-0.6240714000000001,-0.53,NaN,0,-0.05522219,2,2
253310,186669792,0,0,0,0.2217716,-0.628267,-0.628267,-0.85,NaN,0,-0.05941782,2,2
253763,186773209,0,0,0,0.2217716,-0.6324682,-0.6324682,-0.92,NaN,0,-0.06529752,2,2
254212,186880023,0,0,0,0.2217716,-0.637007,-0.637007,-0.79,NaN,0,-0.06967608,2,2
254666,186985721,0,0,0,0.2217716,-0.6421171,-0.6421171,-0.98,NaN,0,-0.07562546000000001,2,2
255090,187093162,0,0,0,0.2217716,-0.6475767,-0.6475767,-0.98,NaN,0,0.002423236,2,2
255545,187198574,0,0,0,0.2217716,-0.6527795,-0.6527795,-0.74,NaN,0,-0.002779594,2,2
255994,187302062,0,0,0,0.2217716,-0.6545278,-0.6545278,-0.53,NaN,0,-0.006213894,2,2
256448,187406689,0,0,0,0.2217716,-0.6543599,-0.6543599,-0.9,NaN,0,-0.006045988,2,2
256897,187509497,0,0,0,0.2217716,-0.6520549,-0.6520549,-0.54,NaN,0,-0.00458025,2,2
257349,187613509,0,0,0,0.2217716,-0.6482299,-0.6482299,-0.59,NaN,0,-0.0007552411,2,2
257796,187717543,0,0,0,0.2217716,-0.6442889000000001,-0.6442889000000001,-0.5,NaN,0,0.003025481,3,3
258249,187818379,0,0,0,0.2217716,-0.6400689000000001,-0.6400689000000001,-0.61,NaN,0,0.006406257,3,3
258667,187921804,0,0,0,0.2217716,-0.6351599999999999,-0.6351599999999999,-0.63,NaN,0,0.01131524,3,3
259120,188024144,0,0,0,0.2217716,-0.6300719,-0.6300719,-0.61,NaN,0,0.01640327,3,3
259537,188128414,0,0,0,0.2217716,-0.6248306,-0.6248306,-0.5600000000000001,NaN,0,0.02180482,3,3
259992,188231208,0,0,0,0.2217716,-0.6197307,-0.6197307,-0.41,NaN,0,0.02690477,3,3
260440,188334038,0,0,0,0.2217716,-0.6145213,-0.6145213,-0.84,NaN,0,0.03211416,3,3
260861,188437073,0,0,0,0.2217716,-0.6096268,-0.6096268,-0.74,NaN,0,0.03700865,4,4
261309,188540801,0,0,0,0.2217716,-0.6078124,-0.6078124,-0.45,NaN,0,0.03729714,4,4
261760,188642377,0,0,0,0.2217716,-0.6051617,-0.6051617,-0.53,NaN,0,0.03994782,4,4
262207,188744734,0,0,0,0.2217716,-0.6024954,-0.6024954,-0.8,NaN,0,0.04194272,4,4
262660,188847382,0,0,0,0.2217716,-0.5997757,-0.5997757,-0.77,NaN,0,0.04466242,4,4
263081,188950952,0,0,0,0.2217716,-0.5989286,-0.5989286,-0.57,NaN,0,0.04550952,4,4
263529,189055824,0,0,0,0.2217716,-0.5976288,-0.5976288,-0.59,NaN,0,0.04512323,4,4
263983,189158542,0,0,0,0.2217716,-0.5967396,-0.5967396,-0.75,NaN,0,0.04617269,4,4
264433,189261403,0,0,0,0.2217716,-0.5955263,-0.5955263,-0.6,NaN,0,0.04738594,4,4
264852,189364397,0,0,0,0.2217716,-0.5940328,-0.5940328,-0.64,NaN,0,0.04827673,3,3
265302,189468405,0,0,0,0.2217716,-0.5918715,-0.5918715,-0.64,NaN,0,0.05043805,3,3
265754,189570959,0,0,0,0.2217716,-0.5897452,-0.5897452,-0.84,NaN,0,0.05256439,3,3
266202,189674972,0,0,0,0.2217716,-0.5884387,-0.5884387,-0.35,NaN,0,0.05387086,3,3
266656,189777681,0,0,0,0.2217716,-0.5873100999999999,-0.5873100999999999,-0.72,NaN,0,0.05499948,3,3
267105,189880717,0,0,0,0.2217716,-0.5858696,-0.5858696,-0.2,NaN,0,0.0557533,3,3
267553,189982177,0,0,0,0.2217716,-0.5839321,-0.5839321,-0.5,NaN,0,0.05769081,4,4
268002,190087511,0,0,0,0.2217716,-0.5813194,-0.5813194,-0.41,NaN,0,0.06030352,4,4
268455,190189778,0,0,0,0.2217716,-0.5788031,-0.5788031,-0.42,NaN,0,0.06122524,3,3
268873,190293513,0,0,0,0.2217716,-0.5757613,-0.5757613,-0.18,NaN,0,0.06426705000000001,2,2
269108,190394560,0,0,0,0.2217716,-0.5721512,-0.5721512,-0.33,NaN,0,0.06787712,3,3
269556,190500539,0,0,0,0.2217716,-0.5676264,-0.5676264,-0.47,NaN,0,0.07240201,3,3
270008,190603062,0,0,0,0.2217716,-0.5633562,-0.5633562,-0.38,NaN,0,0.07683242,3,3
270455,190706617,0,0,0,0.2217716,-0.5585155000000001,-0.5585155000000001,-0.25,NaN,0,0.08082617,3,3
270909,190808537,0,0,0,0.2217716,-0.5528679,-0.5528679,-0.32,NaN,0,0.08671797000000001,3,3
271359,190914077,0,0,0,0.2217716,-0.5487288,-0.5487288,-0.51,NaN,0,0.0908571,4,4
271812,191016633,0,0,0,0.2217716,-0.545441,-0.545441,-0.46,NaN,0,0.09414483,3,3
272227,191120984,0,0,0,0.2217716,-0.5430446,-0.5430446,-0.33,NaN,0,0.09670151,3,3
272680,191224115,0,0,0,0.2217716,-0.5401317,-0.5401317,-0.67,NaN,0,0.09793586,2,2
273133,191328501,0,0,0,0.2217716,-0.5377579,-0.5377579,-0.49,NaN,0,0.10047,2,2
273588,191429046,0,0,0,0.2217716,-0.5352808999999999,-0.5352808999999999,-0.58,NaN,0,0.1031071,3,3
274003,191531762,0,0,0,0.2217716,-0.5332136,-0.5332136,-0.59,NaN,0,0.1043276,3,3
274455,191634749,0,0,0,0.2217716,-0.5312312,-0.5312312,-0.59,NaN,0,0.10631,2,2
274903,191737382,0,0,0,0.2217716,-0.5292052,-0.5292052,-0.82,NaN,0,0.1084962,2,2
275324,191839595,0,0,0,0.2217716,-0.5278853999999999,-0.5278853999999999,-0.67,NaN,0,0.109816,3,3
275773,191943556,0,0,0,0.2217716,-0.5289815,-0.5289815,-0.33,NaN,0,0.1070338,2,2
276225,192044216,0,0,0,0.2217716,-0.5279109,-0.5279109,-0.59,NaN,0,0.1082646,1,1
276670,192149757,0.0299997,8.022413e-06,0.008497505000000001,0.2217716,-0.5259852,-0.5259852,-0.62,NaN,0,0.1101903,2,2
277085,192255506,0.07874933000000001,2.133846e-05,0.04460307,0.2217716,-0.5235526,-0.5235526,-0.46,NaN,0,0.1126229,1,1
277542,192359770,0.128749,3.33935e-05,0.0897317,0.2217716,-0.5200783,-0.5200783,-0.58,NaN,0,0.1162574,3,3
277988,192464539,0.177499,4.890561e-05,0.138291,0.2217716,-0.5163864,-0.5163864,-0.36,NaN,0,0.1199494,2,2
278442,192570741,0.2274989,7.69645e-05,0.1870303,0.2217716,-0.5114366,-0.5114366,-0.75,NaN,0,0.1240599,2,2
278889,192677057,0.2762489,7.122755e-05,0.2362814,0.2217716,-0.5067195,-0.5067195,-0.55,NaN,0,0.128777,3,3
279339,192781383,0.3262489,5.307794e-05,0.2855704,0.2217716,-0.5013484,-0.5013484,0.04,NaN,0,0.1343084,7,7
279759,192888480,0.3218937,4.559755e-05,0.323093,0.2217716,-0.4874381,-0.4850226,-0.23,NaN,0,0.1506341,19,22
280211,192993678,0.2767637,2.077222e-05,0.2974064,0.2217716,-0.4599991,-0.4458807,-0.45,NaN,0,0.1889368,33,45
280659,193101980,0.2580205,2.357364e-05,0.2746437,0.2217716,-0.4205678,-0.3827748,-0.6,NaN,0,0.2522029,42,64
281109,193205928,0.2629852,4.830956e-05,0.2658777,0.2217716,-0.3694283,-0.3093295,-0.24,NaN,0,0.3256482,49,74
281528,193310813,0.2474874,3.321469e-05,0.2563087,0.2217716,-0.3127277,-0.2252328,-0.65,NaN,0,0.4080665,54,80
281983,193414906,0.2201219,1.186132e-05,0.2360108,0.2217716,-0.2476359,-0.1388206,-0.44,NaN,0,0.4937997,55,84
282431,193522765,0.2269495,8.940697e-07,0.2280708,0.2217716,-0.1850263,-0.04955004,-0.53,NaN,0,0.5813841,51,79
282882,193627791,0.2391856,2.166629e-05,0.2315442,0.2217716,-0.1219458,0.02837236,-0.36,NaN,0,0.6587037,46,69
283330,193733968,0.2423429,9.411573e-05,0.2385591,0.2217716,-0.06479377,0.08970255000000001,0.01,NaN,0,0.7200339,43,60
283782,193839040,0.2527025,0.0001498163,0.242837,0.2217716,-0.006831329,0.1435666,0.21,NaN,0,0.7740582,42,54
284197,193946207,0.2642182,0.000110656,0.2565064,0.2217716,0.04959524,0.1994819,-0.16,NaN,0,0.8302176999999999,44,50
284645,194053983,0.2605523,8.21352e-05,0.2614596,0.2217716,0.1088036,0.2506523,0.44,NaN,0,0.8817848,48,51
285097,194158725,0.2686089,0.0001181662,0.2645144,0.2217716,0.1730886,0.309113,-0.02,NaN,0,0.9405659,52,53
285544,194264805,0.268819,0.0001633763,0.2665502,0.2217716,0.2415352,0.3666611,0.19,NaN,0,0.9984269,58,57
285998,194371143,0.2590899,0.0001779795,0.2634646,0.2217716,0.3138309,0.4287187,0.19,NaN,0,1.060645,62,61
286449,194478724,0.2666909,0.0001530647,0.2658133,0.2217716,0.3872108,0.4911221,0.25,NaN,0,1.12153,66,63
286866,194584800,0.2662053,0.0001344383,0.2671849,0.2217716,0.4648414,0.5520193,0.32,NaN,0,1.181748,69,66
287313,194692773,0.2603683,0.0001448691,0.2638225,0.2217716,0.5424739,0.6169589,0.49,NaN,0,1.247763,72,70
287765,194799549,0.2681339,0.0001910627,0.2655377,0.2217716,0.6236715,0.6859391,0.54,NaN,0,1.316743,75,73
288182,194906756,0.2630064,0.0002624691,0.2650598,0.2217716,0.704137,0.759394,0.54,NaN,0,1.392037,77,75
288635,195013214,0.2647592,0.0003385842,0.2657578,0.2217716,0.7877075,0.8334876,0.4,NaN,0,1.46697,79,77
289082,195120533,0.2664168,0.0003231168,0.2645248,0.2217716,0.8700654,0.9096304,0.79,NaN,0,1.544799,80,79
289533,195226453,0.2662576,0.0002936125,0.2652805,0.2217716,0.9552275,0.9869364,0.89,NaN,0,1.622105,82,81
289988,195334809,0.2668256,0.0002394617,0.2672366,0.2217716,1.040945,1.069851,0.9399999999999999,NaN,0,1.705096,83,80
290440,195440566,0.2560837,0.0001895428,0.2643554,0.2217716,1.127152,1.152518,0.84,NaN,0,1.787763,83,82
290856,195548933,0.240444,0.0001766831,0.2520015,0.2217716,1.212073,1.237492,1.05,NaN,0,1.872897,80,83
291307,195657537,0.2427714,0.0002065748,0.243318,0.2217716,1.295016,1.322187,0.99,NaN,0,1.955914,75,80
291756,195762921,0.2492421,0.0002457201,0.2454404,0.2217716,1.371215,1.402679,1.38,NaN,0,2.036245,70,75
292208,195872128,0.2518528,0.0002878308,0.2484734,0.2217716,1.44354,1.479875,1.11,NaN,0,2.115044,67,70
292659,195980726,0.2506925,0.0002055466,0.249251,0.2217716,1.512725,1.546922,1.41,NaN,0,2.182373,64,67
293107,196087566,0.2474687,0.0001260787,0.2476951,0.2217716,1.579331,1.610279,1.69,NaN,0,2.247095,62,65
293557,196192047,0.2559424,9.974837000000001e-05,0.2493155,0.2217716,1.643819,1.673065,1.73,NaN,0,2.310401,60,61
294007,196298729,0.2532873,0.0001100898,0.2545033,0.2217716,1.705063,1.736653,1.56,NaN,0,2.374507,58,59
294461,196404806,0.2509307,0.0001190901,0.2520724,0.2217716,1.766417,1.79748,2,NaN,0,2.436852,57,58
294905,196509965,0.253566,8.878112e-05,0.2499007,0.2217716,1.82353,1.85759,1.72,NaN,0,2.496726,56,57
295356,196617261,0.2528781,5.677342e-05,0.2522453,0.2217716,1.88114,1.916065,1.83,NaN,0,2.556047,55,56
295801,196724817,0.2432254,5.799532e-05,0.2490767,0.2217716,1.935016,1.974162,2.17,NaN,0,2.615655,54,54
296250,196833909,0.2441502,0.0001025349,0.2471477,0.2217716,1.989801,2.03545,2.08,NaN,0,2.677714,52,55
296691,196943789,0.2413461,0.0001585335,0.2428621,0.2217716,2.043841,2.097653,2.07,NaN,0,2.741588,50,54
297101,197051425,0.2321734,0.000195235,0.2386283,0.2217716,2.096337,2.156904,2.04,NaN,0,2.800838,48,52
297548,197159606,0.2299499,0.0002111346,0.2328958,0.2217716,2.146546,2.212256,2.22,NaN,0,2.856877,44,49
297989,197269758,0.2437005,0.0002352893,0.2346768,0.2217716,2.193323,2.264493,2.42,NaN,0,2.908267,40,44
298438,197376134,0.2312232,0.0002933145,0.2370341,0.2217716,2.237221,2.312784,2.52,NaN,0,2.956719,37,40
298849,197485507,0.2325108,0.0004710257,0.234495,0.2217716,2.278744,2.360649,2.57,NaN,0,3.004584,34,37
299294,197592210,0.2321512,0.0005656928,0.2347974,0.2217716,2.318307,2.405276,2.47,NaN,0,3.049211,32,35
299736,197701594,0.2417881,0.0007310808,0.2373218,0.2217716,2.356236,2.447835,2.61,NaN,0,3.09177,30,32
300185,197811126,0.2402354,0.001008406,0.2384156,0.2217716,2.392821,2.488041,2.86,NaN,0,3.131815,28,30
300625,197919762,0.2397671,0.001418173,0.2395775,0.2217716,2.428361,2.526357,2.41,NaN,0,3.168224,27,28
301073,198026677,0.2497662,0.001657218,0.2452776,0.2217716,2.462981,2.559102,2.65,NaN,0,3.200649,26,24
301483,198135955,0.2396886,0.001582831,0.2462466,0.2217716,2.496916,2.590568,2.52,NaN,0,3.229276,25,24
301926,198244557,0.2418361,0.001495108,0.2432357,0.2217716,2.530214,2.619903,2.69,NaN,0,3.254927,25,24
302373,198351802,0.2392202,0.001285166,0.2441987,0.2217716,2.563008,2.647201,2.63,NaN,0,3.278699,25,25
302789,198457931,0.2426481,0.001118854,0.2444241,0.2217716,2.595405,2.673916,2.43,NaN,0,3.299815,26,25
303229,198566807,0.2524189,0.001006097,0.2473689,0.2217716,2.627417,2.700351,2.46,NaN,0,3.320123,26,25
303669,198674713,0.241587,0.0009210408,0.2476731,0.2217716,2.659177,2.72283,2.35,NaN,0,3.336323,26,23
304120,198783961,0.2453738,0.000913322,0.2477956,0.2217716,2.690629,2.741838,2.55,NaN,0,3.347442,27,23
304562,198893802,0.2584291,0.001027972,0.2527591,0.2217716,2.7218,2.760004,2.63,NaN,0,3.356728,28,24
304975,199000899,0.2499255,0.0009369403,0.2502265,0.2217716,2.752749,2.777606,2.83,NaN,0,3.364763,29,26
305417,199108733,0.2456985,0.0006810725,0.2454124,0.2217716,2.783526,2.799515,2.31,NaN,0,3.376174,30,29
305862,199215737,0.2469203,0.0006991476,0.248762,0.2217716,2.814236,2.821237,2.65,NaN,0,3.38826,31,27
306307,199324499,0.2490701,0.0007879287,0.2526304,0.2217716,2.844842,2.842818,2.65,NaN,0,3.398351,32,28
306719,199430725,0.2508655,0.0009094775,0.2507177,0.2217716,2.875407,2.865388,2.96,NaN,0,3.411186,33,29
307164,199539039,0.248928,0.001067281,0.2529694,0.2217716,2.906002,2.89365,2.7,NaN,0,3.428034,33,30
307613,199648803,0.2471431,0.001001075,0.2495038,0.2217716,2.937482,2.923756,2.79,NaN,0,3.448497,33,32
308055,199755182,0.2333732,0.0007699579,0.2440293,0.2217716,2.968215,2.952575,2.83,NaN,0,3.466337,33,34
308471,199863991,0.2447773,0.0006736666000000001,0.2423854,0.2217716,2.998952,2.983953,3.11,NaN,0,3.488651,33,35
308884,199970355,0.2438423,0.0006308705,0.2442635,0.2217716,3.029715,3.01508,2.98,NaN,0,3.509723,33,34
309329,200080544,0.2475349,0.0007026196,0.2479736,0.2217716,3.06039,3.047922,3,NaN,0,3.533279,33,33
309775,200188368,0.2405554,0.0006440431,0.24447,0.2217716,3.090961,3.079584,2.84,NaN,0,3.553948,33,33
310219,200298526,0.2501584,0.0007063448,0.2454383,0.2217716,3.121431,3.111431,2.95,NaN,0,3.575732,33,32
310666,200405520,0.2527021,0.0007963181,0.252771,0.2217716,3.151814,3.139475,2.95,NaN,0,3.594399,33,31
311107,200513652,0.2547284,0.0009793638999999999,0.2543318,0.2217716,3.182117,3.168599,2.96,NaN,0,3.61346,33,30
311556,200620946,0.267302,0.001013696,0.2599767,0.2217716,3.212418,3.196843,3.17,NaN,0,3.632236,33,29
311997,200728578,0.2686887,0.001086891,0.2655047,0.2217716,3.242693,3.222949,3.35,NaN,0,3.648713,33,29
312444,200836003,0.2561962,0.0009688735,0.2624547,0.2217716,3.272981,3.25079,3.71,NaN,0,3.667162,34,29
312855,200944313,0.2574461,0.0009155571,0.2616192,0.2217716,3.303227,3.28378,3.37,NaN,0,3.688839,33,31
313295,201052805,0.2623401,0.000903815,0.261839,0.2217716,3.333441,3.32022,3.13,NaN,0,3.71488,33,31
313742,201159816,0.2588017,0.000731647,0.2580665,0.2217716,3.363624,3.353471,3.26,NaN,0,3.738571,32,32
314185,201270534,0.2508257,0.0005071461,0.2575861,0.2217716,3.393869,3.388461,3.27,NaN,0,3.761231,32,33
314601,201378548,0.268499,0.0005311072,0.2596695,0.2217716,3.42426,3.422371,3.67,NaN,0,3.784652,32,31
315041,201487795,0.2631858,0.0004786253,0.2663271,0.2217716,3.453898,3.456877,3.32,NaN,0,3.806996,31,30
315486,201593326,0.2504255,0.0003178418,0.2615987,0.2217716,3.484303,3.48986,3.71,NaN,0,3.829573,31,31
315926,201702747,0.2356235,0.0001971275,0.25037,0.2217716,3.514711,3.525746,3.97,NaN,0,3.853282,30,33
316373,201809693,0.2367126,0.0001605898,0.2409454,0.2217716,3.545067,3.566432,3.82,NaN,0,3.883043,29,36
316814,201919072,0.2424441,0.0001421422,0.2375258,0.2217716,3.575465,3.613082,3.34,NaN,0,3.919439,28,36
317263,202026614,0.216914,0.0001244843,0.2295733,0.2217716,3.605109,3.655229,3.43,NaN,0,3.94973,24,34
317670,202134049,0.2207527,0.0001467615,0.2199479,0.2217716,3.631282,3.686465,3.1,NaN,0,3.971726,19,29
318116,202245142,0.2363843,0.0001918226,0.2256845,0.2217716,3.653705,3.708039,3.66,NaN,0,3.984213,15,21
318563,202352056,0.2402569,0.0002708286,0.2351237,0.2217716,3.671717,3.71858,3.74,NaN,0,3.98576,12,14
319007,202458724,0.2415869,0.0003985614,0.2383458,0.2217716,3.686604,3.725995,3.7,NaN,0,3.985942,10,10
319450,202565203,0.2458062,0.0004781634,0.2420381,0.2217716,3.69891,3.729866,3.67,NaN,0,3.980886,8,6
319860,202673531,0.2425038,0.0005126595,0.2443085,0.2217716,3.709081,3.731635,3.8,NaN,0,3.974577,7,4
