LineNo,TimeUS,Dp,Blk,Bytes,FMn,FMx,FAv
3760,2.039e+07,732,3759,1.6241e+05,859,16294,8876
7774,2.1394e+07,732,4013,1.7201e+05,9801,16285,13158
11619,2.2394e+07,889,3844,1.6458e+05,1022,15923,12094
15648,2.34e+07,889,4028,1.7242e+05,9535,16030,12953
19634,2.4406e+07,889,3985,1.7099e+05,9403,16085,13074
23660,2.5408e+07,889,4025,1.7268e+05,9441,16275,13121
27699,2.6408e+07,889,4038,1.7293e+05,9286,16281,13112
31708,2.7411e+07,889,4008,1.7178e+05,9661,16215,13064
35711,2.8415e+07,889,4002,1.7144e+05,9425,16079,13097
39711,2.9417e+07,889,3999,1.7127e+05,8546,16216,12853
43755,3.0421e+07,889,4043,1.7313e+05,5536,16306,12731
47765,3.1426e+07,889,4009,1.7196e+05,9391,16006,13116
51756,3.2429e+07,889,3990,1.7128e+05,9517,16292,13186
55796,3.343e+07,889,4039,1.7305e+05,9527,16210,13122
59807,3.4434e+07,889,4010,1.719e+05,9873,16230,13084
63770,3.5435e+07,889,3962,1.7025e+05,10011,16226,13187
67716,3.6436e+07,897,3945,1.6905e+05,994,16163,12378
71670,3.7438e+07,897,3953,1.6965e+05,9116,16207,13100
75648,3.844e+07,897,3977,1.705e+05,9353,16233,13120
79670,3.9443e+07,897,4021,1.724e+05,9233,16276,13105
83657,4.0445e+07,897,3986,1.7081e+05,7892,16200,12871
87609,4.1447e+07,897,3951,1.6954e+05,10011,16317,13135
91601,4.245e+07,897,3991,1.7122e+05,9464,16284,13163
95551,4.3451e+07,897,3949,1.6947e+05,9515,16314,13215
99502,4.4453e+07,897,3950,1.6946e+05,9607,16198,13183
1.0349e+05,4.5456e+07,897,3984,1.7081e+05,9699,16286,13168
1.0742e+05,4.6456e+07,897,3930,1.6888e+05,9106,16324,13097
1.1139e+05,4.746e+07,897,3970,1.7055e+05,10414,16297,13255
1.1538e+05,4.8464e+07,897,3985,1.7093e+05,9421,16327,12859
1.1913e+05,1.0858e+08,897,3302,1.449e+05,8333,16369,12529
1.2345e+05,1.0958e+08,897,4319,1.9002e+05,3039,16319,12669
1.2784e+05,1.1058e+08,897,4392,1.9304e+05,6031,16135,12611
1.3207e+05,1.1159e+08,1013,4224,1.8588e+05,989,16262,12136
1.3642e+05,1.1259e+08,1013,4352,1.9154e+05,8590,16319,12569
1.4065e+05,1.1359e+08,1013,4225,1.8367e+05,7093,16175,12630
1.4462e+05,1.146e+08,1013,3977,1.7057e+05,9299,16180,13009
1.486e+05,1.156e+08,1013,3979,1.7049e+05,9484,16210,12936
1.5257e+05,1.166e+08,1013,3962,1.6971e+05,9190,16329,13024
1.5654e+05,1.176e+08,1013,3976,1.7044e+05,9165,16024,12990
1.6052e+05,1.1861e+08,1013,3972,1.7025e+05,8951,16312,12976
1.6448e+05,1.1961e+08,1013,3967,1.7e+05,9336,16161,13072
1.6844e+05,1.2061e+08,1013,3954,1.6962e+05,7852,16294,12869
1.7245e+05,1.2161e+08,1013,4006,1.7158e+05,7557,16329,12821
1.7645e+05,1.2261e+08,1013,4002,1.7143e+05,9059,16117,12857
1.8046e+05,1.2362e+08,1013,4014,1.7203e+05,9179,16258,12999
1.8447e+05,1.2462e+08,1013,4002,1.7143e+05,9543,16208,13054
1.8845e+05,1.2562e+08,1013,3978,1.7054e+05,8734,16152,12923
1.9245e+05,1.2663e+08,1013,4006,1.7162e+05,9138,16304,12904
1.9637e+05,1.2763e+08,1108,3911,1.6745e+05,1004,16328,12411
2.0214e+05,1.7474e+08,1108,3746,1.6372e+05,8612,16369,12814
2.0647e+05,1.7574e+08,1108,4326,1.9048e+05,9867,16059,12896
2.1071e+05,1.7675e+08,1256,4241,1.8654e+05,995,16072,12225
2.1508e+05,1.7775e+08,1256,4370,1.9244e+05,6592,16141,12728
2.1947e+05,1.7875e+08,1256,4386,1.9286e+05,9349,16138,12801
2.2381e+05,1.7975e+08,1256,4341,1.9087e+05,8509,16318,12593
2.2814e+05,1.8076e+08,1256,4322,1.9018e+05,7115,16193,12655
2.3241e+05,1.8176e+08,1256,4271,1.8795e+05,7934,16329,12730
2.3672e+05,1.8276e+08,1256,4309,1.8953e+05,6256,16128,12107
2.4106e+05,1.8376e+08,1256,4337,1.9057e+05,6111,16238,12411
2.4527e+05,1.8476e+08,1256,4215,1.8521e+05,7218,16283,12597
2.495e+05,1.8576e+08,1256,4224,1.8572e+05,7141,16307,12397
2.5376e+05,1.8677e+08,1256,4258,1.8724e+05,7541,16000,12218
2.5803e+05,1.8777e+08,1256,4271,1.8755e+05,6962,16312,12481
2.6234e+05,1.8877e+08,1256,4314,1.8973e+05,7306,16203,12567
2.6665e+05,1.8978e+08,1256,4307,1.8943e+05,7431,16275,12652
2.7077e+05,1.9078e+08,1471,4120,1.8092e+05,976,16103,12054
2.7509e+05,1.9178e+08,1471,4317,1.9001e+05,6866,16220,12504
2.7934e+05,1.9278e+08,1471,4252,1.869e+05,4673,16151,11883
2.8355e+05,1.9378e+08,1471,4206,1.8462e+05,3472,15891,10699
2.8772e+05,1.9479e+08,1471,4168,1.8313e+05,5453,15966,11250
2.9189e+05,1.9579e+08,1471,4170,1.8309e+05,5299,16026,10851
2.9607e+05,1.9679e+08,1471,4178,1.8333e+05,4816,16102,11160
3.001e+05,1.9779e+08,1471,4028,1.7642e+05,4379,15934,11044
3.0417e+05,1.9879e+08,1471,4070,1.7829e+05,2185,16124,11364
3.0824e+05,1.998e+08,1471,4073,1.7843e+05,6046,15632,10867
3.1231e+05,2.0081e+08,1471,4065,1.78e+05,4880,16092,11623
3.1637e+05,2.0181e+08,1471,4059,1.7766e+05,2741,16017,11073
3.2041e+05,2.0281e+08,1471,4042,1.772e+05,4104,16089,11207
3.2454e+05,2.0382e+08,1471,4123,1.8038e+05,7163,16080,12142
3.2857e+05,2.0482e+08,1471,4033,1.7676e+05,7709,15702,11583
3.3209e+05,2.0582e+08,2014,3523,1.5452e+05,1005,16241,10645
3.3617e+05,2.0682e+08,2014,4077,1.7864e+05,6581,16017,11231
3.4024e+05,2.0783e+08,2014,4067,1.7812e+05,5051,16005,11640
3.4429e+05,2.0883e+08,2014,4048,1.7743e+05,4461,15706,10861
3.4833e+05,2.0983e+08,2014,4044,1.7732e+05,6432,16217,11750
3.5245e+05,2.1083e+08,2014,4112,1.8002e+05,5344,15798,11809
3.5655e+05,2.1184e+08,2014,4105,1.7978e+05,5720,16119,12012
3.6064e+05,2.1284e+08,2014,4084,1.7896e+05,7224,16081,12130
3.6468e+05,2.1384e+08,2014,4037,1.7698e+05,5499,16083,11989
3.6879e+05,2.1485e+08,2014,4112,1.8015e+05,4357,16149,11481
3.729e+05,2.1585e+08,2014,4111,1.8005e+05,7966,16154,12196
3.7702e+05,2.1687e+08,2014,4118,1.8042e+05,5453,16243,11660
3.8113e+05,2.1787e+08,2014,4112,1.8004e+05,5696,16014,11557
3.8528e+05,2.1888e+08,2014,4144,1.815e+05,7084,16172,11892
3.8936e+05,2.1988e+08,2014,4079,1.7879e+05,5868,16108,11901
3.9344e+05,2.2088e+08,2014,4080,1.787e+05,5329,16051,11568
3.9751e+05,2.2189e+08,2014,4069,1.7837e+05,8363,16262,12324
4.0119e+05,2.2289e+08,2472,3678,1.6116e+05,999,16071,9919
4.0526e+05,2.2389e+08,2472,4072,1.7842e+05,5561,15710,11506
4.0934e+05,2.2489e+08,2472,4074,1.7855e+05,6143,15807,11848
4.1342e+05,2.2589e+08,2472,4080,1.7875e+05,3925,15958,11435
4.1747e+05,2.269e+08,2472,4051,1.777e+05,5512,16218,12079
4.2158e+05,2.279e+08,2472,4109,1.8004e+05,5355,16173,11586
4.295e+05,2.2991e+08,2699,3954,1.7301e+05,1012,16074,11296
4.3356e+05,2.3091e+08,2699,4065,1.7776e+05,5893,16054,12106
4.3762e+05,2.3191e+08,2699,4060,1.7739e+05,6888,16081,12112
4.4166e+05,2.3291e+08,2699,4029,1.7624e+05,7361,16239,11925
4.4575e+05,2.3392e+08,2699,4090,1.7864e+05,8256,16070,12133
4.4985e+05,2.3492e+08,2699,4099,1.79e+05,5283,16203,11815
4.5391e+05,2.3592e+08,2699,4062,1.7778e+05,7696,16145,12374
4.58e+05,2.3692e+08,2699,4086,1.7848e+05,5689,16006,11542
4.621e+05,2.3792e+08,2699,4102,1.7919e+05,5972,16048,12014
4.6616e+05,2.3893e+08,2699,4061,1.7745e+05,5191,16104,11833
4.7022e+05,2.3993e+08,2699,4059,1.7742e+05,7132,16010,12198
4.7426e+05,2.4093e+08,2699,4041,1.7673e+05,2336,16168,11326
4.7834e+05,2.4193e+08,2699,4074,1.7814e+05,6319,16024,12051
4.8241e+05,2.4293e+08,2699,4067,1.7778e+05,7501,16096,11830
4.8646e+05,2.4394e+08,2699,4057,1.7722e+05,6019,16160,12068
4.9054e+05,2.4494e+08,2699,4072,1.7802e+05,6231,15959,12150
4.9465e+05,2.4594e+08,2699,4108,1.7954e+05,7176,15932,12315
4.9871e+05,2.4694e+08,2699,4063,1.7755e+05,5020,15911,11536
5.0278e+05,2.4794e+08,2699,4065,1.7767e+05,6106,16220,11958
5.0684e+05,2.4895e+08,2699,4058,1.7741e+05,3771,16100,11012
5.1083e+05,2.4995e+08,2699,3994,1.7478e+05,3287,16145,11381
5.149e+05,2.5095e+08,2699,4067,1.7773e+05,4551,15845,11133
5.1896e+05,2.5195e+08,2699,4060,1.7749e+05,1401,15939,11090
5.2302e+05,2.5295e+08,2699,4062,1.7755e+05,3227,16062,11450
5.271e+05,2.5396e+08,2699,4081,1.7849e+05,3207,15869,11185
5.3114e+05,2.5496e+08,2699,4030,1.7632e+05,5456,16153,11297
5.3523e+05,2.5596e+08,2699,4091,1.7858e+05,8281,15957,12557
5.393e+05,2.5696e+08,2699,4068,1.778e+05,6423,15935,11535
5.434e+05,2.5796e+08,2699,4102,1.7918e+05,6725,16059,12188
5.4748e+05,2.5897e+08,2699,4084,1.7837e+05,3843,16227,11269
5.5155e+05,2.5997e+08,2699,4066,1.7785e+05,6117,16065,11621
5.5563e+05,2.6097e+08,2699,4077,1.782e+05,2572,15904,11451
5.5966e+05,2.6198e+08,2699,4030,1.7622e+05,5249,16011,11326
5.6374e+05,2.6298e+08,2699,4078,1.7831e+05,6820,16066,12061
5.6781e+05,2.6398e+08,2699,4068,1.7792e+05,5395,15927,11658
5.7158e+05,2.6499e+08,3025,3768,1.648e+05,976,16051,10892
5.7565e+05,2.6599e+08,3025,4073,1.7805e+05,7074,16319,11809
5.7968e+05,2.6699e+08,3025,4033,1.7644e+05,6900,16156,11917
5.8375e+05,2.6799e+08,3025,4065,1.7766e+05,6814,15964,11847
5.878e+05,2.6899e+08,3025,4044,1.7696e+05,8377,15988,12378
5.9179e+05,2.6999e+08,3025,3997,1.7494e+05,3843,16225,11811
5.9587e+05,2.71e+08,3025,4076,1.7816e+05,7087,16026,12252
5.9988e+05,2.72e+08,3025,4005,1.7524e+05,6096,16059,11970
6.0397e+05,2.73e+08,3025,4091,1.7863e+05,5911,15934,11962
6.0804e+05,2.74e+08,3025,4067,1.7774e+05,6193,16005,11829
6.1212e+05,2.75e+08,3025,4082,1.7852e+05,5111,16042,11605
6.162e+05,2.7601e+08,3025,4078,1.7839e+05,3554,16103,11605
6.203e+05,2.7701e+08,3025,4096,1.7893e+05,2943,15595,10857
6.244e+05,2.7802e+08,3025,4108,1.7952e+05,3131,16071,11292
6.2847e+05,2.7903e+08,3025,4065,1.7774e+05,5019,16106,11477
6.3255e+05,2.8003e+08,3025,4075,1.7821e+05,6820,16081,11857
6.3665e+05,2.8103e+08,3025,4100,1.7914e+05,6752,16139,12035
6.4068e+05,2.8203e+08,3025,4030,1.7623e+05,5506,16272,11590
6.4471e+05,2.8303e+08,3025,4026,1.761e+05,6977,16058,12007
6.4877e+05,2.8403e+08,3025,4063,1.7756e+05,7276,16255,12328
6.5287e+05,2.8504e+08,3025,4101,1.7927e+05,7913,16067,12191
6.5693e+05,2.8604e+08,3025,4060,1.7737e+05,5563,16130,11978
6.611e+05,2.8704e+08,3025,4164,1.8204e+05,5506,15969,12383
6.6525e+05,2.8804e+08,3025,4155,1.8163e+05,5155,16177,12341
6.6948e+05,2.8905e+08,3025,4230,1.8514e+05,3996,16101,12036
6.7369e+05,2.9005e+08,3025,4207,1.8446e+05,7075,16240,12065
6.7793e+05,2.9105e+08,3025,4238,1.856e+05,1331,16323,12075
6.8214e+05,2.9206e+08,3025,4210,1.8466e+05,7207,16066,12405
6.8642e+05,2.9306e+08,3025,4276,1.8735e+05,7886,16027,12529
6.9065e+05,2.9407e+08,3025,4225,1.8505e+05,7455,16130,12360
6.9486e+05,2.9507e+08,3025,4210,1.8459e+05,8690,16267,12645
6.9909e+05,2.9607e+08,3025,4230,1.8548e+05,9246,16288,12997
7.0332e+05,2.9708e+08,3025,4236,1.8585e+05,7334,16285,12728
7.0756e+05,2.9808e+08,3025,4234,1.8574e+05,8669,16200,12791
7.1179e+05,2.9908e+08,3025,4230,1.8556e+05,8712,16063,12623
7.1602e+05,3.0008e+08,3025,4227,1.8536e+05,8945,16254,12635
7.2018e+05,3.0108e+08,3025,4165,1.8287e+05,6898,16160,12555
7.2442e+05,3.0209e+08,3025,4233,1.8569e+05,7348,16328,12721
7.2865e+05,3.0309e+08,3025,4231,1.8558e+05,8907,16065,12707
