LineNo,TimeUS,Instance,RPM,RawRPM,Volt,Curr,Temp,CTot,MotTemp,Err
1658,19874680,5,0,0,15.94,0.04,26,0,0,0
2069,19976722,5,0,0,15.94,0.04,26,0,0,0
2486,20080963,5,0,0,15.94,0.04,26,0,0,0
2937,20191828,5,0,0,15.94,0.04,25,0,0,0
3349,20292581,5,0,0,15.94,0.04,25,0,0,0
3836,20408182,5,0,0,15.94,0.04,26,0,0,0
4247,20512995,5,0,0,15.94,0.04,26,0,0,0
4664,20616644,5,0,0,15.94,0.03,26,0,0,0
5122,20733360,5,0,0,15.95,0.04,25,0,0,0
5537,20835768,5,0,0,15.94,0.04,25,0,0,0
5954,20943013,5,0,0,15.94,0.04,26,0,0,0
6363,21042858,5,0,0,15.94,0.04,26,0,0,0
6813,21153513,5,0,0,15.94,0.04,26,0,0,0
7228,21257658,5,0,0,15.95,0.04,25,0,0,0
7646,21363948,5,0,0,15.94,0.03,26,0,0,0
8066,21469408,5,0,0,15.94,0.03,26,0,0,0
8478,21575121,5,0,0,15.94,0.03,25,0,0,0
8896,21679956,5,0,0,15.94,0.03,25,0,0,0
9344,21790696,5,0,0,15.94,0.03,26,0,0,0
9600,21892824,5,0,0,15.95,0.04,26,0,0,0
10041,21997558,5,0,0,15.94,0.04,26,0,0,0
10457,22102358,5,0,0,15.94,0.04,26,0,0,0
10867,22205333,5,0,0,15.94,0.04,26,0,0,0
11324,22317950,5,0,0,15.94,0.04,26,0,0,0
11739,22421547,5,0,0,15.94,0.04,26,0,0,0
12151,22524685,5,0,0,15.95,0.04,26,0,0,0
12602,22637003,5,0,0,15.94,0.04,26,0,0,0
13046,22748685,5,0,0,15.94,0.04,26,0,0,0
13466,22855507,5,0,0,15.94,0.04,26,0,0,0
13879,22959576,5,0,0,15.94,0.03,26,0,0,0
14292,23060782,5,0,0,15.94,0.04,26,0,0,0
14742,23172791,5,0,0,15.94,0.04,26,0,0,0
15151,23274244,5,0,0,15.94,0.04,26,0,0,0
15569,23382005,5,0,0,15.94,0.04,26,0,0,0
16026,23494479,5,0,0,15.94,0.04,26,0,0,0
16408,23597166,5,0,0,15.94,0.04,26,0,0,0
16859,23709002,5,0,0,15.94,0.04,26,0,0,0
17267,23811035,5,0,0,15.94,0.04,26,0,0,0
17727,23921929,5,0,0,15.94,0.04,26,0,0,0
18112,24025613,5,0,0,15.94,0.04,26,0,0,0
18563,24134629,5,0,0,15.94,0.04,26,0,0,0
18973,24239923,5,0,0,15.94,0.04,25,0,0,0
19427,24352973,5,0,0,15.94,0.04,26,0,0,0
19845,24457596,5,0,0,15.94,0.04,26,0,0,0
20254,24559728,5,0,0,15.94,0.04,26,0,0,0
20673,24665771,5,0,0,15.94,0.04,26,0,0,0
21128,24778968,5,0,0,15.94,0.04,26,0,0,0
21545,24882738,5,0,0,15.94,0.04,26,0,0,0
21999,24993389,5,0,0,15.94,0.04,26,0,0,0
22414,25098095,5,0,0,15.94,0.04,26,0,0,0
22857,25206296,5,0,0,15.93,0.04,26,0,0,0
23320,25321609,5,0,0,15.94,0.04,26,0,0,0
23739,25425491,5,0,0,15.94,0.04,26,0,0,0
24154,25526029,5,0,0,15.94,0.04,26,0,0,0
24602,25634582,5,0,0,15.94,0.03,26,0,0,0
25478,25853545,5,0,0,15.94,0.04,26,0,0,0
25888,25955609,5,0,0,15.94,0.03,26,0,0,0
26309,26061334,5,0,0,15.94,0.03,26,0,0,0
26759,26176269,5,0,0,15.94,0.03,26,0,0,0
27173,26276161,5,0,0,15.94,0.03,26,0,0,0
27586,26382499,5,0,0,15.94,0.03,26,0,0,0
28006,26488540,5,0,0,15.94,0.03,26,0,0,0
28413,26590147,5,0,0,15.94,0.04,26,0,0,0
28867,26701780,5,0,0,15.94,0.04,26,0,0,0
29319,26813625,5,0,0,15.95,0.03,26,0,0,0
29738,26918192,5,0,0,15.94,0.03,26,0,0,0
30145,27019227,5,0,0,15.94,0.03,26,0,0,0
30596,27133570,5,0,0,15.94,0.03,26,0,0,0
31007,27236198,5,0,0,15.94,0.03,26,0,0,0
31419,27339204,5,0,0,15.94,0.03,26,0,0,0
31873,27452512,5,0,0,15.94,0.03,26,0,0,0
32278,27553739,5,0,0,15.94,0.04,26,0,0,0
32694,27659779,5,0,0,15.94,0.04,26,0,0,0
33148,27770948,5,0,0,15.94,0.03,26,0,0,0
33564,27875129,5,0,0,15.94,0.03,26,0,0,0
33977,27979177,5,0,0,15.94,0.03,26,0,0,0
34400,28090352,5,0,0,15.94,0.03,26,0,0,0
34850,28201976,5,0,0,15.94,0.03,26,0,0,0
35264,28303641,5,0,0,15.94,0.04,26,0,0,0
35712,28415040,5,0,0,15.94,0.03,26,0,0,0
36128,28520189,5,0,0,15.94,0.03,26,0,0,0
36542,28625011,5,0,0,15.94,0.03,26,0,0,0
37000,28740171,5,0,0,15.94,0.04,26,0,0,0
37410,28840596,5,0,0,15.94,0.04,26,0,0,0
37822,28942808,5,0,0,15.94,0.04,26,0,0,0
38272,29057961,5,0,0,15.94,0.04,26,0,0,0
38681,29159139,5,0,0,15.94,0.04,26,0,0,0
39132,29272922,5,0,0,15.94,0.04,26,0,0,0
39543,29376600,5,0,0,15.94,0.04,26,0,0,0
39957,29480205,5,0,0,15.94,0.04,26,0,0,0
40363,29579813,5,0,0,15.94,0.04,26,0,0,0
40818,29691351,5,0,0,15.94,0.04,26,0,0,0
41228,29795959,5,0,0,15.94,0.04,26,0,0,0
41682,29907782,5,0,0,15.94,0.04,26,0,0,0
42134,30019167,5,0,0,15.94,0.03,26,0,0,0
42553,30122221,5,0,0,15.94,0.03,26,0,0,0
42965,30223420,5,0,0,15.94,0.03,26,0,0,0
43426,30337223,5,0,0,15.94,0.03,26,0,0,0
43844,30441523,5,0,0,15.94,0.04,26,0,0,0
44262,30546030,5,0,0,15.94,0.04,26,0,0,0
44675,30649222,5,0,0,15.94,0.03,26,0,0,0
45129,30763350,5,0,0,15.94,0.03,26,0,0,0
45544,30867127,5,0,0,15.94,0.03,26,0,0,0
45991,30976665,5,0,0,15.95,0.03,26,0,0,0
46401,31085580,5,0,0,15.94,0.03,26,0,0,0
46812,31189918,5,0,0,15.94,0.03,26,0,0,0
47266,31301551,5,0,0,15.95,0.03,26,0,0,0
47682,31405159,5,0,0,15.94,0.03,26,0,0,0
48065,31502005,5,0,0,15.94,0.03,26,0,0,0
48515,31614138,5,0,0,15.94,0.03,26,0,0,0
48970,31726656,5,0,0,15.94,0.04,26,0,0,0
49386,31830966,5,0,0,15.94,0.04,26,0,0,0
49769,31932203,5,0,0,15.94,0.03,26,0,0,0
50222,32043824,5,0,0,15.94,0.03,26,0,0,0
50632,32146081,5,0,0,15.94,0.03,26,0,0,0
51090,32257695,5,0,0,15.95,0.03,26,0,0,0
51510,32363686,5,0,0,15.94,0.03,26,0,0,0
51921,32466609,5,0,0,15.94,0.03,26,0,0,0
52373,32579921,5,0,0,15.94,0.03,26,0,0,0
52787,32680588,5,0,0,15.94,0.03,26,0,0,0
53244,32792544,5,0,0,15.94,0.03,26,0,0,0
53659,32896019,5,0,0,15.94,0.03,26,0,0,0
54107,33009283,5,0,0,15.94,0.03,26,0,0,0
54519,33109993,5,0,0,15.94,0.03,26,0,0,0
54930,33212638,5,0,0,15.94,0.03,26,0,0,0
55381,33326163,5,0,0,15.94,0.03,26,0,0,0
55792,33427987,5,0,0,15.94,0.03,26,0,0,0
56215,33538564,5,0,0,15.94,0.03,26,0,0,0
56626,33640793,5,0,0,15.94,0.03,26,0,0,0
57040,33745038,5,0,0,15.94,0.03,26,0,0,0
57495,33858981,5,0,0,15.94,0.03,26,0,0,0
58324,34067722,5,0,0,15.93,0.03,26,0,0,0
58776,34181410,5,0,0,15.94,0.02,26,0,0,0
59194,34283920,5,0,0,15.94,0.03,26,0,0,0
60062,34500175,5,0,0,15.94,0.03,26,0,0,0
60472,34602014,5,0,0,15.94,0.03,26,0,0,0
115873,107823538,5,0,0,15.94,0.05,26,0,0,0
116044,107867578,5,0,0,15.94,0.05,26,0,0,0
116500,107973164,5,0,0,15.94,0.05,26,0,0,0
116995,108087251,5,0,0,15.94,0.05,26,0,0,0
117451,108192419,5,0,0,15.93,0.05,26,0,0,0
117904,108296687,5,0,0,15.93,0.05,26,0,0,0
118809,108507818,5,0,0,15.94,0.05,26,0,0,0
119309,108620055,5,0,0,15.94,0.05,26,0,0,0
119767,108731106,5,0,0,15.93,0.05,26,0,0,0
120188,108836493,5,0,0,15.94,0.05,26,0,0,0
120641,108942897,5,0,0,15.94,0.05,26,0,0,0
121094,109043686,5,0,0,15.94,0.05,26,0,0,0
121594,109157122,5,0,0,15.94,0.05,26,0,0,0
122045,109260377,5,0,0,15.94,0.05,26,0,0,0
122498,109365655,5,0,0,15.94,0.05,26,0,0,0
122990,109477750,5,0,0,15.94,0.05,26,0,0,0
123445,109578937,5,0,0,15.94,0.05,26,0,0,0
123934,109688580,5,0,0,15.93,0.05,26,0,0,0
124432,109800714,5,0,0,15.94,0.05,26,0,0,0
124882,109903737,5,0,0,15.94,0.04,26,0,0,0
125382,110018173,5,35,400,15.92,0.08,26,0,0,0
125837,110122250,5,413,757,15.9,0.14,26,0,0,0
126261,110223774,5,774,1128,15.91,0.16,26,0,0,0
126754,110336001,5,1134,1214,15.92,0.12,26,0,0,0
127206,110437730,5,1215,1242,15.92,0.12,26,0,0,0
128486,110758500,5,1242,1271,15.92,0.12,26,0,0,0
128942,110867423,5,1271,1271,15.91,0.11,26,0,0,0
129439,110979494,5,1271,1285,15.92,0.11,26,0,0,0
129897,111088779,5,1285,1285,15.91,0.11,26,0,0,0
130401,111203509,5,1283,1271,15.91,0.11,26,0,0,0
130809,111301026,5,1271,1285,15.92,0.11,26,0,0,0
131307,111414408,5,1285,1285,15.92,0.11,26,0,0,0
131756,111517027,5,1285,1285,15.91,0.11,26,0,0,0
132254,111629597,5,1285,1285,15.92,0.11,26,0,0,0
132744,111740535,5,1285,1285,15.91,0.12,27,0,0,0
133648,111951048,5,1285,1285,15.92,0.12,26,0,0,0
134102,112052983,5,1285,1285,15.91,0.12,26,0,0,0
134565,112164608,5,1285,1285,15.92,0.12,26,0,0,0
135014,112267415,5,1285,1285,15.91,0.12,26,0,0,0
135469,112372018,5,1285,1285,15.91,0.11,27,0,0,0
135924,112479814,5,1285,1285,15.91,0.11,26,0,0,0
136424,112591353,5,1285,1285,15.92,0.12,26,0,0,0
136876,112695534,5,1285,1285,15.91,0.11,26,0,0,0
137328,112797619,5,1285,1285,15.91,0.11,27,0,0,0
137784,112905580,5,1285,1285,15.91,0.11,26,0,0,0
138284,113017397,5,1285,1285,15.92,0.11,26,0,0,0
138736,113122775,5,1285,1285,15.92,0.11,26,0,0,0
139163,113223575,5,1268,514,15.94,0.01,26,0,0,0
140028,113444478,5,511,0,15.94,0.04,26,0,0,0
140443,113546970,5,0,0,15.94,0.04,26,0,0,0
140894,113657248,5,0,0,15.93,0.05,26,0,0,0
141347,113769272,5,0,0,15.94,0.05,26,0,0,0
141763,113875787,5,0,0,15.93,0.05,26,0,0,0
142176,113977602,5,0,0,15.94,0.05,26,0,0,0
142594,114084172,5,0,0,15.94,0.05,26,0,0,0
143049,114194760,5,0,0,15.94,0.05,26,0,0,0
143463,114299574,5,0,0,15.94,0.05,26,0,0,0
143915,114412577,5,0,0,15.94,0.05,26,0,0,0
144328,114519061,5,0,0,15.94,0.05,26,0,0,0
144745,114623005,5,0,0,15.94,0.05,26,0,0,0
145162,114732622,5,0,0,15.94,0.05,26,0,0,0
145540,114829622,5,0,0,15.94,0.05,26,0,0,0
145994,114945553,5,0,0,15.94,0.05,26,0,0,0
146412,115047775,5,0,0,15.94,0.05,26,0,0,0
146860,115160530,5,0,0,15.94,0.05,26,0,0,0
147272,115266662,5,0,0,15.94,0.05,26,0,0,0
147695,115374621,5,0,0,15.94,0.05,26,0,0,0
148103,115477723,5,0,0,15.93,0.05,26,0,0,0
148559,115589747,5,0,0,15.94,0.05,26,0,0,0
148974,115694559,5,0,0,15.93,0.05,26,0,0,0
149431,115808696,5,0,0,15.93,0.05,26,0,0,0
149847,115915786,5,0,0,15.94,0.05,26,0,0,0
150262,116019033,5,0,0,15.94,0.04,26,0,0,0
150678,116128157,5,0,0,15.94,0.04,26,0,0,0
151091,116231271,5,0,0,15.94,0.05,26,0,0,0
151542,116346512,5,0,0,15.93,0.05,26,0,0,0
151957,116449726,5,0,0,15.94,0.05,26,0,0,0
152407,116564013,5,0,0,15.94,0.04,26,0,0,0
152819,116669477,5,0,0,15.94,0.04,26,0,0,0
153231,116771028,5,0,0,15.94,0.04,26,0,0,0
153647,116879740,5,0,0,15.94,0.04,26,0,0,0
154106,116993113,5,0,0,15.93,0.04,26,0,0,0
154519,117098067,5,0,0,15.94,0.04,26,0,0,0
154933,117200167,5,0,0,15.93,0.04,26,0,0,0
155385,117316571,5,0,0,15.94,0.05,26,0,0,0
155800,117420575,5,0,0,15.93,0.05,26,0,0,0
156211,117522023,5,0,0,15.94,0.05,26,0,0,0
156667,117634941,5,0,0,15.94,0.05,26,0,0,0
157084,117741979,5,0,0,15.94,0.05,26,0,0,0
157497,117844529,5,0,0,15.94,0.04,26,0,0,0
157914,117952573,5,0,0,15.94,0.05,26,0,0,0
158333,118063768,5,0,0,15.94,0.05,26,0,0,0
158747,118164404,5,0,0,15.94,0.05,26,0,0,0
159200,118278134,5,0,0,15.94,0.05,26,0,0,0
159615,118381667,5,0,0,15.94,0.05,26,0,0,0
160029,118488036,5,0,0,15.94,0.05,26,0,0,0
160482,118600792,5,0,0,15.94,0.05,26,0,0,0
160893,118704318,5,0,0,15.94,0.05,26,0,0,0
161346,118816521,5,0,0,15.94,0.05,26,0,0,0
161759,118921755,5,0,0,15.94,0.04,26,0,0,0
162174,119022245,5,0,0,15.93,0.04,26,0,0,0
162623,119135694,5,0,0,15.93,0.04,26,0,0,0
163037,119240204,5,0,0,15.94,0.05,26,0,0,0
163481,119353001,5,0,0,15.94,0.05,26,0,0,0
164311,119562910,5,0,0,15.94,0.05,26,0,0,0
164725,119667616,5,0,0,15.94,0.05,26,0,0,0
165182,119782026,5,0,0,15.94,0.05,26,0,0,0
165565,119884086,5,0,0,15.93,0.05,26,0,0,0
165983,119988021,5,0,0,15.94,0.05,26,0,0,0
166398,120096670,5,0,0,15.94,0.05,26,0,0,0
166855,120210374,5,0,0,15.94,0.05,26,0,0,0
167269,120315922,5,0,0,15.94,0.05,26,0,0,0
167688,120419696,5,0,0,15.94,0.05,26,0,0,0
168080,120524930,5,0,0,15.93,0.05,26,0,0,0
168534,120636481,5,0,0,15.94,0.05,26,0,0,0
168980,120746016,5,0,0,15.93,0.05,26,0,0,0
169388,120848501,5,0,0,15.94,0.05,26,0,0,0
169807,120952225,5,0,0,15.94,0.05,26,0,0,0
170256,121065365,5,0,0,15.94,0.05,26,0,0,0
170671,121166936,5,0,0,15.94,0.05,26,0,0,0
171083,121272134,5,0,0,15.93,0.05,26,0,0,0
171539,121387556,5,0,0,15.94,0.05,26,0,0,0
171949,121490083,5,0,0,15.94,0.05,26,0,0,0
172402,121601904,5,0,0,15.94,0.05,26,0,0,0
172818,121709201,5,0,0,15.93,0.05,26,0,0,0
173232,121810000,5,0,0,15.94,0.05,26,0,0,0
173646,121916035,5,0,0,15.94,0.05,26,0,0,0
174099,122028132,5,0,0,15.94,0.05,26,0,0,0
174515,122133701,5,0,0,15.94,0.04,26,0,0,0
174928,122235389,5,0,0,15.94,0.05,26,0,0,0
175342,122342617,5,0,0,15.94,0.05,26,0,0,0
175798,122453499,5,0,0,15.94,0.05,26,0,0,0
176208,122557667,5,0,0,15.94,0.05,26,0,0,0
176659,122668382,5,0,0,15.94,0.05,26,0,0,0
177075,122770969,5,0,0,15.94,0.05,26,0,0,0
177495,122881179,5,0,0,15.94,0.05,26,0,0,0
177912,122983024,5,0,0,15.94,0.05,26,0,0,0
178358,123092805,5,0,0,15.94,0.05,26,0,0,0
178812,123203380,5,0,0,15.94,0.05,26,0,0,0
179226,123309917,5,0,0,15.94,0.05,26,0,0,0
179641,123413195,5,0,0,15.94,0.05,26,0,0,0
180095,123528961,5,0,0,15.94,0.05,26,0,0,0
180510,123630812,5,0,0,15.94,0.05,26,0,0,0
180921,123736447,5,0,0,15.93,0.05,26,0,0,0
181373,123851391,5,0,0,15.94,0.05,26,0,0,0
181790,123954679,5,0,0,15.94,0.05,26,0,0,0
182237,124063933,5,0,0,15.94,0.05,26,0,0,0
182651,124165216,5,0,0,15.93,0.05,26,0,0,0
183066,124273008,5,0,0,15.94,0.05,26,0,0,0
183519,124386617,5,0,0,15.94,0.05,26,0,0,0
183932,124489530,5,0,0,15.93,0.05,26,0,0,0
184345,124592690,5,0,0,15.93,0.05,26,0,0,0
184794,124704776,5,0,0,15.93,0.05,26,0,0,0
185252,124817015,5,0,0,15.94,0.05,26,0,0,0
185668,124922835,5,0,0,15.93,0.05,26,0,0,0
186081,125024044,5,0,0,15.94,0.05,26,0,0,0
186946,125240344,5,0,0,15.94,0.05,26,0,0,0
187363,125349343,5,0,0,15.93,0.05,26,0,0,0
187777,125455207,5,0,0,15.94,0.05,26,0,0,0
188237,125568816,5,0,0,15.94,0.05,26,0,0,0
188652,125677189,5,0,0,15.94,0.05,26,0,0,0
189065,125777523,5,0,0,15.94,0.05,26,0,0,0
189520,125893548,5,0,0,15.94,0.05,26,0,0,0
189935,125994992,5,0,0,15.94,0.05,26,0,0,0
190349,126102039,5,0,0,15.94,0.05,26,0,0,0
190803,126214792,5,0,0,15.94,0.05,26,0,0,0
191181,126312913,5,0,0,15.94,0.05,26,0,0,0
191636,126425276,5,0,0,15.94,0.05,26,0,0,0
192042,126526980,5,0,0,15.94,0.05,26,0,0,0
192498,126639032,5,0,0,15.94,0.05,26,0,0,0
192910,126743625,5,0,0,15.93,0.05,26,0,0,0
193679,126959578,5,0,0,15.94,0.05,26,0,0,0
194136,127072657,5,0,0,15.94,0.05,26,0,0,0
194553,127176700,5,0,0,15.94,0.05,26,0,0,0
194965,127281203,5,0,0,15.94,0.05,26,0,0,0
195423,127396487,5,0,0,15.94,0.05,26,0,0,0
195797,127492590,5,0,0,15.94,0.05,26,0,0,0
196252,127605700,5,0,0,15.93,0.05,26,0,0,0
196664,127710179,5,0,0,15.94,0.05,26,0,0,0
197116,127824034,5,0,0,15.94,0.05,26,0,0,0
197528,127925953,5,0,0,15.94,0.05,26,0,0,0
197985,128038345,5,0,0,15.94,0.05,26,0,0,0
198396,128143746,5,0,0,15.94,0.05,26,0,0,0
198415,173879014,5,0,0,15.94,0.05,26,1,0,0
198659,173939133,5,0,0,15.94,0.04,26,1,0,0
199116,174050179,5,0,0,15.94,0.04,26,1,0,0
199604,174161566,5,0,0,15.93,0.04,26,1,0,0
200054,174263178,5,0,0,15.94,0.05,26,1,0,0
200509,174366972,5,0,0,15.93,0.05,26,1,0,0
200967,174474640,5,0,0,15.93,0.05,26,1,0,0
201466,174586569,5,0,0,15.93,0.05,26,1,0,0
201919,174691830,5,0,0,15.94,0.05,26,1,0,0
202374,174794566,5,0,0,15.94,0.05,26,1,0,0
202830,174900819,5,0,0,15.94,0.05,26,1,0,0
203293,175010499,5,0,0,15.93,0.05,26,1,0,0
203747,175118558,5,0,0,15.94,0.05,26,1,0,0
204657,175329022,5,0,0,15.94,0.05,26,1,0,0
205154,175440188,5,0,0,15.93,0.05,26,1,0,0
205606,175546713,5,0,0,15.94,0.05,26,1,0,0
206053,175647988,5,0,0,15.94,0.05,26,1,0,0
206562,175765979,5,0,0,15.94,0.05,26,1,0,0
206970,175860998,5,0,0,15.94,0.05,26,1,0,0
207921,176075805,5,11,414,15.92,0.08,26,1,0,0
208418,176187621,5,451,842,15.91,0.14,26,1,0,0
208871,176292528,5,860,1128,15.92,0.15,26,1,0,0
209321,176393025,5,1131,1228,15.91,0.12,26,1,0,0
209622,176497964,5,1228,1257,15.92,0.12,26,1,0,0
210123,176611258,5,1258,1285,15.92,0.12,26,1,0,0
210574,176716643,5,1285,1285,15.92,0.11,26,1,0,0
211030,176818040,5,1285,1285,15.92,0.11,26,1,0,0
211486,176926475,5,1285,1285,15.92,0.11,26,1,0,0
211990,177037766,5,1285,1285,15.92,0.11,26,1,0,0
212478,177144918,5,1285,1285,15.92,0.11,26,1,0,0
212934,177246213,5,1285,1285,15.91,0.12,26,1,0,0
213389,177354987,5,1285,1285,15.92,0.11,26,1,0,0
213846,177463654,5,1285,1285,15.92,0.11,26,1,0,0
214302,177567180,5,1285,1285,15.91,0.11,26,1,0,0
214798,177681028,5,1285,1285,15.92,0.11,26,1,0,0
215258,177784102,5,1285,1285,15.91,0.11,26,1,0,0
215711,177889057,5,1285,1285,15.92,0.11,26,1,0,0
216169,177993534,5,1285,1285,15.92,0.11,26,1,0,0
216662,178105169,5,1285,1285,15.91,0.11,26,1,0,0
217117,178207656,5,1285,1285,15.92,0.12,26,1,0,0
217574,178315525,5,1285,1285,15.91,0.11,26,1,0,0
218071,178427408,5,1285,1285,15.91,0.12,26,1,0,0
218521,178532946,5,1285,1285,15.92,0.12,26,1,0,0
219019,178644992,5,1285,1285,15.91,0.11,26,1,0,0
219472,178750981,5,1285,1285,15.91,0.11,26,1,0,0
219964,178863745,5,1285,1285,15.91,0.11,26,1,0,0
220420,178967665,5,1285,1285,15.92,0.11,26,1,0,0
220827,179066479,5,1285,1285,15.91,0.11,26,1,0,0
221326,179178165,5,1285,1285,15.92,0.11,26,1,0,0
221822,179290063,5,1285,1285,15.92,0.11,26,1,0,0
222274,179390947,5,1285,1285,15.91,0.11,26,1,0,0
222728,179499963,5,1285,1285,15.92,0.11,26,1,0,0
223181,179607570,5,1285,1285,15.92,0.11,26,1,0,0
223634,179712932,5,1285,1285,15.92,0.11,26,1,0,0
224132,179825620,5,1285,1285,15.92,0.11,26,1,0,0
224589,179935504,5,1285,1285,15.91,0.11,26,1,0,0
225044,180037674,5,1285,1285,15.92,0.11,26,1,0,0
226440,180358150,5,1285,1285,15.91,0.11,26,1,0,0
226904,180470933,5,1285,1285,15.91,0.11,26,1,0,0
227360,180576139,5,1285,1285,15.91,0.11,26,1,0,0
227779,180678963,5,1285,1285,15.91,0.11,26,1,0,0
228278,180791417,5,1285,1285,15.91,0.11,26,1,0,0
228731,180896733,5,1285,1285,15.92,0.11,26,1,0,0
229228,181010650,5,1285,1285,15.91,0.11,26,1,0,0
229683,181120155,5,1285,1285,15.91,0.11,26,1,0,0
230141,181227113,5,1285,1285,15.91,0.11,26,1,0,0
230592,181334695,5,1285,1285,15.91,0.11,26,1,0,0
231045,181436676,5,1285,1285,15.92,0.11,26,1,0,0
231504,181545793,5,1285,1285,15.92,0.11,26,1,0,0
231955,181652625,5,1285,1285,15.91,0.11,26,1,0,0
232453,181766996,5,1285,1285,15.91,0.11,26,1,0,0
232911,181878030,5,1285,1285,15.92,0.11,26,1,0,0
233372,181982982,5,1285,1285,15.91,0.11,26,1,0,0
233823,182088424,5,1285,1300,15.91,0.11,26,1,0,0
234280,182193488,5,1299,1285,15.91,0.11,26,1,0,0
234735,182300588,5,1285,1285,15.91,0.11,26,1,0,0
235187,182403666,5,1285,1285,15.91,0.11,26,1,0,0
235681,182518019,5,1285,1285,15.91,0.11,26,1,0,0
236134,182621928,5,1285,1285,15.91,0.11,26,1,0,0
236624,182735788,5,1285,1285,15.91,0.11,26,1,0,0
237080,182838149,5,1285,1285,15.92,0.11,26,1,0,0
237575,182951025,5,1285,1285,15.92,0.11,26,1,0,0
238023,183057115,5,1285,1285,15.92,0.11,26,1,0,0
238477,183163791,5,1285,1285,15.91,0.11,26,1,0,0
238934,183272141,5,1285,1285,15.91,0.11,26,1,0,0
239424,183381528,5,1285,1285,15.92,0.11,26,1,0,0
239843,183484586,5,1285,1285,15.91,0.12,26,1,0,0
240338,183597683,5,1285,1285,15.91,0.11,26,1,0,0
240828,183709078,5,1285,1285,15.91,0.11,26,1,0,0
241281,183811563,5,1285,1285,15.91,0.11,26,1,0,0
241788,183930526,5,1206,400,15.94,0,26,1,0,0
242246,184038729,5,363,0,15.93,0.02,26,1,0,0
243150,184256470,5,0,0,15.94,0.05,26,1,0,0
243598,184363053,5,0,0,15.94,0.05,26,1,0,0
244051,184472794,5,0,0,15.93,0.05,26,1,0,0
244507,184580263,5,0,0,15.93,0.05,26,1,0,0
244961,184690602,5,0,0,15.93,0.05,26,1,0,0
245415,184796505,5,0,0,15.93,0.05,26,1,0,0
245907,184911803,5,0,0,15.93,0.05,26,1,0,0
246364,185017224,5,0,0,15.93,0.05,26,1,0,0
246814,185123977,5,0,0,15.94,0.04,26,1,0,0
247316,185240904,5,0,0,15.93,0.04,26,1,0,0
247727,185340551,5,0,0,15.93,0.04,26,1,0,0
248230,185464401,5,0,0,15.93,0.04,26,1,0,0
248680,185569066,5,0,0,15.93,0.04,26,1,0,0
249137,185681916,5,0,0,15.93,0.05,26,1,0,0
249593,185788620,5,0,0,15.93,0.05,26,1,0,0
250003,185888641,5,0,0,15.93,0.05,26,1,0,0
250503,186002193,5,0,0,15.93,0.05,26,1,0,0
250950,186104999,5,0,0,15.93,0.05,26,1,0,0
251403,186211043,5,0,0,15.94,0.05,26,1,0,0
251859,186324160,5,0,0,15.93,0.05,26,1,0,0
252313,186428588,5,0,0,15.93,0.05,26,1,0,0
252760,186534121,5,0,0,15.94,0.05,26,1,0,0
253252,186649741,5,0,0,15.93,0.04,26,1,0,0
253710,186757802,5,0,0,15.92,0.04,26,1,0,0
254167,186869524,5,0,0,15.93,0.05,26,1,0,0
254621,186974856,5,0,0,15.93,0.05,26,1,0,0
255072,187081511,5,0,0,15.93,0.05,26,1,0,0
255534,187190743,5,0,0,15.93,0.04,26,1,0,0
256036,187307969,5,0,0,15.92,0.04,26,1,0,0
256490,187411595,5,0,0,15.93,0.04,26,1,0,0
256942,187517601,5,0,0,15.93,0.04,26,1,0,0
257439,187631165,5,0,0,15.93,0.05,26,1,0,0
257889,187737362,5,0,0,15.93,0.05,26,1,0,0
258342,187839795,5,0,0,15.94,0.05,26,1,0,0
258805,187953509,5,0,0,15.94,0.05,26,1,0,0
259258,188058043,5,0,0,15.93,0.05,26,1,0,0
259719,188167007,5,0,0,15.94,0.05,26,1,0,0
260174,188276649,5,0,0,15.94,0.05,26,1,0,0
260627,188379053,5,0,0,15.94,0.04,26,1,0,0
261122,188494915,5,0,0,15.93,0.04,26,1,0,0
261574,188597543,5,0,0,15.93,0.04,26,1,0,0
262028,188703908,5,0,0,15.93,0.04,26,1,0,0
262525,188817360,5,0,0,15.94,0.04,26,1,0,0
262983,188925986,5,0,0,15.94,0.05,26,1,0,0
263435,189028706,5,0,0,15.93,0.05,26,1,0,0
263933,189145588,5,0,0,15.93,0.04,26,1,0,0
264391,189247720,5,7,128,15.91,0.08,26,1,0,0
264804,189351026,5,133,542,15.89,0.16,26,1,0,0
265341,189471771,5,594,1057,15.91,0.18,26,1,0,0
265796,189576541,5,1069,1200,15.91,0.13,26,1,0,0
266212,189680544,5,1201,1242,15.91,0.12,26,1,0,0
266666,189782598,5,1242,1271,15.92,0.12,26,1,0,0
267198,189901648,5,1271,1271,15.91,0.12,26,1,0,0
267650,190005762,5,1272,1285,15.91,0.11,26,1,0,0
268099,190110069,5,1285,1285,15.91,0.11,26,1,0,0
268597,190223534,5,1285,1285,15.91,0.11,26,1,0,0
269284,190431599,5,1285,1285,15.91,0.11,26,1,0,0
269739,190541148,5,1285,1285,15.91,0.11,26,1,0,0
270190,190643944,5,1285,1285,15.91,0.11,26,1,0,0
270683,190757778,5,1285,1285,15.91,0.11,26,1,0,0
271138,190864572,5,1285,1285,15.91,0.11,26,1,0,0
271635,190978494,5,1285,1285,15.91,0.11,26,1,0,0
272087,191084728,5,1285,1285,15.91,0.11,26,1,0,0
272583,191197991,5,1285,1285,15.91,0.11,26,1,0,0
273036,191302188,5,1285,1285,15.91,0.11,26,1,0,0
273494,191406541,5,1285,1285,15.91,0.11,26,1,0,0
273949,191514379,5,1285,1285,15.91,0.11,26,1,0,0
274413,191626599,5,1285,1285,15.91,0.11,26,1,0,0
274907,191737664,5,1285,1285,15.91,0.11,26,1,0,0
275365,191842187,5,1285,1300,15.9,0.14,26,1,0,0
275818,191951190,5,1317,1571,15.88,0.28,26,1,0,0
276722,192162621,5,1577,2342,15.68,0.79,26,1,0,0
277215,192279642,5,2387,2828,15.76,0.86,26,1,0,0
277673,192385977,5,2862,3314,15.6,1.38,26,1,0,0
278082,192485210,5,3324,3942,15.48,2.02,26,1,0,0
278580,192601831,5,3981,4414,15.29,2.73,26,1,0,0
279024,192706551,5,4446,5085,15.19,3.13,26,1,0,0
279520,192820150,5,5111,5500,15.11,3.61,26,2,0,0
279937,192926511,5,5528,6085,15.11,4.58,26,2,0,0
280436,193045176,5,6078,6028,15.12,3.98,26,2,0,0
280841,193143555,5,6030,6100,15.31,3.84,26,2,0,0
281334,193259948,5,6103,6142,15.17,3.62,26,2,0,0
281795,193367006,5,6125,5900,15.27,3.49,26,2,0,0
282244,193475939,5,5900,5900,15.38,3.02,26,2,0,0
282696,193580639,5,5898,5771,15.33,3.49,26,2,0,0
283191,193700413,5,5771,5785,15.25,3.64,26,3,0,0
283640,193806690,5,5776,5700,15.31,3.63,26,3,0,0
284052,193907513,5,5707,5857,15.12,3.66,26,3,0,0
284549,194023770,5,5865,5985,15.21,4,26,3,0,0
284959,194124807,5,5985,5985,15.19,3.93,26,3,0,0
285909,194350913,5,5984,5957,15.13,4.05,26,3,0,0
286365,194464270,5,5974,6157,15.13,3.71,27,3,0,0
286815,194569828,5,6149,6057,15.13,3.78,26,3,0,0
287720,194789730,5,6051,5942,15.18,3.59,27,4,0,0
288175,194901547,5,5930,5800,15.09,4.06,27,4,0,0
288628,195007699,5,5817,6085,15.08,4.02,27,4,0,0
289037,195109939,5,6086,6114,15.13,3.76,27,4,0,0
289537,195226690,5,6095,5914,15.11,3.84,27,4,0,0
289949,195329158,5,5914,5928,15.08,3.93,27,4,0,0
290895,195552567,5,5931,6000,15.18,3.55,27,5,0,0
291343,195658717,5,5985,5842,15.22,3.33,27,5,0,0
291795,195765615,5,5840,5814,15.17,3.2,27,5,0,0
292204,195870393,5,5814,5814,15.13,3.63,27,5,0,0
292706,195989205,5,5810,5771,15.13,3.31,27,5,0,0
293146,196090977,5,5771,5800,15.14,3.26,27,5,0,0
293643,196208263,5,5792,5714,15.14,3.45,27,5,0,0
294095,196314526,5,5720,5857,15.08,3.64,27,5,0,0
294999,196530654,5,5860,5957,15.17,3.35,27,5,0,0
295899,196749166,5,5955,5828,15.22,3.45,27,6,0,0
296825,196973038,5,5828,5871,15.2,3.4,27,6,0,0
297275,197086637,5,5854,5700,15.22,3.11,27,6,0,0
297683,197189006,5,5701,5785,15.22,3.11,27,6,0,0
298132,197300759,5,5778,5628,15.14,2.81,27,6,0,0
298578,197408614,5,5629,5714,15.2,3.31,27,6,0,0
299022,197520647,5,5712,5685,15.23,3.14,27,6,0,0
299471,197629753,5,5672,5557,15.25,2.92,27,6,0,0
299916,197745378,5,5548,5485,15.18,2.95,27,7,0,0
300325,197841742,5,5489,5585,15.21,3.02,27,7,0,0
300768,197953018,5,5592,5700,15.19,3.04,27,7,0,0
301658,198172975,5,5694,5528,15.13,2.96,27,7,0,0
302141,198293940,5,5534,5571,15.12,3.01,27,7,0,0
302552,198391118,5,5563,5457,15.15,2.79,27,7,0,0
302995,198503146,5,5454,5428,15.18,2.97,27,7,0,0
303848,198716723,5,5434,5600,15.13,3.14,27,7,0,0
304297,198825980,5,5592,5528,15.2,3.06,27,7,0,0
304699,198925027,5,5534,5671,15.15,3.2,27,7,0,0
305148,199035144,5,5668,5614,15.13,2.98,27,8,0,0
305593,199145535,5,5609,5514,15.15,2.98,27,8,0,0
306451,199360937,5,5515,5571,15.1,3.08,27,8,0,0
306933,199482790,5,5569,5557,15.05,3.24,27,8,0,0
307344,199577583,5,5559,5614,15.08,3.05,27,8,0,0
308244,199802601,5,5614,5614,15.19,2.75,27,8,0,0
308654,199909762,5,5594,5471,15.08,2.85,27,8,0,0
309063,200008139,5,5471,5528,15.08,3.02,27,8,0,0
309508,200120574,5,5525,5500,15.13,2.92,27,8,0,0
309955,200227991,5,5496,5457,15.15,2.82,27,9,0,0
310402,200338611,5,5469,5600,15.13,2.99,27,9,0,0
310846,200444448,5,5600,5614,15.09,3.3,27,9,0,0
311291,200562668,5,5627,5742,15.11,3.05,27,9,0,0
311734,200671960,5,5738,5714,15.06,3.7,27,9,0,0
312661,200892574,5,5726,5914,15.04,3.58,27,9,0,0
313517,201104400,5,5911,5857,15.04,3.47,28,9,0,0
313963,201212023,5,5856,5828,15.05,3.38,27,10,0,0
314412,201328771,5,5837,5914,15.08,3.55,27,10,0,0
314818,201427986,5,5920,5985,15.02,3.71,27,10,0,0
315261,201539406,5,5977,5914,15.04,3.67,27,10,0,0
316185,201760715,5,5904,5714,15.12,2.88,27,10,0,0
316633,201871208,5,5711,5685,15.12,3.07,27,10,0,0
317043,201977683,5,5680,5442,15.08,2.72,28,10,0,0
318379,202307529,5,5431,5128,15.16,2.42,28,10,0,0
318826,202413817,5,5131,5185,15.11,2.55,27,11,0,0
319274,202525782,5,5187,5214,15.1,2.68,28,11,0,0
319723,202634699,5,5220,5285,15.1,2.62,27,11,0,0
320090,202733659,5,5285,5285,15.07,2.55,27,11,0,0
320543,202842022,5,5287,5342,15.07,2.58,27,11,0,0
321871,203164825,5,5341,5285,15.12,2.14,27,11,0,0
323250,203508555,5,5291,5671,14.99,3.23,27,11,0,0
323697,203614924,5,5667,5585,15.09,2.82,27,11,0,0
324142,203724219,5,5581,5542,15.1,2.82,28,12,0,0
324588,203830761,5,5539,5442,15.1,2.6,27,12,0,0
325037,203942787,5,5445,5514,15,3.1,28,12,0,0
325478,204045157,5,5524,5728,15.07,3.11,27,12,0,0
326371,204269820,5,5723,5628,15.03,3.02,27,12,0,0
326778,204370980,5,5624,5585,15.03,3,27,12,0,0
327661,204584322,5,5586,5728,15.04,2.84,27,12,0,0
328109,204698728,5,5720,5628,15.03,3.3,28,12,0,0
328560,204809712,5,5606,5428,15.07,2.59,28,12,0,0
329414,205021179,5,5432,5557,15.05,2.7,27,13,0,0
329865,205138494,5,5573,5742,14.94,3.5,28,13,0,0
330274,205238198,5,5753,5914,14.96,3.47,28,13,0,0
331096,205571587,5,5849,5771,14.89,3.72,28,13,0,0
331539,205680213,5,5771,5771,15.02,3.73,28,13,0,0
331993,205791825,5,5763,5685,15.1,3.2,28,13,0,0
332392,205890344,5,5684,5671,15.04,3.07,28,13,0,0
332847,206004019,5,5671,5671,15.09,3.31,28,14,0,0
333291,206113213,5,5639,5328,15.09,2.8,28,14,0,0
333742,206221628,5,5335,5442,15.08,3.02,28,14,0,0
334187,206329727,5,5439,5414,15.13,2.47,27,14,0,0
334633,206435719,5,5395,5128,15.1,2.5,28,14,0,0
335036,206538596,5,5129,5214,15.08,2.77,28,14,0,0
335487,206654539,5,5216,5242,15.05,2.48,28,14,0,0
335939,206764399,5,5238,5200,15.02,2.26,28,14,0,0
336344,206864394,5,5205,5314,14.98,2.97,28,14,0,0
336788,206973768,5,5318,5414,15,3.08,28,14,0,0
337235,207089797,5,5411,5385,14.98,2.66,28,14,0,0
337682,207196764,5,5389,5457,15,2.88,28,14,0,0
338128,207303956,5,5437,5014,15.11,2.18,28,15,0,0
338580,207414055,5,5018,5071,15.11,2.58,28,15,0,0
338987,207520984,5,5082,5200,15.01,3,28,15,0,0
339433,207627830,5,5204,5271,15.04,2.84,28,15,0,0
339879,207737950,5,5280,5500,15.02,3.11,28,15,0,0
340329,207850169,5,5502,5542,15.05,3.28,28,15,0,0
340741,207953968,5,5540,5500,14.94,3.03,28,15,0,0
341197,208071815,5,5502,5528,15.08,3.23,28,15,0,0
341598,208169996,5,5524,5442,15.06,2.44,28,15,0,0
342044,208282951,5,5427,5285,15.12,2.37,28,15,0,0
342495,208392628,5,5279,5200,15.05,2.34,28,15,0,0
342946,208503198,5,5196,5157,14.97,2.65,28,15,0,0
343394,208610780,5,5182,5428,14.88,3.07,28,15,0,0
343841,208718616,5,5435,5542,15.03,3.05,28,16,0,0
344290,208826802,5,5539,5514,15.08,2.75,28,16,0,0
344695,208930036,5,5506,5328,15.04,2.89,28,16,0,0
345142,209035542,5,5326,5300,15.05,2.47,28,16,0,0
345586,209146692,5,5306,5457,15,3.09,28,16,0,0
346032,209256721,5,5458,5471,15.06,2.97,28,16,0,0
346482,209366546,5,5489,5671,15.04,3.26,28,16,0,0
346927,209476148,5,5657,5542,15.02,2.8,28,16,0,0
347337,209578199,5,5540,5514,15.01,3.32,28,16,0,0
347787,209690570,5,5511,5485,14.91,3.23,28,16,0,0
348238,209802648,5,5499,5685,14.95,3.1,28,16,0,0
348685,209914127,5,5678,5614,14.98,3.06,28,17,0,0
349138,210023555,5,5620,5685,14.94,3.74,28,17,0,0
349539,210123009,5,5691,6100,14.88,4.29,28,17,0,0
349987,210229822,5,6091,5928,15.04,2.87,28,17,0,0
350438,210343811,5,5897,5585,15.04,2.92,28,17,0,0
350887,210450910,5,5591,5657,15.03,3.21,28,17,0,0
351367,210562269,5,5654,5628,14.95,3.47,28,17,0,0
351768,210664174,5,5624,5557,14.96,3.13,28,17,0,0
352226,210779175,5,5549,5471,15.04,2.71,28,17,0,0
352629,210880409,5,5471,5485,14.96,2.87,28,17,0,0
353524,211100199,5,5495,5814,14.9,3.64,28,18,0,0
354415,211317538,5,5804,5600,14.9,3.19,28,18,0,0
354861,211422047,5,5604,5671,14.92,3.32,28,18,0,0
355309,211535611,5,5668,5642,14.92,3.24,28,18,0,0
356649,211864942,5,5647,5771,14.92,3.72,28,18,0,0
357051,211960051,5,5773,5914,14.97,3.35,28,18,0,0
357536,212077581,5,5909,5842,14.9,3.69,28,19,0,0
357990,212189568,5,5846,5942,14.87,3.94,28,19,0,0
358398,212294985,5,5938,5871,14.9,3.48,28,19,0,0
358850,212406064,5,5873,5942,14.86,4.17,28,19,0,0
359293,212515175,5,5947,6014,14.94,4.17,28,19,0,0
359744,212623978,5,6012,5985,14.92,3.86,28,19,0,0
360184,212725822,5,5983,5942,14.93,3.83,28,19,0,0
360685,212854720,5,5963,6114,14.96,3.99,28,19,0,0
361533,213063934,5,6109,6014,14.93,3.76,28,20,0,0
361983,213177390,5,6006,5885,14.89,3.61,28,20,0,0
362384,213282007,5,5885,5885,14.91,3.82,28,20,0,0
362834,213391594,5,5894,5957,14.8,3.85,28,20,0,0
363280,213498688,5,5973,6128,14.83,4,28,20,0,0
363726,213607984,5,6125,6100,14.85,4.27,28,20,0,0
364139,213712802,5,6104,6142,14.87,3.86,28,20,0,0
364590,213821615,5,6144,6200,14.77,4.23,28,21,0,0
365075,213941619,5,6195,6157,14.85,4.61,28,21,0,0
365480,214042162,5,6143,5842,14.88,3.43,28,21,0,0
366370,214259191,5,5847,5985,14.97,3.61,28,21,0,0
366817,214371221,5,5973,5857,14.99,3.56,28,21,0,0
367263,214479448,5,5872,6085,14.91,4.06,28,21,0,0
367709,214584562,5,6077,5985,14.86,3.81,28,21,0,0
368153,214696216,5,5975,5814,14.95,3.45,28,21,0,0
368603,214805378,5,5817,5985,14.89,3.45,28,21,0,0
369048,214913006,5,5976,5814,14.88,3.65,28,22,0,0
369500,215023978,5,5830,5971,14.96,3.7,28,22,0,0
369899,215120275,5,5970,5900,14.91,3.78,28,22,0,0
370353,215232059,5,5903,6085,14.89,3.67,28,22,0,0
370835,215345323,5,6078,5942,14.85,3.59,28,22,0,0
371291,215460510,5,5942,6000,14.83,3.79,28,22,0,0
371737,215568059,5,6001,6085,14.87,4.03,28,22,0,0
372186,215680915,5,6079,6028,14.87,3.91,28,22,0,0
372634,215791789,5,6032,6085,14.88,4.01,28,22,0,0
373081,215903181,5,6082,6057,14.97,3.95,28,23,0,0
373534,216011419,5,6062,6114,14.93,3.78,28,23,0,0
373934,216110425,5,6110,5900,14.86,3.78,28,23,0,0
374863,216330706,5,5903,6057,14.88,3.72,28,23,0,0
375313,216440631,5,6046,5900,14.83,4.19,28,23,0,0
375723,216546349,5,5897,5871,14.86,3.72,28,23,0,0
376211,216663368,5,5888,6071,14.85,4.27,28,23,0,0
376620,216764825,5,6055,5900,14.88,3.67,28,24,0,0
377067,216876541,5,5915,6071,14.86,3.74,28,24,0,0
377504,216974984,5,6071,6071,14.82,3.9,28,24,0,0
377950,217086496,5,6071,6100,14.81,3.97,28,24,0,0
378406,217200811,5,6084,5871,14.89,3.09,28,24,0,0
378853,217311597,5,5872,5942,14.88,3.79,28,24,0,0
379299,217418593,5,5942,5942,14.85,3.9,28,24,0,0
379790,217536166,5,5949,6028,14.91,3.85,28,24,0,0
380238,217645015,5,6021,5957,14.94,3.72,28,24,0,0
380682,217754329,5,5967,6071,14.91,3.81,28,25,0,0
381126,217863183,5,6069,5985,14.92,3.66,28,25,0,0
381529,217963052,5,5986,6071,14.85,3.5,28,25,0,0
382023,218081917,5,6055,5900,14.9,3.84,28,25,0,0
382469,218185835,5,5905,5971,14.8,3.77,28,25,0,0
382918,218298316,5,5962,5871,14.83,3.53,28,25,0,0
383360,218401159,5,5878,5942,14.88,3.49,28,25,0,0
383806,218511978,5,5938,5900,14.85,3.46,28,25,0,0
384255,218620530,5,5897,5857,14.91,3.24,28,26,0,0
384706,218733811,5,5852,5800,14.89,3.18,28,26,0,0
385108,218830372,5,5805,5928,14.78,3.82,28,26,0,0
385557,218943204,5,5940,6100,14.73,4.18,28,26,0,0
386008,219051175,5,6098,6071,14.81,4.45,28,26,0,0
386454,219159426,5,6064,5914,14.85,3.97,28,26,0,0
386893,219266008,5,5915,6057,14.8,3.92,28,26,0,0
387342,219374989,5,6057,6085,14.88,3.63,28,26,0,0
388195,219587306,5,6083,5900,14.79,3.78,28,26,0,0
388639,219695187,5,5900,5914,14.92,3.64,28,27,0,0
389085,219803802,5,5911,5814,14.87,3.13,28,27,0,0
389540,219923422,5,5817,5857,14.97,3.38,28,27,0,0
389989,220032656,5,5846,5742,14.95,3.38,28,27,0,0
390839,220239987,5,5741,5714,14.94,2.93,28,27,0,0
391329,220357798,5,5698,5542,14.86,3.27,28,27,0,0
392181,220568222,5,5540,5385,14.96,2.96,28,27,0,0
392630,220681127,5,5390,5442,14.92,2.93,28,27,0,0
393071,220783369,5,5447,5557,14.92,3.08,28,28,0,0
393520,220896190,5,5547,5428,14.95,2.76,28,28,0,0
393972,221007551,5,5428,5428,14.89,3.16,28,28,0,0
394379,221114046,5,5446,5628,14.86,2.99,29,28,0,0
394822,221216969,5,5625,5557,14.85,3.12,29,28,0,0
395268,221327828,5,5548,5328,14.94,3.22,28,28,0,0
395718,221437493,5,5331,5400,14.95,2.89,28,28,0,0
396171,221559819,5,5400,5400,14.92,2.92,28,28,0,0
396608,221664708,5,5400,5400,14.88,3.21,28,28,0,0
397060,221775543,5,5411,5514,14.96,3.15,28,28,0,0
397499,221878654,5,5520,5628,14.97,3.08,28,28,0,0
397953,221991114,5,5620,5557,14.83,3.24,28,29,0,0
398402,222103652,5,5570,5671,14.83,3.12,28,29,0,0
399166,222307733,5,5668,5571,14.9,3.21,28,29,0,0
400124,222635008,5,5551,5714,14.86,3.33,28,29,0,0
400977,222837904,5,5713,5700,14.87,3.36,28,29,0,0
401457,222960754,5,5690,5614,14.9,3.31,28,29,0,0
401902,223071171,5,5615,5628,14.86,3.13,28,30,0,0
402309,223166975,5,5627,5614,14.9,2.88,28,30,0,0
402756,223280981,5,5611,5557,14.93,3.01,28,30,0,0
403202,223388624,5,5555,5471,14.91,2.79,28,30,0,0
404103,223610914,5,5473,5557,14.89,3.08,28,30,0,0
405437,223939236,5,5557,5557,14.86,2.88,29,30,0,0
405843,224036732,5,5558,5657,14.86,3.27,28,30,0,0
406296,224145838,5,5654,5485,14.88,3.12,28,30,0,0
407223,224369299,5,5495,5728,14.84,3.41,28,31,0,0
407665,224477016,5,5743,5942,14.88,3.46,28,31,0,0
408121,224587011,5,5925,5714,14.87,3.28,28,31,0,0
408569,224701642,5,5720,5785,14.78,3.71,28,31,0,0
409014,224807530,5,5783,5757,14.86,3.66,28,31,0,0
409422,224912004,5,5757,5785,14.89,3.38,28,31,0,0
409869,225020509,5,5792,5900,14.88,3.22,29,31,0,0
410316,225130932,5,5887,5714,14.87,3.11,28,31,0,0
410764,225238054,5,5711,5657,14.83,3.02,28,31,0,0
411216,225351510,5,5649,5542,14.83,3.09,28,32,0,0
411663,225462755,5,5543,5557,14.86,2.84,28,32,0,0
412107,225568784,5,5562,5642,14.88,3.13,28,32,0,0
412517,225671683,5,5640,5585,14.89,2.91,28,32,0,0
412972,225784624,5,5582,5528,14.83,2.88,28,32,0,0
413418,225894765,5,5530,5585,14.84,3.42,28,32,0,0
413911,226011967,5,5599,5757,14.84,3.61,28,32,0,0
414310,226112811,5,5756,5742,14.75,3.65,28,32,0,0
414761,226222785,5,5753,5900,14.79,3.75,28,32,0,0
415200,226328730,5,5899,5885,14.8,3.62,28,32,0,0
415659,226446151,5,5885,5885,14.82,3.63,28,33,0,0
416074,226554212,5,5900,6057,14.82,4,28,33,0,0
416473,226655649,5,6054,5885,14.82,3.77,28,33,0,0
416971,226772776,5,5896,6014,14.76,3.96,28,33,0,0
417376,226877032,5,6003,5871,14.84,3.25,28,33,0,0
417829,226988034,5,5874,5914,14.82,3.72,28,33,0,0
418269,227091120,5,5907,5785,14.93,2.77,28,33,0,0
418758,227205981,5,5741,5157,15.01,2.39,28,33,0,0
419165,227311554,5,5158,5200,14.97,2.43,28,33,0,0
419614,227418955,5,5201,5271,14.9,2.95,28,33,0,0
420063,227531410,5,5266,5157,14.91,2.58,28,34,0,0
420550,227642169,5,5157,5171,14.95,2.22,28,34,0,0
420995,227751983,5,5167,5114,14.92,2.73,28,34,0,0
421855,227967813,5,5121,5485,14.91,3.33,28,34,0,0
422300,228076720,5,5486,5500,14.89,2.94,28,34,0,0
422749,228185767,5,5486,5357,14.92,2.72,28,34,0,0
423636,228403578,5,5360,5442,14.9,3.01,28,34,0,0
424530,228623640,5,5448,5585,14.9,3.07,28,34,0,0
424975,228733726,5,5582,5542,14.86,3.12,28,35,0,0
425427,228845551,5,5546,5585,14.85,3.29,28,35,0,0
426082,229066263,5,5574,5414,14.97,2.68,28,35,0,0
426488,229163566,5,5404,5271,14.91,2.44,28,35,0,0
427378,229386970,5,5271,5285,14.89,2.47,28,35,0,0
427818,229494449,5,5288,5314,14.86,2.78,28,35,0,0
428273,229601510,5,5302,5200,14.91,2.45,28,35,0,0
428679,229706257,5,5187,4985,14.95,2.23,28,35,0,0
429131,229817700,5,4992,5085,14.92,2.42,28,35,0,0
430471,230143596,5,5094,5385,14.88,2.71,28,36,0,0
430915,230253817,5,5377,5314,14.94,2.54,28,36,0,0
431363,230362564,5,5304,5200,14.97,2.17,28,36,0,0
431765,230465734,5,5198,5085,14.91,2.83,28,36,0,0
432257,230582578,5,5101,5257,14.86,2.75,28,36,0,0
432656,230678932,5,5254,5171,14.89,2.45,28,36,0,0
433108,230791510,5,5167,5100,14.92,2.4,28,36,0,0
433554,230901013,5,5104,5157,14.92,2.61,28,36,0,0
434450,231122955,5,5173,5528,14.88,2.96,28,36,0,0
434896,231232482,5,5522,5471,14.86,3.15,28,36,0,0
435341,231342963,5,5478,5557,14.87,3.27,28,36,0,0
435745,231445519,5,5557,5557,14.87,2.47,28,37,0,0
436192,231555542,5,5553,5485,14.88,2.98,28,37,0,0
436640,231669205,5,5477,5400,14.9,2.73,28,37,0,0
437088,231779823,5,5401,5414,14.92,2.88,28,37,0,0
437492,231883705,5,5418,5457,14.93,2.51,28,37,0,0
437936,231989404,5,5446,5214,14.98,2.08,28,37,0,0
438387,232102685,5,5205,5071,14.95,2.47,28,37,0,0
439275,232321051,5,5073,5442,14.9,2.84,28,37,0,0
439721,232427369,5,5446,5557,14.88,3.14,28,37,0,0
440615,232647957,5,5558,5600,14.82,3.25,28,37,0,0
441056,232756186,5,5602,5657,14.89,3.2,28,38,0,0
441505,232873173,5,5630,5357,14.89,2.74,28,38,0,0
441958,232984398,5,5384,5671,14.84,3.33,28,38,0,0
442360,233084201,5,5669,5585,14.94,2.99,28,38,0,0
442855,233200586,5,5582,5557,14.9,3.03,28,38,0,0
443299,233311372,5,5568,5685,14.82,3.21,28,38,0,0
443700,233410716,5,5684,5642,14.94,3,28,38,0,0
444146,233521703,5,5637,5542,14.97,2.66,28,38,0,0
444589,233627715,5,5539,5485,14.93,2.6,28,38,0,0
445043,233742949,5,5473,5314,15.01,2.47,28,38,0,0
445442,233844601,5,5313,5300,14.88,2.37,28,38,0,0
445931,233958510,5,5319,5500,14.82,3.29,28,39,0,0
446375,234066608,5,5544,5900,14.73,3.77,28,39,0,0
446778,234167082,5,5896,5828,14.78,3.36,28,39,0,0
447221,234276677,5,5824,5742,14.87,3.1,28,39,0,0
447671,234387240,5,5738,5671,14.89,2.92,28,39,0,0
448121,234498415,5,5669,5571,14.89,2.99,28,39,0,0
448610,234613989,5,5575,5628,14.79,3.02,28,39,0,0
449014,234716047,5,5627,5585,14.79,3.32,28,39,0,0
449459,234822345,5,5585,5628,14.79,3.14,28,39,0,0
449940,234937520,5,5628,5642,14.77,2.95,28,39,0,0
450391,235045650,5,5638,5571,14.85,2.86,28,40,0,0
450803,235153942,5,5573,5614,14.88,3.09,28,40,0,0
451209,235256489,5,5614,5614,14.85,2.81,28,40,0,0
451662,235365964,5,5610,5485,14.9,2.5,28,40,0,0
452078,235473134,5,5479,5300,14.83,2.45,28,40,0,0
452525,235580712,5,5300,5342,14.89,2.51,28,40,0,0
452975,235693017,5,5350,5471,14.88,2.94,28,40,0,0
453864,235907525,5,5470,5457,14.95,2.61,28,40,0,0
454359,236026962,5,5452,5400,14.85,2.43,28,40,0,0
454799,236133940,5,5401,5414,14.82,2.77,28,40,0,0
455206,236234798,5,5412,5342,14.82,2.62,28,40,0,0
455691,236350188,5,5346,5400,14.81,2.87,28,40,0,0
456094,236454167,5,5403,5685,14.8,3.49,28,41,0,0
456541,236561209,5,5676,5471,14.79,2.83,28,41,0,0
456986,236671376,5,5470,5428,14.83,2.76,28,41,0,0
457433,236779227,5,5427,5414,14.91,2.62,28,41,0,0
458361,237004016,5,5418,5514,14.82,3.16,28,41,0,0
458768,237109749,5,5512,5485,14.82,3.21,28,41,0,0
459213,237216954,5,5487,5657,14.8,3.28,28,41,0,0
459694,237334978,5,5673,5828,14.78,3.84,28,41,0,0
460146,237439730,5,5830,5857,14.73,3.47,28,41,0,0
460584,237549948,5,5870,5985,14.72,3.71,28,41,0,0
461035,237654052,5,5993,6085,14.75,3.84,28,42,0,0
461471,237762294,5,6068,5857,14.73,3.36,28,42,0,0
462365,237982782,5,5855,5814,14.76,3.74,28,42,0,0
462805,238091009,5,5819,5885,14.81,3.01,28,42,0,0
463291,238211221,5,5873,5771,14.84,3.65,28,42,0,0
463735,238323180,5,5782,5928,14.77,3.8,28,42,0,0
464592,238539806,5,5925,5871,14.79,3.58,28,43,0,0
465037,238651449,5,5887,6014,14.75,3.51,28,43,0,0
465485,238761016,5,6008,5885,14.73,3.7,28,43,0,0
465895,238858705,5,5885,5900,14.79,3.57,28,43,0,0
466340,238968574,5,5897,5857,14.75,3.63,28,43,0,0
466826,239091166,5,5870,6014,14.75,3.71,28,43,0,0
467227,239186753,5,6021,6114,14.76,3.93,28,43,0,0
467631,239291677,5,6106,5957,14.77,3.62,28,43,0,0
468121,239407742,5,5953,5914,14.73,3.58,28,43,0,0
468562,239516986,5,5902,5785,14.78,3.27,28,44,0,0
468967,239615567,5,5786,5914,14.75,3.83,28,44,0,0
469416,239730931,5,5911,5885,14.75,3.56,28,44,0,0
469860,239835997,5,5872,5757,14.72,3.52,28,44,0,0
470270,239940359,5,5758,5785,14.81,3.48,28,44,0,0
470716,240051729,5,5786,5800,14.77,3.57,28,44,0,0
471157,240158661,5,5801,5814,14.76,3.42,28,44,0,0
471565,240260577,5,5813,5800,14.84,3.38,28,44,0,0
472012,240369766,5,5799,5785,14.79,3.48,28,44,0,0
472459,240479727,5,5787,5828,14.77,3.51,28,44,0,0
473316,240694592,5,5827,5771,14.8,3.53,28,45,0,0
473761,240801950,5,5770,5714,14.8,3.48,28,45,0,0
474212,240911942,5,5714,5742,14.82,3.03,28,45,0,0
474663,241023506,5,5741,5700,14.8,3.3,28,45,0,0
475110,241136761,5,5703,5742,14.75,3.56,28,45,0,0
475564,241249407,5,5739,5714,14.79,3.47,28,45,0,0
475960,241347262,5,5712,5685,14.76,3.34,28,45,0,0
476893,241574703,5,5688,5785,14.72,3.5,28,45,0,0
477338,241684904,5,5798,5928,14.72,3.55,28,46,0,0
477750,241788424,5,5930,5957,14.8,3.63,28,46,0,0
478154,241890178,5,5956,5942,14.68,3.88,28,46,0,0
478646,242005168,5,5944,5971,14.67,3.72,28,46,0,0
479049,242109550,5,5974,6014,14.66,4.26,28,46,0,0
479497,242220611,5,6021,6128,14.67,4.17,28,46,0,0
479945,242333042,5,6113,5971,14.75,3.77,28,46,0,0
480395,242443787,5,5956,5742,14.8,3.3,28,46,0,0
480840,242553015,5,5753,5928,14.79,3.57,28,46,0,0
481287,242667818,5,5908,5671,14.76,3.55,28,47,0,0
481690,242765772,5,5673,5742,14.81,2.92,28,47,0,0
482168,242876659,5,5739,5685,14.77,3.15,28,47,0,0
482623,242987073,5,5675,5571,14.77,3,28,47,0,0
483024,243086734,5,5571,5628,14.8,3.26,28,47,0,0
483472,243196219,5,5627,5614,14.88,2.94,28,47,0,0
483951,243310588,5,5617,5657,14.83,3.35,28,47,0,0
484400,243417213,5,5663,5728,14.8,3.2,28,47,0,0
484800,243518946,5,5727,5671,14.79,2.93,28,47,0,0
485289,243636347,5,5653,5471,14.83,2.88,28,47,0,0
485689,243737609,5,5468,5442,14.88,2.74,28,48,0,0
486140,243853959,5,5448,5500,14.8,2.81,28,48,0,0
486593,243962265,5,5496,5457,14.88,2.71,28,48,0,0
487039,244071315,5,5446,5357,14.88,2.84,28,48,0,0
487488,244181287,5,5378,5600,14.85,2.73,28,48,0,0
487888,244283809,5,5598,5571,14.71,3.22,28,48,0,0
488334,244390734,5,5575,5728,14.75,3.19,28,48,0,0
488789,244508108,5,5712,5557,14.73,3.18,28,48,0,0
489234,244614367,5,5559,5714,14.77,3.24,28,48,0,0
489679,244723183,5,5714,5728,14.75,3.25,28,48,0,0
491025,245055569,5,5735,5942,14.82,3.66,28,49,0,0
491427,245154400,5,5938,5742,14.75,3.26,28,49,0,0
491910,245270710,5,5746,5828,14.82,3.14,28,49,0,0
492405,245389049,5,5816,5700,14.84,3.08,28,49,0,0
492811,245491601,5,5717,5957,14.73,3.54,28,49,0,0
493259,245599493,5,5944,5771,14.76,2.88,28,49,0,0
494153,245817792,5,5763,5600,14.8,3.11,28,49,0,0
494598,245927424,5,5610,5728,14.76,3.62,28,49,0,0
495053,246037974,5,5720,5642,14.76,2.86,28,50,0,0
495453,246137772,5,5642,5642,14.74,3.06,28,50,0,0
495944,246254708,5,5635,5571,14.76,3.18,28,50,0,0
496345,246357711,5,5577,5671,14.82,3.21,28,50,0,0
496795,246471708,5,5662,5542,14.82,3.25,28,50,0,0
497243,246588587,5,5577,5771,14.79,3.56,28,50,0,0
497687,246697015,5,5775,5828,14.81,3.35,28,50,0,0
498535,246899718,5,5828,5914,14.77,3.73,28,50,0,0
499022,247018715,5,5902,5800,14.82,3.5,28,50,0,0
499429,247116997,5,5797,5742,14.77,3.42,28,51,0,0
499873,247225709,5,5742,5757,14.82,3.2,28,51,0,0
500280,247328808,5,5757,5757,14.75,3.28,28,51,0,0
500734,247444588,5,5766,5871,14.8,3.65,28,51,0,0
501215,247561228,5,5858,5728,14.78,3.41,28,51,0,0
502025,247768543,5,5727,5685,14.82,3.33,28,51,0,0
502467,247878000,5,5683,5557,14.77,3.1,28,51,0,0
503355,248091424,5,5561,5771,14.84,3.17,28,51,0,0
503840,248205022,5,5766,5728,14.8,3.46,28,52,0,0
504287,248322768,5,5728,5728,14.83,3.55,28,52,0,0
504694,248416931,5,5729,5828,14.79,3.41,28,52,0,0
505138,248526247,5,5826,5700,14.83,3.68,28,52,0,0
505587,248634998,5,5701,5742,14.73,3.47,28,52,0,0
506029,248748420,5,5740,5728,14.8,3.63,28,52,0,0
506471,248858786,5,5741,5857,14.79,3.73,28,52,0,0
506878,248957536,5,5853,5728,14.75,3.78,28,52,0,0
507335,249075123,5,5737,5828,14.72,3.55,28,52,0,0
507736,249173551,5,5829,5900,14.72,3.68,28,53,0,0
508182,249288741,5,5894,5828,14.77,3.38,28,53,0,0
509028,249495786,5,5828,5828,14.77,3.38,28,53,0,0
509525,249619239,5,5830,5857,14.79,3.28,28,53,0,0
509932,249725050,5,5825,5585,14.77,3.01,28,53,0,0
510779,249932795,5,5583,5471,14.82,2.93,28,53,0,0
511231,250043793,5,5468,5414,14.76,2.93,28,53,0,0
511716,250163397,5,5423,5514,14.79,3.06,28,53,0,0
512163,250270589,5,5503,5400,14.75,3.14,28,53,0,0
512613,250383731,5,5410,5528,14.77,3.26,28,54,0,0
513013,250484788,5,5529,5542,14.76,3.13,28,54,0,0
513904,250703654,5,5543,5614,14.72,3.35,28,54,0,0
514804,250929667,5,5620,5757,14.75,3.53,28,54,0,0
515254,251038597,5,5754,5728,14.69,3.51,28,54,0,0
515654,251138793,5,5728,5728,14.76,3.31,28,54,0,0
516104,251250615,5,5725,5685,14.76,3.45,28,54,0,0
516504,251351765,5,5684,5657,14.76,3.19,28,54,0,0
516996,251472769,5,5667,5785,14.79,3.26,28,55,0,0
517403,251573774,5,5776,5700,14.81,3.39,28,55,0,0
518292,251792164,5,5698,5671,14.77,3.46,28,55,0,0
518729,251897070,5,5673,5728,14.77,3.41,28,55,0,0
519181,252008003,5,5726,5700,14.74,3.35,28,55,0,0
519625,252119574,5,5701,5714,14.79,3.1,28,55,0,0
520069,252225821,5,5714,5728,14.76,3.22,28,55,0,0
520505,252330007,5,5728,5728,14.8,3.34,28,55,0,0
520959,252441055,5,5718,5585,14.73,3.19,28,55,0,0
522257,252763155,5,5585,5685,14.77,3.6,28,56,0,0
522742,252876511,5,5685,5685,14.76,3.14,28,56,0,0
523201,252992168,5,5676,5600,14.75,3.07,28,56,0,0
523601,253094822,5,5608,5771,14.81,3.14,28,56,0,0
524055,253206598,5,5752,5500,14.76,3.08,28,56,0,0
524499,253314627,5,5507,5600,14.75,3.07,28,56,0,0
524950,253422044,5,5597,5571,14.79,3.21,28,56,0,0
525350,253524727,5,5571,5585,14.82,3.17,28,56,0,0
525846,253643829,5,5588,5628,14.82,2.99,28,57,0,0
526252,253749017,5,5624,5585,14.83,3.13,28,57,0,0
526706,253857156,5,5585,5585,14.79,3.21,28,57,0,0
527149,253967731,5,5578,5514,14.75,3.16,28,57,0,0
527511,254062807,5,5516,5642,14.79,3.52,28,57,0,0
527994,254174951,5,5645,5714,14.78,3.44,28,57,0,0
528400,254280816,5,5710,5557,14.79,3.11,28,57,0,0
528854,254392741,5,5558,5600,14.82,3.14,28,57,0,0
529297,254503614,5,5605,5671,14.8,3.34,28,57,0,0
529708,254607553,5,5668,5542,14.84,3.23,28,57,0,0
530150,254717235,5,5545,5785,14.78,3.43,28,58,0,0
530641,254833395,5,5787,5828,14.77,3.77,28,58,0,0
531083,254943543,5,5837,5971,14.72,3.92,28,58,0,0
531532,255052214,5,5980,6114,14.68,4.1,28,58,0,0
531935,255154522,5,6116,6285,14.62,4.34,28,58,0,0
532423,255273748,5,6284,6214,14.56,4.76,28,58,0,0
532873,255381797,5,6238,6442,14.56,4.88,28,58,0,0
533310,255487165,5,6439,6314,14.61,4.5,28,58,0,0
533758,255595983,5,6309,6228,14.67,4.3,28,59,0,0
534164,255698186,5,6225,6071,14.58,4.06,28,59,0,0
534655,255816623,5,6074,6128,14.66,3.82,28,59,0,0
535055,255917923,5,6126,6042,14.72,3.88,28,59,0,0
535541,256031019,5,6035,5942,14.7,3.67,28,59,0,0
535982,256139569,5,5924,5685,14.72,3.53,28,59,0,0
536428,256245493,5,5691,5828,14.73,3.15,28,59,0,0
536877,256358736,5,5820,5742,14.72,3.27,28,59,0,0
537278,256460747,5,5740,5614,14.75,2.99,28,59,0,0
537761,256572519,5,5602,5485,14.77,3.07,28,60,0,0
538167,256677621,5,5492,5585,14.76,3.36,28,60,0,0
538620,256788502,5,5594,5742,14.69,3.58,28,60,0,0
539027,256892912,5,5742,5742,14.72,3.97,28,60,0,0
539480,257004527,5,5745,5942,14.7,3.63,28,60,0,0
539924,257116211,5,5931,5828,14.77,3.46,28,60,0,0
540368,257222936,5,5825,5785,14.79,3.46,28,60,0,0
540811,257330955,5,5781,5728,14.77,3.36,28,60,0,0
541259,257443962,5,5728,5728,14.8,3.6,28,60,0,0
541660,257539908,5,5728,5771,14.83,3.42,28,60,0,0
542183,257662800,5,5776,5814,14.83,3.28,28,61,0,0
542587,257761597,5,5799,5614,14.85,3.06,28,61,0,0
543001,257870759,5,5616,5642,14.89,3.02,28,61,0,0
543449,257977180,5,5640,5600,14.81,3.22,28,61,0,0
543924,258090424,5,5583,5442,14.87,2.94,28,61,0,0
544372,258198735,5,5449,5514,14.83,3.11,28,61,0,0
544811,258307573,5,5504,5428,14.77,2.85,28,61,0,0
545655,258518599,5,5424,5357,14.78,2.76,28,61,0,0
546106,258631903,5,5357,5357,14.86,2.72,28,61,0,0
546509,258729917,5,5355,5328,14.8,2.65,28,61,0,0
546955,258835754,5,5328,5357,14.85,2.88,28,62,0,0
547433,258949516,5,5369,5571,14.79,3.27,28,62,0,0
547885,259058520,5,5571,5571,14.78,3.12,28,62,0,0
548330,259171782,5,5557,5442,14.8,3.22,28,62,0,0
549181,259386148,5,5471,5957,14.72,3.6,28,62,0,0
549624,259492131,5,5935,5700,14.8,3.3,28,62,0,0
550069,259598724,5,5702,5742,14.76,3.28,28,62,0,0
550472,259705771,5,5741,5728,14.82,3.35,28,62,0,0
550969,259826196,5,5721,5671,14.79,3.24,28,62,0,0
551376,259931519,5,5692,5842,14.77,3.92,28,63,0,0
551827,260040184,5,5840,5828,14.75,3.78,28,63,0,0
552230,260138803,5,5830,5971,14.71,4.04,28,63,0,0
552675,260250787,5,5968,5914,14.75,3.77,28,63,0,0
553120,260359068,5,5905,5785,14.74,3.29,28,63,0,0
553568,260473491,5,5782,5757,14.77,3.45,28,63,0,0
554016,260582002,5,5753,5714,14.71,3.59,28,63,0,0
554420,260685511,5,5714,5757,14.78,3.16,28,63,0,0
554868,260794416,5,5755,5671,14.73,3.39,28,63,0,0
555315,260904762,5,5673,5700,14.71,3.2,28,64,0,0
555806,261020590,5,5689,5571,14.73,3.32,28,64,0,0
556171,261115580,5,5573,5685,14.74,3.83,28,64,0,0
556696,261234637,5,5702,5942,14.72,4,28,64,0,0
557060,261328607,5,5943,5971,14.79,3.74,28,64,0,0
557512,261439935,5,5971,5971,14.73,4,28,64,0,0
557920,261548540,5,5975,6042,14.76,4,28,64,0,0
558770,261760487,5,6047,6271,14.73,4.1,28,64,0,0
559218,261873007,5,6257,6100,14.75,3.89,28,65,0,0
560101,262084826,5,6098,5971,14.82,3.65,28,65,0,0
560556,262195565,5,5973,6100,14.75,4.08,28,65,0,0
561041,262311028,5,6091,6000,14.64,3.66,28,65,0,0
561490,262418986,5,6008,6085,14.73,4,28,65,0,0
561890,262519936,5,6083,6014,14.67,4.15,28,65,0,0
562382,262637607,5,6023,6114,14.76,4.16,28,65,0,0
562788,262743252,5,6104,5971,14.69,3.91,28,65,0,0
563234,262854500,5,5982,6142,14.69,4.04,28,66,0,0
563686,262965408,5,6130,6014,14.81,3.55,28,66,0,0
564084,263062191,5,6012,5957,14.79,3.72,28,66,0,0
564533,263170785,5,5953,5742,14.84,3.2,28,66,0,0
564987,263285937,5,5752,6000,14.83,3.81,28,66,0,0
565437,263393716,5,5990,5771,14.8,3.23,28,66,0,0
565888,263508014,5,5772,5800,14.77,3.44,28,66,0,0
566338,263618331,5,5806,5900,14.79,3.48,28,66,0,0
566782,263727499,5,5876,5628,14.8,2.99,28,66,0,0
567188,263828380,5,5632,5728,14.76,3.46,28,67,0,0
567635,263939982,5,5754,6114,14.72,4.35,28,67,0,0
568081,264044602,5,6116,6285,14.76,4.29,28,67,0,0
568525,264155046,5,6276,6157,14.7,3.75,28,67,0,0
568972,264267481,5,6123,5657,14.75,3.12,28,67,0,0
569423,264377226,5,5661,5714,14.68,3.62,28,67,0,0
569565,264480676,5,5735,6014,14.68,3.82,28,67,0,0
569979,264594418,5,6020,6085,14.65,4.15,28,67,0,0
570386,264699825,5,6081,5985,14.64,3.82,28,68,0,0
570870,264812709,5,5998,6128,14.68,3.75,28,68,0,0
571276,264916463,5,6123,5871,14.63,3.77,28,68,0,0
571721,265023045,5,5869,5814,14.6,3.8,29,68,0,0
572166,265133531,5,5823,6057,14.58,4.1,28,68,0,0
572612,265242690,5,6057,6057,14.57,4.16,28,68,0,0
573061,265354557,5,6054,5942,14.55,4.29,29,68,0,0
573508,265465030,5,5947,6100,14.57,4.03,28,68,0,0
573952,265570903,5,6091,5985,14.56,4.29,28,69,0,0
574396,265684449,5,5996,6114,14.53,4.16,29,69,0,0
574847,265792949,5,6095,5914,14.64,3.4,28,69,0,0
575287,265895635,5,5907,5785,14.62,3.45,28,69,0,0
575742,266009505,5,5800,5957,14.66,3.57,28,69,0,0
576146,266115799,5,5950,5857,14.58,3.97,29,69,0,0
576593,266223743,5,5860,5942,14.6,3.76,28,69,0,0
577077,266343725,5,5951,6042,14.62,4.38,28,69,0,0
577529,266448409,5,6052,6200,14.64,3.99,28,69,0,0
577967,266559196,5,6187,6014,14.62,3.88,29,70,0,0
578420,266675500,5,5977,5671,14.69,2.97,28,70,0,0
578829,266775498,5,5666,5614,14.68,3.29,28,70,0,0
579275,266889011,5,5620,5700,14.75,3.24,28,70,0,0
579721,266996913,5,5702,5728,14.73,3.24,28,70,0,0
580169,267107859,5,5729,5742,14.7,3.56,28,70,0,0
580614,267214354,5,5742,5742,14.69,3.36,28,70,0,0
581022,267318581,5,5740,5700,14.66,3.26,28,70,0,0
581516,267439811,5,5707,5771,14.76,2.91,28,70,0,0
581921,267542618,5,5753,5514,14.75,2.9,28,70,0,0
582370,267650122,5,5515,5528,14.73,3.06,28,71,0,0
582773,267753717,5,5524,5414,14.7,2.85,29,71,0,0
583215,267862981,5,5414,5414,14.75,3,29,71,0,0
584113,268085729,5,5413,5385,14.66,3.09,29,71,0,0
584564,268197497,5,5396,5642,14.71,3.2,29,71,0,0
585053,268316253,5,5632,5528,14.7,3.21,29,71,0,0
585462,268416623,5,5536,5642,14.66,3.36,28,71,0,0
585909,268530448,5,5643,5671,14.69,3.48,29,71,0,0
586364,268641813,5,5669,5657,14.75,3.28,29,71,0,0
586765,268743183,5,5658,5685,14.73,3.04,28,71,0,0
587659,268962626,5,5690,5814,14.73,3.43,29,72,0,0
588549,269181171,5,5809,5714,14.64,3.12,28,72,0,0
588995,269292050,5,5717,5757,14.7,3.31,28,72,0,0
589436,269395210,5,5763,5857,14.73,3.38,28,72,0,0
589850,269504422,5,5841,5685,14.73,3.31,28,72,0,0
590297,269610934,5,5696,5857,14.69,3.63,29,72,0,0
590706,269719951,5,5857,5857,14.67,3.48,28,72,0,0
591159,269828138,5,5859,5900,14.68,3.58,28,73,0,0
591563,269933787,5,5897,5842,14.72,3.36,29,73,0,0
592019,270044793,5,5841,5828,14.71,3.39,29,73,0,0
592461,270151789,5,5823,5757,14.69,3.52,29,73,0,0
592906,270262970,5,5753,5728,14.68,3.02,28,73,0,0
593356,270372734,5,5728,5728,14.73,3.45,29,73,0,0
593755,270472985,5,5727,5714,14.72,3.23,29,73,0,0
594209,270584046,5,5714,5742,14.69,3.54,29,73,0,0
594657,270695210,5,5744,5800,14.67,3.71,29,73,0,0
595113,270809707,5,5818,6000,14.69,3.81,29,73,0,0
595554,270916158,5,5995,5900,14.67,3.81,28,74,0,0
596005,271024759,5,5904,5971,14.69,4.07,29,74,0,0
596446,271134027,5,5971,5971,14.71,4.23,28,74,0,0
596858,271237185,5,5976,6085,14.66,4.27,29,74,0,0
597308,271354500,5,6086,6100,14.64,4.43,29,74,0,0
597712,271453858,5,6102,6271,14.69,4.8,29,74,0,0
598161,271564035,5,6277,6442,14.66,4.85,29,74,0,0
598611,271680800,5,6435,6371,14.68,4.86,28,75,0,0
599022,271781942,5,6372,6414,14.65,4.7,29,75,0,0
599462,271891046,5,6415,6457,14.7,4.46,29,75,0,0
599916,272003386,5,6449,6300,14.66,4.44,29,75,0,0
600360,272113577,5,6290,6200,14.72,4.06,28,75,0,0
600767,272213952,5,6192,6042,14.69,3.99,28,75,0,0
601254,272333726,5,6038,6000,14.65,4.03,29,75,0,0
601700,272440130,5,5995,5928,14.76,3.82,29,75,0,0
602144,272551596,5,5916,5800,14.69,3.62,29,76,0,0
602625,272665960,5,5794,5714,14.71,3.59,29,76,0,0
603030,272764122,5,5715,5742,14.69,3.45,28,76,0,0
603476,272876590,5,5744,5800,14.68,3.22,29,76,0,0
603970,272999810,5,5796,5771,14.75,3.88,29,76,0,0
604412,273100912,5,5773,5814,14.64,4.26,29,76,0,0
604859,273209736,5,5832,6128,14.62,4.4,29,76,0,0
605265,273313725,5,6133,6242,14.6,4.42,29,76,0,0
605711,273421553,5,6233,6057,14.65,3.93,28,76,0,0
606160,273533766,5,6062,6142,14.7,3.71,29,77,0,0
606613,273645005,5,6129,5957,14.67,3.58,29,77,0,0
607017,273747597,5,5949,5771,14.71,3.54,29,77,0,0
607498,273864808,5,5767,5728,14.67,3.44,29,77,0,0
607947,273975700,5,5730,5757,14.66,3.55,29,77,0,0
608354,274080196,5,5757,5757,14.66,3.49,29,77,0,0
608802,274186773,5,5744,5628,14.64,3.25,29,77,0,0
609203,274286520,5,5628,5671,14.73,3.19,29,77,0,0
609649,274392592,5,5670,5657,14.68,3.17,29,77,0,0
610096,274501939,5,5655,5642,14.7,2.77,29,78,0,0
610543,274610126,5,5641,5628,14.6,3.16,29,78,0,0
610992,274724165,5,5630,5657,14.64,3.31,29,78,0,0
611438,274834151,5,5670,5828,14.59,3.74,29,78,0,0
611849,274937043,5,5830,5885,14.56,3.92,29,78,0,0
612299,275050062,5,5868,5742,14.61,3.56,29,78,0,0
612746,275159951,5,5749,5814,14.62,3.68,29,78,0,0
613190,275271998,5,5829,6000,14.69,3.43,29,78,0,0
613599,275373011,5,5982,5814,14.71,3.47,29,78,0,0
614050,275484400,5,5825,5942,14.63,3.72,29,79,0,0
614495,275593562,5,5946,6000,14.64,4.02,29,79,0,0
615393,275816517,5,6001,6028,14.6,3.87,29,79,0,0
615836,275925595,5,6028,6028,14.62,3.97,29,79,0,0
616289,276037538,5,6031,6071,14.67,3.74,29,79,0,0
616691,276136679,5,6071,6071,14.69,3.57,29,79,0,0
617175,276252629,5,6055,5928,14.65,3.7,29,79,0,0
617579,276352910,5,5928,5957,14.6,3.67,29,79,0,0
618515,276577700,5,5949,5728,14.6,3.27,29,80,0,0
618916,276679746,5,5733,6100,14.66,3.86,29,80,0,0
619446,276803591,5,6097,6071,14.61,4.63,29,80,0,0
619843,276902572,5,6076,6171,14.57,4.37,29,80,0,0
620292,277010830,5,6168,6000,14.65,3.56,29,80,0,0
620693,277110562,5,5994,5900,14.7,3.39,29,80,0,0
621142,277217144,5,5899,5885,14.69,3.56,29,80,0,0
621594,277333151,5,5881,5828,14.64,3.84,29,80,0,0
622037,277438821,5,5826,5800,14.75,2.58,29,81,0,0
622487,277550797,5,5776,5428,14.79,2.24,29,81,0,0
622934,277665413,5,5398,5085,14.8,2.54,29,81,0,0
623821,277879720,5,5073,4757,14.99,1.72,29,81,0,0
624270,277987858,5,4765,4871,14.97,2.31,29,81,0,0
624712,278094027,5,4868,4771,14.95,1.8,29,81,0,0
625207,278213741,5,4766,4700,15.04,1.52,29,81,0,0
625619,278320590,5,4680,4500,15.04,1.59,29,81,0,0
626058,278421972,5,4501,4585,14.92,1.78,29,81,0,0
626465,278529213,5,4585,4600,14.97,1.68,29,81,0,0
626912,278640383,5,4606,4728,14.92,1.98,29,81,0,0
627355,278751768,5,4727,4714,14.94,1.93,29,81,0,0
627804,278865809,5,4739,4957,14.85,1.88,29,81,0,0
628242,278967751,5,4954,4914,14.86,2.11,29,81,0,0
628695,279079948,5,4916,4942,14.88,2.17,29,81,0,0
629142,279187666,5,4943,4957,14.81,1.96,29,82,0,0
629591,279297690,5,4961,5028,14.83,2.17,29,82,0,0
630039,279406486,5,5026,5014,14.8,2.36,29,82,0,0
630439,279507951,5,5017,5228,14.73,2.89,29,82,0,0
630931,279623928,5,5233,5314,14.82,2.21,29,82,0,0
631376,279734722,5,5298,5142,14.88,2.24,29,82,0,0
631823,279840116,5,5141,5128,14.77,2.17,29,82,0,0
632269,279953141,5,5122,5042,14.85,2.1,29,82,0,0
632717,280062745,5,5042,5042,14.92,2.11,28,82,0,0
633162,280172672,5,5027,4828,14.93,1.76,29,82,0,0
633609,280285593,5,4824,4771,14.82,1.83,29,82,0,0
634019,280386477,5,4772,4842,14.85,2.04,29,82,0,0
634503,280505618,5,4862,5071,14.86,2.48,29,82,0,0
634910,280604913,5,5070,5042,14.77,2.75,28,82,0,0
635391,280718603,5,5035,4957,14.83,2.07,29,82,0,0
635836,280825614,5,4953,4900,14.76,2.22,29,82,0,0
636285,280938925,5,4911,5028,14.76,2.6,29,83,0,0
636691,281037952,5,5039,5271,14.73,2.81,28,83,0,0
637143,281153765,5,5274,5328,14.74,2.37,28,83,0,0
637544,281255089,5,5329,5442,14.65,2.98,29,83,0,0
637992,281366484,5,5430,5200,14.67,2.1,28,83,0,0
638442,281480713,5,5205,5285,14.75,2.29,28,83,0,0
638887,281587180,5,5282,5242,14.77,2.73,28,83,0,0
639290,281689593,5,5242,5271,14.73,3.04,28,83,0,0
639745,281809247,5,5273,5300,14.77,2.53,28,83,0,0
640192,281918657,5,5297,5271,14.79,2.57,28,83,0,0
640671,282027580,5,5266,5214,14.73,2.67,28,83,0,0
641079,282126003,5,5214,5228,14.76,2.69,28,83,0,0
641564,282247901,5,5226,5214,14.76,2.56,29,84,0,0
641970,282350006,5,5221,5285,14.69,2.95,28,84,0,0
642416,282457732,5,5290,5357,14.71,3.13,28,84,0,0
642824,282561729,5,5360,5400,14.76,2.89,28,84,0,0
643232,282664529,5,5400,5414,14.76,2.87,28,84,0,0
643720,282782809,5,5419,5471,14.63,3.23,28,84,0,0
644117,282885066,5,5478,5757,14.61,3.85,28,84,0,0
644605,283004347,5,5759,5785,14.69,3.15,29,84,0,0
645057,283117995,5,5780,5728,14.66,3.46,28,84,0,0
646396,283447541,5,5734,5942,14.71,3.74,29,85,0,0
646798,283546065,5,5943,6042,14.7,4.11,28,85,0,0
647285,283667324,5,6041,6014,14.78,3.77,28,85,0,0
647733,283777063,5,5995,5828,14.73,3.34,29,85,0,0
648136,283881365,5,5819,5728,14.76,3.54,28,85,0,0
648585,283988539,5,5730,5785,14.76,3.69,28,85,0,0
649034,284101119,5,5780,5685,14.78,3.27,28,85,0,0
650377,284430619,5,5686,5742,14.75,3.22,28,86,0,0
650779,284533038,5,5743,5828,14.77,3.56,28,86,0,0
651271,284651824,5,5783,5300,15.05,1.47,28,86,0,0
651716,284758179,5,5276,4642,14.96,1.72,28,86,0,0
652207,284876698,5,4675,5042,15.11,2.07,28,86,0,0
652609,284978543,5,5021,4757,15.13,1.7,28,86,0,0
653053,285085487,5,4712,4142,15.3,0.42,28,86,0,0
653463,285188000,5,4123,3142,15.29,0.14,28,86,0,0
653903,285297088,5,3137,2914,15.29,0.37,28,86,0,0
654391,285412016,5,2909,2857,15.28,0.47,28,86,0,0
654792,285513912,5,2855,2742,15.28,0.38,28,86,0,0
655285,285631585,5,2732,2628,15.27,0.36,28,86,0,0
655726,285737568,5,2630,2671,15.29,0.46,28,86,0,0
656214,285858200,5,2673,2714,15.28,0.45,28,86,0,0
656621,285958738,5,2712,2700,15.29,0.45,28,86,0,0
657065,286070066,5,2702,2728,15.3,0.43,28,86,0,0
657470,286168037,5,2728,2728,15.27,0.45,28,86,0,0
