LineNo,TimeUS,Instance,RPM,RawRPM,Volt,Curr,Temp,CTot,MotTemp,Err
1565,19843819,3,0,0,15.82,0.05,29,0,0,0
1940,19946484,3,0,0,15.82,0.05,29,0,0,0
2359,20051163,3,0,0,15.81,0.06,29,0,0,0
2769,20152022,3,0,0,15.82,0.05,29,0,0,0
3226,20262935,3,0,0,15.82,0.05,29,0,0,0
3642,20364686,3,0,0,15.82,0.05,28,0,0,0
4127,20481643,3,0,0,15.81,0.05,29,0,0,0
4538,20583579,3,0,0,15.82,0.06,29,0,0,0
4959,20690055,3,0,0,15.82,0.06,29,0,0,0
5375,20793352,3,0,0,15.82,0.06,29,0,0,0
5830,20907360,3,0,0,15.82,0.05,29,0,0,0
6203,21002760,3,0,0,15.82,0.05,29,0,0,0
6652,21113053,3,0,0,15.82,0.05,29,0,0,0
7102,21227510,3,0,0,15.82,0.06,29,0,0,0
7523,21333649,3,0,0,15.82,0.05,29,0,0,0
7940,21438560,3,0,0,15.81,0.05,29,0,0,0
8315,21535540,3,0,0,15.82,0.05,29,0,0,0
8768,21648823,3,0,0,15.82,0.05,29,0,0,0
9177,21749958,3,0,0,15.82,0.05,29,0,0,0
9873,21957914,3,0,0,15.82,0.05,29,0,0,0
10289,22062249,3,0,0,15.82,0.05,29,0,0,0
10741,22174787,3,0,0,15.82,0.05,29,0,0,0
11156,22276542,3,0,0,15.82,0.05,29,0,0,0
11615,22391633,3,0,0,15.82,0.05,29,0,0,0
12029,22493449,3,0,0,15.82,0.05,29,0,0,0
12481,22607110,3,0,0,15.82,0.05,29,0,0,0
12890,22707702,3,0,0,15.82,0.05,29,0,0,0
13757,22925586,3,0,0,15.82,0.05,29,0,0,0
14170,23030034,3,0,0,15.82,0.05,29,0,0,0
14583,23131937,3,0,0,15.82,0.05,29,0,0,0
15033,23243195,3,0,0,15.82,0.05,29,0,0,0
15446,23348549,3,0,0,15.82,0.05,29,0,0,0
15863,23453740,3,0,0,15.82,0.05,29,0,0,0
16285,23565615,3,0,0,15.82,0.05,29,0,0,0
16696,23668970,3,0,0,15.81,0.05,29,0,0,0
17144,23780820,3,0,0,15.82,0.05,29,0,0,0
17986,23993983,3,0,0,15.82,0.05,29,0,0,0
18434,24101003,3,0,0,15.82,0.06,29,0,0,0
18846,24209188,3,0,0,15.81,0.06,29,0,0,0
19260,24312780,3,0,0,15.82,0.05,29,0,0,0
19675,24416238,3,0,0,15.82,0.05,29,0,0,0
20132,24529577,3,0,0,15.82,0.05,29,0,0,0
20963,24737939,3,0,0,15.82,0.06,29,0,0,0
21422,24850932,3,0,0,15.81,0.05,29,0,0,0
21836,24953214,3,0,0,15.82,0.06,29,0,0,0
22291,25065029,3,0,0,15.81,0.06,29,0,0,0
22705,25169578,3,0,0,15.82,0.05,29,0,0,0
23155,25280228,3,0,0,15.82,0.05,29,0,0,0
23570,25381701,3,0,0,15.82,0.05,29,0,0,0
24032,25496441,3,0,0,15.82,0.05,29,0,0,0
24479,25604049,3,0,0,15.82,0.05,29,0,0,0
24898,25707993,3,0,0,15.82,0.05,29,0,0,0
25765,25924379,3,0,0,15.82,0.05,29,0,0,0
26180,26030826,3,0,0,15.81,0.05,29,0,0,0
26592,26135635,3,0,0,15.82,0.05,29,0,0,0
27047,26246425,3,0,0,15.82,0.05,29,0,0,0
27419,26342236,3,0,0,15.82,0.05,29,0,0,0
27879,26458072,3,0,0,15.81,0.05,29,0,0,0
28286,26559587,3,0,0,15.82,0.05,29,0,0,0
28745,26671536,3,0,0,15.82,0.05,29,0,0,0
29156,26773725,3,0,0,15.82,0.06,29,0,0,0
29574,26876731,3,0,0,15.81,0.06,29,0,0,0
30025,26989741,3,0,0,15.82,0.05,29,0,0,0
30435,27090791,3,0,0,15.82,0.05,29,0,0,0
30846,27194507,3,0,0,15.82,0.05,29,0,0,0
31298,27305770,3,0,0,15.82,0.05,29,0,0,0
31709,27410611,3,0,0,15.82,0.05,29,0,0,0
32162,27522663,3,0,0,15.81,0.05,29,0,0,0
32569,27628676,3,0,0,15.81,0.05,29,0,0,0
32982,27730407,3,0,0,15.82,0.05,29,0,0,0
33441,27844767,3,0,0,15.82,0.05,29,0,0,0
33853,27949038,3,0,0,15.82,0.05,29,0,0,0
34229,28049184,3,0,0,15.81,0.05,29,0,0,0
34682,28161749,3,0,0,15.82,0.05,29,0,0,0
35137,28273965,3,0,0,15.82,0.05,29,0,0,0
35543,28375540,3,0,0,15.82,0.05,29,0,0,0
35962,28479156,3,0,0,15.82,0.05,29,0,0,0
36375,28583932,3,0,0,15.82,0.05,29,0,0,0
36827,28695702,3,0,0,15.82,0.05,29,0,0,0
37244,28800176,3,0,0,15.82,0.05,29,0,0,0
37700,28912402,3,0,0,15.82,0.05,29,0,0,0
38111,29016146,3,0,0,15.82,0.05,29,0,0,0
38561,29128815,3,0,0,15.82,0.05,29,0,0,0
38970,29229906,3,0,0,15.82,0.06,29,0,0,0
39382,29333528,3,0,0,15.82,0.06,29,0,0,0
39835,29447704,3,0,0,15.82,0.05,29,0,0,0
40247,29550809,3,0,0,15.82,0.06,29,0,0,0
40655,29651405,3,0,0,15.82,0.06,29,0,0,0
41109,29764656,3,0,0,15.82,0.05,29,0,0,0
41516,29867738,3,0,0,15.81,0.05,29,0,0,0
41972,29977954,3,0,0,15.82,0.05,29,0,0,0
42429,30092557,3,0,0,15.81,0.05,29,0,0,0
42841,30193263,3,0,0,15.81,0.05,29,0,0,0
43254,30294623,3,0,0,15.81,0.05,29,0,0,0
43674,30400515,3,0,0,15.82,0.05,29,0,0,0
44135,30515554,3,0,0,15.81,0.05,29,0,0,0
44547,30618613,3,0,0,15.82,0.05,29,0,0,0
45420,30836501,3,0,0,15.82,0.06,29,0,0,0
45827,30937627,3,0,0,15.82,0.05,29,0,0,0
46236,31041933,3,0,0,15.82,0.05,29,0,0,0
46690,31156494,3,0,0,15.82,0.05,29,0,0,0
47106,31260421,3,0,0,15.82,0.06,29,0,0,0
47516,31361782,3,0,0,15.81,0.05,29,0,0,0
47977,31475974,3,0,0,15.82,0.06,29,0,0,0
48355,31572973,3,0,0,15.82,0.06,29,0,0,0
48808,31684995,3,0,0,15.82,0.06,29,0,0,0
49262,31799790,3,0,0,15.82,0.06,29,0,0,0
49646,31902726,3,0,0,15.82,0.06,29,0,0,0
50097,32012902,3,0,0,15.82,0.06,29,0,0,0
50509,32115975,3,0,0,15.82,0.06,29,0,0,0
50965,32227608,3,0,0,15.82,0.06,29,0,0,0
51384,32333708,3,0,0,15.82,0.06,29,0,0,0
52206,32539977,3,0,0,15.82,0.06,29,0,0,0
52661,32650730,3,0,0,15.82,0.05,29,0,0,0
53075,32752534,3,0,0,15.82,0.06,29,0,0,0
53492,32855755,3,0,0,15.82,0.05,29,0,0,0
53937,32964735,3,0,0,15.82,0.06,29,0,0,0
54353,33070416,3,0,0,15.82,0.06,29,0,0,0
54804,33181172,3,0,0,15.82,0.06,29,0,0,0
55222,33285718,3,0,0,15.82,0.06,29,0,0,0
55672,33397204,3,0,0,15.82,0.06,29,0,0,0
56058,33497598,3,0,0,15.82,0.06,29,0,0,0
56495,33602191,3,0,0,15.81,0.06,29,0,0,0
56918,33711507,3,0,0,15.82,0.06,29,0,0,0
57333,33817658,3,0,0,15.82,0.05,29,0,0,0
57789,33933582,3,0,0,15.82,0.05,29,0,0,0
58613,34140907,3,0,0,15.82,0.05,29,0,0,0
59070,34252771,3,0,0,15.82,0.05,29,0,0,0
59894,34459829,3,0,0,15.82,0.05,29,0,0,0
60346,34572150,3,0,0,15.81,0.05,29,0,0,0
115871,107823510,3,0,0,15.82,0.03,29,0,0,0
115916,107837001,3,0,0,15.82,0.03,29,0,0,0
116362,107939831,3,0,0,15.81,0.03,29,0,0,0
117316,108158630,3,0,0,15.82,0.03,29,0,0,0
117725,108256450,3,0,0,15.82,0.03,29,0,0,0
118221,108368123,3,0,0,15.82,0.03,29,0,0,0
118674,108477496,3,0,0,15.81,0.03,29,0,0,0
119130,108579198,3,0,0,15.82,0.03,29,0,0,0
119588,108690217,3,0,0,15.82,0.03,29,0,0,0
120085,108804816,3,0,0,15.82,0.03,29,0,0,0
120505,108912229,3,0,0,15.82,0.03,29,0,0,0
120958,109012635,3,0,0,15.82,0.03,29,0,0,0
121454,109126193,3,0,0,15.82,0.03,29,0,0,0
121908,109227549,3,0,0,15.82,0.03,29,0,0,0
122358,109335322,3,0,0,15.81,0.03,29,0,0,0
122811,109436055,3,0,0,15.81,0.03,29,0,0,0
123307,109549595,3,0,0,15.82,0.03,29,0,0,0
124247,109759818,3,0,0,15.82,0.03,29,0,0,0
124746,109873203,3,0,0,15.82,0.02,29,0,0,0
125203,109977598,3,10,271,15.8,0.05,29,0,0,0
125653,110080198,3,280,657,15.79,0.09999999,29,0,0,0
126157,110193378,3,690,1042,15.77,0.16,29,0,0,0
126610,110298977,3,1052,1200,15.79,0.11,29,0,0,0
127070,110406719,3,1201,1228,15.79,0.11,29,0,0,0
127527,110513721,3,1230,1257,15.79,0.11,29,0,0,0
127980,110615269,3,1257,1271,15.8,0.09999999,29,0,0,0
128352,110727828,3,1271,1271,15.8,0.09999999,29,0,0,0
128849,110844940,3,1272,1285,15.8,0.09999999,29,0,0,0
129304,110949741,3,1285,1285,15.79,0.09999999,29,0,0,0
129762,111058208,3,1285,1285,15.8,0.09999999,29,0,0,0
130217,111161418,3,1283,1271,15.8,0.09999999,29,0,0,0
130670,111270050,3,1271,1271,15.79,0.09999999,29,0,0,0
131124,111373712,3,1271,1285,15.79,0.09999999,29,0,0,0
132071,111588017,3,1284,1271,15.79,0.09999999,29,0,0,0
132561,111699024,3,1271,1271,15.8,0.09999999,29,0,0,0
133059,111811773,3,1272,1285,15.8,0.09999999,29,0,0,0
133464,111910600,3,1284,1271,15.8,0.09999999,29,0,0,0
133968,112021765,3,1271,1285,15.79,0.09999999,29,0,0,0
134385,112124221,3,1285,1285,15.8,0.09999999,29,0,0,0
134886,112235813,3,1283,1271,15.79,0.09999999,29,0,0,0
135789,112448786,3,1271,1285,15.79,0.09,29,0,0,0
136245,112550503,3,1285,1285,15.79,0.09,29,0,0,0
136697,112654794,3,1285,1285,15.8,0.09,29,0,0,0
137194,112767417,3,1285,1285,15.8,0.09,29,0,0,0
137650,112876455,3,1285,1285,15.8,0.09,29,0,0,0
138103,112976505,3,1285,1285,15.79,0.09,29,0,0,0
138598,113088827,3,1285,1300,15.8,0.09,29,0,0,0
139040,113192810,3,1279,757,15.82,0.02,29,0,0,0
139490,113306053,3,729,271,15.81,0.01,29,0,0,0
139903,113407830,3,251,0,15.81,0.02,29,0,0,0
140320,113516714,3,0,0,15.82,0.02,29,0,0,0
140774,113627926,3,0,0,15.81,0.03,29,0,0,0
141180,113728394,3,0,0,15.82,0.03,29,0,0,0
141634,113839804,3,0,0,15.82,0.03,29,0,0,0
142049,113946777,3,0,0,15.81,0.03,29,0,0,0
142470,114053595,3,0,0,15.81,0.03,29,0,0,0
142882,114154834,3,0,0,15.81,0.03,29,0,0,0
143339,114269061,3,0,0,15.81,0.03,29,0,0,0
143751,114371051,3,0,0,15.81,0.03,29,0,0,0
144161,114477990,3,0,0,15.82,0.03,29,0,0,0
144617,114589915,3,0,0,15.82,0.03,29,0,0,0
144996,114690209,3,0,0,15.81,0.03,29,0,0,0
145452,114803760,3,0,0,15.81,0.03,29,0,0,0
145868,114912811,3,0,0,15.81,0.03,29,0,0,0
146287,115017078,3,0,0,15.81,0.02,29,0,0,0
146696,115119182,3,0,0,15.8,0.03,29,0,0,0
147151,115231659,3,0,0,15.81,0.03,29,0,0,0
147568,115341276,3,0,0,15.81,0.03,29,0,0,0
147980,115446024,3,0,0,15.81,0.03,29,0,0,0
148395,115548571,3,0,0,15.8,0.03,30,0,0,0
148847,115662987,3,0,0,15.81,0.02,29,0,0,0
149263,115766722,3,0,0,15.81,0.02,30,0,0,0
149676,115874161,3,0,0,15.8,0.02,29,0,0,0
150134,115989009,3,0,0,15.81,0.02,29,0,0,0
150509,116085965,3,0,0,15.81,0.02,29,0,0,0
150963,116200367,3,0,0,15.82,0.02,29,0,0,0
151374,116304116,3,0,0,15.82,0.02,29,0,0,0
151827,116418488,3,0,0,15.81,0.02,29,0,0,0
152239,116522302,3,0,0,15.82,0.02,29,0,0,0
152698,116635920,3,0,0,15.81,0.03,29,0,0,0
153108,116740819,3,0,0,15.81,0.03,29,0,0,0
153523,116842236,3,0,0,15.81,0.02,29,0,0,0
153937,116950033,3,0,0,15.82,0.02,29,0,0,0
154352,117055416,3,0,0,15.82,0.02,29,0,0,0
154809,117169693,3,0,0,15.81,0.03,29,0,0,0
155222,117274940,3,0,0,15.81,0.03,29,0,0,0
155636,117378782,3,0,0,15.81,0.03,29,0,0,0
156089,117492056,3,0,0,15.81,0.03,29,0,0,0
156502,117593497,3,0,0,15.81,0.03,29,0,0,0
156922,117702230,3,0,0,15.81,0.03,29,0,0,0
157374,117813076,3,0,0,15.81,0.03,29,0,0,0
157790,117921139,3,0,0,15.82,0.03,29,0,0,0
158208,118027389,3,0,0,15.81,0.03,29,0,0,0
158624,118133387,3,0,0,15.81,0.03,29,0,0,0
159039,118236729,3,0,0,15.81,0.03,29,0,0,0
159487,118350505,3,0,0,15.81,0.03,29,0,0,0
159903,118457971,3,0,0,15.81,0.03,29,0,0,0
160316,118560562,3,0,0,15.81,0.03,29,0,0,0
160767,118673998,3,0,0,15.82,0.03,29,0,0,0
161179,118775371,3,0,0,15.82,0.03,29,0,0,0
161591,118881821,3,0,0,15.8,0.03,29,0,0,0
162050,118993014,3,0,0,15.81,0.03,29,0,0,0
162459,119094775,3,0,0,15.81,0.03,29,0,0,0
162913,119206770,3,0,0,15.81,0.03,29,0,0,0
163318,119310527,3,0,0,15.82,0.03,29,0,0,0
163774,119424578,3,0,0,15.82,0.03,29,0,0,0
164188,119531795,3,0,0,15.82,0.03,29,0,0,0
164605,119634212,3,0,0,15.82,0.03,29,0,0,0
165015,119739007,3,0,0,15.81,0.03,29,0,0,0
165440,119853640,3,0,0,15.82,0.03,29,0,0,0
165859,119956928,3,0,0,15.81,0.03,29,0,0,0
166274,120066146,3,0,0,15.82,0.03,29,0,0,0
166689,120166977,3,0,0,15.82,0.03,29,0,0,0
167103,120273971,3,0,0,15.81,0.03,29,0,0,0
167561,120389786,3,0,0,15.81,0.03,29,0,0,0
167951,120493936,3,0,0,15.81,0.03,29,0,0,0
168365,120596601,3,0,0,15.81,0.03,29,0,0,0
168812,120706462,3,0,0,15.82,0.03,29,0,0,0
169266,120817496,3,0,0,15.81,0.03,29,0,0,0
169680,120921625,3,0,0,15.81,0.03,29,0,0,0
170093,121023616,3,0,0,15.81,0.03,29,0,0,0
170548,121136499,3,0,0,15.82,0.03,29,0,0,0
170964,121241055,3,0,0,15.82,0.03,29,0,0,0
171379,121347182,3,0,0,15.82,0.03,29,0,0,0
171832,121457800,3,0,0,15.81,0.03,29,0,0,0
172239,121560398,3,0,0,15.81,0.03,29,0,0,0
172655,121668308,3,0,0,15.81,0.03,29,0,0,0
173108,121779719,3,0,0,15.81,0.03,29,0,0,0
173521,121885527,3,0,0,15.81,0.03,29,0,0,0
173936,121987223,3,0,0,15.81,0.03,29,0,0,0
174351,122092965,3,0,0,15.81,0.03,29,0,0,0
174805,122204055,3,0,0,15.81,0.03,29,0,0,0
175634,122413510,3,0,0,15.81,0.03,29,0,0,0
176084,122527192,3,0,0,15.81,0.03,29,0,0,0
176503,122632652,3,0,0,15.82,0.03,29,0,0,0
176948,122740804,3,0,0,15.82,0.03,29,0,0,0
177368,122850993,3,0,0,15.81,0.03,29,0,0,0
177784,122952784,3,0,0,15.81,0.03,29,0,0,0
178231,123061188,3,0,0,15.81,0.03,29,0,0,0
178645,123163561,3,0,0,15.82,0.03,29,0,0,0
179056,123267815,3,0,0,15.81,0.03,29,0,0,0
179517,123381911,3,0,0,15.82,0.03,29,0,0,0
179932,123488056,3,0,0,15.81,0.03,29,0,0,0
180346,123589983,3,0,0,15.81,0.03,29,0,0,0
180799,123704063,3,0,0,15.81,0.03,29,0,0,0
181212,123806676,3,0,0,15.82,0.03,29,0,0,0
181626,123912963,3,0,0,15.81,0.03,29,0,0,0
182082,124024987,3,0,0,15.81,0.03,29,0,0,0
182529,124134623,3,0,0,15.81,0.03,29,0,0,0
182941,124236169,3,0,0,15.81,0.02,29,0,0,0
183356,124345639,3,0,0,15.81,0.03,29,0,0,0
183807,124458794,3,0,0,15.81,0.03,29,0,0,0
184222,124561132,3,0,0,15.81,0.03,29,0,0,0
184672,124674157,3,0,0,15.81,0.03,29,0,0,0
185085,124775992,3,0,0,15.81,0.03,29,0,0,0
185498,124882523,3,0,0,15.81,0.03,29,0,0,0
185955,124993156,3,0,0,15.81,0.02,29,0,0,0
186366,125097676,3,0,0,15.81,0.02,29,0,0,0
186819,125209070,3,0,0,15.81,0.02,29,0,0,0
187233,125316430,3,0,0,15.81,0.03,29,0,0,0
187651,125420160,3,0,0,15.8,0.03,29,0,0,0
188068,125526503,3,0,0,15.81,0.03,29,0,0,0
188531,125640994,3,0,0,15.81,0.02,29,0,0,0
188943,125747941,3,0,0,15.81,0.02,29,0,0,0
189355,125850261,3,0,0,15.81,0.02,29,0,0,0
189812,125963146,3,0,0,15.81,0.02,30,0,0,0
190221,126066942,3,0,0,15.82,0.02,29,0,0,0
190641,126173983,3,0,0,15.81,0.02,29,0,0,0
191059,126281900,3,0,0,15.8,0.03,29,0,0,0
191473,126384165,3,0,0,15.82,0.03,29,0,0,0
191919,126496500,3,0,0,15.81,0.03,29,0,0,0
192334,126598271,3,0,0,15.81,0.03,29,0,0,0
192787,126713282,3,0,0,15.81,0.03,29,0,0,0
193199,126817024,3,0,0,15.81,0.03,29,0,0,0
193554,126927981,3,0,0,15.82,0.03,29,0,0,0
193970,127031558,3,0,0,15.82,0.03,29,0,0,0
194426,127146042,3,0,0,15.81,0.03,29,0,0,0
194835,127249210,3,0,0,15.82,0.03,29,0,0,0
195254,127355826,3,0,0,15.81,0.03,29,0,0,0
195671,127462212,3,0,0,15.82,0.03,29,0,0,0
196086,127563420,3,0,0,15.81,0.03,29,0,0,0
196541,127679975,3,0,0,15.82,0.03,29,0,0,0
196954,127782260,3,0,0,15.81,0.03,29,0,0,0
197406,127895988,3,0,0,15.82,0.03,29,0,0,0
197819,127996825,3,0,0,15.82,0.03,29,0,0,0
198272,128113156,3,0,0,15.81,0.03,29,0,0,0
198413,173878987,3,0,0,15.82,0.03,29,0,0,0
198538,173908824,3,0,0,15.82,0.02,29,0,0,0
198991,174019602,3,0,0,15.82,0.03,29,0,0,0
199424,174120995,3,0,0,15.81,0.03,29,0,0,0
199878,174222267,3,0,0,15.82,0.03,29,0,0,0
200374,174336603,3,0,0,15.82,0.03,29,0,0,0
200828,174443705,3,0,0,15.82,0.03,29,0,0,0
201284,174545354,3,0,0,15.82,0.03,29,0,0,0
201735,174650942,3,0,0,15.82,0.03,29,0,0,0
202235,174763570,3,0,0,15.82,0.03,29,0,0,0
202691,174871020,3,0,0,15.82,0.03,29,0,0,0
203154,174980523,3,0,0,15.82,0.03,29,0,0,0
203607,175088382,3,0,0,15.82,0.03,29,1,0,0
204063,175192392,3,0,0,15.82,0.03,29,1,0,0
204516,175299076,3,0,0,15.82,0.03,29,1,0,0
204971,175399834,3,0,0,15.82,0.03,29,1,0,0
205471,175515763,3,0,0,15.82,0.03,29,1,0,0
205923,175616726,3,0,0,15.82,0.03,29,1,0,0
206378,175722647,3,0,0,15.81,0.03,29,1,0,0
206837,175826152,3,0,0,15.82,0.03,29,1,0,0
207289,175931999,3,0,0,15.82,0.02,29,1,0,0
207790,176044207,3,25,271,15.8,0.05,29,1,0,0
208240,176146487,3,298,700,15.79,0.11,29,1,0,0
208736,176261512,3,745,1085,15.78,0.15,29,1,0,0
209187,176363269,3,1093,1214,15.8,0.11,29,1,0,0
209942,176569926,3,1257,1271,15.79,0.09999999,29,1,0,0
210394,176675858,3,1271,1271,15.8,0.09999999,29,1,0,0
210895,176788011,3,1271,1271,15.8,0.09999999,29,1,0,0
211351,176895104,3,1272,1285,15.79,0.09999999,29,1,0,0
211806,176997035,3,1284,1271,15.79,0.09999999,29,1,0,0
212293,177105141,3,1271,1285,15.8,0.09999999,29,1,0,0
212791,177215744,3,1285,1285,15.8,0.09999999,29,1,0,0
213250,177324281,3,1285,1285,15.8,0.09999999,29,1,0,0
213706,177428547,3,1285,1285,15.79,0.09999999,29,1,0,0
214163,177536017,3,1285,1285,15.8,0.09999999,29,1,0,0
214617,177636698,3,1285,1285,15.79,0.09999999,29,1,0,0
215077,177743577,3,1285,1285,15.8,0.09999999,29,1,0,0
215576,177857791,3,1285,1285,15.79,0.09999999,29,1,0,0
216034,177961962,3,1285,1285,15.79,0.09999999,29,1,0,0
216483,178063921,3,1285,1285,15.8,0.09999999,29,1,0,0
216981,178177598,3,1285,1285,15.8,0.09999999,29,1,0,0
217439,178285197,3,1285,1285,15.79,0.09999999,29,1,0,0
217892,178386658,3,1285,1285,15.79,0.09999999,29,1,0,0
218387,178499546,3,1285,1285,15.79,0.09999999,29,1,0,0
218840,178603572,3,1285,1285,15.79,0.09999999,29,1,0,0
219292,178709942,3,1285,1285,15.8,0.09999999,29,1,0,0
219792,178825605,3,1285,1285,15.8,0.09999999,29,1,0,0
220241,178927810,3,1285,1285,15.8,0.09999999,29,1,0,0
220738,179039607,3,1285,1285,15.8,0.09999999,29,1,0,0
221146,179137423,3,1285,1285,15.8,0.09999999,29,1,0,0
221646,179249404,3,1285,1285,15.79,0.09999999,29,1,0,0
222136,179360518,3,1285,1285,15.79,0.09999999,29,1,0,0
222589,179469598,3,1285,1285,15.79,0.09999999,29,1,0,0
222998,179566664,3,1285,1285,15.79,0.09999999,29,1,0,0
223491,179679961,3,1285,1285,15.8,0.09999999,29,1,0,0
223949,179784011,3,1285,1285,15.8,0.09999999,29,1,0,0
224406,179894692,3,1285,1285,15.8,0.09999999,29,1,0,0
224910,180006990,3,1285,1285,15.8,0.09999999,29,1,0,0
225361,180111351,3,1285,1285,15.8,0.09999999,29,1,0,0
225813,180212767,3,1285,1285,15.8,0.09999999,29,1,0,0
226305,180328036,3,1285,1285,15.8,0.09999999,29,1,0,0
226763,180432000,3,1285,1285,15.79,0.09,29,1,0,0
227223,180543017,3,1285,1285,15.8,0.09,29,1,0,0
227677,180649198,3,1285,1285,15.8,0.09,29,1,0,0
228097,180750027,3,1285,1285,15.79,0.09999999,29,1,0,0
228596,180865046,3,1285,1285,15.79,0.09999999,29,1,0,0
229050,180969139,3,1285,1285,15.8,0.09999999,29,1,0,0
229504,181078782,3,1285,1285,15.79,0.09999999,29,1,0,0
230005,181196002,3,1285,1285,15.8,0.09999999,29,1,0,0
230413,181293373,3,1285,1285,15.79,0.09,29,1,0,0
230910,181406760,3,1285,1300,15.79,0.09,29,1,0,0
231817,181617402,3,1299,1285,15.79,0.09999999,29,1,0,0
232269,181726433,3,1285,1285,15.79,0.09999999,29,1,0,0
232734,181838566,3,1285,1285,15.79,0.09999999,29,1,0,0
233188,181940393,3,1285,1285,15.79,0.09999999,29,1,0,0
233684,182054238,3,1284,1271,15.79,0.09999999,29,1,0,0
234140,182162526,3,1272,1285,15.8,0.09999999,29,1,0,0
234600,182270358,3,1285,1285,15.79,0.09999999,29,1,0,0
235051,182372204,3,1285,1285,15.79,0.09999999,29,1,0,0
235502,182476472,3,1285,1285,15.79,0.09999999,29,1,0,0
235954,182580816,3,1285,1285,15.8,0.09999999,29,1,0,0
236445,182693614,3,1285,1285,15.79,0.09999999,29,1,0,0
236943,182807753,3,1285,1285,15.79,0.09999999,29,1,0,0
237391,182910055,3,1284,1271,15.79,0.09999999,29,1,0,0
237891,183024966,3,1272,1285,15.79,0.09999999,29,1,0,0
238343,183131966,3,1285,1285,15.79,0.09999999,29,1,0,0
238797,183235551,3,1285,1285,15.79,0.09999999,29,1,0,0
239252,183344628,3,1285,1285,15.79,0.09999999,29,1,0,0
239708,183454347,3,1285,1285,15.8,0.09999999,29,1,0,0
240204,183567114,3,1285,1285,15.79,0.09999999,29,1,0,0
240650,183667937,3,1285,1285,15.79,0.09999999,29,1,0,0
241146,183782056,3,1285,1285,15.8,0.09999999,29,1,0,0
241602,183888374,3,1238,642,15.82,0.01,29,1,0,0
242062,183997177,3,619,200,15.81,0.02,29,1,0,0
242513,184105145,3,190,0,15.82,0.02,29,1,0,0
243009,184221220,3,0,0,15.82,0.03,29,1,0,0
243460,184332529,3,0,0,15.81,0.03,29,1,0,0
243914,184437225,3,0,0,15.81,0.03,29,1,0,0
244365,184546338,3,0,0,15.82,0.03,29,1,0,0
244778,184648722,3,0,0,15.81,0.03,29,1,0,0
245276,184763812,3,0,0,15.81,0.03,29,1,0,0
245725,184869377,3,0,0,15.81,0.03,29,1,0,0
246229,184986602,3,0,0,15.81,0.03,29,1,0,0
246680,185092919,3,0,0,15.81,0.03,29,1,0,0
247133,185196685,3,0,0,15.82,0.03,29,1,0,0
248048,185413523,3,0,0,15.81,0.03,29,1,0,0
248502,185526073,3,0,0,15.81,0.03,29,1,0,0
248956,185632764,3,0,0,15.81,0.03,29,1,0,0
249411,185744525,3,0,0,15.81,0.03,29,1,0,0
249868,185858037,3,0,0,15.81,0.03,29,1,0,0
250324,185961041,3,0,0,15.82,0.03,29,1,0,0
250813,186071030,3,0,0,15.8,0.03,29,1,0,0
251268,186179610,3,0,0,15.81,0.03,29,1,0,0
251680,186280728,3,0,0,15.82,0.03,29,1,0,0
252179,186396831,3,0,0,15.82,0.03,29,1,0,0
253121,186615910,3,0,0,15.81,0.03,29,1,0,0
253576,186726055,3,0,0,15.82,0.03,29,1,0,0
254034,186834397,3,0,0,15.81,0.03,29,1,0,0
254487,186942825,3,0,0,15.82,0.03,29,1,0,0
254939,187046999,3,0,0,15.82,0.03,29,1,0,0
255400,187160857,3,0,0,15.81,0.03,29,1,0,0
255853,187266552,3,0,0,15.81,0.03,29,1,0,0
256352,187381211,3,0,0,15.82,0.03,29,1,0,0
256803,187486201,3,0,0,15.82,0.03,29,1,0,0
257256,187590571,3,0,0,15.81,0.02,29,1,0,0
257707,187697751,3,0,0,15.81,0.03,29,1,0,0
258203,187808614,3,0,0,15.82,0.03,29,1,0,0
258622,187912518,3,0,0,15.82,0.03,29,1,0,0
259124,188024624,3,0,0,15.81,0.03,29,1,0,0
259582,188135501,3,0,0,15.81,0.03,29,1,0,0
260491,188347777,3,0,0,15.81,0.03,29,1,0,0
260944,188453682,3,0,0,15.82,0.03,29,1,0,0
261440,188565960,3,0,0,15.82,0.03,29,1,0,0
261893,188673005,3,0,0,15.81,0.03,29,1,0,0
262347,188776058,3,0,0,15.81,0.03,29,1,0,0
262804,188884756,3,0,0,15.82,0.03,29,1,0,0
263754,189104248,3,0,0,15.82,0.03,29,1,0,0
264253,189217565,3,11,128,15.8,0.03,29,1,0,0
264669,189321017,3,143,557,15.79,0.08,29,1,0,0
265168,189433646,3,590,914,15.77,0.14,29,1,0,0
265613,189535551,3,925,1171,15.8,0.12,29,1,0,0
266074,189649519,3,1178,1228,15.8,0.11,29,1,0,0
266526,189751423,3,1229,1271,15.79,0.09999999,29,1,0,0
267015,189859651,3,1271,1285,15.8,0.09999999,29,1,0,0
267467,189965491,3,1285,1285,15.79,0.09999999,29,1,0,0
267916,190068165,3,1285,1285,15.79,0.09,29,1,0,0
268413,190181994,3,1285,1285,15.79,0.09999999,29,1,0,0
268866,190288524,3,1285,1300,15.79,0.09999999,29,1,0,0
269150,190400394,3,1300,1300,15.79,0.09999999,29,1,0,0
269560,190500803,3,1299,1285,15.79,0.09999999,29,1,0,0
270056,190612951,3,1285,1285,15.79,0.09999999,29,1,0,0
270549,190726641,3,1285,1285,15.8,0.09999999,29,1,0,0
271002,190829413,3,1285,1285,15.79,0.09,29,1,0,0
271456,190937526,3,1285,1285,15.8,0.09,29,1,0,0
271955,191049792,3,1285,1285,15.79,0.09999999,29,1,0,0
272404,191157000,3,1285,1285,15.8,0.09,29,1,0,0
272862,191260197,3,1285,1285,15.8,0.09,29,1,0,0
273357,191374003,3,1285,1285,15.79,0.09999999,29,1,0,0
273814,191484043,3,1285,1285,15.8,0.09,29,1,0,0
274235,191586179,3,1285,1285,15.79,0.09999999,29,1,0,0
274724,191696244,3,1285,1285,15.8,0.09999999,29,1,0,0
275181,191801626,3,1285,1285,15.79,0.09999999,29,1,0,0
275635,191909594,3,1292,1442,15.76,0.22,29,1,0,0
276131,192021535,3,1479,2028,15.63,0.64,29,1,0,0
276584,192130953,3,2058,2371,15.76,0.44,29,1,0,0
277034,192236759,3,2380,2885,15.37,0.97,29,1,0,0
277487,192342163,3,2892,3214,15.55,1.05,29,1,0,0
277992,192464762,3,3306,3842,15.43,1.74,29,1,0,0
278396,192560576,3,3884,4457,15.32,2.41,29,1,0,0
278885,192674104,3,4482,4857,15.16,2.83,29,1,0,0
279335,192778399,3,4883,5528,15.07,3.36,29,1,0,0
279801,192893805,3,5549,5857,14.91,4.49,29,1,0,0
280297,193009994,3,5873,6042,15,3.44,29,1,0,0
280707,193112550,3,6021,5814,15.08,3.07,29,2,0,0
281158,193216140,3,5809,5714,15.1,2.73,29,2,0,0
281658,193334577,3,5697,5528,15.16,2.61,29,2,0,0
282111,193439045,3,5516,5357,15.2,2.27,29,2,0,0
282562,193548745,3,5338,5085,15.23,2.23,29,2,0,0
283054,193664986,3,5076,4985,15.2,2.07,29,2,0,0
283464,193762566,3,4983,4957,15.14,2.23,29,2,0,0
283915,193872708,3,4961,5057,15.16,2.34,29,2,0,0
284370,193980995,3,5059,5257,15.07,2.8,29,2,0,0
284824,194093326,3,5260,5342,15.1,2.8,29,2,0,0
285321,194209225,3,5342,5357,15.05,2.75,29,2,0,0
285771,194318418,3,5365,5442,15.09,2.65,29,2,0,0
286229,194425902,3,5430,5271,15.05,2.55,30,2,0,0
287131,194645775,3,5275,5357,15,2.83,30,3,0,0
287540,194747686,3,5363,5471,15.07,2.57,30,3,0,0
287996,194859975,3,5470,5457,14.99,2.79,29,3,0,0
288450,194966459,3,5454,5428,15.04,2.77,30,3,0,0
288899,195076490,3,5424,5357,15.08,2.62,30,3,0,0
289354,195184544,3,5353,5314,15.02,2.61,30,3,0,0
289811,195296739,3,5326,5457,14.98,2.72,30,3,0,0
290268,195404005,3,5440,5271,15.04,2.55,30,3,0,0
290712,195509988,3,5275,5371,15.04,2.53,30,3,0,0
291208,195625619,3,5360,5257,15.14,2.2,30,3,0,0
291658,195734788,3,5234,5014,15.08,2.3,30,3,0,0
292522,195946660,3,5015,5228,15.08,2.61,30,4,0,0
293052,196069918,3,5235,5342,15.1,2.5,30,4,0,0
293461,196166148,3,5334,5185,15.09,2.4,30,4,0,0
293954,196283499,3,5196,5314,14.97,2.68,30,4,0,0
294413,196391513,3,5315,5328,15.07,2.55,30,4,0,0
295311,196606230,3,5322,5142,15.01,2.26,30,4,0,0
295759,196717011,3,5136,5014,15.03,2.2,30,4,0,0
296208,196825929,3,5014,5028,14.98,2.09,30,4,0,0
296687,196941678,3,5029,5042,15.07,2.22,30,4,0,0
297137,197052719,3,5037,5000,15.05,2.08,30,4,0,0
297544,197157330,3,4990,4900,15.09,1.86,30,4,0,0
297993,197270034,3,4887,4757,15.11,1.74,30,4,0,0
298442,197376472,3,4763,4828,15.06,2.13,30,4,0,0
298888,197488563,3,4825,4785,15.13,1.78,30,5,0,0
299287,197587856,3,4784,4742,15.07,1.87,30,5,0,0
299732,197699040,3,4746,4814,15.12,1.98,30,5,0,0
300632,197922015,3,4825,5071,15.11,2.07,30,5,0,0
301031,198019059,3,5072,5128,15.05,2.28,30,5,0,0
301474,198131416,3,5135,5285,15.01,2.65,30,5,0,0
301971,198255050,3,5275,5171,14.97,2.6,30,5,0,0
302369,198349630,3,5172,5200,15.04,2.4,30,5,0,0
302828,198467975,3,5186,5100,15.07,2.31,30,5,0,0
303271,198572151,3,5102,5128,15,2.31,30,5,0,0
303714,198683359,3,5133,5185,15.07,2.17,30,5,0,0
304165,198791949,3,5179,5128,15.04,2.29,30,5,0,0
304558,198891983,3,5128,5171,14.97,2.63,30,5,0,0
305014,199004158,3,5177,5242,15.03,2.73,30,6,0,0
305459,199114354,3,5242,5242,15.01,2.25,30,6,0,0
305866,199216118,3,5247,5342,15.01,2.52,30,6,0,0
306317,199330094,3,5322,5142,14.95,2.54,30,6,0,0
306761,199436703,3,5147,5214,14.98,2.19,30,6,0,0
307209,199547200,3,5205,5085,14.92,2.4,30,6,0,0
307661,199659955,3,5107,5328,15.02,2.56,30,6,0,0
308062,199757924,3,5327,5285,15.02,2.2,30,6,0,0
308467,199862130,3,5273,5057,15.01,1.95,30,6,0,0
308926,199975997,3,5054,5028,14.95,2.25,30,6,0,0
309325,200077996,3,5029,5128,15.01,2.36,30,6,0,0
309771,200186462,3,5128,5171,14.93,2.34,30,6,0,0
310266,200306513,3,5160,5057,15.01,2.05,30,6,0,0
310711,200412819,3,5053,4971,14.98,2.31,30,6,0,0
311155,200524138,3,4989,5171,15.01,2.46,30,6,0,0
311566,200625584,3,5169,5085,14.93,2.44,30,7,0,0
312007,200734204,3,5086,5157,14.86,2.47,30,7,0,0
312456,200841358,3,5159,5214,14.97,2.54,30,7,0,0
312938,200957535,3,5214,5228,14.92,2.47,30,7,0,0
313382,201068627,3,5224,5171,14.94,2.4,30,7,0,0
313831,201179393,3,5171,5171,14.95,2.3,30,7,0,0
314235,201280576,3,5165,5042,14.95,2.16,30,7,0,0
314684,201392690,3,5036,4971,14.91,2.13,30,7,0,0
315086,201496349,3,4970,4942,14.92,2.34,30,7,0,0
315575,201612545,3,4948,5014,14.89,2.19,30,7,0,0
316010,201717377,3,5016,5100,14.93,2.27,30,7,0,0
316501,201833980,3,5093,5014,15,1.96,30,7,0,0
316909,201940495,3,5009,4914,14.99,1.95,30,7,0,0
317358,202054036,3,4916,4957,15.03,1.86,30,7,0,0
317802,202159767,3,4950,4885,15.03,1.96,30,8,0,0
318697,202380338,3,4889,5000,15.01,2.08,30,8,0,0
319096,202478165,3,5002,5085,15.02,2.09,30,8,0,0
319592,202598752,3,5091,5157,14.98,2.21,30,8,0,0
319994,202702672,3,5161,5242,14.99,2.27,30,8,0,0
320408,202806321,3,5240,5157,14.97,2.22,30,8,0,0
320854,202917052,3,5159,5214,14.91,2.34,30,8,0,0
321302,203024634,3,5214,5214,14.94,2.15,30,8,0,0
321781,203140218,3,5193,4985,15,1.49,30,8,0,0
322218,203247742,3,4978,4914,14.96,1.97,30,8,0,0
322673,203359586,3,4918,4957,14.85,2.05,30,8,0,0
323078,203464825,3,4960,5271,14.97,2.26,30,8,0,0
323524,203572002,3,5269,5185,14.98,1.9,30,8,0,0
324002,203686926,3,5177,5057,14.95,1.79,30,8,0,0
324455,203798624,3,5057,5057,14.96,1.84,30,8,0,0
324902,203910606,3,5061,5100,14.89,1.91,30,8,0,0
325794,204122985,3,5094,4914,14.95,1.57,30,9,0,0
326238,204232487,3,4924,5014,14.88,1.78,30,9,0,0
326646,204334775,3,5001,4842,14.95,1.56,30,9,0,0
327094,204446070,3,4836,4785,14.98,1.5,30,9,0,0
327495,204545000,3,4784,4728,14.92,1.59,30,9,0,0
327980,204658131,3,4736,4900,14.94,1.76,30,9,0,0
328429,204771965,3,4895,4842,14.95,1.58,30,9,0,0
328835,204876633,3,4844,4871,14.89,1.54,30,9,0,0
329282,204985332,3,4873,4900,14.88,1.66,30,9,0,0
329689,205091721,3,4887,4728,14.85,1.36,30,9,0,0
330141,205202167,3,4733,4814,14.84,1.91,30,9,0,0
330647,205416458,3,4928,4942,14.98,1.78,30,9,0,0
330925,205527952,3,4938,4842,14.91,1.62,30,9,0,0
331815,205742792,3,4837,4671,14.93,1.46,30,9,0,0
332263,205856786,3,4666,4271,14.97,1.27,30,9,0,0
332756,205978797,3,4278,4357,14.96,1.56,30,9,0,0
333118,206068938,3,4357,4385,14.95,1.79,30,10,0,0
333606,206189809,3,4392,4471,15,1.89,30,10,0,0
334018,206291654,3,4477,4657,14.98,2.07,30,10,0,0
334499,206404051,3,4662,4714,14.89,2.15,30,10,0,0
334903,206506717,3,4715,4757,14.97,2.29,30,10,0,0
335350,206616970,3,4796,5157,14.92,2.9,30,10,0,0
335800,206730193,3,5171,5285,14.9,2.97,30,10,0,0
336211,206827966,3,5286,5385,14.9,2.8,30,10,0,0
336654,206941485,3,5390,5514,14.85,3.06,30,10,0,0
337063,207045733,3,5512,5485,14.83,3.05,30,10,0,0
337503,207154926,3,5485,5485,14.88,3.05,30,10,0,0
337996,207272189,3,5480,5442,14.91,2.06,30,10,0,0
338446,207382714,3,5403,5100,15,2.07,30,10,0,0
338850,207487741,3,5096,5071,14.92,2.32,30,10,0,0
339299,207595816,3,5074,5128,14.98,2.18,30,11,0,0
339742,207704144,3,5131,5185,14.91,2.4,30,11,0,0
340194,207815132,3,5183,5157,14.94,2.6,30,11,0,0
340604,207920616,3,5165,5271,14.93,2.47,30,11,0,0
341059,208035137,3,5269,5257,14.86,2.57,30,11,0,0
341463,208139017,3,5247,5128,15.01,2.01,30,11,0,0
341911,208247904,3,5109,4928,15.02,1.63,30,11,0,0
342360,208359969,3,4907,4700,15,1.76,30,11,0,0
342764,208460747,3,4699,4685,14.97,1.88,30,11,0,0
343255,208579487,3,4683,4671,15.01,2.03,30,11,0,0
343655,208677068,3,4689,4942,14.92,2.76,30,11,0,0
344106,208786003,3,4940,4914,14.83,2.38,30,11,0,0
344557,208899176,3,4920,4985,14.82,2.41,30,11,0,0
345003,209004946,3,4985,5000,14.97,1.99,30,11,0,0
345447,209114611,3,5000,5000,14.95,1.72,30,11,0,0
345855,209213716,3,4999,4985,14.93,2.63,30,12,0,0
346302,209322822,3,4985,5014,14.86,2.29,30,12,0,0
347195,209543529,3,5004,4628,14.92,1.69,30,12,0,0
347646,209659627,3,4633,4685,14.91,1.93,30,12,0,0
348497,209869659,3,4685,4714,14.87,1.6,30,12,0,0
348952,209979496,3,4713,4700,14.86,1.86,30,12,0,0
349401,210091425,3,4715,4871,14.8,2.29,30,12,0,0
349848,210198540,3,4884,5171,14.82,2.65,30,12,0,0
350253,210301579,3,5164,4828,14.95,1.5,30,12,0,0
350702,210408907,3,4824,4585,14.94,1.75,30,12,0,0
351182,210521989,3,4590,4657,14.86,1.87,30,12,0,0
351635,210630063,3,4668,4900,14.8,2.45,30,12,0,0
352043,210737273,3,4903,5114,14.87,2.72,30,12,0,0
352530,210857966,3,5130,5271,14.8,2.77,30,12,0,0
352935,210955950,3,5269,5257,14.82,2.68,30,13,0,0
353337,211056419,3,5262,5457,14.7,3.26,30,13,0,0
353792,211170915,3,5453,5385,14.83,2.65,30,13,0,0
354276,211285494,3,5396,5485,14.79,2.66,30,13,0,0
354723,211390782,3,5475,5371,14.79,2.53,30,13,0,0
355125,211494043,3,5365,5300,14.72,2.57,30,13,0,0
355572,211600741,3,5302,5357,14.76,2.82,30,13,0,0
356021,211712944,3,5353,5314,14.82,2.98,30,13,0,0
356466,211819829,3,5317,5542,14.84,2.91,30,13,0,0
356913,211929991,3,5530,5371,14.84,2.72,30,13,0,0
357397,212040798,3,5361,5228,14.84,2.38,30,13,0,0
357854,212157758,3,5224,5171,14.78,2.54,30,13,0,0
358262,212264141,3,5169,5157,14.79,2.45,30,14,0,0
358716,212374821,3,5171,5314,14.85,2.52,30,14,0,0
359110,212472902,3,5310,5085,14.7,2.59,30,14,0,0
359608,212592807,3,5105,5314,14.72,2.64,30,14,0,0
360045,212695751,3,5312,5271,14.83,2.61,30,14,0,0
360502,212805810,3,5274,5328,14.76,2.73,30,14,0,0
360953,212920063,3,5329,5342,14.72,2.75,30,14,0,0
361401,213029423,3,5344,5371,14.78,2.87,30,14,0,0
361801,213132145,3,5374,5428,14.8,2.84,30,14,0,0
362253,213241688,3,5435,5514,14.77,3.14,30,14,0,0
362658,213345326,3,5516,5714,14.77,3.16,30,14,0,0
363111,213454048,3,5714,5714,14.82,3.27,30,14,0,0
363554,213563727,3,5714,5714,14.67,3.29,30,15,0,0
363961,213669835,3,5713,5671,14.72,3.09,30,15,0,0
364409,213776688,3,5671,5714,14.77,3.42,30,15,0,0
364905,213899816,3,5716,5742,14.7,2.96,30,15,0,0
365348,214005807,3,5733,5614,14.8,2.85,30,15,0,0
366242,214223983,3,5604,5385,14.85,2.56,30,15,0,0
366686,214334793,3,5377,5300,14.88,2.29,30,15,0,0
367136,214444497,3,5305,5357,14.79,3.03,30,15,0,0
367532,214542667,3,5359,5471,14.8,3.01,30,15,0,0
368023,214663130,3,5488,5728,14.82,3.34,30,15,0,0
368475,214771690,3,5718,5585,14.83,3.04,30,16,0,0
368883,214876702,3,5585,5600,14.79,3.24,30,16,0,0
369368,214988592,3,5615,5771,14.8,3.28,30,16,0,0
369770,215087986,3,5764,5642,14.77,3.05,30,16,0,0
370262,215211201,3,5654,5728,14.82,3.21,30,16,0,0
370705,215311069,3,5719,5628,14.77,3.11,30,16,0,0
371604,215534413,3,5630,5685,14.66,3.32,30,16,0,0
372053,215643697,3,5682,5657,14.75,3.01,30,16,0,0
372500,215760409,3,5644,5557,14.81,2.83,30,16,0,0
372950,215870598,3,5546,5442,14.77,2.83,30,16,0,0
373357,215968630,3,5442,5457,14.76,2.75,30,17,0,0
373802,216078761,3,5455,5371,14.8,2.94,30,17,0,0
374293,216195626,3,5385,5500,14.75,3.1,30,17,0,0
374770,216307185,3,5507,5614,14.81,2.97,30,17,0,0
375174,216406212,3,5604,5485,14.76,2.83,30,17,0,0
375589,216516035,3,5477,5428,14.76,2.69,30,17,0,0
376041,216627050,3,5436,5528,14.75,3,30,17,0,0
376485,216733542,3,5535,5614,14.76,2.96,30,17,0,0
376931,216840023,3,5610,5571,14.8,2.76,30,17,0,0
377369,216944405,3,5568,5528,14.76,2.74,30,17,0,0
377822,217053513,3,5521,5385,14.69,2.98,30,17,0,0
378272,217169526,3,5389,5428,14.73,2.77,30,18,0,0
378717,217279962,3,5404,5185,14.78,2.21,30,18,0,0
379165,217386816,3,5182,5042,14.79,2.14,30,18,0,0
379605,217492038,3,5047,5142,14.75,2.85,30,18,0,0
380057,217603206,3,5142,5157,14.83,2.23,30,18,0,0
380500,217712018,3,5157,5157,14.77,2.43,30,18,0,0
380991,217829153,3,5165,5257,14.82,2.57,30,18,0,0
381843,218038658,3,5257,5271,14.79,2.72,30,18,0,0
382327,218151913,3,5284,5457,14.73,3.03,30,18,0,0
382734,218257134,3,5454,5400,14.7,2.96,30,18,0,0
383220,218368505,3,5398,5371,14.76,2.76,30,18,0,0
383662,218477965,3,5369,5357,14.75,2.71,30,19,0,0
384069,218576665,3,5358,5428,14.81,2.92,30,19,0,0
384522,218691498,3,5424,5371,14.84,2.47,30,19,0,0
384971,218799635,3,5372,5400,14.77,2.67,30,19,0,0
385373,218901197,3,5398,5342,14.62,3.02,30,19,0,0
385868,219019604,3,5338,5300,14.67,3.06,30,19,0,0
386266,219117616,3,5303,5442,14.72,2.32,30,19,0,0
386757,219232708,3,5439,5400,14.73,2.83,30,19,0,0
387204,219343048,3,5403,5457,14.77,2.86,30,19,0,0
387655,219456694,3,5440,5328,14.8,2.65,30,19,0,0
388056,219556158,3,5321,5228,14.72,2.56,30,19,0,0
388500,219663494,3,5239,5357,14.76,2.78,30,19,0,0
388947,219772149,3,5344,5171,14.78,2.32,30,19,0,0
389806,219990400,3,5166,5057,14.88,2.33,30,20,0,0
390246,220096666,3,5057,5057,14.86,2.41,30,20,0,0
390699,220209400,3,5062,5128,14.73,2.73,30,20,0,0
391146,220317554,3,5128,5128,14.85,2.64,30,20,0,0
391595,220424334,3,5140,5414,14.77,3.15,30,20,0,0
392043,220536711,3,5409,5271,14.83,2.79,30,20,0,0
392496,220649896,3,5288,5400,14.77,2.85,30,20,0,0
392932,220752502,3,5413,5585,14.74,3.15,30,20,0,0
393335,220854927,3,5583,5557,14.82,3.04,30,20,0,0
393790,220966692,3,5549,5457,14.72,2.85,30,20,0,0
394195,221071745,3,5457,5457,14.79,2.67,30,20,0,0
394683,221185767,3,5464,5557,14.82,2.83,30,21,0,0
395131,221296696,3,5538,5285,14.79,2.39,30,21,0,0
395583,221406143,3,5278,5214,14.81,2.34,30,21,0,0
396033,221519505,3,5211,5171,14.88,2.23,30,21,0,0
396882,221727227,3,5171,5200,14.81,2.19,30,21,0,0
397334,221838604,3,5198,5114,14.77,2.62,30,21,0,0
397773,221944619,3,5116,5157,14.83,2.06,30,21,0,0
398223,222058212,3,5157,5157,14.79,2.43,30,21,0,0
399031,222272622,3,5158,5200,14.78,2.42,30,21,0,0
399497,222482860,3,5313,5300,14.75,2.46,30,21,0,0
399988,222596766,3,5293,5228,14.79,2.36,30,21,0,0
400397,222700734,3,5226,5214,14.82,2.35,30,22,0,0
400841,222806824,3,5211,5157,14.77,2.46,30,22,0,0
401329,222925822,3,5157,5157,14.74,2.33,30,22,0,0
401734,223026019,3,5158,5171,14.76,2.3,30,22,0,0
402222,223145401,3,5160,5042,14.77,2.29,30,22,0,0
402629,223243796,3,5047,5157,14.78,2.31,30,22,0,0
403520,223463523,3,5155,5100,14.76,2.27,30,22,0,0
403966,223572618,3,5097,5057,14.78,2.1,30,22,0,0
404417,223685782,3,5050,4985,14.77,2.14,30,22,0,0
404863,223794557,3,4992,5071,14.8,2.24,30,22,0,0
405265,223894650,3,5072,5171,14.86,2.08,30,22,0,0
405712,224000783,3,5170,5142,14.76,2.47,30,22,0,0
406165,224113618,3,5142,5142,14.82,2.26,30,22,0,0
406610,224219090,3,5142,5157,14.77,2.48,30,23,0,0
407095,224335600,3,5147,5042,14.76,2.23,30,23,0,0
407541,224441186,3,5045,5100,14.79,2.22,30,23,0,0
407981,224552159,3,5091,5000,14.73,2.01,30,23,0,0
408434,224662965,3,4996,4942,14.73,1.84,30,23,0,0
408883,224775034,3,4923,4757,14.73,1.83,30,23,0,0
409287,224877808,3,4759,4871,14.78,2.01,30,23,0,0
410178,225097630,3,4874,4942,14.82,2.14,30,23,0,0
410633,225206137,3,4947,5042,14.83,2.05,30,23,0,0
411081,225319613,3,5039,5014,14.8,2.27,30,23,0,0
411485,225418031,3,5015,5085,14.8,2.34,30,23,0,0
412428,225645806,3,5092,5214,14.8,2.33,30,23,0,0
412838,225753525,3,5206,5128,14.79,2.46,30,23,0,0
413284,225862552,3,5129,5171,14.78,2.43,30,24,0,0
413728,225969391,3,5173,5242,14.73,2.7,30,24,0,0
414172,226078924,3,5246,5300,14.72,2.59,30,24,0,0
414578,226180018,3,5301,5371,14.66,2.97,30,24,0,0
415064,226296616,3,5377,5471,14.71,2.63,30,24,0,0
415517,226409604,3,5445,5242,14.66,2.28,30,24,0,0
415886,226509939,3,5235,5100,14.66,2.36,30,24,0,0
416340,226619546,3,5102,5157,14.64,2.45,30,24,0,0
416787,226729903,3,5157,5171,14.7,2.5,30,24,0,0
417237,226841389,3,5178,5285,14.64,2.68,30,24,0,0
417646,226946512,3,5281,5100,14.77,2.35,30,24,0,0
418130,227058597,3,5104,5185,14.82,2.67,30,24,0,0
418576,227164985,3,5182,5085,14.86,2.11,30,24,0,0
419024,227277486,3,5071,4800,14.89,1.68,30,25,0,0
419477,227388521,3,4801,4814,14.82,1.99,30,25,0,0
419879,227489603,3,4816,4957,14.81,2.37,30,25,0,0
420366,227601419,3,4961,5042,14.85,1.94,30,25,0,0
420811,227710597,3,5031,4814,14.8,1.94,30,25,0,0
421265,227821949,3,4824,4985,14.8,2.46,30,25,0,0
421672,227925611,3,4986,5100,14.77,2.42,30,25,0,0
422164,228043824,3,5101,5114,14.72,2.24,30,25,0,0
422566,228143740,3,5115,5171,14.82,2.22,30,25,0,0
423048,228260196,3,5154,4971,14.81,1.93,30,25,0,0
423454,228360507,3,4972,5000,14.8,1.78,30,25,0,0
423900,228473726,3,4997,4857,14.76,1.76,30,25,0,0
424347,228581702,3,4857,4857,14.75,1.79,30,25,0,0
424796,228693958,3,4861,4957,14.81,1.81,30,25,0,0
425244,228801178,3,4954,4900,14.76,1.95,30,25,0,0
425864,229013807,3,4942,4942,14.78,1.93,30,26,0,0
426310,229122030,3,4940,4885,14.8,1.64,30,26,0,0
426758,229230016,3,4886,4914,14.82,2.01,30,26,0,0
427199,229337961,3,4914,4914,14.8,1.89,30,26,0,0
427650,229450657,3,4917,5014,14.77,2.07,30,26,0,0
428093,229556198,3,5026,5271,14.75,2.15,30,26,0,0
428544,229670997,3,5260,5114,14.82,2.03,30,26,0,0
428952,229771808,3,5108,4914,14.82,1.67,30,26,0,0
429406,229886506,3,4919,4971,14.7,2.13,30,26,0,0
429852,229992157,3,4979,5100,14.74,2.16,30,26,0,0
430293,230099593,3,5092,4942,14.8,2,30,26,0,0
430785,230216492,3,4933,4842,14.83,1.72,30,26,0,0
431190,230319316,3,4838,4771,14.88,1.65,30,26,0,0
431636,230425507,3,4765,4642,14.83,1.54,30,26,0,0
432084,230538570,3,4642,4657,14.77,1.91,30,26,0,0
432532,230644185,3,4666,4871,14.8,1.91,30,26,0,0
432976,230754769,3,4866,4800,14.8,2.14,30,26,0,0
433830,230967193,3,4806,5114,14.76,2.27,30,27,0,0
434319,231087971,3,5120,5185,14.81,2.36,30,27,0,0
434722,231186068,3,5186,5257,14.77,2.38,30,27,0,0
435206,231308916,3,5261,5314,14.79,2.78,30,27,0,0
435656,231419179,3,5297,5185,14.8,2.27,30,27,0,0
436029,231518601,3,5184,5171,14.77,2.09,30,27,0,0
436515,231634667,3,5158,5042,14.75,2.39,30,27,0,0
436954,231744943,3,5042,5042,14.77,1.92,30,27,0,0
437405,231855655,3,5029,4928,14.84,1.85,30,27,0,0
437843,231965923,3,4905,4728,14.86,1.62,30,27,0,0
438255,232070493,3,4716,4642,14.88,1.84,30,27,0,0
438701,232176720,3,4653,4800,14.83,2.04,30,27,0,0
439143,232288553,3,4805,4885,14.83,2.12,30,27,0,0
439590,232396211,3,4896,5042,14.69,2.53,30,27,0,0
440480,232616452,3,5042,5057,14.76,2.06,30,28,0,0
440921,232725138,3,5054,5000,14.78,2.01,29,28,0,0
441369,232835082,3,4984,4857,14.79,1.89,30,28,0,0
442229,233052976,3,4859,4914,14.79,2.28,30,28,0,0
442720,233168927,3,4920,4985,14.82,2.11,30,28,0,0
443119,233269555,3,4983,4900,14.75,2.17,30,28,0,0
443565,233379388,3,4905,4985,14.82,2.39,29,28,0,0
443965,233479724,3,4984,4957,14.81,1.99,30,28,0,0
444453,233595104,3,4952,4885,14.82,1.7,30,28,0,0
444904,233710606,3,4875,4771,14.86,1.63,29,28,0,0
445305,233807002,3,4769,4728,14.89,1.73,30,28,0,0
445747,233915658,3,4729,4757,14.76,1.97,29,28,0,0
446205,234026914,3,4783,5071,14.63,2.82,30,28,0,0
446643,234136668,3,5083,5271,14.72,2.75,30,28,0,0
447131,234255713,3,5256,5100,14.79,2.2,30,29,0,0
447533,234353150,3,5108,5200,14.82,2.34,30,29,0,0
447983,234465833,3,5190,5100,14.8,2.51,30,29,0,0
448430,234572799,3,5099,5085,14.72,2.27,29,29,0,0
448875,234685013,3,5095,5200,14.69,2.53,29,29,0,0
449320,234791133,3,5201,5228,14.65,2.65,29,29,0,0
449800,234905786,3,5236,5314,14.73,2.47,30,29,0,0
450208,235004778,3,5311,5228,14.73,2.4,29,29,0,0
450664,235121736,3,5227,5214,14.72,2.31,30,29,0,0
451071,235223370,3,5216,5314,14.7,3,30,29,0,0
451523,235335503,3,5321,5457,14.79,2.77,30,29,0,0
451983,235452024,3,5453,5428,14.85,2.57,30,29,0,0
452386,235549140,3,5414,5171,14.79,2.26,29,29,0,0
452792,235652182,3,5171,5185,14.77,2.44,29,29,0,0
453281,235768117,3,5185,5200,14.76,2.26,29,30,0,0
453722,235874391,3,5197,5142,14.83,2.48,29,30,0,0
454173,235982789,3,5145,5271,14.77,2.44,29,30,0,0
454616,236093590,3,5263,5171,14.73,2.7,30,30,0,0
455068,236203766,3,5179,5385,14.69,2.63,30,30,0,0
455505,236308495,3,5384,5371,14.73,2.92,29,30,0,0
455960,236420512,3,5389,5571,14.69,3.3,29,30,0,0
456358,236519076,3,5570,5557,14.69,2.91,30,30,0,0
456848,236635272,3,5557,5557,14.73,2.73,30,30,0,0
457295,236748338,3,5543,5400,14.72,2.65,29,30,0,0
457742,236856069,3,5395,5300,14.83,2.35,29,30,0,0
458177,236963930,3,5289,5142,14.76,2.41,29,31,0,0
458632,237079038,3,5154,5285,14.76,2.2,29,31,0,0
459078,237185134,3,5283,5271,14.71,2.52,29,31,0,0
459559,237299383,3,5278,5357,14.67,2.88,29,31,0,0
459963,237398776,3,5357,5385,14.59,2.99,29,31,0,0
460408,237506643,3,5388,5571,14.57,3.23,29,31,0,0
460853,237614015,3,5571,5585,14.69,2.96,29,31,0,0
461337,237727903,3,5586,5614,14.64,2.62,29,31,0,0
461788,237838601,3,5591,5357,14.66,2.7,29,31,0,0
462231,237949639,3,5354,5328,14.61,2.62,29,31,0,0
463119,238168043,3,5331,5400,14.75,2.65,29,31,0,0
463525,238272636,3,5392,5200,14.64,2.41,30,31,0,0
464457,238499953,3,5207,5414,14.64,2.94,29,32,0,0
464909,238613054,3,5404,5300,14.69,2.49,29,32,0,0
465310,238714347,3,5308,5457,14.69,2.7,30,32,0,0
465761,238827045,3,5457,5471,14.59,2.75,30,32,0,0
466207,238936736,3,5477,5542,14.63,2.7,30,32,0,0
466609,239032526,3,5539,5457,14.64,2.94,30,32,0,0
467099,239153553,3,5453,5414,14.66,3,30,32,0,0
467497,239253414,3,5414,5414,14.61,2.37,29,32,0,0
467948,239364391,3,5416,5457,14.61,2.69,29,32,0,0
468880,239590034,3,5443,5142,14.69,2.59,29,32,0,0
469281,239692029,3,5159,5371,14.6,2.93,29,33,0,0
469731,239802018,3,5362,5271,14.64,2.67,29,33,0,0
470134,239906518,3,5289,5528,14.66,2.69,29,33,0,0
470585,240014210,3,5512,5357,14.64,2.66,30,33,0,0
471029,240124044,3,5357,5357,14.65,2.66,30,33,0,0
471478,240234412,3,5364,5442,14.69,2.71,29,33,0,0
471887,240338689,3,5443,5457,14.7,2.69,29,33,0,0
472333,240444730,3,5446,5314,14.68,2.73,30,33,0,0
472775,240554810,3,5311,5271,14.69,2.61,29,33,0,0
473181,240655509,3,5272,5414,14.7,2.92,29,33,0,0
473633,240768533,3,5409,5300,14.72,2.62,30,33,0,0
474076,240878006,3,5300,5300,14.73,2.51,30,33,0,0
474532,240987543,3,5300,5314,14.71,2.66,29,34,0,0
474979,241103645,3,5322,5385,14.69,2.71,29,34,0,0
475427,241209914,3,5390,5442,14.6,2.95,30,34,0,0
475831,241313620,3,5437,5357,14.65,2.97,29,34,0,0
476280,241423144,3,5366,5500,14.67,2.79,30,34,0,0
476757,241541327,3,5503,5528,14.66,2.69,30,34,0,0
477210,241650548,3,5510,5385,14.6,2.67,29,34,0,0
477613,241754534,3,5381,5357,14.64,2.63,29,34,0,0
478025,241854385,3,5359,5414,14.64,2.96,30,34,0,0
478474,241962221,3,5414,5414,14.56,2.79,29,34,0,0
478912,242075206,3,5422,5514,14.54,3.38,29,34,0,0
479362,242189043,3,5521,5614,14.56,3.24,30,34,0,0
479766,242290391,3,5615,5642,14.58,2.96,30,35,0,0
480259,242407185,3,5623,5442,14.65,2.66,30,35,0,0
480661,242508056,3,5441,5371,14.66,2.48,29,35,0,0
481153,242632023,3,5362,5271,14.71,2.8,30,35,0,0
482037,242844158,3,5271,5285,14.75,2.47,29,35,0,0
482445,242946771,3,5285,5300,14.67,2.47,29,35,0,0
482893,243055373,3,5302,5357,14.69,2.85,30,35,0,0
483338,243164989,3,5358,5371,14.74,2.73,29,35,0,0
483813,243277197,3,5372,5385,14.71,2.63,29,35,0,0
484264,243386508,3,5389,5428,14.67,2.84,29,35,0,0
484666,243486798,3,5421,5371,14.67,2.97,29,35,0,0
485155,243604411,3,5373,5400,14.67,2.87,30,36,0,0
485552,243704022,3,5410,5514,14.72,2.79,29,36,0,0
486003,243815735,3,5515,5528,14.73,2.94,29,36,0,0
486410,243918130,3,5527,5485,14.69,2.96,30,36,0,0
486909,244037569,3,5489,5542,14.71,2.88,30,36,0,0
487303,244136488,3,5543,5600,14.75,3.13,30,36,0,0
487759,244250828,3,5604,5671,14.64,3.26,29,36,0,0
488199,244358934,3,5671,5685,14.6,3.33,30,36,0,0
489096,244582783,3,5686,5742,14.72,3.3,30,36,0,0
489540,244692517,3,5742,5742,14.66,3.13,30,36,0,0
489990,244800559,3,5740,5714,14.61,3.47,30,37,0,0
490390,244901528,3,5716,5800,14.59,2.95,29,37,0,0
490843,245010183,3,5791,5628,14.65,2.98,29,37,0,0
491774,245234556,3,5630,5700,14.67,3.03,29,37,0,0
492218,245345120,3,5696,5628,14.68,2.77,29,37,0,0
492673,245460049,3,5626,5485,14.69,2.4,30,37,0,0
493121,245568054,3,5495,5600,14.63,3.4,30,37,0,0
493523,245668832,3,5597,5557,14.72,2.6,29,37,0,0
493970,245777052,3,5557,5557,14.63,3.05,30,37,0,0
494413,245887038,3,5557,5571,14.68,3.17,29,37,0,0
494868,245997528,3,5574,5628,14.61,3.25,30,38,0,0
495317,246107534,3,5630,5671,14.65,3.12,30,38,0,0
495763,246213163,3,5651,5385,14.73,2.64,30,38,0,0
496209,246327279,3,5378,5314,14.67,2.58,30,38,0,0
496618,246428166,3,5324,5542,14.69,3.09,30,38,0,0
497064,246539527,3,5530,5285,14.73,2.27,30,38,0,0
497515,246651698,3,5275,5171,14.72,2.31,30,38,0,0
497957,246759901,3,5164,5071,14.69,2.11,29,38,0,0
498399,246868171,3,5068,5042,14.72,2.45,30,38,0,0
498849,246974196,3,5047,5128,14.66,2.45,30,38,0,0
499294,247085776,3,5129,5157,14.68,2.15,29,38,0,0
499741,247192680,3,5140,4971,14.73,2.23,29,38,0,0
500145,247298031,3,4971,4985,14.72,2.02,29,38,0,0
500600,247409793,3,4977,4885,14.7,1.82,30,39,0,0
501488,247627767,3,4886,4928,14.75,2.05,29,39,0,0
501890,247730168,3,4926,4900,14.7,2.22,30,39,0,0
502344,247842933,3,4909,5000,14.67,2.3,29,39,0,0
502787,247950915,3,5006,5071,14.67,2.29,29,39,0,0
503225,248059340,3,5071,5071,14.64,2.26,30,39,0,0
503664,248162608,3,5068,5014,14.72,2.26,29,39,0,0
504152,248283904,3,5019,5085,14.7,2.4,30,39,0,0
504561,248384778,3,5086,5128,14.69,2.46,30,39,0,0
505006,248494448,3,5125,5100,14.61,2.36,29,39,0,0
505455,248603512,3,5102,5171,14.73,2.27,29,39,0,0
505900,248714200,3,5164,5014,14.7,2.44,29,39,0,0
506347,248823998,3,5025,5142,14.58,2.51,30,39,0,0
506790,248932009,3,5142,5142,14.63,2.38,30,40,0,0
507163,249030449,3,5142,5142,14.7,2.5,30,40,0,0
508091,249260518,3,5148,5271,14.6,2.86,29,40,0,0
508499,249360205,3,5268,5228,14.62,2.3,29,40,0,0
508899,249461606,3,5228,5285,14.64,2.62,30,40,0,0
509797,249687272,3,5290,5400,14.72,2.78,29,40,0,0
510205,249787917,3,5406,5557,14.69,3.21,29,40,0,0
510650,249899186,3,5555,5542,14.63,2.93,30,40,0,0
511141,250019509,3,5543,5557,14.66,3.07,29,40,0,0
511541,250116176,3,5557,5557,14.63,3.09,30,40,0,0
511989,250226647,3,5557,5585,14.72,3.07,29,41,0,0
512435,250336978,3,5582,5514,14.63,3.1,29,41,0,0
512882,250449284,3,5507,5385,14.61,2.94,30,41,0,0
513330,250557423,3,5381,5328,14.68,2.81,29,41,0,0
514221,250775494,3,5328,5357,14.61,2.81,29,41,0,0
514667,250892040,3,5352,5300,14.64,2.77,29,41,0,0
515072,250995494,3,5302,5428,14.65,2.7,29,41,0,0
515522,251106721,3,5427,5414,14.66,2.72,29,41,0,0
515970,251219026,3,5404,5314,14.61,2.79,30,41,0,0
516370,251320043,3,5313,5271,14.6,2.59,29,41,0,0
517225,251529296,3,5270,5228,14.7,2.6,30,42,0,0
517673,251637574,3,5228,5228,14.69,2.69,29,42,0,0
518116,251749401,3,5232,5328,14.69,2.72,30,42,0,0
518596,251864634,3,5326,5314,14.63,2.47,29,42,0,0
519046,251977185,3,5294,5157,14.72,2.38,29,42,0,0
519450,252076329,3,5154,5028,14.69,2.19,30,42,0,0
519935,252194021,3,5026,5014,14.65,2.32,29,42,0,0
520375,252297926,3,5018,5100,14.69,2.35,30,42,0,0
520822,252404166,3,5099,5085,14.64,2.26,30,42,0,0
521271,252519983,3,5090,5171,14.67,2.42,30,42,0,0
521718,252629408,3,5174,5200,14.7,2.37,30,42,0,0
522126,252730180,3,5200,5214,14.64,2.45,29,42,0,0
522571,252839921,3,5213,5171,14.69,2.26,29,42,0,0
523061,252957979,3,5164,5100,14.63,2.2,29,42,0,0
523466,253063511,3,5094,5042,14.7,2.15,30,43,0,0
523915,253172119,3,5043,5057,14.73,2.17,29,43,0,0
524362,253282798,3,5064,5128,14.67,2.4,29,43,0,0
524766,253379012,3,5128,5171,14.69,2.63,29,43,0,0
525212,253491827,3,5173,5228,14.73,2.46,30,43,0,0
525662,253600042,3,5223,5171,14.66,2.51,29,43,0,0
526067,253704818,3,5172,5214,14.66,2.25,29,43,0,0
526564,253826232,3,5209,5171,14.72,2.26,29,43,0,0
526964,253923575,3,5169,5128,14.67,2.22,29,43,0,0
527416,254034326,3,5141,5271,14.67,2.69,30,43,0,0
527857,254143532,3,5278,5371,14.67,2.76,29,43,0,0
528307,254260001,3,5354,5242,14.67,2.31,29,43,0,0
528716,254361191,3,5235,5142,14.72,2.45,30,43,0,0
529160,254472042,3,5135,5085,14.67,2.34,29,44,0,0
529570,254575750,3,5085,5085,14.72,2.4,29,44,0,0
530013,254685947,3,5086,5128,14.69,2.11,29,44,0,0
530502,254802835,3,5116,5000,14.63,2.43,29,44,0,0
531396,255020407,3,5003,5085,14.6,2.36,30,44,0,0
531797,255123158,3,5083,5042,14.54,2.43,29,44,0,0
532277,255233043,3,5046,5128,14.56,2.7,30,44,0,0
532688,255338646,3,5130,5271,14.42,3.18,29,44,0,0
533176,255455273,3,5284,5442,14.51,2.82,29,44,0,0
533620,255564812,3,5437,5371,14.52,2.68,29,44,0,0
534022,255667652,3,5373,5428,14.55,2.57,29,44,0,0
534472,255774407,3,5428,5442,14.55,2.46,29,44,0,0
534917,255886650,3,5441,5428,14.62,2.59,29,45,0,0
535406,255999919,3,5415,5300,14.66,2.49,29,45,0,0
535847,256108590,3,5294,5242,14.64,2.52,29,45,0,0
536293,256214561,3,5250,5357,14.66,2.75,30,45,0,0
536692,256316019,3,5355,5257,14.64,2.75,29,45,0,0
537143,256426698,3,5258,5285,14.63,2.72,29,45,0,0
537576,256528063,3,5285,5300,14.61,2.85,29,45,0,0
538026,256640576,3,5304,5400,14.66,2.92,29,45,0,0
538435,256747819,3,5406,5542,14.66,3.15,29,45,0,0
538888,256861769,3,5560,5728,14.56,3.32,29,45,0,0
539344,256972506,3,5724,5685,14.57,3.08,29,45,0,0
539742,257074038,3,5680,5557,14.61,2.84,29,45,0,0
540186,257181544,3,5550,5228,14.67,2.49,29,46,0,0
540674,257299032,3,5217,5114,14.68,2.29,29,46,0,0
541078,257398501,3,5113,5085,14.67,2.28,30,46,0,0
541525,257509216,3,5080,5028,14.76,2.04,29,46,0,0
541973,257616584,3,5023,4928,14.72,2.18,29,46,0,0
542451,257730172,3,4928,4928,14.8,1.95,29,46,0,0
542863,257832132,3,4926,4900,14.76,2.02,29,46,0,0
543263,257935005,3,4899,4871,14.72,2.24,29,46,0,0
544195,258156745,3,4879,5114,14.76,2.55,29,46,0,0
545084,258374391,3,5119,5228,14.69,2.86,29,46,0,0
545929,258584553,3,5228,5242,14.71,2.6,29,46,0,0
546373,258698598,3,5245,5285,14.7,2.49,29,47,0,0
546817,258804548,3,5282,5157,14.73,2.38,29,47,0,0
547264,258914356,3,5161,5271,14.72,2.56,29,47,0,0
547750,259025596,3,5264,5200,14.77,2.43,29,47,0,0
548153,259129213,3,5187,5028,14.7,2.14,29,47,0,0
548601,259237061,3,5033,5157,14.64,2.41,29,47,0,0
549937,259565719,3,5153,5042,14.72,1.89,29,47,0,0
550384,259680154,3,5040,5028,14.7,1.81,29,47,0,0
550791,259779634,3,5012,4685,14.69,1.7,29,47,0,0
551245,259895491,3,4679,4628,14.72,1.94,29,47,0,0
551650,259994449,3,4631,4842,14.65,2.42,29,47,0,0
552098,260106697,3,4853,5000,14.66,2.37,29,47,0,0
552543,260214781,3,5004,5314,14.68,2.82,29,47,0,0
553030,260331224,3,5319,5371,14.66,2.47,29,48,0,0
553438,260433614,3,5366,5314,14.71,2.79,29,48,0,0
553840,260535232,3,5315,5442,14.64,2.95,29,48,0,0
554331,260657029,3,5442,5442,14.68,3.07,29,48,0,0
554737,260758384,3,5437,5328,14.64,2.58,29,48,0,0
555184,260868807,3,5326,5300,14.63,2.88,29,48,0,0
555633,260976801,3,5308,5428,14.72,2.81,29,48,0,0
556081,261094713,3,5410,5314,14.62,2.69,29,48,0,0
556489,261187742,3,5314,5357,14.55,2.83,29,48,0,0
556926,261290624,3,5358,5428,14.67,2.55,29,48,0,0
557377,261401534,3,5426,5342,14.69,2.69,29,48,0,0
557785,261510947,3,5339,5285,14.7,2.6,29,48,0,0
558236,261626134,3,5288,5314,14.69,2.55,29,49,0,0
558636,261724649,3,5315,5342,14.72,2.67,29,49,0,0
559091,261836196,3,5342,5357,14.63,2.74,29,49,0,0
559567,261954393,3,5349,5300,14.69,2.87,29,49,0,0
559979,262050126,3,5302,5357,14.69,3.12,29,49,0,0
560424,262162962,3,5368,5471,14.66,3.15,29,49,0,0
560904,262281203,3,5473,5514,14.6,3.15,29,49,0,0
561313,262377168,3,5513,5471,14.61,3.26,29,49,0,0
561759,262486694,3,5474,5685,14.59,3.12,29,49,0,0
562650,262705734,3,5681,5571,14.63,3.06,29,49,0,0
563100,262819190,3,5591,5871,14.66,3.77,29,50,0,0
563552,262933831,3,5858,5728,14.73,3.47,29,50,0,0
563998,263039133,3,5734,5785,14.69,3.3,29,50,0,0
564401,263137652,3,5781,5728,14.76,2.8,29,50,0,0
564849,263248803,3,5726,5700,14.74,3.36,29,50,0,0
565302,263363414,3,5707,5814,14.76,3.01,29,50,0,0
565706,263465556,3,5811,5657,14.64,2.84,29,50,0,0
566154,263574810,3,5659,5771,14.76,2.92,29,50,0,0
566598,263684541,3,5763,5628,14.67,2.82,29,50,0,0
567943,264013555,3,5633,5814,14.65,3.66,29,51,0,0
568343,264113781,3,5815,5885,14.62,3.48,29,51,0,0
568835,264231212,3,5868,5642,14.6,3.02,29,51,0,0
569243,264336562,3,5629,5357,14.55,2.62,29,51,0,0
569798,264553007,3,5495,5742,14.56,3.74,29,51,0,0
570248,264668715,3,5740,5728,14.55,3.15,29,51,0,0
570687,264770506,3,5717,5500,14.57,2.64,29,51,0,0
571584,264991644,3,5495,5242,14.58,2.38,29,51,0,0
572025,265100712,3,5233,5128,14.56,2.38,29,52,0,0
572922,265322992,3,5144,5471,14.47,3.27,29,52,0,0
573370,265429395,3,5485,5700,14.44,3.54,29,52,0,0
573814,265539133,3,5697,5671,14.4,3.44,29,52,0,0
574662,265751634,3,5670,5571,14.54,2.55,29,52,0,0
575149,265864742,3,5549,5285,14.5,2.41,30,52,0,0
575558,265968549,3,5283,5242,14.55,2.63,29,52,0,0
576010,266084205,3,5238,5200,14.52,2.55,29,52,0,0
576459,266192934,3,5200,5200,14.5,2.68,29,52,0,0
576901,266300259,3,5201,5271,14.51,2.89,29,53,0,0
577394,266417684,3,5284,5428,14.55,2.96,29,53,0,0
577835,266526025,3,5424,5385,14.52,2.97,29,53,0,0
578242,266627537,3,5365,4971,14.6,1.54,29,53,0,0
578692,266740668,3,4959,4700,14.66,1.77,29,53,0,0
579146,266851619,3,4705,4785,14.7,1.97,29,53,0,0
579591,266963593,3,4788,4828,14.57,2.08,29,53,0,0
579995,267064565,3,4829,4871,14.64,1.99,29,53,0,0
580485,267180554,3,4877,4971,14.57,2.33,30,53,0,0
580893,267285511,3,4978,5157,14.52,2.56,29,53,0,0
581384,267403782,3,5163,5228,14.53,2.47,29,53,0,0
581790,267506822,3,5231,5285,14.69,2.35,29,53,0,0
582683,267725914,3,5282,5228,14.57,2.27,29,53,0,0
583091,267827644,3,5228,5242,14.64,2.27,29,53,0,0
583579,267954631,3,5254,5328,14.62,2.45,29,54,0,0
583988,268050720,3,5328,5342,14.6,2.49,29,54,0,0
584433,268164156,3,5346,5385,14.6,2.36,29,54,0,0
584875,268271597,3,5382,5271,14.58,2.37,30,54,0,0
585324,268379520,3,5269,5257,14.6,2.36,29,54,0,0
585728,268485757,3,5255,5185,14.6,2.27,29,54,0,0
586228,268610137,3,5188,5214,14.61,2.04,29,54,0,0
586628,268710588,3,5204,5057,14.61,2.17,29,54,0,0
587081,268820756,3,5046,4957,14.63,1.95,29,54,0,0
587481,268920030,3,4957,5014,14.69,1.82,29,54,0,0
587973,269040182,3,5005,4914,14.59,1.82,29,54,0,0
588412,269147966,3,4925,5042,14.66,1.79,29,54,0,0
588864,269260200,3,5033,4957,14.6,1.91,29,54,0,0
589302,269364601,3,4966,5042,14.61,1.9,29,54,0,0
589748,269473927,3,5040,5028,14.6,2.08,29,54,0,0
590161,269580330,3,5031,5071,14.58,2.29,29,55,0,0
590566,269683722,3,5094,5357,14.57,2.69,29,55,0,0
591019,269795498,3,5365,5485,14.58,2.55,29,55,0,0
591428,269902568,3,5479,5428,14.61,2.48,29,55,0,0
591880,270013560,3,5413,5271,14.63,2.36,29,55,0,0
592323,270119958,3,5273,5300,14.59,2.6,29,55,0,0
592768,270227593,3,5288,5185,14.63,2.69,29,55,0,0
593175,270330957,3,5187,5228,14.67,2.63,29,55,0,0
593623,270439551,3,5234,5385,14.59,3.2,29,55,0,0
594071,270552183,3,5392,5557,14.54,3.15,29,55,0,0
594515,270663813,3,5563,5642,14.55,3.33,29,55,0,0
594931,270767857,3,5645,5814,14.56,3.19,29,55,0,0
595413,270881930,3,5801,5657,14.54,2.99,29,56,0,0
595863,270991722,3,5654,5628,14.57,2.74,29,56,0,0
596308,271102604,3,5612,5414,14.57,2.6,29,56,0,0
597126,271312487,3,5399,5000,14.61,2.19,29,56,0,0
597619,271431016,3,4989,4871,14.63,1.81,29,56,0,0
598023,271533927,3,4858,4700,14.61,1.79,29,56,0,0
598477,271644940,3,4694,4642,14.63,1.83,29,56,0,0
598882,271751187,3,4627,4485,14.62,1.75,29,56,0,0
599330,271858517,3,4488,4557,14.6,1.9,29,56,0,0
599733,271961835,3,4556,4542,14.6,2.11,29,56,0,0
600178,272071958,3,4545,4614,14.57,2.22,29,56,0,0
600629,272183522,3,4628,4828,14.66,2.23,29,56,0,0
601072,272292127,3,4843,5057,14.66,2.85,29,56,0,0
601561,272408957,3,5071,5228,14.57,2.86,29,56,0,0
601962,272509773,3,5233,5557,14.56,3.2,29,57,0,0
602411,272619081,3,5557,5571,14.65,3.13,29,57,0,0
602892,272733805,3,5582,5742,14.6,3.29,29,57,0,0
603342,272843735,3,5738,5700,14.66,3.35,29,57,0,0
603791,272953153,3,5704,5814,14.57,3.64,29,57,0,0
604273,273067327,3,5807,5742,14.63,3,29,57,0,0
604676,273168051,3,5741,5700,14.51,3.06,29,57,0,0
605122,273279653,3,5698,5685,14.59,3.29,29,57,0,0
605574,273390191,3,5687,5714,14.57,3.3,29,57,0,0
606025,273501575,3,5716,5742,14.55,3.12,29,57,0,0
606426,273601539,3,5740,5685,14.58,3.06,29,58,0,0
607328,273826340,3,5679,5514,14.58,2.81,29,58,0,0
607768,273932414,3,5506,5400,14.58,3.03,29,58,0,0
608172,274032618,3,5402,5528,14.61,2.9,29,58,0,0
608619,274144419,3,5529,5614,14.55,3.17,29,58,0,0
609112,274265612,3,5615,5628,14.59,3.63,29,58,0,0
609513,274360938,3,5648,5842,14.58,3.52,29,58,0,0
609961,274471195,3,5839,5800,14.59,3.45,30,58,0,0
610405,274576672,3,5790,5671,14.58,3.45,29,58,0,0
610855,274692517,3,5687,5857,14.55,3.64,29,59,0,0
611262,274791740,3,5862,5971,14.45,4.02,29,59,0,0
611713,274907391,3,5987,6157,14.48,4.32,29,59,0,0
612124,275006678,3,6158,6214,14.5,4.05,29,59,0,0
612569,275116622,3,6206,6014,14.58,3.57,29,59,0,0
613015,275222151,3,6014,6014,14.54,3.88,29,59,0,0
613467,275336912,3,6007,5900,14.6,3.23,29,59,0,0
613918,275449747,3,5893,5842,14.55,3.3,29,59,0,0
614318,275547908,3,5842,5842,14.53,3.4,29,59,0,0
614767,275663983,3,5834,5671,14.57,3.1,29,60,0,0
615219,275772630,3,5673,5742,14.53,3.1,29,60,0,0
615705,275890140,3,5732,5642,14.53,2.96,29,60,0,0
616154,275998641,3,5634,5557,14.56,3.11,29,60,0,0
616563,276103712,3,5554,5528,14.55,2.97,29,60,0,0
617010,276210208,3,5524,5471,14.54,2.77,30,60,0,0
617448,276315797,3,5470,5457,14.51,3,29,60,0,0
617899,276427811,3,5462,5542,14.46,2.77,29,60,0,0
618349,276539212,3,5515,5242,14.54,2.35,29,60,0,0
619268,276757600,3,5244,5314,14.5,2.56,29,60,0,0
619673,276863686,3,5317,5528,14.47,3.39,29,61,0,0
620606,277088007,3,5526,5471,14.52,2.85,29,61,0,0
621015,277184139,3,5465,5400,14.61,2.71,29,61,0,0
621457,277295340,3,5411,5542,14.54,2.93,29,61,0,0
621899,277404729,3,5542,5571,14.63,2.64,29,61,0,0
622350,277517244,3,5548,5328,14.72,2.68,30,61,0,0
622801,277625551,3,5323,5228,14.84,1.77,29,61,0,0
623250,277739626,3,5198,4900,14.88,1.76,29,61,0,0
625026,278168907,3,4898,4628,14.94,1.5,30,61,0,0
625488,278288522,3,4616,4500,14.85,1.44,29,61,0,0
625968,278400966,3,4502,4528,14.85,1.55,29,61,0,0
626375,278507685,3,4528,4528,14.82,1.83,29,62,0,0
626778,278607505,3,4543,4685,14.7,2.41,29,62,0,0
627668,278828014,3,4695,5000,14.82,2.27,29,62,0,0
628105,278933549,3,4998,4971,14.79,1.92,30,62,0,0
628518,279036932,3,4973,5142,14.69,2.39,29,62,0,0
628965,279144146,3,5142,5142,14.68,2.39,29,62,0,0
629449,279264128,3,5151,5242,14.68,2.47,29,62,0,0
629858,279364019,3,5243,5385,14.72,2.38,29,62,0,0
630306,279476946,3,5386,5400,14.73,2.02,29,62,0,0
630750,279584020,3,5387,5142,14.73,2.13,29,62,0,0
631196,279693582,3,5140,5071,14.72,2.06,30,62,0,0
631684,279809211,3,5065,5000,14.75,2.04,29,62,0,0
632132,279922661,3,4995,4957,14.69,1.96,29,62,0,0
633023,280140713,3,4953,4885,14.85,1.75,29,63,0,0
633475,280252807,3,4883,4871,14.83,1.67,29,63,0,0
633927,280365811,3,4875,4928,14.76,1.97,29,63,0,0
634773,280573712,3,4927,4900,14.73,2.04,29,63,0,0
636099,280895818,3,4902,5014,14.59,2.12,29,63,0,0
636551,281007226,3,5034,5328,14.58,2.52,29,63,0,0
636959,281111626,3,5323,5242,14.6,2.46,29,63,0,0
637455,281229605,3,5247,5300,14.54,2.77,29,63,0,0
637857,281333831,3,5309,5400,14.54,2.68,29,63,0,0
638264,281436824,3,5405,5657,14.53,2.96,29,63,0,0
638752,281556160,3,5629,5242,14.64,1.42,29,63,0,0
639610,281773573,3,5234,5014,14.69,1.88,29,63,0,0
640461,281981608,3,5013,4942,14.7,1.98,29,64,0,0
640942,282095350,3,4951,5071,14.69,1.99,29,64,0,0
641833,282312624,3,5070,5042,14.63,2.16,29,64,0,0
642284,282423976,3,5044,5071,14.64,2.26,29,64,0,0
642693,282530548,3,5079,5157,14.65,2.01,29,64,0,0
643140,282637063,3,5141,4985,14.61,1.99,29,64,0,0
644033,282858706,3,4992,5200,14.54,2.48,29,64,0,0
644880,283072216,3,5202,5400,14.59,2.45,29,64,0,0
645333,283182749,3,5395,5285,14.58,2.25,29,64,0,0
