LineNo,TimeUS,Instance,RPM,RawRPM,Volt,Curr,Temp,CTot,MotTemp,Err
1859,1.9926e+07,2,0,0,15.73,0.04,28,0,0,0
2276,2.0031e+07,2,0,0,15.73,0.04,28,0,0,0
2728,2.0142e+07,2,0,0,15.74,0.04,28,0,0,0
3138,2.0242e+07,2,0,0,15.73,0.04,28,0,0,0
3594,2.0354e+07,2,0,0,15.73,0.04,28,0,0,0
4041,2.0462e+07,2,0,0,15.73,0.04,28,0,0,0
4451,2.0563e+07,2,0,0,15.73,0.04,28,0,0,0
4877,2.0669e+07,2,0,0,15.74,0.04,28,0,0,0
5331,2.0783e+07,2,0,0,15.73,0.04,28,0,0,0
5747,2.0887e+07,2,0,0,15.73,0.04,28,0,0,0
6162,2.0993e+07,2,0,0,15.73,0.04,28,0,0,0
6573,2.1093e+07,2,0,0,15.73,0.04,28,0,0,0
7021,2.1204e+07,2,0,0,15.73,0.04,28,0,0,0
7438,2.1308e+07,2,0,0,15.73,0.04,28,0,0,0
7856,2.1414e+07,2,0,0,15.73,0.04,28,0,0,0
8274,2.1525e+07,2,0,0,15.73,0.04,28,0,0,0
8685,2.1629e+07,2,0,0,15.73,0.04,28,0,0,0
9099,2.173e+07,2,0,0,15.73,0.04,28,0,0,0
9832,2.1948e+07,2,0,0,15.73,0.04,28,0,0,0
10208,2.2043e+07,2,0,0,15.73,0.05,28,0,0,0
10658,2.2154e+07,2,0,0,15.73,0.05,28,0,0,0
11113,2.2267e+07,2,0,0,15.73,0.04,28,0,0,0
11528,2.2371e+07,2,0,0,15.74,0.05,28,0,0,0
11942,2.2474e+07,2,0,0,15.73,0.05,28,0,0,0
12394,2.2586e+07,2,0,0,15.73,0.04,28,0,0,0
12805,2.2688e+07,2,0,0,15.74,0.04,28,0,0,0
13260,2.2801e+07,2,0,0,15.73,0.04,28,0,0,0
13675,2.2906e+07,2,0,0,15.73,0.04,28,0,0,0
14089,2.301e+07,2,0,0,15.74,0.04,28,0,0,0
14542,2.3122e+07,2,0,0,15.73,0.04,28,0,0,0
14951,2.3223e+07,2,0,0,15.73,0.04,28,0,0,0
15402,2.3336e+07,2,0,0,15.74,0.04,28,0,0,0
15822,2.3443e+07,2,0,0,15.73,0.04,28,0,0,0
16234,2.3545e+07,2,0,0,15.73,0.04,28,0,0,0
16655,2.3658e+07,2,0,0,15.73,0.04,28,0,0,0
17101,2.3771e+07,2,0,0,15.73,0.04,28,0,0,0
17518,2.3872e+07,2,0,0,15.74,0.04,28,0,0,0
17904,2.3973e+07,2,0,0,15.74,0.04,28,0,0,0
18352,2.4082e+07,2,0,0,15.73,0.04,28,0,0,0
18764,2.4188e+07,2,0,0,15.73,0.04,28,0,0,0
19179,2.4293e+07,2,0,0,15.73,0.04,28,0,0,0
19630,2.4405e+07,2,0,0,15.73,0.04,28,0,0,0
20045,2.4509e+07,2,0,0,15.73,0.04,28,0,0,0
20461,2.4616e+07,2,0,0,15.73,0.04,28,0,0,0
20877,2.4717e+07,2,0,0,15.73,0.04,28,0,0,0
21335,2.483e+07,2,0,0,15.73,0.04,28,0,0,0
21751,2.4933e+07,2,0,0,15.73,0.04,28,0,0,0
22210,2.5045e+07,2,0,0,15.73,0.04,28,0,0,0
22663,2.516e+07,2,0,0,15.73,0.04,28,0,0,0
23073,2.5259e+07,2,0,0,15.73,0.04,28,0,0,0
23528,2.5372e+07,2,0,0,15.73,0.04,28,0,0,0
23950,2.5476e+07,2,0,0,15.73,0.04,28,0,0,0
24363,2.5576e+07,2,0,0,15.73,0.04,28,0,0,0
24819,2.5687e+07,2,0,0,15.73,0.04,28,0,0,0
25274,2.5803e+07,2,0,0,15.74,0.04,28,0,0,0
25687,2.5904e+07,2,0,0,15.73,0.04,28,0,0,0
26102,2.6011e+07,2,0,0,15.74,0.04,28,0,0,0
26511,2.6116e+07,2,0,0,15.73,0.04,28,0,0,0
26960,2.6227e+07,2,0,0,15.73,0.04,28,0,0,0
27378,2.6332e+07,2,0,0,15.73,0.04,28,0,0,0
27797,2.6439e+07,2,0,0,15.73,0.04,28,0,0,0
28204,2.654e+07,2,0,0,15.73,0.04,28,0,0,0
28657,2.6652e+07,2,0,0,15.73,0.04,28,0,0,0
29070,2.6754e+07,2,0,0,15.73,0.04,28,0,0,0
29488,2.6856e+07,2,0,0,15.73,0.04,28,0,0,0
29939,2.6969e+07,2,0,0,15.74,0.04,28,0,0,0
30349,2.707e+07,2,0,0,15.73,0.04,28,0,0,0
30803,2.7184e+07,2,0,0,15.73,0.04,28,0,0,0
31217,2.7286e+07,2,0,0,15.73,0.04,28,0,0,0
31626,2.739e+07,2,0,0,15.73,0.04,28,0,0,0
32080,2.7503e+07,2,0,0,15.73,0.04,28,0,0,0
32527,2.7614e+07,2,0,0,15.73,0.04,28,0,0,0
32944,2.7721e+07,2,0,0,15.73,0.04,28,0,0,0
33356,2.7822e+07,2,0,0,15.74,0.04,28,0,0,0
33772,2.7928e+07,2,0,0,15.73,0.04,28,0,0,0
34188,2.8038e+07,2,0,0,15.73,0.04,28,0,0,0
34601,2.8141e+07,2,0,0,15.73,0.04,28,0,0,0
35055,2.8253e+07,2,0,0,15.73,0.04,28,0,0,0
35462,2.8355e+07,2,0,0,15.73,0.04,28,0,0,0
35920,2.8469e+07,2,0,0,15.73,0.04,28,0,0,0
36332,2.8574e+07,2,0,0,15.73,0.04,28,0,0,0
36744,2.8676e+07,2,0,0,15.74,0.04,28,0,0,0
37201,2.879e+07,2,0,0,15.73,0.04,28,0,0,0
37613,2.8892e+07,2,0,0,15.73,0.04,28,0,0,0
38024,2.8996e+07,2,0,0,15.73,0.04,28,0,0,0
38477,2.9109e+07,2,0,0,15.73,0.04,28,0,0,0
38886,2.9211e+07,2,0,0,15.73,0.04,28,0,0,0
39340,2.9323e+07,2,0,0,15.73,0.04,28,0,0,0
39753,2.9427e+07,2,0,0,15.73,0.04,28,0,0,0
40166,2.9531e+07,2,0,0,15.73,0.04,28,0,0,0
40612,2.964e+07,2,0,0,15.73,0.04,28,0,0,0
41030,2.9744e+07,2,0,0,15.73,0.04,28,0,0,0
41478,2.9858e+07,2,0,0,15.73,0.04,28,0,0,0
41889,2.9959e+07,2,0,0,15.74,0.04,28,0,0,0
42347,3.0072e+07,2,0,0,15.73,0.04,28,0,0,0
42758,3.0174e+07,2,0,0,15.73,0.04,28,0,0,0
43172,3.0275e+07,2,0,0,15.73,0.04,28,0,0,0
43630,3.039e+07,2,0,0,15.73,0.04,28,0,0,0
44049,3.0493e+07,2,0,0,15.73,0.04,28,0,0,0
44464,3.0599e+07,2,0,0,15.73,0.04,28,0,0,0
44916,3.0711e+07,2,0,0,15.73,0.04,28,0,0,0
45332,3.0817e+07,2,0,0,15.73,0.04,28,0,0,0
45741,3.0918e+07,2,0,0,15.74,0.04,28,0,0,0
46150,3.1021e+07,2,0,0,15.73,0.04,28,0,0,0
46603,3.1137e+07,2,0,0,15.73,0.04,28,0,0,0
47018,3.124e+07,2,0,0,15.73,0.04,28,0,0,0
47475,3.1352e+07,2,0,0,15.73,0.04,28,0,0,0
47893,3.1456e+07,2,0,0,15.73,0.04,28,0,0,0
48313,3.1564e+07,2,0,0,15.73,0.04,28,0,0,0
48725,3.1665e+07,2,0,0,15.73,0.04,28,0,0,0
49181,3.1779e+07,2,0,0,15.73,0.04,28,0,0,0
49595,3.1881e+07,2,0,0,15.73,0.04,28,0,0,0
50019,3.1992e+07,2,0,0,15.73,0.04,28,0,0,0
50431,3.2094e+07,2,0,0,15.73,0.04,28,0,0,0
50884,3.2207e+07,2,0,0,15.73,0.04,28,0,0,0
51300,3.2311e+07,2,0,0,15.73,0.04,28,0,0,0
52122,3.2517e+07,2,0,0,15.73,0.04,28,0,0,0
52578,3.2631e+07,2,0,0,15.73,0.04,28,0,0,0
52993,3.2732e+07,2,0,0,15.73,0.04,28,0,0,0
53409,3.2836e+07,2,0,0,15.73,0.04,28,0,0,0
53856,3.2945e+07,2,0,0,15.73,0.04,28,0,0,0
54311,3.3059e+07,2,0,0,15.73,0.04,28,0,0,0
54719,3.3162e+07,2,0,0,15.73,0.04,28,0,0,0
55137,3.3265e+07,2,0,0,15.73,0.04,28,0,0,0
55591,3.3377e+07,2,0,0,15.73,0.04,28,0,0,0
55977,3.3478e+07,2,0,0,15.73,0.05,28,0,0,0
56454,3.3592e+07,2,0,0,15.73,0.05,28,0,0,0
56833,3.3691e+07,2,0,0,15.73,0.05,28,0,0,0
57292,3.3807e+07,2,0,0,15.73,0.05,28,0,0,0
57704,3.391e+07,2,0,0,15.73,0.05,28,0,0,0
58119,3.4013e+07,2,0,0,15.74,0.04,28,0,0,0
58572,3.4128e+07,2,0,0,15.73,0.04,28,0,0,0
58987,3.4232e+07,2,0,0,15.73,0.04,28,0,0,0
59403,3.4334e+07,2,0,0,15.73,0.04,28,0,0,0
59853,3.4449e+07,2,0,0,15.73,0.04,28,0,0,0
60264,3.4551e+07,2,0,0,15.73,0.04,28,0,0,0
1.1587e+05,1.0782e+08,2,0,0,15.73,0.04,28,0,0,0
1.1627e+05,1.0792e+08,2,0,0,15.73,0.04,28,0,0,0
1.1673e+05,1.0802e+08,2,0,0,15.73,0.04,28,0,0,0
1.1723e+05,1.0814e+08,2,0,0,15.73,0.04,28,0,0,0
1.1768e+05,1.0825e+08,2,0,0,15.74,0.04,28,0,0,0
1.1813e+05,1.0835e+08,2,0,0,15.73,0.04,28,0,0,0
1.1862e+05,1.0846e+08,2,0,0,15.73,0.04,28,0,0,0
1.1908e+05,1.0857e+08,2,0,0,15.73,0.04,28,0,0,0
1.1954e+05,1.0868e+08,2,0,0,15.73,0.04,28,0,0,0
1.2e+05,1.0878e+08,2,0,0,15.73,0.04,28,0,0,0
1.2041e+05,1.0889e+08,2,0,0,15.73,0.04,28,0,0,0
1.2087e+05,1.0899e+08,2,0,0,15.73,0.04,28,0,0,0
1.2136e+05,1.0911e+08,2,0,0,15.73,0.04,28,0,0,0
1.2182e+05,1.0921e+08,2,0,0,15.74,0.04,28,0,0,0
1.2227e+05,1.0931e+08,2,0,0,15.73,0.04,28,0,0,0
1.2277e+05,1.0943e+08,2,0,0,15.73,0.04,28,0,0,0
1.2321e+05,1.0953e+08,2,0,0,15.73,0.04,28,0,0,0
1.2367e+05,1.0963e+08,2,0,0,15.73,0.04,28,0,0,0
1.242e+05,1.0975e+08,2,0,0,15.74,0.04,28,0,0,0
1.2465e+05,1.0985e+08,2,0,0,15.73,0.03,28,0,0,0
1.2511e+05,1.0996e+08,2,7,185,15.72,0.05,28,0,0,0
1.2561e+05,1.1007e+08,2,209,542,15.7,0.1,28,0,0,0
1.2607e+05,1.1017e+08,2,573,1000,15.69,0.17,28,0,0,0
1.2652e+05,1.1028e+08,2,1004,1200,15.71,0.12,28,0,0,0
1.2698e+05,1.1039e+08,2,1201,1228,15.72,0.11,28,0,0,0
1.2744e+05,1.1049e+08,2,1228,1242,15.71,0.11,28,0,0,0
1.2789e+05,1.106e+08,2,1242,1271,15.71,0.11,28,0,0,0
1.2826e+05,1.1071e+08,2,1271,1271,15.72,0.11,28,0,0,0
1.2876e+05,1.1082e+08,2,1272,1285,15.72,0.11,28,0,0,0
1.2917e+05,1.1092e+08,2,1284,1257,15.72,0.11,28,0,0,0
1.2967e+05,1.1103e+08,2,1257,1271,15.72,0.11,28,0,0,0
1.3013e+05,1.1114e+08,2,1271,1285,15.72,0.11,28,0,0,0
1.3062e+05,1.1125e+08,2,1285,1285,15.72,0.11,28,0,0,0
1.3104e+05,1.1135e+08,2,1284,1271,15.72,0.11,28,0,0,0
1.3157e+05,1.1148e+08,2,1272,1285,15.71,0.11,28,0,0,0
1.3198e+05,1.1157e+08,2,1284,1271,15.72,0.11,28,0,0,0
1.3247e+05,1.1168e+08,2,1271,1271,15.72,0.11,28,0,0,0
1.3297e+05,1.1179e+08,2,1271,1271,15.72,0.11,28,0,0,0
1.3342e+05,1.119e+08,2,1271,1271,15.72,0.11,28,0,0,0
1.3387e+05,1.12e+08,2,1271,1271,15.72,0.11,28,0,0,0
1.3434e+05,1.1211e+08,2,1272,1285,15.71,0.11,28,0,0,0
1.3479e+05,1.1221e+08,2,1284,1271,15.71,0.11,28,0,0,0
1.357e+05,1.1242e+08,2,1271,1271,15.72,0.11,28,0,0,0
1.3615e+05,1.1253e+08,2,1271,1271,15.72,0.11,28,0,0,0
1.3666e+05,1.1264e+08,2,1270,1257,15.7,0.11,28,0,0,0
1.371e+05,1.1275e+08,2,1257,1285,15.71,0.11,28,0,0,0
1.3756e+05,1.1286e+08,2,1285,1285,15.71,0.11,28,0,0,0
1.3801e+05,1.1296e+08,2,1284,1271,15.71,0.11,28,0,0,0
1.3851e+05,1.1307e+08,2,1271,1271,15.71,0.11,28,0,0,0
1.3896e+05,1.1317e+08,2,1257,985,15.73,0.05,28,0,0,0
1.3941e+05,1.1329e+08,2,936,314,15.73,0.01,28,0,0,0
1.3982e+05,1.1339e+08,2,300,0,15.73,0.02,28,0,0,0
1.4024e+05,1.135e+08,2,0,0,15.73,0.04,28,0,0,0
1.4069e+05,1.1361e+08,2,0,0,15.73,0.04,28,0,0,0
1.4114e+05,1.1372e+08,2,0,0,15.73,0.04,28,0,0,0
1.4155e+05,1.1382e+08,2,0,0,15.73,0.04,28,0,0,0
1.4197e+05,1.1393e+08,2,0,0,15.73,0.04,28,0,0,0
1.4239e+05,1.1403e+08,2,0,0,15.73,0.04,28,0,0,0
1.4284e+05,1.1415e+08,2,0,0,15.73,0.04,28,0,0,0
1.4325e+05,1.1425e+08,2,0,0,15.73,0.04,28,0,0,0
1.4366e+05,1.1435e+08,2,0,0,15.72,0.04,28,0,0,0
1.4453e+05,1.1457e+08,2,0,0,15.73,0.04,28,0,0,0
1.4495e+05,1.1468e+08,2,0,0,15.72,0.04,28,0,0,0
1.4537e+05,1.1478e+08,2,0,0,15.73,0.04,28,0,0,0
1.4579e+05,1.1489e+08,2,0,0,15.73,0.04,28,0,0,0
1.462e+05,1.15e+08,2,0,0,15.73,0.04,28,0,0,0
1.4666e+05,1.1511e+08,2,0,0,15.73,0.04,28,0,0,0
1.4707e+05,1.1521e+08,2,0,0,15.73,0.04,28,0,0,0
1.4749e+05,1.1532e+08,2,0,0,15.73,0.04,28,0,0,0
1.479e+05,1.1542e+08,2,0,0,15.73,0.04,28,0,0,0
1.4835e+05,1.1554e+08,2,0,0,15.73,0.04,28,0,0,0
1.4877e+05,1.1564e+08,2,0,0,15.73,0.04,28,0,0,0
1.4918e+05,1.1575e+08,2,0,0,15.72,0.04,28,0,0,0
1.4964e+05,1.1586e+08,2,0,0,15.73,0.04,28,0,0,0
1.5005e+05,1.1597e+08,2,0,0,15.73,0.04,28,0,0,0
1.5047e+05,1.1608e+08,2,0,0,15.72,0.04,28,0,0,0
1.5088e+05,1.1618e+08,2,0,0,15.73,0.04,28,0,0,0
1.5133e+05,1.1629e+08,2,0,0,15.73,0.04,28,0,0,0
1.5175e+05,1.164e+08,2,0,0,15.73,0.04,28,0,0,0
1.5216e+05,1.165e+08,2,0,0,15.73,0.04,28,0,0,0
1.5261e+05,1.1662e+08,2,0,0,15.72,0.04,28,0,0,0
1.5302e+05,1.1672e+08,2,0,0,15.73,0.04,28,0,0,0
1.5348e+05,1.1683e+08,2,0,0,15.73,0.04,28,0,0,0
1.539e+05,1.1694e+08,2,0,0,15.73,0.04,28,0,0,0
1.5432e+05,1.1704e+08,2,0,0,15.72,0.04,28,0,0,0
1.5473e+05,1.1715e+08,2,0,0,15.73,0.04,28,0,0,0
1.5514e+05,1.1725e+08,2,0,0,15.73,0.04,28,0,0,0
1.556e+05,1.1737e+08,2,0,0,15.73,0.04,28,0,0,0
1.5601e+05,1.1747e+08,2,0,0,15.73,0.04,28,0,0,0
1.5646e+05,1.1758e+08,2,0,0,15.73,0.04,28,0,0,0
1.5688e+05,1.1769e+08,2,0,0,15.73,0.04,28,0,0,0
1.5729e+05,1.1779e+08,2,0,0,15.73,0.04,28,0,0,0
1.5771e+05,1.179e+08,2,0,0,15.72,0.04,28,0,0,0
1.5813e+05,1.1801e+08,2,0,0,15.73,0.04,28,0,0,0
1.5854e+05,1.1811e+08,2,0,0,15.73,0.04,28,0,0,0
1.59e+05,1.1823e+08,2,0,0,15.73,0.04,28,0,0,0
1.594e+05,1.1833e+08,2,0,0,15.73,0.04,28,0,0,0
1.5982e+05,1.1843e+08,2,0,0,15.72,0.04,28,0,0,0
1.6023e+05,1.1854e+08,2,0,0,15.73,0.04,28,0,0,0
1.6068e+05,1.1865e+08,2,0,0,15.73,0.04,28,0,0,0
1.6114e+05,1.1877e+08,2,0,0,15.73,0.04,28,0,0,0
1.6151e+05,1.1886e+08,2,0,0,15.73,0.04,28,0,0,0
1.6196e+05,1.1897e+08,2,0,0,15.73,0.04,28,0,0,0
1.6241e+05,1.1908e+08,2,0,0,15.73,0.04,28,0,0,0
1.6283e+05,1.1919e+08,2,0,0,15.73,0.04,28,0,0,0
1.6323e+05,1.1929e+08,2,0,0,15.73,0.04,28,0,0,0
1.6369e+05,1.194e+08,2,0,0,15.73,0.04,28,0,0,0
1.6411e+05,1.1951e+08,2,0,0,15.73,0.04,28,0,0,0
1.6452e+05,1.1961e+08,2,0,0,15.73,0.04,28,0,0,0
1.6497e+05,1.1973e+08,2,0,0,15.73,0.04,28,0,0,0
1.654e+05,1.1984e+08,2,0,0,15.73,0.05,28,0,0,0
1.6578e+05,1.1993e+08,2,0,0,15.73,0.05,28,0,0,0
1.6619e+05,1.2004e+08,2,0,0,15.73,0.04,28,0,0,0
1.6665e+05,1.2016e+08,2,0,0,15.73,0.04,28,0,0,0
1.6702e+05,1.2025e+08,2,0,0,15.73,0.04,28,0,0,0
1.6748e+05,1.2037e+08,2,0,0,15.73,0.04,28,0,0,0
1.6787e+05,1.2047e+08,2,0,0,15.73,0.04,28,0,0,0
1.6828e+05,1.2058e+08,2,0,0,15.73,0.04,28,0,0,0
1.6873e+05,1.2069e+08,2,0,0,15.73,0.05,28,0,0,0
1.6918e+05,1.208e+08,2,0,0,15.73,0.04,28,0,0,0
1.696e+05,1.209e+08,2,0,0,15.73,0.04,28,0,0,0
1.7005e+05,1.2101e+08,2,0,0,15.73,0.04,28,0,0,0
1.7046e+05,1.2112e+08,2,0,0,15.73,0.04,28,0,0,0
1.7088e+05,1.2122e+08,2,0,0,15.73,0.04,28,0,0,0
1.7133e+05,1.2134e+08,2,0,0,15.73,0.04,28,0,0,0
1.7175e+05,1.2144e+08,2,0,0,15.73,0.04,28,0,0,0
1.722e+05,1.2155e+08,2,0,0,15.73,0.04,28,0,0,0
1.7262e+05,1.2166e+08,2,0,0,15.73,0.04,28,0,0,0
1.7303e+05,1.2176e+08,2,0,0,15.73,0.05,28,0,0,0
1.7344e+05,1.2187e+08,2,0,0,15.73,0.05,28,0,0,0
1.7389e+05,1.2198e+08,2,0,0,15.73,0.04,28,0,0,0
1.7431e+05,1.2208e+08,2,0,0,15.73,0.04,28,0,0,0
1.7472e+05,1.2218e+08,2,0,0,15.73,0.04,28,0,0,0
1.7514e+05,1.2229e+08,2,0,0,15.73,0.05,28,0,0,0
1.7555e+05,1.2239e+08,2,0,0,15.73,0.04,28,0,0,0
1.76e+05,1.2251e+08,2,0,0,15.73,0.05,28,0,0,0
1.7646e+05,1.2262e+08,2,0,0,15.73,0.05,28,0,0,0
1.7687e+05,1.2272e+08,2,0,0,15.73,0.04,28,0,0,0
1.7733e+05,1.2284e+08,2,0,0,15.73,0.04,28,0,0,0
1.777e+05,1.2293e+08,2,0,0,15.73,0.05,28,0,0,0
1.7819e+05,1.2305e+08,2,0,0,15.73,0.04,28,0,0,0
1.786e+05,1.2315e+08,2,0,0,15.73,0.05,28,0,0,0
1.7902e+05,1.2326e+08,2,0,0,15.73,0.05,28,0,0,0
1.7943e+05,1.2336e+08,2,0,0,15.73,0.05,28,0,0,0
1.7985e+05,1.2347e+08,2,0,0,15.74,0.04,28,0,0,0
1.803e+05,1.2358e+08,2,0,0,15.73,0.05,28,0,0,0
1.8072e+05,1.2369e+08,2,0,0,15.73,0.04,28,0,0,0
1.8117e+05,1.238e+08,2,0,0,15.73,0.04,28,0,0,0
1.8158e+05,1.239e+08,2,0,0,15.73,0.04,28,0,0,0
1.82e+05,1.2401e+08,2,0,0,15.73,0.04,28,0,0,0
1.8245e+05,1.2411e+08,2,0,0,15.73,0.04,28,0,0,0
1.829e+05,1.2423e+08,2,0,0,15.73,0.04,28,0,0,0
1.8332e+05,1.2433e+08,2,0,0,15.72,0.04,28,0,0,0
1.8373e+05,1.2444e+08,2,0,0,15.73,0.04,28,0,0,0
1.8414e+05,1.2454e+08,2,0,0,15.73,0.04,28,0,0,0
1.8459e+05,1.2465e+08,2,0,0,15.73,0.04,28,0,0,0
1.8504e+05,1.2477e+08,2,0,0,15.73,0.04,28,0,0,0
1.8546e+05,1.2487e+08,2,0,0,15.73,0.04,28,0,0,0
1.8587e+05,1.2497e+08,2,0,0,15.73,0.04,28,0,0,0
1.8628e+05,1.2508e+08,2,0,0,15.73,0.04,28,0,0,0
1.8674e+05,1.2519e+08,2,0,0,15.73,0.04,28,0,0,0
1.8715e+05,1.253e+08,2,0,0,15.72,0.04,28,0,0,0
1.8757e+05,1.254e+08,2,0,0,15.73,0.04,28,0,0,0
1.8803e+05,1.2552e+08,2,0,0,15.73,0.05,28,0,0,0
1.8844e+05,1.2562e+08,2,0,0,15.73,0.05,28,0,0,0
1.8886e+05,1.2573e+08,2,0,0,15.73,0.04,28,0,0,0
1.8927e+05,1.2583e+08,2,0,0,15.73,0.04,28,0,0,0
1.8973e+05,1.2594e+08,2,0,0,15.73,0.04,28,0,0,0
1.9014e+05,1.2605e+08,2,0,0,15.73,0.04,28,0,0,0
1.9056e+05,1.2615e+08,2,0,0,15.73,0.04,28,0,0,0
1.9098e+05,1.2626e+08,2,0,0,15.73,0.04,28,0,0,0
1.9143e+05,1.2637e+08,2,0,0,15.73,0.04,28,0,0,0
1.9229e+05,1.2659e+08,2,0,0,15.73,0.04,28,0,0,0
1.9271e+05,1.2669e+08,2,0,0,15.73,0.04,28,0,0,0
1.9312e+05,1.2679e+08,2,0,0,15.73,0.04,28,0,0,0
1.9347e+05,1.2691e+08,2,0,0,15.73,0.04,28,0,0,0
1.9393e+05,1.2702e+08,2,0,0,15.72,0.04,28,0,0,0
1.9434e+05,1.2713e+08,2,0,0,15.73,0.04,28,0,0,0
1.948e+05,1.2724e+08,2,0,0,15.73,0.04,28,0,0,0
1.9517e+05,1.2734e+08,2,0,0,15.73,0.04,28,0,0,0
1.9563e+05,1.2745e+08,2,0,0,15.73,0.04,28,0,0,0
1.9604e+05,1.2755e+08,2,0,0,15.73,0.04,28,0,0,0
1.9646e+05,1.2766e+08,2,0,0,15.73,0.04,28,0,0,0
1.9691e+05,1.2777e+08,2,0,0,15.73,0.04,28,0,0,0
1.9732e+05,1.2787e+08,2,0,0,15.73,0.04,28,0,0,0
1.9778e+05,1.2799e+08,2,0,0,15.73,0.04,28,0,0,0
1.9819e+05,1.2809e+08,2,0,0,15.73,0.04,28,0,0,0
1.9841e+05,1.7388e+08,2,0,0,15.73,0.04,28,1,0,0
1.9846e+05,1.7389e+08,2,0,0,15.72,0.04,28,1,0,0
1.9891e+05,1.74e+08,2,0,0,15.72,0.05,28,1,0,0
1.9934e+05,1.741e+08,2,0,0,15.73,0.05,28,1,0,0
1.9983e+05,1.7421e+08,2,0,0,15.73,0.05,28,1,0,0
2.0028e+05,1.7432e+08,2,0,0,15.73,0.05,28,1,0,0
2.0079e+05,1.7443e+08,2,0,0,15.73,0.05,28,1,0,0
2.0124e+05,1.7454e+08,2,0,0,15.73,0.05,28,1,0,0
2.0219e+05,1.7475e+08,2,0,0,15.72,0.05,28,1,0,0
2.0265e+05,1.7486e+08,2,0,0,15.73,0.04,28,1,0,0
2.0306e+05,1.7496e+08,2,0,0,15.72,0.04,28,1,0,0
2.0352e+05,1.7507e+08,2,0,0,15.73,0.04,28,1,0,0
2.0397e+05,1.7517e+08,2,0,0,15.72,0.04,28,1,0,0
2.0443e+05,1.7528e+08,2,0,0,15.72,0.04,28,1,0,0
2.0492e+05,1.7539e+08,2,0,0,15.72,0.04,28,1,0,0
2.0538e+05,1.7549e+08,2,0,0,15.73,0.04,28,1,0,0
2.0583e+05,1.756e+08,2,0,0,15.72,0.04,29,1,0,0
2.0628e+05,1.757e+08,2,0,0,15.72,0.04,28,1,0,0
2.0679e+05,1.7582e+08,2,0,0,15.73,0.05,28,1,0,0
2.072e+05,1.7591e+08,2,0,0,15.73,0.04,28,1,0,0
2.077e+05,1.7602e+08,2,7,200,15.71,0.05,29,1,0,0
2.0815e+05,1.7613e+08,2,215,571,15.7,0.1,28,1,0,0
2.0865e+05,1.7624e+08,2,597,1000,15.69,0.17,28,1,0,0
2.091e+05,1.7634e+08,2,1012,1200,15.7,0.12,29,1,0,0
2.0955e+05,1.7644e+08,2,1200,1242,15.71,0.11,28,1,0,0
2.0989e+05,1.7656e+08,2,1244,1271,15.71,0.11,28,1,0,0
2.1035e+05,1.7667e+08,2,1272,1285,15.71,0.11,28,1,0,0
2.108e+05,1.7677e+08,2,1285,1300,15.71,0.11,28,1,0,0
2.1126e+05,1.7688e+08,2,1300,1300,15.71,0.11,29,1,0,0
2.1176e+05,1.7699e+08,2,1300,1300,15.71,0.11,29,1,0,0
2.1225e+05,1.7709e+08,2,1300,1300,15.72,0.11,28,1,0,0
2.127e+05,1.772e+08,2,1300,1300,15.72,0.11,29,1,0,0
2.1316e+05,1.773e+08,2,1301,1314,15.7,0.11,29,1,0,0
2.1362e+05,1.7741e+08,2,1313,1300,15.7,0.11,29,1,0,0
2.1407e+05,1.7752e+08,2,1300,1300,15.71,0.11,29,1,0,0
2.1457e+05,1.7763e+08,2,1300,1300,15.71,0.11,29,1,0,0
2.1503e+05,1.7773e+08,2,1298,1285,15.71,0.11,29,1,0,0
2.1549e+05,1.7783e+08,2,1285,1285,15.71,0.11,29,1,0,0
2.1594e+05,1.7794e+08,2,1285,1285,15.7,0.11,28,1,0,0
2.1644e+05,1.7805e+08,2,1285,1285,15.7,0.11,29,1,0,0
2.1689e+05,1.7816e+08,2,1285,1285,15.7,0.11,29,1,0,0
2.1735e+05,1.7826e+08,2,1285,1285,15.7,0.11,29,1,0,0
2.1785e+05,1.7838e+08,2,1285,1285,15.71,0.11,29,1,0,0
2.183e+05,1.7848e+08,2,1285,1285,15.7,0.11,29,1,0,0
2.1875e+05,1.7858e+08,2,1285,1285,15.7,0.11,29,1,0,0
2.1925e+05,1.787e+08,2,1285,1285,15.7,0.11,29,1,0,0
2.197e+05,1.788e+08,2,1285,1285,15.71,0.11,29,1,0,0
2.2019e+05,1.7892e+08,2,1285,1285,15.7,0.11,29,1,0,0
2.2065e+05,1.7902e+08,2,1285,1285,15.7,0.11,29,1,0,0
2.211e+05,1.7913e+08,2,1285,1285,15.7,0.11,29,1,0,0
2.2155e+05,1.7923e+08,2,1285,1285,15.7,0.11,29,1,0,0
2.2205e+05,1.7934e+08,2,1286,1300,15.71,0.11,29,1,0,0
2.225e+05,1.7945e+08,2,1300,1300,15.7,0.11,29,1,0,0
2.2295e+05,1.7956e+08,2,1298,1285,15.7,0.11,29,1,0,0
2.234e+05,1.7966e+08,2,1285,1300,15.7,0.11,29,1,0,0
2.239e+05,1.7977e+08,2,1300,1300,15.7,0.11,29,1,0,0
2.2432e+05,1.7987e+08,2,1299,1285,15.7,0.11,29,1,0,0
2.2482e+05,1.7999e+08,2,1286,1300,15.7,0.11,29,1,0,0
2.2527e+05,1.8009e+08,2,1299,1285,15.71,0.11,29,1,0,0
2.2577e+05,1.802e+08,2,1286,1300,15.7,0.11,29,1,0,0
2.2621e+05,1.8031e+08,2,1300,1300,15.7,0.11,29,1,0,0
2.2667e+05,1.8041e+08,2,1300,1300,15.7,0.11,29,1,0,0
2.2713e+05,1.8052e+08,2,1300,1300,15.7,0.11,29,1,0,0
2.2759e+05,1.8063e+08,2,1300,1300,15.7,0.11,29,1,0,0
2.2805e+05,1.8074e+08,2,1300,1300,15.7,0.11,29,1,0,0
2.2851e+05,1.8084e+08,2,1300,1300,15.7,0.11,29,1,0,0
2.2896e+05,1.8095e+08,2,1300,1300,15.7,0.11,29,1,0,0
2.2946e+05,1.8106e+08,2,1300,1300,15.7,0.11,29,1,0,0
2.2991e+05,1.8117e+08,2,1300,1300,15.71,0.11,29,1,0,0
2.3037e+05,1.8128e+08,2,1300,1300,15.7,0.11,29,1,0,0
2.3082e+05,1.8139e+08,2,1300,1300,15.7,0.11,29,1,0,0
2.3177e+05,1.8161e+08,2,1299,1285,15.7,0.11,29,1,0,0
2.3222e+05,1.8172e+08,2,1285,1285,15.7,0.11,29,1,0,0
2.3264e+05,1.8182e+08,2,1285,1285,15.7,0.11,29,1,0,0
2.3314e+05,1.8193e+08,2,1285,1285,15.7,0.11,29,1,0,0
2.336e+05,1.8203e+08,2,1285,1285,15.7,0.11,29,1,0,0
2.3405e+05,1.8214e+08,2,1285,1285,15.71,0.11,29,1,0,0
2.345e+05,1.8224e+08,2,1285,1285,15.7,0.11,29,1,0,0
2.3496e+05,1.8235e+08,2,1285,1285,15.7,0.11,29,1,0,0
2.3545e+05,1.8247e+08,2,1285,1285,15.7,0.11,29,1,0,0
2.359e+05,1.8257e+08,2,1286,1300,15.7,0.11,29,1,0,0
2.3635e+05,1.8267e+08,2,1299,1285,15.7,0.11,29,1,0,0
2.3685e+05,1.8279e+08,2,1285,1285,15.7,0.11,29,1,0,0
2.378e+05,1.83e+08,2,1285,1300,15.7,0.11,29,1,0,0
2.3825e+05,1.8311e+08,2,1300,1300,15.7,0.11,29,1,0,0
2.3875e+05,1.8322e+08,2,1301,1314,15.7,0.11,29,1,0,0
2.3916e+05,1.8332e+08,2,1313,1300,15.7,0.11,29,1,0,0
2.397e+05,1.8344e+08,2,1301,1314,15.71,0.11,29,1,0,0
2.4011e+05,1.8355e+08,2,1314,1314,15.7,0.11,29,1,0,0
2.406e+05,1.8366e+08,2,1312,1300,15.7,0.11,29,1,0,0
2.4106e+05,1.8376e+08,2,1300,1300,15.7,0.11,29,1,0,0
2.4151e+05,1.8387e+08,2,1285,871,15.73,0.03,29,1,0,0
2.4202e+05,1.8399e+08,2,818,257,15.72,0.02,29,1,0,0
2.4242e+05,1.8408e+08,2,252,0,15.72,0.04,29,1,0,0
2.4292e+05,1.842e+08,2,0,0,15.72,0.04,29,1,0,0
2.4382e+05,1.8442e+08,2,0,0,15.72,0.04,29,1,0,0
2.4428e+05,1.8452e+08,2,0,0,15.72,0.04,29,1,0,0
2.4474e+05,1.8463e+08,2,0,0,15.72,0.05,29,1,0,0
2.4519e+05,1.8474e+08,2,0,0,15.72,0.04,29,1,0,0
2.4568e+05,1.8486e+08,2,0,0,15.72,0.04,29,1,0,0
2.4614e+05,1.8496e+08,2,0,0,15.72,0.04,28,1,0,0
2.4658e+05,1.8507e+08,2,0,0,15.72,0.04,29,1,0,0
2.4708e+05,1.8519e+08,2,0,0,15.72,0.05,29,1,0,0
2.475e+05,1.8529e+08,2,0,0,15.72,0.05,29,1,0,0
2.48e+05,1.854e+08,2,0,0,15.72,0.04,29,1,0,0
2.4841e+05,1.8551e+08,2,0,0,15.72,0.04,29,1,0,0
2.4891e+05,1.8562e+08,2,0,0,15.73,0.04,29,1,0,0
2.4932e+05,1.8572e+08,2,0,0,15.73,0.05,29,1,0,0
2.5024e+05,1.8594e+08,2,0,0,15.72,0.05,29,1,0,0
2.5076e+05,1.8606e+08,2,0,0,15.72,0.05,29,1,0,0
2.5118e+05,1.8616e+08,2,0,0,15.72,0.05,29,1,0,0
2.5164e+05,1.8627e+08,2,0,0,15.73,0.05,29,1,0,0
2.5209e+05,1.8638e+08,2,0,0,15.72,0.04,29,1,0,0
2.5303e+05,1.866e+08,2,0,0,15.72,0.04,29,1,0,0
2.5348e+05,1.867e+08,2,0,0,15.72,0.04,29,1,0,0
2.5394e+05,1.8681e+08,2,0,0,15.72,0.04,29,1,0,0
2.544e+05,1.8692e+08,2,0,0,15.72,0.04,29,1,0,0
2.5485e+05,1.8703e+08,2,0,0,15.72,0.04,29,1,0,0
2.5531e+05,1.8714e+08,2,0,0,15.73,0.04,29,1,0,0
2.558e+05,1.8725e+08,2,0,0,15.72,0.04,29,1,0,0
2.5626e+05,1.8736e+08,2,0,0,15.72,0.04,29,1,0,0
2.5671e+05,1.8746e+08,2,0,0,15.72,0.04,29,1,0,0
2.5721e+05,1.8758e+08,2,0,0,15.72,0.04,29,1,0,0
2.5766e+05,1.8769e+08,2,0,0,15.72,0.04,29,1,0,0
2.5811e+05,1.8779e+08,2,0,0,15.72,0.04,29,1,0,0
2.5858e+05,1.879e+08,2,0,0,15.73,0.04,29,1,0,0
2.5903e+05,1.88e+08,2,0,0,15.72,0.04,29,1,0,0
2.5949e+05,1.8812e+08,2,0,0,15.72,0.04,29,1,0,0
2.5995e+05,1.8822e+08,2,0,0,15.72,0.04,29,1,0,0
2.604e+05,1.8833e+08,2,0,0,15.72,0.04,29,1,0,0
2.609e+05,1.8844e+08,2,0,0,15.72,0.04,29,1,0,0
2.6135e+05,1.8855e+08,2,0,0,15.72,0.04,29,1,0,0
2.6184e+05,1.8866e+08,2,0,0,15.73,0.04,29,1,0,0
2.623e+05,1.8877e+08,2,0,0,15.72,0.04,29,1,0,0
2.6276e+05,1.8887e+08,2,0,0,15.72,0.04,29,1,0,0
2.6321e+05,1.8898e+08,2,0,0,15.73,0.04,29,1,0,0
2.6366e+05,1.8908e+08,2,0,0,15.73,0.04,29,1,0,0
2.6508e+05,1.8941e+08,2,18,885,15.69,0.14,29,1,0,0
2.6556e+05,1.8952e+08,2,909,1157,15.7,0.14,29,1,0,0
2.6603e+05,1.8963e+08,2,1163,1228,15.7,0.11,29,1,0,0
2.6644e+05,1.8973e+08,2,1228,1271,15.7,0.11,29,1,0,0
2.6738e+05,1.8994e+08,2,1271,1300,15.71,0.11,29,1,0,0
2.6787e+05,1.9006e+08,2,1300,1300,15.7,0.11,29,1,0,0
2.6832e+05,1.9016e+08,2,1300,1300,15.7,0.11,29,1,0,0
2.6882e+05,1.9028e+08,2,1300,1300,15.7,0.11,29,1,0,0
2.6906e+05,1.9038e+08,2,1300,1300,15.7,0.11,29,1,0,0
2.6951e+05,1.9049e+08,2,1300,1300,15.7,0.11,29,1,0,0
2.7046e+05,1.9071e+08,2,1300,1300,15.71,0.11,29,1,0,0
2.7091e+05,1.9081e+08,2,1300,1300,15.7,0.11,29,1,0,0
2.7141e+05,1.9093e+08,2,1301,1314,15.7,0.11,29,1,0,0
2.7186e+05,1.9103e+08,2,1313,1300,15.7,0.11,29,1,0,0
2.7232e+05,1.9114e+08,2,1300,1314,15.7,0.11,29,1,0,0
2.7282e+05,1.9125e+08,2,1314,1314,15.7,0.11,29,1,0,0
2.7327e+05,1.9135e+08,2,1313,1300,15.7,0.11,29,1,0,0
2.7372e+05,1.9146e+08,2,1300,1300,15.7,0.11,29,1,0,0
2.7422e+05,1.9158e+08,2,1298,1285,15.7,0.11,29,1,0,0
2.7468e+05,1.9169e+08,2,1285,1285,15.7,0.11,29,1,0,0
2.7513e+05,1.9179e+08,2,1285,1285,15.7,0.11,29,1,0,0
2.7559e+05,1.919e+08,2,1291,1428,15.69,0.19,29,1,0,0
2.7604e+05,1.92e+08,2,1441,1800,15.63,0.53,29,1,0,0
2.765e+05,1.9211e+08,2,1824,2171,15.66,0.42,29,1,0,0
2.7744e+05,1.9233e+08,2,2196,2900,15.51,1.23,29,1,0,0
2.779e+05,1.9244e+08,2,2945,3571,15.4,1.5,29,1,0,0
2.7831e+05,1.9254e+08,2,3578,4042,15.17,2.31,29,1,0,0
2.7884e+05,1.9266e+08,2,4105,4800,15.1,2.98,29,1,0,0
2.7929e+05,1.9277e+08,2,4840,5228,15.05,3.52,29,1,0,0
2.797e+05,1.9287e+08,2,5240,5785,14.92,4.02,29,2,0,0
2.802e+05,1.9299e+08,2,5814,6114,15.01,4.07,29,2,0,0
2.8061e+05,1.9309e+08,2,6109,6057,15.13,3.48,29,2,0,0
2.8111e+05,1.9321e+08,2,6040,5871,15.11,3.29,29,2,0,0
2.8157e+05,1.9331e+08,2,5854,5671,15.09,3.39,29,2,0,0
2.8202e+05,1.9342e+08,2,5669,5642,15.19,3.2,29,2,0,0
2.8247e+05,1.9353e+08,2,5643,5757,15.17,2.97,29,2,0,0
2.8297e+05,1.9364e+08,2,5754,5728,15.11,3.36,29,2,0,0
2.8342e+05,1.9375e+08,2,5733,5785,15.14,3.51,29,2,0,0
2.8387e+05,1.9386e+08,2,5788,5828,15.16,3.57,29,2,0,0
2.8432e+05,1.9397e+08,2,5840,5971,15.04,3.61,29,3,0,0
2.8474e+05,1.9407e+08,2,5969,5928,15.02,3.55,29,3,0,0
2.8523e+05,1.9419e+08,2,5919,5828,15.01,3.62,29,3,0,0
2.8568e+05,1.943e+08,2,5844,6000,15.08,3.73,29,3,0,0
2.8614e+05,1.944e+08,2,6002,6185,15.02,3.79,29,3,0,0
2.8704e+05,1.9462e+08,2,6183,6014,15.01,3.65,29,3,0,0
2.8749e+05,1.9473e+08,2,6014,6014,15.02,3.74,29,3,0,0
2.8795e+05,1.9485e+08,2,6019,6057,14.97,3.64,29,3,0,0
2.884e+05,1.9496e+08,2,6044,5928,15,3.62,29,4,0,0
2.8881e+05,1.9506e+08,2,5928,5971,14.97,3.85,29,4,0,0
2.8931e+05,1.9517e+08,2,5966,5914,15.03,3.81,29,4,0,0
2.8972e+05,1.9528e+08,2,5922,6000,14.99,3.89,29,4,0,0
2.9018e+05,1.9538e+08,2,6002,6057,14.99,3.89,29,4,0,0
2.9067e+05,1.955e+08,2,6062,6114,15.02,3.79,29,4,0,0
2.9157e+05,1.9571e+08,2,6104,5914,15.04,3.54,29,4,0,0
2.9202e+05,1.9582e+08,2,5916,5957,15.07,3.52,30,5,0,0
2.9248e+05,1.9594e+08,2,5937,5742,15.02,3.42,29,5,0,0
2.9293e+05,1.9604e+08,2,5740,5714,15.05,3.25,29,5,0,0
2.9342e+05,1.9616e+08,2,5720,5785,15.01,3.45,29,5,0,0
2.9386e+05,1.9626e+08,2,5786,5800,15,3.37,30,5,0,0
2.9432e+05,1.9637e+08,2,5805,5871,15.01,3.35,30,5,0,0
2.9522e+05,1.9659e+08,2,5872,6057,15.02,3.82,30,5,0,0
2.9567e+05,1.967e+08,2,6054,5942,14.98,3.77,30,5,0,0
2.9612e+05,1.968e+08,2,5940,5885,15.02,3.6,30,5,0,0
2.966e+05,1.9692e+08,2,5898,6071,15.01,3.41,30,6,0,0
2.9704e+05,1.9703e+08,2,6066,5985,15.07,3.55,30,6,0,0
2.9746e+05,1.9714e+08,2,5980,5857,15.03,3.28,30,6,0,0
2.979e+05,1.9725e+08,2,5858,6014,14.98,3.49,30,6,0,0
2.9835e+05,1.9736e+08,2,6010,5971,15.01,3.45,30,6,0,0
2.988e+05,1.9746e+08,2,5965,5871,15.04,3.53,30,6,0,0
2.992e+05,1.9757e+08,2,5872,5957,15.01,3.63,30,6,0,0
2.9964e+05,1.9768e+08,2,5958,6042,15.03,3.44,30,6,0,0
3.0009e+05,1.9779e+08,2,6042,6057,15,3.43,30,6,0,0
3.0054e+05,1.979e+08,2,6044,5928,15.02,3.21,30,7,0,0
3.0099e+05,1.9801e+08,2,5923,5857,15.04,3.15,30,7,0,0
3.0143e+05,1.9812e+08,2,5854,5828,15.02,3.11,30,7,0,0
3.0188e+05,1.9823e+08,2,5826,5814,15,2.96,30,7,0,0
3.0232e+05,1.9834e+08,2,5827,5957,15,3.24,30,7,0,0
3.0273e+05,1.9844e+08,2,5952,5842,14.97,3.06,30,7,0,0
3.0318e+05,1.9855e+08,2,5843,5871,15.01,3.24,30,7,0,0
3.0362e+05,1.9866e+08,2,5871,5914,14.98,3.45,30,7,0,0
3.0407e+05,1.9877e+08,2,5911,5885,14.98,3.32,30,7,0,0
3.0492e+05,1.9898e+08,2,5886,5914,14.96,3.03,30,8,0,0
3.0536e+05,1.9909e+08,2,5915,5957,15.03,3.12,30,8,0,0
3.0581e+05,1.992e+08,2,5958,5971,15.02,3.11,30,8,0,0
3.0622e+05,1.9931e+08,2,5970,5957,14.92,3.44,30,8,0,0
3.0667e+05,1.9942e+08,2,5951,5871,14.91,3.46,30,8,0,0
3.0712e+05,1.9953e+08,2,5871,5871,14.98,3.52,30,8,0,0
3.0756e+05,1.9963e+08,2,5868,5814,14.91,3.37,30,8,0,0
3.0797e+05,1.9974e+08,2,5814,5828,14.98,3.37,30,8,0,0
3.0842e+05,1.9985e+08,2,5813,5700,14.96,3.37,30,8,0,0
3.0883e+05,1.9996e+08,2,5705,5785,15,3.43,30,8,0,0
3.0924e+05,2.0006e+08,2,5786,5885,14.95,3.4,30,9,0,0
3.0973e+05,2.0018e+08,2,5891,5957,15.01,3.33,30,9,0,0
3.1017e+05,2.0029e+08,2,5948,5857,14.99,3.46,30,9,0,0
3.1106e+05,2.005e+08,2,5860,5971,14.94,3.65,30,9,0,0
3.1147e+05,2.006e+08,2,5971,5971,14.86,3.7,30,9,0,0
3.1191e+05,2.0071e+08,2,5970,5942,14.85,3.99,30,9,0,0
3.1284e+05,2.0093e+08,2,5944,6114,14.9,3.9,30,9,0,0
3.1329e+05,2.0105e+08,2,6110,6028,14.85,3.82,30,10,0,0
3.1374e+05,2.0116e+08,2,6038,6142,14.87,3.92,30,10,0,0
3.1414e+05,2.0126e+08,2,6140,6114,14.85,3.91,30,10,0,0
3.1459e+05,2.0137e+08,2,6107,5971,14.87,4.06,30,10,0,0
3.1504e+05,2.0149e+08,2,5996,6257,14.85,4.33,30,10,0,0
3.1548e+05,2.0159e+08,2,6255,6228,14.87,4.15,30,10,0,0
3.1592e+05,2.017e+08,2,6228,6228,14.91,3.77,30,10,0,0
3.1641e+05,2.0181e+08,2,6222,6100,14.92,3.57,30,10,0,0
3.1686e+05,2.0193e+08,2,6085,5885,14.94,3.48,30,11,0,0
3.1732e+05,2.0204e+08,2,5877,5800,15,3.32,30,11,0,0
3.1771e+05,2.0214e+08,2,5796,5757,15.02,3.03,30,11,0,0
3.1861e+05,2.0236e+08,2,5750,5628,14.92,3.26,30,11,0,0
3.1905e+05,2.0247e+08,2,5636,5742,14.91,3.25,30,11,0,0
3.195e+05,2.0258e+08,2,5738,5700,14.94,3.26,30,11,0,0
3.199e+05,2.0268e+08,2,5700,5714,14.91,3.33,30,11,0,0
3.2032e+05,2.0279e+08,2,5714,5742,14.94,3.45,30,11,0,0
3.2076e+05,2.029e+08,2,5742,5800,14.9,3.48,30,11,0,0
3.2121e+05,2.03e+08,2,5801,5885,14.94,3.63,30,12,0,0
3.2169e+05,2.0312e+08,2,5889,5942,14.91,4.1,30,12,0,0
3.2258e+05,2.0334e+08,2,5944,6014,14.86,3.75,30,12,0,0
3.2303e+05,2.0345e+08,2,6012,5985,14.9,3.48,30,12,0,0
3.2348e+05,2.0356e+08,2,5977,5900,14.87,3.72,30,12,0,0
3.2392e+05,2.0366e+08,2,5902,6057,14.87,3.86,30,12,0,0
3.2437e+05,2.0378e+08,2,6053,6000,14.9,3.69,30,12,0,0
3.2482e+05,2.0388e+08,2,5999,5971,14.86,3.81,30,12,0,0
3.2526e+05,2.04e+08,2,5976,6128,14.88,3.98,30,13,0,0
3.257e+05,2.041e+08,2,6133,6200,14.92,4.2,30,13,0,0
3.2615e+05,2.0421e+08,2,6197,6171,14.86,3.94,30,13,0,0
3.2656e+05,2.0431e+08,2,6171,6185,14.86,4.19,30,13,0,0
3.2745e+05,2.0453e+08,2,6183,6128,14.86,4.12,30,13,0,0
3.2834e+05,2.0475e+08,2,6126,6085,14.92,4.03,30,13,0,0
3.2875e+05,2.0485e+08,2,6091,6242,14.86,4.03,30,14,0,0
3.2919e+05,2.0496e+08,2,6243,6271,14.93,4.01,30,14,0,0
3.296e+05,2.0507e+08,2,6269,6228,14.8,4.88,30,14,0,0
3.3005e+05,2.0518e+08,2,6238,6500,14.82,4.59,30,14,0,0
3.305e+05,2.0529e+08,2,6494,6414,14.82,4.11,30,14,0,0
3.3088e+05,2.0552e+08,2,6185,6357,14.85,3.86,30,14,0,0
3.3133e+05,2.0562e+08,2,6345,6228,14.86,4.08,30,14,0,0
3.3172e+05,2.0572e+08,2,6230,6314,14.87,3.8,30,15,0,0
3.3222e+05,2.0584e+08,2,6331,6514,14.91,4.12,30,15,0,0
3.3267e+05,2.0595e+08,2,6505,6414,14.91,3.68,30,15,0,0
3.3352e+05,2.0616e+08,2,6412,6371,14.91,3.15,30,15,0,0
3.3393e+05,2.0627e+08,2,6367,6128,14.94,2.87,30,15,0,0
3.3442e+05,2.0638e+08,2,6120,6028,14.88,3.07,30,15,0,0
3.3486e+05,2.0649e+08,2,6030,6057,14.92,2.65,30,15,0,0
3.353e+05,2.0661e+08,2,6017,5714,14.94,2.27,30,15,0,0
3.3572e+05,2.0671e+08,2,5710,5657,14.86,2.46,30,15,0,0
3.3617e+05,2.0682e+08,2,5648,5514,14.94,2.53,30,16,0,0
3.3657e+05,2.0692e+08,2,5516,5571,14.83,2.74,30,16,0,0
3.3702e+05,2.0703e+08,2,5583,5814,14.8,3.03,30,16,0,0
3.3746e+05,2.0714e+08,2,5814,5814,14.83,2.85,30,16,0,0
3.3791e+05,2.0725e+08,2,5805,5600,14.87,3.18,30,16,0,0
3.3836e+05,2.0736e+08,2,5622,5900,14.93,3.12,30,16,0,0
3.3876e+05,2.0746e+08,2,5899,5857,14.92,2.67,30,16,0,0
3.3922e+05,2.0757e+08,2,5864,5942,14.91,2.66,30,16,0,0
3.3966e+05,2.0768e+08,2,5939,5814,14.91,2.92,30,16,0,0
3.4015e+05,2.078e+08,2,5812,5785,14.88,3.03,30,16,0,0
3.4056e+05,2.0791e+08,2,5792,5857,14.83,3.05,30,16,0,0
3.4101e+05,2.0802e+08,2,5850,5785,14.84,2.91,30,17,0,0
3.4142e+05,2.0813e+08,2,5782,5757,14.89,2.98,30,17,0,0
3.4187e+05,2.0824e+08,2,5793,6100,14.92,3.14,30,17,0,0
3.4272e+05,2.0845e+08,2,6098,6042,14.88,3.16,30,17,0,0
3.4361e+05,2.0867e+08,2,6031,5885,14.83,2.54,30,17,0,0
3.4402e+05,2.0876e+08,2,5885,5885,14.92,3.3,30,17,0,0
3.4447e+05,2.0888e+08,2,5872,5728,14.85,2.93,30,17,0,0
3.4491e+05,2.0898e+08,2,5727,5700,14.87,2.9,30,17,0,0
3.4536e+05,2.0909e+08,2,5718,5942,14.83,3.08,30,17,0,0
3.4581e+05,2.092e+08,2,5940,5928,14.89,2.61,30,18,0,0
3.4621e+05,2.093e+08,2,5926,5842,14.86,3.38,30,18,0,0
3.467e+05,2.0942e+08,2,5844,5885,14.85,3.07,30,18,0,0
3.4715e+05,2.0953e+08,2,5906,6100,14.92,3.7,30,18,0,0
3.476e+05,2.0965e+08,2,6102,6128,14.8,3.68,30,18,0,0
3.4801e+05,2.0975e+08,2,6114,5985,14.89,3.44,30,18,0,0
3.4846e+05,2.0986e+08,2,6003,6157,14.82,3.83,30,18,0,0
3.4886e+05,2.0996e+08,2,6160,6328,14.82,4.08,30,18,0,0
3.4931e+05,2.1007e+08,2,6324,6071,14.78,4.04,30,18,0,0
3.4976e+05,2.1018e+08,2,6066,5985,14.75,3.2,30,18,0,0
3.5021e+05,2.1029e+08,2,6002,6185,14.84,3.89,30,19,0,0
3.5066e+05,2.104e+08,2,6176,6085,14.82,3.91,30,19,0,0
3.5114e+05,2.1051e+08,2,6077,6000,14.81,3.42,30,19,0,0
3.5159e+05,2.1062e+08,2,6003,6042,14.8,3.37,30,19,0,0
3.52e+05,2.1073e+08,2,6037,5985,14.78,3.26,30,19,0,0
3.5245e+05,2.1083e+08,2,5971,5857,14.84,3.03,30,19,0,0
3.5285e+05,2.1093e+08,2,5855,5828,14.8,3.32,30,19,0,0
3.5329e+05,2.1105e+08,2,5812,5642,14.76,3.04,30,19,0,0
3.537e+05,2.1115e+08,2,5652,5871,14.76,3.51,30,19,0,0
3.5419e+05,2.1126e+08,2,5872,5957,14.82,3.43,30,20,0,0
3.5463e+05,2.1137e+08,2,5959,5985,14.73,3.93,30,20,0,0
3.5504e+05,2.1147e+08,2,5983,5900,14.77,3.88,30,20,0,0
3.5553e+05,2.1159e+08,2,5893,5828,14.76,3.8,30,20,0,0
3.5593e+05,2.1169e+08,2,5837,6057,14.75,3.7,30,20,0,0
3.5638e+05,2.118e+08,2,6052,5814,14.8,3.56,30,20,0,0
3.5682e+05,2.1191e+08,2,5815,5885,14.78,3.64,30,20,0,0
3.573e+05,2.1202e+08,2,5885,5885,14.77,3.92,30,20,0,0
3.5776e+05,2.1214e+08,2,5891,5985,14.77,3.94,30,20,0,0
3.5822e+05,2.1225e+08,2,6003,6128,14.75,4.04,30,20,0,0
3.5862e+05,2.1235e+08,2,6125,6071,14.74,3.8,30,21,0,0
3.5906e+05,2.1246e+08,2,6071,6071,14.75,3.77,30,21,0,0
3.5951e+05,2.1257e+08,2,6056,5914,14.82,3.52,30,21,0,0
3.5995e+05,2.1267e+08,2,5918,6100,14.77,3.55,30,21,0,0
3.6041e+05,2.1279e+08,2,6098,6071,14.72,3.74,30,21,0,0
3.6086e+05,2.129e+08,2,6065,5985,14.71,3.43,30,21,0,0
3.6131e+05,2.1301e+08,2,5985,5985,14.75,3.34,30,21,0,0
3.6216e+05,2.1322e+08,2,5979,5828,14.74,3.03,30,21,0,0
3.6256e+05,2.1332e+08,2,5825,5685,14.77,2.92,30,22,0,0
3.6306e+05,2.1344e+08,2,5692,5771,14.7,3.6,30,22,0,0
3.6346e+05,2.1354e+08,2,5771,5785,14.71,3.62,30,22,0,0
3.6391e+05,2.1366e+08,2,5791,5857,14.74,3.68,30,22,0,0
3.6436e+05,2.1377e+08,2,5855,5828,14.72,3.13,30,22,0,0
3.6482e+05,2.1388e+08,2,5833,5885,14.7,3.43,30,22,0,0
3.6526e+05,2.1398e+08,2,5888,5985,14.73,3.51,30,22,0,0
3.6615e+05,2.142e+08,2,5979,5700,14.85,3.19,30,22,0,0
3.666e+05,2.1431e+08,2,5703,5742,14.86,3.07,30,22,0,0
3.6704e+05,2.1442e+08,2,5748,5814,14.73,3.04,30,23,0,0
3.6749e+05,2.1453e+08,2,5807,5671,14.7,3.39,30,23,0,0
3.6794e+05,2.1464e+08,2,5675,5757,14.77,2.69,30,23,0,0
3.6838e+05,2.1475e+08,2,5752,5685,14.8,2.61,30,23,0,0
3.6884e+05,2.1487e+08,2,5679,5628,14.76,2.84,30,23,0,0
3.6928e+05,2.1497e+08,2,5633,5714,14.76,2.76,30,23,0,0
3.6972e+05,2.1508e+08,2,5711,5671,14.79,2.92,30,23,0,0
3.7017e+05,2.1518e+08,2,5667,5628,14.76,2.73,30,23,0,0
3.7062e+05,2.1529e+08,2,5624,5571,14.78,3.08,30,23,0,0
3.7111e+05,2.1541e+08,2,5589,5785,14.72,3.22,30,23,0,0
3.7152e+05,2.1551e+08,2,5785,5785,14.71,3.49,30,23,0,0
3.7196e+05,2.1562e+08,2,5785,5800,14.64,3.41,30,24,0,0
3.7286e+05,2.1584e+08,2,5802,5871,14.79,3.29,30,24,0,0
3.7331e+05,2.1595e+08,2,5867,5828,14.76,3.24,31,24,0,0
3.7372e+05,2.1606e+08,2,5827,5785,14.74,2.82,30,24,0,0
3.7421e+05,2.1617e+08,2,5782,5714,14.73,3.13,30,24,0,0
3.7468e+05,2.1629e+08,2,5714,5714,14.75,3.12,30,24,0,0
3.7513e+05,2.164e+08,2,5732,5885,14.71,3.59,30,24,0,0
3.755e+05,2.1649e+08,2,5882,5814,14.68,3.65,30,24,0,0
3.7595e+05,2.166e+08,2,5826,5985,14.71,3.39,30,24,0,0
3.764e+05,2.1671e+08,2,5975,5771,14.7,3.41,30,25,0,0
3.7685e+05,2.1682e+08,2,5775,5842,14.7,3.4,31,25,0,0
3.7733e+05,2.1693e+08,2,5845,5885,14.69,3.56,30,25,0,0
3.7778e+05,2.1704e+08,2,5889,5928,14.71,3.75,30,25,0,0
3.7823e+05,2.1716e+08,2,5934,5985,14.69,3.61,30,25,0,0
3.7863e+05,2.1725e+08,2,5985,6000,14.73,3.78,31,25,0,0
3.7908e+05,2.1737e+08,2,5998,5957,14.73,3.85,30,25,0,0
3.7956e+05,2.1748e+08,2,5968,6128,14.73,3.44,31,25,0,0
3.8001e+05,2.1759e+08,2,6129,6142,14.71,3.51,31,25,0,0
3.8041e+05,2.1769e+08,2,6139,5928,14.67,3.61,30,26,0,0
3.809e+05,2.1781e+08,2,5927,5914,14.72,3.49,31,26,0,0
3.8135e+05,2.1792e+08,2,5914,5914,14.73,3.47,30,26,0,0
3.818e+05,2.1803e+08,2,5904,5742,14.75,3.23,30,26,0,0
3.8228e+05,2.1814e+08,2,5743,5771,14.73,3.37,31,26,0,0
3.8269e+05,2.1825e+08,2,5780,5857,14.72,3.43,31,26,0,0
3.8313e+05,2.1834e+08,2,5860,5928,14.7,3.44,30,26,0,0
3.8358e+05,2.1845e+08,2,5928,5942,14.75,3.61,30,26,0,0
3.8402e+05,2.1857e+08,2,5926,5742,14.76,2.86,30,26,0,0
3.8447e+05,2.1868e+08,2,5736,5657,14.76,2.97,30,26,0,0
3.8488e+05,2.1878e+08,2,5655,5642,14.71,3.16,30,27,0,0
3.8578e+05,2.19e+08,2,5653,5885,14.66,3.76,31,27,0,0
3.8622e+05,2.1911e+08,2,5883,5871,14.66,3.81,31,27,0,0
3.8671e+05,2.1922e+08,2,5877,5942,14.7,3.79,30,27,0,0
3.8711e+05,2.1932e+08,2,5952,6100,14.7,3.58,30,27,0,0
3.8756e+05,2.1943e+08,2,6083,5842,14.74,3.31,31,27,0,0
3.8801e+05,2.1955e+08,2,5847,5885,14.71,3.68,31,27,0,0
3.8842e+05,2.1964e+08,2,5875,5671,14.8,3.14,31,27,0,0
3.8886e+05,2.1975e+08,2,5681,5885,14.73,3.36,30,28,0,0
3.8972e+05,2.1997e+08,2,5884,5771,14.8,2.84,30,28,0,0
3.902e+05,2.2009e+08,2,5767,5728,14.78,2.68,31,28,0,0
3.9061e+05,2.2019e+08,2,5723,5614,14.79,2.59,31,28,0,0
3.911e+05,2.2031e+08,2,5611,5585,14.78,2.76,31,28,0,0
3.9151e+05,2.204e+08,2,5586,5671,14.76,2.19,31,28,0,0
3.9195e+05,2.2052e+08,2,5666,5557,14.75,2.57,31,28,0,0
3.924e+05,2.2062e+08,2,5558,5585,14.81,2.56,31,28,0,0
3.9284e+05,2.2073e+08,2,5585,5585,14.75,2.35,31,28,0,0
3.9329e+05,2.2084e+08,2,5598,5700,14.75,2.35,30,28,0,0
3.937e+05,2.2094e+08,2,5696,5571,14.77,2.66,30,28,0,0
3.9415e+05,2.2106e+08,2,5571,5571,14.77,2.62,31,28,0,0
3.9459e+05,2.2116e+08,2,5577,5814,14.77,2.69,30,29,0,0
3.9508e+05,2.2128e+08,2,5809,5742,14.76,3.16,30,29,0,0
3.9548e+05,2.2138e+08,2,5742,5757,14.81,2.73,30,29,0,0
3.9594e+05,2.215e+08,2,5755,5714,14.8,2.8,31,29,0,0
3.9635e+05,2.216e+08,2,5716,5842,14.75,2.89,31,29,0,0
3.9683e+05,2.2172e+08,2,5849,5942,14.76,2.97,30,29,0,0
3.9728e+05,2.2183e+08,2,5943,5957,14.8,3.06,31,29,0,0
3.9772e+05,2.2193e+08,2,5960,6000,14.76,3.28,31,29,0,0
3.9813e+05,2.2204e+08,2,5993,5857,14.77,3.07,31,29,0,0
3.9858e+05,2.2215e+08,2,5858,5928,14.74,3.37,31,29,0,0
3.9939e+05,2.2236e+08,2,6023,5842,14.69,3.33,31,30,0,0
3.9989e+05,2.2258e+08,2,5893,6014,14.71,3.37,31,30,0,0
4.003e+05,2.2268e+08,2,6012,5985,14.74,3.4,31,30,0,0
4.0075e+05,2.2279e+08,2,5985,6000,14.71,3.44,31,30,0,0
4.0164e+05,2.23e+08,2,5998,5942,14.76,3.43,30,30,0,0
4.0208e+05,2.2311e+08,2,5941,5900,14.72,3.35,31,30,0,0
4.0258e+05,2.2323e+08,2,5896,5842,14.79,3.21,30,30,0,0
4.0298e+05,2.2333e+08,2,5843,5900,14.73,3.33,31,31,0,0
4.0343e+05,2.2344e+08,2,5897,5742,14.75,3.29,30,31,0,0
4.0388e+05,2.2355e+08,2,5742,5814,14.75,3.4,30,31,0,0
4.0433e+05,2.2366e+08,2,5827,6100,14.72,3.4,31,31,0,0
4.0477e+05,2.2377e+08,2,6095,5800,14.75,3.48,30,31,0,0
4.0522e+05,2.2388e+08,2,5808,5885,14.76,2.99,31,31,0,0
4.0567e+05,2.2399e+08,2,5883,5857,14.76,3.13,31,31,0,0
4.0608e+05,2.2409e+08,2,5858,5928,14.69,3.11,30,31,0,0
4.0656e+05,2.2421e+08,2,5919,5800,14.76,3.02,31,31,0,0
4.0701e+05,2.2432e+08,2,5828,6114,14.74,3.36,31,31,0,0
4.0745e+05,2.2442e+08,2,6112,6085,14.72,3.49,31,32,0,0
4.079e+05,2.2453e+08,2,6083,6000,14.75,3.79,31,32,0,0
4.0835e+05,2.2464e+08,2,6011,6257,14.71,4.1,31,32,0,0
4.088e+05,2.2475e+08,2,6252,6185,14.66,4.03,31,32,0,0
4.0924e+05,2.2486e+08,2,6188,6242,14.66,3.93,31,32,0,0
4.0969e+05,2.2498e+08,2,6239,6214,14.73,3.64,31,32,0,0
4.1009e+05,2.2507e+08,2,6211,6157,14.7,3.53,31,32,0,0
4.1054e+05,2.2518e+08,2,6146,5942,14.72,3.29,31,32,0,0
4.11e+05,2.253e+08,2,5946,6071,14.75,3.29,31,32,0,0
4.1144e+05,2.254e+08,2,6065,5942,14.72,3.36,31,33,0,0
4.1238e+05,2.2563e+08,2,5933,5742,14.71,3.15,31,33,0,0
4.1279e+05,2.2574e+08,2,5754,5885,14.72,3.32,31,33,0,0
4.132e+05,2.2584e+08,2,5886,5928,14.72,3.33,31,33,0,0
4.1413e+05,2.2607e+08,2,5931,6000,14.6,3.64,31,33,0,0
4.1502e+05,2.2629e+08,2,5996,5914,14.62,3.73,31,33,0,0
4.1543e+05,2.2638e+08,2,5917,6100,14.63,4.07,31,33,0,0
4.1584e+05,2.265e+08,2,6096,6057,14.63,4.18,30,34,0,0
4.1629e+05,2.2661e+08,2,6063,6128,14.63,4.13,31,34,0,0
4.167e+05,2.2671e+08,2,6126,6028,14.65,4.2,31,34,0,0
4.1719e+05,2.2683e+08,2,6043,6214,14.63,4.37,31,34,0,0
4.176e+05,2.2694e+08,2,6208,6157,14.73,3.85,31,34,0,0
4.1805e+05,2.2704e+08,2,6144,6014,14.75,3.22,31,34,0,0
4.1853e+05,2.2715e+08,2,6004,5871,14.8,3.07,31,34,0,0
4.1898e+05,2.2727e+08,2,5872,5885,14.86,2.92,31,34,0,0
4.1939e+05,2.2737e+08,2,5873,5714,14.82,3.03,31,35,0,0
4.2028e+05,2.2758e+08,2,5713,5657,14.75,2.86,31,35,0,0
4.2077e+05,2.277e+08,2,5678,5900,14.77,3.07,31,35,0,0
4.2122e+05,2.2781e+08,2,5894,5842,14.77,2.57,31,35,0,0
4.2163e+05,2.2792e+08,2,5829,5700,14.68,3.18,31,35,0,0
4.2207e+05,2.2802e+08,2,5720,5928,14.66,3.62,31,35,0,0
4.2248e+05,2.2812e+08,2,5929,6028,14.7,3.43,31,35,0,0
4.2296e+05,2.2824e+08,2,6025,5971,14.8,3.55,31,35,0,0
4.234e+05,2.2835e+08,2,5971,5971,14.72,3.72,31,35,0,0
4.2381e+05,2.2845e+08,2,5973,6157,14.7,3.99,31,35,0,0
4.2426e+05,2.2856e+08,2,6158,6257,14.72,3.88,31,36,0,0
4.247e+05,2.2867e+08,2,6253,6028,14.73,3.82,31,36,0,0
4.2515e+05,2.2878e+08,2,6029,6071,14.73,3.69,31,36,0,0
4.2577e+05,2.2899e+08,2,5931,6142,14.73,3.71,31,36,0,0
4.2622e+05,2.291e+08,2,6137,5885,14.77,3.35,31,36,0,0
4.2666e+05,2.2921e+08,2,5884,5871,14.7,3.49,31,36,0,0
4.2715e+05,2.2933e+08,2,5869,5857,14.76,3.08,31,36,0,0
4.2756e+05,2.2943e+08,2,5855,5785,14.75,3.26,31,36,0,0
4.28e+05,2.2954e+08,2,5786,5828,14.76,3.12,31,37,0,0
4.2845e+05,2.2965e+08,2,5829,5914,14.76,2.89,31,37,0,0
4.289e+05,2.2976e+08,2,5915,5942,14.75,3.21,31,37,0,0
4.2931e+05,2.2987e+08,2,5931,5771,14.75,3.11,31,37,0,0
4.2976e+05,2.2997e+08,2,5772,5885,14.75,3.46,31,37,0,0
4.307e+05,2.302e+08,2,5893,6157,14.77,3.34,31,37,0,0
4.311e+05,2.303e+08,2,6152,6057,14.77,3.42,31,37,0,0
4.3159e+05,2.3042e+08,2,6058,6071,14.7,3.59,31,37,0,0
4.3199e+05,2.3052e+08,2,6072,6142,14.73,3.55,31,37,0,0
4.3244e+05,2.3062e+08,2,6139,6085,14.71,3.32,31,38,0,0
4.3289e+05,2.3073e+08,2,6086,6128,14.75,3.11,31,38,0,0
4.3334e+05,2.3084e+08,2,6124,6057,14.76,3.02,31,38,0,0
4.3378e+05,2.3096e+08,2,6046,5942,14.73,2.77,31,38,0,0
4.3423e+05,2.3107e+08,2,5932,5842,14.72,2.93,31,38,0,0
4.3463e+05,2.3116e+08,2,5840,5728,14.71,3.08,31,38,0,0
4.3512e+05,2.3129e+08,2,5740,5914,14.74,2.93,31,38,0,0
4.3594e+05,2.315e+08,2,5914,5928,14.72,3.05,31,38,0,0
4.3642e+05,2.3161e+08,2,5933,6000,14.72,3.16,31,38,0,0
4.3687e+05,2.3172e+08,2,6006,6100,14.77,3.37,31,38,0,0
4.3732e+05,2.3183e+08,2,6080,5871,14.75,3.15,31,39,0,0
4.3772e+05,2.3194e+08,2,5878,6057,14.78,3.02,31,39,0,0
4.3821e+05,2.3206e+08,2,6041,5928,14.8,2.71,31,39,0,0
4.3862e+05,2.3215e+08,2,5921,5828,14.79,2.56,31,39,0,0
4.3906e+05,2.3227e+08,2,5827,5800,14.7,2.97,31,39,0,0
4.395e+05,2.3237e+08,2,5801,5900,14.7,3.1,31,39,0,0
4.3995e+05,2.3249e+08,2,5897,5871,14.67,3.26,31,39,0,0
4.404e+05,2.3259e+08,2,5885,6042,14.67,3.62,31,39,0,0
4.4084e+05,2.327e+08,2,6038,5971,14.7,3.84,31,39,0,0
4.4174e+05,2.3293e+08,2,5969,5928,14.74,2.95,31,40,0,0
4.4219e+05,2.3304e+08,2,5928,5928,14.69,3.07,31,40,0,0
4.4263e+05,2.3315e+08,2,5928,5928,14.73,3.22,31,40,0,0
4.4308e+05,2.3326e+08,2,5922,5871,14.67,3.62,31,40,0,0
4.4352e+05,2.3337e+08,2,5878,5957,14.69,3.05,31,40,0,0
4.4392e+05,2.3347e+08,2,5943,5800,14.7,3.12,31,40,0,0
4.444e+05,2.3358e+08,2,5805,5857,14.74,2.92,31,40,0,0
4.4482e+05,2.3369e+08,2,5843,5742,14.79,2.81,31,40,0,0
4.4526e+05,2.338e+08,2,5744,5785,14.85,2.66,31,40,0,0
4.457e+05,2.339e+08,2,5779,5728,14.75,3.18,31,40,0,0
4.4612e+05,2.3401e+08,2,5733,5985,14.6,4.07,31,40,0,0
4.4655e+05,2.3411e+08,2,5985,6028,14.62,3.78,31,41,0,0
4.4705e+05,2.3423e+08,2,6034,6085,14.73,3.39,31,41,0,0
4.4749e+05,2.3434e+08,2,6062,5757,14.72,3.01,31,41,0,0
4.4794e+05,2.3445e+08,2,5758,5771,14.76,2.99,31,41,0,0
4.4838e+05,2.3456e+08,2,5784,5914,14.71,3.38,31,41,0,0
4.4879e+05,2.3466e+08,2,5910,5842,14.66,3.41,31,41,0,0
4.4923e+05,2.3477e+08,2,5843,5885,14.67,3.42,31,41,0,0
4.4971e+05,2.3488e+08,2,5884,5857,14.65,3.63,31,41,0,0
4.5016e+05,2.3499e+08,2,5868,6000,14.67,3.64,31,41,0,0
4.5057e+05,2.351e+08,2,5996,5828,14.7,3.48,31,41,0,0
4.5103e+05,2.3521e+08,2,5821,5757,14.69,3.04,31,42,0,0
4.5143e+05,2.3531e+08,2,5743,5514,14.74,2.69,31,42,0,0
4.5188e+05,2.3542e+08,2,5516,5628,14.77,2.49,31,42,0,0
4.5234e+05,2.3554e+08,2,5625,5600,14.76,2.92,31,42,0,0
4.5279e+05,2.3565e+08,2,5616,5771,14.69,3.45,31,42,0,0
4.5319e+05,2.3575e+08,2,5765,5700,14.74,3.24,31,42,0,0
4.5363e+05,2.3585e+08,2,5699,5657,14.79,2.88,31,42,0,0
4.5453e+05,2.3607e+08,2,5657,5671,14.73,3.39,31,42,0,0
4.5498e+05,2.3618e+08,2,5670,5657,14.75,3.12,31,42,0,0
4.5546e+05,2.363e+08,2,5669,5800,14.7,3.03,31,43,0,0
4.5587e+05,2.364e+08,2,5794,5657,14.67,2.91,31,43,0,0
4.5631e+05,2.3651e+08,2,5660,5700,14.63,3.31,31,43,0,0
4.5676e+05,2.3662e+08,2,5702,5814,14.72,3.09,31,43,0,0
4.572e+05,2.3673e+08,2,5812,5785,14.74,3.2,31,43,0,0
4.5765e+05,2.3683e+08,2,5789,5885,14.78,2.96,31,43,0,0
4.5813e+05,2.3695e+08,2,5895,6000,14.7,3.13,31,43,0,0
4.5854e+05,2.3705e+08,2,5985,5714,14.7,3.26,31,43,0,0
4.5899e+05,2.3716e+08,2,5723,5957,14.65,3.56,31,43,0,0
4.5946e+05,2.3728e+08,2,5957,5971,14.65,3.45,31,43,0,0
4.5991e+05,2.3739e+08,2,5971,5971,14.61,3.75,31,43,0,0
4.6036e+05,2.375e+08,2,5982,6100,14.62,3.57,31,44,0,0
4.608e+05,2.376e+08,2,6092,6014,14.61,3.67,31,44,0,0
4.6124e+05,2.3771e+08,2,6006,5914,14.59,3.86,31,44,0,0
4.617e+05,2.3782e+08,2,5928,6142,14.56,4.06,31,44,0,0
4.6214e+05,2.3793e+08,2,6138,6085,14.54,4.13,31,44,0,0
4.6259e+05,2.3804e+08,2,6091,6157,14.62,3.89,31,44,0,0
4.6302e+05,2.3815e+08,2,6152,6100,14.72,3.05,31,44,0,0
4.6348e+05,2.3826e+08,2,6084,5914,14.72,3.05,31,44,0,0
4.6392e+05,2.3837e+08,2,5916,5957,14.56,3.79,31,45,0,0
4.6436e+05,2.3848e+08,2,5962,6071,14.61,3.58,31,45,0,0
4.6482e+05,2.3859e+08,2,6071,6085,14.66,3.72,31,45,0,0
4.6522e+05,2.3869e+08,2,6084,6057,14.62,3.57,31,45,0,0
4.6567e+05,2.3881e+08,2,6049,5885,14.61,3.65,31,45,0,0
4.6611e+05,2.3891e+08,2,5894,6014,14.61,3.59,31,45,0,0
4.6656e+05,2.3902e+08,2,6008,5942,14.57,3.57,31,45,0,0
4.6701e+05,2.3913e+08,2,5929,5800,14.61,3.43,31,45,0,0
4.6786e+05,2.3934e+08,2,5801,5957,14.57,3.67,31,46,0,0
4.6835e+05,2.3947e+08,2,5964,6014,14.63,3.71,31,46,0,0
4.6879e+05,2.3957e+08,2,6019,6100,14.65,3.56,31,46,0,0
4.6924e+05,2.3968e+08,2,6081,5900,14.6,3.59,31,46,0,0
4.6964e+05,2.3978e+08,2,5902,5942,14.63,3.5,31,46,0,0
4.7004e+05,2.3988e+08,2,5940,5914,14.64,3.34,31,46,0,0
4.7094e+05,2.401e+08,2,5914,5942,14.64,3.4,31,46,0,0
4.7139e+05,2.4021e+08,2,5934,5828,14.67,3.39,31,46,0,0
4.718e+05,2.4032e+08,2,5826,5800,14.61,3.38,31,46,0,0
4.7224e+05,2.4042e+08,2,5807,5957,14.61,3.28,31,47,0,0
4.7269e+05,2.4053e+08,2,5951,5857,14.69,3.3,31,47,0,0
4.7314e+05,2.4064e+08,2,5849,5742,14.67,3.15,31,47,0,0
4.7354e+05,2.4075e+08,2,5743,5842,14.65,3.38,31,47,0,0
4.7399e+05,2.4085e+08,2,5840,5771,14.68,3.34,31,47,0,0
4.7444e+05,2.4097e+08,2,5774,5857,14.65,3.17,31,47,0,0
4.7489e+05,2.4108e+08,2,5863,5957,14.63,3.27,31,47,0,0
4.7534e+05,2.4119e+08,2,5945,5757,14.6,3.28,31,47,0,0
4.7579e+05,2.413e+08,2,5758,5785,14.58,3.22,31,47,0,0
4.7619e+05,2.414e+08,2,5788,5857,14.64,3.35,31,47,0,0
4.7664e+05,2.4152e+08,2,5856,5828,14.63,3.58,31,48,0,0
4.7712e+05,2.4163e+08,2,5839,6000,14.62,3.58,31,48,0,0
4.7757e+05,2.4174e+08,2,5986,5842,14.64,3.55,31,48,0,0
4.7798e+05,2.4184e+08,2,5843,5871,14.57,3.6,31,48,0,0
4.7838e+05,2.4194e+08,2,5871,5928,14.54,4.19,31,48,0,0
4.7882e+05,2.4205e+08,2,5932,6100,14.58,3.8,31,48,0,0
4.7928e+05,2.4216e+08,2,6098,6057,14.5,3.95,31,48,0,0
4.7972e+05,2.4228e+08,2,6055,6028,14.54,3.94,31,48,0,0
4.8017e+05,2.4238e+08,2,6033,6085,14.6,3.76,31,49,0,0
4.8062e+05,2.425e+08,2,6073,5942,14.62,3.5,31,49,0,0
4.8107e+05,2.4261e+08,2,5939,5914,14.61,3.33,31,49,0,0
4.8147e+05,2.4271e+08,2,5911,5742,14.66,2.98,31,49,0,0
4.8192e+05,2.4282e+08,2,5741,5728,14.65,3.03,31,49,0,0
4.824e+05,2.4293e+08,2,5729,5771,14.68,3.24,31,49,0,0
4.8285e+05,2.4304e+08,2,5775,5814,14.63,3.12,31,49,0,0
4.8325e+05,2.4314e+08,2,5813,5800,14.61,3.05,31,49,0,0
4.837e+05,2.4325e+08,2,5798,5757,14.66,3.02,31,49,0,0
4.8418e+05,2.4336e+08,2,5761,5814,14.65,3.12,31,49,0,0
4.8458e+05,2.4346e+08,2,5808,5685,14.67,3.08,31,49,0,0
4.8507e+05,2.4358e+08,2,5677,5614,14.64,2.68,31,50,0,0
4.8551e+05,2.4369e+08,2,5600,5442,14.65,2.38,31,50,0,0
4.8592e+05,2.4379e+08,2,5441,5428,14.69,2.44,31,50,0,0
4.8632e+05,2.4389e+08,2,5427,5414,14.7,2.47,31,50,0,0
4.8682e+05,2.4402e+08,2,5393,5242,14.77,2.33,31,50,0,0
4.8726e+05,2.4413e+08,2,5253,5414,14.66,2.46,31,50,0,0
4.8767e+05,2.4423e+08,2,5412,5328,14.63,2.7,31,50,0,0
4.8816e+05,2.4435e+08,2,5343,5514,14.63,2.95,31,50,0,0
4.8857e+05,2.4445e+08,2,5515,5657,14.59,3.09,31,50,0,0
4.8901e+05,2.4456e+08,2,5656,5628,14.66,2.84,31,50,0,0
4.8945e+05,2.4467e+08,2,5626,5614,14.57,3.17,31,50,0,0
4.899e+05,2.4478e+08,2,5614,5614,14.58,2.79,31,50,0,0
4.9034e+05,2.4489e+08,2,5624,5771,14.57,3.37,31,51,0,0
4.908e+05,2.45e+08,2,5762,5600,14.59,3.43,31,51,0,0
4.912e+05,2.451e+08,2,5601,5671,14.6,3.02,31,51,0,0
4.9168e+05,2.4521e+08,2,5668,5614,14.66,3.03,31,51,0,0
4.9213e+05,2.4532e+08,2,5614,5614,14.69,2.89,31,51,0,0
4.9263e+05,2.4545e+08,2,5620,5685,14.63,3.15,31,51,0,0
4.9303e+05,2.4555e+08,2,5692,5800,14.67,2.91,31,51,0,0
4.9344e+05,2.4565e+08,2,5795,5571,14.66,3.34,31,51,0,0
4.9437e+05,2.4588e+08,2,5570,5557,14.63,2.85,31,51,0,0
4.9478e+05,2.4597e+08,2,5558,5614,14.63,3.11,31,51,0,0
4.9522e+05,2.4609e+08,2,5614,5614,14.63,3.13,31,52,0,0
4.9567e+05,2.4619e+08,2,5622,5785,14.62,3.31,31,52,0,0
4.9657e+05,2.4642e+08,2,5777,5614,14.63,2.66,31,52,0,0
4.9702e+05,2.4653e+08,2,5629,5785,14.66,3.25,31,52,0,0
4.9742e+05,2.4663e+08,2,5788,6028,14.6,3.59,31,52,0,0
4.9786e+05,2.4674e+08,2,6027,6000,14.65,3.4,31,52,0,0
4.9835e+05,2.4686e+08,2,6017,6114,14.65,3.33,31,52,0,0
4.9876e+05,2.4695e+08,2,6104,5914,14.64,3.32,31,52,0,0
4.992e+05,2.4706e+08,2,5914,5928,14.69,3.43,31,52,0,0
4.9964e+05,2.4717e+08,2,5932,6000,14.66,3.59,31,53,0,0
5.005e+05,2.4739e+08,2,5998,5971,14.61,3.44,31,53,0,0
5.014e+05,2.4761e+08,2,5973,6071,14.63,3.5,31,53,0,0
5.018e+05,2.4771e+08,2,6069,6028,14.64,3.43,31,53,0,0
5.0225e+05,2.4782e+08,2,6026,5985,14.61,3.35,31,53,0,0
5.0269e+05,2.4793e+08,2,5985,5985,14.62,3.38,31,53,0,0
5.0314e+05,2.4804e+08,2,5986,6014,14.6,3.43,31,53,0,0
5.0357e+05,2.4814e+08,2,6016,6171,14.62,3.51,31,54,0,0
5.0407e+05,2.4826e+08,2,6146,5900,14.67,3.2,31,54,0,0
5.0447e+05,2.4836e+08,2,5904,6000,14.63,3.38,31,54,0,0
5.0492e+05,2.4847e+08,2,6004,6114,14.62,3.61,31,54,0,0
5.0536e+05,2.4858e+08,2,6115,6200,14.63,3.51,31,54,0,0
5.0581e+05,2.4869e+08,2,6189,6100,14.63,3.53,31,54,0,0
5.0626e+05,2.488e+08,2,6097,6057,14.57,3.71,31,54,0,0
5.067e+05,2.4891e+08,2,6054,6028,14.59,3.8,31,54,0,0
5.0712e+05,2.4902e+08,2,6022,5971,14.55,3.62,31,54,0,0
5.08e+05,2.4924e+08,2,5970,5942,14.53,3.41,31,55,0,0
5.0886e+05,2.4945e+08,2,5942,5942,14.56,3.56,31,55,0,0
5.093e+05,2.4956e+08,2,5940,5914,14.57,3.59,31,55,0,0
5.097e+05,2.4966e+08,2,5906,5771,14.58,3.48,31,55,0,0
5.1016e+05,2.4978e+08,2,5760,5657,14.65,3.05,31,55,0,0
5.1056e+05,2.4988e+08,2,5664,5814,14.63,3.14,31,55,0,0
5.1106e+05,2.5e+08,2,5801,5657,14.57,2.97,31,55,0,0
5.115e+05,2.5011e+08,2,5646,5542,14.57,3.09,31,55,0,0
5.1194e+05,2.5022e+08,2,5546,5600,14.64,2.99,31,55,0,0
5.1239e+05,2.5033e+08,2,5596,5557,14.63,3,31,56,0,0
5.1284e+05,2.5044e+08,2,5565,5642,14.58,3.23,31,56,0,0
5.1324e+05,2.5054e+08,2,5644,5685,14.63,3.23,31,56,0,0
5.1458e+05,2.5087e+08,2,5690,5914,14.59,3.3,31,56,0,0
5.1503e+05,2.5098e+08,2,5912,5900,14.64,3.34,31,56,0,0
5.1544e+05,2.5109e+08,2,5889,5685,14.6,3.24,31,56,0,0
5.1588e+05,2.5119e+08,2,5685,5700,14.58,3.44,31,56,0,0
5.1629e+05,2.513e+08,2,5702,5828,14.65,3.46,31,56,0,0
5.1678e+05,2.5142e+08,2,5829,5842,14.6,3.48,31,57,0,0
5.1718e+05,2.5152e+08,2,5839,5814,14.57,3.32,31,57,0,0
5.1763e+05,2.5163e+08,2,5821,5885,14.63,3.29,31,57,0,0
5.1807e+05,2.5173e+08,2,5886,5900,14.58,3.31,31,57,0,0
5.1852e+05,2.5185e+08,2,5897,5871,14.63,3.42,31,57,0,0
5.1896e+05,2.5195e+08,2,5870,5857,14.61,3.57,31,57,0,0
5.194e+05,2.5207e+08,2,5868,5971,14.63,3.71,31,57,0,0
5.1985e+05,2.5217e+08,2,5971,6014,14.61,3.63,31,57,0,0
5.2029e+05,2.5228e+08,2,6015,6071,14.61,3.59,31,57,0,0
5.2074e+05,2.5238e+08,2,6066,5871,14.58,3.74,31,58,0,0
5.2119e+05,2.525e+08,2,5878,5957,14.61,3.63,31,58,0,0
5.2163e+05,2.526e+08,2,5949,5771,14.58,3.66,31,58,0,0
5.2208e+05,2.5272e+08,2,5776,5814,14.59,3.52,31,58,0,0
5.2253e+05,2.5283e+08,2,5807,5742,14.61,3.62,31,58,0,0
5.2297e+05,2.5293e+08,2,5749,5857,14.58,3.75,31,58,0,0
5.2342e+05,2.5305e+08,2,5864,5942,14.61,3.63,31,58,0,0
5.2383e+05,2.5315e+08,2,5941,5928,14.65,3.6,31,58,0,0
5.2428e+05,2.5326e+08,2,5928,5985,14.63,3.37,31,58,0,0
5.2472e+05,2.5337e+08,2,5978,5900,14.65,3.46,31,59,0,0
5.2513e+05,2.5347e+08,2,5895,5728,14.61,3.25,31,59,0,0
5.2602e+05,2.5369e+08,2,5734,5900,14.63,3.37,31,59,0,0
5.2648e+05,2.538e+08,2,5893,5800,14.63,3.33,31,59,0,0
5.2692e+05,2.5391e+08,2,5808,5885,14.61,3.37,31,59,0,0
5.2737e+05,2.5402e+08,2,5873,5714,14.64,3.1,31,59,0,0
5.2777e+05,2.5412e+08,2,5714,5714,14.67,2.88,31,59,0,0
5.2822e+05,2.5423e+08,2,5725,5985,14.63,3.46,31,59,0,0
5.2867e+05,2.5435e+08,2,5975,5900,14.63,3.4,31,59,0,0
5.2907e+05,2.5445e+08,2,5892,5742,14.64,3.23,31,60,0,0
5.2948e+05,2.5455e+08,2,5743,5857,14.66,3.1,31,60,0,0
5.3041e+05,2.5478e+08,2,5863,6014,14.64,3.32,31,60,0,0
5.3086e+05,2.5489e+08,2,5999,5857,14.64,3.52,31,60,0,0
5.313e+05,2.55e+08,2,5871,6071,14.48,4.03,31,60,0,0
5.3171e+05,2.551e+08,2,6072,6128,14.51,4.42,31,60,0,0
5.3219e+05,2.5521e+08,2,6134,6371,14.48,4.8,31,60,0,0
5.326e+05,2.5532e+08,2,6371,6385,14.39,4.87,31,60,0,0
5.3313e+05,2.5544e+08,2,6392,6471,14.45,4.76,31,61,0,0
5.3353e+05,2.5554e+08,2,6468,6414,14.51,4.45,31,61,0,0
5.3398e+05,2.5566e+08,2,6418,6457,14.48,4.43,31,61,0,0
5.3438e+05,2.5575e+08,2,6456,6400,14.51,4.26,31,61,0,0
5.3483e+05,2.5587e+08,2,6391,6157,14.55,4.08,31,61,0,0
5.3531e+05,2.5598e+08,2,6151,6071,14.55,3.94,31,61,0,0
5.3575e+05,2.5609e+08,2,6059,5900,14.58,3.84,31,61,0,0
5.362e+05,2.5619e+08,2,5891,5742,14.58,3.48,31,61,0,0
5.3665e+05,2.5631e+08,2,5744,5771,14.57,3.43,31,62,0,0
5.3705e+05,2.564e+08,2,5771,5800,14.61,3.46,31,62,0,0
5.3753e+05,2.5652e+08,2,5790,5671,14.61,3.3,31,62,0,0
5.3798e+05,2.5663e+08,2,5665,5614,14.61,3.2,31,62,0,0
5.3839e+05,2.5674e+08,2,5614,5614,14.54,3.14,31,62,0,0
5.3884e+05,2.5685e+08,2,5592,5442,14.6,2.9,31,62,0,0
5.3925e+05,2.5695e+08,2,5443,5471,14.61,3.05,31,62,0,0
5.3965e+05,2.5705e+08,2,5472,5628,14.58,3.47,31,62,0,0
5.4014e+05,2.5717e+08,2,5631,5671,14.61,3.26,31,62,0,0
5.4058e+05,2.5728e+08,2,5671,5685,14.67,3.26,31,62,0,0
5.4099e+05,2.5738e+08,2,5687,5814,14.61,3.19,31,63,0,0
5.4143e+05,2.5749e+08,2,5811,5685,14.64,3.12,31,63,0,0
5.4188e+05,2.576e+08,2,5684,5671,14.72,3.1,31,63,0,0
5.4236e+05,2.5771e+08,2,5664,5585,14.7,3.16,31,63,0,0
5.4281e+05,2.5782e+08,2,5586,5600,14.68,2.98,31,63,0,0
5.4322e+05,2.5792e+08,2,5602,5628,14.71,3.15,31,63,0,0
5.437e+05,2.5804e+08,2,5609,5428,14.67,3.01,31,63,0,0
5.441e+05,2.5814e+08,2,5429,5500,14.7,2.78,31,63,0,0
5.4459e+05,2.5825e+08,2,5496,5457,14.66,2.69,31,63,0,0
5.4499e+05,2.5835e+08,2,5458,5485,14.6,2.57,31,63,0,0
5.4588e+05,2.5857e+08,2,5478,5342,14.65,2.36,31,64,0,0
5.4628e+05,2.5868e+08,2,5360,5542,14.62,2.91,31,64,0,0
5.4672e+05,2.5878e+08,2,5543,5642,14.7,2.88,31,64,0,0
5.4717e+05,2.5889e+08,2,5643,5671,14.63,2.78,31,64,0,0
5.4766e+05,2.5901e+08,2,5665,5600,14.64,2.95,31,64,0,0
5.4811e+05,2.5912e+08,2,5598,5585,14.66,2.94,31,64,0,0
5.4851e+05,2.5922e+08,2,5594,5800,14.63,3.21,31,64,0,0
5.4895e+05,2.5933e+08,2,5790,5642,14.61,2.49,31,64,0,0
5.4941e+05,2.5944e+08,2,5656,5900,14.61,3.55,31,64,0,0
5.4985e+05,2.5955e+08,2,5910,6042,14.6,3.54,31,64,0,0
5.503e+05,2.5966e+08,2,6035,5957,14.63,3.55,31,64,0,0
5.5075e+05,2.5977e+08,2,5975,6257,14.63,3.77,31,65,0,0
5.516e+05,2.5998e+08,2,6253,6157,14.62,3.08,31,65,0,0
5.5201e+05,2.6009e+08,2,6155,6057,14.6,3.57,31,65,0,0
5.5245e+05,2.6019e+08,2,6053,5885,14.57,3.1,31,65,0,0
5.5294e+05,2.6031e+08,2,5895,6000,14.64,3.04,31,65,0,0
5.5335e+05,2.6041e+08,2,6000,6000,14.58,2.89,31,65,0,0
5.538e+05,2.6052e+08,2,5986,5857,14.64,2.96,31,65,0,0
5.5424e+05,2.6063e+08,2,5860,5900,14.66,2.56,31,65,0,0
5.5465e+05,2.6074e+08,2,5894,5628,14.66,2.86,31,65,0,0
5.551e+05,2.6085e+08,2,5631,5814,14.57,2.98,31,65,0,0
5.5554e+05,2.6096e+08,2,5809,5700,14.67,2.69,31,66,0,0
5.5599e+05,2.6107e+08,2,5710,5857,14.58,2.89,31,66,0,0
5.564e+05,2.6117e+08,2,5858,5942,14.53,3.14,31,66,0,0
5.5688e+05,2.6128e+08,2,5936,5871,14.57,3.37,31,66,0,0
5.5733e+05,2.6139e+08,2,5883,6014,14.64,3.11,31,66,0,0
5.5774e+05,2.615e+08,2,6004,5914,14.6,3.26,31,66,0,0
5.5815e+05,2.616e+08,2,5907,5842,14.63,3.24,31,66,0,0
5.5855e+05,2.617e+08,2,5849,6000,14.66,3.14,31,66,0,0
5.59e+05,2.6182e+08,2,5999,5957,14.6,2.89,31,66,0,0
5.5944e+05,2.6193e+08,2,5945,5785,14.6,3.06,31,66,0,0
5.5993e+05,2.6204e+08,2,5777,5700,14.57,2.88,31,66,0,0
5.6033e+05,2.6214e+08,2,5700,5714,14.58,2.83,31,67,0,0
5.6078e+05,2.6225e+08,2,5713,5700,14.57,2.95,31,67,0,0
5.6127e+05,2.6236e+08,2,5704,5757,14.6,2.92,31,67,0,0
5.6216e+05,2.6258e+08,2,5748,5557,14.54,2.8,31,67,0,0
5.6261e+05,2.6269e+08,2,5560,5600,14.57,3.01,31,67,0,0
5.6302e+05,2.628e+08,2,5588,5442,14.63,2.48,31,67,0,0
5.6347e+05,2.6291e+08,2,5435,5371,14.6,2.44,31,67,0,0
5.6392e+05,2.6302e+08,2,5367,5314,14.69,2.16,31,67,0,0
5.6436e+05,2.6313e+08,2,5308,5257,14.68,2.76,31,67,0,0
5.648e+05,2.6323e+08,2,5247,5142,14.71,1.71,31,67,0,0
5.6526e+05,2.6335e+08,2,5120,4914,14.72,1.69,31,67,0,0
5.6567e+05,2.6345e+08,2,4920,5071,14.64,2.15,31,67,0,0
5.6611e+05,2.6356e+08,2,5077,5142,14.69,2.37,31,68,0,0
5.6655e+05,2.6367e+08,2,5140,5128,14.64,2.44,31,68,0,0
5.67e+05,2.6378e+08,2,5170,5557,14.61,2.61,31,68,0,0
5.6785e+05,2.6399e+08,2,5548,5300,14.64,2.43,31,68,0,0
5.683e+05,2.641e+08,2,5298,5285,14.58,2.31,31,68,0,0
5.6879e+05,2.6422e+08,2,5308,5585,14.64,2.77,31,68,0,0
5.6915e+05,2.6432e+08,2,5590,5842,14.6,3.1,31,68,0,0
5.6971e+05,2.6453e+08,2,5774,5914,14.5,3.32,31,68,0,0
5.7016e+05,2.6464e+08,2,5916,5971,14.52,3.71,31,68,0,0
5.7064e+05,2.6476e+08,2,5974,6000,14.55,3.77,31,69,0,0
5.7105e+05,2.6486e+08,2,6009,6214,14.54,4.31,31,69,0,0
5.7198e+05,2.6509e+08,2,6216,6271,14.47,4.75,31,69,0,0
5.7283e+05,2.653e+08,2,6272,6314,14.45,4.3,31,69,0,0
5.7328e+05,2.6541e+08,2,6312,6228,14.42,4.23,31,69,0,0
5.7372e+05,2.6552e+08,2,6224,6171,14.39,4.4,31,69,0,0
5.7457e+05,2.6573e+08,2,6174,6457,14.45,4.95,31,70,0,0
5.7506e+05,2.6584e+08,2,6458,6514,14.45,4.95,31,70,0,0
5.7551e+05,2.6596e+08,2,6507,6442,14.53,4.43,31,70,0,0
5.7592e+05,2.6606e+08,2,6437,6228,14.5,4.51,31,70,0,0
5.7637e+05,2.6617e+08,2,6233,6300,14.42,4.67,31,70,0,0
5.7681e+05,2.6628e+08,2,6301,6385,14.47,4.49,31,70,0,0
5.773e+05,2.664e+08,2,6369,6214,14.5,4.13,31,71,0,0
5.7774e+05,2.6651e+08,2,6215,6242,14.47,4.26,31,71,0,0
5.782e+05,2.6662e+08,2,6254,6385,14.55,5.05,31,71,0,0
5.786e+05,2.6672e+08,2,6385,6400,14.57,4.47,31,71,0,0
5.7906e+05,2.6683e+08,2,6387,6228,14.6,4.15,31,71,0,0
5.795e+05,2.6694e+08,2,6226,6214,14.52,4.31,31,71,0,0
5.7995e+05,2.6705e+08,2,6212,6200,14.57,4.29,31,71,0,0
5.804e+05,2.6716e+08,2,6198,6171,14.51,4.23,31,72,0,0
5.808e+05,2.6726e+08,2,6170,6114,14.53,4.05,31,72,0,0
5.8129e+05,2.6738e+08,2,6108,6057,14.52,3.95,31,72,0,0
5.817e+05,2.6749e+08,2,6055,6028,14.58,3.81,31,72,0,0
5.8215e+05,2.6759e+08,2,6024,5942,14.57,3.77,31,72,0,0
5.83e+05,2.6781e+08,2,5941,5842,14.57,3.78,31,72,0,0
5.8349e+05,2.6793e+08,2,5838,5785,14.57,3.7,31,72,0,0
5.8394e+05,2.6804e+08,2,5793,5885,14.54,3.61,31,73,0,0
5.8434e+05,2.6814e+08,2,5885,5900,14.54,3.9,31,73,0,0
5.8483e+05,2.6826e+08,2,5901,5914,14.53,4,31,73,0,0
5.8524e+05,2.6836e+08,2,5912,5871,14.48,4.12,31,73,0,0
5.8569e+05,2.6847e+08,2,5887,6128,14.51,4.18,31,73,0,0
5.8614e+05,2.6858e+08,2,6124,6085,14.53,4.3,31,73,0,0
5.8654e+05,2.6869e+08,2,6078,5942,14.6,3.81,31,73,0,0
5.8704e+05,2.6881e+08,2,5960,6142,14.6,4.4,31,73,0,0
5.8744e+05,2.6891e+08,2,6125,5914,14.53,4.21,31,73,0,0
5.8833e+05,2.6912e+08,2,5915,6100,14.55,4.21,31,74,0,0
5.8878e+05,2.6924e+08,2,6097,6071,14.58,4.14,31,74,0,0
5.8925e+05,2.6935e+08,2,6066,6042,14.57,4.14,31,74,0,0
5.8966e+05,2.6945e+08,2,6043,6057,14.57,4.19,31,74,0,0
5.9007e+05,2.6956e+08,2,6057,6071,14.57,4.05,31,74,0,0
5.9052e+05,2.6967e+08,2,6071,6071,14.55,3.81,31,74,0,0
5.9093e+05,2.6977e+08,2,6060,5814,14.58,3.57,31,74,0,0
5.9134e+05,2.6988e+08,2,5814,5885,14.54,3.81,31,75,0,0
5.9179e+05,2.6999e+08,2,5889,5985,14.55,3.76,31,75,0,0
5.9223e+05,2.701e+08,2,5983,5971,14.57,3.54,31,75,0,0
5.9268e+05,2.702e+08,2,5971,5971,14.58,3.52,31,75,0,0
5.9313e+05,2.7032e+08,2,5966,5885,14.57,3.35,31,75,0,0
5.9358e+05,2.7043e+08,2,5870,5742,14.52,2.85,31,75,0,0
5.9403e+05,2.7054e+08,2,5733,5642,14.52,3.15,31,75,0,0
5.9443e+05,2.7064e+08,2,5640,5600,14.58,3.01,31,75,0,0
5.9489e+05,2.7076e+08,2,5602,5628,14.52,3.29,31,75,0,0
5.9537e+05,2.7087e+08,2,5652,5900,14.51,3.39,31,76,0,0
5.9577e+05,2.7097e+08,2,5897,5785,14.51,3.49,31,76,0,0
5.9622e+05,2.7108e+08,2,5801,6014,14.56,3.51,31,76,0,0
5.9667e+05,2.7119e+08,2,6006,5914,14.51,3.83,31,76,0,0
5.9708e+05,2.713e+08,2,5928,6057,14.55,4.06,31,76,0,0
5.9753e+05,2.7141e+08,2,6074,6228,14.55,4.14,31,76,0,0
5.9793e+05,2.7151e+08,2,6224,6114,14.52,4.27,31,76,0,0
