LineNo,TimeUS,Instance,RPM,RawRPM,Volt,Curr,Temp,CTot,MotTemp,Err
1572,1.9854e+07,4,0,0,15.7,0.04,30,0,0,0
1981,1.9956e+07,4,0,0,15.7,0.04,30,0,0,0
2444,2.0072e+07,4,0,0,15.7,0.04,30,0,0,0
2855,2.0173e+07,4,0,0,15.7,0.04,30,0,0,0
3308,2.0283e+07,4,0,0,15.7,0.04,30,0,0,0
3723,2.0385e+07,4,0,0,15.7,0.04,30,0,0,0
4169,2.0492e+07,4,0,0,15.7,0.04,30,0,0,0
4623,2.0607e+07,4,0,0,15.7,0.04,30,0,0,0
5041,2.071e+07,4,0,0,15.7,0.04,30,0,0,0
5458,2.0813e+07,4,0,0,15.71,0.04,30,0,0,0
5868,2.092e+07,4,0,0,15.71,0.04,30,0,0,0
6281,2.1023e+07,4,0,0,15.71,0.04,30,0,0,0
6730,2.1134e+07,4,0,0,15.7,0.04,30,0,0,0
7143,2.1238e+07,4,0,0,15.7,0.04,30,0,0,0
7564,2.1344e+07,4,0,0,15.71,0.04,30,0,0,0
7981,2.1449e+07,4,0,0,15.7,0.04,30,0,0,0
8396,2.1555e+07,4,0,0,15.7,0.04,30,0,0,0
8809,2.1659e+07,4,0,0,15.7,0.04,30,0,0,0
9258,2.177e+07,4,0,0,15.7,0.04,30,0,0,0
9514,2.1872e+07,4,0,0,15.7,0.04,30,0,0,0
9955,2.1978e+07,4,0,0,15.7,0.04,30,0,0,0
10376,2.2083e+07,4,0,0,15.7,0.04,30,0,0,0
10786,2.2185e+07,4,0,0,15.71,0.04,30,0,0,0
11243,2.2298e+07,4,0,0,15.7,0.04,30,0,0,0
11658,2.2402e+07,4,0,0,15.7,0.04,30,0,0,0
12110,2.2514e+07,4,0,0,15.7,0.04,30,0,0,0
12522,2.2617e+07,4,0,0,15.7,0.04,30,0,0,0
12971,2.2728e+07,4,0,0,15.71,0.04,30,0,0,0
13383,2.2835e+07,4,0,0,15.7,0.04,30,0,0,0
13798,2.2939e+07,4,0,0,15.71,0.04,30,0,0,0
14251,2.3051e+07,4,0,0,15.7,0.04,30,0,0,0
14661,2.3152e+07,4,0,0,15.7,0.04,30,0,0,0
15073,2.3254e+07,4,0,0,15.7,0.04,30,0,0,0
15528,2.3373e+07,4,0,0,15.7,0.04,30,0,0,0
15945,2.3475e+07,4,0,0,15.71,0.04,30,0,0,0
16327,2.3576e+07,4,0,0,15.7,0.04,30,0,0,0
16778,2.369e+07,4,0,0,15.7,0.04,30,0,0,0
17226,2.3802e+07,4,0,0,15.71,0.04,30,0,0,0
17642,2.3902e+07,4,0,0,15.7,0.04,30,0,0,0
18027,2.4004e+07,4,0,0,15.71,0.04,30,0,0,0
18522,2.4124e+07,4,0,0,15.71,0.04,30,0,0,0
18932,2.4229e+07,4,0,0,15.71,0.04,30,0,0,0
19345,2.4333e+07,4,0,0,15.7,0.04,30,0,0,0
19761,2.4438e+07,4,0,0,15.7,0.04,30,0,0,0
20213,2.4549e+07,4,0,0,15.7,0.04,30,0,0,0
20592,2.4647e+07,4,0,0,15.7,0.04,30,0,0,0
21045,2.4758e+07,4,0,0,15.7,0.04,30,0,0,0
21464,2.486e+07,4,0,0,15.7,0.04,30,0,0,0
21918,2.4974e+07,4,0,0,15.7,0.04,30,0,0,0
22373,2.5088e+07,4,0,0,15.7,0.04,30,0,0,0
23236,2.5302e+07,4,0,0,15.7,0.04,30,0,0,0
23698,2.5416e+07,4,0,0,15.7,0.04,30,0,0,0
24113,2.5516e+07,4,0,0,15.7,0.04,30,0,0,0
24520,2.5615e+07,4,0,0,15.7,0.04,30,0,0,0
24982,2.5731e+07,4,0,0,15.7,0.04,30,0,0,0
25846,2.5945e+07,4,0,0,15.7,0.04,30,0,0,0
26263,2.6051e+07,4,0,0,15.7,0.04,30,0,0,0
26674,2.6156e+07,4,0,0,15.7,0.04,30,0,0,0
27088,2.6256e+07,4,0,0,15.71,0.04,30,0,0,0
27505,2.6363e+07,4,0,0,15.71,0.04,30,0,0,0
27924,2.6469e+07,4,0,0,15.71,0.04,30,0,0,0
28372,2.658e+07,4,0,0,15.7,0.04,30,0,0,0
28786,2.6682e+07,4,0,0,15.71,0.04,30,0,0,0
29238,2.6794e+07,4,0,0,15.7,0.04,30,0,0,0
29656,2.6898e+07,4,0,0,15.71,0.04,30,0,0,0
30107,2.701e+07,4,0,0,15.7,0.04,30,0,0,0
30514,2.7114e+07,4,0,0,15.7,0.04,30,0,0,0
30927,2.7215e+07,4,0,0,15.7,0.04,30,0,0,0
31377,2.7329e+07,4,0,0,15.7,0.04,30,0,0,0
31789,2.7432e+07,4,0,0,15.7,0.04,30,0,0,0
32237,2.7543e+07,4,0,0,15.7,0.04,30,0,0,0
32653,2.7649e+07,4,0,0,15.7,0.04,30,0,0,0
33066,2.775e+07,4,0,0,15.7,0.04,30,0,0,0
33482,2.7855e+07,4,0,0,15.71,0.04,30,0,0,0
33936,2.7969e+07,4,0,0,15.7,0.04,30,0,0,0
34314,2.807e+07,4,0,0,15.7,0.04,30,0,0,0
34765,2.8182e+07,4,0,0,15.7,0.04,30,0,0,0
35179,2.8284e+07,4,0,0,15.7,0.04,30,0,0,0
35630,2.8395e+07,4,0,0,15.71,0.04,30,0,0,0
36047,2.8501e+07,4,0,0,15.7,0.04,30,0,0,0
36460,2.8604e+07,4,0,0,15.7,0.04,30,0,0,0
36914,2.8717e+07,4,0,0,15.7,0.04,30,0,0,0
37329,2.882e+07,4,0,0,15.7,0.04,30,0,0,0
37781,2.8933e+07,4,0,0,15.7,0.04,30,0,0,0
38194,2.9038e+07,4,0,0,15.71,0.04,30,0,0,0
38602,2.9139e+07,4,0,0,15.7,0.04,30,0,0,0
39053,2.925e+07,4,0,0,15.7,0.04,30,0,0,0
39463,2.9353e+07,4,0,0,15.7,0.04,30,0,0,0
39916,2.9471e+07,4,0,0,15.7,0.04,30,0,0,0
40322,2.957e+07,4,0,0,15.7,0.04,30,0,0,0
40736,2.9671e+07,4,0,0,15.71,0.04,30,0,0,0
41187,2.9786e+07,4,0,0,15.7,0.04,30,0,0,0
41599,2.9888e+07,4,0,0,15.7,0.04,30,0,0,0
42053,2.9998e+07,4,0,0,15.7,0.04,30,0,0,0
42470,3.0102e+07,4,0,0,15.7,0.04,30,0,0,0
42924,3.0213e+07,4,0,0,15.7,0.04,30,0,0,0
43341,3.0317e+07,4,0,0,15.7,0.04,30,0,0,0
43756,3.0421e+07,4,0,0,15.7,0.04,30,0,0,0
44176,3.0526e+07,4,0,0,15.7,0.04,30,0,0,0
44632,3.0639e+07,4,0,0,15.7,0.04,30,0,0,0
45046,3.0743e+07,4,0,0,15.7,0.04,30,0,0,0
45461,3.0846e+07,4,0,0,15.7,0.04,30,0,0,0
45909,3.0957e+07,4,0,0,15.7,0.04,30,0,0,0
46320,3.1062e+07,4,0,0,15.7,0.04,30,0,0,0
46731,3.1167e+07,4,0,0,15.7,0.04,30,0,0,0
47188,3.1282e+07,4,0,0,15.7,0.04,30,0,0,0
47597,3.1382e+07,4,0,0,15.7,0.04,30,0,0,0
48024,3.1492e+07,4,0,0,15.7,0.04,30,0,0,0
48434,3.1594e+07,4,0,0,15.7,0.04,30,0,0,0
48888,3.1706e+07,4,0,0,15.7,0.04,30,0,0,0
49343,3.1821e+07,4,0,0,15.7,0.04,30,0,0,0
49727,3.1922e+07,4,0,0,15.7,0.04,30,0,0,0
50138,3.2023e+07,4,0,0,15.7,0.04,30,0,0,0
50590,3.2136e+07,4,0,0,15.7,0.04,30,0,0,0
51009,3.2238e+07,4,0,0,15.7,0.04,30,0,0,0
51425,3.2343e+07,4,0,0,15.7,0.04,30,0,0,0
51876,3.2456e+07,4,0,0,15.7,0.04,30,0,0,0
52287,3.256e+07,4,0,0,15.7,0.04,30,0,0,0
53162,3.2772e+07,4,0,0,15.7,0.04,30,0,0,0
53578,3.2876e+07,4,0,0,15.7,0.04,30,0,0,0
54023,3.2986e+07,4,0,0,15.7,0.04,30,0,0,0
54438,3.309e+07,4,0,0,15.7,0.04,30,0,0,0
54887,3.3202e+07,4,0,0,15.7,0.04,30,0,0,0
55303,3.3306e+07,4,0,0,15.7,0.04,30,0,0,0
55713,3.3407e+07,4,0,0,15.7,0.04,30,0,0,0
56140,3.3518e+07,4,0,0,15.7,0.04,30,0,0,0
56580,3.3628e+07,4,0,0,15.7,0.04,30,0,0,0
56999,3.3735e+07,4,0,0,15.7,0.04,30,0,0,0
57415,3.3839e+07,4,0,0,15.69,0.04,30,0,0,0
57830,3.3943e+07,4,0,0,15.7,0.04,30,0,0,0
58283,3.4058e+07,4,0,0,15.7,0.04,30,0,0,0
58694,3.4162e+07,4,0,0,15.7,0.04,30,0,0,0
59112,3.4263e+07,4,0,0,15.7,0.04,30,0,0,0
59976,3.4481e+07,4,0,0,15.7,0.04,30,0,0,0
60427,3.4593e+07,4,0,0,15.7,0.04,30,0,0,0
1.1587e+05,1.0782e+08,4,0,0,15.7,0.03,29,0,0,0
1.1596e+05,1.0785e+08,4,0,0,15.7,0.04,29,0,0,0
1.1645e+05,1.0796e+08,4,0,0,15.71,0.03,29,0,0,0
1.169e+05,1.0807e+08,4,0,0,15.71,0.03,29,0,0,0
1.1736e+05,1.0817e+08,4,0,0,15.71,0.03,29,0,0,0
1.1781e+05,1.0828e+08,4,0,0,15.71,0.03,29,0,0,0
1.1831e+05,1.0839e+08,4,0,0,15.7,0.03,29,0,0,0
1.1876e+05,1.085e+08,4,0,0,15.7,0.03,29,0,0,0
1.1922e+05,1.086e+08,4,0,0,15.71,0.03,29,0,0,0
1.1968e+05,1.0871e+08,4,0,0,15.7,0.03,29,0,0,0
1.2013e+05,1.0882e+08,4,0,0,15.71,0.03,29,0,0,0
1.2055e+05,1.0892e+08,4,0,0,15.71,0.04,29,0,0,0
1.2105e+05,1.0903e+08,4,0,0,15.71,0.04,29,0,0,0
1.215e+05,1.0914e+08,4,0,0,15.71,0.03,28,0,0,0
1.2245e+05,1.0936e+08,4,0,0,15.71,0.03,29,0,0,0
1.229e+05,1.0946e+08,4,0,0,15.71,0.03,29,0,0,0
1.234e+05,1.0957e+08,4,0,0,15.7,0.03,29,0,0,0
1.2389e+05,1.0968e+08,4,0,0,15.71,0.03,29,0,0,0
1.2434e+05,1.0978e+08,4,0,0,15.71,0.03,29,0,0,0
1.2484e+05,1.0989e+08,4,0,0,15.71,0.01,29,0,0,0
1.2529e+05,1.1e+08,4,17,271,15.7,0.05,29,0,0,0
1.2575e+05,1.101e+08,4,301,728,15.67,0.11,29,0,0,0
1.2625e+05,1.1021e+08,4,759,1085,15.69,0.15,29,0,0,0
1.2671e+05,1.1032e+08,4,1098,1200,15.69,0.11,29,0,0,0
1.2716e+05,1.1043e+08,4,1203,1242,15.69,0.11,29,0,0,0
1.2758e+05,1.1052e+08,4,1242,1257,15.69,0.11,29,0,0,0
1.2807e+05,1.1064e+08,4,1258,1285,15.69,0.11,29,0,0,0
1.284e+05,1.1074e+08,4,1285,1285,15.68,0.1,29,0,0,0
1.289e+05,1.1086e+08,4,1285,1285,15.69,0.1,29,0,0,0
1.2935e+05,1.1096e+08,4,1285,1285,15.69,0.1,29,0,0,0
1.2981e+05,1.1107e+08,4,1285,1285,15.69,0.1,29,0,0,0
1.3026e+05,1.1117e+08,4,1285,1285,15.69,0.11,29,0,0,0
1.3072e+05,1.1128e+08,4,1285,1285,15.69,0.11,29,0,0,0
1.3121e+05,1.1139e+08,4,1285,1285,15.69,0.1,29,0,0,0
1.3166e+05,1.115e+08,4,1285,1285,15.69,0.1,29,0,0,0
1.3216e+05,1.1161e+08,4,1285,1285,15.69,0.1,29,0,0,0
1.3266e+05,1.1172e+08,4,1285,1285,15.69,0.1,29,0,0,0
1.3356e+05,1.1193e+08,4,1285,1285,15.69,0.11,29,0,0,0
1.3406e+05,1.1204e+08,4,1285,1285,15.68,0.11,29,0,0,0
1.3448e+05,1.1214e+08,4,1285,1285,15.69,0.1,29,0,0,0
1.3497e+05,1.1226e+08,4,1285,1285,15.69,0.1,29,0,0,0
1.3542e+05,1.1236e+08,4,1283,1271,15.69,0.1,29,0,0,0
1.3588e+05,1.1247e+08,4,1271,1271,15.69,0.11,29,0,0,0
1.3633e+05,1.1257e+08,4,1271,1285,15.69,0.1,29,0,0,0
1.3679e+05,1.1268e+08,4,1284,1271,15.69,0.1,29,0,0,0
1.377e+05,1.1289e+08,4,1271,1271,15.69,0.11,29,0,0,0
1.3819e+05,1.13e+08,4,1271,1271,15.69,0.11,29,0,0,0
1.3869e+05,1.1311e+08,4,1271,1271,15.68,0.1,29,0,0,0
1.3912e+05,1.1321e+08,4,1215,657,15.71,0.01,29,0,0,0
1.3953e+05,1.1332e+08,4,639,214,15.7,0.01,29,0,0,0
1.3998e+05,1.1343e+08,4,199,0,15.7,0.03,29,0,0,0
1.404e+05,1.1354e+08,4,0,0,15.7,0.03,29,0,0,0
1.4082e+05,1.1364e+08,4,0,0,15.7,0.03,29,0,0,0
1.4126e+05,1.1375e+08,4,0,0,15.7,0.03,29,0,0,0
1.4167e+05,1.1385e+08,4,0,0,15.7,0.03,29,0,0,0
1.4214e+05,1.1397e+08,4,0,0,15.7,0.03,29,0,0,0
1.4251e+05,1.1406e+08,4,0,0,15.7,0.03,29,0,0,0
1.4338e+05,1.1428e+08,4,0,0,15.7,0.03,29,0,0,0
1.4383e+05,1.1439e+08,4,0,0,15.7,0.03,29,0,0,0
1.4424e+05,1.145e+08,4,0,0,15.7,0.03,29,0,0,0
1.4466e+05,1.146e+08,4,0,0,15.7,0.03,29,0,0,0
1.4508e+05,1.1471e+08,4,0,0,15.7,0.03,29,0,0,0
1.455e+05,1.1482e+08,4,0,0,15.71,0.03,29,0,0,0
1.4591e+05,1.1492e+08,4,0,0,15.7,0.03,29,0,0,0
1.4637e+05,1.1504e+08,4,0,0,15.71,0.03,29,0,0,0
1.4678e+05,1.1514e+08,4,0,0,15.7,0.03,29,0,0,0
1.4719e+05,1.1524e+08,4,0,0,15.7,0.03,29,0,0,0
1.4761e+05,1.1535e+08,4,0,0,15.7,0.03,29,0,0,0
1.4806e+05,1.1547e+08,4,0,0,15.7,0.03,28,0,0,0
1.4848e+05,1.1557e+08,4,0,0,15.7,0.03,29,0,0,0
1.4889e+05,1.1567e+08,4,0,0,15.7,0.03,29,0,0,0
1.4934e+05,1.1579e+08,4,0,0,15.71,0.03,29,0,0,0
1.4976e+05,1.159e+08,4,0,0,15.7,0.04,29,0,0,0
1.5018e+05,1.16e+08,4,0,0,15.7,0.04,29,0,0,0
1.5059e+05,1.1611e+08,4,0,0,15.7,0.04,29,0,0,0
1.5105e+05,1.1622e+08,4,0,0,15.7,0.04,29,0,0,0
1.5146e+05,1.1633e+08,4,0,0,15.71,0.04,29,0,0,0
1.5191e+05,1.1644e+08,4,0,0,15.7,0.04,29,0,0,0
1.5233e+05,1.1654e+08,4,0,0,15.7,0.04,29,0,0,0
1.5274e+05,1.1665e+08,4,0,0,15.7,0.04,29,0,0,0
1.5319e+05,1.1676e+08,4,0,0,15.7,0.04,29,0,0,0
1.5361e+05,1.1687e+08,4,0,0,15.71,0.04,28,0,0,0
1.5402e+05,1.1697e+08,4,0,0,15.7,0.03,29,0,0,0
1.5444e+05,1.1708e+08,4,0,0,15.7,0.03,29,0,0,0
1.5489e+05,1.1719e+08,4,0,0,15.7,0.04,29,0,0,0
1.553e+05,1.173e+08,4,0,0,15.7,0.04,29,0,0,0
1.5572e+05,1.174e+08,4,0,0,15.7,0.04,29,0,0,0
1.5617e+05,1.1751e+08,4,0,0,15.7,0.04,28,0,0,0
1.5658e+05,1.1761e+08,4,0,0,15.71,0.04,29,0,0,0
1.57e+05,1.1772e+08,4,0,0,15.7,0.04,29,0,0,0
1.5742e+05,1.1782e+08,4,0,0,15.71,0.03,29,0,0,0
1.5829e+05,1.1805e+08,4,0,0,15.7,0.03,29,0,0,0
1.5866e+05,1.1814e+08,4,0,0,15.7,0.04,29,0,0,0
1.5912e+05,1.1826e+08,4,0,0,15.71,0.04,28,0,0,0
1.5953e+05,1.1836e+08,4,0,0,15.7,0.04,29,0,0,0
1.5999e+05,1.1848e+08,4,0,0,15.71,0.03,28,0,0,0
1.604e+05,1.1858e+08,4,0,0,15.7,0.03,29,0,0,0
1.6085e+05,1.1869e+08,4,0,0,15.7,0.04,29,0,0,0
1.6126e+05,1.1879e+08,4,0,0,15.7,0.04,29,0,0,0
1.6168e+05,1.189e+08,4,0,0,15.7,0.03,29,0,0,0
1.6213e+05,1.1901e+08,4,0,0,15.7,0.03,29,0,0,0
1.6254e+05,1.1912e+08,4,0,0,15.7,0.04,28,0,0,0
1.6296e+05,1.1922e+08,4,0,0,15.71,0.04,28,0,0,0
1.634e+05,1.1933e+08,4,0,0,15.71,0.03,29,0,0,0
1.6382e+05,1.1943e+08,4,0,0,15.7,0.03,29,0,0,0
1.6423e+05,1.1954e+08,4,0,0,15.7,0.04,28,0,0,0
1.6468e+05,1.1966e+08,4,0,0,15.71,0.04,28,0,0,0
1.651e+05,1.1976e+08,4,0,0,15.7,0.03,28,0,0,0
1.6548e+05,1.1986e+08,4,0,0,15.7,0.03,29,0,0,0
1.659e+05,1.1997e+08,4,0,0,15.7,0.03,28,0,0,0
1.6636e+05,1.2009e+08,4,0,0,15.7,0.03,29,0,0,0
1.6677e+05,1.2019e+08,4,0,0,15.71,0.03,28,0,0,0
1.6718e+05,1.2029e+08,4,0,0,15.7,0.03,29,0,0,0
1.676e+05,1.204e+08,4,0,0,15.71,0.04,29,0,0,0
1.6799e+05,1.205e+08,4,0,0,15.7,0.03,29,0,0,0
1.6845e+05,1.2062e+08,4,0,0,15.7,0.04,28,0,0,0
1.6889e+05,1.2073e+08,4,0,0,15.7,0.03,29,0,0,0
1.6931e+05,1.2083e+08,4,0,0,15.71,0.03,28,0,0,0
1.6977e+05,1.2094e+08,4,0,0,15.71,0.03,28,0,0,0
1.7018e+05,1.2104e+08,4,0,0,15.7,0.04,28,0,0,0
1.7063e+05,1.2116e+08,4,0,0,15.71,0.04,28,0,0,0
1.7104e+05,1.2126e+08,4,0,0,15.71,0.04,28,0,0,0
1.7146e+05,1.2137e+08,4,0,0,15.7,0.04,28,0,0,0
1.7232e+05,1.2158e+08,4,0,0,15.71,0.03,28,0,0,0
1.7274e+05,1.2169e+08,4,0,0,15.7,0.03,28,0,0,0
1.7315e+05,1.2179e+08,4,0,0,15.71,0.03,28,0,0,0
1.7356e+05,1.219e+08,4,0,0,15.71,0.03,29,0,0,0
1.7402e+05,1.2201e+08,4,0,0,15.7,0.03,28,0,0,0
1.7443e+05,1.2211e+08,4,0,0,15.71,0.03,29,0,0,0
1.7489e+05,1.2222e+08,4,0,0,15.7,0.03,28,0,0,0
1.7526e+05,1.2232e+08,4,0,0,15.71,0.03,28,0,0,0
1.7572e+05,1.2243e+08,4,0,0,15.7,0.03,28,0,0,0
1.7617e+05,1.2255e+08,4,0,0,15.7,0.03,28,0,0,0
1.7661e+05,1.2266e+08,4,0,0,15.71,0.03,28,0,0,0
1.7703e+05,1.2276e+08,4,0,0,15.71,0.03,28,0,0,0
1.7741e+05,1.2286e+08,4,0,0,15.71,0.03,28,0,0,0
1.7787e+05,1.2297e+08,4,0,0,15.71,0.03,28,0,0,0
1.7832e+05,1.2308e+08,4,0,0,15.71,0.03,28,0,0,0
1.7873e+05,1.2318e+08,4,0,0,15.71,0.03,28,0,0,0
1.7914e+05,1.2329e+08,4,0,0,15.71,0.03,28,0,0,0
1.796e+05,1.234e+08,4,0,0,15.71,0.04,28,0,0,0
1.8001e+05,1.2351e+08,4,0,0,15.7,0.03,28,0,0,0
1.8043e+05,1.2361e+08,4,0,0,15.71,0.03,28,0,0,0
1.8088e+05,1.2373e+08,4,0,0,15.71,0.03,28,0,0,0
1.8171e+05,1.2393e+08,4,0,0,15.71,0.03,28,0,0,0
1.8219e+05,1.2405e+08,4,0,0,15.7,0.03,28,0,0,0
1.8261e+05,1.2415e+08,4,0,0,15.71,0.03,28,0,0,0
1.8302e+05,1.2426e+08,4,0,0,15.71,0.03,28,0,0,0
1.8344e+05,1.2437e+08,4,0,0,15.71,0.03,28,0,0,0
1.8385e+05,1.2447e+08,4,0,0,15.71,0.03,28,0,0,0
1.843e+05,1.2458e+08,4,0,0,15.71,0.03,28,0,0,0
1.8471e+05,1.2468e+08,4,0,0,15.71,0.03,28,0,0,0
1.8517e+05,1.248e+08,4,0,0,15.7,0.03,28,0,0,0
1.8558e+05,1.249e+08,4,0,0,15.71,0.03,28,0,0,0
1.8604e+05,1.2501e+08,4,0,0,15.7,0.03,28,0,0,0
1.8645e+05,1.2512e+08,4,0,0,15.7,0.03,28,0,0,0
1.8686e+05,1.2522e+08,4,0,0,15.71,0.03,28,0,0,0
1.8732e+05,1.2534e+08,4,0,0,15.71,0.03,28,0,0,0
1.8774e+05,1.2544e+08,4,0,0,15.7,0.03,28,0,0,0
1.8815e+05,1.2555e+08,4,0,0,15.7,0.03,28,0,0,0
1.8898e+05,1.2576e+08,4,0,0,15.7,0.03,28,0,0,0
1.8944e+05,1.2587e+08,4,0,0,15.7,0.03,28,0,0,0
1.8985e+05,1.2597e+08,4,0,0,15.71,0.03,28,0,0,0
1.903e+05,1.2609e+08,4,0,0,15.71,0.03,28,0,0,0
1.9072e+05,1.2619e+08,4,0,0,15.71,0.03,28,0,0,0
1.9114e+05,1.263e+08,4,0,0,15.71,0.03,28,0,0,0
1.9156e+05,1.264e+08,4,0,0,15.71,0.03,28,0,0,0
1.92e+05,1.2652e+08,4,0,0,15.7,0.03,28,0,0,0
1.9242e+05,1.2662e+08,4,0,0,15.71,0.03,28,0,0,0
1.9283e+05,1.2672e+08,4,0,0,15.71,0.03,28,0,0,0
1.9328e+05,1.2684e+08,4,0,0,15.7,0.03,28,0,0,0
1.9364e+05,1.2695e+08,4,0,0,15.7,0.03,28,0,0,0
1.9405e+05,1.2705e+08,4,0,0,15.71,0.03,28,0,0,0
1.9447e+05,1.2716e+08,4,0,0,15.71,0.03,28,0,0,0
1.9492e+05,1.2727e+08,4,0,0,15.71,0.03,28,0,0,0
1.9534e+05,1.2738e+08,4,0,0,15.71,0.03,28,0,0,0
1.9576e+05,1.2748e+08,4,0,0,15.71,0.03,28,0,0,0
1.9617e+05,1.2758e+08,4,0,0,15.71,0.03,28,0,0,0
1.9658e+05,1.2769e+08,4,0,0,15.7,0.03,28,0,0,0
1.9704e+05,1.278e+08,4,0,0,15.71,0.03,28,0,0,0
1.9749e+05,1.2792e+08,4,0,0,15.7,0.03,28,0,0,0
1.979e+05,1.2802e+08,4,0,0,15.71,0.03,28,0,0,0
1.9831e+05,1.2812e+08,4,0,0,15.7,0.03,28,0,0,0
1.9841e+05,1.7388e+08,4,0,0,15.7,0.03,29,0,0,0
1.9862e+05,1.7393e+08,4,0,0,15.7,0.03,29,0,0,0
1.9903e+05,1.7403e+08,4,0,0,15.7,0.03,29,0,0,0
1.9951e+05,1.7414e+08,4,0,0,15.7,0.03,29,1,0,0
1.9997e+05,1.7424e+08,4,0,0,15.7,0.03,29,1,0,0
2.0046e+05,1.7436e+08,4,0,0,15.7,0.03,29,1,0,0
2.0092e+05,1.7446e+08,4,0,0,15.7,0.03,29,1,0,0
2.0137e+05,1.7457e+08,4,0,0,15.7,0.03,29,1,0,0
2.0182e+05,1.7467e+08,4,0,0,15.7,0.03,29,1,0,0
2.0232e+05,1.7478e+08,4,0,0,15.7,0.03,29,1,0,0
2.0278e+05,1.7489e+08,4,0,0,15.7,0.03,29,1,0,0
2.0366e+05,1.751e+08,4,0,0,15.7,0.03,29,1,0,0
2.0416e+05,1.7521e+08,4,0,0,15.7,0.03,29,1,0,0
2.0461e+05,1.7532e+08,4,0,0,15.7,0.03,29,1,0,0
2.0506e+05,1.7542e+08,4,0,0,15.7,0.03,29,1,0,0
2.0552e+05,1.7553e+08,4,0,0,15.7,0.04,29,1,0,0
2.0647e+05,1.7574e+08,4,0,0,15.7,0.03,29,1,0,0
2.0693e+05,1.7585e+08,4,0,0,15.7,0.04,29,1,0,0
2.0783e+05,1.7606e+08,4,6,271,15.69,0.06,29,1,0,0
2.0833e+05,1.7617e+08,4,313,771,15.67,0.12,29,1,0,0
2.0878e+05,1.7627e+08,4,793,1128,15.67,0.14,29,1,0,0
2.0928e+05,1.7638e+08,4,1135,1214,15.68,0.11,29,1,0,0
2.1003e+05,1.7659e+08,4,1257,1271,15.69,0.11,29,1,0,0
2.1048e+05,1.767e+08,4,1271,1285,15.69,0.1,29,1,0,0
2.1094e+05,1.768e+08,4,1285,1285,15.68,0.1,29,1,0,0
2.114e+05,1.7691e+08,4,1285,1285,15.68,0.1,29,1,0,0
2.119e+05,1.7702e+08,4,1285,1285,15.68,0.1,29,1,0,0
2.1238e+05,1.7713e+08,4,1285,1300,15.68,0.1,29,1,0,0
2.1289e+05,1.7724e+08,4,1298,1285,15.69,0.1,29,1,0,0
2.133e+05,1.7734e+08,4,1285,1285,15.69,0.1,29,1,0,0
2.138e+05,1.7745e+08,4,1285,1285,15.68,0.1,29,1,0,0
2.1426e+05,1.7756e+08,4,1285,1285,15.68,0.1,29,1,0,0
2.1471e+05,1.7766e+08,4,1285,1285,15.69,0.1,29,1,0,0
2.1517e+05,1.7776e+08,4,1285,1285,15.69,0.1,29,1,0,0
2.1562e+05,1.7787e+08,4,1285,1285,15.69,0.1,29,1,0,0
2.1612e+05,1.7798e+08,4,1285,1285,15.69,0.1,29,1,0,0
2.1657e+05,1.7809e+08,4,1285,1285,15.69,0.1,29,1,0,0
2.1707e+05,1.782e+08,4,1285,1285,15.68,0.1,29,1,0,0
2.1753e+05,1.7831e+08,4,1285,1285,15.68,0.1,29,1,0,0
2.1798e+05,1.7841e+08,4,1285,1285,15.68,0.1,29,1,0,0
2.1843e+05,1.7851e+08,4,1285,1285,15.68,0.1,29,1,0,0
2.1893e+05,1.7862e+08,4,1285,1285,15.68,0.1,29,1,0,0
2.1938e+05,1.7873e+08,4,1285,1285,15.69,0.1,29,1,0,0
2.1984e+05,1.7884e+08,4,1285,1285,15.68,0.1,29,1,0,0
2.2124e+05,1.7916e+08,4,1285,1285,15.68,0.1,29,1,0,0
2.2173e+05,1.7927e+08,4,1285,1285,15.69,0.1,29,1,0,0
2.2263e+05,1.7948e+08,4,1285,1285,15.69,0.1,29,1,0,0
2.2309e+05,1.7959e+08,4,1285,1285,15.68,0.1,29,1,0,0
2.2359e+05,1.797e+08,4,1285,1285,15.68,0.1,29,1,0,0
2.2404e+05,1.798e+08,4,1285,1285,15.68,0.1,29,1,0,0
2.245e+05,1.7991e+08,4,1285,1285,15.67,0.1,29,1,0,0
2.2496e+05,1.8002e+08,4,1285,1300,15.68,0.1,29,1,0,0
2.2541e+05,1.8012e+08,4,1299,1285,15.69,0.1,29,1,0,0
2.259e+05,1.8023e+08,4,1285,1285,15.69,0.1,29,1,0,0
2.2635e+05,1.8034e+08,4,1285,1285,15.69,0.1,29,1,0,0
2.2681e+05,1.8045e+08,4,1285,1285,15.68,0.1,29,1,0,0
2.2727e+05,1.8056e+08,4,1286,1300,15.69,0.1,29,1,0,0
2.2769e+05,1.8066e+08,4,1300,1300,15.68,0.1,29,1,0,0
2.2819e+05,1.8077e+08,4,1299,1285,15.68,0.1,29,1,0,0
2.2864e+05,1.8088e+08,4,1285,1285,15.68,0.1,29,1,0,0
2.2959e+05,1.811e+08,4,1285,1285,15.69,0.1,29,1,0,0
2.3005e+05,1.8121e+08,4,1285,1285,15.68,0.1,29,1,0,0
2.305e+05,1.8131e+08,4,1285,1300,15.68,0.1,29,1,0,0
2.31e+05,1.8143e+08,4,1300,1300,15.69,0.1,29,1,0,0
2.3145e+05,1.8154e+08,4,1298,1285,15.68,0.1,29,1,0,0
2.3191e+05,1.8164e+08,4,1285,1300,15.68,0.1,29,1,0,0
2.3236e+05,1.8175e+08,4,1300,1300,15.68,0.1,29,1,0,0
2.3281e+05,1.8186e+08,4,1300,1300,15.67,0.1,29,1,0,0
2.3328e+05,1.8196e+08,4,1298,1285,15.68,0.1,29,1,0,0
2.3378e+05,1.8208e+08,4,1285,1285,15.68,0.1,29,1,0,0
2.3423e+05,1.8218e+08,4,1285,1285,15.68,0.1,29,1,0,0
2.3465e+05,1.8228e+08,4,1285,1300,15.69,0.1,30,1,0,0
2.351e+05,1.8238e+08,4,1299,1285,15.68,0.1,29,1,0,0
2.3559e+05,1.825e+08,4,1285,1285,15.67,0.11,29,1,0,0
2.3604e+05,1.826e+08,4,1285,1285,15.68,0.11,29,1,0,0
2.3654e+05,1.8271e+08,4,1285,1285,15.69,0.11,29,1,0,0
2.3699e+05,1.8282e+08,4,1285,1285,15.67,0.11,30,1,0,0
2.3749e+05,1.8293e+08,4,1285,1285,15.67,0.1,29,1,0,0
2.3794e+05,1.8304e+08,4,1285,1285,15.68,0.11,29,1,0,0
2.3843e+05,1.8315e+08,4,1285,1285,15.67,0.1,29,1,0,0
2.3889e+05,1.8326e+08,4,1286,1300,15.69,0.1,29,1,0,0
2.3938e+05,1.8337e+08,4,1300,1300,15.68,0.1,30,1,0,0
2.398e+05,1.8347e+08,4,1298,1285,15.68,0.11,29,1,0,0
2.4025e+05,1.8358e+08,4,1285,1300,15.69,0.1,30,1,0,0
2.4074e+05,1.8369e+08,4,1300,1300,15.69,0.1,29,1,0,0
2.4124e+05,1.838e+08,4,1300,1300,15.68,0.1,29,1,0,0
2.4169e+05,1.8391e+08,4,1245,457,15.7,0,30,1,0,0
2.4215e+05,1.8402e+08,4,439,185,15.7,0.02,29,1,0,0
2.426e+05,1.8412e+08,4,173,0,15.7,0.03,29,1,0,0
2.4306e+05,1.8423e+08,4,0,0,15.7,0.03,29,1,0,0
2.4401e+05,1.8446e+08,4,0,0,15.69,0.03,29,1,0,0
2.4446e+05,1.8457e+08,4,0,0,15.7,0.03,29,1,0,0
2.4487e+05,1.8467e+08,4,0,0,15.7,0.03,30,1,0,0
2.4537e+05,1.8479e+08,4,0,0,15.7,0.03,29,1,0,0
2.4582e+05,1.8489e+08,4,0,0,15.69,0.04,30,1,0,0
2.4627e+05,1.85e+08,4,0,0,15.7,0.04,29,1,0,0
2.4677e+05,1.8511e+08,4,0,0,15.7,0.04,30,1,0,0
2.4722e+05,1.8522e+08,4,0,0,15.69,0.03,29,1,0,0
2.4768e+05,1.8533e+08,4,0,0,15.7,0.04,30,1,0,0
2.4814e+05,1.8544e+08,4,0,0,15.69,0.04,29,1,0,0
2.4859e+05,1.8555e+08,4,0,0,15.7,0.03,30,1,0,0
2.4904e+05,1.8566e+08,4,0,0,15.7,0.03,29,1,0,0
2.495e+05,1.8576e+08,4,0,0,15.7,0.03,29,1,0,0
2.4991e+05,1.8587e+08,4,0,0,15.7,0.03,29,1,0,0
2.5041e+05,1.8598e+08,4,0,0,15.7,0.04,29,1,0,0
2.509e+05,1.8609e+08,4,0,0,15.7,0.03,29,1,0,0
2.5136e+05,1.862e+08,4,0,0,15.7,0.03,29,1,0,0
2.5177e+05,1.863e+08,4,0,0,15.7,0.04,29,1,0,0
2.5222e+05,1.8641e+08,4,0,0,15.7,0.04,29,1,0,0
2.5271e+05,1.8652e+08,4,0,0,15.7,0.03,29,1,0,0
2.5317e+05,1.8663e+08,4,0,0,15.7,0.03,29,1,0,0
2.5362e+05,1.8674e+08,4,0,0,15.7,0.04,29,1,0,0
2.5408e+05,1.8685e+08,4,0,0,15.7,0.04,29,1,0,0
2.5453e+05,1.8695e+08,4,0,0,15.7,0.04,29,1,0,0
2.5502e+05,1.8707e+08,4,0,0,15.69,0.04,29,1,0,0
2.5549e+05,1.8718e+08,4,0,0,15.7,0.04,30,1,0,0
2.5594e+05,1.8729e+08,4,0,0,15.7,0.04,29,1,0,0
2.564e+05,1.8739e+08,4,0,0,15.7,0.04,29,1,0,0
2.569e+05,1.8751e+08,4,0,0,15.7,0.04,29,1,0,0
2.5735e+05,1.8761e+08,4,0,0,15.7,0.04,29,1,0,0
2.578e+05,1.8772e+08,4,0,0,15.7,0.04,29,1,0,0
2.583e+05,1.8783e+08,4,0,0,15.7,0.04,29,1,0,0
2.5872e+05,1.8793e+08,4,0,0,15.7,0.03,29,1,0,0
2.5921e+05,1.8805e+08,4,0,0,15.7,0.04,29,1,0,0
2.5967e+05,1.8816e+08,4,0,0,15.7,0.04,29,1,0,0
2.6008e+05,1.8825e+08,4,0,0,15.7,0.03,29,1,0,0
2.6058e+05,1.8837e+08,4,0,0,15.7,0.03,29,1,0,0
2.6103e+05,1.8848e+08,4,0,0,15.7,0.03,29,1,0,0
2.6153e+05,1.8859e+08,4,0,0,15.7,0.03,29,1,0,0
2.6194e+05,1.8868e+08,4,0,0,15.7,0.03,29,1,0,0
2.6244e+05,1.888e+08,4,0,0,15.7,0.03,29,1,0,0
2.6289e+05,1.8891e+08,4,0,0,15.7,0.03,29,1,0,0
2.6339e+05,1.8902e+08,4,0,0,15.7,0.03,29,1,0,0
2.6384e+05,1.8912e+08,4,0,0,15.7,0.02,29,1,0,0
2.643e+05,1.8923e+08,4,5,128,15.69,0.03,29,1,0,0
2.6476e+05,1.8934e+08,4,162,528,15.69,0.09,29,1,0,0
2.6521e+05,1.8944e+08,4,535,985,15.65,0.16,30,1,0,0
2.657e+05,1.8956e+08,4,998,1185,15.68,0.12,30,1,0,0
2.6612e+05,1.8966e+08,4,1185,1242,15.67,0.11,30,1,0,0
2.6662e+05,1.8977e+08,4,1244,1271,15.68,0.11,30,1,0,0
2.6711e+05,1.8988e+08,4,1271,1285,15.67,0.1,30,1,0,0
2.6756e+05,1.8999e+08,4,1285,1285,15.68,0.1,30,1,0,0
2.6801e+05,1.9009e+08,4,1285,1300,15.68,0.1,30,1,0,0
2.6851e+05,1.902e+08,4,1298,1285,15.68,0.1,30,1,0,0
2.6896e+05,1.9031e+08,4,1285,1285,15.68,0.1,30,1,0,0
2.6924e+05,1.9042e+08,4,1285,1285,15.68,0.1,29,1,0,0
2.6965e+05,1.9052e+08,4,1285,1285,15.68,0.1,30,1,0,0
2.7014e+05,1.9063e+08,4,1285,1285,15.69,0.1,30,1,0,0
2.7059e+05,1.9074e+08,4,1285,1285,15.68,0.1,30,1,0,0
2.7109e+05,1.9085e+08,4,1286,1300,15.69,0.1,30,1,0,0
2.7154e+05,1.9096e+08,4,1299,1285,15.68,0.1,30,1,0,0
2.7204e+05,1.9107e+08,4,1285,1285,15.69,0.1,30,1,0,0
2.7249e+05,1.9118e+08,4,1285,1285,15.68,0.1,30,1,0,0
2.7345e+05,1.914e+08,4,1285,1285,15.68,0.1,30,1,0,0
2.7386e+05,1.9149e+08,4,1285,1285,15.68,0.1,30,1,0,0
2.7432e+05,1.9161e+08,4,1285,1285,15.69,0.1,29,1,0,0
2.7481e+05,1.9172e+08,4,1285,1300,15.68,0.1,30,1,0,0
2.7527e+05,1.9182e+08,4,1300,1300,15.69,0.11,30,1,0,0
2.7572e+05,1.9193e+08,4,1313,1514,15.66,0.23,30,1,0,0
2.7622e+05,1.9204e+08,4,1563,2100,15.6,0.48,30,1,0,0
2.7668e+05,1.9215e+08,4,2122,2342,15.51,0.54,30,1,0,0
2.7712e+05,1.9226e+08,4,2347,2842,15.48,1.16,30,1,0,0
2.7758e+05,1.9236e+08,4,2870,3242,15.41,1.3,30,1,0,0
2.7799e+05,1.9246e+08,4,3252,3871,15.3,1.89,30,1,0,0
2.7849e+05,1.9258e+08,4,3927,4500,15.15,2.63,30,1,0,0
2.7898e+05,1.927e+08,4,4551,5100,15.02,3.22,30,1,0,0
2.7943e+05,1.928e+08,4,5120,5571,14.95,3.86,30,1,0,0
2.7989e+05,1.9292e+08,4,5599,5885,14.91,3.76,30,1,0,0
2.8034e+05,1.9302e+08,4,5897,6014,14.98,3.42,30,1,0,0
2.808e+05,1.9313e+08,4,5975,5600,15.01,2.54,30,2,0,0
2.8125e+05,1.9324e+08,4,5588,5442,15.03,2.61,30,2,0,0
2.8171e+05,1.9335e+08,4,5433,5328,15.12,2.32,30,2,0,0
2.822e+05,1.9346e+08,4,5313,5185,15.16,2.06,30,2,0,0
2.8265e+05,1.9357e+08,4,5172,5042,15.14,1.76,30,2,0,0
2.831e+05,1.9368e+08,4,5030,4914,15.06,2.01,30,2,0,0
2.8355e+05,1.9378e+08,4,4920,5000,15.06,2.25,30,2,0,0
2.84e+05,1.9389e+08,4,4995,4928,15.01,2.43,30,2,0,0
2.8446e+05,1.94e+08,4,4944,5157,14.92,2.67,30,2,0,0
2.8491e+05,1.9411e+08,4,5169,5300,15.05,2.43,30,2,0,0
2.8537e+05,1.9422e+08,4,5301,5357,15.01,2.62,30,2,0,0
2.8582e+05,1.9433e+08,4,5355,5257,15.01,2.61,30,2,0,0
2.8632e+05,1.9445e+08,4,5269,5357,15.01,2.76,30,2,0,0
2.8673e+05,1.9455e+08,4,5357,5385,14.94,2.56,30,3,0,0
2.8722e+05,1.9467e+08,4,5391,5457,14.95,2.8,30,3,0,0
2.8763e+05,1.9477e+08,4,5463,5557,14.9,2.86,30,3,0,0
2.8809e+05,1.9488e+08,4,5549,5471,14.94,2.72,30,3,0,0
2.8854e+05,1.9499e+08,4,5462,5342,14.97,2.54,30,3,0,0
2.8899e+05,1.951e+08,4,5346,5400,14.96,2.75,30,3,0,0
2.8944e+05,1.9521e+08,4,5403,5442,14.96,2.78,30,3,0,0
2.8986e+05,1.9531e+08,4,5443,5500,15,2.7,30,3,0,0
2.9036e+05,1.9543e+08,4,5487,5357,14.95,2.88,30,3,0,0
2.908e+05,1.9553e+08,4,5365,5485,15.03,2.61,30,3,0,0
2.9261e+05,1.9597e+08,4,5483,5342,14.98,2.57,30,4,0,0
2.931e+05,1.9608e+08,4,5337,5285,15.01,2.49,30,4,0,0
2.9355e+05,1.9619e+08,4,5284,5271,15.04,2.41,30,4,0,0
2.94e+05,1.9629e+08,4,5276,5385,14.97,2.58,30,4,0,0
2.9491e+05,1.9651e+08,4,5383,5271,14.97,2.65,30,4,0,0
2.954e+05,1.9663e+08,4,5274,5328,14.96,2.44,30,4,0,0
2.9581e+05,1.9673e+08,4,5326,5257,14.98,2.5,30,4,0,0
2.963e+05,1.9685e+08,4,5246,5157,14.93,2.43,30,4,0,0
2.9674e+05,1.9695e+08,4,5156,5128,15.02,2.36,30,4,0,0
2.9718e+05,1.9707e+08,4,5133,5185,15.04,2.38,30,4,0,0
2.9759e+05,1.9717e+08,4,5184,5157,14.97,2.53,30,4,0,0
2.9804e+05,1.9728e+08,4,5157,5157,15.06,2.64,30,4,0,0
2.9853e+05,1.974e+08,4,5158,5171,14.98,2.29,30,5,0,0
2.9893e+05,1.975e+08,4,5163,5071,14.92,2.3,30,5,0,0
2.9983e+05,1.9772e+08,4,5078,5242,15,2.58,30,5,0,0
3.0028e+05,1.9783e+08,4,5247,5314,15.01,2.61,30,5,0,0
3.0068e+05,1.9793e+08,4,5316,5414,14.96,2.66,30,5,0,0
3.0113e+05,1.9804e+08,4,5412,5357,14.91,2.72,30,5,0,0
3.0157e+05,1.9815e+08,4,5357,5357,15,2.76,30,5,0,0
3.0202e+05,1.9827e+08,4,5361,5414,14.92,2.61,30,5,0,0
3.0246e+05,1.9837e+08,4,5414,5414,14.98,2.85,30,5,0,0
3.0287e+05,1.9848e+08,4,5410,5314,14.96,2.8,30,5,0,0
3.0332e+05,1.9858e+08,4,5314,5342,15,2.76,30,5,0,0
3.0376e+05,1.9869e+08,4,5343,5428,14.96,2.8,30,5,0,0
3.0421e+05,1.988e+08,4,5428,5471,14.96,2.8,30,6,0,0
3.0465e+05,1.9891e+08,4,5462,5385,14.92,2.68,30,6,0,0
3.051e+05,1.9902e+08,4,5392,5471,14.94,3.02,30,6,0,0
3.0555e+05,1.9913e+08,4,5480,5585,14.99,3.07,30,6,0,0
3.0596e+05,1.9924e+08,4,5580,5528,14.91,2.73,30,6,0,0
3.0636e+05,1.9934e+08,4,5526,5457,14.94,2.84,30,6,0,0
3.0685e+05,1.9946e+08,4,5462,5514,14.98,2.83,30,6,0,0
3.073e+05,1.9957e+08,4,5514,5528,14.88,3.04,30,6,0,0
3.0816e+05,1.9978e+08,4,5528,5542,14.91,2.89,30,6,0,0
3.0856e+05,1.9988e+08,4,5541,5528,14.89,2.83,30,6,0,0
3.0902e+05,2e+08,4,5528,5528,14.94,2.63,30,7,0,0
3.0942e+05,2.001e+08,4,5531,5614,14.93,2.93,30,7,0,0
3.0986e+05,2.0021e+08,4,5611,5585,14.95,3.03,30,7,0,0
3.1031e+05,2.0032e+08,4,5579,5500,14.94,2.87,30,7,0,0
3.1076e+05,2.0042e+08,4,5498,5471,14.84,2.87,30,7,0,0
3.1124e+05,2.0055e+08,4,5471,5471,14.89,2.84,30,7,0,0
3.1166e+05,2.0065e+08,4,5468,5414,14.83,2.58,30,7,0,0
3.121e+05,2.0076e+08,4,5414,5428,14.89,2.76,30,7,0,0
3.1303e+05,2.0098e+08,4,5431,5500,14.85,2.55,30,7,0,0
3.1347e+05,2.0109e+08,4,5489,5385,14.81,2.81,30,7,0,0
3.1388e+05,2.0119e+08,4,5384,5371,14.88,2.59,30,7,0,0
3.1432e+05,2.013e+08,4,5371,5385,14.86,2.62,30,8,0,0
3.1473e+05,2.014e+08,4,5382,5271,14.83,2.49,30,8,0,0
3.1518e+05,2.0152e+08,4,5274,5357,14.81,2.74,30,8,0,0
3.161e+05,2.0174e+08,4,5361,5571,14.91,2.66,30,8,0,0
3.1659e+05,2.0186e+08,4,5561,5457,14.94,2.69,30,8,0,0
3.17e+05,2.0196e+08,4,5457,5457,14.94,2.8,30,8,0,0
3.1789e+05,2.0219e+08,4,5458,5485,15,2.59,30,8,0,0
3.1829e+05,2.0228e+08,4,5483,5414,14.94,2.87,30,8,0,0
3.1874e+05,2.0239e+08,4,5414,5485,14.9,2.97,30,8,0,0
3.1918e+05,2.025e+08,4,5491,5571,14.89,3.12,30,8,0,0
3.1964e+05,2.0261e+08,4,5571,5614,14.89,2.97,30,9,0,0
3.2009e+05,2.0273e+08,4,5612,5600,14.91,2.98,30,9,0,0
3.205e+05,2.0283e+08,4,5609,5685,14.85,3.11,30,9,0,0
3.2094e+05,2.0294e+08,4,5677,5614,14.89,2.94,30,9,0,0
3.2142e+05,2.0305e+08,4,5614,5614,14.87,2.93,30,9,0,0
3.2183e+05,2.0315e+08,4,5627,5757,14.84,3.45,30,9,0,0
3.2226e+05,2.0326e+08,4,5756,5742,14.9,2.99,30,9,0,0
3.2272e+05,2.0337e+08,4,5730,5542,14.86,2.84,30,9,0,0
3.2361e+05,2.0359e+08,4,5541,5457,14.89,2.71,30,9,0,0
3.241e+05,2.0371e+08,4,5467,5571,14.87,2.86,30,9,0,0
3.245e+05,2.0381e+08,4,5573,5700,14.88,3.1,30,10,0,0
3.2499e+05,2.0393e+08,4,5687,5557,14.87,2.61,30,10,0,0
3.2543e+05,2.0403e+08,4,5553,5514,14.88,2.93,30,10,0,0
3.2583e+05,2.0414e+08,4,5512,5485,14.84,2.73,30,10,0,0
3.2628e+05,2.0424e+08,4,5490,5557,14.82,2.89,30,10,0,0
3.2669e+05,2.0435e+08,4,5554,5500,14.87,2.92,30,10,0,0
3.2714e+05,2.0446e+08,4,5504,5600,14.83,2.63,30,10,0,0
3.2762e+05,2.0457e+08,4,5585,5442,14.86,2.64,30,10,0,0
3.2806e+05,2.0469e+08,4,5440,5428,14.83,2.71,30,10,0,0
3.2847e+05,2.0479e+08,4,5443,5614,14.87,3.18,30,10,0,0
3.2932e+05,2.05e+08,4,5613,5528,14.82,2.85,30,10,0,0
3.2978e+05,2.0512e+08,4,5530,5557,14.79,2.83,30,11,0,0
3.3018e+05,2.0521e+08,4,5557,5600,14.78,2.85,30,11,0,0
3.319e+05,2.0577e+08,4,5074,5185,14.85,2.42,30,11,0,0
3.3235e+05,2.0588e+08,4,5180,5142,14.88,2.52,30,11,0,0
3.328e+05,2.0599e+08,4,5159,5285,14.85,2.57,30,11,0,0
3.332e+05,2.0609e+08,4,5287,5314,14.91,2.79,30,11,0,0
3.3365e+05,2.062e+08,4,5313,5300,14.8,2.64,30,11,0,0
3.3414e+05,2.0632e+08,4,5296,5257,14.92,2.53,30,11,0,0
3.3454e+05,2.0641e+08,4,5266,5514,14.89,3.15,30,11,0,0
3.354e+05,2.0663e+08,4,5511,5414,14.89,2.97,30,12,0,0
3.3585e+05,2.0674e+08,4,5425,5571,14.78,3.52,30,12,0,0
3.363e+05,2.0685e+08,4,5583,5700,14.87,3.01,30,12,0,0
3.3674e+05,2.0696e+08,4,5703,5742,14.8,3.04,30,12,0,0
3.3715e+05,2.0707e+08,4,5743,5757,14.81,3.61,30,12,0,0
3.3759e+05,2.0718e+08,4,5750,5657,14.86,3.13,30,12,0,0
3.3804e+05,2.0728e+08,4,5664,5857,14.82,3.67,30,12,0,0
3.3849e+05,2.0739e+08,4,5853,5800,14.86,2.94,30,12,0,0
3.389e+05,2.075e+08,4,5798,5771,14.84,2.78,30,12,0,0
3.3934e+05,2.0761e+08,4,5759,5514,14.89,2.9,30,13,0,0
3.3983e+05,2.0773e+08,4,5511,5485,14.83,2.68,30,13,0,0
3.4028e+05,2.0784e+08,4,5476,5371,14.88,2.72,30,13,0,0
3.407e+05,2.0794e+08,4,5378,5442,14.85,2.76,30,13,0,0
3.411e+05,2.0805e+08,4,5438,5385,14.79,2.51,30,13,0,0
3.4151e+05,2.0815e+08,4,5386,5442,14.92,2.79,31,13,0,0
3.4196e+05,2.0826e+08,4,5441,5414,14.88,2.7,30,13,0,0
3.424e+05,2.0837e+08,4,5420,5500,14.84,2.8,30,13,0,0
3.4285e+05,2.0848e+08,4,5495,5428,14.86,2.82,30,13,0,0
3.433e+05,2.0859e+08,4,5414,5242,14.89,2.33,31,13,0,0
3.4375e+05,2.087e+08,4,5247,5300,14.86,2.3,30,13,0,0
3.442e+05,2.0881e+08,4,5310,5414,14.85,2.63,30,13,0,0
3.446e+05,2.0891e+08,4,5411,5285,14.82,2.73,31,13,0,0
3.4509e+05,2.0903e+08,4,5295,5400,14.76,2.7,30,14,0,0
3.4549e+05,2.0913e+08,4,5391,5242,14.88,2.61,31,14,0,0
3.4639e+05,2.0935e+08,4,5242,5271,14.7,2.69,30,14,0,0
3.4684e+05,2.0945e+08,4,5272,5328,14.83,2.71,30,14,0,0
3.4729e+05,2.0957e+08,4,5322,5242,14.86,2.53,30,14,0,0
3.4769e+05,2.0967e+08,4,5240,5214,14.73,2.89,31,14,0,0
3.4814e+05,2.0978e+08,4,5218,5285,14.76,2.7,31,14,0,0
3.4859e+05,2.0989e+08,4,5286,5314,14.83,2.52,31,14,0,0
3.4904e+05,2.1e+08,4,5302,5185,14.73,2.48,31,14,0,0
3.4994e+05,2.1022e+08,4,5188,5271,14.7,2.88,31,14,0,0
3.5034e+05,2.1032e+08,4,5272,5300,14.85,2.29,31,15,0,0
3.5079e+05,2.1043e+08,4,5289,5042,14.87,2.1,31,15,0,0
3.5128e+05,2.1054e+08,4,5042,5042,14.84,2.33,31,15,0,0
3.5213e+05,2.1076e+08,4,5060,5442,14.73,3.14,31,15,0,0
3.5258e+05,2.1087e+08,4,5452,5557,14.82,2.77,31,15,0,0
3.5303e+05,2.1098e+08,4,5566,5657,14.76,3.05,31,15,0,0
3.5343e+05,2.1108e+08,4,5650,5528,14.74,2.91,31,15,0,0
3.5389e+05,2.1119e+08,4,5543,5700,14.72,3.41,31,15,0,0
3.5432e+05,2.113e+08,4,5700,5700,14.72,3.26,31,15,0,0
3.5522e+05,2.1152e+08,4,5698,5671,14.72,3.17,31,15,0,0
3.5567e+05,2.1162e+08,4,5671,5685,14.73,3.12,31,16,0,0
3.5607e+05,2.1172e+08,4,5683,5585,14.73,3.03,31,16,0,0
3.5656e+05,2.1184e+08,4,5586,5700,14.72,2.82,31,16,0,0
3.5701e+05,2.1195e+08,4,5691,5471,14.75,2.8,31,16,0,0
3.5749e+05,2.1207e+08,4,5475,5514,14.73,2.65,31,16,0,0
3.579e+05,2.1217e+08,4,5510,5428,14.69,2.66,31,16,0,0
3.5835e+05,2.1228e+08,4,5443,5600,14.73,3.04,31,16,0,0
3.5876e+05,2.1239e+08,4,5597,5457,14.72,2.37,31,16,0,0
3.592e+05,2.1249e+08,4,5452,5185,14.73,2.26,31,16,0,0
3.5965e+05,2.126e+08,4,5184,5157,14.77,2.34,31,16,0,0
3.6014e+05,2.1272e+08,4,5165,5285,14.75,2.59,31,16,0,0
3.6059e+05,2.1283e+08,4,5279,5200,14.75,2.37,31,16,0,0
3.61e+05,2.1293e+08,4,5205,5328,14.71,2.65,31,17,0,0
3.6145e+05,2.1304e+08,4,5328,5357,14.75,2.51,31,17,0,0
3.6189e+05,2.1315e+08,4,5360,5400,14.69,2.59,31,17,0,0
3.6234e+05,2.1327e+08,4,5400,5400,14.73,2.6,31,17,0,0
3.6275e+05,2.1337e+08,4,5398,5385,14.64,2.69,31,17,0,0
3.6319e+05,2.1348e+08,4,5397,5528,14.69,2.87,31,17,0,0
3.6364e+05,2.1358e+08,4,5532,5600,14.66,2.7,31,17,0,0
3.6405e+05,2.1369e+08,4,5589,5342,14.71,2.8,31,17,0,0
3.645e+05,2.138e+08,4,5340,5285,14.7,2.36,31,17,0,0
3.6495e+05,2.1391e+08,4,5285,5300,14.74,2.16,31,17,0,0
3.6544e+05,2.1403e+08,4,5317,5471,14.72,3.06,31,17,0,0
3.6629e+05,2.1423e+08,4,5469,5314,14.78,2.21,31,18,0,0
3.6673e+05,2.1435e+08,4,5311,5100,14.78,2.18,31,18,0,0
3.6722e+05,2.1447e+08,4,5091,5014,14.72,1.98,31,18,0,0
3.6762e+05,2.1456e+08,4,5020,5271,14.73,2.75,31,18,0,0
3.6811e+05,2.1469e+08,4,5274,5314,14.73,2.52,31,18,0,0
3.6856e+05,2.148e+08,4,5318,5357,14.79,2.29,31,18,0,0
3.69e+05,2.149e+08,4,5360,5442,14.7,2.53,31,18,0,0
3.6941e+05,2.15e+08,4,5436,5385,14.76,2.24,31,18,0,0
3.6986e+05,2.1511e+08,4,5381,5285,14.68,2.41,31,18,0,0
3.7026e+05,2.1521e+08,4,5284,5242,14.7,2.38,31,18,0,0
3.7075e+05,2.1532e+08,4,5243,5385,14.7,2.53,31,18,0,0
3.7124e+05,2.1544e+08,4,5379,5257,14.74,2.57,31,18,0,0
3.7165e+05,2.1555e+08,4,5258,5385,14.69,2.64,31,18,0,0
3.7214e+05,2.1567e+08,4,5382,5357,14.7,2.48,31,18,0,0
3.7254e+05,2.1577e+08,4,5344,5228,14.69,2.11,31,19,0,0
3.7299e+05,2.1588e+08,4,5220,5157,14.74,2.15,31,19,0,0
3.7344e+05,2.1599e+08,4,5143,4957,14.69,2.05,31,19,0,0
3.7389e+05,2.161e+08,4,4977,5200,14.75,2.31,31,19,0,0
3.7434e+05,2.1621e+08,4,5199,5185,14.76,2.24,31,19,0,0
3.7482e+05,2.1632e+08,4,5185,5185,14.68,2.61,31,19,0,0
3.7522e+05,2.1642e+08,4,5186,5228,14.7,2.48,31,19,0,0
3.7563e+05,2.1653e+08,4,5245,5471,14.7,2.81,31,19,0,0
3.7609e+05,2.1664e+08,4,5448,5228,14.66,2.24,31,19,0,0
3.7653e+05,2.1674e+08,4,5235,5342,14.68,2.69,31,19,0,0
3.7698e+05,2.1685e+08,4,5342,5342,14.64,2.42,31,19,0,0
3.7746e+05,2.1696e+08,4,5338,5285,14.64,2.57,31,19,0,0
3.779e+05,2.1708e+08,4,5287,5328,14.61,2.77,31,19,0,0
3.7836e+05,2.1719e+08,4,5331,5371,14.7,2.99,31,19,0,0
3.7881e+05,2.173e+08,4,5368,5342,14.7,2.16,31,20,0,0
3.7925e+05,2.1741e+08,4,5331,5228,14.68,2.3,31,20,0,0
3.797e+05,2.1752e+08,4,5214,5028,14.67,2.28,31,20,0,0
3.8059e+05,2.1773e+08,4,5030,5114,14.72,2.44,31,20,0,0
3.8104e+05,2.1784e+08,4,5114,5142,14.7,2.29,31,20,0,0
3.8144e+05,2.1794e+08,4,5143,5200,14.72,2.36,31,20,0,0
3.8193e+05,2.1806e+08,4,5196,5142,14.66,2.29,31,20,0,0
3.8238e+05,2.1816e+08,4,5145,5214,14.69,2.75,31,20,0,0
3.8282e+05,2.1828e+08,4,5220,5371,14.68,2.88,31,20,0,0
3.8331e+05,2.1839e+08,4,5390,5571,14.65,2.84,31,20,0,0
3.8371e+05,2.1849e+08,4,5554,5242,14.72,2.46,31,20,0,0
3.8416e+05,2.186e+08,4,5248,5342,14.7,2.65,31,20,0,0
3.8461e+05,2.1871e+08,4,5340,5328,14.7,2.43,31,21,0,0
3.8546e+05,2.1892e+08,4,5327,5257,14.64,2.82,31,21,0,0
3.8591e+05,2.1903e+08,4,5259,5385,14.65,2.5,31,21,0,0
3.8636e+05,2.1914e+08,4,5384,5357,14.69,2.79,31,21,0,0
3.8685e+05,2.1925e+08,4,5354,5328,14.7,2.72,31,21,0,0
3.873e+05,2.1936e+08,4,5319,5228,14.71,2.48,31,21,0,0
3.881e+05,2.1957e+08,4,5228,5271,14.7,2.43,31,21,0,0
3.8854e+05,2.1967e+08,4,5269,5185,14.72,2.34,31,21,0,0
3.8899e+05,2.1978e+08,4,5185,5200,14.76,2.53,31,21,0,0
3.8945e+05,2.199e+08,4,5194,5142,14.79,1.87,31,21,0,0
3.899e+05,2.2001e+08,4,5133,5042,14.8,1.95,31,21,0,0
3.9034e+05,2.2012e+08,4,5045,5085,14.7,2.29,31,22,0,0
3.9079e+05,2.2023e+08,4,5090,5171,14.81,2.27,31,22,0,0
3.9124e+05,2.2034e+08,4,5182,5328,14.73,2.76,31,22,0,0
3.9169e+05,2.2045e+08,4,5334,5485,14.77,2.89,31,22,0,0
3.9214e+05,2.2056e+08,4,5493,5571,14.79,2.7,31,22,0,0
3.9254e+05,2.2066e+08,4,5568,5500,14.75,2.79,31,22,0,0
3.9298e+05,2.2076e+08,4,5504,5671,14.7,2.92,31,22,0,0
3.9343e+05,2.2088e+08,4,5664,5528,14.79,2.67,31,22,0,0
3.9388e+05,2.2099e+08,4,5519,5400,14.75,2.37,31,22,0,0
3.9429e+05,2.2109e+08,4,5401,5428,14.7,2.63,31,22,0,0
3.9478e+05,2.2121e+08,4,5436,5528,14.7,2.53,31,22,0,0
3.9522e+05,2.2132e+08,4,5531,5614,14.7,2.83,31,22,0,0
3.9567e+05,2.2143e+08,4,5605,5485,14.77,2.67,31,22,0,0
3.9608e+05,2.2153e+08,4,5476,5314,14.78,2.43,31,23,0,0
3.9657e+05,2.2165e+08,4,5324,5414,14.79,2.61,31,23,0,0
3.9697e+05,2.2175e+08,4,5409,5357,14.77,2.57,31,23,0,0
3.9746e+05,2.2187e+08,4,5368,5442,14.71,2.63,31,23,0,0
3.9786e+05,2.2197e+08,4,5442,5442,14.73,2.95,31,23,0,0
3.9831e+05,2.2208e+08,4,5434,5357,14.71,2.77,31,23,0,0
3.9876e+05,2.2219e+08,4,5365,5457,14.67,2.65,31,23,0,0
3.9912e+05,2.223e+08,4,5467,5571,14.68,2.95,31,23,0,0
3.9959e+05,2.225e+08,4,5502,5542,14.69,2.97,31,23,0,0
4.0004e+05,2.2261e+08,4,5540,5500,14.64,2.88,31,23,0,0
4.0044e+05,2.2271e+08,4,5500,5514,14.72,2.65,31,24,0,0
4.0093e+05,2.2283e+08,4,5509,5400,14.68,2.84,31,24,0,0
4.0137e+05,2.2294e+08,4,5393,5314,14.71,2.71,31,24,0,0
4.0182e+05,2.2305e+08,4,5328,5528,14.73,2.88,31,24,0,0
4.0227e+05,2.2316e+08,4,5522,5442,14.74,2.77,31,24,0,0
4.0316e+05,2.2338e+08,4,5445,5571,14.7,3,31,24,0,0
4.0406e+05,2.236e+08,4,5571,5571,14.67,2.99,31,24,0,0
4.045e+05,2.2371e+08,4,5560,5442,14.67,2.95,31,24,0,0
4.0495e+05,2.2382e+08,4,5448,5514,14.7,2.69,31,24,0,0
4.0535e+05,2.2392e+08,4,5509,5414,14.73,2.74,31,24,0,0
4.0584e+05,2.2404e+08,4,5407,5342,14.75,2.69,31,25,0,0
4.0625e+05,2.2413e+08,4,5344,5400,14.72,2.71,31,25,0,0
4.0674e+05,2.2425e+08,4,5394,5314,14.71,2.64,31,25,0,0
4.0714e+05,2.2435e+08,4,5312,5285,14.72,2.55,31,25,0,0
4.0762e+05,2.2447e+08,4,5287,5314,14.66,2.54,31,25,0,0
4.0807e+05,2.2458e+08,4,5314,5314,14.71,2.86,31,25,0,0
4.0848e+05,2.2468e+08,4,5323,5471,14.7,2.57,31,25,0,0
4.0892e+05,2.2479e+08,4,5467,5314,14.7,2.6,31,25,0,0
4.0933e+05,2.2489e+08,4,5314,5357,14.69,2.54,31,25,0,0
4.0982e+05,2.2501e+08,4,5352,5300,14.68,2.47,31,25,0,0
4.1027e+05,2.2512e+08,4,5300,5300,14.72,2.67,31,25,0,0
4.1068e+05,2.2522e+08,4,5301,5428,14.66,2.85,31,25,0,0
4.1113e+05,2.2533e+08,4,5421,5271,14.75,2.72,31,25,0,0
4.1158e+05,2.2544e+08,4,5274,5414,14.71,2.93,31,26,0,0
4.1206e+05,2.2556e+08,4,5405,5314,14.69,2.58,31,26,0,0
4.1247e+05,2.2566e+08,4,5325,5442,14.75,2.74,31,26,0,0
4.1288e+05,2.2576e+08,4,5441,5414,14.65,2.92,31,26,0,0
4.1337e+05,2.2588e+08,4,5431,5614,14.65,2.8,31,26,0,0
4.1382e+05,2.2599e+08,4,5596,5357,14.64,2.81,31,26,0,0
4.1426e+05,2.261e+08,4,5374,5557,14.61,2.87,31,26,0,0
4.1467e+05,2.262e+08,4,5554,5428,14.65,2.69,31,26,0,0
4.1515e+05,2.2632e+08,4,5429,5457,14.63,2.87,31,26,0,0
4.1556e+05,2.2642e+08,4,5458,5485,14.65,2.69,31,26,0,0
4.1598e+05,2.2653e+08,4,5464,5200,14.65,2.47,31,26,0,0
4.1643e+05,2.2664e+08,4,5221,5414,14.67,2.69,31,26,0,0
4.1688e+05,2.2675e+08,4,5410,5357,14.6,2.83,31,27,0,0
4.1733e+05,2.2687e+08,4,5386,5585,14.63,3.41,31,27,0,0
4.1774e+05,2.2697e+08,4,5583,5557,14.66,2.39,31,27,0,0
4.1818e+05,2.2707e+08,4,5553,5414,14.67,2.87,31,27,0,0
4.1866e+05,2.2719e+08,4,5424,5628,14.78,2.84,31,27,0,0
4.1912e+05,2.273e+08,4,5611,5442,14.78,2.21,31,27,0,0
4.1997e+05,2.2751e+08,4,5442,5485,14.7,3.09,31,27,0,0
4.2046e+05,2.2762e+08,4,5483,5457,14.76,2.95,31,27,0,0
4.209e+05,2.2773e+08,4,5457,5457,14.73,2.84,31,27,0,0
4.2136e+05,2.2785e+08,4,5449,5400,14.7,2.64,31,27,0,0
4.2176e+05,2.2795e+08,4,5399,5385,14.66,2.91,31,27,0,0
4.2222e+05,2.2805e+08,4,5387,5557,14.68,3.15,31,28,0,0
4.2266e+05,2.2816e+08,4,5558,5614,14.64,2.99,31,28,0,0
4.2355e+05,2.2838e+08,4,5612,5557,14.62,3.02,31,28,0,0
4.2399e+05,2.2849e+08,4,5555,5528,14.64,3.05,31,28,0,0
4.2444e+05,2.286e+08,4,5530,5557,14.68,2.71,31,28,0,0
4.2489e+05,2.2871e+08,4,5554,5514,14.66,2.72,31,28,0,0
4.2534e+05,2.2882e+08,4,5508,5400,14.71,2.61,31,28,0,0
4.2595e+05,2.2903e+08,4,5357,5357,14.75,2.74,31,28,0,0
4.264e+05,2.2914e+08,4,5361,5414,14.72,3.01,31,28,0,0
4.2685e+05,2.2925e+08,4,5419,5557,14.74,3.07,31,28,0,0
4.2729e+05,2.2936e+08,4,5560,5600,14.74,2.87,31,29,0,0
4.2778e+05,2.2948e+08,4,5597,5571,14.75,2.79,31,29,0,0
4.2818e+05,2.2958e+08,4,5571,5571,14.72,3.16,31,29,0,0
4.2859e+05,2.2968e+08,4,5574,5714,14.7,3.25,31,29,0,0
4.2904e+05,2.2979e+08,4,5709,5614,14.75,2.98,31,29,0,0
4.2945e+05,2.299e+08,4,5612,5542,14.68,2.92,31,29,0,0
4.2994e+05,2.3001e+08,4,5548,5628,14.65,2.86,31,29,0,0
4.3038e+05,2.3012e+08,4,5624,5585,14.67,2.81,31,29,0,0
4.3083e+05,2.3023e+08,4,5578,5442,14.78,2.52,31,29,0,0
4.3128e+05,2.3034e+08,4,5446,5514,14.76,2.68,31,29,0,0
4.3217e+05,2.3056e+08,4,5510,5442,14.65,3.19,31,30,0,0
4.3262e+05,2.3067e+08,4,5466,5728,14.65,3.24,31,30,0,0
4.3306e+05,2.3078e+08,4,5714,5600,14.75,2.97,31,30,0,0
4.3346e+05,2.3088e+08,4,5603,5657,14.69,3.07,31,30,0,0
4.3436e+05,2.311e+08,4,5650,5385,14.67,2.74,31,30,0,0
4.3525e+05,2.3132e+08,4,5384,5371,14.7,2.66,31,30,0,0
4.357e+05,2.3143e+08,4,5386,5528,14.72,3.15,31,30,0,0
4.361e+05,2.3153e+08,4,5524,5357,14.75,2.43,31,30,0,0
4.3655e+05,2.3165e+08,4,5357,5414,14.67,2.99,31,30,0,0
4.37e+05,2.3176e+08,4,5414,5414,14.69,2.7,31,31,0,0
4.3745e+05,2.3187e+08,4,5418,5457,14.7,2.87,31,31,0,0
4.3789e+05,2.3198e+08,4,5463,5514,14.73,2.9,31,31,0,0
4.383e+05,2.3208e+08,4,5514,5514,14.72,2.49,31,31,0,0
4.3879e+05,2.322e+08,4,5494,5285,14.6,2.67,32,31,0,0
4.3923e+05,2.3231e+08,4,5280,5242,14.73,2.55,31,31,0,0
4.3968e+05,2.3242e+08,4,5259,5414,14.64,2.65,31,31,0,0
4.4053e+05,2.3263e+08,4,5414,5428,14.66,2.84,31,31,0,0
4.4097e+05,2.3274e+08,4,5429,5500,14.62,3,31,31,0,0
4.4146e+05,2.3286e+08,4,5479,5357,14.72,2.66,31,31,0,0
4.4187e+05,2.3296e+08,4,5346,5242,14.64,2.41,31,31,0,0
4.4232e+05,2.3307e+08,4,5239,5214,14.7,2.38,31,31,0,0
4.4276e+05,2.3318e+08,4,5214,5228,14.69,2.4,31,32,0,0
4.432e+05,2.3329e+08,4,5228,5228,14.73,2.58,31,32,0,0
4.4366e+05,2.334e+08,4,5218,5114,14.72,2.4,31,32,0,0
4.4406e+05,2.335e+08,4,5115,5157,14.75,2.4,31,32,0,0
4.4454e+05,2.3362e+08,4,5158,5171,14.75,2.48,31,32,0,0
4.4495e+05,2.3372e+08,4,5172,5200,14.77,2.26,31,32,0,0
4.4539e+05,2.3383e+08,4,5201,5228,14.79,2.39,31,32,0,0
4.4584e+05,2.3394e+08,4,5222,5142,14.64,2.25,31,32,0,0
4.4629e+05,2.3405e+08,4,5153,5285,14.49,3.02,31,32,0,0
4.4673e+05,2.3416e+08,4,5304,5514,14.63,2.93,31,32,0,0
4.4718e+05,2.3427e+08,4,5512,5500,14.7,2.49,31,32,0,0
4.4762e+05,2.3438e+08,4,5478,5185,14.7,2.21,31,32,0,0
4.4807e+05,2.3449e+08,4,5193,5285,14.71,2.64,31,32,0,0
4.4852e+05,2.3459e+08,4,5296,5471,14.63,2.99,31,33,0,0
4.4892e+05,2.3469e+08,4,5471,5528,14.63,2.79,31,33,0,0
4.4941e+05,2.3481e+08,4,5531,5571,14.63,2.94,31,33,0,0
4.4985e+05,2.3492e+08,4,5569,5542,14.64,2.93,31,33,0,0
4.503e+05,2.3503e+08,4,5547,5671,14.62,3.04,31,33,0,0
4.5076e+05,2.3514e+08,4,5671,5671,14.67,3.06,31,33,0,0
4.5116e+05,2.3524e+08,4,5671,5685,14.66,2.92,31,33,0,0
4.5161e+05,2.3536e+08,4,5681,5628,14.73,2.86,31,33,0,0
4.5203e+05,2.3546e+08,4,5612,5414,14.72,2.63,31,33,0,0
4.5248e+05,2.3557e+08,4,5421,5514,14.64,2.95,31,33,0,0
4.5288e+05,2.3567e+08,4,5515,5571,14.64,3,32,33,0,0
4.5338e+05,2.3579e+08,4,5567,5528,14.69,2.87,31,34,0,0
4.5382e+05,2.359e+08,4,5531,5571,14.68,2.77,31,34,0,0
4.5427e+05,2.3601e+08,4,5578,5685,14.71,3.11,31,34,0,0
4.5471e+05,2.3611e+08,4,5679,5557,14.67,2.88,31,34,0,0
4.5516e+05,2.3622e+08,4,5578,5785,14.61,3.2,31,34,0,0
4.556e+05,2.3633e+08,4,5782,5742,14.61,3.09,31,34,0,0
4.5601e+05,2.3643e+08,4,5737,5457,14.63,2.4,31,34,0,0
4.5645e+05,2.3654e+08,4,5462,5728,14.59,3.38,31,34,0,0
4.569e+05,2.3665e+08,4,5727,5657,14.64,3.12,31,34,0,0
4.5734e+05,2.3676e+08,4,5657,5714,14.64,3.2,31,34,0,0
4.5868e+05,2.3709e+08,4,5712,5485,14.65,2.8,32,35,0,0
4.5912e+05,2.372e+08,4,5486,5571,14.58,3.11,31,35,0,0
4.596e+05,2.3731e+08,4,5569,5528,14.63,2.7,31,35,0,0
4.6006e+05,2.3742e+08,4,5530,5571,14.51,3.2,31,35,0,0
4.605e+05,2.3753e+08,4,5563,5457,14.59,2.78,31,35,0,0
4.6094e+05,2.3763e+08,4,5469,5642,14.59,2.84,31,35,0,0
4.6138e+05,2.3774e+08,4,5641,5628,14.57,3.46,31,35,0,0
4.6228e+05,2.3796e+08,4,5630,5742,14.52,3.24,32,35,0,0
4.6272e+05,2.3807e+08,4,5740,5700,14.57,3.48,31,35,0,0
4.6321e+05,2.3819e+08,4,5690,5585,14.72,2.15,31,36,0,0
4.6361e+05,2.3829e+08,4,5572,5257,14.6,2.26,31,36,0,0
4.641e+05,2.3841e+08,4,5266,5357,14.56,2.66,32,36,0,0
4.6454e+05,2.3853e+08,4,5370,5500,14.6,2.72,32,36,0,0
4.6499e+05,2.3864e+08,4,5500,5500,14.6,2.79,31,36,0,0
4.654e+05,2.3874e+08,4,5492,5428,14.57,2.77,32,36,0,0
4.6585e+05,2.3885e+08,4,5440,5557,14.56,2.86,31,36,0,0
4.6625e+05,2.3895e+08,4,5550,5400,14.52,2.87,31,36,0,0
4.6674e+05,2.3907e+08,4,5412,5542,14.63,2.86,31,36,0,0
4.6714e+05,2.3916e+08,4,5537,5442,14.58,2.78,31,36,0,0
4.6804e+05,2.3939e+08,4,5447,5557,14.56,2.99,32,37,0,0
4.6847e+05,2.3949e+08,4,5555,5485,14.63,2.61,31,37,0,0
4.6892e+05,2.396e+08,4,5482,5457,14.55,2.66,31,37,0,0
4.6937e+05,2.3972e+08,4,5453,5400,14.56,2.78,31,37,0,0
4.6981e+05,2.3983e+08,4,5403,5442,14.62,2.73,31,37,0,0
4.7022e+05,2.3993e+08,4,5442,5442,14.57,2.67,31,37,0,0
4.7063e+05,2.4003e+08,4,5442,5442,14.66,2.79,31,37,0,0
4.7111e+05,2.4015e+08,4,5449,5557,14.57,2.69,31,37,0,0
4.7152e+05,2.4025e+08,4,5545,5428,14.58,2.7,32,37,0,0
4.7196e+05,2.4036e+08,4,5423,5385,14.63,2.76,31,37,0,0
4.7238e+05,2.4046e+08,4,5386,5471,14.55,2.62,32,37,0,0
4.7286e+05,2.4058e+08,4,5464,5371,14.64,2.75,31,37,0,0
4.7327e+05,2.4068e+08,4,5357,5257,14.62,2.55,32,38,0,0
4.7372e+05,2.4079e+08,4,5283,5485,14.6,2.69,32,38,0,0
4.7417e+05,2.409e+08,4,5483,5471,14.68,2.85,31,38,0,0
4.7462e+05,2.4101e+08,4,5473,5514,14.57,2.69,31,38,0,0
4.7506e+05,2.4113e+08,4,5499,5342,14.58,2.56,32,38,0,0
4.7551e+05,2.4124e+08,4,5352,5457,14.6,2.9,32,38,0,0
4.7591e+05,2.4134e+08,4,5458,5485,14.6,2.96,31,38,0,0
4.7637e+05,2.4145e+08,4,5496,5571,14.6,2.88,31,38,0,0
4.7725e+05,2.4166e+08,4,5559,5371,14.57,2.71,32,38,0,0
4.7766e+05,2.4176e+08,4,5375,5471,14.59,2.69,31,38,0,0
4.7811e+05,2.4188e+08,4,5471,5471,14.58,2.74,32,38,0,0
4.786e+05,2.4199e+08,4,5472,5485,14.54,3.38,31,39,0,0
4.7896e+05,2.4209e+08,4,5487,5600,14.48,2.85,32,39,0,0
4.7945e+05,2.4221e+08,4,5603,5642,14.48,2.99,31,39,0,0
4.7986e+05,2.4231e+08,4,5636,5585,14.55,2.84,31,39,0,0
4.803e+05,2.4242e+08,4,5586,5671,14.63,3.07,32,39,0,0
4.808e+05,2.4254e+08,4,5646,5385,14.58,2.45,32,39,0,0
4.812e+05,2.4264e+08,4,5390,5457,14.62,2.67,32,39,0,0
4.816e+05,2.4274e+08,4,5456,5414,14.61,2.56,32,39,0,0
4.8212e+05,2.4287e+08,4,5402,5285,14.52,2.86,32,39,0,0
4.8253e+05,2.4297e+08,4,5297,5471,14.58,3.03,32,39,0,0
4.8298e+05,2.4308e+08,4,5481,5585,14.63,2.8,32,39,0,0
4.8386e+05,2.4329e+08,4,5577,5414,14.66,2.62,32,40,0,0
4.8431e+05,2.434e+08,4,5416,5457,14.63,2.76,32,40,0,0
4.8476e+05,2.4351e+08,4,5459,5485,14.63,3.11,32,40,0,0
4.856e+05,2.4371e+08,4,5485,5500,14.65,2.79,32,40,0,0
4.8605e+05,2.4383e+08,4,5496,5428,14.64,2.99,32,40,0,0
4.865e+05,2.4394e+08,4,5438,5657,14.64,2.86,32,40,0,0
4.8695e+05,2.4405e+08,4,5652,5600,14.65,2.85,32,40,0,0
4.8739e+05,2.4416e+08,4,5592,5442,14.69,2.79,32,40,0,0
4.8784e+05,2.4427e+08,4,5451,5557,14.64,3.07,32,40,0,0
4.8829e+05,2.4438e+08,4,5565,5642,14.58,3.34,32,40,0,0
4.887e+05,2.4449e+08,4,5653,5900,14.57,3.26,31,41,0,0
4.8914e+05,2.4459e+08,4,5895,5628,14.58,3,32,41,0,0
4.8959e+05,2.447e+08,4,5627,5614,14.53,3.14,32,41,0,0
4.9008e+05,2.4482e+08,4,5621,5700,14.57,3.12,31,41,0,0
4.9048e+05,2.4492e+08,4,5701,5757,14.57,3.17,31,41,0,0
4.9094e+05,2.4503e+08,4,5741,5600,14.54,2.81,32,41,0,0
4.9138e+05,2.4514e+08,4,5601,5614,14.55,3.06,32,41,0,0
4.9186e+05,2.4526e+08,4,5618,5657,14.55,2.98,32,41,0,0
4.9232e+05,2.4537e+08,4,5651,5600,14.63,2.79,32,41,0,0
4.9277e+05,2.4548e+08,4,5580,5371,14.62,2.39,32,41,0,0
4.9317e+05,2.4558e+08,4,5384,5642,14.6,3.16,32,41,0,0
4.9362e+05,2.4569e+08,4,5631,5485,14.64,2.68,31,41,0,0
4.9406e+05,2.458e+08,4,5485,5485,14.65,2.48,32,42,0,0
4.9451e+05,2.4591e+08,4,5483,5457,14.61,2.55,32,42,0,0
4.9496e+05,2.4602e+08,4,5463,5557,14.56,3.29,32,42,0,0
4.9541e+05,2.4613e+08,4,5553,5514,14.63,3,32,42,0,0
4.9585e+05,2.4623e+08,4,5520,5585,14.63,2.91,31,42,0,0
4.9626e+05,2.4634e+08,4,5585,5585,14.58,2.79,32,42,0,0
4.9671e+05,2.4645e+08,4,5577,5414,14.61,3.03,32,42,0,0
4.9715e+05,2.4656e+08,4,5399,5200,14.61,2.4,32,42,0,0
4.976e+05,2.4667e+08,4,5209,5300,14.57,2.56,32,42,0,0
4.9805e+05,2.4678e+08,4,5297,5257,14.65,2.28,32,42,0,0
4.9845e+05,2.4688e+08,4,5256,5214,14.56,2.33,32,42,0,0
4.9894e+05,2.47e+08,4,5211,5171,14.63,2.4,32,42,0,0
4.9938e+05,2.4711e+08,4,5172,5185,14.65,2.29,32,43,0,0
4.9983e+05,2.4721e+08,4,5194,5285,14.64,2.54,32,43,0,0
5.0019e+05,2.4731e+08,4,5286,5400,14.63,2.5,32,43,0,0
5.0069e+05,2.4743e+08,4,5364,5100,14.63,2.12,32,43,0,0
5.0113e+05,2.4754e+08,4,5100,5100,14.55,2.52,32,43,0,0
5.0158e+05,2.4765e+08,4,5116,5257,14.63,2.63,32,43,0,0
5.0198e+05,2.4775e+08,4,5252,5200,14.55,2.43,32,43,0,0
5.0242e+05,2.4787e+08,4,5208,5285,14.6,2.7,32,43,0,0
5.0283e+05,2.4796e+08,4,5285,5328,14.65,2.83,32,43,0,0
5.0375e+05,2.4818e+08,4,5327,5314,14.66,2.72,32,43,0,0
5.042e+05,2.4829e+08,4,5314,5328,14.59,2.51,32,43,0,0
5.0465e+05,2.4841e+08,4,5323,5285,14.59,2.6,32,43,0,0
5.0505e+05,2.485e+08,4,5287,5428,14.6,2.74,32,44,0,0
5.0554e+05,2.4862e+08,4,5428,5428,14.59,2.52,32,44,0,0
5.0594e+05,2.4872e+08,4,5418,5228,14.55,2.47,32,44,0,0
5.0684e+05,2.4895e+08,4,5226,5200,14.56,2.69,32,44,0,0
5.0725e+05,2.4905e+08,4,5204,5428,14.55,2.89,32,44,0,0
5.0769e+05,2.4916e+08,4,5428,5442,14.55,2.68,32,44,0,0
5.0814e+05,2.4927e+08,4,5445,5485,14.55,2.84,31,44,0,0
5.0858e+05,2.4939e+08,4,5492,5542,14.57,2.94,32,44,0,0
5.0898e+05,2.4948e+08,4,5532,5428,14.59,2.95,32,44,0,0
5.0943e+05,2.496e+08,4,5444,5571,14.6,2.89,31,44,0,0
5.0984e+05,2.497e+08,4,5571,5571,14.53,3.15,32,44,0,0
5.1029e+05,2.4981e+08,4,5580,5685,14.58,3.13,32,45,0,0
5.1074e+05,2.4992e+08,4,5679,5600,14.59,3.19,32,45,0,0
5.1119e+05,2.5003e+08,4,5598,5585,14.58,3.04,32,45,0,0
5.1163e+05,2.5014e+08,4,5590,5728,14.52,3.12,32,45,0,0
5.1208e+05,2.5025e+08,4,5725,5542,14.63,2.99,32,45,0,0
5.1252e+05,2.5036e+08,4,5546,5600,14.55,2.84,32,45,0,0
5.1297e+05,2.5047e+08,4,5602,5642,14.61,2.95,32,45,0,0
5.1337e+05,2.5057e+08,4,5639,5500,14.58,2.72,32,45,0,0
5.1382e+05,2.5068e+08,4,5500,5542,14.56,2.88,32,45,0,0
5.1431e+05,2.508e+08,4,5537,5485,14.57,2.67,32,45,0,0
5.1472e+05,2.5091e+08,4,5480,5442,14.57,2.64,32,45,0,0
5.1516e+05,2.5102e+08,4,5443,5471,14.57,2.75,32,46,0,0
5.1556e+05,2.5112e+08,4,5469,5400,14.63,2.63,32,46,0,0
5.1606e+05,2.5124e+08,4,5391,5300,14.6,2.68,32,46,0,0
5.1646e+05,2.5134e+08,4,5305,5357,14.57,2.9,32,46,0,0
5.1691e+05,2.5145e+08,4,5362,5414,14.58,2.77,32,46,0,0
5.1731e+05,2.5155e+08,4,5415,5442,14.63,2.53,32,46,0,0
5.182e+05,2.5177e+08,4,5441,5342,14.61,2.6,32,46,0,0
5.1864e+05,2.5188e+08,4,5347,5457,14.53,2.89,32,46,0,0
5.1909e+05,2.5199e+08,4,5456,5414,14.56,2.72,32,46,0,0
5.1954e+05,2.521e+08,4,5414,5428,14.55,2.82,32,46,0,0
5.1998e+05,2.522e+08,4,5428,5442,14.6,2.89,32,46,0,0
5.2091e+05,2.5243e+08,4,5442,5457,14.59,2.89,32,47,0,0
5.2132e+05,2.5253e+08,4,5457,5457,14.57,2.58,32,47,0,0
5.2176e+05,2.5264e+08,4,5459,5514,14.63,2.72,32,47,0,0
5.2221e+05,2.5275e+08,4,5496,5328,14.55,2.48,32,47,0,0
5.227e+05,2.5286e+08,4,5337,5400,14.6,2.87,32,47,0,0
5.2311e+05,2.5297e+08,4,5404,5471,14.59,2.7,32,47,0,0
5.2351e+05,2.5307e+08,4,5463,5314,14.57,2.64,32,47,0,0
5.2396e+05,2.5318e+08,4,5320,5457,14.59,2.75,32,47,0,0
5.2441e+05,2.5329e+08,4,5456,5442,14.58,2.69,32,47,0,0
5.2486e+05,2.534e+08,4,5442,5442,14.61,2.79,32,47,0,0
5.253e+05,2.5351e+08,4,5439,5400,14.54,2.72,32,47,0,0
5.2575e+05,2.5362e+08,4,5387,5257,14.69,2.59,32,47,0,0
5.2616e+05,2.5373e+08,4,5257,5271,14.64,2.61,32,48,0,0
5.2661e+05,2.5384e+08,4,5275,5342,14.6,2.62,32,48,0,0
5.2706e+05,2.5395e+08,4,5346,5414,14.57,2.76,32,48,0,0
5.2751e+05,2.5406e+08,4,5405,5314,14.58,2.52,32,48,0,0
5.279e+05,2.5415e+08,4,5312,5242,14.64,2.46,32,48,0,0
5.2835e+05,2.5427e+08,4,5248,5342,14.67,2.69,32,48,0,0
5.2881e+05,2.5438e+08,4,5352,5457,14.64,2.53,32,48,0,0
5.292e+05,2.5448e+08,4,5453,5385,14.58,2.48,32,48,0,0
5.301e+05,2.5471e+08,4,5373,5142,14.63,2.56,32,48,0,0
5.3055e+05,2.5481e+08,4,5139,5114,14.55,2.13,32,48,0,0
5.3099e+05,2.5492e+08,4,5109,5042,14.56,2.2,32,48,0,0
5.3189e+05,2.5514e+08,4,5056,5357,14.54,2.75,32,49,0,0
5.3237e+05,2.5526e+08,4,5356,5342,14.33,2.98,32,49,0,0
5.3278e+05,2.5536e+08,4,5352,5614,14.42,3.2,32,49,0,0
5.3326e+05,2.5548e+08,4,5610,5571,14.41,3.2,32,49,0,0
5.3371e+05,2.5558e+08,4,5576,5642,14.48,3,32,49,0,0
5.3456e+05,2.558e+08,4,5641,5628,14.48,3.18,32,49,0,0
5.3501e+05,2.5591e+08,4,5621,5557,14.56,2.66,32,49,0,0
5.3545e+05,2.5601e+08,4,5550,5428,14.54,2.75,32,49,0,0
5.3589e+05,2.5612e+08,4,5428,5442,14.54,2.75,32,49,0,0
5.3634e+05,2.5623e+08,4,5442,5442,14.53,2.96,32,49,0,0
5.3679e+05,2.5634e+08,4,5450,5571,14.57,2.91,32,50,0,0
5.3724e+05,2.5645e+08,4,5568,5542,14.57,3.04,32,50,0,0
5.3767e+05,2.5655e+08,4,5543,5557,14.56,2.91,32,50,0,0
5.3808e+05,2.5666e+08,4,5557,5571,14.55,2.75,32,50,0,0
5.3853e+05,2.5677e+08,4,5565,5485,14.55,2.73,32,50,0,0
5.3898e+05,2.5688e+08,4,5481,5428,14.54,2.39,32,50,0,0
5.3939e+05,2.5698e+08,4,5425,5257,14.52,2.63,32,50,0,0
5.3983e+05,2.571e+08,4,5261,5371,14.57,2.62,32,50,0,0
5.4028e+05,2.572e+08,4,5369,5242,14.58,2.29,32,50,0,0
5.4072e+05,2.5731e+08,4,5239,5200,14.55,2.3,32,50,0,0
5.4117e+05,2.5742e+08,4,5185,5000,14.64,2.02,32,50,0,0
5.4161e+05,2.5753e+08,4,4992,4914,14.56,2.04,31,50,0,0
5.4206e+05,2.5764e+08,4,4912,4900,14.69,1.79,31,50,0,0
5.425e+05,2.5774e+08,4,4900,4900,14.67,2.12,32,50,0,0
5.4296e+05,2.5786e+08,4,4892,4842,14.7,2.02,32,51,0,0
5.4336e+05,2.5796e+08,4,4843,4928,14.68,2.21,31,51,0,0
5.438e+05,2.5806e+08,4,4929,5000,14.65,2.33,31,51,0,0
5.4428e+05,2.5818e+08,4,4998,4985,14.63,2.3,32,51,0,0
5.4518e+05,2.5839e+08,4,4994,5257,14.64,2.53,31,51,0,0
5.4557e+05,2.585e+08,4,5255,5185,14.63,2.59,32,51,0,0
5.4602e+05,2.5861e+08,4,5187,5228,14.68,2.53,32,51,0,0
5.4642e+05,2.5871e+08,4,5230,5428,14.64,2.69,32,51,0,0
5.4691e+05,2.5883e+08,4,5424,5385,14.63,2.62,32,51,0,0
5.4731e+05,2.5892e+08,4,5383,5328,14.58,2.59,32,51,0,0
5.478e+05,2.5904e+08,4,5318,5100,14.59,2.41,32,51,0,0
5.4824e+05,2.5915e+08,4,5108,5228,14.62,2.44,32,51,0,0
5.4869e+05,2.5926e+08,4,5229,5242,14.6,2.5,32,51,0,0
5.4914e+05,2.5937e+08,4,5231,5128,14.55,2.36,32,52,0,0
5.4954e+05,2.5947e+08,4,5135,5342,14.61,2.62,32,52,0,0
5.5003e+05,2.5959e+08,4,5339,5314,14.57,2.63,32,52,0,0
5.5043e+05,2.5969e+08,4,5304,5200,14.64,2.51,32,52,0,0
5.5088e+05,2.598e+08,4,5206,5300,14.65,2.51,32,52,0,0
5.5129e+05,2.5991e+08,4,5291,5100,14.59,2.11,32,52,0,0
5.5174e+05,2.6002e+08,4,5099,5085,14.59,2.38,32,52,0,0
5.5219e+05,2.6013e+08,4,5091,5157,14.53,2.42,32,52,0,0
5.5259e+05,2.6023e+08,4,5157,5214,14.56,2.32,32,52,0,0
5.5307e+05,2.6035e+08,4,5226,5328,14.59,2.71,32,52,0,0
5.5348e+05,2.6045e+08,4,5330,5428,14.58,2.53,32,52,0,0
5.5393e+05,2.6056e+08,4,5428,5428,14.6,2.68,32,52,0,0
5.5438e+05,2.6067e+08,4,5431,5471,14.63,2.38,31,53,0,0
5.5482e+05,2.6078e+08,4,5454,5314,14.55,2.38,31,53,0,0
5.5523e+05,2.6088e+08,4,5315,5414,14.54,3.05,32,53,0,0
5.5572e+05,2.61e+08,4,5417,5457,14.56,2.56,31,53,0,0
5.5613e+05,2.6111e+08,4,5464,5542,14.58,2.58,32,53,0,0
5.5658e+05,2.6121e+08,4,5536,5228,14.51,2.47,32,53,0,0
5.5701e+05,2.6132e+08,4,5231,5257,14.55,2.57,32,53,0,0
5.5746e+05,2.6143e+08,4,5255,5242,14.58,2.1,31,53,0,0
5.5787e+05,2.6154e+08,4,5233,5157,14.55,2.19,31,53,0,0
5.5872e+05,2.6175e+08,4,5145,4971,14.59,1.78,31,53,0,0
5.5917e+05,2.6186e+08,4,4971,4971,14.57,2.09,31,53,0,0
5.5961e+05,2.6196e+08,4,4977,5071,14.6,2.17,32,53,0,0
5.6006e+05,2.6207e+08,4,5078,5142,14.61,2.05,31,53,0,0
5.6051e+05,2.6218e+08,4,5143,5157,14.57,1.9,31,54,0,0
5.6095e+05,2.6229e+08,4,5157,5171,14.57,2.29,31,54,0,0
5.614e+05,2.624e+08,4,5164,5085,14.56,2.01,31,54,0,0
5.6184e+05,2.6251e+08,4,5079,5014,14.5,2.05,31,54,0,0
5.6229e+05,2.6262e+08,4,5013,5000,14.52,1.95,31,54,0,0
5.6274e+05,2.6273e+08,4,5026,5228,14.55,2.38,31,54,0,0
5.6312e+05,2.6283e+08,4,5226,5171,14.52,2.35,31,54,0,0
5.636e+05,2.6294e+08,4,5166,5128,14.63,2.05,31,54,0,0
5.6408e+05,2.6306e+08,4,5128,5128,14.61,1.76,31,54,0,0
5.6449e+05,2.6316e+08,4,5135,5200,14.67,2.3,31,54,0,0
5.6494e+05,2.6328e+08,4,5172,4885,14.66,1.51,31,54,0,0
5.6535e+05,2.6337e+08,4,4882,4728,14.64,1.74,32,54,0,0
5.658e+05,2.6349e+08,4,4734,4871,14.6,2.05,31,54,0,0
5.6625e+05,2.636e+08,4,4872,4914,14.6,1.99,31,54,0,0
5.6669e+05,2.6371e+08,4,4916,4942,14.54,2.56,31,54,0,0
5.6714e+05,2.6382e+08,4,4970,5257,14.6,2.4,32,54,0,0
5.6754e+05,2.6392e+08,4,5252,4971,14.57,1.81,31,55,0,0
5.6803e+05,2.6403e+08,4,4978,5057,14.58,2.11,31,55,0,0
5.6843e+05,2.6413e+08,4,5056,5014,14.6,2.35,31,55,0,0
5.6893e+05,2.6426e+08,4,5052,5371,14.64,3.17,31,55,0,0
5.6989e+05,2.6457e+08,4,5473,5500,14.45,2.99,31,55,0,0
5.7029e+05,2.6468e+08,4,5501,5571,14.51,3.13,31,55,0,0
5.7078e+05,2.6479e+08,4,5580,5700,14.47,2.91,31,55,0,0
5.7118e+05,2.649e+08,4,5698,5585,14.5,2.86,31,55,0,0
5.7168e+05,2.6501e+08,4,5583,5571,14.5,2.93,31,55,0,0
5.7212e+05,2.6512e+08,4,5581,5685,14.46,3.01,31,55,0,0
5.7257e+05,2.6523e+08,4,5690,5742,14.37,3.07,31,56,0,0
5.7302e+05,2.6534e+08,4,5740,5728,14.41,3.18,31,56,0,0
5.7346e+05,2.6545e+08,4,5739,5842,14.38,3.53,31,56,0,0
5.743e+05,2.6566e+08,4,5842,5942,14.37,3.7,31,56,0,0
5.7476e+05,2.6577e+08,4,5947,6071,14.42,3.75,31,56,0,0
5.752e+05,2.6588e+08,4,6069,6014,14.47,3.56,31,56,0,0
5.7565e+05,2.6599e+08,4,6004,5871,14.48,3.14,31,56,0,0
5.7606e+05,2.6609e+08,4,5871,5885,14.46,2.95,31,56,0,0
5.7699e+05,2.6632e+08,4,5875,5671,14.45,2.76,31,57,0,0
5.7744e+05,2.6643e+08,4,5670,5628,14.42,3.05,31,57,0,0
5.7788e+05,2.6654e+08,4,5623,5528,14.44,2.95,31,57,0,0
5.7833e+05,2.6665e+08,4,5547,5785,14.54,3.4,31,57,0,0
5.7878e+05,2.6677e+08,4,5763,5571,14.59,2.66,31,57,0,0
5.7919e+05,2.6687e+08,4,5569,5500,14.56,2.64,31,57,0,0
5.7964e+05,2.6697e+08,4,5503,5571,14.53,2.82,31,57,0,0
5.8008e+05,2.6709e+08,4,5566,5514,14.57,2.68,31,57,0,0
5.8057e+05,2.672e+08,4,5508,5457,14.53,2.9,31,57,0,0
5.8098e+05,2.6731e+08,4,5466,5542,14.48,3.28,31,57,0,0
5.8143e+05,2.6741e+08,4,5549,5728,14.51,3.33,31,57,0,0
5.8187e+05,2.6753e+08,4,5724,5657,14.52,3.22,31,58,0,0
5.8232e+05,2.6764e+08,4,5661,5700,14.55,3.24,31,58,0,0
5.8273e+05,2.6774e+08,4,5700,5700,14.48,3.34,31,58,0,0
5.8321e+05,2.6786e+08,4,5709,5800,14.48,3.16,32,58,0,0
5.8362e+05,2.6797e+08,4,5795,5757,14.53,3.32,32,58,0,0
5.8407e+05,2.6808e+08,4,5742,5628,14.51,3.29,32,58,0,0
5.8452e+05,2.6819e+08,4,5628,5628,14.49,3.21,31,58,0,0
5.8496e+05,2.6829e+08,4,5633,5742,14.54,3.15,31,58,0,0
5.8541e+05,2.684e+08,4,5734,5642,14.51,3.1,31,58,0,0
5.8582e+05,2.6851e+08,4,5636,5571,14.47,3.04,31,58,0,0
5.8627e+05,2.6862e+08,4,5568,5485,14.54,2.83,31,59,0,0
5.8668e+05,2.6872e+08,4,5482,5442,14.5,2.91,31,59,0,0
5.8713e+05,2.6883e+08,4,5444,5571,14.5,2.93,31,59,0,0
5.8757e+05,2.6894e+08,4,5568,5428,14.58,2.73,31,59,0,0
5.8846e+05,2.6916e+08,4,5423,5285,14.52,2.78,32,59,0,0
5.8891e+05,2.6927e+08,4,5294,5414,14.57,2.82,32,59,0,0
5.8976e+05,2.6948e+08,4,5412,5357,14.54,2.68,32,59,0,0
5.9021e+05,2.6959e+08,4,5361,5457,14.54,2.65,32,59,0,0
5.9066e+05,2.6971e+08,4,5439,5271,14.51,2.9,32,59,0,0
5.9107e+05,2.6981e+08,4,5276,5400,14.54,2.86,31,59,0,0
5.9152e+05,2.6992e+08,4,5394,5328,14.55,2.7,31,60,0,0
5.9193e+05,2.7002e+08,4,5325,5271,14.54,2.81,32,60,0,0
5.9237e+05,2.7013e+08,4,5272,5300,14.55,2.5,32,60,0,0
5.9286e+05,2.7025e+08,4,5308,5400,14.51,2.96,32,60,0,0
5.9326e+05,2.7035e+08,4,5398,5371,14.5,2.65,32,60,0,0
5.9371e+05,2.7046e+08,4,5357,5228,14.48,2.97,32,60,0,0
5.9416e+05,2.7057e+08,4,5260,5585,14.5,3.09,32,60,0,0
5.9456e+05,2.7067e+08,4,5583,5542,14.52,2.98,32,60,0,0
5.9502e+05,2.7079e+08,4,5542,5557,14.49,2.92,32,60,0,0
5.9551e+05,2.7091e+08,4,5560,5600,14.51,2.8,32,60,0,0
5.9591e+05,2.71e+08,4,5587,5342,14.48,2.38,32,60,0,0
5.9635e+05,2.7111e+08,4,5336,5228,14.51,2.28,32,60,0,0
5.9681e+05,2.7123e+08,4,5214,5014,14.49,2.04,32,60,0,0
5.9722e+05,2.7133e+08,4,4997,4828,14.49,2.12,32,61,0,0
5.9766e+05,2.7144e+08,4,4820,4714,14.49,1.68,32,61,0,0
5.9812e+05,2.7155e+08,4,4709,4657,14.54,1.56,32,61,0,0
5.9856e+05,2.7167e+08,4,4635,4414,14.55,1.52,32,61,0,0
5.9898e+05,2.7177e+08,4,4416,4442,14.56,1.58,32,61,0,0
5.9982e+05,2.7198e+08,4,4440,4385,14.51,2.09,32,61,0,0
6.0027e+05,2.7209e+08,4,4394,4571,14.55,1.91,32,61,0,0
6.0072e+05,2.722e+08,4,4587,4757,14.52,2.21,32,61,0,0
6.0116e+05,2.7231e+08,4,4767,4914,14.53,2.2,32,61,0,0
6.0161e+05,2.7242e+08,4,4922,5100,14.54,2.6,32,61,0,0
6.0206e+05,2.7253e+08,4,5103,5157,14.56,2.61,32,61,0,0
6.025e+05,2.7264e+08,4,5162,5300,14.52,2.66,32,61,0,0
6.0298e+05,2.7275e+08,4,5312,5442,14.57,2.71,32,61,0,0
6.0343e+05,2.7287e+08,4,5442,5442,14.55,2.85,32,61,0,0
6.0388e+05,2.7297e+08,4,5445,5485,14.54,2.76,32,62,0,0
