LineNo,TimeUS,Instance,RPM,RawRPM,Volt,Curr,Temp,CTot,MotTemp,Err
1658,1.9875e+07,5,0,0,15.94,0.04,26,0,0,0
2069,1.9977e+07,5,0,0,15.94,0.04,26,0,0,0
2486,2.0081e+07,5,0,0,15.94,0.04,26,0,0,0
2937,2.0192e+07,5,0,0,15.94,0.04,25,0,0,0
3349,2.0293e+07,5,0,0,15.94,0.04,25,0,0,0
3836,2.0408e+07,5,0,0,15.94,0.04,26,0,0,0
4247,2.0513e+07,5,0,0,15.94,0.04,26,0,0,0
4664,2.0617e+07,5,0,0,15.94,0.03,26,0,0,0
5122,2.0733e+07,5,0,0,15.95,0.04,25,0,0,0
5537,2.0836e+07,5,0,0,15.94,0.04,25,0,0,0
5954,2.0943e+07,5,0,0,15.94,0.04,26,0,0,0
6363,2.1043e+07,5,0,0,15.94,0.04,26,0,0,0
6813,2.1154e+07,5,0,0,15.94,0.04,26,0,0,0
7228,2.1258e+07,5,0,0,15.95,0.04,25,0,0,0
7646,2.1364e+07,5,0,0,15.94,0.03,26,0,0,0
8066,2.1469e+07,5,0,0,15.94,0.03,26,0,0,0
8478,2.1575e+07,5,0,0,15.94,0.03,25,0,0,0
8896,2.168e+07,5,0,0,15.94,0.03,25,0,0,0
9344,2.1791e+07,5,0,0,15.94,0.03,26,0,0,0
9600,2.1893e+07,5,0,0,15.95,0.04,26,0,0,0
10041,2.1998e+07,5,0,0,15.94,0.04,26,0,0,0
10457,2.2102e+07,5,0,0,15.94,0.04,26,0,0,0
10867,2.2205e+07,5,0,0,15.94,0.04,26,0,0,0
11324,2.2318e+07,5,0,0,15.94,0.04,26,0,0,0
11739,2.2422e+07,5,0,0,15.94,0.04,26,0,0,0
12151,2.2525e+07,5,0,0,15.95,0.04,26,0,0,0
12602,2.2637e+07,5,0,0,15.94,0.04,26,0,0,0
13046,2.2749e+07,5,0,0,15.94,0.04,26,0,0,0
13466,2.2856e+07,5,0,0,15.94,0.04,26,0,0,0
13879,2.296e+07,5,0,0,15.94,0.03,26,0,0,0
14292,2.3061e+07,5,0,0,15.94,0.04,26,0,0,0
14742,2.3173e+07,5,0,0,15.94,0.04,26,0,0,0
15151,2.3274e+07,5,0,0,15.94,0.04,26,0,0,0
15569,2.3382e+07,5,0,0,15.94,0.04,26,0,0,0
16026,2.3494e+07,5,0,0,15.94,0.04,26,0,0,0
16408,2.3597e+07,5,0,0,15.94,0.04,26,0,0,0
16859,2.3709e+07,5,0,0,15.94,0.04,26,0,0,0
17267,2.3811e+07,5,0,0,15.94,0.04,26,0,0,0
17727,2.3922e+07,5,0,0,15.94,0.04,26,0,0,0
18112,2.4026e+07,5,0,0,15.94,0.04,26,0,0,0
18563,2.4135e+07,5,0,0,15.94,0.04,26,0,0,0
18973,2.424e+07,5,0,0,15.94,0.04,25,0,0,0
19427,2.4353e+07,5,0,0,15.94,0.04,26,0,0,0
19845,2.4458e+07,5,0,0,15.94,0.04,26,0,0,0
20254,2.456e+07,5,0,0,15.94,0.04,26,0,0,0
20673,2.4666e+07,5,0,0,15.94,0.04,26,0,0,0
21128,2.4779e+07,5,0,0,15.94,0.04,26,0,0,0
21545,2.4883e+07,5,0,0,15.94,0.04,26,0,0,0
21999,2.4993e+07,5,0,0,15.94,0.04,26,0,0,0
22414,2.5098e+07,5,0,0,15.94,0.04,26,0,0,0
22857,2.5206e+07,5,0,0,15.93,0.04,26,0,0,0
23320,2.5322e+07,5,0,0,15.94,0.04,26,0,0,0
23739,2.5425e+07,5,0,0,15.94,0.04,26,0,0,0
24154,2.5526e+07,5,0,0,15.94,0.04,26,0,0,0
24602,2.5635e+07,5,0,0,15.94,0.03,26,0,0,0
25478,2.5854e+07,5,0,0,15.94,0.04,26,0,0,0
25888,2.5956e+07,5,0,0,15.94,0.03,26,0,0,0
26309,2.6061e+07,5,0,0,15.94,0.03,26,0,0,0
26759,2.6176e+07,5,0,0,15.94,0.03,26,0,0,0
27173,2.6276e+07,5,0,0,15.94,0.03,26,0,0,0
27586,2.6382e+07,5,0,0,15.94,0.03,26,0,0,0
28006,2.6489e+07,5,0,0,15.94,0.03,26,0,0,0
28413,2.659e+07,5,0,0,15.94,0.04,26,0,0,0
28867,2.6702e+07,5,0,0,15.94,0.04,26,0,0,0
29319,2.6814e+07,5,0,0,15.95,0.03,26,0,0,0
29738,2.6918e+07,5,0,0,15.94,0.03,26,0,0,0
30145,2.7019e+07,5,0,0,15.94,0.03,26,0,0,0
30596,2.7134e+07,5,0,0,15.94,0.03,26,0,0,0
31007,2.7236e+07,5,0,0,15.94,0.03,26,0,0,0
31419,2.7339e+07,5,0,0,15.94,0.03,26,0,0,0
31873,2.7453e+07,5,0,0,15.94,0.03,26,0,0,0
32278,2.7554e+07,5,0,0,15.94,0.04,26,0,0,0
32694,2.766e+07,5,0,0,15.94,0.04,26,0,0,0
33148,2.7771e+07,5,0,0,15.94,0.03,26,0,0,0
33564,2.7875e+07,5,0,0,15.94,0.03,26,0,0,0
33977,2.7979e+07,5,0,0,15.94,0.03,26,0,0,0
34400,2.809e+07,5,0,0,15.94,0.03,26,0,0,0
34850,2.8202e+07,5,0,0,15.94,0.03,26,0,0,0
35264,2.8304e+07,5,0,0,15.94,0.04,26,0,0,0
35712,2.8415e+07,5,0,0,15.94,0.03,26,0,0,0
36128,2.852e+07,5,0,0,15.94,0.03,26,0,0,0
36542,2.8625e+07,5,0,0,15.94,0.03,26,0,0,0
37000,2.874e+07,5,0,0,15.94,0.04,26,0,0,0
37410,2.8841e+07,5,0,0,15.94,0.04,26,0,0,0
37822,2.8943e+07,5,0,0,15.94,0.04,26,0,0,0
38272,2.9058e+07,5,0,0,15.94,0.04,26,0,0,0
38681,2.9159e+07,5,0,0,15.94,0.04,26,0,0,0
39132,2.9273e+07,5,0,0,15.94,0.04,26,0,0,0
39543,2.9377e+07,5,0,0,15.94,0.04,26,0,0,0
39957,2.948e+07,5,0,0,15.94,0.04,26,0,0,0
40363,2.958e+07,5,0,0,15.94,0.04,26,0,0,0
40818,2.9691e+07,5,0,0,15.94,0.04,26,0,0,0
41228,2.9796e+07,5,0,0,15.94,0.04,26,0,0,0
41682,2.9908e+07,5,0,0,15.94,0.04,26,0,0,0
42134,3.0019e+07,5,0,0,15.94,0.03,26,0,0,0
42553,3.0122e+07,5,0,0,15.94,0.03,26,0,0,0
42965,3.0223e+07,5,0,0,15.94,0.03,26,0,0,0
43426,3.0337e+07,5,0,0,15.94,0.03,26,0,0,0
43844,3.0442e+07,5,0,0,15.94,0.04,26,0,0,0
44262,3.0546e+07,5,0,0,15.94,0.04,26,0,0,0
44675,3.0649e+07,5,0,0,15.94,0.03,26,0,0,0
45129,3.0763e+07,5,0,0,15.94,0.03,26,0,0,0
45544,3.0867e+07,5,0,0,15.94,0.03,26,0,0,0
45991,3.0977e+07,5,0,0,15.95,0.03,26,0,0,0
46401,3.1086e+07,5,0,0,15.94,0.03,26,0,0,0
46812,3.119e+07,5,0,0,15.94,0.03,26,0,0,0
47266,3.1302e+07,5,0,0,15.95,0.03,26,0,0,0
47682,3.1405e+07,5,0,0,15.94,0.03,26,0,0,0
48065,3.1502e+07,5,0,0,15.94,0.03,26,0,0,0
48515,3.1614e+07,5,0,0,15.94,0.03,26,0,0,0
48970,3.1727e+07,5,0,0,15.94,0.04,26,0,0,0
49386,3.1831e+07,5,0,0,15.94,0.04,26,0,0,0
49769,3.1932e+07,5,0,0,15.94,0.03,26,0,0,0
50222,3.2044e+07,5,0,0,15.94,0.03,26,0,0,0
50632,3.2146e+07,5,0,0,15.94,0.03,26,0,0,0
51090,3.2258e+07,5,0,0,15.95,0.03,26,0,0,0
51510,3.2364e+07,5,0,0,15.94,0.03,26,0,0,0
51921,3.2467e+07,5,0,0,15.94,0.03,26,0,0,0
52373,3.258e+07,5,0,0,15.94,0.03,26,0,0,0
52787,3.2681e+07,5,0,0,15.94,0.03,26,0,0,0
53244,3.2793e+07,5,0,0,15.94,0.03,26,0,0,0
53659,3.2896e+07,5,0,0,15.94,0.03,26,0,0,0
54107,3.3009e+07,5,0,0,15.94,0.03,26,0,0,0
54519,3.311e+07,5,0,0,15.94,0.03,26,0,0,0
54930,3.3213e+07,5,0,0,15.94,0.03,26,0,0,0
55381,3.3326e+07,5,0,0,15.94,0.03,26,0,0,0
55792,3.3428e+07,5,0,0,15.94,0.03,26,0,0,0
56215,3.3539e+07,5,0,0,15.94,0.03,26,0,0,0
56626,3.3641e+07,5,0,0,15.94,0.03,26,0,0,0
57040,3.3745e+07,5,0,0,15.94,0.03,26,0,0,0
57495,3.3859e+07,5,0,0,15.94,0.03,26,0,0,0
58324,3.4068e+07,5,0,0,15.93,0.03,26,0,0,0
58776,3.4181e+07,5,0,0,15.94,0.02,26,0,0,0
59194,3.4284e+07,5,0,0,15.94,0.03,26,0,0,0
60062,3.45e+07,5,0,0,15.94,0.03,26,0,0,0
60472,3.4602e+07,5,0,0,15.94,0.03,26,0,0,0
1.1587e+05,1.0782e+08,5,0,0,15.94,0.05,26,0,0,0
1.1604e+05,1.0787e+08,5,0,0,15.94,0.05,26,0,0,0
1.165e+05,1.0797e+08,5,0,0,15.94,0.05,26,0,0,0
1.17e+05,1.0809e+08,5,0,0,15.94,0.05,26,0,0,0
1.1745e+05,1.0819e+08,5,0,0,15.93,0.05,26,0,0,0
1.179e+05,1.083e+08,5,0,0,15.93,0.05,26,0,0,0
1.1881e+05,1.0851e+08,5,0,0,15.94,0.05,26,0,0,0
1.1931e+05,1.0862e+08,5,0,0,15.94,0.05,26,0,0,0
1.1977e+05,1.0873e+08,5,0,0,15.93,0.05,26,0,0,0
1.2019e+05,1.0884e+08,5,0,0,15.94,0.05,26,0,0,0
1.2064e+05,1.0894e+08,5,0,0,15.94,0.05,26,0,0,0
1.2109e+05,1.0904e+08,5,0,0,15.94,0.05,26,0,0,0
1.2159e+05,1.0916e+08,5,0,0,15.94,0.05,26,0,0,0
1.2204e+05,1.0926e+08,5,0,0,15.94,0.05,26,0,0,0
1.225e+05,1.0937e+08,5,0,0,15.94,0.05,26,0,0,0
1.2299e+05,1.0948e+08,5,0,0,15.94,0.05,26,0,0,0
1.2344e+05,1.0958e+08,5,0,0,15.94,0.05,26,0,0,0
1.2393e+05,1.0969e+08,5,0,0,15.93,0.05,26,0,0,0
1.2443e+05,1.098e+08,5,0,0,15.94,0.05,26,0,0,0
1.2488e+05,1.099e+08,5,0,0,15.94,0.04,26,0,0,0
1.2538e+05,1.1002e+08,5,35,400,15.92,0.08,26,0,0,0
1.2584e+05,1.1012e+08,5,413,757,15.9,0.14,26,0,0,0
1.2626e+05,1.1022e+08,5,774,1128,15.91,0.16,26,0,0,0
1.2675e+05,1.1034e+08,5,1134,1214,15.92,0.12,26,0,0,0
1.2721e+05,1.1044e+08,5,1215,1242,15.92,0.12,26,0,0,0
1.2849e+05,1.1076e+08,5,1242,1271,15.92,0.12,26,0,0,0
1.2894e+05,1.1087e+08,5,1271,1271,15.91,0.11,26,0,0,0
1.2944e+05,1.1098e+08,5,1271,1285,15.92,0.11,26,0,0,0
1.299e+05,1.1109e+08,5,1285,1285,15.91,0.11,26,0,0,0
1.304e+05,1.112e+08,5,1283,1271,15.91,0.11,26,0,0,0
1.3081e+05,1.113e+08,5,1271,1285,15.92,0.11,26,0,0,0
1.3131e+05,1.1141e+08,5,1285,1285,15.92,0.11,26,0,0,0
1.3176e+05,1.1152e+08,5,1285,1285,15.91,0.11,26,0,0,0
1.3225e+05,1.1163e+08,5,1285,1285,15.92,0.11,26,0,0,0
1.3274e+05,1.1174e+08,5,1285,1285,15.91,0.12,27,0,0,0
1.3365e+05,1.1195e+08,5,1285,1285,15.92,0.12,26,0,0,0
1.341e+05,1.1205e+08,5,1285,1285,15.91,0.12,26,0,0,0
1.3456e+05,1.1216e+08,5,1285,1285,15.92,0.12,26,0,0,0
1.3501e+05,1.1227e+08,5,1285,1285,15.91,0.12,26,0,0,0
1.3547e+05,1.1237e+08,5,1285,1285,15.91,0.11,27,0,0,0
1.3592e+05,1.1248e+08,5,1285,1285,15.91,0.11,26,0,0,0
1.3642e+05,1.1259e+08,5,1285,1285,15.92,0.12,26,0,0,0
1.3688e+05,1.127e+08,5,1285,1285,15.91,0.11,26,0,0,0
1.3733e+05,1.128e+08,5,1285,1285,15.91,0.11,27,0,0,0
1.3778e+05,1.1291e+08,5,1285,1285,15.91,0.11,26,0,0,0
1.3828e+05,1.1302e+08,5,1285,1285,15.92,0.11,26,0,0,0
1.3874e+05,1.1312e+08,5,1285,1285,15.92,0.11,26,0,0,0
1.3916e+05,1.1322e+08,5,1268,514,15.94,0.01,26,0,0,0
1.4003e+05,1.1344e+08,5,511,0,15.94,0.04,26,0,0,0
1.4044e+05,1.1355e+08,5,0,0,15.94,0.04,26,0,0,0
1.4089e+05,1.1366e+08,5,0,0,15.93,0.05,26,0,0,0
1.4135e+05,1.1377e+08,5,0,0,15.94,0.05,26,0,0,0
1.4176e+05,1.1388e+08,5,0,0,15.93,0.05,26,0,0,0
1.4218e+05,1.1398e+08,5,0,0,15.94,0.05,26,0,0,0
1.4259e+05,1.1408e+08,5,0,0,15.94,0.05,26,0,0,0
1.4305e+05,1.1419e+08,5,0,0,15.94,0.05,26,0,0,0
1.4346e+05,1.143e+08,5,0,0,15.94,0.05,26,0,0,0
1.4392e+05,1.1441e+08,5,0,0,15.94,0.05,26,0,0,0
1.4433e+05,1.1452e+08,5,0,0,15.94,0.05,26,0,0,0
1.4474e+05,1.1462e+08,5,0,0,15.94,0.05,26,0,0,0
1.4516e+05,1.1473e+08,5,0,0,15.94,0.05,26,0,0,0
1.4554e+05,1.1483e+08,5,0,0,15.94,0.05,26,0,0,0
1.4599e+05,1.1495e+08,5,0,0,15.94,0.05,26,0,0,0
1.4641e+05,1.1505e+08,5,0,0,15.94,0.05,26,0,0,0
1.4686e+05,1.1516e+08,5,0,0,15.94,0.05,26,0,0,0
1.4727e+05,1.1527e+08,5,0,0,15.94,0.05,26,0,0,0
1.477e+05,1.1537e+08,5,0,0,15.94,0.05,26,0,0,0
1.481e+05,1.1548e+08,5,0,0,15.93,0.05,26,0,0,0
1.4856e+05,1.1559e+08,5,0,0,15.94,0.05,26,0,0,0
1.4897e+05,1.1569e+08,5,0,0,15.93,0.05,26,0,0,0
1.4943e+05,1.1581e+08,5,0,0,15.93,0.05,26,0,0,0
1.4985e+05,1.1592e+08,5,0,0,15.94,0.05,26,0,0,0
1.5026e+05,1.1602e+08,5,0,0,15.94,0.04,26,0,0,0
1.5068e+05,1.1613e+08,5,0,0,15.94,0.04,26,0,0,0
1.5109e+05,1.1623e+08,5,0,0,15.94,0.05,26,0,0,0
1.5154e+05,1.1635e+08,5,0,0,15.93,0.05,26,0,0,0
1.5196e+05,1.1645e+08,5,0,0,15.94,0.05,26,0,0,0
1.5241e+05,1.1656e+08,5,0,0,15.94,0.04,26,0,0,0
1.5282e+05,1.1667e+08,5,0,0,15.94,0.04,26,0,0,0
1.5323e+05,1.1677e+08,5,0,0,15.94,0.04,26,0,0,0
1.5365e+05,1.1688e+08,5,0,0,15.94,0.04,26,0,0,0
1.5411e+05,1.1699e+08,5,0,0,15.93,0.04,26,0,0,0
1.5452e+05,1.171e+08,5,0,0,15.94,0.04,26,0,0,0
1.5493e+05,1.172e+08,5,0,0,15.93,0.04,26,0,0,0
1.5538e+05,1.1732e+08,5,0,0,15.94,0.05,26,0,0,0
1.558e+05,1.1742e+08,5,0,0,15.93,0.05,26,0,0,0
1.5621e+05,1.1752e+08,5,0,0,15.94,0.05,26,0,0,0
1.5667e+05,1.1763e+08,5,0,0,15.94,0.05,26,0,0,0
1.5708e+05,1.1774e+08,5,0,0,15.94,0.05,26,0,0,0
1.575e+05,1.1784e+08,5,0,0,15.94,0.04,26,0,0,0
1.5791e+05,1.1795e+08,5,0,0,15.94,0.05,26,0,0,0
1.5833e+05,1.1806e+08,5,0,0,15.94,0.05,26,0,0,0
1.5875e+05,1.1816e+08,5,0,0,15.94,0.05,26,0,0,0
1.592e+05,1.1828e+08,5,0,0,15.94,0.05,26,0,0,0
1.5962e+05,1.1838e+08,5,0,0,15.94,0.05,26,0,0,0
1.6003e+05,1.1849e+08,5,0,0,15.94,0.05,26,0,0,0
1.6048e+05,1.186e+08,5,0,0,15.94,0.05,26,0,0,0
1.6089e+05,1.187e+08,5,0,0,15.94,0.05,26,0,0,0
1.6135e+05,1.1882e+08,5,0,0,15.94,0.05,26,0,0,0
1.6176e+05,1.1892e+08,5,0,0,15.94,0.04,26,0,0,0
1.6217e+05,1.1902e+08,5,0,0,15.93,0.04,26,0,0,0
1.6262e+05,1.1914e+08,5,0,0,15.93,0.04,26,0,0,0
1.6304e+05,1.1924e+08,5,0,0,15.94,0.05,26,0,0,0
1.6348e+05,1.1935e+08,5,0,0,15.94,0.05,26,0,0,0
1.6431e+05,1.1956e+08,5,0,0,15.94,0.05,26,0,0,0
1.6472e+05,1.1967e+08,5,0,0,15.94,0.05,26,0,0,0
1.6518e+05,1.1978e+08,5,0,0,15.94,0.05,26,0,0,0
1.6556e+05,1.1988e+08,5,0,0,15.93,0.05,26,0,0,0
1.6598e+05,1.1999e+08,5,0,0,15.94,0.05,26,0,0,0
1.664e+05,1.201e+08,5,0,0,15.94,0.05,26,0,0,0
1.6686e+05,1.2021e+08,5,0,0,15.94,0.05,26,0,0,0
1.6727e+05,1.2032e+08,5,0,0,15.94,0.05,26,0,0,0
1.6769e+05,1.2042e+08,5,0,0,15.94,0.05,26,0,0,0
1.6808e+05,1.2052e+08,5,0,0,15.93,0.05,26,0,0,0
1.6853e+05,1.2064e+08,5,0,0,15.94,0.05,26,0,0,0
1.6898e+05,1.2075e+08,5,0,0,15.93,0.05,26,0,0,0
1.6939e+05,1.2085e+08,5,0,0,15.94,0.05,26,0,0,0
1.6981e+05,1.2095e+08,5,0,0,15.94,0.05,26,0,0,0
1.7026e+05,1.2107e+08,5,0,0,15.94,0.05,26,0,0,0
1.7067e+05,1.2117e+08,5,0,0,15.94,0.05,26,0,0,0
1.7108e+05,1.2127e+08,5,0,0,15.93,0.05,26,0,0,0
1.7154e+05,1.2139e+08,5,0,0,15.94,0.05,26,0,0,0
1.7195e+05,1.2149e+08,5,0,0,15.94,0.05,26,0,0,0
1.724e+05,1.216e+08,5,0,0,15.94,0.05,26,0,0,0
1.7282e+05,1.2171e+08,5,0,0,15.93,0.05,26,0,0,0
1.7323e+05,1.2181e+08,5,0,0,15.94,0.05,26,0,0,0
1.7365e+05,1.2192e+08,5,0,0,15.94,0.05,26,0,0,0
1.741e+05,1.2203e+08,5,0,0,15.94,0.05,26,0,0,0
1.7452e+05,1.2213e+08,5,0,0,15.94,0.04,26,0,0,0
1.7493e+05,1.2224e+08,5,0,0,15.94,0.05,26,0,0,0
1.7534e+05,1.2234e+08,5,0,0,15.94,0.05,26,0,0,0
1.758e+05,1.2245e+08,5,0,0,15.94,0.05,26,0,0,0
1.7621e+05,1.2256e+08,5,0,0,15.94,0.05,26,0,0,0
1.7666e+05,1.2267e+08,5,0,0,15.94,0.05,26,0,0,0
1.7708e+05,1.2277e+08,5,0,0,15.94,0.05,26,0,0,0
1.775e+05,1.2288e+08,5,0,0,15.94,0.05,26,0,0,0
1.7791e+05,1.2298e+08,5,0,0,15.94,0.05,26,0,0,0
1.7836e+05,1.2309e+08,5,0,0,15.94,0.05,26,0,0,0
1.7881e+05,1.232e+08,5,0,0,15.94,0.05,26,0,0,0
1.7923e+05,1.2331e+08,5,0,0,15.94,0.05,26,0,0,0
1.7964e+05,1.2341e+08,5,0,0,15.94,0.05,26,0,0,0
1.801e+05,1.2353e+08,5,0,0,15.94,0.05,26,0,0,0
1.8051e+05,1.2363e+08,5,0,0,15.94,0.05,26,0,0,0
1.8092e+05,1.2374e+08,5,0,0,15.93,0.05,26,0,0,0
1.8137e+05,1.2385e+08,5,0,0,15.94,0.05,26,0,0,0
1.8179e+05,1.2395e+08,5,0,0,15.94,0.05,26,0,0,0
1.8224e+05,1.2406e+08,5,0,0,15.94,0.05,26,0,0,0
1.8265e+05,1.2417e+08,5,0,0,15.93,0.05,26,0,0,0
1.8307e+05,1.2427e+08,5,0,0,15.94,0.05,26,0,0,0
1.8352e+05,1.2439e+08,5,0,0,15.94,0.05,26,0,0,0
1.8393e+05,1.2449e+08,5,0,0,15.93,0.05,26,0,0,0
1.8434e+05,1.2459e+08,5,0,0,15.93,0.05,26,0,0,0
1.8479e+05,1.247e+08,5,0,0,15.93,0.05,26,0,0,0
1.8525e+05,1.2482e+08,5,0,0,15.94,0.05,26,0,0,0
1.8567e+05,1.2492e+08,5,0,0,15.93,0.05,26,0,0,0
1.8608e+05,1.2502e+08,5,0,0,15.94,0.05,26,0,0,0
1.8695e+05,1.2524e+08,5,0,0,15.94,0.05,26,0,0,0
1.8736e+05,1.2535e+08,5,0,0,15.93,0.05,26,0,0,0
1.8778e+05,1.2546e+08,5,0,0,15.94,0.05,26,0,0,0
1.8824e+05,1.2557e+08,5,0,0,15.94,0.05,26,0,0,0
1.8865e+05,1.2568e+08,5,0,0,15.94,0.05,26,0,0,0
1.8906e+05,1.2578e+08,5,0,0,15.94,0.05,26,0,0,0
1.8952e+05,1.2589e+08,5,0,0,15.94,0.05,26,0,0,0
1.8994e+05,1.2599e+08,5,0,0,15.94,0.05,26,0,0,0
1.9035e+05,1.261e+08,5,0,0,15.94,0.05,26,0,0,0
1.908e+05,1.2621e+08,5,0,0,15.94,0.05,26,0,0,0
1.9118e+05,1.2631e+08,5,0,0,15.94,0.05,26,0,0,0
1.9164e+05,1.2643e+08,5,0,0,15.94,0.05,26,0,0,0
1.9204e+05,1.2653e+08,5,0,0,15.94,0.05,26,0,0,0
1.925e+05,1.2664e+08,5,0,0,15.94,0.05,26,0,0,0
1.9291e+05,1.2674e+08,5,0,0,15.93,0.05,26,0,0,0
1.9368e+05,1.2696e+08,5,0,0,15.94,0.05,26,0,0,0
1.9414e+05,1.2707e+08,5,0,0,15.94,0.05,26,0,0,0
1.9455e+05,1.2718e+08,5,0,0,15.94,0.05,26,0,0,0
1.9496e+05,1.2728e+08,5,0,0,15.94,0.05,26,0,0,0
1.9542e+05,1.274e+08,5,0,0,15.94,0.05,26,0,0,0
1.958e+05,1.2749e+08,5,0,0,15.94,0.05,26,0,0,0
1.9625e+05,1.2761e+08,5,0,0,15.93,0.05,26,0,0,0
1.9666e+05,1.2771e+08,5,0,0,15.94,0.05,26,0,0,0
1.9712e+05,1.2782e+08,5,0,0,15.94,0.05,26,0,0,0
1.9753e+05,1.2793e+08,5,0,0,15.94,0.05,26,0,0,0
1.9798e+05,1.2804e+08,5,0,0,15.94,0.05,26,0,0,0
1.984e+05,1.2814e+08,5,0,0,15.94,0.05,26,0,0,0
1.9842e+05,1.7388e+08,5,0,0,15.94,0.05,26,1,0,0
1.9866e+05,1.7394e+08,5,0,0,15.94,0.04,26,1,0,0
1.9912e+05,1.7405e+08,5,0,0,15.94,0.04,26,1,0,0
1.996e+05,1.7416e+08,5,0,0,15.93,0.04,26,1,0,0
2.0005e+05,1.7426e+08,5,0,0,15.94,0.05,26,1,0,0
2.0051e+05,1.7437e+08,5,0,0,15.93,0.05,26,1,0,0
2.0097e+05,1.7447e+08,5,0,0,15.93,0.05,26,1,0,0
2.0147e+05,1.7459e+08,5,0,0,15.93,0.05,26,1,0,0
2.0192e+05,1.7469e+08,5,0,0,15.94,0.05,26,1,0,0
2.0237e+05,1.7479e+08,5,0,0,15.94,0.05,26,1,0,0
2.0283e+05,1.749e+08,5,0,0,15.94,0.05,26,1,0,0
2.0329e+05,1.7501e+08,5,0,0,15.93,0.05,26,1,0,0
2.0375e+05,1.7512e+08,5,0,0,15.94,0.05,26,1,0,0
2.0466e+05,1.7533e+08,5,0,0,15.94,0.05,26,1,0,0
2.0515e+05,1.7544e+08,5,0,0,15.93,0.05,26,1,0,0
2.0561e+05,1.7555e+08,5,0,0,15.94,0.05,26,1,0,0
2.0605e+05,1.7565e+08,5,0,0,15.94,0.05,26,1,0,0
2.0656e+05,1.7577e+08,5,0,0,15.94,0.05,26,1,0,0
2.0697e+05,1.7586e+08,5,0,0,15.94,0.05,26,1,0,0
2.0792e+05,1.7608e+08,5,11,414,15.92,0.08,26,1,0,0
2.0842e+05,1.7619e+08,5,451,842,15.91,0.14,26,1,0,0
2.0887e+05,1.7629e+08,5,860,1128,15.92,0.15,26,1,0,0
2.0932e+05,1.7639e+08,5,1131,1228,15.91,0.12,26,1,0,0
2.0962e+05,1.765e+08,5,1228,1257,15.92,0.12,26,1,0,0
2.1012e+05,1.7661e+08,5,1258,1285,15.92,0.12,26,1,0,0
2.1057e+05,1.7672e+08,5,1285,1285,15.92,0.11,26,1,0,0
2.1103e+05,1.7682e+08,5,1285,1285,15.92,0.11,26,1,0,0
2.1149e+05,1.7693e+08,5,1285,1285,15.92,0.11,26,1,0,0
2.1199e+05,1.7704e+08,5,1285,1285,15.92,0.11,26,1,0,0
2.1248e+05,1.7714e+08,5,1285,1285,15.92,0.11,26,1,0,0
2.1293e+05,1.7725e+08,5,1285,1285,15.91,0.12,26,1,0,0
2.1339e+05,1.7735e+08,5,1285,1285,15.92,0.11,26,1,0,0
2.1385e+05,1.7746e+08,5,1285,1285,15.92,0.11,26,1,0,0
2.143e+05,1.7757e+08,5,1285,1285,15.91,0.11,26,1,0,0
2.148e+05,1.7768e+08,5,1285,1285,15.92,0.11,26,1,0,0
2.1526e+05,1.7778e+08,5,1285,1285,15.91,0.11,26,1,0,0
2.1571e+05,1.7789e+08,5,1285,1285,15.92,0.11,26,1,0,0
2.1617e+05,1.7799e+08,5,1285,1285,15.92,0.11,26,1,0,0
2.1666e+05,1.7811e+08,5,1285,1285,15.91,0.11,26,1,0,0
2.1712e+05,1.7821e+08,5,1285,1285,15.92,0.12,26,1,0,0
2.1757e+05,1.7832e+08,5,1285,1285,15.91,0.11,26,1,0,0
2.1807e+05,1.7843e+08,5,1285,1285,15.91,0.12,26,1,0,0
2.1852e+05,1.7853e+08,5,1285,1285,15.92,0.12,26,1,0,0
2.1902e+05,1.7864e+08,5,1285,1285,15.91,0.11,26,1,0,0
2.1947e+05,1.7875e+08,5,1285,1285,15.91,0.11,26,1,0,0
2.1996e+05,1.7886e+08,5,1285,1285,15.91,0.11,26,1,0,0
2.2042e+05,1.7897e+08,5,1285,1285,15.92,0.11,26,1,0,0
2.2083e+05,1.7907e+08,5,1285,1285,15.91,0.11,26,1,0,0
2.2133e+05,1.7918e+08,5,1285,1285,15.92,0.11,26,1,0,0
2.2182e+05,1.7929e+08,5,1285,1285,15.92,0.11,26,1,0,0
2.2227e+05,1.7939e+08,5,1285,1285,15.91,0.11,26,1,0,0
2.2273e+05,1.795e+08,5,1285,1285,15.92,0.11,26,1,0,0
2.2318e+05,1.7961e+08,5,1285,1285,15.92,0.11,26,1,0,0
2.2363e+05,1.7971e+08,5,1285,1285,15.92,0.11,26,1,0,0
2.2413e+05,1.7983e+08,5,1285,1285,15.92,0.11,26,1,0,0
2.2459e+05,1.7994e+08,5,1285,1285,15.91,0.11,26,1,0,0
2.2504e+05,1.8004e+08,5,1285,1285,15.92,0.11,26,1,0,0
2.2644e+05,1.8036e+08,5,1285,1285,15.91,0.11,26,1,0,0
2.269e+05,1.8047e+08,5,1285,1285,15.91,0.11,26,1,0,0
2.2736e+05,1.8058e+08,5,1285,1285,15.91,0.11,26,1,0,0
2.2778e+05,1.8068e+08,5,1285,1285,15.91,0.11,26,1,0,0
2.2828e+05,1.8079e+08,5,1285,1285,15.91,0.11,26,1,0,0
2.2873e+05,1.809e+08,5,1285,1285,15.92,0.11,26,1,0,0
2.2923e+05,1.8101e+08,5,1285,1285,15.91,0.11,26,1,0,0
2.2968e+05,1.8112e+08,5,1285,1285,15.91,0.11,26,1,0,0
2.3014e+05,1.8123e+08,5,1285,1285,15.91,0.11,26,1,0,0
2.3059e+05,1.8133e+08,5,1285,1285,15.91,0.11,26,1,0,0
2.3104e+05,1.8144e+08,5,1285,1285,15.92,0.11,26,1,0,0
2.315e+05,1.8155e+08,5,1285,1285,15.92,0.11,26,1,0,0
2.3196e+05,1.8165e+08,5,1285,1285,15.91,0.11,26,1,0,0
2.3245e+05,1.8177e+08,5,1285,1285,15.91,0.11,26,1,0,0
2.3291e+05,1.8188e+08,5,1285,1285,15.92,0.11,26,1,0,0
2.3337e+05,1.8198e+08,5,1285,1285,15.91,0.11,26,1,0,0
2.3382e+05,1.8209e+08,5,1285,1300,15.91,0.11,26,1,0,0
2.3428e+05,1.8219e+08,5,1299,1285,15.91,0.11,26,1,0,0
2.3474e+05,1.823e+08,5,1285,1285,15.91,0.11,26,1,0,0
2.3519e+05,1.824e+08,5,1285,1285,15.91,0.11,26,1,0,0
2.3568e+05,1.8252e+08,5,1285,1285,15.91,0.11,26,1,0,0
2.3613e+05,1.8262e+08,5,1285,1285,15.91,0.11,26,1,0,0
2.3662e+05,1.8274e+08,5,1285,1285,15.91,0.11,26,1,0,0
2.3708e+05,1.8284e+08,5,1285,1285,15.92,0.11,26,1,0,0
2.3758e+05,1.8295e+08,5,1285,1285,15.92,0.11,26,1,0,0
2.3802e+05,1.8306e+08,5,1285,1285,15.92,0.11,26,1,0,0
2.3848e+05,1.8316e+08,5,1285,1285,15.91,0.11,26,1,0,0
2.3893e+05,1.8327e+08,5,1285,1285,15.91,0.11,26,1,0,0
2.3942e+05,1.8338e+08,5,1285,1285,15.92,0.11,26,1,0,0
2.3984e+05,1.8348e+08,5,1285,1285,15.91,0.12,26,1,0,0
2.4034e+05,1.836e+08,5,1285,1285,15.91,0.11,26,1,0,0
2.4083e+05,1.8371e+08,5,1285,1285,15.91,0.11,26,1,0,0
2.4128e+05,1.8381e+08,5,1285,1285,15.91,0.11,26,1,0,0
2.4179e+05,1.8393e+08,5,1206,400,15.94,0,26,1,0,0
2.4225e+05,1.8404e+08,5,363,0,15.93,0.02,26,1,0,0
2.4315e+05,1.8426e+08,5,0,0,15.94,0.05,26,1,0,0
2.436e+05,1.8436e+08,5,0,0,15.94,0.05,26,1,0,0
2.4405e+05,1.8447e+08,5,0,0,15.93,0.05,26,1,0,0
2.4451e+05,1.8458e+08,5,0,0,15.93,0.05,26,1,0,0
2.4496e+05,1.8469e+08,5,0,0,15.93,0.05,26,1,0,0
2.4542e+05,1.848e+08,5,0,0,15.93,0.05,26,1,0,0
2.4591e+05,1.8491e+08,5,0,0,15.93,0.05,26,1,0,0
2.4636e+05,1.8502e+08,5,0,0,15.93,0.05,26,1,0,0
2.4681e+05,1.8512e+08,5,0,0,15.94,0.04,26,1,0,0
2.4732e+05,1.8524e+08,5,0,0,15.93,0.04,26,1,0,0
2.4773e+05,1.8534e+08,5,0,0,15.93,0.04,26,1,0,0
2.4823e+05,1.8546e+08,5,0,0,15.93,0.04,26,1,0,0
2.4868e+05,1.8557e+08,5,0,0,15.93,0.04,26,1,0,0
2.4914e+05,1.8568e+08,5,0,0,15.93,0.05,26,1,0,0
2.4959e+05,1.8579e+08,5,0,0,15.93,0.05,26,1,0,0
2.5e+05,1.8589e+08,5,0,0,15.93,0.05,26,1,0,0
2.505e+05,1.86e+08,5,0,0,15.93,0.05,26,1,0,0
2.5095e+05,1.861e+08,5,0,0,15.93,0.05,26,1,0,0
2.514e+05,1.8621e+08,5,0,0,15.94,0.05,26,1,0,0
2.5186e+05,1.8632e+08,5,0,0,15.93,0.05,26,1,0,0
2.5231e+05,1.8643e+08,5,0,0,15.93,0.05,26,1,0,0
2.5276e+05,1.8653e+08,5,0,0,15.94,0.05,26,1,0,0
2.5325e+05,1.8665e+08,5,0,0,15.93,0.04,26,1,0,0
2.5371e+05,1.8676e+08,5,0,0,15.92,0.04,26,1,0,0
2.5417e+05,1.8687e+08,5,0,0,15.93,0.05,26,1,0,0
2.5462e+05,1.8697e+08,5,0,0,15.93,0.05,26,1,0,0
2.5507e+05,1.8708e+08,5,0,0,15.93,0.05,26,1,0,0
2.5553e+05,1.8719e+08,5,0,0,15.93,0.04,26,1,0,0
2.5604e+05,1.8731e+08,5,0,0,15.92,0.04,26,1,0,0
2.5649e+05,1.8741e+08,5,0,0,15.93,0.04,26,1,0,0
2.5694e+05,1.8752e+08,5,0,0,15.93,0.04,26,1,0,0
2.5744e+05,1.8763e+08,5,0,0,15.93,0.05,26,1,0,0
2.5789e+05,1.8774e+08,5,0,0,15.93,0.05,26,1,0,0
2.5834e+05,1.8784e+08,5,0,0,15.94,0.05,26,1,0,0
2.588e+05,1.8795e+08,5,0,0,15.94,0.05,26,1,0,0
2.5926e+05,1.8806e+08,5,0,0,15.93,0.05,26,1,0,0
2.5972e+05,1.8817e+08,5,0,0,15.94,0.05,26,1,0,0
2.6017e+05,1.8828e+08,5,0,0,15.94,0.05,26,1,0,0
2.6063e+05,1.8838e+08,5,0,0,15.94,0.04,26,1,0,0
2.6112e+05,1.8849e+08,5,0,0,15.93,0.04,26,1,0,0
2.6157e+05,1.886e+08,5,0,0,15.93,0.04,26,1,0,0
2.6203e+05,1.887e+08,5,0,0,15.93,0.04,26,1,0,0
2.6252e+05,1.8882e+08,5,0,0,15.94,0.04,26,1,0,0
2.6298e+05,1.8893e+08,5,0,0,15.94,0.05,26,1,0,0
2.6344e+05,1.8903e+08,5,0,0,15.93,0.05,26,1,0,0
2.6393e+05,1.8915e+08,5,0,0,15.93,0.04,26,1,0,0
2.6439e+05,1.8925e+08,5,7,128,15.91,0.08,26,1,0,0
2.648e+05,1.8935e+08,5,133,542,15.89,0.16,26,1,0,0
2.6534e+05,1.8947e+08,5,594,1057,15.91,0.18,26,1,0,0
2.658e+05,1.8958e+08,5,1069,1200,15.91,0.13,26,1,0,0
2.6621e+05,1.8968e+08,5,1201,1242,15.91,0.12,26,1,0,0
2.6667e+05,1.8978e+08,5,1242,1271,15.92,0.12,26,1,0,0
2.672e+05,1.899e+08,5,1271,1271,15.91,0.12,26,1,0,0
2.6765e+05,1.9001e+08,5,1272,1285,15.91,0.11,26,1,0,0
2.681e+05,1.9011e+08,5,1285,1285,15.91,0.11,26,1,0,0
2.686e+05,1.9022e+08,5,1285,1285,15.91,0.11,26,1,0,0
2.6928e+05,1.9043e+08,5,1285,1285,15.91,0.11,26,1,0,0
2.6974e+05,1.9054e+08,5,1285,1285,15.91,0.11,26,1,0,0
2.7019e+05,1.9064e+08,5,1285,1285,15.91,0.11,26,1,0,0
2.7068e+05,1.9076e+08,5,1285,1285,15.91,0.11,26,1,0,0
2.7114e+05,1.9086e+08,5,1285,1285,15.91,0.11,26,1,0,0
2.7164e+05,1.9098e+08,5,1285,1285,15.91,0.11,26,1,0,0
2.7209e+05,1.9108e+08,5,1285,1285,15.91,0.11,26,1,0,0
2.7258e+05,1.912e+08,5,1285,1285,15.91,0.11,26,1,0,0
2.7304e+05,1.913e+08,5,1285,1285,15.91,0.11,26,1,0,0
2.7349e+05,1.9141e+08,5,1285,1285,15.91,0.11,26,1,0,0
2.7395e+05,1.9151e+08,5,1285,1285,15.91,0.11,26,1,0,0
2.7441e+05,1.9163e+08,5,1285,1285,15.91,0.11,26,1,0,0
2.7491e+05,1.9174e+08,5,1285,1285,15.91,0.11,26,1,0,0
2.7536e+05,1.9184e+08,5,1285,1300,15.9,0.14,26,1,0,0
2.7582e+05,1.9195e+08,5,1317,1571,15.88,0.28,26,1,0,0
2.7672e+05,1.9216e+08,5,1577,2342,15.68,0.79,26,1,0,0
2.7722e+05,1.9228e+08,5,2387,2828,15.76,0.86,26,1,0,0
2.7767e+05,1.9239e+08,5,2862,3314,15.6,1.38,26,1,0,0
2.7808e+05,1.9249e+08,5,3324,3942,15.48,2.02,26,1,0,0
2.7858e+05,1.926e+08,5,3981,4414,15.29,2.73,26,1,0,0
2.7902e+05,1.9271e+08,5,4446,5085,15.19,3.13,26,1,0,0
2.7952e+05,1.9282e+08,5,5111,5500,15.11,3.61,26,2,0,0
2.7994e+05,1.9293e+08,5,5528,6085,15.11,4.58,26,2,0,0
2.8044e+05,1.9305e+08,5,6078,6028,15.12,3.98,26,2,0,0
2.8084e+05,1.9314e+08,5,6030,6100,15.31,3.84,26,2,0,0
2.8133e+05,1.9326e+08,5,6103,6142,15.17,3.62,26,2,0,0
2.818e+05,1.9337e+08,5,6125,5900,15.27,3.49,26,2,0,0
2.8224e+05,1.9348e+08,5,5900,5900,15.38,3.02,26,2,0,0
2.827e+05,1.9358e+08,5,5898,5771,15.33,3.49,26,2,0,0
2.8319e+05,1.937e+08,5,5771,5785,15.25,3.64,26,3,0,0
2.8364e+05,1.9381e+08,5,5776,5700,15.31,3.63,26,3,0,0
2.8405e+05,1.9391e+08,5,5707,5857,15.12,3.66,26,3,0,0
2.8455e+05,1.9402e+08,5,5865,5985,15.21,4,26,3,0,0
2.8496e+05,1.9412e+08,5,5985,5985,15.19,3.93,26,3,0,0
2.8591e+05,1.9435e+08,5,5984,5957,15.13,4.05,26,3,0,0
2.8636e+05,1.9446e+08,5,5974,6157,15.13,3.71,27,3,0,0
2.8682e+05,1.9457e+08,5,6149,6057,15.13,3.78,26,3,0,0
2.8772e+05,1.9479e+08,5,6051,5942,15.18,3.59,27,4,0,0
2.8818e+05,1.949e+08,5,5930,5800,15.09,4.06,27,4,0,0
2.8863e+05,1.9501e+08,5,5817,6085,15.08,4.02,27,4,0,0
2.8904e+05,1.9511e+08,5,6086,6114,15.13,3.76,27,4,0,0
2.8954e+05,1.9523e+08,5,6095,5914,15.11,3.84,27,4,0,0
2.8995e+05,1.9533e+08,5,5914,5928,15.08,3.93,27,4,0,0
2.909e+05,1.9555e+08,5,5931,6000,15.18,3.55,27,5,0,0
2.9134e+05,1.9566e+08,5,5985,5842,15.22,3.33,27,5,0,0
2.918e+05,1.9577e+08,5,5840,5814,15.17,3.2,27,5,0,0
2.922e+05,1.9587e+08,5,5814,5814,15.13,3.63,27,5,0,0
2.9271e+05,1.9599e+08,5,5810,5771,15.13,3.31,27,5,0,0
2.9315e+05,1.9609e+08,5,5771,5800,15.14,3.26,27,5,0,0
2.9364e+05,1.9621e+08,5,5792,5714,15.14,3.45,27,5,0,0
2.941e+05,1.9631e+08,5,5720,5857,15.08,3.64,27,5,0,0
2.95e+05,1.9653e+08,5,5860,5957,15.17,3.35,27,5,0,0
2.959e+05,1.9675e+08,5,5955,5828,15.22,3.45,27,6,0,0
2.9682e+05,1.9697e+08,5,5828,5871,15.2,3.4,27,6,0,0
2.9728e+05,1.9709e+08,5,5854,5700,15.22,3.11,27,6,0,0
2.9768e+05,1.9719e+08,5,5701,5785,15.22,3.11,27,6,0,0
2.9813e+05,1.973e+08,5,5778,5628,15.14,2.81,27,6,0,0
2.9858e+05,1.9741e+08,5,5629,5714,15.2,3.31,27,6,0,0
2.9902e+05,1.9752e+08,5,5712,5685,15.23,3.14,27,6,0,0
2.9947e+05,1.9763e+08,5,5672,5557,15.25,2.92,27,6,0,0
2.9992e+05,1.9775e+08,5,5548,5485,15.18,2.95,27,7,0,0
3.0032e+05,1.9784e+08,5,5489,5585,15.21,3.02,27,7,0,0
3.0077e+05,1.9795e+08,5,5592,5700,15.19,3.04,27,7,0,0
3.0166e+05,1.9817e+08,5,5694,5528,15.13,2.96,27,7,0,0
3.0214e+05,1.9829e+08,5,5534,5571,15.12,3.01,27,7,0,0
3.0255e+05,1.9839e+08,5,5563,5457,15.15,2.79,27,7,0,0
3.03e+05,1.985e+08,5,5454,5428,15.18,2.97,27,7,0,0
3.0385e+05,1.9872e+08,5,5434,5600,15.13,3.14,27,7,0,0
3.043e+05,1.9883e+08,5,5592,5528,15.2,3.06,27,7,0,0
3.047e+05,1.9893e+08,5,5534,5671,15.15,3.2,27,7,0,0
3.0515e+05,1.9904e+08,5,5668,5614,15.13,2.98,27,8,0,0
3.0559e+05,1.9915e+08,5,5609,5514,15.15,2.98,27,8,0,0
3.0645e+05,1.9936e+08,5,5515,5571,15.1,3.08,27,8,0,0
3.0693e+05,1.9948e+08,5,5569,5557,15.05,3.24,27,8,0,0
3.0734e+05,1.9958e+08,5,5559,5614,15.08,3.05,27,8,0,0
3.0824e+05,1.998e+08,5,5614,5614,15.19,2.75,27,8,0,0
3.0865e+05,1.9991e+08,5,5594,5471,15.08,2.85,27,8,0,0
3.0906e+05,2.0001e+08,5,5471,5528,15.08,3.02,27,8,0,0
3.0951e+05,2.0012e+08,5,5525,5500,15.13,2.92,27,8,0,0
3.0996e+05,2.0023e+08,5,5496,5457,15.15,2.82,27,9,0,0
3.104e+05,2.0034e+08,5,5469,5600,15.13,2.99,27,9,0,0
3.1085e+05,2.0044e+08,5,5600,5614,15.09,3.3,27,9,0,0
3.1129e+05,2.0056e+08,5,5627,5742,15.11,3.05,27,9,0,0
3.1173e+05,2.0067e+08,5,5738,5714,15.06,3.7,27,9,0,0
3.1266e+05,2.0089e+08,5,5726,5914,15.04,3.58,27,9,0,0
3.1352e+05,2.011e+08,5,5911,5857,15.04,3.47,28,9,0,0
3.1396e+05,2.0121e+08,5,5856,5828,15.05,3.38,27,10,0,0
3.1441e+05,2.0133e+08,5,5837,5914,15.08,3.55,27,10,0,0
3.1482e+05,2.0143e+08,5,5920,5985,15.02,3.71,27,10,0,0
3.1526e+05,2.0154e+08,5,5977,5914,15.04,3.67,27,10,0,0
3.1618e+05,2.0176e+08,5,5904,5714,15.12,2.88,27,10,0,0
3.1663e+05,2.0187e+08,5,5711,5685,15.12,3.07,27,10,0,0
3.1704e+05,2.0198e+08,5,5680,5442,15.08,2.72,28,10,0,0
3.1838e+05,2.0231e+08,5,5431,5128,15.16,2.42,28,10,0,0
3.1883e+05,2.0241e+08,5,5131,5185,15.11,2.55,27,11,0,0
3.1927e+05,2.0253e+08,5,5187,5214,15.1,2.68,28,11,0,0
3.1972e+05,2.0263e+08,5,5220,5285,15.1,2.62,27,11,0,0
3.2009e+05,2.0273e+08,5,5285,5285,15.07,2.55,27,11,0,0
3.2054e+05,2.0284e+08,5,5287,5342,15.07,2.58,27,11,0,0
3.2187e+05,2.0316e+08,5,5341,5285,15.12,2.14,27,11,0,0
3.2325e+05,2.0351e+08,5,5291,5671,14.99,3.23,27,11,0,0
3.237e+05,2.0361e+08,5,5667,5585,15.09,2.82,27,11,0,0
3.2414e+05,2.0372e+08,5,5581,5542,15.1,2.82,28,12,0,0
3.2459e+05,2.0383e+08,5,5539,5442,15.1,2.6,27,12,0,0
3.2504e+05,2.0394e+08,5,5445,5514,15,3.1,28,12,0,0
3.2548e+05,2.0405e+08,5,5524,5728,15.07,3.11,27,12,0,0
3.2637e+05,2.0427e+08,5,5723,5628,15.03,3.02,27,12,0,0
3.2678e+05,2.0437e+08,5,5624,5585,15.03,3,27,12,0,0
3.2766e+05,2.0458e+08,5,5586,5728,15.04,2.84,27,12,0,0
3.2811e+05,2.047e+08,5,5720,5628,15.03,3.3,28,12,0,0
3.2856e+05,2.0481e+08,5,5606,5428,15.07,2.59,28,12,0,0
3.2941e+05,2.0502e+08,5,5432,5557,15.05,2.7,27,13,0,0
3.2986e+05,2.0514e+08,5,5573,5742,14.94,3.5,28,13,0,0
3.3027e+05,2.0524e+08,5,5753,5914,14.96,3.47,28,13,0,0
3.311e+05,2.0557e+08,5,5849,5771,14.89,3.72,28,13,0,0
3.3154e+05,2.0568e+08,5,5771,5771,15.02,3.73,28,13,0,0
3.3199e+05,2.0579e+08,5,5763,5685,15.1,3.2,28,13,0,0
3.3239e+05,2.0589e+08,5,5684,5671,15.04,3.07,28,13,0,0
3.3285e+05,2.06e+08,5,5671,5671,15.09,3.31,28,14,0,0
3.3329e+05,2.0611e+08,5,5639,5328,15.09,2.8,28,14,0,0
3.3374e+05,2.0622e+08,5,5335,5442,15.08,3.02,28,14,0,0
3.3419e+05,2.0633e+08,5,5439,5414,15.13,2.47,27,14,0,0
3.3463e+05,2.0644e+08,5,5395,5128,15.1,2.5,28,14,0,0
3.3504e+05,2.0654e+08,5,5129,5214,15.08,2.77,28,14,0,0
3.3549e+05,2.0665e+08,5,5216,5242,15.05,2.48,28,14,0,0
3.3594e+05,2.0676e+08,5,5238,5200,15.02,2.26,28,14,0,0
3.3634e+05,2.0686e+08,5,5205,5314,14.98,2.97,28,14,0,0
3.3679e+05,2.0697e+08,5,5318,5414,15,3.08,28,14,0,0
3.3724e+05,2.0709e+08,5,5411,5385,14.98,2.66,28,14,0,0
3.3768e+05,2.072e+08,5,5389,5457,15,2.88,28,14,0,0
3.3813e+05,2.073e+08,5,5437,5014,15.11,2.18,28,15,0,0
3.3858e+05,2.0741e+08,5,5018,5071,15.11,2.58,28,15,0,0
3.3899e+05,2.0752e+08,5,5082,5200,15.01,3,28,15,0,0
3.3943e+05,2.0763e+08,5,5204,5271,15.04,2.84,28,15,0,0
3.3988e+05,2.0774e+08,5,5280,5500,15.02,3.11,28,15,0,0
3.4033e+05,2.0785e+08,5,5502,5542,15.05,3.28,28,15,0,0
3.4074e+05,2.0795e+08,5,5540,5500,14.94,3.03,28,15,0,0
3.412e+05,2.0807e+08,5,5502,5528,15.08,3.23,28,15,0,0
3.416e+05,2.0817e+08,5,5524,5442,15.06,2.44,28,15,0,0
3.4204e+05,2.0828e+08,5,5427,5285,15.12,2.37,28,15,0,0
3.425e+05,2.0839e+08,5,5279,5200,15.05,2.34,28,15,0,0
3.4295e+05,2.085e+08,5,5196,5157,14.97,2.65,28,15,0,0
3.4339e+05,2.0861e+08,5,5182,5428,14.88,3.07,28,15,0,0
3.4384e+05,2.0872e+08,5,5435,5542,15.03,3.05,28,16,0,0
3.4429e+05,2.0883e+08,5,5539,5514,15.08,2.75,28,16,0,0
3.447e+05,2.0893e+08,5,5506,5328,15.04,2.89,28,16,0,0
3.4514e+05,2.0904e+08,5,5326,5300,15.05,2.47,28,16,0,0
3.4559e+05,2.0915e+08,5,5306,5457,15,3.09,28,16,0,0
3.4603e+05,2.0926e+08,5,5458,5471,15.06,2.97,28,16,0,0
3.4648e+05,2.0937e+08,5,5489,5671,15.04,3.26,28,16,0,0
3.4693e+05,2.0948e+08,5,5657,5542,15.02,2.8,28,16,0,0
3.4734e+05,2.0958e+08,5,5540,5514,15.01,3.32,28,16,0,0
3.4779e+05,2.0969e+08,5,5511,5485,14.91,3.23,28,16,0,0
3.4824e+05,2.098e+08,5,5499,5685,14.95,3.1,28,16,0,0
3.4868e+05,2.0991e+08,5,5678,5614,14.98,3.06,28,17,0,0
3.4914e+05,2.1002e+08,5,5620,5685,14.94,3.74,28,17,0,0
3.4954e+05,2.1012e+08,5,5691,6100,14.88,4.29,28,17,0,0
3.4999e+05,2.1023e+08,5,6091,5928,15.04,2.87,28,17,0,0
3.5044e+05,2.1034e+08,5,5897,5585,15.04,2.92,28,17,0,0
3.5089e+05,2.1045e+08,5,5591,5657,15.03,3.21,28,17,0,0
3.5137e+05,2.1056e+08,5,5654,5628,14.95,3.47,28,17,0,0
3.5177e+05,2.1066e+08,5,5624,5557,14.96,3.13,28,17,0,0
3.5223e+05,2.1078e+08,5,5549,5471,15.04,2.71,28,17,0,0
3.5263e+05,2.1088e+08,5,5471,5485,14.96,2.87,28,17,0,0
3.5352e+05,2.111e+08,5,5495,5814,14.9,3.64,28,18,0,0
3.5442e+05,2.1132e+08,5,5804,5600,14.9,3.19,28,18,0,0
3.5486e+05,2.1142e+08,5,5604,5671,14.92,3.32,28,18,0,0
3.5531e+05,2.1154e+08,5,5668,5642,14.92,3.24,28,18,0,0
3.5665e+05,2.1186e+08,5,5647,5771,14.92,3.72,28,18,0,0
3.5705e+05,2.1196e+08,5,5773,5914,14.97,3.35,28,18,0,0
3.5754e+05,2.1208e+08,5,5909,5842,14.9,3.69,28,19,0,0
3.5799e+05,2.1219e+08,5,5846,5942,14.87,3.94,28,19,0,0
3.584e+05,2.1229e+08,5,5938,5871,14.9,3.48,28,19,0,0
3.5885e+05,2.1241e+08,5,5873,5942,14.86,4.17,28,19,0,0
3.5929e+05,2.1252e+08,5,5947,6014,14.94,4.17,28,19,0,0
3.5974e+05,2.1262e+08,5,6012,5985,14.92,3.86,28,19,0,0
3.6018e+05,2.1273e+08,5,5983,5942,14.93,3.83,28,19,0,0
3.6068e+05,2.1285e+08,5,5963,6114,14.96,3.99,28,19,0,0
3.6153e+05,2.1306e+08,5,6109,6014,14.93,3.76,28,20,0,0
3.6198e+05,2.1318e+08,5,6006,5885,14.89,3.61,28,20,0,0
3.6238e+05,2.1328e+08,5,5885,5885,14.91,3.82,28,20,0,0
3.6283e+05,2.1339e+08,5,5894,5957,14.8,3.85,28,20,0,0
3.6328e+05,2.135e+08,5,5973,6128,14.83,4,28,20,0,0
3.6373e+05,2.1361e+08,5,6125,6100,14.85,4.27,28,20,0,0
3.6414e+05,2.1371e+08,5,6104,6142,14.87,3.86,28,20,0,0
3.6459e+05,2.1382e+08,5,6144,6200,14.77,4.23,28,21,0,0
3.6508e+05,2.1394e+08,5,6195,6157,14.85,4.61,28,21,0,0
3.6548e+05,2.1404e+08,5,6143,5842,14.88,3.43,28,21,0,0
3.6637e+05,2.1426e+08,5,5847,5985,14.97,3.61,28,21,0,0
3.6682e+05,2.1437e+08,5,5973,5857,14.99,3.56,28,21,0,0
3.6726e+05,2.1448e+08,5,5872,6085,14.91,4.06,28,21,0,0
3.6771e+05,2.1458e+08,5,6077,5985,14.86,3.81,28,21,0,0
3.6815e+05,2.147e+08,5,5975,5814,14.95,3.45,28,21,0,0
3.686e+05,2.1481e+08,5,5817,5985,14.89,3.45,28,21,0,0
3.6905e+05,2.1491e+08,5,5976,5814,14.88,3.65,28,22,0,0
3.695e+05,2.1502e+08,5,5830,5971,14.96,3.7,28,22,0,0
3.699e+05,2.1512e+08,5,5970,5900,14.91,3.78,28,22,0,0
3.7035e+05,2.1523e+08,5,5903,6085,14.89,3.67,28,22,0,0
3.7084e+05,2.1535e+08,5,6078,5942,14.85,3.59,28,22,0,0
3.7129e+05,2.1546e+08,5,5942,6000,14.83,3.79,28,22,0,0
3.7174e+05,2.1557e+08,5,6001,6085,14.87,4.03,28,22,0,0
3.7219e+05,2.1568e+08,5,6079,6028,14.87,3.91,28,22,0,0
3.7263e+05,2.1579e+08,5,6032,6085,14.88,4.01,28,22,0,0
3.7308e+05,2.159e+08,5,6082,6057,14.97,3.95,28,23,0,0
3.7353e+05,2.1601e+08,5,6062,6114,14.93,3.78,28,23,0,0
3.7393e+05,2.1611e+08,5,6110,5900,14.86,3.78,28,23,0,0
3.7486e+05,2.1633e+08,5,5903,6057,14.88,3.72,28,23,0,0
3.7531e+05,2.1644e+08,5,6046,5900,14.83,4.19,28,23,0,0
3.7572e+05,2.1655e+08,5,5897,5871,14.86,3.72,28,23,0,0
3.7621e+05,2.1666e+08,5,5888,6071,14.85,4.27,28,23,0,0
3.7662e+05,2.1676e+08,5,6055,5900,14.88,3.67,28,24,0,0
3.7707e+05,2.1688e+08,5,5915,6071,14.86,3.74,28,24,0,0
3.775e+05,2.1697e+08,5,6071,6071,14.82,3.9,28,24,0,0
3.7795e+05,2.1709e+08,5,6071,6100,14.81,3.97,28,24,0,0
3.7841e+05,2.172e+08,5,6084,5871,14.89,3.09,28,24,0,0
3.7885e+05,2.1731e+08,5,5872,5942,14.88,3.79,28,24,0,0
3.793e+05,2.1742e+08,5,5942,5942,14.85,3.9,28,24,0,0
3.7979e+05,2.1754e+08,5,5949,6028,14.91,3.85,28,24,0,0
3.8024e+05,2.1765e+08,5,6021,5957,14.94,3.72,28,24,0,0
3.8068e+05,2.1775e+08,5,5967,6071,14.91,3.81,28,25,0,0
3.8113e+05,2.1786e+08,5,6069,5985,14.92,3.66,28,25,0,0
3.8153e+05,2.1796e+08,5,5986,6071,14.85,3.5,28,25,0,0
3.8202e+05,2.1808e+08,5,6055,5900,14.9,3.84,28,25,0,0
3.8247e+05,2.1819e+08,5,5905,5971,14.8,3.77,28,25,0,0
3.8292e+05,2.183e+08,5,5962,5871,14.83,3.53,28,25,0,0
3.8336e+05,2.184e+08,5,5878,5942,14.88,3.49,28,25,0,0
3.8381e+05,2.1851e+08,5,5938,5900,14.85,3.46,28,25,0,0
3.8426e+05,2.1862e+08,5,5897,5857,14.91,3.24,28,26,0,0
3.8471e+05,2.1873e+08,5,5852,5800,14.89,3.18,28,26,0,0
3.8511e+05,2.1883e+08,5,5805,5928,14.78,3.82,28,26,0,0
3.8556e+05,2.1894e+08,5,5940,6100,14.73,4.18,28,26,0,0
3.8601e+05,2.1905e+08,5,6098,6071,14.81,4.45,28,26,0,0
3.8645e+05,2.1916e+08,5,6064,5914,14.85,3.97,28,26,0,0
3.8689e+05,2.1927e+08,5,5915,6057,14.8,3.92,28,26,0,0
3.8734e+05,2.1937e+08,5,6057,6085,14.88,3.63,28,26,0,0
3.882e+05,2.1959e+08,5,6083,5900,14.79,3.78,28,26,0,0
3.8864e+05,2.197e+08,5,5900,5914,14.92,3.64,28,27,0,0
3.8908e+05,2.198e+08,5,5911,5814,14.87,3.13,28,27,0,0
3.8954e+05,2.1992e+08,5,5817,5857,14.97,3.38,28,27,0,0
3.8999e+05,2.2003e+08,5,5846,5742,14.95,3.38,28,27,0,0
3.9084e+05,2.2024e+08,5,5741,5714,14.94,2.93,28,27,0,0
3.9133e+05,2.2036e+08,5,5698,5542,14.86,3.27,28,27,0,0
3.9218e+05,2.2057e+08,5,5540,5385,14.96,2.96,28,27,0,0
3.9263e+05,2.2068e+08,5,5390,5442,14.92,2.93,28,27,0,0
3.9307e+05,2.2078e+08,5,5447,5557,14.92,3.08,28,28,0,0
3.9352e+05,2.209e+08,5,5547,5428,14.95,2.76,28,28,0,0
3.9397e+05,2.2101e+08,5,5428,5428,14.89,3.16,28,28,0,0
3.9438e+05,2.2111e+08,5,5446,5628,14.86,2.99,29,28,0,0
3.9482e+05,2.2122e+08,5,5625,5557,14.85,3.12,29,28,0,0
3.9527e+05,2.2133e+08,5,5548,5328,14.94,3.22,28,28,0,0
3.9572e+05,2.2144e+08,5,5331,5400,14.95,2.89,28,28,0,0
3.9617e+05,2.2156e+08,5,5400,5400,14.92,2.92,28,28,0,0
3.9661e+05,2.2166e+08,5,5400,5400,14.88,3.21,28,28,0,0
3.9706e+05,2.2178e+08,5,5411,5514,14.96,3.15,28,28,0,0
3.975e+05,2.2188e+08,5,5520,5628,14.97,3.08,28,28,0,0
3.9795e+05,2.2199e+08,5,5620,5557,14.83,3.24,28,29,0,0
3.984e+05,2.221e+08,5,5570,5671,14.83,3.12,28,29,0,0
3.9917e+05,2.2231e+08,5,5668,5571,14.9,3.21,28,29,0,0
4.0012e+05,2.2264e+08,5,5551,5714,14.86,3.33,28,29,0,0
4.0098e+05,2.2284e+08,5,5713,5700,14.87,3.36,28,29,0,0
4.0146e+05,2.2296e+08,5,5690,5614,14.9,3.31,28,29,0,0
4.019e+05,2.2307e+08,5,5615,5628,14.86,3.13,28,30,0,0
4.0231e+05,2.2317e+08,5,5627,5614,14.9,2.88,28,30,0,0
4.0276e+05,2.2328e+08,5,5611,5557,14.93,3.01,28,30,0,0
4.032e+05,2.2339e+08,5,5555,5471,14.91,2.79,28,30,0,0
4.041e+05,2.2361e+08,5,5473,5557,14.89,3.08,28,30,0,0
4.0544e+05,2.2394e+08,5,5557,5557,14.86,2.88,29,30,0,0
4.0584e+05,2.2404e+08,5,5558,5657,14.86,3.27,28,30,0,0
4.063e+05,2.2415e+08,5,5654,5485,14.88,3.12,28,30,0,0
4.0722e+05,2.2437e+08,5,5495,5728,14.84,3.41,28,31,0,0
4.0766e+05,2.2448e+08,5,5743,5942,14.88,3.46,28,31,0,0
4.0812e+05,2.2459e+08,5,5925,5714,14.87,3.28,28,31,0,0
4.0857e+05,2.247e+08,5,5720,5785,14.78,3.71,28,31,0,0
4.0901e+05,2.2481e+08,5,5783,5757,14.86,3.66,28,31,0,0
4.0942e+05,2.2491e+08,5,5757,5785,14.89,3.38,28,31,0,0
4.0987e+05,2.2502e+08,5,5792,5900,14.88,3.22,29,31,0,0
4.1032e+05,2.2513e+08,5,5887,5714,14.87,3.11,28,31,0,0
4.1076e+05,2.2524e+08,5,5711,5657,14.83,3.02,28,31,0,0
4.1122e+05,2.2535e+08,5,5649,5542,14.83,3.09,28,32,0,0
4.1166e+05,2.2546e+08,5,5543,5557,14.86,2.84,28,32,0,0
4.1211e+05,2.2557e+08,5,5562,5642,14.88,3.13,28,32,0,0
4.1252e+05,2.2567e+08,5,5640,5585,14.89,2.91,28,32,0,0
4.1297e+05,2.2578e+08,5,5582,5528,14.83,2.88,28,32,0,0
4.1342e+05,2.2589e+08,5,5530,5585,14.84,3.42,28,32,0,0
4.1391e+05,2.2601e+08,5,5599,5757,14.84,3.61,28,32,0,0
4.1431e+05,2.2611e+08,5,5756,5742,14.75,3.65,28,32,0,0
4.1476e+05,2.2622e+08,5,5753,5900,14.79,3.75,28,32,0,0
4.152e+05,2.2633e+08,5,5899,5885,14.8,3.62,28,32,0,0
4.1566e+05,2.2645e+08,5,5885,5885,14.82,3.63,28,33,0,0
4.1607e+05,2.2655e+08,5,5900,6057,14.82,4,28,33,0,0
4.1647e+05,2.2666e+08,5,6054,5885,14.82,3.77,28,33,0,0
4.1697e+05,2.2677e+08,5,5896,6014,14.76,3.96,28,33,0,0
4.1738e+05,2.2688e+08,5,6003,5871,14.84,3.25,28,33,0,0
4.1783e+05,2.2699e+08,5,5874,5914,14.82,3.72,28,33,0,0
4.1827e+05,2.2709e+08,5,5907,5785,14.93,2.77,28,33,0,0
4.1876e+05,2.2721e+08,5,5741,5157,15.01,2.39,28,33,0,0
4.1916e+05,2.2731e+08,5,5158,5200,14.97,2.43,28,33,0,0
4.1961e+05,2.2742e+08,5,5201,5271,14.9,2.95,28,33,0,0
4.2006e+05,2.2753e+08,5,5266,5157,14.91,2.58,28,34,0,0
4.2055e+05,2.2764e+08,5,5157,5171,14.95,2.22,28,34,0,0
4.21e+05,2.2775e+08,5,5167,5114,14.92,2.73,28,34,0,0
4.2186e+05,2.2797e+08,5,5121,5485,14.91,3.33,28,34,0,0
4.223e+05,2.2808e+08,5,5486,5500,14.89,2.94,28,34,0,0
4.2275e+05,2.2819e+08,5,5486,5357,14.92,2.72,28,34,0,0
4.2364e+05,2.284e+08,5,5360,5442,14.9,3.01,28,34,0,0
4.2453e+05,2.2862e+08,5,5448,5585,14.9,3.07,28,34,0,0
4.2498e+05,2.2873e+08,5,5582,5542,14.86,3.12,28,35,0,0
4.2543e+05,2.2885e+08,5,5546,5585,14.85,3.29,28,35,0,0
4.2608e+05,2.2907e+08,5,5574,5414,14.97,2.68,28,35,0,0
4.2649e+05,2.2916e+08,5,5404,5271,14.91,2.44,28,35,0,0
4.2738e+05,2.2939e+08,5,5271,5285,14.89,2.47,28,35,0,0
4.2782e+05,2.2949e+08,5,5288,5314,14.86,2.78,28,35,0,0
4.2827e+05,2.296e+08,5,5302,5200,14.91,2.45,28,35,0,0
4.2868e+05,2.2971e+08,5,5187,4985,14.95,2.23,28,35,0,0
4.2913e+05,2.2982e+08,5,4992,5085,14.92,2.42,28,35,0,0
4.3047e+05,2.3014e+08,5,5094,5385,14.88,2.71,28,36,0,0
4.3092e+05,2.3025e+08,5,5377,5314,14.94,2.54,28,36,0,0
4.3136e+05,2.3036e+08,5,5304,5200,14.97,2.17,28,36,0,0
4.3176e+05,2.3047e+08,5,5198,5085,14.91,2.83,28,36,0,0
4.3226e+05,2.3058e+08,5,5101,5257,14.86,2.75,28,36,0,0
4.3266e+05,2.3068e+08,5,5254,5171,14.89,2.45,28,36,0,0
4.3311e+05,2.3079e+08,5,5167,5100,14.92,2.4,28,36,0,0
4.3355e+05,2.309e+08,5,5104,5157,14.92,2.61,28,36,0,0
4.3445e+05,2.3112e+08,5,5173,5528,14.88,2.96,28,36,0,0
4.349e+05,2.3123e+08,5,5522,5471,14.86,3.15,28,36,0,0
4.3534e+05,2.3134e+08,5,5478,5557,14.87,3.27,28,36,0,0
4.3574e+05,2.3145e+08,5,5557,5557,14.87,2.47,28,37,0,0
4.3619e+05,2.3156e+08,5,5553,5485,14.88,2.98,28,37,0,0
4.3664e+05,2.3167e+08,5,5477,5400,14.9,2.73,28,37,0,0
4.3709e+05,2.3178e+08,5,5401,5414,14.92,2.88,28,37,0,0
4.3749e+05,2.3188e+08,5,5418,5457,14.93,2.51,28,37,0,0
4.3794e+05,2.3199e+08,5,5446,5214,14.98,2.08,28,37,0,0
4.3839e+05,2.321e+08,5,5205,5071,14.95,2.47,28,37,0,0
4.3928e+05,2.3232e+08,5,5073,5442,14.9,2.84,28,37,0,0
4.3972e+05,2.3243e+08,5,5446,5557,14.88,3.14,28,37,0,0
4.4062e+05,2.3265e+08,5,5558,5600,14.82,3.25,28,37,0,0
4.4106e+05,2.3276e+08,5,5602,5657,14.89,3.2,28,38,0,0
4.415e+05,2.3287e+08,5,5630,5357,14.89,2.74,28,38,0,0
4.4196e+05,2.3298e+08,5,5384,5671,14.84,3.33,28,38,0,0
4.4236e+05,2.3308e+08,5,5669,5585,14.94,2.99,28,38,0,0
4.4286e+05,2.332e+08,5,5582,5557,14.9,3.03,28,38,0,0
4.433e+05,2.3331e+08,5,5568,5685,14.82,3.21,28,38,0,0
4.437e+05,2.3341e+08,5,5684,5642,14.94,3,28,38,0,0
4.4415e+05,2.3352e+08,5,5637,5542,14.97,2.66,28,38,0,0
4.4459e+05,2.3363e+08,5,5539,5485,14.93,2.6,28,38,0,0
4.4504e+05,2.3374e+08,5,5473,5314,15.01,2.47,28,38,0,0
4.4544e+05,2.3384e+08,5,5313,5300,14.88,2.37,28,38,0,0
4.4593e+05,2.3396e+08,5,5319,5500,14.82,3.29,28,39,0,0
4.4638e+05,2.3407e+08,5,5544,5900,14.73,3.77,28,39,0,0
4.4678e+05,2.3417e+08,5,5896,5828,14.78,3.36,28,39,0,0
4.4722e+05,2.3428e+08,5,5824,5742,14.87,3.1,28,39,0,0
4.4767e+05,2.3439e+08,5,5738,5671,14.89,2.92,28,39,0,0
4.4812e+05,2.345e+08,5,5669,5571,14.89,2.99,28,39,0,0
4.4861e+05,2.3461e+08,5,5575,5628,14.79,3.02,28,39,0,0
4.4901e+05,2.3472e+08,5,5627,5585,14.79,3.32,28,39,0,0
4.4946e+05,2.3482e+08,5,5585,5628,14.79,3.14,28,39,0,0
4.4994e+05,2.3494e+08,5,5628,5642,14.77,2.95,28,39,0,0
4.5039e+05,2.3505e+08,5,5638,5571,14.85,2.86,28,40,0,0
4.508e+05,2.3515e+08,5,5573,5614,14.88,3.09,28,40,0,0
4.5121e+05,2.3526e+08,5,5614,5614,14.85,2.81,28,40,0,0
4.5166e+05,2.3537e+08,5,5610,5485,14.9,2.5,28,40,0,0
4.5208e+05,2.3547e+08,5,5479,5300,14.83,2.45,28,40,0,0
4.5252e+05,2.3558e+08,5,5300,5342,14.89,2.51,28,40,0,0
4.5298e+05,2.3569e+08,5,5350,5471,14.88,2.94,28,40,0,0
4.5386e+05,2.3591e+08,5,5470,5457,14.95,2.61,28,40,0,0
4.5436e+05,2.3603e+08,5,5452,5400,14.85,2.43,28,40,0,0
4.548e+05,2.3613e+08,5,5401,5414,14.82,2.77,28,40,0,0
4.5521e+05,2.3623e+08,5,5412,5342,14.82,2.62,28,40,0,0
4.5569e+05,2.3635e+08,5,5346,5400,14.81,2.87,28,40,0,0
4.5609e+05,2.3645e+08,5,5403,5685,14.8,3.49,28,41,0,0
4.5654e+05,2.3656e+08,5,5676,5471,14.79,2.83,28,41,0,0
4.5699e+05,2.3667e+08,5,5470,5428,14.83,2.76,28,41,0,0
4.5743e+05,2.3678e+08,5,5427,5414,14.91,2.62,28,41,0,0
4.5836e+05,2.37e+08,5,5418,5514,14.82,3.16,28,41,0,0
4.5877e+05,2.3711e+08,5,5512,5485,14.82,3.21,28,41,0,0
4.5921e+05,2.3722e+08,5,5487,5657,14.8,3.28,28,41,0,0
4.5969e+05,2.3733e+08,5,5673,5828,14.78,3.84,28,41,0,0
4.6015e+05,2.3744e+08,5,5830,5857,14.73,3.47,28,41,0,0
4.6058e+05,2.3755e+08,5,5870,5985,14.72,3.71,28,41,0,0
4.6104e+05,2.3765e+08,5,5993,6085,14.75,3.84,28,42,0,0
4.6147e+05,2.3776e+08,5,6068,5857,14.73,3.36,28,42,0,0
4.6236e+05,2.3798e+08,5,5855,5814,14.76,3.74,28,42,0,0
4.628e+05,2.3809e+08,5,5819,5885,14.81,3.01,28,42,0,0
4.6329e+05,2.3821e+08,5,5873,5771,14.84,3.65,28,42,0,0
4.6374e+05,2.3832e+08,5,5782,5928,14.77,3.8,28,42,0,0
4.6459e+05,2.3854e+08,5,5925,5871,14.79,3.58,28,43,0,0
4.6504e+05,2.3865e+08,5,5887,6014,14.75,3.51,28,43,0,0
4.6548e+05,2.3876e+08,5,6008,5885,14.73,3.7,28,43,0,0
4.659e+05,2.3886e+08,5,5885,5900,14.79,3.57,28,43,0,0
4.6634e+05,2.3897e+08,5,5897,5857,14.75,3.63,28,43,0,0
4.6683e+05,2.3909e+08,5,5870,6014,14.75,3.71,28,43,0,0
4.6723e+05,2.3919e+08,5,6021,6114,14.76,3.93,28,43,0,0
4.6763e+05,2.3929e+08,5,6106,5957,14.77,3.62,28,43,0,0
4.6812e+05,2.3941e+08,5,5953,5914,14.73,3.58,28,43,0,0
4.6856e+05,2.3952e+08,5,5902,5785,14.78,3.27,28,44,0,0
4.6897e+05,2.3962e+08,5,5786,5914,14.75,3.83,28,44,0,0
4.6942e+05,2.3973e+08,5,5911,5885,14.75,3.56,28,44,0,0
4.6986e+05,2.3984e+08,5,5872,5757,14.72,3.52,28,44,0,0
4.7027e+05,2.3994e+08,5,5758,5785,14.81,3.48,28,44,0,0
4.7072e+05,2.4005e+08,5,5786,5800,14.77,3.57,28,44,0,0
4.7116e+05,2.4016e+08,5,5801,5814,14.76,3.42,28,44,0,0
4.7156e+05,2.4026e+08,5,5813,5800,14.84,3.38,28,44,0,0
4.7201e+05,2.4037e+08,5,5799,5785,14.79,3.48,28,44,0,0
4.7246e+05,2.4048e+08,5,5787,5828,14.77,3.51,28,44,0,0
4.7332e+05,2.4069e+08,5,5827,5771,14.8,3.53,28,45,0,0
4.7376e+05,2.408e+08,5,5770,5714,14.8,3.48,28,45,0,0
4.7421e+05,2.4091e+08,5,5714,5742,14.82,3.03,28,45,0,0
4.7466e+05,2.4102e+08,5,5741,5700,14.8,3.3,28,45,0,0
4.7511e+05,2.4114e+08,5,5703,5742,14.75,3.56,28,45,0,0
4.7556e+05,2.4125e+08,5,5739,5714,14.79,3.47,28,45,0,0
4.7596e+05,2.4135e+08,5,5712,5685,14.76,3.34,28,45,0,0
4.7689e+05,2.4157e+08,5,5688,5785,14.72,3.5,28,45,0,0
4.7734e+05,2.4168e+08,5,5798,5928,14.72,3.55,28,46,0,0
4.7775e+05,2.4179e+08,5,5930,5957,14.8,3.63,28,46,0,0
4.7815e+05,2.4189e+08,5,5956,5942,14.68,3.88,28,46,0,0
4.7865e+05,2.4201e+08,5,5944,5971,14.67,3.72,28,46,0,0
4.7905e+05,2.4211e+08,5,5974,6014,14.66,4.26,28,46,0,0
4.795e+05,2.4222e+08,5,6021,6128,14.67,4.17,28,46,0,0
4.7994e+05,2.4233e+08,5,6113,5971,14.75,3.77,28,46,0,0
4.804e+05,2.4244e+08,5,5956,5742,14.8,3.3,28,46,0,0
4.8084e+05,2.4255e+08,5,5753,5928,14.79,3.57,28,46,0,0
4.8129e+05,2.4267e+08,5,5908,5671,14.76,3.55,28,47,0,0
4.8169e+05,2.4277e+08,5,5673,5742,14.81,2.92,28,47,0,0
4.8217e+05,2.4288e+08,5,5739,5685,14.77,3.15,28,47,0,0
4.8262e+05,2.4299e+08,5,5675,5571,14.77,3,28,47,0,0
4.8302e+05,2.4309e+08,5,5571,5628,14.8,3.26,28,47,0,0
4.8347e+05,2.432e+08,5,5627,5614,14.88,2.94,28,47,0,0
4.8395e+05,2.4331e+08,5,5617,5657,14.83,3.35,28,47,0,0
4.844e+05,2.4342e+08,5,5663,5728,14.8,3.2,28,47,0,0
4.848e+05,2.4352e+08,5,5727,5671,14.79,2.93,28,47,0,0
4.8529e+05,2.4364e+08,5,5653,5471,14.83,2.88,28,47,0,0
4.8569e+05,2.4374e+08,5,5468,5442,14.88,2.74,28,48,0,0
4.8614e+05,2.4385e+08,5,5448,5500,14.8,2.81,28,48,0,0
4.8659e+05,2.4396e+08,5,5496,5457,14.88,2.71,28,48,0,0
4.8704e+05,2.4407e+08,5,5446,5357,14.88,2.84,28,48,0,0
4.8749e+05,2.4418e+08,5,5378,5600,14.85,2.73,28,48,0,0
4.8789e+05,2.4428e+08,5,5598,5571,14.71,3.22,28,48,0,0
4.8833e+05,2.4439e+08,5,5575,5728,14.75,3.19,28,48,0,0
4.8879e+05,2.4451e+08,5,5712,5557,14.73,3.18,28,48,0,0
4.8923e+05,2.4461e+08,5,5559,5714,14.77,3.24,28,48,0,0
4.8968e+05,2.4472e+08,5,5714,5728,14.75,3.25,28,48,0,0
4.9102e+05,2.4506e+08,5,5735,5942,14.82,3.66,28,49,0,0
4.9143e+05,2.4515e+08,5,5938,5742,14.75,3.26,28,49,0,0
4.9191e+05,2.4527e+08,5,5746,5828,14.82,3.14,28,49,0,0
4.924e+05,2.4539e+08,5,5816,5700,14.84,3.08,28,49,0,0
4.9281e+05,2.4549e+08,5,5717,5957,14.73,3.54,28,49,0,0
4.9326e+05,2.456e+08,5,5944,5771,14.76,2.88,28,49,0,0
4.9415e+05,2.4582e+08,5,5763,5600,14.8,3.11,28,49,0,0
4.946e+05,2.4593e+08,5,5610,5728,14.76,3.62,28,49,0,0
4.9505e+05,2.4604e+08,5,5720,5642,14.76,2.86,28,50,0,0
4.9545e+05,2.4614e+08,5,5642,5642,14.74,3.06,28,50,0,0
4.9594e+05,2.4625e+08,5,5635,5571,14.76,3.18,28,50,0,0
4.9634e+05,2.4636e+08,5,5577,5671,14.82,3.21,28,50,0,0
4.968e+05,2.4647e+08,5,5662,5542,14.82,3.25,28,50,0,0
4.9724e+05,2.4659e+08,5,5577,5771,14.79,3.56,28,50,0,0
4.9769e+05,2.467e+08,5,5775,5828,14.81,3.35,28,50,0,0
4.9854e+05,2.469e+08,5,5828,5914,14.77,3.73,28,50,0,0
4.9902e+05,2.4702e+08,5,5902,5800,14.82,3.5,28,50,0,0
4.9943e+05,2.4712e+08,5,5797,5742,14.77,3.42,28,51,0,0
4.9987e+05,2.4723e+08,5,5742,5757,14.82,3.2,28,51,0,0
5.0028e+05,2.4733e+08,5,5757,5757,14.75,3.28,28,51,0,0
5.0073e+05,2.4744e+08,5,5766,5871,14.8,3.65,28,51,0,0
5.0122e+05,2.4756e+08,5,5858,5728,14.78,3.41,28,51,0,0
5.0202e+05,2.4777e+08,5,5727,5685,14.82,3.33,28,51,0,0
5.0247e+05,2.4788e+08,5,5683,5557,14.77,3.1,28,51,0,0
5.0336e+05,2.4809e+08,5,5561,5771,14.84,3.17,28,51,0,0
5.0384e+05,2.4821e+08,5,5766,5728,14.8,3.46,28,52,0,0
5.0429e+05,2.4832e+08,5,5728,5728,14.83,3.55,28,52,0,0
5.0469e+05,2.4842e+08,5,5729,5828,14.79,3.41,28,52,0,0
5.0514e+05,2.4853e+08,5,5826,5700,14.83,3.68,28,52,0,0
5.0559e+05,2.4863e+08,5,5701,5742,14.73,3.47,28,52,0,0
5.0603e+05,2.4875e+08,5,5740,5728,14.8,3.63,28,52,0,0
5.0647e+05,2.4886e+08,5,5741,5857,14.79,3.73,28,52,0,0
5.0688e+05,2.4896e+08,5,5853,5728,14.75,3.78,28,52,0,0
5.0734e+05,2.4908e+08,5,5737,5828,14.72,3.55,28,52,0,0
5.0774e+05,2.4917e+08,5,5829,5900,14.72,3.68,28,53,0,0
5.0818e+05,2.4929e+08,5,5894,5828,14.77,3.38,28,53,0,0
5.0903e+05,2.495e+08,5,5828,5828,14.77,3.38,28,53,0,0
5.0952e+05,2.4962e+08,5,5830,5857,14.79,3.28,28,53,0,0
5.0993e+05,2.4973e+08,5,5825,5585,14.77,3.01,28,53,0,0
5.1078e+05,2.4993e+08,5,5583,5471,14.82,2.93,28,53,0,0
5.1123e+05,2.5004e+08,5,5468,5414,14.76,2.93,28,53,0,0
5.1172e+05,2.5016e+08,5,5423,5514,14.79,3.06,28,53,0,0
5.1216e+05,2.5027e+08,5,5503,5400,14.75,3.14,28,53,0,0
5.1261e+05,2.5038e+08,5,5410,5528,14.77,3.26,28,54,0,0
5.1301e+05,2.5048e+08,5,5529,5542,14.76,3.13,28,54,0,0
5.139e+05,2.507e+08,5,5543,5614,14.72,3.35,28,54,0,0
5.148e+05,2.5093e+08,5,5620,5757,14.75,3.53,28,54,0,0
5.1525e+05,2.5104e+08,5,5754,5728,14.69,3.51,28,54,0,0
5.1565e+05,2.5114e+08,5,5728,5728,14.76,3.31,28,54,0,0
5.161e+05,2.5125e+08,5,5725,5685,14.76,3.45,28,54,0,0
5.165e+05,2.5135e+08,5,5684,5657,14.76,3.19,28,54,0,0
5.17e+05,2.5147e+08,5,5667,5785,14.79,3.26,28,55,0,0
5.174e+05,2.5157e+08,5,5776,5700,14.81,3.39,28,55,0,0
5.1829e+05,2.5179e+08,5,5698,5671,14.77,3.46,28,55,0,0
5.1873e+05,2.519e+08,5,5673,5728,14.77,3.41,28,55,0,0
5.1918e+05,2.5201e+08,5,5726,5700,14.74,3.35,28,55,0,0
5.1962e+05,2.5212e+08,5,5701,5714,14.79,3.1,28,55,0,0
5.2007e+05,2.5223e+08,5,5714,5728,14.76,3.22,28,55,0,0
5.205e+05,2.5233e+08,5,5728,5728,14.8,3.34,28,55,0,0
5.2096e+05,2.5244e+08,5,5718,5585,14.73,3.19,28,55,0,0
5.2226e+05,2.5276e+08,5,5585,5685,14.77,3.6,28,56,0,0
5.2274e+05,2.5288e+08,5,5685,5685,14.76,3.14,28,56,0,0
5.232e+05,2.5299e+08,5,5676,5600,14.75,3.07,28,56,0,0
5.236e+05,2.5309e+08,5,5608,5771,14.81,3.14,28,56,0,0
5.2406e+05,2.5321e+08,5,5752,5500,14.76,3.08,28,56,0,0
5.245e+05,2.5331e+08,5,5507,5600,14.75,3.07,28,56,0,0
5.2495e+05,2.5342e+08,5,5597,5571,14.79,3.21,28,56,0,0
5.2535e+05,2.5352e+08,5,5571,5585,14.82,3.17,28,56,0,0
5.2585e+05,2.5364e+08,5,5588,5628,14.82,2.99,28,57,0,0
5.2625e+05,2.5375e+08,5,5624,5585,14.83,3.13,28,57,0,0
5.2671e+05,2.5386e+08,5,5585,5585,14.79,3.21,28,57,0,0
5.2715e+05,2.5397e+08,5,5578,5514,14.75,3.16,28,57,0,0
5.2751e+05,2.5406e+08,5,5516,5642,14.79,3.52,28,57,0,0
5.2799e+05,2.5417e+08,5,5645,5714,14.78,3.44,28,57,0,0
5.284e+05,2.5428e+08,5,5710,5557,14.79,3.11,28,57,0,0
5.2885e+05,2.5439e+08,5,5558,5600,14.82,3.14,28,57,0,0
5.293e+05,2.545e+08,5,5605,5671,14.8,3.34,28,57,0,0
5.2971e+05,2.5461e+08,5,5668,5542,14.84,3.23,28,57,0,0
5.3015e+05,2.5472e+08,5,5545,5785,14.78,3.43,28,58,0,0
5.3064e+05,2.5483e+08,5,5787,5828,14.77,3.77,28,58,0,0
5.3108e+05,2.5494e+08,5,5837,5971,14.72,3.92,28,58,0,0
5.3153e+05,2.5505e+08,5,5980,6114,14.68,4.1,28,58,0,0
5.3194e+05,2.5515e+08,5,6116,6285,14.62,4.34,28,58,0,0
5.3242e+05,2.5527e+08,5,6284,6214,14.56,4.76,28,58,0,0
5.3287e+05,2.5538e+08,5,6238,6442,14.56,4.88,28,58,0,0
5.3331e+05,2.5549e+08,5,6439,6314,14.61,4.5,28,58,0,0
5.3376e+05,2.556e+08,5,6309,6228,14.67,4.3,28,59,0,0
5.3416e+05,2.557e+08,5,6225,6071,14.58,4.06,28,59,0,0
5.3466e+05,2.5582e+08,5,6074,6128,14.66,3.82,28,59,0,0
5.3506e+05,2.5592e+08,5,6126,6042,14.72,3.88,28,59,0,0
5.3554e+05,2.5603e+08,5,6035,5942,14.7,3.67,28,59,0,0
5.3598e+05,2.5614e+08,5,5924,5685,14.72,3.53,28,59,0,0
5.3643e+05,2.5625e+08,5,5691,5828,14.73,3.15,28,59,0,0
5.3688e+05,2.5636e+08,5,5820,5742,14.72,3.27,28,59,0,0
5.3728e+05,2.5646e+08,5,5740,5614,14.75,2.99,28,59,0,0
5.3776e+05,2.5657e+08,5,5602,5485,14.77,3.07,28,60,0,0
5.3817e+05,2.5668e+08,5,5492,5585,14.76,3.36,28,60,0,0
5.3862e+05,2.5679e+08,5,5594,5742,14.69,3.58,28,60,0,0
5.3903e+05,2.5689e+08,5,5742,5742,14.72,3.97,28,60,0,0
5.3948e+05,2.57e+08,5,5745,5942,14.7,3.63,28,60,0,0
5.3992e+05,2.5712e+08,5,5931,5828,14.77,3.46,28,60,0,0
5.4037e+05,2.5722e+08,5,5825,5785,14.79,3.46,28,60,0,0
5.4081e+05,2.5733e+08,5,5781,5728,14.77,3.36,28,60,0,0
5.4126e+05,2.5744e+08,5,5728,5728,14.8,3.6,28,60,0,0
5.4166e+05,2.5754e+08,5,5728,5771,14.83,3.42,28,60,0,0
5.4218e+05,2.5766e+08,5,5776,5814,14.83,3.28,28,61,0,0
5.4259e+05,2.5776e+08,5,5799,5614,14.85,3.06,28,61,0,0
5.43e+05,2.5787e+08,5,5616,5642,14.89,3.02,28,61,0,0
5.4345e+05,2.5798e+08,5,5640,5600,14.81,3.22,28,61,0,0
5.4392e+05,2.5809e+08,5,5583,5442,14.87,2.94,28,61,0,0
5.4437e+05,2.582e+08,5,5449,5514,14.83,3.11,28,61,0,0
5.4481e+05,2.5831e+08,5,5504,5428,14.77,2.85,28,61,0,0
5.4566e+05,2.5852e+08,5,5424,5357,14.78,2.76,28,61,0,0
5.4611e+05,2.5863e+08,5,5357,5357,14.86,2.72,28,61,0,0
5.4651e+05,2.5873e+08,5,5355,5328,14.8,2.65,28,61,0,0
5.4696e+05,2.5884e+08,5,5328,5357,14.85,2.88,28,62,0,0
5.4743e+05,2.5895e+08,5,5369,5571,14.79,3.27,28,62,0,0
5.4788e+05,2.5906e+08,5,5571,5571,14.78,3.12,28,62,0,0
5.4833e+05,2.5917e+08,5,5557,5442,14.8,3.22,28,62,0,0
5.4918e+05,2.5939e+08,5,5471,5957,14.72,3.6,28,62,0,0
5.4962e+05,2.5949e+08,5,5935,5700,14.8,3.3,28,62,0,0
5.5007e+05,2.596e+08,5,5702,5742,14.76,3.28,28,62,0,0
5.5047e+05,2.5971e+08,5,5741,5728,14.82,3.35,28,62,0,0
5.5097e+05,2.5983e+08,5,5721,5671,14.79,3.24,28,62,0,0
5.5138e+05,2.5993e+08,5,5692,5842,14.77,3.92,28,63,0,0
5.5183e+05,2.6004e+08,5,5840,5828,14.75,3.78,28,63,0,0
5.5223e+05,2.6014e+08,5,5830,5971,14.71,4.04,28,63,0,0
5.5268e+05,2.6025e+08,5,5968,5914,14.75,3.77,28,63,0,0
5.5312e+05,2.6036e+08,5,5905,5785,14.74,3.29,28,63,0,0
5.5357e+05,2.6047e+08,5,5782,5757,14.77,3.45,28,63,0,0
5.5402e+05,2.6058e+08,5,5753,5714,14.71,3.59,28,63,0,0
5.5442e+05,2.6069e+08,5,5714,5757,14.78,3.16,28,63,0,0
5.5487e+05,2.6079e+08,5,5755,5671,14.73,3.39,28,63,0,0
5.5532e+05,2.609e+08,5,5673,5700,14.71,3.2,28,64,0,0
5.5581e+05,2.6102e+08,5,5689,5571,14.73,3.32,28,64,0,0
5.5617e+05,2.6112e+08,5,5573,5685,14.74,3.83,28,64,0,0
5.567e+05,2.6123e+08,5,5702,5942,14.72,4,28,64,0,0
5.5706e+05,2.6133e+08,5,5943,5971,14.79,3.74,28,64,0,0
5.5751e+05,2.6144e+08,5,5971,5971,14.73,4,28,64,0,0
5.5792e+05,2.6155e+08,5,5975,6042,14.76,4,28,64,0,0
5.5877e+05,2.6176e+08,5,6047,6271,14.73,4.1,28,64,0,0
5.5922e+05,2.6187e+08,5,6257,6100,14.75,3.89,28,65,0,0
5.601e+05,2.6208e+08,5,6098,5971,14.82,3.65,28,65,0,0
5.6056e+05,2.622e+08,5,5973,6100,14.75,4.08,28,65,0,0
5.6104e+05,2.6231e+08,5,6091,6000,14.64,3.66,28,65,0,0
5.6149e+05,2.6242e+08,5,6008,6085,14.73,4,28,65,0,0
5.6189e+05,2.6252e+08,5,6083,6014,14.67,4.15,28,65,0,0
5.6238e+05,2.6264e+08,5,6023,6114,14.76,4.16,28,65,0,0
5.6279e+05,2.6274e+08,5,6104,5971,14.69,3.91,28,65,0,0
5.6323e+05,2.6285e+08,5,5982,6142,14.69,4.04,28,66,0,0
5.6369e+05,2.6297e+08,5,6130,6014,14.81,3.55,28,66,0,0
5.6408e+05,2.6306e+08,5,6012,5957,14.79,3.72,28,66,0,0
5.6453e+05,2.6317e+08,5,5953,5742,14.84,3.2,28,66,0,0
5.6499e+05,2.6329e+08,5,5752,6000,14.83,3.81,28,66,0,0
5.6544e+05,2.6339e+08,5,5990,5771,14.8,3.23,28,66,0,0
5.6589e+05,2.6351e+08,5,5772,5800,14.77,3.44,28,66,0,0
5.6634e+05,2.6362e+08,5,5806,5900,14.79,3.48,28,66,0,0
5.6678e+05,2.6373e+08,5,5876,5628,14.8,2.99,28,66,0,0
5.6719e+05,2.6383e+08,5,5632,5728,14.76,3.46,28,67,0,0
5.6764e+05,2.6394e+08,5,5754,6114,14.72,4.35,28,67,0,0
5.6808e+05,2.6404e+08,5,6116,6285,14.76,4.29,28,67,0,0
5.6852e+05,2.6416e+08,5,6276,6157,14.7,3.75,28,67,0,0
5.6897e+05,2.6427e+08,5,6123,5657,14.75,3.12,28,67,0,0
5.6942e+05,2.6438e+08,5,5661,5714,14.68,3.62,28,67,0,0
5.6956e+05,2.6448e+08,5,5735,6014,14.68,3.82,28,67,0,0
5.6998e+05,2.6459e+08,5,6020,6085,14.65,4.15,28,67,0,0
5.7039e+05,2.647e+08,5,6081,5985,14.64,3.82,28,68,0,0
5.7087e+05,2.6481e+08,5,5998,6128,14.68,3.75,28,68,0,0
5.7128e+05,2.6492e+08,5,6123,5871,14.63,3.77,28,68,0,0
5.7172e+05,2.6502e+08,5,5869,5814,14.6,3.8,29,68,0,0
5.7217e+05,2.6513e+08,5,5823,6057,14.58,4.1,28,68,0,0
5.7261e+05,2.6524e+08,5,6057,6057,14.57,4.16,28,68,0,0
5.7306e+05,2.6535e+08,5,6054,5942,14.55,4.29,29,68,0,0
5.7351e+05,2.6547e+08,5,5947,6100,14.57,4.03,28,68,0,0
5.7395e+05,2.6557e+08,5,6091,5985,14.56,4.29,28,69,0,0
5.744e+05,2.6568e+08,5,5996,6114,14.53,4.16,29,69,0,0
5.7485e+05,2.6579e+08,5,6095,5914,14.64,3.4,28,69,0,0
5.7529e+05,2.659e+08,5,5907,5785,14.62,3.45,28,69,0,0
5.7574e+05,2.6601e+08,5,5800,5957,14.66,3.57,28,69,0,0
5.7615e+05,2.6612e+08,5,5950,5857,14.58,3.97,29,69,0,0
5.7659e+05,2.6622e+08,5,5860,5942,14.6,3.76,28,69,0,0
5.7708e+05,2.6634e+08,5,5951,6042,14.62,4.38,28,69,0,0
5.7753e+05,2.6645e+08,5,6052,6200,14.64,3.99,28,69,0,0
5.7797e+05,2.6656e+08,5,6187,6014,14.62,3.88,29,70,0,0
5.7842e+05,2.6668e+08,5,5977,5671,14.69,2.97,28,70,0,0
5.7883e+05,2.6678e+08,5,5666,5614,14.68,3.29,28,70,0,0
5.7928e+05,2.6689e+08,5,5620,5700,14.75,3.24,28,70,0,0
5.7972e+05,2.67e+08,5,5702,5728,14.73,3.24,28,70,0,0
5.8017e+05,2.6711e+08,5,5729,5742,14.7,3.56,28,70,0,0
5.8061e+05,2.6721e+08,5,5742,5742,14.69,3.36,28,70,0,0
5.8102e+05,2.6732e+08,5,5740,5700,14.66,3.26,28,70,0,0
5.8152e+05,2.6744e+08,5,5707,5771,14.76,2.91,28,70,0,0
5.8192e+05,2.6754e+08,5,5753,5514,14.75,2.9,28,70,0,0
5.8237e+05,2.6765e+08,5,5515,5528,14.73,3.06,28,71,0,0
5.8277e+05,2.6775e+08,5,5524,5414,14.7,2.85,29,71,0,0
5.8322e+05,2.6786e+08,5,5414,5414,14.75,3,29,71,0,0
5.8411e+05,2.6809e+08,5,5413,5385,14.66,3.09,29,71,0,0
5.8456e+05,2.682e+08,5,5396,5642,14.71,3.2,29,71,0,0
5.8505e+05,2.6832e+08,5,5632,5528,14.7,3.21,29,71,0,0
5.8546e+05,2.6842e+08,5,5536,5642,14.66,3.36,28,71,0,0
5.8591e+05,2.6853e+08,5,5643,5671,14.69,3.48,29,71,0,0
5.8636e+05,2.6864e+08,5,5669,5657,14.75,3.28,29,71,0,0
5.8676e+05,2.6874e+08,5,5658,5685,14.73,3.04,28,71,0,0
5.8766e+05,2.6896e+08,5,5690,5814,14.73,3.43,29,72,0,0
5.8855e+05,2.6918e+08,5,5809,5714,14.64,3.12,28,72,0,0
5.89e+05,2.6929e+08,5,5717,5757,14.7,3.31,28,72,0,0
5.8944e+05,2.694e+08,5,5763,5857,14.73,3.38,28,72,0,0
5.8985e+05,2.695e+08,5,5841,5685,14.73,3.31,28,72,0,0
5.903e+05,2.6961e+08,5,5696,5857,14.69,3.63,29,72,0,0
5.9071e+05,2.6972e+08,5,5857,5857,14.67,3.48,28,72,0,0
5.9116e+05,2.6983e+08,5,5859,5900,14.68,3.58,28,73,0,0
5.9156e+05,2.6993e+08,5,5897,5842,14.72,3.36,29,73,0,0
5.9202e+05,2.7004e+08,5,5841,5828,14.71,3.39,29,73,0,0
5.9246e+05,2.7015e+08,5,5823,5757,14.69,3.52,29,73,0,0
5.9291e+05,2.7026e+08,5,5753,5728,14.68,3.02,28,73,0,0
5.9336e+05,2.7037e+08,5,5728,5728,14.73,3.45,29,73,0,0
5.9376e+05,2.7047e+08,5,5727,5714,14.72,3.23,29,73,0,0
5.9421e+05,2.7058e+08,5,5714,5742,14.69,3.54,29,73,0,0
5.9466e+05,2.707e+08,5,5744,5800,14.67,3.71,29,73,0,0
5.9511e+05,2.7081e+08,5,5818,6000,14.69,3.81,29,73,0,0
5.9555e+05,2.7092e+08,5,5995,5900,14.67,3.81,28,74,0,0
5.96e+05,2.7102e+08,5,5904,5971,14.69,4.07,29,74,0,0
5.9645e+05,2.7113e+08,5,5971,5971,14.71,4.23,28,74,0,0
5.9686e+05,2.7124e+08,5,5976,6085,14.66,4.27,29,74,0,0
5.9731e+05,2.7135e+08,5,6086,6100,14.64,4.43,29,74,0,0
5.9771e+05,2.7145e+08,5,6102,6271,14.69,4.8,29,74,0,0
5.9816e+05,2.7156e+08,5,6277,6442,14.66,4.85,29,74,0,0
5.9861e+05,2.7168e+08,5,6435,6371,14.68,4.86,28,75,0,0
5.9902e+05,2.7178e+08,5,6372,6414,14.65,4.7,29,75,0,0
5.9946e+05,2.7189e+08,5,6415,6457,14.7,4.46,29,75,0,0
5.9992e+05,2.72e+08,5,6449,6300,14.66,4.44,29,75,0,0
6.0036e+05,2.7211e+08,5,6290,6200,14.72,4.06,28,75,0,0
6.0077e+05,2.7221e+08,5,6192,6042,14.69,3.99,28,75,0,0
6.0125e+05,2.7233e+08,5,6038,6000,14.65,4.03,29,75,0,0
6.017e+05,2.7244e+08,5,5995,5928,14.76,3.82,29,75,0,0
6.0214e+05,2.7255e+08,5,5916,5800,14.69,3.62,29,76,0,0
6.0262e+05,2.7267e+08,5,5794,5714,14.71,3.59,29,76,0,0
6.0303e+05,2.7276e+08,5,5715,5742,14.69,3.45,28,76,0,0
6.0348e+05,2.7288e+08,5,5744,5800,14.68,3.22,29,76,0,0
6.0397e+05,2.73e+08,5,5796,5771,14.75,3.88,29,76,0,0
6.0441e+05,2.731e+08,5,5773,5814,14.64,4.26,29,76,0,0
6.0486e+05,2.7321e+08,5,5832,6128,14.62,4.4,29,76,0,0
6.0526e+05,2.7331e+08,5,6133,6242,14.6,4.42,29,76,0,0
6.0571e+05,2.7342e+08,5,6233,6057,14.65,3.93,28,76,0,0
6.0616e+05,2.7353e+08,5,6062,6142,14.7,3.71,29,77,0,0
6.0661e+05,2.7365e+08,5,6129,5957,14.67,3.58,29,77,0,0
6.0702e+05,2.7375e+08,5,5949,5771,14.71,3.54,29,77,0,0
6.075e+05,2.7386e+08,5,5767,5728,14.67,3.44,29,77,0,0
6.0795e+05,2.7398e+08,5,5730,5757,14.66,3.55,29,77,0,0
6.0835e+05,2.7408e+08,5,5757,5757,14.66,3.49,29,77,0,0
6.088e+05,2.7419e+08,5,5744,5628,14.64,3.25,29,77,0,0
