LineNo,TimeUS,Instance,RPM,RawRPM,Volt,Curr,Temp,CTot,MotTemp,Err
1565,1.9844e+07,3,0,0,15.82,0.05,29,0,0,0
1940,1.9946e+07,3,0,0,15.82,0.05,29,0,0,0
2359,2.0051e+07,3,0,0,15.81,0.06,29,0,0,0
2769,2.0152e+07,3,0,0,15.82,0.05,29,0,0,0
3226,2.0263e+07,3,0,0,15.82,0.05,29,0,0,0
3642,2.0365e+07,3,0,0,15.82,0.05,28,0,0,0
4127,2.0482e+07,3,0,0,15.81,0.05,29,0,0,0
4538,2.0584e+07,3,0,0,15.82,0.06,29,0,0,0
4959,2.069e+07,3,0,0,15.82,0.06,29,0,0,0
5375,2.0793e+07,3,0,0,15.82,0.06,29,0,0,0
5830,2.0907e+07,3,0,0,15.82,0.05,29,0,0,0
6203,2.1003e+07,3,0,0,15.82,0.05,29,0,0,0
6652,2.1113e+07,3,0,0,15.82,0.05,29,0,0,0
7102,2.1228e+07,3,0,0,15.82,0.06,29,0,0,0
7523,2.1334e+07,3,0,0,15.82,0.05,29,0,0,0
7940,2.1439e+07,3,0,0,15.81,0.05,29,0,0,0
8315,2.1536e+07,3,0,0,15.82,0.05,29,0,0,0
8768,2.1649e+07,3,0,0,15.82,0.05,29,0,0,0
9177,2.175e+07,3,0,0,15.82,0.05,29,0,0,0
9873,2.1958e+07,3,0,0,15.82,0.05,29,0,0,0
10289,2.2062e+07,3,0,0,15.82,0.05,29,0,0,0
10741,2.2175e+07,3,0,0,15.82,0.05,29,0,0,0
11156,2.2277e+07,3,0,0,15.82,0.05,29,0,0,0
11615,2.2392e+07,3,0,0,15.82,0.05,29,0,0,0
12029,2.2493e+07,3,0,0,15.82,0.05,29,0,0,0
12481,2.2607e+07,3,0,0,15.82,0.05,29,0,0,0
12890,2.2708e+07,3,0,0,15.82,0.05,29,0,0,0
13757,2.2926e+07,3,0,0,15.82,0.05,29,0,0,0
14170,2.303e+07,3,0,0,15.82,0.05,29,0,0,0
14583,2.3132e+07,3,0,0,15.82,0.05,29,0,0,0
15033,2.3243e+07,3,0,0,15.82,0.05,29,0,0,0
15446,2.3349e+07,3,0,0,15.82,0.05,29,0,0,0
15863,2.3454e+07,3,0,0,15.82,0.05,29,0,0,0
16285,2.3566e+07,3,0,0,15.82,0.05,29,0,0,0
16696,2.3669e+07,3,0,0,15.81,0.05,29,0,0,0
17144,2.3781e+07,3,0,0,15.82,0.05,29,0,0,0
17986,2.3994e+07,3,0,0,15.82,0.05,29,0,0,0
18434,2.4101e+07,3,0,0,15.82,0.06,29,0,0,0
18846,2.4209e+07,3,0,0,15.81,0.06,29,0,0,0
19260,2.4313e+07,3,0,0,15.82,0.05,29,0,0,0
19675,2.4416e+07,3,0,0,15.82,0.05,29,0,0,0
20132,2.453e+07,3,0,0,15.82,0.05,29,0,0,0
20963,2.4738e+07,3,0,0,15.82,0.06,29,0,0,0
21422,2.4851e+07,3,0,0,15.81,0.05,29,0,0,0
21836,2.4953e+07,3,0,0,15.82,0.06,29,0,0,0
22291,2.5065e+07,3,0,0,15.81,0.06,29,0,0,0
22705,2.517e+07,3,0,0,15.82,0.05,29,0,0,0
23155,2.528e+07,3,0,0,15.82,0.05,29,0,0,0
23570,2.5382e+07,3,0,0,15.82,0.05,29,0,0,0
24032,2.5496e+07,3,0,0,15.82,0.05,29,0,0,0
24479,2.5604e+07,3,0,0,15.82,0.05,29,0,0,0
24898,2.5708e+07,3,0,0,15.82,0.05,29,0,0,0
25765,2.5924e+07,3,0,0,15.82,0.05,29,0,0,0
26180,2.6031e+07,3,0,0,15.81,0.05,29,0,0,0
26592,2.6136e+07,3,0,0,15.82,0.05,29,0,0,0
27047,2.6246e+07,3,0,0,15.82,0.05,29,0,0,0
27419,2.6342e+07,3,0,0,15.82,0.05,29,0,0,0
27879,2.6458e+07,3,0,0,15.81,0.05,29,0,0,0
28286,2.656e+07,3,0,0,15.82,0.05,29,0,0,0
28745,2.6672e+07,3,0,0,15.82,0.05,29,0,0,0
29156,2.6774e+07,3,0,0,15.82,0.06,29,0,0,0
29574,2.6877e+07,3,0,0,15.81,0.06,29,0,0,0
30025,2.699e+07,3,0,0,15.82,0.05,29,0,0,0
30435,2.7091e+07,3,0,0,15.82,0.05,29,0,0,0
30846,2.7195e+07,3,0,0,15.82,0.05,29,0,0,0
31298,2.7306e+07,3,0,0,15.82,0.05,29,0,0,0
31709,2.7411e+07,3,0,0,15.82,0.05,29,0,0,0
32162,2.7523e+07,3,0,0,15.81,0.05,29,0,0,0
32569,2.7629e+07,3,0,0,15.81,0.05,29,0,0,0
32982,2.773e+07,3,0,0,15.82,0.05,29,0,0,0
33441,2.7845e+07,3,0,0,15.82,0.05,29,0,0,0
33853,2.7949e+07,3,0,0,15.82,0.05,29,0,0,0
34229,2.8049e+07,3,0,0,15.81,0.05,29,0,0,0
34682,2.8162e+07,3,0,0,15.82,0.05,29,0,0,0
35137,2.8274e+07,3,0,0,15.82,0.05,29,0,0,0
35543,2.8376e+07,3,0,0,15.82,0.05,29,0,0,0
35962,2.8479e+07,3,0,0,15.82,0.05,29,0,0,0
36375,2.8584e+07,3,0,0,15.82,0.05,29,0,0,0
36827,2.8696e+07,3,0,0,15.82,0.05,29,0,0,0
37244,2.88e+07,3,0,0,15.82,0.05,29,0,0,0
37700,2.8912e+07,3,0,0,15.82,0.05,29,0,0,0
38111,2.9016e+07,3,0,0,15.82,0.05,29,0,0,0
38561,2.9129e+07,3,0,0,15.82,0.05,29,0,0,0
38970,2.923e+07,3,0,0,15.82,0.06,29,0,0,0
39382,2.9334e+07,3,0,0,15.82,0.06,29,0,0,0
39835,2.9448e+07,3,0,0,15.82,0.05,29,0,0,0
40247,2.9551e+07,3,0,0,15.82,0.06,29,0,0,0
40655,2.9651e+07,3,0,0,15.82,0.06,29,0,0,0
41109,2.9765e+07,3,0,0,15.82,0.05,29,0,0,0
41516,2.9868e+07,3,0,0,15.81,0.05,29,0,0,0
41972,2.9978e+07,3,0,0,15.82,0.05,29,0,0,0
42429,3.0093e+07,3,0,0,15.81,0.05,29,0,0,0
42841,3.0193e+07,3,0,0,15.81,0.05,29,0,0,0
43254,3.0295e+07,3,0,0,15.81,0.05,29,0,0,0
43674,3.0401e+07,3,0,0,15.82,0.05,29,0,0,0
44135,3.0516e+07,3,0,0,15.81,0.05,29,0,0,0
44547,3.0619e+07,3,0,0,15.82,0.05,29,0,0,0
45420,3.0837e+07,3,0,0,15.82,0.06,29,0,0,0
45827,3.0938e+07,3,0,0,15.82,0.05,29,0,0,0
46236,3.1042e+07,3,0,0,15.82,0.05,29,0,0,0
46690,3.1156e+07,3,0,0,15.82,0.05,29,0,0,0
47106,3.126e+07,3,0,0,15.82,0.06,29,0,0,0
47516,3.1362e+07,3,0,0,15.81,0.05,29,0,0,0
47977,3.1476e+07,3,0,0,15.82,0.06,29,0,0,0
48355,3.1573e+07,3,0,0,15.82,0.06,29,0,0,0
48808,3.1685e+07,3,0,0,15.82,0.06,29,0,0,0
49262,3.18e+07,3,0,0,15.82,0.06,29,0,0,0
49646,3.1903e+07,3,0,0,15.82,0.06,29,0,0,0
50097,3.2013e+07,3,0,0,15.82,0.06,29,0,0,0
50509,3.2116e+07,3,0,0,15.82,0.06,29,0,0,0
50965,3.2228e+07,3,0,0,15.82,0.06,29,0,0,0
51384,3.2334e+07,3,0,0,15.82,0.06,29,0,0,0
52206,3.254e+07,3,0,0,15.82,0.06,29,0,0,0
52661,3.2651e+07,3,0,0,15.82,0.05,29,0,0,0
53075,3.2753e+07,3,0,0,15.82,0.06,29,0,0,0
53492,3.2856e+07,3,0,0,15.82,0.05,29,0,0,0
53937,3.2965e+07,3,0,0,15.82,0.06,29,0,0,0
54353,3.307e+07,3,0,0,15.82,0.06,29,0,0,0
54804,3.3181e+07,3,0,0,15.82,0.06,29,0,0,0
55222,3.3286e+07,3,0,0,15.82,0.06,29,0,0,0
55672,3.3397e+07,3,0,0,15.82,0.06,29,0,0,0
56058,3.3498e+07,3,0,0,15.82,0.06,29,0,0,0
56495,3.3602e+07,3,0,0,15.81,0.06,29,0,0,0
56918,3.3712e+07,3,0,0,15.82,0.06,29,0,0,0
57333,3.3818e+07,3,0,0,15.82,0.05,29,0,0,0
57789,3.3934e+07,3,0,0,15.82,0.05,29,0,0,0
58613,3.4141e+07,3,0,0,15.82,0.05,29,0,0,0
59070,3.4253e+07,3,0,0,15.82,0.05,29,0,0,0
59894,3.446e+07,3,0,0,15.82,0.05,29,0,0,0
60346,3.4572e+07,3,0,0,15.81,0.05,29,0,0,0
1.1587e+05,1.0782e+08,3,0,0,15.82,0.03,29,0,0,0
1.1592e+05,1.0784e+08,3,0,0,15.82,0.03,29,0,0,0
1.1636e+05,1.0794e+08,3,0,0,15.81,0.03,29,0,0,0
1.1732e+05,1.0816e+08,3,0,0,15.82,0.03,29,0,0,0
1.1772e+05,1.0826e+08,3,0,0,15.82,0.03,29,0,0,0
1.1822e+05,1.0837e+08,3,0,0,15.82,0.03,29,0,0,0
1.1867e+05,1.0848e+08,3,0,0,15.81,0.03,29,0,0,0
1.1913e+05,1.0858e+08,3,0,0,15.82,0.03,29,0,0,0
1.1959e+05,1.0869e+08,3,0,0,15.82,0.03,29,0,0,0
1.2008e+05,1.088e+08,3,0,0,15.82,0.03,29,0,0,0
1.205e+05,1.0891e+08,3,0,0,15.82,0.03,29,0,0,0
1.2096e+05,1.0901e+08,3,0,0,15.82,0.03,29,0,0,0
1.2145e+05,1.0913e+08,3,0,0,15.82,0.03,29,0,0,0
1.2191e+05,1.0923e+08,3,0,0,15.82,0.03,29,0,0,0
1.2236e+05,1.0934e+08,3,0,0,15.81,0.03,29,0,0,0
1.2281e+05,1.0944e+08,3,0,0,15.81,0.03,29,0,0,0
1.2331e+05,1.0955e+08,3,0,0,15.82,0.03,29,0,0,0
1.2425e+05,1.0976e+08,3,0,0,15.82,0.03,29,0,0,0
1.2475e+05,1.0987e+08,3,0,0,15.82,0.02,29,0,0,0
1.252e+05,1.0998e+08,3,10,271,15.8,0.05,29,0,0,0
1.2565e+05,1.1008e+08,3,280,657,15.79,0.1,29,0,0,0
1.2616e+05,1.1019e+08,3,690,1042,15.77,0.16,29,0,0,0
1.2661e+05,1.103e+08,3,1052,1200,15.79,0.11,29,0,0,0
1.2707e+05,1.1041e+08,3,1201,1228,15.79,0.11,29,0,0,0
1.2753e+05,1.1051e+08,3,1230,1257,15.79,0.11,29,0,0,0
1.2798e+05,1.1062e+08,3,1257,1271,15.8,0.1,29,0,0,0
1.2835e+05,1.1073e+08,3,1271,1271,15.8,0.1,29,0,0,0
1.2885e+05,1.1084e+08,3,1272,1285,15.8,0.1,29,0,0,0
1.293e+05,1.1095e+08,3,1285,1285,15.79,0.1,29,0,0,0
1.2976e+05,1.1106e+08,3,1285,1285,15.8,0.1,29,0,0,0
1.3022e+05,1.1116e+08,3,1283,1271,15.8,0.1,29,0,0,0
1.3067e+05,1.1127e+08,3,1271,1271,15.79,0.1,29,0,0,0
1.3112e+05,1.1137e+08,3,1271,1285,15.79,0.1,29,0,0,0
1.3207e+05,1.1159e+08,3,1284,1271,15.79,0.1,29,0,0,0
1.3256e+05,1.117e+08,3,1271,1271,15.8,0.1,29,0,0,0
1.3306e+05,1.1181e+08,3,1272,1285,15.8,0.1,29,0,0,0
1.3346e+05,1.1191e+08,3,1284,1271,15.8,0.1,29,0,0,0
1.3397e+05,1.1202e+08,3,1271,1285,15.79,0.1,29,0,0,0
1.3438e+05,1.1212e+08,3,1285,1285,15.8,0.1,29,0,0,0
1.3489e+05,1.1224e+08,3,1283,1271,15.79,0.1,29,0,0,0
1.3579e+05,1.1245e+08,3,1271,1285,15.79,0.09,29,0,0,0
1.3624e+05,1.1255e+08,3,1285,1285,15.79,0.09,29,0,0,0
1.367e+05,1.1265e+08,3,1285,1285,15.8,0.09,29,0,0,0
1.3719e+05,1.1277e+08,3,1285,1285,15.8,0.09,29,0,0,0
1.3765e+05,1.1288e+08,3,1285,1285,15.8,0.09,29,0,0,0
1.381e+05,1.1298e+08,3,1285,1285,15.79,0.09,29,0,0,0
1.386e+05,1.1309e+08,3,1285,1300,15.8,0.09,29,0,0,0
1.3904e+05,1.1319e+08,3,1279,757,15.82,0.02,29,0,0,0
1.3949e+05,1.1331e+08,3,729,271,15.81,0.01,29,0,0,0
1.399e+05,1.1341e+08,3,251,0,15.81,0.02,29,0,0,0
1.4032e+05,1.1352e+08,3,0,0,15.82,0.02,29,0,0,0
1.4077e+05,1.1363e+08,3,0,0,15.81,0.03,29,0,0,0
1.4118e+05,1.1373e+08,3,0,0,15.82,0.03,29,0,0,0
1.4163e+05,1.1384e+08,3,0,0,15.82,0.03,29,0,0,0
1.4205e+05,1.1395e+08,3,0,0,15.81,0.03,29,0,0,0
1.4247e+05,1.1405e+08,3,0,0,15.81,0.03,29,0,0,0
1.4288e+05,1.1415e+08,3,0,0,15.81,0.03,29,0,0,0
1.4334e+05,1.1427e+08,3,0,0,15.81,0.03,29,0,0,0
1.4375e+05,1.1437e+08,3,0,0,15.81,0.03,29,0,0,0
1.4416e+05,1.1448e+08,3,0,0,15.82,0.03,29,0,0,0
1.4462e+05,1.1459e+08,3,0,0,15.82,0.03,29,0,0,0
1.45e+05,1.1469e+08,3,0,0,15.81,0.03,29,0,0,0
1.4545e+05,1.148e+08,3,0,0,15.81,0.03,29,0,0,0
1.4587e+05,1.1491e+08,3,0,0,15.81,0.03,29,0,0,0
1.4629e+05,1.1502e+08,3,0,0,15.81,0.02,29,0,0,0
1.467e+05,1.1512e+08,3,0,0,15.8,0.03,29,0,0,0
1.4715e+05,1.1523e+08,3,0,0,15.81,0.03,29,0,0,0
1.4757e+05,1.1534e+08,3,0,0,15.81,0.03,29,0,0,0
1.4798e+05,1.1545e+08,3,0,0,15.81,0.03,29,0,0,0
1.484e+05,1.1555e+08,3,0,0,15.8,0.03,30,0,0,0
1.4885e+05,1.1566e+08,3,0,0,15.81,0.02,29,0,0,0
1.4926e+05,1.1577e+08,3,0,0,15.81,0.02,30,0,0,0
1.4968e+05,1.1587e+08,3,0,0,15.8,0.02,29,0,0,0
1.5013e+05,1.1599e+08,3,0,0,15.81,0.02,29,0,0,0
1.5051e+05,1.1609e+08,3,0,0,15.81,0.02,29,0,0,0
1.5096e+05,1.162e+08,3,0,0,15.82,0.02,29,0,0,0
1.5137e+05,1.163e+08,3,0,0,15.82,0.02,29,0,0,0
1.5183e+05,1.1642e+08,3,0,0,15.81,0.02,29,0,0,0
1.5224e+05,1.1652e+08,3,0,0,15.82,0.02,29,0,0,0
1.527e+05,1.1664e+08,3,0,0,15.81,0.03,29,0,0,0
1.5311e+05,1.1674e+08,3,0,0,15.81,0.03,29,0,0,0
1.5352e+05,1.1684e+08,3,0,0,15.81,0.02,29,0,0,0
1.5394e+05,1.1695e+08,3,0,0,15.82,0.02,29,0,0,0
1.5435e+05,1.1706e+08,3,0,0,15.82,0.02,29,0,0,0
1.5481e+05,1.1717e+08,3,0,0,15.81,0.03,29,0,0,0
1.5522e+05,1.1727e+08,3,0,0,15.81,0.03,29,0,0,0
1.5564e+05,1.1738e+08,3,0,0,15.81,0.03,29,0,0,0
1.5609e+05,1.1749e+08,3,0,0,15.81,0.03,29,0,0,0
1.565e+05,1.1759e+08,3,0,0,15.81,0.03,29,0,0,0
1.5692e+05,1.177e+08,3,0,0,15.81,0.03,29,0,0,0
1.5737e+05,1.1781e+08,3,0,0,15.81,0.03,29,0,0,0
1.5779e+05,1.1792e+08,3,0,0,15.82,0.03,29,0,0,0
1.5821e+05,1.1803e+08,3,0,0,15.81,0.03,29,0,0,0
1.5862e+05,1.1813e+08,3,0,0,15.81,0.03,29,0,0,0
1.5904e+05,1.1824e+08,3,0,0,15.81,0.03,29,0,0,0
1.5949e+05,1.1835e+08,3,0,0,15.81,0.03,29,0,0,0
1.599e+05,1.1846e+08,3,0,0,15.81,0.03,29,0,0,0
1.6032e+05,1.1856e+08,3,0,0,15.81,0.03,29,0,0,0
1.6077e+05,1.1867e+08,3,0,0,15.82,0.03,29,0,0,0
1.6118e+05,1.1878e+08,3,0,0,15.82,0.03,29,0,0,0
1.6159e+05,1.1888e+08,3,0,0,15.8,0.03,29,0,0,0
1.6205e+05,1.1899e+08,3,0,0,15.81,0.03,29,0,0,0
1.6246e+05,1.1909e+08,3,0,0,15.81,0.03,29,0,0,0
1.6291e+05,1.1921e+08,3,0,0,15.81,0.03,29,0,0,0
1.6332e+05,1.1931e+08,3,0,0,15.82,0.03,29,0,0,0
1.6377e+05,1.1942e+08,3,0,0,15.82,0.03,29,0,0,0
1.6419e+05,1.1953e+08,3,0,0,15.82,0.03,29,0,0,0
1.646e+05,1.1963e+08,3,0,0,15.82,0.03,29,0,0,0
1.6502e+05,1.1974e+08,3,0,0,15.81,0.03,29,0,0,0
1.6544e+05,1.1985e+08,3,0,0,15.82,0.03,29,0,0,0
1.6586e+05,1.1996e+08,3,0,0,15.81,0.03,29,0,0,0
1.6627e+05,1.2007e+08,3,0,0,15.82,0.03,29,0,0,0
1.6669e+05,1.2017e+08,3,0,0,15.82,0.03,29,0,0,0
1.671e+05,1.2027e+08,3,0,0,15.81,0.03,29,0,0,0
1.6756e+05,1.2039e+08,3,0,0,15.81,0.03,29,0,0,0
1.6795e+05,1.2049e+08,3,0,0,15.81,0.03,29,0,0,0
1.6836e+05,1.206e+08,3,0,0,15.81,0.03,29,0,0,0
1.6881e+05,1.2071e+08,3,0,0,15.82,0.03,29,0,0,0
1.6927e+05,1.2082e+08,3,0,0,15.81,0.03,29,0,0,0
1.6968e+05,1.2092e+08,3,0,0,15.81,0.03,29,0,0,0
1.7009e+05,1.2102e+08,3,0,0,15.81,0.03,29,0,0,0
1.7055e+05,1.2114e+08,3,0,0,15.82,0.03,29,0,0,0
1.7096e+05,1.2124e+08,3,0,0,15.82,0.03,29,0,0,0
1.7138e+05,1.2135e+08,3,0,0,15.82,0.03,29,0,0,0
1.7183e+05,1.2146e+08,3,0,0,15.81,0.03,29,0,0,0
1.7224e+05,1.2156e+08,3,0,0,15.81,0.03,29,0,0,0
1.7266e+05,1.2167e+08,3,0,0,15.81,0.03,29,0,0,0
1.7311e+05,1.2178e+08,3,0,0,15.81,0.03,29,0,0,0
1.7352e+05,1.2189e+08,3,0,0,15.81,0.03,29,0,0,0
1.7394e+05,1.2199e+08,3,0,0,15.81,0.03,29,0,0,0
1.7435e+05,1.2209e+08,3,0,0,15.81,0.03,29,0,0,0
1.748e+05,1.222e+08,3,0,0,15.81,0.03,29,0,0,0
1.7563e+05,1.2241e+08,3,0,0,15.81,0.03,29,0,0,0
1.7608e+05,1.2253e+08,3,0,0,15.81,0.03,29,0,0,0
1.765e+05,1.2263e+08,3,0,0,15.82,0.03,29,0,0,0
1.7695e+05,1.2274e+08,3,0,0,15.82,0.03,29,0,0,0
1.7737e+05,1.2285e+08,3,0,0,15.81,0.03,29,0,0,0
1.7778e+05,1.2295e+08,3,0,0,15.81,0.03,29,0,0,0
1.7823e+05,1.2306e+08,3,0,0,15.81,0.03,29,0,0,0
1.7864e+05,1.2316e+08,3,0,0,15.82,0.03,29,0,0,0
1.7906e+05,1.2327e+08,3,0,0,15.81,0.03,29,0,0,0
1.7952e+05,1.2338e+08,3,0,0,15.82,0.03,29,0,0,0
1.7993e+05,1.2349e+08,3,0,0,15.81,0.03,29,0,0,0
1.8035e+05,1.2359e+08,3,0,0,15.81,0.03,29,0,0,0
1.808e+05,1.237e+08,3,0,0,15.81,0.03,29,0,0,0
1.8121e+05,1.2381e+08,3,0,0,15.82,0.03,29,0,0,0
1.8163e+05,1.2391e+08,3,0,0,15.81,0.03,29,0,0,0
1.8208e+05,1.2402e+08,3,0,0,15.81,0.03,29,0,0,0
1.8253e+05,1.2413e+08,3,0,0,15.81,0.03,29,0,0,0
1.8294e+05,1.2424e+08,3,0,0,15.81,0.02,29,0,0,0
1.8336e+05,1.2435e+08,3,0,0,15.81,0.03,29,0,0,0
1.8381e+05,1.2446e+08,3,0,0,15.81,0.03,29,0,0,0
1.8422e+05,1.2456e+08,3,0,0,15.81,0.03,29,0,0,0
1.8467e+05,1.2467e+08,3,0,0,15.81,0.03,29,0,0,0
1.8508e+05,1.2478e+08,3,0,0,15.81,0.03,29,0,0,0
1.855e+05,1.2488e+08,3,0,0,15.81,0.03,29,0,0,0
1.8596e+05,1.2499e+08,3,0,0,15.81,0.02,29,0,0,0
1.8637e+05,1.251e+08,3,0,0,15.81,0.02,29,0,0,0
1.8682e+05,1.2521e+08,3,0,0,15.81,0.02,29,0,0,0
1.8723e+05,1.2532e+08,3,0,0,15.81,0.03,29,0,0,0
1.8765e+05,1.2542e+08,3,0,0,15.8,0.03,29,0,0,0
1.8807e+05,1.2553e+08,3,0,0,15.81,0.03,29,0,0,0
1.8853e+05,1.2564e+08,3,0,0,15.81,0.02,29,0,0,0
1.8894e+05,1.2575e+08,3,0,0,15.81,0.02,29,0,0,0
1.8936e+05,1.2585e+08,3,0,0,15.81,0.02,29,0,0,0
1.8981e+05,1.2596e+08,3,0,0,15.81,0.02,30,0,0,0
1.9022e+05,1.2607e+08,3,0,0,15.82,0.02,29,0,0,0
1.9064e+05,1.2617e+08,3,0,0,15.81,0.02,29,0,0,0
1.9106e+05,1.2628e+08,3,0,0,15.8,0.03,29,0,0,0
1.9147e+05,1.2638e+08,3,0,0,15.82,0.03,29,0,0,0
1.9192e+05,1.265e+08,3,0,0,15.81,0.03,29,0,0,0
1.9233e+05,1.266e+08,3,0,0,15.81,0.03,29,0,0,0
1.9279e+05,1.2671e+08,3,0,0,15.81,0.03,29,0,0,0
1.932e+05,1.2682e+08,3,0,0,15.81,0.03,29,0,0,0
1.9355e+05,1.2693e+08,3,0,0,15.82,0.03,29,0,0,0
1.9397e+05,1.2703e+08,3,0,0,15.82,0.03,29,0,0,0
1.9443e+05,1.2715e+08,3,0,0,15.81,0.03,29,0,0,0
1.9484e+05,1.2725e+08,3,0,0,15.82,0.03,29,0,0,0
1.9525e+05,1.2736e+08,3,0,0,15.81,0.03,29,0,0,0
1.9567e+05,1.2746e+08,3,0,0,15.82,0.03,29,0,0,0
1.9609e+05,1.2756e+08,3,0,0,15.81,0.03,29,0,0,0
1.9654e+05,1.2768e+08,3,0,0,15.82,0.03,29,0,0,0
1.9695e+05,1.2778e+08,3,0,0,15.81,0.03,29,0,0,0
1.9741e+05,1.279e+08,3,0,0,15.82,0.03,29,0,0,0
1.9782e+05,1.28e+08,3,0,0,15.82,0.03,29,0,0,0
1.9827e+05,1.2811e+08,3,0,0,15.81,0.03,29,0,0,0
1.9841e+05,1.7388e+08,3,0,0,15.82,0.03,29,0,0,0
1.9854e+05,1.7391e+08,3,0,0,15.82,0.02,29,0,0,0
1.9899e+05,1.7402e+08,3,0,0,15.82,0.03,29,0,0,0
1.9942e+05,1.7412e+08,3,0,0,15.81,0.03,29,0,0,0
1.9988e+05,1.7422e+08,3,0,0,15.82,0.03,29,0,0,0
2.0037e+05,1.7434e+08,3,0,0,15.82,0.03,29,0,0,0
2.0083e+05,1.7444e+08,3,0,0,15.82,0.03,29,0,0,0
2.0128e+05,1.7455e+08,3,0,0,15.82,0.03,29,0,0,0
2.0174e+05,1.7465e+08,3,0,0,15.82,0.03,29,0,0,0
2.0224e+05,1.7476e+08,3,0,0,15.82,0.03,29,0,0,0
2.0269e+05,1.7487e+08,3,0,0,15.82,0.03,29,0,0,0
2.0315e+05,1.7498e+08,3,0,0,15.82,0.03,29,0,0,0
2.0361e+05,1.7509e+08,3,0,0,15.82,0.03,29,1,0,0
2.0406e+05,1.7519e+08,3,0,0,15.82,0.03,29,1,0,0
2.0452e+05,1.753e+08,3,0,0,15.82,0.03,29,1,0,0
2.0497e+05,1.754e+08,3,0,0,15.82,0.03,29,1,0,0
2.0547e+05,1.7552e+08,3,0,0,15.82,0.03,29,1,0,0
2.0592e+05,1.7562e+08,3,0,0,15.82,0.03,29,1,0,0
2.0638e+05,1.7572e+08,3,0,0,15.81,0.03,29,1,0,0
2.0684e+05,1.7583e+08,3,0,0,15.82,0.03,29,1,0,0
2.0729e+05,1.7593e+08,3,0,0,15.82,0.02,29,1,0,0
2.0779e+05,1.7604e+08,3,25,271,15.8,0.05,29,1,0,0
2.0824e+05,1.7615e+08,3,298,700,15.79,0.11,29,1,0,0
2.0874e+05,1.7626e+08,3,745,1085,15.78,0.15,29,1,0,0
2.0919e+05,1.7636e+08,3,1093,1214,15.8,0.11,29,1,0,0
2.0994e+05,1.7657e+08,3,1257,1271,15.79,0.1,29,1,0,0
2.1039e+05,1.7668e+08,3,1271,1271,15.8,0.1,29,1,0,0
2.109e+05,1.7679e+08,3,1271,1271,15.8,0.1,29,1,0,0
2.1135e+05,1.769e+08,3,1272,1285,15.79,0.1,29,1,0,0
2.1181e+05,1.77e+08,3,1284,1271,15.79,0.1,29,1,0,0
2.1229e+05,1.7711e+08,3,1271,1285,15.8,0.1,29,1,0,0
2.1279e+05,1.7722e+08,3,1285,1285,15.8,0.1,29,1,0,0
2.1325e+05,1.7732e+08,3,1285,1285,15.8,0.1,29,1,0,0
2.1371e+05,1.7743e+08,3,1285,1285,15.79,0.1,29,1,0,0
2.1416e+05,1.7754e+08,3,1285,1285,15.8,0.1,29,1,0,0
2.1462e+05,1.7764e+08,3,1285,1285,15.79,0.1,29,1,0,0
2.1508e+05,1.7774e+08,3,1285,1285,15.8,0.1,29,1,0,0
2.1558e+05,1.7786e+08,3,1285,1285,15.79,0.1,29,1,0,0
2.1603e+05,1.7796e+08,3,1285,1285,15.79,0.1,29,1,0,0
2.1648e+05,1.7806e+08,3,1285,1285,15.8,0.1,29,1,0,0
2.1698e+05,1.7818e+08,3,1285,1285,15.8,0.1,29,1,0,0
2.1744e+05,1.7829e+08,3,1285,1285,15.79,0.1,29,1,0,0
2.1789e+05,1.7839e+08,3,1285,1285,15.79,0.1,29,1,0,0
2.1839e+05,1.785e+08,3,1285,1285,15.79,0.1,29,1,0,0
2.1884e+05,1.786e+08,3,1285,1285,15.79,0.1,29,1,0,0
2.1929e+05,1.7871e+08,3,1285,1285,15.8,0.1,29,1,0,0
2.1979e+05,1.7883e+08,3,1285,1285,15.8,0.1,29,1,0,0
2.2024e+05,1.7893e+08,3,1285,1285,15.8,0.1,29,1,0,0
2.2074e+05,1.7904e+08,3,1285,1285,15.8,0.1,29,1,0,0
2.2115e+05,1.7914e+08,3,1285,1285,15.8,0.1,29,1,0,0
2.2165e+05,1.7925e+08,3,1285,1285,15.79,0.1,29,1,0,0
2.2214e+05,1.7936e+08,3,1285,1285,15.79,0.1,29,1,0,0
2.2259e+05,1.7947e+08,3,1285,1285,15.79,0.1,29,1,0,0
2.23e+05,1.7957e+08,3,1285,1285,15.79,0.1,29,1,0,0
2.2349e+05,1.7968e+08,3,1285,1285,15.8,0.1,29,1,0,0
2.2395e+05,1.7978e+08,3,1285,1285,15.8,0.1,29,1,0,0
2.2441e+05,1.7989e+08,3,1285,1285,15.8,0.1,29,1,0,0
2.2491e+05,1.8001e+08,3,1285,1285,15.8,0.1,29,1,0,0
2.2536e+05,1.8011e+08,3,1285,1285,15.8,0.1,29,1,0,0
2.2581e+05,1.8021e+08,3,1285,1285,15.8,0.1,29,1,0,0
2.263e+05,1.8033e+08,3,1285,1285,15.8,0.1,29,1,0,0
2.2676e+05,1.8043e+08,3,1285,1285,15.79,0.09,29,1,0,0
2.2722e+05,1.8054e+08,3,1285,1285,15.8,0.09,29,1,0,0
2.2768e+05,1.8065e+08,3,1285,1285,15.8,0.09,29,1,0,0
2.281e+05,1.8075e+08,3,1285,1285,15.79,0.1,29,1,0,0
2.286e+05,1.8087e+08,3,1285,1285,15.79,0.1,29,1,0,0
2.2905e+05,1.8097e+08,3,1285,1285,15.8,0.1,29,1,0,0
2.295e+05,1.8108e+08,3,1285,1285,15.79,0.1,29,1,0,0
2.3e+05,1.812e+08,3,1285,1285,15.8,0.1,29,1,0,0
2.3041e+05,1.8129e+08,3,1285,1285,15.79,0.09,29,1,0,0
2.3091e+05,1.8141e+08,3,1285,1300,15.79,0.09,29,1,0,0
2.3182e+05,1.8162e+08,3,1299,1285,15.79,0.1,29,1,0,0
2.3227e+05,1.8173e+08,3,1285,1285,15.79,0.1,29,1,0,0
2.3273e+05,1.8184e+08,3,1285,1285,15.79,0.1,29,1,0,0
2.3319e+05,1.8194e+08,3,1285,1285,15.79,0.1,29,1,0,0
2.3368e+05,1.8205e+08,3,1284,1271,15.79,0.1,29,1,0,0
2.3414e+05,1.8216e+08,3,1272,1285,15.8,0.1,29,1,0,0
2.346e+05,1.8227e+08,3,1285,1285,15.79,0.1,29,1,0,0
2.3505e+05,1.8237e+08,3,1285,1285,15.79,0.1,29,1,0,0
2.355e+05,1.8248e+08,3,1285,1285,15.79,0.1,29,1,0,0
2.3595e+05,1.8258e+08,3,1285,1285,15.8,0.1,29,1,0,0
2.3644e+05,1.8269e+08,3,1285,1285,15.79,0.1,29,1,0,0
2.3694e+05,1.8281e+08,3,1285,1285,15.79,0.1,29,1,0,0
2.3739e+05,1.8291e+08,3,1284,1271,15.79,0.1,29,1,0,0
2.3789e+05,1.8302e+08,3,1272,1285,15.79,0.1,29,1,0,0
2.3834e+05,1.8313e+08,3,1285,1285,15.79,0.1,29,1,0,0
2.388e+05,1.8324e+08,3,1285,1285,15.79,0.1,29,1,0,0
2.3925e+05,1.8334e+08,3,1285,1285,15.79,0.1,29,1,0,0
2.3971e+05,1.8345e+08,3,1285,1285,15.8,0.1,29,1,0,0
2.402e+05,1.8357e+08,3,1285,1285,15.79,0.1,29,1,0,0
2.4065e+05,1.8367e+08,3,1285,1285,15.79,0.1,29,1,0,0
2.4115e+05,1.8378e+08,3,1285,1285,15.8,0.1,29,1,0,0
2.416e+05,1.8389e+08,3,1238,642,15.82,0.01,29,1,0,0
2.4206e+05,1.84e+08,3,619,200,15.81,0.02,29,1,0,0
2.4251e+05,1.8411e+08,3,190,0,15.82,0.02,29,1,0,0
2.4301e+05,1.8422e+08,3,0,0,15.82,0.03,29,1,0,0
2.4346e+05,1.8433e+08,3,0,0,15.81,0.03,29,1,0,0
2.4391e+05,1.8444e+08,3,0,0,15.81,0.03,29,1,0,0
2.4436e+05,1.8455e+08,3,0,0,15.82,0.03,29,1,0,0
2.4478e+05,1.8465e+08,3,0,0,15.81,0.03,29,1,0,0
2.4528e+05,1.8476e+08,3,0,0,15.81,0.03,29,1,0,0
2.4572e+05,1.8487e+08,3,0,0,15.81,0.03,29,1,0,0
2.4623e+05,1.8499e+08,3,0,0,15.81,0.03,29,1,0,0
2.4668e+05,1.8509e+08,3,0,0,15.81,0.03,29,1,0,0
2.4713e+05,1.852e+08,3,0,0,15.82,0.03,29,1,0,0
2.4805e+05,1.8541e+08,3,0,0,15.81,0.03,29,1,0,0
2.485e+05,1.8553e+08,3,0,0,15.81,0.03,29,1,0,0
2.4896e+05,1.8563e+08,3,0,0,15.81,0.03,29,1,0,0
2.4941e+05,1.8574e+08,3,0,0,15.81,0.03,29,1,0,0
2.4987e+05,1.8586e+08,3,0,0,15.81,0.03,29,1,0,0
2.5032e+05,1.8596e+08,3,0,0,15.82,0.03,29,1,0,0
2.5081e+05,1.8607e+08,3,0,0,15.8,0.03,29,1,0,0
2.5127e+05,1.8618e+08,3,0,0,15.81,0.03,29,1,0,0
2.5168e+05,1.8628e+08,3,0,0,15.82,0.03,29,1,0,0
2.5218e+05,1.864e+08,3,0,0,15.82,0.03,29,1,0,0
2.5312e+05,1.8662e+08,3,0,0,15.81,0.03,29,1,0,0
2.5358e+05,1.8673e+08,3,0,0,15.82,0.03,29,1,0,0
2.5403e+05,1.8683e+08,3,0,0,15.81,0.03,29,1,0,0
2.5449e+05,1.8694e+08,3,0,0,15.82,0.03,29,1,0,0
2.5494e+05,1.8705e+08,3,0,0,15.82,0.03,29,1,0,0
2.554e+05,1.8716e+08,3,0,0,15.81,0.03,29,1,0,0
2.5585e+05,1.8727e+08,3,0,0,15.81,0.03,29,1,0,0
2.5635e+05,1.8738e+08,3,0,0,15.82,0.03,29,1,0,0
2.568e+05,1.8749e+08,3,0,0,15.82,0.03,29,1,0,0
2.5726e+05,1.8759e+08,3,0,0,15.81,0.02,29,1,0,0
2.5771e+05,1.877e+08,3,0,0,15.81,0.03,29,1,0,0
2.582e+05,1.8781e+08,3,0,0,15.82,0.03,29,1,0,0
2.5862e+05,1.8791e+08,3,0,0,15.82,0.03,29,1,0,0
2.5912e+05,1.8802e+08,3,0,0,15.81,0.03,29,1,0,0
2.5958e+05,1.8814e+08,3,0,0,15.81,0.03,29,1,0,0
2.6049e+05,1.8835e+08,3,0,0,15.81,0.03,29,1,0,0
2.6094e+05,1.8845e+08,3,0,0,15.82,0.03,29,1,0,0
2.6144e+05,1.8857e+08,3,0,0,15.82,0.03,29,1,0,0
2.6189e+05,1.8867e+08,3,0,0,15.81,0.03,29,1,0,0
2.6235e+05,1.8878e+08,3,0,0,15.81,0.03,29,1,0,0
2.628e+05,1.8888e+08,3,0,0,15.82,0.03,29,1,0,0
2.6375e+05,1.891e+08,3,0,0,15.82,0.03,29,1,0,0
2.6425e+05,1.8922e+08,3,11,128,15.8,0.03,29,1,0,0
2.6467e+05,1.8932e+08,3,143,557,15.79,0.08,29,1,0,0
2.6517e+05,1.8943e+08,3,590,914,15.77,0.14,29,1,0,0
2.6561e+05,1.8954e+08,3,925,1171,15.8,0.12,29,1,0,0
2.6607e+05,1.8965e+08,3,1178,1228,15.8,0.11,29,1,0,0
2.6653e+05,1.8975e+08,3,1229,1271,15.79,0.1,29,1,0,0
2.6702e+05,1.8986e+08,3,1271,1285,15.8,0.1,29,1,0,0
2.6747e+05,1.8997e+08,3,1285,1285,15.79,0.1,29,1,0,0
2.6792e+05,1.9007e+08,3,1285,1285,15.79,0.09,29,1,0,0
2.6841e+05,1.9018e+08,3,1285,1285,15.79,0.1,29,1,0,0
2.6887e+05,1.9029e+08,3,1285,1300,15.79,0.1,29,1,0,0
2.6915e+05,1.904e+08,3,1300,1300,15.79,0.1,29,1,0,0
2.6956e+05,1.905e+08,3,1299,1285,15.79,0.1,29,1,0,0
2.7006e+05,1.9061e+08,3,1285,1285,15.79,0.1,29,1,0,0
2.7055e+05,1.9073e+08,3,1285,1285,15.8,0.1,29,1,0,0
2.71e+05,1.9083e+08,3,1285,1285,15.79,0.09,29,1,0,0
2.7146e+05,1.9094e+08,3,1285,1285,15.8,0.09,29,1,0,0
2.7196e+05,1.9105e+08,3,1285,1285,15.79,0.1,29,1,0,0
2.724e+05,1.9116e+08,3,1285,1285,15.8,0.09,29,1,0,0
2.7286e+05,1.9126e+08,3,1285,1285,15.8,0.09,29,1,0,0
2.7336e+05,1.9137e+08,3,1285,1285,15.79,0.1,29,1,0,0
2.7381e+05,1.9148e+08,3,1285,1285,15.8,0.09,29,1,0,0
2.7424e+05,1.9159e+08,3,1285,1285,15.79,0.1,29,1,0,0
2.7472e+05,1.917e+08,3,1285,1285,15.8,0.1,29,1,0,0
2.7518e+05,1.918e+08,3,1285,1285,15.79,0.1,29,1,0,0
2.7564e+05,1.9191e+08,3,1292,1442,15.76,0.22,29,1,0,0
2.7613e+05,1.9202e+08,3,1479,2028,15.63,0.64,29,1,0,0
2.7658e+05,1.9213e+08,3,2058,2371,15.76,0.44,29,1,0,0
2.7703e+05,1.9224e+08,3,2380,2885,15.37,0.97,29,1,0,0
2.7749e+05,1.9234e+08,3,2892,3214,15.55,1.05,29,1,0,0
2.7799e+05,1.9246e+08,3,3306,3842,15.43,1.74,29,1,0,0
2.784e+05,1.9256e+08,3,3884,4457,15.32,2.41,29,1,0,0
2.7888e+05,1.9267e+08,3,4482,4857,15.16,2.83,29,1,0,0
2.7934e+05,1.9278e+08,3,4883,5528,15.07,3.36,29,1,0,0
2.798e+05,1.9289e+08,3,5549,5857,14.91,4.49,29,1,0,0
2.803e+05,1.9301e+08,3,5873,6042,15,3.44,29,1,0,0
2.8071e+05,1.9311e+08,3,6021,5814,15.08,3.07,29,2,0,0
2.8116e+05,1.9322e+08,3,5809,5714,15.1,2.73,29,2,0,0
2.8166e+05,1.9333e+08,3,5697,5528,15.16,2.61,29,2,0,0
2.8211e+05,1.9344e+08,3,5516,5357,15.2,2.27,29,2,0,0
2.8256e+05,1.9355e+08,3,5338,5085,15.23,2.23,29,2,0,0
2.8305e+05,1.9366e+08,3,5076,4985,15.2,2.07,29,2,0,0
2.8346e+05,1.9376e+08,3,4983,4957,15.14,2.23,29,2,0,0
2.8392e+05,1.9387e+08,3,4961,5057,15.16,2.34,29,2,0,0
2.8437e+05,1.9398e+08,3,5059,5257,15.07,2.8,29,2,0,0
2.8482e+05,1.9409e+08,3,5260,5342,15.1,2.8,29,2,0,0
2.8532e+05,1.9421e+08,3,5342,5357,15.05,2.75,29,2,0,0
2.8577e+05,1.9432e+08,3,5365,5442,15.09,2.65,29,2,0,0
2.8623e+05,1.9443e+08,3,5430,5271,15.05,2.55,30,2,0,0
2.8713e+05,1.9465e+08,3,5275,5357,15,2.83,30,3,0,0
2.8754e+05,1.9475e+08,3,5363,5471,15.07,2.57,30,3,0,0
2.88e+05,1.9486e+08,3,5470,5457,14.99,2.79,29,3,0,0
2.8845e+05,1.9497e+08,3,5454,5428,15.04,2.77,30,3,0,0
2.889e+05,1.9508e+08,3,5424,5357,15.08,2.62,30,3,0,0
2.8935e+05,1.9518e+08,3,5353,5314,15.02,2.61,30,3,0,0
2.8981e+05,1.953e+08,3,5326,5457,14.98,2.72,30,3,0,0
2.9027e+05,1.954e+08,3,5440,5271,15.04,2.55,30,3,0,0
2.9071e+05,1.9551e+08,3,5275,5371,15.04,2.53,30,3,0,0
2.9121e+05,1.9563e+08,3,5360,5257,15.14,2.2,30,3,0,0
2.9166e+05,1.9573e+08,3,5234,5014,15.08,2.3,30,3,0,0
2.9252e+05,1.9595e+08,3,5015,5228,15.08,2.61,30,4,0,0
2.9305e+05,1.9607e+08,3,5235,5342,15.1,2.5,30,4,0,0
2.9346e+05,1.9617e+08,3,5334,5185,15.09,2.4,30,4,0,0
2.9395e+05,1.9628e+08,3,5196,5314,14.97,2.68,30,4,0,0
2.9441e+05,1.9639e+08,3,5315,5328,15.07,2.55,30,4,0,0
2.9531e+05,1.9661e+08,3,5322,5142,15.01,2.26,30,4,0,0
2.9576e+05,1.9672e+08,3,5136,5014,15.03,2.2,30,4,0,0
2.9621e+05,1.9683e+08,3,5014,5028,14.98,2.09,30,4,0,0
2.9669e+05,1.9694e+08,3,5029,5042,15.07,2.22,30,4,0,0
2.9714e+05,1.9705e+08,3,5037,5000,15.05,2.08,30,4,0,0
2.9754e+05,1.9716e+08,3,4990,4900,15.09,1.86,30,4,0,0
2.9799e+05,1.9727e+08,3,4887,4757,15.11,1.74,30,4,0,0
2.9844e+05,1.9738e+08,3,4763,4828,15.06,2.13,30,4,0,0
2.9889e+05,1.9749e+08,3,4825,4785,15.13,1.78,30,5,0,0
2.9929e+05,1.9759e+08,3,4784,4742,15.07,1.87,30,5,0,0
2.9973e+05,1.977e+08,3,4746,4814,15.12,1.98,30,5,0,0
3.0063e+05,1.9792e+08,3,4825,5071,15.11,2.07,30,5,0,0
3.0103e+05,1.9802e+08,3,5072,5128,15.05,2.28,30,5,0,0
3.0147e+05,1.9813e+08,3,5135,5285,15.01,2.65,30,5,0,0
3.0197e+05,1.9826e+08,3,5275,5171,14.97,2.6,30,5,0,0
3.0237e+05,1.9835e+08,3,5172,5200,15.04,2.4,30,5,0,0
3.0283e+05,1.9847e+08,3,5186,5100,15.07,2.31,30,5,0,0
3.0327e+05,1.9857e+08,3,5102,5128,15,2.31,30,5,0,0
3.0371e+05,1.9868e+08,3,5133,5185,15.07,2.17,30,5,0,0
3.0416e+05,1.9879e+08,3,5179,5128,15.04,2.29,30,5,0,0
3.0456e+05,1.9889e+08,3,5128,5171,14.97,2.63,30,5,0,0
3.0501e+05,1.99e+08,3,5177,5242,15.03,2.73,30,6,0,0
3.0546e+05,1.9911e+08,3,5242,5242,15.01,2.25,30,6,0,0
3.0587e+05,1.9922e+08,3,5247,5342,15.01,2.52,30,6,0,0
3.0632e+05,1.9933e+08,3,5322,5142,14.95,2.54,30,6,0,0
3.0676e+05,1.9944e+08,3,5147,5214,14.98,2.19,30,6,0,0
3.0721e+05,1.9955e+08,3,5205,5085,14.92,2.4,30,6,0,0
3.0766e+05,1.9966e+08,3,5107,5328,15.02,2.56,30,6,0,0
3.0806e+05,1.9976e+08,3,5327,5285,15.02,2.2,30,6,0,0
3.0847e+05,1.9986e+08,3,5273,5057,15.01,1.95,30,6,0,0
3.0893e+05,1.9998e+08,3,5054,5028,14.95,2.25,30,6,0,0
3.0932e+05,2.0008e+08,3,5029,5128,15.01,2.36,30,6,0,0
3.0977e+05,2.0019e+08,3,5128,5171,14.93,2.34,30,6,0,0
3.1027e+05,2.0031e+08,3,5160,5057,15.01,2.05,30,6,0,0
3.1071e+05,2.0041e+08,3,5053,4971,14.98,2.31,30,6,0,0
3.1116e+05,2.0052e+08,3,4989,5171,15.01,2.46,30,6,0,0
3.1157e+05,2.0063e+08,3,5169,5085,14.93,2.44,30,7,0,0
3.1201e+05,2.0073e+08,3,5086,5157,14.86,2.47,30,7,0,0
3.1246e+05,2.0084e+08,3,5159,5214,14.97,2.54,30,7,0,0
3.1294e+05,2.0096e+08,3,5214,5228,14.92,2.47,30,7,0,0
3.1338e+05,2.0107e+08,3,5224,5171,14.94,2.4,30,7,0,0
3.1383e+05,2.0118e+08,3,5171,5171,14.95,2.3,30,7,0,0
3.1424e+05,2.0128e+08,3,5165,5042,14.95,2.16,30,7,0,0
3.1468e+05,2.0139e+08,3,5036,4971,14.91,2.13,30,7,0,0
3.1509e+05,2.015e+08,3,4970,4942,14.92,2.34,30,7,0,0
3.1558e+05,2.0161e+08,3,4948,5014,14.89,2.19,30,7,0,0
3.1601e+05,2.0172e+08,3,5016,5100,14.93,2.27,30,7,0,0
3.165e+05,2.0183e+08,3,5093,5014,15,1.96,30,7,0,0
3.1691e+05,2.0194e+08,3,5009,4914,14.99,1.95,30,7,0,0
3.1736e+05,2.0205e+08,3,4916,4957,15.03,1.86,30,7,0,0
3.178e+05,2.0216e+08,3,4950,4885,15.03,1.96,30,8,0,0
3.187e+05,2.0238e+08,3,4889,5000,15.01,2.08,30,8,0,0
3.191e+05,2.0248e+08,3,5002,5085,15.02,2.09,30,8,0,0
3.1959e+05,2.026e+08,3,5091,5157,14.98,2.21,30,8,0,0
3.1999e+05,2.027e+08,3,5161,5242,14.99,2.27,30,8,0,0
3.2041e+05,2.0281e+08,3,5240,5157,14.97,2.22,30,8,0,0
3.2085e+05,2.0292e+08,3,5159,5214,14.91,2.34,30,8,0,0
3.213e+05,2.0302e+08,3,5214,5214,14.94,2.15,30,8,0,0
3.2178e+05,2.0314e+08,3,5193,4985,15,1.49,30,8,0,0
3.2222e+05,2.0325e+08,3,4978,4914,14.96,1.97,30,8,0,0
3.2267e+05,2.0336e+08,3,4918,4957,14.85,2.05,30,8,0,0
3.2308e+05,2.0346e+08,3,4960,5271,14.97,2.26,30,8,0,0
3.2352e+05,2.0357e+08,3,5269,5185,14.98,1.9,30,8,0,0
3.24e+05,2.0369e+08,3,5177,5057,14.95,1.79,30,8,0,0
3.2446e+05,2.038e+08,3,5057,5057,14.96,1.84,30,8,0,0
3.249e+05,2.0391e+08,3,5061,5100,14.89,1.91,30,8,0,0
3.2579e+05,2.0412e+08,3,5094,4914,14.95,1.57,30,9,0,0
3.2624e+05,2.0423e+08,3,4924,5014,14.88,1.78,30,9,0,0
3.2665e+05,2.0433e+08,3,5001,4842,14.95,1.56,30,9,0,0
3.2709e+05,2.0445e+08,3,4836,4785,14.98,1.5,30,9,0,0
3.275e+05,2.0454e+08,3,4784,4728,14.92,1.59,30,9,0,0
3.2798e+05,2.0466e+08,3,4736,4900,14.94,1.76,30,9,0,0
3.2843e+05,2.0477e+08,3,4895,4842,14.95,1.58,30,9,0,0
3.2884e+05,2.0488e+08,3,4844,4871,14.89,1.54,30,9,0,0
3.2928e+05,2.0499e+08,3,4873,4900,14.88,1.66,30,9,0,0
3.2969e+05,2.0509e+08,3,4887,4728,14.85,1.36,30,9,0,0
3.3014e+05,2.052e+08,3,4733,4814,14.84,1.91,30,9,0,0
3.3065e+05,2.0542e+08,3,4928,4942,14.98,1.78,30,9,0,0
3.3092e+05,2.0553e+08,3,4938,4842,14.91,1.62,30,9,0,0
3.3182e+05,2.0574e+08,3,4837,4671,14.93,1.46,30,9,0,0
3.3226e+05,2.0586e+08,3,4666,4271,14.97,1.27,30,9,0,0
3.3276e+05,2.0598e+08,3,4278,4357,14.96,1.56,30,9,0,0
3.3312e+05,2.0607e+08,3,4357,4385,14.95,1.79,30,10,0,0
3.3361e+05,2.0619e+08,3,4392,4471,15,1.89,30,10,0,0
3.3402e+05,2.0629e+08,3,4477,4657,14.98,2.07,30,10,0,0
3.345e+05,2.064e+08,3,4662,4714,14.89,2.15,30,10,0,0
3.349e+05,2.0651e+08,3,4715,4757,14.97,2.29,30,10,0,0
3.3535e+05,2.0662e+08,3,4796,5157,14.92,2.9,30,10,0,0
3.358e+05,2.0673e+08,3,5171,5285,14.9,2.97,30,10,0,0
3.3621e+05,2.0683e+08,3,5286,5385,14.9,2.8,30,10,0,0
3.3665e+05,2.0694e+08,3,5390,5514,14.85,3.06,30,10,0,0
3.3706e+05,2.0705e+08,3,5512,5485,14.83,3.05,30,10,0,0
3.375e+05,2.0715e+08,3,5485,5485,14.88,3.05,30,10,0,0
3.38e+05,2.0727e+08,3,5480,5442,14.91,2.06,30,10,0,0
3.3845e+05,2.0738e+08,3,5403,5100,15,2.07,30,10,0,0
3.3885e+05,2.0749e+08,3,5096,5071,14.92,2.32,30,10,0,0
3.393e+05,2.076e+08,3,5074,5128,14.98,2.18,30,11,0,0
3.3974e+05,2.077e+08,3,5131,5185,14.91,2.4,30,11,0,0
3.4019e+05,2.0782e+08,3,5183,5157,14.94,2.6,30,11,0,0
3.406e+05,2.0792e+08,3,5165,5271,14.93,2.47,30,11,0,0
3.4106e+05,2.0804e+08,3,5269,5257,14.86,2.57,30,11,0,0
3.4146e+05,2.0814e+08,3,5247,5128,15.01,2.01,30,11,0,0
3.4191e+05,2.0825e+08,3,5109,4928,15.02,1.63,30,11,0,0
3.4236e+05,2.0836e+08,3,4907,4700,15,1.76,30,11,0,0
3.4276e+05,2.0846e+08,3,4699,4685,14.97,1.88,30,11,0,0
3.4326e+05,2.0858e+08,3,4683,4671,15.01,2.03,30,11,0,0
3.4366e+05,2.0868e+08,3,4689,4942,14.92,2.76,30,11,0,0
3.4411e+05,2.0879e+08,3,4940,4914,14.83,2.38,30,11,0,0
3.4456e+05,2.089e+08,3,4920,4985,14.82,2.41,30,11,0,0
3.45e+05,2.09e+08,3,4985,5000,14.97,1.99,30,11,0,0
3.4545e+05,2.0911e+08,3,5000,5000,14.95,1.72,30,11,0,0
3.4586e+05,2.0921e+08,3,4999,4985,14.93,2.63,30,12,0,0
3.463e+05,2.0932e+08,3,4985,5014,14.86,2.29,30,12,0,0
3.472e+05,2.0954e+08,3,5004,4628,14.92,1.69,30,12,0,0
3.4765e+05,2.0966e+08,3,4633,4685,14.91,1.93,30,12,0,0
3.485e+05,2.0987e+08,3,4685,4714,14.87,1.6,30,12,0,0
3.4895e+05,2.0998e+08,3,4713,4700,14.86,1.86,30,12,0,0
3.494e+05,2.1009e+08,3,4715,4871,14.8,2.29,30,12,0,0
3.4985e+05,2.102e+08,3,4884,5171,14.82,2.65,30,12,0,0
3.5025e+05,2.103e+08,3,5164,4828,14.95,1.5,30,12,0,0
3.507e+05,2.1041e+08,3,4824,4585,14.94,1.75,30,12,0,0
3.5118e+05,2.1052e+08,3,4590,4657,14.86,1.87,30,12,0,0
3.5164e+05,2.1063e+08,3,4668,4900,14.8,2.45,30,12,0,0
3.5204e+05,2.1074e+08,3,4903,5114,14.87,2.72,30,12,0,0
3.5253e+05,2.1086e+08,3,5130,5271,14.8,2.77,30,12,0,0
3.5294e+05,2.1096e+08,3,5269,5257,14.82,2.68,30,13,0,0
3.5334e+05,2.1106e+08,3,5262,5457,14.7,3.26,30,13,0,0
3.5379e+05,2.1117e+08,3,5453,5385,14.83,2.65,30,13,0,0
3.5428e+05,2.1129e+08,3,5396,5485,14.79,2.66,30,13,0,0
3.5472e+05,2.1139e+08,3,5475,5371,14.79,2.53,30,13,0,0
3.5512e+05,2.1149e+08,3,5365,5300,14.72,2.57,30,13,0,0
3.5557e+05,2.116e+08,3,5302,5357,14.76,2.82,30,13,0,0
3.5602e+05,2.1171e+08,3,5353,5314,14.82,2.98,30,13,0,0
3.5647e+05,2.1182e+08,3,5317,5542,14.84,2.91,30,13,0,0
3.5691e+05,2.1193e+08,3,5530,5371,14.84,2.72,30,13,0,0
3.574e+05,2.1204e+08,3,5361,5228,14.84,2.38,30,13,0,0
3.5785e+05,2.1216e+08,3,5224,5171,14.78,2.54,30,13,0,0
3.5826e+05,2.1226e+08,3,5169,5157,14.79,2.45,30,14,0,0
3.5872e+05,2.1237e+08,3,5171,5314,14.85,2.52,30,14,0,0
3.5911e+05,2.1247e+08,3,5310,5085,14.7,2.59,30,14,0,0
3.5961e+05,2.1259e+08,3,5105,5314,14.72,2.64,30,14,0,0
3.6004e+05,2.127e+08,3,5312,5271,14.83,2.61,30,14,0,0
3.605e+05,2.1281e+08,3,5274,5328,14.76,2.73,30,14,0,0
3.6095e+05,2.1292e+08,3,5329,5342,14.72,2.75,30,14,0,0
3.614e+05,2.1303e+08,3,5344,5371,14.78,2.87,30,14,0,0
3.618e+05,2.1313e+08,3,5374,5428,14.8,2.84,30,14,0,0
3.6225e+05,2.1324e+08,3,5435,5514,14.77,3.14,30,14,0,0
3.6266e+05,2.1335e+08,3,5516,5714,14.77,3.16,30,14,0,0
3.6311e+05,2.1345e+08,3,5714,5714,14.82,3.27,30,14,0,0
3.6355e+05,2.1356e+08,3,5714,5714,14.67,3.29,30,15,0,0
3.6396e+05,2.1367e+08,3,5713,5671,14.72,3.09,30,15,0,0
3.6441e+05,2.1378e+08,3,5671,5714,14.77,3.42,30,15,0,0
3.649e+05,2.139e+08,3,5716,5742,14.7,2.96,30,15,0,0
3.6535e+05,2.1401e+08,3,5733,5614,14.8,2.85,30,15,0,0
3.6624e+05,2.1422e+08,3,5604,5385,14.85,2.56,30,15,0,0
3.6669e+05,2.1433e+08,3,5377,5300,14.88,2.29,30,15,0,0
3.6714e+05,2.1444e+08,3,5305,5357,14.79,3.03,30,15,0,0
3.6753e+05,2.1454e+08,3,5359,5471,14.8,3.01,30,15,0,0
3.6802e+05,2.1466e+08,3,5488,5728,14.82,3.34,30,15,0,0
3.6848e+05,2.1477e+08,3,5718,5585,14.83,3.04,30,16,0,0
3.6888e+05,2.1488e+08,3,5585,5600,14.79,3.24,30,16,0,0
3.6937e+05,2.1499e+08,3,5615,5771,14.8,3.28,30,16,0,0
3.6977e+05,2.1509e+08,3,5764,5642,14.77,3.05,30,16,0,0
3.7026e+05,2.1521e+08,3,5654,5728,14.82,3.21,30,16,0,0
3.707e+05,2.1531e+08,3,5719,5628,14.77,3.11,30,16,0,0
3.716e+05,2.1553e+08,3,5630,5685,14.66,3.32,30,16,0,0
3.7205e+05,2.1564e+08,3,5682,5657,14.75,3.01,30,16,0,0
3.725e+05,2.1576e+08,3,5644,5557,14.81,2.83,30,16,0,0
3.7295e+05,2.1587e+08,3,5546,5442,14.77,2.83,30,16,0,0
3.7336e+05,2.1597e+08,3,5442,5457,14.76,2.75,30,17,0,0
3.738e+05,2.1608e+08,3,5455,5371,14.8,2.94,30,17,0,0
3.7429e+05,2.162e+08,3,5385,5500,14.75,3.1,30,17,0,0
3.7477e+05,2.1631e+08,3,5507,5614,14.81,2.97,30,17,0,0
3.7517e+05,2.1641e+08,3,5604,5485,14.76,2.83,30,17,0,0
3.7559e+05,2.1652e+08,3,5477,5428,14.76,2.69,30,17,0,0
3.7604e+05,2.1663e+08,3,5436,5528,14.75,3,30,17,0,0
3.7648e+05,2.1673e+08,3,5535,5614,14.76,2.96,30,17,0,0
3.7693e+05,2.1684e+08,3,5610,5571,14.8,2.76,30,17,0,0
3.7737e+05,2.1694e+08,3,5568,5528,14.76,2.74,30,17,0,0
3.7782e+05,2.1705e+08,3,5521,5385,14.69,2.98,30,17,0,0
3.7827e+05,2.1717e+08,3,5389,5428,14.73,2.77,30,18,0,0
3.7872e+05,2.1728e+08,3,5404,5185,14.78,2.21,30,18,0,0
3.7916e+05,2.1739e+08,3,5182,5042,14.79,2.14,30,18,0,0
3.796e+05,2.1749e+08,3,5047,5142,14.75,2.85,30,18,0,0
3.8006e+05,2.176e+08,3,5142,5157,14.83,2.23,30,18,0,0
3.805e+05,2.1771e+08,3,5157,5157,14.77,2.43,30,18,0,0
3.8099e+05,2.1783e+08,3,5165,5257,14.82,2.57,30,18,0,0
3.8184e+05,2.1804e+08,3,5257,5271,14.79,2.72,30,18,0,0
3.8233e+05,2.1815e+08,3,5284,5457,14.73,3.03,30,18,0,0
3.8273e+05,2.1826e+08,3,5454,5400,14.7,2.96,30,18,0,0
3.8322e+05,2.1837e+08,3,5398,5371,14.76,2.76,30,18,0,0
3.8366e+05,2.1848e+08,3,5369,5357,14.75,2.71,30,19,0,0
3.8407e+05,2.1858e+08,3,5358,5428,14.81,2.92,30,19,0,0
3.8452e+05,2.1869e+08,3,5424,5371,14.84,2.47,30,19,0,0
3.8497e+05,2.188e+08,3,5372,5400,14.77,2.67,30,19,0,0
3.8537e+05,2.189e+08,3,5398,5342,14.62,3.02,30,19,0,0
3.8587e+05,2.1902e+08,3,5338,5300,14.67,3.06,30,19,0,0
3.8627e+05,2.1912e+08,3,5303,5442,14.72,2.32,30,19,0,0
3.8676e+05,2.1923e+08,3,5439,5400,14.73,2.83,30,19,0,0
3.872e+05,2.1934e+08,3,5403,5457,14.77,2.86,30,19,0,0
3.8766e+05,2.1946e+08,3,5440,5328,14.8,2.65,30,19,0,0
3.8806e+05,2.1956e+08,3,5321,5228,14.72,2.56,30,19,0,0
3.885e+05,2.1966e+08,3,5239,5357,14.76,2.78,30,19,0,0
3.8895e+05,2.1977e+08,3,5344,5171,14.78,2.32,30,19,0,0
3.8981e+05,2.1999e+08,3,5166,5057,14.88,2.33,30,20,0,0
3.9025e+05,2.201e+08,3,5057,5057,14.86,2.41,30,20,0,0
3.907e+05,2.2021e+08,3,5062,5128,14.73,2.73,30,20,0,0
3.9115e+05,2.2032e+08,3,5128,5128,14.85,2.64,30,20,0,0
3.916e+05,2.2042e+08,3,5140,5414,14.77,3.15,30,20,0,0
3.9204e+05,2.2054e+08,3,5409,5271,14.83,2.79,30,20,0,0
3.925e+05,2.2065e+08,3,5288,5400,14.77,2.85,30,20,0,0
3.9293e+05,2.2075e+08,3,5413,5585,14.74,3.15,30,20,0,0
3.9334e+05,2.2085e+08,3,5583,5557,14.82,3.04,30,20,0,0
3.9379e+05,2.2097e+08,3,5549,5457,14.72,2.85,30,20,0,0
3.942e+05,2.2107e+08,3,5457,5457,14.79,2.67,30,20,0,0
3.9468e+05,2.2119e+08,3,5464,5557,14.82,2.83,30,21,0,0
3.9513e+05,2.213e+08,3,5538,5285,14.79,2.39,30,21,0,0
3.9558e+05,2.2141e+08,3,5278,5214,14.81,2.34,30,21,0,0
3.9603e+05,2.2152e+08,3,5211,5171,14.88,2.23,30,21,0,0
3.9688e+05,2.2173e+08,3,5171,5200,14.81,2.19,30,21,0,0
3.9733e+05,2.2184e+08,3,5198,5114,14.77,2.62,30,21,0,0
3.9777e+05,2.2194e+08,3,5116,5157,14.83,2.06,30,21,0,0
3.9822e+05,2.2206e+08,3,5157,5157,14.79,2.43,30,21,0,0
3.9903e+05,2.2227e+08,3,5158,5200,14.78,2.42,30,21,0,0
3.995e+05,2.2248e+08,3,5313,5300,14.75,2.46,30,21,0,0
3.9999e+05,2.226e+08,3,5293,5228,14.79,2.36,30,21,0,0
4.004e+05,2.227e+08,3,5226,5214,14.82,2.35,30,22,0,0
4.0084e+05,2.2281e+08,3,5211,5157,14.77,2.46,30,22,0,0
4.0133e+05,2.2293e+08,3,5157,5157,14.74,2.33,30,22,0,0
4.0173e+05,2.2303e+08,3,5158,5171,14.76,2.3,30,22,0,0
4.0222e+05,2.2315e+08,3,5160,5042,14.77,2.29,30,22,0,0
4.0263e+05,2.2324e+08,3,5047,5157,14.78,2.31,30,22,0,0
4.0352e+05,2.2346e+08,3,5155,5100,14.76,2.27,30,22,0,0
4.0397e+05,2.2357e+08,3,5097,5057,14.78,2.1,30,22,0,0
4.0442e+05,2.2369e+08,3,5050,4985,14.77,2.14,30,22,0,0
4.0486e+05,2.2379e+08,3,4992,5071,14.8,2.24,30,22,0,0
4.0526e+05,2.2389e+08,3,5072,5171,14.86,2.08,30,22,0,0
4.0571e+05,2.24e+08,3,5170,5142,14.76,2.47,30,22,0,0
4.0616e+05,2.2411e+08,3,5142,5142,14.82,2.26,30,22,0,0
4.0661e+05,2.2422e+08,3,5142,5157,14.77,2.48,30,23,0,0
4.071e+05,2.2434e+08,3,5147,5042,14.76,2.23,30,23,0,0
4.0754e+05,2.2444e+08,3,5045,5100,14.79,2.22,30,23,0,0
4.0798e+05,2.2455e+08,3,5091,5000,14.73,2.01,30,23,0,0
4.0843e+05,2.2466e+08,3,4996,4942,14.73,1.84,30,23,0,0
4.0888e+05,2.2478e+08,3,4923,4757,14.73,1.83,30,23,0,0
4.0929e+05,2.2488e+08,3,4759,4871,14.78,2.01,30,23,0,0
4.1018e+05,2.251e+08,3,4874,4942,14.82,2.14,30,23,0,0
4.1063e+05,2.2521e+08,3,4947,5042,14.83,2.05,30,23,0,0
4.1108e+05,2.2532e+08,3,5039,5014,14.8,2.27,30,23,0,0
4.1148e+05,2.2542e+08,3,5015,5085,14.8,2.34,30,23,0,0
4.1243e+05,2.2565e+08,3,5092,5214,14.8,2.33,30,23,0,0
4.1284e+05,2.2575e+08,3,5206,5128,14.79,2.46,30,23,0,0
4.1328e+05,2.2586e+08,3,5129,5171,14.78,2.43,30,24,0,0
4.1373e+05,2.2597e+08,3,5173,5242,14.73,2.7,30,24,0,0
4.1417e+05,2.2608e+08,3,5246,5300,14.72,2.59,30,24,0,0
4.1458e+05,2.2618e+08,3,5301,5371,14.66,2.97,30,24,0,0
4.1506e+05,2.263e+08,3,5377,5471,14.71,2.63,30,24,0,0
4.1552e+05,2.2641e+08,3,5445,5242,14.66,2.28,30,24,0,0
4.1589e+05,2.2651e+08,3,5235,5100,14.66,2.36,30,24,0,0
4.1634e+05,2.2662e+08,3,5102,5157,14.64,2.45,30,24,0,0
4.1679e+05,2.2673e+08,3,5157,5171,14.7,2.5,30,24,0,0
4.1724e+05,2.2684e+08,3,5178,5285,14.64,2.68,30,24,0,0
4.1765e+05,2.2695e+08,3,5281,5100,14.77,2.35,30,24,0,0
4.1813e+05,2.2706e+08,3,5104,5185,14.82,2.67,30,24,0,0
4.1858e+05,2.2716e+08,3,5182,5085,14.86,2.11,30,24,0,0
4.1902e+05,2.2728e+08,3,5071,4800,14.89,1.68,30,25,0,0
4.1948e+05,2.2739e+08,3,4801,4814,14.82,1.99,30,25,0,0
4.1988e+05,2.2749e+08,3,4816,4957,14.81,2.37,30,25,0,0
4.2037e+05,2.276e+08,3,4961,5042,14.85,1.94,30,25,0,0
4.2081e+05,2.2771e+08,3,5031,4814,14.8,1.94,30,25,0,0
4.2126e+05,2.2782e+08,3,4824,4985,14.8,2.46,30,25,0,0
4.2167e+05,2.2793e+08,3,4986,5100,14.77,2.42,30,25,0,0
4.2216e+05,2.2804e+08,3,5101,5114,14.72,2.24,30,25,0,0
4.2257e+05,2.2814e+08,3,5115,5171,14.82,2.22,30,25,0,0
4.2305e+05,2.2826e+08,3,5154,4971,14.81,1.93,30,25,0,0
4.2345e+05,2.2836e+08,3,4972,5000,14.8,1.78,30,25,0,0
4.239e+05,2.2847e+08,3,4997,4857,14.76,1.76,30,25,0,0
4.2435e+05,2.2858e+08,3,4857,4857,14.75,1.79,30,25,0,0
4.248e+05,2.2869e+08,3,4861,4957,14.81,1.81,30,25,0,0
4.2524e+05,2.288e+08,3,4954,4900,14.76,1.95,30,25,0,0
4.2586e+05,2.2901e+08,3,4942,4942,14.78,1.93,30,26,0,0
4.2631e+05,2.2912e+08,3,4940,4885,14.8,1.64,30,26,0,0
4.2676e+05,2.2923e+08,3,4886,4914,14.82,2.01,30,26,0,0
4.272e+05,2.2934e+08,3,4914,4914,14.8,1.89,30,26,0,0
4.2765e+05,2.2945e+08,3,4917,5014,14.77,2.07,30,26,0,0
4.2809e+05,2.2956e+08,3,5026,5271,14.75,2.15,30,26,0,0
4.2854e+05,2.2967e+08,3,5260,5114,14.82,2.03,30,26,0,0
4.2895e+05,2.2977e+08,3,5108,4914,14.82,1.67,30,26,0,0
4.2941e+05,2.2989e+08,3,4919,4971,14.7,2.13,30,26,0,0
4.2985e+05,2.2999e+08,3,4979,5100,14.74,2.16,30,26,0,0
4.3029e+05,2.301e+08,3,5092,4942,14.8,2,30,26,0,0
4.3078e+05,2.3022e+08,3,4933,4842,14.83,1.72,30,26,0,0
4.3119e+05,2.3032e+08,3,4838,4771,14.88,1.65,30,26,0,0
4.3164e+05,2.3043e+08,3,4765,4642,14.83,1.54,30,26,0,0
4.3208e+05,2.3054e+08,3,4642,4657,14.77,1.91,30,26,0,0
4.3253e+05,2.3064e+08,3,4666,4871,14.8,1.91,30,26,0,0
4.3298e+05,2.3075e+08,3,4866,4800,14.8,2.14,30,26,0,0
4.3383e+05,2.3097e+08,3,4806,5114,14.76,2.27,30,27,0,0
4.3432e+05,2.3109e+08,3,5120,5185,14.81,2.36,30,27,0,0
4.3472e+05,2.3119e+08,3,5186,5257,14.77,2.38,30,27,0,0
4.3521e+05,2.3131e+08,3,5261,5314,14.79,2.78,30,27,0,0
4.3566e+05,2.3142e+08,3,5297,5185,14.8,2.27,30,27,0,0
4.3603e+05,2.3152e+08,3,5184,5171,14.77,2.09,30,27,0,0
4.3652e+05,2.3163e+08,3,5158,5042,14.75,2.39,30,27,0,0
4.3695e+05,2.3174e+08,3,5042,5042,14.77,1.92,30,27,0,0
4.374e+05,2.3186e+08,3,5029,4928,14.84,1.85,30,27,0,0
4.3784e+05,2.3197e+08,3,4905,4728,14.86,1.62,30,27,0,0
4.3826e+05,2.3207e+08,3,4716,4642,14.88,1.84,30,27,0,0
4.387e+05,2.3218e+08,3,4653,4800,14.83,2.04,30,27,0,0
4.3914e+05,2.3229e+08,3,4805,4885,14.83,2.12,30,27,0,0
4.3959e+05,2.324e+08,3,4896,5042,14.69,2.53,30,27,0,0
4.4048e+05,2.3262e+08,3,5042,5057,14.76,2.06,30,28,0,0
4.4092e+05,2.3273e+08,3,5054,5000,14.78,2.01,29,28,0,0
4.4137e+05,2.3284e+08,3,4984,4857,14.79,1.89,30,28,0,0
4.4223e+05,2.3305e+08,3,4859,4914,14.79,2.28,30,28,0,0
4.4272e+05,2.3317e+08,3,4920,4985,14.82,2.11,30,28,0,0
4.4312e+05,2.3327e+08,3,4983,4900,14.75,2.17,30,28,0,0
4.4356e+05,2.3338e+08,3,4905,4985,14.82,2.39,29,28,0,0
4.4396e+05,2.3348e+08,3,4984,4957,14.81,1.99,30,28,0,0
4.4445e+05,2.336e+08,3,4952,4885,14.82,1.7,30,28,0,0
4.449e+05,2.3371e+08,3,4875,4771,14.86,1.63,29,28,0,0
4.453e+05,2.3381e+08,3,4769,4728,14.89,1.73,30,28,0,0
4.4575e+05,2.3392e+08,3,4729,4757,14.76,1.97,29,28,0,0
4.462e+05,2.3403e+08,3,4783,5071,14.63,2.82,30,28,0,0
4.4664e+05,2.3414e+08,3,5083,5271,14.72,2.75,30,28,0,0
4.4713e+05,2.3426e+08,3,5256,5100,14.79,2.2,30,29,0,0
4.4753e+05,2.3435e+08,3,5108,5200,14.82,2.34,30,29,0,0
4.4798e+05,2.3447e+08,3,5190,5100,14.8,2.51,30,29,0,0
4.4843e+05,2.3457e+08,3,5099,5085,14.72,2.27,29,29,0,0
4.4888e+05,2.3469e+08,3,5095,5200,14.69,2.53,29,29,0,0
4.4932e+05,2.3479e+08,3,5201,5228,14.65,2.65,29,29,0,0
4.498e+05,2.3491e+08,3,5236,5314,14.73,2.47,30,29,0,0
4.5021e+05,2.35e+08,3,5311,5228,14.73,2.4,29,29,0,0
4.5066e+05,2.3512e+08,3,5227,5214,14.72,2.31,30,29,0,0
4.5107e+05,2.3522e+08,3,5216,5314,14.7,3,30,29,0,0
4.5152e+05,2.3534e+08,3,5321,5457,14.79,2.77,30,29,0,0
4.5198e+05,2.3545e+08,3,5453,5428,14.85,2.57,30,29,0,0
4.5239e+05,2.3555e+08,3,5414,5171,14.79,2.26,29,29,0,0
4.5279e+05,2.3565e+08,3,5171,5185,14.77,2.44,29,29,0,0
4.5328e+05,2.3577e+08,3,5185,5200,14.76,2.26,29,30,0,0
4.5372e+05,2.3587e+08,3,5197,5142,14.83,2.48,29,30,0,0
4.5417e+05,2.3598e+08,3,5145,5271,14.77,2.44,29,30,0,0
4.5462e+05,2.3609e+08,3,5263,5171,14.73,2.7,30,30,0,0
4.5507e+05,2.362e+08,3,5179,5385,14.69,2.63,30,30,0,0
4.555e+05,2.3631e+08,3,5384,5371,14.73,2.92,29,30,0,0
4.5596e+05,2.3642e+08,3,5389,5571,14.69,3.3,29,30,0,0
4.5636e+05,2.3652e+08,3,5570,5557,14.69,2.91,30,30,0,0
4.5685e+05,2.3664e+08,3,5557,5557,14.73,2.73,30,30,0,0
4.573e+05,2.3675e+08,3,5543,5400,14.72,2.65,29,30,0,0
4.5774e+05,2.3686e+08,3,5395,5300,14.83,2.35,29,30,0,0
4.5818e+05,2.3696e+08,3,5289,5142,14.76,2.41,29,31,0,0
4.5863e+05,2.3708e+08,3,5154,5285,14.76,2.2,29,31,0,0
4.5908e+05,2.3719e+08,3,5283,5271,14.71,2.52,29,31,0,0
4.5956e+05,2.373e+08,3,5278,5357,14.67,2.88,29,31,0,0
4.5996e+05,2.374e+08,3,5357,5385,14.59,2.99,29,31,0,0
4.6041e+05,2.3751e+08,3,5388,5571,14.57,3.23,29,31,0,0
4.6085e+05,2.3761e+08,3,5571,5585,14.69,2.96,29,31,0,0
4.6134e+05,2.3773e+08,3,5586,5614,14.64,2.62,29,31,0,0
4.6179e+05,2.3784e+08,3,5591,5357,14.66,2.7,29,31,0,0
4.6223e+05,2.3795e+08,3,5354,5328,14.61,2.62,29,31,0,0
4.6312e+05,2.3817e+08,3,5331,5400,14.75,2.65,29,31,0,0
4.6352e+05,2.3827e+08,3,5392,5200,14.64,2.41,30,31,0,0
4.6446e+05,2.385e+08,3,5207,5414,14.64,2.94,29,32,0,0
4.6491e+05,2.3861e+08,3,5404,5300,14.69,2.49,29,32,0,0
4.6531e+05,2.3871e+08,3,5308,5457,14.69,2.7,30,32,0,0
4.6576e+05,2.3883e+08,3,5457,5471,14.59,2.75,30,32,0,0
4.6621e+05,2.3894e+08,3,5477,5542,14.63,2.7,30,32,0,0
4.6661e+05,2.3903e+08,3,5539,5457,14.64,2.94,30,32,0,0
4.671e+05,2.3915e+08,3,5453,5414,14.66,3,30,32,0,0
4.675e+05,2.3925e+08,3,5414,5414,14.61,2.37,29,32,0,0
4.6795e+05,2.3936e+08,3,5416,5457,14.61,2.69,29,32,0,0
4.6888e+05,2.3959e+08,3,5443,5142,14.69,2.59,29,32,0,0
4.6928e+05,2.3969e+08,3,5159,5371,14.6,2.93,29,33,0,0
4.6973e+05,2.398e+08,3,5362,5271,14.64,2.67,29,33,0,0
4.7013e+05,2.3991e+08,3,5289,5528,14.66,2.69,29,33,0,0
4.7058e+05,2.4001e+08,3,5512,5357,14.64,2.66,30,33,0,0
4.7103e+05,2.4012e+08,3,5357,5357,14.65,2.66,30,33,0,0
4.7148e+05,2.4023e+08,3,5364,5442,14.69,2.71,29,33,0,0
4.7189e+05,2.4034e+08,3,5443,5457,14.7,2.69,29,33,0,0
4.7233e+05,2.4044e+08,3,5446,5314,14.68,2.73,30,33,0,0
4.7278e+05,2.4055e+08,3,5311,5271,14.69,2.61,29,33,0,0
4.7318e+05,2.4066e+08,3,5272,5414,14.7,2.92,29,33,0,0
4.7363e+05,2.4077e+08,3,5409,5300,14.72,2.62,30,33,0,0
4.7408e+05,2.4088e+08,3,5300,5300,14.73,2.51,30,33,0,0
4.7453e+05,2.4099e+08,3,5300,5314,14.71,2.66,29,34,0,0
4.7498e+05,2.411e+08,3,5322,5385,14.69,2.71,29,34,0,0
4.7543e+05,2.4121e+08,3,5390,5442,14.6,2.95,30,34,0,0
4.7583e+05,2.4131e+08,3,5437,5357,14.65,2.97,29,34,0,0
4.7628e+05,2.4142e+08,3,5366,5500,14.67,2.79,30,34,0,0
4.7676e+05,2.4154e+08,3,5503,5528,14.66,2.69,30,34,0,0
4.7721e+05,2.4165e+08,3,5510,5385,14.6,2.67,29,34,0,0
4.7761e+05,2.4175e+08,3,5381,5357,14.64,2.63,29,34,0,0
4.7802e+05,2.4185e+08,3,5359,5414,14.64,2.96,30,34,0,0
4.7847e+05,2.4196e+08,3,5414,5414,14.56,2.79,29,34,0,0
4.7891e+05,2.4208e+08,3,5422,5514,14.54,3.38,29,34,0,0
4.7936e+05,2.4219e+08,3,5521,5614,14.56,3.24,30,34,0,0
4.7977e+05,2.4229e+08,3,5615,5642,14.58,2.96,30,35,0,0
4.8026e+05,2.4241e+08,3,5623,5442,14.65,2.66,30,35,0,0
4.8066e+05,2.4251e+08,3,5441,5371,14.66,2.48,29,35,0,0
4.8115e+05,2.4263e+08,3,5362,5271,14.71,2.8,30,35,0,0
4.8204e+05,2.4284e+08,3,5271,5285,14.75,2.47,29,35,0,0
4.8244e+05,2.4295e+08,3,5285,5300,14.67,2.47,29,35,0,0
4.8289e+05,2.4306e+08,3,5302,5357,14.69,2.85,30,35,0,0
4.8334e+05,2.4316e+08,3,5358,5371,14.74,2.73,29,35,0,0
4.8381e+05,2.4328e+08,3,5372,5385,14.71,2.63,29,35,0,0
4.8426e+05,2.4339e+08,3,5389,5428,14.67,2.84,29,35,0,0
4.8467e+05,2.4349e+08,3,5421,5371,14.67,2.97,29,35,0,0
4.8516e+05,2.436e+08,3,5373,5400,14.67,2.87,30,36,0,0
4.8555e+05,2.437e+08,3,5410,5514,14.72,2.79,29,36,0,0
4.86e+05,2.4382e+08,3,5515,5528,14.73,2.94,29,36,0,0
4.8641e+05,2.4392e+08,3,5527,5485,14.69,2.96,30,36,0,0
4.8691e+05,2.4404e+08,3,5489,5542,14.71,2.88,30,36,0,0
4.873e+05,2.4414e+08,3,5543,5600,14.75,3.13,30,36,0,0
4.8776e+05,2.4425e+08,3,5604,5671,14.64,3.26,29,36,0,0
4.882e+05,2.4436e+08,3,5671,5685,14.6,3.33,30,36,0,0
4.891e+05,2.4458e+08,3,5686,5742,14.72,3.3,30,36,0,0
4.8954e+05,2.4469e+08,3,5742,5742,14.66,3.13,30,36,0,0
4.8999e+05,2.448e+08,3,5740,5714,14.61,3.47,30,37,0,0
4.9039e+05,2.449e+08,3,5716,5800,14.59,2.95,29,37,0,0
4.9084e+05,2.4501e+08,3,5791,5628,14.65,2.98,29,37,0,0
4.9177e+05,2.4523e+08,3,5630,5700,14.67,3.03,29,37,0,0
4.9222e+05,2.4535e+08,3,5696,5628,14.68,2.77,29,37,0,0
4.9267e+05,2.4546e+08,3,5626,5485,14.69,2.4,30,37,0,0
4.9312e+05,2.4557e+08,3,5495,5600,14.63,3.4,30,37,0,0
4.9352e+05,2.4567e+08,3,5597,5557,14.72,2.6,29,37,0,0
4.9397e+05,2.4578e+08,3,5557,5557,14.63,3.05,30,37,0,0
4.9441e+05,2.4589e+08,3,5557,5571,14.68,3.17,29,37,0,0
4.9487e+05,2.46e+08,3,5574,5628,14.61,3.25,30,38,0,0
4.9532e+05,2.4611e+08,3,5630,5671,14.65,3.12,30,38,0,0
4.9576e+05,2.4621e+08,3,5651,5385,14.73,2.64,30,38,0,0
4.9621e+05,2.4633e+08,3,5378,5314,14.67,2.58,30,38,0,0
4.9662e+05,2.4643e+08,3,5324,5542,14.69,3.09,30,38,0,0
4.9706e+05,2.4654e+08,3,5530,5285,14.73,2.27,30,38,0,0
4.9752e+05,2.4665e+08,3,5275,5171,14.72,2.31,30,38,0,0
4.9796e+05,2.4676e+08,3,5164,5071,14.69,2.11,29,38,0,0
4.984e+05,2.4687e+08,3,5068,5042,14.72,2.45,30,38,0,0
4.9885e+05,2.4697e+08,3,5047,5128,14.66,2.45,30,38,0,0
4.9929e+05,2.4709e+08,3,5129,5157,14.68,2.15,29,38,0,0
4.9974e+05,2.4719e+08,3,5140,4971,14.73,2.23,29,38,0,0
5.0014e+05,2.473e+08,3,4971,4985,14.72,2.02,29,38,0,0
5.006e+05,2.4741e+08,3,4977,4885,14.7,1.82,30,39,0,0
5.0149e+05,2.4763e+08,3,4886,4928,14.75,2.05,29,39,0,0
5.0189e+05,2.4773e+08,3,4926,4900,14.7,2.22,30,39,0,0
5.0234e+05,2.4784e+08,3,4909,5000,14.67,2.3,29,39,0,0
5.0279e+05,2.4795e+08,3,5006,5071,14.67,2.29,29,39,0,0
5.0322e+05,2.4806e+08,3,5071,5071,14.64,2.26,30,39,0,0
5.0366e+05,2.4816e+08,3,5068,5014,14.72,2.26,29,39,0,0
5.0415e+05,2.4828e+08,3,5019,5085,14.7,2.4,30,39,0,0
5.0456e+05,2.4838e+08,3,5086,5128,14.69,2.46,30,39,0,0
5.0501e+05,2.4849e+08,3,5125,5100,14.61,2.36,29,39,0,0
5.0546e+05,2.486e+08,3,5102,5171,14.73,2.27,29,39,0,0
5.059e+05,2.4871e+08,3,5164,5014,14.7,2.44,29,39,0,0
5.0635e+05,2.4882e+08,3,5025,5142,14.58,2.51,30,39,0,0
5.0679e+05,2.4893e+08,3,5142,5142,14.63,2.38,30,40,0,0
5.0716e+05,2.4903e+08,3,5142,5142,14.7,2.5,30,40,0,0
5.0809e+05,2.4926e+08,3,5148,5271,14.6,2.86,29,40,0,0
5.085e+05,2.4936e+08,3,5268,5228,14.62,2.3,29,40,0,0
5.089e+05,2.4946e+08,3,5228,5285,14.64,2.62,30,40,0,0
5.098e+05,2.4969e+08,3,5290,5400,14.72,2.78,29,40,0,0
5.102e+05,2.4979e+08,3,5406,5557,14.69,3.21,29,40,0,0
5.1065e+05,2.499e+08,3,5555,5542,14.63,2.93,30,40,0,0
5.1114e+05,2.5002e+08,3,5543,5557,14.66,3.07,29,40,0,0
5.1154e+05,2.5012e+08,3,5557,5557,14.63,3.09,30,40,0,0
5.1199e+05,2.5023e+08,3,5557,5585,14.72,3.07,29,41,0,0
5.1244e+05,2.5034e+08,3,5582,5514,14.63,3.1,29,41,0,0
5.1288e+05,2.5045e+08,3,5507,5385,14.61,2.94,30,41,0,0
5.1333e+05,2.5056e+08,3,5381,5328,14.68,2.81,29,41,0,0
5.1422e+05,2.5078e+08,3,5328,5357,14.61,2.81,29,41,0,0
5.1467e+05,2.5089e+08,3,5352,5300,14.64,2.77,29,41,0,0
5.1507e+05,2.51e+08,3,5302,5428,14.65,2.7,29,41,0,0
5.1552e+05,2.5111e+08,3,5427,5414,14.66,2.72,29,41,0,0
5.1597e+05,2.5122e+08,3,5404,5314,14.61,2.79,30,41,0,0
5.1637e+05,2.5132e+08,3,5313,5271,14.6,2.59,29,41,0,0
5.1722e+05,2.5153e+08,3,5270,5228,14.7,2.6,30,42,0,0
5.1767e+05,2.5164e+08,3,5228,5228,14.69,2.69,29,42,0,0
5.1812e+05,2.5175e+08,3,5232,5328,14.69,2.72,30,42,0,0
5.186e+05,2.5186e+08,3,5326,5314,14.63,2.47,29,42,0,0
5.1905e+05,2.5198e+08,3,5294,5157,14.72,2.38,29,42,0,0
5.1945e+05,2.5208e+08,3,5154,5028,14.69,2.19,30,42,0,0
5.1994e+05,2.5219e+08,3,5026,5014,14.65,2.32,29,42,0,0
5.2038e+05,2.523e+08,3,5018,5100,14.69,2.35,30,42,0,0
5.2082e+05,2.524e+08,3,5099,5085,14.64,2.26,30,42,0,0
5.2127e+05,2.5252e+08,3,5090,5171,14.67,2.42,30,42,0,0
5.2172e+05,2.5263e+08,3,5174,5200,14.7,2.37,30,42,0,0
5.2213e+05,2.5273e+08,3,5200,5214,14.64,2.45,29,42,0,0
5.2257e+05,2.5284e+08,3,5213,5171,14.69,2.26,29,42,0,0
5.2306e+05,2.5296e+08,3,5164,5100,14.63,2.2,29,42,0,0
5.2347e+05,2.5306e+08,3,5094,5042,14.7,2.15,30,43,0,0
5.2392e+05,2.5317e+08,3,5043,5057,14.73,2.17,29,43,0,0
5.2436e+05,2.5328e+08,3,5064,5128,14.67,2.4,29,43,0,0
5.2477e+05,2.5338e+08,3,5128,5171,14.69,2.63,29,43,0,0
5.2521e+05,2.5349e+08,3,5173,5228,14.73,2.46,30,43,0,0
5.2566e+05,2.536e+08,3,5223,5171,14.66,2.51,29,43,0,0
5.2607e+05,2.537e+08,3,5172,5214,14.66,2.25,29,43,0,0
5.2656e+05,2.5383e+08,3,5209,5171,14.72,2.26,29,43,0,0
5.2696e+05,2.5392e+08,3,5169,5128,14.67,2.22,29,43,0,0
5.2742e+05,2.5403e+08,3,5141,5271,14.67,2.69,30,43,0,0
5.2786e+05,2.5414e+08,3,5278,5371,14.67,2.76,29,43,0,0
5.2831e+05,2.5426e+08,3,5354,5242,14.67,2.31,29,43,0,0
5.2872e+05,2.5436e+08,3,5235,5142,14.72,2.45,30,43,0,0
5.2916e+05,2.5447e+08,3,5135,5085,14.67,2.34,29,44,0,0
5.2957e+05,2.5458e+08,3,5085,5085,14.72,2.4,29,44,0,0
5.3001e+05,2.5469e+08,3,5086,5128,14.69,2.11,29,44,0,0
5.305e+05,2.548e+08,3,5116,5000,14.63,2.43,29,44,0,0
5.314e+05,2.5502e+08,3,5003,5085,14.6,2.36,30,44,0,0
5.318e+05,2.5512e+08,3,5083,5042,14.54,2.43,29,44,0,0
5.3228e+05,2.5523e+08,3,5046,5128,14.56,2.7,30,44,0,0
5.3269e+05,2.5534e+08,3,5130,5271,14.42,3.18,29,44,0,0
5.3318e+05,2.5546e+08,3,5284,5442,14.51,2.82,29,44,0,0
5.3362e+05,2.5556e+08,3,5437,5371,14.52,2.68,29,44,0,0
5.3402e+05,2.5567e+08,3,5373,5428,14.55,2.57,29,44,0,0
5.3447e+05,2.5577e+08,3,5428,5442,14.55,2.46,29,44,0,0
5.3492e+05,2.5589e+08,3,5441,5428,14.62,2.59,29,45,0,0
5.3541e+05,2.56e+08,3,5415,5300,14.66,2.49,29,45,0,0
5.3585e+05,2.5611e+08,3,5294,5242,14.64,2.52,29,45,0,0
5.3629e+05,2.5621e+08,3,5250,5357,14.66,2.75,30,45,0,0
5.3669e+05,2.5632e+08,3,5355,5257,14.64,2.75,29,45,0,0
5.3714e+05,2.5643e+08,3,5258,5285,14.63,2.72,29,45,0,0
5.3758e+05,2.5653e+08,3,5285,5300,14.61,2.85,29,45,0,0
5.3803e+05,2.5664e+08,3,5304,5400,14.66,2.92,29,45,0,0
5.3844e+05,2.5675e+08,3,5406,5542,14.66,3.15,29,45,0,0
5.3889e+05,2.5686e+08,3,5560,5728,14.56,3.32,29,45,0,0
5.3934e+05,2.5697e+08,3,5724,5685,14.57,3.08,29,45,0,0
5.3974e+05,2.5707e+08,3,5680,5557,14.61,2.84,29,45,0,0
5.4019e+05,2.5718e+08,3,5550,5228,14.67,2.49,29,46,0,0
5.4067e+05,2.573e+08,3,5217,5114,14.68,2.29,29,46,0,0
5.4108e+05,2.574e+08,3,5113,5085,14.67,2.28,30,46,0,0
5.4152e+05,2.5751e+08,3,5080,5028,14.76,2.04,29,46,0,0
5.4197e+05,2.5762e+08,3,5023,4928,14.72,2.18,29,46,0,0
5.4245e+05,2.5773e+08,3,4928,4928,14.8,1.95,29,46,0,0
5.4286e+05,2.5783e+08,3,4926,4900,14.76,2.02,29,46,0,0
5.4326e+05,2.5794e+08,3,4899,4871,14.72,2.24,29,46,0,0
5.442e+05,2.5816e+08,3,4879,5114,14.76,2.55,29,46,0,0
5.4508e+05,2.5837e+08,3,5119,5228,14.69,2.86,29,46,0,0
5.4593e+05,2.5858e+08,3,5228,5242,14.71,2.6,29,46,0,0
5.4637e+05,2.587e+08,3,5245,5285,14.7,2.49,29,47,0,0
5.4682e+05,2.588e+08,3,5282,5157,14.73,2.38,29,47,0,0
5.4726e+05,2.5891e+08,3,5161,5271,14.72,2.56,29,47,0,0
5.4775e+05,2.5903e+08,3,5264,5200,14.77,2.43,29,47,0,0
5.4815e+05,2.5913e+08,3,5187,5028,14.7,2.14,29,47,0,0
5.486e+05,2.5924e+08,3,5033,5157,14.64,2.41,29,47,0,0
5.4994e+05,2.5957e+08,3,5153,5042,14.72,1.89,29,47,0,0
5.5038e+05,2.5968e+08,3,5040,5028,14.7,1.81,29,47,0,0
5.5079e+05,2.5978e+08,3,5012,4685,14.69,1.7,29,47,0,0
5.5124e+05,2.599e+08,3,4679,4628,14.72,1.94,29,47,0,0
5.5165e+05,2.5999e+08,3,4631,4842,14.65,2.42,29,47,0,0
5.521e+05,2.6011e+08,3,4853,5000,14.66,2.37,29,47,0,0
5.5254e+05,2.6021e+08,3,5004,5314,14.68,2.82,29,47,0,0
5.5303e+05,2.6033e+08,3,5319,5371,14.66,2.47,29,48,0,0
5.5344e+05,2.6043e+08,3,5366,5314,14.71,2.79,29,48,0,0
5.5384e+05,2.6054e+08,3,5315,5442,14.64,2.95,29,48,0,0
5.5433e+05,2.6066e+08,3,5442,5442,14.68,3.07,29,48,0,0
5.5474e+05,2.6076e+08,3,5437,5328,14.64,2.58,29,48,0,0
5.5518e+05,2.6087e+08,3,5326,5300,14.63,2.88,29,48,0,0
5.5563e+05,2.6098e+08,3,5308,5428,14.72,2.81,29,48,0,0
5.5608e+05,2.6109e+08,3,5410,5314,14.62,2.69,29,48,0,0
5.5649e+05,2.6119e+08,3,5314,5357,14.55,2.83,29,48,0,0
5.5693e+05,2.6129e+08,3,5358,5428,14.67,2.55,29,48,0,0
5.5738e+05,2.614e+08,3,5426,5342,14.69,2.69,29,48,0,0
5.5778e+05,2.6151e+08,3,5339,5285,14.7,2.6,29,48,0,0
5.5824e+05,2.6163e+08,3,5288,5314,14.69,2.55,29,49,0,0
5.5864e+05,2.6172e+08,3,5315,5342,14.72,2.67,29,49,0,0
5.5909e+05,2.6184e+08,3,5342,5357,14.63,2.74,29,49,0,0
5.5957e+05,2.6195e+08,3,5349,5300,14.69,2.87,29,49,0,0
5.5998e+05,2.6205e+08,3,5302,5357,14.69,3.12,29,49,0,0
5.6042e+05,2.6216e+08,3,5368,5471,14.66,3.15,29,49,0,0
5.609e+05,2.6228e+08,3,5473,5514,14.6,3.15,29,49,0,0
5.6131e+05,2.6238e+08,3,5513,5471,14.61,3.26,29,49,0,0
5.6176e+05,2.6249e+08,3,5474,5685,14.59,3.12,29,49,0,0
5.6265e+05,2.6271e+08,3,5681,5571,14.63,3.06,29,49,0,0
5.631e+05,2.6282e+08,3,5591,5871,14.66,3.77,29,50,0,0
5.6355e+05,2.6293e+08,3,5858,5728,14.73,3.47,29,50,0,0
5.64e+05,2.6304e+08,3,5734,5785,14.69,3.3,29,50,0,0
5.644e+05,2.6314e+08,3,5781,5728,14.76,2.8,29,50,0,0
5.6485e+05,2.6325e+08,3,5726,5700,14.74,3.36,29,50,0,0
5.653e+05,2.6336e+08,3,5707,5814,14.76,3.01,29,50,0,0
5.6571e+05,2.6347e+08,3,5811,5657,14.64,2.84,29,50,0,0
5.6615e+05,2.6357e+08,3,5659,5771,14.76,2.92,29,50,0,0
5.666e+05,2.6368e+08,3,5763,5628,14.67,2.82,29,50,0,0
5.6794e+05,2.6401e+08,3,5633,5814,14.65,3.66,29,51,0,0
5.6834e+05,2.6411e+08,3,5815,5885,14.62,3.48,29,51,0,0
5.6884e+05,2.6423e+08,3,5868,5642,14.6,3.02,29,51,0,0
5.6924e+05,2.6434e+08,3,5629,5357,14.55,2.62,29,51,0,0
5.698e+05,2.6455e+08,3,5495,5742,14.56,3.74,29,51,0,0
5.7025e+05,2.6467e+08,3,5740,5728,14.55,3.15,29,51,0,0
5.7069e+05,2.6477e+08,3,5717,5500,14.57,2.64,29,51,0,0
5.7158e+05,2.6499e+08,3,5495,5242,14.58,2.38,29,51,0,0
5.7202e+05,2.651e+08,3,5233,5128,14.56,2.38,29,52,0,0
5.7292e+05,2.6532e+08,3,5144,5471,14.47,3.27,29,52,0,0
5.7337e+05,2.6543e+08,3,5485,5700,14.44,3.54,29,52,0,0
5.7381e+05,2.6554e+08,3,5697,5671,14.4,3.44,29,52,0,0
5.7466e+05,2.6575e+08,3,5670,5571,14.54,2.55,29,52,0,0
5.7515e+05,2.6586e+08,3,5549,5285,14.5,2.41,30,52,0,0
5.7556e+05,2.6597e+08,3,5283,5242,14.55,2.63,29,52,0,0
5.7601e+05,2.6608e+08,3,5238,5200,14.52,2.55,29,52,0,0
5.7646e+05,2.6619e+08,3,5200,5200,14.5,2.68,29,52,0,0
5.769e+05,2.663e+08,3,5201,5271,14.51,2.89,29,53,0,0
5.7739e+05,2.6642e+08,3,5284,5428,14.55,2.96,29,53,0,0
5.7784e+05,2.6653e+08,3,5424,5385,14.52,2.97,29,53,0,0
5.7824e+05,2.6663e+08,3,5365,4971,14.6,1.54,29,53,0,0
5.7869e+05,2.6674e+08,3,4959,4700,14.66,1.77,29,53,0,0
5.7915e+05,2.6685e+08,3,4705,4785,14.7,1.97,29,53,0,0
5.7959e+05,2.6696e+08,3,4788,4828,14.57,2.08,29,53,0,0
5.8e+05,2.6706e+08,3,4829,4871,14.64,1.99,29,53,0,0
5.8048e+05,2.6718e+08,3,4877,4971,14.57,2.33,30,53,0,0
5.8089e+05,2.6729e+08,3,4978,5157,14.52,2.56,29,53,0,0
5.8138e+05,2.674e+08,3,5163,5228,14.53,2.47,29,53,0,0
5.8179e+05,2.6751e+08,3,5231,5285,14.69,2.35,29,53,0,0
5.8268e+05,2.6773e+08,3,5282,5228,14.57,2.27,29,53,0,0
5.8309e+05,2.6783e+08,3,5228,5242,14.64,2.27,29,53,0,0
5.8358e+05,2.6795e+08,3,5254,5328,14.62,2.45,29,54,0,0
5.8399e+05,2.6805e+08,3,5328,5342,14.6,2.49,29,54,0,0
5.8443e+05,2.6816e+08,3,5346,5385,14.6,2.36,29,54,0,0
5.8488e+05,2.6827e+08,3,5382,5271,14.58,2.37,30,54,0,0
5.8532e+05,2.6838e+08,3,5269,5257,14.6,2.36,29,54,0,0
5.8573e+05,2.6849e+08,3,5255,5185,14.6,2.27,29,54,0,0
5.8623e+05,2.6861e+08,3,5188,5214,14.61,2.04,29,54,0,0
5.8663e+05,2.6871e+08,3,5204,5057,14.61,2.17,29,54,0,0
5.8708e+05,2.6882e+08,3,5046,4957,14.63,1.95,29,54,0,0
5.8748e+05,2.6892e+08,3,4957,5014,14.69,1.82,29,54,0,0
5.8797e+05,2.6904e+08,3,5005,4914,14.59,1.82,29,54,0,0
5.8841e+05,2.6915e+08,3,4925,5042,14.66,1.79,29,54,0,0
5.8886e+05,2.6926e+08,3,5033,4957,14.6,1.91,29,54,0,0
5.893e+05,2.6936e+08,3,4966,5042,14.61,1.9,29,54,0,0
5.8975e+05,2.6947e+08,3,5040,5028,14.6,2.08,29,54,0,0
5.9016e+05,2.6958e+08,3,5031,5071,14.58,2.29,29,55,0,0
5.9057e+05,2.6968e+08,3,5094,5357,14.57,2.69,29,55,0,0
5.9102e+05,2.698e+08,3,5365,5485,14.58,2.55,29,55,0,0
5.9143e+05,2.699e+08,3,5479,5428,14.61,2.48,29,55,0,0
5.9188e+05,2.7001e+08,3,5413,5271,14.63,2.36,29,55,0,0
5.9232e+05,2.7012e+08,3,5273,5300,14.59,2.6,29,55,0,0
5.9277e+05,2.7023e+08,3,5288,5185,14.63,2.69,29,55,0,0
5.9318e+05,2.7033e+08,3,5187,5228,14.67,2.63,29,55,0,0
5.9362e+05,2.7044e+08,3,5234,5385,14.59,3.2,29,55,0,0
5.9407e+05,2.7055e+08,3,5392,5557,14.54,3.15,29,55,0,0
5.9452e+05,2.7066e+08,3,5563,5642,14.55,3.33,29,55,0,0
5.9493e+05,2.7077e+08,3,5645,5814,14.56,3.19,29,55,0,0
5.9541e+05,2.7088e+08,3,5801,5657,14.54,2.99,29,56,0,0
5.9586e+05,2.7099e+08,3,5654,5628,14.57,2.74,29,56,0,0
5.9631e+05,2.711e+08,3,5612,5414,14.57,2.6,29,56,0,0
5.9713e+05,2.7131e+08,3,5399,5000,14.61,2.19,29,56,0,0
5.9762e+05,2.7143e+08,3,4989,4871,14.63,1.81,29,56,0,0
5.9802e+05,2.7153e+08,3,4858,4700,14.61,1.79,29,56,0,0
5.9848e+05,2.7164e+08,3,4694,4642,14.63,1.83,29,56,0,0
