LineNo,TimeUS,Instance,RPM,RawRPM,Volt,Curr,Temp,CTot,MotTemp,Err
1572,19854003,4,0,0,15.7,0.04,30,0,0,0
1981,19955979,4,0,0,15.7,0.04,30,0,0,0
2444,20071503,4,0,0,15.7,0.04,30,0,0,0
2855,20172536,4,0,0,15.7,0.04,30,0,0,0
3308,20282936,4,0,0,15.7,0.04,30,0,0,0
3723,20384701,4,0,0,15.7,0.04,30,0,0,0
4169,20492141,4,0,0,15.7,0.04,30,0,0,0
4623,20606734,4,0,0,15.7,0.04,30,0,0,0
5041,20709795,4,0,0,15.7,0.04,30,0,0,0
5458,20812967,4,0,0,15.71,0.04,30,0,0,0
5868,20919621,4,0,0,15.71,0.04,30,0,0,0
6281,21022766,4,0,0,15.71,0.04,30,0,0,0
6730,21133749,4,0,0,15.7,0.04,30,0,0,0
7143,21237931,4,0,0,15.7,0.04,30,0,0,0
7564,21344028,4,0,0,15.71,0.04,30,0,0,0
7981,21448720,4,0,0,15.7,0.04,30,0,0,0
8396,21555120,4,0,0,15.7,0.04,30,0,0,0
8809,21659138,4,0,0,15.7,0.04,30,0,0,0
9258,21770404,4,0,0,15.7,0.04,30,0,0,0
9514,21872387,4,0,0,15.7,0.04,30,0,0,0
9955,21977576,4,0,0,15.7,0.04,30,0,0,0
10376,22082975,4,0,0,15.7,0.04,30,0,0,0
10786,22185191,4,0,0,15.71,0.04,30,0,0,0
11243,22297809,4,0,0,15.7,0.04,30,0,0,0
11658,22401717,4,0,0,15.7,0.04,30,0,0,0
12110,22513937,4,0,0,15.7,0.04,30,0,0,0
12522,22616705,4,0,0,15.7,0.04,30,0,0,0
12971,22727526,4,0,0,15.71,0.04,30,0,0,0
13383,22834589,4,0,0,15.7,0.04,30,0,0,0
13798,22938629,4,0,0,15.71,0.04,30,0,0,0
14251,23050986,4,0,0,15.7,0.04,30,0,0,0
14661,23151831,4,0,0,15.7,0.04,30,0,0,0
15073,23253509,4,0,0,15.7,0.04,30,0,0,0
15528,23372712,4,0,0,15.7,0.04,30,0,0,0
15945,23474634,4,0,0,15.71,0.04,30,0,0,0
16327,23576489,4,0,0,15.7,0.04,30,0,0,0
16778,23689803,4,0,0,15.7,0.04,30,0,0,0
17226,23801570,4,0,0,15.71,0.04,30,0,0,0
17642,23902199,4,0,0,15.7,0.04,30,0,0,0
18027,24004424,4,0,0,15.71,0.04,30,0,0,0
18522,24124022,4,0,0,15.71,0.04,30,0,0,0
18932,24229390,4,0,0,15.71,0.04,30,0,0,0
19345,24333357,4,0,0,15.7,0.04,30,0,0,0
19761,24437591,4,0,0,15.7,0.04,30,0,0,0
20213,24549416,4,0,0,15.7,0.04,30,0,0,0
20592,24646724,4,0,0,15.7,0.04,30,0,0,0
21045,24757535,4,0,0,15.7,0.04,30,0,0,0
21464,24860354,4,0,0,15.7,0.04,30,0,0,0
21918,24974139,4,0,0,15.7,0.04,30,0,0,0
22373,25087527,4,0,0,15.7,0.04,30,0,0,0
23236,25302198,4,0,0,15.7,0.04,30,0,0,0
23698,25415525,4,0,0,15.7,0.04,30,0,0,0
24113,25515633,4,0,0,15.7,0.04,30,0,0,0
24520,25614742,4,0,0,15.7,0.04,30,0,0,0
24982,25730600,4,0,0,15.7,0.04,30,0,0,0
25846,25944649,4,0,0,15.7,0.04,30,0,0,0
26263,26051168,4,0,0,15.7,0.04,30,0,0,0
26674,26156455,4,0,0,15.7,0.04,30,0,0,0
27088,26256126,4,0,0,15.71,0.04,30,0,0,0
27505,26362695,4,0,0,15.71,0.04,30,0,0,0
27924,26468544,4,0,0,15.71,0.04,30,0,0,0
28372,26579816,4,0,0,15.7,0.04,30,0,0,0
28786,26682194,4,0,0,15.71,0.04,30,0,0,0
29238,26794038,4,0,0,15.7,0.04,30,0,0,0
29656,26897685,4,0,0,15.71,0.04,30,0,0,0
30107,27009646,4,0,0,15.7,0.04,30,0,0,0
30514,27113556,4,0,0,15.7,0.04,30,0,0,0
30927,27214831,4,0,0,15.7,0.04,30,0,0,0
31377,27328672,4,0,0,15.7,0.04,30,0,0,0
31789,27431502,4,0,0,15.7,0.04,30,0,0,0
32237,27543224,4,0,0,15.7,0.04,30,0,0,0
32653,27649375,4,0,0,15.7,0.04,30,0,0,0
33066,27750143,4,0,0,15.7,0.04,30,0,0,0
33482,27855015,4,0,0,15.71,0.04,30,0,0,0
33936,27968764,4,0,0,15.7,0.04,30,0,0,0
34314,28069957,4,0,0,15.7,0.04,30,0,0,0
34765,28182013,4,0,0,15.7,0.04,30,0,0,0
35179,28283650,4,0,0,15.7,0.04,30,0,0,0
35630,28395064,4,0,0,15.71,0.04,30,0,0,0
36047,28500595,4,0,0,15.7,0.04,30,0,0,0
36460,28604051,4,0,0,15.7,0.04,30,0,0,0
36914,28716647,4,0,0,15.7,0.04,30,0,0,0
37329,28819895,4,0,0,15.7,0.04,30,0,0,0
37781,28932620,4,0,0,15.7,0.04,30,0,0,0
38194,29037683,4,0,0,15.71,0.04,30,0,0,0
38602,29139130,4,0,0,15.7,0.04,30,0,0,0
39053,29250023,4,0,0,15.7,0.04,30,0,0,0
39463,29353423,4,0,0,15.7,0.04,30,0,0,0
39916,29470961,4,0,0,15.7,0.04,30,0,0,0
40322,29569584,4,0,0,15.7,0.04,30,0,0,0
40736,29671416,4,0,0,15.71,0.04,30,0,0,0
41187,29786136,4,0,0,15.7,0.04,30,0,0,0
41599,29888056,4,0,0,15.7,0.04,30,0,0,0
42053,29998143,4,0,0,15.7,0.04,30,0,0,0
42470,30101975,4,0,0,15.7,0.04,30,0,0,0
42924,30213167,4,0,0,15.7,0.04,30,0,0,0
43341,30316680,4,0,0,15.7,0.04,30,0,0,0
43756,30421203,4,0,0,15.7,0.04,30,0,0,0
44176,30525955,4,0,0,15.7,0.04,30,0,0,0
44632,30638636,4,0,0,15.7,0.04,30,0,0,0
45046,30742611,4,0,0,15.7,0.04,30,0,0,0
45461,30846485,4,0,0,15.7,0.04,30,0,0,0
45909,30957153,4,0,0,15.7,0.04,30,0,0,0
46320,31062247,4,0,0,15.7,0.04,30,0,0,0
46731,31166811,4,0,0,15.7,0.04,30,0,0,0
47188,31282032,4,0,0,15.7,0.04,30,0,0,0
47597,31382012,4,0,0,15.7,0.04,30,0,0,0
48024,31491905,4,0,0,15.7,0.04,30,0,0,0
48434,31593681,4,0,0,15.7,0.04,30,0,0,0
48888,31706492,4,0,0,15.7,0.04,30,0,0,0
49343,31820821,4,0,0,15.7,0.04,30,0,0,0
49727,31921810,4,0,0,15.7,0.04,30,0,0,0
50138,32023409,4,0,0,15.7,0.04,30,0,0,0
50590,32135619,4,0,0,15.7,0.04,30,0,0,0
51009,32237923,4,0,0,15.7,0.04,30,0,0,0
51425,32343410,4,0,0,15.7,0.04,30,0,0,0
51876,32456077,4,0,0,15.7,0.04,30,0,0,0
52287,32559751,4,0,0,15.7,0.04,30,0,0,0
53162,32772220,4,0,0,15.7,0.04,30,0,0,0
53578,32875833,4,0,0,15.7,0.04,30,0,0,0
54023,32985609,4,0,0,15.7,0.04,30,0,0,0
54438,33089940,4,0,0,15.7,0.04,30,0,0,0
54887,33201694,4,0,0,15.7,0.04,30,0,0,0
55303,33305758,4,0,0,15.7,0.04,30,0,0,0
55713,33406950,4,0,0,15.7,0.04,30,0,0,0
56140,33517583,4,0,0,15.7,0.04,30,0,0,0
56580,33628419,4,0,0,15.7,0.04,30,0,0,0
56999,33735254,4,0,0,15.7,0.04,30,0,0,0
57415,33838598,4,0,0,15.69,0.04,30,0,0,0
57830,33943189,4,0,0,15.7,0.04,30,0,0,0
58283,34057662,4,0,0,15.7,0.04,30,0,0,0
58694,34161518,4,0,0,15.7,0.04,30,0,0,0
59112,34262948,4,0,0,15.7,0.04,30,0,0,0
59976,34480526,4,0,0,15.7,0.04,30,0,0,0
60427,34592535,4,0,0,15.7,0.04,30,0,0,0
115872,107823524,4,0,0,15.7,0.03,29,0,0,0
115958,107847957,4,0,0,15.7,0.04,29,0,0,0
116451,107960589,4,0,0,15.71,0.03,29,0,0,0
116905,108067379,4,0,0,15.71,0.03,29,0,0,0
117362,108171613,4,0,0,15.71,0.03,29,0,0,0
117814,108276737,4,0,0,15.71,0.03,29,0,0,0
118310,108390548,4,0,0,15.7,0.03,29,0,0,0
118764,108498180,4,0,0,15.7,0.03,29,0,0,0
119220,108600670,4,0,0,15.71,0.03,29,0,0,0
119677,108711411,4,0,0,15.7,0.03,29,0,0,0
120130,108816177,4,0,0,15.71,0.03,29,0,0,0
120550,108922564,4,0,0,15.71,0.04,29,0,0,0
121050,109033827,4,0,0,15.71,0.04,29,0,0,0
121501,109136513,4,0,0,15.71,0.03,28,0,0,0
122453,109355808,4,0,0,15.71,0.03,29,0,0,0
122901,109457783,4,0,0,15.71,0.03,29,0,0,0
123400,109568794,4,0,0,15.7,0.03,29,0,0,0
123886,109676742,4,0,0,15.71,0.03,29,0,0,0
124342,109779936,4,0,0,15.71,0.03,29,0,0,0
124837,109894172,4,0,0,15.71,0.01,29,0,0,0
125293,109997403,4,17,271,15.7,0.05,29,0,0,0
125748,110102613,4,301,728,15.67,0.11,29,0,0,0
126247,110213751,4,759,1085,15.69,0.15,29,0,0,0
126709,110324784,4,1098,1200,15.69,0.11,29,0,0,0
127160,110426324,4,1203,1242,15.69,0.11,29,0,0,0
127575,110524201,4,1242,1257,15.69,0.11,29,0,0,0
128069,110635649,4,1258,1285,15.69,0.11,29,0,0,0
128397,110738056,4,1285,1285,15.68,0.09999999,29,0,0,0
128897,110857190,4,1285,1285,15.69,0.09999999,29,0,0,0
129349,110959502,4,1285,1285,15.69,0.09999999,29,0,0,0
129808,111068688,4,1285,1285,15.69,0.09999999,29,0,0,0
130262,111171978,4,1285,1285,15.69,0.11,29,0,0,0
130715,111280057,4,1285,1285,15.69,0.11,29,0,0,0
131213,111394020,4,1285,1285,15.69,0.09999999,29,0,0,0
131661,111496011,4,1285,1285,15.69,0.09999999,29,0,0,0
132164,111609279,4,1285,1285,15.69,0.09999999,29,0,0,0
132655,111719708,4,1285,1285,15.69,0.09999999,29,0,0,0
133558,111930034,4,1285,1285,15.69,0.11,29,0,0,0
134058,112041748,4,1285,1285,15.68,0.11,29,0,0,0
134476,112144563,4,1285,1285,15.69,0.09999999,29,0,0,0
134969,112256596,4,1285,1285,15.69,0.09999999,29,0,0,0
135424,112361917,4,1283,1271,15.69,0.09999999,29,0,0,0
135879,112470030,4,1271,1271,15.69,0.11,29,0,0,0
136334,112570660,4,1271,1285,15.69,0.09999999,29,0,0,0
136787,112675631,4,1284,1271,15.69,0.09999999,29,0,0,0
137695,112885764,4,1271,1271,15.69,0.11,29,0,0,0
138194,112997207,4,1271,1271,15.69,0.11,29,0,0,0
138688,113109996,4,1271,1271,15.68,0.09999999,29,0,0,0
139121,113213205,4,1215,657,15.71,0.01,29,0,0,0
139531,113316567,4,639,214,15.7,0.01,29,0,0,0
139985,113428659,4,199,0,15.7,0.03,29,0,0,0
140401,113537555,4,0,0,15.7,0.03,29,0,0,0
140815,113638022,4,0,0,15.7,0.03,29,0,0,0
141261,113748920,4,0,0,15.7,0.03,29,0,0,0
141674,113853780,4,0,0,15.7,0.03,29,0,0,0
142135,113966960,4,0,0,15.7,0.03,29,0,0,0
142512,114064550,4,0,0,15.7,0.03,29,0,0,0
143380,114279564,4,0,0,15.7,0.03,29,0,0,0
143832,114390924,4,0,0,15.7,0.03,29,0,0,0
144245,114497756,4,0,0,15.7,0.03,29,0,0,0
144659,114599938,4,0,0,15.7,0.03,29,0,0,0
145078,114709932,4,0,0,15.7,0.03,29,0,0,0
145499,114819022,4,0,0,15.71,0.03,29,0,0,0
145909,114923360,4,0,0,15.7,0.03,29,0,0,0
146368,115036995,4,0,0,15.71,0.03,29,0,0,0
146778,115139163,4,0,0,15.7,0.03,29,0,0,0
147187,115244134,4,0,0,15.7,0.03,29,0,0,0
147612,115353259,4,0,0,15.7,0.03,29,0,0,0
148059,115466684,4,0,0,15.7,0.03,28,0,0,0
148477,115569951,4,0,0,15.7,0.03,29,0,0,0
148888,115672987,4,0,0,15.7,0.03,29,0,0,0
149344,115788051,4,0,0,15.71,0.03,29,0,0,0
149761,115896028,4,0,0,15.7,0.04,29,0,0,0
150175,115999394,4,0,0,15.7,0.04,29,0,0,0
150592,116107581,4,0,0,15.7,0.04,29,0,0,0
151050,116221216,4,0,0,15.7,0.04,29,0,0,0
151459,116326046,4,0,0,15.71,0.04,29,0,0,0
151914,116438432,4,0,0,15.7,0.04,29,0,0,0
152326,116543833,4,0,0,15.7,0.04,29,0,0,0
152737,116648830,4,0,0,15.7,0.04,29,0,0,0
153190,116760756,4,0,0,15.7,0.04,29,0,0,0
153606,116868364,4,0,0,15.71,0.04,28,0,0,0
154022,116970324,4,0,0,15.7,0.03,29,0,0,0
154438,117077714,4,0,0,15.7,0.03,29,0,0,0
154892,117189911,4,0,0,15.7,0.04,29,0,0,0
155304,117295922,4,0,0,15.7,0.04,29,0,0,0
155719,117400035,4,0,0,15.7,0.04,29,0,0,0
156170,117512623,4,0,0,15.7,0.04,28,0,0,0
156585,117614668,4,0,0,15.71,0.04,29,0,0,0
157003,117722734,4,0,0,15.7,0.04,29,0,0,0
157416,117823604,4,0,0,15.71,0.03,29,0,0,0
158292,118053498,4,0,0,15.7,0.03,29,0,0,0
158665,118143922,4,0,0,15.7,0.04,29,0,0,0
159115,118257253,4,0,0,15.71,0.04,28,0,0,0
159530,118360954,4,0,0,15.7,0.04,29,0,0,0
159988,118478019,4,0,0,15.71,0.03,28,0,0,0
160401,118581175,4,0,0,15.7,0.03,29,0,0,0
160852,118693652,4,0,0,15.7,0.04,29,0,0,0
161264,118794804,4,0,0,15.7,0.04,29,0,0,0
161677,118902535,4,0,0,15.7,0.03,29,0,0,0
162132,119012146,4,0,0,15.7,0.03,29,0,0,0
162542,119116062,4,0,0,15.7,0.04,28,0,0,0
162955,119217405,4,0,0,15.71,0.04,28,0,0,0
163400,119332515,4,0,0,15.71,0.03,29,0,0,0
163817,119434385,4,0,0,15.7,0.03,29,0,0,0
164229,119542956,4,0,0,15.7,0.04,28,0,0,0
164680,119655698,4,0,0,15.71,0.04,28,0,0,0
165100,119761218,4,0,0,15.7,0.03,28,0,0,0
165481,119863594,4,0,0,15.7,0.03,29,0,0,0
165901,119967205,4,0,0,15.7,0.03,28,0,0,0
166357,120086042,4,0,0,15.7,0.03,29,0,0,0
166774,120188629,4,0,0,15.71,0.03,28,0,0,0
167184,120294626,4,0,0,15.7,0.03,29,0,0,0
167604,120399997,4,0,0,15.71,0.04,29,0,0,0
167994,120503759,4,0,0,15.7,0.03,29,0,0,0
168447,120616185,4,0,0,15.7,0.04,28,0,0,0
168894,120726474,4,0,0,15.7,0.03,29,0,0,0
169307,120827509,4,0,0,15.71,0.03,28,0,0,0
169766,120942936,4,0,0,15.71,0.03,28,0,0,0
170181,121043898,4,0,0,15.7,0.04,28,0,0,0
170629,121156515,4,0,0,15.71,0.04,28,0,0,0
171042,121262025,4,0,0,15.71,0.04,28,0,0,0
171461,121366432,4,0,0,15.7,0.04,28,0,0,0
172320,121580559,4,0,0,15.71,0.03,28,0,0,0
172737,121688406,4,0,0,15.7,0.03,28,0,0,0
173150,121790834,4,0,0,15.71,0.03,28,0,0,0
173562,121895067,4,0,0,15.71,0.03,29,0,0,0
174018,122007055,4,0,0,15.7,0.03,28,0,0,0
174433,122113741,4,0,0,15.71,0.03,29,0,0,0
174887,122224985,4,0,0,15.7,0.03,28,0,0,0
175261,122322540,4,0,0,15.71,0.03,28,0,0,0
175716,122433366,4,0,0,15.7,0.03,28,0,0,0
176167,122547102,4,0,0,15.7,0.03,28,0,0,0
176614,122657598,4,0,0,15.71,0.03,28,0,0,0
177030,122760963,4,0,0,15.71,0.03,28,0,0,0
177409,122860788,4,0,0,15.71,0.03,28,0,0,0
177870,122972633,4,0,0,15.71,0.03,28,0,0,0
178317,123082216,4,0,0,15.71,0.03,28,0,0,0
178730,123183544,4,0,0,15.71,0.03,28,0,0,0
179145,123290394,4,0,0,15.71,0.03,28,0,0,0
179600,123402586,4,0,0,15.71,0.04,28,0,0,0
180014,123508612,4,0,0,15.7,0.03,28,0,0,0
180427,123610044,4,0,0,15.71,0.03,28,0,0,0
180880,123725287,4,0,0,15.71,0.03,28,0,0,0
181708,123933194,4,0,0,15.71,0.03,28,0,0,0
182193,124051595,4,0,0,15.7,0.03,28,0,0,0
182610,124154576,4,0,0,15.71,0.03,28,0,0,0
183024,124262763,4,0,0,15.71,0.03,28,0,0,0
183437,124365568,4,0,0,15.71,0.03,28,0,0,0
183848,124469375,4,0,0,15.71,0.03,28,0,0,0
184304,124581767,4,0,0,15.71,0.03,28,0,0,0
184713,124683901,4,0,0,15.71,0.03,28,0,0,0
185167,124796613,4,0,0,15.7,0.03,28,0,0,0
185582,124901918,4,0,0,15.71,0.03,28,0,0,0
186036,125014068,4,0,0,15.7,0.03,28,0,0,0
186452,125118397,4,0,0,15.7,0.03,28,0,0,0
186865,125219755,4,0,0,15.71,0.03,28,0,0,0
187322,125339209,4,0,0,15.71,0.03,28,0,0,0
187736,125444551,4,0,0,15.7,0.03,28,0,0,0
188153,125546146,4,0,0,15.7,0.03,28,0,0,0
188984,125757626,4,0,0,15.7,0.03,28,0,0,0
189436,125871368,4,0,0,15.7,0.03,28,0,0,0
189853,125973806,4,0,0,15.71,0.03,28,0,0,0
190305,126090365,4,0,0,15.71,0.03,28,0,0,0
190722,126193631,4,0,0,15.71,0.03,28,0,0,0
191140,126301761,4,0,0,15.71,0.03,28,0,0,0
191555,126404174,4,0,0,15.71,0.03,28,0,0,0
192001,126516516,4,0,0,15.7,0.03,28,0,0,0
192416,126618677,4,0,0,15.71,0.03,28,0,0,0
192829,126723422,4,0,0,15.71,0.03,28,0,0,0
193279,126837830,4,0,0,15.7,0.03,28,0,0,0
193637,126949534,4,0,0,15.7,0.03,28,0,0,0
194053,127051511,4,0,0,15.71,0.03,28,0,0,0
194467,127156280,4,0,0,15.71,0.03,28,0,0,0
194923,127271590,4,0,0,15.71,0.03,28,0,0,0
195341,127375172,4,0,0,15.71,0.03,28,0,0,0
195756,127481816,4,0,0,15.71,0.03,28,0,0,0
196171,127584921,4,0,0,15.71,0.03,28,0,0,0
196582,127689998,4,0,0,15.7,0.03,28,0,0,0
197035,127802763,4,0,0,15.71,0.03,28,0,0,0
197487,127916141,4,0,0,15.7,0.03,28,0,0,0
197902,128017060,4,0,0,15.71,0.03,28,0,0,0
198313,128122211,4,0,0,15.7,0.03,28,0,0,0
198414,173879001,4,0,0,15.7,0.03,29,0,0,0
198617,173929002,4,0,0,15.7,0.03,29,0,0,0
199032,174030528,4,0,0,15.7,0.03,29,0,0,0
199514,174141520,4,0,0,15.7,0.03,29,1,0,0
199969,174241423,4,0,0,15.7,0.03,29,1,0,0
200464,174356044,4,0,0,15.7,0.03,29,1,0,0
200918,174464219,4,0,0,15.7,0.03,29,1,0,0
201374,174566188,4,0,0,15.7,0.03,29,1,0,0
201825,174671989,4,0,0,15.7,0.03,29,1,0,0
202325,174783544,4,0,0,15.7,0.03,29,1,0,0
202781,174891402,4,0,0,15.7,0.03,29,1,0,0
203656,175098361,4,0,0,15.7,0.03,29,1,0,0
204158,175211946,4,0,0,15.7,0.03,29,1,0,0
204612,175318921,4,0,0,15.7,0.03,29,1,0,0
205065,175420385,4,0,0,15.7,0.03,29,1,0,0
205517,175525776,4,0,0,15.7,0.04,29,1,0,0
206467,175743532,4,0,0,15.7,0.03,29,1,0,0
206928,175849929,4,0,0,15.7,0.04,29,1,0,0
207832,176056938,4,6,271,15.69,0.06,29,1,0,0
208329,176166200,4,313,771,15.67,0.12,29,1,0,0
208781,176271819,4,793,1128,15.67,0.14,29,1,0,0
209276,176383586,4,1135,1214,15.68,0.11,29,1,0,0
210032,176590811,4,1257,1271,15.69,0.11,29,1,0,0
210484,176696200,4,1271,1285,15.69,0.09999999,29,1,0,0
210941,176797743,4,1285,1285,15.68,0.09999999,29,1,0,0
211396,176905806,4,1285,1285,15.68,0.09999999,29,1,0,0
211895,177016835,4,1285,1285,15.68,0.09999999,29,1,0,0
212385,177125151,4,1285,1300,15.68,0.09999999,29,1,0,0
212887,177236357,4,1298,1285,15.69,0.09999999,29,1,0,0
213299,177335012,4,1285,1285,15.69,0.09999999,29,1,0,0
213804,177450404,4,1285,1285,15.68,0.09999999,29,1,0,0
214257,177556966,4,1285,1285,15.68,0.09999999,29,1,0,0
214709,177658037,4,1285,1285,15.69,0.09999999,29,1,0,0
215167,177763139,4,1285,1285,15.69,0.09999999,29,1,0,0
215622,177867802,4,1285,1285,15.69,0.09999999,29,1,0,0
216124,177983465,4,1285,1285,15.69,0.09999999,29,1,0,0
216573,178085212,4,1285,1285,15.69,0.09999999,29,1,0,0
217072,178197517,4,1285,1285,15.68,0.09999999,29,1,0,0
217529,178305915,4,1285,1285,15.68,0.09999999,29,1,0,0
217981,178406176,4,1285,1285,15.68,0.09999999,29,1,0,0
218432,178512582,4,1285,1285,15.68,0.09999999,29,1,0,0
218929,178624205,4,1285,1285,15.68,0.09999999,29,1,0,0
219382,178730145,4,1285,1285,15.69,0.09999999,29,1,0,0
219838,178835737,4,1285,1285,15.68,0.09999999,29,1,0,0
221237,179157398,4,1285,1285,15.68,0.09999999,29,1,0,0
221729,179270131,4,1285,1285,15.69,0.09999999,29,1,0,0
222634,179480321,4,1285,1285,15.69,0.09999999,29,1,0,0
223087,179586771,4,1285,1285,15.68,0.09999999,29,1,0,0
223588,179702191,4,1285,1285,15.68,0.09999999,29,1,0,0
224042,179804029,4,1285,1285,15.68,0.09999999,29,1,0,0
224500,179914566,4,1285,1285,15.67,0.09999999,29,1,0,0
224955,180017049,4,1285,1300,15.68,0.09999999,29,1,0,0
225406,180121490,4,1299,1285,15.69,0.09999999,29,1,0,0
225903,180233534,4,1285,1285,15.69,0.09999999,29,1,0,0
226350,180338701,4,1285,1285,15.69,0.09999999,29,1,0,0
226812,180448634,4,1285,1285,15.68,0.09999999,29,1,0,0
227271,180556447,4,1286,1300,15.69,0.09999999,29,1,0,0
227690,180659201,4,1300,1300,15.68,0.09999999,29,1,0,0
228188,180771050,4,1299,1285,15.68,0.09999999,29,1,0,0
228641,180875411,4,1285,1285,15.68,0.09999999,29,1,0,0
229594,181100001,4,1285,1285,15.69,0.09999999,29,1,0,0
230050,181205773,4,1285,1285,15.68,0.09999999,29,1,0,0
230503,181313798,4,1285,1300,15.68,0.09999999,29,1,0,0
231000,181426997,4,1300,1300,15.69,0.09999999,29,1,0,0
231454,181535708,4,1298,1285,15.68,0.09999999,29,1,0,0
231909,181638139,4,1285,1300,15.68,0.09999999,29,1,0,0
232358,181746450,4,1300,1300,15.68,0.09999999,29,1,0,0
232814,181855100,4,1300,1300,15.67,0.09999999,29,1,0,0
233282,181961993,4,1298,1285,15.68,0.09999999,29,1,0,0
233778,182078024,4,1285,1285,15.68,0.09999999,29,1,0,0
234234,182182735,4,1285,1285,15.68,0.09999999,29,1,0,0
234646,182280417,4,1285,1300,15.69,0.09999999,30,1,0,0
235097,182382755,4,1299,1285,15.68,0.09999999,29,1,0,0
235591,182497749,4,1285,1285,15.67,0.11,29,1,0,0
236045,182600618,4,1285,1285,15.68,0.11,29,1,0,0
236535,182714404,4,1285,1285,15.69,0.11,29,1,0,0
236989,182818011,4,1285,1285,15.67,0.11,30,1,0,0
237486,182931517,4,1285,1285,15.67,0.09999999,29,1,0,0
237937,183035608,4,1285,1285,15.68,0.11,29,1,0,0
238432,183153139,4,1285,1285,15.67,0.09999999,29,1,0,0
238888,183261995,4,1286,1300,15.69,0.09999999,29,1,0,0
239379,183370757,4,1300,1300,15.68,0.09999999,30,1,0,0
239798,183474760,4,1298,1285,15.68,0.11,29,1,0,0
240249,183577495,4,1285,1300,15.69,0.09999999,30,1,0,0
240739,183688634,4,1300,1300,15.69,0.09999999,29,1,0,0
241235,183801093,4,1300,1300,15.68,0.09999999,29,1,0,0
241692,183909577,4,1245,457,15.7,0,30,1,0,0
242151,184018348,4,439,185,15.7,0.02,29,1,0,0
242602,184124829,4,173,0,15.7,0.03,29,1,0,0
243055,184232187,4,0,0,15.7,0.03,29,1,0,0
244006,184461673,4,0,0,15.69,0.03,29,1,0,0
244459,184567704,4,0,0,15.7,0.03,29,1,0,0
244872,184669988,4,0,0,15.7,0.03,30,1,0,0
245370,184785567,4,0,0,15.7,0.03,29,1,0,0
245818,184890532,4,0,0,15.69,0.04,30,1,0,0
246274,184996748,4,0,0,15.7,0.04,29,1,0,0
246769,185113584,4,0,0,15.7,0.04,30,1,0,0
247222,185217409,4,0,0,15.69,0.03,29,1,0,0
247682,185329790,4,0,0,15.7,0.04,30,1,0,0
248137,185435040,4,0,0,15.69,0.04,29,1,0,0
248591,185547783,4,0,0,15.7,0.03,30,1,0,0
249045,185658596,4,0,0,15.7,0.03,29,1,0,0
249501,185764779,4,0,0,15.7,0.03,29,1,0,0
249914,185869233,4,0,0,15.7,0.03,29,1,0,0
250414,185981965,4,0,0,15.7,0.04,29,1,0,0
250905,186094149,4,0,0,15.7,0.03,29,1,0,0
251358,186200994,4,0,0,15.7,0.03,29,1,0,0
251770,186303014,4,0,0,15.7,0.04,29,1,0,0
252224,186408417,4,0,0,15.7,0.04,29,1,0,0
252714,186523615,4,0,0,15.7,0.03,29,1,0,0
253167,186626557,4,0,0,15.7,0.03,29,1,0,0
253621,186737721,4,0,0,15.7,0.04,29,1,0,0
254081,186848138,4,0,0,15.7,0.04,29,1,0,0
254532,186953827,4,0,0,15.7,0.04,29,1,0,0
255024,187069176,4,0,0,15.69,0.04,29,1,0,0
255489,187180147,4,0,0,15.7,0.04,30,1,0,0
255942,187287595,4,0,0,15.7,0.04,29,1,0,0
256397,187391801,4,0,0,15.7,0.04,29,1,0,0
256896,187507629,4,0,0,15.7,0.04,29,1,0,0
257348,187610733,4,0,0,15.7,0.04,29,1,0,0
257800,187717919,4,0,0,15.7,0.04,29,1,0,0
258297,187829313,4,0,0,15.7,0.04,29,1,0,0
258715,187932756,4,0,0,15.7,0.03,29,1,0,0
259209,188046006,4,0,0,15.7,0.04,29,1,0,0
259672,188155901,4,0,0,15.7,0.04,29,1,0,0
260084,188254990,4,0,0,15.7,0.03,29,1,0,0
260580,188368050,4,0,0,15.7,0.03,29,1,0,0
261033,188475172,4,0,0,15.7,0.03,29,1,0,0
261529,188586660,4,0,0,15.7,0.03,29,1,0,0
261938,188683413,4,0,0,15.7,0.03,29,1,0,0
262436,188796582,4,0,0,15.7,0.03,29,1,0,0
262893,188906446,4,0,0,15.7,0.03,29,1,0,0
263390,189018498,4,0,0,15.7,0.03,29,1,0,0
263844,189124938,4,0,0,15.7,0.02,29,1,0,0
264298,189228190,4,5,128,15.69,0.03,29,1,0,0
264758,189341543,4,162,528,15.69,0.09,29,1,0,0
265213,189443978,4,535,985,15.65,0.16,30,1,0,0
265703,189556651,4,998,1185,15.68,0.12,30,1,0,0
266119,189659555,4,1185,1242,15.67,0.11,30,1,0,0
266615,189771826,4,1244,1271,15.68,0.11,30,1,0,0
267109,189880948,4,1271,1285,15.67,0.09999999,30,1,0,0
267561,189985024,4,1285,1285,15.68,0.09999999,30,1,0,0
268009,190090025,4,1285,1300,15.68,0.09999999,30,1,0,0
268506,190202807,4,1298,1285,15.68,0.09999999,30,1,0,0
268959,190309556,4,1285,1285,15.68,0.09999999,30,1,0,0
269239,190420590,4,1285,1285,15.68,0.09999999,29,1,0,0
269650,190520769,4,1285,1285,15.68,0.09999999,30,1,0,0
270145,190633613,4,1285,1285,15.69,0.09999999,30,1,0,0
270594,190736746,4,1285,1285,15.68,0.09999999,30,1,0,0
271093,190854594,4,1286,1300,15.69,0.09999999,30,1,0,0
271545,190957198,4,1299,1285,15.68,0.09999999,30,1,0,0
272042,191074204,4,1285,1285,15.69,0.09999999,30,1,0,0
272494,191179094,4,1285,1285,15.68,0.09999999,30,1,0,0
273449,191396712,4,1285,1285,15.68,0.09999999,30,1,0,0
273859,191494466,4,1285,1285,15.68,0.09999999,30,1,0,0
274324,191606595,4,1285,1285,15.69,0.09999999,29,1,0,0
274814,191716659,4,1285,1300,15.68,0.09999999,30,1,0,0
275270,191822690,4,1300,1300,15.69,0.11,30,1,0,0
275725,191930755,4,1313,1514,15.66,0.23,30,1,0,0
276221,192041328,4,1563,2100,15.6,0.48,30,1,0,0
276677,192152781,4,2122,2342,15.51,0.54,30,1,0,0
277125,192258632,4,2347,2842,15.48,1.16,30,1,0,0
277584,192364917,4,2870,3242,15.41,1.3,30,1,0,0
277993,192464776,4,3252,3871,15.3,1.89,30,1,0,0
278490,192581168,4,3927,4500,15.15,2.63,30,1,0,0
278979,192695512,4,4551,5100,15.02,3.22,30,1,0,0
279430,192799936,4,5120,5571,14.95,3.86,30,1,0,0
279891,192915756,4,5599,5885,14.91,3.76,30,1,0,0
280342,193020858,4,5897,6014,14.98,3.42,30,1,0,0
280796,193134024,4,5975,5600,15.01,2.54,30,2,0,0
281249,193236938,4,5588,5442,15.03,2.61,30,2,0,0
281706,193345812,4,5433,5328,15.12,2.32,30,2,0,0
282196,193463153,4,5313,5185,15.16,2.06,30,2,0,0
282651,193569782,4,5172,5042,15.14,1.76,30,2,0,0
283102,193678123,4,5030,4914,15.06,2.01,30,2,0,0
283551,193784798,4,4920,5000,15.06,2.25,30,2,0,0
284004,193894782,4,4995,4928,15.01,2.43,30,2,0,0
284460,194002742,4,4944,5157,14.92,2.67,30,2,0,0
284914,194114557,4,5169,5300,15.05,2.43,30,2,0,0
285366,194220074,4,5301,5357,15.01,2.62,30,2,0,0
285819,194329646,4,5355,5257,15.01,2.61,30,2,0,0
286320,194453742,4,5269,5357,15.01,2.76,30,2,0,0
286726,194549223,4,5357,5385,14.94,2.56,30,3,0,0
287217,194668053,4,5391,5457,14.95,2.8,30,3,0,0
287630,194768152,4,5463,5557,14.9,2.86,30,3,0,0
288086,194881609,4,5549,5471,14.94,2.72,30,3,0,0
288539,194988003,4,5462,5342,14.97,2.54,30,3,0,0
288992,195098903,4,5346,5400,14.96,2.75,30,3,0,0
289444,195205791,4,5403,5442,14.96,2.78,30,3,0,0
289856,195307755,4,5443,5500,15,2.7,30,3,0,0
290357,195425206,4,5487,5357,14.95,2.88,30,3,0,0
290801,195531020,4,5365,5485,15.03,2.61,30,3,0,0
292611,195967707,4,5483,5342,14.98,2.57,30,4,0,0
293097,196080551,4,5337,5285,15.01,2.49,30,4,0,0
293550,196186770,4,5284,5271,15.04,2.41,30,4,0,0
293999,196293401,4,5276,5385,14.97,2.58,30,4,0,0
294909,196510202,4,5383,5271,14.97,2.65,30,4,0,0
295404,196628062,4,5274,5328,14.96,2.44,30,4,0,0
295808,196727623,4,5326,5257,14.98,2.5,30,4,0,0
296297,196848931,4,5246,5157,14.93,2.43,30,4,0,0
296736,196952401,4,5156,5128,15.02,2.36,30,4,0,0
297185,197065181,4,5133,5185,15.04,2.38,30,4,0,0
297593,197168171,4,5184,5157,14.97,2.53,30,4,0,0
298041,197280201,4,5157,5157,15.06,2.64,30,4,0,0
298532,197397355,4,5158,5171,14.98,2.29,30,5,0,0
298933,197499922,4,5163,5071,14.92,2.3,30,5,0,0
299826,197720596,4,5078,5242,15,2.58,30,5,0,0
300277,197830946,4,5247,5314,15.01,2.61,30,5,0,0
300679,197932774,4,5316,5414,14.96,2.66,30,5,0,0
301128,198040525,4,5412,5357,14.91,2.72,30,5,0,0
301569,198152148,4,5357,5357,15,2.76,30,5,0,0
302017,198265702,4,5361,5414,14.92,2.61,30,5,0,0
302463,198369797,4,5414,5414,14.98,2.85,30,5,0,0
302873,198478394,4,5410,5314,14.96,2.8,30,5,0,0
303316,198582646,4,5314,5342,15,2.76,30,5,0,0
303759,198694153,4,5343,5428,14.96,2.8,30,5,0,0
304211,198803188,4,5428,5471,14.96,2.8,30,6,0,0
304654,198914243,4,5462,5385,14.92,2.68,30,6,0,0
305103,199024409,4,5392,5471,14.94,3.02,30,6,0,0
305548,199134941,4,5480,5585,14.99,3.07,30,6,0,0
305956,199236428,4,5580,5528,14.91,2.73,30,6,0,0
306362,199340150,4,5526,5457,14.94,2.84,30,6,0,0
306850,199458221,4,5462,5514,14.98,2.83,30,6,0,0
307299,199567203,4,5514,5528,14.88,3.04,30,6,0,0
308155,199779179,4,5528,5542,14.91,2.89,30,6,0,0
308560,199882805,4,5541,5528,14.89,2.83,30,6,0,0
309017,199997091,4,5528,5528,14.94,2.63,30,7,0,0
309418,200099764,4,5531,5614,14.93,2.93,30,7,0,0
309865,200207126,4,5611,5585,14.95,3.03,30,7,0,0
310312,200317223,4,5579,5500,14.94,2.87,30,7,0,0
310756,200423207,4,5498,5471,14.84,2.87,30,7,0,0
311245,200545814,4,5471,5471,14.89,2.84,30,7,0,0
311657,200647519,4,5468,5414,14.83,2.58,30,7,0,0
312098,200755682,4,5414,5428,14.89,2.76,30,7,0,0
313028,200978546,4,5431,5500,14.85,2.55,30,7,0,0
313472,201090545,4,5489,5385,14.81,2.81,30,7,0,0
313877,201189736,4,5384,5371,14.88,2.59,30,7,0,0
314324,201302035,4,5371,5385,14.86,2.62,30,8,0,0
314729,201403473,4,5382,5271,14.83,2.49,30,8,0,0
315175,201517135,4,5274,5357,14.81,2.74,30,8,0,0
316101,201737626,4,5361,5571,14.91,2.66,30,8,0,0
316588,201860512,4,5561,5457,14.94,2.69,30,8,0,0
317001,201961725,4,5457,5457,14.94,2.8,30,8,0,0
317888,202185562,4,5458,5485,15,2.59,30,8,0,0
318293,202282234,4,5483,5414,14.94,2.87,30,8,0,0
318743,202391034,4,5414,5485,14.9,2.97,30,8,0,0
319185,202502283,4,5491,5571,14.89,3.12,30,8,0,0
319637,202609547,4,5571,5614,14.89,2.97,30,9,0,0
320089,202733600,4,5612,5600,14.91,2.98,30,9,0,0
320496,202831259,4,5609,5685,14.85,3.11,30,9,0,0
320940,202939187,4,5677,5614,14.89,2.94,30,9,0,0
321422,203050962,4,5614,5614,14.87,2.93,30,9,0,0
321826,203154334,4,5627,5757,14.84,3.45,30,9,0,0
322260,203259219,4,5756,5742,14.9,2.99,30,9,0,0
322715,203371144,4,5730,5542,14.86,2.84,30,9,0,0
323608,203594592,4,5541,5457,14.89,2.71,30,9,0,0
324095,203714193,4,5467,5571,14.87,2.86,30,9,0,0
324500,203808930,4,5573,5700,14.88,3.1,30,10,0,0
324992,203932494,4,5687,5557,14.87,2.61,30,10,0,0
325427,204032559,4,5553,5514,14.88,2.93,30,10,0,0
325833,204135243,4,5512,5485,14.84,2.73,30,10,0,0
326285,204243538,4,5490,5557,14.82,2.89,30,10,0,0
326688,204349569,4,5554,5500,14.87,2.92,30,10,0,0
327136,204458608,4,5504,5600,14.83,2.63,30,10,0,0
327616,204573914,4,5585,5442,14.86,2.64,30,10,0,0
328061,204685829,4,5440,5428,14.83,2.71,30,10,0,0
328474,204786479,4,5443,5614,14.87,3.18,30,10,0,0
329324,205000408,4,5613,5528,14.82,2.85,30,10,0,0
329779,205115919,4,5530,5557,14.79,2.83,30,11,0,0
330185,205214421,4,5557,5600,14.78,2.85,30,11,0,0
331904,205770939,4,5074,5185,14.85,2.42,30,11,0,0
332346,205879797,4,5180,5142,14.88,2.52,30,11,0,0
332801,205993409,4,5159,5285,14.85,2.57,30,11,0,0
333201,206091814,4,5287,5314,14.91,2.79,30,11,0,0
333651,206200601,4,5313,5300,14.8,2.64,30,11,0,0
334139,206316747,4,5296,5257,14.92,2.53,30,11,0,0
334544,206414390,4,5266,5514,14.89,3.15,30,11,0,0
335399,206630024,4,5511,5414,14.89,2.97,30,12,0,0
335848,206743140,4,5425,5571,14.78,3.52,30,12,0,0
336296,206851591,4,5583,5700,14.87,3.01,30,12,0,0
336743,206963185,4,5703,5742,14.8,3.04,30,12,0,0
337146,207068511,4,5743,5757,14.81,3.61,30,12,0,0
337592,207175824,4,5750,5657,14.86,3.13,30,12,0,0
338038,207283569,4,5664,5857,14.82,3.67,30,12,0,0
338491,207393217,4,5853,5800,14.86,2.94,30,12,0,0
338895,207497983,4,5798,5771,14.84,2.78,30,12,0,0
339344,207606491,4,5759,5514,14.89,2.9,30,13,0,0
339834,207727727,4,5511,5485,14.83,2.68,30,13,0,0
340285,207836000,4,5476,5371,14.88,2.72,30,13,0,0
340696,207944109,4,5378,5442,14.85,2.76,30,13,0,0
341104,208045800,4,5438,5385,14.79,2.51,30,13,0,0
341509,208149686,4,5386,5442,14.92,2.79,31,13,0,0
341955,208262189,4,5441,5414,14.88,2.7,30,13,0,0
342405,208370690,4,5420,5500,14.84,2.8,30,13,0,0
342853,208481064,4,5495,5428,14.86,2.82,30,13,0,0
343301,208590565,4,5414,5242,14.89,2.33,31,13,0,0
343748,208698544,4,5247,5300,14.86,2.3,30,13,0,0
344196,208806685,4,5310,5414,14.85,2.63,30,13,0,0
344602,208909595,4,5411,5285,14.82,2.73,31,13,0,0
345093,209025820,4,5295,5400,14.76,2.7,30,14,0,0
345493,209125954,4,5391,5242,14.88,2.61,31,14,0,0
346389,209345211,4,5242,5271,14.7,2.69,30,14,0,0
346835,209451159,4,5272,5328,14.83,2.71,30,14,0,0
347288,209567068,4,5322,5242,14.86,2.53,30,14,0,0
347691,209669736,4,5240,5214,14.73,2.89,31,14,0,0
348145,209780798,4,5218,5285,14.76,2.7,31,14,0,0
348591,209892983,4,5286,5314,14.83,2.52,31,14,0,0
349045,210002497,4,5302,5185,14.73,2.48,31,14,0,0
349941,210219196,4,5188,5271,14.7,2.88,31,14,0,0
350345,210323208,4,5272,5300,14.85,2.29,31,15,0,0
350791,210429720,4,5289,5042,14.87,2.1,31,15,0,0
351276,210541566,4,5042,5042,14.84,2.33,31,15,0,0
352132,210758825,4,5060,5442,14.73,3.14,31,15,0,0
352576,210868158,4,5452,5557,14.82,2.77,31,15,0,0
353031,210977389,4,5566,5657,14.76,3.05,31,15,0,0
353427,211077679,4,5650,5528,14.74,2.91,31,15,0,0
353887,211191778,4,5543,5700,14.72,3.41,31,15,0,0
354322,211296223,4,5700,5700,14.72,3.26,31,15,0,0
355220,211515616,4,5698,5671,14.72,3.17,31,15,0,0
355666,211621385,4,5671,5685,14.73,3.12,31,16,0,0
356067,211723578,4,5683,5585,14.73,3.03,31,16,0,0
356560,211840046,4,5586,5700,14.72,2.82,31,16,0,0
357006,211950050,4,5691,5471,14.75,2.8,31,16,0,0
357491,212066617,4,5475,5514,14.73,2.65,31,16,0,0
357899,212168218,4,5510,5428,14.69,2.66,31,16,0,0
358352,212284057,4,5443,5600,14.73,3.04,31,16,0,0
358761,212385982,4,5597,5457,14.72,2.37,31,16,0,0
359204,212493980,4,5452,5185,14.73,2.26,31,16,0,0
359654,212603195,4,5184,5157,14.77,2.34,31,16,0,0
360139,212715665,4,5165,5285,14.75,2.59,31,16,0,0
360593,212825834,4,5279,5200,14.75,2.37,31,16,0,0
360998,212930610,4,5205,5328,14.71,2.65,31,17,0,0
361446,213040043,4,5328,5357,14.75,2.51,31,17,0,0
361891,213153168,4,5360,5400,14.69,2.59,31,17,0,0
362342,213267632,4,5400,5400,14.73,2.6,31,17,0,0
362748,213366127,4,5398,5385,14.64,2.69,31,17,0,0
363194,213476352,4,5397,5528,14.69,2.87,31,17,0,0
363643,213584895,4,5532,5600,14.66,2.7,31,17,0,0
364052,213690407,4,5589,5342,14.71,2.8,31,17,0,0
364501,213798195,4,5340,5285,14.7,2.36,31,17,0,0
364951,213911025,4,5285,5300,14.74,2.16,31,17,0,0
365435,214030962,4,5317,5471,14.72,3.06,31,17,0,0
366287,214234545,4,5469,5314,14.78,2.21,31,18,0,0
366731,214345406,4,5311,5100,14.78,2.18,31,18,0,0
367217,214469046,4,5091,5014,14.72,1.98,31,18,0,0
367623,214562816,4,5020,5271,14.73,2.75,31,18,0,0
368110,214685014,4,5274,5314,14.73,2.52,31,18,0,0
368558,214795062,4,5318,5357,14.79,2.29,31,18,0,0
369003,214902637,4,5360,5442,14.7,2.53,31,18,0,0
369414,215002993,4,5436,5385,14.76,2.24,31,18,0,0
369856,215108937,4,5381,5285,14.68,2.41,31,18,0,0
370263,215211215,4,5284,5242,14.7,2.38,31,18,0,0
370746,215323989,4,5243,5385,14.7,2.53,31,18,0,0
371235,215440995,4,5379,5257,14.74,2.57,31,18,0,0
371647,215546493,4,5258,5385,14.69,2.64,31,18,0,0
372140,215670738,4,5382,5357,14.7,2.48,31,18,0,0
372545,215770998,4,5344,5228,14.69,2.11,31,19,0,0
372992,215881988,4,5220,5157,14.74,2.15,31,19,0,0
373444,215990628,4,5143,4957,14.69,2.05,31,19,0,0
373889,216099447,4,4977,5200,14.75,2.31,31,19,0,0
374339,216206262,4,5199,5185,14.76,2.24,31,19,0,0
374818,216319740,4,5185,5185,14.68,2.61,31,19,0,0
375219,216417150,4,5186,5228,14.7,2.48,31,19,0,0
375634,216526633,4,5245,5471,14.7,2.81,31,19,0,0
376086,216637699,4,5448,5228,14.66,2.24,31,19,0,0
376530,216744358,4,5235,5342,14.68,2.69,31,19,0,0
376976,216851046,4,5342,5342,14.64,2.42,31,19,0,0
377459,216964801,4,5338,5285,14.64,2.57,31,19,0,0
377905,217075819,4,5287,5328,14.61,2.77,31,19,0,0
378361,217190503,4,5331,5371,14.7,2.99,31,19,0,0
378807,217301011,4,5368,5342,14.7,2.16,31,20,0,0
379254,217407985,4,5331,5228,14.68,2.3,31,20,0,0
379697,217515399,4,5214,5028,14.67,2.28,31,20,0,0
380589,217733531,4,5030,5114,14.72,2.44,31,20,0,0
381036,217839913,4,5114,5142,14.7,2.29,31,20,0,0
381440,217942681,4,5143,5200,14.72,2.36,31,20,0,0
381930,218060616,4,5196,5142,14.66,2.29,31,20,0,0
382376,218164423,4,5145,5214,14.69,2.75,31,20,0,0
382824,218277490,4,5220,5371,14.68,2.88,31,20,0,0
383310,218390203,4,5390,5571,14.65,2.84,31,20,0,0
383709,218488561,4,5554,5242,14.72,2.46,31,20,0,0
384162,218600028,4,5248,5342,14.7,2.65,31,20,0,0
384612,218712921,4,5340,5328,14.7,2.43,31,21,0,0
385462,218921780,4,5327,5257,14.64,2.82,31,21,0,0
385913,219029741,4,5259,5385,14.65,2.5,31,21,0,0
386359,219137895,4,5384,5357,14.69,2.79,31,21,0,0
386854,219253942,4,5354,5328,14.7,2.72,31,21,0,0
387297,219364256,4,5319,5228,14.71,2.48,31,21,0,0
388101,219566733,4,5228,5271,14.7,2.43,31,21,0,0
388545,219673720,4,5269,5185,14.72,2.34,31,21,0,0
388992,219782599,4,5185,5200,14.76,2.53,31,21,0,0
389451,219902169,4,5194,5142,14.79,1.87,31,21,0,0
389900,220010815,4,5133,5042,14.8,1.95,31,21,0,0
390339,220117258,4,5045,5085,14.7,2.29,31,22,0,0
390792,220229818,4,5090,5171,14.81,2.27,31,22,0,0
391239,220337915,4,5182,5328,14.73,2.76,31,22,0,0
391690,220446090,4,5334,5485,14.77,2.89,31,22,0,0
392136,220558597,4,5493,5571,14.79,2.7,31,22,0,0
392541,220660133,4,5568,5500,14.75,2.79,31,22,0,0
392982,220762725,4,5504,5671,14.7,2.92,31,22,0,0
393429,220875724,4,5664,5528,14.79,2.67,31,22,0,0
393883,220987733,4,5519,5400,14.75,2.37,31,22,0,0
394290,221092560,4,5401,5428,14.7,2.63,31,22,0,0
394777,221206698,4,5436,5528,14.7,2.53,31,22,0,0
395223,221318159,4,5531,5614,14.7,2.83,31,22,0,0
395673,221426929,4,5605,5485,14.77,2.67,31,22,0,0
396081,221532374,4,5476,5314,14.78,2.43,31,23,0,0
396569,221651744,4,5324,5414,14.79,2.61,31,23,0,0
396974,221750416,4,5409,5357,14.77,2.57,31,23,0,0
397457,221866775,4,5368,5442,14.71,2.63,31,23,0,0
397864,221965406,4,5442,5442,14.73,2.95,31,23,0,0
398313,222079413,4,5434,5357,14.71,2.77,31,23,0,0
398763,222186833,4,5365,5457,14.67,2.65,31,23,0,0
399124,222295749,4,5467,5571,14.68,2.95,31,23,0,0
399588,222503768,4,5502,5542,14.69,2.97,31,23,0,0
400035,222607517,4,5540,5500,14.64,2.88,31,23,0,0
400442,222711135,4,5500,5514,14.72,2.65,31,24,0,0
400930,222827779,4,5509,5400,14.68,2.84,31,24,0,0
401374,222936763,4,5393,5314,14.71,2.71,31,24,0,0
401825,223046922,4,5328,5528,14.73,2.88,31,24,0,0
402267,223155423,4,5522,5442,14.74,2.77,31,24,0,0
403157,223378966,4,5445,5571,14.7,3,31,24,0,0
404058,223597809,4,5571,5571,14.67,2.99,31,24,0,0
404503,223711504,4,5560,5442,14.67,2.95,31,24,0,0
404947,223817781,4,5448,5514,14.7,2.69,31,24,0,0
405348,223918389,4,5509,5414,14.73,2.74,31,24,0,0
405842,224036718,4,5407,5342,14.75,2.69,31,25,0,0
406251,224134958,4,5344,5400,14.72,2.71,31,25,0,0
406739,224251773,4,5394,5314,14.71,2.64,31,25,0,0
407137,224347416,4,5312,5285,14.72,2.55,31,25,0,0
407620,224465784,4,5287,5314,14.66,2.54,31,25,0,0
408073,224575624,4,5314,5314,14.71,2.86,31,25,0,0
408476,224678125,4,5323,5471,14.7,2.57,31,25,0,0
408925,224786448,4,5467,5314,14.7,2.6,31,25,0,0
409332,224890938,4,5314,5357,14.69,2.54,31,25,0,0
409824,225010653,4,5352,5300,14.68,2.47,31,25,0,0
410271,225120576,4,5300,5300,14.72,2.67,31,25,0,0
410675,225217742,4,5301,5428,14.66,2.85,31,25,0,0
411126,225330196,4,5421,5271,14.75,2.72,31,25,0,0
411577,225439072,4,5274,5414,14.71,2.93,31,26,0,0
412062,225558734,4,5405,5314,14.69,2.58,31,26,0,0
412472,225661186,4,5325,5442,14.75,2.74,31,26,0,0
412883,225764178,4,5441,5414,14.65,2.92,31,26,0,0
413371,225883808,4,5431,5614,14.65,2.8,31,26,0,0
413818,225990628,4,5596,5357,14.64,2.81,31,26,0,0
414264,226102205,4,5374,5557,14.61,2.87,31,26,0,0
414667,226200678,4,5554,5428,14.65,2.69,31,26,0,0
415154,226317958,4,5429,5457,14.63,2.87,31,26,0,0
415562,226420609,4,5458,5485,14.65,2.69,31,26,0,0
415976,226530807,4,5464,5200,14.65,2.47,31,26,0,0
416431,226644355,4,5221,5414,14.67,2.69,31,26,0,0
416876,226751028,4,5410,5357,14.6,2.83,31,27,0,0
417326,226866757,4,5386,5585,14.63,3.41,31,27,0,0
417735,226967251,4,5583,5557,14.66,2.39,31,27,0,0
418175,227069953,4,5553,5414,14.67,2.87,31,27,0,0
418665,227185540,4,5424,5628,14.78,2.84,31,27,0,0
419120,227301003,4,5611,5442,14.78,2.21,31,27,0,0
419968,227510597,4,5442,5485,14.7,3.09,31,27,0,0
420459,227621938,4,5483,5457,14.76,2.95,31,27,0,0
420904,227730973,4,5457,5457,14.73,2.84,31,27,0,0
421360,227849571,4,5449,5400,14.7,2.64,31,27,0,0
421765,227947128,4,5399,5385,14.66,2.91,31,27,0,0
422217,228053859,4,5387,5557,14.68,3.15,31,28,0,0
422660,228164293,4,5558,5614,14.64,2.99,31,28,0,0
423547,228381819,4,5612,5557,14.62,3.02,31,28,0,0
423994,228494962,4,5555,5528,14.64,3.05,31,28,0,0
424441,228602827,4,5530,5557,14.68,2.71,31,28,0,0
424886,228713718,4,5554,5514,14.66,2.72,31,28,0,0
425336,228821635,4,5508,5400,14.71,2.61,31,28,0,0
425953,229034775,4,5357,5357,14.75,2.74,31,28,0,0
426399,229142624,4,5361,5414,14.72,3.01,31,28,0,0
426847,229251631,4,5419,5557,14.74,3.07,31,28,0,0
427288,229358587,4,5560,5600,14.74,2.87,31,29,0,0
427776,229479599,4,5597,5571,14.75,2.79,31,29,0,0
428183,229576900,4,5571,5571,14.72,3.16,31,29,0,0
428589,229681449,4,5574,5714,14.7,3.25,31,29,0,0
429041,229792683,4,5709,5614,14.75,2.98,31,29,0,0
429453,229897588,4,5612,5542,14.68,2.92,31,29,0,0
429941,230013529,4,5548,5628,14.65,2.86,31,29,0,0
430385,230122919,4,5624,5585,14.67,2.81,31,29,0,0
430830,230226927,4,5578,5442,14.78,2.52,31,29,0,0
431280,230339678,4,5446,5514,14.76,2.68,31,29,0,0
432173,230558714,4,5510,5442,14.65,3.19,31,30,0,0
432617,230666468,4,5466,5728,14.65,3.24,31,30,0,0
433062,230780988,4,5714,5600,14.75,2.97,31,30,0,0
433465,230879972,4,5603,5657,14.69,3.07,31,30,0,0
434364,231100952,4,5650,5385,14.67,2.74,31,30,0,0
435251,231319178,4,5384,5371,14.7,2.66,31,30,0,0
435701,231433718,4,5386,5528,14.72,3.15,31,30,0,0
436103,231534943,4,5524,5357,14.75,2.43,31,30,0,0
436554,231646668,4,5357,5414,14.67,2.99,31,30,0,0
436996,231756441,4,5414,5414,14.69,2.7,31,31,0,0
437447,231870161,4,5418,5457,14.7,2.87,31,31,0,0
437891,231978501,4,5463,5514,14.73,2.9,31,31,0,0
438301,232081195,4,5514,5514,14.72,2.49,31,31,0,0
438790,232197502,4,5494,5285,14.6,2.67,32,31,0,0
439233,232309605,4,5280,5242,14.73,2.55,31,31,0,0
439676,232417784,4,5259,5414,14.64,2.65,31,31,0,0
440526,232627586,4,5414,5428,14.66,2.84,31,31,0,0
440967,232735604,4,5429,5500,14.62,3,31,31,0,0
441460,232862612,4,5479,5357,14.72,2.66,31,31,0,0
441869,232963991,4,5346,5242,14.64,2.41,31,31,0,0
442315,233074619,4,5239,5214,14.7,2.38,31,31,0,0
442762,233179830,4,5214,5228,14.69,2.4,31,32,0,0
443205,233290653,4,5228,5228,14.73,2.58,31,32,0,0
443655,233399639,4,5218,5114,14.72,2.4,31,32,0,0
444056,233500580,4,5115,5157,14.75,2.4,31,32,0,0
444544,233616650,4,5158,5171,14.75,2.48,31,32,0,0
444949,233721109,4,5172,5200,14.77,2.26,31,32,0,0
445394,233827594,4,5201,5228,14.79,2.39,31,32,0,0
445838,233937263,4,5222,5142,14.64,2.25,31,32,0,0
446292,234048248,4,5153,5285,14.49,3.02,31,32,0,0
446733,234156705,4,5304,5514,14.63,2.93,31,32,0,0
447176,234265597,4,5512,5500,14.7,2.49,31,32,0,0
447625,234376629,4,5478,5185,14.7,2.21,31,32,0,0
448071,234487521,4,5193,5285,14.71,2.64,31,32,0,0
448517,234593781,4,5296,5471,14.63,2.99,31,33,0,0
448920,234694952,4,5471,5528,14.63,2.79,31,33,0,0
449409,234811910,4,5531,5571,14.63,2.94,31,33,0,0
449847,234916699,4,5569,5542,14.64,2.93,31,33,0,0
450298,235025758,4,5547,5671,14.62,3.04,31,33,0,0
450758,235143616,4,5671,5671,14.67,3.06,31,33,0,0
451163,235243997,4,5671,5685,14.66,2.92,31,33,0,0
451612,235355621,4,5681,5628,14.73,2.86,31,33,0,0
452029,235462519,4,5612,5414,14.72,2.63,31,33,0,0
452476,235570405,4,5421,5514,14.64,2.95,31,33,0,0
452882,235672988,4,5515,5571,14.64,3,32,33,0,0
453375,235789586,4,5567,5528,14.69,2.87,31,34,0,0
453819,235896922,4,5531,5571,14.68,2.77,31,34,0,0
454269,236005807,4,5578,5685,14.71,3.11,31,34,0,0
454709,236113554,4,5679,5557,14.67,2.88,31,34,0,0
455161,236223967,4,5578,5785,14.61,3.2,31,34,0,0
455601,236328759,4,5782,5742,14.61,3.09,31,34,0,0
456009,236431419,4,5737,5457,14.63,2.4,31,34,0,0
456452,236540347,4,5462,5728,14.59,3.38,31,34,0,0
456896,236650596,4,5727,5657,14.64,3.12,31,34,0,0
457344,236759043,4,5657,5714,14.64,3.2,31,34,0,0
458679,237089510,4,5712,5485,14.65,2.8,32,35,0,0
459124,237196500,4,5486,5571,14.58,3.11,31,35,0,0
459604,237310123,4,5569,5528,14.63,2.7,31,35,0,0
460055,237419003,4,5530,5571,14.51,3.2,31,35,0,0
460498,237527614,4,5563,5457,14.59,2.78,31,35,0,0
460943,237633571,4,5469,5642,14.59,2.84,31,35,0,0
461385,237740574,4,5641,5628,14.57,3.46,31,35,0,0
462277,237960561,4,5630,5742,14.52,3.24,32,35,0,0
462719,238069413,4,5740,5700,14.57,3.48,31,35,0,0
463208,238187584,4,5690,5585,14.72,2.15,31,36,0,0
463614,238293637,4,5572,5257,14.6,2.26,31,36,0,0
464100,238408627,4,5266,5357,14.56,2.66,32,36,0,0
464544,238526673,4,5370,5500,14.6,2.72,32,36,0,0
464992,238636016,4,5500,5500,14.6,2.79,31,36,0,0
465399,238738979,4,5492,5428,14.57,2.77,32,36,0,0
465848,238848007,4,5440,5557,14.56,2.86,31,36,0,0
466252,238946698,4,5550,5400,14.52,2.87,31,36,0,0
466735,239067238,4,5412,5542,14.63,2.86,31,36,0,0
467144,239163510,4,5537,5442,14.58,2.78,31,36,0,0
468035,239386588,4,5447,5557,14.56,2.99,32,37,0,0
468469,239493420,4,5555,5485,14.63,2.61,31,37,0,0
468925,239603959,4,5482,5457,14.55,2.66,31,37,0,0
469371,239716562,4,5453,5400,14.56,2.78,31,37,0,0
469814,239825412,4,5403,5442,14.62,2.73,31,37,0,0
470225,239930827,4,5442,5442,14.57,2.67,31,37,0,0
470627,240029629,4,5442,5442,14.66,2.79,31,37,0,0
471112,240148052,4,5449,5557,14.57,2.69,31,37,0,0
471520,240250587,4,5545,5428,14.58,2.7,32,37,0,0
471964,240357023,4,5423,5385,14.63,2.76,31,37,0,0
472375,240456939,4,5386,5471,14.55,2.62,32,37,0,0
472861,240577002,4,5464,5371,14.64,2.75,31,37,0,0
473271,240684178,4,5357,5257,14.62,2.55,32,38,0,0
473716,240791631,4,5283,5485,14.6,2.69,32,38,0,0
474166,240901657,4,5483,5471,14.68,2.85,31,38,0,0
474621,241008203,4,5473,5514,14.57,2.69,31,38,0,0
475065,241126209,4,5499,5342,14.58,2.56,32,38,0,0
475514,241235993,4,5352,5457,14.6,2.9,32,38,0,0
475914,241337016,4,5458,5485,14.6,2.96,31,38,0,0
476367,241452005,4,5496,5571,14.6,2.88,31,38,0,0
477251,241663044,4,5559,5371,14.57,2.71,32,38,0,0
477658,241764937,4,5375,5471,14.59,2.69,31,38,0,0
478109,241880157,4,5471,5471,14.58,2.74,32,38,0,0
478601,241994689,4,5472,5485,14.54,3.38,31,39,0,0
478957,242085745,4,5487,5600,14.48,2.85,32,39,0,0
479451,242209549,4,5603,5642,14.48,2.99,31,39,0,0
479855,242311579,4,5636,5585,14.55,2.84,31,39,0,0
480301,242418935,4,5586,5671,14.63,3.07,32,39,0,0
480795,242542710,4,5646,5385,14.58,2.45,32,39,0,0
481198,242642941,4,5390,5457,14.62,2.67,32,39,0,0
481601,242744307,4,5456,5414,14.61,2.56,32,39,0,0
482122,242866178,4,5402,5285,14.52,2.86,32,39,0,0
482534,242966739,4,5297,5471,14.58,3.03,32,39,0,0
482979,243076959,4,5481,5585,14.63,2.8,32,39,0,0
483861,243289813,4,5577,5414,14.66,2.62,32,40,0,0
484309,243396933,4,5416,5457,14.63,2.76,32,40,0,0
484755,243508695,4,5459,5485,14.63,3.11,32,40,0,0
485597,243714366,4,5485,5500,14.65,2.79,32,40,0,0
486048,243826439,4,5496,5428,14.64,2.99,32,40,0,0
486500,243939193,4,5438,5657,14.64,2.86,32,40,0,0
486951,244049205,4,5652,5600,14.65,2.85,32,40,0,0
487392,244157740,4,5592,5442,14.69,2.79,32,40,0,0
487842,244273523,4,5451,5557,14.64,3.07,32,40,0,0
488289,244380038,4,5565,5642,14.58,3.34,32,40,0,0
488697,244487908,4,5653,5900,14.57,3.26,31,41,0,0
489141,244592819,4,5895,5628,14.58,3,32,41,0,0
489586,244702821,4,5627,5614,14.53,3.14,32,41,0,0
490080,244820495,4,5621,5700,14.57,3.12,31,41,0,0
490481,244921779,4,5701,5757,14.57,3.17,31,41,0,0
490935,245033512,4,5741,5600,14.54,2.81,32,41,0,0
491378,245143953,4,5601,5614,14.55,3.06,32,41,0,0
491864,245259764,4,5618,5657,14.55,2.98,32,41,0,0
492315,245367559,4,5651,5600,14.63,2.79,32,41,0,0
492766,245481048,4,5580,5371,14.62,2.39,32,41,0,0
493169,245578626,4,5384,5642,14.6,3.16,32,41,0,0
493615,245689767,4,5631,5485,14.64,2.68,31,41,0,0
494062,245797544,4,5485,5485,14.65,2.48,32,42,0,0
494509,245907960,4,5483,5457,14.61,2.55,32,42,0,0
494964,246017967,4,5463,5557,14.56,3.29,32,42,0,0
495408,246127043,4,5553,5514,14.63,3,32,42,0,0
495853,246233350,4,5520,5585,14.63,2.91,31,42,0,0
496255,246337259,4,5585,5585,14.58,2.79,32,42,0,0
496709,246450003,4,5577,5414,14.61,3.03,32,42,0,0
497154,246560964,4,5399,5200,14.61,2.4,32,42,0,0
497601,246674777,4,5209,5300,14.57,2.56,32,42,0,0
498047,246779686,4,5297,5257,14.65,2.28,32,42,0,0
498446,246879179,4,5256,5214,14.56,2.33,32,42,0,0
498939,246995134,4,5211,5171,14.63,2.4,32,42,0,0
499384,247107096,4,5172,5185,14.65,2.29,32,43,0,0
499831,247213914,4,5194,5285,14.64,2.54,32,43,0,0
500191,247308038,4,5286,5400,14.63,2.5,32,43,0,0
500689,247434825,4,5364,5100,14.63,2.12,32,43,0,0
501126,247536591,4,5100,5100,14.55,2.52,32,43,0,0
501576,247649926,4,5116,5257,14.63,2.63,32,43,0,0
501980,247751562,4,5252,5200,14.55,2.43,32,43,0,0
502425,247866220,4,5208,5285,14.6,2.7,32,43,0,0
502832,247961147,4,5285,5328,14.65,2.83,32,43,0,0
503754,248183059,4,5327,5314,14.66,2.72,32,43,0,0
504198,248294106,4,5314,5328,14.59,2.51,32,43,0,0
504649,248406710,4,5323,5285,14.59,2.6,32,43,0,0
505052,248504614,4,5287,5428,14.6,2.74,32,44,0,0
505542,248624261,4,5428,5428,14.59,2.52,32,44,0,0
505945,248724513,4,5418,5228,14.55,2.47,32,44,0,0
506836,248945858,4,5226,5200,14.56,2.69,32,44,0,0
507252,249052980,4,5204,5428,14.55,2.89,32,44,0,0
507694,249162145,4,5428,5442,14.55,2.68,32,44,0,0
508137,249274545,4,5445,5485,14.55,2.84,31,44,0,0
508585,249385073,4,5492,5542,14.57,2.94,32,44,0,0
508985,249483949,4,5532,5428,14.59,2.95,32,44,0,0
509433,249595974,4,5444,5571,14.6,2.89,31,44,0,0
509839,249702219,4,5571,5571,14.53,3.15,32,44,0,0
510291,249810417,4,5580,5685,14.58,3.13,32,45,0,0
510736,249921727,4,5679,5600,14.59,3.19,32,45,0,0
511186,250033351,4,5598,5585,14.58,3.04,32,45,0,0
511627,250141157,4,5590,5728,14.52,3.12,32,45,0,0
512075,250248530,4,5725,5542,14.63,2.99,32,45,0,0
512519,250360993,4,5546,5600,14.55,2.84,32,45,0,0
512968,250474756,4,5602,5642,14.61,2.95,32,45,0,0
513372,250569493,4,5639,5500,14.58,2.72,32,45,0,0
513818,250681403,4,5500,5542,14.56,2.88,32,45,0,0
514310,250804176,4,5537,5485,14.57,2.67,32,45,0,0
514715,250908236,4,5480,5442,14.57,2.64,32,45,0,0
515161,251016044,4,5443,5471,14.57,2.75,32,46,0,0
515564,251118167,4,5469,5400,14.63,2.63,32,46,0,0
516059,251240151,4,5391,5300,14.6,2.68,32,46,0,0
516459,251341552,4,5305,5357,14.57,2.9,32,46,0,0
516913,251450953,4,5362,5414,14.58,2.77,32,46,0,0
517314,251553614,4,5415,5442,14.63,2.53,32,46,0,0
518203,251770923,4,5441,5342,14.61,2.6,32,46,0,0
518643,251875212,4,5347,5457,14.53,2.89,32,46,0,0
519091,251987576,4,5456,5414,14.56,2.72,32,46,0,0
519536,252098597,4,5414,5428,14.55,2.82,32,46,0,0
519980,252204556,4,5428,5442,14.6,2.89,32,46,0,0
520914,252430716,4,5442,5457,14.59,2.89,32,47,0,0
521316,252531025,4,5457,5457,14.57,2.58,32,47,0,0
521765,252639813,4,5459,5514,14.63,2.72,32,47,0,0
522212,252752006,4,5496,5328,14.55,2.48,32,47,0,0
522700,252864966,4,5337,5400,14.6,2.87,32,47,0,0
523109,252970592,4,5404,5471,14.59,2.7,32,47,0,0
523512,253073950,4,5463,5314,14.57,2.64,32,47,0,0
523963,253184982,4,5320,5457,14.59,2.75,32,47,0,0
524407,253293062,4,5456,5442,14.58,2.69,32,47,0,0
524855,253399383,4,5442,5442,14.61,2.79,32,47,0,0
525302,253512175,4,5439,5400,14.54,2.72,32,47,0,0
525754,253623504,4,5387,5257,14.69,2.59,32,47,0,0
526156,253725758,4,5257,5271,14.64,2.61,32,48,0,0
526609,253836920,4,5275,5342,14.6,2.62,32,48,0,0
527056,253947085,4,5346,5414,14.57,2.76,32,48,0,0
527510,254062794,4,5405,5314,14.58,2.52,32,48,0,0
527902,254153928,4,5312,5242,14.64,2.46,32,48,0,0
528352,254270404,4,5248,5342,14.67,2.69,32,48,0,0
528806,254382540,4,5352,5457,14.64,2.53,32,48,0,0
529205,254482258,4,5453,5385,14.58,2.48,32,48,0,0
530105,254707614,4,5373,5142,14.63,2.56,32,48,0,0
530552,254813982,4,5139,5114,14.55,2.13,32,48,0,0
530994,254921629,4,5109,5042,14.56,2.2,32,48,0,0
531890,255144296,4,5056,5357,14.54,2.75,32,49,0,0
532374,255256315,4,5356,5342,14.33,2.98,32,49,0,0
532782,255360206,4,5352,5614,14.42,3.2,32,49,0,0
533265,255476589,4,5610,5571,14.41,3.2,32,49,0,0
533712,255584807,4,5576,5642,14.48,3,32,49,0,0
534564,255795859,4,5641,5628,14.48,3.18,32,49,0,0
535010,255908060,4,5621,5557,14.56,2.66,32,49,0,0
535451,256010049,4,5550,5428,14.54,2.75,32,49,0,0
535892,256118817,4,5428,5442,14.54,2.75,32,49,0,0
536338,256225147,4,5442,5442,14.53,2.96,32,49,0,0
536787,256337394,4,5450,5571,14.57,2.91,32,50,0,0
537236,256447587,4,5568,5542,14.57,3.04,32,50,0,0
537671,256551352,4,5543,5557,14.56,2.91,32,50,0,0
538077,256655184,4,5557,5571,14.55,2.75,32,50,0,0
538530,256767783,4,5565,5485,14.55,2.73,32,50,0,0
538981,256881976,4,5481,5428,14.54,2.39,32,50,0,0
539390,256982989,4,5425,5257,14.52,2.63,32,50,0,0
539834,257095507,4,5261,5371,14.57,2.62,32,50,0,0
540278,257201425,4,5369,5242,14.58,2.29,32,50,0,0
540719,257309750,4,5239,5200,14.55,2.3,32,50,0,0
541170,257418971,4,5185,5000,14.64,2.02,32,50,0,0
541614,257529725,4,4992,4914,14.56,2.04,31,50,0,0
542062,257637535,4,4912,4900,14.69,1.79,31,50,0,0
542496,257740050,4,4900,4900,14.67,2.12,32,50,0,0
542956,257860424,4,4892,4842,14.7,2.02,32,51,0,0
543357,257956508,4,4843,4928,14.68,2.21,31,51,0,0
543799,258063733,4,4929,5000,14.65,2.33,31,51,0,0
544285,258176205,4,4998,4985,14.63,2.3,32,51,0,0
545176,258394824,4,4994,5257,14.64,2.53,31,51,0,0
545570,258495061,4,5255,5185,14.63,2.59,32,51,0,0
546019,258606077,4,5187,5228,14.68,2.53,32,51,0,0
546419,258709099,4,5230,5428,14.64,2.69,32,51,0,0
546910,258825210,4,5424,5385,14.63,2.62,32,51,0,0
547309,258924626,4,5383,5328,14.58,2.59,32,51,0,0
547795,259035509,4,5318,5100,14.59,2.41,32,51,0,0
548244,259149596,4,5108,5228,14.62,2.44,32,51,0,0
548690,259258570,4,5229,5242,14.6,2.5,32,51,0,0
549135,259368555,4,5231,5128,14.55,2.36,32,52,0,0
549538,259471036,4,5135,5342,14.61,2.62,32,52,0,0
550027,259586775,4,5339,5314,14.57,2.63,32,52,0,0
550430,259694237,4,5304,5200,14.64,2.51,32,52,0,0
550883,259800200,4,5206,5300,14.65,2.51,32,52,0,0
551290,259905938,4,5291,5100,14.59,2.11,32,52,0,0
551740,260018529,4,5099,5085,14.59,2.38,32,52,0,0
552188,260127003,4,5091,5157,14.53,2.42,32,52,0,0
552589,260225573,4,5157,5214,14.56,2.32,32,52,0,0
553072,260347009,4,5226,5328,14.59,2.71,32,52,0,0
553479,260446207,4,5330,5428,14.58,2.53,32,52,0,0
553927,260560967,4,5428,5428,14.6,2.68,32,52,0,0
554376,260670505,4,5431,5471,14.63,2.38,31,53,0,0
554823,260783902,4,5454,5314,14.55,2.38,31,53,0,0
555226,260884531,4,5315,5414,14.54,3.05,32,53,0,0
555719,260998072,4,5417,5457,14.56,2.56,31,53,0,0
556126,261105519,4,5464,5542,14.58,2.58,32,53,0,0
556575,261209571,4,5536,5228,14.51,2.47,32,53,0,0
557012,261315823,4,5231,5257,14.55,2.57,32,53,0,0
557463,261427487,4,5255,5242,14.58,2.1,31,53,0,0
557871,261536203,4,5233,5157,14.55,2.19,31,53,0,0
558725,261749590,4,5145,4971,14.59,1.78,31,53,0,0
559172,261858797,4,4971,4971,14.57,2.09,31,53,0,0
559612,261964817,4,4977,5071,14.6,2.17,32,53,0,0
560056,262074621,4,5078,5142,14.61,2.05,31,53,0,0
560510,262184497,4,5143,5157,14.57,1.9,31,54,0,0
560951,262291552,4,5157,5171,14.57,2.29,31,54,0,0
561404,262397585,4,5164,5085,14.56,2.01,31,54,0,0
561845,262508997,4,5079,5014,14.5,2.05,31,54,0,0
562292,262617017,4,5013,5000,14.52,1.95,31,54,0,0
562742,262732551,4,5026,5228,14.55,2.38,31,54,0,0
563115,262829237,4,5226,5171,14.52,2.35,31,54,0,0
563597,262944992,4,5166,5128,14.63,2.05,31,54,0,0
564083,263062177,4,5128,5128,14.61,1.76,31,54,0,0
564487,263160030,4,5135,5200,14.67,2.3,31,54,0,0
564940,263275051,4,5172,4885,14.66,1.51,31,54,0,0
565347,263373526,4,4882,4728,14.64,1.74,32,54,0,0
565795,263487206,4,4734,4871,14.6,2.05,31,54,0,0
566246,263597829,4,4872,4914,14.6,1.99,31,54,0,0
566690,263707822,4,4916,4942,14.54,2.56,31,54,0,0
567140,263817742,4,4970,5257,14.6,2.4,32,54,0,0
567542,263918776,4,5252,4971,14.57,1.81,31,55,0,0
568033,264033830,4,4978,5057,14.58,2.11,31,55,0,0
568432,264134203,4,5056,5014,14.6,2.35,31,55,0,0
568927,264256457,4,5052,5371,14.64,3.17,31,55,0,0
569890,264573783,4,5473,5500,14.45,2.99,31,55,0,0
570293,264678493,4,5501,5571,14.51,3.13,31,55,0,0
570781,264792520,4,5580,5700,14.47,2.91,31,55,0,0
571183,264895215,4,5698,5585,14.5,2.86,31,55,0,0
571676,265012683,4,5583,5571,14.5,2.93,31,55,0,0
572120,265124011,4,5581,5685,14.46,3.01,31,55,0,0
572566,265232161,4,5690,5742,14.37,3.07,31,56,0,0
573016,265343967,4,5740,5728,14.41,3.18,31,56,0,0
573465,265453683,4,5739,5842,14.38,3.53,31,56,0,0
574305,265662268,4,5842,5942,14.37,3.7,31,56,0,0
574755,265772193,4,5947,6071,14.42,3.75,31,56,0,0
575195,265875013,4,6069,6014,14.47,3.56,31,56,0,0
575652,265989496,4,6004,5871,14.48,3.14,31,56,0,0
576055,266094522,4,5871,5885,14.46,2.95,31,56,0,0
576991,266321099,4,5875,5671,14.45,2.76,31,57,0,0
577440,266428207,4,5670,5628,14.42,3.05,31,57,0,0
577881,266536952,4,5623,5528,14.44,2.95,31,57,0,0
578332,266649058,4,5547,5785,14.54,3.4,31,57,0,0
578782,266765142,4,5763,5571,14.59,2.66,31,57,0,0
579190,266866197,4,5569,5500,14.56,2.64,31,57,0,0
579637,266973954,4,5503,5571,14.53,2.82,31,57,0,0
580083,267086735,4,5566,5514,14.57,2.68,31,57,0,0
580572,267202647,4,5508,5457,14.53,2.9,31,57,0,0
580977,267307983,4,5466,5542,14.48,3.28,31,57,0,0
581430,267413715,4,5549,5728,14.51,3.33,31,57,0,0
581873,267529896,4,5724,5657,14.52,3.22,31,58,0,0
582323,267635971,4,5661,5700,14.55,3.24,31,58,0,0
582728,267743827,4,5700,5700,14.48,3.34,31,58,0,0
583214,267862967,4,5709,5800,14.48,3.16,32,58,0,0
583624,267965448,4,5795,5757,14.53,3.32,32,58,0,0
584068,268075496,4,5742,5628,14.51,3.29,32,58,0,0
584519,268186698,4,5628,5628,14.49,3.21,31,58,0,0
584961,268292938,4,5633,5742,14.54,3.15,31,58,0,0
585414,268403905,4,5734,5642,14.51,3.1,31,58,0,0
585820,268508196,4,5636,5571,14.47,3.04,31,58,0,0
586273,268620178,4,5568,5485,14.54,2.83,31,59,0,0
586676,268723820,4,5482,5442,14.5,2.91,31,59,0,0
587126,268831038,4,5444,5571,14.5,2.93,31,59,0,0
587570,268941132,4,5568,5428,14.58,2.73,31,59,0,0
588460,269160526,4,5423,5285,14.52,2.78,32,59,0,0
588906,269271401,4,5294,5414,14.57,2.82,32,59,0,0
589761,269484506,4,5412,5357,14.54,2.68,32,59,0,0
590206,269589961,4,5361,5457,14.54,2.65,32,59,0,0
590658,269707408,4,5439,5271,14.51,2.9,32,59,0,0
591067,269808027,4,5276,5400,14.54,2.86,31,59,0,0
591518,269923820,4,5394,5328,14.55,2.7,31,60,0,0
591926,270023979,4,5325,5271,14.54,2.81,32,60,0,0
592369,270130779,4,5272,5300,14.55,2.5,32,60,0,0
592861,270248136,4,5308,5400,14.51,2.96,32,60,0,0
593264,270351517,4,5398,5371,14.5,2.65,32,60,0,0
593713,270462044,4,5357,5228,14.48,2.97,32,60,0,0
594160,270572911,4,5260,5585,14.5,3.09,32,60,0,0
594561,270674517,4,5583,5542,14.52,2.98,32,60,0,0
595021,270788025,4,5542,5557,14.49,2.92,32,60,0,0
595506,270905498,4,5560,5600,14.51,2.8,32,60,0,0
595913,271004626,4,5587,5342,14.48,2.38,32,60,0,0
596353,271113339,4,5336,5228,14.51,2.28,32,60,0,0
596810,271226051,4,5214,5014,14.49,2.04,32,60,0,0
597215,271333157,4,4997,4828,14.49,2.12,32,61,0,0
597665,271441625,4,4820,4714,14.49,1.68,32,61,0,0
598116,271553911,4,4709,4657,14.54,1.56,32,61,0,0
598563,271668207,4,4635,4414,14.55,1.52,32,61,0,0
598977,271771494,4,4416,4442,14.56,1.58,32,61,0,0
599822,271982994,4,4440,4385,14.51,2.09,32,61,0,0
600270,272092614,4,4394,4571,14.55,1.91,32,61,0,0
600722,272203757,4,4587,4757,14.52,2.21,32,61,0,0
601165,272313551,4,4767,4914,14.53,2.2,32,61,0,0
601610,272419187,4,4922,5100,14.54,2.6,32,61,0,0
602055,272530790,4,5103,5157,14.56,2.61,32,61,0,0
602504,272639777,4,5162,5300,14.52,2.66,32,61,0,0
602985,272753922,4,5312,5442,14.57,2.71,32,61,0,0
603431,272865971,4,5442,5442,14.55,2.85,32,61,0,0
603881,272974218,4,5445,5485,14.54,2.76,32,62,0,0
604318,273077762,4,5482,5428,14.57,2.55,32,62,0,0
604769,273189652,4,5410,5157,14.42,2.35,32,62,0,0
605218,273303015,4,5165,5257,14.43,2.44,32,62,0,0
605664,273410906,4,5260,5300,14.5,2.88,32,62,0,0
606070,273512514,4,5303,5385,14.45,3,32,62,0,0
606519,273621776,4,5386,5414,14.52,2.99,32,62,0,0
606971,273737081,4,5418,5471,14.52,2.85,32,62,0,0
607419,273846705,4,5475,5528,14.55,3,32,62,0,0
607857,273953147,4,5525,5485,14.52,3.07,32,62,0,0
608312,274068184,4,5483,5471,14.54,2.94,32,62,0,0
608712,274165535,4,5483,5628,14.51,3.31,32,62,0,0
609157,274275752,4,5623,5571,14.51,2.97,32,63,0,0
609603,274381371,4,5578,5657,14.46,3.16,31,63,0,0
610453,274589547,4,5661,5857,14.53,3.17,32,63,0,0
610902,274702937,4,5855,5785,14.5,3.47,32,63,0,0
611351,274812697,4,5776,5657,14.42,3.51,32,63,0,0
611758,274916630,4,5659,5728,14.44,3.25,32,63,0,0
612214,275027092,4,5733,5800,14.44,3.23,32,63,0,0
612659,275137611,4,5789,5685,14.54,2.85,31,63,0,0
613105,275242767,4,5679,5571,14.51,2.99,32,63,0,0
613557,275357858,4,5585,5742,14.54,2.98,32,64,0,0
614408,275568214,4,5740,5657,14.48,2.62,32,64,0,0
614856,275685863,4,5642,5471,14.48,2.88,32,64,0,0
615306,275793600,4,5467,5428,14.48,2.81,32,64,0,0
615747,275901556,4,5435,5557,14.41,2.95,32,64,0,0
616200,276012976,4,5549,5457,14.47,2.68,31,64,0,0
616649,276124757,4,5465,5542,14.56,2.61,32,64,0,0
617087,276227752,4,5537,5300,14.52,2.47,31,64,0,0
617534,276338931,4,5303,5342,14.45,2.89,32,64,0,0
617987,276457113,4,5357,5514,14.44,3.13,32,64,0,0
618391,276550604,4,5518,5842,14.48,3.77,32,64,0,0
619360,276780534,4,5823,5414,14.42,2.33,31,65,0,0
619795,276889397,4,5414,5428,14.41,2.59,32,65,0,0
620202,276989722,4,5427,5385,14.5,2.97,31,65,0,0
620648,277099623,4,5389,5428,14.54,2.91,32,65,0,0
621549,277322054,4,5416,5242,14.46,2.52,31,65,0,0
621992,277428589,4,5270,5528,14.58,3.3,32,65,0,0
622398,277530133,4,5522,5414,14.59,2.78,31,65,0,0
622889,277654956,4,5396,5271,14.64,2.33,32,65,0,0
623292,277750795,4,5268,5042,14.72,2.13,32,65,0,0
623732,277858743,4,5034,4728,14.77,1.67,32,65,0,0
624225,277976943,4,4707,4514,14.77,1.69,32,65,0,0
624667,278083367,4,4525,4642,14.75,1.67,32,65,0,0
625530,278299975,4,4642,4671,14.76,2.04,32,66,0,0
626013,278411977,4,4672,4714,14.78,1.96,31,66,0,0
626420,278518606,4,4721,4814,14.73,2.19,31,66,0,0
626867,278629636,4,4819,4871,14.71,2.4,31,66,0,0
627759,278849633,4,4873,4928,14.7,2.22,32,66,0,0
628197,278956772,4,4948,5157,14.68,2.57,31,66,0,0
628650,279069652,4,5160,5200,14.65,2.56,31,66,0,0
629053,279167238,4,5224,5514,14.6,3.5,31,66,0,0
629497,279277014,4,5535,5828,14.6,3.36,31,66,0,0
629947,279385594,4,5823,5771,14.63,3.15,31,66,0,0
630839,279603946,4,5758,5385,14.67,2.27,31,66,0,0
631776,279830031,4,5385,5414,14.52,2.8,31,67,0,0
632177,279932769,4,5412,5371,14.63,2.52,31,67,0,0
633073,280151235,4,5366,5171,14.75,2.14,31,67,0,0
633520,280264374,4,5170,5142,14.69,2.4,31,67,0,0
634821,280584506,4,5143,5471,14.7,2.44,31,67,0,0
635747,280805413,4,5475,5614,14.57,3.38,31,67,0,0
636192,280916674,4,5646,6100,14.5,3.91,32,67,0,0
636600,281017709,4,6097,6014,14.51,3.7,31,68,0,0
637052,281133117,4,6018,6114,14.5,3.75,31,68,0,0
637502,281244032,4,6107,6057,14.41,3.82,31,68,0,0
637947,281355190,4,6091,6457,14.42,4.87,31,68,0,0
638396,281469929,4,6453,6414,14.49,4.08,31,68,0,0
638797,281566497,4,6401,5914,14.6,3.32,31,68,0,0
639245,281679160,4,5904,5785,14.55,3.11,31,68,0,0
639655,281784761,4,5780,5685,14.57,3.1,31,68,0,0
640105,281896662,4,5682,5614,14.57,2.72,32,68,0,0
640550,282002772,4,5609,5514,14.54,2.9,31,69,0,0
641031,282115938,4,5520,5585,14.57,2.86,31,69,0,0
641881,282325004,4,5586,5671,14.53,3.28,31,69,0,0
642329,282434550,4,5663,5557,14.5,2.96,31,69,0,0
642738,282540946,4,5560,5628,14.47,3.19,31,69,0,0
643231,282664516,4,5650,5785,14.54,3.39,32,69,0,0
643631,282761804,4,5782,5757,14.45,3.22,32,69,0,0
644075,282873420,4,5764,5828,14.42,3.44,31,69,0,0
644522,282980940,4,5821,5714,14.41,3.61,32,69,0,0
644969,283096500,4,5726,5885,14.51,3.14,32,70,0,0
645419,283205379,4,5865,5642,14.51,2.99,31,70,0,0
646346,283434714,4,5631,5328,14.56,2.37,31,70,0,0
646756,283534676,4,5322,5185,14.56,2,31,70,0,0
647204,283643820,4,5169,5000,14.59,2.1,32,70,0,0
647643,283755380,4,4999,4985,14.58,2.16,32,70,0,0
648090,283867411,4,4976,4885,14.58,2.12,31,70,0,0
648536,283976175,4,4878,4785,14.58,1.76,32,70,0,0
648986,284090740,4,4786,4800,14.6,1.85,32,70,0,0
649440,284200293,4,4800,4800,14.64,1.78,31,70,0,0
649841,284302816,4,4766,4485,14.54,1.63,31,70,0,0
650287,284409905,4,4512,4814,14.61,2.18,32,70,0,0
651184,284630010,4,4821,4985,14.66,2.52,32,71,0,0
