LineNo,TimeUS,Instance,RPM,RawRPM,Volt,Curr,Temp,CTot,MotTemp,Err
1859,19925949,2,0,0,15.73,0.04,28,0,0,0
2276,20030991,2,0,0,15.73,0.04,28,0,0,0
2728,20141800,2,0,0,15.74,0.04,28,0,0,0
3138,20242251,2,0,0,15.73,0.04,28,0,0,0
3594,20353522,2,0,0,15.73,0.04,28,0,0,0
4041,20461620,2,0,0,15.73,0.04,28,0,0,0
4451,20562679,2,0,0,15.73,0.04,28,0,0,0
4877,20669395,2,0,0,15.74,0.04,28,0,0,0
5331,20783426,2,0,0,15.73,0.04,28,0,0,0
5747,20887199,2,0,0,15.73,0.04,28,0,0,0
6162,20992827,2,0,0,15.73,0.04,28,0,0,0
6573,21093218,2,0,0,15.73,0.04,28,0,0,0
7021,21204490,2,0,0,15.73,0.04,28,0,0,0
7438,21308192,2,0,0,15.73,0.04,28,0,0,0
7856,21414198,2,0,0,15.73,0.04,28,0,0,0
8274,21525234,2,0,0,15.73,0.04,28,0,0,0
8685,21628667,2,0,0,15.73,0.04,28,0,0,0
9099,21730141,2,0,0,15.73,0.04,28,0,0,0
9832,21947961,2,0,0,15.73,0.04,28,0,0,0
10208,22043124,2,0,0,15.73,0.05,28,0,0,0
10658,22154022,2,0,0,15.73,0.05,28,0,0,0
11113,22266751,2,0,0,15.73,0.04,28,0,0,0
11528,22370580,2,0,0,15.74,0.05,28,0,0,0
11942,22473607,2,0,0,15.73,0.05,28,0,0,0
12394,22586497,2,0,0,15.73,0.04,28,0,0,0
12805,22687628,2,0,0,15.74,0.04,28,0,0,0
13260,22801170,2,0,0,15.73,0.04,28,0,0,0
13675,22905924,2,0,0,15.73,0.04,28,0,0,0
14089,23009789,2,0,0,15.74,0.04,28,0,0,0
14542,23121923,2,0,0,15.73,0.04,28,0,0,0
14951,23223034,2,0,0,15.73,0.04,28,0,0,0
15402,23336062,2,0,0,15.74,0.04,28,0,0,0
15822,23443447,2,0,0,15.73,0.04,28,0,0,0
16234,23545027,2,0,0,15.73,0.04,28,0,0,0
16655,23658359,2,0,0,15.73,0.04,28,0,0,0
17101,23770617,2,0,0,15.73,0.04,28,0,0,0
17518,23871535,2,0,0,15.74,0.04,28,0,0,0
17904,23973397,2,0,0,15.74,0.04,28,0,0,0
18352,24082209,2,0,0,15.73,0.04,28,0,0,0
18764,24187960,2,0,0,15.73,0.04,28,0,0,0
19179,24293052,2,0,0,15.73,0.04,28,0,0,0
19630,24404629,2,0,0,15.73,0.04,28,0,0,0
20045,24508794,2,0,0,15.73,0.04,28,0,0,0
20461,24615734,2,0,0,15.73,0.04,28,0,0,0
20877,24716977,2,0,0,15.73,0.04,28,0,0,0
21335,24830035,2,0,0,15.73,0.04,28,0,0,0
21751,24932744,2,0,0,15.73,0.04,28,0,0,0
22210,25044939,2,0,0,15.73,0.04,28,0,0,0
22663,25159573,2,0,0,15.73,0.04,28,0,0,0
23073,25258746,2,0,0,15.73,0.04,28,0,0,0
23528,25372051,2,0,0,15.73,0.04,28,0,0,0
23950,25476052,2,0,0,15.73,0.04,28,0,0,0
24363,25575794,2,0,0,15.73,0.04,28,0,0,0
24819,25686505,2,0,0,15.73,0.04,28,0,0,0
25274,25802656,2,0,0,15.74,0.04,28,0,0,0
25687,25903585,2,0,0,15.73,0.04,28,0,0,0
26102,26010535,2,0,0,15.74,0.04,28,0,0,0
26511,26115933,2,0,0,15.73,0.04,28,0,0,0
26960,26226783,2,0,0,15.73,0.04,28,0,0,0
27378,26331897,2,0,0,15.73,0.04,28,0,0,0
27797,26438608,2,0,0,15.73,0.04,28,0,0,0
28204,26539586,2,0,0,15.73,0.04,28,0,0,0
28657,26651714,2,0,0,15.73,0.04,28,0,0,0
29070,26753552,2,0,0,15.73,0.04,28,0,0,0
29488,26856145,2,0,0,15.73,0.04,28,0,0,0
29939,26968809,2,0,0,15.74,0.04,28,0,0,0
30349,27069994,2,0,0,15.73,0.04,28,0,0,0
30803,27184193,2,0,0,15.73,0.04,28,0,0,0
31217,27286170,2,0,0,15.73,0.04,28,0,0,0
31626,27389817,2,0,0,15.73,0.04,28,0,0,0
32080,27502684,2,0,0,15.73,0.04,28,0,0,0
32527,27613995,2,0,0,15.73,0.04,28,0,0,0
32944,27720938,2,0,0,15.73,0.04,28,0,0,0
33356,27821634,2,0,0,15.74,0.04,28,0,0,0
33772,27928392,2,0,0,15.73,0.04,28,0,0,0
34188,28038084,2,0,0,15.73,0.04,28,0,0,0
34601,28141245,2,0,0,15.73,0.04,28,0,0,0
35055,28252995,2,0,0,15.73,0.04,28,0,0,0
35462,28354783,2,0,0,15.73,0.04,28,0,0,0
35920,28469343,2,0,0,15.73,0.04,28,0,0,0
36332,28573718,2,0,0,15.73,0.04,28,0,0,0
36744,28676127,2,0,0,15.74,0.04,28,0,0,0
37201,28790054,2,0,0,15.73,0.04,28,0,0,0
37613,28892129,2,0,0,15.73,0.04,28,0,0,0
38024,28996426,2,0,0,15.73,0.04,28,0,0,0
38477,29108932,2,0,0,15.73,0.04,28,0,0,0
38886,29210568,2,0,0,15.73,0.04,28,0,0,0
39340,29323413,2,0,0,15.73,0.04,28,0,0,0
39753,29427009,2,0,0,15.73,0.04,28,0,0,0
40166,29531221,2,0,0,15.73,0.04,28,0,0,0
40612,29640010,2,0,0,15.73,0.04,28,0,0,0
41030,29744422,2,0,0,15.73,0.04,28,0,0,0
41478,29857977,2,0,0,15.73,0.04,28,0,0,0
41889,29958811,2,0,0,15.74,0.04,28,0,0,0
42347,30071707,2,0,0,15.73,0.04,28,0,0,0
42758,30173827,2,0,0,15.73,0.04,28,0,0,0
43172,30274800,2,0,0,15.73,0.04,28,0,0,0
43630,30390337,2,0,0,15.73,0.04,28,0,0,0
44049,30493335,2,0,0,15.73,0.04,28,0,0,0
44464,30598505,2,0,0,15.73,0.04,28,0,0,0
44916,30710909,2,0,0,15.73,0.04,28,0,0,0
45332,30816802,2,0,0,15.73,0.04,28,0,0,0
45741,30917735,2,0,0,15.74,0.04,28,0,0,0
46150,31020858,2,0,0,15.73,0.04,28,0,0,0
46603,31136656,2,0,0,15.73,0.04,28,0,0,0
47018,31240135,2,0,0,15.73,0.04,28,0,0,0
47475,31351675,2,0,0,15.73,0.04,28,0,0,0
47893,31455901,2,0,0,15.73,0.04,28,0,0,0
48313,31563582,2,0,0,15.73,0.04,28,0,0,0
48725,31664670,2,0,0,15.73,0.04,28,0,0,0
49181,31778630,2,0,0,15.73,0.04,28,0,0,0
49595,31880834,2,0,0,15.73,0.04,28,0,0,0
50019,31991608,2,0,0,15.73,0.04,28,0,0,0
50431,32094498,2,0,0,15.73,0.04,28,0,0,0
50884,32206665,2,0,0,15.73,0.04,28,0,0,0
51300,32311413,2,0,0,15.73,0.04,28,0,0,0
52122,32516732,2,0,0,15.73,0.04,28,0,0,0
52578,32630552,2,0,0,15.73,0.04,28,0,0,0
52993,32732047,2,0,0,15.73,0.04,28,0,0,0
53409,32835528,2,0,0,15.73,0.04,28,0,0,0
53856,32945005,2,0,0,15.73,0.04,28,0,0,0
54311,33059490,2,0,0,15.73,0.04,28,0,0,0
54719,33161552,2,0,0,15.73,0.04,28,0,0,0
55137,33264801,2,0,0,15.73,0.04,28,0,0,0
55591,33377069,2,0,0,15.73,0.04,28,0,0,0
55977,33477660,2,0,0,15.73,0.05,28,0,0,0
56454,33592294,2,0,0,15.73,0.05,28,0,0,0
56833,33690821,2,0,0,15.73,0.05,28,0,0,0
57292,33806912,2,0,0,15.73,0.05,28,0,0,0
57704,33909922,2,0,0,15.73,0.05,28,0,0,0
58119,34013420,2,0,0,15.74,0.04,28,0,0,0
58572,34128234,2,0,0,15.73,0.04,28,0,0,0
58987,34231895,2,0,0,15.73,0.04,28,0,0,0
59403,34334383,2,0,0,15.73,0.04,28,0,0,0
59853,34449245,2,0,0,15.73,0.04,28,0,0,0
60264,34551402,2,0,0,15.73,0.04,28,0,0,0
115870,107823494,2,0,0,15.73,0.04,28,0,0,0
116269,107918523,2,0,0,15.73,0.04,28,0,0,0
116728,108023041,2,0,0,15.73,0.04,28,0,0,0
117226,108137715,2,0,0,15.73,0.04,28,0,0,0
117679,108245770,2,0,0,15.74,0.04,28,0,0,0
118132,108347555,2,0,0,15.73,0.04,28,0,0,0
118625,108464292,2,0,0,15.73,0.04,28,0,0,0
119083,108568830,2,0,0,15.73,0.04,28,0,0,0
119539,108677258,2,0,0,15.73,0.04,28,0,0,0
119996,108781943,2,0,0,15.73,0.04,28,0,0,0
120412,108889769,2,0,0,15.73,0.04,28,0,0,0
120868,108992948,2,0,0,15.73,0.04,28,0,0,0
121364,109106456,2,0,0,15.73,0.04,28,0,0,0
121818,109206645,2,0,0,15.74,0.04,28,0,0,0
122269,109314573,2,0,0,15.73,0.04,28,0,0,0
122766,109426448,2,0,0,15.73,0.04,28,0,0,0
123214,109528235,2,0,0,15.73,0.04,28,0,0,0
123672,109632527,2,0,0,15.73,0.04,28,0,0,0
124202,109750402,2,0,0,15.74,0.04,28,0,0,0
124652,109853174,2,0,0,15.73,0.03,28,0,0,0
125109,109957015,2,7,185,15.72,0.05,28,0,0,0
125608,110070067,2,209,542,15.7,0.09999999,28,0,0,0
126068,110173189,2,573,1000,15.69,0.17,28,0,0,0
126521,110278996,2,1004,1200,15.71,0.12,28,0,0,0
126981,110385998,2,1201,1228,15.72,0.11,28,0,0,0
127438,110493003,2,1228,1242,15.71,0.11,28,0,0,0
127891,110595188,2,1242,1271,15.71,0.11,28,0,0,0
128263,110708346,2,1271,1271,15.72,0.11,28,0,0,0
128760,110820166,2,1272,1285,15.72,0.11,28,0,0,0
129171,110918626,2,1284,1257,15.72,0.11,28,0,0,0
129671,111031543,2,1257,1271,15.72,0.11,28,0,0,0
130127,111139675,2,1271,1285,15.72,0.11,28,0,0,0
130616,111249451,2,1285,1285,15.72,0.11,28,0,0,0
131035,111353000,2,1284,1271,15.72,0.11,28,0,0,0
131571,111476162,2,1272,1285,15.71,0.11,28,0,0,0
131980,111568142,2,1284,1271,15.72,0.11,28,0,0,0
132471,111678762,2,1271,1271,15.72,0.11,28,0,0,0
132968,111790497,2,1271,1271,15.72,0.11,28,0,0,0
133419,111900216,2,1271,1271,15.72,0.11,28,0,0,0
133874,112001142,2,1271,1271,15.72,0.11,28,0,0,0
134336,112113831,2,1272,1285,15.71,0.11,28,0,0,0
134791,112214810,2,1284,1271,15.71,0.11,28,0,0,0
135697,112424916,2,1271,1271,15.72,0.11,28,0,0,0
136151,112529977,2,1271,1271,15.72,0.11,28,0,0,0
136655,112641177,2,1270,1257,15.7,0.11,28,0,0,0
137105,112746248,2,1257,1285,15.71,0.11,28,0,0,0
137559,112855606,2,1285,1285,15.71,0.11,28,0,0,0
138013,112956182,2,1284,1271,15.71,0.11,28,0,0,0
138508,113068231,2,1271,1271,15.71,0.11,28,0,0,0
138959,113173136,2,1257,985,15.73,0.05,28,0,0,0
139409,113286996,2,936,314,15.73,0.01,28,0,0,0
139822,113387538,2,300,0,15.73,0.02,28,0,0,0
140239,113496020,2,0,0,15.73,0.04,28,0,0,0
140693,113608678,2,0,0,15.73,0.04,28,0,0,0
141139,113719016,2,0,0,15.73,0.04,28,0,0,0
141552,113819966,2,0,0,15.73,0.04,28,0,0,0
141968,113927044,2,0,0,15.73,0.04,28,0,0,0
142387,114030015,2,0,0,15.73,0.04,28,0,0,0
142840,114145176,2,0,0,15.73,0.04,28,0,0,0
143254,114245921,2,0,0,15.73,0.04,28,0,0,0
143665,114350546,2,0,0,15.72,0.04,28,0,0,0
144531,114569752,2,0,0,15.73,0.04,28,0,0,0
144954,114680198,2,0,0,15.72,0.04,28,0,0,0
145370,114782818,2,0,0,15.73,0.04,28,0,0,0
145786,114891600,2,0,0,15.73,0.04,28,0,0,0
146205,114996711,2,0,0,15.73,0.04,28,0,0,0
146655,115108761,2,0,0,15.73,0.04,28,0,0,0
147068,115211728,2,0,0,15.73,0.04,28,0,0,0
147487,115320063,2,0,0,15.73,0.04,28,0,0,0
147903,115424923,2,0,0,15.73,0.04,28,0,0,0
148354,115539054,2,0,0,15.73,0.04,28,0,0,0
148767,115640173,2,0,0,15.73,0.04,28,0,0,0
149182,115747859,2,0,0,15.72,0.04,28,0,0,0
149635,115864055,2,0,0,15.73,0.04,28,0,0,0
150053,115968567,2,0,0,15.73,0.04,28,0,0,0
150468,116076152,2,0,0,15.72,0.04,28,0,0,0
150881,116179828,2,0,0,15.73,0.04,28,0,0,0
151331,116294038,2,0,0,15.73,0.04,28,0,0,0
151746,116397950,2,0,0,15.73,0.04,28,0,0,0
152157,116501909,2,0,0,15.73,0.04,28,0,0,0
152611,116615778,2,0,0,15.72,0.04,28,0,0,0
153023,116720206,2,0,0,15.73,0.04,28,0,0,0
153476,116831895,2,0,0,15.73,0.04,28,0,0,0
153896,116940363,2,0,0,15.73,0.04,28,0,0,0
154315,117043650,2,0,0,15.72,0.04,28,0,0,0
154728,117149762,2,0,0,15.73,0.04,28,0,0,0
155140,117254523,2,0,0,15.73,0.04,28,0,0,0
155595,117369412,2,0,0,15.73,0.04,28,0,0,0
156006,117471055,2,0,0,15.73,0.04,28,0,0,0
156460,117582993,2,0,0,15.73,0.04,28,0,0,0
156877,117689511,2,0,0,15.73,0.04,28,0,0,0
157293,117793802,2,0,0,15.73,0.04,28,0,0,0
157709,117900991,2,0,0,15.72,0.04,28,0,0,0
158126,118005762,2,0,0,15.73,0.04,28,0,0,0
158543,118114392,2,0,0,15.73,0.04,28,0,0,0
158996,118226539,2,0,0,15.73,0.04,28,0,0,0
159404,118329820,2,0,0,15.73,0.04,28,0,0,0
159819,118433763,2,0,0,15.72,0.04,28,0,0,0
160233,118539382,2,0,0,15.73,0.04,28,0,0,0
160684,118653635,2,0,0,15.73,0.04,28,0,0,0
161138,118765192,2,0,0,15.73,0.04,28,0,0,0
161508,118861186,2,0,0,15.73,0.04,28,0,0,0
161965,118972110,2,0,0,15.73,0.04,28,0,0,0
162413,119084039,2,0,0,15.73,0.04,28,0,0,0
162828,119186659,2,0,0,15.73,0.04,28,0,0,0
163232,119289811,2,0,0,15.73,0.04,28,0,0,0
163691,119403598,2,0,0,15.73,0.04,28,0,0,0
164106,119511592,2,0,0,15.73,0.04,28,0,0,0
164520,119613758,2,0,0,15.73,0.04,28,0,0,0
164974,119728406,2,0,0,15.73,0.04,28,0,0,0
165399,119838152,2,0,0,15.73,0.05,28,0,0,0
165775,119934939,2,0,0,15.73,0.05,28,0,0,0
166191,120039964,2,0,0,15.73,0.04,28,0,0,0
166647,120157193,2,0,0,15.73,0.04,28,0,0,0
167025,120253002,2,0,0,15.73,0.04,28,0,0,0
167480,120368545,2,0,0,15.73,0.04,28,0,0,0
167868,120473633,2,0,0,15.73,0.04,28,0,0,0
168283,120575923,2,0,0,15.73,0.04,28,0,0,0
168729,120685550,2,0,0,15.73,0.05,28,0,0,0
169184,120796054,2,0,0,15.73,0.04,28,0,0,0
169596,120901278,2,0,0,15.73,0.04,28,0,0,0
170052,121013062,2,0,0,15.73,0.04,28,0,0,0
170460,121115858,2,0,0,15.73,0.04,28,0,0,0
170878,121221033,2,0,0,15.73,0.04,28,0,0,0
171333,121336924,2,0,0,15.73,0.04,28,0,0,0
171747,121438421,2,0,0,15.73,0.04,28,0,0,0
172198,121551008,2,0,0,15.73,0.04,28,0,0,0
172617,121657630,2,0,0,15.73,0.04,28,0,0,0
173027,121759688,2,0,0,15.73,0.05,28,0,0,0
173437,121865195,2,0,0,15.73,0.05,28,0,0,0
173894,121976645,2,0,0,15.73,0.04,28,0,0,0
174309,122083537,2,0,0,15.73,0.04,28,0,0,0
174723,122183931,2,0,0,15.73,0.04,28,0,0,0
175138,122290720,2,0,0,15.73,0.05,28,0,0,0
175550,122392603,2,0,0,15.73,0.04,28,0,0,0
176003,122506107,2,0,0,15.73,0.05,28,0,0,0
176460,122621791,2,0,0,15.73,0.05,28,0,0,0
176866,122720159,2,0,0,15.73,0.04,28,0,0,0
177326,122835572,2,0,0,15.73,0.04,28,0,0,0
177702,122932783,2,0,0,15.73,0.05,28,0,0,0
178186,123049761,2,0,0,15.73,0.04,28,0,0,0
178603,123153213,2,0,0,15.73,0.05,28,0,0,0
179015,123257928,2,0,0,15.73,0.05,28,0,0,0
179430,123362141,2,0,0,15.73,0.05,28,0,0,0
179847,123467280,2,0,0,15.74,0.04,28,0,0,0
180300,123580529,2,0,0,15.73,0.05,28,0,0,0
180716,123685181,2,0,0,15.73,0.04,28,0,0,0
181169,123795925,2,0,0,15.73,0.04,28,0,0,0
181584,123903024,2,0,0,15.73,0.04,28,0,0,0
181999,124005381,2,0,0,15.73,0.04,28,0,0,0
182446,124113454,2,0,0,15.73,0.04,28,0,0,0
182900,124225519,2,0,0,15.73,0.04,28,0,0,0
183315,124334714,2,0,0,15.72,0.04,28,0,0,0
183730,124437513,2,0,0,15.73,0.04,28,0,0,0
184141,124541524,2,0,0,15.73,0.04,28,0,0,0
184589,124653355,2,0,0,15.73,0.04,28,0,0,0
185044,124766491,2,0,0,15.73,0.04,28,0,0,0
185456,124871247,2,0,0,15.73,0.04,28,0,0,0
185873,124973826,2,0,0,15.73,0.04,28,0,0,0
186285,125077950,2,0,0,15.73,0.04,28,0,0,0
186738,125189180,2,0,0,15.73,0.04,28,0,0,0
187150,125296172,2,0,0,15.72,0.04,28,0,0,0
187570,125400204,2,0,0,15.73,0.04,28,0,0,0
188026,125516651,2,0,0,15.73,0.05,28,0,0,0
188442,125619865,2,0,0,15.73,0.05,28,0,0,0
188857,125726655,2,0,0,15.73,0.04,28,0,0,0
189270,125830041,2,0,0,15.73,0.04,28,0,0,0
189731,125943345,2,0,0,15.73,0.04,28,0,0,0
190143,126045581,2,0,0,15.73,0.04,28,0,0,0
190559,126153042,2,0,0,15.73,0.04,28,0,0,0
190977,126261213,2,0,0,15.73,0.04,28,0,0,0
191430,126373636,2,0,0,15.73,0.04,28,0,0,0
192293,126588123,2,0,0,15.73,0.04,28,0,0,0
192706,126692657,2,0,0,15.73,0.04,28,0,0,0
193118,126794976,2,0,0,15.73,0.04,28,0,0,0
193473,126908785,2,0,0,15.73,0.04,28,0,0,0
193929,127021209,2,0,0,15.72,0.04,28,0,0,0
194344,127125705,2,0,0,15.73,0.04,28,0,0,0
194800,127237342,2,0,0,15.73,0.04,28,0,0,0
195173,127335896,2,0,0,15.73,0.04,28,0,0,0
195629,127451936,2,0,0,15.73,0.04,28,0,0,0
196044,127553564,2,0,0,15.73,0.04,28,0,0,0
196455,127659235,2,0,0,15.73,0.04,28,0,0,0
196908,127772609,2,0,0,15.73,0.04,28,0,0,0
197319,127874245,2,0,0,15.73,0.04,28,0,0,0
197778,127987148,2,0,0,15.73,0.04,28,0,0,0
198191,128092580,2,0,0,15.73,0.04,28,0,0,0
198412,173878966,2,0,0,15.73,0.04,28,1,0,0
198457,173888902,2,0,0,15.72,0.04,28,1,0,0
198909,173999905,2,0,0,15.72,0.05,28,1,0,0
199335,174100646,2,0,0,15.73,0.05,28,1,0,0
199832,174211216,2,0,0,15.73,0.05,28,1,0,0
200285,174316007,2,0,0,15.73,0.05,28,1,0,0
200786,174430386,2,0,0,15.73,0.05,28,1,0,0
201239,174535923,2,0,0,15.73,0.05,28,1,0,0
202189,174752919,2,0,0,15.72,0.05,28,1,0,0
202646,174860758,2,0,0,15.73,0.04,28,1,0,0
203062,174959577,2,0,0,15.72,0.04,28,1,0,0
203518,175067711,2,0,0,15.73,0.04,28,1,0,0
203971,175169779,2,0,0,15.72,0.04,28,1,0,0
204426,175278174,2,0,0,15.72,0.04,28,1,0,0
204925,175389794,2,0,0,15.72,0.04,28,1,0,0
205376,175494793,2,0,0,15.73,0.04,28,1,0,0
205829,175596002,2,0,0,15.72,0.04,29,1,0,0
206283,175703028,2,0,0,15.72,0.04,28,1,0,0
206791,175816666,2,0,0,15.73,0.05,28,1,0,0
207199,175912497,2,0,0,15.73,0.04,28,1,0,0
207698,176023603,2,7,200,15.71,0.05,29,1,0,0
208151,176126510,2,215,571,15.7,0.09999999,28,1,0,0
208648,176237834,2,597,1000,15.69,0.17,28,1,0,0
209098,176342611,2,1012,1200,15.7,0.12,29,1,0,0
209548,176443828,2,1200,1242,15.71,0.11,28,1,0,0
209894,176557695,2,1244,1271,15.71,0.11,28,1,0,0
210349,176666507,2,1272,1285,15.71,0.11,28,1,0,0
210805,176766638,2,1285,1300,15.71,0.11,28,1,0,0
211261,176875565,2,1300,1300,15.71,0.11,29,1,0,0
211761,176987411,2,1300,1300,15.71,0.11,29,1,0,0
212248,177094800,2,1300,1300,15.72,0.11,28,1,0,0
212702,177196258,2,1300,1300,15.72,0.11,29,1,0,0
213161,177304181,2,1301,1314,15.7,0.11,29,1,0,0
213616,177409342,2,1313,1300,15.7,0.11,29,1,0,0
214073,177515991,2,1300,1300,15.71,0.11,29,1,0,0
214571,177626625,2,1300,1300,15.71,0.11,29,1,0,0
215028,177733120,2,1298,1285,15.71,0.11,29,1,0,0
215486,177834132,2,1285,1285,15.71,0.11,29,1,0,0
215939,177942764,2,1285,1285,15.7,0.11,28,1,0,0
216438,178053754,2,1285,1285,15.7,0.11,29,1,0,0
216892,178155936,2,1285,1285,15.7,0.11,29,1,0,0
217349,178263935,2,1285,1285,15.7,0.11,29,1,0,0
217847,178375955,2,1285,1285,15.71,0.11,29,1,0,0
218298,178478361,2,1285,1285,15.7,0.11,29,1,0,0
218751,178583551,2,1285,1285,15.7,0.11,29,1,0,0
219246,178699971,2,1285,1285,15.7,0.11,29,1,0,0
219700,178803127,2,1285,1285,15.71,0.11,29,1,0,0
220191,178915055,2,1285,1285,15.7,0.11,29,1,0,0
220649,179019041,2,1285,1285,15.7,0.11,29,1,0,0
221100,179127797,2,1285,1285,15.7,0.11,29,1,0,0
221553,179228816,2,1285,1285,15.7,0.11,29,1,0,0
222046,179340711,2,1286,1300,15.71,0.11,29,1,0,0
222499,179445146,2,1300,1300,15.7,0.11,29,1,0,0
222953,179556538,2,1298,1285,15.7,0.11,29,1,0,0
223402,179659799,2,1285,1300,15.7,0.11,29,1,0,0
223903,179774385,2,1300,1300,15.7,0.11,29,1,0,0
224317,179874713,2,1299,1285,15.7,0.11,29,1,0,0
224816,179985925,2,1286,1300,15.7,0.11,29,1,0,0
225266,180089906,2,1299,1285,15.71,0.11,29,1,0,0
225767,180203125,2,1286,1300,15.7,0.11,29,1,0,0
226214,180308113,2,1300,1300,15.7,0.11,29,1,0,0
226673,180411747,2,1300,1300,15.7,0.11,29,1,0,0
227133,180522001,2,1300,1300,15.7,0.11,29,1,0,0
227590,180626975,2,1300,1300,15.7,0.11,29,1,0,0
228052,180739535,2,1300,1300,15.7,0.11,29,1,0,0
228508,180842657,2,1300,1300,15.7,0.11,29,1,0,0
228961,180947630,2,1300,1300,15.7,0.11,29,1,0,0
229456,181062578,2,1300,1300,15.7,0.11,29,1,0,0
229913,181171449,2,1300,1300,15.71,0.11,29,1,0,0
230368,181282958,2,1300,1300,15.7,0.11,29,1,0,0
230821,181387099,2,1300,1300,15.7,0.11,29,1,0,0
231772,181606731,2,1299,1285,15.7,0.11,29,1,0,0
232224,181716449,2,1285,1285,15.7,0.11,29,1,0,0
232645,181817974,2,1285,1285,15.7,0.11,29,1,0,0
233139,181930607,2,1285,1285,15.7,0.11,29,1,0,0
233596,182033616,2,1285,1285,15.7,0.11,29,1,0,0
234050,182142528,2,1285,1285,15.71,0.11,29,1,0,0
234504,182243703,2,1285,1285,15.7,0.11,29,1,0,0
234958,182351945,2,1285,1285,15.7,0.11,29,1,0,0
235452,182466619,2,1285,1285,15.7,0.11,29,1,0,0
235905,182570045,2,1286,1300,15.7,0.11,29,1,0,0
236351,182672981,2,1299,1285,15.7,0.11,29,1,0,0
236853,182786976,2,1285,1285,15.7,0.11,29,1,0,0
237802,183004377,2,1285,1300,15.7,0.11,29,1,0,0
238252,183112658,2,1300,1300,15.7,0.11,29,1,0,0
238751,183224790,2,1301,1314,15.7,0.11,29,1,0,0
239162,183324836,2,1313,1300,15.7,0.11,29,1,0,0
239695,183443964,2,1301,1314,15.71,0.11,29,1,0,0
240113,183546809,2,1314,1314,15.7,0.11,29,1,0,0
240604,183657513,2,1312,1300,15.7,0.11,29,1,0,0
241057,183759922,2,1300,1300,15.7,0.11,29,1,0,0
241513,183866762,2,1285,871,15.73,0.03,29,1,0,0
242017,183985551,2,818,257,15.72,0.02,29,1,0,0
242423,184083928,2,252,0,15.72,0.04,29,1,0,0
242920,184200180,2,0,0,15.72,0.04,29,1,0,0
243822,184416200,2,0,0,15.72,0.04,29,1,0,0
244276,184524639,2,0,0,15.72,0.04,29,1,0,0
244736,184634508,2,0,0,15.72,0.05,29,1,0,0
245186,184742719,2,0,0,15.72,0.04,29,1,0,0
245680,184859763,2,0,0,15.72,0.04,29,1,0,0
246135,184964401,2,0,0,15.72,0.04,28,1,0,0
246585,185071945,2,0,0,15.72,0.04,29,1,0,0
247083,185186728,2,0,0,15.72,0.05,29,1,0,0
247497,185288513,2,0,0,15.72,0.05,29,1,0,0
247997,185402708,2,0,0,15.72,0.04,29,1,0,0
248409,185506731,2,0,0,15.72,0.04,29,1,0,0
248911,185622573,2,0,0,15.73,0.04,29,1,0,0
249320,185723591,2,0,0,15.73,0.05,29,1,0,0
250235,185940542,2,0,0,15.72,0.05,29,1,0,0
250763,186058486,2,0,0,15.72,0.05,29,1,0,0
251179,186159986,2,0,0,15.72,0.05,29,1,0,0
251635,186269898,2,0,0,15.73,0.05,29,1,0,0
252087,186376447,2,0,0,15.72,0.04,29,1,0,0
253032,186595737,2,0,0,15.72,0.04,29,1,0,0
253482,186702695,2,0,0,15.72,0.04,29,1,0,0
253939,186810557,2,0,0,15.72,0.04,29,1,0,0
254396,186923162,2,0,0,15.72,0.04,29,1,0,0
254850,187027517,2,0,0,15.72,0.04,29,1,0,0
255310,187139249,2,0,0,15.73,0.04,29,1,0,0
255805,187254545,2,0,0,15.72,0.04,29,1,0,0
256260,187360820,2,0,0,15.72,0.04,29,1,0,0
256711,187464543,2,0,0,15.72,0.04,29,1,0,0
257211,187579498,2,0,0,15.72,0.04,29,1,0,0
257662,187686970,2,0,0,15.72,0.04,29,1,0,0
258114,187787823,2,0,0,15.72,0.04,29,1,0,0
258577,187902646,2,0,0,15.73,0.04,29,1,0,0
259031,188004178,2,0,0,15.72,0.04,29,1,0,0
259489,188116012,2,0,0,15.72,0.04,29,1,0,0
259947,188220638,2,0,0,15.72,0.04,29,1,0,0
260398,188326917,2,0,0,15.72,0.04,29,1,0,0
260905,188442689,2,0,0,15.72,0.04,29,1,0,0
261351,188546648,2,0,0,15.72,0.04,29,1,0,0
261845,188661187,2,0,0,15.73,0.04,29,1,0,0
262301,188766610,2,0,0,15.72,0.04,29,1,0,0
262758,188874370,2,0,0,15.72,0.04,29,1,0,0
263212,188977827,2,0,0,15.73,0.04,29,1,0,0
263663,189084551,2,0,0,15.73,0.04,29,1,0,0
265079,189413030,2,18,885,15.69,0.14,29,1,0,0
265565,189523383,2,909,1157,15.7,0.14,29,1,0,0
266027,189633637,2,1163,1228,15.7,0.11,29,1,0,0
266437,189731000,2,1228,1271,15.7,0.11,29,1,0,0
267378,189944642,2,1271,1300,15.71,0.11,29,1,0,0
267874,190057705,2,1300,1300,15.7,0.11,29,1,0,0
268324,190161514,2,1300,1300,15.7,0.11,29,1,0,0
268821,190277908,2,1300,1300,15.7,0.11,29,1,0,0
269057,190378826,2,1300,1300,15.7,0.11,29,1,0,0
269511,190489713,2,1300,1300,15.7,0.11,29,1,0,0
270459,190706968,2,1300,1300,15.71,0.11,29,1,0,0
270913,190808960,2,1300,1300,15.7,0.11,29,1,0,0
271410,190926825,2,1301,1314,15.7,0.11,29,1,0,0
271864,191029424,2,1313,1300,15.7,0.11,29,1,0,0
272315,191137282,2,1300,1314,15.7,0.11,29,1,0,0
272815,191250385,2,1314,1314,15.7,0.11,29,1,0,0
273266,191352963,2,1313,1300,15.7,0.11,29,1,0,0
273721,191460582,2,1300,1300,15.7,0.11,29,1,0,0
274222,191575110,2,1298,1285,15.7,0.11,29,1,0,0
274679,191686962,2,1285,1285,15.7,0.11,29,1,0,0
275132,191789205,2,1285,1285,15.7,0.11,29,1,0,0
275586,191897349,2,1291,1428,15.69,0.19,29,1,0,0
276042,192000943,2,1441,1800,15.63,0.53,29,1,0,0
276495,192109921,2,1824,2171,15.66,0.42,29,1,0,0
277442,192331928,2,2196,2900,15.51,1.23,29,1,0,0
277897,192437936,2,2945,3571,15.4,1.5,29,1,0,0
278307,192539183,2,3578,4042,15.17,2.31,29,1,0,0
278840,192663598,2,4105,4800,15.1,2.98,29,1,0,0
279290,192769031,2,4840,5228,15.05,3.52,29,1,0,0
279705,192871002,2,5240,5785,14.92,4.02,29,2,0,0
280204,192988106,2,5814,6114,15.01,4.07,29,2,0,0
280614,193091759,2,6109,6057,15.13,3.48,29,2,0,0
281113,193206284,2,6040,5871,15.11,3.29,29,2,0,0
281567,193313708,2,5854,5671,15.09,3.39,29,2,0,0
282022,193417768,2,5669,5642,15.19,3.2,29,2,0,0
282473,193527626,2,5643,5757,15.17,2.97,29,2,0,0
282970,193643005,2,5754,5728,15.11,3.36,29,2,0,0
283419,193751948,2,5733,5785,15.14,3.51,29,2,0,0
283867,193859998,2,5788,5828,15.16,3.57,29,2,0,0
284325,193970537,2,5840,5971,15.04,3.61,29,3,0,0
284735,194072569,2,5969,5928,15.02,3.55,29,3,0,0
285231,194187514,2,5919,5828,15.01,3.62,29,3,0,0
285681,194296648,2,5844,6000,15.08,3.73,29,3,0,0
286138,194404163,2,6002,6185,15.02,3.79,29,3,0,0
287043,194623840,2,6183,6014,15.01,3.65,29,3,0,0
287492,194733936,2,6014,6014,15.02,3.74,29,3,0,0
287951,194848785,2,6019,6057,14.97,3.64,29,3,0,0
288403,194955914,2,6044,5928,15,3.62,29,4,0,0
288810,195055064,2,5928,5971,14.97,3.85,29,4,0,0
289309,195174646,2,5966,5914,15.03,3.81,29,4,0,0
289721,195275517,2,5922,6000,14.99,3.89,29,4,0,0
290178,195382805,2,6002,6057,14.99,3.89,29,4,0,0
290667,195499489,2,6062,6114,15.02,3.79,29,4,0,0
291568,195714176,2,6104,5914,15.04,3.54,29,4,0,0
292023,195821564,2,5916,5957,15.07,3.52,30,5,0,0
292477,195935149,2,5937,5742,15.02,3.42,29,5,0,0
292929,196041746,2,5740,5714,15.05,3.25,29,5,0,0
293416,196156350,2,5720,5785,15.01,3.45,29,5,0,0
293863,196261603,2,5786,5800,15,3.37,30,5,0,0
294323,196370629,2,5805,5871,15.01,3.35,30,5,0,0
295221,196585560,2,5872,6057,15.02,3.82,30,5,0,0
295670,196695540,2,6054,5942,14.98,3.77,30,5,0,0
296119,196804751,2,5940,5885,15.02,3.6,30,5,0,0
296598,196920366,2,5898,6071,15.01,3.41,30,6,0,0
297045,197027940,2,6066,5985,15.07,3.55,30,6,0,0
297455,197135741,2,5980,5857,15.03,3.28,30,6,0,0
297899,197248647,2,5858,6014,14.98,3.49,30,6,0,0
298349,197355748,2,6010,5971,15.01,3.45,30,6,0,0
298795,197464712,2,5965,5871,15.04,3.53,30,6,0,0
299198,197566464,2,5872,5957,15.01,3.63,30,6,0,0
299640,197676039,2,5958,6042,15.03,3.44,30,6,0,0
300094,197790022,2,6042,6057,15,3.43,30,6,0,0
300539,197901485,2,6044,5928,15.02,3.21,30,7,0,0
300986,198008029,2,5923,5857,15.04,3.15,30,7,0,0
301429,198120394,2,5854,5828,15.02,3.11,30,7,0,0
301879,198230130,2,5826,5814,15,2.96,30,7,0,0
302324,198338687,2,5827,5957,15,3.24,30,7,0,0
302732,198439765,2,5952,5842,14.97,3.06,30,7,0,0
303178,198551520,2,5843,5871,15.01,3.24,30,7,0,0
303620,198661707,2,5871,5914,14.98,3.45,30,7,0,0
304069,198770560,2,5911,5885,14.98,3.32,30,7,0,0
304921,198983186,2,5886,5914,14.96,3.03,30,8,0,0
305365,199093170,2,5915,5957,15.03,3.12,30,8,0,0
305814,199202957,2,5958,5971,15.02,3.11,30,8,0,0
306223,199308514,2,5970,5957,14.92,3.44,30,8,0,0
306668,199415202,2,5951,5871,14.91,3.46,30,8,0,0
307116,199525913,2,5871,5871,14.98,3.52,30,8,0,0
307562,199632567,2,5868,5814,14.91,3.37,30,8,0,0
307969,199737686,2,5814,5828,14.98,3.37,30,8,0,0
308422,199851915,2,5813,5700,14.96,3.37,30,8,0,0
308833,199955688,2,5705,5785,15,3.43,30,8,0,0
309236,200057036,2,5786,5885,14.95,3.4,30,9,0,0
309726,200176463,2,5891,5957,15.01,3.33,30,9,0,0
310171,200285007,2,5948,5857,14.99,3.46,30,9,0,0
311059,200501049,2,5860,5971,14.94,3.65,30,9,0,0
311471,200604111,2,5971,5971,14.86,3.7,30,9,0,0
311914,200713047,2,5970,5942,14.85,3.99,30,9,0,0
312842,200934587,2,5944,6114,14.9,3.9,30,9,0,0
313288,201047634,2,6110,6028,14.85,3.82,30,10,0,0
313738,201157812,2,6038,6142,14.87,3.92,30,10,0,0
314140,201259398,2,6140,6114,14.85,3.91,30,10,0,0
314591,201370536,2,6107,5971,14.87,4.06,30,10,0,0
315037,201485372,2,5996,6257,14.85,4.33,30,10,0,0
315482,201590820,2,6255,6228,14.87,4.15,30,10,0,0
315916,201695756,2,6228,6228,14.91,3.77,30,10,0,0
316412,201812729,2,6222,6100,14.92,3.57,30,10,0,0
316864,201929954,2,6085,5885,14.94,3.48,30,11,0,0
317316,202039820,2,5877,5800,15,3.32,30,11,0,0
317712,202139830,2,5796,5757,15.02,3.03,30,11,0,0
318608,202360622,2,5750,5628,14.92,3.26,30,11,0,0
319049,202467820,2,5636,5742,14.91,3.25,30,11,0,0
319501,202578165,2,5738,5700,14.94,3.26,30,11,0,0
319905,202681825,2,5700,5714,14.91,3.33,30,11,0,0
320318,202785824,2,5714,5742,14.94,3.45,30,11,0,0
320763,202896481,2,5742,5800,14.9,3.48,30,11,0,0
321209,203004041,2,5801,5885,14.94,3.63,30,12,0,0
321691,203118752,2,5889,5942,14.91,4.1,30,12,0,0
322581,203338379,2,5944,6014,14.86,3.75,30,12,0,0
323031,203447570,2,6012,5985,14.9,3.48,30,12,0,0
323479,203561161,2,5977,5900,14.87,3.72,30,12,0,0
323915,203664772,2,5902,6057,14.87,3.86,30,12,0,0
324369,203775980,2,6053,6000,14.9,3.69,30,12,0,0
324815,203884785,2,5999,5971,14.86,3.81,30,12,0,0
325265,203995555,2,5976,6128,14.88,3.98,30,13,0,0
325703,204102805,2,6133,6200,14.92,4.2,30,13,0,0
326149,204209955,2,6197,6171,14.86,3.94,30,13,0,0
326557,204313029,2,6171,6185,14.86,4.19,30,13,0,0
327450,204534143,2,6183,6128,14.86,4.12,30,13,0,0
328339,204751510,2,6126,6085,14.92,4.03,30,13,0,0
328751,204853734,2,6091,6242,14.86,4.03,30,14,0,0
329193,204963940,2,6243,6271,14.93,4.01,30,14,0,0
329600,205069646,2,6269,6228,14.8,4.88,30,14,0,0
330049,205180736,2,6238,6500,14.82,4.59,30,14,0,0
330501,205294156,2,6494,6414,14.82,4.11,30,14,0,0
330880,205517417,2,6185,6357,14.85,3.86,30,14,0,0
331326,205623518,2,6345,6228,14.86,4.08,30,14,0,0
331724,205721952,2,6230,6314,14.87,3.8,30,15,0,0
332224,205844895,2,6331,6514,14.91,4.12,30,15,0,0
332667,205953829,2,6505,6414,14.91,3.68,30,15,0,0
333520,206164413,2,6412,6371,14.91,3.15,30,15,0,0
333931,206270155,2,6367,6128,14.94,2.87,30,15,0,0
334416,206381681,2,6120,6028,14.88,3.07,30,15,0,0
334864,206494192,2,6030,6057,14.92,2.65,30,15,0,0
335305,206606143,2,6017,5714,14.94,2.27,30,15,0,0
335717,206706220,2,5710,5657,14.86,2.46,30,15,0,0
336168,206816521,2,5648,5514,14.94,2.53,30,16,0,0
336570,206919147,2,5516,5571,14.83,2.74,30,16,0,0
337016,207028791,2,5583,5814,14.8,3.03,30,16,0,0
337464,207142693,2,5814,5814,14.83,2.85,30,16,0,0
337913,207249133,2,5805,5600,14.87,3.18,30,16,0,0
338358,207357199,2,5622,5900,14.93,3.12,30,16,0,0
338763,207461969,2,5899,5857,14.92,2.67,30,16,0,0
339216,207572938,2,5864,5942,14.91,2.66,30,16,0,0
339657,207681045,2,5939,5814,14.91,2.92,30,16,0,0
340149,207804793,2,5812,5785,14.88,3.03,30,16,0,0
340559,207910506,2,5792,5857,14.83,3.05,30,16,0,0
341014,208024507,2,5850,5785,14.84,2.91,30,17,0,0
341418,208128080,2,5782,5757,14.89,2.98,30,17,0,0
341866,208237507,2,5793,6100,14.92,3.14,30,17,0,0
342725,208449181,2,6098,6042,14.88,3.16,30,17,0,0
343610,208666788,2,6031,5885,14.83,2.54,30,17,0,0
344020,208764039,2,5885,5885,14.92,3.3,30,17,0,0
344467,208878834,2,5872,5728,14.85,2.93,30,17,0,0
344913,208984385,2,5727,5700,14.87,2.9,30,17,0,0
345355,209091644,2,5718,5942,14.83,3.08,30,17,0,0
345809,209203136,2,5940,5928,14.89,2.61,30,18,0,0
346213,209302635,2,5926,5842,14.86,3.38,30,18,0,0
346701,209419817,2,5844,5885,14.85,3.07,30,18,0,0
347150,209533076,2,5906,6100,14.92,3.7,30,18,0,0
347602,209645370,2,6102,6128,14.8,3.68,30,18,0,0
348007,209746742,2,6114,5985,14.89,3.44,30,18,0,0
348455,209858008,2,6003,6157,14.82,3.83,30,18,0,0
348862,209959180,2,6160,6328,14.82,4.08,30,18,0,0
349313,210069961,2,6324,6071,14.78,4.04,30,18,0,0
349762,210176505,2,6066,5985,14.75,3.2,30,18,0,0
350208,210291139,2,6002,6185,14.84,3.89,30,19,0,0
350656,210398371,2,6176,6085,14.82,3.91,30,19,0,0
351137,210510532,2,6077,6000,14.81,3.42,30,19,0,0
351589,210618713,2,6003,6042,14.8,3.37,30,19,0,0
351998,210726229,2,6037,5985,14.78,3.26,30,19,0,0
352448,210832831,2,5971,5857,14.84,3.03,30,19,0,0
352846,210934149,2,5855,5828,14.8,3.32,30,19,0,0
353291,211045925,2,5812,5642,14.76,3.04,30,19,0,0
353703,211149710,2,5652,5871,14.76,3.51,30,19,0,0
354187,211261931,2,5872,5957,14.82,3.43,30,20,0,0
354633,211370542,2,5959,5985,14.73,3.93,30,20,0,0
355036,211472928,2,5983,5900,14.77,3.88,30,20,0,0
355526,211589741,2,5893,5828,14.76,3.8,30,20,0,0
355932,211692801,2,5837,6057,14.75,3.7,30,20,0,0
356377,211799154,2,6052,5814,14.8,3.56,30,20,0,0
356822,211908954,2,5815,5885,14.78,3.64,30,20,0,0
357304,212017584,2,5885,5885,14.77,3.92,30,20,0,0
357760,212136921,2,5891,5985,14.77,3.94,30,20,0,0
358216,212253211,2,6003,6128,14.75,4.04,30,20,0,0
358622,212353218,2,6125,6071,14.74,3.8,30,21,0,0
359064,212462050,2,6071,6071,14.75,3.77,30,21,0,0
359514,212571657,2,6056,5914,14.82,3.52,30,21,0,0
359952,212674949,2,5918,6100,14.77,3.55,30,21,0,0
360407,212785597,2,6098,6071,14.72,3.74,30,21,0,0
360859,212898357,2,6065,5985,14.71,3.43,30,21,0,0
361307,213008805,2,5985,5985,14.75,3.34,30,21,0,0
362159,213220945,2,5979,5828,14.74,3.03,30,21,0,0
362564,213323791,2,5825,5685,14.77,2.92,30,22,0,0
363059,213443190,2,5692,5771,14.7,3.6,30,22,0,0
363460,213543594,2,5771,5785,14.71,3.62,30,22,0,0
363911,213658701,2,5791,5857,14.74,3.68,30,22,0,0
364360,213765788,2,5855,5828,14.72,3.13,30,22,0,0
364816,213879726,2,5833,5885,14.7,3.43,30,22,0,0
365259,213984539,2,5888,5985,14.73,3.51,30,22,0,0
366152,214203962,2,5979,5700,14.85,3.19,30,22,0,0
366595,214314009,2,5703,5742,14.86,3.07,30,22,0,0
367045,214423792,2,5748,5814,14.73,3.04,30,23,0,0
367487,214532329,2,5807,5671,14.7,3.39,30,23,0,0
367938,214640032,2,5675,5757,14.77,2.69,30,23,0,0
368384,214750506,2,5752,5685,14.8,2.61,30,23,0,0
368838,214866476,2,5679,5628,14.76,2.84,30,23,0,0
369279,214967129,2,5633,5714,14.76,2.76,30,23,0,0
369724,215077644,2,5711,5671,14.79,2.92,30,23,0,0
370173,215183760,2,5667,5628,14.76,2.73,30,23,0,0
370615,215291043,2,5624,5571,14.78,3.08,30,23,0,0
371108,215407723,2,5589,5785,14.72,3.22,30,23,0,0
371518,215512777,2,5785,5785,14.71,3.49,30,23,0,0
371965,215621139,2,5785,5800,14.64,3.41,30,24,0,0
372865,215844011,2,5802,5871,14.79,3.29,30,24,0,0
373312,215954153,2,5867,5828,14.76,3.24,31,24,0,0
373716,216057003,2,5827,5785,14.74,2.82,30,24,0,0
374209,216172565,2,5782,5714,14.73,3.13,30,24,0,0
374680,216286197,2,5714,5714,14.75,3.12,30,24,0,0
375129,216395910,2,5732,5885,14.71,3.59,30,24,0,0
375499,216487681,2,5882,5814,14.68,3.65,30,24,0,0
375952,216599544,2,5826,5985,14.71,3.39,30,24,0,0
376399,216708046,2,5975,5771,14.7,3.41,30,25,0,0
376848,216816927,2,5775,5842,14.7,3.4,31,25,0,0
377327,216932703,2,5845,5885,14.69,3.56,30,25,0,0
377775,217043260,2,5889,5928,14.71,3.75,30,25,0,0
378227,217155126,2,5934,5985,14.69,3.61,30,25,0,0
378634,217253578,2,5985,6000,14.73,3.78,31,25,0,0
379079,217365397,2,5998,5957,14.73,3.85,30,25,0,0
379560,217481498,2,5968,6128,14.73,3.44,31,25,0,0
380012,217592581,2,6129,6142,14.71,3.51,31,25,0,0
380411,217691021,2,6139,5928,14.67,3.61,30,26,0,0
380902,217808416,2,5927,5914,14.72,3.49,31,26,0,0
381350,217922287,2,5914,5914,14.73,3.47,30,26,0,0
381799,218026802,2,5904,5742,14.75,3.23,30,26,0,0
382282,218141514,2,5743,5771,14.73,3.37,31,26,0,0
382692,218245963,2,5780,5857,14.72,3.43,31,26,0,0
383131,218344385,2,5860,5928,14.7,3.44,30,26,0,0
383582,218453830,2,5928,5942,14.75,3.61,30,26,0,0
384024,218566156,2,5926,5742,14.76,2.86,30,26,0,0
384474,218679185,2,5736,5657,14.76,2.97,30,26,0,0
384882,218779388,2,5655,5642,14.71,3.16,30,27,0,0
385778,218999613,2,5653,5885,14.66,3.76,31,27,0,0
386221,219106610,2,5883,5871,14.66,3.81,31,27,0,0
386709,219219899,2,5877,5942,14.7,3.79,30,27,0,0
387113,219322267,2,5952,6100,14.7,3.58,30,27,0,0
387563,219431922,2,6083,5842,14.74,3.31,31,27,0,0
388011,219545214,2,5847,5885,14.71,3.68,31,27,0,0
388415,219640607,2,5875,5671,14.8,3.14,31,27,0,0
388858,219751585,2,5681,5885,14.73,3.36,30,28,0,0
389717,219968657,2,5884,5771,14.8,2.84,30,28,0,0
390201,220086632,2,5767,5728,14.78,2.68,31,28,0,0
390610,220187896,2,5723,5614,14.79,2.59,31,28,0,0
391098,220306466,2,5611,5585,14.78,2.76,31,28,0,0
391506,220404038,2,5586,5671,14.76,2.19,31,28,0,0
391954,220516574,2,5666,5557,14.75,2.57,31,28,0,0
392402,220624234,2,5558,5585,14.81,2.56,31,28,0,0
392843,220731709,2,5585,5585,14.75,2.35,31,28,0,0
393290,220844570,2,5598,5700,14.75,2.35,30,28,0,0
393696,220943177,2,5696,5571,14.77,2.66,30,28,0,0
394150,221061547,2,5571,5571,14.77,2.62,31,28,0,0
394590,221162055,2,5577,5814,14.77,2.69,30,29,0,0
395077,221284044,2,5809,5742,14.76,3.16,30,29,0,0
395485,221382592,2,5742,5757,14.81,2.73,30,29,0,0
395939,221498361,2,5755,5714,14.8,2.8,31,29,0,0
396351,221602914,2,5716,5842,14.75,2.89,31,29,0,0
396832,221716588,2,5849,5942,14.76,2.97,30,29,0,0
397285,221827605,2,5943,5957,14.8,3.06,31,29,0,0
397723,221933982,2,5960,6000,14.76,3.28,31,29,0,0
398132,222036996,2,5993,5857,14.77,3.07,31,29,0,0
398580,222145998,2,5858,5928,14.74,3.37,31,29,0,0
399390,222362535,2,6023,5842,14.69,3.33,31,30,0,0
399894,222576655,2,5893,6014,14.71,3.37,31,30,0,0
400303,222679572,2,6012,5985,14.74,3.4,31,30,0,0
400748,222787029,2,5985,6000,14.71,3.44,31,30,0,0
401640,223004495,2,5998,5942,14.76,3.43,30,30,0,0
402084,223113952,2,5941,5900,14.72,3.35,31,30,0,0
402582,223233383,2,5896,5842,14.79,3.21,30,30,0,0
402985,223334557,2,5843,5900,14.73,3.33,31,31,0,0
403433,223440944,2,5897,5742,14.75,3.29,30,31,0,0
403877,223551381,2,5742,5814,14.75,3.4,30,31,0,0
404328,223664611,2,5827,6100,14.72,3.4,31,31,0,0
404774,223773183,2,6095,5800,14.75,3.48,30,31,0,0
405219,223884119,2,5808,5885,14.76,2.99,31,31,0,0
405666,223990422,2,5883,5857,14.76,3.13,31,31,0,0
406075,224092549,2,5858,5928,14.69,3.11,30,31,0,0
406565,224208182,2,5919,5800,14.76,3.02,31,31,0,0
407006,224315614,2,5828,6114,14.74,3.36,31,31,0,0
407452,224420724,2,6112,6085,14.72,3.49,31,32,0,0
407897,224528569,2,6083,6000,14.75,3.79,31,32,0,0
408349,224638963,2,6011,6257,14.71,4.1,31,32,0,0
408797,224752760,2,6252,6185,14.66,4.03,31,32,0,0
409241,224863420,2,6188,6242,14.66,3.93,31,32,0,0
409694,224975220,2,6239,6214,14.73,3.64,31,32,0,0
410092,225073571,2,6211,6157,14.7,3.53,31,32,0,0
410543,225182607,2,6146,5942,14.72,3.29,31,32,0,0
410995,225296732,2,5946,6071,14.75,3.29,31,32,0,0
411443,225403037,2,6065,5942,14.72,3.36,31,33,0,0
412378,225633305,2,5933,5742,14.71,3.15,31,33,0,0
412793,225743208,2,5754,5885,14.72,3.32,31,33,0,0
413198,225839509,2,5886,5928,14.72,3.33,31,33,0,0
414127,226068351,2,5931,6000,14.6,3.64,31,33,0,0
415019,226286294,2,5996,5914,14.62,3.73,31,33,0,0
415428,226381370,2,5917,6100,14.63,4.07,31,33,0,0
415841,226499617,2,6096,6057,14.63,4.18,30,34,0,0
416294,226608579,2,6063,6128,14.63,4.13,31,34,0,0
416704,226707569,2,6126,6028,14.65,4.2,31,34,0,0
417192,226830682,2,6043,6214,14.63,4.37,31,34,0,0
417600,226936652,2,6208,6157,14.73,3.85,31,34,0,0
418048,227044183,2,6144,6014,14.75,3.22,31,34,0,0
418531,227154567,2,6004,5871,14.8,3.07,31,34,0,0
418979,227267125,2,5872,5885,14.86,2.92,31,34,0,0
419388,227367567,2,5873,5714,14.82,3.03,31,35,0,0
420277,227580565,2,5713,5657,14.75,2.86,31,35,0,0
420766,227700045,2,5678,5900,14.77,3.07,31,35,0,0
421220,227811584,2,5894,5842,14.77,2.57,31,35,0,0
421627,227915354,2,5829,5700,14.68,3.18,31,35,0,0
422074,228022807,2,5720,5928,14.66,3.62,31,35,0,0
422476,228122805,2,5929,6028,14.7,3.43,31,35,0,0
422960,228235009,2,6025,5971,14.8,3.55,31,35,0,0
423405,228348151,2,5971,5971,14.72,3.72,31,35,0,0
423811,228453037,2,5973,6157,14.7,3.99,31,35,0,0
424257,228560683,2,6158,6257,14.72,3.88,31,36,0,0
424702,228672516,2,6253,6028,14.73,3.82,31,36,0,0
425151,228780798,2,6029,6071,14.73,3.69,31,36,0,0
425771,228991567,2,5931,6142,14.73,3.71,31,36,0,0
426217,229100636,2,6137,5885,14.77,3.35,31,36,0,0
426665,229209425,2,5884,5871,14.7,3.49,31,36,0,0
427150,229327950,2,5869,5857,14.76,3.08,31,36,0,0
427557,229428771,2,5855,5785,14.75,3.26,31,36,0,0
428000,229535652,2,5786,5828,14.76,3.12,31,37,0,0
428454,229648037,2,5829,5914,14.76,2.89,31,37,0,0
428903,229761494,2,5915,5942,14.75,3.21,31,37,0,0
429312,229865512,2,5931,5771,14.75,3.11,31,37,0,0
429759,229971003,2,5772,5885,14.75,3.46,31,37,0,0
430696,230195769,2,5893,6157,14.77,3.34,31,37,0,0
431099,230298124,2,6152,6057,14.77,3.42,31,37,0,0
431591,230415207,2,6058,6071,14.7,3.59,31,37,0,0
431993,230517931,2,6072,6142,14.73,3.55,31,37,0,0
432441,230623411,2,6139,6085,14.71,3.32,31,38,0,0
432887,230733726,2,6086,6128,14.75,3.11,31,38,0,0
433336,230843421,2,6124,6057,14.76,3.02,31,38,0,0
433785,230956506,2,6046,5942,14.73,2.77,31,38,0,0
434230,231066494,2,5932,5842,14.72,2.93,31,38,0,0
434633,231164579,2,5840,5728,14.71,3.08,31,38,0,0
435120,231286668,2,5740,5914,14.74,2.93,31,38,0,0
435938,231497738,2,5914,5928,14.72,3.05,31,38,0,0
436424,231609943,2,5933,6000,14.72,3.16,31,38,0,0
436868,231722225,2,6006,6100,14.77,3.37,31,38,0,0
437316,231832157,2,6080,5871,14.75,3.15,31,39,0,0
437722,231936626,2,5878,6057,14.78,3.02,31,39,0,0
438213,232055592,2,6041,5928,14.8,2.71,31,39,0,0
438615,232154572,2,5921,5828,14.79,2.56,31,39,0,0
439057,232265996,2,5827,5800,14.7,2.97,31,39,0,0
439503,232373209,2,5801,5900,14.7,3.1,31,39,0,0
439951,232485590,2,5897,5871,14.67,3.26,31,39,0,0
440396,232593492,2,5885,6042,14.67,3.62,31,39,0,0
440838,232701801,2,6038,5971,14.7,3.84,31,39,0,0
441736,232932995,2,5969,5928,14.74,2.95,31,40,0,0
442187,233041791,2,5928,5928,14.69,3.07,31,40,0,0
442630,233147924,2,5928,5928,14.73,3.22,31,40,0,0
443080,233257139,2,5922,5871,14.67,3.62,31,40,0,0
443520,233368989,2,5878,5957,14.69,3.05,31,40,0,0
443920,233469800,2,5943,5800,14.7,3.12,31,40,0,0
444405,233582696,2,5805,5857,14.74,2.92,31,40,0,0
444815,233690768,2,5843,5742,14.79,2.81,31,40,0,0
445260,233797490,2,5744,5785,14.85,2.66,31,40,0,0
445704,233904359,2,5779,5728,14.75,3.18,31,40,0,0
446116,234007025,2,5733,5985,14.6,4.07,31,40,0,0
446551,234113380,2,5985,6028,14.62,3.78,31,41,0,0
447048,234233212,2,6034,6085,14.73,3.39,31,41,0,0
447491,234341987,2,6062,5757,14.72,3.01,31,41,0,0
447941,234454364,2,5758,5771,14.76,2.99,31,41,0,0
448385,234563036,2,5784,5914,14.71,3.38,31,41,0,0
448789,234663523,2,5910,5842,14.66,3.41,31,41,0,0
449231,234770773,2,5843,5885,14.67,3.42,31,41,0,0
449710,234884912,2,5884,5857,14.65,3.63,31,41,0,0
450163,234994730,2,5868,6000,14.67,3.64,31,41,0,0
450572,235098264,2,5996,5828,14.7,3.48,31,41,0,0
451026,235212909,2,5821,5757,14.69,3.04,31,42,0,0
451433,235314487,2,5743,5514,14.74,2.69,31,42,0,0
451885,235424766,2,5516,5628,14.77,2.49,31,42,0,0
452341,235538591,2,5625,5600,14.76,2.92,31,42,0,0
452791,235652168,2,5616,5771,14.69,3.45,31,42,0,0
453192,235748190,2,5765,5700,14.74,3.24,31,42,0,0
453633,235852670,2,5699,5657,14.79,2.88,31,42,0,0
454527,236072085,2,5657,5671,14.73,3.39,31,42,0,0
454978,236183063,2,5670,5657,14.75,3.12,31,42,0,0
455460,236297813,2,5669,5800,14.7,3.03,31,43,0,0
455870,236399242,2,5794,5657,14.67,2.91,31,43,0,0
456313,236508984,2,5660,5700,14.63,3.31,31,43,0,0
456758,236615592,2,5702,5814,14.72,3.09,31,43,0,0
457205,236727990,2,5812,5785,14.74,3.2,31,43,0,0
457650,236834199,2,5789,5885,14.78,2.96,31,43,0,0
458131,236953749,2,5895,6000,14.7,3.13,31,43,0,0
458539,237051816,2,5985,5714,14.7,3.26,31,43,0,0
458986,237164721,2,5723,5957,14.65,3.56,31,43,0,0
459465,237278004,2,5957,5971,14.65,3.45,31,43,0,0
459914,237387495,2,5971,5971,14.61,3.75,31,43,0,0
460360,237495674,2,5982,6100,14.62,3.57,31,44,0,0
460805,237603373,2,6092,6014,14.61,3.67,31,44,0,0
461244,237707063,2,6006,5914,14.59,3.86,31,44,0,0
461695,237818492,2,5928,6142,14.56,4.06,31,44,0,0
462138,237928587,2,6138,6085,14.54,4.13,31,44,0,0
462588,238038929,2,6091,6157,14.62,3.89,31,44,0,0
463025,238146897,2,6152,6100,14.72,3.05,31,44,0,0
463478,238261767,2,6084,5914,14.72,3.05,31,44,0,0
463921,238367812,2,5916,5957,14.56,3.79,31,45,0,0
464365,238478059,2,5962,6071,14.61,3.58,31,45,0,0
464819,238592207,2,6071,6085,14.66,3.72,31,45,0,0
465219,238693161,2,6084,6057,14.62,3.57,31,45,0,0
465672,238805603,2,6049,5885,14.61,3.65,31,45,0,0
466113,238913730,2,5894,6014,14.61,3.59,31,45,0,0
466564,239022194,2,6008,5942,14.57,3.57,31,45,0,0
467008,239132616,2,5929,5800,14.61,3.43,31,45,0,0
467859,239343944,2,5801,5957,14.57,3.67,31,46,0,0
468351,239467825,2,5964,6014,14.63,3.71,31,46,0,0
468791,239569756,2,6019,6100,14.65,3.56,31,46,0,0
469236,239681536,2,6081,5900,14.6,3.59,31,46,0,0
469642,239780922,2,5902,5942,14.63,3.5,31,46,0,0
470045,239884592,2,5940,5914,14.64,3.34,31,46,0,0
470940,240103493,2,5914,5942,14.64,3.4,31,46,0,0
471389,240213835,2,5934,5828,14.67,3.39,31,46,0,0
471795,240317736,2,5826,5800,14.61,3.38,31,46,0,0
472240,240424403,2,5807,5957,14.61,3.28,31,47,0,0
472686,240533824,2,5951,5857,14.69,3.3,31,47,0,0
473137,240643503,2,5849,5742,14.67,3.15,31,47,0,0
473542,240747635,2,5743,5842,14.65,3.38,31,47,0,0
473989,240854591,2,5840,5771,14.68,3.34,31,47,0,0
474442,240967274,2,5774,5857,14.65,3.17,31,47,0,0
474889,241078966,2,5863,5957,14.63,3.27,31,47,0,0
475337,241187901,2,5945,5757,14.6,3.28,31,47,0,0
475786,241303016,2,5758,5785,14.58,3.22,31,47,0,0
476190,241402195,2,5788,5857,14.64,3.35,31,47,0,0
476639,241515149,2,5856,5828,14.63,3.58,31,48,0,0
477120,241625993,2,5839,6000,14.62,3.58,31,48,0,0
477571,241739060,2,5986,5842,14.64,3.55,31,48,0,0
477978,241841052,2,5843,5871,14.57,3.6,31,48,0,0
478384,241941718,2,5871,5928,14.54,4.19,31,48,0,0
478825,242050366,2,5932,6100,14.58,3.8,31,48,0,0
479276,242162678,2,6098,6057,14.5,3.95,31,48,0,0
479724,242275404,2,6055,6028,14.54,3.94,31,48,0,0
480173,242384909,2,6033,6085,14.6,3.76,31,49,0,0
480619,242496188,2,6073,5942,14.62,3.5,31,49,0,0
481067,242609531,2,5939,5914,14.61,3.33,31,49,0,0
481471,242708710,2,5911,5742,14.66,2.98,31,49,0,0
481919,242818567,2,5741,5728,14.65,3.03,31,49,0,0
482402,242931144,2,5729,5771,14.68,3.24,31,49,0,0
482851,243040537,2,5775,5814,14.63,3.12,31,49,0,0
483252,243139824,2,5813,5800,14.61,3.05,31,49,0,0
483699,243249221,2,5798,5757,14.66,3.02,31,49,0,0
484181,243363203,2,5761,5814,14.65,3.12,31,49,0,0
484583,243463809,2,5808,5685,14.67,3.08,31,49,0,0
485069,243582782,2,5677,5614,14.64,2.68,31,50,0,0
485506,243689758,2,5600,5442,14.65,2.38,31,50,0,0
485917,243789916,2,5441,5428,14.69,2.44,31,50,0,0
486324,243894939,2,5427,5414,14.7,2.47,31,50,0,0
486820,244017611,2,5393,5242,14.77,2.33,31,50,0,0
487261,244125368,2,5253,5414,14.66,2.46,31,50,0,0
487668,244226474,2,5412,5328,14.63,2.7,31,50,0,0
488157,244346981,2,5343,5514,14.63,2.95,31,50,0,0
488566,244450569,2,5515,5657,14.59,3.09,31,50,0,0
489010,244560756,2,5656,5628,14.66,2.84,31,50,0,0
489451,244671213,2,5626,5614,14.57,3.17,31,50,0,0
489898,244777013,2,5614,5614,14.58,2.79,31,50,0,0
490345,244890810,2,5624,5771,14.57,3.37,31,51,0,0
490798,244999537,2,5762,5600,14.59,3.43,31,51,0,0
491201,245101992,2,5601,5671,14.6,3.02,31,51,0,0
491683,245214030,2,5668,5614,14.66,3.03,31,51,0,0
492129,245324585,2,5614,5614,14.69,2.89,31,51,0,0
492628,245445982,2,5620,5685,14.63,3.15,31,51,0,0
493031,245548071,2,5692,5800,14.67,2.91,31,51,0,0
493437,245646791,2,5795,5571,14.66,3.34,31,51,0,0
494368,245876185,2,5570,5557,14.63,2.85,31,51,0,0
494775,245974359,2,5558,5614,14.63,3.11,31,51,0,0
495225,246086476,2,5614,5614,14.63,3.13,31,52,0,0
495670,246192521,2,5622,5785,14.62,3.31,31,52,0,0
496570,246417397,2,5777,5614,14.63,2.66,31,52,0,0
497015,246528493,2,5629,5785,14.66,3.25,31,52,0,0
497422,246630619,2,5788,6028,14.6,3.59,31,52,0,0
497864,246738927,2,6027,6000,14.65,3.4,31,52,0,0
498354,246858575,2,6017,6114,14.65,3.33,31,52,0,0
498756,246954561,2,6104,5914,14.64,3.32,31,52,0,0
499199,247064009,2,5914,5928,14.69,3.43,31,52,0,0
499645,247171728,2,5932,6000,14.66,3.59,31,53,0,0
500504,247388144,2,5998,5971,14.61,3.44,31,53,0,0
501395,247607058,2,5973,6071,14.63,3.5,31,53,0,0
501797,247709927,2,6069,6028,14.64,3.43,31,53,0,0
502249,247821141,2,6026,5985,14.61,3.35,31,53,0,0
502693,247929911,2,5985,5985,14.62,3.38,31,53,0,0
503138,248037629,2,5986,6014,14.6,3.43,31,53,0,0
503569,248140996,2,6016,6171,14.62,3.51,31,54,0,0
504068,248262005,2,6146,5900,14.67,3.2,31,54,0,0
504470,248363643,2,5904,6000,14.63,3.38,31,54,0,0
504916,248473924,2,6004,6114,14.62,3.61,31,54,0,0
505365,248581803,2,6115,6200,14.63,3.51,31,54,0,0
505809,248693999,2,6189,6100,14.63,3.53,31,54,0,0
506257,248802928,2,6097,6057,14.57,3.71,31,54,0,0
506699,248911001,2,6054,6028,14.59,3.8,31,54,0,0
507117,249019716,2,6022,5971,14.55,3.62,31,54,0,0
508005,249237721,2,5970,5942,14.53,3.41,31,55,0,0
508856,249450645,2,5942,5942,14.56,3.56,31,55,0,0
509301,249559930,2,5940,5914,14.57,3.59,31,55,0,0
509704,249663905,2,5906,5771,14.58,3.48,31,55,0,0
510160,249778328,2,5760,5657,14.65,3.05,31,55,0,0
510558,249878049,2,5664,5814,14.63,3.14,31,55,0,0
511055,249996916,2,5801,5657,14.57,2.97,31,55,0,0
511496,250105956,2,5646,5542,14.57,3.09,31,55,0,0
511944,250215609,2,5546,5600,14.64,2.99,31,55,0,0
512390,250326541,2,5596,5557,14.63,3,31,56,0,0
512843,250437150,2,5565,5642,14.58,3.23,31,56,0,0
513241,250536706,2,5644,5685,14.63,3.23,31,56,0,0
514579,250869942,2,5690,5914,14.59,3.3,31,56,0,0
515033,250981916,2,5912,5900,14.64,3.34,31,56,0,0
515436,251085050,2,5889,5685,14.6,3.24,31,56,0,0
515884,251193643,2,5685,5700,14.58,3.44,31,56,0,0
516287,251297025,2,5702,5828,14.65,3.46,31,56,0,0
516781,251418718,2,5829,5842,14.6,3.48,31,57,0,0
517180,251515593,2,5839,5814,14.57,3.32,31,57,0,0
517628,251627690,2,5821,5885,14.63,3.29,31,57,0,0
518071,251734773,2,5886,5900,14.58,3.31,31,57,0,0
518522,251848140,2,5897,5871,14.63,3.42,31,57,0,0
518960,251951624,2,5870,5857,14.61,3.57,31,57,0,0
519405,252066711,2,5868,5971,14.63,3.71,31,57,0,0
519849,252173010,2,5971,6014,14.61,3.63,31,57,0,0
520289,252275596,2,6015,6071,14.61,3.59,31,57,0,0
520736,252381991,2,6066,5871,14.58,3.74,31,58,0,0
521188,252497587,2,5878,5957,14.61,3.63,31,58,0,0
521632,252603504,2,5949,5771,14.58,3.66,31,58,0,0
522081,252720781,2,5776,5814,14.59,3.52,31,58,0,0
522526,252825944,2,5807,5742,14.61,3.62,31,58,0,0
522974,252931765,2,5749,5857,14.58,3.75,31,58,0,0
523419,253046002,2,5864,5942,14.61,3.63,31,58,0,0
523829,253146804,2,5941,5928,14.65,3.6,31,58,0,0
524279,253259813,2,5928,5985,14.63,3.37,31,58,0,0
524724,253367247,2,5978,5900,14.65,3.46,31,59,0,0
525126,253470264,2,5895,5728,14.61,3.25,31,59,0,0
526022,253694622,2,5734,5900,14.63,3.37,31,59,0,0
526475,253801814,2,5893,5800,14.63,3.33,31,59,0,0
526919,253913415,2,5808,5885,14.61,3.37,31,59,0,0
527368,254021956,2,5873,5714,14.64,3.1,31,59,0,0
527768,254121908,2,5714,5714,14.67,2.88,31,59,0,0
528216,254232021,2,5725,5985,14.63,3.46,31,59,0,0
528671,254350534,2,5975,5900,14.63,3.4,31,59,0,0
529071,254445896,2,5892,5742,14.64,3.23,31,60,0,0
529481,254551530,2,5743,5857,14.66,3.1,31,60,0,0
530412,254781001,2,5863,6014,14.64,3.32,31,60,0,0
530857,254890417,2,5999,5857,14.64,3.52,31,60,0,0
531302,254997409,2,5871,6071,14.48,4.03,31,60,0,0
531708,255102857,2,6072,6128,14.51,4.42,31,60,0,0
532187,255211955,2,6134,6371,14.48,4.8,31,60,0,0
532596,255318003,2,6371,6385,14.39,4.87,31,60,0,0
533128,255441538,2,6392,6471,14.45,4.76,31,61,0,0
533527,255541512,2,6468,6414,14.51,4.45,31,61,0,0
533977,255656548,2,6418,6457,14.48,4.43,31,61,0,0
534382,255753692,2,6456,6400,14.51,4.26,31,61,0,0
534828,255865602,2,6391,6157,14.55,4.08,31,61,0,0
535313,255978185,2,6151,6071,14.55,3.94,31,61,0,0
535754,256087177,2,6059,5900,14.58,3.84,31,61,0,0
536200,256193398,2,5891,5742,14.58,3.48,31,61,0,0
536647,256306480,2,5744,5771,14.57,3.43,31,62,0,0
537054,256404741,2,5771,5800,14.61,3.46,31,62,0,0
537530,256517952,2,5790,5671,14.61,3.3,31,62,0,0
537981,256629797,2,5665,5614,14.61,3.2,31,62,0,0
538390,256737723,2,5614,5614,14.54,3.14,31,62,0,0
538845,256850120,2,5592,5442,14.6,2.9,31,62,0,0
539251,256951911,2,5443,5471,14.61,3.05,31,62,0,0
539652,257053242,2,5472,5628,14.58,3.47,31,62,0,0
540140,257170593,2,5631,5671,14.61,3.26,31,62,0,0
540582,257278146,2,5671,5685,14.67,3.26,31,62,0,0
540988,257377710,2,5687,5814,14.61,3.19,31,63,0,0
541433,257488604,2,5811,5685,14.64,3.12,31,63,0,0
541881,257596154,2,5684,5671,14.72,3.1,31,63,0,0
542359,257709571,2,5664,5585,14.7,3.16,31,63,0,0
542813,257821144,2,5586,5600,14.68,2.98,31,63,0,0
543218,257924592,2,5602,5628,14.71,3.15,31,63,0,0
543704,258037057,2,5609,5428,14.67,3.01,31,63,0,0
544103,258135918,2,5429,5500,14.7,2.78,31,63,0,0
544594,258252943,2,5496,5457,14.66,2.69,31,63,0,0
544992,258352185,2,5458,5485,14.6,2.57,31,63,0,0
545881,258574038,2,5478,5342,14.65,2.36,31,64,0,0
546281,258678009,2,5360,5542,14.62,2.91,31,64,0,0
546725,258783372,2,5543,5642,14.7,2.88,31,64,0,0
547170,258893368,2,5643,5671,14.63,2.78,31,64,0,0
547658,259005049,2,5665,5600,14.64,2.95,31,64,0,0
548108,259118603,2,5598,5585,14.66,2.94,31,64,0,0
548509,259215976,2,5594,5800,14.63,3.21,31,64,0,0
548954,259326562,2,5790,5642,14.61,2.49,31,64,0,0
549408,259437826,2,5656,5900,14.61,3.55,31,64,0,0
549848,259545945,2,5910,6042,14.6,3.54,31,64,0,0
550298,259655178,2,6035,5957,14.63,3.55,31,64,0,0
550746,259769520,2,5975,6257,14.63,3.77,31,65,0,0
551605,259984578,2,6253,6157,14.62,3.08,31,65,0,0
552009,260086000,2,6155,6057,14.6,3.57,31,65,0,0
552454,260194212,2,6053,5885,14.57,3.1,31,65,0,0
552940,260310120,2,5895,6000,14.64,3.04,31,65,0,0
553348,260411979,2,6000,6000,14.58,2.89,31,65,0,0
553795,260524972,2,5986,5857,14.64,2.96,31,65,0,0
554242,260634603,2,5860,5900,14.66,2.56,31,65,0,0
554647,260737371,2,5894,5628,14.66,2.86,31,65,0,0
555100,260847029,2,5631,5814,14.57,2.98,31,65,0,0
555542,260955606,2,5809,5700,14.67,2.69,31,66,0,0
555989,261067031,2,5710,5857,14.58,2.89,31,66,0,0
556397,261167817,2,5858,5942,14.53,3.14,31,66,0,0
556878,261280138,2,5936,5871,14.57,3.37,31,66,0,0
557331,261391159,2,5883,6014,14.64,3.11,31,66,0,0
557739,261500448,2,6004,5914,14.6,3.26,31,66,0,0
558146,261601743,2,5907,5842,14.63,3.24,31,66,0,0
558546,261704716,2,5849,6000,14.66,3.14,31,66,0,0
558999,261816093,2,5999,5957,14.6,2.89,31,66,0,0
559444,261925037,2,5945,5785,14.6,3.06,31,66,0,0
559932,262039646,2,5777,5700,14.57,2.88,31,66,0,0
560334,262138003,2,5700,5714,14.58,2.83,31,67,0,0
560781,262251805,2,5713,5700,14.57,2.95,31,67,0,0
561268,262363391,2,5704,5757,14.6,2.92,31,67,0,0
562162,262580654,2,5748,5557,14.54,2.8,31,67,0,0
562608,262693770,2,5560,5600,14.57,3.01,31,67,0,0
563017,262795679,2,5588,5442,14.63,2.48,31,67,0,0
563466,262908406,2,5435,5371,14.6,2.44,31,67,0,0
563915,263015788,2,5367,5314,14.69,2.16,31,67,0,0
564356,263127595,2,5308,5257,14.68,2.76,31,67,0,0
564804,263234907,2,5247,5142,14.71,1.71,31,67,0,0
565257,263352132,2,5120,4914,14.72,1.69,31,67,0,0
565667,263453034,2,4920,5071,14.64,2.15,31,67,0,0
566109,263564380,2,5077,5142,14.69,2.37,31,68,0,0
566553,263673964,2,5140,5128,14.64,2.44,31,68,0,0
567004,263784716,2,5170,5557,14.61,2.61,31,68,0,0
567854,263992805,2,5548,5300,14.64,2.43,31,68,0,0
568298,264103121,2,5298,5285,14.58,2.31,31,68,0,0
568788,264220391,2,5308,5585,14.64,2.77,31,68,0,0
569154,264315986,2,5590,5842,14.6,3.1,31,68,0,0
569706,264529964,2,5774,5914,14.5,3.32,31,68,0,0
570157,264640500,2,5916,5971,14.52,3.71,31,68,0,0
570642,264759782,2,5974,6000,14.55,3.77,31,69,0,0
571049,264863638,2,6009,6214,14.54,4.31,31,69,0,0
571980,265090166,2,6216,6271,14.47,4.75,31,69,0,0
572831,265301702,2,6272,6314,14.45,4.3,31,69,0,0
573281,265408966,2,6312,6228,14.42,4.23,31,69,0,0
573725,265518569,2,6224,6171,14.39,4.4,31,69,0,0
574573,265730783,2,6174,6457,14.45,4.95,31,70,0,0
575060,265841831,2,6458,6514,14.45,4.95,31,70,0,0
575513,265957737,2,6507,6442,14.53,4.43,31,70,0,0
575915,266061061,2,6437,6228,14.5,4.51,31,70,0,0
576366,266172779,2,6233,6300,14.42,4.67,31,70,0,0
576807,266279601,2,6301,6385,14.47,4.49,31,70,0,0
577298,266396813,2,6369,6214,14.5,4.13,31,71,0,0
577742,266505006,2,6215,6242,14.47,4.26,31,71,0,0
578196,266616423,2,6254,6385,14.55,5.05,31,71,0,0
578599,266720000,2,6385,6400,14.57,4.47,31,71,0,0
579055,266831540,2,6387,6228,14.6,4.15,31,71,0,0
579501,266942856,2,6226,6214,14.52,4.31,31,71,0,0
579953,267053958,2,6212,6200,14.57,4.29,31,71,0,0
580395,267160539,2,6198,6171,14.51,4.23,31,72,0,0
580801,267264857,2,6170,6114,14.53,4.05,31,72,0,0
581293,267382018,2,6108,6057,14.52,3.95,31,72,0,0
581700,267485707,2,6055,6028,14.58,3.81,31,72,0,0
582147,267593612,2,6024,5942,14.57,3.77,31,72,0,0
583001,267805946,2,5941,5842,14.57,3.78,31,72,0,0
583487,267926420,2,5838,5785,14.57,3.7,31,72,0,0
583940,268038618,2,5793,5885,14.54,3.61,31,73,0,0
584343,268139533,2,5885,5900,14.54,3.9,31,73,0,0
584833,268260246,2,5901,5914,14.53,4,31,73,0,0
585236,268356720,2,5912,5871,14.48,4.12,31,73,0,0
585689,268472598,2,5887,6128,14.51,4.18,31,73,0,0
586139,268582628,2,6124,6085,14.53,4.3,31,73,0,0
586545,268687611,2,6078,5942,14.6,3.81,31,73,0,0
587036,268807003,2,5960,6142,14.6,4.4,31,73,0,0
587442,268908034,2,6125,5914,14.53,4.21,31,73,0,0
588329,269124515,2,5915,6100,14.55,4.21,31,74,0,0
588777,269237585,2,6097,6071,14.58,4.14,31,74,0,0
589254,269351899,2,6066,6042,14.57,4.14,31,74,0,0
589665,269449961,2,6043,6057,14.57,4.19,31,74,0,0
590071,269559365,2,6057,6071,14.57,4.05,31,74,0,0
590524,269671592,2,6071,6071,14.55,3.81,31,74,0,0
590933,269773021,2,6060,5814,14.58,3.57,31,74,0,0
591339,269881630,2,5814,5885,14.54,3.81,31,75,0,0
591790,269992937,2,5889,5985,14.55,3.76,31,75,0,0
592234,270099832,2,5983,5971,14.57,3.54,31,75,0,0
592681,270204514,2,5971,5971,14.58,3.52,31,75,0,0
593127,270317634,2,5966,5885,14.57,3.35,31,75,0,0
593575,270426817,2,5870,5742,14.52,2.85,31,75,0,0
594026,270538023,2,5733,5642,14.52,3.15,31,75,0,0
594432,270640781,2,5640,5600,14.58,3.01,31,75,0,0
594886,270757056,2,5602,5628,14.52,3.29,31,75,0,0
595368,270867922,2,5652,5900,14.51,3.39,31,76,0,0
595774,270970570,2,5897,5785,14.51,3.49,31,76,0,0
596219,271081807,2,5801,6014,14.56,3.51,31,76,0,0
596671,271193595,2,6006,5914,14.51,3.83,31,76,0,0
597078,271299822,2,5928,6057,14.55,4.06,31,76,0,0
597530,271411386,2,6074,6228,14.55,4.14,31,76,0,0
597934,271508738,2,6224,6114,14.52,4.27,31,76,0,0
598385,271623344,2,6123,6257,14.54,4.37,31,76,0,0
598837,271740923,2,6262,6314,14.55,4.36,31,77,0,0
599239,271837583,2,6317,6371,14.55,4.32,31,77,0,0
599688,271951046,2,6366,6314,14.52,4.21,31,77,0,0
600139,272060163,2,6306,6200,14.52,3.75,31,77,0,0
600584,272172621,2,6176,5942,14.55,3.7,31,77,0,0
601024,272279423,2,5943,5957,14.6,3.25,31,77,0,0
601472,272388000,2,5946,5800,14.54,3.24,31,77,0,0
601917,272498904,2,5786,5657,14.61,2.86,31,77,0,0
602366,272608527,2,5644,5514,14.59,2.85,31,77,0,0
602801,272712620,2,5513,5500,14.54,2.63,31,77,0,0
603251,272820934,2,5499,5457,14.57,2.82,31,78,0,0
603698,272931803,2,5453,5242,14.58,2.71,31,78,0,0
604150,273041183,2,5244,5428,14.51,3.07,31,78,0,0
604587,273147816,2,5430,5585,14.49,3.59,31,78,0,0
605033,273258571,2,5589,5771,14.47,3.57,31,78,0,0
605482,273368393,2,5770,5757,14.47,3.64,31,78,0,0
605933,273481139,2,5770,5942,14.55,3.59,31,78,0,0
606381,273591089,2,5930,5771,14.52,3.2,31,78,0,0
606785,273694951,2,5769,5742,14.52,3.45,31,78,0,0
607236,273804913,2,5740,5671,14.58,3.51,31,78,0,0
607674,273911079,2,5670,5657,14.58,3.26,31,79,0,0
608127,274021573,2,5658,5685,14.5,3.38,31,79,0,0
608574,274134424,2,5688,5728,14.52,3.35,31,79,0,0
608980,274232299,2,5726,5657,14.54,2.87,31,79,0,0
609421,274341013,2,5645,5500,14.55,2.67,31,79,0,0
609869,274450972,2,5488,5371,14.54,2.88,31,79,0,0
610313,274555699,2,5379,5557,14.53,2.75,31,79,0,0
610763,274671612,2,5543,5414,14.53,2.77,31,79,0,0
611214,274780803,2,5410,5371,14.52,2.9,31,79,0,0
611621,274886666,2,5379,5485,14.45,2.76,31,79,0,0
612075,274996582,2,5464,5257,14.57,2.69,31,79,0,0
612476,275096664,2,5266,5442,14.5,2.93,31,80,0,0
613375,275316918,2,5449,5657,14.49,3.17,31,80,0,0
613830,275427181,2,5649,5542,14.54,3.05,31,80,0,0
614273,275537234,2,5547,5614,14.52,3.35,31,80,0,0
614722,275653036,2,5621,5700,14.5,3.61,31,80,0,0
615174,275762686,2,5710,5814,14.47,3.73,31,80,0,0
616063,275977504,2,5814,5814,14.5,3.48,31,80,0,0
616473,276082659,2,5815,5842,14.52,3.55,31,80,0,0
616964,276199794,2,5848,5914,14.54,3.31,31,81,0,0
617402,276305247,2,5896,5714,14.51,3.57,31,81,0,0
617808,276406988,2,5722,5914,14.41,4.09,31,81,0,0
618259,276518750,2,5922,6114,14.48,4.67,31,81,0,0
618742,276629721,2,6126,6300,14.46,4.06,31,81,0,0
619191,276742555,2,6291,6200,14.47,4.15,31,81,0,0
619631,276852249,2,6199,6142,14.46,3.87,31,81,0,0
620070,276953955,2,6137,6057,14.5,3.95,31,81,0,0
620519,277066505,2,6057,6057,14.54,3.62,31,81,0,0
620923,277163380,2,6047,5842,14.59,3.39,31,82,0,0
621369,277273236,2,5845,5900,14.48,3.2,31,82,0,0
621820,277386476,2,5890,5757,14.53,3.24,31,82,0,0
622266,277493706,2,5755,5671,14.64,2.56,31,82,0,0
622759,277613739,2,5649,5414,14.77,2.18,31,82,0,0
623164,277717732,2,5391,5171,14.77,1.68,31,82,0,0
623609,277823497,2,5161,4928,14.77,1.52,31,82,0,0
624053,277933780,2,4918,4700,14.82,1.8,31,82,0,0
624505,278047585,2,4708,4771,14.79,1.81,31,82,0,0
624981,278158600,2,4763,4671,14.76,1.81,31,82,0,0
625402,278267041,2,4672,4685,14.79,1.57,31,82,0,0
625847,278372138,2,4688,4771,14.79,1.84,31,82,0,0
626286,278482980,2,4786,4957,14.75,1.88,31,82,0,0
626730,278595185,2,4951,4900,14.75,1.76,31,82,0,0
627583,278804718,2,4899,4800,14.76,1.46,31,83,0,0
628063,278922184,2,4813,4957,14.75,2.12,31,83,0,0
628472,279026207,2,4959,5157,14.72,2.01,31,83,0,0
628920,279133812,2,5160,5400,14.59,2.67,31,83,0,0
629369,279240792,2,5415,5585,14.63,2.44,31,83,0,0
629772,279342638,2,5582,5471,14.64,1.97,31,83,0,0
630221,279451734,2,5470,5442,14.64,2.37,31,83,0,0
630661,279562995,2,5441,5428,14.7,2.72,31,83,0,0
631151,279682214,2,5425,5400,14.69,2.65,31,83,0,0
631594,279789088,2,5412,5557,14.63,2.68,31,83,0,0
632040,279898263,2,5561,5614,14.58,2.77,31,83,0,0
632492,280010194,2,5586,5342,14.7,2.25,31,83,0,0
633381,280225833,2,5335,5071,14.7,2.26,31,83,0,0
633791,280334551,2,5073,5214,14.72,2.08,31,83,0,0
634279,280452642,2,5239,5471,14.64,2.67,31,84,0,0
634684,280553142,2,5472,5514,14.69,2.65,31,84,0,0
635168,280665210,2,5521,5585,14.72,2.48,31,84,0,0
635608,280771941,2,5600,5814,14.56,3.24,31,84,0,0
636009,280874613,2,5834,6185,14.53,3.56,31,84,0,0
636462,280986519,2,6188,6228,14.48,3.52,31,84,0,0
636911,281098648,2,6226,6200,14.59,3.12,31,84,0,0
637362,281207766,2,6211,6371,14.5,3.12,31,84,0,0
637762,281310192,2,6365,6271,14.51,3.32,31,84,0,0
638218,281425465,2,6269,6228,14.53,3.07,31,84,0,0
638660,281535231,2,6225,6185,14.5,4.1,31,85,0,0
639113,281645807,2,6193,6400,14.58,4.1,31,85,0,0
639518,281752013,2,6387,6228,14.59,3.57,31,85,0,0
639969,281865610,2,6211,6042,14.63,3.11,31,85,0,0
640413,281970604,2,6028,5885,14.67,2.9,31,85,0,0
640847,282072033,2,5881,5814,14.61,3.13,31,85,0,0
641741,282291489,2,5816,5900,14.59,3.64,31,85,0,0
642192,282403219,2,5915,6085,14.57,3.22,31,85,0,0
642598,282506721,2,6080,6028,14.6,3.7,31,85,0,0
643046,282615022,2,6027,6014,14.61,3.74,31,86,0,0
643451,282719597,2,6014,6057,14.54,3.57,31,86,0,0
643939,282837040,2,6060,6100,14.5,4.25,31,86,0,0
644386,282950830,2,6119,6314,14.5,3.83,31,86,0,0
644838,283060973,2,6301,6142,14.51,4,31,86,0,0
645244,283162615,2,6149,6285,14.47,4.07,31,86,0,0
645690,283276177,2,6286,6314,14.5,4.13,31,86,0,0
