LineNo,TimeUS,Instance,RPM,RawRPM,Volt,Curr,Temp,CTot,MotTemp,Err
1699,1.9885e+07,0,0,0,15.77,0.05,34,0,0,0
2153,2e+07,0,0,0,15.76,0.04,34,0,0,0
2605,2.0113e+07,0,0,0,15.76,0.04,34,0,0,0
3016,2.0213e+07,0,0,0,15.76,0.04,34,0,0,0
3431,2.0313e+07,0,0,0,15.77,0.04,34,0,0,0
3917,2.0431e+07,0,0,0,15.76,0.04,34,0,0,0
4329,2.0532e+07,0,0,0,15.76,0.04,34,0,0,0
4748,2.0639e+07,0,0,0,15.76,0.04,34,0,0,0
5164,2.0743e+07,0,0,0,15.76,0.04,34,0,0,0
5581,2.0847e+07,0,0,0,15.77,0.04,34,0,0,0
5995,2.0953e+07,0,0,0,15.76,0.04,34,0,0,0
6447,2.1063e+07,0,0,0,15.76,0.04,34,0,0,0
6854,2.1164e+07,0,0,0,15.76,0.04,34,0,0,0
7313,2.1278e+07,0,0,0,15.76,0.04,34,0,0,0
7733,2.1384e+07,0,0,0,15.77,0.04,34,0,0,0
8151,2.149e+07,0,0,0,15.77,0.04,34,0,0,0
8525,2.1586e+07,0,0,0,15.76,0.04,34,0,0,0
8977,2.1699e+07,0,0,0,15.76,0.04,34,0,0,0
9387,2.18e+07,0,0,0,15.76,0.04,34,0,0,0
9641,2.1902e+07,0,0,0,15.76,0.04,34,0,0,0
10125,2.2023e+07,0,0,0,15.76,0.04,34,0,0,0
10499,2.2113e+07,0,0,0,15.76,0.04,34,0,0,0
10948,2.2226e+07,0,0,0,15.76,0.04,34,0,0,0
11406,2.234e+07,0,0,0,15.76,0.04,34,0,0,0
11818,2.2443e+07,0,0,0,15.77,0.04,34,0,0,0
12233,2.2546e+07,0,0,0,15.76,0.04,34,0,0,0
12681,2.2658e+07,0,0,0,15.77,0.04,34,0,0,0
13088,2.2759e+07,0,0,0,15.76,0.04,34,0,0,0
13508,2.2865e+07,0,0,0,15.76,0.04,34,0,0,0
13920,2.2969e+07,0,0,0,15.76,0.04,34,0,0,0
14374,2.3081e+07,0,0,0,15.76,0.04,34,0,0,0
14824,2.3193e+07,0,0,0,15.76,0.04,34,0,0,0
15234,2.3295e+07,0,0,0,15.77,0.04,34,0,0,0
15653,2.3402e+07,0,0,0,15.77,0.04,34,0,0,0
16112,2.3515e+07,0,0,0,15.76,0.04,34,0,0,0
16495,2.3618e+07,0,0,0,15.76,0.04,34,0,0,0
16945,2.3731e+07,0,0,0,15.76,0.04,34,0,0,0
17353,2.3832e+07,0,0,0,15.76,0.04,34,0,0,0
17809,2.3943e+07,0,0,0,15.76,0.04,34,0,0,0
18196,2.4046e+07,0,0,0,15.76,0.04,34,0,0,0
18645,2.4154e+07,0,0,0,15.76,0.04,34,0,0,0
19053,2.426e+07,0,0,0,15.76,0.04,34,0,0,0
19468,2.4363e+07,0,0,0,15.76,0.04,34,0,0,0
19923,2.4478e+07,0,0,0,15.76,0.04,34,0,0,0
20298,2.4575e+07,0,0,0,15.76,0.04,34,0,0,0
20754,2.4687e+07,0,0,0,15.77,0.04,34,0,0,0
21170,2.4789e+07,0,0,0,15.76,0.04,34,0,0,0
21626,2.4903e+07,0,0,0,15.76,0.04,34,0,0,0
22080,2.5015e+07,0,0,0,15.77,0.04,34,0,0,0
22495,2.5119e+07,0,0,0,15.76,0.04,34,0,0,0
22942,2.5228e+07,0,0,0,15.76,0.04,34,0,0,0
23361,2.5332e+07,0,0,0,15.76,0.04,34,0,0,0
23823,2.5446e+07,0,0,0,15.76,0.04,34,0,0,0
24236,2.5546e+07,0,0,0,15.76,0.04,34,0,0,0
24696,2.5657e+07,0,0,0,15.77,0.04,34,0,0,0
25110,2.5762e+07,0,0,0,15.76,0.04,34,0,0,0
25563,2.5874e+07,0,0,0,15.77,0.04,34,0,0,0
25978,2.5979e+07,0,0,0,15.76,0.04,34,0,0,0
26390,2.6083e+07,0,0,0,15.76,0.04,34,0,0,0
26801,2.6186e+07,0,0,0,15.76,0.04,34,0,0,0
27254,2.6296e+07,0,0,0,15.76,0.04,34,0,0,0
27700,2.6408e+07,0,0,0,15.76,0.04,34,0,0,0
28081,2.6509e+07,0,0,0,15.77,0.04,34,0,0,0
28491,2.661e+07,0,0,0,15.77,0.04,34,0,0,0
28945,2.6723e+07,0,0,0,15.77,0.04,34,0,0,0
29360,2.6824e+07,0,0,0,15.77,0.04,34,0,0,0
29816,2.6938e+07,0,0,0,15.76,0.04,34,0,0,0
30224,2.704e+07,0,0,0,15.76,0.04,34,0,0,0
30637,2.7143e+07,0,0,0,15.76,0.04,34,0,0,0
31091,2.7256e+07,0,0,0,15.76,0.04,34,0,0,0
31500,2.7359e+07,0,0,0,15.76,0.04,34,0,0,0
31954,2.7473e+07,0,0,0,15.76,0.04,34,0,0,0
32360,2.7574e+07,0,0,0,15.76,0.04,34,0,0,0
32775,2.768e+07,0,0,0,15.76,0.04,34,0,0,0
33233,2.7792e+07,0,0,0,15.76,0.04,34,0,0,0
33649,2.7895e+07,0,0,0,15.76,0.04,34,0,0,0
34065,2.8002e+07,0,0,0,15.76,0.04,34,0,0,0
34482,2.811e+07,0,0,0,15.76,0.04,34,0,0,0
34891,2.8212e+07,0,0,0,15.76,0.04,34,0,0,0
35345,2.8324e+07,0,0,0,15.76,0.04,34,0,0,0
35753,2.8426e+07,0,0,0,15.76,0.04,34,0,0,0
36207,2.8541e+07,0,0,0,15.76,0.04,34,0,0,0
36623,2.8645e+07,0,0,0,15.76,0.04,34,0,0,0
37041,2.8751e+07,0,0,0,15.76,0.04,34,0,0,0
37454,2.8851e+07,0,0,0,15.76,0.04,34,0,0,0
37901,2.8966e+07,0,0,0,15.77,0.04,34,0,0,0
38311,2.9068e+07,0,0,0,15.76,0.05,34,0,0,0
38759,2.918e+07,0,0,0,15.76,0.04,34,0,0,0
39173,2.9284e+07,0,0,0,15.76,0.04,34,0,0,0
39584,2.9387e+07,0,0,0,15.76,0.04,34,0,0,0
39998,2.9491e+07,0,0,0,15.77,0.04,34,0,0,0
40444,2.96e+07,0,0,0,15.76,0.04,34,0,0,0
40899,2.9713e+07,0,0,0,15.77,0.04,34,0,0,0
41310,2.9816e+07,0,0,0,15.76,0.04,34,0,0,0
41767,2.9928e+07,0,0,0,15.77,0.04,34,0,0,0
42179,3.0029e+07,0,0,0,15.77,0.04,34,0,0,0
42639,3.0143e+07,0,0,0,15.76,0.04,34,0,0,0
43052,3.0243e+07,0,0,0,15.76,0.04,34,0,0,0
43467,3.0347e+07,0,0,0,15.76,0.04,34,0,0,0
43927,3.0462e+07,0,0,0,15.76,0.04,34,0,0,0
44343,3.0567e+07,0,0,0,15.76,0.05,34,0,0,0
44757,3.067e+07,0,0,0,15.76,0.04,34,0,0,0
45170,3.0775e+07,0,0,0,15.76,0.04,34,0,0,0
46480,3.1106e+07,0,0,0,15.76,0.04,34,0,0,0
46896,3.121e+07,0,0,0,15.76,0.05,34,0,0,0
47307,3.1311e+07,0,0,0,15.76,0.04,34,0,0,0
47723,3.1416e+07,0,0,0,15.76,0.04,34,0,0,0
48147,3.1523e+07,0,0,0,15.76,0.04,34,0,0,0
48597,3.1635e+07,0,0,0,15.76,0.05,34,0,0,0
49011,3.1737e+07,0,0,0,15.77,0.05,34,0,0,0
49468,3.1851e+07,0,0,0,15.76,0.04,34,0,0,0
49850,3.1952e+07,0,0,0,15.76,0.04,34,0,0,0
50307,3.2064e+07,0,0,0,15.76,0.04,34,0,0,0
50718,3.2166e+07,0,0,0,15.76,0.04,34,0,0,0
51176,3.2278e+07,0,0,0,15.77,0.04,34,0,0,0
51592,3.2383e+07,0,0,0,15.77,0.04,34,0,0,0
52004,3.2486e+07,0,0,0,15.77,0.04,34,0,0,0
52414,3.2591e+07,0,0,0,15.77,0.04,34,0,0,0
52870,3.2702e+07,0,0,0,15.76,0.04,34,0,0,0
53285,3.2804e+07,0,0,0,15.77,0.04,34,0,0,0
53700,3.2907e+07,0,0,0,15.76,0.04,34,0,0,0
54146,3.302e+07,0,0,0,15.76,0.04,34,0,0,0
54557,3.3121e+07,0,0,0,15.76,0.04,34,0,0,0
55011,3.3235e+07,0,0,0,15.76,0.04,34,0,0,0
55423,3.3336e+07,0,0,0,15.76,0.04,34,0,0,0
55848,3.3448e+07,0,0,0,15.76,0.04,34,0,0,0
56256,3.3548e+07,0,0,0,15.76,0.04,34,0,0,0
56707,3.3661e+07,0,0,0,15.76,0.04,34,0,0,0
57122,3.3766e+07,0,0,0,15.77,0.04,34,0,0,0
57577,3.3879e+07,0,0,0,15.76,0.04,34,0,0,0
57992,3.3984e+07,0,0,0,15.76,0.04,34,0,0,0
58405,3.4088e+07,0,0,0,15.77,0.04,34,0,0,0
58820,3.4192e+07,0,0,0,15.76,0.04,34,0,0,0
59280,3.4304e+07,0,0,0,15.76,0.04,34,0,0,0
59687,3.4406e+07,0,0,0,15.76,0.04,34,0,0,0
60145,3.4521e+07,0,0,0,15.76,0.04,34,0,0,0
60553,3.4623e+07,0,0,0,15.76,0.04,34,0,0,0
1.1587e+05,1.0782e+08,0,0,0,15.77,0.04,32,0,0,0
1.1613e+05,1.0789e+08,0,0,0,15.77,0.04,32,0,0,0
1.1659e+05,1.0799e+08,0,0,0,15.77,0.04,32,0,0,0
1.1704e+05,1.081e+08,0,0,0,15.77,0.04,33,0,0,0
1.175e+05,1.082e+08,0,0,0,15.77,0.04,32,0,0,0
1.1799e+05,1.0832e+08,0,0,0,15.77,0.04,32,0,0,0
1.1844e+05,1.0842e+08,0,0,0,15.77,0.04,32,0,0,0
1.189e+05,1.0853e+08,0,0,0,15.77,0.05,32,0,0,0
1.194e+05,1.0864e+08,0,0,0,15.77,0.04,32,0,0,0
1.1982e+05,1.0874e+08,0,0,0,15.77,0.04,32,0,0,0
1.2024e+05,1.0885e+08,0,0,0,15.77,0.05,32,0,0,0
1.2073e+05,1.0896e+08,0,0,0,15.77,0.05,32,0,0,0
1.2118e+05,1.0906e+08,0,0,0,15.77,0.04,32,0,0,0
1.2168e+05,1.0918e+08,0,0,0,15.77,0.04,32,0,0,0
1.2213e+05,1.0928e+08,0,0,0,15.77,0.04,32,0,0,0
1.2259e+05,1.0939e+08,0,0,0,15.77,0.04,32,0,0,0
1.2308e+05,1.095e+08,0,0,0,15.77,0.04,32,0,0,0
1.2354e+05,1.096e+08,0,0,0,15.77,0.04,32,0,0,0
1.2402e+05,1.0971e+08,0,0,0,15.77,0.04,32,0,0,0
1.2452e+05,1.0982e+08,0,0,0,15.77,0.04,32,0,0,0
1.2497e+05,1.0993e+08,0,8,171,15.77,0.04,32,0,0,0
1.2543e+05,1.1003e+08,0,181,442,15.75,0.09,32,0,0,0
1.2593e+05,1.1014e+08,0,476,871,15.75,0.15,32,0,0,0
1.2635e+05,1.1024e+08,0,881,1157,15.75,0.14,32,0,0,0
1.2684e+05,1.1036e+08,0,1162,1214,15.76,0.12,32,0,0,0
1.273e+05,1.1046e+08,0,1216,1242,15.76,0.11,32,0,0,0
1.2775e+05,1.1057e+08,0,1243,1271,15.76,0.11,32,0,0,0
1.282e+05,1.1067e+08,0,1271,1271,15.76,0.11,32,0,0,0
1.2858e+05,1.1078e+08,0,1271,1271,15.76,0.11,32,0,0,0
1.2904e+05,1.1089e+08,0,1271,1271,15.76,0.11,32,0,0,0
1.2953e+05,1.11e+08,0,1271,1271,15.75,0.11,32,0,0,0
1.2995e+05,1.111e+08,0,1270,1257,15.75,0.11,32,0,0,0
1.3045e+05,1.1121e+08,0,1257,1257,15.75,0.11,32,0,0,0
1.309e+05,1.1132e+08,0,1257,1271,15.75,0.11,33,0,0,0
1.3135e+05,1.1142e+08,0,1270,1257,15.76,0.11,32,0,0,0
1.3184e+05,1.1154e+08,0,1257,1271,15.75,0.11,32,0,0,0
1.3234e+05,1.1165e+08,0,1271,1271,15.76,0.11,32,0,0,0
1.3279e+05,1.1175e+08,0,1271,1271,15.76,0.11,32,0,0,0
1.3324e+05,1.1186e+08,0,1271,1271,15.76,0.11,32,0,0,0
1.3374e+05,1.1197e+08,0,1271,1271,15.75,0.11,32,0,0,0
1.3416e+05,1.1207e+08,0,1271,1271,15.76,0.11,32,0,0,0
1.3461e+05,1.1217e+08,0,1271,1271,15.75,0.11,32,0,0,0
1.3511e+05,1.1229e+08,0,1271,1271,15.76,0.11,32,0,0,0
1.3556e+05,1.124e+08,0,1271,1271,15.76,0.11,32,0,0,0
1.3602e+05,1.125e+08,0,1271,1271,15.76,0.11,32,0,0,0
1.3647e+05,1.126e+08,0,1271,1271,15.76,0.11,32,0,0,0
1.3696e+05,1.1272e+08,0,1271,1271,15.75,0.11,32,0,0,0
1.3746e+05,1.1283e+08,0,1271,1271,15.76,0.11,32,0,0,0
1.3787e+05,1.1293e+08,0,1271,1285,15.75,0.11,32,0,0,0
1.3833e+05,1.1303e+08,0,1284,1271,15.75,0.11,32,0,0,0
1.3882e+05,1.1314e+08,0,1271,1271,15.75,0.11,32,0,0,0
1.3924e+05,1.1324e+08,0,1261,428,15.77,0,32,0,0,0
1.397e+05,1.1336e+08,0,391,0,15.77,0.03,32,0,0,0
1.4011e+05,1.1346e+08,0,0,0,15.77,0.04,32,0,0,0
1.4053e+05,1.1357e+08,0,0,0,15.77,0.04,32,0,0,0
1.4098e+05,1.1368e+08,0,0,0,15.77,0.04,32,0,0,0
1.4139e+05,1.1378e+08,0,0,0,15.77,0.05,32,0,0,0
1.4184e+05,1.139e+08,0,0,0,15.77,0.04,32,0,0,0
1.4226e+05,1.14e+08,0,0,0,15.77,0.04,32,0,0,0
1.4268e+05,1.1411e+08,0,0,0,15.77,0.04,32,0,0,0
1.4309e+05,1.142e+08,0,0,0,15.77,0.05,32,0,0,0
1.4396e+05,1.1442e+08,0,0,0,15.77,0.04,32,0,0,0
1.4437e+05,1.1453e+08,0,0,0,15.77,0.04,32,0,0,0
1.4482e+05,1.1465e+08,0,0,0,15.77,0.04,32,0,0,0
1.452e+05,1.1474e+08,0,0,0,15.77,0.04,32,0,0,0
1.4562e+05,1.1485e+08,0,0,0,15.77,0.04,32,0,0,0
1.4608e+05,1.1497e+08,0,0,0,15.76,0.04,32,0,0,0
1.4653e+05,1.1508e+08,0,0,0,15.77,0.04,32,0,0,0
1.4694e+05,1.1518e+08,0,0,0,15.77,0.04,32,0,0,0
1.4736e+05,1.1529e+08,0,0,0,15.77,0.04,32,0,0,0
1.4778e+05,1.1539e+08,0,0,0,15.77,0.04,32,0,0,0
1.4819e+05,1.155e+08,0,0,0,15.77,0.04,32,0,0,0
1.4864e+05,1.1561e+08,0,0,0,15.77,0.04,32,0,0,0
1.4906e+05,1.1572e+08,0,0,0,15.77,0.04,32,0,0,0
1.4947e+05,1.1582e+08,0,0,0,15.77,0.04,32,0,0,0
1.4989e+05,1.1593e+08,0,0,0,15.77,0.05,32,0,0,0
1.5034e+05,1.1605e+08,0,0,0,15.77,0.05,32,0,0,0
1.5076e+05,1.1615e+08,0,0,0,15.77,0.04,32,0,0,0
1.5117e+05,1.1625e+08,0,0,0,15.77,0.04,32,0,0,0
1.5162e+05,1.1637e+08,0,0,0,15.77,0.04,32,0,0,0
1.5203e+05,1.1647e+08,0,0,0,15.77,0.04,32,0,0,0
1.5245e+05,1.1657e+08,0,0,0,15.77,0.04,32,0,0,0
1.529e+05,1.1669e+08,0,0,0,15.77,0.04,32,0,0,0
1.5331e+05,1.1679e+08,0,0,0,15.77,0.04,32,0,0,0
1.5373e+05,1.169e+08,0,0,0,15.77,0.04,32,0,0,0
1.5415e+05,1.17e+08,0,0,0,15.77,0.04,32,0,0,0
1.546e+05,1.1712e+08,0,0,0,15.77,0.04,32,0,0,0
1.5501e+05,1.1722e+08,0,0,0,15.77,0.04,32,0,0,0
1.5543e+05,1.1733e+08,0,0,0,15.77,0.04,32,0,0,0
1.5584e+05,1.1743e+08,0,0,0,15.77,0.04,32,0,0,0
1.5629e+05,1.1754e+08,0,0,0,15.77,0.04,32,0,0,0
1.5675e+05,1.1766e+08,0,0,0,15.77,0.04,32,0,0,0
1.5713e+05,1.1775e+08,0,0,0,15.77,0.04,32,0,0,0
1.5754e+05,1.1786e+08,0,0,0,15.77,0.04,32,0,0,0
1.58e+05,1.1797e+08,0,0,0,15.77,0.04,32,0,0,0
1.5838e+05,1.1807e+08,0,0,0,15.77,0.04,32,0,0,0
1.5883e+05,1.1819e+08,0,0,0,15.77,0.04,32,0,0,0
1.5924e+05,1.1829e+08,0,0,0,15.77,0.04,32,0,0,0
1.597e+05,1.184e+08,0,0,0,15.77,0.04,32,0,0,0
1.6011e+05,1.1851e+08,0,0,0,15.77,0.04,32,0,0,0
1.6052e+05,1.1861e+08,0,0,0,15.77,0.04,32,0,0,0
1.6097e+05,1.1873e+08,0,0,0,15.77,0.04,32,0,0,0
1.6143e+05,1.1884e+08,0,0,0,15.77,0.04,32,0,0,0
1.6184e+05,1.1894e+08,0,0,0,15.77,0.04,32,0,0,0
1.6226e+05,1.1904e+08,0,0,0,15.77,0.04,32,0,0,0
1.6266e+05,1.1915e+08,0,0,0,15.77,0.04,32,0,0,0
1.6352e+05,1.1936e+08,0,0,0,15.77,0.04,32,0,0,0
1.6439e+05,1.1958e+08,0,0,0,15.77,0.04,32,0,0,0
1.6481e+05,1.1969e+08,0,0,0,15.77,0.04,32,0,0,0
1.6522e+05,1.1979e+08,0,0,0,15.77,0.04,32,0,0,0
1.6565e+05,1.199e+08,0,0,0,15.77,0.04,32,0,0,0
1.6606e+05,1.2001e+08,0,0,0,15.77,0.04,32,0,0,0
1.6648e+05,1.2012e+08,0,0,0,15.77,0.03,32,0,0,0
1.669e+05,1.2022e+08,0,0,0,15.77,0.04,32,0,0,0
1.6732e+05,1.2033e+08,0,0,0,15.78,0.04,32,0,0,0
1.6777e+05,1.2044e+08,0,0,0,15.77,0.04,32,0,0,0
1.6816e+05,1.2054e+08,0,0,0,15.77,0.04,32,0,0,0
1.686e+05,1.2065e+08,0,0,0,15.77,0.04,32,0,0,0
1.6902e+05,1.2076e+08,0,0,0,15.77,0.04,32,0,0,0
1.6947e+05,1.2087e+08,0,0,0,15.77,0.04,32,0,0,0
1.6989e+05,1.2097e+08,0,0,0,15.77,0.04,32,0,0,0
1.7034e+05,1.2109e+08,0,0,0,15.77,0.04,32,0,0,0
1.7076e+05,1.2119e+08,0,0,0,15.78,0.04,32,0,0,0
1.7117e+05,1.213e+08,0,0,0,15.77,0.04,32,0,0,0
1.7158e+05,1.214e+08,0,0,0,15.78,0.04,32,0,0,0
1.7203e+05,1.2151e+08,0,0,0,15.77,0.04,32,0,0,0
1.7244e+05,1.2161e+08,0,0,0,15.77,0.04,32,0,0,0
1.7286e+05,1.2172e+08,0,0,0,15.77,0.04,32,0,0,0
1.7373e+05,1.2194e+08,0,0,0,15.77,0.04,32,0,0,0
1.7418e+05,1.2205e+08,0,0,0,15.77,0.04,32,0,0,0
1.746e+05,1.2215e+08,0,0,0,15.77,0.04,32,0,0,0
1.7502e+05,1.2226e+08,0,0,0,15.77,0.04,32,0,0,0
1.7543e+05,1.2236e+08,0,0,0,15.77,0.04,32,0,0,0
1.7588e+05,1.2248e+08,0,0,0,15.77,0.04,32,0,0,0
1.7629e+05,1.2258e+08,0,0,0,15.77,0.04,32,0,0,0
1.7674e+05,1.2269e+08,0,0,0,15.77,0.04,32,0,0,0
1.7716e+05,1.2279e+08,0,0,0,15.78,0.04,32,0,0,0
1.7758e+05,1.229e+08,0,0,0,15.77,0.04,32,0,0,0
1.7799e+05,1.23e+08,0,0,0,15.77,0.04,32,0,0,0
1.7844e+05,1.2311e+08,0,0,0,15.77,0.04,32,0,0,0
1.7889e+05,1.2322e+08,0,0,0,15.77,0.04,32,0,0,0
1.7931e+05,1.2333e+08,0,0,0,15.77,0.04,32,0,0,0
1.7972e+05,1.2343e+08,0,0,0,15.77,0.04,32,0,0,0
1.8014e+05,1.2354e+08,0,0,0,15.77,0.04,32,0,0,0
1.8059e+05,1.2365e+08,0,0,0,15.77,0.03,32,0,0,0
1.81e+05,1.2376e+08,0,0,0,15.77,0.03,32,0,0,0
1.8142e+05,1.2386e+08,0,0,0,15.77,0.04,32,0,0,0
1.8187e+05,1.2397e+08,0,0,0,15.77,0.04,32,0,0,0
1.8232e+05,1.2408e+08,0,0,0,15.77,0.04,32,0,0,0
1.8273e+05,1.2419e+08,0,0,0,15.77,0.04,32,0,0,0
1.8315e+05,1.2429e+08,0,0,0,15.77,0.04,32,0,0,0
1.8356e+05,1.244e+08,0,0,0,15.77,0.04,32,0,0,0
1.8402e+05,1.2451e+08,0,0,0,15.77,0.04,32,0,0,0
1.8443e+05,1.2461e+08,0,0,0,15.77,0.04,32,0,0,0
1.8488e+05,1.2472e+08,0,0,0,15.77,0.04,32,0,0,0
1.8533e+05,1.2484e+08,0,0,0,15.77,0.03,32,0,0,0
1.8575e+05,1.2494e+08,0,0,0,15.77,0.04,32,0,0,0
1.8616e+05,1.2504e+08,0,0,0,15.77,0.04,32,0,0,0
1.8657e+05,1.2515e+08,0,0,0,15.77,0.04,32,0,0,0
1.8699e+05,1.2525e+08,0,0,0,15.77,0.04,32,0,0,0
1.8744e+05,1.2537e+08,0,0,0,15.77,0.04,32,0,0,0
1.8786e+05,1.2548e+08,0,0,0,15.77,0.04,32,0,0,0
1.8828e+05,1.2558e+08,0,0,0,15.77,0.04,32,0,0,0
1.8869e+05,1.2569e+08,0,0,0,15.77,0.04,32,0,0,0
1.8915e+05,1.258e+08,0,0,0,15.77,0.04,32,0,0,0
1.8956e+05,1.259e+08,0,0,0,15.77,0.04,32,0,0,0
1.9002e+05,1.2601e+08,0,0,0,15.77,0.04,32,0,0,0
1.9043e+05,1.2612e+08,0,0,0,15.77,0.04,32,0,0,0
1.9084e+05,1.2623e+08,0,0,0,15.77,0.04,32,0,0,0
1.9126e+05,1.2633e+08,0,0,0,15.77,0.04,32,0,0,0
1.9212e+05,1.2655e+08,0,0,0,15.77,0.04,32,0,0,0
1.9254e+05,1.2665e+08,0,0,0,15.77,0.04,32,0,0,0
1.93e+05,1.2676e+08,0,0,0,15.77,0.04,32,0,0,0
1.9376e+05,1.2698e+08,0,0,0,15.77,0.04,32,0,0,0
1.9418e+05,1.2708e+08,0,0,0,15.77,0.04,32,0,0,0
1.9463e+05,1.272e+08,0,0,0,15.77,0.04,32,0,0,0
1.9505e+05,1.273e+08,0,0,0,15.77,0.04,32,0,0,0
1.9546e+05,1.2741e+08,0,0,0,15.77,0.04,32,0,0,0
1.9588e+05,1.2751e+08,0,0,0,15.77,0.04,32,0,0,0
1.9679e+05,1.2774e+08,0,0,0,15.77,0.04,32,0,0,0
1.972e+05,1.2784e+08,0,0,0,15.77,0.04,32,0,0,0
1.9761e+05,1.2795e+08,0,0,0,15.77,0.04,32,0,0,0
1.9806e+05,1.2806e+08,0,0,0,15.77,0.04,32,0,0,0
1.9841e+05,1.7388e+08,0,0,0,15.77,0.04,32,1,0,0
1.9874e+05,1.7396e+08,0,0,0,15.77,0.04,32,1,0,0
1.992e+05,1.7407e+08,0,0,0,15.77,0.04,32,1,0,0
1.9965e+05,1.7417e+08,0,0,0,15.77,0.04,32,1,0,0
2.0015e+05,1.7429e+08,0,0,0,15.77,0.04,32,1,0,0
2.006e+05,1.7439e+08,0,0,0,15.77,0.04,32,1,0,0
2.0106e+05,1.745e+08,0,0,0,15.77,0.04,32,1,0,0
2.0156e+05,1.7461e+08,0,0,0,15.77,0.04,32,1,0,0
2.0196e+05,1.747e+08,0,0,0,15.77,0.04,32,1,0,0
2.0246e+05,1.7481e+08,0,0,0,15.77,0.04,32,1,0,0
2.0292e+05,1.7492e+08,0,0,0,15.77,0.04,32,1,0,0
2.0338e+05,1.7503e+08,0,0,0,15.77,0.04,32,1,0,0
2.0384e+05,1.7514e+08,0,0,0,15.77,0.04,32,1,0,0
2.0429e+05,1.7524e+08,0,0,0,15.77,0.04,32,1,0,0
2.0475e+05,1.7535e+08,0,0,0,15.77,0.04,32,1,0,0
2.052e+05,1.7545e+08,0,0,0,15.77,0.04,32,1,0,0
2.0569e+05,1.7557e+08,0,0,0,15.77,0.04,32,1,0,0
2.0614e+05,1.7567e+08,0,0,0,15.77,0.04,32,1,0,0
2.0661e+05,1.7578e+08,0,0,0,15.77,0.04,32,1,0,0
2.0706e+05,1.7588e+08,0,0,0,15.77,0.04,32,1,0,0
2.0756e+05,1.7599e+08,0,0,0,15.77,0.04,32,1,0,0
2.0801e+05,1.761e+08,0,38,457,15.75,0.09,32,1,0,0
2.0846e+05,1.762e+08,0,465,928,15.74,0.15,32,1,0,0
2.0892e+05,1.763e+08,0,932,1157,15.75,0.13,32,1,0,0
2.0941e+05,1.7641e+08,0,1160,1242,15.75,0.12,32,1,0,0
2.0971e+05,1.7652e+08,0,1243,1271,15.75,0.11,32,1,0,0
2.1022e+05,1.7663e+08,0,1271,1271,15.76,0.11,32,1,0,0
2.1062e+05,1.7673e+08,0,1271,1285,15.75,0.11,32,1,0,0
2.1113e+05,1.7684e+08,0,1285,1285,15.75,0.11,32,1,0,0
2.1158e+05,1.7695e+08,0,1285,1285,15.75,0.11,32,1,0,0
2.1211e+05,1.7706e+08,0,1285,1285,15.75,0.11,32,1,0,0
2.1257e+05,1.7717e+08,0,1285,1285,15.76,0.11,32,1,0,0
2.1302e+05,1.7727e+08,0,1285,1285,15.75,0.11,32,1,0,0
2.1348e+05,1.7738e+08,0,1285,1285,15.75,0.11,33,1,0,0
2.1394e+05,1.7749e+08,0,1285,1285,15.75,0.11,32,1,0,0
2.1439e+05,1.7759e+08,0,1285,1285,15.76,0.11,32,1,0,0
2.1484e+05,1.7769e+08,0,1285,1285,15.75,0.11,33,1,0,0
2.1535e+05,1.778e+08,0,1285,1285,15.76,0.11,32,1,0,0
2.158e+05,1.7791e+08,0,1285,1285,15.75,0.11,32,1,0,0
2.1626e+05,1.7801e+08,0,1285,1285,15.75,0.11,32,1,0,0
2.1675e+05,1.7813e+08,0,1285,1285,15.75,0.11,32,1,0,0
2.1721e+05,1.7823e+08,0,1285,1285,15.75,0.11,33,1,0,0
2.1766e+05,1.7834e+08,0,1285,1285,15.75,0.11,32,1,0,0
2.1816e+05,1.7845e+08,0,1285,1285,15.75,0.11,33,1,0,0
2.1861e+05,1.7855e+08,0,1285,1285,15.75,0.11,33,1,0,0
2.1907e+05,1.7866e+08,0,1284,1271,15.75,0.11,33,1,0,0
2.1957e+05,1.7877e+08,0,1272,1285,15.75,0.11,32,1,0,0
2.2001e+05,1.7887e+08,0,1284,1271,15.75,0.11,33,1,0,0
2.2047e+05,1.7898e+08,0,1271,1285,15.74,0.11,33,1,0,0
2.2092e+05,1.7909e+08,0,1285,1285,15.76,0.11,33,1,0,0
2.2142e+05,1.792e+08,0,1285,1285,15.75,0.11,33,1,0,0
2.2187e+05,1.793e+08,0,1285,1285,15.75,0.1,33,1,0,0
2.2236e+05,1.7941e+08,0,1285,1285,15.75,0.11,32,1,0,0
2.2282e+05,1.7952e+08,0,1285,1285,15.75,0.11,33,1,0,0
2.2327e+05,1.7963e+08,0,1285,1285,15.75,0.11,33,1,0,0
2.2372e+05,1.7973e+08,0,1285,1285,15.75,0.11,33,1,0,0
2.2422e+05,1.7985e+08,0,1285,1285,15.75,0.11,33,1,0,0
2.2464e+05,1.7995e+08,0,1285,1285,15.75,0.11,33,1,0,0
2.2518e+05,1.8007e+08,0,1285,1285,15.75,0.11,33,1,0,0
2.2558e+05,1.8016e+08,0,1285,1285,15.75,0.11,33,1,0,0
2.2603e+05,1.8026e+08,0,1285,1285,15.75,0.11,33,1,0,0
2.2653e+05,1.8038e+08,0,1285,1285,15.75,0.11,33,1,0,0
2.2695e+05,1.8048e+08,0,1285,1285,15.75,0.1,33,1,0,0
2.2745e+05,1.806e+08,0,1285,1285,15.75,0.11,33,1,0,0
2.2787e+05,1.807e+08,0,1285,1285,15.75,0.11,32,1,0,0
2.2832e+05,1.808e+08,0,1285,1285,15.74,0.11,33,1,0,0
2.2973e+05,1.8113e+08,0,1285,1285,15.75,0.1,33,1,0,0
2.3023e+05,1.8125e+08,0,1285,1285,15.75,0.1,33,1,0,0
2.3068e+05,1.8135e+08,0,1285,1285,15.75,0.11,33,1,0,0
2.3114e+05,1.8146e+08,0,1285,1285,15.75,0.11,33,1,0,0
2.3159e+05,1.8157e+08,0,1285,1285,15.76,0.1,33,1,0,0
2.3204e+05,1.8167e+08,0,1285,1285,15.75,0.11,33,1,0,0
2.3254e+05,1.8179e+08,0,1285,1285,15.75,0.11,33,1,0,0
2.3296e+05,1.8189e+08,0,1285,1285,15.75,0.11,33,1,0,0
2.3346e+05,1.82e+08,0,1285,1285,15.75,0.11,33,1,0,0
2.3391e+05,1.8211e+08,0,1285,1285,15.75,0.11,33,1,0,0
2.3437e+05,1.8221e+08,0,1285,1285,15.75,0.11,33,1,0,0
2.3482e+05,1.8232e+08,0,1283,1271,15.75,0.11,33,1,0,0
2.3528e+05,1.8242e+08,0,1271,1271,15.75,0.11,33,1,0,0
2.3573e+05,1.8253e+08,0,1271,1285,15.75,0.11,33,1,0,0
2.3667e+05,1.8275e+08,0,1285,1285,15.75,0.11,33,1,0,0
2.3716e+05,1.8286e+08,0,1285,1285,15.75,0.11,33,1,0,0
2.3762e+05,1.8296e+08,0,1285,1285,15.75,0.11,33,1,0,0
2.3812e+05,1.8308e+08,0,1283,1271,15.75,0.11,33,1,0,0
2.3857e+05,1.8318e+08,0,1271,1271,15.75,0.11,33,1,0,0
2.3902e+05,1.8329e+08,0,1271,1271,15.75,0.11,33,1,0,0
2.3951e+05,1.834e+08,0,1271,1285,15.75,0.11,33,1,0,0
2.4043e+05,1.8362e+08,0,1284,1271,15.74,0.11,33,1,0,0
2.4138e+05,1.8383e+08,0,1271,1285,15.75,0.1,33,1,0,0
2.4233e+05,1.8406e+08,0,1216,0,15.76,0.03,33,1,0,0
2.4278e+05,1.8417e+08,0,0,0,15.77,0.04,33,1,0,0
2.4324e+05,1.8428e+08,0,0,0,15.77,0.04,33,1,0,0
2.4369e+05,1.8438e+08,0,0,0,15.76,0.04,33,1,0,0
2.4414e+05,1.8449e+08,0,0,0,15.76,0.04,33,1,0,0
2.446e+05,1.846e+08,0,0,0,15.76,0.04,33,1,0,0
2.4505e+05,1.8471e+08,0,0,0,15.77,0.04,33,1,0,0
2.455e+05,1.8482e+08,0,0,0,15.76,0.04,33,1,0,0
2.46e+05,1.8493e+08,0,0,0,15.77,0.04,33,1,0,0
2.4646e+05,1.8504e+08,0,0,0,15.76,0.04,33,1,0,0
2.469e+05,1.8514e+08,0,0,0,15.77,0.04,33,1,0,0
2.4736e+05,1.8526e+08,0,0,0,15.77,0.04,33,1,0,0
2.4782e+05,1.8536e+08,0,0,0,15.76,0.04,33,1,0,0
2.4823e+05,1.8546e+08,0,0,0,15.76,0.04,33,1,0,0
2.4873e+05,1.8558e+08,0,0,0,15.76,0.04,33,1,0,0
2.4918e+05,1.8569e+08,0,0,0,15.76,0.04,33,1,0,0
2.4964e+05,1.858e+08,0,0,0,15.76,0.04,33,1,0,0
2.501e+05,1.8591e+08,0,0,0,15.76,0.04,33,1,0,0
2.5055e+05,1.8601e+08,0,0,0,15.76,0.05,33,1,0,0
2.5104e+05,1.8613e+08,0,0,0,15.76,0.05,33,1,0,0
2.515e+05,1.8623e+08,0,0,0,15.76,0.04,33,1,0,0
2.519e+05,1.8633e+08,0,0,0,15.76,0.04,32,1,0,0
2.524e+05,1.8645e+08,0,0,0,15.77,0.04,33,1,0,0
2.5285e+05,1.8655e+08,0,0,0,15.76,0.04,33,1,0,0
2.533e+05,1.8666e+08,0,0,0,15.77,0.04,32,1,0,0
2.538e+05,1.8678e+08,0,0,0,15.76,0.04,32,1,0,0
2.5422e+05,1.8688e+08,0,0,0,15.77,0.04,33,1,0,0
2.5472e+05,1.87e+08,0,0,0,15.76,0.04,33,1,0,0
2.5517e+05,1.8711e+08,0,0,0,15.76,0.05,33,1,0,0
2.5563e+05,1.8721e+08,0,0,0,15.76,0.04,33,1,0,0
2.5608e+05,1.8732e+08,0,0,0,15.76,0.04,33,1,0,0
2.5658e+05,1.8743e+08,0,0,0,15.76,0.04,32,1,0,0
2.5703e+05,1.8754e+08,0,0,0,15.77,0.04,33,1,0,0
2.5753e+05,1.8766e+08,0,0,0,15.77,0.04,33,1,0,0
2.5798e+05,1.8776e+08,0,0,0,15.77,0.04,33,1,0,0
2.584e+05,1.8786e+08,0,0,0,15.76,0.04,33,1,0,0
2.5885e+05,1.8796e+08,0,0,0,15.76,0.04,33,1,0,0
2.5936e+05,1.8808e+08,0,0,0,15.76,0.04,33,1,0,0
2.5981e+05,1.8819e+08,0,0,0,15.77,0.05,32,1,0,0
2.6026e+05,1.883e+08,0,0,0,15.77,0.05,33,1,0,0
2.6072e+05,1.884e+08,0,0,0,15.76,0.04,33,1,0,0
2.6121e+05,1.8852e+08,0,0,0,15.76,0.04,33,1,0,0
2.6166e+05,1.8862e+08,0,0,0,15.76,0.04,33,1,0,0
2.6212e+05,1.8872e+08,0,0,0,15.77,0.04,33,1,0,0
2.6262e+05,1.8884e+08,0,0,0,15.76,0.04,33,1,0,0
2.6307e+05,1.8895e+08,0,0,0,15.76,0.04,33,1,0,0
2.6353e+05,1.8905e+08,0,0,0,15.76,0.04,33,1,0,0
2.6398e+05,1.8916e+08,0,0,0,15.77,0.03,33,1,0,0
2.6448e+05,1.8927e+08,0,8,142,15.75,0.07,33,1,0,0
2.649e+05,1.8937e+08,0,151,728,15.74,0.12,33,1,0,0
2.6539e+05,1.8948e+08,0,751,1114,15.73,0.16,33,1,0,0
2.6584e+05,1.8959e+08,0,1118,1214,15.75,0.12,32,1,0,0
2.663e+05,1.897e+08,0,1216,1242,15.75,0.11,33,1,0,0
2.6676e+05,1.898e+08,0,1242,1285,15.75,0.11,33,1,0,0
2.6724e+05,1.8991e+08,0,1285,1285,15.75,0.11,33,1,0,0
2.677e+05,1.9002e+08,0,1285,1285,15.74,0.11,33,1,0,0
2.6819e+05,1.9013e+08,0,1285,1285,15.75,0.11,33,1,0,0
2.6864e+05,1.9023e+08,0,1285,1285,15.75,0.11,33,1,0,0
2.6938e+05,1.9046e+08,0,1285,1285,15.75,0.1,33,1,0,0
2.7032e+05,1.9067e+08,0,1285,1285,15.75,0.1,33,1,0,0
2.7077e+05,1.9078e+08,0,1285,1285,15.75,0.11,33,1,0,0
2.7123e+05,1.9089e+08,0,1285,1285,15.75,0.1,33,1,0,0
2.7218e+05,1.9111e+08,0,1285,1285,15.75,0.1,33,1,0,0
2.7263e+05,1.9121e+08,0,1285,1285,15.74,0.11,33,1,0,0
2.7313e+05,1.9132e+08,0,1285,1285,15.75,0.1,33,1,0,0
2.7358e+05,1.9143e+08,0,1285,1285,15.75,0.1,33,1,0,0
2.7404e+05,1.9153e+08,0,1285,1285,15.75,0.1,33,1,0,0
2.7446e+05,1.9164e+08,0,1285,1285,15.75,0.11,33,1,0,0
2.7495e+05,1.9175e+08,0,1285,1285,15.75,0.11,33,1,0,0
2.7545e+05,1.9187e+08,0,1290,1342,15.72,0.15,33,1,0,0
2.7591e+05,1.9197e+08,0,1369,1671,15.59,0.51,33,1,0,0
2.7636e+05,1.9208e+08,0,1726,2314,15.65,0.54,33,1,0,0
2.7726e+05,1.9229e+08,0,2333,3114,15.59,1.64,33,1,0,0
2.7776e+05,1.9241e+08,0,3150,3642,15.39,1.68,33,1,0,0
2.7817e+05,1.9251e+08,0,3679,4157,15.34,1.99,33,1,0,0
2.7862e+05,1.9261e+08,0,4165,4685,15.1,3.31,33,1,0,0
2.7962e+05,1.9284e+08,0,4740,5714,14.92,4.1,33,1,0,0
2.8003e+05,1.9295e+08,0,5736,6228,14.94,4.03,33,2,0,0
2.8048e+05,1.9306e+08,0,6223,6142,15.05,3.52,33,2,0,0
2.8093e+05,1.9316e+08,0,6139,6100,15.1,3.84,33,2,0,0
2.8138e+05,1.9327e+08,0,6115,6342,15.07,3.95,33,2,0,0
2.8188e+05,1.9339e+08,0,6327,6171,15.12,3.96,33,2,0,0
2.8234e+05,1.935e+08,0,6160,6028,15.13,3.67,33,2,0,0
2.8278e+05,1.936e+08,0,6013,5828,15.08,3.52,33,2,0,0
2.8324e+05,1.9371e+08,0,5833,5900,15.14,3.55,33,2,0,0
2.8369e+05,1.9382e+08,0,5903,5985,15.07,3.99,33,3,0,0
2.8414e+05,1.9393e+08,0,5988,6071,14.99,4.3,33,3,0,0
2.8464e+05,1.9405e+08,0,6092,6228,14.98,4.24,33,3,0,0
2.8505e+05,1.9415e+08,0,6228,6228,15.02,4.33,33,3,0,0
2.86e+05,1.9437e+08,0,6230,6285,15.03,4.35,33,3,0,0
2.8641e+05,1.9447e+08,0,6286,6371,14.99,4.49,33,3,0,0
2.8691e+05,1.9459e+08,0,6373,6400,14.98,4.59,33,3,0,0
2.8736e+05,1.947e+08,0,6392,6314,14.97,4.2,33,4,0,0
2.8822e+05,1.9491e+08,0,6311,6228,15.03,4.11,33,4,0,0
2.8872e+05,1.9503e+08,0,6230,6257,14.96,4.37,33,4,0,0
2.8913e+05,1.9513e+08,0,6257,6271,14.95,4.56,34,4,0,0
2.8958e+05,1.9524e+08,0,6271,6271,14.99,4.32,34,4,0,0
2.9e+05,1.9534e+08,0,6273,6414,14.92,4.63,34,4,0,0
2.9053e+05,1.9546e+08,0,6403,6314,14.98,4.4,34,5,0,0
2.9094e+05,1.9556e+08,0,6314,6328,15.01,4.2,34,5,0,0
2.9189e+05,1.9579e+08,0,6319,6100,15.02,3.88,34,5,0,0
2.923e+05,1.9589e+08,0,6100,6114,15.01,3.95,34,5,0,0
2.9275e+05,1.96e+08,0,6117,6328,15.02,4.17,34,5,0,0
2.9373e+05,1.9623e+08,0,6316,6042,14.99,4.06,34,5,0,0
2.9418e+05,1.9633e+08,0,6052,6214,14.97,4.36,34,6,0,0
2.9509e+05,1.9655e+08,0,6216,6271,14.97,4.31,34,6,0,0
2.9554e+05,1.9666e+08,0,6277,6442,14.98,4.64,34,6,0,0
2.9603e+05,1.9678e+08,0,6433,6342,14.99,4.67,34,6,0,0
2.9647e+05,1.9689e+08,0,6346,6385,14.98,4.42,34,6,0,0
2.9691e+05,1.97e+08,0,6371,6214,15.06,4.18,34,6,0,0
2.9732e+05,1.971e+08,0,6209,6171,15.07,4.08,34,6,0,0
2.9777e+05,1.9721e+08,0,6169,6042,15.03,4,34,7,0,0
2.9822e+05,1.9732e+08,0,6061,6228,15.01,4.12,34,7,0,0
2.9867e+05,1.9743e+08,0,6214,6028,15.05,3.84,34,7,0,0
2.9911e+05,1.9754e+08,0,6034,6085,15.04,4.08,34,7,0,0
2.9951e+05,1.9764e+08,0,6084,6071,15.02,3.94,34,7,0,0
2.9996e+05,1.9776e+08,0,6069,6042,14.95,4.22,34,7,0,0
3.004e+05,1.9787e+08,0,6053,6142,15.02,3.98,34,7,0,0
3.0086e+05,1.9798e+08,0,6127,6014,14.94,4.03,34,7,0,0
3.013e+05,1.9809e+08,0,6019,6057,15.01,3.92,34,8,0,0
3.0174e+05,1.982e+08,0,6058,6100,15.01,3.89,34,8,0,0
3.0219e+05,1.9831e+08,0,6096,6071,15.01,4.06,34,8,0,0
3.0264e+05,1.9842e+08,0,6091,6257,15,4.19,34,8,0,0
3.0304e+05,1.9852e+08,0,6253,6214,14.95,4.2,34,8,0,0
3.0389e+05,1.9873e+08,0,6213,6114,14.95,4.21,34,8,0,0
3.0439e+05,1.9885e+08,0,6136,6328,14.98,4.16,34,8,0,0
3.0478e+05,1.9895e+08,0,6309,6157,14.88,4.65,34,9,0,0
3.0527e+05,1.9907e+08,0,6165,6300,14.95,4.37,34,9,0,0
3.0568e+05,1.9917e+08,0,6292,6228,14.96,4.14,34,9,0,0
3.0698e+05,1.9949e+08,0,6228,6228,14.94,4.17,34,9,0,0
3.0743e+05,1.996e+08,0,6225,6200,14.92,4.21,34,9,0,0
3.0784e+05,1.9971e+08,0,6197,6171,14.92,4.38,34,9,0,0
3.0829e+05,1.9981e+08,0,6178,6257,15,4.11,34,10,0,0
3.087e+05,1.9992e+08,0,6264,6328,14.97,4.19,34,10,0,0
3.0915e+05,2.0003e+08,0,6313,6171,14.98,4.09,34,10,0,0
3.0955e+05,2.0013e+08,0,6174,6242,14.95,4.11,35,10,0,0
3.1048e+05,2.0036e+08,0,6235,6128,14.95,4.11,35,10,0,0
3.1093e+05,2.0047e+08,0,6137,6214,14.98,4.09,35,10,0,0
3.1134e+05,2.0057e+08,0,6217,6414,14.93,4.63,35,10,0,0
3.1178e+05,2.0068e+08,0,6411,6357,14.89,4.46,35,11,0,0
3.1227e+05,2.008e+08,0,6363,6500,14.85,4.78,35,11,0,0
3.1271e+05,2.009e+08,0,6494,6442,14.87,4.63,35,11,0,0
3.1316e+05,2.0102e+08,0,6442,6442,14.89,4.58,35,11,0,0
3.136e+05,2.0113e+08,0,6438,6400,14.89,4.76,35,11,0,0
3.1405e+05,2.0123e+08,0,6400,6400,14.86,4.6,35,11,0,0
3.1486e+05,2.0144e+08,0,6398,6242,14.81,4.54,35,12,0,0
3.1531e+05,2.0155e+08,0,6247,6471,14.88,4.82,35,12,0,0
3.1583e+05,2.0167e+08,0,6476,6557,14.89,4.77,35,12,0,0
3.1668e+05,2.0189e+08,0,6554,6328,14.97,4.13,35,12,0,0
3.1713e+05,2.02e+08,0,6312,6157,15,3.99,35,12,0,0
3.1842e+05,2.0232e+08,0,6155,6014,14.92,3.93,35,13,0,0
3.1892e+05,2.0243e+08,0,6009,5957,14.95,3.79,35,13,0,0
3.1932e+05,2.0254e+08,0,5955,5885,14.92,3.75,35,13,0,0
3.1977e+05,2.0265e+08,0,5905,6128,14.9,4.02,35,13,0,0
3.2018e+05,2.0276e+08,0,6136,6257,14.89,4.04,35,13,0,0
3.2107e+05,2.0297e+08,0,6257,6285,14.91,4.14,35,13,0,0
3.2151e+05,2.0308e+08,0,6285,6300,14.88,4.14,35,13,0,0
3.224e+05,2.0329e+08,0,6299,6228,14.86,4.4,35,14,0,0
3.2289e+05,2.0342e+08,0,6228,6228,14.87,4.5,35,14,0,0
3.233e+05,2.0352e+08,0,6229,6300,14.88,4.33,35,14,0,0
3.2374e+05,2.0362e+08,0,6300,6314,14.9,4.34,35,14,0,0
3.2423e+05,2.0375e+08,0,6299,6142,14.92,4.4,35,14,0,0
3.2468e+05,2.0385e+08,0,6157,6500,14.88,4.6,35,14,0,0
3.2513e+05,2.0396e+08,0,6490,6400,14.86,4.47,35,15,0,0
3.2556e+05,2.0407e+08,0,6395,6300,14.86,4.36,35,15,0,0
3.2601e+05,2.0418e+08,0,6298,6285,14.85,4.44,35,15,0,0
3.2642e+05,2.0428e+08,0,6303,6557,14.86,4.52,35,15,0,0
3.2687e+05,2.0439e+08,0,6540,6371,14.87,4.67,35,15,0,0
3.2731e+05,2.045e+08,0,6365,6314,14.89,4.33,35,15,0,0
3.2775e+05,2.0461e+08,0,6316,6342,14.82,4.76,35,15,0,0
3.282e+05,2.0472e+08,0,6342,6342,14.86,4.42,35,16,0,0
3.2861e+05,2.0482e+08,0,6346,6442,14.84,4.86,35,16,0,0
3.2905e+05,2.0493e+08,0,6439,6385,14.85,4.6,35,16,0,0
3.2946e+05,2.0503e+08,0,6386,6428,14.81,4.35,35,16,0,0
3.2991e+05,2.0515e+08,0,6413,6228,14.75,4.37,35,16,0,0
3.3036e+05,2.0526e+08,0,6247,6428,14.81,4.99,35,16,0,0
3.307e+05,2.0548e+08,0,6537,6442,14.82,4.98,35,16,0,0
3.3114e+05,2.0558e+08,0,6449,6600,14.76,5.61,35,17,0,0
3.3158e+05,2.0569e+08,0,6604,6657,14.85,5.21,35,17,0,0
3.3204e+05,2.058e+08,0,6649,6557,14.88,4.78,35,17,0,0
3.3248e+05,2.0591e+08,0,6561,6628,14.85,5.09,35,17,0,0
3.3338e+05,2.0613e+08,0,6622,6500,14.92,4.86,36,17,0,0
3.3384e+05,2.0624e+08,0,6479,6271,14.92,4.07,35,18,0,0
3.3428e+05,2.0635e+08,0,6257,6128,14.94,4.05,35,18,0,0
3.3473e+05,2.0646e+08,0,6133,6185,14.93,3.89,35,18,0,0
3.3513e+05,2.0656e+08,0,6180,6100,14.86,4,36,18,0,0
3.3553e+05,2.0666e+08,0,6101,6200,14.92,3.75,35,18,0,0
3.3599e+05,2.0678e+08,0,6203,6257,14.89,4.31,36,18,0,0
3.3643e+05,2.0689e+08,0,6241,6042,14.82,3.67,36,18,0,0
3.3728e+05,2.071e+08,0,6044,6285,14.76,4.56,36,19,0,0
3.3822e+05,2.0733e+08,0,6281,6200,14.88,3.95,36,19,0,0
3.3863e+05,2.0743e+08,0,6200,6214,14.89,3.77,36,19,0,0
3.3903e+05,2.0753e+08,0,6205,6028,14.87,3.8,36,19,0,0
3.3997e+05,2.0776e+08,0,6030,6114,14.9,4.14,36,19,0,0
3.4043e+05,2.0787e+08,0,6124,6228,14.85,4.27,36,19,0,0
3.4083e+05,2.0797e+08,0,6231,6314,14.85,4.59,36,19,0,0
3.4124e+05,2.0808e+08,0,6318,6385,14.79,4.56,36,20,0,0
3.4169e+05,2.0819e+08,0,6384,6342,14.86,4.42,36,20,0,0
3.421e+05,2.083e+08,0,6342,6342,14.89,4.14,36,20,0,0
3.4259e+05,2.0841e+08,0,6338,6300,14.88,4.2,36,20,0,0
3.4299e+05,2.0851e+08,0,6299,6285,14.75,4.59,36,20,0,0
3.4344e+05,2.0862e+08,0,6282,6100,14.86,5.46,36,20,0,0
3.4389e+05,2.0873e+08,0,6104,6171,14.88,3.87,36,20,0,0
3.4434e+05,2.0884e+08,0,6172,6285,14.94,4.1,36,21,0,0
3.4478e+05,2.0895e+08,0,6294,6385,14.88,4.67,36,21,0,0
3.4523e+05,2.0906e+08,0,6386,6400,14.82,4.34,36,21,0,0
3.4568e+05,2.0917e+08,0,6399,6385,14.86,4.52,36,21,0,0
3.4608e+05,2.0927e+08,0,6380,6285,14.85,4.4,36,21,0,0
3.4653e+05,2.0938e+08,0,6293,6485,14.79,5.11,36,21,0,0
3.4697e+05,2.0949e+08,0,6480,6314,14.85,4.28,36,21,0,0
3.4743e+05,2.096e+08,0,6313,6300,14.85,3.9,36,21,0,0
3.4783e+05,2.097e+08,0,6304,6471,14.8,5.01,36,22,0,0
3.4833e+05,2.0982e+08,0,6473,6500,14.82,4.69,36,22,0,0
3.4873e+05,2.0992e+08,0,6493,6342,14.77,4.33,36,22,0,0
3.4918e+05,2.1003e+08,0,6344,6385,14.85,4.36,36,22,0,0
3.4963e+05,2.1014e+08,0,6382,6342,14.79,4.86,36,22,0,0
3.5008e+05,2.1025e+08,0,6364,6657,14.81,4.96,36,22,0,0
3.5048e+05,2.1035e+08,0,6652,6528,14.92,4.02,36,22,0,0
3.5097e+05,2.1047e+08,0,6523,6228,14.95,4.14,36,23,0,0
3.5141e+05,2.1057e+08,0,6226,6200,14.79,4.39,36,23,0,0
3.5186e+05,2.1069e+08,0,6198,6185,14.82,4.31,36,23,0,0
3.5227e+05,2.1079e+08,0,6185,6185,14.82,4.42,36,23,0,0
3.5272e+05,2.109e+08,0,6185,6185,14.76,4.34,36,23,0,0
3.5316e+05,2.1101e+08,0,6184,6171,14.75,4.06,36,23,0,0
3.5361e+05,2.1112e+08,0,6164,6114,14.76,4.13,36,23,0,0
3.5402e+05,2.1122e+08,0,6118,6228,14.76,4.43,36,24,0,0
3.5446e+05,2.1133e+08,0,6228,6228,14.75,4.19,36,24,0,0
3.5495e+05,2.1145e+08,0,6235,6285,14.76,4.22,36,24,0,0
3.5535e+05,2.1155e+08,0,6283,6257,14.76,4.35,36,24,0,0
3.5625e+05,2.1177e+08,0,6260,6400,14.7,4.81,36,24,0,0
3.5669e+05,2.1188e+08,0,6400,6428,14.74,4.45,36,24,0,0
3.5717e+05,2.1199e+08,0,6427,6414,14.73,4.98,36,24,0,0
3.5758e+05,2.1209e+08,0,6411,6271,14.7,4.27,36,25,0,0
3.5803e+05,2.1221e+08,0,6275,6485,14.73,4.56,36,25,0,0
3.5849e+05,2.1232e+08,0,6490,6542,14.71,4.83,36,25,0,0
3.5893e+05,2.1243e+08,0,6518,6314,14.73,4.05,36,25,0,0
3.5938e+05,2.1254e+08,0,6303,6228,14.78,4.52,36,25,0,0
3.6027e+05,2.1275e+08,0,6228,6228,14.73,4.29,36,25,0,0
3.6072e+05,2.1287e+08,0,6238,6328,14.74,4.31,36,26,0,0
3.6113e+05,2.1297e+08,0,6333,6442,14.69,4.32,36,26,0,0
3.6157e+05,2.1308e+08,0,6439,6314,14.71,4.38,36,26,0,0
3.6202e+05,2.1319e+08,0,6301,6157,14.77,4.13,36,26,0,0
3.6243e+05,2.1329e+08,0,6160,6271,14.67,4.34,36,26,0,0
3.6288e+05,2.134e+08,0,6264,6171,14.67,4.38,36,26,0,0
3.6332e+05,2.1351e+08,0,6187,6400,14.68,4.76,37,26,0,0
3.6377e+05,2.1362e+08,0,6403,6457,14.67,4.51,36,26,0,0
3.6422e+05,2.1373e+08,0,6440,6271,14.67,4.54,36,27,0,0
3.6463e+05,2.1383e+08,0,6272,6400,14.68,4.56,36,27,0,0
3.6512e+05,2.1395e+08,0,6402,6442,14.69,4.52,37,27,0,0
3.6557e+05,2.1406e+08,0,6447,6500,14.72,5.16,36,27,0,0
3.6597e+05,2.1416e+08,0,6500,6500,14.75,4.81,37,27,0,0
3.6646e+05,2.1428e+08,0,6505,6571,14.76,4.82,37,27,0,0
3.6686e+05,2.1438e+08,0,6567,6485,14.81,4.12,37,27,0,0
3.673e+05,2.1449e+08,0,6481,6314,14.72,4.73,37,28,0,0
3.678e+05,2.1461e+08,0,6320,6414,14.69,4.5,36,28,0,0
3.6824e+05,2.1472e+08,0,6404,6271,14.7,4.46,37,28,0,0
3.687e+05,2.1483e+08,0,6271,6271,14.75,3.98,37,28,0,0
3.6914e+05,2.1494e+08,0,6279,6357,14.73,4.3,37,28,0,0
3.6955e+05,2.1503e+08,0,6353,6185,14.71,4.13,37,28,0,0
3.7047e+05,2.1526e+08,0,6189,6285,14.7,4.35,37,28,0,0
3.7092e+05,2.1537e+08,0,6287,6328,14.7,4.35,37,29,0,0
3.7134e+05,2.1547e+08,0,6328,6342,14.66,4.63,37,29,0,0
3.7183e+05,2.1559e+08,0,6349,6428,14.65,4.79,37,29,0,0
3.7268e+05,2.158e+08,0,6429,6500,14.73,4.51,37,29,0,0
3.7313e+05,2.1591e+08,0,6492,6314,14.75,4.18,37,29,0,0
3.7358e+05,2.1602e+08,0,6313,6271,14.71,4.56,37,29,0,0
3.7403e+05,2.1613e+08,0,6272,6342,14.72,4.45,37,30,0,0
3.7448e+05,2.1624e+08,0,6339,6228,14.72,4.62,37,30,0,0
3.7541e+05,2.1647e+08,0,6236,6414,14.64,4.51,37,30,0,0
3.7582e+05,2.1657e+08,0,6414,6414,14.64,4.6,37,30,0,0
3.7626e+05,2.1668e+08,0,6419,6471,14.64,4.73,37,30,0,0
3.7671e+05,2.1679e+08,0,6471,6471,14.71,4.76,37,30,0,0
3.7712e+05,2.1689e+08,0,6470,6457,14.64,4.63,37,31,0,0
3.776e+05,2.17e+08,0,6458,6485,14.69,4.62,37,31,0,0
3.7804e+05,2.1711e+08,0,6488,6628,14.63,5.14,37,31,0,0
3.785e+05,2.1722e+08,0,6634,6714,14.71,5.06,37,31,0,0
3.7895e+05,2.1733e+08,0,6692,6485,14.72,4.44,37,31,0,0
3.7943e+05,2.1745e+08,0,6475,6414,14.72,4.74,37,31,0,0
3.7984e+05,2.1755e+08,0,6419,6542,14.72,5.2,37,31,0,0
3.8028e+05,2.1766e+08,0,6543,6642,14.7,4.76,37,32,0,0
3.8073e+05,2.1776e+08,0,6642,6642,14.71,4.94,37,32,0,0
3.8122e+05,2.1788e+08,0,6643,6657,14.69,4.7,37,32,0,0
3.8162e+05,2.1798e+08,0,6649,6471,14.72,4.69,37,32,0,0
3.8207e+05,2.1809e+08,0,6471,6514,14.69,4.56,37,32,0,0
3.8256e+05,2.1821e+08,0,6504,6414,14.62,4.55,37,32,0,0
3.8296e+05,2.1831e+08,0,6415,6514,14.67,4.45,37,33,0,0
3.8345e+05,2.1842e+08,0,6512,6500,14.7,4.06,37,33,0,0
3.8385e+05,2.1852e+08,0,6497,6442,14.68,4.95,37,33,0,0
3.8435e+05,2.1864e+08,0,6454,6585,14.76,4.71,37,33,0,0
3.8475e+05,2.1874e+08,0,6578,6442,14.72,4.57,37,33,0,0
3.8565e+05,2.1896e+08,0,6440,6400,14.57,5.13,37,33,0,0
3.8609e+05,2.1907e+08,0,6428,6700,14.66,5.09,37,33,0,0
3.8654e+05,2.1918e+08,0,6698,6685,14.64,4.78,37,34,0,0
3.8743e+05,2.194e+08,0,6686,6714,14.67,4.96,37,34,0,0
3.8784e+05,2.195e+08,0,6710,6528,14.7,4.5,37,34,0,0
3.8828e+05,2.1961e+08,0,6525,6500,14.7,4.73,37,34,0,0
3.8873e+05,2.1972e+08,0,6497,6457,14.76,4.27,37,34,0,0
3.8918e+05,2.1983e+08,0,6455,6442,14.73,4.66,37,34,0,0
3.8958e+05,2.1993e+08,0,6433,6242,14.74,3.85,37,35,0,0
3.9004e+05,2.2005e+08,0,6240,6200,14.82,4.05,37,35,0,0
3.9048e+05,2.2015e+08,0,6202,6228,14.8,4.41,37,35,0,0
3.9096e+05,2.2027e+08,0,6226,6214,14.79,4.08,37,35,0,0
3.9182e+05,2.2049e+08,0,6210,6057,14.77,3.66,37,35,0,0
3.9227e+05,2.2059e+08,0,6056,6042,14.75,3.72,37,35,0,0
3.9271e+05,2.207e+08,0,6044,6071,14.75,3.91,37,35,0,0
3.9356e+05,2.2091e+08,0,6070,6057,14.8,3.87,37,36,0,0
3.9406e+05,2.2103e+08,0,6062,6114,14.73,3.91,37,36,0,0
3.9446e+05,2.2113e+08,0,6110,5971,14.68,3.88,37,36,0,0
3.9535e+05,2.2135e+08,0,5972,6000,14.72,3.85,37,36,0,0
3.958e+05,2.2146e+08,0,6006,6085,14.77,4.08,37,36,0,0
3.9622e+05,2.2157e+08,0,6086,6114,14.76,4.08,37,36,0,0
3.9665e+05,2.2167e+08,0,6114,6142,14.73,4.2,37,36,0,0
3.971e+05,2.2179e+08,0,6141,6128,14.72,4.19,37,37,0,0
3.9759e+05,2.219e+08,0,6147,6314,14.75,4.45,37,37,0,0
3.98e+05,2.22e+08,0,6312,6142,14.65,4.24,37,37,0,0
3.9845e+05,2.2212e+08,0,6143,6200,14.7,4.27,37,37,0,0
3.9893e+05,2.2223e+08,0,6228,6371,14.67,4.52,37,37,0,0
3.9926e+05,2.2233e+08,0,6373,6400,14.67,4.61,37,37,0,0
3.9972e+05,2.2254e+08,0,6454,6257,14.69,4.48,37,38,0,0
4.0017e+05,2.2264e+08,0,6259,6342,14.65,4.42,37,38,0,0
4.0061e+05,2.2275e+08,0,6345,6428,14.72,4.39,37,38,0,0
4.011e+05,2.2287e+08,0,6421,6357,14.73,4.56,37,38,0,0
4.015e+05,2.2297e+08,0,6359,6400,14.7,4.42,37,38,0,0
4.0195e+05,2.2308e+08,0,6390,6242,14.73,4.31,37,38,0,0
4.024e+05,2.2319e+08,0,6246,6342,14.74,4.3,37,38,0,0
4.0285e+05,2.233e+08,0,6331,6228,14.76,4.25,37,39,0,0
4.0329e+05,2.2341e+08,0,6231,6285,14.72,4.48,37,39,0,0
4.0415e+05,2.2362e+08,0,6284,6228,14.69,4.29,37,39,0,0
4.0504e+05,2.2384e+08,0,6228,6342,14.76,4.38,37,39,0,0
4.0548e+05,2.2395e+08,0,6339,6185,14.69,4.1,37,39,0,0
4.0593e+05,2.2406e+08,0,6188,6257,14.73,4.32,37,39,0,0
4.0638e+05,2.2417e+08,0,6258,6328,14.72,4.2,37,40,0,0
4.0682e+05,2.2427e+08,0,6328,6328,14.69,4.49,37,40,0,0
4.0731e+05,2.2439e+08,0,6329,6342,14.66,4.9,37,40,0,0
4.0775e+05,2.245e+08,0,6349,6428,14.67,4.63,37,40,0,0
4.0821e+05,2.2461e+08,0,6440,6571,14.68,4.89,37,40,0,0
4.0861e+05,2.2471e+08,0,6567,6485,14.72,4.96,37,40,0,0
4.091e+05,2.2483e+08,0,6484,6471,14.66,4.65,37,40,0,0
4.0996e+05,2.2504e+08,0,6469,6442,14.7,4.68,38,41,0,0
4.1041e+05,2.2515e+08,0,6438,6400,14.72,4.65,37,41,0,0
4.1081e+05,2.2525e+08,0,6398,6271,14.67,4.2,37,41,0,0
4.122e+05,2.2559e+08,0,6265,6085,14.74,4.14,37,41,0,0
4.1261e+05,2.2569e+08,0,6086,6128,14.73,4.17,38,42,0,0
4.1307e+05,2.2581e+08,0,6139,6257,14.67,4.37,38,42,0,0
4.1351e+05,2.2592e+08,0,6261,6328,14.65,4.18,38,42,0,0
4.1396e+05,2.2602e+08,0,6328,6342,14.64,4.56,37,42,0,0
4.144e+05,2.2613e+08,0,6345,6400,14.57,4.9,38,42,0,0
4.1485e+05,2.2625e+08,0,6417,6528,14.63,5.46,38,42,0,0
4.1529e+05,2.2635e+08,0,6530,6557,14.63,4.72,38,42,0,0
4.1571e+05,2.2646e+08,0,6550,6471,14.61,4.67,38,42,0,0
4.1612e+05,2.2656e+08,0,6466,6371,14.61,4.7,38,43,0,0
4.1657e+05,2.2668e+08,0,6366,6300,14.62,4.51,38,43,0,0
4.1702e+05,2.2678e+08,0,6310,6442,14.55,4.84,38,43,0,0
4.1742e+05,2.2689e+08,0,6443,6471,14.59,5,37,43,0,0
4.1836e+05,2.2711e+08,0,6469,6428,14.68,4.94,38,43,0,0
4.188e+05,2.2722e+08,0,6428,6442,14.79,3.69,37,43,0,0
4.1926e+05,2.2733e+08,0,6414,6057,14.77,3.66,38,44,0,0
4.197e+05,2.2744e+08,0,6050,6000,14.75,4.08,38,44,0,0
4.2015e+05,2.2755e+08,0,6013,6157,14.71,4.06,38,44,0,0
4.2063e+05,2.2767e+08,0,6153,6114,14.77,3.72,38,44,0,0
4.2108e+05,2.2778e+08,0,6103,6028,14.77,3.76,38,44,0,0
4.2145e+05,2.2787e+08,0,6029,6085,14.73,3.96,38,44,0,0
4.2194e+05,2.2799e+08,0,6103,6271,14.63,4.63,38,44,0,0
4.2239e+05,2.281e+08,0,6261,6200,14.64,4.67,38,45,0,0
4.2327e+05,2.2831e+08,0,6204,6328,14.71,4.31,38,45,0,0
4.2372e+05,2.2843e+08,0,6319,6185,14.72,4.49,38,45,0,0
4.2417e+05,2.2854e+08,0,6188,6228,14.66,4.49,38,45,0,0
4.2457e+05,2.2864e+08,0,6234,6357,14.67,4.32,38,45,0,0
4.2506e+05,2.2876e+08,0,6353,6314,14.65,4.37,38,45,0,0
4.2547e+05,2.2886e+08,0,6315,6357,14.74,4.35,38,45,0,0
4.2608e+05,2.2907e+08,0,6356,6328,14.74,4.13,38,46,0,0
4.2653e+05,2.2918e+08,0,6322,6214,14.73,4.23,38,46,0,0
4.2697e+05,2.2928e+08,0,6215,6285,14.66,4.06,38,46,0,0
4.2742e+05,2.294e+08,0,6265,6071,14.79,3.96,38,46,0,0
4.2786e+05,2.295e+08,0,6075,6171,14.71,4.24,38,46,0,0
4.2832e+05,2.2962e+08,0,6161,6071,14.73,4.34,38,46,0,0
4.2877e+05,2.2973e+08,0,6068,6042,14.75,4,38,46,0,0
4.2918e+05,2.2983e+08,0,6035,5957,14.79,3.81,38,47,0,0
4.2962e+05,2.2994e+08,0,5963,6157,14.71,4.47,38,47,0,0
4.3011e+05,2.3005e+08,0,6172,6385,14.72,4.71,38,47,0,0
4.3052e+05,2.3015e+08,0,6382,6328,14.72,4.55,38,47,0,0
4.3096e+05,2.3026e+08,0,6340,6485,14.77,4.37,38,47,0,0
4.3141e+05,2.3037e+08,0,6470,6200,14.8,4.34,38,47,0,0
4.3185e+05,2.3049e+08,0,6186,6057,14.73,4.01,38,47,0,0
4.323e+05,2.3059e+08,0,6068,6185,14.73,4.52,38,48,0,0
4.3274e+05,2.307e+08,0,6187,6228,14.71,4.24,38,48,0,0
4.332e+05,2.3081e+08,0,6237,6357,14.72,4.54,38,48,0,0
4.336e+05,2.3091e+08,0,6359,6442,14.75,4.81,38,48,0,0
4.3405e+05,2.3102e+08,0,6440,6314,14.66,4.29,38,48,0,0
4.345e+05,2.3113e+08,0,6313,6285,14.67,4.4,38,48,0,0
4.3494e+05,2.3124e+08,0,6284,6271,14.66,4.27,38,48,0,0
4.3539e+05,2.3135e+08,0,6271,6271,14.7,4.58,38,48,0,0
4.3583e+05,2.3147e+08,0,6292,6514,14.73,4.67,38,49,0,0
4.3628e+05,2.3158e+08,0,6493,6285,14.73,4.44,38,49,0,0
4.3668e+05,2.3168e+08,0,6297,6557,14.72,4.77,38,49,0,0
4.3713e+05,2.3179e+08,0,6556,6542,14.73,4.61,38,49,0,0
4.3754e+05,2.3189e+08,0,6540,6457,14.63,4.78,38,49,0,0
4.3803e+05,2.3201e+08,0,6450,6300,14.76,4.41,38,49,0,0
4.3848e+05,2.3212e+08,0,6288,6171,14.76,3.95,38,49,0,0
4.3892e+05,2.3223e+08,0,6171,6185,14.66,4.36,38,49,0,0
4.3937e+05,2.3234e+08,0,6199,6342,14.69,4.2,38,50,0,0
4.3982e+05,2.3245e+08,0,6346,6385,14.68,4.28,38,50,0,0
4.407e+05,2.3267e+08,0,6382,6342,14.67,4.69,38,50,0,0
4.416e+05,2.329e+08,0,6351,6557,14.73,4.66,38,50,0,0
4.4201e+05,2.33e+08,0,6554,6414,14.67,4.73,38,51,0,0
4.4245e+05,2.3311e+08,0,6419,6485,14.7,4.45,38,51,0,0
4.4294e+05,2.3322e+08,0,6481,6442,14.66,4.63,38,51,0,0
4.4334e+05,2.3332e+08,0,6441,6385,14.67,5.03,38,51,0,0
4.4379e+05,2.3343e+08,0,6397,6557,14.7,4.53,38,51,0,0
4.4424e+05,2.3354e+08,0,6546,6428,14.76,4.46,38,51,0,0
4.4468e+05,2.3365e+08,0,6412,6228,14.76,4.33,38,51,0,0
4.4513e+05,2.3376e+08,0,6231,6271,14.72,4.23,38,51,0,0
4.4554e+05,2.3386e+08,0,6272,6300,14.72,3.99,38,52,0,0
4.4598e+05,2.3397e+08,0,6298,6257,14.59,4.27,38,52,0,0
4.4642e+05,2.3408e+08,0,6272,6571,14.52,5.4,38,52,0,0
4.4687e+05,2.3419e+08,0,6579,6685,14.68,4.81,38,52,0,0
4.4732e+05,2.343e+08,0,6678,6528,14.67,4.67,38,52,0,0
4.4776e+05,2.3441e+08,0,6521,6357,14.73,4.09,38,52,0,0
4.4821e+05,2.3452e+08,0,6350,6257,14.72,4.23,38,52,0,0
4.4866e+05,2.3462e+08,0,6257,6257,14.67,4.61,38,53,0,0
4.491e+05,2.3474e+08,0,6260,6357,14.64,4.43,38,53,0,0
4.4955e+05,2.3484e+08,0,6357,6357,14.62,4.41,38,53,0,0
4.5003e+05,2.3496e+08,0,6359,6400,14.62,4.44,38,53,0,0
4.5044e+05,2.3506e+08,0,6401,6457,14.7,4.37,38,53,0,0
4.5089e+05,2.3517e+08,0,6437,6242,14.68,4.18,38,53,0,0
4.513e+05,2.3528e+08,0,6242,6242,14.66,4.34,38,53,0,0
4.5175e+05,2.3539e+08,0,6242,6257,14.75,4.05,38,53,0,0
4.5217e+05,2.3549e+08,0,6257,6271,14.74,3.63,38,54,0,0
4.5261e+05,2.356e+08,0,6260,6042,14.67,4.03,38,54,0,0
4.5306e+05,2.3571e+08,0,6048,6142,14.7,4.03,38,54,0,0
4.5351e+05,2.3582e+08,0,6144,6185,14.73,3.96,38,54,0,0
4.5395e+05,2.3593e+08,0,6185,6185,14.75,3.74,38,54,0,0
4.5441e+05,2.3604e+08,0,6183,6157,14.72,3.9,38,54,0,0
4.5484e+05,2.3614e+08,0,6155,6128,14.66,4.19,38,54,0,0
4.5533e+05,2.3626e+08,0,6140,6242,14.64,4.33,38,54,0,0
4.5578e+05,2.3637e+08,0,6244,6271,14.63,4.04,38,55,0,0
4.5618e+05,2.3648e+08,0,6275,6314,14.6,4.31,38,55,0,0
4.5663e+05,2.3658e+08,0,6316,6342,14.64,4.31,38,55,0,0
4.5752e+05,2.368e+08,0,6342,6357,14.67,4.5,38,55,0,0
4.58e+05,2.3692e+08,0,6346,6271,14.75,4.09,38,55,0,0
4.584e+05,2.3702e+08,0,6266,6200,14.66,4.39,38,55,0,0
4.5885e+05,2.3713e+08,0,6206,6257,14.6,4.49,38,55,0,0
4.5934e+05,2.3724e+08,0,6278,6500,14.63,4.73,38,56,0,0
4.5974e+05,2.3735e+08,0,6501,6585,14.55,4.77,38,56,0,0
4.6022e+05,2.3746e+08,0,6583,6571,14.56,5.12,38,56,0,0
4.6067e+05,2.3757e+08,0,6571,6571,14.53,5.01,38,56,0,0
4.6108e+05,2.3767e+08,0,6576,6685,14.55,5.12,38,56,0,0
4.6156e+05,2.3779e+08,0,6674,6585,14.57,5.03,38,56,0,0
4.6196e+05,2.3789e+08,0,6581,6514,14.56,4.97,38,57,0,0
4.6241e+05,2.38e+08,0,6514,6542,14.51,5.08,38,57,0,0
4.629e+05,2.3811e+08,0,6561,6828,14.65,5.24,38,57,0,0
4.6334e+05,2.3822e+08,0,6810,6642,14.67,4.85,38,57,0,0
4.6378e+05,2.3833e+08,0,6639,6600,14.63,4.82,38,57,0,0
4.6423e+05,2.3844e+08,0,6591,6471,14.52,5.24,38,57,0,0
4.6464e+05,2.3855e+08,0,6472,6585,14.55,5.06,38,57,0,0
4.6508e+05,2.3866e+08,0,6585,6585,14.57,4.76,38,58,0,0
4.6553e+05,2.3877e+08,0,6589,6657,14.54,5.04,38,58,0,0
4.6598e+05,2.3888e+08,0,6657,6657,14.6,4.91,38,58,0,0
4.6643e+05,2.3899e+08,0,6654,6628,14.48,5.15,38,58,0,0
4.6682e+05,2.3909e+08,0,6625,6571,14.58,4.82,38,58,0,0
4.6728e+05,2.392e+08,0,6571,6571,14.52,4.92,38,58,0,0
4.6772e+05,2.3931e+08,0,6564,6471,14.55,5.01,38,58,0,0
4.6861e+05,2.3953e+08,0,6473,6571,14.6,4.52,38,59,0,0
4.6906e+05,2.3964e+08,0,6568,6400,14.58,4.93,38,59,0,0
4.6991e+05,2.3985e+08,0,6404,6585,14.61,4.68,38,59,0,0
4.7036e+05,2.3996e+08,0,6585,6585,14.59,4.58,38,59,0,0
4.708e+05,2.4007e+08,0,6579,6485,14.58,4.7,38,60,0,0
4.7125e+05,2.4018e+08,0,6496,6614,14.6,4.72,38,60,0,0
4.7166e+05,2.4029e+08,0,6604,6371,14.63,4.53,38,60,0,0
4.721e+05,2.4039e+08,0,6377,6457,14.59,4.6,38,60,0,0
4.7255e+05,2.405e+08,0,6451,6371,14.66,4.64,38,60,0,0
4.73e+05,2.4061e+08,0,6380,6457,14.59,4.54,38,60,0,0
4.734e+05,2.4072e+08,0,6450,6300,14.63,4.51,38,60,0,0
4.7385e+05,2.4082e+08,0,6309,6428,14.58,4.57,38,60,0,0
4.743e+05,2.4094e+08,0,6437,6571,14.59,4.57,38,61,0,0
4.7475e+05,2.4104e+08,0,6555,6342,14.6,4.24,38,61,0,0
4.752e+05,2.4116e+08,0,6342,6342,14.59,4.71,38,61,0,0
4.7561e+05,2.4126e+08,0,6350,6485,14.58,4.75,38,61,0,0
4.7605e+05,2.4137e+08,0,6487,6514,14.61,4.72,38,61,0,0
4.7646e+05,2.4147e+08,0,6514,6514,14.57,4.6,38,61,0,0
4.7694e+05,2.4159e+08,0,6512,6471,14.55,4.6,38,61,0,0
4.7739e+05,2.417e+08,0,6474,6528,14.58,4.8,38,62,0,0
4.7784e+05,2.4181e+08,0,6520,6442,14.61,4.52,38,62,0,0
4.7824e+05,2.4191e+08,0,6447,6571,14.48,5.06,38,62,0,0
4.7869e+05,2.4202e+08,0,6565,6457,14.51,4.94,38,62,0,0
4.7914e+05,2.4213e+08,0,6473,6700,14.51,5.26,38,62,0,0
4.7959e+05,2.4224e+08,0,6702,6728,14.48,5.06,38,62,0,0
4.7999e+05,2.4234e+08,0,6726,6614,14.54,5.25,38,62,0,0
4.8044e+05,2.4245e+08,0,6615,6728,14.59,4.89,38,63,0,0
4.8093e+05,2.4257e+08,0,6703,6442,14.6,4.34,38,63,0,0
4.8134e+05,2.4268e+08,0,6443,6457,14.62,4.73,38,63,0,0
4.8226e+05,2.429e+08,0,6452,6314,14.62,4.21,38,63,0,0
4.8267e+05,2.43e+08,0,6314,6328,14.57,4.33,38,63,0,0
4.8312e+05,2.4311e+08,0,6335,6428,14.61,4.45,38,63,0,0
4.8356e+05,2.4322e+08,0,6413,6271,14.63,4.21,38,64,0,0
4.84e+05,2.4332e+08,0,6267,6185,14.69,4.05,38,64,0,0
4.8445e+05,2.4343e+08,0,6192,6357,14.6,4.29,38,64,0,0
4.8489e+05,2.4354e+08,0,6353,6300,14.61,4.1,38,64,0,0
4.8534e+05,2.4365e+08,0,6289,6200,14.72,3.98,38,64,0,0
4.8578e+05,2.4376e+08,0,6192,6114,14.69,3.61,38,64,0,0
4.8664e+05,2.4397e+08,0,6113,6085,14.65,3.76,38,64,0,0
4.8708e+05,2.4408e+08,0,6089,6185,14.67,3.75,38,65,0,0
4.8753e+05,2.4419e+08,0,6180,6071,14.63,3.95,38,65,0,0
4.8798e+05,2.443e+08,0,6076,6157,14.64,4.1,38,65,0,0
4.8843e+05,2.4441e+08,0,6160,6214,14.57,4.42,38,65,0,0
4.8888e+05,2.4453e+08,0,6223,6328,14.59,4.28,38,65,0,0
4.8932e+05,2.4464e+08,0,6326,6300,14.58,4.33,38,65,0,0
4.8977e+05,2.4474e+08,0,6311,6457,14.6,4.6,38,65,0,0
4.9021e+05,2.4485e+08,0,6451,6328,14.57,4.36,38,66,0,0
4.9067e+05,2.4496e+08,0,6328,6342,14.58,4.41,38,66,0,0
4.9107e+05,2.4507e+08,0,6344,6400,14.58,4.21,38,66,0,0
4.9152e+05,2.4518e+08,0,6401,6471,14.53,4.84,38,66,0,0
4.92e+05,2.4529e+08,0,6477,6571,14.64,4.58,38,66,0,0
4.9245e+05,2.454e+08,0,6559,6457,14.66,4.16,38,66,0,0
4.929e+05,2.4551e+08,0,6442,6300,14.55,4.27,38,66,0,0
4.9334e+05,2.4562e+08,0,6319,6557,14.65,4.64,38,66,0,0
4.9379e+05,2.4573e+08,0,6533,6328,14.58,4.4,38,67,0,0
4.9424e+05,2.4584e+08,0,6329,6342,14.62,4.26,38,67,0,0
4.9468e+05,2.4595e+08,0,6336,6300,14.6,4.22,38,67,0,0
4.9514e+05,2.4606e+08,0,6311,6414,14.58,4.48,38,67,0,0
4.9554e+05,2.4616e+08,0,6408,6285,14.6,4.46,38,67,0,0
4.9599e+05,2.4627e+08,0,6298,6428,14.6,4.37,38,67,0,0
4.9643e+05,2.4638e+08,0,6420,6314,14.6,5.05,38,67,0,0
4.9683e+05,2.4648e+08,0,6319,6557,14.63,4.55,38,68,0,0
4.9729e+05,2.466e+08,0,6550,6485,14.63,4.42,38,68,0,0
4.9773e+05,2.4671e+08,0,6476,6371,14.64,4.46,38,68,0,0
4.9821e+05,2.4682e+08,0,6367,6328,14.57,4.56,38,68,0,0
4.9862e+05,2.4692e+08,0,6344,6500,14.63,4.63,38,68,0,0
4.9996e+05,2.4725e+08,0,6495,6385,14.62,4.73,38,69,0,0
5.0037e+05,2.4735e+08,0,6395,6514,14.66,4.71,38,69,0,0
5.0081e+05,2.4746e+08,0,6490,6242,14.59,4.39,38,69,0,0
5.0126e+05,2.4757e+08,0,6241,6228,14.62,4.62,38,69,0,0
5.0166e+05,2.4767e+08,0,6239,6457,14.64,4.54,38,69,0,0
5.0207e+05,2.4778e+08,0,6456,6428,14.61,4.54,38,69,0,0
5.0256e+05,2.479e+08,0,6423,6300,14.56,4.68,38,69,0,0
5.0344e+05,2.4811e+08,0,6312,6557,14.62,4.51,38,70,0,0
5.0388e+05,2.4822e+08,0,6553,6285,14.57,4.53,38,70,0,0
5.0433e+05,2.4833e+08,0,6277,6171,14.64,4.02,38,70,0,0
5.0478e+05,2.4844e+08,0,6169,6142,14.6,4.61,38,70,0,0
5.0523e+05,2.4855e+08,0,6157,6314,14.56,4.5,38,70,0,0
5.0567e+05,2.4866e+08,0,6309,6257,14.62,4.57,38,70,0,0
5.0656e+05,2.4888e+08,0,6260,6357,14.57,4.75,38,71,0,0
5.0694e+05,2.4898e+08,0,6354,6242,14.58,4.47,38,71,0,0
5.0738e+05,2.4909e+08,0,6245,6500,14.53,4.81,38,71,0,0
5.0782e+05,2.492e+08,0,6495,6228,14.6,4.12,38,71,0,0
5.0823e+05,2.493e+08,0,6228,6285,14.58,4.32,39,71,0,0
5.0872e+05,2.4942e+08,0,6266,6085,14.57,3.99,38,71,0,0
5.0912e+05,2.4952e+08,0,6087,6128,14.54,3.99,39,71,0,0
5.0957e+05,2.4963e+08,0,6113,5914,14.6,3.91,38,71,0,0
5.0998e+05,2.4974e+08,0,5923,6042,14.6,3.77,38,72,0,0
5.1047e+05,2.4985e+08,0,6030,5914,14.59,3.71,38,72,0,0
5.1087e+05,2.4996e+08,0,5906,5800,14.6,3.54,39,72,0,0
5.1131e+05,2.5006e+08,0,5799,5771,14.56,3.62,38,72,0,0
5.1176e+05,2.5017e+08,0,5772,5842,14.57,3.57,38,72,0,0
5.1266e+05,2.5039e+08,0,5842,5871,14.64,3.79,38,72,0,0
5.131e+05,2.5051e+08,0,5869,5857,14.61,3.85,39,72,0,0
5.1399e+05,2.5072e+08,0,5866,6142,14.58,4.07,38,73,0,0
5.1445e+05,2.5084e+08,0,6132,6042,14.6,4.09,39,73,0,0
5.1485e+05,2.5094e+08,0,6033,5914,14.5,4.16,38,73,0,0
5.153e+05,2.5105e+08,0,5914,5914,14.6,3.93,39,73,0,0
5.1575e+05,2.5116e+08,0,5924,6085,14.59,3.93,38,73,0,0
5.162e+05,2.5128e+08,0,6078,6014,14.61,3.98,38,73,0,0
5.166e+05,2.5137e+08,0,6016,6042,14.61,4.07,38,73,0,0
5.1704e+05,2.5148e+08,0,6043,6057,14.59,4.21,38,73,0,0
5.1745e+05,2.5158e+08,0,6054,5914,14.57,4.13,39,74,0,0
5.1789e+05,2.5169e+08,0,5916,6071,14.58,4.13,38,74,0,0
5.1834e+05,2.518e+08,0,6073,6214,14.64,4.11,39,74,0,0
5.1882e+05,2.5192e+08,0,6203,6100,14.58,4.05,38,74,0,0
5.1927e+05,2.5203e+08,0,6091,6000,14.61,4.1,38,74,0,0
5.1972e+05,2.5214e+08,0,6003,6042,14.6,4.24,38,74,0,0
5.2016e+05,2.5225e+08,0,6045,6100,14.6,4.33,38,74,0,0
5.206e+05,2.5235e+08,0,6100,6100,14.61,4.22,38,74,0,0
5.2101e+05,2.5246e+08,0,6101,6200,14.57,4.24,39,75,0,0
5.215e+05,2.5257e+08,0,6193,6128,14.63,4.09,39,75,0,0
5.2235e+05,2.5278e+08,0,6129,6171,14.54,4.1,39,75,0,0
5.2284e+05,2.529e+08,0,6177,6242,14.59,4.21,38,75,0,0
5.2325e+05,2.53e+08,0,6237,6142,14.62,4.22,38,75,0,0
5.2369e+05,2.5312e+08,0,6150,6257,14.61,3.99,39,75,0,0
5.2414e+05,2.5323e+08,0,6240,6085,14.59,4.05,39,75,0,0
5.2454e+05,2.5332e+08,0,6085,6100,14.62,3.85,38,76,0,0
5.25e+05,2.5343e+08,0,6102,6157,14.61,3.91,39,76,0,0
5.2544e+05,2.5355e+08,0,6144,5971,14.64,3.88,38,76,0,0
5.2589e+05,2.5365e+08,0,5974,6057,14.61,4.01,38,76,0,0
5.2634e+05,2.5377e+08,0,6055,6042,14.58,3.92,38,76,0,0
5.2674e+05,2.5387e+08,0,6042,6042,14.58,4.05,39,76,0,0
5.2719e+05,2.5398e+08,0,6046,6157,14.61,4.1,38,76,0,0
5.276e+05,2.5408e+08,0,6156,6100,14.6,4.18,39,76,0,0
5.2808e+05,2.542e+08,0,6098,6071,14.64,3.98,39,77,0,0
5.2849e+05,2.543e+08,0,6070,6057,14.64,4,38,77,0,0
5.2894e+05,2.5441e+08,0,6063,6157,14.64,4.06,39,77,0,0
5.2934e+05,2.5451e+08,0,6151,5957,14.58,3.93,39,77,0,0
5.298e+05,2.5463e+08,0,5958,6000,14.62,3.99,38,77,0,0
5.3024e+05,2.5474e+08,0,5998,5914,14.61,4.16,39,77,0,0
5.3073e+05,2.5486e+08,0,5931,6085,14.61,4.01,39,77,0,0
5.3117e+05,2.5496e+08,0,6077,6000,14.57,4.43,39,77,0,0
5.3158e+05,2.5507e+08,0,6002,6214,14.51,4.87,39,78,0,0
5.3247e+05,2.5528e+08,0,6217,6514,14.38,5.57,39,78,0,0
5.3292e+05,2.5539e+08,0,6520,6900,14.44,5.89,39,78,0,0
5.3339e+05,2.5551e+08,0,6886,6742,14.44,5.28,39,78,0,0
5.3385e+05,2.5562e+08,0,6738,6685,14.47,4.77,39,78,0,0
5.3425e+05,2.5572e+08,0,6683,6571,14.43,4.69,39,78,0,0
5.3518e+05,2.5594e+08,0,6559,6285,14.53,4.33,39,79,0,0
5.3559e+05,2.5605e+08,0,6282,6228,14.55,4.21,38,79,0,0
5.3607e+05,2.5616e+08,0,6223,6171,14.58,4.06,39,79,0,0
5.3652e+05,2.5627e+08,0,6167,6142,14.58,4.06,39,79,0,0
5.3692e+05,2.5637e+08,0,6130,5900,14.57,3.67,39,79,0,0
5.374e+05,2.5649e+08,0,5897,5871,14.55,3.59,39,79,0,0
5.3784e+05,2.566e+08,0,5870,5857,14.51,3.56,39,79,0,0
5.3825e+05,2.567e+08,0,5849,5785,14.57,3.68,39,80,0,0
5.3871e+05,2.5681e+08,0,5799,5942,14.54,3.7,39,80,0,0
5.3912e+05,2.5692e+08,0,5935,5871,14.57,3.65,39,80,0,0
5.3956e+05,2.5703e+08,0,5879,5957,14.53,3.9,39,80,0,0
5.4045e+05,2.5724e+08,0,5956,5928,14.61,3.8,39,80,0,0
5.4085e+05,2.5735e+08,0,5930,5971,14.62,3.97,39,80,0,0
5.413e+05,2.5746e+08,0,5972,6014,14.61,3.86,39,80,0,0
5.4175e+05,2.5756e+08,0,6011,5885,14.66,3.75,39,81,0,0
5.4222e+05,2.5768e+08,0,5874,5771,14.67,3.64,39,81,0,0
5.4268e+05,2.5779e+08,0,5784,5928,14.67,3.51,39,81,0,0
5.4308e+05,2.5789e+08,0,5916,5814,14.67,3.56,39,81,0,0
5.4357e+05,2.58e+08,0,5804,5671,14.66,3.21,39,81,0,0
5.4397e+05,2.581e+08,0,5663,5600,14.6,3.14,39,81,0,0
5.4446e+05,2.5822e+08,0,5592,5514,14.68,2.92,39,81,0,0
5.4486e+05,2.5832e+08,0,5511,5485,14.66,3.1,39,81,0,0
5.457e+05,2.5853e+08,0,5487,5614,14.68,3.31,39,81,0,0
5.4615e+05,2.5864e+08,0,5614,5614,14.64,3.42,39,82,0,0
5.4659e+05,2.5875e+08,0,5630,5871,14.64,3.61,39,82,0,0
5.4752e+05,2.5897e+08,0,5867,5785,14.61,3.87,39,82,0,0
5.4797e+05,2.5909e+08,0,5792,5857,14.61,3.88,39,82,0,0
5.4838e+05,2.5918e+08,0,5855,5828,14.6,4.09,39,82,0,0
5.4882e+05,2.593e+08,0,5858,6142,14.54,4.39,39,82,0,0
5.4923e+05,2.594e+08,0,6143,6228,14.61,4.28,39,82,0,0
5.4971e+05,2.5951e+08,0,6248,6457,14.56,4.54,39,82,0,0
5.5016e+05,2.5962e+08,0,6449,6371,14.57,4.61,39,83,0,0
5.5056e+05,2.5973e+08,0,6369,6314,14.6,4.76,39,83,0,0
5.5102e+05,2.5984e+08,0,6317,6400,14.66,4.66,39,83,0,0
5.5146e+05,2.5995e+08,0,6386,6257,14.63,4.62,39,83,0,0
5.5187e+05,2.6005e+08,0,6260,6342,14.56,4.53,39,83,0,0
5.5232e+05,2.6016e+08,0,6347,6414,14.56,4.75,39,83,0,0
5.528e+05,2.6028e+08,0,6419,6457,14.58,4.9,39,83,0,0
5.5321e+05,2.6038e+08,0,6444,6271,14.6,4.16,39,84,0,0
5.5366e+05,2.6049e+08,0,6275,6328,14.6,4.52,39,84,0,0
5.5406e+05,2.6059e+08,0,6327,6271,14.57,4.29,39,84,0,0
5.5451e+05,2.6071e+08,0,6264,6185,14.63,4.13,39,84,0,0
5.5496e+05,2.6081e+08,0,6192,6271,14.63,4.13,39,84,0,0
5.554e+05,2.6093e+08,0,6288,6471,14.56,4.64,39,84,0,0
5.5585e+05,2.6103e+08,0,6466,6400,14.58,4.56,39,84,0,0
5.5626e+05,2.6114e+08,0,6400,6400,14.55,4.36,39,85,0,0
5.5674e+05,2.6125e+08,0,6390,6300,14.56,4.54,39,85,0,0
5.5715e+05,2.6135e+08,0,6311,6457,14.57,4.98,39,85,0,0
5.576e+05,2.6147e+08,0,6484,6671,14.59,4.96,39,85,0,0
5.5801e+05,2.6157e+08,0,6657,6514,14.61,4.67,39,85,0,0
5.5886e+05,2.6178e+08,0,6504,6242,14.54,4.63,39,85,0,0
5.5931e+05,2.6189e+08,0,6247,6328,14.58,4.54,39,85,0,0
5.5975e+05,2.62e+08,0,6333,6442,14.54,4.55,39,86,0,0
5.6019e+05,2.6211e+08,0,6434,6328,14.54,4.34,39,86,0,0
5.6064e+05,2.6222e+08,0,6321,6214,14.55,4.33,39,86,0,0
5.6109e+05,2.6232e+08,0,6219,6342,14.6,4.33,39,86,0,0
5.6159e+05,2.6244e+08,0,6338,6314,14.59,4.27,39,86,0,0
5.6198e+05,2.6254e+08,0,6310,6142,14.5,4.22,39,86,0,0
5.6243e+05,2.6265e+08,0,6140,6057,14.59,4.05,39,86,0,0
5.6288e+05,2.6276e+08,0,6057,6057,14.55,4,39,87,0,0
5.6328e+05,2.6286e+08,0,6055,6014,14.55,3.83,39,87,0,0
5.6374e+05,2.6298e+08,0,6014,6071,14.6,3.63,39,87,0,0
5.6418e+05,2.6308e+08,0,6056,5857,14.61,3.63,39,87,0,0
5.6463e+05,2.6319e+08,0,5856,5842,14.64,3.7,39,87,0,0
5.6508e+05,2.6331e+08,0,5838,5771,14.66,3.55,39,87,0,0
5.6553e+05,2.6341e+08,0,5787,6014,14.63,3.92,39,87,0,0
5.6598e+05,2.6353e+08,0,6014,6028,14.6,3.7,39,87,0,0
5.6643e+05,2.6364e+08,0,6021,5957,14.67,3.69,39,87,0,0
5.6728e+05,2.6385e+08,0,5959,6014,14.59,3.85,39,88,0,0
5.6772e+05,2.6396e+08,0,6018,6071,14.55,4.28,39,88,0,0
5.6862e+05,2.6418e+08,0,6086,6414,14.53,4.62,39,88,0,0
5.6906e+05,2.6429e+08,0,6414,6414,14.63,4.49,39,88,0,0
5.6947e+05,2.6439e+08,0,6411,6285,14.54,4.43,39,88,0,0
5.6962e+05,2.645e+08,0,6281,6242,14.44,4.86,39,88,0,0
5.7002e+05,2.6461e+08,0,6262,6657,14.44,5.1,39,89,0,0
5.7048e+05,2.6472e+08,0,6649,6571,14.47,5.06,39,89,0,0
5.7137e+05,2.6494e+08,0,6569,6500,14.44,5.2,39,89,0,0
5.7184e+05,2.6505e+08,0,6509,6600,14.44,5.08,39,89,0,0
5.7226e+05,2.6515e+08,0,6589,6442,14.42,4.93,39,89,0,0
5.7315e+05,2.6538e+08,0,6442,6442,14.36,4.91,39,90,0,0
5.7359e+05,2.6549e+08,0,6457,6585,14.38,5.16,39,90,0,0
5.7404e+05,2.656e+08,0,6589,6614,14.37,5.04,39,90,0,0
5.7444e+05,2.657e+08,0,6612,6514,14.39,4.66,39,90,0,0
5.7492e+05,2.6581e+08,0,6501,6385,14.44,4.36,39,90,0,0
5.7538e+05,2.6592e+08,0,6376,6300,14.44,4.37,39,90,0,0
5.7619e+05,2.6613e+08,0,6298,6100,14.41,4.47,39,91,0,0
5.7712e+05,2.6636e+08,0,6100,6185,14.45,4.7,39,91,0,0
5.7761e+05,2.6647e+08,0,6209,6428,14.47,5,39,91,0,0
5.7806e+05,2.6658e+08,0,6425,6400,14.43,4.66,39,91,0,0
5.7846e+05,2.6669e+08,0,6393,6314,14.52,4.28,39,91,0,0
5.7892e+05,2.668e+08,0,6300,6157,14.53,4.19,39,91,0,0
5.7936e+05,2.6691e+08,0,6157,6157,14.57,4.02,39,92,0,0
5.7981e+05,2.6702e+08,0,6154,6128,14.48,4.06,39,92,0,0
5.8026e+05,2.6713e+08,0,6115,5985,14.56,3.47,39,92,0,0
5.8071e+05,2.6724e+08,0,5999,6142,14.51,4.09,39,92,0,0
5.8111e+05,2.6734e+08,0,6147,6228,14.49,4.58,39,92,0,0
5.8156e+05,2.6745e+08,0,6235,6400,14.52,4.68,39,92,0,0
5.8201e+05,2.6756e+08,0,6377,6157,14.58,4.07,39,92,0,0
5.8241e+05,2.6766e+08,0,6157,6157,14.51,4.02,39,93,0,0
5.8286e+05,2.6777e+08,0,6157,6200,14.5,4.57,39,93,0,0
5.833e+05,2.6788e+08,0,6198,6157,14.53,4.06,39,93,0,0
5.8376e+05,2.68e+08,0,6156,6128,14.51,3.83,39,93,0,0
5.842e+05,2.6811e+08,0,6121,6042,14.54,3.52,39,93,0,0
5.8465e+05,2.6822e+08,0,6029,5742,14.57,3.7,39,93,0,0
5.851e+05,2.6833e+08,0,5756,5900,14.54,3.82,39,93,0,0
5.8556e+05,2.6844e+08,0,5900,5900,14.55,3.94,39,93,0,0
5.86e+05,2.6855e+08,0,5896,5857,14.52,4.09,39,94,0,0
5.8645e+05,2.6866e+08,0,5869,6042,14.53,4.28,39,94,0,0
5.8686e+05,2.6876e+08,0,6046,6100,14.51,4.39,39,94,0,0
5.8775e+05,2.6898e+08,0,6109,6314,14.51,4.02,39,94,0,0
5.8815e+05,2.6908e+08,0,6310,6100,14.51,4.26,39,94,0,0
5.886e+05,2.6919e+08,0,6101,6242,14.52,4.68,39,94,0,0
5.8904e+05,2.693e+08,0,6241,6214,14.55,4.59,39,94,0,0
5.8953e+05,2.6942e+08,0,6219,6300,14.52,4.24,39,95,0,0
5.899e+05,2.6951e+08,0,6298,6185,14.5,4.56,39,95,0,0
5.9039e+05,2.6963e+08,0,6177,6071,14.46,4.58,39,95,0,0
5.908e+05,2.6974e+08,0,6091,6385,14.48,4.99,39,95,0,0
5.9125e+05,2.6985e+08,0,6355,6114,14.52,4.04,39,95,0,0
5.9166e+05,2.6995e+08,0,6107,6014,14.57,3.88,39,95,0,0
5.93e+05,2.7028e+08,0,6012,5971,14.55,3.89,39,95,0,0
5.934e+05,2.7038e+08,0,5963,5814,14.53,3.53,39,96,0,0
5.9385e+05,2.705e+08,0,5821,5928,14.54,3.84,39,96,0,0
5.943e+05,2.706e+08,0,5936,6057,14.48,4.15,39,96,0,0
5.9475e+05,2.7072e+08,0,6055,6042,14.47,4.1,39,96,0,0
5.952e+05,2.7083e+08,0,6042,6042,14.43,4.25,39,96,0,0
5.9564e+05,2.7094e+08,0,6056,6242,14.5,4.52,39,96,0,0
5.9609e+05,2.7105e+08,0,6238,6200,14.5,4.21,39,96,0,0
5.9654e+05,2.7116e+08,0,6206,6271,14.49,4.33,39,97,0,0
5.9695e+05,2.7126e+08,0,6274,6300,14.55,4.43,39,97,0,0
5.9735e+05,2.7136e+08,0,6296,6228,14.55,4.77,39,97,0,0
5.978e+05,2.7148e+08,0,6228,6242,14.51,4.74,39,97,0,0
5.9825e+05,2.7159e+08,0,6251,6385,14.48,4.8,39,97,0,0
5.9866e+05,2.7169e+08,0,6391,6528,14.5,4.85,39,97,0,0
5.9911e+05,2.718e+08,0,6524,6442,14.54,4.83,39,97,0,0
5.9955e+05,2.7191e+08,0,6439,6400,14.54,4.52,39,98,0,0
6.0001e+05,2.7203e+08,0,6387,6271,14.51,4.61,39,98,0,0
6.0041e+05,2.7212e+08,0,6270,6242,14.55,4.16,39,98,0,0
6.0086e+05,2.7224e+08,0,6225,6014,14.53,4,39,98,0,0
6.013e+05,2.7234e+08,0,6012,5971,14.52,3.52,39,98,0,0
6.0179e+05,2.7247e+08,0,5963,5900,14.52,3.41,39,98,0,0
6.0266e+05,2.7268e+08,0,5896,5785,14.52,3.08,39,98,0,0
6.0312e+05,2.7279e+08,0,5780,5742,14.54,2.9,39,98,0,0
6.0357e+05,2.729e+08,0,5751,5857,14.55,3.86,39,98,0,0
6.0402e+05,2.7301e+08,0,5858,5900,14.48,3.31,39,99,0,0
6.045e+05,2.7313e+08,0,5879,5728,14.45,2.3,39,99,0,0
6.0494e+05,2.7323e+08,0,5702,5500,14.48,2.63,39,99,0,0
6.0535e+05,2.7334e+08,0,5503,5585,14.48,2.89,39,99,0,0
6.058e+05,2.7345e+08,0,5604,5742,14.48,3.46,39,99,0,0
6.062e+05,2.7355e+08,0,5747,5971,14.5,3.85,39,99,0,0
6.067e+05,2.7367e+08,0,5981,6071,14.52,3.91,39,99,0,0
