LineNo,TimeUS,Instance,RPM,RawRPM,Volt,Curr,Temp,CTot,MotTemp,Err
1699,19885373,0,0,0,15.77,0.05,34,0,0,0
2153,20000063,0,0,0,15.76,0.04,34,0,0,0
2605,20112585,0,0,0,15.76,0.04,34,0,0,0
3016,20212821,0,0,0,15.76,0.04,34,0,0,0
3431,20313410,0,0,0,15.77,0.04,34,0,0,0
3917,20430931,0,0,0,15.76,0.04,34,0,0,0
4329,20532410,0,0,0,15.76,0.04,34,0,0,0
4748,20639171,0,0,0,15.76,0.04,34,0,0,0
5164,20743129,0,0,0,15.76,0.04,34,0,0,0
5581,20846639,0,0,0,15.77,0.04,34,0,0,0
5995,20952646,0,0,0,15.76,0.04,34,0,0,0
6447,21063003,0,0,0,15.76,0.04,34,0,0,0
6854,21163605,0,0,0,15.76,0.04,34,0,0,0
7313,21278201,0,0,0,15.76,0.04,34,0,0,0
7733,21383769,0,0,0,15.77,0.04,34,0,0,0
8151,21489577,0,0,0,15.77,0.04,34,0,0,0
8525,21586121,0,0,0,15.76,0.04,34,0,0,0
8977,21699189,0,0,0,15.76,0.04,34,0,0,0
9387,21799928,0,0,0,15.76,0.04,34,0,0,0
9641,21902299,0,0,0,15.76,0.04,34,0,0,0
10125,22022707,0,0,0,15.76,0.04,34,0,0,0
10499,22112934,0,0,0,15.76,0.04,34,0,0,0
10948,22225736,0,0,0,15.76,0.04,34,0,0,0
11406,22340408,0,0,0,15.76,0.04,34,0,0,0
11818,22442977,0,0,0,15.77,0.04,34,0,0,0
12233,22545644,0,0,0,15.76,0.04,34,0,0,0
12681,22657608,0,0,0,15.77,0.04,34,0,0,0
13088,22758666,0,0,0,15.76,0.04,34,0,0,0
13508,22865172,0,0,0,15.76,0.04,34,0,0,0
13920,22969185,0,0,0,15.76,0.04,34,0,0,0
14374,23080583,0,0,0,15.76,0.04,34,0,0,0
14824,23192797,0,0,0,15.76,0.04,34,0,0,0
15234,23295220,0,0,0,15.77,0.04,34,0,0,0
15653,23402207,0,0,0,15.77,0.04,34,0,0,0
16112,23515154,0,0,0,15.76,0.04,34,0,0,0
16495,23617979,0,0,0,15.76,0.04,34,0,0,0
16945,23730546,0,0,0,15.76,0.04,34,0,0,0
17353,23831810,0,0,0,15.76,0.04,34,0,0,0
17809,23942632,0,0,0,15.76,0.04,34,0,0,0
18196,24046219,0,0,0,15.76,0.04,34,0,0,0
18645,24154140,0,0,0,15.76,0.04,34,0,0,0
19053,24260222,0,0,0,15.76,0.04,34,0,0,0
19468,24363258,0,0,0,15.76,0.04,34,0,0,0
19923,24477822,0,0,0,15.76,0.04,34,0,0,0
20298,24575000,0,0,0,15.76,0.04,34,0,0,0
20754,24687054,0,0,0,15.77,0.04,34,0,0,0
21170,24789384,0,0,0,15.76,0.04,34,0,0,0
21626,24902658,0,0,0,15.76,0.04,34,0,0,0
22080,25014522,0,0,0,15.77,0.04,34,0,0,0
22495,25118529,0,0,0,15.76,0.04,34,0,0,0
22942,25227918,0,0,0,15.76,0.04,34,0,0,0
23361,25331937,0,0,0,15.76,0.04,34,0,0,0
23823,25445817,0,0,0,15.76,0.04,34,0,0,0
24236,25546429,0,0,0,15.76,0.04,34,0,0,0
24696,25656619,0,0,0,15.77,0.04,34,0,0,0
25110,25761548,0,0,0,15.76,0.04,34,0,0,0
25563,25873707,0,0,0,15.77,0.04,34,0,0,0
25978,25978563,0,0,0,15.76,0.04,34,0,0,0
26390,26082810,0,0,0,15.76,0.04,34,0,0,0
26801,26185986,0,0,0,15.76,0.04,34,0,0,0
27254,26296160,0,0,0,15.76,0.04,34,0,0,0
27700,26408350,0,0,0,15.76,0.04,34,0,0,0
28081,26508615,0,0,0,15.77,0.04,34,0,0,0
28491,26610356,0,0,0,15.77,0.04,34,0,0,0
28945,26723036,0,0,0,15.77,0.04,34,0,0,0
29360,26823622,0,0,0,15.77,0.04,34,0,0,0
29816,26938381,0,0,0,15.76,0.04,34,0,0,0
30224,27040218,0,0,0,15.76,0.04,34,0,0,0
30637,27143340,0,0,0,15.76,0.04,34,0,0,0
31091,27255607,0,0,0,15.76,0.04,34,0,0,0
31500,27359402,0,0,0,15.76,0.04,34,0,0,0
31954,27472558,0,0,0,15.76,0.04,34,0,0,0
32360,27573778,0,0,0,15.76,0.04,34,0,0,0
32775,27679756,0,0,0,15.76,0.04,34,0,0,0
33233,27791756,0,0,0,15.76,0.04,34,0,0,0
33649,27894903,0,0,0,15.76,0.04,34,0,0,0
34065,28002179,0,0,0,15.76,0.04,34,0,0,0
34482,28110060,0,0,0,15.76,0.04,34,0,0,0
34891,28211765,0,0,0,15.76,0.04,34,0,0,0
35345,28324035,0,0,0,15.76,0.04,34,0,0,0
35753,28425943,0,0,0,15.76,0.04,34,0,0,0
36207,28541499,0,0,0,15.76,0.04,34,0,0,0
36623,28644520,0,0,0,15.76,0.04,34,0,0,0
37041,28750597,0,0,0,15.76,0.04,34,0,0,0
37454,28851473,0,0,0,15.76,0.04,34,0,0,0
37901,28965936,0,0,0,15.77,0.04,34,0,0,0
38311,29067822,0,0,0,15.76,0.05,34,0,0,0
38759,29180168,0,0,0,15.76,0.04,34,0,0,0
39173,29283635,0,0,0,15.76,0.04,34,0,0,0
39584,29387254,0,0,0,15.76,0.04,34,0,0,0
39998,29490742,0,0,0,15.77,0.04,34,0,0,0
40444,29599968,0,0,0,15.76,0.04,34,0,0,0
40899,29712647,0,0,0,15.77,0.04,34,0,0,0
41310,29815937,0,0,0,15.76,0.04,34,0,0,0
41767,29927693,0,0,0,15.77,0.04,34,0,0,0
42179,30028595,0,0,0,15.77,0.04,34,0,0,0
42639,30143047,0,0,0,15.76,0.04,34,0,0,0
43052,30243320,0,0,0,15.76,0.04,34,0,0,0
43467,30347151,0,0,0,15.76,0.04,34,0,0,0
43927,30461553,0,0,0,15.76,0.04,34,0,0,0
44343,30566653,0,0,0,15.76,0.05,34,0,0,0
44757,30669511,0,0,0,15.76,0.04,34,0,0,0
45170,30775422,0,0,0,15.76,0.04,34,0,0,0
46480,31105616,0,0,0,15.76,0.04,34,0,0,0
46896,31209822,0,0,0,15.76,0.05,34,0,0,0
47307,31311181,0,0,0,15.76,0.04,34,0,0,0
47723,31415895,0,0,0,15.76,0.04,34,0,0,0
48147,31522586,0,0,0,15.76,0.04,34,0,0,0
48597,31634946,0,0,0,15.76,0.05,34,0,0,0
49011,31737195,0,0,0,15.77,0.05,34,0,0,0
49468,31851260,0,0,0,15.76,0.04,34,0,0,0
49850,31951811,0,0,0,15.76,0.04,34,0,0,0
50307,32063951,0,0,0,15.76,0.04,34,0,0,0
50718,32165996,0,0,0,15.76,0.04,34,0,0,0
51176,32277811,0,0,0,15.77,0.04,34,0,0,0
51592,32383377,0,0,0,15.77,0.04,34,0,0,0
52004,32486161,0,0,0,15.77,0.04,34,0,0,0
52414,32590522,0,0,0,15.77,0.04,34,0,0,0
52870,32702037,0,0,0,15.76,0.04,34,0,0,0
53285,32803543,0,0,0,15.77,0.04,34,0,0,0
53700,32906672,0,0,0,15.76,0.04,34,0,0,0
54146,33019819,0,0,0,15.76,0.04,34,0,0,0
54557,33120621,0,0,0,15.76,0.04,34,0,0,0
55011,33234547,0,0,0,15.76,0.04,34,0,0,0
55423,33336479,0,0,0,15.76,0.04,34,0,0,0
55848,33447743,0,0,0,15.76,0.04,34,0,0,0
56256,33548372,0,0,0,15.76,0.04,34,0,0,0
56707,33661069,0,0,0,15.76,0.04,34,0,0,0
57122,33765733,0,0,0,15.77,0.04,34,0,0,0
57577,33879169,0,0,0,15.76,0.04,34,0,0,0
57992,33983540,0,0,0,15.76,0.04,34,0,0,0
58405,34087599,0,0,0,15.77,0.04,34,0,0,0
58820,34191810,0,0,0,15.76,0.04,34,0,0,0
59280,34304058,0,0,0,15.76,0.04,34,0,0,0
59687,34405651,0,0,0,15.76,0.04,34,0,0,0
60145,34520982,0,0,0,15.76,0.04,34,0,0,0
60553,34622804,0,0,0,15.76,0.04,34,0,0,0
115868,107823407,0,0,0,15.77,0.04,32,0,0,0
116134,107888580,0,0,0,15.77,0.04,32,0,0,0
116589,107993625,0,0,0,15.77,0.04,32,0,0,0
117041,108097763,0,0,0,15.77,0.04,33,0,0,0
117497,108201769,0,0,0,15.77,0.04,32,0,0,0
117993,108317589,0,0,0,15.77,0.04,32,0,0,0
118444,108421536,0,0,0,15.77,0.04,32,0,0,0
118898,108528521,0,0,0,15.77,0.05,32,0,0,0
119402,108640807,0,0,0,15.77,0.04,32,0,0,0
119816,108741751,0,0,0,15.77,0.04,32,0,0,0
120238,108846694,0,0,0,15.77,0.05,32,0,0,0
120734,108962657,0,0,0,15.77,0.05,32,0,0,0
121185,109064746,0,0,0,15.77,0.04,32,0,0,0
121683,109176488,0,0,0,15.77,0.04,32,0,0,0
122134,109280827,0,0,0,15.77,0.04,32,0,0,0
122587,109386169,0,0,0,15.77,0.04,32,0,0,0
123080,109498360,0,0,0,15.77,0.04,32,0,0,0
123536,109600417,0,0,0,15.77,0.04,32,0,0,0
124023,109708759,0,0,0,15.77,0.04,32,0,0,0
124522,109822580,0,0,0,15.77,0.04,32,0,0,0
124971,109925376,0,8,171,15.77,0.04,32,0,0,0
125429,110027641,0,181,442,15.75,0.09,32,0,0,0
125926,110141773,0,476,871,15.75,0.15,32,0,0,0
126350,110243640,0,881,1157,15.75,0.14,32,0,0,0
126843,110355979,0,1162,1214,15.76,0.12,32,0,0,0
127297,110463803,0,1216,1242,15.76,0.11,32,0,0,0
127752,110565525,0,1243,1271,15.76,0.11,32,0,0,0
128198,110666926,0,1271,1271,15.76,0.11,32,0,0,0
128576,110779258,0,1271,1271,15.76,0.11,32,0,0,0
129035,110888325,0,1271,1271,15.76,0.11,32,0,0,0
129532,111000308,0,1271,1271,15.75,0.11,32,0,0,0
129946,111099727,0,1270,1257,15.75,0.11,32,0,0,0
130446,111213014,0,1257,1257,15.75,0.11,32,0,0,0
130899,111322170,0,1257,1271,15.75,0.11,33,0,0,0
131352,111424044,0,1270,1257,15.76,0.11,32,0,0,0
131845,111537531,0,1257,1271,15.75,0.11,32,0,0,0
132343,111649676,0,1271,1271,15.76,0.11,32,0,0,0
132789,111749991,0,1271,1271,15.76,0.11,32,0,0,0
133240,111857564,0,1271,1271,15.76,0.11,32,0,0,0
133738,111970593,0,1271,1271,15.75,0.11,32,0,0,0
134156,112073619,0,1271,1271,15.76,0.11,32,0,0,0
134610,112174634,0,1271,1271,15.75,0.11,32,0,0,0
135108,112290361,0,1271,1271,15.76,0.11,32,0,0,0
135563,112395008,0,1271,1271,15.76,0.11,32,0,0,0
136016,112499629,0,1271,1271,15.76,0.11,32,0,0,0
136469,112600576,0,1271,1271,15.76,0.11,32,0,0,0
136965,112715940,0,1271,1271,15.75,0.11,32,0,0,0
137463,112829531,0,1271,1271,15.76,0.11,32,0,0,0
137874,112925587,0,1271,1285,15.75,0.11,32,0,0,0
138329,113026749,0,1284,1271,15.75,0.11,32,0,0,0
138825,113141717,0,1271,1271,15.75,0.11,32,0,0,0
139242,113244386,0,1261,428,15.77,0,32,0,0,0
139698,113357002,0,391,0,15.77,0.03,32,0,0,0
140114,113464580,0,0,0,15.77,0.04,32,0,0,0
140529,113567422,0,0,0,15.77,0.04,32,0,0,0
140975,113677736,0,0,0,15.77,0.04,32,0,0,0
141388,113779549,0,0,0,15.77,0.05,32,0,0,0
141845,113896061,0,0,0,15.77,0.04,32,0,0,0
142260,113997337,0,0,0,15.77,0.04,32,0,0,0
142678,114105047,0,0,0,15.77,0.04,32,0,0,0
143090,114204795,0,0,0,15.77,0.05,32,0,0,0
143956,114421674,0,0,0,15.77,0.04,32,0,0,0
144369,114528569,0,0,0,15.77,0.04,32,0,0,0
144825,114647222,0,0,0,15.77,0.04,32,0,0,0
145203,114743062,0,0,0,15.77,0.04,32,0,0,0
145625,114850352,0,0,0,15.77,0.04,32,0,0,0
146077,114965636,0,0,0,15.76,0.04,32,0,0,0
146528,115078382,0,0,0,15.77,0.04,32,0,0,0
146941,115180598,0,0,0,15.77,0.04,32,0,0,0
147355,115286610,0,0,0,15.77,0.04,32,0,0,0
147780,115394769,0,0,0,15.77,0.04,32,0,0,0
148191,115497588,0,0,0,15.77,0.04,32,0,0,0
148645,115610556,0,0,0,15.77,0.04,32,0,0,0
149059,115716008,0,0,0,15.77,0.04,32,0,0,0
149472,115818798,0,0,0,15.77,0.04,32,0,0,0
149889,115925651,0,0,0,15.77,0.05,32,0,0,0
150345,116045867,0,0,0,15.77,0.05,32,0,0,0
150759,116148559,0,0,0,15.77,0.04,32,0,0,0
151168,116252125,0,0,0,15.77,0.04,32,0,0,0
151623,116366745,0,0,0,15.77,0.04,32,0,0,0
152034,116470703,0,0,0,15.77,0.04,32,0,0,0
152448,116574126,0,0,0,15.77,0.04,32,0,0,0
152900,116688733,0,0,0,15.77,0.04,32,0,0,0
153313,116791981,0,0,0,15.77,0.04,32,0,0,0
153729,116898757,0,0,0,15.77,0.04,32,0,0,0
154147,117003367,0,0,0,15.77,0.04,32,0,0,0
154602,117119346,0,0,0,15.77,0.04,32,0,0,0
155014,117220371,0,0,0,15.77,0.04,32,0,0,0
155429,117327212,0,0,0,15.77,0.04,32,0,0,0
155842,117430535,0,0,0,15.77,0.04,32,0,0,0
156292,117542930,0,0,0,15.77,0.04,32,0,0,0
156754,117659184,0,0,0,15.77,0.04,32,0,0,0
157126,117752934,0,0,0,15.77,0.04,32,0,0,0
157537,117858775,0,0,0,15.77,0.04,32,0,0,0
158000,117971954,0,0,0,15.77,0.04,32,0,0,0
158378,118073496,0,0,0,15.77,0.04,32,0,0,0
158832,118185538,0,0,0,15.77,0.04,32,0,0,0
159241,118287707,0,0,0,15.77,0.04,32,0,0,0
159696,118402772,0,0,0,15.77,0.04,32,0,0,0
160110,118508605,0,0,0,15.77,0.04,32,0,0,0
160525,118611548,0,0,0,15.77,0.04,32,0,0,0
160974,118725004,0,0,0,15.77,0.04,32,0,0,0
161429,118840930,0,0,0,15.77,0.04,32,0,0,0
161842,118942298,0,0,0,15.77,0.04,32,0,0,0
162257,119042031,0,0,0,15.77,0.04,32,0,0,0
162665,119145949,0,0,0,15.77,0.04,32,0,0,0
163522,119362575,0,0,0,15.77,0.04,32,0,0,0
164392,119583223,0,0,0,15.77,0.04,32,0,0,0
164807,119688002,0,0,0,15.77,0.04,32,0,0,0
165224,119792020,0,0,0,15.77,0.04,32,0,0,0
165646,119904364,0,0,0,15.77,0.04,32,0,0,0
166065,120007942,0,0,0,15.77,0.04,32,0,0,0
166484,120116602,0,0,0,15.77,0.03,32,0,0,0
166900,120220424,0,0,0,15.77,0.04,32,0,0,0
167317,120328557,0,0,0,15.78,0.04,32,0,0,0
167771,120441624,0,0,0,15.77,0.04,32,0,0,0
168161,120544622,0,0,0,15.77,0.04,32,0,0,0
168604,120652407,0,0,0,15.77,0.04,32,0,0,0
169021,120756450,0,0,0,15.77,0.04,32,0,0,0
169472,120872128,0,0,0,15.77,0.04,32,0,0,0
169889,120973394,0,0,0,15.77,0.04,32,0,0,0
170338,121086008,0,0,0,15.77,0.04,32,0,0,0
170755,121190500,0,0,0,15.78,0.04,32,0,0,0
171170,121297069,0,0,0,15.77,0.04,32,0,0,0
171580,121397752,0,0,0,15.78,0.04,32,0,0,0
172030,121510138,0,0,0,15.77,0.04,32,0,0,0
172443,121612163,0,0,0,15.77,0.04,32,0,0,0
172859,121719016,0,0,0,15.77,0.04,32,0,0,0
173728,121936942,0,0,0,15.77,0.04,32,0,0,0
174180,122051063,0,0,0,15.77,0.04,32,0,0,0
174600,122153772,0,0,0,15.77,0.04,32,0,0,0
175015,122261350,0,0,0,15.77,0.04,32,0,0,0
175427,122362597,0,0,0,15.77,0.04,32,0,0,0
175880,122475267,0,0,0,15.77,0.04,32,0,0,0
176293,122578172,0,0,0,15.77,0.04,32,0,0,0
176741,122687738,0,0,0,15.77,0.04,32,0,0,0
177158,122791720,0,0,0,15.78,0.04,32,0,0,0
177577,122900804,0,0,0,15.77,0.04,32,0,0,0
177993,123002733,0,0,0,15.77,0.04,32,0,0,0
178439,123111952,0,0,0,15.77,0.04,32,0,0,0
178893,123223032,0,0,0,15.77,0.04,32,0,0,0
179308,123331511,0,0,0,15.77,0.04,32,0,0,0
179723,123433422,0,0,0,15.77,0.04,32,0,0,0
180137,123539410,0,0,0,15.77,0.04,32,0,0,0
180593,123650792,0,0,0,15.77,0.03,32,0,0,0
181003,123755561,0,0,0,15.77,0.03,32,0,0,0
181415,123861794,0,0,0,15.77,0.04,32,0,0,0
181872,123974534,0,0,0,15.77,0.04,32,0,0,0
182318,124083790,0,0,0,15.77,0.04,32,0,0,0
182733,124185513,0,0,0,15.77,0.04,32,0,0,0
183147,124292829,0,0,0,15.77,0.04,32,0,0,0
183562,124395825,0,0,0,15.77,0.04,32,0,0,0
184017,124510192,0,0,0,15.77,0.04,32,0,0,0
184430,124612117,0,0,0,15.77,0.04,32,0,0,0
184880,124724975,0,0,0,15.77,0.04,32,0,0,0
185333,124837978,0,0,0,15.77,0.03,32,0,0,0
185750,124942739,0,0,0,15.77,0.04,32,0,0,0
186165,125044034,0,0,0,15.77,0.04,32,0,0,0
186574,125147677,0,0,0,15.77,0.04,32,0,0,0
186989,125254053,0,0,0,15.77,0.04,32,0,0,0
187445,125369189,0,0,0,15.77,0.04,32,0,0,0
187859,125475032,0,0,0,15.77,0.04,32,0,0,0
188279,125579586,0,0,0,15.77,0.04,32,0,0,0
188693,125686028,0,0,0,15.77,0.04,32,0,0,0
189146,125797978,0,0,0,15.77,0.04,32,0,0,0
189561,125903587,0,0,0,15.77,0.04,32,0,0,0
190016,126014550,0,0,0,15.77,0.04,32,0,0,0
190431,126123374,0,0,0,15.77,0.04,32,0,0,0
190845,126225004,0,0,0,15.77,0.04,32,0,0,0
191262,126333137,0,0,0,15.77,0.04,32,0,0,0
192125,126547930,0,0,0,15.77,0.04,32,0,0,0
192538,126652134,0,0,0,15.77,0.04,32,0,0,0
192995,126763912,0,0,0,15.77,0.04,32,0,0,0
193765,126979926,0,0,0,15.77,0.04,32,0,0,0
194177,127082962,0,0,0,15.77,0.04,32,0,0,0
194634,127196488,0,0,0,15.77,0.04,32,0,0,0
195046,127301748,0,0,0,15.77,0.04,32,0,0,0
195465,127406182,0,0,0,15.77,0.04,32,0,0,0
195880,127512559,0,0,0,15.77,0.04,32,0,0,0
196786,127741385,0,0,0,15.77,0.04,32,0,0,0
197199,127843930,0,0,0,15.77,0.04,32,0,0,0
197609,127947516,0,0,0,15.77,0.04,32,0,0,0
198064,128062942,0,0,0,15.77,0.04,32,0,0,0
198410,173878938,0,0,0,15.77,0.04,32,1,0,0
198740,173959002,0,0,0,15.77,0.04,32,1,0,0
199195,174070961,0,0,0,15.77,0.04,32,1,0,0
199649,174171407,0,0,0,15.77,0.04,32,1,0,0
200150,174286449,0,0,0,15.77,0.04,32,1,0,0
200602,174387058,0,0,0,15.77,0.04,32,1,0,0
201060,174495140,0,0,0,15.77,0.04,32,1,0,0
201557,174606733,0,0,0,15.77,0.04,32,1,0,0
201964,174702568,0,0,0,15.77,0.04,32,1,0,0
202465,174814043,0,0,0,15.77,0.04,32,1,0,0
202919,174921142,0,0,0,15.77,0.04,32,1,0,0
203382,175030922,0,0,0,15.77,0.04,32,1,0,0
203836,175139795,0,0,0,15.77,0.04,32,1,0,0
204289,175242997,0,0,0,15.77,0.04,32,1,0,0
204747,175350164,0,0,0,15.77,0.04,32,1,0,0
205202,175453525,0,0,0,15.77,0.04,32,1,0,0
205693,175565951,0,0,0,15.77,0.04,32,1,0,0
206145,175670864,0,0,0,15.77,0.04,32,1,0,0
206608,175775635,0,0,0,15.77,0.04,32,1,0,0
207061,175881173,0,0,0,15.77,0.04,32,1,0,0
207559,175993511,0,0,0,15.77,0.04,32,1,0,0
208010,176095831,0,38,457,15.75,0.09,32,1,0,0
208463,176198052,0,465,928,15.74,0.15,32,1,0,0
208916,176302539,0,932,1157,15.75,0.13,32,1,0,0
209410,176413366,0,1160,1242,15.75,0.12,32,1,0,0
209711,176517712,0,1243,1271,15.75,0.11,32,1,0,0
210216,176631835,0,1271,1271,15.76,0.11,32,1,0,0
210624,176726730,0,1271,1285,15.75,0.11,32,1,0,0
211126,176844783,0,1285,1285,15.75,0.11,32,1,0,0
211580,176946443,0,1285,1285,15.75,0.11,32,1,0,0
212113,177064226,0,1285,1285,15.75,0.11,32,1,0,0
212567,177165214,0,1285,1285,15.76,0.11,32,1,0,0
213023,177271612,0,1285,1285,15.75,0.11,32,1,0,0
213479,177376108,0,1285,1285,15.75,0.11,33,1,0,0
213938,177486523,0,1285,1285,15.75,0.11,32,1,0,0
214392,177586061,0,1285,1285,15.76,0.11,32,1,0,0
214843,177690832,0,1285,1285,15.75,0.11,33,1,0,0
215349,177804032,0,1285,1285,15.76,0.11,32,1,0,0
215804,177911658,0,1285,1285,15.75,0.11,32,1,0,0
216258,178012541,0,1285,1285,15.75,0.11,32,1,0,0
216752,178126153,0,1285,1285,15.75,0.11,32,1,0,0
217211,178229823,0,1285,1285,15.75,0.11,33,1,0,0
217663,178335793,0,1285,1285,15.75,0.11,32,1,0,0
218164,178447493,0,1285,1285,15.75,0.11,33,1,0,0
218611,178553167,0,1285,1285,15.75,0.11,33,1,0,0
219066,178658523,0,1284,1271,15.75,0.11,33,1,0,0
219566,178771212,0,1272,1285,15.75,0.11,32,1,0,0
220013,178874488,0,1284,1271,15.75,0.11,33,1,0,0
220470,178978566,0,1271,1285,15.74,0.11,33,1,0,0
220921,179086744,0,1285,1285,15.76,0.11,33,1,0,0
221419,179198502,0,1285,1285,15.75,0.11,33,1,0,0
221868,179300534,0,1285,1285,15.75,0.09999999,33,1,0,0
222363,179411900,0,1285,1285,15.75,0.11,32,1,0,0
222817,179520727,0,1285,1285,15.75,0.11,33,1,0,0
223270,179628525,0,1285,1285,15.75,0.11,33,1,0,0
223723,179733038,0,1285,1285,15.75,0.11,33,1,0,0
224225,179853780,0,1285,1285,15.75,0.11,33,1,0,0
224636,179945540,0,1285,1285,15.75,0.11,33,1,0,0
225176,180070585,0,1285,1285,15.75,0.11,33,1,0,0
225585,180161650,0,1285,1285,15.75,0.11,33,1,0,0
226027,180264958,0,1285,1285,15.75,0.11,33,1,0,0
226532,180381195,0,1285,1285,15.75,0.11,33,1,0,0
226950,180481200,0,1285,1285,15.75,0.09999999,33,1,0,0
227451,180595757,0,1285,1285,15.75,0.11,33,1,0,0
227868,180698975,0,1285,1285,15.75,0.11,32,1,0,0
228323,180802194,0,1285,1285,15.74,0.11,33,1,0,0
229732,181130975,0,1285,1285,15.75,0.09999999,33,1,0,0
230233,181248741,0,1285,1285,15.75,0.09999999,33,1,0,0
230685,181354788,0,1285,1285,15.75,0.11,33,1,0,0
231136,181458606,0,1285,1285,15.75,0.11,33,1,0,0
231593,181566228,0,1285,1285,15.76,0.09999999,33,1,0,0
232044,181672925,0,1285,1285,15.75,0.11,33,1,0,0
232542,181787691,0,1285,1285,15.75,0.11,33,1,0,0
232956,181887103,0,1285,1285,15.75,0.11,33,1,0,0
233461,182002073,0,1285,1285,15.75,0.11,33,1,0,0
233913,182109281,0,1285,1285,15.75,0.11,33,1,0,0
234369,182214013,0,1285,1285,15.75,0.11,33,1,0,0
234824,182321048,0,1283,1271,15.75,0.11,33,1,0,0
235276,182424047,0,1271,1271,15.75,0.11,33,1,0,0
235726,182529011,0,1271,1285,15.75,0.11,33,1,0,0
236669,182746260,0,1285,1285,15.75,0.11,33,1,0,0
237164,182859203,0,1285,1285,15.75,0.11,33,1,0,0
237620,182961558,0,1285,1285,15.75,0.11,33,1,0,0
238115,183080410,0,1283,1271,15.75,0.11,33,1,0,0
238567,183183400,0,1271,1271,15.75,0.11,33,1,0,0
239023,183293017,0,1271,1271,15.75,0.11,33,1,0,0
239513,183401578,0,1271,1285,15.75,0.11,33,1,0,0
240432,183617925,0,1284,1271,15.74,0.11,33,1,0,0
241379,183832928,0,1271,1285,15.75,0.09999999,33,1,0,0
242332,184062582,0,1216,0,15.76,0.03,33,1,0,0
242784,184166699,0,0,0,15.77,0.04,33,1,0,0
243237,184278767,0,0,0,15.77,0.04,33,1,0,0
243687,184383397,0,0,0,15.76,0.04,33,1,0,0
244141,184494579,0,0,0,15.76,0.04,33,1,0,0
244596,184599946,0,0,0,15.76,0.04,33,1,0,0
245050,184711622,0,0,0,15.77,0.04,33,1,0,0
245504,184815977,0,0,0,15.76,0.04,33,1,0,0
245999,184932549,0,0,0,15.77,0.04,33,1,0,0
246455,185038999,0,0,0,15.76,0.04,33,1,0,0
246903,185144582,0,0,0,15.77,0.04,33,1,0,0
247360,185255210,0,0,0,15.77,0.04,33,1,0,0
247817,185361229,0,0,0,15.76,0.04,33,1,0,0
248229,185464385,0,0,0,15.76,0.04,33,1,0,0
248726,185579003,0,0,0,15.76,0.04,33,1,0,0
249182,185692808,0,0,0,15.76,0.04,33,1,0,0
249639,185799711,0,0,0,15.76,0.04,33,1,0,0
250095,185909186,0,0,0,15.76,0.04,33,1,0,0
250548,186012539,0,0,0,15.76,0.05,33,1,0,0
251039,186128172,0,0,0,15.76,0.05,33,1,0,0
251496,186234038,0,0,0,15.76,0.04,33,1,0,0
251904,186334952,0,0,0,15.76,0.04,32,1,0,0
252405,186449053,0,0,0,15.77,0.04,33,1,0,0
252849,186554590,0,0,0,15.76,0.04,33,1,0,0
253300,186662944,0,0,0,15.77,0.04,32,1,0,0
253805,186778997,0,0,0,15.76,0.04,32,1,0,0
254216,186880511,0,0,0,15.77,0.04,33,1,0,0
254715,186995193,0,0,0,15.76,0.04,33,1,0,0
255174,187106956,0,0,0,15.76,0.05,33,1,0,0
255630,187211610,0,0,0,15.76,0.04,33,1,0,0
256082,187318513,0,0,0,15.76,0.04,33,1,0,0
256581,187432559,0,0,0,15.76,0.04,32,1,0,0
257032,187538799,0,0,0,15.77,0.04,33,1,0,0
257528,187656089,0,0,0,15.77,0.04,33,1,0,0
257979,187757223,0,0,0,15.77,0.04,33,1,0,0
258396,187861427,0,0,0,15.76,0.04,33,1,0,0
258851,187963643,0,0,0,15.76,0.04,33,1,0,0
259355,188084560,0,0,0,15.76,0.04,33,1,0,0
259813,188190376,0,0,0,15.77,0.05,32,1,0,0
260263,188295768,0,0,0,15.77,0.05,33,1,0,0
260720,188402056,0,0,0,15.76,0.04,33,1,0,0
261212,188515405,0,0,0,15.76,0.04,33,1,0,0
261663,188617410,0,0,0,15.76,0.04,33,1,0,0
262117,188724642,0,0,0,15.77,0.04,33,1,0,0
262615,188836859,0,0,0,15.76,0.04,33,1,0,0
263074,188946703,0,0,0,15.76,0.04,33,1,0,0
263528,189053137,0,0,0,15.76,0.04,33,1,0,0
263981,189156426,0,0,0,15.77,0.03,33,1,0,0
264479,189269042,0,8,142,15.75,0.07000000000000001,33,1,0,0
264900,189372490,0,151,728,15.74,0.12,33,1,0,0
265386,189481505,0,751,1114,15.73,0.16,33,1,0,0
265841,189587013,0,1118,1214,15.75,0.12,32,1,0,0
266301,189700612,0,1216,1242,15.75,0.11,33,1,0,0
266755,189802924,0,1242,1285,15.75,0.11,33,1,0,0
267243,189911801,0,1285,1285,15.75,0.11,33,1,0,0
267695,190016161,0,1285,1285,15.74,0.11,33,1,0,0
268188,190129933,0,1285,1285,15.75,0.11,33,1,0,0
268643,190234964,0,1285,1285,15.75,0.11,33,1,0,0
269376,190458192,0,1285,1285,15.75,0.09999999,33,1,0,0
270320,190674828,0,1285,1285,15.75,0.09999999,33,1,0,0
270773,190777956,0,1285,1285,15.75,0.11,33,1,0,0
271227,190885655,0,1285,1285,15.75,0.09999999,33,1,0,0
272176,191105568,0,1285,1285,15.75,0.09999999,33,1,0,0
272629,191208048,0,1285,1285,15.74,0.11,33,1,0,0
273126,191322958,0,1285,1285,15.75,0.09999999,33,1,0,0
273584,191426639,0,1285,1285,15.75,0.09999999,33,1,0,0
274042,191534935,0,1285,1285,15.75,0.09999999,33,1,0,0
274462,191637898,0,1285,1285,15.75,0.11,33,1,0,0
274952,191748587,0,1285,1285,15.75,0.11,33,1,0,0
275454,191866005,0,1290,1342,15.72,0.15,33,1,0,0
275907,191971021,0,1369,1671,15.59,0.51,33,1,0,0
276360,192078641,0,1726,2314,15.65,0.54,33,1,0,0
277262,192290616,0,2333,3114,15.59,1.64,33,1,0,0
277763,192407914,0,3150,3642,15.39,1.68,33,1,0,0
278172,192506353,0,3679,4157,15.34,1.99,33,1,0,0
278625,192612722,0,4165,4685,15.1,3.31,33,1,0,0
279616,192844581,0,4740,5714,14.92,4.1,33,1,0,0
280026,192947503,0,5736,6228,14.94,4.03,33,2,0,0
280478,193056466,0,6223,6142,15.05,3.52,33,2,0,0
280932,193163762,0,6139,6100,15.1,3.84,33,2,0,0
281383,193272081,0,6115,6342,15.07,3.95,33,2,0,0
281884,193387915,0,6327,6171,15.12,3.96,33,2,0,0
282335,193497790,0,6160,6028,15.13,3.67,33,2,0,0
282785,193602054,0,6013,5828,15.08,3.52,33,2,0,0
283237,193711059,0,5833,5900,15.14,3.55,33,2,0,0
283687,193816829,0,5903,5985,15.07,3.99,33,3,0,0
284141,193927744,0,5988,6071,14.99,4.3,33,3,0,0
284641,194051199,0,6092,6228,14.98,4.24,33,3,0,0
285049,194145759,0,6228,6228,15.02,4.33,33,3,0,0
286002,194371422,0,6230,6285,15.03,4.35,33,3,0,0
286410,194474136,0,6286,6371,14.99,4.49,33,3,0,0
286908,194590488,0,6373,6400,14.98,4.59,33,3,0,0
287358,194700831,0,6392,6314,14.97,4.2,33,4,0,0
288224,194912073,0,6311,6228,15.03,4.11,33,4,0,0
288721,195028710,0,6230,6257,14.96,4.37,33,4,0,0
289131,195131210,0,6257,6271,14.95,4.56,34,4,0,0
289584,195243943,0,6271,6271,14.99,4.32,34,4,0,0
289998,195340013,0,6273,6414,14.92,4.63,34,4,0,0
290528,195464506,0,6403,6314,14.98,4.4,34,5,0,0
290940,195562828,0,6314,6328,15.01,4.2,34,5,0,0
291886,195788355,0,6319,6100,15.02,3.88,34,5,0,0
292297,195891159,0,6100,6114,15.01,3.95,34,5,0,0
292751,195998940,0,6117,6328,15.02,4.17,34,5,0,0
293732,196228405,0,6316,6042,14.99,4.06,34,5,0,0
294185,196334744,0,6052,6214,14.97,4.36,34,6,0,0
295090,196552016,0,6216,6271,14.97,4.31,34,6,0,0
295539,196662195,0,6277,6442,14.98,4.64,34,6,0,0
296026,196783123,0,6433,6342,14.99,4.67,34,6,0,0
296467,196887733,0,6346,6385,14.98,4.42,34,6,0,0
296912,196995343,0,6371,6214,15.06,4.18,34,6,0,0
297320,197103957,0,6209,6171,15.07,4.08,34,6,0,0
297769,197211150,0,6169,6042,15.03,4,34,7,0,0
298218,197323639,0,6061,6228,15.01,4.12,34,7,0,0
298668,197429756,0,6214,6028,15.05,3.84,34,7,0,0
299109,197542530,0,6034,6085,15.04,4.08,34,7,0,0
299513,197640591,0,6084,6071,15.02,3.94,34,7,0,0
299961,197756140,0,6069,6042,14.95,4.22,34,7,0,0
300405,197869199,0,6053,6142,15.02,3.98,34,7,0,0
300855,197976142,0,6127,6014,14.94,4.03,34,7,0,0
301299,198087494,0,6019,6057,15.01,3.92,34,8,0,0
301741,198196550,0,6058,6100,15.01,3.89,34,8,0,0
302189,198307101,0,6096,6071,15.01,4.06,34,8,0,0
302642,198419651,0,6091,6257,15,4.19,34,8,0,0
303040,198517622,0,6253,6214,14.95,4.2,34,8,0,0
303893,198726788,0,6213,6114,14.95,4.21,34,8,0,0
304386,198848648,0,6136,6328,14.98,4.16,34,8,0,0
304782,198948989,0,6309,6157,14.88,4.65,34,9,0,0
305271,199070353,0,6165,6300,14.95,4.37,34,9,0,0
305680,199171931,0,6292,6228,14.96,4.14,34,9,0,0
306978,199493023,0,6228,6228,14.94,4.17,34,9,0,0
307427,199601585,0,6225,6200,14.92,4.21,34,9,0,0
307835,199706006,0,6197,6171,14.92,4.38,34,9,0,0
308286,199814534,0,6178,6257,15,4.11,34,10,0,0
308699,199924141,0,6264,6328,14.97,4.19,34,10,0,0
309150,200034058,0,6313,6171,14.98,4.09,34,10,0,0
309548,200133804,0,6174,6242,14.95,4.11,35,10,0,0
310485,200361540,0,6235,6128,14.95,4.11,35,10,0,0
310928,200469008,0,6137,6214,14.98,4.09,35,10,0,0
311336,200573365,0,6217,6414,14.93,4.63,35,10,0,0
311779,200683053,0,6411,6357,14.89,4.46,35,11,0,0
312269,200799665,0,6363,6500,14.85,4.78,35,11,0,0
312706,200902653,0,6494,6442,14.87,4.63,35,11,0,0
313158,201015594,0,6442,6442,14.89,4.58,35,11,0,0
313603,201126631,0,6438,6400,14.89,4.76,35,11,0,0
314051,201234600,0,6400,6400,14.86,4.6,35,11,0,0
314862,201443177,0,6398,6242,14.81,4.54,35,12,0,0
315307,201549542,0,6247,6471,14.88,4.82,35,12,0,0
315826,201674762,0,6476,6557,14.89,4.77,35,12,0,0
316678,201885403,0,6554,6328,14.97,4.13,35,12,0,0
317132,201997910,0,6312,6157,15,3.99,35,12,0,0
318424,202318065,0,6155,6014,14.92,3.93,35,13,0,0
318915,202434859,0,6009,5957,14.95,3.79,35,13,0,0
319319,202536934,0,5955,5885,14.92,3.75,35,13,0,0
319771,202649662,0,5905,6128,14.9,4.02,35,13,0,0
320180,202755021,0,6136,6257,14.89,4.04,35,13,0,0
321070,202971920,0,6257,6285,14.91,4.14,35,13,0,0
321508,203076545,0,6285,6300,14.88,4.14,35,13,0,0
322396,203294568,0,6299,6228,14.86,4.4,35,14,0,0
322892,203416530,0,6228,6228,14.87,4.5,35,14,0,0
323296,203519622,0,6229,6300,14.88,4.33,35,14,0,0
323742,203624955,0,6300,6314,14.9,4.34,35,14,0,0
324231,203745383,0,6299,6142,14.92,4.4,35,14,0,0
324676,203852245,0,6157,6500,14.88,4.6,35,14,0,0
325127,203964171,0,6490,6400,14.86,4.47,35,15,0,0
325561,204068400,0,6395,6300,14.86,4.36,35,15,0,0
326011,204178496,0,6298,6285,14.85,4.44,35,15,0,0
326418,204280415,0,6303,6557,14.86,4.52,35,15,0,0
326868,204391369,0,6540,6371,14.87,4.67,35,15,0,0
327311,204502785,0,6365,6314,14.89,4.33,35,15,0,0
327751,204605797,0,6316,6342,14.82,4.76,35,15,0,0
328200,204719408,0,6342,6342,14.86,4.42,35,16,0,0
328606,204819971,0,6346,6442,14.84,4.86,35,16,0,0
329050,204931164,0,6439,6385,14.85,4.6,35,16,0,0
329459,205031622,0,6386,6428,14.81,4.35,35,16,0,0
329910,205149730,0,6413,6228,14.75,4.37,35,16,0,0
330362,205262056,0,6247,6428,14.81,4.99,35,16,0,0
330697,205476322,0,6537,6442,14.82,4.98,35,16,0,0
331141,205581943,0,6449,6600,14.76,5.61,35,17,0,0
331584,205690900,0,6604,6657,14.85,5.21,35,17,0,0
332038,205802660,0,6649,6557,14.88,4.78,35,17,0,0
332485,205913579,0,6561,6628,14.85,5.09,35,17,0,0
333384,206134048,0,6622,6500,14.92,4.86,36,17,0,0
333837,206243149,0,6479,6271,14.92,4.07,35,18,0,0
334281,206350534,0,6257,6128,14.94,4.05,35,18,0,0
334726,206461612,0,6133,6185,14.93,3.89,35,18,0,0
335129,206559411,0,6180,6100,14.86,4,36,18,0,0
335533,206664567,0,6101,6200,14.92,3.75,35,18,0,0
335989,206775506,0,6203,6257,14.89,4.31,36,18,0,0
336434,206887266,0,6241,6042,14.82,3.67,36,18,0,0
337280,207100617,0,6044,6285,14.76,4.56,36,19,0,0
338222,207325422,0,6281,6200,14.88,3.95,36,19,0,0
338629,207425902,0,6200,6214,14.89,3.77,36,19,0,0
339032,207531576,0,6205,6028,14.87,3.8,36,19,0,0
339973,207757938,0,6030,6114,14.9,4.14,36,19,0,0
340426,207873172,0,6124,6228,14.85,4.27,36,19,0,0
340834,207974612,0,6231,6314,14.85,4.59,36,19,0,0
341242,208082015,0,6318,6385,14.79,4.56,36,20,0,0
341691,208191655,0,6384,6342,14.86,4.42,36,20,0,0
342098,208295770,0,6342,6342,14.89,4.14,36,20,0,0
342588,208413372,0,6338,6300,14.88,4.2,36,20,0,0
342992,208512830,0,6299,6285,14.75,4.59,36,20,0,0
343439,208620161,0,6282,6100,14.86,5.46,36,20,0,0
343886,208729140,0,6104,6171,14.88,3.87,36,20,0,0
344335,208837706,0,6172,6285,14.94,4.1,36,21,0,0
344785,208951472,0,6294,6385,14.88,4.67,36,21,0,0
345227,209058421,0,6386,6400,14.82,4.34,36,21,0,0
345675,209167191,0,6399,6385,14.86,4.52,36,21,0,0
346077,209267008,0,6380,6285,14.85,4.4,36,21,0,0
346527,209376948,0,6293,6485,14.79,5.11,36,21,0,0
346972,209486600,0,6480,6314,14.85,4.28,36,21,0,0
347426,209598621,0,6313,6300,14.85,3.9,36,21,0,0
347832,209701193,0,6304,6471,14.8,5.01,36,22,0,0
348327,209823702,0,6473,6500,14.82,4.69,36,22,0,0
348730,209923765,0,6493,6342,14.77,4.33,36,22,0,0
349185,210034330,0,6344,6385,14.85,4.36,36,22,0,0
349628,210144131,0,6382,6342,14.79,4.86,36,22,0,0
350078,210251512,0,6364,6657,14.81,4.96,36,22,0,0
350484,210354358,0,6652,6528,14.92,4.02,36,22,0,0
350970,210472020,0,6523,6228,14.95,4.14,36,23,0,0
351412,210573193,0,6226,6200,14.79,4.39,36,23,0,0
351863,210687964,0,6198,6185,14.82,4.31,36,23,0,0
352271,210790144,0,6185,6185,14.82,4.42,36,23,0,0
352719,210901509,0,6185,6185,14.76,4.34,36,23,0,0
353164,211006773,0,6184,6171,14.75,4.06,36,23,0,0
353613,211124574,0,6164,6114,14.76,4.13,36,23,0,0
354021,211222633,0,6118,6228,14.76,4.43,36,24,0,0
354461,211327405,0,6228,6228,14.75,4.19,36,24,0,0
354953,211450019,0,6235,6285,14.76,4.22,36,24,0,0
355354,211545019,0,6283,6257,14.76,4.35,36,24,0,0
356249,211765592,0,6260,6400,14.7,4.81,36,24,0,0
356694,211875601,0,6400,6428,14.74,4.45,36,24,0,0
357172,211985586,0,6427,6414,14.73,4.98,36,24,0,0
357578,212093236,0,6411,6271,14.7,4.27,36,25,0,0
358032,212205364,0,6275,6485,14.73,4.56,36,25,0,0
358487,212323024,0,6490,6542,14.71,4.83,36,25,0,0
358934,212429592,0,6518,6314,14.73,4.05,36,25,0,0
359380,212540835,0,6303,6228,14.78,4.52,36,25,0,0
360270,212751153,0,6228,6228,14.73,4.29,36,25,0,0
360724,212866858,0,6238,6328,14.74,4.31,36,26,0,0
361129,212966448,0,6333,6442,14.69,4.32,36,26,0,0
361572,213076811,0,6439,6314,14.71,4.38,36,26,0,0
362025,213189219,0,6301,6157,14.77,4.13,36,26,0,0
362429,213292008,0,6160,6271,14.67,4.34,36,26,0,0
362879,213401574,0,6264,6171,14.67,4.38,36,26,0,0
363325,213509062,0,6187,6400,14.68,4.76,37,26,0,0
363774,213620774,0,6403,6457,14.67,4.51,36,26,0,0
364225,213734766,0,6440,6271,14.67,4.54,36,27,0,0
364632,213833180,0,6272,6400,14.68,4.56,36,27,0,0
365120,213951915,0,6402,6442,14.69,4.52,37,27,0,0
365568,214063519,0,6447,6500,14.72,5.16,36,27,0,0
365967,214162805,0,6500,6500,14.75,4.81,37,27,0,0
366456,214280895,0,6505,6571,14.76,4.82,37,27,0,0
366862,214382172,0,6567,6485,14.81,4.12,37,27,0,0
367305,214490814,0,6481,6314,14.72,4.73,37,28,0,0
367795,214606483,0,6320,6414,14.69,4.5,36,28,0,0
368245,214719382,0,6404,6271,14.7,4.46,37,28,0,0
368695,214828166,0,6271,6271,14.75,3.98,37,28,0,0
369140,214937057,0,6279,6357,14.73,4.3,37,28,0,0
369546,215034190,0,6353,6185,14.71,4.13,37,28,0,0
370473,215257366,0,6189,6285,14.7,4.35,37,28,0,0
370925,215365407,0,6287,6328,14.7,4.35,37,29,0,0
371336,215471043,0,6328,6342,14.66,4.63,37,29,0,0
371826,215589618,0,6349,6428,14.65,4.79,37,29,0,0
372681,215802158,0,6429,6500,14.73,4.51,37,29,0,0
373126,215912558,0,6492,6314,14.75,4.18,37,29,0,0
373579,216021607,0,6313,6271,14.71,4.56,37,29,0,0
374028,216131525,0,6272,6342,14.72,4.45,37,30,0,0
374477,216237244,0,6339,6228,14.72,4.62,37,30,0,0
375409,216466661,0,6236,6414,14.64,4.51,37,30,0,0
375816,216567597,0,6414,6414,14.64,4.6,37,30,0,0
376263,216676221,0,6419,6471,14.64,4.73,37,30,0,0
376714,216785925,0,6471,6471,14.71,4.76,37,30,0,0
377117,216887503,0,6470,6457,14.64,4.63,37,31,0,0
377597,216996482,0,6458,6485,14.69,4.62,37,31,0,0
378043,217107577,0,6488,6628,14.63,5.14,37,31,0,0
378499,217221582,0,6634,6714,14.71,5.06,37,31,0,0
378947,217333625,0,6692,6485,14.72,4.44,37,31,0,0
379427,217446529,0,6475,6414,14.72,4.74,37,31,0,0
379835,217546653,0,6419,6542,14.72,5.2,37,31,0,0
380284,217657139,0,6543,6642,14.7,4.76,37,32,0,0
380728,217764794,0,6642,6642,14.71,4.94,37,32,0,0
381216,217883777,0,6643,6657,14.69,4.7,37,32,0,0
381623,217984640,0,6649,6471,14.72,4.69,37,32,0,0
382070,218091989,0,6471,6514,14.69,4.56,37,32,0,0
382559,218206824,0,6504,6414,14.62,4.55,37,32,0,0
382964,218308158,0,6415,6514,14.67,4.45,37,33,0,0
383449,218421039,0,6512,6500,14.7,4.06,37,33,0,0
383851,218521949,0,6497,6442,14.68,4.95,37,33,0,0
384347,218641543,0,6454,6585,14.76,4.71,37,33,0,0
384751,218744034,0,6578,6442,14.72,4.57,37,33,0,0
385647,218963775,0,6440,6400,14.57,5.13,37,33,0,0
386090,219074692,0,6428,6700,14.66,5.09,37,33,0,0
386543,219180011,0,6698,6685,14.64,4.78,37,34,0,0
387432,219399571,0,6686,6714,14.67,4.96,37,34,0,0
387835,219499678,0,6710,6528,14.7,4.5,37,34,0,0
388285,219607739,0,6525,6500,14.7,4.73,37,34,0,0
388731,219717923,0,6497,6457,14.76,4.27,37,34,0,0
389179,219827064,0,6455,6442,14.73,4.66,37,34,0,0
389585,219933731,0,6433,6242,14.74,3.85,37,35,0,0
390035,220046649,0,6240,6200,14.82,4.05,37,35,0,0
390478,220151178,0,6202,6228,14.8,4.41,37,35,0,0
390961,220269065,0,6226,6214,14.79,4.08,37,35,0,0
391817,220485119,0,6210,6057,14.77,3.66,37,35,0,0
392268,220590593,0,6056,6042,14.75,3.72,37,35,0,0
392707,220700130,0,6044,6071,14.75,3.91,37,35,0,0
393562,220911592,0,6070,6057,14.8,3.87,37,36,0,0
394055,221030987,0,6062,6114,14.73,3.91,37,36,0,0
394456,221130488,0,6110,5971,14.68,3.88,37,36,0,0
395351,221350971,0,5972,6000,14.72,3.85,37,36,0,0
395803,221463962,0,6006,6085,14.77,4.08,37,36,0,0
396216,221570723,0,6086,6114,14.76,4.08,37,36,0,0
396653,221674943,0,6114,6142,14.73,4.2,37,36,0,0
397105,221786059,0,6141,6128,14.72,4.19,37,37,0,0
397586,221900591,0,6147,6314,14.75,4.45,37,37,0,0
397998,222000748,0,6312,6142,14.65,4.24,37,37,0,0
398446,222116420,0,6143,6200,14.7,4.27,37,37,0,0
398931,222229157,0,6228,6371,14.67,4.52,37,37,0,0
399256,222328609,0,6373,6400,14.67,4.61,37,37,0,0
399716,222535584,0,6454,6257,14.69,4.48,37,38,0,0
400170,222644998,0,6259,6342,14.65,4.42,37,38,0,0
400614,222754125,0,6345,6428,14.72,4.39,37,38,0,0
401100,222873209,0,6421,6357,14.73,4.56,37,38,0,0
401502,222971032,0,6359,6400,14.7,4.42,37,38,0,0
401948,223081561,0,6390,6242,14.73,4.31,37,38,0,0
402395,223189048,0,6246,6342,14.74,4.3,37,38,0,0
402846,223302994,0,6331,6228,14.76,4.25,37,39,0,0
403292,223409038,0,6231,6285,14.72,4.48,37,39,0,0
404148,223621221,0,6284,6228,14.69,4.29,37,39,0,0
405037,223838136,0,6228,6342,14.76,4.38,37,39,0,0
405482,223949105,0,6339,6185,14.69,4.1,37,39,0,0
405934,224061352,0,6188,6257,14.73,4.32,37,39,0,0
406382,224167200,0,6258,6328,14.72,4.2,37,40,0,0
406822,224273998,0,6328,6328,14.69,4.49,37,40,0,0
407312,224389920,0,6329,6342,14.66,4.9,37,40,0,0
407754,224496180,0,6349,6428,14.67,4.63,37,40,0,0
408210,224608052,0,6440,6571,14.68,4.89,37,40,0,0
408614,224712011,0,6567,6485,14.72,4.96,37,40,0,0
409104,224828122,0,6484,6471,14.66,4.65,37,40,0,0
409958,225041536,0,6469,6442,14.7,4.68,38,41,0,0
410409,225151518,0,6438,6400,14.72,4.65,37,41,0,0
410811,225254598,0,6398,6271,14.67,4.2,37,41,0,0
412202,225589156,0,6265,6085,14.74,4.14,37,41,0,0
412611,225692172,0,6086,6128,14.73,4.17,38,42,0,0
413067,225805573,0,6139,6257,14.67,4.37,38,42,0,0
413511,225916187,0,6261,6328,14.65,4.18,38,42,0,0
413956,226022698,0,6328,6342,14.64,4.56,37,42,0,0
414403,226133789,0,6345,6400,14.57,4.9,38,42,0,0
414853,226248205,0,6417,6528,14.63,5.46,38,42,0,0
415293,226349809,0,6530,6557,14.63,4.72,38,42,0,0
415707,226460010,0,6550,6471,14.61,4.67,38,42,0,0
416121,226564774,0,6466,6371,14.61,4.7,38,43,0,0
416569,226676949,0,6366,6300,14.62,4.51,38,43,0,0
417016,226783994,0,6310,6442,14.55,4.84,38,43,0,0
417424,226890046,0,6443,6471,14.59,5,37,43,0,0
418358,227111624,0,6469,6428,14.68,4.94,38,43,0,0
418804,227216486,0,6428,6442,14.79,3.69,37,43,0,0
419257,227333182,0,6414,6057,14.77,3.66,38,44,0,0
419704,227444118,0,6050,6000,14.75,4.08,38,44,0,0
420152,227552662,0,6013,6157,14.71,4.06,38,44,0,0
420633,227665328,0,6153,6114,14.77,3.72,38,44,0,0
421084,227777251,0,6103,6028,14.77,3.76,38,44,0,0
421451,227870170,0,6029,6085,14.73,3.96,38,44,0,0
421943,227989961,0,6103,6271,14.63,4.63,38,44,0,0
422386,228102046,0,6261,6200,14.64,4.67,38,45,0,0
423273,228311618,0,6204,6328,14.71,4.31,38,45,0,0
423722,228428034,0,6319,6185,14.72,4.49,38,45,0,0
424168,228538580,0,6188,6228,14.66,4.49,38,45,0,0
424572,228638497,0,6234,6357,14.67,4.32,38,45,0,0
425061,228759977,0,6353,6314,14.65,4.37,38,45,0,0
425466,228858150,0,6315,6357,14.74,4.35,38,45,0,0
426081,229066248,0,6356,6328,14.74,4.13,38,46,0,0
426531,229178523,0,6322,6214,14.73,4.23,38,46,0,0
426967,229284780,0,6215,6285,14.66,4.06,38,46,0,0
427423,229397743,0,6265,6071,14.79,3.96,38,46,0,0
427864,229504817,0,6075,6171,14.71,4.24,38,46,0,0
428318,229615202,0,6161,6071,14.73,4.34,38,46,0,0
428768,229730632,0,6068,6042,14.75,4,38,46,0,0
429176,229831025,0,6035,5957,14.79,3.81,38,47,0,0
429625,229940004,0,5963,6157,14.71,4.47,38,47,0,0
430108,230051948,0,6172,6385,14.72,4.71,38,47,0,0
430516,230153783,0,6382,6328,14.72,4.55,38,47,0,0
430957,230264827,0,6340,6485,14.77,4.37,38,47,0,0
431408,230374028,0,6470,6200,14.8,4.34,38,47,0,0
431854,230486821,0,6186,6057,14.73,4.01,38,47,0,0
432302,230592594,0,6068,6185,14.73,4.52,38,48,0,0
432745,230699947,0,6187,6228,14.71,4.24,38,48,0,0
433198,230811937,0,6237,6357,14.72,4.54,38,48,0,0
433600,230911543,0,6359,6442,14.75,4.81,38,48,0,0
434051,231023391,0,6440,6314,14.66,4.29,38,48,0,0
434495,231132795,0,6313,6285,14.67,4.4,38,48,0,0
434943,231242781,0,6284,6271,14.66,4.27,38,48,0,0
435386,231352988,0,6271,6271,14.7,4.58,38,48,0,0
435831,231466726,0,6292,6514,14.73,4.67,38,49,0,0
436284,231578217,0,6493,6285,14.73,4.44,38,49,0,0
436685,231679940,0,6297,6557,14.72,4.77,38,49,0,0
437133,231790744,0,6556,6542,14.73,4.61,38,49,0,0
437537,231894136,0,6540,6457,14.63,4.78,38,49,0,0
438027,232009814,0,6450,6300,14.76,4.41,38,49,0,0
438476,232123741,0,6288,6171,14.76,3.95,38,49,0,0
438920,232230772,0,6171,6185,14.66,4.36,38,49,0,0
439369,232342235,0,6199,6342,14.69,4.2,38,50,0,0
439816,232454683,0,6346,6385,14.68,4.28,38,50,0,0
440704,232670639,0,6382,6342,14.67,4.69,38,50,0,0
441602,232896676,0,6351,6557,14.73,4.66,38,50,0,0
442007,232995165,0,6554,6414,14.67,4.73,38,51,0,0
442453,233105125,0,6419,6485,14.7,4.45,38,51,0,0
442944,233221789,0,6481,6442,14.66,4.63,38,51,0,0
443344,233321592,0,6441,6385,14.67,5.03,38,51,0,0
443793,233431359,0,6397,6557,14.7,4.53,38,51,0,0
444239,233542060,0,6546,6428,14.76,4.46,38,51,0,0
444681,233649125,0,6412,6228,14.76,4.33,38,51,0,0
445132,233764006,0,6231,6271,14.72,4.23,38,51,0,0
445535,233864991,0,6272,6300,14.72,3.99,38,52,0,0
445976,233968517,0,6298,6257,14.59,4.27,38,52,0,0
446420,234077072,0,6272,6571,14.52,5.4,38,52,0,0
446874,234188990,0,6579,6685,14.68,4.81,38,52,0,0
447315,234297535,0,6678,6528,14.67,4.67,38,52,0,0
447764,234407201,0,6521,6357,14.73,4.09,38,52,0,0
448210,234519387,0,6350,6257,14.72,4.23,38,52,0,0
448656,234624511,0,6257,6257,14.67,4.61,38,53,0,0
449103,234736793,0,6260,6357,14.64,4.43,38,53,0,0
449548,234843154,0,6357,6357,14.62,4.41,38,53,0,0
450029,234958193,0,6359,6400,14.62,4.44,38,53,0,0
450438,235060129,0,6401,6457,14.7,4.37,38,53,0,0
450892,235174529,0,6437,6242,14.68,4.18,38,53,0,0
451300,235277230,0,6242,6242,14.66,4.34,38,53,0,0
451751,235386659,0,6242,6257,14.75,4.05,38,53,0,0
452169,235494394,0,6257,6271,14.74,3.63,38,54,0,0
452614,235600798,0,6260,6042,14.67,4.03,38,54,0,0
453064,235713973,0,6048,6142,14.7,4.03,38,54,0,0
453508,235820553,0,6144,6185,14.73,3.96,38,54,0,0
453954,235928815,0,6185,6185,14.75,3.74,38,54,0,0
454406,236036977,0,6183,6157,14.72,3.9,38,54,0,0
454844,236144191,0,6155,6128,14.66,4.19,38,54,0,0
455329,236263239,0,6140,6242,14.64,4.33,38,54,0,0
455780,236374935,0,6244,6271,14.63,4.04,38,55,0,0
456180,236475971,0,6275,6314,14.6,4.31,38,55,0,0
456627,236583144,0,6316,6342,14.64,4.31,38,55,0,0
457519,236801639,0,6342,6357,14.67,4.5,38,55,0,0
457997,236921016,0,6346,6271,14.75,4.09,38,55,0,0
458403,237015954,0,6266,6200,14.66,4.39,38,55,0,0
458851,237132969,0,6206,6257,14.6,4.49,38,55,0,0
459335,237241955,0,6278,6500,14.63,4.73,38,56,0,0
459739,237345020,0,6501,6585,14.55,4.77,38,56,0,0
460223,237464816,0,6583,6571,14.56,5.12,38,56,0,0
460670,237572617,0,6571,6571,14.53,5.01,38,56,0,0
461077,237671929,0,6576,6685,14.55,5.12,38,56,0,0
461560,237787170,0,6674,6585,14.57,5.03,38,56,0,0
461958,237886969,0,6581,6514,14.56,4.97,38,57,0,0
462410,237996720,0,6514,6542,14.51,5.08,38,57,0,0
462895,238113010,0,6561,6828,14.65,5.24,38,57,0,0
463336,238221832,0,6810,6642,14.67,4.85,38,57,0,0
463780,238334075,0,6639,6600,14.63,4.82,38,57,0,0
464232,238444802,0,6591,6471,14.52,5.24,38,57,0,0
464637,238550503,0,6472,6585,14.55,5.06,38,57,0,0
465082,238661804,0,6585,6585,14.57,4.76,38,58,0,0
465530,238771494,0,6589,6657,14.54,5.04,38,58,0,0
465978,238882196,0,6657,6657,14.6,4.91,38,58,0,0
466426,238990958,0,6654,6628,14.48,5.15,38,58,0,0
466825,239091152,0,6625,6571,14.58,4.82,38,58,0,0
467275,239199972,0,6571,6571,14.52,4.92,38,58,0,0
467720,239313010,0,6564,6471,14.55,5.01,38,58,0,0
468607,239528501,0,6473,6571,14.6,4.52,38,59,0,0
469057,239637219,0,6568,6400,14.58,4.93,38,59,0,0
469910,239848996,0,6404,6585,14.61,4.68,38,59,0,0
470358,239962598,0,6585,6585,14.59,4.58,38,59,0,0
470802,240072823,0,6579,6485,14.58,4.7,38,60,0,0
471250,240181604,0,6496,6614,14.6,4.72,38,60,0,0
471657,240286012,0,6604,6371,14.63,4.53,38,60,0,0
472102,240391365,0,6377,6457,14.59,4.6,38,60,0,0
472548,240501265,0,6451,6371,14.66,4.64,38,60,0,0
472995,240611524,0,6380,6457,14.59,4.54,38,60,0,0
473405,240715387,0,6450,6300,14.63,4.51,38,60,0,0
473850,240822930,0,6309,6428,14.58,4.57,38,60,0,0
474304,240935822,0,6437,6571,14.59,4.57,38,61,0,0
474752,241044369,0,6555,6342,14.6,4.24,38,61,0,0
475199,241157822,0,6342,6342,14.59,4.71,38,61,0,0
475606,241261008,0,6350,6485,14.58,4.75,38,61,0,0
476052,241370729,0,6487,6514,14.61,4.72,38,61,0,0
476456,241472970,0,6514,6514,14.57,4.6,38,61,0,0
476938,241585362,0,6512,6471,14.55,4.6,38,61,0,0
477386,241697606,0,6474,6528,14.58,4.8,38,62,0,0
477839,241810418,0,6520,6442,14.61,4.52,38,62,0,0
478243,241911724,0,6447,6571,14.48,5.06,38,62,0,0
478691,242016198,0,6565,6457,14.51,4.94,38,62,0,0
479138,242130568,0,6473,6700,14.51,5.26,38,62,0,0
479591,242242074,0,6702,6728,14.48,5.06,38,62,0,0
479991,242343189,0,6726,6614,14.54,5.25,38,62,0,0
480437,242454662,0,6615,6728,14.59,4.89,38,63,0,0
480932,242573750,0,6703,6442,14.6,4.34,38,63,0,0
481335,242677526,0,6443,6457,14.62,4.73,38,63,0,0
482262,242897459,0,6452,6314,14.62,4.21,38,63,0,0
482673,242997672,0,6314,6328,14.57,4.33,38,63,0,0
483116,243107930,0,6335,6428,14.61,4.45,38,63,0,0
483564,243217732,0,6413,6271,14.63,4.21,38,64,0,0
484000,243321547,0,6267,6185,14.69,4.05,38,64,0,0
484449,243427067,0,6192,6357,14.6,4.29,38,64,0,0
484893,243540784,0,6353,6300,14.61,4.1,38,64,0,0
485340,243653940,0,6289,6200,14.72,3.98,38,64,0,0
485782,243757423,0,6192,6114,14.69,3.61,38,64,0,0
486641,243973050,0,6113,6085,14.65,3.76,38,64,0,0
487085,244081380,0,6089,6185,14.67,3.75,38,65,0,0
487534,244191355,0,6180,6071,14.63,3.95,38,65,0,0
487981,244304943,0,6076,6157,14.64,4.1,38,65,0,0
488433,244413986,0,6160,6214,14.57,4.42,38,65,0,0
488879,244528516,0,6223,6328,14.59,4.28,38,65,0,0
489324,244635746,0,6326,6300,14.58,4.33,38,65,0,0
489770,244743952,0,6311,6457,14.6,4.6,38,65,0,0
490214,244854679,0,6451,6328,14.57,4.36,38,66,0,0
490667,244963080,0,6328,6342,14.58,4.41,38,66,0,0
491070,245066512,0,6344,6400,14.58,4.21,38,66,0,0
491517,245175596,0,6401,6471,14.53,4.84,38,66,0,0
491999,245291197,0,6477,6571,14.64,4.58,38,66,0,0
492450,245402936,0,6559,6457,14.66,4.16,38,66,0,0
492900,245512159,0,6442,6300,14.55,4.27,38,66,0,0
493345,245621521,0,6319,6557,14.65,4.64,38,66,0,0
493791,245731859,0,6533,6328,14.58,4.4,38,67,0,0
494241,245843747,0,6329,6342,14.62,4.26,38,67,0,0
494685,245953414,0,6336,6300,14.6,4.22,38,67,0,0
495138,246061524,0,6311,6414,14.58,4.48,38,67,0,0
495542,246158667,0,6408,6285,14.6,4.46,38,67,0,0
495986,246270547,0,6298,6428,14.6,4.37,38,67,0,0
496431,246383979,0,6420,6314,14.6,5.05,38,67,0,0
496834,246484517,0,6319,6557,14.63,4.55,38,68,0,0
497288,246598528,0,6550,6485,14.63,4.42,38,68,0,0
497729,246708216,0,6476,6371,14.64,4.46,38,68,0,0
498212,246818412,0,6367,6328,14.57,4.56,38,68,0,0
498621,246922602,0,6344,6500,14.63,4.63,38,68,0,0
499965,247252583,0,6495,6385,14.62,4.73,38,69,0,0
500367,247354944,0,6395,6514,14.66,4.71,38,69,0,0
500810,247463974,0,6490,6242,14.59,4.39,38,69,0,0
501257,247572827,0,6241,6228,14.62,4.62,38,69,0,0
501662,247674925,0,6239,6457,14.64,4.54,38,69,0,0
502070,247779380,0,6456,6428,14.61,4.54,38,69,0,0
502556,247898158,0,6423,6300,14.56,4.68,38,69,0,0
503444,248112660,0,6312,6557,14.62,4.51,38,70,0,0
503885,248218999,0,6553,6285,14.57,4.53,38,70,0,0
504332,248332411,0,6277,6171,14.64,4.02,38,70,0,0
504780,248439020,0,6169,6142,14.6,4.61,38,70,0,0
505228,248550586,0,6157,6314,14.56,4.5,38,70,0,0
505669,248659491,0,6309,6257,14.62,4.57,38,70,0,0
506560,248879625,0,6260,6357,14.57,4.75,38,71,0,0
506935,248977723,0,6354,6242,14.58,4.47,38,71,0,0
507380,249085907,0,6245,6500,14.53,4.81,38,71,0,0
507822,249195816,0,6495,6228,14.6,4.12,38,71,0,0
508227,249298947,0,6228,6285,14.58,4.32,39,71,0,0
508720,249416484,0,6266,6085,14.57,3.99,38,71,0,0
509120,249518024,0,6087,6128,14.54,3.99,39,71,0,0
509571,249629908,0,6113,5914,14.6,3.91,38,71,0,0
509977,249735946,0,5923,6042,14.6,3.77,38,72,0,0
510468,249853186,0,6030,5914,14.59,3.71,38,72,0,0
510872,249955561,0,5906,5800,14.6,3.54,39,72,0,0
511310,250062193,0,5799,5771,14.56,3.62,38,72,0,0
511761,250174123,0,5772,5842,14.57,3.57,38,72,0,0
512658,250394299,0,5842,5871,14.64,3.79,38,72,0,0
513102,250505533,0,5869,5857,14.61,3.85,39,72,0,0
513994,250723804,0,5866,6142,14.58,4.07,38,73,0,0
514447,250836158,0,6132,6042,14.6,4.09,39,73,0,0
514850,250939807,0,6033,5914,14.5,4.16,38,73,0,0
515301,251053543,0,5914,5914,14.6,3.93,39,73,0,0
515749,251161699,0,5924,6085,14.59,3.93,38,73,0,0
516196,251276747,0,6078,6014,14.61,3.98,38,73,0,0
516595,251373469,0,6016,6042,14.61,4.07,38,73,0,0
517044,251483712,0,6043,6057,14.59,4.21,38,73,0,0
517448,251583964,0,6054,5914,14.57,4.13,39,74,0,0
517888,251692973,0,5916,6071,14.58,4.13,38,74,0,0
518337,251803194,0,6073,6214,14.64,4.11,39,74,0,0
518825,251920602,0,6203,6100,14.58,4.05,38,74,0,0
519273,252029010,0,6091,6000,14.61,4.1,38,74,0,0
519717,252139738,0,6003,6042,14.6,4.24,38,74,0,0
520161,252246751,0,6045,6100,14.6,4.33,38,74,0,0
520597,252351340,0,6100,6100,14.61,4.22,38,74,0,0
521011,252455797,0,6101,6200,14.57,4.24,39,75,0,0
521496,252572902,0,6193,6128,14.63,4.09,39,75,0,0
522350,252784502,0,6129,6171,14.54,4.1,39,75,0,0
522837,252900375,0,6177,6242,14.59,4.21,38,75,0,0
523246,253002225,0,6237,6142,14.62,4.22,38,75,0,0
523693,253115998,0,6150,6257,14.61,3.99,39,75,0,0
524144,253227587,0,6240,6085,14.59,4.05,39,75,0,0
524544,253324984,0,6085,6100,14.62,3.85,38,76,0,0
524995,253432252,0,6102,6157,14.61,3.91,39,76,0,0
525444,253546013,0,6144,5971,14.64,3.88,38,76,0,0
525893,253654575,0,5974,6057,14.61,4.01,38,76,0,0
526343,253770424,0,6055,6042,14.58,3.92,38,76,0,0
526745,253869237,0,6042,6042,14.58,4.05,39,76,0,0
527194,253977697,0,6046,6157,14.61,4.1,38,76,0,0
527600,254082036,0,6156,6100,14.6,4.18,39,76,0,0
528084,254195949,0,6098,6071,14.64,3.98,39,77,0,0
528493,254304057,0,6070,6057,14.64,4,38,77,0,0
528944,254412948,0,6063,6157,14.64,4.06,39,77,0,0
529342,254514003,0,6151,5957,14.58,3.93,39,77,0,0
529800,254629159,0,5958,6000,14.62,3.99,38,77,0,0
530240,254737727,0,5998,5914,14.61,4.16,39,77,0,0
530729,254855922,0,5931,6085,14.61,4.01,39,77,0,0
531174,254963630,0,6077,6000,14.57,4.43,39,77,0,0
531580,255069604,0,6002,6214,14.51,4.87,39,78,0,0
532468,255284569,0,6217,6514,14.38,5.57,39,78,0,0
532918,255391728,0,6520,6900,14.44,5.89,39,78,0,0
533394,255510954,0,6886,6742,14.44,5.28,39,78,0,0
533847,255616624,0,6738,6685,14.47,4.77,39,78,0,0
534254,255719735,0,6683,6571,14.43,4.69,39,78,0,0
535178,255943727,0,6559,6285,14.53,4.33,39,79,0,0
535588,256048543,0,6282,6228,14.55,4.21,38,79,0,0
536068,256161539,0,6223,6171,14.58,4.06,39,79,0,0
536516,256274164,0,6167,6142,14.58,4.06,39,79,0,0
536920,256373925,0,6130,5900,14.57,3.67,39,79,0,0
537396,256486666,0,5897,5871,14.55,3.59,39,79,0,0
537844,256595942,0,5870,5857,14.51,3.56,39,79,0,0
538253,256703060,0,5849,5785,14.57,3.68,39,80,0,0
538707,256811128,0,5799,5942,14.54,3.7,39,80,0,0
539117,256920791,0,5935,5871,14.57,3.65,39,80,0,0
539563,257028118,0,5879,5957,14.53,3.9,39,80,0,0
540454,257244573,0,5956,5928,14.61,3.8,39,80,0,0
540853,257346142,0,5930,5971,14.62,3.97,39,80,0,0
541298,257456453,0,5972,6014,14.61,3.86,39,80,0,0
541746,257560786,0,6011,5885,14.66,3.75,39,81,0,0
542222,257675181,0,5874,5771,14.67,3.64,39,81,0,0
542676,257789923,0,5784,5928,14.67,3.51,39,81,0,0
543084,257893030,0,5916,5814,14.67,3.56,39,81,0,0
543570,258001964,0,5804,5671,14.66,3.21,39,81,0,0
543969,258104537,0,5663,5600,14.6,3.14,39,81,0,0
544458,258221451,0,5592,5514,14.68,2.92,39,81,0,0
544861,258320595,0,5511,5485,14.66,3.1,39,81,0,0
545703,258530996,0,5487,5614,14.68,3.31,39,81,0,0
546151,258643043,0,5614,5614,14.64,3.42,39,82,0,0
546592,258752976,0,5630,5871,14.64,3.61,39,82,0,0
547520,258971524,0,5867,5785,14.61,3.87,39,82,0,0
547968,259085144,0,5792,5857,14.61,3.88,39,82,0,0
548375,259181920,0,5855,5828,14.6,4.09,39,82,0,0
548818,259295826,0,5858,6142,14.54,4.39,39,82,0,0
549226,259395961,0,6143,6228,14.61,4.28,39,82,0,0
549711,259513968,0,6248,6457,14.56,4.54,39,82,0,0
550155,259620522,0,6449,6371,14.57,4.61,39,83,0,0
550561,259726163,0,6369,6314,14.6,4.76,39,83,0,0
551015,259836494,0,6317,6400,14.66,4.66,39,83,0,0
551465,259953167,0,6386,6257,14.63,4.62,39,83,0,0
551874,260054151,0,6260,6342,14.56,4.53,39,83,0,0
552316,260161550,0,6347,6414,14.56,4.75,39,83,0,0
552795,260276188,0,6419,6457,14.58,4.9,39,83,0,0
553209,260380398,0,6444,6271,14.6,4.16,39,84,0,0
553657,260493630,0,6275,6328,14.6,4.52,39,84,0,0
554061,260592940,0,6327,6271,14.57,4.29,39,84,0,0
554509,260706648,0,6264,6185,14.63,4.13,39,84,0,0
554960,260814622,0,6192,6271,14.63,4.13,39,84,0,0
555404,260925217,0,6288,6471,14.56,4.64,39,84,0,0
555851,261031562,0,6466,6400,14.58,4.56,39,84,0,0
556260,261136473,0,6400,6400,14.55,4.36,39,85,0,0
556741,261245241,0,6390,6300,14.56,4.54,39,85,0,0
557149,261350355,0,6311,6457,14.57,4.98,39,85,0,0
557600,261465832,0,6484,6671,14.59,4.96,39,85,0,0
558009,261569787,0,6657,6514,14.61,4.67,39,85,0,0
558859,261784202,0,6504,6242,14.54,4.63,39,85,0,0
559307,261894014,0,6247,6328,14.58,4.54,39,85,0,0
559750,261997979,0,6333,6442,14.54,4.55,39,86,0,0
560194,262107744,0,6434,6328,14.54,4.34,39,86,0,0
560645,262215990,0,6321,6214,14.55,4.33,39,86,0,0
561086,262321045,0,6219,6342,14.6,4.33,39,86,0,0
561587,262443598,0,6338,6314,14.59,4.27,39,86,0,0
561980,262540066,0,6310,6142,14.5,4.22,39,86,0,0
562427,262647806,0,6140,6057,14.59,4.05,39,86,0,0
562880,262764619,0,6057,6057,14.55,4,39,87,0,0
563281,262864947,0,6055,6014,14.55,3.83,39,87,0,0
563735,262975209,0,6014,6071,14.6,3.63,39,87,0,0
564179,263084589,0,6056,5857,14.61,3.63,39,87,0,0
564627,263191729,0,5856,5842,14.64,3.7,39,87,0,0
565080,263306029,0,5838,5771,14.66,3.55,39,87,0,0
565530,263413829,0,5787,6014,14.63,3.92,39,87,0,0
565977,263527489,0,6014,6028,14.6,3.7,39,87,0,0
566427,263638025,0,6021,5957,14.67,3.69,39,87,0,0
567277,263852756,0,5959,6014,14.59,3.85,39,88,0,0
567725,263960626,0,6018,6071,14.55,4.28,39,88,0,0
568615,264176487,0,6086,6414,14.53,4.62,39,88,0,0
569064,264287804,0,6414,6414,14.63,4.49,39,88,0,0
569470,264388527,0,6411,6285,14.54,4.43,39,88,0,0
569616,264501531,0,6281,6242,14.44,4.86,39,88,0,0
570025,264605156,0,6262,6657,14.44,5.1,39,89,0,0
570476,264720665,0,6649,6571,14.47,5.06,39,89,0,0
571366,264937581,0,6569,6500,14.44,5.2,39,89,0,0
571844,265051741,0,6509,6600,14.44,5.08,39,89,0,0
572256,265154414,0,6589,6442,14.42,4.93,39,89,0,0
573149,265375981,0,6442,6442,14.36,4.91,39,90,0,0
573591,265487599,0,6457,6585,14.38,5.16,39,90,0,0
574041,265598585,0,6589,6614,14.37,5.04,39,90,0,0
574440,265696219,0,6612,6514,14.39,4.66,39,90,0,0
574924,265810561,0,6501,6385,14.44,4.36,39,90,0,0
575376,265923613,0,6376,6300,14.44,4.37,39,90,0,0
576188,266131152,0,6298,6100,14.41,4.47,39,91,0,0
577119,266355061,0,6100,6185,14.45,4.7,39,91,0,0
577608,266472708,0,6209,6428,14.47,5,39,91,0,0
578056,266583038,0,6425,6400,14.43,4.66,39,91,0,0
578465,266689307,0,6393,6314,14.52,4.28,39,91,0,0
578918,266799164,0,6300,6157,14.53,4.19,39,91,0,0
579364,266910517,0,6157,6157,14.57,4.02,39,92,0,0
579810,267017631,0,6154,6128,14.48,4.06,39,92,0,0
580258,267128799,0,6115,5985,14.56,3.47,39,92,0,0
580706,267237783,0,5999,6142,14.51,4.09,39,92,0,0
581112,267339922,0,6147,6228,14.49,4.58,39,92,0,0
581561,267450013,0,6235,6400,14.52,4.68,39,92,0,0
582010,267563513,0,6377,6157,14.58,4.07,39,92,0,0
582409,267661984,0,6157,6157,14.51,4.02,39,93,0,0
582864,267774699,0,6157,6200,14.5,4.57,39,93,0,0
583304,267884360,0,6198,6157,14.53,4.06,39,93,0,0
583758,267996208,0,6156,6128,14.51,3.83,39,93,0,0
584202,268106639,0,6121,6042,14.54,3.52,39,93,0,0
584654,268218020,0,6029,5742,14.57,3.7,39,93,0,0
585098,268326578,0,5756,5900,14.54,3.82,39,93,0,0
585555,268437798,0,5900,5900,14.55,3.94,39,93,0,0
586004,268550554,0,5896,5857,14.52,4.09,39,94,0,0
586451,268664571,0,5869,6042,14.53,4.28,39,94,0,0
586859,268764343,0,6046,6100,14.51,4.39,39,94,0,0
587751,268983597,0,6109,6314,14.51,4.02,39,94,0,0
588149,269083202,0,6310,6100,14.51,4.26,39,94,0,0
588597,269191713,0,6101,6242,14.52,4.68,39,94,0,0
589043,269302081,0,6241,6214,14.55,4.59,39,94,0,0
589530,269416228,0,6219,6300,14.52,4.24,39,95,0,0
589898,269514345,0,6298,6185,14.5,4.56,39,95,0,0
590389,269631950,0,6177,6071,14.46,4.58,39,95,0,0
590800,269740983,0,6091,6385,14.48,4.99,39,95,0,0
591247,269853935,0,6355,6114,14.52,4.04,39,95,0,0
591655,269953739,0,6107,6014,14.57,3.88,39,95,0,0
592995,270283628,0,6012,5971,14.55,3.89,39,95,0,0
593401,270383542,0,5963,5814,14.53,3.53,39,96,0,0
593850,270495585,0,5821,5928,14.54,3.84,39,96,0,0
594298,270604625,0,5936,6057,14.48,4.15,39,96,0,0
594750,270718693,0,6055,6042,14.47,4.1,39,96,0,0
595203,270829767,0,6042,6042,14.43,4.25,39,96,0,0
595645,270937716,0,6056,6242,14.5,4.52,39,96,0,0
596091,271048133,0,6238,6200,14.5,4.21,39,96,0,0
596539,271157060,0,6206,6271,14.49,4.33,39,97,0,0
596947,271263008,0,6274,6300,14.55,4.43,39,97,0,0
597353,271364953,0,6296,6228,14.55,4.77,39,97,0,0
597801,271475957,0,6228,6242,14.51,4.74,39,97,0,0
598251,271585055,0,6251,6385,14.48,4.8,39,97,0,0
598656,271691378,0,6391,6528,14.5,4.85,39,97,0,0
599112,271803534,0,6524,6442,14.54,4.83,39,97,0,0
599553,271911979,0,6439,6400,14.54,4.52,39,98,0,0
600006,272027732,0,6387,6271,14.51,4.61,39,98,0,0
600406,272124180,0,6270,6242,14.55,4.16,39,98,0,0
600859,272235572,0,6225,6014,14.53,4,39,98,0,0
601300,272344118,0,6012,5971,14.52,3.52,39,98,0,0
601786,272466441,0,5963,5900,14.52,3.41,39,98,0,0
602664,272678819,0,5896,5785,14.52,3.08,39,98,0,0
603120,272788607,0,5780,5742,14.54,2.9,39,98,0,0
603566,272900688,0,5751,5857,14.55,3.86,39,98,0,0
604015,273010575,0,5858,5900,14.48,3.31,39,99,0,0
604498,273126518,0,5879,5728,14.45,2.3,39,99,0,0
604944,273232977,0,5702,5500,14.48,2.63,39,99,0,0
605351,273335112,0,5503,5585,14.48,2.89,39,99,0,0
605797,273447945,0,5604,5742,14.48,3.46,39,99,0,0
606203,273549573,0,5747,5971,14.5,3.85,39,99,0,0
606698,273672993,0,5981,6071,14.52,3.91,39,99,0,0
607540,273879591,0,6072,6142,14.47,3.98,39,99,0,0
607992,273990143,0,6165,6357,14.48,3.94,39,100,0,0
608399,274090588,0,6349,5942,14.48,3.65,39,100,0,0
608890,274211957,0,5937,5885,14.5,3.65,39,100,0,0
609290,274307742,0,5892,5985,14.54,3.77,39,100,0,0
609735,274414797,0,5971,5842,14.51,3.89,39,100,0,0
610179,274524565,0,5844,5871,14.51,3.88,39,100,0,0
610629,274635773,0,5893,6100,14.47,3.98,39,100,0,0
611032,274737419,0,6100,6100,14.45,4.26,39,100,0,0
611480,274845528,0,6101,6171,14.47,4.29,39,101,0,0
611938,274964947,0,6177,6228,14.44,4.33,39,101,0,0
612386,275075003,0,6214,6071,14.44,4.03,39,101,0,0
612791,275170644,0,6071,6085,14.51,4.05,39,101,0,0
613239,275284726,0,6089,6128,14.48,4.25,39,101,0,0
613689,275393931,0,6140,6271,14.47,4.44,39,101,0,0
614092,275495946,0,6274,6357,14.45,4.67,39,101,0,0
614993,275720058,0,6359,6442,14.47,4.89,39,102,0,0
615439,275827004,0,6453,6700,14.47,5.2,39,102,0,0
615881,275937159,0,6697,6642,14.41,4.99,39,102,0,0
616336,276050775,0,6643,6657,14.5,5.08,39,102,0,0
616781,276157415,0,6655,6642,14.49,4.83,39,102,0,0
617221,276263336,0,6636,6557,14.51,4.56,39,102,0,0
618076,276477665,0,6555,6414,14.47,4.91,39,103,0,0
618604,276597947,0,6434,6657,14.42,4.96,39,103,0,0
619007,276700579,0,6658,6728,14.45,5.56,39,103,0,0
619491,276813732,0,6731,6814,14.38,5.48,39,103,0,0
619932,276923253,0,6816,6857,14.45,5.36,39,103,0,0
620338,277021419,0,6852,6571,14.45,5.14,39,103,0,0
620785,277132187,0,6584,6757,14.5,4.63,39,104,0,0
621683,277354723,0,6738,6342,14.48,4.25,39,104,0,0
622128,277462896,0,6336,6285,14.58,4.31,39,104,0,0
622576,277572568,0,6284,6271,14.67,3.58,39,104,0,0
622979,277676327,0,6262,5814,14.68,2.89,39,104,0,0
623473,277792727,0,5803,5700,14.77,3.09,39,104,0,0
623914,277900643,0,5683,5457,14.82,2.29,39,104,0,0
624363,278008624,0,5446,5300,14.79,2.3,39,104,0,0
624804,278115057,0,5304,5400,14.75,2.75,39,105,0,0
625255,278223640,0,5400,5400,14.86,2.44,39,105,0,0
625711,278340749,0,5413,5557,14.76,2.69,39,105,0,0
626151,278442958,0,5554,5514,14.75,2.69,39,105,0,0
626557,278550421,0,5523,5714,14.7,3.74,39,105,0,0
627046,278672981,0,5743,6057,14.72,3.76,39,105,0,0
627447,278773592,0,6066,6157,14.76,3.44,39,105,0,0
628334,278987578,0,6153,6000,14.69,3.24,39,105,0,0
628743,279090905,0,6002,6100,14.61,3.6,39,105,0,0
629234,279207927,0,6113,6257,14.57,4.85,39,106,0,0
629636,279307579,0,6265,6471,14.63,4.88,39,106,0,0
630084,279416984,0,6479,6671,14.45,4.88,39,106,0,0
630531,279529514,0,6654,6442,14.55,4.87,39,106,0,0
631022,279645406,0,6439,6414,14.64,4.36,39,106,0,0
631421,279744957,0,6411,6271,14.6,4.58,39,106,0,0
631906,279861978,0,6279,6414,14.61,4.29,39,106,0,0
632359,279973533,0,6400,6257,14.69,4.17,39,106,0,0
633251,280192727,0,6250,6100,14.73,3.21,39,107,0,0
633701,280313557,0,6046,5742,14.72,3.49,39,107,0,0
634109,280407807,0,5740,5671,14.59,3.7,39,107,0,0
634548,280522645,0,5686,5814,14.57,3.69,39,107,0,0
635031,280629094,0,5819,5885,14.63,3.78,39,107,0,0
635928,280850635,0,5897,6157,14.58,4.64,39,107,0,0
636327,280951383,0,6170,6314,14.48,4.71,39,108,0,0
636777,281063742,0,6338,6585,14.53,5.1,39,108,0,0
637228,281176526,0,6608,6800,14.51,5.81,39,108,0,0
637627,281278783,0,6800,6800,14.41,6.15,39,108,0,0
638082,281393749,0,6833,7214,14.35,6.56,39,108,0,0
638526,281504002,0,7210,7128,14.55,5.52,39,109,0,0
638974,281612650,0,7071,6600,14.54,4.56,39,109,0,0
639381,281717705,0,6563,6285,14.53,4.12,39,109,0,0
639838,281829859,0,6269,6114,14.6,4.23,39,109,0,0
640719,282038006,0,6116,6228,14.58,4.28,39,109,0,0
641121,282141605,0,6226,6128,14.57,4,39,109,0,0
641607,282260772,0,6136,6228,14.58,4.59,39,109,0,0
642057,282372049,0,6228,6228,14.52,4.87,39,109,0,0
642505,282486119,0,6262,6514,14.57,4.4,39,110,0,0
642911,282583547,0,6495,6314,14.52,4.53,39,110,0,0
643315,282688202,0,6311,6257,14.52,4.56,39,110,0,0
643759,282795161,0,6259,6485,14.44,4.64,39,110,0,0
644655,283016984,0,6485,6585,14.44,5.39,39,110,0,0
645106,283130400,0,6586,6614,14.5,5.13,39,111,0,0
645553,283240007,0,6610,6557,14.47,5.07,39,111,0,0
645998,283352915,0,6554,6514,14.5,4.48,39,111,0,0
646441,283457520,0,6505,6314,14.52,4.1,39,111,0,0
646931,283579780,0,6291,6057,14.53,3.47,39,111,0,0
647330,283677687,0,6053,5971,14.53,4.07,39,111,0,0
647778,283787506,0,5976,6085,14.56,3.99,39,111,0,0
648226,283902556,0,6088,6128,14.62,3.86,39,111,0,0
648674,284010377,0,6127,6114,14.61,4.12,39,112,0,0
649123,284121608,0,6119,6228,14.63,3.89,39,112,0,0
649529,284220989,0,6226,6142,14.61,3.85,39,112,0,0
649975,284333569,0,6141,6114,14.55,4,39,112,0,0
650428,284444212,0,6116,6171,14.61,3.61,39,112,0,0
650868,284552951,0,6168,6000,14.61,3.39,39,112,0,0
651319,284662824,0,5985,5700,14.98,2.34,39,112,0,0
651808,284779176,0,5643,4800,14.76,1.43,39,112,0,0
652702,284999512,0,4785,4471,15.02,1.76,39,112,0,0
653103,285095778,0,4461,3700,15.15,0.42,39,112,0,0
653555,285208403,0,3665,2785,15.11,0.14,39,112,0,0
653995,285317767,0,2783,2671,15.08,0.33,39,112,0,0
654439,285422054,0,2668,2614,15.1,0.41,39,112,0,0
