LineNo,TimeUS,I,VDop,HAcc,VAcc,SAcc,YAcc,VV,SMS,Delta,Und
1567,1.9847e+07,0,1.13,1.37,1.9,0.19,0,1,19814,200,-43.043
2355,2.0051e+07,0,1.13,1.36,1.89,0.13,0,1,20014,200,-43.043
3177,2.0253e+07,0,1.13,1.35,1.88,0.21,0,1,20214,200,-43.043
4006,2.0459e+07,0,1.13,1.34,1.87,0.12,0,1,20414,200,-43.044
4750,2.0642e+07,0,1.13,1.34,1.86,0.21,0,1,20614,200,-43.043
5546,2.0844e+07,0,1.13,1.33,1.85,0.18,0,1,20814,200,-43.043
6366,2.1045e+07,0,1.13,1.32,1.84,0.14,0,1,21014,200,-43.043
7187,2.125e+07,0,1.13,1.31,1.83,0.16,0,1,21214,200,-43.044
7988,2.1453e+07,0,1.13,1.3,1.82,0.12,0,1,21414,200,-43.043
8721,2.1636e+07,0,1.13,1.3,1.81,0.18,0,1,21614,200,-43.043
10204,2.2043e+07,0,1.13,1.28,1.79,0.2,0,1,22014,200,-43.043
11028,2.2246e+07,0,1.13,1.28,1.78,0.13,0,1,22214,200,-43.043
11857,2.2453e+07,0,1.13,1.27,1.78,0.17,0,1,22414,200,-43.043
12598,2.2637e+07,0,1.13,1.26,1.77,0.2,0,1,22614,200,-43.043
13388,2.284e+07,0,1.13,1.25,1.76,0.17,0,1,22814,200,-43.043
14213,2.3043e+07,0,1.13,1.25,1.75,0.17,0,1,23014,200,-43.044
15038,2.3249e+07,0,1.13,1.24,1.74,0.2,0,1,23214,200,-43.043
15778,2.3433e+07,0,1.13,1.24,1.73,0.16,0,1,23414,200,-43.043
16576,2.3638e+07,0,1.13,1.23,1.73,0.18,0,1,23614,200,-43.043
17392,2.3841e+07,0,1.13,1.22,1.72,0.17,0,1,23814,200,-43.043
18192,2.4046e+07,0,1.13,1.22,1.71,0.21,0,1,24014,200,-43.044
19012,2.4249e+07,0,1.13,1.21,1.7,0.21,0,1,24214,200,-43.043
19807,2.4452e+07,0,1.13,1.21,1.7,0.18,0,1,24414,200,-43.043
20548,2.4636e+07,0,1.13,1.2,1.69,0.2,0,1,24614,200,-43.043
21378,2.4841e+07,0,1.13,1.2,1.68,0.21,0,1,24814,200,-43.043
22206,2.5045e+07,0,1.13,1.19,1.67,0.16,0,1,25014,200,-43.043
23030,2.5251e+07,0,1.13,1.18,1.67,0.21,0,1,25214,200,-43.043
23779,2.5436e+07,0,1.13,1.18,1.66,0.19,0,1,25414,200,-43.043
24610,2.5643e+07,0,1.13,1.17,1.65,0.2,0,1,25614,200,-43.043
25440,2.5849e+07,0,1.13,1.17,1.65,0.21,0,1,25814,200,-43.043
26182,2.6033e+07,0,1.13,1.16,1.64,0.19,0,1,26014,200,-43.043
27000,2.6237e+07,0,1.13,1.16,1.63,0.21,0,1,26214,200,-43.043
27793,2.6438e+07,0,1.13,1.15,1.63,0.2,0,1,26414,200,-43.043
28612,2.6642e+07,0,1.13,1.15,1.62,0.19,0,1,26614,200,-43.043
29440,2.6844e+07,0,1.13,1.14,1.62,0.21,0,1,26814,200,-43.043
30264,2.705e+07,0,1.13,1.14,1.61,0.14,0,1,27014,200,-43.043
31003,2.7236e+07,0,1.13,1.13,1.6,0.17,0,1,27214,200,-43.043
31797,2.7439e+07,0,1.13,1.13,1.6,0.13,0,1,27414,200,-43.044
32611,2.7641e+07,0,1.13,1.12,1.59,0.19,0,1,27614,200,-43.044
33437,2.7845e+07,0,1.13,1.12,1.59,0.1,0,1,27814,200,-43.043
34231,2.8052e+07,0,1.13,1.12,1.58,0.19,0,1,28014,200,-43.043
34975,2.8238e+07,0,1.13,1.11,1.57,0.19,0,1,28214,200,-43.043
35800,2.8444e+07,0,1.13,1.11,1.57,0.17,0,1,28414,200,-43.043
36625,2.8648e+07,0,1.13,1.1,1.56,0.16,0,1,28614,200,-43.043
37450,2.8851e+07,0,1.13,1.1,1.56,0.21,0,1,28814,200,-43.043
38190,2.9037e+07,0,1.13,1.1,1.55,0.2,0,1,29014,200,-43.043
39009,2.924e+07,0,1.13,1.09,1.55,0.2,0,1,29214,200,-43.043
40287,2.9564e+07,0,1.13,1.09,1.54,0.2,0,1,29542,328,-43.043
40617,2.9645e+07,0,1.13,1.08,1.54,0.2,0,1,29626,84,-43.043
41440,2.9852e+07,0,1.13,1.08,1.53,0.21,0,1,29826,200,-43.043
42184,3.0034e+07,0,1.13,1.08,1.53,0.15,0,1,30026,200,-43.043
43011,3.0236e+07,0,1.13,1.07,1.52,0.19,0,1,30226,200,-43.043
43809,3.0439e+07,0,1.13,1.07,1.52,0.21,0,1,30426,200,-43.043
44634,3.0641e+07,0,1.13,1.07,1.51,0.2,0,1,30626,200,-43.043
45540,3.0867e+07,0,1.13,1.06,1.51,0.19,0,1,30826,200,-43.043
46245,3.105e+07,0,1.13,1.06,1.5,0.15,0,1,31026,200,-43.043
47068,3.1256e+07,0,1.13,1.06,1.5,0.16,0,1,31226,200,-43.043
47899,3.1461e+07,0,1.13,1.05,1.49,0.18,0,1,31426,200,-43.043
48636,3.1645e+07,0,1.13,1.05,1.49,0.19,0,1,31622,196,-43.043
49382,3.1831e+07,0,1.13,1.05,1.49,0.2,0,1,31822,200,-43.043
50177,3.2033e+07,0,1.13,1.05,1.48,0.2,0,1,32022,200,-43.043
51005,3.2238e+07,0,1.13,1.04,1.48,0.19,0,1,32222,200,-43.043
51795,3.2439e+07,0,1.13,1.04,1.48,0.19,0,1,32422,200,-43.043
52617,3.2641e+07,0,1.13,1.04,1.47,0.17,0,1,32622,200,-43.043
53445,3.2844e+07,0,1.13,1.04,1.47,0.19,0,1,32822,200,-43.043
54185,3.303e+07,0,1.13,1.04,1.47,0.19,0,1,33020,198,-43.043
55089,3.3252e+07,0,1.13,1.03,1.46,0.2,0,1,33220,200,-43.043
55801,3.3435e+07,0,1.13,1.03,1.46,0.12,0,1,33420,200,-43.043
56591,3.3638e+07,0,1.13,1.03,1.46,0.2,0,1,33620,200,-43.044
57420,3.3846e+07,0,1.13,1.03,1.45,0.22,0,1,33820,200,-43.043
58245,3.4052e+07,0,1.13,1.03,1.45,0.19,0,1,34020,200,-43.043
58992,3.4237e+07,0,1.13,1.03,1.45,0.22,0,1,34220,200,-43.043
59818,3.4447e+07,0,1.13,1.02,1.44,0.19,0,1,34420,200,-43.043
60639,3.465e+07,0,1.13,1.02,1.44,0.21,0,1,34620,200,-43.044
61458,3.4854e+07,0,1.13,1.02,1.44,0.2,0,1,34820,200,-43.043
62247,3.5055e+07,0,1.13,1.02,1.43,0.19,0,1,35020,200,-43.043
62984,3.524e+07,0,1.13,1.02,1.43,0.15,0,1,35220,200,-43.044
63807,3.5443e+07,0,1.13,1.02,1.43,0.2,0,1,35420,200,-43.043
64627,3.5648e+07,0,1.13,1.01,1.42,0.21,0,1,35620,200,-43.044
65408,3.5851e+07,0,1.13,1.01,1.42,0.22,0,1,35820,200,-43.044
66205,3.6053e+07,0,1.13,1.01,1.42,0.2,0,1,36020,200,-43.043
66986,3.6255e+07,0,1.13,1.01,1.41,0.22,0,1,36220,200,-43.043
67718,3.6438e+07,0,1.13,1.01,1.41,0.12,0,1,36420,200,-43.043
68501,3.6639e+07,0,1.13,1.01,1.41,0.16,0,1,36620,200,-43.043
69317,3.6842e+07,0,1.13,1.01,1.41,0.21,0,1,36820,200,-43.044
70127,3.7044e+07,0,1.13,1.01,1.4,0.24,0,1,37019,199,-43.043
70905,3.7247e+07,0,1.13,1.01,1.4,0.24,0,1,37219,200,-43.043
71715,3.745e+07,0,1.13,1.01,1.4,0.2,0,1,37419,200,-43.043
72520,3.7652e+07,0,1.13,1.01,1.4,0.19,0,1,37619,200,-43.043
73243,3.7836e+07,0,1.13,1.01,1.39,0.18,0,1,37819,200,-43.044
74028,3.8038e+07,0,1.13,1.01,1.39,0.22,0,1,38019,200,-43.044
74843,3.8241e+07,0,1.13,1.01,1.39,0.22,0,1,38219,200,-43.043
75570,3.8425e+07,0,1.13,1.01,1.39,0.25,0,1,38417,198,-43.043
76463,3.8648e+07,0,1.22,1.01,1.39,0.28,0,1,38617,200,-43.043
77272,3.8851e+07,0,1.22,1.01,1.39,0.26,0,1,38817,200,-43.043
78082,3.9052e+07,0,1.22,1.01,1.39,0.27,0,1,39017,200,-43.044
78820,3.9232e+07,0,1.13,1.01,1.39,0.3,0,1,39217,200,-43.043
79629,3.9435e+07,0,1.13,1.02,1.4,0.23,0,1,39417,200,-43.043
80434,3.9635e+07,0,1.15,1.02,1.41,0.34,0,1,39617,200,-43.043
81215,3.9837e+07,0,1.13,1.03,1.42,0.36,0,1,39815,198,-43.043
82026,4.0039e+07,0,1.13,1.03,1.42,0.32,0,1,40015,200,-43.043
82835,4.0241e+07,0,1.13,1.03,1.42,0.22,0,1,40215,200,-43.043
83649,4.0442e+07,0,1.13,1.03,1.42,0.38,0,1,40415,200,-43.043
84432,4.0643e+07,0,1.13,1.04,1.43,0.34,0,1,40615,200,-43.043
85244,4.0845e+07,0,1.13,1.04,1.43,0.29,0,1,40815,200,-43.043
86026,4.1046e+07,0,1.13,1.04,1.44,0.38,0,1,41015,200,-43.043
86804,4.1248e+07,0,1.13,1.05,1.44,0.31,0,1,41215,200,-43.043
87611,4.1449e+07,0,1.13,1.05,1.44,0.3,0,1,41415,200,-43.043
88426,4.165e+07,0,1.13,1.05,1.44,0.26,0,1,41615,200,-43.043
89124,4.1832e+07,0,1.22,1.06,1.45,0.34,0,1,41815,200,-43.043
89940,4.2036e+07,0,1.39,1.06,1.45,0.31,0,1,42015,200,-43.044
90750,4.2238e+07,0,1.22,1.07,1.45,0.3,0,1,42215,200,-43.044
91529,4.2439e+07,0,1.22,1.07,1.46,0.25,0,1,42415,200,-43.043
92341,4.2641e+07,0,1.22,1.07,1.46,0.27,0,1,42615,200,-43.044
93118,4.2842e+07,0,1.22,1.08,1.47,0.34,0,1,42815,200,-43.043
93930,4.3047e+07,0,1.22,1.08,1.47,0.29,0,1,43015,200,-43.043
94740,4.3249e+07,0,1.22,1.09,1.47,0.28,0,1,43215,200,-43.043
95547,4.345e+07,0,1.22,1.09,1.48,0.31,0,1,43415,200,-43.043
96256,4.3635e+07,0,1.22,1.09,1.48,0.21,0,1,43615,200,-43.043
97070,4.3842e+07,0,1.22,1.1,1.49,0.33,0,1,43815,200,-43.043
97886,4.4051e+07,0,1.22,1.1,1.49,0.31,0,1,44015,200,-43.044
98618,4.4234e+07,0,1.22,1.11,1.49,0.3,0,1,44215,200,-43.043
99424,4.4435e+07,0,1.22,1.11,1.5,0.29,0,1,44415,200,-43.043
1.0023e+05,4.4637e+07,0,1.22,1.12,1.5,0.22,0,1,44615,200,-43.043
1.0104e+05,4.4843e+07,0,1.22,1.12,1.5,0.2,0,1,44815,200,-43.043
1.0185e+05,4.5047e+07,0,1.22,1.13,1.5,0.31,0,1,45015,200,-43.044
1.0258e+05,4.5227e+07,0,1.22,1.13,1.5,0.22,0,1,45215,200,-43.043
1.0345e+05,4.545e+07,0,1.22,1.13,1.5,0.22,0,1,45415,200,-43.044
1.0419e+05,4.5632e+07,0,1.22,1.13,1.5,0.19,0,1,45615,200,-43.044
1.05e+05,4.5834e+07,0,1.22,1.13,1.5,0.22,0,1,45815,200,-43.044
1.0578e+05,4.6038e+07,0,1.22,1.13,1.5,0.21,0,1,46015,200,-43.043
1.0657e+05,4.6242e+07,0,1.22,1.13,1.5,0.23,0,1,46215,200,-43.043
1.0738e+05,4.6444e+07,0,1.22,1.13,1.49,0.25,0,1,46415,200,-43.043
1.0811e+05,4.6625e+07,0,1.22,1.13,1.49,0.25,0,1,46615,200,-43.043
1.0897e+05,4.6846e+07,0,1.22,1.13,1.49,0.23,0,1,46815,200,-43.044
1.0976e+05,4.7049e+07,0,1.22,1.13,1.49,0.16,0,1,47015,200,-43.044
1.1054e+05,4.7249e+07,0,1.22,1.12,1.49,0.21,0,1,47215,200,-43.043
1.1127e+05,4.7431e+07,0,1.22,1.12,1.49,0.15,0,1,47415,200,-43.043
1.1208e+05,4.7634e+07,0,1.22,1.12,1.48,0.18,0,1,47615,200,-43.043
1.1289e+05,4.7837e+07,0,1.13,1.12,1.48,0.17,0,1,47815,200,-43.043
1.1368e+05,4.804e+07,0,1.22,1.11,1.48,0.27,0,1,48015,200,-43.043
1.1449e+05,4.8242e+07,0,1.22,1.11,1.48,0.21,0,1,48215,200,-43.043
1.153e+05,4.8446e+07,0,1.22,1.11,1.48,0.22,0,1,48415,200,-43.043
1.1588e+05,1.0783e+08,0,1.22,0.9,1.25,0.22,0,1,1.0782e+05,200,-43.043
1.1674e+05,1.0803e+08,0,1.22,0.9,1.25,0.23,0,1,1.0802e+05,200,-43.043
1.1764e+05,1.0823e+08,0,1.22,0.9,1.25,0.22,0,1,1.0822e+05,200,-43.043
1.185e+05,1.0844e+08,0,1.22,0.9,1.25,0.19,0,1,1.0842e+05,200,-43.043
1.194e+05,1.0864e+08,0,1.22,0.9,1.25,0.18,0,1,1.0862e+05,200,-43.043
1.2024e+05,1.0885e+08,0,1.22,0.9,1.25,0.22,0,1,1.0882e+05,200,-43.043
1.2105e+05,1.0903e+08,0,1.22,0.9,1.25,0.19,0,1,1.0902e+05,200,-43.043
1.2195e+05,1.0924e+08,0,1.22,0.9,1.25,0.23,0,1,1.0922e+05,200,-43.043
1.2282e+05,1.0944e+08,0,1.22,0.9,1.25,0.2,0,1,1.0942e+05,200,-43.043
1.2372e+05,1.0964e+08,0,1.22,0.89,1.25,0.2,0,1,1.0962e+05,200,-43.043
1.2453e+05,1.0983e+08,0,1.22,0.89,1.25,0.22,0,1,1.0982e+05,200,-43.043
1.2544e+05,1.1003e+08,0,1.22,0.89,1.25,0.13,0,1,1.1002e+05,200,-43.043
1.264e+05,1.1026e+08,0,1.22,0.89,1.25,0.21,0,1,1.1022e+05,200,-43.043
1.2721e+05,1.1044e+08,0,1.22,0.89,1.25,0.22,0,1,1.1042e+05,200,-43.043
1.2811e+05,1.1065e+08,0,1.22,0.89,1.25,0.18,0,1,1.1062e+05,200,-43.043
1.2877e+05,1.1083e+08,0,1.22,0.89,1.25,0.22,0,1,1.1082e+05,200,-43.043
1.2968e+05,1.1104e+08,0,1.22,0.89,1.25,0.22,0,1,1.1102e+05,200,-43.043
1.3058e+05,1.1124e+08,0,1.22,0.89,1.25,0.22,0,1,1.1122e+05,200,-43.043
1.3148e+05,1.1145e+08,0,1.22,0.89,1.25,0.19,0,1,1.1142e+05,200,-43.043
1.3235e+05,1.1165e+08,0,1.22,0.89,1.25,0.21,0,1,1.1162e+05,200,-43.043
1.3316e+05,1.1184e+08,0,1.22,0.89,1.25,0.22,0,1,1.1182e+05,200,-43.043
1.3406e+05,1.1205e+08,0,1.22,0.89,1.25,0.13,0,1,1.1202e+05,200,-43.043
1.3484e+05,1.1223e+08,0,1.22,0.89,1.25,0.22,0,1,1.1222e+05,200,-43.043
1.3574e+05,1.1244e+08,0,1.22,0.89,1.24,0.22,0,1,1.1242e+05,200,-43.043
1.3665e+05,1.1264e+08,0,1.13,0.89,1.24,0.18,0,1,1.1262e+05,200,-43.044
1.3752e+05,1.1284e+08,0,1.13,0.89,1.24,0.2,0,1,1.1282e+05,200,-43.043
1.3842e+05,1.1305e+08,0,1.13,0.89,1.24,0.16,0,1,1.1302e+05,200,-43.043
1.3917e+05,1.1323e+08,0,1.13,0.89,1.24,0.22,0,1,1.1322e+05,200,-43.043
1.3999e+05,1.1344e+08,0,1.13,0.89,1.24,0.17,0,1,1.1342e+05,200,-43.043
1.4082e+05,1.1364e+08,0,1.13,0.88,1.24,0.22,0,1,1.1362e+05,200,-43.043
1.4164e+05,1.1384e+08,0,1.13,0.88,1.24,0.22,0,1,1.1382e+05,200,-43.043
1.4244e+05,1.1405e+08,0,1.13,0.88,1.24,0.22,0,1,1.1402e+05,200,-43.043
1.4326e+05,1.1425e+08,0,1.13,0.88,1.24,0.18,0,1,1.1422e+05,200,-43.043
1.44e+05,1.1443e+08,0,1.13,0.88,1.24,0.15,0,1,1.1442e+05,200,-43.043
1.4479e+05,1.1464e+08,0,1.13,0.88,1.24,0.19,0,1,1.1462e+05,200,-43.043
1.4558e+05,1.1484e+08,0,1.13,0.88,1.24,0.18,0,1,1.1482e+05,200,-43.043
1.4641e+05,1.1505e+08,0,1.13,0.88,1.24,0.13,0,1,1.1502e+05,200,-43.043
1.4715e+05,1.1523e+08,0,1.13,0.88,1.24,0.15,0,1,1.1522e+05,200,-43.043
1.4794e+05,1.1544e+08,0,1.13,0.88,1.24,0.16,0,1,1.1542e+05,200,-43.043
1.4877e+05,1.1564e+08,0,1.13,0.88,1.24,0.22,0,1,1.1562e+05,200,-43.043
1.4959e+05,1.1585e+08,0,1.13,0.88,1.24,0.22,0,1,1.1582e+05,200,-43.043
1.5031e+05,1.1603e+08,0,1.13,0.88,1.24,0.21,0,1,1.1602e+05,200,-43.043
1.5113e+05,1.1624e+08,0,1.13,0.88,1.24,0.16,0,1,1.1622e+05,200,-43.043
1.5195e+05,1.1645e+08,0,1.13,0.88,1.24,0.19,0,1,1.1642e+05,200,-43.043
1.5269e+05,1.1664e+08,0,1.13,0.88,1.24,0.2,0,1,1.1662e+05,200,-43.044
1.5349e+05,1.1684e+08,0,1.13,0.88,1.23,0.23,0,1,1.1682e+05,200,-43.044
1.5432e+05,1.1705e+08,0,1.13,0.88,1.23,0.18,0,1,1.1702e+05,200,-43.043
1.5505e+05,1.1723e+08,0,1.22,0.88,1.23,0.2,0,1,1.1722e+05,200,-43.044
1.5588e+05,1.1744e+08,0,1.22,0.88,1.23,0.23,0,1,1.1742e+05,200,-43.043
1.5668e+05,1.1764e+08,0,1.22,0.88,1.23,0.21,0,1,1.1762e+05,200,-43.043
1.575e+05,1.1785e+08,0,1.22,0.88,1.23,0.22,0,1,1.1782e+05,200,-43.043
1.5821e+05,1.1803e+08,0,1.22,0.88,1.23,0.22,0,1,1.1802e+05,200,-43.043
1.5904e+05,1.1824e+08,0,1.22,0.88,1.23,0.22,0,1,1.1822e+05,200,-43.043
1.5986e+05,1.1844e+08,0,1.22,0.88,1.23,0.21,0,1,1.1842e+05,200,-43.043
1.606e+05,1.1863e+08,0,1.22,0.88,1.23,0.2,0,1,1.1862e+05,200,-43.044
1.6139e+05,1.1883e+08,0,1.22,0.88,1.23,0.21,0,1,1.1882e+05,200,-43.043
1.6222e+05,1.1904e+08,0,1.22,0.88,1.23,0.18,0,1,1.1902e+05,200,-43.043
1.6304e+05,1.1924e+08,0,1.22,0.88,1.23,0.2,0,1,1.1922e+05,200,-43.043
1.6386e+05,1.1945e+08,0,1.22,0.88,1.23,0.16,0,1,1.1942e+05,200,-43.043
1.646e+05,1.1963e+08,0,1.22,0.88,1.23,0.23,0,1,1.1962e+05,200,-43.043
1.654e+05,1.1984e+08,0,1.22,0.88,1.23,0.2,0,1,1.1982e+05,200,-43.043
1.6619e+05,1.2004e+08,0,1.22,0.88,1.23,0.22,0,1,1.2002e+05,200,-43.043
1.6699e+05,1.2025e+08,0,1.22,0.88,1.23,0.21,0,1,1.2022e+05,200,-43.043
1.6773e+05,1.2043e+08,0,1.22,0.88,1.23,0.13,0,1,1.2042e+05,200,-43.043
1.6853e+05,1.2063e+08,0,1.22,0.88,1.23,0.22,0,1,1.2062e+05,200,-43.044
1.6935e+05,1.2084e+08,0,1.22,0.87,1.23,0.2,0,1,1.2082e+05,200,-43.043
1.7015e+05,1.2104e+08,0,1.22,0.87,1.23,0.15,0,1,1.2102e+05,200,-43.043
1.7097e+05,1.2125e+08,0,1.22,0.87,1.23,0.21,0,1,1.2122e+05,200,-43.043
1.7179e+05,1.2145e+08,0,1.22,0.87,1.23,0.2,0,1,1.2142e+05,200,-43.044
1.7258e+05,1.2165e+08,0,1.22,0.87,1.23,0.15,0,1,1.2162e+05,200,-43.043
1.7332e+05,1.2184e+08,0,1.22,0.87,1.23,0.21,0,1,1.2182e+05,200,-43.043
1.7414e+05,1.2204e+08,0,1.13,0.87,1.23,0.14,0,1,1.2202e+05,200,-43.043
1.7494e+05,1.2224e+08,0,1.13,0.87,1.23,0.2,0,1,1.2222e+05,200,-43.043
1.7576e+05,1.2245e+08,0,1.13,0.87,1.23,0.19,0,1,1.2242e+05,200,-43.043
1.765e+05,1.2263e+08,0,1.13,0.87,1.23,0.2,0,1,1.2262e+05,200,-43.044
1.7732e+05,1.2284e+08,0,1.13,0.87,1.23,0.21,0,1,1.2282e+05,200,-43.043
1.7812e+05,1.2304e+08,0,1.13,0.87,1.23,0.16,0,1,1.2302e+05,200,-43.044
1.7894e+05,1.2324e+08,0,1.13,0.87,1.23,0.18,0,1,1.2322e+05,200,-43.043
1.7976e+05,1.2345e+08,0,1.13,0.87,1.23,0.2,0,1,1.2342e+05,200,-43.043
1.8059e+05,1.2365e+08,0,1.13,0.87,1.23,0.13,0,1,1.2362e+05,200,-43.043
1.8133e+05,1.2383e+08,0,1.13,0.87,1.23,0.21,0,1,1.2382e+05,200,-43.043
1.8213e+05,1.2404e+08,0,1.13,0.87,1.23,0.22,0,1,1.2402e+05,200,-43.043
1.8295e+05,1.2424e+08,0,1.13,0.87,1.23,0.2,0,1,1.2422e+05,200,-43.044
1.8377e+05,1.2445e+08,0,1.13,0.87,1.23,0.22,0,1,1.2442e+05,200,-43.043
1.8451e+05,1.2463e+08,0,1.13,0.87,1.23,0.16,0,1,1.2462e+05,200,-43.044
1.8534e+05,1.2484e+08,0,1.13,0.87,1.23,0.17,0,1,1.2482e+05,200,-43.043
1.8616e+05,1.2504e+08,0,1.13,0.87,1.23,0.21,0,1,1.2502e+05,200,-43.043
1.8695e+05,1.2525e+08,0,1.13,0.87,1.23,0.18,0,1,1.2522e+05,200,-43.043
1.877e+05,1.2543e+08,0,1.13,0.87,1.23,0.22,0,1,1.2542e+05,200,-43.043
1.885e+05,1.2564e+08,0,1.13,0.87,1.23,0.16,0,1,1.2562e+05,200,-43.043
1.8932e+05,1.2584e+08,0,1.13,0.87,1.23,0.2,0,1,1.2582e+05,200,-43.043
1.9014e+05,1.2605e+08,0,1.13,0.87,1.23,0.22,0,1,1.2602e+05,200,-43.043
1.9085e+05,1.2623e+08,0,1.13,0.87,1.23,0.19,0,1,1.2622e+05,200,-43.043
1.9168e+05,1.2644e+08,0,1.13,0.87,1.23,0.22,0,1,1.2642e+05,200,-43.043
1.925e+05,1.2664e+08,0,1.13,0.87,1.23,0.22,0,1,1.2662e+05,200,-43.043
1.9324e+05,1.2683e+08,0,1.13,0.87,1.23,0.2,0,1,1.2682e+05,200,-43.043
1.9402e+05,1.2705e+08,0,1.13,0.87,1.23,0.23,0,1,1.2702e+05,200,-43.043
1.9476e+05,1.2723e+08,0,1.13,0.87,1.23,0.22,0,1,1.2722e+05,200,-43.043
1.9559e+05,1.2744e+08,0,1.13,0.87,1.23,0.23,0,1,1.2742e+05,200,-43.043
1.9641e+05,1.2764e+08,0,1.13,0.87,1.23,0.17,0,1,1.2762e+05,200,-43.043
1.972e+05,1.2785e+08,0,1.13,0.87,1.23,0.19,0,1,1.2782e+05,200,-43.044
1.9795e+05,1.2804e+08,0,1.13,0.87,1.23,0.2,0,1,1.2802e+05,200,-43.043
1.9911e+05,1.7405e+08,0,1.13,0.87,1.23,0.2,0,1,1.7402e+05,200,-43.043
1.9997e+05,1.7425e+08,0,1.13,0.86,1.23,0.15,0,1,1.7422e+05,200,-43.043
2.0078e+05,1.7443e+08,0,1.13,0.86,1.23,0.15,0,1,1.7442e+05,200,-43.043
2.0166e+05,1.7463e+08,0,1.13,0.86,1.23,0.19,0,1,1.7462e+05,200,-43.043
2.0256e+05,1.7484e+08,0,1.13,0.86,1.23,0.16,0,1,1.7482e+05,200,-43.043
2.0343e+05,1.7504e+08,0,1.13,0.86,1.23,0.15,0,1,1.7502e+05,200,-43.043
2.043e+05,1.7525e+08,0,1.13,0.86,1.23,0.19,0,1,1.7522e+05,200,-43.044
2.052e+05,1.7545e+08,0,1.13,0.86,1.23,0.2,0,1,1.7542e+05,201,-43.043
2.0601e+05,1.7564e+08,0,1.13,0.86,1.22,0.19,0,1,1.7562e+05,200,-43.044
2.0688e+05,1.7584e+08,0,1.13,0.86,1.22,0.13,0,1,1.7582e+05,200,-43.043
2.0779e+05,1.7604e+08,0,1.13,0.86,1.22,0.14,0,1,1.7602e+05,200,-43.043
2.0869e+05,1.7625e+08,0,1.13,0.86,1.22,0.13,0,1,1.7622e+05,200,-43.043
2.0955e+05,1.7645e+08,0,1.13,0.86,1.22,0.13,0,1,1.7642e+05,200,-43.043
2.103e+05,1.7665e+08,0,1.13,0.85,1.22,0.14,0,1,1.7662e+05,200,-43.044
2.1109e+05,1.7684e+08,0,1.13,0.85,1.22,0.18,0,1,1.7682e+05,200,-43.043
2.1199e+05,1.7704e+08,0,1.13,0.85,1.22,0.21,0,1,1.7702e+05,200,-43.043
2.129e+05,1.7724e+08,0,1.13,0.85,1.22,0.17,0,1,1.7722e+05,200,-43.043
2.1376e+05,1.7745e+08,0,1.13,0.85,1.22,0.15,0,1,1.7742e+05,200,-43.044
2.1467e+05,1.7765e+08,0,1.13,0.85,1.22,0.2,0,1,1.7762e+05,200,-43.044
2.1548e+05,1.7783e+08,0,1.13,0.85,1.22,0.2,0,1,1.7782e+05,200,-43.043
2.1635e+05,1.7804e+08,0,1.13,0.85,1.21,0.19,0,1,1.7802e+05,200,-43.043
2.1726e+05,1.7824e+08,0,1.13,0.85,1.21,0.19,0,1,1.7822e+05,200,-43.043
2.1816e+05,1.7845e+08,0,1.13,0.85,1.21,0.19,0,1,1.7842e+05,200,-43.043
2.1903e+05,1.7865e+08,0,1.13,0.85,1.21,0.17,0,1,1.7862e+05,200,-43.043
2.1984e+05,1.7884e+08,0,1.13,0.85,1.21,0.2,0,1,1.7882e+05,200,-43.044
2.2074e+05,1.7904e+08,0,1.13,0.85,1.21,0.17,0,1,1.7902e+05,200,-43.044
2.2164e+05,1.7925e+08,0,1.13,0.85,1.21,0.15,0,1,1.7922e+05,200,-43.044
2.2251e+05,1.7945e+08,0,1.13,0.85,1.21,0.13,0,1,1.7942e+05,200,-43.043
2.2331e+05,1.7964e+08,0,1.13,0.85,1.21,0.14,0,1,1.7962e+05,200,-43.043
2.2418e+05,1.7984e+08,0,1.13,0.84,1.21,0.17,0,1,1.7982e+05,200,-43.043
2.2509e+05,1.8005e+08,0,1.13,0.84,1.21,0.21,0,1,1.8002e+05,200,-43.043
2.2595e+05,1.8025e+08,0,1.13,0.84,1.21,0.21,0,1,1.8022e+05,200,-43.043
2.2676e+05,1.8043e+08,0,1.13,0.84,1.21,0.18,0,1,1.8042e+05,200,-43.043
2.2764e+05,1.8064e+08,0,1.13,0.84,1.21,0.16,0,1,1.8062e+05,200,-43.043
2.2851e+05,1.8084e+08,0,1.13,0.84,1.21,0.16,0,1,1.8082e+05,200,-43.043
2.2941e+05,1.8105e+08,0,1.13,0.84,1.21,0.2,0,1,1.8102e+05,200,-43.043
2.3019e+05,1.8124e+08,0,1.13,0.84,1.21,0.21,0,1,1.8122e+05,200,-43.043
2.311e+05,1.8145e+08,0,1.13,0.84,1.21,0.17,0,1,1.8142e+05,200,-43.043
2.3187e+05,1.8164e+08,0,1.13,0.84,1.21,0.18,0,1,1.8162e+05,200,-43.043
2.3277e+05,1.8184e+08,0,1.13,0.84,1.21,0.2,0,1,1.8182e+05,200,-43.043
2.3364e+05,1.8205e+08,0,1.13,0.84,1.21,0.18,0,1,1.8202e+05,200,-43.043
2.3455e+05,1.8225e+08,0,1.13,0.84,1.21,0.19,0,1,1.8222e+05,200,-43.044
2.3536e+05,1.8244e+08,0,1.13,0.84,1.21,0.21,0,1,1.8242e+05,200,-43.044
2.3623e+05,1.8265e+08,0,1.13,0.84,1.21,0.22,0,1,1.8262e+05,200,-43.044
2.3704e+05,1.8283e+08,0,1.13,0.84,1.21,0.2,0,1,1.8282e+05,200,-43.043
2.3794e+05,1.8304e+08,0,1.13,0.84,1.21,0.22,0,1,1.8302e+05,200,-43.043
2.3884e+05,1.8325e+08,0,1.13,0.84,1.2,0.2,0,1,1.8322e+05,200,-43.043
2.3966e+05,1.8343e+08,0,1.13,0.84,1.2,0.2,0,1,1.8342e+05,200,-43.043
2.4052e+05,1.8364e+08,0,1.13,0.84,1.2,0.2,0,1,1.8362e+05,200,-43.043
2.4143e+05,1.8385e+08,0,1.13,0.84,1.2,0.22,0,1,1.8382e+05,200,-43.043
2.4224e+05,1.8404e+08,0,1.22,0.84,1.2,0.11,0,1,1.8402e+05,200,-43.043
2.4311e+05,1.8425e+08,0,1.22,0.84,1.2,0.19,0,1,1.8422e+05,200,-43.043
2.4392e+05,1.8444e+08,0,1.22,0.84,1.2,0.2,0,1,1.8442e+05,200,-43.043
2.447e+05,1.8463e+08,0,1.22,0.84,1.2,0.2,0,1,1.8462e+05,200,-43.043
2.456e+05,1.8484e+08,0,1.22,0.84,1.2,0.21,0,1,1.8482e+05,200,-43.043
2.465e+05,1.8505e+08,0,1.22,0.84,1.2,0.2,0,1,1.8502e+05,200,-43.043
2.4732e+05,1.8524e+08,0,1.22,0.84,1.2,0.22,0,1,1.8522e+05,200,-43.043
2.4819e+05,1.8545e+08,0,1.22,0.84,1.2,0.21,0,1,1.8542e+05,200,-43.043
2.49e+05,1.8564e+08,0,1.22,0.84,1.2,0.22,0,1,1.8562e+05,200,-43.043
2.4978e+05,1.8583e+08,0,1.22,0.84,1.2,0.2,0,1,1.8582e+05,200,-43.044
2.5068e+05,1.8604e+08,0,1.22,0.84,1.2,0.2,0,1,1.8602e+05,200,-43.043
2.5156e+05,1.8625e+08,0,1.22,0.84,1.2,0.21,0,1,1.8622e+05,200,-43.043
2.5236e+05,1.8644e+08,0,1.22,0.84,1.2,0.19,0,1,1.8642e+05,200,-43.044
2.5317e+05,1.8663e+08,0,1.22,0.84,1.2,0.19,0,1,1.8662e+05,200,-43.044
2.5404e+05,1.8684e+08,0,1.22,0.84,1.2,0.16,0,1,1.8682e+05,200,-43.043
2.5494e+05,1.8705e+08,0,1.22,0.84,1.2,0.13,0,1,1.8702e+05,200,-43.043
2.5576e+05,1.8724e+08,0,1.22,0.84,1.2,0.21,0,1,1.8722e+05,200,-43.043
2.5663e+05,1.8745e+08,0,1.22,0.84,1.2,0.2,0,1,1.8742e+05,200,-43.043
2.5744e+05,1.8764e+08,0,1.22,0.84,1.2,0.18,0,1,1.8762e+05,200,-43.043
2.5834e+05,1.8784e+08,0,1.22,0.84,1.2,0.21,0,1,1.8782e+05,200,-43.043
2.5913e+05,1.8803e+08,0,1.22,0.84,1.2,0.2,0,1,1.8802e+05,200,-43.043
2.6e+05,1.8823e+08,0,1.22,0.84,1.2,0.21,0,1,1.8822e+05,200,-43.043
2.6087e+05,1.8844e+08,0,1.22,0.84,1.2,0.21,0,1,1.8842e+05,200,-43.043
2.6176e+05,1.8865e+08,0,1.22,0.84,1.2,0.19,0,1,1.8862e+05,200,-43.043
2.6266e+05,1.8885e+08,0,1.22,0.84,1.2,0.17,0,1,1.8882e+05,200,-43.043
2.6344e+05,1.8904e+08,0,1.22,0.84,1.2,0.2,0,1,1.8902e+05,200,-43.043
2.6435e+05,1.8924e+08,0,1.22,0.84,1.19,0.17,0,1,1.8922e+05,200,-43.043
2.6525e+05,1.8945e+08,0,1.22,0.84,1.19,0.2,0,1,1.8942e+05,200,-43.043
2.6603e+05,1.8964e+08,0,1.22,0.84,1.19,0.2,0,1,1.8962e+05,200,-43.043
2.6693e+05,1.8984e+08,0,1.22,0.84,1.19,0.2,0,1,1.8982e+05,200,-43.043
2.6784e+05,1.9005e+08,0,1.22,0.84,1.19,0.18,0,1,1.9002e+05,200,-43.043
2.6874e+05,1.9026e+08,0,1.22,0.84,1.19,0.18,0,1,1.9022e+05,200,-43.043
2.6933e+05,1.9044e+08,0,1.22,0.84,1.19,0.2,0,1,1.9042e+05,200,-43.044
2.7023e+05,1.9065e+08,0,1.22,0.84,1.19,0.2,0,1,1.9062e+05,200,-43.043
2.7101e+05,1.9084e+08,0,1.22,0.84,1.19,0.2,0,1,1.9082e+05,200,-43.043
2.7191e+05,1.9104e+08,0,1.22,0.84,1.19,0.19,0,1,1.9102e+05,200,-43.043
2.7282e+05,1.9125e+08,0,1.22,0.84,1.19,0.18,0,1,1.9122e+05,200,-43.043
2.7363e+05,1.9144e+08,0,1.22,0.84,1.19,0.18,0,1,1.9142e+05,200,-43.043
2.745e+05,1.9164e+08,0,1.22,0.84,1.19,0.19,0,1,1.9162e+05,200,-43.044
2.7537e+05,1.9185e+08,0,1.22,0.84,1.19,0.19,0,1,1.9182e+05,200,-43.043
2.7627e+05,1.9205e+08,0,1.22,0.84,1.19,0.21,0,1,1.9202e+05,200,-43.043
2.7704e+05,1.9224e+08,0,1.22,0.84,1.19,0.21,0,1,1.9222e+05,200,-43.043
2.7794e+05,1.9245e+08,0,1.22,0.84,1.19,0.18,0,1,1.9242e+05,200,-43.043
2.7875e+05,1.9264e+08,0,1.22,0.84,1.19,0.18,0,1,1.9262e+05,200,-43.044
2.7962e+05,1.9285e+08,0,1.22,0.84,1.19,0.2,0,1,1.9282e+05,200,-43.044
2.8043e+05,1.9304e+08,0,1.22,0.84,1.19,0.2,0,1,1.9302e+05,200,-43.043
2.8121e+05,1.9323e+08,0,1.22,0.84,1.19,0.2,0,1,1.9322e+05,200,-43.043
2.8212e+05,1.9344e+08,0,1.22,0.83,1.19,0.21,0,1,1.9342e+05,200,-43.044
2.8292e+05,1.9364e+08,0,1.22,0.83,1.19,0.21,0,1,1.9362e+05,200,-43.043
2.8382e+05,1.9385e+08,0,1.13,0.83,1.19,0.21,0,1,1.9382e+05,200,-43.043
2.846e+05,1.9404e+08,0,1.13,0.83,1.19,0.21,0,1,1.9402e+05,200,-43.043
2.855e+05,1.9425e+08,0,1.13,0.83,1.18,0.21,0,1,1.9422e+05,200,-43.043
2.8628e+05,1.9444e+08,0,1.13,0.83,1.18,0.2,0,1,1.9442e+05,200,-43.043
2.8709e+05,1.9464e+08,0,1.13,0.83,1.18,0.21,0,1,1.9462e+05,200,-43.043
2.8787e+05,1.9483e+08,0,1.13,0.83,1.18,0.21,0,1,1.9482e+05,200,-43.043
2.8877e+05,1.9504e+08,0,1.13,0.83,1.18,0.21,0,1,1.9502e+05,200,-43.043
2.8954e+05,1.9523e+08,0,1.13,0.83,1.18,0.21,0,1,1.9522e+05,200,-43.043
2.9045e+05,1.9545e+08,0,1.13,0.83,1.18,0.21,0,1,1.9542e+05,201,-43.043
2.9126e+05,1.9564e+08,0,1.13,0.82,1.18,0.21,0,1,1.9562e+05,200,-43.043
2.9207e+05,1.9583e+08,0,1.13,0.82,1.18,0.2,0,1,1.9582e+05,200,-43.043
2.9297e+05,1.9605e+08,0,1.13,0.82,1.18,0.21,0,1,1.9602e+05,200,-43.043
2.9378e+05,1.9624e+08,0,1.13,0.82,1.18,0.23,0,1,1.9622e+05,200,-43.043
2.9465e+05,1.9645e+08,0,1.13,0.82,1.18,0.23,0,1,1.9642e+05,200,-43.043
2.9545e+05,1.9664e+08,0,1.13,0.82,1.18,0.22,0,1,1.9662e+05,200,-43.043
2.9626e+05,1.9684e+08,0,1.13,0.82,1.17,0.23,0,1,1.9682e+05,200,-43.043
2.9705e+05,1.9703e+08,0,1.13,0.82,1.17,0.23,0,1,1.9702e+05,200,-43.044
2.9785e+05,1.9723e+08,0,1.13,0.82,1.17,0.22,0,1,1.9722e+05,200,-43.044
2.9871e+05,1.9745e+08,0,1.13,0.82,1.17,0.23,0,1,1.9742e+05,200,-43.043
2.9952e+05,1.9765e+08,0,1.13,0.82,1.17,0.23,0,1,1.9762e+05,200,-43.043
3.0032e+05,1.9784e+08,0,1.13,0.82,1.17,0.22,0,1,1.9782e+05,200,-43.043
3.0112e+05,1.9804e+08,0,1.13,0.82,1.17,0.2,0,1,1.9802e+05,200,-43.043
3.0188e+05,1.9824e+08,0,1.13,0.82,1.17,0.16,0,1,1.9822e+05,200,-43.043
3.0278e+05,1.9845e+08,0,1.13,0.82,1.17,0.17,0,1,1.9842e+05,200,-43.043
3.0354e+05,1.9864e+08,0,1.13,0.82,1.17,0.13,0,1,1.9862e+05,200,-43.044
3.0435e+05,1.9885e+08,0,1.13,0.81,1.17,0.13,0,1,1.9882e+05,200,-43.043
3.0515e+05,1.9904e+08,0,1.13,0.81,1.17,0.13,0,1,1.9902e+05,200,-43.043
3.0601e+05,1.9925e+08,0,1.13,0.81,1.17,0.13,0,1,1.9922e+05,200,-43.043
3.0681e+05,1.9945e+08,0,1.13,0.81,1.17,0.15,0,1,1.9942e+05,200,-43.043
3.0757e+05,1.9964e+08,0,1.13,0.81,1.17,0.13,0,1,1.9962e+05,200,-43.044
3.0838e+05,1.9984e+08,0,1.13,0.81,1.17,0.14,0,1,1.9982e+05,200,-43.043
3.0915e+05,2.0004e+08,0,1.13,0.81,1.17,0.13,0,1,2.0002e+05,200,-43.043
3.1004e+05,2.0026e+08,0,1.13,0.81,1.17,0.12,0,1,2.0022e+05,200,-43.043
3.1085e+05,2.0045e+08,0,1.13,0.81,1.17,0.12,0,1,2.0042e+05,200,-43.043
3.1165e+05,2.0065e+08,0,1.13,0.81,1.17,0.12,0,1,2.0062e+05,200,-43.043
3.1245e+05,2.0084e+08,0,1.13,0.81,1.17,0.15,0,1,2.0082e+05,200,-43.043
3.1324e+05,2.0104e+08,0,1.13,0.81,1.17,0.14,0,1,2.0102e+05,200,-43.043
3.1405e+05,2.0123e+08,0,1.13,0.81,1.17,0.13,0,1,2.0122e+05,200,-43.043
3.1482e+05,2.0143e+08,0,1.13,0.81,1.17,0.12,0,1,2.0142e+05,200,-43.043
3.157e+05,2.0165e+08,0,1.22,0.81,1.17,0.11,0,1,2.0162e+05,200,-43.043
3.1651e+05,2.0184e+08,0,1.13,0.8,1.16,0.12,0,1,2.0182e+05,200,-43.043
3.1731e+05,2.0204e+08,0,1.22,0.8,1.16,0.12,0,1,2.0202e+05,200,-43.043
3.1807e+05,2.0223e+08,0,1.13,0.8,1.16,0.15,0,1,2.0222e+05,200,-43.043
3.1896e+05,2.0245e+08,0,1.13,0.8,1.16,0.14,0,1,2.0242e+05,200,-43.044
3.1973e+05,2.0264e+08,0,1.22,0.8,1.16,0.15,0,1,2.0262e+05,200,-43.043
3.2054e+05,2.0284e+08,0,1.22,0.8,1.17,0.15,0,1,2.0282e+05,200,-43.044
3.2134e+05,2.0304e+08,0,1.22,0.8,1.17,0.14,0,1,2.0302e+05,200,-43.044
3.2214e+05,2.0323e+08,0,1.13,0.8,1.17,0.16,0,1,2.0322e+05,200,-43.044
3.2304e+05,2.0345e+08,0,1.16,0.8,1.17,0.13,0,1,2.0342e+05,200,-43.043
3.2384e+05,2.0365e+08,0,1.22,0.8,1.17,0.15,0,1,2.0362e+05,200,-43.043
3.2463e+05,2.0384e+08,0,1.22,0.8,1.17,0.16,0,1,2.0382e+05,200,-43.043
3.2544e+05,2.0404e+08,0,1.22,0.8,1.17,0.13,0,1,2.0402e+05,200,-43.043
3.2625e+05,2.0424e+08,0,1.13,0.8,1.17,0.14,0,1,2.0422e+05,200,-43.043
3.2705e+05,2.0444e+08,0,1.22,0.8,1.17,0.13,0,1,2.0442e+05,200,-43.043
3.2794e+05,2.0466e+08,0,1.13,0.8,1.17,0.12,0,1,2.0462e+05,200,-43.043
3.2875e+05,2.0485e+08,0,1.13,0.8,1.17,0.12,0,1,2.0482e+05,200,-43.044
3.2951e+05,2.0505e+08,0,1.22,0.8,1.17,0.11,0,1,2.0502e+05,200,-43.043
3.3028e+05,2.0524e+08,0,1.22,0.8,1.17,0.12,0,1,2.0522e+05,200,-43.043
3.3142e+05,2.0565e+08,0,1.13,0.8,1.17,0.12,0,1,2.0562e+05,200,-43.044
3.3222e+05,2.0584e+08,0,1.13,0.8,1.17,0.11,0,1,2.0582e+05,200,-43.043
3.3299e+05,2.0604e+08,0,1.13,0.8,1.17,0.12,0,1,2.0602e+05,200,-43.043
3.3384e+05,2.0625e+08,0,1.22,0.8,1.17,0.12,0,1,2.0622e+05,200,-43.043
3.3464e+05,2.0644e+08,0,1.22,0.8,1.17,0.13,0,1,2.0642e+05,200,-43.044
3.3541e+05,2.0664e+08,0,1.22,0.8,1.17,0.13,0,1,2.0662e+05,200,-43.043
3.3622e+05,2.0684e+08,0,1.22,0.8,1.17,0.13,0,1,2.0682e+05,200,-43.043
3.3702e+05,2.0703e+08,0,1.22,0.8,1.17,0.13,0,1,2.0702e+05,200,-43.043
3.3791e+05,2.0725e+08,0,1.22,0.8,1.17,0.13,0,1,2.0722e+05,200,-43.043
3.3868e+05,2.0744e+08,0,1.13,0.8,1.17,0.13,0,1,2.0742e+05,200,-43.043
3.3949e+05,2.0764e+08,0,1.13,0.8,1.17,0.13,0,1,2.0762e+05,200,-43.043
3.4029e+05,2.0784e+08,0,1.22,0.79,1.17,0.14,0,1,2.0782e+05,200,-43.043
3.4111e+05,2.0805e+08,0,1.22,0.79,1.16,0.13,0,1,2.0802e+05,200,-43.043
3.4192e+05,2.0825e+08,0,1.13,0.79,1.17,0.14,0,1,2.0822e+05,200,-43.043
3.4272e+05,2.0845e+08,0,1.13,0.79,1.17,0.14,0,1,2.0842e+05,200,-43.043
3.4352e+05,2.0864e+08,0,1.13,0.79,1.17,0.16,0,1,2.0862e+05,200,-43.043
3.4438e+05,2.0885e+08,0,1.13,0.79,1.17,0.15,0,1,2.0882e+05,200,-43.044
3.4518e+05,2.0905e+08,0,1.13,0.79,1.17,0.15,0,1,2.0902e+05,200,-43.043
3.4595e+05,2.0924e+08,0,1.13,0.79,1.17,0.13,0,1,2.0922e+05,200,-43.043
3.4684e+05,2.0945e+08,0,1.22,0.79,1.17,0.12,0,1,2.0942e+05,200,-43.043
3.476e+05,2.0965e+08,0,1.22,0.79,1.17,0.12,0,1,2.0962e+05,200,-43.043
3.4838e+05,2.0984e+08,0,1.22,0.79,1.16,0.11,0,1,2.0982e+05,200,-43.043
3.4918e+05,2.1003e+08,0,1.22,0.79,1.16,0.11,0,1,2.1002e+05,200,-43.043
3.5007e+05,2.1025e+08,0,1.13,0.79,1.16,0.1,0,1,2.1022e+05,200,-43.043
3.5088e+05,2.1045e+08,0,1.13,0.79,1.16,0.1,0,1,2.1042e+05,200,-43.043
3.5168e+05,2.1064e+08,0,1.13,0.79,1.16,0.13,0,1,2.1062e+05,200,-43.044
3.5245e+05,2.1084e+08,0,1.13,0.79,1.16,0.16,0,1,2.1082e+05,200,-43.044
3.5325e+05,2.1104e+08,0,1.13,0.79,1.16,0.16,0,1,2.1102e+05,200,-43.043
3.5414e+05,2.1125e+08,0,1.13,0.79,1.16,0.15,0,1,2.1122e+05,200,-43.043
3.5491e+05,2.1144e+08,0,1.22,0.79,1.16,0.16,0,1,2.1142e+05,200,-43.043
3.5572e+05,2.1164e+08,0,1.22,0.79,1.16,0.15,0,1,2.1162e+05,200,-43.043
3.5661e+05,2.1185e+08,0,1.13,0.79,1.16,0.15,0,1,2.1182e+05,200,-43.043
3.5741e+05,2.1205e+08,0,1.13,0.79,1.16,0.13,0,1,2.1202e+05,200,-43.043
3.5818e+05,2.1225e+08,0,1.13,0.79,1.16,0.13,0,1,2.1222e+05,200,-43.043
3.5898e+05,2.1244e+08,0,1.22,0.79,1.16,0.12,0,1,2.1242e+05,200,-43.043
3.5987e+05,2.1265e+08,0,1.13,0.79,1.16,0.11,0,1,2.1262e+05,200,-43.043
3.6065e+05,2.1285e+08,0,1.13,0.79,1.16,0.11,0,1,2.1282e+05,200,-43.043
3.6145e+05,2.1305e+08,0,1.13,0.79,1.16,0.11,0,1,2.1302e+05,200,-43.043
3.6226e+05,2.1325e+08,0,1.13,0.79,1.16,0.13,0,1,2.1322e+05,200,-43.043
3.6306e+05,2.1345e+08,0,1.13,0.79,1.16,0.15,0,1,2.1342e+05,200,-43.044
3.6383e+05,2.1364e+08,0,1.13,0.79,1.16,0.17,0,1,2.1362e+05,200,-43.043
3.6463e+05,2.1384e+08,0,1.22,0.79,1.16,0.17,0,1,2.1382e+05,200,-43.043
3.6553e+05,2.1405e+08,0,1.13,0.79,1.16,0.16,0,1,2.1402e+05,200,-43.043
3.6633e+05,2.1425e+08,0,1.22,0.79,1.16,0.16,0,1,2.1422e+05,200,-43.043
3.671e+05,2.1444e+08,0,1.22,0.79,1.16,0.16,0,1,2.1442e+05,200,-43.043
3.679e+05,2.1464e+08,0,1.22,0.79,1.16,0.15,0,1,2.1462e+05,200,-43.043
3.6879e+05,2.1485e+08,0,1.13,0.79,1.16,0.15,0,1,2.1482e+05,200,-43.043
3.6959e+05,2.1504e+08,0,1.13,0.79,1.16,0.14,0,1,2.1502e+05,200,-43.043
3.7039e+05,2.1524e+08,0,1.13,0.78,1.16,0.15,0,1,2.1522e+05,200,-43.044
3.7125e+05,2.1545e+08,0,1.13,0.78,1.16,0.15,0,1,2.1542e+05,200,-43.043
3.7206e+05,2.1565e+08,0,1.13,0.78,1.16,0.15,0,1,2.1562e+05,200,-43.043
3.7283e+05,2.1584e+08,0,1.22,0.78,1.16,0.15,0,1,2.1582e+05,200,-43.043
3.7363e+05,2.1604e+08,0,1.22,0.78,1.16,0.18,0,1,2.1602e+05,200,-43.043
3.7452e+05,2.1625e+08,0,1.22,0.78,1.16,0.15,0,1,2.1622e+05,200,-43.043
3.7532e+05,2.1645e+08,0,1.22,0.78,1.16,0.16,0,1,2.1642e+05,200,-43.044
3.7609e+05,2.1664e+08,0,1.22,0.78,1.16,0.16,0,1,2.1662e+05,200,-43.044
3.7698e+05,2.1686e+08,0,1.13,0.78,1.16,0.14,0,1,2.1682e+05,200,-43.043
3.7778e+05,2.1705e+08,0,1.22,0.78,1.16,0.15,0,1,2.1702e+05,200,-43.043
3.7859e+05,2.1724e+08,0,1.13,0.78,1.16,0.15,0,1,2.1722e+05,200,-43.043
3.7939e+05,2.1744e+08,0,1.22,0.78,1.16,0.17,0,1,2.1742e+05,200,-43.043
3.8024e+05,2.1765e+08,0,1.22,0.78,1.16,0.15,0,1,2.1762e+05,200,-43.043
3.8104e+05,2.1784e+08,0,1.13,0.78,1.16,0.15,0,1,2.1782e+05,200,-43.043
3.8184e+05,2.1804e+08,0,1.22,0.78,1.16,0.16,0,1,2.1802e+05,200,-43.044
3.8265e+05,2.1824e+08,0,1.22,0.78,1.16,0.13,0,1,2.1822e+05,200,-43.043
3.8354e+05,2.1845e+08,0,1.22,0.78,1.16,0.15,0,1,2.1842e+05,200,-43.043
3.8435e+05,2.1865e+08,0,1.22,0.78,1.16,0.14,0,1,2.1862e+05,200,-43.043
3.8515e+05,2.1884e+08,0,1.13,0.78,1.16,0.15,0,1,2.1882e+05,200,-43.043
3.8601e+05,2.1905e+08,0,1.13,0.78,1.16,0.12,0,1,2.1902e+05,200,-43.043
3.8681e+05,2.1925e+08,0,1.13,0.78,1.16,0.11,0,1,2.1922e+05,200,-43.043
3.8762e+05,2.1945e+08,0,1.22,0.78,1.16,0.13,0,1,2.1942e+05,200,-43.044
3.8842e+05,2.1965e+08,0,1.22,0.78,1.16,0.14,0,1,2.1962e+05,200,-43.043
3.8919e+05,2.1984e+08,0,1.13,0.78,1.16,0.11,0,1,2.1982e+05,200,-43.043
3.9008e+05,2.2006e+08,0,1.13,0.78,1.16,0.12,0,1,2.2002e+05,200,-43.043
3.9088e+05,2.2025e+08,0,1.13,0.78,1.16,0.11,0,1,2.2022e+05,200,-43.043
3.9169e+05,2.2045e+08,0,1.13,0.78,1.16,0.11,0,1,2.2042e+05,200,-43.043
3.9245e+05,2.2064e+08,0,1.13,0.78,1.16,0.11,0,1,2.2062e+05,200,-43.043
3.9325e+05,2.2083e+08,0,1.13,0.78,1.16,0.12,0,1,2.2082e+05,200,-43.043
3.9411e+05,2.2105e+08,0,1.13,0.78,1.16,0.12,0,1,2.2102e+05,200,-43.043
3.9492e+05,2.2125e+08,0,1.13,0.78,1.16,0.12,0,1,2.2122e+05,200,-43.043
3.9572e+05,2.2144e+08,0,1.13,0.78,1.16,0.11,0,1,2.2142e+05,200,-43.043
3.9649e+05,2.2164e+08,0,1.13,0.78,1.16,0.11,0,1,2.2162e+05,200,-43.043
3.9738e+05,2.2185e+08,0,1.13,0.78,1.16,0.11,0,1,2.2182e+05,200,-43.043
3.9809e+05,2.2203e+08,0,1.13,0.78,1.15,0.13,0,1,2.2202e+05,200,-43.043
3.9898e+05,2.2225e+08,0,1.13,0.78,1.15,0.13,0,1,2.2222e+05,200,-43.044
4.0021e+05,2.2266e+08,0,1.13,0.77,1.15,0.12,0,1,2.2262e+05,200,-43.043
4.0101e+05,2.2285e+08,0,1.13,0.77,1.15,0.13,0,1,2.2282e+05,200,-43.044
4.0179e+05,2.2304e+08,0,1.13,0.77,1.15,0.12,0,1,2.2302e+05,200,-43.043
4.0259e+05,2.2324e+08,0,1.13,0.77,1.15,0.13,0,1,2.2322e+05,200,-43.043
4.0339e+05,2.2344e+08,0,1.13,0.77,1.15,0.16,0,1,2.2342e+05,200,-43.043
4.0428e+05,2.2365e+08,0,1.13,0.77,1.15,0.16,0,1,2.2362e+05,200,-43.043
4.0508e+05,2.2385e+08,0,1.13,0.77,1.15,0.15,0,1,2.2382e+05,200,-43.044
4.0589e+05,2.2405e+08,0,1.13,0.77,1.15,0.15,0,1,2.2402e+05,200,-43.043
4.0669e+05,2.2424e+08,0,1.13,0.77,1.15,0.13,0,1,2.2422e+05,200,-43.043
4.0758e+05,2.2445e+08,0,1.13,0.77,1.15,0.13,0,1,2.2442e+05,200,-43.043
4.0836e+05,2.2465e+08,0,1.13,0.77,1.15,0.13,0,1,2.2462e+05,200,-43.043
4.0915e+05,2.2484e+08,0,1.13,0.77,1.15,0.13,0,1,2.2482e+05,200,-43.043
4.1001e+05,2.2505e+08,0,1.13,0.77,1.15,0.14,0,1,2.2502e+05,200,-43.043
4.1077e+05,2.2525e+08,0,1.13,0.77,1.15,0.13,0,1,2.2522e+05,200,-43.043
4.1157e+05,2.2544e+08,0,1.13,0.77,1.15,0.13,0,1,2.2542e+05,200,-43.044
4.1243e+05,2.2565e+08,0,1.13,0.77,1.15,0.13,0,1,2.2562e+05,200,-43.044
4.132e+05,2.2584e+08,0,1.13,0.77,1.15,0.14,0,1,2.2582e+05,200,-43.043
4.1401e+05,2.2604e+08,0,1.22,0.77,1.15,0.14,0,1,2.2602e+05,200,-43.043
4.1481e+05,2.2624e+08,0,1.22,0.77,1.15,0.14,0,1,2.2622e+05,200,-43.043
4.1562e+05,2.2644e+08,0,1.13,0.77,1.15,0.14,0,1,2.2642e+05,200,-43.043
4.1639e+05,2.2664e+08,0,1.13,0.77,1.15,0.14,0,1,2.2662e+05,200,-43.043
4.1728e+05,2.2685e+08,0,1.13,0.77,1.15,0.16,0,1,2.2682e+05,200,-43.043
4.1805e+05,2.2705e+08,0,1.13,0.77,1.15,0.13,0,1,2.2702e+05,200,-43.044
4.1886e+05,2.2724e+08,0,1.13,0.77,1.15,0.14,0,1,2.2722e+05,200,-43.043
4.1966e+05,2.2743e+08,0,1.13,0.77,1.15,0.17,0,1,2.2742e+05,200,-43.044
4.2055e+05,2.2764e+08,0,1.13,0.77,1.15,0.13,0,1,2.2762e+05,200,-43.043
4.2132e+05,2.2784e+08,0,1.13,0.77,1.15,0.12,0,1,2.2782e+05,200,-43.043
4.2221e+05,2.2805e+08,0,1.13,0.77,1.15,0.13,0,1,2.2802e+05,200,-43.043
4.2297e+05,2.2824e+08,0,1.13,0.77,1.15,0.12,0,1,2.2822e+05,200,-43.043
4.2376e+05,2.2844e+08,0,1.13,0.77,1.15,0.13,0,1,2.2842e+05,200,-43.043
4.2462e+05,2.2865e+08,0,1.13,0.77,1.15,0.12,0,1,2.2862e+05,200,-43.043
4.2539e+05,2.2884e+08,0,1.13,0.77,1.15,0.12,0,1,2.2882e+05,200,-43.044
4.2596e+05,2.2904e+08,0,1.13,0.77,1.15,0.12,0,1,2.2902e+05,200,-43.044
4.2685e+05,2.2925e+08,0,1.13,0.77,1.15,0.12,0,1,2.2922e+05,200,-43.043
4.2765e+05,2.2945e+08,0,1.13,0.77,1.15,0.13,0,1,2.2942e+05,200,-43.043
4.2845e+05,2.2965e+08,0,1.13,0.77,1.15,0.21,0,1,2.2962e+05,200,-43.043
4.2922e+05,2.2984e+08,0,1.13,0.77,1.15,0.21,0,1,2.2982e+05,200,-43.044
4.3011e+05,2.3005e+08,0,1.13,0.77,1.15,0.21,0,1,2.3002e+05,200,-43.043
4.3088e+05,2.3024e+08,0,1.13,0.77,1.15,0.21,0,1,2.3022e+05,200,-43.043
4.3168e+05,2.3044e+08,0,1.13,0.76,1.15,0.2,0,1,2.3042e+05,200,-43.043
4.3254e+05,2.3065e+08,0,1.13,0.76,1.15,0.2,0,1,2.3062e+05,200,-43.043
4.3334e+05,2.3085e+08,0,1.13,0.76,1.14,0.2,0,1,2.3082e+05,200,-43.043
4.3414e+05,2.3104e+08,0,1.13,0.76,1.14,0.17,0,1,2.3102e+05,200,-43.044
4.3494e+05,2.3124e+08,0,1.13,0.76,1.14,0.15,0,1,2.3122e+05,200,-43.044
4.3571e+05,2.3144e+08,0,1.13,0.76,1.14,0.15,0,1,2.3142e+05,200,-43.043
4.3651e+05,2.3163e+08,0,1.13,0.76,1.14,0.14,0,1,2.3162e+05,200,-43.043
4.3737e+05,2.3185e+08,0,1.13,0.76,1.14,0.15,0,1,2.3182e+05,200,-43.043
4.3817e+05,2.3205e+08,0,1.13,0.76,1.14,0.15,0,1,2.3202e+05,200,-43.044
4.3897e+05,2.3225e+08,0,1.13,0.76,1.14,0.15,0,1,2.3222e+05,200,-43.043
4.3977e+05,2.3244e+08,0,1.13,0.76,1.14,0.15,0,1,2.3242e+05,200,-43.044
4.4062e+05,2.3265e+08,0,1.13,0.76,1.14,0.15,0,1,2.3262e+05,200,-43.044
4.4142e+05,2.3285e+08,0,1.13,0.76,1.14,0.16,0,1,2.3282e+05,200,-43.043
4.4218e+05,2.3304e+08,0,1.13,0.76,1.14,0.16,0,1,2.3302e+05,200,-43.043
4.4307e+05,2.3326e+08,0,1.13,0.76,1.14,0.16,0,1,2.3322e+05,200,-43.043
4.4384e+05,2.3345e+08,0,1.13,0.76,1.14,0.16,0,1,2.3342e+05,200,-43.043
4.4464e+05,2.3364e+08,0,1.13,0.76,1.14,0.15,0,1,2.3362e+05,200,-43.043
4.454e+05,2.3383e+08,0,1.13,0.76,1.14,0.15,0,1,2.3382e+05,200,-43.043
4.4629e+05,2.3405e+08,0,1.13,0.76,1.14,0.14,0,1,2.3402e+05,200,-43.043
4.4701e+05,2.3423e+08,0,1.13,0.76,1.14,0.14,0,1,2.3422e+05,200,-43.043
4.479e+05,2.3445e+08,0,1.13,0.76,1.14,0.15,0,1,2.3442e+05,200,-43.043
4.487e+05,2.3464e+08,0,1.13,0.76,1.14,0.15,0,1,2.3462e+05,200,-43.043
4.4959e+05,2.3485e+08,0,1.13,0.76,1.14,0.16,0,1,2.3482e+05,200,-43.043
4.504e+05,2.3505e+08,0,1.13,0.76,1.14,0.16,0,1,2.3502e+05,200,-43.043
4.5116e+05,2.3524e+08,0,1.13,0.76,1.15,0.16,0,1,2.3522e+05,200,-43.043
4.5193e+05,2.3544e+08,0,1.13,0.76,1.15,0.17,0,1,2.3542e+05,200,-43.043
4.5271e+05,2.3563e+08,0,1.13,0.76,1.15,0.16,0,1,2.3562e+05,200,-43.044
4.5359e+05,2.3585e+08,0,1.13,0.76,1.15,0.16,0,1,2.3582e+05,200,-43.043
4.544e+05,2.3604e+08,0,1.13,0.76,1.15,0.16,0,1,2.3602e+05,200,-43.043
4.5529e+05,2.3625e+08,0,1.13,0.76,1.15,0.16,0,1,2.3622e+05,200,-43.043
4.5606e+05,2.3644e+08,0,1.13,0.76,1.15,0.17,0,1,2.3642e+05,200,-43.043
4.5685e+05,2.3664e+08,0,1.13,0.76,1.15,0.16,0,1,2.3662e+05,200,-43.043
4.5774e+05,2.3686e+08,0,1.13,0.76,1.15,0.17,0,1,2.3682e+05,200,-43.043
4.5854e+05,2.3705e+08,0,1.13,0.76,1.15,0.16,0,1,2.3702e+05,200,-43.043
4.5934e+05,2.3724e+08,0,1.13,0.76,1.15,0.16,0,1,2.3722e+05,200,-43.043
4.6014e+05,2.3744e+08,0,1.13,0.76,1.15,0.16,0,1,2.3742e+05,200,-43.043
4.6103e+05,2.3765e+08,0,1.13,0.76,1.15,0.17,0,1,2.3762e+05,200,-43.043
4.6183e+05,2.3785e+08,0,1.13,0.76,1.15,0.15,0,1,2.3782e+05,200,-43.044
4.626e+05,2.3804e+08,0,1.13,0.76,1.15,0.15,0,1,2.3802e+05,200,-43.043
4.6339e+05,2.3824e+08,0,1.13,0.76,1.15,0.15,0,1,2.3822e+05,200,-43.043
4.6419e+05,2.3844e+08,0,1.13,0.76,1.15,0.14,0,1,2.3842e+05,200,-43.043
4.65e+05,2.3864e+08,0,1.13,0.76,1.15,0.14,0,1,2.3862e+05,200,-43.043
4.6586e+05,2.3886e+08,0,1.13,0.76,1.15,0.15,0,1,2.3882e+05,200,-43.043
4.6666e+05,2.3905e+08,0,1.13,0.76,1.15,0.17,0,1,2.3902e+05,200,-43.043
4.6746e+05,2.3924e+08,0,1.13,0.76,1.15,0.16,0,1,2.3922e+05,200,-43.043
4.6831e+05,2.3946e+08,0,1.13,0.76,1.15,0.17,0,1,2.3942e+05,200,-43.043
4.6911e+05,2.3965e+08,0,1.13,0.76,1.15,0.17,0,1,2.3962e+05,200,-43.043
4.6991e+05,2.3985e+08,0,1.13,0.76,1.15,0.19,0,1,2.3982e+05,200,-43.044
4.7068e+05,2.4005e+08,0,1.13,0.76,1.15,0.2,0,1,2.4002e+05,200,-43.043
4.7157e+05,2.4027e+08,0,1.13,0.76,1.15,0.21,0,1,2.4022e+05,200,-43.043
4.7229e+05,2.4044e+08,0,1.13,0.76,1.15,0.22,0,1,2.4042e+05,200,-43.043
4.7309e+05,2.4064e+08,0,1.13,0.76,1.15,0.22,0,1,2.4062e+05,200,-43.043
4.7398e+05,2.4085e+08,0,1.13,0.76,1.15,0.23,0,1,2.4082e+05,200,-43.043
4.7475e+05,2.4105e+08,0,1.13,0.76,1.15,0.22,0,1,2.4102e+05,200,-43.044
4.7552e+05,2.4125e+08,0,1.13,0.76,1.15,0.23,0,1,2.4122e+05,200,-43.043
4.7632e+05,2.4144e+08,0,1.13,0.76,1.15,0.18,0,1,2.4142e+05,200,-43.043
4.7721e+05,2.4165e+08,0,1.12,0.76,1.15,0.13,0,1,2.4162e+05,200,-43.043
4.7798e+05,2.4185e+08,0,1.12,0.76,1.15,0.14,0,1,2.4182e+05,200,-43.043
4.7879e+05,2.4204e+08,0,1.12,0.76,1.15,0.14,0,1,2.4202e+05,200,-43.043
4.7955e+05,2.4224e+08,0,1.12,0.76,1.15,0.14,0,1,2.4222e+05,200,-43.043
4.8035e+05,2.4243e+08,0,1.12,0.76,1.15,0.13,0,1,2.4242e+05,200,-43.044
4.8124e+05,2.4265e+08,0,1.12,0.76,1.15,0.14,0,1,2.4262e+05,200,-43.044
4.8204e+05,2.4285e+08,0,1.12,0.76,1.15,0.14,0,1,2.4282e+05,200,-43.044
4.8281e+05,2.4304e+08,0,1.12,0.76,1.16,0.14,0,1,2.4302e+05,200,-43.043
4.837e+05,2.4325e+08,0,1.12,0.76,1.16,0.13,0,1,2.4322e+05,200,-43.044
4.845e+05,2.4345e+08,0,1.12,0.76,1.16,0.13,0,1,2.4342e+05,200,-43.043
4.8529e+05,2.4364e+08,0,1.12,0.76,1.16,0.13,0,1,2.4362e+05,200,-43.044
4.8609e+05,2.4384e+08,0,1.12,0.76,1.16,0.13,0,1,2.4382e+05,200,-43.043
4.8695e+05,2.4405e+08,0,1.12,0.76,1.16,0.13,0,1,2.4402e+05,200,-43.043
4.8772e+05,2.4425e+08,0,1.12,0.76,1.16,0.13,0,1,2.4422e+05,200,-43.043
4.8853e+05,2.4444e+08,0,1.12,0.76,1.16,0.14,0,1,2.4442e+05,200,-43.044
4.8933e+05,2.4464e+08,0,1.21,0.76,1.16,0.14,0,1,2.4462e+05,200,-43.044
4.9013e+05,2.4484e+08,0,1.21,0.76,1.16,0.13,0,1,2.4482e+05,200,-43.044
4.9094e+05,2.4504e+08,0,1.21,0.76,1.16,0.13,0,1,2.4502e+05,200,-43.043
4.9174e+05,2.4523e+08,0,1.21,0.76,1.16,0.14,0,1,2.4522e+05,200,-43.043
4.9263e+05,2.4545e+08,0,1.21,0.76,1.16,0.13,0,1,2.4542e+05,200,-43.043
4.934e+05,2.4564e+08,0,1.21,0.76,1.16,0.15,0,1,2.4562e+05,200,-43.043
4.942e+05,2.4584e+08,0,1.21,0.76,1.16,0.16,0,1,2.4582e+05,200,-43.044
4.951e+05,2.4606e+08,0,1.12,0.76,1.16,0.14,0,1,2.4602e+05,200,-43.043
4.959e+05,2.4625e+08,0,1.12,0.76,1.16,0.14,0,1,2.4622e+05,200,-43.043
4.9663e+05,2.4644e+08,0,1.12,0.76,1.16,0.13,0,1,2.4642e+05,200,-43.043
4.9752e+05,2.4665e+08,0,1.12,0.76,1.16,0.13,0,1,2.4662e+05,200,-43.043
4.9831e+05,2.4685e+08,0,1.12,0.76,1.16,0.14,0,1,2.4682e+05,200,-43.043
4.9908e+05,2.4704e+08,0,1.12,0.76,1.16,0.13,0,1,2.4702e+05,200,-43.044
4.9997e+05,2.4726e+08,0,1.12,0.76,1.16,0.13,0,1,2.4722e+05,200,-43.043
5.0074e+05,2.4745e+08,0,1.12,0.76,1.16,0.14,0,1,2.4742e+05,200,-43.043
5.0154e+05,2.4764e+08,0,1.12,0.76,1.16,0.15,0,1,2.4762e+05,200,-43.043
5.0234e+05,2.4784e+08,0,1.12,0.76,1.16,0.16,0,1,2.4782e+05,200,-43.044
5.0313e+05,2.4804e+08,0,1.12,0.76,1.16,0.17,0,1,2.4802e+05,200,-43.043
5.0402e+05,2.4826e+08,0,1.12,0.76,1.16,0.2,0,1,2.4822e+05,200,-43.043
5.0482e+05,2.4845e+08,0,1.12,0.76,1.16,0.2,0,1,2.4842e+05,200,-43.043
5.0559e+05,2.4864e+08,0,1.12,0.76,1.16,0.13,0,1,2.4862e+05,200,-43.043
5.0639e+05,2.4884e+08,0,1.12,0.76,1.16,0.14,0,1,2.4882e+05,200,-43.043
5.0725e+05,2.4905e+08,0,1.12,0.76,1.16,0.15,0,1,2.4902e+05,200,-43.043
5.0805e+05,2.4925e+08,0,1.21,0.76,1.16,0.14,0,1,2.4922e+05,200,-43.043
5.0882e+05,2.4944e+08,0,1.12,0.76,1.16,0.14,0,1,2.4942e+05,200,-43.044
5.0958e+05,2.4964e+08,0,1.12,0.76,1.16,0.16,0,1,2.4962e+05,200,-43.043
5.1046e+05,2.4985e+08,0,1.12,0.76,1.16,0.13,0,1,2.4982e+05,200,-43.043
5.1123e+05,2.5005e+08,0,1.12,0.76,1.16,0.13,0,1,2.5002e+05,200,-43.043
5.1212e+05,2.5027e+08,0,1.12,0.76,1.16,0.12,0,1,2.5022e+05,200,-43.043
5.1284e+05,2.5044e+08,0,1.12,0.76,1.16,0.12,0,1,2.5042e+05,200,-43.043
5.136e+05,2.5063e+08,0,1.12,0.76,1.16,0.11,0,1,2.5062e+05,200,-43.043
5.1449e+05,2.5085e+08,0,1.12,0.76,1.16,0.1,0,1,2.5082e+05,200,-43.043
5.1526e+05,2.5104e+08,0,1.12,0.76,1.16,0.1,0,1,2.5102e+05,200,-43.044
5.1611e+05,2.5126e+08,0,1.12,0.76,1.16,0.1,0,1,2.5122e+05,200,-43.043
5.1691e+05,2.5145e+08,0,1.12,0.76,1.16,0.11,0,1,2.5142e+05,200,-43.043
5.1768e+05,2.5164e+08,0,1.12,0.76,1.16,0.1,0,1,2.5162e+05,200,-43.043
5.1848e+05,2.5184e+08,0,1.12,0.76,1.16,0.11,0,1,2.5182e+05,200,-43.043
5.1928e+05,2.5203e+08,0,1.12,0.76,1.16,0.11,0,1,2.5202e+05,200,-43.044
5.2017e+05,2.5225e+08,0,1.21,0.76,1.16,0.12,0,1,2.5222e+05,200,-43.043
5.2096e+05,2.5245e+08,0,1.21,0.76,1.16,0.12,0,1,2.5242e+05,200,-43.044
5.2173e+05,2.5264e+08,0,1.12,0.76,1.15,0.14,0,1,2.5262e+05,200,-43.044
5.2262e+05,2.5285e+08,0,1.12,0.76,1.15,0.15,0,1,2.5282e+05,200,-43.044
5.2343e+05,2.5305e+08,0,1.12,0.76,1.16,0.16,0,1,2.5302e+05,200,-43.043
5.242e+05,2.5324e+08,0,1.21,0.76,1.16,0.17,0,1,2.5322e+05,200,-43.043
5.25e+05,2.5344e+08,0,1.12,0.76,1.16,0.19,0,1,2.5342e+05,200,-43.043
5.2585e+05,2.5365e+08,0,1.12,0.76,1.16,0.22,0,1,2.5362e+05,200,-43.043
5.2666e+05,2.5385e+08,0,1.12,0.76,1.16,0.21,0,1,2.5382e+05,200,-43.043
5.2742e+05,2.5404e+08,0,1.12,0.76,1.16,0.21,0,1,2.5402e+05,200,-43.043
5.2823e+05,2.5424e+08,0,1.12,0.76,1.16,0.19,0,1,2.5422e+05,200,-43.043
5.2912e+05,2.5446e+08,0,1.12,0.76,1.15,0.21,0,1,2.5442e+05,200,-43.043
5.298e+05,2.5463e+08,0,1.12,0.76,1.15,0.21,0,1,2.5462e+05,200,-43.043
5.3065e+05,2.5484e+08,0,1.12,0.76,1.15,0.21,0,1,2.5482e+05,200,-43.043
5.3154e+05,2.5506e+08,0,1.12,0.76,1.15,0.22,0,1,2.5502e+05,200,-43.043
5.3234e+05,2.5525e+08,0,1.12,0.76,1.15,0.22,0,1,2.5522e+05,200,-43.043
5.3314e+05,2.5545e+08,0,1.12,0.76,1.15,0.21,0,1,2.5542e+05,201,-43.043
5.3393e+05,2.5564e+08,0,1.21,0.76,1.15,0.21,0,1,2.5562e+05,200,-43.043
5.3474e+05,2.5584e+08,0,1.21,0.76,1.15,0.21,0,1,2.5582e+05,200,-43.043
5.3554e+05,2.5603e+08,0,1.12,0.76,1.15,0.21,0,1,2.5602e+05,200,-43.043
5.3644e+05,2.5626e+08,0,1.12,0.76,1.15,0.22,0,1,2.5622e+05,200,-43.043
5.3724e+05,2.5645e+08,0,1.12,0.76,1.15,0.3,0,1,2.5642e+05,200,-43.044
5.3804e+05,2.5665e+08,0,1.12,0.76,1.15,0.27,0,1,2.5662e+05,200,-43.043
5.3881e+05,2.5684e+08,0,1.12,0.76,1.15,0.25,0,1,2.5682e+05,200,-43.043
5.3961e+05,2.5704e+08,0,1.12,0.76,1.15,0.23,0,1,2.5702e+05,200,-43.043
5.4049e+05,2.5726e+08,0,1.21,0.76,1.15,0.24,0,1,2.5722e+05,200,-43.043
5.4121e+05,2.5743e+08,0,1.12,0.76,1.15,0.23,0,1,2.5742e+05,200,-43.043
5.4211e+05,2.5765e+08,0,1.21,0.76,1.15,0.23,0,1,2.5762e+05,200,-43.043
5.4291e+05,2.5785e+08,0,1.21,0.76,1.15,0.22,0,1,2.5782e+05,200,-43.043
5.4371e+05,2.5804e+08,0,1.21,0.76,1.15,0.21,0,1,2.5802e+05,200,-43.043
5.4459e+05,2.5825e+08,0,1.12,0.76,1.15,0.22,0,1,2.5822e+05,200,-43.043
5.4535e+05,2.5845e+08,0,1.12,0.76,1.15,0.23,0,1,2.5842e+05,200,-43.044
5.4616e+05,2.5865e+08,0,1.12,0.76,1.15,0.24,0,1,2.5862e+05,200,-43.043
5.4696e+05,2.5884e+08,0,1.12,0.76,1.15,0.23,0,1,2.5882e+05,200,-43.043
5.4785e+05,2.5906e+08,0,1.12,0.76,1.15,0.22,0,1,2.5902e+05,200,-43.043
5.4864e+05,2.5925e+08,0,1.12,0.76,1.15,0.21,0,1,2.5922e+05,200,-43.043
5.4941e+05,2.5944e+08,0,1.21,0.76,1.15,0.12,0,1,2.5942e+05,200,-43.043
5.5029e+05,2.5965e+08,0,1.21,0.76,1.15,0.14,0,1,2.5962e+05,200,-43.043
5.5106e+05,2.5985e+08,0,1.12,0.76,1.15,0.13,0,1,2.5982e+05,200,-43.043
5.5183e+05,2.6005e+08,0,1.12,0.76,1.15,0.16,0,1,2.6002e+05,200,-43.043
5.5272e+05,2.6026e+08,0,1.12,0.76,1.15,0.14,0,1,2.6022e+05,200,-43.043
5.5344e+05,2.6044e+08,0,1.12,0.76,1.15,0.14,0,1,2.6042e+05,200,-43.043
5.5429e+05,2.6065e+08,0,1.12,0.76,1.15,0.14,0,1,2.6062e+05,200,-43.043
5.551e+05,2.6085e+08,0,1.12,0.76,1.15,0.14,0,1,2.6082e+05,200,-43.043
5.5586e+05,2.6104e+08,0,1.12,0.76,1.15,0.14,0,1,2.6102e+05,200,-43.043
5.5675e+05,2.6125e+08,0,1.12,0.76,1.15,0.14,0,1,2.6122e+05,200,-43.043
5.5752e+05,2.6145e+08,0,1.12,0.76,1.15,0.13,0,1,2.6142e+05,200,-43.043
5.5828e+05,2.6164e+08,0,1.12,0.76,1.15,0.13,0,1,2.6162e+05,200,-43.044
5.5909e+05,2.6184e+08,0,1.12,0.76,1.15,0.13,0,1,2.6182e+05,200,-43.043
5.5998e+05,2.6205e+08,0,1.12,0.76,1.15,0.14,0,1,2.6202e+05,200,-43.043
5.6074e+05,2.6224e+08,0,1.12,0.76,1.15,0.13,0,1,2.6222e+05,200,-43.044
5.6154e+05,2.6243e+08,0,1.12,0.76,1.15,0.14,0,1,2.6242e+05,200,-43.043
5.6244e+05,2.6265e+08,0,1.12,0.76,1.15,0.14,0,1,2.6262e+05,200,-43.044
5.6311e+05,2.6283e+08,0,1.12,0.76,1.15,0.13,0,1,2.6282e+05,200,-43.043
5.64e+05,2.6304e+08,0,1.12,0.76,1.15,0.14,0,1,2.6302e+05,200,-43.043
5.6486e+05,2.6326e+08,0,1.12,0.76,1.15,0.13,0,1,2.6322e+05,200,-43.043
5.6563e+05,2.6345e+08,0,1.12,0.76,1.15,0.14,0,1,2.6342e+05,200,-43.043
5.6644e+05,2.6365e+08,0,1.12,0.75,1.15,0.12,0,1,2.6362e+05,200,-43.043
5.6724e+05,2.6384e+08,0,1.12,0.75,1.15,0.12,0,1,2.6382e+05,200,-43.044
5.6809e+05,2.6405e+08,0,1.12,0.75,1.14,0.12,0,1,2.6402e+05,200,-43.043
5.688e+05,2.6423e+08,0,1.12,0.75,1.14,0.12,0,1,2.6422e+05,200,-43.043
5.7016e+05,2.6465e+08,0,1.12,0.75,1.14,0.11,0,1,2.6462e+05,200,-43.044
5.7096e+05,2.6484e+08,0,1.12,0.75,1.14,0.13,0,1,2.6482e+05,200,-43.043
5.7185e+05,2.6506e+08,0,1.12,0.75,1.14,0.13,0,1,2.6502e+05,200,-43.043
5.7262e+05,2.6525e+08,0,1.12,0.75,1.14,0.14,0,1,2.6522e+05,200,-43.043
5.7342e+05,2.6544e+08,0,1.12,0.75,1.14,0.13,0,1,2.6542e+05,200,-43.043
5.7422e+05,2.6564e+08,0,1.12,0.75,1.14,0.13,0,1,2.6562e+05,200,-43.043
5.7502e+05,2.6584e+08,0,1.12,0.75,1.14,0.13,0,1,2.6582e+05,200,-43.043
5.7588e+05,2.6605e+08,0,1.12,0.75,1.14,0.13,0,1,2.6602e+05,200,-43.043
5.7667e+05,2.6624e+08,0,1.12,0.75,1.14,0.12,0,1,2.6622e+05,200,-43.044
5.7753e+05,2.6646e+08,0,1.12,0.75,1.14,0.12,0,1,2.6642e+05,200,-43.043
5.7834e+05,2.6666e+08,0,1.12,0.75,1.14,0.12,0,1,2.6662e+05,200,-43.043
5.7914e+05,2.6685e+08,0,1.12,0.75,1.14,0.12,0,1,2.6682e+05,200,-43.043
5.7991e+05,2.6705e+08,0,1.12,0.75,1.14,0.13,0,1,2.6702e+05,200,-43.043
5.8071e+05,2.6724e+08,0,1.12,0.75,1.14,0.13,0,1,2.6722e+05,200,-43.043
5.8157e+05,2.6745e+08,0,1.12,0.75,1.14,0.13,0,1,2.6742e+05,200,-43.044
5.8237e+05,2.6765e+08,0,1.12,0.75,1.13,0.12,0,1,2.6762e+05,200,-43.043
5.8314e+05,2.6785e+08,0,1.12,0.75,1.13,0.13,0,1,2.6782e+05,200,-43.044
5.8394e+05,2.6804e+08,0,1.12,0.75,1.13,0.13,0,1,2.6802e+05,200,-43.043
5.8471e+05,2.6823e+08,0,1.12,0.75,1.13,0.14,0,1,2.6822e+05,200,-43.043
5.856e+05,2.6845e+08,0,1.12,0.75,1.13,0.14,0,1,2.6842e+05,200,-43.044
5.8636e+05,2.6864e+08,0,1.12,0.75,1.13,0.15,0,1,2.6862e+05,200,-43.043
5.8713e+05,2.6884e+08,0,1.12,0.75,1.13,0.16,0,1,2.6882e+05,200,-43.043
5.8802e+05,2.6905e+08,0,1.12,0.75,1.13,0.15,0,1,2.6902e+05,200,-43.043
5.8878e+05,2.6924e+08,0,1.12,0.75,1.13,0.15,0,1,2.6922e+05,200,-43.043
5.8967e+05,2.6946e+08,0,1.12,0.75,1.13,0.14,0,1,2.6942e+05,200,-43.043
5.9044e+05,2.6965e+08,0,1.12,0.75,1.13,0.14,0,1,2.6962e+05,200,-43.043
5.912e+05,2.6984e+08,0,1.12,0.74,1.13,0.14,0,1,2.6982e+05,200,-43.043
5.9206e+05,2.7005e+08,0,1.12,0.74,1.13,0.14,0,1,2.7002e+05,200,-43.043
5.9286e+05,2.7025e+08,0,1.12,0.74,1.13,0.13,0,1,2.7022e+05,200,-43.043
5.9363e+05,2.7045e+08,0,1.12,0.74,1.13,0.13,0,1,2.7042e+05,200,-43.043
5.9443e+05,2.7064e+08,0,1.12,0.74,1.13,0.12,0,1,2.7062e+05,200,-43.043
5.9529e+05,2.7085e+08,0,1.12,0.74,1.13,0.13,0,1,2.7082e+05,200,-43.043
5.9601e+05,2.7103e+08,0,1.12,0.74,1.13,0.12,0,1,2.7102e+05,200,-43.043
5.9691e+05,2.7125e+08,0,1.12,0.74,1.13,0.13,0,1,2.7122e+05,200,-43.043
5.9767e+05,2.7145e+08,0,1.12,0.74,1.12,0.12,0,1,2.7142e+05,200,-43.043
5.9847e+05,2.7164e+08,0,1.12,0.74,1.12,0.12,0,1,2.7162e+05,200,-43.043
5.9929e+05,2.7186e+08,0,1.12,0.74,1.12,0.13,0,1,2.7182e+05,200,-43.043
6.001e+05,2.7206e+08,0,1.12,0.74,1.12,0.12,0,1,2.7202e+05,200,-43.043
6.009e+05,2.7225e+08,0,1.12,0.74,1.12,0.12,0,1,2.7222e+05,200,-43.043
6.017e+05,2.7245e+08,0,1.12,0.74,1.12,0.13,0,1,2.7242e+05,200,-43.043
6.0251e+05,2.7264e+08,0,1.12,0.74,1.12,0.12,0,1,2.7262e+05,200,-43.043
6.033e+05,2.7284e+08,0,1.12,0.74,1.12,0.12,0,1,2.7282e+05,200,-43.043
6.0419e+05,2.7305e+08,0,1.12,0.74,1.12,0.12,0,1,2.7302e+05,200,-43.043
6.0499e+05,2.7325e+08,0,1.12,0.74,1.12,0.12,0,1,2.7322e+05,200,-43.043
6.0585e+05,2.7346e+08,0,1.12,0.74,1.12,0.13,0,1,2.7342e+05,200,-43.043
6.0662e+05,2.7366e+08,0,1.12,0.74,1.12,0.12,0,1,2.7362e+05,200,-43.043
6.0742e+05,2.7385e+08,0,1.12,0.74,1.12,0.12,0,1,2.7382e+05,200,-43.043
6.0822e+05,2.7405e+08,0,1.12,0.74,1.12,0.12,0,1,2.7402e+05,200,-43.043
6.0903e+05,2.7425e+08,0,1.12,0.74,1.12,0.12,0,1,2.7422e+05,200,-43.043
6.0983e+05,2.7444e+08,0,1.12,0.74,1.12,0.12,0,1,2.7442e+05,200,-43.043
6.1068e+05,2.7465e+08,0,1.12,0.74,1.12,0.14,0,1,2.7462e+05,200,-43.043
6.1148e+05,2.7485e+08,0,1.12,0.74,1.12,0.13,0,1,2.7482e+05,200,-43.043
6.1226e+05,2.7504e+08,0,1.12,0.74,1.12,0.18,0,1,2.7502e+05,200,-43.043
6.1311e+05,2.7525e+08,0,1.12,0.74,1.12,0.17,0,1,2.7522e+05,200,-43.043
6.1388e+05,2.7544e+08,0,1.12,0.74,1.13,0.13,0,1,2.7542e+05,200,-43.043
6.1464e+05,2.7564e+08,0,1.12,0.74,1.13,0.13,0,1,2.7562e+05,200,-43.043
6.1553e+05,2.7585e+08,0,1.12,0.74,1.13,0.13,0,1,2.7582e+05,200,-43.043
6.163e+05,2.7604e+08,0,1.12,0.74,1.13,0.13,0,1,2.7602e+05,200,-43.043
6.171e+05,2.7624e+08,0,1.12,0.74,1.13,0.13,0,1,2.7622e+05,200,-43.043
6.179e+05,2.7643e+08,0,1.12,0.74,1.13,0.13,0,1,2.7642e+05,200,-43.043
6.1879e+05,2.7665e+08,0,1.12,0.74,1.13,0.14,0,1,2.7662e+05,200,-43.043
6.1959e+05,2.7684e+08,0,1.12,0.74,1.13,0.14,0,1,2.7682e+05,200,-43.043
6.2048e+05,2.7706e+08,0,1.12,0.74,1.13,0.13,0,1,2.7702e+05,200,-43.044
6.2128e+05,2.7725e+08,0,1.12,0.74,1.13,0.13,0,1,2.7722e+05,200,-43.043
6.2208e+05,2.7745e+08,0,1.12,0.74,1.13,0.12,0,1,2.7742e+05,200,-43.043
6.2285e+05,2.7764e+08,0,1.12,0.74,1.13,0.13,0,1,2.7762e+05,200,-43.043
6.2365e+05,2.7784e+08,0,1.12,0.74,1.13,0.12,0,1,2.7782e+05,200,-43.043
6.2446e+05,2.7804e+08,0,1.12,0.74,1.13,0.14,0,1,2.7802e+05,200,-43.043
6.2535e+05,2.7825e+08,0,1.12,0.74,1.13,0.14,0,1,2.7822e+05,200,-43.043
6.2616e+05,2.7845e+08,0,1.12,0.74,1.13,0.16,0,1,2.7842e+05,200,-43.043
6.2696e+05,2.7865e+08,0,1.12,0.74,1.13,0.17,0,1,2.7862e+05,200,-43.043
6.2776e+05,2.7885e+08,0,1.12,0.74,1.13,0.17,0,1,2.7882e+05,200,-43.043
6.2856e+05,2.7905e+08,0,1.12,0.74,1.13,0.18,0,1,2.7902e+05,200,-43.043
6.2936e+05,2.7924e+08,0,1.12,0.74,1.13,0.19,0,1,2.7922e+05,200,-43.043
6.3022e+05,2.7945e+08,0,1.12,0.74,1.13,0.19,0,1,2.7942e+05,200,-43.043
6.3102e+05,2.7965e+08,0,1.12,0.74,1.13,0.19,0,1,2.7962e+05,200,-43.043
6.3182e+05,2.7984e+08,0,1.12,0.74,1.13,0.19,0,1,2.7982e+05,200,-43.043
6.3268e+05,2.8005e+08,0,1.12,0.74,1.13,0.19,0,1,2.8002e+05,200,-43.043
6.3344e+05,2.8025e+08,0,1.12,0.74,1.13,0.18,0,1,2.8022e+05,200,-43.043
6.3424e+05,2.8044e+08,0,1.12,0.74,1.13,0.18,0,1,2.8042e+05,200,-43.043
6.3513e+05,2.8066e+08,0,1.12,0.74,1.13,0.18,0,1,2.8062e+05,200,-43.043
6.3589e+05,2.8085e+08,0,1.12,0.74,1.13,0.18,0,1,2.8082e+05,200,-43.043
6.367e+05,2.8104e+08,0,1.12,0.74,1.13,0.19,0,1,2.8102e+05,200,-43.043
6.3746e+05,2.8124e+08,0,1.12,0.74,1.13,0.18,0,1,2.8122e+05,200,-43.043
6.3827e+05,2.8144e+08,0,1.12,0.74,1.13,0.18,0,1,2.8142e+05,200,-43.043
6.3916e+05,2.8166e+08,0,1.12,0.74,1.13,0.17,0,1,2.8162e+05,200,-43.044
6.3983e+05,2.8183e+08,0,1.12,0.74,1.13,0.19,0,1,2.8182e+05,200,-43.043
6.4072e+05,2.8205e+08,0,1.12,0.74,1.13,0.19,0,1,2.8202e+05,200,-43.044
6.4152e+05,2.8224e+08,0,1.12,0.74,1.13,0.2,0,1,2.8222e+05,200,-43.044
6.4242e+05,2.8246e+08,0,1.12,0.74,1.13,0.19,0,1,2.8242e+05,200,-43.043
6.4319e+05,2.8265e+08,0,1.12,0.74,1.13,0.2,0,1,2.8262e+05,200,-43.044
6.4399e+05,2.8286e+08,0,1.21,0.74,1.13,0.2,0,1,2.8282e+05,200,-43.043
6.4479e+05,2.8305e+08,0,1.12,0.74,1.13,0.21,0,1,2.8302e+05,200,-43.043
6.4556e+05,2.8325e+08,0,1.12,0.74,1.13,0.23,0,1,2.8322e+05,200,-43.043
6.4645e+05,2.8347e+08,0,1.12,0.74,1.13,0.17,0,1,2.8342e+05,200,-43.043
6.4716e+05,2.8364e+08,0,1.12,0.74,1.13,0.19,0,1,2.8362e+05,200,-43.043
6.4797e+05,2.8384e+08,0,1.12,0.74,1.13,0.23,0,1,2.8382e+05,200,-43.044
6.4886e+05,2.8405e+08,0,1.12,0.74,1.13,0.22,0,1,2.8402e+05,200,-43.044
6.4963e+05,2.8425e+08,0,1.12,0.74,1.13,0.2,0,1,2.8422e+05,200,-43.044
6.5042e+05,2.8444e+08,0,1.12,0.74,1.13,0.21,0,1,2.8442e+05,200,-43.043
6.5119e+05,2.8463e+08,0,1.21,0.74,1.13,0.15,0,1,2.8462e+05,200,-43.043
6.5207e+05,2.8485e+08,0,1.21,0.74,1.13,0.19,0,1,2.8482e+05,200,-43.043
6.5287e+05,2.8504e+08,0,1.21,0.74,1.13,0.22,0,1,2.8502e+05,200,-43.044
6.5373e+05,2.8525e+08,0,1.21,0.74,1.13,0.2,0,1,2.8522e+05,200,-43.043
6.5454e+05,2.8545e+08,0,1.21,0.74,1.13,0.15,0,1,2.8542e+05,200,-43.043
6.5533e+05,2.8564e+08,0,1.12,0.74,1.13,0.13,0,1,2.8562e+05,200,-43.043
6.5613e+05,2.8584e+08,0,1.12,0.74,1.13,0.21,0,1,2.8582e+05,200,-43.043
6.5698e+05,2.8605e+08,0,1.12,0.74,1.13,0.21,0,1,2.8602e+05,200,-43.043
6.5778e+05,2.8624e+08,0,1.12,0.74,1.13,0.19,0,1,2.8622e+05,200,-43.043
6.5855e+05,2.8644e+08,0,1.12,0.74,1.13,0.19,0,1,2.8642e+05,200,-43.043
6.5944e+05,2.8665e+08,0,1.12,0.74,1.13,0.16,0,1,2.8662e+05,200,-43.043
6.6025e+05,2.8684e+08,0,1.12,0.74,1.13,0.18,0,1,2.8682e+05,200,-43.043
6.6111e+05,2.8705e+08,0,1.12,0.74,1.13,0.12,0,1,2.8702e+05,200,-43.043
6.6191e+05,2.8724e+08,0,1.12,0.74,1.13,0.19,0,1,2.8722e+05,200,-43.044
6.628e+05,2.8745e+08,0,1.12,0.74,1.13,0.17,0,1,2.8742e+05,200,-43.043
6.6356e+05,2.8764e+08,0,1.12,0.75,1.13,0.15,0,1,2.8762e+05,200,-43.044
6.6445e+05,2.8785e+08,0,1.12,0.75,1.13,0.19,0,1,2.8782e+05,200,-43.044
6.6525e+05,2.8804e+08,0,1.12,0.75,1.13,0.18,0,1,2.8802e+05,200,-43.043
6.6602e+05,2.8824e+08,0,1.12,0.75,1.13,0.2,0,1,2.8822e+05,200,-43.043
6.6692e+05,2.8845e+08,0,1.12,0.75,1.14,0.2,0,1,2.8842e+05,200,-43.043
6.6773e+05,2.8863e+08,0,1.12,0.75,1.14,0.12,0,1,2.8862e+05,200,-43.043
6.6863e+05,2.8884e+08,0,1.12,0.75,1.14,0.21,0,1,2.8882e+05,200,-43.043
6.6949e+05,2.8905e+08,0,1.12,0.75,1.14,0.2,0,1,2.8902e+05,200,-43.043
6.703e+05,2.8924e+08,0,1.12,0.75,1.14,0.2,0,1,2.8922e+05,200,-43.043
6.712e+05,2.8945e+08,0,1.12,0.75,1.14,0.14,0,1,2.8942e+05,200,-43.043
6.7201e+05,2.8964e+08,0,1.12,0.75,1.14,0.18,0,1,2.8962e+05,200,-43.043
6.7288e+05,2.8985e+08,0,1.12,0.75,1.14,0.2,0,1,2.8982e+05,200,-43.043
6.7369e+05,2.9005e+08,0,1.12,0.75,1.14,0.21,0,1,2.9002e+05,200,-43.043
6.7455e+05,2.9026e+08,0,1.12,0.75,1.14,0.2,0,1,2.9022e+05,200,-43.043
6.7536e+05,2.9045e+08,0,1.12,0.75,1.14,0.18,0,1,2.9042e+05,200,-43.043
6.7626e+05,2.9066e+08,0,1.12,0.75,1.14,0.17,0,1,2.9062e+05,200,-43.043
6.7704e+05,2.9085e+08,0,1.12,0.75,1.14,0.16,0,1,2.9082e+05,200,-43.044
6.7785e+05,2.9104e+08,0,1.12,0.75,1.14,0.18,0,1,2.9102e+05,200,-43.043
6.7875e+05,2.9125e+08,0,1.12,0.75,1.14,0.2,0,1,2.9122e+05,200,-43.043
6.7956e+05,2.9144e+08,0,1.12,0.75,1.14,0.21,0,1,2.9142e+05,200,-43.043
6.8043e+05,2.9165e+08,0,1.12,0.75,1.14,0.21,0,1,2.9162e+05,200,-43.043
6.8123e+05,2.9184e+08,0,1.12,0.75,1.14,0.19,0,1,2.9182e+05,200,-43.043
6.821e+05,2.9205e+08,0,1.21,0.76,1.14,0.22,0,1,2.9202e+05,200,-43.043
6.8292e+05,2.9224e+08,0,1.21,0.76,1.14,0.25,0,1,2.9222e+05,200,-43.043
6.8382e+05,2.9245e+08,0,1.21,0.76,1.14,0.25,0,1,2.9242e+05,200,-43.043
6.8462e+05,2.9264e+08,0,1.21,0.76,1.14,0.21,0,1,2.9262e+05,200,-43.043
6.8552e+05,2.9285e+08,0,1.21,0.77,1.14,0.22,0,1,2.9282e+05,200,-43.043
6.863e+05,2.9304e+08,0,1.21,0.77,1.14,0.23,0,1,2.9302e+05,200,-43.043
6.872e+05,2.9325e+08,0,1.21,0.77,1.14,0.24,0,1,2.9322e+05,200,-43.043
6.88e+05,2.9344e+08,0,1.21,0.77,1.15,0.2,0,1,2.9342e+05,200,-43.044
6.8881e+05,2.9364e+08,0,1.21,0.77,1.15,0.21,0,1,2.9362e+05,200,-43.043
6.8971e+05,2.9385e+08,0,1.12,0.78,1.15,0.22,0,1,2.9382e+05,200,-43.044
6.9052e+05,2.9404e+08,0,1.12,0.78,1.15,0.23,0,1,2.9402e+05,200,-43.043
6.9142e+05,2.9425e+08,0,1.12,0.78,1.15,0.23,0,1,2.9422e+05,200,-43.043
6.9223e+05,2.9444e+08,0,1.12,0.78,1.15,0.22,0,1,2.9442e+05,200,-43.043
6.9309e+05,2.9465e+08,0,1.12,0.79,1.15,0.22,0,1,2.9462e+05,200,-43.043
6.9388e+05,2.9484e+08,0,1.12,0.79,1.15,0.24,0,1,2.9482e+05,200,-43.043
6.9477e+05,2.9505e+08,0,1.12,0.79,1.15,0.22,0,1,2.9502e+05,200,-43.044
6.9557e+05,2.9524e+08,0,1.12,0.79,1.15,0.2,0,1,2.9522e+05,200,-43.043
6.9646e+05,2.9545e+08,0,1.12,0.79,1.15,0.21,0,1,2.9542e+05,201,-43.043
6.9735e+05,2.9565e+08,0,1.12,0.79,1.15,0.23,0,1,2.9562e+05,200,-43.043
6.9812e+05,2.9584e+08,0,1.12,0.79,1.16,0.19,0,1,2.9582e+05,200,-43.044
6.9901e+05,2.9605e+08,0,1.12,0.8,1.16,0.2,0,1,2.9602e+05,200,-43.043
6.9981e+05,2.9624e+08,0,1.12,0.8,1.16,0.21,0,1,2.9622e+05,200,-43.043
7.0069e+05,2.9645e+08,0,1.12,0.8,1.16,0.21,0,1,2.9642e+05,200,-43.044
7.015e+05,2.9664e+08,0,1.21,0.8,1.16,0.11,0,1,2.9662e+05,200,-43.043
7.0238e+05,2.9684e+08,0,1.21,0.8,1.16,0.21,0,1,2.9682e+05,200,-43.043
7.0324e+05,2.9705e+08,0,1.21,0.8,1.16,0.23,0,1,2.9702e+05,200,-43.043
7.0404e+05,2.9724e+08,0,1.21,0.8,1.16,0.2,0,1,2.9722e+05,200,-43.043
7.049e+05,2.9745e+08,0,1.21,0.8,1.16,0.22,0,1,2.9742e+05,200,-43.043
7.0569e+05,2.9764e+08,0,1.21,0.81,1.16,0.3,0,1,2.9762e+05,200,-43.044
7.0655e+05,2.9784e+08,0,1.21,0.81,1.16,0.32,0,1,2.9782e+05,200,-43.043
7.0744e+05,2.9805e+08,0,1.12,0.82,1.17,0.48,0,1,2.9802e+05,200,-43.043
7.0824e+05,2.9824e+08,0,1.21,0.83,1.17,0.38,0,1,2.9822e+05,200,-43.044
7.0912e+05,2.9845e+08,0,1.21,0.83,1.18,0.37,0,1,2.9842e+05,200,-43.043
7.0992e+05,2.9864e+08,0,1.21,0.84,1.18,0.28,0,1,2.9862e+05,200,-43.043
7.1081e+05,2.9884e+08,0,1.21,0.84,1.18,0.19,0,1,2.9882e+05,200,-43.043
