LineNo,TimeUS,I,Status,GMS,GWk,NSats,HDop,Lat,Lng,Alt,Spd,GCrs,VZ,Yaw,U
1566,1.9847e+07,0,3,4.6889e+08,2230,16,0.69,43.601,13.482,81.83,0.014,0,0.015,0,1
2354,2.0051e+07,0,3,4.6889e+08,2230,16,0.69,43.601,13.482,81.87,0.018,0,-0.003,0,1
3176,2.0253e+07,0,3,4.6889e+08,2230,16,0.69,43.601,13.482,81.91,0.023,0,0.043,0,1
4005,2.0459e+07,0,3,4.6889e+08,2230,16,0.69,43.601,13.482,81.95,0.021,0,0.003,0,1
4749,2.0642e+07,0,3,4.6889e+08,2230,16,0.69,43.601,13.482,81.98,0.021,0,0.068,0,1
5545,2.0844e+07,0,3,4.6889e+08,2230,16,0.69,43.601,13.482,82.02,0.029,0,-0.019,0,1
6365,2.1045e+07,0,3,4.6889e+08,2230,16,0.69,43.601,13.482,82.08,0.006,0,0.002,0,1
7186,2.125e+07,0,3,4.6889e+08,2230,16,0.69,43.601,13.482,82.13,0.05,0,0.026,0,1
7987,2.1453e+07,0,3,4.6889e+08,2230,16,0.69,43.601,13.482,82.18,0.025,0,-0.005,0,1
8720,2.1636e+07,0,3,4.6889e+08,2230,16,0.69,43.601,13.482,82.23,0.016,0,-0.018,0,1
10203,2.2043e+07,0,3,4.6889e+08,2230,16,0.69,43.601,13.482,82.35,0.013,0,-0.032,0,1
11027,2.2246e+07,0,3,4.6889e+08,2230,16,0.69,43.601,13.482,82.41,0.026,0,-0.002,0,1
11856,2.2453e+07,0,3,4.6889e+08,2230,16,0.69,43.601,13.482,82.45,0.013,0,-0.012,0,1
12597,2.2637e+07,0,3,4.6889e+08,2230,16,0.69,43.601,13.482,82.5,0.014,0,0.065,0,1
13387,2.284e+07,0,3,4.6889e+08,2230,16,0.69,43.601,13.482,82.54,0.033,0,-0.015,0,1
14212,2.3043e+07,0,3,4.689e+08,2230,16,0.69,43.601,13.482,82.6,0.023,0,0.042,0,1
15037,2.3249e+07,0,3,4.689e+08,2230,16,0.69,43.601,13.482,82.65,0.004,0,0.09,0,1
15777,2.3433e+07,0,3,4.689e+08,2230,16,0.69,43.601,13.482,82.69,0.054,0,0.028,0,1
16575,2.3638e+07,0,3,4.689e+08,2230,16,0.69,43.601,13.482,82.75,0.017,0,0.016,0,1
17391,2.3841e+07,0,3,4.689e+08,2230,16,0.69,43.601,13.482,82.79,0.044,0,0.041,0,1
18191,2.4046e+07,0,3,4.689e+08,2230,16,0.69,43.601,13.482,82.84,0.03,0,0.133,0,1
19011,2.4249e+07,0,3,4.689e+08,2230,16,0.69,43.601,13.482,82.88,0.008,0,0.017,0,1
19806,2.4452e+07,0,3,4.689e+08,2230,16,0.69,43.601,13.482,82.93,0.028,0,-0.02,0,1
20547,2.4636e+07,0,3,4.689e+08,2230,16,0.69,43.601,13.482,82.98,0.006,0,0.041,0,1
21377,2.4841e+07,0,3,4.689e+08,2230,16,0.69,43.601,13.482,83.03,0.017,0,0.052,0,1
22205,2.5045e+07,0,3,4.689e+08,2230,16,0.69,43.601,13.482,83.07,0.043,0,0.017,0,1
23029,2.5251e+07,0,3,4.689e+08,2230,16,0.69,43.601,13.482,83.11,0.022,0,0.043,0,1
23778,2.5436e+07,0,3,4.689e+08,2230,16,0.69,43.601,13.482,83.14,0.017,0,0.013,0,1
24609,2.5643e+07,0,3,4.689e+08,2230,16,0.69,43.601,13.482,83.17,0.008,0,0.051,0,1
25439,2.5849e+07,0,3,4.689e+08,2230,16,0.69,43.601,13.482,83.19,0.023,0,0.087,0,1
26181,2.6033e+07,0,3,4.689e+08,2230,16,0.69,43.601,13.482,83.21,0.019,0,0.065,0,1
26999,2.6237e+07,0,3,4.689e+08,2230,16,0.69,43.601,13.482,83.23,0.007,0,0.046,0,1
27792,2.6438e+07,0,3,4.689e+08,2230,16,0.69,43.601,13.482,83.26,0.038,0,0.076,0,1
28611,2.6642e+07,0,3,4.689e+08,2230,16,0.69,43.601,13.482,83.29,0.013,0,0.04,0,1
29439,2.6844e+07,0,3,4.689e+08,2230,16,0.69,43.601,13.482,83.32,0.03,0,0.123,0,1
30263,2.705e+07,0,3,4.689e+08,2230,16,0.69,43.601,13.482,83.36,0.048,0,0.024,0,1
31002,2.7236e+07,0,3,4.689e+08,2230,16,0.69,43.601,13.482,83.39,0.022,0,0.029,0,1
31796,2.7439e+07,0,3,4.689e+08,2230,16,0.69,43.601,13.482,83.41,0.034,0,0,0,1
32610,2.7641e+07,0,3,4.689e+08,2230,16,0.69,43.601,13.482,83.46,0.029,0,0.065,0,1
33436,2.7845e+07,0,3,4.689e+08,2230,16,0.69,43.601,13.482,83.49,0.068,0,0.009,0,1
34230,2.8052e+07,0,3,4.689e+08,2230,16,0.69,43.601,13.482,83.52,0.017,0,0.029,0,1
34974,2.8238e+07,0,3,4.689e+08,2230,16,0.69,43.601,13.482,83.56,0.027,0,0.033,0,1
35799,2.8444e+07,0,3,4.689e+08,2230,16,0.69,43.601,13.482,83.59,0.038,0,0.007,0,1
36624,2.8648e+07,0,3,4.689e+08,2230,16,0.69,43.601,13.482,83.62,0.037,0,0.036,0,1
37449,2.8851e+07,0,3,4.689e+08,2230,16,0.69,43.601,13.482,83.66,0.015,0,0.03,0,1
38189,2.9037e+07,0,3,4.689e+08,2230,16,0.69,43.601,13.482,83.69,0.019,0,-0.043,0,1
39008,2.924e+07,0,3,4.689e+08,2230,16,0.69,43.601,13.482,83.73,0.035,0,0.044,0,1
40286,2.9564e+07,0,3,4.689e+08,2230,16,0.69,43.601,13.482,83.76,0.029,0,0.05,0,1
40616,2.9645e+07,0,3,4.689e+08,2230,16,0.69,43.601,13.482,83.79,0.006,0,0.048,0,1
41439,2.9852e+07,0,3,4.689e+08,2230,16,0.69,43.601,13.482,83.82,0.019,0,0.075,0,1
42183,3.0034e+07,0,3,4.689e+08,2230,16,0.69,43.601,13.482,83.85,0.008,0,-0.012,0,1
43010,3.0236e+07,0,3,4.689e+08,2230,16,0.69,43.601,13.482,83.88,0.027,0,0.042,0,1
43808,3.0439e+07,0,3,4.689e+08,2230,16,0.69,43.601,13.482,83.9,0.015,0,0.101,0,1
44633,3.0641e+07,0,3,4.689e+08,2230,16,0.69,43.601,13.482,83.94,0.016,0,-0.032,0,1
45539,3.0867e+07,0,3,4.689e+08,2230,16,0.69,43.601,13.482,83.99,0.033,0,0.042,0,1
46244,3.105e+07,0,3,4.689e+08,2230,16,0.69,43.601,13.482,84.02,0.066,0,-0.001,0,1
47067,3.1256e+07,0,3,4.689e+08,2230,16,0.69,43.601,13.482,84.04,0.019,0,0.018,0,1
47898,3.1461e+07,0,3,4.689e+08,2230,16,0.69,43.601,13.482,84.08,0.043,0,0.087,0,1
48635,3.1645e+07,0,3,4.689e+08,2230,16,0.69,43.601,13.482,84.09,0.064,0,0.06,0,1
49381,3.1831e+07,0,3,4.689e+08,2230,16,0.69,43.601,13.482,84.11,0.024,0,0.023,0,1
50176,3.2033e+07,0,3,4.689e+08,2230,16,0.69,43.601,13.482,84.16,0.129,0,0.034,0,1
51004,3.2238e+07,0,3,4.689e+08,2230,16,0.69,43.601,13.482,84.19,0.066,0,0.001,0,1
51794,3.2439e+07,0,3,4.689e+08,2230,16,0.69,43.601,13.482,84.24,0.053,0,-0.065,0,1
52616,3.2641e+07,0,3,4.689e+08,2230,16,0.69,43.601,13.482,84.26,0.062,0,0.015,0,1
53444,3.2844e+07,0,3,4.689e+08,2230,16,0.69,43.601,13.482,84.28,0.115,0,0.076,0,1
54184,3.303e+07,0,3,4.689e+08,2230,16,0.69,43.601,13.482,84.29,0.033,0,0.02,0,1
55088,3.3252e+07,0,3,4.6891e+08,2230,16,0.69,43.601,13.482,84.32,0.082,0,0.117,0,1
55800,3.3435e+07,0,3,4.6891e+08,2230,16,0.69,43.601,13.482,84.37,0.088,0,0.003,0,1
56590,3.3638e+07,0,3,4.6891e+08,2230,16,0.69,43.601,13.482,84.38,0.061,0,0.114,0,1
57419,3.3846e+07,0,3,4.6891e+08,2230,16,0.69,43.601,13.482,84.42,0.043,0,0.119,0,1
58244,3.4052e+07,0,3,4.6891e+08,2230,16,0.69,43.601,13.482,84.46,0.069,0,0.045,0,1
58991,3.4237e+07,0,3,4.6891e+08,2230,16,0.69,43.601,13.482,84.51,0.007,0,-0.028,0,1
59817,3.4447e+07,0,3,4.6891e+08,2230,16,0.69,43.601,13.482,84.61,0.037,0,0.028,0,1
60638,3.465e+07,0,3,4.6891e+08,2230,16,0.69,43.601,13.482,84.68,0.049,0,-0.045,0,1
61457,3.4854e+07,0,3,4.6891e+08,2230,16,0.69,43.601,13.482,84.77,0.041,0,0.052,0,1
62246,3.5055e+07,0,3,4.6891e+08,2230,16,0.69,43.601,13.482,84.85,0.052,0,0.035,0,1
62983,3.524e+07,0,3,4.6891e+08,2230,16,0.69,43.601,13.482,84.92,0.018,0,-0.001,0,1
63806,3.5443e+07,0,3,4.6891e+08,2230,16,0.69,43.601,13.482,85,0.052,0,-0.024,0,1
64626,3.5648e+07,0,3,4.6891e+08,2230,16,0.69,43.601,13.482,85.09,0.018,0,0.058,0,1
65407,3.5851e+07,0,3,4.6891e+08,2230,16,0.69,43.601,13.482,85.18,0.077,0,0.008,0,1
66204,3.6053e+07,0,3,4.6891e+08,2230,16,0.69,43.601,13.482,85.29,0.098,0,0.058,0,1
66985,3.6255e+07,0,3,4.6891e+08,2230,16,0.69,43.601,13.482,85.35,0.202,343.51,0.065,0,1
67717,3.6438e+07,0,3,4.6891e+08,2230,16,0.69,43.601,13.482,85.42,0.072,343.51,-0.003,0,1
68500,3.6639e+07,0,3,4.6891e+08,2230,16,0.69,43.601,13.482,85.5,0.054,343.51,0.008,0,1
69316,3.6842e+07,0,3,4.6891e+08,2230,16,0.69,43.601,13.482,85.57,0.035,343.51,0.038,0,1
70126,3.7044e+07,0,3,4.6891e+08,2230,16,0.69,43.601,13.482,85.63,0.047,343.51,0.065,0,1
70904,3.7247e+07,0,3,4.6891e+08,2230,16,0.69,43.601,13.482,85.69,0.035,343.51,-0.032,0,1
71714,3.745e+07,0,3,4.6891e+08,2230,16,0.69,43.601,13.482,85.75,0.073,343.51,0.077,0,1
72519,3.7652e+07,0,3,4.6891e+08,2230,16,0.69,43.601,13.482,85.81,0.239,343.51,-0.045,0,1
73242,3.7836e+07,0,3,4.6891e+08,2230,16,0.69,43.601,13.482,85.92,0.204,343.51,-0.149,0,1
74027,3.8038e+07,0,3,4.6891e+08,2230,16,0.69,43.601,13.482,86.13,0.361,35.91,-0.837,0,1
74842,3.8241e+07,0,3,4.6891e+08,2230,16,0.69,43.601,13.482,86.49,0.566,90.163,-1.483,0,1
75569,3.8425e+07,0,3,4.6891e+08,2230,16,0.69,43.601,13.482,86.79,0.559,96.815,-1.103,0,1
76462,3.8648e+07,0,3,4.6891e+08,2230,15,0.77,43.601,13.482,86.93,0.85,135.69,-0.589,0,1
77271,3.8851e+07,0,3,4.6891e+08,2230,15,0.77,43.601,13.482,86.99,0.89,133.07,-0.344,0,1
78081,3.9052e+07,0,3,4.6891e+08,2230,15,0.77,43.601,13.482,86.98,1.121,142.23,0.045,0,1
78819,3.9232e+07,0,3,4.6891e+08,2230,16,0.69,43.601,13.482,86.98,1.616,151.26,0.037,0,1
79628,3.9435e+07,0,3,4.6891e+08,2230,16,0.69,43.601,13.482,86.95,1.369,154.92,0.066,0,1
80433,3.9635e+07,0,3,4.6891e+08,2230,15,0.71,43.601,13.482,86.89,1.216,146.77,-0.159,0,1
81214,3.9837e+07,0,3,4.6891e+08,2230,16,0.69,43.601,13.482,87,1.031,159.51,-0.146,0,1
82025,4.0039e+07,0,3,4.6891e+08,2230,16,0.69,43.601,13.482,87.01,1.328,168.57,0.311,0,1
82834,4.0241e+07,0,3,4.6891e+08,2230,16,0.69,43.601,13.482,87.02,0.979,177.28,-0.179,0,1
83648,4.0442e+07,0,3,4.6891e+08,2230,16,0.69,43.601,13.482,87.11,0.819,180.49,-0.216,0,1
84431,4.0643e+07,0,3,4.6891e+08,2230,16,0.69,43.601,13.482,87.1,0.983,187.48,0.19,0,1
85243,4.0845e+07,0,3,4.6891e+08,2230,16,0.69,43.601,13.482,87.05,1.362,179.15,-0.085,0,1
86025,4.1046e+07,0,3,4.6891e+08,2230,16,0.69,43.601,13.482,87.05,1.517,181.08,-0.07,0,1
86803,4.1248e+07,0,3,4.6891e+08,2230,16,0.69,43.601,13.482,87.08,1.41,186.86,0.165,0,1
87610,4.1449e+07,0,3,4.6891e+08,2230,16,0.69,43.601,13.482,86.99,1.19,188.24,-0.159,0,1
88425,4.165e+07,0,3,4.6891e+08,2230,16,0.69,43.601,13.482,86.95,1.283,192.1,0.204,0,1
89123,4.1832e+07,0,3,4.6891e+08,2230,15,0.77,43.601,13.482,86.9,1.654,188.46,0.099,0,1
89939,4.2036e+07,0,3,4.6891e+08,2230,14,0.77,43.601,13.482,86.92,1.226,190.21,-0.203,0,1
90749,4.2238e+07,0,3,4.6891e+08,2230,15,0.77,43.601,13.482,86.85,1.718,194.08,0.232,0,1
91528,4.2439e+07,0,3,4.6891e+08,2230,15,0.77,43.601,13.482,86.82,1.277,195.98,-0.118,0,1
92340,4.2641e+07,0,3,4.6891e+08,2230,15,0.77,43.601,13.482,86.82,1.053,197.23,-0.09,0,1
93117,4.2842e+07,0,3,4.6891e+08,2230,15,0.77,43.601,13.482,86.73,1.505,195.83,0.454,0,1
93929,4.3047e+07,0,3,4.6892e+08,2230,15,0.77,43.601,13.482,86.8,1.337,196.7,-0.287,0,1
94739,4.3249e+07,0,3,4.6892e+08,2230,15,0.77,43.601,13.482,86.74,1.239,199.62,0.161,0,1
95546,4.345e+07,0,3,4.6892e+08,2230,15,0.77,43.601,13.482,86.71,1.422,203.88,0.069,0,1
96255,4.3635e+07,0,3,4.6892e+08,2230,15,0.77,43.601,13.482,86.68,1.036,208.58,-0.01,0,1
97069,4.3842e+07,0,3,4.6892e+08,2230,15,0.77,43.601,13.482,86.61,1.136,202.69,0.27,0,1
97885,4.4051e+07,0,3,4.6892e+08,2230,15,0.77,43.601,13.482,86.57,1.323,196.88,-0.037,0,1
98617,4.4234e+07,0,3,4.6892e+08,2230,15,0.77,43.601,13.482,86.62,1.258,200,-0.104,0,1
99423,4.4435e+07,0,3,4.6892e+08,2230,15,0.77,43.601,13.482,86.53,1.349,206.42,0.323,0,1
1.0023e+05,4.4637e+07,0,3,4.6892e+08,2230,15,0.77,43.601,13.482,86.5,1.361,209.62,-0.121,0,1
1.0104e+05,4.4843e+07,0,3,4.6892e+08,2230,15,0.77,43.601,13.482,86.52,0.937,212.43,0.071,0,1
1.0185e+05,4.5047e+07,0,3,4.6892e+08,2230,15,0.77,43.601,13.482,86.4,1.447,206.81,0.44,0,1
1.0258e+05,4.5227e+07,0,3,4.6892e+08,2230,15,0.77,43.601,13.482,86.43,1.309,209.45,-0.353,0,1
1.0345e+05,4.545e+07,0,3,4.6892e+08,2230,15,0.77,43.601,13.482,86.41,1.357,210.78,-0.021,0,1
1.0419e+05,4.5632e+07,0,3,4.6892e+08,2230,15,0.77,43.601,13.482,86.36,1.055,216.44,0.262,0,1
1.05e+05,4.5834e+07,0,3,4.6892e+08,2230,15,0.77,43.601,13.482,86.29,1.23,210.42,0.019,0,1
1.0578e+05,4.6038e+07,0,3,4.6892e+08,2230,15,0.77,43.601,13.482,86.21,0.8,209.07,0.15,0,1
1.0656e+05,4.6242e+07,0,3,4.6892e+08,2230,15,0.77,43.601,13.482,86.1,0.944,201.73,0.365,0,1
1.0738e+05,4.6444e+07,0,3,4.6892e+08,2230,15,0.77,43.601,13.482,86.06,0.802,204.41,0.15,0,1
1.081e+05,4.6625e+07,0,3,4.6892e+08,2230,15,0.77,43.601,13.482,85.93,0.41,206.39,0.308,0,1
1.0897e+05,4.6846e+07,0,3,4.6892e+08,2230,15,0.77,43.601,13.482,85.83,0.588,220.75,0.355,0,1
1.0976e+05,4.7049e+07,0,3,4.6892e+08,2230,15,0.77,43.601,13.482,85.82,0.632,231.09,0.056,0,1
1.1054e+05,4.7249e+07,0,3,4.6892e+08,2230,15,0.77,43.601,13.482,85.83,0.356,226.33,0.111,0,1
1.1127e+05,4.7431e+07,0,3,4.6892e+08,2230,15,0.77,43.601,13.482,85.8,0.169,226.33,-0.018,0,1
1.1208e+05,4.7634e+07,0,3,4.6892e+08,2230,15,0.77,43.601,13.482,85.79,0.247,226.33,0.095,0,1
1.1289e+05,4.7837e+07,0,3,4.6892e+08,2230,16,0.69,43.601,13.482,85.77,0.246,226.33,-0.137,0,1
1.1368e+05,4.804e+07,0,3,4.6892e+08,2230,15,0.77,43.601,13.482,85.77,0.261,194.43,-0.13,0,1
1.1449e+05,4.8242e+07,0,3,4.6892e+08,2230,15,0.77,43.601,13.482,85.75,0.244,194.43,0.055,0,1
1.153e+05,4.8446e+07,0,3,4.6892e+08,2230,15,0.77,43.601,13.482,85.72,0.086,194.43,-0.081,0,1
1.1587e+05,1.0783e+08,0,3,4.6898e+08,2230,15,0.77,43.601,13.482,83.08,0.009,288.04,0.032,0,1
1.1674e+05,1.0803e+08,0,3,4.6898e+08,2230,15,0.77,43.601,13.482,83.07,0.016,288.04,-0.085,0,1
1.1764e+05,1.0823e+08,0,3,4.6898e+08,2230,15,0.77,43.601,13.482,83.07,0.012,288.04,-0.029,0,1
1.185e+05,1.0844e+08,0,3,4.6898e+08,2230,15,0.77,43.601,13.482,83.07,0.011,288.04,0.005,0,1
1.194e+05,1.0864e+08,0,3,4.6898e+08,2230,15,0.77,43.601,13.482,83.06,0.033,288.04,0.019,0,1
1.2024e+05,1.0885e+08,0,3,4.6898e+08,2230,15,0.77,43.601,13.482,83.05,0.053,288.04,-0.042,0,1
1.2104e+05,1.0903e+08,0,3,4.6898e+08,2230,15,0.77,43.601,13.482,83.05,0.032,288.04,-0.048,0,1
1.2195e+05,1.0924e+08,0,3,4.6898e+08,2230,15,0.77,43.601,13.482,83.04,0.045,288.04,-0.093,0,1
1.2282e+05,1.0944e+08,0,3,4.6898e+08,2230,15,0.77,43.601,13.482,83.05,0.009,288.04,-0.017,0,1
1.2372e+05,1.0964e+08,0,3,4.6898e+08,2230,15,0.77,43.601,13.482,83.06,0.032,288.04,-0.126,0,1
1.2453e+05,1.0983e+08,0,3,4.6898e+08,2230,15,0.77,43.601,13.482,83.06,0.009,288.04,-0.058,0,1
1.2543e+05,1.1003e+08,0,3,4.6898e+08,2230,15,0.77,43.601,13.482,83.06,0.032,288.04,-0.005,0,1
1.264e+05,1.1026e+08,0,3,4.6898e+08,2230,15,0.77,43.601,13.482,83.04,0.041,288.04,-0.068,0,1
1.2721e+05,1.1044e+08,0,3,4.6898e+08,2230,15,0.77,43.601,13.482,83.05,0.026,288.04,-0.032,0,1
1.2811e+05,1.1065e+08,0,3,4.6898e+08,2230,15,0.77,43.601,13.482,83.04,0.023,288.04,0.009,0,1
1.2877e+05,1.1083e+08,0,3,4.6898e+08,2230,15,0.77,43.601,13.482,83.03,0.035,288.04,-0.051,0,1
1.2968e+05,1.1104e+08,0,3,4.6898e+08,2230,15,0.77,43.601,13.482,83.03,0.047,288.04,-0.047,0,1
1.3058e+05,1.1124e+08,0,3,4.6898e+08,2230,15,0.77,43.601,13.482,83.02,0.022,288.04,-0.073,0,1
1.3148e+05,1.1145e+08,0,3,4.6898e+08,2230,15,0.77,43.601,13.482,83.02,0.029,288.04,-0.048,0,1
1.3235e+05,1.1165e+08,0,3,4.6898e+08,2230,15,0.77,43.601,13.482,83.02,0.011,288.04,-0.028,0,1
1.3316e+05,1.1184e+08,0,3,4.6898e+08,2230,15,0.77,43.601,13.482,83.01,0.025,288.04,-0.03,0,1
1.3406e+05,1.1205e+08,0,3,4.6898e+08,2230,15,0.77,43.601,13.482,83,0.024,288.04,0,0,1
1.3484e+05,1.1223e+08,0,3,4.6898e+08,2230,15,0.77,43.601,13.482,83,0.025,288.04,-0.079,0,1
1.3574e+05,1.1244e+08,0,3,4.6898e+08,2230,15,0.77,43.601,13.482,82.99,0.034,288.04,-0.06,0,1
1.3665e+05,1.1264e+08,0,3,4.6898e+08,2230,16,0.69,43.601,13.482,83,0.009,288.04,0.006,0,1
1.3752e+05,1.1284e+08,0,3,4.6898e+08,2230,16,0.69,43.601,13.482,83.02,0.031,288.04,-0.024,0,1
1.3842e+05,1.1305e+08,0,3,4.6898e+08,2230,16,0.69,43.601,13.482,83.03,0.014,288.04,-0.017,0,1
1.3917e+05,1.1323e+08,0,3,4.6899e+08,2230,16,0.69,43.601,13.482,83.02,0.013,288.04,0.038,0,1
1.3999e+05,1.1344e+08,0,3,4.6899e+08,2230,16,0.69,43.601,13.482,83.04,0.014,288.04,0.003,0,1
1.4082e+05,1.1364e+08,0,3,4.6899e+08,2230,16,0.69,43.601,13.482,83.06,0.008,288.04,0.032,0,1
1.4164e+05,1.1384e+08,0,3,4.6899e+08,2230,16,0.69,43.601,13.482,83.07,0.033,288.04,0.101,0,1
1.4243e+05,1.1405e+08,0,3,4.6899e+08,2230,16,0.69,43.601,13.482,83.08,0.006,288.04,0.046,0,1
1.4326e+05,1.1425e+08,0,3,4.6899e+08,2230,16,0.69,43.601,13.482,83.09,0.047,288.04,0.031,0,1
1.44e+05,1.1443e+08,0,3,4.6899e+08,2230,16,0.69,43.601,13.482,83.1,0.048,288.04,0.006,0,1
1.4479e+05,1.1464e+08,0,3,4.6899e+08,2230,16,0.69,43.601,13.482,83.13,0.024,288.04,-0.024,0,1
1.4558e+05,1.1484e+08,0,3,4.6899e+08,2230,16,0.69,43.601,13.482,83.15,0.042,288.04,0.02,0,1
1.4641e+05,1.1505e+08,0,3,4.6899e+08,2230,16,0.69,43.601,13.482,83.16,0.011,288.04,-0.007,0,1
1.4715e+05,1.1523e+08,0,3,4.6899e+08,2230,16,0.69,43.601,13.482,83.17,0.036,288.04,0.04,0,1
1.4794e+05,1.1544e+08,0,3,4.6899e+08,2230,16,0.69,43.601,13.482,83.19,0.038,288.04,0,0,1
1.4877e+05,1.1564e+08,0,3,4.6899e+08,2230,16,0.69,43.601,13.482,83.21,0.004,288.04,-0.013,0,1
1.4959e+05,1.1585e+08,0,3,4.6899e+08,2230,16,0.69,43.601,13.482,83.22,0.025,288.04,-0.064,0,1
1.5031e+05,1.1603e+08,0,3,4.6899e+08,2230,16,0.69,43.601,13.482,83.25,0.025,288.04,-0.049,0,1
1.5113e+05,1.1624e+08,0,3,4.6899e+08,2230,16,0.69,43.601,13.482,83.28,0.025,288.04,-0.028,0,1
1.5195e+05,1.1645e+08,0,3,4.6899e+08,2230,16,0.69,43.601,13.482,83.29,0.05,288.04,-0.002,0,1
1.5269e+05,1.1664e+08,0,3,4.6899e+08,2230,16,0.69,43.601,13.482,83.32,0.039,288.04,-0.029,0,1
1.5349e+05,1.1684e+08,0,3,4.6899e+08,2230,16,0.69,43.601,13.482,83.34,0.014,288.04,-0.036,0,1
1.5432e+05,1.1705e+08,0,3,4.6899e+08,2230,16,0.69,43.601,13.482,83.35,0.016,288.04,-0.022,0,1
1.5505e+05,1.1723e+08,0,3,4.6899e+08,2230,15,0.77,43.601,13.482,83.35,0.057,288.04,0.023,0,1
1.5588e+05,1.1744e+08,0,3,4.6899e+08,2230,15,0.77,43.601,13.482,83.35,0.024,288.04,-0.053,0,1
1.5667e+05,1.1764e+08,0,3,4.6899e+08,2230,15,0.77,43.601,13.482,83.35,0.072,288.04,-0.042,0,1
1.575e+05,1.1785e+08,0,3,4.6899e+08,2230,15,0.77,43.601,13.482,83.36,0.035,288.04,-0.043,0,1
1.5821e+05,1.1803e+08,0,3,4.6899e+08,2230,15,0.77,43.601,13.482,83.36,0.07,288.04,-0.056,0,1
1.5903e+05,1.1824e+08,0,3,4.6899e+08,2230,15,0.77,43.601,13.482,83.35,0.035,288.04,-0.041,0,1
1.5986e+05,1.1844e+08,0,3,4.6899e+08,2230,15,0.77,43.601,13.482,83.35,0.012,288.04,-0.022,0,1
1.606e+05,1.1863e+08,0,3,4.6899e+08,2230,15,0.77,43.601,13.482,83.35,0.053,288.04,-0.01,0,1
1.6139e+05,1.1883e+08,0,3,4.6899e+08,2230,15,0.77,43.601,13.482,83.34,0.023,288.04,-0.011,0,1
1.6222e+05,1.1904e+08,0,3,4.6899e+08,2230,15,0.77,43.601,13.482,83.33,0.022,288.04,-0.008,0,1
1.6304e+05,1.1924e+08,0,3,4.6899e+08,2230,15,0.77,43.601,13.482,83.33,0.015,288.04,0.02,0,1
1.6386e+05,1.1945e+08,0,3,4.6899e+08,2230,15,0.77,43.601,13.482,83.33,0.046,288.04,-0.004,0,1
1.646e+05,1.1963e+08,0,3,4.6899e+08,2230,15,0.77,43.601,13.482,83.34,0.039,288.04,-0.065,0,1
1.6539e+05,1.1984e+08,0,3,4.6899e+08,2230,15,0.77,43.601,13.482,83.32,0.042,288.04,-0.05,0,1
1.6619e+05,1.2004e+08,0,3,4.6899e+08,2230,15,0.77,43.601,13.482,83.32,0.029,288.04,-0.038,0,1
1.6699e+05,1.2025e+08,0,3,4.6899e+08,2230,15,0.77,43.601,13.482,83.31,0.014,288.04,-0.059,0,1
1.6773e+05,1.2043e+08,0,3,4.6899e+08,2230,15,0.77,43.601,13.482,83.33,0.049,288.04,-0.005,0,1
1.6853e+05,1.2063e+08,0,3,4.6899e+08,2230,15,0.77,43.601,13.482,83.32,0.035,288.04,-0.044,0,1
1.6935e+05,1.2084e+08,0,3,4.6899e+08,2230,15,0.77,43.601,13.482,83.31,0.036,288.04,0.033,0,1
1.7014e+05,1.2104e+08,0,3,4.6899e+08,2230,15,0.77,43.601,13.482,83.3,0.039,288.04,0.001,0,1
1.7097e+05,1.2125e+08,0,3,4.6899e+08,2230,15,0.77,43.601,13.482,83.3,0.031,288.04,-0.057,0,1
1.7179e+05,1.2145e+08,0,3,4.6899e+08,2230,15,0.77,43.601,13.482,83.31,0.013,288.04,-0.029,0,1
1.7258e+05,1.2165e+08,0,3,4.6899e+08,2230,15,0.77,43.601,13.482,83.29,0.023,288.04,0.015,0,1
1.7332e+05,1.2184e+08,0,3,4.6899e+08,2230,15,0.77,43.601,13.482,83.28,0.055,288.04,-0.036,0,1
1.7414e+05,1.2204e+08,0,3,4.6899e+08,2230,16,0.69,43.601,13.482,83.31,0.009,288.04,0.002,0,1
1.7494e+05,1.2224e+08,0,3,4.6899e+08,2230,16,0.69,43.601,13.482,83.32,0.029,288.04,-0.006,0,1
1.7576e+05,1.2245e+08,0,3,4.6899e+08,2230,16,0.69,43.601,13.482,83.34,0.066,288.04,-0.005,0,1
1.765e+05,1.2263e+08,0,3,4.6899e+08,2230,16,0.69,43.601,13.482,83.35,0.01,288.04,0.022,0,1
1.7732e+05,1.2284e+08,0,3,4.6899e+08,2230,16,0.69,43.601,13.482,83.37,0.019,288.04,-0.073,0,1
1.7812e+05,1.2304e+08,0,3,4.69e+08,2230,16,0.69,43.601,13.482,83.39,0.016,288.04,-0.006,0,1
1.7894e+05,1.2324e+08,0,3,4.69e+08,2230,16,0.69,43.601,13.482,83.42,0.05,288.04,-0.005,0,1
1.7976e+05,1.2345e+08,0,3,4.69e+08,2230,16,0.69,43.601,13.482,83.44,0.043,288.04,-0.036,0,1
1.8059e+05,1.2365e+08,0,3,4.69e+08,2230,16,0.69,43.601,13.482,83.47,0.031,288.04,-0.022,0,1
1.8133e+05,1.2383e+08,0,3,4.69e+08,2230,16,0.69,43.601,13.482,83.49,0.05,288.04,-0.037,0,1
1.8213e+05,1.2404e+08,0,3,4.69e+08,2230,16,0.69,43.601,13.482,83.51,0.011,288.04,-0.024,0,1
1.8295e+05,1.2424e+08,0,3,4.69e+08,2230,16,0.69,43.601,13.482,83.53,0.023,288.04,-0.047,0,1
1.8377e+05,1.2445e+08,0,3,4.69e+08,2230,16,0.69,43.601,13.482,83.56,0.021,288.04,0.035,0,1
1.8451e+05,1.2463e+08,0,3,4.69e+08,2230,16,0.69,43.601,13.482,83.58,0.038,288.04,0.004,0,1
1.8533e+05,1.2484e+08,0,3,4.69e+08,2230,16,0.69,43.601,13.482,83.61,0.015,288.04,0.01,0,1
1.8616e+05,1.2504e+08,0,3,4.69e+08,2230,16,0.69,43.601,13.482,83.62,0.017,288.04,-0.08,0,1
1.8695e+05,1.2525e+08,0,3,4.69e+08,2230,16,0.69,43.601,13.482,83.64,0.033,288.04,-0.012,0,1
1.877e+05,1.2543e+08,0,3,4.69e+08,2230,16,0.69,43.601,13.482,83.66,0.023,288.04,0.025,0,1
1.885e+05,1.2564e+08,0,3,4.69e+08,2230,16,0.69,43.601,13.482,83.67,0.013,288.04,0.008,0,1
1.8932e+05,1.2584e+08,0,3,4.69e+08,2230,16,0.69,43.601,13.482,83.69,0.033,288.04,-0.056,0,1
1.9014e+05,1.2605e+08,0,3,4.69e+08,2230,16,0.69,43.601,13.482,83.71,0.041,288.04,0.045,0,1
1.9085e+05,1.2623e+08,0,3,4.69e+08,2230,16,0.69,43.601,13.482,83.73,0.032,288.04,0.002,0,1
1.9168e+05,1.2644e+08,0,3,4.69e+08,2230,16,0.69,43.601,13.482,83.74,0.025,288.04,-0.067,0,1
1.925e+05,1.2664e+08,0,3,4.69e+08,2230,16,0.69,43.601,13.482,83.76,0.016,288.04,-0.015,0,1
1.9324e+05,1.2683e+08,0,3,4.69e+08,2230,16,0.69,43.601,13.482,83.76,0.026,288.04,0.067,0,1
1.9402e+05,1.2705e+08,0,3,4.69e+08,2230,16,0.69,43.601,13.482,83.8,0.028,288.04,-0.056,0,1
1.9476e+05,1.2723e+08,0,3,4.69e+08,2230,16,0.69,43.601,13.482,83.81,0.032,288.04,-0.086,0,1
1.9559e+05,1.2744e+08,0,3,4.69e+08,2230,16,0.69,43.601,13.482,83.83,0.007,288.04,-0.04,0,1
1.9641e+05,1.2764e+08,0,3,4.69e+08,2230,16,0.69,43.601,13.482,83.84,0.034,288.04,-0.03,0,1
1.972e+05,1.2785e+08,0,3,4.69e+08,2230,16,0.69,43.601,13.482,83.85,0.046,288.04,-0.044,0,1
1.9795e+05,1.2804e+08,0,3,4.69e+08,2230,16,0.69,43.601,13.482,83.88,0.231,322.6,0.008,0,1
1.991e+05,1.7405e+08,0,3,4.6905e+08,2230,16,0.69,43.601,13.482,84.67,0.019,123.52,-0.076,0,1
1.9997e+05,1.7425e+08,0,3,4.6905e+08,2230,16,0.69,43.601,13.482,84.67,0.006,123.52,0.01,0,1
2.0078e+05,1.7443e+08,0,3,4.6905e+08,2230,16,0.69,43.601,13.482,84.66,0.024,123.52,-0.001,0,1
2.0165e+05,1.7463e+08,0,3,4.6905e+08,2230,16,0.69,43.601,13.482,84.64,0.016,123.52,-0.018,0,1
2.0256e+05,1.7484e+08,0,3,4.6905e+08,2230,16,0.69,43.601,13.482,84.63,0.03,123.52,0.003,0,1
2.0343e+05,1.7504e+08,0,3,4.6905e+08,2230,16,0.69,43.601,13.482,84.61,0.019,123.52,0.018,0,1
2.043e+05,1.7525e+08,0,3,4.6905e+08,2230,16,0.69,43.601,13.482,84.59,0.046,123.52,0.034,0,1
2.052e+05,1.7545e+08,0,3,4.6905e+08,2230,16,0.69,43.601,13.482,84.59,0.03,123.52,0.028,0,1
2.0601e+05,1.7564e+08,0,3,4.6905e+08,2230,16,0.69,43.601,13.482,84.56,0.008,123.52,0.036,0,1
2.0688e+05,1.7584e+08,0,3,4.6905e+08,2230,16,0.69,43.601,13.482,84.55,0.03,123.52,0.011,0,1
2.0778e+05,1.7604e+08,0,3,4.6905e+08,2230,16,0.69,43.601,13.482,84.53,0.063,123.52,0.033,0,1
2.0869e+05,1.7625e+08,0,3,4.6905e+08,2230,16,0.69,43.601,13.482,84.52,0.012,123.52,-0.001,0,1
2.0955e+05,1.7645e+08,0,3,4.6905e+08,2230,16,0.69,43.601,13.482,84.51,0.031,123.52,-0.005,0,1
2.103e+05,1.7665e+08,0,3,4.6905e+08,2230,16,0.69,43.601,13.482,84.49,0.018,123.52,-0.004,0,1
2.1109e+05,1.7684e+08,0,3,4.6905e+08,2230,16,0.69,43.601,13.482,84.48,0.013,123.52,-0.024,0,1
2.1199e+05,1.7704e+08,0,3,4.6905e+08,2230,16,0.69,43.601,13.482,84.47,0.005,123.52,-0.036,0,1
2.1289e+05,1.7724e+08,0,3,4.6905e+08,2230,16,0.69,43.601,13.482,84.46,0.041,123.52,0.008,0,1
2.1376e+05,1.7745e+08,0,3,4.6905e+08,2230,16,0.69,43.601,13.482,84.45,0.034,123.52,0.01,0,1
2.1467e+05,1.7765e+08,0,3,4.6905e+08,2230,16,0.69,43.601,13.482,84.45,0.02,123.52,0.047,0,1
2.1548e+05,1.7783e+08,0,3,4.6905e+08,2230,16,0.69,43.601,13.482,84.44,0.016,123.52,-0.054,0,1
2.1635e+05,1.7804e+08,0,3,4.6905e+08,2230,16,0.69,43.601,13.482,84.44,0.04,123.52,-0.036,0,1
2.1726e+05,1.7824e+08,0,3,4.6905e+08,2230,16,0.69,43.601,13.482,84.44,0.03,123.52,0.031,0,1
2.1816e+05,1.7845e+08,0,3,4.6905e+08,2230,16,0.69,43.601,13.482,84.43,0.071,123.52,-0.047,0,1
2.1903e+05,1.7865e+08,0,3,4.6905e+08,2230,16,0.69,43.601,13.482,84.42,0.027,123.52,-0.013,0,1
2.1984e+05,1.7884e+08,0,3,4.6905e+08,2230,16,0.69,43.601,13.482,84.42,0.009,123.52,-0.022,0,1
2.2074e+05,1.7904e+08,0,3,4.6905e+08,2230,16,0.69,43.601,13.482,84.42,0.023,123.52,-0.029,0,1
2.2164e+05,1.7925e+08,0,3,4.6905e+08,2230,16,0.69,43.601,13.482,84.41,0.005,123.52,-0.004,0,1
2.2251e+05,1.7945e+08,0,3,4.6905e+08,2230,16,0.69,43.601,13.482,84.41,0.036,123.52,-0.006,0,1
2.2331e+05,1.7964e+08,0,3,4.6905e+08,2230,16,0.69,43.601,13.482,84.4,0.03,123.52,-0.021,0,1
2.2418e+05,1.7984e+08,0,3,4.6905e+08,2230,16,0.69,43.601,13.482,84.4,0.03,123.52,-0.029,0,1
2.2509e+05,1.8005e+08,0,3,4.6905e+08,2230,16,0.69,43.601,13.482,84.41,0.014,123.52,0.033,0,1
2.2595e+05,1.8025e+08,0,3,4.6905e+08,2230,16,0.69,43.601,13.482,84.39,0.028,123.52,-0.044,0,1
2.2676e+05,1.8043e+08,0,3,4.6905e+08,2230,16,0.69,43.601,13.482,84.4,0.017,123.52,-0.029,0,1
2.2764e+05,1.8064e+08,0,3,4.6905e+08,2230,16,0.69,43.601,13.482,84.4,0.025,123.52,0.01,0,1
2.2851e+05,1.8084e+08,0,3,4.6905e+08,2230,16,0.69,43.601,13.482,84.39,0.037,123.52,-0.009,0,1
2.2941e+05,1.8105e+08,0,3,4.6905e+08,2230,16,0.69,43.601,13.482,84.38,0.019,123.52,-0.025,0,1
2.3019e+05,1.8124e+08,0,3,4.6905e+08,2230,16,0.69,43.601,13.482,84.38,0.011,123.52,0.049,0,1
2.311e+05,1.8145e+08,0,3,4.6905e+08,2230,16,0.69,43.601,13.482,84.35,0.01,123.52,-0.009,0,1
2.3187e+05,1.8164e+08,0,3,4.6905e+08,2230,16,0.69,43.601,13.482,84.35,0.048,123.52,0.029,0,1
2.3277e+05,1.8184e+08,0,3,4.6905e+08,2230,16,0.69,43.601,13.482,84.33,0.012,123.52,-0.029,0,1
2.3364e+05,1.8205e+08,0,3,4.6905e+08,2230,16,0.69,43.601,13.482,84.32,0.02,123.52,-0.006,0,1
2.3455e+05,1.8225e+08,0,3,4.6905e+08,2230,16,0.69,43.601,13.482,84.29,0.01,123.52,0.01,0,1
2.3536e+05,1.8244e+08,0,3,4.6905e+08,2230,16,0.69,43.601,13.482,84.27,0.014,123.52,0.032,0,1
2.3623e+05,1.8265e+08,0,3,4.6905e+08,2230,16,0.69,43.601,13.482,84.26,0.013,123.52,-0.014,0,1
2.3704e+05,1.8283e+08,0,3,4.6905e+08,2230,16,0.69,43.601,13.482,84.25,0.028,123.52,-0.006,0,1
2.3794e+05,1.8304e+08,0,3,4.6906e+08,2230,16,0.69,43.601,13.482,84.23,0.025,123.52,-0.043,0,1
2.3884e+05,1.8325e+08,0,3,4.6906e+08,2230,16,0.69,43.601,13.482,84.21,0.018,123.52,-0.075,0,1
2.3965e+05,1.8343e+08,0,3,4.6906e+08,2230,16,0.69,43.601,13.482,84.21,0.028,123.52,0.062,0,1
2.4052e+05,1.8364e+08,0,3,4.6906e+08,2230,16,0.69,43.601,13.482,84.19,0.021,123.52,0.008,0,1
2.4143e+05,1.8385e+08,0,3,4.6906e+08,2230,16,0.69,43.601,13.482,84.19,0.015,123.52,-0.059,0,1
2.4224e+05,1.8404e+08,0,3,4.6906e+08,2230,15,0.76,43.601,13.482,84.2,0.024,123.52,-0.008,0,1
2.4311e+05,1.8425e+08,0,3,4.6906e+08,2230,15,0.76,43.601,13.482,84.2,0.014,123.52,-0.025,0,1
2.4392e+05,1.8444e+08,0,3,4.6906e+08,2230,15,0.76,43.601,13.482,84.2,0.001,123.52,0.029,0,1
2.447e+05,1.8463e+08,0,3,4.6906e+08,2230,15,0.76,43.601,13.482,84.2,0.029,123.52,-0.029,0,1
2.456e+05,1.8484e+08,0,3,4.6906e+08,2230,15,0.76,43.601,13.482,84.21,0.025,123.52,0.008,0,1
2.465e+05,1.8505e+08,0,3,4.6906e+08,2230,15,0.76,43.601,13.482,84.2,0.016,123.52,-0.024,0,1
2.4732e+05,1.8524e+08,0,3,4.6906e+08,2230,15,0.76,43.601,13.482,84.21,0.024,123.52,-0.022,0,1
2.4819e+05,1.8545e+08,0,3,4.6906e+08,2230,15,0.76,43.601,13.482,84.22,0.03,123.52,0.048,0,1
2.49e+05,1.8564e+08,0,3,4.6906e+08,2230,15,0.76,43.601,13.482,84.22,0.019,123.52,-0.028,0,1
2.4978e+05,1.8583e+08,0,3,4.6906e+08,2230,15,0.76,43.601,13.482,84.22,0.014,123.52,-0.016,0,1
2.5068e+05,1.8604e+08,0,3,4.6906e+08,2230,15,0.76,43.601,13.482,84.23,0.011,123.52,-0.02,0,1
2.5155e+05,1.8625e+08,0,3,4.6906e+08,2230,15,0.76,43.601,13.482,84.23,0.022,123.52,0.106,0,1
2.5236e+05,1.8644e+08,0,3,4.6906e+08,2230,15,0.76,43.601,13.482,84.22,0.021,123.52,-0.042,0,1
2.5317e+05,1.8663e+08,0,3,4.6906e+08,2230,15,0.76,43.601,13.482,84.24,0.049,123.52,-0.02,0,1
2.5404e+05,1.8684e+08,0,3,4.6906e+08,2230,15,0.76,43.601,13.482,84.24,0.023,123.52,-0.017,0,1
2.5494e+05,1.8705e+08,0,3,4.6906e+08,2230,15,0.76,43.601,13.482,84.25,0.034,123.52,-0.011,0,1
2.5576e+05,1.8724e+08,0,3,4.6906e+08,2230,15,0.76,43.601,13.482,84.26,0.009,123.52,-0.06,0,1
2.5663e+05,1.8745e+08,0,3,4.6906e+08,2230,15,0.76,43.601,13.482,84.27,0.02,123.52,-0.102,0,1
2.5744e+05,1.8764e+08,0,3,4.6906e+08,2230,15,0.76,43.601,13.482,84.29,0.027,123.52,-0.025,0,1
2.5834e+05,1.8784e+08,0,3,4.6906e+08,2230,15,0.76,43.601,13.482,84.29,0.031,123.52,-0.055,0,1
2.5912e+05,1.8803e+08,0,3,4.6906e+08,2230,15,0.76,43.601,13.482,84.29,0.026,123.52,-0.04,0,1
2.6e+05,1.8823e+08,0,3,4.6906e+08,2230,15,0.76,43.601,13.482,84.29,0.018,123.52,-0.026,0,1
2.6086e+05,1.8844e+08,0,3,4.6906e+08,2230,15,0.76,43.601,13.482,84.28,0.056,123.52,0.047,0,1
2.6176e+05,1.8865e+08,0,3,4.6906e+08,2230,15,0.76,43.601,13.482,84.28,0.031,123.52,-0.003,0,1
2.6266e+05,1.8885e+08,0,3,4.6906e+08,2230,15,0.76,43.601,13.482,84.28,0.025,123.52,0.02,0,1
2.6344e+05,1.8904e+08,0,3,4.6906e+08,2230,15,0.76,43.601,13.482,84.27,0.024,123.52,0.011,0,1
2.6435e+05,1.8924e+08,0,3,4.6906e+08,2230,15,0.76,43.601,13.482,84.26,0.03,123.52,0.002,0,1
2.6525e+05,1.8945e+08,0,3,4.6906e+08,2230,15,0.76,43.601,13.482,84.26,0.058,123.52,-0.03,0,1
2.6603e+05,1.8964e+08,0,3,4.6906e+08,2230,15,0.76,43.601,13.482,84.26,0.023,123.52,0.022,0,1
2.6693e+05,1.8984e+08,0,3,4.6906e+08,2230,15,0.76,43.601,13.482,84.26,0.015,123.52,0.025,0,1
2.6783e+05,1.9005e+08,0,3,4.6906e+08,2230,15,0.76,43.601,13.482,84.26,0.035,123.52,0.014,0,1
2.6874e+05,1.9026e+08,0,3,4.6906e+08,2230,15,0.76,43.601,13.482,84.26,0.03,123.52,0.003,0,1
2.6933e+05,1.9044e+08,0,3,4.6906e+08,2230,15,0.76,43.601,13.482,84.25,0.005,123.52,-0.009,0,1
2.7023e+05,1.9065e+08,0,3,4.6906e+08,2230,15,0.76,43.601,13.482,84.24,0.017,123.52,-0.037,0,1
2.7101e+05,1.9084e+08,0,3,4.6906e+08,2230,15,0.76,43.601,13.482,84.25,0.029,123.52,0.042,0,1
2.7191e+05,1.9104e+08,0,3,4.6906e+08,2230,15,0.76,43.601,13.482,84.24,0.052,123.52,0.015,0,1
2.7282e+05,1.9125e+08,0,3,4.6906e+08,2230,15,0.76,43.601,13.482,84.24,0.025,123.52,-0.014,0,1
2.7363e+05,1.9144e+08,0,3,4.6906e+08,2230,15,0.76,43.601,13.482,84.24,0.02,123.52,-0.016,0,1
2.745e+05,1.9164e+08,0,3,4.6906e+08,2230,15,0.76,43.601,13.482,84.23,0.017,123.52,-0.025,0,1
2.7537e+05,1.9185e+08,0,3,4.6906e+08,2230,15,0.76,43.601,13.482,84.23,0.002,123.52,0.023,0,1
2.7627e+05,1.9205e+08,0,3,4.6906e+08,2230,15,0.76,43.601,13.482,84.22,0.028,123.52,-0.048,0,1
2.7704e+05,1.9224e+08,0,3,4.6906e+08,2230,15,0.76,43.601,13.482,84.22,0.003,123.52,-0.05,0,1
2.7794e+05,1.9245e+08,0,3,4.6906e+08,2230,15,0.76,43.601,13.482,84.22,0.024,123.52,-0.04,0,1
2.7875e+05,1.9264e+08,0,3,4.6906e+08,2230,15,0.76,43.601,13.482,84.23,0.036,123.52,-0.045,0,1
2.7962e+05,1.9285e+08,0,3,4.6906e+08,2230,15,0.76,43.601,13.482,84.23,0.019,123.52,-0.059,0,1
2.8043e+05,1.9304e+08,0,3,4.6906e+08,2230,15,0.76,43.601,13.482,84.26,0.071,123.52,-0.395,0,1
2.8121e+05,1.9323e+08,0,3,4.6907e+08,2230,15,0.76,43.601,13.482,84.38,0.121,123.52,-0.731,0,1
2.8212e+05,1.9344e+08,0,3,4.6907e+08,2230,15,0.76,43.601,13.482,84.55,0.112,123.52,-0.898,0,1
2.8292e+05,1.9364e+08,0,3,4.6907e+08,2230,15,0.76,43.601,13.482,84.67,0.078,123.52,-0.72,0,1
2.8382e+05,1.9385e+08,0,3,4.6907e+08,2230,16,0.69,43.601,13.482,84.82,0.253,109.12,-0.705,0,1
2.846e+05,1.9404e+08,0,3,4.6907e+08,2230,16,0.69,43.601,13.482,84.91,0.152,109.12,-0.624,0,1
2.855e+05,1.9425e+08,0,3,4.6907e+08,2230,16,0.69,43.601,13.482,85.05,0.077,109.12,-0.61,0,1
2.8628e+05,1.9444e+08,0,3,4.6907e+08,2230,16,0.69,43.601,13.482,85.14,0.189,135.49,-0.509,0,1
2.8709e+05,1.9464e+08,0,3,4.6907e+08,2230,16,0.69,43.601,13.482,85.26,0.235,62.876,-0.625,0,1
2.8787e+05,1.9483e+08,0,3,4.6907e+08,2230,16,0.69,43.601,13.482,85.4,0.107,62.876,-0.739,0,1
2.8877e+05,1.9504e+08,0,3,4.6907e+08,2230,16,0.69,43.601,13.482,85.56,0.124,62.876,-0.746,0,1
2.8954e+05,1.9523e+08,0,3,4.6907e+08,2230,16,0.69,43.601,13.482,85.76,0.079,62.876,-0.848,0,1
2.9045e+05,1.9545e+08,0,3,4.6907e+08,2230,16,0.69,43.601,13.482,85.94,0.036,62.876,-0.841,0,1
2.9126e+05,1.9564e+08,0,3,4.6907e+08,2230,16,0.69,43.601,13.482,86.16,0.156,62.876,-1.032,0,1
2.9207e+05,1.9583e+08,0,3,4.6907e+08,2230,16,0.69,43.601,13.482,86.28,0.299,354.76,-0.605,0,1
2.9297e+05,1.9605e+08,0,3,4.6907e+08,2230,16,0.69,43.601,13.482,86.47,0.306,338.51,-0.706,0,1
2.9377e+05,1.9624e+08,0,3,4.6907e+08,2230,16,0.69,43.601,13.482,86.6,0.049,338.51,-0.631,0,1
2.9464e+05,1.9645e+08,0,3,4.6907e+08,2230,16,0.69,43.601,13.482,86.7,0.125,338.51,-0.478,0,1
2.9545e+05,1.9664e+08,0,3,4.6907e+08,2230,16,0.69,43.601,13.482,86.82,0.299,333.1,-0.569,0,1
2.9626e+05,1.9684e+08,0,3,4.6907e+08,2230,16,0.69,43.601,13.482,86.93,0.037,333.1,-0.558,0,1
2.9705e+05,1.9703e+08,0,3,4.6907e+08,2230,16,0.69,43.601,13.482,87.01,0.101,333.1,-0.519,0,1
2.9785e+05,1.9723e+08,0,3,4.6907e+08,2230,16,0.69,43.601,13.482,87.13,0.179,4.4274,-0.569,0,1
2.9871e+05,1.9745e+08,0,3,4.6907e+08,2230,16,0.69,43.601,13.482,87.21,0.067,4.4274,-0.41,0,1
2.9952e+05,1.9765e+08,0,3,4.6907e+08,2230,16,0.69,43.601,13.482,87.28,0.101,4.4274,-0.39,0,1
3.0032e+05,1.9784e+08,0,3,4.6907e+08,2230,16,0.69,43.601,13.482,87.34,0.063,4.4274,-0.266,0,1
3.0112e+05,1.9804e+08,0,3,4.6907e+08,2230,16,0.69,43.601,13.482,87.39,0.14,4.4274,-0.301,0,1
3.0188e+05,1.9824e+08,0,3,4.6907e+08,2230,16,0.69,43.601,13.482,87.43,0.229,276.13,-0.179,0,1
3.0277e+05,1.9845e+08,0,3,4.6907e+08,2230,16,0.69,43.601,13.482,87.48,0.343,233.78,-0.287,0,1
3.0354e+05,1.9864e+08,0,3,4.6907e+08,2230,16,0.69,43.601,13.482,87.49,0.598,200.5,-0.114,0,1
3.0434e+05,1.9885e+08,0,3,4.6907e+08,2230,16,0.69,43.601,13.482,87.51,0.773,193.46,-0.146,0,1
3.0515e+05,1.9904e+08,0,3,4.6907e+08,2230,16,0.69,43.601,13.482,87.54,0.796,194.43,-0.157,0,1
3.0601e+05,1.9925e+08,0,3,4.6907e+08,2230,16,0.69,43.601,13.482,87.57,0.844,196.37,-0.229,0,1
3.0681e+05,1.9945e+08,0,3,4.6907e+08,2230,16,0.69,43.601,13.482,87.63,0.846,193.12,-0.29,0,1
3.0757e+05,1.9964e+08,0,3,4.6907e+08,2230,16,0.69,43.601,13.482,87.69,0.827,199.4,-0.188,0,1
3.0838e+05,1.9984e+08,0,3,4.6907e+08,2230,16,0.69,43.601,13.482,87.7,0.884,200.02,-0.236,0,1
3.0915e+05,2.0004e+08,0,3,4.6907e+08,2230,16,0.69,43.601,13.482,87.74,0.862,205.04,-0.253,0,1
3.1004e+05,2.0026e+08,0,3,4.6907e+08,2230,16,0.69,43.601,13.482,87.78,0.881,205.46,-0.29,0,1
3.1085e+05,2.0045e+08,0,3,4.6907e+08,2230,16,0.69,43.601,13.482,87.89,0.806,210.42,-0.372,0,1
3.1165e+05,2.0065e+08,0,3,4.6907e+08,2230,16,0.69,43.601,13.482,87.91,0.863,213.28,-0.176,0,1
3.1245e+05,2.0084e+08,0,3,4.6907e+08,2230,16,0.69,43.601,13.482,87.95,0.849,213.03,-0.243,0,1
3.1324e+05,2.0104e+08,0,3,4.6907e+08,2230,16,0.69,43.601,13.482,88.01,0.932,216.01,-0.234,0,1
3.1405e+05,2.0123e+08,0,3,4.6907e+08,2230,16,0.69,43.601,13.482,88.07,0.98,216.38,-0.332,0,1
3.1482e+05,2.0143e+08,0,3,4.6907e+08,2230,16,0.69,43.601,13.482,88.12,1.04,213.37,-0.335,0,1
3.157e+05,2.0165e+08,0,3,4.6907e+08,2230,15,0.76,43.601,13.482,88.18,1.03,210.19,-0.222,0,1
3.1651e+05,2.0184e+08,0,3,4.6907e+08,2230,16,0.69,43.601,13.482,88.25,0.949,210.95,-0.423,0,1
3.1731e+05,2.0204e+08,0,3,4.6907e+08,2230,15,0.76,43.601,13.482,88.27,0.84,211.16,-0.177,0,1
3.1807e+05,2.0223e+08,0,3,4.6907e+08,2230,16,0.69,43.601,13.482,88.3,0.74,203.82,-0.226,0,1
3.1896e+05,2.0245e+08,0,3,4.6907e+08,2230,16,0.69,43.601,13.482,88.38,0.751,203.66,-0.084,0,1
3.1973e+05,2.0264e+08,0,3,4.6907e+08,2230,15,0.76,43.601,13.482,88.34,0.737,203.58,0.118,0,1
3.2054e+05,2.0284e+08,0,3,4.6907e+08,2230,15,0.76,43.601,13.482,88.31,0.819,202.87,0.158,0,1
3.2134e+05,2.0304e+08,0,3,4.6908e+08,2230,15,0.76,43.601,13.482,88.28,0.706,205.05,0.126,0,1
3.2214e+05,2.0323e+08,0,3,4.6908e+08,2230,16,0.69,43.601,13.482,88.26,0.464,208.1,0.159,0,1
3.2304e+05,2.0345e+08,0,3,4.6908e+08,2230,15,0.72,43.601,13.482,88.27,0.563,211.96,-0.011,0,1
3.2384e+05,2.0365e+08,0,3,4.6908e+08,2230,15,0.76,43.601,13.482,88.25,0.563,208.34,0.066,0,1
3.2463e+05,2.0384e+08,0,3,4.6908e+08,2230,15,0.76,43.601,13.482,88.24,0.451,208.33,0.111,0,1
3.2544e+05,2.0404e+08,0,3,4.6908e+08,2230,15,0.76,43.601,13.482,88.21,0.548,215.89,0.024,0,1
3.2624e+05,2.0424e+08,0,3,4.6908e+08,2230,16,0.69,43.601,13.482,88.21,0.465,215.92,0.08,0,1
3.2705e+05,2.0444e+08,0,3,4.6908e+08,2230,15,0.76,43.601,13.482,88.19,0.568,231.78,0.139,0,1
3.2794e+05,2.0466e+08,0,3,4.6908e+08,2230,16,0.69,43.601,13.482,88.21,0.626,235.65,0.085,0,1
3.2875e+05,2.0485e+08,0,3,4.6908e+08,2230,16,0.69,43.601,13.482,88.23,0.561,242.32,-0.006,0,1
3.2951e+05,2.0505e+08,0,3,4.6908e+08,2230,15,0.76,43.601,13.482,88.21,0.593,250.21,0.017,0,1
3.3028e+05,2.0524e+08,0,3,4.6908e+08,2230,15,0.76,43.601,13.482,88.21,0.585,255.82,0.112,0,1
3.3142e+05,2.0565e+08,0,3,4.6908e+08,2230,16,0.69,43.601,13.482,88.22,0.515,263.3,-0.023,0,1
3.3222e+05,2.0584e+08,0,3,4.6908e+08,2230,16,0.69,43.601,13.482,88.22,0.519,259.2,0.034,0,1
3.3299e+05,2.0604e+08,0,3,4.6908e+08,2230,16,0.69,43.601,13.482,88.19,0.409,260.42,0.075,0,1
3.3384e+05,2.0625e+08,0,3,4.6908e+08,2230,15,0.76,43.601,13.482,88.15,0.53,269.52,0.013,0,1
3.3464e+05,2.0644e+08,0,3,4.6908e+08,2230,15,0.76,43.601,13.482,88.14,0.529,271.64,0.144,0,1
3.3541e+05,2.0664e+08,0,3,4.6908e+08,2230,15,0.76,43.601,13.482,88.09,0.623,275.95,0.091,0,1
3.3622e+05,2.0684e+08,0,3,4.6908e+08,2230,15,0.76,43.601,13.482,88.07,0.787,280.11,0.078,0,1
3.3702e+05,2.0703e+08,0,3,4.6908e+08,2230,15,0.76,43.601,13.482,88.06,0.893,279.9,0.015,0,1
3.3791e+05,2.0725e+08,0,3,4.6908e+08,2230,15,0.76,43.601,13.482,88.01,0.883,282.36,0.092,0,1
3.3868e+05,2.0744e+08,0,3,4.6908e+08,2230,16,0.69,43.601,13.482,88.02,1.083,285.03,0.066,0,1
3.3949e+05,2.0764e+08,0,3,4.6908e+08,2230,16,0.69,43.601,13.482,88.09,1.195,287.08,-0.124,0,1
3.4029e+05,2.0784e+08,0,3,4.6908e+08,2230,15,0.76,43.601,13.482,88.08,1.272,292.21,-0.069,0,1
3.4111e+05,2.0805e+08,0,3,4.6908e+08,2230,15,0.76,43.601,13.482,88.1,1.362,290.71,-0.014,0,1
3.4192e+05,2.0825e+08,0,3,4.6908e+08,2230,16,0.69,43.601,13.482,88.12,1.443,292.31,-0.07,0,1
3.4272e+05,2.0845e+08,0,3,4.6908e+08,2230,16,0.69,43.601,13.482,88.17,1.485,294.7,-0.13,0,1
3.4352e+05,2.0864e+08,0,3,4.6908e+08,2230,16,0.69,43.601,13.482,88.22,1.436,297.92,-0.097,0,1
3.4438e+05,2.0885e+08,0,3,4.6908e+08,2230,16,0.69,43.601,13.482,88.26,1.301,298.42,-0.022,0,1
3.4518e+05,2.0905e+08,0,3,4.6908e+08,2230,16,0.69,43.601,13.482,88.33,1.287,298.12,-0.077,0,1
3.4595e+05,2.0924e+08,0,3,4.6908e+08,2230,16,0.69,43.601,13.482,88.4,1.304,296.46,-0.168,0,1
3.4684e+05,2.0945e+08,0,3,4.6908e+08,2230,15,0.76,43.601,13.482,88.4,1.152,290.99,-0.075,0,1
3.476e+05,2.0965e+08,0,3,4.6908e+08,2230,15,0.76,43.601,13.482,88.41,1.064,286.21,-0.054,0,1
3.4838e+05,2.0984e+08,0,3,4.6908e+08,2230,15,0.76,43.601,13.482,88.41,0.857,278.06,-0.009,0,1
3.4918e+05,2.1003e+08,0,3,4.6908e+08,2230,15,0.76,43.601,13.482,88.39,0.763,271.14,0.021,0,1
3.5007e+05,2.1025e+08,0,3,4.6908e+08,2230,16,0.69,43.601,13.482,88.44,0.799,257.27,-0.009,0,1
3.5088e+05,2.1045e+08,0,3,4.6908e+08,2230,16,0.69,43.601,13.482,88.52,0.739,244.28,-0.048,0,1
3.5168e+05,2.1064e+08,0,3,4.6908e+08,2230,16,0.69,43.601,13.482,88.55,0.763,218.5,0.077,0,1
3.5245e+05,2.1084e+08,0,3,4.6908e+08,2230,16,0.69,43.601,13.482,88.57,0.894,191.86,0.186,0,1
3.5325e+05,2.1104e+08,0,3,4.6908e+08,2230,16,0.69,43.601,13.482,88.58,1.08,177.11,0.213,0,1
3.5414e+05,2.1125e+08,0,3,4.6908e+08,2230,16,0.69,43.601,13.482,88.6,1.005,164.21,0.137,0,1
3.5491e+05,2.1144e+08,0,3,4.6908e+08,2230,15,0.76,43.601,13.482,88.55,1.417,154.03,0.201,0,1
3.5572e+05,2.1164e+08,0,3,4.6908e+08,2230,15,0.76,43.601,13.482,88.48,1.389,140.6,0.133,0,1
3.5661e+05,2.1185e+08,0,3,4.6908e+08,2230,16,0.69,43.601,13.482,88.45,1.427,134.58,0.302,0,1
3.5741e+05,2.1205e+08,0,3,4.6908e+08,2230,16,0.69,43.601,13.482,88.46,1.405,124.01,0.084,0,1
3.5818e+05,2.1225e+08,0,3,4.6908e+08,2230,16,0.69,43.601,13.482,88.47,1.412,116.15,0.001,0,1
3.5898e+05,2.1244e+08,0,3,4.6908e+08,2230,15,0.76,43.601,13.482,88.4,1.422,106.23,0.179,0,1
3.5986e+05,2.1265e+08,0,3,4.6908e+08,2230,16,0.69,43.601,13.482,88.42,1.305,96.722,0.117,0,1
3.6064e+05,2.1285e+08,0,3,4.6908e+08,2230,16,0.69,43.601,13.482,88.43,1.153,86.24,0.123,0,1
3.6145e+05,2.1305e+08,0,3,4.6908e+08,2230,16,0.69,43.601,13.482,88.47,1.141,74.749,0.108,0,1
3.6226e+05,2.1325e+08,0,3,4.6909e+08,2230,16,0.69,43.601,13.482,88.44,0.994,62.893,0.08,0,1
3.6306e+05,2.1345e+08,0,3,4.6909e+08,2230,16,0.69,43.601,13.482,88.43,1.013,46.168,0.127,0,1
3.6383e+05,2.1364e+08,0,3,4.6909e+08,2230,16,0.69,43.601,13.482,88.43,1.125,26.832,0.036,0,1
3.6463e+05,2.1384e+08,0,3,4.6909e+08,2230,15,0.76,43.601,13.482,88.42,1.226,14.34,0.072,0,1
3.6552e+05,2.1405e+08,0,3,4.6909e+08,2230,16,0.69,43.601,13.482,88.39,1.331,6.0972,0.027,0,1
3.6633e+05,2.1425e+08,0,3,4.6909e+08,2230,15,0.76,43.601,13.482,88.39,1.553,0.05511,-0.126,0,1
3.671e+05,2.1444e+08,0,3,4.6909e+08,2230,15,0.76,43.601,13.482,88.4,1.638,358.82,0.029,0,1
3.679e+05,2.1464e+08,0,3,4.6909e+08,2230,15,0.76,43.601,13.482,88.45,1.518,358.27,-0.095,0,1
3.6879e+05,2.1485e+08,0,3,4.6909e+08,2230,16,0.69,43.601,13.482,88.47,1.488,359.1,-0.209,0,1
3.6959e+05,2.1504e+08,0,3,4.6909e+08,2230,16,0.69,43.601,13.482,88.51,1.392,359.21,-0.06,0,1
3.7039e+05,2.1524e+08,0,3,4.6909e+08,2230,16,0.69,43.601,13.482,88.54,1.365,0.03053,-0.086,0,1
3.7125e+05,2.1545e+08,0,3,4.6909e+08,2230,16,0.69,43.601,13.482,88.6,1.401,359.96,-0.108,0,1
3.7205e+05,2.1565e+08,0,3,4.6909e+08,2230,16,0.69,43.601,13.482,88.61,1.399,359.36,-0.059,0,1
3.7282e+05,2.1584e+08,0,3,4.6909e+08,2230,15,0.76,43.601,13.482,88.61,1.37,359.17,-0.165,0,1
3.7363e+05,2.1604e+08,0,3,4.6909e+08,2230,15,0.76,43.601,13.482,88.66,1.404,359.65,-0.266,0,1
3.7452e+05,2.1625e+08,0,3,4.6909e+08,2230,15,0.76,43.601,13.482,88.69,1.155,0.42561,-0.087,0,1
3.7532e+05,2.1645e+08,0,3,4.6909e+08,2230,15,0.76,43.601,13.482,88.71,1.189,1.3411,-0.275,0,1
3.7609e+05,2.1664e+08,0,3,4.6909e+08,2230,15,0.76,43.601,13.482,88.75,1.074,4.6716,-0.289,0,1
3.7698e+05,2.1686e+08,0,3,4.6909e+08,2230,16,0.69,43.601,13.482,88.79,0.955,9.2253,-0.091,0,1
3.7778e+05,2.1705e+08,0,3,4.6909e+08,2230,15,0.76,43.601,13.482,88.82,1.039,11.254,-0.286,0,1
3.7859e+05,2.1724e+08,0,3,4.6909e+08,2230,16,0.69,43.601,13.482,88.88,0.822,12.214,-0.146,0,1
3.7939e+05,2.1744e+08,0,3,4.6909e+08,2230,15,0.76,43.601,13.482,88.9,0.798,13.086,-0.339,0,1
3.8024e+05,2.1765e+08,0,3,4.6909e+08,2230,15,0.76,43.601,13.482,88.94,0.799,18.533,-0.16,0,1
3.8104e+05,2.1784e+08,0,3,4.6909e+08,2230,16,0.69,43.601,13.482,88.96,0.648,19.742,-0.128,0,1
3.8184e+05,2.1804e+08,0,3,4.6909e+08,2230,15,0.76,43.601,13.482,88.98,0.658,18.296,-0.221,0,1
3.8265e+05,2.1824e+08,0,3,4.6909e+08,2230,15,0.76,43.601,13.482,89,0.544,18.914,-0.013,0,1
3.8354e+05,2.1845e+08,0,3,4.6909e+08,2230,15,0.76,43.601,13.482,89,0.435,16.045,-0.079,0,1
3.8435e+05,2.1865e+08,0,3,4.6909e+08,2230,15,0.76,43.601,13.482,89.03,0.427,22.999,-0.14,0,1
3.8515e+05,2.1884e+08,0,3,4.6909e+08,2230,16,0.69,43.601,13.482,89.04,0.386,27.289,-0.14,0,1
3.8601e+05,2.1905e+08,0,3,4.6909e+08,2230,16,0.69,43.601,13.482,89.06,0.331,36.514,-0.018,0,1
3.8681e+05,2.1925e+08,0,3,4.6909e+08,2230,16,0.69,43.601,13.482,89.1,0.389,60.273,-0.016,0,1
3.8762e+05,2.1945e+08,0,3,4.6909e+08,2230,15,0.76,43.601,13.482,89.12,0.448,63.325,-0.134,0,1
3.8842e+05,2.1965e+08,0,3,4.6909e+08,2230,15,0.76,43.601,13.482,89.12,0.427,64.175,-0.19,0,1
3.8919e+05,2.1984e+08,0,3,4.6909e+08,2230,16,0.69,43.601,13.482,89.14,0.531,68.926,0.004,0,1
3.9008e+05,2.2006e+08,0,3,4.6909e+08,2230,16,0.69,43.601,13.482,89.18,0.461,72.934,-0.091,0,1
3.9088e+05,2.2025e+08,0,3,4.6909e+08,2230,16,0.69,43.601,13.482,89.2,0.434,73.433,-0.028,0,1
3.9168e+05,2.2045e+08,0,3,4.6909e+08,2230,16,0.69,43.601,13.482,89.18,0.529,76.055,0.017,0,1
3.9245e+05,2.2064e+08,0,3,4.6909e+08,2230,16,0.69,43.601,13.482,89.15,0.57,76.149,0.169,0,1
3.9325e+05,2.2083e+08,0,3,4.6909e+08,2230,16,0.69,43.601,13.482,89.11,0.634,81.299,0.136,0,1
3.9411e+05,2.2105e+08,0,3,4.6909e+08,2230,16,0.69,43.601,13.482,89.09,0.774,86.073,0.205,0,1
3.9491e+05,2.2125e+08,0,3,4.6909e+08,2230,16,0.69,43.601,13.482,89.05,0.749,85.869,0.179,0,1
3.9572e+05,2.2144e+08,0,3,4.6909e+08,2230,16,0.69,43.601,13.482,89.04,0.747,85.293,0.165,0,1
3.9649e+05,2.2164e+08,0,3,4.6909e+08,2230,16,0.69,43.601,13.482,89,0.766,86.149,0.093,0,1
3.9738e+05,2.2185e+08,0,3,4.6909e+08,2230,16,0.69,43.601,13.482,88.97,0.737,85.121,0.102,0,1
3.9809e+05,2.2203e+08,0,3,4.6909e+08,2230,16,0.69,43.601,13.482,88.94,0.691,84.826,0.237,0,1
3.9898e+05,2.2225e+08,0,3,4.6909e+08,2230,16,0.69,43.601,13.482,88.88,0.69,90.757,0.164,0,1
4.0021e+05,2.2266e+08,0,3,4.6909e+08,2230,16,0.69,43.601,13.482,88.84,0.586,92.162,0.05,0,1
4.0101e+05,2.2285e+08,0,3,4.6909e+08,2230,16,0.69,43.601,13.482,88.81,0.59,96.324,-0.007,0,1
4.0178e+05,2.2304e+08,0,3,4.691e+08,2230,16,0.69,43.601,13.482,88.78,0.581,98.6,0.021,0,1
4.0259e+05,2.2324e+08,0,3,4.691e+08,2230,16,0.69,43.601,13.482,88.79,0.579,104.43,0.067,0,1
4.0339e+05,2.2344e+08,0,3,4.691e+08,2230,16,0.69,43.601,13.482,88.77,0.577,109.84,0.099,0,1
4.0428e+05,2.2365e+08,0,3,4.691e+08,2230,16,0.69,43.601,13.482,88.75,0.676,116.75,0.002,0,1
4.0508e+05,2.2385e+08,0,3,4.691e+08,2230,16,0.69,43.601,13.482,88.75,0.723,114.81,0.023,0,1
4.0588e+05,2.2405e+08,0,3,4.691e+08,2230,16,0.69,43.601,13.482,88.74,0.583,114.81,0.041,0,1
4.0669e+05,2.2424e+08,0,3,4.691e+08,2230,16,0.69,43.601,13.482,88.74,0.602,114.49,-0.024,0,1
4.0758e+05,2.2445e+08,0,3,4.691e+08,2230,16,0.69,43.601,13.482,88.75,0.659,115.15,-0.032,0,1
4.0836e+05,2.2465e+08,0,3,4.691e+08,2230,16,0.69,43.601,13.482,88.72,0.716,115.55,0.051,0,1
4.0915e+05,2.2484e+08,0,3,4.691e+08,2230,16,0.69,43.601,13.482,88.71,0.611,115.19,0.038,0,1
4.1001e+05,2.2505e+08,0,3,4.691e+08,2230,16,0.69,43.601,13.482,88.71,0.626,117.38,0.015,0,1
4.1077e+05,2.2525e+08,0,3,4.691e+08,2230,16,0.69,43.601,13.482,88.71,0.603,116.23,0.013,0,1
4.1157e+05,2.2544e+08,0,3,4.691e+08,2230,16,0.69,43.601,13.482,88.7,0.6,114.51,-0.046,0,1
4.1243e+05,2.2565e+08,0,3,4.691e+08,2230,16,0.69,43.601,13.482,88.71,0.54,116,0.016,0,1
4.132e+05,2.2584e+08,0,3,4.691e+08,2230,16,0.69,43.601,13.482,88.68,0.46,118.16,0.04,0,1
4.1401e+05,2.2604e+08,0,3,4.691e+08,2230,15,0.76,43.601,13.482,88.66,0.562,121.49,0.094,0,1
4.1481e+05,2.2624e+08,0,3,4.691e+08,2230,15,0.76,43.601,13.482,88.63,0.521,119.09,0.107,0,1
4.1562e+05,2.2644e+08,0,3,4.691e+08,2230,16,0.69,43.601,13.482,88.61,0.433,119.46,0.122,0,1
4.1639e+05,2.2664e+08,0,3,4.691e+08,2230,16,0.69,43.601,13.482,88.6,0.355,124.27,0.081,0,1
4.1728e+05,2.2685e+08,0,3,4.691e+08,2230,16,0.69,43.601,13.482,88.58,0.117,124.27,0.072,0,1
4.1805e+05,2.2705e+08,0,3,4.691e+08,2230,16,0.69,43.601,13.482,88.56,0.115,124.27,-0.008,0,1
4.1886e+05,2.2724e+08,0,3,4.691e+08,2230,16,0.69,43.601,13.482,88.56,0.287,118.75,-0.061,0,1
4.1966e+05,2.2743e+08,0,3,4.691e+08,2230,16,0.69,43.601,13.482,88.56,0.239,114.5,-0.179,0,1
4.2055e+05,2.2764e+08,0,3,4.691e+08,2230,16,0.69,43.601,13.482,88.57,0.435,101.77,-0.085,0,1
4.2132e+05,2.2784e+08,0,3,4.691e+08,2230,16,0.69,43.601,13.482,88.54,0.476,95.664,0.076,0,1
4.2221e+05,2.2805e+08,0,3,4.691e+08,2230,16,0.69,43.601,13.482,88.5,0.506,96.497,0.165,0,1
4.2297e+05,2.2824e+08,0,3,4.691e+08,2230,16,0.69,43.601,13.482,88.48,0.515,95.096,-0.016,0,1
4.2376e+05,2.2844e+08,0,3,4.691e+08,2230,16,0.69,43.601,13.482,88.45,0.512,99.272,0.075,0,1
4.2462e+05,2.2865e+08,0,3,4.691e+08,2230,16,0.69,43.601,13.482,88.45,0.439,91.011,0.008,0,1
4.2539e+05,2.2884e+08,0,3,4.691e+08,2230,16,0.69,43.601,13.482,88.41,0.306,84.949,0.011,0,1
4.2596e+05,2.2904e+08,0,3,4.691e+08,2230,16,0.69,43.601,13.482,88.41,0.243,75.632,0.05,0,1
4.2685e+05,2.2925e+08,0,3,4.691e+08,2230,16,0.69,43.601,13.482,88.38,0.172,75.632,0.01,0,1
4.2765e+05,2.2945e+08,0,3,4.691e+08,2230,16,0.69,43.601,13.482,88.36,0.102,75.632,0.041,0,1
4.2845e+05,2.2965e+08,0,3,4.691e+08,2230,16,0.69,43.601,13.482,88.33,0.033,75.632,0.148,0,1
4.2922e+05,2.2984e+08,0,3,4.691e+08,2230,16,0.69,43.601,13.482,88.29,0.022,75.632,0.125,0,1
4.3011e+05,2.3005e+08,0,3,4.691e+08,2230,16,0.69,43.601,13.482,88.27,0.064,75.632,0.11,0,1
4.3088e+05,2.3024e+08,0,3,4.691e+08,2230,16,0.69,43.601,13.482,88.22,0.016,75.632,0.134,0,1
4.3168e+05,2.3044e+08,0,3,4.691e+08,2230,16,0.69,43.601,13.482,88.19,0.038,75.632,0.054,0,1
4.3254e+05,2.3065e+08,0,3,4.691e+08,2230,16,0.69,43.601,13.482,88.15,0.059,75.632,0.125,0,1
4.3334e+05,2.3085e+08,0,3,4.691e+08,2230,16,0.69,43.601,13.482,88.12,0.096,75.632,0.14,0,1
4.3414e+05,2.3104e+08,0,3,4.691e+08,2230,16,0.69,43.601,13.482,88.08,0.173,122.28,0.105,0,1
4.3494e+05,2.3124e+08,0,3,4.691e+08,2230,16,0.69,43.601,13.482,88.06,0.31,166.91,0.036,0,1
4.357e+05,2.3144e+08,0,3,4.691e+08,2230,16,0.69,43.601,13.482,88.02,0.368,177.62,0.044,0,1
4.3651e+05,2.3163e+08,0,3,4.691e+08,2230,16,0.69,43.601,13.482,88.02,0.543,184.13,-0.074,0,1
4.3736e+05,2.3185e+08,0,3,4.691e+08,2230,16,0.69,43.601,13.482,88.02,0.542,181.47,-0.049,0,1
4.3817e+05,2.3205e+08,0,3,4.691e+08,2230,16,0.69,43.601,13.482,88.03,0.543,174.75,-0.223,0,1
4.3897e+05,2.3225e+08,0,3,4.691e+08,2230,16,0.69,43.601,13.482,88.05,0.476,169.13,-0.123,0,1
4.3977e+05,2.3244e+08,0,3,4.691e+08,2230,16,0.69,43.601,13.482,88.06,0.454,156.71,-0.115,0,1
4.4062e+05,2.3265e+08,0,3,4.691e+08,2230,16,0.69,43.601,13.482,88.06,0.496,152.78,-0.035,0,1
4.4141e+05,2.3285e+08,0,3,4.691e+08,2230,16,0.69,43.601,13.482,88.05,0.392,148.93,-0.089,0,1
4.4218e+05,2.3304e+08,0,3,4.691e+08,2230,16,0.69,43.601,13.482,88.1,0.361,148.29,-0.161,0,1
4.4307e+05,2.3326e+08,0,3,4.6911e+08,2230,16,0.69,43.601,13.482,88.11,0.439,140.65,-0.133,0,1
4.4384e+05,2.3345e+08,0,3,4.6911e+08,2230,16,0.69,43.601,13.482,88.12,0.633,136.85,-0.176,0,1
4.4464e+05,2.3364e+08,0,3,4.6911e+08,2230,16,0.69,43.601,13.482,88.15,0.744,137.12,-0.096,0,1
4.454e+05,2.3383e+08,0,3,4.6911e+08,2230,16,0.69,43.601,13.482,88.18,0.834,133.27,-0.199,0,1
4.4629e+05,2.3405e+08,0,3,4.6911e+08,2230,16,0.69,43.601,13.482,88.19,0.744,132.88,-0.133,0,1
4.4701e+05,2.3423e+08,0,3,4.6911e+08,2230,16,0.69,43.601,13.482,88.24,0.884,134.64,-0.009,0,1
4.479e+05,2.3445e+08,0,3,4.6911e+08,2230,16,0.69,43.601,13.482,88.22,0.837,141.03,-0.088,0,1
4.487e+05,2.3464e+08,0,3,4.6911e+08,2230,16,0.69,43.601,13.482,88.23,1.049,150.09,-0.032,0,1
4.4959e+05,2.3485e+08,0,3,4.6911e+08,2230,16,0.69,43.601,13.482,88.23,0.967,158.23,-0.05,0,1
4.504e+05,2.3505e+08,0,3,4.6911e+08,2230,16,0.69,43.601,13.482,88.23,0.991,163.75,-0.031,0,1
4.5116e+05,2.3524e+08,0,3,4.6911e+08,2230,16,0.69,43.601,13.482,88.21,1.112,167.24,0.05,0,1
4.5193e+05,2.3544e+08,0,3,4.6911e+08,2230,16,0.69,43.601,13.482,88.18,1.112,168.65,0.122,0,1
4.5271e+05,2.3563e+08,0,3,4.6911e+08,2230,16,0.69,43.601,13.482,88.15,1.179,174.59,0.161,0,1
4.5359e+05,2.3585e+08,0,3,4.6911e+08,2230,16,0.69,43.601,13.482,88.08,1.218,174.61,0.251,0,1
4.544e+05,2.3604e+08,0,3,4.6911e+08,2230,16,0.69,43.601,13.482,88.02,1.219,174.83,0.295,0,1
4.5529e+05,2.3625e+08,0,3,4.6911e+08,2230,16,0.69,43.601,13.482,87.92,1.323,177.46,0.421,0,1
4.5605e+05,2.3644e+08,0,3,4.6911e+08,2230,16,0.69,43.601,13.482,87.86,1.285,179.72,0.424,0,1
4.5685e+05,2.3664e+08,0,3,4.6911e+08,2230,16,0.69,43.601,13.482,87.8,1.278,178.58,0.252,0,1
4.5774e+05,2.3686e+08,0,3,4.6911e+08,2230,16,0.69,43.601,13.482,87.71,1.189,181.73,0.388,0,1
4.5853e+05,2.3705e+08,0,3,4.6911e+08,2230,16,0.69,43.601,13.482,87.68,1.189,181.99,0.137,0,1
4.5934e+05,2.3724e+08,0,3,4.6911e+08,2230,16,0.69,43.601,13.482,87.62,1.099,180.48,0.228,0,1
4.6014e+05,2.3744e+08,0,3,4.6911e+08,2230,16,0.69,43.601,13.482,87.57,1.154,183.89,0.165,0,1
4.6103e+05,2.3765e+08,0,3,4.6911e+08,2230,16,0.69,43.601,13.482,87.53,0.874,186.33,0.219,0,1
4.6183e+05,2.3785e+08,0,3,4.6911e+08,2230,16,0.69,43.601,13.482,87.48,0.889,187.2,0.05,0,1
4.626e+05,2.3804e+08,0,3,4.6911e+08,2230,16,0.69,43.601,13.482,87.43,0.656,188.21,0.072,0,1
4.6339e+05,2.3824e+08,0,3,4.6911e+08,2230,16,0.69,43.601,13.482,87.43,0.476,188.12,-0.176,0,1
4.6419e+05,2.3844e+08,0,3,4.6911e+08,2230,16,0.69,43.601,13.482,87.46,0.521,197.47,-0.119,0,1
4.65e+05,2.3864e+08,0,3,4.6911e+08,2230,16,0.69,43.601,13.482,87.47,0.507,190.58,-0.127,0,1
4.6586e+05,2.3886e+08,0,3,4.6911e+08,2230,16,0.69,43.601,13.482,87.47,0.45,186.64,-0.204,0,1
4.6666e+05,2.3905e+08,0,3,4.6911e+08,2230,16,0.69,43.601,13.482,87.49,0.409,183.83,-0.174,0,1
4.6745e+05,2.3924e+08,0,3,4.6911e+08,2230,16,0.69,43.601,13.482,87.51,0.49,176.89,-0.161,0,1
4.6831e+05,2.3946e+08,0,3,4.6911e+08,2230,16,0.69,43.601,13.482,87.57,0.291,181.01,-0.266,0,1
4.691e+05,2.3965e+08,0,3,4.6911e+08,2230,16,0.69,43.601,13.482,87.6,0.208,183.37,-0.221,0,1
4.699e+05,2.3985e+08,0,3,4.6911e+08,2230,16,0.69,43.601,13.482,87.63,0.164,178.38,-0.263,0,1
4.7068e+05,2.4005e+08,0,3,4.6911e+08,2230,16,0.69,43.601,13.482,87.68,0.089,178.38,-0.242,0,1
4.7157e+05,2.4027e+08,0,3,4.6911e+08,2230,16,0.69,43.601,13.482,87.74,0.028,178.38,-0.251,0,1
4.7229e+05,2.4044e+08,0,3,4.6911e+08,2230,16,0.69,43.601,13.482,87.77,0.051,178.38,-0.32,0,1
4.7309e+05,2.4064e+08,0,3,4.6911e+08,2230,16,0.69,43.601,13.482,87.78,0.037,178.38,-0.115,0,1
4.7398e+05,2.4085e+08,0,3,4.6911e+08,2230,16,0.69,43.601,13.482,87.81,0.05,178.38,-0.167,0,1
4.7475e+05,2.4105e+08,0,3,4.6911e+08,2230,16,0.69,43.601,13.482,87.82,0.06,178.38,-0.095,0,1
4.7552e+05,2.4125e+08,0,3,4.6911e+08,2230,16,0.69,43.601,13.482,87.84,0.007,178.38,-0.112,0,1
4.7632e+05,2.4144e+08,0,3,4.6911e+08,2230,16,0.69,43.601,13.482,87.85,0.068,178.38,-0.052,0,1
4.7721e+05,2.4165e+08,0,3,4.6911e+08,2230,16,0.69,43.601,13.482,87.84,0.22,239.82,-0.011,0,1
4.7798e+05,2.4185e+08,0,3,4.6911e+08,2230,16,0.69,43.601,13.482,87.83,0.383,282.56,-0.101,0,1
4.7878e+05,2.4204e+08,0,3,4.6911e+08,2230,16,0.69,43.601,13.482,87.82,0.527,282.48,0.119,0,1
4.7954e+05,2.4224e+08,0,3,4.6911e+08,2230,16,0.69,43.601,13.482,87.79,0.84,286.3,0.091,0,1
4.8035e+05,2.4243e+08,0,3,4.6911e+08,2230,16,0.69,43.601,13.482,87.78,1.021,287.47,-0.019,0,1
4.8124e+05,2.4265e+08,0,3,4.6911e+08,2230,16,0.69,43.601,13.482,87.78,1.257,285.33,-0.001,0,1
4.8204e+05,2.4285e+08,0,3,4.6911e+08,2230,16,0.69,43.601,13.482,87.74,1.273,287.89,0.034,0,1
4.8281e+05,2.4304e+08,0,3,4.6912e+08,2230,16,0.69,43.601,13.482,87.74,1.379,288.97,0.04,0,1
4.837e+05,2.4325e+08,0,3,4.6912e+08,2230,16,0.69,43.601,13.482,87.73,1.43,289.14,-0.064,0,1
4.845e+05,2.4345e+08,0,3,4.6912e+08,2230,16,0.69,43.601,13.482,87.75,1.618,290.24,-0.004,0,1
4.8529e+05,2.4364e+08,0,3,4.6912e+08,2230,16,0.69,43.601,13.482,87.75,1.581,290.98,-0.088,0,1
4.8609e+05,2.4384e+08,0,3,4.6912e+08,2230,16,0.69,43.601,13.482,87.74,1.665,289.45,-0.079,0,1
4.8695e+05,2.4405e+08,0,3,4.6912e+08,2230,16,0.69,43.601,13.482,87.74,1.719,287.91,-0.053,0,1
4.8772e+05,2.4425e+08,0,3,4.6912e+08,2230,16,0.69,43.601,13.482,87.75,1.874,285.3,0.073,0,1
4.8853e+05,2.4444e+08,0,3,4.6912e+08,2230,16,0.69,43.601,13.482,87.75,1.914,283.98,0.023,0,1
4.8932e+05,2.4464e+08,0,3,4.6912e+08,2230,15,0.76,43.601,13.482,87.7,1.898,282.93,0.002,0,1
4.9013e+05,2.4484e+08,0,3,4.6912e+08,2230,15,0.76,43.601,13.482,87.69,2.041,285.23,-0.057,0,1
4.9094e+05,2.4504e+08,0,3,4.6912e+08,2230,15,0.76,43.601,13.482,87.67,2.173,286.4,0.056,0,1
4.9174e+05,2.4523e+08,0,3,4.6912e+08,2230,15,0.76,43.601,13.482,87.66,2.117,287.77,-0.028,0,1
4.9263e+05,2.4545e+08,0,3,4.6912e+08,2230,15,0.76,43.601,13.482,87.66,2.135,287.11,-0.094,0,1
4.9339e+05,2.4564e+08,0,3,4.6912e+08,2230,15,0.76,43.601,13.482,87.65,1.748,286.65,-0.005,0,1
4.942e+05,2.4584e+08,0,3,4.6912e+08,2230,15,0.76,43.601,13.482,87.65,1.738,287,-0.128,0,1
4.951e+05,2.4606e+08,0,3,4.6912e+08,2230,16,0.69,43.601,13.482,87.67,1.402,286.52,0.026,0,1
4.959e+05,2.4625e+08,0,3,4.6912e+08,2230,16,0.69,43.601,13.482,87.71,1.033,287.45,-0.065,0,1
4.9662e+05,2.4644e+08,0,3,4.6912e+08,2230,16,0.69,43.601,13.482,87.75,0.788,285.02,-0.082,0,1
4.9752e+05,2.4665e+08,0,3,4.6912e+08,2230,16,0.69,43.601,13.482,87.75,0.839,289.64,-0.03,0,1
4.9831e+05,2.4685e+08,0,3,4.6912e+08,2230,16,0.69,43.601,13.482,87.8,0.573,294.52,-0.126,0,1
4.9908e+05,2.4704e+08,0,3,4.6912e+08,2230,16,0.69,43.601,13.482,87.85,0.673,291.73,0.072,0,1
4.9997e+05,2.4726e+08,0,3,4.6912e+08,2230,16,0.69,43.601,13.482,87.87,0.716,291.11,0.046,0,1
5.0074e+05,2.4745e+08,0,3,4.6912e+08,2230,16,0.69,43.601,13.482,87.88,0.648,291.97,0.057,0,1
5.0154e+05,2.4764e+08,0,3,4.6912e+08,2230,16,0.69,43.601,13.482,87.89,0.508,294.83,0.152,0,1
5.0234e+05,2.4784e+08,0,3,4.6912e+08,2230,16,0.69,43.601,13.482,87.88,0.455,291.42,0.226,0,1
5.0313e+05,2.4804e+08,0,3,4.6912e+08,2230,16,0.69,43.601,13.482,87.84,0.204,289.16,0.143,0,1
5.0402e+05,2.4826e+08,0,3,4.6912e+08,2230,16,0.69,43.601,13.482,87.8,0.067,289.16,0.132,0,1
5.0482e+05,2.4845e+08,0,3,4.6912e+08,2230,16,0.69,43.601,13.482,87.78,0.099,289.16,0.248,0,1
5.0559e+05,2.4864e+08,0,3,4.6912e+08,2230,16,0.69,43.601,13.482,87.77,0.352,148.65,0.091,0,1
5.0639e+05,2.4884e+08,0,3,4.6912e+08,2230,16,0.69,43.601,13.482,87.73,0.548,124.81,0.124,0,1
5.0725e+05,2.4905e+08,0,3,4.6912e+08,2230,16,0.69,43.601,13.482,87.76,0.823,124.95,0.232,0,1
5.0805e+05,2.4925e+08,0,3,4.6912e+08,2230,15,0.76,43.601,13.482,87.67,0.979,120.69,0.14,0,1
5.0882e+05,2.4944e+08,0,3,4.6912e+08,2230,16,0.69,43.601,13.482,87.64,0.888,117.87,0.232,0,1
5.0958e+05,2.4964e+08,0,3,4.6912e+08,2230,16,0.69,43.601,13.482,87.65,0.906,118.25,0.118,0,1
5.1046e+05,2.4985e+08,0,3,4.6912e+08,2230,16,0.69,43.601,13.482,87.66,0.83,112.64,0.031,0,1
5.1123e+05,2.5005e+08,0,3,4.6912e+08,2230,16,0.69,43.601,13.482,87.66,0.738,111.63,0.067,0,1
5.1212e+05,2.5027e+08,0,3,4.6912e+08,2230,16,0.69,43.601,13.482,87.63,0.777,105.66,0.079,0,1
5.1284e+05,2.5044e+08,0,3,4.6912e+08,2230,16,0.69,43.601,13.482,87.63,0.751,99.877,0.081,0,1
5.136e+05,2.5063e+08,0,3,4.6912e+08,2230,16,0.69,43.601,13.482,87.63,0.76,92.085,0.026,0,1
5.1449e+05,2.5085e+08,0,3,4.6912e+08,2230,16,0.69,43.601,13.482,87.64,0.706,84.624,0.105,0,1
5.1526e+05,2.5104e+08,0,3,4.6912e+08,2230,16,0.69,43.601,13.482,87.64,0.752,78.089,0.024,0,1
5.1611e+05,2.5126e+08,0,3,4.6912e+08,2230,16,0.69,43.601,13.482,87.67,0.744,74.894,0.001,0,1
5.1691e+05,2.5145e+08,0,3,4.6912e+08,2230,16,0.69,43.601,13.482,87.69,0.798,72.019,-0.05,0,1
5.1767e+05,2.5164e+08,0,3,4.6912e+08,2230,16,0.69,43.601,13.482,87.67,0.738,71.362,-0.046,0,1
5.1848e+05,2.5184e+08,0,3,4.6912e+08,2230,16,0.69,43.601,13.482,87.71,0.732,67.789,-0.072,0,1
5.1928e+05,2.5203e+08,0,3,4.6912e+08,2230,16,0.69,43.601,13.482,87.74,0.7,66.735,-0.132,0,1
5.2016e+05,2.5225e+08,0,3,4.6912e+08,2230,15,0.76,43.601,13.482,87.75,0.717,64.045,-0.169,0,1
5.2096e+05,2.5245e+08,0,3,4.6912e+08,2230,15,0.76,43.601,13.482,87.77,0.706,63.873,-0.168,0,1
5.2173e+05,2.5264e+08,0,3,4.6912e+08,2230,16,0.69,43.601,13.482,87.81,0.521,63.462,-0.209,0,1
5.2262e+05,2.5285e+08,0,3,4.6912e+08,2230,16,0.69,43.601,13.482,87.9,0.556,64.601,-0.255,0,1
5.2343e+05,2.5305e+08,0,3,4.6912e+08,2230,16,0.69,43.601,13.482,87.93,0.321,67.785,-0.177,0,1
5.242e+05,2.5324e+08,0,3,4.6913e+08,2230,15,0.76,43.601,13.482,87.95,0.297,71.103,-0.233,0,1
5.25e+05,2.5344e+08,0,3,4.6913e+08,2230,16,0.69,43.601,13.482,88.01,0.258,64.934,-0.256,0,1
5.2585e+05,2.5365e+08,0,3,4.6913e+08,2230,16,0.69,43.601,13.482,88.08,0.051,64.934,-0.124,0,1
5.2666e+05,2.5385e+08,0,3,4.6913e+08,2230,16,0.69,43.601,13.482,88.12,0.103,64.934,-0.232,0,1
5.2742e+05,2.5404e+08,0,3,4.6913e+08,2230,16,0.69,43.601,13.482,88.18,0.077,64.934,-0.231,0,1
5.2823e+05,2.5424e+08,0,3,4.6913e+08,2230,16,0.69,43.601,13.482,88.23,0.089,64.934,-0.197,0,1
5.2911e+05,2.5446e+08,0,3,4.6913e+08,2230,16,0.69,43.601,13.482,88.3,0.027,64.934,-0.245,0,1
5.298e+05,2.5463e+08,0,3,4.6913e+08,2230,16,0.69,43.601,13.482,88.36,0.045,64.934,-0.218,0,1
5.3065e+05,2.5484e+08,0,3,4.6913e+08,2230,16,0.69,43.601,13.482,88.41,0.042,64.934,-0.193,0,1
5.3154e+05,2.5506e+08,0,3,4.6913e+08,2230,16,0.69,43.601,13.482,88.44,0.013,64.934,-0.13,0,1
5.3233e+05,2.5525e+08,0,3,4.6913e+08,2230,16,0.69,43.601,13.482,88.51,0.075,64.934,-0.303,0,1
5.3314e+05,2.5545e+08,0,3,4.6913e+08,2230,16,0.69,43.601,13.482,88.58,0.072,64.934,-0.547,0,1
5.3393e+05,2.5564e+08,0,3,4.6913e+08,2230,15,0.76,43.601,13.482,88.76,0.194,36.798,-0.99,0,1
5.3474e+05,2.5584e+08,0,3,4.6913e+08,2230,15,0.76,43.601,13.482,88.97,0.1,36.798,-1.242,0,1
5.3554e+05,2.5603e+08,0,3,4.6913e+08,2230,16,0.69,43.601,13.482,89.29,0.204,33.296,-1.553,0,1
5.3644e+05,2.5626e+08,0,3,4.6913e+08,2230,16,0.69,43.601,13.482,89.56,0.172,33.296,-1.602,0,1
5.3724e+05,2.5645e+08,0,3,4.6913e+08,2230,16,0.69,43.601,13.482,89.83,0.284,41.279,-1.434,0,1
