LineNo,TimeUS,I,MagX,MagY,MagZ,OfsX,OfsY,OfsZ,MOX,MOY,MOZ,Health,S
1573,1.9857e+07,0,175,-63,351,43,-7,144,0,0,0,1,1.9857e+07
1982,1.9959e+07,0,173,-64,351,43,-7,144,0,0,0,1,1.9959e+07
2397,2.0061e+07,0,175,-64,350,43,-7,144,0,0,0,1,2.0061e+07
2807,2.0162e+07,0,176,-61,353,43,-7,144,0,0,0,1,2.0162e+07
3219,2.0262e+07,0,172,-63,351,43,-7,144,0,0,0,1,2.0262e+07
3635,2.0364e+07,0,172,-62,348,43,-7,144,0,0,0,1,2.0364e+07
4046,2.0466e+07,0,180,-63,351,43,-7,144,0,0,0,1,2.0466e+07
4455,2.0568e+07,0,168,-58,345,43,-7,144,0,0,0,1,2.0568e+07
4870,2.0669e+07,0,170,-65,347,43,-7,144,0,0,0,1,2.0669e+07
5252,2.077e+07,0,171,-65,351,43,-7,144,0,0,0,1,2.077e+07
5666,2.0871e+07,0,176,-65,351,43,-7,144,0,0,0,1,2.0871e+07
6073,2.0972e+07,0,174,-66,345,43,-7,144,0,0,0,1,2.0972e+07
6485,2.1073e+07,0,173,-63,346,43,-7,144,0,0,0,1,2.1073e+07
6892,2.1173e+07,0,176,-65,349,43,-7,144,0,0,0,1,2.1173e+07
7275,2.1275e+07,0,176,-63,348,43,-7,144,0,0,0,1,2.1275e+07
7688,2.1375e+07,0,179,-57,346,43,-7,144,0,0,0,1,2.1375e+07
8073,2.1477e+07,0,179,-62,350,43,-7,144,0,0,0,1,2.1477e+07
8479,2.1578e+07,0,173,-62,349,43,-7,144,0,0,0,1,2.1578e+07
8889,2.168e+07,0,176,-63,349,43,-7,144,0,0,0,1,2.168e+07
9296,2.178e+07,0,176,-63,344,43,-7,144,0,0,0,1,2.178e+07
9549,2.188e+07,0,175,-60,355,43,-7,144,0,0,0,1,2.188e+07
9956,2.198e+07,0,176,-62,351,43,-7,144,0,0,0,1,2.198e+07
10366,2.208e+07,0,173,-68,347,43,-7,144,0,0,0,1,2.208e+07
10776,2.2182e+07,0,176,-62,350,43,-7,144,0,0,0,1,2.2182e+07
11163,2.2284e+07,0,176,-58,349,43,-7,144,0,0,0,1,2.2284e+07
11574,2.2386e+07,0,176,-68,344,43,-7,144,0,0,0,1,2.2386e+07
11988,2.2488e+07,0,178,-61,348,43,-7,144,0,0,0,1,2.2488e+07
12398,2.2591e+07,0,175,-64,352,43,-7,144,0,0,0,1,2.2591e+07
12809,2.2693e+07,0,176,-65,349,43,-7,144,0,0,0,1,2.2693e+07
13216,2.2793e+07,0,176,-66,349,43,-7,144,0,0,0,1,2.2793e+07
13628,2.2896e+07,0,176,-60,348,43,-7,144,0,0,0,1,2.2895e+07
14038,2.2997e+07,0,174,-61,346,43,-7,144,0,0,0,1,2.2997e+07
14449,2.3099e+07,0,169,-60,347,43,-7,144,0,0,0,1,2.3099e+07
14831,2.32e+07,0,180,-60,348,43,-7,144,0,0,0,1,2.32e+07
15242,2.3302e+07,0,174,-62,352,43,-7,144,0,0,0,1,2.3302e+07
15654,2.3405e+07,0,180,-63,343,43,-7,144,0,0,0,1,2.3405e+07
16067,2.3507e+07,0,177,-64,348,43,-7,144,0,0,0,1,2.3507e+07
16449,2.361e+07,0,176,-63,348,43,-7,144,0,0,0,1,2.361e+07
16860,2.3712e+07,0,176,-63,347,43,-7,144,0,0,0,1,2.3712e+07
17268,2.3814e+07,0,177,-62,349,43,-7,144,0,0,0,1,2.3814e+07
17683,2.3915e+07,0,177,-63,345,43,-7,144,0,0,0,1,2.3915e+07
18068,2.4018e+07,0,181,-61,349,43,-7,144,0,0,0,1,2.4018e+07
18481,2.4119e+07,0,177,-64,348,43,-7,144,0,0,0,1,2.4119e+07
18888,2.4221e+07,0,169,-60,345,43,-7,144,0,0,0,1,2.4221e+07
19298,2.4323e+07,0,174,-58,344,43,-7,144,0,0,0,1,2.4323e+07
19682,2.4424e+07,0,173,-68,346,43,-7,144,0,0,0,1,2.4424e+07
20094,2.4526e+07,0,174,-55,349,43,-7,144,0,0,0,1,2.4526e+07
20504,2.4628e+07,0,180,-64,348,43,-7,144,0,0,0,1,2.4628e+07
20918,2.4729e+07,0,180,-64,349,43,-7,144,0,0,0,1,2.4729e+07
21336,2.4832e+07,0,178,-63,347,43,-7,144,0,0,0,1,2.4832e+07
21752,2.4935e+07,0,176,-61,349,43,-7,144,0,0,0,1,2.4935e+07
22163,2.5036e+07,0,178,-66,344,43,-7,144,0,0,0,1,2.5036e+07
22578,2.514e+07,0,179,-59,347,43,-7,144,0,0,0,1,2.514e+07
22986,2.5243e+07,0,169,-67,353,43,-7,144,0,0,0,1,2.5243e+07
23405,2.5347e+07,0,176,-61,352,43,-7,144,0,0,0,1,2.5347e+07
23824,2.5448e+07,0,174,-62,348,43,-7,144,0,0,0,1,2.5448e+07
24237,2.5548e+07,0,176,-62,349,43,-7,144,0,0,0,1,2.5548e+07
24652,2.565e+07,0,174,-61,351,43,-7,144,0,0,0,1,2.565e+07
25065,2.5754e+07,0,176,-62,345,43,-7,144,0,0,0,1,2.5754e+07
25479,2.5856e+07,0,180,-65,348,43,-7,144,0,0,0,1,2.5856e+07
25889,2.5958e+07,0,176,-58,349,43,-7,144,0,0,0,1,2.5958e+07
26299,2.6059e+07,0,180,-54,348,43,-7,144,0,0,0,1,2.6059e+07
26678,2.616e+07,0,177,-64,350,43,-7,144,0,0,0,1,2.616e+07
27092,2.6261e+07,0,178,-61,344,43,-7,144,0,0,0,1,2.6261e+07
27498,2.6362e+07,0,179,-65,345,43,-7,144,0,0,0,1,2.6362e+07
27911,2.6463e+07,0,181,-65,347,43,-7,144,0,0,0,1,2.6463e+07
28318,2.6565e+07,0,177,-61,347,43,-7,144,0,0,0,1,2.6565e+07
28702,2.6667e+07,0,180,-63,344,43,-7,144,0,0,0,1,2.6667e+07
29115,2.6768e+07,0,179,-59,352,43,-7,144,0,0,0,1,2.6768e+07
29530,2.6869e+07,0,177,-62,341,43,-7,144,0,0,0,1,2.6869e+07
29940,2.6971e+07,0,176,-65,351,43,-7,144,0,0,0,1,2.6971e+07
30350,2.7073e+07,0,177,-63,348,43,-7,144,0,0,0,1,2.7073e+07
30756,2.7174e+07,0,177,-63,345,43,-7,144,0,0,0,1,2.7174e+07
31169,2.7276e+07,0,175,-68,348,43,-7,144,0,0,0,1,2.7275e+07
31575,2.7377e+07,0,172,-63,351,43,-7,144,0,0,0,1,2.7377e+07
31961,2.7479e+07,0,176,-66,343,43,-7,144,0,0,0,1,2.7479e+07
32367,2.7581e+07,0,178,-65,351,43,-7,144,0,0,0,1,2.7581e+07
32776,2.7683e+07,0,174,-66,345,43,-7,144,0,0,0,1,2.7683e+07
33189,2.7784e+07,0,180,-65,346,43,-7,144,0,0,0,1,2.7784e+07
33602,2.7885e+07,0,176,-64,344,43,-7,144,0,0,0,1,2.7885e+07
33984,2.7987e+07,0,174,-71,350,43,-7,144,0,0,0,1,2.7987e+07
34393,2.809e+07,0,174,-61,351,43,-7,144,0,0,0,1,2.809e+07
34803,2.8191e+07,0,176,-62,348,43,-7,144,0,0,0,1,2.8191e+07
35217,2.8293e+07,0,172,-59,351,43,-7,144,0,0,0,1,2.8293e+07
35623,2.8395e+07,0,178,-59,348,43,-7,144,0,0,0,1,2.8395e+07
36009,2.8497e+07,0,178,-60,350,43,-7,144,0,0,0,1,2.8497e+07
36419,2.8598e+07,0,169,-62,349,43,-7,144,0,0,0,1,2.8598e+07
36831,2.8701e+07,0,178,-62,347,43,-7,144,0,0,0,1,2.8701e+07
37245,2.8802e+07,0,174,-65,346,43,-7,144,0,0,0,1,2.8802e+07
37655,2.8904e+07,0,172,-62,349,43,-7,144,0,0,0,1,2.8904e+07
38063,2.9006e+07,0,173,-66,347,43,-7,144,0,0,0,1,2.9006e+07
38470,2.9108e+07,0,175,-63,354,43,-7,144,0,0,0,1,2.9108e+07
38879,2.921e+07,0,175,-59,350,43,-7,144,0,0,0,1,2.921e+07
39261,2.9311e+07,0,174,-66,348,43,-7,144,0,0,0,1,2.931e+07
39669,2.9411e+07,0,178,-60,345,43,-7,144,0,0,0,1,2.9411e+07
40081,2.9513e+07,0,178,-67,348,43,-7,144,0,0,0,1,2.9513e+07
40489,2.9614e+07,0,177,-60,347,43,-7,144,0,0,0,1,2.9614e+07
40903,2.9718e+07,0,180,-68,350,43,-7,144,0,0,0,1,2.9718e+07
41314,2.9821e+07,0,171,-62,348,43,-7,144,0,0,0,1,2.9821e+07
41726,2.9923e+07,0,177,-56,348,43,-7,144,0,0,0,1,2.9923e+07
42138,3.0024e+07,0,176,-63,351,43,-7,144,0,0,0,1,3.0024e+07
42554,3.0125e+07,0,174,-66,349,43,-7,144,0,0,0,1,3.0125e+07
42966,3.0225e+07,0,176,-62,347,43,-7,144,0,0,0,1,3.0225e+07
43379,3.0327e+07,0,176,-64,349,43,-7,144,0,0,0,1,3.0327e+07
43764,3.0428e+07,0,170,-64,342,43,-7,144,0,0,0,1,3.0428e+07
44180,3.0531e+07,0,174,-62,346,43,-7,144,0,0,0,1,3.0531e+07
44588,3.0631e+07,0,169,-61,349,43,-7,144,0,0,0,1,3.0631e+07
44998,3.0734e+07,0,174,-65,345,43,-7,144,0,0,0,1,3.0733e+07
45413,3.0836e+07,0,175,-63,349,43,-7,144,0,0,0,1,3.0836e+07
45820,3.0937e+07,0,175,-66,351,43,-7,144,0,0,0,1,3.0937e+07
46198,3.1039e+07,0,173,-63,350,43,-7,144,0,0,0,1,3.1039e+07
46609,3.1141e+07,0,173,-66,346,43,-7,144,0,0,0,1,3.1141e+07
47019,3.1243e+07,0,176,-64,347,43,-7,144,0,0,0,1,3.1243e+07
47431,3.1345e+07,0,178,-69,349,43,-7,144,0,0,0,1,3.1345e+07
47844,3.1446e+07,0,179,-68,347,43,-7,144,0,0,0,1,3.1446e+07
48260,3.1547e+07,0,177,-66,352,43,-7,144,0,0,0,1,3.1547e+07
48644,3.1649e+07,0,174,-64,351,43,-7,144,0,0,0,1,3.1649e+07
49055,3.1751e+07,0,174,-63,351,43,-7,144,0,0,0,1,3.1751e+07
49472,3.1855e+07,0,174,-61,346,43,-7,144,0,0,0,1,3.1855e+07
49882,3.1957e+07,0,178,-65,344,43,-7,144,0,0,0,1,3.1957e+07
50294,3.2058e+07,0,177,-60,354,43,-7,144,0,0,0,1,3.2058e+07
50676,3.216e+07,0,175,-66,348,43,-7,144,0,0,0,1,3.216e+07
51095,3.2262e+07,0,173,-60,353,43,-7,144,0,0,0,1,3.2262e+07
51503,3.2363e+07,0,173,-65,348,43,-7,144,0,0,0,1,3.2363e+07
51883,3.2463e+07,0,173,-63,344,43,-7,144,0,0,0,1,3.2463e+07
52291,3.2565e+07,0,174,-64,346,43,-7,144,0,0,0,1,3.2565e+07
52706,3.2666e+07,0,177,-60,346,43,-7,144,0,0,0,1,3.2666e+07
53119,3.2767e+07,0,171,-66,349,43,-7,144,0,0,0,1,3.2767e+07
53534,3.2869e+07,0,178,-62,346,43,-7,144,0,0,0,1,3.2869e+07
53942,3.297e+07,0,179,-62,347,43,-7,144,0,0,0,1,3.297e+07
54354,3.3072e+07,0,178,-65,349,43,-7,144,0,0,0,1,3.3072e+07
54760,3.3174e+07,0,180,-60,349,43,-7,144,0,0,0,1,3.3174e+07
55175,3.3275e+07,0,173,-65,352,43,-7,144,0,0,0,1,3.3275e+07
55584,3.3377e+07,0,174,-70,346,43,-7,144,0,0,0,1,3.3377e+07
55970,3.3477e+07,0,172,-61,347,43,-7,144,0,0,0,1,3.3477e+07
56377,3.3579e+07,0,174,-59,347,43,-7,144,0,0,0,1,3.3579e+07
56785,3.3681e+07,0,183,-59,347,43,-7,144,0,0,0,1,3.3681e+07
57198,3.3784e+07,0,184,-69,337,43,-7,144,0,0,0,1,3.3784e+07
57585,3.3886e+07,0,184,-70,333,43,-7,144,0,0,0,1,3.3886e+07
57996,3.3988e+07,0,183,-69,336,43,-7,144,0,0,0,1,3.3988e+07
58406,3.409e+07,0,187,-72,332,43,-7,144,0,0,0,1,3.409e+07
58814,3.4191e+07,0,187,-70,335,43,-7,144,0,0,0,1,3.4191e+07
59232,3.4294e+07,0,185,-67,332,43,-7,144,0,0,0,1,3.4294e+07
59639,3.4396e+07,0,188,-73,334,43,-7,144,0,0,0,1,3.4396e+07
60024,3.4497e+07,0,188,-69,334,43,-7,144,0,0,0,1,3.4497e+07
60434,3.4599e+07,0,183,-77,336,43,-7,144,0,0,0,1,3.4599e+07
60843,3.4701e+07,0,186,-72,331,43,-7,144,0,0,0,1,3.4701e+07
61249,3.4803e+07,0,185,-68,337,43,-7,144,0,0,0,1,3.4803e+07
61660,3.4904e+07,0,185,-70,332,43,-7,144,0,0,0,1,3.4904e+07
62040,3.5005e+07,0,195,-67,333,43,-7,144,0,0,0,1,3.5005e+07
62450,3.5107e+07,0,189,-67,331,43,-7,144,0,0,0,1,3.5107e+07
62858,3.5209e+07,0,189,-68,333,43,-7,144,0,0,0,1,3.5209e+07
63271,3.5311e+07,0,190,-67,336,43,-7,144,0,0,0,1,3.5311e+07
63680,3.5412e+07,0,185,-66,335,43,-7,144,0,0,0,1,3.5412e+07
64091,3.5514e+07,0,192,-59,335,43,-7,144,0,0,0,1,3.5514e+07
64498,3.5616e+07,0,191,-67,334,43,-7,144,0,0,0,1,3.5615e+07
64874,3.5717e+07,0,183,-63,334,43,-7,144,0,0,0,1,3.5717e+07
65278,3.5818e+07,0,182,-62,338,43,-7,144,0,0,0,1,3.5818e+07
65681,3.592e+07,0,191,-64,335,43,-7,144,0,0,0,1,3.592e+07
66048,3.6021e+07,0,184,-69,341,43,-7,144,0,0,0,1,3.6021e+07
66455,3.6122e+07,0,176,-72,341,43,-7,144,0,0,0,1,3.6122e+07
66857,3.6222e+07,0,178,-71,342,43,-7,144,0,0,0,1,3.6222e+07
67233,3.6323e+07,0,173,-67,344,43,-7,144,0,0,0,1,3.6323e+07
67640,3.6424e+07,0,189,-66,348,43,-7,144,0,0,0,1,3.6424e+07
68052,3.6525e+07,0,173,-66,344,43,-7,144,0,0,0,1,3.6525e+07
68453,3.6626e+07,0,184,-64,341,43,-7,144,0,0,0,1,3.6626e+07
68861,3.6727e+07,0,180,-60,346,43,-7,144,0,0,0,1,3.6727e+07
69265,3.6828e+07,0,180,-66,343,43,-7,144,0,0,0,1,3.6828e+07
69674,3.693e+07,0,182,-71,344,43,-7,144,0,0,0,1,3.693e+07
70051,3.7031e+07,0,183,-65,343,43,-7,144,0,0,0,1,3.7031e+07
70454,3.7133e+07,0,176,-63,345,43,-7,144,0,0,0,1,3.7133e+07
70857,3.7234e+07,0,178,-65,343,43,-7,144,0,0,0,1,3.7234e+07
71262,3.7336e+07,0,177,-67,347,43,-7,144,0,0,0,1,3.7336e+07
71664,3.7437e+07,0,180,-65,348,43,-7,144,0,0,0,1,3.7437e+07
72069,3.7538e+07,0,181,-70,343,43,-7,144,0,0,0,1,3.7538e+07
72471,3.7639e+07,0,185,-88,338,43,-7,144,0,0,0,1,3.7638e+07
72878,3.774e+07,0,194,-93,333,43,-7,144,0,0,0,1,3.774e+07
73253,3.7843e+07,0,204,-88,323,43,-7,144,0,0,0,1,3.7843e+07
73659,3.7944e+07,0,209,-88,326,43,-7,144,0,0,0,1,3.7944e+07
74066,3.8046e+07,0,189,-69,340,43,-7,144,0,0,0,1,3.8046e+07
74470,3.8148e+07,0,156,-55,363,43,-7,144,0,0,0,1,3.8148e+07
74881,3.8248e+07,0,122,-36,375,43,-7,144,0,0,0,1,3.8248e+07
75285,3.835e+07,0,97,1,392,43,-7,144,0,0,0,1,3.835e+07
75690,3.8452e+07,0,60,59,389,43,-7,144,0,0,0,1,3.8452e+07
76095,3.8555e+07,0,34,101,385,43,-7,144,0,0,0,1,3.8555e+07
76501,3.8656e+07,0,-3,141,372,43,-7,144,0,0,0,1,3.8656e+07
76907,3.8757e+07,0,-40,165,364,43,-7,144,0,0,0,1,3.8757e+07
77310,3.8858e+07,0,-67,198,342,43,-7,144,0,0,0,1,3.8858e+07
77717,3.8959e+07,0,-79,245,302,43,-7,144,0,0,0,1,3.8959e+07
78120,3.906e+07,0,-91,289,261,43,-7,144,0,0,0,1,3.906e+07
78527,3.916e+07,0,-82,322,223,43,-7,144,0,0,0,1,3.916e+07
78938,3.926e+07,0,-85,352,174,43,-7,144,0,0,0,1,3.926e+07
79342,3.9361e+07,0,-103,365,135,43,-7,144,0,0,0,1,3.9361e+07
79750,3.9462e+07,0,-131,374,103,43,-7,144,0,0,0,1,3.9462e+07
80151,3.9562e+07,0,-158,375,55,43,-7,144,0,0,0,1,3.9562e+07
80556,3.9663e+07,0,-179,366,12,43,-7,144,0,0,0,1,3.9663e+07
80932,3.9763e+07,0,-190,369,-15,43,-7,144,0,0,0,1,3.9763e+07
81336,3.9865e+07,0,-182,362,-51,43,-7,144,0,0,0,1,3.9865e+07
81743,3.9966e+07,0,-158,368,-89,43,-7,144,0,0,0,1,3.9966e+07
82145,4.0067e+07,0,-150,369,-120,43,-7,144,0,0,0,1,4.0067e+07
82551,4.0168e+07,0,-140,362,-143,43,-7,144,0,0,0,1,4.0168e+07
82953,4.0269e+07,0,-135,352,-168,43,-7,144,0,0,0,1,4.0269e+07
83360,4.037e+07,0,-124,353,-184,43,-7,144,0,0,0,1,4.037e+07
83769,4.047e+07,0,-110,368,-173,43,-7,144,0,0,0,1,4.047e+07
84148,4.057e+07,0,-99,363,-175,43,-7,144,0,0,0,1,4.057e+07
84552,4.067e+07,0,-96,362,-184,43,-7,144,0,0,0,1,4.067e+07
84956,4.0771e+07,0,-76,357,-193,43,-7,144,0,0,0,1,4.0771e+07
85335,4.0872e+07,0,-67,363,-190,43,-7,144,0,0,0,1,4.0872e+07
85738,4.0974e+07,0,-65,373,-172,43,-7,144,0,0,0,1,4.0973e+07
86145,4.1074e+07,0,-60,377,-161,43,-7,144,0,0,0,1,4.1074e+07
86519,4.1174e+07,0,-58,342,-166,43,-7,144,0,0,0,1,4.1174e+07
86922,4.1276e+07,0,-62,375,-172,43,-7,144,0,0,0,1,4.1276e+07
87326,4.1376e+07,0,-51,374,-173,43,-7,144,0,0,0,1,4.1376e+07
87731,4.1476e+07,0,-30,380,-154,43,-7,144,0,0,0,1,4.1476e+07
88140,4.1577e+07,0,-14,393,-135,43,-7,144,0,0,0,1,4.1577e+07
88545,4.1677e+07,0,-14,399,-134,43,-7,144,0,0,0,1,4.1677e+07
88922,4.1778e+07,0,-21,390,-152,43,-7,144,0,0,0,1,4.1778e+07
89323,4.188e+07,0,-27,380,-162,43,-7,144,0,0,0,1,4.188e+07
89730,4.1982e+07,0,-22,381,-166,43,-7,144,0,0,0,1,4.1982e+07
90140,4.2084e+07,0,-8,386,-158,43,-7,144,0,0,0,1,4.2084e+07
90545,4.2185e+07,0,-8,383,-154,43,-7,144,0,0,0,1,4.2185e+07
90921,4.2285e+07,0,-7,388,-164,43,-7,144,0,0,0,1,4.2285e+07
91322,4.2385e+07,0,-6,381,-164,43,-7,144,0,0,0,1,4.2385e+07
91729,4.2487e+07,0,4,381,-172,43,-7,144,0,0,0,1,4.2486e+07
92132,4.2588e+07,0,22,388,-156,43,-7,144,0,0,0,1,4.2588e+07
92541,4.2689e+07,0,30,392,-144,43,-7,144,0,0,0,1,4.2689e+07
92914,4.2789e+07,0,29,386,-154,43,-7,144,0,0,0,1,4.2789e+07
93318,4.289e+07,0,21,379,-172,43,-7,144,0,0,0,1,4.289e+07
93721,4.2991e+07,0,22,368,-180,43,-7,144,0,0,0,1,4.2991e+07
94127,4.3092e+07,0,30,374,-188,43,-7,144,0,0,0,1,4.3092e+07
94534,4.3194e+07,0,28,376,-197,43,-7,144,0,0,0,1,4.3194e+07
94909,4.3294e+07,0,35,363,-208,43,-7,144,0,0,0,1,4.3294e+07
95313,4.3394e+07,0,42,364,-202,43,-7,144,0,0,0,1,4.3394e+07
95716,4.3495e+07,0,45,369,-186,43,-7,144,0,0,0,1,4.3495e+07
96119,4.3597e+07,0,50,379,-173,43,-7,144,0,0,0,1,4.3597e+07
96526,4.37e+07,0,60,384,-143,43,-7,144,0,0,0,1,4.37e+07
96934,4.3802e+07,0,65,391,-134,43,-7,144,0,0,0,1,4.3802e+07
97309,4.3903e+07,0,59,391,-126,43,-7,144,0,0,0,1,4.3903e+07
97716,4.4006e+07,0,48,392,-127,43,-7,144,0,0,0,1,4.4006e+07
98122,4.4108e+07,0,44,388,-126,43,-7,144,0,0,0,1,4.4108e+07
98525,4.4209e+07,0,44,397,-118,43,-7,144,0,0,0,1,4.4209e+07
98931,4.431e+07,0,56,404,-110,43,-7,144,0,0,0,1,4.431e+07
99332,4.441e+07,0,52,390,-117,43,-7,144,0,0,0,1,4.441e+07
99736,4.451e+07,0,51,393,-125,43,-7,144,0,0,0,1,4.451e+07
1.0014e+05,4.4611e+07,0,50,393,-127,43,-7,144,0,0,0,1,4.4611e+07
1.0052e+05,4.4714e+07,0,45,398,-113,43,-7,144,0,0,0,1,4.4714e+07
1.0092e+05,4.4815e+07,0,50,402,-94,43,-7,144,0,0,0,1,4.4815e+07
1.0132e+05,4.4915e+07,0,52,406,-80,43,-7,144,0,0,0,1,4.4915e+07
1.0173e+05,4.5016e+07,0,58,403,-75,43,-7,144,0,0,0,1,4.5016e+07
1.0213e+05,4.5117e+07,0,67,406,-63,43,-7,144,0,0,0,1,4.5117e+07
1.0254e+05,4.5217e+07,0,78,407,-51,43,-7,144,0,0,0,1,4.5217e+07
1.0294e+05,4.5318e+07,0,90,397,-19,43,-7,144,0,0,0,1,4.5318e+07
1.0332e+05,4.542e+07,0,97,395,5,43,-7,144,0,0,0,1,4.542e+07
1.0373e+05,4.5521e+07,0,88,405,33,43,-7,144,0,0,0,1,4.5521e+07
1.0414e+05,4.5622e+07,0,86,402,43,43,-7,144,0,0,0,1,4.5622e+07
1.0454e+05,4.5723e+07,0,79,402,48,43,-7,144,0,0,0,1,4.5723e+07
1.0495e+05,4.5823e+07,0,75,397,66,43,-7,144,0,0,0,1,4.5823e+07
1.0536e+05,4.5925e+07,0,76,395,86,43,-7,144,0,0,0,1,4.5925e+07
1.0574e+05,4.6027e+07,0,81,380,103,43,-7,144,0,0,0,1,4.6027e+07
1.0614e+05,4.6129e+07,0,83,383,114,43,-7,144,0,0,0,1,4.6129e+07
1.0652e+05,4.6231e+07,0,81,379,131,43,-7,144,0,0,0,1,4.6231e+07
1.0692e+05,4.6332e+07,0,84,361,156,43,-7,144,0,0,0,1,4.6332e+07
1.0733e+05,4.6433e+07,0,86,347,187,43,-7,144,0,0,0,1,4.6433e+07
1.0774e+05,4.6534e+07,0,96,331,196,43,-7,144,0,0,0,1,4.6534e+07
1.0811e+05,4.6635e+07,0,112,319,215,43,-7,144,0,0,0,1,4.6635e+07
1.0852e+05,4.6735e+07,0,118,291,240,43,-7,144,0,0,0,1,4.6735e+07
1.0893e+05,4.6836e+07,0,119,281,260,43,-7,144,0,0,0,1,4.6836e+07
1.093e+05,4.6937e+07,0,115,279,270,43,-7,144,0,0,0,1,4.6937e+07
1.0972e+05,4.7038e+07,0,108,273,274,43,-7,144,0,0,0,1,4.7038e+07
1.1009e+05,4.7139e+07,0,102,254,295,43,-7,144,0,0,0,1,4.7139e+07
1.105e+05,4.7239e+07,0,101,233,317,43,-7,144,0,0,0,1,4.7239e+07
1.109e+05,4.7341e+07,0,92,223,323,43,-7,144,0,0,0,1,4.7341e+07
1.113e+05,4.7442e+07,0,83,212,334,43,-7,144,0,0,0,1,4.7442e+07
1.1171e+05,4.7542e+07,0,65,220,339,43,-7,144,0,0,0,1,4.7542e+07
1.1212e+05,4.7643e+07,0,57,212,336,43,-7,144,0,0,0,1,4.7643e+07
1.1253e+05,4.7746e+07,0,50,212,344,43,-7,144,0,0,0,1,4.7746e+07
1.1293e+05,4.7847e+07,0,52,215,345,43,-7,144,0,0,0,1,4.7847e+07
1.1334e+05,4.7948e+07,0,63,190,354,43,-7,144,0,0,0,1,4.7948e+07
1.1371e+05,4.805e+07,0,51,190,360,43,-7,144,0,0,0,1,4.805e+07
1.1412e+05,4.8151e+07,0,25,195,368,43,-7,144,0,0,0,1,4.8151e+07
1.1452e+05,4.8253e+07,0,20,190,364,43,-7,144,0,0,0,1,4.8253e+07
1.1493e+05,4.8355e+07,0,15,178,374,43,-7,144,0,0,0,1,4.8355e+07
1.1533e+05,4.8456e+07,0,19,168,379,43,-7,144,0,0,0,1,4.8456e+07
1.1574e+05,4.8558e+07,0,17,162,380,43,-7,144,0,0,0,1,4.8558e+07
1.1627e+05,1.0792e+08,0,29,189,362,43,-7,144,0,0,0,1,1.0792e+08
1.1672e+05,1.0802e+08,0,32,190,359,43,-7,144,0,0,0,1,1.0802e+08
1.1714e+05,1.0813e+08,0,27,192,357,43,-7,144,0,0,0,1,1.0813e+08
1.1759e+05,1.0823e+08,0,26,189,359,43,-7,144,0,0,0,1,1.0823e+08
1.1804e+05,1.0833e+08,0,28,189,361,43,-7,144,0,0,0,1,1.0833e+08
1.1849e+05,1.0843e+08,0,28,195,361,43,-7,144,0,0,0,1,1.0843e+08
1.189e+05,1.0853e+08,0,26,188,366,43,-7,144,0,0,0,1,1.0853e+08
1.1936e+05,1.0864e+08,0,24,188,367,43,-7,144,0,0,0,1,1.0864e+08
1.1977e+05,1.0874e+08,0,28,192,359,43,-7,144,0,0,0,1,1.0874e+08
1.2022e+05,1.0884e+08,0,31,190,359,43,-7,144,0,0,0,1,1.0884e+08
1.2064e+05,1.0894e+08,0,30,191,365,43,-7,144,0,0,0,1,1.0894e+08
1.211e+05,1.0905e+08,0,26,191,361,43,-7,144,0,0,0,1,1.0905e+08
1.2155e+05,1.0915e+08,0,25,191,362,43,-7,144,0,0,0,1,1.0915e+08
1.22e+05,1.0925e+08,0,29,188,362,43,-7,144,0,0,0,1,1.0925e+08
1.2245e+05,1.0936e+08,0,28,191,355,43,-7,144,0,0,0,1,1.0936e+08
1.2289e+05,1.0946e+08,0,23,187,359,43,-7,144,0,0,0,1,1.0946e+08
1.2335e+05,1.0956e+08,0,28,193,360,43,-7,144,0,0,0,1,1.0956e+08
1.238e+05,1.0966e+08,0,30,189,359,43,-7,144,0,0,0,1,1.0966e+08
1.2425e+05,1.0976e+08,0,28,190,362,43,-7,144,0,0,0,1,1.0976e+08
1.247e+05,1.0987e+08,0,32,188,358,43,-7,144,0,0,0,1,1.0987e+08
1.2515e+05,1.0997e+08,0,30,192,356,43,-7,144,0,0,0,1,1.0997e+08
1.2557e+05,1.1007e+08,0,25,188,361,43,-7,144,0,0,0,1,1.1007e+08
1.2603e+05,1.1017e+08,0,32,194,361,43,-7,144,0,0,0,1,1.1017e+08
1.2648e+05,1.1027e+08,0,25,189,357,43,-7,144,0,0,0,1,1.1027e+08
1.2693e+05,1.1038e+08,0,30,193,358,43,-7,144,0,0,0,1,1.1038e+08
1.2738e+05,1.1048e+08,0,26,188,358,43,-7,144,0,0,0,1,1.1048e+08
1.2783e+05,1.1058e+08,0,30,188,364,43,-7,144,0,0,0,1,1.1058e+08
1.2858e+05,1.1078e+08,0,24,191,358,43,-7,144,0,0,0,1,1.1078e+08
1.2903e+05,1.1089e+08,0,28,195,361,43,-7,144,0,0,0,1,1.1089e+08
1.2948e+05,1.1099e+08,0,22,188,361,43,-7,144,0,0,0,1,1.1099e+08
1.2993e+05,1.1109e+08,0,25,190,358,43,-7,144,0,0,0,1,1.1109e+08
1.3036e+05,1.112e+08,0,27,191,355,43,-7,144,0,0,0,1,1.112e+08
1.308e+05,1.113e+08,0,23,188,359,43,-7,144,0,0,0,1,1.113e+08
1.3126e+05,1.114e+08,0,25,193,355,43,-7,144,0,0,0,1,1.114e+08
1.317e+05,1.1151e+08,0,29,194,361,43,-7,144,0,0,0,1,1.1151e+08
1.3216e+05,1.1161e+08,0,24,191,358,43,-7,144,0,0,0,1,1.1161e+08
1.3261e+05,1.1171e+08,0,28,191,357,43,-7,144,0,0,0,1,1.1171e+08
1.3306e+05,1.1181e+08,0,29,191,360,43,-7,144,0,0,0,1,1.1181e+08
1.3351e+05,1.1192e+08,0,25,193,362,43,-7,144,0,0,0,1,1.1192e+08
1.3396e+05,1.1202e+08,0,25,184,361,43,-7,144,0,0,0,1,1.1202e+08
1.3438e+05,1.1212e+08,0,29,192,354,43,-7,144,0,0,0,1,1.1212e+08
1.3483e+05,1.1223e+08,0,26,190,356,43,-7,144,0,0,0,1,1.1223e+08
1.3525e+05,1.1233e+08,0,27,193,360,43,-7,144,0,0,0,1,1.1233e+08
1.357e+05,1.1243e+08,0,25,195,365,43,-7,144,0,0,0,1,1.1243e+08
1.3615e+05,1.1253e+08,0,28,195,360,43,-7,144,0,0,0,1,1.1253e+08
1.366e+05,1.1263e+08,0,25,191,358,43,-7,144,0,0,0,1,1.1263e+08
1.3705e+05,1.1274e+08,0,26,191,359,43,-7,144,0,0,0,1,1.1274e+08
1.375e+05,1.1284e+08,0,28,195,363,43,-7,144,0,0,0,1,1.1284e+08
1.3796e+05,1.1294e+08,0,23,191,361,43,-7,144,0,0,0,1,1.1294e+08
1.3841e+05,1.1304e+08,0,23,187,367,43,-7,144,0,0,0,1,1.1304e+08
1.3883e+05,1.1314e+08,0,29,192,362,43,-7,144,0,0,0,1,1.1314e+08
1.3924e+05,1.1325e+08,0,28,193,358,43,-7,144,0,0,0,1,1.1325e+08
1.3965e+05,1.1335e+08,0,26,193,357,43,-7,144,0,0,0,1,1.1335e+08
1.4006e+05,1.1345e+08,0,28,186,359,43,-7,144,0,0,0,1,1.1345e+08
1.4048e+05,1.1355e+08,0,30,193,361,43,-7,144,0,0,0,1,1.1355e+08
1.4089e+05,1.1366e+08,0,25,189,363,43,-7,144,0,0,0,1,1.1366e+08
1.413e+05,1.1376e+08,0,32,192,360,43,-7,144,0,0,0,1,1.1376e+08
1.4168e+05,1.1386e+08,0,25,190,358,43,-7,144,0,0,0,1,1.1386e+08
1.4209e+05,1.1396e+08,0,27,189,360,43,-7,144,0,0,0,1,1.1396e+08
1.425e+05,1.1406e+08,0,26,196,365,43,-7,144,0,0,0,1,1.1406e+08
1.4292e+05,1.1417e+08,0,32,188,359,43,-7,144,0,0,0,1,1.1417e+08
1.433e+05,1.1427e+08,0,27,189,363,43,-7,144,0,0,0,1,1.1427e+08
1.4371e+05,1.1437e+08,0,26,191,356,43,-7,144,0,0,0,1,1.1437e+08
1.4412e+05,1.1447e+08,0,30,192,359,43,-7,144,0,0,0,1,1.1447e+08
1.4453e+05,1.1457e+08,0,30,190,360,43,-7,144,0,0,0,1,1.1457e+08
1.4491e+05,1.1467e+08,0,26,193,358,43,-7,144,0,0,0,1,1.1467e+08
1.4533e+05,1.1477e+08,0,24,190,359,43,-7,144,0,0,0,1,1.1477e+08
1.4571e+05,1.1488e+08,0,31,189,358,43,-7,144,0,0,0,1,1.1488e+08
1.4612e+05,1.1498e+08,0,25,193,357,43,-7,144,0,0,0,1,1.1498e+08
1.4653e+05,1.1508e+08,0,28,194,363,43,-7,144,0,0,0,1,1.1508e+08
1.4695e+05,1.1519e+08,0,30,184,360,43,-7,144,0,0,0,1,1.1519e+08
1.4736e+05,1.1529e+08,0,28,189,353,43,-7,144,0,0,0,1,1.1529e+08
1.4774e+05,1.1539e+08,0,32,191,362,43,-7,144,0,0,0,1,1.1539e+08
1.4815e+05,1.1549e+08,0,27,190,362,43,-7,144,0,0,0,1,1.1549e+08
1.4857e+05,1.156e+08,0,32,191,362,43,-7,144,0,0,0,1,1.156e+08
1.4898e+05,1.157e+08,0,29,188,361,43,-7,144,0,0,0,1,1.157e+08
1.4939e+05,1.158e+08,0,27,191,357,43,-7,144,0,0,0,1,1.158e+08
1.498e+05,1.1591e+08,0,25,192,359,43,-7,144,0,0,0,1,1.1591e+08
1.5021e+05,1.1601e+08,0,32,191,358,43,-7,144,0,0,0,1,1.1601e+08
1.5062e+05,1.1611e+08,0,30,188,363,43,-7,144,0,0,0,1,1.1611e+08
1.5104e+05,1.1622e+08,0,31,189,360,43,-7,144,0,0,0,1,1.1622e+08
1.5145e+05,1.1632e+08,0,27,192,360,43,-7,144,0,0,0,1,1.1632e+08
1.5186e+05,1.1642e+08,0,30,190,366,43,-7,144,0,0,0,1,1.1642e+08
1.5224e+05,1.1653e+08,0,29,190,363,43,-7,144,0,0,0,1,1.1653e+08
1.5266e+05,1.1663e+08,0,23,192,359,43,-7,144,0,0,0,1,1.1663e+08
1.5306e+05,1.1673e+08,0,25,190,361,43,-7,144,0,0,0,1,1.1673e+08
1.5348e+05,1.1683e+08,0,27,194,364,43,-7,144,0,0,0,1,1.1683e+08
1.5386e+05,1.1694e+08,0,24,188,362,43,-7,144,0,0,0,1,1.1694e+08
1.5427e+05,1.1704e+08,0,29,189,363,43,-7,144,0,0,0,1,1.1704e+08
1.5468e+05,1.1714e+08,0,28,190,356,43,-7,144,0,0,0,1,1.1714e+08
1.5509e+05,1.1724e+08,0,26,190,355,43,-7,144,0,0,0,1,1.1724e+08
1.5551e+05,1.1735e+08,0,28,194,361,43,-7,144,0,0,0,1,1.1735e+08
1.5592e+05,1.1745e+08,0,25,193,361,43,-7,144,0,0,0,1,1.1745e+08
1.5633e+05,1.1755e+08,0,30,190,364,43,-7,144,0,0,0,1,1.1755e+08
1.5672e+05,1.1766e+08,0,28,194,359,43,-7,144,0,0,0,1,1.1766e+08
1.5713e+05,1.1776e+08,0,26,185,360,43,-7,144,0,0,0,1,1.1776e+08
1.5754e+05,1.1786e+08,0,25,191,359,43,-7,144,0,0,0,1,1.1786e+08
1.5795e+05,1.1796e+08,0,29,185,360,43,-7,144,0,0,0,1,1.1796e+08
1.5833e+05,1.1807e+08,0,29,192,364,43,-7,144,0,0,0,1,1.1806e+08
1.5875e+05,1.1817e+08,0,31,191,362,43,-7,144,0,0,0,1,1.1817e+08
1.5916e+05,1.1827e+08,0,26,190,360,43,-7,144,0,0,0,1,1.1827e+08
1.5957e+05,1.1837e+08,0,26,186,361,43,-7,144,0,0,0,1,1.1837e+08
1.5998e+05,1.1848e+08,0,27,193,360,43,-7,144,0,0,0,1,1.1848e+08
1.6039e+05,1.1858e+08,0,26,188,362,43,-7,144,0,0,0,1,1.1858e+08
1.608e+05,1.1868e+08,0,24,191,364,43,-7,144,0,0,0,1,1.1868e+08
1.6122e+05,1.1878e+08,0,27,190,361,43,-7,144,0,0,0,1,1.1878e+08
1.6163e+05,1.1889e+08,0,28,189,362,43,-7,144,0,0,0,1,1.1889e+08
1.6201e+05,1.1899e+08,0,24,190,359,43,-7,144,0,0,0,1,1.1899e+08
1.6242e+05,1.1909e+08,0,28,194,360,43,-7,144,0,0,0,1,1.1909e+08
1.6284e+05,1.1919e+08,0,36,189,356,43,-7,144,0,0,0,1,1.1919e+08
1.6324e+05,1.193e+08,0,30,192,358,43,-7,144,0,0,0,1,1.193e+08
1.6365e+05,1.194e+08,0,33,192,364,43,-7,144,0,0,0,1,1.194e+08
1.6406e+05,1.195e+08,0,26,187,363,43,-7,144,0,0,0,1,1.195e+08
1.6448e+05,1.1961e+08,0,26,191,365,43,-7,144,0,0,0,1,1.1961e+08
1.6488e+05,1.1971e+08,0,29,184,358,43,-7,144,0,0,0,1,1.1971e+08
1.6527e+05,1.1981e+08,0,25,193,361,43,-7,144,0,0,0,1,1.1981e+08
1.6568e+05,1.1991e+08,0,27,187,361,43,-7,144,0,0,0,1,1.1991e+08
1.6607e+05,1.2001e+08,0,26,187,365,43,-7,144,0,0,0,1,1.2001e+08
1.6648e+05,1.2012e+08,0,29,193,365,43,-7,144,0,0,0,1,1.2012e+08
1.6686e+05,1.2022e+08,0,26,192,366,43,-7,144,0,0,0,1,1.2022e+08
1.6727e+05,1.2032e+08,0,36,191,364,43,-7,144,0,0,0,1,1.2032e+08
1.6769e+05,1.2042e+08,0,26,192,362,43,-7,144,0,0,0,1,1.2042e+08
1.6807e+05,1.2052e+08,0,22,191,361,43,-7,144,0,0,0,1,1.2052e+08
1.6848e+05,1.2063e+08,0,28,190,358,43,-7,144,0,0,0,1,1.2063e+08
1.689e+05,1.2073e+08,0,28,191,363,43,-7,144,0,0,0,1,1.2073e+08
1.6931e+05,1.2083e+08,0,27,192,359,43,-7,144,0,0,0,1,1.2083e+08
1.6972e+05,1.2093e+08,0,31,193,362,43,-7,144,0,0,0,1,1.2093e+08
1.7013e+05,1.2103e+08,0,28,192,357,43,-7,144,0,0,0,1,1.2103e+08
1.7054e+05,1.2114e+08,0,31,191,360,43,-7,144,0,0,0,1,1.2114e+08
1.7093e+05,1.2124e+08,0,31,190,359,43,-7,144,0,0,0,1,1.2124e+08
1.7134e+05,1.2134e+08,0,26,191,359,43,-7,144,0,0,0,1,1.2134e+08
1.7175e+05,1.2144e+08,0,29,191,359,43,-7,144,0,0,0,1,1.2144e+08
1.7215e+05,1.2154e+08,0,29,191,361,43,-7,144,0,0,0,1,1.2154e+08
1.7257e+05,1.2164e+08,0,29,189,356,43,-7,144,0,0,0,1,1.2164e+08
1.7295e+05,1.2175e+08,0,31,189,360,43,-7,144,0,0,0,1,1.2175e+08
1.7336e+05,1.2185e+08,0,27,193,354,43,-7,144,0,0,0,1,1.2185e+08
1.7377e+05,1.2195e+08,0,25,192,358,43,-7,144,0,0,0,1,1.2195e+08
1.7418e+05,1.2205e+08,0,29,194,356,43,-7,144,0,0,0,1,1.2205e+08
1.7459e+05,1.2215e+08,0,29,191,360,43,-7,144,0,0,0,1,1.2215e+08
1.75e+05,1.2226e+08,0,26,191,367,43,-7,144,0,0,0,1,1.2226e+08
1.7541e+05,1.2236e+08,0,34,188,359,43,-7,144,0,0,0,1,1.2236e+08
1.758e+05,1.2246e+08,0,27,189,366,43,-7,144,0,0,0,1,1.2246e+08
1.7621e+05,1.2256e+08,0,23,192,359,43,-7,144,0,0,0,1,1.2256e+08
1.7662e+05,1.2266e+08,0,27,192,362,43,-7,144,0,0,0,1,1.2266e+08
1.7703e+05,1.2277e+08,0,29,191,357,43,-7,144,0,0,0,1,1.2277e+08
1.7744e+05,1.2287e+08,0,31,189,362,43,-7,144,0,0,0,1,1.2287e+08
1.7786e+05,1.2297e+08,0,35,189,360,43,-7,144,0,0,0,1,1.2297e+08
1.7827e+05,1.2307e+08,0,29,196,363,43,-7,144,0,0,0,1,1.2307e+08
1.7868e+05,1.2317e+08,0,27,190,354,43,-7,144,0,0,0,1,1.2317e+08
1.7906e+05,1.2327e+08,0,30,193,354,43,-7,144,0,0,0,1,1.2327e+08
1.7948e+05,1.2338e+08,0,32,190,359,43,-7,144,0,0,0,1,1.2338e+08
1.7989e+05,1.2348e+08,0,26,186,362,43,-7,144,0,0,0,1,1.2348e+08
1.803e+05,1.2358e+08,0,26,194,356,43,-7,144,0,0,0,1,1.2358e+08
1.8071e+05,1.2368e+08,0,31,187,359,43,-7,144,0,0,0,1,1.2368e+08
1.8112e+05,1.2379e+08,0,28,194,362,43,-7,144,0,0,0,1,1.2379e+08
1.8153e+05,1.2389e+08,0,30,192,358,43,-7,144,0,0,0,1,1.2389e+08
1.8195e+05,1.2399e+08,0,34,188,357,43,-7,144,0,0,0,1,1.2399e+08
1.8236e+05,1.2409e+08,0,28,191,361,43,-7,144,0,0,0,1,1.2409e+08
1.8277e+05,1.242e+08,0,32,184,356,43,-7,144,0,0,0,1,1.242e+08
1.8318e+05,1.243e+08,0,28,191,357,43,-7,144,0,0,0,1,1.243e+08
1.8359e+05,1.244e+08,0,25,191,361,43,-7,144,0,0,0,1,1.244e+08
1.84e+05,1.2451e+08,0,25,191,359,43,-7,144,0,0,0,1,1.2451e+08
1.8442e+05,1.2461e+08,0,28,190,363,43,-7,144,0,0,0,1,1.2461e+08
1.848e+05,1.2471e+08,0,27,193,359,43,-7,144,0,0,0,1,1.2471e+08
1.8521e+05,1.2481e+08,0,26,189,362,43,-7,144,0,0,0,1,1.2481e+08
1.8562e+05,1.2491e+08,0,28,193,359,43,-7,144,0,0,0,1,1.2491e+08
1.8604e+05,1.2502e+08,0,28,187,363,43,-7,144,0,0,0,1,1.2502e+08
1.8644e+05,1.2512e+08,0,23,195,361,43,-7,144,0,0,0,1,1.2512e+08
1.8686e+05,1.2522e+08,0,31,190,358,43,-7,144,0,0,0,1,1.2522e+08
1.8724e+05,1.2532e+08,0,26,190,363,43,-7,144,0,0,0,1,1.2532e+08
1.8766e+05,1.2543e+08,0,29,194,359,43,-7,144,0,0,0,1,1.2543e+08
1.8807e+05,1.2553e+08,0,30,190,362,43,-7,144,0,0,0,1,1.2553e+08
1.8848e+05,1.2563e+08,0,27,193,361,43,-7,144,0,0,0,1,1.2563e+08
1.8886e+05,1.2573e+08,0,25,192,363,43,-7,144,0,0,0,1,1.2573e+08
1.8928e+05,1.2583e+08,0,26,190,360,43,-7,144,0,0,0,1,1.2583e+08
1.8969e+05,1.2594e+08,0,31,188,361,43,-7,144,0,0,0,1,1.2594e+08
1.901e+05,1.2604e+08,0,30,191,359,43,-7,144,0,0,0,1,1.2604e+08
1.9051e+05,1.2614e+08,0,33,188,361,43,-7,144,0,0,0,1,1.2614e+08
1.9092e+05,1.2625e+08,0,29,190,364,43,-7,144,0,0,0,1,1.2625e+08
1.9134e+05,1.2635e+08,0,26,194,358,43,-7,144,0,0,0,1,1.2635e+08
1.9174e+05,1.2645e+08,0,25,188,358,43,-7,144,0,0,0,1,1.2645e+08
1.9216e+05,1.2655e+08,0,30,192,361,43,-7,144,0,0,0,1,1.2655e+08
1.9254e+05,1.2665e+08,0,28,192,357,43,-7,144,0,0,0,1,1.2665e+08
1.9295e+05,1.2676e+08,0,32,195,359,43,-7,144,0,0,0,1,1.2676e+08
1.9368e+05,1.2696e+08,0,31,191,363,43,-7,144,0,0,0,1,1.2696e+08
1.9409e+05,1.2706e+08,0,31,193,361,43,-7,144,0,0,0,1,1.2706e+08
1.9451e+05,1.2717e+08,0,31,191,358,43,-7,144,0,0,0,1,1.2717e+08
1.9488e+05,1.2727e+08,0,29,190,362,43,-7,144,0,0,0,1,1.2727e+08
1.953e+05,1.2737e+08,0,30,192,362,43,-7,144,0,0,0,1,1.2737e+08
1.9571e+05,1.2747e+08,0,31,190,364,43,-7,144,0,0,0,1,1.2747e+08
1.9612e+05,1.2757e+08,0,28,194,359,43,-7,144,0,0,0,1,1.2757e+08
1.9653e+05,1.2768e+08,0,29,198,356,43,-7,144,0,0,0,1,1.2768e+08
1.9692e+05,1.2778e+08,0,30,192,359,43,-7,144,0,0,0,1,1.2778e+08
1.9733e+05,1.2788e+08,0,32,190,364,43,-7,144,0,0,0,1,1.2788e+08
1.9774e+05,1.2798e+08,0,33,191,358,43,-7,144,0,0,0,1,1.2798e+08
1.9815e+05,1.2809e+08,0,27,187,365,43,-7,144,0,0,0,1,1.2809e+08
1.9882e+05,1.7398e+08,0,182,-45,347,43,-7,144,0,0,0,1,1.7398e+08
1.9924e+05,1.7408e+08,0,186,-49,340,43,-7,144,0,0,0,1,1.7408e+08
1.9969e+05,1.7418e+08,0,187,-46,339,43,-7,144,0,0,0,1,1.7418e+08
2.001e+05,1.7428e+08,0,187,-46,346,43,-7,144,0,0,0,1,1.7428e+08
2.0056e+05,1.7438e+08,0,187,-50,340,43,-7,144,0,0,0,1,1.7438e+08
2.0101e+05,1.7448e+08,0,185,-47,344,43,-7,144,0,0,0,1,1.7448e+08
2.0146e+05,1.7459e+08,0,184,-47,341,43,-7,144,0,0,0,1,1.7459e+08
2.0191e+05,1.7469e+08,0,184,-45,344,43,-7,144,0,0,0,1,1.7469e+08
2.0233e+05,1.7479e+08,0,188,-45,344,43,-7,144,0,0,0,1,1.7479e+08
2.0278e+05,1.7489e+08,0,183,-45,343,43,-7,144,0,0,0,1,1.7489e+08
2.032e+05,1.7499e+08,0,185,-44,338,43,-7,144,0,0,0,1,1.7499e+08
2.0365e+05,1.751e+08,0,185,-49,339,43,-7,144,0,0,0,1,1.751e+08
2.0407e+05,1.752e+08,0,191,-45,340,43,-7,144,0,0,0,1,1.752e+08
2.0452e+05,1.753e+08,0,185,-46,347,43,-7,144,0,0,0,1,1.753e+08
2.0497e+05,1.754e+08,0,188,-51,348,43,-7,144,0,0,0,1,1.754e+08
2.0542e+05,1.755e+08,0,188,-52,344,43,-7,144,0,0,0,1,1.755e+08
2.0587e+05,1.7561e+08,0,188,-54,345,43,-7,144,0,0,0,1,1.7561e+08
2.0629e+05,1.7571e+08,0,188,-49,340,43,-7,144,0,0,0,1,1.7571e+08
2.0674e+05,1.7581e+08,0,189,-49,342,43,-7,144,0,0,0,1,1.7581e+08
2.0719e+05,1.7591e+08,0,185,-45,340,43,-7,144,0,0,0,1,1.7591e+08
2.0765e+05,1.7601e+08,0,186,-50,343,43,-7,144,0,0,0,1,1.7601e+08
2.081e+05,1.7611e+08,0,184,-50,343,43,-7,144,0,0,0,1,1.7611e+08
2.0855e+05,1.7621e+08,0,187,-46,343,43,-7,144,0,0,0,1,1.7621e+08
2.0896e+05,1.7632e+08,0,186,-52,344,43,-7,144,0,0,0,1,1.7632e+08
2.0941e+05,1.7642e+08,0,187,-47,345,43,-7,144,0,0,0,1,1.7642e+08
2.0971e+05,1.7652e+08,0,187,-51,345,43,-7,144,0,0,0,1,1.7652e+08
2.1016e+05,1.7662e+08,0,186,-46,341,43,-7,144,0,0,0,1,1.7662e+08
2.1061e+05,1.7672e+08,0,190,-50,346,43,-7,144,0,0,0,1,1.7672e+08
2.1104e+05,1.7683e+08,0,187,-44,346,43,-7,144,0,0,0,1,1.7683e+08
2.1149e+05,1.7693e+08,0,183,-41,348,43,-7,144,0,0,0,1,1.7693e+08
2.1194e+05,1.7703e+08,0,181,-47,341,43,-7,144,0,0,0,1,1.7703e+08
2.1239e+05,1.7713e+08,0,190,-46,342,43,-7,144,0,0,0,1,1.7713e+08
2.1284e+05,1.7723e+08,0,183,-47,338,43,-7,144,0,0,0,1,1.7723e+08
2.1329e+05,1.7733e+08,0,186,-45,342,43,-7,144,0,0,0,1,1.7733e+08
2.1371e+05,1.7744e+08,0,184,-47,349,43,-7,144,0,0,0,1,1.7744e+08
2.1416e+05,1.7754e+08,0,179,-45,340,43,-7,144,0,0,0,1,1.7754e+08
2.1462e+05,1.7764e+08,0,192,-51,345,43,-7,144,0,0,0,1,1.7764e+08
2.1504e+05,1.7774e+08,0,186,-50,339,43,-7,144,0,0,0,1,1.7774e+08
2.1549e+05,1.7784e+08,0,184,-51,346,43,-7,144,0,0,0,1,1.7784e+08
2.1594e+05,1.7795e+08,0,185,-52,348,43,-7,144,0,0,0,1,1.7795e+08
2.164e+05,1.7805e+08,0,188,-46,343,43,-7,144,0,0,0,1,1.7805e+08
2.1685e+05,1.7815e+08,0,188,-45,340,43,-7,144,0,0,0,1,1.7815e+08
2.173e+05,1.7826e+08,0,180,-46,344,43,-7,144,0,0,0,1,1.7826e+08
2.1776e+05,1.7836e+08,0,189,-49,343,43,-7,144,0,0,0,1,1.7836e+08
2.1821e+05,1.7846e+08,0,187,-46,340,43,-7,144,0,0,0,1,1.7846e+08
2.1866e+05,1.7857e+08,0,188,-48,343,43,-7,144,0,0,0,1,1.7857e+08
2.1911e+05,1.7867e+08,0,184,-50,345,43,-7,144,0,0,0,1,1.7867e+08
2.1956e+05,1.7877e+08,0,180,-47,347,43,-7,144,0,0,0,1,1.7877e+08
2.2001e+05,1.7887e+08,0,184,-49,338,43,-7,144,0,0,0,1,1.7887e+08
2.2043e+05,1.7898e+08,0,186,-45,345,43,-7,144,0,0,0,1,1.7898e+08
2.2087e+05,1.7908e+08,0,189,-48,343,43,-7,144,0,0,0,1,1.7908e+08
2.2133e+05,1.7918e+08,0,186,-47,343,43,-7,144,0,0,0,1,1.7918e+08
2.2177e+05,1.7928e+08,0,184,-48,340,43,-7,144,0,0,0,1,1.7928e+08
2.2223e+05,1.7938e+08,0,186,-45,344,43,-7,144,0,0,0,1,1.7938e+08
2.2264e+05,1.7949e+08,0,189,-46,340,43,-7,144,0,0,0,1,1.7949e+08
2.2309e+05,1.7959e+08,0,188,-44,344,43,-7,144,0,0,0,1,1.7959e+08
2.2354e+05,1.7969e+08,0,185,-48,340,43,-7,144,0,0,0,1,1.7969e+08
2.2399e+05,1.7979e+08,0,186,-48,345,43,-7,144,0,0,0,1,1.7979e+08
2.2441e+05,1.799e+08,0,186,-51,340,43,-7,144,0,0,0,1,1.799e+08
2.2486e+05,1.8e+08,0,182,-45,338,43,-7,144,0,0,0,1,1.8e+08
2.2531e+05,1.801e+08,0,183,-46,339,43,-7,144,0,0,0,1,1.801e+08
2.2576e+05,1.802e+08,0,189,-48,342,43,-7,144,0,0,0,1,1.802e+08
2.2617e+05,1.8031e+08,0,188,-46,342,43,-7,144,0,0,0,1,1.8031e+08
2.2663e+05,1.8041e+08,0,182,-46,347,43,-7,144,0,0,0,1,1.8041e+08
2.2705e+05,1.8051e+08,0,187,-42,338,43,-7,144,0,0,0,1,1.8051e+08
2.275e+05,1.8061e+08,0,184,-47,336,43,-7,144,0,0,0,1,1.8061e+08
2.2795e+05,1.8071e+08,0,183,-50,343,43,-7,144,0,0,0,1,1.8071e+08
2.284e+05,1.8082e+08,0,182,-44,341,43,-7,144,0,0,0,1,1.8082e+08
2.2882e+05,1.8092e+08,0,183,-44,340,43,-7,144,0,0,0,1,1.8092e+08
2.2928e+05,1.8103e+08,0,185,-47,340,43,-7,144,0,0,0,1,1.8103e+08
2.2972e+05,1.8113e+08,0,186,-50,340,43,-7,144,0,0,0,1,1.8113e+08
2.3015e+05,1.8123e+08,0,185,-48,344,43,-7,144,0,0,0,1,1.8123e+08
2.306e+05,1.8134e+08,0,182,-51,338,43,-7,144,0,0,0,1,1.8134e+08
2.3105e+05,1.8144e+08,0,184,-48,346,43,-7,144,0,0,0,1,1.8144e+08
2.315e+05,1.8155e+08,0,181,-47,341,43,-7,144,0,0,0,1,1.8155e+08
2.3191e+05,1.8165e+08,0,185,-47,342,43,-7,144,0,0,0,1,1.8165e+08
2.3237e+05,1.8175e+08,0,182,-48,344,43,-7,144,0,0,0,1,1.8175e+08
2.3282e+05,1.8186e+08,0,190,-51,342,43,-7,144,0,0,0,1,1.8186e+08
2.3324e+05,1.8196e+08,0,184,-47,342,43,-7,144,0,0,0,1,1.8196e+08
2.3369e+05,1.8206e+08,0,187,-46,343,43,-7,144,0,0,0,1,1.8206e+08
2.3414e+05,1.8217e+08,0,185,-45,343,43,-7,144,0,0,0,1,1.8217e+08
2.3459e+05,1.8227e+08,0,185,-42,344,43,-7,144,0,0,0,1,1.8227e+08
2.3504e+05,1.8237e+08,0,182,-46,343,43,-7,144,0,0,0,1,1.8237e+08
2.355e+05,1.8248e+08,0,188,-46,342,43,-7,144,0,0,0,1,1.8248e+08
2.3595e+05,1.8258e+08,0,191,-47,338,43,-7,144,0,0,0,1,1.8258e+08
2.3639e+05,1.8268e+08,0,184,-42,344,43,-7,144,0,0,0,1,1.8268e+08
2.3685e+05,1.8279e+08,0,188,-50,343,43,-7,144,0,0,0,1,1.8279e+08
2.373e+05,1.8289e+08,0,183,-47,344,43,-7,144,0,0,0,1,1.8289e+08
2.3775e+05,1.8299e+08,0,189,-47,342,43,-7,144,0,0,0,1,1.8299e+08
2.3817e+05,1.831e+08,0,186,-47,341,43,-7,144,0,0,0,1,1.831e+08
2.3862e+05,1.832e+08,0,181,-45,343,43,-7,144,0,0,0,1,1.832e+08
2.3907e+05,1.8331e+08,0,185,-46,340,43,-7,144,0,0,0,1,1.8331e+08
2.3952e+05,1.8341e+08,0,189,-49,340,43,-7,144,0,0,0,1,1.8341e+08
2.3997e+05,1.8351e+08,0,185,-45,343,43,-7,144,0,0,0,1,1.8351e+08
2.4042e+05,1.8362e+08,0,184,-49,340,43,-7,144,0,0,0,1,1.8362e+08
2.4087e+05,1.8372e+08,0,186,-49,344,43,-7,144,0,0,0,1,1.8372e+08
2.4132e+05,1.8382e+08,0,184,-45,337,43,-7,144,0,0,0,1,1.8382e+08
2.4174e+05,1.8393e+08,0,186,-47,344,43,-7,144,0,0,0,1,1.8393e+08
2.422e+05,1.8403e+08,0,182,-46,341,43,-7,144,0,0,0,1,1.8403e+08
2.4265e+05,1.8414e+08,0,184,-48,340,43,-7,144,0,0,0,1,1.8414e+08
2.431e+05,1.8424e+08,0,183,-46,341,43,-7,144,0,0,0,1,1.8424e+08
2.4355e+05,1.8435e+08,0,179,-43,340,43,-7,144,0,0,0,1,1.8435e+08
2.4396e+05,1.8446e+08,0,189,-47,341,43,-7,144,0,0,0,1,1.8446e+08
2.4442e+05,1.8456e+08,0,189,-48,342,43,-7,144,0,0,0,1,1.8456e+08
2.4486e+05,1.8467e+08,0,187,-48,342,43,-7,144,0,0,0,1,1.8467e+08
2.4532e+05,1.8477e+08,0,185,-51,342,43,-7,144,0,0,0,1,1.8477e+08
2.4577e+05,1.8488e+08,0,184,-46,347,43,-7,144,0,0,0,1,1.8488e+08
2.4622e+05,1.8499e+08,0,188,-46,343,43,-7,144,0,0,0,1,1.8499e+08
2.4667e+05,1.8509e+08,0,186,-49,347,43,-7,144,0,0,0,1,1.8509e+08
2.4713e+05,1.852e+08,0,181,-48,339,43,-7,144,0,0,0,1,1.852e+08
2.4754e+05,1.853e+08,0,184,-46,344,43,-7,144,0,0,0,1,1.853e+08
2.48e+05,1.854e+08,0,184,-49,347,43,-7,144,0,0,0,1,1.854e+08
2.4841e+05,1.8551e+08,0,182,-44,343,43,-7,144,0,0,0,1,1.8551e+08
2.4887e+05,1.8562e+08,0,188,-49,342,43,-7,144,0,0,0,1,1.8562e+08
2.4931e+05,1.8572e+08,0,186,-47,345,43,-7,144,0,0,0,1,1.8572e+08
2.4974e+05,1.8583e+08,0,184,-44,345,43,-7,144,0,0,0,1,1.8583e+08
2.5019e+05,1.8593e+08,0,187,-42,340,43,-7,144,0,0,0,1,1.8593e+08
2.5064e+05,1.8603e+08,0,187,-47,340,43,-7,144,0,0,0,1,1.8603e+08
2.5109e+05,1.8614e+08,0,186,-45,347,43,-7,144,0,0,0,1,1.8614e+08
2.5154e+05,1.8625e+08,0,185,-45,343,43,-7,144,0,0,0,1,1.8625e+08
2.5199e+05,1.8636e+08,0,185,-48,342,43,-7,144,0,0,0,1,1.8636e+08
2.5244e+05,1.8646e+08,0,187,-52,341,43,-7,144,0,0,0,1,1.8646e+08
2.5289e+05,1.8656e+08,0,188,-45,344,43,-7,144,0,0,0,1,1.8656e+08
2.5331e+05,1.8667e+08,0,186,-46,346,43,-7,144,0,0,0,1,1.8667e+08
2.5376e+05,1.8677e+08,0,181,-50,341,43,-7,144,0,0,0,1,1.8677e+08
2.5421e+05,1.8688e+08,0,189,-48,339,43,-7,144,0,0,0,1,1.8688e+08
2.5466e+05,1.8699e+08,0,185,-48,340,43,-7,144,0,0,0,1,1.8699e+08
2.5508e+05,1.8709e+08,0,187,-49,343,43,-7,144,0,0,0,1,1.8709e+08
2.5554e+05,1.872e+08,0,185,-47,344,43,-7,144,0,0,0,1,1.872e+08
2.5599e+05,1.873e+08,0,180,-42,343,43,-7,144,0,0,0,1,1.873e+08
2.5644e+05,1.874e+08,0,185,-43,341,43,-7,144,0,0,0,1,1.874e+08
2.5689e+05,1.8751e+08,0,182,-48,345,43,-7,144,0,0,0,1,1.8751e+08
2.5734e+05,1.8761e+08,0,186,-45,343,43,-7,144,0,0,0,1,1.8761e+08
2.5776e+05,1.8771e+08,0,185,-48,346,43,-7,144,0,0,0,1,1.8771e+08
2.5821e+05,1.8782e+08,0,185,-48,342,43,-7,144,0,0,0,1,1.8782e+08
2.5866e+05,1.8792e+08,0,187,-43,342,43,-7,144,0,0,0,1,1.8792e+08
2.5908e+05,1.8802e+08,0,187,-45,344,43,-7,144,0,0,0,1,1.8802e+08
2.5953e+05,1.8813e+08,0,185,-46,345,43,-7,144,0,0,0,1,1.8813e+08
2.5995e+05,1.8823e+08,0,186,-50,341,43,-7,144,0,0,0,1,1.8823e+08
2.604e+05,1.8833e+08,0,184,-54,339,43,-7,144,0,0,0,1,1.8833e+08
2.6086e+05,1.8844e+08,0,185,-49,348,43,-7,144,0,0,0,1,1.8844e+08
2.613e+05,1.8854e+08,0,184,-41,343,43,-7,144,0,0,0,1,1.8854e+08
2.6175e+05,1.8864e+08,0,185,-48,337,43,-7,144,0,0,0,1,1.8864e+08
2.6217e+05,1.8874e+08,0,186,-48,338,43,-7,144,0,0,0,1,1.8874e+08
2.6262e+05,1.8884e+08,0,186,-43,343,43,-7,144,0,0,0,1,1.8884e+08
2.6308e+05,1.8895e+08,0,184,-45,341,43,-7,144,0,0,0,1,1.8895e+08
2.6352e+05,1.8905e+08,0,184,-45,342,43,-7,144,0,0,0,1,1.8905e+08
2.6398e+05,1.8916e+08,0,188,-44,346,43,-7,144,0,0,0,1,1.8916e+08
2.6443e+05,1.8926e+08,0,185,-51,344,43,-7,144,0,0,0,1,1.8926e+08
2.6485e+05,1.8936e+08,0,184,-47,344,43,-7,144,0,0,0,1,1.8936e+08
2.653e+05,1.8947e+08,0,187,-44,346,43,-7,144,0,0,0,1,1.8947e+08
2.6575e+05,1.8957e+08,0,184,-46,342,43,-7,144,0,0,0,1,1.8957e+08
2.662e+05,1.8967e+08,0,185,-47,345,43,-7,144,0,0,0,1,1.8967e+08
2.6665e+05,1.8978e+08,0,189,-46,344,43,-7,144,0,0,0,1,1.8978e+08
2.671e+05,1.8988e+08,0,185,-51,344,43,-7,144,0,0,0,1,1.8988e+08
2.6755e+05,1.8998e+08,0,190,-48,349,43,-7,144,0,0,0,1,1.8998e+08
2.68e+05,1.9009e+08,0,183,-46,345,43,-7,144,0,0,0,1,1.9009e+08
2.6845e+05,1.9019e+08,0,191,-48,338,43,-7,144,0,0,0,1,1.9019e+08
2.6887e+05,1.9029e+08,0,188,-50,342,43,-7,144,0,0,0,1,1.9029e+08
2.691e+05,1.9039e+08,0,186,-46,344,43,-7,144,0,0,0,1,1.9039e+08
2.6955e+05,1.905e+08,0,185,-45,341,43,-7,144,0,0,0,1,1.905e+08
2.7e+05,1.906e+08,0,187,-46,344,43,-7,144,0,0,0,1,1.906e+08
2.7045e+05,1.9071e+08,0,186,-47,346,43,-7,144,0,0,0,1,1.9071e+08
2.7091e+05,1.9081e+08,0,183,-42,344,43,-7,144,0,0,0,1,1.9081e+08
2.7136e+05,1.9091e+08,0,184,-44,341,43,-7,144,0,0,0,1,1.9091e+08
2.7181e+05,1.9102e+08,0,188,-45,341,43,-7,144,0,0,0,1,1.9102e+08
2.7222e+05,1.9112e+08,0,183,-44,343,43,-7,144,0,0,0,1,1.9112e+08
2.7268e+05,1.9122e+08,0,185,-44,343,43,-7,144,0,0,0,1,1.9122e+08
2.7313e+05,1.9133e+08,0,190,-43,341,43,-7,144,0,0,0,1,1.9133e+08
2.7358e+05,1.9143e+08,0,186,-49,341,43,-7,144,0,0,0,1,1.9143e+08
2.74e+05,1.9153e+08,0,186,-51,341,43,-7,144,0,0,0,1,1.9153e+08
2.7445e+05,1.9163e+08,0,184,-49,343,43,-7,144,0,0,0,1,1.9163e+08
2.749e+05,1.9174e+08,0,186,-49,348,43,-7,144,0,0,0,1,1.9174e+08
2.7532e+05,1.9184e+08,0,186,-50,345,43,-7,144,0,0,0,1,1.9184e+08
2.7577e+05,1.9194e+08,0,182,-45,348,43,-7,144,0,0,0,1,1.9194e+08
2.7622e+05,1.9204e+08,0,183,-43,341,43,-7,144,0,0,0,1,1.9204e+08
2.7667e+05,1.9215e+08,0,180,-44,345,43,-7,144,0,0,0,1,1.9215e+08
2.7708e+05,1.9226e+08,0,184,-50,344,43,-7,144,0,0,0,1,1.9226e+08
2.7754e+05,1.9236e+08,0,187,-46,342,43,-7,144,0,0,0,1,1.9236e+08
2.7798e+05,1.9246e+08,0,184,-48,346,43,-7,144,0,0,0,1,1.9246e+08
2.7844e+05,1.9257e+08,0,181,-42,345,43,-7,144,0,0,0,1,1.9257e+08
2.7889e+05,1.9268e+08,0,185,-48,349,43,-7,144,0,0,0,1,1.9268e+08
2.7934e+05,1.9278e+08,0,182,-52,348,43,-7,144,0,0,0,1,1.9278e+08
2.7976e+05,1.9289e+08,0,182,-54,342,43,-7,144,0,0,0,1,1.9289e+08
2.8021e+05,1.9299e+08,0,178,-52,346,43,-7,144,0,0,0,1,1.9299e+08
2.8066e+05,1.931e+08,0,178,-57,345,43,-7,144,0,0,0,1,1.931e+08
2.8111e+05,1.9321e+08,0,174,-67,350,43,-7,144,0,0,0,1,1.9321e+08
2.8152e+05,1.9331e+08,0,173,-65,348,43,-7,144,0,0,0,1,1.9331e+08
2.8198e+05,1.9341e+08,0,173,-74,344,43,-7,144,0,0,0,1,1.9341e+08
2.8243e+05,1.9352e+08,0,175,-75,347,43,-7,144,0,0,0,1,1.9352e+08
2.8288e+05,1.9363e+08,0,178,-83,342,43,-7,144,0,0,0,1,1.9363e+08
2.8333e+05,1.9373e+08,0,182,-90,339,43,-7,144,0,0,0,1,1.9373e+08
2.8378e+05,1.9384e+08,0,182,-95,342,43,-7,144,0,0,0,1,1.9384e+08
2.8419e+05,1.9395e+08,0,175,-94,345,43,-7,144,0,0,0,1,1.9395e+08
2.8464e+05,1.9405e+08,0,175,-96,340,43,-7,144,0,0,0,1,1.9405e+08
2.8509e+05,1.9416e+08,0,174,-84,347,43,-7,144,0,0,0,1,1.9416e+08
2.8554e+05,1.9426e+08,0,173,-84,343,43,-7,144,0,0,0,1,1.9426e+08
2.86e+05,1.9437e+08,0,171,-89,343,43,-7,144,0,0,0,1,1.9437e+08
2.8645e+05,1.9448e+08,0,170,-93,338,43,-7,144,0,0,0,1,1.9448e+08
2.8686e+05,1.9458e+08,0,176,-91,342,43,-7,144,0,0,0,1,1.9458e+08
2.8731e+05,1.9469e+08,0,178,-89,340,43,-7,144,0,0,0,1,1.9469e+08
2.8776e+05,1.948e+08,0,177,-92,338,43,-7,144,0,0,0,1,1.948e+08
2.8818e+05,1.9491e+08,0,176,-89,342,43,-7,144,0,0,0,1,1.9491e+08
2.8863e+05,1.9501e+08,0,172,-92,343,43,-7,144,0,0,0,1,1.9501e+08
2.8908e+05,1.9512e+08,0,174,-96,339,43,-7,144,0,0,0,1,1.9512e+08
2.8953e+05,1.9523e+08,0,172,-95,346,43,-7,144,0,0,0,1,1.9523e+08
2.8998e+05,1.9533e+08,0,174,-90,344,43,-7,144,0,0,0,1,1.9533e+08
2.9044e+05,1.9544e+08,0,173,-91,341,43,-7,144,0,0,0,1,1.9544e+08
2.9085e+05,1.9555e+08,0,171,-92,344,43,-7,144,0,0,0,1,1.9555e+08
2.913e+05,1.9566e+08,0,172,-88,342,43,-7,144,0,0,0,1,1.9566e+08
2.9175e+05,1.9576e+08,0,175,-92,337,43,-7,144,0,0,0,1,1.9576e+08
2.922e+05,1.9587e+08,0,170,-90,345,43,-7,144,0,0,0,1,1.9587e+08
2.9266e+05,1.9598e+08,0,170,-92,343,43,-7,144,0,0,0,1,1.9598e+08
2.931e+05,1.9609e+08,0,169,-81,346,43,-7,144,0,0,0,1,1.9609e+08
2.9355e+05,1.9619e+08,0,171,-76,345,43,-7,144,0,0,0,1,1.9619e+08
2.94e+05,1.963e+08,0,167,-75,352,43,-7,144,0,0,0,1,1.963e+08
2.9446e+05,1.964e+08,0,168,-76,351,43,-7,144,0,0,0,1,1.964e+08
2.949e+05,1.9651e+08,0,165,-72,345,43,-7,144,0,0,0,1,1.9651e+08
2.9535e+05,1.9662e+08,0,165,-83,345,43,-7,144,0,0,0,1,1.9662e+08
2.958e+05,1.9672e+08,0,172,-78,350,43,-7,144,0,0,0,1,1.9672e+08
2.9625e+05,1.9683e+08,0,171,-86,347,43,-7,144,0,0,0,1,1.9683e+08
2.9669e+05,1.9694e+08,0,164,-83,344,43,-7,144,0,0,0,1,1.9694e+08
2.971e+05,1.9705e+08,0,160,-89,344,43,-7,144,0,0,0,1,1.9705e+08
2.9754e+05,1.9716e+08,0,165,-86,344,43,-7,144,0,0,0,1,1.9716e+08
2.9799e+05,1.9727e+08,0,165,-89,348,43,-7,144,0,0,0,1,1.9727e+08
2.9844e+05,1.9738e+08,0,163,-89,347,43,-7,144,0,0,0,1,1.9738e+08
2.9885e+05,1.9749e+08,0,167,-89,345,43,-7,144,0,0,0,1,1.9749e+08
2.9929e+05,1.9759e+08,0,161,-89,350,43,-7,144,0,0,0,1,1.9759e+08
2.9973e+05,1.977e+08,0,156,-88,348,43,-7,144,0,0,0,1,1.977e+08
3.0018e+05,1.9781e+08,0,149,-84,354,43,-7,144,0,0,0,1,1.9781e+08
3.0062e+05,1.9792e+08,0,144,-81,361,43,-7,144,0,0,0,1,1.9792e+08
3.0107e+05,1.9803e+08,0,139,-79,365,43,-7,144,0,0,0,1,1.9803e+08
3.0148e+05,1.9814e+08,0,139,-80,361,43,-7,144,0,0,0,1,1.9814e+08
3.0192e+05,1.9824e+08,0,142,-76,365,43,-7,144,0,0,0,1,1.9824e+08
3.0237e+05,1.9835e+08,0,140,-75,365,43,-7,144,0,0,0,1,1.9835e+08
3.0279e+05,1.9846e+08,0,144,-73,361,43,-7,144,0,0,0,1,1.9846e+08
3.0323e+05,1.9857e+08,0,146,-75,364,43,-7,144,0,0,0,1,1.9857e+08
3.0367e+05,1.9867e+08,0,149,-80,363,43,-7,144,0,0,0,1,1.9867e+08
3.0412e+05,1.9878e+08,0,144,-85,364,43,-7,144,0,0,0,1,1.9878e+08
3.0456e+05,1.9889e+08,0,146,-88,361,43,-7,144,0,0,0,1,1.9889e+08
3.0497e+05,1.99e+08,0,143,-90,354,43,-7,144,0,0,0,1,1.99e+08
3.0541e+05,1.9911e+08,0,151,-91,349,43,-7,144,0,0,0,1,1.9911e+08
3.0586e+05,1.9922e+08,0,157,-97,347,43,-7,144,0,0,0,1,1.9922e+08
3.063e+05,1.9932e+08,0,159,-99,343,43,-7,144,0,0,0,1,1.9932e+08
3.0672e+05,1.9943e+08,0,163,-108,337,43,-7,144,0,0,0,1,1.9943e+08
3.0716e+05,1.9954e+08,0,161,-112,337,43,-7,144,0,0,0,1,1.9954e+08
3.0761e+05,1.9965e+08,0,161,-111,347,43,-7,144,0,0,0,1,1.9965e+08
3.0805e+05,1.9975e+08,0,158,-108,347,43,-7,144,0,0,0,1,1.9975e+08
3.0847e+05,1.9986e+08,0,164,-103,347,43,-7,144,0,0,0,1,1.9986e+08
3.0888e+05,1.9997e+08,0,160,-103,348,43,-7,144,0,0,0,1,1.9997e+08
3.0933e+05,2.0008e+08,0,157,-102,346,43,-7,144,0,0,0,1,2.0008e+08
3.0977e+05,2.0019e+08,0,152,-103,351,43,-7,144,0,0,0,1,2.0019e+08
3.1022e+05,2.003e+08,0,157,-101,348,43,-7,144,0,0,0,1,2.003e+08
3.1066e+05,2.0041e+08,0,158,-105,348,43,-7,144,0,0,0,1,2.0041e+08
3.111e+05,2.0051e+08,0,152,-107,348,43,-7,144,0,0,0,1,2.0051e+08
3.1155e+05,2.0062e+08,0,149,-112,351,43,-7,144,0,0,0,1,2.0062e+08
3.1199e+05,2.0073e+08,0,149,-110,350,43,-7,144,0,0,0,1,2.0073e+08
3.1244e+05,2.0084e+08,0,144,-109,353,43,-7,144,0,0,0,1,2.0084e+08
3.1285e+05,2.0094e+08,0,144,-106,352,43,-7,144,0,0,0,1,2.0094e+08
3.1329e+05,2.0105e+08,0,142,-104,355,43,-7,144,0,0,0,1,2.0105e+08
3.1374e+05,2.0116e+08,0,143,-105,352,43,-7,144,0,0,0,1,2.0116e+08
3.1418e+05,2.0127e+08,0,149,-104,350,43,-7,144,0,0,0,1,2.0127e+08
3.146e+05,2.0138e+08,0,150,-104,348,43,-7,144,0,0,0,1,2.0138e+08
3.1504e+05,2.0149e+08,0,152,-108,347,43,-7,144,0,0,0,1,2.0149e+08
3.1548e+05,2.0159e+08,0,156,-105,343,43,-7,144,0,0,0,1,2.0159e+08
3.1592e+05,2.017e+08,0,158,-96,346,43,-7,144,0,0,0,1,2.017e+08
3.1637e+05,2.0181e+08,0,154,-90,351,43,-7,144,0,0,0,1,2.0181e+08
3.1681e+05,2.0192e+08,0,155,-90,351,43,-7,144,0,0,0,1,2.0192e+08
3.1726e+05,2.0203e+08,0,168,-98,347,43,-7,144,0,0,0,1,2.0203e+08
3.1767e+05,2.0213e+08,0,164,-91,345,43,-7,144,0,0,0,1,2.0213e+08
3.1811e+05,2.0224e+08,0,170,-90,342,43,-7,144,0,0,0,1,2.0224e+08
3.1856e+05,2.0235e+08,0,164,-89,347,43,-7,144,0,0,0,1,2.0235e+08
3.19e+05,2.0246e+08,0,167,-96,348,43,-7,144,0,0,0,1,2.0246e+08
3.1945e+05,2.0257e+08,0,160,-93,349,43,-7,144,0,0,0,1,2.0257e+08
3.1986e+05,2.0267e+08,0,158,-92,353,43,-7,144,0,0,0,1,2.0267e+08
3.2027e+05,2.0278e+08,0,155,-88,354,43,-7,144,0,0,0,1,2.0278e+08
3.2072e+05,2.0289e+08,0,155,-85,355,43,-7,144,0,0,0,1,2.0289e+08
3.2116e+05,2.03e+08,0,162,-90,350,43,-7,144,0,0,0,1,2.03e+08
3.216e+05,2.031e+08,0,166,-97,352,43,-7,144,0,0,0,1,2.031e+08
3.2205e+05,2.0321e+08,0,177,-95,337,43,-7,144,0,0,0,1,2.0321e+08
3.2249e+05,2.0332e+08,0,182,-91,340,43,-7,144,0,0,0,1,2.0332e+08
3.2294e+05,2.0343e+08,0,168,-88,348,43,-7,144,0,0,0,1,2.0343e+08
3.2338e+05,2.0354e+08,0,154,-85,356,43,-7,144,0,0,0,1,2.0354e+08
3.2383e+05,2.0364e+08,0,147,-97,360,43,-7,144,0,0,0,1,2.0364e+08
3.2427e+05,2.0375e+08,0,142,-93,355,43,-7,144,0,0,0,1,2.0375e+08
3.2472e+05,2.0386e+08,0,152,-100,353,43,-7,144,0,0,0,1,2.0386e+08
3.2516e+05,2.0397e+08,0,157,-106,353,43,-7,144,0,0,0,1,2.0397e+08
3.2557e+05,2.0408e+08,0,151,-115,347,43,-7,144,0,0,0,1,2.0408e+08
3.2602e+05,2.0419e+08,0,153,-121,343,43,-7,144,0,0,0,1,2.0419e+08
3.2647e+05,2.043e+08,0,154,-125,343,43,-7,144,0,0,0,1,2.043e+08
3.2692e+05,2.044e+08,0,152,-122,346,43,-7,144,0,0,0,1,2.044e+08
3.2736e+05,2.0452e+08,0,156,-121,345,43,-7,144,0,0,0,1,2.0452e+08
3.278e+05,2.0462e+08,0,154,-116,346,43,-7,144,0,0,0,1,2.0462e+08
3.2825e+05,2.0473e+08,0,150,-107,350,43,-7,144,0,0,0,1,2.0473e+08
3.2866e+05,2.0484e+08,0,150,-103,353,43,-7,144,0,0,0,1,2.0484e+08
3.291e+05,2.0495e+08,0,160,-102,352,43,-7,144,0,0,0,1,2.0495e+08
3.2951e+05,2.0506e+08,0,157,-99,352,43,-7,144,0,0,0,1,2.0506e+08
3.2996e+05,2.0516e+08,0,159,-106,347,43,-7,144,0,0,0,1,2.0516e+08
3.3041e+05,2.0528e+08,0,151,-106,349,43,-7,144,0,0,0,1,2.0528e+08
3.3074e+05,2.0549e+08,0,144,-102,361,43,-7,144,0,0,0,1,2.0549e+08
3.3119e+05,2.056e+08,0,144,-102,363,43,-7,144,0,0,0,1,2.056e+08
3.3163e+05,2.057e+08,0,143,-106,359,43,-7,144,0,0,0,1,2.057e+08
3.3205e+05,2.0581e+08,0,148,-106,356,43,-7,144,0,0,0,1,2.0581e+08
3.3249e+05,2.0592e+08,0,159,-112,347,43,-7,144,0,0,0,1,2.0592e+08
3.3293e+05,2.0602e+08,0,165,-112,343,43,-7,144,0,0,0,1,2.0602e+08
3.3334e+05,2.0613e+08,0,173,-125,339,43,-7,144,0,0,0,1,2.0613e+08
3.3379e+05,2.0624e+08,0,171,-134,341,43,-7,144,0,0,0,1,2.0624e+08
3.3424e+05,2.0634e+08,0,171,-132,338,43,-7,144,0,0,0,1,2.0634e+08
3.3468e+05,2.0645e+08,0,172,-131,335,43,-7,144,0,0,0,1,2.0645e+08
3.3512e+05,2.0656e+08,0,169,-129,339,43,-7,144,0,0,0,1,2.0656e+08
3.3553e+05,2.0667e+08,0,165,-119,345,43,-7,144,0,0,0,1,2.0667e+08
3.3598e+05,2.0677e+08,0,165,-115,345,43,-7,144,0,0,0,1,2.0677e+08
3.3639e+05,2.0688e+08,0,166,-116,343,43,-7,144,0,0,0,1,2.0688e+08
3.3684e+05,2.0699e+08,0,169,-120,340,43,-7,144,0,0,0,1,2.0699e+08
3.3728e+05,2.071e+08,0,169,-121,337,43,-7,144,0,0,0,1,2.071e+08
3.3773e+05,2.0721e+08,0,177,-124,336,43,-7,144,0,0,0,1,2.0721e+08
3.3817e+05,2.0732e+08,0,180,-115,333,43,-7,144,0,0,0,1,2.0732e+08
3.3862e+05,2.0743e+08,0,184,-112,328,43,-7,144,0,0,0,1,2.0743e+08
3.3903e+05,2.0753e+08,0,180,-115,332,43,-7,144,0,0,0,1,2.0753e+08
3.3948e+05,2.0764e+08,0,177,-123,330,43,-7,144,0,0,0,1,2.0764e+08
3.3992e+05,2.0775e+08,0,172,-123,330,43,-7,144,0,0,0,1,2.0775e+08
3.4033e+05,2.0785e+08,0,175,-124,337,43,-7,144,0,0,0,1,2.0785e+08
3.4075e+05,2.0796e+08,0,166,-129,341,43,-7,144,0,0,0,1,2.0796e+08
3.4119e+05,2.0807e+08,0,169,-121,339,43,-7,144,0,0,0,1,2.0807e+08
3.4164e+05,2.0818e+08,0,167,-120,343,43,-7,144,0,0,0,1,2.0818e+08
3.4205e+05,2.0829e+08,0,170,-126,338,43,-7,144,0,0,0,1,2.0829e+08
3.425e+05,2.0839e+08,0,178,-115,338,43,-7,144,0,0,0,1,2.0839e+08
3.4294e+05,2.085e+08,0,178,-118,336,43,-7,144,0,0,0,1,2.085e+08
3.4338e+05,2.0861e+08,0,173,-121,338,43,-7,144,0,0,0,1,2.0861e+08
3.438e+05,2.0871e+08,0,169,-111,346,43,-7,144,0,0,0,1,2.0871e+08
3.4424e+05,2.0882e+08,0,157,-106,353,43,-7,144,0,0,0,1,2.0882e+08
3.4468e+05,2.0893e+08,0,148,-100,359,43,-7,144,0,0,0,1,2.0893e+08
3.451e+05,2.0903e+08,0,141,-94,357,43,-7,144,0,0,0,1,2.0903e+08
3.4554e+05,2.0914e+08,0,136,-96,367,43,-7,144,0,0,0,1,2.0914e+08
3.4599e+05,2.0925e+08,0,138,-103,364,43,-7,144,0,0,0,1,2.0925e+08
3.4644e+05,2.0936e+08,0,132,-107,363,43,-7,144,0,0,0,1,2.0936e+08
3.4688e+05,2.0947e+08,0,128,-109,365,43,-7,144,0,0,0,1,2.0947e+08
3.4733e+05,2.0958e+08,0,137,-114,362,43,-7,144,0,0,0,1,2.0958e+08
3.4774e+05,2.0968e+08,0,143,-106,361,43,-7,144,0,0,0,1,2.0968e+08
3.4819e+05,2.0979e+08,0,142,-100,363,43,-7,144,0,0,0,1,2.0979e+08
3.486e+05,2.099e+08,0,135,-86,366,43,-7,144,0,0,0,1,2.099e+08
3.4905e+05,2.1e+08,0,132,-83,372,43,-7,144,0,0,0,1,2.1e+08
3.4949e+05,2.1011e+08,0,122,-85,374,43,-7,144,0,0,0,1,2.1011e+08
3.4993e+05,2.1022e+08,0,109,-80,380,43,-7,144,0,0,0,1,2.1022e+08
3.5038e+05,2.1033e+08,0,118,-69,387,43,-7,144,0,0,0,1,2.1033e+08
3.5083e+05,2.1043e+08,0,121,-61,377,43,-7,144,0,0,0,1,2.1043e+08
3.5127e+05,2.1054e+08,0,129,-53,373,43,-7,144,0,0,0,1,2.1054e+08
3.5168e+05,2.1065e+08,0,144,-53,367,43,-7,144,0,0,0,1,2.1065e+08
3.5213e+05,2.1076e+08,0,153,-40,363,43,-7,144,0,0,0,1,2.1076e+08
3.5258e+05,2.1087e+08,0,163,-36,359,43,-7,144,0,0,0,1,2.1087e+08
3.5302e+05,2.1098e+08,0,170,-23,357,43,-7,144,0,0,0,1,2.1098e+08
3.5343e+05,2.1108e+08,0,167,-29,359,43,-7,144,0,0,0,1,2.1108e+08
3.5388e+05,2.1119e+08,0,169,-39,358,43,-7,144,0,0,0,1,2.1119e+08
3.5432e+05,2.113e+08,0,182,-48,351,43,-7,144,0,0,0,1,2.113e+08
3.5477e+05,2.114e+08,0,196,-56,343,43,-7,144,0,0,0,1,2.114e+08
3.5521e+05,2.1151e+08,0,198,-54,338,43,-7,144,0,0,0,1,2.1151e+08
3.5562e+05,2.1162e+08,0,202,-52,337,43,-7,144,0,0,0,1,2.1162e+08
3.5607e+05,2.1173e+08,0,199,-56,334,43,-7,144,0,0,0,1,2.1173e+08
3.5651e+05,2.1183e+08,0,202,-53,338,43,-7,144,0,0,0,1,2.1183e+08
3.5696e+05,2.1194e+08,0,207,-64,329,43,-7,144,0,0,0,1,2.1194e+08
3.574e+05,2.1205e+08,0,210,-73,325,43,-7,144,0,0,0,1,2.1205e+08
3.5781e+05,2.1215e+08,0,220,-85,316,43,-7,144,0,0,0,1,2.1215e+08
3.5826e+05,2.1226e+08,0,221,-102,315,43,-7,144,0,0,0,1,2.1226e+08
3.587e+05,2.1237e+08,0,221,-107,308,43,-7,144,0,0,0,1,2.1237e+08
3.5911e+05,2.1248e+08,0,212,-112,312,43,-7,144,0,0,0,1,2.1248e+08
3.5956e+05,2.1258e+08,0,205,-127,318,43,-7,144,0,0,0,1,2.1258e+08
3.6e+05,2.1269e+08,0,204,-124,322,43,-7,144,0,0,0,1,2.1269e+08
3.6045e+05,2.128e+08,0,196,-126,316,43,-7,144,0,0,0,1,2.128e+08
3.6087e+05,2.1291e+08,0,200,-134,316,43,-7,144,0,0,0,1,2.1291e+08
3.6131e+05,2.1301e+08,0,198,-136,317,43,-7,144,0,0,0,1,2.1301e+08
3.6175e+05,2.1312e+08,0,200,-128,316,43,-7,144,0,0,0,1,2.1312e+08
3.622e+05,2.1323e+08,0,200,-121,317,43,-7,144,0,0,0,1,2.1323e+08
3.6261e+05,2.1334e+08,0,201,-123,320,43,-7,144,0,0,0,1,2.1334e+08
3.6306e+05,2.1345e+08,0,205,-125,322,43,-7,144,0,0,0,1,2.1345e+08
3.635e+05,2.1355e+08,0,202,-130,321,43,-7,144,0,0,0,1,2.1355e+08
3.6391e+05,2.1366e+08,0,203,-131,313,43,-7,144,0,0,0,1,2.1366e+08
3.6436e+05,2.1377e+08,0,199,-138,308,43,-7,144,0,0,0,1,2.1377e+08
3.6481e+05,2.1388e+08,0,199,-135,319,43,-7,144,0,0,0,1,2.1388e+08
3.6525e+05,2.1398e+08,0,199,-129,321,43,-7,144,0,0,0,1,2.1398e+08
3.6569e+05,2.1409e+08,0,204,-108,324,43,-7,144,0,0,0,1,2.1409e+08
3.6614e+05,2.142e+08,0,201,-93,335,43,-7,144,0,0,0,1,2.142e+08
3.6655e+05,2.1431e+08,0,197,-81,338,43,-7,144,0,0,0,1,2.1431e+08
3.67e+05,2.1442e+08,0,192,-78,344,43,-7,144,0,0,0,1,2.1442e+08
3.6744e+05,2.1452e+08,0,187,-84,340,43,-7,144,0,0,0,1,2.1452e+08
3.6788e+05,2.1463e+08,0,186,-83,340,43,-7,144,0,0,0,1,2.1463e+08
3.683e+05,2.1474e+08,0,189,-91,337,43,-7,144,0,0,0,1,2.1474e+08
3.6874e+05,2.1484e+08,0,187,-87,339,43,-7,144,0,0,0,1,2.1484e+08
3.6919e+05,2.1495e+08,0,187,-87,342,43,-7,144,0,0,0,1,2.1495e+08
3.6963e+05,2.1506e+08,0,189,-81,337,43,-7,144,0,0,0,1,2.1506e+08
3.7008e+05,2.1516e+08,0,186,-81,340,43,-7,144,0,0,0,1,2.1516e+08
3.7052e+05,2.1527e+08,0,183,-90,343,43,-7,144,0,0,0,1,2.1527e+08
3.7097e+05,2.1538e+08,0,178,-93,344,43,-7,144,0,0,0,1,2.1538e+08
3.7142e+05,2.1549e+08,0,188,-92,338,43,-7,144,0,0,0,1,2.1549e+08
3.7183e+05,2.1559e+08,0,183,-90,339,43,-7,144,0,0,0,1,2.1559e+08
3.7228e+05,2.157e+08,0,182,-91,342,43,-7,144,0,0,0,1,2.157e+08
3.7269e+05,2.1581e+08,0,184,-89,344,43,-7,144,0,0,0,1,2.1581e+08
3.7313e+05,2.1592e+08,0,171,-88,350,43,-7,144,0,0,0,1,2.1592e+08
3.7358e+05,2.1602e+08,0,170,-81,351,43,-7,144,0,0,0,1,2.1602e+08
3.7402e+05,2.1613e+08,0,170,-72,354,43,-7,144,0,0,0,1,2.1613e+08
3.7447e+05,2.1624e+08,0,174,-63,358,43,-7,144,0,0,0,1,2.1624e+08
3.7491e+05,2.1635e+08,0,170,-51,356,43,-7,144,0,0,0,1,2.1635e+08
3.7532e+05,2.1645e+08,0,174,-69,350,43,-7,144,0,0,0,1,2.1645e+08
3.7577e+05,2.1656e+08,0,176,-85,345,43,-7,144,0,0,0,1,2.1656e+08
3.7622e+05,2.1667e+08,0,175,-91,351,43,-7,144,0,0,0,1,2.1667e+08
3.7667e+05,2.1678e+08,0,171,-85,350,43,-7,144,0,0,0,1,2.1678e+08
3.7711e+05,2.1689e+08,0,170,-86,352,43,-7,144,0,0,0,1,2.1689e+08
3.7756e+05,2.1699e+08,0,171,-85,348,43,-7,144,0,0,0,1,2.1699e+08
3.78e+05,2.171e+08,0,169,-91,355,43,-7,144,0,0,0,1,2.171e+08
3.7844e+05,2.1721e+08,0,169,-93,351,43,-7,144,0,0,0,1,2.1721e+08
3.7886e+05,2.1732e+08,0,170,-102,347,43,-7,144,0,0,0,1,2.1732e+08
3.793e+05,2.1742e+08,0,167,-96,353,43,-7,144,0,0,0,1,2.1742e+08
3.7974e+05,2.1753e+08,0,155,-104,351,43,-7,144,0,0,0,1,2.1753e+08
3.8019e+05,2.1764e+08,0,160,-97,351,43,-7,144,0,0,0,1,2.1764e+08
3.8063e+05,2.1775e+08,0,162,-100,351,43,-7,144,0,0,0,1,2.1775e+08
3.8108e+05,2.1786e+08,0,165,-102,349,43,-7,144,0,0,0,1,2.1786e+08
3.8153e+05,2.1797e+08,0,161,-103,351,43,-7,144,0,0,0,1,2.1797e+08
3.8198e+05,2.1807e+08,0,161,-102,348,43,-7,144,0,0,0,1,2.1807e+08
3.8242e+05,2.1818e+08,0,163,-101,353,43,-7,144,0,0,0,1,2.1818e+08
3.8287e+05,2.1829e+08,0,170,-103,349,43,-7,144,0,0,0,1,2.1829e+08
3.8332e+05,2.1839e+08,0,170,-102,346,43,-7,144,0,0,0,1,2.1839e+08
3.8376e+05,2.185e+08,0,167,-99,348,43,-7,144,0,0,0,1,2.185e+08
3.842e+05,2.1861e+08,0,172,-84,347,43,-7,144,0,0,0,1,2.1861e+08
3.8462e+05,2.1872e+08,0,174,-64,352,43,-7,144,0,0,0,1,2.1872e+08
3.8506e+05,2.1882e+08,0,173,-68,355,43,-7,144,0,0,0,1,2.1882e+08
3.855e+05,2.1893e+08,0,178,-73,355,43,-7,144,0,0,0,1,2.1893e+08
3.8595e+05,2.1904e+08,0,175,-88,349,43,-7,144,0,0,0,1,2.1904e+08
3.864e+05,2.1914e+08,0,167,-88,347,43,-7,144,0,0,0,1,2.1914e+08
3.8681e+05,2.1925e+08,0,175,-90,347,43,-7,144,0,0,0,1,2.1925e+08
3.8725e+05,2.1936e+08,0,175,-92,349,43,-7,144,0,0,0,1,2.1936e+08
3.8769e+05,2.1947e+08,0,175,-91,351,43,-7,144,0,0,0,1,2.1947e+08
3.8814e+05,2.1957e+08,0,181,-90,339,43,-7,144,0,0,0,1,2.1957e+08
3.8855e+05,2.1968e+08,0,176,-105,348,43,-7,144,0,0,0,1,2.1968e+08
3.89e+05,2.1979e+08,0,181,-114,343,43,-7,144,0,0,0,1,2.1979e+08
3.8941e+05,2.199e+08,0,177,-109,332,43,-7,144,0,0,0,1,2.199e+08
3.8985e+05,2.2e+08,0,187,-104,336,43,-7,144,0,0,0,1,2.2e+08
3.9029e+05,2.2011e+08,0,181,-92,336,43,-7,144,0,0,0,1,2.2011e+08
3.9074e+05,2.2022e+08,0,184,-78,346,43,-7,144,0,0,0,1,2.2022e+08
3.9119e+05,2.2033e+08,0,184,-59,344,43,-7,144,0,0,0,1,2.2033e+08
3.9163e+05,2.2043e+08,0,185,-65,346,43,-7,144,0,0,0,1,2.2043e+08
3.9204e+05,2.2054e+08,0,187,-57,345,43,-7,144,0,0,0,1,2.2054e+08
3.9249e+05,2.2065e+08,0,186,-60,353,43,-7,144,0,0,0,1,2.2065e+08
3.9294e+05,2.2076e+08,0,183,-63,349,43,-7,144,0,0,0,1,2.2076e+08
3.9335e+05,2.2086e+08,0,180,-64,350,43,-7,144,0,0,0,1,2.2086e+08
3.9379e+05,2.2097e+08,0,182,-62,353,43,-7,144,0,0,0,1,2.2097e+08
3.9424e+05,2.2108e+08,0,181,-61,350,43,-7,144,0,0,0,1,2.2108e+08
3.9468e+05,2.2119e+08,0,189,-66,347,43,-7,144,0,0,0,1,2.2119e+08
3.9512e+05,2.213e+08,0,178,-68,346,43,-7,144,0,0,0,1,2.213e+08
3.9554e+05,2.214e+08,0,178,-78,350,43,-7,144,0,0,0,1,2.214e+08
3.9598e+05,2.2151e+08,0,176,-79,347,43,-7,144,0,0,0,1,2.2151e+08
3.964e+05,2.2162e+08,0,169,-88,351,43,-7,144,0,0,0,1,2.2162e+08
3.9684e+05,2.2173e+08,0,166,-86,348,43,-7,144,0,0,0,1,2.2173e+08
3.9729e+05,2.2183e+08,0,167,-83,354,43,-7,144,0,0,0,1,2.2183e+08
3.9773e+05,2.2194e+08,0,172,-87,354,43,-7,144,0,0,0,1,2.2194e+08
3.9818e+05,2.2205e+08,0,164,-83,354,43,-7,144,0,0,0,1,2.2205e+08
3.9862e+05,2.2216e+08,0,161,-91,354,43,-7,144,0,0,0,1,2.2216e+08
3.994e+05,2.2237e+08,0,156,-90,355,43,-7,144,0,0,0,1,2.2237e+08
3.999e+05,2.2258e+08,0,157,-92,356,43,-7,144,0,0,0,1,2.2258e+08
4.0034e+05,2.2268e+08,0,155,-92,356,43,-7,144,0,0,0,1,2.2268e+08
4.0078e+05,2.2279e+08,0,157,-91,359,43,-7,144,0,0,0,1,2.2279e+08
4.012e+05,2.229e+08,0,151,-94,359,43,-7,144,0,0,0,1,2.229e+08
4.0164e+05,2.2301e+08,0,150,-92,361,43,-7,144,0,0,0,1,2.2301e+08
4.0209e+05,2.2312e+08,0,153,-92,358,43,-7,144,0,0,0,1,2.2312e+08
4.0253e+05,2.2322e+08,0,160,-86,358,43,-7,144,0,0,0,1,2.2322e+08
4.0298e+05,2.2333e+08,0,159,-88,362,43,-7,144,0,0,0,1,2.2333e+08
4.0342e+05,2.2344e+08,0,167,-86,359,43,-7,144,0,0,0,1,2.2344e+08
4.0383e+05,2.2355e+08,0,162,-84,354,43,-7,144,0,0,0,1,2.2355e+08
4.0428e+05,2.2365e+08,0,161,-91,354,43,-7,144,0,0,0,1,2.2365e+08
