LineNo,TimeUS,I,MagX,MagY,MagZ,OfsX,OfsY,OfsZ,MOX,MOY,MOZ,Health,S
1574,1.9857e+07,1,127,-25,301,47,-57,-99,0,0,0,1,1.9857e+07
1983,1.9959e+07,1,127,-25,299,47,-57,-99,0,0,0,1,1.9959e+07
2398,2.0061e+07,1,130,-24,302,47,-57,-99,0,0,0,1,2.0061e+07
2808,2.0162e+07,1,132,-22,306,47,-57,-99,0,0,0,1,2.0162e+07
3220,2.0262e+07,1,132,-22,303,47,-57,-99,0,0,0,1,2.0262e+07
3636,2.0364e+07,1,127,-27,299,47,-57,-99,0,0,0,1,2.0364e+07
4047,2.0466e+07,1,129,-25,301,47,-57,-99,0,0,0,1,2.0466e+07
4456,2.0568e+07,1,133,-23,303,47,-57,-99,0,0,0,1,2.0568e+07
4871,2.0669e+07,1,130,-24,304,47,-57,-99,0,0,0,1,2.0669e+07
5253,2.077e+07,1,127,-25,300,47,-57,-99,0,0,0,1,2.077e+07
5667,2.0871e+07,1,127,-24,301,47,-57,-99,0,0,0,1,2.0871e+07
6074,2.0972e+07,1,129,-23,301,47,-57,-99,0,0,0,1,2.0972e+07
6486,2.1073e+07,1,130,-25,297,47,-57,-99,0,0,0,1,2.1073e+07
6893,2.1173e+07,1,133,-23,302,47,-57,-99,0,0,0,1,2.1173e+07
7276,2.1275e+07,1,130,-23,301,47,-57,-99,0,0,0,1,2.1275e+07
7689,2.1375e+07,1,128,-24,300,47,-57,-99,0,0,0,1,2.1375e+07
8074,2.1477e+07,1,129,-24,302,47,-57,-99,0,0,0,1,2.1477e+07
8480,2.1578e+07,1,133,-23,303,47,-57,-99,0,0,0,1,2.1578e+07
8890,2.168e+07,1,131,-23,302,47,-57,-99,0,0,0,1,2.168e+07
9297,2.178e+07,1,127,-26,298,47,-57,-99,0,0,0,1,2.178e+07
9550,2.188e+07,1,130,-23,300,47,-57,-99,0,0,0,1,2.188e+07
9957,2.198e+07,1,127,-26,298,47,-57,-99,0,0,0,1,2.198e+07
10367,2.208e+07,1,130,-23,301,47,-57,-99,0,0,0,1,2.208e+07
10777,2.2182e+07,1,133,-22,303,47,-57,-99,0,0,0,1,2.2182e+07
11164,2.2284e+07,1,131,-25,299,47,-57,-99,0,0,0,1,2.2284e+07
11575,2.2386e+07,1,127,-26,299,47,-57,-99,0,0,0,1,2.2386e+07
11989,2.2488e+07,1,129,-26,301,47,-57,-99,0,0,0,1,2.2488e+07
12399,2.2591e+07,1,134,-25,301,47,-57,-99,0,0,0,1,2.2591e+07
12810,2.2693e+07,1,130,-24,301,47,-57,-99,0,0,0,1,2.2693e+07
13217,2.2793e+07,1,128,-25,300,47,-57,-99,0,0,0,1,2.2793e+07
13629,2.2896e+07,1,127,-27,299,47,-57,-99,0,0,0,1,2.2895e+07
14039,2.2997e+07,1,127,-25,301,47,-57,-99,0,0,0,1,2.2997e+07
14450,2.3099e+07,1,132,-23,302,47,-57,-99,0,0,0,1,2.3099e+07
14832,2.32e+07,1,133,-23,303,47,-57,-99,0,0,0,1,2.32e+07
15243,2.3302e+07,1,131,-23,302,47,-57,-99,0,0,0,1,2.3302e+07
15655,2.3405e+07,1,127,-26,297,47,-57,-99,0,0,0,1,2.3405e+07
16068,2.3507e+07,1,132,-23,302,47,-57,-99,0,0,0,1,2.3507e+07
16450,2.361e+07,1,134,-21,301,47,-57,-99,0,0,0,1,2.361e+07
16861,2.3712e+07,1,130,-24,302,47,-57,-99,0,0,0,1,2.3712e+07
17269,2.3814e+07,1,127,-28,295,47,-57,-99,0,0,0,1,2.3814e+07
17684,2.3915e+07,1,127,-27,300,47,-57,-99,0,0,0,1,2.3915e+07
18069,2.4018e+07,1,127,-25,299,47,-57,-99,0,0,0,1,2.4018e+07
18482,2.4119e+07,1,132,-24,300,47,-57,-99,0,0,0,1,2.4119e+07
18889,2.4221e+07,1,135,-25,299,47,-57,-99,0,0,0,1,2.4221e+07
19299,2.4323e+07,1,128,-26,295,47,-57,-99,0,0,0,1,2.4323e+07
19683,2.4424e+07,1,128,-25,298,47,-57,-99,0,0,0,1,2.4424e+07
20095,2.4526e+07,1,133,-23,302,47,-57,-99,0,0,0,1,2.4526e+07
20505,2.4628e+07,1,134,-21,300,47,-57,-99,0,0,0,1,2.4628e+07
20919,2.4729e+07,1,127,-27,296,47,-57,-99,0,0,0,1,2.4729e+07
21337,2.4832e+07,1,127,-29,297,47,-57,-99,0,0,0,1,2.4832e+07
21753,2.4935e+07,1,127,-28,296,47,-57,-99,0,0,0,1,2.4935e+07
22164,2.5036e+07,1,127,-30,298,47,-57,-99,0,0,0,1,2.5036e+07
22579,2.514e+07,1,133,-23,303,47,-57,-99,0,0,0,1,2.514e+07
22987,2.5243e+07,1,131,-25,299,47,-57,-99,0,0,0,1,2.5243e+07
23406,2.5347e+07,1,127,-27,295,47,-57,-99,0,0,0,1,2.5347e+07
23825,2.5448e+07,1,129,-24,298,47,-57,-99,0,0,0,1,2.5448e+07
24238,2.5548e+07,1,134,-25,300,47,-57,-99,0,0,0,1,2.5548e+07
24653,2.565e+07,1,133,-25,302,47,-57,-99,0,0,0,1,2.565e+07
25066,2.5754e+07,1,127,-31,295,47,-57,-99,0,0,0,1,2.5754e+07
25480,2.5856e+07,1,128,-28,297,47,-57,-99,0,0,0,1,2.5856e+07
25890,2.5958e+07,1,127,-30,293,47,-57,-99,0,0,0,1,2.5958e+07
26300,2.6059e+07,1,131,-25,301,47,-57,-99,0,0,0,1,2.6059e+07
26679,2.616e+07,1,133,-26,302,47,-57,-99,0,0,0,1,2.616e+07
27093,2.6261e+07,1,130,-27,300,47,-57,-99,0,0,0,1,2.6261e+07
27499,2.6362e+07,1,127,-28,294,47,-57,-99,0,0,0,1,2.6362e+07
27912,2.6463e+07,1,131,-24,297,47,-57,-99,0,0,0,1,2.6463e+07
28319,2.6565e+07,1,133,-24,302,47,-57,-99,0,0,0,1,2.6565e+07
28703,2.6667e+07,1,132,-25,300,47,-57,-99,0,0,0,1,2.6667e+07
29116,2.6768e+07,1,127,-26,297,47,-57,-99,0,0,0,1,2.6768e+07
29531,2.6869e+07,1,128,-28,295,47,-57,-99,0,0,0,1,2.6869e+07
29941,2.6971e+07,1,129,-28,299,47,-57,-99,0,0,0,1,2.6971e+07
30351,2.7073e+07,1,131,-27,302,47,-57,-99,0,0,0,1,2.7073e+07
30757,2.7174e+07,1,133,-25,295,47,-57,-99,0,0,0,1,2.7174e+07
31170,2.7276e+07,1,130,-25,300,47,-57,-99,0,0,0,1,2.7276e+07
31576,2.7377e+07,1,129,-26,298,47,-57,-99,0,0,0,1,2.7377e+07
31962,2.7479e+07,1,129,-30,295,47,-57,-99,0,0,0,1,2.7479e+07
32368,2.7581e+07,1,133,-26,299,47,-57,-99,0,0,0,1,2.7581e+07
32777,2.7683e+07,1,130,-27,298,47,-57,-99,0,0,0,1,2.7683e+07
33190,2.7784e+07,1,127,-30,296,47,-57,-99,0,0,0,1,2.7784e+07
33603,2.7885e+07,1,129,-28,295,47,-57,-99,0,0,0,1,2.7885e+07
33985,2.7987e+07,1,129,-29,291,47,-57,-99,0,0,0,1,2.7987e+07
34394,2.809e+07,1,131,-27,298,47,-57,-99,0,0,0,1,2.809e+07
34804,2.8191e+07,1,134,-24,300,47,-57,-99,0,0,0,1,2.8191e+07
35218,2.8293e+07,1,131,-24,298,47,-57,-99,0,0,0,1,2.8293e+07
35624,2.8395e+07,1,127,-26,298,47,-57,-99,0,0,0,1,2.8395e+07
36010,2.8497e+07,1,131,-24,301,47,-57,-99,0,0,0,1,2.8497e+07
36420,2.8598e+07,1,133,-23,302,47,-57,-99,0,0,0,1,2.8598e+07
36832,2.8701e+07,1,129,-27,296,47,-57,-99,0,0,0,1,2.8701e+07
37246,2.8802e+07,1,129,-28,296,47,-57,-99,0,0,0,1,2.8802e+07
37656,2.8904e+07,1,128,-30,296,47,-57,-99,0,0,0,1,2.8904e+07
38064,2.9006e+07,1,129,-26,297,47,-57,-99,0,0,0,1,2.9006e+07
38471,2.9108e+07,1,132,-26,300,47,-57,-99,0,0,0,1,2.9108e+07
38880,2.921e+07,1,133,-25,302,47,-57,-99,0,0,0,1,2.921e+07
39262,2.9311e+07,1,130,-26,300,47,-57,-99,0,0,0,1,2.9311e+07
39670,2.9411e+07,1,127,-28,296,47,-57,-99,0,0,0,1,2.9411e+07
40082,2.9513e+07,1,131,-25,300,47,-57,-99,0,0,0,1,2.9513e+07
40490,2.9614e+07,1,133,-24,305,47,-57,-99,0,0,0,1,2.9614e+07
40904,2.9718e+07,1,130,-25,298,47,-57,-99,0,0,0,1,2.9718e+07
41315,2.9821e+07,1,128,-32,294,47,-57,-99,0,0,0,1,2.9821e+07
41727,2.9923e+07,1,129,-26,299,47,-57,-99,0,0,0,1,2.9923e+07
42139,3.0024e+07,1,128,-25,297,47,-57,-99,0,0,0,1,3.0024e+07
42555,3.0125e+07,1,132,-25,301,47,-57,-99,0,0,0,1,3.0125e+07
42967,3.0225e+07,1,135,-23,304,47,-57,-99,0,0,0,1,3.0225e+07
43380,3.0327e+07,1,127,-27,298,47,-57,-99,0,0,0,1,3.0327e+07
43765,3.0428e+07,1,127,-28,298,47,-57,-99,0,0,0,1,3.0428e+07
44181,3.0531e+07,1,133,-24,302,47,-57,-99,0,0,0,1,3.0531e+07
44589,3.0631e+07,1,135,-22,305,47,-57,-99,0,0,0,1,3.0631e+07
44999,3.0734e+07,1,128,-27,298,47,-57,-99,0,0,0,1,3.0733e+07
45414,3.0836e+07,1,127,-25,299,47,-57,-99,0,0,0,1,3.0836e+07
45821,3.0937e+07,1,127,-24,301,47,-57,-99,0,0,0,1,3.0937e+07
46199,3.1039e+07,1,128,-26,299,47,-57,-99,0,0,0,1,3.1039e+07
46610,3.1141e+07,1,134,-22,306,47,-57,-99,0,0,0,1,3.1141e+07
47020,3.1243e+07,1,133,-21,303,47,-57,-99,0,0,0,1,3.1243e+07
47432,3.1345e+07,1,127,-27,299,47,-57,-99,0,0,0,1,3.1345e+07
47845,3.1446e+07,1,130,-24,298,47,-57,-99,0,0,0,1,3.1446e+07
48261,3.1547e+07,1,135,-20,304,47,-57,-99,0,0,0,1,3.1547e+07
48645,3.1649e+07,1,131,-23,303,47,-57,-99,0,0,0,1,3.1649e+07
49056,3.1751e+07,1,128,-28,298,47,-57,-99,0,0,0,1,3.1751e+07
49473,3.1855e+07,1,127,-29,296,47,-57,-99,0,0,0,1,3.1855e+07
49883,3.1957e+07,1,127,-27,299,47,-57,-99,0,0,0,1,3.1957e+07
50295,3.2058e+07,1,131,-25,300,47,-57,-99,0,0,0,1,3.2058e+07
50677,3.216e+07,1,133,-23,303,47,-57,-99,0,0,0,1,3.216e+07
51096,3.2262e+07,1,132,-23,302,47,-57,-99,0,0,0,1,3.2262e+07
51504,3.2363e+07,1,127,-26,298,47,-57,-99,0,0,0,1,3.2363e+07
51884,3.2463e+07,1,128,-25,298,47,-57,-99,0,0,0,1,3.2463e+07
52292,3.2565e+07,1,133,-22,304,47,-57,-99,0,0,0,1,3.2565e+07
52707,3.2666e+07,1,130,-26,301,47,-57,-99,0,0,0,1,3.2666e+07
53120,3.2767e+07,1,128,-26,299,47,-57,-99,0,0,0,1,3.2767e+07
53535,3.2869e+07,1,127,-26,300,47,-57,-99,0,0,0,1,3.2869e+07
53943,3.297e+07,1,127,-27,297,47,-57,-99,0,0,0,1,3.297e+07
54355,3.3072e+07,1,130,-25,301,47,-57,-99,0,0,0,1,3.3072e+07
54761,3.3174e+07,1,133,-23,302,47,-57,-99,0,0,0,1,3.3174e+07
55176,3.3275e+07,1,131,-24,301,47,-57,-99,0,0,0,1,3.3275e+07
55585,3.3377e+07,1,128,-26,298,47,-57,-99,0,0,0,1,3.3377e+07
55971,3.3477e+07,1,129,-25,302,47,-57,-99,0,0,0,1,3.3477e+07
56378,3.3579e+07,1,134,-21,304,47,-57,-99,0,0,0,1,3.3579e+07
56786,3.3681e+07,1,132,-23,303,47,-57,-99,0,0,0,1,3.3681e+07
57199,3.3784e+07,1,128,-24,299,47,-57,-99,0,0,0,1,3.3784e+07
57586,3.3886e+07,1,128,-25,300,47,-57,-99,0,0,0,1,3.3886e+07
57997,3.3988e+07,1,128,-26,298,47,-57,-99,0,0,0,1,3.3988e+07
58407,3.409e+07,1,131,-22,303,47,-57,-99,0,0,0,1,3.409e+07
58815,3.4191e+07,1,134,-22,304,47,-57,-99,0,0,0,1,3.4191e+07
59233,3.4294e+07,1,131,-24,301,47,-57,-99,0,0,0,1,3.4294e+07
59640,3.4396e+07,1,128,-24,299,47,-57,-99,0,0,0,1,3.4396e+07
60025,3.4497e+07,1,133,-23,301,47,-57,-99,0,0,0,1,3.4497e+07
60435,3.4599e+07,1,136,-21,305,47,-57,-99,0,0,0,1,3.4599e+07
60844,3.4701e+07,1,130,-25,302,47,-57,-99,0,0,0,1,3.4701e+07
61250,3.4803e+07,1,129,-23,297,47,-57,-99,0,0,0,1,3.4803e+07
61661,3.4904e+07,1,129,-24,300,47,-57,-99,0,0,0,1,3.4904e+07
62041,3.5005e+07,1,130,-23,299,47,-57,-99,0,0,0,1,3.5005e+07
62451,3.5107e+07,1,133,-23,299,47,-57,-99,0,0,0,1,3.5107e+07
62859,3.5209e+07,1,135,-22,301,47,-57,-99,0,0,0,1,3.5209e+07
63272,3.5311e+07,1,132,-24,298,47,-57,-99,0,0,0,1,3.5311e+07
63681,3.5412e+07,1,129,-25,298,47,-57,-99,0,0,0,1,3.5412e+07
64092,3.5514e+07,1,137,-21,302,47,-57,-99,0,0,0,1,3.5514e+07
64499,3.5616e+07,1,136,-20,301,47,-57,-99,0,0,0,1,3.5615e+07
64875,3.5717e+07,1,132,-23,295,47,-57,-99,0,0,0,1,3.5717e+07
65279,3.5818e+07,1,129,-25,296,47,-57,-99,0,0,0,1,3.5818e+07
65682,3.592e+07,1,129,-25,298,47,-57,-99,0,0,0,1,3.592e+07
66049,3.6021e+07,1,127,-27,300,47,-57,-99,0,0,0,1,3.6021e+07
66456,3.6122e+07,1,132,-24,301,47,-57,-99,0,0,0,1,3.6122e+07
66858,3.6222e+07,1,134,-24,305,47,-57,-99,0,0,0,1,3.6222e+07
67234,3.6323e+07,1,128,-27,299,47,-57,-99,0,0,0,1,3.6323e+07
67641,3.6424e+07,1,129,-25,296,47,-57,-99,0,0,0,1,3.6424e+07
68053,3.6525e+07,1,132,-29,299,47,-57,-99,0,0,0,1,3.6525e+07
68454,3.6626e+07,1,134,-23,304,47,-57,-99,0,0,0,1,3.6626e+07
68862,3.6727e+07,1,128,-28,298,47,-57,-99,0,0,0,1,3.6727e+07
69266,3.6828e+07,1,128,-28,298,47,-57,-99,0,0,0,1,3.6828e+07
69675,3.693e+07,1,128,-28,297,47,-57,-99,0,0,0,1,3.693e+07
70052,3.7031e+07,1,128,-28,295,47,-57,-99,0,0,0,1,3.7031e+07
70455,3.7133e+07,1,135,-19,299,47,-57,-99,0,0,0,1,3.7133e+07
70858,3.7234e+07,1,134,-22,302,47,-57,-99,0,0,0,1,3.7234e+07
71263,3.7336e+07,1,128,-25,298,47,-57,-99,0,0,0,1,3.7336e+07
71665,3.7437e+07,1,128,-23,299,47,-57,-99,0,0,0,1,3.7437e+07
72070,3.7538e+07,1,135,-30,299,47,-57,-99,0,0,0,1,3.7538e+07
72472,3.7639e+07,1,139,-48,289,47,-57,-99,0,0,0,1,3.7638e+07
72879,3.774e+07,1,140,-54,279,47,-57,-99,0,0,0,1,3.774e+07
73254,3.7843e+07,1,157,-48,273,47,-57,-99,0,0,0,1,3.7843e+07
73660,3.7944e+07,1,156,-46,276,47,-57,-99,0,0,0,1,3.7944e+07
74067,3.8046e+07,1,139,-30,291,47,-57,-99,0,0,0,1,3.8046e+07
74471,3.8148e+07,1,110,-16,316,47,-57,-99,0,0,0,1,3.8148e+07
74882,3.8248e+07,1,77,1,335,47,-57,-99,0,0,0,1,3.8248e+07
75286,3.835e+07,1,45,40,342,47,-57,-99,0,0,0,1,3.835e+07
75691,3.8452e+07,1,13,106,344,47,-57,-99,0,0,0,1,3.8452e+07
76096,3.8555e+07,1,-17,154,347,47,-57,-99,0,0,0,1,3.8555e+07
76502,3.8656e+07,1,-43,190,335,47,-57,-99,0,0,0,1,3.8656e+07
76908,3.8757e+07,1,-81,215,318,47,-57,-99,0,0,0,1,3.8757e+07
77311,3.8858e+07,1,-108,254,294,47,-57,-99,0,0,0,1,3.8858e+07
77718,3.8959e+07,1,-122,299,255,47,-57,-99,0,0,0,1,3.8959e+07
78121,3.906e+07,1,-122,353,208,47,-57,-99,0,0,0,1,3.906e+07
78528,3.916e+07,1,-109,388,169,47,-57,-99,0,0,0,1,3.916e+07
78939,3.926e+07,1,-114,414,119,47,-57,-99,0,0,0,1,3.926e+07
79343,3.9361e+07,1,-132,428,71,47,-57,-99,0,0,0,1,3.9361e+07
79751,3.9462e+07,1,-153,431,39,47,-57,-99,0,0,0,1,3.9462e+07
80152,3.9562e+07,1,-176,430,-5,47,-57,-99,0,0,0,1,3.9562e+07
80557,3.9663e+07,1,-199,424,-50,47,-57,-99,0,0,0,1,3.9663e+07
80933,3.9763e+07,1,-210,419,-83,47,-57,-99,0,0,0,1,3.9763e+07
81337,3.9865e+07,1,-194,422,-121,47,-57,-99,0,0,0,1,3.9865e+07
81744,3.9966e+07,1,-173,424,-168,47,-57,-99,0,0,0,1,3.9966e+07
82146,4.0067e+07,1,-156,423,-194,47,-57,-99,0,0,0,1,4.0067e+07
82552,4.0168e+07,1,-146,420,-218,47,-57,-99,0,0,0,1,4.0168e+07
82954,4.0269e+07,1,-144,410,-249,47,-57,-99,0,0,0,1,4.0269e+07
83361,4.037e+07,1,-132,412,-258,47,-57,-99,0,0,0,1,4.037e+07
83770,4.047e+07,1,-111,421,-254,47,-57,-99,0,0,0,1,4.047e+07
84149,4.057e+07,1,-97,426,-252,47,-57,-99,0,0,0,1,4.057e+07
84553,4.067e+07,1,-96,421,-261,47,-57,-99,0,0,0,1,4.067e+07
84957,4.0771e+07,1,-83,419,-276,47,-57,-99,0,0,0,1,4.0771e+07
85336,4.0872e+07,1,-72,425,-269,47,-57,-99,0,0,0,1,4.0872e+07
85739,4.0974e+07,1,-70,432,-255,47,-57,-99,0,0,0,1,4.0974e+07
86146,4.1074e+07,1,-63,440,-238,47,-57,-99,0,0,0,1,4.1074e+07
86520,4.1174e+07,1,-60,440,-241,47,-57,-99,0,0,0,1,4.1174e+07
86923,4.1276e+07,1,-59,435,-255,47,-57,-99,0,0,0,1,4.1276e+07
87327,4.1376e+07,1,-51,435,-254,47,-57,-99,0,0,0,1,4.1376e+07
87732,4.1476e+07,1,-31,447,-234,47,-57,-99,0,0,0,1,4.1476e+07
88141,4.1577e+07,1,-19,457,-209,47,-57,-99,0,0,0,1,4.1577e+07
88546,4.1677e+07,1,-21,455,-213,47,-57,-99,0,0,0,1,4.1677e+07
88923,4.1778e+07,1,-27,450,-226,47,-57,-99,0,0,0,1,4.1778e+07
89324,4.188e+07,1,-32,442,-245,47,-57,-99,0,0,0,1,4.188e+07
89731,4.1982e+07,1,-25,443,-245,47,-57,-99,0,0,0,1,4.1982e+07
90141,4.2084e+07,1,-14,448,-236,47,-57,-99,0,0,0,1,4.2084e+07
90546,4.2185e+07,1,-5,449,-234,47,-57,-99,0,0,0,1,4.2185e+07
90922,4.2285e+07,1,-8,446,-244,47,-57,-99,0,0,0,1,4.2285e+07
91323,4.2385e+07,1,-11,441,-252,47,-57,-99,0,0,0,1,4.2385e+07
91730,4.2487e+07,1,4,440,-257,47,-57,-99,0,0,0,1,4.2486e+07
92133,4.2588e+07,1,23,449,-238,47,-57,-99,0,0,0,1,4.2588e+07
92542,4.2689e+07,1,30,450,-224,47,-57,-99,0,0,0,1,4.2689e+07
92915,4.2789e+07,1,25,446,-238,47,-57,-99,0,0,0,1,4.2789e+07
93319,4.289e+07,1,19,440,-255,47,-57,-99,0,0,0,1,4.289e+07
93722,4.2991e+07,1,18,433,-270,47,-57,-99,0,0,0,1,4.2991e+07
94128,4.3092e+07,1,24,432,-274,47,-57,-99,0,0,0,1,4.3092e+07
94535,4.3194e+07,1,32,429,-278,47,-57,-99,0,0,0,1,4.3194e+07
94910,4.3294e+07,1,34,423,-288,47,-57,-99,0,0,0,1,4.3294e+07
95314,4.3394e+07,1,41,423,-286,47,-57,-99,0,0,0,1,4.3394e+07
95717,4.3495e+07,1,53,430,-273,47,-57,-99,0,0,0,1,4.3495e+07
96120,4.3597e+07,1,58,439,-253,47,-57,-99,0,0,0,1,4.3597e+07
96527,4.37e+07,1,57,447,-228,47,-57,-99,0,0,0,1,4.37e+07
96935,4.3802e+07,1,60,449,-216,47,-57,-99,0,0,0,1,4.3802e+07
97310,4.3903e+07,1,55,452,-210,47,-57,-99,0,0,0,1,4.3903e+07
97717,4.4006e+07,1,45,455,-210,47,-57,-99,0,0,0,1,4.4006e+07
98123,4.4108e+07,1,47,458,-206,47,-57,-99,0,0,0,1,4.4108e+07
98526,4.4209e+07,1,49,461,-194,47,-57,-99,0,0,0,1,4.4209e+07
98932,4.431e+07,1,45,460,-190,47,-57,-99,0,0,0,1,4.431e+07
99333,4.441e+07,1,47,458,-195,47,-57,-99,0,0,0,1,4.441e+07
99737,4.451e+07,1,51,457,-201,47,-57,-99,0,0,0,1,4.451e+07
1.0014e+05,4.4611e+07,1,51,458,-205,47,-57,-99,0,0,0,1,4.4611e+07
1.0052e+05,4.4714e+07,1,43,459,-193,47,-57,-99,0,0,0,1,4.4714e+07
1.0092e+05,4.4815e+07,1,45,464,-174,47,-57,-99,0,0,0,1,4.4815e+07
1.0132e+05,4.4915e+07,1,48,466,-159,47,-57,-99,0,0,0,1,4.4915e+07
1.0173e+05,4.5016e+07,1,53,467,-150,47,-57,-99,0,0,0,1,4.5016e+07
1.0214e+05,4.5117e+07,1,66,470,-135,47,-57,-99,0,0,0,1,4.5117e+07
1.0254e+05,4.5217e+07,1,79,469,-118,47,-57,-99,0,0,0,1,4.5217e+07
1.0295e+05,4.5318e+07,1,82,463,-97,47,-57,-99,0,0,0,1,4.5318e+07
1.0332e+05,4.542e+07,1,83,464,-61,47,-57,-99,0,0,0,1,4.542e+07
1.0373e+05,4.5521e+07,1,83,465,-39,47,-57,-99,0,0,0,1,4.5521e+07
1.0414e+05,4.5622e+07,1,80,466,-29,47,-57,-99,0,0,0,1,4.5622e+07
1.0455e+05,4.5723e+07,1,66,463,-21,47,-57,-99,0,0,0,1,4.5723e+07
1.0495e+05,4.5823e+07,1,61,460,0,47,-57,-99,0,0,0,1,4.5823e+07
1.0536e+05,4.5925e+07,1,61,456,23,47,-57,-99,0,0,0,1,4.5925e+07
1.0574e+05,4.6027e+07,1,63,450,38,47,-57,-99,0,0,0,1,4.6027e+07
1.0614e+05,4.6129e+07,1,72,449,56,47,-57,-99,0,0,0,1,4.6129e+07
1.0652e+05,4.6231e+07,1,73,443,72,47,-57,-99,0,0,0,1,4.6231e+07
1.0692e+05,4.6332e+07,1,67,425,103,47,-57,-99,0,0,0,1,4.6332e+07
1.0733e+05,4.6433e+07,1,66,409,128,47,-57,-99,0,0,0,1,4.6433e+07
1.0774e+05,4.6534e+07,1,80,398,150,47,-57,-99,0,0,0,1,4.6534e+07
1.0812e+05,4.6635e+07,1,96,379,170,47,-57,-99,0,0,0,1,4.6635e+07
1.0852e+05,4.6735e+07,1,95,351,191,47,-57,-99,0,0,0,1,4.6735e+07
1.0893e+05,4.6836e+07,1,91,337,213,47,-57,-99,0,0,0,1,4.6836e+07
1.0931e+05,4.6937e+07,1,85,333,222,47,-57,-99,0,0,0,1,4.6937e+07
1.0972e+05,4.7038e+07,1,82,329,231,47,-57,-99,0,0,0,1,4.7038e+07
1.1009e+05,4.7139e+07,1,79,313,256,47,-57,-99,0,0,0,1,4.7139e+07
1.105e+05,4.7239e+07,1,71,289,276,47,-57,-99,0,0,0,1,4.7239e+07
1.109e+05,4.7341e+07,1,61,273,286,47,-57,-99,0,0,0,1,4.7341e+07
1.113e+05,4.7442e+07,1,50,268,297,47,-57,-99,0,0,0,1,4.7442e+07
1.1171e+05,4.7542e+07,1,39,275,307,47,-57,-99,0,0,0,1,4.7542e+07
1.1212e+05,4.7643e+07,1,27,266,315,47,-57,-99,0,0,0,1,4.7643e+07
1.1253e+05,4.7746e+07,1,17,265,311,47,-57,-99,0,0,0,1,4.7746e+07
1.1293e+05,4.7847e+07,1,21,260,314,47,-57,-99,0,0,0,1,4.7847e+07
1.1334e+05,4.7948e+07,1,29,243,323,47,-57,-99,0,0,0,1,4.7948e+07
1.1372e+05,4.805e+07,1,7,243,328,47,-57,-99,0,0,0,1,4.805e+07
1.1412e+05,4.8151e+07,1,-2,249,334,47,-57,-99,0,0,0,1,4.8151e+07
1.1452e+05,4.8253e+07,1,-9,251,335,47,-57,-99,0,0,0,1,4.8253e+07
1.1493e+05,4.8355e+07,1,-15,234,338,47,-57,-99,0,0,0,1,4.8355e+07
1.1534e+05,4.8456e+07,1,-10,229,343,47,-57,-99,0,0,0,1,4.8456e+07
1.1574e+05,4.8558e+07,1,-10,226,348,47,-57,-99,0,0,0,1,4.8558e+07
1.1627e+05,1.0792e+08,1,7,258,324,47,-57,-99,0,0,0,1,1.0792e+08
1.1672e+05,1.0802e+08,1,8,257,325,47,-57,-99,0,0,0,1,1.0802e+08
1.1714e+05,1.0813e+08,1,10,259,327,47,-57,-99,0,0,0,1,1.0813e+08
1.1759e+05,1.0823e+08,1,8,256,323,47,-57,-99,0,0,0,1,1.0823e+08
1.1804e+05,1.0833e+08,1,8,259,325,47,-57,-99,0,0,0,1,1.0833e+08
1.1849e+05,1.0843e+08,1,7,257,325,47,-57,-99,0,0,0,1,1.0843e+08
1.189e+05,1.0853e+08,1,8,256,325,47,-57,-99,0,0,0,1,1.0853e+08
1.1936e+05,1.0864e+08,1,8,258,323,47,-57,-99,0,0,0,1,1.0864e+08
1.1978e+05,1.0874e+08,1,7,258,323,47,-57,-99,0,0,0,1,1.0874e+08
1.2022e+05,1.0884e+08,1,8,257,324,47,-57,-99,0,0,0,1,1.0884e+08
1.2064e+05,1.0894e+08,1,8,257,324,47,-57,-99,0,0,0,1,1.0894e+08
1.211e+05,1.0905e+08,1,7,258,324,47,-57,-99,0,0,0,1,1.0905e+08
1.2155e+05,1.0915e+08,1,7,258,325,47,-57,-99,0,0,0,1,1.0915e+08
1.22e+05,1.0925e+08,1,8,257,324,47,-57,-99,0,0,0,1,1.0925e+08
1.2245e+05,1.0936e+08,1,7,256,325,47,-57,-99,0,0,0,1,1.0936e+08
1.229e+05,1.0946e+08,1,8,255,324,47,-57,-99,0,0,0,1,1.0946e+08
1.2335e+05,1.0956e+08,1,8,258,324,47,-57,-99,0,0,0,1,1.0956e+08
1.238e+05,1.0966e+08,1,8,256,325,47,-57,-99,0,0,0,1,1.0966e+08
1.2425e+05,1.0976e+08,1,7,256,325,47,-57,-99,0,0,0,1,1.0976e+08
1.247e+05,1.0987e+08,1,7,256,325,47,-57,-99,0,0,0,1,1.0987e+08
1.2515e+05,1.0997e+08,1,9,258,327,47,-57,-99,0,0,0,1,1.0997e+08
1.2557e+05,1.1007e+08,1,7,252,328,47,-57,-99,0,0,0,1,1.1007e+08
1.2603e+05,1.1017e+08,1,6,251,331,47,-57,-99,0,0,0,1,1.1017e+08
1.2648e+05,1.1027e+08,1,6,252,328,47,-57,-99,0,0,0,1,1.1027e+08
1.2693e+05,1.1038e+08,1,6,255,329,47,-57,-99,0,0,0,1,1.1038e+08
1.2738e+05,1.1048e+08,1,7,255,326,47,-57,-99,0,0,0,1,1.1048e+08
1.2783e+05,1.1058e+08,1,7,254,327,47,-57,-99,0,0,0,1,1.1058e+08
1.2858e+05,1.1078e+08,1,7,254,327,47,-57,-99,0,0,0,1,1.1078e+08
1.2903e+05,1.1089e+08,1,6,252,328,47,-57,-99,0,0,0,1,1.1089e+08
1.2948e+05,1.1099e+08,1,6,255,327,47,-57,-99,0,0,0,1,1.1099e+08
1.2993e+05,1.1109e+08,1,7,254,327,47,-57,-99,0,0,0,1,1.1109e+08
1.3036e+05,1.112e+08,1,6,252,327,47,-57,-99,0,0,0,1,1.112e+08
1.308e+05,1.113e+08,1,7,254,327,47,-57,-99,0,0,0,1,1.113e+08
1.3126e+05,1.114e+08,1,7,253,327,47,-57,-99,0,0,0,1,1.114e+08
1.3171e+05,1.1151e+08,1,7,253,327,47,-57,-99,0,0,0,1,1.1151e+08
1.3216e+05,1.1161e+08,1,7,254,328,47,-57,-99,0,0,0,1,1.1161e+08
1.3261e+05,1.1171e+08,1,7,254,328,47,-57,-99,0,0,0,1,1.1171e+08
1.3306e+05,1.1181e+08,1,6,254,327,47,-57,-99,0,0,0,1,1.1181e+08
1.3351e+05,1.1192e+08,1,7,253,328,47,-57,-99,0,0,0,1,1.1192e+08
1.3396e+05,1.1202e+08,1,6,252,328,47,-57,-99,0,0,0,1,1.1202e+08
1.3438e+05,1.1212e+08,1,7,254,326,47,-57,-99,0,0,0,1,1.1212e+08
1.3483e+05,1.1223e+08,1,6,253,328,47,-57,-99,0,0,0,1,1.1223e+08
1.3525e+05,1.1233e+08,1,7,253,326,47,-57,-99,0,0,0,1,1.1233e+08
1.357e+05,1.1243e+08,1,6,253,328,47,-57,-99,0,0,0,1,1.1243e+08
1.3615e+05,1.1253e+08,1,6,252,328,47,-57,-99,0,0,0,1,1.1253e+08
1.3661e+05,1.1263e+08,1,7,254,328,47,-57,-99,0,0,0,1,1.1263e+08
1.3706e+05,1.1274e+08,1,6,251,327,47,-57,-99,0,0,0,1,1.1274e+08
1.3751e+05,1.1284e+08,1,7,254,327,47,-57,-99,0,0,0,1,1.1284e+08
1.3796e+05,1.1294e+08,1,7,253,326,47,-57,-99,0,0,0,1,1.1294e+08
1.3841e+05,1.1304e+08,1,7,253,328,47,-57,-99,0,0,0,1,1.1304e+08
1.3883e+05,1.1314e+08,1,7,252,326,47,-57,-99,0,0,0,1,1.1314e+08
1.3924e+05,1.1325e+08,1,8,258,323,47,-57,-99,0,0,0,1,1.1325e+08
1.3965e+05,1.1335e+08,1,8,258,322,47,-57,-99,0,0,0,1,1.1335e+08
1.4006e+05,1.1345e+08,1,8,257,325,47,-57,-99,0,0,0,1,1.1345e+08
1.4048e+05,1.1355e+08,1,7,256,325,47,-57,-99,0,0,0,1,1.1355e+08
1.4089e+05,1.1366e+08,1,8,256,325,47,-57,-99,0,0,0,1,1.1366e+08
1.413e+05,1.1376e+08,1,7,256,324,47,-57,-99,0,0,0,1,1.1376e+08
1.4168e+05,1.1386e+08,1,8,255,323,47,-57,-99,0,0,0,1,1.1386e+08
1.421e+05,1.1396e+08,1,8,256,324,47,-57,-99,0,0,0,1,1.1396e+08
1.4251e+05,1.1406e+08,1,10,257,326,47,-57,-99,0,0,0,1,1.1406e+08
1.4292e+05,1.1417e+08,1,8,257,323,47,-57,-99,0,0,0,1,1.1417e+08
1.433e+05,1.1427e+08,1,8,256,325,47,-57,-99,0,0,0,1,1.1427e+08
1.4371e+05,1.1437e+08,1,8,257,324,47,-57,-99,0,0,0,1,1.1437e+08
1.4412e+05,1.1447e+08,1,8,256,325,47,-57,-99,0,0,0,1,1.1447e+08
1.4453e+05,1.1457e+08,1,8,256,321,47,-57,-99,0,0,0,1,1.1457e+08
1.4491e+05,1.1467e+08,1,8,256,325,47,-57,-99,0,0,0,1,1.1467e+08
1.4533e+05,1.1477e+08,1,8,256,325,47,-57,-99,0,0,0,1,1.1477e+08
1.4571e+05,1.1488e+08,1,8,257,324,47,-57,-99,0,0,0,1,1.1488e+08
1.4612e+05,1.1498e+08,1,10,257,323,47,-57,-99,0,0,0,1,1.1498e+08
1.4653e+05,1.1508e+08,1,8,255,323,47,-57,-99,0,0,0,1,1.1508e+08
1.4695e+05,1.1519e+08,1,8,257,324,47,-57,-99,0,0,0,1,1.1519e+08
1.4736e+05,1.1529e+08,1,9,258,324,47,-57,-99,0,0,0,1,1.1529e+08
1.4774e+05,1.1539e+08,1,9,256,324,47,-57,-99,0,0,0,1,1.1539e+08
1.4815e+05,1.1549e+08,1,8,256,325,47,-57,-99,0,0,0,1,1.1549e+08
1.4857e+05,1.156e+08,1,8,256,324,47,-57,-99,0,0,0,1,1.156e+08
1.4898e+05,1.157e+08,1,9,257,324,47,-57,-99,0,0,0,1,1.157e+08
1.4939e+05,1.158e+08,1,8,256,324,47,-57,-99,0,0,0,1,1.158e+08
1.498e+05,1.1591e+08,1,10,254,324,47,-57,-99,0,0,0,1,1.1591e+08
1.5022e+05,1.1601e+08,1,7,254,326,47,-57,-99,0,0,0,1,1.1601e+08
1.5063e+05,1.1611e+08,1,10,256,321,47,-57,-99,0,0,0,1,1.1611e+08
1.5104e+05,1.1622e+08,1,8,254,322,47,-57,-99,0,0,0,1,1.1622e+08
1.5145e+05,1.1632e+08,1,8,255,323,47,-57,-99,0,0,0,1,1.1632e+08
1.5186e+05,1.1642e+08,1,9,256,323,47,-57,-99,0,0,0,1,1.1642e+08
1.5224e+05,1.1653e+08,1,8,256,325,47,-57,-99,0,0,0,1,1.1653e+08
1.5266e+05,1.1663e+08,1,10,257,325,47,-57,-99,0,0,0,1,1.1663e+08
1.5306e+05,1.1673e+08,1,8,254,325,47,-57,-99,0,0,0,1,1.1673e+08
1.5348e+05,1.1683e+08,1,8,255,324,47,-57,-99,0,0,0,1,1.1683e+08
1.5386e+05,1.1694e+08,1,8,255,324,47,-57,-99,0,0,0,1,1.1694e+08
1.5428e+05,1.1704e+08,1,10,256,324,47,-57,-99,0,0,0,1,1.1704e+08
1.5468e+05,1.1714e+08,1,8,257,324,47,-57,-99,0,0,0,1,1.1714e+08
1.5509e+05,1.1724e+08,1,8,255,323,47,-57,-99,0,0,0,1,1.1724e+08
1.5551e+05,1.1735e+08,1,9,256,323,47,-57,-99,0,0,0,1,1.1735e+08
1.5592e+05,1.1745e+08,1,8,255,325,47,-57,-99,0,0,0,1,1.1745e+08
1.5633e+05,1.1755e+08,1,10,257,324,47,-57,-99,0,0,0,1,1.1755e+08
1.5672e+05,1.1766e+08,1,9,256,325,47,-57,-99,0,0,0,1,1.1766e+08
1.5713e+05,1.1776e+08,1,8,257,323,47,-57,-99,0,0,0,1,1.1776e+08
1.5754e+05,1.1786e+08,1,9,256,323,47,-57,-99,0,0,0,1,1.1786e+08
1.5795e+05,1.1796e+08,1,9,256,327,47,-57,-99,0,0,0,1,1.1796e+08
1.5834e+05,1.1807e+08,1,9,257,325,47,-57,-99,0,0,0,1,1.1807e+08
1.5875e+05,1.1817e+08,1,8,257,323,47,-57,-99,0,0,0,1,1.1817e+08
1.5916e+05,1.1827e+08,1,9,256,322,47,-57,-99,0,0,0,1,1.1827e+08
1.5957e+05,1.1837e+08,1,9,255,321,47,-57,-99,0,0,0,1,1.1837e+08
1.5998e+05,1.1848e+08,1,10,254,324,47,-57,-99,0,0,0,1,1.1848e+08
1.604e+05,1.1858e+08,1,8,255,325,47,-57,-99,0,0,0,1,1.1858e+08
1.6081e+05,1.1868e+08,1,9,255,323,47,-57,-99,0,0,0,1,1.1868e+08
1.6122e+05,1.1878e+08,1,8,256,324,47,-57,-99,0,0,0,1,1.1878e+08
1.6163e+05,1.1889e+08,1,10,258,323,47,-57,-99,0,0,0,1,1.1889e+08
1.6201e+05,1.1899e+08,1,8,256,323,47,-57,-99,0,0,0,1,1.1899e+08
1.6242e+05,1.1909e+08,1,9,256,324,47,-57,-99,0,0,0,1,1.1909e+08
1.6284e+05,1.1919e+08,1,9,257,325,47,-57,-99,0,0,0,1,1.1919e+08
1.6324e+05,1.193e+08,1,8,255,322,47,-57,-99,0,0,0,1,1.193e+08
1.6365e+05,1.194e+08,1,10,256,322,47,-57,-99,0,0,0,1,1.194e+08
1.6406e+05,1.195e+08,1,8,256,324,47,-57,-99,0,0,0,1,1.195e+08
1.6448e+05,1.1961e+08,1,10,256,320,47,-57,-99,0,0,0,1,1.1961e+08
1.6489e+05,1.1971e+08,1,8,254,323,47,-57,-99,0,0,0,1,1.1971e+08
1.6527e+05,1.1981e+08,1,10,256,322,47,-57,-99,0,0,0,1,1.1981e+08
1.6568e+05,1.1991e+08,1,10,257,324,47,-57,-99,0,0,0,1,1.1991e+08
1.6607e+05,1.2001e+08,1,8,256,321,47,-57,-99,0,0,0,1,1.2001e+08
1.6648e+05,1.2012e+08,1,10,258,321,47,-57,-99,0,0,0,1,1.2012e+08
1.6686e+05,1.2022e+08,1,9,256,323,47,-57,-99,0,0,0,1,1.2022e+08
1.6727e+05,1.2032e+08,1,9,257,324,47,-57,-99,0,0,0,1,1.2032e+08
1.6769e+05,1.2042e+08,1,9,257,321,47,-57,-99,0,0,0,1,1.2042e+08
1.6807e+05,1.2052e+08,1,9,257,324,47,-57,-99,0,0,0,1,1.2052e+08
1.6849e+05,1.2063e+08,1,8,255,324,47,-57,-99,0,0,0,1,1.2063e+08
1.689e+05,1.2073e+08,1,9,256,323,47,-57,-99,0,0,0,1,1.2073e+08
1.6931e+05,1.2083e+08,1,9,253,323,47,-57,-99,0,0,0,1,1.2083e+08
1.6972e+05,1.2093e+08,1,9,256,323,47,-57,-99,0,0,0,1,1.2093e+08
1.7013e+05,1.2103e+08,1,11,257,324,47,-57,-99,0,0,0,1,1.2103e+08
1.7054e+05,1.2114e+08,1,9,256,322,47,-57,-99,0,0,0,1,1.2114e+08
1.7093e+05,1.2124e+08,1,9,257,325,47,-57,-99,0,0,0,1,1.2124e+08
1.7134e+05,1.2134e+08,1,9,256,324,47,-57,-99,0,0,0,1,1.2134e+08
1.7175e+05,1.2144e+08,1,9,257,324,47,-57,-99,0,0,0,1,1.2144e+08
1.7215e+05,1.2154e+08,1,8,256,323,47,-57,-99,0,0,0,1,1.2154e+08
1.7257e+05,1.2164e+08,1,9,255,323,47,-57,-99,0,0,0,1,1.2164e+08
1.7295e+05,1.2175e+08,1,10,257,325,47,-57,-99,0,0,0,1,1.2175e+08
1.7336e+05,1.2185e+08,1,8,255,325,47,-57,-99,0,0,0,1,1.2185e+08
1.7377e+05,1.2195e+08,1,10,257,324,47,-57,-99,0,0,0,1,1.2195e+08
1.7418e+05,1.2205e+08,1,8,256,326,47,-57,-99,0,0,0,1,1.2205e+08
1.7459e+05,1.2215e+08,1,9,256,324,47,-57,-99,0,0,0,1,1.2215e+08
1.75e+05,1.2226e+08,1,8,257,324,47,-57,-99,0,0,0,1,1.2226e+08
1.7542e+05,1.2236e+08,1,8,257,324,47,-57,-99,0,0,0,1,1.2236e+08
1.758e+05,1.2246e+08,1,9,258,324,47,-57,-99,0,0,0,1,1.2246e+08
1.7621e+05,1.2256e+08,1,9,256,323,47,-57,-99,0,0,0,1,1.2256e+08
1.7662e+05,1.2266e+08,1,10,257,323,47,-57,-99,0,0,0,1,1.2266e+08
1.7704e+05,1.2277e+08,1,8,256,323,47,-57,-99,0,0,0,1,1.2277e+08
1.7745e+05,1.2287e+08,1,10,257,325,47,-57,-99,0,0,0,1,1.2287e+08
1.7786e+05,1.2297e+08,1,9,256,321,47,-57,-99,0,0,0,1,1.2297e+08
1.7827e+05,1.2307e+08,1,9,257,325,47,-57,-99,0,0,0,1,1.2307e+08
1.7868e+05,1.2317e+08,1,8,253,322,47,-57,-99,0,0,0,1,1.2317e+08
1.7906e+05,1.2327e+08,1,8,255,325,47,-57,-99,0,0,0,1,1.2327e+08
1.7948e+05,1.2338e+08,1,8,256,325,47,-57,-99,0,0,0,1,1.2338e+08
1.7989e+05,1.2348e+08,1,8,256,324,47,-57,-99,0,0,0,1,1.2348e+08
1.803e+05,1.2358e+08,1,9,257,324,47,-57,-99,0,0,0,1,1.2358e+08
1.8071e+05,1.2368e+08,1,8,257,323,47,-57,-99,0,0,0,1,1.2368e+08
1.8112e+05,1.2379e+08,1,9,257,325,47,-57,-99,0,0,0,1,1.2379e+08
1.8153e+05,1.2389e+08,1,9,255,323,47,-57,-99,0,0,0,1,1.2389e+08
1.8195e+05,1.2399e+08,1,9,258,325,47,-57,-99,0,0,0,1,1.2399e+08
1.8236e+05,1.2409e+08,1,9,257,324,47,-57,-99,0,0,0,1,1.2409e+08
1.8277e+05,1.242e+08,1,10,258,325,47,-57,-99,0,0,0,1,1.242e+08
1.8318e+05,1.243e+08,1,8,257,324,47,-57,-99,0,0,0,1,1.243e+08
1.836e+05,1.244e+08,1,8,256,323,47,-57,-99,0,0,0,1,1.244e+08
1.84e+05,1.2451e+08,1,9,256,324,47,-57,-99,0,0,0,1,1.2451e+08
1.8442e+05,1.2461e+08,1,8,257,324,47,-57,-99,0,0,0,1,1.2461e+08
1.848e+05,1.2471e+08,1,9,257,324,47,-57,-99,0,0,0,1,1.2471e+08
1.8521e+05,1.2481e+08,1,8,255,325,47,-57,-99,0,0,0,1,1.2481e+08
1.8562e+05,1.2491e+08,1,9,257,325,47,-57,-99,0,0,0,1,1.2491e+08
1.8604e+05,1.2502e+08,1,8,257,325,47,-57,-99,0,0,0,1,1.2502e+08
1.8645e+05,1.2512e+08,1,8,255,325,47,-57,-99,0,0,0,1,1.2512e+08
1.8686e+05,1.2522e+08,1,10,256,325,47,-57,-99,0,0,0,1,1.2522e+08
1.8724e+05,1.2532e+08,1,8,256,325,47,-57,-99,0,0,0,1,1.2532e+08
1.8766e+05,1.2543e+08,1,9,257,323,47,-57,-99,0,0,0,1,1.2543e+08
1.8807e+05,1.2553e+08,1,8,256,323,47,-57,-99,0,0,0,1,1.2553e+08
1.8848e+05,1.2563e+08,1,10,257,323,47,-57,-99,0,0,0,1,1.2563e+08
1.8886e+05,1.2573e+08,1,8,256,322,47,-57,-99,0,0,0,1,1.2573e+08
1.8928e+05,1.2583e+08,1,9,257,324,47,-57,-99,0,0,0,1,1.2583e+08
1.8969e+05,1.2594e+08,1,7,255,324,47,-57,-99,0,0,0,1,1.2594e+08
1.901e+05,1.2604e+08,1,8,255,322,47,-57,-99,0,0,0,1,1.2604e+08
1.9051e+05,1.2614e+08,1,8,257,324,47,-57,-99,0,0,0,1,1.2614e+08
1.9092e+05,1.2625e+08,1,9,258,324,47,-57,-99,0,0,0,1,1.2625e+08
1.9134e+05,1.2635e+08,1,8,257,325,47,-57,-99,0,0,0,1,1.2635e+08
1.9175e+05,1.2645e+08,1,9,258,324,47,-57,-99,0,0,0,1,1.2645e+08
1.9216e+05,1.2655e+08,1,9,257,323,47,-57,-99,0,0,0,1,1.2655e+08
1.9254e+05,1.2665e+08,1,9,257,324,47,-57,-99,0,0,0,1,1.2665e+08
1.9295e+05,1.2676e+08,1,10,257,322,47,-57,-99,0,0,0,1,1.2676e+08
1.9368e+05,1.2696e+08,1,9,257,322,47,-57,-99,0,0,0,1,1.2696e+08
1.9409e+05,1.2706e+08,1,13,259,322,47,-57,-99,0,0,0,1,1.2706e+08
1.9451e+05,1.2717e+08,1,11,263,320,47,-57,-99,0,0,0,1,1.2717e+08
1.9489e+05,1.2727e+08,1,11,262,322,47,-57,-99,0,0,0,1,1.2727e+08
1.953e+05,1.2737e+08,1,13,263,319,47,-57,-99,0,0,0,1,1.2737e+08
1.9571e+05,1.2747e+08,1,14,271,318,47,-57,-99,0,0,0,1,1.2747e+08
1.9612e+05,1.2757e+08,1,14,271,319,47,-57,-99,0,0,0,1,1.2757e+08
1.9653e+05,1.2768e+08,1,15,271,316,47,-57,-99,0,0,0,1,1.2768e+08
1.9692e+05,1.2778e+08,1,17,274,316,47,-57,-99,0,0,0,1,1.2778e+08
1.9733e+05,1.2788e+08,1,21,274,314,47,-57,-99,0,0,0,1,1.2788e+08
1.9774e+05,1.2798e+08,1,24,270,317,47,-57,-99,0,0,0,1,1.2798e+08
1.9815e+05,1.2809e+08,1,22,259,323,47,-57,-99,0,0,0,1,1.2809e+08
1.9882e+05,1.7398e+08,1,142,-6,291,47,-57,-99,0,0,0,1,1.7398e+08
1.9924e+05,1.7408e+08,1,142,-8,288,47,-57,-99,0,0,0,1,1.7408e+08
1.9969e+05,1.7418e+08,1,144,-6,288,47,-57,-99,0,0,0,1,1.7418e+08
2.0011e+05,1.7428e+08,1,142,-6,287,47,-57,-99,0,0,0,1,1.7428e+08
2.0056e+05,1.7438e+08,1,142,-7,287,47,-57,-99,0,0,0,1,1.7438e+08
2.0101e+05,1.7448e+08,1,142,-8,289,47,-57,-99,0,0,0,1,1.7448e+08
2.0146e+05,1.7459e+08,1,141,-8,290,47,-57,-99,0,0,0,1,1.7459e+08
2.0191e+05,1.7469e+08,1,142,-7,289,47,-57,-99,0,0,0,1,1.7469e+08
2.0233e+05,1.7479e+08,1,142,-7,287,47,-57,-99,0,0,0,1,1.7479e+08
2.0278e+05,1.7489e+08,1,142,-9,291,47,-57,-99,0,0,0,1,1.7489e+08
2.032e+05,1.7499e+08,1,142,-8,288,47,-57,-99,0,0,0,1,1.7499e+08
2.0365e+05,1.751e+08,1,142,-7,287,47,-57,-99,0,0,0,1,1.751e+08
2.0407e+05,1.752e+08,1,143,-5,286,47,-57,-99,0,0,0,1,1.752e+08
2.0452e+05,1.753e+08,1,142,-7,292,47,-57,-99,0,0,0,1,1.753e+08
2.0497e+05,1.754e+08,1,142,-7,289,47,-57,-99,0,0,0,1,1.754e+08
2.0542e+05,1.755e+08,1,142,-7,285,47,-57,-99,0,0,0,1,1.755e+08
2.0587e+05,1.7561e+08,1,142,-6,289,47,-57,-99,0,0,0,1,1.7561e+08
2.0629e+05,1.7571e+08,1,142,-6,290,47,-57,-99,0,0,0,1,1.7571e+08
2.0674e+05,1.7581e+08,1,142,-9,288,47,-57,-99,0,0,0,1,1.7581e+08
2.0719e+05,1.7591e+08,1,142,-6,290,47,-57,-99,0,0,0,1,1.7591e+08
2.0765e+05,1.7601e+08,1,142,-7,291,47,-57,-99,0,0,0,1,1.7601e+08
2.081e+05,1.7611e+08,1,140,-11,294,47,-57,-99,0,0,0,1,1.7611e+08
2.0855e+05,1.7621e+08,1,139,-14,296,47,-57,-99,0,0,0,1,1.7621e+08
2.0896e+05,1.7632e+08,1,140,-11,292,47,-57,-99,0,0,0,1,1.7632e+08
2.0942e+05,1.7642e+08,1,140,-8,293,47,-57,-99,0,0,0,1,1.7642e+08
2.0971e+05,1.7652e+08,1,141,-12,294,47,-57,-99,0,0,0,1,1.7652e+08
2.1017e+05,1.7662e+08,1,141,-11,291,47,-57,-99,0,0,0,1,1.7662e+08
2.1062e+05,1.7672e+08,1,141,-9,289,47,-57,-99,0,0,0,1,1.7672e+08
2.1104e+05,1.7683e+08,1,141,-9,294,47,-57,-99,0,0,0,1,1.7683e+08
2.1149e+05,1.7693e+08,1,142,-8,295,47,-57,-99,0,0,0,1,1.7693e+08
2.1194e+05,1.7703e+08,1,141,-9,296,47,-57,-99,0,0,0,1,1.7703e+08
2.1239e+05,1.7713e+08,1,141,-11,293,47,-57,-99,0,0,0,1,1.7713e+08
2.1285e+05,1.7723e+08,1,141,-10,296,47,-57,-99,0,0,0,1,1.7723e+08
2.1329e+05,1.7733e+08,1,140,-9,293,47,-57,-99,0,0,0,1,1.7733e+08
2.1371e+05,1.7744e+08,1,141,-8,293,47,-57,-99,0,0,0,1,1.7744e+08
2.1416e+05,1.7754e+08,1,141,-9,294,47,-57,-99,0,0,0,1,1.7754e+08
2.1462e+05,1.7764e+08,1,140,-11,295,47,-57,-99,0,0,0,1,1.7764e+08
2.1504e+05,1.7774e+08,1,141,-11,292,47,-57,-99,0,0,0,1,1.7774e+08
2.1549e+05,1.7784e+08,1,142,-7,294,47,-57,-99,0,0,0,1,1.7784e+08
2.1594e+05,1.7795e+08,1,140,-8,294,47,-57,-99,0,0,0,1,1.7795e+08
2.164e+05,1.7805e+08,1,140,-7,294,47,-57,-99,0,0,0,1,1.7805e+08
2.1685e+05,1.7815e+08,1,140,-9,295,47,-57,-99,0,0,0,1,1.7815e+08
2.173e+05,1.7826e+08,1,141,-5,291,47,-57,-99,0,0,0,1,1.7826e+08
2.1776e+05,1.7836e+08,1,142,-7,295,47,-57,-99,0,0,0,1,1.7836e+08
2.1821e+05,1.7846e+08,1,141,-8,292,47,-57,-99,0,0,0,1,1.7846e+08
2.1866e+05,1.7857e+08,1,141,-8,292,47,-57,-99,0,0,0,1,1.7857e+08
2.1911e+05,1.7867e+08,1,141,-10,292,47,-57,-99,0,0,0,1,1.7867e+08
2.1956e+05,1.7877e+08,1,140,-10,296,47,-57,-99,0,0,0,1,1.7877e+08
2.2001e+05,1.7887e+08,1,141,-11,292,47,-57,-99,0,0,0,1,1.7887e+08
2.2043e+05,1.7898e+08,1,141,-10,291,47,-57,-99,0,0,0,1,1.7898e+08
2.2087e+05,1.7908e+08,1,141,-11,296,47,-57,-99,0,0,0,1,1.7908e+08
2.2133e+05,1.7918e+08,1,141,-11,292,47,-57,-99,0,0,0,1,1.7918e+08
2.2178e+05,1.7928e+08,1,141,-10,295,47,-57,-99,0,0,0,1,1.7928e+08
2.2223e+05,1.7938e+08,1,141,-11,294,47,-57,-99,0,0,0,1,1.7938e+08
2.2264e+05,1.7949e+08,1,141,-9,293,47,-57,-99,0,0,0,1,1.7949e+08
2.2309e+05,1.7959e+08,1,141,-10,293,47,-57,-99,0,0,0,1,1.7959e+08
2.2354e+05,1.7969e+08,1,141,-8,292,47,-57,-99,0,0,0,1,1.7969e+08
2.2399e+05,1.7979e+08,1,141,-9,294,47,-57,-99,0,0,0,1,1.7979e+08
2.2441e+05,1.799e+08,1,141,-12,291,47,-57,-99,0,0,0,1,1.799e+08
2.2486e+05,1.8e+08,1,141,-8,295,47,-57,-99,0,0,0,1,1.8e+08
2.2531e+05,1.801e+08,1,140,-11,294,47,-57,-99,0,0,0,1,1.801e+08
2.2576e+05,1.802e+08,1,143,-10,295,47,-57,-99,0,0,0,1,1.802e+08
2.2617e+05,1.8031e+08,1,141,-11,296,47,-57,-99,0,0,0,1,1.8031e+08
2.2663e+05,1.8041e+08,1,141,-11,294,47,-57,-99,0,0,0,1,1.8041e+08
2.2705e+05,1.8051e+08,1,141,-11,291,47,-57,-99,0,0,0,1,1.8051e+08
2.275e+05,1.8061e+08,1,141,-8,291,47,-57,-99,0,0,0,1,1.8061e+08
2.2795e+05,1.8071e+08,1,140,-8,294,47,-57,-99,0,0,0,1,1.8071e+08
2.284e+05,1.8082e+08,1,141,-7,293,47,-57,-99,0,0,0,1,1.8082e+08
2.2882e+05,1.8092e+08,1,141,-7,291,47,-57,-99,0,0,0,1,1.8092e+08
2.2928e+05,1.8103e+08,1,141,-7,294,47,-57,-99,0,0,0,1,1.8103e+08
2.2973e+05,1.8113e+08,1,142,-7,293,47,-57,-99,0,0,0,1,1.8113e+08
2.3015e+05,1.8123e+08,1,141,-8,295,47,-57,-99,0,0,0,1,1.8123e+08
2.306e+05,1.8134e+08,1,141,-6,296,47,-57,-99,0,0,0,1,1.8134e+08
2.3105e+05,1.8144e+08,1,140,-6,296,47,-57,-99,0,0,0,1,1.8144e+08
2.315e+05,1.8155e+08,1,141,-9,296,47,-57,-99,0,0,0,1,1.8155e+08
2.3191e+05,1.8165e+08,1,140,-9,293,47,-57,-99,0,0,0,1,1.8165e+08
2.3237e+05,1.8175e+08,1,141,-9,297,47,-57,-99,0,0,0,1,1.8175e+08
2.3282e+05,1.8186e+08,1,141,-8,294,47,-57,-99,0,0,0,1,1.8186e+08
2.3324e+05,1.8196e+08,1,140,-8,294,47,-57,-99,0,0,0,1,1.8196e+08
2.3369e+05,1.8206e+08,1,142,-7,295,47,-57,-99,0,0,0,1,1.8206e+08
2.3415e+05,1.8217e+08,1,141,-10,294,47,-57,-99,0,0,0,1,1.8217e+08
2.3459e+05,1.8227e+08,1,142,-7,294,47,-57,-99,0,0,0,1,1.8227e+08
2.3504e+05,1.8237e+08,1,140,-10,292,47,-57,-99,0,0,0,1,1.8237e+08
2.355e+05,1.8248e+08,1,141,-8,294,47,-57,-99,0,0,0,1,1.8248e+08
2.3595e+05,1.8258e+08,1,141,-9,295,47,-57,-99,0,0,0,1,1.8258e+08
2.3639e+05,1.8268e+08,1,141,-7,297,47,-57,-99,0,0,0,1,1.8268e+08
2.3685e+05,1.8279e+08,1,142,-9,289,47,-57,-99,0,0,0,1,1.8279e+08
2.373e+05,1.8289e+08,1,140,-11,293,47,-57,-99,0,0,0,1,1.8289e+08
2.3775e+05,1.8299e+08,1,142,-8,293,47,-57,-99,0,0,0,1,1.8299e+08
2.3817e+05,1.831e+08,1,142,-11,292,47,-57,-99,0,0,0,1,1.831e+08
2.3862e+05,1.832e+08,1,142,-7,292,47,-57,-99,0,0,0,1,1.832e+08
2.3907e+05,1.8331e+08,1,141,-9,294,47,-57,-99,0,0,0,1,1.8331e+08
2.3952e+05,1.8341e+08,1,141,-9,291,47,-57,-99,0,0,0,1,1.8341e+08
2.3997e+05,1.8351e+08,1,141,-9,293,47,-57,-99,0,0,0,1,1.8351e+08
2.4042e+05,1.8362e+08,1,143,-9,292,47,-57,-99,0,0,0,1,1.8362e+08
2.4087e+05,1.8372e+08,1,141,-10,293,47,-57,-99,0,0,0,1,1.8372e+08
2.4132e+05,1.8382e+08,1,141,-11,294,47,-57,-99,0,0,0,1,1.8382e+08
2.4174e+05,1.8393e+08,1,143,-4,287,47,-57,-99,0,0,0,1,1.8393e+08
2.422e+05,1.8403e+08,1,142,-7,287,47,-57,-99,0,0,0,1,1.8403e+08
2.4265e+05,1.8414e+08,1,142,-7,292,47,-57,-99,0,0,0,1,1.8414e+08
2.431e+05,1.8424e+08,1,142,-8,290,47,-57,-99,0,0,0,1,1.8424e+08
2.4355e+05,1.8435e+08,1,143,-8,289,47,-57,-99,0,0,0,1,1.8435e+08
2.4396e+05,1.8446e+08,1,144,-10,289,47,-57,-99,0,0,0,1,1.8446e+08
2.4442e+05,1.8456e+08,1,144,-7,289,47,-57,-99,0,0,0,1,1.8456e+08
2.4487e+05,1.8467e+08,1,143,-10,288,47,-57,-99,0,0,0,1,1.8467e+08
2.4532e+05,1.8477e+08,1,143,-9,285,47,-57,-99,0,0,0,1,1.8477e+08
2.4577e+05,1.8488e+08,1,143,-7,288,47,-57,-99,0,0,0,1,1.8488e+08
2.4622e+05,1.8499e+08,1,144,-8,289,47,-57,-99,0,0,0,1,1.8499e+08
2.4667e+05,1.8509e+08,1,144,-9,287,47,-57,-99,0,0,0,1,1.8509e+08
2.4713e+05,1.852e+08,1,142,-8,290,47,-57,-99,0,0,0,1,1.852e+08
2.4754e+05,1.853e+08,1,142,-9,289,47,-57,-99,0,0,0,1,1.853e+08
2.48e+05,1.854e+08,1,143,-10,291,47,-57,-99,0,0,0,1,1.854e+08
2.4841e+05,1.8551e+08,1,143,-9,293,47,-57,-99,0,0,0,1,1.8551e+08
2.4887e+05,1.8562e+08,1,143,-8,288,47,-57,-99,0,0,0,1,1.8562e+08
2.4931e+05,1.8572e+08,1,143,-9,289,47,-57,-99,0,0,0,1,1.8572e+08
2.4974e+05,1.8583e+08,1,142,-8,289,47,-57,-99,0,0,0,1,1.8583e+08
2.5019e+05,1.8593e+08,1,143,-6,289,47,-57,-99,0,0,0,1,1.8593e+08
2.5064e+05,1.8603e+08,1,143,-7,288,47,-57,-99,0,0,0,1,1.8603e+08
2.5109e+05,1.8614e+08,1,145,-7,287,47,-57,-99,0,0,0,1,1.8614e+08
2.5154e+05,1.8625e+08,1,143,-8,286,47,-57,-99,0,0,0,1,1.8625e+08
2.5199e+05,1.8636e+08,1,143,-8,288,47,-57,-99,0,0,0,1,1.8636e+08
2.5244e+05,1.8646e+08,1,144,-6,289,47,-57,-99,0,0,0,1,1.8646e+08
2.5289e+05,1.8656e+08,1,143,-6,287,47,-57,-99,0,0,0,1,1.8656e+08
2.5331e+05,1.8667e+08,1,144,-7,291,47,-57,-99,0,0,0,1,1.8667e+08
2.5376e+05,1.8677e+08,1,143,-8,287,47,-57,-99,0,0,0,1,1.8677e+08
2.5421e+05,1.8688e+08,1,143,-9,289,47,-57,-99,0,0,0,1,1.8688e+08
2.5466e+05,1.8699e+08,1,143,-10,289,47,-57,-99,0,0,0,1,1.8699e+08
2.5508e+05,1.8709e+08,1,144,-5,290,47,-57,-99,0,0,0,1,1.8709e+08
2.5554e+05,1.872e+08,1,142,-10,287,47,-57,-99,0,0,0,1,1.872e+08
2.5599e+05,1.873e+08,1,144,-9,286,47,-57,-99,0,0,0,1,1.873e+08
2.5644e+05,1.874e+08,1,145,-6,286,47,-57,-99,0,0,0,1,1.874e+08
2.5689e+05,1.8751e+08,1,143,-4,292,47,-57,-99,0,0,0,1,1.8751e+08
2.5734e+05,1.8761e+08,1,143,-7,291,47,-57,-99,0,0,0,1,1.8761e+08
2.5776e+05,1.8771e+08,1,143,-9,285,47,-57,-99,0,0,0,1,1.8771e+08
2.5821e+05,1.8782e+08,1,144,-5,287,47,-57,-99,0,0,0,1,1.8782e+08
2.5866e+05,1.8792e+08,1,143,-6,291,47,-57,-99,0,0,0,1,1.8792e+08
2.5908e+05,1.8802e+08,1,145,-8,289,47,-57,-99,0,0,0,1,1.8802e+08
2.5953e+05,1.8813e+08,1,142,-10,286,47,-57,-99,0,0,0,1,1.8813e+08
2.5996e+05,1.8823e+08,1,144,-9,292,47,-57,-99,0,0,0,1,1.8823e+08
2.604e+05,1.8833e+08,1,143,-8,291,47,-57,-99,0,0,0,1,1.8833e+08
2.6086e+05,1.8844e+08,1,144,-10,289,47,-57,-99,0,0,0,1,1.8844e+08
2.613e+05,1.8854e+08,1,142,-7,290,47,-57,-99,0,0,0,1,1.8854e+08
2.6176e+05,1.8864e+08,1,142,-5,290,47,-57,-99,0,0,0,1,1.8864e+08
2.6217e+05,1.8874e+08,1,144,-6,290,47,-57,-99,0,0,0,1,1.8874e+08
2.6262e+05,1.8884e+08,1,143,-8,288,47,-57,-99,0,0,0,1,1.8884e+08
2.6308e+05,1.8895e+08,1,143,-7,294,47,-57,-99,0,0,0,1,1.8895e+08
2.6352e+05,1.8905e+08,1,143,-4,290,47,-57,-99,0,0,0,1,1.8905e+08
2.6398e+05,1.8916e+08,1,143,-7,292,47,-57,-99,0,0,0,1,1.8916e+08
2.6443e+05,1.8926e+08,1,141,-10,293,47,-57,-99,0,0,0,1,1.8926e+08
2.6485e+05,1.8936e+08,1,140,-13,294,47,-57,-99,0,0,0,1,1.8936e+08
2.653e+05,1.8947e+08,1,140,-14,294,47,-57,-99,0,0,0,1,1.8947e+08
2.6575e+05,1.8957e+08,1,141,-11,294,47,-57,-99,0,0,0,1,1.8957e+08
2.662e+05,1.8967e+08,1,141,-12,294,47,-57,-99,0,0,0,1,1.8967e+08
2.6665e+05,1.8978e+08,1,141,-9,291,47,-57,-99,0,0,0,1,1.8978e+08
2.671e+05,1.8988e+08,1,142,-9,294,47,-57,-99,0,0,0,1,1.8988e+08
2.6755e+05,1.8998e+08,1,141,-11,293,47,-57,-99,0,0,0,1,1.8998e+08
2.68e+05,1.9009e+08,1,142,-8,294,47,-57,-99,0,0,0,1,1.9009e+08
2.6845e+05,1.9019e+08,1,141,-11,292,47,-57,-99,0,0,0,1,1.9019e+08
2.6887e+05,1.9029e+08,1,142,-10,291,47,-57,-99,0,0,0,1,1.9029e+08
2.6911e+05,1.9039e+08,1,141,-10,294,47,-57,-99,0,0,0,1,1.9039e+08
2.6955e+05,1.905e+08,1,142,-9,291,47,-57,-99,0,0,0,1,1.905e+08
2.7001e+05,1.906e+08,1,140,-9,297,47,-57,-99,0,0,0,1,1.906e+08
2.7045e+05,1.9071e+08,1,140,-10,294,47,-57,-99,0,0,0,1,1.9071e+08
2.7091e+05,1.9081e+08,1,143,-7,293,47,-57,-99,0,0,0,1,1.9081e+08
2.7136e+05,1.9091e+08,1,140,-11,294,47,-57,-99,0,0,0,1,1.9091e+08
2.7181e+05,1.9102e+08,1,141,-7,295,47,-57,-99,0,0,0,1,1.9102e+08
2.7222e+05,1.9112e+08,1,140,-9,292,47,-57,-99,0,0,0,1,1.9112e+08
2.7268e+05,1.9122e+08,1,143,-7,296,47,-57,-99,0,0,0,1,1.9122e+08
2.7313e+05,1.9133e+08,1,140,-8,296,47,-57,-99,0,0,0,1,1.9133e+08
2.7359e+05,1.9143e+08,1,141,-9,292,47,-57,-99,0,0,0,1,1.9143e+08
2.74e+05,1.9153e+08,1,141,-7,297,47,-57,-99,0,0,0,1,1.9153e+08
2.7445e+05,1.9163e+08,1,141,-8,294,47,-57,-99,0,0,0,1,1.9163e+08
2.749e+05,1.9174e+08,1,142,-7,298,47,-57,-99,0,0,0,1,1.9174e+08
2.7532e+05,1.9184e+08,1,140,-10,297,47,-57,-99,0,0,0,1,1.9184e+08
2.7577e+05,1.9194e+08,1,139,-13,302,47,-57,-99,0,0,0,1,1.9194e+08
2.7622e+05,1.9204e+08,1,133,-32,318,47,-57,-99,0,0,0,1,1.9204e+08
2.7667e+05,1.9215e+08,1,134,-28,316,47,-57,-99,0,0,0,1,1.9215e+08
2.7708e+05,1.9226e+08,1,124,-51,337,47,-57,-99,0,0,0,1,1.9226e+08
2.7754e+05,1.9236e+08,1,127,-54,339,47,-57,-99,0,0,0,1,1.9236e+08
2.7799e+05,1.9246e+08,1,119,-71,365,47,-57,-99,0,0,0,1,1.9246e+08
2.7844e+05,1.9257e+08,1,107,-114,397,47,-57,-99,0,0,0,1,1.9257e+08
2.7889e+05,1.9268e+08,1,108,-126,413,47,-57,-99,0,0,0,1,1.9268e+08
2.7934e+05,1.9278e+08,1,96,-147,439,47,-57,-99,0,0,0,1,1.9278e+08
2.7976e+05,1.9289e+08,1,88,-179,465,47,-57,-99,0,0,0,1,1.9289e+08
2.8021e+05,1.9299e+08,1,87,-173,457,47,-57,-99,0,0,0,1,1.9299e+08
2.8066e+05,1.931e+08,1,92,-156,434,47,-57,-99,0,0,0,1,1.931e+08
2.8111e+05,1.9321e+08,1,90,-150,429,47,-57,-99,0,0,0,1,1.9321e+08
2.8153e+05,1.9331e+08,1,88,-157,430,47,-57,-99,0,0,0,1,1.9331e+08
2.8198e+05,1.9341e+08,1,90,-143,420,47,-57,-99,0,0,0,1,1.9341e+08
2.8243e+05,1.9352e+08,1,98,-132,404,47,-57,-99,0,0,0,1,1.9352e+08
2.8288e+05,1.9363e+08,1,105,-144,402,47,-57,-99,0,0,0,1,1.9363e+08
2.8333e+05,1.9373e+08,1,98,-155,408,47,-57,-99,0,0,0,1,1.9373e+08
2.8378e+05,1.9384e+08,1,96,-160,412,47,-57,-99,0,0,0,1,1.9384e+08
2.842e+05,1.9395e+08,1,88,-164,421,47,-57,-99,0,0,0,1,1.9395e+08
2.8464e+05,1.9405e+08,1,90,-180,431,47,-57,-99,0,0,0,1,1.9405e+08
2.851e+05,1.9416e+08,1,85,-179,431,47,-57,-99,0,0,0,1,1.9416e+08
2.8554e+05,1.9426e+08,1,86,-177,432,47,-57,-99,0,0,0,1,1.9426e+08
2.86e+05,1.9437e+08,1,83,-178,433,47,-57,-99,0,0,0,1,1.9437e+08
2.8645e+05,1.9448e+08,1,87,-179,429,47,-57,-99,0,0,0,1,1.9448e+08
2.8686e+05,1.9458e+08,1,86,-173,430,47,-57,-99,0,0,0,1,1.9458e+08
2.8731e+05,1.9469e+08,1,88,-174,427,47,-57,-99,0,0,0,1,1.9469e+08
2.8776e+05,1.948e+08,1,88,-171,428,47,-57,-99,0,0,0,1,1.948e+08
2.8818e+05,1.9491e+08,1,88,-175,429,47,-57,-99,0,0,0,1,1.9491e+08
2.8863e+05,1.9501e+08,1,88,-182,427,47,-57,-99,0,0,0,1,1.9501e+08
2.8908e+05,1.9512e+08,1,82,-187,434,47,-57,-99,0,0,0,1,1.9512e+08
2.8953e+05,1.9523e+08,1,83,-183,433,47,-57,-99,0,0,0,1,1.9523e+08
2.8999e+05,1.9533e+08,1,82,-188,433,47,-57,-99,0,0,0,1,1.9533e+08
2.9044e+05,1.9544e+08,1,87,-183,429,47,-57,-99,0,0,0,1,1.9544e+08
2.9085e+05,1.9555e+08,1,90,-172,420,47,-57,-99,0,0,0,1,1.9555e+08
2.913e+05,1.9566e+08,1,92,-160,413,47,-57,-99,0,0,0,1,1.9566e+08
2.9175e+05,1.9576e+08,1,88,-164,418,47,-57,-99,0,0,0,1,1.9576e+08
2.9221e+05,1.9587e+08,1,94,-171,417,47,-57,-99,0,0,0,1,1.9587e+08
2.9266e+05,1.9598e+08,1,89,-171,417,47,-57,-99,0,0,0,1,1.9598e+08
2.931e+05,1.9609e+08,1,83,-158,424,47,-57,-99,0,0,0,1,1.9609e+08
2.9356e+05,1.9619e+08,1,88,-161,421,47,-57,-99,0,0,0,1,1.9619e+08
2.94e+05,1.963e+08,1,81,-155,425,47,-57,-99,0,0,0,1,1.963e+08
2.9446e+05,1.964e+08,1,83,-165,429,47,-57,-99,0,0,0,1,1.964e+08
2.949e+05,1.9651e+08,1,87,-160,421,47,-57,-99,0,0,0,1,1.9651e+08
2.9535e+05,1.9662e+08,1,86,-157,426,47,-57,-99,0,0,0,1,1.9662e+08
2.958e+05,1.9672e+08,1,84,-169,427,47,-57,-99,0,0,0,1,1.9672e+08
2.9625e+05,1.9683e+08,1,86,-165,419,47,-57,-99,0,0,0,1,1.9683e+08
2.9669e+05,1.9694e+08,1,79,-160,421,47,-57,-99,0,0,0,1,1.9694e+08
2.971e+05,1.9705e+08,1,86,-158,414,47,-57,-99,0,0,0,1,1.9705e+08
2.9755e+05,1.9716e+08,1,85,-159,410,47,-57,-99,0,0,0,1,1.9716e+08
2.9799e+05,1.9727e+08,1,88,-156,409,47,-57,-99,0,0,0,1,1.9727e+08
2.9844e+05,1.9738e+08,1,90,-158,408,47,-57,-99,0,0,0,1,1.9738e+08
2.9885e+05,1.9749e+08,1,84,-157,416,47,-57,-99,0,0,0,1,1.9749e+08
2.9929e+05,1.9759e+08,1,80,-160,414,47,-57,-99,0,0,0,1,1.9759e+08
2.9973e+05,1.977e+08,1,76,-148,418,47,-57,-99,0,0,0,1,1.977e+08
3.0018e+05,1.9781e+08,1,69,-147,425,47,-57,-99,0,0,0,1,1.9781e+08
3.0062e+05,1.9792e+08,1,63,-146,427,47,-57,-99,0,0,0,1,1.9792e+08
3.0107e+05,1.9803e+08,1,58,-141,436,47,-57,-99,0,0,0,1,1.9803e+08
3.0148e+05,1.9814e+08,1,56,-154,439,47,-57,-99,0,0,0,1,1.9814e+08
3.0192e+05,1.9824e+08,1,58,-146,433,47,-57,-99,0,0,0,1,1.9824e+08
3.0237e+05,1.9835e+08,1,58,-144,437,47,-57,-99,0,0,0,1,1.9835e+08
3.0279e+05,1.9846e+08,1,64,-143,432,47,-57,-99,0,0,0,1,1.9846e+08
3.0323e+05,1.9857e+08,1,64,-146,432,47,-57,-99,0,0,0,1,1.9857e+08
3.0367e+05,1.9867e+08,1,65,-154,434,47,-57,-99,0,0,0,1,1.9867e+08
3.0412e+05,1.9878e+08,1,66,-154,430,47,-57,-99,0,0,0,1,1.9878e+08
3.0456e+05,1.9889e+08,1,68,-166,430,47,-57,-99,0,0,0,1,1.9889e+08
3.0497e+05,1.99e+08,1,61,-172,437,47,-57,-99,0,0,0,1,1.99e+08
3.0542e+05,1.9911e+08,1,70,-164,426,47,-57,-99,0,0,0,1,1.9911e+08
3.0586e+05,1.9922e+08,1,73,-170,423,47,-57,-99,0,0,0,1,1.9922e+08
3.063e+05,1.9932e+08,1,77,-177,425,47,-57,-99,0,0,0,1,1.9932e+08
3.0672e+05,1.9943e+08,1,81,-182,416,47,-57,-99,0,0,0,1,1.9943e+08
3.0716e+05,1.9954e+08,1,78,-184,419,47,-57,-99,0,0,0,1,1.9954e+08
3.0761e+05,1.9965e+08,1,74,-190,420,47,-57,-99,0,0,0,1,1.9965e+08
3.0805e+05,1.9975e+08,1,75,-183,416,47,-57,-99,0,0,0,1,1.9975e+08
3.0847e+05,1.9986e+08,1,78,-175,415,47,-57,-99,0,0,0,1,1.9986e+08
3.0888e+05,1.9997e+08,1,79,-171,416,47,-57,-99,0,0,0,1,1.9997e+08
3.0933e+05,2.0008e+08,1,75,-185,421,47,-57,-99,0,0,0,1,2.0008e+08
3.0977e+05,2.0019e+08,1,76,-180,415,47,-57,-99,0,0,0,1,2.0019e+08
3.1022e+05,2.003e+08,1,75,-172,417,47,-57,-99,0,0,0,1,2.003e+08
3.1066e+05,2.0041e+08,1,71,-185,424,47,-57,-99,0,0,0,1,2.0041e+08
3.111e+05,2.0051e+08,1,73,-193,424,47,-57,-99,0,0,0,1,2.0051e+08
3.1155e+05,2.0062e+08,1,65,-190,427,47,-57,-99,0,0,0,1,2.0062e+08
3.12e+05,2.0073e+08,1,65,-200,434,47,-57,-99,0,0,0,1,2.0073e+08
3.1244e+05,2.0084e+08,1,56,-198,444,47,-57,-99,0,0,0,1,2.0084e+08
3.1285e+05,2.0094e+08,1,59,-189,441,47,-57,-99,0,0,0,1,2.0094e+08
3.1329e+05,2.0105e+08,1,56,-187,443,47,-57,-99,0,0,0,1,2.0105e+08
3.1374e+05,2.0116e+08,1,59,-190,435,47,-57,-99,0,0,0,1,2.0116e+08
3.1418e+05,2.0127e+08,1,65,-186,433,47,-57,-99,0,0,0,1,2.0127e+08
3.146e+05,2.0138e+08,1,70,-182,431,47,-57,-99,0,0,0,1,2.0138e+08
3.1504e+05,2.0149e+08,1,71,-187,433,47,-57,-99,0,0,0,1,2.0149e+08
3.1548e+05,2.0159e+08,1,72,-197,435,47,-57,-99,0,0,0,1,2.0159e+08
3.1592e+05,2.017e+08,1,75,-184,427,47,-57,-99,0,0,0,1,2.017e+08
3.1637e+05,2.0181e+08,1,79,-164,417,47,-57,-99,0,0,0,1,2.0181e+08
3.1681e+05,2.0192e+08,1,82,-159,416,47,-57,-99,0,0,0,1,2.0192e+08
3.1726e+05,2.0203e+08,1,86,-158,411,47,-57,-99,0,0,0,1,2.0203e+08
3.1767e+05,2.0213e+08,1,93,-148,399,47,-57,-99,0,0,0,1,2.0213e+08
3.1811e+05,2.0224e+08,1,92,-155,403,47,-57,-99,0,0,0,1,2.0224e+08
3.1856e+05,2.0235e+08,1,86,-153,413,47,-57,-99,0,0,0,1,2.0235e+08
3.19e+05,2.0246e+08,1,84,-160,416,47,-57,-99,0,0,0,1,2.0246e+08
3.1945e+05,2.0257e+08,1,82,-152,416,47,-57,-99,0,0,0,1,2.0257e+08
3.1986e+05,2.0267e+08,1,76,-162,425,47,-57,-99,0,0,0,1,2.0267e+08
3.2027e+05,2.0278e+08,1,76,-159,424,47,-57,-99,0,0,0,1,2.0278e+08
3.2072e+05,2.0289e+08,1,76,-156,426,47,-57,-99,0,0,0,1,2.0289e+08
3.2116e+05,2.03e+08,1,78,-162,424,47,-57,-99,0,0,0,1,2.03e+08
3.216e+05,2.031e+08,1,85,-161,415,47,-57,-99,0,0,0,1,2.031e+08
3.2205e+05,2.0321e+08,1,100,-159,403,47,-57,-99,0,0,0,1,2.0321e+08
3.2249e+05,2.0332e+08,1,99,-167,408,47,-57,-99,0,0,0,1,2.0332e+08
3.2294e+05,2.0343e+08,1,83,-171,423,47,-57,-99,0,0,0,1,2.0343e+08
3.2338e+05,2.0354e+08,1,72,-164,429,47,-57,-99,0,0,0,1,2.0354e+08
3.2383e+05,2.0364e+08,1,65,-155,430,47,-57,-99,0,0,0,1,2.0364e+08
3.2427e+05,2.0375e+08,1,63,-167,431,47,-57,-99,0,0,0,1,2.0375e+08
3.2472e+05,2.0386e+08,1,68,-160,427,47,-57,-99,0,0,0,1,2.0386e+08
3.2516e+05,2.0397e+08,1,70,-182,424,47,-57,-99,0,0,0,1,2.0397e+08
3.2557e+05,2.0408e+08,1,72,-194,421,47,-57,-99,0,0,0,1,2.0408e+08
3.2602e+05,2.0419e+08,1,71,-199,419,47,-57,-99,0,0,0,1,2.0419e+08
3.2647e+05,2.043e+08,1,71,-198,418,47,-57,-99,0,0,0,1,2.043e+08
3.2692e+05,2.044e+08,1,70,-191,419,47,-57,-99,0,0,0,1,2.044e+08
3.2736e+05,2.0452e+08,1,74,-179,417,47,-57,-99,0,0,0,1,2.0452e+08
3.278e+05,2.0462e+08,1,71,-182,420,47,-57,-99,0,0,0,1,2.0462e+08
3.2825e+05,2.0473e+08,1,69,-178,424,47,-57,-99,0,0,0,1,2.0473e+08
3.2866e+05,2.0484e+08,1,71,-162,422,47,-57,-99,0,0,0,1,2.0484e+08
3.291e+05,2.0495e+08,1,75,-169,421,47,-57,-99,0,0,0,1,2.0495e+08
3.2951e+05,2.0506e+08,1,72,-182,432,47,-57,-99,0,0,0,1,2.0506e+08
3.2996e+05,2.0516e+08,1,81,-184,427,47,-57,-99,0,0,0,1,2.0516e+08
3.3041e+05,2.0528e+08,1,67,-192,436,47,-57,-99,0,0,0,1,2.0528e+08
3.3074e+05,2.0549e+08,1,63,-178,430,47,-57,-99,0,0,0,1,2.0549e+08
3.3119e+05,2.056e+08,1,62,-172,438,47,-57,-99,0,0,0,1,2.056e+08
3.3163e+05,2.057e+08,1,62,-179,438,47,-57,-99,0,0,0,1,2.057e+08
3.3205e+05,2.0581e+08,1,67,-168,424,47,-57,-99,0,0,0,1,2.0581e+08
3.3249e+05,2.0592e+08,1,78,-171,412,47,-57,-99,0,0,0,1,2.0592e+08
3.3294e+05,2.0602e+08,1,82,-175,413,47,-57,-99,0,0,0,1,2.0602e+08
3.3334e+05,2.0613e+08,1,87,-193,406,47,-57,-99,0,0,0,1,2.0613e+08
3.3379e+05,2.0624e+08,1,82,-194,404,47,-57,-99,0,0,0,1,2.0624e+08
3.3424e+05,2.0634e+08,1,86,-197,401,47,-57,-99,0,0,0,1,2.0634e+08
3.3468e+05,2.0645e+08,1,82,-190,403,47,-57,-99,0,0,0,1,2.0645e+08
3.3512e+05,2.0656e+08,1,87,-187,404,47,-57,-99,0,0,0,1,2.0656e+08
3.3554e+05,2.0667e+08,1,84,-189,408,47,-57,-99,0,0,0,1,2.0667e+08
3.3598e+05,2.0677e+08,1,79,-182,415,47,-57,-99,0,0,0,1,2.0677e+08
3.3639e+05,2.0688e+08,1,78,-193,421,47,-57,-99,0,0,0,1,2.0688e+08
3.3684e+05,2.0699e+08,1,81,-199,423,47,-57,-99,0,0,0,1,2.0699e+08
3.3728e+05,2.071e+08,1,79,-200,418,47,-57,-99,0,0,0,1,2.071e+08
3.3773e+05,2.0721e+08,1,85,-190,414,47,-57,-99,0,0,0,1,2.0721e+08
3.3818e+05,2.0732e+08,1,96,-177,397,47,-57,-99,0,0,0,1,2.0732e+08
3.3862e+05,2.0743e+08,1,104,-173,386,47,-57,-99,0,0,0,1,2.0743e+08
3.3903e+05,2.0753e+08,1,105,-181,384,47,-57,-99,0,0,0,1,2.0753e+08
3.3948e+05,2.0764e+08,1,96,-183,393,47,-57,-99,0,0,0,1,2.0764e+08
3.3992e+05,2.0775e+08,1,87,-203,399,47,-57,-99,0,0,0,1,2.0775e+08
3.4033e+05,2.0785e+08,1,85,-207,405,47,-57,-99,0,0,0,1,2.0785e+08
3.4075e+05,2.0796e+08,1,81,-204,413,47,-57,-99,0,0,0,1,2.0796e+08
3.4119e+05,2.0807e+08,1,77,-202,411,47,-57,-99,0,0,0,1,2.0807e+08
3.4164e+05,2.0818e+08,1,80,-185,399,47,-57,-99,0,0,0,1,2.0818e+08
3.4205e+05,2.0829e+08,1,87,-183,398,47,-57,-99,0,0,0,1,2.0829e+08
3.425e+05,2.0839e+08,1,97,-173,386,47,-57,-99,0,0,0,1,2.0839e+08
3.4294e+05,2.085e+08,1,95,-192,392,47,-57,-99,0,0,0,1,2.085e+08
3.4338e+05,2.0861e+08,1,89,-192,399,47,-57,-99,0,0,0,1,2.0861e+08
3.438e+05,2.0871e+08,1,85,-193,408,47,-57,-99,0,0,0,1,2.0871e+08
3.4424e+05,2.0882e+08,1,73,-189,412,47,-57,-99,0,0,0,1,2.0882e+08
3.4469e+05,2.0893e+08,1,68,-171,415,47,-57,-99,0,0,0,1,2.0893e+08
3.451e+05,2.0903e+08,1,57,-168,426,47,-57,-99,0,0,0,1,2.0903e+08
3.4554e+05,2.0914e+08,1,59,-166,420,47,-57,-99,0,0,0,1,2.0914e+08
3.4599e+05,2.0925e+08,1,48,-188,432,47,-57,-99,0,0,0,1,2.0925e+08
3.4644e+05,2.0936e+08,1,47,-186,433,47,-57,-99,0,0,0,1,2.0936e+08
3.4688e+05,2.0947e+08,1,58,-178,426,47,-57,-99,0,0,0,1,2.0947e+08
3.4733e+05,2.0958e+08,1,58,-174,418,47,-57,-99,0,0,0,1,2.0958e+08
3.4774e+05,2.0968e+08,1,63,-196,429,47,-57,-99,0,0,0,1,2.0968e+08
3.4819e+05,2.0979e+08,1,60,-167,426,47,-57,-99,0,0,0,1,2.0979e+08
3.486e+05,2.099e+08,1,59,-167,430,47,-57,-99,0,0,0,1,2.099e+08
3.4905e+05,2.1e+08,1,53,-162,442,47,-57,-99,0,0,0,1,2.1e+08
3.4949e+05,2.1011e+08,1,37,-175,449,47,-57,-99,0,0,0,1,2.1011e+08
3.4994e+05,2.1022e+08,1,24,-160,459,47,-57,-99,0,0,0,1,2.1022e+08
3.5038e+05,2.1033e+08,1,33,-130,437,47,-57,-99,0,0,0,1,2.1033e+08
3.5083e+05,2.1043e+08,1,45,-127,434,47,-57,-99,0,0,0,1,2.1043e+08
3.5127e+05,2.1054e+08,1,52,-134,433,47,-57,-99,0,0,0,1,2.1054e+08
3.5169e+05,2.1065e+08,1,68,-132,433,47,-57,-99,0,0,0,1,2.1065e+08
3.5213e+05,2.1076e+08,1,75,-117,431,47,-57,-99,0,0,0,1,2.1076e+08
3.5258e+05,2.1087e+08,1,84,-98,425,47,-57,-99,0,0,0,1,2.1087e+08
3.5302e+05,2.1098e+08,1,87,-100,428,47,-57,-99,0,0,0,1,2.1098e+08
3.5344e+05,2.1108e+08,1,84,-118,435,47,-57,-99,0,0,0,1,2.1108e+08
3.5388e+05,2.1119e+08,1,91,-123,430,47,-57,-99,0,0,0,1,2.1119e+08
3.5432e+05,2.113e+08,1,103,-127,417,47,-57,-99,0,0,0,1,2.113e+08
3.5477e+05,2.114e+08,1,113,-138,412,47,-57,-99,0,0,0,1,2.114e+08
3.5521e+05,2.1151e+08,1,114,-137,411,47,-57,-99,0,0,0,1,2.1151e+08
3.5562e+05,2.1162e+08,1,117,-140,411,47,-57,-99,0,0,0,1,2.1162e+08
3.5607e+05,2.1173e+08,1,116,-148,414,47,-57,-99,0,0,0,1,2.1173e+08
3.5651e+05,2.1183e+08,1,120,-151,412,47,-57,-99,0,0,0,1,2.1183e+08
3.5696e+05,2.1194e+08,1,124,-156,404,47,-57,-99,0,0,0,1,2.1194e+08
3.574e+05,2.1205e+08,1,129,-155,397,47,-57,-99,0,0,0,1,2.1205e+08
3.5781e+05,2.1215e+08,1,134,-182,391,47,-57,-99,0,0,0,1,2.1215e+08
3.5826e+05,2.1226e+08,1,139,-193,384,47,-57,-99,0,0,0,1,2.1226e+08
3.587e+05,2.1237e+08,1,134,-198,384,47,-57,-99,0,0,0,1,2.1237e+08
3.5912e+05,2.1248e+08,1,132,-206,382,47,-57,-99,0,0,0,1,2.1248e+08
3.5956e+05,2.1258e+08,1,117,-221,392,47,-57,-99,0,0,0,1,2.1258e+08
3.6e+05,2.1269e+08,1,117,-217,392,47,-57,-99,0,0,0,1,2.1269e+08
3.6045e+05,2.128e+08,1,112,-216,399,47,-57,-99,0,0,0,1,2.128e+08
3.6087e+05,2.1291e+08,1,108,-233,398,47,-57,-99,0,0,0,1,2.1291e+08
3.6131e+05,2.1301e+08,1,112,-223,395,47,-57,-99,0,0,0,1,2.1301e+08
3.6175e+05,2.1312e+08,1,113,-214,395,47,-57,-99,0,0,0,1,2.1312e+08
3.622e+05,2.1323e+08,1,114,-212,401,47,-57,-99,0,0,0,1,2.1323e+08
3.6261e+05,2.1334e+08,1,110,-212,402,47,-57,-99,0,0,0,1,2.1334e+08
3.6306e+05,2.1345e+08,1,110,-222,408,47,-57,-99,0,0,0,1,2.1345e+08
3.635e+05,2.1355e+08,1,104,-231,416,47,-57,-99,0,0,0,1,2.1355e+08
3.6391e+05,2.1366e+08,1,111,-234,408,47,-57,-99,0,0,0,1,2.1366e+08
3.6436e+05,2.1377e+08,1,111,-231,401,47,-57,-99,0,0,0,1,2.1377e+08
3.6481e+05,2.1388e+08,1,109,-227,404,47,-57,-99,0,0,0,1,2.1388e+08
3.6525e+05,2.1398e+08,1,107,-213,412,47,-57,-99,0,0,0,1,2.1398e+08
3.657e+05,2.1409e+08,1,112,-187,404,47,-57,-99,0,0,0,1,2.1409e+08
3.6614e+05,2.142e+08,1,111,-169,408,47,-57,-99,0,0,0,1,2.142e+08
3.6655e+05,2.1431e+08,1,106,-151,410,47,-57,-99,0,0,0,1,2.1431e+08
3.67e+05,2.1442e+08,1,106,-149,412,47,-57,-99,0,0,0,1,2.1442e+08
3.6744e+05,2.1452e+08,1,97,-178,428,47,-57,-99,0,0,0,1,2.1452e+08
3.6789e+05,2.1463e+08,1,94,-179,432,47,-57,-99,0,0,0,1,2.1463e+08
3.683e+05,2.1474e+08,1,97,-167,420,47,-57,-99,0,0,0,1,2.1474e+08
3.6874e+05,2.1484e+08,1,100,-164,416,47,-57,-99,0,0,0,1,2.1484e+08
3.6919e+05,2.1495e+08,1,98,-178,424,47,-57,-99,0,0,0,1,2.1495e+08
3.6963e+05,2.1506e+08,1,101,-158,419,47,-57,-99,0,0,0,1,2.1506e+08
3.7008e+05,2.1516e+08,1,94,-168,424,47,-57,-99,0,0,0,1,2.1516e+08
3.7052e+05,2.1527e+08,1,93,-167,425,47,-57,-99,0,0,0,1,2.1527e+08
3.7097e+05,2.1538e+08,1,95,-165,424,47,-57,-99,0,0,0,1,2.1538e+08
3.7142e+05,2.1549e+08,1,96,-179,430,47,-57,-99,0,0,0,1,2.1549e+08
3.7183e+05,2.1559e+08,1,91,-187,436,47,-57,-99,0,0,0,1,2.1559e+08
3.7228e+05,2.157e+08,1,88,-177,435,47,-57,-99,0,0,0,1,2.157e+08
3.7269e+05,2.1581e+08,1,86,-172,432,47,-57,-99,0,0,0,1,2.1581e+08
3.7313e+05,2.1592e+08,1,85,-176,432,47,-57,-99,0,0,0,1,2.1592e+08
3.7358e+05,2.1602e+08,1,86,-156,432,47,-57,-99,0,0,0,1,2.1602e+08
3.7402e+05,2.1613e+08,1,84,-156,439,47,-57,-99,0,0,0,1,2.1613e+08
3.7447e+05,2.1624e+08,1,84,-147,441,47,-57,-99,0,0,0,1,2.1624e+08
3.7491e+05,2.1635e+08,1,86,-142,440,47,-57,-99,0,0,0,1,2.1635e+08
3.7533e+05,2.1645e+08,1,86,-164,445,47,-57,-99,0,0,0,1,2.1645e+08
3.7577e+05,2.1656e+08,1,88,-172,439,47,-57,-99,0,0,0,1,2.1656e+08
3.7622e+05,2.1667e+08,1,84,-180,438,47,-57,-99,0,0,0,1,2.1667e+08
3.7667e+05,2.1678e+08,1,76,-167,442,47,-57,-99,0,0,0,1,2.1678e+08
3.7711e+05,2.1689e+08,1,81,-172,441,47,-57,-99,0,0,0,1,2.1689e+08
3.7756e+05,2.1699e+08,1,79,-173,443,47,-57,-99,0,0,0,1,2.1699e+08
3.78e+05,2.171e+08,1,73,-183,451,47,-57,-99,0,0,0,1,2.171e+08
3.7845e+05,2.1721e+08,1,76,-174,440,47,-57,-99,0,0,0,1,2.1721e+08
3.7886e+05,2.1732e+08,1,80,-164,430,47,-57,-99,0,0,0,1,2.1732e+08
3.793e+05,2.1742e+08,1,79,-187,434,47,-57,-99,0,0,0,1,2.1742e+08
3.7975e+05,2.1753e+08,1,66,-191,444,47,-57,-99,0,0,0,1,2.1753e+08
3.8019e+05,2.1764e+08,1,69,-173,432,47,-57,-99,0,0,0,1,2.1764e+08
3.8064e+05,2.1775e+08,1,70,-187,438,47,-57,-99,0,0,0,1,2.1775e+08
3.8108e+05,2.1786e+08,1,71,-187,436,47,-57,-99,0,0,0,1,2.1786e+08
3.8153e+05,2.1797e+08,1,71,-180,432,47,-57,-99,0,0,0,1,2.1797e+08
3.8198e+05,2.1807e+08,1,74,-194,432,47,-57,-99,0,0,0,1,2.1807e+08
3.8242e+05,2.1818e+08,1,75,-199,437,47,-57,-99,0,0,0,1,2.1818e+08
3.8287e+05,2.1829e+08,1,75,-193,436,47,-57,-99,0,0,0,1,2.1829e+08
3.8332e+05,2.1839e+08,1,81,-185,427,47,-57,-99,0,0,0,1,2.1839e+08
3.8376e+05,2.185e+08,1,86,-184,423,47,-57,-99,0,0,0,1,2.185e+08
3.842e+05,2.1861e+08,1,83,-166,425,47,-57,-99,0,0,0,1,2.1861e+08
3.8462e+05,2.1872e+08,1,86,-144,422,47,-57,-99,0,0,0,1,2.1872e+08
3.8506e+05,2.1882e+08,1,87,-155,429,47,-57,-99,0,0,0,1,2.1882e+08
3.855e+05,2.1893e+08,1,82,-174,439,47,-57,-99,0,0,0,1,2.1893e+08
3.8595e+05,2.1904e+08,1,83,-193,445,47,-57,-99,0,0,0,1,2.1904e+08
3.864e+05,2.1914e+08,1,83,-176,426,47,-57,-99,0,0,0,1,2.1914e+08
3.8681e+05,2.1925e+08,1,85,-185,433,47,-57,-99,0,0,0,1,2.1925e+08
3.8725e+05,2.1936e+08,1,86,-183,427,47,-57,-99,0,0,0,1,2.1936e+08
3.877e+05,2.1947e+08,1,91,-171,417,47,-57,-99,0,0,0,1,2.1947e+08
3.8814e+05,2.1957e+08,1,90,-182,419,47,-57,-99,0,0,0,1,2.1957e+08
3.8855e+05,2.1968e+08,1,87,-191,418,47,-57,-99,0,0,0,1,2.1968e+08
3.89e+05,2.1979e+08,1,96,-189,399,47,-57,-99,0,0,0,1,2.1979e+08
3.8941e+05,2.199e+08,1,101,-187,400,47,-57,-99,0,0,0,1,2.199e+08
3.8985e+05,2.2e+08,1,104,-174,390,47,-57,-99,0,0,0,1,2.2e+08
3.903e+05,2.2011e+08,1,99,-163,400,47,-57,-99,0,0,0,1,2.2011e+08
3.9074e+05,2.2022e+08,1,101,-146,401,47,-57,-99,0,0,0,1,2.2022e+08
3.9119e+05,2.2033e+08,1,102,-143,408,47,-57,-99,0,0,0,1,2.2033e+08
3.9164e+05,2.2043e+08,1,100,-149,414,47,-57,-99,0,0,0,1,2.2043e+08
3.9204e+05,2.2054e+08,1,104,-133,403,47,-57,-99,0,0,0,1,2.2054e+08
3.9249e+05,2.2065e+08,1,106,-134,403,47,-57,-99,0,0,0,1,2.2065e+08
3.9294e+05,2.2076e+08,1,97,-141,415,47,-57,-99,0,0,0,1,2.2076e+08
3.9335e+05,2.2086e+08,1,103,-130,409,47,-57,-99,0,0,0,1,2.2086e+08
3.938e+05,2.2097e+08,1,100,-130,411,47,-57,-99,0,0,0,1,2.2097e+08
3.9424e+05,2.2108e+08,1,100,-133,411,47,-57,-99,0,0,0,1,2.2108e+08
3.9468e+05,2.2119e+08,1,99,-144,416,47,-57,-99,0,0,0,1,2.2119e+08
3.9512e+05,2.213e+08,1,100,-147,413,47,-57,-99,0,0,0,1,2.213e+08
3.9554e+05,2.214e+08,1,95,-143,412,47,-57,-99,0,0,0,1,2.214e+08
3.9599e+05,2.2151e+08,1,93,-146,412,47,-57,-99,0,0,0,1,2.2151e+08
3.964e+05,2.2162e+08,1,90,-159,413,47,-57,-99,0,0,0,1,2.2162e+08
3.9684e+05,2.2173e+08,1,87,-153,416,47,-57,-99,0,0,0,1,2.2173e+08
3.9729e+05,2.2183e+08,1,84,-154,422,47,-57,-99,0,0,0,1,2.2183e+08
3.9773e+05,2.2194e+08,1,79,-160,425,47,-57,-99,0,0,0,1,2.2194e+08
3.9818e+05,2.2205e+08,1,85,-160,424,47,-57,-99,0,0,0,1,2.2205e+08
3.9862e+05,2.2216e+08,1,75,-165,433,47,-57,-99,0,0,0,1,2.2216e+08
3.994e+05,2.2237e+08,1,72,-167,434,47,-57,-99,0,0,0,1,2.2237e+08
3.999e+05,2.2258e+08,1,71,-171,434,47,-57,-99,0,0,0,1,2.2258e+08
4.0034e+05,2.2268e+08,1,70,-172,430,47,-57,-99,0,0,0,1,2.2268e+08
