LineNo,TimeUS,I,MagX,MagY,MagZ,OfsX,OfsY,OfsZ,MOX,MOY,MOZ,Health,S
1575,1.9857e+07,2,123,-64,374,-399,44,42,0,0,0,1,1.9857e+07
1984,1.9959e+07,2,118,-61,369,-399,44,42,0,0,0,1,1.9959e+07
2399,2.0061e+07,2,122,-64,379,-399,44,42,0,0,0,1,2.0061e+07
2809,2.0162e+07,2,134,-67,391,-399,44,42,0,0,0,1,2.0162e+07
3221,2.0262e+07,2,135,-70,384,-399,44,42,0,0,0,1,2.0262e+07
3637,2.0364e+07,2,117,-62,368,-399,44,42,0,0,0,1,2.0364e+07
4048,2.0466e+07,2,123,-63,381,-399,44,42,0,0,0,1,2.0466e+07
4457,2.0568e+07,2,128,-67,393,-399,44,42,0,0,0,1,2.0568e+07
4872,2.0669e+07,2,129,-63,385,-399,44,42,0,0,0,1,2.0669e+07
5254,2.077e+07,2,127,-63,369,-399,44,42,0,0,0,1,2.077e+07
5668,2.0871e+07,2,120,-61,376,-399,44,42,0,0,0,1,2.0871e+07
6075,2.0972e+07,2,117,-64,374,-399,44,42,0,0,0,1,2.0972e+07
6487,2.1073e+07,2,114,-66,385,-399,44,42,0,0,0,1,2.1073e+07
6894,2.1173e+07,2,136,-59,394,-399,44,42,0,0,0,1,2.1173e+07
7277,2.1275e+07,2,121,-66,385,-399,44,42,0,0,0,1,2.1275e+07
7690,2.1375e+07,2,119,-60,377,-399,44,42,0,0,0,1,2.1375e+07
8075,2.1477e+07,2,115,-65,375,-399,44,42,0,0,0,1,2.1477e+07
8481,2.1578e+07,2,131,-65,390,-399,44,42,0,0,0,1,2.1578e+07
8891,2.168e+07,2,122,-65,387,-399,44,42,0,0,0,1,2.168e+07
9298,2.178e+07,2,109,-62,371,-399,44,42,0,0,0,1,2.178e+07
9551,2.188e+07,2,117,-59,377,-399,44,42,0,0,0,1,2.188e+07
9958,2.198e+07,2,118,-59,372,-399,44,42,0,0,0,1,2.198e+07
10368,2.208e+07,2,120,-62,386,-399,44,42,0,0,0,1,2.208e+07
10778,2.2182e+07,2,127,-66,391,-399,44,42,0,0,0,1,2.2182e+07
11165,2.2284e+07,2,121,-63,375,-399,44,42,0,0,0,1,2.2284e+07
11576,2.2386e+07,2,120,-65,372,-399,44,42,0,0,0,1,2.2386e+07
11990,2.2488e+07,2,120,-66,378,-399,44,42,0,0,0,1,2.2488e+07
12400,2.2591e+07,2,131,-66,395,-399,44,42,0,0,0,1,2.2591e+07
12811,2.2693e+07,2,131,-64,378,-399,44,42,0,0,0,1,2.2693e+07
13218,2.2793e+07,2,116,-57,371,-399,44,42,0,0,0,1,2.2793e+07
13630,2.2896e+07,2,123,-63,368,-399,44,42,0,0,0,1,2.2896e+07
14040,2.2997e+07,2,114,-63,376,-399,44,42,0,0,0,1,2.2997e+07
14451,2.3099e+07,2,133,-65,378,-399,44,42,0,0,0,1,2.3099e+07
14833,2.32e+07,2,128,-66,395,-399,44,42,0,0,0,1,2.32e+07
15244,2.3302e+07,2,123,-64,378,-399,44,42,0,0,0,1,2.3302e+07
15656,2.3405e+07,2,116,-65,380,-399,44,42,0,0,0,1,2.3405e+07
16069,2.3507e+07,2,124,-64,390,-399,44,42,0,0,0,1,2.3507e+07
16451,2.361e+07,2,130,-61,393,-399,44,42,0,0,0,1,2.361e+07
16862,2.3712e+07,2,120,-63,382,-399,44,42,0,0,0,1,2.3712e+07
17270,2.3814e+07,2,118,-65,377,-399,44,42,0,0,0,1,2.3814e+07
17685,2.3915e+07,2,117,-59,376,-399,44,42,0,0,0,1,2.3915e+07
18070,2.4018e+07,2,116,-58,373,-399,44,42,0,0,0,1,2.4018e+07
18483,2.4119e+07,2,120,-69,390,-399,44,42,0,0,0,1,2.4119e+07
18890,2.4221e+07,2,125,-64,394,-399,44,42,0,0,0,1,2.4221e+07
19300,2.4323e+07,2,119,-67,380,-399,44,42,0,0,0,1,2.4323e+07
19684,2.4424e+07,2,121,-64,375,-399,44,42,0,0,0,1,2.4424e+07
20096,2.4526e+07,2,121,-65,398,-399,44,42,0,0,0,1,2.4526e+07
20506,2.4628e+07,2,131,-79,388,-399,44,42,0,0,0,1,2.4628e+07
20920,2.4729e+07,2,110,-62,380,-399,44,42,0,0,0,1,2.4729e+07
21338,2.4832e+07,2,124,-62,372,-399,44,42,0,0,0,1,2.4832e+07
21754,2.4935e+07,2,106,-68,380,-399,44,42,0,0,0,1,2.4935e+07
22165,2.5036e+07,2,113,-61,378,-399,44,42,0,0,0,1,2.5036e+07
22580,2.514e+07,2,127,-71,388,-399,44,42,0,0,0,1,2.514e+07
22988,2.5243e+07,2,125,-61,392,-399,44,42,0,0,0,1,2.5243e+07
23407,2.5347e+07,2,112,-69,375,-399,44,42,0,0,0,1,2.5347e+07
23826,2.5448e+07,2,117,-64,371,-399,44,42,0,0,0,1,2.5448e+07
24239,2.5548e+07,2,127,-65,396,-399,44,42,0,0,0,1,2.5548e+07
24654,2.565e+07,2,124,-60,390,-399,44,42,0,0,0,1,2.565e+07
25067,2.5754e+07,2,105,-67,386,-399,44,42,0,0,0,1,2.5754e+07
25481,2.5856e+07,2,115,-67,375,-399,44,42,0,0,0,1,2.5856e+07
25891,2.5958e+07,2,108,-59,380,-399,44,42,0,0,0,1,2.5958e+07
26301,2.6059e+07,2,112,-69,385,-399,44,42,0,0,0,1,2.6059e+07
26680,2.616e+07,2,127,-67,390,-399,44,42,0,0,0,1,2.616e+07
27094,2.6261e+07,2,120,-66,392,-399,44,42,0,0,0,1,2.6261e+07
27500,2.6362e+07,2,114,-61,368,-399,44,42,0,0,0,1,2.6362e+07
27913,2.6463e+07,2,110,-60,380,-399,44,42,0,0,0,1,2.6463e+07
28320,2.6565e+07,2,131,-68,389,-399,44,42,0,0,0,1,2.6565e+07
28704,2.6667e+07,2,118,-69,398,-399,44,42,0,0,0,1,2.6667e+07
29117,2.6768e+07,2,112,-65,376,-399,44,42,0,0,0,1,2.6768e+07
29532,2.6869e+07,2,111,-63,380,-399,44,42,0,0,0,1,2.6869e+07
29942,2.6971e+07,2,107,-62,384,-399,44,42,0,0,0,1,2.6971e+07
30352,2.7073e+07,2,120,-63,383,-399,44,42,0,0,0,1,2.7073e+07
30758,2.7174e+07,2,121,-70,398,-399,44,42,0,0,0,1,2.7174e+07
31171,2.7276e+07,2,118,-64,386,-399,44,42,0,0,0,1,2.7276e+07
31577,2.7377e+07,2,115,-67,376,-399,44,42,0,0,0,1,2.7377e+07
31963,2.7479e+07,2,117,-65,381,-399,44,42,0,0,0,1,2.7479e+07
32369,2.7581e+07,2,121,-64,397,-399,44,42,0,0,0,1,2.7581e+07
32778,2.7683e+07,2,121,-65,384,-399,44,42,0,0,0,1,2.7683e+07
33191,2.7784e+07,2,108,-65,374,-399,44,42,0,0,0,1,2.7784e+07
33604,2.7885e+07,2,110,-61,377,-399,44,42,0,0,0,1,2.7885e+07
33986,2.7987e+07,2,110,-63,381,-399,44,42,0,0,0,1,2.7987e+07
34395,2.809e+07,2,116,-61,391,-399,44,42,0,0,0,1,2.809e+07
34805,2.8191e+07,2,128,-64,390,-399,44,42,0,0,0,1,2.8191e+07
35219,2.8293e+07,2,117,-71,382,-399,44,42,0,0,0,1,2.8293e+07
35625,2.8395e+07,2,115,-58,380,-399,44,42,0,0,0,1,2.8395e+07
36011,2.8497e+07,2,118,-63,386,-399,44,42,0,0,0,1,2.8497e+07
36421,2.8598e+07,2,129,-69,396,-399,44,42,0,0,0,1,2.8598e+07
36833,2.8701e+07,2,117,-66,380,-399,44,42,0,0,0,1,2.8701e+07
37247,2.8802e+07,2,112,-61,375,-399,44,42,0,0,0,1,2.8802e+07
37657,2.8904e+07,2,116,-64,374,-399,44,42,0,0,0,1,2.8904e+07
38065,2.9006e+07,2,116,-61,380,-399,44,42,0,0,0,1,2.9006e+07
38472,2.9108e+07,2,117,-69,390,-399,44,42,0,0,0,1,2.9108e+07
38881,2.921e+07,2,126,-64,389,-399,44,42,0,0,0,1,2.921e+07
39263,2.9311e+07,2,121,-69,379,-399,44,42,0,0,0,1,2.9311e+07
39671,2.9411e+07,2,109,-62,373,-399,44,42,0,0,0,1,2.9411e+07
40083,2.9513e+07,2,121,-71,392,-399,44,42,0,0,0,1,2.9513e+07
40491,2.9614e+07,2,127,-66,397,-399,44,42,0,0,0,1,2.9614e+07
40905,2.9718e+07,2,118,-70,383,-399,44,42,0,0,0,1,2.9718e+07
41316,2.9821e+07,2,109,-57,372,-399,44,42,0,0,0,1,2.9821e+07
41728,2.9923e+07,2,115,-66,370,-399,44,42,0,0,0,1,2.9923e+07
42140,3.0024e+07,2,116,-62,375,-399,44,42,0,0,0,1,3.0024e+07
42556,3.0125e+07,2,126,-64,385,-399,44,42,0,0,0,1,3.0125e+07
42968,3.0225e+07,2,126,-73,396,-399,44,42,0,0,0,1,3.0225e+07
43381,3.0327e+07,2,111,-64,378,-399,44,42,0,0,0,1,3.0327e+07
43766,3.0428e+07,2,118,-64,379,-399,44,42,0,0,0,1,3.0428e+07
44182,3.0531e+07,2,126,-64,391,-399,44,42,0,0,0,1,3.0531e+07
44590,3.0631e+07,2,125,-65,394,-399,44,42,0,0,0,1,3.0631e+07
45000,3.0734e+07,2,115,-71,374,-399,44,42,0,0,0,1,3.0734e+07
45415,3.0836e+07,2,119,-64,369,-399,44,42,0,0,0,1,3.0836e+07
45822,3.0937e+07,2,122,-60,370,-399,44,42,0,0,0,1,3.0937e+07
46200,3.1039e+07,2,112,-62,377,-399,44,42,0,0,0,1,3.1039e+07
46611,3.1141e+07,2,133,-74,384,-399,44,42,0,0,0,1,3.1141e+07
47021,3.1243e+07,2,130,-63,395,-399,44,42,0,0,0,1,3.1243e+07
47433,3.1345e+07,2,122,-61,370,-399,44,42,0,0,0,1,3.1345e+07
47846,3.1446e+07,2,116,-63,378,-399,44,42,0,0,0,1,3.1446e+07
48262,3.1547e+07,2,126,-72,399,-399,44,42,0,0,0,1,3.1547e+07
48646,3.1649e+07,2,124,-65,381,-399,44,42,0,0,0,1,3.1649e+07
49057,3.1751e+07,2,113,-64,371,-399,44,42,0,0,0,1,3.1751e+07
49474,3.1855e+07,2,110,-60,377,-399,44,42,0,0,0,1,3.1855e+07
49884,3.1957e+07,2,116,-63,375,-399,44,42,0,0,0,1,3.1957e+07
50296,3.2058e+07,2,121,-65,375,-399,44,42,0,0,0,1,3.2058e+07
50678,3.216e+07,2,131,-67,390,-399,44,42,0,0,0,1,3.216e+07
51097,3.2262e+07,2,131,-68,386,-399,44,42,0,0,0,1,3.2262e+07
51505,3.2363e+07,2,112,-62,375,-399,44,42,0,0,0,1,3.2363e+07
51885,3.2463e+07,2,117,-65,376,-399,44,42,0,0,0,1,3.2463e+07
52293,3.2565e+07,2,130,-64,396,-399,44,42,0,0,0,1,3.2565e+07
52708,3.2666e+07,2,123,-63,381,-399,44,42,0,0,0,1,3.2666e+07
53121,3.2767e+07,2,118,-61,368,-399,44,42,0,0,0,1,3.2767e+07
53536,3.2869e+07,2,113,-61,370,-399,44,42,0,0,0,1,3.2869e+07
53944,3.297e+07,2,111,-65,374,-399,44,42,0,0,0,1,3.297e+07
54356,3.3072e+07,2,123,-63,380,-399,44,42,0,0,0,1,3.3072e+07
54762,3.3174e+07,2,136,-64,391,-399,44,42,0,0,0,1,3.3174e+07
55177,3.3275e+07,2,122,-65,391,-399,44,42,0,0,0,1,3.3275e+07
55586,3.3377e+07,2,111,-56,377,-399,44,42,0,0,0,1,3.3377e+07
55972,3.3477e+07,2,126,-65,376,-399,44,42,0,0,0,1,3.3477e+07
56379,3.3579e+07,2,131,-64,392,-399,44,42,0,0,0,1,3.3579e+07
56787,3.3681e+07,2,127,-66,379,-399,44,42,0,0,0,1,3.3681e+07
57200,3.3784e+07,2,122,-60,369,-399,44,42,0,0,0,1,3.3784e+07
57587,3.3886e+07,2,120,-62,372,-399,44,42,0,0,0,1,3.3886e+07
57998,3.3988e+07,2,121,-65,377,-399,44,42,0,0,0,1,3.3988e+07
58408,3.409e+07,2,122,-64,382,-399,44,42,0,0,0,1,3.409e+07
58816,3.4191e+07,2,135,-66,391,-399,44,42,0,0,0,1,3.4191e+07
59234,3.4294e+07,2,124,-60,381,-399,44,42,0,0,0,1,3.4294e+07
59641,3.4396e+07,2,123,-60,370,-399,44,42,0,0,0,1,3.4396e+07
60026,3.4497e+07,2,131,-65,381,-399,44,42,0,0,0,1,3.4497e+07
60436,3.4599e+07,2,132,-64,390,-399,44,42,0,0,0,1,3.4599e+07
60845,3.4701e+07,2,121,-68,384,-399,44,42,0,0,0,1,3.4701e+07
61251,3.4803e+07,2,123,-58,375,-399,44,42,0,0,0,1,3.4803e+07
61662,3.4904e+07,2,120,-59,369,-399,44,42,0,0,0,1,3.4904e+07
62042,3.5005e+07,2,124,-62,366,-399,44,42,0,0,0,1,3.5005e+07
62452,3.5107e+07,2,130,-64,383,-399,44,42,0,0,0,1,3.5107e+07
62860,3.5209e+07,2,128,-66,387,-399,44,42,0,0,0,1,3.5209e+07
63273,3.5311e+07,2,124,-66,372,-399,44,42,0,0,0,1,3.5311e+07
63682,3.5412e+07,2,119,-57,372,-399,44,42,0,0,0,1,3.5412e+07
64093,3.5514e+07,2,132,-60,388,-399,44,42,0,0,0,1,3.5514e+07
64500,3.5616e+07,2,137,-60,393,-399,44,42,0,0,0,1,3.5616e+07
64876,3.5717e+07,2,126,-67,376,-399,44,42,0,0,0,1,3.5717e+07
65280,3.5818e+07,2,119,-63,375,-399,44,42,0,0,0,1,3.5818e+07
65683,3.592e+07,2,119,-65,386,-399,44,42,0,0,0,1,3.592e+07
66050,3.6021e+07,2,119,-67,372,-399,44,42,0,0,0,1,3.6021e+07
66457,3.6122e+07,2,126,-66,390,-399,44,42,0,0,0,1,3.6122e+07
66859,3.6222e+07,2,127,-65,398,-399,44,42,0,0,0,1,3.6222e+07
67235,3.6323e+07,2,112,-63,386,-399,44,42,0,0,0,1,3.6323e+07
67642,3.6424e+07,2,110,-65,378,-399,44,42,0,0,0,1,3.6424e+07
68054,3.6525e+07,2,124,-69,391,-399,44,42,0,0,0,1,3.6525e+07
68455,3.6626e+07,2,127,-72,397,-399,44,42,0,0,0,1,3.6626e+07
68863,3.6727e+07,2,117,-64,379,-399,44,42,0,0,0,1,3.6727e+07
69267,3.6828e+07,2,120,-63,374,-399,44,42,0,0,0,1,3.6828e+07
69676,3.693e+07,2,111,-63,370,-399,44,42,0,0,0,1,3.693e+07
70053,3.7031e+07,2,114,-60,379,-399,44,42,0,0,0,1,3.7031e+07
70456,3.7133e+07,2,132,-64,400,-399,44,42,0,0,0,1,3.7133e+07
70859,3.7234e+07,2,128,-59,390,-399,44,42,0,0,0,1,3.7234e+07
71264,3.7336e+07,2,114,-72,378,-399,44,42,0,0,0,1,3.7336e+07
71666,3.7437e+07,2,113,-57,376,-399,44,42,0,0,0,1,3.7437e+07
72071,3.7538e+07,2,121,-73,393,-399,44,42,0,0,0,1,3.7538e+07
72473,3.7639e+07,2,128,-96,385,-399,44,42,0,0,0,1,3.7638e+07
72880,3.774e+07,2,127,-87,369,-399,44,42,0,0,0,1,3.774e+07
73255,3.7843e+07,2,149,-89,356,-399,44,42,0,0,0,1,3.7843e+07
73661,3.7944e+07,2,146,-82,351,-399,44,42,0,0,0,1,3.7944e+07
74068,3.8046e+07,2,118,-64,375,-399,44,42,0,0,0,1,3.8046e+07
74472,3.8148e+07,2,100,-58,415,-399,44,42,0,0,0,1,3.8148e+07
74883,3.8248e+07,2,66,-45,419,-399,44,42,0,0,0,1,3.8248e+07
75287,3.835e+07,2,21,17,413,-399,44,42,0,0,0,1,3.835e+07
75692,3.8452e+07,2,-12,68,423,-399,44,42,0,0,0,1,3.8452e+07
76097,3.8555e+07,2,-35,110,420,-399,44,42,0,0,0,1,3.8555e+07
76503,3.8656e+07,2,-71,156,413,-399,44,42,0,0,0,1,3.8656e+07
76909,3.8757e+07,2,-123,186,382,-399,44,42,0,0,0,1,3.8757e+07
77312,3.8858e+07,2,-150,220,368,-399,44,42,0,0,0,1,3.8858e+07
77719,3.8959e+07,2,-180,267,325,-399,44,42,0,0,0,1,3.8959e+07
78122,3.906e+07,2,-176,327,267,-399,44,42,0,0,0,1,3.906e+07
78529,3.916e+07,2,-164,359,244,-399,44,42,0,0,0,1,3.916e+07
78940,3.926e+07,2,-164,387,179,-399,44,42,0,0,0,1,3.926e+07
79344,3.9361e+07,2,-191,402,121,-399,44,42,0,0,0,1,3.9361e+07
79752,3.9462e+07,2,-216,409,81,-399,44,42,0,0,0,1,3.9462e+07
80153,3.9562e+07,2,-230,401,49,-399,44,42,0,0,0,1,3.9562e+07
80558,3.9663e+07,2,-255,395,4,-399,44,42,0,0,0,1,3.9663e+07
80934,3.9763e+07,2,-284,389,-39,-399,44,42,0,0,0,1,3.9763e+07
81338,3.9865e+07,2,-264,399,-83,-399,44,42,0,0,0,1,3.9865e+07
81745,3.9966e+07,2,-241,401,-123,-399,44,42,0,0,0,1,3.9966e+07
82147,4.0067e+07,2,-220,397,-154,-399,44,42,0,0,0,1,4.0067e+07
82553,4.0168e+07,2,-210,386,-161,-399,44,42,0,0,0,1,4.0168e+07
82955,4.0269e+07,2,-207,382,-202,-399,44,42,0,0,0,1,4.0269e+07
83362,4.037e+07,2,-198,381,-212,-399,44,42,0,0,0,1,4.037e+07
83771,4.047e+07,2,-170,397,-207,-399,44,42,0,0,0,1,4.047e+07
84150,4.057e+07,2,-156,397,-199,-399,44,42,0,0,0,1,4.057e+07
84554,4.067e+07,2,-150,398,-212,-399,44,42,0,0,0,1,4.067e+07
84958,4.0771e+07,2,-142,406,-228,-399,44,42,0,0,0,1,4.0771e+07
85337,4.0872e+07,2,-132,404,-226,-399,44,42,0,0,0,1,4.0872e+07
85740,4.0974e+07,2,-128,411,-213,-399,44,42,0,0,0,1,4.0974e+07
86147,4.1074e+07,2,-119,421,-185,-399,44,42,0,0,0,1,4.1074e+07
86521,4.1174e+07,2,-112,421,-181,-399,44,42,0,0,0,1,4.1174e+07
86924,4.1276e+07,2,-112,414,-205,-399,44,42,0,0,0,1,4.1276e+07
87328,4.1376e+07,2,-108,419,-213,-399,44,42,0,0,0,1,4.1376e+07
87733,4.1476e+07,2,-90,433,-184,-399,44,42,0,0,0,1,4.1476e+07
88142,4.1577e+07,2,-69,433,-152,-399,44,42,0,0,0,1,4.1577e+07
88547,4.1677e+07,2,-68,433,-161,-399,44,42,0,0,0,1,4.1677e+07
88924,4.1778e+07,2,-85,430,-181,-399,44,42,0,0,0,1,4.1778e+07
89325,4.188e+07,2,-91,422,-198,-399,44,42,0,0,0,1,4.188e+07
89732,4.1982e+07,2,-82,428,-196,-399,44,42,0,0,0,1,4.1982e+07
90142,4.2084e+07,2,-62,432,-184,-399,44,42,0,0,0,1,4.2084e+07
90547,4.2185e+07,2,-53,427,-175,-399,44,42,0,0,0,1,4.2185e+07
90923,4.2285e+07,2,-60,426,-189,-399,44,42,0,0,0,1,4.2285e+07
91324,4.2385e+07,2,-66,431,-204,-399,44,42,0,0,0,1,4.2385e+07
91731,4.2487e+07,2,-42,423,-203,-399,44,42,0,0,0,1,4.2486e+07
92134,4.2588e+07,2,-25,428,-174,-399,44,42,0,0,0,1,4.2588e+07
92543,4.2689e+07,2,-21,431,-166,-399,44,42,0,0,0,1,4.2689e+07
92916,4.2789e+07,2,-20,434,-182,-399,44,42,0,0,0,1,4.2789e+07
93320,4.289e+07,2,-33,423,-208,-399,44,42,0,0,0,1,4.289e+07
93723,4.2991e+07,2,-32,421,-221,-399,44,42,0,0,0,1,4.2991e+07
94129,4.3092e+07,2,-22,409,-217,-399,44,42,0,0,0,1,4.3092e+07
94536,4.3194e+07,2,-9,410,-219,-399,44,42,0,0,0,1,4.3194e+07
94911,4.3294e+07,2,-13,400,-235,-399,44,42,0,0,0,1,4.3294e+07
95315,4.3394e+07,2,-8,404,-235,-399,44,42,0,0,0,1,4.3394e+07
95718,4.3495e+07,2,14,403,-215,-399,44,42,0,0,0,1,4.3495e+07
96121,4.3597e+07,2,15,420,-189,-399,44,42,0,0,0,1,4.3597e+07
96528,4.37e+07,2,12,432,-173,-399,44,42,0,0,0,1,4.37e+07
96936,4.3802e+07,2,11,440,-168,-399,44,42,0,0,0,1,4.3802e+07
97311,4.3903e+07,2,0,445,-163,-399,44,42,0,0,0,1,4.3903e+07
97718,4.4006e+07,2,-12,440,-162,-399,44,42,0,0,0,1,4.4006e+07
98124,4.4108e+07,2,-2,447,-144,-399,44,42,0,0,0,1,4.4108e+07
98527,4.4209e+07,2,3,441,-133,-399,44,42,0,0,0,1,4.4209e+07
98933,4.431e+07,2,-3,446,-135,-399,44,42,0,0,0,1,4.431e+07
99334,4.441e+07,2,0,447,-146,-399,44,42,0,0,0,1,4.441e+07
99738,4.451e+07,2,11,437,-145,-399,44,42,0,0,0,1,4.451e+07
1.0014e+05,4.4611e+07,2,12,436,-140,-399,44,42,0,0,0,1,4.4611e+07
1.0052e+05,4.4714e+07,2,-1,442,-142,-399,44,42,0,0,0,1,4.4714e+07
1.0092e+05,4.4815e+07,2,-6,444,-123,-399,44,42,0,0,0,1,4.4815e+07
1.0133e+05,4.4915e+07,2,5,459,-109,-399,44,42,0,0,0,1,4.4915e+07
1.0173e+05,4.5016e+07,2,9,451,-99,-399,44,42,0,0,0,1,4.5016e+07
1.0214e+05,4.5117e+07,2,23,454,-76,-399,44,42,0,0,0,1,4.5117e+07
1.0254e+05,4.5217e+07,2,43,453,-58,-399,44,42,0,0,0,1,4.5217e+07
1.0295e+05,4.5318e+07,2,42,448,-46,-399,44,42,0,0,0,1,4.5318e+07
1.0332e+05,4.542e+07,2,42,448,-10,-399,44,42,0,0,0,1,4.542e+07
1.0373e+05,4.5521e+07,2,49,446,25,-399,44,42,0,0,0,1,4.5521e+07
1.0414e+05,4.5622e+07,2,46,444,33,-399,44,42,0,0,0,1,4.5622e+07
1.0455e+05,4.5723e+07,2,28,446,32,-399,44,42,0,0,0,1,4.5723e+07
1.0495e+05,4.5823e+07,2,19,445,53,-399,44,42,0,0,0,1,4.5823e+07
1.0536e+05,4.5925e+07,2,21,436,72,-399,44,42,0,0,0,1,4.5925e+07
1.0574e+05,4.6027e+07,2,19,429,89,-399,44,42,0,0,0,1,4.6027e+07
1.0614e+05,4.6129e+07,2,42,427,126,-399,44,42,0,0,0,1,4.6129e+07
1.0652e+05,4.6231e+07,2,44,419,135,-399,44,42,0,0,0,1,4.6231e+07
1.0693e+05,4.6332e+07,2,34,410,156,-399,44,42,0,0,0,1,4.6332e+07
1.0733e+05,4.6433e+07,2,33,388,185,-399,44,42,0,0,0,1,4.6433e+07
1.0774e+05,4.6534e+07,2,50,371,218,-399,44,42,0,0,0,1,4.6534e+07
1.0812e+05,4.6635e+07,2,72,356,236,-399,44,42,0,0,0,1,4.6635e+07
1.0852e+05,4.6735e+07,2,67,332,252,-399,44,42,0,0,0,1,4.6735e+07
1.0893e+05,4.6836e+07,2,58,315,270,-399,44,42,0,0,0,1,4.6836e+07
1.0931e+05,4.6937e+07,2,57,309,284,-399,44,42,0,0,0,1,4.6937e+07
1.0972e+05,4.7038e+07,2,50,306,293,-399,44,42,0,0,0,1,4.7038e+07
1.1009e+05,4.7139e+07,2,55,281,326,-399,44,42,0,0,0,1,4.7139e+07
1.105e+05,4.7239e+07,2,53,263,352,-399,44,42,0,0,0,1,4.7239e+07
1.109e+05,4.7341e+07,2,32,243,349,-399,44,42,0,0,0,1,4.7341e+07
1.1131e+05,4.7442e+07,2,21,243,362,-399,44,42,0,0,0,1,4.7442e+07
1.1172e+05,4.7542e+07,2,20,240,381,-399,44,42,0,0,0,1,4.7542e+07
1.1212e+05,4.7643e+07,2,3,232,383,-399,44,42,0,0,0,1,4.7643e+07
1.1253e+05,4.7746e+07,2,-13,237,366,-399,44,42,0,0,0,1,4.7746e+07
1.1293e+05,4.7847e+07,2,-10,233,374,-399,44,42,0,0,0,1,4.7847e+07
1.1334e+05,4.7948e+07,2,-3,216,382,-399,44,42,0,0,0,1,4.7948e+07
1.1372e+05,4.805e+07,2,-19,211,389,-399,44,42,0,0,0,1,4.805e+07
1.1412e+05,4.8151e+07,2,-25,209,403,-399,44,42,0,0,0,1,4.8151e+07
1.1452e+05,4.8253e+07,2,-33,212,404,-399,44,42,0,0,0,1,4.8253e+07
1.1493e+05,4.8355e+07,2,-47,204,395,-399,44,42,0,0,0,1,4.8355e+07
1.1534e+05,4.8456e+07,2,-42,192,403,-399,44,42,0,0,0,1,4.8456e+07
1.1574e+05,4.8558e+07,2,-30,184,420,-399,44,42,0,0,0,1,4.8558e+07
1.1627e+05,1.0792e+08,2,-14,216,385,-399,44,42,0,0,0,1,1.0792e+08
1.1672e+05,1.0802e+08,2,-10,221,387,-399,44,42,0,0,0,1,1.0802e+08
1.1714e+05,1.0813e+08,2,-9,213,395,-399,44,42,0,0,0,1,1.0813e+08
1.1759e+05,1.0823e+08,2,-13,218,391,-399,44,42,0,0,0,1,1.0823e+08
1.1804e+05,1.0833e+08,2,-12,213,391,-399,44,42,0,0,0,1,1.0833e+08
1.1849e+05,1.0843e+08,2,-13,214,390,-399,44,42,0,0,0,1,1.0843e+08
1.189e+05,1.0853e+08,2,-14,213,387,-399,44,42,0,0,0,1,1.0853e+08
1.1936e+05,1.0864e+08,2,-12,215,391,-399,44,42,0,0,0,1,1.0864e+08
1.1978e+05,1.0874e+08,2,-17,214,390,-399,44,42,0,0,0,1,1.0874e+08
1.2023e+05,1.0884e+08,2,-9,220,385,-399,44,42,0,0,0,1,1.0884e+08
1.2064e+05,1.0894e+08,2,-14,213,392,-399,44,42,0,0,0,1,1.0894e+08
1.211e+05,1.0905e+08,2,-12,217,390,-399,44,42,0,0,0,1,1.0905e+08
1.2155e+05,1.0915e+08,2,-8,222,384,-399,44,42,0,0,0,1,1.0915e+08
1.22e+05,1.0925e+08,2,-17,214,395,-399,44,42,0,0,0,1,1.0925e+08
1.2245e+05,1.0936e+08,2,-12,219,387,-399,44,42,0,0,0,1,1.0936e+08
1.229e+05,1.0946e+08,2,-14,217,388,-399,44,42,0,0,0,1,1.0946e+08
1.2335e+05,1.0956e+08,2,-17,217,392,-399,44,42,0,0,0,1,1.0956e+08
1.238e+05,1.0966e+08,2,-15,217,389,-399,44,42,0,0,0,1,1.0966e+08
1.2425e+05,1.0976e+08,2,-17,220,380,-399,44,42,0,0,0,1,1.0976e+08
1.247e+05,1.0987e+08,2,-15,221,389,-399,44,42,0,0,0,1,1.0987e+08
1.2515e+05,1.0997e+08,2,-9,211,396,-399,44,42,0,0,0,1,1.0997e+08
1.2557e+05,1.1007e+08,2,-13,211,393,-399,44,42,0,0,0,1,1.1007e+08
1.2603e+05,1.1017e+08,2,-16,213,396,-399,44,42,0,0,0,1,1.1017e+08
1.2648e+05,1.1027e+08,2,-13,212,396,-399,44,42,0,0,0,1,1.1027e+08
1.2693e+05,1.1038e+08,2,-19,218,389,-399,44,42,0,0,0,1,1.1038e+08
1.2738e+05,1.1048e+08,2,-16,216,388,-399,44,42,0,0,0,1,1.1048e+08
1.2783e+05,1.1058e+08,2,-17,218,394,-399,44,42,0,0,0,1,1.1058e+08
1.2858e+05,1.1078e+08,2,-18,214,392,-399,44,42,0,0,0,1,1.1078e+08
1.2903e+05,1.1089e+08,2,-13,211,394,-399,44,42,0,0,0,1,1.1089e+08
1.2948e+05,1.1099e+08,2,-19,218,390,-399,44,42,0,0,0,1,1.1099e+08
1.2994e+05,1.1109e+08,2,-14,213,394,-399,44,42,0,0,0,1,1.1109e+08
1.3036e+05,1.112e+08,2,-18,214,394,-399,44,42,0,0,0,1,1.112e+08
1.308e+05,1.113e+08,2,-16,217,391,-399,44,42,0,0,0,1,1.113e+08
1.3126e+05,1.114e+08,2,-15,211,390,-399,44,42,0,0,0,1,1.114e+08
1.3171e+05,1.1151e+08,2,-22,219,391,-399,44,42,0,0,0,1,1.1151e+08
1.3216e+05,1.1161e+08,2,-13,218,387,-399,44,42,0,0,0,1,1.1161e+08
1.3261e+05,1.1171e+08,2,-20,213,392,-399,44,42,0,0,0,1,1.1171e+08
1.3306e+05,1.1181e+08,2,-17,213,391,-399,44,42,0,0,0,1,1.1181e+08
1.3351e+05,1.1192e+08,2,-19,218,388,-399,44,42,0,0,0,1,1.1192e+08
1.3396e+05,1.1202e+08,2,-15,219,395,-399,44,42,0,0,0,1,1.1202e+08
1.3438e+05,1.1212e+08,2,-17,213,392,-399,44,42,0,0,0,1,1.1212e+08
1.3484e+05,1.1223e+08,2,-17,216,393,-399,44,42,0,0,0,1,1.1223e+08
1.3525e+05,1.1233e+08,2,-20,215,386,-399,44,42,0,0,0,1,1.1233e+08
1.357e+05,1.1243e+08,2,-15,217,393,-399,44,42,0,0,0,1,1.1243e+08
1.3615e+05,1.1253e+08,2,-16,217,392,-399,44,42,0,0,0,1,1.1253e+08
1.3661e+05,1.1263e+08,2,-14,215,389,-399,44,42,0,0,0,1,1.1263e+08
1.3706e+05,1.1274e+08,2,-18,211,393,-399,44,42,0,0,0,1,1.1274e+08
1.3751e+05,1.1284e+08,2,-8,223,391,-399,44,42,0,0,0,1,1.1284e+08
1.3796e+05,1.1294e+08,2,-17,210,392,-399,44,42,0,0,0,1,1.1294e+08
1.3841e+05,1.1304e+08,2,-16,215,395,-399,44,42,0,0,0,1,1.1304e+08
1.3883e+05,1.1314e+08,2,-10,219,389,-399,44,42,0,0,0,1,1.1314e+08
1.3924e+05,1.1325e+08,2,-16,213,386,-399,44,42,0,0,0,1,1.1325e+08
1.3966e+05,1.1335e+08,2,-11,213,387,-399,44,42,0,0,0,1,1.1335e+08
1.4006e+05,1.1345e+08,2,-13,216,392,-399,44,42,0,0,0,1,1.1345e+08
1.4048e+05,1.1355e+08,2,-15,215,385,-399,44,42,0,0,0,1,1.1355e+08
1.4089e+05,1.1366e+08,2,-14,214,394,-399,44,42,0,0,0,1,1.1366e+08
1.413e+05,1.1376e+08,2,-18,215,385,-399,44,42,0,0,0,1,1.1376e+08
1.4168e+05,1.1386e+08,2,-13,217,388,-399,44,42,0,0,0,1,1.1386e+08
1.421e+05,1.1396e+08,2,-13,218,384,-399,44,42,0,0,0,1,1.1396e+08
1.4251e+05,1.1406e+08,2,-9,217,394,-399,44,42,0,0,0,1,1.1406e+08
1.4292e+05,1.1417e+08,2,-13,218,388,-399,44,42,0,0,0,1,1.1417e+08
1.433e+05,1.1427e+08,2,-12,215,395,-399,44,42,0,0,0,1,1.1427e+08
1.4372e+05,1.1437e+08,2,-14,216,390,-399,44,42,0,0,0,1,1.1437e+08
1.4412e+05,1.1447e+08,2,-14,218,388,-399,44,42,0,0,0,1,1.1447e+08
1.4454e+05,1.1457e+08,2,-12,216,395,-399,44,42,0,0,0,1,1.1457e+08
1.4492e+05,1.1467e+08,2,-16,218,388,-399,44,42,0,0,0,1,1.1467e+08
1.4533e+05,1.1477e+08,2,-10,216,388,-399,44,42,0,0,0,1,1.1477e+08
1.4571e+05,1.1488e+08,2,-18,215,390,-399,44,42,0,0,0,1,1.1488e+08
1.4612e+05,1.1498e+08,2,-5,217,387,-399,44,42,0,0,0,1,1.1498e+08
1.4653e+05,1.1508e+08,2,-15,230,386,-399,44,42,0,0,0,1,1.1508e+08
1.4695e+05,1.1519e+08,2,-14,223,383,-399,44,42,0,0,0,1,1.1519e+08
1.4736e+05,1.1529e+08,2,-10,219,387,-399,44,42,0,0,0,1,1.1529e+08
1.4774e+05,1.1539e+08,2,-10,214,390,-399,44,42,0,0,0,1,1.1539e+08
1.4815e+05,1.1549e+08,2,-9,220,385,-399,44,42,0,0,0,1,1.1549e+08
1.4857e+05,1.156e+08,2,-13,217,387,-399,44,42,0,0,0,1,1.156e+08
1.4898e+05,1.157e+08,2,-9,221,382,-399,44,42,0,0,0,1,1.157e+08
1.4939e+05,1.158e+08,2,-16,218,393,-399,44,42,0,0,0,1,1.158e+08
1.498e+05,1.1591e+08,2,-16,216,393,-399,44,42,0,0,0,1,1.1591e+08
1.5022e+05,1.1601e+08,2,-15,216,388,-399,44,42,0,0,0,1,1.1601e+08
1.5063e+05,1.1611e+08,2,-19,213,392,-399,44,42,0,0,0,1,1.1611e+08
1.5104e+05,1.1622e+08,2,-19,215,389,-399,44,42,0,0,0,1,1.1622e+08
1.5145e+05,1.1632e+08,2,-8,214,388,-399,44,42,0,0,0,1,1.1632e+08
1.5186e+05,1.1642e+08,2,-14,219,394,-399,44,42,0,0,0,1,1.1642e+08
1.5224e+05,1.1653e+08,2,-12,215,387,-399,44,42,0,0,0,1,1.1653e+08
1.5266e+05,1.1663e+08,2,-20,205,398,-399,44,42,0,0,0,1,1.1663e+08
1.5307e+05,1.1673e+08,2,-18,214,399,-399,44,42,0,0,0,1,1.1673e+08
1.5348e+05,1.1683e+08,2,-16,219,388,-399,44,42,0,0,0,1,1.1683e+08
1.5386e+05,1.1694e+08,2,-18,215,395,-399,44,42,0,0,0,1,1.1694e+08
1.5428e+05,1.1704e+08,2,-13,219,386,-399,44,42,0,0,0,1,1.1704e+08
1.5469e+05,1.1714e+08,2,-12,219,393,-399,44,42,0,0,0,1,1.1714e+08
1.5509e+05,1.1724e+08,2,-13,220,390,-399,44,42,0,0,0,1,1.1724e+08
1.5551e+05,1.1735e+08,2,-19,220,390,-399,44,42,0,0,0,1,1.1735e+08
1.5592e+05,1.1745e+08,2,-13,217,385,-399,44,42,0,0,0,1,1.1745e+08
1.5633e+05,1.1755e+08,2,-13,218,389,-399,44,42,0,0,0,1,1.1755e+08
1.5672e+05,1.1766e+08,2,-17,220,393,-399,44,42,0,0,0,1,1.1766e+08
1.5713e+05,1.1776e+08,2,-18,220,392,-399,44,42,0,0,0,1,1.1776e+08
1.5754e+05,1.1786e+08,2,-18,221,390,-399,44,42,0,0,0,1,1.1786e+08
1.5796e+05,1.1796e+08,2,-13,217,388,-399,44,42,0,0,0,1,1.1796e+08
1.5834e+05,1.1807e+08,2,-12,217,390,-399,44,42,0,0,0,1,1.1807e+08
1.5875e+05,1.1817e+08,2,-14,216,388,-399,44,42,0,0,0,1,1.1817e+08
1.5916e+05,1.1827e+08,2,-15,214,391,-399,44,42,0,0,0,1,1.1827e+08
1.5957e+05,1.1837e+08,2,-13,220,390,-399,44,42,0,0,0,1,1.1837e+08
1.5998e+05,1.1848e+08,2,-9,219,394,-399,44,42,0,0,0,1,1.1848e+08
1.604e+05,1.1858e+08,2,-17,223,387,-399,44,42,0,0,0,1,1.1858e+08
1.6081e+05,1.1868e+08,2,-18,210,392,-399,44,42,0,0,0,1,1.1868e+08
1.6122e+05,1.1878e+08,2,-16,220,388,-399,44,42,0,0,0,1,1.1878e+08
1.6163e+05,1.1889e+08,2,-14,219,389,-399,44,42,0,0,0,1,1.1889e+08
1.6201e+05,1.1899e+08,2,-20,212,394,-399,44,42,0,0,0,1,1.1899e+08
1.6242e+05,1.1909e+08,2,-12,219,393,-399,44,42,0,0,0,1,1.1909e+08
1.6284e+05,1.1919e+08,2,-13,219,387,-399,44,42,0,0,0,1,1.1919e+08
1.6324e+05,1.193e+08,2,-18,220,393,-399,44,42,0,0,0,1,1.193e+08
1.6366e+05,1.194e+08,2,-15,215,391,-399,44,42,0,0,0,1,1.194e+08
1.6406e+05,1.195e+08,2,-18,221,386,-399,44,42,0,0,0,1,1.195e+08
1.6448e+05,1.1961e+08,2,-19,222,395,-399,44,42,0,0,0,1,1.1961e+08
1.6489e+05,1.1971e+08,2,-16,213,391,-399,44,42,0,0,0,1,1.1971e+08
1.6527e+05,1.1981e+08,2,-20,212,390,-399,44,42,0,0,0,1,1.1981e+08
1.6568e+05,1.1991e+08,2,-9,216,391,-399,44,42,0,0,0,1,1.1991e+08
1.6607e+05,1.2001e+08,2,-8,222,385,-399,44,42,0,0,0,1,1.2001e+08
1.6648e+05,1.2012e+08,2,-21,212,391,-399,44,42,0,0,0,1,1.2012e+08
1.6686e+05,1.2022e+08,2,-15,217,386,-399,44,42,0,0,0,1,1.2022e+08
1.6728e+05,1.2032e+08,2,-17,211,396,-399,44,42,0,0,0,1,1.2032e+08
1.6769e+05,1.2042e+08,2,-15,218,393,-399,44,42,0,0,0,1,1.2042e+08
1.6808e+05,1.2052e+08,2,-16,213,396,-399,44,42,0,0,0,1,1.2052e+08
1.6849e+05,1.2063e+08,2,-16,212,385,-399,44,42,0,0,0,1,1.2063e+08
1.689e+05,1.2073e+08,2,-21,217,389,-399,44,42,0,0,0,1,1.2073e+08
1.6931e+05,1.2083e+08,2,-15,221,389,-399,44,42,0,0,0,1,1.2083e+08
1.6972e+05,1.2093e+08,2,-18,208,395,-399,44,42,0,0,0,1,1.2093e+08
1.7013e+05,1.2103e+08,2,-14,215,390,-399,44,42,0,0,0,1,1.2103e+08
1.7054e+05,1.2114e+08,2,-17,219,388,-399,44,42,0,0,0,1,1.2114e+08
1.7093e+05,1.2124e+08,2,-10,214,389,-399,44,42,0,0,0,1,1.2124e+08
1.7134e+05,1.2134e+08,2,-15,215,391,-399,44,42,0,0,0,1,1.2134e+08
1.7175e+05,1.2144e+08,2,-18,217,390,-399,44,42,0,0,0,1,1.2144e+08
1.7216e+05,1.2154e+08,2,-12,211,392,-399,44,42,0,0,0,1,1.2154e+08
1.7257e+05,1.2164e+08,2,-17,219,394,-399,44,42,0,0,0,1,1.2164e+08
1.7295e+05,1.2175e+08,2,-16,214,391,-399,44,42,0,0,0,1,1.2175e+08
1.7336e+05,1.2185e+08,2,-14,214,384,-399,44,42,0,0,0,1,1.2185e+08
1.7377e+05,1.2195e+08,2,-6,217,390,-399,44,42,0,0,0,1,1.2195e+08
1.7418e+05,1.2205e+08,2,-12,217,388,-399,44,42,0,0,0,1,1.2205e+08
1.746e+05,1.2215e+08,2,-11,222,390,-399,44,42,0,0,0,1,1.2215e+08
1.75e+05,1.2226e+08,2,-8,216,387,-399,44,42,0,0,0,1,1.2226e+08
1.7542e+05,1.2236e+08,2,-10,213,392,-399,44,42,0,0,0,1,1.2236e+08
1.758e+05,1.2246e+08,2,-10,219,389,-399,44,42,0,0,0,1,1.2246e+08
1.7621e+05,1.2256e+08,2,-15,209,390,-399,44,42,0,0,0,1,1.2256e+08
1.7662e+05,1.2266e+08,2,-9,214,394,-399,44,42,0,0,0,1,1.2266e+08
1.7704e+05,1.2277e+08,2,-16,215,395,-399,44,42,0,0,0,1,1.2277e+08
1.7745e+05,1.2287e+08,2,-13,217,395,-399,44,42,0,0,0,1,1.2287e+08
1.7786e+05,1.2297e+08,2,-13,214,393,-399,44,42,0,0,0,1,1.2297e+08
1.7827e+05,1.2307e+08,2,-15,214,389,-399,44,42,0,0,0,1,1.2307e+08
1.7868e+05,1.2317e+08,2,-12,218,390,-399,44,42,0,0,0,1,1.2317e+08
1.7907e+05,1.2327e+08,2,-11,221,387,-399,44,42,0,0,0,1,1.2327e+08
1.7948e+05,1.2338e+08,2,-12,216,385,-399,44,42,0,0,0,1,1.2338e+08
1.7989e+05,1.2348e+08,2,-12,216,388,-399,44,42,0,0,0,1,1.2348e+08
1.803e+05,1.2358e+08,2,-14,219,389,-399,44,42,0,0,0,1,1.2358e+08
1.8071e+05,1.2368e+08,2,-15,222,386,-399,44,42,0,0,0,1,1.2368e+08
1.8112e+05,1.2379e+08,2,-10,217,398,-399,44,42,0,0,0,1,1.2379e+08
1.8153e+05,1.2389e+08,2,-13,215,388,-399,44,42,0,0,0,1,1.2389e+08
1.8195e+05,1.2399e+08,2,-10,216,387,-399,44,42,0,0,0,1,1.2399e+08
1.8236e+05,1.2409e+08,2,-8,217,394,-399,44,42,0,0,0,1,1.2409e+08
1.8277e+05,1.242e+08,2,-14,218,393,-399,44,42,0,0,0,1,1.242e+08
1.8318e+05,1.243e+08,2,-13,219,388,-399,44,42,0,0,0,1,1.243e+08
1.836e+05,1.244e+08,2,-12,214,387,-399,44,42,0,0,0,1,1.244e+08
1.8401e+05,1.2451e+08,2,-16,216,392,-399,44,42,0,0,0,1,1.2451e+08
1.8442e+05,1.2461e+08,2,-15,219,386,-399,44,42,0,0,0,1,1.2461e+08
1.848e+05,1.2471e+08,2,-9,221,388,-399,44,42,0,0,0,1,1.2471e+08
1.8521e+05,1.2481e+08,2,-15,213,390,-399,44,42,0,0,0,1,1.2481e+08
1.8562e+05,1.2491e+08,2,-13,216,397,-399,44,42,0,0,0,1,1.2491e+08
1.8604e+05,1.2502e+08,2,-14,220,392,-399,44,42,0,0,0,1,1.2502e+08
1.8645e+05,1.2512e+08,2,-11,214,387,-399,44,42,0,0,0,1,1.2512e+08
1.8686e+05,1.2522e+08,2,-12,222,394,-399,44,42,0,0,0,1,1.2522e+08
1.8724e+05,1.2532e+08,2,-16,216,388,-399,44,42,0,0,0,1,1.2532e+08
1.8766e+05,1.2543e+08,2,-15,213,392,-399,44,42,0,0,0,1,1.2543e+08
1.8807e+05,1.2553e+08,2,-14,215,386,-399,44,42,0,0,0,1,1.2553e+08
1.8848e+05,1.2563e+08,2,-13,216,390,-399,44,42,0,0,0,1,1.2563e+08
1.8886e+05,1.2573e+08,2,-14,217,392,-399,44,42,0,0,0,1,1.2573e+08
1.8928e+05,1.2583e+08,2,-17,216,393,-399,44,42,0,0,0,1,1.2583e+08
1.8969e+05,1.2594e+08,2,-12,217,390,-399,44,42,0,0,0,1,1.2594e+08
1.901e+05,1.2604e+08,2,-13,217,389,-399,44,42,0,0,0,1,1.2604e+08
1.9051e+05,1.2614e+08,2,-15,218,389,-399,44,42,0,0,0,1,1.2614e+08
1.9092e+05,1.2625e+08,2,-9,221,386,-399,44,42,0,0,0,1,1.2625e+08
1.9134e+05,1.2635e+08,2,-18,216,390,-399,44,42,0,0,0,1,1.2635e+08
1.9175e+05,1.2645e+08,2,-11,219,387,-399,44,42,0,0,0,1,1.2645e+08
1.9216e+05,1.2655e+08,2,-14,214,390,-399,44,42,0,0,0,1,1.2655e+08
1.9254e+05,1.2665e+08,2,-11,216,388,-399,44,42,0,0,0,1,1.2665e+08
1.9295e+05,1.2676e+08,2,-18,218,390,-399,44,42,0,0,0,1,1.2676e+08
1.9368e+05,1.2696e+08,2,-18,219,389,-399,44,42,0,0,0,1,1.2696e+08
1.9409e+05,1.2706e+08,2,-7,210,405,-399,44,42,0,0,0,1,1.2706e+08
1.9451e+05,1.2717e+08,2,-12,223,385,-399,44,42,0,0,0,1,1.2717e+08
1.9489e+05,1.2727e+08,2,-11,213,392,-399,44,42,0,0,0,1,1.2727e+08
1.953e+05,1.2737e+08,2,-11,225,387,-399,44,42,0,0,0,1,1.2737e+08
1.9571e+05,1.2747e+08,2,-12,229,389,-399,44,42,0,0,0,1,1.2747e+08
1.9613e+05,1.2757e+08,2,0,225,389,-399,44,42,0,0,0,1,1.2757e+08
1.9653e+05,1.2768e+08,2,-1,234,390,-399,44,42,0,0,0,1,1.2768e+08
1.9692e+05,1.2778e+08,2,-2,234,384,-399,44,42,0,0,0,1,1.2778e+08
1.9733e+05,1.2788e+08,2,-5,236,387,-399,44,42,0,0,0,1,1.2788e+08
1.9774e+05,1.2798e+08,2,-9,228,377,-399,44,42,0,0,0,1,1.2798e+08
1.9815e+05,1.2809e+08,2,-5,212,392,-399,44,42,0,0,0,1,1.2809e+08
1.9882e+05,1.7398e+08,2,124,-44,375,-399,44,42,0,0,0,1,1.7398e+08
1.9924e+05,1.7408e+08,2,129,-51,368,-399,44,42,0,0,0,1,1.7408e+08
1.9969e+05,1.7418e+08,2,132,-54,375,-399,44,42,0,0,0,1,1.7418e+08
2.0011e+05,1.7428e+08,2,125,-44,370,-399,44,42,0,0,0,1,1.7428e+08
2.0056e+05,1.7438e+08,2,123,-46,371,-399,44,42,0,0,0,1,1.7438e+08
2.0101e+05,1.7448e+08,2,127,-46,367,-399,44,42,0,0,0,1,1.7448e+08
2.0146e+05,1.7459e+08,2,124,-43,369,-399,44,42,0,0,0,1,1.7459e+08
2.0191e+05,1.7469e+08,2,122,-42,372,-399,44,42,0,0,0,1,1.7469e+08
2.0233e+05,1.7479e+08,2,118,-42,374,-399,44,42,0,0,0,1,1.7479e+08
2.0278e+05,1.7489e+08,2,131,-52,367,-399,44,42,0,0,0,1,1.7489e+08
2.032e+05,1.7499e+08,2,120,-45,374,-399,44,42,0,0,0,1,1.7499e+08
2.0365e+05,1.751e+08,2,123,-44,364,-399,44,42,0,0,0,1,1.751e+08
2.0407e+05,1.752e+08,2,129,-42,371,-399,44,42,0,0,0,1,1.752e+08
2.0452e+05,1.753e+08,2,129,-44,374,-399,44,42,0,0,0,1,1.753e+08
2.0497e+05,1.754e+08,2,124,-47,363,-399,44,42,0,0,0,1,1.754e+08
2.0542e+05,1.755e+08,2,122,-51,372,-399,44,42,0,0,0,1,1.755e+08
2.0587e+05,1.7561e+08,2,117,-57,375,-399,44,42,0,0,0,1,1.7561e+08
2.0629e+05,1.7571e+08,2,121,-39,364,-399,44,42,0,0,0,1,1.7571e+08
2.0674e+05,1.7581e+08,2,127,-40,369,-399,44,42,0,0,0,1,1.7581e+08
2.072e+05,1.7591e+08,2,127,-41,369,-399,44,42,0,0,0,1,1.7591e+08
2.0765e+05,1.7601e+08,2,123,-47,379,-399,44,42,0,0,0,1,1.7601e+08
2.081e+05,1.7611e+08,2,124,-44,373,-399,44,42,0,0,0,1,1.7611e+08
2.0855e+05,1.7621e+08,2,127,-42,375,-399,44,42,0,0,0,1,1.7621e+08
2.0897e+05,1.7632e+08,2,126,-46,377,-399,44,42,0,0,0,1,1.7632e+08
2.0942e+05,1.7642e+08,2,135,-44,366,-399,44,42,0,0,0,1,1.7642e+08
2.0971e+05,1.7652e+08,2,122,-44,376,-399,44,42,0,0,0,1,1.7652e+08
2.1017e+05,1.7662e+08,2,124,-41,378,-399,44,42,0,0,0,1,1.7662e+08
2.1062e+05,1.7672e+08,2,123,-40,369,-399,44,42,0,0,0,1,1.7672e+08
2.1104e+05,1.7683e+08,2,127,-44,366,-399,44,42,0,0,0,1,1.7683e+08
2.1149e+05,1.7693e+08,2,125,-51,376,-399,44,42,0,0,0,1,1.7693e+08
2.1194e+05,1.7703e+08,2,123,-42,371,-399,44,42,0,0,0,1,1.7703e+08
2.1239e+05,1.7713e+08,2,130,-45,369,-399,44,42,0,0,0,1,1.7713e+08
2.1285e+05,1.7723e+08,2,131,-38,370,-399,44,42,0,0,0,1,1.7723e+08
2.133e+05,1.7733e+08,2,129,-42,367,-399,44,42,0,0,0,1,1.7733e+08
2.1372e+05,1.7744e+08,2,125,-44,360,-399,44,42,0,0,0,1,1.7744e+08
2.1417e+05,1.7754e+08,2,126,-43,370,-399,44,42,0,0,0,1,1.7754e+08
2.1462e+05,1.7764e+08,2,122,-46,374,-399,44,42,0,0,0,1,1.7764e+08
2.1504e+05,1.7774e+08,2,127,-45,367,-399,44,42,0,0,0,1,1.7774e+08
2.1549e+05,1.7784e+08,2,126,-47,378,-399,44,42,0,0,0,1,1.7784e+08
2.1594e+05,1.7795e+08,2,130,-44,368,-399,44,42,0,0,0,1,1.7795e+08
2.164e+05,1.7805e+08,2,131,-45,368,-399,44,42,0,0,0,1,1.7805e+08
2.1685e+05,1.7815e+08,2,127,-38,371,-399,44,42,0,0,0,1,1.7815e+08
2.1731e+05,1.7826e+08,2,126,-47,370,-399,44,42,0,0,0,1,1.7826e+08
2.1776e+05,1.7836e+08,2,130,-47,370,-399,44,42,0,0,0,1,1.7836e+08
2.1821e+05,1.7846e+08,2,125,-37,373,-399,44,42,0,0,0,1,1.7846e+08
2.1866e+05,1.7857e+08,2,130,-43,368,-399,44,42,0,0,0,1,1.7857e+08
2.1911e+05,1.7867e+08,2,120,-43,378,-399,44,42,0,0,0,1,1.7867e+08
2.1956e+05,1.7877e+08,2,124,-49,377,-399,44,42,0,0,0,1,1.7877e+08
2.2001e+05,1.7887e+08,2,120,-42,376,-399,44,42,0,0,0,1,1.7887e+08
2.2043e+05,1.7898e+08,2,116,-46,382,-399,44,42,0,0,0,1,1.7898e+08
2.2088e+05,1.7908e+08,2,126,-42,369,-399,44,42,0,0,0,1,1.7908e+08
2.2133e+05,1.7918e+08,2,124,-55,366,-399,44,42,0,0,0,1,1.7918e+08
2.2178e+05,1.7928e+08,2,126,-42,375,-399,44,42,0,0,0,1,1.7928e+08
2.2223e+05,1.7938e+08,2,123,-50,380,-399,44,42,0,0,0,1,1.7938e+08
2.2264e+05,1.7949e+08,2,131,-47,373,-399,44,42,0,0,0,1,1.7949e+08
2.2309e+05,1.7959e+08,2,117,-40,372,-399,44,42,0,0,0,1,1.7959e+08
2.2354e+05,1.7969e+08,2,129,-41,372,-399,44,42,0,0,0,1,1.7969e+08
2.2399e+05,1.7979e+08,2,126,-44,368,-399,44,42,0,0,0,1,1.7979e+08
2.2441e+05,1.799e+08,2,124,-51,372,-399,44,42,0,0,0,1,1.799e+08
2.2486e+05,1.8e+08,2,127,-45,375,-399,44,42,0,0,0,1,1.8e+08
2.2531e+05,1.801e+08,2,126,-50,368,-399,44,42,0,0,0,1,1.801e+08
2.2576e+05,1.802e+08,2,131,-44,375,-399,44,42,0,0,0,1,1.802e+08
2.2617e+05,1.8031e+08,2,126,-49,369,-399,44,42,0,0,0,1,1.8031e+08
2.2663e+05,1.8041e+08,2,127,-46,366,-399,44,42,0,0,0,1,1.8041e+08
2.2705e+05,1.8051e+08,2,118,-44,378,-399,44,42,0,0,0,1,1.8051e+08
2.275e+05,1.8061e+08,2,125,-40,373,-399,44,42,0,0,0,1,1.8061e+08
2.2795e+05,1.8071e+08,2,125,-49,367,-399,44,42,0,0,0,1,1.8071e+08
2.284e+05,1.8082e+08,2,130,-45,366,-399,44,42,0,0,0,1,1.8082e+08
2.2883e+05,1.8092e+08,2,127,-44,373,-399,44,42,0,0,0,1,1.8092e+08
2.2928e+05,1.8103e+08,2,123,-46,372,-399,44,42,0,0,0,1,1.8103e+08
2.2973e+05,1.8113e+08,2,123,-42,375,-399,44,42,0,0,0,1,1.8113e+08
2.3015e+05,1.8123e+08,2,126,-42,374,-399,44,42,0,0,0,1,1.8123e+08
2.306e+05,1.8134e+08,2,127,-47,369,-399,44,42,0,0,0,1,1.8134e+08
2.3105e+05,1.8144e+08,2,132,-43,367,-399,44,42,0,0,0,1,1.8144e+08
2.315e+05,1.8155e+08,2,127,-40,371,-399,44,42,0,0,0,1,1.8155e+08
2.3192e+05,1.8165e+08,2,128,-47,369,-399,44,42,0,0,0,1,1.8165e+08
2.3237e+05,1.8175e+08,2,128,-46,370,-399,44,42,0,0,0,1,1.8175e+08
2.3282e+05,1.8186e+08,2,125,-34,372,-399,44,42,0,0,0,1,1.8186e+08
2.3324e+05,1.8196e+08,2,135,-46,365,-399,44,42,0,0,0,1,1.8196e+08
2.3369e+05,1.8206e+08,2,128,-45,366,-399,44,42,0,0,0,1,1.8206e+08
2.3415e+05,1.8217e+08,2,124,-39,371,-399,44,42,0,0,0,1,1.8217e+08
2.346e+05,1.8227e+08,2,126,-56,371,-399,44,42,0,0,0,1,1.8227e+08
2.3505e+05,1.8237e+08,2,126,-53,372,-399,44,42,0,0,0,1,1.8237e+08
2.355e+05,1.8248e+08,2,130,-38,374,-399,44,42,0,0,0,1,1.8248e+08
2.3595e+05,1.8258e+08,2,124,-42,367,-399,44,42,0,0,0,1,1.8258e+08
2.364e+05,1.8268e+08,2,129,-47,373,-399,44,42,0,0,0,1,1.8268e+08
2.3685e+05,1.8279e+08,2,122,-48,373,-399,44,42,0,0,0,1,1.8279e+08
2.373e+05,1.8289e+08,2,125,-46,372,-399,44,42,0,0,0,1,1.8289e+08
2.3775e+05,1.8299e+08,2,126,-41,373,-399,44,42,0,0,0,1,1.8299e+08
2.3817e+05,1.831e+08,2,122,-42,373,-399,44,42,0,0,0,1,1.831e+08
2.3862e+05,1.832e+08,2,127,-52,371,-399,44,42,0,0,0,1,1.832e+08
2.3907e+05,1.8331e+08,2,125,-46,375,-399,44,42,0,0,0,1,1.8331e+08
2.3952e+05,1.8341e+08,2,128,-47,371,-399,44,42,0,0,0,1,1.8341e+08
2.3997e+05,1.8351e+08,2,126,-45,370,-399,44,42,0,0,0,1,1.8351e+08
2.4042e+05,1.8362e+08,2,122,-42,378,-399,44,42,0,0,0,1,1.8362e+08
2.4087e+05,1.8372e+08,2,126,-41,375,-399,44,42,0,0,0,1,1.8372e+08
2.4132e+05,1.8382e+08,2,117,-42,375,-399,44,42,0,0,0,1,1.8382e+08
2.4175e+05,1.8393e+08,2,131,-41,371,-399,44,42,0,0,0,1,1.8393e+08
2.422e+05,1.8403e+08,2,121,-46,369,-399,44,42,0,0,0,1,1.8403e+08
2.4265e+05,1.8414e+08,2,126,-47,369,-399,44,42,0,0,0,1,1.8414e+08
2.431e+05,1.8424e+08,2,123,-53,373,-399,44,42,0,0,0,1,1.8424e+08
2.4355e+05,1.8435e+08,2,123,-47,374,-399,44,42,0,0,0,1,1.8435e+08
2.4397e+05,1.8446e+08,2,123,-42,376,-399,44,42,0,0,0,1,1.8446e+08
2.4442e+05,1.8456e+08,2,125,-49,371,-399,44,42,0,0,0,1,1.8456e+08
2.4487e+05,1.8467e+08,2,124,-49,374,-399,44,42,0,0,0,1,1.8467e+08
2.4532e+05,1.8477e+08,2,125,-50,365,-399,44,42,0,0,0,1,1.8477e+08
2.4577e+05,1.8488e+08,2,127,-47,373,-399,44,42,0,0,0,1,1.8488e+08
2.4622e+05,1.8499e+08,2,123,-47,372,-399,44,42,0,0,0,1,1.8499e+08
2.4668e+05,1.8509e+08,2,116,-44,377,-399,44,42,0,0,0,1,1.8509e+08
2.4713e+05,1.852e+08,2,123,-46,375,-399,44,42,0,0,0,1,1.852e+08
2.4755e+05,1.853e+08,2,121,-45,373,-399,44,42,0,0,0,1,1.853e+08
2.48e+05,1.854e+08,2,128,-46,368,-399,44,42,0,0,0,1,1.854e+08
2.4842e+05,1.8551e+08,2,125,-48,369,-399,44,42,0,0,0,1,1.8551e+08
2.4887e+05,1.8562e+08,2,129,-46,372,-399,44,42,0,0,0,1,1.8562e+08
2.4932e+05,1.8572e+08,2,124,-41,373,-399,44,42,0,0,0,1,1.8572e+08
2.4974e+05,1.8583e+08,2,124,-44,376,-399,44,42,0,0,0,1,1.8583e+08
2.5019e+05,1.8593e+08,2,127,-44,361,-399,44,42,0,0,0,1,1.8593e+08
2.5064e+05,1.8603e+08,2,129,-50,364,-399,44,42,0,0,0,1,1.8603e+08
2.5109e+05,1.8614e+08,2,127,-46,378,-399,44,42,0,0,0,1,1.8614e+08
2.5155e+05,1.8625e+08,2,121,-49,374,-399,44,42,0,0,0,1,1.8625e+08
2.5199e+05,1.8636e+08,2,122,-42,373,-399,44,42,0,0,0,1,1.8636e+08
2.5244e+05,1.8646e+08,2,123,-50,377,-399,44,42,0,0,0,1,1.8646e+08
2.5289e+05,1.8656e+08,2,125,-47,369,-399,44,42,0,0,0,1,1.8656e+08
2.5331e+05,1.8667e+08,2,129,-49,374,-399,44,42,0,0,0,1,1.8667e+08
2.5376e+05,1.8677e+08,2,124,-44,374,-399,44,42,0,0,0,1,1.8677e+08
2.5421e+05,1.8688e+08,2,124,-44,372,-399,44,42,0,0,0,1,1.8688e+08
2.5466e+05,1.8699e+08,2,131,-40,368,-399,44,42,0,0,0,1,1.8699e+08
2.5508e+05,1.8709e+08,2,129,-42,371,-399,44,42,0,0,0,1,1.8709e+08
2.5554e+05,1.872e+08,2,124,-45,372,-399,44,42,0,0,0,1,1.872e+08
2.5599e+05,1.873e+08,2,130,-45,381,-399,44,42,0,0,0,1,1.873e+08
2.5644e+05,1.874e+08,2,121,-47,371,-399,44,42,0,0,0,1,1.874e+08
2.5689e+05,1.8751e+08,2,130,-45,368,-399,44,42,0,0,0,1,1.8751e+08
2.5734e+05,1.8761e+08,2,128,-48,374,-399,44,42,0,0,0,1,1.8761e+08
2.5776e+05,1.8771e+08,2,123,-43,374,-399,44,42,0,0,0,1,1.8771e+08
2.5821e+05,1.8782e+08,2,122,-44,380,-399,44,42,0,0,0,1,1.8782e+08
2.5866e+05,1.8792e+08,2,127,-52,373,-399,44,42,0,0,0,1,1.8792e+08
2.5908e+05,1.8802e+08,2,126,-46,372,-399,44,42,0,0,0,1,1.8802e+08
2.5953e+05,1.8813e+08,2,136,-47,372,-399,44,42,0,0,0,1,1.8813e+08
2.5996e+05,1.8823e+08,2,120,-48,375,-399,44,42,0,0,0,1,1.8823e+08
2.604e+05,1.8833e+08,2,124,-46,374,-399,44,42,0,0,0,1,1.8833e+08
2.6086e+05,1.8844e+08,2,122,-41,373,-399,44,42,0,0,0,1,1.8844e+08
2.613e+05,1.8854e+08,2,131,-51,369,-399,44,42,0,0,0,1,1.8854e+08
2.6176e+05,1.8864e+08,2,127,-42,369,-399,44,42,0,0,0,1,1.8864e+08
2.6217e+05,1.8874e+08,2,123,-44,373,-399,44,42,0,0,0,1,1.8874e+08
2.6262e+05,1.8884e+08,2,130,-47,373,-399,44,42,0,0,0,1,1.8884e+08
2.6308e+05,1.8895e+08,2,124,-43,370,-399,44,42,0,0,0,1,1.8895e+08
2.6352e+05,1.8905e+08,2,129,-43,366,-399,44,42,0,0,0,1,1.8905e+08
2.6398e+05,1.8916e+08,2,127,-46,372,-399,44,42,0,0,0,1,1.8916e+08
2.6443e+05,1.8926e+08,2,123,-44,372,-399,44,42,0,0,0,1,1.8926e+08
2.6485e+05,1.8936e+08,2,126,-37,374,-399,44,42,0,0,0,1,1.8936e+08
2.653e+05,1.8947e+08,2,119,-54,380,-399,44,42,0,0,0,1,1.8947e+08
2.6575e+05,1.8957e+08,2,123,-42,370,-399,44,42,0,0,0,1,1.8957e+08
2.662e+05,1.8967e+08,2,124,-46,375,-399,44,42,0,0,0,1,1.8967e+08
2.6666e+05,1.8978e+08,2,126,-43,368,-399,44,42,0,0,0,1,1.8978e+08
2.671e+05,1.8988e+08,2,129,-46,376,-399,44,42,0,0,0,1,1.8988e+08
2.6755e+05,1.8998e+08,2,118,-50,371,-399,44,42,0,0,0,1,1.8998e+08
2.68e+05,1.9009e+08,2,125,-50,365,-399,44,42,0,0,0,1,1.9009e+08
2.6845e+05,1.9019e+08,2,126,-53,379,-399,44,42,0,0,0,1,1.9019e+08
2.6887e+05,1.9029e+08,2,126,-44,370,-399,44,42,0,0,0,1,1.9029e+08
2.6911e+05,1.9039e+08,2,124,-48,372,-399,44,42,0,0,0,1,1.9039e+08
2.6956e+05,1.905e+08,2,123,-44,372,-399,44,42,0,0,0,1,1.905e+08
2.7001e+05,1.906e+08,2,131,-41,370,-399,44,42,0,0,0,1,1.906e+08
2.7045e+05,1.9071e+08,2,124,-37,371,-399,44,42,0,0,0,1,1.9071e+08
2.7091e+05,1.9081e+08,2,129,-48,372,-399,44,42,0,0,0,1,1.9081e+08
2.7136e+05,1.9091e+08,2,131,-36,373,-399,44,42,0,0,0,1,1.9091e+08
2.7181e+05,1.9102e+08,2,129,-49,378,-399,44,42,0,0,0,1,1.9102e+08
2.7223e+05,1.9112e+08,2,129,-46,369,-399,44,42,0,0,0,1,1.9112e+08
2.7268e+05,1.9122e+08,2,128,-41,375,-399,44,42,0,0,0,1,1.9122e+08
2.7313e+05,1.9133e+08,2,127,-44,372,-399,44,42,0,0,0,1,1.9133e+08
2.7359e+05,1.9143e+08,2,132,-44,361,-399,44,42,0,0,0,1,1.9143e+08
2.74e+05,1.9153e+08,2,128,-40,368,-399,44,42,0,0,0,1,1.9153e+08
2.7445e+05,1.9163e+08,2,125,-44,370,-399,44,42,0,0,0,1,1.9163e+08
2.749e+05,1.9174e+08,2,128,-40,371,-399,44,42,0,0,0,1,1.9174e+08
2.7532e+05,1.9184e+08,2,125,-40,371,-399,44,42,0,0,0,1,1.9184e+08
2.7577e+05,1.9194e+08,2,123,-55,379,-399,44,42,0,0,0,1,1.9194e+08
2.7622e+05,1.9204e+08,2,116,-61,387,-399,44,42,0,0,0,1,1.9204e+08
2.7667e+05,1.9215e+08,2,115,-55,383,-399,44,42,0,0,0,1,1.9215e+08
2.7708e+05,1.9226e+08,2,102,-70,396,-399,44,42,0,0,0,1,1.9226e+08
2.7754e+05,1.9236e+08,2,107,-74,397,-399,44,42,0,0,0,1,1.9236e+08
2.7799e+05,1.9246e+08,2,91,-84,416,-399,44,42,0,0,0,1,1.9246e+08
2.7844e+05,1.9257e+08,2,71,-116,444,-399,44,42,0,0,0,1,1.9257e+08
2.7889e+05,1.9268e+08,2,59,-131,459,-399,44,42,0,0,0,1,1.9268e+08
2.7934e+05,1.9278e+08,2,42,-142,473,-399,44,42,0,0,0,1,1.9278e+08
2.7976e+05,1.9289e+08,2,31,-172,488,-399,44,42,0,0,0,1,1.9289e+08
2.8021e+05,1.9299e+08,2,36,-160,481,-399,44,42,0,0,0,1,1.9299e+08
2.8066e+05,1.931e+08,2,46,-150,465,-399,44,42,0,0,0,1,1.931e+08
2.8111e+05,1.9321e+08,2,45,-151,463,-399,44,42,0,0,0,1,1.9321e+08
2.8153e+05,1.9331e+08,2,50,-154,460,-399,44,42,0,0,0,1,1.9331e+08
2.8198e+05,1.9341e+08,2,46,-144,451,-399,44,42,0,0,0,1,1.9341e+08
2.8243e+05,1.9352e+08,2,64,-145,443,-399,44,42,0,0,0,1,1.9352e+08
2.8288e+05,1.9363e+08,2,65,-154,442,-399,44,42,0,0,0,1,1.9363e+08
2.8333e+05,1.9373e+08,2,60,-164,445,-399,44,42,0,0,0,1,1.9373e+08
2.8378e+05,1.9384e+08,2,52,-176,449,-399,44,42,0,0,0,1,1.9384e+08
2.842e+05,1.9395e+08,2,43,-168,457,-399,44,42,0,0,0,1,1.9395e+08
2.8464e+05,1.9405e+08,2,39,-169,458,-399,44,42,0,0,0,1,1.9405e+08
2.851e+05,1.9416e+08,2,39,-177,465,-399,44,42,0,0,0,1,1.9416e+08
2.8554e+05,1.9426e+08,2,39,-178,461,-399,44,42,0,0,0,1,1.9426e+08
2.86e+05,1.9437e+08,2,36,-178,462,-399,44,42,0,0,0,1,1.9437e+08
2.8645e+05,1.9448e+08,2,41,-178,456,-399,44,42,0,0,0,1,1.9448e+08
2.8686e+05,1.9458e+08,2,42,-184,460,-399,44,42,0,0,0,1,1.9458e+08
2.8731e+05,1.9469e+08,2,38,-174,466,-399,44,42,0,0,0,1,1.9469e+08
2.8776e+05,1.948e+08,2,44,-174,456,-399,44,42,0,0,0,1,1.948e+08
2.8818e+05,1.9491e+08,2,36,-170,460,-399,44,42,0,0,0,1,1.9491e+08
2.8863e+05,1.9501e+08,2,41,-180,466,-399,44,42,0,0,0,1,1.9501e+08
2.8908e+05,1.9512e+08,2,31,-185,468,-399,44,42,0,0,0,1,1.9512e+08
2.8953e+05,1.9523e+08,2,33,-175,465,-399,44,42,0,0,0,1,1.9523e+08
2.8999e+05,1.9533e+08,2,30,-173,467,-399,44,42,0,0,0,1,1.9533e+08
2.9044e+05,1.9544e+08,2,33,-181,477,-399,44,42,0,0,0,1,1.9544e+08
2.9086e+05,1.9555e+08,2,38,-174,452,-399,44,42,0,0,0,1,1.9555e+08
2.9131e+05,1.9566e+08,2,46,-166,460,-399,44,42,0,0,0,1,1.9566e+08
2.9176e+05,1.9576e+08,2,41,-166,461,-399,44,42,0,0,0,1,1.9576e+08
2.9221e+05,1.9587e+08,2,43,-171,461,-399,44,42,0,0,0,1,1.9587e+08
2.9266e+05,1.9598e+08,2,37,-166,458,-399,44,42,0,0,0,1,1.9598e+08
2.9311e+05,1.9609e+08,2,44,-162,460,-399,44,42,0,0,0,1,1.9609e+08
2.9356e+05,1.9619e+08,2,40,-156,465,-399,44,42,0,0,0,1,1.9619e+08
2.9401e+05,1.963e+08,2,37,-163,464,-399,44,42,0,0,0,1,1.963e+08
2.9446e+05,1.964e+08,2,25,-163,472,-399,44,42,0,0,0,1,1.964e+08
2.949e+05,1.9651e+08,2,29,-150,465,-399,44,42,0,0,0,1,1.9651e+08
2.9536e+05,1.9662e+08,2,41,-159,459,-399,44,42,0,0,0,1,1.9662e+08
2.958e+05,1.9672e+08,2,33,-161,453,-399,44,42,0,0,0,1,1.9672e+08
2.9625e+05,1.9683e+08,2,32,-154,427,-399,44,42,0,0,0,1,1.9683e+08
2.9669e+05,1.9694e+08,2,28,-162,468,-399,44,42,0,0,0,1,1.9694e+08
2.971e+05,1.9705e+08,2,29,-158,467,-399,44,42,0,0,0,1,1.9705e+08
2.9755e+05,1.9716e+08,2,38,-157,455,-399,44,42,0,0,0,1,1.9716e+08
2.9799e+05,1.9727e+08,2,39,-158,464,-399,44,42,0,0,0,1,1.9727e+08
2.9844e+05,1.9738e+08,2,35,-167,458,-399,44,42,0,0,0,1,1.9738e+08
2.9885e+05,1.9749e+08,2,38,-155,456,-399,44,42,0,0,0,1,1.9749e+08
2.9929e+05,1.9759e+08,2,27,-156,463,-399,44,42,0,0,0,1,1.9759e+08
2.9974e+05,1.977e+08,2,27,-159,468,-399,44,42,0,0,0,1,1.977e+08
3.0018e+05,1.9781e+08,2,16,-157,468,-399,44,42,0,0,0,1,1.9781e+08
3.0062e+05,1.9792e+08,2,13,-155,477,-399,44,42,0,0,0,1,1.9792e+08
3.0107e+05,1.9803e+08,2,11,-158,476,-399,44,42,0,0,0,1,1.9803e+08
3.0148e+05,1.9814e+08,2,-1,-151,470,-399,44,42,0,0,0,1,1.9814e+08
3.0192e+05,1.9824e+08,2,7,-146,470,-399,44,42,0,0,0,1,1.9824e+08
3.0237e+05,1.9835e+08,2,-1,-151,473,-399,44,42,0,0,0,1,1.9835e+08
3.0279e+05,1.9846e+08,2,11,-148,477,-399,44,42,0,0,0,1,1.9846e+08
3.0323e+05,1.9857e+08,2,4,-149,482,-399,44,42,0,0,0,1,1.9857e+08
3.0367e+05,1.9867e+08,2,11,-156,476,-399,44,42,0,0,0,1,1.9867e+08
3.0412e+05,1.9878e+08,2,7,-166,479,-399,44,42,0,0,0,1,1.9878e+08
3.0456e+05,1.9889e+08,2,8,-169,479,-399,44,42,0,0,0,1,1.9889e+08
3.0497e+05,1.99e+08,2,4,-173,477,-399,44,42,0,0,0,1,1.99e+08
3.0542e+05,1.9911e+08,2,13,-165,467,-399,44,42,0,0,0,1,1.9911e+08
3.0586e+05,1.9922e+08,2,19,-173,467,-399,44,42,0,0,0,1,1.9922e+08
3.0631e+05,1.9932e+08,2,31,-181,460,-399,44,42,0,0,0,1,1.9932e+08
3.0672e+05,1.9943e+08,2,13,-183,472,-399,44,42,0,0,0,1,1.9943e+08
3.0716e+05,1.9954e+08,2,18,-188,470,-399,44,42,0,0,0,1,1.9954e+08
3.0761e+05,1.9965e+08,2,18,-185,466,-399,44,42,0,0,0,1,1.9965e+08
3.0805e+05,1.9975e+08,2,16,-185,456,-399,44,42,0,0,0,1,1.9975e+08
3.0847e+05,1.9986e+08,2,19,-174,462,-399,44,42,0,0,0,1,1.9986e+08
3.0888e+05,1.9997e+08,2,16,-187,467,-399,44,42,0,0,0,1,1.9997e+08
3.0933e+05,2.0008e+08,2,18,-185,470,-399,44,42,0,0,0,1,2.0008e+08
3.0977e+05,2.0019e+08,2,20,-181,462,-399,44,42,0,0,0,1,2.0019e+08
3.1022e+05,2.003e+08,2,15,-187,467,-399,44,42,0,0,0,1,2.003e+08
3.1066e+05,2.0041e+08,2,19,-182,463,-399,44,42,0,0,0,1,2.0041e+08
3.1111e+05,2.0051e+08,2,15,-191,470,-399,44,42,0,0,0,1,2.0051e+08
3.1156e+05,2.0062e+08,2,9,-196,476,-399,44,42,0,0,0,1,2.0062e+08
3.12e+05,2.0073e+08,2,0,-200,486,-399,44,42,0,0,0,1,2.0073e+08
3.1244e+05,2.0084e+08,2,-2,-199,491,-399,44,42,0,0,0,1,2.0084e+08
3.1285e+05,2.0094e+08,2,10,-189,481,-399,44,42,0,0,0,1,2.0094e+08
3.1329e+05,2.0105e+08,2,0,-196,479,-399,44,42,0,0,0,1,2.0105e+08
3.1374e+05,2.0116e+08,2,6,-191,486,-399,44,42,0,0,0,1,2.0116e+08
3.1418e+05,2.0127e+08,2,12,-190,481,-399,44,42,0,0,0,1,2.0127e+08
3.146e+05,2.0138e+08,2,18,-190,471,-399,44,42,0,0,0,1,2.0138e+08
3.1504e+05,2.0149e+08,2,17,-200,468,-399,44,42,0,0,0,1,2.0149e+08
3.1548e+05,2.0159e+08,2,17,-187,476,-399,44,42,0,0,0,1,2.0159e+08
3.1592e+05,2.017e+08,2,20,-172,476,-399,44,42,0,0,0,1,2.017e+08
3.1637e+05,2.0181e+08,2,37,-165,466,-399,44,42,0,0,0,1,2.0181e+08
3.1681e+05,2.0192e+08,2,27,-165,466,-399,44,42,0,0,0,1,2.0192e+08
3.1726e+05,2.0203e+08,2,37,-154,460,-399,44,42,0,0,0,1,2.0203e+08
3.1767e+05,2.0213e+08,2,48,-147,454,-399,44,42,0,0,0,1,2.0213e+08
3.1812e+05,2.0224e+08,2,43,-153,446,-399,44,42,0,0,0,1,2.0224e+08
3.1856e+05,2.0235e+08,2,39,-154,453,-399,44,42,0,0,0,1,2.0235e+08
3.1901e+05,2.0246e+08,2,33,-162,464,-399,44,42,0,0,0,1,2.0246e+08
3.1945e+05,2.0257e+08,2,36,-161,461,-399,44,42,0,0,0,1,2.0257e+08
3.1986e+05,2.0267e+08,2,34,-162,463,-399,44,42,0,0,0,1,2.0267e+08
3.2028e+05,2.0278e+08,2,30,-156,472,-399,44,42,0,0,0,1,2.0278e+08
3.2072e+05,2.0289e+08,2,27,-160,466,-399,44,42,0,0,0,1,2.0289e+08
3.2116e+05,2.03e+08,2,29,-162,471,-399,44,42,0,0,0,1,2.03e+08
3.2161e+05,2.031e+08,2,36,-157,465,-399,44,42,0,0,0,1,2.031e+08
3.2205e+05,2.0321e+08,2,46,-156,463,-399,44,42,0,0,0,1,2.0321e+08
3.2249e+05,2.0332e+08,2,52,-175,442,-399,44,42,0,0,0,1,2.0332e+08
3.2294e+05,2.0343e+08,2,27,-174,465,-399,44,42,0,0,0,1,2.0343e+08
3.2338e+05,2.0354e+08,2,20,-170,472,-399,44,42,0,0,0,1,2.0354e+08
3.2383e+05,2.0364e+08,2,10,-164,469,-399,44,42,0,0,0,1,2.0364e+08
3.2427e+05,2.0375e+08,2,7,-176,477,-399,44,42,0,0,0,1,2.0375e+08
3.2472e+05,2.0386e+08,2,15,-167,470,-399,44,42,0,0,0,1,2.0386e+08
3.2516e+05,2.0397e+08,2,11,-181,468,-399,44,42,0,0,0,1,2.0397e+08
3.2557e+05,2.0408e+08,2,11,-192,463,-399,44,42,0,0,0,1,2.0408e+08
3.2602e+05,2.0419e+08,2,18,-197,470,-399,44,42,0,0,0,1,2.0419e+08
3.2647e+05,2.043e+08,2,16,-200,463,-399,44,42,0,0,0,1,2.043e+08
3.2692e+05,2.044e+08,2,21,-195,469,-399,44,42,0,0,0,1,2.044e+08
3.2736e+05,2.0452e+08,2,23,-187,459,-399,44,42,0,0,0,1,2.0452e+08
3.278e+05,2.0462e+08,2,12,-187,469,-399,44,42,0,0,0,1,2.0462e+08
3.2825e+05,2.0473e+08,2,16,-183,467,-399,44,42,0,0,0,1,2.0473e+08
3.2866e+05,2.0484e+08,2,18,-169,468,-399,44,42,0,0,0,1,2.0484e+08
3.291e+05,2.0495e+08,2,16,-167,472,-399,44,42,0,0,0,1,2.0495e+08
3.2952e+05,2.0506e+08,2,28,-172,466,-399,44,42,0,0,0,1,2.0506e+08
3.2996e+05,2.0516e+08,2,35,-181,476,-399,44,42,0,0,0,1,2.0516e+08
3.3041e+05,2.0528e+08,2,16,-187,466,-399,44,42,0,0,0,1,2.0528e+08
3.3074e+05,2.0549e+08,2,14,-179,472,-399,44,42,0,0,0,1,2.0549e+08
3.3119e+05,2.056e+08,2,8,-180,481,-399,44,42,0,0,0,1,2.056e+08
3.3163e+05,2.057e+08,2,11,-173,476,-399,44,42,0,0,0,1,2.057e+08
3.3205e+05,2.0581e+08,2,29,-161,468,-399,44,42,0,0,0,1,2.0581e+08
3.3249e+05,2.0592e+08,2,31,-172,453,-399,44,42,0,0,0,1,2.0592e+08
3.3294e+05,2.0602e+08,2,41,-187,455,-399,44,42,0,0,0,1,2.0602e+08
3.3334e+05,2.0613e+08,2,39,-195,446,-399,44,42,0,0,0,1,2.0613e+08
3.3379e+05,2.0624e+08,2,39,-205,445,-399,44,42,0,0,0,1,2.0624e+08
3.3424e+05,2.0634e+08,2,50,-213,448,-399,44,42,0,0,0,1,2.0634e+08
3.3468e+05,2.0645e+08,2,42,-204,448,-399,44,42,0,0,0,1,2.0645e+08
3.3512e+05,2.0656e+08,2,43,-192,441,-399,44,42,0,0,0,1,2.0656e+08
3.3554e+05,2.0667e+08,2,38,-190,450,-399,44,42,0,0,0,1,2.0667e+08
3.3598e+05,2.0677e+08,2,30,-185,461,-399,44,42,0,0,0,1,2.0677e+08
3.3639e+05,2.0688e+08,2,39,-190,459,-399,44,42,0,0,0,1,2.0688e+08
3.3684e+05,2.0699e+08,2,29,-196,462,-399,44,42,0,0,0,1,2.0699e+08
3.3728e+05,2.071e+08,2,21,-206,467,-399,44,42,0,0,0,1,2.071e+08
3.3773e+05,2.0721e+08,2,33,-199,458,-399,44,42,0,0,0,1,2.0721e+08
3.3818e+05,2.0732e+08,2,39,-178,447,-399,44,42,0,0,0,1,2.0732e+08
3.3862e+05,2.0743e+08,2,52,-184,440,-399,44,42,0,0,0,1,2.0743e+08
3.3904e+05,2.0753e+08,2,53,-190,438,-399,44,42,0,0,0,1,2.0753e+08
3.3948e+05,2.0764e+08,2,42,-194,450,-399,44,42,0,0,0,1,2.0764e+08
3.3992e+05,2.0775e+08,2,32,-208,445,-399,44,42,0,0,0,1,2.0775e+08
3.4034e+05,2.0785e+08,2,26,-209,449,-399,44,42,0,0,0,1,2.0785e+08
3.4075e+05,2.0796e+08,2,19,-201,461,-399,44,42,0,0,0,1,2.0796e+08
3.4119e+05,2.0807e+08,2,19,-195,460,-399,44,42,0,0,0,1,2.0807e+08
3.4164e+05,2.0818e+08,2,18,-191,468,-399,44,42,0,0,0,1,2.0818e+08
3.4205e+05,2.0829e+08,2,40,-186,451,-399,44,42,0,0,0,1,2.0829e+08
3.425e+05,2.0839e+08,2,37,-189,443,-399,44,42,0,0,0,1,2.0839e+08
3.4294e+05,2.085e+08,2,42,-194,445,-399,44,42,0,0,0,1,2.085e+08
3.4339e+05,2.0861e+08,2,39,-196,452,-399,44,42,0,0,0,1,2.0861e+08
3.438e+05,2.0871e+08,2,10,-201,468,-399,44,42,0,0,0,1,2.0871e+08
3.4424e+05,2.0882e+08,2,11,-194,475,-399,44,42,0,0,0,1,2.0882e+08
3.4469e+05,2.0893e+08,2,3,-179,474,-399,44,42,0,0,0,1,2.0893e+08
3.451e+05,2.0903e+08,2,0,-167,488,-399,44,42,0,0,0,1,2.0903e+08
3.4554e+05,2.0914e+08,2,-3,-170,478,-399,44,42,0,0,0,1,2.0914e+08
3.4599e+05,2.0925e+08,2,-10,-178,482,-399,44,42,0,0,0,1,2.0925e+08
3.4644e+05,2.0936e+08,2,-26,-183,498,-399,44,42,0,0,0,1,2.0936e+08
3.4688e+05,2.0947e+08,2,-2,-185,485,-399,44,42,0,0,0,1,2.0947e+08
3.4733e+05,2.0958e+08,2,-1,-186,480,-399,44,42,0,0,0,1,2.0958e+08
3.4774e+05,2.0968e+08,2,-18,-187,482,-399,44,42,0,0,0,1,2.0968e+08
3.4819e+05,2.0979e+08,2,-13,-175,494,-399,44,42,0,0,0,1,2.0979e+08
3.486e+05,2.099e+08,2,-12,-167,503,-399,44,42,0,0,0,1,2.099e+08
3.4905e+05,2.1e+08,2,-25,-172,503,-399,44,42,0,0,0,1,2.1e+08
3.4949e+05,2.1011e+08,2,-34,-185,506,-399,44,42,0,0,0,1,2.1011e+08
3.4994e+05,2.1022e+08,2,-62,-180,510,-399,44,42,0,0,0,1,2.1022e+08
3.5038e+05,2.1033e+08,2,-33,-140,497,-399,44,42,0,0,0,1,2.1033e+08
3.5083e+05,2.1043e+08,2,-26,-133,500,-399,44,42,0,0,0,1,2.1043e+08
3.5127e+05,2.1054e+08,2,-14,-140,491,-399,44,42,0,0,0,1,2.1054e+08
3.5169e+05,2.1065e+08,2,2,-136,497,-399,44,42,0,0,0,1,2.1065e+08
3.5214e+05,2.1076e+08,2,9,-126,487,-399,44,42,0,0,0,1,2.1076e+08
3.5258e+05,2.1087e+08,2,17,-109,479,-399,44,42,0,0,0,1,2.1087e+08
3.5303e+05,2.1098e+08,2,21,-98,486,-399,44,42,0,0,0,1,2.1098e+08
3.5344e+05,2.1108e+08,2,16,-124,488,-399,44,42,0,0,0,1,2.1108e+08
3.5388e+05,2.1119e+08,2,26,-121,478,-399,44,42,0,0,0,1,2.1119e+08
3.5432e+05,2.113e+08,2,37,-131,472,-399,44,42,0,0,0,1,2.113e+08
3.5477e+05,2.114e+08,2,55,-133,465,-399,44,42,0,0,0,1,2.114e+08
3.5521e+05,2.1151e+08,2,49,-127,465,-399,44,42,0,0,0,1,2.1151e+08
3.5563e+05,2.1162e+08,2,50,-143,469,-399,44,42,0,0,0,1,2.1162e+08
3.5607e+05,2.1173e+08,2,56,-139,458,-399,44,42,0,0,0,1,2.1173e+08
3.5651e+05,2.1183e+08,2,57,-143,463,-399,44,42,0,0,0,1,2.1183e+08
3.5696e+05,2.1194e+08,2,58,-148,457,-399,44,42,0,0,0,1,2.1194e+08
3.574e+05,2.1205e+08,2,56,-155,456,-399,44,42,0,0,0,1,2.1205e+08
3.5781e+05,2.1215e+08,2,75,-186,445,-399,44,42,0,0,0,1,2.1215e+08
3.5826e+05,2.1226e+08,2,80,-190,434,-399,44,42,0,0,0,1,2.1226e+08
3.587e+05,2.1237e+08,2,78,-193,434,-399,44,42,0,0,0,1,2.1237e+08
3.5912e+05,2.1248e+08,2,85,-217,434,-399,44,42,0,0,0,1,2.1248e+08
3.5956e+05,2.1258e+08,2,63,-214,439,-399,44,42,0,0,0,1,2.1258e+08
3.6e+05,2.1269e+08,2,71,-218,432,-399,44,42,0,0,0,1,2.1269e+08
3.6046e+05,2.128e+08,2,72,-220,434,-399,44,42,0,0,0,1,2.128e+08
3.6087e+05,2.1291e+08,2,65,-222,438,-399,44,42,0,0,0,1,2.1291e+08
3.6131e+05,2.1301e+08,2,67,-225,428,-399,44,42,0,0,0,1,2.1301e+08
3.6176e+05,2.1312e+08,2,68,-225,433,-399,44,42,0,0,0,1,2.1312e+08
3.622e+05,2.1323e+08,2,70,-216,443,-399,44,42,0,0,0,1,2.1323e+08
3.6262e+05,2.1334e+08,2,56,-212,434,-399,44,42,0,0,0,1,2.1334e+08
3.6306e+05,2.1345e+08,2,63,-215,439,-399,44,42,0,0,0,1,2.1345e+08
3.635e+05,2.1355e+08,2,58,-234,431,-399,44,42,0,0,0,1,2.1355e+08
3.6391e+05,2.1366e+08,2,72,-229,439,-399,44,42,0,0,0,1,2.1366e+08
3.6436e+05,2.1377e+08,2,64,-231,434,-399,44,42,0,0,0,1,2.1377e+08
3.6481e+05,2.1388e+08,2,67,-234,429,-399,44,42,0,0,0,1,2.1388e+08
3.6525e+05,2.1398e+08,2,65,-221,432,-399,44,42,0,0,0,1,2.1398e+08
3.657e+05,2.1409e+08,2,66,-182,436,-399,44,42,0,0,0,1,2.1409e+08
3.6614e+05,2.142e+08,2,73,-177,431,-399,44,42,0,0,0,1,2.142e+08
3.6655e+05,2.1431e+08,2,67,-157,444,-399,44,42,0,0,0,1,2.1431e+08
3.67e+05,2.1442e+08,2,73,-150,443,-399,44,42,0,0,0,1,2.1442e+08
3.6744e+05,2.1452e+08,2,53,-167,459,-399,44,42,0,0,0,1,2.1452e+08
3.6789e+05,2.1463e+08,2,50,-177,456,-399,44,42,0,0,0,1,2.1463e+08
3.683e+05,2.1474e+08,2,49,-167,445,-399,44,42,0,0,0,1,2.1474e+08
3.6875e+05,2.1484e+08,2,57,-162,437,-399,44,42,0,0,0,1,2.1484e+08
3.6919e+05,2.1495e+08,2,47,-173,444,-399,44,42,0,0,0,1,2.1495e+08
3.6963e+05,2.1506e+08,2,61,-169,448,-399,44,42,0,0,0,1,2.1506e+08
3.7008e+05,2.1516e+08,2,53,-174,451,-399,44,42,0,0,0,1,2.1516e+08
3.7052e+05,2.1527e+08,2,46,-165,457,-399,44,42,0,0,0,1,2.1527e+08
3.7097e+05,2.1538e+08,2,56,-172,456,-399,44,42,0,0,0,1,2.1538e+08
3.7142e+05,2.1549e+08,2,46,-171,459,-399,44,42,0,0,0,1,2.1549e+08
3.7183e+05,2.1559e+08,2,47,-185,456,-399,44,42,0,0,0,1,2.1559e+08
3.7228e+05,2.157e+08,2,47,-174,455,-399,44,42,0,0,0,1,2.157e+08
3.7269e+05,2.1581e+08,2,44,-179,458,-399,44,42,0,0,0,1,2.1581e+08
3.7313e+05,2.1592e+08,2,44,-167,452,-399,44,42,0,0,0,1,2.1592e+08
3.7358e+05,2.1602e+08,2,41,-168,459,-399,44,42,0,0,0,1,2.1602e+08
3.7402e+05,2.1613e+08,2,42,-153,462,-399,44,42,0,0,0,1,2.1613e+08
3.7447e+05,2.1624e+08,2,42,-151,469,-399,44,42,0,0,0,1,2.1624e+08
3.7492e+05,2.1635e+08,2,44,-140,465,-399,44,42,0,0,0,1,2.1635e+08
3.7533e+05,2.1645e+08,2,42,-154,466,-399,44,42,0,0,0,1,2.1645e+08
3.7577e+05,2.1656e+08,2,38,-160,466,-399,44,42,0,0,0,1,2.1656e+08
3.7622e+05,2.1667e+08,2,39,-178,460,-399,44,42,0,0,0,1,2.1667e+08
3.7667e+05,2.1678e+08,2,29,-173,464,-399,44,42,0,0,0,1,2.1678e+08
3.7711e+05,2.1689e+08,2,39,-168,469,-399,44,42,0,0,0,1,2.1689e+08
3.7756e+05,2.1699e+08,2,33,-168,468,-399,44,42,0,0,0,1,2.1699e+08
3.78e+05,2.171e+08,2,23,-182,471,-399,44,42,0,0,0,1,2.171e+08
3.7845e+05,2.1721e+08,2,33,-167,470,-399,44,42,0,0,0,1,2.1721e+08
3.7886e+05,2.1732e+08,2,46,-169,453,-399,44,42,0,0,0,1,2.1732e+08
3.793e+05,2.1742e+08,2,24,-175,465,-399,44,42,0,0,0,1,2.1742e+08
3.7975e+05,2.1753e+08,2,18,-185,473,-399,44,42,0,0,0,1,2.1753e+08
3.8019e+05,2.1764e+08,2,15,-178,467,-399,44,42,0,0,0,1,2.1764e+08
3.8064e+05,2.1775e+08,2,18,-180,470,-399,44,42,0,0,0,1,2.1775e+08
3.8109e+05,2.1786e+08,2,20,-180,470,-399,44,42,0,0,0,1,2.1786e+08
3.8153e+05,2.1797e+08,2,14,-188,465,-399,44,42,0,0,0,1,2.1797e+08
3.8198e+05,2.1807e+08,2,16,-191,461,-399,44,42,0,0,0,1,2.1807e+08
3.8243e+05,2.1818e+08,2,16,-193,478,-399,44,42,0,0,0,1,2.1818e+08
3.8287e+05,2.1829e+08,2,22,-191,474,-399,44,42,0,0,0,1,2.1829e+08
3.8332e+05,2.1839e+08,2,23,-185,469,-399,44,42,0,0,0,1,2.1839e+08
3.8376e+05,2.185e+08,2,32,-182,470,-399,44,42,0,0,0,1,2.185e+08
3.8421e+05,2.1861e+08,2,29,-158,466,-399,44,42,0,0,0,1,2.1861e+08
3.8462e+05,2.1872e+08,2,35,-141,465,-399,44,42,0,0,0,1,2.1872e+08
3.8506e+05,2.1882e+08,2,24,-149,478,-399,44,42,0,0,0,1,2.1882e+08
3.855e+05,2.1893e+08,2,22,-176,487,-399,44,42,0,0,0,1,2.1893e+08
3.8595e+05,2.1904e+08,2,22,-178,485,-399,44,42,0,0,0,1,2.1904e+08
3.864e+05,2.1914e+08,2,26,-178,471,-399,44,42,0,0,0,1,2.1914e+08
3.8681e+05,2.1925e+08,2,21,-193,470,-399,44,42,0,0,0,1,2.1925e+08
3.8725e+05,2.1936e+08,2,26,-173,471,-399,44,42,0,0,0,1,2.1936e+08
3.877e+05,2.1947e+08,2,30,-178,469,-399,44,42,0,0,0,1,2.1947e+08
3.8814e+05,2.1957e+08,2,28,-183,464,-399,44,42,0,0,0,1,2.1957e+08
3.8855e+05,2.1968e+08,2,30,-183,462,-399,44,42,0,0,0,1,2.1968e+08
3.89e+05,2.1979e+08,2,29,-191,467,-399,44,42,0,0,0,1,2.1979e+08
3.8941e+05,2.199e+08,2,40,-185,459,-399,44,42,0,0,0,1,2.199e+08
3.8985e+05,2.2e+08,2,49,-174,451,-399,44,42,0,0,0,1,2.2e+08
3.903e+05,2.2011e+08,2,43,-172,453,-399,44,42,0,0,0,1,2.2011e+08
3.9074e+05,2.2022e+08,2,39,-156,457,-399,44,42,0,0,0,1,2.2022e+08
3.9119e+05,2.2033e+08,2,55,-143,451,-399,44,42,0,0,0,1,2.2033e+08
3.9164e+05,2.2043e+08,2,41,-137,464,-399,44,42,0,0,0,1,2.2043e+08
3.9205e+05,2.2054e+08,2,49,-130,460,-399,44,42,0,0,0,1,2.2054e+08
3.9249e+05,2.2065e+08,2,42,-135,463,-399,44,42,0,0,0,1,2.2065e+08
3.9294e+05,2.2076e+08,2,36,-138,462,-399,44,42,0,0,0,1,2.2076e+08
3.9335e+05,2.2086e+08,2,47,-130,462,-399,44,42,0,0,0,1,2.2086e+08
3.938e+05,2.2097e+08,2,51,-130,464,-399,44,42,0,0,0,1,2.2097e+08
3.9424e+05,2.2108e+08,2,45,-139,460,-399,44,42,0,0,0,1,2.2108e+08
3.9469e+05,2.2119e+08,2,42,-135,465,-399,44,42,0,0,0,1,2.2119e+08
3.9513e+05,2.213e+08,2,39,-149,459,-399,44,42,0,0,0,1,2.213e+08
3.9554e+05,2.214e+08,2,46,-143,464,-399,44,42,0,0,0,1,2.214e+08
3.9599e+05,2.2151e+08,2,46,-154,454,-399,44,42,0,0,0,1,2.2151e+08
3.964e+05,2.2162e+08,2,38,-160,455,-399,44,42,0,0,0,1,2.2162e+08
3.9684e+05,2.2173e+08,2,39,-157,454,-399,44,42,0,0,0,1,2.2173e+08
