LineNo,TimeUS,Tar,Act,Err,P,I,D,FF,Dmod,SRate,Limit
299,1.9492e+07,-0.086894,0.0012624,-0.088156,-0.011901,0,-0.0011109,0,1,0,1
643,1.9558e+07,-0.087041,0.00014475,-0.087186,-0.01177,0,0.00021808,0,1,0,1
870,1.9603e+07,-0.087096,0.0001577,-0.087254,-0.011779,0,0.00012469,0,1,0,1
1212,1.9764e+07,-0.087196,0.0011839,-0.08838,-0.011931,0,-9.3119e-05,0,1,0,1
1488,1.9835e+07,-0.087012,0.00052368,-0.087535,-0.011817,0,-0.00026532,0,1,0,1
1583,1.9858e+07,-0.087041,0.0016854,-0.088727,-0.011978,0,-0.00029297,0,1,0,1
1623,1.9868e+07,-0.087061,-0.00013445,-0.086927,-0.011735,0,0.00027718,0,1,0,1
1665,1.9877e+07,-0.087086,0.00099698,-0.088083,-0.011891,0,-0.00010932,0,1,0,1
1706,1.9887e+07,-0.087129,0.0013448,-0.088474,-0.011944,0,-0.00010377,0,1,0,1
1746,1.99e+07,-0.087182,0.00062299,-0.087805,-0.011854,0,0.00015168,0,1,0,1
1787,1.9911e+07,-0.087199,0.00012261,-0.087322,-0.011788,0,0.00015211,0,1,0,1
1827,1.9921e+07,-0.087186,-0.00061044,-0.086576,-0.011688,0,0.00021099,0,1,0,1
1869,1.9931e+07,-0.087139,-0.0011555,-0.085983,-0.011608,0,0.00018352,0,1,0,1
1909,1.9941e+07,-0.087094,0.00089641,-0.087991,-0.011879,0,-0.00064836,0,1,0,1
1950,1.9951e+07,-0.087088,-0.00017998,-0.086908,-0.011733,0,0.00010699,0,1,0,1
1995,1.9961e+07,-0.087161,-0.0023063,-0.084855,-0.011455,0,0.00064337,0,1,0,1
2038,1.9972e+07,-0.087284,-0.00031642,-0.086968,-0.011741,0,-0.00059213,0,1,0,1
2079,1.9982e+07,-0.087339,0.0019649,-0.089304,-0.012056,0,-0.00074266,0,1,0,1
2119,1.9992e+07,-0.087401,0.00078525,-0.088187,-0.011905,0,0.00019725,0,1,0,1
2160,2.0003e+07,-0.08743,-9.013e-05,-0.087339,-0.011791,0,0.00031628,0,1,0,1
2201,2.0013e+07,-0.08743,0.00016398,-0.087594,-0.011825,0,3.5799e-05,0,1,0,1
2242,2.0023e+07,-0.087398,-0.0010447,-0.086353,-0.011658,0,0.00027392,0,1,0,1
2283,2.0033e+07,-0.087348,-0.0025434,-0.084805,-0.011449,0,0.00073326,0,1,0,1
2323,2.0044e+07,-0.087245,-0.0018094,-0.085436,-0.011534,0,-5.5605e-05,0,1,0,1
2366,2.0054e+07,-0.087168,-0.0016209,-0.085547,-0.011549,0,0.00015894,0,1,0,1
2410,2.0064e+07,-0.087123,-0.00063837,-0.086485,-0.011675,0,4.5691e-05,0,1,0,1
2451,2.0074e+07,-0.087064,-0.0013507,-0.085714,-0.011571,0,0.00016443,0,1,0,1
2494,2.0084e+07,-0.087003,-0.00061833,-0.086385,-0.011662,0,-0.00018908,0,1,0,1
2534,2.0094e+07,-0.086982,0.0011558,-0.088137,-0.011899,0,-0.00051285,0,1,0,1
2574,2.0104e+07,-0.087019,0.0016108,-0.08863,-0.011965,0,-0.00019978,0,1,0,1
2612,2.0115e+07,-0.087019,-0.00068778,-0.086331,-0.011655,0,0.00034783,0,1,0,1
2653,2.0125e+07,-0.087077,0.0019744,-0.089052,-0.012022,0,-0.00012082,0,1,0,1
2694,2.0135e+07,-0.0871,0.00039638,-0.087496,-0.011812,0,0.00019189,0,1,0,1
2735,2.0145e+07,-0.087137,0.0015501,-0.088687,-0.011973,0,-0.00019852,0,1,0,1
2776,2.0155e+07,-0.087176,0.0007264,-0.087902,-0.011867,0,0.00015317,0,1,0,1
2820,2.0165e+07,-0.087204,0.0017804,-0.088984,-0.012013,0,-0.00035881,0,1,0,1
2862,2.0175e+07,-0.087227,5.1792e-05,-0.087279,-0.011783,0,0.0002784,0,1,0,1
2903,2.0185e+07,-0.087241,0.00023577,-0.087477,-0.011809,0,8.6333e-05,0,1,0,1
2944,2.0195e+07,-0.087254,-0.00076557,-0.086489,-0.011676,0,0.00051519,0,1,0,1
2985,2.0205e+07,-0.087232,-0.00020312,-0.087028,-0.011749,0,-2.7818e-05,0,1,0,1
3023,2.0215e+07,-0.087222,0.00014268,-0.087365,-0.011794,0,-6.2248e-05,0,1,0,1
3064,2.0225e+07,-0.087208,-0.0012551,-0.085953,-0.011604,0,0.00051151,0,1,0,1
3104,2.0235e+07,-0.087187,0.00073404,-0.087921,-0.011869,0,-0.00039003,0,1,0,1
3145,2.0245e+07,-0.087168,0.0010224,-0.088191,-0.011906,0,-0.00045159,0,1,0,1
3188,2.0255e+07,-0.087154,-0.0018657,-0.085288,-0.011514,0,0.00068815,0,1,0,1
3233,2.0265e+07,-0.087086,-0.00074077,-0.086345,-0.011657,0,-0.00021931,0,1,0,1
3274,2.0275e+07,-0.087052,-8.932e-05,-0.086963,-0.01174,0,-0.00015933,0,1,0,1
3315,2.0285e+07,-0.086998,-0.0022738,-0.084724,-0.011438,0,0.00050882,0,1,0,1
3356,2.0295e+07,-0.086911,-0.0011746,-0.085736,-0.011574,0,-0.00017227,0,1,0,1
3396,2.0305e+07,-0.086874,0.00054385,-0.087418,-0.011801,0,-0.00040688,0,1,0,1
3438,2.0316e+07,-0.086826,-0.001968,-0.084858,-0.011456,0,0.00041985,0,1,0,1
3478,2.0326e+07,-0.086898,-6.9574e-06,-0.086891,-0.01173,0,-0.00025011,0,1,0,1
3519,2.0336e+07,-0.087087,-0.0018314,-0.085255,-0.011509,0,0.00049964,0,1,0,1
3559,2.0346e+07,-0.087107,0.00094843,-0.088055,-0.011887,0,-0.00073101,0,1,0,1
3601,2.0356e+07,-0.087155,0.0012365,-0.088392,-0.011933,0,-0.00013768,0,1,0,1
3649,2.0367e+07,-0.087183,0.00090595,-0.088089,-0.011892,0,-7.9665e-05,0,1,0,1
3689,2.0378e+07,-0.087224,0.0012285,-0.088452,-0.011941,0,-0.00010003,0,1,0,1
3730,2.0387e+07,-0.08726,0.0016457,-0.088905,-0.012002,0,-0.00027858,0,1,0,1
3774,2.0398e+07,-0.08731,0.00075906,-0.088069,-0.011889,0,0.00019083,0,1,0,1
3811,2.0408e+07,-0.087299,-0.00013033,-0.087169,-0.011768,0,-1.4971e-05,0,1,0,1
3849,2.0418e+07,-0.08733,0.0017511,-0.089081,-0.012026,0,-0.00038789,0,1,0,1
3889,2.0428e+07,-0.08734,-0.0012558,-0.086084,-0.011621,0,0.00067062,0,1,0,1
3930,2.0438e+07,-0.087306,-0.00073704,-0.086568,-0.011687,0,3.7604e-05,0,1,0,1
3971,2.0449e+07,-0.08726,-0.00063709,-0.086623,-0.011694,0,-7.4615e-05,0,1,0,1
4013,2.0459e+07,-0.087179,-0.0029588,-0.08422,-0.01137,0,0.00055329,0,1,0,1
4059,2.0469e+07,-0.0871,-0.00016551,-0.086934,-0.011736,0,-0.00055756,0,1,0,1
4099,2.048e+07,-0.087071,8.7593e-05,-0.087158,-0.011766,0,-0.00023145,0,1,0,1
4141,2.049e+07,-0.087077,0.00067436,-0.087752,-0.011846,0,-0.0001164,0,1,0,1
4182,2.05e+07,-0.087104,0.00073868,-0.087843,-0.011859,0,3.0613e-05,0,1,0,1
4219,2.051e+07,-0.087107,-0.00019738,-0.08691,-0.011733,0,0.00011045,0,1,0,1
4261,2.052e+07,-0.087095,-0.00012856,-0.086966,-0.01174,0,-3.9661e-06,0,1,0,1
4301,2.053e+07,-0.087064,-0.0013594,-0.085704,-0.01157,0,0.00033561,0,1,0,1
4342,2.054e+07,-0.086992,-0.0020648,-0.084927,-0.011465,0,0.00027026,0,1,0,1
4382,2.055e+07,-0.086842,-0.0043399,-0.082502,-0.011138,0,0.00051439,0,1,0,1
4423,2.056e+07,-0.086719,-0.0013147,-0.085404,-0.01153,0,-0.00045313,0,1,0,1
4470,2.0571e+07,-0.086635,-0.001787,-0.084848,-0.011454,0,0.00010337,0,1,0,1
4510,2.0581e+07,-0.086557,-0.0016518,-0.084905,-0.011462,0,5.4225e-05,0,1,0,1
4552,2.0591e+07,-0.086491,0.00017066,-0.086661,-0.011699,0,-0.00056967,0,1,0,1
4595,2.0603e+07,-0.086456,0.00065138,-0.087107,-0.011759,0,-0.00038922,0,1,0,1
4639,2.0616e+07,-0.086483,0.0012441,-0.087727,-0.011843,0,-0.00019281,0,1,0,1
4680,2.0626e+07,-0.08654,0.0022985,-0.088838,-0.011993,0,-0.00031921,0,1,0,1
4720,2.0636e+07,-0.086582,0.00029088,-0.086873,-0.011728,0,0.00025594,0,1,0,1
4763,2.0646e+07,-0.086591,-4.176e-05,-0.086549,-0.011684,0,0.00012867,0,1,0,1
4804,2.0656e+07,-0.086566,0.00011889,-0.086685,-0.011702,0,-0.00020292,0,1,0,1
4845,2.0667e+07,-0.086565,0.00040495,-0.08697,-0.011741,0,-0.00012386,0,1,0,1
4890,2.0677e+07,-0.086577,-4.661e-05,-0.08653,-0.011682,0,0.00015109,0,1,0,1
4931,2.0687e+07,-0.086586,0.0013398,-0.087926,-0.01187,0,-0.00040256,0,1,0,1
4972,2.0697e+07,-0.086633,0.0009123,-0.087546,-0.011819,0,8.5487e-05,0,1,0,1
5013,2.0708e+07,-0.086657,0.0011503,-0.087807,-0.011854,0,-0.00020998,0,1,0,1
5054,2.072e+07,-0.08668,0.0011019,-0.087782,-0.011851,0,-0.00029264,0,1,0,1
5094,2.073e+07,-0.086705,-4.1428e-05,-0.086664,-0.0117,0,0.00026723,0,1,0,1
5136,2.074e+07,-0.086692,-0.00051351,-0.086178,-0.011634,0,0.00014317,0,1,0,1
5177,2.075e+07,-0.086669,-0.00089094,-0.085778,-0.01158,0,0.00022478,0,1,0,1
5217,2.076e+07,-0.086629,-0.0014862,-0.085143,-0.011494,0,0.00032177,0,1,0,1
5262,2.0771e+07,-0.086588,-0.00032814,-0.08626,-0.011645,0,-0.00021962,0,1,0,1
5303,2.0781e+07,-0.086565,3.2143e-05,-0.086597,-0.011691,0,-0.00010328,0,1,0,1
5347,2.0791e+07,-0.0865,-0.0023299,-0.08417,-0.011363,0,0.00042047,0,1,0,1
5388,2.0801e+07,-0.086462,0.00071976,-0.087182,-0.01177,0,-0.00051249,0,1,0,1
5430,2.0811e+07,-0.086455,0.00093471,-0.08739,-0.011798,0,-0.00035701,0,1,0,1
5468,2.0824e+07,-0.086456,-0.0012533,-0.085202,-0.011502,0,0.00050099,0,1,0,1
5509,2.0834e+07,-0.086448,0.0011437,-0.087592,-0.011825,0,-0.00043948,0,1,0,1
5553,2.0844e+07,-0.086483,0.0012547,-0.087738,-0.011845,0,-0.00012979,0,1,0,1
5594,2.0854e+07,-0.086554,0.0024986,-0.089053,-0.012022,0,-0.00034717,0,1,0,1
5634,2.0864e+07,-0.086615,0.0019585,-0.088573,-0.011957,0,-0.0001938,0,1,0,1
5679,2.0875e+07,-0.086679,0.00094383,-0.087623,-0.011829,0,0.0002009,0,1,0,1
5719,2.0885e+07,-0.086712,0.0018584,-0.08857,-0.011957,0,-0.00045848,0,1,0,1
5762,2.0895e+07,-0.086745,-0.00064698,-0.086098,-0.011623,0,0.00055951,0,1,0,1
5802,2.0905e+07,-0.086717,-0.0011039,-0.085613,-0.011558,0,0.0002188,0,1,0,1
5840,2.0915e+07,-0.086686,-0.0024984,-0.084187,-0.011365,0,0.00062961,0,1,0,1
5879,2.0925e+07,-0.086621,0.0005311,-0.087152,-0.011766,0,-0.00063936,0,1,0,1
5919,2.0935e+07,-0.086611,0.00028803,-0.086899,-0.011731,0,-8.1838e-05,0,1,0,1
5961,2.0945e+07,-0.086629,-0.00028844,-0.086341,-0.011656,0,0.00038417,0,1,0,1
6002,2.0955e+07,-0.086623,-0.00050834,-0.086115,-0.011626,0,0.00019564,0,1,0,1
6042,2.0965e+07,-0.086317,-0.0015881,-0.084729,-0.011438,0,0.00034268,0,1,0,1
6087,2.0975e+07,-0.086164,-0.00095272,-0.085211,-0.011503,0,0.00015891,0,1,0,1
6127,2.0985e+07,-0.085894,-0.0011989,-0.084696,-0.011434,0,0.00030162,0,1,0,1
6169,2.0995e+07,-0.085661,-0.0016814,-0.08398,-0.011337,0,0.00026981,0,1,0,1
6210,2.1006e+07,-0.085587,0.0026003,-0.088188,-0.011905,0,-0.0011228,0,1,0,1
6250,2.1015e+07,-0.085609,0.0012442,-0.086853,-0.011725,0,-8.6804e-05,0,1,0,1
6288,2.1025e+07,-0.085647,0.00074547,-0.086392,-0.011663,0,7.5798e-05,0,1,0,1
6329,2.1035e+07,-0.08565,-0.0006462,-0.085004,-0.011475,0,0.00034454,0,1,0,1
6373,2.1046e+07,-0.085625,-0.0025881,-0.083036,-0.01121,0,0.00090392,0,1,0,1
6413,2.1056e+07,-0.08553,-0.0021283,-0.083402,-0.011259,0,0.00016886,0,1,0,1
6457,2.1068e+07,-0.085321,-0.0062723,-0.079048,-0.010672,0,0.0010667,0,1,0,1
6501,2.1078e+07,-0.085121,-0.0033836,-0.081737,-0.011035,0,-0.00029081,0,1,0,1
6542,2.1088e+07,-0.084968,-0.0022063,-0.082762,-0.011173,0,-0.0003124,0,1,0,1
6584,2.1098e+07,-0.084928,0.0006276,-0.085556,-0.01155,0,-0.00046827,0,1,0,1
6624,2.1111e+07,-0.084969,0.0017458,-0.086715,-0.011707,0,-0.00021453,0,1,0,1
6662,2.1121e+07,-0.085163,0.0030326,-0.088195,-0.011906,0,-0.00045474,0,1,0,1
6702,2.1131e+07,-0.085484,0.0034031,-0.088887,-0.012,0,-0.00056826,0,1,0,1
6745,2.1141e+07,-0.085681,0.0014784,-0.08716,-0.011767,0,0.00051748,0,1,0,1
6785,2.1151e+07,-0.08582,0.0026169,-0.088437,-0.011939,0,1.4812e-05,0,1,0,1
6826,2.1161e+07,-0.085926,0.00088375,-0.08681,-0.011719,0,0.00059403,0,1,0,1
6867,2.1171e+07,-0.085972,0.0012517,-0.087224,-0.011775,0,-8.2375e-05,0,1,0,1
6912,2.1182e+07,-0.085994,-0.0015928,-0.084401,-0.011394,0,0.00082582,0,1,0,1
6953,2.1192e+07,-0.085925,-0.0027908,-0.083134,-0.011223,0,0.00052894,0,1,0,1
6993,2.1202e+07,-0.085869,-0.00098731,-0.084881,-0.011459,0,-5.6882e-05,0,1,0,1
7034,2.1215e+07,-0.0858,-0.00058156,-0.085218,-0.011504,0,-0.00017579,0,1,0,1
7074,2.1225e+07,-0.085783,6.3632e-05,-0.085846,-0.011589,0,-5.9444e-05,0,1,0,1
7115,2.1235e+07,-0.085704,-2.8535e-05,-0.085675,-0.011566,0,-0.00059238,0,1,0,1
7158,2.1245e+07,-0.085706,0.001242,-0.086948,-0.011738,0,-0.00037325,0,1,0,1
7200,2.1255e+07,-0.085722,0.0012902,-0.087012,-0.011747,0,-0.00031672,0,1,0,1
7241,2.1265e+07,-0.085804,0.00094257,-0.086747,-0.011711,0,0.00046368,0,1,0,1
7285,2.1276e+07,-0.085895,0.0035474,-0.089442,-0.012075,0,-0.00054451,0,1,0,1
7327,2.1286e+07,-0.085998,0.0018636,-0.087862,-0.011861,0,0.00015028,0,1,0,1
7368,2.1296e+07,-0.086034,-0.001629,-0.084405,-0.011395,0,0.00094244,0,1,0,1
7410,2.1306e+07,-0.086052,-0.00053612,-0.085516,-0.011545,0,0.00040191,0,1,0,1
7454,2.1321e+07,-0.085912,-0.00038276,-0.08553,-0.011546,0,-0.00053115,0,1,0,1
7495,2.1331e+07,-0.085836,-0.0022274,-0.083609,-0.011287,0,0.00028133,0,1,0,1
7536,2.1341e+07,-0.085755,-0.0022761,-0.083479,-0.01127,0,0.00021967,0,1,0,1
7578,2.1351e+07,-0.085651,-0.001711,-0.08394,-0.011332,0,-0.00016184,0,1,0,1
7618,2.1361e+07,-0.085554,-0.0020129,-0.083541,-0.011278,0,5.303e-05,0,1,0,1
7659,2.1371e+07,-0.08552,0.0025981,-0.088118,-0.011896,0,-0.0013261,0,1,0,1
7705,2.1381e+07,-0.085557,0.0030181,-0.088576,-0.011958,0,-0.00083738,0,1,0,1
7746,2.1391e+07,-0.085698,0.0020947,-0.087792,-0.011852,0,0.0004636,0,1,0,1
7788,2.1401e+07,-0.08579,0.0018224,-0.087612,-0.011828,0,8.8475e-05,0,1,0,1
7831,2.1413e+07,-0.085858,-0.00033481,-0.085524,-0.011546,0,0.0005195,0,1,0,1
7872,2.1426e+07,-0.085825,-0.0004214,-0.085404,-0.011529,0,-0.0001998,0,1,0,1
7912,2.1436e+07,-0.085782,0.00025969,-0.086042,-0.011616,0,-0.000299,0,1,0,1
7953,2.1446e+07,-0.085746,-0.00056524,-0.085181,-0.011499,0,-1.9282e-05,0,1,0,1
7998,2.1456e+07,-0.085749,0.00079259,-0.086542,-0.011683,0,-0.00026482,0,1,0,1
8038,2.1467e+07,-0.085763,-7.1776e-05,-0.085691,-0.011568,0,0.00018578,0,1,0,1
8083,2.1477e+07,-0.085747,0.00020131,-0.085948,-0.011603,0,-0.00023131,0,1,0,1
8123,2.1487e+07,-0.085754,-0.00024959,-0.085504,-0.011543,0,0.00015969,0,1,0,1
8165,2.1497e+07,-0.085802,0.0015192,-0.087321,-0.011788,0,-0.00012127,0,1,0,1
8206,2.1507e+07,-0.086171,0.0025871,-0.088758,-0.011982,0,-0.00045878,0,1,0,1
8246,2.1517e+07,-0.086386,0.0025044,-0.08889,-0.012,0,3.9205e-05,0,1,0,1
8281,2.1528e+07,-0.086491,0.0020639,-0.088555,-0.011955,0,-0.0001405,0,1,0,1
8322,2.1538e+07,-0.086583,0.0012022,-0.087785,-0.011851,0,0.00017243,0,1,0,1
8362,2.1548e+07,-0.0866,-0.00088903,-0.085711,-0.011571,0,0.00044447,0,1,0,1
8403,2.1558e+07,-0.08651,-0.0056823,-0.080828,-0.010912,0,0.0014273,0,1,0,1
8444,2.1568e+07,-0.086336,-0.0030983,-0.083238,-0.011237,0,-0.00030021,0,1,0,1
8494,2.1581e+07,-0.086198,-0.0024322,-0.083766,-0.011308,0,0.00012632,0,1,0,1
8535,2.1591e+07,-0.086119,6.0168e-05,-0.086179,-0.011634,0,-0.00055166,0,1,0,1
8576,2.1601e+07,-0.086072,-0.0021441,-0.083928,-0.01133,0,0.00052678,0,1,0,1
8617,2.1611e+07,-0.085996,0.00044685,-0.086443,-0.01167,0,-0.00078887,0,1,0,1
8654,2.1621e+07,-0.085995,0.0010245,-0.08702,-0.011748,0,-0.00034104,0,1,0,1
8695,2.1633e+07,-0.086021,0.0011863,-0.087208,-0.011773,0,-0.00020484,0,1,0,1
8737,2.1644e+07,-0.086088,0.00328,-0.089368,-0.012065,0,-0.00067198,0,1,0,1
8778,2.1654e+07,-0.086197,0.001761,-0.087958,-0.011874,0,0.00028529,0,1,0,1
8820,2.1664e+07,-0.086269,0.001019,-0.087288,-0.011784,0,0.00021992,0,1,0,1
8861,2.1675e+07,-0.086306,0.00045866,-0.086765,-0.011713,0,0.0001384,0,1,0,1
8906,2.1685e+07,-0.086289,0.00045173,-0.08674,-0.01171,0,-0.00032961,0,1,0,1
8946,2.1695e+07,-0.086259,-0.0010902,-0.085169,-0.011498,0,0.00015454,0,1,0,1
8987,2.1705e+07,-0.086203,-0.0020298,-0.084173,-0.011363,0,0.00027058,0,1,0,1
9027,2.1715e+07,-0.08615,-0.0011121,-0.085037,-0.01148,0,-5.6691e-06,0,1,0,1
9068,2.1725e+07,-0.086148,0.0021229,-0.088271,-0.011917,0,-0.00083215,0,1,0,1
9106,2.1735e+07,-0.086209,0.0017165,-0.087925,-0.01187,0,-0.00011309,0,1,0,1
9146,2.1745e+07,-0.08631,0.0038075,-0.090118,-0.012166,0,-0.00061341,0,1,0,1
9187,2.1755e+07,-0.086449,0.0023771,-0.088826,-0.011992,0,0.00026967,0,1,0,1
9227,2.1765e+07,-0.086528,0.00082844,-0.087357,-0.011793,0,0.00033637,0,1,0,1
9268,2.1775e+07,-0.086522,0.0018745,-0.088396,-0.011934,0,0.00025753,0,1,0,1
9312,2.1785e+07,-0.086339,-0.0011158,-0.085223,-0.011505,0,0.00085837,0,1,0,1
9354,2.1795e+07,-0.086238,-0.0023825,-0.083856,-0.011321,0,0.00069488,0,1,0,1
9397,2.1805e+07,-0.086117,-0.0027782,-0.083338,-0.011251,0,0.00023146,0,1,0,1
9437,2.1815e+07,-0.085991,-0.0035986,-0.082393,-0.011123,0,0.00051313,0,1,0,1
9476,2.1825e+07,-0.085848,-0.0034145,-0.082434,-0.011129,0,0.00021013,0,1,0,1
9521,2.1875e+07,-0.085604,0.0015684,-0.087172,-0.011768,0,-0.00049336,0,1,0,1
9566,2.1885e+07,-0.08567,0.0023982,-0.088068,-0.011889,0,-0.00034738,0,1,0,1
9607,2.1895e+07,-0.085748,0.0023527,-0.088101,-0.011894,0,-0.000211,0,1,0,1
9648,2.1905e+07,-0.085842,0.00042931,-0.086271,-0.011647,0,0.0006449,0,1,0,1
9688,2.1915e+07,-0.085851,-0.0006388,-0.085213,-0.011504,0,0.00032436,0,1,0,1
9722,2.1925e+07,-0.085809,-0.0020797,-0.08373,-0.011304,0,0.00041636,0,1,0,1
9763,2.1935e+07,-0.085738,-0.0009943,-0.084744,-0.01144,0,-0.00020231,0,1,0,1
9804,2.1945e+07,-0.085682,-0.0010721,-0.08461,-0.011422,0,-1.1873e-05,0,1,0,1
9845,2.1955e+07,-0.085667,0.00066422,-0.086332,-0.011655,0,-0.00032679,0,1,0,1
9886,2.1965e+07,-0.08567,0.00058024,-0.08625,-0.011644,0,-0.00014777,0,1,0,1
9927,2.1975e+07,-0.085692,0.00080702,-0.086499,-0.011677,0,-0.00010586,0,1,0,1
9972,2.1985e+07,-0.085728,0.0023347,-0.088063,-0.011889,0,-0.0006083,0,1,0,1
10013,2.1995e+07,-0.085814,0.0022378,-0.088052,-0.011887,0,-0.00010666,0,1,0,1
10054,2.2005e+07,-0.085915,0.0022544,-0.08817,-0.011903,0,3.4637e-05,0,1,0,1
10094,2.2015e+07,-0.085982,-0.00010187,-0.08588,-0.011594,0,0.00058472,0,1,0,1
10132,2.2025e+07,-0.086002,0.00035309,-0.086355,-0.011658,0,4.0299e-05,0,1,0,1
10172,2.2035e+07,-0.085981,-0.0019825,-0.083999,-0.01134,0,0.00062641,0,1,0,1
10215,2.2045e+07,-0.085892,-0.0022049,-0.083687,-0.011298,0,5.545e-05,0,1,0,1
10255,2.2055e+07,-0.085808,-0.0025062,-0.083302,-0.011246,0,0.00027434,0,1,0,1
10297,2.2065e+07,-0.085722,-0.0005331,-0.085189,-0.011501,0,-0.00050081,0,1,0,1
10337,2.2075e+07,-0.085642,-0.0016151,-0.084027,-0.011344,0,1.8471e-05,0,1,0,1
10383,2.2085e+07,-0.085628,0.0015424,-0.087171,-0.011768,0,-0.00066255,0,1,0,1
10423,2.2095e+07,-0.085667,0.00017876,-0.085846,-0.011589,0,0.00035244,0,1,0,1
10465,2.2106e+07,-0.085671,0.0004158,-0.086086,-0.011622,0,-0.00010561,0,1,0,1
10506,2.2116e+07,-0.085701,0.0015006,-0.087202,-0.011772,0,-0.00030522,0,1,0,1
10543,2.2126e+07,-0.085742,0.0012057,-0.086948,-0.011738,0,-6.8037e-05,0,1,0,1
10584,2.2136e+07,-0.085763,0.00042049,-0.086184,-0.011635,0,-8.0595e-06,0,1,0,1
10624,2.2146e+07,-0.085798,7.2556e-05,-0.085871,-0.011593,0,0.00029042,0,1,0,1
10666,2.2157e+07,-0.085786,-0.00063448,-0.085151,-0.011495,0,0.00020958,0,1,0,1
10706,2.2168e+07,-0.08578,-0.0012842,-0.084496,-0.011407,0,0.00049951,0,1,0,1
10748,2.2178e+07,-0.085728,-0.00057373,-0.085154,-0.011496,0,-0.00011216,0,1,0,1
10793,2.2188e+07,-0.085705,-3.3657e-05,-0.085671,-0.011566,0,-0.00014946,0,1,0,1
10833,2.2198e+07,-0.085702,0.0010273,-0.086729,-0.011708,0,-0.00039773,0,1,0,1
10874,2.2208e+07,-0.085736,0.0016908,-0.087427,-0.011803,0,-0.00034889,0,1,0,1
10920,2.2223e+07,-0.085794,0.0008014,-0.086595,-0.01169,0,-3.5479e-05,0,1,0,1
10962,2.2233e+07,-0.085836,0.0018263,-0.087662,-0.011834,0,-0.00034779,0,1,0,1
11002,2.2244e+07,-0.08588,0.00083391,-0.086714,-0.011706,0,5.498e-05,0,1,0,1
11045,2.2254e+07,-0.085902,0.00077416,-0.086676,-0.011701,0,-0.00012434,0,1,0,1
11085,2.2264e+07,-0.085981,0.0022312,-0.088212,-0.011909,0,-0.00021836,0,1,0,1
11127,2.2274e+07,-0.086013,-0.0005448,-0.085468,-0.011538,0,0.00049932,0,1,0,1
11173,2.2285e+07,-0.085987,-0.0012771,-0.08471,-0.011436,0,0.00025799,0,1,0,1
11213,2.2295e+07,-0.085922,-0.002954,-0.082968,-0.011201,0,0.00068735,0,1,0,1
11256,2.2305e+07,-0.085878,0.00083843,-0.086716,-0.011707,0,-0.00066782,0,1,0,1
11296,2.2315e+07,-0.085822,-0.0019311,-0.083891,-0.011325,0,0.00030361,0,1,0,1
11338,2.2325e+07,-0.085785,-0.0012479,-0.084537,-0.011412,0,0.00018685,0,1,0,1
11375,2.2336e+07,-0.08573,-0.00043497,-0.085295,-0.011515,0,-0.00021267,0,1,0,1
11416,2.2346e+07,-0.085695,0.0006472,-0.086342,-0.011656,0,-0.00050194,0,1,0,1
11457,2.2356e+07,-0.085718,0.00017678,-0.085895,-0.011596,0,0.00013278,0,1,0,1
11497,2.2366e+07,-0.085772,0.0020104,-0.087782,-0.011851,0,-0.00031816,0,1,0,1
11539,2.2376e+07,-0.085811,0.0001605,-0.085971,-0.011606,0,0.00026371,0,1,0,1
11584,2.2387e+07,-0.085845,0.00027354,-0.086118,-0.011626,0,0.00020939,0,1,0,1
11627,2.2397e+07,-0.085859,0.00082777,-0.086687,-0.011703,0,-0.00016669,0,1,0,1
11668,2.2407e+07,-0.08589,4.069e-05,-0.085931,-0.011601,0,0.00025203,0,1,0,1
11708,2.2417e+07,-0.085872,-0.0009119,-0.084961,-0.01147,0,0.00021425,0,1,0,1
11749,2.2427e+07,-0.085845,-0.0012343,-0.08461,-0.011422,0,0.0002535,0,1,0,1
11786,2.2438e+07,-0.08582,0.00020942,-0.086029,-0.011614,0,-0.00024745,0,1,0,1
11828,2.2448e+07,-0.085787,3.5922e-05,-0.085823,-0.011586,0,-0.00023513,0,1,0,1
11870,2.2458e+07,-0.085779,-0.00028125,-0.085497,-0.011542,0,6.0153e-05,0,1,0,1
11911,2.2468e+07,-0.085767,0.0006502,-0.086417,-0.011666,0,-0.00030412,0,1,0,1
11953,2.2478e+07,-0.085775,-0.0013658,-0.084409,-0.011395,0,0.00063778,0,1,0,1
11998,2.2488e+07,-0.085737,-0.00038619,-0.085351,-0.011522,0,-0.00011801,0,1,0,1
12039,2.2498e+07,-0.085738,0.00091099,-0.086649,-0.011698,0,-0.00030469,0,1,0,1
12079,2.2509e+07,-0.085775,0.0017291,-0.087504,-0.011813,0,-0.00030608,0,1,0,1
12123,2.2522e+07,-0.085801,-0.0010758,-0.084725,-0.011438,0,0.00054249,0,1,0,1
12165,2.2533e+07,-0.085772,-0.0013579,-0.084415,-0.011396,0,0.00026933,0,1,0,1
12205,2.2543e+07,-0.085714,-0.00035206,-0.085362,-0.011524,0,-0.00030676,0,1,0,1
12243,2.2553e+07,-0.085643,-0.0015208,-0.084122,-0.011356,0,-5.386e-07,0,1,0,1
12283,2.2563e+07,-0.085604,-0.00086691,-0.084737,-0.01144,0,2.6512e-06,0,1,0,1
12324,2.2574e+07,-0.085557,-0.0010843,-0.084473,-0.011404,0,4.441e-05,0,1,0,1
12366,2.2584e+07,-0.085531,0.00024098,-0.085772,-0.011579,0,-0.00032154,0,1,0,1
12413,2.2594e+07,-0.085497,3.3216e-05,-0.08553,-0.011547,0,-0.0002861,0,1,0,1
12453,2.2604e+07,-0.08554,0.001089,-0.086629,-0.011695,0,-2.9795e-05,0,1,0,1
12494,2.2615e+07,-0.085577,0.0001614,-0.085739,-0.011575,0,0.00030479,0,1,0,1
12535,2.2624e+07,-0.085606,0.0023293,-0.087935,-0.011871,0,-0.00064803,0,1,0,1
12572,2.2634e+07,-0.085654,-0.00037429,-0.08528,-0.011513,0,0.00059947,0,1,0,1
12612,2.2645e+07,-0.085666,0.00054362,-0.08621,-0.011638,0,-0.00010194,0,1,0,1
12653,2.2655e+07,-0.085713,0.0021343,-0.087848,-0.011859,0,-0.00045633,0,1,0,1
12694,2.2665e+07,-0.085756,-0.0012035,-0.084552,-0.011415,0,0.00082379,0,1,0,1
12734,2.2675e+07,-0.085715,-0.0020239,-0.083691,-0.011298,0,0.00046808,0,1,0,1
12777,2.2685e+07,-0.08565,-0.0022516,-0.083398,-0.011259,0,0.00033485,0,1,0,1
12822,2.2695e+07,-0.085557,-0.0010568,-0.084501,-0.011408,0,-0.00036548,0,1,0,1
12862,2.2705e+07,-0.085545,0.0022005,-0.087746,-0.011846,0,-0.00093141,0,1,0,1
12903,2.2715e+07,-0.085557,-0.001217,-0.08434,-0.011386,0,0.00059112,0,1,0,1
12943,2.2725e+07,-0.085566,0.0014981,-0.087064,-0.011754,0,-0.00048733,0,1,0,1
12981,2.2738e+07,-0.08561,0.000489,-0.086099,-0.011623,0,6.6133e-05,0,1,0,1
13021,2.2748e+07,-0.085693,0.0033481,-0.089041,-0.012021,0,-0.00064367,0,1,0,1
13063,2.2758e+07,-0.085798,0.0013283,-0.087126,-0.011762,0,0.00041399,0,1,0,1
13104,2.2768e+07,-0.08583,-0.00058587,-0.085244,-0.011508,0,0.00048692,0,1,0,1
13144,2.2778e+07,-0.085836,-3.4433e-05,-0.085802,-0.011583,0,3.8216e-05,0,1,0,1
13185,2.2789e+07,-0.085803,-0.0019588,-0.083844,-0.011319,0,0.00047128,0,1,0,1
13232,2.2799e+07,-0.085728,-0.0025696,-0.083158,-0.011226,0,0.00039886,0,1,0,1
13273,2.2809e+07,-0.085647,-0.00039549,-0.085251,-0.011509,0,-0.00052681,0,1,0,1
13314,2.282e+07,-0.085591,-0.00038473,-0.085206,-0.011503,0,-0.00028389,0,1,0,1
13354,2.2829e+07,-0.085584,0.00079241,-0.086376,-0.011661,0,-0.00032598,0,1,0,1
13395,2.284e+07,-0.085617,0.00087799,-0.086495,-0.011677,0,-3.3342e-05,0,1,0,1
13435,2.285e+07,-0.085658,0.0024473,-0.088106,-0.011894,0,-0.00067377,0,1,0,1
13477,2.286e+07,-0.085679,-0.00050336,-0.085175,-0.011499,0,0.00030428,0,1,0,1
13518,2.2871e+07,-0.085672,-0.0019554,-0.083716,-0.011302,0,0.0006654,0,1,0,1
13558,2.2881e+07,-0.08561,-0.0016191,-0.083991,-0.011339,0,8.5251e-05,0,1,0,1
13600,2.2891e+07,-0.085542,-0.001851,-0.083691,-0.011298,0,0.00019301,0,1,0,1
13644,2.2901e+07,-0.085442,-0.0023427,-0.0831,-0.011218,0,0.00013042,0,1,0,1
13686,2.2911e+07,-0.085394,2.5112e-05,-0.085419,-0.011532,0,-0.00040885,0,1,0,1
13726,2.2921e+07,-0.085382,0.0018414,-0.087223,-0.011775,0,-0.000816,0,1,0,1
13767,2.2931e+07,-0.085428,0.0013056,-0.086734,-0.011709,0,-0.00014207,0,1,0,1
13805,2.2942e+07,-0.085512,0.0015015,-0.087014,-0.011747,0,0.00014134,0,1,0,1
13845,2.2952e+07,-0.085574,0.0015911,-0.087165,-0.011767,0,-0.0001529,0,1,0,1
13886,2.2962e+07,-0.085658,0.0015982,-0.087257,-0.01178,0,8.4019e-05,0,1,0,1
13928,2.2972e+07,-0.085717,-0.00039019,-0.085327,-0.011519,0,0.00062373,0,1,0,1
13969,2.2982e+07,-0.085699,4.7471e-05,-0.085746,-0.011576,0,-0.00020224,0,1,0,1
14010,2.2992e+07,-0.085657,-0.0019521,-0.083705,-0.0113,0,0.00039987,0,1,0,1
14054,2.3002e+07,-0.085628,-0.00055026,-0.085078,-0.011485,0,-2.8916e-05,0,1,0,1
14096,2.3012e+07,-0.085609,0.00035392,-0.085963,-0.011605,0,-0.00026298,0,1,0,1
14136,2.3022e+07,-0.085587,-0.00041859,-0.085169,-0.011498,0,-2.5455e-05,0,1,0,1
14181,2.3035e+07,-0.085553,0.0011634,-0.086717,-0.011707,0,-0.00071431,0,1,0,1
14223,2.3046e+07,-0.085592,0.0031112,-0.088703,-0.011975,0,-0.00088662,0,1,0,1
14261,2.3056e+07,-0.085639,0.00094079,-0.08658,-0.011688,0,-4.7896e-05,0,1,0,1
14303,2.3066e+07,-0.085669,0.0010329,-0.086702,-0.011705,0,-0.00022281,0,1,0,1
14343,2.3076e+07,-0.085691,0.0011614,-0.086853,-0.011725,0,-0.00029859,0,1,0,1
14384,2.3086e+07,-0.085755,0.0025405,-0.088296,-0.01192,0,-0.00048052,0,1,0,1
14424,2.3096e+07,-0.085799,-0.0015696,-0.084229,-0.011371,0,0.00095028,0,1,0,1
14470,2.3106e+07,-0.085795,-0.002649,-0.083146,-0.011225,0,0.0010481,0,1,0,1
14511,2.3116e+07,-0.085758,-0.002693,-0.083065,-0.011214,0,0.00079551,0,1,0,1
14552,2.3127e+07,-0.085648,-0.0030299,-0.082618,-0.011153,0,0.00035733,0,1,0,1
14593,2.3137e+07,-0.085559,-0.00075109,-0.084807,-0.011449,0,-0.00043437,0,1,0,1
14633,2.315e+07,-0.08546,-0.0022626,-0.083198,-0.011232,0,0.00030058,0,1,0,1
14674,2.316e+07,-0.085398,-0.00089839,-0.0845,-0.011407,0,-0.00014628,0,1,0,1
14714,2.317e+07,-0.085306,-0.0026768,-0.082629,-0.011155,0,0.00029288,0,1,0,1
14755,2.318e+07,-0.085229,-0.00089283,-0.084336,-0.011385,0,-0.00030911,0,1,0,1
14796,2.319e+07,-0.085235,0.0001131,-0.085348,-0.011522,0,8.3005e-05,0,1,0,1
14841,2.3201e+07,-0.085214,0.00017642,-0.08539,-0.011528,0,-0.0001737,0,1,0,1
14883,2.3211e+07,-0.085251,0.0013314,-0.086583,-0.011689,0,-0.00023672,0,1,0,1
14923,2.3221e+07,-0.085268,0.0017173,-0.086985,-0.011743,0,-0.0004993,0,1,0,1
14964,2.3231e+07,-0.085289,-0.00080381,-0.084485,-0.011406,0,0.00048354,0,1,0,1
15004,2.3241e+07,-0.085315,0.00031584,-0.085631,-0.01156,0,6.0187e-05,0,1,0,1
15045,2.3251e+07,-0.085355,0.0015863,-0.086941,-0.011737,0,-0.00029286,0,1,0,1
15083,2.3261e+07,-0.085428,0.0035514,-0.08898,-0.012012,0,-0.00082212,0,1,0,1
15123,2.3272e+07,-0.085525,0.00203,-0.087555,-0.01182,0,1.5298e-05,0,1,0,1
15164,2.3282e+07,-0.085561,9.2442e-05,-0.085653,-0.011563,0,0.00024326,0,1,0,1
15206,2.3293e+07,-0.08561,0.0025711,-0.088182,-0.011905,0,-0.00058009,0,1,0,1
15252,2.3303e+07,-0.085691,0.0028591,-0.08855,-0.011954,0,-0.00039277,0,1,0,1
15292,2.3313e+07,-0.08574,0.00067635,-0.086416,-0.011666,0,0.00010869,0,1,0,1
15334,2.3323e+07,-0.085794,0.0017373,-0.087531,-0.011817,0,-0.00025093,0,1,0,1
15377,2.3335e+07,-0.085918,0.0027782,-0.088696,-0.011974,0,-0.00020524,0,1,0,1
15418,2.3346e+07,-0.085986,0.0020695,-0.088056,-0.011888,0,-0.00026822,0,1,0,1
15460,2.3357e+07,-0.086056,-0.00086906,-0.085187,-0.0115,0,0.00088176,0,1,0,1
15497,2.3367e+07,-0.086042,2.7172e-05,-0.08607,-0.011619,0,-0.00014227,0,1,0,1
15538,2.3377e+07,-0.086021,-0.0023979,-0.083623,-0.011289,0,0.00074147,0,1,0,1
15580,2.3387e+07,-0.085943,-0.0031057,-0.082837,-0.011183,0,0.00053925,0,1,0,1
15620,2.3398e+07,-0.085807,-0.0030197,-0.082787,-0.011176,0,-8.8448e-06,0,1,0,1
15667,2.3407e+07,-0.085734,-0.0013191,-0.084415,-0.011396,0,-0.00010567,0,1,0,1
15707,2.3418e+07,-0.085617,-0.0040615,-0.081556,-0.01101,0,0.00060434,0,1,0,1
15749,2.3428e+07,-0.085485,-0.0025827,-0.082902,-0.011192,0,-7.2037e-05,0,1,0,1
15791,2.3438e+07,-0.085376,-0.0012097,-0.084166,-0.011362,0,-0.00039117,0,1,0,1
15835,2.3451e+07,-0.08535,0.0014813,-0.086831,-0.011722,0,-0.00063474,0,1,0,1
15876,2.3462e+07,-0.085398,0.001415,-0.086813,-0.01172,0,-0.00015451,0,1,0,1
15917,2.3472e+07,-0.085469,0.001183,-0.086652,-0.011698,0,0.0001283,0,1,0,1
15958,2.3482e+07,-0.08556,0.0029105,-0.08847,-0.011944,0,-0.00035644,0,1,0,1
15998,2.3492e+07,-0.08566,0.0016442,-0.087305,-0.011786,0,0.00020895,0,1,0,1
16039,2.3503e+07,-0.085757,0.00080312,-0.08656,-0.011686,0,0.00050011,0,1,0,1
16084,2.3513e+07,-0.085763,-0.0004398,-0.085323,-0.011519,0,0.00022647,0,1,0,1
16125,2.3523e+07,-0.085801,0.0014447,-0.087246,-0.011778,0,-0.00025347,0,1,0,1
16166,2.3533e+07,-0.085847,-0.0010699,-0.084777,-0.011445,0,0.00083996,0,1,0,1
16206,2.3543e+07,-0.085835,7.8721e-05,-0.085914,-0.011598,0,-0.00015721,0,1,0,1
16251,2.3558e+07,-0.085813,0.001967,-0.08778,-0.01185,0,-0.00083012,0,1,0,1
16292,2.3569e+07,-0.085912,0.0043691,-0.090281,-0.012188,0,-0.00089029,0,1,0,1
16334,2.3579e+07,-0.086042,0.00027994,-0.086322,-0.011653,0,0.000847,0,1,0,1
16374,2.359e+07,-0.086168,0.0035529,-0.089721,-0.012112,0,-0.00045625,0,1,0,1
16415,2.36e+07,-0.08631,0.0025671,-0.088877,-0.011998,0,0.00015834,0,1,0,1
16461,2.361e+07,-0.086371,-0.00062891,-0.085742,-0.011575,0,0.00073086,0,1,0,1
16502,2.362e+07,-0.086365,-0.0018821,-0.084483,-0.011405,0,0.00066168,0,1,0,1
16544,2.3631e+07,-0.086331,-0.0023782,-0.083953,-0.011334,0,0.00064074,0,1,0,1
16587,2.3641e+07,-0.086217,-0.0037768,-0.082441,-0.011129,0,0.00056842,0,1,0,1
16627,2.3656e+07,-0.08601,-0.0033377,-0.082672,-0.011161,0,0.00011945,0,1,0,1
16668,2.3667e+07,-0.085838,-0.0056069,-0.080231,-0.010831,0,0.00080865,0,1,0,1
16710,2.3677e+07,-0.085623,-0.0030439,-0.082579,-0.011148,0,-0.00052869,0,1,0,1
16750,2.3687e+07,-0.085516,-0.00048644,-0.08503,-0.011479,0,-0.00070736,0,1,0,1
16791,2.3697e+07,-0.085471,2.9401e-05,-0.0855,-0.011543,0,-0.00035377,0,1,0,1
16831,2.3707e+07,-0.085528,0.001791,-0.087319,-0.011788,0,-0.00016701,0,1,0,1
16877,2.3717e+07,-0.085602,0.0028001,-0.088402,-0.011934,0,-0.00041893,0,1,0,1
16917,2.3728e+07,-0.085727,0.0031427,-0.08887,-0.011997,0,-0.00017422,0,1,0,1
16958,2.3738e+07,-0.085838,0.001301,-0.087139,-0.011764,0,0.00033677,0,1,0,1
16999,2.3748e+07,-0.085927,0.0028029,-0.08873,-0.011979,0,-0.0004108,0,1,0,1
17033,2.3758e+07,-0.085982,0.0011129,-0.087095,-0.011758,0,-1.3656e-05,0,1,0,1
17073,2.3768e+07,-0.086055,0.0022233,-0.088279,-0.011918,0,-0.00027606,0,1,0,1
17114,2.3778e+07,-0.086119,-0.00050791,-0.085611,-0.011557,0,0.000648,0,1,0,1
17158,2.3789e+07,-0.086075,-0.0019204,-0.084155,-0.011361,0,0.00038176,0,1,0,1
17198,2.3799e+07,-0.085994,-0.0019818,-0.084013,-0.011342,0,9.4138e-05,0,1,0,1
17239,2.3809e+07,-0.085921,-0.0011263,-0.084795,-0.011447,0,-0.0001843,0,1,0,1
17284,2.3819e+07,-0.085876,0.00099408,-0.08687,-0.011727,0,-0.0008129,0,1,0,1
17325,2.3829e+07,-0.085934,0.0031711,-0.089105,-0.012029,0,-0.00075529,0,1,0,1
17366,2.3839e+07,-0.086017,0.00093792,-0.086955,-0.011739,0,0.00033476,0,1,0,1
17408,2.3849e+07,-0.086093,0.001835,-0.087928,-0.01187,0,-9.7168e-05,0,1,0,1
17450,2.3859e+07,-0.086168,0.00015971,-0.086328,-0.011654,0,0.00057059,0,1,0,1
17490,2.3869e+07,-0.086265,0.0036816,-0.089947,-0.012143,0,-0.00064595,0,1,0,1
17532,2.3879e+07,-0.086383,0.00071239,-0.087095,-0.011758,0,0.00072403,0,1,0,1
17573,2.3889e+07,-0.086494,0.0020054,-0.088499,-0.011947,0,0.00012701,0,1,0,1
17614,2.39e+07,-0.086559,-0.0012339,-0.085325,-0.011519,0,0.0010814,0,1,0,1
17655,2.391e+07,-0.086507,-0.0025116,-0.083996,-0.011339,0,0.00053012,0,1,0,1
17699,2.392e+07,-0.086348,-0.0046616,-0.081687,-0.011028,0,0.00043467,0,1,0,1
17740,2.393e+07,-0.086201,-0.0028959,-0.083305,-0.011246,0,-0.00013745,0,1,0,1
17781,2.394e+07,-0.086046,-0.004933,-0.081113,-0.01095,0,0.0006311,0,1,0,1
17829,2.3955e+07,-0.085813,-0.0012776,-0.084536,-0.011412,0,-0.00056172,0,1,0,1
17869,2.3966e+07,-0.085813,0.0027315,-0.088544,-0.011953,0,-0.00097433,0,1,0,1
17911,2.3976e+07,-0.085863,0.0013476,-0.087211,-0.011773,0,-7.8419e-05,0,1,0,1
17952,2.3986e+07,-0.085977,0.0031668,-0.089144,-0.012034,0,-0.00030606,0,1,0,1
17993,2.3997e+07,-0.086095,0.0038001,-0.089895,-0.012136,0,-0.0004973,0,1,0,1
18034,2.4007e+07,-0.086218,0.0006056,-0.086824,-0.011721,0,0.00075281,0,1,0,1
18078,2.4018e+07,-0.086251,0.00088642,-0.087137,-0.011764,0,-0.00013533,0,1,0,1
18120,2.4028e+07,-0.086241,-0.0023589,-0.083882,-0.011324,0,0.0007947,0,1,0,1
18160,2.4038e+07,-0.086153,-0.0033262,-0.082827,-0.011182,0,0.00056386,0,1,0,1
18203,2.4049e+07,-0.085991,-0.0036322,-0.082359,-0.011118,0,8.9849e-05,0,1,0,1
18243,2.4058e+07,-0.085851,-0.0030428,-0.082808,-0.011179,0,2.4647e-05,0,1,0,1
18283,2.4069e+07,-0.085736,-0.0011058,-0.08463,-0.011425,0,-0.00049869,0,1,0,1
18324,2.4079e+07,-0.085653,-0.0011404,-0.084512,-0.011409,0,-0.00020667,0,1,0,1
18365,2.4089e+07,-0.085668,0.0038235,-0.089491,-0.012081,0,-0.0013145,0,1,0,1
18406,2.4099e+07,-0.085758,0.0019549,-0.087713,-0.011841,0,6.1955e-05,0,1,0,1
18447,2.4109e+07,-0.085924,0.0062107,-0.092134,-0.012438,0,-0.0010208,0,1,0,1
18494,2.4122e+07,-0.086147,0.0028713,-0.089018,-0.012017,0,0.00037365,0,1,0,1
18535,2.4132e+07,-0.086276,0.0016889,-0.087965,-0.011875,0,0.00038826,0,1,0,1
18576,2.4142e+07,-0.086312,-0.0013025,-0.08501,-0.011476,0,0.00072271,0,1,0,1
18617,2.4152e+07,-0.0863,-0.0011319,-0.085168,-0.011498,0,0.00027609,0,1,0,1
18658,2.4162e+07,-0.08617,-0.0052623,-0.080907,-0.010922,0,0.00085483,0,1,0,1
18695,2.4175e+07,-0.085865,-0.0059278,-0.079937,-0.010792,0,0.0002102,0,1,0,1
18736,2.4186e+07,-0.085655,-0.0016417,-0.084013,-0.011342,0,-0.0010878,0,1,0,1
18778,2.4196e+07,-0.085558,0.00014856,-0.085707,-0.01157,0,-0.0008114,0,1,0,1
18818,2.4206e+07,-0.085574,0.0027055,-0.088279,-0.011918,0,-0.0009053,0,1,0,1
18860,2.4216e+07,-0.085648,0.0015838,-0.087232,-0.011776,0,1.586e-05,0,1,0,1
18904,2.4227e+07,-0.085753,0.0030541,-0.088807,-0.011989,0,-0.00032695,0,1,0,1
18945,2.4237e+07,-0.085915,0.0041333,-0.090048,-0.012157,0,-0.00020642,0,1,0,1
18986,2.4247e+07,-0.086078,0.001962,-0.08804,-0.011885,0,0.00067131,0,1,0,1
19028,2.4259e+07,-0.086174,0.0015842,-0.087759,-0.011847,0,-1.297e-06,0,1,0,1
19067,2.427e+07,-0.086225,-0.001098,-0.085127,-0.011492,0,0.00084125,0,1,0,1
19109,2.428e+07,-0.086207,-0.0016574,-0.08455,-0.011414,0,0.00049246,0,1,0,1
19151,2.429e+07,-0.086073,-0.0068373,-0.079236,-0.010697,0,0.0015646,0,1,0,1
19192,2.43e+07,-0.085901,-0.0023925,-0.083509,-0.011274,0,-0.00052816,0,1,0,1
19232,2.4311e+07,-0.085804,-0.0011554,-0.084648,-0.011428,0,-0.00034451,0,1,0,1
19273,2.4321e+07,-0.085729,0.00027085,-0.086,-0.01161,0,-0.0007261,0,1,0,1
19317,2.4331e+07,-0.085746,0.0017383,-0.087484,-0.01181,0,-0.00055183,0,1,0,1
19359,2.4341e+07,-0.08584,0.0033792,-0.089219,-0.012045,0,-0.00048858,0,1,0,1
19399,2.4351e+07,-0.085926,0.0015763,-0.087502,-0.011813,0,8.669e-05,0,1,0,1
19440,2.4361e+07,-0.086036,0.0036529,-0.089689,-0.012108,0,-0.00054198,0,1,0,1
19481,2.4374e+07,-0.086107,0.00081132,-0.086918,-0.011734,0,-5.5989e-06,0,1,0,1
19522,2.4384e+07,-0.086144,0.0013002,-0.087445,-0.011805,0,-0.00023021,0,1,0,1
19565,2.4394e+07,-0.086185,2.0386e-05,-0.086205,-0.011638,0,0.00030325,0,1,0,1
19605,2.4404e+07,-0.086138,-0.0023963,-0.083742,-0.011305,0,0.00046896,0,1,0,1
19647,2.4414e+07,-0.086017,-0.0049557,-0.081061,-0.010943,0,0.00081391,0,1,0,1
19692,2.4425e+07,-0.085845,-0.0029066,-0.082938,-0.011197,0,-0.00029127,0,1,0,1
19733,2.4435e+07,-0.085724,-0.0010541,-0.08467,-0.01143,0,-0.00049793,0,1,0,1
19774,2.4445e+07,-0.085652,-0.00054895,-0.085103,-0.011489,0,-0.00031142,0,1,0,1
19817,2.4455e+07,-0.085661,0.002687,-0.088348,-0.011927,0,-0.00094825,0,1,0,1
19858,2.4465e+07,-0.085811,0.0037554,-0.089566,-0.012091,0,-0.00016091,0,1,0,1
19895,2.4475e+07,-0.08594,0.0026968,-0.088637,-0.011966,0,0.00026585,0,1,0,1
19936,2.4486e+07,-0.086077,0.0020327,-0.08811,-0.011895,0,0.00024305,0,1,0,1
19977,2.4496e+07,-0.086148,-0.00028606,-0.085862,-0.011591,0,0.00064919,0,1,0,1
20017,2.4506e+07,-0.086202,0.001136,-0.087338,-0.011791,0,-1.82e-05,0,1,0,1
20058,2.4516e+07,-0.086241,-0.00087855,-0.085362,-0.011524,0,0.00067124,0,1,0,1
20104,2.4527e+07,-0.086237,-0.00038863,-0.085848,-0.011589,0,0.00015478,0,1,0,1
20145,2.4537e+07,-0.086227,-0.00018171,-0.086045,-0.011616,0,5.1371e-05,0,1,0,1
20185,2.4547e+07,-0.08615,-0.0025052,-0.083645,-0.011292,0,0.000362,0,1,0,1
20226,2.4557e+07,-0.086105,-0.00033678,-0.085768,-0.011579,0,-0.00028077,0,1,0,1
20267,2.4567e+07,-0.086085,0.00091835,-0.087003,-0.011745,0,-0.00050248,0,1,0,1
20306,2.4578e+07,-0.086095,0.00025883,-0.086354,-0.011658,0,1.0943e-05,0,1,0,1
20346,2.4588e+07,-0.086106,0.0026339,-0.08874,-0.01198,0,-0.00096538,0,1,0,1
20387,2.4598e+07,-0.086176,0.0017693,-0.087946,-0.011873,0,-9.1653e-05,0,1,0,1
20427,2.4608e+07,-0.086215,-0.00021031,-0.086005,-0.011611,0,0.00040037,0,1,0,1
20469,2.4618e+07,-0.086212,-0.0017461,-0.084466,-0.011403,0,0.0006977,0,1,0,1
20516,2.4628e+07,-0.086167,-0.0029561,-0.083211,-0.011233,0,0.00080435,0,1,0,1
20558,2.4639e+07,-0.086039,-0.0030827,-0.082957,-0.011199,0,0.00020618,0,1,0,1
20599,2.4648e+07,-0.085968,-0.001558,-0.08441,-0.011395,0,6.4378e-05,0,1,0,1
20639,2.4659e+07,-0.085853,-0.003625,-0.082228,-0.011101,0,0.00046424,0,1,0,1
20680,2.4669e+07,-0.085686,-0.0029822,-0.082704,-0.011165,0,-0.00027399,0,1,0,1
20720,2.4679e+07,-0.08558,-0.0021803,-0.0834,-0.011259,0,-1.5782e-05,0,1,0,1
20761,2.4689e+07,-0.085512,-0.0010837,-0.084428,-0.011398,0,-0.00018303,0,1,0,1
20802,2.4699e+07,-0.08548,0.00057003,-0.08605,-0.011617,0,-0.00050331,0,1,0,1
20843,2.471e+07,-0.085525,0.00084748,-0.086372,-0.01166,0,6.2967e-05,0,1,0,1
20884,2.472e+07,-0.085589,0.0016954,-0.087284,-0.011783,0,-0.00018074,0,1,0,1
20928,2.473e+07,-0.085617,-0.001732,-0.083885,-0.011324,0,0.00087732,0,1,0,1
20971,2.474e+07,-0.085588,-4.4293e-05,-0.085543,-0.011548,0,-0.00026518,0,1,0,1
21011,2.475e+07,-0.085569,0.00021746,-0.085786,-0.011581,0,-0.00024929,0,1,0,1
21052,2.476e+07,-0.08559,0.00068523,-0.086275,-0.011647,0,-9.649e-05,0,1,0,1
21094,2.477e+07,-0.085584,-0.00014982,-0.085434,-0.011534,0,-3.565e-05,0,1,0,1
21135,2.4781e+07,-0.085635,0.0032819,-0.088916,-0.012004,0,-0.00090935,0,1,0,1
21177,2.4791e+07,-0.085698,0.00068105,-0.086379,-0.011661,0,0.00026545,0,1,0,1
21217,2.4802e+07,-0.085711,-0.00072481,-0.084987,-0.011473,0,0.00033906,0,1,0,1
21258,2.4812e+07,-0.085711,0.0022254,-0.087936,-0.011871,0,-0.00091951,0,1,0,1
21299,2.4823e+07,-0.08576,0.0020918,-0.087852,-0.01186,0,-0.00039736,0,1,0,1
21346,2.4833e+07,-0.085834,0.0016154,-0.087449,-0.011806,0,-7.3744e-05,0,1,0,1
21388,2.4843e+07,-0.085901,-0.0004237,-0.085478,-0.011539,0,0.00071324,0,1,0,1
21429,2.4853e+07,-0.085913,-0.00071594,-0.085197,-0.011502,0,0.00037845,0,1,0,1
21471,2.4864e+07,-0.085871,-0.0009031,-0.084968,-0.011471,0,-2.2501e-05,0,1,0,1
21511,2.4874e+07,-0.085817,-0.0029561,-0.082861,-0.011186,0,0.00071579,0,1,0,1
21552,2.4885e+07,-0.085727,-0.0010106,-0.084716,-0.011437,0,-0.00038978,0,1,0,1
21592,2.4895e+07,-0.085702,-0.00098,-0.084722,-0.011438,0,0.00020192,0,1,0,1
21633,2.4906e+07,-0.085681,-0.0016451,-0.084036,-0.011345,0,0.00052618,0,1,0,1
21673,2.4915e+07,-0.08556,-0.0027449,-0.082815,-0.01118,0,4.9924e-05,0,1,0,1
21715,2.4925e+07,-0.085494,-0.0013251,-0.084169,-0.011363,0,-7.9826e-05,0,1,0,1
21762,2.4936e+07,-0.085416,-0.0020028,-0.083413,-0.011261,0,0.00015264,0,1,0,1
21802,2.4946e+07,-0.085405,-0.00062362,-0.084781,-0.011445,0,0.00020639,0,1,0,1
21843,2.4956e+07,-0.085394,0.0014929,-0.086887,-0.01173,0,-0.00058755,0,1,0,1
21884,2.4966e+07,-0.085452,0.0008103,-0.086262,-0.011645,0,0.00022453,0,1,0,1
21928,2.4979e+07,-0.085489,-0.00015025,-0.085338,-0.011521,0,0.00029029,0,1,0,1
21968,2.4989e+07,-0.08544,-0.0027731,-0.082666,-0.01116,0,0.00060807,0,1,0,1
22009,2.4999e+07,-0.0854,-0.00093042,-0.084469,-0.011403,0,-3.3943e-06,0,1,0,1
22049,2.5009e+07,-0.085347,-0.0017068,-0.08364,-0.011291,0,0.00021506,0,1,0,1
22091,2.502e+07,-0.085329,0.00033737,-0.085666,-0.011565,0,-0.00030214,0,1,0,1
22132,2.5029e+07,-0.08528,-0.0018754,-0.083404,-0.01126,0,0.00031056,0,1,0,1
22177,2.504e+07,-0.085295,0.00062798,-0.085923,-0.0116,0,-0.00013677,0,1,0,1
22220,2.505e+07,-0.085325,0.0016936,-0.087018,-0.011747,0,-0.00041916,0,1,0,1
22260,2.506e+07,-0.08538,-0.00051855,-0.084861,-0.011456,0,0.00065209,0,1,0,1
22301,2.5071e+07,-0.085435,0.0034346,-0.088869,-0.011997,0,-0.00092447,0,1,0,1
22342,2.5082e+07,-0.085557,0.0024584,-0.088015,-0.011882,0,-5.7248e-05,0,1,0,1
22383,2.5093e+07,-0.08567,0.0016072,-0.087277,-0.011782,0,0.00018396,0,1,0,1
22424,2.5103e+07,-0.085733,3.5768e-05,-0.085769,-0.011579,0,0.00046992,0,1,0,1
22464,2.5113e+07,-0.085743,-0.0014197,-0.084323,-0.011384,0,0.00062343,0,1,0,1
22506,2.5124e+07,-0.08572,-0.0016662,-0.084054,-0.011347,0,0.00047287,0,1,0,1
22546,2.5134e+07,-0.085648,-0.00092261,-0.084725,-0.011438,0,-0.00014149,0,1,0,1
22592,2.5144e+07,-0.085588,-0.0004569,-0.085131,-0.011493,0,-0.00032617,0,1,0,1
22632,2.5154e+07,-0.085607,5.5446e-05,-0.085663,-0.011564,0,0.00018163,0,1,0,1
22674,2.5165e+07,-0.085631,0.00017112,-0.085802,-0.011583,0,0.00016705,0,1,0,1
22715,2.5175e+07,-0.085638,-0.00025145,-0.085387,-0.011527,0,0.00017235,0,1,0,1
22752,2.5185e+07,-0.085646,0.0019165,-0.087562,-0.011821,0,-0.00069675,0,1,0,1
22792,2.5195e+07,-0.085693,0.00085819,-0.086552,-0.011684,0,5.8853e-05,0,1,0,1
22832,2.5205e+07,-0.085754,0.0020162,-0.08777,-0.011849,0,-0.00032877,0,1,0,1
22874,2.5215e+07,-0.085802,-0.00030546,-0.085497,-0.011542,0,0.00053482,0,1,0,1
22914,2.5226e+07,-0.085807,-9.0311e-05,-0.085716,-0.011572,0,3.9684e-06,0,1,0,1
22955,2.5236e+07,-0.085783,-0.0019809,-0.083802,-0.011313,0,0.00054122,0,1,0,1
23000,2.5246e+07,-0.085724,-0.0013112,-0.084413,-0.011396,0,2.3589e-05,0,1,0,1
23043,2.5256e+07,-0.085661,-0.0012806,-0.084381,-0.011391,0,2.7415e-05,0,1,0,1
23086,2.5266e+07,-0.085635,0.0010474,-0.086682,-0.011702,0,-0.00054701,0,1,0,1
23127,2.5278e+07,-0.085611,-0.00091284,-0.084698,-0.011434,0,0.00018791,0,1,0,1
23168,2.5288e+07,-0.08563,0.0007059,-0.086336,-0.011655,0,-0.00012313,0,1,0,1
23208,2.5299e+07,-0.085609,0.00030941,-0.085919,-0.011599,0,-0.00033826,0,1,0,1
23249,2.5309e+07,-0.085644,0.0010709,-0.086715,-0.011706,0,-0.00022022,0,1,0,1
23292,2.5319e+07,-0.085665,0.00031852,-0.085984,-0.011608,0,2.183e-05,0,1,0,1
23333,2.5329e+07,-0.085664,-0.0013231,-0.08434,-0.011386,0,0.00047597,0,1,0,1
23374,2.5339e+07,-0.085628,-0.00064013,-0.084988,-0.011473,0,-6.6175e-05,0,1,0,1
23418,2.5349e+07,-0.085589,-0.0015537,-0.084035,-0.011345,0,0.00025096,0,1,0,1
23460,2.5359e+07,-0.085548,-0.0012929,-0.084255,-0.011374,0,0.00014328,0,1,0,1
23500,2.5369e+07,-0.085556,0.0017946,-0.087351,-0.011792,0,-0.00061152,0,1,0,1
23542,2.5379e+07,-0.085579,-0.00083473,-0.084744,-0.01144,0,0.00053932,0,1,0,1
23583,2.5389e+07,-0.085612,0.0010889,-0.086701,-0.011705,0,-0.00015172,0,1,0,1
23626,2.54e+07,-0.085667,0.0021657,-0.087832,-0.011857,0,-0.0004199,0,1,0,1
23667,2.541e+07,-0.085821,0.0037078,-0.089529,-0.012086,0,-0.00010773,0,1,0,1
23708,2.5421e+07,-0.085887,0.0022392,-0.088126,-0.011897,0,-0.00036844,0,1,0,1
23750,2.5431e+07,-0.085967,0.00043262,-0.086399,-0.011664,0,0.0005048,0,1,0,1
23792,2.544e+07,-0.085965,0.00098429,-0.08695,-0.011738,0,-0.00041997,0,1,0,1
23837,2.5451e+07,-0.086,0.00074665,-0.086746,-0.011711,0,-3.6382e-05,0,1,0,1
23879,2.5461e+07,-0.086018,0.00061174,-0.08663,-0.011695,0,-8.475e-05,0,1,0,1
23919,2.5471e+07,-0.086001,-0.0018029,-0.084198,-0.011367,0,0.00052956,0,1,0,1
23961,2.5481e+07,-0.085953,-0.0015985,-0.084354,-0.011388,0,0.00014642,0,1,0,1
24001,2.5491e+07,-0.085847,-0.0055975,-0.08025,-0.010834,0,0.0012405,0,1,0,1
24042,2.5501e+07,-0.085718,-0.0018982,-0.08382,-0.011316,0,-0.00041672,0,1,0,1
24082,2.5511e+07,-0.085615,-0.0012552,-0.08436,-0.011389,0,-0.00039561,0,1,0,1
24123,2.5521e+07,-0.085611,0.00052656,-0.086137,-0.011629,0,-0.0002282,0,1,0,1
24164,2.5531e+07,-0.085637,0.00069995,-0.086337,-0.011656,0,-4.0917e-06,0,1,0,1
24205,2.5541e+07,-0.085697,0.0025471,-0.088245,-0.011913,0,-0.00047467,0,1,0,1
24250,2.5551e+07,-0.085744,0.001294,-0.087038,-0.01175,0,-0.00011112,0,1,0,1
24290,2.5561e+07,-0.085806,0.001337,-0.087142,-0.011764,0,-9.3468e-06,0,1,0,1
24332,2.5571e+07,-0.08587,0.001276,-0.087146,-0.011765,0,-1.1594e-05,0,1,0,1
24373,2.5581e+07,-0.085896,0.00034597,-0.086242,-0.011643,0,-6.133e-06,0,1,0,1
24414,2.5591e+07,-0.085886,-0.00049784,-0.085388,-0.011527,0,6.8773e-05,0,1,0,1
24451,2.5602e+07,-0.085835,-0.0014575,-0.084378,-0.011391,0,0.00012172,0,1,0,1
24492,2.5612e+07,-0.085788,-0.0035314,-0.082256,-0.011105,0,0.00098502,0,1,0,1
24534,2.5622e+07,-0.085688,-0.00051147,-0.085177,-0.011499,0,-0.00066959,0,1,0,1
24574,2.5632e+07,-0.08565,0.0031288,-0.088779,-0.011985,0,-0.0015219,0,1,0,1
24617,2.5643e+07,-0.085722,0.0012912,-0.087013,-0.011747,0,4.3832e-05,0,1,0,1
24668,2.5654e+07,-0.085734,-0.00030987,-0.085424,-0.011532,0,0.00020874,0,1,0,1
24709,2.5665e+07,-0.085779,0.0021709,-0.08795,-0.011873,0,-0.000504,0,1,0,1
24750,2.5674e+07,-0.085857,0.0017975,-0.087654,-0.011833,0,-5.6255e-05,0,1,0,1
24791,2.5684e+07,-0.085874,-0.00094043,-0.084934,-0.011466,0,0.00045709,0,1,0,1
24832,2.5697e+07,-0.085872,0.00030836,-0.08618,-0.011634,0,-0.00020151,0,1,0,1
24873,2.5707e+07,-0.085866,8.049e-06,-0.085874,-0.011593,0,-9.8393e-05,0,1,0,1
24914,2.5718e+07,-0.08584,-0.0026998,-0.08314,-0.011224,0,0.00081098,0,1,0,1
24954,2.5728e+07,-0.085704,-0.0044366,-0.081267,-0.010971,0,0.00060273,0,1,0,1
24995,2.5738e+07,-0.085522,-0.0022943,-0.083228,-0.011236,0,-0.00054213,0,1,0,1
25035,2.5749e+07,-0.085445,0.00017074,-0.085616,-0.011558,0,-0.00067588,0,1,0,1
25082,2.5759e+07,-0.085409,0.0004997,-0.085909,-0.011598,0,-0.00048736,0,1,0,1
25123,2.5769e+07,-0.085503,0.0041376,-0.089641,-0.012102,0,-0.00077551,0,1,0,1
25164,2.578e+07,-0.085624,0.0025737,-0.088198,-0.011907,0,1.3525e-05,0,1,0,1
25206,2.579e+07,-0.085761,0.0021879,-0.087948,-0.011873,0,0.00023075,0,1,0,1
25246,2.58e+07,-0.085854,0.0015336,-0.087388,-0.011797,0,0.00017515,0,1,0,1
25287,2.581e+07,-0.085974,0.00027931,-0.086253,-0.011644,0,0.00093932,0,1,0,1
25327,2.5821e+07,-0.085988,0.00022776,-0.086216,-0.011639,0,3.0616e-05,0,1,0,1
25367,2.5831e+07,-0.085996,-0.00099338,-0.085002,-0.011475,0,0.00041361,0,1,0,1
25407,2.5841e+07,-0.085944,-0.0014863,-0.084457,-0.011402,0,5.5985e-05,0,1,0,1
25450,2.5851e+07,-0.085912,0.00056183,-0.086474,-0.011674,0,-0.0005394,0,1,0,1
25495,2.5861e+07,-0.085917,-0.00041863,-0.085499,-0.011542,0,0.00020302,0,1,0,1
25535,2.5871e+07,-0.08595,0.001065,-0.087015,-0.011747,0,-0.00015686,0,1,0,1
25577,2.5881e+07,-0.085995,0.001884,-0.087879,-0.011864,0,-0.00033868,0,1,0,1
25618,2.5891e+07,-0.086037,0.001714,-0.087751,-0.011846,0,-0.00039101,0,1,0,1
25659,2.5901e+07,-0.08614,0.0016678,-0.087807,-0.011854,0,0.00015694,0,1,0,1
25697,2.5911e+07,-0.086197,0.00015598,-0.086353,-0.011658,0,0.00038107,0,1,0,1
25737,2.5922e+07,-0.086213,-0.0014503,-0.084762,-0.011443,0,0.00067107,0,1,0,1
25778,2.5932e+07,-0.086169,-0.0032368,-0.082932,-0.011196,0,0.00088723,0,1,0,1
25818,2.5942e+07,-0.086008,-0.0048943,-0.081114,-0.01095,0,0.00054961,0,1,0,1
25860,2.5953e+07,-0.085865,-0.003642,-0.082223,-0.0111,0,0.00028639,0,1,0,1
25905,2.5963e+07,-0.085661,-0.0037993,-0.081862,-0.011051,0,-0.0001606,0,1,0,1
25945,2.5973e+07,-0.085572,-0.00058173,-0.08499,-0.011474,0,-0.00037945,0,1,0,1
25988,2.5983e+07,-0.085536,-0.00067904,-0.084857,-0.011456,0,1.7343e-05,0,1,0,1
26026,2.5993e+07,-0.085525,0.001378,-0.086903,-0.011732,0,-0.00056829,0,1,0,1
26068,2.6003e+07,-0.085554,0.0019794,-0.087534,-0.011817,0,-0.00054486,0,1,0,1
26109,2.6013e+07,-0.085644,0.0040412,-0.089686,-0.012108,0,-0.00089022,0,1,0,1
26149,2.6026e+07,-0.085841,0.0020849,-0.087926,-0.01187,0,0.000503,0,1,0,1
26192,2.6036e+07,-0.085988,0.0044375,-0.090426,-0.012207,0,-0.00046993,0,1,0,1
26232,2.6046e+07,-0.086092,0.00041511,-0.086507,-0.011678,0,0.00065454,0,1,0,1
26274,2.6056e+07,-0.086091,-0.0019284,-0.084163,-0.011362,0,0.00068597,0,1,0,1
26319,2.6067e+07,-0.086056,-0.0023707,-0.083685,-0.011298,0,0.00061615,0,1,0,1
26359,2.6078e+07,-0.085982,-0.0025873,-0.083395,-0.011258,0,0.00042677,0,1,0,1
26400,2.6088e+07,-0.085896,-0.0014296,-0.084466,-0.011403,0,-0.00014455,0,1,0,1
26442,2.6098e+07,-0.085854,-0.00068941,-0.085165,-0.011497,0,-5.4262e-05,0,1,0,1
26480,2.6111e+07,-0.085866,0.0018547,-0.08772,-0.011842,0,-0.00049368,0,1,0,1
26521,2.6121e+07,-0.085988,0.0044582,-0.090446,-0.01221,0,-0.00083586,0,1,0,1
26561,2.6131e+07,-0.086172,0.0052841,-0.091456,-0.012347,0,-0.00056039,0,1,0,1
26603,2.6141e+07,-0.086339,0.0033308,-0.08967,-0.012105,0,3.7097e-05,0,1,0,1
26643,2.6151e+07,-0.086481,0.0027992,-0.08928,-0.012053,0,-2.4615e-05,0,1,0,1
26688,2.6161e+07,-0.086556,-0.00054776,-0.086008,-0.011611,0,0.00076557,0,1,0,1
26728,2.6171e+07,-0.086529,-0.0028521,-0.083677,-0.011296,0,0.00080251,0,1,0,1
26770,2.6181e+07,-0.086398,-0.0036548,-0.082743,-0.01117,0,0.00024393,0,1,0,1
26811,2.6191e+07,-0.086206,-0.0050262,-0.08118,-0.010959,0,0.00027753,0,1,0,1
26851,2.6204e+07,-0.086,-0.0037503,-0.08225,-0.011104,0,8.6139e-05,0,1,0,1
26892,2.6214e+07,-0.085858,-0.00056127,-0.085297,-0.011515,0,-0.0009779,0,1,0,1
26932,2.6224e+07,-0.085824,0.0015043,-0.087328,-0.011789,0,-0.00090415,0,1,0,1
26974,2.6234e+07,-0.085912,0.0053844,-0.091297,-0.012325,0,-0.0013598,0,1,0,1
27017,2.6244e+07,-0.086051,0.0019533,-0.088004,-0.011881,0,0.00039365,0,1,0,1
27060,2.6254e+07,-0.086233,0.005268,-0.091501,-0.012353,0,-0.0005582,0,1,0,1
27105,2.6264e+07,-0.086391,0.00090873,-0.087299,-0.011785,0,0.0010129,0,1,0,1
27145,2.6274e+07,-0.086491,0.0011292,-0.08762,-0.011829,0,0.00036878,0,1,0,1
27186,2.6284e+07,-0.086481,-0.0031753,-0.083306,-0.011246,0,0.0010674,0,1,0,1
27226,2.6294e+07,-0.086339,-0.0057826,-0.080556,-0.010875,0,0.00097475,0,1,0,1
27268,2.6304e+07,-0.086074,-0.007812,-0.078262,-0.010565,0,0.00080595,0,1,0,1
27302,2.6315e+07,-0.085835,-0.0055617,-0.080273,-0.010837,0,-4.7574e-05,0,1,0,1
27343,2.6324e+07,-0.08562,-0.0003243,-0.085295,-0.011515,0,-0.0014399,0,1,0,1
27385,2.6335e+07,-0.085538,0.00090316,-0.086441,-0.011669,0,-0.00099622,0,1,0,1
27426,2.6345e+07,-0.085568,0.0036398,-0.089208,-0.012043,0,-0.001215,0,1,0,1
27467,2.6355e+07,-0.085704,0.0035076,-0.089211,-0.012044,0,-0.00027387,0,1,0,1
27512,2.6365e+07,-0.085928,0.0038536,-0.089782,-0.012121,0,0.00038132,0,1,0,1
27552,2.6375e+07,-0.086075,0.003338,-0.089413,-0.012071,0,-9.2353e-05,0,1,0,1
27593,2.6385e+07,-0.086223,0.0013163,-0.087539,-0.011818,0,0.00063202,0,1,0,1
27633,2.6395e+07,-0.086261,-0.00010537,-0.086156,-0.011631,0,0.00033975,0,1,0,1
27671,2.6406e+07,-0.086324,-0.0015488,-0.084775,-0.011445,0,0.00098631,0,1,0,1
27716,2.6418e+07,-0.086151,-0.0037492,-0.082402,-0.011124,0,0.0001642,0,1,0,1
27760,2.643e+07,-0.085911,-0.0059439,-0.079967,-0.010796,0,0.00053764,0,1,0,1
27804,2.6441e+07,-0.085711,-0.0043826,-0.081328,-0.010979,0,3.8073e-05,0,1,0,1
27845,2.6451e+07,-0.085568,-0.00092967,-0.084639,-0.011426,0,-0.00076233,0,1,0,1
27886,2.6461e+07,-0.085541,0.0025514,-0.088093,-0.011893,0,-0.0011486,0,1,0,1
27931,2.6471e+07,-0.085638,0.0053942,-0.091032,-0.012289,0,-0.0012742,0,1,0,1
27972,2.6481e+07,-0.085882,0.0077976,-0.09368,-0.012647,0,-0.00095963,0,1,0,1
28013,2.6491e+07,-0.086154,0.0061006,-0.092254,-0.012454,0,-5.5128e-06,0,1,0,1
28053,2.6501e+07,-0.086418,0.0031327,-0.08955,-0.012089,0,0.00094144,0,1,0,1
28088,2.6512e+07,-0.086574,0.0031809,-0.089755,-0.012117,0,0.00013688,0,1,0,1
28129,2.6522e+07,-0.086641,-0.00068143,-0.085959,-0.011605,0,0.00072748,0,1,0,1
28170,2.6532e+07,-0.086621,-0.00055072,-0.086071,-0.01162,0,-2.1853e-05,0,1,0,1
28211,2.6542e+07,-0.086488,-0.0061014,-0.080387,-0.010852,0,0.0012076,0,1,0,1
28252,2.6552e+07,-0.086281,-0.0054777,-0.080803,-0.010908,0,0.00033237,0,1,0,1
28293,2.6562e+07,-0.08603,-0.0053446,-0.080686,-0.010893,0,2.4474e-05,0,1,0,1
28338,2.6572e+07,-0.085826,-0.0023226,-0.083504,-0.011273,0,-0.00080729,0,1,0,1
28379,2.6582e+07,-0.085751,0.0014102,-0.087162,-0.011767,0,-0.0011459,0,1,0,1
28420,2.6593e+07,-0.085812,0.0034456,-0.089257,-0.01205,0,-0.00078806,0,1,0,1
28460,2.6605e+07,-0.086042,0.0059171,-0.091959,-0.012415,0,-0.00056454,0,1,0,1
28501,2.6616e+07,-0.086276,0.0067703,-0.093046,-0.012561,0,-0.00074195,0,1,0,1
28542,2.6626e+07,-0.086491,0.0011034,-0.087595,-0.011825,0,0.001283,0,1,0,1
28583,2.6637e+07,-0.086594,0.00076624,-0.08736,-0.011794,0,0.0004304,0,1,0,1
28626,2.6647e+07,-0.08667,-0.0015988,-0.085071,-0.011485,0,0.0012092,0,1,0,1
28667,2.6657e+07,-0.08657,-0.0037622,-0.082808,-0.011179,0,0.00057686,0,1,0,1
28717,2.6669e+07,-0.086271,-0.0036519,-0.082619,-0.011154,0,-0.00097843,0,1,0,1
28758,2.668e+07,-0.086018,-0.0094391,-0.076579,-0.010338,0,0.0014253,0,1,0,1
28799,2.669e+07,-0.085788,-0.001988,-0.0838,-0.011313,0,-0.0010981,0,1,0,1
28839,2.67e+07,-0.085615,-0.00023289,-0.085382,-0.011527,0,-0.0013501,0,1,0,1
28880,2.671e+07,-0.085647,0.0037997,-0.089447,-0.012075,0,-0.0012178,0,1,0,1
28917,2.672e+07,-0.085807,0.0040879,-0.089895,-0.012136,0,-0.00023351,0,1,0,1
28958,2.6731e+07,-0.08603,0.0047386,-0.090768,-0.012254,0,-9.4904e-05,0,1,0,1
28999,2.6741e+07,-0.08621,0.0027441,-0.088954,-0.012009,0,0.00040454,0,1,0,1
29042,2.6751e+07,-0.08638,0.0028233,-0.089204,-0.012042,0,0.00025044,0,1,0,1
29084,2.6761e+07,-0.086497,0.0013848,-0.087881,-0.011864,0,0.00035792,0,1,0,1
29128,2.6771e+07,-0.086593,-0.0016942,-0.084899,-0.011461,0,0.001504,0,1,0,1
29169,2.6781e+07,-0.086513,-0.0033422,-0.08317,-0.011228,0,0.00059089,0,1,0,1
29210,2.6791e+07,-0.086353,-0.0033583,-0.082995,-0.011204,0,-0.0001128,0,1,0,1
29251,2.6801e+07,-0.086145,-0.0066935,-0.079451,-0.010726,0,0.00081053,0,1,0,1
29291,2.6811e+07,-0.085959,-0.0026697,-0.08329,-0.011244,0,-0.00053713,0,1,0,1
29332,2.6821e+07,-0.085815,-0.0011038,-0.084711,-0.011436,0,-0.00078702,0,1,0,1
29373,2.6831e+07,-0.085801,0.0016814,-0.087482,-0.01181,0,-0.00080216,0,1,0,1
29414,2.6841e+07,-0.08586,0.0048679,-0.090728,-0.012248,0,-0.001381,0,1,0,1
29457,2.6851e+07,-0.086053,0.0039943,-0.090047,-0.012156,0,4.1215e-05,0,1,0,1
29499,2.6862e+07,-0.086295,0.0056543,-0.091949,-0.012413,0,-0.00024582,0,1,0,1
29543,2.6872e+07,-0.086474,0.0021865,-0.088661,-0.011969,0,0.00039384,0,1,0,1
29585,2.6882e+07,-0.08655,-0.00015337,-0.086397,-0.011664,0,0.00053474,0,1,0,1
29625,2.6893e+07,-0.086541,-0.002368,-0.084173,-0.011363,0,0.00076974,0,1,0,1
29667,2.6903e+07,-0.086497,-0.002702,-0.083795,-0.011312,0,0.00071888,0,1,0,1
29707,2.6913e+07,-0.086364,-0.0051962,-0.081168,-0.010958,0,0.0010141,0,1,0,1
29748,2.6923e+07,-0.086107,-0.0067286,-0.079378,-0.010716,0,0.0004286,0,1,0,1
29785,2.6933e+07,-0.085884,-0.0032552,-0.082629,-0.011155,0,-0.00054813,0,1,0,1
29827,2.6943e+07,-0.085732,-0.0025832,-0.083148,-0.011225,0,-0.00017212,0,1,0,1
29868,2.6954e+07,-0.085703,0.0019779,-0.087681,-0.011837,0,-0.00091896,0,1,0,1
29908,2.6964e+07,-0.085805,0.0052007,-0.091006,-0.012286,0,-0.0011662,0,1,0,1
29953,2.6974e+07,-0.086059,0.0084985,-0.094557,-0.012765,0,-0.0012041,0,1,0,1
29994,2.6984e+07,-0.086332,0.0040693,-0.090401,-0.012204,0,0.00069311,0,1,0,1
30035,2.6994e+07,-0.086564,0.0042641,-0.090828,-0.012262,0,0.00018777,0,1,0,1
30076,2.7004e+07,-0.086704,0.000126,-0.08683,-0.011722,0,0.001079,0,1,0,1
30114,2.7014e+07,-0.086728,-0.00070693,-0.086021,-0.011613,0,0.00040254,0,1,0,1
30153,2.7025e+07,-0.086672,-0.0027859,-0.083887,-0.011325,0,0.00047873,0,1,0,1
30193,2.7035e+07,-0.086518,-0.0042106,-0.082308,-0.011112,0,0.00032466,0,1,0,1
30235,2.7045e+07,-0.086333,-0.0034922,-0.082841,-0.011184,0,-0.00023403,0,1,0,1
30277,2.7055e+07,-0.086173,-0.0039693,-0.082204,-0.011098,0,0.00015372,0,1,0,1
30318,2.7065e+07,-0.086039,-0.0010195,-0.08502,-0.011478,0,-0.0007546,0,1,0,1
30363,2.7075e+07,-0.086016,0.00030544,-0.086322,-0.011653,0,-0.00030478,0,1,0,1
30403,2.7086e+07,-0.086095,0.003867,-0.089962,-0.012145,0,-0.00082831,0,1,0,1
30446,2.7096e+07,-0.086262,0.0057807,-0.092043,-0.012426,0,-0.00091277,0,1,0,1
30486,2.7106e+07,-0.086416,0.0017101,-0.088126,-0.011897,0,0.00059,0,1,0,1
30521,2.7116e+07,-0.086583,0.0030581,-0.089641,-0.012102,0,0.00029518,0,1,0,1
30562,2.7126e+07,-0.086703,0.00038284,-0.087086,-0.011757,0,0.00079466,0,1,0,1
30603,2.7136e+07,-0.086727,-0.0014055,-0.085321,-0.011518,0,0.00067746,0,1,0,1
30644,2.7146e+07,-0.08666,-0.0036586,-0.083001,-0.011205,0,0.0008251,0,1,0,1
30684,2.7157e+07,-0.086513,-0.0060716,-0.080441,-0.01086,0,0.0011718,0,1,0,1
30725,2.7167e+07,-0.08628,-0.0050516,-0.081228,-0.010966,0,0.00011551,0,1,0,1
30769,2.7177e+07,-0.086047,-0.004067,-0.08198,-0.011067,0,-0.00042892,0,1,0,1
30810,2.7187e+07,-0.085851,-0.0031405,-0.082711,-0.011166,0,-0.00044033,0,1,0,1
30853,2.7197e+07,-0.085769,0.00030651,-0.086075,-0.01162,0,-0.00080454,0,1,0,1
30896,2.721e+07,-0.08584,0.005704,-0.091544,-0.012358,0,-0.0015955,0,1,0,1
30937,2.7221e+07,-0.086039,0.0060075,-0.092046,-0.012426,0,-0.00073011,0,1,0,1
30974,2.7231e+07,-0.086283,0.0045267,-0.090809,-0.012259,0,3.3604e-05,0,1,0,1
31017,2.7241e+07,-0.086474,0.0013492,-0.087824,-0.011856,0,0.0010205,0,1,0,1
31060,2.7251e+07,-0.086575,0.00098388,-0.087559,-0.01182,0,0.00040804,0,1,0,1
31101,2.7261e+07,-0.086615,-0.00026877,-0.086346,-0.011657,0,0.00037827,0,1,0,1
31141,2.7271e+07,-0.086568,-0.0029466,-0.083622,-0.011289,0,0.00071177,0,1,0,1
31186,2.7281e+07,-0.086445,-0.0035403,-0.082905,-0.011192,0,0.00034271,0,1,0,1
31227,2.7291e+07,-0.086271,-0.0038662,-0.082404,-0.011125,0,3.0382e-05,0,1,0,1
31267,2.7301e+07,-0.086091,-0.0032068,-0.082884,-0.011189,0,-0.00025389,0,1,0,1
31309,2.7311e+07,-0.085987,0.0010856,-0.087072,-0.011755,0,-0.001236,0,1,0,1
31349,2.7321e+07,-0.085996,0.0031921,-0.089188,-0.01204,0,-0.0011315,0,1,0,1
31384,2.7331e+07,-0.08612,0.0039541,-0.090074,-0.01216,0,-0.00053198,0,1,0,1
31426,2.7341e+07,-0.086265,0.0032744,-0.08954,-0.012088,0,-9.3725e-05,0,1,0,1
31466,2.7352e+07,-0.086427,0.0027885,-0.089215,-0.012044,0,0.00020885,0,1,0,1
31507,2.7362e+07,-0.086543,0.0016281,-0.088171,-0.011903,0,0.00028558,0,1,0,1
31547,2.7372e+07,-0.086608,-0.00035326,-0.086255,-0.011644,0,0.00064434,0,1,0,1
31592,2.7382e+07,-0.08659,-0.0021778,-0.084412,-0.011396,0,0.00064423,0,1,0,1
31633,2.7392e+07,-0.08651,-0.0021721,-0.084338,-0.011386,0,0.00019214,0,1,0,1
31674,2.7403e+07,-0.086431,-0.00085303,-0.085578,-0.011553,0,-0.00034412,0,1,0,1
31716,2.7413e+07,-0.086313,-0.0025304,-0.083782,-0.011311,0,5.6575e-06,0,1,0,1
31758,2.7426e+07,-0.086191,-0.0029656,-0.083225,-0.011235,0,0.0002985,0,1,0,1
31804,2.744e+07,-0.086078,-0.0010539,-0.085024,-0.011478,0,-0.00012619,0,1,0,1
31845,2.745e+07,-0.086082,0.001716,-0.087798,-0.011853,0,-0.00061139,0,1,0,1
31886,2.746e+07,-0.086171,0.0026463,-0.088817,-0.01199,0,-0.00032344,0,1,0,1
31926,2.747e+07,-0.086294,0.0023738,-0.088668,-0.01197,0,6.8135e-05,0,1,0,1
31971,2.748e+07,-0.086375,0.0009185,-0.087293,-0.011785,0,0.00026473,0,1,0,1
32012,2.749e+07,-0.086461,0.0030902,-0.089551,-0.012089,0,-0.00052765,0,1,0,1
32052,2.75e+07,-0.086547,0.00084242,-0.087389,-0.011798,0,0.00040147,0,1,0,1
32093,2.751e+07,-0.086571,-0.00032609,-0.086245,-0.011643,0,0.0002774,0,1,0,1
32134,2.752e+07,-0.086524,-0.0021696,-0.084354,-0.011388,0,0.0003848,0,1,0,1
32169,2.753e+07,-0.086488,-6.8124e-05,-0.086419,-0.011667,0,-0.0003739,0,1,0,1
32209,2.7541e+07,-0.086406,-0.0023582,-0.084048,-0.011346,0,0.0001945,0,1,0,1
32250,2.7551e+07,-0.086371,0.00024217,-0.086613,-0.011693,0,-0.00044644,0,1,0,1
32292,2.7561e+07,-0.086338,-0.00046231,-0.085875,-0.011593,0,-8.9409e-05,0,1,0,1
32332,2.7571e+07,-0.086343,0.00098238,-0.087326,-0.011789,0,-0.00032295,0,1,0,1
32377,2.7581e+07,-0.086384,0.0012043,-0.087588,-0.011824,0,-0.0001485,0,1,0,1
32417,2.7591e+07,-0.086478,0.0028322,-0.089311,-0.012057,0,-0.00029794,0,1,0,1
32459,2.7601e+07,-0.086566,0.0033984,-0.089964,-0.012145,0,-0.00068265,0,1,0,1
32499,2.7611e+07,-0.086643,-0.0011144,-0.085528,-0.011546,0,0.0010214,0,1,0,1
32541,2.7621e+07,-0.086668,-0.00016313,-0.086505,-0.011678,0,0.00022432,0,1,0,1
32576,2.7631e+07,-0.086634,-0.00061673,-0.086017,-0.011612,0,-5.1668e-05,0,1,0,1
32618,2.7642e+07,-0.086565,-0.0022443,-0.084321,-0.011383,0,0.0002727,0,1,0,1
32660,2.7652e+07,-0.086485,-0.0019714,-0.084513,-0.011409,0,5.5305e-05,0,1,0,1
32701,2.7662e+07,-0.086436,-0.00053613,-0.0859,-0.011597,0,-0.00023353,0,1,0,1
32741,2.7672e+07,-0.086359,-0.0026391,-0.08372,-0.011302,0,0.00032563,0,1,0,1
32791,2.7685e+07,-0.086305,-0.0014851,-0.08482,-0.011451,0,0.00019044,0,1,0,1
32832,2.7695e+07,-0.086272,0.00062187,-0.086893,-0.011731,0,-0.00051665,0,1,0,1
32873,2.7705e+07,-0.086287,0.0010611,-0.087348,-0.011792,0,-0.00030605,0,1,0,1
32913,2.7715e+07,-0.086342,0.0023759,-0.088718,-0.011977,0,-0.00048755,0,1,0,1
32954,2.7728e+07,-0.086454,0.0010098,-0.087464,-0.011808,0,0.00033942,0,1,0,1
