LineNo,TimeUS,Tar,Act,Err,P,I,D,FF,Dmod,SRate,Limit
298,1.9492e+07,-0.15717,0.0018771,-0.15904,-0.021471,0,-0.00061028,0,1,0,1
642,1.9558e+07,-0.15729,0.0018936,-0.15919,-0.02149,0,-0.00049414,0,1,0,1
869,1.9603e+07,-0.15732,-8.0004e-05,-0.15724,-0.021227,0,6.2058e-05,0,1,0,1
1211,1.9764e+07,-0.15723,-0.0028081,-0.15442,-0.020847,0,0.00019367,0,1,0,1
1487,1.9835e+07,-0.15703,0.0027833,-0.15981,-0.021575,0,-0.00079099,0,1,0,1
1582,1.9857e+07,-0.15723,0.0019504,-0.15918,-0.02149,0,5.3867e-05,0,1,0,1
1622,1.9868e+07,-0.15731,0.0018069,-0.15912,-0.021481,0,-0.00016011,0,1,0,1
1664,1.9877e+07,-0.15742,0.0029843,-0.1604,-0.021654,0,-0.00028104,0,1,0,1
1705,1.9887e+07,-0.15752,0.00097627,-0.15849,-0.021397,0,0.00042656,0,1,0,1
1745,1.99e+07,-0.1575,-0.0026596,-0.15484,-0.020904,0,0.00074113,0,1,0,1
1786,1.9911e+07,-0.15745,-0.00069975,-0.15675,-0.021161,0,-0.00022667,0,1,0,1
1826,1.9921e+07,-0.15745,-0.00045839,-0.15699,-0.021193,0,0.00016424,0,1,0,1
1868,1.9931e+07,-0.15741,-0.0013262,-0.15609,-0.021072,0,0.0002367,0,1,0,1
1908,1.9941e+07,-0.15734,-0.0034692,-0.15388,-0.020773,0,0.00073305,0,1,0,1
1949,1.9951e+07,-0.15727,-0.00070802,-0.15656,-0.021136,0,-0.0003931,0,1,0,1
1994,1.9961e+07,-0.15717,-0.00098375,-0.15618,-0.021085,0,8.8148e-05,0,1,0,1
2037,1.9972e+07,-0.157,-0.0012905,-0.15571,-0.02102,0,0.00020113,0,1,0,1
2078,1.9982e+07,-0.15688,-0.00031805,-0.15657,-0.021136,0,-0.0004895,0,1,0,1
2118,1.9992e+07,-0.1569,0.0024087,-0.15931,-0.021507,0,-0.00078603,0,1,0,1
2159,2.0003e+07,-0.157,0.0019771,-0.15898,-0.021462,0,7.0164e-05,0,1,0,1
2200,2.0013e+07,-0.15709,0.0013344,-0.15843,-0.021387,0,0.00016778,0,1,0,1
2241,2.0023e+07,-0.15719,0.0017299,-0.15892,-0.021454,0,0.00011176,0,1,0,1
2282,2.0033e+07,-0.15728,0.00174,-0.15902,-0.021467,0,4.4097e-05,0,1,0,1
2322,2.0044e+07,-0.15735,0.001728,-0.15908,-0.021476,0,-0.00012666,0,1,0,1
2365,2.0054e+07,-0.15741,0.00025282,-0.15766,-0.021284,0,0.00035767,0,1,0,1
2409,2.0064e+07,-0.15742,-0.0008852,-0.15653,-0.021132,0,0.00038008,0,1,0,1
2450,2.0074e+07,-0.15742,0.00070645,-0.15812,-0.021347,0,-0.00031448,0,1,0,1
2493,2.0084e+07,-0.1574,-0.0011687,-0.15623,-0.021092,0,0.00034636,0,1,0,1
2533,2.0094e+07,-0.15735,-0.0011223,-0.15623,-0.021091,0,-2.9809e-05,0,1,0,1
2573,2.0104e+07,-0.15732,-0.00036047,-0.15696,-0.02119,0,-0.00010881,0,1,0,1
2611,2.0115e+07,-0.15733,0.00099068,-0.15832,-0.021373,0,-0.00032465,0,1,0,1
2652,2.0125e+07,-0.15733,-0.0012518,-0.15607,-0.02107,0,0.00042529,0,1,0,1
2693,2.0135e+07,-0.15733,0.0018346,-0.15916,-0.021487,0,-0.00079068,0,1,0,1
2734,2.0145e+07,-0.15738,0.00048527,-0.15786,-0.021311,0,0.00022152,0,1,0,1
2775,2.0155e+07,-0.15743,0.0010419,-0.15847,-0.021393,0,-3.6759e-05,0,1,0,1
2819,2.0165e+07,-0.15749,0.00090762,-0.1584,-0.021384,0,0.00018198,0,1,0,1
2861,2.0175e+07,-0.15755,0.0017473,-0.1593,-0.021505,0,-0.00024734,0,1,0,1
2902,2.0185e+07,-0.15763,0.0021268,-0.15976,-0.021567,0,-0.00017825,0,1,0,1
2943,2.0195e+07,-0.15768,0.00099525,-0.15868,-0.021422,0,2.5533e-05,0,1,0,1
2984,2.0205e+07,-0.15774,0.0012992,-0.15904,-0.02147,0,-0.00012516,0,1,0,1
3022,2.0215e+07,-0.15776,0.00067056,-0.15843,-0.021389,0,-0.00011161,0,1,0,1
3063,2.0225e+07,-0.15782,0.00072998,-0.15855,-0.021405,0,0.0001637,0,1,0,1
3103,2.0235e+07,-0.15783,-0.001479,-0.15635,-0.021107,0,0.00054143,0,1,0,1
3144,2.0245e+07,-0.1578,-0.0015203,-0.15628,-0.021098,0,0.00028976,0,1,0,1
3187,2.0255e+07,-0.15775,0.00082553,-0.15858,-0.021408,0,-0.00072843,0,1,0,1
3232,2.0265e+07,-0.15772,-0.0018266,-0.15589,-0.021045,0,0.00037518,0,1,0,1
3273,2.0275e+07,-0.15769,0.00013129,-0.15782,-0.021306,0,-0.00035394,0,1,0,1
3314,2.0285e+07,-0.15764,-0.00067991,-0.15696,-0.02119,0,-0.00017813,0,1,0,1
3355,2.0295e+07,-0.15758,-0.0019357,-0.15564,-0.021012,0,0.00013701,0,1,0,1
3395,2.0305e+07,-0.15753,-0.00088355,-0.15664,-0.021147,0,-0.00014731,0,1,0,1
3437,2.0316e+07,-0.15748,-0.0014846,-0.15599,-0.021059,0,0.00012394,0,1,0,1
3477,2.0326e+07,-0.15737,-8.5234e-05,-0.15729,-0.021234,0,-0.00031101,0,1,0,1
3518,2.0336e+07,-0.15723,0.0010891,-0.15832,-0.021373,0,-0.00063721,0,1,0,1
3558,2.0346e+07,-0.15722,-0.00095697,-0.15626,-0.021095,0,0.00058599,0,1,0,1
3600,2.0356e+07,-0.15724,-0.00010928,-0.15713,-0.021212,0,0.00026929,0,1,0,1
3648,2.0367e+07,-0.15723,-0.00015184,-0.15708,-0.021205,0,-7.1574e-06,0,1,0,1
3688,2.0378e+07,-0.15722,0.0010925,-0.15831,-0.021372,0,-0.00054846,0,1,0,1
3729,2.0387e+07,-0.15729,0.0017111,-0.159,-0.021465,0,-0.00011901,0,1,0,1
3773,2.0398e+07,-0.15732,-0.0010899,-0.15623,-0.021091,0,0.00065292,0,1,0,1
3810,2.0408e+07,-0.15728,-0.0016672,-0.15561,-0.021007,0,0.00023869,0,1,0,1
3848,2.0418e+07,-0.15723,-0.0017771,-0.15546,-0.020987,0,0.00029962,0,1,0,1
3888,2.0428e+07,-0.15716,-0.0017361,-0.15543,-0.020983,0,0.00010058,0,1,0,1
3929,2.0438e+07,-0.1571,-0.0012262,-0.15588,-0.021043,0,-5.044e-05,0,1,0,1
3970,2.0448e+07,-0.15703,-0.0032806,-0.15375,-0.020756,0,0.00068404,0,1,0,1
4012,2.0459e+07,-0.15696,-0.0013943,-0.15557,-0.021002,0,4.5657e-05,0,1,0,1
4058,2.0469e+07,-0.15694,0.00057183,-0.15751,-0.021264,0,-0.00045068,0,1,0,1
4098,2.048e+07,-0.15691,0.00040114,-0.15731,-0.021237,0,-0.00041858,0,1,0,1
4140,2.049e+07,-0.15694,0.002154,-0.1591,-0.021478,0,-0.00057098,0,1,0,1
4181,2.05e+07,-0.15698,-0.00049399,-0.15648,-0.021125,0,0.00044659,0,1,0,1
4218,2.051e+07,-0.157,0.0016088,-0.15861,-0.021412,0,-0.00040729,0,1,0,1
4260,2.052e+07,-0.1571,0.001523,-0.15862,-0.021414,0,0.00017024,0,1,0,1
4300,2.053e+07,-0.15718,0.00034192,-0.15752,-0.021265,0,0.0005353,0,1,0,1
4341,2.054e+07,-0.15723,0.001141,-0.15837,-0.02138,0,-2.4428e-05,0,1,0,1
4381,2.055e+07,-0.15727,-0.00070381,-0.15656,-0.021136,0,0.00049312,0,1,0,1
4422,2.056e+07,-0.1573,0.0017255,-0.15903,-0.021469,0,-0.00040149,0,1,0,1
4469,2.0571e+07,-0.15735,-4.0602e-05,-0.15731,-0.021237,0,0.00039331,0,1,0,1
4509,2.0581e+07,-0.15735,-0.0018157,-0.15553,-0.020997,0,0.00065128,0,1,0,1
4551,2.0591e+07,-0.15732,-0.00076284,-0.15656,-0.021136,0,7.9168e-05,0,1,0,1
4594,2.0603e+07,-0.15728,-0.00083096,-0.15645,-0.021121,0,6.9527e-05,0,1,0,1
4638,2.0616e+07,-0.15724,-0.0010707,-0.15617,-0.021083,0,6.5293e-05,0,1,0,1
4679,2.0626e+07,-0.15722,1.3739e-05,-0.15724,-0.021227,0,-0.00014302,0,1,0,1
4719,2.0636e+07,-0.15723,2.0689e-06,-0.15723,-0.021226,0,1.4406e-05,0,1,0,1
4762,2.0646e+07,-0.15726,0.0015756,-0.15884,-0.021443,0,-0.00033916,0,1,0,1
4803,2.0656e+07,-0.15731,0.0018367,-0.15914,-0.021484,0,-0.00037255,0,1,0,1
4844,2.0667e+07,-0.1574,0.0026254,-0.16003,-0.021604,0,-0.00022517,0,1,0,1
4889,2.0677e+07,-0.15751,0.0018652,-0.15938,-0.021516,0,0.00018798,0,1,0,1
4930,2.0687e+07,-0.15762,0.0024574,-0.16008,-0.02161,0,-0.00013448,0,1,0,1
4971,2.0697e+07,-0.15775,0.0031194,-0.16087,-0.021717,0,-0.00015676,0,1,0,1
5012,2.0707e+07,-0.15786,0.0021272,-0.15999,-0.021598,0,7.3052e-05,0,1,0,1
5053,2.072e+07,-0.15797,0.0015347,-0.1595,-0.021533,0,8.0313e-05,0,1,0,1
5093,2.073e+07,-0.158,-0.0020051,-0.15599,-0.021059,0,0.00094958,0,1,0,1
5135,2.074e+07,-0.15794,-0.0026414,-0.1553,-0.020965,0,0.00051228,0,1,0,1
5176,2.075e+07,-0.15785,-0.001039,-0.15681,-0.021169,0,-0.00041395,0,1,0,1
5216,2.076e+07,-0.15778,-0.0021639,-0.15562,-0.021008,0,0.00023379,0,1,0,1
5261,2.0771e+07,-0.15767,-0.0021675,-0.1555,-0.020992,0,-0.00016337,0,1,0,1
5302,2.0781e+07,-0.15759,-0.0023791,-0.15521,-0.020953,0,0.00025568,0,1,0,1
5346,2.0791e+07,-0.15749,-0.0024236,-0.15507,-0.020934,0,0.00010233,0,1,0,1
5387,2.0801e+07,-0.15741,0.00043971,-0.15785,-0.02131,0,-0.00080534,0,1,0,1
5429,2.0811e+07,-0.15739,-0.00019978,-0.15719,-0.02122,0,-0.00013149,0,1,0,1
5467,2.0824e+07,-0.15743,0.00010396,-0.15753,-0.021267,0,0.00022889,0,1,0,1
5508,2.0833e+07,-0.15746,0.001821,-0.15928,-0.021503,0,-0.00043398,0,1,0,1
5552,2.0844e+07,-0.15755,0.0030385,-0.16059,-0.021679,0,-0.00046881,0,1,0,1
5593,2.0854e+07,-0.15768,0.0024257,-0.16011,-0.021615,0,9.7912e-05,0,1,0,1
5633,2.0864e+07,-0.15779,0.0026008,-0.16039,-0.021653,0,-0.00013254,0,1,0,1
5678,2.0874e+07,-0.15788,0.0011802,-0.15906,-0.021473,0,0.00026038,0,1,0,1
5718,2.0885e+07,-0.15794,0.00055197,-0.15849,-0.021396,0,0.00024552,0,1,0,1
5761,2.0895e+07,-0.15799,0.0016084,-0.15959,-0.021545,0,-0.00024828,0,1,0,1
5801,2.0905e+07,-0.158,-0.0019307,-0.15607,-0.021069,0,0.00084612,0,1,0,1
5839,2.0915e+07,-0.15795,-0.0011877,-0.15676,-0.021162,0,-0.00011507,0,1,0,1
5878,2.0925e+07,-0.15788,-0.0014704,-0.15641,-0.021116,0,-9.4685e-07,0,1,0,1
5918,2.0935e+07,-0.1578,-0.0038632,-0.15394,-0.020781,0,0.00088254,0,1,0,1
5960,2.0945e+07,-0.15768,-0.0018768,-0.1558,-0.021033,0,-0.00033003,0,1,0,1
6001,2.0955e+07,-0.15755,-0.0033983,-0.15415,-0.02081,0,0.00020893,0,1,0,1
6041,2.0965e+07,-0.15758,-0.00053023,-0.15705,-0.021202,0,-0.00072579,0,1,0,1
6086,2.0975e+07,-0.15761,9.9118e-05,-0.15771,-0.02129,0,-0.0003511,0,1,0,1
6126,2.0985e+07,-0.15772,0.0021631,-0.15988,-0.021584,0,-0.00098322,0,1,0,1
6168,2.0995e+07,-0.15791,0.0036402,-0.16155,-0.02181,0,-0.00062429,0,1,0,1
6209,2.1005e+07,-0.15805,0.0032617,-0.16132,-0.021778,0,-0.00036401,0,1,0,1
6249,2.1015e+07,-0.15826,0.0057073,-0.16396,-0.022135,0,-0.0006333,0,1,0,1
6287,2.1025e+07,-0.15842,0.0028693,-0.16129,-0.021775,0,0.00030982,0,1,0,1
6328,2.1035e+07,-0.15863,0.0047054,-0.16334,-0.022051,0,-0.00013849,0,1,0,1
6372,2.1046e+07,-0.15883,0.002016,-0.16085,-0.021715,0,0.00084628,0,1,0,1
6412,2.1056e+07,-0.15889,-0.0023954,-0.1565,-0.021127,0,0.0013767,0,1,0,1
6456,2.1068e+07,-0.15876,-0.0039036,-0.15486,-0.020906,0,0.00038066,0,1,0,1
6500,2.1078e+07,-0.15857,-0.0037971,-0.15477,-0.020894,0,-0.00020782,0,1,0,1
6541,2.1088e+07,-0.15837,-0.0043813,-0.15399,-0.020789,0,3.409e-06,0,1,0,1
6583,2.1098e+07,-0.15819,-0.0046624,-0.15353,-0.020727,0,0.00032282,0,1,0,1
6623,2.1111e+07,-0.158,-0.0032176,-0.15478,-0.020895,0,1.0555e-05,0,1,0,1
6661,2.1121e+07,-0.15779,-0.0025557,-0.15524,-0.020957,0,-0.00013745,0,1,0,1
6701,2.1131e+07,-0.15757,-0.00084875,-0.15672,-0.021157,0,-0.0004234,0,1,0,1
6744,2.1141e+07,-0.15752,0.0012411,-0.15876,-0.021433,0,-0.00050494,0,1,0,1
6784,2.1151e+07,-0.15753,-0.00042924,-0.1571,-0.021208,0,0.00037715,0,1,0,1
6825,2.1161e+07,-0.15761,0.0028849,-0.16049,-0.021666,0,-0.00038777,0,1,0,1
6866,2.1171e+07,-0.15777,0.0072123,-0.16498,-0.022272,0,-0.0014046,0,1,0,1
6911,2.1182e+07,-0.15802,0.0077201,-0.16574,-0.022375,0,-0.00085139,0,1,0,1
6952,2.1192e+07,-0.15831,0.0047473,-0.16306,-0.022013,0,0.00036981,0,1,0,1
6992,2.1202e+07,-0.15853,0.0024998,-0.16103,-0.02174,0,0.00081232,0,1,0,1
7033,2.1215e+07,-0.15873,0.0043156,-0.16305,-0.022012,0,-0.000368,0,1,0,1
7073,2.1225e+07,-0.15898,0.005243,-0.16423,-0.022171,0,-0.00011334,0,1,0,1
7114,2.1235e+07,-0.1591,-0.0021239,-0.15698,-0.021192,0,0.0017517,0,1,0,1
7157,2.1245e+07,-0.15901,-0.0032936,-0.15571,-0.021021,0,0.00033129,0,1,0,1
7199,2.1255e+07,-0.15889,-0.0016009,-0.15729,-0.021234,0,-0.000435,0,1,0,1
7240,2.1265e+07,-0.15877,-0.0027905,-0.15598,-0.021057,0,-4.3199e-05,0,1,0,1
7284,2.1276e+07,-0.15863,-0.0011908,-0.15744,-0.021254,0,-0.00078873,0,1,0,1
7326,2.1286e+07,-0.15847,-0.0041108,-0.15436,-0.020838,0,0.00018142,0,1,0,1
7367,2.1296e+07,-0.15835,-0.0022276,-0.15612,-0.021077,0,-0.00016228,0,1,0,1
7409,2.1306e+07,-0.15826,-0.0018383,-0.15642,-0.021117,0,-3.1638e-05,0,1,0,1
7453,2.1321e+07,-0.15822,0.0023592,-0.16058,-0.021678,0,-0.00094364,0,1,0,1
7494,2.1331e+07,-0.15828,0.0019517,-0.16024,-0.021632,0,-0.00021272,0,1,0,1
7535,2.1341e+07,-0.15835,0.002621,-0.16098,-0.021732,0,-0.00045108,0,1,0,1
7577,2.1351e+07,-0.15845,-0.00077384,-0.15767,-0.021286,0,0.001067,0,1,0,1
7617,2.1361e+07,-0.15852,0.0013067,-0.15983,-0.021577,0,0.00013828,0,1,0,1
7658,2.1371e+07,-0.15859,0.0019036,-0.16049,-0.021666,0,-0.00014112,0,1,0,1
7704,2.1381e+07,-0.15863,-0.0017436,-0.15688,-0.021179,0,0.0010249,0,1,0,1
7745,2.1391e+07,-0.15862,-0.0032354,-0.15539,-0.020978,0,0.0013107,0,1,0,1
7787,2.1401e+07,-0.15852,-0.0032276,-0.15529,-0.020964,0,0.00041953,0,1,0,1
7830,2.1413e+07,-0.15838,-0.0012936,-0.15708,-0.021206,0,-0.00038568,0,1,0,1
7871,2.1426e+07,-0.15822,-0.0039495,-0.15427,-0.020827,0,0.00032498,0,1,0,1
7911,2.1436e+07,-0.15807,-0.0042028,-0.15387,-0.020772,0,0.00044683,0,1,0,1
7952,2.1446e+07,-0.15795,-0.0032767,-0.15467,-0.020881,0,0.00036729,0,1,0,1
7997,2.1456e+07,-0.15789,0.00035234,-0.15824,-0.021363,0,-0.00058142,0,1,0,1
8037,2.1467e+07,-0.1579,0.00071004,-0.15861,-0.021412,0,-0.00013185,0,1,0,1
8082,2.1477e+07,-0.15798,0.0031674,-0.16114,-0.021754,0,-0.00051441,0,1,0,1
8122,2.1487e+07,-0.15811,0.0016463,-0.15975,-0.021567,0,0.00051856,0,1,0,1
8164,2.1497e+07,-0.15814,0.00024774,-0.15839,-0.021383,0,0.00022193,0,1,0,1
8205,2.1507e+07,-0.15801,0.0011624,-0.15918,-0.021489,0,-0.00015488,0,1,0,1
8245,2.1517e+07,-0.15808,0.0036469,-0.16172,-0.021833,0,-0.00050152,0,1,0,1
8280,2.1528e+07,-0.15824,0.0075918,-0.16583,-0.022387,0,-0.0012826,0,1,0,1
8321,2.1538e+07,-0.15851,0.0055587,-0.16407,-0.02215,0,9.2574e-05,0,1,0,1
8361,2.1548e+07,-0.15869,0.0036208,-0.16231,-0.021912,0,1.4597e-05,0,1,0,1
8402,2.1558e+07,-0.15885,0.002089,-0.16094,-0.021727,0,0.00047969,0,1,0,1
8443,2.1568e+07,-0.1589,-0.0011457,-0.15776,-0.021297,0,0.00082758,0,1,0,1
8493,2.1581e+07,-0.15891,-0.00074584,-0.15816,-0.021352,0,0.00027131,0,1,0,1
8534,2.1591e+07,-0.15885,-0.0037594,-0.15509,-0.020938,0,0.00097264,0,1,0,1
8575,2.1601e+07,-0.15874,-0.004234,-0.1545,-0.020858,0,0.00065163,0,1,0,1
8616,2.1611e+07,-0.15856,-0.004418,-0.15414,-0.020809,0,0.00020152,0,1,0,1
8653,2.1621e+07,-0.15835,-0.0061227,-0.15223,-0.020551,0,0.00046928,0,1,0,1
8694,2.1633e+07,-0.15803,-0.0043533,-0.15368,-0.020747,0,-0.00038398,0,1,0,1
8736,2.1644e+07,-0.15786,-0.00047665,-0.15739,-0.021247,0,-0.0012456,0,1,0,1
8777,2.1654e+07,-0.15783,0.0017925,-0.15962,-0.021549,0,-0.00096821,0,1,0,1
8819,2.1664e+07,-0.15792,0.0035153,-0.16143,-0.021794,0,-0.00061103,0,1,0,1
8860,2.1674e+07,-0.15803,0.0020651,-0.1601,-0.021614,0,0.00022158,0,1,0,1
8905,2.1685e+07,-0.15812,0.0013575,-0.15948,-0.021529,0,0.00016127,0,1,0,1
8945,2.1695e+07,-0.15821,0.0020509,-0.16026,-0.021635,0,-7.6778e-05,0,1,0,1
8986,2.1705e+07,-0.15833,0.0035305,-0.16186,-0.021851,0,-0.0003682,0,1,0,1
9026,2.1715e+07,-0.15843,0.0011609,-0.15959,-0.021545,0,0.00041913,0,1,0,1
9067,2.1725e+07,-0.15857,0.0038501,-0.16242,-0.021927,0,-0.00035597,0,1,0,1
9105,2.1735e+07,-0.15868,0.0015184,-0.1602,-0.021626,0,0.00029302,0,1,0,1
9145,2.1745e+07,-0.15872,-0.0017096,-0.15701,-0.021196,0,0.00097533,0,1,0,1
9186,2.1755e+07,-0.1586,-0.0027524,-0.15585,-0.02104,0,6.419e-05,0,1,0,1
9226,2.1765e+07,-0.1585,-0.0024162,-0.15609,-0.021072,0,0.00013322,0,1,0,1
9267,2.1775e+07,-0.1585,-0.00099971,-0.1575,-0.021262,0,-0.00017189,0,1,0,1
9311,2.1785e+07,-0.15853,-0.003019,-0.15551,-0.020994,0,0.00043354,0,1,0,1
9353,2.1795e+07,-0.15844,-0.002629,-0.15581,-0.021034,0,-4.0424e-05,0,1,0,1
9396,2.1805e+07,-0.15834,-0.0013611,-0.15698,-0.021192,0,-0.00042784,0,1,0,1
9436,2.1815e+07,-0.15829,-0.0010658,-0.15722,-0.021225,0,2.3827e-05,0,1,0,1
9475,2.1825e+07,-0.15827,5.4515e-05,-0.15832,-0.021373,0,-0.00017615,0,1,0,1
9520,2.1875e+07,-0.15883,0.002117,-0.16094,-0.021727,0,0.00036415,0,1,0,1
9565,2.1885e+07,-0.15892,0.00048763,-0.1594,-0.021519,0,0.00052376,0,1,0,1
9606,2.1895e+07,-0.15898,0.0032575,-0.16224,-0.021902,0,-0.00070956,0,1,0,1
9647,2.1905e+07,-0.15908,0.001639,-0.16071,-0.021697,0,0.00015979,0,1,0,1
9687,2.1915e+07,-0.15912,-0.00055818,-0.15856,-0.021406,0,0.00054469,0,1,0,1
9721,2.1925e+07,-0.15905,-0.0038994,-0.15515,-0.020945,0,0.00079954,0,1,0,1
9762,2.1935e+07,-0.15892,-0.0034879,-0.15543,-0.020983,0,0.00031009,0,1,0,1
9803,2.1945e+07,-0.15874,-0.0046892,-0.15405,-0.020797,0,0.00036594,0,1,0,1
9844,2.1955e+07,-0.15856,-0.0021484,-0.15641,-0.021116,0,-0.00068843,0,1,0,1
9885,2.1965e+07,-0.15842,-0.0039683,-0.15445,-0.020851,0,0.00033894,0,1,0,1
9926,2.1975e+07,-0.1583,-0.0007091,-0.1576,-0.021275,0,-0.00067802,0,1,0,1
9971,2.1985e+07,-0.15823,-0.0014813,-0.15675,-0.021161,0,-3.3698e-05,0,1,0,1
10012,2.1995e+07,-0.15819,0.00085891,-0.15905,-0.021472,0,-0.00055547,0,1,0,1
10053,2.2005e+07,-0.15821,0.0013347,-0.15955,-0.021539,0,-0.00035695,0,1,0,1
10093,2.2015e+07,-0.15828,0.0015011,-0.15978,-0.021571,0,5.955e-05,0,1,0,1
10131,2.2025e+07,-0.15836,0.0032835,-0.16165,-0.021822,0,-0.00057939,0,1,0,1
10171,2.2035e+07,-0.1585,0.004078,-0.16258,-0.021948,0,-0.0003762,0,1,0,1
10214,2.2045e+07,-0.15864,0.0032019,-0.16184,-0.021849,0,-4.1655e-05,0,1,0,1
10254,2.2055e+07,-0.15876,0.0012218,-0.15998,-0.021598,0,0.00056331,0,1,0,1
10296,2.2065e+07,-0.1588,-0.00081902,-0.15798,-0.021327,0,0.00064033,0,1,0,1
10336,2.2075e+07,-0.15878,0.00036473,-0.15914,-0.021484,0,-0.00037209,0,1,0,1
10382,2.2085e+07,-0.15879,-0.00059937,-0.15819,-0.021356,0,0.00035781,0,1,0,1
10422,2.2095e+07,-0.15876,-0.00038988,-0.15837,-0.02138,0,-4.4962e-05,0,1,0,1
10464,2.2106e+07,-0.15875,-0.0014468,-0.1573,-0.021236,0,0.00048618,0,1,0,1
10505,2.2116e+07,-0.1587,-0.0020553,-0.15664,-0.021147,0,0.00036748,0,1,0,1
10542,2.2126e+07,-0.15861,-0.003258,-0.15535,-0.020972,0,0.00053102,0,1,0,1
10583,2.2136e+07,-0.15852,-0.00088776,-0.15763,-0.021281,0,-0.00032627,0,1,0,1
10623,2.2146e+07,-0.15844,-0.0011719,-0.15727,-0.021231,0,-0.00020959,0,1,0,1
10665,2.2157e+07,-0.15842,0.00069075,-0.15912,-0.021481,0,-0.00032982,0,1,0,1
10705,2.2168e+07,-0.15845,0.001538,-0.15999,-0.021598,0,-0.00034475,0,1,0,1
10747,2.2178e+07,-0.15846,-0.00076666,-0.1577,-0.021289,0,0.00043868,0,1,0,1
10792,2.2188e+07,-0.15843,-0.00050334,-0.15793,-0.02132,0,-9.4718e-05,0,1,0,1
10832,2.2198e+07,-0.15838,-0.00019376,-0.15819,-0.021355,0,-0.00032034,0,1,0,1
10873,2.2208e+07,-0.15836,0.00072318,-0.15908,-0.021476,0,-0.00051306,0,1,0,1
10919,2.2223e+07,-0.15844,0.0029163,-0.16136,-0.021783,0,-0.00047334,0,1,0,1
10961,2.2233e+07,-0.15855,0.0017572,-0.16031,-0.021641,0,0.00019674,0,1,0,1
11001,2.2244e+07,-0.15857,-0.0017376,-0.15684,-0.021173,0,0.00088019,0,1,0,1
11044,2.2254e+07,-0.15852,-0.0014572,-0.15706,-0.021203,0,7.1264e-05,0,1,0,1
11084,2.2264e+07,-0.15845,-0.0022238,-0.15622,-0.02109,0,0.00030154,0,1,0,1
11126,2.2274e+07,-0.1584,-0.0003052,-0.1581,-0.021343,0,-0.00018843,0,1,0,1
11172,2.2285e+07,-0.15838,-0.0020152,-0.15636,-0.021109,0,0.00063203,0,1,0,1
11212,2.2295e+07,-0.15835,-0.00037955,-0.15797,-0.021326,0,-3.6244e-05,0,1,0,1
11255,2.2305e+07,-0.15835,0.00042324,-0.15878,-0.021435,0,-5.0275e-05,0,1,0,1
11295,2.2315e+07,-0.15835,-0.00019242,-0.15816,-0.021352,0,0.00010252,0,1,0,1
11337,2.2325e+07,-0.15831,-0.0017958,-0.15651,-0.021129,0,0.00032405,0,1,0,1
11374,2.2336e+07,-0.15825,-0.0012897,-0.15696,-0.02119,0,1.7886e-05,0,1,0,1
11415,2.2346e+07,-0.15821,0.0013361,-0.15954,-0.021538,0,-0.00079657,0,1,0,1
11456,2.2356e+07,-0.15823,0.00060439,-0.15883,-0.021442,0,3.5926e-05,0,1,0,1
11496,2.2366e+07,-0.15826,-0.0012698,-0.15699,-0.021193,0,0.0007945,0,1,0,1
11538,2.2376e+07,-0.15825,-0.00020121,-0.15805,-0.021337,0,0.00010499,0,1,0,1
11583,2.2387e+07,-0.15822,-0.00052964,-0.15769,-0.021289,0,-1.3692e-05,0,1,0,1
11626,2.2397e+07,-0.15824,0.0014415,-0.15969,-0.021558,0,-0.00031237,0,1,0,1
11667,2.2407e+07,-0.15826,0.0003553,-0.15862,-0.021413,0,7.0634e-05,0,1,0,1
11707,2.2417e+07,-0.15827,0.00082306,-0.15909,-0.021478,0,-0.00026574,0,1,0,1
11748,2.2427e+07,-0.15833,0.00090934,-0.15924,-0.021498,0,0.00019117,0,1,0,1
11785,2.2438e+07,-0.15835,-0.0017571,-0.1566,-0.02114,0,0.00085901,0,1,0,1
11827,2.2448e+07,-0.1583,-0.0010878,-0.15721,-0.021224,0,3.1315e-05,0,1,0,1
11869,2.2458e+07,-0.15828,4.0011e-05,-0.15832,-0.021374,0,-5.6889e-05,0,1,0,1
11910,2.2468e+07,-0.15828,0.0011084,-0.15939,-0.021518,0,-0.00038318,0,1,0,1
11952,2.2478e+07,-0.15829,-0.00079288,-0.1575,-0.021263,0,0.000484,0,1,0,1
11997,2.2488e+07,-0.15828,-0.0006621,-0.15761,-0.021278,0,0.0001425,0,1,0,1
12038,2.2498e+07,-0.15825,0.00037326,-0.15862,-0.021414,0,-0.00032405,0,1,0,1
12078,2.2509e+07,-0.15826,0.00082565,-0.15908,-0.021476,0,-0.00025635,0,1,0,1
12122,2.2522e+07,-0.15827,-0.00048257,-0.15779,-0.021301,0,0.00022893,0,1,0,1
12164,2.2533e+07,-0.15827,0.0018944,-0.16016,-0.021622,0,-0.00069635,0,1,0,1
12204,2.2543e+07,-0.15837,0.0032503,-0.16162,-0.021819,0,-0.0004085,0,1,0,1
12242,2.2553e+07,-0.15847,0.0018698,-0.16034,-0.021646,0,6.0458e-05,0,1,0,1
12282,2.2563e+07,-0.15851,-0.0012724,-0.15724,-0.021227,0,0.00082707,0,1,0,1
12323,2.2574e+07,-0.1585,-0.00085612,-0.15764,-0.021281,0,0.0002008,0,1,0,1
12365,2.2584e+07,-0.15845,-0.00088235,-0.15757,-0.021271,0,-5.2876e-05,0,1,0,1
12412,2.2594e+07,-0.15839,0.00015211,-0.15854,-0.021403,0,-0.00057715,0,1,0,1
12452,2.2604e+07,-0.15839,0.0016022,-0.15999,-0.021599,0,-0.00057873,0,1,0,1
12493,2.2615e+07,-0.15843,9.6427e-05,-0.15853,-0.021401,0,0.00033403,0,1,0,1
12534,2.2624e+07,-0.15843,-0.00093359,-0.1575,-0.021262,0,0.00039768,0,1,0,1
12571,2.2634e+07,-0.15842,-0.00075426,-0.15766,-0.021285,0,0.00019699,0,1,0,1
12611,2.2645e+07,-0.15839,-0.00080703,-0.15758,-0.021273,0,5.3605e-05,0,1,0,1
12652,2.2655e+07,-0.15841,0.0025796,-0.16099,-0.021734,0,-0.0007881,0,1,0,1
12693,2.2665e+07,-0.15845,-0.00040901,-0.15804,-0.021335,0,0.00051669,0,1,0,1
12733,2.2675e+07,-0.15849,0.00025021,-0.15874,-0.02143,0,0.00029837,0,1,0,1
12776,2.2685e+07,-0.15852,0.0003096,-0.15883,-0.021442,0,0.00013089,0,1,0,1
12821,2.2695e+07,-0.15848,-0.0014157,-0.15706,-0.021204,0,0.00027404,0,1,0,1
12861,2.2705e+07,-0.15844,0.00011368,-0.15856,-0.021405,0,-0.00039699,0,1,0,1
12902,2.2715e+07,-0.15841,-0.00014806,-0.15826,-0.021366,0,-0.00018924,0,1,0,1
12942,2.2725e+07,-0.15842,0.0006699,-0.15909,-0.021477,0,-0.00020425,0,1,0,1
12980,2.2738e+07,-0.15843,0.00082958,-0.15926,-0.0215,0,-0.00017546,0,1,0,1
13020,2.2748e+07,-0.15846,0.00013873,-0.1586,-0.021411,0,0.00023313,0,1,0,1
13062,2.2758e+07,-0.15847,0.00025687,-0.15873,-0.021428,0,3.8458e-05,0,1,0,1
13103,2.2768e+07,-0.15848,0.00034248,-0.15882,-0.021441,0,-4.5175e-05,0,1,0,1
13143,2.2778e+07,-0.15849,0.0012142,-0.1597,-0.02156,0,-0.00033778,0,1,0,1
13184,2.2789e+07,-0.15852,0.00015558,-0.15867,-0.021421,0,0.00018515,0,1,0,1
13231,2.2799e+07,-0.15854,0.00093662,-0.15948,-0.021529,0,-0.00017214,0,1,0,1
13272,2.2809e+07,-0.15857,0.00041683,-0.15899,-0.021464,0,0.00014379,0,1,0,1
13313,2.282e+07,-0.15856,-0.00020263,-0.15836,-0.021378,0,1.0761e-07,0,1,0,1
13353,2.2829e+07,-0.15856,-0.00081498,-0.15774,-0.021295,0,0.0002915,0,1,0,1
13394,2.284e+07,-0.15853,-0.0011471,-0.15738,-0.021246,0,0.00031262,0,1,0,1
13434,2.285e+07,-0.15845,-0.002825,-0.15562,-0.021009,0,0.00051297,0,1,0,1
13476,2.286e+07,-0.15837,-0.0016508,-0.15672,-0.021158,0,7.3931e-05,0,1,0,1
13517,2.2871e+07,-0.15828,-0.0030136,-0.15527,-0.020961,0,0.0004748,0,1,0,1
13557,2.2881e+07,-0.15814,-0.0051266,-0.15301,-0.020657,0,0.00083187,0,1,0,1
13599,2.2891e+07,-0.15796,-0.0046168,-0.15334,-0.020701,0,0.00036236,0,1,0,1
13643,2.2901e+07,-0.15778,-0.0036087,-0.15417,-0.020813,0,-2.5618e-05,0,1,0,1
13685,2.2911e+07,-0.15765,-0.00089296,-0.15676,-0.021163,0,-0.00067167,0,1,0,1
13725,2.2921e+07,-0.15757,-0.00030757,-0.15726,-0.02123,0,-0.00052639,0,1,0,1
13766,2.2931e+07,-0.15757,0.0021838,-0.15976,-0.021567,0,-0.00073513,0,1,0,1
13804,2.2942e+07,-0.15768,0.0031052,-0.16078,-0.021705,0,-0.00030166,0,1,0,1
13844,2.2952e+07,-0.15782,0.0024963,-0.16032,-0.021643,0,0.00024536,0,1,0,1
13885,2.2962e+07,-0.15799,0.004241,-0.16223,-0.021901,0,-0.00021044,0,1,0,1
13927,2.2972e+07,-0.15822,0.0081218,-0.16634,-0.022456,0,-0.0012414,0,1,0,1
13968,2.2982e+07,-0.15846,0.0048832,-0.16334,-0.022051,0,0.00019821,0,1,0,1
14009,2.2992e+07,-0.15869,0.0056097,-0.1643,-0.022181,0,-0.00025697,0,1,0,1
14053,2.3002e+07,-0.15888,0.0017391,-0.16062,-0.021684,0,0.00084068,0,1,0,1
14095,2.3012e+07,-0.15895,-0.00014897,-0.1588,-0.021438,0,0.00057525,0,1,0,1
14135,2.3022e+07,-0.15893,-0.0034651,-0.15547,-0.020988,0,0.0011781,0,1,0,1
14180,2.3035e+07,-0.15878,-0.0032604,-0.15552,-0.020995,0,0.00012536,0,1,0,1
14222,2.3046e+07,-0.15862,-0.0040582,-0.15456,-0.020866,0,0.00030148,0,1,0,1
14260,2.3056e+07,-0.15836,-0.0080884,-0.15027,-0.020287,0,0.0011228,0,1,0,1
14302,2.3066e+07,-0.15807,-0.0080685,-0.15,-0.02025,0,0.00064945,0,1,0,1
14342,2.3076e+07,-0.15778,-0.0054325,-0.15235,-0.020567,0,-0.00017744,0,1,0,1
14383,2.3086e+07,-0.15758,0.0010937,-0.15867,-0.021421,0,-0.0019967,0,1,0,1
14423,2.3096e+07,-0.15756,0.0040637,-0.16162,-0.021819,0,-0.0016616,0,1,0,1
14469,2.3106e+07,-0.15753,-0.001301,-0.15623,-0.021091,0,0.0002534,0,1,0,1
14510,2.3116e+07,-0.15754,0.0016607,-0.1592,-0.021492,0,-0.00056136,0,1,0,1
14551,2.3127e+07,-0.15769,0.0056356,-0.16333,-0.022049,0,-0.00089427,0,1,0,1
14592,2.3137e+07,-0.15795,0.0074451,-0.16539,-0.022328,0,-0.00071779,0,1,0,1
14632,2.315e+07,-0.15827,0.007405,-0.16567,-0.022366,0,-0.00054229,0,1,0,1
14673,2.316e+07,-0.15859,0.0079808,-0.16657,-0.022487,0,-0.00059547,0,1,0,1
14713,2.317e+07,-0.15885,0.005351,-0.1642,-0.022167,0,-4.8681e-05,0,1,0,1
14754,2.318e+07,-0.15906,0.003323,-0.16238,-0.021922,0,0.00049004,0,1,0,1
14795,2.319e+07,-0.15915,-0.0020556,-0.15709,-0.021207,0,0.0015189,0,1,0,1
14840,2.3201e+07,-0.15905,-0.0061369,-0.15292,-0.020644,0,0.0016247,0,1,0,1
14882,2.3211e+07,-0.15878,-0.0075879,-0.15119,-0.020411,0,0.00079059,0,1,0,1
14922,2.3221e+07,-0.1584,-0.010233,-0.14816,-0.020002,0,0.00074748,0,1,0,1
14963,2.3231e+07,-0.15795,-0.01109,-0.14686,-0.019826,0,0.00057943,0,1,0,1
15003,2.3241e+07,-0.15755,-0.0073142,-0.15024,-0.020282,0,-0.00040198,0,1,0,1
15044,2.3251e+07,-0.15734,-0.0021374,-0.1552,-0.020952,0,-0.00055365,0,1,0,1
15082,2.3261e+07,-0.15728,0.0020265,-0.15931,-0.021506,0,-0.00099033,0,1,0,1
15122,2.3272e+07,-0.15736,0.0051898,-0.16255,-0.021944,0,-0.0012244,0,1,0,1
15163,2.3282e+07,-0.15759,0.0097367,-0.16733,-0.022589,0,-0.001815,0,1,0,1
15205,2.3293e+07,-0.15802,0.0087348,-0.16675,-0.022512,0,2.0803e-05,0,1,0,1
15251,2.3303e+07,-0.15846,0.0094295,-0.16788,-0.022664,0,-2.9234e-05,0,1,0,1
15291,2.3313e+07,-0.15888,0.0086407,-0.16752,-0.022615,0,0.00010683,0,1,0,1
15333,2.3323e+07,-0.15924,0.0057784,-0.16502,-0.022278,0,0.00079553,0,1,0,1
15376,2.3335e+07,-0.15956,0.00094916,-0.1605,-0.021668,0,0.0016244,0,1,0,1
15417,2.3346e+07,-0.15959,-7.358e-05,-0.15952,-0.021535,0,0.00032628,0,1,0,1
15459,2.3356e+07,-0.15953,-0.0041117,-0.15541,-0.020981,0,0.0010298,0,1,0,1
15496,2.3367e+07,-0.15926,-0.0093448,-0.14992,-0.020239,0,0.0015338,0,1,0,1
15537,2.3377e+07,-0.15882,-0.012115,-0.14671,-0.019806,0,0.0012326,0,1,0,1
15579,2.3387e+07,-0.15834,-0.011831,-0.14651,-0.019778,0,0.00065952,0,1,0,1
15619,2.3397e+07,-0.15786,-0.0085796,-0.14928,-0.020153,0,-0.0005685,0,1,0,1
15666,2.3407e+07,-0.15749,-0.0047725,-0.15272,-0.020617,0,-0.0011104,0,1,0,1
15706,2.3418e+07,-0.15725,-0.0035936,-0.15366,-0.020744,0,-0.00048232,0,1,0,1
15748,2.3428e+07,-0.15714,0.00088008,-0.15802,-0.021333,0,-0.001112,0,1,0,1
15790,2.3438e+07,-0.15713,0.0027601,-0.15989,-0.021585,0,-0.0010826,0,1,0,1
15834,2.3451e+07,-0.15729,0.0052839,-0.16257,-0.021947,0,-0.00079561,0,1,0,1
15875,2.3462e+07,-0.15755,0.0086432,-0.16619,-0.022436,0,-0.0011909,0,1,0,1
15916,2.3472e+07,-0.15793,0.0076206,-0.16555,-0.022349,0,0.00018137,0,1,0,1
15957,2.3482e+07,-0.15825,0.0069703,-0.16522,-0.022305,0,-9.0648e-06,0,1,0,1
15997,2.3492e+07,-0.15851,0.003563,-0.16208,-0.02188,0,0.00081671,0,1,0,1
16038,2.3503e+07,-0.1587,0.0022649,-0.16097,-0.021731,0,0.0006763,0,1,0,1
16083,2.3513e+07,-0.15871,-0.0047486,-0.15396,-0.020784,0,0.0019033,0,1,0,1
16124,2.3523e+07,-0.15856,-0.0042977,-0.15426,-0.020825,0,0.00035842,0,1,0,1
16165,2.3533e+07,-0.15834,-0.0048977,-0.15344,-0.020715,0,6.3681e-05,0,1,0,1
16205,2.3543e+07,-0.15801,-0.010457,-0.14755,-0.019919,0,0.0012462,0,1,0,1
16250,2.3558e+07,-0.15741,-0.0087872,-0.14862,-0.020064,0,4.219e-05,0,1,0,1
16291,2.3569e+07,-0.15704,-0.0056371,-0.1514,-0.02044,0,-0.00067526,0,1,0,1
16333,2.3579e+07,-0.1568,-0.0017696,-0.15503,-0.020929,0,-0.0010084,0,1,0,1
16373,2.359e+07,-0.15669,0.0011558,-0.15785,-0.021309,0,-0.0010564,0,1,0,1
16414,2.36e+07,-0.15675,0.0061417,-0.16289,-0.02199,0,-0.0017743,0,1,0,1
16460,2.361e+07,-0.15695,0.0077376,-0.16468,-0.022232,0,-0.0012799,0,1,0,1
16501,2.362e+07,-0.15729,0.010591,-0.16788,-0.022664,0,-0.0012811,0,1,0,1
16543,2.3631e+07,-0.15768,0.0092025,-0.16688,-0.022528,0,-0.00035505,0,1,0,1
16586,2.3641e+07,-0.15813,0.01096,-0.16909,-0.022828,0,-0.00061126,0,1,0,1
16626,2.3656e+07,-0.15874,0.0058392,-0.16458,-0.022219,0,0.00080747,0,1,0,1
16667,2.3667e+07,-0.15897,0.0021669,-0.16113,-0.021753,0,0.00091806,0,1,0,1
16709,2.3677e+07,-0.15908,0.0012027,-0.16028,-0.021638,0,0.00039673,0,1,0,1
16749,2.3687e+07,-0.15906,-0.0038002,-0.15526,-0.02096,0,0.0013084,0,1,0,1
16790,2.3697e+07,-0.15887,-0.0055245,-0.15335,-0.020702,0,0.00055156,0,1,0,1
16830,2.3707e+07,-0.15858,-0.0076635,-0.15092,-0.020374,0,0.00060212,0,1,0,1
16876,2.3717e+07,-0.15823,-0.0085735,-0.14966,-0.020204,0,0.00041598,0,1,0,1
16916,2.3728e+07,-0.15787,-0.0057011,-0.15217,-0.020543,0,-0.0007043,0,1,0,1
16957,2.3738e+07,-0.15759,-0.0040289,-0.15357,-0.020731,0,-0.00057312,0,1,0,1
16998,2.3747e+07,-0.15747,0.00053639,-0.15801,-0.021331,0,-0.0011419,0,1,0,1
17032,2.3758e+07,-0.15744,0.0021422,-0.15959,-0.021544,0,-0.00099209,0,1,0,1
17072,2.3768e+07,-0.15755,0.0061644,-0.16371,-0.022101,0,-0.0014604,0,1,0,1
17113,2.3778e+07,-0.15781,0.0073959,-0.1652,-0.022302,0,-0.00063041,0,1,0,1
17157,2.3789e+07,-0.15812,0.0079118,-0.16603,-0.022414,0,-0.00035472,0,1,0,1
17197,2.3799e+07,-0.15849,0.0080229,-0.16652,-0.02248,0,-7.1788e-05,0,1,0,1
17238,2.3809e+07,-0.15881,0.0071756,-0.16598,-0.022408,0,-0.00018704,0,1,0,1
17283,2.3819e+07,-0.15912,0.0062957,-0.16542,-0.022331,0,0.00014816,0,1,0,1
17324,2.3829e+07,-0.1593,-0.0010533,-0.15824,-0.021363,0,0.0018505,0,1,0,1
17365,2.3839e+07,-0.15926,-0.004638,-0.15462,-0.020873,0,0.0014382,0,1,0,1
17407,2.3849e+07,-0.15913,-0.0037087,-0.15542,-0.020981,0,0.00038995,0,1,0,1
17449,2.3859e+07,-0.15895,-0.0038901,-0.15506,-0.020933,0,9.7936e-05,0,1,0,1
17489,2.3869e+07,-0.15868,-0.0072489,-0.15143,-0.020443,0,0.00058455,0,1,0,1
17531,2.3879e+07,-0.15829,-0.0096022,-0.14869,-0.020073,0,0.00053982,0,1,0,1
17572,2.3889e+07,-0.15796,-0.0059635,-0.152,-0.02052,0,-0.00032931,0,1,0,1
17613,2.39e+07,-0.15772,-0.0039423,-0.15378,-0.02076,0,-0.00031084,0,1,0,1
17654,2.391e+07,-0.15751,-0.0016563,-0.15585,-0.02104,0,-0.00092992,0,1,0,1
17698,2.392e+07,-0.15746,0.0035785,-0.16104,-0.02174,0,-0.0017147,0,1,0,1
17739,2.393e+07,-0.1576,0.0087475,-0.16635,-0.022457,0,-0.002116,0,1,0,1
17780,2.394e+07,-0.15794,0.008302,-0.16624,-0.022442,0,-0.00030525,0,1,0,1
17828,2.3955e+07,-0.15838,0.0062073,-0.16459,-0.02222,0,-7.9088e-05,0,1,0,1
17868,2.3966e+07,-0.15868,0.0058497,-0.16453,-0.022211,0,5.1191e-05,0,1,0,1
17910,2.3976e+07,-0.15892,0.0030089,-0.16193,-0.021861,0,0.00080943,0,1,0,1
17951,2.3986e+07,-0.15906,-0.00013688,-0.15893,-0.021455,0,0.0011024,0,1,0,1
17992,2.3997e+07,-0.15906,-0.0016706,-0.15739,-0.021247,0,0.0005604,0,1,0,1
18033,2.4007e+07,-0.15895,-0.0042256,-0.15472,-0.020888,0,0.00079804,0,1,0,1
18077,2.4018e+07,-0.1587,-0.007297,-0.1514,-0.020439,0,0.00080991,0,1,0,1
18119,2.4028e+07,-0.15834,-0.0098241,-0.14852,-0.02005,0,0.00087395,0,1,0,1
18159,2.4038e+07,-0.15793,-0.0085061,-0.14943,-0.020172,0,0.00010886,0,1,0,1
18202,2.4049e+07,-0.15756,-0.0076218,-0.14993,-0.020241,0,-3.0361e-05,0,1,0,1
18242,2.4058e+07,-0.15725,-0.0046919,-0.15256,-0.020596,0,-0.00062203,0,1,0,1
18282,2.4069e+07,-0.15703,-0.00082644,-0.15621,-0.021088,0,-0.0014419,0,1,0,1
18323,2.4079e+07,-0.15696,0.00088935,-0.15785,-0.02131,0,-0.00085374,0,1,0,1
18364,2.4089e+07,-0.157,0.0068479,-0.16385,-0.02212,0,-0.0022421,0,1,0,1
18405,2.4099e+07,-0.15725,0.0082644,-0.16551,-0.022344,0,-0.0011097,0,1,0,1
18446,2.4109e+07,-0.15758,0.010412,-0.16799,-0.022679,0,-0.0012533,0,1,0,1
18493,2.4122e+07,-0.15817,0.013057,-0.17123,-0.023116,0,-0.0010972,0,1,0,1
18534,2.4132e+07,-0.1586,0.0074189,-0.16602,-0.022412,0,0.00057581,0,1,0,1
18575,2.4142e+07,-0.1589,0.0039942,-0.16289,-0.021991,0,0.00077,0,1,0,1
18616,2.4152e+07,-0.15914,0.0032712,-0.16241,-0.021925,0,0.00069934,0,1,0,1
18657,2.4162e+07,-0.15923,-0.0044447,-0.15478,-0.020896,0,0.0024399,0,1,0,1
18694,2.4175e+07,-0.15899,-0.0099188,-0.14907,-0.020124,0,0.0020473,0,1,0,1
18735,2.4186e+07,-0.1586,-0.010975,-0.14763,-0.01993,0,0.0012405,0,1,0,1
18777,2.4196e+07,-0.15814,-0.0088088,-0.14933,-0.02016,0,-0.00034206,0,1,0,1
18817,2.4206e+07,-0.15769,-0.0083773,-0.14932,-0.020158,0,-0.00022093,0,1,0,1
18859,2.4216e+07,-0.15724,-0.010083,-0.14716,-0.019866,0,0.00032056,0,1,0,1
18903,2.4227e+07,-0.15681,-0.0064263,-0.15038,-0.020301,0,-0.0010827,0,1,0,1
18944,2.4237e+07,-0.15655,-0.002216,-0.15433,-0.020835,0,-0.0012305,0,1,0,1
18985,2.4247e+07,-0.15648,0.00091434,-0.15739,-0.021248,0,-0.00083895,0,1,0,1
19027,2.4259e+07,-0.15659,0.0057958,-0.16239,-0.021922,0,-0.0012763,0,1,0,1
19066,2.427e+07,-0.15686,0.010159,-0.16702,-0.022548,0,-0.0015795,0,1,0,1
19108,2.428e+07,-0.15724,0.0099145,-0.16715,-0.022565,0,-0.00071448,0,1,0,1
19150,2.429e+07,-0.15764,0.0092724,-0.16691,-0.022533,0,-0.00039372,0,1,0,1
19191,2.43e+07,-0.15803,0.0089125,-0.16694,-0.022537,0,-0.00029225,0,1,0,1
19231,2.4311e+07,-0.1584,0.0085434,-0.16695,-0.022538,0,-0.00020021,0,1,0,1
19272,2.4321e+07,-0.15865,0.0015322,-0.16018,-0.021624,0,0.0013796,0,1,0,1
19316,2.4331e+07,-0.15871,-0.0037813,-0.15493,-0.020915,0,0.0019481,0,1,0,1
19358,2.4341e+07,-0.15855,-0.0074586,-0.1511,-0.020398,0,0.0016253,0,1,0,1
19398,2.4351e+07,-0.15827,-0.0071256,-0.15115,-0.020405,0,0.00044284,0,1,0,1
19439,2.4361e+07,-0.15792,-0.0086815,-0.14923,-0.020147,0,0.0004468,0,1,0,1
19480,2.4374e+07,-0.15739,-0.0093555,-0.14803,-0.019984,0,0.00013485,0,1,0,1
19521,2.4384e+07,-0.15701,-0.0062666,-0.15074,-0.02035,0,-0.00059383,0,1,0,1
19564,2.4394e+07,-0.15673,-0.0038002,-0.15293,-0.020646,0,-0.00071445,0,1,0,1
19604,2.4404e+07,-0.15657,-0.001511,-0.15506,-0.020933,0,-0.00066818,0,1,0,1
19646,2.4414e+07,-0.15658,0.0027178,-0.1593,-0.021505,0,-0.00088185,0,1,0,1
19691,2.4425e+07,-0.15667,0.0058233,-0.16249,-0.021936,0,-0.0013655,0,1,0,1
19732,2.4435e+07,-0.15697,0.010644,-0.16762,-0.022628,0,-0.0016707,0,1,0,1
19773,2.4445e+07,-0.15734,0.0099793,-0.16732,-0.022589,0,-0.00080712,0,1,0,1
19816,2.4455e+07,-0.15777,0.01033,-0.1681,-0.022694,0,-0.0004912,0,1,0,1
19857,2.4465e+07,-0.15816,0.0078043,-0.16597,-0.022406,0,0.00029471,0,1,0,1
19894,2.4475e+07,-0.15843,0.004021,-0.16245,-0.021931,0,0.0007717,0,1,0,1
19935,2.4486e+07,-0.15859,0.0026115,-0.1612,-0.021762,0,0.00012953,0,1,0,1
19976,2.4496e+07,-0.15862,-0.0005519,-0.15807,-0.02134,0,0.00038206,0,1,0,1
20016,2.4506e+07,-0.15857,-0.0051687,-0.1534,-0.020709,0,0.0014886,0,1,0,1
20057,2.4516e+07,-0.15836,-0.008492,-0.14987,-0.020232,0,0.0016091,0,1,0,1
20103,2.4527e+07,-0.15799,-0.0095381,-0.14845,-0.020041,0,0.00078256,0,1,0,1
20144,2.4537e+07,-0.15762,-0.0028817,-0.15474,-0.02089,0,-0.0018421,0,1,0,1
20184,2.4547e+07,-0.15732,-0.0052511,-0.15207,-0.020529,0,-0.00038794,0,1,0,1
20225,2.4557e+07,-0.15704,-0.0047886,-0.15226,-0.020554,0,-0.00041141,0,1,0,1
20266,2.4567e+07,-0.15687,-0.0014515,-0.15542,-0.020982,0,-0.0008868,0,1,0,1
20305,2.4578e+07,-0.15684,0.0013192,-0.15816,-0.021352,0,-0.00063072,0,1,0,1
20345,2.4588e+07,-0.15695,0.0052752,-0.16222,-0.0219,0,-0.0011327,0,1,0,1
20386,2.4598e+07,-0.15708,0.0037873,-0.16087,-0.021717,0,-0.0002908,0,1,0,1
20426,2.4608e+07,-0.15727,0.0060006,-0.16327,-0.022042,0,-0.00072053,0,1,0,1
20468,2.4618e+07,-0.15754,0.0075125,-0.16505,-0.022282,0,-0.0006785,0,1,0,1
20515,2.4628e+07,-0.15785,0.0056323,-0.16348,-0.02207,0,0.00036652,0,1,0,1
20557,2.4639e+07,-0.1581,0.0043894,-0.16249,-0.021936,0,0.00032886,0,1,0,1
20598,2.4648e+07,-0.15828,0.0024052,-0.16068,-0.021692,0,0.00054019,0,1,0,1
20638,2.4659e+07,-0.15832,-0.0015122,-0.15681,-0.02117,0,0.00098444,0,1,0,1
20679,2.4669e+07,-0.15827,-0.0040802,-0.15419,-0.020815,0,0.0010674,0,1,0,1
20719,2.4679e+07,-0.15809,-0.0059367,-0.15216,-0.020541,0,0.00096457,0,1,0,1
20760,2.4689e+07,-0.15789,-0.0044455,-0.15345,-0.020716,0,9.7628e-05,0,1,0,1
20801,2.4699e+07,-0.15762,-0.006352,-0.15127,-0.020422,0,0.00029851,0,1,0,1
20842,2.471e+07,-0.15741,-0.0028505,-0.15456,-0.020865,0,-0.00060287,0,1,0,1
20883,2.472e+07,-0.15723,-0.0025934,-0.15464,-0.020876,0,-0.00030906,0,1,0,1
20927,2.473e+07,-0.15716,0.00061961,-0.15777,-0.0213,0,-0.00078969,0,1,0,1
20970,2.474e+07,-0.15711,-0.00013091,-0.15698,-0.021192,0,-0.00026793,0,1,0,1
21010,2.475e+07,-0.15712,0.0025945,-0.15972,-0.021562,0,-0.00085985,0,1,0,1
21051,2.476e+07,-0.15721,0.0040412,-0.16125,-0.021769,0,-0.00072684,0,1,0,1
21093,2.477e+07,-0.15736,0.0029596,-0.16032,-0.021643,0,0.00010627,0,1,0,1
21134,2.4781e+07,-0.1575,0.0038023,-0.16131,-0.021776,0,-0.00035749,0,1,0,1
21176,2.4791e+07,-0.1576,-0.0003689,-0.15723,-0.021226,0,0.0009331,0,1,0,1
21216,2.4802e+07,-0.15772,0.0035863,-0.1613,-0.021776,0,-0.00044771,0,1,0,1
21257,2.4812e+07,-0.1578,-0.00020159,-0.1576,-0.021276,0,0.00077972,0,1,0,1
21298,2.4823e+07,-0.15777,-0.0027861,-0.15499,-0.020923,0,0.00078078,0,1,0,1
21345,2.4833e+07,-0.15763,-0.0052215,-0.15241,-0.020576,0,0.0009641,0,1,0,1
21387,2.4843e+07,-0.15746,-0.0060607,-0.1514,-0.020439,0,0.0010404,0,1,0,1
21428,2.4853e+07,-0.15721,-0.0050818,-0.15213,-0.020538,0,-1.6521e-05,0,1,0,1
21470,2.4863e+07,-0.15703,-0.0015892,-0.15544,-0.020984,0,-0.00085193,0,1,0,1
21510,2.4874e+07,-0.1569,-0.0014547,-0.15545,-0.020985,0,-0.00038108,0,1,0,1
21551,2.4885e+07,-0.15681,-0.00024399,-0.15656,-0.021136,0,-0.00061191,0,1,0,1
21591,2.4895e+07,-0.15679,0.00089824,-0.15769,-0.021288,0,-0.00039715,0,1,0,1
21632,2.4906e+07,-0.15682,0.0013195,-0.15814,-0.021349,0,-0.0002196,0,1,0,1
21672,2.4915e+07,-0.15687,0.0029402,-0.15981,-0.021575,0,-0.00065482,0,1,0,1
21714,2.4925e+07,-0.15694,0.0037628,-0.16071,-0.021695,0,-0.0008811,0,1,0,1
21761,2.4936e+07,-0.15706,0.0047669,-0.16182,-0.021846,0,-0.00090705,0,1,0,1
21801,2.4946e+07,-0.15722,0.0023666,-0.15959,-0.021545,0,0.00041385,0,1,0,1
21842,2.4956e+07,-0.15734,0.0015492,-0.15889,-0.02145,0,0.00035894,0,1,0,1
21883,2.4966e+07,-0.15738,0.00019243,-0.15758,-0.021273,0,0.00028028,0,1,0,1
21927,2.4979e+07,-0.15741,0.0018617,-0.15927,-0.021502,0,-0.00050048,0,1,0,1
21967,2.4989e+07,-0.15742,5.5154e-05,-0.15747,-0.021259,0,4.4376e-05,0,1,0,1
22008,2.4999e+07,-0.1574,-0.00086772,-0.15653,-0.021132,0,0.00024841,0,1,0,1
22048,2.5009e+07,-0.15732,-0.0027252,-0.1546,-0.02087,0,0.00043388,0,1,0,1
22090,2.502e+07,-0.15723,-0.0018261,-0.1554,-0.020979,0,3.4175e-05,0,1,0,1
22131,2.5029e+07,-0.15711,-0.0050003,-0.15211,-0.020535,0,0.0010488,0,1,0,1
22176,2.504e+07,-0.15692,-0.0047262,-0.15219,-0.020546,0,0.0002826,0,1,0,1
22219,2.505e+07,-0.15679,-0.00025498,-0.15654,-0.021132,0,-0.00085673,0,1,0,1
22259,2.506e+07,-0.15673,-0.00090567,-0.15582,-0.021036,0,-7.5358e-05,0,1,0,1
22300,2.5071e+07,-0.15675,0.0039264,-0.16067,-0.021691,0,-0.0012547,0,1,0,1
22341,2.5082e+07,-0.15683,0.0025193,-0.15935,-0.021512,0,-0.00043456,0,1,0,1
22382,2.5093e+07,-0.15696,0.0039913,-0.16095,-0.021728,0,-0.00051105,0,1,0,1
22423,2.5103e+07,-0.15711,0.0040461,-0.16116,-0.021756,0,-0.00035787,0,1,0,1
22463,2.5113e+07,-0.15735,0.0048618,-0.16221,-0.021898,0,9.5931e-05,0,1,0,1
22505,2.5124e+07,-0.15758,0.0041166,-0.1617,-0.02183,0,0.00042844,0,1,0,1
22545,2.5134e+07,-0.15774,0.0037115,-0.16145,-0.021796,0,-0.00018332,0,1,0,1
22591,2.5144e+07,-0.15784,0.0014613,-0.1593,-0.021506,0,0.00022213,0,1,0,1
22631,2.5154e+07,-0.15786,-0.00038481,-0.15747,-0.021259,0,0.00018754,0,1,0,1
22673,2.5165e+07,-0.1578,-0.0028505,-0.15495,-0.020918,0,0.00055147,0,1,0,1
22714,2.5175e+07,-0.15764,-0.0049982,-0.15265,-0.020607,0,0.00068848,0,1,0,1
22751,2.5185e+07,-0.15748,-0.0043253,-0.15315,-0.020676,0,0.0002841,0,1,0,1
22791,2.5195e+07,-0.15729,-0.0037281,-0.15356,-0.02073,0,-6.1259e-05,0,1,0,1
22831,2.5205e+07,-0.15712,-0.0026983,-0.15442,-0.020847,0,-0.00023849,0,1,0,1
22873,2.5215e+07,-0.15695,-0.0033148,-0.15363,-0.020741,0,-7.132e-05,0,1,0,1
22913,2.5226e+07,-0.15681,-0.0021471,-0.15467,-0.02088,0,-0.00024143,0,1,0,1
22954,2.5236e+07,-0.15674,-0.00085212,-0.15589,-0.021045,0,-0.00025069,0,1,0,1
22999,2.5246e+07,-0.15674,0.0010516,-0.15779,-0.021302,0,-0.00031174,0,1,0,1
23042,2.5256e+07,-0.15681,0.0029279,-0.15974,-0.021564,0,-0.00051173,0,1,0,1
23085,2.5266e+07,-0.15694,0.0036981,-0.16064,-0.021686,0,-0.00034655,0,1,0,1
23126,2.5278e+07,-0.15707,0.0035792,-0.16065,-0.021688,0,-0.00027903,0,1,0,1
23167,2.5288e+07,-0.15726,0.0034734,-0.16073,-0.021699,0,0.0001147,0,1,0,1
23207,2.5299e+07,-0.15742,0.0021118,-0.15953,-0.021537,0,0.000498,0,1,0,1
23248,2.5309e+07,-0.15751,-0.0019687,-0.15554,-0.020998,0,0.0015176,0,1,0,1
23291,2.5319e+07,-0.15752,-0.0019609,-0.15556,-0.021001,0,0.0009173,0,1,0,1
23332,2.5329e+07,-0.15747,-0.0021024,-0.15536,-0.020974,0,0.00037304,0,1,0,1
23373,2.5339e+07,-0.15736,-0.001446,-0.15591,-0.021048,0,-0.00033341,0,1,0,1
23417,2.5349e+07,-0.15719,-0.0057698,-0.15142,-0.020441,0,0.00085555,0,1,0,1
23459,2.5359e+07,-0.15699,-0.0024974,-0.1545,-0.020857,0,-0.00066499,0,1,0,1
23499,2.5369e+07,-0.15684,-0.0023944,-0.15444,-0.02085,0,-0.00025757,0,1,0,1
23541,2.5379e+07,-0.15669,-0.0018365,-0.15485,-0.020905,0,-0.00050572,0,1,0,1
23582,2.5389e+07,-0.15657,-0.00094003,-0.15563,-0.021009,0,-0.00067946,0,1,0,1
23625,2.54e+07,-0.15655,0.00034153,-0.15689,-0.02118,0,-0.00019879,0,1,0,1
23666,2.541e+07,-0.15654,0.0011128,-0.15766,-0.021284,0,-0.00041346,0,1,0,1
23707,2.5421e+07,-0.15661,0.0020707,-0.15868,-0.021422,0,-0.00027291,0,1,0,1
23749,2.5431e+07,-0.15669,0.0037049,-0.1604,-0.021654,0,-0.00069475,0,1,0,1
23791,2.544e+07,-0.15689,0.0064712,-0.16336,-0.022054,0,-0.00085076,0,1,0,1
23836,2.5451e+07,-0.15715,0.0039491,-0.1611,-0.021749,0,0.00073556,0,1,0,1
23878,2.5461e+07,-0.15735,0.0024304,-0.15978,-0.021571,0,0.00082046,0,1,0,1
23918,2.5471e+07,-0.15747,0.0019224,-0.1594,-0.021518,0,0.00026927,0,1,0,1
23960,2.548e+07,-0.1576,0.0018517,-0.15946,-0.021527,0,0.00039668,0,1,0,1
24000,2.5491e+07,-0.15767,-0.00080375,-0.15686,-0.021176,0,0.00092015,0,1,0,1
24041,2.5501e+07,-0.15764,-0.0031538,-0.15448,-0.020855,0,0.0010549,0,1,0,1
24081,2.5511e+07,-0.15754,-0.0013791,-0.15616,-0.021082,0,-0.00022722,0,1,0,1
24122,2.5521e+07,-0.15741,-0.0030134,-0.1544,-0.020844,0,0.00011409,0,1,0,1
24163,2.5531e+07,-0.15721,-0.00371,-0.1535,-0.020723,0,-0.00026087,0,1,0,1
24204,2.5541e+07,-0.15706,-0.0020388,-0.15502,-0.020927,0,-0.0004957,0,1,0,1
24249,2.5551e+07,-0.15691,-0.003703,-0.15321,-0.020683,0,0.00021621,0,1,0,1
24289,2.5561e+07,-0.15683,-0.00112,-0.15571,-0.021021,0,-0.00018433,0,1,0,1
24331,2.5571e+07,-0.15679,0.0010649,-0.15785,-0.02131,0,-0.0006872,0,1,0,1
24372,2.5581e+07,-0.15682,0.0023676,-0.15919,-0.02149,0,-0.0005694,0,1,0,1
24413,2.5591e+07,-0.15694,0.0049057,-0.16184,-0.021849,0,-0.00086138,0,1,0,1
24450,2.5602e+07,-0.15719,0.006361,-0.16355,-0.022079,0,-0.00040963,0,1,0,1
24491,2.5612e+07,-0.15744,0.005071,-0.16251,-0.021939,0,9.6276e-05,0,1,0,1
24533,2.5622e+07,-0.1577,0.00525,-0.16295,-0.021998,0,5.6134e-05,0,1,0,1
24573,2.5632e+07,-0.15788,0.0023636,-0.16025,-0.021633,0,0.00062994,0,1,0,1
24616,2.5643e+07,-0.158,0.0013085,-0.15931,-0.021507,0,0.00040392,0,1,0,1
24667,2.5654e+07,-0.15806,-0.00028558,-0.15778,-0.0213,0,0.00060462,0,1,0,1
24708,2.5664e+07,-0.15797,-0.0045175,-0.15345,-0.020716,0,0.0010639,0,1,0,1
24749,2.5674e+07,-0.15772,-0.0075559,-0.15016,-0.020272,0,0.00091652,0,1,0,1
24790,2.5684e+07,-0.15744,-0.0062028,-0.15124,-0.020417,0,0.0001004,0,1,0,1
24831,2.5697e+07,-0.15713,-0.0048371,-0.1523,-0.02056,0,1.7516e-05,0,1,0,1
24872,2.5707e+07,-0.15684,-0.0076796,-0.14917,-0.020137,0,0.00066788,0,1,0,1
24913,2.5718e+07,-0.15658,-0.002344,-0.15424,-0.020822,0,-0.0013296,0,1,0,1
24953,2.5728e+07,-0.15646,0.0025127,-0.15897,-0.021461,0,-0.0019412,0,1,0,1
24994,2.5738e+07,-0.15652,0.003205,-0.15972,-0.021563,0,-0.00070388,0,1,0,1
25034,2.5749e+07,-0.15668,0.0048171,-0.1615,-0.021802,0,-0.00047703,0,1,0,1
25081,2.5759e+07,-0.15696,0.0072612,-0.16422,-0.02217,0,-0.00047392,0,1,0,1
25122,2.5769e+07,-0.15728,0.0097426,-0.16703,-0.022548,0,-0.0010191,0,1,0,1
25163,2.5779e+07,-0.15758,0.0079149,-0.1655,-0.022342,0,-0.00060094,0,1,0,1
25205,2.579e+07,-0.15787,0.0062699,-0.16414,-0.022159,0,-0.00019809,0,1,0,1
25245,2.58e+07,-0.15811,0.0014079,-0.15952,-0.021535,0,0.0013272,0,1,0,1
25286,2.581e+07,-0.15821,-0.0023991,-0.15581,-0.021034,0,0.0016781,0,1,0,1
25326,2.5821e+07,-0.15819,-0.0015179,-0.15667,-0.02115,0,0.00034359,0,1,0,1
25366,2.5831e+07,-0.15801,-0.0057272,-0.15228,-0.020558,0,0.00081841,0,1,0,1
25406,2.5841e+07,-0.15772,-0.0055765,-0.15214,-0.020539,0,-0.00029911,0,1,0,1
25449,2.5851e+07,-0.15746,-0.0051818,-0.15228,-0.020557,0,-0.00012692,0,1,0,1
25494,2.5861e+07,-0.15724,-0.0056644,-0.15157,-0.020462,0,0.00040961,0,1,0,1
25534,2.5871e+07,-0.15701,-0.0058925,-0.15112,-0.020401,0,0.00049477,0,1,0,1
25576,2.5881e+07,-0.15679,-0.0018902,-0.1549,-0.020912,0,-0.0010123,0,1,0,1
25617,2.5891e+07,-0.1566,-0.0036525,-0.15294,-0.020647,0,-0.00018218,0,1,0,1
25658,2.5901e+07,-0.1565,-0.0016238,-0.15487,-0.020908,0,-0.00022149,0,1,0,1
25696,2.5911e+07,-0.15653,0.0037291,-0.16026,-0.021636,0,-0.0010024,0,1,0,1
25736,2.5922e+07,-0.1567,0.005141,-0.16184,-0.021848,0,-0.00049168,0,1,0,1
25777,2.5932e+07,-0.15698,0.0063004,-0.16328,-0.022043,0,-4.6866e-05,0,1,0,1
25817,2.5942e+07,-0.1573,0.0081825,-0.16548,-0.02234,0,-0.00053972,0,1,0,1
25859,2.5953e+07,-0.15765,0.0076719,-0.16532,-0.022319,0,-0.0001199,0,1,0,1
25904,2.5963e+07,-0.15789,0.0047509,-0.16264,-0.021956,0,-7.7175e-05,0,1,0,1
25944,2.5973e+07,-0.15808,0.0046248,-0.16271,-0.021965,0,-0.00031991,0,1,0,1
25987,2.5983e+07,-0.15822,-0.00019177,-0.15803,-0.021334,0,0.0010982,0,1,0,1
26025,2.5993e+07,-0.15824,-0.0053652,-0.15287,-0.020638,0,0.0021839,0,1,0,1
26067,2.6003e+07,-0.15806,-0.0060914,-0.15197,-0.020515,0,0.00078665,0,1,0,1
26108,2.6013e+07,-0.1578,-0.0080189,-0.14978,-0.020221,0,0.00097653,0,1,0,1
26148,2.6026e+07,-0.15745,-0.0060505,-0.1514,-0.020439,0,-0.00010276,0,1,0,1
26191,2.6036e+07,-0.15718,-0.0055136,-0.15166,-0.020474,0,-3.3038e-06,0,1,0,1
26231,2.6046e+07,-0.15695,-0.0018885,-0.15506,-0.020933,0,-0.0010803,0,1,0,1
26273,2.6056e+07,-0.15686,0.0022698,-0.15913,-0.021483,0,-0.0014272,0,1,0,1
26318,2.6067e+07,-0.15687,0.001361,-0.15824,-0.021362,0,-0.00031239,0,1,0,1
26358,2.6078e+07,-0.15688,0.0033779,-0.16026,-0.021635,0,-0.0012511,0,1,0,1
26399,2.6088e+07,-0.157,0.0041822,-0.16119,-0.02176,0,-0.00066336,0,1,0,1
26441,2.6098e+07,-0.15724,0.0065528,-0.16379,-0.022112,0,-0.00060092,0,1,0,1
26479,2.6111e+07,-0.1576,0.006552,-0.16415,-0.02216,0,0.00017144,0,1,0,1
26520,2.6121e+07,-0.15791,0.0045864,-0.1625,-0.021937,0,0.00057698,0,1,0,1
26560,2.6131e+07,-0.15815,0.0024481,-0.16059,-0.02168,0,0.00094738,0,1,0,1
26602,2.6141e+07,-0.15829,0.0023616,-0.16065,-0.021688,0,0.00027342,0,1,0,1
26642,2.6151e+07,-0.15834,-0.0035182,-0.15482,-0.020901,0,0.0017204,0,1,0,1
26687,2.6161e+07,-0.15823,-0.0045816,-0.15365,-0.020743,0,0.00082607,0,1,0,1
26727,2.6171e+07,-0.15803,-0.0082058,-0.14982,-0.020226,0,0.0014437,0,1,0,1
26769,2.6181e+07,-0.15772,-0.0071547,-0.15057,-0.020327,0,0.00019301,0,1,0,1
26810,2.6191e+07,-0.15742,-0.0070952,-0.15032,-0.020294,0,0.00032293,0,1,0,1
26850,2.6204e+07,-0.15701,-0.0077955,-0.14921,-0.020143,0,0.000302,0,1,0,1
26891,2.6214e+07,-0.15669,-0.0052339,-0.15146,-0.020447,0,-0.00050209,0,1,0,1
26931,2.6224e+07,-0.15652,0.00090041,-0.15742,-0.021252,0,-0.0017024,0,1,0,1
26973,2.6234e+07,-0.15647,0.0032351,-0.15971,-0.021561,0,-0.0015527,0,1,0,1
27016,2.6244e+07,-0.15663,0.0048853,-0.16152,-0.021805,0,-0.00051816,0,1,0,1
27059,2.6254e+07,-0.15681,0.0034394,-0.16025,-0.021633,0,0.00021047,0,1,0,1
27104,2.6264e+07,-0.15704,0.0058737,-0.16292,-0.021994,0,-0.00028366,0,1,0,1
27144,2.6274e+07,-0.15731,0.0080287,-0.16534,-0.022321,0,-0.00079508,0,1,0,1
27185,2.6284e+07,-0.15762,0.0075162,-0.16514,-0.022294,0,-0.00033201,0,1,0,1
27225,2.6294e+07,-0.15788,0.0026261,-0.1605,-0.021668,0,0.0010929,0,1,0,1
27267,2.6304e+07,-0.15801,0.00076155,-0.15878,-0.021435,0,0.00086668,0,1,0,1
27301,2.6314e+07,-0.15804,-0.0029989,-0.15504,-0.020931,0,0.0012749,0,1,0,1
27342,2.6324e+07,-0.15801,-0.0023512,-0.15565,-0.021013,0,0.0006607,0,1,0,1
27384,2.6335e+07,-0.15785,-0.0063803,-0.15147,-0.020449,0,0.0012746,0,1,0,1
27425,2.6345e+07,-0.15754,-0.0092129,-0.14833,-0.020024,0,0.0010462,0,1,0,1
27466,2.6355e+07,-0.15723,-0.0081744,-0.14906,-0.020123,0,0.00073617,0,1,0,1
27511,2.6365e+07,-0.15697,-0.0041358,-0.15284,-0.020633,0,-0.00044437,0,1,0,1
27551,2.6375e+07,-0.15677,-0.0021187,-0.15465,-0.020878,0,-0.0006995,0,1,0,1
27592,2.6385e+07,-0.15661,-0.0010794,-0.15553,-0.020996,0,-0.00097046,0,1,0,1
27632,2.6395e+07,-0.15651,-0.00047381,-0.15604,-0.021065,0,-0.00058309,0,1,0,1
27670,2.6406e+07,-0.15656,0.0022203,-0.15878,-0.021436,0,-0.00037512,0,1,0,1
27715,2.6418e+07,-0.15679,0.0052111,-0.162,-0.02187,0,-0.00031077,0,1,0,1
27759,2.643e+07,-0.15717,0.0089472,-0.16612,-0.022426,0,-0.00086893,0,1,0,1
27803,2.6441e+07,-0.15753,0.0062155,-0.16374,-0.022105,0,0.0005972,0,1,0,1
27844,2.6451e+07,-0.15782,0.0051142,-0.16293,-0.021996,0,0.0003575,0,1,0,1
27885,2.6461e+07,-0.15805,0.0044161,-0.16246,-0.021932,0,6.0309e-05,0,1,0,1
27930,2.6471e+07,-0.1582,0.0037513,-0.16195,-0.021863,0,-0.00028823,0,1,0,1
27971,2.6481e+07,-0.15828,0.001233,-0.15952,-0.021535,0,0.00017933,0,1,0,1
28012,2.6491e+07,-0.15829,-0.0023466,-0.15594,-0.021052,0,0.00083993,0,1,0,1
28052,2.6501e+07,-0.15821,-0.0035328,-0.15468,-0.020881,0,0.00068191,0,1,0,1
28087,2.6512e+07,-0.15803,-0.0066526,-0.15137,-0.020436,0,0.0010152,0,1,0,1
28128,2.6521e+07,-0.15772,-0.0072071,-0.15051,-0.020319,0,0.00031572,0,1,0,1
28169,2.6532e+07,-0.15741,-0.0065703,-0.15084,-0.020363,0,-5.3804e-05,0,1,0,1
28210,2.6542e+07,-0.15708,-0.0067152,-0.15036,-0.020299,0,-0.00015203,0,1,0,1
28251,2.6552e+07,-0.15677,-0.0043077,-0.15246,-0.020583,0,-0.00086748,0,1,0,1
28292,2.6562e+07,-0.15663,-0.0024482,-0.15418,-0.020814,0,-0.00013452,0,1,0,1
28337,2.6572e+07,-0.15653,0.0011606,-0.15769,-0.021288,0,-0.0012035,0,1,0,1
28378,2.6582e+07,-0.15653,0.0056196,-0.16215,-0.021891,0,-0.0021463,0,1,0,1
28419,2.6593e+07,-0.15674,0.0080351,-0.16478,-0.022245,0,-0.0013976,0,1,0,1
28459,2.6605e+07,-0.15714,0.0099294,-0.16707,-0.022555,0,-0.0012782,0,1,0,1
28500,2.6616e+07,-0.15748,0.005643,-0.16312,-0.022021,0,0.00032245,0,1,0,1
28541,2.6626e+07,-0.15777,0.0049352,-0.1627,-0.021965,0,0.00035184,0,1,0,1
28582,2.6637e+07,-0.15802,0.0044313,-0.16245,-0.021931,0,0.00021951,0,1,0,1
28625,2.6647e+07,-0.15815,-0.0019057,-0.15624,-0.021093,0,0.0018091,0,1,0,1
28666,2.6656e+07,-0.15807,-0.0061415,-0.15193,-0.020511,0,0.0017214,0,1,0,1
28716,2.6669e+07,-0.15782,-0.0059975,-0.15182,-0.020496,0,0.00064108,0,1,0,1
28757,2.668e+07,-0.15759,-0.0070818,-0.15051,-0.020319,0,0.00087831,0,1,0,1
28798,2.669e+07,-0.15731,-0.0074911,-0.14981,-0.020225,0,0.00074558,0,1,0,1
28838,2.67e+07,-0.15703,-0.0042348,-0.15279,-0.020627,0,-0.00057753,0,1,0,1
28879,2.671e+07,-0.15688,-0.0018044,-0.15508,-0.020935,0,-0.00042185,0,1,0,1
28916,2.672e+07,-0.15683,-0.000974,-0.15585,-0.02104,0,3.3761e-05,0,1,0,1
28957,2.673e+07,-0.15677,0.0012209,-0.15799,-0.021329,0,-0.00086448,0,1,0,1
28998,2.6741e+07,-0.15684,0.0038009,-0.16064,-0.021686,0,-0.0009217,0,1,0,1
29041,2.6751e+07,-0.15707,0.0088677,-0.16594,-0.022401,0,-0.0014669,0,1,0,1
29083,2.6761e+07,-0.1574,0.0068058,-0.16421,-0.022168,0,0.00026647,0,1,0,1
29127,2.6771e+07,-0.1577,0.0062214,-0.16392,-0.02213,0,0.00011273,0,1,0,1
29168,2.6781e+07,-0.15796,0.0044821,-0.16244,-0.02193,0,0.00040096,0,1,0,1
29209,2.6791e+07,-0.1582,0.0042384,-0.16244,-0.021929,0,0.00032315,0,1,0,1
29250,2.6801e+07,-0.15834,0.00030482,-0.15865,-0.021417,0,0.001096,0,1,0,1
29290,2.6811e+07,-0.15834,-0.002963,-0.15537,-0.020975,0,0.0010806,0,1,0,1
29331,2.6821e+07,-0.1582,-0.0058686,-0.15233,-0.020565,0,0.0011298,0,1,0,1
29372,2.6831e+07,-0.15799,-0.0063848,-0.15161,-0.020467,0,0.00075607,0,1,0,1
29413,2.6841e+07,-0.15772,-0.0050083,-0.15271,-0.020616,0,-0.00027431,0,1,0,1
29456,2.6851e+07,-0.15738,-0.008662,-0.14872,-0.020077,0,0.0005327,0,1,0,1
29498,2.6862e+07,-0.15709,-0.0043901,-0.1527,-0.020614,0,-0.00078919,0,1,0,1
29542,2.6872e+07,-0.15685,-0.0026291,-0.15422,-0.02082,0,-0.00078859,0,1,0,1
29584,2.6882e+07,-0.15671,-0.0040904,-0.15262,-0.020603,0,0.00046625,0,1,0,1
29624,2.6893e+07,-0.15662,-0.0017228,-0.1549,-0.020911,0,1.6246e-05,0,1,0,1
29666,2.6903e+07,-0.15664,0.0025516,-0.15919,-0.021491,0,-0.00073016,0,1,0,1
29706,2.6913e+07,-0.15677,0.0053908,-0.16216,-0.021892,0,-0.00089369,0,1,0,1
29747,2.6923e+07,-0.15695,0.0054988,-0.16244,-0.02193,0,-0.00059482,0,1,0,1
29784,2.6933e+07,-0.15715,0.0057434,-0.16289,-0.02199,0,-0.00058427,0,1,0,1
29826,2.6943e+07,-0.1574,0.0059323,-0.16333,-0.02205,0,-0.00024547,0,1,0,1
29867,2.6954e+07,-0.15763,0.0024149,-0.16005,-0.021607,0,0.0010181,0,1,0,1
29907,2.6964e+07,-0.15768,-0.001918,-0.15577,-0.021028,0,0.001102,0,1,0,1
29952,2.6974e+07,-0.15766,-0.0014788,-0.15619,-0.021085,0,0.00044416,0,1,0,1
29993,2.6984e+07,-0.15764,-0.00033833,-0.1573,-0.021236,0,-8.6134e-05,0,1,0,1
30034,2.6994e+07,-0.15754,-0.0042433,-0.1533,-0.020695,0,0.0008274,0,1,0,1
30075,2.7004e+07,-0.15739,-0.0026801,-0.15471,-0.020885,0,-0.00025091,0,1,0,1
30113,2.7014e+07,-0.15726,-0.0022224,-0.15503,-0.02093,0,-0.00025127,0,1,0,1
30152,2.7025e+07,-0.15715,-0.003159,-0.15399,-0.020788,0,0.0003007,0,1,0,1
30192,2.7035e+07,-0.15694,-0.0064409,-0.1505,-0.020317,0,0.00089243,0,1,0,1
30234,2.7045e+07,-0.15669,-0.0053749,-0.15132,-0.020428,0,7.244e-05,0,1,0,1
30276,2.7055e+07,-0.15661,0.0019741,-0.15859,-0.021409,0,-0.0013532,0,1,0,1
30317,2.7065e+07,-0.15662,0.00094808,-0.15757,-0.021272,0,-0.00012654,0,1,0,1
30362,2.7075e+07,-0.15665,0.00015955,-0.15681,-0.021169,0,0.00018838,0,1,0,1
30402,2.7086e+07,-0.15672,0.0035917,-0.16032,-0.021643,0,-0.00071027,0,1,0,1
30445,2.7096e+07,-0.15692,0.0064637,-0.16338,-0.022056,0,-0.00092111,0,1,0,1
30485,2.7106e+07,-0.15716,0.0047978,-0.16195,-0.021864,0,0.00018556,0,1,0,1
30520,2.7116e+07,-0.15734,0.0025024,-0.15984,-0.021579,0,0.00070686,0,1,0,1
30561,2.7126e+07,-0.15753,0.0055226,-0.16305,-0.022011,0,-0.00066766,0,1,0,1
30602,2.7136e+07,-0.15772,0.0044088,-0.16213,-0.021888,0,-7.0028e-05,0,1,0,1
30643,2.7146e+07,-0.15787,0.0011275,-0.159,-0.021465,0,0.00081229,0,1,0,1
30683,2.7157e+07,-0.1579,-0.0024221,-0.15548,-0.02099,0,0.0011836,0,1,0,1
30724,2.7167e+07,-0.15777,-0.0049285,-0.15285,-0.020634,0,0.00080375,0,1,0,1
30768,2.7177e+07,-0.15761,-0.0034074,-0.15421,-0.020818,0,-7.5817e-05,0,1,0,1
30809,2.7187e+07,-0.15745,-0.0049479,-0.1525,-0.020588,0,0.00058885,0,1,0,1
30852,2.7197e+07,-0.15727,-0.0043404,-0.15293,-0.020646,0,0.00024588,0,1,0,1
30895,2.721e+07,-0.15699,-0.005658,-0.15133,-0.02043,0,0.00041314,0,1,0,1
30936,2.7221e+07,-0.15681,-0.003129,-0.15368,-0.020747,0,-0.00012161,0,1,0,1
30973,2.7231e+07,-0.15667,-0.00085473,-0.15581,-0.021035,0,-0.00071713,0,1,0,1
31016,2.7241e+07,-0.15666,0.0017899,-0.15845,-0.021391,0,-0.00062776,0,1,0,1
31059,2.7251e+07,-0.15673,0.0033717,-0.16011,-0.021614,0,-0.00066287,0,1,0,1
31100,2.7261e+07,-0.15691,0.0051151,-0.16203,-0.021874,0,-0.00047023,0,1,0,1
31140,2.7271e+07,-0.15714,0.0054678,-0.1626,-0.021952,0,-0.00018971,0,1,0,1
31185,2.7281e+07,-0.15737,0.0044397,-0.16181,-0.021844,0,0.00020928,0,1,0,1
31226,2.7291e+07,-0.1575,0.0019905,-0.15949,-0.021531,0,0.00029379,0,1,0,1
31266,2.7301e+07,-0.15764,0.0029714,-0.16061,-0.021682,0,-5.7792e-05,0,1,0,1
31308,2.7311e+07,-0.15777,0.0017477,-0.15952,-0.021535,0,0.00045725,0,1,0,1
31348,2.7321e+07,-0.15781,-0.0015462,-0.15626,-0.021096,0,0.00089279,0,1,0,1
31383,2.7331e+07,-0.15776,-0.0032767,-0.15448,-0.020855,0,0.00079366,0,1,0,1
31425,2.7341e+07,-0.1576,-0.0051883,-0.15242,-0.020576,0,0.00071031,0,1,0,1
31465,2.7352e+07,-0.15737,-0.0048369,-0.15254,-0.020592,0,-9.5669e-05,0,1,0,1
31506,2.7362e+07,-0.15716,-0.0046524,-0.15251,-0.020589,0,0.0001422,0,1,0,1
31546,2.7372e+07,-0.15696,-0.0048843,-0.15208,-0.02053,0,0.000275,0,1,0,1
31591,2.7382e+07,-0.15684,-0.0010651,-0.15577,-0.021029,0,-0.0005613,0,1,0,1
31632,2.7392e+07,-0.15676,-0.0015657,-0.15519,-0.020951,0,4.0279e-05,0,1,0,1
31673,2.7403e+07,-0.15674,0.001884,-0.15862,-0.021414,0,-0.00087186,0,1,0,1
31715,2.7413e+07,-0.15677,0.0019445,-0.15871,-0.021426,0,-0.0005027,0,1,0,1
31757,2.7426e+07,-0.15697,0.0044263,-0.16139,-0.021788,0,-0.00019307,0,1,0,1
31803,2.7439e+07,-0.15722,0.0044856,-0.1617,-0.02183,0,-0.00014469,0,1,0,1
31844,2.745e+07,-0.15743,0.0049668,-0.1624,-0.021924,0,-0.00022023,0,1,0,1
31885,2.746e+07,-0.15765,0.0037843,-0.16144,-0.021794,0,0.0003826,0,1,0,1
31925,2.747e+07,-0.15778,-0.00065362,-0.15713,-0.021213,0,0.0013347,0,1,0,1
31970,2.748e+07,-0.15779,-0.0019958,-0.15579,-0.021032,0,0.00078247,0,1,0,1
32011,2.749e+07,-0.15772,-0.0035914,-0.15413,-0.020807,0,0.00082193,0,1,0,1
32051,2.75e+07,-0.1576,-0.003658,-0.15394,-0.020782,0,0.00044677,0,1,0,1
32092,2.751e+07,-0.15742,-0.0046742,-0.15275,-0.020621,0,0.00038011,0,1,0,1
32133,2.752e+07,-0.15718,-0.0055616,-0.15162,-0.020468,0,0.00012129,0,1,0,1
32168,2.753e+07,-0.157,-0.0023659,-0.15464,-0.020876,0,-0.00053168,0,1,0,1
32208,2.7541e+07,-0.15689,-0.0045103,-0.15238,-0.020571,0,0.00095733,0,1,0,1
32249,2.7551e+07,-0.15677,-0.0009585,-0.15581,-0.021034,0,-0.00054201,0,1,0,1
32291,2.7561e+07,-0.1567,0.00056285,-0.15726,-0.02123,0,-0.00070971,0,1,0,1
32331,2.7571e+07,-0.1567,0.0016408,-0.15835,-0.021377,0,-0.00056169,0,1,0,1
32376,2.7581e+07,-0.15681,0.0030448,-0.15986,-0.021581,0,-0.00021757,0,1,0,1
32416,2.7591e+07,-0.15697,0.0032481,-0.16022,-0.021629,0,5.4636e-05,0,1,0,1
32458,2.7601e+07,-0.15713,0.0047874,-0.16191,-0.021858,0,-0.00049357,0,1,0,1
32498,2.7611e+07,-0.15733,0.0035484,-0.16088,-0.021719,0,0.00040469,0,1,0,1
32540,2.7621e+07,-0.15748,0.0015447,-0.15902,-0.021468,0,0.00063394,0,1,0,1
32575,2.7631e+07,-0.15759,0.0023347,-0.15993,-0.02159,0,0.00011802,0,1,0,1
32617,2.7642e+07,-0.15765,1.0346e-05,-0.15766,-0.021284,0,0.00044095,0,1,0,1
32659,2.7652e+07,-0.15765,-0.0011791,-0.15647,-0.021124,0,0.00043758,0,1,0,1
32700,2.7662e+07,-0.15757,-0.0026173,-0.15496,-0.020919,0,0.00039409,0,1,0,1
32740,2.7672e+07,-0.15746,-0.0038816,-0.15358,-0.020733,0,0.00059605,0,1,0,1
32790,2.7685e+07,-0.15723,-0.0044856,-0.15275,-0.020621,0,0.00014894,0,1,0,1
32831,2.7695e+07,-0.15705,-0.002611,-0.15444,-0.020849,0,-0.0004719,0,1,0,1
32872,2.7705e+07,-0.15693,-0.00078333,-0.15614,-0.021079,0,-0.00068668,0,1,0,1
32912,2.7715e+07,-0.15683,-0.0018506,-0.15498,-0.020923,0,-5.9822e-05,0,1,0,1
32953,2.7728e+07,-0.15672,-0.00057021,-0.15615,-0.021081,0,-0.00050077,0,1,0,1
32994,2.7738e+07,-0.15671,0.0036992,-0.16041,-0.021655,0,-0.0015462,0,1,0,1
33037,2.7748e+07,-0.15682,0.0039501,-0.16077,-0.021703,0,-0.00059643,0,1,0,1
33078,2.7758e+07,-0.15698,0.0045644,-0.16155,-0.021809,0,-0.00033531,0,1,0,1
33119,2.7768e+07,-0.15718,0.0044646,-0.16165,-0.021822,0,-0.00010141,0,1,0,1
33160,2.7779e+07,-0.15737,0.0031703,-0.16054,-0.021673,0,0.00026652,0,1,0,1
33204,2.7789e+07,-0.15751,0.0023607,-0.15987,-0.021582,0,0.00023178,0,1,0,1
33245,2.7799e+07,-0.15756,0.00011806,-0.15767,-0.021286,0,0.00028016,0,1,0,1
33287,2.7809e+07,-0.15758,-0.00087697,-0.1567,-0.021154,0,0.00048957,0,1,0,1
33327,2.7819e+07,-0.15754,-0.000628,-0.15691,-0.021183,0,-2.1488e-05,0,1,0,1
33369,2.7832e+07,-0.15749,-0.0030881,-0.1544,-0.020844,0,0.00085207,0,1,0,1
33410,2.7842e+07,-0.15738,-0.0023885,-0.15499,-0.020924,0,1.6763e-06,0,1,0,1
33453,2.7852e+07,-0.15721,-0.0033766,-0.15383,-0.020768,0,-8.9895e-05,0,1,0,1
33495,2.7862e+07,-0.15705,-0.0014967,-0.15555,-0.021,0,-0.00078022,0,1,0,1
33535,2.7873e+07,-0.15697,-0.00065695,-0.15631,-0.021102,0,-0.00039966,0,1,0,1
33576,2.7882e+07,-0.15693,-0.001502,-0.15543,-0.020982,0,0.00029883,0,1,0,1
33620,2.7892e+07,-0.15686,-0.001292,-0.15557,-0.021002,0,7.203e-06,0,1,0,1
33662,2.7903e+07,-0.15685,0.0018292,-0.15868,-0.021422,0,-0.00081304,0,1,0,1
33702,2.7913e+07,-0.15692,0.00283,-0.15975,-0.021566,0,-0.00052637,0,1,0,1
33743,2.7923e+07,-0.15699,0.0013101,-0.1583,-0.02137,0,0.00010123,0,1,0,1
33784,2.7936e+07,-0.1571,0.0036546,-0.16075,-0.021701,0,-0.00064644,0,1,0,1
33824,2.7946e+07,-0.15723,0.0043448,-0.16158,-0.021813,0,-0.00052742,0,1,0,1
33866,2.7956e+07,-0.15742,0.0044227,-0.16184,-0.021849,0,-0.00028759,0,1,0,1
