LineNo,TimeUS,Tar,Act,Err,P,I,D,FF,Dmod,SRate,Limit
300,1.9492e+07,0.013823,0.010351,0.0039117,0.00070411,0,0,0,1,0,1
644,1.9558e+07,0.013827,0.0095502,0.0043665,0.00078596,0,0,0,1,0,1
871,1.9603e+07,0.013829,0.011948,0.0038818,0.00069873,0,0,0,1,0,1
1213,1.9764e+07,0.013829,0.010253,0.0038705,0.0006967,0,0,0,1,0,1
1489,1.9835e+07,0.013824,0.0061295,0.0046867,0.0008436,0,0,0,1,0,1
1584,1.9858e+07,0.013827,0.0083147,0.0050589,0.0009106,0,0,0,1,0,1
1624,1.9868e+07,0.013828,0.0094645,0.0050315,0.00090567,0,0,0,1,0,1
1666,1.9877e+07,0.013829,0.0079697,0.0050472,0.0009085,0,0,0,1,0,1
1707,1.9887e+07,0.013831,0.0087482,0.0050745,0.00091341,0,0,0,1,0,1
1747,1.99e+07,0.013832,0.0093776,0.0049031,0.00088256,0,0,0,1,0,1
1788,1.9911e+07,0.013832,0.0079272,0.0049824,0.00089684,0,0,0,1,0,1
1828,1.9921e+07,0.013831,0.01104,0.0047646,0.00085762,0,0,0,1,0,1
1870,1.9931e+07,0.01383,0.011496,0.0045633,0.0008214,0,0,0,1,0,1
1910,1.9941e+07,0.013829,0.011013,0.0043724,0.00078703,0,0,0,1,0,1
1951,1.9951e+07,0.013828,0.010472,0.0041849,0.00075328,0,0,0,1,0,1
1996,1.9961e+07,0.010598,0.0094358,0.0040602,0.00073084,0,0,0,1,0,1
2039,1.9972e+07,0.0041657,0.0072528,0.0033045,0.00059481,0,0,0,1,0,1
2080,1.9982e+07,0.0022921,0.010946,0.0022231,0.00040016,0,0,0,1,0,1
2120,1.9992e+07,0.0017479,0.0086067,0.0010107,0.00018192,0,0,0,1,0,1
2161,2.0003e+07,0.0015904,0.0067619,0.00025267,4.5481e-05,0,0,0,1,0,1
2202,2.0013e+07,0.0015451,0.0069229,-0.00035548,-6.3986e-05,0,0,0,1,0,1
2243,2.0023e+07,0.0015318,0.009148,-0.0010887,-0.00019596,0,0,0,1,0,1
2284,2.0033e+07,0.0015279,0.0090934,-0.0018428,-0.0003317,0,0,0,1,0,1
2324,2.0044e+07,0.0015255,0.0078208,-0.0023684,-0.00042631,0,0,0,1,0,1
2367,2.0054e+07,0.0015244,0.0085763,-0.0029507,-0.00053112,0,0,0,1,0,1
2411,2.0064e+07,0.0015238,0.009903,-0.0035142,-0.00063256,0,0,0,1,0,1
2452,2.0074e+07,0.001523,0.0093836,-0.0040159,-0.00072286,0,0,0,1,0,1
2495,2.0084e+07,0.0015217,0.0089854,-0.0043802,-0.00078844,0,0,0,1,0,1
2535,2.0094e+07,0.0015207,0.010008,-0.0048677,-0.00087618,0,0,0,1,0,1
2575,2.0104e+07,0.001521,0.0085832,-0.0051138,-0.00092049,0,0,0,1,0,1
2613,2.0115e+07,0.001521,0.0083063,-0.0053624,-0.00096524,0,0,0,1,0,1
2654,2.0125e+07,0.0015222,0.0087745,-0.0055399,-0.00099718,0,0,0,1,0,1
2695,2.0135e+07,0.0015224,0.0090599,-0.0058283,-0.0010491,0,0,0,1,0,1
2736,2.0145e+07,0.0015235,0.0086459,-0.0058795,-0.0010583,0,0,0,1,0,1
2777,2.0155e+07,0.0015248,0.0093395,-0.0060835,-0.001095,0,0,0,1,0,1
2821,2.0165e+07,0.0015259,0.0091293,-0.0062681,-0.0011283,0,0,0,1,0,1
2863,2.0175e+07,0.0015268,0.0094972,-0.0064769,-0.0011658,0,0,0,1,0,1
2904,2.0185e+07,0.0015278,0.0084974,-0.006529,-0.0011752,0,0,0,1,0,1
2945,2.0195e+07,0.0015288,0.012155,-0.0068672,-0.0012361,0,0,0,1,0,1
2986,2.0205e+07,0.0015288,0.010148,-0.0071732,-0.0012912,0,0,0,1,0,1
3024,2.0215e+07,0.001529,0.0091749,-0.0072368,-0.0013026,0,0,0,1,0,1
3065,2.0225e+07,0.0015293,0.0096024,-0.0072819,-0.0013107,0,0,0,1,0,1
3105,2.0235e+07,0.001529,0.0097326,-0.0073577,-0.0013244,0,0,0,1,0,1
3146,2.0245e+07,0.0015283,0.0074871,-0.0073444,-0.001322,0,0,0,1,0,1
3189,2.0255e+07,0.0015275,0.010112,-0.0072858,-0.0013114,0,0,0,1,0,1
3234,2.0265e+07,0.001526,0.0074192,-0.0072881,-0.0013119,0,0,0,1,0,1
3275,2.0275e+07,0.0015253,0.0073606,-0.0070756,-0.0012736,0,0,0,1,0,1
3316,2.0285e+07,0.0015239,0.0083385,-0.007032,-0.0012658,0,0,0,1,0,1
3357,2.0295e+07,0.0015216,0.0093177,-0.0070562,-0.0012701,0,0,0,1,0,1
3397,2.0305e+07,0.0015206,0.0076398,-0.0070678,-0.0012722,0,0,0,1,0,1
3439,2.0316e+07,0.0015192,0.0092373,-0.0070384,-0.0012669,0,0,0,1,0,1
3479,2.0326e+07,-0.0017104,0.0083599,-0.0071916,-0.0012945,0,0,0,1,0,1
3520,2.0336e+07,-0.0081417,0.010368,-0.0081964,-0.0014754,0,0,0,1,0,1
3560,2.0346e+07,-0.010015,0.010905,-0.0095499,-0.001719,0,0,0,1,0,1
3602,2.0357e+07,-0.010559,0.0092231,-0.010787,-0.0019416,0,0,0,1,0,1
3650,2.0367e+07,-0.010718,0.0097378,-0.01188,-0.0021384,0,0,0,1,0,1
3690,2.0378e+07,-0.010764,0.0090848,-0.012785,-0.0023014,0,0,0,1,0,1
3731,2.0388e+07,-0.010776,0.0078513,-0.013569,-0.0024425,0,0,0,1,0,1
3775,2.0398e+07,-0.010778,0.0096964,-0.014249,-0.0025649,0,0,0,1,0,1
3812,2.0408e+07,-0.01078,0.0074676,-0.014794,-0.002663,0,0,0,1,0,1
3850,2.0418e+07,-0.01078,0.0092688,-0.015304,-0.0027547,0,0,0,1,0,1
3890,2.0428e+07,-0.010781,0.0092482,-0.015826,-0.0028488,0,0,0,1,0,1
3931,2.0438e+07,-0.010782,0.0073558,-0.01615,-0.0029071,0,0,0,1,0,1
3972,2.0449e+07,-0.010783,0.0073056,-0.016383,-0.002949,0,0,0,1,0,1
4014,2.0459e+07,-0.010786,0.0086687,-0.016731,-0.0030115,0,0,0,1,0,1
4060,2.0469e+07,-0.010787,0.0092615,-0.017089,-0.0030761,0,0,0,1,0,1
4100,2.048e+07,-0.010788,0.0085663,-0.017383,-0.003129,0,0,0,1,0,1
4142,2.049e+07,-0.010788,0.0083544,-0.017573,-0.0031631,0,0,0,1,0,1
4183,2.05e+07,-0.010787,0.006364,-0.017568,-0.0031622,0,0,0,1,0,1
4220,2.051e+07,-0.010787,0.0073673,-0.017605,-0.0031689,0,0,0,1,0,1
4262,2.052e+07,-0.010786,0.0079775,-0.017747,-0.0031944,0,0,0,1,0,1
4302,2.053e+07,-0.010786,0.0080914,-0.0179,-0.0032219,0,0,0,1,0,1
4343,2.054e+07,-0.010787,0.0094435,-0.01807,-0.0032526,0,0,0,1,0,1
4383,2.055e+07,-0.010789,0.0092066,-0.018341,-0.0033013,0,0,0,1,0,1
4424,2.056e+07,-0.01079,0.010122,-0.01853,-0.0033354,0,0,0,1,0,1
4471,2.0571e+07,-0.010792,0.0099442,-0.018829,-0.0033892,0,0,0,1,0,1
4511,2.0581e+07,-0.010793,0.0098539,-0.019029,-0.0034253,0,0,0,1,0,1
4553,2.0591e+07,-0.010794,0.0076268,-0.019035,-0.0034262,0,0,0,1,0,1
4596,2.0603e+07,-0.010795,0.0096321,-0.01916,-0.0034488,0,0,0,1,0,1
4640,2.0616e+07,-0.010795,0.0091313,-0.019409,-0.0034936,0,0,0,1,0,1
4681,2.0626e+07,-0.010794,0.0083369,-0.019343,-0.0034818,0,0,0,1,0,1
4721,2.0636e+07,-0.010794,0.0062661,-0.019175,-0.0034515,0,0,0,1,0,1
4764,2.0646e+07,-0.010793,0.0097053,-0.019166,-0.0034498,0,0,0,1,0,1
4805,2.0656e+07,-0.010793,0.0079835,-0.019255,-0.0034658,0,0,0,1,0,1
4846,2.0667e+07,-0.010793,0.0077825,-0.01915,-0.0034469,0,0,0,1,0,1
4891,2.0678e+07,-0.010791,0.0073091,-0.019025,-0.0034246,0,0,0,1,0,1
4932,2.0687e+07,-0.01079,0.0086059,-0.019019,-0.0034234,0,0,0,1,0,1
4973,2.0697e+07,-0.010788,0.0090891,-0.019121,-0.0034418,0,0,0,1,0,1
5014,2.0708e+07,-0.010786,0.0079982,-0.01903,-0.0034254,0,0,0,1,0,1
5055,2.072e+07,-0.010785,0.01073,-0.019155,-0.0034479,0,0,0,1,0,1
5095,2.073e+07,-0.010784,0.0078805,-0.019272,-0.0034689,0,0,0,1,0,1
5137,2.074e+07,-0.010785,0.0085375,-0.019196,-0.0034553,0,0,0,1,0,1
5178,2.075e+07,-0.010786,0.0079973,-0.019152,-0.0034474,0,0,0,1,0,1
5218,2.076e+07,-0.010787,0.0086255,-0.019149,-0.0034469,0,0,0,1,0,1
5263,2.0771e+07,-0.010789,0.0083449,-0.019158,-0.0034484,0,0,0,1,0,1
5304,2.0781e+07,-0.010791,0.0070103,-0.019081,-0.0034346,0,0,0,1,0,1
5348,2.0791e+07,-0.010793,0.0086943,-0.018966,-0.0034138,0,0,0,1,0,1
5389,2.0801e+07,-0.010794,0.0078291,-0.019001,-0.0034201,0,0,0,1,0,1
5431,2.0811e+07,-0.010794,0.0082606,-0.018959,-0.0034126,0,0,0,1,0,1
5469,2.0824e+07,-0.010794,0.0096357,-0.019182,-0.0034527,0,0,0,1,0,1
5510,2.0834e+07,-0.010794,0.0074381,-0.019149,-0.0034467,0,0,0,1,0,1
5554,2.0844e+07,-0.010792,0.0093149,-0.019225,-0.0034605,0,0,0,1,0,1
5595,2.0854e+07,-0.01079,0.0093529,-0.01935,-0.003483,0,0,0,1,0,1
5635,2.0864e+07,-0.010788,0.0081999,-0.019301,-0.0034742,0,0,0,1,0,1
5680,2.0875e+07,-0.010785,0.0098575,-0.019312,-0.0034762,0,0,0,1,0,1
5720,2.0885e+07,-0.010785,0.010229,-0.019497,-0.0035094,0,0,0,1,0,1
5763,2.0895e+07,-0.010783,0.010459,-0.019717,-0.0035491,0,0,0,1,0,1
5803,2.0905e+07,-0.010784,0.010741,-0.019878,-0.003578,0,0,0,1,0,1
5841,2.0915e+07,-0.010785,0.0095125,-0.019914,-0.0035845,0,0,0,1,0,1
5880,2.0925e+07,-0.010787,0.0074324,-0.019855,-0.0035739,0,0,0,1,0,1
5920,2.0935e+07,-0.010788,0.011045,-0.019852,-0.0035734,0,0,0,1,0,1
5962,2.0945e+07,-0.010788,0.0089923,-0.019978,-0.0035961,0,0,0,1,0,1
6003,2.0955e+07,-0.01079,0.0061381,-0.019718,-0.0035493,0,0,0,1,0,1
6043,2.0965e+07,-0.003387,0.0079158,-0.019048,-0.0034287,0,0,0,1,0,1
6088,2.0975e+07,8.2436e-05,0.0088739,-0.017892,-0.0032206,0,0,0,1,0,1
6128,2.0985e+07,0.0067282,0.007495,-0.016361,-0.0029449,0,0,0,1,0,1
6170,2.0995e+07,0.011746,0.0085386,-0.014244,-0.0025639,0,0,0,1,0,1
6211,2.1006e+07,0.013209,0.0074379,-0.012,-0.0021599,0,0,0,1,0,1
6251,2.1015e+07,0.013636,0.008328,-0.010003,-0.0018006,0,0,0,1,0,1
6289,2.1025e+07,0.013763,0.0075427,-0.0081336,-0.0014641,0,0,0,1,0,1
6330,2.1035e+07,0.013801,0.0084007,-0.0065637,-0.0011815,0,0,0,1,0,1
6374,2.1046e+07,0.013813,0.0089007,-0.005196,-0.00093528,0,0,0,1,0,1
6414,2.1056e+07,0.013815,0.0092874,-0.0040118,-0.00072213,0,0,0,1,0,1
6458,2.1068e+07,0.013811,0.0075285,-0.0026061,-0.00046909,0,0,0,1,0,1
6502,2.1078e+07,0.013806,0.0087766,-0.0016861,-0.00030349,0,0,0,1,0,1
6543,2.1088e+07,0.013801,0.010036,-0.0010587,-0.00019057,0,0,0,1,0,1
6585,2.1098e+07,0.013799,0.0067793,-0.00031483,-5.6669e-05,0,0,0,1,0,1
6625,2.1111e+07,0.013798,0.0073625,0.00062566,0.00011262,0,0,0,1,0,1
6663,2.1121e+07,0.010569,0.007123,0.0013078,0.0002354,0,0,0,1,0,1
6703,2.1131e+07,0.0041395,0.010076,0.00072466,0.00013044,0,0,0,1,0,1
6746,2.1141e+07,0.002269,0.0081014,-7.8093e-05,-1.4057e-05,0,0,0,1,0,1
6786,2.1151e+07,0.0017261,0.0099629,-0.0010226,-0.00018407,0,0,0,1,0,1
6827,2.1161e+07,0.0015699,0.010372,-0.0019377,-0.00034879,0,0,0,1,0,1
6868,2.1171e+07,0.0015257,0.0094211,-0.0026899,-0.00048417,0,0,0,1,0,1
6913,2.1182e+07,0.0015151,0.0095042,-0.0033084,-0.0005955,0,0,0,1,0,1
6954,2.1192e+07,0.0015128,0.0095693,-0.0039059,-0.00070307,0,0,0,1,0,1
6994,2.1202e+07,0.0015129,0.0075383,-0.0041671,-0.00075007,0,0,0,1,0,1
7035,2.1215e+07,0.0015132,0.0084536,-0.0045063,-0.00081113,0,0,0,1,0,1
7075,2.1225e+07,0.0015152,0.010919,-0.0049771,-0.00089587,0,0,0,1,0,1
7116,2.1235e+07,0.0015149,0.00878,-0.0053043,-0.00095477,0,0,0,1,0,1
7159,2.1245e+07,0.0015141,0.0085026,-0.0053725,-0.00096704,0,0,0,1,0,1
7201,2.1255e+07,0.0015135,0.011269,-0.0058797,-0.0010583,0,0,0,1,0,1
7242,2.1265e+07,0.0015138,0.0074422,-0.0059788,-0.0010762,0,0,0,1,0,1
7286,2.1276e+07,0.0015139,0.012294,-0.006384,-0.0011491,0,0,0,1,0,1
7328,2.1286e+07,0.0015141,0.0082299,-0.0066109,-0.00119,0,0,0,1,0,1
7369,2.1296e+07,0.0015136,0.012218,-0.0068725,-0.001237,0,0,0,1,0,1
7411,2.1306e+07,0.001513,0.0092541,-0.0071322,-0.0012838,0,0,0,1,0,1
7455,2.1321e+07,0.00151,0.0096934,-0.0072576,-0.0013064,0,0,0,1,0,1
7496,2.1331e+07,0.0015092,0.0077396,-0.0070949,-0.0012771,0,0,0,1,0,1
7537,2.1341e+07,0.0015086,0.0092808,-0.0071515,-0.0012873,0,0,0,1,0,1
7579,2.1351e+07,0.0015078,0.0080043,-0.0070518,-0.0012693,0,0,0,1,0,1
7619,2.1361e+07,0.0015067,0.0088443,-0.0070343,-0.0012662,0,0,0,1,0,1
7660,2.1371e+07,0.0015068,0.006931,-0.0069417,-0.0012495,0,0,0,1,0,1
7706,2.1381e+07,0.001508,0.0082738,-0.006877,-0.0012379,0,0,0,1,0,1
7747,2.1391e+07,0.0015103,0.00711,-0.0067416,-0.0012135,0,0,0,1,0,1
7789,2.1401e+07,0.001511,0.0078842,-0.0066944,-0.001205,0,0,0,1,0,1
7832,2.1413e+07,0.0015108,0.010092,-0.006811,-0.001226,0,0,0,1,0,1
7873,2.1426e+07,0.0015086,0.011141,-0.0070672,-0.0012721,0,0,0,1,0,1
7913,2.1436e+07,0.0015064,0.010911,-0.0074696,-0.0013445,0,0,0,1,0,1
7954,2.1446e+07,0.0015047,0.013205,-0.0076979,-0.0013856,0,0,0,1,0,1
7999,2.1457e+07,0.0015043,0.012204,-0.008089,-0.001456,0,0,0,1,0,1
8039,2.1467e+07,0.0015045,0.012781,-0.0084876,-0.0015278,0,0,0,1,0,1
8084,2.1477e+07,0.0015051,0.0089145,-0.0084629,-0.0015233,0,0,0,1,0,1
8124,2.1487e+07,0.0015067,0.0098099,-0.0084226,-0.0015161,0,0,0,1,0,1
8166,2.1497e+07,0.0015077,0.010401,-0.0083882,-0.0015099,0,0,0,1,0,1
8207,2.1507e+07,-0.0071954,0.0077093,-0.0090177,-0.0016232,0,0,0,1,0,1
8247,2.1518e+07,-0.0097414,0.0075348,-0.0098691,-0.0017764,0,0,0,1,0,1
8282,2.1528e+07,-0.01048,0.0040222,-0.010572,-0.0019029,0,0,0,1,0,1
8323,2.1538e+07,-0.010693,0.0067644,-0.011197,-0.0020155,0,0,0,1,0,1
8363,2.1548e+07,-0.010754,0.0046443,-0.011807,-0.0021252,0,0,0,1,0,1
8404,2.1558e+07,-0.010772,0.0074864,-0.01241,-0.0022338,0,0,0,1,0,1
8445,2.1568e+07,-0.01078,0.0072086,-0.013087,-0.0023556,0,0,0,1,0,1
8495,2.1581e+07,-0.010784,0.0089684,-0.013928,-0.0025071,0,0,0,1,0,1
8536,2.1591e+07,-0.010786,0.011912,-0.014806,-0.0026652,0,0,0,1,0,1
8577,2.1601e+07,-0.010788,0.0096212,-0.015563,-0.0028013,0,0,0,1,0,1
8618,2.1611e+07,-0.010791,0.012269,-0.01632,-0.0029375,0,0,0,1,0,1
8655,2.1621e+07,-0.010793,0.011097,-0.017022,-0.003064,0,0,0,1,0,1
8696,2.1633e+07,-0.010796,0.010096,-0.017601,-0.0031682,0,0,0,1,0,1
8738,2.1644e+07,-0.010796,0.011693,-0.018159,-0.0032686,0,0,0,1,0,1
8779,2.1655e+07,-0.010795,0.0092898,-0.0184,-0.003312,0,0,0,1,0,1
8821,2.1664e+07,-0.010793,0.0077975,-0.018457,-0.0033223,0,0,0,1,0,1
8862,2.1675e+07,-0.010791,0.005017,-0.018259,-0.0032867,0,0,0,1,0,1
8907,2.1685e+07,-0.01079,0.0066753,-0.018099,-0.0032577,0,0,0,1,0,1
8947,2.1695e+07,-0.01079,0.0050332,-0.017971,-0.0032348,0,0,0,1,0,1
8988,2.1705e+07,-0.01079,0.0063391,-0.017766,-0.0031978,0,0,0,1,0,1
9028,2.1715e+07,-0.01079,0.0072963,-0.017731,-0.0031916,0,0,0,1,0,1
9069,2.1725e+07,-0.010789,0.0074885,-0.017833,-0.00321,0,0,0,1,0,1
9107,2.1735e+07,-0.010786,0.0069388,-0.017849,-0.0032128,0,0,0,1,0,1
9147,2.1745e+07,-0.010784,0.0068932,-0.017819,-0.0032075,0,0,0,1,0,1
9188,2.1755e+07,-0.010783,0.0098972,-0.018052,-0.0032494,0,0,0,1,0,1
9228,2.1765e+07,-0.010783,0.011746,-0.018544,-0.003338,0,0,0,1,0,1
9269,2.1775e+07,-0.0075532,0.010356,-0.018854,-0.0033937,0,0,0,1,0,1
9313,2.1785e+07,-0.0011224,0.009254,-0.018158,-0.0032685,0,0,0,1,0,1
9355,2.1795e+07,0.00074831,0.010083,-0.017163,-0.0030894,0,0,0,1,0,1
9398,2.1805e+07,0.0012907,0.010561,-0.016242,-0.0029236,0,0,0,1,0,1
9438,2.1815e+07,0.001447,0.011199,-0.015431,-0.0027776,0,0,0,1,0,1
9477,2.1825e+07,0.0014904,0.0075426,-0.014515,-0.0026127,0,0,0,1,0,1
9522,2.1875e+07,0.0015103,0.0073693,-0.010338,-0.0018609,0,0,0,1,0,1
9567,2.1885e+07,0.0015125,0.0053221,-0.0096949,-0.0017451,0,0,0,1,0,1
9608,2.1895e+07,0.0015145,0.0042278,-0.0089204,-0.0016057,0,0,0,1,0,1
9649,2.1905e+07,0.001517,0.0068342,-0.0084136,-0.0015144,0,0,0,1,0,1
9689,2.1915e+07,0.0015177,0.0084332,-0.008204,-0.0014767,0,0,0,1,0,1
9723,2.1925e+07,0.0015164,0.0097751,-0.0080807,-0.0014545,0,0,0,1,0,1
9764,2.1935e+07,0.0015139,0.01035,-0.008139,-0.001465,0,0,0,1,0,1
9805,2.1945e+07,0.001511,0.0096431,-0.0082362,-0.0014825,0,0,0,1,0,1
9846,2.1955e+07,0.001509,0.0096904,-0.00816,-0.0014688,0,0,0,1,0,1
9887,2.1965e+07,0.0015078,0.0099793,-0.0081744,-0.0014714,0,0,0,1,0,1
9928,2.1975e+07,0.001507,0.0068386,-0.0079203,-0.0014257,0,0,0,1,0,1
9973,2.1985e+07,0.001507,0.0072018,-0.0076461,-0.0013763,0,0,0,1,0,1
10014,2.1995e+07,0.0015081,0.0049942,-0.0072399,-0.0013032,0,0,0,1,0,1
10055,2.2005e+07,0.0015102,0.0048245,-0.0068436,-0.0012318,0,0,0,1,0,1
10095,2.2015e+07,0.001512,0.0049952,-0.006318,-0.0011372,0,0,0,1,0,1
10133,2.2025e+07,0.0015132,0.0082907,-0.006282,-0.0011308,0,0,0,1,0,1
10173,2.2035e+07,0.0015142,0.0077671,-0.0062955,-0.0011332,0,0,0,1,0,1
10216,2.2045e+07,0.0015142,0.008099,-0.0062608,-0.0011269,0,0,0,1,0,1
10256,2.2055e+07,0.0015137,0.0077903,-0.0062854,-0.0011314,0,0,0,1,0,1
10298,2.2065e+07,0.0015125,0.0074294,-0.0061999,-0.001116,0,0,0,1,0,1
10338,2.2075e+07,0.0015109,0.0086943,-0.0062875,-0.0011318,0,0,0,1,0,1
10384,2.2085e+07,0.0015107,0.0089012,-0.006456,-0.0011621,0,0,0,1,0,1
10424,2.2095e+07,0.0015112,0.0080665,-0.0064672,-0.0011641,0,0,0,1,0,1
10466,2.2106e+07,0.0015109,0.0087103,-0.00652,-0.0011736,0,0,0,1,0,1
10507,2.2116e+07,0.001511,0.0084508,-0.0065856,-0.0011854,0,0,0,1,0,1
10544,2.2126e+07,0.0015109,0.0080088,-0.0066116,-0.0011901,0,0,0,1,0,1
10585,2.2136e+07,0.0015106,0.006698,-0.0064974,-0.0011695,0,0,0,1,0,1
10625,2.2146e+07,0.0015105,0.0067372,-0.006423,-0.0011561,0,0,0,1,0,1
10667,2.2157e+07,0.0015098,0.0076449,-0.006341,-0.0011414,0,0,0,1,0,1
10707,2.2168e+07,0.0015101,0.008309,-0.0063595,-0.0011447,0,0,0,1,0,1
10749,2.2178e+07,0.0015093,0.0078526,-0.0064098,-0.0011538,0,0,0,1,0,1
10794,2.2188e+07,0.0015087,0.0074882,-0.0063964,-0.0011513,0,0,0,1,0,1
10834,2.2198e+07,0.0015081,0.0091665,-0.0065285,-0.0011751,0,0,0,1,0,1
10875,2.2208e+07,0.0015084,0.0071678,-0.0063978,-0.0011516,0,0,0,1,0,1
10921,2.2224e+07,0.00151,0.0082001,-0.0065223,-0.001174,0,0,0,1,0,1
10963,2.2233e+07,0.0015122,0.008573,-0.006546,-0.0011783,0,0,0,1,0,1
11003,2.2244e+07,0.0015129,0.0077333,-0.0065357,-0.0011764,0,0,0,1,0,1
11046,2.2254e+07,0.0015128,0.0079284,-0.0064458,-0.0011602,0,0,0,1,0,1
11086,2.2264e+07,0.0015135,0.0099118,-0.0065715,-0.0011829,0,0,0,1,0,1
11128,2.2274e+07,0.0015136,0.0081598,-0.0066454,-0.0011962,0,0,0,1,0,1
11174,2.2285e+07,0.001513,0.0093607,-0.0067838,-0.0012211,0,0,0,1,0,1
11214,2.2295e+07,0.0015116,0.0053767,-0.0064951,-0.0011691,0,0,0,1,0,1
11257,2.2305e+07,0.001511,0.0082191,-0.0063358,-0.0011404,0,0,0,1,0,1
11297,2.2315e+07,0.0015098,0.0068671,-0.0063214,-0.0011379,0,0,0,1,0,1
11339,2.2325e+07,0.0015087,0.007904,-0.0062388,-0.001123,0,0,0,1,0,1
11376,2.2336e+07,0.0015073,0.0075637,-0.0062754,-0.0011296,0,0,0,1,0,1
11417,2.2346e+07,0.0015062,0.0074052,-0.0062667,-0.001128,0,0,0,1,0,1
11458,2.2356e+07,0.0015069,0.0077466,-0.0061542,-0.0011078,0,0,0,1,0,1
11498,2.2366e+07,0.0015082,0.0078665,-0.0062405,-0.0011233,0,0,0,1,0,1
11540,2.2376e+07,0.0015087,0.0068501,-0.0061826,-0.0011129,0,0,0,1,0,1
11585,2.2387e+07,0.001509,0.0072357,-0.0060535,-0.0010896,0,0,0,1,0,1
11628,2.2397e+07,0.0015094,0.0086216,-0.0061855,-0.0011134,0,0,0,1,0,1
11669,2.2407e+07,0.0015102,0.006634,-0.0061157,-0.0011008,0,0,0,1,0,1
11709,2.2417e+07,0.00151,0.0087778,-0.006165,-0.0011097,0,0,0,1,0,1
11750,2.2427e+07,0.00151,0.007092,-0.0061158,-0.0011008,0,0,0,1,0,1
11787,2.2438e+07,0.0015098,0.007576,-0.0061016,-0.0010983,0,0,0,1,0,1
11829,2.2448e+07,0.0015089,0.008606,-0.0060531,-0.0010896,0,0,0,1,0,1
11871,2.2458e+07,0.0015086,0.0087542,-0.0061674,-0.0011101,0,0,0,1,0,1
11912,2.2468e+07,0.0015085,0.0084139,-0.0062251,-0.0011205,0,0,0,1,0,1
11954,2.2478e+07,0.0015088,0.0090567,-0.0063601,-0.0011448,0,0,0,1,0,1
11999,2.2488e+07,0.0015078,0.0070965,-0.0064057,-0.001153,0,0,0,1,0,1
12040,2.2498e+07,0.0015077,0.007924,-0.0063564,-0.0011441,0,0,0,1,0,1
12080,2.2509e+07,0.0015082,0.0096886,-0.0064711,-0.0011648,0,0,0,1,0,1
12124,2.2522e+07,0.0015088,0.0070465,-0.0064385,-0.0011589,0,0,0,1,0,1
12166,2.2533e+07,0.0015082,0.0081757,-0.0064119,-0.0011541,0,0,0,1,0,1
12206,2.2543e+07,0.001508,0.0072315,-0.0063501,-0.001143,0,0,0,1,0,1
12244,2.2553e+07,0.0015076,0.0073992,-0.0063236,-0.0011382,0,0,0,1,0,1
12284,2.2563e+07,0.0015076,0.0064522,-0.006056,-0.0010901,0,0,0,1,0,1
12325,2.2574e+07,0.0015068,0.0069269,-0.0060107,-0.0010819,0,0,0,1,0,1
12367,2.2584e+07,0.0015058,0.0074175,-0.006005,-0.0010809,0,0,0,1,0,1
12414,2.2594e+07,0.0015046,0.0073064,-0.0059567,-0.0010722,0,0,0,1,0,1
12454,2.2604e+07,0.0015054,0.0094933,-0.0061667,-0.00111,0,0,0,1,0,1
12495,2.2615e+07,0.0015063,0.0077813,-0.0062291,-0.0011212,0,0,0,1,0,1
12536,2.2625e+07,0.0015068,0.0077865,-0.0062359,-0.0011225,0,0,0,1,0,1
12573,2.2634e+07,0.0015077,0.0066743,-0.0061857,-0.0011134,0,0,0,1,0,1
12613,2.2645e+07,0.0015075,0.0054126,-0.0059797,-0.0010763,0,0,0,1,0,1
12654,2.2655e+07,0.0015085,0.0069182,-0.0059079,-0.0010634,0,0,0,1,0,1
12695,2.2665e+07,0.0015096,0.0074936,-0.0058497,-0.0010529,0,0,0,1,0,1
12735,2.2675e+07,0.0015094,0.010873,-0.0061215,-0.0011019,0,0,0,1,0,1
12778,2.2685e+07,0.0015083,0.0080031,-0.0063056,-0.001135,0,0,0,1,0,1
12823,2.2695e+07,0.0015068,0.0066506,-0.0062331,-0.001122,0,0,0,1,0,1
12863,2.2705e+07,0.0015059,0.0077718,-0.006198,-0.0011156,0,0,0,1,0,1
12904,2.2715e+07,0.0015057,0.0096652,-0.0062483,-0.0011247,0,0,0,1,0,1
12944,2.2725e+07,0.001506,0.0060751,-0.006231,-0.0011216,0,0,0,1,0,1
12982,2.2738e+07,0.0015069,0.006533,-0.0062216,-0.0011199,0,0,0,1,0,1
13022,2.2748e+07,0.0015086,0.0070832,-0.0060514,-0.0010892,0,0,0,1,0,1
13064,2.2758e+07,0.0015107,0.005372,-0.00593,-0.0010674,0,0,0,1,0,1
13105,2.2768e+07,0.0015114,0.0076778,-0.0058565,-0.0010542,0,0,0,1,0,1
13145,2.2778e+07,0.0015117,0.0070902,-0.0058432,-0.0010518,0,0,0,1,0,1
13186,2.2789e+07,0.0015112,0.0093702,-0.006006,-0.0010811,0,0,0,1,0,1
13233,2.2799e+07,0.0015101,0.0099494,-0.006327,-0.0011389,0,0,0,1,0,1
13274,2.2809e+07,0.001509,0.0085222,-0.006502,-0.0011704,0,0,0,1,0,1
13315,2.282e+07,0.001508,0.0082706,-0.0065005,-0.0011701,0,0,0,1,0,1
13355,2.2829e+07,0.0015076,0.0085355,-0.0065273,-0.0011749,0,0,0,1,0,1
13396,2.284e+07,0.0015078,0.0074863,-0.0065732,-0.0011832,0,0,0,1,0,1
13436,2.285e+07,0.0015079,0.0088121,-0.0066096,-0.0011897,0,0,0,1,0,1
13478,2.286e+07,0.0015073,0.0085994,-0.0066864,-0.0012035,0,0,0,1,0,1
13519,2.2871e+07,0.0015064,0.0089965,-0.0067992,-0.0012239,0,0,0,1,0,1
13559,2.2881e+07,0.0015041,0.0060028,-0.0066925,-0.0012046,0,0,0,1,0,1
13601,2.2891e+07,0.0015013,0.0055102,-0.006373,-0.0011471,0,0,0,1,0,1
13645,2.2901e+07,0.0014977,0.0079334,-0.0063184,-0.0011373,0,0,0,1,0,1
13687,2.2911e+07,0.0014956,0.0047942,-0.0060353,-0.0010864,0,0,0,1,0,1
13727,2.2921e+07,0.0014945,0.0046986,-0.0057775,-0.0010399,0,0,0,1,0,1
13768,2.2931e+07,0.0014953,0.0068676,-0.0055698,-0.0010026,0,0,0,1,0,1
13806,2.2942e+07,0.0014979,0.0055421,-0.0054553,-0.00098195,0,0,0,1,0,1
13846,2.2952e+07,0.0015005,0.0047112,-0.0053081,-0.00095546,0,0,0,1,0,1
13887,2.2962e+07,0.0015036,0.0049217,-0.0050035,-0.00090063,0,0,0,1,0,1
13929,2.2972e+07,0.0015069,0.0070513,-0.0049451,-0.00089011,0,0,0,1,0,1
13970,2.2982e+07,0.0015089,0.0078428,-0.0050295,-0.00090531,0,0,0,1,0,1
14011,2.2992e+07,0.0015103,0.010064,-0.0053167,-0.00095701,0,0,0,1,0,1
14055,2.3003e+07,0.0015116,0.0068811,-0.0054953,-0.00098916,0,0,0,1,0,1
14097,2.3012e+07,0.001512,0.008674,-0.0056369,-0.0010146,0,0,0,1,0,1
14137,2.3022e+07,0.0015112,0.0063526,-0.0056537,-0.0010177,0,0,0,1,0,1
14182,2.3035e+07,0.0015091,0.0084585,-0.0056865,-0.0010236,0,0,0,1,0,1
14224,2.3046e+07,0.0015087,0.0088475,-0.0058515,-0.0010533,0,0,0,1,0,1
14262,2.3056e+07,0.001507,0.0058933,-0.0058058,-0.001045,0,0,0,1,0,1
14304,2.3066e+07,0.0015044,0.0074813,-0.0056238,-0.0010123,0,0,0,1,0,1
14344,2.3076e+07,0.0015023,0.0054581,-0.0055368,-0.00099662,0,0,0,1,0,1
14385,2.3086e+07,0.0015015,0.0049877,-0.0053777,-0.00096798,0,0,0,1,0,1
14425,2.3096e+07,0.0015019,0.0074247,-0.0053301,-0.00095942,0,0,0,1,0,1
14471,2.3107e+07,0.0015015,0.0065072,-0.0052924,-0.00095263,0,0,0,1,0,1
14512,2.3116e+07,0.0015009,0.0061775,-0.0054,-0.000972,0,0,0,1,0,1
14553,2.3127e+07,0.0015006,0.0076825,-0.0054359,-0.00097846,0,0,0,1,0,1
14594,2.3137e+07,0.0015015,0.0083522,-0.0056111,-0.00101,0,0,0,1,0,1
14634,2.315e+07,0.0015027,0.0092658,-0.0058621,-0.0010552,0,0,0,1,0,1
14675,2.316e+07,0.0015047,0.0084439,-0.0059684,-0.0010743,0,0,0,1,0,1
14715,2.317e+07,0.0015055,0.0088106,-0.0061282,-0.0011031,0,0,0,1,0,1
14756,2.318e+07,0.0015062,0.00659,-0.0061067,-0.0010992,0,0,0,1,0,1
14797,2.319e+07,0.0015071,0.0084933,-0.0060995,-0.0010979,0,0,0,1,0,1
14842,2.3201e+07,0.0015058,0.0050767,-0.0059868,-0.0010776,0,0,0,1,0,1
14884,2.3211e+07,0.001504,0.0039854,-0.0056554,-0.001018,0,0,0,1,0,1
14924,2.3221e+07,0.0015006,0.0053521,-0.0053384,-0.00096091,0,0,0,1,0,1
14965,2.3231e+07,0.0014966,0.0069106,-0.0052714,-0.00094885,0,0,0,1,0,1
15005,2.3241e+07,0.0014932,0.0046206,-0.0050827,-0.00091488,0,0,0,1,0,1
15046,2.3251e+07,0.0014919,0.0091262,-0.0052518,-0.00094532,0,0,0,1,0,1
15084,2.3261e+07,0.0014929,0.0075413,-0.005427,-0.00097687,0,0,0,1,0,1
15124,2.3272e+07,0.0014952,0.0084326,-0.0055297,-0.00099535,0,0,0,1,0,1
15165,2.3282e+07,0.001498,0.0084069,-0.0056929,-0.0010247,0,0,0,1,0,1
15207,2.3293e+07,0.0015032,0.0096012,-0.0059006,-0.0010621,0,0,0,1,0,1
15253,2.3303e+07,0.0015088,0.0083083,-0.0060384,-0.0010869,0,0,0,1,0,1
15293,2.3313e+07,0.0015134,0.0088738,-0.006166,-0.0011099,0,0,0,1,0,1
15335,2.3323e+07,0.0015178,0.0083068,-0.0062552,-0.0011259,0,0,0,1,0,1
15378,2.3335e+07,0.001523,0.0095984,-0.0063182,-0.0011373,0,0,0,1,0,1
15419,2.3346e+07,0.0015247,0.0072112,-0.006408,-0.0011534,0,0,0,1,0,1
15461,2.3357e+07,0.0015253,0.0082507,-0.0063267,-0.0011388,0,0,0,1,0,1
15498,2.3367e+07,0.0015227,0.0061371,-0.0062536,-0.0011256,0,0,0,1,0,1
15539,2.3378e+07,0.0015182,0.0042781,-0.0059779,-0.001076,0,0,0,1,0,1
15581,2.3388e+07,0.0015119,0.0045176,-0.005603,-0.0010085,0,0,0,1,0,1
15621,2.3398e+07,0.0015049,0.003841,-0.0052283,-0.00094109,0,0,0,1,0,1
15668,2.3407e+07,0.0015001,0.0046488,-0.0049565,-0.00089217,0,0,0,1,0,1
15708,2.3418e+07,0.0014957,0.0072056,-0.0049428,-0.0008897,0,0,0,1,0,1
15750,2.3428e+07,0.0014925,0.0072907,-0.0049494,-0.00089089,0,0,0,1,0,1
15792,2.3438e+07,0.0014905,0.0065945,-0.0050711,-0.0009128,0,0,0,1,0,1
15836,2.3451e+07,0.0014916,0.0072592,-0.0050368,-0.00090662,0,0,0,1,0,1
15877,2.3462e+07,0.0014948,0.0073753,-0.0052325,-0.00094185,0,0,0,1,0,1
15918,2.3472e+07,0.0014996,0.010187,-0.0054353,-0.00097836,0,0,0,1,0,1
15959,2.3482e+07,0.0015044,0.0095161,-0.0058574,-0.0010543,0,0,0,1,0,1
15999,2.3492e+07,0.0015085,0.0086013,-0.0060534,-0.0010896,0,0,0,1,0,1
16040,2.3503e+07,0.0015118,0.0077054,-0.0060397,-0.0010871,0,0,0,1,0,1
16085,2.3513e+07,0.0015121,0.0070068,-0.0060815,-0.0010947,0,0,0,1,0,1
16126,2.3523e+07,0.0015116,0.0061582,-0.0058972,-0.0010615,0,0,0,1,0,1
16167,2.3533e+07,0.0015101,0.0080576,-0.0059925,-0.0010786,0,0,0,1,0,1
16207,2.3543e+07,0.0015067,0.0055978,-0.0058462,-0.0010523,0,0,0,1,0,1
16252,2.3558e+07,0.001501,0.004969,-0.0054136,-0.00097445,0,0,0,1,0,1
16293,2.3569e+07,0.0014991,0.0029127,-0.0050618,-0.00091112,0,0,0,1,0,1
16335,2.3579e+07,0.001499,0.0019601,-0.0044952,-0.00080914,0,0,0,1,0,1
16375,2.359e+07,0.0015001,0.0052346,-0.0042365,-0.00076257,0,0,0,1,0,1
16416,2.36e+07,0.0015031,0.0031407,-0.0040225,-0.00072406,0,0,0,1,0,1
16462,2.361e+07,0.0015059,0.0055836,-0.0039683,-0.0007143,0,0,0,1,0,1
16503,2.362e+07,0.0015092,0.0041509,-0.003843,-0.00069173,0,0,0,1,0,1
16545,2.3631e+07,0.0015123,0.0068027,-0.0040458,-0.00072824,0,0,0,1,0,1
16588,2.3641e+07,0.0015148,0.0088671,-0.0043744,-0.0007874,0,0,0,1,0,1
16628,2.3656e+07,0.001517,0.0078755,-0.0047275,-0.00085096,0,0,0,1,0,1
16669,2.3667e+07,0.001516,0.005609,-0.0048086,-0.00086555,0,0,0,1,0,1
16711,2.3677e+07,0.0015133,0.0073151,-0.004883,-0.00087894,0,0,0,1,0,1
16751,2.3687e+07,0.0015111,0.0050838,-0.0048669,-0.00087604,0,0,0,1,0,1
16792,2.3697e+07,0.0015088,0.0060231,-0.0047996,-0.00086392,0,0,0,1,0,1
16832,2.3707e+07,0.001507,0.001973,-0.0044633,-0.00080339,0,0,0,1,0,1
16878,2.3717e+07,0.0015049,0.0044949,-0.0041638,-0.00074949,0,0,0,1,0,1
16918,2.3728e+07,0.0015038,0.0034599,-0.004027,-0.00072486,0,0,0,1,0,1
16959,2.3738e+07,0.0015031,0.0036211,-0.0038108,-0.00068594,0,0,0,1,0,1
17000,2.3748e+07,0.0015036,0.0022101,-0.0034094,-0.00061369,0,0,0,1,0,1
17034,2.3758e+07,0.0015042,0.0060586,-0.0034366,-0.00061859,0,0,0,1,0,1
17074,2.3768e+07,0.0015065,0.0039743,-0.0033658,-0.00060584,0,0,0,1,0,1
17115,2.3778e+07,0.0015101,0.008222,-0.0036955,-0.0006652,0,0,0,1,0,1
17159,2.3789e+07,0.0015123,0.0088772,-0.0040192,-0.00072346,0,0,0,1,0,1
17199,2.3799e+07,0.0015142,0.0068802,-0.0043919,-0.00079055,0,0,0,1,0,1
17240,2.3809e+07,0.0015161,0.0079322,-0.0045134,-0.00081242,0,0,0,1,0,1
17285,2.3819e+07,0.0015183,0.0066172,-0.0046929,-0.00084472,0,0,0,1,0,1
17326,2.3829e+07,0.001521,0.007356,-0.0047504,-0.00085508,0,0,0,1,0,1
17367,2.3839e+07,0.001522,0.0058927,-0.0048051,-0.00086492,0,0,0,1,0,1
17409,2.3849e+07,0.0015222,0.00503,-0.0046131,-0.00083036,0,0,0,1,0,1
17451,2.3859e+07,0.0015216,0.006453,-0.0047002,-0.00084603,0,0,0,1,0,1
17491,2.3869e+07,0.0015208,0.0062119,-0.0046325,-0.00083385,0,0,0,1,0,1
17533,2.3879e+07,0.0015191,0.0049535,-0.0046431,-0.00083576,0,0,0,1,0,1
17574,2.3889e+07,0.001518,0.005196,-0.0044643,-0.00080358,0,0,0,1,0,1
17615,2.39e+07,0.0015169,0.006079,-0.0045216,-0.00081389,0,0,0,1,0,1
17656,2.391e+07,0.0015139,0.0072492,-0.0045808,-0.00082454,0,0,0,1,0,1
17700,2.392e+07,0.0015106,0.0063571,-0.0046327,-0.00083388,0,0,0,1,0,1
17741,2.393e+07,0.0015093,0.0070287,-0.0046263,-0.00083273,0,0,0,1,0,1
17782,2.394e+07,0.0015098,0.0073321,-0.0048184,-0.00086731,0,0,0,1,0,1
17830,2.3955e+07,0.0015101,0.0067762,-0.0049766,-0.0008958,0,0,0,1,0,1
17870,2.3966e+07,0.001513,0.0054193,-0.0049346,-0.00088822,0,0,0,1,0,1
17912,2.3976e+07,0.0015163,0.0052436,-0.0046877,-0.00084379,0,0,0,1,0,1
17953,2.3986e+07,0.0015195,0.0055807,-0.0046935,-0.00084483,0,0,0,1,0,1
17994,2.3997e+07,0.0015214,0.0059665,-0.0047141,-0.00084854,0,0,0,1,0,1
18035,2.4007e+07,0.0015225,0.0068171,-0.0047661,-0.00085789,0,0,0,1,0,1
18079,2.4018e+07,0.0015207,0.0091394,-0.0050512,-0.00090921,0,0,0,1,0,1
18121,2.4028e+07,0.0015171,0.0071448,-0.005168,-0.00093024,0,0,0,1,0,1
18161,2.4039e+07,0.0015118,0.0093852,-0.0053652,-0.00096574,0,0,0,1,0,1
18204,2.4049e+07,0.0015054,0.0095676,-0.0056438,-0.0010159,0,0,0,1,0,1
18244,2.4058e+07,0.0015001,0.0093508,-0.0059489,-0.0010708,0,0,0,1,0,1
18284,2.4069e+07,0.0014958,0.0072755,-0.0059851,-0.0010773,0,0,0,1,0,1
18325,2.4079e+07,0.0014937,0.0063043,-0.0059736,-0.0010752,0,0,0,1,0,1
18366,2.4089e+07,0.0014944,0.0080427,-0.005954,-0.0010717,0,0,0,1,0,1
18407,2.4099e+07,0.0014983,0.0067616,-0.0059743,-0.0010754,0,0,0,1,0,1
18448,2.4109e+07,0.0015043,0.0034979,-0.0056049,-0.0010089,0,0,0,1,0,1
18495,2.4122e+07,0.0015139,0.005739,-0.0054508,-0.00098114,0,0,0,1,0,1
18536,2.4132e+07,0.0015202,0.0043348,-0.0051883,-0.0009339,0,0,0,1,0,1
18577,2.4142e+07,0.0015238,0.0039252,-0.004817,-0.00086706,0,0,0,1,0,1
18618,2.4152e+07,0.001526,0.0055006,-0.0047617,-0.00085711,0,0,0,1,0,1
18659,2.4162e+07,0.0015245,0.0049409,-0.0044254,-0.00079657,0,0,0,1,0,1
18696,2.4175e+07,0.0015168,0.0045355,-0.0044052,-0.00079293,0,0,0,1,0,1
18737,2.4186e+07,0.0015094,0.0050837,-0.004285,-0.0007713,0,0,0,1,0,1
18779,2.4196e+07,0.0015033,0.0041286,-0.0042026,-0.00075647,0,0,0,1,0,1
18819,2.4206e+07,0.0014994,0.0046945,-0.004049,-0.00072882,0,0,0,1,0,1
18861,2.4216e+07,0.0014962,0.0057387,-0.0040947,-0.00073705,0,0,0,1,0,1
18905,2.4227e+07,0.0014939,0.0055188,-0.0040343,-0.00072617,0,0,0,1,0,1
18946,2.4237e+07,0.0014943,0.0061581,-0.0040974,-0.00073752,0,0,0,1,0,1
18987,2.4247e+07,0.0014965,0.0054462,-0.0041617,-0.00074911,0,0,0,1,0,1
19029,2.426e+07,0.0014991,0.0075661,-0.0043405,-0.00078128,0,0,0,1,0,1
19068,2.427e+07,0.0015028,0.0057722,-0.0044131,-0.00079436,0,0,0,1,0,1
19110,2.428e+07,0.0015061,0.0058231,-0.0045003,-0.00081006,0,0,0,1,0,1
19152,2.4291e+07,0.0015076,0.0061648,-0.0044734,-0.00080521,0,0,0,1,0,1
19193,2.43e+07,0.0015085,0.0057333,-0.0045241,-0.00081435,0,0,0,1,0,1
19233,2.4311e+07,0.00151,0.008411,-0.0046385,-0.00083493,0,0,0,1,0,1
19274,2.4321e+07,0.001511,0.0052111,-0.0047568,-0.00085623,0,0,0,1,0,1
19318,2.4331e+07,0.0015118,0.0053544,-0.004526,-0.00081468,0,0,0,1,0,1
19360,2.4341e+07,0.001512,0.0048716,-0.0045138,-0.00081248,0,0,0,1,0,1
19400,2.4351e+07,0.001511,0.0053238,-0.0043857,-0.00078942,0,0,0,1,0,1
19441,2.4361e+07,0.0015096,0.0030164,-0.0041985,-0.00075573,0,0,0,1,0,1
19482,2.4374e+07,0.001506,0.0059598,-0.0039575,-0.00071236,0,0,0,1,0,1
19523,2.4384e+07,0.0015028,0.0022668,-0.0037224,-0.00067003,0,0,0,1,0,1
19566,2.4394e+07,0.0015008,0.0057316,-0.0037397,-0.00067315,0,0,0,1,0,1
19606,2.4404e+07,0.0014986,0.0016797,-0.0034799,-0.00062639,0,0,0,1,0,1
19648,2.4414e+07,0.0014966,0.0046879,-0.0034624,-0.00062323,0,0,0,1,0,1
19693,2.4425e+07,0.0014942,0.0033063,-0.0032608,-0.00058694,0,0,0,1,0,1
19734,2.4435e+07,0.0014949,0.0048201,-0.0033261,-0.0005987,0,0,0,1,0,1
19775,2.4445e+07,0.0014973,0.0043716,-0.0031954,-0.00057518,0,0,0,1,0,1
19818,2.4455e+07,0.0015018,0.0076606,-0.0034285,-0.00061714,0,0,0,1,0,1
19859,2.4465e+07,0.0015081,0.0074785,-0.0037192,-0.00066945,0,0,0,1,0,1
19896,2.4475e+07,0.0015129,0.0045191,-0.0038383,-0.00069089,0,0,0,1,0,1
19937,2.4486e+07,0.0015168,0.0059984,-0.0038416,-0.0006915,0,0,0,1,0,1
19978,2.4496e+07,0.0015182,0.0062095,-0.0039403,-0.00070926,0,0,0,1,0,1
20018,2.4506e+07,0.0015188,0.004982,-0.0039764,-0.00071575,0,0,0,1,0,1
20059,2.4517e+07,0.0015174,0.0062188,-0.0039701,-0.00071462,0,0,0,1,0,1
20105,2.4527e+07,0.0015138,0.0043643,-0.003959,-0.00071263,0,0,0,1,0,1
20146,2.4537e+07,0.00151,0.0057709,-0.0038901,-0.00070022,0,0,0,1,0,1
20186,2.4547e+07,0.0015059,0.006688,-0.0040089,-0.00072161,0,0,0,1,0,1
20227,2.4557e+07,0.0015023,0.0054179,-0.004027,-0.00072487,0,0,0,1,0,1
20268,2.4567e+07,0.0015004,0.0058908,-0.0041373,-0.00074472,0,0,0,1,0,1
20307,2.4578e+07,0.0015004,0.0080829,-0.0042482,-0.00076467,0,0,0,1,0,1
20347,2.4588e+07,0.0015016,0.0061005,-0.004343,-0.00078174,0,0,0,1,0,1
20388,2.4598e+07,0.0015041,0.0089481,-0.0045122,-0.00081219,0,0,0,1,0,1
20428,2.4608e+07,0.0015066,0.0077078,-0.0048136,-0.00086645,0,0,0,1,0,1
20470,2.4618e+07,0.0015091,0.010646,-0.0052173,-0.00093911,0,0,0,1,0,1
20517,2.4628e+07,0.0015113,0.0076744,-0.0053833,-0.00096899,0,0,0,1,0,1
20559,2.4639e+07,0.0015112,0.008461,-0.0055631,-0.0010014,0,0,0,1,0,1
20600,2.4648e+07,0.0015118,0.0071027,-0.0055296,-0.00099533,0,0,0,1,0,1
20640,2.4659e+07,0.0015103,0.0085407,-0.0057509,-0.0010352,0,0,0,1,0,1
20681,2.4669e+07,0.0015068,0.0055963,-0.0056309,-0.0010136,0,0,0,1,0,1
20721,2.4679e+07,0.0015031,0.0023329,-0.0051811,-0.0009326,0,0,0,1,0,1
20762,2.4689e+07,0.0014998,0.0042996,-0.0047141,-0.00084854,0,0,0,1,0,1
20803,2.4699e+07,0.0014969,-0.00018817,-0.0041991,-0.00075583,0,0,0,1,0,1
20844,2.471e+07,0.0014957,0.00046674,-0.0035689,-0.00064241,0,0,0,1,0,1
20885,2.472e+07,0.0014951,0.00059407,-0.0029592,-0.00053266,0,0,0,1,0,1
20929,2.473e+07,0.0014947,0.0043013,-0.0028831,-0.00051896,0,0,0,1,0,1
20972,2.474e+07,0.001494,0.001576,-0.0025659,-0.00046186,0,0,0,1,0,1
21012,2.475e+07,0.0014938,0.0053408,-0.0025676,-0.00046217,0,0,0,1,0,1
21053,2.476e+07,0.001495,0.0068325,-0.0027869,-0.00050165,0,0,0,1,0,1
21095,2.4771e+07,0.0014961,0.0058034,-0.0030596,-0.00055073,0,0,0,1,0,1
21136,2.4781e+07,0.0014986,0.0064592,-0.003179,-0.00057221,0,0,0,1,0,1
21178,2.4791e+07,0.0015008,0.0075826,-0.0035367,-0.00063661,0,0,0,1,0,1
21218,2.4802e+07,0.001502,0.008118,-0.0038542,-0.00069376,0,0,0,1,0,1
21259,2.4812e+07,0.0015027,0.008748,-0.0042398,-0.00076316,0,0,0,1,0,1
21300,2.4823e+07,0.0015034,0.0042222,-0.0043008,-0.00077414,0,0,0,1,0,1
21347,2.4833e+07,0.0015034,0.0061998,-0.0042662,-0.00076792,0,0,0,1,0,1
21389,2.4843e+07,0.0015028,0.0018023,-0.0039791,-0.00071624,0,0,0,1,0,1
21430,2.4853e+07,0.0015005,0.0051878,-0.0039525,-0.00071145,0,0,0,1,0,1
21472,2.4864e+07,0.001498,0.0040374,-0.003763,-0.00067733,0,0,0,1,0,1
21512,2.4874e+07,0.0014961,0.0013852,-0.0034097,-0.00061375,0,0,0,1,0,1
21553,2.4885e+07,0.0014937,0.0031911,-0.0031186,-0.00056135,0,0,0,1,0,1
21593,2.4895e+07,0.0014929,0.0030668,-0.0029592,-0.00053266,0,0,0,1,0,1
21634,2.4906e+07,0.0014928,0.0043807,-0.0030384,-0.00054691,0,0,0,1,0,1
21674,2.4915e+07,0.0014914,0.0057421,-0.0030337,-0.00054607,0,0,0,1,0,1
21716,2.4925e+07,0.001491,0.0077874,-0.0034414,-0.00061944,0,0,0,1,0,1
21763,2.4936e+07,0.0014905,0.0075812,-0.0036779,-0.00066202,0,0,0,1,0,1
21803,2.4946e+07,0.0014916,0.0096511,-0.0042506,-0.00076511,0,0,0,1,0,1
21844,2.4956e+07,0.0014926,0.0086955,-0.0045936,-0.00082685,0,0,0,1,0,1
21885,2.4966e+07,0.001494,0.008331,-0.0049087,-0.00088357,0,0,0,1,0,1
21929,2.4979e+07,0.0014952,0.007003,-0.0050654,-0.00091177,0,0,0,1,0,1
21969,2.4989e+07,0.0014946,0.0035184,-0.0048984,-0.00088172,0,0,0,1,0,1
22010,2.4999e+07,0.0014935,0.0047981,-0.0046707,-0.00084073,0,0,0,1,0,1
22050,2.5009e+07,0.0014918,0.0019451,-0.0042702,-0.00076863,0,0,0,1,0,1
22092,2.502e+07,0.0014907,0.0048311,-0.0040923,-0.00073661,0,0,0,1,0,1
22133,2.5029e+07,0.0014885,0.0042822,-0.0038977,-0.00070159,0,0,0,1,0,1
22178,2.504e+07,0.0014871,0.0035785,-0.0038121,-0.00068617,0,0,0,1,0,1
22221,2.505e+07,0.0014865,0.0038342,-0.0036134,-0.00065041,0,0,0,1,0,1
22261,2.506e+07,0.0014868,0.0052989,-0.0035259,-0.00063466,0,0,0,1,0,1
22302,2.5071e+07,0.0014877,0.0073543,-0.0035582,-0.00064047,0,0,0,1,0,1
22343,2.5082e+07,0.0014906,0.0047107,-0.0036352,-0.00065433,0,0,0,1,0,1
22384,2.5093e+07,0.0014939,0.0079668,-0.0038289,-0.0006892,0,0,0,1,0,1
22425,2.5103e+07,0.0014965,0.005897,-0.0039908,-0.00071834,0,0,0,1,0,1
22465,2.5113e+07,0.0014988,0.0071121,-0.0041117,-0.0007401,0,0,0,1,0,1
22507,2.5124e+07,0.0015007,0.0065509,-0.0042904,-0.00077227,0,0,0,1,0,1
22547,2.5134e+07,0.0015011,0.007258,-0.0044091,-0.00079364,0,0,0,1,0,1
22593,2.5144e+07,0.0015011,0.0046323,-0.0044031,-0.00079256,0,0,0,1,0,1
22633,2.5154e+07,0.0015014,0.006066,-0.0043474,-0.00078254,0,0,0,1,0,1
22675,2.5165e+07,0.0015012,0.0039346,-0.0042819,-0.00077074,0,0,0,1,0,1
22716,2.5175e+07,0.0014999,0.005202,-0.0041348,-0.00074426,0,0,0,1,0,1
22753,2.5185e+07,0.0014985,0.0044318,-0.0039843,-0.00071718,0,0,0,1,0,1
22793,2.5195e+07,0.0014976,0.0053768,-0.0038919,-0.00070054,0,0,0,1,0,1
22833,2.5206e+07,0.0014969,0.0025155,-0.0036124,-0.00065024,0,0,0,1,0,1
22875,2.5215e+07,0.0014961,0.006902,-0.0036968,-0.00066542,0,0,0,1,0,1
22915,2.5226e+07,0.0014951,0.0048753,-0.0037146,-0.00066863,0,0,0,1,0,1
22956,2.5236e+07,0.0014938,0.0057048,-0.0037619,-0.00067714,0,0,0,1,0,1
23001,2.5246e+07,0.0014929,0.005499,-0.0038448,-0.00069206,0,0,0,1,0,1
23044,2.5256e+07,0.0014922,0.0062697,-0.0039241,-0.00070634,0,0,0,1,0,1
23087,2.5266e+07,0.0014932,0.0050684,-0.0039342,-0.00070816,0,0,0,1,0,1
23128,2.5278e+07,0.0014942,0.0064287,-0.004028,-0.00072504,0,0,0,1,0,1
23169,2.5288e+07,0.0014962,0.0073792,-0.0042197,-0.00075955,0,0,0,1,0,1
23209,2.5299e+07,0.0014971,0.0080603,-0.0044388,-0.00079899,0,0,0,1,0,1
23250,2.5309e+07,0.0014987,0.0065483,-0.0045658,-0.00082184,0,0,0,1,0,1
23293,2.5319e+07,0.0014992,0.005975,-0.0046252,-0.00083254,0,0,0,1,0,1
23334,2.5329e+07,0.0014989,0.0046721,-0.0044803,-0.00080645,0,0,0,1,0,1
23375,2.5339e+07,0.001497,0.00568,-0.0044547,-0.00080185,0,0,0,1,0,1
23419,2.5349e+07,0.0014947,0.0014426,-0.00407,-0.00073261,0,0,0,1,0,1
23461,2.5359e+07,0.0014923,0.0035763,-0.0038016,-0.00068429,0,0,0,1,0,1
23501,2.5369e+07,0.0014909,0.0035995,-0.0035883,-0.00064589,0,0,0,1,0,1
23543,2.5379e+07,0.0014897,0.0027307,-0.0033789,-0.0006082,0,0,0,1,0,1
23584,2.5389e+07,0.0014894,0.0026053,-0.003124,-0.00056233,0,0,0,1,0,1
23627,2.54e+07,0.0014901,0.0042988,-0.0029752,-0.00053553,0,0,0,1,0,1
23668,2.541e+07,0.0014927,0.0037092,-0.0029396,-0.00052913,0,0,0,1,0,1
23709,2.5421e+07,0.0014944,0.0046625,-0.0029145,-0.00052461,0,0,0,1,0,1
23751,2.5431e+07,0.0014965,0.0053955,-0.0029679,-0.00053422,0,0,0,1,0,1
23793,2.5441e+07,0.0014985,0.0046677,-0.0029969,-0.00053945,0,0,0,1,0,1
23838,2.5451e+07,0.0015015,0.005601,-0.0030358,-0.00054645,0,0,0,1,0,1
23880,2.5461e+07,0.001504,0.0073233,-0.0032772,-0.00058989,0,0,0,1,0,1
23920,2.5471e+07,0.0015049,0.005993,-0.0034354,-0.00061837,0,0,0,1,0,1
23962,2.5481e+07,0.0015053,0.0054432,-0.0035115,-0.00063208,0,0,0,1,0,1
24002,2.5491e+07,0.0015039,0.0045298,-0.0034914,-0.00062845,0,0,0,1,0,1
24043,2.5501e+07,0.0015013,0.0053522,-0.0035144,-0.00063259,0,0,0,1,0,1
24083,2.5511e+07,0.0014985,0.0039469,-0.0034969,-0.00062944,0,0,0,1,0,1
24124,2.5521e+07,0.0014973,0.003524,-0.003235,-0.00058231,0,0,0,1,0,1
24165,2.5531e+07,0.0014958,0.0037474,-0.0030984,-0.00055772,0,0,0,1,0,1
24206,2.5541e+07,0.0014954,0.0050761,-0.0031289,-0.0005632,0,0,0,1,0,1
24251,2.5551e+07,0.0014947,0.0037712,-0.0031303,-0.00056345,0,0,0,1,0,1
24291,2.5561e+07,0.001495,0.0049634,-0.0030843,-0.00055518,0,0,0,1,0,1
24333,2.5571e+07,0.0014957,0.0059976,-0.0032229,-0.00058012,0,0,0,1,0,1
24374,2.5581e+07,0.0014966,0.0041278,-0.003093,-0.00055673,0,0,0,1,0,1
24415,2.5591e+07,0.0014975,0.0056143,-0.0032148,-0.00057866,0,0,0,1,0,1
24452,2.5602e+07,0.001499,0.0059868,-0.0032661,-0.00058789,0,0,0,1,0,1
24493,2.5612e+07,0.0015005,0.0061717,-0.0034336,-0.00061806,0,0,0,1,0,1
24535,2.5622e+07,0.0015012,0.0061197,-0.0035763,-0.00064373,0,0,0,1,0,1
24575,2.5632e+07,0.0015025,0.0040778,-0.0035708,-0.00064275,0,0,0,1,0,1
24618,2.5643e+07,0.0015049,0.0063653,-0.0035511,-0.0006392,0,0,0,1,0,1
24669,2.5654e+07,0.0015056,0.0038371,-0.003648,-0.00065664,0,0,0,1,0,1
24710,2.5665e+07,0.0015054,0.0020562,-0.0032958,-0.00059325,0,0,0,1,0,1
24751,2.5674e+07,0.0015043,0.00074461,-0.0028263,-0.00050873,0,0,0,1,0,1
24792,2.5684e+07,0.0015022,0.0030921,-0.0026026,-0.00046846,0,0,0,1,0,1
24833,2.5697e+07,0.0014992,0.0033057,-0.0023359,-0.00042047,0,0,0,1,0,1
24874,2.5707e+07,0.0014961,0.0026843,-0.002338,-0.00042085,0,0,0,1,0,1
24915,2.5718e+07,0.0014932,0.005735,-0.0024017,-0.00043231,0,0,0,1,0,1
24955,2.5728e+07,0.0014896,0.0025347,-0.0022025,-0.00039645,0,0,0,1,0,1
24996,2.5738e+07,0.0014873,0.0065531,-0.0025046,-0.00045083,0,0,0,1,0,1
25036,2.5749e+07,0.0014873,0.0035857,-0.0025374,-0.00045673,0,0,0,1,0,1
25083,2.5759e+07,0.0014895,0.0040435,-0.0025274,-0.00045494,0,0,0,1,0,1
25124,2.5769e+07,0.0014942,0.0042853,-0.0025175,-0.00045315,0,0,0,1,0,1
25165,2.578e+07,0.0014991,0.0044196,-0.0024782,-0.00044607,0,0,0,1,0,1
25207,2.579e+07,0.0015043,0.006113,-0.002702,-0.00048637,0,0,0,1,0,1
25247,2.58e+07,0.0015083,0.0061687,-0.0028676,-0.00051616,0,0,0,1,0,1
25288,2.581e+07,0.0015111,0.0055749,-0.0030343,-0.00054618,0,0,0,1,0,1
25328,2.5821e+07,0.0015113,0.0076532,-0.0033776,-0.00060797,0,0,0,1,0,1
25368,2.5831e+07,0.0015098,0.0051451,-0.003508,-0.00063144,0,0,0,1,0,1
25408,2.5841e+07,0.001506,0.0045227,-0.0034474,-0.00062052,0,0,0,1,0,1
25451,2.5851e+07,0.001503,0.0030612,-0.0033196,-0.00059752,0,0,0,1,0,1
25496,2.5861e+07,0.0015009,0.0028977,-0.003106,-0.00055907,0,0,0,1,0,1
25536,2.5871e+07,0.0014993,0.0011792,-0.002817,-0.00050706,0,0,0,1,0,1
25578,2.5881e+07,0.001498,0.0036257,-0.0025802,-0.00046444,0,0,0,1,0,1
25619,2.5891e+07,0.0014969,0.0036615,-0.0024899,-0.00044819,0,0,0,1,0,1
25660,2.5901e+07,0.0014977,0.0061993,-0.0026408,-0.00047535,0,0,0,1,0,1
25698,2.5911e+07,0.0014992,0.0045789,-0.0027297,-0.00049135,0,0,0,1,0,1
25738,2.5922e+07,0.0015011,0.0060369,-0.002918,-0.00052524,0,0,0,1,0,1
25779,2.5932e+07,0.0015031,0.0075224,-0.0032307,-0.00058153,0,0,0,1,0,1
25819,2.5942e+07,0.0015031,0.0070394,-0.0035314,-0.00063566,0,0,0,1,0,1
25861,2.5953e+07,0.0015039,0.011087,-0.0039382,-0.00070888,0,0,0,1,0,1
25906,2.5963e+07,0.0015026,0.0068148,-0.0042561,-0.0007661,0,0,0,1,0,1
25946,2.5973e+07,0.001503,0.0080414,-0.0044502,-0.00080104,0,0,0,1,0,1
25989,2.5983e+07,0.0015038,0.0053063,-0.0044652,-0.00080374,0,0,0,1,0,1
26027,2.5993e+07,0.0015038,0.0048319,-0.0044681,-0.00080427,0,0,0,1,0,1
26069,2.6003e+07,0.0015024,0.0040409,-0.0042165,-0.00075898,0,0,0,1,0,1
26110,2.6013e+07,0.0015014,0.0034061,-0.0039344,-0.00070819,0,0,0,1,0,1
26150,2.6026e+07,0.0015014,0.0037346,-0.0036741,-0.00066134,0,0,0,1,0,1
26193,2.6036e+07,0.0015015,0.0011926,-0.0032708,-0.00058874,0,0,0,1,0,1
26233,2.6046e+07,0.0015011,0.0038503,-0.0030071,-0.00054128,0,0,0,1,0,1
26275,2.6056e+07,0.0015006,0.0024719,-0.0028084,-0.00050551,0,0,0,1,0,1
26320,2.6067e+07,0.0015001,0.003113,-0.0026438,-0.00047588,0,0,0,1,0,1
26360,2.6078e+07,0.0014989,0.0076088,-0.0027861,-0.0005015,0,0,0,1,0,1
26401,2.6088e+07,0.0014984,0.0055547,-0.0030645,-0.00055161,0,0,0,1,0,1
26443,2.6098e+07,0.0015,0.0047563,-0.003099,-0.00055783,0,0,0,1,0,1
26481,2.6111e+07,0.0015037,0.0045122,-0.0030838,-0.00055509,0,0,0,1,0,1
26522,2.6121e+07,0.0015087,0.0068607,-0.0032342,-0.00058216,0,0,0,1,0,1
26562,2.6131e+07,0.0015143,0.0070348,-0.0035294,-0.00063529,0,0,0,1,0,1
26604,2.6141e+07,0.0015186,0.0061551,-0.0036947,-0.00066504,0,0,0,1,0,1
26644,2.6151e+07,0.0015214,0.0032869,-0.0036058,-0.00064904,0,0,0,1,0,1
26689,2.6161e+07,0.0015218,0.0046363,-0.0034517,-0.0006213,0,0,0,1,0,1
26729,2.6171e+07,0.0015193,0.0042384,-0.0034301,-0.00061741,0,0,0,1,0,1
26771,2.6181e+07,0.0015142,0.0024063,-0.00324,-0.00058319,0,0,0,1,0,1
26812,2.6191e+07,0.0015079,0.0021464,-0.0029026,-0.00052247,0,0,0,1,0,1
26852,2.6204e+07,0.0015004,0.0046302,-0.0027902,-0.00050224,0,0,0,1,0,1
26893,2.6214e+07,0.0014948,0.001676,-0.0025442,-0.00045796,0,0,0,1,0,1
26933,2.6224e+07,0.0014927,0.0021688,-0.0024053,-0.00043296,0,0,0,1,0,1
26975,2.6234e+07,0.0014936,0.0063832,-0.002375,-0.00042751,0,0,0,1,0,1
27018,2.6244e+07,0.0014976,0.0085999,-0.0028668,-0.00051602,0,0,0,1,0,1
27061,2.6254e+07,0.0015024,0.0041206,-0.0030248,-0.00054446,0,0,0,1,0,1
27106,2.6264e+07,0.0015075,0.0067942,-0.0032452,-0.00058413,0,0,0,1,0,1
27146,2.6274e+07,0.0015118,0.0070643,-0.0034059,-0.00061307,0,0,0,1,0,1
27187,2.6284e+07,0.0015145,0.0075317,-0.0037357,-0.00067243,0,0,0,1,0,1
27227,2.6294e+07,0.0015145,0.0051907,-0.0037861,-0.0006815,0,0,0,1,0,1
27269,2.6304e+07,0.0015111,0.0062845,-0.0039336,-0.00070806,0,0,0,1,0,1
27303,2.6315e+07,0.0015071,0.0057842,-0.0039268,-0.00070682,0,0,0,1,0,1
27344,2.6324e+07,0.0015028,0.0031594,-0.003949,-0.00071082,0,0,0,1,0,1
27386,2.6335e+07,0.0015001,0.0021502,-0.0034732,-0.00062518,0,0,0,1,0,1
27427,2.6345e+07,0.0014978,0.00041303,-0.0029448,-0.00053006,0,0,0,1,0,1
27468,2.6355e+07,0.0014972,0.0028534,-0.0027653,-0.00049775,0,0,0,1,0,1
27513,2.6365e+07,0.0014988,0.00010328,-0.0023044,-0.0004148,0,0,0,1,0,1
27553,2.6375e+07,0.0014996,0.0025025,-0.0020729,-0.00037312,0,0,0,1,0,1
27594,2.6385e+07,0.0015002,0.0020433,-0.0019411,-0.00034939,0,0,0,1,0,1
27634,2.6395e+07,0.0015,0.0061136,-0.0020068,-0.00036122,0,0,0,1,0,1
27672,2.6406e+07,0.0015019,0.0036646,-0.0022182,-0.00039927,0,0,0,1,0,1
27717,2.6418e+07,0.0015007,0.0067853,-0.0026121,-0.00047018,0,0,0,1,0,1
27761,2.643e+07,0.0015001,0.0072921,-0.0030182,-0.00054328,0,0,0,1,0,1
27805,2.6441e+07,0.0015003,0.0066823,-0.0032855,-0.00059138,0,0,0,1,0,1
27846,2.6451e+07,0.0015004,0.0060804,-0.0035465,-0.00063837,0,0,0,1,0,1
27887,2.6461e+07,0.0015021,0.0064891,-0.0036873,-0.00066372,0,0,0,1,0,1
27932,2.6471e+07,0.0015054,0.004416,-0.0036384,-0.00065491,0,0,0,1,0,1
27973,2.6481e+07,0.0015104,0.0047325,-0.003636,-0.00065449,0,0,0,1,0,1
28014,2.6491e+07,0.0015152,0.0023707,-0.0033991,-0.00061185,0,0,0,1,0,1
28054,2.6501e+07,0.0015191,0.0015965,-0.0030266,-0.00054479,0,0,0,1,0,1
28089,2.6512e+07,0.0015202,0.0040551,-0.0028691,-0.00051644,0,0,0,1,0,1
28130,2.6522e+07,0.0015184,0.0024675,-0.0026728,-0.00048111,0,0,0,1,0,1
28171,2.6532e+07,0.0015151,0.0039235,-0.0026245,-0.00047241,0,0,0,1,0,1
28212,2.6542e+07,0.0015096,0.0021612,-0.0024121,-0.00043418,0,0,0,1,0,1
28253,2.6553e+07,0.0015029,0.0038805,-0.002455,-0.00044191,0,0,0,1,0,1
28294,2.6562e+07,0.0014972,0.0052269,-0.0024902,-0.00044824,0,0,0,1,0,1
28339,2.6572e+07,0.0014926,0.0050354,-0.0027327,-0.00049189,0,0,0,1,0,1
28380,2.6582e+07,0.0014914,0.0036623,-0.0026955,-0.00048519,0,0,0,1,0,1
28421,2.6593e+07,0.0014945,0.0061074,-0.0029134,-0.0005244,0,0,0,1,0,1
28461,2.6605e+07,0.0015021,0.0074146,-0.0031258,-0.00056265,0,0,0,1,0,1
28502,2.6616e+07,0.0015095,0.0069515,-0.0034367,-0.0006186,0,0,0,1,0,1
28543,2.6626e+07,0.001516,0.0075578,-0.0037536,-0.00067565,0,0,0,1,0,1
28584,2.6637e+07,0.0015202,0.0072352,-0.0039693,-0.00071447,0,0,0,1,0,1
28627,2.6647e+07,0.0015229,0.0045838,-0.0039705,-0.00071469,0,0,0,1,0,1
28668,2.6657e+07,0.0015204,0.0042688,-0.0038355,-0.00069039,0,0,0,1,0,1
28718,2.6669e+07,0.0015129,0.0026795,-0.0035108,-0.00063194,0,0,0,1,0,1
28759,2.668e+07,0.0015062,0.0030456,-0.0032172,-0.0005791,0,0,0,1,0,1
28800,2.669e+07,0.0014994,0.00084963,-0.0029673,-0.00053411,0,0,0,1,0,1
28840,2.67e+07,0.0014937,-0.0012548,-0.0022693,-0.00040848,0,0,0,1,0,1
28881,2.671e+07,0.0014926,0.0015559,-0.0019945,-0.000359,0,0,0,1,0,1
28918,2.672e+07,0.0014951,0.0028512,-0.0018673,-0.00033612,0,0,0,1,0,1
28959,2.6731e+07,0.0014984,0.001668,-0.0017631,-0.00031735,0,0,0,1,0,1
29000,2.6741e+07,0.0015021,0.0051313,-0.0017994,-0.0003239,0,0,0,1,0,1
29043,2.6751e+07,0.0015073,0.005798,-0.002031,-0.00036558,0,0,0,1,0,1
29085,2.6761e+07,0.0015127,0.0060872,-0.0023535,-0.00042362,0,0,0,1,0,1
29129,2.6771e+07,0.0015174,0.0042654,-0.0024289,-0.00043721,0,0,0,1,0,1
29170,2.6781e+07,0.0015185,0.0073052,-0.0027714,-0.00049885,0,0,0,1,0,1
29211,2.6791e+07,0.0015179,0.0056292,-0.0029985,-0.00053974,0,0,0,1,0,1
29252,2.6801e+07,0.0015156,0.0069853,-0.0031708,-0.00057075,0,0,0,1,0,1
29292,2.6811e+07,0.0015123,0.0029274,-0.0031758,-0.00057164,0,0,0,1,0,1
29333,2.6821e+07,0.0015085,0.0043404,-0.0030874,-0.00055573,0,0,0,1,0,1
29374,2.6831e+07,0.0015063,0.0017311,-0.0028681,-0.00051626,0,0,0,1,0,1
29415,2.6841e+07,0.0015046,0.0011467,-0.0024898,-0.00044816,0,0,0,1,0,1
29458,2.6851e+07,0.0015046,0.00031949,-0.0020925,-0.00037665,0,0,0,1,0,1
29500,2.6862e+07,0.0015061,0.00029349,-0.0017116,-0.00030808,0,0,0,1,0,1
29544,2.6872e+07,0.0015069,0.0027124,-0.0018099,-0.00032577,0,0,0,1,0,1
29586,2.6882e+07,0.0015069,0.003331,-0.0016491,-0.00029684,0,0,0,1,0,1
29626,2.6893e+07,0.0015059,0.003741,-0.0018342,-0.00033015,0,0,0,1,0,1
29668,2.6903e+07,0.0015053,0.0065103,-0.0020853,-0.00037536,0,0,0,1,0,1
29708,2.6913e+07,0.0015044,0.0063548,-0.0024726,-0.00044506,0,0,0,1,0,1
29749,2.6923e+07,0.0015017,0.0072884,-0.0028231,-0.00050816,0,0,0,1,0,1
29786,2.6933e+07,0.0014996,0.006627,-0.0031124,-0.00056024,0,0,0,1,0,1
29828,2.6943e+07,0.0014991,0.0062621,-0.0032725,-0.00058904,0,0,0,1,0,1
29869,2.6954e+07,0.0015009,0.0069722,-0.0035389,-0.000637,0,0,0,1,0,1
29909,2.6964e+07,0.001503,0.0057538,-0.0035951,-0.00064712,0,0,0,1,0,1
29954,2.6974e+07,0.0015074,0.0018798,-0.0034226,-0.00061607,0,0,0,1,0,1
29995,2.6984e+07,0.0015121,0.0039102,-0.0031266,-0.00056279,0,0,0,1,0,1
30036,2.6994e+07,0.0015152,0.00032701,-0.0028408,-0.00051134,0,0,0,1,0,1
30077,2.7004e+07,0.0015161,0.00079405,-0.0023226,-0.00041806,0,0,0,1,0,1
30115,2.7014e+07,0.0015153,0.0021187,-0.0020691,-0.00037245,0,0,0,1,0,1
30154,2.7025e+07,0.0015132,0.0043748,-0.0020709,-0.00037276,0,0,0,1,0,1
30194,2.7035e+07,0.0015086,0.00058312,-0.0018952,-0.00034114,0,0,0,1,0,1
30236,2.7045e+07,0.001503,0.0027147,-0.0015823,-0.00028482,0,0,0,1,0,1
30278,2.7055e+07,0.0014996,0.0043029,-0.0017685,-0.00031833,0,0,0,1,0,1
30319,2.7065e+07,0.0014974,0.0035968,-0.0017648,-0.00031766,0,0,0,1,0,1
30364,2.7075e+07,0.0014971,0.0030987,-0.0018696,-0.00033653,0,0,0,1,0,1
30404,2.7086e+07,0.0014993,0.0070131,-0.0020897,-0.00037614,0,0,0,1,0,1
30447,2.7096e+07,0.0015041,0.0060064,-0.0024526,-0.00044148,0,0,0,1,0,1
30487,2.7106e+07,0.0015092,0.0055242,-0.0026698,-0.00048056,0,0,0,1,0,1
30522,2.7116e+07,0.0015137,0.0023742,-0.0026136,-0.00047044,0,0,0,1,0,1
30563,2.7126e+07,0.0015172,0.0049727,-0.0025443,-0.00045798,0,0,0,1,0,1
30604,2.7136e+07,0.0015197,0.0030054,-0.0025473,-0.00045852,0,0,0,1,0,1
30645,2.7146e+07,0.0015199,0.001926,-0.0023499,-0.00042298,0,0,0,1,0,1
30685,2.7157e+07,0.0015178,0.0021012,-0.002072,-0.00037295,0,0,0,1,0,1
30726,2.7167e+07,0.0015127,0.00198,-0.0019677,-0.00035418,0,0,0,1,0,1
30770,2.7177e+07,0.0015069,0.0025782,-0.0017972,-0.0003235,0,0,0,1,0,1
30811,2.7187e+07,0.001502,0.003277,-0.0017411,-0.00031339,0,0,0,1,0,1
30854,2.7197e+07,0.0014987,0.0038087,-0.0018036,-0.00032466,0,0,0,1,0,1
30897,2.721e+07,0.0014973,0.0027568,-0.001778,-0.00032003,0,0,0,1,0,1
30938,2.7221e+07,0.0014989,0.0044077,-0.0018512,-0.00033322,0,0,0,1,0,1
30975,2.7231e+07,0.0015019,0.0054404,-0.001985,-0.00035729,0,0,0,1,0,1
31018,2.7241e+07,0.001505,0.0051203,-0.0021928,-0.00039471,0,0,0,1,0,1
31061,2.7251e+07,0.0015074,0.0041161,-0.0022996,-0.00041392,0,0,0,1,0,1
31102,2.7261e+07,0.00151,0.0044636,-0.0023652,-0.00042573,0,0,0,1,0,1
31142,2.7271e+07,0.0015115,0.0058212,-0.0025201,-0.00045363,0,0,0,1,0,1
31187,2.7281e+07,0.0015116,0.0045877,-0.0026884,-0.00048391,0,0,0,1,0,1
31228,2.7291e+07,0.0015098,0.0048732,-0.0027272,-0.0004909,0,0,0,1,0,1
31268,2.7302e+07,0.001508,0.0038723,-0.0027603,-0.00049685,0,0,0,1,0,1
31310,2.7311e+07,0.0015073,0.0025287,-0.0025381,-0.00045686,0,0,0,1,0,1
31350,2.7321e+07,0.0015079,0.0037641,-0.0024831,-0.00044695,0,0,0,1,0,1
31385,2.7331e+07,0.0015097,0.0026797,-0.0023634,-0.00042541,0,0,0,1,0,1
31427,2.7341e+07,0.0015108,0.001913,-0.0021825,-0.00039284,0,0,0,1,0,1
31467,2.7352e+07,0.0015112,0.0012239,-0.0018461,-0.00033231,0,0,0,1,0,1
31508,2.7362e+07,0.0015113,0.0028989,-0.0017513,-0.00031524,0,0,0,1,0,1
31548,2.7372e+07,0.0015104,0.003606,-0.0017657,-0.00031783,0,0,0,1,0,1
31593,2.7382e+07,0.0015087,0.0040295,-0.0018561,-0.0003341,0,0,0,1,0,1
31634,2.7393e+07,0.0015066,0.0037857,-0.0018139,-0.0003265,0,0,0,1,0,1
31675,2.7403e+07,0.0015051,0.0044033,-0.001958,-0.00035245,0,0,0,1,0,1
31717,2.7413e+07,0.0015033,0.006352,-0.00214,-0.00038519,0,0,0,1,0,1
31759,2.7426e+07,0.0015032,0.0032789,-0.0023188,-0.00041738,0,0,0,1,0,1
31805,2.744e+07,0.0015036,0.0069967,-0.0026595,-0.0004787,0,0,0,1,0,1
31846,2.745e+07,0.0015056,0.0045641,-0.0027842,-0.00050116,0,0,0,1,0,1
31887,2.746e+07,0.0015094,0.0035485,-0.0026858,-0.00048344,0,0,0,1,0,1
31927,2.747e+07,0.0015127,0.0037858,-0.0026112,-0.00047001,0,0,0,1,0,1
31972,2.748e+07,0.0015143,0.0018641,-0.0025638,-0.00046149,0,0,0,1,0,1
32013,2.749e+07,0.0015151,0.0038873,-0.0024028,-0.00043251,0,0,0,1,0,1
32053,2.75e+07,0.0015155,0.0028925,-0.0023796,-0.00042833,0,0,0,1,0,1
32094,2.751e+07,0.0015143,0.0030759,-0.0022355,-0.00040238,0,0,0,1,0,1
32135,2.752e+07,0.0015112,0.0033625,-0.0021702,-0.00039064,0,0,0,1,0,1
32170,2.753e+07,0.0015087,0.0039738,-0.0021964,-0.00039536,0,0,0,1,0,1
32210,2.7541e+07,0.0015061,0.0038432,-0.0021864,-0.00039355,0,0,0,1,0,1
32251,2.7551e+07,0.0015042,0.0045168,-0.0023078,-0.0004154,0,0,0,1,0,1
32293,2.7561e+07,0.0015032,0.0042695,-0.0023271,-0.00041888,0,0,0,1,0,1
32333,2.7571e+07,0.0015033,0.0037443,-0.0023423,-0.00042161,0,0,0,1,0,1
32378,2.7581e+07,0.0015051,0.0045448,-0.002421,-0.00043577,0,0,0,1,0,1
32418,2.7591e+07,0.0015082,0.004197,-0.0024752,-0.00044554,0,0,0,1,0,1
32460,2.7601e+07,0.0015112,0.0047642,-0.002604,-0.00046872,0,0,0,1,0,1
32500,2.7611e+07,0.0015146,0.0032228,-0.0025207,-0.00045372,0,0,0,1,0,1
32542,2.7621e+07,0.0015165,0.0036019,-0.0023709,-0.00042676,0,0,0,1,0,1
32577,2.7631e+07,0.001517,0.0019491,-0.0022308,-0.00040154,0,0,0,1,0,1
32619,2.7642e+07,0.0015164,0.0029893,-0.0020826,-0.00037487,0,0,0,1,0,1
32661,2.7652e+07,0.0015147,0.0020587,-0.0018836,-0.00033904,0,0,0,1,0,1
32702,2.7662e+07,0.0015132,0.0032613,-0.0018051,-0.00032492,0,0,0,1,0,1
32742,2.7672e+07,0.0015109,0.0029308,-0.0017782,-0.00032008,0,0,0,1,0,1
32792,2.7685e+07,0.0015078,0.0018032,-0.0016824,-0.00030282,0,0,0,1,0,1
32833,2.7695e+07,0.0015055,0.0026312,-0.0015727,-0.00028308,0,0,0,1,0,1
32874,2.7705e+07,0.0015045,0.0042911,-0.0016243,-0.00029237,0,0,0,1,0,1
32914,2.7715e+07,0.0015046,0.0036596,-0.0017163,-0.00030894,0,0,0,1,0,1
32955,2.7728e+07,0.0015053,0.0057977,-0.0019772,-0.00035589,0,0,0,1,0,1
32996,2.7738e+07,0.0015067,0.0030456,-0.0020993,-0.00037788,0,0,0,1,0,1
33039,2.7748e+07,0.0015085,0.0049336,-0.0021273,-0.00038292,0,0,0,1,0,1
33080,2.7758e+07,0.0015115,0.0034991,-0.0022181,-0.00039925,0,0,0,1,0,1
33121,2.7769e+07,0.0015134,0.0037906,-0.0022394,-0.0004031,0,0,0,1,0,1
33162,2.7779e+07,0.0015142,0.0053794,-0.0023524,-0.00042344,0,0,0,1,0,1
33206,2.7789e+07,0.0015144,0.004845,-0.0025282,-0.00045508,0,0,0,1,0,1
33247,2.7799e+07,0.0015136,0.0041163,-0.0025005,-0.00045009,0,0,0,1,0,1
33289,2.7809e+07,0.0015132,0.0044508,-0.0025819,-0.00046474,0,0,0,1,0,1
33329,2.7819e+07,0.0015132,0.0027194,-0.0024985,-0.00044973,0,0,0,1,0,1
33371,2.7832e+07,0.0015143,0.0033475,-0.0022782,-0.00041008,0,0,0,1,0,1
33412,2.7842e+07,0.001515,0.002655,-0.0021851,-0.00039333,0,0,0,1,0,1
33455,2.7853e+07,0.0015154,0.0040302,-0.0021691,-0.00039045,0,0,0,1,0,1
33497,2.7862e+07,0.0015151,0.0031063,-0.0020745,-0.0003734,0,0,0,1,0,1
33537,2.7873e+07,0.0015155,0.0018376,-0.0019764,-0.00035575,0,0,0,1,0,1
33578,2.7883e+07,0.0015152,0.0038456,-0.0019383,-0.0003489,0,0,0,1,0,1
33622,2.7893e+07,0.0015137,0.0022158,-0.0019297,-0.00034735,0,0,0,1,0,1
33664,2.7903e+07,0.0015124,0.003375,-0.0018517,-0.00033331,0,0,0,1,0,1
33704,2.7913e+07,0.0015109,0.0038161,-0.0018895,-0.00034011,0,0,0,1,0,1
33745,2.7923e+07,0.0015099,0.0064428,-0.0021384,-0.00038491,0,0,0,1,0,1
33786,2.7936e+07,0.0015093,0.0043316,-0.0023742,-0.00042736,0,0,0,1,0,1
33826,2.7946e+07,0.0015107,0.0038731,-0.0023813,-0.00042863,0,0,0,1,0,1
33868,2.7956e+07,0.0015137,0.0030908,-0.0022916,-0.00041249,0,0,0,1,0,1
33909,2.7966e+07,0.0015169,0.0041393,-0.0022886,-0.00041195,0,0,0,1,0,1
33950,2.7977e+07,0.0015185,0.0029712,-0.0021982,-0.00039568,0,0,0,1,0,1
33998,2.799e+07,0.0015193,0.0043605,-0.0022731,-0.00040916,0,0,0,1,0,1
34038,2.8e+07,0.0015186,0.0036492,-0.0022893,-0.00041208,0,0,0,1,0,1
34080,2.801e+07,0.0015169,0.0031896,-0.0023081,-0.00041545,0,0,0,1,0,1
34120,2.8021e+07,0.0015147,0.0037544,-0.0022054,-0.00039698,0,0,0,1,0,1
34155,2.8031e+07,0.0015126,0.0028378,-0.0022337,-0.00040207,0,0,0,1,0,1
34196,2.8041e+07,0.0015116,0.0031792,-0.0020907,-0.00037633,0,0,0,1,0,1
34239,2.8052e+07,0.0015108,0.0051211,-0.0022429,-0.00040373,0,0,0,1,0,1
34281,2.8062e+07,0.0015101,0.0050353,-0.0024022,-0.00043239,0,0,0,1,0,1
34322,2.8072e+07,0.001511,0.0036713,-0.0024322,-0.0004378,0,0,0,1,0,1
34363,2.8082e+07,0.0015126,0.0044494,-0.0023496,-0.00042292,0,0,0,1,0,1
34408,2.8093e+07,0.0015143,0.0027788,-0.0023275,-0.00041896,0,0,0,1,0,1
34449,2.8102e+07,0.0015158,0.0039476,-0.0023444,-0.00042199,0,0,0,1,0,1
34490,2.8113e+07,0.0015172,0.0031269,-0.0023943,-0.00043097,0,0,0,1,0,1
34531,2.8124e+07,0.0015177,0.0040504,-0.0023827,-0.00042889,0,0,0,1,0,1
34571,2.8134e+07,0.0015169,0.0032895,-0.0023447,-0.00042205,0,0,0,1,0,1
34609,2.8144e+07,0.0015164,0.0052554,-0.0024631,-0.00044335,0,0,0,1,0,1
34649,2.8154e+07,0.0015159,0.0039657,-0.0024418,-0.00043953,0,0,0,1,0,1
34690,2.8165e+07,0.0015143,0.0032029,-0.0024144,-0.0004346,0,0,0,1,0,1
34732,2.8175e+07,0.0015123,0.0043275,-0.0024499,-0.00044099,0,0,0,1,0,1
34773,2.8185e+07,0.0015101,0.0043382,-0.0024287,-0.00043717,0,0,0,1,0,1
34817,2.8195e+07,0.0015084,0.0050444,-0.0026066,-0.00046919,0,0,0,1,0,1
34858,2.8205e+07,0.0015071,0.0061659,-0.002816,-0.00050689,0,0,0,1,0,1
34899,2.8215e+07,0.0015075,0.0033216,-0.0028395,-0.00051112,0,0,0,1,0,1
34940,2.8225e+07,0.0015077,0.0026605,-0.0026112,-0.00047001,0,0,0,1,0,1
34983,2.8238e+07,0.0015093,0.0032325,-0.0024418,-0.00043952,0,0,0,1,0,1
35028,2.8251e+07,0.0015094,0.0022223,-0.0022824,-0.00041083,0,0,0,1,0,1
35069,2.8261e+07,0.0015104,0.0038071,-0.0022121,-0.00039818,0,0,0,1,0,1
35110,2.8271e+07,0.0015109,0.0044367,-0.0022349,-0.00040229,0,0,0,1,0,1
35152,2.8281e+07,0.001511,0.0030481,-0.0021921,-0.00039458,0,0,0,1,0,1
35193,2.8291e+07,0.001513,0.0045254,-0.0022592,-0.00040665,0,0,0,1,0,1
35237,2.8301e+07,0.001513,0.0053003,-0.0023481,-0.00042266,0,0,0,1,0,1
35278,2.8311e+07,0.0015135,0.0042212,-0.0024694,-0.00044449,0,0,0,1,0,1
35318,2.8321e+07,0.001513,0.0040413,-0.0024389,-0.000439,0,0,0,1,0,1
35360,2.8331e+07,0.001512,0.0052307,-0.00258,-0.0004644,0,0,0,1,0,1
35395,2.8342e+07,0.0015114,0.003115,-0.0025669,-0.00046204,0,0,0,1,0,1
35435,2.8353e+07,0.0015102,0.0022399,-0.0022834,-0.00041102,0,0,0,1,0,1
35476,2.8362e+07,0.0015084,0.0029751,-0.0021641,-0.00038953,0,0,0,1,0,1
35516,2.8373e+07,0.0015061,0.0018808,-0.0019175,-0.00034515,0,0,0,1,0,1
35557,2.8383e+07,0.0015036,0.0020566,-0.001794,-0.00032291,0,0,0,1,0,1
35599,2.8393e+07,0.0015017,0.0012283,-0.0016469,-0.00029643,0,0,0,1,0,1
35644,2.8403e+07,0.0015012,0.0014082,-0.0015086,-0.00027155,0,0,0,1,0,1
35684,2.8413e+07,0.0015012,0.0032542,-0.0014202,-0.00025564,0,0,0,1,0,1
35726,2.8423e+07,0.0015003,0.0021309,-0.001386,-0.00024948,0,0,0,1,0,1
35772,2.8436e+07,0.0015007,0.0044183,-0.0014812,-0.00026661,0,0,0,1,0,1
35811,2.8447e+07,0.0015014,0.0015478,-0.001378,-0.00024803,0,0,0,1,0,1
35852,2.8457e+07,0.0015026,0.0067611,-0.0016449,-0.00029607,0,0,0,1,0,1
35893,2.8467e+07,0.0015032,0.006106,-0.002034,-0.00036612,0,0,0,1,0,1
35935,2.8477e+07,0.0015036,0.0047256,-0.0022223,-0.00040002,0,0,0,1,0,1
35976,2.8487e+07,0.0015042,0.0055045,-0.0024255,-0.00043659,0,0,0,1,0,1
36020,2.8498e+07,0.0015041,0.0051154,-0.0025505,-0.00045909,0,0,0,1,0,1
36061,2.8508e+07,0.0015041,0.0044287,-0.0025901,-0.00046623,0,0,0,1,0,1
36101,2.8518e+07,0.0015036,0.0018752,-0.0024442,-0.00043996,0,0,0,1,0,1
36143,2.8528e+07,0.0015026,0.0021883,-0.0022445,-0.00040402,0,0,0,1,0,1
36183,2.8541e+07,0.0015002,0.0027794,-0.0020854,-0.00037536,0,0,0,1,0,1
36224,2.8551e+07,0.0014993,0.0018573,-0.0020359,-0.00036646,0,0,0,1,0,1
36265,2.8561e+07,0.0014984,0.00148,-0.0017043,-0.00030678,0,0,0,1,0,1
36305,2.8571e+07,0.0014979,0.0021894,-0.0016176,-0.00029116,0,0,0,1,0,1
36348,2.8581e+07,0.0014986,0.0017961,-0.0014763,-0.00026573,0,0,0,1,0,1
36389,2.8591e+07,0.0014993,0.0034263,-0.0014757,-0.00026563,0,0,0,1,0,1
