LineNo,TimeUS,Lat,Lng,Alt,RelHomeAlt,RelOriginAlt
316,1.9492e+07,43.601,13.482,81.77,-0.8025,-0.64075
660,1.9559e+07,43.601,13.482,81.77,-0.8025,-0.64166
887,1.9604e+07,43.601,13.482,81.77,-0.8025,-0.64398
1229,1.9765e+07,43.601,13.482,81.79,-0.90988,-0.62758
1505,1.9836e+07,43.601,13.482,81.79,-0.90988,-0.59907
1600,1.9858e+07,43.601,13.482,81.83,-0.74599,-0.59208
1640,1.9868e+07,43.601,13.482,81.83,-0.74599,-0.58668
1682,1.9878e+07,43.601,13.482,81.83,-0.74599,-0.58329
1723,1.9888e+07,43.601,13.482,81.83,-0.74599,-0.57986
1763,1.9901e+07,43.601,13.482,81.83,-0.74599,-0.57536
1804,1.9912e+07,43.601,13.482,81.83,-0.74599,-0.57226
1844,1.9922e+07,43.601,13.482,81.83,-0.74599,-0.56863
1886,1.9932e+07,43.601,13.482,81.83,-0.74599,-0.56376
1926,1.9942e+07,43.601,13.482,81.83,-0.74599,-0.56056
1967,1.9952e+07,43.601,13.482,81.83,-0.74599,-0.5573
2012,1.9962e+07,43.601,13.482,81.83,-0.45777,-0.55398
2055,1.9972e+07,43.601,13.482,81.83,-0.45777,-0.55013
2096,1.9983e+07,43.601,13.482,81.83,-0.45777,-0.54671
2136,1.9993e+07,43.601,13.482,81.83,-0.45777,-0.54188
2177,2.0004e+07,43.601,13.482,81.83,-0.45777,-0.53753
2218,2.0013e+07,43.601,13.482,81.83,-0.45777,-0.5327
2259,2.0024e+07,43.601,13.482,81.83,-0.45777,-0.52833
2300,2.0034e+07,43.601,13.482,81.83,-0.45777,-0.52396
2340,2.0044e+07,43.601,13.482,81.83,-0.45777,-0.51958
2383,2.0054e+07,43.601,13.482,81.87,-0.45777,-0.51474
2427,2.0064e+07,43.601,13.482,81.87,-0.63861,-0.51036
2468,2.0074e+07,43.601,13.482,81.87,-0.63861,-0.50596
2511,2.0085e+07,43.601,13.482,81.87,-0.63861,-0.50155
2551,2.0095e+07,43.601,13.482,81.87,-0.63861,-0.49665
2591,2.0105e+07,43.601,13.482,81.87,-0.63861,-0.49183
2629,2.0115e+07,43.601,13.482,81.87,-0.63861,-0.48782
2670,2.0125e+07,43.601,13.482,81.87,-0.63861,-0.48378
2711,2.0135e+07,43.601,13.482,81.87,-0.63861,-0.47972
2752,2.0145e+07,43.601,13.482,81.87,-0.63861,-0.47563
2793,2.0155e+07,43.601,13.482,81.87,-0.63861,-0.47081
2837,2.0165e+07,43.601,13.482,81.87,-0.75729,-0.46671
2879,2.0175e+07,43.601,13.482,81.87,-0.75729,-0.46258
2920,2.0186e+07,43.601,13.482,81.87,-0.75729,-0.45843
2961,2.0196e+07,43.601,13.482,81.87,-0.75729,-0.45426
3002,2.0205e+07,43.601,13.482,81.87,-0.75729,-0.44945
3040,2.0216e+07,43.601,13.482,81.87,-0.75729,-0.44599
3081,2.0226e+07,43.601,13.482,81.87,-0.75729,-0.44295
3121,2.0235e+07,43.601,13.482,81.87,-0.75729,-0.43985
3162,2.0246e+07,43.601,13.482,81.87,-0.75729,-0.43668
3205,2.0256e+07,43.601,13.482,81.91,-0.75729,-0.4319
3250,2.0265e+07,43.601,13.482,81.91,-0.44646,-0.42869
3291,2.0276e+07,43.601,13.482,81.91,-0.44646,-0.42542
3332,2.0286e+07,43.601,13.482,81.91,-0.44646,-0.4221
3373,2.0296e+07,43.601,13.482,81.91,-0.44646,-0.41873
3415,2.0306e+07,43.601,13.482,81.91,-0.44646,-0.41397
3455,2.0316e+07,43.601,13.482,81.91,-0.44646,-0.41032
3495,2.0326e+07,43.601,13.482,81.91,-0.44646,-0.40663
3536,2.0337e+07,43.601,13.482,81.91,-0.44646,-0.40291
3576,2.0347e+07,43.601,13.482,81.91,-0.44646,-0.39915
3618,2.0357e+07,43.601,13.482,81.91,-0.44646,-0.39488
3666,2.0368e+07,43.601,13.482,81.91,-0.81946,-0.39106
3706,2.0378e+07,43.601,13.482,81.91,-0.81946,-0.38584
3749,2.0388e+07,43.601,13.482,81.91,-0.81946,-0.38199
3791,2.0398e+07,43.601,13.482,81.91,-0.81946,-0.37811
3828,2.0408e+07,43.601,13.482,81.91,-0.81946,-0.37602
3866,2.0419e+07,43.601,13.482,81.91,-0.81946,-0.37382
3906,2.0429e+07,43.601,13.482,81.91,-0.81946,-0.36864
3947,2.0439e+07,43.601,13.482,81.91,-0.81946,-0.36637
3988,2.0449e+07,43.601,13.482,81.91,-0.81946,-0.364
4030,2.046e+07,43.601,13.482,81.91,-0.81946,-0.36156
4076,2.047e+07,43.601,13.482,81.95,-0.4069,-0.35903
4116,2.048e+07,43.601,13.482,81.95,-0.4069,-0.35596
4158,2.049e+07,43.601,13.482,81.95,-0.4069,-0.35129
4199,2.05e+07,43.601,13.482,81.95,-0.4069,-0.34862
4236,2.051e+07,43.601,13.482,81.95,-0.4069,-0.34576
4278,2.0521e+07,43.601,13.482,81.95,-0.4069,-0.34282
4318,2.053e+07,43.601,13.482,81.95,-0.4069,-0.33937
4359,2.0541e+07,43.601,13.482,81.95,-0.4069,-0.33632
4399,2.0551e+07,43.601,13.482,81.95,-0.4069,-0.33169
4440,2.0561e+07,43.601,13.482,81.95,-0.4069,-0.32859
4487,2.0571e+07,43.601,13.482,81.95,-0.55949,-0.32498
4527,2.0582e+07,43.601,13.482,81.95,-0.55949,-0.32177
4569,2.0592e+07,43.601,13.482,81.95,-0.55949,-0.31851
4612,2.0604e+07,43.601,13.482,81.95,-0.55949,-0.31508
4656,2.0616e+07,43.601,13.482,81.95,-0.55949,-0.31065
4697,2.0627e+07,43.601,13.482,81.95,-0.55949,-0.30799
4737,2.0637e+07,43.601,13.482,81.95,-0.55949,-0.30341
4780,2.0647e+07,43.601,13.482,81.98,-0.55949,-0.30068
4821,2.0657e+07,43.601,13.482,81.98,-0.55949,-0.29789
4862,2.0668e+07,43.601,13.482,81.98,-0.55949,-0.29504
4907,2.0678e+07,43.601,13.482,81.98,-0.15824,-0.29166
4948,2.0688e+07,43.601,13.482,81.98,-0.15824,-0.2871
4989,2.0698e+07,43.601,13.482,81.98,-0.15824,-0.28414
5030,2.0708e+07,43.601,13.482,81.98,-0.15824,-0.28111
5071,2.072e+07,43.601,13.482,81.98,-0.15824,-0.27577
5111,2.0731e+07,43.601,13.482,81.98,-0.15824,-0.27178
5153,2.0741e+07,43.601,13.482,81.98,-0.15824,-0.26724
5194,2.0751e+07,43.601,13.482,81.98,-0.15824,-0.26323
5234,2.0761e+07,43.601,13.482,81.98,-0.15824,-0.25921
5279,2.0771e+07,43.601,13.482,81.98,-0.42951,-0.25516
5320,2.0781e+07,43.601,13.482,81.98,-0.42951,-0.2511
5364,2.0792e+07,43.601,13.482,81.98,-0.42951,-0.24703
5407,2.0801e+07,43.601,13.482,81.98,-0.42951,-0.24249
5447,2.0811e+07,43.601,13.482,81.98,-0.42951,-0.2384
5485,2.0824e+07,43.601,13.482,81.98,-0.42951,-0.23355
5526,2.0834e+07,43.601,13.482,81.98,-0.42951,-0.23003
5570,2.0845e+07,43.601,13.482,81.98,-0.42951,-0.22646
5611,2.0854e+07,43.601,13.482,82.02,-0.42951,-0.22241
5651,2.0865e+07,43.601,13.482,82.02,-0.42951,-0.21878
5696,2.0875e+07,43.601,13.482,82.02,-0.28822,-0.21511
5736,2.0885e+07,43.601,13.482,82.02,-0.28822,-0.21059
5779,2.0895e+07,43.601,13.482,82.02,-0.28822,-0.2069
5819,2.0906e+07,43.601,13.482,82.02,-0.28822,-0.20318
5857,2.0915e+07,43.601,13.482,82.02,-0.28822,-0.19911
5896,2.0925e+07,43.601,13.482,82.02,-0.28822,-0.19546
5936,2.0936e+07,43.601,13.482,82.02,-0.28822,-0.19178
5978,2.0946e+07,43.601,13.482,82.02,-0.28822,-0.18728
6019,2.0956e+07,43.601,13.482,82.02,-0.28822,-0.18356
6059,2.0966e+07,43.601,13.482,82.02,-0.28822,-0.17982
6104,2.0976e+07,43.601,13.482,82.02,-0.65557,-0.17605
6144,2.0986e+07,43.601,13.482,82.02,-0.65557,-0.17225
6186,2.0996e+07,43.601,13.482,82.02,-0.65557,-0.16843
6227,2.1006e+07,43.601,13.482,82.02,-0.65557,-0.16394
6267,2.1016e+07,43.601,13.482,82.02,-0.65557,-0.162
6305,2.1026e+07,43.601,13.482,82.02,-0.65557,-0.15996
6346,2.1036e+07,43.601,13.482,82.02,-0.65557,-0.15782
6390,2.1046e+07,43.601,13.482,82.02,-0.65557,-0.15561
6430,2.1056e+07,43.601,13.482,82.08,-0.65557,-0.15115
6474,2.1069e+07,43.601,13.482,82.08,-0.65557,-0.14753
6518,2.1079e+07,43.601,13.482,82.08,-0.63296,-0.14516
6559,2.1089e+07,43.601,13.482,82.08,-0.63296,-0.14271
6601,2.1099e+07,43.601,13.482,82.08,-0.63296,-0.14019
6641,2.1111e+07,43.601,13.482,82.08,-0.63296,-0.13851
6679,2.1122e+07,43.601,13.482,82.08,-0.63296,-0.13758
6719,2.1132e+07,43.601,13.482,82.08,-0.63296,-0.13607
6762,2.1142e+07,43.601,13.482,82.08,-0.63296,-0.13168
6802,2.1152e+07,43.601,13.482,82.08,-0.63296,-0.13051
6843,2.1161e+07,43.601,13.482,82.08,-0.63296,-0.12922
6884,2.1172e+07,43.601,13.482,82.08,-0.63296,-0.12781
6929,2.1182e+07,43.601,13.482,82.08,-0.48037,-0.1263
6970,2.1192e+07,43.601,13.482,82.08,-0.48037,-0.12195
7010,2.1203e+07,43.601,13.482,82.08,-0.48037,-0.12035
7051,2.1215e+07,43.601,13.482,82.08,-0.48037,-0.11851
7091,2.1226e+07,43.601,13.482,82.08,-0.48037,-0.11783
7132,2.1236e+07,43.601,13.482,82.08,-0.48037,-0.11658
7175,2.1246e+07,43.601,13.482,82.08,-0.48037,-0.11563
7217,2.1256e+07,43.601,13.482,82.13,-0.48037,-0.11455
7258,2.1265e+07,43.601,13.482,82.13,-0.48037,-0.11028
7302,2.1276e+07,43.601,13.482,82.13,-0.69513,-0.1091
7344,2.1286e+07,43.601,13.482,82.13,-0.69513,-0.1078
7387,2.1296e+07,43.601,13.482,82.13,-0.69513,-0.10639
7427,2.1307e+07,43.601,13.482,82.13,-0.69513,-0.10489
7471,2.1321e+07,43.601,13.482,82.13,-0.69513,-0.10289
7512,2.1332e+07,43.601,13.482,82.13,-0.69513,-0.10324
7553,2.1341e+07,43.601,13.482,82.13,-0.69513,-0.10342
7595,2.1352e+07,43.601,13.482,82.13,-0.69513,-0.10344
7635,2.1361e+07,43.601,13.482,82.13,-0.69513,-0.099287
7676,2.1372e+07,43.601,13.482,82.13,-0.69513,-0.099164
7722,2.1382e+07,43.601,13.482,82.13,-0.4069,-0.098878
7763,2.1392e+07,43.601,13.482,82.13,-0.4069,-0.098447
7805,2.1402e+07,43.601,13.482,82.13,-0.4069,-0.09788
7848,2.1414e+07,43.601,13.482,82.13,-0.4069,-0.097259
7889,2.1426e+07,43.601,13.482,82.13,-0.4069,-0.096078
7929,2.1437e+07,43.601,13.482,82.13,-0.4069,-0.095976
7970,2.1447e+07,43.601,13.482,82.13,-0.4069,-0.091927
8015,2.1457e+07,43.601,13.482,82.18,-0.4069,-0.091694
8055,2.1468e+07,43.601,13.482,82.18,-0.4069,-0.091309
8100,2.1478e+07,43.601,13.482,82.18,-0.69513,-0.090384
8140,2.1487e+07,43.601,13.482,82.18,-0.69513,-0.089726
8182,2.1498e+07,43.601,13.482,82.18,-0.69513,-0.088946
8223,2.1508e+07,43.601,13.482,82.18,-0.69513,-0.084954
8263,2.1518e+07,43.601,13.482,82.18,-0.69513,-0.084076
8298,2.1528e+07,43.601,13.482,82.18,-0.69513,-0.084855
8339,2.1539e+07,43.601,13.482,82.18,-0.69513,-0.085832
8379,2.1548e+07,43.601,13.482,82.18,-0.69513,-0.086238
8420,2.1559e+07,43.601,13.482,82.18,-0.69513,-0.08686
8461,2.1568e+07,43.601,13.482,82.18,-0.69513,-0.083353
8511,2.1582e+07,43.601,13.482,82.18,-0.53124,-0.086423
8552,2.1591e+07,43.601,13.482,82.18,-0.53124,-0.082552
8593,2.1601e+07,43.601,13.482,82.18,-0.53124,-0.082685
8634,2.1612e+07,43.601,13.482,82.18,-0.53124,-0.082677
8671,2.1622e+07,43.601,13.482,82.18,-0.53124,-0.083964
8712,2.1634e+07,43.601,13.482,82.18,-0.53124,-0.084302
8754,2.1645e+07,43.601,13.482,82.23,-0.53124,-0.085225
8795,2.1655e+07,43.601,13.482,82.23,-0.53124,-0.085592
8837,2.1665e+07,43.601,13.482,82.23,-0.53124,-0.081833
8878,2.1675e+07,43.601,13.482,82.23,-0.53124,-0.08243
8923,2.1685e+07,43.601,13.482,82.23,-0.52558,-0.082859
8963,2.1695e+07,43.601,13.482,82.23,-0.52558,-0.083134
9004,2.1705e+07,43.601,13.482,82.23,-0.52558,-0.083255
9044,2.1715e+07,43.601,13.482,82.23,-0.52558,-0.079553
9085,2.1725e+07,43.601,13.482,82.23,-0.52558,-0.080967
9123,2.1735e+07,43.601,13.482,82.23,-0.52558,-0.081824
9163,2.1746e+07,43.601,13.482,82.23,-0.52558,-0.08325
9204,2.1756e+07,43.601,13.482,82.23,-0.52558,-0.083758
9244,2.1766e+07,43.601,13.482,82.23,-0.52558,-0.080135
9285,2.1776e+07,43.601,13.482,82.23,-0.52558,-0.080849
9329,2.1786e+07,43.601,13.482,82.23,-0.25997,-0.0814
9373,2.1796e+07,43.601,13.482,82.23,-0.25997,-0.081792
9414,2.1806e+07,43.601,13.482,82.23,-0.25997,-0.082035
9454,2.1815e+07,43.601,13.482,82.23,-0.25997,-0.078468
9493,2.1825e+07,43.601,13.482,82.23,-0.25997,-0.07895
9538,2.1876e+07,43.601,13.482,82.29,-0.25997,-0.075928
9583,2.1886e+07,43.601,13.482,82.29,-0.33909,-0.075718
9624,2.1896e+07,43.601,13.482,82.29,-0.33909,-0.075376
9665,2.1906e+07,43.601,13.482,82.29,-0.33909,-0.074915
9705,2.1915e+07,43.601,13.482,82.29,-0.33909,-0.071456
9739,2.1926e+07,43.601,13.482,82.29,-0.33909,-0.071671
9780,2.1936e+07,43.601,13.482,82.29,-0.33909,-0.071746
9821,2.1946e+07,43.601,13.482,82.29,-0.33909,-0.071681
9862,2.1956e+07,43.601,13.482,82.29,-0.33909,-0.071491
9903,2.1965e+07,43.601,13.482,82.29,-0.33909,-0.068088
9944,2.1975e+07,43.601,13.482,82.29,-0.33909,-0.06778
9989,2.1985e+07,43.601,13.482,82.29,-0.53124,-0.067353
10030,2.1996e+07,43.601,13.482,82.29,-0.53124,-0.066805
10071,2.2006e+07,43.601,13.482,82.29,-0.53124,-0.066147
10111,2.2016e+07,43.601,13.482,82.29,-0.53124,-0.062783
10149,2.2026e+07,43.601,13.482,82.29,-0.53124,-0.063622
10189,2.2036e+07,43.601,13.482,82.29,-0.53124,-0.064304
10232,2.2046e+07,43.601,13.482,82.35,-0.53124,-0.064826
10272,2.2056e+07,43.601,13.482,82.35,-0.53124,-0.065203
10314,2.2065e+07,43.601,13.482,82.35,-0.53124,-0.061907
10354,2.2076e+07,43.601,13.482,82.35,-0.53124,-0.062152
10400,2.2085e+07,43.601,13.482,82.35,-0.24301,-0.062262
10440,2.2096e+07,43.601,13.482,82.35,-0.24301,-0.062235
10482,2.2106e+07,43.601,13.482,82.35,-0.24301,-0.062086
10523,2.2116e+07,43.601,13.482,82.35,-0.24301,-0.058845
10560,2.2126e+07,43.601,13.482,82.35,-0.24301,-0.059052
10601,2.2136e+07,43.601,13.482,82.35,-0.24301,-0.059121
10641,2.2147e+07,43.601,13.482,82.35,-0.24301,-0.059065
10683,2.2158e+07,43.601,13.482,82.35,-0.24301,-0.058557
10723,2.2168e+07,43.601,13.482,82.35,-0.24301,-0.057936
10765,2.2178e+07,43.601,13.482,82.35,-0.24301,-0.054767
10810,2.2188e+07,43.601,13.482,82.35,-0.26562,-0.054365
10850,2.2198e+07,43.601,13.482,82.35,-0.26562,-0.053849
10891,2.2209e+07,43.601,13.482,82.35,-0.26562,-0.053231
10937,2.2224e+07,43.601,13.482,82.35,-0.26562,-0.05127
10979,2.2234e+07,43.601,13.482,82.35,-0.26562,-0.051069
11019,2.2245e+07,43.601,13.482,82.35,-0.26562,-0.050748
11062,2.2255e+07,43.601,13.482,82.41,-0.26562,-0.049996
11102,2.2265e+07,43.601,13.482,82.41,-0.26562,-0.046907
11144,2.2275e+07,43.601,13.482,82.41,-0.26562,-0.046365
11190,2.2286e+07,43.601,13.482,82.41,-0.62166,-0.045725
11232,2.2295e+07,43.601,13.482,82.41,-0.62166,-0.044673
11273,2.2306e+07,43.601,13.482,82.41,-0.62166,-0.04383
11313,2.2316e+07,43.601,13.482,82.41,-0.62166,-0.042897
11355,2.2326e+07,43.601,13.482,82.41,-0.62166,-0.039859
11392,2.2336e+07,43.601,13.482,82.41,-0.62166,-0.04094
11433,2.2346e+07,43.601,13.482,82.41,-0.62166,-0.041851
11474,2.2356e+07,43.601,13.482,82.41,-0.62166,-0.042603
11514,2.2367e+07,43.601,13.482,82.41,-0.62166,-0.043213
11556,2.2377e+07,43.601,13.482,82.41,-0.62166,-0.043681
11601,2.2387e+07,43.601,13.482,82.41,-0.20345,-0.043713
11644,2.2398e+07,43.601,13.482,82.41,-0.20345,-0.04078
11685,2.2407e+07,43.601,13.482,82.41,-0.20345,-0.040994
11725,2.2418e+07,43.601,13.482,82.41,-0.20345,-0.04108
11766,2.2427e+07,43.601,13.482,82.41,-0.20345,-0.04117
11803,2.2439e+07,43.601,13.482,82.41,-0.20345,-0.041421
11845,2.2449e+07,43.601,13.482,82.41,-0.20345,-0.040965
11887,2.2458e+07,43.601,13.482,82.45,-0.20345,-0.038093
11928,2.2469e+07,43.601,13.482,82.45,-0.20345,-0.038102
11970,2.2479e+07,43.601,13.482,82.45,-0.20345,-0.038001
12015,2.2489e+07,43.601,13.482,82.45,-0.59905,-0.037786
12056,2.2499e+07,43.601,13.482,82.45,-0.59905,-0.037458
12096,2.251e+07,43.601,13.482,82.45,-0.59905,-0.037024
12140,2.2523e+07,43.601,13.482,82.45,-0.59905,-0.037599
12182,2.2534e+07,43.601,13.482,82.45,-0.59905,-0.038579
12222,2.2544e+07,43.601,13.482,82.45,-0.59905,-0.039392
12260,2.2554e+07,43.601,13.482,82.45,-0.59905,-0.036627
12300,2.2564e+07,43.601,13.482,82.45,-0.59905,-0.037588
12341,2.2574e+07,43.601,13.482,82.45,-0.59905,-0.038398
12383,2.2585e+07,43.601,13.482,82.45,-0.59905,-0.03907
12430,2.2595e+07,43.601,13.482,82.45,-0.26562,-0.03934
12470,2.2605e+07,43.601,13.482,82.45,-0.26562,-0.036633
12511,2.2615e+07,43.601,13.482,82.45,-0.26562,-0.037063
12552,2.2625e+07,43.601,13.482,82.45,-0.26562,-0.037361
12589,2.2635e+07,43.601,13.482,82.45,-0.26562,-0.038214
12629,2.2646e+07,43.601,13.482,82.5,-0.26562,-0.038919
12670,2.2656e+07,43.601,13.482,82.5,-0.26562,-0.039215
12711,2.2666e+07,43.601,13.482,82.5,-0.26562,-0.03657
12751,2.2676e+07,43.601,13.482,82.5,-0.26562,-0.03701
12794,2.2685e+07,43.601,13.482,82.5,-0.26562,-0.037331
12839,2.2695e+07,43.601,13.482,82.5,-0.44081,-0.037533
12879,2.2706e+07,43.601,13.482,82.5,-0.44081,-0.037624
12920,2.2716e+07,43.601,13.482,82.5,-0.44081,-0.035032
12960,2.2726e+07,43.601,13.482,82.5,-0.44081,-0.035024
12998,2.2738e+07,43.601,13.482,82.5,-0.44081,-0.035522
13038,2.2748e+07,43.601,13.482,82.5,-0.44081,-0.03688
13080,2.2758e+07,43.601,13.482,82.5,-0.44081,-0.037575
13121,2.2769e+07,43.601,13.482,82.5,-0.44081,-0.038388
13161,2.2779e+07,43.601,13.482,82.5,-0.44081,-0.035867
13204,2.2789e+07,43.601,13.482,82.5,-0.44081,-0.036557
13249,2.2799e+07,43.601,13.482,82.5,-0.33343,-0.037107
13290,2.281e+07,43.601,13.482,82.5,-0.33343,-0.037532
13331,2.282e+07,43.601,13.482,82.5,-0.33343,-0.037585
13371,2.283e+07,43.601,13.482,82.5,-0.33343,-0.038715
13412,2.2841e+07,43.601,13.482,82.5,-0.33343,-0.039688
13452,2.2851e+07,43.601,13.482,82.54,-0.33343,-0.040285
13494,2.2861e+07,43.601,13.482,82.54,-0.33343,-0.037863
13535,2.2871e+07,43.601,13.482,82.54,-0.33343,-0.038592
13575,2.2881e+07,43.601,13.482,82.54,-0.33343,-0.039191
13617,2.2891e+07,43.601,13.482,82.54,-0.33343,-0.039658
13661,2.2901e+07,43.601,13.482,82.54,-0.48602,-0.040013
13703,2.2912e+07,43.601,13.482,82.54,-0.48602,-0.040254
13743,2.2921e+07,43.601,13.482,82.54,-0.48602,-0.037901
13784,2.2931e+07,43.601,13.482,82.54,-0.48602,-0.037812
13822,2.2942e+07,43.601,13.482,82.54,-0.48602,-0.039362
13862,2.2953e+07,43.601,13.482,82.54,-0.48602,-0.040522
13903,2.2963e+07,43.601,13.482,82.54,-0.48602,-0.041765
13945,2.2973e+07,43.601,13.482,82.54,-0.48602,-0.042872
13986,2.2982e+07,43.601,13.482,82.54,-0.48602,-0.04059
14027,2.2993e+07,43.601,13.482,82.54,-0.48602,-0.041569
14071,2.3003e+07,43.601,13.482,82.54,-0.43516,-0.04241
14113,2.3013e+07,43.601,13.482,82.54,-0.43516,-0.043128
14153,2.3023e+07,43.601,13.482,82.54,-0.43516,-0.043734
14198,2.3036e+07,43.601,13.482,82.54,-0.43516,-0.044839
14240,2.3046e+07,43.601,13.482,82.6,-0.43516,-0.046458
14278,2.3056e+07,43.601,13.482,82.6,-0.43516,-0.044275
14320,2.3066e+07,43.601,13.482,82.6,-0.43516,-0.045762
14360,2.3076e+07,43.601,13.482,82.6,-0.43516,-0.0471
14401,2.3087e+07,43.601,13.482,82.6,-0.43516,-0.048302
14441,2.3097e+07,43.601,13.482,82.6,-0.43516,-0.049367
14487,2.3107e+07,43.601,13.482,82.6,-0.48602,-0.050082
14528,2.3117e+07,43.601,13.482,82.6,-0.48602,-0.047977
14569,2.3128e+07,43.601,13.482,82.6,-0.48602,-0.048801
14610,2.3137e+07,43.601,13.482,82.6,-0.48602,-0.049507
14650,2.315e+07,43.601,13.482,82.6,-0.48602,-0.050937
14691,2.3161e+07,43.601,13.482,82.6,-0.48602,-0.052828
14731,2.3171e+07,43.601,13.482,82.6,-0.48602,-0.050578
14772,2.318e+07,43.601,13.482,82.6,-0.48602,-0.052344
14813,2.3191e+07,43.601,13.482,82.6,-0.48602,-0.053959
14858,2.3201e+07,43.601,13.482,82.6,-0.69513,-0.055446
14900,2.3211e+07,43.601,13.482,82.6,-0.69513,-0.053448
14940,2.3221e+07,43.601,13.482,82.6,-0.69513,-0.054811
14981,2.3231e+07,43.601,13.482,82.6,-0.69513,-0.056034
15021,2.3241e+07,43.601,13.482,82.6,-0.69513,-0.05713
15062,2.3251e+07,43.601,13.482,82.65,-0.69513,-0.06006
15100,2.3262e+07,43.601,13.482,82.65,-0.69513,-0.062967
15140,2.3272e+07,43.601,13.482,82.65,-0.69513,-0.065678
15183,2.3283e+07,43.601,13.482,82.65,-0.69513,-0.067997
15223,2.3293e+07,43.601,13.482,82.65,-0.69513,-0.06611
15269,2.3304e+07,43.601,13.482,82.65,-0.72338,-0.068464
15309,2.3314e+07,43.601,13.482,82.65,-0.72338,-0.07047
15351,2.3324e+07,43.601,13.482,82.65,-0.72338,-0.072497
15394,2.3336e+07,43.601,13.482,82.65,-0.72338,-0.076154
15435,2.3347e+07,43.601,13.482,82.65,-0.72338,-0.079942
15477,2.3357e+07,43.601,13.482,82.65,-0.72338,-0.083318
15514,2.3368e+07,43.601,13.482,82.65,-0.72338,-0.086304
15555,2.3378e+07,43.601,13.482,82.65,-0.72338,-0.084567
15597,2.3388e+07,43.601,13.482,82.65,-0.72338,-0.087724
15637,2.3398e+07,43.601,13.482,82.65,-0.72338,-0.090678
15684,2.3408e+07,43.601,13.482,82.65,-0.46342,-0.09345
15724,2.3419e+07,43.601,13.482,82.65,-0.46342,-0.096039
15766,2.3429e+07,43.601,13.482,82.65,-0.46342,-0.09828
15808,2.3439e+07,43.601,13.482,82.69,-0.46342,-0.096628
15852,2.3452e+07,43.601,13.482,82.69,-0.46342,-0.10429
15893,2.3463e+07,43.601,13.482,82.69,-0.46342,-0.10268
15934,2.3473e+07,43.601,13.482,82.69,-0.46342,-0.10551
15975,2.3483e+07,43.601,13.482,82.69,-0.46342,-0.10832
16015,2.3493e+07,43.601,13.482,82.69,-0.46342,-0.11094
16056,2.3503e+07,43.601,13.482,82.69,-0.46342,-0.1134
16101,2.3513e+07,43.601,13.482,82.69,-0.48602,-0.11187
16142,2.3523e+07,43.601,13.482,82.69,-0.48602,-0.11419
16183,2.3533e+07,43.601,13.482,82.69,-0.48602,-0.11635
16223,2.3544e+07,43.601,13.482,82.69,-0.48602,-0.11837
16268,2.3559e+07,43.601,13.482,82.69,-0.48602,-0.12068
16309,2.3569e+07,43.601,13.482,82.69,-0.48602,-0.12339
16351,2.358e+07,43.601,13.482,82.69,-0.48602,-0.12609
16391,2.359e+07,43.601,13.482,82.69,-0.48602,-0.12847
16432,2.36e+07,43.601,13.482,82.69,-0.48602,-0.12705
16478,2.3611e+07,43.601,13.482,82.69,-0.51428,-0.12942
16519,2.3621e+07,43.601,13.482,82.69,-0.51428,-0.13151
16561,2.3631e+07,43.601,13.482,82.69,-0.51428,-0.13358
16604,2.3641e+07,43.601,13.482,82.75,-0.51428,-0.1355
16644,2.3656e+07,43.601,13.482,82.75,-0.51428,-0.1377
16685,2.3667e+07,43.601,13.482,82.75,-0.51428,-0.14053
16727,2.3677e+07,43.601,13.482,82.75,-0.51428,-0.14319
16767,2.3687e+07,43.601,13.482,82.75,-0.51428,-0.14189
16808,2.3697e+07,43.601,13.482,82.75,-0.51428,-0.14443
16848,2.3707e+07,43.601,13.482,82.75,-0.51428,-0.1468
16894,2.3718e+07,43.601,13.482,82.75,-0.22041,-0.14902
16934,2.3728e+07,43.601,13.482,82.75,-0.22041,-0.15097
16975,2.3738e+07,43.601,13.482,82.75,-0.22041,-0.14972
17016,2.3748e+07,43.601,13.482,82.75,-0.22041,-0.15168
17050,2.3758e+07,43.601,13.482,82.75,-0.22041,-0.15353
17090,2.3769e+07,43.601,13.482,82.75,-0.22041,-0.15536
17133,2.3779e+07,43.601,13.482,82.75,-0.22041,-0.15706
17175,2.3789e+07,43.601,13.482,82.75,-0.22041,-0.15863
17215,2.3799e+07,43.601,13.482,82.75,-0.22041,-0.15746
17256,2.3809e+07,43.601,13.482,82.75,-0.22041,-0.15893
17301,2.382e+07,43.601,13.482,82.75,-0.46342,-0.16028
17342,2.3829e+07,43.601,13.482,82.75,-0.46342,-0.16153
17383,2.384e+07,43.601,13.482,82.75,-0.46342,-0.16266
17425,2.3849e+07,43.601,13.482,82.79,-0.46342,-0.16153
17467,2.3859e+07,43.601,13.482,82.79,-0.46342,-0.16361
17507,2.387e+07,43.601,13.482,82.79,-0.46342,-0.16544
17549,2.388e+07,43.601,13.482,82.79,-0.46342,-0.16723
17590,2.389e+07,43.601,13.482,82.79,-0.46342,-0.16891
17631,2.39e+07,43.601,13.482,82.79,-0.46342,-0.17046
17672,2.391e+07,43.601,13.482,82.79,-0.46342,-0.1694
17716,2.392e+07,43.601,13.482,82.79,-0.55384,-0.17086
17757,2.393e+07,43.601,13.482,82.79,-0.55384,-0.1722
17798,2.3941e+07,43.601,13.482,82.79,-0.55384,-0.17344
17846,2.3956e+07,43.601,13.482,82.79,-0.55384,-0.17527
17886,2.3967e+07,43.601,13.482,82.79,-0.55384,-0.17757
17928,2.3977e+07,43.601,13.482,82.79,-0.55384,-0.17964
17969,2.3987e+07,43.601,13.482,82.79,-0.55384,-0.17867
18010,2.3997e+07,43.601,13.482,82.79,-0.55384,-0.18072
18051,2.4008e+07,43.601,13.482,82.79,-0.55384,-0.18255
18095,2.4019e+07,43.601,13.482,82.79,-0.53124,-0.18435
18137,2.4029e+07,43.601,13.482,82.79,-0.53124,-0.18595
18177,2.4039e+07,43.601,13.482,82.79,-0.53124,-0.18503
18220,2.4049e+07,43.601,13.482,82.84,-0.53124,-0.18661
18260,2.4059e+07,43.601,13.482,82.84,-0.53124,-0.18808
18300,2.4069e+07,43.601,13.482,82.84,-0.53124,-0.19053
18341,2.408e+07,43.601,13.482,82.84,-0.53124,-0.19293
18382,2.409e+07,43.601,13.482,82.84,-0.53124,-0.19207
18423,2.41e+07,43.601,13.482,82.84,-0.53124,-0.19433
18464,2.411e+07,43.601,13.482,82.84,-0.53124,-0.19646
18511,2.4122e+07,43.601,13.482,82.84,-0.62166,-0.19832
18552,2.4133e+07,43.601,13.482,82.84,-0.62166,-0.20014
18593,2.4142e+07,43.601,13.482,82.84,-0.62166,-0.19941
18634,2.4153e+07,43.601,13.482,82.84,-0.62166,-0.20112
18675,2.4163e+07,43.601,13.482,82.84,-0.62166,-0.2028
18712,2.4176e+07,43.601,13.482,82.84,-0.62166,-0.20558
18753,2.4186e+07,43.601,13.482,82.84,-0.62166,-0.20843
18795,2.4197e+07,43.601,13.482,82.84,-0.62166,-0.21105
18835,2.4207e+07,43.601,13.482,82.84,-0.62166,-0.21032
18877,2.4217e+07,43.601,13.482,82.84,-0.62166,-0.2129
18921,2.4227e+07,43.601,13.482,82.84,-0.56514,-0.21532
18962,2.4237e+07,43.601,13.482,82.84,-0.56514,-0.21751
19003,2.4248e+07,43.601,13.482,82.84,-0.56514,-0.21965
19045,2.426e+07,43.601,13.482,82.88,-0.56514,-0.22267
19086,2.4271e+07,43.601,13.482,82.88,-0.56514,-0.22561
19126,2.4281e+07,43.601,13.482,82.88,-0.56514,-0.22837
19168,2.4291e+07,43.601,13.482,82.88,-0.56514,-0.22774
19209,2.4301e+07,43.601,13.482,82.88,-0.56514,-0.23044
19249,2.4311e+07,43.601,13.482,82.88,-0.56514,-0.23299
19290,2.4321e+07,43.601,13.482,82.88,-0.56514,-0.2354
19334,2.4331e+07,43.601,13.482,82.88,-0.84772,-0.23768
19376,2.4341e+07,43.601,13.482,82.88,-0.84772,-0.2371
19416,2.4351e+07,43.601,13.482,82.88,-0.84772,-0.23927
19457,2.4361e+07,43.601,13.482,82.88,-0.84772,-0.24131
19498,2.4374e+07,43.601,13.482,82.88,-0.84772,-0.24514
19539,2.4384e+07,43.601,13.482,82.88,-0.84772,-0.24894
19582,2.4394e+07,43.601,13.482,82.88,-0.84772,-0.24844
19622,2.4404e+07,43.601,13.482,82.88,-0.84772,-0.2521
19664,2.4415e+07,43.601,13.482,82.88,-0.84772,-0.25559
19709,2.4425e+07,43.601,13.482,82.88,-0.55949,-0.25884
19750,2.4435e+07,43.601,13.482,82.88,-0.55949,-0.26191
19791,2.4445e+07,43.601,13.482,82.88,-0.55949,-0.26488
19834,2.4456e+07,43.601,13.482,82.93,-0.55949,-0.2645
19875,2.4465e+07,43.601,13.482,82.93,-0.55949,-0.26734
19912,2.4476e+07,43.601,13.482,82.93,-0.55949,-0.27095
19953,2.4486e+07,43.601,13.482,82.93,-0.55949,-0.27443
19994,2.4496e+07,43.601,13.482,82.93,-0.55949,-0.27773
20034,2.4507e+07,43.601,13.482,82.93,-0.55949,-0.28086
20075,2.4517e+07,43.601,13.482,82.93,-0.55949,-0.2838
20121,2.4527e+07,43.601,13.482,82.93,-0.48037,-0.28348
20162,2.4538e+07,43.601,13.482,82.93,-0.48037,-0.2863
20202,2.4548e+07,43.601,13.482,82.93,-0.48037,-0.28902
20243,2.4558e+07,43.601,13.482,82.93,-0.48037,-0.2916
20284,2.4568e+07,43.601,13.482,82.93,-0.48037,-0.29132
20323,2.4578e+07,43.601,13.482,82.93,-0.48037,-0.29442
20363,2.4588e+07,43.601,13.482,82.93,-0.48037,-0.29736
20404,2.4598e+07,43.601,13.482,82.93,-0.48037,-0.30015
20444,2.4609e+07,43.601,13.482,82.93,-0.48037,-0.30281
20486,2.4619e+07,43.601,13.482,82.93,-0.48037,-0.30533
20533,2.4629e+07,43.601,13.482,82.93,-0.52558,-0.30512
20575,2.4639e+07,43.601,13.482,82.98,-0.52558,-0.30755
20616,2.4649e+07,43.601,13.482,82.98,-0.52558,-0.30986
20656,2.4659e+07,43.601,13.482,82.98,-0.52558,-0.31205
20697,2.4669e+07,43.601,13.482,82.98,-0.52558,-0.31188
20737,2.468e+07,43.601,13.482,82.98,-0.52558,-0.31471
20778,2.469e+07,43.601,13.482,82.98,-0.52558,-0.31743
20819,2.47e+07,43.601,13.482,82.98,-0.52558,-0.32001
20860,2.471e+07,43.601,13.482,82.98,-0.52558,-0.32247
20901,2.472e+07,43.601,13.482,82.98,-0.52558,-0.32235
20945,2.4731e+07,43.601,13.482,82.98,-0.35039,-0.32471
20988,2.474e+07,43.601,13.482,82.98,-0.35039,-0.32694
21028,2.4751e+07,43.601,13.482,82.98,-0.35039,-0.32907
21071,2.4761e+07,43.601,13.482,82.98,-0.35039,-0.3311
21111,2.4771e+07,43.601,13.482,82.98,-0.35039,-0.33103
21152,2.4782e+07,43.601,13.482,82.98,-0.35039,-0.33307
21194,2.4792e+07,43.601,13.482,82.98,-0.35039,-0.33501
21234,2.4802e+07,43.601,13.482,82.98,-0.35039,-0.33688
21275,2.4813e+07,43.601,13.482,82.98,-0.35039,-0.33865
21316,2.4823e+07,43.601,13.482,82.98,-0.35039,-0.33862
21363,2.4834e+07,43.601,13.482,82.98,-0.42386,-0.34032
21405,2.4844e+07,43.601,13.482,83.03,-0.42386,-0.34194
21446,2.4853e+07,43.601,13.482,83.03,-0.42386,-0.34347
21488,2.4864e+07,43.601,13.482,83.03,-0.42386,-0.34492
21528,2.4874e+07,43.601,13.482,83.03,-0.42386,-0.34493
21569,2.4885e+07,43.601,13.482,83.03,-0.42386,-0.34666
21609,2.4896e+07,43.601,13.482,83.03,-0.42386,-0.3483
21650,2.4906e+07,43.601,13.482,83.03,-0.42386,-0.34985
21690,2.4916e+07,43.601,13.482,83.03,-0.42386,-0.35131
21732,2.4926e+07,43.601,13.482,83.03,-0.42386,-0.3527
21779,2.4936e+07,43.601,13.482,83.03,-0.51993,-0.35403
21819,2.4946e+07,43.601,13.482,83.03,-0.51993,-0.35409
21860,2.4956e+07,43.601,13.482,83.03,-0.51993,-0.35536
21901,2.4966e+07,43.601,13.482,83.03,-0.51993,-0.35656
21945,2.4979e+07,43.601,13.482,83.03,-0.51993,-0.35837
21985,2.4989e+07,43.601,13.482,83.03,-0.51993,-0.36008
22026,2.4999e+07,43.601,13.482,83.03,-0.51993,-0.3617
22066,2.501e+07,43.601,13.482,83.03,-0.51993,-0.36325
22108,2.502e+07,43.601,13.482,83.03,-0.51993,-0.36339
22149,2.503e+07,43.601,13.482,83.03,-0.51993,-0.36487
22194,2.504e+07,43.601,13.482,83.03,-0.54254,-0.36628
22237,2.505e+07,43.601,13.482,83.07,-0.54254,-0.36763
22277,2.5061e+07,43.601,13.482,83.07,-0.54254,-0.36892
22318,2.5072e+07,43.601,13.482,83.07,-0.54254,-0.37083
22359,2.5083e+07,43.601,13.482,83.07,-0.54254,-0.37264
22400,2.5093e+07,43.601,13.482,83.07,-0.54254,-0.37436
22441,2.5103e+07,43.601,13.482,83.07,-0.54254,-0.37456
22481,2.5114e+07,43.601,13.482,83.07,-0.54254,-0.3762
22523,2.5124e+07,43.601,13.482,83.07,-0.54254,-0.3778
22563,2.5134e+07,43.601,13.482,83.07,-0.54254,-0.3793
22609,2.5145e+07,43.601,13.482,83.07,-0.68948,-0.38074
22649,2.5155e+07,43.601,13.482,83.07,-0.68948,-0.38214
22691,2.5165e+07,43.601,13.482,83.07,-0.68948,-0.38239
22732,2.5175e+07,43.601,13.482,83.07,-0.68948,-0.38371
22769,2.5185e+07,43.601,13.482,83.07,-0.68948,-0.38611
22809,2.5196e+07,43.601,13.482,83.07,-0.68948,-0.38836
22849,2.5206e+07,43.601,13.482,83.07,-0.68948,-0.39051
22891,2.5216e+07,43.601,13.482,83.07,-0.68948,-0.39257
22931,2.5226e+07,43.601,13.482,83.07,-0.68948,-0.39453
22972,2.5236e+07,43.601,13.482,83.07,-0.68948,-0.39485
23017,2.5247e+07,43.601,13.482,83.07,-0.49168,-0.39675
23062,2.5257e+07,43.601,13.482,83.11,-0.49168,-0.39862
23103,2.5267e+07,43.601,13.482,83.11,-0.49168,-0.40038
23144,2.5278e+07,43.601,13.482,83.11,-0.49168,-0.40244
23185,2.5289e+07,43.601,13.482,83.11,-0.49168,-0.40444
23225,2.5299e+07,43.601,13.482,83.11,-0.49168,-0.40636
23266,2.531e+07,43.601,13.482,83.11,-0.49168,-0.4082
23309,2.532e+07,43.601,13.482,83.11,-0.49168,-0.40858
23350,2.533e+07,43.601,13.482,83.11,-0.49168,-0.41031
23391,2.534e+07,43.601,13.482,83.11,-0.49168,-0.41197
23435,2.535e+07,43.601,13.482,83.11,-0.54254,-0.41358
23477,2.536e+07,43.601,13.482,83.11,-0.54254,-0.41513
23517,2.537e+07,43.601,13.482,83.11,-0.54254,-0.41554
23559,2.538e+07,43.601,13.482,83.11,-0.54254,-0.41705
23602,2.539e+07,43.601,13.482,83.11,-0.54254,-0.419
23643,2.54e+07,43.601,13.482,83.11,-0.54254,-0.42087
23684,2.5411e+07,43.601,13.482,83.11,-0.54254,-0.42268
23725,2.5422e+07,43.601,13.482,83.11,-0.54254,-0.42445
23767,2.5431e+07,43.601,13.482,83.11,-0.54254,-0.42491
23809,2.5441e+07,43.601,13.482,83.14,-0.54254,-0.42658
23854,2.5451e+07,43.601,13.482,83.14,-0.63861,-0.42819
23896,2.5461e+07,43.601,13.482,83.14,-0.63861,-0.42975
23936,2.5472e+07,43.601,13.482,83.14,-0.63861,-0.43125
23978,2.5481e+07,43.601,13.482,83.14,-0.63861,-0.43175
24018,2.5491e+07,43.601,13.482,83.14,-0.63861,-0.43396
24059,2.5501e+07,43.601,13.482,83.14,-0.63861,-0.43609
24099,2.5511e+07,43.601,13.482,83.14,-0.63861,-0.43815
24140,2.5522e+07,43.601,13.482,83.14,-0.63861,-0.44012
24181,2.5532e+07,43.601,13.482,83.14,-0.63861,-0.44207
24222,2.5541e+07,43.601,13.482,83.14,-0.63861,-0.44262
24267,2.5551e+07,43.601,13.482,83.14,-0.66122,-0.44446
24307,2.5561e+07,43.601,13.482,83.14,-0.66122,-0.44624
24349,2.5572e+07,43.601,13.482,83.14,-0.66122,-0.44797
24390,2.5582e+07,43.601,13.482,83.14,-0.66122,-0.44854
24431,2.5592e+07,43.601,13.482,83.14,-0.66122,-0.45022
24468,2.5602e+07,43.601,13.482,83.14,-0.66122,-0.45261
24509,2.5613e+07,43.601,13.482,83.14,-0.66122,-0.45498
24551,2.5623e+07,43.601,13.482,83.14,-0.66122,-0.4572
24591,2.5633e+07,43.601,13.482,83.14,-0.66122,-0.45935
24634,2.5644e+07,43.601,13.482,83.14,-0.66122,-0.45998
24685,2.5654e+07,43.601,13.482,83.17,-0.012132,-0.46213
24726,2.5665e+07,43.601,13.482,83.17,-0.014206,-0.46421
24767,2.5675e+07,43.601,13.482,83.17,-0.016143,-0.46614
24808,2.5685e+07,43.601,13.482,83.17,-0.018014,-0.46801
24849,2.5698e+07,43.601,13.482,83.17,-0.019877,-0.46988
24890,2.5708e+07,43.601,13.482,83.17,-0.021488,-0.47149
24931,2.5718e+07,43.601,13.482,83.17,-0.023054,-0.47305
24971,2.5729e+07,43.601,13.482,83.17,-0.024636,-0.47464
25012,2.5739e+07,43.601,13.482,83.17,-0.02534,-0.47534
25054,2.575e+07,43.601,13.482,83.17,-0.026816,-0.47682
25099,2.576e+07,43.601,13.482,83.17,-0.028324,-0.47832
25140,2.577e+07,43.601,13.482,83.17,-0.029044,-0.47904
25181,2.578e+07,43.601,13.482,83.17,-0.030468,-0.48047
25223,2.5791e+07,43.601,13.482,83.17,-0.031848,-0.48185
25263,2.5801e+07,43.601,13.482,83.17,-0.033738,-0.48374
25304,2.5811e+07,43.601,13.482,83.17,-0.035499,-0.4855
25344,2.5821e+07,43.601,13.482,83.17,-0.037211,-0.48721
25384,2.5832e+07,43.601,13.482,83.17,-0.038866,-0.48887
25424,2.5842e+07,43.601,13.482,83.17,-0.039726,-0.48973
25467,2.5851e+07,43.601,13.482,83.19,-0.041339,-0.49134
25512,2.5862e+07,43.601,13.482,83.19,-0.042906,-0.49291
25552,2.5872e+07,43.601,13.482,83.19,-0.044421,-0.49442
25594,2.5882e+07,43.601,13.482,83.19,-0.045899,-0.4959
25635,2.5892e+07,43.601,13.482,83.19,-0.046704,-0.4967
25676,2.5902e+07,43.601,13.482,83.19,-0.048268,-0.49827
25714,2.5912e+07,43.601,13.482,83.19,-0.049798,-0.4998
25754,2.5923e+07,43.601,13.482,83.19,-0.051289,-0.50129
25795,2.5933e+07,43.601,13.482,83.19,-0.052823,-0.50282
25835,2.5943e+07,43.601,13.482,83.19,-0.05424,-0.50424
25877,2.5954e+07,43.601,13.482,83.19,-0.055091,-0.50509
25922,2.5964e+07,43.601,13.482,83.19,-0.05656,-0.50656
25962,2.5973e+07,43.601,13.482,83.19,-0.0579,-0.5079
26005,2.5984e+07,43.601,13.482,83.19,-0.059207,-0.50921
26043,2.5993e+07,43.601,13.482,83.19,-0.061303,-0.5113
26085,2.6004e+07,43.601,13.482,83.19,-0.062177,-0.51218
26126,2.6013e+07,43.601,13.482,83.19,-0.064246,-0.51425
26166,2.6026e+07,43.601,13.482,83.19,-0.066442,-0.51644
26209,2.6037e+07,43.601,13.482,83.21,-0.068406,-0.51841
26249,2.6047e+07,43.601,13.482,83.21,-0.070401,-0.5204
26291,2.6057e+07,43.601,13.482,83.21,-0.072254,-0.52225
26336,2.6068e+07,43.601,13.482,83.21,-0.07415,-0.52415
26376,2.6078e+07,43.601,13.482,83.21,-0.075897,-0.5259
26417,2.6088e+07,43.601,13.482,83.21,-0.076834,-0.52683
26459,2.6099e+07,43.601,13.482,83.21,-0.078734,-0.52873
26497,2.6111e+07,43.601,13.482,83.21,-0.080728,-0.53073
26538,2.6121e+07,43.601,13.482,83.21,-0.082489,-0.53249
26578,2.6131e+07,43.601,13.482,83.21,-0.084209,-0.53421
26620,2.6142e+07,43.601,13.482,83.21,-0.085888,-0.53589
26660,2.6152e+07,43.601,13.482,83.21,-0.087621,-0.53762
26705,2.6162e+07,43.601,13.482,83.21,-0.088605,-0.53861
26745,2.6172e+07,43.601,13.482,83.21,-0.090206,-0.54021
26787,2.6182e+07,43.601,13.482,83.21,-0.091773,-0.54177
26828,2.6192e+07,43.601,13.482,83.21,-0.093303,-0.5433
26868,2.6204e+07,43.601,13.482,83.21,-0.095049,-0.54505
26909,2.6215e+07,43.601,13.482,83.21,-0.096667,-0.54667
26949,2.6225e+07,43.601,13.482,83.21,-0.097686,-0.54769
26991,2.6234e+07,43.601,13.482,83.21,-0.099179,-0.54918
27036,2.6245e+07,43.601,13.482,83.23,-0.10064,-0.55064
27077,2.6254e+07,43.601,13.482,83.23,-0.10208,-0.55208
27122,2.6265e+07,43.601,13.482,83.23,-0.10312,-0.55312
27162,2.6275e+07,43.601,13.482,83.23,-0.10454,-0.55454
27203,2.6285e+07,43.601,13.482,83.23,-0.10594,-0.55594
27243,2.6295e+07,43.601,13.482,83.23,-0.10731,-0.55731
27285,2.6305e+07,43.601,13.482,83.23,-0.10837,-0.55837
27319,2.6315e+07,43.601,13.482,83.23,-0.10887,-0.55887
27360,2.6325e+07,43.601,13.482,83.23,-0.10939,-0.55939
27402,2.6336e+07,43.601,13.482,83.23,-0.10991,-0.55991
27443,2.6345e+07,43.601,13.482,83.23,-0.11055,-0.56055
27484,2.6356e+07,43.601,13.482,83.23,-0.11109,-0.56109
27529,2.6366e+07,43.601,13.482,83.23,-0.11163,-0.56163
27569,2.6375e+07,43.601,13.482,83.23,-0.11272,-0.56272
27610,2.6385e+07,43.601,13.482,83.23,-0.11327,-0.56327
27650,2.6395e+07,43.601,13.482,83.23,-0.11384,-0.56384
27688,2.6406e+07,43.601,13.482,83.23,-0.11542,-0.56542
27733,2.6419e+07,43.601,13.482,83.23,-0.11729,-0.56729
27777,2.6431e+07,43.601,13.482,83.23,-0.11904,-0.56904
27821,2.6442e+07,43.601,13.482,83.26,-0.12053,-0.57053
27862,2.6452e+07,43.601,13.482,83.26,-0.12166,-0.57166
27903,2.6462e+07,43.601,13.482,83.26,-0.12314,-0.57314
27948,2.6471e+07,43.601,13.482,83.26,-0.12471,-0.57471
27989,2.6482e+07,43.601,13.482,83.26,-0.12602,-0.57602
28030,2.6492e+07,43.601,13.482,83.26,-0.12754,-0.57754
28070,2.6502e+07,43.601,13.482,83.26,-0.12869,-0.57869
28105,2.6512e+07,43.601,13.482,83.26,-0.13028,-0.58028
28146,2.6522e+07,43.601,13.482,83.26,-0.13184,-0.58184
28187,2.6532e+07,43.601,13.482,83.26,-0.13338,-0.58338
28228,2.6543e+07,43.601,13.482,83.26,-0.13489,-0.58489
28269,2.6553e+07,43.601,13.482,83.26,-0.1365,-0.5865
28310,2.6563e+07,43.601,13.482,83.26,-0.13769,-0.58769
28355,2.6573e+07,43.601,13.482,83.26,-0.13917,-0.58917
28396,2.6583e+07,43.601,13.482,83.26,-0.14063,-0.59063
28437,2.6593e+07,43.601,13.482,83.26,-0.14206,-0.59206
28477,2.6606e+07,43.601,13.482,83.26,-0.14389,-0.59389
28518,2.6616e+07,43.601,13.482,83.26,-0.14533,-0.59533
28559,2.6627e+07,43.601,13.482,83.26,-0.14688,-0.59688
28600,2.6637e+07,43.601,13.482,83.26,-0.14809,-0.59809
28643,2.6647e+07,43.601,13.482,83.29,-0.14951,-0.59951
28684,2.6657e+07,43.601,13.482,83.29,-0.15092,-0.60092
28734,2.667e+07,43.601,13.482,83.29,-0.15268,-0.60268
28775,2.668e+07,43.601,13.482,83.29,-0.15407,-0.60407
28816,2.669e+07,43.601,13.482,83.29,-0.15532,-0.60532
28856,2.67e+07,43.601,13.482,83.29,-0.1567,-0.6067
28897,2.671e+07,43.601,13.482,83.29,-0.15806,-0.60806
28934,2.6721e+07,43.601,13.482,83.29,-0.15993,-0.60993
28975,2.6731e+07,43.601,13.482,83.29,-0.16165,-0.61165
29018,2.6742e+07,43.601,13.482,83.29,-0.16333,-0.61333
29059,2.6751e+07,43.601,13.482,83.29,-0.16474,-0.61474
29101,2.6761e+07,43.601,13.482,83.29,-0.16641,-0.61641
29145,2.6772e+07,43.601,13.482,83.29,-0.16806,-0.61806
29186,2.6782e+07,43.601,13.482,83.29,-0.16969,-0.61969
29227,2.6792e+07,43.601,13.482,83.29,-0.171,-0.621
29268,2.6802e+07,43.601,13.482,83.29,-0.17261,-0.62261
29308,2.6811e+07,43.601,13.482,83.29,-0.17349,-0.62349
29349,2.6822e+07,43.601,13.482,83.29,-0.17437,-0.62437
29390,2.6832e+07,43.601,13.482,83.29,-0.17525,-0.62525
29431,2.6842e+07,43.601,13.482,83.29,-0.17656,-0.62656
29474,2.6852e+07,43.601,13.482,83.32,-0.17746,-0.62746
29516,2.6862e+07,43.601,13.482,83.32,-0.17836,-0.62836
29560,2.6872e+07,43.601,13.482,83.32,-0.1794,-0.6294
29602,2.6883e+07,43.601,13.482,83.32,-0.18019,-0.63019
29642,2.6893e+07,43.601,13.482,83.32,-0.18124,-0.63124
29684,2.6904e+07,43.601,13.482,83.32,-0.18258,-0.63258
29724,2.6914e+07,43.601,13.482,83.32,-0.18336,-0.63336
29765,2.6923e+07,43.601,13.482,83.32,-0.18414,-0.63414
29802,2.6934e+07,43.601,13.482,83.32,-0.18507,-0.63507
29844,2.6944e+07,43.601,13.482,83.32,-0.18587,-0.63587
29885,2.6954e+07,43.601,13.482,83.32,-0.18668,-0.63668
29925,2.6965e+07,43.601,13.482,83.32,-0.18803,-0.63803
29970,2.6975e+07,43.601,13.482,83.32,-0.18899,-0.63899
30011,2.6985e+07,43.601,13.482,83.32,-0.18984,-0.63984
30052,2.6995e+07,43.601,13.482,83.32,-0.19121,-0.64121
30093,2.7005e+07,43.601,13.482,83.32,-0.19207,-0.64207
30131,2.7015e+07,43.601,13.482,83.32,-0.19309,-0.64309
30170,2.7025e+07,43.601,13.482,83.32,-0.19466,-0.64466
30210,2.7036e+07,43.601,13.482,83.32,-0.19635,-0.64635
30252,2.7046e+07,43.601,13.482,83.32,-0.19773,-0.64773
30294,2.7056e+07,43.601,13.482,83.36,-0.19926,-0.64926
30335,2.7066e+07,43.601,13.482,83.36,-0.20078,-0.65078
30380,2.7076e+07,43.601,13.482,83.36,-0.20229,-0.65229
30420,2.7086e+07,43.601,13.482,83.36,-0.20378,-0.65378
30463,2.7097e+07,43.601,13.482,83.36,-0.20541,-0.65541
30503,2.7106e+07,43.601,13.482,83.36,-0.20668,-0.65668
30538,2.7116e+07,43.601,13.482,83.36,-0.20826,-0.65826
30579,2.7126e+07,43.601,13.482,83.36,-0.20982,-0.65982
30620,2.7136e+07,43.601,13.482,83.36,-0.21136,-0.66136
30661,2.7147e+07,43.601,13.482,83.36,-0.21289,-0.66289
30701,2.7157e+07,43.601,13.482,83.36,-0.21455,-0.66455
30742,2.7168e+07,43.601,13.482,83.36,-0.216,-0.666
30786,2.7178e+07,43.601,13.482,83.36,-0.21751,-0.66751
30827,2.7188e+07,43.601,13.482,83.36,-0.21902,-0.66902
30870,2.7198e+07,43.601,13.482,83.36,-0.22051,-0.67051
30913,2.7211e+07,43.601,13.482,83.36,-0.22193,-0.67193
30954,2.7221e+07,43.601,13.482,83.36,-0.22306,-0.67306
30991,2.7231e+07,43.601,13.482,83.36,-0.22454,-0.67454
31036,2.7242e+07,43.601,13.482,83.39,-0.22554,-0.67554
31077,2.7252e+07,43.601,13.482,83.39,-0.22656,-0.67656
31118,2.7262e+07,43.601,13.482,83.39,-0.22758,-0.67758
31158,2.7271e+07,43.601,13.482,83.39,-0.22906,-0.67907
31203,2.7281e+07,43.601,13.482,83.39,-0.23011,-0.68011
31244,2.7292e+07,43.601,13.482,83.39,-0.23116,-0.68116
31284,2.7302e+07,43.601,13.482,83.39,-0.23238,-0.68238
31326,2.7312e+07,43.601,13.482,83.39,-0.23347,-0.68347
31366,2.7321e+07,43.601,13.482,83.39,-0.23498,-0.68498
31401,2.7332e+07,43.601,13.482,83.39,-0.23599,-0.68599
31443,2.7342e+07,43.601,13.482,83.39,-0.237,-0.687
31483,2.7353e+07,43.601,13.482,83.39,-0.23803,-0.68803
31524,2.7362e+07,43.601,13.482,83.39,-0.23921,-0.68921
31564,2.7372e+07,43.601,13.482,83.39,-0.24025,-0.69025
31609,2.7383e+07,43.601,13.482,83.39,-0.2413,-0.6913
31650,2.7393e+07,43.601,13.482,83.39,-0.24283,-0.69283
31691,2.7403e+07,43.601,13.482,83.39,-0.24391,-0.69391
31733,2.7414e+07,43.601,13.482,83.39,-0.24515,-0.69515
31775,2.7427e+07,43.601,13.482,83.39,-0.24643,-0.69643
31821,2.744e+07,43.601,13.482,83.39,-0.24802,-0.69802
31862,2.745e+07,43.601,13.482,83.41,-0.24902,-0.69902
31903,2.746e+07,43.601,13.482,83.41,-0.25002,-0.70002
31943,2.747e+07,43.601,13.482,83.41,-0.25157,-0.70157
31988,2.7481e+07,43.601,13.482,83.41,-0.2526,-0.7026
32029,2.749e+07,43.601,13.482,83.41,-0.25363,-0.70363
32069,2.7501e+07,43.601,13.482,83.41,-0.25485,-0.70485
32110,2.7511e+07,43.601,13.482,83.41,-0.25642,-0.70642
32151,2.7521e+07,43.601,13.482,83.41,-0.2575,-0.7075
32186,2.7531e+07,43.601,13.482,83.41,-0.25881,-0.70881
32226,2.7541e+07,43.601,13.482,83.41,-0.26013,-0.71013
32267,2.7552e+07,43.601,13.482,83.41,-0.26145,-0.71145
32309,2.7562e+07,43.601,13.482,83.41,-0.26293,-0.71293
32349,2.7572e+07,43.601,13.482,83.41,-0.26453,-0.71453
32394,2.7582e+07,43.601,13.482,83.41,-0.26586,-0.71586
32434,2.7592e+07,43.601,13.482,83.41,-0.26719,-0.71719
32476,2.7602e+07,43.601,13.482,83.41,-0.26853,-0.71853
32516,2.7612e+07,43.601,13.482,83.41,-0.26987,-0.71987
32558,2.7622e+07,43.601,13.482,83.41,-0.27149,-0.72149
32593,2.7632e+07,43.601,13.482,83.41,-0.27235,-0.72235
32635,2.7642e+07,43.601,13.482,83.41,-0.27323,-0.72323
32677,2.7653e+07,43.601,13.482,83.46,-0.27429,-0.72429
32718,2.7662e+07,43.601,13.482,83.46,-0.27522,-0.72522
32758,2.7673e+07,43.601,13.482,83.46,-0.276,-0.726
32808,2.7685e+07,43.601,13.482,83.46,-0.27762,-0.72762
32849,2.7696e+07,43.601,13.482,83.46,-0.2786,-0.7286
32890,2.7705e+07,43.601,13.482,83.46,-0.28025,-0.73025
32930,2.7716e+07,43.601,13.482,83.46,-0.28126,-0.73126
32971,2.7728e+07,43.601,13.482,83.46,-0.2821,-0.7321
33014,2.7739e+07,43.601,13.482,83.46,-0.28248,-0.73248
33055,2.7749e+07,43.601,13.482,83.46,-0.28292,-0.73292
33096,2.7759e+07,43.601,13.482,83.46,-0.2834,-0.7334
33137,2.7769e+07,43.601,13.482,83.46,-0.28393,-0.73393
33178,2.7779e+07,43.601,13.482,83.46,-0.28559,-0.73559
33222,2.779e+07,43.601,13.482,83.46,-0.28616,-0.73616
33263,2.78e+07,43.601,13.482,83.46,-0.28693,-0.73693
33305,2.781e+07,43.601,13.482,83.46,-0.28757,-0.73757
33345,2.782e+07,43.601,13.482,83.46,-0.28767,-0.73767
33387,2.7832e+07,43.601,13.482,83.46,-0.28833,-0.73833
33428,2.7843e+07,43.601,13.482,83.46,-0.28837,-0.73837
33471,2.7853e+07,43.601,13.482,83.49,-0.28881,-0.73881
33513,2.7863e+07,43.601,13.482,83.49,-0.2905,-0.7405
33553,2.7873e+07,43.601,13.482,83.49,-0.29082,-0.74082
33594,2.7883e+07,43.601,13.482,83.49,-0.29119,-0.74119
33638,2.7893e+07,43.601,13.482,83.49,-0.29161,-0.74161
33680,2.7903e+07,43.601,13.482,83.49,-0.29208,-0.74208
33720,2.7913e+07,43.601,13.482,83.49,-0.29259,-0.74259
33761,2.7924e+07,43.601,13.482,83.49,-0.29446,-0.74446
33802,2.7936e+07,43.601,13.482,83.49,-0.29452,-0.74452
33842,2.7947e+07,43.601,13.482,83.49,-0.29415,-0.74415
33884,2.7957e+07,43.601,13.482,83.49,-0.29402,-0.74402
33925,2.7967e+07,43.601,13.482,83.49,-0.29381,-0.74381
33966,2.7977e+07,43.601,13.482,83.49,-0.29366,-0.74366
34014,2.799e+07,43.601,13.482,83.49,-0.2941,-0.7441
34054,2.8001e+07,43.601,13.482,83.49,-0.29409,-0.74409
34096,2.8011e+07,43.601,13.482,83.49,-0.29431,-0.74431
34136,2.8021e+07,43.601,13.482,83.49,-0.29602,-0.74602
34171,2.8031e+07,43.601,13.482,83.49,-0.29424,-0.74424
34212,2.8042e+07,43.601,13.482,83.49,-0.29226,-0.74226
34255,2.8053e+07,43.601,13.482,83.49,-0.29075,-0.74075
34297,2.8063e+07,43.601,13.482,83.52,-0.28937,-0.73937
34338,2.8073e+07,43.601,13.482,83.52,-0.29106,-0.74106
34379,2.8083e+07,43.601,13.482,83.52,-0.28963,-0.73963
34424,2.8093e+07,43.601,13.482,83.52,-0.28832,-0.73832
34465,2.8103e+07,43.601,13.482,83.52,-0.28712,-0.73712
34506,2.8113e+07,43.601,13.482,83.52,-0.28603,-0.73603
34547,2.8124e+07,43.601,13.482,83.52,-0.28505,-0.73505
34587,2.8134e+07,43.601,13.482,83.52,-0.2869,-0.7369
34625,2.8145e+07,43.601,13.482,83.52,-0.2846,-0.7346
34665,2.8155e+07,43.601,13.482,83.52,-0.2823,-0.7323
34706,2.8165e+07,43.601,13.482,83.52,-0.28015,-0.73015
34748,2.8175e+07,43.601,13.482,83.52,-0.27815,-0.72815
34789,2.8185e+07,43.601,13.482,83.52,-0.27629,-0.72629
34833,2.8195e+07,43.601,13.482,83.52,-0.27795,-0.72795
34874,2.8205e+07,43.601,13.482,83.52,-0.27622,-0.72622
34915,2.8215e+07,43.601,13.482,83.52,-0.27463,-0.72463
34956,2.8225e+07,43.601,13.482,83.52,-0.27317,-0.72317
35001,2.8239e+07,43.601,13.482,83.52,-0.27201,-0.72201
35044,2.8251e+07,43.601,13.482,83.56,-0.27098,-0.72098
35085,2.8262e+07,43.601,13.482,83.56,-0.26958,-0.71958
35126,2.8272e+07,43.601,13.482,83.56,-0.26846,-0.71846
35168,2.8281e+07,43.601,13.482,83.56,-0.27011,-0.72011
35209,2.8292e+07,43.601,13.482,83.56,-0.26893,-0.71893
35253,2.8302e+07,43.601,13.482,83.56,-0.26786,-0.71786
35294,2.8312e+07,43.601,13.482,83.56,-0.2669,-0.7169
35334,2.8322e+07,43.601,13.482,83.56,-0.26854,-0.71854
35376,2.8331e+07,43.601,13.482,83.56,-0.26769,-0.71769
35411,2.8343e+07,43.601,13.482,83.56,-0.26589,-0.71589
35451,2.8353e+07,43.601,13.482,83.56,-0.26408,-0.71408
35492,2.8363e+07,43.601,13.482,83.56,-0.2624,-0.7124
35532,2.8373e+07,43.601,13.482,83.56,-0.26085,-0.71085
35573,2.8383e+07,43.601,13.482,83.56,-0.26249,-0.71249
35615,2.8393e+07,43.601,13.482,83.56,-0.26106,-0.71106
35660,2.8403e+07,43.601,13.482,83.56,-0.25976,-0.70976
35700,2.8413e+07,43.601,13.482,83.56,-0.25857,-0.70857
35742,2.8424e+07,43.601,13.482,83.56,-0.2575,-0.7075
35788,2.8436e+07,43.601,13.482,83.56,-0.25569,-0.70569
35827,2.8447e+07,43.601,13.482,83.59,-0.25338,-0.70338
35868,2.8458e+07,43.601,13.482,83.59,-0.255,-0.705
35909,2.8467e+07,43.601,13.482,83.59,-0.25301,-0.70301
35951,2.8478e+07,43.601,13.482,83.59,-0.25101,-0.70101
35992,2.8488e+07,43.601,13.482,83.59,-0.24899,-0.69899
36036,2.8499e+07,43.601,13.482,83.59,-0.24742,-0.69742
36077,2.8508e+07,43.601,13.482,83.59,-0.24903,-0.69903
36117,2.8518e+07,43.601,13.482,83.59,-0.24759,-0.69759
36159,2.8529e+07,43.601,13.482,83.59,-0.24596,-0.69596
36199,2.8541e+07,43.601,13.482,83.59,-0.24406,-0.69406
36240,2.8552e+07,43.601,13.482,83.59,-0.24183,-0.69183
36281,2.8562e+07,43.601,13.482,83.59,-0.23976,-0.68976
36321,2.8572e+07,43.601,13.482,83.59,-0.23801,-0.68801
36364,2.8582e+07,43.601,13.482,83.59,-0.2396,-0.6896
36405,2.8592e+07,43.601,13.482,83.59,-0.23782,-0.68782
36449,2.8602e+07,43.601,13.482,83.59,-0.23616,-0.68616
36490,2.8613e+07,43.601,13.482,83.59,-0.23479,-0.68479
36531,2.8623e+07,43.601,13.482,83.59,-0.23638,-0.68638
36572,2.8633e+07,43.601,13.482,83.59,-0.23497,-0.68497
36612,2.8643e+07,43.601,13.482,83.59,-0.23379,-0.68379
36652,2.8653e+07,43.601,13.482,83.62,-0.23271,-0.68271
36692,2.8664e+07,43.601,13.482,83.62,-0.23175,-0.68175
36733,2.8674e+07,43.601,13.482,83.62,-0.23105,-0.68105
36776,2.8684e+07,43.601,13.482,83.62,-0.23262,-0.68262
36816,2.8694e+07,43.601,13.482,83.62,-0.23186,-0.68186
36863,2.8705e+07,43.601,13.482,83.62,-0.23119,-0.68119
36903,2.8715e+07,43.601,13.482,83.62,-0.23077,-0.68077
36944,2.8725e+07,43.601,13.482,83.62,-0.23029,-0.68029
36986,2.8735e+07,43.601,13.482,83.62,-0.23186,-0.68186
37027,2.8746e+07,43.601,13.482,83.62,-0.23111,-0.68111
37065,2.8756e+07,43.601,13.482,83.62,-0.23031,-0.68031
37106,2.8766e+07,43.601,13.482,83.62,-0.22961,-0.67961
37147,2.8776e+07,43.601,13.482,83.62,-0.22901,-0.67901
37187,2.8785e+07,43.601,13.482,83.62,-0.23058,-0.68058
37229,2.8795e+07,43.601,13.482,83.62,-0.23007,-0.68007
37275,2.8806e+07,43.601,13.482,83.62,-0.22965,-0.67965
37315,2.8816e+07,43.601,13.482,83.62,-0.22932,-0.67932
37356,2.8826e+07,43.601,13.482,83.62,-0.22907,-0.67907
37396,2.8836e+07,43.601,13.482,83.62,-0.23081,-0.68081
37438,2.8846e+07,43.601,13.482,83.62,-0.23085,-0.68085
37478,2.8856e+07,43.601,13.482,83.66,-0.23111,-0.68111
37518,2.8867e+07,43.601,13.482,83.66,-0.23129,-0.68129
37559,2.8877e+07,43.601,13.482,83.66,-0.23153,-0.68153
37599,2.8887e+07,43.601,13.482,83.66,-0.23184,-0.68184
37641,2.8898e+07,43.601,13.482,83.66,-0.23236,-0.68236
37686,2.8908e+07,43.601,13.482,83.66,-0.23396,-0.68396
37727,2.8918e+07,43.601,13.482,83.66,-0.23438,-0.68438
37767,2.8928e+07,43.601,13.482,83.66,-0.23485,-0.68485
37808,2.8938e+07,43.601,13.482,83.66,-0.23537,-0.68537
37849,2.8951e+07,43.601,13.482,83.66,-0.23594,-0.68594
37887,2.8961e+07,43.601,13.482,83.66,-0.23611,-0.68611
37928,2.8972e+07,43.601,13.482,83.66,-0.23634,-0.68634
37968,2.8981e+07,43.601,13.482,83.66,-0.23794,-0.68794
38010,2.8992e+07,43.601,13.482,83.66,-0.23823,-0.68823
38051,2.9002e+07,43.601,13.482,83.66,-0.23874,-0.68874
38097,2.9012e+07,43.601,13.482,83.66,-0.23914,-0.68914
38138,2.9022e+07,43.601,13.482,83.66,-0.2396,-0.6896
38178,2.9033e+07,43.601,13.482,83.66,-0.24027,-0.69027
38221,2.9043e+07,43.601,13.482,83.69,-0.24189,-0.69189
38258,2.9053e+07,43.601,13.482,83.69,-0.24166,-0.69166
38300,2.9066e+07,43.601,13.482,83.69,-0.24199,-0.69199
38341,2.9076e+07,43.601,13.482,83.69,-0.24191,-0.69191
38381,2.9086e+07,43.601,13.482,83.69,-0.24191,-0.69191
38422,2.9097e+07,43.601,13.482,83.69,-0.24199,-0.69199
38462,2.9107e+07,43.601,13.482,83.69,-0.2423,-0.6923
38509,2.9117e+07,43.601,13.482,83.69,-0.24394,-0.69394
38550,2.9127e+07,43.601,13.482,83.69,-0.24415,-0.69415
38591,2.9137e+07,43.601,13.482,83.69,-0.24442,-0.69442
38629,2.9147e+07,43.601,13.482,83.69,-0.24434,-0.69434
38670,2.9158e+07,43.601,13.482,83.69,-0.24418,-0.69418
38708,2.9168e+07,43.601,13.482,83.69,-0.24409,-0.69409
38748,2.9178e+07,43.601,13.482,83.69,-0.24573,-0.69573
38789,2.9188e+07,43.601,13.482,83.69,-0.24572,-0.69572
38830,2.9198e+07,43.601,13.482,83.69,-0.24578,-0.69578
38871,2.9208e+07,43.601,13.482,83.69,-0.24591,-0.69591
38916,2.9218e+07,43.601,13.482,83.69,-0.24756,-0.69756
38959,2.9228e+07,43.601,13.482,83.69,-0.24774,-0.69774
39000,2.9238e+07,43.601,13.482,83.69,-0.24799,-0.69799
39042,2.9248e+07,43.601,13.482,83.73,-0.2483,-0.6983
39084,2.9261e+07,43.601,13.482,83.73,-0.24827,-0.69827
39121,2.9271e+07,43.601,13.482,83.73,-0.24784,-0.69784
39162,2.9281e+07,43.601,13.482,83.73,-0.24949,-0.69949
39203,2.9291e+07,43.601,13.482,83.73,-0.24915,-0.69915
39243,2.9301e+07,43.601,13.482,83.73,-0.2489,-0.6989
39288,2.9312e+07,43.601,13.482,83.73,-0.24872,-0.69872
39329,2.9322e+07,43.601,13.482,83.73,-0.24863,-0.69863
39371,2.9332e+07,43.601,13.482,83.73,-0.25028,-0.70028
39412,2.9341e+07,43.601,13.482,83.73,-0.25026,-0.70026
39452,2.9352e+07,43.601,13.482,83.73,-0.25031,-0.70031
39491,2.9361e+07,43.601,13.482,83.73,-0.25069,-0.70069
39528,2.9372e+07,43.601,13.482,83.73,-0.25097,-0.70097
39570,2.9382e+07,43.601,13.482,83.73,-0.25132,-0.70132
39611,2.9393e+07,43.601,13.482,83.73,-0.25189,-0.70189
39651,2.9403e+07,43.601,13.482,83.73,-0.25354,-0.70354
39696,2.9413e+07,43.601,13.482,83.73,-0.25401,-0.70401
39739,2.9423e+07,43.601,13.482,83.73,-0.25452,-0.70452
39780,2.9433e+07,43.601,13.482,83.73,-0.2551,-0.7051
39821,2.9443e+07,43.601,13.482,83.73,-0.25572,-0.70572
39862,2.9453e+07,43.601,13.482,83.73,-0.25738,-0.70738
39899,2.9463e+07,43.601,13.482,83.73,-0.25843,-0.70843
39940,2.9473e+07,43.601,13.482,83.73,-0.2595,-0.7095
39981,2.9484e+07,43.601,13.482,83.73,-0.26061,-0.71061
40022,2.9494e+07,43.601,13.482,83.73,-0.26191,-0.71191
40062,2.9504e+07,43.601,13.482,83.73,-0.26359,-0.71359
40108,2.9514e+07,43.601,13.482,83.73,-0.26475,-0.71475
40148,2.9524e+07,43.601,13.482,83.73,-0.26594,-0.71594
40190,2.9534e+07,43.601,13.482,83.73,-0.26716,-0.71716
40230,2.9545e+07,43.601,13.482,83.73,-0.26885,-0.71885
40271,2.9555e+07,43.601,13.482,83.73,-0.27009,-0.72009
40311,2.9565e+07,43.601,13.482,83.73,-0.27093,-0.72093
40349,2.9575e+07,43.601,13.482,83.76,-0.27166,-0.72166
40390,2.9586e+07,43.601,13.482,83.76,-0.27243,-0.72243
40430,2.9596e+07,43.601,13.482,83.76,-0.27413,-0.72413
40471,2.9606e+07,43.601,13.482,83.76,-0.27512,-0.72512
40516,2.9616e+07,43.601,13.482,83.76,-0.27598,-0.72598
40557,2.9625e+07,43.601,13.482,83.76,-0.27688,-0.72689
40598,2.9636e+07,43.601,13.482,83.76,-0.27783,-0.72783
40641,2.9646e+07,43.601,13.482,83.76,-0.27881,-0.72881
40682,2.9656e+07,43.601,13.482,83.79,-0.28052,-0.73052
40722,2.9667e+07,43.601,13.482,83.79,-0.28155,-0.73155
40763,2.9677e+07,43.601,13.482,83.79,-0.28244,-0.73244
40804,2.9687e+07,43.601,13.482,83.79,-0.28339,-0.73339
40845,2.9698e+07,43.601,13.482,83.79,-0.28436,-0.73436
40885,2.9708e+07,43.601,13.482,83.79,-0.28556,-0.73556
40934,2.9719e+07,43.601,13.482,83.79,-0.28729,-0.73729
40975,2.9729e+07,43.601,13.482,83.79,-0.28852,-0.73852
41015,2.974e+07,43.601,13.482,83.79,-0.28961,-0.73961
41058,2.975e+07,43.601,13.482,83.79,-0.29108,-0.74108
41095,2.9761e+07,43.601,13.482,83.79,-0.29248,-0.74248
41136,2.9771e+07,43.601,13.482,83.79,-0.29373,-0.74373
41173,2.9781e+07,43.601,13.482,83.79,-0.29547,-0.74547
41214,2.9791e+07,43.601,13.482,83.79,-0.29675,-0.74675
41256,2.9801e+07,43.601,13.482,83.79,-0.29806,-0.74806
41296,2.9812e+07,43.601,13.482,83.79,-0.2994,-0.7494
41341,2.9822e+07,43.601,13.482,83.79,-0.30094,-0.75094
41381,2.9832e+07,43.601,13.482,83.79,-0.3027,-0.7527
41422,2.9842e+07,43.601,13.482,83.79,-0.30408,-0.75408
41464,2.9853e+07,43.601,13.482,83.79,-0.30567,-0.75567
41505,2.9866e+07,43.601,13.482,83.82,-0.30741,-0.75741
41546,2.9876e+07,43.601,13.482,83.82,-0.30866,-0.75866
41588,2.9886e+07,43.601,13.482,83.82,-0.30994,-0.75994
41629,2.9896e+07,43.601,13.482,83.82,-0.31172,-0.76172
41670,2.9906e+07,43.601,13.482,83.82,-0.31303,-0.76303
41712,2.9916e+07,43.601,13.482,83.82,-0.31436,-0.76436
41756,2.9926e+07,43.601,13.482,83.82,-0.31572,-0.76572
41797,2.9936e+07,43.601,13.482,83.82,-0.3171,-0.7671
41837,2.9946e+07,43.601,13.482,83.82,-0.3189,-0.7689
41878,2.9956e+07,43.601,13.482,83.82,-0.32031,-0.77031
41921,2.9966e+07,43.601,13.482,83.82,-0.3215,-0.7715
41961,2.9976e+07,43.601,13.482,83.82,-0.32271,-0.77271
42002,2.9986e+07,43.601,13.482,83.82,-0.32396,-0.77396
42042,2.9997e+07,43.601,13.482,83.82,-0.32524,-0.77524
42083,3.0007e+07,43.601,13.482,83.82,-0.32673,-0.77673
42123,3.0017e+07,43.601,13.482,83.82,-0.32855,-0.77855
42168,3.0027e+07,43.601,13.482,83.82,-0.32989,-0.77989
42211,3.0038e+07,43.601,13.482,83.85,-0.33125,-0.78125
42252,3.0048e+07,43.601,13.482,83.85,-0.33283,-0.78283
42293,3.0058e+07,43.601,13.482,83.85,-0.33384,-0.78384
42336,3.007e+07,43.601,13.482,83.85,-0.33525,-0.78525
42377,3.008e+07,43.601,13.482,83.85,-0.33708,-0.78708
42418,3.009e+07,43.601,13.482,83.85,-0.33816,-0.78816
42459,3.01e+07,43.601,13.482,83.85,-0.33929,-0.78929
42501,3.011e+07,43.601,13.482,83.85,-0.34045,-0.79045
42541,3.012e+07,43.601,13.482,83.85,-0.34164,-0.79164
42587,3.0131e+07,43.601,13.482,83.85,-0.34306,-0.79306
42628,3.0141e+07,43.601,13.482,83.85,-0.3449,-0.7949
42669,3.0151e+07,43.601,13.482,83.85,-0.34617,-0.79617
42710,3.0161e+07,43.601,13.482,83.85,-0.34747,-0.79747
42747,3.0171e+07,43.601,13.482,83.85,-0.34797,-0.79797
42788,3.0181e+07,43.601,13.482,83.85,-0.34854,-0.79854
42830,3.0192e+07,43.601,13.482,83.85,-0.34917,-0.79917
42871,3.0201e+07,43.601,13.482,83.85,-0.35102,-0.80102
42913,3.0212e+07,43.601,13.482,83.85,-0.35171,-0.80171
42954,3.0221e+07,43.601,13.482,83.85,-0.35245,-0.80245
42999,3.0231e+07,43.601,13.482,83.85,-0.35325,-0.80325
43041,3.0242e+07,43.601,13.482,83.88,-0.3541,-0.8041
43082,3.0251e+07,43.601,13.482,83.88,-0.35597,-0.80597
43126,3.0264e+07,43.601,13.482,83.88,-0.35743,-0.80743
43164,3.0275e+07,43.601,13.482,83.88,-0.35807,-0.80807
43205,3.0285e+07,43.601,13.482,83.88,-0.35858,-0.80858
43246,3.0294e+07,43.601,13.482,83.88,-0.35916,-0.80916
43288,3.0305e+07,43.601,13.482,83.88,-0.36104,-0.81104
43328,3.0315e+07,43.601,13.482,83.88,-0.36167,-0.81167
43371,3.0325e+07,43.601,13.482,83.88,-0.36236,-0.81236
43415,3.0335e+07,43.601,13.482,83.88,-0.3631,-0.8131
43456,3.0345e+07,43.601,13.482,83.88,-0.3639,-0.8139
43498,3.0355e+07,43.601,13.482,83.88,-0.36579,-0.81579
43538,3.0365e+07,43.601,13.482,83.88,-0.36664,-0.81664
43579,3.0375e+07,43.601,13.482,83.88,-0.36735,-0.81735
43619,3.0389e+07,43.601,13.482,83.88,-0.36831,-0.81831
43663,3.0399e+07,43.601,13.482,83.88,-0.36915,-0.81915
43704,3.0409e+07,43.601,13.482,83.88,-0.36985,-0.81985
43744,3.0419e+07,43.601,13.482,83.88,-0.3706,-0.8206
43791,3.0429e+07,43.601,13.482,83.88,-0.37251,-0.82251
43833,3.044e+07,43.601,13.482,83.88,-0.37331,-0.82331
43875,3.045e+07,43.601,13.482,83.9,-0.37436,-0.82436
43916,3.046e+07,43.601,13.482,83.9,-0.37526,-0.82526
43957,3.047e+07,43.601,13.482,83.9,-0.37718,-0.82718
44001,3.0483e+07,43.601,13.482,83.9,-0.37794,-0.82794
44041,3.0493e+07,43.601,13.482,83.9,-0.37821,-0.82821
44084,3.0504e+07,43.601,13.482,83.9,-0.37855,-0.82855
44124,3.0513e+07,43.601,13.482,83.9,-0.37916,-0.82916
44165,3.0524e+07,43.601,13.482,83.9,-0.37964,-0.82964
44210,3.0534e+07,43.601,13.482,83.9,-0.38157,-0.83157
44251,3.0544e+07,43.601,13.482,83.9,-0.38211,-0.83211
44292,3.0554e+07,43.601,13.482,83.9,-0.38273,-0.83273
44335,3.0566e+07,43.601,13.482,83.9,-0.384,-0.834
44373,3.0576e+07,43.601,13.482,83.9,-0.38415,-0.83415
44413,3.0586e+07,43.601,13.482,83.9,-0.38438,-0.83438
44453,3.0597e+07,43.601,13.482,83.9,-0.38469,-0.83469
44494,3.0607e+07,43.601,13.482,83.9,-0.38663,-0.83663
44536,3.0617e+07,43.601,13.482,83.9,-0.38701,-0.83701
44577,3.0627e+07,43.601,13.482,83.9,-0.38746,-0.83746
44621,3.0637e+07,43.601,13.482,83.9,-0.38798,-0.83798
44664,3.0647e+07,43.601,13.482,83.94,-0.38992,-0.83992
44706,3.0657e+07,43.601,13.482,83.94,-0.39069,-0.84069
44746,3.0667e+07,43.601,13.482,83.94,-0.39132,-0.84132
44784,3.0677e+07,43.601,13.482,83.94,-0.39174,-0.84174
44824,3.0688e+07,43.601,13.482,83.94,-0.39205,-0.84205
44862,3.0699e+07,43.601,13.482,83.94,-0.39263,-0.84263
44905,3.0709e+07,43.601,13.482,83.94,-0.39458,-0.84458
44946,3.0719e+07,43.601,13.482,83.94,-0.39504,-0.84504
44987,3.0729e+07,43.601,13.482,83.94,-0.39557,-0.84557
45033,3.0739e+07,43.601,13.482,83.94,-0.39617,-0.84617
45077,3.0751e+07,43.601,13.482,83.94,-0.39723,-0.84723
45118,3.0761e+07,43.601,13.482,83.94,-0.39918,-0.84918
45159,3.0771e+07,43.601,13.482,83.94,-0.3999,-0.8499
45197,3.0781e+07,43.601,13.482,83.94,-0.39993,-0.84993
45240,3.0794e+07,43.601,13.482,83.94,-0.40062,-0.85062
45281,3.0805e+07,43.601,13.482,83.94,-0.40081,-0.85081
45321,3.0815e+07,43.601,13.482,83.94,-0.40127,-0.85128
45362,3.0825e+07,43.601,13.482,83.94,-0.40323,-0.85323
45405,3.0834e+07,43.601,13.482,83.94,-0.40358,-0.85358
45450,3.0845e+07,43.601,13.482,83.94,-0.404,-0.854
45491,3.0855e+07,43.601,13.482,83.94,-0.40449,-0.85449
45531,3.0865e+07,43.601,13.482,83.94,-0.40645,-0.85645
45575,3.0875e+07,43.601,13.482,83.99,-0.407,-0.857
45609,3.0885e+07,43.601,13.482,83.99,-0.40841,-0.85841
45649,3.0895e+07,43.601,13.482,83.99,-0.40986,-0.85986
45689,3.0906e+07,43.601,13.482,83.99,-0.41134,-0.86134
45730,3.0915e+07,43.601,13.482,83.99,-0.41332,-0.86332
45772,3.0925e+07,43.601,13.482,83.99,-0.41483,-0.86483
45812,3.0936e+07,43.601,13.482,83.99,-0.41638,-0.86638
45858,3.0945e+07,43.601,13.482,83.99,-0.41795,-0.86795
45898,3.0956e+07,43.601,13.482,83.99,-0.41955,-0.86955
45939,3.0965e+07,43.601,13.482,83.99,-0.42154,-0.87154
45980,3.0975e+07,43.601,13.482,83.99,-0.42317,-0.87317
46018,3.0988e+07,43.601,13.482,83.99,-0.42517,-0.87517
46058,3.0998e+07,43.601,13.482,83.99,-0.4266,-0.8766
46098,3.1009e+07,43.601,13.482,83.99,-0.42806,-0.87806
46139,3.1019e+07,43.601,13.482,83.99,-0.42976,-0.87976
46180,3.1029e+07,43.601,13.482,83.99,-0.43129,-0.88129
46225,3.104e+07,43.601,13.482,83.99,-0.43284,-0.88284
46269,3.105e+07,43.601,13.482,83.99,-0.43463,-0.88463
46309,3.1061e+07,43.601,13.482,84.02,-0.43646,-0.88646
46350,3.1071e+07,43.601,13.482,84.02,-0.43849,-0.88849
46387,3.1081e+07,43.601,13.482,84.02,-0.43938,-0.88938
46428,3.1094e+07,43.601,13.482,84.02,-0.44093,-0.89093
46469,3.1104e+07,43.601,13.482,84.02,-0.44193,-0.89193
46510,3.1114e+07,43.601,13.482,84.02,-0.44299,-0.89299
46552,3.1125e+07,43.601,13.482,84.02,-0.44409,-0.89409
46592,3.1135e+07,43.601,13.482,84.02,-0.44545,-0.89545
