LineNo,TimeUS,RDes,R,ROut,PDes,P,POut,YDes,Y,YOut,ADes,A,AOut
297,1.9492e+07,-9.0068,0.10755,-0.022081,-4.979,0.072332,-0.013012,0.79204,0.59308,0.00070411,-5.3375,1.1441,0
641,1.9558e+07,-9.0155,0.10853,-0.021984,-4.987,0.0082333,-0.011552,0.79228,0.54218,0.00078596,-5.3375,-0.48761,0
868,1.9603e+07,-9.0136,-0.0045276,-0.021165,-4.9906,0.0091053,-0.011655,0.79229,0.68648,0.00069873,-5.3375,1.4913,0
1210,1.9764e+07,-9.0014,-0.16089,-0.020653,-4.9981,0.067832,-0.012024,0.79232,0.58747,0.0006967,-5.3375,-2.4649,0
1486,1.9835e+07,-9.002,0.15948,-0.022366,-4.9859,0.03002,-0.012083,0.79211,0.35161,0.0008436,-5.3375,1.6993,0
1581,1.9857e+07,-9.0129,0.11181,-0.021436,-4.9893,0.096647,-0.012271,0.79227,0.4786,0.0009106,-5.3375,-2.236,0
1621,1.9867e+07,-9.0184,0.10353,-0.021641,-4.9881,-0.0077035,-0.011458,0.79232,0.54228,0.00090567,-5.3375,-2.8267,0
1663,1.9877e+07,-9.0258,0.17099,-0.021935,-4.9915,0.057123,-0.012001,0.79243,0.45663,0.0009085,-5.3375,-1.6158,0
1704,1.9887e+07,-9.0279,0.055936,-0.02097,-4.9948,0.077049,-0.012048,0.7925,0.50123,0.00091341,-5.3375,-1.8291,0
1744,1.99e+07,-9.0205,-0.15238,-0.020163,-4.9971,0.035695,-0.011702,0.7925,0.5373,0.00088256,-5.3375,-1.1126,0
1785,1.9911e+07,-9.0202,-0.040093,-0.021388,-4.996,0.007025,-0.011636,0.79248,0.4542,0.00089684,-5.3375,-0.56295,0
1825,1.9921e+07,-9.0197,-0.026255,-0.021029,-4.993,-0.034965,-0.011477,0.79243,0.63282,0.00085762,-5.3375,-0.87223,0
1867,1.9931e+07,-9.0171,-0.075986,-0.020835,-4.9897,-0.066204,-0.011424,0.79233,0.65866,0.0008214,-5.3375,0.058842,0
1907,1.9941e+07,-9.009,-0.19877,-0.02004,-4.9909,0.051361,-0.012527,0.79229,0.63099,0.00078703,-5.3375,-0.030231,0
1948,1.9951e+07,-9.0077,-0.040566,-0.021529,-4.9885,-0.010312,-0.011626,0.79224,0.60002,0.00075328,-5.3375,0.016022,0
1993,1.9961e+07,-8.9921,-0.056365,-0.020997,-5.0061,-0.13214,-0.010812,0.08731,0.54063,0.00073084,-5.3375,-0.51126,0
2036,1.9972e+07,-8.9883,-0.07394,-0.020819,-5.0042,-0.01813,-0.012333,0.087249,0.41555,0.00059481,-5.3375,-1.1616,0
2077,1.9982e+07,-8.989,-0.018216,-0.021626,-5.0085,0.11259,-0.012799,0.087309,0.62737,0.00040016,-5.3375,-0.83628,0
2117,1.9992e+07,-8.9941,0.13801,-0.022293,-5.0104,0.044992,-0.011708,0.087388,0.49313,0.00018192,-5.3375,0.7432,0
2158,2.0003e+07,-9.0004,0.11328,-0.021392,-5.0087,-0.0051641,-0.011475,0.08744,0.38743,4.5481e-05,-5.3375,1.7509,0
2199,2.0013e+07,-9.0048,0.076455,-0.02122,-5.0087,0.0093954,-0.011789,0.087446,0.39665,-6.3986e-05,-5.3375,1.4046,0
2240,2.0023e+07,-9.0099,0.099117,-0.021342,-5.0051,-0.059855,-0.011384,0.08744,0.52414,-0.00019596,-5.3375,0.98724,0
2281,2.0033e+07,-9.0148,0.099697,-0.021423,-4.9985,-0.14572,-0.010715,0.087369,0.52101,-0.0003317,-5.3375,-0.13199,0
2321,2.0044e+07,-9.0188,0.099011,-0.021602,-4.9936,-0.10367,-0.011589,0.087342,0.44824,-0.00042631,-5.3375,-1.9485,0
2364,2.0054e+07,-9.0203,0.014485,-0.020927,-4.9895,-0.09287,-0.01139,0.087262,0.49139,-0.00053112,-5.3375,-1.9629,0
2408,2.0064e+07,-9.0175,-0.050718,-0.020752,-4.9889,-0.036576,-0.01163,0.087267,0.5674,-0.00063256,-5.3375,-2.3126,0
2449,2.0074e+07,-9.0195,0.040476,-0.021661,-4.9854,-0.077391,-0.011407,0.087186,0.53764,-0.00072286,-5.3375,-1.4325,0
2492,2.0084e+07,-9.0164,-0.066934,-0.020745,-4.9829,-0.035395,-0.011851,0.087132,0.51575,-0.00078844,-5.3375,-1.5156,0
2532,2.0094e+07,-9.0131,-0.064251,-0.021121,-4.9842,0.066281,-0.012411,0.087101,0.57511,-0.00087618,-5.3375,-0.53797,0
2572,2.0104e+07,-9.0133,-0.020654,-0.021298,-4.9869,0.092289,-0.012165,0.087147,0.49178,-0.00092049,-5.3375,0.10118,0
2610,2.0114e+07,-9.0157,0.056762,-0.021698,-4.985,-0.039407,-0.011307,0.087135,0.47591,-0.00096524,-5.3375,2.062,0
2651,2.0125e+07,-9.0128,-0.071722,-0.020645,-4.9902,0.11313,-0.012143,0.087228,0.50274,-0.00099718,-5.3375,0.66395,0
2692,2.0135e+07,-9.0174,0.10512,-0.022277,-4.9914,0.022711,-0.01162,0.087264,0.5191,-0.0010491,-5.3375,-0.34237,0
2733,2.0145e+07,-9.0194,0.02783,-0.02109,-4.995,0.088846,-0.012171,0.08736,0.49623,-0.0010583,-5.3375,0.02737,0
2774,2.0154e+07,-9.0227,0.059695,-0.02143,-4.9955,0.041619,-0.011714,0.087394,0.53511,-0.001095,-5.3375,1.102,0
2818,2.0164e+07,-9.0261,0.052003,-0.021202,-4.9989,0.10201,-0.012372,0.087503,0.52307,-0.0011283,-5.3375,0.6176,0
2860,2.0175e+07,-9.0308,0.10012,-0.021753,-4.999,0.0029674,-0.011504,0.087538,0.54415,-0.0011658,-5.3375,-1.376,0
2901,2.0185e+07,-9.0354,0.12186,-0.021746,-4.9994,0.013509,-0.011723,0.087624,0.48687,-0.0011752,-5.3375,-0.49667,0
2942,2.0195e+07,-9.0378,0.05705,-0.021396,-4.9975,-0.043834,-0.011161,0.087594,0.69729,-0.0012361,-5.3375,0.18177,0
2983,2.0205e+07,-9.0401,0.074438,-0.021595,-4.9973,-0.011638,-0.011777,0.087632,0.58146,-0.0012912,-5.3375,1.2555,0
3021,2.0215e+07,-9.0424,0.03842,-0.0215,-4.9962,0.0081747,-0.011856,0.087621,0.52568,-0.0013026,-5.3375,-0.16556,0
3062,2.0225e+07,-9.0445,0.041825,-0.021241,-4.9933,-0.071913,-0.011092,0.087577,0.55018,-0.0013107,-5.3375,-0.79107,0
3102,2.0235e+07,-9.0403,-0.084742,-0.020565,-4.9937,0.042057,-0.012259,0.087532,0.55764,-0.0013244,-5.3375,-1.6315,0
3143,2.0245e+07,-9.0369,-0.087107,-0.020808,-4.9952,0.058582,-0.012357,0.087535,0.42899,-0.001322,-5.3375,-1.5758,0
3186,2.0255e+07,-9.0389,0.047299,-0.022136,-4.9891,-0.10689,-0.010826,0.087434,0.57939,-0.0013114,-5.3375,-0.39663,0
3231,2.0265e+07,-9.0343,-0.10466,-0.02067,-4.9871,-0.042443,-0.011876,0.087368,0.42509,-0.0013119,-5.3375,-0.7185,0
3272,2.0275e+07,-9.0337,0.0075224,-0.02166,-4.9858,-0.0051177,-0.011899,0.087332,0.42173,-0.0012736,-5.3375,-0.66929,0
3313,2.0285e+07,-9.0306,-0.038956,-0.021368,-4.9787,-0.13028,-0.010929,0.087178,0.47776,-0.0012658,-5.3375,-0.44613,0
3354,2.0295e+07,-9.0251,-0.11091,-0.020875,-4.976,-0.067301,-0.011747,0.087094,0.53385,-0.0012701,-5.3375,0.10901,0
3394,2.0305e+07,-9.0236,-0.050623,-0.021294,-4.9763,0.03116,-0.012208,0.087085,0.43773,-0.0012722,-5.3375,0.2594,0
3436,2.0316e+07,-9.0196,-0.085064,-0.020935,-4.9709,-0.11276,-0.011036,0.08695,0.52926,-0.0012669,-5.3375,0.81682,0
3476,2.0326e+07,-9.0055,-0.0048835,-0.021545,-4.9955,-0.00039863,-0.01198,-0.61786,0.47899,-0.0012945,-5.3375,1.0002,0
3517,2.0336e+07,-9.0085,0.062401,-0.02201,-4.9917,-0.10493,-0.01101,-0.61789,0.59402,-0.0014754,-5.3375,1.902,0
3557,2.0346e+07,-9.007,-0.054806,-0.020509,-4.9928,0.054367,-0.012618,-0.61787,0.62553,-0.001719,-5.3375,0.39749,0
3599,2.0356e+07,-9.0078,-0.0062127,-0.020943,-4.9946,0.0709,-0.012071,-0.61784,0.52996,-0.0019416,-5.3375,-0.98391,0
3647,2.0367e+07,-9.0073,-0.0086396,-0.021212,-4.997,0.051973,-0.011972,-0.61781,0.55982,-0.0021384,-5.3375,-1.572,0
3687,2.0377e+07,-9.0117,0.062594,-0.02192,-4.9987,0.070386,-0.012041,-0.61775,0.52052,-0.0023014,-5.3375,-1.3671,0
3728,2.0387e+07,-9.0154,0.09804,-0.021584,-5.0031,0.09429,-0.012281,-0.61763,0.44985,-0.0024425,-5.3375,-1.4041,0
3772,2.0398e+07,-9.0129,-0.062444,-0.020438,-5.0037,0.043491,-0.011699,-0.61762,0.55556,-0.0025649,-5.3375,0.093746,0
3809,2.0408e+07,-9.0094,-0.095525,-0.020769,-5.0029,-0.0074676,-0.011783,-0.61768,0.42786,-0.002663,-5.3375,-0.19999,0
3847,2.0418e+07,-9.0042,-0.1018,-0.020687,-5.0059,0.10035,-0.012414,-0.61766,0.53173,-0.0027547,-5.3375,0.047398,0
3887,2.0428e+07,-9.0013,-0.09947,-0.020882,-5.0023,-0.071952,-0.010951,-0.61777,0.52988,-0.0028488,-5.3375,-0.77,0
3928,2.0438e+07,-8.9985,-0.070254,-0.021094,-4.9994,-0.042229,-0.011649,-0.61784,0.42146,-0.0029071,-5.3375,-0.31862,0
3969,2.0448e+07,-8.9914,-0.18796,-0.020072,-4.9971,-0.036503,-0.011769,-0.61796,0.41858,-0.002949,-5.3375,-0.5414,0
4011,2.0459e+07,-8.9903,-0.079887,-0.020956,-4.9889,-0.16953,-0.010816,-0.61812,0.49668,-0.0030115,-5.3375,-2.9637,0
4057,2.0469e+07,-8.9913,0.032785,-0.021714,-4.9894,-0.0094599,-0.012294,-0.61807,0.53131,-0.0030761,-5.3375,-3.604,0
4097,2.0479e+07,-8.9904,0.02303,-0.021655,-4.9879,0.0050692,-0.011998,-0.61813,0.49226,-0.003129,-5.3375,-1.7725,0
4139,2.049e+07,-8.9955,0.12342,-0.022049,-4.9897,0.038638,-0.011963,-0.61805,0.47867,-0.0031631,-5.3375,-0.66442,0
4180,2.05e+07,-8.9944,-0.028304,-0.020678,-4.9917,0.042323,-0.011828,-0.61801,0.36463,-0.0031622,-5.3375,-0.91028,0
4217,2.051e+07,-8.9996,0.092177,-0.021819,-4.9912,-0.011309,-0.011622,-0.618,0.42212,-0.0031689,-5.3375,-1.2244,0
4259,2.052e+07,-9.0043,0.087259,-0.021243,-4.9897,-0.0073657,-0.011744,-0.61795,0.45708,-0.0031944,-5.3375,-0.9223,0
4299,2.053e+07,-9.0077,0.019591,-0.02073,-4.9853,-0.077886,-0.011234,-0.61801,0.4636,-0.0032219,-5.3375,-1.2476,0
4340,2.054e+07,-9.0129,0.065367,-0.021404,-4.9791,-0.11831,-0.011195,-0.61806,0.54087,-0.0032526,-5.3375,-0.19369,0
4380,2.055e+07,-9.0112,-0.040325,-0.020643,-4.9669,-0.24866,-0.010623,-0.61828,0.5275,-0.0033013,-5.3375,0.099468,0
4421,2.056e+07,-9.0162,0.098862,-0.021871,-4.9643,-0.075324,-0.011983,-0.6183,0.57996,-0.0033354,-5.3375,0.18044,0
4468,2.0571e+07,-9.0171,-0.0023263,-0.020844,-4.9595,-0.10239,-0.011351,-0.61837,0.56976,-0.0033892,-5.3375,-0.79584,0
4508,2.0581e+07,-9.0126,-0.10403,-0.020346,-4.9541,-0.094642,-0.011408,-0.6185,0.56459,-0.0034253,-5.3375,-0.73309,0
4550,2.0591e+07,-9.012,-0.043707,-0.021056,-4.9535,0.0097782,-0.012269,-0.61852,0.43698,-0.0034262,-5.3375,-0.22306,0
4593,2.0603e+07,-9.0102,-0.047611,-0.021051,-4.9537,0.037321,-0.012149,-0.61854,0.55188,-0.0034488,-5.3375,-0.95615,0
4637,2.0616e+07,-9.0077,-0.061346,-0.021017,-4.9565,0.07128,-0.012036,-0.61852,0.52318,-0.0034936,-5.3375,-0.96712,0
4678,2.0626e+07,-9.0088,0.00076553,-0.02137,-4.9626,0.13167,-0.012312,-0.61842,0.47703,-0.0034818,-5.3375,0.83656,0
4718,2.0636e+07,-9.0095,0.00011854,-0.021212,-4.962,0.016666,-0.011472,-0.61842,0.35902,-0.0034515,-5.3375,1.0566,0
4761,2.0646e+07,-9.0123,0.090273,-0.021782,-4.9601,-0.0023927,-0.011555,-0.61841,0.55608,-0.0034498,-5.3375,0.38939,0
4802,2.0656e+07,-9.0175,0.10523,-0.021857,-4.9603,0.006812,-0.011905,-0.61836,0.45742,-0.0034658,-5.3375,-0.33188,0
4843,2.0667e+07,-9.0236,0.15042,-0.021829,-4.9604,0.023202,-0.011865,-0.61829,0.4459,-0.0034469,-5.3375,-0.45643,0
4888,2.0677e+07,-9.0303,0.10686,-0.021328,-4.9603,-0.0026789,-0.01153,-0.61827,0.41854,-0.0034246,-5.3375,-1.336,0
4929,2.0687e+07,-9.0366,0.1408,-0.021745,-4.9639,0.076766,-0.012273,-0.61811,0.49308,-0.0034234,-5.3375,-0.9757,0
4970,2.0697e+07,-9.0448,0.17873,-0.021874,-4.965,0.052271,-0.011733,-0.618,0.52077,-0.0034418,-5.3375,-1.3013,0
5011,2.0707e+07,-9.0505,0.12188,-0.021525,-4.9673,0.065909,-0.012064,-0.61793,0.45826,-0.0034254,-5.3375,-1.3776,0
5052,2.072e+07,-9.0562,0.08793,-0.021453,-4.969,0.063132,-0.012143,-0.61782,0.6148,-0.0034479,-5.3375,-1.5129,0
5092,2.073e+07,-9.0505,-0.11495,-0.02011,-4.9681,-0.0024364,-0.011432,-0.61791,0.44973,-0.0034689,-5.3375,-1.5342,0
5134,2.074e+07,-9.0438,-0.15134,-0.020453,-4.9659,-0.029422,-0.011491,-0.61799,0.48916,-0.0034553,-5.3375,-0.90485,0
5175,2.075e+07,-9.0411,-0.05953,-0.021583,-4.9637,-0.051047,-0.011355,-0.61806,0.45821,-0.0034474,-5.3375,-0.96436,0
5215,2.076e+07,-9.0349,-0.12398,-0.020775,-4.9607,-0.085156,-0.011173,-0.61818,0.4942,-0.0034469,-5.3375,-1.1426,0
5260,2.0771e+07,-9.0299,-0.12419,-0.021156,-4.9586,-0.018801,-0.011865,-0.61828,0.47813,-0.0034484,-5.3375,-0.41304,0
5301,2.078e+07,-9.0237,-0.13631,-0.020698,-4.9577,0.0018416,-0.011794,-0.61834,0.40166,-0.0034346,-5.3375,-0.84124,0
5345,2.0791e+07,-9.0181,-0.13885,-0.020831,-4.9512,-0.13348,-0.010943,-0.61851,0.49868,-0.0034138,-5.3375,-0.61979,0
5386,2.08e+07,-9.0182,0.025194,-0.022115,-4.9535,0.041239,-0.012282,-0.61847,0.44858,-0.0034201,-5.3375,1.2474,0
5428,2.0811e+07,-9.0182,-0.011447,-0.021352,-4.955,0.053555,-0.012155,-0.61845,0.4733,-0.0034126,-5.3375,1.7857,0
5466,2.0824e+07,-9.0209,0.0059566,-0.021038,-4.9517,-0.071809,-0.011001,-0.61848,0.55209,-0.0034527,-5.3375,1.0421,0
5507,2.0833e+07,-9.0262,0.10433,-0.021937,-4.9549,0.065531,-0.012264,-0.61838,0.42617,-0.0034467,-5.3375,-0.077915,0
5551,2.0844e+07,-9.0341,0.17409,-0.022148,-4.958,0.071887,-0.011974,-0.61826,0.5337,-0.0034605,-5.3375,-0.13895,0
5592,2.0854e+07,-9.0399,0.13898,-0.021517,-4.9626,0.14316,-0.012369,-0.61808,0.53588,-0.003483,-5.3375,-0.57201,0
5632,2.0864e+07,-9.0462,0.14901,-0.021785,-4.9671,0.11221,-0.012151,-0.61794,0.46982,-0.0034742,-5.3375,-1.1903,0
5677,2.0874e+07,-9.0494,0.067611,-0.021212,-4.9685,0.054066,-0.011628,-0.6179,0.56445,-0.0034762,-5.3375,-0.66805,0
5717,2.0885e+07,-9.0514,0.031626,-0.021151,-4.9729,0.10648,-0.012415,-0.61779,0.58607,-0.0035094,-5.3375,-1.2967,0
5760,2.0895e+07,-9.0556,0.092156,-0.021794,-4.97,-0.037069,-0.011064,-0.61783,0.59923,-0.0035491,-5.3375,-0.18644,0
5800,2.0905e+07,-9.0506,-0.11062,-0.020223,-4.9671,-0.063249,-0.011339,-0.61791,0.61542,-0.003578,-5.3375,-0.82159,0
5838,2.0915e+07,-9.0472,-0.06805,-0.021277,-4.9614,-0.14315,-0.010736,-0.61803,0.54503,-0.0035845,-5.3375,-3.0981,0
5877,2.0925e+07,-9.0418,-0.08425,-0.021116,-4.9623,0.03043,-0.012405,-0.6181,0.42584,-0.0035739,-5.3375,-1.6111,0
5917,2.0935e+07,-9.0335,-0.22136,-0.019899,-4.9624,0.01649,-0.011813,-0.61815,0.63245,-0.0035734,-5.3375,0.72365,0
5959,2.0945e+07,-9.0284,-0.10753,-0.021363,-4.9629,-0.016526,-0.011272,-0.6182,0.51522,-0.0035961,-5.3375,1.5658,0
6000,2.0955e+07,-9.0187,-0.19471,-0.020601,-4.9614,-0.029126,-0.01143,-0.61833,0.35169,-0.0035493,-5.3375,1.7575,0
6040,2.0965e+07,-9.0303,-0.03038,-0.021927,-4.9337,-0.090991,-0.011096,0.086382,0.45354,-0.0034287,-5.3375,-0.45519,0
6085,2.0975e+07,-9.0302,0.0056791,-0.021641,-4.9315,-0.054587,-0.011345,0.086381,0.50843,-0.0032206,-5.3375,-0.72565,0
6125,2.0985e+07,-9.0488,0.12393,-0.022568,-4.9038,-0.068691,-0.011132,0.79114,0.42943,-0.0029449,-5.3375,-0.7021,0
6167,2.0995e+07,-9.0574,0.20856,-0.022434,-4.8992,-0.096354,-0.011067,0.79116,0.48881,-0.0025639,-5.3375,-0.19131,0
6208,2.1005e+07,-9.0653,0.18688,-0.022142,-4.9056,0.14899,-0.013028,0.79133,0.42616,-0.0021599,-5.3375,0.13828,0
6248,2.1015e+07,-9.0799,0.327,-0.022768,-4.9078,0.071289,-0.011812,0.79149,0.47716,-0.0018006,-5.3375,-1.2912,0
6286,2.1025e+07,-9.0881,0.1644,-0.021465,-4.9079,0.042712,-0.011587,0.7916,0.43216,-0.0014641,-5.3375,-0.76942,0
6327,2.1035e+07,-9.1016,0.2696,-0.022189,-4.9055,-0.037024,-0.011131,0.79166,0.48133,-0.0011815,-5.3375,-0.7884,0
6371,2.1046e+07,-9.1068,0.11549,-0.020868,-4.8991,-0.1483,-0.010306,0.79162,0.50955,-0.00093528,-5.3375,-0.98448,0
6411,2.1056e+07,-9.1021,-0.13725,-0.01975,-4.8933,-0.12194,-0.01109,0.79146,0.53213,-0.00072213,-5.3375,0.61207,0
6455,2.1068e+07,-9.088,-0.22366,-0.020525,-4.8756,-0.35938,-0.0096048,0.79102,0.43135,-0.00046909,-5.3375,-0.44355,0
6499,2.1078e+07,-9.077,-0.21756,-0.021102,-4.8676,-0.19387,-0.011325,0.79074,0.50286,-0.00030349,-5.3375,0.26045,0
6540,2.1088e+07,-9.0647,-0.25103,-0.020785,-4.8629,-0.12641,-0.011485,0.79056,0.57501,-0.00019057,-5.3375,0.99983,0
6582,2.1098e+07,-9.0531,-0.26714,-0.020404,-4.8649,0.035959,-0.012018,0.79052,0.38842,-5.6669e-05,-5.3375,1.2157,0
6622,2.1111e+07,-9.044,-0.18436,-0.020885,-4.8712,0.10003,-0.011921,0.79052,0.42184,0.00011262,-5.3375,0.91772,0
6660,2.1121e+07,-9.0234,-0.1464,-0.021095,-4.9037,0.17374,-0.012361,0.085805,0.4053,0.0002354,-5.3375,-0.72317,0
6700,2.1131e+07,-9.0221,-0.048589,-0.021581,-4.9124,0.19503,-0.012568,0.085929,0.57854,0.00013044,-5.3375,-0.63715,0
6743,2.1141e+07,-9.026,0.071112,-0.021938,-4.9167,0.084707,-0.011249,0.086032,0.46417,-1.4057e-05,-5.3375,-1.4067,0
6783,2.1151e+07,-9.026,-0.024594,-0.020831,-4.9231,0.14994,-0.011924,0.086157,0.57083,-0.00018407,-5.3375,-0.61693,0
6824,2.1161e+07,-9.0345,0.16529,-0.022054,-4.9252,0.050635,-0.011125,0.086272,0.59426,-0.00034879,-5.3375,0.87414,0
6865,2.1171e+07,-9.0537,0.41324,-0.023677,-4.9293,0.071717,-0.011858,0.086535,0.53979,-0.00048417,-5.3375,1.937,0
6910,2.1181e+07,-9.0726,0.44231,-0.023227,-4.9259,-0.091278,-0.010568,0.086651,0.54411,-0.0005955,-5.3375,0.40073,0
6951,2.1192e+07,-9.0848,0.272,-0.021643,-4.9187,-0.1599,-0.010694,0.086645,0.54828,-0.00070307,-5.3375,-2.1832,0
6991,2.1202e+07,-9.0922,0.14323,-0.020927,-4.9172,-0.056569,-0.011516,0.086682,0.43191,-0.00075007,-5.3375,-2.9505,0
7032,2.1215e+07,-9.1082,0.24726,-0.02238,-4.9133,-0.033321,-0.01168,0.086767,0.48435,-0.00081113,-5.3375,-3.8725,0
7072,2.1225e+07,-9.1196,0.3004,-0.022284,-4.9116,0.0036458,-0.011649,0.086859,0.6256,-0.00089587,-5.3375,-2.7288,0
7113,2.1235e+07,-9.1136,-0.12169,-0.019441,-4.909,-0.0016349,-0.012159,0.086749,0.50305,-0.00095477,-5.3375,0.44394,0
7156,2.1245e+07,-9.1047,-0.18871,-0.02069,-4.9109,0.071164,-0.012111,0.0867,0.48716,-0.00096704,-5.3375,1.6479,0
7198,2.1255e+07,-9.0996,-0.091738,-0.021669,-4.914,0.073907,-0.012063,0.086722,0.64521,-0.0010583,-5.3375,0.25101,0
7239,2.1265e+07,-9.0898,-0.15988,-0.0211,-4.9184,0.054005,-0.011247,0.086693,0.42641,-0.0010762,-5.3375,0.32015,0
7283,2.1276e+07,-9.0848,-0.068226,-0.022043,-4.9275,0.20325,-0.012619,0.086798,0.70437,-0.0011491,-5.3375,-1.2485,0
7325,2.1286e+07,-9.0737,-0.23553,-0.020657,-4.9319,0.10678,-0.011711,0.086769,0.47154,-0.00119,-5.3375,-0.79927,0
7366,2.1296e+07,-9.068,-0.12763,-0.021239,-4.9287,-0.093336,-0.010452,0.086643,0.70003,-0.001237,-5.3375,-2.3804,0
7408,2.1306e+07,-9.0633,-0.10533,-0.021149,-4.9253,-0.030717,-0.011143,0.086555,0.53022,-0.0012838,-5.3375,-2.4926,0
7452,2.1321e+07,-9.0689,0.13517,-0.022622,-4.9199,-0.02193,-0.012078,0.086495,0.55539,-0.0013064,-5.3375,-1.3348,0
7493,2.1331e+07,-9.0736,0.11182,-0.021844,-4.9137,-0.12762,-0.011006,0.086436,0.44345,-0.0012771,-5.3375,-0.75188,0
7534,2.1341e+07,-9.0812,0.15017,-0.022183,-4.9068,-0.13041,-0.01105,0.0864,0.53175,-0.0012873,-5.3375,-0.82359,0
7576,2.1351e+07,-9.0806,-0.044356,-0.020219,-4.9023,-0.098049,-0.011494,0.086312,0.4581,-0.0012693,-5.3375,-1.4053,0
7616,2.1361e+07,-9.0856,0.074867,-0.021438,-4.8978,-0.11533,-0.011225,0.086284,0.50674,-0.0012662,-5.3375,0.074863,0
7657,2.1371e+07,-9.0908,0.10907,-0.021807,-4.902,0.14886,-0.013222,0.08641,0.39711,-0.0012495,-5.3375,0.83771,0
7703,2.1381e+07,-9.0883,-0.099901,-0.020154,-4.909,0.17292,-0.012795,0.086499,0.47405,-0.0012379,-5.3375,2.7882,0
7744,2.1391e+07,-9.0819,-0.18537,-0.019667,-4.916,0.12002,-0.011388,0.086585,0.40737,-0.0012135,-5.3375,1.4797,0
7786,2.1401e+07,-9.0753,-0.18493,-0.020545,-4.9209,0.10442,-0.011739,0.086612,0.45173,-0.001205,-5.3375,-0.18606,0
7829,2.1413e+07,-9.0705,-0.074116,-0.021592,-4.9202,-0.019183,-0.011026,0.086535,0.57824,-0.001226,-5.3375,-2.8364,0
7870,2.1426e+07,-9.0584,-0.22629,-0.020502,-4.9142,-0.024145,-0.011729,0.086307,0.63835,-0.0012721,-5.3375,-3.1589,0
7910,2.1436e+07,-9.0484,-0.24082,-0.020326,-4.9142,0.014861,-0.011915,0.086209,0.62467,-0.0013445,-5.3375,-3.6316,0
7951,2.1446e+07,-9.0428,-0.18774,-0.020514,-4.9131,-0.032386,-0.011519,0.086167,0.75661,-0.0013856,-5.3375,-3.3578,0
7996,2.1456e+07,-9.045,0.020188,-0.021944,-4.9147,0.045412,-0.011948,0.086197,0.69926,-0.001456,-5.3375,-1.9816,0
8036,2.1467e+07,-9.047,0.040682,-0.021544,-4.9143,-0.0041124,-0.011382,0.086224,0.73229,-0.0015278,-5.3375,1.273,0
8081,2.1477e+07,-9.0567,0.18148,-0.022269,-4.9149,0.011534,-0.011834,0.086333,0.51076,-0.0015233,-5.3375,2.8864,0
8121,2.1487e+07,-9.0614,0.094327,-0.021048,-4.9143,-0.014301,-0.011383,0.086349,0.56206,-0.0015161,-5.3375,2.3117,0
8163,2.1497e+07,-9.0491,0.014176,-0.021161,-4.9435,0.087026,-0.01191,-0.6105,0.59542,-0.0015099,-5.3375,0.37127,0
8204,2.1507e+07,-9.053,0.066603,-0.021644,-4.95,0.14823,-0.012441,-0.61821,0.44171,-0.0016232,-5.3375,-2.9085,0
8244,2.1517e+07,-9.0623,0.20895,-0.022334,-4.9561,0.14349,-0.011961,-0.61801,0.43171,-0.0017764,-5.3375,-4.9814,0
8279,2.1528e+07,-9.0806,0.43498,-0.02367,-4.9627,0.11825,-0.012095,-0.6177,0.23045,-0.0019029,-5.3375,-5.9958,0
8320,2.1538e+07,-9.0939,0.31849,-0.022057,-4.9639,0.068883,-0.011679,-0.61759,0.38757,-0.0020155,-5.3375,-4.5242,0
8360,2.1548e+07,-9.1035,0.20746,-0.021897,-4.9606,-0.050938,-0.011126,-0.61756,0.2661,-0.0021252,-5.3375,-3.3574,0
8401,2.1558e+07,-9.1071,0.11967,-0.021248,-4.946,-0.32559,-0.0094845,-0.61777,0.42843,-0.0022338,-5.3375,-0.30317,0
8442,2.1568e+07,-9.105,-0.065642,-0.02047,-4.9394,-0.17752,-0.011537,-0.6179,0.41302,-0.0023556,-5.3375,0.64306,0
8492,2.1581e+07,-9.105,-0.042695,-0.021081,-4.9323,-0.13932,-0.011182,-0.61801,0.51489,-0.0025071,-5.3375,1.8725,0
8533,2.1591e+07,-9.0955,-0.2154,-0.019965,-4.9328,0.0034474,-0.012186,-0.61809,0.68249,-0.0026652,-5.3375,1.3257,0
8574,2.1601e+07,-9.0854,-0.24259,-0.020206,-4.9259,-0.12285,-0.010804,-0.61833,0.55125,-0.0028013,-5.3375,0.67902,0
8615,2.1611e+07,-9.0745,-0.25313,-0.020607,-4.9265,0.025603,-0.012459,-0.61842,0.70299,-0.0029375,-5.3375,-1.3992,0
8652,2.1621e+07,-9.0589,-0.3508,-0.020081,-4.9278,0.058701,-0.012089,-0.61852,0.63583,-0.003064,-5.3375,-3.9723,0
8693,2.1633e+07,-9.0446,-0.24943,-0.021131,-4.9309,0.067971,-0.011978,-0.61859,0.57843,-0.0031682,-5.3375,-2.9102,0
8735,2.1644e+07,-9.0418,-0.027301,-0.022493,-4.9376,0.18794,-0.012737,-0.61853,0.67022,-0.0032686,-5.3375,-5.2059,0
8776,2.1654e+07,-9.0456,0.10274,-0.022517,-4.9426,0.10093,-0.011589,-0.61841,0.53328,-0.003312,-5.3375,-5.4765,0
8818,2.1664e+07,-9.054,0.20141,-0.022405,-4.9457,0.058387,-0.011564,-0.61829,0.44676,-0.0033223,-5.3375,-2.1357,0
8859,2.1674e+07,-9.0603,0.11832,-0.021392,-4.9447,0.026279,-0.011575,-0.61824,0.28745,-0.0032867,-5.3375,-2.3077,0
8904,2.1685e+07,-9.0643,0.077781,-0.021368,-4.9454,0.025882,-0.01204,-0.61814,0.38246,-0.0032577,-5.3375,-1.2423,0
8944,2.1695e+07,-9.0694,0.11751,-0.021712,-4.9416,-0.062465,-0.011343,-0.61818,0.28838,-0.0032348,-5.3375,0.23899,0
8985,2.1705e+07,-9.0787,0.20229,-0.022219,-4.9365,-0.11629,-0.011093,-0.61819,0.36345,-0.0031978,-5.3375,0.97771,0
9025,2.1715e+07,-9.0825,0.066517,-0.021126,-4.9336,-0.063719,-0.011486,-0.61821,0.41805,-0.0031916,-5.3375,0.74797,0
9066,2.1725e+07,-9.0931,0.22059,-0.022283,-4.9388,0.12163,-0.012749,-0.618,0.42906,-0.00321,-5.3375,-0.26083,0
9104,2.1735e+07,-9.0968,0.086995,-0.021333,-4.9434,0.09835,-0.011983,-0.6179,0.39756,-0.0032128,-5.3375,-3.7103,0
9144,2.1745e+07,-9.0909,-0.098029,-0.020221,-4.9526,0.21808,-0.012779,-0.6178,0.39293,-0.0032075,-5.3375,-4.1362,0
9185,2.1755e+07,-9.0822,-0.15766,-0.020975,-4.959,0.13623,-0.011722,-0.61775,0.5681,-0.0032494,-5.3375,-2.9629,0
9225,2.1765e+07,-9.0764,-0.13844,-0.020938,-4.9624,0.047466,-0.011457,-0.61777,0.67302,-0.003338,-5.3375,-1.8129,0
9266,2.1775e+07,-9.0867,-0.057279,-0.021434,-4.9434,0.1074,-0.011676,0.087124,0.59334,-0.0033937,-5.3375,-0.09985,0
9310,2.1785e+07,-9.0787,-0.17297,-0.02056,-4.9404,-0.063931,-0.010647,0.086995,0.53022,-0.0032685,-5.3375,0.18845,0
9352,2.1795e+07,-9.0721,-0.15063,-0.021075,-4.9342,-0.13651,-0.010626,0.086785,0.57769,-0.0030894,-5.3375,-0.49057,0
9395,2.1805e+07,-9.0686,-0.078003,-0.02162,-4.9269,-0.1592,-0.011019,0.086647,0.60458,-0.0029236,-5.3375,-0.76628,0
9435,2.1815e+07,-9.0666,-0.061068,-0.021201,-4.9193,-0.20618,-0.01061,0.086489,0.64166,-0.0027776,-5.3375,-0.93441,0
9474,2.1825e+07,-9.0669,0.0031235,-0.021549,-4.9106,-0.19564,-0.010918,0.086324,0.43216,-0.0026127,-5.3375,-1.9959,0
9519,2.1875e+07,-9.1063,0.12129,-0.021363,-4.9071,0.089861,-0.012262,0.08666,0.42223,-0.0018609,-5.3375,-2.1993,0
9564,2.1885e+07,-9.1069,0.027939,-0.020996,-4.9125,0.1374,-0.012237,0.086743,0.30493,-0.0017451,-5.3375,-0.63629,0
9605,2.1895e+07,-9.1159,0.18664,-0.022612,-4.9192,0.1348,-0.012105,0.08695,0.24223,-0.0016057,-5.3375,-0.35105,0
9646,2.1905e+07,-9.1191,0.09389,-0.021537,-4.9197,0.024581,-0.011002,0.086994,0.3911,-0.0015144,-5.3375,-0.4406,0
9686,2.1915e+07,-9.116,-0.031981,-0.020861,-4.9175,-0.036601,-0.011179,0.086939,0.48318,-0.0014767,-5.3375,-1.3121,0
9720,2.1925e+07,-9.1064,-0.22342,-0.020145,-4.9127,-0.11916,-0.010887,0.08677,0.56007,-0.0014545,-5.3375,-1.6245,0
9761,2.1935e+07,-9.0972,-0.19984,-0.020673,-4.9096,-0.056969,-0.011643,0.086608,0.59304,-0.001465,-5.3375,-1.1504,0
9802,2.1945e+07,-9.0852,-0.26867,-0.020431,-4.9067,-0.061424,-0.011434,0.086427,0.55251,-0.0014825,-5.3375,-1.9797,0
9843,2.1955e+07,-9.0787,-0.12311,-0.021804,-4.9082,0.03804,-0.011982,0.08642,0.55477,-0.0014688,-5.3375,-3.4954,0
9884,2.1965e+07,-9.068,-0.22737,-0.020512,-4.9095,0.033245,-0.011792,0.086318,0.57177,-0.0014714,-5.3375,-3.1796,0
9925,2.1975e+07,-9.0658,-0.040629,-0.021953,-4.9111,0.046239,-0.011783,0.086333,0.39182,-0.0014257,-5.3375,-1.7976,0
9970,2.1985e+07,-9.0618,-0.084871,-0.021194,-4.9153,0.13377,-0.012497,0.086367,0.41263,-0.0013763,-5.3375,-1.0398,0
10011,2.1995e+07,-9.0644,0.049212,-0.022027,-4.921,0.12822,-0.011994,0.086495,0.28615,-0.0013032,-5.3375,-1.2281,0
10052,2.2005e+07,-9.0678,0.076458,-0.021896,-4.9275,0.12915,-0.011868,0.086651,0.27598,-0.0012318,-5.3375,-0.51756,0
10092,2.2015e+07,-9.0716,0.086008,-0.021511,-4.927,-0.0058365,-0.011009,0.086666,0.28621,-0.0011372,-5.3375,0.070763,0
10130,2.2025e+07,-9.0807,0.18813,-0.022402,-4.9279,0.02023,-0.011618,0.086771,0.47502,-0.0011308,-5.3375,-0.77515,0
10170,2.2035e+07,-9.0894,0.23365,-0.022325,-4.9231,-0.11359,-0.010713,0.086798,0.44502,-0.0011332,-5.3375,-2.6786,0
10213,2.2045e+07,-9.0969,0.18346,-0.02189,-4.9166,-0.12633,-0.011242,0.086733,0.46404,-0.0011269,-5.3375,-3.1008,0
10253,2.2055e+07,-9.0997,0.069987,-0.021035,-4.9097,-0.14361,-0.010971,0.086634,0.44592,-0.0011314,-5.3375,-3.72,0
10295,2.2065e+07,-9.0983,-0.046927,-0.020687,-4.9075,-0.030544,-0.012001,0.086583,0.42567,-0.001116,-5.3375,-4.4039,0
10335,2.2075e+07,-9.0984,0.020897,-0.021856,-4.9033,-0.092539,-0.011325,0.086481,0.49815,-0.0011318,-5.3375,-3.1445,0
10381,2.2085e+07,-9.0961,-0.034342,-0.020998,-4.9075,0.088372,-0.012431,0.08657,0.51,-0.0011621,-5.3375,-1.891,0
10421,2.2095e+07,-9.0966,-0.022339,-0.021425,-4.9082,0.010242,-0.011237,0.086577,0.46218,-0.0011641,-5.3375,-1.5379,0
10463,2.2106e+07,-9.0939,-0.082912,-0.02075,-4.9091,0.023807,-0.011727,0.086585,0.49864,-0.0011736,-5.3375,-3.8168,0
10504,2.2116e+07,-9.0886,-0.11776,-0.020779,-4.9117,0.085979,-0.012077,0.086559,0.48419,-0.0011854,-5.3375,-2.4658,0
10541,2.2126e+07,-9.0807,-0.18667,-0.020441,-4.915,0.069079,-0.011806,0.086538,0.45887,-0.0011901,-5.3375,-1.7998,0
10582,2.2135e+07,-9.0784,-0.050865,-0.021607,-4.9153,0.024092,-0.011643,0.086538,0.38377,-0.0011695,-5.3375,-2.7871,0
10622,2.2146e+07,-9.0753,-0.067143,-0.021441,-4.9153,0.0041571,-0.011302,0.086506,0.38601,-0.0011561,-5.3375,-3.9501,0
10664,2.2157e+07,-9.0771,0.039577,-0.02181,-4.9136,-0.036353,-0.011286,0.086488,0.43802,-0.0011414,-5.3375,-3.1819,0
10704,2.2167e+07,-9.0807,0.088102,-0.021943,-4.9102,-0.073593,-0.010907,0.08647,0.47564,-0.0011447,-5.3375,-4.4383,0
10746,2.2178e+07,-9.0772,-0.043926,-0.020851,-4.9102,-0.032872,-0.011608,0.086434,0.44992,-0.0011538,-5.3375,-3.7217,0
10791,2.2188e+07,-9.075,-0.02884,-0.021415,-4.9095,-0.0019284,-0.011715,0.086396,0.42904,-0.0011513,-5.3375,-2.1989,0
10831,2.2197e+07,-9.0736,-0.011102,-0.021676,-4.9111,0.058861,-0.012106,0.086405,0.5252,-0.0011751,-5.3375,-2.7797,0
10872,2.2208e+07,-9.0743,0.041435,-0.021989,-4.9155,0.096874,-0.012152,0.086485,0.41069,-0.0011516,-5.3375,-3.4575,0
10918,2.2223e+07,-9.0837,0.16709,-0.022257,-4.9167,0.045917,-0.011726,0.086635,0.46983,-0.001174,-5.3375,-0.95482,0
10960,2.2233e+07,-9.0881,0.10068,-0.021445,-4.9215,0.10464,-0.012182,0.086694,0.4912,-0.0011783,-5.3375,-0.94109,0
11000,2.2244e+07,-9.0839,-0.099544,-0.020293,-4.9228,0.047791,-0.011651,0.086713,0.4434,-0.0011764,-5.3375,-2.6849,0
11043,2.2254e+07,-9.0792,-0.083453,-0.021132,-4.9258,0.044395,-0.011826,0.086704,0.45528,-0.0011602,-5.3375,-3.3955,0
11083,2.2264e+07,-9.0741,-0.12742,-0.020789,-4.9304,0.12784,-0.012127,0.08675,0.5679,-0.0011829,-5.3375,-2.5128,0
11125,2.2274e+07,-9.0753,-0.017487,-0.021532,-4.9281,-0.031215,-0.011039,0.086739,0.46752,-0.0011962,-5.3375,-2.5263,0
11171,2.2285e+07,-9.0712,-0.11546,-0.020477,-4.9246,-0.07317,-0.011178,0.086618,0.53633,-0.0012211,-5.3375,-3.088,0
11211,2.2295e+07,-9.0715,-0.021747,-0.021362,-4.9184,-0.16925,-0.010513,0.086533,0.30806,-0.0011691,-5.3375,-4.4537,0
11254,2.2305e+07,-9.0732,0.02425,-0.021485,-4.9201,0.048038,-0.012375,0.086559,0.47092,-0.0011404,-5.3375,-2.0221,0
11294,2.2315e+07,-9.0723,-0.011042,-0.021249,-4.9144,-0.11066,-0.011022,0.086461,0.39302,-0.0011379,-5.3375,-1.0431,0
11336,2.2325e+07,-9.0685,-0.10289,-0.020805,-4.9117,-0.071497,-0.011226,0.086356,0.45287,-0.001123,-5.3375,-1.7325,0
11373,2.2336e+07,-9.0629,-0.073894,-0.021172,-4.91,-0.024922,-0.011728,0.086268,0.43337,-0.0011296,-5.3375,-3.0586,0
11414,2.2345e+07,-9.0655,0.076555,-0.022335,-4.9116,0.037082,-0.012158,0.086349,0.42429,-0.001128,-5.3375,-5.1095,0
11455,2.2356e+07,-9.0669,0.034629,-0.021406,-4.9124,0.010129,-0.011463,0.086376,0.44385,-0.0011078,-5.3375,-5.0523,0
11495,2.2366e+07,-9.0649,-0.072752,-0.020399,-4.9176,0.11519,-0.012169,0.086441,0.45072,-0.0011233,-5.3375,-5.3403,0
11537,2.2376e+07,-9.0659,-0.011518,-0.021232,-4.9182,0.009206,-0.011342,0.086467,0.39274,-0.0011129,-5.3375,-5.4593,0
11582,2.2386e+07,-9.0642,-0.030307,-0.021302,-4.9188,0.015709,-0.011417,0.086463,0.41552,-0.0010896,-5.3375,-5.6304,0
11625,2.2397e+07,-9.0674,0.082589,-0.02187,-4.9211,0.047428,-0.011869,0.086524,0.49398,-0.0011134,-5.3375,-3.9704,0
11666,2.2406e+07,-9.0688,0.020357,-0.021343,-4.9209,0.0023314,-0.011349,0.086534,0.3801,-0.0011008,-5.3375,-3.1369,0
11706,2.2417e+07,-9.071,0.047158,-0.021743,-4.9184,-0.052248,-0.011255,0.086504,0.50293,-0.0011097,-5.3375,-1.9438,0
11747,2.2427e+07,-9.0745,0.052102,-0.021307,-4.9144,-0.070722,-0.011169,0.086471,0.40634,-0.0011008,-5.3375,-0.059128,0
11784,2.2438e+07,-9.07,-0.1007,-0.020281,-4.9147,0.011998,-0.011861,0.086432,0.43514,-0.0010983,-5.3375,-0.58565,0
11826,2.2448e+07,-9.0669,-0.062299,-0.021192,-4.9148,0.0020815,-0.011821,0.086409,0.49369,-0.0010896,-5.3375,-1.5494,0
11868,2.2458e+07,-9.0671,0.0022925,-0.02143,-4.9135,-0.016115,-0.011482,0.086406,0.50158,-0.0011101,-5.3375,-2.3439,0
11909,2.2468e+07,-9.0697,0.063505,-0.021901,-4.9152,0.037254,-0.01197,0.086448,0.48208,-0.0011205,-5.3375,-2.6953,0
11951,2.2478e+07,-9.0682,-0.045428,-0.020779,-4.9114,-0.078256,-0.010757,0.086378,0.51891,-0.0011448,-5.3375,-4.0403,0
11996,2.2488e+07,-9.0663,-0.037936,-0.021135,-4.911,-0.022127,-0.01164,0.086366,0.4066,-0.001153,-5.3375,-4.2299,0
12037,2.2498e+07,-9.067,0.021386,-0.021738,-4.9121,0.052196,-0.012002,0.086373,0.45401,-0.0011441,-5.3375,-3.6616,0
12077,2.2509e+07,-9.0694,0.047316,-0.021732,-4.9173,0.099082,-0.012119,0.086456,0.55534,-0.0011648,-5.3375,-2.0399,0
12121,2.2522e+07,-9.0671,-0.027649,-0.021072,-4.9152,-0.06164,-0.010895,0.08642,0.40373,-0.0011589,-5.3375,-0.92239,0
12163,2.2533e+07,-9.0719,0.10859,-0.022318,-4.9111,-0.077921,-0.011127,0.086367,0.45886,-0.0011541,-5.3375,-1.6972,0
12203,2.2543e+07,-9.0802,0.18626,-0.022227,-4.9095,-0.020136,-0.011831,0.086434,0.41524,-0.001143,-5.3375,-2.9764,0
12241,2.2553e+07,-9.0844,0.10713,-0.021585,-4.9049,-0.087137,-0.011357,0.086392,0.42394,-0.0011382,-5.3375,-4.1199,0
12281,2.2563e+07,-9.081,-0.072903,-0.0204,-4.9023,-0.04967,-0.011437,0.086325,0.36968,-0.0010901,-5.3375,-3.707,0
12322,2.2574e+07,-9.0796,-0.049052,-0.02108,-4.9001,-0.062127,-0.011359,0.086303,0.39688,-0.0010819,-5.3375,-2.3365,0
12364,2.2584e+07,-9.0761,-0.050555,-0.021324,-4.9001,0.013807,-0.011901,0.086235,0.42499,-0.0010809,-5.3375,-1.1786,0
12411,2.2594e+07,-9.0748,0.0086954,-0.02198,-4.9001,0.0018844,-0.011833,0.086237,0.41815,-0.0010722,-5.3375,-3.1316,0
12451,2.2604e+07,-9.0784,0.091798,-0.022178,-4.9023,0.062392,-0.011725,0.086329,0.54393,-0.00111,-5.3375,-3.2101,0
12492,2.2614e+07,-9.0789,0.0055249,-0.021067,-4.903,0.0092474,-0.01127,0.086305,0.44584,-0.0011212,-5.3375,-2.7474,0
12533,2.2624e+07,-9.0769,-0.053491,-0.020865,-4.9083,0.13346,-0.012519,0.086385,0.44614,-0.0011225,-5.3375,-1.9396,0
12570,2.2634e+07,-9.0759,-0.043216,-0.021088,-4.9078,-0.021445,-0.010913,0.086389,0.38241,-0.0011134,-5.3375,-2.3665,0
12610,2.2645e+07,-9.074,-0.04623,-0.02122,-4.9097,0.031156,-0.01174,0.086397,0.31035,-0.0010763,-5.3375,-1.123,0
12651,2.2655e+07,-9.0803,0.14784,-0.022522,-4.915,0.12232,-0.012316,0.086528,0.39729,-0.0010634,-5.3375,-0.99869,0
12692,2.2665e+07,-9.0795,-0.023435,-0.020818,-4.9117,-0.068953,-0.010591,0.086485,0.42935,-0.0010529,-5.3375,-0.55075,0
12732,2.2675e+07,-9.082,0.014336,-0.021131,-4.9079,-0.11596,-0.01083,0.086421,0.62298,-0.0011019,-5.3375,-2.1816,0
12775,2.2685e+07,-9.0815,0.017739,-0.021311,-4.9023,-0.12901,-0.010924,0.086353,0.45854,-0.001135,-5.3375,-3.6541,0
12820,2.2695e+07,-9.0781,-0.081111,-0.02093,-4.8996,-0.060552,-0.011773,0.086238,0.38105,-0.001122,-5.3375,-3.7496,0
12860,2.2705e+07,-9.0777,0.0064938,-0.021802,-4.9045,0.12606,-0.012777,0.086329,0.44482,-0.0011156,-5.3375,-3.2283,0
12901,2.2715e+07,-9.0773,-0.0084833,-0.021555,-4.9011,-0.069731,-0.010795,0.086261,0.55378,-0.0011247,-5.3375,-3.4947,0
12941,2.2725e+07,-9.0772,0.038383,-0.021682,-4.9061,0.085834,-0.012241,0.086359,0.34808,-0.0011216,-5.3375,-4.3784,0
12979,2.2738e+07,-9.0791,0.047532,-0.021675,-4.9076,0.028018,-0.011557,0.086392,0.37431,-0.0011199,-5.3375,-2.9689,0
13019,2.2748e+07,-9.0788,0.0079485,-0.021178,-4.9153,0.19183,-0.012664,0.086532,0.40584,-0.0010892,-5.3375,-1.9881,0
13061,2.2758e+07,-9.0801,0.014717,-0.02139,-4.9193,0.076104,-0.011348,0.086633,0.30779,-0.0010674,-5.3375,-0.67701,0
13102,2.2768e+07,-9.0806,0.019604,-0.021486,-4.9184,-0.033586,-0.011021,0.086601,0.43946,-0.0010542,-5.3375,-2.0082,0
13142,2.2778e+07,-9.0839,0.06957,-0.021897,-4.9179,-0.0019729,-0.011545,0.086654,0.40624,-0.0010518,-5.3375,-3.9893,0
13183,2.2789e+07,-9.0833,0.0089143,-0.021235,-4.9135,-0.11223,-0.010848,0.086533,0.53687,-0.0010811,-5.3375,-3.6195,0
13230,2.2799e+07,-9.0859,0.053664,-0.021701,-4.9061,-0.14723,-0.010827,0.086442,0.57006,-0.0011389,-5.3375,-3.4623,0
13271,2.2809e+07,-9.086,0.023883,-0.02132,-4.9052,-0.02266,-0.012036,0.086418,0.48829,-0.0011704,-5.3375,-2.8867,0
13312,2.2819e+07,-9.0848,-0.01161,-0.021378,-4.9027,-0.022043,-0.011787,0.086373,0.47387,-0.0011701,-5.3375,-4.9111,0
13352,2.2829e+07,-9.0821,-0.046695,-0.021003,-4.9051,0.045402,-0.011987,0.086377,0.48905,-0.0011749,-5.3375,-6.5918,0
13393,2.284e+07,-9.0799,-0.065723,-0.020934,-4.9076,0.050305,-0.01171,0.086396,0.42893,-0.0011832,-5.3375,-2.7546,0
13433,2.285e+07,-9.0731,-0.16188,-0.020496,-4.9121,0.1402,-0.012568,0.08641,0.50438,-0.0011897,-5.3375,-2.1063,0
13475,2.286e+07,-9.0694,-0.094585,-0.021084,-4.9101,-0.02884,-0.011194,0.08634,0.49271,-0.0012035,-5.3375,-2.5464,0
13516,2.2871e+07,-9.0635,-0.17266,-0.020486,-4.9056,-0.11204,-0.010636,0.086234,0.51546,-0.0012239,-5.3375,-4.075,0
13556,2.2881e+07,-9.0519,-0.29373,-0.019825,-4.9012,-0.092765,-0.011253,0.086044,0.34393,-0.0012046,-5.3375,-3.3388,0
13598,2.2891e+07,-9.0406,-0.26453,-0.020339,-4.8962,-0.10605,-0.011105,0.085824,0.31571,-0.0011471,-5.3375,-5.0746,0
13642,2.2901e+07,-9.0306,-0.20676,-0.020839,-4.8911,-0.13423,-0.011088,0.085652,0.45455,-0.0011373,-5.3375,-6.1817,0
13684,2.2911e+07,-9.0275,-0.051156,-0.021834,-4.8912,0.0014454,-0.01194,0.085613,0.27486,-0.0010864,-5.3375,-4.2865,0
13724,2.2921e+07,-9.0266,-0.017622,-0.021756,-4.8961,0.1055,-0.012591,0.085686,0.26921,-0.0010399,-5.3375,-2.1242,0
13765,2.2931e+07,-9.0329,0.12512,-0.022302,-4.8992,0.074806,-0.011851,0.085807,0.39348,-0.0010026,-5.3375,-1.0203,0
13803,2.2942e+07,-9.0414,0.17792,-0.022007,-4.9035,0.086032,-0.011605,0.085981,0.31754,-0.00098195,-5.3375,-1.8648,0
13843,2.2952e+07,-9.0493,0.14303,-0.021398,-4.9075,0.091164,-0.01192,0.086104,0.26993,-0.00095546,-5.3375,-2.9429,0
13884,2.2962e+07,-9.0609,0.24299,-0.022112,-4.9122,0.091568,-0.011696,0.086308,0.28199,-0.00090063,-5.3375,-3.1952,0
13926,2.2972e+07,-9.0798,0.46532,-0.023697,-4.9103,-0.022377,-0.010895,0.086464,0.4035,-0.00089011,-5.3375,-4.0274,0
13967,2.2982e+07,-9.0916,0.27978,-0.021853,-4.9102,0.0027199,-0.011778,0.086574,0.44936,-0.00090531,-5.3375,-3.6812,0
14008,2.2992e+07,-9.1056,0.32141,-0.022438,-4.906,-0.11185,-0.0109,0.086624,0.57663,-0.00095701,-5.3375,-3.0209,0
14052,2.3002e+07,-9.1098,0.099642,-0.020843,-4.9047,-0.031528,-0.011514,0.086645,0.39426,-0.00098916,-5.3375,-5.0788,0
14094,2.3012e+07,-9.1085,-0.0085354,-0.020863,-4.9055,0.020278,-0.011868,0.086649,0.49698,-0.0010146,-5.3375,-6.9944,0
14134,2.3022e+07,-9.1007,-0.19853,-0.01981,-4.9031,-0.023983,-0.011523,0.086517,0.36398,-0.0010177,-5.3375,-6.6393,0
14179,2.3035e+07,-9.0892,-0.18681,-0.020869,-4.9026,0.066658,-0.012421,0.086444,0.48463,-0.0010236,-5.3375,-5.749,0
14221,2.3046e+07,-9.0785,-0.23249,-0.020564,-4.9087,0.17816,-0.012862,0.086421,0.49927,-0.0010533,-5.3375,-4.7667,0
14259,2.3056e+07,-9.0583,-0.46343,-0.019164,-4.9103,0.053903,-0.011736,0.086241,0.33766,-0.001045,-5.3375,-3.5868,0
14301,2.3066e+07,-9.0378,-0.46229,-0.0196,-4.911,0.059184,-0.011928,0.086081,0.42865,-0.0010123,-5.3375,-3.1282,0
14341,2.3076e+07,-9.0239,-0.31126,-0.020744,-4.9132,0.066545,-0.012024,0.08598,0.31273,-0.00099662,-5.3375,-3.4639,0
14382,2.3086e+07,-9.025,0.062664,-0.023418,-4.9193,0.14556,-0.0124,0.086088,0.28577,-0.00096798,-5.3375,-4.1582,0
14422,2.3096e+07,-9.0315,0.23284,-0.023481,-4.9153,-0.089926,-0.010421,0.086078,0.42558,-0.00095942,-5.3375,-4.7417,0
14468,2.3106e+07,-9.027,-0.074505,-0.020837,-4.9124,-0.15174,-0.010177,0.085975,0.37366,-0.00095263,-5.3375,-3.9125,0
14509,2.3116e+07,-9.0306,0.095149,-0.022054,-4.9066,-0.1543,-0.010418,0.085929,0.35395,-0.000972,-5.3375,-5.1086,0
14550,2.3127e+07,-9.0458,0.3229,-0.022944,-4.9012,-0.1736,-0.010796,0.085978,0.44018,-0.00097846,-5.3375,-4.1772,0
14591,2.3137e+07,-9.0643,0.42657,-0.023046,-4.8993,-0.043035,-0.011883,0.08612,0.47854,-0.00101,-5.3375,-6.1707,0
14631,2.3149e+07,-9.0855,0.42427,-0.022908,-4.8916,-0.12964,-0.010931,0.086166,0.53089,-0.0010552,-5.3375,-5.1773,0
14672,2.316e+07,-9.1026,0.45727,-0.023082,-4.8898,-0.051474,-0.011554,0.086317,0.4838,-0.0010743,-5.3375,-1.5322,0
14712,2.317e+07,-9.1145,0.30659,-0.022215,-4.883,-0.15337,-0.010862,0.086309,0.50481,-0.0011031,-5.3375,0.16794,0
14753,2.318e+07,-9.1214,0.19039,-0.021432,-4.8807,-0.051156,-0.011694,0.086309,0.37758,-0.0010992,-5.3375,-1.3766,0
14794,2.319e+07,-9.116,-0.11778,-0.019688,-4.8811,0.00648,-0.011439,0.086284,0.48663,-0.0010979,-5.3375,-1.9044,0
14839,2.3201e+07,-9.1018,-0.35169,-0.019019,-4.8831,0.010038,-0.011701,0.086196,0.28919,-0.0010776,-5.3375,-3.8973,0
14881,2.3211e+07,-9.0808,-0.43475,-0.019621,-4.8849,0.076284,-0.011925,0.086023,0.22835,-0.001018,-5.3375,-4.991,0
14921,2.3221e+07,-9.0534,-0.58631,-0.019255,-4.8887,0.098394,-0.012242,0.085819,0.30665,-0.00096091,-5.3375,-4.793,0
14962,2.3231e+07,-9.0253,-0.63542,-0.019246,-4.8879,-0.046055,-0.010922,0.085538,0.39595,-0.00094885,-5.3375,-4.79,0
15002,2.3241e+07,-9.0075,-0.41907,-0.020684,-4.89,0.018096,-0.0115,0.08541,0.26474,-0.00091488,-5.3375,-5.1991,0
15043,2.3251e+07,-9.0049,-0.12247,-0.021506,-4.894,0.090888,-0.01203,0.085425,0.52289,-0.00094532,-5.3375,-4.6969,0
15081,2.3261e+07,-9.0115,0.11611,-0.022497,-4.9012,0.20348,-0.012834,0.085641,0.43208,-0.00097687,-5.3375,-2.5456,0
15121,2.3272e+07,-9.0251,0.29736,-0.023169,-4.9038,0.11632,-0.011805,0.0858,0.48337,-0.00099535,-5.3375,-0.77887,0
15162,2.3282e+07,-9.0526,0.55791,-0.024404,-4.9031,0.0053319,-0.01132,0.086079,0.48252,-0.0010247,-5.3375,1.5532,0
15204,2.3293e+07,-9.075,0.50047,-0.022491,-4.9086,0.14731,-0.012485,0.086401,0.55011,-0.0010621,-5.3375,-0.35534,0
15250,2.3303e+07,-9.0997,0.54027,-0.022694,-4.9146,0.16381,-0.012347,0.086714,0.47603,-0.0010869,-5.3375,-1.6911,0
15290,2.3313e+07,-9.1249,0.49508,-0.022508,-4.9162,0.038752,-0.011558,0.086985,0.50843,-0.0011099,-5.3375,-3.9684,0
15332,2.3323e+07,-9.1395,0.33108,-0.021483,-4.9198,0.099538,-0.012068,0.087195,0.47595,-0.0011259,-5.3375,-5.5239,0
15375,2.3335e+07,-9.145,0.054383,-0.020044,-4.928,0.15918,-0.012179,0.087383,0.54995,-0.0011373,-5.3375,-6.3348,0
15416,2.3346e+07,-9.1445,-0.0041691,-0.021209,-4.9323,0.11853,-0.012156,0.08747,0.40828,-0.0011534,-5.3375,-7.5303,0
15458,2.3356e+07,-9.1311,-0.23555,-0.019951,-4.9305,-0.049758,-0.010618,0.087318,0.47355,-0.0011388,-5.3375,-6.5422,0
15495,2.3367e+07,-9.1052,-0.5354,-0.018705,-4.9302,0.0015784,-0.011762,0.08705,0.35213,-0.0011256,-5.3375,-4.9479,0
15536,2.3377e+07,-9.0744,-0.69412,-0.018573,-4.9251,-0.13739,-0.010548,0.086656,0.24512,-0.001076,-5.3375,-3.499,0
15578,2.3387e+07,-9.0447,-0.67788,-0.019119,-4.9178,-0.17794,-0.010644,0.086256,0.25884,-0.0010085,-5.3375,-1.7407,0
15618,2.3397e+07,-9.0223,-0.49157,-0.020721,-4.9113,-0.17301,-0.011185,0.08592,0.22008,-0.00094109,-5.3375,0.40731,0
15665,2.3407e+07,-9.0086,-0.27345,-0.021727,-4.9082,-0.075581,-0.011502,0.085741,0.26636,-0.00089217,-5.3375,-0.36545,0
15705,2.3418e+07,-8.9992,-0.20589,-0.021226,-4.8981,-0.2327,-0.010406,0.085461,0.41305,-0.0008897,-5.3375,-3.5995,0
15747,2.3428e+07,-9.0012,0.050462,-0.022445,-4.891,-0.14794,-0.011264,0.085356,0.41853,-0.00089089,-5.3375,-4.5582,0
15789,2.3438e+07,-9.0067,0.15814,-0.022667,-4.8882,-0.06931,-0.011754,0.085385,0.37784,-0.0009128,-5.3375,-4.9594,0
15833,2.3451e+07,-9.0233,0.30283,-0.022743,-4.8932,0.084829,-0.012357,0.085619,0.40972,-0.00090662,-5.3375,-5.3493,0
15874,2.3462e+07,-9.0447,0.49522,-0.023627,-4.8959,0.081072,-0.011874,0.085867,0.42258,-0.00094185,-5.3375,-4.5733,0
15915,2.3472e+07,-9.0664,0.43663,-0.022167,-4.9004,0.067784,-0.01157,0.086158,0.58368,-0.00097836,-5.3375,-4.7235,0
15956,2.3482e+07,-9.084,0.39937,-0.022314,-4.9089,0.16676,-0.0123,0.086461,0.54523,-0.0010543,-5.3375,-4.174,0
15996,2.3492e+07,-9.0935,0.20415,-0.021063,-4.9132,0.094207,-0.011577,0.08662,0.49282,-0.0010896,-5.3375,-2.2496,0
16037,2.3503e+07,-9.0981,0.12975,-0.021054,-4.9151,0.045997,-0.011185,0.086702,0.44105,-0.0010871,-5.3375,-1.6994,0
16082,2.3513e+07,-9.0867,-0.27207,-0.018881,-4.9144,-0.025199,-0.011292,0.0866,0.40146,-0.0010947,-5.3375,-4.7016,0
16123,2.3522e+07,-9.0758,-0.24624,-0.020466,-4.9192,0.082776,-0.012032,0.086559,0.35284,-0.0010615,-5.3375,-5.8132,0
16164,2.3532e+07,-9.0611,-0.28062,-0.020651,-4.9173,-0.061299,-0.010605,0.086392,0.46166,-0.0010786,-5.3375,-6.3005,0
16204,2.3543e+07,-9.0328,-0.59913,-0.018673,-4.917,0.0045104,-0.011756,0.086111,0.32073,-0.0010523,-5.3375,-5.3171,0
16249,2.3558e+07,-8.9954,-0.50347,-0.020022,-4.9203,0.1127,-0.01268,0.085832,0.2847,-0.00097445,-5.3375,-5.8979,0
16290,2.3569e+07,-8.9797,-0.32298,-0.021115,-4.9313,0.25033,-0.013078,0.085875,0.16689,-0.00091112,-5.3375,-5.7143,0
16332,2.3579e+07,-8.9745,-0.10146,-0.021937,-4.9343,0.015968,-0.010806,0.085872,0.11068,-0.00080914,-5.3375,-3.0077,0
16372,2.359e+07,-8.9762,0.066259,-0.022366,-4.9448,0.2036,-0.012569,0.08607,0.30072,-0.00076257,-5.3375,-2.1116,0
16413,2.36e+07,-8.9903,0.35189,-0.023764,-4.9504,0.14708,-0.01184,0.08629,0.17995,-0.00072406,-5.3375,-1.6994,0
16459,2.361e+07,-9.0078,0.44333,-0.023512,-4.9499,-0.036034,-0.010844,0.086458,0.31992,-0.0007143,-5.3375,-1.1199,0
16500,2.362e+07,-9.0347,0.6068,-0.023945,-4.9464,-0.10784,-0.010743,0.086658,0.23783,-0.00069173,-5.3375,-3.1363,0
16542,2.3631e+07,-9.0588,0.52726,-0.022884,-4.9408,-0.13626,-0.010693,0.086789,0.38977,-0.00072824,-5.3375,-4.0424,0
16585,2.3641e+07,-9.0857,0.62794,-0.023439,-4.9331,-0.21639,-0.010561,0.086936,0.50805,-0.0007874,-5.3375,-4.7808,0
16625,2.3656e+07,-9.1115,0.33456,-0.021411,-4.9201,-0.19124,-0.011041,0.086918,0.45124,-0.00085096,-5.3375,-7.3961,0
16666,2.3667e+07,-9.1158,0.12416,-0.020835,-4.9057,-0.32125,-0.010023,0.086718,0.32137,-0.00086555,-5.3375,-7.3838,0
16708,2.3677e+07,-9.1172,0.068908,-0.021241,-4.899,-0.1744,-0.011677,0.086603,0.41912,-0.00087894,-5.3375,-5.065,0
16748,2.3687e+07,-9.1063,-0.21774,-0.019651,-4.8967,-0.027871,-0.012186,0.086476,0.29128,-0.00087604,-5.3375,-3.2952,0
16789,2.3697e+07,-9.0905,-0.31653,-0.02015,-4.8969,0.0016846,-0.011896,0.086356,0.3451,-0.00086392,-5.3375,-0.89092,0
16829,2.3707e+07,-9.0704,-0.43909,-0.019772,-4.9018,0.10262,-0.011955,0.086193,0.11304,-0.00080339,-5.3375,-0.30794,0
16875,2.3717e+07,-9.0474,-0.49123,-0.019788,-4.9103,0.16043,-0.012353,0.086159,0.25754,-0.00074949,-5.3375,-1.1601,0
16915,2.3728e+07,-9.0303,-0.32666,-0.021247,-4.9191,0.18005,-0.012172,0.086142,0.19786,-0.00072486,-5.3375,-1.6413,0
16956,2.3738e+07,-9.0197,-0.23084,-0.021305,-4.9218,0.074543,-0.011427,0.086098,0.20747,-0.00068594,-5.3375,-3.3361,0
16997,2.3747e+07,-9.0198,0.030733,-0.022473,-4.9288,0.16059,-0.012389,0.086201,0.12663,-0.00061369,-5.3375,-4.8749,0
17031,2.3758e+07,-9.0237,0.12274,-0.022536,-4.9296,0.063763,-0.011771,0.086264,0.34713,-0.00061859,-5.3375,-7.955,0
17071,2.3768e+07,-9.0392,0.35319,-0.023561,-4.9358,0.12738,-0.012194,0.086543,0.22771,-0.00060584,-5.3375,-7.6169,0
17112,2.3778e+07,-9.0586,0.42376,-0.022933,-4.9325,-0.029101,-0.010909,0.086659,0.47109,-0.0006652,-5.3375,-5.5768,0
17156,2.3789e+07,-9.0788,0.4533,-0.022769,-4.9281,-0.11005,-0.010979,0.086776,0.50824,-0.00072346,-5.3375,-2.8256,0
17196,2.3799e+07,-9.0982,0.45968,-0.022551,-4.9239,-0.11355,-0.011248,0.086876,0.39421,-0.00079055,-5.3375,-2.9023,0
17237,2.3809e+07,-9.1172,0.41113,-0.022595,-4.9209,-0.064534,-0.011632,0.086988,0.45448,-0.00081242,-5.3375,-1.9421,0
17282,2.3819e+07,-9.1322,0.36072,-0.022183,-4.9221,0.056957,-0.01254,0.087153,0.37914,-0.00084472,-5.3375,-1.1592,0
17323,2.3829e+07,-9.1279,-0.060348,-0.019512,-4.93,0.18169,-0.012784,0.087268,0.42147,-0.00085508,-5.3375,-1.5254,0
17364,2.3839e+07,-9.1172,-0.26573,-0.019435,-4.9322,0.053749,-0.011404,0.087216,0.33783,-0.00086492,-5.3375,-3.4878,0
17406,2.3849e+07,-9.1081,-0.21249,-0.020592,-4.9376,0.10514,-0.011967,0.087203,0.2882,-0.00083036,-5.3375,-6.7677,0
17448,2.3859e+07,-9.0964,-0.22289,-0.020835,-4.9391,0.0091507,-0.011084,0.087131,0.36973,-0.00084603,-5.3375,-6.6091,0
17488,2.3869e+07,-9.0743,-0.41533,-0.019858,-4.9501,0.21094,-0.012789,0.087084,0.35592,-0.00083385,-5.3375,-4.9983,0
17530,2.3879e+07,-9.0481,-0.55016,-0.019533,-4.954,0.040817,-0.011034,0.086919,0.28382,-0.00083576,-5.3375,-5.8051,0
17571,2.3889e+07,-9.033,-0.34168,-0.020849,-4.96,0.1149,-0.01182,0.086894,0.29771,-0.00080358,-5.3375,-5.2155,0
17612,2.39e+07,-9.0226,-0.2259,-0.021071,-4.9581,-0.070713,-0.010438,0.086757,0.34792,-0.00081389,-5.3375,-4.5544,0
17653,2.391e+07,-9.0176,-0.0949,-0.02197,-4.9512,-0.1439,-0.010809,0.086576,0.41535,-0.00082454,-5.3375,-2.3657,0
17697,2.392e+07,-9.0247,0.20503,-0.023455,-4.9398,-0.26709,-0.010593,0.086444,0.36423,-0.00083388,-5.3375,-2.6212,0
17738,2.393e+07,-9.0463,0.50119,-0.024573,-4.9325,-0.16592,-0.011384,0.086515,0.40271,-0.00083273,-5.3375,-3.0083,0
17779,2.394e+07,-9.0655,0.47567,-0.022747,-4.9197,-0.28264,-0.010319,0.086501,0.4201,-0.00086731,-5.3375,-4.2024,0
17827,2.3955e+07,-9.092,0.35565,-0.022299,-4.912,-0.073202,-0.011974,0.086599,0.38825,-0.0008958,-5.3375,-5.6837,0
17867,2.3966e+07,-9.1074,0.33517,-0.02216,-4.9197,0.1565,-0.012928,0.086904,0.3105,-0.00088822,-5.3375,-6.9448,0
17909,2.3976e+07,-9.117,0.17238,-0.021051,-4.9236,0.077198,-0.011852,0.087076,0.30009,-0.00084379,-5.3375,-6.0762,0
17950,2.3986e+07,-9.115,-0.0078424,-0.020353,-4.9321,0.18144,-0.01234,0.087158,0.31975,-0.00084483,-5.3375,-5.3923,0
17991,2.3997e+07,-9.1093,-0.095721,-0.020687,-4.941,0.21773,-0.012633,0.087277,0.34186,-0.00084854,-5.3375,-2.6548,0
18032,2.4007e+07,-9.0972,-0.24211,-0.020089,-4.9426,0.034698,-0.010968,0.087187,0.39059,-0.00085789,-5.3375,-3.0364,0
18076,2.4018e+07,-9.0785,-0.41809,-0.019629,-4.944,0.050788,-0.011899,0.087057,0.52365,-0.00090921,-5.3375,-3.8085,0
18118,2.4028e+07,-9.0504,-0.5629,-0.019176,-4.9378,-0.13517,-0.010529,0.086642,0.40905,-0.00093024,-5.3375,-3.9897,0
18158,2.4038e+07,-9.0276,-0.48736,-0.020064,-4.9281,-0.19058,-0.010618,0.086263,0.53773,-0.00096574,-5.3375,-2.9947,0
18201,2.4048e+07,-9.0094,-0.43669,-0.020272,-4.9196,-0.20811,-0.011029,0.085961,0.54818,-0.0010159,-5.3375,-1.8549,0
18241,2.4058e+07,-8.9954,-0.26883,-0.021218,-4.9106,-0.17434,-0.011154,0.085633,0.53576,-0.0010708,-5.3375,-4.1405,0
18281,2.4069e+07,-8.9904,-0.047352,-0.02253,-4.9076,-0.063355,-0.011924,0.085556,0.41686,-0.0010773,-5.3375,-5.6942,0
18322,2.4079e+07,-8.9914,0.050941,-0.022163,-4.9042,-0.065352,-0.011616,0.085508,0.36092,-0.0010752,-5.3375,-4.7568,0
18363,2.4089e+07,-9.0089,0.39236,-0.024362,-4.9142,0.21907,-0.013396,0.085861,0.46081,-0.0010717,-5.3375,-5.046,0
18404,2.4099e+07,-9.028,0.47352,-0.023454,-4.9186,0.11201,-0.011779,0.086106,0.38741,-0.0010754,-5.3375,-3.91,0
18445,2.4109e+07,-9.0536,0.59654,-0.023932,-4.9344,0.35585,-0.013459,0.086617,0.20041,-0.0010089,-5.3375,-3.0743,0
18492,2.4122e+07,-9.09,0.7481,-0.024213,-4.9429,0.16451,-0.011644,0.08712,0.32882,-0.00098114,-5.3375,-3.4681,0
18533,2.4132e+07,-9.1081,0.42506,-0.021837,-4.9481,0.096754,-0.011487,0.08739,0.24811,-0.0009339,-5.3375,-3.5064,0
18574,2.4142e+07,-9.1164,0.22885,-0.021221,-4.9456,-0.074627,-0.010754,0.08744,0.2249,-0.00086706,-5.3375,-3.6738,0
18615,2.4152e+07,-9.1272,0.18742,-0.021226,-4.9425,-0.064854,-0.011222,0.087484,0.31516,-0.00085711,-5.3375,-4.7236,0
18656,2.4162e+07,-9.1171,-0.25466,-0.018456,-4.9274,-0.30151,-0.010068,0.087136,0.2831,-0.00079657,-5.3375,-5.1737,0
18693,2.4175e+07,-9.0905,-0.5683,-0.018077,-4.9074,-0.33964,-0.010581,0.086498,0.25987,-0.00079293,-5.3375,-4.8093,0
18734,2.4186e+07,-9.0626,-0.62883,-0.018689,-4.9009,-0.094062,-0.01243,0.086119,0.29127,-0.0007713,-5.3375,-6.5137,0
18776,2.4196e+07,-9.0391,-0.5047,-0.020502,-4.9006,0.0085133,-0.012382,0.08589,0.23658,-0.00075647,-5.3375,-5.2865,0
18816,2.4206e+07,-9.012,-0.47998,-0.020379,-4.9077,0.15501,-0.012823,0.085765,0.26898,-0.00072882,-5.3375,-4.3449,0
18858,2.4216e+07,-8.9864,-0.57772,-0.019545,-4.9118,0.090748,-0.01176,0.08558,0.3288,-0.00073705,-5.3375,-3.8782,0
18902,2.4227e+07,-8.9699,-0.3682,-0.021384,-4.9193,0.17498,-0.012316,0.08555,0.31621,-0.00072617,-5.3375,-3.2364,0
18943,2.4237e+07,-8.9627,-0.12697,-0.022066,-4.93,0.23682,-0.012363,0.085695,0.35283,-0.00073752,-5.3375,-1.4788,0
18984,2.4247e+07,-8.9662,0.052388,-0.022087,-4.9366,0.11241,-0.011214,0.085812,0.31204,-0.00074911,-5.3375,-1.9393,0
19026,2.4259e+07,-8.9818,0.33207,-0.023199,-4.9418,0.09077,-0.011849,0.08609,0.4335,-0.00078128,-5.3375,-5.3756,0
19065,2.427e+07,-9.0057,0.58212,-0.024128,-4.9393,-0.062951,-0.010651,0.086253,0.32682,-0.00079436,-5.3375,-5.8227,0
19107,2.428e+07,-9.0307,0.5681,-0.02328,-4.9353,-0.094924,-0.010922,0.086435,0.33444,-0.00081006,-5.3375,-5.0534,0
19149,2.429e+07,-9.0543,0.53127,-0.022927,-4.9194,-0.39175,-0.0091322,0.086392,0.35322,-0.00080521,-5.3375,-4.5188,0
19190,2.43e+07,-9.075,0.51065,-0.022829,-4.9151,-0.13708,-0.011802,0.086498,0.32849,-0.00081435,-5.3375,-3.4094,0
19230,2.431e+07,-9.0953,0.4895,-0.022738,-4.9114,-0.066198,-0.011772,0.086615,0.48191,-0.00083493,-5.3375,-3.2289,0
19271,2.432e+07,-9.0985,0.087789,-0.020244,-4.912,0.015519,-0.012336,0.08665,0.29857,-0.00085623,-5.3375,-3.2959,0
19315,2.4331e+07,-9.0879,-0.21665,-0.018967,-4.9155,0.099596,-0.012362,0.086628,0.30678,-0.00081468,-5.3375,-2.8604,0
19357,2.4341e+07,-9.0698,-0.42734,-0.018773,-4.9247,0.19362,-0.012533,0.086595,0.27912,-0.00081248,-5.3375,-4.4909,0
19397,2.4351e+07,-9.0505,-0.40827,-0.019962,-4.9281,0.090317,-0.011726,0.086496,0.30503,-0.00078942,-5.3375,-5.7521,0
19438,2.4361e+07,-9.0287,-0.49741,-0.0197,-4.9367,0.20929,-0.01265,0.086436,0.17283,-0.00075573,-5.3375,-5.2079,0
19479,2.4374e+07,-8.9956,-0.53603,-0.01985,-4.936,0.046485,-0.01174,0.086104,0.34147,-0.00071236,-5.3375,-6.2548,0
19520,2.4384e+07,-8.9803,-0.35905,-0.020944,-4.939,0.074493,-0.012035,0.086,0.12988,-0.00067003,-5.3375,-4.9393,0
19563,2.4394e+07,-8.9703,-0.21774,-0.02136,-4.9387,0.001168,-0.011334,0.085911,0.32839,-0.00067315,-5.3375,-7.0545,0
19603,2.4404e+07,-8.9658,-0.086572,-0.021601,-4.9324,-0.1373,-0.010836,0.08578,0.096242,-0.00062639,-5.3375,-7.2793,0
19645,2.4414e+07,-8.9724,0.15572,-0.022387,-4.9188,-0.28394,-0.010129,0.085572,0.2686,-0.00062323,-5.3375,-5.5101,0
19690,2.4425e+07,-8.9875,0.33365,-0.023302,-4.9105,-0.16654,-0.011488,0.085569,0.18944,-0.00058694,-5.3375,-4.1976,0
19731,2.4435e+07,-9.0154,0.60987,-0.024299,-4.9063,-0.060396,-0.011928,0.085769,0.27617,-0.0005987,-5.3375,-3.1855,0
19772,2.4445e+07,-9.0395,0.57177,-0.023396,-4.9056,-0.031453,-0.0118,0.086025,0.25047,-0.00057518,-5.3375,-3.2467,0
19815,2.4455e+07,-9.0616,0.59188,-0.023185,-4.9133,0.15395,-0.012875,0.086353,0.43892,-0.00061714,-5.3375,-3.1186,0
19856,2.4465e+07,-9.0801,0.44716,-0.022111,-4.9225,0.21517,-0.012252,0.08669,0.42849,-0.00066945,-5.3375,-2.5096,0
19893,2.4475e+07,-9.0896,0.23039,-0.02116,-4.9317,0.15451,-0.0117,0.08693,0.25893,-0.00069089,-5.3375,-3.3044,0
19934,2.4486e+07,-9.094,0.14963,-0.021632,-4.9372,0.11646,-0.011652,0.087046,0.34368,-0.0006915,-5.3375,-4.9964,0
19975,2.4496e+07,-9.0911,-0.031621,-0.020958,-4.9368,-0.01639,-0.010942,0.087006,0.35578,-0.00070926,-5.3375,-5.3298,0
20015,2.4506e+07,-9.0773,-0.29613,-0.01922,-4.9405,0.065103,-0.011809,0.086959,0.28571,-0.00071575,-5.3375,-6.4536,0
20056,2.4516e+07,-9.0559,-0.48651,-0.018623,-4.939,-0.050299,-0.010853,0.086708,0.35708,-0.00071462,-5.3375,-7.1495,0
20102,2.4527e+07,-9.0305,-0.54649,-0.019259,-4.9381,-0.022267,-0.011435,0.086491,0.25006,-0.00071263,-5.3375,-6.7392,0
20143,2.4537e+07,-9.0174,-0.16511,-0.022732,-4.938,-0.010411,-0.011565,0.086345,0.33065,-0.00070022,-5.3375,-5.5046,0
20183,2.4547e+07,-9.0007,-0.30086,-0.020917,-4.9323,-0.14354,-0.01093,0.086078,0.38319,-0.00072161,-5.3375,-3.6158,0
20224,2.4557e+07,-8.9879,-0.27437,-0.020966,-4.9307,-0.019296,-0.011859,0.085938,0.31042,-0.00072487,-5.3375,-2.627,0
20265,2.4567e+07,-8.9836,-0.083164,-0.021868,-4.9321,0.052617,-0.012248,0.085922,0.33752,-0.00074472,-5.3375,-2.3784,0
20304,2.4578e+07,-8.9872,0.075585,-0.021983,-4.9321,0.01483,-0.011647,0.085966,0.46312,-0.00076467,-5.3375,-2.4587,0
20344,2.4588e+07,-9.0005,0.30225,-0.023033,-4.9374,0.15091,-0.012945,0.086163,0.34954,-0.00078174,-5.3375,-3.196,0
20385,2.4598e+07,-9.009,0.217,-0.022008,-4.9412,0.10137,-0.011964,0.086326,0.51269,-0.00081219,-5.3375,-4.3167,0
20425,2.4608e+07,-9.0234,0.34381,-0.022762,-4.9399,-0.01205,-0.01121,0.086439,0.44163,-0.00086645,-5.3375,-6.0018,0
20467,2.4618e+07,-9.0437,0.43042,-0.02296,-4.9365,-0.10006,-0.010705,0.086581,0.60973,-0.00093911,-5.3375,-5.8007,0
20514,2.4628e+07,-9.058,0.32271,-0.021703,-4.9303,-0.16937,-0.010429,0.086616,0.43971,-0.00096899,-5.3375,-4.6553,0
20556,2.4639e+07,-9.0701,0.25149,-0.021607,-4.9241,-0.17663,-0.010993,0.086573,0.48478,-0.0010014,-5.3375,-4.3011,0
20597,2.4648e+07,-9.075,0.13781,-0.021152,-4.9207,-0.089268,-0.011331,0.086617,0.40695,-0.00099533,-5.3375,-3.3802,0
20637,2.4659e+07,-9.0714,-0.08664,-0.020185,-4.9112,-0.20769,-0.010637,0.086391,0.48934,-0.0010352,-5.3375,-1.6051,0
20678,2.4669e+07,-9.0604,-0.23378,-0.019748,-4.9034,-0.17087,-0.011439,0.086135,0.32065,-0.0010136,-5.3375,-4.3794,0
20718,2.4679e+07,-9.0448,-0.34015,-0.019576,-4.8989,-0.12492,-0.011275,0.085896,0.13366,-0.0009326,-5.3375,-5.1711,0
20759,2.4689e+07,-9.0328,-0.25471,-0.020618,-4.8969,-0.06209,-0.011581,0.085758,0.24635,-0.00084854,-5.3375,-4.1025,0
20800,2.4699e+07,-9.0166,-0.36394,-0.020123,-4.9,0.03266,-0.01212,0.085677,-0.010781,-0.00075583,-5.3375,-3.3026,0
20841,2.471e+07,-9.0091,-0.16333,-0.021468,-4.9033,0.048546,-0.011597,0.085635,0.026532,-0.00064241,-5.3375,-3.7658,0
20882,2.4719e+07,-9.0018,-0.14859,-0.021185,-4.9078,0.097138,-0.011964,0.085652,0.034038,-0.00053266,-5.3375,-4.2463,0
20926,2.473e+07,-9.0026,0.035501,-0.022089,-4.9039,-0.099239,-0.010447,0.085618,0.24645,-0.00051896,-5.3375,-4.1684,0
20969,2.474e+07,-9.0007,-0.0075003,-0.02146,-4.9024,-0.0025378,-0.011814,0.085568,0.090297,-0.00046186,-5.3375,-4.9909,0
21009,2.475e+07,-9.0059,0.14866,-0.022422,-4.9035,0.01246,-0.01183,0.085641,0.306,-0.00046217,-5.3375,-3.6842,0
21050,2.476e+07,-9.0164,0.23153,-0.022496,-4.9051,0.03925,-0.011744,0.085737,0.39127,-0.00050165,-5.3375,-4.5506,0
21092,2.477e+07,-9.0237,0.16958,-0.021536,-4.9038,-0.0085841,-0.011569,0.085809,0.33251,-0.00055073,-5.3375,-5.3048,0
21133,2.4781e+07,-9.0329,0.21786,-0.022134,-4.9112,0.18804,-0.012913,0.086046,0.37009,-0.00057221,-5.3375,-5.2841,0
21175,2.4791e+07,-9.0335,-0.021137,-0.020293,-4.9126,0.039021,-0.011396,0.086051,0.43445,-0.00063661,-5.3375,-4.8242,0
21215,2.4802e+07,-9.0436,0.20548,-0.022224,-4.9109,-0.041529,-0.011134,0.086115,0.46513,-0.00069376,-5.3375,-4.9162,0
21256,2.4812e+07,-9.0426,-0.011548,-0.020496,-4.9143,0.12751,-0.012791,0.086195,0.50127,-0.00076316,-5.3375,-5.6764,0
21297,2.4823e+07,-9.0344,-0.15963,-0.020142,-4.919,0.11985,-0.012257,0.086182,0.24191,-0.00077414,-5.3375,-6.5073,0
21344,2.4833e+07,-9.022,-0.29917,-0.019612,-4.9223,0.092558,-0.011879,0.086111,0.35522,-0.00076792,-5.3375,-5.6081,0
21386,2.4843e+07,-9.0074,-0.34725,-0.019399,-4.9218,-0.024276,-0.010826,0.085951,0.10326,-0.00071624,-5.3375,-4.6526,0
21427,2.4853e+07,-8.9943,-0.29116,-0.020554,-4.9199,-0.04102,-0.011123,0.085817,0.29724,-0.00071145,-5.3375,-3.9217,0
21469,2.4863e+07,-8.9899,-0.091066,-0.021836,-4.9182,-0.051753,-0.011493,0.08573,0.23115,-0.00067733,-5.3375,-1.3236,0
21509,2.4873e+07,-8.9841,-0.083347,-0.021366,-4.9119,-0.16937,-0.01047,0.085593,0.079365,-0.00061375,-5.3375,-2.2087,0
21550,2.4885e+07,-8.9822,-0.01398,-0.021748,-4.9097,-0.057903,-0.011826,0.08551,0.18284,-0.00056135,-5.3375,-3.4204,0
21590,2.4895e+07,-8.9843,0.051465,-0.021685,-4.9075,-0.05615,-0.011236,0.085499,0.17572,-0.00053266,-5.3375,-5.064,0
21631,2.4906e+07,-8.9863,0.075602,-0.021568,-4.9039,-0.09426,-0.010819,0.08546,0.25099,-0.00054691,-5.3375,-4.14,0
21671,2.4915e+07,-8.9921,0.16846,-0.02223,-4.8981,-0.15727,-0.01113,0.085401,0.329,-0.00054607,-5.3375,-5.1663,0
21713,2.4925e+07,-8.9993,0.21559,-0.022577,-4.8947,-0.07592,-0.011443,0.085452,0.44619,-0.00061944,-5.3375,-5.4345,0
21760,2.4936e+07,-9.0098,0.27311,-0.022753,-4.8914,-0.11476,-0.011108,0.085447,0.43416,-0.00066202,-5.3375,-4.8916,0
21800,2.4946e+07,-9.0146,0.13559,-0.021131,-4.8898,-0.035731,-0.011239,0.085478,0.55297,-0.00076511,-5.3375,-5.345,0
21841,2.4956e+07,-9.0193,0.088762,-0.021091,-4.8951,0.085536,-0.012317,0.085617,0.49821,-0.00082685,-5.3375,-4.5541,0
21882,2.4966e+07,-9.0194,0.011026,-0.020992,-4.8972,0.046427,-0.011421,0.085622,0.47733,-0.00088357,-5.3375,-5.0314,0
21926,2.4979e+07,-9.0211,0.10667,-0.022002,-4.8982,-0.0086085,-0.01123,0.085696,0.40124,-0.00091177,-5.3375,-5.543,0
21966,2.4989e+07,-9.0188,0.0031601,-0.021214,-4.8918,-0.15889,-0.010552,0.085587,0.20159,-0.00088172,-5.3375,-5.9803,0
22007,2.4999e+07,-9.0162,-0.049702,-0.020884,-4.891,-0.053295,-0.011407,0.085514,0.27517,-0.00084073,-5.3375,-6.4987,0
22047,2.5009e+07,-9.0076,-0.1561,-0.020437,-4.8874,-0.097755,-0.011076,0.085353,0.11216,-0.00076863,-5.3375,-6.11,0
22089,2.5019e+07,-9.0038,-0.10463,-0.020945,-4.8887,0.01933,-0.011867,0.08537,0.2768,-0.00073661,-5.3375,-5.3061,0
22130,2.5029e+07,-8.9912,-0.2865,-0.019486,-4.8852,-0.10745,-0.010949,0.085189,0.24535,-0.00070159,-5.3375,-5.8809,0
22175,2.504e+07,-8.9798,-0.27079,-0.020263,-4.8874,0.035981,-0.011736,0.085101,0.20504,-0.00068617,-5.3375,-7.8673,0
22218,2.505e+07,-8.9788,-0.014609,-0.021989,-4.8933,0.097034,-0.012167,0.085231,0.21969,-0.00065041,-5.3375,-8.8735,0
22258,2.506e+07,-8.9763,-0.05189,-0.021111,-4.8931,-0.02971,-0.010804,0.085172,0.30362,-0.00063466,-5.3375,-6.8417,0
22299,2.5071e+07,-8.9868,0.22496,-0.022946,-4.9013,0.19686,-0.012922,0.085385,0.42208,-0.00064047,-5.3375,-4.6749,0
22340,2.5082e+07,-8.9914,0.14439,-0.021946,-4.9083,0.14089,-0.011939,0.08558,0.26964,-0.00065433,-5.3375,-3.2889,0
22381,2.5093e+07,-9.0015,0.22872,-0.022239,-4.9123,0.092122,-0.011598,0.08574,0.45715,-0.0006892,-5.3375,-3.3028,0
22422,2.5103e+07,-9.0134,0.23182,-0.022114,-4.9131,0.0020494,-0.011109,0.085845,0.33787,-0.00071834,-5.3375,-2.4646,0
22462,2.5113e+07,-9.0262,0.27856,-0.021802,-4.9105,-0.081345,-0.01076,0.085955,0.40749,-0.0007401,-5.3375,-3.8238,0
22504,2.5123e+07,-9.0382,0.23586,-0.021401,-4.9055,-0.095464,-0.010874,0.085975,0.37534,-0.00077227,-5.3375,-6.2399,0
22544,2.5134e+07,-9.0466,0.21266,-0.02198,-4.9046,-0.052862,-0.011579,0.086034,0.41585,-0.00079364,-5.3375,-4.7785,0
22590,2.5144e+07,-9.0483,0.083737,-0.021284,-4.9029,-0.026167,-0.011819,0.08604,0.26563,-0.00079256,-5.3375,-4.9169,0
22630,2.5154e+07,-9.0454,-0.022009,-0.021071,-4.9044,0.0032141,-0.011383,0.086009,0.34824,-0.00078254,-5.3375,-5.567,0
22672,2.5165e+07,-9.0365,-0.16332,-0.020366,-4.9062,0.0098042,-0.011416,0.085979,0.22543,-0.00077074,-5.3375,-5.9819,0
