LineNo,TimeUS,IMU,VibeX,VibeY,VibeZ,Clip
320,1.9493e+07,0,0.01864,0.017894,0.036711,0
664,1.9559e+07,0,0.020007,0.018037,0.035433,0
891,1.9604e+07,0,0.019628,0.017704,0.032472,0
1233,1.9765e+07,0,0.019836,0.018976,0.03099,0
1509,1.9836e+07,0,0.021666,0.019594,0.03174,0
1604,1.9858e+07,0,0.021267,0.020637,0.031784,0
1644,1.9868e+07,0,0.02121,0.020407,0.031876,0
1686,1.9878e+07,0,0.020792,0.020009,0.031845,0
1727,1.9888e+07,0,0.021468,0.022631,0.030851,0
1767,1.9901e+07,0,0.021812,0.022334,0.03003,0
1808,1.9912e+07,0,0.021045,0.022037,0.029047,0
1848,1.9922e+07,0,0.021421,0.021539,0.030021,0
1890,1.9932e+07,0,0.021406,0.021109,0.029368,0
1930,1.9942e+07,0,0.021143,0.020587,0.029843,0
1971,1.9952e+07,0,0.021484,0.020407,0.030301,0
2016,1.9962e+07,0,0.021637,0.021891,0.032232,0
2059,1.9972e+07,0,0.021413,0.022557,0.031729,0
2100,1.9983e+07,0,0.02182,0.024001,0.031103,0
2140,1.9993e+07,0,0.021245,0.024014,0.030659,0
2181,2.0004e+07,0,0.020751,0.023793,0.029767,0
2222,2.0014e+07,0,0.019938,0.023723,0.029005,0
2263,2.0024e+07,0,0.02022,0.022992,0.028721,0
2304,2.0034e+07,0,0.020962,0.022577,0.028761,0
2344,2.0044e+07,0,0.022245,0.023464,0.029911,0
2387,2.0054e+07,0,0.022068,0.022669,0.029958,0
2431,2.0064e+07,0,0.022018,0.022307,0.029419,0
2472,2.0075e+07,0,0.021657,0.021677,0.029174,0
2515,2.0085e+07,0,0.022594,0.021013,0.028089,0
2555,2.0095e+07,0,0.021779,0.020444,0.028715,0
2595,2.0105e+07,0,0.020667,0.019664,0.031972,0
2633,2.0115e+07,0,0.020618,0.019835,0.030644,0
2674,2.0125e+07,0,0.02063,0.022132,0.029484,0
2715,2.0135e+07,0,0.020906,0.02225,0.02998,0
2756,2.0146e+07,0,0.021306,0.022235,0.029234,0
2797,2.0155e+07,0,0.022526,0.021512,0.02887,0
2841,2.0165e+07,0,0.021472,0.021858,0.029657,0
2883,2.0175e+07,0,0.021391,0.021871,0.029147,0
2924,2.0186e+07,0,0.020551,0.02178,0.028097,0
2965,2.0196e+07,0,0.020094,0.021739,0.027594,0
3006,2.0205e+07,0,0.019761,0.021462,0.028716,0
3044,2.0216e+07,0,0.019567,0.020781,0.028336,0
3085,2.0226e+07,0,0.019226,0.021777,0.028201,0
3125,2.0235e+07,0,0.019031,0.020983,0.027436,0
3166,2.0246e+07,0,0.021,0.020337,0.027351,0
3209,2.0256e+07,0,0.020701,0.020486,0.028029,0
3254,2.0265e+07,0,0.02003,0.019974,0.027636,0
3295,2.0276e+07,0,0.019671,0.021213,0.028617,0
3336,2.0286e+07,0,0.018934,0.020318,0.027725,0
3377,2.0296e+07,0,0.01909,0.021976,0.027251,0
3419,2.0306e+07,0,0.019297,0.021416,0.027214,0
3459,2.0316e+07,0,0.018909,0.020935,0.026553,0
3499,2.0326e+07,0,0.018732,0.020226,0.027366,0
3540,2.0337e+07,0,0.018006,0.02019,0.027082,0
3580,2.0347e+07,0,0.018208,0.021582,0.026761,0
3622,2.0357e+07,0,0.019039,0.020504,0.025962,0
3670,2.0368e+07,0,0.018461,0.019977,0.027772,0
3710,2.0378e+07,0,0.018948,0.019819,0.027788,0
3753,2.0388e+07,0,0.018632,0.019424,0.028438,0
3795,2.0398e+07,0,0.017965,0.01983,0.028483,0
3832,2.0408e+07,0,0.018849,0.019003,0.027669,0
3870,2.0419e+07,0,0.021713,0.017985,0.027336,0
3910,2.0429e+07,0,0.021466,0.018402,0.026106,0
3951,2.0439e+07,0,0.022689,0.017937,0.025582,0
3992,2.0449e+07,0,0.02225,0.018063,0.028815,0
4034,2.046e+07,0,0.02307,0.017462,0.029558,0
4080,2.047e+07,0,0.022883,0.017647,0.029565,0
4120,2.048e+07,0,0.022862,0.017946,0.029386,0
4162,2.049e+07,0,0.022873,0.017417,0.028912,0
4203,2.05e+07,0,0.021976,0.017195,0.028324,0
4240,2.051e+07,0,0.021178,0.017658,0.027812,0
4282,2.0521e+07,0,0.022468,0.017596,0.02729,0
4322,2.0531e+07,0,0.023018,0.017662,0.027295,0
4363,2.0541e+07,0,0.022007,0.017923,0.028142,0
4403,2.0551e+07,0,0.024772,0.01809,0.028175,0
4444,2.0561e+07,0,0.023507,0.017545,0.027556,0
4491,2.0572e+07,0,0.02245,0.016952,0.026446,0
4531,2.0582e+07,0,0.023411,0.016542,0.025606,0
4573,2.0592e+07,0,0.022697,0.016445,0.02621,0
4616,2.0604e+07,0,0.022454,0.018862,0.027051,0
4660,2.0616e+07,0,0.022497,0.019411,0.029093,0
4701,2.0627e+07,0,0.021778,0.01879,0.028901,0
4741,2.0637e+07,0,0.02195,0.019143,0.028439,0
4784,2.0647e+07,0,0.02126,0.018815,0.027492,0
4825,2.0657e+07,0,0.020972,0.019882,0.028225,0
4866,2.0668e+07,0,0.020274,0.020068,0.029134,0
4911,2.0678e+07,0,0.019756,0.019183,0.028137,0
4952,2.0688e+07,0,0.019405,0.018337,0.02783,0
4993,2.0698e+07,0,0.020111,0.020909,0.027546,0
5034,2.0708e+07,0,0.019222,0.021714,0.026782,0
5075,2.0721e+07,0,0.018994,0.021276,0.028051,0
5115,2.0731e+07,0,0.019013,0.021146,0.028192,0
5157,2.0741e+07,0,0.018415,0.021046,0.027343,0
5198,2.0751e+07,0,0.018241,0.019978,0.028066,0
5238,2.0761e+07,0,0.017806,0.020313,0.028604,0
5283,2.0771e+07,0,0.01772,0.01981,0.028111,0
5324,2.0781e+07,0,0.017603,0.019667,0.028945,0
5368,2.0792e+07,0,0.019927,0.020242,0.02903,0
5411,2.0801e+07,0,0.019994,0.019371,0.02968,0
5451,2.0811e+07,0,0.019908,0.018878,0.029902,0
5489,2.0824e+07,0,0.020315,0.01833,0.029529,0
5530,2.0834e+07,0,0.019819,0.018809,0.028597,0
5574,2.0845e+07,0,0.019856,0.018685,0.028965,0
5615,2.0854e+07,0,0.019753,0.018532,0.029559,0
5655,2.0865e+07,0,0.01917,0.018083,0.029127,0
5700,2.0875e+07,0,0.018964,0.01812,0.028954,0
5740,2.0885e+07,0,0.0208,0.018741,0.028075,0
5783,2.0895e+07,0,0.020577,0.019057,0.028019,0
5823,2.0906e+07,0,0.020949,0.018883,0.029658,0
5861,2.0915e+07,0,0.021816,0.019472,0.028789,0
5900,2.0926e+07,0,0.021637,0.019133,0.031016,0
5940,2.0936e+07,0,0.021359,0.018643,0.030358,0
5982,2.0946e+07,0,0.020641,0.018249,0.031991,0
6023,2.0956e+07,0,0.019837,0.018899,0.031406,0
6063,2.0966e+07,0,0.019844,0.02169,0.031946,0
6108,2.0976e+07,0,0.019169,0.023304,0.032613,0
6148,2.0986e+07,0,0.019499,0.022987,0.031529,0
6190,2.0996e+07,0,0.019284,0.022901,0.031268,0
6231,2.1006e+07,0,0.019467,0.022307,0.030631,0
6271,2.1016e+07,0,0.02163,0.021634,0.029425,0
6309,2.1026e+07,0,0.021533,0.021748,0.028654,0
6350,2.1036e+07,0,0.021351,0.021414,0.029746,0
6394,2.1046e+07,0,0.022285,0.022376,0.030272,0
6434,2.1056e+07,0,0.021732,0.022836,0.029164,0
6478,2.1069e+07,0,0.023144,0.024575,0.028772,0
6522,2.1079e+07,0,0.023943,0.024319,0.027583,0
6563,2.1089e+07,0,0.024388,0.023578,0.029209,0
6605,2.1099e+07,0,0.024859,0.023581,0.029072,0
6645,2.1111e+07,0,0.023722,0.025797,0.028486,0
6683,2.1122e+07,0,0.02298,0.024881,0.029658,0
6723,2.1132e+07,0,0.023011,0.023748,0.031644,0
6766,2.1142e+07,0,0.024264,0.023201,0.031263,0
6806,2.1152e+07,0,0.0247,0.023422,0.033505,0
6847,2.1162e+07,0,0.02497,0.025112,0.037021,0
6888,2.1172e+07,0,0.025932,0.025076,0.037793,0
6933,2.1182e+07,0,0.02542,0.02402,0.040257,0
6974,2.1192e+07,0,0.026564,0.024825,0.03911,0
7014,2.1203e+07,0,0.026212,0.025415,0.038128,0
7055,2.1215e+07,0,0.031267,0.024785,0.037852,0
7095,2.1226e+07,0,0.034276,0.031331,0.039033,0
7136,2.1236e+07,0,0.033081,0.034973,0.040661,0
7179,2.1246e+07,0,0.031944,0.037036,0.039117,0
7221,2.1256e+07,0,0.031866,0.039668,0.039751,0
7262,2.1266e+07,0,0.031832,0.041477,0.039978,0
7306,2.1276e+07,0,0.034107,0.039842,0.038316,0
7348,2.1286e+07,0,0.034019,0.038775,0.037953,0
7391,2.1296e+07,0,0.037068,0.037233,0.037639,0
7431,2.1307e+07,0,0.035641,0.036827,0.036041,0
7475,2.1321e+07,0,0.034568,0.036558,0.035166,0
7516,2.1332e+07,0,0.03311,0.03627,0.034646,0
7557,2.1342e+07,0,0.031567,0.036047,0.033155,0
7599,2.1352e+07,0,0.031581,0.038205,0.033214,0
7639,2.1362e+07,0,0.031109,0.03769,0.033468,0
7680,2.1372e+07,0,0.029939,0.037077,0.034075,0
7726,2.1382e+07,0,0.030327,0.035901,0.036885,0
7767,2.1392e+07,0,0.029328,0.034427,0.036084,0
7809,2.1402e+07,0,0.028986,0.032858,0.035668,0
7852,2.1414e+07,0,0.030789,0.032762,0.03782,0
7893,2.1426e+07,0,0.029155,0.032856,0.036592,0
7933,2.1437e+07,0,0.030708,0.0327,0.037787,0
7974,2.1447e+07,0,0.030536,0.03379,0.036824,0
8019,2.1457e+07,0,0.030654,0.032416,0.03839,0
8059,2.1468e+07,0,0.031872,0.031067,0.038857,0
8104,2.1478e+07,0,0.032421,0.02982,0.03909,0
8144,2.1488e+07,0,0.030941,0.030148,0.039527,0
8186,2.1498e+07,0,0.030211,0.029083,0.039491,0
8227,2.1508e+07,0,0.029166,0.027973,0.041309,0
8267,2.1518e+07,0,0.028667,0.027289,0.040607,0
8302,2.1528e+07,0,0.02705,0.026347,0.040481,0
8343,2.1539e+07,0,0.026121,0.025784,0.03901,0
8383,2.1549e+07,0,0.025405,0.030548,0.038928,0
8424,2.1559e+07,0,0.025715,0.030505,0.038111,0
8465,2.1569e+07,0,0.024535,0.029723,0.040044,0
8515,2.1582e+07,0,0.024108,0.028266,0.039615,0
8556,2.1592e+07,0,0.023896,0.027638,0.038447,0
8597,2.1602e+07,0,0.023806,0.02664,0.038535,0
8638,2.1612e+07,0,0.02525,0.025627,0.040975,0
8675,2.1622e+07,0,0.025426,0.025819,0.039315,0
8716,2.1634e+07,0,0.024805,0.027443,0.038748,0
8758,2.1645e+07,0,0.025075,0.02744,0.039261,0
8799,2.1655e+07,0,0.027533,0.027614,0.039127,0
8841,2.1665e+07,0,0.026445,0.027117,0.038914,0
8882,2.1675e+07,0,0.025805,0.027112,0.038665,0
8927,2.1685e+07,0,0.024984,0.026071,0.037555,0
8967,2.1695e+07,0,0.028031,0.025662,0.037691,0
9008,2.1705e+07,0,0.027006,0.025004,0.036691,0
9048,2.1715e+07,0,0.026859,0.024498,0.03599,0
9089,2.1725e+07,0,0.025695,0.023806,0.037261,0
9127,2.1735e+07,0,0.024615,0.024292,0.037179,0
9167,2.1746e+07,0,0.023324,0.023141,0.035948,0
9208,2.1756e+07,0,0.022258,0.023766,0.035137,0
9248,2.1766e+07,0,0.022056,0.023787,0.033735,0
9289,2.1776e+07,0,0.021872,0.023163,0.03452,0
9333,2.1786e+07,0,0.023223,0.022276,0.033598,0
9377,2.1796e+07,0,0.023779,0.021713,0.03314,0
9418,2.1806e+07,0,0.023897,0.020647,0.032706,0
9458,2.1815e+07,0,0.023306,0.020823,0.032022,0
9497,2.1825e+07,0,0.023627,0.020451,0.032637,0
9542,2.1876e+07,0,0.020755,0.020297,0.034643,0
9587,2.1886e+07,0,0.020607,0.020827,0.033404,0
9628,2.1896e+07,0,0.020234,0.020883,0.031911,0
9669,2.1906e+07,0,0.021996,0.020953,0.030412,0
9709,2.1916e+07,0,0.021355,0.020432,0.029647,0
9743,2.1926e+07,0,0.021141,0.020828,0.029037,0
9784,2.1936e+07,0,0.020777,0.021486,0.028023,0
9825,2.1946e+07,0,0.020553,0.021624,0.027778,0
9866,2.1956e+07,0,0.021855,0.023311,0.02869,0
9907,2.1966e+07,0,0.022162,0.022927,0.028615,0
9948,2.1976e+07,0,0.021508,0.022697,0.029432,0
9993,2.1986e+07,0,0.020788,0.021728,0.029374,0
10034,2.1996e+07,0,0.020499,0.020869,0.028418,0
10075,2.2006e+07,0,0.020901,0.020288,0.027993,0
10115,2.2016e+07,0,0.021215,0.021912,0.028785,0
10153,2.2026e+07,0,0.021118,0.022498,0.029098,0
10193,2.2036e+07,0,0.020857,0.022415,0.029056,0
10236,2.2046e+07,0,0.02111,0.02253,0.028318,0
10276,2.2056e+07,0,0.021559,0.021681,0.030572,0
10318,2.2066e+07,0,0.022462,0.021551,0.030745,0
10358,2.2076e+07,0,0.022837,0.021265,0.029915,0
10404,2.2086e+07,0,0.022204,0.021248,0.029557,0
10444,2.2096e+07,0,0.021576,0.02225,0.031001,0
10486,2.2106e+07,0,0.021938,0.022427,0.032889,0
10527,2.2116e+07,0,0.022764,0.021811,0.032112,0
10564,2.2126e+07,0,0.022551,0.021303,0.030371,0
10605,2.2136e+07,0,0.021602,0.020432,0.02988,0
10645,2.2147e+07,0,0.020612,0.019683,0.029913,0
10687,2.2158e+07,0,0.019711,0.018524,0.029639,0
10727,2.2168e+07,0,0.019411,0.018357,0.02928,0
10769,2.2178e+07,0,0.018749,0.017894,0.029081,0
10814,2.2188e+07,0,0.018825,0.017941,0.030125,0
10854,2.2198e+07,0,0.02008,0.017634,0.029648,0
10895,2.2209e+07,0,0.020383,0.017243,0.031048,0
10941,2.2224e+07,0,0.021282,0.017343,0.030884,0
10983,2.2234e+07,0,0.021028,0.01737,0.030198,0
11023,2.2245e+07,0,0.020237,0.017654,0.030514,0
11066,2.2255e+07,0,0.019506,0.018797,0.031914,0
11106,2.2265e+07,0,0.01947,0.018211,0.031247,0
11148,2.2275e+07,0,0.019689,0.018294,0.030924,0
11194,2.2286e+07,0,0.019482,0.018863,0.030643,0
11236,2.2295e+07,0,0.019402,0.018095,0.031723,0
11277,2.2306e+07,0,0.019111,0.018208,0.031376,0
11317,2.2316e+07,0,0.018604,0.017988,0.030062,0
11359,2.2326e+07,0,0.018422,0.018891,0.029414,0
11396,2.2336e+07,0,0.017897,0.019738,0.030337,0
11437,2.2346e+07,0,0.018742,0.019461,0.030399,0
11478,2.2357e+07,0,0.018442,0.021325,0.031856,0
11518,2.2367e+07,0,0.018257,0.021372,0.030538,0
11560,2.2377e+07,0,0.019457,0.020968,0.030887,0
11605,2.2387e+07,0,0.019282,0.021854,0.030462,0
11648,2.2398e+07,0,0.019403,0.022746,0.029905,0
11689,2.2407e+07,0,0.019335,0.023975,0.029182,0
11729,2.2418e+07,0,0.020502,0.025901,0.030038,0
11770,2.2427e+07,0,0.019936,0.025861,0.031054,0
11807,2.2439e+07,0,0.019377,0.026226,0.029611,0
11849,2.2449e+07,0,0.019985,0.025444,0.030091,0
11891,2.2459e+07,0,0.020835,0.025264,0.030253,0
11932,2.2469e+07,0,0.020552,0.02425,0.032486,0
11974,2.2479e+07,0,0.019742,0.023445,0.030856,0
12019,2.2489e+07,0,0.019827,0.024023,0.03081,0
12060,2.2499e+07,0,0.019402,0.023221,0.031337,0
12100,2.251e+07,0,0.019142,0.024025,0.03065,0
12144,2.2523e+07,0,0.02,0.023632,0.030204,0
12186,2.2534e+07,0,0.020761,0.023492,0.030315,0
12226,2.2544e+07,0,0.019856,0.022942,0.030151,0
12264,2.2554e+07,0,0.019327,0.022251,0.030278,0
12304,2.2564e+07,0,0.019053,0.021603,0.029651,0
12345,2.2575e+07,0,0.018779,0.022102,0.029324,0
12387,2.2585e+07,0,0.01952,0.021268,0.029399,0
12434,2.2595e+07,0,0.019771,0.021383,0.029437,0
12474,2.2605e+07,0,0.019329,0.021839,0.030061,0
12515,2.2615e+07,0,0.019023,0.021906,0.030057,0
12556,2.2625e+07,0,0.019086,0.021922,0.029727,0
12593,2.2635e+07,0,0.018435,0.021002,0.028374,0
12633,2.2646e+07,0,0.017847,0.02019,0.029807,0
12674,2.2656e+07,0,0.019983,0.020063,0.028738,0
12715,2.2666e+07,0,0.020265,0.0203,0.030123,0
12755,2.2676e+07,0,0.019904,0.021337,0.029099,0
12798,2.2685e+07,0,0.019154,0.020598,0.029174,0
12843,2.2695e+07,0,0.019307,0.019676,0.02883,0
12883,2.2706e+07,0,0.018696,0.019883,0.030148,0
12924,2.2716e+07,0,0.019125,0.019073,0.029397,0
12964,2.2726e+07,0,0.019018,0.019117,0.029049,0
13002,2.2738e+07,0,0.018012,0.019011,0.028732,0
13042,2.2749e+07,0,0.018105,0.020407,0.028213,0
13084,2.2759e+07,0,0.017933,0.020698,0.028838,0
13125,2.2769e+07,0,0.017212,0.020124,0.029497,0
13165,2.2779e+07,0,0.018051,0.020079,0.028663,0
13208,2.2789e+07,0,0.017749,0.019176,0.029159,0
13253,2.28e+07,0,0.017628,0.019454,0.028338,0
13294,2.281e+07,0,0.017104,0.019585,0.029034,0
13335,2.282e+07,0,0.017248,0.019397,0.029594,0
13375,2.283e+07,0,0.016648,0.018705,0.031915,0
13416,2.2841e+07,0,0.017704,0.018652,0.033689,0
13456,2.2851e+07,0,0.017293,0.018551,0.032185,0
13498,2.2861e+07,0,0.017008,0.018422,0.031234,0
13539,2.2871e+07,0,0.017307,0.019009,0.032061,0
13579,2.2881e+07,0,0.017375,0.018317,0.031562,0
13621,2.2892e+07,0,0.016951,0.019153,0.033078,0
13665,2.2901e+07,0,0.018206,0.018638,0.03234,0
13707,2.2912e+07,0,0.018329,0.018732,0.033109,0
13747,2.2921e+07,0,0.018302,0.02098,0.032585,0
13788,2.2931e+07,0,0.018747,0.020345,0.032458,0
13826,2.2943e+07,0,0.019549,0.019943,0.031353,0
13866,2.2953e+07,0,0.020001,0.021552,0.03265,0
13907,2.2963e+07,0,0.021048,0.021347,0.035022,0
13949,2.2973e+07,0,0.021497,0.021027,0.036233,0
13990,2.2983e+07,0,0.02056,0.020941,0.035855,0
14031,2.2993e+07,0,0.019776,0.021838,0.034527,0
14075,2.3003e+07,0,0.020988,0.021864,0.03723,0
14117,2.3013e+07,0,0.020493,0.021298,0.037099,0
14157,2.3023e+07,0,0.022211,0.021605,0.035595,0
14202,2.3036e+07,0,0.022259,0.021451,0.034414,0
14244,2.3046e+07,0,0.022194,0.022282,0.033179,0
14282,2.3056e+07,0,0.022409,0.021243,0.032116,0
14324,2.3066e+07,0,0.024284,0.027309,0.030883,0
14364,2.3076e+07,0,0.02536,0.030557,0.030477,0
14405,2.3087e+07,0,0.025512,0.030444,0.030996,0
14445,2.3097e+07,0,0.025284,0.03469,0.03032,0
14491,2.3107e+07,0,0.027777,0.033109,0.031225,0
14532,2.3117e+07,0,0.029532,0.031427,0.031466,0
14573,2.3128e+07,0,0.029159,0.029904,0.031248,0
14614,2.3137e+07,0,0.028099,0.031957,0.032541,0
14654,2.315e+07,0,0.028183,0.031894,0.034512,0
14695,2.3161e+07,0,0.027013,0.034289,0.037084,0
14735,2.3171e+07,0,0.026038,0.033996,0.035371,0
14776,2.3181e+07,0,0.027477,0.033298,0.034708,0
14817,2.3191e+07,0,0.02725,0.033091,0.033736,0
14862,2.3201e+07,0,0.026902,0.033523,0.033923,0
14904,2.3211e+07,0,0.025987,0.032672,0.035529,0
14944,2.3221e+07,0,0.024738,0.032969,0.034485,0
14985,2.3231e+07,0,0.025087,0.034908,0.033397,0
15025,2.3241e+07,0,0.025071,0.034836,0.03188,0
15066,2.3252e+07,0,0.025428,0.034049,0.031867,0
15104,2.3262e+07,0,0.024954,0.033236,0.031891,0
15144,2.3273e+07,0,0.026048,0.031759,0.033893,0
15187,2.3283e+07,0,0.024842,0.031007,0.041383,0
15227,2.3294e+07,0,0.024637,0.031402,0.041655,0
15273,2.3304e+07,0,0.024794,0.032435,0.042783,0
15313,2.3314e+07,0,0.023747,0.032704,0.044342,0
15355,2.3324e+07,0,0.02504,0.036565,0.042525,0
15398,2.3336e+07,0,0.025137,0.035018,0.041642,0
15439,2.3347e+07,0,0.025635,0.033389,0.040572,0
15481,2.3357e+07,0,0.024847,0.031831,0.039104,0
15518,2.3368e+07,0,0.024204,0.031445,0.03793,0
15559,2.3378e+07,0,0.023635,0.030041,0.037924,0
15601,2.3388e+07,0,0.023049,0.033558,0.037476,0
15641,2.3398e+07,0,0.024032,0.034306,0.039609,0
15688,2.3408e+07,0,0.024902,0.033231,0.038653,0
15728,2.3419e+07,0,0.024227,0.031934,0.037385,0
15770,2.3429e+07,0,0.024536,0.031865,0.036014,0
15812,2.3439e+07,0,0.026022,0.030138,0.034953,0
15856,2.3452e+07,0,0.024886,0.028537,0.033616,0
15897,2.3463e+07,0,0.025214,0.027858,0.032385,0
15938,2.3473e+07,0,0.024136,0.027409,0.032101,0
15979,2.3483e+07,0,0.023467,0.029386,0.032182,0
16019,2.3493e+07,0,0.023831,0.029951,0.033241,0
16060,2.3503e+07,0,0.023164,0.030877,0.033632,0
16105,2.3513e+07,0,0.022827,0.030131,0.03423,0
16146,2.3523e+07,0,0.025619,0.028489,0.03353,0
16187,2.3533e+07,0,0.02509,0.027052,0.032463,0
16227,2.3544e+07,0,0.024083,0.02695,0.032118,0
16272,2.3559e+07,0,0.024279,0.028242,0.032158,0
16313,2.357e+07,0,0.023782,0.028168,0.032558,0
16355,2.358e+07,0,0.022793,0.028382,0.033733,0
16395,2.359e+07,0,0.022477,0.029876,0.03582,0
16436,2.36e+07,0,0.022003,0.02972,0.037051,0
16482,2.3611e+07,0,0.021454,0.029641,0.036028,0
16523,2.3621e+07,0,0.021226,0.031918,0.034609,0
16565,2.3631e+07,0,0.023629,0.031676,0.033015,0
16608,2.3641e+07,0,0.023333,0.031549,0.034281,0
16648,2.3657e+07,0,0.023384,0.030393,0.033935,0
16689,2.3667e+07,0,0.023744,0.031575,0.034352,0
16731,2.3678e+07,0,0.023841,0.031824,0.033644,0
16771,2.3688e+07,0,0.022916,0.0305,0.036782,0
16812,2.3698e+07,0,0.02574,0.030424,0.037562,0
16852,2.3708e+07,0,0.024569,0.029124,0.035629,0
16898,2.3718e+07,0,0.028661,0.028068,0.035686,0
16938,2.3728e+07,0,0.027429,0.029718,0.036857,0
16979,2.3738e+07,0,0.026177,0.029714,0.036976,0
17020,2.3748e+07,0,0.025545,0.0313,0.039912,0
17054,2.3759e+07,0,0.024392,0.031463,0.042883,0
17094,2.3769e+07,0,0.026595,0.030713,0.041844,0
17137,2.3779e+07,0,0.028335,0.033046,0.042354,0
17179,2.3789e+07,0,0.027944,0.031723,0.040369,0
17219,2.38e+07,0,0.027094,0.030653,0.040506,0
17260,2.381e+07,0,0.026849,0.030441,0.040675,0
17305,2.382e+07,0,0.026101,0.031811,0.039449,0
17346,2.3829e+07,0,0.025074,0.031654,0.039323,0
17387,2.384e+07,0,0.024839,0.030624,0.038938,0
17429,2.385e+07,0,0.024133,0.030302,0.042179,0
17471,2.3859e+07,0,0.023436,0.029918,0.040242,0
17511,2.387e+07,0,0.022918,0.029215,0.040165,0
17553,2.388e+07,0,0.024512,0.029335,0.040482,0
17594,2.389e+07,0,0.024459,0.030891,0.039682,0
17635,2.39e+07,0,0.025822,0.030505,0.039719,0
17676,2.391e+07,0,0.025849,0.031547,0.038581,0
17720,2.392e+07,0,0.025407,0.030782,0.038042,0
17761,2.3931e+07,0,0.025462,0.03011,0.038443,0
17802,2.3941e+07,0,0.025194,0.032727,0.036611,0
17850,2.3956e+07,0,0.025836,0.032536,0.035967,0
17890,2.3967e+07,0,0.026024,0.033499,0.03433,0
17932,2.3977e+07,0,0.026044,0.032013,0.03264,0
17973,2.3987e+07,0,0.027244,0.030587,0.032576,0
18014,2.3998e+07,0,0.026991,0.030852,0.033474,0
18055,2.4008e+07,0,0.030064,0.029657,0.035511,0
18099,2.4019e+07,0,0.029065,0.028449,0.034924,0
18141,2.4029e+07,0,0.027908,0.027982,0.034234,0
18181,2.4039e+07,0,0.029337,0.027919,0.033611,0
18224,2.4049e+07,0,0.027972,0.027627,0.033315,0
18264,2.4059e+07,0,0.026538,0.028764,0.035082,0
18304,2.4069e+07,0,0.026224,0.028392,0.033988,0
18345,2.408e+07,0,0.025569,0.026982,0.035049,0
18386,2.409e+07,0,0.025051,0.027837,0.035593,0
18427,2.41e+07,0,0.02612,0.026927,0.034463,0
18468,2.411e+07,0,0.027751,0.027315,0.033627,0
18515,2.4122e+07,0,0.028599,0.027557,0.031895,0
18556,2.4133e+07,0,0.02783,0.029891,0.031083,0
18597,2.4143e+07,0,0.027958,0.029362,0.032031,0
18638,2.4153e+07,0,0.028461,0.028731,0.03212,0
18679,2.4163e+07,0,0.028158,0.02806,0.034303,0
18716,2.4176e+07,0,0.026902,0.030946,0.036766,0
18757,2.4186e+07,0,0.027231,0.029897,0.037913,0
18799,2.4197e+07,0,0.026948,0.028737,0.037071,0
18839,2.4207e+07,0,0.025595,0.027658,0.036968,0
18881,2.4217e+07,0,0.024536,0.030174,0.035938,0
18925,2.4228e+07,0,0.025035,0.032968,0.035661,0
18966,2.4238e+07,0,0.024692,0.031533,0.035139,0
19007,2.4248e+07,0,0.025047,0.031194,0.033925,0
19049,2.426e+07,0,0.026935,0.029868,0.035802,0
19090,2.4271e+07,0,0.028366,0.030837,0.034387,0
19130,2.4281e+07,0,0.028239,0.033962,0.033461,0
19172,2.4291e+07,0,0.028364,0.033754,0.032311,0
19213,2.4301e+07,0,0.026971,0.034289,0.031332,0
19253,2.4311e+07,0,0.025586,0.035959,0.031517,0
19294,2.4321e+07,0,0.02571,0.036213,0.032394,0
19338,2.4331e+07,0,0.024901,0.034281,0.031275,0
19380,2.4341e+07,0,0.02647,0.032552,0.031188,0
19420,2.4351e+07,0,0.025685,0.031227,0.033696,0
19461,2.4362e+07,0,0.025536,0.034074,0.034649,0
19502,2.4374e+07,0,0.024816,0.033585,0.033984,0
19543,2.4384e+07,0,0.025082,0.034105,0.035557,0
19586,2.4395e+07,0,0.024782,0.033712,0.034155,0
19626,2.4404e+07,0,0.024792,0.033547,0.033398,0
19668,2.4415e+07,0,0.024859,0.032471,0.033132,0
19713,2.4426e+07,0,0.025559,0.031574,0.032179,0
19754,2.4436e+07,0,0.024681,0.030988,0.03157,0
19795,2.4445e+07,0,0.024039,0.031177,0.030859,0
19838,2.4456e+07,0,0.024845,0.031335,0.032811,0
19879,2.4466e+07,0,0.025264,0.032909,0.03211,0
19916,2.4476e+07,0,0.026223,0.032422,0.031475,0
19957,2.4486e+07,0,0.02584,0.031298,0.032128,0
19998,2.4497e+07,0,0.027289,0.030959,0.034538,0
20038,2.4507e+07,0,0.027568,0.030201,0.035648,0
20079,2.4517e+07,0,0.029219,0.029291,0.03685,0
20125,2.4528e+07,0,0.029454,0.031247,0.039039,0
20166,2.4538e+07,0,0.028258,0.033046,0.037944,0
20206,2.4548e+07,0,0.028974,0.03235,0.038147,0
20247,2.4558e+07,0,0.029318,0.033979,0.036433,0
20288,2.4568e+07,0,0.028744,0.035103,0.03533,0
20327,2.4579e+07,0,0.03085,0.033237,0.034345,0
20367,2.4589e+07,0,0.0323,0.032431,0.032776,0
20408,2.4598e+07,0,0.030519,0.032136,0.032568,0
20448,2.4609e+07,0,0.030867,0.031504,0.032553,0
20490,2.4619e+07,0,0.030358,0.030592,0.031676,0
20537,2.4629e+07,0,0.031732,0.029555,0.030447,0
20579,2.4639e+07,0,0.031197,0.030016,0.0303,0
20620,2.4649e+07,0,0.029782,0.02919,0.033831,0
20660,2.4659e+07,0,0.029014,0.02904,0.034018,0
20701,2.467e+07,0,0.028318,0.029216,0.034457,0
20741,2.468e+07,0,0.029217,0.029034,0.032982,0
20782,2.469e+07,0,0.029877,0.02818,0.032406,0
20823,2.47e+07,0,0.029392,0.028404,0.032017,0
20864,2.471e+07,0,0.030868,0.027791,0.033618,0
20905,2.472e+07,0,0.031584,0.027529,0.033701,0
20949,2.4731e+07,0,0.030856,0.026138,0.03377,0
20992,2.474e+07,0,0.029723,0.025184,0.033652,0
21032,2.4751e+07,0,0.02833,0.02456,0.033022,0
21075,2.4761e+07,0,0.027649,0.023988,0.032726,0
21115,2.4771e+07,0,0.02639,0.024311,0.031292,0
21156,2.4782e+07,0,0.026499,0.023577,0.030167,0
21198,2.4792e+07,0,0.026589,0.023808,0.029943,0
21238,2.4802e+07,0,0.025449,0.024795,0.028998,0
21279,2.4813e+07,0,0.026084,0.024873,0.029136,0
21320,2.4823e+07,0,0.026525,0.02575,0.028761,0
21367,2.4834e+07,0,0.0255,0.025444,0.02965,0
21409,2.4844e+07,0,0.024909,0.02693,0.030082,0
21450,2.4853e+07,0,0.025339,0.026908,0.035751,0
21492,2.4864e+07,0,0.024884,0.025991,0.035864,0
21532,2.4874e+07,0,0.024677,0.027214,0.034394,0
21573,2.4885e+07,0,0.024764,0.027415,0.034516,0
21613,2.4896e+07,0,0.024736,0.028803,0.037639,0
21654,2.4906e+07,0,0.023627,0.028482,0.036377,0
21694,2.4916e+07,0,0.022613,0.027845,0.035834,0
21736,2.4926e+07,0,0.022337,0.030013,0.034746,0
21783,2.4936e+07,0,0.022916,0.031606,0.035551,0
21823,2.4946e+07,0,0.026932,0.030805,0.033935,0
21864,2.4956e+07,0,0.026044,0.029919,0.034141,0
21905,2.4966e+07,0,0.026884,0.02929,0.035605,0
21949,2.4979e+07,0,0.026075,0.028294,0.03677,0
21989,2.4989e+07,0,0.026801,0.027647,0.037387,0
22030,2.5e+07,0,0.026995,0.026833,0.036546,0
22070,2.501e+07,0,0.026677,0.026031,0.035372,0
22112,2.502e+07,0,0.027989,0.028809,0.034265,0
22153,2.503e+07,0,0.027925,0.02966,0.034578,0
22198,2.504e+07,0,0.029829,0.028731,0.033832,0
22241,2.505e+07,0,0.029822,0.028118,0.035377,0
22281,2.5061e+07,0,0.02853,0.027428,0.035042,0
22322,2.5072e+07,0,0.028108,0.02751,0.035416,0
22363,2.5083e+07,0,0.027459,0.026902,0.036915,0
22404,2.5093e+07,0,0.029538,0.025872,0.035657,0
22445,2.5103e+07,0,0.028266,0.025718,0.035661,0
22485,2.5114e+07,0,0.028259,0.025238,0.035244,0
22527,2.5124e+07,0,0.028444,0.02416,0.038064,0
22567,2.5134e+07,0,0.028181,0.025934,0.038078,0
22613,2.5145e+07,0,0.027813,0.028498,0.037797,0
22653,2.5155e+07,0,0.027052,0.027981,0.037097,0
22695,2.5165e+07,0,0.02641,0.028714,0.036868,0
22736,2.5175e+07,0,0.025343,0.027578,0.035966,0
22773,2.5186e+07,0,0.025081,0.026458,0.035958,0
22813,2.5196e+07,0,0.02532,0.025416,0.03702,0
22853,2.5206e+07,0,0.02535,0.026365,0.037085,0
22895,2.5216e+07,0,0.024975,0.025506,0.036875,0
22935,2.5226e+07,0,0.024003,0.024732,0.034826,0
22976,2.5236e+07,0,0.023619,0.024043,0.033833,0
23021,2.5247e+07,0,0.026851,0.02558,0.03265,0
23066,2.5257e+07,0,0.026225,0.027187,0.032738,0
23107,2.5267e+07,0,0.026446,0.02686,0.031363,0
23148,2.5278e+07,0,0.026671,0.026868,0.035643,0
23189,2.5289e+07,0,0.026454,0.026273,0.036979,0
23229,2.5299e+07,0,0.025723,0.02706,0.036236,0
23270,2.531e+07,0,0.02481,0.027475,0.035783,0
23313,2.532e+07,0,0.024073,0.028992,0.036382,0
23354,2.533e+07,0,0.024221,0.032242,0.035539,0
23395,2.534e+07,0,0.023716,0.032026,0.038023,0
23439,2.535e+07,0,0.024371,0.032152,0.036998,0
23481,2.536e+07,0,0.024181,0.032908,0.036387,0
23521,2.537e+07,0,0.024154,0.032793,0.039226,0
23563,2.538e+07,0,0.023686,0.031556,0.038276,0
23606,2.539e+07,0,0.023615,0.033661,0.038143,0
23647,2.54e+07,0,0.02267,0.032131,0.0369,0
23688,2.5411e+07,0,0.022494,0.030484,0.035872,0
23729,2.5422e+07,0,0.025075,0.02939,0.035308,0
23771,2.5431e+07,0,0.024596,0.028791,0.034306,0
23813,2.5441e+07,0,0.024025,0.02846,0.03377,0
23858,2.5451e+07,0,0.02441,0.03103,0.032571,0
23900,2.5461e+07,0,0.024952,0.031937,0.032555,0
23940,2.5472e+07,0,0.025677,0.030981,0.031774,0
23982,2.5481e+07,0,0.026065,0.033069,0.030856,0
24022,2.5491e+07,0,0.025082,0.032435,0.034421,0
24063,2.5501e+07,0,0.025772,0.031988,0.034784,0
24103,2.5511e+07,0,0.026403,0.030841,0.033391,0
24144,2.5522e+07,0,0.025505,0.031125,0.032694,0
24185,2.5532e+07,0,0.024995,0.032361,0.035112,0
24226,2.5542e+07,0,0.025339,0.032697,0.036099,0
24271,2.5552e+07,0,0.024922,0.031753,0.034969,0
24311,2.5562e+07,0,0.024607,0.031711,0.036026,0
24353,2.5572e+07,0,0.02406,0.031995,0.034832,0
24394,2.5582e+07,0,0.023254,0.031317,0.037458,0
24435,2.5592e+07,0,0.024444,0.030807,0.035914,0
24472,2.5602e+07,0,0.026175,0.02938,0.037045,0
24513,2.5613e+07,0,0.025421,0.029809,0.036339,0
24555,2.5623e+07,0,0.024667,0.030721,0.035663,0
24595,2.5633e+07,0,0.025119,0.029682,0.036326,0
24638,2.5644e+07,0,0.024808,0.030073,0.036168,0
24689,2.5654e+07,0,0.024639,0.029994,0.035759,0
24730,2.5665e+07,0,0.023945,0.02905,0.036329,0
24771,2.5675e+07,0,0.023615,0.028079,0.035345,0
24812,2.5685e+07,0,0.023629,0.027762,0.03546,0
24853,2.5698e+07,0,0.023951,0.026684,0.034405,0
24894,2.5708e+07,0,0.024038,0.026657,0.033298,0
24935,2.5718e+07,0,0.023578,0.030399,0.033697,0
24975,2.5729e+07,0,0.023002,0.029332,0.033502,0
25016,2.5739e+07,0,0.023492,0.028533,0.034258,0
25058,2.575e+07,0,0.024484,0.027964,0.034101,0
25103,2.576e+07,0,0.02373,0.027769,0.035099,0
25144,2.577e+07,0,0.022657,0.029942,0.035676,0
25185,2.578e+07,0,0.022482,0.030044,0.036462,0
25227,2.5791e+07,0,0.022858,0.029921,0.038372,0
25267,2.5801e+07,0,0.024483,0.030688,0.039809,0
25308,2.5811e+07,0,0.026323,0.029964,0.038788,0
25348,2.5821e+07,0,0.02577,0.028833,0.038293,0
25388,2.5832e+07,0,0.025407,0.028048,0.03753,0
25428,2.5842e+07,0,0.026159,0.031207,0.037341,0
25471,2.5852e+07,0,0.026222,0.032895,0.03654,0
25516,2.5862e+07,0,0.025982,0.032429,0.038343,0
25556,2.5872e+07,0,0.025156,0.032068,0.038646,0
25598,2.5882e+07,0,0.026562,0.031103,0.037317,0
25639,2.5892e+07,0,0.028751,0.029955,0.036773,0
25680,2.5902e+07,0,0.028512,0.028931,0.040051,0
25718,2.5912e+07,0,0.030186,0.029082,0.038945,0
25758,2.5923e+07,0,0.030604,0.030712,0.037286,0
25799,2.5933e+07,0,0.031284,0.029901,0.036173,0
25839,2.5943e+07,0,0.029908,0.029939,0.03796,0
25881,2.5954e+07,0,0.028835,0.030449,0.037623,0
25926,2.5964e+07,0,0.02826,0.03035,0.036685,0
25966,2.5974e+07,0,0.027565,0.032404,0.038936,0
26009,2.5984e+07,0,0.026559,0.033357,0.037713,0
26047,2.5994e+07,0,0.025823,0.035632,0.037806,0
26089,2.6004e+07,0,0.025795,0.035154,0.036342,0
26130,2.6013e+07,0,0.025767,0.033481,0.038858,0
26170,2.6026e+07,0,0.028732,0.033995,0.038744,0
26213,2.6037e+07,0,0.029748,0.036212,0.041104,0
26253,2.6047e+07,0,0.028583,0.036939,0.041321,0
26295,2.6057e+07,0,0.027889,0.035323,0.042402,0
26340,2.6068e+07,0,0.026826,0.03368,0.045146,0
26380,2.6078e+07,0,0.026932,0.032577,0.042712,0
26421,2.6089e+07,0,0.028213,0.032154,0.041082,0
26463,2.6099e+07,0,0.028714,0.030782,0.03891,0
26501,2.6112e+07,0,0.028214,0.038989,0.039198,0
26542,2.6121e+07,0,0.029196,0.037467,0.037604,0
26582,2.6131e+07,0,0.028463,0.037067,0.036435,0
26624,2.6142e+07,0,0.02865,0.035589,0.036888,0
26664,2.6152e+07,0,0.030067,0.035487,0.035646,0
26709,2.6162e+07,0,0.031026,0.034601,0.034249,0
26749,2.6172e+07,0,0.03067,0.032959,0.033068,0
26791,2.6182e+07,0,0.030611,0.032612,0.032471,0
26832,2.6192e+07,0,0.03019,0.033226,0.032436,0
26872,2.6205e+07,0,0.028273,0.036656,0.031029,0
26913,2.6215e+07,0,0.028264,0.03604,0.030911,0
26953,2.6225e+07,0,0.028934,0.035962,0.030453,0
26995,2.6235e+07,0,0.029802,0.035596,0.02985,0
27040,2.6245e+07,0,0.029043,0.034191,0.030466,0
27081,2.6255e+07,0,0.028427,0.03343,0.03087,0
27126,2.6265e+07,0,0.027336,0.033305,0.029664,0
27166,2.6275e+07,0,0.028103,0.032639,0.02924,0
27207,2.6285e+07,0,0.027806,0.040794,0.030562,0
27247,2.6295e+07,0,0.027115,0.040099,0.029638,0
27289,2.6305e+07,0,0.026044,0.03856,0.03045,0
27323,2.6315e+07,0,0.026286,0.038715,0.029128,0
27364,2.6325e+07,0,0.027275,0.040667,0.028068,0
27406,2.6336e+07,0,0.027486,0.038597,0.027996,0
27447,2.6346e+07,0,0.02897,0.040993,0.031593,0
27488,2.6356e+07,0,0.034214,0.040426,0.032206,0
27533,2.6366e+07,0,0.03395,0.038386,0.031822,0
27573,2.6376e+07,0,0.033335,0.037266,0.031289,0
27614,2.6385e+07,0,0.032523,0.036796,0.033272,0
27654,2.6396e+07,0,0.031159,0.039939,0.03468,0
27692,2.6406e+07,0,0.03013,0.042979,0.034345,0
27737,2.6419e+07,0,0.029738,0.042603,0.03622,0
27781,2.6431e+07,0,0.028192,0.041796,0.037206,0
27825,2.6442e+07,0,0.027026,0.039852,0.035735,0
27866,2.6452e+07,0,0.025831,0.039319,0.035977,0
27907,2.6462e+07,0,0.026789,0.037819,0.034817,0
27952,2.6472e+07,0,0.026662,0.037088,0.03451,0
27993,2.6482e+07,0,0.026651,0.036447,0.034075,0
28034,2.6492e+07,0,0.025499,0.035623,0.032672,0
28074,2.6502e+07,0,0.026491,0.034073,0.031195,0
28109,2.6512e+07,0,0.02887,0.032115,0.034267,0
28150,2.6522e+07,0,0.0308,0.031318,0.034742,0
28191,2.6532e+07,0,0.030677,0.031897,0.035781,0
28232,2.6543e+07,0,0.029438,0.034039,0.035155,0
28273,2.6553e+07,0,0.028085,0.033886,0.037003,0
28314,2.6563e+07,0,0.027304,0.032887,0.038732,0
28359,2.6573e+07,0,0.027259,0.032077,0.037658,0
28400,2.6583e+07,0,0.026079,0.031951,0.039985,0
28441,2.6593e+07,0,0.025363,0.031532,0.039324,0
28481,2.6606e+07,0,0.024494,0.031656,0.041033,0
28522,2.6617e+07,0,0.025459,0.030175,0.040003,0
28563,2.6627e+07,0,0.024519,0.029003,0.039588,0
28604,2.6637e+07,0,0.023835,0.032062,0.042997,0
28647,2.6647e+07,0,0.023025,0.033111,0.044137,0
28688,2.6657e+07,0,0.023595,0.037037,0.042786,0
28738,2.667e+07,0,0.026596,0.035855,0.040086,0
28779,2.668e+07,0,0.028436,0.035829,0.03876,0
28820,2.669e+07,0,0.028568,0.037259,0.039954,0
28860,2.67e+07,0,0.02803,0.038945,0.040721,0
28901,2.671e+07,0,0.028886,0.038392,0.039789,0
28938,2.6721e+07,0,0.029373,0.037623,0.038688,0
28979,2.6731e+07,0,0.029235,0.035953,0.037709,0
29022,2.6742e+07,0,0.028816,0.035673,0.038058,0
29063,2.6752e+07,0,0.028135,0.034095,0.037886,0
29105,2.6762e+07,0,0.026627,0.037523,0.036898,0
29149,2.6772e+07,0,0.027503,0.03636,0.035847,0
29190,2.6782e+07,0,0.027222,0.034276,0.037367,0
29231,2.6792e+07,0,0.02616,0.03342,0.035798,0
29272,2.6802e+07,0,0.025266,0.033038,0.034722,0
29312,2.6812e+07,0,0.024375,0.031297,0.035754,0
29353,2.6822e+07,0,0.024989,0.029978,0.035479,0
29394,2.6832e+07,0,0.025283,0.028734,0.038758,0
29435,2.6842e+07,0,0.024969,0.027964,0.040263,0
29478,2.6852e+07,0,0.025527,0.029607,0.039104,0
29520,2.6862e+07,0,0.026773,0.030343,0.038445,0
29564,2.6873e+07,0,0.028229,0.029691,0.039031,0
29606,2.6883e+07,0,0.03018,0.030915,0.038765,0
29646,2.6893e+07,0,0.029401,0.030449,0.038682,0
29688,2.6904e+07,0,0.028423,0.031739,0.037699,0
29728,2.6914e+07,0,0.027782,0.03166,0.037927,0
29769,2.6924e+07,0,0.028122,0.032316,0.038087,0
29806,2.6934e+07,0,0.029211,0.031105,0.037057,0
29848,2.6944e+07,0,0.028742,0.03171,0.03511,0
29889,2.6954e+07,0,0.0285,0.033975,0.03437,0
29929,2.6965e+07,0,0.027132,0.032575,0.03433,0
29974,2.6975e+07,0,0.026733,0.031846,0.034776,0
30015,2.6985e+07,0,0.029351,0.03114,0.034687,0
30056,2.6995e+07,0,0.028863,0.031052,0.03337,0
30097,2.7005e+07,0,0.028602,0.032127,0.033264,0
30135,2.7015e+07,0,0.029211,0.0321,0.03299,0
30174,2.7026e+07,0,0.028125,0.031278,0.035775,0
30214,2.7036e+07,0,0.028149,0.033507,0.038207,0
30256,2.7046e+07,0,0.028199,0.036496,0.03766,0
30298,2.7056e+07,0,0.02689,0.034739,0.037085,0
30339,2.7066e+07,0,0.032642,0.033834,0.038155,0
30384,2.7076e+07,0,0.032081,0.03438,0.038077,0
30424,2.7086e+07,0,0.033679,0.033426,0.036005,0
30467,2.7097e+07,0,0.032764,0.031979,0.035745,0
30507,2.7106e+07,0,0.031456,0.03169,0.037425,0
30542,2.7116e+07,0,0.031619,0.030646,0.03858,0
30583,2.7126e+07,0,0.031356,0.029907,0.038538,0
30624,2.7136e+07,0,0.030428,0.032627,0.036814,0
30665,2.7147e+07,0,0.02905,0.032368,0.035792,0
30705,2.7157e+07,0,0.028601,0.030699,0.036253,0
30746,2.7168e+07,0,0.028923,0.030916,0.035634,0
30790,2.7178e+07,0,0.027937,0.029652,0.035448,0
30831,2.7188e+07,0,0.028014,0.029282,0.035799,0
30874,2.7198e+07,0,0.028116,0.028605,0.035317,0
30917,2.7211e+07,0,0.027709,0.029639,0.033493,0
30958,2.7222e+07,0,0.026716,0.027977,0.033081,0
30995,2.7232e+07,0,0.025325,0.026731,0.031898,0
31040,2.7242e+07,0,0.024198,0.027105,0.032334,0
31081,2.7252e+07,0,0.023265,0.02624,0.032326,0
31122,2.7262e+07,0,0.023348,0.025889,0.035129,0
31162,2.7271e+07,0,0.02268,0.025419,0.03603,0
31207,2.7281e+07,0,0.021719,0.024338,0.037077,0
31248,2.7292e+07,0,0.021261,0.024259,0.036618,0
31288,2.7302e+07,0,0.021405,0.023861,0.038709,0
31330,2.7312e+07,0,0.021,0.024896,0.037404,0
31370,2.7322e+07,0,0.02065,0.024692,0.038007,0
31405,2.7332e+07,0,0.020935,0.026432,0.037809,0
31447,2.7342e+07,0,0.020305,0.026381,0.038608,0
31487,2.7353e+07,0,0.020628,0.026429,0.038927,0
31528,2.7363e+07,0,0.021203,0.027313,0.0374,0
31568,2.7373e+07,0,0.020551,0.027593,0.035878,0
31613,2.7383e+07,0,0.02129,0.026205,0.036267,0
31654,2.7393e+07,0,0.020565,0.025071,0.037045,0
31695,2.7404e+07,0,0.020787,0.024257,0.037898,0
31737,2.7414e+07,0,0.025239,0.024985,0.036719,0
31779,2.7427e+07,0,0.025591,0.024862,0.037427,0
31825,2.744e+07,0,0.027171,0.024464,0.035818,0
31866,2.745e+07,0,0.026673,0.02376,0.038939,0
31907,2.7461e+07,0,0.02732,0.02332,0.039075,0
31947,2.747e+07,0,0.025922,0.02305,0.038158,0
31992,2.7481e+07,0,0.025381,0.022276,0.037199,0
32033,2.749e+07,0,0.025906,0.022139,0.035783,0
32073,2.7501e+07,0,0.0252,0.02198,0.036878,0
32114,2.7511e+07,0,0.025099,0.021418,0.03648,0
32155,2.7521e+07,0,0.025427,0.021225,0.0367,0
32190,2.7531e+07,0,0.027203,0.020696,0.035793,0
32230,2.7541e+07,0,0.027944,0.020838,0.035186,0
32271,2.7552e+07,0,0.027254,0.020354,0.034298,0
32313,2.7562e+07,0,0.027197,0.020703,0.033223,0
32353,2.7572e+07,0,0.02736,0.021238,0.033691,0
32398,2.7582e+07,0,0.025966,0.021976,0.033573,0
32438,2.7592e+07,0,0.02584,0.021509,0.034041,0
32480,2.7602e+07,0,0.026992,0.021124,0.033964,0
32520,2.7612e+07,0,0.026257,0.021831,0.033104,0
32562,2.7622e+07,0,0.025492,0.021343,0.032801,0
32597,2.7632e+07,0,0.024922,0.02124,0.035254,0
32639,2.7642e+07,0,0.024354,0.021239,0.034153,0
32681,2.7653e+07,0,0.024903,0.021664,0.036828,0
32722,2.7662e+07,0,0.023768,0.021514,0.036006,0
32762,2.7673e+07,0,0.024702,0.020987,0.034233,0
32812,2.7685e+07,0,0.024638,0.021065,0.032849,0
32853,2.7696e+07,0,0.024214,0.020926,0.032564,0
32894,2.7706e+07,0,0.023572,0.021391,0.031481,0
32934,2.7716e+07,0,0.022781,0.022603,0.031009,0
32975,2.7728e+07,0,0.022923,0.023245,0.032254,0
33018,2.7739e+07,0,0.025555,0.02249,0.035018,0
33059,2.7749e+07,0,0.024917,0.023195,0.033873,0
33100,2.7759e+07,0,0.025302,0.023116,0.033158,0
33141,2.7769e+07,0,0.025272,0.02511,0.033063,0
33182,2.7779e+07,0,0.025315,0.02689,0.033802,0
33226,2.779e+07,0,0.024859,0.026092,0.032369,0
33267,2.78e+07,0,0.023558,0.025235,0.032404,0
33309,2.781e+07,0,0.022531,0.024732,0.031697,0
33349,2.782e+07,0,0.022235,0.025334,0.032331,0
33391,2.7832e+07,0,0.021408,0.024362,0.030718,0
33432,2.7843e+07,0,0.020418,0.024581,0.030124,0
33475,2.7853e+07,0,0.019383,0.02421,0.029855,0
33517,2.7863e+07,0,0.019614,0.027472,0.029461,0
33557,2.7873e+07,0,0.019127,0.026496,0.028287,0
33598,2.7883e+07,0,0.01894,0.026209,0.028106,0
33642,2.7893e+07,0,0.01895,0.02662,0.030092,0
33684,2.7903e+07,0,0.019342,0.026997,0.03003,0
33724,2.7914e+07,0,0.018862,0.0261,0.030451,0
33765,2.7924e+07,0,0.018829,0.025454,0.029917,0
33806,2.7936e+07,0,0.019814,0.024466,0.029567,0
33846,2.7947e+07,0,0.020124,0.023205,0.031332,0
33888,2.7957e+07,0,0.019943,0.024469,0.032315,0
33929,2.7967e+07,0,0.019951,0.025923,0.031309,0
33970,2.7978e+07,0,0.020729,0.025225,0.031718,0
34018,2.799e+07,0,0.021041,0.024186,0.032628,0
34058,2.8001e+07,0,0.020658,0.023362,0.032566,0
34100,2.8011e+07,0,0.020581,0.023417,0.0319,0
34140,2.8021e+07,0,0.020248,0.022353,0.031449,0
34175,2.8031e+07,0,0.020923,0.022589,0.032218,0
34216,2.8042e+07,0,0.021598,0.023,0.032553,0
34259,2.8053e+07,0,0.020911,0.022524,0.032132,0
34301,2.8063e+07,0,0.021452,0.022747,0.031439,0
34342,2.8073e+07,0,0.020948,0.022521,0.031836,0
34383,2.8083e+07,0,0.021106,0.023523,0.031415,0
34428,2.8093e+07,0,0.020512,0.023239,0.030493,0
34469,2.8103e+07,0,0.020706,0.022662,0.034097,0
34510,2.8114e+07,0,0.020326,0.022836,0.033101,0
34551,2.8124e+07,0,0.021545,0.022898,0.033686,0
34591,2.8134e+07,0,0.021474,0.02297,0.033314,0
34629,2.8145e+07,0,0.021133,0.021787,0.032548,0
34669,2.8155e+07,0,0.021713,0.022251,0.032156,0
34710,2.8165e+07,0,0.022503,0.021878,0.031937,0
34752,2.8176e+07,0,0.02214,0.023134,0.031457,0
34793,2.8186e+07,0,0.022162,0.023793,0.031949,0
34837,2.8195e+07,0,0.021269,0.02341,0.032674,0
34878,2.8205e+07,0,0.021115,0.022157,0.032698,0
34919,2.8215e+07,0,0.020759,0.022,0.03417,0
34960,2.8225e+07,0,0.020389,0.024648,0.034882,0
35005,2.8239e+07,0,0.020606,0.024204,0.035407,0
35048,2.8251e+07,0,0.020391,0.022902,0.034605,0
35089,2.8262e+07,0,0.020991,0.022166,0.034212,0
35130,2.8272e+07,0,0.020591,0.023385,0.032749,0
35172,2.8282e+07,0,0.019932,0.024823,0.032567,0
35213,2.8292e+07,0,0.020292,0.02409,0.03258,0
35257,2.8302e+07,0,0.020028,0.024267,0.031365,0
35298,2.8312e+07,0,0.019743,0.023477,0.032054,0
35338,2.8322e+07,0,0.020381,0.023246,0.031871,0
35380,2.8332e+07,0,0.020732,0.023279,0.031061,0
35415,2.8343e+07,0,0.020324,0.023052,0.031178,0
35455,2.8353e+07,0,0.019443,0.022078,0.031689,0
35496,2.8363e+07,0,0.018988,0.021394,0.032879,0
35536,2.8374e+07,0,0.018439,0.021856,0.032831,0
35577,2.8383e+07,0,0.020048,0.022235,0.031608,0
35619,2.8393e+07,0,0.020913,0.021506,0.031255,0
35664,2.8404e+07,0,0.020574,0.02077,0.029903,0
35704,2.8414e+07,0,0.021709,0.020748,0.029144,0
35746,2.8424e+07,0,0.02151,0.021789,0.030111,0
35792,2.8436e+07,0,0.021923,0.021146,0.030324,0
35831,2.8448e+07,0,0.021734,0.023048,0.030309,0
35872,2.8458e+07,0,0.021606,0.022252,0.033537,0
35913,2.8467e+07,0,0.022241,0.021642,0.033615,0
35955,2.8478e+07,0,0.023025,0.022533,0.032748,0
35996,2.8488e+07,0,0.02381,0.022013,0.03273,0
36040,2.8499e+07,0,0.02312,0.021879,0.031724,0
36081,2.8509e+07,0,0.022583,0.02354,0.031157,0
36121,2.8519e+07,0,0.02136,0.023469,0.029858,0
36163,2.8529e+07,0,0.021152,0.023441,0.029318,0
36203,2.8541e+07,0,0.019899,0.025549,0.029494,0
36244,2.8552e+07,0,0.020509,0.027526,0.031029,0
36285,2.8562e+07,0,0.020076,0.026237,0.033929,0
36325,2.8572e+07,0,0.019935,0.026842,0.033506,0
36368,2.8582e+07,0,0.020708,0.02598,0.034412,0
36409,2.8592e+07,0,0.020208,0.025242,0.034554,0
36453,2.8603e+07,0,0.01945,0.024344,0.033242,0
36494,2.8613e+07,0,0.020094,0.024305,0.035966,0
36535,2.8623e+07,0,0.019814,0.024172,0.034671,0
36576,2.8633e+07,0,0.020108,0.024264,0.033499,0
36616,2.8643e+07,0,0.021085,0.024669,0.034927,0
36656,2.8654e+07,0,0.020879,0.026138,0.034304,0
36696,2.8664e+07,0,0.021192,0.025681,0.035104,0
36737,2.8674e+07,0,0.021538,0.02531,0.035057,0
36780,2.8684e+07,0,0.021399,0.02437,0.034529,0
36820,2.8694e+07,0,0.020771,0.024338,0.033761,0
36867,2.8705e+07,0,0.020818,0.02512,0.032777,0
36907,2.8715e+07,0,0.021452,0.025303,0.032316,0
36948,2.8725e+07,0,0.02258,0.024228,0.031193,0
36990,2.8735e+07,0,0.022459,0.024733,0.030621,0
37031,2.8746e+07,0,0.023057,0.030025,0.030283,0
37069,2.8756e+07,0,0.02264,0.030322,0.029832,0
37110,2.8766e+07,0,0.022264,0.029835,0.03105,0
37151,2.8776e+07,0,0.021973,0.030976,0.03043,0
37191,2.8786e+07,0,0.021482,0.030655,0.029162,0
37233,2.8796e+07,0,0.020661,0.029154,0.03281,0
37279,2.8806e+07,0,0.021399,0.029222,0.032904,0
37319,2.8816e+07,0,0.021829,0.029246,0.035431,0
37360,2.8826e+07,0,0.021305,0.02906,0.033564,0
37400,2.8836e+07,0,0.02084,0.02826,0.033584,0
37442,2.8846e+07,0,0.020803,0.029747,0.03326,0
37482,2.8856e+07,0,0.020533,0.028959,0.032452,0
37522,2.8867e+07,0,0.020387,0.029144,0.030781,0
37563,2.8877e+07,0,0.019702,0.027867,0.030016,0
37603,2.8888e+07,0,0.021862,0.027531,0.028742,0
37645,2.8898e+07,0,0.021954,0.026705,0.027985,0
37690,2.8908e+07,0,0.021055,0.029246,0.029164,0
37731,2.8918e+07,0,0.020598,0.02837,0.027865,0
37771,2.8928e+07,0,0.020539,0.0272,0.02685,0
37812,2.8939e+07,0,0.019913,0.026039,0.028635,0
37853,2.8951e+07,0,0.023502,0.024966,0.031503,0
37891,2.8961e+07,0,0.022485,0.024366,0.030885,0
37932,2.8972e+07,0,0.022493,0.024735,0.030586,0
37972,2.8981e+07,0,0.022338,0.024174,0.030241,0
38014,2.8992e+07,0,0.021877,0.02275,0.029831,0
38055,2.9002e+07,0,0.022342,0.02376,0.030505,0
38101,2.9012e+07,0,0.022329,0.023132,0.03016,0
38142,2.9023e+07,0,0.021132,0.023404,0.029936,0
38182,2.9033e+07,0,0.021706,0.022648,0.02916,0
38225,2.9043e+07,0,0.020783,0.02187,0.028008,0
38262,2.9053e+07,0,0.020896,0.022182,0.028723,0
38304,2.9066e+07,0,0.021563,0.021942,0.029503,0
38345,2.9076e+07,0,0.022228,0.023135,0.02823,0
38385,2.9086e+07,0,0.023179,0.022488,0.028635,0
38426,2.9097e+07,0,0.024745,0.022489,0.027348,0
38466,2.9107e+07,0,0.024419,0.022573,0.026232,0
38513,2.9117e+07,0,0.024125,0.022619,0.027362,0
38554,2.9127e+07,0,0.023607,0.021882,0.026492,0
38595,2.9138e+07,0,0.023773,0.021705,0.026649,0
38633,2.9148e+07,0,0.023824,0.021497,0.02576,0
38674,2.9158e+07,0,0.023303,0.020995,0.026958,0
38712,2.9168e+07,0,0.022571,0.021086,0.030324,0
38752,2.9178e+07,0,0.021959,0.020674,0.029957,0
38793,2.9188e+07,0,0.022441,0.02008,0.030268,0
38834,2.9198e+07,0,0.022068,0.020032,0.030067,0
38875,2.9208e+07,0,0.023369,0.02013,0.030796,0
38920,2.9218e+07,0,0.022753,0.020194,0.030225,0
38963,2.9228e+07,0,0.022295,0.01994,0.030103,0
39004,2.9239e+07,0,0.021945,0.019704,0.030221,0
39046,2.9248e+07,0,0.021707,0.0188,0.030002,0
39088,2.9261e+07,0,0.020771,0.017932,0.030968,0
39125,2.9271e+07,0,0.0206,0.019378,0.032768,0
39166,2.9281e+07,0,0.02079,0.020481,0.031897,0
39207,2.9291e+07,0,0.021079,0.019655,0.034205,0
39247,2.9301e+07,0,0.022327,0.019466,0.033726,0
39292,2.9312e+07,0,0.021367,0.020376,0.033954,0
39333,2.9322e+07,0,0.020555,0.020203,0.034784,0
39375,2.9332e+07,0,0.020317,0.020725,0.033854,0
39416,2.9341e+07,0,0.019906,0.022305,0.033196,0
39456,2.9352e+07,0,0.019394,0.023033,0.03196,0
39495,2.9362e+07,0,0.018939,0.023118,0.031438,0
39532,2.9372e+07,0,0.019907,0.022231,0.032799,0
39574,2.9383e+07,0,0.02021,0.021165,0.03257,0
39615,2.9393e+07,0,0.021319,0.020799,0.032703,0
39655,2.9403e+07,0,0.020987,0.02238,0.031609,0
39700,2.9413e+07,0,0.021179,0.021391,0.03126,0
39743,2.9423e+07,0,0.020907,0.020437,0.030315,0
39784,2.9433e+07,0,0.020604,0.019818,0.030415,0
39825,2.9443e+07,0,0.02001,0.019754,0.030121,0
39866,2.9453e+07,0,0.01991,0.019931,0.031028,0
39903,2.9463e+07,0,0.019507,0.019965,0.030592,0
39944,2.9473e+07,0,0.019627,0.021106,0.029678,0
39985,2.9484e+07,0,0.02084,0.020328,0.030089,0
40026,2.9494e+07,0,0.020348,0.020763,0.028905,0
40066,2.9504e+07,0,0.023558,0.019992,0.028224,0
40112,2.9514e+07,0,0.022999,0.020227,0.029109,0
40152,2.9525e+07,0,0.022969,0.019751,0.028327,0
40194,2.9534e+07,0,0.023508,0.019338,0.029812,0
40234,2.9545e+07,0,0.023063,0.020278,0.029653,0
40275,2.9555e+07,0,0.023006,0.019699,0.03013,0
40315,2.9565e+07,0,0.02342,0.019708,0.028882,0
40353,2.9575e+07,0,0.022833,0.021744,0.02902,0
40394,2.9586e+07,0,0.023004,0.021675,0.028702,0
40434,2.9596e+07,0,0.022317,0.021718,0.028668,0
40475,2.9606e+07,0,0.022975,0.02227,0.030181,0
40520,2.9616e+07,0,0.024372,0.0232,0.03002,0
40561,2.9626e+07,0,0.024396,0.023063,0.029876,0
40602,2.9636e+07,0,0.026136,0.022913,0.029693,0
40645,2.9646e+07,0,0.025992,0.022316,0.028903,0
40686,2.9656e+07,0,0.025134,0.023389,0.028405,0
40726,2.9667e+07,0,0.023985,0.024895,0.028937,0
40767,2.9677e+07,0,0.023065,0.024838,0.029786,0
40808,2.9687e+07,0,0.023762,0.024474,0.032609,0
40849,2.9698e+07,0,0.022976,0.025405,0.031654,0
40889,2.9708e+07,0,0.023232,0.024837,0.030813,0
40938,2.9719e+07,0,0.022423,0.024506,0.030264,0
40979,2.973e+07,0,0.022154,0.023352,0.030546,0
41019,2.974e+07,0,0.021548,0.022017,0.029212,0
41062,2.975e+07,0,0.021351,0.021593,0.028054,0
41099,2.9761e+07,0,0.020707,0.021926,0.027497,0
41140,2.9771e+07,0,0.020062,0.021328,0.026417,0
41177,2.9781e+07,0,0.01973,0.020725,0.027046,0
41218,2.9791e+07,0,0.019877,0.020482,0.028007,0
41260,2.9801e+07,0,0.019555,0.020085,0.029861,0
41300,2.9812e+07,0,0.019452,0.019664,0.029019,0
41345,2.9822e+07,0,0.01952,0.020135,0.029792,0
41385,2.9833e+07,0,0.019242,0.020308,0.029593,0
41426,2.9842e+07,0,0.018473,0.020456,0.028739,0
41468,2.9853e+07,0,0.018285,0.020168,0.029446,0
41509,2.9866e+07,0,0.018793,0.020611,0.028909,0
41550,2.9876e+07,0,0.019949,0.020335,0.030209,0
41592,2.9886e+07,0,0.020227,0.02149,0.031263,0
41633,2.9896e+07,0,0.019445,0.020885,0.031457,0
41674,2.9906e+07,0,0.01968,0.021816,0.030437,0
41716,2.9916e+07,0,0.020324,0.021191,0.029337,0
41760,2.9926e+07,0,0.020891,0.020392,0.029718,0
41801,2.9936e+07,0,0.020208,0.020468,0.029307,0
41841,2.9946e+07,0,0.019978,0.020254,0.029641,0
41882,2.9956e+07,0,0.019118,0.019421,0.029336,0
41925,2.9966e+07,0,0.018891,0.020524,0.031822,0
41965,2.9976e+07,0,0.020207,0.021136,0.032866,0
42006,2.9986e+07,0,0.02046,0.020687,0.032031,0
42046,2.9997e+07,0,0.020347,0.021278,0.031538,0
42087,3.0007e+07,0,0.020294,0.020838,0.031381,0
42127,3.0017e+07,0,0.01949,0.020382,0.030533,0
42172,3.0027e+07,0,0.02018,0.019907,0.030325,0
42215,3.0038e+07,0,0.020597,0.019874,0.030732,0
42256,3.0048e+07,0,0.019984,0.019492,0.030309,0
42297,3.0058e+07,0,0.020379,0.019345,0.029224,0
42340,3.007e+07,0,0.021449,0.021303,0.029856,0
42381,3.008e+07,0,0.020795,0.020724,0.032313,0
42422,3.009e+07,0,0.020691,0.021455,0.031477,0
42463,3.01e+07,0,0.020454,0.022266,0.031357,0
42505,3.011e+07,0,0.019621,0.022206,0.030119,0
42545,3.0121e+07,0,0.02169,0.021382,0.030453,0
42591,3.0131e+07,0,0.021441,0.021112,0.032892,0
42632,3.0141e+07,0,0.022023,0.020712,0.032577,0
42673,3.0151e+07,0,0.02146,0.020071,0.032088,0
42714,3.0161e+07,0,0.0203,0.020234,0.033483,0
42751,3.0171e+07,0,0.020108,0.022751,0.032811,0
42792,3.0181e+07,0,0.020752,0.023585,0.032774,0
42834,3.0192e+07,0,0.019874,0.022818,0.033622,0
42875,3.0201e+07,0,0.019217,0.022063,0.032738,0
42917,3.0212e+07,0,0.019503,0.021142,0.031615,0
42958,3.0221e+07,0,0.01965,0.020186,0.032502,0
43003,3.0231e+07,0,0.019157,0.020509,0.031568,0
43045,3.0242e+07,0,0.019203,0.019721,0.031268,0
43086,3.0251e+07,0,0.0188,0.019587,0.031358,0
43130,3.0264e+07,0,0.018839,0.019335,0.031092,0
43168,3.0275e+07,0,0.018134,0.019135,0.030358,0
43209,3.0285e+07,0,0.018829,0.019991,0.029174,0
43250,3.0294e+07,0,0.022219,0.020043,0.030992,0
43292,3.0305e+07,0,0.021219,0.020152,0.030683,0
43332,3.0315e+07,0,0.021999,0.02149,0.03095,0
43375,3.0325e+07,0,0.021368,0.021212,0.030683,0
43419,3.0335e+07,0,0.021045,0.021833,0.029742,0
43460,3.0346e+07,0,0.022307,0.021923,0.029424,0
43502,3.0355e+07,0,0.022533,0.021345,0.029225,0
43542,3.0366e+07,0,0.022065,0.020976,0.029279,0
43583,3.0376e+07,0,0.023947,0.02042,0.031104,0
43623,3.0389e+07,0,0.023007,0.019984,0.032431,0
43667,3.0399e+07,0,0.023509,0.019944,0.031858,0
43708,3.0409e+07,0,0.022941,0.019823,0.032491,0
43748,3.0419e+07,0,0.022059,0.021434,0.030988,0
43795,3.043e+07,0,0.021963,0.021632,0.030804,0
43837,3.044e+07,0,0.02167,0.020827,0.031364,0
43879,3.045e+07,0,0.02132,0.019836,0.031569,0
43920,3.046e+07,0,0.022023,0.019309,0.030336,0
43961,3.047e+07,0,0.020981,0.019668,0.031948,0
44005,3.0483e+07,0,0.020734,0.020444,0.031389,0
44045,3.0493e+07,0,0.020902,0.019748,0.031013,0
44088,3.0504e+07,0,0.020922,0.019471,0.030992,0
44128,3.0514e+07,0,0.021879,0.018871,0.030396,0
44169,3.0524e+07,0,0.021079,0.019165,0.029207,0
44214,3.0534e+07,0,0.020673,0.019539,0.028829,0
44255,3.0544e+07,0,0.020623,0.019479,0.030191,0
44296,3.0554e+07,0,0.020884,0.020053,0.030021,0
44339,3.0566e+07,0,0.020616,0.020403,0.033136,0
44377,3.0576e+07,0,0.020456,0.020456,0.03291,0
44417,3.0587e+07,0,0.020904,0.019651,0.034,0
44457,3.0597e+07,0,0.021806,0.019644,0.032875,0
44498,3.0607e+07,0,0.021877,0.020289,0.033484,0
44540,3.0617e+07,0,0.020826,0.019458,0.032358,0
44581,3.0627e+07,0,0.021606,0.019227,0.031453,0
44625,3.0637e+07,0,0.021805,0.022561,0.031118,0
44668,3.0647e+07,0,0.021181,0.02383,0.029815,0
44710,3.0657e+07,0,0.021698,0.022823,0.029785,0
44750,3.0667e+07,0,0.021912,0.023297,0.030494,0
44788,3.0677e+07,0,0.022428,0.024462,0.034936,0
44828,3.0688e+07,0,0.023687,0.023501,0.033447,0
44866,3.0699e+07,0,0.023036,0.023947,0.032696,0
44909,3.0709e+07,0,0.022481,0.024105,0.032351,0
44950,3.0719e+07,0,0.022882,0.024423,0.034104,0
44991,3.073e+07,0,0.021683,0.024444,0.033227,0
45037,3.0739e+07,0,0.020669,0.025603,0.031485,0
45081,3.0751e+07,0,0.020217,0.02471,0.034143,0
45122,3.0761e+07,0,0.020639,0.024076,0.036055,0
45163,3.0771e+07,0,0.020102,0.025746,0.03578,0
45201,3.0781e+07,0,0.020388,0.026259,0.03446,0
45244,3.0794e+07,0,0.019852,0.027927,0.03449,0
45285,3.0805e+07,0,0.020712,0.026975,0.035686,0
45325,3.0815e+07,0,0.020185,0.027653,0.035592,0
45366,3.0825e+07,0,0.019762,0.027388,0.035289,0
45409,3.0834e+07,0,0.020354,0.027882,0.035538,0
45454,3.0845e+07,0,0.021441,0.026933,0.034391,0
45495,3.0855e+07,0,0.022111,0.027824,0.034948,0
45535,3.0865e+07,0,0.022361,0.029438,0.034849,0
45579,3.0875e+07,0,0.022609,0.029141,0.033922,0
45613,3.0885e+07,0,0.022419,0.02971,0.035086,0
45653,3.0896e+07,0,0.021566,0.029216,0.033937,0
45693,3.0906e+07,0,0.02203,0.028456,0.033485,0
45734,3.0915e+07,0,0.023681,0.02785,0.03511,0
45776,3.0925e+07,0,0.023508,0.026369,0.033126,0
45816,3.0936e+07,0,0.022637,0.0255,0.032487,0
45862,3.0945e+07,0,0.022049,0.027124,0.031818,0
45902,3.0956e+07,0,0.02107,0.028073,0.031456,0
45943,3.0965e+07,0,0.020819,0.028019,0.030776,0
45984,3.0975e+07,0,0.020464,0.027152,0.029448,0
46022,3.0988e+07,0,0.020304,0.025708,0.030416,0
46062,3.0998e+07,0,0.02064,0.025824,0.03205,0
46102,3.1009e+07,0,0.020939,0.024795,0.034026,0
46143,3.1019e+07,0,0.020948,0.025061,0.032643,0
46184,3.1029e+07,0,0.021852,0.025244,0.031617,0
46229,3.104e+07,0,0.02275,0.025103,0.030761,0
46273,3.1051e+07,0,0.021525,0.024195,0.030057,0
46313,3.1061e+07,0,0.021787,0.023469,0.029412,0
46354,3.1071e+07,0,0.022547,0.022891,0.029142,0
46391,3.1081e+07,0,0.021982,0.022436,0.028177,0
46432,3.1094e+07,0,0.02175,0.02254,0.027692,0
46473,3.1104e+07,0,0.021392,0.022,0.027551,0
46514,3.1114e+07,0,0.022291,0.021817,0.027943,0
46556,3.1125e+07,0,0.022136,0.021286,0.029145,0
46596,3.1135e+07,0,0.021824,0.020461,0.030851,0
46643,3.1145e+07,0,0.021329,0.020791,0.029745,0
46683,3.1155e+07,0,0.0222,0.020143,0.028853,0
46724,3.1165e+07,0,0.022279,0.022814,0.0287,0
46765,3.1175e+07,0,0.022956,0.022596,0.029366,0
46805,3.1187e+07,0,0.023046,0.021587,0.028574,0
46846,3.1198e+07,0,0.022136,0.021214,0.028874,0
46889,3.1208e+07,0,0.021691,0.020569,0.029045,0
46930,3.1218e+07,0,0.021006,0.019893,0.03002,0
46970,3.1228e+07,0,0.020919,0.019833,0.030456,0
47011,3.1239e+07,0,0.020507,0.020362,0.029483,0
47057,3.1249e+07,0,0.020079,0.02004,0.029565,0
47099,3.1259e+07,0,0.019468,0.01917,0.028205,0
47140,3.1269e+07,0,0.018975,0.018356,0.029371,0
47181,3.1279e+07,0,0.018444,0.019009,0.028532,0
47219,3.1289e+07,0,0.017792,0.018575,0.02906,0
47259,3.1299e+07,0,0.018298,0.019266,0.028655,0
47300,3.1309e+07,0,0.018791,0.019455,0.029028,0
47341,3.132e+07,0,0.019804,0.019953,0.028943,0
47381,3.133e+07,0,0.019124,0.020969,0.028528,0
47422,3.134e+07,0,0.019328,0.020822,0.029373,0
47468,3.135e+07,0,0.018561,0.019855,0.029727,0
47509,3.1361e+07,0,0.017995,0.020876,0.028747,0
47550,3.1371e+07,0,0.018706,0.02074,0.028635,0
47590,3.1381e+07,0,0.018413,0.020772,0.028457,0
47634,3.1393e+07,0,0.018751,0.021079,0.027656,0
47675,3.1403e+07,0,0.018629,0.020519,0.028938,0
47716,3.1414e+07,0,0.018109,0.019945,0.02907,0
47758,3.1424e+07,0,0.017659,0.019551,0.028882,0
47799,3.1434e+07,0,0.01721,0.019024,0.028319,0
47840,3.1445e+07,0,0.018111,0.019398,0.029325,0
47886,3.1455e+07,0,0.017505,0.018908,0.029609,0
47930,3.1465e+07,0,0.01736,0.018408,0.028985,0
47970,3.1474e+07,0,0.017058,0.018336,0.028025,0
48011,3.1484e+07,0,0.017179,0.018206,0.028884,0
48052,3.1495e+07,0,0.018402,0.018228,0.028774,0
48093,3.1505e+07,0,0.017955,0.020082,0.027521,0
48134,3.1515e+07,0,0.017499,0.019138,0.027436,0
48175,3.1525e+07,0,0.017913,0.01861,0.027634,0
48215,3.1535e+07,0,0.018267,0.01799,0.027756,0
48256,3.1546e+07,0,0.01866,0.017973,0.0284,0
48300,3.1556e+07,0,0.019697,0.017874,0.03114,0
48341,3.1567e+07,0,0.019166,0.017565,0.030175,0
48383,3.1577e+07,0,0.018296,0.018326,0.029334,0
48424,3.1589e+07,0,0.018146,0.018254,0.027589,0
48465,3.16e+07,0,0.017659,0.020119,0.030735,0
48505,3.161e+07,0,0.017708,0.02029,0.029971,0
48547,3.1621e+07,0,0.017258,0.022352,0.030706,0
48587,3.1631e+07,0,0.016711,0.02177,0.029457,0
48628,3.164e+07,0,0.017139,0.021108,0.029083,0
48675,3.1651e+07,0,0.017441,0.020231,0.029478,0
48715,3.1661e+07,0,0.0179,0.019359,0.028497,0
48756,3.1671e+07,0,0.018916,0.019264,0.029366,0
48798,3.1681e+07,0,0.020494,0.019738,0.029053,0
48839,3.1691e+07,0,0.021484,0.01946,0.028302,0
48878,3.1702e+07,0,0.02133,0.019882,0.03298,0
48919,3.1712e+07,0,0.020768,0.019331,0.032063,0
48959,3.1722e+07,0,0.020318,0.019616,0.031261,0
49001,3.1732e+07,0,0.020456,0.019707,0.030412,0
49042,3.1742e+07,0,0.020218,0.020345,0.030611,0
49088,3.1753e+07,0,0.019649,0.020655,0.029997,0
49129,3.1764e+07,0,0.020221,0.019957,0.030189,0
49169,3.1774e+07,0,0.019436,0.019606,0.029304,0
49212,3.1785e+07,0,0.019841,0.018912,0.029543,0
49255,3.1798e+07,0,0.019824,0.01873,0.030968,0
49296,3.1809e+07,0,0.019751,0.019592,0.030884,0
49336,3.1819e+07,0,0.019897,0.019109,0.030081,0
49377,3.1829e+07,0,0.019331,0.018468,0.029234,0
49421,3.1839e+07,0,0.019659,0.019066,0.028403,0
49461,3.1849e+07,0,0.018959,0.018988,0.027915,0
49506,3.1859e+07,0,0.019202,0.019037,0.027044,0
49546,3.1869e+07,0,0.018739,0.020484,0.027543,0
49588,3.1879e+07,0,0.019131,0.021029,0.028479,0
49630,3.189e+07,0,0.018872,0.020541,0.028038,0
49674,3.1905e+07,0,0.017645,0.019482,0.031983,0
49714,3.1915e+07,0,0.017518,0.019668,0.03476,0
49755,3.1925e+07,0,0.019033,0.020333,0.034241,0
49797,3.1935e+07,0,0.01954,0.019766,0.032705,0
49837,3.1945e+07,0,0.0186,0.019873,0.032432,0
49878,3.1955e+07,0,0.019288,0.020681,0.031409,0
49922,3.1965e+07,0,0.019267,0.020541,0.029948,0
49963,3.1975e+07,0,0.018882,0.021199,0.029781,0
50005,3.1986e+07,0,0.018708,0.021232,0.029548,0
50047,3.1995e+07,0,0.018203,0.020805,0.028546,0
50084,3.2006e+07,0,0.017462,0.020014,0.028591,0
50125,3.2016e+07,0,0.016988,0.021454,0.027958,0
50166,3.2027e+07,0,0.016568,0.020691,0.0289,0
50208,3.2037e+07,0,0.017556,0.020443,0.02755,0
50250,3.2047e+07,0,0.017337,0.020093,0.026581,0
50290,3.2057e+07,0,0.017564,0.020319,0.02602,0
50335,3.2067e+07,0,0.018062,0.01951,0.027861,0
50376,3.2077e+07,0,0.017916,0.019129,0.02896,0
50418,3.2088e+07,0,0.017723,0.018255,0.027965,0
50459,3.21e+07,0,0.017687,0.018071,0.027823,0
50499,3.2111e+07,0,0.017507,0.018968,0.026502,0
50540,3.2122e+07,0,0.018426,0.019551,0.026682,0
50580,3.2131e+07,0,0.02056,0.01908,0.026456,0
50622,3.2141e+07,0,0.020859,0.019254,0.025941,0
50663,3.2152e+07,0,0.02037,0.018719,0.025877,0
50707,3.2162e+07,0,0.019904,0.018522,0.025042,0
50750,3.2172e+07,0,0.019697,0.018915,0.024652,0
50790,3.2182e+07,0,0.019217,0.019174,0.02508,0
50832,3.2192e+07,0,0.018971,0.018965,0.025342,0
50877,3.2205e+07,0,0.018246,0.019532,0.026249,0
50918,3.2215e+07,0,0.017919,0.020195,0.025211,0
50958,3.2226e+07,0,0.01738,0.020157,0.027897,0
51000,3.2236e+07,0,0.016676,0.019506,0.029076,0
51043,3.2245e+07,0,0.017317,0.019453,0.029586,0
51083,3.2256e+07,0,0.016936,0.019334,0.03036,0
51129,3.2266e+07,0,0.017306,0.020368,0.029773,0
51169,3.2276e+07,0,0.017458,0.020541,0.029203,0
51210,3.2286e+07,0,0.018169,0.019926,0.028326,0
51252,3.2296e+07,0,0.017752,0.021069,0.029307,0
51296,3.2311e+07,0,0.01698,0.019929,0.027361,0
51337,3.2322e+07,0,0.016868,0.019643,0.028164,0
51377,3.2332e+07,0,0.016288,0.018933,0.029323,0
51418,3.2341e+07,0,0.015695,0.01903,0.029932,0
51459,3.2351e+07,0,0.015862,0.019522,0.030244,0
51499,3.2362e+07,0,0.017241,0.019809,0.029294,0
51544,3.2371e+07,0,0.017145,0.019016,0.032029,0
51585,3.2382e+07,0,0.016685,0.018273,0.033146,0
51626,3.2392e+07,0,0.016866,0.01926,0.032049,0
51667,3.2401e+07,0,0.017216,0.01872,0.030703,0
51705,3.2414e+07,0,0.01699,0.018252,0.029076,0
51746,3.2425e+07,0,0.017038,0.018442,0.029663,0
51787,3.2434e+07,0,0.01758,0.018517,0.028996,0
51829,3.2444e+07,0,0.018747,0.018513,0.028538,0
51869,3.2455e+07,0,0.018496,0.019168,0.031851,0
51914,3.2465e+07,0,0.01802,0.019257,0.031068,0
51957,3.2474e+07,0,0.017906,0.019495,0.031557,0
51997,3.2484e+07,0,0.017301,0.019482,0.030125,0
52038,3.2494e+07,0,0.01684,0.021091,0.030172,0
52080,3.2507e+07,0,0.017515,0.021448,0.029145,0
52118,3.2517e+07,0,0.017967,0.021035,0.029864,0
52159,3.2527e+07,0,0.017627,0.022757,0.029393,0
52199,3.2538e+07,0,0.017345,0.021769,0.028702,0
52240,3.2548e+07,0,0.016922,0.021817,0.027471,0
52280,3.2558e+07,0,0.017653,0.021396,0.027811,0
52326,3.2568e+07,0,0.017575,0.021523,0.029101,0
52366,3.2578e+07,0,0.018733,0.020762,0.029547,0
52407,3.2588e+07,0,0.01941,0.019856,0.029554,0
52449,3.2599e+07,0,0.01976,0.018936,0.028961,0
52489,3.2608e+07,0,0.019456,0.01876,0.029899,0
52530,3.2618e+07,0,0.019457,0.018864,0.030517,0
52571,3.2629e+07,0,0.018799,0.018897,0.030752,0
52612,3.2639e+07,0,0.018494,0.018248,0.031039,0
52654,3.2649e+07,0,0.017941,0.017996,0.03059,0
52695,3.2659e+07,0,0.01733,0.017809,0.029841,0
52740,3.2669e+07,0,0.017579,0.017835,0.030317,0
52780,3.2679e+07,0,0.017671,0.017253,0.029458,0
52821,3.2689e+07,0,0.017302,0.017125,0.029348,0
52863,3.27e+07,0,0.018064,0.017195,0.028689,0
52904,3.271e+07,0,0.018445,0.016375,0.02989,0
52944,3.272e+07,0,0.017971,0.016171,0.029269,0
52986,3.273e+07,0,0.018236,0.016938,0.030815,0
53028,3.2741e+07,0,0.019412,0.016905,0.030306,0
53068,3.2751e+07,0,0.018975,0.017093,0.029657,0
53109,3.276e+07,0,0.018299,0.017824,0.028705,0
53155,3.277e+07,0,0.017971,0.018443,0.02802,0
53197,3.2781e+07,0,0.018646,0.017854,0.028691,0
53237,3.2791e+07,0,0.018129,0.017242,0.028704,0
53278,3.2801e+07,0,0.017643,0.017831,0.02773,0
53319,3.2811e+07,0,0.017432,0.017887,0.027193,0
53356,3.2821e+07,0,0.017923,0.018272,0.027853,0
53399,3.2831e+07,0,0.018057,0.017855,0.027789,0
53440,3.2842e+07,0,0.01725,0.017567,0.026843,0
53482,3.2852e+07,0,0.017506,0.016898,0.02656,0
53523,3.2862e+07,0,0.01802,0.016685,0.026581,0
53568,3.2872e+07,0,0.018416,0.016708,0.026565,0
53609,3.2882e+07,0,0.01869,0.017883,0.025498,0
