LineNo,TimeUS,C,Roll,Pitch,Yaw,VN,VE,VD,dPD,PN,PE,PD,GX,GY,GZ,OH
303,19490750,0,1.99,1.11,24.49,-0.003382608,-0.003036521,-0.01271885,-0.02357149,0,0,0.6407461,-0.01,-0.01,-0.53,0
647,19556015,0,2,1.11,24.51,-0.00373893,-0.003764625,-0.01116927,-0.00842793,0,0,0.6416591,-0.01,-0.01,-0.52,0
874,19601666,0,1.99,1.11,24.53,-0.003866028,-0.003829891,-0.0102127,0.02108404,0,0,0.6439818,-0.01,-0.01,-0.53,0
1216,19763105,0,1.99,1.11,24.58,-0.003308538,-0.004408057,-0.4658378,-0.3790584,0,0,0.6275766,-0.01,-0.01,-0.51,0
1492,19833718,0,1.99,1.11,24.61,-0.00365611,-0.003802838,-0.4932156,-0.4064296,0,0,0.5990714,-0.01,-0.01,-0.49,0
1587,19855799,0,1.99,1.11,24.61,-0.003705017,-0.003730664,-0.4913025,-0.3959094,0,0,0.5920762000000001,-0.01,-0.01,-0.49,0
1627,19866007,0,2,1.11,24.62,-0.003877971,-0.003637926,-0.4911794,-0.3873659,0,0,0.5866789,-0.01,-0.01,-0.49,0
1669,19876189,0,2,1.11,24.62,-0.003969663,-0.003714815,-0.4903424,-0.3811125,0,0,0.5832932,-0.01,-0.01,-0.49,0
1710,19885996,0,2,1.11,24.62,-0.003778851,-0.003904547,-0.4896831,-0.3755614,0,0,0.5798583,-0.01,-0.01,-0.49,0
1750,19899017,0,2,1.11,24.62,-0.003537432,-0.003774151,-0.4888234,-0.3687132,0,0,0.575359,-0.01,-0.01,-0.49,0
1791,19909145,0,2,1.11,24.62,-0.003468224,-0.003603703,-0.4881171,-0.3639426,0,0,0.5722644,-0.01,-0.01,-0.49,0
1831,19919861,0,2,1.11,24.62,-0.003326576,-0.003644433,-0.4873292,-0.3588227,0,0,0.5686288,-0.01,-0.01,-0.49,0
1873,19929946,0,2,1.11,24.63,-0.00337357,-0.003739566,-0.4874493,-0.353301,0,0,0.5637598,-0.01,-0.01,-0.49,0
1913,19940015,0,1.99,1.11,24.63,-0.003251479,-0.003565233,-0.486692,-0.3481507,0,0,0.5605587,-0.01,-0.01,-0.49,0
1954,19950031,0,1.99,1.11,24.63,-0.003253716,-0.003444965,-0.4862666,-0.3448026,0,0,0.5572991,-0.01,-0.01,-0.49,0
1999,19960048,0,1.99,1.11,24.63,-0.002931405,-0.003548194,-0.4853039,-0.3416447,0,0,0.5539815,-0.01,-0.01,-0.49,0
2042,19970721,0,1.99,1.11,24.63,-0.002881119,-0.003654393,-0.4847469,-0.3385463,0,0,0.5501301,-0.01,-0.01,-0.49,0
2083,19980620,0,1.99,1.11,24.63,-0.002862806,-0.003304901,-0.4842675,-0.3378761,0,0,0.5467142,-0.01,-0.01,-0.49,0
2123,19991083,0,1.99,1.11,24.63,-0.002935663,-0.003193125,-0.4844854,-0.3368092,0,0,0.5418756,-0.01,-0.01,-0.49,0
2164,20001689,0,1.99,1.11,24.63,-0.00289641,-0.003261572,-0.4845014,-0.3396378,0,0,0.5375335999999999,-0.01,-0.01,-0.49,0
2205,20011766,0,2,1.11,24.63,-0.002919861,-0.003205313,-0.4845377,-0.3457099,0,0,0.532697,-0.01,-0.01,-0.5,0
2246,20021741,0,2,1.11,24.63,-0.002810032,-0.003186795,-0.4843968,-0.3531814,0,0,0.5283331,-0.01,-0.01,-0.5,0
2287,20031812,0,2,1.11,24.64,-0.002938717,-0.003194918,-0.4841876,-0.3616677,0,0,0.523959,-0.01,-0.01,-0.5,0
2327,20041772,0,2,1.1,24.64,-0.003000376,-0.00344983,-0.4837455,-0.3707355,0,0,0.5195767999999999,-0.01,-0.01,-0.5,0
2370,20052230,0,2,1.1,24.64,-0.002989123,-0.00345798,-0.4837571,-0.3798183,0,0,0.5147442,-0.01,-0.01,-0.5,0
2414,20062209,0,2,1.1,24.65,-0.003074486,-0.003597363,-0.4833249,-0.3886534,0,0,0.5103563,-0.01,-0.01,-0.5,0
2455,20072177,0,2,1.1,24.65,-0.002984607,-0.003610906,-0.4832395,-0.3980655,0,0,0.5059578,-0.01,-0.01,-0.5,0
2498,20082197,0,2,1.1,24.65,-0.002947256,-0.00357753,-0.4829256,-0.4066395,0,0,0.5015506,-0.01,-0.01,-0.5,0
2538,20092806,0,2,1.1,24.66,-0.003139682,-0.003620189,-0.4828959,-0.4152632,0,0,0.4966515,-0.01,-0.01,-0.5,0
2578,20103185,0,2,1.1,24.66,-0.003301515,-0.003701008,-0.4831229,-0.4223236,0,0,0.4918275,-0.01,-0.01,-0.5,0
2616,20113095,0,2,1.1,24.66,-0.003223991,-0.003568738,-0.4830713,-0.4276797,0,0,0.4878164,-0.01,-0.01,-0.5,0
2657,20123132,0,2,1.1,24.67,-0.003141817,-0.00337579,-0.4827255,-0.4311483,0,0,0.4837797,-0.01,-0.01,-0.5,0
2698,20133615,0,2,1.1,24.67,-0.003172793,-0.003452344,-0.4823786,-0.4338504,0,0,0.4797181,-0.01,-0.01,-0.5,0
2739,20143581,0,2,1.11,24.68,-0.00324539,-0.003406067,-0.4823798,-0.4360185,0,0,0.4756325,-0.01,-0.01,-0.5,0
2780,20153388,0,2,1.11,24.68,-0.003120491,-0.003193295,-0.4825378,-0.4367872,0,0,0.4708132,-0.01,-0.01,-0.5,0
2824,20163603,0,2,1.11,24.69,-0.002974201,-0.003190449,-0.4822019,-0.4372368,0,0,0.4667053,-0.01,-0.01,-0.5,0
2866,20173689,0,2,1.11,24.69,-0.002855512,-0.002829378,-0.4818161,-0.4373574,0,0,0.4625793,-0.01,-0.01,-0.5,0
2907,20183371,0,2,1.11,24.7,-0.002803561,-0.002648473,-0.481686,-0.4379206,0,0,0.4584316,-0.01,-0.01,-0.5,0
2948,20193400,0,2,1.11,24.7,-0.002656693,-0.002634689,-0.4815542,-0.4383665,0,0,0.4542626,-0.01,-0.01,-0.5,0
2989,20203407,0,2,1.11,24.71,-0.002507704,-0.002584198,-0.481736,-0.4382693,0,0,0.4494506,-0.01,-0.01,-0.5,0
3027,20213676,0,2,1.11,24.71,-0.002310813,-0.002543269,-0.4809098,-0.4340056,0,0,0.4459925,-0.01,-0.01,-0.5,0
3068,20223884,0,2,1.1,24.71,-0.002062801,-0.002499259,-0.4801668,-0.4278646,0,0,0.4429501,-0.01,-0.01,-0.5,0
3108,20233719,0,2,1.1,24.72,-0.001941552,-0.002602637,-0.4793716,-0.4200338,0,0,0.4398462,-0.01,-0.01,-0.5,0
3149,20243717,0,2,1.11,24.72,-0.001982136,-0.002567103,-0.4787297,-0.4125197,0,0,0.4366834,-0.01,-0.01,-0.5,0
3192,20253786,0,2,1.1,24.72,-0.001748739,-0.002459994,-0.4787844,-0.4032805,0,0,0.4319009,-0.01,-0.01,-0.5,0
3237,20263673,0,2,1.1,24.73,-0.001561939,-0.002450224,-0.477954,-0.3941179,0,0,0.4286867,-0.01,-0.01,-0.5,0
3278,20273772,0,2,1.1,24.73,-0.001466088,-0.002563127,-0.4774371,-0.38663,0,0,0.4254185,-0.01,-0.01,-0.5,0
3319,20283716,0,2,1.1,24.73,-0.001312352,-0.002511468,-0.4768983,-0.3798849,0,0,0.4220978,-0.01,-0.01,-0.5,0
3360,20293797,0,2,1.1,24.73,-0.001404028,-0.002402681,-0.4764807,-0.3749423,0,0,0.4187268,-0.01,-0.01,-0.5,0
3400,20303968,0,2,1.1,24.74,-0.001538153,-0.002393389,-0.476575,-0.3695027,0,0,0.4139667,-0.01,-0.01,-0.5,0
3442,20314290,0,2,1.1,24.74,-0.001519106,-0.002301245,-0.4762511,-0.3662923,0,0,0.4103177,-0.01,-0.01,-0.5,0
3482,20324297,0,2,1.1,24.74,-0.0014597,-0.002395912,-0.4761357,-0.3646777,0,0,0.406631,-0.01,-0.01,-0.5,0
3523,20334294,0,2,1.1,24.74,-0.001440646,-0.002448462,-0.4759643,-0.3646968,0,0,0.4029059,-0.01,-0.01,-0.5,0
3563,20344309,0,2,1.1,24.75,-0.001634061,-0.002191276,-0.4755372,-0.3653399,0,0,0.3991466,-0.01,-0.01,-0.5,0
3605,20354775,0,2,1.1,24.75,-0.001889177,-0.002116868,-0.4750856,-0.3659956,0,0,0.3948793,-0.01,-0.01,-0.5,0
3653,20365211,0,2,1.1,24.76,-0.002139387,-0.002162653,-0.4745449,-0.3666359,0,0,0.3910557,-0.01,-0.01,-0.5,0
3693,20375718,0,2,1.1,24.76,-0.002374853,-0.002197088,-0.4746217,-0.3678807,0,0,0.3858408,-0.01,-0.01,-0.5,0
3734,20386236,0,2,1.1,24.76,-0.00245576,-0.002027107,-0.4741305,-0.3700185,0,0,0.3819925,-0.01,-0.01,-0.5,0
3778,20396202,0,2,1.1,24.77,-0.002440225,-0.002146202,-0.4740225,-0.3729192,0,0,0.3781139,-0.01,-0.01,-0.5,0
3815,20406464,0,2,1.1,24.77,-0.002532112,-0.002183113,-0.473056,-0.3746951,0,0,0.3760193,-0.01,-0.01,-0.5,0
3853,20416520,0,2,1.1,24.77,-0.002336814,-0.002091956,-0.4719917,-0.3711417,0,0,0.3738246,-0.01,-0.01,-0.5,0
3893,20427000,0,2,1.1,24.77,-0.002251607,-0.001963948,-0.4720067,-0.3615269,0,0,0.3686384,-0.01,-0.01,-0.5,0
3934,20436995,0,2,1.1,24.78,-0.002106883,-0.001831198,-0.4711211,-0.3525509,0,0,0.3663661,-0.01,-0.01,-0.5,0
3975,20447021,0,2,1.1,24.78,-0.002075836,-0.001558264,-0.4700528,-0.3424601,0,0,0.364003,-0.01,-0.01,-0.5,0
4017,20457711,0,2,1.1,24.78,-0.001948809,-0.001446711,-0.468821,-0.3332922,0,0,0.3615574,-0.01,-0.01,-0.5,0
4063,20467755,0,2,1.1,24.79,-0.001783908,-0.001350812,-0.4677152,-0.324589,0,0,0.3590291,-0.01,-0.01,-0.5,0
4103,20478024,0,2,1.1,24.79,-0.001670533,-0.001387605,-0.4669129,-0.3143866,0,0,0.3559566,-0.01,-0.01,-0.5,0
4145,20487806,0,2,1.1,24.79,-0.001600567,-0.001311113,-0.4669619,-0.3053374,0,0,0.3512923,-0.01,-0.01,-0.5,0
4186,20498641,0,2,1.1,24.79,-0.001564483,-0.001192482,-0.4660023,-0.2984912,0,0,0.3486223,-0.01,-0.01,-0.5,0
4223,20508554,0,2,1.1,24.8,-0.001550936,-0.001052219,-0.4653368,-0.2936075,0,0,0.3457556,-0.01,-0.01,-0.49,0
4265,20518425,0,2,1.1,24.8,-0.001370296,-0.0007843254,-0.4646253,-0.2897737,0,0,0.342823,-0.01,-0.01,-0.49,0
4305,20528774,0,2,1.1,24.8,-0.001367401,-0.0006866356,-0.4639392,-0.287308,0,0,0.3393688,-0.01,-0.01,-0.5,0
4346,20538758,0,2,1.1,24.8,-0.001349513,-0.000518759,-0.4634451,-0.2879736,0,0,0.3363204,-0.01,-0.01,-0.5,0
4386,20549106,0,2,1.09,24.8,-0.001704114,-0.0005832855,-0.4635047,-0.2882609,0,0,0.3316908,-0.01,-0.01,-0.5,0
4427,20559125,0,2,1.09,24.81,-0.001780051,-0.0005579114,-0.4629919,-0.2902285,0,0,0.328592,-0.01,-0.01,-0.5,0
4474,20569955,0,2,1.09,24.81,-0.001869636,-0.0005075714,-0.4623254,-0.2930147,0,0,0.3249768,-0.01,-0.01,-0.5,0
4514,20579721,0,2,1.09,24.81,-0.001739373,-0.0004259483,-0.4619311,-0.2959344,0,0,0.3217688,-0.01,-0.01,-0.5,0
4556,20589758,0,2,1.09,24.81,-0.001719786,-0.0004296677,-0.4613325,-0.2994394,0,0,0.3185101,-0.01,-0.01,-0.5,0
4599,20602164,0,2,1.09,24.82,-0.002102923,-0.0002074363,-0.4605893,-0.3040938,0,0,0.3150791,-0.01,-0.01,-0.5,0
4643,20614695,0,2,1.09,24.82,-0.002395957,-0.0002036692,-0.459873,-0.3046742,0,0,0.3106535,-0.01,-0.01,-0.49,0
4684,20624642,0,2,1.09,24.82,-0.0024697,-6.632683000000001e-05,-0.4593866,-0.3066999,0,0,0.3079944,-0.01,-0.01,-0.49,0
4724,20635024,0,2,1.09,24.82,-0.002497387,-0.0001195515,-0.4593494,-0.3059112,0,0,0.3034055,-0.01,-0.01,-0.49,0
4767,20645103,0,2,1.09,24.82,-0.002385868,-4.181018e-05,-0.4587512,-0.3057276,0,0,0.3006831,-0.01,-0.01,-0.49,0
4808,20655006,0,2,1.09,24.82,-0.002233445,7.734264e-05,-0.4580218,-0.305283,0,0,0.2978922,-0.01,-0.01,-0.49,0
4849,20665095,0,2,1.09,24.82,-0.002204106,-0.0001519845,-0.4573849,-0.3059534,0,0,0.2950373,-0.01,-0.01,-0.49,0
4894,20675667,0,2,1.09,24.82,-0.002172191,-0.0002370218,-0.4567544,-0.3071727,0,0,0.2916648,-0.01,-0.01,-0.49,0
4935,20686172,0,2.01,1.09,24.82,-0.002128265,-0.0002705315,-0.4566286,-0.3071759,0,0,0.2871028,-0.01,-0.01,-0.49,0
4976,20696140,0,2.01,1.09,24.82,-0.001792443,-0.0004566379,-0.4559847,-0.3082281,0,0,0.2841353,-0.01,-0.01,-0.49,0
5017,20705963,0,2.01,1.09,24.82,-0.001547714,-0.00072853,-0.4552471,-0.3094439,0,0,0.2811108,-0.01,-0.01,-0.49,0
5058,20718965,0,2.01,1.09,24.82,-0.001407809,-0.0006731037,-0.454982,-0.3140681,0,0,0.275771,-0.01,-0.01,-0.49,0
5098,20728708,0,2.01,1.09,24.83,-0.001236937,-0.0006911258,-0.4546339,-0.3214287,0,0,0.2717798,-0.01,-0.01,-0.49,0
5140,20739117,0,2.01,1.09,24.83,-0.001141476,-0.0006988007,-0.4546897,-0.3299585,0,0,0.267238,-0.01,-0.01,-0.49,0
5181,20749148,0,2.01,1.09,24.83,-0.001000254,-0.0007643652,-0.4543133,-0.3392648,0,0,0.263231,-0.01,-0.01,-0.49,0
5221,20759098,0,2.01,1.09,24.83,-0.001008085,-0.0006784337,-0.4542209,-0.3491716,0,0,0.2592068,-0.01,-0.01,-0.49,0
5266,20769149,0,2,1.09,24.84,-0.0008466936,-0.0006705688,-0.4541352,-0.3590881,0,0,0.255164,-0.01,-0.01,-0.49,0
5307,20779570,0,2,1.09,24.84,-0.0006905375,-0.0004773754,-0.4538132,-0.3683205,0,0,0.2511038,-0.01,-0.01,-0.49,0
5351,20789633,0,2,1.09,24.84,-0.0009626665,-0.0003641007,-0.4538722,-0.3776027,0,0,0.2470271,-0.01,-0.01,-0.49,0
5392,20799588,0,2,1.09,24.85,-0.001101995,-0.0003757652,-0.4542212,-0.3861622,0,0,0.2424917,-0.01,-0.01,-0.49,0
5434,20809618,0,2,1.09,24.85,-0.001158015,-0.0003276896,-0.4543074,-0.3942291,0,0,0.2383953,-0.01,-0.01,-0.49,0
5472,20822057,0,2,1.09,24.86,-0.001461303,-0.0003084512,-0.4539765,-0.4014036,0,0,0.2335495,-0.01,-0.01,-0.5,0
5513,20832192,0,2,1.09,24.86,-0.001427237,-0.0003151104,-0.4536722,-0.40385,0,0,0.2300254,-0.01,-0.01,-0.5,0
5557,20842197,0,2.01,1.09,24.87,-0.00135372,-0.0003934844,-0.4533027,-0.404972,0,0,0.226463,-0.01,-0.01,-0.5,0
5598,20852739,0,2.01,1.09,24.87,-0.001501036,-0.0003609266,-0.4529399,-0.4047813,0,0,0.2224108,-0.01,-0.01,-0.5,0
5638,20862914,0,2.01,1.09,24.88,-0.001439494,-0.000476937,-0.45264,-0.4043247,0,0,0.2187779,-0.01,-0.01,-0.5,0
5683,20872858,0,2.01,1.09,24.89,-0.001425151,-0.0004508964,-0.4522389,-0.4041051,0,0,0.2151118,-0.01,-0.01,-0.5,0
5723,20883124,0,2.01,1.09,24.89,-0.001128942,-0.0005899158,-0.4522029,-0.4030608,0,0,0.2105947,-0.01,-0.01,-0.5,0
5766,20893163,0,2.01,1.09,24.9,-0.0008997296,-0.0005439319,-0.4520544,-0.4025847,0,0,0.2069017,-0.01,-0.01,-0.5,0
5806,20903177,0,2.01,1.09,24.91,-0.0007016693,-0.0007553234,-0.4515439,-0.4018107,0,0,0.2031794,-0.01,-0.01,-0.5,0
5844,20913761,0,2.01,1.09,24.92,-0.0008042073,-0.0007295552,-0.4508303,-0.4002794,0,0,0.1991122,-0.01,-0.01,-0.5,0
5883,20923758,0,2.01,1.09,24.92,-0.0004750977,-0.0006546368000000001,-0.4507252,-0.3994262,0,0,0.1954631,-0.01,-0.01,-0.5,0
5923,20933740,0,2.01,1.09,24.93,-0.0003148596,-0.0006533805,-0.4506277,-0.3991219,0,0,0.1917811,-0.01,-0.01,-0.5,0
5965,20943815,0,2,1.09,24.93,-0.000129878,-0.0006109701,-0.4508979,-0.3982085,0,0,0.1872787,-0.01,-0.01,-0.5,0
6006,20953916,0,2,1.09,24.94,-1.003696e-05,-0.0005264762,-0.4506534,-0.3972545,0,0,0.1835645,-0.01,-0.01,-0.5,0
6046,20963905,0,2,1.09,24.94,-1.99953e-06,-0.0003179892,-0.4503659,-0.3962482,0,0,0.1798212,-0.01,-0.01,-0.5,0
6091,20973827,0,2,1.09,24.95,5.224208e-05,5.01706e-06,-0.4500381,-0.3955826,0,0,0.1760503,-0.01,-0.01,-0.5,0
6131,20983834,0,2,1.09,24.95,2.859502e-05,0.0002934252,-0.4498535,-0.3954344,0,0,0.1722535,-0.01,-0.01,-0.5,0
6173,20994014,0,2,1.09,24.96,0.0002326847,0.0004895159,-0.4497963,-0.3961211,0,0,0.1684315,-0.01,-0.01,-0.5,0
6214,21003809,0,2.01,1.09,24.96,0.0002836822,0.0005668277,-0.4496926,-0.3961276,0,0,0.1639387,-0.01,-0.01,-0.5,0
6254,21013832,0,2.01,1.09,24.97,4.681408e-05,0.0007239113,-0.4486169,-0.3907737,0,0,0.1619952,-0.01,-0.01,-0.5,0
6292,21023837,0,2.01,1.09,24.97,0.0001107993,0.0008250104,-0.4477743,-0.381378,0,0,0.1599553,-0.01,-0.01,-0.5,0
6333,21033815,0,2.01,1.09,24.98,0.0002568586,0.0008090114,-0.4468403,-0.3695222,0,0,0.1578248,-0.01,-0.01,-0.5,0
6377,21043808,0,2.02,1.09,24.99,0.0003707513,0.0005832938,-0.4459851,-0.3579499,0,0,0.1556102,-0.01,-0.01,-0.5,0
6417,21054301,0,2.01,1.09,24.99,0.0004853341,0.0003110605,-0.4460696,-0.3440318,0,0,0.1511541,-0.01,-0.01,-0.5,0
6461,21066833,0,2.01,1.08,25,0.0002364907,0.0003197577,-0.4453031,-0.3285391,0,0,0.1475295,-0.01,-0.01,-0.5,0
6505,21076966,0,2.01,1.08,25.01,5.568699e-05,0.0001174695,-0.4446293,-0.316679,0,0,0.1451595,-0.01,-0.01,-0.5,0
6546,21087025,0,2.01,1.08,25.01,0.0001789631,5.20882e-05,-0.4441912,-0.3056938,0,0,0.1427084,-0.01,-0.01,-0.5,0
6588,21096833,0,2,1.08,25.02,6.109558e-05,-0.0001725705,-0.4435253,-0.2978992,0,0,0.1401881,-0.01,-0.01,-0.5,0
6628,21109555,0,2,1.08,25.02,-0.0002251662,9.390303e-05,-0.4423015,-0.2889569,0,0,0.1385081,-0.01,-0.01,-0.5,0
6666,21119564,0,2,1.08,25.03,-0.0002122139,0.0001074513,-0.4408908,-0.2774496,0,0,0.1375782,-0.01,-0.01,-0.5,0
6706,21129956,0,2,1.09,25.04,-0.000458702,5.894038e-05,-0.4394808,-0.2594483,0,0,0.1360735,-0.01,-0.01,-0.5,0
6749,21139765,0,2,1.09,25.04,-0.0004725248,0.0001107081,-0.4394644,-0.2410968,0,0,0.1316833,-0.01,-0.01,-0.5,0
6789,21149762,0,2,1.09,25.05,-0.0005943126,0.0002128357,-0.4385094,-0.2242751,0,0,0.1305096,-0.01,-0.01,-0.5,0
6830,21159796,0,2,1.09,25.05,-0.0006071112,0.0007078103,-0.4374891,-0.2105623,0,0,0.1292192,-0.01,-0.01,-0.5,0
6871,21170006,0,2.01,1.09,25.06,-0.0005222467,0.0008825202,-0.4365213,-0.1987445,0,0,0.1278109,-0.01,-0.01,-0.5,0
6916,21179791,0,2.01,1.09,25.06,-0.0006075932,0.0008812951,-0.4354084,-0.1904181,0,0,0.1262954,-0.01,-0.01,-0.5,0
6957,21190400,0,2.01,1.09,25.07,-0.0007600412,0.0009023888,-0.4351625,-0.1810572,0,0,0.1219478,-0.01,-0.01,-0.5,0
6997,21200636,0,2.02,1.09,25.07,-0.0008786689,0.0009962218000000001,-0.4338294,-0.1747971,0,0,0.1203479,-0.01,-0.01,-0.5,0
7038,21213602,0,2.02,1.09,25.08,-0.0007530127,0.00129575,-0.432116,-0.1670425,0,0,0.1185112,-0.01,-0.01,-0.5,0
7078,21223668,0,2.02,1.09,25.08,-0.000629835,0.0009230612,-0.4305458,-0.1588238,0,0,0.117833,-0.01,-0.01,-0.5,0
7119,21233769,0,2.02,1.09,25.09,-0.0005400696,0.000248151,-0.4296087,-0.1485058,0,0,0.1165812,-0.01,-0.01,-0.5,0
7162,21243730,0,2.02,1.09,25.09,-0.0005052878,0.0004450303,-0.4285387,-0.1404509,0,0,0.1156271,-0.01,-0.01,-0.5,0
7204,21253751,0,2.02,1.09,25.09,-0.0008082307,0.0008042057,-0.4274938,-0.13584,0,0,0.1145543,-0.01,-0.01,-0.5,0
7245,21263716,0,2.01,1.09,25.1,-0.0008522523,0.0007560796,-0.4272998,-0.1293217,0,0,0.110284,-0.01,-0.01,-0.5,0
7289,21273752,0,2.01,1.09,25.1,-0.0004877074,0.0006904466,-0.4261442,-0.1247855,0,0,0.1091023,-0.01,-0.01,-0.5,0
7331,21284279,0,2.01,1.09,25.11,-0.0003908484,0.0008513993,-0.4251127,-0.1211851,0,0,0.1078019,-0.01,-0.01,-0.5,0
7372,21294221,0,2.01,1.09,25.11,-0.0001021199,0.001143991,-0.4236735,-0.1193978,0,0,0.1063944,-0.01,-0.01,-0.5,0
7414,21304221,0,2.01,1.09,25.12,-0.0001785066,0.001089613,-0.4225923,-0.1213589,0,0,0.1048881,-0.01,-0.01,-0.5,0
7458,21319757,0,2.01,1.09,25.12,-0.0006449188,0.001487028,-0.4208966,-0.1191866,0,0,0.1028922,-0.01,-0.01,-0.5,0
7499,21329805,0,2.01,1.09,25.12,-0.0005679671,0.00166543,-0.4191534,-0.1107335,0,0,0.1032408,-0.01,-0.01,-0.5,0
7540,21339705,0,2.01,1.09,25.13,-0.0003300106,0.001443425,-0.4174456,-0.1011237,0,0,0.1034188,-0.01,-0.01,-0.5,0
7582,21349742,0,2.01,1.08,25.13,-0.0004117933,0.001583163,-0.415881,-0.09400256999999999,0,0,0.103442,-0.01,-0.01,-0.5,0
7622,21359733,0,2.01,1.08,25.13,-0.000424427,0.001644723,-0.4160655,-0.08353757000000001,0,0,0.09928674,-0.01,-0.01,-0.5,0
7663,21369685,0,2.02,1.08,25.13,-0.0003166537,0.001423798,-0.414716,-0.07437716,0,0,0.09916389,-0.01,-0.01,-0.5,0
7709,21379744,0,2.01,1.09,25.13,-0.0004827657,0.001230911,-0.4137229,-0.06601728,0,0,0.09887843,-0.01,-0.01,-0.5,0
7750,21389855,0,2.01,1.09,25.14,-0.0007117827,0.001355339,-0.4124421,-0.05993426,0,0,0.09844741999999999,-0.01,-0.01,-0.5,0
7792,21399723,0,2.01,1.09,25.14,-0.000492027,0.001336556,-0.4110096,-0.05628983,0,0,0.09787989,-0.01,-0.01,-0.5,0
7835,21412252,0,2.01,1.09,25.14,-0.000484681,0.0009659584,-0.4091154,-0.05465484,0,0,0.09725929,-0.01,-0.01,-0.5,0
7876,21424822,0,2.01,1.09,25.15,-0.0004089446,0.0009918315,-0.4073207,-0.04995054,0,0,0.09607797999999999,-0.01,-0.01,-0.48,0
7916,21434639,0,2.01,1.09,25.15,-0.0007686949,0.0009008795,-0.405372,-0.04976876,0,0,0.09597579000000001,-0.01,-0.01,-0.48,0
7957,21444676,0,2,1.09,25.15,-0.001218675,0.0009492849,-0.4052813,-0.0466824,0,0,0.09192675,-0.01,-0.01,-0.48,0
8002,21454663,0,2,1.09,25.14,-0.001243168,0.001117529,-0.4039963,-0.04487164,0,0,0.09169433,-0.01,-0.01,-0.48,0
8042,21465562,0,2.01,1.09,25.14,-0.001140258,0.001181739,-0.4030382,-0.04345654,0,0,0.09130895,-0.01,-0.01,-0.48,0
8087,21475568,0,2.01,1.09,25.14,-0.001155374,0.001249936,-0.4021612,-0.04548658,0,0,0.09038406,-0.01,-0.01,-0.48,0
8127,21485629,0,2.01,1.09,25.14,-0.001055588,0.001241108,-0.401042,-0.04874476,0,0,0.08972645999999999,-0.01,-0.01,-0.48,0
8169,21495643,0,2.01,1.09,25.14,-0.001043077,0.001522762,-0.3999526,-0.05523333,0,0,0.08894628,-0.01,-0.01,-0.48,0
8210,21505741,0,2.01,1.09,25.14,-0.0009683343000000001,0.00172053,-0.3993391,-0.05895617,0,0,0.08495402000000001,-0.01,-0.01,-0.48,0
8250,21516263,0,2.01,1.09,25.14,-0.0008980045000000001,0.001972806,-0.3978644,-0.06523921000000001,0,0,0.08407613999999999,-0.01,-0.01,-0.48,0
8285,21526692,0,2.02,1.09,25.13,-0.0008930198000000001,0.002086648,-0.3955544,-0.06688221,0,0,0.08485486,-0.01,-0.01,-0.47,0
8326,21536798,0,2.02,1.09,25.12,-0.0006495715,0.002127222,-0.3933145,-0.06133299,0,0,0.08583230999999999,-0.01,-0.01,-0.47,0
8366,21546670,0,2.02,1.09,25.12,-0.0004606843,0.001705271,-0.3915573,-0.05518971,0,0,0.08623771,-0.01,-0.01,-0.47,0
8407,21556662,0,2.02,1.09,25.11,-0.0005552215,0.001752449,-0.3900172,-0.05179113,0,0,0.08685978,-0.01,-0.01,-0.47,0
8448,21566713,0,2.02,1.09,25.11,-0.0005246826,0.001840906,-0.3902919,-0.04412763,0,0,0.0833526,-0.01,-0.01,-0.47,0
8498,21579974,0,2.02,1.09,25.11,-0.0002814413,0.001913644,-0.3874981,-0.03661326,0,0,0.08642337999999999,-0.01,-0.01,-0.47,0
8539,21589704,0,2.02,1.09,25.11,-0.0002281251,0.001763409,-0.3876379,-0.02890868,0,0,0.08255158,-0.01,-0.01,-0.47,0
8580,21599726,0,2.02,1.08,25.1,-0.0003631826,0.001682521,-0.3861987,-0.02340201,0,0,0.08268541,-0.01,-0.01,-0.47,0
8621,21609882,0,2.01,1.08,25.1,-0.0005081654,0.001752051,-0.3845388,-0.02169831,0,0,0.08267657,-0.01,-0.01,-0.47,0
8658,21619898,0,2.01,1.08,25.1,-0.0004107169,0.001967275,-0.3825229,-0.01996335,0,0,0.08396380000000001,-0.01,-0.01,-0.47,0
8699,21632195,0,2.01,1.09,25.1,-0.0007007684,0.0023676,-0.3804066,-0.01558921,0,0,0.08430232,-0.01,-0.01,-0.47,0
8741,21642201,0,2.01,1.09,25.1,-0.001111445,0.002580432,-0.3780522,-0.0114753,0,0,0.08522502999999999,-0.01,-0.01,-0.47,0
8782,21652805,0,2.01,1.09,25.1,-0.0009106987,0.002924435,-0.3761461,-0.003412597,0,0,0.08559153,-0.01,-0.01,-0.47,0
8824,21663149,0,2.01,1.09,25.1,-0.000964306,0.002786889,-0.3762325,0.00487037,0,0,0.08183306,-0.01,-0.01,-0.47,0
8865,21673125,0,2.01,1.09,25.1,-0.0009414481,0.002670193,-0.3743804,0.009635097,0,0,0.08242998,-0.01,-0.01,-0.47,0
8910,21683290,0,2.01,1.09,25.09,-0.001036331,0.002748006,-0.3729721,0.01214422,0,0,0.08285892,-0.01,-0.01,-0.47,0
8950,21693078,0,2.01,1.09,25.09,-0.0009337346,0.00286925,-0.3717591,0.01052261,0,0,0.08313381,-0.01,-0.01,-0.47,0
8991,21703144,0,2.02,1.09,25.09,-0.0008447723,0.002889232,-0.3705489,0.00739598,0,0,0.08325507,-0.01,-0.01,-0.47,0
9031,21713595,0,2.02,1.09,25.09,-0.0008390428,0.002886932,-0.3706527,0.006348502,0,0,0.07955321,-0.01,-0.01,-0.47,0
9072,21723627,0,2.02,1.09,25.09,-0.0006899838,0.002811451,-0.368699,0.006720806,0,0,0.08096671,-0.01,-0.01,-0.47,0
9110,21733609,0,2.02,1.09,25.09,-0.0006301898999999999,0.002505801,-0.3664094,0.01013857,0,0,0.08182367,-0.01,-0.01,-0.46,0
9150,21743653,0,2.02,1.09,25.09,-0.0006297697,0.002421919,-0.3645408,0.005809786,0,0,0.08325036,-0.01,-0.01,-0.46,0
9191,21753749,0,2.02,1.09,25.09,-0.0006543717,0.002583541,-0.3628621,0.007611618,0,0,0.08375823,-0.01,-0.01,-0.46,0
9231,21763752,0,2.01,1.09,25.09,-0.0006210852,0.002610298,-0.3626718,0.01215554,0,0,0.08013454,-0.01,-0.01,-0.46,0
9272,21773788,0,2.01,1.09,25.1,-0.0005296455,0.002818332,-0.3614551,0.01510331,0,0,0.08084878,-0.01,-0.01,-0.46,0
9316,21783781,0,2.01,1.09,25.1,-0.0003090852,0.003007595,-0.3599028,0.0151301,0,0,0.08140049000000001,-0.01,-0.01,-0.46,0
9358,21793682,0,2.01,1.09,25.1,-0.0003096604,0.003167823,-0.3584528,0.01387772,0,0,0.08179206999999999,-0.01,-0.01,-0.46,0
9401,21803693,0,2.01,1.09,25.1,-0.0003005706,0.003240971,-0.3572384,0.008973778,0,0,0.08203524,-0.01,-0.01,-0.46,0
9441,21813722,0,2.01,1.09,25.11,-0.000202352,0.003544139,-0.3570162,0.007096054,0,0,0.07846767,-0.01,-0.01,-0.46,0
9480,21823694,0,2.01,1.09,25.11,-0.000332156,0.003718473,-0.3556214,0.00503068,0,0,0.07895014,-0.01,-0.01,-0.46,0
9525,21873765,0,2.02,1.09,25.11,-0.0007828925,0.003717785,-0.3496306,-0.01917795,0,0,0.07592773,-0.01,-0.01,-0.45,0
9570,21883769,0,2.02,1.09,25.11,-0.0009737778000000001,0.003568216,-0.3484551,-0.02629784,0,0,0.07571761,-0.01,-0.01,-0.45,0
9611,21893760,0,2.02,1.09,25.11,-0.0009041805,0.003446229,-0.3474373,-0.03404416,0,0,0.07537586,-0.01,-0.01,-0.45,0
9652,21903723,0,2.02,1.09,25.11,-0.0005689552,0.003330552,-0.3463412,-0.04386693,0,0,0.07491452,-0.01,-0.01,-0.45,0
9692,21913710,0,2.02,1.09,25.12,-0.0003284618,0.003259182,-0.3461696,-0.05091413,0,0,0.07145571000000001,-0.01,-0.01,-0.45,0
9726,21924028,0,2.02,1.09,25.12,-8.382954e-05,0.003217213,-0.3448147,-0.05570782,0,0,0.07167067000000001,-0.01,-0.01,-0.45,0
9767,21933707,0,2.02,1.09,25.12,-0.000115788,0.003180184,-0.3436296,-0.060883,0,0,0.0717463,-0.01,-0.01,-0.44,0
9808,21943711,0,2.01,1.09,25.12,-0.0002818494,0.003199582,-0.3422275,-0.06486942,0,0,0.07168148000000001,-0.01,-0.01,-0.44,0
9849,21953743,0,2.01,1.09,25.12,-0.0004539328,0.003467029,-0.3406945,-0.07011607,0,0,0.07149095,-0.01,-0.01,-0.44,0
9890,21963716,0,2.01,1.09,25.12,-0.000400922,0.003759226,-0.340623,-0.07233133,0,0,0.06808808,-0.01,-0.01,-0.44,0
9931,21973743,0,2.01,1.09,25.12,-0.000436678,0.003904875,-0.3395936,-0.07486521,0,0,0.0677801,-0.01,-0.01,-0.44,0
9976,21983703,0,2.01,1.09,25.12,-0.0004438133,0.004091969,-0.3384302,-0.07902482,0,0,0.06735271,-0.01,-0.01,-0.44,0
10017,21993686,0,2.01,1.09,25.12,-0.0006131146,0.004192094,-0.3374664,-0.08367389,0,0,0.06680491,-0.01,-0.01,-0.44,0
10058,22003705,0,2.01,1.09,25.12,-0.0005309627,0.00439414,-0.3366646,-0.09038982,0,0,0.06614668999999999,-0.01,-0.01,-0.44,0
10098,22013763,0,2.01,1.09,25.12,-0.0004946805,0.004716056,-0.3366581,-0.09458914,0,0,0.06278332,-0.01,-0.01,-0.44,0
10136,22023815,0,2.01,1.09,25.12,-0.0003668904,0.004776452,-0.3350605,-0.09352239,0,0,0.0636225,-0.01,-0.01,-0.44,0
10176,22033717,0,2.01,1.09,25.12,-0.0003111438,0.004879069,-0.333365,-0.09105698,0,0,0.06430421,-0.01,-0.01,-0.44,0
10219,22043713,0,2.02,1.09,25.12,-8.177090999999999e-05,0.004844934,-0.3318246,-0.08678163999999999,0,0,0.06482562,-0.01,-0.01,-0.44,0
10259,22053686,0,2.02,1.09,25.11,9.594738999999999e-05,0.004906558,-0.3300395,-0.08350779999999999,0,0,0.06520252,-0.01,-0.01,-0.44,0
10301,22063723,0,2.02,1.09,25.11,1.058132e-06,0.004839404,-0.3298822,-0.07674079,0,0,0.061907,-0.01,-0.01,-0.44,0
10341,22073715,0,2.02,1.08,25.11,-7.078073999999999e-05,0.004897011,-0.3283809,-0.07041267,0,0,0.06215214,-0.01,-0.01,-0.44,0
10387,22083686,0,2.02,1.09,25.11,-0.0001022298,0.005086918,-0.3272699,-0.06697665,0,0,0.0622622,-0.01,-0.01,-0.44,0
10427,22093739,0,2.02,1.09,25.11,-0.0001004765,0.005237516,-0.3258583,-0.06417558,0,0,0.06223458,-0.01,-0.01,-0.44,0
10469,22103730,0,2.02,1.09,25.11,-0.0001322792,0.005135012,-0.3245175,-0.06429939,0,0,0.06208602,-0.01,-0.01,-0.44,0
10510,22114287,0,2.01,1.09,25.11,-0.0002683915,0.004981401,-0.3244417,-0.06258564,0,0,0.05884488,-0.01,-0.01,-0.44,0
10547,22124244,0,2.01,1.09,25.11,-0.0002895536,0.004935532,-0.3230453,-0.06168228,0,0,0.05905172,-0.01,-0.01,-0.43,0
10588,22134243,0,2.01,1.09,25.11,-0.0003615498,0.004988051,-0.3215552,-0.06050235,0,0,0.05912116,-0.01,-0.01,-0.44,0
10628,22144265,0,2.01,1.09,25.11,-0.0004724763,0.00503236,-0.3202595,-0.06143516,0,0,0.05906504,-0.01,-0.01,-0.44,0
10670,22154979,0,2.01,1.09,25.12,-0.0003866263,0.00508372,-0.3189423,-0.06036053,0,0,0.05855662,-0.01,-0.01,-0.44,0
10710,22165819,0,2.01,1.09,25.12,-0.0004262977,0.005005888,-0.3173948,-0.06160958,0,0,0.05793644,-0.01,-0.01,-0.44,0
10752,22176672,0,2.01,1.09,25.12,-0.0004851211,0.005100494,-0.3172666,-0.06200877,0,0,0.05476656,-0.01,-0.01,-0.44,0
10797,22186246,0,2.01,1.09,25.13,-0.0006196183000000001,0.005092224,-0.3163094,-0.06462935,0,0,0.05436457,-0.01,-0.01,-0.44,0
10837,22196113,0,2.01,1.09,25.13,-0.0008794825,0.005195685,-0.3148959,-0.06751144000000001,0,0,0.05384869,-0.01,-0.01,-0.44,0
10878,22206110,0,2.01,1.09,25.14,-0.0009985839,0.005276325,-0.3138951,-0.07283356000000001,0,0,0.05323109,-0.01,-0.01,-0.44,0
10924,22222222,0,2.01,1.09,25.14,-0.0010935,0.005504089,-0.3128316,-0.07954339000000001,0,0,0.05126966,-0.01,-0.01,-0.44,0
10966,22232128,0,2.01,1.09,25.15,-0.0008898328,0.00559582,-0.3118168,-0.08407183,0,0,0.05106874,-0.01,-0.01,-0.43,0
11006,22242160,0,2.01,1.09,25.15,-0.0007718983999999999,0.005474529,-0.3104713,-0.08727254,0,0,0.0507478,-0.01,-0.01,-0.43,0
11049,22252740,0,2.01,1.09,25.15,-0.0006825901,0.005431948,-0.3093801,-0.08819095,0,0,0.04999609,-0.01,-0.01,-0.43,0
11089,22262909,0,2.01,1.09,25.16,-0.0006146677,0.00553541,-0.3091383,-0.08771622,0,0,0.04690671,-0.01,-0.01,-0.43,0
11131,22272811,0,2.01,1.09,25.16,-0.000727886,0.005537084,-0.308034,-0.08806985000000001,0,0,0.04636541,-0.01,-0.01,-0.43,0
11177,22282876,0,2.01,1.09,25.16,-0.0006188924,0.005427841,-0.306917,-0.09036747000000001,0,0,0.0457248,-0.01,-0.01,-0.43,0
11217,22293719,0,2.01,1.09,25.17,-0.0004279728,0.005625684,-0.3057415,-0.09229236,0,0,0.04467345,-0.01,-0.01,-0.43,0
11260,22303720,0,2.01,1.09,25.17,-0.0003807331,0.005637191,-0.3050735,-0.09562178,0,0,0.04382999,-0.01,-0.01,-0.44,0
11300,22313811,0,2.01,1.09,25.17,-0.0004270308,0.005547659,-0.304234,-0.1008434,0,0,0.04289718,-0.01,-0.01,-0.43,0
11342,22323913,0,2.01,1.09,25.17,-0.000430845,0.005553332,-0.3040886,-0.1046003,0,0,0.03985915,-0.01,-0.01,-0.43,0
11379,22334283,0,2.01,1.09,25.17,-0.000606812,0.005730282,-0.3021788,-0.1013466,0,0,0.04094047,-0.01,-0.01,-0.42,0
11420,22344253,0,2.01,1.09,25.17,-0.0007379304,0.005669698,-0.300429,-0.09281581999999999,0,0,0.04185067,-0.01,-0.01,-0.42,0
11461,22354263,0,2.01,1.09,25.17,-0.0005329938,0.005606592,-0.2986391,-0.08265343,0,0,0.04260259,-0.01,-0.01,-0.42,0
11501,22364223,0,2.01,1.09,25.17,-0.0002956622,0.005440996,-0.2969986,-0.07410982000000001,0,0,0.04321294,-0.01,-0.01,-0.42,0
11543,22374257,0,2.01,1.09,25.17,-0.0003685006,0.005394766,-0.2951393,-0.06550037,0,0,0.04368111,-0.01,-0.01,-0.42,0
11588,22384571,0,2.01,1.09,25.17,-0.000540994,0.005222917,-0.2936507,-0.05442923,0,0,0.04371251,-0.01,-0.01,-0.42,0
11631,22395294,0,2.01,1.09,25.17,-0.0006051153,0.005377237,-0.2934425,-0.04431266,0,0,0.04078024,-0.01,-0.01,-0.42,0
11672,22405287,0,2.01,1.09,25.17,-0.0007161382999999999,0.00561246,-0.2920755,-0.03755814,0,0,0.04099379,-0.01,-0.01,-0.42,0
11712,22415704,0,2.01,1.09,25.17,-0.0008268341,0.005980104,-0.2911046,-0.03282733,0,0,0.04107967,-0.01,-0.01,-0.42,0
11753,22425624,0,2.01,1.09,25.17,-0.0007051374999999999,0.006056399,-0.2900515,-0.03040304,0,0,0.04117004,-0.01,-0.01,-0.42,0
11790,22436099,0,2.01,1.09,25.16,-0.0006837136,0.005821103,-0.2888933,-0.03037519,0,0,0.04142147,-0.01,-0.01,-0.42,0
11832,22446700,0,2.01,1.09,25.17,-0.0005626255,0.005893074,-0.2876556,-0.02808621,0,0,0.04096473,-0.01,-0.01,-0.43,0
11874,22456817,0,2.01,1.09,25.17,-0.0005812714,0.005957765,-0.287569,-0.02603941,0,0,0.03809256,-0.01,-0.01,-0.43,0
11915,22466706,0,2.01,1.09,25.17,-0.0005806268,0.006176874,-0.2861108,-0.02473252,0,0,0.03810178,-0.01,-0.01,-0.43,0
11957,22476762,0,2.01,1.09,25.17,-0.0005587732,0.006241551,-0.2848991,-0.02609473,0,0,0.03800103,-0.01,-0.01,-0.42,0
12002,22486828,0,2.01,1.09,25.17,-0.0005953931,0.006122845,-0.2836584,-0.02835932,0,0,0.03778636,-0.01,-0.01,-0.43,0
12043,22497226,0,2.01,1.09,25.17,-0.0006238928,0.006077516,-0.2826348,-0.03076803,0,0,0.03745814,-0.01,-0.01,-0.43,0
12083,22507188,0,2.01,1.09,25.18,-0.0006334898,0.006001722,-0.2817378,-0.03468403,0,0,0.03702415,-0.01,-0.01,-0.43,0
12127,22520256,0,2.01,1.09,25.18,-0.0005170256,0.006186325,-0.2802942,-0.0364463,0,0,0.03759893,-0.01,-0.01,-0.43,0
12169,22530826,0,2.01,1.09,25.18,-0.0003620922,0.006240956,-0.2785459,-0.03422321,0,0,0.03857857,-0.01,-0.01,-0.42,0
12209,22541748,0,2.01,1.09,25.18,-0.0003055632,0.0063188,-0.2769684,-0.0263252,0,0,0.03939151,-0.01,-0.01,-0.42,0
12247,22552128,0,2.01,1.09,25.18,-0.0001688389,0.00632706,-0.2764344,-0.0156696,0,0,0.0366273,-0.01,-0.01,-0.42,0
12287,22562077,0,2.01,1.08,25.18,-0.0001449767,0.006312767,-0.2751143,-0.00761002,0,0,0.03758757,-0.01,-0.01,-0.42,0
12328,22572069,0,2.01,1.08,25.18,-0.0001469112,0.006465612,-0.2738091,-0.0003664098,0,0,0.03839777,-0.01,-0.01,-0.42,0
12370,22582836,0,2.01,1.08,25.18,-0.0002181294,0.006605544,-0.2724591,0.003949813,0,0,0.03906957,-0.01,-0.01,-0.42,0
12417,22592937,0,2.01,1.08,25.18,-0.0001704076,0.006785332,-0.2709337,0.006949451,0,0,0.03933953,-0.01,-0.01,-0.42,0
12457,22603161,0,2.01,1.08,25.18,-0.0003008453,0.006954618,-0.2707173,0.01069118,0,0,0.0366335,-0.01,-0.01,-0.42,0
12498,22613073,0,2.01,1.08,25.18,-0.0003327539,0.006815221,-0.2695958,0.01165871,0,0,0.03706256,-0.01,-0.01,-0.42,0
12539,22623261,0,2.01,1.09,25.19,-0.0003787114,0.006775828,-0.2683476,0.01164194,0,0,0.03736119,-0.01,-0.01,-0.42,0
12576,22633418,0,2.01,1.09,25.19,-0.0004643289,0.006840131,-0.2670651,0.009425634,0,0,0.03821388,-0.01,-0.01,-0.41,0
12616,22643099,0,2.01,1.09,25.19,-0.0004784154,0.006829195,-0.2659713,0.008105146000000001,0,0,0.03891946,-0.01,-0.01,-0.41,0
12657,22653754,0,2.01,1.09,25.19,-0.0006260023,0.006939858,-0.2647836,0.01000996,0,0,0.03921487,-0.01,-0.01,-0.41,0
12698,22663735,0,2.01,1.09,25.19,-0.00056122,0.007143175,-0.2647694,0.01289961,0,0,0.03656973,-0.01,-0.01,-0.41,0
12738,22673725,0,2.01,1.09,25.19,-0.0006244719,0.007037411,-0.2633691,0.01483644,0,0,0.03700956,-0.01,-0.01,-0.42,0
12781,22683734,0,2.01,1.08,25.19,-0.0006637626,0.006980024,-0.2620255,0.01404447,0,0,0.03733125,-0.01,-0.01,-0.41,0
12826,22693732,0,2.01,1.08,25.19,-0.0006444005,0.00698769,-0.2608905,0.0119738,0,0,0.03753251,-0.01,-0.01,-0.41,0
12866,22703727,0,2.01,1.09,25.19,-0.0006569754,0.007059222,-0.2596705,0.007431768,0,0,0.037624,-0.01,-0.01,-0.41,0
12907,22713747,0,2.01,1.08,25.2,-0.00078359,0.007184658,-0.2593873,0.004675408,0,0,0.03503197,-0.01,-0.01,-0.41,0
12947,22723749,0,2.01,1.09,25.2,-0.0006160908,0.007304311,-0.2579997,0.001245748,0,0,0.03502431,-0.01,-0.01,-0.41,0
12985,22736555,0,2.01,1.09,25.2,-0.0005991898,0.007251007,-0.2566443,-0.004767981,0,0,0.03552162,-0.01,-0.01,-0.41,0
13025,22746687,0,2.01,1.09,25.2,-0.0004637109,0.007182572,-0.2552266,-0.00401358,0,0,0.03688011,-0.01,-0.01,-0.41,0
13067,22756747,0,2.01,1.09,25.2,-0.0003644205,0.007262284,-0.2541275,-0.00106652,0,0,0.03757486,-0.01,-0.01,-0.41,0
13108,22766643,0,2.01,1.09,25.2,-0.0002299035,0.007183128,-0.2525425,0.0003064373,0,0,0.03838753,-0.01,-0.01,-0.41,0
13148,22776908,0,2.01,1.09,25.21,-0.0001471443,0.007291899,-0.2522152,0.004824087,0,0,0.03586665,-0.01,-0.01,-0.41,0
13189,22787155,0,2.01,1.09,25.21,6.358133e-05,0.007460916,-0.2509675,0.008531220000000001,0,0,0.03655667,-0.01,-0.01,-0.41,0
13236,22797763,0,2.01,1.09,25.21,0.0001359503,0.007410781,-0.2495319,0.01248522,0,0,0.03710735,-0.01,-0.01,-0.41,0
13277,22807654,0,2.01,1.09,25.22,0.0003231956,0.007358514,-0.2484338,0.01445904,0,0,0.03753238,-0.01,-0.01,-0.41,0
13318,22817767,0,2.01,1.08,25.22,0.0003039999,0.007259065,-0.2467148,0.01687269,0,0,0.0375854,-0.01,-0.01,-0.41,0
13358,22828142,0,2.01,1.09,25.22,0.0005001015,0.007129489,-0.2450446,0.01795663,0,0,0.03871477,-0.01,-0.01,-0.41,0
13399,22838634,0,2.01,1.09,25.23,0.000435708,0.006960207,-0.2440567,0.02067035,0,0,0.03968769,-0.01,-0.01,-0.41,0
13439,22848696,0,2.01,1.09,25.23,0.0004341897,0.007118824,-0.242583,0.02301302,0,0,0.04028504,-0.01,-0.01,-0.41,0
13481,22859169,0,2.01,1.09,25.23,0.0005069067999999999,0.007253942,-0.2423688,0.0267189,0,0,0.03786279,-0.01,-0.01,-0.41,0
13522,22869164,0,2.01,1.09,25.24,0.0004551451,0.007291325,-0.2408232,0.02842513,0,0,0.0385919,-0.01,-0.01,-0.41,0
13562,22879167,0,2.01,1.08,25.24,0.000551638,0.007207986,-0.2396739,0.02886483,0,0,0.03919111,-0.01,-0.01,-0.41,0
13604,22889513,0,2,1.08,25.24,0.0004038016,0.007361985,-0.2380016,0.03114395,0,0,0.03965803,-0.01,-0.01,-0.41,0
13648,22899650,0,2,1.08,25.25,0.0002271236,0.007436273,-0.2365955,0.02984757,0,0,0.04001305,-0.01,-0.01,-0.41,0
13690,22909642,0,2,1.08,25.25,1.779605e-05,0.007569753,-0.2357366,0.02655744,0,0,0.0402545,-0.01,-0.01,-0.41,0
13730,22919645,0,2,1.08,25.25,-9.326549e-05,0.00740654,-0.235568,0.02454497,0,0,0.03790073,-0.01,-0.01,-0.41,0
13771,22929608,0,2,1.08,25.25,-0.0002216071,0.007155684,-0.2346147,0.01957847,0,0,0.03781242,-0.01,-0.01,-0.41,0
13809,22939928,0,2,1.08,25.25,-0.0006219776,0.00708427,-0.233204,0.01847459,0,0,0.03936159,-0.01,-0.01,-0.4,0
13849,22950730,0,2.01,1.09,25.25,-0.0006047235,0.006999518,-0.2316742,0.02077745,0,0,0.04052222,-0.01,-0.01,-0.4,0
13890,22960741,0,2.01,1.09,25.25,-0.0006793667,0.007157978,-0.2299812,0.02441439,0,0,0.0417649,-0.01,-0.01,-0.4,0
13932,22970651,0,2.01,1.09,25.25,-0.0006124768,0.007145492,-0.2285463,0.02623436,0,0,0.04287183,-0.01,-0.01,-0.4,0
13973,22980736,0,2.02,1.09,25.25,-0.0006081044,0.007256952,-0.2284415,0.03112219,0,0,0.04058995,-0.01,-0.01,-0.4,0
14014,22990695,0,2.02,1.09,25.26,-0.0005705766,0.007064347,-0.2269401,0.03559155,0,0,0.04156863,-0.01,-0.01,-0.4,0
14058,23001159,0,2.02,1.09,25.26,-0.0005283389,0.006818336,-0.225285,0.04021545,0,0,0.04240995,-0.01,-0.01,-0.41,0
14100,23011088,0,2.02,1.09,25.26,-0.0003019187,0.006798679,-0.2235413,0.04320469,0,0,0.04312783,-0.01,-0.01,-0.41,0
14140,23021145,0,2.02,1.08,25.26,-0.0003506324,0.006722053,-0.2222124,0.04266182,0,0,0.04373437,-0.01,-0.01,-0.4,0
14185,23033760,0,2.01,1.08,25.26,-0.0001070904,0.006789227,-0.2202764,0.0439478,0,0,0.04483921,-0.01,-0.01,-0.4,0
14227,23043798,0,2.01,1.09,25.26,-2.534511e-05,0.006804611,-0.2186228,0.04454421,0,0,0.04645801,-0.01,-0.01,-0.4,0
14265,23054294,0,2.01,1.09,25.26,-3.925521e-06,0.006670441,-0.2183637,0.0501525,0,0,0.04427522,-0.01,-0.01,-0.4,0
14307,23064283,0,2,1.09,25.26,0.0002398308,0.006908346,-0.216876,0.05454665,0,0,0.04576181,-0.01,-0.01,-0.4,0
14347,23074261,0,2,1.09,25.25,0.0002324575,0.007363764,-0.2154456,0.05880529,0,0,0.04709975,-0.01,-0.01,-0.4,0
14388,23084263,0,2,1.09,25.25,4.639077e-05,0.007778825,-0.2138253,0.06090566,0,0,0.04830212,-0.01,-0.01,-0.4,0
14428,23094284,0,2,1.09,25.25,0.0001668147,0.0078412,-0.2124771,0.06205722,0,0,0.0493673,-0.01,-0.01,-0.4,0
14474,23104813,0,2,1.09,25.25,0.0003522265,0.007895459000000001,-0.210989,0.06509305999999999,0,0,0.05008215,-0.01,-0.01,-0.4,0
14515,23115127,0,2,1.09,25.25,0.0002765629,0.008084813,-0.2105937,0.06801852999999999,0,0,0.04797738,-0.01,-0.01,-0.4,0
14556,23125305,0,2.01,1.08,25.25,0.0003345892,0.008272775,-0.2091832,0.06800531999999999,0,0,0.048801,-0.01,-0.01,-0.4,0
14597,23135312,0,2.01,1.08,25.25,0.0003966881,0.008114448999999999,-0.2075557,0.06681967,0,0,0.04950659,-0.01,-0.01,-0.4,0
14637,23148175,0,2.01,1.08,25.25,0.0004952024,0.00773639,-0.2059534,0.0653704,0,0,0.05093744,-0.01,-0.01,-0.39,0
14678,23158524,0,2.02,1.08,25.25,0.0005719786,0.007495349,-0.2048407,0.06524822,0,0,0.05282843,-0.01,-0.01,-0.39,0
14718,23168769,0,2.02,1.08,25.25,0.0006479323,0.007224569,-0.2047227,0.06678584999999999,0,0,0.05057837,-0.01,-0.01,-0.39,0
14759,23178734,0,2.02,1.08,25.25,0.0006166128000000001,0.00677317,-0.2031893,0.06952290999999999,0,0,0.05234377,-0.01,-0.01,-0.39,0
14800,23188864,0,2.02,1.08,25.25,0.0005766671,0.00619952,-0.2018256,0.07136606,0,0,0.05395874,-0.01,-0.01,-0.39,0
14845,23198943,0,2.02,1.08,25.25,0.0004033984,0.005874539,-0.2001923,0.06887139,0,0,0.0554463,-0.01,-0.01,-0.39,0
14887,23209622,0,2.01,1.08,25.24,8.226346e-05,0.005780213,-0.1996776,0.07093191,0,0,0.0534483,-0.01,-0.01,-0.39,0
14927,23219638,0,2.01,1.08,25.24,-7.539790000000001e-05,0.005845918,-0.1983353,0.07154708999999999,0,0,0.05481145,-0.01,-0.01,-0.39,0
14968,23229526,0,2,1.08,25.24,-0.0004444928,0.006027497,-0.1967776,0.07235715,0,0,0.05603402,-0.01,-0.01,-0.39,0
15008,23239615,0,2,1.08,25.24,-0.0004782353,0.006296406,-0.1953622,0.07100455,0,0,0.05712967,-0.01,-0.01,-0.39,0
15049,23249861,0,2,1.08,25.25,-0.0006835195,0.006461123,-0.1933663,0.07561785,0,0,0.06006002,-0.01,-0.01,-0.39,0
15087,23260158,0,2,1.08,25.25,-0.0008107536,0.006653984,-0.1916262,0.08605692,0,0,0.06296738,-0.01,-0.01,-0.38,0
15127,23270136,0,2,1.08,25.24,-0.0008404318,0.006993962,-0.1902181,0.09760338,0,0,0.06567795,-0.01,-0.01,-0.38,0
15168,23280682,0,2.01,1.08,25.24,-0.0008504586,0.007532813,-0.1891253,0.1140042,0,0,0.06799731000000001,-0.01,-0.01,-0.38,0
15210,23291169,0,2.01,1.09,25.24,-0.0007375395,0.007737671,-0.1889402,0.1303836,0,0,0.06611022,-0.01,-0.01,-0.38,0
15256,23301660,0,2.02,1.09,25.24,-0.0004182235,0.00764455,-0.1871582,0.1426796,0,0,0.06846405999999999,-0.01,-0.01,-0.38,0
15296,23311758,0,2.02,1.09,25.24,-0.0001566347,0.007479616,-0.1853369,0.1520633,0,0,0.07046957,-0.01,-0.01,-0.38,0
15338,23321720,0,2.03,1.09,25.24,7.169344e-05,0.006977966,-0.1835596,0.1583441,0,0,0.07249675999999999,-0.01,-0.01,-0.38,0
15381,23334422,0,2.03,1.09,25.24,0.0005325671,0.006677672,-0.1809269,0.1645191,0,0,0.07615411,-0.01,-0.01,-0.38,0
15422,23344185,0,2.03,1.09,25.24,0.0009446846,0.006756071,-0.178284,0.1736393,0,0,0.07994196000000001,-0.01,-0.01,-0.37,0
15464,23355022,0,2.02,1.09,25.23,0.001159763,0.006843047,-0.1760227,0.1907804,0,0,0.08331784,-0.01,-0.01,-0.37,0
15501,23365717,0,2.02,1.09,25.23,0.001300973,0.00650834,-0.1739383,0.2101347,0,0,0.08630395,-0.01,-0.01,-0.37,0
15542,23376152,0,2.01,1.09,25.23,0.001577034,0.006346246,-0.1738119,0.2256781,0,0,0.08456749,-0.01,-0.01,-0.37,0
15584,23386055,0,2,1.09,25.22,0.001640286,0.006601277,-0.1721264,0.2364804,0,0,0.08772379,-0.01,-0.01,-0.37,0
15624,23396233,0,2,1.09,25.22,0.00149557,0.006967448,-0.1709019,0.2443611,0,0,0.09067823999999999,-0.01,-0.01,-0.37,0
15671,23405966,0,2,1.09,25.22,0.001297475,0.007166225,-0.1691607,0.2478431,0,0,0.0934497,-0.01,-0.01,-0.37,0
15711,23416186,0,1.99,1.08,25.22,0.001162341,0.007247971,-0.1673021,0.249215,0,0,0.09603911,-0.01,-0.01,-0.37,0
15753,23426729,0,2,1.08,25.22,0.0009582782,0.007595923,-0.1656016,0.2516457,0,0,0.09828028,-0.01,-0.01,-0.37,0
15795,23436710,0,2,1.08,25.22,0.0004563276,0.007666693,-0.1651068,0.2536025,0,0,0.09662814,-0.01,-0.01,-0.37,0
15839,23449609,0,2,1.08,25.22,0.0001036562,0.00770617,-0.1614043,0.255081,0,0,0.1042946,-0.01,-0.01,-0.37,0
15880,23460153,0,2,1.08,25.21,-5.510228e-05,0.007841845,-0.1611196,0.2602013,0,0,0.102684,-0.01,-0.01,-0.37,0
15921,23470747,0,2.01,1.08,25.21,-0.0002971123,0.007709986,-0.159058,0.2620021,0,0,0.1055085,-0.01,-0.01,-0.37,0
15962,23480729,0,2.01,1.09,25.21,-0.0004715985,0.007442575,-0.1573727,0.2604611,0,0,0.1083175,-0.01,-0.01,-0.37,0
16002,23490737,0,2.02,1.09,25.21,-0.0003559821,0.007111268,-0.1560711,0.2573483,0,0,0.1109436,-0.01,-0.01,-0.37,0
16043,23500771,0,2.02,1.09,25.21,-0.000356973,0.006636091,-0.1544509,0.2509942,0,0,0.1134046,-0.01,-0.01,-0.37,0
16088,23511212,0,2.01,1.09,25.21,-0.0002729823,0.006278912,-0.1539255,0.2476875,0,0,0.111865,-0.01,-0.01,-0.37,0
16129,23521277,0,2.01,1.09,25.21,-0.000200165,0.006059311,-0.1520723,0.2416475,0,0,0.1141876,-0.01,-0.01,-0.37,0
16170,23531278,0,2.01,1.09,25.21,0.000148787,0.005936238,-0.1503382,0.2346074,0,0,0.1163509,-0.01,-0.01,-0.37,0
16210,23541254,0,2,1.09,25.21,0.0002385587,0.005876931,-0.1489019,0.2245652,0,0,0.1183693,-0.01,-0.01,-0.37,0
16255,23556679,0,1.99,1.09,25.21,0.0003089625,0.006068859,-0.1466337,0.2147132,0,0,0.1206757,-0.01,-0.01,-0.36,0
16296,23566823,0,1.99,1.09,25.2,0.0004496211,0.006459799,-0.1447446,0.2125045,0,0,0.1233859,-0.01,-0.01,-0.36,0
16338,23577706,0,1.99,1.09,25.2,0.0005365236,0.006564763,-0.1434801,0.2043736,0,0,0.1260903,-0.01,-0.01,-0.36,0
16378,23588076,0,1.99,1.09,25.2,0.0006450199999999999,0.007108215,-0.1417659,0.2014004,0,0,0.1284673,-0.01,-0.01,-0.36,0
16419,23598630,0,1.99,1.1,25.19,0.0006681955,0.007642543,-0.1419532,0.2004583,0,0,0.1270501,-0.01,-0.01,-0.36,0
16465,23608687,0,2,1.1,25.19,0.0006899614,0.00816735,-0.1405415,0.197645,0,0,0.1294246,-0.01,-0.01,-0.36,0
16506,23619070,0,2,1.09,25.19,0.0008994279,0.008316107999999999,-0.1389702,0.1927187,0,0,0.1315096,-0.01,-0.01,-0.36,0
16548,23629096,0,2.01,1.09,25.19,0.0009820896,0.008245862,-0.1375087,0.1876988,0,0,0.1335808,-0.01,-0.01,-0.36,0
16591,23639587,0,2.01,1.09,25.2,0.0008892238,0.008120301,-0.1360298,0.1834104,0,0,0.1354978,-0.01,-0.01,-0.36,0
16631,23654742,0,2.02,1.09,25.2,0.0009743376999999999,0.007944781999999999,-0.1334604,0.1809776,0,0,0.1377001,-0.01,-0.01,-0.36,0
16672,23664755,0,2.02,1.09,25.2,0.001073277,0.007676053,-0.1315177,0.1830893,0,0,0.1405262,-0.01,-0.01,-0.36,0
16714,23675308,0,2.02,1.08,25.2,0.001039676,0.007321028,-0.1300179,0.1828448,0,0,0.1431913,-0.01,-0.01,-0.36,0
16754,23685776,0,2.02,1.08,25.19,0.0009338449,0.00718105,-0.1297391,0.1824556,0,0,0.1418936,-0.01,-0.01,-0.36,0
16795,23695690,0,2.02,1.08,25.19,0.0006809701,0.00702299,-0.1287907,0.1803588,0,0,0.1444286,-0.01,-0.01,-0.36,0
16835,23705306,0,2.01,1.08,25.19,0.0005566698,0.006690781,-0.1274813,0.1788029,0,0,0.1467976,-0.01,-0.01,-0.36,0
16881,23715306,0,2.01,1.09,25.19,0.0007338615,0.006681894,-0.1263128,0.1750187,0,0,0.1490179,-0.01,-0.01,-0.36,0
16921,23725760,0,2,1.09,25.19,0.0003215005,0.006852624,-0.1249383,0.1701683,0,0,0.1509685,-0.01,-0.01,-0.36,0
16962,23736510,0,2,1.09,25.19,0.000150363,0.006984324,-0.1248135,0.1677222,0,0,0.1497216,-0.01,-0.01,-0.36,0
17003,23746213,0,2,1.09,25.19,6.065426e-05,0.007211005,-0.1229648,0.1641062,0,0,0.1516755,-0.01,-0.01,-0.36,0
17037,23756672,0,2,1.09,25.19,-0.0003802894,0.007527987,-0.1209961,0.1602515,0,0,0.1535272,-0.01,-0.01,-0.35,0
17077,23766786,0,2,1.09,25.19,-0.0003942549,0.007815136,-0.1196869,0.1571853,0,0,0.1553572,-0.01,-0.01,-0.35,0
17118,23776676,0,2.01,1.09,25.19,-1.302268e-05,0.007816457000000001,-0.1185356,0.1530172,0,0,0.1570556,-0.01,-0.01,-0.35,0
17162,23786921,0,2.01,1.09,25.19,9.823145000000001e-05,0.007753791,-0.1174,0.1463886,0,0,0.1586334,-0.01,-0.01,-0.35,0
17202,23797664,0,2.02,1.09,25.19,-1.680117e-05,0.007789206,-0.1171449,0.1418125,0,0,0.1574621,-0.01,-0.01,-0.35,0
17243,23807757,0,2.02,1.09,25.19,0.0001770643,0.008035428000000001,-0.1162128,0.1353088,0,0,0.1589335,-0.01,-0.01,-0.35,0
17288,23817398,0,2.02,1.09,25.19,0.0002708972,0.007749417,-0.1154807,0.128203,0,0,0.1602839,-0.01,-0.01,-0.35,0
17329,23827704,0,2.02,1.09,25.19,0.0004475382,0.007366468,-0.1145669,0.1196572,0,0,0.1615262,-0.01,-0.01,-0.35,0
17370,23837638,0,2.02,1.09,25.19,0.0006114761,0.00746518,-0.1132614,0.1113697,0,0,0.1626595,-0.01,-0.01,-0.35,0
17412,23847690,0,2.02,1.09,25.19,0.0007785023,0.007773294,-0.1123607,0.1053232,0,0,0.1615321,-0.01,-0.01,-0.35,0
17454,23857603,0,2.02,1.09,25.19,0.0009376809,0.007571266,-0.111137,0.1005612,0,0,0.1636098,-0.01,-0.01,-0.35,0
17494,23867775,0,2.01,1.1,25.19,0.001083255,0.007483001,-0.1095295,0.09851799,0,0,0.1654363,-0.01,-0.01,-0.35,0
17536,23877755,0,2.01,1.1,25.19,0.001148425,0.007615148,-0.1082227,0.0989028,0,0,0.1672342,-0.01,-0.01,-0.35,0
17577,23887762,0,2,1.1,25.19,0.0009151652,0.007826270999999999,-0.1069465,0.09926593,0,0,0.1689051,-0.01,-0.01,-0.35,0
17618,23898001,0,2,1.1,25.19,0.001096989,0.008020815000000001,-0.1057164,0.09779094000000001,0,0,0.1704614,-0.01,-0.01,-0.35,0
17659,23908613,0,2,1.1,25.19,0.001291291,0.008407067000000001,-0.1056535,0.09817494,0,0,0.1694049,-0.01,-0.01,-0.35,0
17703,23918603,0,2,1.09,25.19,0.001184024,0.008775651000000001,-0.1046355,0.09706689,0,0,0.1708587,-0.01,-0.01,-0.35,0
17744,23928649,0,2.01,1.09,25.19,0.0009379319,0.00905482,-0.1035306,0.09554493,0,0,0.172198,-0.01,-0.01,-0.35,0
17785,23938372,0,2.01,1.09,25.19,0.001002667,0.008820788,-0.1024232,0.09226357,0,0,0.1734362,-0.01,-0.01,-0.35,0
17833,23953997,0,2.02,1.09,25.19,0.0007042626,0.008752876,-0.1004287,0.09074541999999999,0,0,0.1752672,-0.01,-0.01,-0.35,0
17873,23964211,0,2.02,1.09,25.19,0.0005935085,0.008512818,-0.09871582,0.091666,0,0,0.1775713,-0.01,-0.01,-0.34,0
17915,23974743,0,2.02,1.09,25.19,0.0008297642,0.008355601000000001,-0.09719074,0.09416259,0,0,0.1796421,-0.01,-0.01,-0.34,0
17956,23985006,0,2.02,1.09,25.19,0.0007055357,0.008167957,-0.09682533,0.09978301000000001,0,0,0.1786736,-0.01,-0.01,-0.34,0
17997,23994995,0,2.02,1.09,25.19,0.0004442585,0.007735121,-0.09581808999999999,0.1040338,0,0,0.1807233,-0.01,-0.01,-0.34,0
18038,24005700,0,2.02,1.09,25.19,0.0008553475,0.007527912,-0.09429506999999999,0.1080395,0,0,0.182551,-0.01,-0.01,-0.34,0
18082,24015983,0,2.01,1.09,25.19,0.001058774,0.007270743,-0.09329902,0.1095378,0,0,0.1843538,-0.01,-0.01,-0.34,0
18124,24026676,0,2.01,1.09,25.19,0.001099302,0.007220681,-0.09198497,0.1106348,0,0,0.1859472,-0.01,-0.01,-0.34,0
18164,24037176,0,2,1.09,25.19,0.001284023,0.007368514,-0.09190167,0.1126805,0,0,0.1850284,-0.01,-0.01,-0.34,0
18207,24047313,0,2,1.09,25.19,0.001128832,0.007378153,-0.09104282,0.1129394,0,0,0.1866108,-0.01,-0.01,-0.34,0
18247,24057149,0,1.99,1.09,25.2,0.001141598,0.007519255,-0.08954903,0.1131823,0,0,0.1880791,-0.01,-0.01,-0.34,0
18287,24067619,0,1.99,1.09,25.2,0.001184536,0.007800476,-0.08808937999999999,0.1130377,0,0,0.1905306,-0.01,-0.01,-0.33,0
18328,24077912,0,1.99,1.09,25.19,0.001198977,0.007835023999999999,-0.08649055,0.1139498,0,0,0.1929276,-0.01,-0.01,-0.33,0
18369,24087829,0,2,1.09,25.19,0.001084348,0.007827224000000001,-0.08626104,0.1194279,0,0,0.1920656,-0.01,-0.01,-0.33,0
18410,24097756,0,2,1.09,25.19,0.001253248,0.007910967,-0.08492685,0.1255136,0,0,0.1943309,-0.01,-0.01,-0.33,0
18451,24107826,0,2.01,1.09,25.19,0.00134471,0.008069287,-0.08365865,0.1299704,0,0,0.1964633,-0.01,-0.01,-0.33,0
18498,24120179,0,2.01,1.09,25.18,0.001477542,0.008086964,-0.08240612999999999,0.1313042,0,0,0.1983198,-0.01,-0.01,-0.33,0
18539,24130693,0,2.02,1.09,25.18,0.00183316,0.007724952,-0.08117816999999999,0.1316937,0,0,0.2001388,-0.01,-0.01,-0.33,0
18580,24140710,0,2.02,1.09,25.18,0.001722723,0.007726353,-0.0809286,0.1340313,0,0,0.1994101,-0.01,-0.01,-0.33,0
18621,24150743,0,2.02,1.09,25.18,0.001840248,0.007725506,-0.07959431,0.1357036,0,0,0.2011178,-0.01,-0.01,-0.33,0
18662,24160697,0,2.02,1.09,25.18,0.002082329,0.007477892,-0.07830951,0.1356177,0,0,0.202798,-0.01,-0.01,-0.33,0
18699,24174135,0,2.02,1.09,25.17,0.002154783,0.007081152,-0.07645420999999999,0.1373321,0,0,0.205575,-0.01,-0.01,-0.32,0
18740,24184021,0,2.01,1.08,25.17,0.001939331,0.007053935,-0.07475861,0.14063,0,0,0.2084308,-0.01,-0.01,-0.32,0
18782,24194381,0,2,1.08,25.17,0.001705405,0.006876727,-0.07325444,0.1456388,0,0,0.2110549,-0.01,-0.01,-0.32,0
18822,24204955,0,2,1.09,25.17,0.001710501,0.00694277,-0.07308181,0.1534641,0,0,0.2103243,-0.01,-0.01,-0.32,0
18864,24215075,0,1.99,1.09,25.16,0.001498188,0.0071014,-0.0716058,0.1601116,0,0,0.2128951,-0.01,-0.01,-0.32,0
18908,24225062,0,1.99,1.09,25.16,0.001063747,0.007417674,-0.07051072,0.1659593,0,0,0.2153165,-0.01,-0.01,-0.32,0
18949,24235784,0,1.99,1.09,25.16,0.0008056841,0.007573657,-0.06949518,0.1728055,0,0,0.2175148,-0.01,-0.01,-0.32,0
18990,24245581,0,1.99,1.09,25.16,0.0006326199,0.007810333,-0.06830303,0.177273,0,0,0.2196461,-0.01,-0.01,-0.32,0
19032,24258254,0,1.99,1.09,25.16,0.0002954873,0.007868724000000001,-0.06631292,0.1813115,0,0,0.2226721,-0.01,-0.01,-0.32,0
19071,24267988,0,2,1.09,25.16,0.000352739,0.00798826,-0.06470243000000001,0.1856213,0,0,0.2256058,-0.01,-0.01,-0.32,0
19113,24278782,0,2,1.09,25.16,0.0007334659,0.007709698,-0.06328836,0.1931543,0,0,0.2283722,-0.01,-0.01,-0.32,0
19155,24289172,0,2.01,1.09,25.16,0.0009097525,0.007616514,-0.06278160000000001,0.2018651,0,0,0.2277428,-0.01,-0.01,-0.32,0
19196,24299167,0,2.01,1.09,25.16,0.001003685,0.007539785,-0.06154788,0.2075582,0,0,0.2304413,-0.01,-0.01,-0.32,0
19236,24309263,0,2.02,1.09,25.16,0.00124891,0.007068817,-0.06020293,0.2120712,0,0,0.2329904,-0.01,-0.01,-0.32,0
19277,24319157,0,2.02,1.09,25.16,0.001263556,0.006733386,-0.05914041,0.2147116,0,0,0.235401,-0.01,-0.01,-0.32,0
19321,24329174,0,2.01,1.09,25.16,0.00134867,0.006251745,-0.05784532,0.2143733,0,0,0.237676,-0.01,-0.01,-0.32,0
19363,24339645,0,2.01,1.09,25.16,0.001633515,0.006126186,-0.05732654,0.2155407,0,0,0.2371009,-0.01,-0.01,-0.32,0
19403,24349629,0,2.01,1.09,25.16,0.001888761,0.005900721,-0.05584857,0.2142204,0,0,0.239268,-0.01,-0.01,-0.32,0
19444,24359813,0,2,1.09,25.16,0.001745076,0.005958781,-0.05460419,0.2115244,0,0,0.2413099,-0.01,-0.01,-0.32,0
19485,24372565,0,1.99,1.09,25.15,0.001778835,0.006258724,-0.05263142,0.2105101,0,0,0.2451387,-0.01,-0.01,-0.31,0
19526,24382388,0,1.99,1.09,25.15,0.001681761,0.006475402,-0.05065871,0.2131299,0,0,0.2489412,-0.01,-0.01,-0.31,0
19569,24392744,0,1.99,1.09,25.15,0.001561147,0.006854339,-0.04993768,0.21865,0,0,0.2484389,-0.01,-0.01,-0.31,0
19609,24402349,0,1.99,1.09,25.14,0.001598541,0.00723685,-0.04811991,0.2246024,0,0,0.2521044,-0.01,-0.01,-0.31,0
19651,24412594,0,1.99,1.09,25.14,0.001491517,0.007612624,-0.04654095,0.2315757,0,0,0.2555856,-0.01,-0.01,-0.31,0
19696,24422917,0,1.99,1.09,25.14,0.001238021,0.007673417,-0.04503374,0.2412235,0,0,0.2588361,-0.01,-0.01,-0.31,0
19737,24433711,0,2,1.09,25.14,0.000993627,0.007662251,-0.04364987,0.2509904,0,0,0.2619128,-0.01,-0.01,-0.31,0
19778,24443618,0,2,1.09,25.13,0.0009799752,0.007620118,-0.04235206,0.2572786,0,0,0.2648756,-0.01,-0.01,-0.31,0
19821,24453753,0,2.01,1.09,25.13,0.0007860117,0.007279126,-0.04221188,0.2595639,0,0,0.264496,-0.01,-0.01,-0.31,0
19862,24463692,0,2.01,1.09,25.13,0.0009124603,0.006965654,-0.04087489,0.2605185,0,0,0.2673414,-0.01,-0.01,-0.31,0
19899,24473970,0,2.01,1.09,25.13,0.0009513414,0.006564639,-0.03923844,0.2611629,0,0,0.270953,-0.01,-0.01,-0.31,0
19940,24483927,0,2.02,1.09,25.13,0.0009656586,0.006385822,-0.03740459,0.2635177,0,0,0.2744277,-0.01,-0.01,-0.31,0
19981,24494323,0,2.02,1.09,25.13,0.0006514630999999999,0.00600767,-0.03607845,0.2672138,0,0,0.2777251,-0.01,-0.01,-0.31,0
20021,24504346,0,2.01,1.09,25.13,0.0007800207,0.005623071,-0.03405617,0.2705425,0,0,0.2808612,-0.01,-0.01,-0.31,0
20062,24514720,0,2.01,1.09,25.13,0.0009986909999999999,0.005327922,-0.03255956,0.2750206,0,0,0.2838029,-0.01,-0.01,-0.31,0
20108,24525123,0,2,1.09,25.14,0.0009988369,0.005171279,-0.03176308,0.2793416,0,0,0.2834815,-0.01,-0.01,-0.31,0
20149,24535919,0,2,1.09,25.14,0.0007398335,0.005180328,-0.0304591,0.2794561,0,0,0.2863025,-0.01,-0.01,-0.31,0
20189,24545679,0,2,1.09,25.14,0.0009237393,0.00515929,-0.029391,0.2765791,0,0,0.2890194,-0.01,-0.01,-0.31,0
20230,24555660,0,1.99,1.09,25.14,0.0009577198000000001,0.005361953,-0.02826934,0.2724395,0,0,0.2915982,-0.01,-0.01,-0.31,0
20271,24565748,0,1.99,1.09,25.14,0.0006361594,0.005610585,-0.02811123,0.2654158,0,0,0.2913165,-0.01,-0.01,-0.31,0
20310,24576655,0,1.99,1.09,25.14,0.0006592876,0.005670991,-0.02679128,0.2606089,0,0,0.2944173,-0.01,-0.01,-0.3,0
20350,24586692,0,2,1.09,25.14,0.0009858281,0.005813952,-0.02555387,0.2579286,0,0,0.2973557,-0.01,-0.01,-0.3,0
20391,24596608,0,2,1.09,25.14,0.0009524119,0.005881989,-0.02404894,0.2554456,0,0,0.3001482,-0.01,-0.01,-0.3,0
20431,24606647,0,2,1.09,25.14,0.001001094,0.006310175,-0.02254526,0.2510754,0,0,0.3028121,-0.01,-0.01,-0.3,0
20473,24616799,0,2,1.09,25.14,0.00125332,0.006343911,-0.02129083,0.2451175,0,0,0.3053302,-0.01,-0.01,-0.3,0
20520,24626824,0,2.01,1.09,25.14,0.001099156,0.006377406,-0.02098722,0.241345,0,0,0.3051192,-0.01,-0.01,-0.3,0
20562,24637307,0,2.01,1.09,25.14,0.001342786,0.006207865,-0.01970965,0.2361764,0,0,0.3075507,-0.01,-0.01,-0.3,0
20603,24647216,0,2.01,1.09,25.14,0.001505598,0.006084277,-0.01893582,0.2301787,0,0,0.3098579,-0.01,-0.01,-0.3,0
20643,24657236,0,2.01,1.09,25.14,0.001672441,0.006028505,-0.01792405,0.2227916,0,0,0.3120505,-0.01,-0.01,-0.3,0
20684,24667271,0,2.01,1.08,25.14,0.001667293,0.005869783,-0.01741971,0.2153609,0,0,0.311875,-0.01,-0.01,-0.3,0
20724,24677827,0,2,1.08,25.14,0.001525836,0.005954629,-0.01595756,0.2090369,0,0,0.3147099,-0.01,-0.01,-0.3,0
20765,24687955,0,2,1.08,25.13,0.001356393,0.005832168,-0.01488404,0.2042392,0,0,0.3174286,-0.01,-0.01,-0.3,0
20806,24697771,0,2,1.08,25.13,0.00112315,0.005784477,-0.01368013,0.2009748,0,0,0.320011,-0.01,-0.01,-0.3,0
20847,24707750,0,2,1.08,25.12,0.0007773295,0.005683833,-0.0127221,0.196733,0,0,0.3224728,-0.01,-0.01,-0.3,0
20888,24718188,0,2,1.09,25.12,0.0008281984,0.006119275,-0.01217219,0.1958258,0,0,0.322349,-0.01,-0.01,-0.3,0
20932,24728206,0,2,1.08,25.11,0.0007382481,0.006118709,-0.01098639,0.1937138,0,0,0.3247055,-0.01,-0.01,-0.3,0
20975,24738716,0,2,1.08,25.11,0.0007817945,0.006316419,-0.009757297999999999,0.1904304,0,0,0.3269415,-0.01,-0.01,-0.3,0
21015,24748776,0,2,1.08,25.11,0.0007252397,0.006417945,-0.008948734999999999,0.1869645,0,0,0.329073,-0.01,-0.01,-0.3,0
21056,24758781,0,2,1.09,25.11,0.0006661308,0.006580475,-0.00775094,0.1824372,0,0,0.3311032,-0.01,-0.01,-0.3,0
21098,24769092,0,2,1.08,25.11,0.0006734026,0.006547359,-0.007194272,0.1797556,0,0,0.3310286,-0.01,-0.01,-0.3,0
21139,24780127,0,2,1.09,25.11,0.000648042,0.006364827,-0.006098717,0.1756112,0,0,0.333074,-0.01,-0.01,-0.29,0
21181,24790121,0,2,1.09,25.11,0.0008274963,0.006306416,-0.005138945,0.172701,0,0,0.3350149,-0.01,-0.01,-0.29,0
21221,24800091,0,2,1.09,25.11,0.001154792,0.006188517,-0.004013603,0.1669468,0,0,0.3368769,-0.01,-0.01,-0.29,0
21262,24810706,0,2,1.09,25.11,0.001149003,0.005839656,-0.002788355,0.1615686,0,0,0.3386467,-0.01,-0.01,-0.29,0
21303,24820778,0,2,1.09,25.1,0.001430771,0.005655205,-0.002143636,0.1571753,0,0,0.3386195,-0.01,-0.01,-0.29,0
21350,24831325,0,2,1.09,25.1,0.001637331,0.00548133,-0.001312962,0.1518223,0,0,0.3403198,-0.01,-0.01,-0.29,0
21392,24841811,0,2,1.09,25.1,0.001925799,0.005112944,-0.0003407483,0.1456392,0,0,0.341936,-0.01,-0.01,-0.29,0
21433,24851757,0,1.99,1.09,25.1,0.002226938,0.005078822,0.0003945369,0.1400394,0,0,0.3434665,-0.01,-0.01,-0.29,0
21475,24861696,0,1.99,1.09,25.1,0.002208036,0.004965746,0.0008531744,0.1334623,0,0,0.3449168,-0.01,-0.01,-0.29,0
21515,24872178,0,1.99,1.09,25.1,0.002157983,0.004999687,0.001145381,0.1287193,0,0,0.3449268,-0.01,-0.01,-0.29,0
21556,24883223,0,1.99,1.09,25.1,0.002021596,0.005174632,0.002131866,0.1242203,0,0,0.3466611,-0.01,-0.01,-0.29,0
21596,24893623,0,1.99,1.09,25.09,0.002289969,0.005259632,0.002940623,0.1217235,0,0,0.3482989,-0.01,-0.01,-0.29,0
21637,24903935,0,1.99,1.08,25.09,0.002344272,0.005402262,0.003922415,0.1200536,0,0,0.3498474,-0.01,-0.01,-0.29,0
21677,24913928,0,1.99,1.08,25.09,0.002324328,0.005540133,0.004916234,0.1184112,0,0,0.3513135,-0.01,-0.01,-0.29,0
21719,24923831,0,1.99,1.08,25.09,0.002207074,0.005799983,0.005693005,0.1162034,0,0,0.3527036,-0.01,-0.01,-0.29,0
21766,24933950,0,2,1.08,25.09,0.0023903,0.00583753,0.006550682,0.1130229,0,0,0.3540263,-0.01,-0.01,-0.29,0
21806,24944284,0,2,1.08,25.09,0.002283574,0.005573646,0.007061811,0.1108747,0,0,0.3540948,-0.01,-0.01,-0.29,0
21847,24954252,0,2,1.08,25.1,0.002091549,0.005485788,0.00768493,0.1076818,0,0,0.3553617,-0.01,-0.01,-0.29,0
21888,24964253,0,2,1.08,25.1,0.002120806,0.005695934,0.008766917000000001,0.1047849,0,0,0.356561,-0.01,-0.01,-0.29,0
21932,24977189,0,2,1.08,25.1,0.001925987,0.005622874,0.009798136000000001,0.1015441,0,0,0.3583723,-0.01,-0.01,-0.29,0
21972,24987292,0,2,1.08,25.1,0.001974871,0.005424066,0.01092293,0.1003647,0,0,0.3600778,-0.01,-0.01,-0.28,0
22013,24997158,0,2,1.08,25.1,0.002010728,0.00553102,0.01201147,0.1002604,0,0,0.3617014,-0.01,-0.01,-0.28,0
22053,25007786,0,2,1.08,25.09,0.002000513,0.005598904,0.01308363,0.1020066,0,0,0.3632537,-0.01,-0.01,-0.28,0
22095,25018052,0,2,1.08,25.09,0.002004653,0.005108217,0.01352687,0.1042544,0,0,0.3633862,-0.01,-0.01,-0.28,0
22136,25028040,0,1.99,1.08,25.09,0.002132521,0.004829417,0.01464807,0.1057896,0,0,0.3648672,-0.01,-0.01,-0.28,0
22181,25038085,0,1.99,1.08,25.09,0.002297152,0.004805362,0.01584426,0.1070099,0,0,0.3662796,-0.01,-0.01,-0.28,0
22224,25048633,0,1.99,1.08,25.08,0.002543333,0.004805848,0.01705571,0.1071688,0,0,0.3676323,-0.01,-0.01,-0.28,0
22264,25058680,0,1.99,1.08,25.08,0.002607168,0.004769099,0.01778773,0.1064745,0,0,0.3689231,-0.01,-0.01,-0.28,0
22305,25068962,0,1.99,1.08,25.08,0.002711478,0.004490898,0.01887477,0.1063266,0,0,0.3708256,-0.01,-0.01,-0.28,0
22346,25080181,0,1.99,1.09,25.08,0.002699809,0.004488584,0.01950843,0.1085812,0,0,0.3726367,-0.01,-0.01,-0.28,0
22387,25091123,0,2,1.09,25.09,0.003176032,0.004673435,0.02030217,0.1125155,0,0,0.3743605,-0.01,-0.01,-0.28,0
22428,25101626,0,2,1.09,25.09,0.00339199,0.004720007,0.02043564,0.1165061,0,0,0.3745642,-0.01,-0.01,-0.28,0
22468,25111660,0,2,1.09,25.09,0.00351356,0.004641809,0.02147105,0.1197375,0,0,0.3762031,-0.01,-0.01,-0.28,0
22510,25121765,0,2,1.09,25.09,0.003673163,0.004657081,0.02266411,0.1222248,0,0,0.3777976,-0.01,-0.01,-0.28,0
22550,25132167,0,2.01,1.09,25.09,0.003727765,0.004525085,0.02324506,0.122746,0,0,0.3793043,-0.01,-0.01,-0.28,0
22596,25142212,0,2.01,1.08,25.09,0.003653467,0.004564689,0.02423798,0.1232352,0,0,0.3807425,-0.01,-0.01,-0.28,0
22636,25152812,0,2,1.09,25.09,0.003647051,0.004553345,0.02519927,0.124121,0,0,0.3821365,-0.01,-0.01,-0.28,0
22678,25162909,0,2,1.09,25.09,0.003724742,0.004871276,0.02553147,0.1246167,0,0,0.3823904,-0.01,-0.01,-0.28,0
22719,25173220,0,2,1.09,25.09,0.003747191,0.004928482,0.02611502,0.1238117,0,0,0.3837117,-0.01,-0.01,-0.28,0
22756,25183759,0,2,1.09,25.09,0.003831984,0.004853452,0.02740402,0.1259852,0,0,0.3861135,-0.01,-0.01,-0.28,0
22796,25194063,0,2,1.09,25.09,0.003753533,0.004920316,0.0283401,0.1299171,0,0,0.3883606,-0.01,-0.01,-0.28,0
22836,25203965,0,1.99,1.09,25.08,0.003810338,0.004849812,0.02939687,0.1349075,0,0,0.3905112,-0.01,-0.01,-0.28,0
22878,25213973,0,1.99,1.09,25.08,0.003783788,0.004774475,0.03020954,0.1406015,0,0,0.3925659,-0.01,-0.01,-0.28,0
22918,25223958,0,1.99,1.09,25.08,0.003920123,0.004793484,0.03121497,0.1458954,0,0,0.3945347,-0.01,-0.01,-0.28,0
22959,25234275,0,1.99,1.09,25.08,0.004091775,0.004890912,0.03169287,0.1518704,0,0,0.394849,-0.01,-0.01,-0.28,0
23004,25244283,0,1.99,1.09,25.08,0.003819836,0.004791696,0.03251946,0.1559571,0,0,0.3967513,-0.01,-0.01,-0.28,0
