LineNo,TimeUS,C,Roll,Pitch,Yaw,VN,VE,VD,dPD,PN,PE,PD,GX,GY,GZ,OH
303,1.9491e+07,0,1.99,1.11,24.49,-0.0033826,-0.0030365,-0.012719,-0.023571,0,0,0.64075,-0.01,-0.01,-0.53,0
647,1.9556e+07,0,2,1.11,24.51,-0.0037389,-0.0037646,-0.011169,-0.0084279,0,0,0.64166,-0.01,-0.01,-0.52,0
874,1.9602e+07,0,1.99,1.11,24.53,-0.003866,-0.0038299,-0.010213,0.021084,0,0,0.64398,-0.01,-0.01,-0.53,0
1216,1.9763e+07,0,1.99,1.11,24.58,-0.0033085,-0.0044081,-0.46584,-0.37906,0,0,0.62758,-0.01,-0.01,-0.51,0
1492,1.9834e+07,0,1.99,1.11,24.61,-0.0036561,-0.0038028,-0.49322,-0.40643,0,0,0.59907,-0.01,-0.01,-0.49,0
1587,1.9856e+07,0,1.99,1.11,24.61,-0.003705,-0.0037307,-0.4913,-0.39591,0,0,0.59208,-0.01,-0.01,-0.49,0
1627,1.9866e+07,0,2,1.11,24.62,-0.003878,-0.0036379,-0.49118,-0.38737,0,0,0.58668,-0.01,-0.01,-0.49,0
1669,1.9876e+07,0,2,1.11,24.62,-0.0039697,-0.0037148,-0.49034,-0.38111,0,0,0.58329,-0.01,-0.01,-0.49,0
1710,1.9886e+07,0,2,1.11,24.62,-0.0037789,-0.0039045,-0.48968,-0.37556,0,0,0.57986,-0.01,-0.01,-0.49,0
1750,1.9899e+07,0,2,1.11,24.62,-0.0035374,-0.0037742,-0.48882,-0.36871,0,0,0.57536,-0.01,-0.01,-0.49,0
1791,1.9909e+07,0,2,1.11,24.62,-0.0034682,-0.0036037,-0.48812,-0.36394,0,0,0.57226,-0.01,-0.01,-0.49,0
1831,1.992e+07,0,2,1.11,24.62,-0.0033266,-0.0036444,-0.48733,-0.35882,0,0,0.56863,-0.01,-0.01,-0.49,0
1873,1.993e+07,0,2,1.11,24.63,-0.0033736,-0.0037396,-0.48745,-0.3533,0,0,0.56376,-0.01,-0.01,-0.49,0
1913,1.994e+07,0,1.99,1.11,24.63,-0.0032515,-0.0035652,-0.48669,-0.34815,0,0,0.56056,-0.01,-0.01,-0.49,0
1954,1.995e+07,0,1.99,1.11,24.63,-0.0032537,-0.003445,-0.48627,-0.3448,0,0,0.5573,-0.01,-0.01,-0.49,0
1999,1.996e+07,0,1.99,1.11,24.63,-0.0029314,-0.0035482,-0.4853,-0.34164,0,0,0.55398,-0.01,-0.01,-0.49,0
2042,1.9971e+07,0,1.99,1.11,24.63,-0.0028811,-0.0036544,-0.48475,-0.33855,0,0,0.55013,-0.01,-0.01,-0.49,0
2083,1.9981e+07,0,1.99,1.11,24.63,-0.0028628,-0.0033049,-0.48427,-0.33788,0,0,0.54671,-0.01,-0.01,-0.49,0
2123,1.9991e+07,0,1.99,1.11,24.63,-0.0029357,-0.0031931,-0.48449,-0.33681,0,0,0.54188,-0.01,-0.01,-0.49,0
2164,2.0002e+07,0,1.99,1.11,24.63,-0.0028964,-0.0032616,-0.4845,-0.33964,0,0,0.53753,-0.01,-0.01,-0.49,0
2205,2.0012e+07,0,2,1.11,24.63,-0.0029199,-0.0032053,-0.48454,-0.34571,0,0,0.5327,-0.01,-0.01,-0.5,0
2246,2.0022e+07,0,2,1.11,24.63,-0.00281,-0.0031868,-0.4844,-0.35318,0,0,0.52833,-0.01,-0.01,-0.5,0
2287,2.0032e+07,0,2,1.11,24.64,-0.0029387,-0.0031949,-0.48419,-0.36167,0,0,0.52396,-0.01,-0.01,-0.5,0
2327,2.0042e+07,0,2,1.1,24.64,-0.0030004,-0.0034498,-0.48375,-0.37074,0,0,0.51958,-0.01,-0.01,-0.5,0
2370,2.0052e+07,0,2,1.1,24.64,-0.0029891,-0.003458,-0.48376,-0.37982,0,0,0.51474,-0.01,-0.01,-0.5,0
2414,2.0062e+07,0,2,1.1,24.65,-0.0030745,-0.0035974,-0.48332,-0.38865,0,0,0.51036,-0.01,-0.01,-0.5,0
2455,2.0072e+07,0,2,1.1,24.65,-0.0029846,-0.0036109,-0.48324,-0.39807,0,0,0.50596,-0.01,-0.01,-0.5,0
2498,2.0082e+07,0,2,1.1,24.65,-0.0029473,-0.0035775,-0.48293,-0.40664,0,0,0.50155,-0.01,-0.01,-0.5,0
2538,2.0093e+07,0,2,1.1,24.66,-0.0031397,-0.0036202,-0.4829,-0.41526,0,0,0.49665,-0.01,-0.01,-0.5,0
2578,2.0103e+07,0,2,1.1,24.66,-0.0033015,-0.003701,-0.48312,-0.42232,0,0,0.49183,-0.01,-0.01,-0.5,0
2616,2.0113e+07,0,2,1.1,24.66,-0.003224,-0.0035687,-0.48307,-0.42768,0,0,0.48782,-0.01,-0.01,-0.5,0
2657,2.0123e+07,0,2,1.1,24.67,-0.0031418,-0.0033758,-0.48273,-0.43115,0,0,0.48378,-0.01,-0.01,-0.5,0
2698,2.0134e+07,0,2,1.1,24.67,-0.0031728,-0.0034523,-0.48238,-0.43385,0,0,0.47972,-0.01,-0.01,-0.5,0
2739,2.0144e+07,0,2,1.11,24.68,-0.0032454,-0.0034061,-0.48238,-0.43602,0,0,0.47563,-0.01,-0.01,-0.5,0
2780,2.0153e+07,0,2,1.11,24.68,-0.0031205,-0.0031933,-0.48254,-0.43679,0,0,0.47081,-0.01,-0.01,-0.5,0
2824,2.0164e+07,0,2,1.11,24.69,-0.0029742,-0.0031904,-0.4822,-0.43724,0,0,0.46671,-0.01,-0.01,-0.5,0
2866,2.0174e+07,0,2,1.11,24.69,-0.0028555,-0.0028294,-0.48182,-0.43736,0,0,0.46258,-0.01,-0.01,-0.5,0
2907,2.0183e+07,0,2,1.11,24.7,-0.0028036,-0.0026485,-0.48169,-0.43792,0,0,0.45843,-0.01,-0.01,-0.5,0
2948,2.0193e+07,0,2,1.11,24.7,-0.0026567,-0.0026347,-0.48155,-0.43837,0,0,0.45426,-0.01,-0.01,-0.5,0
2989,2.0203e+07,0,2,1.11,24.71,-0.0025077,-0.0025842,-0.48174,-0.43827,0,0,0.44945,-0.01,-0.01,-0.5,0
3027,2.0214e+07,0,2,1.11,24.71,-0.0023108,-0.0025433,-0.48091,-0.43401,0,0,0.44599,-0.01,-0.01,-0.5,0
3068,2.0224e+07,0,2,1.1,24.71,-0.0020628,-0.0024993,-0.48017,-0.42786,0,0,0.44295,-0.01,-0.01,-0.5,0
3108,2.0234e+07,0,2,1.1,24.72,-0.0019416,-0.0026026,-0.47937,-0.42003,0,0,0.43985,-0.01,-0.01,-0.5,0
3149,2.0244e+07,0,2,1.11,24.72,-0.0019821,-0.0025671,-0.47873,-0.41252,0,0,0.43668,-0.01,-0.01,-0.5,0
3192,2.0254e+07,0,2,1.1,24.72,-0.0017487,-0.00246,-0.47878,-0.40328,0,0,0.4319,-0.01,-0.01,-0.5,0
3237,2.0264e+07,0,2,1.1,24.73,-0.0015619,-0.0024502,-0.47795,-0.39412,0,0,0.42869,-0.01,-0.01,-0.5,0
3278,2.0274e+07,0,2,1.1,24.73,-0.0014661,-0.0025631,-0.47744,-0.38663,0,0,0.42542,-0.01,-0.01,-0.5,0
3319,2.0284e+07,0,2,1.1,24.73,-0.0013124,-0.0025115,-0.4769,-0.37988,0,0,0.4221,-0.01,-0.01,-0.5,0
3360,2.0294e+07,0,2,1.1,24.73,-0.001404,-0.0024027,-0.47648,-0.37494,0,0,0.41873,-0.01,-0.01,-0.5,0
3400,2.0304e+07,0,2,1.1,24.74,-0.0015382,-0.0023934,-0.47658,-0.3695,0,0,0.41397,-0.01,-0.01,-0.5,0
3442,2.0314e+07,0,2,1.1,24.74,-0.0015191,-0.0023012,-0.47625,-0.36629,0,0,0.41032,-0.01,-0.01,-0.5,0
3482,2.0324e+07,0,2,1.1,24.74,-0.0014597,-0.0023959,-0.47614,-0.36468,0,0,0.40663,-0.01,-0.01,-0.5,0
3523,2.0334e+07,0,2,1.1,24.74,-0.0014406,-0.0024485,-0.47596,-0.3647,0,0,0.40291,-0.01,-0.01,-0.5,0
3563,2.0344e+07,0,2,1.1,24.75,-0.0016341,-0.0021913,-0.47554,-0.36534,0,0,0.39915,-0.01,-0.01,-0.5,0
3605,2.0355e+07,0,2,1.1,24.75,-0.0018892,-0.0021169,-0.47509,-0.366,0,0,0.39488,-0.01,-0.01,-0.5,0
3653,2.0365e+07,0,2,1.1,24.76,-0.0021394,-0.0021627,-0.47454,-0.36664,0,0,0.39106,-0.01,-0.01,-0.5,0
3693,2.0376e+07,0,2,1.1,24.76,-0.0023749,-0.0021971,-0.47462,-0.36788,0,0,0.38584,-0.01,-0.01,-0.5,0
3734,2.0386e+07,0,2,1.1,24.76,-0.0024558,-0.0020271,-0.47413,-0.37002,0,0,0.38199,-0.01,-0.01,-0.5,0
3778,2.0396e+07,0,2,1.1,24.77,-0.0024402,-0.0021462,-0.47402,-0.37292,0,0,0.37811,-0.01,-0.01,-0.5,0
3815,2.0406e+07,0,2,1.1,24.77,-0.0025321,-0.0021831,-0.47306,-0.3747,0,0,0.37602,-0.01,-0.01,-0.5,0
3853,2.0417e+07,0,2,1.1,24.77,-0.0023368,-0.002092,-0.47199,-0.37114,0,0,0.37382,-0.01,-0.01,-0.5,0
3893,2.0427e+07,0,2,1.1,24.77,-0.0022516,-0.0019639,-0.47201,-0.36153,0,0,0.36864,-0.01,-0.01,-0.5,0
3934,2.0437e+07,0,2,1.1,24.78,-0.0021069,-0.0018312,-0.47112,-0.35255,0,0,0.36637,-0.01,-0.01,-0.5,0
3975,2.0447e+07,0,2,1.1,24.78,-0.0020758,-0.0015583,-0.47005,-0.34246,0,0,0.364,-0.01,-0.01,-0.5,0
4017,2.0458e+07,0,2,1.1,24.78,-0.0019488,-0.0014467,-0.46882,-0.33329,0,0,0.36156,-0.01,-0.01,-0.5,0
4063,2.0468e+07,0,2,1.1,24.79,-0.0017839,-0.0013508,-0.46772,-0.32459,0,0,0.35903,-0.01,-0.01,-0.5,0
4103,2.0478e+07,0,2,1.1,24.79,-0.0016705,-0.0013876,-0.46691,-0.31439,0,0,0.35596,-0.01,-0.01,-0.5,0
4145,2.0488e+07,0,2,1.1,24.79,-0.0016006,-0.0013111,-0.46696,-0.30534,0,0,0.35129,-0.01,-0.01,-0.5,0
4186,2.0499e+07,0,2,1.1,24.79,-0.0015645,-0.0011925,-0.466,-0.29849,0,0,0.34862,-0.01,-0.01,-0.5,0
4223,2.0509e+07,0,2,1.1,24.8,-0.0015509,-0.0010522,-0.46534,-0.29361,0,0,0.34576,-0.01,-0.01,-0.49,0
4265,2.0518e+07,0,2,1.1,24.8,-0.0013703,-0.00078433,-0.46463,-0.28977,0,0,0.34282,-0.01,-0.01,-0.49,0
4305,2.0529e+07,0,2,1.1,24.8,-0.0013674,-0.00068664,-0.46394,-0.28731,0,0,0.33937,-0.01,-0.01,-0.5,0
4346,2.0539e+07,0,2,1.1,24.8,-0.0013495,-0.00051876,-0.46345,-0.28797,0,0,0.33632,-0.01,-0.01,-0.5,0
4386,2.0549e+07,0,2,1.09,24.8,-0.0017041,-0.00058329,-0.4635,-0.28826,0,0,0.33169,-0.01,-0.01,-0.5,0
4427,2.0559e+07,0,2,1.09,24.81,-0.0017801,-0.00055791,-0.46299,-0.29023,0,0,0.32859,-0.01,-0.01,-0.5,0
4474,2.057e+07,0,2,1.09,24.81,-0.0018696,-0.00050757,-0.46233,-0.29301,0,0,0.32498,-0.01,-0.01,-0.5,0
4514,2.058e+07,0,2,1.09,24.81,-0.0017394,-0.00042595,-0.46193,-0.29593,0,0,0.32177,-0.01,-0.01,-0.5,0
4556,2.059e+07,0,2,1.09,24.81,-0.0017198,-0.00042967,-0.46133,-0.29944,0,0,0.31851,-0.01,-0.01,-0.5,0
4599,2.0602e+07,0,2,1.09,24.82,-0.0021029,-0.00020744,-0.46059,-0.30409,0,0,0.31508,-0.01,-0.01,-0.5,0
4643,2.0615e+07,0,2,1.09,24.82,-0.002396,-0.00020367,-0.45987,-0.30467,0,0,0.31065,-0.01,-0.01,-0.49,0
4684,2.0625e+07,0,2,1.09,24.82,-0.0024697,-6.6327e-05,-0.45939,-0.3067,0,0,0.30799,-0.01,-0.01,-0.49,0
4724,2.0635e+07,0,2,1.09,24.82,-0.0024974,-0.00011955,-0.45935,-0.30591,0,0,0.30341,-0.01,-0.01,-0.49,0
4767,2.0645e+07,0,2,1.09,24.82,-0.0023859,-4.181e-05,-0.45875,-0.30573,0,0,0.30068,-0.01,-0.01,-0.49,0
4808,2.0655e+07,0,2,1.09,24.82,-0.0022334,7.7343e-05,-0.45802,-0.30528,0,0,0.29789,-0.01,-0.01,-0.49,0
4849,2.0665e+07,0,2,1.09,24.82,-0.0022041,-0.00015198,-0.45738,-0.30595,0,0,0.29504,-0.01,-0.01,-0.49,0
4894,2.0676e+07,0,2,1.09,24.82,-0.0021722,-0.00023702,-0.45675,-0.30717,0,0,0.29166,-0.01,-0.01,-0.49,0
4935,2.0686e+07,0,2.01,1.09,24.82,-0.0021283,-0.00027053,-0.45663,-0.30718,0,0,0.2871,-0.01,-0.01,-0.49,0
4976,2.0696e+07,0,2.01,1.09,24.82,-0.0017924,-0.00045664,-0.45598,-0.30823,0,0,0.28414,-0.01,-0.01,-0.49,0
5017,2.0706e+07,0,2.01,1.09,24.82,-0.0015477,-0.00072853,-0.45525,-0.30944,0,0,0.28111,-0.01,-0.01,-0.49,0
5058,2.0719e+07,0,2.01,1.09,24.82,-0.0014078,-0.0006731,-0.45498,-0.31407,0,0,0.27577,-0.01,-0.01,-0.49,0
5098,2.0729e+07,0,2.01,1.09,24.83,-0.0012369,-0.00069113,-0.45463,-0.32143,0,0,0.27178,-0.01,-0.01,-0.49,0
5140,2.0739e+07,0,2.01,1.09,24.83,-0.0011415,-0.0006988,-0.45469,-0.32996,0,0,0.26724,-0.01,-0.01,-0.49,0
5181,2.0749e+07,0,2.01,1.09,24.83,-0.0010003,-0.00076437,-0.45431,-0.33926,0,0,0.26323,-0.01,-0.01,-0.49,0
5221,2.0759e+07,0,2.01,1.09,24.83,-0.0010081,-0.00067843,-0.45422,-0.34917,0,0,0.25921,-0.01,-0.01,-0.49,0
5266,2.0769e+07,0,2,1.09,24.84,-0.00084669,-0.00067057,-0.45414,-0.35909,0,0,0.25516,-0.01,-0.01,-0.49,0
5307,2.078e+07,0,2,1.09,24.84,-0.00069054,-0.00047738,-0.45381,-0.36832,0,0,0.2511,-0.01,-0.01,-0.49,0
5351,2.079e+07,0,2,1.09,24.84,-0.00096267,-0.0003641,-0.45387,-0.3776,0,0,0.24703,-0.01,-0.01,-0.49,0
5392,2.08e+07,0,2,1.09,24.85,-0.001102,-0.00037577,-0.45422,-0.38616,0,0,0.24249,-0.01,-0.01,-0.49,0
5434,2.081e+07,0,2,1.09,24.85,-0.001158,-0.00032769,-0.45431,-0.39423,0,0,0.2384,-0.01,-0.01,-0.49,0
5472,2.0822e+07,0,2,1.09,24.86,-0.0014613,-0.00030845,-0.45398,-0.4014,0,0,0.23355,-0.01,-0.01,-0.5,0
5513,2.0832e+07,0,2,1.09,24.86,-0.0014272,-0.00031511,-0.45367,-0.40385,0,0,0.23003,-0.01,-0.01,-0.5,0
5557,2.0842e+07,0,2.01,1.09,24.87,-0.0013537,-0.00039348,-0.4533,-0.40497,0,0,0.22646,-0.01,-0.01,-0.5,0
5598,2.0853e+07,0,2.01,1.09,24.87,-0.001501,-0.00036093,-0.45294,-0.40478,0,0,0.22241,-0.01,-0.01,-0.5,0
5638,2.0863e+07,0,2.01,1.09,24.88,-0.0014395,-0.00047694,-0.45264,-0.40432,0,0,0.21878,-0.01,-0.01,-0.5,0
5683,2.0873e+07,0,2.01,1.09,24.89,-0.0014252,-0.0004509,-0.45224,-0.40411,0,0,0.21511,-0.01,-0.01,-0.5,0
5723,2.0883e+07,0,2.01,1.09,24.89,-0.0011289,-0.00058992,-0.4522,-0.40306,0,0,0.21059,-0.01,-0.01,-0.5,0
5766,2.0893e+07,0,2.01,1.09,24.9,-0.00089973,-0.00054393,-0.45205,-0.40258,0,0,0.2069,-0.01,-0.01,-0.5,0
5806,2.0903e+07,0,2.01,1.09,24.91,-0.00070167,-0.00075532,-0.45154,-0.40181,0,0,0.20318,-0.01,-0.01,-0.5,0
5844,2.0914e+07,0,2.01,1.09,24.92,-0.00080421,-0.00072956,-0.45083,-0.40028,0,0,0.19911,-0.01,-0.01,-0.5,0
5883,2.0924e+07,0,2.01,1.09,24.92,-0.0004751,-0.00065464,-0.45073,-0.39943,0,0,0.19546,-0.01,-0.01,-0.5,0
5923,2.0934e+07,0,2.01,1.09,24.93,-0.00031486,-0.00065338,-0.45063,-0.39912,0,0,0.19178,-0.01,-0.01,-0.5,0
5965,2.0944e+07,0,2,1.09,24.93,-0.00012988,-0.00061097,-0.4509,-0.39821,0,0,0.18728,-0.01,-0.01,-0.5,0
6006,2.0954e+07,0,2,1.09,24.94,-1.0037e-05,-0.00052648,-0.45065,-0.39725,0,0,0.18356,-0.01,-0.01,-0.5,0
6046,2.0964e+07,0,2,1.09,24.94,-1.9995e-06,-0.00031799,-0.45037,-0.39625,0,0,0.17982,-0.01,-0.01,-0.5,0
6091,2.0974e+07,0,2,1.09,24.95,5.2242e-05,5.0171e-06,-0.45004,-0.39558,0,0,0.17605,-0.01,-0.01,-0.5,0
6131,2.0984e+07,0,2,1.09,24.95,2.8595e-05,0.00029343,-0.44985,-0.39543,0,0,0.17225,-0.01,-0.01,-0.5,0
6173,2.0994e+07,0,2,1.09,24.96,0.00023268,0.00048952,-0.4498,-0.39612,0,0,0.16843,-0.01,-0.01,-0.5,0
6214,2.1004e+07,0,2.01,1.09,24.96,0.00028368,0.00056683,-0.44969,-0.39613,0,0,0.16394,-0.01,-0.01,-0.5,0
6254,2.1014e+07,0,2.01,1.09,24.97,4.6814e-05,0.00072391,-0.44862,-0.39077,0,0,0.162,-0.01,-0.01,-0.5,0
6292,2.1024e+07,0,2.01,1.09,24.97,0.0001108,0.00082501,-0.44777,-0.38138,0,0,0.15996,-0.01,-0.01,-0.5,0
6333,2.1034e+07,0,2.01,1.09,24.98,0.00025686,0.00080901,-0.44684,-0.36952,0,0,0.15782,-0.01,-0.01,-0.5,0
6377,2.1044e+07,0,2.02,1.09,24.99,0.00037075,0.00058329,-0.44599,-0.35795,0,0,0.15561,-0.01,-0.01,-0.5,0
6417,2.1054e+07,0,2.01,1.09,24.99,0.00048533,0.00031106,-0.44607,-0.34403,0,0,0.15115,-0.01,-0.01,-0.5,0
6461,2.1067e+07,0,2.01,1.08,25,0.00023649,0.00031976,-0.4453,-0.32854,0,0,0.14753,-0.01,-0.01,-0.5,0
6505,2.1077e+07,0,2.01,1.08,25.01,5.5687e-05,0.00011747,-0.44463,-0.31668,0,0,0.14516,-0.01,-0.01,-0.5,0
6546,2.1087e+07,0,2.01,1.08,25.01,0.00017896,5.2088e-05,-0.44419,-0.30569,0,0,0.14271,-0.01,-0.01,-0.5,0
6588,2.1097e+07,0,2,1.08,25.02,6.1096e-05,-0.00017257,-0.44353,-0.2979,0,0,0.14019,-0.01,-0.01,-0.5,0
6628,2.111e+07,0,2,1.08,25.02,-0.00022517,9.3903e-05,-0.4423,-0.28896,0,0,0.13851,-0.01,-0.01,-0.5,0
6666,2.112e+07,0,2,1.08,25.03,-0.00021221,0.00010745,-0.44089,-0.27745,0,0,0.13758,-0.01,-0.01,-0.5,0
6706,2.113e+07,0,2,1.09,25.04,-0.0004587,5.894e-05,-0.43948,-0.25945,0,0,0.13607,-0.01,-0.01,-0.5,0
6749,2.114e+07,0,2,1.09,25.04,-0.00047252,0.00011071,-0.43946,-0.2411,0,0,0.13168,-0.01,-0.01,-0.5,0
6789,2.115e+07,0,2,1.09,25.05,-0.00059431,0.00021284,-0.43851,-0.22428,0,0,0.13051,-0.01,-0.01,-0.5,0
6830,2.116e+07,0,2,1.09,25.05,-0.00060711,0.00070781,-0.43749,-0.21056,0,0,0.12922,-0.01,-0.01,-0.5,0
6871,2.117e+07,0,2.01,1.09,25.06,-0.00052225,0.00088252,-0.43652,-0.19874,0,0,0.12781,-0.01,-0.01,-0.5,0
6916,2.118e+07,0,2.01,1.09,25.06,-0.00060759,0.0008813,-0.43541,-0.19042,0,0,0.1263,-0.01,-0.01,-0.5,0
6957,2.119e+07,0,2.01,1.09,25.07,-0.00076004,0.00090239,-0.43516,-0.18106,0,0,0.12195,-0.01,-0.01,-0.5,0
6997,2.1201e+07,0,2.02,1.09,25.07,-0.00087867,0.00099622,-0.43383,-0.1748,0,0,0.12035,-0.01,-0.01,-0.5,0
7038,2.1214e+07,0,2.02,1.09,25.08,-0.00075301,0.0012958,-0.43212,-0.16704,0,0,0.11851,-0.01,-0.01,-0.5,0
7078,2.1224e+07,0,2.02,1.09,25.08,-0.00062984,0.00092306,-0.43055,-0.15882,0,0,0.11783,-0.01,-0.01,-0.5,0
7119,2.1234e+07,0,2.02,1.09,25.09,-0.00054007,0.00024815,-0.42961,-0.14851,0,0,0.11658,-0.01,-0.01,-0.5,0
7162,2.1244e+07,0,2.02,1.09,25.09,-0.00050529,0.00044503,-0.42854,-0.14045,0,0,0.11563,-0.01,-0.01,-0.5,0
7204,2.1254e+07,0,2.02,1.09,25.09,-0.00080823,0.00080421,-0.42749,-0.13584,0,0,0.11455,-0.01,-0.01,-0.5,0
7245,2.1264e+07,0,2.01,1.09,25.1,-0.00085225,0.00075608,-0.4273,-0.12932,0,0,0.11028,-0.01,-0.01,-0.5,0
7289,2.1274e+07,0,2.01,1.09,25.1,-0.00048771,0.00069045,-0.42614,-0.12479,0,0,0.1091,-0.01,-0.01,-0.5,0
7331,2.1284e+07,0,2.01,1.09,25.11,-0.00039085,0.0008514,-0.42511,-0.12119,0,0,0.1078,-0.01,-0.01,-0.5,0
7372,2.1294e+07,0,2.01,1.09,25.11,-0.00010212,0.001144,-0.42367,-0.1194,0,0,0.10639,-0.01,-0.01,-0.5,0
7414,2.1304e+07,0,2.01,1.09,25.12,-0.00017851,0.0010896,-0.42259,-0.12136,0,0,0.10489,-0.01,-0.01,-0.5,0
7458,2.132e+07,0,2.01,1.09,25.12,-0.00064492,0.001487,-0.4209,-0.11919,0,0,0.10289,-0.01,-0.01,-0.5,0
7499,2.133e+07,0,2.01,1.09,25.12,-0.00056797,0.0016654,-0.41915,-0.11073,0,0,0.10324,-0.01,-0.01,-0.5,0
7540,2.134e+07,0,2.01,1.09,25.13,-0.00033001,0.0014434,-0.41745,-0.10112,0,0,0.10342,-0.01,-0.01,-0.5,0
7582,2.135e+07,0,2.01,1.08,25.13,-0.00041179,0.0015832,-0.41588,-0.094003,0,0,0.10344,-0.01,-0.01,-0.5,0
7622,2.136e+07,0,2.01,1.08,25.13,-0.00042443,0.0016447,-0.41607,-0.083538,0,0,0.099287,-0.01,-0.01,-0.5,0
7663,2.137e+07,0,2.02,1.08,25.13,-0.00031665,0.0014238,-0.41472,-0.074377,0,0,0.099164,-0.01,-0.01,-0.5,0
7709,2.138e+07,0,2.01,1.09,25.13,-0.00048277,0.0012309,-0.41372,-0.066017,0,0,0.098878,-0.01,-0.01,-0.5,0
7750,2.139e+07,0,2.01,1.09,25.14,-0.00071178,0.0013553,-0.41244,-0.059934,0,0,0.098447,-0.01,-0.01,-0.5,0
7792,2.14e+07,0,2.01,1.09,25.14,-0.00049203,0.0013366,-0.41101,-0.05629,0,0,0.09788,-0.01,-0.01,-0.5,0
7835,2.1412e+07,0,2.01,1.09,25.14,-0.00048468,0.00096596,-0.40912,-0.054655,0,0,0.097259,-0.01,-0.01,-0.5,0
7876,2.1425e+07,0,2.01,1.09,25.15,-0.00040894,0.00099183,-0.40732,-0.049951,0,0,0.096078,-0.01,-0.01,-0.48,0
7916,2.1435e+07,0,2.01,1.09,25.15,-0.00076869,0.00090088,-0.40537,-0.049769,0,0,0.095976,-0.01,-0.01,-0.48,0
7957,2.1445e+07,0,2,1.09,25.15,-0.0012187,0.00094928,-0.40528,-0.046682,0,0,0.091927,-0.01,-0.01,-0.48,0
8002,2.1455e+07,0,2,1.09,25.14,-0.0012432,0.0011175,-0.404,-0.044872,0,0,0.091694,-0.01,-0.01,-0.48,0
8042,2.1466e+07,0,2.01,1.09,25.14,-0.0011403,0.0011817,-0.40304,-0.043457,0,0,0.091309,-0.01,-0.01,-0.48,0
8087,2.1476e+07,0,2.01,1.09,25.14,-0.0011554,0.0012499,-0.40216,-0.045487,0,0,0.090384,-0.01,-0.01,-0.48,0
8127,2.1486e+07,0,2.01,1.09,25.14,-0.0010556,0.0012411,-0.40104,-0.048745,0,0,0.089726,-0.01,-0.01,-0.48,0
8169,2.1496e+07,0,2.01,1.09,25.14,-0.0010431,0.0015228,-0.39995,-0.055233,0,0,0.088946,-0.01,-0.01,-0.48,0
8210,2.1506e+07,0,2.01,1.09,25.14,-0.00096833,0.0017205,-0.39934,-0.058956,0,0,0.084954,-0.01,-0.01,-0.48,0
8250,2.1516e+07,0,2.01,1.09,25.14,-0.000898,0.0019728,-0.39786,-0.065239,0,0,0.084076,-0.01,-0.01,-0.48,0
8285,2.1527e+07,0,2.02,1.09,25.13,-0.00089302,0.0020866,-0.39555,-0.066882,0,0,0.084855,-0.01,-0.01,-0.47,0
8326,2.1537e+07,0,2.02,1.09,25.12,-0.00064957,0.0021272,-0.39331,-0.061333,0,0,0.085832,-0.01,-0.01,-0.47,0
8366,2.1547e+07,0,2.02,1.09,25.12,-0.00046068,0.0017053,-0.39156,-0.05519,0,0,0.086238,-0.01,-0.01,-0.47,0
8407,2.1557e+07,0,2.02,1.09,25.11,-0.00055522,0.0017524,-0.39002,-0.051791,0,0,0.08686,-0.01,-0.01,-0.47,0
8448,2.1567e+07,0,2.02,1.09,25.11,-0.00052468,0.0018409,-0.39029,-0.044128,0,0,0.083353,-0.01,-0.01,-0.47,0
8498,2.158e+07,0,2.02,1.09,25.11,-0.00028144,0.0019136,-0.3875,-0.036613,0,0,0.086423,-0.01,-0.01,-0.47,0
8539,2.159e+07,0,2.02,1.09,25.11,-0.00022813,0.0017634,-0.38764,-0.028909,0,0,0.082552,-0.01,-0.01,-0.47,0
8580,2.16e+07,0,2.02,1.08,25.1,-0.00036318,0.0016825,-0.3862,-0.023402,0,0,0.082685,-0.01,-0.01,-0.47,0
8621,2.161e+07,0,2.01,1.08,25.1,-0.00050817,0.0017521,-0.38454,-0.021698,0,0,0.082677,-0.01,-0.01,-0.47,0
8658,2.162e+07,0,2.01,1.08,25.1,-0.00041072,0.0019673,-0.38252,-0.019963,0,0,0.083964,-0.01,-0.01,-0.47,0
8699,2.1632e+07,0,2.01,1.09,25.1,-0.00070077,0.0023676,-0.38041,-0.015589,0,0,0.084302,-0.01,-0.01,-0.47,0
8741,2.1642e+07,0,2.01,1.09,25.1,-0.0011114,0.0025804,-0.37805,-0.011475,0,0,0.085225,-0.01,-0.01,-0.47,0
8782,2.1653e+07,0,2.01,1.09,25.1,-0.0009107,0.0029244,-0.37615,-0.0034126,0,0,0.085592,-0.01,-0.01,-0.47,0
8824,2.1663e+07,0,2.01,1.09,25.1,-0.00096431,0.0027869,-0.37623,0.0048704,0,0,0.081833,-0.01,-0.01,-0.47,0
8865,2.1673e+07,0,2.01,1.09,25.1,-0.00094145,0.0026702,-0.37438,0.0096351,0,0,0.08243,-0.01,-0.01,-0.47,0
8910,2.1683e+07,0,2.01,1.09,25.09,-0.0010363,0.002748,-0.37297,0.012144,0,0,0.082859,-0.01,-0.01,-0.47,0
8950,2.1693e+07,0,2.01,1.09,25.09,-0.00093373,0.0028692,-0.37176,0.010523,0,0,0.083134,-0.01,-0.01,-0.47,0
8991,2.1703e+07,0,2.02,1.09,25.09,-0.00084477,0.0028892,-0.37055,0.007396,0,0,0.083255,-0.01,-0.01,-0.47,0
9031,2.1714e+07,0,2.02,1.09,25.09,-0.00083904,0.0028869,-0.37065,0.0063485,0,0,0.079553,-0.01,-0.01,-0.47,0
9072,2.1724e+07,0,2.02,1.09,25.09,-0.00068998,0.0028115,-0.3687,0.0067208,0,0,0.080967,-0.01,-0.01,-0.47,0
9110,2.1734e+07,0,2.02,1.09,25.09,-0.00063019,0.0025058,-0.36641,0.010139,0,0,0.081824,-0.01,-0.01,-0.46,0
9150,2.1744e+07,0,2.02,1.09,25.09,-0.00062977,0.0024219,-0.36454,0.0058098,0,0,0.08325,-0.01,-0.01,-0.46,0
9191,2.1754e+07,0,2.02,1.09,25.09,-0.00065437,0.0025835,-0.36286,0.0076116,0,0,0.083758,-0.01,-0.01,-0.46,0
9231,2.1764e+07,0,2.01,1.09,25.09,-0.00062109,0.0026103,-0.36267,0.012156,0,0,0.080135,-0.01,-0.01,-0.46,0
9272,2.1774e+07,0,2.01,1.09,25.1,-0.00052965,0.0028183,-0.36146,0.015103,0,0,0.080849,-0.01,-0.01,-0.46,0
9316,2.1784e+07,0,2.01,1.09,25.1,-0.00030909,0.0030076,-0.3599,0.01513,0,0,0.0814,-0.01,-0.01,-0.46,0
9358,2.1794e+07,0,2.01,1.09,25.1,-0.00030966,0.0031678,-0.35845,0.013878,0,0,0.081792,-0.01,-0.01,-0.46,0
9401,2.1804e+07,0,2.01,1.09,25.1,-0.00030057,0.003241,-0.35724,0.0089738,0,0,0.082035,-0.01,-0.01,-0.46,0
9441,2.1814e+07,0,2.01,1.09,25.11,-0.00020235,0.0035441,-0.35702,0.0070961,0,0,0.078468,-0.01,-0.01,-0.46,0
9480,2.1824e+07,0,2.01,1.09,25.11,-0.00033216,0.0037185,-0.35562,0.0050307,0,0,0.07895,-0.01,-0.01,-0.46,0
9525,2.1874e+07,0,2.02,1.09,25.11,-0.00078289,0.0037178,-0.34963,-0.019178,0,0,0.075928,-0.01,-0.01,-0.45,0
9570,2.1884e+07,0,2.02,1.09,25.11,-0.00097378,0.0035682,-0.34846,-0.026298,0,0,0.075718,-0.01,-0.01,-0.45,0
9611,2.1894e+07,0,2.02,1.09,25.11,-0.00090418,0.0034462,-0.34744,-0.034044,0,0,0.075376,-0.01,-0.01,-0.45,0
9652,2.1904e+07,0,2.02,1.09,25.11,-0.00056896,0.0033306,-0.34634,-0.043867,0,0,0.074915,-0.01,-0.01,-0.45,0
9692,2.1914e+07,0,2.02,1.09,25.12,-0.00032846,0.0032592,-0.34617,-0.050914,0,0,0.071456,-0.01,-0.01,-0.45,0
9726,2.1924e+07,0,2.02,1.09,25.12,-8.383e-05,0.0032172,-0.34481,-0.055708,0,0,0.071671,-0.01,-0.01,-0.45,0
9767,2.1934e+07,0,2.02,1.09,25.12,-0.00011579,0.0031802,-0.34363,-0.060883,0,0,0.071746,-0.01,-0.01,-0.44,0
9808,2.1944e+07,0,2.01,1.09,25.12,-0.00028185,0.0031996,-0.34223,-0.064869,0,0,0.071681,-0.01,-0.01,-0.44,0
9849,2.1954e+07,0,2.01,1.09,25.12,-0.00045393,0.003467,-0.34069,-0.070116,0,0,0.071491,-0.01,-0.01,-0.44,0
9890,2.1964e+07,0,2.01,1.09,25.12,-0.00040092,0.0037592,-0.34062,-0.072331,0,0,0.068088,-0.01,-0.01,-0.44,0
9931,2.1974e+07,0,2.01,1.09,25.12,-0.00043668,0.0039049,-0.33959,-0.074865,0,0,0.06778,-0.01,-0.01,-0.44,0
9976,2.1984e+07,0,2.01,1.09,25.12,-0.00044381,0.004092,-0.33843,-0.079025,0,0,0.067353,-0.01,-0.01,-0.44,0
10017,2.1994e+07,0,2.01,1.09,25.12,-0.00061311,0.0041921,-0.33747,-0.083674,0,0,0.066805,-0.01,-0.01,-0.44,0
10058,2.2004e+07,0,2.01,1.09,25.12,-0.00053096,0.0043941,-0.33666,-0.09039,0,0,0.066147,-0.01,-0.01,-0.44,0
10098,2.2014e+07,0,2.01,1.09,25.12,-0.00049468,0.0047161,-0.33666,-0.094589,0,0,0.062783,-0.01,-0.01,-0.44,0
10136,2.2024e+07,0,2.01,1.09,25.12,-0.00036689,0.0047765,-0.33506,-0.093522,0,0,0.063622,-0.01,-0.01,-0.44,0
10176,2.2034e+07,0,2.01,1.09,25.12,-0.00031114,0.0048791,-0.33337,-0.091057,0,0,0.064304,-0.01,-0.01,-0.44,0
10219,2.2044e+07,0,2.02,1.09,25.12,-8.1771e-05,0.0048449,-0.33182,-0.086782,0,0,0.064826,-0.01,-0.01,-0.44,0
10259,2.2054e+07,0,2.02,1.09,25.11,9.5947e-05,0.0049066,-0.33004,-0.083508,0,0,0.065203,-0.01,-0.01,-0.44,0
10301,2.2064e+07,0,2.02,1.09,25.11,1.0581e-06,0.0048394,-0.32988,-0.076741,0,0,0.061907,-0.01,-0.01,-0.44,0
10341,2.2074e+07,0,2.02,1.08,25.11,-7.0781e-05,0.004897,-0.32838,-0.070413,0,0,0.062152,-0.01,-0.01,-0.44,0
10387,2.2084e+07,0,2.02,1.09,25.11,-0.00010223,0.0050869,-0.32727,-0.066977,0,0,0.062262,-0.01,-0.01,-0.44,0
10427,2.2094e+07,0,2.02,1.09,25.11,-0.00010048,0.0052375,-0.32586,-0.064176,0,0,0.062235,-0.01,-0.01,-0.44,0
10469,2.2104e+07,0,2.02,1.09,25.11,-0.00013228,0.005135,-0.32452,-0.064299,0,0,0.062086,-0.01,-0.01,-0.44,0
10510,2.2114e+07,0,2.01,1.09,25.11,-0.00026839,0.0049814,-0.32444,-0.062586,0,0,0.058845,-0.01,-0.01,-0.44,0
10547,2.2124e+07,0,2.01,1.09,25.11,-0.00028955,0.0049355,-0.32305,-0.061682,0,0,0.059052,-0.01,-0.01,-0.43,0
10588,2.2134e+07,0,2.01,1.09,25.11,-0.00036155,0.0049881,-0.32156,-0.060502,0,0,0.059121,-0.01,-0.01,-0.44,0
10628,2.2144e+07,0,2.01,1.09,25.11,-0.00047248,0.0050324,-0.32026,-0.061435,0,0,0.059065,-0.01,-0.01,-0.44,0
10670,2.2155e+07,0,2.01,1.09,25.12,-0.00038663,0.0050837,-0.31894,-0.060361,0,0,0.058557,-0.01,-0.01,-0.44,0
10710,2.2166e+07,0,2.01,1.09,25.12,-0.0004263,0.0050059,-0.31739,-0.06161,0,0,0.057936,-0.01,-0.01,-0.44,0
10752,2.2177e+07,0,2.01,1.09,25.12,-0.00048512,0.0051005,-0.31727,-0.062009,0,0,0.054767,-0.01,-0.01,-0.44,0
10797,2.2186e+07,0,2.01,1.09,25.13,-0.00061962,0.0050922,-0.31631,-0.064629,0,0,0.054365,-0.01,-0.01,-0.44,0
10837,2.2196e+07,0,2.01,1.09,25.13,-0.00087948,0.0051957,-0.3149,-0.067511,0,0,0.053849,-0.01,-0.01,-0.44,0
10878,2.2206e+07,0,2.01,1.09,25.14,-0.00099858,0.0052763,-0.3139,-0.072834,0,0,0.053231,-0.01,-0.01,-0.44,0
10924,2.2222e+07,0,2.01,1.09,25.14,-0.0010935,0.0055041,-0.31283,-0.079543,0,0,0.05127,-0.01,-0.01,-0.44,0
10966,2.2232e+07,0,2.01,1.09,25.15,-0.00088983,0.0055958,-0.31182,-0.084072,0,0,0.051069,-0.01,-0.01,-0.43,0
11006,2.2242e+07,0,2.01,1.09,25.15,-0.0007719,0.0054745,-0.31047,-0.087273,0,0,0.050748,-0.01,-0.01,-0.43,0
11049,2.2253e+07,0,2.01,1.09,25.15,-0.00068259,0.0054319,-0.30938,-0.088191,0,0,0.049996,-0.01,-0.01,-0.43,0
11089,2.2263e+07,0,2.01,1.09,25.16,-0.00061467,0.0055354,-0.30914,-0.087716,0,0,0.046907,-0.01,-0.01,-0.43,0
11131,2.2273e+07,0,2.01,1.09,25.16,-0.00072789,0.0055371,-0.30803,-0.08807,0,0,0.046365,-0.01,-0.01,-0.43,0
11177,2.2283e+07,0,2.01,1.09,25.16,-0.00061889,0.0054278,-0.30692,-0.090367,0,0,0.045725,-0.01,-0.01,-0.43,0
11217,2.2294e+07,0,2.01,1.09,25.17,-0.00042797,0.0056257,-0.30574,-0.092292,0,0,0.044673,-0.01,-0.01,-0.43,0
11260,2.2304e+07,0,2.01,1.09,25.17,-0.00038073,0.0056372,-0.30507,-0.095622,0,0,0.04383,-0.01,-0.01,-0.44,0
11300,2.2314e+07,0,2.01,1.09,25.17,-0.00042703,0.0055477,-0.30423,-0.10084,0,0,0.042897,-0.01,-0.01,-0.43,0
11342,2.2324e+07,0,2.01,1.09,25.17,-0.00043085,0.0055533,-0.30409,-0.1046,0,0,0.039859,-0.01,-0.01,-0.43,0
11379,2.2334e+07,0,2.01,1.09,25.17,-0.00060681,0.0057303,-0.30218,-0.10135,0,0,0.04094,-0.01,-0.01,-0.42,0
11420,2.2344e+07,0,2.01,1.09,25.17,-0.00073793,0.0056697,-0.30043,-0.092816,0,0,0.041851,-0.01,-0.01,-0.42,0
11461,2.2354e+07,0,2.01,1.09,25.17,-0.00053299,0.0056066,-0.29864,-0.082653,0,0,0.042603,-0.01,-0.01,-0.42,0
11501,2.2364e+07,0,2.01,1.09,25.17,-0.00029566,0.005441,-0.297,-0.07411,0,0,0.043213,-0.01,-0.01,-0.42,0
11543,2.2374e+07,0,2.01,1.09,25.17,-0.0003685,0.0053948,-0.29514,-0.0655,0,0,0.043681,-0.01,-0.01,-0.42,0
11588,2.2385e+07,0,2.01,1.09,25.17,-0.00054099,0.0052229,-0.29365,-0.054429,0,0,0.043713,-0.01,-0.01,-0.42,0
11631,2.2395e+07,0,2.01,1.09,25.17,-0.00060512,0.0053772,-0.29344,-0.044313,0,0,0.04078,-0.01,-0.01,-0.42,0
11672,2.2405e+07,0,2.01,1.09,25.17,-0.00071614,0.0056125,-0.29208,-0.037558,0,0,0.040994,-0.01,-0.01,-0.42,0
11712,2.2416e+07,0,2.01,1.09,25.17,-0.00082683,0.0059801,-0.2911,-0.032827,0,0,0.04108,-0.01,-0.01,-0.42,0
11753,2.2426e+07,0,2.01,1.09,25.17,-0.00070514,0.0060564,-0.29005,-0.030403,0,0,0.04117,-0.01,-0.01,-0.42,0
11790,2.2436e+07,0,2.01,1.09,25.16,-0.00068371,0.0058211,-0.28889,-0.030375,0,0,0.041421,-0.01,-0.01,-0.42,0
11832,2.2447e+07,0,2.01,1.09,25.17,-0.00056263,0.0058931,-0.28766,-0.028086,0,0,0.040965,-0.01,-0.01,-0.43,0
11874,2.2457e+07,0,2.01,1.09,25.17,-0.00058127,0.0059578,-0.28757,-0.026039,0,0,0.038093,-0.01,-0.01,-0.43,0
11915,2.2467e+07,0,2.01,1.09,25.17,-0.00058063,0.0061769,-0.28611,-0.024733,0,0,0.038102,-0.01,-0.01,-0.43,0
11957,2.2477e+07,0,2.01,1.09,25.17,-0.00055877,0.0062416,-0.2849,-0.026095,0,0,0.038001,-0.01,-0.01,-0.42,0
12002,2.2487e+07,0,2.01,1.09,25.17,-0.00059539,0.0061228,-0.28366,-0.028359,0,0,0.037786,-0.01,-0.01,-0.43,0
12043,2.2497e+07,0,2.01,1.09,25.17,-0.00062389,0.0060775,-0.28263,-0.030768,0,0,0.037458,-0.01,-0.01,-0.43,0
12083,2.2507e+07,0,2.01,1.09,25.18,-0.00063349,0.0060017,-0.28174,-0.034684,0,0,0.037024,-0.01,-0.01,-0.43,0
12127,2.252e+07,0,2.01,1.09,25.18,-0.00051703,0.0061863,-0.28029,-0.036446,0,0,0.037599,-0.01,-0.01,-0.43,0
12169,2.2531e+07,0,2.01,1.09,25.18,-0.00036209,0.006241,-0.27855,-0.034223,0,0,0.038579,-0.01,-0.01,-0.42,0
12209,2.2542e+07,0,2.01,1.09,25.18,-0.00030556,0.0063188,-0.27697,-0.026325,0,0,0.039392,-0.01,-0.01,-0.42,0
12247,2.2552e+07,0,2.01,1.09,25.18,-0.00016884,0.0063271,-0.27643,-0.01567,0,0,0.036627,-0.01,-0.01,-0.42,0
12287,2.2562e+07,0,2.01,1.08,25.18,-0.00014498,0.0063128,-0.27511,-0.00761,0,0,0.037588,-0.01,-0.01,-0.42,0
12328,2.2572e+07,0,2.01,1.08,25.18,-0.00014691,0.0064656,-0.27381,-0.00036641,0,0,0.038398,-0.01,-0.01,-0.42,0
12370,2.2583e+07,0,2.01,1.08,25.18,-0.00021813,0.0066055,-0.27246,0.0039498,0,0,0.03907,-0.01,-0.01,-0.42,0
12417,2.2593e+07,0,2.01,1.08,25.18,-0.00017041,0.0067853,-0.27093,0.0069495,0,0,0.03934,-0.01,-0.01,-0.42,0
12457,2.2603e+07,0,2.01,1.08,25.18,-0.00030085,0.0069546,-0.27072,0.010691,0,0,0.036633,-0.01,-0.01,-0.42,0
12498,2.2613e+07,0,2.01,1.08,25.18,-0.00033275,0.0068152,-0.2696,0.011659,0,0,0.037063,-0.01,-0.01,-0.42,0
12539,2.2623e+07,0,2.01,1.09,25.19,-0.00037871,0.0067758,-0.26835,0.011642,0,0,0.037361,-0.01,-0.01,-0.42,0
12576,2.2633e+07,0,2.01,1.09,25.19,-0.00046433,0.0068401,-0.26707,0.0094256,0,0,0.038214,-0.01,-0.01,-0.41,0
12616,2.2643e+07,0,2.01,1.09,25.19,-0.00047842,0.0068292,-0.26597,0.0081051,0,0,0.038919,-0.01,-0.01,-0.41,0
12657,2.2654e+07,0,2.01,1.09,25.19,-0.000626,0.0069399,-0.26478,0.01001,0,0,0.039215,-0.01,-0.01,-0.41,0
12698,2.2664e+07,0,2.01,1.09,25.19,-0.00056122,0.0071432,-0.26477,0.0129,0,0,0.03657,-0.01,-0.01,-0.41,0
12738,2.2674e+07,0,2.01,1.09,25.19,-0.00062447,0.0070374,-0.26337,0.014836,0,0,0.03701,-0.01,-0.01,-0.42,0
12781,2.2684e+07,0,2.01,1.08,25.19,-0.00066376,0.00698,-0.26203,0.014044,0,0,0.037331,-0.01,-0.01,-0.41,0
12826,2.2694e+07,0,2.01,1.08,25.19,-0.0006444,0.0069877,-0.26089,0.011974,0,0,0.037533,-0.01,-0.01,-0.41,0
12866,2.2704e+07,0,2.01,1.09,25.19,-0.00065698,0.0070592,-0.25967,0.0074318,0,0,0.037624,-0.01,-0.01,-0.41,0
12907,2.2714e+07,0,2.01,1.08,25.2,-0.00078359,0.0071847,-0.25939,0.0046754,0,0,0.035032,-0.01,-0.01,-0.41,0
12947,2.2724e+07,0,2.01,1.09,25.2,-0.00061609,0.0073043,-0.258,0.0012457,0,0,0.035024,-0.01,-0.01,-0.41,0
12985,2.2737e+07,0,2.01,1.09,25.2,-0.00059919,0.007251,-0.25664,-0.004768,0,0,0.035522,-0.01,-0.01,-0.41,0
13025,2.2747e+07,0,2.01,1.09,25.2,-0.00046371,0.0071826,-0.25523,-0.0040136,0,0,0.03688,-0.01,-0.01,-0.41,0
13067,2.2757e+07,0,2.01,1.09,25.2,-0.00036442,0.0072623,-0.25413,-0.0010665,0,0,0.037575,-0.01,-0.01,-0.41,0
13108,2.2767e+07,0,2.01,1.09,25.2,-0.0002299,0.0071831,-0.25254,0.00030644,0,0,0.038388,-0.01,-0.01,-0.41,0
13148,2.2777e+07,0,2.01,1.09,25.21,-0.00014714,0.0072919,-0.25222,0.0048241,0,0,0.035867,-0.01,-0.01,-0.41,0
13189,2.2787e+07,0,2.01,1.09,25.21,6.3581e-05,0.0074609,-0.25097,0.0085312,0,0,0.036557,-0.01,-0.01,-0.41,0
13236,2.2798e+07,0,2.01,1.09,25.21,0.00013595,0.0074108,-0.24953,0.012485,0,0,0.037107,-0.01,-0.01,-0.41,0
13277,2.2808e+07,0,2.01,1.09,25.22,0.0003232,0.0073585,-0.24843,0.014459,0,0,0.037532,-0.01,-0.01,-0.41,0
13318,2.2818e+07,0,2.01,1.08,25.22,0.000304,0.0072591,-0.24671,0.016873,0,0,0.037585,-0.01,-0.01,-0.41,0
13358,2.2828e+07,0,2.01,1.09,25.22,0.0005001,0.0071295,-0.24504,0.017957,0,0,0.038715,-0.01,-0.01,-0.41,0
13399,2.2839e+07,0,2.01,1.09,25.23,0.00043571,0.0069602,-0.24406,0.02067,0,0,0.039688,-0.01,-0.01,-0.41,0
13439,2.2849e+07,0,2.01,1.09,25.23,0.00043419,0.0071188,-0.24258,0.023013,0,0,0.040285,-0.01,-0.01,-0.41,0
13481,2.2859e+07,0,2.01,1.09,25.23,0.00050691,0.0072539,-0.24237,0.026719,0,0,0.037863,-0.01,-0.01,-0.41,0
13522,2.2869e+07,0,2.01,1.09,25.24,0.00045515,0.0072913,-0.24082,0.028425,0,0,0.038592,-0.01,-0.01,-0.41,0
13562,2.2879e+07,0,2.01,1.08,25.24,0.00055164,0.007208,-0.23967,0.028865,0,0,0.039191,-0.01,-0.01,-0.41,0
13604,2.289e+07,0,2,1.08,25.24,0.0004038,0.007362,-0.238,0.031144,0,0,0.039658,-0.01,-0.01,-0.41,0
13648,2.29e+07,0,2,1.08,25.25,0.00022712,0.0074363,-0.2366,0.029848,0,0,0.040013,-0.01,-0.01,-0.41,0
13690,2.291e+07,0,2,1.08,25.25,1.7796e-05,0.0075698,-0.23574,0.026557,0,0,0.040254,-0.01,-0.01,-0.41,0
13730,2.292e+07,0,2,1.08,25.25,-9.3265e-05,0.0074065,-0.23557,0.024545,0,0,0.037901,-0.01,-0.01,-0.41,0
13771,2.293e+07,0,2,1.08,25.25,-0.00022161,0.0071557,-0.23461,0.019578,0,0,0.037812,-0.01,-0.01,-0.41,0
13809,2.294e+07,0,2,1.08,25.25,-0.00062198,0.0070843,-0.2332,0.018475,0,0,0.039362,-0.01,-0.01,-0.4,0
13849,2.2951e+07,0,2.01,1.09,25.25,-0.00060472,0.0069995,-0.23167,0.020777,0,0,0.040522,-0.01,-0.01,-0.4,0
13890,2.2961e+07,0,2.01,1.09,25.25,-0.00067937,0.007158,-0.22998,0.024414,0,0,0.041765,-0.01,-0.01,-0.4,0
13932,2.2971e+07,0,2.01,1.09,25.25,-0.00061248,0.0071455,-0.22855,0.026234,0,0,0.042872,-0.01,-0.01,-0.4,0
13973,2.2981e+07,0,2.02,1.09,25.25,-0.0006081,0.007257,-0.22844,0.031122,0,0,0.04059,-0.01,-0.01,-0.4,0
14014,2.2991e+07,0,2.02,1.09,25.26,-0.00057058,0.0070643,-0.22694,0.035592,0,0,0.041569,-0.01,-0.01,-0.4,0
14058,2.3001e+07,0,2.02,1.09,25.26,-0.00052834,0.0068183,-0.22529,0.040215,0,0,0.04241,-0.01,-0.01,-0.41,0
14100,2.3011e+07,0,2.02,1.09,25.26,-0.00030192,0.0067987,-0.22354,0.043205,0,0,0.043128,-0.01,-0.01,-0.41,0
14140,2.3021e+07,0,2.02,1.08,25.26,-0.00035063,0.0067221,-0.22221,0.042662,0,0,0.043734,-0.01,-0.01,-0.4,0
14185,2.3034e+07,0,2.01,1.08,25.26,-0.00010709,0.0067892,-0.22028,0.043948,0,0,0.044839,-0.01,-0.01,-0.4,0
14227,2.3044e+07,0,2.01,1.09,25.26,-2.5345e-05,0.0068046,-0.21862,0.044544,0,0,0.046458,-0.01,-0.01,-0.4,0
14265,2.3054e+07,0,2.01,1.09,25.26,-3.9255e-06,0.0066704,-0.21836,0.050153,0,0,0.044275,-0.01,-0.01,-0.4,0
14307,2.3064e+07,0,2,1.09,25.26,0.00023983,0.0069083,-0.21688,0.054547,0,0,0.045762,-0.01,-0.01,-0.4,0
14347,2.3074e+07,0,2,1.09,25.25,0.00023246,0.0073638,-0.21545,0.058805,0,0,0.0471,-0.01,-0.01,-0.4,0
14388,2.3084e+07,0,2,1.09,25.25,4.6391e-05,0.0077788,-0.21383,0.060906,0,0,0.048302,-0.01,-0.01,-0.4,0
14428,2.3094e+07,0,2,1.09,25.25,0.00016681,0.0078412,-0.21248,0.062057,0,0,0.049367,-0.01,-0.01,-0.4,0
14474,2.3105e+07,0,2,1.09,25.25,0.00035223,0.0078955,-0.21099,0.065093,0,0,0.050082,-0.01,-0.01,-0.4,0
14515,2.3115e+07,0,2,1.09,25.25,0.00027656,0.0080848,-0.21059,0.068019,0,0,0.047977,-0.01,-0.01,-0.4,0
14556,2.3125e+07,0,2.01,1.08,25.25,0.00033459,0.0082728,-0.20918,0.068005,0,0,0.048801,-0.01,-0.01,-0.4,0
14597,2.3135e+07,0,2.01,1.08,25.25,0.00039669,0.0081144,-0.20756,0.06682,0,0,0.049507,-0.01,-0.01,-0.4,0
14637,2.3148e+07,0,2.01,1.08,25.25,0.0004952,0.0077364,-0.20595,0.06537,0,0,0.050937,-0.01,-0.01,-0.39,0
14678,2.3159e+07,0,2.02,1.08,25.25,0.00057198,0.0074953,-0.20484,0.065248,0,0,0.052828,-0.01,-0.01,-0.39,0
14718,2.3169e+07,0,2.02,1.08,25.25,0.00064793,0.0072246,-0.20472,0.066786,0,0,0.050578,-0.01,-0.01,-0.39,0
14759,2.3179e+07,0,2.02,1.08,25.25,0.00061661,0.0067732,-0.20319,0.069523,0,0,0.052344,-0.01,-0.01,-0.39,0
14800,2.3189e+07,0,2.02,1.08,25.25,0.00057667,0.0061995,-0.20183,0.071366,0,0,0.053959,-0.01,-0.01,-0.39,0
14845,2.3199e+07,0,2.02,1.08,25.25,0.0004034,0.0058745,-0.20019,0.068871,0,0,0.055446,-0.01,-0.01,-0.39,0
14887,2.321e+07,0,2.01,1.08,25.24,8.2263e-05,0.0057802,-0.19968,0.070932,0,0,0.053448,-0.01,-0.01,-0.39,0
14927,2.322e+07,0,2.01,1.08,25.24,-7.5398e-05,0.0058459,-0.19834,0.071547,0,0,0.054811,-0.01,-0.01,-0.39,0
14968,2.323e+07,0,2,1.08,25.24,-0.00044449,0.0060275,-0.19678,0.072357,0,0,0.056034,-0.01,-0.01,-0.39,0
15008,2.324e+07,0,2,1.08,25.24,-0.00047824,0.0062964,-0.19536,0.071005,0,0,0.05713,-0.01,-0.01,-0.39,0
15049,2.325e+07,0,2,1.08,25.25,-0.00068352,0.0064611,-0.19337,0.075618,0,0,0.06006,-0.01,-0.01,-0.39,0
15087,2.326e+07,0,2,1.08,25.25,-0.00081075,0.006654,-0.19163,0.086057,0,0,0.062967,-0.01,-0.01,-0.38,0
15127,2.327e+07,0,2,1.08,25.24,-0.00084043,0.006994,-0.19022,0.097603,0,0,0.065678,-0.01,-0.01,-0.38,0
15168,2.3281e+07,0,2.01,1.08,25.24,-0.00085046,0.0075328,-0.18913,0.114,0,0,0.067997,-0.01,-0.01,-0.38,0
15210,2.3291e+07,0,2.01,1.09,25.24,-0.00073754,0.0077377,-0.18894,0.13038,0,0,0.06611,-0.01,-0.01,-0.38,0
15256,2.3302e+07,0,2.02,1.09,25.24,-0.00041822,0.0076445,-0.18716,0.14268,0,0,0.068464,-0.01,-0.01,-0.38,0
15296,2.3312e+07,0,2.02,1.09,25.24,-0.00015663,0.0074796,-0.18534,0.15206,0,0,0.07047,-0.01,-0.01,-0.38,0
15338,2.3322e+07,0,2.03,1.09,25.24,7.1693e-05,0.006978,-0.18356,0.15834,0,0,0.072497,-0.01,-0.01,-0.38,0
15381,2.3334e+07,0,2.03,1.09,25.24,0.00053257,0.0066777,-0.18093,0.16452,0,0,0.076154,-0.01,-0.01,-0.38,0
15422,2.3344e+07,0,2.03,1.09,25.24,0.00094468,0.0067561,-0.17828,0.17364,0,0,0.079942,-0.01,-0.01,-0.37,0
15464,2.3355e+07,0,2.02,1.09,25.23,0.0011598,0.006843,-0.17602,0.19078,0,0,0.083318,-0.01,-0.01,-0.37,0
15501,2.3366e+07,0,2.02,1.09,25.23,0.001301,0.0065083,-0.17394,0.21013,0,0,0.086304,-0.01,-0.01,-0.37,0
15542,2.3376e+07,0,2.01,1.09,25.23,0.001577,0.0063462,-0.17381,0.22568,0,0,0.084567,-0.01,-0.01,-0.37,0
15584,2.3386e+07,0,2,1.09,25.22,0.0016403,0.0066013,-0.17213,0.23648,0,0,0.087724,-0.01,-0.01,-0.37,0
15624,2.3396e+07,0,2,1.09,25.22,0.0014956,0.0069674,-0.1709,0.24436,0,0,0.090678,-0.01,-0.01,-0.37,0
15671,2.3406e+07,0,2,1.09,25.22,0.0012975,0.0071662,-0.16916,0.24784,0,0,0.09345,-0.01,-0.01,-0.37,0
15711,2.3416e+07,0,1.99,1.08,25.22,0.0011623,0.007248,-0.1673,0.24921,0,0,0.096039,-0.01,-0.01,-0.37,0
15753,2.3427e+07,0,2,1.08,25.22,0.00095828,0.0075959,-0.1656,0.25165,0,0,0.09828,-0.01,-0.01,-0.37,0
15795,2.3437e+07,0,2,1.08,25.22,0.00045633,0.0076667,-0.16511,0.2536,0,0,0.096628,-0.01,-0.01,-0.37,0
15839,2.345e+07,0,2,1.08,25.22,0.00010366,0.0077062,-0.1614,0.25508,0,0,0.10429,-0.01,-0.01,-0.37,0
15880,2.346e+07,0,2,1.08,25.21,-5.5102e-05,0.0078418,-0.16112,0.2602,0,0,0.10268,-0.01,-0.01,-0.37,0
15921,2.3471e+07,0,2.01,1.08,25.21,-0.00029711,0.00771,-0.15906,0.262,0,0,0.10551,-0.01,-0.01,-0.37,0
15962,2.3481e+07,0,2.01,1.09,25.21,-0.0004716,0.0074426,-0.15737,0.26046,0,0,0.10832,-0.01,-0.01,-0.37,0
16002,2.3491e+07,0,2.02,1.09,25.21,-0.00035598,0.0071113,-0.15607,0.25735,0,0,0.11094,-0.01,-0.01,-0.37,0
16043,2.3501e+07,0,2.02,1.09,25.21,-0.00035697,0.0066361,-0.15445,0.25099,0,0,0.1134,-0.01,-0.01,-0.37,0
16088,2.3511e+07,0,2.01,1.09,25.21,-0.00027298,0.0062789,-0.15393,0.24769,0,0,0.11187,-0.01,-0.01,-0.37,0
16129,2.3521e+07,0,2.01,1.09,25.21,-0.00020017,0.0060593,-0.15207,0.24165,0,0,0.11419,-0.01,-0.01,-0.37,0
16170,2.3531e+07,0,2.01,1.09,25.21,0.00014879,0.0059362,-0.15034,0.23461,0,0,0.11635,-0.01,-0.01,-0.37,0
16210,2.3541e+07,0,2,1.09,25.21,0.00023856,0.0058769,-0.1489,0.22457,0,0,0.11837,-0.01,-0.01,-0.37,0
16255,2.3557e+07,0,1.99,1.09,25.21,0.00030896,0.0060689,-0.14663,0.21471,0,0,0.12068,-0.01,-0.01,-0.36,0
16296,2.3567e+07,0,1.99,1.09,25.2,0.00044962,0.0064598,-0.14474,0.2125,0,0,0.12339,-0.01,-0.01,-0.36,0
16338,2.3578e+07,0,1.99,1.09,25.2,0.00053652,0.0065648,-0.14348,0.20437,0,0,0.12609,-0.01,-0.01,-0.36,0
16378,2.3588e+07,0,1.99,1.09,25.2,0.00064502,0.0071082,-0.14177,0.2014,0,0,0.12847,-0.01,-0.01,-0.36,0
16419,2.3599e+07,0,1.99,1.1,25.19,0.0006682,0.0076425,-0.14195,0.20046,0,0,0.12705,-0.01,-0.01,-0.36,0
16465,2.3609e+07,0,2,1.1,25.19,0.00068996,0.0081674,-0.14054,0.19764,0,0,0.12942,-0.01,-0.01,-0.36,0
16506,2.3619e+07,0,2,1.09,25.19,0.00089943,0.0083161,-0.13897,0.19272,0,0,0.13151,-0.01,-0.01,-0.36,0
16548,2.3629e+07,0,2.01,1.09,25.19,0.00098209,0.0082459,-0.13751,0.1877,0,0,0.13358,-0.01,-0.01,-0.36,0
16591,2.364e+07,0,2.01,1.09,25.2,0.00088922,0.0081203,-0.13603,0.18341,0,0,0.1355,-0.01,-0.01,-0.36,0
16631,2.3655e+07,0,2.02,1.09,25.2,0.00097434,0.0079448,-0.13346,0.18098,0,0,0.1377,-0.01,-0.01,-0.36,0
16672,2.3665e+07,0,2.02,1.09,25.2,0.0010733,0.0076761,-0.13152,0.18309,0,0,0.14053,-0.01,-0.01,-0.36,0
16714,2.3675e+07,0,2.02,1.08,25.2,0.0010397,0.007321,-0.13002,0.18284,0,0,0.14319,-0.01,-0.01,-0.36,0
16754,2.3686e+07,0,2.02,1.08,25.19,0.00093384,0.007181,-0.12974,0.18246,0,0,0.14189,-0.01,-0.01,-0.36,0
16795,2.3696e+07,0,2.02,1.08,25.19,0.00068097,0.007023,-0.12879,0.18036,0,0,0.14443,-0.01,-0.01,-0.36,0
16835,2.3705e+07,0,2.01,1.08,25.19,0.00055667,0.0066908,-0.12748,0.1788,0,0,0.1468,-0.01,-0.01,-0.36,0
16881,2.3715e+07,0,2.01,1.09,25.19,0.00073386,0.0066819,-0.12631,0.17502,0,0,0.14902,-0.01,-0.01,-0.36,0
16921,2.3726e+07,0,2,1.09,25.19,0.0003215,0.0068526,-0.12494,0.17017,0,0,0.15097,-0.01,-0.01,-0.36,0
16962,2.3737e+07,0,2,1.09,25.19,0.00015036,0.0069843,-0.12481,0.16772,0,0,0.14972,-0.01,-0.01,-0.36,0
17003,2.3746e+07,0,2,1.09,25.19,6.0654e-05,0.007211,-0.12296,0.16411,0,0,0.15168,-0.01,-0.01,-0.36,0
17037,2.3757e+07,0,2,1.09,25.19,-0.00038029,0.007528,-0.121,0.16025,0,0,0.15353,-0.01,-0.01,-0.35,0
17077,2.3767e+07,0,2,1.09,25.19,-0.00039425,0.0078151,-0.11969,0.15719,0,0,0.15536,-0.01,-0.01,-0.35,0
17118,2.3777e+07,0,2.01,1.09,25.19,-1.3023e-05,0.0078165,-0.11854,0.15302,0,0,0.15706,-0.01,-0.01,-0.35,0
17162,2.3787e+07,0,2.01,1.09,25.19,9.8231e-05,0.0077538,-0.1174,0.14639,0,0,0.15863,-0.01,-0.01,-0.35,0
17202,2.3798e+07,0,2.02,1.09,25.19,-1.6801e-05,0.0077892,-0.11714,0.14181,0,0,0.15746,-0.01,-0.01,-0.35,0
17243,2.3808e+07,0,2.02,1.09,25.19,0.00017706,0.0080354,-0.11621,0.13531,0,0,0.15893,-0.01,-0.01,-0.35,0
17288,2.3817e+07,0,2.02,1.09,25.19,0.0002709,0.0077494,-0.11548,0.1282,0,0,0.16028,-0.01,-0.01,-0.35,0
17329,2.3828e+07,0,2.02,1.09,25.19,0.00044754,0.0073665,-0.11457,0.11966,0,0,0.16153,-0.01,-0.01,-0.35,0
17370,2.3838e+07,0,2.02,1.09,25.19,0.00061148,0.0074652,-0.11326,0.11137,0,0,0.16266,-0.01,-0.01,-0.35,0
17412,2.3848e+07,0,2.02,1.09,25.19,0.0007785,0.0077733,-0.11236,0.10532,0,0,0.16153,-0.01,-0.01,-0.35,0
17454,2.3858e+07,0,2.02,1.09,25.19,0.00093768,0.0075713,-0.11114,0.10056,0,0,0.16361,-0.01,-0.01,-0.35,0
17494,2.3868e+07,0,2.01,1.1,25.19,0.0010833,0.007483,-0.10953,0.098518,0,0,0.16544,-0.01,-0.01,-0.35,0
17536,2.3878e+07,0,2.01,1.1,25.19,0.0011484,0.0076151,-0.10822,0.098903,0,0,0.16723,-0.01,-0.01,-0.35,0
17577,2.3888e+07,0,2,1.1,25.19,0.00091517,0.0078263,-0.10695,0.099266,0,0,0.16891,-0.01,-0.01,-0.35,0
17618,2.3898e+07,0,2,1.1,25.19,0.001097,0.0080208,-0.10572,0.097791,0,0,0.17046,-0.01,-0.01,-0.35,0
17659,2.3909e+07,0,2,1.1,25.19,0.0012913,0.0084071,-0.10565,0.098175,0,0,0.1694,-0.01,-0.01,-0.35,0
17703,2.3919e+07,0,2,1.09,25.19,0.001184,0.0087757,-0.10464,0.097067,0,0,0.17086,-0.01,-0.01,-0.35,0
17744,2.3929e+07,0,2.01,1.09,25.19,0.00093793,0.0090548,-0.10353,0.095545,0,0,0.1722,-0.01,-0.01,-0.35,0
17785,2.3938e+07,0,2.01,1.09,25.19,0.0010027,0.0088208,-0.10242,0.092264,0,0,0.17344,-0.01,-0.01,-0.35,0
17833,2.3954e+07,0,2.02,1.09,25.19,0.00070426,0.0087529,-0.10043,0.090745,0,0,0.17527,-0.01,-0.01,-0.35,0
17873,2.3964e+07,0,2.02,1.09,25.19,0.00059351,0.0085128,-0.098716,0.091666,0,0,0.17757,-0.01,-0.01,-0.34,0
17915,2.3975e+07,0,2.02,1.09,25.19,0.00082976,0.0083556,-0.097191,0.094163,0,0,0.17964,-0.01,-0.01,-0.34,0
17956,2.3985e+07,0,2.02,1.09,25.19,0.00070554,0.008168,-0.096825,0.099783,0,0,0.17867,-0.01,-0.01,-0.34,0
17997,2.3995e+07,0,2.02,1.09,25.19,0.00044426,0.0077351,-0.095818,0.10403,0,0,0.18072,-0.01,-0.01,-0.34,0
18038,2.4006e+07,0,2.02,1.09,25.19,0.00085535,0.0075279,-0.094295,0.10804,0,0,0.18255,-0.01,-0.01,-0.34,0
18082,2.4016e+07,0,2.01,1.09,25.19,0.0010588,0.0072707,-0.093299,0.10954,0,0,0.18435,-0.01,-0.01,-0.34,0
18124,2.4027e+07,0,2.01,1.09,25.19,0.0010993,0.0072207,-0.091985,0.11063,0,0,0.18595,-0.01,-0.01,-0.34,0
18164,2.4037e+07,0,2,1.09,25.19,0.001284,0.0073685,-0.091902,0.11268,0,0,0.18503,-0.01,-0.01,-0.34,0
18207,2.4047e+07,0,2,1.09,25.19,0.0011288,0.0073782,-0.091043,0.11294,0,0,0.18661,-0.01,-0.01,-0.34,0
18247,2.4057e+07,0,1.99,1.09,25.2,0.0011416,0.0075193,-0.089549,0.11318,0,0,0.18808,-0.01,-0.01,-0.34,0
18287,2.4068e+07,0,1.99,1.09,25.2,0.0011845,0.0078005,-0.088089,0.11304,0,0,0.19053,-0.01,-0.01,-0.33,0
18328,2.4078e+07,0,1.99,1.09,25.19,0.001199,0.007835,-0.086491,0.11395,0,0,0.19293,-0.01,-0.01,-0.33,0
18369,2.4088e+07,0,2,1.09,25.19,0.0010843,0.0078272,-0.086261,0.11943,0,0,0.19207,-0.01,-0.01,-0.33,0
18410,2.4098e+07,0,2,1.09,25.19,0.0012532,0.007911,-0.084927,0.12551,0,0,0.19433,-0.01,-0.01,-0.33,0
18451,2.4108e+07,0,2.01,1.09,25.19,0.0013447,0.0080693,-0.083659,0.12997,0,0,0.19646,-0.01,-0.01,-0.33,0
18498,2.412e+07,0,2.01,1.09,25.18,0.0014775,0.008087,-0.082406,0.1313,0,0,0.19832,-0.01,-0.01,-0.33,0
18539,2.4131e+07,0,2.02,1.09,25.18,0.0018332,0.007725,-0.081178,0.13169,0,0,0.20014,-0.01,-0.01,-0.33,0
18580,2.4141e+07,0,2.02,1.09,25.18,0.0017227,0.0077264,-0.080929,0.13403,0,0,0.19941,-0.01,-0.01,-0.33,0
18621,2.4151e+07,0,2.02,1.09,25.18,0.0018402,0.0077255,-0.079594,0.1357,0,0,0.20112,-0.01,-0.01,-0.33,0
18662,2.4161e+07,0,2.02,1.09,25.18,0.0020823,0.0074779,-0.07831,0.13562,0,0,0.2028,-0.01,-0.01,-0.33,0
18699,2.4174e+07,0,2.02,1.09,25.17,0.0021548,0.0070812,-0.076454,0.13733,0,0,0.20558,-0.01,-0.01,-0.32,0
18740,2.4184e+07,0,2.01,1.08,25.17,0.0019393,0.0070539,-0.074759,0.14063,0,0,0.20843,-0.01,-0.01,-0.32,0
18782,2.4194e+07,0,2,1.08,25.17,0.0017054,0.0068767,-0.073254,0.14564,0,0,0.21105,-0.01,-0.01,-0.32,0
18822,2.4205e+07,0,2,1.09,25.17,0.0017105,0.0069428,-0.073082,0.15346,0,0,0.21032,-0.01,-0.01,-0.32,0
18864,2.4215e+07,0,1.99,1.09,25.16,0.0014982,0.0071014,-0.071606,0.16011,0,0,0.2129,-0.01,-0.01,-0.32,0
18908,2.4225e+07,0,1.99,1.09,25.16,0.0010637,0.0074177,-0.070511,0.16596,0,0,0.21532,-0.01,-0.01,-0.32,0
18949,2.4236e+07,0,1.99,1.09,25.16,0.00080568,0.0075737,-0.069495,0.17281,0,0,0.21751,-0.01,-0.01,-0.32,0
18990,2.4246e+07,0,1.99,1.09,25.16,0.00063262,0.0078103,-0.068303,0.17727,0,0,0.21965,-0.01,-0.01,-0.32,0
19032,2.4258e+07,0,1.99,1.09,25.16,0.00029549,0.0078687,-0.066313,0.18131,0,0,0.22267,-0.01,-0.01,-0.32,0
19071,2.4268e+07,0,2,1.09,25.16,0.00035274,0.0079883,-0.064702,0.18562,0,0,0.22561,-0.01,-0.01,-0.32,0
19113,2.4279e+07,0,2,1.09,25.16,0.00073347,0.0077097,-0.063288,0.19315,0,0,0.22837,-0.01,-0.01,-0.32,0
19155,2.4289e+07,0,2.01,1.09,25.16,0.00090975,0.0076165,-0.062782,0.20187,0,0,0.22774,-0.01,-0.01,-0.32,0
19196,2.4299e+07,0,2.01,1.09,25.16,0.0010037,0.0075398,-0.061548,0.20756,0,0,0.23044,-0.01,-0.01,-0.32,0
19236,2.4309e+07,0,2.02,1.09,25.16,0.0012489,0.0070688,-0.060203,0.21207,0,0,0.23299,-0.01,-0.01,-0.32,0
19277,2.4319e+07,0,2.02,1.09,25.16,0.0012636,0.0067334,-0.05914,0.21471,0,0,0.2354,-0.01,-0.01,-0.32,0
19321,2.4329e+07,0,2.01,1.09,25.16,0.0013487,0.0062517,-0.057845,0.21437,0,0,0.23768,-0.01,-0.01,-0.32,0
19363,2.434e+07,0,2.01,1.09,25.16,0.0016335,0.0061262,-0.057327,0.21554,0,0,0.2371,-0.01,-0.01,-0.32,0
19403,2.435e+07,0,2.01,1.09,25.16,0.0018888,0.0059007,-0.055849,0.21422,0,0,0.23927,-0.01,-0.01,-0.32,0
19444,2.436e+07,0,2,1.09,25.16,0.0017451,0.0059588,-0.054604,0.21152,0,0,0.24131,-0.01,-0.01,-0.32,0
19485,2.4373e+07,0,1.99,1.09,25.15,0.0017788,0.0062587,-0.052631,0.21051,0,0,0.24514,-0.01,-0.01,-0.31,0
19526,2.4382e+07,0,1.99,1.09,25.15,0.0016818,0.0064754,-0.050659,0.21313,0,0,0.24894,-0.01,-0.01,-0.31,0
19569,2.4393e+07,0,1.99,1.09,25.15,0.0015611,0.0068543,-0.049938,0.21865,0,0,0.24844,-0.01,-0.01,-0.31,0
19609,2.4402e+07,0,1.99,1.09,25.14,0.0015985,0.0072369,-0.04812,0.2246,0,0,0.2521,-0.01,-0.01,-0.31,0
19651,2.4413e+07,0,1.99,1.09,25.14,0.0014915,0.0076126,-0.046541,0.23158,0,0,0.25559,-0.01,-0.01,-0.31,0
19696,2.4423e+07,0,1.99,1.09,25.14,0.001238,0.0076734,-0.045034,0.24122,0,0,0.25884,-0.01,-0.01,-0.31,0
19737,2.4434e+07,0,2,1.09,25.14,0.00099363,0.0076623,-0.04365,0.25099,0,0,0.26191,-0.01,-0.01,-0.31,0
19778,2.4444e+07,0,2,1.09,25.13,0.00097998,0.0076201,-0.042352,0.25728,0,0,0.26488,-0.01,-0.01,-0.31,0
19821,2.4454e+07,0,2.01,1.09,25.13,0.00078601,0.0072791,-0.042212,0.25956,0,0,0.2645,-0.01,-0.01,-0.31,0
19862,2.4464e+07,0,2.01,1.09,25.13,0.00091246,0.0069657,-0.040875,0.26052,0,0,0.26734,-0.01,-0.01,-0.31,0
19899,2.4474e+07,0,2.01,1.09,25.13,0.00095134,0.0065646,-0.039238,0.26116,0,0,0.27095,-0.01,-0.01,-0.31,0
19940,2.4484e+07,0,2.02,1.09,25.13,0.00096566,0.0063858,-0.037405,0.26352,0,0,0.27443,-0.01,-0.01,-0.31,0
19981,2.4494e+07,0,2.02,1.09,25.13,0.00065146,0.0060077,-0.036078,0.26721,0,0,0.27773,-0.01,-0.01,-0.31,0
20021,2.4504e+07,0,2.01,1.09,25.13,0.00078002,0.0056231,-0.034056,0.27054,0,0,0.28086,-0.01,-0.01,-0.31,0
20062,2.4515e+07,0,2.01,1.09,25.13,0.00099869,0.0053279,-0.03256,0.27502,0,0,0.2838,-0.01,-0.01,-0.31,0
20108,2.4525e+07,0,2,1.09,25.14,0.00099884,0.0051713,-0.031763,0.27934,0,0,0.28348,-0.01,-0.01,-0.31,0
20149,2.4536e+07,0,2,1.09,25.14,0.00073983,0.0051803,-0.030459,0.27946,0,0,0.2863,-0.01,-0.01,-0.31,0
20189,2.4546e+07,0,2,1.09,25.14,0.00092374,0.0051593,-0.029391,0.27658,0,0,0.28902,-0.01,-0.01,-0.31,0
20230,2.4556e+07,0,1.99,1.09,25.14,0.00095772,0.005362,-0.028269,0.27244,0,0,0.2916,-0.01,-0.01,-0.31,0
20271,2.4566e+07,0,1.99,1.09,25.14,0.00063616,0.0056106,-0.028111,0.26542,0,0,0.29132,-0.01,-0.01,-0.31,0
20310,2.4577e+07,0,1.99,1.09,25.14,0.00065929,0.005671,-0.026791,0.26061,0,0,0.29442,-0.01,-0.01,-0.3,0
20350,2.4587e+07,0,2,1.09,25.14,0.00098583,0.005814,-0.025554,0.25793,0,0,0.29736,-0.01,-0.01,-0.3,0
20391,2.4597e+07,0,2,1.09,25.14,0.00095241,0.005882,-0.024049,0.25545,0,0,0.30015,-0.01,-0.01,-0.3,0
20431,2.4607e+07,0,2,1.09,25.14,0.0010011,0.0063102,-0.022545,0.25108,0,0,0.30281,-0.01,-0.01,-0.3,0
20473,2.4617e+07,0,2,1.09,25.14,0.0012533,0.0063439,-0.021291,0.24512,0,0,0.30533,-0.01,-0.01,-0.3,0
20520,2.4627e+07,0,2.01,1.09,25.14,0.0010992,0.0063774,-0.020987,0.24135,0,0,0.30512,-0.01,-0.01,-0.3,0
20562,2.4637e+07,0,2.01,1.09,25.14,0.0013428,0.0062079,-0.01971,0.23618,0,0,0.30755,-0.01,-0.01,-0.3,0
20603,2.4647e+07,0,2.01,1.09,25.14,0.0015056,0.0060843,-0.018936,0.23018,0,0,0.30986,-0.01,-0.01,-0.3,0
20643,2.4657e+07,0,2.01,1.09,25.14,0.0016724,0.0060285,-0.017924,0.22279,0,0,0.31205,-0.01,-0.01,-0.3,0
20684,2.4667e+07,0,2.01,1.08,25.14,0.0016673,0.0058698,-0.01742,0.21536,0,0,0.31188,-0.01,-0.01,-0.3,0
20724,2.4678e+07,0,2,1.08,25.14,0.0015258,0.0059546,-0.015958,0.20904,0,0,0.31471,-0.01,-0.01,-0.3,0
20765,2.4688e+07,0,2,1.08,25.13,0.0013564,0.0058322,-0.014884,0.20424,0,0,0.31743,-0.01,-0.01,-0.3,0
20806,2.4698e+07,0,2,1.08,25.13,0.0011232,0.0057845,-0.01368,0.20097,0,0,0.32001,-0.01,-0.01,-0.3,0
20847,2.4708e+07,0,2,1.08,25.12,0.00077733,0.0056838,-0.012722,0.19673,0,0,0.32247,-0.01,-0.01,-0.3,0
20888,2.4718e+07,0,2,1.09,25.12,0.0008282,0.0061193,-0.012172,0.19583,0,0,0.32235,-0.01,-0.01,-0.3,0
20932,2.4728e+07,0,2,1.08,25.11,0.00073825,0.0061187,-0.010986,0.19371,0,0,0.32471,-0.01,-0.01,-0.3,0
20975,2.4739e+07,0,2,1.08,25.11,0.00078179,0.0063164,-0.0097573,0.19043,0,0,0.32694,-0.01,-0.01,-0.3,0
21015,2.4749e+07,0,2,1.08,25.11,0.00072524,0.0064179,-0.0089487,0.18696,0,0,0.32907,-0.01,-0.01,-0.3,0
21056,2.4759e+07,0,2,1.09,25.11,0.00066613,0.0065805,-0.0077509,0.18244,0,0,0.3311,-0.01,-0.01,-0.3,0
21098,2.4769e+07,0,2,1.08,25.11,0.0006734,0.0065474,-0.0071943,0.17976,0,0,0.33103,-0.01,-0.01,-0.3,0
21139,2.478e+07,0,2,1.09,25.11,0.00064804,0.0063648,-0.0060987,0.17561,0,0,0.33307,-0.01,-0.01,-0.29,0
21181,2.479e+07,0,2,1.09,25.11,0.0008275,0.0063064,-0.0051389,0.1727,0,0,0.33501,-0.01,-0.01,-0.29,0
21221,2.48e+07,0,2,1.09,25.11,0.0011548,0.0061885,-0.0040136,0.16695,0,0,0.33688,-0.01,-0.01,-0.29,0
21262,2.4811e+07,0,2,1.09,25.11,0.001149,0.0058397,-0.0027884,0.16157,0,0,0.33865,-0.01,-0.01,-0.29,0
21303,2.4821e+07,0,2,1.09,25.1,0.0014308,0.0056552,-0.0021436,0.15718,0,0,0.33862,-0.01,-0.01,-0.29,0
21350,2.4831e+07,0,2,1.09,25.1,0.0016373,0.0054813,-0.001313,0.15182,0,0,0.34032,-0.01,-0.01,-0.29,0
21392,2.4842e+07,0,2,1.09,25.1,0.0019258,0.0051129,-0.00034075,0.14564,0,0,0.34194,-0.01,-0.01,-0.29,0
21433,2.4852e+07,0,1.99,1.09,25.1,0.0022269,0.0050788,0.00039454,0.14004,0,0,0.34347,-0.01,-0.01,-0.29,0
21475,2.4862e+07,0,1.99,1.09,25.1,0.002208,0.0049657,0.00085317,0.13346,0,0,0.34492,-0.01,-0.01,-0.29,0
21515,2.4872e+07,0,1.99,1.09,25.1,0.002158,0.0049997,0.0011454,0.12872,0,0,0.34493,-0.01,-0.01,-0.29,0
21556,2.4883e+07,0,1.99,1.09,25.1,0.0020216,0.0051746,0.0021319,0.12422,0,0,0.34666,-0.01,-0.01,-0.29,0
21596,2.4894e+07,0,1.99,1.09,25.09,0.00229,0.0052596,0.0029406,0.12172,0,0,0.3483,-0.01,-0.01,-0.29,0
21637,2.4904e+07,0,1.99,1.08,25.09,0.0023443,0.0054023,0.0039224,0.12005,0,0,0.34985,-0.01,-0.01,-0.29,0
21677,2.4914e+07,0,1.99,1.08,25.09,0.0023243,0.0055401,0.0049162,0.11841,0,0,0.35131,-0.01,-0.01,-0.29,0
21719,2.4924e+07,0,1.99,1.08,25.09,0.0022071,0.0058,0.005693,0.1162,0,0,0.3527,-0.01,-0.01,-0.29,0
21766,2.4934e+07,0,2,1.08,25.09,0.0023903,0.0058375,0.0065507,0.11302,0,0,0.35403,-0.01,-0.01,-0.29,0
21806,2.4944e+07,0,2,1.08,25.09,0.0022836,0.0055736,0.0070618,0.11087,0,0,0.35409,-0.01,-0.01,-0.29,0
21847,2.4954e+07,0,2,1.08,25.1,0.0020915,0.0054858,0.0076849,0.10768,0,0,0.35536,-0.01,-0.01,-0.29,0
21888,2.4964e+07,0,2,1.08,25.1,0.0021208,0.0056959,0.0087669,0.10478,0,0,0.35656,-0.01,-0.01,-0.29,0
21932,2.4977e+07,0,2,1.08,25.1,0.001926,0.0056229,0.0097981,0.10154,0,0,0.35837,-0.01,-0.01,-0.29,0
21972,2.4987e+07,0,2,1.08,25.1,0.0019749,0.0054241,0.010923,0.10036,0,0,0.36008,-0.01,-0.01,-0.28,0
22013,2.4997e+07,0,2,1.08,25.1,0.0020107,0.005531,0.012011,0.10026,0,0,0.3617,-0.01,-0.01,-0.28,0
22053,2.5008e+07,0,2,1.08,25.09,0.0020005,0.0055989,0.013084,0.10201,0,0,0.36325,-0.01,-0.01,-0.28,0
22095,2.5018e+07,0,2,1.08,25.09,0.0020047,0.0051082,0.013527,0.10425,0,0,0.36339,-0.01,-0.01,-0.28,0
22136,2.5028e+07,0,1.99,1.08,25.09,0.0021325,0.0048294,0.014648,0.10579,0,0,0.36487,-0.01,-0.01,-0.28,0
22181,2.5038e+07,0,1.99,1.08,25.09,0.0022972,0.0048054,0.015844,0.10701,0,0,0.36628,-0.01,-0.01,-0.28,0
22224,2.5049e+07,0,1.99,1.08,25.08,0.0025433,0.0048058,0.017056,0.10717,0,0,0.36763,-0.01,-0.01,-0.28,0
22264,2.5059e+07,0,1.99,1.08,25.08,0.0026072,0.0047691,0.017788,0.10647,0,0,0.36892,-0.01,-0.01,-0.28,0
22305,2.5069e+07,0,1.99,1.08,25.08,0.0027115,0.0044909,0.018875,0.10633,0,0,0.37083,-0.01,-0.01,-0.28,0
22346,2.508e+07,0,1.99,1.09,25.08,0.0026998,0.0044886,0.019508,0.10858,0,0,0.37264,-0.01,-0.01,-0.28,0
22387,2.5091e+07,0,2,1.09,25.09,0.003176,0.0046734,0.020302,0.11252,0,0,0.37436,-0.01,-0.01,-0.28,0
22428,2.5102e+07,0,2,1.09,25.09,0.003392,0.00472,0.020436,0.11651,0,0,0.37456,-0.01,-0.01,-0.28,0
22468,2.5112e+07,0,2,1.09,25.09,0.0035136,0.0046418,0.021471,0.11974,0,0,0.3762,-0.01,-0.01,-0.28,0
22510,2.5122e+07,0,2,1.09,25.09,0.0036732,0.0046571,0.022664,0.12222,0,0,0.3778,-0.01,-0.01,-0.28,0
22550,2.5132e+07,0,2.01,1.09,25.09,0.0037278,0.0045251,0.023245,0.12275,0,0,0.3793,-0.01,-0.01,-0.28,0
22596,2.5142e+07,0,2.01,1.08,25.09,0.0036535,0.0045647,0.024238,0.12324,0,0,0.38074,-0.01,-0.01,-0.28,0
22636,2.5153e+07,0,2,1.09,25.09,0.0036471,0.0045533,0.025199,0.12412,0,0,0.38214,-0.01,-0.01,-0.28,0
22678,2.5163e+07,0,2,1.09,25.09,0.0037247,0.0048713,0.025531,0.12462,0,0,0.38239,-0.01,-0.01,-0.28,0
22719,2.5173e+07,0,2,1.09,25.09,0.0037472,0.0049285,0.026115,0.12381,0,0,0.38371,-0.01,-0.01,-0.28,0
22756,2.5184e+07,0,2,1.09,25.09,0.003832,0.0048535,0.027404,0.12599,0,0,0.38611,-0.01,-0.01,-0.28,0
22796,2.5194e+07,0,2,1.09,25.09,0.0037535,0.0049203,0.02834,0.12992,0,0,0.38836,-0.01,-0.01,-0.28,0
22836,2.5204e+07,0,1.99,1.09,25.08,0.0038103,0.0048498,0.029397,0.13491,0,0,0.39051,-0.01,-0.01,-0.28,0
22878,2.5214e+07,0,1.99,1.09,25.08,0.0037838,0.0047745,0.03021,0.1406,0,0,0.39257,-0.01,-0.01,-0.28,0
22918,2.5224e+07,0,1.99,1.09,25.08,0.0039201,0.0047935,0.031215,0.1459,0,0,0.39453,-0.01,-0.01,-0.28,0
22959,2.5234e+07,0,1.99,1.09,25.08,0.0040918,0.0048909,0.031693,0.15187,0,0,0.39485,-0.01,-0.01,-0.28,0
23004,2.5244e+07,0,1.99,1.09,25.08,0.0038198,0.0047917,0.032519,0.15596,0,0,0.39675,-0.01,-0.01,-0.28,0
23047,2.5255e+07,0,1.99,1.08,25.08,0.0037307,0.0045723,0.033731,0.15915,0,0,0.39862,-0.01,-0.01,-0.28,0
23090,2.5265e+07,0,1.99,1.09,25.08,0.0039783,0.0043148,0.034767,0.16035,0,0,0.40038,-0.01,-0.01,-0.28,0
23131,2.5275e+07,0,2,1.09,25.08,0.0040809,0.0039353,0.035361,0.16031,0,0,0.40244,-0.01,-0.01,-0.28,0
23172,2.5286e+07,0,2,1.09,25.08,0.004147,0.0037162,0.036187,0.16257,0,0,0.40444,-0.01,-0.01,-0.28,0
23212,2.5297e+07,0,2,1.09,25.08,0.0043211,0.003515,0.03706,0.16536,0,0,0.40636,-0.01,-0.01,-0.28,0
23253,2.5308e+07,0,2,1.09,25.08,0.0042429,0.0033747,0.037622,0.16774,0,0,0.4082,-0.01,-0.01,-0.28,0
23296,2.5318e+07,0,2,1.09,25.09,0.0043672,0.0030857,0.037856,0.16977,0,0,0.40858,-0.01,-0.01,-0.28,0
23337,2.5328e+07,0,2,1.09,25.09,0.0045322,0.0024935,0.038655,0.17079,0,0,0.41031,-0.01,-0.01,-0.28,0
23378,2.5338e+07,0,2,1.09,25.09,0.0046926,0.0024881,0.03951,0.17122,0,0,0.41197,-0.01,-0.01,-0.28,0
23422,2.5348e+07,0,1.99,1.08,25.09,0.0045407,0.00254,0.04059,0.16972,0,0,0.41358,-0.01,-0.01,-0.28,0
23464,2.5358e+07,0,1.99,1.08,25.09,0.0046505,0.002802,0.041266,0.16656,0,0,0.41513,-0.01,-0.01,-0.28,0
23504,2.5368e+07,0,1.99,1.08,25.09,0.0045922,0.0030589,0.042297,0.16477,0,0,0.41554,-0.01,-0.01,-0.28,0
23546,2.5378e+07,0,1.99,1.08,25.09,0.0044403,0.0031331,0.043159,0.16157,0,0,0.41705,-0.01,-0.01,-0.28,0
23587,2.5388e+07,0,1.99,1.09,25.1,0.0043462,0.003701,0.044107,0.15916,0,0,0.419,-0.01,-0.01,-0.28,0
23630,2.5398e+07,0,1.99,1.09,25.1,0.0041892,0.0039854,0.044768,0.15676,0,0,0.42087,-0.01,-0.01,-0.28,0
23671,2.5409e+07,0,1.99,1.09,25.1,0.0042297,0.0041831,0.045478,0.15512,0,0,0.42268,-0.01,-0.01,-0.28,0
23712,2.542e+07,0,1.99,1.09,25.1,0.0043779,0.0046329,0.046255,0.15491,0,0,0.42445,-0.01,-0.01,-0.28,0
23754,2.543e+07,0,1.99,1.09,25.1,0.0043555,0.0050527,0.046356,0.15501,0,0,0.42491,-0.01,-0.01,-0.28,0
23796,2.544e+07,0,2,1.09,25.1,0.004336,0.0050145,0.047023,0.1544,0,0,0.42658,-0.01,-0.01,-0.28,0
23841,2.545e+07,0,2,1.09,25.1,0.0043029,0.0047372,0.047918,0.15366,0,0,0.42819,-0.01,-0.01,-0.28,0
23883,2.546e+07,0,2,1.09,25.1,0.0042217,0.0045155,0.04889,0.15206,0,0,0.42975,-0.01,-0.01,-0.28,0
23923,2.547e+07,0,2,1.09,25.1,0.0044787,0.0045286,0.049917,0.15023,0,0,0.43125,-0.01,-0.01,-0.28,0
23965,2.548e+07,0,2,1.09,25.11,0.0048089,0.0041698,0.05042,0.14881,0,0,0.43175,-0.01,-0.01,-0.28,0
24005,2.549e+07,0,2,1.09,25.11,0.0049253,0.0038596,0.051064,0.14855,0,0,0.43396,-0.01,-0.01,-0.28,0
24046,2.5499e+07,0,2,1.09,25.11,0.0051705,0.0034551,0.052285,0.14963,0,0,0.43609,-0.01,-0.01,-0.27,0
24086,2.5509e+07,0,2,1.08,25.11,0.0049581,0.0031688,0.053186,0.15136,0,0,0.43815,-0.01,-0.01,-0.27,0
24127,2.5519e+07,0,2,1.09,25.11,0.0050077,0.0030178,0.053864,0.15321,0,0,0.44012,-0.01,-0.01,-0.27,0
24168,2.553e+07,0,1.99,1.09,25.1,0.0047237,0.0031035,0.054373,0.15624,0,0,0.44207,-0.01,-0.01,-0.27,0
24209,2.554e+07,0,1.99,1.09,25.1,0.0047263,0.0031594,0.054849,0.15966,0,0,0.44262,-0.01,-0.01,-0.27,0
24254,2.555e+07,0,1.99,1.09,25.1,0.0046679,0.0032736,0.055588,0.16212,0,0,0.44446,-0.01,-0.01,-0.27,0
24294,2.556e+07,0,1.99,1.09,25.1,0.0047221,0.0033849,0.056652,0.16353,0,0,0.44624,-0.01,-0.01,-0.27,0
24336,2.557e+07,0,1.99,1.09,25.1,0.0045182,0.0037549,0.057253,0.16213,0,0,0.44797,-0.01,-0.01,-0.27,0
24377,2.558e+07,0,1.99,1.09,25.1,0.004282,0.0040901,0.058159,0.16235,0,0,0.44854,-0.01,-0.01,-0.27,0
24418,2.559e+07,0,2,1.09,25.11,0.0041637,0.0043839,0.059047,0.16184,0,0,0.45022,-0.01,-0.01,-0.27,0
24455,2.5601e+07,0,2,1.09,25.11,0.0044183,0.004603,0.060413,0.16247,0,0,0.45261,-0.01,-0.01,-0.27,0
24496,2.5611e+07,0,2,1.09,25.1,0.004647,0.0046917,0.061377,0.16549,0,0,0.45498,-0.01,-0.01,-0.27,0
24538,2.5621e+07,0,2.01,1.09,25.1,0.0048189,0.0045508,0.062525,0.169,0,0,0.4572,-0.01,-0.01,-0.27,0
24578,2.5631e+07,0,2.01,1.09,25.1,0.0049876,0.0044752,0.063334,0.17135,0,0,0.45935,-0.01,-0.01,-0.27,0
24621,2.5641e+07,0,2.01,1.09,25.1,0.0052431,0.0045599,0.063572,0.17488,0,0,0.45998,-0.01,-0.01,-0.27,0
24672,2.5652e+07,0,2.01,1.09,25.1,0.0055607,0.0043272,0.064413,0.17765,0,0,0.46213,-0.01,-0.01,-0.27,83.62
24713,2.5663e+07,0,2,1.09,25.1,0.0057379,0.0041627,0.065234,0.18043,0,0,0.46421,-0.01,-0.01,-0.27,83.62
24754,2.5673e+07,0,2,1.09,25.1,0.0058285,0.0042108,0.066075,0.18271,0,0,0.46614,-0.01,-0.01,-0.27,83.62
24795,2.5683e+07,0,2,1.09,25.1,0.0059723,0.0040188,0.066875,0.18389,0,0,0.46801,-0.01,-0.01,-0.27,83.62
24836,2.5696e+07,0,1.99,1.09,25.09,0.005853,0.0036464,0.068031,0.18365,0,0,0.46988,-0.01,-0.01,-0.26,83.62
24877,2.5706e+07,0,1.99,1.09,25.09,0.0059118,0.0034465,0.068934,0.18203,0,0,0.47149,-0.01,-0.01,-0.26,83.62
24918,2.5716e+07,0,1.99,1.09,25.09,0.0055745,0.0037005,0.069397,0.17857,0,0,0.47305,-0.01,-0.01,-0.26,83.62
24958,2.5727e+07,0,1.99,1.08,25.09,0.0055759,0.003702,0.070286,0.17527,0,0,0.47464,-0.01,-0.01,-0.27,83.62
24999,2.5737e+07,0,1.99,1.08,25.09,0.0053708,0.0036493,0.070551,0.17186,0,0,0.47534,-0.01,-0.01,-0.27,83.62
25039,2.5747e+07,0,1.99,1.08,25.08,0.0051381,0.0032807,0.07102,0.16759,0,0,0.47682,-0.01,-0.01,-0.26,83.62
25086,2.5758e+07,0,2,1.08,25.08,0.0050777,0.0031549,0.071869,0.16267,0,0,0.47832,-0.01,-0.01,-0.26,83.62
25127,2.5768e+07,0,2,1.09,25.08,0.0050945,0.0030318,0.072491,0.15717,0,0,0.47904,-0.01,-0.01,-0.26,83.62
