LineNo,TimeUS,C,SV,SP,SH,SM,SVT,errRP,OFN,OFE,FS,TS,SS,GPS,PI
309,1.9491e+07,1,0,0,0,0.01,0,0.037953,0,0,0,50,65703,0,0
653,1.9556e+07,1,0,0,0,0.01,0,0.038296,0,0,0,50,65703,0,0
880,1.9602e+07,1,0,0,0.01,0,0,0.036485,0,0,0,50,65703,0,0
1222,1.9763e+07,1,0,0,0.01,0,0,0.037034,0,0,0,50,65703,0,0
1498,1.9834e+07,1,0,0,0.01,0,0,0.037366,0,0,0,50,65703,0,0
1593,1.9856e+07,1,0,0,0.02,0.01,0,0.035207,0,0,0,50,65703,0,0
1633,1.9866e+07,1,0,0,0.02,0.01,0,0.03531,0,0,0,50,65703,0,0
1675,1.9876e+07,1,0,0,0.02,0.01,0,0.035418,0,0,0,50,65703,0,0
1716,1.9886e+07,1,0,0,0.02,0.01,0,0.035522,0,0,0,50,65703,0,0
1756,1.9899e+07,1,0,0,0.01,0.01,0,0.035629,0,0,0,50,65703,0,0
1797,1.9909e+07,1,0,0,0.01,0,0,0.033516,0,0,0,50,65703,0,0
1837,1.992e+07,1,0,0,0.01,0,0,0.033516,0,0,0,50,65703,0,0
1879,1.993e+07,1,0,0,0.01,0,0,0.033612,0,0,0,50,65703,0,0
1919,1.994e+07,1,0,0,0.01,0,0,0.03371,0,0,0,50,65703,0,0
1960,1.995e+07,1,0,0,0.01,0,0,0.033808,0,0,0,50,65703,0,0
2005,1.996e+07,1,0,0,0.01,0,0,0.033906,0,0,0,50,65703,0,0
2048,1.9971e+07,1,0,0,0.01,0,0,0.033906,0,0,0,50,65703,0,0
2089,1.9981e+07,1,0,0,0.01,0,0,0.034004,0,0,0,50,65703,0,0
2129,1.9991e+07,1,0,0,0.01,0,0,0.034102,0,0,0,50,65703,0,0
2170,2.0002e+07,1,0,0,0.01,0,0,0.0342,0,0,0,50,65703,0,0
2211,2.0012e+07,1,0,0,0.01,0,0,0.03225,0,0,0,50,65703,0,0
2252,2.0022e+07,1,0,0,0.01,0,0,0.032343,0,0,0,50,65703,0,0
2293,2.0032e+07,1,0,0,0.01,0,0,0.032437,0,0,0,50,65703,0,0
2333,2.0042e+07,1,0,0,0.01,0,0,0.032437,0,0,0,50,65703,0,0
2376,2.0052e+07,1,0,0,0.01,0,0,0.03253,0,0,0,50,65703,0,0
2420,2.0062e+07,1,0,0,0.01,0,0,0.032623,0,0,0,50,65703,0,0
2461,2.0072e+07,1,0,0,0.01,0,0,0.032716,0,0,0,50,65703,0,0
2504,2.0082e+07,1,0,0,0.01,0,0,0.032716,0,0,0,50,65703,0,0
2544,2.0093e+07,1,0,0,0.01,0,0,0.032808,0,0,0,50,65703,0,0
2584,2.0103e+07,1,0,0,0.01,0,0,0.032902,0,0,0,50,65703,0,0
2622,2.0113e+07,1,0,0,0.01,0,0,0.031117,0,0,0,50,65703,0,0
2663,2.0123e+07,1,0,0,0.01,0,0,0.031203,0,0,0,50,65703,0,0
2704,2.0134e+07,1,0,0,0.01,0,0,0.031203,0,0,0,50,65703,0,0
2745,2.0144e+07,1,0,0,0.01,0,0,0.031292,0,0,0,50,65703,0,0
2786,2.0153e+07,1,0,0,0.01,0,0,0.031381,0,0,0,50,65703,0,0
2830,2.0164e+07,1,0,0,0.01,0,0,0.03147,0,0,0,50,65703,0,0
2872,2.0174e+07,1,0,0,0.01,0,0,0.031559,0,0,0,50,65703,0,0
2913,2.0183e+07,1,0,0,0.01,0,0,0.031648,0,0,0,50,65703,0,0
2954,2.0193e+07,1,0,0,0.01,0,0,0.031648,0,0,0,50,65703,0,0
2995,2.0203e+07,1,0,0,0.02,0,0,0.031737,0,0,0,50,65703,0,0
3033,2.0214e+07,1,0,0,0.02,0.01,0,0.030079,0,0,0,50,65703,0,0
3074,2.0224e+07,1,0,0,0.02,0.01,0,0.030079,0,0,0,50,65703,0,0
3114,2.0234e+07,1,0,0,0.02,0.01,0,0.030162,0,0,0,50,65703,0,0
3155,2.0244e+07,1,0,0,0.02,0.01,0,0.030247,0,0,0,50,65703,0,0
3198,2.0254e+07,1,0,0,0.02,0.01,0,0.030331,0,0,0,50,65703,0,0
3243,2.0264e+07,1,0,0,0.02,0.01,0,0.030331,0,0,0,50,65703,0,0
3284,2.0274e+07,1,0,0,0.02,0.01,0,0.030416,0,0,0,50,65703,0,0
3325,2.0284e+07,1,0,0,0.02,0.01,0,0.030501,0,0,0,50,65703,0,0
3366,2.0294e+07,1,0,0,0.02,0.01,0,0.030501,0,0,0,50,65703,0,0
3408,2.0304e+07,1,0,0,0.02,0.01,0,0.030585,0,0,0,50,65703,0,0
3448,2.0314e+07,1,0,0,0,0.01,0,0.03067,0,0,0,50,65703,0,0
3488,2.0324e+07,1,0,0,0,0,0,0.029136,0,0,0,50,65703,0,0
3529,2.0334e+07,1,0,0,0,0,0,0.029216,0,0,0,50,65703,0,0
3569,2.0344e+07,1,0,0,0,0,0,0.029216,0,0,0,50,65703,0,0
3611,2.0355e+07,1,0,0,0,0,0,0.029297,0,0,0,50,65703,0,0
3659,2.0365e+07,1,0,0,0,0,0,0.029379,0,0,0,50,65703,0,0
3699,2.0376e+07,1,0,0,0,0,0,0.02946,0,0,0,50,65703,0,0
3741,2.0386e+07,1,0,0,0,0,0,0.02946,0,0,0,50,65703,0,0
3784,2.0396e+07,1,0,0,0,0,0,0.029542,0,0,0,50,65703,0,0
3821,2.0406e+07,1,0,0,0,0,0,0.029623,0,0,0,50,65703,0,0
3859,2.0417e+07,1,0,0,0.03,0,0,0.029705,0,0,0,50,65703,0,0
3899,2.0427e+07,1,0,0,0.03,0,0,0.029705,0,0,0,50,65703,0,0
3940,2.0437e+07,1,0,0,0.03,0,0,0.028225,0,0,0,50,65703,0,0
3981,2.0447e+07,1,0,0,0.03,0,0,0.028303,0,0,0,50,65703,0,0
4023,2.0458e+07,1,0,0,0.03,0,0,0.028303,0,0,0,50,65703,0,0
4069,2.0468e+07,1,0,0,0.03,0,0,0.028381,0,0,0,50,65703,0,0
4109,2.0478e+07,1,0,0,0.03,0,0,0.028458,0,0,0,50,65703,0,0
4151,2.0488e+07,1,0,0,0.03,0,0,0.028537,0,0,0,50,65703,0,0
4192,2.0499e+07,1,0,0,0.03,0,0,0.028537,0,0,0,50,65703,0,0
4229,2.0509e+07,1,0,0,0.03,0,0,0.028616,0,0,0,50,65703,0,0
4271,2.0518e+07,1,0,0,0,0,0,0.028693,0,0,0,50,65703,0,0
4311,2.0529e+07,1,0,0,0,0.01,0,0.027339,0,0,0,50,65703,0,0
4352,2.0539e+07,1,0,0,0,0.01,0,0.027339,0,0,0,50,65703,0,0
4392,2.0549e+07,1,0,0,0,0.01,0,0.027412,0,0,0,50,65703,0,0
4433,2.0559e+07,1,0,0,0,0.01,0,0.027487,0,0,0,50,65703,0,0
4480,2.057e+07,1,0,0,0,0.01,0,0.027562,0,0,0,50,65703,0,0
4520,2.058e+07,1,0,0,0,0.01,0,0.027636,0,0,0,50,65703,0,0
4562,2.059e+07,1,0,0,0,0.01,0,0.027636,0,0,0,50,65703,0,0
4605,2.0602e+07,1,0,0,0,0.01,0,0.027712,0,0,0,50,65703,0,0
4649,2.0615e+07,1,0,0,0.01,0.01,0,0.027787,0,0,0,50,65703,0,0
4690,2.0625e+07,1,0,0,0.01,0.01,0,0.026513,0,0,0,50,65703,0,0
4730,2.0635e+07,1,0,0,0.01,0.01,0,0.026513,0,0,0,50,65703,0,0
4773,2.0645e+07,1,0,0,0.01,0.01,0,0.026585,0,0,0,50,65703,0,0
4814,2.0655e+07,1,0,0,0.01,0.01,0,0.026654,0,0,0,50,65703,0,0
4855,2.0665e+07,1,0,0,0.01,0.01,0,0.026726,0,0,0,50,65703,0,0
4900,2.0676e+07,1,0,0,0.01,0.01,0,0.026726,0,0,0,50,65703,0,0
4941,2.0686e+07,1,0,0,0.01,0.01,0,0.026798,0,0,0,50,65703,0,0
4982,2.0696e+07,1,0,0,0.01,0.01,0,0.02687,0,0,0,50,65703,0,0
5023,2.0706e+07,1,0,0,0.01,0.01,0,0.026941,0,0,0,50,65703,0,0
5064,2.0719e+07,1,0,0,0.01,0.01,0,0.027013,0,0,0,50,65703,0,0
5104,2.0729e+07,1,0,0,0.01,0.01,0,0.027013,0,0,0,50,65703,0,0
5146,2.0739e+07,1,0,0,0.01,0,0,0.025796,0,0,0,50,65703,0,0
5187,2.0749e+07,1,0,0,0.01,0,0,0.025864,0,0,0,50,65703,0,0
5227,2.0759e+07,1,0,0,0.01,0,0,0.025933,0,0,0,50,65703,0,0
5272,2.0769e+07,1,0,0,0.01,0,0,0.025933,0,0,0,50,65703,0,0
5313,2.078e+07,1,0,0,0.01,0,0,0.026002,0,0,0,50,65703,0,0
5357,2.079e+07,1,0,0,0.01,0,0,0.026071,0,0,0,50,65703,0,0
5400,2.08e+07,1,0,0,0.01,0,0,0.02614,0,0,0,50,65703,0,0
5440,2.081e+07,1,0,0,0.01,0,0,0.026209,0,0,0,50,65703,0,0
5478,2.0822e+07,1,0,0,0.01,0,0,0.026278,0,0,0,50,65703,0,0
5519,2.0832e+07,1,0,0,0.01,0,0,0.025093,0,0,0,50,65703,0,0
5563,2.0842e+07,1,0,0,0.01,0,0,0.025093,0,0,0,50,65703,0,0
5604,2.0853e+07,1,0,0,0.01,0,0,0.025159,0,0,0,50,65703,0,0
5644,2.0863e+07,1,0,0,0.01,0,0,0.025225,0,0,0,50,65703,0,0
5689,2.0873e+07,1,0,0,0.01,0,0,0.025225,0,0,0,50,65703,0,0
5729,2.0883e+07,1,0,0,0.01,0,0,0.025292,0,0,0,50,65703,0,0
5772,2.0893e+07,1,0,0,0.01,0,0,0.025358,0,0,0,50,65703,0,0
5812,2.0903e+07,1,0,0,0.01,0,0,0.025424,0,0,0,50,65703,0,0
5850,2.0914e+07,1,0,0,0.01,0,0,0.025424,0,0,0,50,65703,0,0
5889,2.0924e+07,1,0,0,0,0,0,0.025491,0,0,0,50,65703,0,0
5929,2.0934e+07,1,0,0,0,0,0,0.024397,0,0,0,50,65703,0,0
5971,2.0944e+07,1,0,0,0,0,0,0.024458,0,0,0,50,65703,0,0
6012,2.0954e+07,1,0,0,0,0,0,0.024523,0,0,0,50,65703,0,0
6052,2.0964e+07,1,0,0,0,0,0,0.024523,0,0,0,50,65703,0,0
6097,2.0974e+07,1,0,0,0,0,0,0.024586,0,0,0,50,65703,0,0
6137,2.0984e+07,1,0,0,0,0,0,0.024653,0,0,0,50,65703,0,0
6179,2.0994e+07,1,0,0,0,0,0,0.024717,0,0,0,50,65703,0,0
6220,2.1004e+07,1,0,0,0,0,0,0.024782,0,0,0,50,65703,0,0
6260,2.1014e+07,1,0,0,0,0,0,0.024782,0,0,0,50,65703,0,0
6298,2.1024e+07,1,0,0,0.04,0,0,0.024846,0,0,0,50,65703,0,0
6339,2.1034e+07,1,0,0,0.04,0,0,0.02378,0,0,0,50,65703,0,0
6383,2.1044e+07,1,0,0,0.04,0,0,0.023842,0,0,0,50,65703,0,0
6423,2.1054e+07,1,0,0,0.04,0,0,0.023904,0,0,0,50,65703,0,0
6467,2.1067e+07,1,0,0,0.04,0,0,0.023965,0,0,0,50,65703,0,0
6511,2.1077e+07,1,0,0,0.04,0,0,0.024027,0,0,0,50,65703,0,0
6552,2.1087e+07,1,0,0,0.04,0,0,0.024027,0,0,0,50,65703,0,0
6594,2.1097e+07,1,0,0,0.04,0,0,0.024088,0,0,0,50,65703,0,0
6634,2.111e+07,1,0,0,0.04,0,0,0.02415,0,0,0,50,65703,0,0
6672,2.112e+07,1,0,0,0.04,0,0,0.024212,0,0,0,50,65703,0,0
6712,2.113e+07,1,0,0,0.04,0,0,0.023199,0,0,0,50,65703,0,0
6755,2.114e+07,1,0,0,0.04,0,0,0.023258,0,0,0,50,65703,0,0
6795,2.115e+07,1,0,0,0.04,0,0,0.023317,0,0,0,50,65703,0,0
6836,2.116e+07,1,0,0,0.04,0,0,0.023317,0,0,0,50,65703,0,0
6877,2.117e+07,1,0,0,0.04,0,0,0.023377,0,0,0,50,65703,0,0
6922,2.118e+07,1,0,0,0.04,0,0,0.023436,0,0,0,50,65703,0,0
6963,2.119e+07,1,0,0,0.04,0,0,0.023495,0,0,0,50,65703,0,0
7003,2.1201e+07,1,0,0,0.04,0,0,0.023554,0,0,0,50,65703,0,0
7044,2.1214e+07,1,0,0,0.02,0,0,0.023614,0,0,0,50,65703,0,0
7084,2.1224e+07,1,0,0,0.02,0,0,0.022651,0,0,0,50,65703,0,0
7125,2.1234e+07,1,0,0,0.02,0,0,0.022651,0,0,0,50,65703,0,0
7168,2.1244e+07,1,0,0,0.02,0,0,0.022708,0,0,0,50,65703,0,0
7210,2.1254e+07,1,0,0,0.02,0,0,0.022766,0,0,0,50,65703,0,0
7251,2.1264e+07,1,0,0,0.02,0,0,0.022824,0,0,0,50,65703,0,0
7295,2.1274e+07,1,0,0,0.02,0,0,0.022881,0,0,0,50,65703,0,0
7337,2.1284e+07,1,0,0,0.02,0,0,0.022881,0,0,0,50,65703,0,0
7380,2.1294e+07,1,0,0,0.02,0,0,0.022939,0,0,0,50,65703,0,0
7420,2.1304e+07,1,0,0,0.02,0,0,0.022996,0,0,0,50,65703,0,0
7464,2.132e+07,1,0,0,0.04,0,0,0.023053,0,0,0,50,65703,0,0
7505,2.133e+07,1,0,0,0.04,0,0,0.022141,0,0,0,50,65703,0,0
7546,2.134e+07,1,0,0,0.04,0,0,0.022141,0,0,0,50,65703,0,0
7588,2.135e+07,1,0,0,0.04,0.01,0,0.022196,0,0,0,50,65703,0,0
7628,2.136e+07,1,0,0,0.04,0.01,0,0.022249,0,0,0,50,65703,0,0
7669,2.137e+07,1,0,0,0.04,0.01,0,0.022304,0,0,0,50,65703,0,0
7715,2.138e+07,1,0,0,0.04,0.01,0,0.022359,0,0,0,50,65703,0,0
7756,2.139e+07,1,0,0,0.04,0.01,0,0.022359,0,0,0,50,65703,0,0
7798,2.14e+07,1,0,0,0.04,0.01,0,0.022416,0,0,0,50,65703,0,0
7841,2.1412e+07,1,0,0,0.04,0.01,0,0.022471,0,0,0,50,65703,0,0
7882,2.1425e+07,1,0,0,0.02,0.03,0,0.022527,0,0,0,50,65703,0,0
7922,2.1435e+07,1,0,0,0.02,0.03,0,0.021638,0,0,0,50,65703,0,0
7963,2.1445e+07,1,0,0,0.02,0.03,0,0.021692,0,0,0,50,65703,0,0
8008,2.1455e+07,1,0,0,0.02,0.03,0,0.021745,0,0,0,50,65703,0,0
8048,2.1466e+07,1,0,0,0.02,0.03,0,0.0218,0,0,0,50,65703,0,0
8093,2.1476e+07,1,0,0,0.02,0.03,0,0.0218,0,0,0,50,65703,0,0
8133,2.1486e+07,1,0,0,0.02,0.03,0,0.021853,0,0,0,50,65703,0,0
8175,2.1496e+07,1,0,0,0.02,0.03,0,0.021906,0,0,0,50,65703,0,0
8216,2.1506e+07,1,0,0,0.02,0.03,0,0.02196,0,0,0,50,65703,0,0
8256,2.1516e+07,1,0,0,0.02,0.03,0,0.02196,0,0,0,50,65703,0,0
8291,2.1527e+07,1,0,0,0.05,0.02,0,0.022013,0,0,0,50,65703,0,0
8332,2.1537e+07,1,0,0,0.05,0.02,0,0.02116,0,0,0,50,65703,0,0
8372,2.1547e+07,1,0,0,0.05,0.02,0,0.02116,0,0,0,50,65703,0,0
8413,2.1557e+07,1,0,0,0.05,0.02,0,0.021212,0,0,0,50,65703,0,0
8454,2.1567e+07,1,0,0,0.05,0.02,0,0.021264,0,0,0,50,65703,0,0
8504,2.158e+07,1,0,0,0.05,0.02,0,0.021316,0,0,0,50,65703,0,0
8545,2.159e+07,1,0,0,0.05,0.02,0,0.021367,0,0,0,50,65703,0,0
8586,2.16e+07,1,0,0,0.05,0.02,0,0.021421,0,0,0,50,65703,0,0
8627,2.161e+07,1,0,0,0.05,0.02,0,0.021421,0,0,0,50,65703,0,0
8664,2.162e+07,1,0,0,0.05,0.02,0,0.021473,0,0,0,50,65703,0,0
8705,2.1632e+07,1,0,0,0.03,0.01,0,0.021525,0,0,0,50,65703,0,0
8747,2.1642e+07,1,0,0,0.03,0.01,0,0.020706,0,0,0,50,65703,0,0
8788,2.1653e+07,1,0,0,0.03,0.01,0,0.020706,0,0,0,50,65703,0,0
8830,2.1663e+07,1,0,0,0.03,0.01,0,0.020757,0,0,0,50,65703,0,0
8871,2.1673e+07,1,0,0,0.03,0.01,0,0.020807,0,0,0,50,65703,0,0
8916,2.1683e+07,1,0,0,0.03,0.01,0,0.020857,0,0,0,50,65703,0,0
8956,2.1693e+07,1,0,0,0.03,0.01,0,0.020908,0,0,0,50,65703,0,0
8997,2.1703e+07,1,0,0,0.03,0.01,0,0.020908,0,0,0,50,65703,0,0
9037,2.1714e+07,1,0,0,0.03,0.01,0,0.020958,0,0,0,50,65703,0,0
9078,2.1724e+07,1,0,0,0.03,0.01,0,0.021009,0,0,0,50,65703,0,0
9116,2.1734e+07,1,0,0,0.03,0.01,0,0.021059,0,0,0,50,65703,0,0
9156,2.1744e+07,1,0,0,0.03,0.01,0,0.021059,0,0,0,50,65703,0,0
9197,2.1754e+07,1,0,0,0.03,0.01,0,0.020258,0,0,0,50,65703,0,0
9237,2.1764e+07,1,0,0,0.03,0.01,0,0.020309,0,0,0,50,65703,0,0
9278,2.1774e+07,1,0,0,0.03,0.01,0,0.020358,0,0,0,50,65703,0,0
9322,2.1784e+07,1,0,0,0.03,0.01,0,0.020406,0,0,0,50,65703,0,0
9366,2.1794e+07,1,0,0,0.03,0.01,0,0.020455,0,0,0,50,65703,0,0
9407,2.1804e+07,1,0,0,0.03,0.01,0,0.020455,0,0,0,50,65703,0,0
9447,2.1814e+07,1,0,0,0.03,0.01,0,0.020505,0,0,0,50,65703,0,0
9486,2.1824e+07,1,0,0,0,0.01,0,0.020554,0,0,0,50,65703,0,0
9531,2.1874e+07,1,0,0,0,0.01,0,0.019941,0,0,0,50,65703,0,0
9576,2.1884e+07,1,0,0,0,0.01,0,0.019988,0,0,0,50,65703,0,0
9617,2.1894e+07,1,0,0,0,0.01,0,0.019988,0,0,0,50,65703,0,0
9658,2.1904e+07,1,0,0,0,0.01,0,0.020035,0,0,0,50,65703,0,0
9698,2.1914e+07,1,0,0,0,0.01,0,0.020083,0,0,0,50,65703,0,0
9732,2.1924e+07,1,0,0,0.01,0.02,0,0.02013,0,0,0,50,65703,0,0
9773,2.1934e+07,1,0,0,0.01,0.02,0,0.019401,0,0,0,50,65703,0,0
9814,2.1944e+07,1,0,0,0.01,0.02,0,0.019446,0,0,0,50,65703,0,0
9855,2.1954e+07,1,0,0,0.01,0.02,0,0.019446,0,0,0,50,65703,0,0
9896,2.1964e+07,1,0,0,0.01,0.02,0,0.019492,0,0,0,50,65703,0,0
9937,2.1974e+07,1,0,0,0.01,0.02,0,0.019538,0,0,0,50,65703,0,0
9982,2.1984e+07,1,0,0,0.01,0.02,0,0.019584,0,0,0,50,65703,0,0
10023,2.1994e+07,1,0,0,0.01,0.02,0,0.019632,0,0,0,50,65703,0,0
10064,2.2004e+07,1,0,0,0.01,0.02,0,0.019632,0,0,0,50,65703,0,0
10104,2.2014e+07,1,0,0,0.01,0.02,0,0.019678,0,0,0,50,65703,0,0
10142,2.2024e+07,1,0,0,0.03,0.01,0,0.019723,0,0,0,50,65703,0,0
10182,2.2034e+07,1,0,0,0.03,0.01,0,0.019016,0,0,0,50,65703,0,0
10225,2.2044e+07,1,0,0,0.03,0.01,0,0.01906,0,0,0,50,65703,0,0
10265,2.2054e+07,1,0,0,0.03,0.01,0,0.01906,0,0,0,50,65703,0,0
10307,2.2064e+07,1,0,0,0.03,0.01,0,0.019105,0,0,0,50,65703,0,0
10347,2.2074e+07,1,0,0,0.03,0.01,0,0.019149,0,0,0,50,65703,0,0
10393,2.2084e+07,1,0,0,0.03,0.01,0,0.019193,0,0,0,50,65703,0,0
10433,2.2094e+07,1,0,0,0.03,0.01,0,0.019238,0,0,0,50,65703,0,0
10475,2.2104e+07,1,0,0,0.03,0.01,0,0.019238,0,0,0,50,65703,0,0
10516,2.2114e+07,1,0,0,0.03,0.01,0,0.019283,0,0,0,50,65703,0,0
10553,2.2124e+07,1,0,0,0.01,0,0,0.019328,0,0,0,50,65703,0,0
10594,2.2134e+07,1,0,0,0.01,0,0,0.018649,0,0,0,50,65703,0,0
10634,2.2144e+07,1,0,0,0.01,0,0,0.018692,0,0,0,50,65703,0,0
10676,2.2155e+07,1,0,0,0.01,0,0,0.018735,0,0,0,50,65703,0,0
10716,2.2166e+07,1,0,0,0.01,0,0,0.018735,0,0,0,50,65703,0,0
10758,2.2177e+07,1,0,0,0.01,0,0,0.018779,0,0,0,50,65703,0,0
10803,2.2186e+07,1,0,0,0.01,0,0,0.018822,0,0,0,50,65703,0,0
10843,2.2196e+07,1,0,0,0.01,0,0,0.018865,0,0,0,50,65703,0,0
10884,2.2206e+07,1,0,0,0.01,0,0,0.018865,0,0,0,50,65703,0,0
10930,2.2222e+07,1,0,0,0.01,0.01,0,0.018951,0,0,0,50,65703,0,0
10972,2.2232e+07,1,0,0,0.01,0.01,0,0.018951,0,0,0,50,65703,0,0
11012,2.2242e+07,1,0,0,0.01,0.01,0,0.018296,0,0,0,50,65703,0,0
11055,2.2253e+07,1,0,0,0.01,0.01,0,0.018338,0,0,0,50,65703,0,0
11095,2.2263e+07,1,0,0,0.01,0.01,0,0.01838,0,0,0,50,65703,0,0
11137,2.2273e+07,1,0,0,0.01,0.01,0,0.018423,0,0,0,50,65703,0,0
11183,2.2283e+07,1,0,0,0.01,0.01,0,0.018465,0,0,0,50,65703,0,0
11225,2.2294e+07,1,0,0,0.01,0.01,0,0.018465,0,0,0,50,65703,0,0
11266,2.2304e+07,1,0,0,0.01,0.01,0,0.018507,0,0,0,50,65703,0,0
11306,2.2314e+07,1,0,0,0.01,0.01,0,0.018507,0,0,0,50,65703,0,0
11348,2.2324e+07,1,0,0,0.01,0.01,0,0.01855,0,0,0,50,65703,0,0
11385,2.2334e+07,1,0,0,0.05,0.01,0,0.018591,0,0,0,50,65703,0,0
11426,2.2344e+07,1,0,0,0.05,0.02,0,0.017961,0,0,0,50,65703,0,0
11467,2.2354e+07,1,0,0,0.05,0.02,0,0.017999,0,0,0,50,65703,0,0
11507,2.2364e+07,1,0,0,0.05,0.02,0,0.017999,0,0,0,50,65703,0,0
11549,2.2374e+07,1,0,0,0.05,0.02,0,0.018039,0,0,0,50,65703,0,0
11594,2.2385e+07,1,0,0,0.05,0.02,0,0.01808,0,0,0,50,65703,0,0
11637,2.2395e+07,1,0,0,0.05,0.02,0,0.018122,0,0,0,50,65703,0,0
11678,2.2405e+07,1,0,0,0.05,0.02,0,0.018162,0,0,0,50,65703,0,0
11718,2.2416e+07,1,0,0,0.05,0.02,0,0.018162,0,0,0,50,65703,0,0
11759,2.2426e+07,1,0,0,0.05,0.02,0,0.018206,0,0,0,50,65703,0,0
11796,2.2436e+07,1,0,0,0,0,0,0.018247,0,0,0,50,65703,0,0
11838,2.2447e+07,1,0,0,0,0,0,0.017621,0,0,0,50,65703,0,0
11880,2.2457e+07,1,0,0,0,0,0,0.017621,0,0,0,50,65703,0,0
11921,2.2467e+07,1,0,0,0,0,0,0.017661,0,0,0,50,65703,0,0
11963,2.2477e+07,1,0,0,0,0,0,0.017701,0,0,0,50,65703,0,0
12008,2.2487e+07,1,0,0,0,0,0,0.017701,0,0,0,50,65703,0,0
12049,2.2497e+07,1,0,0,0,0,0,0.017741,0,0,0,50,65703,0,0
12089,2.2507e+07,1,0,0,0,0,0,0.017781,0,0,0,50,65703,0,0
12133,2.252e+07,1,0,0,0,0,0,0.01782,0,0,0,50,65703,0,0
12175,2.2531e+07,1,0,0,0,0,0,0.01782,0,0,0,50,65703,0,0
12215,2.2542e+07,1,0,0,0,0,0,0.017861,0,0,0,50,65703,0,0
12253,2.2552e+07,1,0,0,0.04,0.02,0,0.0179,0,0,0,50,65703,0,0
12293,2.2562e+07,1,0,0,0.04,0.02,0,0.017299,0,0,0,50,65703,0,0
12334,2.2572e+07,1,0,0,0.04,0.02,0,0.017339,0,0,0,50,65703,0,0
12376,2.2583e+07,1,0,0,0.04,0.02,0,0.017339,0,0,0,50,65703,0,0
12423,2.2593e+07,1,0,0,0.04,0.02,0,0.017378,0,0,0,50,65703,0,0
12463,2.2603e+07,1,0,0,0.04,0.02,0,0.017418,0,0,0,50,65703,0,0
12504,2.2613e+07,1,0,0,0.04,0.02,0,0.017457,0,0,0,50,65703,0,0
12545,2.2623e+07,1,0,0,0.04,0.02,0,0.017457,0,0,0,50,65703,0,0
12582,2.2633e+07,1,0,0,0.04,0.02,0,0.017497,0,0,0,50,65703,0,0
12622,2.2643e+07,1,0,0,0.01,0,0,0.017537,0,0,0,50,65703,0,0
12663,2.2654e+07,1,0,0,0.01,0,0,0.016951,0,0,0,50,65703,0,0
12704,2.2664e+07,1,0,0,0.01,0,0,0.016988,0,0,0,50,65703,0,0
12744,2.2674e+07,1,0,0,0.01,0,0,0.017026,0,0,0,50,65703,0,0
12787,2.2684e+07,1,0,0,0.01,0,0,0.017026,0,0,0,50,65703,0,0
12832,2.2694e+07,1,0,0,0.01,0,0,0.017064,0,0,0,50,65703,0,0
12872,2.2704e+07,1,0,0,0.01,0,0,0.017103,0,0,0,50,65703,0,0
12913,2.2714e+07,1,0,0,0.01,0,0,0.01714,0,0,0,50,65703,0,0
12953,2.2724e+07,1,0,0,0.01,0,0,0.017178,0,0,0,50,65703,0,0
12991,2.2737e+07,1,0,0,0.03,0,0,0.017216,0,0,0,50,65703,0,0
13031,2.2747e+07,1,0,0,0.03,0,0,0.017216,0,0,0,50,65703,0,0
13073,2.2757e+07,1,0,0,0.03,0,0,0.016645,0,0,0,50,65703,0,0
13114,2.2767e+07,1,0,0,0.03,0,0,0.016681,0,0,0,50,65703,0,0
13154,2.2777e+07,1,0,0,0.03,0,0,0.016718,0,0,0,50,65703,0,0
13197,2.2787e+07,1,0,0,0.03,0,0,0.016755,0,0,0,50,65703,0,0
13242,2.2798e+07,1,0,0,0.03,0,0,0.016792,0,0,0,50,65703,0,0
13283,2.2808e+07,1,0,0,0.03,0,0,0.016828,0,0,0,50,65703,0,0
13324,2.2818e+07,1,0,0,0.03,0,0,0.016864,0,0,0,50,65703,0,0
13364,2.2828e+07,1,0,0,0.03,0,0,0.016864,0,0,0,50,65703,0,0
13405,2.2839e+07,1,0,0,0.02,0,0,0.016901,0,0,0,50,65703,0,0
13445,2.2849e+07,1,0,0,0.02,0,0,0.016356,0,0,0,50,65703,0,0
13487,2.2859e+07,1,0,0,0.02,0,0,0.016391,0,0,0,50,65703,0,0
13528,2.2869e+07,1,0,0,0.02,0,0,0.016427,0,0,0,50,65703,0,0
13568,2.2879e+07,1,0,0,0.02,0,0,0.016463,0,0,0,50,65703,0,0
13610,2.289e+07,1,0,0,0.02,0,0,0.016463,0,0,0,50,65703,0,0
13654,2.29e+07,1,0,0,0.02,0,0,0.016498,0,0,0,50,65703,0,0
13696,2.291e+07,1,0,0,0.02,0,0,0.016534,0,0,0,50,65703,0,0
13736,2.292e+07,1,0,0,0.02,0,0,0.016569,0,0,0,50,65703,0,0
13777,2.293e+07,1,0,0,0.03,0,0,0.016604,0,0,0,50,65703,0,0
13815,2.294e+07,1,0,0,0.03,0.02,0,0.016083,0,0,0,50,65703,0,0
13855,2.2951e+07,1,0,0,0.03,0.02,0,0.016083,0,0,0,50,65703,0,0
13896,2.2961e+07,1,0,0,0.03,0.02,0,0.016115,0,0,0,50,65703,0,0
13938,2.2971e+07,1,0,0,0.03,0.02,0,0.016149,0,0,0,50,65703,0,0
13979,2.2981e+07,1,0,0,0.03,0.02,0,0.016184,0,0,0,50,65703,0,0
14020,2.2991e+07,1,0,0,0.03,0.02,0,0.016219,0,0,0,50,65703,0,0
14064,2.3001e+07,1,0,0,0.03,0.02,0,0.016219,0,0,0,50,65703,0,0
14106,2.3011e+07,1,0,0,0.03,0.02,0,0.016254,0,0,0,50,65703,0,0
14146,2.3021e+07,1,0,0,0.03,0.02,0,0.016254,0,0,0,50,65703,0,0
14191,2.3034e+07,1,0,0,0.03,0.02,0,0.016323,0,0,0,50,65703,0,0
14233,2.3044e+07,1,0,0,0.03,0.02,0,0.016323,0,0,0,50,65703,0,0
14271,2.3054e+07,1,0,0,0.03,0.01,0,0.016359,0,0,0,50,65703,0,0
14313,2.3064e+07,1,0,0,0.03,0.01,0,0.015842,0,0,0,50,65703,0,0
14353,2.3074e+07,1,0,0,0.03,0.01,0,0.015876,0,0,0,50,65703,0,0
14394,2.3084e+07,1,0,0,0.03,0.01,0,0.015911,0,0,0,50,65703,0,0
14434,2.3094e+07,1,0,0,0.03,0.01,0,0.015911,0,0,0,50,65703,0,0
14480,2.3105e+07,1,0,0,0.03,0.01,0,0.015945,0,0,0,50,65703,0,0
14521,2.3115e+07,1,0,0,0.03,0.01,0,0.01598,0,0,0,50,65703,0,0
14562,2.3125e+07,1,0,0,0.03,0.01,0,0.016017,0,0,0,50,65703,0,0
14603,2.3135e+07,1,0,0,0.03,0.01,0,0.01605,0,0,0,50,65703,0,0
14643,2.3148e+07,1,0,0,0.03,0.01,0,0.015559,0,0,0,50,65703,0,0
14684,2.3159e+07,1,0,0,0.03,0.01,0,0.015588,0,0,0,50,65703,0,0
14724,2.3169e+07,1,0,0,0.03,0.01,0,0.015588,0,0,0,50,65703,0,0
14765,2.3179e+07,1,0,0,0.03,0.01,0,0.015621,0,0,0,50,65703,0,0
14806,2.3189e+07,1,0,0,0.03,0.01,0,0.015621,0,0,0,50,65703,0,0
14851,2.3199e+07,1,0,0,0.03,0.01,0,0.015654,0,0,0,50,65703,0,0
14893,2.321e+07,1,0,0,0.03,0.01,0,0.015687,0,0,0,50,65703,0,0
14933,2.322e+07,1,0,0,0.03,0.01,0,0.01572,0,0,0,50,65703,0,0
14974,2.323e+07,1,0,0,0.03,0.01,0,0.01572,0,0,0,50,65703,0,0
15014,2.324e+07,1,0,0,0.03,0.01,0,0.015752,0,0,0,50,65703,0,0
15055,2.325e+07,1,0,0,0.03,0.01,0,0.015786,0,0,0,50,65703,0,0
15093,2.326e+07,1,0,0,0.05,0.02,0,0.01582,0,0,0,50,65703,0,0
15133,2.327e+07,1,0,0,0.05,0.02,0,0.01582,0,0,0,50,65703,0,0
15176,2.3281e+07,1,0,0,0.05,0.02,0,0.01533,0,0,0,50,65703,0,0
15216,2.3291e+07,1,0,0,0.05,0.02,0,0.015364,0,0,0,50,65703,0,0
15262,2.3302e+07,1,0,0,0.05,0.02,0,0.015364,0,0,0,50,65703,0,0
15302,2.3312e+07,1,0,0,0.05,0.02,0,0.015398,0,0,0,50,65703,0,0
15344,2.3322e+07,1,0,0,0.05,0.02,0,0.01543,0,0,0,50,65703,0,0
15387,2.3334e+07,1,0,0,0.05,0.02,0,0.015461,0,0,0,50,65703,0,0
15428,2.3344e+07,1,0,0,0.05,0.02,0,0.015494,0,0,0,50,65703,0,0
15470,2.3355e+07,1,0,0,0.05,0.02,0,0.015494,0,0,0,50,65703,0,0
15507,2.3366e+07,1,0,0,0.05,0.01,0,0.015526,0,0,0,50,65703,0,0
15548,2.3376e+07,1,0,0,0.05,0.01,0,0.015056,0,0,0,50,65703,0,0
15590,2.3386e+07,1,0,0,0.05,0.01,0,0.01509,0,0,0,50,65703,0,0
15630,2.3396e+07,1,0,0,0.05,0.01,0,0.01509,0,0,0,50,65703,0,0
15677,2.3406e+07,1,0,0,0.05,0.01,0,0.015126,0,0,0,50,65703,0,0
15717,2.3416e+07,1,0,0,0.05,0.01,0,0.015158,0,0,0,50,65703,0,0
15759,2.3427e+07,1,0,0,0.05,0.01,0,0.015191,0,0,0,50,65703,0,0
15801,2.3437e+07,1,0,0,0.05,0.01,0,0.015222,0,0,0,50,65703,0,0
15845,2.345e+07,1,0,0,0.02,0.01,0,0.015254,0,0,0,50,65703,0,0
15886,2.346e+07,1,0,0,0.02,0.02,0,0.014806,0,0,0,50,65703,0,0
15927,2.3471e+07,1,0,0,0.02,0.02,0,0.014806,0,0,0,50,65703,0,0
15968,2.3481e+07,1,0,0,0.02,0.02,0,0.014833,0,0,0,50,65703,0,0
16008,2.3491e+07,1,0,0,0.02,0.02,0,0.014862,0,0,0,50,65703,0,0
16049,2.3501e+07,1,0,0,0.02,0.02,0,0.014862,0,0,0,50,65703,0,0
16094,2.3511e+07,1,0,0,0.02,0.02,0,0.014894,0,0,0,50,65703,0,0
16135,2.3521e+07,1,0,0,0.02,0.02,0,0.014924,0,0,0,50,65703,0,0
16176,2.3531e+07,1,0,0,0.02,0.02,0,0.014955,0,0,0,50,65703,0,0
16216,2.3541e+07,1,0,0,0.02,0.02,0,0.014986,0,0,0,50,65703,0,0
16261,2.3557e+07,1,0,0,0.03,0.02,0,0.015016,0,0,0,50,65703,0,0
16302,2.3567e+07,1,0,0,0.03,0.01,0,0.014578,0,0,0,50,65703,0,0
16344,2.3578e+07,1,0,0,0.03,0.01,0,0.014578,0,0,0,50,65703,0,0
16384,2.3588e+07,1,0,0,0.03,0.01,0,0.014606,0,0,0,50,65703,0,0
16425,2.3599e+07,1,0,0,0.03,0.01,0,0.014639,0,0,0,50,65703,0,0
16471,2.3609e+07,1,0,0,0.03,0.01,0,0.01467,0,0,0,50,65703,0,0
16512,2.3619e+07,1,0,0,0.03,0.01,0,0.0147,0,0,0,50,65703,0,0
16554,2.3629e+07,1,0,0,0.03,0.01,0,0.014728,0,0,0,50,65703,0,0
16597,2.364e+07,1,0,0,0.03,0.01,0,0.014728,0,0,0,50,65703,0,0
16637,2.3655e+07,1,0,0,0.03,0.01,0,0.014786,0,0,0,50,65703,0,0
16678,2.3665e+07,1,0,0,0.03,0.01,0,0.014352,0,0,0,50,65703,0,0
16720,2.3675e+07,1,0,0,0.03,0.01,0,0.014352,0,0,0,50,65703,0,0
16760,2.3686e+07,1,0,0,0.03,0.01,0,0.014382,0,0,0,50,65703,0,0
16801,2.3696e+07,1,0,0,0.03,0.01,0,0.014411,0,0,0,50,65703,0,0
16841,2.3705e+07,1,0,0,0.03,0.01,0,0.01444,0,0,0,50,65703,0,0
16887,2.3715e+07,1,0,0,0.03,0.01,0,0.01447,0,0,0,50,65703,0,0
16927,2.3726e+07,1,0,0,0.03,0.01,0,0.01447,0,0,0,50,65703,0,0
16968,2.3737e+07,1,0,0,0.03,0.01,0,0.014501,0,0,0,50,65703,0,0
17009,2.3746e+07,1,0,0,0.03,0.01,0,0.014531,0,0,0,50,65703,0,0
17043,2.3757e+07,1,0,0,0,0.01,0,0.01456,0,0,0,50,65703,0,0
17083,2.3767e+07,1,0,0,0,0.01,0,0.014143,0,0,0,50,65703,0,0
17126,2.3777e+07,1,0,0,0,0.01,0,0.014143,0,0,0,50,65703,0,0
17168,2.3787e+07,1,0,0,0,0.01,0,0.014172,0,0,0,50,65703,0,0
17208,2.3798e+07,1,0,0,0,0.01,0,0.0142,0,0,0,50,65703,0,0
17249,2.3808e+07,1,0,0,0,0.01,0,0.014228,0,0,0,50,65703,0,0
17294,2.3817e+07,1,0,0,0,0.01,0,0.014257,0,0,0,50,65703,0,0
17335,2.3828e+07,1,0,0,0,0.01,0,0.014257,0,0,0,50,65703,0,0
17376,2.3838e+07,1,0,0,0,0.01,0,0.014286,0,0,0,50,65703,0,0
17418,2.3848e+07,1,0,0,0,0.01,0,0.014286,0,0,0,50,65703,0,0
17460,2.3858e+07,1,0,0,0,0.01,0,0.014314,0,0,0,50,65703,0,0
17500,2.3868e+07,1,0,0,0.02,0.01,0,0.014343,0,0,0,50,65703,0,0
17542,2.3878e+07,1,0,0,0.02,0.01,0,0.013938,0,0,0,50,65703,0,0
17583,2.3888e+07,1,0,0,0.02,0.01,0,0.013938,0,0,0,50,65703,0,0
17624,2.3898e+07,1,0,0,0.02,0.01,0,0.013966,0,0,0,50,65703,0,0
17665,2.3909e+07,1,0,0,0.02,0.01,0,0.013995,0,0,0,50,65703,0,0
17709,2.3919e+07,1,0,0,0.02,0.01,0,0.014024,0,0,0,50,65703,0,0
17750,2.3929e+07,1,0,0,0.02,0.01,0,0.014053,0,0,0,50,65703,0,0
17791,2.3938e+07,1,0,0,0.02,0.01,0,0.014082,0,0,0,50,65703,0,0
17839,2.3954e+07,1,0,0,0.03,0.01,0,0.014115,0,0,0,50,65703,0,0
17879,2.3964e+07,1,0,0,0.03,0.01,0,0.013725,0,0,0,50,65703,0,0
17921,2.3975e+07,1,0,0,0.03,0.01,0,0.013725,0,0,0,50,65703,0,0
17962,2.3985e+07,1,0,0,0.03,0.01,0,0.013749,0,0,0,50,65703,0,0
18003,2.3995e+07,1,0,0,0.03,0.01,0,0.013776,0,0,0,50,65703,0,0
18044,2.4006e+07,1,0,0,0.03,0.01,0,0.013803,0,0,0,50,65703,0,0
18088,2.4016e+07,1,0,0,0.03,0.01,0,0.01383,0,0,0,50,65703,0,0
18130,2.4027e+07,1,0,0,0.03,0.01,0,0.01383,0,0,0,50,65703,0,0
18170,2.4037e+07,1,0,0,0.03,0.01,0,0.013859,0,0,0,50,65703,0,0
18213,2.4047e+07,1,0,0,0.03,0.01,0,0.013859,0,0,0,50,65703,0,0
18253,2.4057e+07,1,0,0,0.03,0.01,0,0.013886,0,0,0,50,65703,0,0
18293,2.4068e+07,1,0,0,0.03,0.01,0,0.013915,0,0,0,50,65703,0,0
18334,2.4078e+07,1,0,0,0.03,0.01,0,0.013915,0,0,0,50,65703,0,0
18375,2.4088e+07,1,0,0,0.03,0.02,0,0.01354,0,0,0,50,65703,0,0
18416,2.4098e+07,1,0,0,0.03,0.02,0,0.013564,0,0,0,50,65703,0,0
18457,2.4108e+07,1,0,0,0.03,0.02,0,0.013594,0,0,0,50,65703,0,0
18504,2.412e+07,1,0,0,0.03,0.02,0,0.013619,0,0,0,50,65703,0,0
18545,2.4131e+07,1,0,0,0.03,0.02,0,0.013619,0,0,0,50,65703,0,0
18586,2.4141e+07,1,0,0,0.03,0.02,0,0.013645,0,0,0,50,65703,0,0
18627,2.4151e+07,1,0,0,0.03,0.02,0,0.013671,0,0,0,50,65703,0,0
18668,2.4161e+07,1,0,0,0.03,0.02,0,0.013702,0,0,0,50,65703,0,0
18705,2.4174e+07,1,0,0,0.03,0.01,0,0.013728,0,0,0,50,65703,0,0
18746,2.4184e+07,1,0,0,0.03,0.01,0,0.013355,0,0,0,50,65703,0,0
18788,2.4194e+07,1,0,0,0.03,0.01,0,0.013355,0,0,0,50,65703,0,0
18828,2.4205e+07,1,0,0,0.03,0.01,0,0.013383,0,0,0,50,65703,0,0
18870,2.4215e+07,1,0,0,0.03,0.01,0,0.01341,0,0,0,50,65703,0,0
18914,2.4225e+07,1,0,0,0.03,0.01,0,0.013439,0,0,0,50,65703,0,0
18955,2.4236e+07,1,0,0,0.03,0.01,0,0.013439,0,0,0,50,65703,0,0
18996,2.4246e+07,1,0,0,0.03,0.01,0,0.013467,0,0,0,50,65703,0,0
19038,2.4258e+07,1,0,0,0.03,0.01,0,0.013495,0,0,0,50,65703,0,0
19079,2.4268e+07,1,0,0,0.03,0.01,0,0.013521,0,0,0,50,65703,0,0
19119,2.4279e+07,1,0,0,0.03,0.01,0,0.013521,0,0,0,50,65703,0,0
19161,2.4289e+07,1,0,0,0.03,0.01,0,0.013159,0,0,0,50,65703,0,0
19202,2.4299e+07,1,0,0,0.03,0.01,0,0.013184,0,0,0,50,65703,0,0
19242,2.4309e+07,1,0,0,0.03,0.01,0,0.013209,0,0,0,50,65703,0,0
19283,2.4319e+07,1,0,0,0.03,0.01,0,0.013209,0,0,0,50,65703,0,0
19327,2.4329e+07,1,0,0,0.03,0.01,0,0.013234,0,0,0,50,65703,0,0
19369,2.434e+07,1,0,0,0.03,0.01,0,0.01326,0,0,0,50,65703,0,0
19409,2.435e+07,1,0,0,0.03,0.01,0,0.013286,0,0,0,50,65703,0,0
19450,2.436e+07,1,0,0,0.03,0.01,0,0.013312,0,0,0,50,65703,0,0
19491,2.4373e+07,1,0,0,0.05,0.01,0,0.013338,0,0,0,50,65703,0,0
19532,2.4382e+07,1,0,0,0.05,0.01,0,0.013338,0,0,0,50,65703,0,0
19575,2.4393e+07,1,0,0,0.05,0.02,0,0.012992,0,0,0,50,65703,0,0
19615,2.4402e+07,1,0,0,0.05,0.02,0,0.013016,0,0,0,50,65703,0,0
19657,2.4413e+07,1,0,0,0.05,0.02,0,0.013042,0,0,0,50,65703,0,0
19702,2.4423e+07,1,0,0,0.05,0.02,0,0.01307,0,0,0,50,65703,0,0
19743,2.4434e+07,1,0,0,0.05,0.02,0,0.01307,0,0,0,50,65703,0,0
19784,2.4444e+07,1,0,0,0.05,0.02,0,0.013094,0,0,0,50,65703,0,0
19827,2.4454e+07,1,0,0,0.05,0.02,0,0.013119,0,0,0,50,65703,0,0
19868,2.4464e+07,1,0,0,0.05,0.02,0,0.013143,0,0,0,50,65703,0,0
19905,2.4474e+07,1,0,0,0.02,0.02,0,0.013167,0,0,0,50,65703,0,0
19946,2.4484e+07,1,0,0,0.02,0,0,0.012826,0,0,0,50,65703,0,0
19987,2.4494e+07,1,0,0,0.02,0,0,0.012826,0,0,0,50,65703,0,0
20027,2.4504e+07,1,0,0,0.02,0,0,0.012826,0,0,0,50,65703,0,0
20068,2.4515e+07,1,0,0,0.02,0,0,0.012848,0,0,0,50,65703,0,0
20114,2.4525e+07,1,0,0,0.02,0,0,0.012874,0,0,0,50,65703,0,0
20155,2.4536e+07,1,0,0,0.02,0,0,0.012899,0,0,0,50,65703,0,0
20195,2.4546e+07,1,0,0,0.02,0,0,0.012925,0,0,0,50,65703,0,0
20236,2.4556e+07,1,0,0,0.02,0,0,0.012925,0,0,0,50,65703,0,0
20277,2.4566e+07,1,0,0,0.02,0,0,0.012951,0,0,0,50,65703,0,0
20316,2.4577e+07,1,0,0,0.01,0,0,0.012977,0,0,0,50,65703,0,0
20356,2.4587e+07,1,0,0,0.01,0.03,0,0.01265,0,0,0,50,65703,0,0
20397,2.4597e+07,1,0,0,0.01,0.03,0,0.012672,0,0,0,50,65703,0,0
20437,2.4607e+07,1,0,0,0.01,0.03,0,0.012703,0,0,0,50,65703,0,0
20479,2.4617e+07,1,0,0,0.01,0.03,0,0.012703,0,0,0,50,65703,0,0
20526,2.4627e+07,1,0,0,0.01,0.03,0,0.012726,0,0,0,50,65703,0,0
20568,2.4637e+07,1,0,0,0.01,0.03,0,0.012749,0,0,0,50,65703,0,0
20609,2.4647e+07,1,0,0,0.01,0.03,0,0.012774,0,0,0,50,65703,0,0
20649,2.4657e+07,1,0,0,0.01,0.03,0,0.012774,0,0,0,50,65703,0,0
20690,2.4667e+07,1,0,0,0.01,0.03,0,0.0128,0,0,0,50,65703,0,0
20730,2.4678e+07,1,0,0,0.01,0.01,0,0.012824,0,0,0,50,65703,0,0
20771,2.4688e+07,1,0,0,0.01,0.01,0,0.012498,0,0,0,50,65703,0,0
20812,2.4698e+07,1,0,0,0.01,0.01,0,0.012522,0,0,0,50,65703,0,0
20853,2.4708e+07,1,0,0,0.01,0.01,0,0.012522,0,0,0,50,65703,0,0
20894,2.4718e+07,1,0,0,0.01,0.01,0,0.012546,0,0,0,50,65703,0,0
20938,2.4728e+07,1,0,0,0.01,0.01,0,0.012571,0,0,0,50,65703,0,0
20981,2.4739e+07,1,0,0,0.01,0.01,0,0.012596,0,0,0,50,65703,0,0
21021,2.4749e+07,1,0,0,0.01,0.01,0,0.012596,0,0,0,50,65703,0,0
21064,2.4759e+07,1,0,0,0.01,0.01,0,0.012621,0,0,0,50,65703,0,0
21104,2.4769e+07,1,0,0,0.01,0.01,0,0.012646,0,0,0,50,65703,0,0
21145,2.478e+07,1,0,0,0,0.01,0,0.01267,0,0,0,50,65703,0,0
21187,2.479e+07,1,0,0,0,0.01,0,0.012351,0,0,0,50,65703,0,0
21227,2.48e+07,1,0,0,0,0.01,0,0.012374,0,0,0,50,65703,0,0
21268,2.4811e+07,1,0,0,0,0.01,0,0.012374,0,0,0,50,65703,0,0
21309,2.4821e+07,1,0,0,0,0.01,0,0.012397,0,0,0,50,65703,0,0
21356,2.4831e+07,1,0,0,0,0.01,0,0.01242,0,0,0,50,65703,0,0
21398,2.4842e+07,1,0,0,0,0.01,0,0.01242,0,0,0,50,65703,0,0
21439,2.4852e+07,1,0,0,0,0.01,0,0.012445,0,0,0,50,65703,0,0
21481,2.4862e+07,1,0,0,0,0.01,0,0.01247,0,0,0,50,65703,0,0
21521,2.4872e+07,1,0,0,0,0.01,0,0.012494,0,0,0,50,65703,0,0
21562,2.4883e+07,1,0,0,0,0.01,0,0.012517,0,0,0,50,65703,0,0
21602,2.4894e+07,1,0,0,0,0.01,0,0.012211,0,0,0,50,65703,0,0
21643,2.4904e+07,1,0,0,0,0.01,0,0.012231,0,0,0,50,65703,0,0
21683,2.4914e+07,1,0,0,0,0.01,0,0.012231,0,0,0,50,65703,0,0
21725,2.4924e+07,1,0,0,0,0.01,0,0.012254,0,0,0,50,65703,0,0
21772,2.4934e+07,1,0,0,0,0.01,0,0.012254,0,0,0,50,65703,0,0
21812,2.4944e+07,1,0,0,0,0.01,0,0.012278,0,0,0,50,65703,0,0
21853,2.4954e+07,1,0,0,0,0.01,0,0.012303,0,0,0,50,65703,0,0
21894,2.4964e+07,1,0,0,0,0.01,0,0.012325,0,0,0,50,65703,0,0
21938,2.4977e+07,1,0,0,0.01,0.01,0,0.012348,0,0,0,50,65703,0,0
21978,2.4987e+07,1,0,0,0.01,0.01,0,0.012348,0,0,0,50,65703,0,0
22019,2.4997e+07,1,0,0,0.01,0.02,0,0.012053,0,0,0,50,65703,0,0
22059,2.5008e+07,1,0,0,0.01,0.02,0,0.012074,0,0,0,50,65703,0,0
22101,2.5018e+07,1,0,0,0.01,0.02,0,0.012096,0,0,0,50,65703,0,0
22142,2.5028e+07,1,0,0,0.01,0.02,0,0.012119,0,0,0,50,65703,0,0
22187,2.5038e+07,1,0,0,0.01,0.02,0,0.012148,0,0,0,50,65703,0,0
22230,2.5049e+07,1,0,0,0.01,0.02,0,0.012148,0,0,0,50,65703,0,0
22270,2.5059e+07,1,0,0,0.01,0.02,0,0.012171,0,0,0,50,65703,0,0
22311,2.5069e+07,1,0,0,0.01,0.02,0,0.012194,0,0,0,50,65703,0,0
22352,2.508e+07,1,0,0,0.01,0,0,0.012217,0,0,0,50,65703,0,0
22393,2.5091e+07,1,0,0,0.01,0,0,0.011927,0,0,0,50,65703,0,0
22434,2.5102e+07,1,0,0,0.01,0,0,0.011948,0,0,0,50,65703,0,0
22474,2.5112e+07,1,0,0,0.01,0,0,0.011971,0,0,0,50,65703,0,0
22516,2.5122e+07,1,0,0,0.01,0,0,0.011993,0,0,0,50,65703,0,0
22556,2.5132e+07,1,0,0,0.01,0,0,0.011993,0,0,0,50,65703,0,0
22602,2.5142e+07,1,0,0,0.01,0,0,0.012015,0,0,0,50,65703,0,0
22642,2.5153e+07,1,0,0,0.01,0,0,0.012038,0,0,0,50,65703,0,0
22684,2.5163e+07,1,0,0,0.01,0,0,0.012059,0,0,0,50,65703,0,0
22725,2.5173e+07,1,0,0,0.01,0,0,0.012059,0,0,0,50,65703,0,0
22762,2.5184e+07,1,0,0,0.01,0,0,0.012081,0,0,0,50,65703,0,0
22802,2.5194e+07,1,0,0,0.02,0.02,0,0.012103,0,0,0,50,65703,0,0
22842,2.5204e+07,1,0,0,0.02,0.02,0,0.011814,0,0,0,50,65703,0,0
22884,2.5214e+07,1,0,0,0.02,0.02,0,0.011814,0,0,0,50,65703,0,0
22924,2.5224e+07,1,0,0,0.02,0.02,0,0.011839,0,0,0,50,65703,0,0
22965,2.5234e+07,1,0,0,0.02,0.02,0,0.011861,0,0,0,50,65703,0,0
23010,2.5244e+07,1,0,0,0.02,0.02,0,0.011884,0,0,0,50,65703,0,0
23055,2.5255e+07,1,0,0,0.02,0.02,0,0.011905,0,0,0,50,65703,0,0
23096,2.5265e+07,1,0,0,0.02,0.02,0,0.011905,0,0,0,50,65703,0,0
23137,2.5275e+07,1,0,0,0.02,0.02,0,0.011929,0,0,0,50,65703,0,0
23178,2.5286e+07,1,0,0,0.02,0.02,0,0.011951,0,0,0,50,65703,0,0
23218,2.5297e+07,1,0,0,0.02,0.02,0,0.011951,0,0,0,50,65703,0,0
23259,2.5308e+07,1,0,0,0,0.01,0,0.011974,0,0,0,50,65703,0,0
23302,2.5318e+07,1,0,0,0,0.01,0,0.011689,0,0,0,50,65703,0,0
23343,2.5328e+07,1,0,0,0,0.01,0,0.011714,0,0,0,50,65703,0,0
23384,2.5338e+07,1,0,0,0,0.01,0,0.011714,0,0,0,50,65703,0,0
23428,2.5348e+07,1,0,0,0,0.01,0,0.011735,0,0,0,50,65703,0,0
23470,2.5358e+07,1,0,0,0,0.01,0,0.011735,0,0,0,50,65703,0,0
23510,2.5368e+07,1,0,0,0,0.01,0,0.011756,0,0,0,50,65703,0,0
23552,2.5378e+07,1,0,0,0,0.01,0,0.011778,0,0,0,50,65703,0,0
23594,2.5388e+07,1,0,0,0,0.01,0,0.0118,0,0,0,50,65703,0,0
23636,2.5398e+07,1,0,0,0,0.01,0,0.011821,0,0,0,50,65703,0,0
23677,2.5409e+07,1,0,0,0,0.01,0,0.011821,0,0,0,50,65703,0,0
23718,2.542e+07,1,0,0,0.01,0.02,0,0.011847,0,0,0,50,65703,0,0
23760,2.543e+07,1,0,0,0.01,0.02,0,0.011567,0,0,0,50,65703,0,0
23802,2.544e+07,1,0,0,0.01,0.02,0,0.01159,0,0,0,50,65703,0,0
23847,2.545e+07,1,0,0,0.01,0.02,0,0.011611,0,0,0,50,65703,0,0
23889,2.546e+07,1,0,0,0.01,0.02,0,0.011611,0,0,0,50,65703,0,0
23929,2.547e+07,1,0,0,0.01,0.02,0,0.011636,0,0,0,50,65703,0,0
23971,2.548e+07,1,0,0,0.01,0.02,0,0.011657,0,0,0,50,65703,0,0
24011,2.549e+07,1,0,0,0.01,0.02,0,0.011657,0,0,0,50,65703,0,0
24052,2.5499e+07,1,0,0,0.01,0.02,0,0.011679,0,0,0,50,65703,0,0
24092,2.5509e+07,1,0,0,0.01,0.01,0,0.011416,0,0,0,50,65703,0,0
24133,2.5519e+07,1,0,0,0.01,0.01,0,0.011435,0,0,0,50,65703,0,0
24174,2.553e+07,1,0,0,0.01,0.01,0,0.011435,0,0,0,50,65703,0,0
24215,2.554e+07,1,0,0,0.01,0.01,0,0.011457,0,0,0,50,65703,0,0
24260,2.555e+07,1,0,0,0.01,0.01,0,0.011478,0,0,0,50,65703,0,0
24300,2.556e+07,1,0,0,0.01,0.01,0,0.0115,0,0,0,50,65703,0,0
24342,2.557e+07,1,0,0,0.01,0.01,0,0.0115,0,0,0,50,65703,0,0
24383,2.558e+07,1,0,0,0.01,0.01,0,0.011523,0,0,0,50,65703,0,0
24424,2.559e+07,1,0,0,0.01,0.01,0,0.011544,0,0,0,50,65703,0,0
24461,2.5601e+07,1,0,0,0.02,0.01,0,0.011568,0,0,0,50,65703,0,0
24502,2.5611e+07,1,0,0,0.02,0.01,0,0.011568,0,0,0,50,65703,0,0
24544,2.5621e+07,1,0,0,0.02,0.01,0,0.011307,0,0,0,50,65703,0,0
24584,2.5631e+07,1,0,0,0.02,0.01,0,0.011328,0,0,0,50,65703,0,0
24627,2.5641e+07,1,0,0,0.02,0.01,0,0.011349,0,0,0,50,65703,0,0
24678,2.5652e+07,1,0,0,0.02,0.01,0,0.01137,0,0,0,50,98471,0,0
24719,2.5663e+07,1,0,0,0.02,0.01,0,0.01137,0,0,0,50,98471,0,0
24760,2.5673e+07,1,0,0,0.02,0.01,0,0.01139,0,0,0,50,98471,0,0
24801,2.5683e+07,1,0,0,0.02,0.01,0,0.011412,0,0,0,50,98471,0,0
24842,2.5696e+07,1,0,0,0,0.01,0,0.011434,0,0,0,50,98471,0,0
24883,2.5706e+07,1,0,0,0,0.01,0,0.011434,0,0,0,50,98471,0,0
24924,2.5716e+07,1,0,0,0,0.01,0,0.011186,0,0,0,50,98471,0,0
24964,2.5727e+07,1,0,0,0,0.01,0,0.011207,0,0,0,50,98471,0,0
25005,2.5737e+07,1,0,0,0,0.01,0,0.011229,0,0,0,50,98471,0,0
25047,2.5747e+07,1,0,0,0,0.01,0,0.01125,0,0,0,50,98471,0,0
25092,2.5758e+07,1,0,0,0,0.01,0,0.011269,0,0,0,50,98471,0,0
25133,2.5768e+07,1,0,0,0,0.01,0,0.011269,0,0,0,50,98471,0,0
25174,2.5778e+07,1,0,0,0,0.01,0,0.011291,0,0,0,50,98471,0,0
25216,2.5788e+07,1,0,0,0,0.01,0,0.011291,0,0,0,50,98471,0,0
25256,2.5799e+07,1,0,0,0,0.01,0,0.011311,0,0,0,50,98471,0,0
25297,2.5809e+07,1,0,0,0.01,0.01,0,0.011331,0,0,0,50,98471,0,0
25337,2.5819e+07,1,0,0,0.01,0.01,0,0.011331,0,0,0,50,98471,0,0
25377,2.583e+07,1,0,0,0.01,0.01,0,0.011084,0,0,0,50,98471,0,0
25417,2.584e+07,1,0,0,0.01,0.01,0,0.011104,0,0,0,50,98471,0,0
25460,2.585e+07,1,0,0,0.01,0.01,0,0.011124,0,0,0,50,98471,0,0
25505,2.586e+07,1,0,0,0.01,0.01,0,0.011124,0,0,0,50,98471,0,0
25545,2.587e+07,1,0,0,0.01,0.01,0,0.011146,0,0,0,50,98471,0,0
25587,2.588e+07,1,0,0,0.01,0.01,0,0.011166,0,0,0,50,98471,0,0
25628,2.589e+07,1,0,0,0.01,0.01,0,0.011192,0,0,0,50,98471,0,0
25669,2.59e+07,1,0,0,0.01,0.01,0,0.011192,0,0,0,50,98471,0,0
25707,2.591e+07,1,0,0,0,0.01,0,0.011213,0,0,0,50,98471,0,0
25747,2.592e+07,1,0,0,0,0.01,0,0.010976,0,0,0,50,98471,0,0
25788,2.5931e+07,1,0,0,0,0.01,0,0.010976,0,0,0,50,98471,0,0
25828,2.5941e+07,1,0,0,0,0.01,0,0.010997,0,0,0,50,98471,0,0
25870,2.5951e+07,1,0,0,0,0.01,0,0.011016,0,0,0,50,98471,0,0
25915,2.5962e+07,1,0,0,0,0.01,0,0.011035,0,0,0,50,98471,0,0
25955,2.5972e+07,1,0,0,0,0.01,0,0.011035,0,0,0,50,98471,0,0
25998,2.5982e+07,1,0,0,0,0.01,0,0.011057,0,0,0,50,98471,0,0
26036,2.5992e+07,1,0,0,0,0.01,0,0.011077,0,0,0,50,98471,0,0
26078,2.6002e+07,1,0,0,0,0.01,0,0.011077,0,0,0,50,98471,0,0
26119,2.6012e+07,1,0,0,0,0.01,0,0.011098,0,0,0,50,98471,0,0
26159,2.6025e+07,1,0,0,0.02,0.02,0,0.01112,0,0,0,50,98471,0,0
26202,2.6034e+07,1,0,0,0.02,0.02,0,0.01088,0,0,0,50,98471,0,0
26242,2.6045e+07,1,0,0,0.02,0.02,0,0.010901,0,0,0,50,98471,0,0
26284,2.6055e+07,1,0,0,0.02,0.02,0,0.010901,0,0,0,50,98471,0,0
26329,2.6065e+07,1,0,0,0.02,0.02,0,0.010925,0,0,0,50,98471,0,0
26369,2.6076e+07,1,0,0,0.02,0.02,0,0.010944,0,0,0,50,98471,0,0
26410,2.6087e+07,1,0,0,0.02,0.02,0,0.010964,0,0,0,50,98471,0,0
26452,2.6097e+07,1,0,0,0.02,0.02,0,0.010985,0,0,0,50,98471,0,0
26490,2.611e+07,1,0,0,0,0.04,0,0.011006,0,0,0,50,98471,0,0
26531,2.612e+07,1,0,0,0,0.04,0,0.010773,0,0,0,50,98471,0,0
26571,2.613e+07,1,0,0,0,0.04,0,0.010773,0,0,0,50,98471,0,0
26613,2.614e+07,1,0,0,0,0.04,0,0.010791,0,0,0,50,98471,0,0
26653,2.615e+07,1,0,0,0,0.04,0,0.01081,0,0,0,50,98471,0,0
26698,2.616e+07,1,0,0,0,0.04,0,0.010829,0,0,0,50,98471,0,0
26738,2.617e+07,1,0,0,0,0.04,0,0.010848,0,0,0,50,98471,0,0
26780,2.618e+07,1,0,0,0,0.04,0,0.010867,0,0,0,50,98471,0,0
26821,2.619e+07,1,0,0,0,0.04,0,0.010867,0,0,0,50,98471,0,0
26861,2.6203e+07,1,0,0,0,0.04,0,0.010887,0,0,0,50,98471,0,0
26902,2.6213e+07,1,0,0,0,0,0,0.010668,0,0,0,50,98471,0,0
26942,2.6223e+07,1,0,0,0,0,0,0.010684,0,0,0,50,98471,0,0
26984,2.6233e+07,1,0,0,0,0,0,0.010684,0,0,0,50,98471,0,0
27029,2.6243e+07,1,0,0,0,0,0,0.010705,0,0,0,50,98471,0,0
27070,2.6253e+07,1,0,0,0,0,0,0.010723,0,0,0,50,98471,0,0
27115,2.6263e+07,1,0,0,0,0,0,0.010742,0,0,0,50,98471,0,0
27155,2.6273e+07,1,0,0,0,0,0,0.01076,0,0,0,50,98471,0,0
27196,2.6283e+07,1,0,0,0,0,0,0.01076,0,0,0,50,98471,0,0
27236,2.6293e+07,1,0,0,0,0,0,0.010778,0,0,0,50,98471,0,0
27278,2.6303e+07,1,0,0,0,0,0,0.010796,0,0,0,50,98471,0,0
27312,2.6313e+07,1,0,0,0.03,0.02,0,0.010815,0,0,0,50,98471,0,0
27353,2.6323e+07,1,0,0,0.03,0.02,0,0.010594,0,0,0,50,98471,0,0
27395,2.6333e+07,1,0,0,0.03,0.02,0,0.010614,0,0,0,50,98471,0,0
27436,2.6344e+07,1,0,0,0.03,0.02,0,0.010614,0,0,0,50,98471,0,0
27477,2.6354e+07,1,0,0,0.03,0.02,0,0.010633,0,0,0,50,98471,0,0
27522,2.6364e+07,1,0,0,0.03,0.02,0,0.010633,0,0,0,50,98471,0,0
27562,2.6374e+07,1,0,0,0.03,0.02,0,0.010651,0,0,0,50,98471,0,0
27603,2.6384e+07,1,0,0,0.03,0.02,0,0.010671,0,0,0,50,98471,0,0
27643,2.6394e+07,1,0,0,0.03,0.02,0,0.010671,0,0,0,50,98471,0,0
27681,2.6405e+07,1,0,0,0.03,0.02,0,0.010692,0,0,0,50,98471,0,0
27726,2.6417e+07,1,0,0,0.02,0.02,0,0.01071,0,0,0,50,98471,0,0
27770,2.643e+07,1,0,0,0.02,0,0,0.010498,0,0,0,50,98471,0,0
27814,2.6439e+07,1,0,0,0.02,0,0,0.010514,0,0,0,50,98471,0,0
27855,2.645e+07,1,0,0,0.02,0,0,0.010514,0,0,0,50,98471,0,0
27896,2.646e+07,1,0,0,0.02,0,0,0.010531,0,0,0,50,98471,0,0
27941,2.647e+07,1,0,0,0.02,0,0,0.010549,0,0,0,50,98471,0,0
27982,2.648e+07,1,0,0,0.02,0,0,0.01057,0,0,0,50,98471,0,0
28023,2.649e+07,1,0,0,0.02,0,0,0.01057,0,0,0,50,98471,0,0
28063,2.65e+07,1,0,0,0.02,0,0,0.010589,0,0,0,50,98471,0,0
28098,2.6511e+07,1,0,0,0,0.01,0,0.010615,0,0,0,50,98471,0,0
28139,2.6521e+07,1,0,0,0,0.01,0,0.010406,0,0,0,50,98471,0,0
28180,2.6531e+07,1,0,0,0,0.01,0,0.010424,0,0,0,50,98471,0,0
28221,2.6541e+07,1,0,0,0,0.01,0,0.010443,0,0,0,50,98471,0,0
28262,2.6551e+07,1,0,0,0,0.01,0,0.010443,0,0,0,50,98471,0,0
28303,2.6561e+07,1,0,0,0,0.01,0,0.010463,0,0,0,50,98471,0,0
28348,2.6571e+07,1,0,0,0,0.01,0,0.010482,0,0,0,50,98471,0,0
28389,2.6581e+07,1,0,0,0,0.01,0,0.0105,0,0,0,50,98471,0,0
28430,2.6591e+07,1,0,0,0,0.01,0,0.010519,0,0,0,50,98471,0,0
28470,2.6604e+07,1,0,0,0,0.01,0,0.010537,0,0,0,50,98471,0,0
28511,2.6614e+07,1,0,0,0,0.01,0,0.010329,0,0,0,50,98471,0,0
28552,2.6625e+07,1,0,0,0,0.01,0,0.010329,0,0,0,50,98471,0,0
28593,2.6635e+07,1,0,0,0,0.01,0,0.010346,0,0,0,50,98471,0,0
28636,2.6645e+07,1,0,0,0,0.01,0,0.010363,0,0,0,50,98471,0,0
28677,2.6655e+07,1,0,0,0,0.01,0,0.010381,0,0,0,50,98471,0,0
28727,2.6668e+07,1,0,0,0,0.01,0,0.010399,0,0,0,50,98471,0,0
28768,2.6678e+07,1,0,0,0,0.01,0,0.010399,0,0,0,50,98471,0,0
28809,2.6688e+07,1,0,0,0,0.01,0,0.010417,0,0,0,50,98471,0,0
28849,2.6698e+07,1,0,0,0,0.01,0,0.010436,0,0,0,50,98471,0,0
28890,2.6709e+07,1,0,0,0,0.01,0,0.010454,0,0,0,50,98471,0,0
28927,2.6719e+07,1,0,0,0,0.01,0,0.010257,0,0,0,50,98471,0,0
28968,2.6729e+07,1,0,0,0,0.01,0,0.010257,0,0,0,50,98471,0,0
29011,2.6739e+07,1,0,0,0,0.01,0,0.010274,0,0,0,50,98471,0,0
29052,2.675e+07,1,0,0,0,0.01,0,0.010274,0,0,0,50,98471,0,0
29094,2.676e+07,1,0,0,0,0.01,0,0.010292,0,0,0,50,98471,0,0
29138,2.677e+07,1,0,0,0,0.01,0,0.010292,0,0,0,50,98471,0,0
29179,2.678e+07,1,0,0,0,0.01,0,0.010309,0,0,0,50,98471,0,0
29220,2.679e+07,1,0,0,0,0.01,0,0.010326,0,0,0,50,98471,0,0
29261,2.68e+07,1,0,0,0,0.01,0,0.010346,0,0,0,50,98471,0,0
29301,2.681e+07,1,0,0,0,0.01,0,0.010346,0,0,0,50,98471,0,0
29342,2.682e+07,1,0,0,0,0.01,0,0.010363,0,0,0,50,98471,0,0
29383,2.683e+07,1,0,0,0,0.01,0,0.010363,0,0,0,50,98471,0,0
29424,2.684e+07,1,0,0,0.02,0.01,0,0.010382,0,0,0,50,98471,0,0
29467,2.685e+07,1,0,0,0.02,0.02,0,0.010185,0,0,0,50,98471,0,0
29509,2.686e+07,1,0,0,0.02,0.02,0,0.0102,0,0,0,50,98471,0,0
29553,2.6871e+07,1,0,0,0.02,0.02,0,0.0102,0,0,0,50,98471,0,0
29595,2.6881e+07,1,0,0,0.02,0.02,0,0.010226,0,0,0,50,98471,0,0
29635,2.6891e+07,1,0,0,0.02,0.02,0,0.010248,0,0,0,50,98471,0,0
29677,2.6901e+07,1,0,0,0.02,0.02,0,0.010267,0,0,0,50,98471,0,0
29717,2.6912e+07,1,0,0,0.02,0.02,0,0.010267,0,0,0,50,98471,0,0
29758,2.6922e+07,1,0,0,0.02,0.02,0,0.010285,0,0,0,50,98471,0,0
29795,2.6932e+07,1,0,0,0,0.01,0,0.010309,0,0,0,50,98471,0,0
29837,2.6942e+07,1,0,0,0,0.01,0,0.01011,0,0,0,50,98471,0,0
29878,2.6952e+07,1,0,0,0,0.01,0,0.010128,0,0,0,50,98471,0,0
29918,2.6962e+07,1,0,0,0,0.01,0,0.010145,0,0,0,50,98471,0,0
29963,2.6973e+07,1,0,0,0,0.01,0,0.010145,0,0,0,50,98471,0,0
30004,2.6983e+07,1,0,0,0,0.01,0,0.010163,0,0,0,50,98471,0,0
30045,2.6993e+07,1,0,0,0,0.01,0,0.01018,0,0,0,50,98471,0,0
30086,2.7003e+07,1,0,0,0,0.01,0,0.010199,0,0,0,50,98471,0,0
30124,2.7013e+07,1,0,0,0.01,0,0,0.010218,0,0,0,50,98471,0,0
30163,2.7023e+07,1,0,0,0.01,0,0,0.010026,0,0,0,50,98471,0,0
30203,2.7034e+07,1,0,0,0.01,0,0,0.010026,0,0,0,50,98471,0,0
30245,2.7044e+07,1,0,0,0.01,0,0,0.010044,0,0,0,50,98471,0,0
30287,2.7054e+07,1,0,0,0.01,0,0,0.010062,0,0,0,50,98471,0,0
30328,2.7064e+07,1,0,0,0.01,0,0,0.010079,0,0,0,50,98471,0,0
30373,2.7074e+07,1,0,0,0.01,0,0,0.010097,0,0,0,50,98471,0,0
30413,2.7084e+07,1,0,0,0.01,0,0,0.010097,0,0,0,50,98471,0,0
30456,2.7095e+07,1,0,0,0.01,0,0,0.010115,0,0,0,50,98471,0,0
30496,2.7104e+07,1,0,0,0.01,0,0,0.01013,0,0,0,50,98471,0,0
30531,2.7114e+07,1,0,0,0,0.01,0,0.010147,0,0,0,50,98471,0,0
30572,2.7124e+07,1,0,0,0,0.01,0,0.0099603,0,0,0,50,98471,0,0
30613,2.7134e+07,1,0,0,0,0.01,0,0.0099603,0,0,0,50,98471,0,0
30654,2.7144e+07,1,0,0,0,0.01,0,0.0099772,0,0,0,50,98471,0,0
30694,2.7155e+07,1,0,0,0,0.01,0,0.0099944,0,0,0,50,98471,0,0
30735,2.7165e+07,1,0,0,0,0.01,0,0.010011,0,0,0,50,98471,0,0
30779,2.7175e+07,1,0,0,0,0.01,0,0.010011,0,0,0,50,98471,0,0
30820,2.7185e+07,1,0,0,0,0.01,0,0.010028,0,0,0,50,98471,0,0
30863,2.7195e+07,1,0,0,0,0.01,0,0.010045,0,0,0,50,98471,0,0
30906,2.7209e+07,1,0,0,0,0.01,0,0.010063,0,0,0,50,98471,0,0
30947,2.7219e+07,1,0,0,0,0.01,0,0.010063,0,0,0,50,98471,0,0
30984,2.723e+07,1,0,0,0.02,0.01,0,0.010079,0,0,0,50,98471,0,0
31029,2.724e+07,1,0,0,0.02,0.01,0,0.0098993,0,0,0,50,98471,0,0
31070,2.725e+07,1,0,0,0.02,0.01,0,0.0099158,0,0,0,50,98471,0,0
31111,2.726e+07,1,0,0,0.02,0.01,0,0.0099158,0,0,0,50,98471,0,0
31151,2.727e+07,1,0,0,0.02,0.01,0,0.0099333,0,0,0,50,98471,0,0
31196,2.728e+07,1,0,0,0.02,0.01,0,0.0099496,0,0,0,50,98471,0,0
31237,2.729e+07,1,0,0,0.02,0.01,0,0.0099675,0,0,0,50,98471,0,0
31277,2.73e+07,1,0,0,0.02,0.01,0,0.0099869,0,0,0,50,98471,0,0
31319,2.731e+07,1,0,0,0.02,0.01,0,0.0099869,0,0,0,50,98471,0,0
31359,2.732e+07,1,0,0,0.02,0.01,0,0.010004,0,0,0,50,98471,0,0
31394,2.733e+07,1,0,0,0,0,0,0.010021,0,0,0,50,98471,0,0
31436,2.734e+07,1,0,0,0,0,0,0.00984,0,0,0,50,98471,0,0
31476,2.735e+07,1,0,0,0,0,0,0.0098568,0,0,0,50,98471,0,0
31517,2.7361e+07,1,0,0,0,0,0,0.0098568,0,0,0,50,98471,0,0
31557,2.7371e+07,1,0,0,0,0,0,0.0098759,0,0,0,50,98471,0,0
31602,2.7381e+07,1,0,0,0,0,0,0.0098759,0,0,0,50,98471,0,0
31643,2.7391e+07,1,0,0,0,0,0,0.0098935,0,0,0,50,98471,0,0
31684,2.7401e+07,1,0,0,0,0,0,0.0099102,0,0,0,50,98471,0,0
31726,2.7412e+07,1,0,0,0,0,0,0.0099259,0,0,0,50,98471,0,0
31768,2.7424e+07,1,0,0,0,0,0,0.0099424,0,0,0,50,98471,0,0
31814,2.7438e+07,1,0,0,0,0,0,0.0097689,0,0,0,50,98471,0,0
31855,2.7448e+07,1,0,0,0,0,0,0.0097689,0,0,0,50,98471,0,0
31896,2.7458e+07,1,0,0,0,0,0,0.0097825,0,0,0,50,98471,0,0
31936,2.7469e+07,1,0,0,0,0,0,0.0097986,0,0,0,50,98471,0,0
31981,2.7479e+07,1,0,0,0,0,0,0.0098143,0,0,0,50,98471,0,0
32022,2.7489e+07,1,0,0,0,0,0,0.0098143,0,0,0,50,98471,0,0
32062,2.7499e+07,1,0,0,0,0,0,0.0098358,0,0,0,50,98471,0,0
32103,2.7509e+07,1,0,0,0,0,0,0.0098559,0,0,0,50,98471,0,0
32144,2.7519e+07,1,0,0,0,0,0,0.0098719,0,0,0,50,98471,0,0
32179,2.7529e+07,1,0,0,0,0,0,0.0098895,0,0,0,50,98471,0,0
32219,2.7539e+07,1,0,0,0,0,0,0.0097148,0,0,0,50,98471,0,0
32260,2.755e+07,1,0,0,0,0,0,0.0097148,0,0,0,50,98471,0,0
32302,2.756e+07,1,0,0,0,0,0,0.0097315,0,0,0,50,98471,0,0
32342,2.757e+07,1,0,0,0,0,0,0.009747,0,0,0,50,98471,0,0
32387,2.758e+07,1,0,0,0,0,0,0.0097624,0,0,0,50,98471,0,0
32427,2.759e+07,1,0,0,0,0,0,0.0097816,0,0,0,50,98471,0,0
32469,2.76e+07,1,0,0,0,0,0,0.0097816,0,0,0,50,98471,0,0
32509,2.761e+07,1,0,0,0,0,0,0.0097974,0,0,0,50,98471,0,0
32551,2.762e+07,1,0,0,0,0,0,0.0098122,0,0,0,50,98471,0,0
32586,2.763e+07,1,0,0,0.02,0,0,0.0098278,0,0,0,50,98471,0,0
32628,2.764e+07,1,0,0,0.02,0,0,0.0096538,0,0,0,50,98471,0,0
32670,2.7651e+07,1,0,0,0.02,0,0,0.0096698,0,0,0,50,98471,0,0
32711,2.7661e+07,1,0,0,0.02,0,0,0.0096698,0,0,0,50,98471,0,0
32751,2.7671e+07,1,0,0,0.02,0,0,0.009686,0,0,0,50,98471,0,0
32801,2.7684e+07,1,0,0,0.02,0,0,0.0097018,0,0,0,50,98471,0,0
32842,2.7694e+07,1,0,0,0.02,0,0,0.0097195,0,0,0,50,98471,0,0
32883,2.7704e+07,1,0,0,0.02,0,0,0.0097358,0,0,0,50,98471,0,0
32923,2.7714e+07,1,0,0,0.02,0,0,0.009751,0,0,0,50,98471,0,0
32964,2.7727e+07,1,0,0,0.02,0,0,0.0097683,0,0,0,50,98471,0,0
33007,2.7737e+07,1,0,0,0.02,0,0,0.0097683,0,0,0,50,98471,0,0
33048,2.7747e+07,1,0,0,0.02,0,0,0.009598,0,0,0,50,98471,0,0
33089,2.7757e+07,1,0,0,0.02,0,0,0.0096144,0,0,0,50,98471,0,0
33130,2.7767e+07,1,0,0,0.02,0,0,0.009631,0,0,0,50,98471,0,0
33171,2.7778e+07,1,0,0,0.02,0,0,0.0096466,0,0,0,50,98471,0,0
33215,2.7788e+07,1,0,0,0.02,0,0,0.0096617,0,0,0,50,98471,0,0
33256,2.7798e+07,1,0,0,0.02,0,0,0.0096771,0,0,0,50,98471,0,0
33298,2.7808e+07,1,0,0,0.02,0,0,0.0096771,0,0,0,50,98471,0,0
33338,2.7818e+07,1,0,0,0.02,0,0,0.0096932,0,0,0,50,98471,0,0
33380,2.7831e+07,1,0,0,0.02,0.01,0,0.0097092,0,0,0,50,98471,0,0
33421,2.7841e+07,1,0,0,0.02,0.01,0,0.0095448,0,0,0,50,98471,0,0
33464,2.7851e+07,1,0,0,0.02,0.01,0,0.0095448,0,0,0,50,98471,0,0
33506,2.7861e+07,1,0,0,0.02,0.01,0,0.0095625,0,0,0,50,98471,0,0
33546,2.7871e+07,1,0,0,0.02,0.01,0,0.0095777,0,0,0,50,98471,0,0
33587,2.7881e+07,1,0,0,0.02,0.01,0,0.0095777,0,0,0,50,98471,0,0
33631,2.7891e+07,1,0,0,0.02,0.01,0,0.009593,0,0,0,50,98471,0,0
33673,2.7901e+07,1,0,0,0.02,0.01,0,0.0096086,0,0,0,50,98471,0,0
33713,2.7911e+07,1,0,0,0.02,0.01,0,0.0096246,0,0,0,50,98471,0,0
33754,2.7922e+07,1,0,0,0.02,0.01,0,0.0096405,0,0,0,50,98471,0,0
33795,2.7934e+07,1,0,0,0.04,0.01,0,0.0096601,0,0,0,50,98471,0,0
33835,2.7944e+07,1,0,0,0.04,0,0,0.0094968,0,0,0,50,98471,0,0
33877,2.7955e+07,1,0,0,0.04,0,0,0.0094968,0,0,0,50,98471,0,0
33918,2.7965e+07,1,0,0,0.04,0,0,0.0095112,0,0,0,50,98471,0,0
33959,2.7975e+07,1,0,0,0.04,0,0,0.0095301,0,0,0,50,98471,0,0
34007,2.7988e+07,1,0,0,0.04,0,0,0.009547,0,0,0,50,98471,0,0
34047,2.7998e+07,1,0,0,0.04,0,0,0.0095624,0,0,0,50,98471,0,0
34089,2.8009e+07,1,0,0,0.04,0,0,0.0095624,0,0,0,50,98471,0,0
34129,2.8019e+07,1,0,0,0.04,0,0,0.0095783,0,0,0,50,98471,0,0
34164,2.803e+07,1,0,0,0.07,0,0,0.0095949,0,0,0,50,98471,0,0
34205,2.804e+07,1,0,0,0.07,0.01,0,0.0094374,0,0,0,50,98471,0,0
34248,2.805e+07,1,0,0,0.07,0.01,0,0.0094505,0,0,0,50,98471,0,0
34290,2.8061e+07,1,0,0,0.07,0.01,0,0.0094505,0,0,0,50,98471,0,0
34331,2.8071e+07,1,0,0,0.07,0.01,0,0.0094674,0,0,0,50,98471,0,0
34372,2.8081e+07,1,0,0,0.07,0.01,0,0.0094838,0,0,0,50,98471,0,0
34417,2.8091e+07,1,0,0,0.07,0.01,0,0.0094838,0,0,0,50,98471,0,0
34458,2.8101e+07,1,0,0,0.07,0.01,0,0.0094995,0,0,0,50,98471,0,0
34499,2.8111e+07,1,0,0,0.07,0.01,0,0.0095144,0,0,0,50,98471,0,0
34540,2.8122e+07,1,0,0,0.07,0.01,0,0.0095144,0,0,0,50,98471,0,0
34580,2.8132e+07,1,0,0,0.07,0.01,0,0.0095337,0,0,0,50,98471,0,0
34618,2.8143e+07,1,0,0,0.06,0.01,0,0.0095489,0,0,0,50,98471,0,0
34658,2.8153e+07,1,0,0,0.06,0.01,0,0.0093953,0,0,0,50,98471,0,0
34699,2.8163e+07,1,0,0,0.06,0.01,0,0.0094078,0,0,0,50,98471,0,0
34741,2.8173e+07,1,0,0,0.06,0.01,0,0.009424,0,0,0,50,98471,0,0
34782,2.8183e+07,1,0,0,0.06,0.01,0,0.009424,0,0,0,50,98471,0,0
34826,2.8193e+07,1,0,0,0.06,0.01,0,0.0094398,0,0,0,50,98471,0,0
34867,2.8203e+07,1,0,0,0.06,0.01,0,0.0094398,0,0,0,50,98471,0,0
34908,2.8213e+07,1,0,0,0.06,0.01,0,0.0094594,0,0,0,50,98471,0,0
34949,2.8223e+07,1,0,0,0.06,0.01,0,0.0094769,0,0,0,50,98471,0,0
34994,2.8236e+07,1,0,0,0.06,0.01,0,0.0094953,0,0,0,50,98471,0,0
35037,2.825e+07,1,0,0,0.01,0.01,0,0.0095118,0,0,0,50,98471,0,0
35078,2.8259e+07,1,0,0,0.01,0.01,0,0.009356,0,0,0,50,98471,0,0
35119,2.827e+07,1,0,0,0.01,0.01,0,0.009356,0,0,0,50,98471,0,0
35161,2.828e+07,1,0,0,0.01,0.01,0,0.0093689,0,0,0,50,98471,0,0
35202,2.829e+07,1,0,0,0.01,0.01,0,0.0093823,0,0,0,50,98471,0,0
35246,2.83e+07,1,0,0,0.01,0.01,0,0.0093981,0,0,0,50,98471,0,0
35287,2.831e+07,1,0,0,0.01,0.01,0,0.0093981,0,0,0,50,98471,0,0
35327,2.832e+07,1,0,0,0.01,0.01,0,0.0094194,0,0,0,50,98471,0,0
35369,2.833e+07,1,0,0,0.01,0.01,0,0.0094346,0,0,0,50,98471,0,0
35404,2.8341e+07,1,0,0,0.04,0.01,0,0.0094549,0,0,0,50,98471,0,0
35444,2.8351e+07,1,0,0,0.04,0.01,0,0.0092988,0,0,0,50,98471,0,0
35485,2.8361e+07,1,0,0,0.04,0.01,0,0.0092988,0,0,0,50,98471,0,0
35525,2.8371e+07,1,0,0,0.04,0.01,0,0.0093144,0,0,0,50,98471,0,0
35566,2.8381e+07,1,0,0,0.04,0.01,0,0.00933,0,0,0,50,98471,0,0
35608,2.8391e+07,1,0,0,0.04,0.01,0,0.0093472,0,0,0,50,98471,0,0
35653,2.8401e+07,1,0,0,0.04,0.01,0,0.009363,0,0,0,50,98471,0,0
35693,2.8411e+07,1,0,0,0.04,0.01,0,0.0093789,0,0,0,50,98471,0,0
35735,2.8421e+07,1,0,0,0.04,0.01,0,0.0093789,0,0,0,50,98471,0,0
35781,2.8435e+07,1,0,0,0.04,0.01,0,0.0093943,0,0,0,50,98471,0,0
35820,2.8445e+07,1,0,0,0.06,0.02,0,0.0094092,0,0,0,50,98471,0,0
35861,2.8456e+07,1,0,0,0.06,0.02,0,0.0092563,0,0,0,50,98471,0,0
35902,2.8465e+07,1,0,0,0.06,0.02,0,0.0092714,0,0,0,50,98471,0,0
35944,2.8475e+07,1,0,0,0.06,0.02,0,0.0092853,0,0,0,50,98471,0,0
35985,2.8485e+07,1,0,0,0.06,0.02,0,0.0093006,0,0,0,50,98471,0,0
36029,2.8496e+07,1,0,0,0.06,0.02,0,0.0093006,0,0,0,50,98471,0,0
36070,2.8507e+07,1,0,0,0.06,0.02,0,0.0093163,0,0,0,50,98471,0,0
36110,2.8517e+07,1,0,0,0.06,0.02,0,0.0093314,0,0,0,50,98471,0,0
36152,2.8527e+07,1,0,0,0.06,0.02,0,0.0093473,0,0,0,50,98471,0,0
36192,2.854e+07,1,0,0,0.04,0.02,0,0.0093632,0,0,0,50,98471,0,0
36233,2.855e+07,1,0,0,0.04,0.02,0,0.0092125,0,0,0,50,98471,0,0
36274,2.856e+07,1,0,0,0.04,0.02,0,0.0092125,0,0,0,50,98471,0,0
36314,2.857e+07,1,0,0,0.04,0.02,0,0.0092275,0,0,0,50,98471,0,0
36357,2.858e+07,1,0,0,0.04,0.02,0,0.0092429,0,0,0,50,98471,0,0
36398,2.859e+07,1,0,0,0.04,0.02,0,0.0092582,0,0,0,50,98471,0,0
36442,2.86e+07,1,0,0,0.04,0.02,0,0.0092582,0,0,0,50,98471,0,0
36483,2.8611e+07,1,0,0,0.04,0.02,0,0.009274,0,0,0,50,98471,0,0
36524,2.8621e+07,1,0,0,0.04,0.02,0,0.0092884,0,0,0,50,98471,0,0
36565,2.8631e+07,1,0,0,0.04,0.02,0,0.0092884,0,0,0,50,98471,0,0
36605,2.8641e+07,1,0,0,0.04,0.02,0,0.009304,0,0,0,50,98471,0,0
36645,2.8651e+07,1,0,0,0,0.02,0,0.0093189,0,0,0,50,98471,0,0
36685,2.8661e+07,1,0,0,0,0,0,0.0091742,0,0,0,50,98471,0,0
36726,2.8672e+07,1,0,0,0,0,0,0.0091742,0,0,0,50,98471,0,0
36769,2.8682e+07,1,0,0,0,0,0,0.0091887,0,0,0,50,98471,0,0
36809,2.8692e+07,1,0,0,0,0,0,0.0092026,0,0,0,50,98471,0,0
36856,2.8702e+07,1,0,0,0,0,0,0.0092193,0,0,0,50,98471,0,0
36896,2.8713e+07,1,0,0,0,0,0,0.0092388,0,0,0,50,98471,0,0
36937,2.8723e+07,1,0,0,0,0,0,0.0092388,0,0,0,50,98471,0,0
36979,2.8734e+07,1,0,0,0,0,0,0.0092544,0,0,0,50,98471,0,0
37020,2.8744e+07,1,0,0,0,0,0,0.0092695,0,0,0,50,98471,0,0
37058,2.8754e+07,1,0,0,0.02,0.01,0,0.0092844,0,0,0,50,98471,0,0
37099,2.8764e+07,1,0,0,0.02,0.01,0,0.0091365,0,0,0,50,98471,0,0
37140,2.8774e+07,1,0,0,0.02,0.01,0,0.0091365,0,0,0,50,98471,0,0
37180,2.8784e+07,1,0,0,0.02,0.01,0,0.0091538,0,0,0,50,98471,0,0
37222,2.8794e+07,1,0,0,0.02,0.01,0,0.0091709,0,0,0,50,98471,0,0
37268,2.8804e+07,1,0,0,0.02,0.01,0,0.0091856,0,0,0,50,98471,0,0
37308,2.8814e+07,1,0,0,0.02,0.01,0,0.0091856,0,0,0,50,98471,0,0
37349,2.8824e+07,1,0,0,0.02,0.01,0,0.0091999,0,0,0,50,98471,0,0
37389,2.8834e+07,1,0,0,0.02,0.01,0,0.0092152,0,0,0,50,98471,0,0
37431,2.8844e+07,1,0,0,0.02,0.01,0,0.0092152,0,0,0,50,98471,0,0
37471,2.8855e+07,1,0,0,0,0,0,0.0092311,0,0,0,50,98471,0,0
37511,2.8865e+07,1,0,0,0,0,0,0.0090876,0,0,0,50,98471,0,0
37552,2.8875e+07,1,0,0,0,0,0,0.0090876,0,0,0,50,98471,0,0
37592,2.8885e+07,1,0,0,0,0,0,0.0091027,0,0,0,50,98471,0,0
37634,2.8896e+07,1,0,0,0,0,0,0.0091169,0,0,0,50,98471,0,0
37679,2.8906e+07,1,0,0,0,0,0,0.0091335,0,0,0,50,98471,0,0
37720,2.8916e+07,1,0,0,0,0,0,0.0091488,0,0,0,50,98471,0,0
37760,2.8927e+07,1,0,0,0,0,0,0.0091488,0,0,0,50,98471,0,0
37801,2.8937e+07,1,0,0,0,0,0,0.0091635,0,0,0,50,98471,0,0
37842,2.8949e+07,1,0,0,0,0,0,0.0091824,0,0,0,50,98471,0,0
37880,2.8959e+07,1,0,0,0.02,0,0,0.0092005,0,0,0,50,98471,0,0
37921,2.897e+07,1,0,0,0.02,0,0,0.0090555,0,0,0,50,98471,0,0
37961,2.898e+07,1,0,0,0.02,0,0,0.0090705,0,0,0,50,98471,0,0
38003,2.899e+07,1,0,0,0.02,0,0,0.0090848,0,0,0,50,98471,0,0
38044,2.9e+07,1,0,0,0.02,0,0,0.0090981,0,0,0,50,98471,0,0
38090,2.901e+07,1,0,0,0.02,0,0,0.0090981,0,0,0,50,98471,0,0
38131,2.902e+07,1,0,0,0.02,0,0,0.0090981,0,0,0,50,98471,0,0
38171,2.9031e+07,1,0,0,0.02,0,0,0.0091144,0,0,0,50,98471,0,0
38214,2.9041e+07,1,0,0,0.02,0,0,0.0091286,0,0,0,50,98471,0,0
38251,2.9052e+07,1,0,0,0.02,0,0,0.009142,0,0,0,50,98471,0,0
38293,2.9064e+07,1,0,0,0.03,0,0,0.0091576,0,0,0,50,98471,0,0
38334,2.9074e+07,1,0,0,0.03,0,0,0.0090183,0,0,0,50,98471,0,0
38374,2.9084e+07,1,0,0,0.03,0,0,0.0090183,0,0,0,50,98471,0,0
38415,2.9094e+07,1,0,0,0.03,0,0,0.0090303,0,0,0,50,98471,0,0
38455,2.9105e+07,1,0,0,0.03,0,0,0.0090445,0,0,0,50,98471,0,0
38502,2.9115e+07,1,0,0,0.03,0,0,0.0090445,0,0,0,50,98471,0,0
38543,2.9125e+07,1,0,0,0.03,0,0,0.0090577,0,0,0,50,98471,0,0
38584,2.9135e+07,1,0,0,0.03,0,0,0.0090816,0,0,0,50,98471,0,0
38622,2.9146e+07,1,0,0,0.03,0,0,0.0090816,0,0,0,50,98471,0,0
38663,2.9156e+07,1,0,0,0.03,0,0,0.0090944,0,0,0,50,98471,0,0
38701,2.9166e+07,1,0,0,0.02,0,0,0.009109,0,0,0,50,98471,0,0
38741,2.9176e+07,1,0,0,0.02,0,0,0.0089751,0,0,0,50,98471,0,0
38782,2.9186e+07,1,0,0,0.02,0,0,0.0089751,0,0,0,50,98471,0,0
38823,2.9196e+07,1,0,0,0.02,0,0,0.0089874,0,0,0,50,98471,0,0
38864,2.9206e+07,1,0,0,0.02,0,0,0.0089874,0,0,0,50,98471,0,0
38909,2.9216e+07,1,0,0,0.02,0,0,0.0090019,0,0,0,50,98471,0,0
38952,2.9226e+07,1,0,0,0.02,0,0,0.0090165,0,0,0,50,98471,0,0
38993,2.9236e+07,1,0,0,0.02,0,0,0.0090382,0,0,0,50,98471,0,0
39035,2.9247e+07,1,0,0,0.02,0,0,0.0090382,0,0,0,50,98471,0,0
39077,2.9259e+07,1,0,0,0.02,0,0,0.009054,0,0,0,50,98471,0,0
39114,2.9269e+07,1,0,0,0.04,0,0,0.0090708,0,0,0,50,98471,0,0
39155,2.928e+07,1,0,0,0.04,0,0,0.0090708,0,0,0,50,98471,0,0
39196,2.929e+07,1,0,0,0.04,0.02,0,0.0089359,0,0,0,50,98471,0,0
39236,2.93e+07,1,0,0,0.04,0.02,0,0.0089481,0,0,0,50,98471,0,0
39281,2.931e+07,1,0,0,0.04,0.02,0,0.0089481,0,0,0,50,98471,0,0
39322,2.932e+07,1,0,0,0.04,0.02,0,0.0089678,0,0,0,50,98471,0,0
39364,2.933e+07,1,0,0,0.04,0.02,0,0.0089829,0,0,0,50,98471,0,0
39405,2.934e+07,1,0,0,0.04,0.02,0,0.0089988,0,0,0,50,98471,0,0
39445,2.935e+07,1,0,0,0.04,0.02,0,0.0090127,0,0,0,50,98471,0,0
39484,2.936e+07,1,0,0,0.04,0.02,0,0.0090127,0,0,0,50,98471,0,0
39521,2.937e+07,1,0,0,0,0,0,0.0090318,0,0,0,50,98471,0,0
39563,2.938e+07,1,0,0,0,0,0,0.0088958,0,0,0,50,98471,0,0
39604,2.9391e+07,1,0,0,0,0,0,0.0088958,0,0,0,50,98471,0,0
39644,2.9401e+07,1,0,0,0,0,0,0.0089146,0,0,0,50,98471,0,0
39689,2.9411e+07,1,0,0,0,0,0,0.0089292,0,0,0,50,98471,0,0
39732,2.9421e+07,1,0,0,0,0,0,0.0089459,0,0,0,50,98471,0,0
39773,2.9431e+07,1,0,0,0,0,0,0.00896,0,0,0,50,98471,0,0
39814,2.9441e+07,1,0,0,0,0,0,0.00896,0,0,0,50,98471,0,0
39855,2.9451e+07,1,0,0,0,0,0,0.0089742,0,0,0,50,98471,0,0
39892,2.9462e+07,1,0,0,0,0,0,0.0089887,0,0,0,50,98471,0,0
39933,2.9472e+07,1,0,0,0,0.02,0,0.0088586,0,0,0,50,98471,0,0
39974,2.9482e+07,1,0,0,0,0.02,0,0.0088721,0,0,0,50,98471,0,0
40015,2.9492e+07,1,0,0,0,0.02,0,0.0088721,0,0,0,50,98471,0,0
40055,2.9502e+07,1,0,0,0,0.02,0,0.0088884,0,0,0,50,98471,0,0
40101,2.9512e+07,1,0,0,0,0.02,0,0.0088884,0,0,0,50,98471,0,0
40141,2.9522e+07,1,0,0,0,0.02,0,0.0089021,0,0,0,50,98471,0,0
40183,2.9533e+07,1,0,0,0,0.02,0,0.0089164,0,0,0,50,98471,0,0
40223,2.9542e+07,1,0,0,0,0.02,0,0.0089305,0,0,0,50,98471,0,0
40264,2.9553e+07,1,0,0,0,0.02,0,0.0089452,0,0,0,50,98471,0,0
40304,2.9563e+07,1,0,0,0,0.02,0,0.0089452,0,0,0,50,98471,0,0
40342,2.9574e+07,1,0,0,0.02,0,0,0.0089599,0,0,0,50,98471,0,0
40383,2.9584e+07,1,0,0,0.02,0,0,0.0088285,0,0,0,50,98471,0,0
40423,2.9594e+07,1,0,0,0.02,0,0,0.0088422,0,0,0,50,98471,0,0
40464,2.9604e+07,1,0,0,0.02,0,0,0.0088561,0,0,0,50,98471,0,0
40509,2.9614e+07,1,0,0,0.02,0,0,0.0088561,0,0,0,50,98471,0,0
40550,2.9624e+07,1,0,0,0.02,0,0,0.0088769,0,0,0,50,98471,0,0
40591,2.9634e+07,1,0,0,0.02,0,0,0.0088899,0,0,0,50,98471,0,0
40634,2.9644e+07,1,0,0,0.02,0,0,0.0088899,0,0,0,50,98471,0,0
40675,2.9654e+07,1,0,0,0.02,0,0,0.0089048,0,0,0,50,98471,0,0
40715,2.9665e+07,1,0,0,0.01,0.02,0,0.008918,0,0,0,50,98471,0,0
40756,2.9675e+07,1,0,0,0.01,0.02,0,0.008918,0,0,0,50,98471,0,0
40797,2.9685e+07,1,0,0,0.01,0.02,0,0.0087896,0,0,0,50,98471,0,0
40838,2.9695e+07,1,0,0,0.01,0.02,0,0.0087896,0,0,0,50,98471,0,0
40878,2.9706e+07,1,0,0,0.01,0.02,0,0.0088041,0,0,0,50,98471,0,0
40927,2.9716e+07,1,0,0,0.01,0.02,0,0.0088187,0,0,0,50,98471,0,0
40968,2.9728e+07,1,0,0,0.01,0.02,0,0.0088331,0,0,0,50,98471,0,0
41008,2.9738e+07,1,0,0,0.01,0.02,0,0.0088471,0,0,0,50,98471,0,0
41051,2.9748e+07,1,0,0,0.01,0.02,0,0.0088639,0,0,0,50,98471,0,0
41088,2.9759e+07,1,0,0,0.01,0.02,0,0.0088812,0,0,0,50,98471,0,0
41129,2.9769e+07,1,0,0,0.01,0.02,0,0.0088812,0,0,0,50,98471,0,0
41166,2.978e+07,1,0,0,0,0,0,0.0088944,0,0,0,50,98471,0,0
41207,2.9789e+07,1,0,0,0,0,0,0.0087684,0,0,0,50,98471,0,0
41249,2.98e+07,1,0,0,0,0,0,0.0087895,0,0,0,50,98471,0,0
41289,2.9809e+07,1,0,0,0,0,0,0.0088029,0,0,0,50,98471,0,0
41334,2.982e+07,1,0,0,0,0,0,0.0088029,0,0,0,50,98471,0,0
41374,2.983e+07,1,0,0,0,0,0,0.0088161,0,0,0,50,98471,0,0
41415,2.9841e+07,1,0,0,0,0,0,0.0088301,0,0,0,50,98471,0,0
41457,2.9851e+07,1,0,0,0,0,0,0.008844,0,0,0,50,98471,0,0
41498,2.9864e+07,1,0,0,0.01,0,0,0.0088574,0,0,0,50,98471,0,0
41539,2.9874e+07,1,0,0,0.01,0,0,0.0087303,0,0,0,50,98471,0,0
41581,2.9884e+07,1,0,0,0.01,0,0,0.0087303,0,0,0,50,98471,0,0
41622,2.9894e+07,1,0,0,0.01,0,0,0.008745,0,0,0,50,98471,0,0
41663,2.9904e+07,1,0,0,0.01,0,0,0.0087587,0,0,0,50,98471,0,0
41705,2.9914e+07,1,0,0,0.01,0,0,0.0087719,0,0,0,50,98471,0,0
41749,2.9924e+07,1,0,0,0.01,0,0,0.0087719,0,0,0,50,98471,0,0
41790,2.9934e+07,1,0,0,0.01,0,0,0.0087857,0,0,0,50,98471,0,0
41830,2.9944e+07,1,0,0,0.01,0,0,0.0088026,0,0,0,50,98471,0,0
41871,2.9954e+07,1,0,0,0.01,0,0,0.0088026,0,0,0,50,98471,0,0
41914,2.9964e+07,1,0,0,0.01,0,0,0.0088156,0,0,0,50,98471,0,0
41954,2.9974e+07,1,0,0,0.01,0,0,0.0088283,0,0,0,50,98471,0,0
41995,2.9984e+07,1,0,0,0.01,0.03,0,0.008705,0,0,0,50,98471,0,0
