LineNo,TimeUS,C,NI,FIX,FIY,AFI,HAGL,offset,RI,rng,Herr,eAng,eVel,ePos
306,1.9491e+07,0,0,0,0,0,0.26,0.92,0,0,0.5,0.00060632,0.0084379,0.016837
650,1.9556e+07,0,0,0,0,0,0.25,0.92,0,0,0.5,0.0010957,0.014443,0.03006
877,1.9602e+07,0,0,0,0,0,0.25,0.92,0,0,0.5,0.00099179,0.013401,0.028022
1219,1.9763e+07,0,0,0,0,0,0.25,0.92,0,0,0.5,0.00087797,0.012305,0.0258
1495,1.9834e+07,0,0,0,0,0,0.22,0.92,0,0,0.5,0.0016701,0.021563,0.046608
1590,1.9856e+07,0,0,0,0,0,0.22,0.92,0,0,0.5,0.0015899,0.020328,0.043989
1630,1.9866e+07,0,0,0,0,0,0.22,0.92,0,0,0.5,0.0015899,0.020328,0.043989
1672,1.9876e+07,0,0,0,0,0,0.23,0.92,0,0,0.5,0.0015627,0.019749,0.04153
1713,1.9886e+07,0,0,0,0,0,0.24,0.92,0,0,0.5,0.0015353,0.019129,0.040292
1753,1.9899e+07,0,0,0,0,0,0.24,0.92,0,0,0.5,0.0015114,0.022033,0.047444
1794,1.9909e+07,0,0,0,0,0,0.25,0.92,0,0,0.5,0.0017492,0.021275,0.04593
1834,1.992e+07,0,0,0,0,0,0.26,0.92,0,0,0.5,0.0017272,0.020557,0.044587
1876,1.993e+07,0,0,0,0,0,0.26,0.92,0,0,0.5,0.0017272,0.020557,0.044587
1916,1.994e+07,0,0,0,0,0,0.26,0.92,0,0,0.5,0.0016782,0.019838,0.043189
1957,1.995e+07,0,0,0,0,0,0.27,0.92,0,0,0.5,0.0016395,0.019153,0.041797
2002,1.996e+07,0,0,0,0,0,0.27,0.92,0,0,0.5,0.0015957,0.0185,0.040436
2045,1.9971e+07,0,0,0,0,0,0.28,0.92,0,0,0.5,0.0015421,0.017878,0.039223
2086,1.9981e+07,0,0,0,0,0,0.29,0.92,0,0,0.5,0.001465,0.017284,0.038014
2126,1.9991e+07,0,0,0,0,0,0.29,0.92,0,0,0.5,0.001465,0.017284,0.038014
2167,2.0002e+07,0,0,0,0,0,0.31,0.92,0,0,0.5,0.0013899,0.0096761,0.020423
2208,2.0012e+07,0,0,0,0,0,0.32,0.92,0,0,0.5,0.0010944,0.0094816,0.020106
2249,2.0022e+07,0,0,0,0,0,0.32,0.92,0,0,0.5,0.00098615,0.0092951,0.01979
2290,2.0032e+07,0,0,0,0,0,0.33,0.92,0,0,0.5,0.00087397,0.0091171,0.019463
2330,2.0042e+07,0,0,0,0,0,0.33,0.92,0,0,0.5,0.000766,0.008945,0.01915
2373,2.0052e+07,0,0,0,0,0,0.33,0.92,0,0,0.5,0.000766,0.008945,0.01915
2417,2.0062e+07,0,0,0,0,0,0.34,0.92,0,0,0.5,0.00066274,0.0087817,0.018831
2458,2.0072e+07,0,0,0,0,0,0.34,0.92,0,0,0.5,0.00058339,0.00863,0.018503
2501,2.0082e+07,0,0,0,0,0,0.35,0.92,0,0,0.5,0.00048568,0.008482,0.018201
2541,2.0093e+07,0,0,0,0,0,0.36,0.92,0,0,0.5,0.0003918,0.0083389,0.017893
2581,2.0103e+07,0,0,0,0,0,0.36,0.92,0,0,0.5,0.0003918,0.0083389,0.017893
2619,2.0113e+07,0,0,0,0,0,0.35,0.92,0,0,0.5,0.0004329,0.0116,0.025505
2660,2.0123e+07,0,0,0,0,0,0.36,0.92,0,0,0.5,0.00036265,0.011311,0.02485
2701,2.0134e+07,0,0,0,0,0,0.37,0.92,0,0,0.5,0.0002987,0.011034,0.024209
2742,2.0144e+07,0,0,0,0,0,0.37,0.92,0,0,0.5,0.000242,0.010769,0.023606
2783,2.0153e+07,0,0,0,0,0,0.37,0.92,0,0,0.5,0.000242,0.010769,0.023606
2827,2.0164e+07,0,0,0,0,0,0.38,0.92,0,0,0.5,0.00019178,0.010514,0.023027
2869,2.0174e+07,0,0,0,0,0,0.38,0.92,0,0,0.5,0.00013998,0.010269,0.022493
2910,2.0183e+07,0,0,0,0,0,0.39,0.92,0,0,0.5,0.00010339,0.010032,0.021944
2951,2.0193e+07,0,0,0,0,0,0.4,0.92,0,0,0.5,7.9176e-05,0.0098058,0.021406
2992,2.0203e+07,0,0,0,0,0,0.4,0.92,0,0,0.5,7.9176e-05,0.0098058,0.021406
3030,2.0214e+07,0,0,0,0,0,0.38,0.92,0,0,0.5,0.00081623,0.019293,0.043925
3071,2.0224e+07,0,0,0,0,0,0.38,0.92,0,0,0.5,0.00079036,0.018591,0.042347
3111,2.0234e+07,0,0,0,0,0,0.39,0.92,0,0,0.5,0.00076909,0.017922,0.040858
3152,2.0244e+07,0,0,0,0,0,0.4,0.92,0,0,0.5,0.00075155,0.017282,0.039412
3195,2.0254e+07,0,0,0,0,0,0.4,0.92,0,0,0.5,0.00075155,0.017282,0.039412
3240,2.0264e+07,0,0,0,0,0,0.4,0.92,0,0,0.5,0.00073771,0.016673,0.038049
3281,2.0274e+07,0,0,0,0,0,0.41,0.92,0,0,0.5,0.00072685,0.01609,0.036726
3322,2.0284e+07,0,0,0,0,0,0.41,0.92,0,0,0.5,0.00071907,0.015534,0.035478
3363,2.0294e+07,0,0,0,0,0,0.42,0.92,0,0,0.5,0.00071358,0.015002,0.034265
3403,2.0304e+07,0,0,0,0,0,0.42,0.92,0,0,0.5,0.00071358,0.015002,0.034265
3445,2.0314e+07,0,0,0,0,0,0.43,0.92,0,0,0.5,0.00090563,0.012644,0.028656
3485,2.0324e+07,0,0,0,0,0,0.44,0.92,0,0,0.5,0.00085427,0.01223,0.027763
3526,2.0334e+07,0,0,0,0,0,0.44,0.92,0,0,0.5,0.00080459,0.011835,0.026885
3566,2.0344e+07,0,0,0,0,0,0.45,0.92,0,0,0.5,0.00075673,0.011456,0.026052
3608,2.0355e+07,0,0,0,0,0,0.45,0.92,0,0,0.5,0.00070932,0.011093,0.025234
3656,2.0365e+07,0,0,0,0,0,0.46,0.92,0,0,0.5,0.00066293,0.010744,0.024459
3696,2.0376e+07,0,0,0,0,0,0.46,0.92,0,0,0.5,0.00066293,0.010744,0.024459
3737,2.0386e+07,0,0,0,0,0,0.46,0.92,0,0,0.5,0.00061688,0.010412,0.023699
3781,2.0396e+07,0,0,0,0,0,0.47,0.92,0,0,0.5,0.00057123,0.010094,0.022978
3818,2.0406e+07,0,0,0,0,0,0.44,0.92,0,0,0.5,0.00080682,0.024297,0.057343
3856,2.0417e+07,0,0,0,0,0,0.45,0.92,0,0,0.5,0.00075025,0.023291,0.055023
3896,2.0427e+07,0,0,0,0,0,0.45,0.92,0,0,0.5,0.00075025,0.023291,0.055023
3937,2.0437e+07,0,0,0,0,0,0.45,0.92,0,0,0.5,0.00069705,0.022335,0.052834
3978,2.0447e+07,0,0,0,0,0,0.46,0.92,0,0,0.5,0.00064638,0.021418,0.050708
4020,2.0458e+07,0,0,0,0,0,0.46,0.92,0,0,0.5,0.00060878,0.020543,0.048651
4066,2.0468e+07,0,0,0,0,0,0.47,0.92,0,0,0.5,0.00057265,0.019706,0.046659
4106,2.0478e+07,0,0,0,0,0,0.47,0.92,0,0,0.5,0.00052995,0.018917,0.044856
4148,2.0488e+07,0,0,0,0,0,0.47,0.92,0,0,0.5,0.00052995,0.018917,0.044856
4189,2.0499e+07,0,0,0,0,0,0.48,0.92,0,0,0.5,0.00049022,0.01816,0.043083
4226,2.0509e+07,0,0,0,0,0,0.49,0.92,0,0,0.5,0.0012104,0.016425,0.038924
4268,2.0518e+07,0,0,0,0,0,0.49,0.92,0,0,0.5,0.0011592,0.015753,0.037408
4308,2.0529e+07,0,0,0,0,0,0.5,0.92,0,0,0.5,0.0011118,0.015111,0.035994
4349,2.0539e+07,0,0,0,0,0,0.5,0.92,0,0,0.5,0.001068,0.014499,0.034591
4389,2.0549e+07,0,0,0,0,0,0.5,0.92,0,0,0.5,0.001068,0.014499,0.034591
4430,2.0559e+07,0,0,0,0,0,0.51,0.92,0,0,0.5,0.0010273,0.013915,0.033258
4477,2.057e+07,0,0,0,0,0,0.52,0.92,0,0,0.5,0.00098996,0.013357,0.031954
4517,2.058e+07,0,0,0,0,0,0.52,0.92,0,0,0.5,0.00096243,0.012824,0.030682
4559,2.059e+07,0,0,0,0,0,0.53,0.92,0,0,0.5,0.00092998,0.012316,0.029496
4602,2.0602e+07,0,0,0,0,0,0.52,0.92,0,0,0.5,0.00090007,0.018171,0.043909
4646,2.0615e+07,0,0,0,0,0,0.52,0.92,0,0,0.5,0.0018062,0.0174,0.042053
4687,2.0625e+07,0,0,0,0,0,0.53,0.92,0,0,0.5,0.0017331,0.016666,0.040297
4727,2.0635e+07,0,0,0,0,0,0.53,0.92,0,0,0.5,0.0017331,0.016666,0.040297
4770,2.0645e+07,0,0,0,0,0,0.53,0.92,0,0,0.5,0.0016632,0.015966,0.038632
4811,2.0655e+07,0,0,0,0,0,0.54,0.92,0,0,0.5,0.0015961,0.015296,0.037032
4852,2.0665e+07,0,0,0,0,0,0.54,0.92,0,0,0.5,0.0015315,0.014656,0.035479
4897,2.0676e+07,0,0,0,0,0,0.55,0.92,0,0,0.5,0.0014821,0.014046,0.03397
4938,2.0686e+07,0,0,0,0,0,0.55,0.92,0,0,0.5,0.0014821,0.014046,0.03397
4979,2.0696e+07,0,0,0,0,0,0.55,0.92,0,0,0.5,0.0014216,0.013465,0.032542
5020,2.0706e+07,0,0,0,0,0,0.56,0.92,0,0,0.5,0.0013638,0.012911,0.031188
5061,2.0719e+07,0,0,0,0,0,0.58,0.92,0,0,0.5,0.00096568,0.0052758,0.012263
5101,2.0729e+07,0,0,0,0,0,0.59,0.92,0,0,0.5,0.0008514,0.0051051,0.011827
5143,2.0739e+07,0,0,0,0,0,0.59,0.92,0,0,0.5,0.0008514,0.0051051,0.011827
5184,2.0749e+07,0,0,0,0,0,0.59,0.92,0,0,0.5,0.00074061,0.0049421,0.011388
5224,2.0759e+07,0,0,0,0,0,0.6,0.92,0,0,0.5,0.00063511,0.0047863,0.010952
5269,2.0769e+07,0,0,0,0,0,0.61,0.92,0,0,0.5,0.00053382,0.004636,0.010534
5310,2.078e+07,0,0,0,0,0,0.61,0.92,0,0,0.5,0.00043527,0.0044901,0.010127
5354,2.079e+07,0,0,0,0,0,0.62,0.92,0,0,0.5,0.00034254,0.0043496,0.009733
5395,2.08e+07,0,0,0,0,0,0.62,0.92,0,0,0.5,0.00034254,0.0043496,0.009733
5437,2.081e+07,0,0,0,0,0,0.62,0.92,0,0,0.5,0.00025371,0.0042168,0.0093434
5475,2.0822e+07,0,0,0,0,0,0.62,0.92,0,0,0.5,0.0001362,0.0090235,0.021319
5516,2.0832e+07,0,0,0,0,0,0.62,0.92,0,0,0.5,0.00020922,0.0086734,0.020416
5560,2.0842e+07,0,0,0,0,0,0.63,0.92,0,0,0.5,0.00026204,0.0083356,0.019534
5601,2.0853e+07,0,0,0,0,0,0.63,0.92,0,0,0.5,0.00030839,0.008011,0.01868
5641,2.0863e+07,0,0,0,0,0,0.64,0.92,0,0,0.5,0.00034843,0.0077015,0.017867
5686,2.0873e+07,0,0,0,0,0,0.64,0.92,0,0,0.5,0.00037555,0.0074072,0.01708
5726,2.0883e+07,0,0,0,0,0,0.64,0.92,0,0,0.5,0.00037555,0.0074072,0.01708
5769,2.0893e+07,0,0,0,0,0,0.65,0.92,0,0,0.5,0.00040382,0.007128,0.016336
5809,2.0903e+07,0,0,0,0,0,0.65,0.92,0,0,0.5,0.00042651,0.0068614,0.015632
5847,2.0914e+07,0,0,0,0,0,0.66,0.92,0,0,0.5,0.00029928,0.007644,0.017569
5886,2.0924e+07,0,0,0,0,0,0.66,0.92,0,0,0.5,0.0002932,0.0073389,0.016785
5926,2.0934e+07,0,0,0,0,0,0.67,0.92,0,0,0.5,0.00028001,0.0070491,0.016042
5968,2.0944e+07,0,0,0,0,0,0.67,0.92,0,0,0.5,0.00028001,0.0070491,0.016042
6009,2.0954e+07,0,0,0,0,0,0.67,0.92,0,0,0.5,0.00026669,0.0067727,0.01532
6049,2.0964e+07,0,0,0,0,0,0.68,0.92,0,0,0.5,0.00024641,0.0065082,0.014636
6094,2.0974e+07,0,0,0,0,0,0.68,0.92,0,0,0.5,0.00022372,0.0062555,0.01399
6134,2.0984e+07,0,0,0,0,0,0.69,0.92,0,0,0.5,0.00019987,0.0060131,0.013369
6176,2.0994e+07,0,0,0,0,0,0.69,0.92,0,0,0.5,0.0001741,0.0057821,0.012766
6217,2.1004e+07,0,0,0,0,0,0.69,0.92,0,0,0.5,0.0001741,0.0057821,0.012766
6257,2.1014e+07,0,0,0,0,0,0.66,0.92,0,0,0.5,0.00015231,0.020414,0.049904
6295,2.1024e+07,0,0,0,0,0,0.67,0.92,0,0,0.5,0.00039635,0.019486,0.047628
6336,2.1034e+07,0,0,0,0,0,0.67,0.92,0,0,0.5,0.00037851,0.018602,0.045476
6380,2.1044e+07,0,0,0,0,0,0.68,0.92,0,0,0.5,0.00036117,0.017756,0.043396
6420,2.1054e+07,0,0,0,0,0,0.68,0.92,0,0,0.5,0.00036117,0.017756,0.043396
6464,2.1067e+07,0,0,0,0,0,0.68,0.92,0,0,0.5,0.00034835,0.016947,0.041384
6508,2.1077e+07,0,0,0,0,0,0.69,0.92,0,0,0.5,0.00033294,0.016176,0.039478
6549,2.1087e+07,0,0,0,0,0,0.69,0.92,0,0,0.5,0.0003193,0.01544,0.037657
6591,2.1097e+07,0,0,0,0,0,0.7,0.92,0,0,0.5,0.00030687,0.014742,0.03594
6631,2.111e+07,0,0,0,0,0,0.67,0.92,0,0,0.5,0.00029593,0.028023,0.069991
6669,2.112e+07,0,0,0,0,0,0.67,0.92,0,0,0.5,4.9941e-05,0.026678,0.066759
6709,2.113e+07,0,0,0,0,0,0.68,0.92,0,0,0.5,7.5513e-05,0.025394,0.063665
6752,2.114e+07,0,0,0,0,0,0.68,0.92,0,0,0.5,7.5513e-05,0.025394,0.063665
6792,2.115e+07,0,0,0,0,0,0.68,0.92,0,0,0.5,0.00010003,0.024173,0.060739
6833,2.116e+07,0,0,0,0,0,0.69,0.92,0,0,0.5,0.00012375,0.023007,0.057937
6874,2.117e+07,0,0,0,0,0,0.69,0.92,0,0,0.5,0.00014558,0.02189,0.055215
6919,2.118e+07,0,0,0,0,0,0.7,0.92,0,0,0.5,0.00016275,0.020823,0.05258
6960,2.119e+07,0,0,0,0,0,0.7,0.92,0,0,0.5,0.00016275,0.020823,0.05258
7000,2.1201e+07,0,0,0,0,0,0.7,0.92,0,0,0.5,0.00018802,0.019811,0.05014
7041,2.1214e+07,0,0,0,0,0,0.69,0.92,0,0,0.5,0.00020789,0.027728,0.070696
7081,2.1224e+07,0,0,0,0,0,0.69,0.92,0,0,0.5,0.00044205,0.026342,0.06734
7122,2.1234e+07,0,0,0,0,0,0.7,0.92,0,0,0.5,0.00043968,0.025017,0.064089
7165,2.1244e+07,0,0,0,0,0,0.7,0.92,0,0,0.5,0.00043511,0.023757,0.061012
7207,2.1254e+07,0,0,0,0,0,0.71,0.92,0,0,0.5,0.0004293,0.022558,0.058094
7248,2.1264e+07,0,0,0,0,0,0.71,0.92,0,0,0.5,0.0004293,0.022558,0.058094
7292,2.1274e+07,0,0,0,0,0,0.71,0.92,0,0,0.5,0.00042156,0.021409,0.055258
7334,2.1284e+07,0,0,0,0,0,0.72,0.92,0,0,0.5,0.00041235,0.020313,0.052569
7375,2.1294e+07,0,0,0,0,0,0.72,0.92,0,0,0.5,0.00040213,0.019268,0.049994
7417,2.1304e+07,0,0,0,0,0,0.73,0.92,0,0,0.5,0.00039008,0.01827,0.047524
7461,2.132e+07,0,0,0,0,0,0.69,0.92,0,0,0.5,0.00089972,0.033757,0.08794
7502,2.133e+07,0,0,0,0,0,0.69,0.92,0,0,0.5,0.00087759,0.032037,0.083648
7543,2.134e+07,0,0,0,0,0,0.7,0.92,0,0,0.5,0.00085014,0.030403,0.079587
7585,2.135e+07,0,0,0,0,0,0.7,0.92,0,0,0.5,0.00082334,0.028846,0.075735
7625,2.136e+07,0,0,0,0,0,0.7,0.92,0,0,0.5,0.00082334,0.028846,0.075735
7666,2.137e+07,0,0,0,0,0,0.71,0.92,0,0,0.5,0.00079666,0.027354,0.071999
7712,2.138e+07,0,0,0,0,0,0.71,0.92,0,0,0.5,0.00077568,0.025928,0.068383
7753,2.139e+07,0,0,0,0,0,0.72,0.92,0,0,0.5,0.0007495,0.024572,0.064964
7795,2.14e+07,0,0,0,0,0,0.72,0.92,0,0,0.5,0.00072412,0.02328,0.061723
7838,2.1412e+07,0,0,0,0,0,0.71,0.92,0,0,0.5,0.00069937,0.028856,0.076425
7879,2.1425e+07,0,0,0,0,0,0.71,0.92,0,0,0.5,0.002633,0.027317,0.072554
7919,2.1435e+07,0,0,0,0,0,0.72,0.92,0,0,0.5,0.0025796,0.025851,0.068879
7960,2.1445e+07,0,0,0,0,0,0.72,0.92,0,0,0.5,0.0025796,0.025851,0.068879
8005,2.1455e+07,0,0,0,0,0,0.72,0.92,0,0,0.5,0.0025283,0.02445,0.065379
8045,2.1466e+07,0,0,0,0,0,0.73,0.92,0,0,0.5,0.0024783,0.02311,0.061986
8090,2.1476e+07,0,0,0,0,0,0.73,0.92,0,0,0.5,0.0024401,0.021835,0.058703
8130,2.1486e+07,0,0,0,0,0,0.74,0.92,0,0,0.5,0.0023934,0.020617,0.055582
8172,2.1496e+07,0,0,0,0,0,0.74,0.92,0,0,0.5,0.002348,0.019457,0.052588
8213,2.1506e+07,0,0,0,0,0,0.74,0.92,0,0,0.5,0.002348,0.019457,0.052588
8253,2.1516e+07,0,0,0,0,0,0.75,0.92,0,0,0.5,0.0023057,0.018349,0.049737
8288,2.1527e+07,0,0,0,0,0,0.71,0.92,0,0,0.5,0.0032761,0.033769,0.090523
8329,2.1537e+07,0,0,0,0,0,0.71,0.92,0,0,0.5,0.0031101,0.031959,0.08594
8369,2.1547e+07,0,0,0,0,0,0.72,0.92,0,0,0.5,0.0029456,0.030231,0.081514
8410,2.1557e+07,0,0,0,0,0,0.72,0.92,0,0,0.5,0.0028185,0.02858,0.07723
8451,2.1567e+07,0,0,0,0,0,0.72,0.92,0,0,0.5,0.0028185,0.02858,0.07723
8501,2.158e+07,0,0,0,0,0,0.73,0.92,0,0,0.5,0.0025037,0.025501,0.069292
8542,2.159e+07,0,0,0,0,0,0.73,0.92,0,0,0.5,0.0025037,0.025501,0.069292
8583,2.16e+07,0,0,0,0,0,0.73,0.92,0,0,0.5,0.0023544,0.024069,0.065598
8624,2.161e+07,0,0,0,0,0,0.74,0.92,0,0,0.5,0.0022065,0.022703,0.062057
8661,2.162e+07,0,0,0,0,0,0.71,0.92,0,0,0.5,0.0026103,0.032313,0.087679
8702,2.1632e+07,0,0,0,0,0,0.72,0.92,0,0,0.5,0.0024456,0.030513,0.083031
8744,2.1642e+07,0,0,0,0,0,0.72,0.92,0,0,0.5,0.0022462,0.028795,0.078649
8785,2.1653e+07,0,0,0,0,0,0.73,0.92,0,0,0.5,0.0020552,0.027155,0.074446
8827,2.1663e+07,0,0,0,0,0,0.73,0.92,0,0,0.5,0.0020552,0.027155,0.074446
8868,2.1673e+07,0,0,0,0,0,0.73,0.92,0,0,0.5,0.0018781,0.025591,0.070384
8913,2.1683e+07,0,0,0,0,0,0.73,0.92,0,0,0.5,0.0017447,0.024095,0.066444
8953,2.1693e+07,0,0,0,0,0,0.74,0.92,0,0,0.5,0.0015829,0.02267,0.062703
8994,2.1703e+07,0,0,0,0,0,0.74,0.92,0,0,0.5,0.0014324,0.02131,0.059143
9034,2.1714e+07,0,0,0,0,0,0.74,0.92,0,0,0.5,0.0014324,0.02131,0.059143
9075,2.1724e+07,0,0,0,0,0,0.72,0.92,0,0,0.5,0.0012899,0.030706,0.084352
9113,2.1734e+07,0,0,0,0,0,0.72,0.92,0,0,0.5,0.0016947,0.028936,0.079788
9153,2.1744e+07,0,0,0,0,0,0.73,0.92,0,0,0.5,0.0015402,0.027247,0.075369
9194,2.1754e+07,0,0,0,0,0,0.73,0.92,0,0,0.5,0.0014279,0.025623,0.071067
9234,2.1764e+07,0,0,0,0,0,0.73,0.92,0,0,0.5,0.0014279,0.025623,0.071067
9275,2.1774e+07,0,0,0,0,0,0.74,0.92,0,0,0.5,0.0012956,0.024082,0.06703
9319,2.1784e+07,0,0,0,0,0,0.74,0.92,0,0,0.5,0.0011748,0.022611,0.063122
9361,2.1794e+07,0,0,0,0,0,0.74,0.92,0,0,0.5,0.0010661,0.021206,0.059402
9404,2.1804e+07,0,0,0,0,0,0.75,0.92,0,0,0.5,0.00096663,0.019865,0.055805
9444,2.1814e+07,0,0,0,0,0,0.75,0.92,0,0,0.5,0.00096663,0.019865,0.055805
9483,2.1824e+07,0,0,0,0,0,0.74,0.92,0,0,0.5,0.00087775,0.021363,0.05988
9528,2.1874e+07,0,0,0,0,0,0.76,0.92,0,0,0.5,0.0010896,0.016224,0.046157
9573,2.1884e+07,0,0,0,0,0,0.77,0.92,0,0,0.5,0.0010109,0.015084,0.043076
9614,2.1894e+07,0,0,0,0,0,0.77,0.92,0,0,0.5,0.00093877,0.013995,0.040088
9655,2.1904e+07,0,0,0,0,0,0.77,0.92,0,0,0.5,0.00087439,0.012957,0.037247
9695,2.1914e+07,0,0,0,0,0,0.77,0.92,0,0,0.5,0.00087439,0.012957,0.037247
9729,2.1924e+07,0,0,0,0,0,0.76,0.92,0,0,0.5,0.00081531,0.017767,0.050273
9770,2.1934e+07,0,0,0,0,0,0.77,0.92,0,0,0.5,0.0018426,0.016541,0.046946
9811,2.1944e+07,0,0,0,0,0,0.77,0.92,0,0,0.5,0.0017586,0.015368,0.043726
9852,2.1954e+07,0,0,0,0,0,0.78,0.92,0,0,0.5,0.0016812,0.014252,0.040665
9893,2.1964e+07,0,0,0,0,0,0.78,0.92,0,0,0.5,0.0016812,0.014252,0.040665
9934,2.1974e+07,0,0,0,0,0,0.78,0.92,0,0,0.5,0.0016097,0.013185,0.037705
9979,2.1984e+07,0,0,0,0,0,0.78,0.92,0,0,0.5,0.001544,0.01217,0.034893
10020,2.1994e+07,0,0,0,0,0,0.79,0.92,0,0,0.5,0.0014828,0.011199,0.032172
10061,2.2004e+07,0,0,0,0,0,0.79,0.92,0,0,0.5,0.0014266,0.010277,0.029587
10101,2.2014e+07,0,0,0,0,0,0.79,0.92,0,0,0.5,0.0014266,0.010277,0.029587
10139,2.2024e+07,0,0,0,0,0,0.76,0.92,0,0,0.5,0.0013741,0.021106,0.059186
10179,2.2034e+07,0,0,0,0,0,0.77,0.92,0,0,0.5,0.0021879,0.019696,0.055363
10222,2.2044e+07,0,0,0,0,0,0.77,0.92,0,0,0.5,0.0020745,0.018346,0.05167
10262,2.2054e+07,0,0,0,0,0,0.78,0.92,0,0,0.5,0.0019666,0.017062,0.048163
10304,2.2064e+07,0,0,0,0,0,0.78,0.92,0,0,0.5,0.0019666,0.017062,0.048163
10344,2.2074e+07,0,0,0,0,0,0.78,0.92,0,0,0.5,0.0018632,0.015834,0.044774
10390,2.2084e+07,0,0,0,0,0,0.78,0.92,0,0,0.5,0.0017646,0.014666,0.041557
10430,2.2094e+07,0,0,0,0,0,0.79,0.92,0,0,0.5,0.0016697,0.013549,0.038449
10472,2.2104e+07,0,0,0,0,0,0.79,0.92,0,0,0.5,0.0015789,0.012487,0.0355
10513,2.2114e+07,0,0,0,0,0,0.79,0.92,0,0,0.5,0.0015789,0.012487,0.0355
10550,2.2124e+07,0,0,0,0,0,0.79,0.92,0,0,0.5,0.0014915,0.014843,0.041953
10591,2.2134e+07,0,0,0,0,0,0.79,0.92,0,0,0.5,0.0008468,0.013691,0.038817
10631,2.2144e+07,0,0,0,0,0,0.79,0.92,0,0,0.5,0.00070923,0.012593,0.035789
10673,2.2155e+07,0,0,0,0,0,0.8,0.92,0,0,0.5,0.00057853,0.011546,0.032906
10713,2.2166e+07,0,0,0,0,0,0.8,0.92,0,0,0.5,0.00045481,0.01055,0.03013
10755,2.2177e+07,0,0,0,0,0,0.8,0.92,0,0,0.5,0.00045481,0.01055,0.03013
10800,2.2186e+07,0,0,0,0,0,0.81,0.92,0,0,0.5,0.0003376,0.0096011,0.027485
10840,2.2196e+07,0,0,0,0,0,0.81,0.92,0,0,0.5,0.0002266,0.0086947,0.02493
10881,2.2206e+07,0,0,0,0,0,0.81,0.92,0,0,0.5,0.000122,0.0078335,0.022499
10927,2.2222e+07,0,0,0,0,0,0.8,0.92,0,0,0.5,3.1382e-05,0.011572,0.032851
10969,2.2232e+07,0,0,0,0,0,0.81,0.92,0,0,0.5,0.00067257,0.010561,0.03002
11009,2.2242e+07,0,0,0,0,0,0.81,0.92,0,0,0.5,0.00062187,0.0095977,0.027321
11052,2.2253e+07,0,0,0,0,0,0.82,0.92,0,0,0.5,0.00058761,0.0086788,0.024708
11092,2.2263e+07,0,0,0,0,0,0.82,0.92,0,0,0.5,0.00058761,0.0086788,0.024708
11134,2.2273e+07,0,0,0,0,0,0.82,0.92,0,0,0.5,0.00055258,0.0078086,0.022248
11180,2.2283e+07,0,0,0,0,0,0.82,0.92,0,0,0.5,0.00052542,0.0069807,0.019894
11220,2.2294e+07,0,0,0,0,0,0.83,0.92,0,0,0.5,0.00050574,0.0061895,0.017625
11263,2.2304e+07,0,0,0,0,0,0.83,0.92,0,0,0.5,0.00049274,0.0054398,0.015474
11303,2.2314e+07,0,0,0,0,0,0.83,0.92,0,0,0.5,0.00048635,0.0047274,0.013418
11345,2.2324e+07,0,0,0,0,0,0.83,0.92,0,0,0.5,0.00048635,0.0047274,0.013418
11382,2.2334e+07,0,0,0,0,0,0.8,0.92,0,0,0.5,0.0019146,0.018963,0.053343
11423,2.2344e+07,0,0,0,0,0,0.8,0.92,0,0,0.5,0.0018746,0.017586,0.049532
11464,2.2354e+07,0,0,0,0,0,0.8,0.92,0,0,0.5,0.0018457,0.016276,0.045875
11504,2.2364e+07,0,0,0,0,0,0.81,0.92,0,0,0.5,0.0018113,0.015031,0.042405
11546,2.2374e+07,0,0,0,0,0,0.81,0.92,0,0,0.5,0.0017792,0.013843,0.039103
11591,2.2385e+07,0,0,0,0,0,0.81,0.92,0,0,0.5,0.0017544,0.012707,0.035905
11634,2.2395e+07,0,0,0,0,0,0.81,0.92,0,0,0.5,0.0017544,0.012707,0.035905
11675,2.2405e+07,0,0,0,0,0,0.82,0.92,0,0,0.5,0.0017241,0.011631,0.032879
11715,2.2416e+07,0,0,0,0,0,0.82,0.92,0,0,0.5,0.0016953,0.010606,0.030002
11756,2.2426e+07,0,0,0,0,0,0.82,0.92,0,0,0.5,0.0016666,0.012583,0.035564
11793,2.2436e+07,0,0,0,0,0,0.82,0.92,0,0,0.5,0.0013911,0.011482,0.032506
11835,2.2447e+07,0,0,0,0,0,0.82,0.92,0,0,0.5,0.001266,0.010431,0.02959
11877,2.2457e+07,0,0,0,0,0,0.82,0.92,0,0,0.5,0.001266,0.010431,0.02959
11918,2.2467e+07,0,0,0,0,0,0.83,0.92,0,0,0.5,0.0011466,0.0094324,0.026821
11960,2.2477e+07,0,0,0,0,0,0.83,0.92,0,0,0.5,0.0010283,0.0084817,0.024154
12005,2.2487e+07,0,0,0,0,0,0.83,0.92,0,0,0.5,0.00093627,0.0075744,0.021577
12046,2.2497e+07,0,0,0,0,0,0.84,0.92,0,0,0.5,0.00082151,0.0067118,0.019142
12086,2.2507e+07,0,0,0,0,0,0.84,0.92,0,0,0.5,0.00071001,0.0058926,0.016804
12130,2.252e+07,0,0,0,0,0,0.8,0.92,0,0,0.5,0.0006001,0.019043,0.0542
12172,2.2531e+07,0,0,0,0,0,0.81,0.92,0,0,0.5,0.0015539,0.017633,0.050299
12212,2.2542e+07,0,0,0,0,0,0.81,0.92,0,0,0.5,0.0014855,0.016283,0.046535
12250,2.2552e+07,0,0,0,0,0,0.81,0.92,0,0,0.5,0.0014855,0.016283,0.046535
12290,2.2562e+07,0,0,0,0,0,0.81,0.92,0,0,0.5,0.0014054,0.015001,0.042943
12331,2.2572e+07,0,0,0,0,0,0.82,0.92,0,0,0.5,0.0013339,0.013777,0.039522
12373,2.2583e+07,0,0,0,0,0,0.82,0.92,0,0,0.5,0.0012692,0.01261,0.036231
12420,2.2593e+07,0,0,0,0,0,0.82,0.92,0,0,0.5,0.0012239,0.011494,0.033055
12460,2.2603e+07,0,0,0,0,0,0.82,0.92,0,0,0.5,0.0012239,0.011494,0.033055
12501,2.2613e+07,0,0,0,0,0,0.83,0.92,0,0,0.5,0.0011724,0.010432,0.030033
12542,2.2623e+07,0,0,0,0,0,0.83,0.92,0,0,0.5,0.0011377,0.0094155,0.027119
12579,2.2633e+07,0,0,0,0,0,0.82,0.92,0,0,0.5,0.0014345,0.013151,0.037876
12619,2.2643e+07,0,0,0,0,0,0.82,0.92,0,0,0.5,0.0013526,0.01198,0.034578
12660,2.2654e+07,0,0,0,0,0,0.82,0.92,0,0,0.5,0.0012557,0.010866,0.031462
12701,2.2664e+07,0,0,0,0,0,0.82,0.92,0,0,0.5,0.0012557,0.010866,0.031462
12741,2.2674e+07,0,0,0,0,0,0.83,0.92,0,0,0.5,0.001164,0.0098073,0.028469
12784,2.2684e+07,0,0,0,0,0,0.83,0.92,0,0,0.5,0.001078,0.0088003,0.025622
12829,2.2694e+07,0,0,0,0,0,0.83,0.92,0,0,0.5,0.00099601,0.0078386,0.022889
12869,2.2704e+07,0,0,0,0,0,0.84,0.92,0,0,0.5,0.00091855,0.0069235,0.020274
12910,2.2714e+07,0,0,0,0,0,0.84,0.92,0,0,0.5,0.00091855,0.0069235,0.020274
12950,2.2724e+07,0,0,0,0,0,0.84,0.92,0,0,0.5,0.00084424,0.0060496,0.01775
12988,2.2737e+07,0,0,0,0,0,0.82,0.92,0,0,0.5,0.00077415,0.014724,0.042767
13028,2.2747e+07,0,0,0,0,0,0.82,0.92,0,0,0.5,0.00089259,0.01346,0.039186
13070,2.2757e+07,0,0,0,0,0,0.82,0.92,0,0,0.5,0.00082667,0.012259,0.035751
13111,2.2767e+07,0,0,0,0,0,0.83,0.92,0,0,0.5,0.00074817,0.011117,0.032489
13151,2.2777e+07,0,0,0,0,0,0.83,0.92,0,0,0.5,0.00074817,0.011117,0.032489
13192,2.2787e+07,0,0,0,0,0,0.83,0.92,0,0,0.5,0.00067547,0.010028,0.029379
13239,2.2798e+07,0,0,0,0,0,0.83,0.92,0,0,0.5,0.00060725,0.0089899,0.026389
13280,2.2808e+07,0,0,0,0,0,0.83,0.92,0,0,0.5,0.00054476,0.0080054,0.023556
13321,2.2818e+07,0,0,0,0,0,0.84,0.92,0,0,0.5,0.0004863,0.0070662,0.020833
13361,2.2828e+07,0,0,0,0,0,0.82,0.92,0,0,0.5,0.00042281,0.012721,0.037281
13402,2.2839e+07,0,0,0,0,0,0.82,0.92,0,0,0.5,0.00051954,0.011541,0.033916
13442,2.2849e+07,0,0,0,0,0,0.83,0.92,0,0,0.5,0.00046241,0.010421,0.030723
13484,2.2859e+07,0,0,0,0,0,0.83,0.92,0,0,0.5,0.00046241,0.010421,0.030723
13525,2.2869e+07,0,0,0,0,0,0.83,0.92,0,0,0.5,0.00041067,0.0093534,0.027678
13565,2.2879e+07,0,0,0,0,0,0.83,0.92,0,0,0.5,0.00036376,0.008333,0.024738
13607,2.289e+07,0,0,0,0,0,0.84,0.92,0,0,0.5,0.00033001,0.0073604,0.021912
13651,2.29e+07,0,0,0,0,0,0.84,0.92,0,0,0.5,0.0002912,0.0064402,0.019235
13693,2.291e+07,0,0,0,0,0,0.84,0.92,0,0,0.5,0.0002636,0.0055631,0.01666
13733,2.292e+07,0,0,0,0,0,0.84,0.92,0,0,0.5,0.0002636,0.0055631,0.01666
13774,2.293e+07,0,0,0,0,0,0.84,0.92,0,0,0.5,0.00023212,0.0047312,0.014212
13812,2.294e+07,0,0,0,0,0,0.82,0.92,0,0,0.5,0.0013828,0.014381,0.042445
13852,2.2951e+07,0,0,0,0,0,0.82,0.92,0,0,0.5,0.0013505,0.013116,0.038833
13893,2.2961e+07,0,0,0,0,0,0.82,0.92,0,0,0.5,0.0013222,0.01191,0.035377
13935,2.2971e+07,0,0,0,0,0,0.82,0.92,0,0,0.5,0.0012971,0.010759,0.032051
13976,2.2981e+07,0,0,0,0,0,0.82,0.92,0,0,0.5,0.0012971,0.010759,0.032051
14017,2.2991e+07,0,0,0,0,0,0.83,0.92,0,0,0.5,0.0012796,0.0096581,0.028828
14061,2.3001e+07,0,0,0,0,0,0.83,0.92,0,0,0.5,0.0012599,0.0086138,0.025799
14103,2.3011e+07,0,0,0,0,0,0.83,0.92,0,0,0.5,0.0012425,0.0076206,0.022894
14143,2.3021e+07,0,0,0,0,0,0.84,0.92,0,0,0.5,0.0012277,0.0066771,0.020134
14188,2.3034e+07,0,0,0,0,0,0.81,0.92,0,0,0.5,0.0012145,0.01459,0.043416
14230,2.3044e+07,0,0,0,0,0,0.81,0.92,0,0,0.5,0.0020173,0.013293,0.039699
14268,2.3054e+07,0,0,0,0,0,0.81,0.92,0,0,0.5,0.0020173,0.013293,0.039699
14310,2.3064e+07,0,0,0,0,0,0.82,0.92,0,0,0.5,0.0019319,0.012055,0.036133
14350,2.3074e+07,0,0,0,0,0,0.82,0.92,0,0,0.5,0.0018484,0.010874,0.03273
14391,2.3084e+07,0,0,0,0,0,0.82,0.92,0,0,0.5,0.0017664,0.0097475,0.029456
14431,2.3094e+07,0,0,0,0,0,0.82,0.92,0,0,0.5,0.0017034,0.0086713,0.0263
14477,2.3105e+07,0,0,0,0,0,0.83,0.92,0,0,0.5,0.0016238,0.0076481,0.023299
14518,2.3115e+07,0,0,0,0,0,0.83,0.92,0,0,0.5,0.0016238,0.0076481,0.023299
14559,2.3125e+07,0,0,0,0,0,0.83,0.92,0,0,0.5,0.0015457,0.0066789,0.020455
14600,2.3135e+07,0,0,0,0,0,0.83,0.92,0,0,0.5,0.0014682,0.0057525,0.017714
14640,2.3148e+07,0,0,0,0,0,0.81,0.92,0,0,0.5,0.0019982,0.014771,0.044503
14681,2.3159e+07,0,0,0,0,0,0.81,0.92,0,0,0.5,0.0018709,0.013442,0.040673
14721,2.3169e+07,0,0,0,0,0,0.81,0.92,0,0,0.5,0.0018709,0.013442,0.040673
14762,2.3179e+07,0,0,0,0,0,0.81,0.92,0,0,0.5,0.0017506,0.012173,0.036978
14803,2.3189e+07,0,0,0,0,0,0.81,0.92,0,0,0.5,0.0016356,0.010957,0.033437
14848,2.3199e+07,0,0,0,0,0,0.82,0.92,0,0,0.5,0.0015248,0.0097966,0.030022
14890,2.321e+07,0,0,0,0,0,0.82,0.92,0,0,0.5,0.0015248,0.0097966,0.030022
14930,2.322e+07,0,0,0,0,0,0.82,0.92,0,0,0.5,0.0014424,0.0086822,0.026717
14971,2.323e+07,0,0,0,0,0,0.82,0.92,0,0,0.5,0.0013412,0.0076234,0.023584
15011,2.324e+07,0,0,0,0,0,0.82,0.92,0,0,0.5,0.0012457,0.0066151,0.020579
15052,2.325e+07,0,0,0,0,0,0.78,0.92,0,0,0.5,0.001155,0.020249,0.061283
15090,2.326e+07,0,0,0,0,0,0.78,0.92,0,0,0.5,0.0023797,0.018618,0.056579
15130,2.327e+07,0,0,0,0,0,0.79,0.92,0,0,0.5,0.0022399,0.017072,0.052147
15171,2.3281e+07,0,0,0,0,0,0.79,0.92,0,0,0.5,0.0021349,0.015593,0.047854
15213,2.3291e+07,0,0,0,0,0,0.79,0.92,0,0,0.5,0.0021349,0.015593,0.047854
15259,2.3302e+07,0,0,0,0,0,0.79,0.92,0,0,0.5,0.0020172,0.014191,0.043811
15299,2.3312e+07,0,0,0,0,0,0.79,0.92,0,0,0.5,0.0019276,0.012848,0.039886
15341,2.3322e+07,0,0,0,0,0,0.8,0.92,0,0,0.5,0.0018451,0.011564,0.036102
15384,2.3334e+07,0,0,0,0,0,0.75,0.92,0,0,0.5,0.0017686,0.024707,0.07567
15425,2.3344e+07,0,0,0,0,0,0.76,0.92,0,0,0.5,0.0023575,0.022843,0.070168
15467,2.3355e+07,0,0,0,0,0,0.76,0.92,0,0,0.5,0.0023047,0.021049,0.064942
15504,2.3366e+07,0,0,0,0,0,0.76,0.92,0,0,0.5,0.0021596,0.019346,0.059988
15545,2.3376e+07,0,0,0,0,0,0.76,0.92,0,0,0.5,0.0021596,0.019346,0.059988
15587,2.3386e+07,0,0,0,0,0,0.76,0.92,0,0,0.5,0.0020474,0.017724,0.055225
15627,2.3396e+07,0,0,0,0,0,0.76,0.92,0,0,0.5,0.0019109,0.016179,0.050716
15674,2.3406e+07,0,0,0,0,0,0.77,0.92,0,0,0.5,0.0017793,0.014707,0.046402
15714,2.3416e+07,0,0,0,0,0,0.77,0.92,0,0,0.5,0.0016534,0.0133,0.04224
15756,2.3427e+07,0,0,0,0,0,0.77,0.92,0,0,0.5,0.0015328,0.011961,0.038286
15798,2.3437e+07,0,0,0,0,0,0.77,0.92,0,0,0.5,0.0015328,0.011961,0.038286
15842,2.345e+07,0,0,0,0,0,0.75,0.92,0,0,0.5,0.0021832,0.016547,0.052389
15883,2.346e+07,0,0,0,0,0,0.75,0.92,0,0,0.5,0.0021832,0.016547,0.052389
15924,2.3471e+07,0,0,0,0,0,0.75,0.92,0,0,0.5,0.0020667,0.015035,0.047934
15965,2.3481e+07,0,0,0,0,0,0.75,0.92,0,0,0.5,0.0019261,0.013592,0.043682
16005,2.3491e+07,0,0,0,0,0,0.76,0.92,0,0,0.5,0.0017968,0.012213,0.039576
16046,2.3501e+07,0,0,0,0,0,0.76,0.92,0,0,0.5,0.0016764,0.010901,0.035671
16091,2.3511e+07,0,0,0,0,0,0.76,0.92,0,0,0.5,0.0016764,0.010901,0.035671
16132,2.3521e+07,0,0,0,0,0,0.76,0.92,0,0,0.5,0.0015632,0.0096481,0.031902
16173,2.3531e+07,0,0,0,0,0,0.76,0.92,0,0,0.5,0.0014793,0.0084514,0.028269
16213,2.3541e+07,0,0,0,0,0,0.76,0.92,0,0,0.5,0.0013801,0.0073147,0.024814
16258,2.3557e+07,0,0,0,0,0,0.74,0.92,0,0,0.5,0.0018854,0.013984,0.045121
16299,2.3567e+07,0,0,0,0,0,0.74,0.92,0,0,0.5,0.0017414,0.012569,0.040895
16341,2.3578e+07,0,0,0,0,0,0.74,0.92,0,0,0.5,0.0016111,0.011226,0.036861
16381,2.3588e+07,0,0,0,0,0,0.75,0.92,0,0,0.5,0.001488,0.0099365,0.032951
16422,2.3599e+07,0,0,0,0,0,0.75,0.92,0,0,0.5,0.001488,0.0099365,0.032951
16468,2.3609e+07,0,0,0,0,0,0.75,0.92,0,0,0.5,0.0013735,0.0087137,0.029244
16509,2.3619e+07,0,0,0,0,0,0.75,0.92,0,0,0.5,0.0012668,0.0075473,0.025688
16551,2.3629e+07,0,0,0,0,0,0.75,0.92,0,0,0.5,0.0011672,0.0064337,0.022263
16594,2.364e+07,0,0,0,0,0,0.75,0.92,0,0,0.5,0.0010758,0.005376,0.019007
16634,2.3655e+07,0,0,0,0,0,0.73,0.92,0,0,0.5,0.0016203,0.012444,0.040655
16675,2.3665e+07,0,0,0,0,0,0.73,0.92,0,0,0.5,0.0015286,0.011086,0.036526
16717,2.3675e+07,0,0,0,0,0,0.73,0.92,0,0,0.5,0.0013966,0.0098024,0.032666
16757,2.3686e+07,0,0,0,0,0,0.73,0.92,0,0,0.5,0.0013966,0.0098024,0.032666
16798,2.3696e+07,0,0,0,0,0,0.73,0.92,0,0,0.5,0.0013186,0.0085731,0.028891
16838,2.3705e+07,0,0,0,0,0,0.74,0.92,0,0,0.5,0.0012268,0.0073965,0.025288
16884,2.3715e+07,0,0,0,0,0,0.74,0.92,0,0,0.5,0.0011431,0.0062779,0.021844
16924,2.3726e+07,0,0,0,0,0,0.74,0.92,0,0,0.5,0.0010651,0.0052112,0.01853
16965,2.3737e+07,0,0,0,0,0,0.74,0.92,0,0,0.5,0.0010651,0.0052112,0.01853
17006,2.3746e+07,0,0,0,0,0,0.74,0.92,0,0,0.5,0.0010081,0.0041951,0.015343
17040,2.3757e+07,0,0,0,0,0,0.74,0.92,0,0,0.5,0.0015409,0.0042734,0.015425
17080,2.3767e+07,0,0,0,0,0,0.74,0.92,0,0,0.5,0.0014594,0.0033049,0.012376
17121,2.3777e+07,0,0,0,0,0,0.74,0.92,0,0,0.5,0.0013634,0.0024019,0.0094992
17165,2.3787e+07,0,0,0,0,0,0.74,0.92,0,0,0.5,0.0012548,0.0015776,0.0067804
17205,2.3798e+07,0,0,0,0,0,0.74,0.92,0,0,0.5,0.0012548,0.0015776,0.0067804
17246,2.3808e+07,0,0,0,0,0,0.75,0.92,0,0,0.5,0.0011734,0.00090822,0.004182
17291,2.3817e+07,0,0,0,0,0,0.75,0.92,0,0,0.5,0.0010972,0.00075819,0.001868
17332,2.3828e+07,0,0,0,0,0,0.75,0.92,0,0,0.5,0.0010261,0.0012415,0.0014801
17373,2.3838e+07,0,0,0,0,0,0.75,0.92,0,0,0.5,0.00095986,0.0018852,0.0034648
17415,2.3848e+07,0,0,0,0,0,0.75,0.92,0,0,0.5,0.00095986,0.0018852,0.0034648
17457,2.3858e+07,0,0,0,0,0,0.73,0.92,0,0,0.5,0.00089899,0.0042663,0.015166
17497,2.3868e+07,0,0,0,0,0,0.73,0.92,0,0,0.5,0.0016604,0.0032997,0.012089
17539,2.3878e+07,0,0,0,0,0,0.73,0.92,0,0,0.5,0.0015723,0.0023971,0.0091727
17580,2.3888e+07,0,0,0,0,0,0.73,0.92,0,0,0.5,0.0014902,0.0015748,0.0064228
17621,2.3898e+07,0,0,0,0,0,0.74,0.92,0,0,0.5,0.0014115,0.00090359,0.0038372
17662,2.3909e+07,0,0,0,0,0,0.74,0.92,0,0,0.5,0.0014115,0.00090359,0.0038372
17706,2.3919e+07,0,0,0,0,0,0.74,0.92,0,0,0.5,0.0013396,0.00073352,0.0015897
17747,2.3929e+07,0,0,0,0,0,0.74,0.92,0,0,0.5,0.0012724,0.0012083,0.0017275
17788,2.3938e+07,0,0,0,0,0,0.74,0.92,0,0,0.5,0.0012089,0.0018459,0.0037998
17836,2.3954e+07,0,0,0,0,0,0.72,0.92,0,0,0.5,0.0011497,0.0059632,0.020203
17876,2.3964e+07,0,0,0,0,0,0.72,0.92,0,0,0.5,0.0016895,0.0049031,0.01689
17918,2.3975e+07,0,0,0,0,0,0.72,0.92,0,0,0.5,0.0016084,0.0038962,0.013712
17959,2.3985e+07,0,0,0,0,0,0.72,0.92,0,0,0.5,0.0016084,0.0038962,0.013712
18000,2.3995e+07,0,0,0,0,0,0.72,0.92,0,0,0.5,0.0015095,0.0029446,0.010686
18041,2.4006e+07,0,0,0,0,0,0.72,0.92,0,0,0.5,0.0014171,0.0020537,0.007809
18085,2.4016e+07,0,0,0,0,0,0.72,0.92,0,0,0.5,0.0013286,0.001246,0.0050776
18127,2.4027e+07,0,0,0,0,0,0.72,0.92,0,0,0.5,0.0012447,0.00066636,0.0025322
18167,2.4037e+07,0,0,0,0,0,0.72,0.92,0,0,0.5,0.0012447,0.00066636,0.0025322
18210,2.4047e+07,0,0,0,0,0,0.72,0.92,0,0,0.5,0.0011661,0.00083012,0.0010326
18250,2.4057e+07,0,0,0,0,0,0.73,0.92,0,0,0.5,0.0010913,0.0014485,0.0028126
18290,2.4068e+07,0,0,0,0,0,0.7,0.92,0,0,0.5,0.0022641,0.0054332,0.01851
18331,2.4078e+07,0,0,0,0,0,0.7,0.92,0,0,0.5,0.00216,0.0043845,0.015233
18372,2.4088e+07,0,0,0,0,0,0.7,0.92,0,0,0.5,0.00216,0.0043845,0.015233
18413,2.4098e+07,0,0,0,0,0,0.71,0.92,0,0,0.5,0.002064,0.0033898,0.012099
18454,2.4108e+07,0,0,0,0,0,0.71,0.92,0,0,0.5,0.0019748,0.0024546,0.0091184
18501,2.412e+07,0,0,0,0,0,0.71,0.92,0,0,0.5,0.0018906,0.0015884,0.0062773
18542,2.4131e+07,0,0,0,0,0,0.71,0.92,0,0,0.5,0.0018127,0.00084917,0.0035824
18583,2.4141e+07,0,0,0,0,0,0.71,0.92,0,0,0.5,0.0018127,0.00084917,0.0035824
18624,2.4151e+07,0,0,0,0,0,0.71,0.92,0,0,0.5,0.0017397,0.00064745,0.0012789
18665,2.4161e+07,0,0,0,0,0,0.71,0.92,0,0,0.5,0.0016715,0.0011863,0.0019678
18702,2.4174e+07,0,0,0,0,0,0.68,0.92,0,0,0.5,0.0021236,0.0072317,0.02439
18743,2.4184e+07,0,0,0,0,0,0.68,0.92,0,0,0.5,0.0019877,0.0060722,0.020782
18785,2.4194e+07,0,0,0,0,0,0.69,0.92,0,0,0.5,0.0018578,0.0049684,0.017318
18825,2.4205e+07,0,0,0,0,0,0.69,0.92,0,0,0.5,0.0018578,0.0049684,0.017318
18867,2.4215e+07,0,0,0,0,0,0.69,0.92,0,0,0.5,0.0017329,0.0039234,0.014026
18911,2.4225e+07,0,0,0,0,0,0.69,0.92,0,0,0.5,0.0015892,0.0029346,0.0109
18952,2.4236e+07,0,0,0,0,0,0.69,0.92,0,0,0.5,0.0014765,0.002005,0.0079078
18993,2.4246e+07,0,0,0,0,0,0.69,0.92,0,0,0.5,0.0013684,0.0011613,0.0050738
19035,2.4258e+07,0,0,0,0,0,0.67,0.92,0,0,0.5,0.0012645,0.0073451,0.025106
19074,2.4268e+07,0,0,0,0,0,0.67,0.92,0,0,0.5,0.0017066,0.006185,0.021457
19116,2.4279e+07,0,0,0,0,0,0.67,0.92,0,0,0.5,0.0015797,0.005069,0.017972
19158,2.4289e+07,0,0,0,0,0,0.67,0.92,0,0,0.5,0.0015797,0.005069,0.017972
19199,2.4299e+07,0,0,0,0,0,0.67,0.92,0,0,0.5,0.0014608,0.004015,0.01466
19239,2.4309e+07,0,0,0,0,0,0.67,0.92,0,0,0.5,0.0013497,0.0030164,0.011494
19280,2.4319e+07,0,0,0,0,0,0.67,0.92,0,0,0.5,0.0012471,0.0020788,0.0084685
19324,2.4329e+07,0,0,0,0,0,0.67,0.92,0,0,0.5,0.0011704,0.0012217,0.0055854
19366,2.434e+07,0,0,0,0,0,0.67,0.92,0,0,0.5,0.0011704,0.0012217,0.0055854
19406,2.435e+07,0,0,0,0,0,0.67,0.92,0,0,0.5,0.0010789,0.00059564,0.0028908
19447,2.436e+07,0,0,0,0,0,0.67,0.92,0,0,0.5,0.00099414,0.00081844,0.00091234
19488,2.4373e+07,0,0,0,0,0,0.63,0.92,0,0,0.5,0.0021507,0.011326,0.038472
19529,2.4382e+07,0,0,0,0,0,0.63,0.92,0,0,0.5,0.0020662,0.0099499,0.034141
19572,2.4393e+07,0,0,0,0,0,0.63,0.92,0,0,0.5,0.0020662,0.0099499,0.034141
19612,2.4402e+07,0,0,0,0,0,0.63,0.92,0,0,0.5,0.0019669,0.0086432,0.030033
19654,2.4413e+07,0,0,0,0,0,0.64,0.92,0,0,0.5,0.0018749,0.00739,0.02607
19699,2.4423e+07,0,0,0,0,0,0.64,0.92,0,0,0.5,0.0017902,0.0062001,0.022293
19740,2.4434e+07,0,0,0,0,0,0.64,0.92,0,0,0.5,0.0017108,0.0050753,0.018721
19781,2.4444e+07,0,0,0,0,0,0.64,0.92,0,0,0.5,0.0016388,0.0040117,0.015327
19824,2.4454e+07,0,0,0,0,0,0.64,0.92,0,0,0.5,0.0016388,0.0040117,0.015327
19865,2.4464e+07,0,0,0,0,0,0.64,0.92,0,0,0.5,0.0015728,0.0030033,0.012081
19902,2.4474e+07,0,0,0,0,0,0.62,0.92,0,0,0.5,0.0011512,0.0078238,0.027701
19943,2.4484e+07,0,0,0,0,0,0.62,0.92,0,0,0.5,0.0010164,0.0065989,0.023856
19984,2.4494e+07,0,0,0,0,0,0.62,0.92,0,0,0.5,0.00086216,0.0054376,0.020214
20024,2.4504e+07,0,0,0,0,0,0.62,0.92,0,0,0.5,0.00074309,0.0043371,0.016707
20065,2.4515e+07,0,0,0,0,0,0.62,0.92,0,0,0.5,0.00065132,0.0032947,0.013352
20111,2.4525e+07,0,0,0,0,0,0.62,0.92,0,0,0.5,0.00065132,0.0032947,0.013352
20152,2.4536e+07,0,0,0,0,0,0.62,0.92,0,0,0.5,0.00056212,0.0023155,0.010165
20192,2.4546e+07,0,0,0,0,0,0.62,0.92,0,0,0.5,0.00045368,0.0014041,0.0071335
20233,2.4556e+07,0,0,0,0,0,0.62,0.92,0,0,0.5,0.00032914,0.00063981,0.0042774
20274,2.4566e+07,0,0,0,0,0,0.62,0.92,0,0,0.5,0.00032914,0.00063981,0.0042774
20313,2.4577e+07,0,0,0,0,0,0.61,0.92,0,0,0.5,0.0019018,0.0034208,0.013801
20353,2.4587e+07,0,0,0,0,0,0.61,0.92,0,0,0.5,0.0018327,0.0024311,0.010564
20394,2.4597e+07,0,0,0,0,0,0.61,0.92,0,0,0.5,0.0017849,0.0015228,0.0074843
20434,2.4607e+07,0,0,0,0,0,0.61,0.92,0,0,0.5,0.0017313,0.00078264,0.0045826
20476,2.4617e+07,0,0,0,0,0,0.61,0.92,0,0,0.5,0.0016954,0.00072305,0.0019249
20523,2.4627e+07,0,0,0,0,0,0.61,0.92,0,0,0.5,0.0016954,0.00072305,0.0019249
20565,2.4637e+07,0,0,0,0,0,0.61,0.92,0,0,0.5,0.0016565,0.0013507,0.001434
20606,2.4647e+07,0,0,0,0,0,0.61,0.92,0,0,0.5,0.0016242,0.0020779,0.0037387
20646,2.4657e+07,0,0,0,0,0,0.61,0.92,0,0,0.5,0.0015982,0.0027951,0.0061352
20687,2.4667e+07,0,0,0,0,0,0.61,0.92,0,0,0.5,0.0015982,0.0027951,0.0061352
20727,2.4678e+07,0,0,0,0,0,0.6,0.92,0,0,0.5,0.0021521,0.0012471,0.0062977
20768,2.4688e+07,0,0,0,0,0,0.6,0.92,0,0,0.5,0.0020581,0.00070923,0.0034436
20809,2.4698e+07,0,0,0,0,0,0.6,0.92,0,0,0.5,0.0019424,0.0010028,0.0012165
20850,2.4708e+07,0,0,0,0,0,0.6,0.92,0,0,0.5,0.0018322,0.0016819,0.0024868
20891,2.4718e+07,0,0,0,0,0,0.6,0.92,0,0,0.5,0.0018322,0.0016819,0.0024868
20935,2.4728e+07,0,0,0,0,0,0.6,0.92,0,0,0.5,0.0017243,0.0024039,0.0048927
20978,2.4739e+07,0,0,0,0,0,0.6,0.92,0,0,0.5,0.0016218,0.0031112,0.0072786
21018,2.4749e+07,0,0,0,0,0,0.6,0.92,0,0,0.5,0.0015204,0.0037927,0.0095797
21059,2.4759e+07,0,0,0,0,0,0.6,0.92,0,0,0.5,0.0014223,0.0044409,0.011771
21101,2.4769e+07,0,0,0,0,0,0.6,0.92,0,0,0.5,0.0014223,0.0044409,0.011771
21142,2.478e+07,0,0,0,0,0,0.6,0.92,0,0,0.5,0.0019412,0.0044596,0.011805
21184,2.479e+07,0,0,0,0,0,0.6,0.92,0,0,0.5,0.001809,0.0050763,0.013894
21224,2.48e+07,0,0,0,0,0,0.6,0.92,0,0,0.5,0.0016853,0.0056601,0.015878
21265,2.4811e+07,0,0,0,0,0,0.6,0.92,0,0,0.5,0.0015698,0.0062207,0.017792
21306,2.4821e+07,0,0,0,0,0,0.6,0.92,0,0,0.5,0.0015698,0.0062207,0.017792
21353,2.4831e+07,0,0,0,0,0,0.6,0.92,0,0,0.5,0.001461,0.0067526,0.019615
21395,2.4842e+07,0,0,0,0,0,0.6,0.92,0,0,0.5,0.0013586,0.007259,0.021357
21436,2.4852e+07,0,0,0,0,0,0.6,0.92,0,0,0.5,0.0012623,0.0077398,0.023016
21478,2.4862e+07,0,0,0,0,0,0.6,0.92,0,0,0.5,0.0011721,0.0081933,0.024593
21518,2.4872e+07,0,0,0,0,0,0.6,0.92,0,0,0.5,0.0011721,0.0081933,0.024593
21559,2.4883e+07,0,0,0,0,0,0.59,0.92,0,0,0.5,0.0017032,0.0065825,0.019268
21599,2.4894e+07,0,0,0,0,0,0.59,0.92,0,0,0.5,0.001609,0.0070874,0.021007
21640,2.4904e+07,0,0,0,0,0,0.59,0.92,0,0,0.5,0.0014745,0.0075623,0.022664
21680,2.4914e+07,0,0,0,0,0,0.59,0.92,0,0,0.5,0.0013719,0.0080101,0.024219
21722,2.4924e+07,0,0,0,0,0,0.59,0.92,0,0,0.5,0.0012773,0.0084326,0.025702
21769,2.4934e+07,0,0,0,0,0,0.59,0.92,0,0,0.5,0.0011893,0.0088315,0.027103
21809,2.4944e+07,0,0,0,0,0,0.59,0.92,0,0,0.5,0.0011893,0.0088315,0.027103
21850,2.4954e+07,0,0,0,0,0,0.59,0.92,0,0,0.5,0.0011075,0.0092095,0.028431
21891,2.4964e+07,0,0,0,0,0,0.59,0.92,0,0,0.5,0.0010316,0.0095672,0.0297
21935,2.4977e+07,0,0,0,0,0,0.58,0.92,0,0,0.5,0.00096093,0.0061355,0.018258
21975,2.4987e+07,0,0,0,0,0,0.58,0.92,0,0,0.5,0.0017292,0.0066368,0.019976
22016,2.4997e+07,0,0,0,0,0,0.58,0.92,0,0,0.5,0.0016521,0.0071138,0.021614
22056,2.5008e+07,0,0,0,0,0,0.58,0.92,0,0,0.5,0.0015601,0.0075645,0.02317
22098,2.5018e+07,0,0,0,0,0,0.58,0.92,0,0,0.5,0.0015601,0.0075645,0.02317
22139,2.5028e+07,0,0,0,0,0,0.58,0.92,0,0,0.5,0.0014746,0.0079881,0.024639
22184,2.5038e+07,0,0,0,0,0,0.58,0.92,0,0,0.5,0.0013943,0.0083895,0.02604
22227,2.5049e+07,0,0,0,0,0,0.58,0.92,0,0,0.5,0.001319,0.008768,0.027368
22267,2.5059e+07,0,0,0,0,0,0.58,0.92,0,0,0.5,0.0012494,0.0091271,0.028623
22308,2.5069e+07,0,0,0,0,0,0.57,0.92,0,0,0.5,0.0011845,0.005561,0.016652
22349,2.508e+07,0,0,0,0,0,0.57,0.92,0,0,0.5,0.0012648,0.0060692,0.018383
22390,2.5091e+07,0,0,0,0,0,0.57,0.92,0,0,0.5,0.0011553,0.0065497,0.020019
22431,2.5102e+07,0,0,0,0,0,0.57,0.92,0,0,0.5,0.0011553,0.0065497,0.020019
22471,2.5112e+07,0,0,0,0,0,0.57,0.92,0,0,0.5,0.0010734,0.0070027,0.021561
22513,2.5122e+07,0,0,0,0,0,0.57,0.92,0,0,0.5,0.00097392,0.0074322,0.023038
22553,2.5132e+07,0,0,0,0,0,0.57,0.92,0,0,0.5,0.00088076,0.0078405,0.02444
22599,2.5142e+07,0,0,0,0,0,0.57,0.92,0,0,0.5,0.00079361,0.0082274,0.025778
22639,2.5153e+07,0,0,0,0,0,0.57,0.92,0,0,0.5,0.00070933,0.0085932,0.027042
22681,2.5163e+07,0,0,0,0,0,0.57,0.92,0,0,0.5,0.00070933,0.0085932,0.027042
22722,2.5173e+07,0,0,0,0,0,0.57,0.92,0,0,0.5,0.00064607,0.0089365,0.028225
22759,2.5184e+07,0,0,0,0,0,0.54,0.92,0,0,0.5,0.0017849,0.0028834,0.0077012
22799,2.5194e+07,0,0,0,0,0,0.54,0.92,0,0,0.5,0.0017204,0.0034922,0.0097637
22839,2.5204e+07,0,0,0,0,0,0.54,0.92,0,0,0.5,0.0016453,0.0040713,0.011727
22881,2.5214e+07,0,0,0,0,0,0.54,0.92,0,0,0.5,0.0015768,0.0046228,0.013595
22921,2.5224e+07,0,0,0,0,0,0.54,0.92,0,0,0.5,0.0015149,0.0051447,0.015367
22962,2.5234e+07,0,0,0,0,0,0.54,0.92,0,0,0.5,0.0015149,0.0051447,0.015367
23007,2.5244e+07,0,0,0,0,0,0.54,0.92,0,0,0.5,0.0014588,0.0056404,0.017048
23050,2.5255e+07,0,0,0,0,0,0.54,0.92,0,0,0.5,0.0014193,0.0061126,0.018648
23093,2.5265e+07,0,0,0,0,0,0.54,0.92,0,0,0.5,0.0013739,0.00656,0.02018
23134,2.5275e+07,0,0,0,0,0,0.54,0.92,0,0,0.5,0.0013335,0.004835,0.014279
23175,2.5286e+07,0,0,0,0,0,0.53,0.92,0,0,0.5,0.00068299,0.0053463,0.015998
23215,2.5297e+07,0,0,0,0,0,0.53,0.92,0,0,0.5,0.00057113,0.0058295,0.017626
23256,2.5308e+07,0,0,0,0,0,0.53,0.92,0,0,0.5,0.00048617,0.006286,0.019168
23299,2.5318e+07,0,0,0,0,0,0.53,0.92,0,0,0.5,0.00048617,0.006286,0.019168
23340,2.5328e+07,0,0,0,0,0,0.53,0.92,0,0,0.5,0.00038159,0.0067163,0.020629
23381,2.5338e+07,0,0,0,0,0,0.53,0.92,0,0,0.5,0.00027988,0.0071237,0.022022
23425,2.5348e+07,0,0,0,0,0,0.53,0.92,0,0,0.5,0.00018336,0.0075071,0.023339
23467,2.5358e+07,0,0,0,0,0,0.53,0.92,0,0,0.5,9.262e-05,0.0078732,0.024602
23507,2.5368e+07,0,0,0,0,0,0.53,0.92,0,0,0.5,9.262e-05,0.0078732,0.024602
23549,2.5378e+07,0,0,0,0,0,0.53,0.92,0,0,0.5,2.673e-05,0.008221,0.025802
23590,2.5388e+07,0,0,0,0,0,0.52,0.92,0,0,0.5,7.882e-05,0.0056597,0.017019
23633,2.5398e+07,0,0,0,0,0,0.52,0.92,0,0,0.5,0.00074084,0.0061099,0.018556
23674,2.5409e+07,0,0,0,0,0,0.52,0.92,0,0,0.5,0.00071222,0.0065384,0.020022
23715,2.542e+07,0,0,0,0,0,0.52,0.92,0,0,0.5,0.00068188,0.0069438,0.021419
23757,2.543e+07,0,0,0,0,0,0.52,0.92,0,0,0.5,0.00068188,0.0069438,0.021419
23799,2.544e+07,0,0,0,0,0,0.52,0.92,0,0,0.5,0.00066348,0.0073258,0.022734
23844,2.545e+07,0,0,0,0,0,0.52,0.92,0,0,0.5,0.00064255,0.0076876,0.024
23886,2.546e+07,0,0,0,0,0,0.52,0.92,0,0,0.5,0.00063211,0.0080299,0.025196
23926,2.547e+07,0,0,0,0,0,0.52,0.92,0,0,0.5,0.00062757,0.0083549,0.026337
23968,2.548e+07,0,0,0,0,0,0.52,0.92,0,0,0.5,0.00062757,0.0083549,0.026337
24008,2.549e+07,0,0,0,0,0,0.5,0.92,0,0,0.5,0.00062881,0.0042905,0.012358
24049,2.5499e+07,0,0,0,0,0,0.5,0.92,0,0,0.5,0.0011199,0.0047906,0.014072
24089,2.5509e+07,0,0,0,0,0,0.5,0.92,0,0,0.5,0.0010733,0.0052684,0.015708
24130,2.5519e+07,0,0,0,0,0,0.5,0.92,0,0,0.5,0.0010387,0.005722,0.017261
24171,2.553e+07,0,0,0,0,0,0.5,0.92,0,0,0.5,0.00099634,0.006151,0.018741
24212,2.554e+07,0,0,0,0,0,0.5,0.92,0,0,0.5,0.00099634,0.006151,0.018741
24257,2.555e+07,0,0,0,0,0,0.5,0.92,0,0,0.5,0.00095587,0.006556,0.020137
24297,2.556e+07,0,0,0,0,0,0.5,0.92,0,0,0.5,0.00091606,0.0069386,0.021466
24339,2.557e+07,0,0,0,0,0,0.5,0.92,0,0,0.5,0.00087702,0.0073024,0.022729
24380,2.558e+07,0,0,0,0,0,0.5,0.92,0,0,0.5,0.00087702,0.0073024,0.022729
24421,2.559e+07,0,0,0,0,0,0.5,0.92,0,0,0.5,0.00083838,0.0076509,0.023946
24458,2.5601e+07,0,0,0,0,0,0.48,0.92,0,0,0.5,0.0014377,0.0035984,0.0098934
24499,2.5611e+07,0,0,0,0,0,0.48,0.92,0,0,0.5,0.0013679,0.0041231,0.011688
24541,2.5621e+07,0,0,0,0,0,0.48,0.92,0,0,0.5,0.0013004,0.0046201,0.013391
24581,2.5631e+07,0,0,0,0,0,0.48,0.92,0,0,0.5,0.0012494,0.0050923,0.015008
24624,2.5641e+07,0,0,0,0,0,0.48,0.92,0,0,0.5,0.0012494,0.0050923,0.015008
24675,2.5652e+07,0,0,0,0,0,0.48,0.92,0,0,0.5,0.001187,0.0055413,0.016552
24716,2.5663e+07,0,0,0,0,0,0.48,0.92,0,0,0.5,0.0011265,0.0059681,0.018028
24757,2.5673e+07,0,0,0,0,0,0.48,0.92,0,0,0.5,0.0010566,0.0063697,0.019431
24798,2.5683e+07,0,0,0,0,0,0.48,0.92,0,0,0.5,0.0010018,0.0067497,0.020748
24839,2.5696e+07,0,0,0,0,0,0.48,0.92,0,0,0.5,0.001626,0.0080293,0.025175
24880,2.5706e+07,0,0,0,0,0,0.48,0.92,0,0,0.5,0.0015542,0.0083305,0.026216
24921,2.5716e+07,0,0,0,0,0,0.48,0.92,0,0,0.5,0.001468,0.0086146,0.027207
24961,2.5727e+07,0,0,0,0,0,0.48,0.92,0,0,0.5,0.0013861,0.0088843,0.028158
25002,2.5737e+07,0,0,0,0,0,0.48,0.92,0,0,0.5,0.0013861,0.0088843,0.028158
25042,2.5747e+07,0,0,0,0,0,0.48,0.92,0,0,0.5,0.0013089,0.0091366,0.029056
25089,2.5758e+07,0,0,0,0,0,0.48,0.92,0,0,0.5,0.001251,0.0093753,0.029899
25130,2.5768e+07,0,0,0,0,0,0.48,0.92,0,0,0.5,0.001251,0.0093753,0.029899
25171,2.5778e+07,0,0,0,0,0,0.48,0.92,0,0,0.5,0.0011952,0.0096003,0.030699
25213,2.5788e+07,0,0,0,0,0,0.48,0.92,0,0,0.5,0.0011271,0.0098189,0.031487
25253,2.5799e+07,0,0,0,0,0,0.47,0.92,0,0,0.5,0.0010626,0.0073519,0.022888
25294,2.5809e+07,0,0,0,0,0,0.47,0.92,0,0,0.5,0.00095644,0.0076703,0.02402
25334,2.5819e+07,0,0,0,0,0,0.47,0.92,0,0,0.5,0.0015048,0.0079704,0.025099
25374,2.583e+07,0,0,0,0,0,0.46,0.92,0,0,0.5,0.0014304,0.0082558,0.026112
25414,2.584e+07,0,0,0,0,0,0.46,0.92,0,0,0.5,0.0014304,0.0082558,0.026112
25457,2.585e+07,0,0,0,0,0,0.46,0.92,0,0,0.5,0.0013408,0.0085215,0.027074
25502,2.586e+07,0,0,0,0,0,0.46,0.92,0,0,0.5,0.0012553,0.0087725,0.027985
25542,2.587e+07,0,0,0,0,0,0.46,0.92,0,0,0.5,0.0011442,0.0090089,0.028879
25584,2.588e+07,0,0,0,0,0,0.46,0.92,0,0,0.5,0.0010874,0.0092333,0.029679
25625,2.589e+07,0,0,0,0,0,0.46,0.92,0,0,0.5,0.0010874,0.0092333,0.029679
25666,2.59e+07,0,0,0,0,0,0.46,0.92,0,0,0.5,0.0010184,0.0087747,0.028078
25704,2.591e+07,0,0,0,0,0,0.46,0.92,0,0,0.5,0.0014037,0.0090078,0.02891
25744,2.592e+07,0,0,0,0,0,0.46,0.92,0,0,0.5,0.0013466,0.0092282,0.029707
25785,2.5931e+07,0,0,0,0,0,0.46,0.92,0,0,0.5,0.0012726,0.0094354,0.030438
25825,2.5941e+07,0,0,0,0,0,0.45,0.92,0,0,0.5,0.001186,0.0096279,0.031146
25867,2.5951e+07,0,0,0,0,0,0.45,0.92,0,0,0.5,0.001186,0.0096279,0.031146
25912,2.5962e+07,0,0,0,0,0,0.45,0.92,0,0,0.5,0.0011047,0.0098095,0.031817
25952,2.5972e+07,0,0,0,0,0,0.45,0.92,0,0,0.5,0.0010277,0.009981,0.032445
25995,2.5982e+07,0,0,0,0,0,0.45,0.92,0,0,0.5,0.00095379,0.01014,0.033039
26033,2.5992e+07,0,0,0,0,0,0.43,0.92,0,0,0.5,0.00088469,0.0055706,0.016904
26075,2.6002e+07,0,0,0,0,0,0.43,0.92,0,0,0.5,0.00088469,0.0055706,0.016904
26116,2.6012e+07,0,0,0,0,0,0.43,0.92,0,0,0.5,0.0019527,0.0059312,0.018182
26156,2.6025e+07,0,0,0,0,0,0.43,0.92,0,0,0.5,0.0018642,0.0062814,0.019418
26199,2.6034e+07,0,0,0,0,0,0.43,0.92,0,0,0.5,0.0017972,0.0066146,0.020589
26239,2.6045e+07,0,0,0,0,0,0.43,0.92,0,0,0.5,0.0017179,0.0069284,0.021707
26281,2.6055e+07,0,0,0,0,0,0.43,0.92,0,0,0.5,0.0016434,0.0072231,0.022759
26326,2.6065e+07,0,0,0,0,0,0.43,0.92,0,0,0.5,0.0015891,0.0075036,0.023749
26366,2.6076e+07,0,0,0,0,0,0.43,0.92,0,0,0.5,0.0015238,0.0077683,0.024691
26407,2.6087e+07,0,0,0,0,0,0.43,0.92,0,0,0.5,0.0015238,0.0077683,0.024691
26449,2.6097e+07,0,0,0,0,0,0.43,0.92,0,0,0.5,0.0014761,0.0080162,0.025563
26487,2.611e+07,0,0,0,0,0,0.42,0.92,0,0,0.5,0.003355,0.0075198,0.023795
26528,2.612e+07,0,0,0,0,0,0.42,0.92,0,0,0.5,0.0032349,0.0077819,0.024721
26568,2.613e+07,0,0,0,0,0,0.42,0.92,0,0,0.5,0.0031192,0.0080288,0.025593
26610,2.614e+07,0,0,0,0,0,0.42,0.92,0,0,0.5,0.003032,0.0082628,0.026418
26650,2.615e+07,0,0,0,0,0,0.42,0.92,0,0,0.5,0.0029257,0.0084827,0.027208
26695,2.616e+07,0,0,0,0,0,0.42,0.92,0,0,0.5,0.0029257,0.0084827,0.027208
26735,2.617e+07,0,0,0,0,0,0.42,0.92,0,0,0.5,0.0028228,0.0086881,0.027951
26777,2.618e+07,0,0,0,0,0,0.42,0.92,0,0,0.5,0.0027459,0.0088809,0.028632
26818,2.619e+07,0,0,0,0,0,0.42,0.92,0,0,0.5,0.0026509,0.0090627,0.0293
26858,2.6203e+07,0,0,0,0,0,0.41,0.92,0,0,0.5,0.0027953,0.0089833,0.029023
26899,2.6213e+07,0,0,0,0,0,0.41,0.92,0,0,0.5,0.0025788,0.0091558,0.029652
26939,2.6223e+07,0,0,0,0,0,0.41,0.92,0,0,0.5,0.0025788,0.0091558,0.029652
26981,2.6233e+07,0,0,0,0,0,0.41,0.92,0,0,0.5,0.002372,0.0093187,0.030256
27024,2.6243e+07,0,0,0,0,0,0.41,0.92,0,0,0.5,0.0021727,0.0094708,0.030817
27067,2.6253e+07,0,0,0,0,0,0.41,0.92,0,0,0.5,0.0020208,0.009614,0.03134
27112,2.6263e+07,0,0,0,0,0,0.41,0.92,0,0,0.5,0.0020208,0.009614,0.03134
27152,2.6273e+07,0,0,0,0,0,0.41,0.92,0,0,0.5,0.0018323,0.009747,0.031839
27193,2.6283e+07,0,0,0,0,0,0.41,0.92,0,0,0.5,0.0016505,0.0098741,0.032326
27233,2.6293e+07,0,0,0,0,0,0.41,0.92,0,0,0.5,0.0014772,0.0099934,0.032776
27275,2.6303e+07,0,0,0,0,0,0.41,0.92,0,0,0.5,0.0014772,0.0099934,0.032776
27309,2.6313e+07,0,0,0,0,0,0.42,0.92,0,0,0.5,0.002118,0.014874,0.050296
27350,2.6323e+07,0,0,0,0,0,0.42,0.92,0,0,0.5,0.0019406,0.014747,0.049912
27392,2.6333e+07,0,0,0,0,0,0.42,0.92,0,0,0.5,0.0017768,0.01462,0.04952
27433,2.6344e+07,0,0,0,0,0,0.42,0.92,0,0,0.5,0.0016262,0.014497,0.04915
27474,2.6354e+07,0,0,0,0,0,0.42,0.92,0,0,0.5,0.0014882,0.014375,0.04877
27519,2.6364e+07,0,0,0,0,0,0.42,0.92,0,0,0.5,0.0013389,0.014257,0.048441
27559,2.6374e+07,0,0,0,0,0,0.42,0.92,0,0,0.5,0.0013389,0.014257,0.048441
27600,2.6384e+07,0,0,0,0,0,0.41,0.92,0,0,0.5,0.0012281,0.01414,0.048092
27640,2.6394e+07,0,0,0,0,0,0.41,0.92,0,0,0.5,0.0011283,0.014026,0.047734
27678,2.6405e+07,0,0,0,0,0,0.39,0.92,0,0,0.5,0.0013013,0.0083307,0.027257
27723,2.6417e+07,0,0,0,0,0,0.39,0.92,0,0,0.5,0.0012009,0.0084855,0.027837
27767,2.643e+07,0,0,0,0,0,0.39,0.92,0,0,0.5,0.0010825,0.0086286,0.028383
27811,2.6439e+07,0,0,0,0,0,0.39,0.92,0,0,0.5,0.00099586,0.0087626,0.028885
27852,2.645e+07,0,0,0,0,0,0.39,0.92,0,0,0.5,0.00099586,0.0087626,0.028885
27893,2.646e+07,0,0,0,0,0,0.39,0.92,0,0,0.5,0.00089508,0.0088877,0.029365
27938,2.647e+07,0,0,0,0,0,0.39,0.92,0,0,0.5,0.00080291,0.0090069,0.029828
27979,2.648e+07,0,0,0,0,0,0.38,0.92,0,0,0.5,0.00071732,0.0091193,0.030254
28020,2.649e+07,0,0,0,0,0,0.38,0.92,0,0,0.5,0.00063969,0.0092228,0.030655
28060,2.65e+07,0,0,0,0,0,0.38,0.92,0,0,0.5,0.00063969,0.0092228,0.030655
28095,2.6511e+07,0,0,0,0,0,0.38,0.92,0,0,0.5,0.00092223,0.0082076,0.026965
28136,2.6521e+07,0,0,0,0,0,0.38,0.92,0,0,0.5,0.00085441,0.0083576,0.027487
28177,2.6531e+07,0,0,0,0,0,0.38,0.92,0,0,0.5,0.00077624,0.0084966,0.027981
28218,2.6541e+07,0,0,0,0,0,0.37,0.92,0,0,0.5,0.00070579,0.0086261,0.02845
28259,2.6551e+07,0,0,0,0,0,0.37,0.92,0,0,0.5,0.00062962,0.0087477,0.02891
28300,2.6561e+07,0,0,0,0,0,0.37,0.92,0,0,0.5,0.00062962,0.0087477,0.02891
28345,2.6571e+07,0,0,0,0,0,0.37,0.92,0,0,0.5,0.00057409,0.0088625,0.029329
28386,2.6581e+07,0,0,0,0,0,0.37,0.92,0,0,0.5,0.00052416,0.0089691,0.029709
28427,2.6591e+07,0,0,0,0,0,0.37,0.92,0,0,0.5,0.00047948,0.0090688,0.030076
28467,2.6604e+07,0,0,0,0,0,0.37,0.92,0,0,0.5,0.00043968,0.0088509,0.029255
28508,2.6614e+07,0,0,0,0,0,0.37,0.92,0,0,0.5,0.0010713,0.0089504,0.029607
28549,2.6625e+07,0,0,0,0,0,0.36,0.92,0,0,0.5,0.0010187,0.0090434,0.029944
28590,2.6635e+07,0,0,0,0,0,0.36,0.92,0,0,0.5,0.0010187,0.0090434,0.029944
28633,2.6645e+07,0,0,0,0,0,0.36,0.92,0,0,0.5,0.00097098,0.0091302,0.03027
28674,2.6655e+07,0,0,0,0,0,0.36,0.92,0,0,0.5,0.00092801,0.0092112,0.030575
28724,2.6668e+07,0,0,0,0,0,0.36,0.92,0,0,0.5,0.00088822,0.0092858,0.030852
28765,2.6678e+07,0,0,0,0,0,0.36,0.92,0,0,0.5,0.00085255,0.0093546,0.031119
28806,2.6688e+07,0,0,0,0,0,0.36,0.92,0,0,0.5,0.00085255,0.0093546,0.031119
28846,2.6698e+07,0,0,0,0,0,0.36,0.92,0,0,0.5,0.00081961,0.0094203,0.031363
28887,2.6709e+07,0,0,0,0,0,0.36,0.92,0,0,0.5,0.00079586,0.009481,0.031583
28924,2.6719e+07,0,0,0,0,0,0.35,0.92,0,0,0.5,0.0013928,0.0073386,0.023727
28965,2.6729e+07,0,0,0,0,0,0.34,0.92,0,0,0.5,0.0013256,0.0074952,0.024303
29006,2.6739e+07,0,0,0,0,0,0.34,0.92,0,0,0.5,0.0012616,0.007641,0.024838
29049,2.675e+07,0,0,0,0,0,0.34,0.92,0,0,0.5,0.0012616,0.007641,0.024838
29091,2.676e+07,0,0,0,0,0,0.34,0.92,0,0,0.5,0.0012006,0.0077775,0.025335
29135,2.677e+07,0,0,0,0,0,0.34,0.92,0,0,0.5,0.0011431,0.0079058,0.02581
29176,2.678e+07,0,0,0,0,0,0.34,0.92,0,0,0.5,0.0010761,0.0080261,0.026273
29217,2.679e+07,0,0,0,0,0,0.34,0.92,0,0,0.5,0.0010761,0.0080261,0.026273
29258,2.68e+07,0,0,0,0,0,0.34,0.92,0,0,0.5,0.0010243,0.0081385,0.026692
29298,2.681e+07,0,0,0,0,0,0.35,0.92,0,0,0.5,0.00097442,0.012141,0.041399
29339,2.682e+07,0,0,0,0,0,0.35,0.92,0,0,0.5,0.0019583,0.01205,0.041105
29380,2.683e+07,0,0,0,0,0,0.35,0.92,0,0,0.5,0.001892,0.011963,0.040793
29421,2.684e+07,0,0,0,0,0,0.35,0.92,0,0,0.5,0.001892,0.011963,0.040793
29464,2.685e+07,0,0,0,0,0,0.35,0.92,0,0,0.5,0.0018119,0.011877,0.0405
29506,2.686e+07,0,0,0,0,0,0.34,0.92,0,0,0.5,0.0017358,0.011795,0.04023
29550,2.6871e+07,0,0,0,0,0,0.34,0.92,0,0,0.5,0.0016633,0.011714,0.039967
29592,2.6881e+07,0,0,0,0,0,0.34,0.92,0,0,0.5,0.0015943,0.011633,0.039692
29632,2.6891e+07,0,0,0,0,0,0.34,0.92,0,0,0.5,0.0015146,0.011554,0.039458
29674,2.6901e+07,0,0,0,0,0,0.34,0.92,0,0,0.5,0.0015146,0.011554,0.039458
29714,2.6912e+07,0,0,0,0,0,0.34,0.92,0,0,0.5,0.0014525,0.012351,0.042423
29755,2.6922e+07,0,0,0,0,0,0.34,0.92,0,0,0.5,0.0019838,0.012224,0.042004
29792,2.6932e+07,0,0,0,0,0,0.34,0.92,0,0,0.5,0.0018637,0.012101,0.041606
29834,2.6942e+07,0,0,0,0,0,0.34,0.92,0,0,0.5,0.0017258,0.011981,0.041237
29875,2.6952e+07,0,0,0,0,0,0.33,0.92,0,0,0.5,0.0016177,0.011863,0.040852
29915,2.6962e+07,0,0,0,0,0,0.33,0.92,0,0,0.5,0.0016177,0.011863,0.040852
29960,2.6973e+07,0,0,0,0,0,0.33,0.92,0,0,0.5,0.0015349,0.011748,0.040438
30001,2.6983e+07,0,0,0,0,0,0.33,0.92,0,0,0.5,0.0014352,0.011636,0.04006
30042,2.6993e+07,0,0,0,0,0,0.33,0.92,0,0,0.5,0.0014352,0.011636,0.04006
30083,2.7003e+07,0,0,0,0,0,0.33,0.92,0,0,0.5,0.0013583,0.01153,0.039687
30121,2.7013e+07,0,0,0,0,0,0.33,0.92,0,0,0.5,0.0012631,0.011426,0.039347
30160,2.7023e+07,0,0,0,0,0,0.31,0.92,0,0,0.5,0.0012333,0.0077442,0.02567
30200,2.7034e+07,0,0,0,0,0,0.31,0.92,0,0,0.5,0.001133,0.0078204,0.025951
30242,2.7044e+07,0,0,0,0,0,0.31,0.92,0,0,0.5,0.001133,0.0078204,0.025951
30284,2.7054e+07,0,0,0,0,0,0.31,0.92,0,0,0.5,0.0010128,0.0078909,0.026219
30325,2.7064e+07,0,0,0,0,0,0.31,0.92,0,0,0.5,0.00089932,0.0079551,0.026474
30370,2.7074e+07,0,0,0,0,0,0.31,0.92,0,0,0.5,0.00079168,0.0080146,0.026707
30410,2.7084e+07,0,0,0,0,0,0.31,0.92,0,0,0.5,0.00065308,0.0080668,0.026959
30453,2.7095e+07,0,0,0,0,0,0.3,0.92,0,0,0.5,0.0005645,0.0081176,0.027152
30493,2.7104e+07,0,0,0,0,0,0.3,0.92,0,0,0.5,0.0005645,0.0081176,0.027152
30528,2.7114e+07,0,0,0,0,0,0.3,0.92,0,0,0.5,0.00048247,0.0076481,0.025376
30569,2.7124e+07,0,0,0,0,0,0.3,0.92,0,0,0.5,0.00086419,0.0077127,0.02562
30610,2.7134e+07,0,0,0,0,0,0.3,0.92,0,0,0.5,0.00078989,0.0077763,0.025844
30651,2.7144e+07,0,0,0,0,0,0.3,0.92,0,0,0.5,0.00072343,0.0078355,0.026045
30691,2.7155e+07,0,0,0,0,0,0.29,0.92,0,0,0.5,0.00066404,0.0078895,0.026235
30732,2.7165e+07,0,0,0,0,0,0.29,0.92,0,0,0.5,0.00066404,0.0078895,0.026235
30776,2.7175e+07,0,0,0,0,0,0.29,0.92,0,0,0.5,0.0006117,0.0079379,0.026401
30817,2.7185e+07,0,0,0,0,0,0.29,0.92,0,0,0.5,0.00056461,0.0079823,0.026561
30860,2.7195e+07,0,0,0,0,0,0.29,0.92,0,0,0.5,0.00053208,0.0080222,0.026692
30903,2.7209e+07,0,0,0,0,0,0.3,0.92,0,0,0.5,0.00049639,0.010801,0.037097
30944,2.7219e+07,0,0,0,0,0,0.3,0.92,0,0,0.5,0.00092013,0.010699,0.036728
30981,2.723e+07,0,0,0,0,0,0.3,0.92,0,0,0.5,0.00092013,0.010699,0.036728
31024,2.724e+07,0,0,0,0,0,0.29,0.92,0,0,0.5,0.00086556,0.0106,0.036378
31067,2.725e+07,0,0,0,0,0,0.29,0.92,0,0,0.5,0.00081581,0.010503,0.036029
31108,2.726e+07,0,0,0,0,0,0.29,0.92,0,0,0.5,0.00077898,0.010409,0.035681
31148,2.727e+07,0,0,0,0,0,0.29,0.92,0,0,0.5,0.00077898,0.010409,0.035681
31193,2.728e+07,0,0,0,0,0,0.29,0.92,0,0,0.5,0.00073559,0.010317,0.035363
31234,2.729e+07,0,0,0,0,0,0.29,0.92,0,0,0.5,0.00069647,0.010228,0.035043
31274,2.73e+07,0,0,0,0,0,0.29,0.92,0,0,0.5,0.00066025,0.010141,0.034741
31316,2.731e+07,0,0,0,0,0,0.28,0.92,0,0,0.5,0.00062657,0.010055,0.034446
31356,2.732e+07,0,0,0,0,0,0.28,0.92,0,0,0.5,0.00062657,0.010055,0.034446
31391,2.733e+07,0,0,0,0,0,0.28,0.92,0,0,0.5,0.00017743,0.010447,0.035948
31433,2.734e+07,0,0,0,0,0,0.28,0.92,0,0,0.5,0.00011945,0.010338,0.035577
31473,2.735e+07,0,0,0,0,0,0.28,0.92,0,0,0.5,5.5598e-05,0.010231,0.035234
31514,2.7361e+07,0,0,0,0,0,0.28,0.92,0,0,0.5,2.197e-05,0.010127,0.034865
31554,2.7371e+07,0,0,0,0,0,0.28,0.92,0,0,0.5,5.245e-05,0.010025,0.034513
31599,2.7381e+07,0,0,0,0,0,0.28,0.92,0,0,0.5,9.6294e-05,0.0099259,0.034158
31640,2.7391e+07,0,0,0,0,0,0.28,0.92,0,0,0.5,9.6294e-05,0.0099259,0.034158
31681,2.7401e+07,0,0,0,0,0,0.27,0.92,0,0,0.5,0.00013871,0.0098292,0.033822
31723,2.7412e+07,0,0,0,0,0,0.27,0.92,0,0,0.5,0.00017884,0.009735,0.033494
31765,2.7424e+07,0,0,0,0,0,0.27,0.92,0,0,0.5,3.5522e-05,0.010392,0.035987
31811,2.7438e+07,0,0,0,0,0,0.27,0.92,0,0,0.5,2.9271e-05,0.010265,0.035522
31852,2.7448e+07,0,0,0,0,0,0.27,0.92,0,0,0.5,2.495e-05,0.010142,0.035079
31893,2.7458e+07,0,0,0,0,0,0.27,0.92,0,0,0.5,2.3475e-05,0.010022,0.034639
31933,2.7469e+07,0,0,0,0,0,0.27,0.92,0,0,0.5,2.3475e-05,0.010022,0.034639
31978,2.7479e+07,0,0,0,0,0,0.27,0.92,0,0,0.5,2.2579e-05,0.0099056,0.03422
32019,2.7489e+07,0,0,0,0,0,0.26,0.92,0,0,0.5,2.272e-05,0.0097927,0.033823
32059,2.7499e+07,0,0,0,0,0,0.26,0.92,0,0,0.5,2.4999e-05,0.0096829,0.033437
32100,2.7509e+07,0,0,0,0,0,0.26,0.92,0,0,0.5,2.4999e-05,0.0096829,0.033437
32141,2.7519e+07,0,0,0,0,0,0.26,0.92,0,0,0.5,3.1783e-05,0.0095777,0.033085
32176,2.7529e+07,0,0,0,0,0,0.25,0.92,0,0,0.5,2.6108e-05,0.0083636,0.028466
32216,2.7539e+07,0,0,0,0,0,0.25,0.92,0,0,0.5,2.5044e-05,0.0083174,0.02829
32257,2.755e+07,0,0,0,0,0,0.25,0.92,0,0,0.5,2.3939e-05,0.008271,0.028135
32299,2.756e+07,0,0,0,0,0,0.25,0.92,0,0,0.5,2.295e-05,0.0082255,0.027969
32339,2.757e+07,0,0,0,0,0,0.25,0.92,0,0,0.5,2.295e-05,0.0082255,0.027969
32384,2.758e+07,0,0,0,0,0,0.25,0.92,0,0,0.5,2.2145e-05,0.0081794,0.02781
32424,2.759e+07,0,0,0,0,0,0.25,0.92,0,0,0.5,2.143e-05,0.0081335,0.02764
32466,2.76e+07,0,0,0,0,0,0.24,0.92,0,0,0.5,2.073e-05,0.0080878,0.027505
32506,2.761e+07,0,0,0,0,0,0.24,0.92,0,0,0.5,2.0384e-05,0.0080429,0.027334
32548,2.762e+07,0,0,0,0,0,0.24,0.92,0,0,0.5,2.0384e-05,0.0080429,0.027334
32583,2.763e+07,0,0,0,0,0,0.25,0.92,0,0,0.5,0.00023591,0.010605,0.037133
32625,2.764e+07,0,0,0,0,0,0.25,0.92,0,0,0.5,0.00023493,0.010433,0.036492
32667,2.7651e+07,0,0,0,0,0,0.25,0.92,0,0,0.5,0.00023411,0.010267,0.035883
32708,2.7661e+07,0,0,0,0,0,0.24,0.92,0,0,0.5,0.00023339,0.010106,0.035275
32748,2.7671e+07,0,0,0,0,0,0.24,0.92,0,0,0.5,0.0002327,0.0099506,0.034698
32798,2.7684e+07,0,0,0,0,0,0.24,0.92,0,0,0.5,0.00023193,0.0098012,0.03415
32839,2.7694e+07,0,0,0,0,0,0.24,0.92,0,0,0.5,0.00023133,0.0096561,0.03361
32880,2.7704e+07,0,0,0,0,0,0.24,0.92,0,0,0.5,0.00023133,0.0096561,0.03361
32920,2.7714e+07,0,0,0,0,0,0.24,0.92,0,0,0.5,0.00023085,0.0095163,0.033099
32961,2.7727e+07,0,0,0,0,0,0.25,0.92,0,0,0.5,0.00023112,0.013018,0.046558
33002,2.7737e+07,0,0,0,0,0,0.25,0.92,0,0,0.5,7.7928e-05,0.012705,0.045398
33045,2.7747e+07,0,0,0,0,0,0.25,0.92,0,0,0.5,6.2429e-05,0.012405,0.04431
33086,2.7757e+07,0,0,0,0,0,0.24,0.92,0,0,0.5,4.7548e-05,0.012116,0.043248
33127,2.7767e+07,0,0,0,0,0,0.24,0.92,0,0,0.5,3.4132e-05,0.011839,0.042227
33168,2.7778e+07,0,0,0,0,0,0.24,0.92,0,0,0.5,3.4132e-05,0.011839,0.042227
33212,2.7788e+07,0,0,0,0,0,0.24,0.92,0,0,0.5,2.5204e-05,0.011573,0.041231
33253,2.7798e+07,0,0,0,0,0,0.24,0.92,0,0,0.5,2.0711e-05,0.011318,0.0403
33295,2.7808e+07,0,0,0,0,0,0.24,0.92,0,0,0.5,2.7232e-05,0.011072,0.039391
33335,2.7818e+07,0,0,0,0,0,0.25,0.92,0,0,0.5,4.3013e-05,0.01387,0.050221
33377,2.7831e+07,0,0,0,0,0,0.24,0.92,0,0,0.5,0.00032608,0.013492,0.048846
33418,2.7841e+07,0,0,0,0,0,0.24,0.92,0,0,0.5,0.00032074,0.013128,0.047507
33461,2.7851e+07,0,0,0,0,0,0.24,0.92,0,0,0.5,0.0003165,0.012779,0.046236
33503,2.7861e+07,0,0,0,0,0,0.24,0.92,0,0,0.5,0.0003165,0.012779,0.046236
33543,2.7871e+07,0,0,0,0,0,0.24,0.92,0,0,0.5,0.00031386,0.012444,0.044967
33584,2.7881e+07,0,0,0,0,0,0.24,0.92,0,0,0.5,0.00031157,0.012123,0.043792
33628,2.7891e+07,0,0,0,0,0,0.24,0.92,0,0,0.5,0.00031049,0.011814,0.042618
33670,2.7901e+07,0,0,0,0,0,0.23,0.92,0,0,0.5,0.00031032,0.011518,0.041504
33710,2.7911e+07,0,0,0,0,0,0.23,0.92,0,0,0.5,0.00031132,0.011234,0.040446
33751,2.7922e+07,0,0,0,0,0,0.23,0.92,0,0,0.5,0.00031132,0.011234,0.040446
33792,2.7934e+07,0,0,0,0,0,0.25,0.92,0,0,0.5,0.00051452,0.016228,0.05983
33832,2.7944e+07,0,0,0,0,0,0.25,0.92,0,0,0.5,0.00049255,0.015707,0.057911
33874,2.7955e+07,0,0,0,0,0,0.25,0.92,0,0,0.5,0.00047052,0.015207,0.056067
33915,2.7965e+07,0,0,0,0,0,0.24,0.92,0,0,0.5,0.0004492,0.014728,0.054283
33956,2.7975e+07,0,0,0,0,0,0.24,0.92,0,0,0.5,0.00043279,0.014269,0.052553
34004,2.7988e+07,0,0,0,0,0,0.24,0.92,0,0,0.5,0.00041183,0.013829,0.050904
34044,2.7998e+07,0,0,0,0,0,0.24,0.92,0,0,0.5,0.00039131,0.013408,0.04934
34086,2.8009e+07,0,0,0,0,0,0.24,0.92,0,0,0.5,0.00037116,0.013005,0.047821
34126,2.8019e+07,0,0,0,0,0,0.24,0.92,0,0,0.5,0.00037116,0.013005,0.047821
34161,2.803e+07,0,0,0,0,0,0.28,0.92,0,0,0.5,0.00035163,0.023314,0.087975
34202,2.804e+07,0,0,0,0,0,0.28,0.92,0,0,0.5,0.00043179,0.022419,0.08466
34245,2.805e+07,0,0,0,0,0,0.27,0.92,0,0,0.5,0.00045797,0.02156,0.081429
34287,2.8061e+07,0,0,0,0,0,0.27,0.92,0,0,0.5,0.00048988,0.020738,0.078354
34328,2.8071e+07,0,0,0,0,0,0.27,0.92,0,0,0.5,0.00048988,0.020738,0.078354
34369,2.8081e+07,0,0,0,0,0,0.27,0.92,0,0,0.5,0.0005261,0.019955,0.075479
34414,2.8091e+07,0,0,0,0,0,0.27,0.92,0,0,0.5,0.00054881,0.019201,0.072622
34455,2.8101e+07,0,0,0,0,0,0.27,0.92,0,0,0.5,0.00057608,0.018482,0.069909
34496,2.8111e+07,0,0,0,0,0,0.26,0.92,0,0,0.5,0.0005968,0.017792,0.067284
34537,2.8122e+07,0,0,0,0,0,0.26,0.92,0,0,0.5,0.00062216,0.017134,0.064816
34577,2.8132e+07,0,0,0,0,0,0.26,0.92,0,0,0.5,0.00062216,0.017134,0.064816
34615,2.8143e+07,0,0,0,0,0,0.29,0.92,0,0,0.5,3.8083e-05,0.024616,0.094176
34655,2.8153e+07,0,0,0,0,0,0.29,0.92,0,0,0.5,2.2688e-05,0.023607,0.09042
34696,2.8163e+07,0,0,0,0,0,0.29,0.92,0,0,0.5,3.4235e-05,0.022642,0.086817
34738,2.8173e+07,0,0,0,0,0,0.29,0.92,0,0,0.5,6.0695e-05,0.02172,0.083362
34779,2.8183e+07,0,0,0,0,0,0.29,0.92,0,0,0.5,9.2275e-05,0.020839,0.080028
34823,2.8193e+07,0,0,0,0,0,0.29,0.92,0,0,0.5,9.2275e-05,0.020839,0.080028
34864,2.8203e+07,0,0,0,0,0,0.28,0.92,0,0,0.5,0.00012549,0.019998,0.076861
34905,2.8213e+07,0,0,0,0,0,0.28,0.92,0,0,0.5,0.00016098,0.019192,0.073792
34946,2.8223e+07,0,0,0,0,0,0.28,0.92,0,0,0.5,0.00018975,0.01842,0.0708
34989,2.8236e+07,0,0,0,0,0,0.28,0.92,0,0,0.5,0.00081985,0.019298,0.074355
35034,2.825e+07,0,0,0,0,0,0.28,0.92,0,0,0.5,0.00082158,0.018506,0.071374
35075,2.8259e+07,0,0,0,0,0,0.28,0.92,0,0,0.5,0.00082172,0.017749,0.068492
35116,2.827e+07,0,0,0,0,0,0.28,0.92,0,0,0.5,0.0008204,0.017025,0.065698
35158,2.828e+07,0,0,0,0,0,0.28,0.92,0,0,0.5,0.0008204,0.017025,0.065698
