LineNo,TimeUS,C,Q1,Q2,Q3,Q4
308,1.9491e+07,0,0.97723,0.0043725,0.0046953,0.21207
652,1.9556e+07,0,0.97719,0.0043849,0.0047151,0.21229
879,1.9602e+07,0,0.97714,0.0043786,0.0047218,0.21248
1221,1.9763e+07,0,0.97706,0.0043506,0.004733,0.21289
1497,1.9834e+07,0,0.97701,0.0043553,0.0047108,0.21312
1592,1.9856e+07,0,0.977,0.0043744,0.0047222,0.21316
1632,1.9866e+07,0,0.97699,0.0043855,0.0047226,0.21319
1674,1.9876e+07,0,0.97699,0.0043979,0.0047321,0.2132
1715,1.9886e+07,0,0.97698,0.0044,0.0047389,0.21322
1755,1.9899e+07,0,0.97698,0.0043851,0.0047402,0.21324
1796,1.9909e+07,0,0.97698,0.004385,0.0047382,0.21324
1836,1.992e+07,0,0.97697,0.0043853,0.0047325,0.21326
1878,1.993e+07,0,0.97697,0.0043816,0.0047249,0.21327
1918,1.994e+07,0,0.97697,0.0043661,0.0047242,0.21328
1959,1.995e+07,0,0.97697,0.0043646,0.0047193,0.21329
2004,1.996e+07,0,0.97697,0.0043634,0.0047057,0.2133
2047,1.9971e+07,0,0.97697,0.0043571,0.0047006,0.2133
2088,1.9981e+07,0,0.97696,0.0043561,0.0047088,0.21332
2128,1.9991e+07,0,0.97696,0.0043649,0.0047143,0.21332
2169,2.0002e+07,0,0.97696,0.0043775,0.0047137,0.21332
2210,2.0012e+07,0,0.97696,0.0043863,0.004716,0.21333
2251,2.0022e+07,0,0.97696,0.0043972,0.0047112,0.21335
2292,2.0032e+07,0,0.97695,0.0044088,0.0047007,0.21337
2332,2.0042e+07,0,0.97695,0.0044184,0.0046932,0.21338
2375,2.0052e+07,0,0.97694,0.004423,0.0046862,0.2134
2419,2.0062e+07,0,0.97694,0.0044181,0.0046842,0.21344
2460,2.0072e+07,0,0.97693,0.0044227,0.0046782,0.21346
2503,2.0082e+07,0,0.97692,0.0044179,0.0046724,0.21349
2543,2.0093e+07,0,0.97691,0.0044111,0.0046739,0.21354
2583,2.0103e+07,0,0.97691,0.0044101,0.0046792,0.21357
2621,2.0113e+07,0,0.9769,0.0044155,0.0046769,0.2136
2662,2.0123e+07,0,0.97689,0.0044076,0.0046858,0.21363
2703,2.0134e+07,0,0.97689,0.0044155,0.0046898,0.21367
2744,2.0144e+07,0,0.97688,0.0044176,0.0046976,0.2137
2785,2.0153e+07,0,0.97687,0.0044236,0.0047002,0.21374
2829,2.0164e+07,0,0.97686,0.0044282,0.0047079,0.21378
2871,2.0174e+07,0,0.97685,0.004437,0.0047104,0.21382
2912,2.0183e+07,0,0.97684,0.0044454,0.0047132,0.21386
2953,2.0193e+07,0,0.97683,0.0044506,0.0047112,0.21392
2994,2.0203e+07,0,0.97682,0.0044547,0.0047118,0.21396
3032,2.0214e+07,0,0.97681,0.0044592,0.0047108,0.214
3073,2.0224e+07,0,0.97681,0.0044645,0.0047063,0.21402
3113,2.0234e+07,0,0.9768,0.0044564,0.0047055,0.21405
3154,2.0244e+07,0,0.9768,0.004449,0.004707,0.21407
3197,2.0254e+07,0,0.97679,0.004455,0.0046962,0.2141
3242,2.0264e+07,0,0.97679,0.0044473,0.0046908,0.21412
3283,2.0274e+07,0,0.97678,0.0044467,0.0046882,0.21414
3324,2.0284e+07,0,0.97678,0.0044436,0.0046737,0.21416
3365,2.0294e+07,0,0.97677,0.0044342,0.0046664,0.21419
3405,2.0304e+07,0,0.97677,0.0044308,0.004666,0.21421
3447,2.0314e+07,0,0.97676,0.0044251,0.0046542,0.21423
3487,2.0324e+07,0,0.97676,0.0044243,0.0046549,0.21425
3528,2.0334e+07,0,0.97675,0.0044313,0.0046491,0.21428
3568,2.0344e+07,0,0.97674,0.0044275,0.0046502,0.21431
3610,2.0355e+07,0,0.97674,0.0044283,0.0046542,0.21435
3658,2.0365e+07,0,0.97673,0.0044265,0.0046591,0.21438
3698,2.0376e+07,0,0.97672,0.0044335,0.0046639,0.2144
3739,2.0386e+07,0,0.97672,0.0044386,0.0046737,0.21443
3783,2.0396e+07,0,0.97671,0.0044338,0.0046744,0.21446
3820,2.0406e+07,0,0.97671,0.0044274,0.0046715,0.21448
3858,2.0417e+07,0,0.9767,0.0044163,0.0046751,0.2145
3898,2.0427e+07,0,0.9767,0.0044118,0.0046669,0.21453
3939,2.0437e+07,0,0.97669,0.004408,0.0046606,0.21455
3980,2.0447e+07,0,0.97669,0.0043954,0.0046535,0.21457
4022,2.0458e+07,0,0.97668,0.0043959,0.0046372,0.2146
4068,2.0468e+07,0,0.97667,0.0043977,0.0046388,0.21463
4108,2.0478e+07,0,0.97667,0.0043967,0.0046361,0.21466
4150,2.0488e+07,0,0.97666,0.0044053,0.0046416,0.21469
4191,2.0499e+07,0,0.97666,0.0044023,0.0046448,0.21471
4228,2.0509e+07,0,0.97665,0.0044122,0.0046461,0.21473
4270,2.0518e+07,0,0.97665,0.0044222,0.0046457,0.21474
4310,2.0529e+07,0,0.97665,0.0044302,0.0046386,0.21475
4351,2.0539e+07,0,0.97664,0.0044421,0.0046288,0.21477
4391,2.0549e+07,0,0.97664,0.0044441,0.0046053,0.21479
4432,2.0559e+07,0,0.97664,0.0044545,0.0046025,0.21481
4479,2.057e+07,0,0.97663,0.0044578,0.0045937,0.21484
4519,2.058e+07,0,0.97662,0.0044515,0.0045817,0.21486
4561,2.059e+07,0,0.97662,0.0044506,0.0045805,0.21487
4604,2.0602e+07,0,0.97662,0.0044472,0.0045804,0.2149
4648,2.0615e+07,0,0.97661,0.0044409,0.0045846,0.21493
4689,2.0625e+07,0,0.97661,0.0044406,0.0045967,0.21492
4729,2.0635e+07,0,0.97661,0.0044421,0.0045955,0.21491
4772,2.0645e+07,0,0.97661,0.0044485,0.0045935,0.21491
4813,2.0655e+07,0,0.97661,0.0044581,0.004596,0.21491
4854,2.0665e+07,0,0.97661,0.0044694,0.0045984,0.21491
4899,2.0676e+07,0,0.97661,0.0044824,0.0046012,0.21491
4940,2.0686e+07,0,0.97661,0.0044925,0.0046105,0.21492
4981,2.0696e+07,0,0.97661,0.004508,0.0046163,0.21493
5022,2.0706e+07,0,0.97661,0.0045174,0.0046226,0.21493
5063,2.0719e+07,0,0.9766,0.0045274,0.0046283,0.21496
5103,2.0729e+07,0,0.9766,0.0045173,0.0046247,0.21497
5145,2.0739e+07,0,0.97659,0.0045052,0.0046177,0.21499
5186,2.0749e+07,0,0.97659,0.0045013,0.0046127,0.21501
5226,2.0759e+07,0,0.97658,0.0044905,0.0046046,0.21504
5271,2.0769e+07,0,0.97658,0.0044812,0.0045982,0.21507
5312,2.078e+07,0,0.97657,0.0044701,0.0045943,0.21509
5356,2.079e+07,0,0.97657,0.0044621,0.0045799,0.21512
5397,2.08e+07,0,0.97656,0.0044609,0.0045842,0.21515
5439,2.081e+07,0,0.97655,0.0044602,0.0045874,0.21518
5477,2.0822e+07,0,0.97654,0.0044664,0.0045822,0.21524
5518,2.0832e+07,0,0.97653,0.0044748,0.0045907,0.21529
5562,2.0842e+07,0,0.97652,0.0044885,0.0046003,0.21534
5603,2.0853e+07,0,0.97651,0.0044974,0.0046118,0.21539
5643,2.0863e+07,0,0.9765,0.0045073,0.0046232,0.21544
5688,2.0873e+07,0,0.97648,0.0045123,0.0046273,0.2155
5728,2.0883e+07,0,0.97647,0.0045139,0.0046366,0.21556
5771,2.0893e+07,0,0.97646,0.0045228,0.0046332,0.21562
5811,2.0903e+07,0,0.97644,0.0045146,0.0046262,0.21568
5849,2.0914e+07,0,0.97643,0.0045102,0.0046142,0.21574
5888,2.0924e+07,0,0.97642,0.0044995,0.004614,0.21578
5928,2.0934e+07,0,0.97641,0.0044829,0.0046106,0.21584
5970,2.0944e+07,0,0.9764,0.0044731,0.0046098,0.21589
6011,2.0954e+07,0,0.97639,0.0044552,0.0046032,0.21593
6051,2.0964e+07,0,0.97638,0.0044531,0.0045965,0.21597
6096,2.0974e+07,0,0.97637,0.0044532,0.0045923,0.21602
6136,2.0984e+07,0,0.97636,0.0044648,0.0045889,0.21607
6178,2.0994e+07,0,0.97635,0.0044828,0.004584,0.21611
6219,2.1004e+07,0,0.97634,0.004495,0.0045996,0.21615
6259,2.1014e+07,0,0.97633,0.004521,0.00461,0.2162
6297,2.1024e+07,0,0.97632,0.0045362,0.0046138,0.21624
6338,2.1034e+07,0,0.97631,0.0045628,0.0046154,0.21629
6382,2.1044e+07,0,0.9763,0.0045748,0.0046056,0.21635
6422,2.1054e+07,0,0.97628,0.0045683,0.004593,0.2164
6466,2.1067e+07,0,0.97627,0.004549,0.0045538,0.21646
6510,2.1077e+07,0,0.97626,0.0045312,0.0045342,0.21651
6551,2.1087e+07,0,0.97625,0.0045099,0.0045204,0.21657
6593,2.1097e+07,0,0.97624,0.004487,0.0045196,0.21661
6633,2.111e+07,0,0.97623,0.0044667,0.0045278,0.21666
6671,2.112e+07,0,0.97622,0.0044488,0.0045398,0.21671
6711,2.113e+07,0,0.9762,0.0044426,0.004556,0.21676
6754,2.114e+07,0,0.9762,0.0044483,0.0045663,0.2168
6794,2.115e+07,0,0.97618,0.0044453,0.0045787,0.21685
6835,2.116e+07,0,0.97617,0.0044603,0.0045864,0.2169
6876,2.117e+07,0,0.97616,0.0044945,0.0046024,0.21694
6921,2.118e+07,0,0.97615,0.0045316,0.004604,0.21698
6962,2.119e+07,0,0.97614,0.0045575,0.0045958,0.21703
7002,2.1201e+07,0,0.97614,0.0045719,0.0045963,0.21706
7043,2.1214e+07,0,0.97613,0.0046036,0.0045956,0.21711
7083,2.1224e+07,0,0.97612,0.0046259,0.0045977,0.21715
7124,2.1234e+07,0,0.97611,0.0046153,0.0045901,0.21718
7167,2.1244e+07,0,0.9761,0.0045973,0.0045901,0.21721
7209,2.1254e+07,0,0.97609,0.0045861,0.004594,0.21726
7250,2.1264e+07,0,0.97609,0.0045656,0.0045985,0.21729
7294,2.1274e+07,0,0.97608,0.0045526,0.0046141,0.21733
7336,2.1284e+07,0,0.97607,0.0045294,0.0046176,0.21736
7377,2.1294e+07,0,0.97606,0.0045196,0.0046094,0.21741
7419,2.1304e+07,0,0.97605,0.0045119,0.004601,0.21745
7463,2.132e+07,0,0.97604,0.0045246,0.0045934,0.2175
7504,2.133e+07,0,0.97604,0.0045359,0.0045838,0.21751
7545,2.134e+07,0,0.97603,0.0045535,0.0045743,0.21753
7587,2.135e+07,0,0.97603,0.004554,0.0045654,0.21755
7627,2.136e+07,0,0.97602,0.0045653,0.0045592,0.21757
7668,2.137e+07,0,0.97602,0.004573,0.0045691,0.21758
7714,2.138e+07,0,0.97602,0.0045655,0.0045816,0.2176
7755,2.139e+07,0,0.97601,0.0045504,0.0045922,0.21762
7797,2.14e+07,0,0.97601,0.0045356,0.0045986,0.21764
7840,2.1412e+07,0,0.976,0.0045264,0.0045954,0.21768
7881,2.1425e+07,0,0.97599,0.0045061,0.0045792,0.21771
7921,2.1435e+07,0,0.97599,0.0044875,0.0045752,0.2177
7962,2.1445e+07,0,0.976,0.0044771,0.0045705,0.2177
8007,2.1455e+07,0,0.976,0.0044805,0.0045743,0.21769
8047,2.1466e+07,0,0.976,0.0044849,0.0045749,0.21769
8092,2.1476e+07,0,0.976,0.0045026,0.0045796,0.21768
8132,2.1486e+07,0,0.976,0.0045121,0.0045806,0.21766
8174,2.1496e+07,0,0.976,0.0045122,0.0045901,0.21765
8215,2.1506e+07,0,0.97601,0.0045166,0.0046035,0.21763
8255,2.1516e+07,0,0.97601,0.0045318,0.0046188,0.21761
8290,2.1527e+07,0,0.97602,0.0045639,0.0046386,0.21756
8331,2.1537e+07,0,0.97603,0.0045887,0.0046463,0.21752
8371,2.1547e+07,0,0.97605,0.0046086,0.0046438,0.21746
8412,2.1557e+07,0,0.97605,0.0046218,0.0046176,0.21743
8453,2.1567e+07,0,0.97606,0.0046211,0.0046044,0.21739
8503,2.158e+07,0,0.97607,0.0046236,0.0045902,0.21737
8544,2.159e+07,0,0.97607,0.0046059,0.0045876,0.21736
8585,2.16e+07,0,0.97607,0.0045895,0.0045701,0.21735
8626,2.161e+07,0,0.97607,0.0045684,0.0045666,0.21735
8663,2.162e+07,0,0.97607,0.0045386,0.0045628,0.21734
8704,2.1632e+07,0,0.97608,0.0045101,0.0045624,0.21732
8746,2.1642e+07,0,0.97608,0.0045021,0.0045738,0.21732
8787,2.1653e+07,0,0.97608,0.0045074,0.004585,0.21731
8829,2.1663e+07,0,0.97608,0.0045223,0.0045946,0.21729
8870,2.1673e+07,0,0.97609,0.0045344,0.0045948,0.21727
8915,2.1683e+07,0,0.97609,0.0045421,0.0045981,0.21726
8955,2.1693e+07,0,0.9761,0.004553,0.0045925,0.21724
8996,2.1703e+07,0,0.9761,0.0045729,0.0045868,0.21723
9036,2.1714e+07,0,0.9761,0.0045811,0.0045827,0.21723
9077,2.1724e+07,0,0.9761,0.0045991,0.0045972,0.21724
9115,2.1734e+07,0,0.9761,0.0046043,0.0046075,0.21724
9155,2.1744e+07,0,0.9761,0.0045892,0.0046224,0.21723
9196,2.1754e+07,0,0.9761,0.0045704,0.0046312,0.21724
9236,2.1764e+07,0,0.97609,0.0045575,0.004635,0.21727
9277,2.1774e+07,0,0.97609,0.0045497,0.0046446,0.21729
9321,2.1784e+07,0,0.97608,0.0045357,0.0046356,0.2173
9363,2.1794e+07,0,0.97608,0.0045254,0.0046211,0.21733
9406,2.1804e+07,0,0.97607,0.0045219,0.004606,0.21735
9446,2.1814e+07,0,0.97607,0.0045214,0.0045911,0.21738
9485,2.1824e+07,0,0.97606,0.0045253,0.0045746,0.21739
9530,2.1874e+07,0,0.97606,0.0046012,0.0045847,0.21742
9575,2.1884e+07,0,0.97606,0.0046001,0.0045952,0.21741
9616,2.1894e+07,0,0.97606,0.0046142,0.0046114,0.21742
9657,2.1904e+07,0,0.97606,0.0046204,0.0046142,0.21743
9697,2.1914e+07,0,0.97605,0.0046152,0.0046087,0.21745
9731,2.1924e+07,0,0.97604,0.0045988,0.0045957,0.21747
9772,2.1934e+07,0,0.97604,0.0045827,0.0045859,0.21749
9813,2.1944e+07,0,0.97604,0.0045609,0.0045754,0.21749
9854,2.1954e+07,0,0.97604,0.0045483,0.0045755,0.2175
9895,2.1964e+07,0,0.97604,0.0045271,0.0045732,0.2175
9936,2.1974e+07,0,0.97604,0.0045224,0.0045754,0.21749
9981,2.1984e+07,0,0.97604,0.0045131,0.0045817,0.21749
10022,2.1994e+07,0,0.97604,0.004516,0.0045938,0.21748
10063,2.2004e+07,0,0.97605,0.0045195,0.0046072,0.21746
10103,2.2014e+07,0,0.97605,0.0045267,0.0046077,0.21745
10141,2.2024e+07,0,0.97605,0.0045438,0.0046135,0.21746
10181,2.2034e+07,0,0.97605,0.0045623,0.0046079,0.21745
10224,2.2044e+07,0,0.97605,0.0045795,0.004599,0.21744
10264,2.2054e+07,0,0.97606,0.0045877,0.004587,0.21743
10306,2.2064e+07,0,0.97606,0.0045859,0.004582,0.21742
10346,2.2074e+07,0,0.97606,0.0045878,0.004574,0.21741
10392,2.2084e+07,0,0.97606,0.0045819,0.0045813,0.21741
10432,2.2094e+07,0,0.97606,0.0045824,0.0045827,0.21741
10474,2.2104e+07,0,0.97606,0.0045768,0.0045831,0.21741
10515,2.2114e+07,0,0.97606,0.0045661,0.0045862,0.21741
10552,2.2124e+07,0,0.97606,0.0045498,0.004589,0.21741
10593,2.2134e+07,0,0.97606,0.0045446,0.0045883,0.21742
10633,2.2144e+07,0,0.97605,0.0045389,0.004587,0.21743
10675,2.2155e+07,0,0.97605,0.0045429,0.0045847,0.21746
10715,2.2166e+07,0,0.97604,0.0045515,0.0045803,0.21749
10757,2.2177e+07,0,0.97604,0.0045446,0.004579,0.21752
10802,2.2186e+07,0,0.97603,0.0045405,0.0045768,0.21755
10842,2.2196e+07,0,0.97602,0.0045369,0.0045793,0.21758
10883,2.2206e+07,0,0.97601,0.0045364,0.0045881,0.21761
10929,2.2222e+07,0,0.976,0.0045533,0.0045947,0.21767
10971,2.2232e+07,0,0.97599,0.0045591,0.0046054,0.21771
11011,2.2242e+07,0,0.97599,0.0045505,0.0046062,0.21773
11054,2.2253e+07,0,0.97598,0.0045407,0.0046105,0.21776
11094,2.2263e+07,0,0.97597,0.004529,0.0046171,0.21779
11136,2.2273e+07,0,0.97597,0.004532,0.0046134,0.21782
11182,2.2283e+07,0,0.97596,0.0045254,0.004605,0.21785
11222,2.2294e+07,0,0.97596,0.0045285,0.0045934,0.21787
11265,2.2304e+07,0,0.97595,0.0045309,0.0045976,0.21789
11305,2.2314e+07,0,0.97595,0.0045313,0.0045863,0.21791
11347,2.2324e+07,0,0.97594,0.0045253,0.0045797,0.21794
11384,2.2334e+07,0,0.97594,0.0045156,0.0045745,0.21794
11425,2.2344e+07,0,0.97594,0.0045197,0.0045783,0.21793
11466,2.2354e+07,0,0.97595,0.0045221,0.0045804,0.21792
11506,2.2364e+07,0,0.97595,0.0045161,0.0045893,0.21791
11548,2.2374e+07,0,0.97595,0.0045175,0.0045907,0.2179
11593,2.2385e+07,0,0.97595,0.0045147,0.0045915,0.21789
11636,2.2395e+07,0,0.97595,0.0045194,0.0045969,0.21789
11677,2.2405e+07,0,0.97596,0.0045221,0.004597,0.21788
11717,2.2416e+07,0,0.97596,0.0045274,0.0045932,0.21788
11758,2.2426e+07,0,0.97596,0.004536,0.0045875,0.21787
11795,2.2436e+07,0,0.97596,0.0045271,0.0045858,0.21786
11837,2.2447e+07,0,0.97596,0.0045214,0.0045848,0.21787
11879,2.2457e+07,0,0.97595,0.0045223,0.0045826,0.21788
11920,2.2467e+07,0,0.97595,0.0045263,0.0045867,0.21789
11962,2.2477e+07,0,0.97595,0.0045249,0.004579,0.21791
12007,2.2487e+07,0,0.97595,0.0045217,0.0045776,0.21792
12048,2.2497e+07,0,0.97594,0.0045221,0.0045799,0.21794
12088,2.2507e+07,0,0.97594,0.0045243,0.0045908,0.21796
12132,2.252e+07,0,0.97593,0.0045207,0.0045859,0.21798
12174,2.2531e+07,0,0.97592,0.0045315,0.0045803,0.21801
12214,2.2542e+07,0,0.97593,0.004548,0.0045809,0.21801
12252,2.2552e+07,0,0.97593,0.0045578,0.004574,0.21801
12292,2.2562e+07,0,0.97593,0.0045525,0.0045676,0.218
12333,2.2572e+07,0,0.97593,0.0045509,0.0045629,0.218
12375,2.2583e+07,0,0.97593,0.0045442,0.0045613,0.218
12422,2.2593e+07,0,0.97593,0.0045416,0.0045608,0.21801
12462,2.2603e+07,0,0.97592,0.0045477,0.0045667,0.21802
12503,2.2613e+07,0,0.97592,0.004548,0.004568,0.21803
12544,2.2623e+07,0,0.97592,0.0045419,0.0045774,0.21804
12581,2.2633e+07,0,0.97592,0.0045402,0.0045759,0.21805
12621,2.2643e+07,0,0.97592,0.0045358,0.0045787,0.21804
12662,2.2654e+07,0,0.97592,0.0045456,0.0045917,0.21805
12703,2.2664e+07,0,0.97592,0.0045455,0.004585,0.21805
12743,2.2674e+07,0,0.97591,0.0045517,0.0045789,0.21808
12786,2.2684e+07,0,0.97591,0.0045529,0.0045682,0.21808
12831,2.2694e+07,0,0.97591,0.0045481,0.0045621,0.21809
12871,2.2704e+07,0,0.9759,0.0045449,0.0045709,0.21811
12912,2.2714e+07,0,0.9759,0.0045456,0.0045645,0.21813
12952,2.2724e+07,0,0.9759,0.0045435,0.0045741,0.21814
12990,2.2737e+07,0,0.97589,0.004546,0.0045776,0.21816
13030,2.2747e+07,0,0.97589,0.0045422,0.0045921,0.21817
13072,2.2757e+07,0,0.97589,0.0045427,0.0046002,0.21818
13113,2.2767e+07,0,0.97588,0.0045442,0.004599,0.2182
13153,2.2777e+07,0,0.97588,0.0045508,0.0045996,0.21821
13194,2.2787e+07,0,0.97587,0.0045511,0.0045909,0.21824
13241,2.2798e+07,0,0.97587,0.004559,0.0045783,0.21828
13282,2.2808e+07,0,0.97586,0.0045594,0.0045765,0.2183
13323,2.2818e+07,0,0.97585,0.0045583,0.0045717,0.21834
13363,2.2828e+07,0,0.97585,0.004552,0.0045753,0.21837
13404,2.2839e+07,0,0.97584,0.0045466,0.0045791,0.21839
13444,2.2849e+07,0,0.97583,0.0045316,0.0045848,0.21843
13486,2.2859e+07,0,0.97582,0.0045251,0.0045795,0.21846
13527,2.2869e+07,0,0.97582,0.004516,0.0045688,0.21849
13567,2.2879e+07,0,0.97581,0.0044957,0.0045558,0.21851
13609,2.289e+07,0,0.97581,0.0044765,0.0045416,0.21853
13653,2.29e+07,0,0.9758,0.0044596,0.0045279,0.21856
13695,2.291e+07,0,0.9758,0.0044534,0.0045265,0.21858
13735,2.292e+07,0,0.97579,0.0044497,0.0045358,0.21859
13776,2.293e+07,0,0.97579,0.0044602,0.0045444,0.21862
13814,2.294e+07,0,0.97579,0.0044741,0.0045559,0.21863
13854,2.2951e+07,0,0.97579,0.0044878,0.0045672,0.21862
13895,2.2961e+07,0,0.97579,0.0045072,0.0045804,0.21861
13937,2.2971e+07,0,0.97579,0.0045442,0.0045853,0.21861
13978,2.2981e+07,0,0.97579,0.0045666,0.00459,0.21862
14019,2.2991e+07,0,0.97579,0.0045947,0.004588,0.21863
14063,2.3001e+07,0,0.97579,0.0046033,0.0045875,0.21864
14105,2.3011e+07,0,0.97578,0.0046005,0.0045886,0.21865
14145,2.3021e+07,0,0.97578,0.0045864,0.0045805,0.21865
14190,2.3034e+07,0,0.97578,0.0045649,0.0045749,0.21866
14232,2.3044e+07,0,0.97578,0.0045423,0.004582,0.21867
14270,2.3054e+07,0,0.97578,0.0045033,0.0045762,0.21865
14312,2.3064e+07,0,0.97579,0.0044644,0.0045688,0.21864
14352,2.3074e+07,0,0.97579,0.004437,0.0045667,0.21862
14393,2.3084e+07,0,0.97579,0.0044366,0.0045787,0.2186
14433,2.3094e+07,0,0.9758,0.0044507,0.004574,0.21859
14479,2.3105e+07,0,0.9758,0.0044436,0.0045667,0.21859
14520,2.3115e+07,0,0.9758,0.0044525,0.0045569,0.21858
14561,2.3125e+07,0,0.9758,0.0044837,0.0045531,0.21857
14602,2.3135e+07,0,0.9758,0.0045194,0.0045574,0.21858
14642,2.3148e+07,0,0.9758,0.0045629,0.0045519,0.21859
14683,2.3159e+07,0,0.9758,0.0045958,0.0045557,0.21858
14723,2.3169e+07,0,0.9758,0.0046218,0.0045483,0.21858
14764,2.3179e+07,0,0.9758,0.0046358,0.0045468,0.21857
14805,2.3189e+07,0,0.9758,0.0046252,0.0045451,0.21857
14850,2.3199e+07,0,0.9758,0.0045977,0.0045429,0.21855
14892,2.321e+07,0,0.97581,0.0045574,0.0045374,0.21854
14932,2.322e+07,0,0.97581,0.004504,0.0045329,0.21853
14973,2.323e+07,0,0.97581,0.0044511,0.0045195,0.21853
15013,2.324e+07,0,0.97581,0.004416,0.0045155,0.21853
15054,2.325e+07,0,0.97581,0.0044097,0.0045224,0.21855
15092,2.326e+07,0,0.97581,0.0044189,0.0045385,0.21855
15132,2.327e+07,0,0.97581,0.0044438,0.0045493,0.21853
15173,2.3281e+07,0,0.97581,0.0044964,0.0045599,0.21852
15215,2.3291e+07,0,0.97581,0.0045361,0.0045793,0.21852
15261,2.3302e+07,0,0.97581,0.0045806,0.0046013,0.2185
15301,2.3312e+07,0,0.97582,0.0046273,0.0046147,0.2185
15343,2.3322e+07,0,0.97582,0.0046538,0.004628,0.21849
15386,2.3334e+07,0,0.97582,0.0046609,0.0046458,0.21848
15427,2.3344e+07,0,0.97582,0.0046581,0.0046537,0.21847
15469,2.3355e+07,0,0.97582,0.0046334,0.0046444,0.21846
15506,2.3366e+07,0,0.97583,0.0045843,0.0046326,0.21843
15547,2.3376e+07,0,0.97584,0.0045289,0.00461,0.2184
15589,2.3386e+07,0,0.97584,0.0044755,0.0045832,0.21837
15629,2.3396e+07,0,0.97585,0.0044361,0.0045613,0.21834
15676,2.3406e+07,0,0.97586,0.0044119,0.0045497,0.21832
15716,2.3416e+07,0,0.97586,0.0043979,0.0045262,0.2183
15758,2.3427e+07,0,0.97586,0.0044049,0.0045139,0.2183
15800,2.3437e+07,0,0.97586,0.0044168,0.0045109,0.21829
15844,2.345e+07,0,0.97586,0.0044459,0.0045274,0.21829
15885,2.346e+07,0,0.97587,0.0044853,0.0045412,0.21827
15926,2.3471e+07,0,0.97587,0.0045248,0.0045593,0.21827
15967,2.3481e+07,0,0.97587,0.004554,0.0045825,0.21827
16007,2.3491e+07,0,0.97587,0.0045703,0.0045946,0.21827
16048,2.3501e+07,0,0.97587,0.0045787,0.0046005,0.21826
16093,2.3511e+07,0,0.97587,0.0045572,0.0045942,0.21825
16134,2.3521e+07,0,0.97587,0.0045345,0.0045985,0.21824
16175,2.3531e+07,0,0.97587,0.0045074,0.0045885,0.21824
16215,2.3541e+07,0,0.97588,0.0044544,0.0045763,0.21823
16260,2.3557e+07,0,0.97588,0.0043822,0.0045665,0.21822
16301,2.3567e+07,0,0.97589,0.0043477,0.0045803,0.21819
16343,2.3578e+07,0,0.97589,0.0043367,0.0045836,0.21815
16383,2.3588e+07,0,0.9759,0.0043357,0.0046043,0.21814
16424,2.3599e+07,0,0.9759,0.0043603,0.0046209,0.21812
16470,2.3609e+07,0,0.9759,0.0043935,0.0046272,0.21811
16511,2.3619e+07,0,0.9759,0.0044459,0.004632,0.2181
16553,2.3629e+07,0,0.9759,0.004494,0.0046318,0.21811
16596,2.364e+07,0,0.9759,0.0045482,0.0046287,0.21812
16636,2.3655e+07,0,0.9759,0.0046021,0.0046147,0.21814
16677,2.3665e+07,0,0.9759,0.0046166,0.0045896,0.21813
16719,2.3675e+07,0,0.9759,0.0046222,0.0045776,0.21813
16759,2.3686e+07,0,0.9759,0.0046026,0.0045685,0.21812
16800,2.3696e+07,0,0.9759,0.0045724,0.0045622,0.21812
16840,2.3705e+07,0,0.97591,0.0045321,0.0045625,0.21809
16886,2.3715e+07,0,0.97591,0.0044854,0.004569,0.21809
16926,2.3726e+07,0,0.97591,0.0044493,0.0045784,0.21808
16967,2.3737e+07,0,0.97591,0.0044278,0.0045788,0.21807
17008,2.3746e+07,0,0.97592,0.0044252,0.0045921,0.21806
17042,2.3757e+07,0,0.97592,0.0044325,0.0045954,0.21806
17082,2.3767e+07,0,0.97592,0.0044591,0.0046136,0.21804
17123,2.3777e+07,0,0.97592,0.0044973,0.0046155,0.21805
17167,2.3787e+07,0,0.97591,0.0045374,0.0046159,0.21806
17207,2.3798e+07,0,0.97591,0.0045756,0.0046159,0.21806
17248,2.3808e+07,0,0.97591,0.004613,0.0046186,0.21807
17293,2.3817e+07,0,0.97591,0.0046409,0.0046272,0.21808
17334,2.3828e+07,0,0.97591,0.0046294,0.0046404,0.21809
17375,2.3838e+07,0,0.97591,0.0046081,0.0046399,0.21809
17417,2.3848e+07,0,0.97591,0.0045887,0.0046464,0.21809
17459,2.3858e+07,0,0.9759,0.0045658,0.0046443,0.2181
17499,2.3868e+07,0,0.9759,0.0045191,0.0046555,0.2181
17541,2.3878e+07,0,0.97591,0.004468,0.0046519,0.21809
17582,2.3888e+07,0,0.97591,0.0044372,0.0046569,0.21808
17623,2.3898e+07,0,0.97591,0.0044186,0.004649,0.21807
17664,2.3909e+07,0,0.97591,0.0044115,0.0046336,0.21807
17708,2.3919e+07,0,0.97591,0.0044301,0.0046153,0.21807
17749,2.3929e+07,0,0.97591,0.0044737,0.0046103,0.21807
17790,2.3938e+07,0,0.97591,0.0045158,0.0045943,0.21807
17838,2.3954e+07,0,0.97591,0.0045687,0.0045908,0.21808
17878,2.3964e+07,0,0.97591,0.0045951,0.0046122,0.21808
17920,2.3975e+07,0,0.97591,0.0046112,0.0046233,0.21807
17961,2.3985e+07,0,0.97591,0.0046039,0.0046386,0.21805
18002,2.3995e+07,0,0.97592,0.0045895,0.004653,0.21805
18043,2.4006e+07,0,0.97592,0.0045661,0.0046511,0.21805
18087,2.4016e+07,0,0.97591,0.0045302,0.004646,0.21806
18129,2.4027e+07,0,0.97591,0.0044793,0.0046222,0.21807
18169,2.4037e+07,0,0.97591,0.0044405,0.0045945,0.21809
18212,2.4047e+07,0,0.97591,0.0044093,0.0045703,0.2181
18252,2.4057e+07,0,0.9759,0.0043868,0.0045478,0.21812
18292,2.4068e+07,0,0.9759,0.0043782,0.0045398,0.21813
18333,2.4078e+07,0,0.9759,0.0043821,0.004534,0.21811
18374,2.4088e+07,0,0.97591,0.0044107,0.0045601,0.2181
18415,2.4098e+07,0,0.97591,0.0044451,0.0045765,0.21808
18456,2.4108e+07,0,0.97592,0.004487,0.004617,0.21805
18503,2.412e+07,0,0.97592,0.0045522,0.0046482,0.21803
18544,2.4131e+07,0,0.97593,0.0045842,0.0046657,0.21801
18585,2.4141e+07,0,0.97593,0.0046018,0.0046647,0.21798
18626,2.4151e+07,0,0.97593,0.0046233,0.0046633,0.21797
18667,2.4161e+07,0,0.97594,0.0046108,0.0046305,0.21796
18704,2.4174e+07,0,0.97594,0.0045687,0.004581,0.21793
18745,2.4184e+07,0,0.97595,0.004519,0.004557,0.21791
18787,2.4194e+07,0,0.97595,0.0044746,0.0045463,0.21788
18827,2.4205e+07,0,0.97596,0.0044205,0.0045481,0.21787
18869,2.4215e+07,0,0.97596,0.0043705,0.0045451,0.21785
18913,2.4225e+07,0,0.97596,0.0043358,0.0045519,0.21784
18954,2.4236e+07,0,0.97597,0.0043178,0.0045691,0.21783
18995,2.4246e+07,0,0.97597,0.0043216,0.0045832,0.21783
19037,2.4258e+07,0,0.97597,0.0043493,0.0045999,0.21783
19076,2.4268e+07,0,0.97597,0.0043951,0.0046049,0.21783
19118,2.4279e+07,0,0.97597,0.0044446,0.0046082,0.21782
19160,2.4289e+07,0,0.97597,0.004496,0.0045882,0.21781
19201,2.4299e+07,0,0.97597,0.0045371,0.0045886,0.21781
19241,2.4309e+07,0,0.97597,0.0045767,0.0045901,0.21781
19282,2.4319e+07,0,0.97597,0.0045822,0.0045923,0.2178
19326,2.4329e+07,0,0.97597,0.0045612,0.0045947,0.2178
19368,2.434e+07,0,0.97597,0.0045227,0.0046042,0.21779
19408,2.435e+07,0,0.97597,0.0044852,0.0046028,0.21779
19449,2.436e+07,0,0.97598,0.0044399,0.0046094,0.21778
19490,2.4373e+07,0,0.97598,0.0043781,0.0045944,0.21777
19531,2.4382e+07,0,0.97599,0.0043476,0.0045931,0.21773
19574,2.4393e+07,0,0.97599,0.0043294,0.0045886,0.21771
19614,2.4402e+07,0,0.976,0.0043237,0.0045746,0.21767
19656,2.4413e+07,0,0.97601,0.0043416,0.0045513,0.21765
19701,2.4423e+07,0,0.97601,0.0043741,0.0045421,0.21763
19742,2.4434e+07,0,0.97601,0.0044284,0.0045456,0.21761
19783,2.4444e+07,0,0.97602,0.0044744,0.0045543,0.21759
19826,2.4454e+07,0,0.97602,0.0045134,0.0045785,0.21758
19867,2.4464e+07,0,0.97602,0.0045445,0.0046037,0.21758
19904,2.4474e+07,0,0.97602,0.0045583,0.0046247,0.21758
19945,2.4484e+07,0,0.97602,0.0045643,0.0046372,0.21758
19986,2.4494e+07,0,0.97602,0.004559,0.0046352,0.21759
20026,2.4504e+07,0,0.97602,0.0045314,0.0046365,0.21759
20067,2.4515e+07,0,0.97602,0.0044914,0.0046246,0.2176
20113,2.4525e+07,0,0.97601,0.0044439,0.0046122,0.21761
20154,2.4536e+07,0,0.97601,0.0044188,0.0046063,0.21763
20194,2.4546e+07,0,0.97601,0.0043899,0.0045892,0.21764
20235,2.4556e+07,0,0.976,0.004366,0.0045805,0.21766
20276,2.4566e+07,0,0.976,0.0043573,0.0045816,0.21768
20315,2.4577e+07,0,0.976,0.004364,0.0045829,0.21768
20355,2.4587e+07,0,0.976,0.0043869,0.0045984,0.21767
20396,2.4597e+07,0,0.976,0.0044014,0.0046093,0.21766
20436,2.4607e+07,0,0.976,0.0044295,0.0046131,0.21766
20478,2.4617e+07,0,0.976,0.0044689,0.0046149,0.21767
20525,2.4627e+07,0,0.976,0.0044987,0.0046094,0.21767
20567,2.4637e+07,0,0.976,0.0045243,0.0046026,0.21767
20608,2.4647e+07,0,0.976,0.0045351,0.0045985,0.21766
20648,2.4657e+07,0,0.976,0.0045321,0.0045787,0.21767
20689,2.4667e+07,0,0.97601,0.0045147,0.0045593,0.21765
20729,2.4678e+07,0,0.97601,0.0044872,0.0045439,0.21762
20770,2.4688e+07,0,0.97602,0.0044658,0.0045353,0.21759
20811,2.4698e+07,0,0.97603,0.0044341,0.0045342,0.21754
20852,2.4708e+07,0,0.97604,0.0044182,0.0045366,0.21749
20893,2.4718e+07,0,0.97605,0.0044028,0.0045419,0.21745
20937,2.4728e+07,0,0.97605,0.0044061,0.0045348,0.21743
20980,2.4739e+07,0,0.97606,0.0044032,0.0045311,0.2174
21020,2.4749e+07,0,0.97606,0.0044129,0.0045356,0.21739
21061,2.4759e+07,0,0.97606,0.0044322,0.0045429,0.21739
21103,2.4769e+07,0,0.97607,0.0044468,0.0045437,0.21738
21144,2.478e+07,0,0.97607,0.0044608,0.0045614,0.21737
21186,2.479e+07,0,0.97607,0.0044614,0.0045641,0.21737
21226,2.48e+07,0,0.97607,0.0044809,0.004565,0.21736
21267,2.4811e+07,0,0.97607,0.0044779,0.0045712,0.21737
21308,2.4821e+07,0,0.97607,0.0044603,0.0045765,0.21735
21355,2.4831e+07,0,0.97607,0.0044356,0.0045776,0.21735
21397,2.4842e+07,0,0.97608,0.0044082,0.0045702,0.21733
21438,2.4852e+07,0,0.97608,0.0043845,0.0045615,0.21732
21480,2.4862e+07,0,0.97608,0.0043766,0.004556,0.21731
21520,2.4872e+07,0,0.97609,0.0043686,0.0045417,0.21729
21561,2.4883e+07,0,0.97609,0.004366,0.0045366,0.21727
21601,2.4894e+07,0,0.9761,0.0043709,0.004533,0.21725
21642,2.4904e+07,0,0.9761,0.0043761,0.004527,0.21724
21682,2.4914e+07,0,0.9761,0.0043895,0.0045185,0.21723
21724,2.4924e+07,0,0.9761,0.004405,0.0045154,0.21724
21771,2.4934e+07,0,0.9761,0.0044261,0.0045134,0.21724
21811,2.4944e+07,0,0.97609,0.0044358,0.0045126,0.21726
21852,2.4954e+07,0,0.97609,0.0044424,0.0045247,0.21727
21893,2.4964e+07,0,0.97609,0.0044416,0.0045287,0.21729
21937,2.4977e+07,0,0.97608,0.0044444,0.0045316,0.2173
21977,2.4987e+07,0,0.97609,0.004443,0.0045185,0.21729
22018,2.4997e+07,0,0.97609,0.0044381,0.0045155,0.21728
22058,2.5008e+07,0,0.9761,0.0044236,0.0045051,0.21725
22100,2.5018e+07,0,0.9761,0.0044158,0.0045058,0.21723
22141,2.5028e+07,0,0.9761,0.0043935,0.0044937,0.21722
22186,2.5038e+07,0,0.97611,0.004371,0.004493,0.2172
22229,2.5049e+07,0,0.97611,0.0043669,0.0045039,0.21718
22269,2.5059e+07,0,0.97611,0.0043623,0.0045025,0.21718
22310,2.5069e+07,0,0.97611,0.0043787,0.0045224,0.21718
22351,2.508e+07,0,0.97611,0.0043846,0.0045377,0.21718
22392,2.5091e+07,0,0.97611,0.0044017,0.0045492,0.21719
22433,2.5102e+07,0,0.97611,0.0044239,0.0045557,0.21719
22473,2.5112e+07,0,0.97611,0.0044491,0.0045562,0.21719
22515,2.5122e+07,0,0.97611,0.0044739,0.0045519,0.2172
22555,2.5132e+07,0,0.9761,0.0044903,0.0045538,0.21721
22601,2.5142e+07,0,0.9761,0.0044944,0.0045515,0.21721
22641,2.5153e+07,0,0.9761,0.0044879,0.0045529,0.21723
22683,2.5163e+07,0,0.9761,0.0044707,0.0045528,0.21723
22724,2.5173e+07,0,0.9761,0.0044474,0.0045461,0.21724
22761,2.5184e+07,0,0.9761,0.0044222,0.0045487,0.21723
22801,2.5194e+07,0,0.9761,0.0044039,0.0045486,0.21721
22841,2.5204e+07,0,0.97611,0.004386,0.0045536,0.21718
22883,2.5214e+07,0,0.97611,0.0043687,0.0045507,0.21717
22923,2.5224e+07,0,0.97612,0.0043584,0.0045497,0.21715
22964,2.5234e+07,0,0.97612,0.0043585,0.0045366,0.21714
23009,2.5244e+07,0,0.97612,0.0043668,0.00453,0.21713
23052,2.5255e+07,0,0.97612,0.0043845,0.0045282,0.21713
23095,2.5265e+07,0,0.97612,0.0043999,0.0045362,0.21712
23136,2.5275e+07,0,0.97613,0.004419,0.0045389,0.21712
23177,2.5286e+07,0,0.97612,0.0044367,0.0045456,0.21712
23217,2.5297e+07,0,0.97612,0.00445,0.0045502,0.21715
23258,2.5308e+07,0,0.97611,0.0044457,0.0045512,0.21717
23301,2.5318e+07,0,0.97611,0.00444,0.004551,0.21719
23342,2.5328e+07,0,0.97611,0.0044309,0.0045435,0.2172
23383,2.5338e+07,0,0.9761,0.0044202,0.0045393,0.21722
23427,2.5348e+07,0,0.9761,0.0043917,0.004526,0.21722
23469,2.5358e+07,0,0.9761,0.0043786,0.004518,0.21723
23509,2.5368e+07,0,0.9761,0.0043614,0.0045241,0.21725
23551,2.5378e+07,0,0.97609,0.0043511,0.0045195,0.21726
23592,2.5388e+07,0,0.97609,0.004341,0.0045262,0.21727
23635,2.5398e+07,0,0.97609,0.0043392,0.0045369,0.21729
23676,2.5409e+07,0,0.97609,0.0043405,0.0045543,0.21729
23717,2.542e+07,0,0.97608,0.0043483,0.0045649,0.2173
23759,2.543e+07,0,0.97608,0.0043663,0.0045684,0.21731
23801,2.544e+07,0,0.97608,0.0043974,0.0045803,0.21731
23846,2.545e+07,0,0.97608,0.0044175,0.0045857,0.21732
23888,2.546e+07,0,0.97608,0.0044325,0.0045914,0.21734
23928,2.547e+07,0,0.97607,0.0044451,0.0045882,0.21735
23970,2.548e+07,0,0.97607,0.0044572,0.0045839,0.21736
24010,2.549e+07,0,0.97607,0.0044603,0.0045587,0.21737
24051,2.5499e+07,0,0.97607,0.0044496,0.004548,0.21737
24091,2.5509e+07,0,0.97607,0.0044423,0.0045402,0.21737
24132,2.5519e+07,0,0.97607,0.0044259,0.0045404,0.21736
24173,2.553e+07,0,0.97607,0.0043999,0.0045404,0.21735
24214,2.554e+07,0,0.97607,0.0043852,0.004549,0.21735
24259,2.555e+07,0,0.97607,0.0043652,0.0045493,0.21735
24299,2.556e+07,0,0.97607,0.0043581,0.0045558,0.21735
24341,2.557e+07,0,0.97607,0.0043625,0.0045621,0.21735
24382,2.558e+07,0,0.97607,0.0043756,0.0045633,0.21735
24423,2.559e+07,0,0.97607,0.004402,0.0045645,0.21735
24460,2.5601e+07,0,0.97607,0.0044328,0.0045647,0.21736
24501,2.5611e+07,0,0.97607,0.0044655,0.0045548,0.21735
24543,2.5621e+07,0,0.97607,0.0044921,0.0045563,0.21735
24583,2.5631e+07,0,0.97608,0.0045001,0.0045728,0.21734
24626,2.5641e+07,0,0.97608,0.0045043,0.0045754,0.21734
24677,2.5652e+07,0,0.97608,0.0045022,0.0045735,0.21733
24718,2.5663e+07,0,0.97608,0.0044737,0.004577,0.21732
24759,2.5673e+07,0,0.97609,0.0044351,0.0045788,0.21729
24800,2.5683e+07,0,0.97609,0.0044041,0.0045671,0.21728
24841,2.5696e+07,0,0.97609,0.0043746,0.0045592,0.21726
24882,2.5706e+07,0,0.9761,0.0043388,0.0045502,0.21723
24923,2.5716e+07,0,0.9761,0.0043289,0.0045334,0.21722
24963,2.5727e+07,0,0.97611,0.0043408,0.0045111,0.21719
25004,2.5737e+07,0,0.97611,0.0043582,0.0045031,0.21719
25044,2.5747e+07,0,0.97611,0.0043823,0.0045089,0.21717
25091,2.5758e+07,0,0.97611,0.0044184,0.0045193,0.21716
25132,2.5768e+07,0,0.97612,0.0044573,0.0045499,0.21715
25173,2.5778e+07,0,0.97612,0.0044879,0.0045705,0.21714
25215,2.5788e+07,0,0.97612,0.0045136,0.0045874,0.21714
25255,2.5799e+07,0,0.97612,0.0045206,0.0046006,0.21715
25296,2.5809e+07,0,0.97612,0.0045107,0.0046029,0.21715
25336,2.5819e+07,0,0.97611,0.0044999,0.0046026,0.21717
25376,2.583e+07,0,0.97611,0.004467,0.0045905,0.21716
25416,2.584e+07,0,0.97612,0.0044398,0.0045761,0.21715
25459,2.585e+07,0,0.97612,0.0044118,0.0045726,0.21713
25504,2.586e+07,0,0.97613,0.004385,0.0045665,0.21712
25544,2.587e+07,0,0.97613,0.0043571,0.0045667,0.21709
25586,2.588e+07,0,0.97613,0.0043439,0.004574,0.21708
25627,2.589e+07,0,0.97614,0.0043247,0.0045778,0.21707
25668,2.59e+07,0,0.97613,0.0043166,0.0045853,0.21708
25706,2.591e+07,0,0.97614,0.004338,0.004592,0.21707
25746,2.592e+07,0,0.97614,0.0043672,0.0045937,0.21706
25787,2.5931e+07,0,0.97614,0.0044085,0.004586,0.21707
25827,2.5941e+07,0,0.97613,0.004455,0.0045738,0.21707
25869,2.5951e+07,0,0.97613,0.0044954,0.0045641,0.21709
25914,2.5962e+07,0,0.97613,0.0045193,0.0045503,0.2171
25954,2.5972e+07,0,0.97613,0.0045392,0.0045557,0.21711
25997,2.5982e+07,0,0.97612,0.0045408,0.0045512,0.21712
26035,2.5992e+07,0,0.97612,0.0045149,0.0045541,0.21712
26077,2.6002e+07,0,0.97612,0.004484,0.004556,0.21712
26118,2.6012e+07,0,0.97613,0.0044431,0.0045637,0.21709
26158,2.6025e+07,0,0.97614,0.0044081,0.0045709,0.21705
26201,2.6034e+07,0,0.97615,0.0043751,0.0045853,0.21701
26241,2.6045e+07,0,0.97615,0.0043603,0.0045836,0.21699
26283,2.6055e+07,0,0.97616,0.0043679,0.0045758,0.21696
26328,2.6065e+07,0,0.97617,0.0043735,0.0045691,0.21693
26368,2.6076e+07,0,0.97617,0.0043875,0.0045632,0.21693
26409,2.6087e+07,0,0.97617,0.0044076,0.0045622,0.21692
26451,2.6097e+07,0,0.97617,0.0044442,0.0045703,0.21691
26489,2.611e+07,0,0.97618,0.0044861,0.0045913,0.21686
26530,2.612e+07,0,0.97619,0.0045071,0.0046181,0.2168
26570,2.613e+07,0,0.9762,0.0045161,0.0046451,0.21676
26612,2.614e+07,0,0.97621,0.0045276,0.0046614,0.21671
26652,2.615e+07,0,0.97623,0.0045117,0.0046682,0.21666
26697,2.616e+07,0,0.97624,0.0044921,0.004661,0.21661
26737,2.617e+07,0,0.97625,0.0044556,0.0046371,0.21655
26779,2.618e+07,0,0.97626,0.0044261,0.0046112,0.2165
26820,2.619e+07,0,0.97627,0.0043977,0.0045777,0.21644
26860,2.6203e+07,0,0.97629,0.0043589,0.0045474,0.21638
26901,2.6213e+07,0,0.9763,0.004331,0.0045386,0.21632
26941,2.6223e+07,0,0.97631,0.0043317,0.0045436,0.21627
26983,2.6233e+07,0,0.97632,0.004342,0.0045719,0.21624
27026,2.6243e+07,0,0.97632,0.0043608,0.0045857,0.21622
27069,2.6253e+07,0,0.97633,0.0043751,0.0046152,0.21619
27114,2.6263e+07,0,0.97633,0.0044027,0.0046296,0.21617
27154,2.6273e+07,0,0.97634,0.0044409,0.0046461,0.21616
27195,2.6283e+07,0,0.97634,0.0044792,0.0046362,0.21616
27235,2.6293e+07,0,0.97634,0.0044978,0.0046095,0.21615
27277,2.6303e+07,0,0.97634,0.0045118,0.0045759,0.21614
27311,2.6313e+07,0,0.97634,0.0045069,0.004546,0.21613
27352,2.6323e+07,0,0.97635,0.0044967,0.0045424,0.21609
27394,2.6333e+07,0,0.97636,0.0044657,0.0045379,0.21606
27435,2.6344e+07,0,0.97637,0.0044188,0.0045455,0.21603
27476,2.6354e+07,0,0.97637,0.0043801,0.0045556,0.216
27521,2.6364e+07,0,0.97638,0.0043552,0.0045728,0.21597
27561,2.6374e+07,0,0.97639,0.0043401,0.0045884,0.21594
27602,2.6384e+07,0,0.97639,0.0043305,0.0045916,0.21592
27642,2.6394e+07,0,0.97639,0.0043287,0.0045948,0.21592
27680,2.6405e+07,0,0.97639,0.0043438,0.0045906,0.21591
27725,2.6417e+07,0,0.97639,0.0043931,0.0045738,0.21592
27769,2.643e+07,0,0.97639,0.004453,0.0045512,0.21592
27813,2.6439e+07,0,0.97639,0.0044886,0.0045376,0.21593
27854,2.645e+07,0,0.97639,0.0045177,0.0045384,0.21593
27895,2.646e+07,0,0.97638,0.004531,0.0045549,0.21595
27940,2.647e+07,0,0.97638,0.0045402,0.0045829,0.21595
27981,2.648e+07,0,0.97638,0.004536,0.0046141,0.21595
28022,2.649e+07,0,0.97638,0.0045153,0.0046452,0.21595
28062,2.65e+07,0,0.97639,0.0044944,0.0046547,0.21594
28097,2.6511e+07,0,0.97639,0.0044569,0.0046618,0.21594
28138,2.6521e+07,0,0.97639,0.0044236,0.0046498,0.21593
28179,2.6531e+07,0,0.97639,0.0043921,0.004637,0.21593
28220,2.6541e+07,0,0.97639,0.0043641,0.0046006,0.21592
28261,2.6551e+07,0,0.97639,0.0043449,0.0045637,0.21593
28302,2.6561e+07,0,0.97639,0.0043379,0.0045356,0.21594
28347,2.6571e+07,0,0.97638,0.0043441,0.0045255,0.21595
28388,2.6581e+07,0,0.97638,0.0043654,0.0045378,0.21595
28429,2.6591e+07,0,0.97638,0.0043981,0.004561,0.21597
28469,2.6604e+07,0,0.97637,0.004443,0.0046084,0.216
28510,2.6614e+07,0,0.97637,0.0044584,0.0046458,0.21602
28551,2.6625e+07,0,0.97636,0.0044838,0.0046609,0.21603
28592,2.6635e+07,0,0.97636,0.0045033,0.0046731,0.21604
28635,2.6645e+07,0,0.97636,0.004497,0.0046633,0.21604
28676,2.6655e+07,0,0.97636,0.0044736,0.0046406,0.21604
28726,2.6668e+07,0,0.97637,0.0044499,0.0046011,0.21603
28767,2.6678e+07,0,0.97637,0.0044286,0.0045476,0.21602
28808,2.6688e+07,0,0.97637,0.0043965,0.0045292,0.216
28848,2.6698e+07,0,0.97638,0.0043811,0.0045228,0.21598
28889,2.6709e+07,0,0.97638,0.0043702,0.0045405,0.21597
28926,2.6719e+07,0,0.97638,0.0043611,0.0045613,0.21597
28967,2.6729e+07,0,0.97639,0.0043646,0.0045882,0.21594
29008,2.6739e+07,0,0.97639,0.0043753,0.0046071,0.21593
29051,2.675e+07,0,0.97639,0.0044172,0.0046348,0.21593
29093,2.676e+07,0,0.97639,0.0044501,0.0046495,0.21593
29137,2.677e+07,0,0.97639,0.004483,0.0046514,0.21593
29178,2.678e+07,0,0.97639,0.0045094,0.0046405,0.21593
29219,2.679e+07,0,0.97639,0.0045331,0.0046263,0.21594
29260,2.68e+07,0,0.97638,0.0045416,0.0045948,0.21594
29300,2.681e+07,0,0.97639,0.0045297,0.0045792,0.21594
29341,2.682e+07,0,0.97639,0.0045028,0.0045673,0.21593
29382,2.683e+07,0,0.9764,0.0044716,0.0045664,0.21589
29423,2.684e+07,0,0.97641,0.0044411,0.0045872,0.21585
29466,2.685e+07,0,0.97642,0.0043928,0.0045971,0.21581
29508,2.686e+07,0,0.97642,0.0043645,0.0046229,0.21577
29552,2.6871e+07,0,0.97643,0.0043452,0.0046282,0.21575
29594,2.6881e+07,0,0.97643,0.0043292,0.0046238,0.21573
29634,2.6891e+07,0,0.97644,0.0043311,0.0046112,0.21571
29676,2.6901e+07,0,0.97644,0.0043481,0.0046024,0.21571
29716,2.6912e+07,0,0.97644,0.0043783,0.0045839,0.2157
29757,2.6922e+07,0,0.97644,0.004409,0.0045582,0.2157
29794,2.6932e+07,0,0.97644,0.0044415,0.0045462,0.21568
29836,2.6942e+07,0,0.97645,0.0044703,0.0045421,0.21567
29877,2.6952e+07,0,0.97645,0.0044779,0.0045577,0.21565
29917,2.6962e+07,0,0.97645,0.004464,0.0045802,0.21564
29962,2.6973e+07,0,0.97646,0.0044503,0.0046226,0.21561
30003,2.6983e+07,0,0.97646,0.0044443,0.0046413,0.21559
30044,2.6993e+07,0,0.97647,0.0044181,0.0046561,0.21556
30085,2.7003e+07,0,0.97648,0.0044021,0.0046545,0.21553
30123,2.7013e+07,0,0.97648,0.0043901,0.0046505,0.21551
30162,2.7023e+07,0,0.97648,0.0043784,0.004631,0.2155
30202,2.7034e+07,0,0.97649,0.0043523,0.0045999,0.21548
30244,2.7044e+07,0,0.97649,0.004332,0.0045789,0.21546
30286,2.7054e+07,0,0.97649,0.0043472,0.0045614,0.21546
30327,2.7064e+07,0,0.97649,0.0043531,0.0045599,0.21546
30372,2.7074e+07,0,0.97649,0.0043555,0.0045643,0.21545
30412,2.7084e+07,0,0.97649,0.0043692,0.0045876,0.21547
30455,2.7095e+07,0,0.97649,0.0043976,0.0046236,0.21549
30495,2.7104e+07,0,0.97648,0.0044158,0.004635,0.2155
30530,2.7114e+07,0,0.97648,0.0044266,0.004656,0.2155
30571,2.7124e+07,0,0.97648,0.0044526,0.0046658,0.21551
30612,2.7134e+07,0,0.97648,0.0044732,0.0046631,0.2155
30653,2.7144e+07,0,0.97649,0.0044814,0.0046496,0.21549
30693,2.7155e+07,0,0.97649,0.0044776,0.0046186,0.21548
30734,2.7165e+07,0,0.97649,0.0044592,0.0045917,0.21547
30778,2.7175e+07,0,0.97649,0.0044474,0.0045663,0.21547
30819,2.7185e+07,0,0.97649,0.0044264,0.0045448,0.21547
30862,2.7195e+07,0,0.97649,0.0044051,0.0045417,0.21547
30905,2.7209e+07,0,0.97649,0.0043671,0.0045632,0.21548
30946,2.7219e+07,0,0.97649,0.0043451,0.0045899,0.21549
30983,2.723e+07,0,0.97649,0.0043388,0.0046108,0.21549
31026,2.724e+07,0,0.97648,0.0043445,0.0046209,0.21549
31069,2.725e+07,0,0.97648,0.0043616,0.0046329,0.21549
31110,2.726e+07,0,0.97648,0.004386,0.0046363,0.2155
31150,2.727e+07,0,0.97648,0.004417,0.0046269,0.21551
31195,2.728e+07,0,0.97648,0.0044434,0.0046147,0.21551
31236,2.729e+07,0,0.97648,0.0044565,0.0045939,0.21552
31276,2.73e+07,0,0.97648,0.004478,0.0045786,0.21552
31318,2.731e+07,0,0.97648,0.0044865,0.0045852,0.21552
31358,2.732e+07,0,0.97648,0.0044762,0.0045989,0.21552
31393,2.733e+07,0,0.97648,0.0044566,0.0046119,0.21553
31435,2.734e+07,0,0.97648,0.0044274,0.0046225,0.21553
31475,2.735e+07,0,0.97647,0.0044002,0.0046317,0.21554
31516,2.7361e+07,0,0.97647,0.0043741,0.0046346,0.21555
31556,2.7371e+07,0,0.97647,0.0043536,0.0046294,0.21557
31601,2.7381e+07,0,0.97646,0.0043525,0.0046172,0.21559
31642,2.7391e+07,0,0.97646,0.0043484,0.0046066,0.21561
31683,2.7401e+07,0,0.97645,0.0043589,0.0046019,0.21563
31725,2.7412e+07,0,0.97645,0.004373,0.0045883,0.21567
31767,2.7424e+07,0,0.97644,0.004403,0.0045783,0.2157
31813,2.7438e+07,0,0.97643,0.0044326,0.0045858,0.21574
31854,2.7448e+07,0,0.97642,0.0044551,0.0046011,0.21576
31895,2.7458e+07,0,0.97642,0.0044731,0.0046206,0.21578
31935,2.7469e+07,0,0.97642,0.0044701,0.0046325,0.2158
31980,2.7479e+07,0,0.97641,0.0044598,0.004634,0.21581
32021,2.7489e+07,0,0.97641,0.0044407,0.0046456,0.21583
32061,2.7499e+07,0,0.97641,0.0044233,0.0046438,0.21585
32102,2.7509e+07,0,0.9764,0.0044002,0.0046366,0.21586
32143,2.7519e+07,0,0.9764,0.0043749,0.0046212,0.21587
32178,2.7529e+07,0,0.9764,0.0043668,0.0046161,0.21589
32218,2.7539e+07,0,0.97639,0.0043491,0.0046009,0.21591
32259,2.755e+07,0,0.97639,0.0043465,0.0045998,0.21593
32301,2.756e+07,0,0.97638,0.0043509,0.0045991,0.21596
32341,2.757e+07,0,0.97638,0.0043559,0.0046068,0.21598
32386,2.758e+07,0,0.97637,0.0043718,0.004617,0.216
32426,2.759e+07,0,0.97637,0.0043844,0.0046359,0.21602
32468,2.76e+07,0,0.97636,0.0044077,0.0046545,0.21604
32508,2.761e+07,0,0.97636,0.0044261,0.004652,0.21606
32550,2.762e+07,0,0.97636,0.0044352,0.0046528,0.21607
32585,2.763e+07,0,0.97635,0.0044473,0.0046529,0.21608
32627,2.764e+07,0,0.97635,0.0044493,0.0046415,0.21609
32669,2.7651e+07,0,0.97635,0.0044433,0.0046311,0.21609
32710,2.7661e+07,0,0.97635,0.0044318,0.0046256,0.2161
32750,2.7671e+07,0,0.97635,0.0044165,0.0046122,0.21611
32800,2.7684e+07,0,0.97635,0.00439,0.0045983,0.21611
32841,2.7694e+07,0,0.97635,0.0043727,0.004599,0.21612
32882,2.7704e+07,0,0.97634,0.004367,0.0046037,0.21614
32922,2.7714e+07,0,0.97634,0.0043517,0.0046125,0.21615
32963,2.7727e+07,0,0.97633,0.0043388,0.0046197,0.21618
33004,2.7737e+07,0,0.97633,0.004354,0.0046286,0.21619
33047,2.7747e+07,0,0.97633,0.0043689,0.0046427,0.21621
33088,2.7757e+07,0,0.97632,0.0043905,0.0046466,0.21623
33129,2.7767e+07,0,0.97632,0.0044152,0.0046453,0.21625
33170,2.7778e+07,0,0.97631,0.0044295,0.0046427,0.21627
33214,2.7788e+07,0,0.97631,0.0044423,0.0046339,0.2163
33255,2.7798e+07,0,0.9763,0.0044423,0.0046278,0.21632
33297,2.7808e+07,0,0.9763,0.0044375,0.0046267,0.21634
33337,2.7818e+07,0,0.97629,0.0044327,0.0046386,0.21635
33379,2.7831e+07,0,0.97629,0.004411,0.0046524,0.21637
33420,2.7841e+07,0,0.97629,0.0043981,0.0046571,0.21637
33463,2.7851e+07,0,0.97629,0.004374,0.0046674,0.21638
33505,2.7861e+07,0,0.97629,0.0043623,0.0046699,0.21639
33545,2.7871e+07,0,0.97629,0.004358,0.0046694,0.21639
33586,2.7881e+07,0,0.97628,0.0043509,0.0046653,0.2164
33630,2.7891e+07,0,0.97628,0.0043482,0.0046544,0.21641
33672,2.7901e+07,0,0.97628,0.0043596,0.0046435,0.21642
33712,2.7911e+07,0,0.97628,0.0043733,0.0046347,0.21643
33753,2.7922e+07,0,0.97627,0.0043814,0.0046228,0.21645
33794,2.7934e+07,0,0.97627,0.0044005,0.0046229,0.21647
33834,2.7944e+07,0,0.97627,0.0044179,0.00464,0.21647
33876,2.7955e+07,0,0.97627,0.0044346,0.0046587,0.21648
33917,2.7965e+07,0,0.97626,0.0044346,0.0046692,0.21649
33958,2.7975e+07,0,0.97626,0.0044245,0.0046768,0.21649
34006,2.7988e+07,0,0.97626,0.0044051,0.0046798,0.2165
34046,2.7998e+07,0,0.97626,0.004394,0.0046683,0.21651
34088,2.8009e+07,0,0.97626,0.0043773,0.0046599,0.21652
34128,2.8019e+07,0,0.97625,0.004366,0.0046527,0.21653
34163,2.803e+07,0,0.97625,0.0043628,0.0046493,0.21654
34204,2.804e+07,0,0.97625,0.0043503,0.0046455,0.21655
34247,2.805e+07,0,0.97624,0.0043513,0.0046408,0.21659
34289,2.8061e+07,0,0.97623,0.0043636,0.0046388,0.21663
34330,2.8071e+07,0,0.97623,0.0043726,0.0046494,0.21666
34371,2.8081e+07,0,0.97622,0.0043802,0.0046587,0.21669
34416,2.8091e+07,0,0.97621,0.0043809,0.0046691,0.21672
34457,2.8101e+07,0,0.97621,0.0043816,0.0046743,0.21675
34498,2.8111e+07,0,0.9762,0.0043919,0.0046745,0.21679
34539,2.8122e+07,0,0.97619,0.004402,0.0046702,0.21682
34579,2.8132e+07,0,0.97618,0.0044026,0.0046612,0.21686
34617,2.8143e+07,0,0.97618,0.0044041,0.0046601,0.21689
34657,2.8153e+07,0,0.97617,0.0044016,0.0046485,0.2169
34698,2.8163e+07,0,0.97617,0.0043983,0.004642,0.21692
34740,2.8173e+07,0,0.97616,0.0043965,0.0046307,0.21694
34781,2.8183e+07,0,0.97616,0.0043753,0.0046258,0.21696
34825,2.8193e+07,0,0.97615,0.004362,0.0046192,0.21699
34866,2.8203e+07,0,0.97615,0.0043436,0.004626,0.21701
34907,2.8213e+07,0,0.97615,0.004336,0.0046349,0.21702
34948,2.8223e+07,0,0.97614,0.004331,0.0046397,0.21703
34991,2.8236e+07,0,0.97614,0.0043318,0.0046469,0.21704
35036,2.825e+07,0,0.97614,0.0043397,0.0046463,0.21704
35077,2.8259e+07,0,0.97614,0.004355,0.0046472,0.21703
35118,2.827e+07,0,0.97614,0.0043696,0.0046442,0.21703
35160,2.828e+07,0,0.97614,0.0043933,0.0046481,0.21703
35201,2.829e+07,0,0.97614,0.0043969,0.0046475,0.21703
35245,2.83e+07,0,0.97614,0.0044047,0.0046461,0.21704
35286,2.831e+07,0,0.97614,0.0044182,0.0046419,0.21704
35326,2.832e+07,0,0.97614,0.0044207,0.0046364,0.21704
35368,2.833e+07,0,0.97614,0.0044136,0.004631,0.21704
35403,2.8341e+07,0,0.97614,0.0043935,0.0046315,0.21703
35443,2.8351e+07,0,0.97615,0.0043731,0.0046268,0.21701
35484,2.8361e+07,0,0.97615,0.0043511,0.0046219,0.21699
35524,2.8371e+07,0,0.97616,0.0043408,0.0046094,0.21696
35565,2.8381e+07,0,0.97616,0.004327,0.0046012,0.21694
35607,2.8391e+07,0,0.97617,0.0043219,0.0045974,0.21692
35652,2.8401e+07,0,0.97617,0.0043146,0.004598,0.2169
35692,2.8411e+07,0,0.97618,0.0043154,0.0045948,0.21688
35734,2.8421e+07,0,0.97618,0.0043148,0.0045906,0.21686
35780,2.8435e+07,0,0.97618,0.0043435,0.0045927,0.21685
35819,2.8445e+07,0,0.97619,0.0043606,0.004599,0.21681
35860,2.8456e+07,0,0.9762,0.0043648,0.0046004,0.2168
35901,2.8465e+07,0,0.9762,0.0043724,0.0046028,0.21678
35943,2.8475e+07,0,0.9762,0.0043681,0.0045983,0.21676
35984,2.8485e+07,0,0.97621,0.0043721,0.0046026,0.21675
36028,2.8496e+07,0,0.97621,0.0043616,0.0046038,0.21673
36069,2.8507e+07,0,0.97621,0.0043519,0.0046064,0.21672
36109,2.8517e+07,0,0.97622,0.0043489,0.0046018,0.21669
36151,2.8527e+07,0,0.97623,0.0043268,0.0045935,0.21666
36191,2.854e+07,0,0.97623,0.0042978,0.0045877,0.21664
36232,2.855e+07,0,0.97624,0.0042931,0.0045901,0.21661
36273,2.856e+07,0,0.97625,0.0042895,0.0045899,0.21657
36313,2.857e+07,0,0.97625,0.004295,0.0045935,0.21653
36356,2.858e+07,0,0.97626,0.0042844,0.0045932,0.2165
36397,2.859e+07,0,0.97627,0.004284,0.0046021,0.21647
36441,2.86e+07,0,0.97627,0.0043011,0.0046087,0.21645
36482,2.8611e+07,0,0.97628,0.0043063,0.0046159,0.21644
36523,2.8621e+07,0,0.97628,0.0043154,0.004612,0.21643
36564,2.8631e+07,0,0.97628,0.0043271,0.0046127,0.21641
36604,2.8641e+07,0,0.97628,0.0043335,0.0046115,0.2164
36644,2.8651e+07,0,0.97629,0.0043404,0.0046129,0.21639
36684,2.8661e+07,0,0.97629,0.0043415,0.0046089,0.21638
36725,2.8672e+07,0,0.97629,0.0043413,0.0046048,0.21637
36768,2.8682e+07,0,0.97629,0.0043346,0.0046035,0.21636
36808,2.8692e+07,0,0.9763,0.0043285,0.0045965,0.21635
36855,2.8702e+07,0,0.9763,0.0043162,0.0045922,0.21633
36895,2.8713e+07,0,0.9763,0.0043063,0.0045963,0.21632
36936,2.8723e+07,0,0.9763,0.0043035,0.0045937,0.21631
36976,2.8734e+07,0,0.97631,0.0042953,0.0045893,0.2163
37019,2.8744e+07,0,0.97631,0.0042799,0.0045762,0.21629
37057,2.8754e+07,0,0.97631,0.004293,0.0045871,0.21628
37098,2.8764e+07,0,0.97631,0.0043064,0.0045972,0.21627
37139,2.8774e+07,0,0.97631,0.0043097,0.0045946,0.21626
37179,2.8784e+07,0,0.97632,0.0043175,0.0046018,0.21626
37221,2.8794e+07,0,0.97631,0.0043248,0.0046196,0.21626
37267,2.8804e+07,0,0.97631,0.0043323,0.0046328,0.21627
37307,2.8814e+07,0,0.97632,0.0043383,0.0046265,0.21626
37348,2.8824e+07,0,0.97631,0.0043348,0.004625,0.21627
37388,2.8834e+07,0,0.97631,0.0043386,0.0046349,0.21627
37430,2.8844e+07,0,0.97631,0.004338,0.0046302,0.21627
37470,2.8855e+07,0,0.97631,0.004325,0.0046256,0.21627
37510,2.8865e+07,0,0.97631,0.0043083,0.0046112,0.21627
37551,2.8875e+07,0,0.97631,0.0043104,0.0046148,0.21626
37591,2.8885e+07,0,0.97632,0.0043044,0.0046061,0.21626
37633,2.8896e+07,0,0.97632,0.0042933,0.0045992,0.21626
37678,2.8906e+07,0,0.97631,0.0042796,0.0045999,0.21627
37719,2.8916e+07,0,0.97631,0.0042787,0.0046015,0.21626
37759,2.8927e+07,0,0.97631,0.0042873,0.0046009,0.21627
37800,2.8937e+07,0,0.97631,0.0042913,0.0045988,0.21628
37841,2.8949e+07,0,0.97631,0.0042956,0.0046049,0.2163
37879,2.8959e+07,0,0.97631,0.0043004,0.0046063,0.2163
37920,2.897e+07,0,0.9763,0.0042951,0.0045976,0.21631
37960,2.898e+07,0,0.9763,0.0042938,0.0046017,0.21632
38002,2.899e+07,0,0.9763,0.0042952,0.004599,0.21633
38043,2.9e+07,0,0.9763,0.0043032,0.004601,0.21634
38089,2.901e+07,0,0.9763,0.0043032,0.004607,0.21635
38130,2.902e+07,0,0.97629,0.0042853,0.0046021,0.21636
38170,2.9031e+07,0,0.97629,0.0042692,0.0046141,0.21636
38213,2.9041e+07,0,0.97629,0.0042699,0.0046222,0.21636
38250,2.9052e+07,0,0.97629,0.0042609,0.0046251,0.21636
38292,2.9064e+07,0,0.97629,0.0042495,0.0046289,0.21637
38333,2.9074e+07,0,0.97629,0.0042528,0.004627,0.21639
38373,2.9084e+07,0,0.97629,0.00425,0.004624,0.21639
38414,2.9094e+07,0,0.97628,0.0042589,0.0046175,0.21641
38454,2.9105e+07,0,0.97628,0.0042628,0.0046169,0.21644
38501,2.9115e+07,0,0.97627,0.004269,0.0046146,0.21646
38542,2.9125e+07,0,0.97627,0.0042876,0.0046131,0.21648
38583,2.9135e+07,0,0.97626,0.0042981,0.0046166,0.21649
38621,2.9146e+07,0,0.97626,0.0043137,0.0046152,0.21653
38662,2.9156e+07,0,0.97625,0.0043274,0.0046129,0.21654
38700,2.9166e+07,0,0.97625,0.0043275,0.0046151,0.21656
38740,2.9176e+07,0,0.97625,0.0043247,0.0046156,0.21657
38781,2.9186e+07,0,0.97625,0.0043206,0.0046065,0.21656
38822,2.9196e+07,0,0.97625,0.0043046,0.0046082,0.21657
38863,2.9206e+07,0,0.97625,0.0042917,0.004597,0.21657
38908,2.9216e+07,0,0.97624,0.0042785,0.0045819,0.21658
38949,2.9226e+07,0,0.97624,0.0042594,0.0045686,0.21659
38992,2.9236e+07,0,0.97624,0.0042436,0.0045712,0.2166
39034,2.9247e+07,0,0.97624,0.0042437,0.0045679,0.2166
39076,2.9259e+07,0,0.97624,0.0042472,0.004586,0.21661
39113,2.9269e+07,0,0.97624,0.0042498,0.0045938,0.21661
39154,2.928e+07,0,0.97624,0.0042528,0.0046059,0.21661
39195,2.929e+07,0,0.97624,0.0042662,0.0046116,0.21661
39235,2.93e+07,0,0.97624,0.0042789,0.0046215,0.21661
39280,2.931e+07,0,0.97624,0.0042945,0.0046244,0.2166
39321,2.932e+07,0,0.97624,0.0042946,0.0046247,0.2166
39363,2.933e+07,0,0.97624,0.0042972,0.0046165,0.21659
39404,2.934e+07,0,0.97624,0.0042931,0.0046131,0.21658
39444,2.935e+07,0,0.97625,0.0042883,0.0045939,0.21656
39483,2.936e+07,0,0.97625,0.0042793,0.0045868,0.21656
39520,2.937e+07,0,0.97625,0.0042761,0.0045843,0.21654
39562,2.938e+07,0,0.97625,0.00426,0.0045856,0.21654
39603,2.9391e+07,0,0.97625,0.0042425,0.0045947,0.21654
39643,2.9401e+07,0,0.97625,0.0042263,0.0046048,0.21654
39688,2.9411e+07,0,0.97625,0.0042191,0.0046032,0.21654
39731,2.9421e+07,0,0.97625,0.0042173,0.0046024,0.21653
39772,2.9431e+07,0,0.97625,0.0042186,0.0045991,0.21655
39813,2.9441e+07,0,0.97625,0.0042335,0.0045936,0.21656
39854,2.9451e+07,0,0.97625,0.0042545,0.0045824,0.21657
39891,2.9462e+07,0,0.97625,0.0042652,0.0045699,0.21657
39932,2.9472e+07,0,0.97625,0.0042755,0.0045609,0.21657
39973,2.9482e+07,0,0.97625,0.0042787,0.0045551,0.21656
40014,2.9492e+07,0,0.97625,0.00428,0.0045549,0.21655
40054,2.9502e+07,0,0.97626,0.0042767,0.0045659,0.21653
40100,2.9512e+07,0,0.97626,0.0042737,0.0045684,0.21652
40140,2.9522e+07,0,0.97626,0.0042716,0.0045772,0.2165
40182,2.9533e+07,0,0.97626,0.004259,0.0045823,0.21649
40222,2.9542e+07,0,0.97626,0.0042554,0.0045955,0.21649
40263,2.9553e+07,0,0.97627,0.0042563,0.0045914,0.21648
40303,2.9563e+07,0,0.97627,0.0042491,0.004584,0.21648
40341,2.9574e+07,0,0.97627,0.0042455,0.0045773,0.21648
40382,2.9584e+07,0,0.97627,0.0042408,0.0045674,0.21648
40422,2.9594e+07,0,0.97627,0.0042417,0.0045597,0.21648
40463,2.9604e+07,0,0.97627,0.0042555,0.0045623,0.21649
40508,2.9614e+07,0,0.97626,0.0042576,0.0045673,0.2165
40549,2.9624e+07,0,0.97626,0.0042643,0.0045772,0.2165
40590,2.9634e+07,0,0.97626,0.0042721,0.0045881,0.21651
40633,2.9644e+07,0,0.97626,0.0042657,0.0045936,0.21652
40674,2.9654e+07,0,0.97626,0.0042616,0.0046046,0.21652
40714,2.9665e+07,0,0.97626,0.004259,0.0046163,0.21651
40755,2.9675e+07,0,0.97626,0.0042517,0.00462,0.21649
40796,2.9685e+07,0,0.97627,0.004248,0.0046082,0.21648
40837,2.9695e+07,0,0.97627,0.0042453,0.0045934,0.21647
40877,2.9706e+07,0,0.97627,0.0042451,0.0045837,0.21646
40924,2.9716e+07,0,0.97627,0.0042403,0.0045797,0.21644
40967,2.9728e+07,0,0.97627,0.0042373,0.0045716,0.21645
41007,2.9738e+07,0,0.97628,0.0042333,0.0045763,0.21644
41050,2.9748e+07,0,0.97628,0.0042327,0.0045904,0.21643
41087,2.9759e+07,0,0.97628,0.0042447,0.0046057,0.21643
41128,2.9769e+07,0,0.97628,0.0042536,0.0046132,0.21643
41165,2.978e+07,0,0.97628,0.0042633,0.0046176,0.21643
41206,2.9789e+07,0,0.97628,0.0042677,0.0046263,0.21643
41248,2.98e+07,0,0.97628,0.0042668,0.0046356,0.21643
41288,2.9809e+07,0,0.97628,0.0042714,0.0046321,0.21644
41333,2.982e+07,0,0.97628,0.0042702,0.0046267,0.21643
41373,2.983e+07,0,0.97628,0.0042632,0.0046193,0.21643
41414,2.9841e+07,0,0.97628,0.0042484,0.0046104,0.21644
41456,2.9851e+07,0,0.97628,0.0042309,0.0046106,0.21644
41497,2.9864e+07,0,0.97627,0.0042176,0.004615,0.21645
41538,2.9874e+07,0,0.97627,0.0042082,0.0046188,0.21645
41580,2.9884e+07,0,0.97627,0.0042012,0.0046296,0.21646
41621,2.9894e+07,0,0.97627,0.0041987,0.0046317,0.21646
41662,2.9904e+07,0,0.97627,0.0041985,0.0046336,0.21646
41704,2.9914e+07,0,0.97627,0.0041958,0.004635,0.21647
41748,2.9924e+07,0,0.97627,0.0042089,0.0046217,0.21648
41789,2.9934e+07,0,0.97627,0.00422,0.0046187,0.21648
41829,2.9944e+07,0,0.97626,0.0042286,0.0046131,0.2165
41870,2.9954e+07,0,0.97626,0.00424,0.0046026,0.21651
41913,2.9964e+07,0,0.97626,0.0042455,0.0045955,0.21652
41953,2.9974e+07,0,0.97626,0.0042491,0.0045921,0.21651
41994,2.9984e+07,0,0.97626,0.0042443,0.0045951,0.21649
42034,2.9994e+07,0,0.97627,0.0042335,0.0046076,0.21647
42075,3.0005e+07,0,0.97627,0.004238,0.0046203,0.21645
42115,3.0015e+07,0,0.97628,0.0042332,0.004637,0.21643
42160,3.0025e+07,0,0.97628,0.0042363,0.0046511,0.21641
42203,3.0035e+07,0,0.97629,0.0042317,0.0046636,0.2164
42244,3.0046e+07,0,0.97629,0.0042361,0.0046652,0.21638
42285,3.0056e+07,0,0.97629,0.0042383,0.0046668,0.21636
42328,3.0068e+07,0,0.9763,0.004235,0.0046481,0.21633
42369,3.0078e+07,0,0.9763,0.0042406,0.0046338,0.21631
42410,3.0088e+07,0,0.97631,0.0042459,0.0046294,0.21628
42451,3.0098e+07,0,0.97631,0.0042418,0.0046337,0.21627
42493,3.0108e+07,0,0.97632,0.0042425,0.0046504,0.21624
42533,3.0118e+07,0,0.97632,0.0042385,0.0046541,0.21622
42579,3.0129e+07,0,0.97633,0.0042392,0.0046602,0.21621
42620,3.0139e+07,0,0.97633,0.0042383,0.0046611,0.2162
42661,3.0149e+07,0,0.97633,0.0042448,0.0046682,0.21619
42702,3.0159e+07,0,0.97633,0.0042558,0.004665,0.21619
42739,3.0169e+07,0,0.97633,0.0042487,0.0046609,0.21619
42780,3.0179e+07,0,0.97633,0.0042389,0.0046568,0.21619
42822,3.019e+07,0,0.97633,0.0042339,0.0046414,0.21619
42863,3.0199e+07,0,0.97633,0.0042301,0.0046339,0.21619
42903,3.021e+07,0,0.97633,0.0042252,0.0046217,0.2162
42946,3.022e+07,0,0.97633,0.004215,0.0046078,0.21619
42991,3.023e+07,0,0.97633,0.0042164,0.0046118,0.2162
43033,3.024e+07,0,0.97633,0.0042227,0.0046133,0.2162
43074,3.0249e+07,0,0.97633,0.0042125,0.0046196,0.21621
43118,3.0262e+07,0,0.97633,0.0042124,0.0046442,0.21621
43156,3.0273e+07,0,0.97633,0.0042154,0.004646,0.21622
43197,3.0283e+07,0,0.97633,0.0042238,0.0046449,0.21622
43238,3.0293e+07,0,0.97633,0.0042335,0.0046412,0.21621
43280,3.0303e+07,0,0.97633,0.0042396,0.0046422,0.21621
43320,3.0313e+07,0,0.97632,0.0042335,0.004635,0.21622
43363,3.0323e+07,0,0.97632,0.0042442,0.0046329,0.21624
43407,3.0333e+07,0,0.97632,0.00425,0.0046199,0.21625
43448,3.0343e+07,0,0.97631,0.0042575,0.0046148,0.21626
43490,3.0353e+07,0,0.97631,0.0042508,0.0046237,0.21627
43530,3.0363e+07,0,0.97631,0.004252,0.0046233,0.21628
43571,3.0374e+07,0,0.97631,0.0042512,0.0046278,0.21629
43611,3.0387e+07,0,0.97631,0.0042466,0.0046213,0.2163
43653,3.0397e+07,0,0.97631,0.0042454,0.0046274,0.2163
43696,3.0407e+07,0,0.97631,0.0042469,0.0046274,0.2163
43736,3.0417e+07,0,0.97631,0.0042517,0.0046215,0.21629
43783,3.0427e+07,0,0.97631,0.0042547,0.0046181,0.21628
43825,3.0438e+07,0,0.97631,0.0042461,0.0046118,0.21627
43867,3.0448e+07,0,0.97631,0.004246,0.0046076,0.21628
43908,3.0458e+07,0,0.97631,0.0042418,0.0045928,0.21628
43949,3.0468e+07,0,0.97631,0.0042385,0.0045838,0.21629
43993,3.0481e+07,0,0.97631,0.0042207,0.0045793,0.21631
44033,3.0491e+07,0,0.9763,0.0042175,0.0045771,0.21632
44076,3.0501e+07,0,0.9763,0.0042191,0.0045938,0.21633
44116,3.0512e+07,0,0.97629,0.0042172,0.0045989,0.21636
44157,3.0522e+07,0,0.97629,0.0042103,0.0046057,0.21638
44202,3.0532e+07,0,0.97628,0.0042172,0.0046137,0.2164
44243,3.0542e+07,0,0.97628,0.0042178,0.0046183,0.21641
44284,3.0552e+07,0,0.97628,0.0042039,0.0046181,0.21641
44327,3.0565e+07,0,0.97628,0.0042149,0.0046269,0.21643
44365,3.0575e+07,0,0.97628,0.0042252,0.0046225,0.21642
44405,3.0585e+07,0,0.97628,0.0042306,0.0046271,0.2164
44445,3.0595e+07,0,0.97629,0.0042475,0.0046262,0.21639
44486,3.0605e+07,0,0.97629,0.0042623,0.004631,0.21639
44528,3.0615e+07,0,0.97629,0.0042638,0.0046349,0.21638
44569,3.0625e+07,0,0.97629,0.0042681,0.0046391,0.21639
44613,3.0635e+07,0,0.97628,0.0042686,0.0046394,0.2164
44656,3.0645e+07,0,0.97628,0.0042487,0.0046382,0.21641
44698,3.0655e+07,0,0.97628,0.0042457,0.0046399,0.21643
44738,3.0665e+07,0,0.97627,0.0042378,0.0046373,0.21645
44776,3.0676e+07,0,0.97627,0.0042289,0.0046335,0.21647
44816,3.0686e+07,0,0.97627,0.0042234,0.0046303,0.21647
44854,3.0697e+07,0,0.97627,0.0042218,0.0046264,0.21649
44895,3.0707e+07,0,0.97627,0.0042106,0.0046192,0.21648
44938,3.0717e+07,0,0.97627,0.0042183,0.0046229,0.21648
44979,3.0728e+07,0,0.97627,0.0042286,0.0046281,0.21646
45025,3.0738e+07,0,0.97627,0.0042501,0.0046365,0.21645
45069,3.0749e+07,0,0.97628,0.0042531,0.0046435,0.21644
45110,3.0759e+07,0,0.97628,0.0042541,0.0046406,0.21643
45151,3.0769e+07,0,0.97628,0.0042602,0.004646,0.21642
45189,3.0779e+07,0,0.97628,0.0042634,0.0046459,0.21641
45232,3.0792e+07,0,0.97628,0.0042489,0.0046375,0.2164
45273,3.0802e+07,0,0.97628,0.0042463,0.0046309,0.21641
45313,3.0813e+07,0,0.97628,0.0042454,0.0046267,0.21642
45354,3.0823e+07,0,0.97628,0.0042371,0.0046276,0.21643
45397,3.0833e+07,0,0.97627,0.0042262,0.00463,0.21645
45442,3.0843e+07,0,0.97627,0.0042222,0.004639,0.21646
45483,3.0853e+07,0,0.97627,0.0042228,0.0046489,0.21646
45523,3.0863e+07,0,0.97627,0.0042232,0.0046493,0.21647
45567,3.0873e+07,0,0.97627,0.0042172,0.0046464,0.21647
45601,3.0884e+07,0,0.97627,0.0042114,0.0046431,0.21648
45641,3.0894e+07,0,0.97627,0.0042074,0.0046418,0.21647
45681,3.0904e+07,0,0.97627,0.0042104,0.0046319,0.21646
45722,3.0914e+07,0,0.97627,0.0042236,0.0046211,0.21645
45764,3.0924e+07,0,0.97627,0.0042328,0.0046248,0.21645
45804,3.0934e+07,0,0.97628,0.0042413,0.0046274,0.21644
45850,3.0944e+07,0,0.97628,0.0042415,0.0046259,0.21644
45890,3.0954e+07,0,0.97627,0.0042434,0.0046351,0.21644
45931,3.0963e+07,0,0.97627,0.0042463,0.0046432,0.21645
45972,3.0974e+07,0,0.97627,0.0042511,0.0046511,0.21646
46010,3.0986e+07,0,0.97627,0.0042604,0.0046591,0.21647
46050,3.0996e+07,0,0.97627,0.0042567,0.0046654,0.21649
46090,3.1007e+07,0,0.97626,0.004262,0.0046608,0.21649
46131,3.1017e+07,0,0.97626,0.0042607,0.0046544,0.21649
46172,3.1027e+07,0,0.97626,0.0042568,0.0046479,0.2165
46217,3.1038e+07,0,0.97626,0.0042561,0.0046434,0.2165
46261,3.1048e+07,0,0.97626,0.004265,0.0046408,0.21652
46301,3.1059e+07,0,0.97626,0.0042777,0.0046497,0.21651
46342,3.1069e+07,0,0.97626,0.004284,0.004656,0.21652
46379,3.1079e+07,0,0.97626,0.0042804,0.0046592,0.21652
46420,3.1092e+07,0,0.97626,0.0042953,0.0046655,0.21653
46461,3.1102e+07,0,0.97625,0.0042957,0.0046672,0.21654
46502,3.1112e+07,0,0.97625,0.0042894,0.0046656,0.21654
46544,3.1122e+07,0,0.97625,0.0042895,0.0046656,0.21656
46584,3.1133e+07,0,0.97625,0.0042695,0.0046593,0.21656
46631,3.1143e+07,0,0.97625,0.0042448,0.0046554,0.21656
46671,3.1153e+07,0,0.97625,0.004227,0.0046488,0.21657
46712,3.1163e+07,0,0.97625,0.0042203,0.0046368,0.21657
46753,3.1173e+07,0,0.97625,0.0042137,0.0046369,0.21657
46793,3.1186e+07,0,0.97625,0.0041998,0.0046419,0.21657
46834,3.1196e+07,0,0.97625,0.0041979,0.0046524,0.21657
46875,3.1206e+07,0,0.97624,0.004208,0.0046562,0.21658
46918,3.1216e+07,0,0.97624,0.0042174,0.004662,0.21659
46958,3.1226e+07,0,0.97624,0.0042224,0.0046623,0.2166
46999,3.1236e+07,0,0.97624,0.0042288,0.004672,0.21662
47045,3.1247e+07,0,0.97623,0.0042312,0.0046646,0.21663
