LineNo,TimeUS,C,V00,V01,V02,V03,V04,V05,V06,V07,V08,V09,V10,V11
3406,2.0304e+07,0,0.00011821,0.00012189,0.0001219,0.002629,0.19396,0.19391,0.096821,0.2102,0.21018,0.41221,3.7504e-09,3.7554e-09
5398,2.08e+07,0,0.00011759,8.9544e-05,8.955e-05,0.0025332,0.15398,0.15393,0.083338,0.1861,0.18609,0.38223,2.4707e-09,2.4748e-09
7378,2.1294e+07,0,0.00011706,6.9212e-05,6.9213e-05,0.0024461,0.12876,0.12872,0.073157,0.17229,0.17228,0.3609,1.7125e-09,1.716e-09
9364,2.1794e+07,0,0.00011603,5.4782e-05,5.4779e-05,0.002358,0.10938,0.10934,0.064766,0.16019,0.16017,0.34184,1.2249e-09,1.2278e-09
11223,2.2294e+07,0,0.00011392,4.4326e-05,4.432e-05,0.0022634,0.095139,0.095105,0.05766,0.1516,0.15158,0.32641,9.049e-10,9.0748e-10
13195,2.2787e+07,0,0.00011161,3.6299e-05,3.6292e-05,0.0021728,0.082428,0.082399,0.051523,0.14118,0.14116,0.30983,6.821e-10,6.8435e-10
15174,2.3281e+07,0,0.00010951,3.0341e-05,3.0337e-05,0.0020927,0.073046,0.07302,0.046467,0.13468,0.13467,0.2981,5.2613e-10,5.281e-10
17124,2.3777e+07,0,0.00010677,2.5674e-05,2.5669e-05,0.00201,0.064668,0.064646,0.041929,0.12659,0.12657,0.28454,4.1505e-10,4.168e-10
19077,2.4268e+07,0,0.00010359,2.1994e-05,2.1988e-05,0.001926,0.05805,0.058033,0.037916,0.1203,0.12028,0.27316,3.3437e-10,3.3593e-10
21062,2.4759e+07,0,0.00010376,2.0204e-05,2.0198e-05,0.0019081,0.057022,0.057007,0.03613,0.12805,0.12803,0.27931,2.8535e-10,2.8677e-10
23053,2.5255e+07,0,0.00010077,1.782e-05,1.7814e-05,0.0018369,0.052022,0.052012,0.033054,0.12242,0.12241,0.26879,2.381e-10,2.3938e-10
25045,2.5747e+07,0,9.7821e-05,1.5883e-05,1.5879e-05,0.0017691,0.047555,0.04755,0.030343,0.11623,0.11622,0.25793,2.0185e-10,2.03e-10
27027,2.6243e+07,0,9.4893e-05,1.4348e-05,1.4343e-05,0.0017054,0.044004,0.044002,0.028009,0.11139,0.11138,0.24865,1.7406e-10,1.7511e-10
29009,2.6739e+07,0,9.2121e-05,1.3115e-05,1.311e-05,0.0016461,0.041149,0.041151,0.02599,0.10754,0.10754,0.24056,1.5237e-10,1.5333e-10
31027,2.724e+07,0,8.9111e-05,1.2092e-05,1.2088e-05,0.0015868,0.038719,0.038724,0.024192,0.10393,0.10393,0.23274,1.3535e-10,1.3622e-10
33005,2.7737e+07,0,8.6527e-05,1.1253e-05,1.125e-05,0.0015353,0.036655,0.036662,0.022656,0.10099,0.10099,0.22601,1.2149e-10,1.2229e-10
34992,2.8236e+07,0,8.43e-05,1.0583e-05,1.0579e-05,0.00149,0.034964,0.034973,0.021365,0.098637,0.098639,0.22012,1.1024e-10,1.1097e-10
36977,2.8734e+07,0,8.3792e-05,1.0346e-05,1.0342e-05,0.0014766,0.035685,0.035696,0.020918,0.1055,0.1055,0.22533,1.0297e-10,1.0365e-10
38950,2.9226e+07,0,8.1431e-05,9.8168e-06,9.8133e-06,0.0014311,0.034144,0.034155,0.019875,0.10248,0.10248,0.21893,9.5049e-11,9.5671e-11
40925,2.9716e+07,0,7.9023e-05,9.3387e-06,9.3359e-06,0.0013852,0.032642,0.032653,0.018952,0.098965,0.098973,0.21232,8.843e-11,8.9002e-11
42904,3.021e+07,0,7.6834e-05,8.97e-06,8.9663e-06,0.0013449,0.031602,0.031614,0.01826,0.096972,0.096982,0.20747,8.2936e-11,8.3461e-11
44896,3.0707e+07,0,7.4616e-05,8.6294e-06,8.6262e-06,0.0013043,0.030489,0.030499,0.017656,0.094226,0.094236,0.20206,7.8278e-11,7.8762e-11
46876,3.1206e+07,0,7.2785e-05,8.3863e-06,8.3834e-06,0.0012712,0.02996,0.02997,0.0173,0.09386,0.093871,0.19951,7.4367e-11,7.4815e-11
48865,3.17e+07,0,7.0897e-05,8.1383e-06,8.1349e-06,0.001237,0.029083,0.029091,0.016955,0.091539,0.091549,0.19515,7.0898e-11,7.1312e-11
50864,3.2203e+07,0,6.9236e-05,7.9471e-06,7.9439e-06,0.0012068,0.028556,0.028563,0.016768,0.09063,0.090639,0.19264,6.793e-11,6.8314e-11
52850,3.2698e+07,0,6.8747e-05,7.9525e-06,7.95e-06,0.0011973,0.029437,0.029442,0.017028,0.09623,0.09624,0.19755,6.595e-11,6.6313e-11
54867,3.3198e+07,0,6.7131e-05,7.8081e-06,7.8054e-06,0.0011689,0.029104,0.029107,0.016981,0.095895,0.095904,0.19616,6.366e-11,6.3998e-11
56857,3.3697e+07,0,6.543e-05,7.6541e-06,7.6545e-06,0.0011397,0.028583,0.028585,0.016918,0.094353,0.09436,0.19375,6.161e-11,6.1925e-11
58841,3.4196e+07,0,6.4027e-05,7.5241e-06,7.5422e-06,0.0011118,0.028181,0.028182,0.016908,0.093277,0.093283,0.19204,5.9841e-11,6.0135e-11
60820,3.4692e+07,0,6.2555e-05,7.3944e-06,7.4286e-06,0.0010852,0.027681,0.027679,0.016895,0.09164,0.091644,0.19008,5.8195e-11,5.8471e-11
62792,3.5188e+07,0,6.1096e-05,7.2729e-06,7.3242e-06,0.0010598,0.027178,0.027176,0.016887,0.089854,0.089857,0.18808,5.6693e-11,5.6951e-11
64767,3.5685e+07,0,5.9803e-05,7.1815e-06,7.2471e-06,0.0010372,0.026875,0.026872,0.016942,0.088943,0.088943,0.18716,5.5354e-11,5.5597e-11
66675,3.6176e+07,0,5.8123e-05,7.1186e-06,7.0926e-06,0.0010142,0.026473,0.02647,0.016954,0.087511,0.08751,0.18575,5.4159e-11,5.4388e-11
68642,3.6673e+07,0,5.6982e-05,7.0427e-06,7.0227e-06,0.00099184,0.026255,0.026251,0.016985,0.086656,0.086654,0.18498,5.3116e-11,5.3332e-11
70635,3.7175e+07,0,5.548e-05,6.9775e-06,6.9768e-06,0.00097228,0.026024,0.02602,0.017036,0.086022,0.086019,0.18458,5.21e-11,5.2306e-11
72617,3.767e+07,0,5.6175e-05,7.08e-06,7.3875e-06,0.00096612,0.027486,0.027478,0.017524,0.092835,0.09283,0.19248,5.1559e-11,5.1757e-11
74574,3.8169e+07,0,0.00010338,7.6488e-06,1.0377e-05,0.00089444,0.029101,0.028609,0.017517,0.092113,0.092085,0.19165,5.0707e-11,5.0892e-11
76564,3.8668e+07,0,0.00049272,9.8903e-05,7.9392e-05,0.00032722,0.02952,0.028347,0.016957,0.092369,0.092075,0.19137,4.9879e-11,5.0379e-11
78553,3.9164e+07,0,0.00059185,0.00026587,5.1486e-05,4.3886e-05,0.028085,0.033724,0.02003,0.090712,0.090543,0.18861,4.9121e-11,5.1329e-11
80539,3.9659e+07,0,0.00054775,0.0002821,2.8695e-05,4.0275e-05,0.025486,0.032855,0.039402,0.089556,0.091357,0.1892,4.8486e-11,5.2317e-11
82490,4.0151e+07,0,0.00036526,0.00021658,0.00014203,0.00011852,0.025074,0.030586,0.074181,0.08739,0.09071,0.19978,4.792e-11,5.3248e-11
84452,4.0644e+07,0,0.00028928,0.00020811,0.00014884,0.00013889,0.023878,0.027856,0.11797,0.085148,0.088842,0.2283,4.7567e-11,5.4208e-11
86412,4.1143e+07,0,0.00025638,0.00013672,0.00015884,0.00018585,0.02383,0.026494,0.15945,0.084704,0.088321,0.28043,4.7541e-11,5.528e-11
88405,4.1643e+07,0,0.00024081,0.00012373,0.00011528,0.00021958,0.024087,0.024859,0.18462,0.084294,0.08687,0.33899,4.7631e-11,5.6261e-11
90364,4.2139e+07,0,0.00021421,0.00010386,0.00012817,0.00021895,0.024793,0.025999,0.18432,0.08329,0.084753,0.37901,4.7915e-11,5.7244e-11
92320,4.2634e+07,0,0.00018559,9.4302e-05,0.00011696,0.00023422,0.025646,0.028056,0.1695,0.082694,0.083584,0.39833,4.8337e-11,5.8197e-11
94274,4.3127e+07,0,0.00016541,8.0958e-05,0.00013693,0.00022221,0.028048,0.036414,0.16144,0.090351,0.092513,0.44746,4.9005e-11,5.9174e-11
96226,4.3621e+07,0,0.0001453,7.4827e-05,0.00010805,0.0002361,0.027648,0.043134,0.13794,0.089961,0.095582,0.43584,4.9718e-11,6.0152e-11
98148,4.4112e+07,0,0.00014094,4.4796e-05,9.9506e-05,0.00023651,0.028831,0.054647,0.11569,0.088495,0.098603,0.41058,5.0526e-11,6.111e-11
1.0012e+05,4.4608e+07,0,0.00012539,4.0648e-05,8.816e-05,0.00022071,0.026851,0.058935,0.098306,0.088556,0.10546,0.39281,5.1435e-11,6.2097e-11
1.0208e+05,4.5103e+07,0,0.00010367,2.4883e-05,7.5345e-05,0.00022402,0.099943,0.10001,0.083488,1.2771,1.2771,0.3714,5.2339e-11,6.306e-11
1.0408e+05,4.5604e+07,0,8.5803e-05,1.6791e-05,5.8682e-05,0.00026428,0.031936,0.033248,0.046927,0.43115,0.43117,0.2583,5.322e-11,6.3948e-11
1.06e+05,4.6095e+07,0,9.4935e-05,1.7555e-05,3.1642e-05,0.00026499,0.016785,0.019758,0.028141,0.21931,0.21939,0.20265,5.4021e-11,6.4706e-11
1.0797e+05,4.6591e+07,0,7.3744e-05,1.9111e-05,1.8382e-05,0.0002772,0.014098,0.020047,0.020736,0.16932,0.16979,0.18465,5.4709e-11,6.5369e-11
1.099e+05,4.7088e+07,0,6.2196e-05,1.8122e-05,1.1671e-05,0.00026583,0.011738,0.018045,0.015498,0.12596,0.12654,0.166,5.4865e-11,6.5699e-11
1.119e+05,4.7584e+07,0,8.3202e-05,1.6656e-05,1.1903e-05,0.00022635,0.012336,0.020512,0.013303,0.1118,0.11324,0.15795,5.5107e-11,6.6229e-11
1.1386e+05,4.808e+07,0,8.8087e-05,1.2937e-05,1.1292e-05,0.00019925,0.011552,0.017602,0.011624,0.093469,0.094649,0.15251,5.4359e-11,6.6349e-11
1.158e+05,4.8573e+07,0,9.9165e-05,1.177e-05,1.121e-05,0.00017655,0.01249,0.018294,0.010936,0.088751,0.090655,0.14686,5.3969e-11,6.6747e-11
1.1684e+05,1.0805e+08,0,0.00010133,4.2302e-06,4.2967e-06,0.00016539,0.0098673,0.011566,0.011059,0.050141,0.05018,0.12819,3.896e-11,3.9293e-11
1.1897e+05,1.0855e+08,0,0.00010114,4.379e-06,4.4691e-06,0.00016522,0.011507,0.020911,0.011729,0.052482,0.052579,0.14304,3.9179e-11,3.9672e-11
1.2107e+05,1.0904e+08,0,0.00010106,4.62e-06,4.7778e-06,0.00016507,0.013329,0.028719,0.012343,0.055257,0.055871,0.15852,3.9386e-11,4.0327e-11
1.2324e+05,1.0953e+08,0,0.00010105,4.8175e-06,5.1113e-06,0.00016497,0.012669,0.023997,0.012293,0.052341,0.052727,0.16981,3.9265e-11,4.1111e-11
1.2541e+05,1.1002e+08,0,0.00010134,5.1861e-06,5.5776e-06,0.00016531,0.013534,0.023749,0.012644,0.054644,0.055518,0.18288,3.9616e-11,4.2056e-11
1.2755e+05,1.1051e+08,0,0.00010122,5.5263e-06,6.0512e-06,0.00016518,0.01222,0.01835,0.012461,0.05162,0.0521,0.19408,3.9785e-11,4.3044e-11
1.2956e+05,1.1101e+08,0,0.00010102,6.004e-06,6.6202e-06,0.00016502,0.012842,0.018012,0.012744,0.054343,0.055194,0.20668,4.0304e-11,4.4053e-11
1.3168e+05,1.115e+08,0,0.000101,6.4323e-06,7.1696e-06,0.00016467,0.011423,0.014492,0.01234,0.051129,0.051631,0.21281,4.0614e-11,4.5059e-11
1.3385e+05,1.12e+08,0,0.00010099,6.9971e-06,7.8306e-06,0.00016456,0.012016,0.014585,0.012595,0.05417,0.054934,0.22439,4.1164e-11,4.6051e-11
1.3599e+05,1.1249e+08,0,0.0001009,7.4917e-06,8.4531e-06,0.00016439,0.010801,0.012355,0.012157,0.051028,0.051525,0.22827,4.1452e-11,4.6968e-11
1.3817e+05,1.1299e+08,0,0.00010121,8.068e-06,9.1295e-06,0.00016481,0.01124,0.012434,0.012373,0.053443,0.05406,0.23988,4.1963e-11,4.7888e-11
1.4021e+05,1.1349e+08,0,0.00010127,8.5409e-06,9.7274e-06,0.00016464,0.010025,0.010214,0.011118,0.050989,0.051446,0.20485,4.2207e-11,4.8643e-11
1.422e+05,1.1398e+08,0,0.00010105,8.8469e-06,1.0083e-05,0.00016433,0.010529,0.010682,0.010824,0.052993,0.053364,0.1878,4.2398e-11,4.8842e-11
1.4418e+05,1.1448e+08,0,0.00010099,8.5233e-06,9.6837e-06,0.00016413,0.010193,0.010846,0.010203,0.050254,0.050492,0.16745,4.1928e-11,4.7628e-11
1.4614e+05,1.1498e+08,0,0.00010096,8.2994e-06,9.3455e-06,0.00016401,0.011389,0.01278,0.010161,0.052797,0.052873,0.15525,4.1682e-11,4.6486e-11
1.4808e+05,1.1547e+08,0,0.00010091,7.3739e-06,8.1695e-06,0.0001638,0.0109,0.01247,0.009782,0.049893,0.04993,0.14413,4.079e-11,4.4101e-11
1.5003e+05,1.1596e+08,0,0.00010081,6.9466e-06,7.5829e-06,0.00016361,0.011862,0.013747,0.0098293,0.052305,0.052328,0.1376,4.0491e-11,4.2899e-11
1.5201e+05,1.1646e+08,0,0.0001008,6.0655e-06,6.4957e-06,0.00016346,0.011022,0.012559,0.0095317,0.049522,0.049544,0.13111,3.9636e-11,4.1024e-11
1.5396e+05,1.1696e+08,0,0.0001011,5.7613e-06,6.0903e-06,0.00016386,0.01168,0.013202,0.0096876,0.05171,0.051799,0.13123,3.9464e-11,4.0385e-11
1.559e+05,1.1745e+08,0,0.00010096,5.1487e-06,5.3619e-06,0.0001636,0.010716,0.011815,0.0094006,0.048971,0.049041,0.12668,3.9045e-11,3.9513e-11
1.5789e+05,1.1795e+08,0,0.00010087,5.008e-06,5.1678e-06,0.0001634,0.011314,0.012322,0.0094614,0.051543,0.051697,0.12477,3.9056e-11,3.9343e-11
1.5988e+05,1.1845e+08,0,0.00010086,4.9346e-06,5.0551e-06,0.00016324,0.011982,0.012887,0.0095251,0.054594,0.05485,0.12366,3.9088e-11,3.9265e-11
1.6182e+05,1.1894e+08,0,0.00010071,4.5683e-06,4.6459e-06,0.00016296,0.010817,0.011411,0.0091826,0.05109,0.051262,0.12017,3.87e-11,3.8799e-11
1.638e+05,1.1943e+08,0,0.00010111,4.5873e-06,4.6465e-06,0.0001635,0.011473,0.011981,0.0093676,0.054151,0.054389,0.12367,3.8844e-11,3.8931e-11
1.6575e+05,1.1993e+08,0,0.00010103,4.3477e-06,4.388e-06,0.00016327,0.010481,0.010804,0.0090567,0.050964,0.051129,0.12107,3.8573e-11,3.8675e-11
1.6772e+05,1.2043e+08,0,0.00010098,4.4224e-06,4.4553e-06,0.00016314,0.011159,0.011424,0.009116,0.053991,0.054191,0.12131,3.8756e-11,3.8882e-11
1.6966e+05,1.2092e+08,0,0.00010088,4.2443e-06,4.2706e-06,0.00016292,0.010239,0.010401,0.0088092,0.050754,0.050893,0.11896,3.8477e-11,3.8647e-11
1.7164e+05,1.2141e+08,0,0.00010079,4.3323e-06,4.3545e-06,0.00016258,0.01083,0.010957,0.0088316,0.05324,0.053386,0.1187,3.8691e-11,3.8892e-11
1.7363e+05,1.2191e+08,0,0.00010065,4.2046e-06,4.2252e-06,0.00016243,0.01008,0.010157,0.008589,0.050427,0.050531,0.11723,3.8581e-11,3.8824e-11
1.7561e+05,1.224e+08,0,0.00010054,4.3095e-06,4.3299e-06,0.00016211,0.010693,0.010753,0.008607,0.052849,0.052949,0.11691,3.8792e-11,3.9059e-11
1.7759e+05,1.229e+08,0,0.00010096,4.1966e-06,4.2173e-06,0.00016262,0.0099884,0.010028,0.008375,0.05015,0.05022,0.11559,3.8575e-11,3.887e-11
1.7958e+05,1.234e+08,0,0.00010085,4.3133e-06,4.3346e-06,0.00016242,0.010665,0.0107,0.0085302,0.052789,0.052852,0.11917,3.8773e-11,3.9081e-11
1.8156e+05,1.239e+08,0,0.00010074,4.1841e-06,4.2053e-06,0.00016222,0.009877,0.0099043,0.0082808,0.049736,0.049779,0.11736,3.8521e-11,3.884e-11
1.8354e+05,1.2439e+08,0,0.00010066,4.2916e-06,4.3137e-06,0.00016197,0.010504,0.010533,0.008306,0.052117,0.052152,0.11714,3.865e-11,3.8971e-11
1.8552e+05,1.2489e+08,0,0.00010056,4.1693e-06,4.1917e-06,0.00016175,0.0097713,0.0097979,0.0080791,0.049202,0.049226,0.11542,3.8396e-11,3.8715e-11
1.8751e+05,1.2539e+08,0,0.00010054,4.2818e-06,4.304e-06,0.00016158,0.01044,0.010471,0.0081307,0.051798,0.051816,0.11563,3.8519e-11,3.8833e-11
1.8946e+05,1.2588e+08,0,0.00010051,4.1687e-06,4.1911e-06,0.00016142,0.0097768,0.0098065,0.0079458,0.049169,0.049182,0.11444,3.8301e-11,3.8603e-11
1.9145e+05,1.2637e+08,0,0.00010083,4.2822e-06,4.3049e-06,0.00016189,0.01045,0.010485,0.008103,0.051678,0.051687,0.11777,3.8455e-11,3.8747e-11
1.9333e+05,1.2687e+08,0,0.00010068,4.171e-06,4.1933e-06,0.00016161,0.0097881,0.0098199,0.0079279,0.048968,0.048974,0.11625,3.8338e-11,3.8614e-11
1.9532e+05,1.2737e+08,0,0.00010107,4.2847e-06,4.2955e-06,0.00016104,0.010469,0.010506,0.0079916,0.051683,0.051688,0.11652,3.8448e-11,3.8713e-11
1.973e+05,1.2787e+08,0,9.8682e-05,4.2054e-06,4.2097e-06,0.00016298,0.0096349,0.0096673,0.0077695,0.048584,0.048588,0.11452,3.8102e-11,3.8349e-11
1.988e+05,1.7397e+08,0,4.6939e-06,4.3356e-06,4.3193e-06,0.00019858,0.010508,0.010535,0.0072481,0.051843,0.051858,0.11164,4.0784e-11,4.0265e-11
2.0094e+05,1.7447e+08,0,4.7445e-06,4.2152e-06,4.1996e-06,0.00019919,0.0099921,0.010088,0.0073919,0.04903,0.049041,0.12226,4.05e-11,4.0023e-11
2.0309e+05,1.7497e+08,0,4.7933e-06,4.3436e-06,4.3234e-06,0.0001998,0.011023,0.011255,0.0076935,0.051541,0.051558,0.13432,4.0663e-11,4.0204e-11
2.0522e+05,1.7546e+08,0,4.8414e-06,4.2689e-06,4.2297e-06,0.0002004,0.010417,0.010699,0.0077094,0.048538,0.048551,0.14435,4.0436e-11,3.9976e-11
2.074e+05,1.7596e+08,0,4.8969e-06,4.45e-06,4.386e-06,0.00020158,0.011241,0.011601,0.0079502,0.050697,0.050727,0.15698,4.0672e-11,4.0191e-11
2.0958e+05,1.7645e+08,0,4.9435e-06,4.6816e-06,4.5832e-06,0.00020211,0.012092,0.01249,0.0081732,0.053453,0.053516,0.16871,4.1064e-11,4.0547e-11
2.116e+05,1.7695e+08,0,4.9899e-06,4.7855e-06,4.6248e-06,0.00020282,0.011209,0.011532,0.0081031,0.050531,0.050581,0.1776,4.1096e-11,4.0501e-11
2.1378e+05,1.7745e+08,0,5.0317e-06,5.0911e-06,4.8781e-06,0.00020335,0.011889,0.012195,0.0082762,0.053238,0.053322,0.18793,4.1582e-11,4.0925e-11
2.1597e+05,1.7795e+08,0,5.0793e-06,5.2741e-06,4.9814e-06,0.00020405,0.010922,0.011141,0.0081664,0.050306,0.050369,0.19515,4.1724e-11,4.0967e-11
2.1814e+05,1.7844e+08,0,5.1236e-06,5.6079e-06,5.2534e-06,0.00020464,0.011458,0.011651,0.0082637,0.052693,0.052777,0.20342,4.2046e-11,4.1222e-11
2.2031e+05,1.7894e+08,0,5.1662e-06,5.8244e-06,5.3836e-06,0.00020533,0.010534,0.010659,0.0081308,0.049736,0.049797,0.20877,4.2164e-11,4.124e-11
2.2248e+05,1.7944e+08,0,5.2234e-06,6.1996e-06,5.6931e-06,0.00020601,0.011197,0.011296,0.0082627,0.052657,0.052733,0.21663,4.2543e-11,4.1558e-11
2.2461e+05,1.7994e+08,0,5.2685e-06,6.4041e-06,5.8146e-06,0.00020669,0.010352,0.010409,0.0081206,0.049689,0.049743,0.2204,4.2564e-11,4.1498e-11
2.2679e+05,1.8044e+08,0,5.3444e-06,6.5772e-06,5.9107e-06,0.00020805,0.0095474,0.0095791,0.008008,0.046835,0.046874,0.22627,4.2475e-11,4.1345e-11
2.2894e+05,1.8094e+08,0,5.3777e-06,6.9229e-06,6.1995e-06,0.00020865,0.01024,0.01026,0.0081566,0.049464,0.049505,0.23206,4.285e-11,4.1689e-11
2.3107e+05,1.8144e+08,0,5.4423e-06,7.2249e-06,6.4481e-06,0.00020919,0.01082,0.010833,0.0082473,0.051826,0.051864,0.23636,4.3018e-11,4.1835e-11
2.3317e+05,1.8194e+08,0,5.4895e-06,7.3162e-06,6.4872e-06,0.00020976,0.010132,0.010138,0.0081253,0.049005,0.04903,0.2377,4.2903e-11,4.1706e-11
2.3534e+05,1.8244e+08,0,5.5426e-06,7.5652e-06,6.6959e-06,0.00021029,0.010717,0.010724,0.0082148,0.051335,0.051356,0.24095,4.2968e-11,4.1776e-11
2.3746e+05,1.8293e+08,0,5.5892e-06,7.5616e-06,6.6604e-06,0.00021158,0.0099562,0.0099629,0.0081061,0.048259,0.048273,0.24444,4.2618e-11,4.1446e-11
2.3963e+05,1.8343e+08,0,5.6488e-06,7.8047e-06,6.8745e-06,0.00021231,0.010774,0.010785,0.0082519,0.051372,0.051382,0.24844,4.2698e-11,4.1549e-11
2.4177e+05,1.8393e+08,0,5.6862e-06,7.7168e-06,6.7765e-06,0.00021274,0.010037,0.01006,0.0079644,0.048239,0.048246,0.23651,4.2295e-11,4.1194e-11
2.4385e+05,1.8442e+08,0,5.7282e-06,7.7757e-06,6.8553e-06,0.00021346,0.011109,0.01124,0.0076099,0.05106,0.051064,0.19791,4.209e-11,4.1074e-11
2.4593e+05,1.8491e+08,0,5.778e-06,7.2295e-06,6.4358e-06,0.00021404,0.010713,0.010936,0.0072537,0.048188,0.048191,0.1709,4.1095e-11,4.0288e-11
2.4803e+05,1.8541e+08,0,5.8384e-06,6.9737e-06,6.2875e-06,0.00021538,0.011759,0.012092,0.007304,0.050714,0.050728,0.15956,4.0617e-11,3.9972e-11
2.5007e+05,1.859e+08,0,5.8826e-06,6.2137e-06,5.7062e-06,0.00021584,0.010982,0.011299,0.0071117,0.047652,0.047664,0.14455,3.9532e-11,3.9107e-11
2.5216e+05,1.8639e+08,0,5.9564e-06,5.9615e-06,5.5564e-06,0.00021727,0.011906,0.012264,0.0071792,0.050587,0.050624,0.13511,3.9175e-11,3.8868e-11
2.5424e+05,1.8688e+08,0,6e-06,5.3161e-06,5.043e-06,0.00021771,0.010854,0.011134,0.0071034,0.047439,0.047466,0.13045,3.835e-11,3.8169e-11
2.5633e+05,1.8738e+08,0,6.0418e-06,5.1661e-06,4.9599e-06,0.00021817,0.011637,0.011927,0.0073776,0.050239,0.050293,0.13394,3.8378e-11,3.8251e-11
2.5846e+05,1.8787e+08,0,6.0828e-06,4.7173e-06,4.5845e-06,0.00021859,0.010738,0.010999,0.0074514,0.04721,0.047248,0.14213,3.7873e-11,3.7789e-11
2.6061e+05,1.8838e+08,0,6.1246e-06,4.7055e-06,4.6013e-06,0.00021913,0.01169,0.012008,0.0077355,0.05008,0.050143,0.15245,3.7984e-11,3.7906e-11
2.6274e+05,1.8887e+08,0,6.1901e-06,4.472e-06,4.3842e-06,0.00022033,0.010732,0.011003,0.0077482,0.047062,0.047106,0.16192,3.7755e-11,3.7654e-11
2.6487e+05,1.8936e+08,0,6.2318e-06,4.5866e-06,4.4936e-06,0.00022084,0.011483,0.011774,0.0079553,0.049723,0.049788,0.17196,3.799e-11,3.7858e-11
2.6699e+05,1.8986e+08,0,6.2811e-06,4.5443e-06,4.4269e-06,0.00022122,0.010456,0.010677,0.0078805,0.046796,0.046842,0.17904,3.8005e-11,3.7808e-11
2.7107e+05,1.9085e+08,0,6.376e-06,5.0054e-06,4.8281e-06,0.00022291,0.011605,0.011797,0.0082196,0.051947,0.052028,0.19895,3.8712e-11,3.8412e-11
2.732e+05,1.9134e+08,0,6.4067e-06,5.115e-06,4.8863e-06,0.00022329,0.010589,0.010717,0.0080977,0.048832,0.048889,0.20417,3.8868e-11,3.8489e-11
2.7534e+05,1.9184e+08,0,6.4316e-06,5.4164e-06,5.148e-06,0.00022366,0.011183,0.011289,0.0082331,0.051551,0.051619,0.21161,3.933e-11,3.8899e-11
2.7742e+05,1.9233e+08,0,6.4902e-06,5.5549e-06,5.2314e-06,0.0002239,0.010265,0.010328,0.0081095,0.04852,0.048567,0.21546,3.9542e-11,3.904e-11
2.7955e+05,1.9283e+08,0,6.5702e-06,5.8714e-06,5.5042e-06,0.0002243,0.010922,0.01097,0.0082287,0.051334,0.051385,0.22184,3.9945e-11,3.9401e-11
2.8164e+05,1.9333e+08,0,9.0032e-06,5.9712e-06,5.5679e-06,0.00022329,0.010393,0.010414,0.0081112,0.048476,0.048512,0.22778,3.9859e-11,3.9262e-11
2.8371e+05,1.9382e+08,0,1.1391e-05,6.2594e-06,5.8544e-06,0.00022112,0.010828,0.010839,0.0079402,0.050888,0.050922,0.21406,4.0074e-11,3.9451e-11
2.8579e+05,1.9432e+08,0,1.1448e-05,6.3102e-06,5.9667e-06,0.00022168,0.010053,0.010057,0.0074051,0.04832,0.048343,0.18267,3.9938e-11,3.9284e-11
2.8784e+05,1.9482e+08,0,1.0798e-05,6.5823e-06,6.1854e-06,0.00022359,0.010724,0.010726,0.0073609,0.050739,0.050757,0.16905,4.0102e-11,3.9436e-11
2.8988e+05,1.9531e+08,0,1.0604e-05,6.5796e-06,6.2473e-06,0.00022423,0.01,0.0099995,0.0071089,0.047846,0.047858,0.15212,3.9824e-11,3.915e-11
2.9196e+05,1.958e+08,0,1.0469e-05,6.804e-06,6.4257e-06,0.00022472,0.010609,0.010607,0.0071265,0.050315,0.050323,0.14076,3.9942e-11,3.9269e-11
2.9403e+05,1.963e+08,0,9.9811e-06,6.7774e-06,6.2286e-06,0.00022641,0.0096768,0.0096722,0.0070324,0.046934,0.046938,0.13502,3.9631e-11,3.8969e-11
2.9609e+05,1.9679e+08,0,0.0010134,1.354e-05,0.00010312,0.018061,0.010355,0.0098334,0.0070978,0.049409,0.049409,0.12837,3.9695e-11,3.9047e-11
2.981e+05,1.9729e+08,0,0.00081095,1.3015e-05,8.2276e-05,0.014238,0.017616,0.01028,0.0070672,0.046516,0.046497,0.12587,3.9976e-11,3.9403e-11
3.0007e+05,1.9778e+08,0,0.00064439,1.6233e-05,6.3364e-05,0.0132,0.023845,0.013142,0.0071791,0.049234,0.04875,0.12181,4.0826e-11,4.0384e-11
3.0208e+05,1.9828e+08,0,0.00050879,2.8188e-05,3.9385e-05,0.012295,0.02028,0.016053,0.0070539,0.046086,0.045684,0.117,4.1616e-11,4.1279e-11
3.0409e+05,1.9877e+08,0,0.00049034,1.3357e-05,2.97e-05,0.010391,0.021518,0.022716,0.0072152,0.048939,0.04825,0.11782,4.2488e-11,4.2149e-11
3.0607e+05,1.9927e+08,0,0.00045661,8.3633e-06,2.8436e-05,0.0086006,0.021845,0.02193,0.0072693,0.052054,0.051328,0.11535,4.3392e-11,4.3037e-11
3.0809e+05,1.9976e+08,0,0.00043023,9.3712e-06,2.966e-05,0.0074397,0.017799,0.014666,0.0072002,0.048811,0.048284,0.11602,4.4261e-11,4.3896e-11
3.1006e+05,2.0025e+08,0,0.0004332,8.0309e-06,2.0305e-05,0.0072001,0.017241,0.014266,0.007216,0.051591,0.050717,0.11396,4.5084e-11,4.4727e-11
3.1207e+05,2.0075e+08,0,0.0004631,6.4069e-06,1.9087e-05,0.0069739,0.01394,0.01266,0.0071345,0.047892,0.047346,0.11463,4.5934e-11,4.5615e-11
3.1407e+05,2.0124e+08,0,0.00048505,6.0599e-06,1.2055e-05,0.0067779,0.011765,0.010965,0.006986,0.044927,0.04453,0.11226,4.6791e-11,4.6534e-11
3.1608e+05,2.0174e+08,0,0.00048223,7.5263e-06,9.2137e-06,0.0066921,0.011864,0.011703,0.0071224,0.047482,0.046946,0.11443,4.7635e-11,4.7437e-11
3.1809e+05,2.0223e+08,0,0.00037907,9.9916e-06,8.9649e-06,0.0065707,0.013193,0.0132,0.0071766,0.050127,0.049516,0.11346,4.8437e-11,4.8319e-11
3.2007e+05,2.0273e+08,0,0.00029803,6.3772e-06,1.1755e-05,0.0057916,0.012006,0.013134,0.007033,0.047112,0.046695,0.11171,4.9021e-11,4.9011e-11
3.2212e+05,2.0322e+08,0,0.00029858,1.1336e-05,9.6993e-06,0.0052236,0.012363,0.015256,0.0071701,0.049817,0.049493,0.1143,4.9695e-11,4.9709e-11
3.2412e+05,2.0372e+08,0,0.00026986,8.4882e-06,9.2796e-06,0.0042681,0.010914,0.013683,0.0069837,0.046309,0.046115,0.1119,5.0135e-11,5.0014e-11
3.2618e+05,2.0422e+08,0,0.00027022,6.7831e-06,2.1268e-05,0.0038536,0.010722,0.013774,0.0071267,0.049011,0.049051,0.11461,5.0759e-11,5.0465e-11
3.2818e+05,2.0472e+08,0,0.00025474,7.114e-06,1.1781e-05,0.0033974,0.009802,0.012869,0.0069968,0.046088,0.046176,0.11283,5.1157e-11,5.0465e-11
3.3016e+05,2.0521e+08,0,0.00024227,7.1921e-06,9.4606e-06,0.0031403,0.010456,0.013947,0.0070686,0.048576,0.049051,0.11222,5.1718e-11,5.07e-11
3.3166e+05,2.0571e+08,0,0.00025544,9.5416e-06,6.8834e-06,0.002829,0.009767,0.011249,0.0069878,0.045698,0.04608,0.11351,5.1813e-11,5.0226e-11
3.3368e+05,2.0621e+08,0,0.00023945,7.3504e-06,1.2725e-05,0.002748,0.010537,0.011526,0.0070327,0.048107,0.048654,0.11277,5.2023e-11,5.0086e-11
3.3569e+05,2.067e+08,0,0.00015942,7.0684e-06,1.65e-05,0.0026851,0.0098097,0.010736,0.0069449,0.044911,0.045301,0.11349,5.1841e-11,4.9336e-11
3.377e+05,2.072e+08,0,0.00013295,7.1392e-06,1.9156e-05,0.0026192,0.011466,0.011254,0.0070435,0.047743,0.048287,0.11335,5.1848e-11,4.925e-11
3.3972e+05,2.077e+08,0,0.0001371,6.9582e-06,1.5324e-05,0.002424,0.011242,0.011114,0.0069046,0.045051,0.045423,0.11164,5.0921e-11,4.8562e-11
3.4171e+05,2.082e+08,0,0.00014896,7.7734e-06,1.1732e-05,0.0022604,0.012082,0.01148,0.0070502,0.047706,0.048132,0.11426,5.0614e-11,4.8554e-11
3.4373e+05,2.0869e+08,0,0.00014958,7.351e-06,8.1601e-06,0.0021278,0.010275,0.010442,0.0069092,0.044857,0.045135,0.11225,4.9684e-11,4.805e-11
3.4574e+05,2.0918e+08,0,0.00014309,1.673e-05,6.8506e-06,0.0021098,0.010531,0.010587,0.0070262,0.047114,0.047375,0.11452,4.9315e-11,4.7653e-11
3.4772e+05,2.0968e+08,0,0.0001459,1.2826e-05,7.7672e-06,0.0019972,0.0099912,0.011877,0.0068931,0.04419,0.044346,0.1123,4.7411e-11,4.6162e-11
3.4974e+05,2.1017e+08,0,0.00013665,2.0688e-05,6.3845e-06,0.0017802,0.011826,0.015733,0.0069706,0.04677,0.04678,0.11195,4.6023e-11,4.519e-11
3.518e+05,2.1067e+08,0,8.3758e-05,1.0217e-05,7.2951e-06,0.0013056,0.012151,0.017241,0.0069557,0.044159,0.04417,0.11343,4.372e-11,4.3783e-11
3.5381e+05,2.1117e+08,0,4.9652e-05,7.0949e-06,7.8325e-06,0.0010197,0.016074,0.016716,0.0070563,0.046741,0.046883,0.11273,4.3186e-11,4.3771e-11
3.5586e+05,2.1167e+08,0,3.7816e-05,7.7965e-06,6.2398e-06,0.00073876,0.014556,0.011346,0.0069051,0.044068,0.044169,0.11093,4.2161e-11,4.3663e-11
3.5792e+05,2.1217e+08,0,3.6287e-05,1.0166e-05,7.2013e-06,0.00064241,0.014737,0.010397,0.0070258,0.046938,0.04678,0.11366,4.1872e-11,4.4035e-11
3.5993e+05,2.1267e+08,0,3.2299e-05,8.7869e-06,1.3212e-05,0.00057571,0.010813,0.010303,0.0068804,0.044137,0.043945,0.1118,4.1294e-11,4.3978e-11
3.6196e+05,2.1317e+08,0,2.7902e-05,7.9894e-06,1.4918e-05,0.00055374,0.010273,0.01238,0.0070173,0.046579,0.046198,0.11436,4.1339e-11,4.3692e-11
3.6398e+05,2.1367e+08,0,2.2815e-05,7.2435e-06,1.5503e-05,0.00050536,0.010306,0.01185,0.0068873,0.043817,0.043577,0.11253,4.1036e-11,4.2223e-11
3.6599e+05,2.1416e+08,0,2.4601e-05,6.7673e-06,8.6581e-06,0.00046338,0.01197,0.012753,0.0069275,0.045941,0.04595,0.11173,4.0983e-11,4.1327e-11
3.68e+05,2.1466e+08,0,2.1609e-05,6.2717e-06,7.086e-06,0.00042216,0.010363,0.01057,0.0068001,0.043523,0.043584,0.11027,4.0633e-11,4.0194e-11
3.7006e+05,2.1516e+08,0,1.8085e-05,6.4561e-06,7.2686e-06,0.00041266,0.010828,0.010508,0.0069296,0.04592,0.046062,0.1127,4.0643e-11,3.9964e-11
3.7208e+05,2.1565e+08,0,1.9543e-05,6.3177e-06,6.766e-06,0.00040199,0.0098489,0.0094182,0.0067923,0.043114,0.043221,0.11061,4.0136e-11,3.9375e-11
3.7414e+05,2.1615e+08,0,2.102e-05,6.9768e-06,6.0949e-06,0.00039762,0.010389,0.010139,0.0069478,0.045446,0.045505,0.1129,4.0158e-11,3.9463e-11
3.7615e+05,2.1665e+08,0,2.0307e-05,6.4594e-06,6.3296e-06,0.00039328,0.0094675,0.0097643,0.0068566,0.043096,0.043124,0.1114,3.9621e-11,3.9192e-11
3.782e+05,2.1715e+08,0,2.0917e-05,6.6693e-06,6.5221e-06,0.00038749,0.010044,0.010684,0.0069268,0.045617,0.045596,0.11102,3.9459e-11,3.9243e-11
3.8026e+05,2.1765e+08,0,2.3282e-05,6.8994e-06,6.7876e-06,0.00037895,0.010729,0.011598,0.0070643,0.048308,0.048296,0.11365,3.9319e-11,3.93e-11
3.8226e+05,2.1814e+08,0,2.1345e-05,6.3369e-06,6.9015e-06,0.0003695,0.0098818,0.010805,0.0069132,0.0451,0.045101,0.11144,3.8706e-11,3.8938e-11
3.8432e+05,2.1864e+08,0,1.7771e-05,6.3346e-06,6.3072e-06,0.0003664,0.01061,0.011528,0.007057,0.047876,0.047946,0.11427,3.8668e-11,3.9018e-11
3.8633e+05,2.1913e+08,0,1.8885e-05,6.1271e-06,6.2111e-06,0.00035513,0.0097603,0.010629,0.0069264,0.044915,0.044987,0.11224,3.8276e-11,3.8731e-11
3.8835e+05,2.1963e+08,0,1.9267e-05,6.2666e-06,6.5598e-06,0.00034977,0.010453,0.011095,0.0069747,0.047414,0.047581,0.1116,3.832e-11,3.8814e-11
3.9037e+05,2.2013e+08,0,1.8255e-05,6.2874e-06,6.4149e-06,0.00034649,0.0097213,0.010059,0.0069226,0.044711,0.044844,0.11314,3.7966e-11,3.8488e-11
3.9238e+05,2.2062e+08,0,1.3228e-05,6.3444e-06,6.0369e-06,0.00035188,0.010334,0.010487,0.006965,0.047115,0.047286,0.11237,3.8062e-11,3.8588e-11
3.944e+05,2.2112e+08,0,1.2849e-05,6.1978e-06,6.0081e-06,0.0003519,0.009645,0.009667,0.0069054,0.044183,0.044307,0.11343,3.7804e-11,3.8363e-11
3.9637e+05,2.2161e+08,0,1.4251e-05,6.2458e-06,6.7623e-06,0.00035088,0.010192,0.010205,0.0069368,0.046229,0.046353,0.11221,3.7904e-11,3.8488e-11
3.9842e+05,2.2211e+08,0,1.5996e-05,6.0736e-06,6.7687e-06,0.00035091,0.0096187,0.0096492,0.0068423,0.044036,0.044121,0.11102,3.77e-11,3.8304e-11
4.0001e+05,2.226e+08,0,1.6382e-05,6.1714e-06,7.0463e-06,0.0003525,0.01035,0.010368,0.0069916,0.046503,0.04658,0.11348,3.7929e-11,3.8526e-11
4.0202e+05,2.231e+08,0,1.7012e-05,6.0259e-06,6.794e-06,0.00035364,0.0096718,0.0096501,0.0068717,0.043684,0.043739,0.11169,3.768e-11,3.8236e-11
4.0404e+05,2.2359e+08,0,1.6278e-05,6.11e-06,6.6123e-06,0.00035644,0.010235,0.010222,0.0069899,0.045776,0.045828,0.11369,3.7823e-11,3.8344e-11
4.0605e+05,2.2408e+08,0,1.633e-05,5.9709e-06,6.7146e-06,0.00035801,0.0095163,0.0095234,0.006862,0.043196,0.043234,0.11202,3.7542e-11,3.8033e-11
4.081e+05,2.2458e+08,0,1.9337e-05,6.0667e-06,6.8241e-06,0.00035707,0.010201,0.010204,0.006938,0.045782,0.045816,0.11168,3.773e-11,3.8202e-11
4.1012e+05,2.2508e+08,0,2.0944e-05,5.9297e-06,6.6274e-06,0.00035712,0.0094161,0.0094785,0.0067874,0.042941,0.042966,0.10976,3.7392e-11,3.7856e-11
4.1213e+05,2.2557e+08,0,1.6648e-05,6.0662e-06,6.891e-06,0.00036265,0.010075,0.010146,0.0069275,0.045283,0.045307,0.11222,3.7544e-11,3.8001e-11
4.1411e+05,2.2607e+08,0,1.5853e-05,5.8917e-06,6.5563e-06,0.00036424,0.0092732,0.0093624,0.0067746,0.042443,0.042462,0.11023,3.7193e-11,3.7646e-11
4.161e+05,2.2656e+08,0,1.8575e-05,6.1535e-06,7.7241e-06,0.00036142,0.0099857,0.010067,0.0069136,0.044708,0.044732,0.1126,3.7373e-11,3.7821e-11
4.1811e+05,2.2706e+08,0,1.7291e-05,6.0111e-06,6.3354e-06,0.00036022,0.009406,0.0095259,0.0067611,0.041957,0.041976,0.11058,3.701e-11,3.7445e-11
4.2017e+05,2.2755e+08,0,1.5505e-05,5.9801e-06,5.75e-06,0.00036267,0.0099112,0.010155,0.0069222,0.044457,0.044493,0.11325,3.7239e-11,3.7686e-11
4.2219e+05,2.2805e+08,0,1.5155e-05,6.0379e-06,6.7733e-06,0.00036286,0.010515,0.010682,0.0069911,0.047028,0.047108,0.11266,3.7424e-11,3.789e-11
4.2419e+05,2.2854e+08,0,1.7212e-05,5.9451e-06,6.522e-06,0.00036102,0.0099043,0.010091,0.0069129,0.04448,0.04455,0.11124,3.7418e-11,3.7909e-11
4.2598e+05,2.2904e+08,0,1.7581e-05,6.2263e-06,7.6531e-06,0.00036023,0.010524,0.010699,0.0070296,0.046778,0.046879,0.1135,3.7546e-11,3.804e-11
4.2798e+05,2.2953e+08,0,1.5057e-05,6.1804e-06,6.1942e-06,0.00036363,0.0098521,0.0098558,0.0069079,0.044104,0.044181,0.11189,3.7355e-11,3.7844e-11
4.3e+05,2.3003e+08,0,1.5103e-05,6.116e-06,6.2704e-06,0.00036498,0.010384,0.010368,0.006928,0.046396,0.046473,0.11102,3.7404e-11,3.7897e-11
4.3201e+05,2.3052e+08,0,1.7328e-05,5.937e-06,5.897e-06,0.00036463,0.0096465,0.009653,0.0068657,0.043438,0.043493,0.11209,3.7173e-11,3.768e-11
4.3403e+05,2.3102e+08,0,1.5821e-05,6.4637e-06,6.1691e-06,0.00036758,0.010239,0.010279,0.0069294,0.045776,0.045829,0.11143,3.738e-11,3.7896e-11
4.36e+05,2.3151e+08,0,1.6047e-05,6.1133e-06,6.3788e-06,0.00036874,0.0095811,0.0097275,0.0068818,0.042968,0.043004,0.11263,3.7171e-11,3.7706e-11
4.38e+05,2.3201e+08,0,1.8163e-05,6.0459e-06,5.8288e-06,0.00036834,0.010277,0.010384,0.0069403,0.045466,0.045495,0.11216,3.729e-11,3.783e-11
4.4001e+05,2.325e+08,0,1.7163e-05,5.8202e-06,6.2877e-06,0.00036939,0.0096787,0.0095908,0.0068339,0.042995,0.043023,0.11066,3.7127e-11,3.7677e-11
4.4203e+05,2.33e+08,0,1.9187e-05,5.9606e-06,6.0732e-06,0.00036929,0.010374,0.010316,0.0069773,0.045568,0.045605,0.11336,3.7292e-11,3.7851e-11
4.4403e+05,2.3349e+08,0,1.9456e-05,5.8069e-06,5.906e-06,0.00036879,0.009646,0.0094576,0.0068145,0.042458,0.042487,0.11093,3.6988e-11,3.7574e-11
4.4605e+05,2.3399e+08,0,1.8627e-05,5.8789e-06,6.5683e-06,0.00036865,0.010424,0.010176,0.0069597,0.04503,0.045048,0.11357,3.7129e-11,3.7751e-11
4.4805e+05,2.3448e+08,0,1.7234e-05,5.9738e-06,8.6278e-06,0.00036686,0.0094765,0.0095122,0.0068465,0.042454,0.042464,0.11187,3.6931e-11,3.7611e-11
4.501e+05,2.3498e+08,0,1.5755e-05,5.899e-06,8.4295e-06,0.00037014,0.009922,0.01006,0.0069718,0.044554,0.044573,0.11408,3.7047e-11,3.7734e-11
4.5211e+05,2.3548e+08,0,1.3291e-05,5.7896e-06,7.4086e-06,0.00037487,0.0093754,0.0094411,0.0068853,0.042303,0.042324,0.11268,3.698e-11,3.7643e-11
4.5415e+05,2.3598e+08,0,1.3295e-05,5.8495e-06,8.2304e-06,0.00037601,0.0099528,0.00997,0.0069501,0.044662,0.044704,0.11193,3.7174e-11,3.7811e-11
4.562e+05,2.3648e+08,0,1.2667e-05,5.7577e-06,7.2901e-06,0.00037922,0.0093033,0.0092605,0.0068373,0.041989,0.042024,0.10997,3.7113e-11,3.7708e-11
4.582e+05,2.3697e+08,0,1.4704e-05,6.4142e-06,6.768e-06,0.00037941,0.0099583,0.0099664,0.0069748,0.044427,0.044468,0.11255,3.7297e-11,3.7864e-11
4.6024e+05,2.3747e+08,0,1.6763e-05,5.9706e-06,7.3926e-06,0.000378,0.0092502,0.0093972,0.0068384,0.041872,0.041905,0.11074,3.7054e-11,3.7624e-11
4.623e+05,2.3797e+08,0,1.7866e-05,8.5643e-06,6.7064e-06,0.00037495,0.010006,0.010649,0.0069827,0.044334,0.044373,0.1134,3.7217e-11,3.7794e-11
4.643e+05,2.3846e+08,0,1.8745e-05,5.7333e-06,6.3623e-06,0.00036754,0.0093934,0.010192,0.0068419,0.04189,0.04193,0.11172,3.686e-11,3.7452e-11
4.6627e+05,2.3895e+08,0,1.8355e-05,5.9328e-06,6.2813e-06,0.00036409,0.0099849,0.010541,0.0069535,0.04397,0.044064,0.1138,3.695e-11,3.754e-11
4.6828e+05,2.3945e+08,0,1.8223e-05,6.3585e-06,6.5825e-06,0.00036119,0.010651,0.011222,0.0070104,0.046471,0.046635,0.11303,3.7125e-11,3.7704e-11
4.7029e+05,2.3995e+08,0,1.7138e-05,5.8124e-06,6.392e-06,0.00035585,0.0098871,0.010467,0.0068881,0.043769,0.043911,0.11133,3.6958e-11,3.7482e-11
4.7231e+05,2.4044e+08,0,1.6291e-05,5.8168e-06,6.3972e-06,0.00035399,0.010398,0.01083,0.0069905,0.046037,0.046245,0.11356,3.7067e-11,3.7536e-11
4.7428e+05,2.4093e+08,0,1.603e-05,5.6951e-06,6.3058e-06,0.00035109,0.0096243,0.0098093,0.0068587,0.043202,0.04336,0.11148,3.6987e-11,3.7382e-11
4.763e+05,2.4143e+08,0,1.5815e-05,5.858e-06,6.4866e-06,0.00035105,0.010273,0.01038,0.0070071,0.045905,0.046087,0.11422,3.7237e-11,3.7601e-11
4.7831e+05,2.4192e+08,0,1.6985e-05,5.638e-06,9.7238e-06,0.00034711,0.0095847,0.0095875,0.006857,0.043058,0.04319,0.11215,3.7017e-11,3.7334e-11
4.8032e+05,2.4242e+08,0,1.7508e-05,5.7824e-06,8.7007e-06,0.00034604,0.010853,0.010302,0.006922,0.045615,0.045766,0.1115,3.7164e-11,3.7455e-11
4.8234e+05,2.4292e+08,0,1.596e-05,5.7005e-06,6.9191e-06,0.00034151,0.010192,0.0096306,0.0068747,0.042941,0.043044,0.11275,3.6907e-11,3.7199e-11
4.8438e+05,2.4341e+08,0,1.4429e-05,5.8598e-06,7.1579e-06,0.00033918,0.010626,0.010228,0.0069245,0.045369,0.045446,0.11198,3.6988e-11,3.7315e-11
4.8639e+05,2.4392e+08,0,1.2133e-05,5.7757e-06,6.8728e-06,0.00033802,0.0099024,0.0095642,0.0068992,0.042912,0.042955,0.11349,3.678e-11,3.7198e-11
4.8841e+05,2.4441e+08,0,1.1514e-05,5.8174e-06,7.09e-06,0.00033802,0.010432,0.010193,0.0069754,0.045418,0.045408,0.11286,3.6932e-11,3.7441e-11
4.9042e+05,2.4491e+08,0,1.2688e-05,5.6739e-06,6.8764e-06,0.00033615,0.0096944,0.0095633,0.006861,0.04283,0.042813,0.1111,3.6682e-11,3.7321e-11
4.9247e+05,2.4541e+08,0,1.3959e-05,5.8627e-06,5.7173e-06,0.00033647,0.010328,0.010348,0.0070158,0.045504,0.045471,0.11378,3.6848e-11,3.7563e-11
4.9449e+05,2.459e+08,0,1.4037e-05,5.8105e-06,6.2685e-06,0.00033473,0.0098905,0.0096757,0.0068629,0.042716,0.042698,0.11179,3.6521e-11,3.7271e-11
4.965e+05,2.464e+08,0,1.4197e-05,5.9126e-06,6.7689e-06,0.000324,0.011973,0.010572,0.0069504,0.045218,0.045246,0.11138,3.6718e-11,3.745e-11
4.9855e+05,2.4691e+08,0,1.6106e-05,5.6684e-06,6.0472e-06,0.00029959,0.011083,0.0098097,0.0069192,0.042879,0.042899,0.11308,3.6542e-11,3.7324e-11
5.0058e+05,2.474e+08,0,1.6952e-05,5.8441e-06,5.7563e-06,0.00029027,0.011185,0.010416,0.0069754,0.045719,0.045684,0.11291,3.6683e-11,3.7545e-11
5.0258e+05,2.479e+08,0,1.5715e-05,5.8635e-06,5.6434e-06,0.0002805,0.010301,0.0096569,0.0068331,0.042838,0.042806,0.11087,3.648e-11,3.7506e-11
5.0462e+05,2.484e+08,0,1.3719e-05,5.9916e-06,5.6988e-06,0.00027435,0.011305,0.010448,0.0069608,0.045216,0.04511,0.11313,3.6681e-11,3.7866e-11
5.0659e+05,2.4889e+08,0,1.3391e-05,5.8884e-06,5.6058e-06,0.00025948,0.010485,0.0097477,0.0068044,0.04223,0.042148,0.11086,3.6429e-11,3.7946e-11
5.0861e+05,2.4939e+08,0,1.1649e-05,5.7933e-06,5.9486e-06,0.00025182,0.011102,0.010486,0.006956,0.044959,0.044786,0.11364,3.6651e-11,3.8427e-11
5.1058e+05,2.4988e+08,0,8.5412e-06,6.024e-06,6.6455e-06,0.00024804,0.0097088,0.0095165,0.0068287,0.042693,0.042553,0.11237,3.6484e-11,3.8585e-11
5.1259e+05,2.5038e+08,0,7.5266e-06,5.9428e-06,6.6633e-06,0.0002502,0.010036,0.010062,0.0068379,0.044991,0.044843,0.11161,3.6516e-11,3.8687e-11
5.146e+05,2.5088e+08,0,9.3579e-06,5.7803e-06,6.3827e-06,0.00024946,0.0093223,0.0094625,0.0067713,0.042252,0.042153,0.11271,3.6301e-11,3.8433e-11
5.1662e+05,2.5138e+08,0,1.0211e-05,5.7699e-06,6.6451e-06,0.00024951,0.0099954,0.010189,0.0068146,0.044535,0.044478,0.11194,3.6433e-11,3.8458e-11
5.1862e+05,2.5187e+08,0,1.081e-05,5.6282e-06,6.6493e-06,0.00024836,0.0094431,0.0094964,0.006702,0.042012,0.041989,0.11026,3.6272e-11,3.8072e-11
5.2067e+05,2.5237e+08,0,1.1561e-05,5.7258e-06,6.4661e-06,0.00024803,0.010235,0.010153,0.0068322,0.044408,0.044444,0.1127,3.6411e-11,3.8028e-11
5.2268e+05,2.5286e+08,0,1.1364e-05,5.9592e-06,7.3233e-06,0.00024485,0.009667,0.0093185,0.006709,0.041664,0.041703,0.11058,3.6331e-11,3.766e-11
5.2466e+05,2.5335e+08,0,1.13e-05,5.7445e-06,6.717e-06,0.00024399,0.010507,0.009867,0.0068583,0.043846,0.043902,0.11283,3.6601e-11,3.7726e-11
5.2668e+05,2.5385e+08,0,1.0747e-05,5.8375e-06,6.3976e-06,0.00024248,0.01125,0.010477,0.0068905,0.046442,0.046467,0.11214,3.6665e-11,3.7605e-11
5.2865e+05,2.5435e+08,0,1.0683e-05,5.6959e-06,5.9269e-06,0.00023878,0.010263,0.0097351,0.0067572,0.043624,0.043633,0.11024,3.6438e-11,3.7158e-11
5.3067e+05,2.5484e+08,0,1.1412e-05,5.9243e-06,5.9271e-06,0.00023722,0.010758,0.010393,0.0068854,0.046226,0.046188,0.11268,3.6603e-11,3.7212e-11
5.3271e+05,2.5534e+08,0,1.4031e-05,5.7242e-06,5.6769e-06,0.00023356,0.010013,0.0098459,0.0067579,0.043568,0.043537,0.11105,3.634e-11,3.6831e-11
5.3472e+05,2.5583e+08,0,1.26e-05,5.8131e-06,5.7388e-06,0.00023515,0.01094,0.010937,0.0069383,0.04612,0.046087,0.11342,3.6722e-11,3.7159e-11
5.3676e+05,2.5633e+08,0,1.0311e-05,5.5997e-06,5.5783e-06,0.00023845,0.010054,0.010067,0.0067949,0.043259,0.043243,0.11145,3.6383e-11,3.6777e-11
5.3878e+05,2.5683e+08,0,8.2361e-06,5.6836e-06,5.6835e-06,0.00024198,0.010638,0.010646,0.0068596,0.046129,0.046126,0.11118,3.6517e-11,3.6886e-11
5.4079e+05,2.5733e+08,0,1.0138e-05,5.5472e-06,5.4925e-06,0.00024172,0.009705,0.0097163,0.0067964,0.043106,0.043108,0.11213,3.6306e-11,3.6647e-11
5.4279e+05,2.5782e+08,0,1.1932e-05,5.7287e-06,5.6103e-06,0.00024115,0.010155,0.010186,0.0068682,0.045654,0.045665,0.11154,3.6554e-11,3.6873e-11
5.4484e+05,2.5832e+08,0,9.1325e-06,5.7128e-06,5.5977e-06,0.00024528,0.0092466,0.0092833,0.0068171,0.04295,0.042966,0.11288,3.6414e-11,3.6711e-11
5.4684e+05,2.5881e+08,0,8.8722e-06,5.8397e-06,5.6519e-06,0.00024758,0.0097701,0.0098377,0.0068719,0.045372,0.045405,0.11226,3.6655e-11,3.6936e-11
5.4884e+05,2.593e+08,0,1.0859e-05,5.7113e-06,5.6579e-06,0.00024676,0.0090931,0.0091468,0.0067313,0.042406,0.042439,0.11012,3.6523e-11,3.6796e-11
5.5086e+05,2.598e+08,0,1.4202e-05,7.504e-06,5.726e-06,0.0002429,0.0098739,0.010061,0.0068637,0.044774,0.044835,0.11265,3.6695e-11,3.6968e-11
5.5287e+05,2.6029e+08,0,1.3559e-05,6.2307e-06,5.8854e-06,0.00023994,0.0093674,0.0098753,0.0067297,0.042026,0.042085,0.11069,3.6429e-11,3.6701e-11
5.5489e+05,2.608e+08,0,1.0835e-05,6.2581e-06,6.0853e-06,0.00023837,0.010058,0.010773,0.006869,0.044418,0.044547,0.11324,3.6581e-11,3.6824e-11
5.5691e+05,2.6129e+08,0,1.0991e-05,6.0607e-06,6.1127e-06,0.0002319,0.0094558,0.010231,0.0067739,0.04207,0.042188,0.11167,3.6509e-11,3.666e-11
5.5888e+05,2.6179e+08,0,1.2906e-05,6.0142e-06,6.0673e-06,0.00022561,0.010118,0.011006,0.0068413,0.044581,0.044804,0.11116,3.6711e-11,3.6764e-11
5.6093e+05,2.6229e+08,0,1.12e-05,5.8684e-06,5.8452e-06,0.00022177,0.0093641,0.0099247,0.0067933,0.041867,0.042051,0.11232,3.6644e-11,3.6529e-11
5.6295e+05,2.6278e+08,0,9.8077e-06,5.9848e-06,6.015e-06,0.00022123,0.0099604,0.010423,0.0068429,0.044191,0.044445,0.11161,3.6845e-11,3.662e-11
5.6496e+05,2.6328e+08,0,8.3749e-06,5.7055e-06,5.7023e-06,0.00022071,0.0093839,0.009591,0.0067661,0.041884,0.042092,0.11022,3.692e-11,3.6543e-11
5.6698e+05,2.6378e+08,0,9.1754e-06,6.2415e-06,5.887e-06,0.00021963,0.0099301,0.0099449,0.006895,0.044322,0.044528,0.11289,3.71e-11,3.669e-11
5.6904e+05,2.6428e+08,0,9.7963e-06,1.0732e-05,6.4322e-06,0.00021197,0.0093935,0.010302,0.0068059,0.042034,0.042162,0.11157,3.6914e-11,3.6642e-11
5.7071e+05,2.6478e+08,0,1.0452e-05,8.4978e-06,6.5005e-06,0.00020338,0.010194,0.012793,0.0068671,0.044264,0.044303,0.11084,3.6812e-11,3.675e-11
5.7272e+05,2.6527e+08,0,1.077e-05,6.9569e-06,6.8272e-06,0.00018068,0.0097781,0.012287,0.0068561,0.041493,0.041526,0.11204,3.6531e-11,3.6629e-11
5.7477e+05,2.6577e+08,0,7.8974e-06,7.6392e-06,6.335e-06,0.00016788,0.010786,0.013605,0.0069551,0.043797,0.043935,0.11135,3.6813e-11,3.6851e-11
5.7678e+05,2.6627e+08,0,6.9976e-06,6.2293e-06,5.7951e-06,0.00014908,0.010122,0.012082,0.0068593,0.041488,0.041628,0.11003,3.6933e-11,3.6669e-11
5.7881e+05,2.6677e+08,0,6.8468e-06,5.9343e-06,5.6282e-06,0.00014083,0.010465,0.011958,0.0070101,0.044145,0.04446,0.11301,3.7463e-11,3.6911e-11
5.8082e+05,2.6727e+08,0,6.0895e-06,6.0248e-06,5.4927e-06,0.00013709,0.0091768,0.0096334,0.006779,0.041029,0.041265,0.11056,3.7553e-11,3.6662e-11
5.8284e+05,2.6777e+08,0,5.5183e-06,6.095e-06,6.7022e-06,0.00013725,0.0099215,0.0099617,0.0068386,0.043396,0.043691,0.11015,3.7948e-11,3.6946e-11
5.8481e+05,2.6826e+08,0,4.5258e-06,6.4951e-06,5.5841e-06,0.00013836,0.009506,0.009186,0.0068082,0.040856,0.041081,0.11153,3.7949e-11,3.7008e-11
5.8679e+05,2.6875e+08,0,5.3643e-06,6.7497e-06,5.7529e-06,0.00013779,0.0098881,0.0099687,0.0068275,0.043063,0.043251,0.11085,3.799e-11,3.7167e-11
5.888e+05,2.6924e+08,0,6.7515e-06,6.663e-06,5.7171e-06,0.00013676,0.010542,0.010992,0.0069456,0.045451,0.04556,0.11322,3.8013e-11,3.7342e-11
5.9078e+05,2.6974e+08,0,6.2127e-06,6.3816e-06,5.714e-06,0.00013452,0.0099777,0.010315,0.0067896,0.042414,0.042481,0.11111,3.744e-11,3.7083e-11
5.9279e+05,2.7023e+08,0,4.8287e-06,7.3467e-06,5.8042e-06,0.00013254,0.010752,0.011479,0.0068509,0.044974,0.045027,0.11059,3.7412e-11,3.7264e-11
5.9478e+05,2.7072e+08,0,4.3553e-06,6.3212e-06,5.8378e-06,0.00012776,0.01006,0.010831,0.0068098,0.042135,0.042185,0.1117,3.6999e-11,3.7108e-11
5.9679e+05,2.7122e+08,0,5.7089e-06,6.0544e-06,5.7829e-06,0.00012301,0.011454,0.01143,0.0069243,0.04502,0.0451,0.11152,3.7146e-11,3.7384e-11
5.9877e+05,2.7172e+08,0,8.1718e-06,5.6761e-06,5.5438e-06,0.00011483,0.010386,0.010125,0.0068475,0.042069,0.042127,0.11259,3.6788e-11,3.7191e-11
6.0079e+05,2.7222e+08,0,7.1678e-06,5.7659e-06,5.7122e-06,0.00011394,0.01092,0.010623,0.0069423,0.044956,0.044984,0.11249,3.7073e-11,3.7557e-11
6.0283e+05,2.7272e+08,0,3.8673e-06,5.6232e-06,5.5903e-06,0.00011576,0.009863,0.0096514,0.0067998,0.042113,0.042128,0.11063,3.6885e-11,3.7464e-11
6.0488e+05,2.7321e+08,0,3.2854e-06,5.7303e-06,7.7875e-06,0.00011483,0.010148,0.010201,0.0069006,0.04433,0.044332,0.11276,3.7055e-11,3.7677e-11
6.0686e+05,2.7371e+08,0,3.7475e-06,5.5835e-06,9.3054e-06,0.00011211,0.010127,0.0096893,0.0067887,0.041926,0.04196,0.11143,3.6996e-11,3.7465e-11
6.0886e+05,2.742e+08,0,3.6742e-06,5.6635e-06,8.1278e-06,0.00011054,0.011651,0.010308,0.0069064,0.043867,0.044026,0.1134,3.7075e-11,3.7317e-11
6.1088e+05,2.747e+08,0,2.9372e-06,5.5098e-06,7.5423e-06,0.0001047,0.011295,0.0094626,0.0067856,0.041002,0.041123,0.11115,3.6882e-11,3.6859e-11
6.1286e+05,2.7519e+08,0,2.8332e-06,5.591e-06,7.6051e-06,9.9826e-05,0.012607,0.010029,0.0068808,0.043429,0.043485,0.11047,3.7054e-11,3.6959e-11
6.1484e+05,2.7568e+08,0,3.8348e-06,5.526e-06,6.898e-06,9.1113e-05,0.011825,0.00938,0.00689,0.041143,0.041135,0.11209,3.6888e-11,3.685e-11
6.169e+05,2.7618e+08,0,4.5653e-06,5.7365e-06,6.4731e-06,8.6402e-05,0.012493,0.010162,0.0070027,0.044031,0.043795,0.11182,3.7083e-11,3.717e-11
6.1894e+05,2.7668e+08,0,4.4669e-06,5.5541e-06,5.7174e-06,8.1693e-05,0.0109,0.0094667,0.0068765,0.041324,0.041117,0.10986,3.687e-11,3.7233e-11
6.2099e+05,2.7718e+08,0,4.175e-06,5.9405e-06,5.6122e-06,8.0542e-05,0.010843,0.0099647,0.0069717,0.043763,0.043413,0.11225,3.7007e-11,3.7568e-11
6.23e+05,2.7768e+08,0,3.0909e-06,5.5632e-06,5.7147e-06,8.1259e-05,0.0095067,0.0093202,0.0068245,0.04138,0.041099,0.11086,3.6827e-11,3.7616e-11
6.2505e+05,2.7818e+08,0,2.7445e-06,5.697e-06,5.8307e-06,8.2483e-05,0.0094915,0.0095551,0.0069092,0.043705,0.043433,0.11337,3.6927e-11,3.777e-11
6.2702e+05,2.7867e+08,0,2.9463e-06,5.7081e-06,6.3583e-06,8.2461e-05,0.0086257,0.0085763,0.0067534,0.040796,0.040616,0.1113,3.6861e-11,3.7689e-11
6.2903e+05,2.7916e+08,0,2.878e-06,5.9217e-06,6.1211e-06,8.3196e-05,0.0096685,0.0092662,0.0068073,0.042995,0.042924,0.11074,3.7111e-11,3.7855e-11
6.3104e+05,2.7965e+08,0,3.4578e-06,6.2863e-06,6.1323e-06,8.2282e-05,0.010685,0.010221,0.0069093,0.044863,0.044869,0.11247,3.7284e-11,3.7929e-11
6.3305e+05,2.8015e+08,0,3.3129e-06,6.0326e-06,5.8769e-06,8.1432e-05,0.010168,0.0099877,0.0068062,0.042512,0.042531,0.11106,3.7059e-11,3.7575e-11
6.3506e+05,2.8064e+08,0,2.963e-06,6.0645e-06,5.9866e-06,8.1696e-05,0.010595,0.010578,0.0069176,0.044853,0.044891,0.11322,3.712e-11,3.7572e-11
6.3708e+05,2.8114e+08,0,2.9833e-06,6.1087e-06,6.453e-06,8.0747e-05,0.010466,0.01006,0.0068176,0.042476,0.042504,0.11166,3.6926e-11,3.7325e-11
6.3905e+05,2.8163e+08,0,3.4156e-06,6.0481e-06,6.1747e-06,8.0072e-05,0.01234,0.011006,0.0069395,0.044929,0.044902,0.11375,3.6904e-11,3.7305e-11
6.4106e+05,2.8212e+08,0,2.9814e-06,5.7631e-06,5.8134e-06,7.88e-05,0.010784,0.010074,0.0069566,0.042095,0.042062,0.11867,3.6518e-11,3.7025e-11
6.4307e+05,2.8262e+08,0,3.0151e-06,5.9199e-06,5.7581e-06,7.8891e-05,0.01132,0.010705,0.0072583,0.044961,0.044855,0.13041,3.6548e-11,3.7134e-11
6.4504e+05,2.8312e+08,0,3.0704e-06,5.9482e-06,5.5704e-06,7.8267e-05,0.010353,0.010023,0.0073357,0.042176,0.042092,0.14136,3.6232e-11,3.6955e-11
6.4705e+05,2.8361e+08,0,3.4159e-06,5.7564e-06,5.9353e-06,7.7964e-05,0.010836,0.010739,0.0075489,0.044241,0.044117,0.15189,3.6451e-11,3.7256e-11
6.4902e+05,2.841e+08,0,3.6871e-06,5.5434e-06,5.5489e-06,7.7962e-05,0.0097053,0.0098602,0.0075508,0.041584,0.041502,0.16222,3.6251e-11,3.7106e-11
6.5107e+05,2.846e+08,0,3.5506e-06,5.6238e-06,5.6205e-06,7.8878e-05,0.010173,0.01034,0.0077172,0.043973,0.043914,0.17257,3.6429e-11,3.7284e-11
6.5308e+05,2.8509e+08,0,3.2848e-06,5.5388e-06,5.4732e-06,7.9893e-05,0.009529,0.0096657,0.0076534,0.041574,0.04155,0.18035,3.6398e-11,3.7219e-11
6.5512e+05,2.8559e+08,0,3.3237e-06,5.6211e-06,5.5798e-06,8.0931e-05,0.010102,0.010206,0.0078275,0.044088,0.044111,0.19207,3.6577e-11,3.735e-11
6.5714e+05,2.8609e+08,0,3.3425e-06,5.4982e-06,5.4661e-06,8.2067e-05,0.0093701,0.0094195,0.0077119,0.041416,0.041446,0.19781,3.6468e-11,3.7166e-11
6.5919e+05,2.8659e+08,0,3.358e-06,5.6e-06,5.5719e-06,8.3165e-05,0.009964,0.0099856,0.0078474,0.043724,0.043787,0.20798,3.6587e-11,3.7227e-11
6.6125e+05,2.8708e+08,0,3.3592e-06,5.4975e-06,5.4623e-06,8.423e-05,0.0093019,0.0092919,0.0077226,0.041244,0.041301,0.21253,3.6428e-11,3.6987e-11
6.6331e+05,2.8757e+08,0,3.3948e-06,5.6065e-06,5.5676e-06,8.5392e-05,0.0098971,0.0098709,0.0078272,0.043368,0.043438,0.21832,3.668e-11,3.7187e-11
6.6532e+05,2.8806e+08,0,3.4212e-06,5.499e-06,5.4491e-06,8.6374e-05,0.0091971,0.0091634,0.0077305,0.040741,0.040797,0.22396,3.6507e-11,3.6941e-11
6.6743e+05,2.8856e+08,0,3.44e-06,5.6184e-06,5.5644e-06,8.7518e-05,0.0098879,0.009846,0.0077216,0.043207,0.043266,0.21992,3.6765e-11,3.7155e-11
6.6956e+05,2.8906e+08,0,3.4587e-06,5.6979e-06,5.645e-06,8.8918e-05,0.010813,0.010765,0.0073842,0.045953,0.046003,0.18782,3.7079e-11,3.7432e-11
6.7163e+05,2.8956e+08,0,3.4749e-06,5.4026e-06,5.3522e-06,9.0187e-05,0.010267,0.010229,0.0070355,0.043204,0.043236,0.16466,3.6935e-11,3.7239e-11
6.7371e+05,2.9005e+08,0,3.4895e-06,5.0413e-06,4.9948e-06,9.1507e-05,0.009667,0.0096397,0.0068828,0.040638,0.040659,0.15387,3.6776e-11,3.7037e-11
6.7579e+05,2.9055e+08,0,3.5101e-06,4.9765e-06,4.9345e-06,9.2925e-05,0.010461,0.010438,0.0068952,0.043012,0.043024,0.14203,3.6991e-11,3.7227e-11
6.7791e+05,2.9105e+08,0,3.5325e-06,4.6332e-06,4.5954e-06,9.455e-05,0.0097867,0.0097719,0.0067701,0.040739,0.040746,0.13239,3.6933e-11,3.7135e-11
6.7999e+05,2.9155e+08,0,3.5562e-06,4.6086e-06,4.5741e-06,9.6013e-05,0.010486,0.010474,0.0069211,0.043131,0.043134,0.12965,3.73e-11,3.7481e-11
6.8207e+05,2.9204e+08,0,3.5822e-06,4.6056e-06,4.5739e-06,9.7601e-05,0.011187,0.011177,0.0069938,0.046011,0.046009,0.12442,3.7561e-11,3.7723e-11
6.8419e+05,2.9254e+08,0,3.6103e-06,4.3466e-06,4.3167e-06,9.932e-05,0.010272,0.010265,0.0068873,0.043384,0.043382,0.11925,3.7547e-11,3.7683e-11
6.8632e+05,2.9304e+08,0,3.6417e-06,4.394e-06,4.3652e-06,0.00010093,0.010912,0.010905,0.0069689,0.046264,0.046259,0.11615,3.7854e-11,3.7973e-11
6.8842e+05,2.9354e+08,0,3.6519e-06,4.2288e-06,4.1945e-06,0.00010263,0.010134,0.010129,0.0069463,0.044051,0.044048,0.11637,3.7846e-11,3.7942e-11
6.9054e+05,2.9404e+08,0,3.6897e-06,4.3096e-06,4.2685e-06,0.00010422,0.010688,0.010683,0.0070049,0.046625,0.04662,0.11406,3.8125e-11,3.8208e-11
6.9262e+05,2.9454e+08,0,3.7291e-06,4.1911e-06,4.1463e-06,0.00010614,0.0099835,0.0099788,0.0069063,0.044533,0.044529,0.11188,3.8092e-11,3.8156e-11
6.947e+05,2.9503e+08,0,3.7497e-06,4.2806e-06,4.234e-06,0.00010779,0.01051,0.010504,0.0070154,0.046999,0.046994,0.11336,3.8282e-11,3.8334e-11
6.968e+05,2.9553e+08,0,3.7818e-06,4.1732e-06,4.136e-06,0.00010961,0.0098918,0.0098873,0.0069211,0.045,0.044996,0.11184,3.8202e-11,3.8238e-11
6.9889e+05,2.9602e+08,0,3.8187e-06,4.2789e-06,4.2412e-06,0.00011135,0.010484,0.010479,0.0069644,0.047638,0.047633,0.11098,3.8333e-11,3.836e-11
7.0098e+05,2.9652e+08,0,3.8594e-06,4.1518e-06,4.113e-06,0.00011325,0.0096728,0.0096688,0.006816,0.044747,0.044744,0.10885,3.8106e-11,3.8121e-11
7.0308e+05,2.9701e+08,0,4.1022e-06,4.3563e-06,4.2686e-06,0.00011473,0.010498,0.010493,0.0069624,0.047636,0.047632,0.11162,3.8278e-11,3.8286e-11
7.0514e+05,2.9751e+08,0,9.5199e-06,3.9054e-06,9.4758e-06,0.00010589,0.010307,0.010536,0.0068156,0.044926,0.044923,0.10982,3.7841e-11,3.783e-11
7.0723e+05,2.98e+08,0,1.9827e-06,3.775e-06,2.1886e-05,0.00010139,0.010754,0.010913,0.0068737,0.048422,0.048448,0.10981,3.8142e-11,3.8117e-11
7.0932e+05,2.9849e+08,0,3.5413e-05,2.2397e-05,1.531e-05,5.7672e-05,0.011348,0.011417,0.0067029,0.049331,0.049373,0.1079,3.8384e-11,3.8382e-11
7.1142e+05,2.9899e+08,0,5.3263e-05,3.3691e-05,7.2304e-06,3.7076e-05,0.013005,0.012933,0.0070625,0.055204,0.055296,0.1108,3.8737e-11,3.8741e-11
7.1351e+05,2.9949e+08,0,5.5797e-05,2.8135e-05,1.0346e-05,3.6266e-05,0.01226,0.012313,0.0073393,0.054029,0.054116,0.10968,3.8698e-11,3.8675e-11
7.156e+05,2.9998e+08,0,5.4322e-05,2.0471e-05,1.2728e-05,4.3057e-05,0.012463,0.012504,0.0078664,0.057233,0.057342,0.10903,3.8903e-11,3.8827e-11
7.1766e+05,3.0047e+08,0,5.7182e-05,2.5314e-05,1.2567e-05,3.5309e-05,0.010789,0.01081,0.0082959,0.053537,0.053605,0.10811,3.9088e-11,3.8921e-11
7.1975e+05,3.0097e+08,0,5.418e-05,2.8411e-05,9.8019e-06,3.8448e-05,0.011637,0.01177,0.0091975,0.058023,0.058112,0.11183,3.9676e-11,3.945e-11
7.2185e+05,3.0147e+08,0,5.0489e-05,2.1546e-05,1.0421e-05,4.8457e-05,0.010671,0.01069,0.0095154,0.055065,0.055134,0.11086,4.0116e-11,3.9802e-11
7.2391e+05,3.0196e+08,0,4.5774e-05,2.0405e-05,1.1094e-05,5.4817e-05,0.011747,0.011819,0.010147,0.05967,0.059752,0.11176,4.088e-11,4.0533e-11
7.2601e+05,3.0246e+08,0,4.2846e-05,1.4442e-05,1.3801e-05,6.2336e-05,0.01314,0.013209,0.010567,0.065629,0.065727,0.11289,4.1583e-11,4.1231e-11
7.2809e+05,3.0295e+08,0,4.1338e-05,1.4207e-05,1.4763e-05,6.3782e-05,0.012661,0.012983,0.0098011,0.064556,0.064646,0.11592,4.2222e-11,4.191e-11
