LineNo,TimeUS,C,V12,V13,V14,V15,V16,V17,V18,V19,V20,V21,V22,V23
3407,2.0304e+07,0,8.2201e-08,6.1525e-06,6.1525e-06,6.8983e-07,0,0,0,0,0,0,0,0
5399,2.08e+07,0,7.0903e-08,6.1525e-06,6.1525e-06,5.4118e-07,0,0,0,0,0,0,0,0
7379,2.1294e+07,0,6.1313e-08,6.1525e-06,6.1525e-06,4.3241e-07,0,0,0,0,0,0,0,0
9365,2.1794e+07,0,5.3184e-08,6.1525e-06,6.1525e-06,3.5005e-07,0,0,0,0,0,0,0,0
11224,2.2294e+07,0,4.631e-08,6.1525e-06,6.1525e-06,2.871e-07,0,0,0,0,0,0,0,0
13196,2.2787e+07,0,4.0488e-08,6.1525e-06,6.1525e-06,2.3752e-07,0,0,0,0,0,0,0,0
15175,2.3281e+07,0,3.5526e-08,6.1525e-06,6.1525e-06,1.9828e-07,0,0,0,0,0,0,0,0
17125,2.3777e+07,0,3.1304e-08,6.1525e-06,6.1525e-06,1.6698e-07,0,0,0,0,0,0,0,0
19078,2.4268e+07,0,2.7695e-08,6.1525e-06,6.1525e-06,1.418e-07,0,0,0,0,0,0,0,0
21063,2.4759e+07,0,2.5191e-08,6.1525e-06,6.1525e-06,1.2515e-07,0,0,0,0,0,0,0,0
23054,2.5255e+07,0,2.2455e-08,6.1525e-06,6.1525e-06,1.079e-07,0,0,0,0,0,0,0,0
25046,2.5747e+07,0,2.0079e-08,6.1525e-06,6.1525e-06,9.3719e-08,0,0,0,0,0,0,0,0
27028,2.6243e+07,0,1.8016e-08,6.1525e-06,6.1525e-06,8.2047e-08,0,0,0,0,0,0,0,0
29010,2.6739e+07,0,1.6225e-08,6.1525e-06,6.1525e-06,7.2378e-08,0,0,0,0,0,0,0,0
31028,2.724e+07,0,1.4661e-08,6.1525e-06,6.1525e-06,6.4332e-08,0,0,0,0,0,0,0,0
33006,2.7737e+07,0,1.3291e-08,6.1525e-06,6.1525e-06,6.1525e-08,0,0,0,0,0,0,0,0
34993,2.8236e+07,0,1.2081e-08,6.1525e-06,6.1525e-06,6.1525e-08,0,0,0,0,0,0,0,0
36978,2.8734e+07,0,1.1216e-08,6.1525e-06,6.1525e-06,6.1527e-08,0,0,0,0,0,0,0,0
38951,2.9226e+07,0,1.0245e-08,6.1525e-06,6.1525e-06,6.1526e-08,0,0,0,0,0,0,0,0
40926,2.9716e+07,0,9.3823e-09,6.1525e-06,6.1525e-06,6.1526e-08,0,0,0,0,0,0,0,0
42905,3.021e+07,0,8.6129e-09,6.1525e-06,6.1525e-06,6.1526e-08,0,0,0,0,0,0,0,0
44897,3.0707e+07,0,7.926e-09,6.1525e-06,6.1525e-06,6.1525e-08,0,0,0,0,0,0,0,0
46877,3.1206e+07,0,7.3103e-09,6.1525e-06,6.1525e-06,6.1525e-08,0,0,0,0,0,0,0,0
48866,3.17e+07,0,6.755e-09,6.1525e-06,6.1525e-06,6.1525e-08,0,0,0,0,0,0,0,0
50865,3.2203e+07,0,6.2541e-09,6.1525e-06,6.1525e-06,6.1525e-08,0,0,0,0,0,0,0,0
52851,3.2698e+07,0,5.8882e-09,6.1525e-06,6.1525e-06,6.1526e-08,0,0,0,0,0,0,0,0
54868,3.3198e+07,0,5.4698e-09,6.1525e-06,6.1525e-06,6.1526e-08,0,0,0,0,0,0,0,0
56858,3.3697e+07,0,5.09e-09,6.1525e-06,6.1525e-06,6.1526e-08,0,0,0,0,0,0,0,0
58842,3.4196e+07,0,4.7449e-09,6.1525e-06,6.1525e-06,6.1526e-08,0,0,0,0,0,0,0,0
60821,3.4692e+07,0,4.43e-09,6.1525e-06,6.1525e-06,6.1526e-08,0,0,0,0,0,0,0,0
62793,3.5188e+07,0,4.142e-09,6.1525e-06,6.1525e-06,6.1526e-08,0,0,0,0,0,0,0,0
64768,3.5685e+07,0,3.8784e-09,6.1525e-06,6.1525e-06,6.1525e-08,0,0,0,0,0,0,0,0
66676,3.6176e+07,0,3.6367e-09,6.1525e-06,6.1525e-06,6.1525e-08,0,0,0,0,0,0,0,0
68643,3.6673e+07,0,3.415e-09,6.1525e-06,6.1525e-06,6.1525e-08,0,0,0,0,0,0,0,0
70636,3.7175e+07,0,3.2107e-09,6.1525e-06,6.1525e-06,6.1525e-08,0,0,0,0,0,0,0,0
72618,3.767e+07,0,3.0592e-09,6.1525e-06,6.1525e-06,6.1526e-08,0,0,0,0,0,0,0,0
74575,3.8169e+07,0,2.8827e-09,6.1525e-06,6.1525e-06,6.1526e-08,0,0,0,0,0,0,0,0
76565,3.8668e+07,0,2.7188e-09,6.1525e-06,6.1525e-06,6.1527e-08,0,0,0,0,0,0,0,0
78554,3.9164e+07,0,2.5635e-09,6.1525e-06,6.1523e-06,6.1527e-08,0,0,0,0,0,0,0,0
80540,3.9659e+07,0,2.4113e-09,6.1525e-06,6.1427e-06,6.1527e-08,0,0,0,0,0,0,0,0
82491,4.0151e+07,0,2.275e-09,6.1525e-06,6.0666e-06,6.1527e-08,0,0,0,0,0,0,0,0
84453,4.0644e+07,0,2.1618e-09,6.1525e-06,5.802e-06,6.1527e-08,0,0,0,0,0,0,0,0
86413,4.1143e+07,0,2.0648e-09,6.1525e-06,5.2276e-06,6.1527e-08,0,0,0,0,0,0,0,0
88406,4.1643e+07,0,1.9765e-09,6.1525e-06,4.3588e-06,6.1527e-08,0,0,0,0,0,0,0,0
90365,4.2139e+07,0,1.8895e-09,6.1525e-06,3.3905e-06,6.1527e-08,0,0,0,0,0,0,0,0
92321,4.2634e+07,0,1.7951e-09,6.1525e-06,2.5133e-06,6.1527e-08,0,0,0,0,0,0,0,0
94275,4.3127e+07,0,1.7088e-09,6.1525e-06,1.9577e-06,6.1527e-08,0,0,0,0,0,0,0,0
96227,4.3621e+07,0,1.5763e-09,6.1525e-06,1.433e-06,6.1527e-08,0,0,0,0,0,0,0,0
98149,4.4112e+07,0,1.4146e-09,6.1525e-06,1.0642e-06,6.1527e-08,0,0,0,0,0,0,0,0
1.0012e+05,4.4608e+07,0,1.2268e-09,6.1525e-06,8.0815e-07,6.1527e-08,0,0,0,0,0,0,0,0
1.0208e+05,4.5103e+07,0,1.0337e-09,6.1525e-06,6.2887e-07,6.1527e-08,0,0,0,0,0,0,0,0
1.0408e+05,4.5604e+07,0,1.0058e-09,6.1525e-06,3.7199e-07,6.1527e-08,0,0,0,0,0,0,0,0
1.06e+05,4.6095e+07,0,9.1034e-10,6.1525e-06,2.8847e-07,6.1527e-08,0,0,0,0,0,0,0,0
1.0797e+05,4.6591e+07,0,7.9757e-10,6.1525e-06,2.8847e-07,6.153e-08,0,0,0,0,0,0,0,0
1.099e+05,4.7088e+07,0,6.2463e-10,6.1525e-06,2.8847e-07,6.1525e-08,0,0,0,0,0,0,0,0
1.119e+05,4.7584e+07,0,5.178e-10,6.1525e-06,2.8847e-07,6.1528e-08,0,0,0,0,0,0,0,0
1.1386e+05,4.808e+07,0,3.9208e-10,6.1525e-06,2.8847e-07,6.1525e-08,0,0,0,0,0,0,0,0
1.1581e+05,4.8573e+07,0,3.3282e-10,6.1525e-06,2.8847e-07,6.1526e-08,0,0,0,0,0,0,0,0
1.1684e+05,1.0805e+08,0,1.2233e-10,6.0354e-06,2.8821e-07,6.0567e-08,0,0,0,0,0,0,0,0
1.1897e+05,1.0855e+08,0,1.2204e-10,5.1031e-06,2.857e-07,5.8381e-08,0,0,0,0,0,0,0,0
1.2107e+05,1.0904e+08,0,1.2172e-10,3.7358e-06,2.7991e-07,5.6099e-08,0,0,0,0,0,0,0,0
1.2324e+05,1.0953e+08,0,1.2136e-10,2.2347e-06,2.6633e-07,5.2775e-08,0,0,0,0,0,0,0,0
1.2541e+05,1.1002e+08,0,1.213e-10,1.6578e-06,2.5557e-07,5.0467e-08,0,0,0,0,0,0,0,0
1.2755e+05,1.1051e+08,0,1.2103e-10,1.1584e-06,2.3937e-07,4.7318e-08,0,0,0,0,0,0,0,0
1.2956e+05,1.1101e+08,0,1.2077e-10,9.6707e-07,2.2977e-07,4.5156e-08,0,0,0,0,0,0,0,0
1.3168e+05,1.115e+08,0,1.2051e-10,7.8894e-07,2.1776e-07,4.2235e-08,0,0,0,0,0,0,0,0
1.3385e+05,1.12e+08,0,1.2025e-10,7.1372e-07,2.1141e-07,4.0289e-08,0,0,0,0,0,0,0,0
1.3599e+05,1.1249e+08,0,1.1995e-10,6.3926e-07,2.041e-07,3.7718e-08,0,0,0,0,0,0,0,0
1.3817e+05,1.1299e+08,0,1.1993e-10,6.0668e-07,2.0052e-07,3.6078e-08,0,0,0,0,0,0,0,0
1.4021e+05,1.1349e+08,0,1.1974e-10,5.9444e-07,1.991e-07,3.3291e-08,0,0,0,0,0,0,0,0
1.422e+05,1.1398e+08,0,1.1948e-10,5.9444e-07,1.991e-07,3.1651e-08,0,0,0,0,0,0,0,0
1.4419e+05,1.1448e+08,0,1.1929e-10,5.9444e-07,1.991e-07,2.97e-08,0,0,0,0,0,0,0,0
1.4615e+05,1.1498e+08,0,1.1899e-10,5.9444e-07,1.991e-07,2.8392e-08,0,0,0,0,0,0,0,0
1.4808e+05,1.1547e+08,0,1.1873e-10,5.9444e-07,1.991e-07,2.6834e-08,0,0,0,0,0,0,0,0
1.5003e+05,1.1596e+08,0,1.1847e-10,5.9444e-07,1.991e-07,2.5742e-08,0,0,0,0,0,0,0,0
1.5201e+05,1.1646e+08,0,1.1818e-10,5.9444e-07,1.991e-07,2.4408e-08,0,0,0,0,0,0,0,0
1.5396e+05,1.1696e+08,0,1.1814e-10,5.9444e-07,1.991e-07,2.3529e-08,0,0,0,0,0,0,0,0
1.559e+05,1.1745e+08,0,1.1805e-10,5.9444e-07,1.991e-07,2.2367e-08,0,0,0,0,0,0,0,0
1.579e+05,1.1795e+08,0,1.1782e-10,5.9444e-07,1.991e-07,2.1531e-08,0,0,0,0,0,0,0,0
1.5988e+05,1.1845e+08,0,1.1755e-10,5.9444e-07,1.991e-07,2.0739e-08,0,0,0,0,0,0,0,0
1.6182e+05,1.1894e+08,0,1.1725e-10,5.9444e-07,1.991e-07,1.9779e-08,0,0,0,0,0,0,0,0
1.638e+05,1.1943e+08,0,1.1726e-10,5.9444e-07,1.991e-07,1.9143e-08,0,0,0,0,0,0,0,0
1.6575e+05,1.1993e+08,0,1.17e-10,5.9444e-07,1.991e-07,1.8301e-08,0,0,0,0,0,0,0,0
1.6772e+05,1.2043e+08,0,1.1679e-10,5.9444e-07,1.991e-07,1.7687e-08,0,0,0,0,0,0,0,0
1.6966e+05,1.2092e+08,0,1.1649e-10,5.9444e-07,1.991e-07,1.6955e-08,0,0,0,0,0,0,0,0
1.7164e+05,1.2141e+08,0,1.163e-10,5.9444e-07,1.991e-07,1.6418e-08,0,0,0,0,0,0,0,0
1.7363e+05,1.2191e+08,0,1.1618e-10,5.9444e-07,1.991e-07,1.5781e-08,0,0,0,0,0,0,0,0
1.7561e+05,1.224e+08,0,1.1599e-10,5.9444e-07,1.991e-07,1.5313e-08,0,0,0,0,0,0,0,0
1.776e+05,1.229e+08,0,1.1601e-10,5.9444e-07,1.991e-07,1.476e-08,0,0,0,0,0,0,0,0
1.7958e+05,1.234e+08,0,1.1582e-10,5.9444e-07,1.991e-07,1.439e-08,0,0,0,0,0,0,0,0
1.8156e+05,1.239e+08,0,1.156e-10,5.9444e-07,1.991e-07,1.3902e-08,0,0,0,0,0,0,0,0
1.8354e+05,1.2439e+08,0,1.1535e-10,5.9444e-07,1.991e-07,1.3538e-08,0,0,0,0,0,0,0,0
1.8552e+05,1.2489e+08,0,1.1514e-10,5.9444e-07,1.991e-07,1.3107e-08,0,0,0,0,0,0,0,0
1.8751e+05,1.2539e+08,0,1.1491e-10,5.9444e-07,1.991e-07,1.2784e-08,0,0,0,0,0,0,0,0
1.8946e+05,1.2588e+08,0,1.1475e-10,5.9444e-07,1.991e-07,1.2402e-08,0,0,0,0,0,0,0,0
1.9145e+05,1.2637e+08,0,1.1479e-10,5.9444e-07,1.991e-07,1.2143e-08,0,0,0,0,0,0,0,0
1.9333e+05,1.2687e+08,0,1.1473e-10,5.9444e-07,1.991e-07,1.1802e-08,0,0,0,0,0,0,0,0
1.9532e+05,1.2737e+08,0,1.1451e-10,5.9444e-07,1.991e-07,1.1544e-08,0,0,0,0,0,0,0,0
1.973e+05,1.2787e+08,0,1.1424e-10,5.9444e-07,1.991e-07,1.1235e-08,0,0,0,0,0,0,0,0
1.988e+05,1.7397e+08,0,1.0032e-10,1.3114e-07,1.991e-07,4.9839e-09,0,0,0,0,0,0,0,0
2.0094e+05,1.7447e+08,0,1.0066e-10,1.307e-07,1.9807e-07,4.9526e-09,0,0,0,0,0,0,0,0
2.0309e+05,1.7497e+08,0,1.0098e-10,1.2963e-07,1.9562e-07,4.9305e-09,0,0,0,0,0,0,0,0
2.0522e+05,1.7546e+08,0,1.0127e-10,1.2673e-07,1.8908e-07,4.8936e-09,0,0,0,0,0,0,0,0
2.074e+05,1.7596e+08,0,1.0167e-10,1.2431e-07,1.8376e-07,4.8698e-09,0,0,0,0,0,0,0,0
2.0958e+05,1.7645e+08,0,1.0205e-10,1.2173e-07,1.7817e-07,4.8442e-09,0,0,0,0,0,0,0,0
2.116e+05,1.7695e+08,0,1.0231e-10,1.1799e-07,1.7029e-07,4.8042e-09,0,0,0,0,0,0,0,0
2.1379e+05,1.7745e+08,0,1.0267e-10,1.1573e-07,1.6564e-07,4.7773e-09,0,0,0,0,0,0,0,0
2.1597e+05,1.7795e+08,0,1.0295e-10,1.1292e-07,1.5997e-07,4.7369e-09,0,0,0,0,0,0,0,0
2.1814e+05,1.7844e+08,0,1.031e-10,1.1139e-07,1.5692e-07,4.708e-09,0,0,0,0,0,0,0,0
2.2031e+05,1.7894e+08,0,1.0334e-10,1.0962e-07,1.5344e-07,4.6671e-09,0,0,0,0,0,0,0,0
2.2248e+05,1.7944e+08,0,1.0357e-10,1.0877e-07,1.5179e-07,4.6391e-09,0,0,0,0,0,0,0,0
2.2462e+05,1.7994e+08,0,1.0377e-10,1.0789e-07,1.501e-07,4.5988e-09,0,0,0,0,0,0,0,0
2.2679e+05,1.8044e+08,0,1.0407e-10,1.0737e-07,1.491e-07,4.5605e-09,0,0,0,0,0,0,0,0
2.2894e+05,1.8094e+08,0,1.0439e-10,1.0718e-07,1.4874e-07,4.5347e-09,0,0,0,0,0,0,0,0
2.3108e+05,1.8144e+08,0,1.0454e-10,1.0708e-07,1.4853e-07,4.5076e-09,0,0,0,0,0,0,0,0
2.3317e+05,1.8194e+08,0,1.0484e-10,1.0701e-07,1.484e-07,4.4704e-09,0,0,0,0,0,0,0,0
2.3534e+05,1.8244e+08,0,1.0497e-10,1.0699e-07,1.4836e-07,4.4442e-09,0,0,0,0,0,0,0,0
2.3746e+05,1.8293e+08,0,1.0529e-10,1.0697e-07,1.4832e-07,4.4091e-09,0,0,0,0,0,0,0,0
2.3963e+05,1.8343e+08,0,1.0549e-10,1.0695e-07,1.4827e-07,4.3844e-09,0,0,0,0,0,0,0,0
2.4177e+05,1.8393e+08,0,1.0568e-10,1.0691e-07,1.4819e-07,4.3433e-09,0,0,0,0,0,0,0,0
2.4385e+05,1.8442e+08,0,1.0577e-10,1.0691e-07,1.4819e-07,4.3004e-09,0,0,0,0,0,0,0,0
2.4593e+05,1.8491e+08,0,1.0588e-10,1.0691e-07,1.4819e-07,4.2577e-09,0,0,0,0,0,0,0,0
2.4803e+05,1.8541e+08,0,1.0611e-10,1.0691e-07,1.4819e-07,4.2323e-09,0,0,0,0,0,0,0,0
2.5007e+05,1.859e+08,0,1.0619e-10,1.0691e-07,1.4819e-07,4.197e-09,0,0,0,0,0,0,0,0
2.5216e+05,1.8639e+08,0,1.0641e-10,1.0691e-07,1.4819e-07,4.172e-09,0,0,0,0,0,0,0,0
2.5424e+05,1.8688e+08,0,1.0644e-10,1.0691e-07,1.4819e-07,4.1419e-09,0,0,0,0,0,0,0,0
2.5633e+05,1.8738e+08,0,1.0665e-10,1.069e-07,1.4815e-07,4.1259e-09,0,0,0,0,0,0,0,0
2.5846e+05,1.8787e+08,0,1.067e-10,1.0632e-07,1.4704e-07,4.1019e-09,0,0,0,0,0,0,0,0
2.6061e+05,1.8838e+08,0,1.0678e-10,1.0539e-07,1.4531e-07,4.0862e-09,0,0,0,0,0,0,0,0
2.6274e+05,1.8887e+08,0,1.07e-10,1.033e-07,1.4143e-07,4.0603e-09,0,0,0,0,0,0,0,0
2.6487e+05,1.8936e+08,0,1.0704e-10,1.0165e-07,1.3844e-07,4.0423e-09,0,0,0,0,0,0,0,0
2.6699e+05,1.8986e+08,0,1.071e-10,9.9121e-08,1.339e-07,4.0138e-09,0,0,0,0,0,0,0,0
2.7107e+05,1.9085e+08,0,1.0734e-10,9.6116e-08,1.2861e-07,3.9767e-09,0,0,0,0,0,0,0,0
2.732e+05,1.9134e+08,0,1.0741e-10,9.4342e-08,1.2553e-07,3.9477e-09,0,0,0,0,0,0,0,0
2.7534e+05,1.9184e+08,0,1.0751e-10,9.342e-08,1.2394e-07,3.929e-09,0,0,0,0,0,0,0,0
2.7742e+05,1.9233e+08,0,1.0767e-10,9.2402e-08,1.2219e-07,3.9013e-09,0,0,0,0,0,0,0,0
2.7955e+05,1.9283e+08,0,1.0774e-10,9.1935e-08,1.2138e-07,3.8828e-09,0,0,0,0,0,0,0,0
2.8164e+05,1.9333e+08,0,1.0789e-10,9.1499e-08,1.2063e-07,3.8558e-09,0,0,0,0,0,0,0,0
2.8371e+05,1.9382e+08,0,1.0788e-10,9.1343e-08,1.2036e-07,3.8283e-09,0,0,0,0,0,0,0,0
2.858e+05,1.9432e+08,0,1.0784e-10,9.1181e-08,1.2007e-07,3.7876e-09,0,0,0,0,0,0,0,0
2.8784e+05,1.9482e+08,0,1.0797e-10,9.1122e-08,1.1997e-07,3.7652e-09,0,0,0,0,0,0,0,0
2.8988e+05,1.9531e+08,0,1.0789e-10,9.1072e-08,1.1987e-07,3.735e-09,0,0,0,0,0,0,0,0
2.9196e+05,1.958e+08,0,1.0785e-10,9.1056e-08,1.1983e-07,3.7148e-09,0,0,0,0,0,0,0,0
2.9403e+05,1.963e+08,0,1.0797e-10,9.1032e-08,1.1977e-07,3.6911e-09,0,0,0,0,0,0,0,0
2.9609e+05,1.9679e+08,0,1.0828e-10,9.1017e-08,1.1972e-07,3.6726e-09,0.0016745,0.00133,0.0016684,0.001729,0.0018815,0.0016678,0,0
2.981e+05,1.9729e+08,0,1.0927e-10,9.0878e-08,1.1941e-07,3.651e-09,0.0013697,0.0012606,0.0013658,0.0014529,0.0016712,0.0013652,0,0
3.0007e+05,1.9778e+08,0,1.1034e-10,9.0625e-08,1.1856e-07,3.6348e-09,0.001313,0.0012327,0.0013096,0.0013832,0.0016105,0.0013092,0,0
3.0208e+05,1.9828e+08,0,1.1128e-10,9.0311e-08,1.1625e-07,3.6111e-09,0.0012837,0.0012076,0.001284,0.0013349,0.0015599,0.0012835,0,0
3.0409e+05,1.9877e+08,0,1.122e-10,9.0191e-08,1.1461e-07,3.5963e-09,0.0012589,0.0011644,0.0012679,0.0012911,0.0014664,0.001267,0,0
3.0607e+05,1.9927e+08,0,1.1313e-10,9.0106e-08,1.1346e-07,3.5793e-09,0.0012444,0.0011226,0.0012601,0.001265,0.0013761,0.0012595,0,0
3.0809e+05,1.9976e+08,0,1.1402e-10,9.0031e-08,1.1217e-07,3.5583e-09,0.0012344,0.0010965,0.00125,0.0012526,0.0013101,0.0012495,0,0
3.1006e+05,2.0025e+08,0,1.1486e-10,9.0004e-08,1.1123e-07,3.5409e-09,0.0012285,0.0010903,0.0012444,0.0012492,0.0012913,0.0012439,0,0
3.1207e+05,2.0075e+08,0,1.1574e-10,8.9987e-08,1.0973e-07,3.5203e-09,0.0012256,0.0010868,0.0012415,0.0012474,0.0012793,0.001241,0,0
3.1407e+05,2.0124e+08,0,1.1666e-10,8.9981e-08,1.0874e-07,3.498e-09,0.0012222,0.0010842,0.0012387,0.0012435,0.0012673,0.0012385,0,0
3.1608e+05,2.0174e+08,0,1.1758e-10,8.998e-08,1.083e-07,3.4847e-09,0.0012185,0.0010824,0.0012369,0.0012401,0.0012593,0.0012365,0,0
3.1809e+05,2.0223e+08,0,1.185e-10,8.997e-08,1.0784e-07,3.4695e-09,0.0012147,0.0010757,0.0012318,0.0012347,0.001249,0.0012312,0,0
3.2007e+05,2.0273e+08,0,1.1933e-10,8.9942e-08,1.0712e-07,3.4479e-09,0.0012061,0.0010557,0.0012284,0.00122,0.0012132,0.001228,0,0
3.2212e+05,2.0322e+08,0,1.2019e-10,8.9923e-08,1.0678e-07,3.4352e-09,0.0012009,0.0010426,0.0012269,0.0012109,0.0011895,0.0012264,0,0
3.2412e+05,2.0372e+08,0,1.2092e-10,8.9876e-08,1.0641e-07,3.4137e-09,0.0011915,0.0010208,0.0012183,0.0011945,0.0011512,0.0012179,0,0
3.2618e+05,2.0422e+08,0,1.2179e-10,8.9834e-08,1.0627e-07,3.4015e-09,0.0011901,0.0010129,0.0012157,0.0011904,0.0011338,0.0012152,0,0
3.2818e+05,2.0472e+08,0,1.2267e-10,8.9757e-08,1.0611e-07,3.382e-09,0.0011876,0.0010031,0.0012108,0.0011855,0.0011092,0.00121,0,0
3.3016e+05,2.0521e+08,0,1.2357e-10,8.9692e-08,1.0601e-07,3.369e-09,0.0011864,0.00099707,0.0012093,0.0011825,0.001098,0.0012084,0,0
3.3166e+05,2.0571e+08,0,1.2431e-10,8.9574e-08,1.0588e-07,3.3514e-09,0.0011826,0.00098998,0.0012071,0.0011771,0.0010835,0.0012064,0,0
3.3368e+05,2.0621e+08,0,1.2505e-10,8.9477e-08,1.0575e-07,3.3378e-09,0.0011677,0.00098225,0.0012009,0.0011624,0.0010672,0.0011995,0,0
3.3569e+05,2.067e+08,0,1.2578e-10,8.9335e-08,1.0557e-07,3.3212e-09,0.0011571,0.00097719,0.0011857,0.0011568,0.00105,0.0011842,0,0
3.377e+05,2.072e+08,0,1.2665e-10,8.9251e-08,1.0533e-07,3.3095e-09,0.0011342,0.000962,0.0011705,0.0011367,0.0010209,0.0011705,0,0
3.3972e+05,2.077e+08,0,1.2733e-10,8.9147e-08,1.0488e-07,3.2915e-09,0.0011081,0.00094896,0.0011506,0.0011157,0.00099495,0.0011523,0,0
3.4171e+05,2.082e+08,0,1.2807e-10,8.9095e-08,1.0455e-07,3.2812e-09,0.0011004,0.00094056,0.0011399,0.0011097,0.00097951,0.0011421,0,0
3.4373e+05,2.0869e+08,0,1.287e-10,8.9013e-08,1.0408e-07,3.2639e-09,0.0010938,0.00093639,0.0011325,0.0011044,0.00097234,0.0011344,0,0
3.4574e+05,2.0918e+08,0,1.2924e-10,8.8938e-08,1.038e-07,3.2534e-09,0.0010887,0.00093524,0.0011274,0.0010997,0.00097116,0.0011294,0,0
3.4772e+05,2.0968e+08,0,1.2982e-10,8.875e-08,1.0318e-07,3.237e-09,0.001081,0.00093192,0.0011187,0.0010903,0.00096622,0.0011208,0,0
3.4974e+05,2.1017e+08,0,1.3029e-10,8.859e-08,1.0263e-07,3.2257e-09,0.0010664,0.0009245,0.0011,0.001079,0.00094952,0.0011028,0,0
3.518e+05,2.1067e+08,0,1.3077e-10,8.8388e-08,1.0186e-07,3.2122e-09,0.0010337,0.00090544,0.0010547,0.0010541,0.00091038,0.0010578,0,0
3.5381e+05,2.1117e+08,0,1.3138e-10,8.83e-08,1.0146e-07,3.2027e-09,0.0010194,0.00085865,0.0010002,0.0010393,0.00085483,0.0010014,0,0
3.5586e+05,2.1167e+08,0,1.3176e-10,8.8211e-08,1.0104e-07,3.187e-09,0.00099678,0.00081928,0.00096346,0.0010041,0.00082115,0.00096499,0,0
3.5792e+05,2.1217e+08,0,1.3227e-10,8.8167e-08,1.0083e-07,3.1781e-09,0.00097478,0.00079859,0.00093042,0.00097062,0.00080881,0.0009329,0,0
3.5993e+05,2.1267e+08,0,1.3272e-10,8.8092e-08,1.0058e-07,3.164e-09,0.00092288,0.00079326,0.00088396,0.00092306,0.00079608,0.00088824,0,0
3.6196e+05,2.1317e+08,0,1.3317e-10,8.8026e-08,1.0042e-07,3.1565e-09,0.00088711,0.00078386,0.00084411,0.00090122,0.00076832,0.00084997,0,0
3.6398e+05,2.1367e+08,0,1.3366e-10,8.7922e-08,1.0017e-07,3.1426e-09,0.00085874,0.00077236,0.00081614,0.00088228,0.00074361,0.00082344,0,0
3.6599e+05,2.1416e+08,0,1.3393e-10,8.7862e-08,9.9954e-08,3.1321e-09,0.00082955,0.0007595,0.00078558,0.00086301,0.00071766,0.00079427,0,0
3.68e+05,2.1466e+08,0,1.3438e-10,8.7799e-08,9.9685e-08,3.1184e-09,0.00082394,0.0007541,0.00078024,0.00085504,0.00071521,0.00078882,0,0
3.7006e+05,2.1516e+08,0,1.3476e-10,8.777e-08,9.9517e-08,3.1109e-09,0.00081414,0.00074751,0.0007785,0.00084419,0.00070904,0.0007874,0,0
3.7208e+05,2.1565e+08,0,1.3513e-10,8.7728e-08,9.9272e-08,3.0977e-09,0.00080498,0.00074074,0.0007775,0.00083429,0.00070272,0.00078659,0,0
3.7414e+05,2.1615e+08,0,1.3565e-10,8.7704e-08,9.911e-08,3.0917e-09,0.00080252,0.00073813,0.00077707,0.00083149,0.00070067,0.00078608,0,0
3.7615e+05,2.1665e+08,0,1.3604e-10,8.7653e-08,9.8857e-08,3.0805e-09,0.00079947,0.00073145,0.0007723,0.0008282,0.00069471,0.00078088,0,0
3.7821e+05,2.1715e+08,0,1.3626e-10,8.7624e-08,9.8687e-08,3.0724e-09,0.00079727,0.00072889,0.0007719,0.00082582,0.00069256,0.00078036,0,0
3.8026e+05,2.1765e+08,0,1.3653e-10,8.7599e-08,9.8538e-08,3.0658e-09,0.00079663,0.00072793,0.00077149,0.0008251,0.00069184,0.00077993,0,0
3.8226e+05,2.1814e+08,0,1.3658e-10,8.7569e-08,9.8339e-08,3.0537e-09,0.00079591,0.00072676,0.00077062,0.00082426,0.00069097,0.00077906,0,0
3.8433e+05,2.1864e+08,0,1.3687e-10,8.7556e-08,9.8217e-08,3.0474e-09,0.00079368,0.00072365,0.00076959,0.00082187,0.000688,0.00077804,0,0
3.8633e+05,2.1913e+08,0,1.3701e-10,8.7539e-08,9.8056e-08,3.0359e-09,0.00079094,0.00071851,0.0007672,0.00081884,0.0006835,0.00077544,0,0
3.8835e+05,2.1963e+08,0,1.3704e-10,8.7529e-08,9.7941e-08,3.0281e-09,0.00079011,0.00071725,0.0007665,0.00081777,0.00068254,0.00077474,0,0
3.9037e+05,2.2013e+08,0,1.3719e-10,8.7515e-08,9.7803e-08,3.0179e-09,0.00078824,0.00071596,0.00076448,0.00081651,0.00068046,0.00077282,0,0
3.9238e+05,2.2062e+08,0,1.373e-10,8.751e-08,9.7704e-08,3.0104e-09,0.00078288,0.00070918,0.00076161,0.00080969,0.00067491,0.00077,0,0
3.944e+05,2.2112e+08,0,1.3761e-10,8.7502e-08,9.7592e-08,3.001e-09,0.00077308,0.00069881,0.00075942,0.00079827,0.00066563,0.00076786,0,0
3.9637e+05,2.2161e+08,0,1.3773e-10,8.7495e-08,9.7505e-08,2.9938e-09,0.00076457,0.00069033,0.00075852,0.00078871,0.00065778,0.00076698,0,0
3.9842e+05,2.2211e+08,0,1.3784e-10,8.7483e-08,9.7393e-08,2.9837e-09,0.00076102,0.00068664,0.00075812,0.0007848,0.00065431,0.00076643,0,0
4.0001e+05,2.226e+08,0,1.3813e-10,8.7478e-08,9.7318e-08,2.9795e-09,0.00075878,0.00068446,0.00075689,0.00078214,0.00065257,0.000765,0,0
4.0202e+05,2.231e+08,0,1.3813e-10,8.7463e-08,9.7202e-08,2.9696e-09,0.00075618,0.00068189,0.00075445,0.00077875,0.00065087,0.00076231,0,0
4.0404e+05,2.2359e+08,0,1.3828e-10,8.7456e-08,9.7124e-08,2.9647e-09,0.00075404,0.00068005,0.00075327,0.00077638,0.00064945,0.00076092,0,0
4.0605e+05,2.2408e+08,0,1.382e-10,8.7443e-08,9.7013e-08,2.9547e-09,0.00075213,0.00067776,0.00075262,0.00077415,0.00064763,0.00076011,0,0
4.081e+05,2.2458e+08,0,1.3809e-10,8.744e-08,9.6935e-08,2.9491e-09,0.00075075,0.00067612,0.00075131,0.00077226,0.00064652,0.00075867,0,0
4.1012e+05,2.2508e+08,0,1.379e-10,8.7432e-08,9.6835e-08,2.9388e-09,0.00075018,0.00067578,0.00075107,0.00077155,0.00064631,0.00075844,0,0
4.1213e+05,2.2557e+08,0,1.3759e-10,8.743e-08,9.6769e-08,2.9346e-09,0.00074954,0.00067481,0.00075016,0.00077055,0.00064563,0.00075752,0,0
4.1411e+05,2.2607e+08,0,1.3725e-10,8.7426e-08,9.6679e-08,2.9245e-09,0.00074772,0.00067206,0.00074965,0.00076838,0.00064327,0.00075695,0,0
4.161e+05,2.2656e+08,0,1.3719e-10,8.7429e-08,9.6622e-08,2.9205e-09,0.00074716,0.00067025,0.00074822,0.00076762,0.00064162,0.0007555,0,0
4.1811e+05,2.2706e+08,0,1.3653e-10,8.7426e-08,9.6538e-08,2.9105e-09,0.00074608,0.00066702,0.0007431,0.00076725,0.00063759,0.00075042,0,0
4.2017e+05,2.2755e+08,0,1.3643e-10,8.7426e-08,9.6481e-08,2.9073e-09,0.00074527,0.00066067,0.00073614,0.00076587,0.00063183,0.00074326,0,0
4.2219e+05,2.2805e+08,0,1.3607e-10,8.7427e-08,9.6421e-08,2.9023e-09,0.00074266,0.00065606,0.00073414,0.00076272,0.00062766,0.0007412,0,0
4.2419e+05,2.2854e+08,0,1.3572e-10,8.7427e-08,9.6345e-08,2.8957e-09,0.00074144,0.0006538,0.00073302,0.00076095,0.00062591,0.00073997,0,0
4.2598e+05,2.2904e+08,0,1.3539e-10,8.7427e-08,9.6294e-08,2.8916e-09,0.0007408,0.00065053,0.00072897,0.00075905,0.0006237,0.00073582,0,0
4.2798e+05,2.2953e+08,0,1.3486e-10,8.7423e-08,9.6223e-08,2.8835e-09,0.00073753,0.00064706,0.00072454,0.00075441,0.00062185,0.0007311,0,0
4.3e+05,2.3003e+08,0,1.3435e-10,8.7422e-08,9.6174e-08,2.8774e-09,0.00073305,0.00064306,0.00072219,0.00074928,0.0006189,0.00072833,0,0
4.3201e+05,2.3052e+08,0,1.3405e-10,8.7418e-08,9.612e-08,2.8703e-09,0.00073142,0.00064191,0.00072069,0.00074744,0.00061826,0.00072669,0,0
4.3403e+05,2.3102e+08,0,1.3355e-10,8.7416e-08,9.6075e-08,2.866e-09,0.00072934,0.00064048,0.00071887,0.00074502,0.0006174,0.00072466,0,0
4.36e+05,2.3151e+08,0,1.3337e-10,8.7409e-08,9.6017e-08,2.8594e-09,0.00072383,0.00063612,0.00071194,0.00073738,0.00061546,0.00071727,0,0
4.3801e+05,2.3201e+08,0,1.3273e-10,8.7404e-08,9.5965e-08,2.8546e-09,0.00072295,0.00063484,0.00071075,0.00073604,0.00061473,0.00071601,0,0
4.4001e+05,2.325e+08,0,1.32e-10,8.7394e-08,9.5893e-08,2.8475e-09,0.00072207,0.00063416,0.00070952,0.00073494,0.00061409,0.00071479,0,0
4.4203e+05,2.33e+08,0,1.3151e-10,8.7392e-08,9.5846e-08,2.8444e-09,0.00072181,0.00063366,0.0007089,0.00073471,0.00061341,0.00071418,0,0
4.4403e+05,2.3349e+08,0,1.3039e-10,8.7383e-08,9.5769e-08,2.8363e-09,0.00072098,0.00063363,0.00070848,0.00073391,0.00061317,0.00071374,0,0
4.4605e+05,2.3399e+08,0,1.2972e-10,8.738e-08,9.5713e-08,2.8332e-09,0.00072036,0.00063356,0.00070807,0.00073333,0.00061295,0.00071331,0,0
4.4805e+05,2.3448e+08,0,1.2888e-10,8.7374e-08,9.5623e-08,2.8264e-09,0.0007193,0.00062703,0.00069946,0.00072995,0.00060807,0.00070453,0,0
4.501e+05,2.3498e+08,0,1.2834e-10,8.7374e-08,9.5555e-08,2.8234e-09,0.00071717,0.00061808,0.00068875,0.00072434,0.00060207,0.00069345,0,0
4.5211e+05,2.3548e+08,0,1.2831e-10,8.7371e-08,9.5449e-08,2.8178e-09,0.00071565,0.00061246,0.0006843,0.0007215,0.00059757,0.00068877,0,0
4.5416e+05,2.3598e+08,0,1.2802e-10,8.737e-08,9.5365e-08,2.8145e-09,0.00071213,0.00060436,0.00067924,0.00071635,0.00059085,0.00068334,0,0
4.562e+05,2.3648e+08,0,1.2811e-10,8.7366e-08,9.5241e-08,2.8094e-09,0.00070929,0.00059795,0.00067607,0.00071247,0.0005854,0.00067994,0,0
4.5821e+05,2.3697e+08,0,1.2775e-10,8.7362e-08,9.515e-08,2.8076e-09,0.00070606,0.00059318,0.0006741,0.00070899,0.00058067,0.00067798,0,0
4.6025e+05,2.3747e+08,0,1.2698e-10,8.7355e-08,9.5012e-08,2.8019e-09,0.00070409,0.00059116,0.00067131,0.00070783,0.00057762,0.00067534,0,0
4.623e+05,2.3797e+08,0,1.2636e-10,8.7354e-08,9.4917e-08,2.8006e-09,0.00069953,0.00059011,0.00066652,0.0007044,0.00057532,0.00067064,0,0
4.643e+05,2.3846e+08,0,1.2442e-10,8.7347e-08,9.4775e-08,2.7946e-09,0.00068935,0.00058961,0.00065768,0.00069527,0.00057387,0.00066179,0,0
4.6628e+05,2.3895e+08,0,1.23e-10,8.7346e-08,9.4675e-08,2.7927e-09,0.00068811,0.00058917,0.000657,0.00069427,0.00057314,0.00066112,0,0
4.6828e+05,2.3945e+08,0,1.2209e-10,8.7344e-08,9.4565e-08,2.7902e-09,0.00068594,0.00058893,0.00065533,0.00069263,0.0005723,0.00065946,0,0
4.7029e+05,2.3995e+08,0,1.2051e-10,8.7339e-08,9.4419e-08,2.7852e-09,0.00068025,0.00058858,0.00065066,0.00068813,0.00057072,0.00065479,0,0
4.7231e+05,2.4044e+08,0,1.1955e-10,8.7339e-08,9.4319e-08,2.783e-09,0.00067905,0.00058826,0.00064972,0.00068723,0.00057004,0.00065393,0,0
4.7428e+05,2.4093e+08,0,1.1839e-10,8.734e-08,9.418e-08,2.7782e-09,0.0006782,0.00058775,0.00064909,0.0006866,0.00056919,0.00065339,0,0
4.763e+05,2.4143e+08,0,1.1745e-10,8.7344e-08,9.4086e-08,2.7774e-09,0.00067745,0.00058722,0.0006485,0.00068595,0.0005684,0.0006529,0,0
4.7831e+05,2.4192e+08,0,1.1693e-10,8.7349e-08,9.3957e-08,2.7718e-09,0.00067619,0.00058235,0.00064233,0.00068575,0.00056197,0.00064672,0,0
4.8032e+05,2.4242e+08,0,1.1617e-10,8.7354e-08,9.3857e-08,2.7693e-09,0.00067381,0.00057252,0.00062953,0.00068535,0.00054944,0.0006338,0,0
4.8234e+05,2.4292e+08,0,1.1537e-10,8.736e-08,9.3743e-08,2.7652e-09,0.00067147,0.00056933,0.00062505,0.00068444,0.000545,0.00062923,0,0
4.8438e+05,2.4341e+08,0,1.1454e-10,8.7366e-08,9.3644e-08,2.7626e-09,0.00067009,0.00056563,0.00062161,0.00068391,0.00054038,0.00062583,0,0
4.8639e+05,2.4392e+08,0,1.14e-10,8.7373e-08,9.3524e-08,2.7593e-09,0.00066851,0.00055965,0.00061834,0.00068245,0.00053431,0.00062256,0,0
4.8841e+05,2.4441e+08,0,1.1392e-10,8.7381e-08,9.3418e-08,2.7577e-09,0.00066558,0.00055352,0.00061549,0.0006798,0.00052781,0.00061981,0,0
4.9042e+05,2.4491e+08,0,1.1359e-10,8.7386e-08,9.3267e-08,2.7536e-09,0.00066146,0.00054604,0.00060949,0.00067714,0.00051865,0.00061404,0,0
4.9247e+05,2.4541e+08,0,1.1301e-10,8.7391e-08,9.3155e-08,2.7534e-09,0.00065921,0.00054259,0.00060576,0.00067573,0.00051427,0.00061049,0,0
4.9449e+05,2.459e+08,0,1.1204e-10,8.7393e-08,9.2984e-08,2.7489e-09,0.00065885,0.00053975,0.0006005,0.00067489,0.00051182,0.00060513,0,0
4.965e+05,2.464e+08,0,1.1011e-10,8.7397e-08,9.2854e-08,2.7483e-09,0.00065812,0.00053064,0.00058493,0.00067375,0.00050287,0.0005892,0,0
4.9856e+05,2.4691e+08,0,1.0754e-10,8.74e-08,9.2704e-08,2.7462e-09,0.00065598,0.00052685,0.0005788,0.00067209,0.00049881,0.00058282,0,0
5.0058e+05,2.474e+08,0,1.0631e-10,8.7406e-08,9.2586e-08,2.7448e-09,0.00065363,0.00052621,0.0005783,0.00067003,0.00049796,0.00058227,0,0
5.0258e+05,2.479e+08,0,1.046e-10,8.741e-08,9.2446e-08,2.7411e-09,0.00065018,0.00052334,0.00057386,0.00066713,0.00049469,0.00057776,0,0
5.0462e+05,2.484e+08,0,1.0352e-10,8.7414e-08,9.2353e-08,2.741e-09,0.00064774,0.00051817,0.0005639,0.00066617,0.00048827,0.00056773,0,0
5.0659e+05,2.4889e+08,0,1.0187e-10,8.7417e-08,9.2235e-08,2.7367e-09,0.00064453,0.00051105,0.00055057,0.00066529,0.00047948,0.00055429,0,0
5.0861e+05,2.4939e+08,0,1.0079e-10,8.7421e-08,9.2165e-08,2.7366e-09,0.00064212,0.00050485,0.00053966,0.00066464,0.00047209,0.00054333,0,0
5.1058e+05,2.4988e+08,0,1.0041e-10,8.7427e-08,9.2084e-08,2.7326e-09,0.00063976,0.0005033,0.00053819,0.00066212,0.00047094,0.00054203,0,0
5.1259e+05,2.5038e+08,0,1.0004e-10,8.7434e-08,9.203e-08,2.7297e-09,0.00063297,0.00049827,0.00053556,0.00065423,0.00046658,0.0005398,0,0
5.146e+05,2.5088e+08,0,9.9607e-11,8.7439e-08,9.1986e-08,2.7258e-09,0.00062946,0.00049431,0.00053312,0.00064969,0.00046339,0.00053758,0,0
5.1662e+05,2.5138e+08,0,9.9307e-11,8.7444e-08,9.1948e-08,2.7233e-09,0.00062874,0.00049252,0.00053154,0.00064842,0.00046212,0.00053607,0,0
5.1862e+05,2.5187e+08,0,9.8674e-11,8.745e-08,9.1915e-08,2.7186e-09,0.00062853,0.00049131,0.0005303,0.00064808,0.0004611,0.00053481,0,0
5.2067e+05,2.5237e+08,0,9.8293e-11,8.7456e-08,9.1897e-08,2.7169e-09,0.00062835,0.00049079,0.00052966,0.00064789,0.00046064,0.00053416,0,0
5.2268e+05,2.5286e+08,0,9.7691e-11,8.7464e-08,9.188e-08,2.7126e-09,0.00062627,0.00049002,0.00052765,0.00064553,0.00046018,0.00053206,0,0
5.2466e+05,2.5335e+08,0,9.741e-11,8.7472e-08,9.1872e-08,2.712e-09,0.00062395,0.00048968,0.00052608,0.00064302,0.00046006,0.00053043,0,0
5.2668e+05,2.5385e+08,0,9.6701e-11,8.7478e-08,9.1863e-08,2.7084e-09,0.00062313,0.00048917,0.00052541,0.00064223,0.00045966,0.00052971,0,0
5.2865e+05,2.5435e+08,0,9.6012e-11,8.7486e-08,9.1858e-08,2.7023e-09,0.00062258,0.00048822,0.0005244,0.00064181,0.00045884,0.00052868,0,0
5.3067e+05,2.5484e+08,0,9.5741e-11,8.7494e-08,9.1857e-08,2.7002e-09,0.00062194,0.00048689,0.00052287,0.00064065,0.00045816,0.00052718,0,0
5.3271e+05,2.5534e+08,0,9.5027e-11,8.75e-08,9.1856e-08,2.6937e-09,0.00061993,0.00048551,0.00052166,0.00063837,0.00045711,0.00052598,0,0
5.3472e+05,2.5583e+08,0,9.4663e-11,8.7503e-08,9.1853e-08,2.6939e-09,0.00061712,0.00048295,0.00051934,0.00063535,0.0004547,0.00052364,0,0
5.3676e+05,2.5633e+08,0,9.4403e-11,8.749e-08,9.183e-08,2.6872e-09,0.00061651,0.00048226,0.0005183,0.00063483,0.0004539,0.00052261,0,0
5.3878e+05,2.5683e+08,0,9.4148e-11,8.7489e-08,9.1823e-08,2.6839e-09,0.00061498,0.00047993,0.00051684,0.00063338,0.00045164,0.00052105,0,0
5.4079e+05,2.5733e+08,0,9.4134e-11,8.7494e-08,9.1824e-08,2.6785e-09,0.00061344,0.0004781,0.00051562,0.00063189,0.0004499,0.00051971,0,0
5.4279e+05,2.5782e+08,0,9.3802e-11,8.7502e-08,9.1829e-08,2.6756e-09,0.00061288,0.00047676,0.00051431,0.00063086,0.00044903,0.0005184,0,0
5.4484e+05,2.5832e+08,0,9.3438e-11,8.7507e-08,9.1834e-08,2.6702e-09,0.00061217,0.00047548,0.00051327,0.00062962,0.00044826,0.0005174,0,0
5.4684e+05,2.5881e+08,0,9.3476e-11,8.751e-08,9.1835e-08,2.6668e-09,0.00061066,0.00047283,0.00051209,0.00062748,0.00044621,0.00051629,0,0
5.4884e+05,2.593e+08,0,9.3162e-11,8.7504e-08,9.1827e-08,2.6603e-09,0.0006102,0.00047016,0.00051009,0.00062628,0.00044429,0.00051431,0,0
5.5086e+05,2.598e+08,0,9.2889e-11,8.7504e-08,9.1828e-08,2.6579e-09,0.00060624,0.00046851,0.00050713,0.00062123,0.00044379,0.00051122,0,0
5.5287e+05,2.6029e+08,0,9.1731e-11,8.7503e-08,9.1827e-08,2.651e-09,0.00058842,0.00046419,0.00049659,0.00060082,0.00044255,0.0005,0,0
5.5489e+05,2.608e+08,0,9.0796e-11,8.7507e-08,9.1832e-08,2.6487e-09,0.00058216,0.00046345,0.00049299,0.00059426,0.00044231,0.0004963,0,0
5.5691e+05,2.6129e+08,0,9.0113e-11,8.7512e-08,9.1839e-08,2.6433e-09,0.00057557,0.0004629,0.00048866,0.00058764,0.00044197,0.00049199,0,0
5.5888e+05,2.6179e+08,0,8.9159e-11,8.7517e-08,9.1846e-08,2.6401e-09,0.00056796,0.00046212,0.00048442,0.00058,0.00044144,0.00048757,0,0
5.6093e+05,2.6229e+08,0,8.8221e-11,8.7519e-08,9.185e-08,2.6356e-09,0.00055937,0.00046103,0.0004794,0.00057108,0.00044102,0.00048234,0,0
5.6295e+05,2.6278e+08,0,8.7801e-11,8.7522e-08,9.1855e-08,2.6323e-09,0.00055203,0.00046032,0.00047432,0.00056326,0.0004409,0.00047722,0,0
5.6497e+05,2.6328e+08,0,8.7437e-11,8.7521e-08,9.186e-08,2.6283e-09,0.00054331,0.00045816,0.00046777,0.00055309,0.00044001,0.00047092,0,0
5.6699e+05,2.6378e+08,0,8.709e-11,8.752e-08,9.1865e-08,2.6268e-09,0.0005428,0.0004566,0.00046706,0.00055242,0.00043866,0.00047019,0,0
5.6904e+05,2.6428e+08,0,8.683e-11,8.7512e-08,9.187e-08,2.6227e-09,0.00053364,0.00045517,0.00045931,0.00054235,0.00043825,0.00046221,0,0
5.7071e+05,2.6478e+08,0,8.5598e-11,8.7504e-08,9.1872e-08,2.6197e-09,0.00051585,0.00045327,0.00044488,0.0005232,0.00043788,0.00044761,0,0
5.7272e+05,2.6527e+08,0,8.3825e-11,8.749e-08,9.1873e-08,2.6168e-09,0.00050172,0.00044941,0.00043294,0.00050654,0.00043657,0.00043595,0,0
5.7478e+05,2.6577e+08,0,8.2944e-11,8.7484e-08,9.1875e-08,2.6152e-09,0.0004868,0.00044583,0.0004196,0.00048883,0.00043596,0.00042254,0,0
5.7678e+05,2.6627e+08,0,8.1761e-11,8.7473e-08,9.1873e-08,2.611e-09,0.00047162,0.00044259,0.00040666,0.00047154,0.00043548,0.00040937,0,0
5.7881e+05,2.6677e+08,0,8.1449e-11,8.7473e-08,9.1876e-08,2.6108e-09,0.00046147,0.00044148,0.00039891,0.00046209,0.00043405,0.00040156,0,0
5.8082e+05,2.6727e+08,0,8.1509e-11,8.7474e-08,9.1877e-08,2.6055e-09,0.00046125,0.00043974,0.00039774,0.00046187,0.00043256,0.00040045,0,0
5.8284e+05,2.6777e+08,0,8.1791e-11,8.7479e-08,9.188e-08,2.6044e-09,0.00045921,0.00042744,0.00038696,0.00046153,0.00041873,0.00038964,0,0
5.8482e+05,2.6826e+08,0,8.2005e-11,8.7485e-08,9.1881e-08,2.6024e-09,0.0004581,0.00042018,0.00038187,0.00046073,0.00041133,0.00038456,0,0
5.8679e+05,2.6875e+08,0,8.1853e-11,8.7488e-08,9.1881e-08,2.6001e-09,0.0004571,0.0004189,0.00038158,0.0004598,0.00041003,0.00038428,0,0
5.888e+05,2.6924e+08,0,8.1649e-11,8.7491e-08,9.1883e-08,2.5991e-09,0.00045678,0.00041748,0.00038065,0.00045915,0.00040894,0.00038339,0,0
5.9078e+05,2.6974e+08,0,8.1194e-11,8.7494e-08,9.1886e-08,2.5937e-09,0.00045655,0.00041089,0.00037587,0.00045803,0.00040332,0.00037865,0,0
5.9279e+05,2.7023e+08,0,8.0803e-11,8.7499e-08,9.1892e-08,2.5916e-09,0.00045483,0.00040611,0.00037194,0.00045515,0.00039976,0.00037484,0,0
5.9478e+05,2.7072e+08,0,8.0239e-11,8.7503e-08,9.1897e-08,2.5882e-09,0.00045113,0.00040109,0.00036759,0.00044971,0.00039647,0.00037072,0,0
5.9679e+05,2.7122e+08,0,8.0034e-11,8.7508e-08,9.1902e-08,2.5868e-09,0.00045027,0.0003853,0.00035645,0.00044612,0.00038351,0.00035971,0,0
5.9877e+05,2.7172e+08,0,7.9337e-11,8.7512e-08,9.1905e-08,2.5822e-09,0.0004476,0.00037744,0.0003523,0.00044272,0.00037676,0.00035554,0,0
6.0079e+05,2.7222e+08,0,7.9382e-11,8.7519e-08,9.1911e-08,2.5811e-09,0.00044291,0.00037169,0.00035054,0.0004379,0.00037139,0.00035374,0,0
6.0283e+05,2.7272e+08,0,7.9316e-11,8.7522e-08,9.1911e-08,2.5759e-09,0.00044201,0.0003664,0.0003479,0.00043669,0.00036672,0.00035114,0,0
6.0488e+05,2.7321e+08,0,7.9602e-11,8.7529e-08,9.1916e-08,2.5742e-09,0.00043999,0.00036139,0.00034607,0.00043436,0.00036209,0.00034938,0,0
6.0686e+05,2.7371e+08,0,7.9182e-11,8.7537e-08,9.1919e-08,2.5702e-09,0.00043565,0.0003486,0.00033159,0.00043246,0.00034633,0.00033455,0,0
6.0887e+05,2.742e+08,0,7.8453e-11,8.7542e-08,9.1921e-08,2.5681e-09,0.00043327,0.00034449,0.00032618,0.00043145,0.00034062,0.00032903,0,0
6.1088e+05,2.747e+08,0,7.7642e-11,8.7543e-08,9.192e-08,2.563e-09,0.00043081,0.00033875,0.00032122,0.00042974,0.00033419,0.00032393,0,0
6.1286e+05,2.7519e+08,0,7.7032e-11,8.7543e-08,9.1921e-08,2.5609e-09,0.00042763,0.00033032,0.00031468,0.00042724,0.00032521,0.00031715,0,0
6.1484e+05,2.7568e+08,0,7.6189e-11,8.7534e-08,9.1919e-08,2.5578e-09,0.00042451,0.00032183,0.00030573,0.00042599,0.00031523,0.00030798,0,0
6.169e+05,2.7618e+08,0,7.5886e-11,8.7534e-08,9.1924e-08,2.5561e-09,0.00042017,0.00031632,0.00029781,0.00042406,0.00030758,0.00029983,0,0
6.1894e+05,2.7668e+08,0,7.5368e-11,8.7535e-08,9.1929e-08,2.5518e-09,0.00041398,0.00031058,0.00028926,0.00042075,0.00029935,0.00029097,0,0
6.2099e+05,2.7718e+08,0,7.5414e-11,8.7538e-08,9.1931e-08,2.5511e-09,0.0004114,0.00030772,0.00028616,0.00041711,0.00029755,0.00028778,0,0
6.23e+05,2.7768e+08,0,7.5489e-11,8.754e-08,9.1922e-08,2.5478e-09,0.00040985,0.00030531,0.0002838,0.00041431,0.00029651,0.00028531,0,0
6.2505e+05,2.7818e+08,0,7.5511e-11,8.7539e-08,9.1908e-08,2.5469e-09,0.00040926,0.00030447,0.00028374,0.00041365,0.00029587,0.00028524,0,0
6.2702e+05,2.7867e+08,0,7.5656e-11,8.7509e-08,9.1842e-08,2.5437e-09,0.00040882,0.00030371,0.00028352,0.00041315,0.00029523,0.00028504,0,0
6.2903e+05,2.7916e+08,0,7.5549e-11,8.7485e-08,9.1789e-08,2.5429e-09,0.00040782,0.00030215,0.00028218,0.00041247,0.00029344,0.0002837,0,0
6.3105e+05,2.7965e+08,0,7.5455e-11,8.7471e-08,9.1743e-08,2.5428e-09,0.00040576,0.00030167,0.00028126,0.00041061,0.00029285,0.00028273,0,0
6.3305e+05,2.8015e+08,0,7.5075e-11,8.7471e-08,9.1698e-08,2.5403e-09,0.00040192,0.00030113,0.0002793,0.00040648,0.00029263,0.00028069,0,0
6.3506e+05,2.8064e+08,0,7.4951e-11,8.7476e-08,9.1673e-08,2.5401e-09,0.00039911,0.00029942,0.00027728,0.00040269,0.00029202,0.00027849,0,0
6.3708e+05,2.8114e+08,0,7.5078e-11,8.7482e-08,9.1631e-08,2.5382e-09,0.00039859,0.0002985,0.00027662,0.00040191,0.00029139,0.00027782,0,0
6.3905e+05,2.8163e+08,0,7.4839e-11,8.7482e-08,9.1599e-08,2.5382e-09,0.00039795,0.00029153,0.0002701,0.0004016,0.00028415,0.00027138,0,0
6.4106e+05,2.8212e+08,0,7.4534e-11,8.7467e-08,9.1544e-08,2.5378e-09,0.00039777,0.00029101,0.00026968,0.00040146,0.00028362,0.00027091,0,0
6.4308e+05,2.8262e+08,0,7.4474e-11,8.7462e-08,9.1511e-08,2.54e-09,0.00039722,0.00029036,0.000269,0.0004011,0.00028283,0.00027023,0,0
6.4504e+05,2.8312e+08,0,7.433e-11,8.7451e-08,9.1465e-08,2.54e-09,0.00039577,0.00028948,0.00026792,0.00039916,0.00028243,0.0002692,0,0
6.4705e+05,2.8361e+08,0,7.4502e-11,8.7445e-08,9.1436e-08,2.5427e-09,0.00039517,0.00028825,0.00026688,0.00039804,0.00028173,0.00026818,0,0
6.4902e+05,2.841e+08,0,7.438e-11,8.7429e-08,9.1394e-08,2.542e-09,0.00039463,0.000288,0.00026664,0.00039748,0.00028149,0.00026792,0,0
6.5107e+05,2.846e+08,0,7.4529e-11,8.7424e-08,9.1373e-08,2.5429e-09,0.00039393,0.00028705,0.00026611,0.00039657,0.00028075,0.0002674,0,0
6.5308e+05,2.8509e+08,0,7.4704e-11,8.7416e-08,9.1349e-08,2.5417e-09,0.00039371,0.00028537,0.00026488,0.00039594,0.00027951,0.00026621,0,0
6.5512e+05,2.8559e+08,0,7.4834e-11,8.7416e-08,9.1341e-08,2.5423e-09,0.00039341,0.00028373,0.0002637,0.00039509,0.00027844,0.00026507,0,0
6.5714e+05,2.8609e+08,0,7.5132e-11,8.7417e-08,9.1335e-08,2.5392e-09,0.00039319,0.00028258,0.00026292,0.00039447,0.00027771,0.00026431,0,0
6.5919e+05,2.8659e+08,0,7.5182e-11,8.7422e-08,9.1335e-08,2.5385e-09,0.00039293,0.00028118,0.00026199,0.00039372,0.0002768,0.00026341,0,0
6.6125e+05,2.8708e+08,0,7.5296e-11,8.7428e-08,9.1336e-08,2.5344e-09,0.00039268,0.00027983,0.00026112,0.00039301,0.00027593,0.00026258,0,0
6.6332e+05,2.8757e+08,0,7.5635e-11,8.7434e-08,9.1339e-08,2.534e-09,0.00039249,0.00027879,0.00026048,0.00039247,0.00027524,0.00026196,0,0
6.6532e+05,2.8806e+08,0,7.5743e-11,8.7438e-08,9.134e-08,2.53e-09,0.00039227,0.00027752,0.00025972,0.00039182,0.00027441,0.00026123,0,0
6.6743e+05,2.8856e+08,0,7.6185e-11,8.7442e-08,9.1342e-08,2.5279e-09,0,0,0,0,0,0,0,0
6.6956e+05,2.8906e+08,0,7.7069e-11,8.7442e-08,9.1342e-08,2.5223e-09,0,0,0,0,0,0,0,0
6.7163e+05,2.8956e+08,0,7.7823e-11,8.7442e-08,9.1342e-08,2.5152e-09,0,0,0,0,0,0,0,0
6.7371e+05,2.9005e+08,0,7.8523e-11,8.7442e-08,9.1342e-08,2.5098e-09,0,0,0,0,0,0,0,0
6.7579e+05,2.9055e+08,0,7.9224e-11,8.7442e-08,9.1342e-08,2.5069e-09,0,0,0,0,0,0,0,0
6.7791e+05,2.9105e+08,0,7.9977e-11,8.7442e-08,9.1342e-08,2.5014e-09,0,0,0,0,0,0,0,0
6.7999e+05,2.9155e+08,0,8.0763e-11,8.7442e-08,9.1342e-08,2.5006e-09,0,0,0,0,0,0,0,0
6.8207e+05,2.9204e+08,0,8.1427e-11,8.7442e-08,9.1342e-08,2.4977e-09,0,0,0,0,0,0,0,0
6.8419e+05,2.9254e+08,0,8.2161e-11,8.7442e-08,9.1342e-08,2.492e-09,0,0,0,0,0,0,0,0
6.8632e+05,2.9304e+08,0,8.2848e-11,8.7442e-08,9.1342e-08,2.4891e-09,0,0,0,0,0,0,0,0
6.8842e+05,2.9354e+08,0,8.3527e-11,8.7442e-08,9.1342e-08,2.4841e-09,0,0,0,0,0,0,0,0
6.9054e+05,2.9404e+08,0,8.4188e-11,8.7442e-08,9.1342e-08,2.4809e-09,0,0,0,0,0,0,0,0
6.9262e+05,2.9454e+08,0,8.4922e-11,8.7442e-08,9.1342e-08,2.4747e-09,0,0,0,0,0,0,0,0
6.947e+05,2.9503e+08,0,8.5515e-11,8.7442e-08,9.1342e-08,2.4719e-09,0,0,0,0,0,0,0,0
6.968e+05,2.9553e+08,0,8.619e-11,8.7442e-08,9.1342e-08,2.4656e-09,0,0,0,0,0,0,0,0
6.9889e+05,2.9602e+08,0,8.6754e-11,8.7442e-08,9.1342e-08,2.4615e-09,0,0,0,0,0,0,0,0
7.0098e+05,2.9652e+08,0,8.7401e-11,8.7442e-08,9.1342e-08,2.4545e-09,0,0,0,0,0,0,0,0
7.0308e+05,2.9701e+08,0,8.8018e-11,8.7442e-08,9.1342e-08,2.4522e-09,0,0,0,0,0,0,0,0
7.0514e+05,2.9751e+08,0,8.8419e-11,8.7442e-08,9.1342e-08,2.4447e-09,0,0,0,0,0,0,0,0
7.0723e+05,2.98e+08,0,8.8518e-11,8.7442e-08,9.1342e-08,2.4417e-09,0,0,0,0,0,0,0,0
7.0932e+05,2.9849e+08,0,8.896e-11,8.7442e-08,9.1324e-08,2.4417e-09,0,0,0,0,0,0,0,0
7.1142e+05,2.9899e+08,0,8.9503e-11,8.7442e-08,9.1169e-08,2.4417e-09,0,0,0,0,0,0,0,0
7.1351e+05,2.9949e+08,0,8.9857e-11,8.7442e-08,9.0423e-08,2.4417e-09,0,0,0,0,0,0,0,0
7.156e+05,2.9998e+08,0,9.018e-11,8.7442e-08,8.9483e-08,2.4417e-09,0,0,0,0,0,0,0,0
7.1766e+05,3.0047e+08,0,9.0642e-11,8.7442e-08,8.7338e-08,2.4417e-09,0,0,0,0,0,0,0,0
7.1975e+05,3.0097e+08,0,9.1027e-11,8.7442e-08,8.5578e-08,2.4417e-09,0,0,0,0,0,0,0,0
7.2185e+05,3.0147e+08,0,9.1066e-11,8.7442e-08,8.2341e-08,2.4417e-09,0,0,0,0,0,0,0,0
7.2391e+05,3.0196e+08,0,9.1384e-11,8.7442e-08,7.9862e-08,2.4417e-09,0,0,0,0,0,0,0,0
7.2601e+05,3.0246e+08,0,9.1536e-11,8.7442e-08,7.7272e-08,2.4417e-09,0,0,0,0,0,0,0,0
7.281e+05,3.0295e+08,0,9.1208e-11,8.7442e-08,7.7273e-08,2.4417e-09,0,0,0,0,0,0,0,0
