LineNo,TimeUS,C,IVN0,IVN1,IVN2,IVN3,IVN4,IVE0,IVE1,IVE2,IVE3,IVE4
1.1594e+05,1.0784e+08,1,0,0,0,0,0,0,0,0,0,0
1.1598e+05,1.0785e+08,1,0,0,0,0,0,0,0,0,0,0
1.1603e+05,1.0786e+08,1,0,0,0,0,0,0,0,0,0,0
1.1607e+05,1.0787e+08,1,0,0,0,0,0,0,0,0,0,0
1.1612e+05,1.0788e+08,1,0,0,0,0,0,0,0,0,0,0
1.1616e+05,1.0789e+08,1,0,0,0,0,0,0,0,0,0,0
1.1621e+05,1.0791e+08,1,0,0,0,0,0,0,0,0,0,0
1.1625e+05,1.0791e+08,1,0,0,0,0,0,0,0,0,0,0
1.163e+05,1.0792e+08,1,0,0,0,0,0,0,0,0,0,0
1.1634e+05,1.0794e+08,1,0,0,0,0,0,0,0,0,0,0
1.1639e+05,1.0795e+08,1,0,0,0,0,0,0,0,0,0,0
1.1643e+05,1.0796e+08,1,0,0,0,0,0,0,0,0,0,0
1.1648e+05,1.0797e+08,1,0,0,0,0,0,0,0,0,0,0
1.1653e+05,1.0798e+08,1,0,0,0,0,0,0,0,0,0,0
1.1657e+05,1.0799e+08,1,0,0,0,0,0,0,0,0,0,0
1.1662e+05,1.08e+08,1,0,0,0,0,0,0,0,0,0,0
1.1666e+05,1.0801e+08,1,0,0,0,0,0,0,0,0,0,0
1.1671e+05,1.0802e+08,1,0,0,0,0,0,0,0,0,0,0
1.1676e+05,1.0803e+08,1,0,0,0,0,0,0,0,0,0,0
1.168e+05,1.0804e+08,1,0,0,0,0,0,0,0,0,0,0
1.1684e+05,1.0805e+08,1,0.18681,-0.31528,-0.40516,0.041385,0.40725,0.37986,0.31122,-0.18751,-0.42711,-0.076456
1.1688e+05,1.0806e+08,1,0.18681,-0.31528,-0.40516,0.041385,0.40725,0.37986,0.31122,-0.18751,-0.42711,-0.076456
1.1693e+05,1.0807e+08,1,0.18681,-0.31528,-0.40516,0.041385,0.40725,0.37986,0.31122,-0.18751,-0.42711,-0.076456
1.1698e+05,1.0808e+08,1,0.18681,-0.31528,-0.40516,0.041385,0.40725,0.37986,0.31122,-0.18751,-0.42711,-0.076456
1.1702e+05,1.0809e+08,1,0.18681,-0.31528,-0.40516,0.041385,0.40725,0.37986,0.31122,-0.18751,-0.42711,-0.076456
1.1707e+05,1.081e+08,1,0.18681,-0.31528,-0.40516,0.041385,0.40725,0.37986,0.31122,-0.18751,-0.42711,-0.076456
1.1711e+05,1.0811e+08,1,0.18681,-0.31528,-0.40516,0.041385,0.40725,0.37986,0.31122,-0.18751,-0.42711,-0.076456
1.1716e+05,1.0812e+08,1,0.18681,-0.31528,-0.40516,0.041385,0.40725,0.37986,0.31122,-0.18751,-0.42711,-0.076456
1.1721e+05,1.0813e+08,1,0.18681,-0.31528,-0.40516,0.041385,0.40725,0.37986,0.31122,-0.18751,-0.42711,-0.076456
1.1725e+05,1.0814e+08,1,0.18681,-0.31528,-0.40516,0.041385,0.40725,0.37986,0.31122,-0.18751,-0.42711,-0.076456
1.173e+05,1.0815e+08,1,0.18681,-0.31528,-0.40516,0.041385,0.40725,0.37986,0.31122,-0.18751,-0.42711,-0.076456
1.1734e+05,1.0817e+08,1,0.18681,-0.31528,-0.40516,0.041385,0.40725,0.37986,0.31122,-0.18751,-0.42711,-0.076456
1.1739e+05,1.0818e+08,1,0.18681,-0.31528,-0.40516,0.041385,0.40725,0.37986,0.31122,-0.18751,-0.42711,-0.076456
1.1743e+05,1.0819e+08,1,0.18681,-0.31528,-0.40516,0.041385,0.40725,0.37986,0.31122,-0.18751,-0.42711,-0.076456
1.1748e+05,1.082e+08,1,0.18681,-0.31528,-0.40516,0.041385,0.40725,0.37986,0.31122,-0.18751,-0.42711,-0.076456
1.1752e+05,1.0821e+08,1,0.18681,-0.31528,-0.40516,0.041385,0.40725,0.37986,0.31122,-0.18751,-0.42711,-0.076456
1.1756e+05,1.0822e+08,1,0.18681,-0.31528,-0.40516,0.041385,0.40725,0.37986,0.31122,-0.18751,-0.42711,-0.076456
1.1761e+05,1.0823e+08,1,0.18681,-0.31528,-0.40516,0.041385,0.40725,0.37986,0.31122,-0.18751,-0.42711,-0.076456
1.1766e+05,1.0824e+08,1,0.25667,-0.38867,-0.49827,0.081313,0.54429,0.48807,0.39543,-0.24949,-0.54995,-0.093999
1.177e+05,1.0825e+08,1,0.25667,-0.38867,-0.49827,0.081313,0.54429,0.48807,0.39543,-0.24949,-0.54995,-0.093999
1.1775e+05,1.0826e+08,1,0.25667,-0.38867,-0.49827,0.081313,0.54429,0.48807,0.39543,-0.24949,-0.54995,-0.093999
1.1779e+05,1.0827e+08,1,0.25667,-0.38867,-0.49827,0.081313,0.54429,0.48807,0.39543,-0.24949,-0.54995,-0.093999
1.1784e+05,1.0828e+08,1,0.25667,-0.38867,-0.49827,0.081313,0.54429,0.48807,0.39543,-0.24949,-0.54995,-0.093999
1.1788e+05,1.0829e+08,1,0.25667,-0.38867,-0.49827,0.081313,0.54429,0.48807,0.39543,-0.24949,-0.54995,-0.093999
1.1793e+05,1.083e+08,1,0.25667,-0.38867,-0.49827,0.081313,0.54429,0.48807,0.39543,-0.24949,-0.54995,-0.093999
1.1797e+05,1.0831e+08,1,0.25667,-0.38867,-0.49827,0.081313,0.54429,0.48807,0.39543,-0.24949,-0.54995,-0.093999
1.1802e+05,1.0832e+08,1,0.25667,-0.38867,-0.49827,0.081313,0.54429,0.48807,0.39543,-0.24949,-0.54995,-0.093999
1.1807e+05,1.0833e+08,1,0.25667,-0.38867,-0.49827,0.081313,0.54429,0.48807,0.39543,-0.24949,-0.54995,-0.093999
1.1811e+05,1.0834e+08,1,0.25667,-0.38867,-0.49827,0.081313,0.54429,0.48807,0.39543,-0.24949,-0.54995,-0.093999
1.1816e+05,1.0835e+08,1,0.25667,-0.38867,-0.49827,0.081313,0.54429,0.48807,0.39543,-0.24949,-0.54995,-0.093999
1.182e+05,1.0836e+08,1,0.25667,-0.38867,-0.49827,0.081313,0.54429,0.48807,0.39543,-0.24949,-0.54995,-0.093999
1.1825e+05,1.0838e+08,1,0.25667,-0.38867,-0.49827,0.081313,0.54429,0.48807,0.39543,-0.24949,-0.54995,-0.093999
1.1829e+05,1.0839e+08,1,0.25667,-0.38867,-0.49827,0.081313,0.54429,0.48807,0.39543,-0.24949,-0.54995,-0.093999
1.1834e+05,1.084e+08,1,0.25667,-0.38867,-0.49827,0.081313,0.54429,0.48807,0.39543,-0.24949,-0.54995,-0.093999
1.1838e+05,1.0841e+08,1,0.25667,-0.38867,-0.49827,0.081313,0.54429,0.48807,0.39543,-0.24949,-0.54995,-0.093999
1.1843e+05,1.0842e+08,1,0.25667,-0.38867,-0.49827,0.081313,0.54429,0.48807,0.39543,-0.24949,-0.54995,-0.093999
1.1847e+05,1.0843e+08,1,0.25667,-0.38867,-0.49827,0.081313,0.54429,0.48807,0.39543,-0.24949,-0.54995,-0.093999
1.1852e+05,1.0844e+08,1,0.25667,-0.38867,-0.49827,0.081313,0.54429,0.48807,0.39543,-0.24949,-0.54995,-0.093999
1.1856e+05,1.0845e+08,1,0.36465,-0.53192,-0.69341,0.10763,0.75608,0.69342,0.57405,-0.31978,-0.74492,-0.11774
1.1861e+05,1.0846e+08,1,0.36465,-0.53192,-0.69341,0.10763,0.75608,0.69342,0.57405,-0.31978,-0.74492,-0.11774
1.1866e+05,1.0847e+08,1,0.36465,-0.53192,-0.69341,0.10763,0.75608,0.69342,0.57405,-0.31978,-0.74492,-0.11774
1.187e+05,1.0848e+08,1,0.36465,-0.53192,-0.69341,0.10763,0.75608,0.69342,0.57405,-0.31978,-0.74492,-0.11774
1.1875e+05,1.0849e+08,1,0.36465,-0.53192,-0.69341,0.10763,0.75608,0.69342,0.57405,-0.31978,-0.74492,-0.11774
1.1879e+05,1.085e+08,1,0.36465,-0.53192,-0.69341,0.10763,0.75608,0.69342,0.57405,-0.31978,-0.74492,-0.11774
1.1884e+05,1.0851e+08,1,0.36465,-0.53192,-0.69341,0.10763,0.75608,0.69342,0.57405,-0.31978,-0.74492,-0.11774
1.1888e+05,1.0852e+08,1,0.36465,-0.53192,-0.69341,0.10763,0.75608,0.69342,0.57405,-0.31978,-0.74492,-0.11774
1.1893e+05,1.0853e+08,1,0.36465,-0.53192,-0.69341,0.10763,0.75608,0.69342,0.57405,-0.31978,-0.74492,-0.11774
1.1898e+05,1.0855e+08,1,0.36465,-0.53192,-0.69341,0.10763,0.75608,0.69342,0.57405,-0.31978,-0.74492,-0.11774
1.1902e+05,1.0856e+08,1,0.36465,-0.53192,-0.69341,0.10763,0.75608,0.69342,0.57405,-0.31978,-0.74492,-0.11774
1.1906e+05,1.0857e+08,1,0.36465,-0.53192,-0.69341,0.10763,0.75608,0.69342,0.57405,-0.31978,-0.74492,-0.11774
1.1911e+05,1.0858e+08,1,0.36465,-0.53192,-0.69341,0.10763,0.75608,0.69342,0.57405,-0.31978,-0.74492,-0.11774
1.1916e+05,1.0859e+08,1,0.36465,-0.53192,-0.69341,0.10763,0.75608,0.69342,0.57405,-0.31978,-0.74492,-0.11774
1.192e+05,1.086e+08,1,0.36465,-0.53192,-0.69341,0.10763,0.75608,0.69342,0.57405,-0.31978,-0.74492,-0.11774
1.1925e+05,1.0861e+08,1,0.36465,-0.53192,-0.69341,0.10763,0.75608,0.69342,0.57405,-0.31978,-0.74492,-0.11774
1.1929e+05,1.0862e+08,1,0.36465,-0.53192,-0.69341,0.10763,0.75608,0.69342,0.57405,-0.31978,-0.74492,-0.11774
1.1934e+05,1.0863e+08,1,0.36465,-0.53192,-0.69341,0.10763,0.75608,0.69342,0.57405,-0.31978,-0.74492,-0.11774
1.1938e+05,1.0864e+08,1,0.36465,-0.53192,-0.69341,0.10763,0.75608,0.69342,0.57405,-0.31978,-0.74492,-0.11774
1.1943e+05,1.0865e+08,1,0.42221,-0.67476,-0.86394,0.10847,0.89608,0.83262,0.68429,-0.40622,-0.91693,-0.15857
1.1948e+05,1.0866e+08,1,0.42221,-0.67476,-0.86394,0.10847,0.89608,0.83262,0.68429,-0.40622,-0.91693,-0.15857
1.1952e+05,1.0867e+08,1,0.42221,-0.67476,-0.86394,0.10847,0.89608,0.83262,0.68429,-0.40622,-0.91693,-0.15857
1.1957e+05,1.0869e+08,1,0.42221,-0.67476,-0.86394,0.10847,0.89608,0.83262,0.68429,-0.40622,-0.91693,-0.15857
1.1962e+05,1.087e+08,1,0.42221,-0.67476,-0.86394,0.10847,0.89608,0.83262,0.68429,-0.40622,-0.91693,-0.15857
1.1966e+05,1.0871e+08,1,0.42221,-0.67476,-0.86394,0.10847,0.89608,0.83262,0.68429,-0.40622,-0.91693,-0.15857
1.197e+05,1.0872e+08,1,0.42221,-0.67476,-0.86394,0.10847,0.89608,0.83262,0.68429,-0.40622,-0.91693,-0.15857
1.1975e+05,1.0873e+08,1,0.42221,-0.67476,-0.86394,0.10847,0.89608,0.83262,0.68429,-0.40622,-0.91693,-0.15857
1.198e+05,1.0874e+08,1,0.42221,-0.67476,-0.86394,0.10847,0.89608,0.83262,0.68429,-0.40622,-0.91693,-0.15857
1.1984e+05,1.0875e+08,1,0.42221,-0.67476,-0.86394,0.10847,0.89608,0.83262,0.68429,-0.40622,-0.91693,-0.15857
1.1989e+05,1.0876e+08,1,0.42221,-0.67476,-0.86394,0.10847,0.89608,0.83262,0.68429,-0.40622,-0.91693,-0.15857
1.1993e+05,1.0877e+08,1,0.42221,-0.67476,-0.86394,0.10847,0.89608,0.83262,0.68429,-0.40622,-0.91693,-0.15857
1.1998e+05,1.0878e+08,1,0.42221,-0.67476,-0.86394,0.10847,0.89608,0.83262,0.68429,-0.40622,-0.91693,-0.15857
1.2002e+05,1.0879e+08,1,0.42221,-0.67476,-0.86394,0.10847,0.89608,0.83262,0.68429,-0.40622,-0.91693,-0.15857
1.2007e+05,1.088e+08,1,0.42221,-0.67476,-0.86394,0.10847,0.89608,0.83262,0.68429,-0.40622,-0.91693,-0.15857
1.2011e+05,1.0881e+08,1,0.42221,-0.67476,-0.86394,0.10847,0.89608,0.83262,0.68429,-0.40622,-0.91693,-0.15857
1.2016e+05,1.0883e+08,1,0.42221,-0.67476,-0.86394,0.10847,0.89608,0.83262,0.68429,-0.40622,-0.91693,-0.15857
1.2021e+05,1.0884e+08,1,0.42221,-0.67476,-0.86394,0.10847,0.89608,0.83262,0.68429,-0.40622,-0.91693,-0.15857
1.2026e+05,1.0885e+08,1,0.42221,-0.67476,-0.86394,0.10847,0.89608,0.83262,0.68429,-0.40622,-0.91693,-0.15857
1.203e+05,1.0886e+08,1,0.50172,-0.80845,-1.0287,0.13816,1.0628,1.002,0.82757,-0.48137,-1.0772,-0.17193
1.2035e+05,1.0887e+08,1,0.50172,-0.80845,-1.0287,0.13816,1.0628,1.002,0.82757,-0.48137,-1.0772,-0.17193
1.204e+05,1.0889e+08,1,0.50172,-0.80845,-1.0287,0.13816,1.0628,1.002,0.82757,-0.48137,-1.0772,-0.17193
1.2044e+05,1.089e+08,1,0.50172,-0.80845,-1.0287,0.13816,1.0628,1.002,0.82757,-0.48137,-1.0772,-0.17193
1.2049e+05,1.0891e+08,1,0.50172,-0.80845,-1.0287,0.13816,1.0628,1.002,0.82757,-0.48137,-1.0772,-0.17193
1.2053e+05,1.0892e+08,1,0.50172,-0.80845,-1.0287,0.13816,1.0628,1.002,0.82757,-0.48137,-1.0772,-0.17193
1.2058e+05,1.0893e+08,1,0.50172,-0.80845,-1.0287,0.13816,1.0628,1.002,0.82757,-0.48137,-1.0772,-0.17193
1.2062e+05,1.0894e+08,1,0.50172,-0.80845,-1.0287,0.13816,1.0628,1.002,0.82757,-0.48137,-1.0772,-0.17193
1.2067e+05,1.0895e+08,1,0.50172,-0.80845,-1.0287,0.13816,1.0628,1.002,0.82757,-0.48137,-1.0772,-0.17193
1.2072e+05,1.0896e+08,1,0.50172,-0.80845,-1.0287,0.13816,1.0628,1.002,0.82757,-0.48137,-1.0772,-0.17193
1.2076e+05,1.0897e+08,1,0.50172,-0.80845,-1.0287,0.13816,1.0628,1.002,0.82757,-0.48137,-1.0772,-0.17193
1.208e+05,1.0898e+08,1,0.50172,-0.80845,-1.0287,0.13816,1.0628,1.002,0.82757,-0.48137,-1.0772,-0.17193
1.2085e+05,1.0899e+08,1,0.50172,-0.80845,-1.0287,0.13816,1.0628,1.002,0.82757,-0.48137,-1.0772,-0.17193
1.209e+05,1.09e+08,1,0.50172,-0.80845,-1.0287,0.13816,1.0628,1.002,0.82757,-0.48137,-1.0772,-0.17193
1.2094e+05,1.0901e+08,1,0.50172,-0.80845,-1.0287,0.13816,1.0628,1.002,0.82757,-0.48137,-1.0772,-0.17193
1.2099e+05,1.0902e+08,1,0.50172,-0.80845,-1.0287,0.13816,1.0628,1.002,0.82757,-0.48137,-1.0772,-0.17193
1.2103e+05,1.0903e+08,1,0.50172,-0.80845,-1.0287,0.13816,1.0628,1.002,0.82757,-0.48137,-1.0772,-0.17193
1.2108e+05,1.0904e+08,1,0.63826,-0.77687,-1.0082,0.24885,1.2307,1.0363,0.85446,-0.56197,-1.1891,-0.22256
1.2112e+05,1.0905e+08,1,0.63826,-0.77687,-1.0082,0.24885,1.2307,1.0363,0.85446,-0.56197,-1.1891,-0.22256
1.2117e+05,1.0906e+08,1,0.63826,-0.77687,-1.0082,0.24885,1.2307,1.0363,0.85446,-0.56197,-1.1891,-0.22256
1.2121e+05,1.0907e+08,1,0.63826,-0.77687,-1.0082,0.24885,1.2307,1.0363,0.85446,-0.56197,-1.1891,-0.22256
1.2126e+05,1.0908e+08,1,0.63826,-0.77687,-1.0082,0.24885,1.2307,1.0363,0.85446,-0.56197,-1.1891,-0.22256
1.213e+05,1.0909e+08,1,0.63826,-0.77687,-1.0082,0.24885,1.2307,1.0363,0.85446,-0.56197,-1.1891,-0.22256
1.2135e+05,1.091e+08,1,0.63826,-0.77687,-1.0082,0.24885,1.2307,1.0363,0.85446,-0.56197,-1.1891,-0.22256
1.2139e+05,1.0911e+08,1,0.63826,-0.77687,-1.0082,0.24885,1.2307,1.0363,0.85446,-0.56197,-1.1891,-0.22256
1.2144e+05,1.0912e+08,1,0.63826,-0.77687,-1.0082,0.24885,1.2307,1.0363,0.85446,-0.56197,-1.1891,-0.22256
1.2148e+05,1.0913e+08,1,0.63826,-0.77687,-1.0082,0.24885,1.2307,1.0363,0.85446,-0.56197,-1.1891,-0.22256
1.2153e+05,1.0914e+08,1,0.63826,-0.77687,-1.0082,0.24885,1.2307,1.0363,0.85446,-0.56197,-1.1891,-0.22256
1.2158e+05,1.0915e+08,1,0.63826,-0.77687,-1.0082,0.24885,1.2307,1.0363,0.85446,-0.56197,-1.1891,-0.22256
1.2162e+05,1.0916e+08,1,0.63826,-0.77687,-1.0082,0.24885,1.2307,1.0363,0.85446,-0.56197,-1.1891,-0.22256
1.2166e+05,1.0917e+08,1,0.63826,-0.77687,-1.0082,0.24885,1.2307,1.0363,0.85446,-0.56197,-1.1891,-0.22256
1.2171e+05,1.0918e+08,1,0.63826,-0.77687,-1.0082,0.24885,1.2307,1.0363,0.85446,-0.56197,-1.1891,-0.22256
1.2175e+05,1.0919e+08,1,0.63826,-0.77687,-1.0082,0.24885,1.2307,1.0363,0.85446,-0.56197,-1.1891,-0.22256
1.218e+05,1.092e+08,1,0.63826,-0.77687,-1.0082,0.24885,1.2307,1.0363,0.85446,-0.56197,-1.1891,-0.22256
1.2184e+05,1.0921e+08,1,0.63826,-0.77687,-1.0082,0.24885,1.2307,1.0363,0.85446,-0.56197,-1.1891,-0.22256
1.2189e+05,1.0922e+08,1,0.63826,-0.77687,-1.0082,0.24885,1.2307,1.0363,0.85446,-0.56197,-1.1891,-0.22256
1.2194e+05,1.0923e+08,1,0.63826,-0.77687,-1.0082,0.24885,1.2307,1.0363,0.85446,-0.56197,-1.1891,-0.22256
1.2198e+05,1.0924e+08,1,0.63826,-0.77687,-1.0082,0.24885,1.2307,1.0363,0.85446,-0.56197,-1.1891,-0.22256
1.2202e+05,1.0925e+08,1,0.61623,-0.9773,-1.2392,0.17134,1.3043,1.1689,0.947,-0.6374,-1.3646,-0.26619
1.2207e+05,1.0926e+08,1,0.61623,-0.9773,-1.2392,0.17134,1.3043,1.1689,0.947,-0.6374,-1.3646,-0.26619
1.2211e+05,1.0927e+08,1,0.61623,-0.9773,-1.2392,0.17134,1.3043,1.1689,0.947,-0.6374,-1.3646,-0.26619
1.2216e+05,1.0928e+08,1,0.61623,-0.9773,-1.2392,0.17134,1.3043,1.1689,0.947,-0.6374,-1.3646,-0.26619
1.2221e+05,1.093e+08,1,0.61623,-0.9773,-1.2392,0.17134,1.3043,1.1689,0.947,-0.6374,-1.3646,-0.26619
1.2225e+05,1.0931e+08,1,0.61623,-0.9773,-1.2392,0.17134,1.3043,1.1689,0.947,-0.6374,-1.3646,-0.26619
1.2229e+05,1.0932e+08,1,0.61623,-0.9773,-1.2392,0.17134,1.3043,1.1689,0.947,-0.6374,-1.3646,-0.26619
1.2234e+05,1.0933e+08,1,0.61623,-0.9773,-1.2392,0.17134,1.3043,1.1689,0.947,-0.6374,-1.3646,-0.26619
1.2238e+05,1.0934e+08,1,0.61623,-0.9773,-1.2392,0.17134,1.3043,1.1689,0.947,-0.6374,-1.3646,-0.26619
1.2243e+05,1.0935e+08,1,0.61623,-0.9773,-1.2392,0.17134,1.3043,1.1689,0.947,-0.6374,-1.3646,-0.26619
1.2248e+05,1.0936e+08,1,0.61623,-0.9773,-1.2392,0.17134,1.3043,1.1689,0.947,-0.6374,-1.3646,-0.26619
1.2252e+05,1.0937e+08,1,0.61623,-0.9773,-1.2392,0.17134,1.3043,1.1689,0.947,-0.6374,-1.3646,-0.26619
1.2257e+05,1.0938e+08,1,0.61623,-0.9773,-1.2392,0.17134,1.3043,1.1689,0.947,-0.6374,-1.3646,-0.26619
1.2261e+05,1.0939e+08,1,0.61623,-0.9773,-1.2392,0.17134,1.3043,1.1689,0.947,-0.6374,-1.3646,-0.26619
1.2266e+05,1.094e+08,1,0.61623,-0.9773,-1.2392,0.17134,1.3043,1.1689,0.947,-0.6374,-1.3646,-0.26619
1.227e+05,1.0941e+08,1,0.61623,-0.9773,-1.2392,0.17134,1.3043,1.1689,0.947,-0.6374,-1.3646,-0.26619
1.2274e+05,1.0942e+08,1,0.61623,-0.9773,-1.2392,0.17134,1.3043,1.1689,0.947,-0.6374,-1.3646,-0.26619
1.2279e+05,1.0943e+08,1,0.61623,-0.9773,-1.2392,0.17134,1.3043,1.1689,0.947,-0.6374,-1.3646,-0.26619
1.2284e+05,1.0944e+08,1,0.61623,-0.9773,-1.2392,0.17134,1.3043,1.1689,0.947,-0.6374,-1.3646,-0.26619
1.2288e+05,1.0945e+08,1,0.73941,-1.0124,-1.3132,0.25208,1.4928,1.3059,1.0747,-0.67747,-1.4811,-0.26482
1.2292e+05,1.0946e+08,1,0.73941,-1.0124,-1.3132,0.25208,1.4928,1.3059,1.0747,-0.67747,-1.4811,-0.26482
1.2297e+05,1.0947e+08,1,0.73941,-1.0124,-1.3132,0.25208,1.4928,1.3059,1.0747,-0.67747,-1.4811,-0.26482
1.2301e+05,1.0948e+08,1,0.73941,-1.0124,-1.3132,0.25208,1.4928,1.3059,1.0747,-0.67747,-1.4811,-0.26482
1.2306e+05,1.0949e+08,1,0.73941,-1.0124,-1.3132,0.25208,1.4928,1.3059,1.0747,-0.67747,-1.4811,-0.26482
1.231e+05,1.095e+08,1,0.73941,-1.0124,-1.3132,0.25208,1.4928,1.3059,1.0747,-0.67747,-1.4811,-0.26482
1.2315e+05,1.0951e+08,1,0.73941,-1.0124,-1.3132,0.25208,1.4928,1.3059,1.0747,-0.67747,-1.4811,-0.26482
1.2319e+05,1.0952e+08,1,0.73941,-1.0124,-1.3132,0.25208,1.4928,1.3059,1.0747,-0.67747,-1.4811,-0.26482
1.2324e+05,1.0953e+08,1,0.73941,-1.0124,-1.3132,0.25208,1.4928,1.3059,1.0747,-0.67747,-1.4811,-0.26482
1.2329e+05,1.0954e+08,1,0.73941,-1.0124,-1.3132,0.25208,1.4928,1.3059,1.0747,-0.67747,-1.4811,-0.26482
1.2333e+05,1.0955e+08,1,0.73941,-1.0124,-1.3132,0.25208,1.4928,1.3059,1.0747,-0.67747,-1.4811,-0.26482
1.2338e+05,1.0956e+08,1,0.73941,-1.0124,-1.3132,0.25208,1.4928,1.3059,1.0747,-0.67747,-1.4811,-0.26482
1.2342e+05,1.0957e+08,1,0.73941,-1.0124,-1.3132,0.25208,1.4928,1.3059,1.0747,-0.67747,-1.4811,-0.26482
1.2347e+05,1.0958e+08,1,0.73941,-1.0124,-1.3132,0.25208,1.4928,1.3059,1.0747,-0.67747,-1.4811,-0.26482
1.2351e+05,1.0959e+08,1,0.73941,-1.0124,-1.3132,0.25208,1.4928,1.3059,1.0747,-0.67747,-1.4811,-0.26482
1.2356e+05,1.096e+08,1,0.73941,-1.0124,-1.3132,0.25208,1.4928,1.3059,1.0747,-0.67747,-1.4811,-0.26482
1.236e+05,1.0961e+08,1,0.73941,-1.0124,-1.3132,0.25208,1.4928,1.3059,1.0747,-0.67747,-1.4811,-0.26482
1.2364e+05,1.0962e+08,1,0.73941,-1.0124,-1.3132,0.25208,1.4928,1.3059,1.0747,-0.67747,-1.4811,-0.26482
1.2369e+05,1.0963e+08,1,0.73941,-1.0124,-1.3132,0.25208,1.4928,1.3059,1.0747,-0.67747,-1.4811,-0.26482
1.2374e+05,1.0964e+08,1,0.73941,-1.0124,-1.3132,0.25208,1.4928,1.3059,1.0747,-0.67747,-1.4811,-0.26482
1.2378e+05,1.0965e+08,1,0.78605,-1.0644,-1.3748,0.27922,1.5935,1.416,1.1595,-0.68933,-1.5378,-0.24652
1.2382e+05,1.0966e+08,1,0.78605,-1.0644,-1.3748,0.27922,1.5935,1.416,1.1595,-0.68933,-1.5378,-0.24652
1.2387e+05,1.0967e+08,1,0.78605,-1.0644,-1.3748,0.27922,1.5935,1.416,1.1595,-0.68933,-1.5378,-0.24652
1.2392e+05,1.0968e+08,1,0.78605,-1.0644,-1.3748,0.27922,1.5935,1.416,1.1595,-0.68933,-1.5378,-0.24652
1.2396e+05,1.097e+08,1,0.78605,-1.0644,-1.3748,0.27922,1.5935,1.416,1.1595,-0.68933,-1.5378,-0.24652
1.24e+05,1.0971e+08,1,0.78605,-1.0644,-1.3748,0.27922,1.5935,1.416,1.1595,-0.68933,-1.5378,-0.24652
1.2405e+05,1.0972e+08,1,0.78605,-1.0644,-1.3748,0.27922,1.5935,1.416,1.1595,-0.68933,-1.5378,-0.24652
1.241e+05,1.0973e+08,1,0.78605,-1.0644,-1.3748,0.27922,1.5935,1.416,1.1595,-0.68933,-1.5378,-0.24652
1.2414e+05,1.0974e+08,1,0.78605,-1.0644,-1.3748,0.27922,1.5935,1.416,1.1595,-0.68933,-1.5378,-0.24652
1.2418e+05,1.0975e+08,1,0.78605,-1.0644,-1.3748,0.27922,1.5935,1.416,1.1595,-0.68933,-1.5378,-0.24652
1.2423e+05,1.0976e+08,1,0.78605,-1.0644,-1.3748,0.27922,1.5935,1.416,1.1595,-0.68933,-1.5378,-0.24652
1.2428e+05,1.0977e+08,1,0.78605,-1.0644,-1.3748,0.27922,1.5935,1.416,1.1595,-0.68933,-1.5378,-0.24652
1.2432e+05,1.0978e+08,1,0.78605,-1.0644,-1.3748,0.27922,1.5935,1.416,1.1595,-0.68933,-1.5378,-0.24652
1.2437e+05,1.0979e+08,1,0.78605,-1.0644,-1.3748,0.27922,1.5935,1.416,1.1595,-0.68933,-1.5378,-0.24652
1.2441e+05,1.098e+08,1,0.78605,-1.0644,-1.3748,0.27922,1.5935,1.416,1.1595,-0.68933,-1.5378,-0.24652
1.2446e+05,1.0981e+08,1,0.78605,-1.0644,-1.3748,0.27922,1.5935,1.416,1.1595,-0.68933,-1.5378,-0.24652
1.245e+05,1.0982e+08,1,0.78605,-1.0644,-1.3748,0.27922,1.5935,1.416,1.1595,-0.68933,-1.5378,-0.24652
1.2455e+05,1.0983e+08,1,0.78605,-1.0644,-1.3748,0.27922,1.5935,1.416,1.1595,-0.68933,-1.5378,-0.24652
1.2459e+05,1.0984e+08,1,0.77147,-1.1313,-1.4533,0.22859,1.5913,1.4259,1.1659,-0.72331,-1.6031,-0.2928
1.2463e+05,1.0985e+08,1,0.77147,-1.1313,-1.4533,0.22859,1.5913,1.4259,1.1659,-0.72331,-1.6031,-0.2928
1.2468e+05,1.0986e+08,1,0.77147,-1.1313,-1.4533,0.22859,1.5913,1.4259,1.1659,-0.72331,-1.6031,-0.2928
1.2473e+05,1.0987e+08,1,0.77147,-1.1313,-1.4533,0.22859,1.5913,1.4259,1.1659,-0.72331,-1.6031,-0.2928
1.2478e+05,1.0988e+08,1,0.77147,-1.1313,-1.4533,0.22859,1.5913,1.4259,1.1659,-0.72331,-1.6031,-0.2928
1.2482e+05,1.0989e+08,1,0.77147,-1.1313,-1.4533,0.22859,1.5913,1.4259,1.1659,-0.72331,-1.6031,-0.2928
1.2486e+05,1.099e+08,1,0.77147,-1.1313,-1.4533,0.22859,1.5913,1.4259,1.1659,-0.72331,-1.6031,-0.2928
1.2491e+05,1.0991e+08,1,0.77147,-1.1313,-1.4533,0.22859,1.5913,1.4259,1.1659,-0.72331,-1.6031,-0.2928
1.2496e+05,1.0992e+08,1,0.77147,-1.1313,-1.4533,0.22859,1.5913,1.4259,1.1659,-0.72331,-1.6031,-0.2928
1.25e+05,1.0993e+08,1,0.77147,-1.1313,-1.4533,0.22859,1.5913,1.4259,1.1659,-0.72331,-1.6031,-0.2928
1.2505e+05,1.0994e+08,1,0.77147,-1.1313,-1.4533,0.22859,1.5913,1.4259,1.1659,-0.72331,-1.6031,-0.2928
1.2509e+05,1.0995e+08,1,0.77147,-1.1313,-1.4533,0.22859,1.5913,1.4259,1.1659,-0.72331,-1.6031,-0.2928
1.2514e+05,1.0996e+08,1,0.77147,-1.1313,-1.4533,0.22859,1.5913,1.4259,1.1659,-0.72331,-1.6031,-0.2928
1.2518e+05,1.0997e+08,1,0.77147,-1.1313,-1.4533,0.22859,1.5913,1.4259,1.1659,-0.72331,-1.6031,-0.2928
1.2523e+05,1.0998e+08,1,0.77147,-1.1313,-1.4533,0.22859,1.5913,1.4259,1.1659,-0.72331,-1.6031,-0.2928
1.2528e+05,1.0999e+08,1,0.77147,-1.1313,-1.4533,0.22859,1.5913,1.4259,1.1659,-0.72331,-1.6031,-0.2928
1.2532e+05,1.1e+08,1,0.77147,-1.1313,-1.4533,0.22859,1.5913,1.4259,1.1659,-0.72331,-1.6031,-0.2928
1.2536e+05,1.1001e+08,1,0.77147,-1.1313,-1.4533,0.22859,1.5913,1.4259,1.1659,-0.72331,-1.6031,-0.2928
1.2541e+05,1.1002e+08,1,0.77147,-1.1313,-1.4533,0.22859,1.5913,1.4259,1.1659,-0.72331,-1.6031,-0.2928
1.2546e+05,1.1003e+08,1,0.77147,-1.1313,-1.4533,0.22859,1.5913,1.4259,1.1659,-0.72331,-1.6031,-0.2928
1.255e+05,1.1005e+08,1,0.8152,-1.2068,-1.5472,0.24287,1.6872,1.483,1.2062,-0.80364,-1.7353,-0.3409
1.2554e+05,1.1006e+08,1,0.8152,-1.2068,-1.5472,0.24287,1.6872,1.483,1.2062,-0.80364,-1.7353,-0.3409
1.2559e+05,1.1007e+08,1,0.8152,-1.2068,-1.5472,0.24287,1.6872,1.483,1.2062,-0.80364,-1.7353,-0.3409
1.2564e+05,1.1008e+08,1,0.8152,-1.2068,-1.5472,0.24287,1.6872,1.483,1.2062,-0.80364,-1.7353,-0.3409
1.2568e+05,1.1009e+08,1,0.8152,-1.2068,-1.5472,0.24287,1.6872,1.483,1.2062,-0.80364,-1.7353,-0.3409
1.2573e+05,1.101e+08,1,0.8152,-1.2068,-1.5472,0.24287,1.6872,1.483,1.2062,-0.80364,-1.7353,-0.3409
1.2578e+05,1.1011e+08,1,0.8152,-1.2068,-1.5472,0.24287,1.6872,1.483,1.2062,-0.80364,-1.7353,-0.3409
1.2582e+05,1.1012e+08,1,0.8152,-1.2068,-1.5472,0.24287,1.6872,1.483,1.2062,-0.80364,-1.7353,-0.3409
1.2586e+05,1.1013e+08,1,0.8152,-1.2068,-1.5472,0.24287,1.6872,1.483,1.2062,-0.80364,-1.7353,-0.3409
1.2591e+05,1.1014e+08,1,0.8152,-1.2068,-1.5472,0.24287,1.6872,1.483,1.2062,-0.80364,-1.7353,-0.3409
1.2596e+05,1.1015e+08,1,0.8152,-1.2068,-1.5472,0.24287,1.6872,1.483,1.2062,-0.80364,-1.7353,-0.3409
1.26e+05,1.1016e+08,1,0.8152,-1.2068,-1.5472,0.24287,1.6872,1.483,1.2062,-0.80364,-1.7353,-0.3409
1.2605e+05,1.1017e+08,1,0.8152,-1.2068,-1.5472,0.24287,1.6872,1.483,1.2062,-0.80364,-1.7353,-0.3409
1.261e+05,1.1018e+08,1,0.8152,-1.2068,-1.5472,0.24287,1.6872,1.483,1.2062,-0.80364,-1.7353,-0.3409
1.2614e+05,1.1019e+08,1,0.8152,-1.2068,-1.5472,0.24287,1.6872,1.483,1.2062,-0.80364,-1.7353,-0.3409
1.2618e+05,1.102e+08,1,0.8152,-1.2068,-1.5472,0.24287,1.6872,1.483,1.2062,-0.80364,-1.7353,-0.3409
1.2623e+05,1.1021e+08,1,0.8152,-1.2068,-1.5472,0.24287,1.6872,1.483,1.2062,-0.80364,-1.7353,-0.3409
1.2628e+05,1.1022e+08,1,0.8152,-1.2068,-1.5472,0.24287,1.6872,1.483,1.2062,-0.80364,-1.7353,-0.3409
1.2633e+05,1.1023e+08,1,0.8152,-1.2068,-1.5472,0.24287,1.6872,1.483,1.2062,-0.80364,-1.7353,-0.3409
1.2637e+05,1.1024e+08,1,0.8152,-1.2068,-1.5472,0.24287,1.6872,1.483,1.2062,-0.80364,-1.7353,-0.3409
1.2642e+05,1.1026e+08,1,0.8152,-1.2068,-1.5472,0.24287,1.6872,1.483,1.2062,-0.80364,-1.7353,-0.3409
1.2646e+05,1.1027e+08,1,0.84862,-1.255,-1.6113,0.2632,1.7646,1.5466,1.2564,-0.84105,-1.8119,-0.34825
1.2651e+05,1.1028e+08,1,0.84862,-1.255,-1.6113,0.2632,1.7646,1.5466,1.2564,-0.84105,-1.8119,-0.34825
1.2655e+05,1.1029e+08,1,0.84862,-1.255,-1.6113,0.2632,1.7646,1.5466,1.2564,-0.84105,-1.8119,-0.34825
1.266e+05,1.103e+08,1,0.84862,-1.255,-1.6113,0.2632,1.7646,1.5466,1.2564,-0.84105,-1.8119,-0.34825
1.2664e+05,1.1031e+08,1,0.84862,-1.255,-1.6113,0.2632,1.7646,1.5466,1.2564,-0.84105,-1.8119,-0.34825
1.2669e+05,1.1032e+08,1,0.84862,-1.255,-1.6113,0.2632,1.7646,1.5466,1.2564,-0.84105,-1.8119,-0.34825
1.2674e+05,1.1033e+08,1,0.84862,-1.255,-1.6113,0.2632,1.7646,1.5466,1.2564,-0.84105,-1.8119,-0.34825
1.2678e+05,1.1034e+08,1,0.84862,-1.255,-1.6113,0.2632,1.7646,1.5466,1.2564,-0.84105,-1.8119,-0.34825
1.2682e+05,1.1035e+08,1,0.84862,-1.255,-1.6113,0.2632,1.7646,1.5466,1.2564,-0.84105,-1.8119,-0.34825
1.2687e+05,1.1036e+08,1,0.84862,-1.255,-1.6113,0.2632,1.7646,1.5466,1.2564,-0.84105,-1.8119,-0.34825
1.2692e+05,1.1037e+08,1,0.84862,-1.255,-1.6113,0.2632,1.7646,1.5466,1.2564,-0.84105,-1.8119,-0.34825
1.2696e+05,1.1038e+08,1,0.84862,-1.255,-1.6113,0.2632,1.7646,1.5466,1.2564,-0.84105,-1.8119,-0.34825
1.2701e+05,1.1039e+08,1,0.84862,-1.255,-1.6113,0.2632,1.7646,1.5466,1.2564,-0.84105,-1.8119,-0.34825
1.2705e+05,1.104e+08,1,0.84862,-1.255,-1.6113,0.2632,1.7646,1.5466,1.2564,-0.84105,-1.8119,-0.34825
1.271e+05,1.1041e+08,1,0.84862,-1.255,-1.6113,0.2632,1.7646,1.5466,1.2564,-0.84105,-1.8119,-0.34825
1.2714e+05,1.1042e+08,1,0.84862,-1.255,-1.6113,0.2632,1.7646,1.5466,1.2564,-0.84105,-1.8119,-0.34825
1.2719e+05,1.1043e+08,1,0.84862,-1.255,-1.6113,0.2632,1.7646,1.5466,1.2564,-0.84105,-1.8119,-0.34825
1.2724e+05,1.1044e+08,1,0.84862,-1.255,-1.6113,0.2632,1.7646,1.5466,1.2564,-0.84105,-1.8119,-0.34825
1.2727e+05,1.1045e+08,1,0.85759,-1.277,-1.6525,0.25218,1.7829,1.6271,1.343,-0.78639,-1.784,-0.29776
1.2732e+05,1.1046e+08,1,0.85759,-1.277,-1.6525,0.25218,1.7829,1.6271,1.343,-0.78639,-1.784,-0.29776
1.2736e+05,1.1047e+08,1,0.85759,-1.277,-1.6525,0.25218,1.7829,1.6271,1.343,-0.78639,-1.784,-0.29776
1.2741e+05,1.1048e+08,1,0.85759,-1.277,-1.6525,0.25218,1.7829,1.6271,1.343,-0.78639,-1.784,-0.29776
1.2746e+05,1.1049e+08,1,0.85759,-1.277,-1.6525,0.25218,1.7829,1.6271,1.343,-0.78639,-1.784,-0.29776
1.275e+05,1.105e+08,1,0.85759,-1.277,-1.6525,0.25218,1.7829,1.6271,1.343,-0.78639,-1.784,-0.29776
1.2755e+05,1.1051e+08,1,0.85759,-1.277,-1.6525,0.25218,1.7829,1.6271,1.343,-0.78639,-1.784,-0.29776
1.276e+05,1.1053e+08,1,0.85759,-1.277,-1.6525,0.25218,1.7829,1.6271,1.343,-0.78639,-1.784,-0.29776
1.2764e+05,1.1054e+08,1,0.85759,-1.277,-1.6525,0.25218,1.7829,1.6271,1.343,-0.78639,-1.784,-0.29776
1.2768e+05,1.1055e+08,1,0.85759,-1.277,-1.6525,0.25218,1.7829,1.6271,1.343,-0.78639,-1.784,-0.29776
1.2773e+05,1.1056e+08,1,0.85759,-1.277,-1.6525,0.25218,1.7829,1.6271,1.343,-0.78639,-1.784,-0.29776
1.2777e+05,1.1057e+08,1,0.85759,-1.277,-1.6525,0.25218,1.7829,1.6271,1.343,-0.78639,-1.784,-0.29776
1.2782e+05,1.1058e+08,1,0.85759,-1.277,-1.6525,0.25218,1.7829,1.6271,1.343,-0.78639,-1.784,-0.29776
1.2787e+05,1.1059e+08,1,0.85759,-1.277,-1.6525,0.25218,1.7829,1.6271,1.343,-0.78639,-1.784,-0.29776
1.2791e+05,1.106e+08,1,0.85759,-1.277,-1.6525,0.25218,1.7829,1.6271,1.343,-0.78639,-1.784,-0.29776
1.2796e+05,1.1061e+08,1,0.85759,-1.277,-1.6525,0.25218,1.7829,1.6271,1.343,-0.78639,-1.784,-0.29776
1.28e+05,1.1062e+08,1,0.85759,-1.277,-1.6525,0.25218,1.7829,1.6271,1.343,-0.78639,-1.784,-0.29776
1.2805e+05,1.1063e+08,1,0.85759,-1.277,-1.6525,0.25218,1.7829,1.6271,1.343,-0.78639,-1.784,-0.29776
1.2809e+05,1.1064e+08,1,0.85759,-1.277,-1.6525,0.25218,1.7829,1.6271,1.343,-0.78639,-1.784,-0.29776
1.2814e+05,1.1065e+08,1,0.90872,-1.3186,-1.7032,0.28171,1.8713,1.6969,1.3986,-0.82333,-1.8547,-0.30823
1.2818e+05,1.1066e+08,1,0.90872,-1.3186,-1.7032,0.28171,1.8713,1.6969,1.3986,-0.82333,-1.8547,-0.30823
1.2824e+05,1.107e+08,1,0.90872,-1.3186,-1.7032,0.28171,1.8713,1.6969,1.3986,-0.82333,-1.8547,-0.30823
1.2829e+05,1.1071e+08,1,0.90872,-1.3186,-1.7032,0.28171,1.8713,1.6969,1.3986,-0.82333,-1.8547,-0.30823
1.2833e+05,1.1072e+08,1,0.90872,-1.3186,-1.7032,0.28171,1.8713,1.6969,1.3986,-0.82333,-1.8547,-0.30823
1.2838e+05,1.1073e+08,1,0.90872,-1.3186,-1.7032,0.28171,1.8713,1.6969,1.3986,-0.82333,-1.8547,-0.30823
1.2842e+05,1.1074e+08,1,0.90872,-1.3186,-1.7032,0.28171,1.8713,1.6969,1.3986,-0.82333,-1.8547,-0.30823
1.2846e+05,1.1075e+08,1,0.90872,-1.3186,-1.7032,0.28171,1.8713,1.6969,1.3986,-0.82333,-1.8547,-0.30823
1.2851e+05,1.1076e+08,1,0.90872,-1.3186,-1.7032,0.28171,1.8713,1.6969,1.3986,-0.82333,-1.8547,-0.30823
1.2855e+05,1.1077e+08,1,0.90872,-1.3186,-1.7032,0.28171,1.8713,1.6969,1.3986,-0.82333,-1.8547,-0.30823
1.286e+05,1.1078e+08,1,0.90872,-1.3186,-1.7032,0.28171,1.8713,1.6969,1.3986,-0.82333,-1.8547,-0.30823
1.2865e+05,1.1079e+08,1,0.90872,-1.3186,-1.7032,0.28171,1.8713,1.6969,1.3986,-0.82333,-1.8547,-0.30823
1.287e+05,1.108e+08,1,0.90872,-1.3186,-1.7032,0.28171,1.8713,1.6969,1.3986,-0.82333,-1.8547,-0.30823
1.2874e+05,1.1081e+08,1,0.90872,-1.3186,-1.7032,0.28171,1.8713,1.6969,1.3986,-0.82333,-1.8547,-0.30823
1.2879e+05,1.1083e+08,1,0.90872,-1.3186,-1.7032,0.28171,1.8713,1.6969,1.3986,-0.82333,-1.8547,-0.30823
1.2883e+05,1.1084e+08,1,0.88051,-1.3512,-1.7165,0.27666,1.8571,1.6971,1.381,-0.84815,-1.8634,-0.30663
1.2888e+05,1.1085e+08,1,0.88051,-1.3512,-1.7165,0.27666,1.8571,1.6971,1.381,-0.84815,-1.8634,-0.30663
1.2892e+05,1.1086e+08,1,0.88051,-1.3512,-1.7165,0.27666,1.8571,1.6971,1.381,-0.84815,-1.8634,-0.30663
1.2897e+05,1.1087e+08,1,0.88051,-1.3512,-1.7165,0.27666,1.8571,1.6971,1.381,-0.84815,-1.8634,-0.30663
1.2901e+05,1.1088e+08,1,0.88051,-1.3512,-1.7165,0.27666,1.8571,1.6971,1.381,-0.84815,-1.8634,-0.30663
1.2906e+05,1.1089e+08,1,0.88051,-1.3512,-1.7165,0.27666,1.8571,1.6971,1.381,-0.84815,-1.8634,-0.30663
1.2911e+05,1.109e+08,1,0.88051,-1.3512,-1.7165,0.27666,1.8571,1.6971,1.381,-0.84815,-1.8634,-0.30663
1.2915e+05,1.1091e+08,1,0.88051,-1.3512,-1.7165,0.27666,1.8571,1.6971,1.381,-0.84815,-1.8634,-0.30663
1.292e+05,1.1092e+08,1,0.88051,-1.3512,-1.7165,0.27666,1.8571,1.6971,1.381,-0.84815,-1.8634,-0.30663
1.2924e+05,1.1094e+08,1,0.88051,-1.3512,-1.7165,0.27666,1.8571,1.6971,1.381,-0.84815,-1.8634,-0.30663
1.2929e+05,1.1095e+08,1,0.88051,-1.3512,-1.7165,0.27666,1.8571,1.6971,1.381,-0.84815,-1.8634,-0.30663
1.2933e+05,1.1096e+08,1,0.88051,-1.3512,-1.7165,0.27666,1.8571,1.6971,1.381,-0.84815,-1.8634,-0.30663
1.2938e+05,1.1097e+08,1,0.88051,-1.3512,-1.7165,0.27666,1.8571,1.6971,1.381,-0.84815,-1.8634,-0.30663
1.2942e+05,1.1098e+08,1,0.88051,-1.3512,-1.7165,0.27666,1.8571,1.6971,1.381,-0.84815,-1.8634,-0.30663
1.2947e+05,1.1099e+08,1,0.88051,-1.3512,-1.7165,0.27666,1.8571,1.6971,1.381,-0.84815,-1.8634,-0.30663
1.2951e+05,1.11e+08,1,0.88051,-1.3512,-1.7165,0.27666,1.8571,1.6971,1.381,-0.84815,-1.8634,-0.30663
1.2956e+05,1.1101e+08,1,0.88051,-1.3512,-1.7165,0.27666,1.8571,1.6971,1.381,-0.84815,-1.8634,-0.30663
1.2961e+05,1.1102e+08,1,0.88051,-1.3512,-1.7165,0.27666,1.8571,1.6971,1.381,-0.84815,-1.8634,-0.30663
1.2965e+05,1.1103e+08,1,0.88051,-1.3512,-1.7165,0.27666,1.8571,1.6971,1.381,-0.84815,-1.8634,-0.30663
1.297e+05,1.1104e+08,1,0.88051,-1.3512,-1.7165,0.27666,1.8571,1.6971,1.381,-0.84815,-1.8634,-0.30663
1.2974e+05,1.1105e+08,1,0.90809,-1.3846,-1.7774,0.25717,1.8885,1.7121,1.4094,-0.87482,-1.9301,-0.35026
1.2978e+05,1.1106e+08,1,0.90809,-1.3846,-1.7774,0.25717,1.8885,1.7121,1.4094,-0.87482,-1.9301,-0.35026
1.2983e+05,1.1107e+08,1,0.90809,-1.3846,-1.7774,0.25717,1.8885,1.7121,1.4094,-0.87482,-1.9301,-0.35026
1.2987e+05,1.1108e+08,1,0.90809,-1.3846,-1.7774,0.25717,1.8885,1.7121,1.4094,-0.87482,-1.9301,-0.35026
1.2992e+05,1.1109e+08,1,0.90809,-1.3846,-1.7774,0.25717,1.8885,1.7121,1.4094,-0.87482,-1.9301,-0.35026
1.2997e+05,1.111e+08,1,0.90809,-1.3846,-1.7774,0.25717,1.8885,1.7121,1.4094,-0.87482,-1.9301,-0.35026
1.3001e+05,1.1111e+08,1,0.90809,-1.3846,-1.7774,0.25717,1.8885,1.7121,1.4094,-0.87482,-1.9301,-0.35026
1.3006e+05,1.1112e+08,1,0.90809,-1.3846,-1.7774,0.25717,1.8885,1.7121,1.4094,-0.87482,-1.9301,-0.35026
1.301e+05,1.1113e+08,1,0.90809,-1.3846,-1.7774,0.25717,1.8885,1.7121,1.4094,-0.87482,-1.9301,-0.35026
1.3015e+05,1.1114e+08,1,0.90809,-1.3846,-1.7774,0.25717,1.8885,1.7121,1.4094,-0.87482,-1.9301,-0.35026
1.302e+05,1.1115e+08,1,0.90809,-1.3846,-1.7774,0.25717,1.8885,1.7121,1.4094,-0.87482,-1.9301,-0.35026
1.3024e+05,1.1116e+08,1,0.90809,-1.3846,-1.7774,0.25717,1.8885,1.7121,1.4094,-0.87482,-1.9301,-0.35026
1.3029e+05,1.1118e+08,1,0.90809,-1.3846,-1.7774,0.25717,1.8885,1.7121,1.4094,-0.87482,-1.9301,-0.35026
1.3033e+05,1.1119e+08,1,0.90809,-1.3846,-1.7774,0.25717,1.8885,1.7121,1.4094,-0.87482,-1.9301,-0.35026
1.3038e+05,1.112e+08,1,0.90809,-1.3846,-1.7774,0.25717,1.8885,1.7121,1.4094,-0.87482,-1.9301,-0.35026
1.3042e+05,1.1121e+08,1,0.90809,-1.3846,-1.7774,0.25717,1.8885,1.7121,1.4094,-0.87482,-1.9301,-0.35026
1.3047e+05,1.1122e+08,1,0.90809,-1.3846,-1.7774,0.25717,1.8885,1.7121,1.4094,-0.87482,-1.9301,-0.35026
1.3052e+05,1.1123e+08,1,0.90809,-1.3846,-1.7774,0.25717,1.8885,1.7121,1.4094,-0.87482,-1.9301,-0.35026
1.3056e+05,1.1124e+08,1,0.90809,-1.3846,-1.7774,0.25717,1.8885,1.7121,1.4094,-0.87482,-1.9301,-0.35026
1.306e+05,1.1125e+08,1,0.956,-1.3736,-1.7705,0.30112,1.953,1.7296,1.4215,-0.90294,-1.9703,-0.36229
1.3065e+05,1.1126e+08,1,0.956,-1.3736,-1.7705,0.30112,1.953,1.7296,1.4215,-0.90294,-1.9703,-0.36229
1.3069e+05,1.1127e+08,1,0.956,-1.3736,-1.7705,0.30112,1.953,1.7296,1.4215,-0.90294,-1.9703,-0.36229
1.3074e+05,1.1128e+08,1,0.956,-1.3736,-1.7705,0.30112,1.953,1.7296,1.4215,-0.90294,-1.9703,-0.36229
1.3078e+05,1.1129e+08,1,0.956,-1.3736,-1.7705,0.30112,1.953,1.7296,1.4215,-0.90294,-1.9703,-0.36229
1.3083e+05,1.113e+08,1,0.956,-1.3736,-1.7705,0.30112,1.953,1.7296,1.4215,-0.90294,-1.9703,-0.36229
1.3088e+05,1.1131e+08,1,0.956,-1.3736,-1.7705,0.30112,1.953,1.7296,1.4215,-0.90294,-1.9703,-0.36229
1.3092e+05,1.1132e+08,1,0.956,-1.3736,-1.7705,0.30112,1.953,1.7296,1.4215,-0.90294,-1.9703,-0.36229
1.3096e+05,1.1133e+08,1,0.956,-1.3736,-1.7705,0.30112,1.953,1.7296,1.4215,-0.90294,-1.9703,-0.36229
1.3101e+05,1.1134e+08,1,0.956,-1.3736,-1.7705,0.30112,1.953,1.7296,1.4215,-0.90294,-1.9703,-0.36229
1.3106e+05,1.1135e+08,1,0.956,-1.3736,-1.7705,0.30112,1.953,1.7296,1.4215,-0.90294,-1.9703,-0.36229
1.311e+05,1.1136e+08,1,0.956,-1.3736,-1.7705,0.30112,1.953,1.7296,1.4215,-0.90294,-1.9703,-0.36229
1.3114e+05,1.1137e+08,1,0.956,-1.3736,-1.7705,0.30112,1.953,1.7296,1.4215,-0.90294,-1.9703,-0.36229
1.3119e+05,1.1138e+08,1,0.956,-1.3736,-1.7705,0.30112,1.953,1.7296,1.4215,-0.90294,-1.9703,-0.36229
1.3123e+05,1.114e+08,1,0.956,-1.3736,-1.7705,0.30112,1.953,1.7296,1.4215,-0.90294,-1.9703,-0.36229
1.3128e+05,1.1141e+08,1,0.956,-1.3736,-1.7705,0.30112,1.953,1.7296,1.4215,-0.90294,-1.9703,-0.36229
1.3133e+05,1.1142e+08,1,0.956,-1.3736,-1.7705,0.30112,1.953,1.7296,1.4215,-0.90294,-1.9703,-0.36229
1.3137e+05,1.1143e+08,1,0.956,-1.3736,-1.7705,0.30112,1.953,1.7296,1.4215,-0.90294,-1.9703,-0.36229
1.3142e+05,1.1144e+08,1,0.956,-1.3736,-1.7705,0.30112,1.953,1.7296,1.4215,-0.90294,-1.9703,-0.36229
1.3146e+05,1.1145e+08,1,0.956,-1.3736,-1.7705,0.30112,1.953,1.7296,1.4215,-0.90294,-1.9703,-0.36229
1.3151e+05,1.1146e+08,1,0.956,-1.3736,-1.7705,0.30112,1.953,1.7296,1.4215,-0.90294,-1.9703,-0.36229
1.3155e+05,1.1147e+08,1,0.99207,-1.4072,-1.8031,0.34004,2.0342,1.827,1.4948,-0.90385,-1.9931,-0.32352
1.3159e+05,1.1148e+08,1,0.99207,-1.4072,-1.8031,0.34004,2.0342,1.827,1.4948,-0.90385,-1.9931,-0.32352
1.3164e+05,1.1149e+08,1,0.99207,-1.4072,-1.8031,0.34004,2.0342,1.827,1.4948,-0.90385,-1.9931,-0.32352
1.3168e+05,1.115e+08,1,0.99207,-1.4072,-1.8031,0.34004,2.0342,1.827,1.4948,-0.90385,-1.9931,-0.32352
1.3173e+05,1.1151e+08,1,0.99207,-1.4072,-1.8031,0.34004,2.0342,1.827,1.4948,-0.90385,-1.9931,-0.32352
1.3178e+05,1.1152e+08,1,0.99207,-1.4072,-1.8031,0.34004,2.0342,1.827,1.4948,-0.90385,-1.9931,-0.32352
1.3182e+05,1.1153e+08,1,0.99207,-1.4072,-1.8031,0.34004,2.0342,1.827,1.4948,-0.90385,-1.9931,-0.32352
1.3187e+05,1.1154e+08,1,0.99207,-1.4072,-1.8031,0.34004,2.0342,1.827,1.4948,-0.90385,-1.9931,-0.32352
1.3191e+05,1.1155e+08,1,0.99207,-1.4072,-1.8031,0.34004,2.0342,1.827,1.4948,-0.90385,-1.9931,-0.32352
1.3196e+05,1.1156e+08,1,0.99207,-1.4072,-1.8031,0.34004,2.0342,1.827,1.4948,-0.90385,-1.9931,-0.32352
1.32e+05,1.1157e+08,1,0.99207,-1.4072,-1.8031,0.34004,2.0342,1.827,1.4948,-0.90385,-1.9931,-0.32352
1.3204e+05,1.1158e+08,1,0.99207,-1.4072,-1.8031,0.34004,2.0342,1.827,1.4948,-0.90385,-1.9931,-0.32352
1.3209e+05,1.1159e+08,1,0.99207,-1.4072,-1.8031,0.34004,2.0342,1.827,1.4948,-0.90385,-1.9931,-0.32352
1.3214e+05,1.116e+08,1,0.99207,-1.4072,-1.8031,0.34004,2.0342,1.827,1.4948,-0.90385,-1.9931,-0.32352
1.3218e+05,1.1161e+08,1,0.99207,-1.4072,-1.8031,0.34004,2.0342,1.827,1.4948,-0.90385,-1.9931,-0.32352
1.3223e+05,1.1162e+08,1,0.99207,-1.4072,-1.8031,0.34004,2.0342,1.827,1.4948,-0.90385,-1.9931,-0.32352
1.3228e+05,1.1163e+08,1,0.99207,-1.4072,-1.8031,0.34004,2.0342,1.827,1.4948,-0.90385,-1.9931,-0.32352
1.3232e+05,1.1164e+08,1,0.99207,-1.4072,-1.8031,0.34004,2.0342,1.827,1.4948,-0.90385,-1.9931,-0.32352
1.3237e+05,1.1165e+08,1,0.99207,-1.4072,-1.8031,0.34004,2.0342,1.827,1.4948,-0.90385,-1.9931,-0.32352
1.3241e+05,1.1166e+08,1,1.0101,-1.4354,-1.8428,0.33246,2.0644,1.8345,1.501,-0.93848,-2.0532,-0.36132
1.3245e+05,1.1167e+08,1,1.0101,-1.4354,-1.8428,0.33246,2.0644,1.8345,1.501,-0.93848,-2.0532,-0.36132
1.325e+05,1.1169e+08,1,1.0101,-1.4354,-1.8428,0.33246,2.0644,1.8345,1.501,-0.93848,-2.0532,-0.36132
1.3254e+05,1.117e+08,1,1.0101,-1.4354,-1.8428,0.33246,2.0644,1.8345,1.501,-0.93848,-2.0532,-0.36132
1.3259e+05,1.1171e+08,1,1.0101,-1.4354,-1.8428,0.33246,2.0644,1.8345,1.501,-0.93848,-2.0532,-0.36132
1.3264e+05,1.1172e+08,1,1.0101,-1.4354,-1.8428,0.33246,2.0644,1.8345,1.501,-0.93848,-2.0532,-0.36132
1.3268e+05,1.1173e+08,1,1.0101,-1.4354,-1.8428,0.33246,2.0644,1.8345,1.501,-0.93848,-2.0532,-0.36132
1.3273e+05,1.1174e+08,1,1.0101,-1.4354,-1.8428,0.33246,2.0644,1.8345,1.501,-0.93848,-2.0532,-0.36132
1.3277e+05,1.1175e+08,1,1.0101,-1.4354,-1.8428,0.33246,2.0644,1.8345,1.501,-0.93848,-2.0532,-0.36132
1.3282e+05,1.1176e+08,1,1.0101,-1.4354,-1.8428,0.33246,2.0644,1.8345,1.501,-0.93848,-2.0532,-0.36132
1.3286e+05,1.1177e+08,1,1.0101,-1.4354,-1.8428,0.33246,2.0644,1.8345,1.501,-0.93848,-2.0532,-0.36132
1.3291e+05,1.1178e+08,1,1.0101,-1.4354,-1.8428,0.33246,2.0644,1.8345,1.501,-0.93848,-2.0532,-0.36132
1.3295e+05,1.1179e+08,1,1.0101,-1.4354,-1.8428,0.33246,2.0644,1.8345,1.501,-0.93848,-2.0532,-0.36132
1.33e+05,1.118e+08,1,1.0101,-1.4354,-1.8428,0.33246,2.0644,1.8345,1.501,-0.93848,-2.0532,-0.36132
1.3304e+05,1.1181e+08,1,1.0101,-1.4354,-1.8428,0.33246,2.0644,1.8345,1.501,-0.93848,-2.0532,-0.36132
1.3309e+05,1.1182e+08,1,1.0101,-1.4354,-1.8428,0.33246,2.0644,1.8345,1.501,-0.93848,-2.0532,-0.36132
1.3313e+05,1.1183e+08,1,1.0101,-1.4354,-1.8428,0.33246,2.0644,1.8345,1.501,-0.93848,-2.0532,-0.36132
1.3318e+05,1.1184e+08,1,1.0101,-1.4354,-1.8428,0.33246,2.0644,1.8345,1.501,-0.93848,-2.0532,-0.36132
1.3322e+05,1.1185e+08,1,0.9543,-1.4101,-1.8074,0.29228,1.9706,1.7593,1.4398,-0.9165,-1.9983,-0.36603
1.3327e+05,1.1186e+08,1,0.9543,-1.4101,-1.8074,0.29228,1.9706,1.7593,1.4398,-0.9165,-1.9983,-0.36603
1.3331e+05,1.1187e+08,1,0.9543,-1.4101,-1.8074,0.29228,1.9706,1.7593,1.4398,-0.9165,-1.9983,-0.36603
1.3336e+05,1.1189e+08,1,0.9543,-1.4101,-1.8074,0.29228,1.9706,1.7593,1.4398,-0.9165,-1.9983,-0.36603
1.334e+05,1.119e+08,1,0.9543,-1.4101,-1.8074,0.29228,1.9706,1.7593,1.4398,-0.9165,-1.9983,-0.36603
1.3345e+05,1.1191e+08,1,0.9543,-1.4101,-1.8074,0.29228,1.9706,1.7593,1.4398,-0.9165,-1.9983,-0.36603
1.3349e+05,1.1192e+08,1,0.9543,-1.4101,-1.8074,0.29228,1.9706,1.7593,1.4398,-0.9165,-1.9983,-0.36603
1.3354e+05,1.1193e+08,1,0.9543,-1.4101,-1.8074,0.29228,1.9706,1.7593,1.4398,-0.9165,-1.9983,-0.36603
1.3358e+05,1.1194e+08,1,0.9543,-1.4101,-1.8074,0.29228,1.9706,1.7593,1.4398,-0.9165,-1.9983,-0.36603
1.3363e+05,1.1195e+08,1,0.9543,-1.4101,-1.8074,0.29228,1.9706,1.7593,1.4398,-0.9165,-1.9983,-0.36603
1.3368e+05,1.1196e+08,1,0.9543,-1.4101,-1.8074,0.29228,1.9706,1.7593,1.4398,-0.9165,-1.9983,-0.36603
1.3372e+05,1.1197e+08,1,0.9543,-1.4101,-1.8074,0.29228,1.9706,1.7593,1.4398,-0.9165,-1.9983,-0.36603
1.3376e+05,1.1198e+08,1,0.9543,-1.4101,-1.8074,0.29228,1.9706,1.7593,1.4398,-0.9165,-1.9983,-0.36603
1.3381e+05,1.1199e+08,1,0.9543,-1.4101,-1.8074,0.29228,1.9706,1.7593,1.4398,-0.9165,-1.9983,-0.36603
1.3386e+05,1.12e+08,1,0.9543,-1.4101,-1.8074,0.29228,1.9706,1.7593,1.4398,-0.9165,-1.9983,-0.36603
1.339e+05,1.1201e+08,1,0.9543,-1.4101,-1.8074,0.29228,1.9706,1.7593,1.4398,-0.9165,-1.9983,-0.36603
1.3395e+05,1.1202e+08,1,0.9543,-1.4101,-1.8074,0.29228,1.9706,1.7593,1.4398,-0.9165,-1.9983,-0.36603
1.34e+05,1.1203e+08,1,0.9543,-1.4101,-1.8074,0.29228,1.9706,1.7593,1.4398,-0.9165,-1.9983,-0.36603
1.3404e+05,1.1204e+08,1,0.9543,-1.4101,-1.8074,0.29228,1.9706,1.7593,1.4398,-0.9165,-1.9983,-0.36603
1.3409e+05,1.1205e+08,1,1.0096,-1.4068,-1.8274,0.31217,2.0352,1.7699,1.4583,-0.94675,-2.0641,-0.40586
1.3413e+05,1.1206e+08,1,1.0096,-1.4068,-1.8274,0.31217,2.0352,1.7699,1.4583,-0.94675,-2.0641,-0.40586
1.3418e+05,1.1207e+08,1,1.0096,-1.4068,-1.8274,0.31217,2.0352,1.7699,1.4583,-0.94675,-2.0641,-0.40586
1.3422e+05,1.1208e+08,1,1.0096,-1.4068,-1.8274,0.31217,2.0352,1.7699,1.4583,-0.94675,-2.0641,-0.40586
1.3427e+05,1.1209e+08,1,1.0096,-1.4068,-1.8274,0.31217,2.0352,1.7699,1.4583,-0.94675,-2.0641,-0.40586
1.3431e+05,1.121e+08,1,1.0096,-1.4068,-1.8274,0.31217,2.0352,1.7699,1.4583,-0.94675,-2.0641,-0.40586
1.3436e+05,1.1211e+08,1,1.0096,-1.4068,-1.8274,0.31217,2.0352,1.7699,1.4583,-0.94675,-2.0641,-0.40586
1.3441e+05,1.1213e+08,1,1.0096,-1.4068,-1.8274,0.31217,2.0352,1.7699,1.4583,-0.94675,-2.0641,-0.40586
1.3445e+05,1.1214e+08,1,1.0096,-1.4068,-1.8274,0.31217,2.0352,1.7699,1.4583,-0.94675,-2.0641,-0.40586
1.345e+05,1.1215e+08,1,1.0096,-1.4068,-1.8274,0.31217,2.0352,1.7699,1.4583,-0.94675,-2.0641,-0.40586
1.3454e+05,1.1216e+08,1,1.0096,-1.4068,-1.8274,0.31217,2.0352,1.7699,1.4583,-0.94675,-2.0641,-0.40586
1.3459e+05,1.1217e+08,1,1.0096,-1.4068,-1.8274,0.31217,2.0352,1.7699,1.4583,-0.94675,-2.0641,-0.40586
1.3463e+05,1.1218e+08,1,1.0096,-1.4068,-1.8274,0.31217,2.0352,1.7699,1.4583,-0.94675,-2.0641,-0.40586
1.3468e+05,1.1219e+08,1,1.0096,-1.4068,-1.8274,0.31217,2.0352,1.7699,1.4583,-0.94675,-2.0641,-0.40586
1.3472e+05,1.122e+08,1,1.0096,-1.4068,-1.8274,0.31217,2.0352,1.7699,1.4583,-0.94675,-2.0641,-0.40586
1.3477e+05,1.1221e+08,1,1.0096,-1.4068,-1.8274,0.31217,2.0352,1.7699,1.4583,-0.94675,-2.0641,-0.40586
1.3482e+05,1.1222e+08,1,1.0096,-1.4068,-1.8274,0.31217,2.0352,1.7699,1.4583,-0.94675,-2.0641,-0.40586
1.3486e+05,1.1223e+08,1,1.0096,-1.4068,-1.8274,0.31217,2.0352,1.7699,1.4583,-0.94675,-2.0641,-0.40586
1.3491e+05,1.1224e+08,1,0.98157,-1.4438,-1.8592,0.29638,2.0231,1.8167,1.4938,-0.92382,-2.0412,-0.36539
1.3495e+05,1.1225e+08,1,0.98157,-1.4438,-1.8592,0.29638,2.0231,1.8167,1.4938,-0.92382,-2.0412,-0.36539
1.35e+05,1.1227e+08,1,0.98157,-1.4438,-1.8592,0.29638,2.0231,1.8167,1.4938,-0.92382,-2.0412,-0.36539
1.3505e+05,1.1228e+08,1,0.98157,-1.4438,-1.8592,0.29638,2.0231,1.8167,1.4938,-0.92382,-2.0412,-0.36539
1.3509e+05,1.1229e+08,1,0.98157,-1.4438,-1.8592,0.29638,2.0231,1.8167,1.4938,-0.92382,-2.0412,-0.36539
1.3514e+05,1.123e+08,1,0.98157,-1.4438,-1.8592,0.29638,2.0231,1.8167,1.4938,-0.92382,-2.0412,-0.36539
1.3518e+05,1.1231e+08,1,0.98157,-1.4438,-1.8592,0.29638,2.0231,1.8167,1.4938,-0.92382,-2.0412,-0.36539
1.3522e+05,1.1232e+08,1,0.98157,-1.4438,-1.8592,0.29638,2.0231,1.8167,1.4938,-0.92382,-2.0412,-0.36539
1.3527e+05,1.1233e+08,1,0.98157,-1.4438,-1.8592,0.29638,2.0231,1.8167,1.4938,-0.92382,-2.0412,-0.36539
1.3532e+05,1.1234e+08,1,0.98157,-1.4438,-1.8592,0.29638,2.0231,1.8167,1.4938,-0.92382,-2.0412,-0.36539
1.3536e+05,1.1235e+08,1,0.98157,-1.4438,-1.8592,0.29638,2.0231,1.8167,1.4938,-0.92382,-2.0412,-0.36539
1.3541e+05,1.1236e+08,1,0.98157,-1.4438,-1.8592,0.29638,2.0231,1.8167,1.4938,-0.92382,-2.0412,-0.36539
1.3545e+05,1.1237e+08,1,0.98157,-1.4438,-1.8592,0.29638,2.0231,1.8167,1.4938,-0.92382,-2.0412,-0.36539
1.355e+05,1.1238e+08,1,0.98157,-1.4438,-1.8592,0.29638,2.0231,1.8167,1.4938,-0.92382,-2.0412,-0.36539
1.3554e+05,1.1239e+08,1,0.98157,-1.4438,-1.8592,0.29638,2.0231,1.8167,1.4938,-0.92382,-2.0412,-0.36539
1.3559e+05,1.124e+08,1,0.98157,-1.4438,-1.8592,0.29638,2.0231,1.8167,1.4938,-0.92382,-2.0412,-0.36539
1.3563e+05,1.1241e+08,1,0.98157,-1.4438,-1.8592,0.29638,2.0231,1.8167,1.4938,-0.92382,-2.0412,-0.36539
1.3568e+05,1.1242e+08,1,0.98157,-1.4438,-1.8592,0.29638,2.0231,1.8167,1.4938,-0.92382,-2.0412,-0.36539
1.3573e+05,1.1243e+08,1,0.98157,-1.4438,-1.8592,0.29638,2.0231,1.8167,1.4938,-0.92382,-2.0412,-0.36539
1.3577e+05,1.1244e+08,1,0.98157,-1.4438,-1.8592,0.29638,2.0231,1.8167,1.4938,-0.92382,-2.0412,-0.36539
1.3581e+05,1.1245e+08,1,0.97641,-1.475,-1.8813,0.30536,2.0413,1.8328,1.4932,-0.95495,-2.0721,-0.36776
1.3586e+05,1.1246e+08,1,0.97641,-1.475,-1.8813,0.30536,2.0413,1.8328,1.4932,-0.95495,-2.0721,-0.36776
1.359e+05,1.1247e+08,1,0.97641,-1.475,-1.8813,0.30536,2.0413,1.8328,1.4932,-0.95495,-2.0721,-0.36776
1.3595e+05,1.1248e+08,1,0.97641,-1.475,-1.8813,0.30536,2.0413,1.8328,1.4932,-0.95495,-2.0721,-0.36776
1.36e+05,1.1249e+08,1,0.97641,-1.475,-1.8813,0.30536,2.0413,1.8328,1.4932,-0.95495,-2.0721,-0.36776
1.3604e+05,1.125e+08,1,0.97641,-1.475,-1.8813,0.30536,2.0413,1.8328,1.4932,-0.95495,-2.0721,-0.36776
1.3608e+05,1.1251e+08,1,0.97641,-1.475,-1.8813,0.30536,2.0413,1.8328,1.4932,-0.95495,-2.0721,-0.36776
1.3613e+05,1.1252e+08,1,0.97641,-1.475,-1.8813,0.30536,2.0413,1.8328,1.4932,-0.95495,-2.0721,-0.36776
1.3618e+05,1.1253e+08,1,0.97641,-1.475,-1.8813,0.30536,2.0413,1.8328,1.4932,-0.95495,-2.0721,-0.36776
1.3622e+05,1.1254e+08,1,0.97641,-1.475,-1.8813,0.30536,2.0413,1.8328,1.4932,-0.95495,-2.0721,-0.36776
1.3627e+05,1.1255e+08,1,0.97641,-1.475,-1.8813,0.30536,2.0413,1.8328,1.4932,-0.95495,-2.0721,-0.36776
1.3631e+05,1.1256e+08,1,0.97641,-1.475,-1.8813,0.30536,2.0413,1.8328,1.4932,-0.95495,-2.0721,-0.36776
1.3636e+05,1.1257e+08,1,0.97641,-1.475,-1.8813,0.30536,2.0413,1.8328,1.4932,-0.95495,-2.0721,-0.36776
1.364e+05,1.1258e+08,1,0.97641,-1.475,-1.8813,0.30536,2.0413,1.8328,1.4932,-0.95495,-2.0721,-0.36776
1.3645e+05,1.1259e+08,1,0.97641,-1.475,-1.8813,0.30536,2.0413,1.8328,1.4932,-0.95495,-2.0721,-0.36776
1.3649e+05,1.126e+08,1,0.97641,-1.475,-1.8813,0.30536,2.0413,1.8328,1.4932,-0.95495,-2.0721,-0.36776
1.3654e+05,1.1261e+08,1,0.97641,-1.475,-1.8813,0.30536,2.0413,1.8328,1.4932,-0.95495,-2.0721,-0.36776
1.3658e+05,1.1262e+08,1,0.97641,-1.475,-1.8813,0.30536,2.0413,1.8328,1.4932,-0.95495,-2.0721,-0.36776
1.3663e+05,1.1263e+08,1,0.97641,-1.475,-1.8813,0.30536,2.0413,1.8328,1.4932,-0.95495,-2.0721,-0.36776
1.3668e+05,1.1265e+08,1,0.97641,-1.475,-1.8813,0.30536,2.0413,1.8328,1.4932,-0.95495,-2.0721,-0.36776
1.3672e+05,1.1266e+08,1,1.0396,-1.4511,-1.8661,0.356,2.1194,1.8732,1.531,-0.95689,-2.0927,-0.36191
1.3676e+05,1.1267e+08,1,1.0396,-1.4511,-1.8661,0.356,2.1194,1.8732,1.531,-0.95689,-2.0927,-0.36191
1.3681e+05,1.1268e+08,1,1.0396,-1.4511,-1.8661,0.356,2.1194,1.8732,1.531,-0.95689,-2.0927,-0.36191
1.3685e+05,1.1269e+08,1,1.0396,-1.4511,-1.8661,0.356,2.1194,1.8732,1.531,-0.95689,-2.0927,-0.36191
1.369e+05,1.127e+08,1,1.0396,-1.4511,-1.8661,0.356,2.1194,1.8732,1.531,-0.95689,-2.0927,-0.36191
1.3694e+05,1.1271e+08,1,1.0396,-1.4511,-1.8661,0.356,2.1194,1.8732,1.531,-0.95689,-2.0927,-0.36191
1.3699e+05,1.1272e+08,1,1.0396,-1.4511,-1.8661,0.356,2.1194,1.8732,1.531,-0.95689,-2.0927,-0.36191
1.3703e+05,1.1273e+08,1,1.0396,-1.4511,-1.8661,0.356,2.1194,1.8732,1.531,-0.95689,-2.0927,-0.36191
1.3708e+05,1.1274e+08,1,1.0396,-1.4511,-1.8661,0.356,2.1194,1.8732,1.531,-0.95689,-2.0927,-0.36191
1.3713e+05,1.1275e+08,1,1.0396,-1.4511,-1.8661,0.356,2.1194,1.8732,1.531,-0.95689,-2.0927,-0.36191
1.3717e+05,1.1276e+08,1,1.0396,-1.4511,-1.8661,0.356,2.1194,1.8732,1.531,-0.95689,-2.0927,-0.36191
1.3722e+05,1.1277e+08,1,1.0396,-1.4511,-1.8661,0.356,2.1194,1.8732,1.531,-0.95689,-2.0927,-0.36191
1.3726e+05,1.1278e+08,1,1.0396,-1.4511,-1.8661,0.356,2.1194,1.8732,1.531,-0.95689,-2.0927,-0.36191
1.3731e+05,1.1279e+08,1,1.0396,-1.4511,-1.8661,0.356,2.1194,1.8732,1.531,-0.95689,-2.0927,-0.36191
1.3735e+05,1.128e+08,1,1.0396,-1.4511,-1.8661,0.356,2.1194,1.8732,1.531,-0.95689,-2.0927,-0.36191
1.374e+05,1.1281e+08,1,1.0396,-1.4511,-1.8661,0.356,2.1194,1.8732,1.531,-0.95689,-2.0927,-0.36191
1.3744e+05,1.1283e+08,1,1.0396,-1.4511,-1.8661,0.356,2.1194,1.8732,1.531,-0.95689,-2.0927,-0.36191
1.3749e+05,1.1284e+08,1,1.0396,-1.4511,-1.8661,0.356,2.1194,1.8732,1.531,-0.95689,-2.0927,-0.36191
1.3754e+05,1.1285e+08,1,1.0396,-1.4511,-1.8661,0.356,2.1194,1.8732,1.531,-0.95689,-2.0927,-0.36191
1.3758e+05,1.1286e+08,1,0.99211,-1.4885,-1.894,0.32169,2.0756,1.884,1.534,-0.94454,-2.0707,-0.34146
1.3762e+05,1.1287e+08,1,0.99211,-1.4885,-1.894,0.32169,2.0756,1.884,1.534,-0.94454,-2.0707,-0.34146
1.3767e+05,1.1288e+08,1,0.99211,-1.4885,-1.894,0.32169,2.0756,1.884,1.534,-0.94454,-2.0707,-0.34146
1.3772e+05,1.1289e+08,1,0.99211,-1.4885,-1.894,0.32169,2.0756,1.884,1.534,-0.94454,-2.0707,-0.34146
1.3776e+05,1.129e+08,1,0.99211,-1.4885,-1.894,0.32169,2.0756,1.884,1.534,-0.94454,-2.0707,-0.34146
1.378e+05,1.1291e+08,1,0.99211,-1.4885,-1.894,0.32169,2.0756,1.884,1.534,-0.94454,-2.0707,-0.34146
1.3785e+05,1.1292e+08,1,0.99211,-1.4885,-1.894,0.32169,2.0756,1.884,1.534,-0.94454,-2.0707,-0.34146
1.379e+05,1.1293e+08,1,0.99211,-1.4885,-1.894,0.32169,2.0756,1.884,1.534,-0.94454,-2.0707,-0.34146
1.3794e+05,1.1294e+08,1,0.99211,-1.4885,-1.894,0.32169,2.0756,1.884,1.534,-0.94454,-2.0707,-0.34146
1.3799e+05,1.1295e+08,1,0.99211,-1.4885,-1.894,0.32169,2.0756,1.884,1.534,-0.94454,-2.0707,-0.34146
1.3803e+05,1.1296e+08,1,0.99211,-1.4885,-1.894,0.32169,2.0756,1.884,1.534,-0.94454,-2.0707,-0.34146
1.3808e+05,1.1297e+08,1,0.99211,-1.4885,-1.894,0.32169,2.0756,1.884,1.534,-0.94454,-2.0707,-0.34146
1.3812e+05,1.1298e+08,1,0.99211,-1.4885,-1.894,0.32169,2.0756,1.884,1.534,-0.94454,-2.0707,-0.34146
1.3817e+05,1.1299e+08,1,0.99211,-1.4885,-1.894,0.32169,2.0756,1.884,1.534,-0.94454,-2.0707,-0.34146
1.3822e+05,1.13e+08,1,0.99211,-1.4885,-1.894,0.32169,2.0756,1.884,1.534,-0.94454,-2.0707,-0.34146
1.3826e+05,1.1301e+08,1,0.99211,-1.4885,-1.894,0.32169,2.0756,1.884,1.534,-0.94454,-2.0707,-0.34146
1.383e+05,1.1302e+08,1,0.99211,-1.4885,-1.894,0.32169,2.0756,1.884,1.534,-0.94454,-2.0707,-0.34146
1.3835e+05,1.1303e+08,1,0.99211,-1.4885,-1.894,0.32169,2.0756,1.884,1.534,-0.94454,-2.0707,-0.34146
1.384e+05,1.1304e+08,1,0.99211,-1.4885,-1.894,0.32169,2.0756,1.884,1.534,-0.94454,-2.0707,-0.34146
1.3845e+05,1.1305e+08,1,1.034,-1.4392,-1.8529,0.34837,2.102,1.8566,1.5192,-0.94816,-2.0781,-0.36495
1.3849e+05,1.1306e+08,1,1.034,-1.4392,-1.8529,0.34837,2.102,1.8566,1.5192,-0.94816,-2.0781,-0.36495
1.3853e+05,1.1307e+08,1,1.034,-1.4392,-1.8529,0.34837,2.102,1.8566,1.5192,-0.94816,-2.0781,-0.36495
1.3858e+05,1.1308e+08,1,1.034,-1.4392,-1.8529,0.34837,2.102,1.8566,1.5192,-0.94816,-2.0781,-0.36495
1.3863e+05,1.131e+08,1,1.034,-1.4392,-1.8529,0.34837,2.102,1.8566,1.5192,-0.94816,-2.0781,-0.36495
1.3867e+05,1.1311e+08,1,1.034,-1.4392,-1.8529,0.34837,2.102,1.8566,1.5192,-0.94816,-2.0781,-0.36495
1.3872e+05,1.1312e+08,1,1.034,-1.4392,-1.8529,0.34837,2.102,1.8566,1.5192,-0.94816,-2.0781,-0.36495
1.3876e+05,1.1313e+08,1,1.034,-1.4392,-1.8529,0.34837,2.102,1.8566,1.5192,-0.94816,-2.0781,-0.36495
1.3881e+05,1.1314e+08,1,1.034,-1.4392,-1.8529,0.34837,2.102,1.8566,1.5192,-0.94816,-2.0781,-0.36495
1.9917e+05,1.7406e+08,1,0,0,0,0,0,0,0,0,0,0
1.9922e+05,1.7407e+08,1,0,0,0,0,0,0,0,0,0,0
1.9927e+05,1.7408e+08,1,0,0,0,0,0,0,0,0,0,0
1.9931e+05,1.7409e+08,1,0,0,0,0,0,0,0,0,0,0
1.9936e+05,1.741e+08,1,0,0,0,0,0,0,0,0,0,0
1.994e+05,1.7411e+08,1,0,0,0,0,0,0,0,0,0,0
1.9945e+05,1.7412e+08,1,0,0,0,0,0,0,0,0,0,0
1.9949e+05,1.7413e+08,1,0,0,0,0,0,0,0,0,0,0
1.9954e+05,1.7414e+08,1,0,0,0,0,0,0,0,0,0,0
1.9958e+05,1.7415e+08,1,0,0,0,0,0,0,0,0,0,0
1.9962e+05,1.7416e+08,1,0,0,0,0,0,0,0,0,0,0
1.9967e+05,1.7417e+08,1,0,0,0,0,0,0,0,0,0,0
1.9972e+05,1.7418e+08,1,0,0,0,0,0,0,0,0,0,0
1.9976e+05,1.7419e+08,1,0,0,0,0,0,0,0,0,0,0
1.9981e+05,1.742e+08,1,0,0,0,0,0,0,0,0,0,0
1.9985e+05,1.7421e+08,1,0,0,0,0,0,0,0,0,0,0
1.999e+05,1.7422e+08,1,0,0,0,0,0,0,0,0,0,0
1.9994e+05,1.7423e+08,1,0,0,0,0,0,0,0,0,0,0
2e+05,1.7425e+08,1,0,0,0,0,0,0,0,0,0,0
2.0004e+05,1.7426e+08,1,0.061071,0.017868,-0.079049,-0.095744,-0.0091456,-0.012202,0.075665,0.061729,-0.03475,-0.080442
2.0008e+05,1.7427e+08,1,0.061071,0.017868,-0.079049,-0.095744,-0.0091456,-0.012202,0.075665,0.061729,-0.03475,-0.080442
2.0013e+05,1.7428e+08,1,0.061071,0.017868,-0.079049,-0.095744,-0.0091456,-0.012202,0.075665,0.061729,-0.03475,-0.080442
2.0018e+05,1.7429e+08,1,0.061071,0.017868,-0.079049,-0.095744,-0.0091456,-0.012202,0.075665,0.061729,-0.03475,-0.080442
2.0022e+05,1.743e+08,1,0.061071,0.017868,-0.079049,-0.095744,-0.0091456,-0.012202,0.075665,0.061729,-0.03475,-0.080442
2.0027e+05,1.7431e+08,1,0.061071,0.017868,-0.079049,-0.095744,-0.0091456,-0.012202,0.075665,0.061729,-0.03475,-0.080442
2.0031e+05,1.7432e+08,1,0.061071,0.017868,-0.079049,-0.095744,-0.0091456,-0.012202,0.075665,0.061729,-0.03475,-0.080442
2.0036e+05,1.7433e+08,1,0.061071,0.017868,-0.079049,-0.095744,-0.0091456,-0.012202,0.075665,0.061729,-0.03475,-0.080442
2.004e+05,1.7434e+08,1,0.061071,0.017868,-0.079049,-0.095744,-0.0091456,-0.012202,0.075665,0.061729,-0.03475,-0.080442
2.0045e+05,1.7435e+08,1,0.061071,0.017868,-0.079049,-0.095744,-0.0091456,-0.012202,0.075665,0.061729,-0.03475,-0.080442
2.0049e+05,1.7436e+08,1,0.061071,0.017868,-0.079049,-0.095744,-0.0091456,-0.012202,0.075665,0.061729,-0.03475,-0.080442
2.0054e+05,1.7437e+08,1,0.061071,0.017868,-0.079049,-0.095744,-0.0091456,-0.012202,0.075665,0.061729,-0.03475,-0.080442
2.0058e+05,1.7438e+08,1,0.061071,0.017868,-0.079049,-0.095744,-0.0091456,-0.012202,0.075665,0.061729,-0.03475,-0.080442
2.0063e+05,1.7439e+08,1,0.061071,0.017868,-0.079049,-0.095744,-0.0091456,-0.012202,0.075665,0.061729,-0.03475,-0.080442
2.0067e+05,1.744e+08,1,0.061071,0.017868,-0.079049,-0.095744,-0.0091456,-0.012202,0.075665,0.061729,-0.03475,-0.080442
2.0072e+05,1.7441e+08,1,0.061071,0.017868,-0.079049,-0.095744,-0.0091456,-0.012202,0.075665,0.061729,-0.03475,-0.080442
2.0077e+05,1.7443e+08,1,0.061071,0.017868,-0.079049,-0.095744,-0.0091456,-0.012202,0.075665,0.061729,-0.03475,-0.080442
2.0081e+05,1.7444e+08,1,0.061071,0.017868,-0.079049,-0.095744,-0.0091456,-0.012202,0.075665,0.061729,-0.03475,-0.080442
2.0085e+05,1.7445e+08,1,0.086883,0.026741,-0.11222,-0.13783,-0.014617,-0.012764,0.11362,0.095523,-0.042365,-0.10916
2.009e+05,1.7446e+08,1,0.086883,0.026741,-0.11222,-0.13783,-0.014617,-0.012764,0.11362,0.095523,-0.042365,-0.10916
2.0094e+05,1.7447e+08,1,0.086883,0.026741,-0.11222,-0.13783,-0.014617,-0.012764,0.11362,0.095523,-0.042365,-0.10916
2.0099e+05,1.7448e+08,1,0.086883,0.026741,-0.11222,-0.13783,-0.014617,-0.012764,0.11362,0.095523,-0.042365,-0.10916
2.0104e+05,1.7449e+08,1,0.086883,0.026741,-0.11222,-0.13783,-0.014617,-0.012764,0.11362,0.095523,-0.042365,-0.10916
2.0108e+05,1.745e+08,1,0.086883,0.026741,-0.11222,-0.13783,-0.014617,-0.012764,0.11362,0.095523,-0.042365,-0.10916
2.0113e+05,1.7451e+08,1,0.086883,0.026741,-0.11222,-0.13783,-0.014617,-0.012764,0.11362,0.095523,-0.042365,-0.10916
2.0118e+05,1.7452e+08,1,0.086883,0.026741,-0.11222,-0.13783,-0.014617,-0.012764,0.11362,0.095523,-0.042365,-0.10916
2.0122e+05,1.7453e+08,1,0.086883,0.026741,-0.11222,-0.13783,-0.014617,-0.012764,0.11362,0.095523,-0.042365,-0.10916
2.0127e+05,1.7454e+08,1,0.086883,0.026741,-0.11222,-0.13783,-0.014617,-0.012764,0.11362,0.095523,-0.042365,-0.10916
2.0131e+05,1.7455e+08,1,0.086883,0.026741,-0.11222,-0.13783,-0.014617,-0.012764,0.11362,0.095523,-0.042365,-0.10916
2.0136e+05,1.7456e+08,1,0.086883,0.026741,-0.11222,-0.13783,-0.014617,-0.012764,0.11362,0.095523,-0.042365,-0.10916
2.014e+05,1.7457e+08,1,0.086883,0.026741,-0.11222,-0.13783,-0.014617,-0.012764,0.11362,0.095523,-0.042365,-0.10916
2.0144e+05,1.7458e+08,1,0.086883,0.026741,-0.11222,-0.13783,-0.014617,-0.012764,0.11362,0.095523,-0.042365,-0.10916
2.015e+05,1.7459e+08,1,0.086883,0.026741,-0.11222,-0.13783,-0.014617,-0.012764,0.11362,0.095523,-0.042365,-0.10916
2.0154e+05,1.746e+08,1,0.086883,0.026741,-0.11222,-0.13783,-0.014617,-0.012764,0.11362,0.095523,-0.042365,-0.10916
2.0158e+05,1.7461e+08,1,0.086883,0.026741,-0.11222,-0.13783,-0.014617,-0.012764,0.11362,0.095523,-0.042365,-0.10916
2.0163e+05,1.7462e+08,1,0.086883,0.026741,-0.11222,-0.13783,-0.014617,-0.012764,0.11362,0.095523,-0.042365,-0.10916
2.0168e+05,1.7463e+08,1,0.086883,0.026741,-0.11222,-0.13783,-0.014617,-0.012764,0.11362,0.095523,-0.042365,-0.10916
2.0171e+05,1.7464e+08,1,0.15559,0.07606,-0.11919,-0.15949,0.011116,-0.020421,0.15805,0.1377,-0.054953,-0.15188
2.0176e+05,1.7466e+08,1,0.15559,0.07606,-0.11919,-0.15949,0.011116,-0.020421,0.15805,0.1377,-0.054953,-0.15188
2.018e+05,1.7467e+08,1,0.15559,0.07606,-0.11919,-0.15949,0.011116,-0.020421,0.15805,0.1377,-0.054953,-0.15188
2.0185e+05,1.7468e+08,1,0.15559,0.07606,-0.11919,-0.15949,0.011116,-0.020421,0.15805,0.1377,-0.054953,-0.15188
2.0189e+05,1.7469e+08,1,0.15559,0.07606,-0.11919,-0.15949,0.011116,-0.020421,0.15805,0.1377,-0.054953,-0.15188
2.0194e+05,1.747e+08,1,0.15559,0.07606,-0.11919,-0.15949,0.011116,-0.020421,0.15805,0.1377,-0.054953,-0.15188
2.0199e+05,1.7471e+08,1,0.15559,0.07606,-0.11919,-0.15949,0.011116,-0.020421,0.15805,0.1377,-0.054953,-0.15188
2.0203e+05,1.7472e+08,1,0.15559,0.07606,-0.11919,-0.15949,0.011116,-0.020421,0.15805,0.1377,-0.054953,-0.15188
2.0208e+05,1.7473e+08,1,0.15559,0.07606,-0.11919,-0.15949,0.011116,-0.020421,0.15805,0.1377,-0.054953,-0.15188
2.0213e+05,1.7474e+08,1,0.15559,0.07606,-0.11919,-0.15949,0.011116,-0.020421,0.15805,0.1377,-0.054953,-0.15188
2.0217e+05,1.7475e+08,1,0.15559,0.07606,-0.11919,-0.15949,0.011116,-0.020421,0.15805,0.1377,-0.054953,-0.15188
2.0222e+05,1.7476e+08,1,0.15559,0.07606,-0.11919,-0.15949,0.011116,-0.020421,0.15805,0.1377,-0.054953,-0.15188
2.0226e+05,1.7477e+08,1,0.15559,0.07606,-0.11919,-0.15949,0.011116,-0.020421,0.15805,0.1377,-0.054953,-0.15188
2.0231e+05,1.7478e+08,1,0.15559,0.07606,-0.11919,-0.15949,0.011116,-0.020421,0.15805,0.1377,-0.054953,-0.15188
2.0236e+05,1.7479e+08,1,0.15559,0.07606,-0.11919,-0.15949,0.011116,-0.020421,0.15805,0.1377,-0.054953,-0.15188
2.024e+05,1.748e+08,1,0.15559,0.07606,-0.11919,-0.15949,0.011116,-0.020421,0.15805,0.1377,-0.054953,-0.15188
2.0245e+05,1.7481e+08,1,0.15559,0.07606,-0.11919,-0.15949,0.011116,-0.020421,0.15805,0.1377,-0.054953,-0.15188
2.0249e+05,1.7482e+08,1,0.15559,0.07606,-0.11919,-0.15949,0.011116,-0.020421,0.15805,0.1377,-0.054953,-0.15188
2.0254e+05,1.7483e+08,1,0.15559,0.07606,-0.11919,-0.15949,0.011116,-0.020421,0.15805,0.1377,-0.054953,-0.15188
2.0258e+05,1.7485e+08,1,0.22944,0.13385,-0.10227,-0.15047,0.055457,-0.05377,0.16174,0.13721,-0.095718,-0.21205
2.0263e+05,1.7486e+08,1,0.22944,0.13385,-0.10227,-0.15047,0.055457,-0.05377,0.16174,0.13721,-0.095718,-0.21205
2.0267e+05,1.7487e+08,1,0.22944,0.13385,-0.10227,-0.15047,0.055457,-0.05377,0.16174,0.13721,-0.095718,-0.21205
2.0272e+05,1.7488e+08,1,0.22944,0.13385,-0.10227,-0.15047,0.055457,-0.05377,0.16174,0.13721,-0.095718,-0.21205
2.0276e+05,1.7489e+08,1,0.22944,0.13385,-0.10227,-0.15047,0.055457,-0.05377,0.16174,0.13721,-0.095718,-0.21205
2.0281e+05,1.749e+08,1,0.22944,0.13385,-0.10227,-0.15047,0.055457,-0.05377,0.16174,0.13721,-0.095718,-0.21205
2.0286e+05,1.7491e+08,1,0.22944,0.13385,-0.10227,-0.15047,0.055457,-0.05377,0.16174,0.13721,-0.095718,-0.21205
2.029e+05,1.7492e+08,1,0.22944,0.13385,-0.10227,-0.15047,0.055457,-0.05377,0.16174,0.13721,-0.095718,-0.21205
2.0295e+05,1.7493e+08,1,0.22944,0.13385,-0.10227,-0.15047,0.055457,-0.05377,0.16174,0.13721,-0.095718,-0.21205
2.03e+05,1.7495e+08,1,0.22944,0.13385,-0.10227,-0.15047,0.055457,-0.05377,0.16174,0.13721,-0.095718,-0.21205
2.0304e+05,1.7496e+08,1,0.22944,0.13385,-0.10227,-0.15047,0.055457,-0.05377,0.16174,0.13721,-0.095718,-0.21205
2.0309e+05,1.7497e+08,1,0.22944,0.13385,-0.10227,-0.15047,0.055457,-0.05377,0.16174,0.13721,-0.095718,-0.21205
2.0314e+05,1.7498e+08,1,0.22944,0.13385,-0.10227,-0.15047,0.055457,-0.05377,0.16174,0.13721,-0.095718,-0.21205
2.0318e+05,1.7499e+08,1,0.22944,0.13385,-0.10227,-0.15047,0.055457,-0.05377,0.16174,0.13721,-0.095718,-0.21205
2.0323e+05,1.75e+08,1,0.22944,0.13385,-0.10227,-0.15047,0.055457,-0.05377,0.16174,0.13721,-0.095718,-0.21205
2.0328e+05,1.7501e+08,1,0.22944,0.13385,-0.10227,-0.15047,0.055457,-0.05377,0.16174,0.13721,-0.095718,-0.21205
2.0332e+05,1.7502e+08,1,0.22944,0.13385,-0.10227,-0.15047,0.055457,-0.05377,0.16174,0.13721,-0.095718,-0.21205
