LineNo,TimeUS,C,IVN0,IVN1,IVN2,IVN3,IVN4,IVE0,IVE1,IVE2,IVE3,IVE4
1.1593e+05,1.0784e+08,0,0,0,0,0,0,0,0,0,0,0
1.1597e+05,1.0785e+08,0,0,0,0,0,0,0,0,0,0,0
1.1602e+05,1.0786e+08,0,0,0,0,0,0,0,0,0,0,0
1.1606e+05,1.0787e+08,0,0,0,0,0,0,0,0,0,0,0
1.1611e+05,1.0788e+08,0,0,0,0,0,0,0,0,0,0,0
1.1615e+05,1.0789e+08,0,0,0,0,0,0,0,0,0,0,0
1.162e+05,1.0791e+08,0,0,0,0,0,0,0,0,0,0,0
1.1624e+05,1.0791e+08,0,0,0,0,0,0,0,0,0,0,0
1.1629e+05,1.0792e+08,0,0,0,0,0,0,0,0,0,0,0
1.1634e+05,1.0794e+08,0,0,0,0,0,0,0,0,0,0,0
1.1638e+05,1.0795e+08,0,0,0,0,0,0,0,0,0,0,0
1.1642e+05,1.0796e+08,0,0,0,0,0,0,0,0,0,0,0
1.1647e+05,1.0797e+08,0,0,0,0,0,0,0,0,0,0,0
1.1652e+05,1.0798e+08,0,0,0,0,0,0,0,0,0,0,0
1.1656e+05,1.0799e+08,0,0,0,0,0,0,0,0,0,0,0
1.1661e+05,1.08e+08,0,0,0,0,0,0,0,0,0,0,0
1.1665e+05,1.0801e+08,0,0,0,0,0,0,0,0,0,0,0
1.167e+05,1.0802e+08,0,0,0,0,0,0,0,0,0,0,0
1.1675e+05,1.0803e+08,0,0,0,0,0,0,0,0,0,0,0
1.1679e+05,1.0804e+08,0,-0.057541,-0.012863,0.026098,0.0054991,-0.046192,-0.017522,-0.043971,-0.0096537,0.038005,0.033142
1.1683e+05,1.0805e+08,0,-0.057541,-0.012863,0.026098,0.0054991,-0.046192,-0.017522,-0.043971,-0.0096537,0.038005,0.033142
1.1688e+05,1.0806e+08,0,-0.057541,-0.012863,0.026098,0.0054991,-0.046192,-0.017522,-0.043971,-0.0096537,0.038005,0.033142
1.1692e+05,1.0807e+08,0,-0.057541,-0.012863,0.026098,0.0054991,-0.046192,-0.017522,-0.043971,-0.0096537,0.038005,0.033142
1.1697e+05,1.0808e+08,0,-0.057541,-0.012863,0.026098,0.0054991,-0.046192,-0.017522,-0.043971,-0.0096537,0.038005,0.033142
1.1701e+05,1.0809e+08,0,-0.057541,-0.012863,0.026098,0.0054991,-0.046192,-0.017522,-0.043971,-0.0096537,0.038005,0.033142
1.1706e+05,1.081e+08,0,-0.057541,-0.012863,0.026098,0.0054991,-0.046192,-0.017522,-0.043971,-0.0096537,0.038005,0.033142
1.171e+05,1.0811e+08,0,-0.057541,-0.012863,0.026098,0.0054991,-0.046192,-0.017522,-0.043971,-0.0096537,0.038005,0.033142
1.1715e+05,1.0812e+08,0,-0.057541,-0.012863,0.026098,0.0054991,-0.046192,-0.017522,-0.043971,-0.0096537,0.038005,0.033142
1.172e+05,1.0813e+08,0,-0.057541,-0.012863,0.026098,0.0054991,-0.046192,-0.017522,-0.043971,-0.0096537,0.038005,0.033142
1.1724e+05,1.0814e+08,0,-0.057541,-0.012863,0.026098,0.0054991,-0.046192,-0.017522,-0.043971,-0.0096537,0.038005,0.033142
1.1729e+05,1.0815e+08,0,-0.057541,-0.012863,0.026098,0.0054991,-0.046192,-0.017522,-0.043971,-0.0096537,0.038005,0.033142
1.1734e+05,1.0817e+08,0,-0.057541,-0.012863,0.026098,0.0054991,-0.046192,-0.017522,-0.043971,-0.0096537,0.038005,0.033142
1.1738e+05,1.0818e+08,0,-0.057541,-0.012863,0.026098,0.0054991,-0.046192,-0.017522,-0.043971,-0.0096537,0.038005,0.033142
1.1742e+05,1.0819e+08,0,-0.057541,-0.012863,0.026098,0.0054991,-0.046192,-0.017522,-0.043971,-0.0096537,0.038005,0.033142
1.1747e+05,1.082e+08,0,-0.057541,-0.012863,0.026098,0.0054991,-0.046192,-0.017522,-0.043971,-0.0096537,0.038005,0.033142
1.1751e+05,1.0821e+08,0,-0.057541,-0.012863,0.026098,0.0054991,-0.046192,-0.017522,-0.043971,-0.0096537,0.038005,0.033142
1.1756e+05,1.0822e+08,0,-0.057541,-0.012863,0.026098,0.0054991,-0.046192,-0.017522,-0.043971,-0.0096537,0.038005,0.033142
1.176e+05,1.0823e+08,0,-0.057541,-0.012863,0.026098,0.0054991,-0.046192,-0.017522,-0.043971,-0.0096537,0.038005,0.033142
1.1765e+05,1.0824e+08,0,-0.057541,-0.012863,0.026098,0.0054991,-0.046192,-0.017522,-0.043971,-0.0096537,0.038005,0.033142
1.177e+05,1.0825e+08,0,-0.068126,0.0033276,0.066935,0.03488,-0.048602,-0.029307,-0.073005,-0.018585,0.058734,0.052161
1.1774e+05,1.0826e+08,0,-0.068126,0.0033276,0.066935,0.03488,-0.048602,-0.029307,-0.073005,-0.018585,0.058734,0.052161
1.1778e+05,1.0827e+08,0,-0.068126,0.0033276,0.066935,0.03488,-0.048602,-0.029307,-0.073005,-0.018585,0.058734,0.052161
1.1783e+05,1.0828e+08,0,-0.068126,0.0033276,0.066935,0.03488,-0.048602,-0.029307,-0.073005,-0.018585,0.058734,0.052161
1.1787e+05,1.0829e+08,0,-0.068126,0.0033276,0.066935,0.03488,-0.048602,-0.029307,-0.073005,-0.018585,0.058734,0.052161
1.1792e+05,1.083e+08,0,-0.068126,0.0033276,0.066935,0.03488,-0.048602,-0.029307,-0.073005,-0.018585,0.058734,0.052161
1.1796e+05,1.0831e+08,0,-0.068126,0.0033276,0.066935,0.03488,-0.048602,-0.029307,-0.073005,-0.018585,0.058734,0.052161
1.1801e+05,1.0832e+08,0,-0.068126,0.0033276,0.066935,0.03488,-0.048602,-0.029307,-0.073005,-0.018585,0.058734,0.052161
1.1806e+05,1.0833e+08,0,-0.068126,0.0033276,0.066935,0.03488,-0.048602,-0.029307,-0.073005,-0.018585,0.058734,0.052161
1.181e+05,1.0834e+08,0,-0.068126,0.0033276,0.066935,0.03488,-0.048602,-0.029307,-0.073005,-0.018585,0.058734,0.052161
1.1815e+05,1.0835e+08,0,-0.068126,0.0033276,0.066935,0.03488,-0.048602,-0.029307,-0.073005,-0.018585,0.058734,0.052161
1.1819e+05,1.0836e+08,0,-0.068126,0.0033276,0.066935,0.03488,-0.048602,-0.029307,-0.073005,-0.018585,0.058734,0.052161
1.1824e+05,1.0838e+08,0,-0.068126,0.0033276,0.066935,0.03488,-0.048602,-0.029307,-0.073005,-0.018585,0.058734,0.052161
1.1828e+05,1.0839e+08,0,-0.068126,0.0033276,0.066935,0.03488,-0.048602,-0.029307,-0.073005,-0.018585,0.058734,0.052161
1.1833e+05,1.084e+08,0,-0.068126,0.0033276,0.066935,0.03488,-0.048602,-0.029307,-0.073005,-0.018585,0.058734,0.052161
1.1837e+05,1.0841e+08,0,-0.068126,0.0033276,0.066935,0.03488,-0.048602,-0.029307,-0.073005,-0.018585,0.058734,0.052161
1.1842e+05,1.0842e+08,0,-0.068126,0.0033276,0.066935,0.03488,-0.048602,-0.029307,-0.073005,-0.018585,0.058734,0.052161
1.1846e+05,1.0843e+08,0,-0.068126,0.0033276,0.066935,0.03488,-0.048602,-0.029307,-0.073005,-0.018585,0.058734,0.052161
1.1852e+05,1.0844e+08,0,-0.068126,0.0033276,0.066935,0.03488,-0.048602,-0.029307,-0.073005,-0.018585,0.058734,0.052161
1.1855e+05,1.0845e+08,0,-0.083357,0.015321,0.09071,0.038771,-0.068816,-0.027523,-0.074792,0.0043985,0.10058,0.08094
1.186e+05,1.0846e+08,0,-0.083357,0.015321,0.09071,0.038771,-0.068816,-0.027523,-0.074792,0.0043985,0.10058,0.08094
1.1865e+05,1.0847e+08,0,-0.083357,0.015321,0.09071,0.038771,-0.068816,-0.027523,-0.074792,0.0043985,0.10058,0.08094
1.1869e+05,1.0848e+08,0,-0.083357,0.015321,0.09071,0.038771,-0.068816,-0.027523,-0.074792,0.0043985,0.10058,0.08094
1.1874e+05,1.0849e+08,0,-0.083357,0.015321,0.09071,0.038771,-0.068816,-0.027523,-0.074792,0.0043985,0.10058,0.08094
1.1878e+05,1.085e+08,0,-0.083357,0.015321,0.09071,0.038771,-0.068816,-0.027523,-0.074792,0.0043985,0.10058,0.08094
1.1883e+05,1.0851e+08,0,-0.083357,0.015321,0.09071,0.038771,-0.068816,-0.027523,-0.074792,0.0043985,0.10058,0.08094
1.1887e+05,1.0852e+08,0,-0.083357,0.015321,0.09071,0.038771,-0.068816,-0.027523,-0.074792,0.0043985,0.10058,0.08094
1.1892e+05,1.0853e+08,0,-0.083357,0.015321,0.09071,0.038771,-0.068816,-0.027523,-0.074792,0.0043985,0.10058,0.08094
1.1896e+05,1.0855e+08,0,-0.083357,0.015321,0.09071,0.038771,-0.068816,-0.027523,-0.074792,0.0043985,0.10058,0.08094
1.1901e+05,1.0856e+08,0,-0.083357,0.015321,0.09071,0.038771,-0.068816,-0.027523,-0.074792,0.0043985,0.10058,0.08094
1.1906e+05,1.0857e+08,0,-0.083357,0.015321,0.09071,0.038771,-0.068816,-0.027523,-0.074792,0.0043985,0.10058,0.08094
1.191e+05,1.0858e+08,0,-0.083357,0.015321,0.09071,0.038771,-0.068816,-0.027523,-0.074792,0.0043985,0.10058,0.08094
1.1915e+05,1.0859e+08,0,-0.083357,0.015321,0.09071,0.038771,-0.068816,-0.027523,-0.074792,0.0043985,0.10058,0.08094
1.1919e+05,1.086e+08,0,-0.083357,0.015321,0.09071,0.038771,-0.068816,-0.027523,-0.074792,0.0043985,0.10058,0.08094
1.1924e+05,1.0861e+08,0,-0.083357,0.015321,0.09071,0.038771,-0.068816,-0.027523,-0.074792,0.0043985,0.10058,0.08094
1.1928e+05,1.0862e+08,0,-0.083357,0.015321,0.09071,0.038771,-0.068816,-0.027523,-0.074792,0.0043985,0.10058,0.08094
1.1933e+05,1.0863e+08,0,-0.083357,0.015321,0.09071,0.038771,-0.068816,-0.027523,-0.074792,0.0043985,0.10058,0.08094
1.1938e+05,1.0864e+08,0,-0.083357,0.015321,0.09071,0.038771,-0.068816,-0.027523,-0.074792,0.0043985,0.10058,0.08094
1.1942e+05,1.0865e+08,0,-0.12645,-0.0082779,0.086692,0.027425,-0.10456,-0.040764,-0.10213,-0.0089068,0.11044,0.090803
1.1947e+05,1.0866e+08,0,-0.12645,-0.0082779,0.086692,0.027425,-0.10456,-0.040764,-0.10213,-0.0089068,0.11044,0.090803
1.1951e+05,1.0867e+08,0,-0.12645,-0.0082779,0.086692,0.027425,-0.10456,-0.040764,-0.10213,-0.0089068,0.11044,0.090803
1.1956e+05,1.0869e+08,0,-0.12645,-0.0082779,0.086692,0.027425,-0.10456,-0.040764,-0.10213,-0.0089068,0.11044,0.090803
1.1961e+05,1.087e+08,0,-0.12645,-0.0082779,0.086692,0.027425,-0.10456,-0.040764,-0.10213,-0.0089068,0.11044,0.090803
1.1965e+05,1.0871e+08,0,-0.12645,-0.0082779,0.086692,0.027425,-0.10456,-0.040764,-0.10213,-0.0089068,0.11044,0.090803
1.197e+05,1.0872e+08,0,-0.12645,-0.0082779,0.086692,0.027425,-0.10456,-0.040764,-0.10213,-0.0089068,0.11044,0.090803
1.1974e+05,1.0873e+08,0,-0.12645,-0.0082779,0.086692,0.027425,-0.10456,-0.040764,-0.10213,-0.0089068,0.11044,0.090803
1.1979e+05,1.0874e+08,0,-0.12645,-0.0082779,0.086692,0.027425,-0.10456,-0.040764,-0.10213,-0.0089068,0.11044,0.090803
1.1983e+05,1.0875e+08,0,-0.12645,-0.0082779,0.086692,0.027425,-0.10456,-0.040764,-0.10213,-0.0089068,0.11044,0.090803
1.1988e+05,1.0876e+08,0,-0.12645,-0.0082779,0.086692,0.027425,-0.10456,-0.040764,-0.10213,-0.0089068,0.11044,0.090803
1.1992e+05,1.0877e+08,0,-0.12645,-0.0082779,0.086692,0.027425,-0.10456,-0.040764,-0.10213,-0.0089068,0.11044,0.090803
1.1997e+05,1.0878e+08,0,-0.12645,-0.0082779,0.086692,0.027425,-0.10456,-0.040764,-0.10213,-0.0089068,0.11044,0.090803
1.2001e+05,1.0879e+08,0,-0.12645,-0.0082779,0.086692,0.027425,-0.10456,-0.040764,-0.10213,-0.0089068,0.11044,0.090803
1.2006e+05,1.088e+08,0,-0.12645,-0.0082779,0.086692,0.027425,-0.10456,-0.040764,-0.10213,-0.0089068,0.11044,0.090803
1.201e+05,1.0881e+08,0,-0.12645,-0.0082779,0.086692,0.027425,-0.10456,-0.040764,-0.10213,-0.0089068,0.11044,0.090803
1.2015e+05,1.0883e+08,0,-0.12645,-0.0082779,0.086692,0.027425,-0.10456,-0.040764,-0.10213,-0.0089068,0.11044,0.090803
1.202e+05,1.0884e+08,0,-0.12645,-0.0082779,0.086692,0.027425,-0.10456,-0.040764,-0.10213,-0.0089068,0.11044,0.090803
1.2025e+05,1.0885e+08,0,-0.12645,-0.0082779,0.086692,0.027425,-0.10456,-0.040764,-0.10213,-0.0089068,0.11044,0.090803
1.2029e+05,1.0886e+08,0,-0.15558,-0.014798,0.098092,0.028277,-0.12919,-0.035938,-0.10893,0.0016528,0.14378,0.1211
1.2034e+05,1.0887e+08,0,-0.15558,-0.014798,0.098092,0.028277,-0.12919,-0.035938,-0.10893,0.0016528,0.14378,0.1211
1.2039e+05,1.0889e+08,0,-0.15558,-0.014798,0.098092,0.028277,-0.12919,-0.035938,-0.10893,0.0016528,0.14378,0.1211
1.2043e+05,1.089e+08,0,-0.15558,-0.014798,0.098092,0.028277,-0.12919,-0.035938,-0.10893,0.0016528,0.14378,0.1211
1.2048e+05,1.0891e+08,0,-0.15558,-0.014798,0.098092,0.028277,-0.12919,-0.035938,-0.10893,0.0016528,0.14378,0.1211
1.2052e+05,1.0892e+08,0,-0.15558,-0.014798,0.098092,0.028277,-0.12919,-0.035938,-0.10893,0.0016528,0.14378,0.1211
1.2057e+05,1.0893e+08,0,-0.15558,-0.014798,0.098092,0.028277,-0.12919,-0.035938,-0.10893,0.0016528,0.14378,0.1211
1.2061e+05,1.0894e+08,0,-0.15558,-0.014798,0.098092,0.028277,-0.12919,-0.035938,-0.10893,0.0016528,0.14378,0.1211
1.2066e+05,1.0895e+08,0,-0.15558,-0.014798,0.098092,0.028277,-0.12919,-0.035938,-0.10893,0.0016528,0.14378,0.1211
1.2071e+05,1.0896e+08,0,-0.15558,-0.014798,0.098092,0.028277,-0.12919,-0.035938,-0.10893,0.0016528,0.14378,0.1211
1.2075e+05,1.0897e+08,0,-0.15558,-0.014798,0.098092,0.028277,-0.12919,-0.035938,-0.10893,0.0016528,0.14378,0.1211
1.208e+05,1.0898e+08,0,-0.15558,-0.014798,0.098092,0.028277,-0.12919,-0.035938,-0.10893,0.0016528,0.14378,0.1211
1.2084e+05,1.0899e+08,0,-0.15558,-0.014798,0.098092,0.028277,-0.12919,-0.035938,-0.10893,0.0016528,0.14378,0.1211
1.2089e+05,1.09e+08,0,-0.15558,-0.014798,0.098092,0.028277,-0.12919,-0.035938,-0.10893,0.0016528,0.14378,0.1211
1.2093e+05,1.0901e+08,0,-0.15558,-0.014798,0.098092,0.028277,-0.12919,-0.035938,-0.10893,0.0016528,0.14378,0.1211
1.2098e+05,1.0902e+08,0,-0.15558,-0.014798,0.098092,0.028277,-0.12919,-0.035938,-0.10893,0.0016528,0.14378,0.1211
1.2102e+05,1.0903e+08,0,-0.15558,-0.014798,0.098092,0.028277,-0.12919,-0.035938,-0.10893,0.0016528,0.14378,0.1211
1.2106e+05,1.0904e+08,0,-0.15558,-0.014798,0.098092,0.028277,-0.12919,-0.035938,-0.10893,0.0016528,0.14378,0.1211
1.2111e+05,1.0905e+08,0,-0.079439,0.076311,0.19947,0.12288,-0.051284,-0.075854,-0.15481,-0.033016,0.12327,0.098203
1.2116e+05,1.0906e+08,0,-0.079439,0.076311,0.19947,0.12288,-0.051284,-0.075854,-0.15481,-0.033016,0.12327,0.098203
1.212e+05,1.0907e+08,0,-0.079439,0.076311,0.19947,0.12288,-0.051284,-0.075854,-0.15481,-0.033016,0.12327,0.098203
1.2125e+05,1.0908e+08,0,-0.079439,0.076311,0.19947,0.12288,-0.051284,-0.075854,-0.15481,-0.033016,0.12327,0.098203
1.2129e+05,1.0909e+08,0,-0.079439,0.076311,0.19947,0.12288,-0.051284,-0.075854,-0.15481,-0.033016,0.12327,0.098203
1.2134e+05,1.091e+08,0,-0.079439,0.076311,0.19947,0.12288,-0.051284,-0.075854,-0.15481,-0.033016,0.12327,0.098203
1.2138e+05,1.0911e+08,0,-0.079439,0.076311,0.19947,0.12288,-0.051284,-0.075854,-0.15481,-0.033016,0.12327,0.098203
1.2143e+05,1.0912e+08,0,-0.079439,0.076311,0.19947,0.12288,-0.051284,-0.075854,-0.15481,-0.033016,0.12327,0.098203
1.2147e+05,1.0913e+08,0,-0.079439,0.076311,0.19947,0.12288,-0.051284,-0.075854,-0.15481,-0.033016,0.12327,0.098203
1.2152e+05,1.0914e+08,0,-0.079439,0.076311,0.19947,0.12288,-0.051284,-0.075854,-0.15481,-0.033016,0.12327,0.098203
1.2157e+05,1.0915e+08,0,-0.079439,0.076311,0.19947,0.12288,-0.051284,-0.075854,-0.15481,-0.033016,0.12327,0.098203
1.2161e+05,1.0916e+08,0,-0.079439,0.076311,0.19947,0.12288,-0.051284,-0.075854,-0.15481,-0.033016,0.12327,0.098203
1.2166e+05,1.0917e+08,0,-0.079439,0.076311,0.19947,0.12288,-0.051284,-0.075854,-0.15481,-0.033016,0.12327,0.098203
1.217e+05,1.0918e+08,0,-0.079439,0.076311,0.19947,0.12288,-0.051284,-0.075854,-0.15481,-0.033016,0.12327,0.098203
1.2174e+05,1.0919e+08,0,-0.079439,0.076311,0.19947,0.12288,-0.051284,-0.075854,-0.15481,-0.033016,0.12327,0.098203
1.2179e+05,1.092e+08,0,-0.079439,0.076311,0.19947,0.12288,-0.051284,-0.075854,-0.15481,-0.033016,0.12327,0.098203
1.2184e+05,1.0921e+08,0,-0.079439,0.076311,0.19947,0.12288,-0.051284,-0.075854,-0.15481,-0.033016,0.12327,0.098203
1.2188e+05,1.0922e+08,0,-0.079439,0.076311,0.19947,0.12288,-0.051284,-0.075854,-0.15481,-0.033016,0.12327,0.098203
1.2193e+05,1.0923e+08,0,-0.079439,0.076311,0.19947,0.12288,-0.051284,-0.075854,-0.15481,-0.033016,0.12327,0.098203
1.2197e+05,1.0924e+08,0,-0.17527,-0.0039487,0.13155,0.044093,-0.14661,-0.098829,-0.18487,-0.049134,0.1226,0.091608
1.2202e+05,1.0925e+08,0,-0.17527,-0.0039487,0.13155,0.044093,-0.14661,-0.098829,-0.18487,-0.049134,0.1226,0.091608
1.2206e+05,1.0926e+08,0,-0.17527,-0.0039487,0.13155,0.044093,-0.14661,-0.098829,-0.18487,-0.049134,0.1226,0.091608
1.221e+05,1.0927e+08,0,-0.17527,-0.0039487,0.13155,0.044093,-0.14661,-0.098829,-0.18487,-0.049134,0.1226,0.091608
1.2215e+05,1.0928e+08,0,-0.17527,-0.0039487,0.13155,0.044093,-0.14661,-0.098829,-0.18487,-0.049134,0.1226,0.091608
1.222e+05,1.093e+08,0,-0.17527,-0.0039487,0.13155,0.044093,-0.14661,-0.098829,-0.18487,-0.049134,0.1226,0.091608
1.2224e+05,1.0931e+08,0,-0.17527,-0.0039487,0.13155,0.044093,-0.14661,-0.098829,-0.18487,-0.049134,0.1226,0.091608
1.2228e+05,1.0932e+08,0,-0.17527,-0.0039487,0.13155,0.044093,-0.14661,-0.098829,-0.18487,-0.049134,0.1226,0.091608
1.2233e+05,1.0933e+08,0,-0.17527,-0.0039487,0.13155,0.044093,-0.14661,-0.098829,-0.18487,-0.049134,0.1226,0.091608
1.2237e+05,1.0934e+08,0,-0.17527,-0.0039487,0.13155,0.044093,-0.14661,-0.098829,-0.18487,-0.049134,0.1226,0.091608
1.2242e+05,1.0935e+08,0,-0.17527,-0.0039487,0.13155,0.044093,-0.14661,-0.098829,-0.18487,-0.049134,0.1226,0.091608
1.2247e+05,1.0936e+08,0,-0.17527,-0.0039487,0.13155,0.044093,-0.14661,-0.098829,-0.18487,-0.049134,0.1226,0.091608
1.2251e+05,1.0937e+08,0,-0.17527,-0.0039487,0.13155,0.044093,-0.14661,-0.098829,-0.18487,-0.049134,0.1226,0.091608
1.2256e+05,1.0938e+08,0,-0.17527,-0.0039487,0.13155,0.044093,-0.14661,-0.098829,-0.18487,-0.049134,0.1226,0.091608
1.226e+05,1.0939e+08,0,-0.17527,-0.0039487,0.13155,0.044093,-0.14661,-0.098829,-0.18487,-0.049134,0.1226,0.091608
1.2265e+05,1.094e+08,0,-0.17527,-0.0039487,0.13155,0.044093,-0.14661,-0.098829,-0.18487,-0.049134,0.1226,0.091608
1.2269e+05,1.0941e+08,0,-0.17527,-0.0039487,0.13155,0.044093,-0.14661,-0.098829,-0.18487,-0.049134,0.1226,0.091608
1.2274e+05,1.0942e+08,0,-0.17527,-0.0039487,0.13155,0.044093,-0.14661,-0.098829,-0.18487,-0.049134,0.1226,0.091608
1.2278e+05,1.0943e+08,0,-0.17527,-0.0039487,0.13155,0.044093,-0.14661,-0.098829,-0.18487,-0.049134,0.1226,0.091608
1.2283e+05,1.0944e+08,0,-0.17527,-0.0039487,0.13155,0.044093,-0.14661,-0.098829,-0.18487,-0.049134,0.1226,0.091608
1.2287e+05,1.0945e+08,0,-0.13695,0.049435,0.19597,0.10244,-0.10393,-0.085589,-0.17972,-0.032612,0.15273,0.12128
1.2292e+05,1.0946e+08,0,-0.13695,0.049435,0.19597,0.10244,-0.10393,-0.085589,-0.17972,-0.032612,0.15273,0.12128
1.2296e+05,1.0947e+08,0,-0.13695,0.049435,0.19597,0.10244,-0.10393,-0.085589,-0.17972,-0.032612,0.15273,0.12128
1.23e+05,1.0948e+08,0,-0.13695,0.049435,0.19597,0.10244,-0.10393,-0.085589,-0.17972,-0.032612,0.15273,0.12128
1.2305e+05,1.0949e+08,0,-0.13695,0.049435,0.19597,0.10244,-0.10393,-0.085589,-0.17972,-0.032612,0.15273,0.12128
1.231e+05,1.095e+08,0,-0.13695,0.049435,0.19597,0.10244,-0.10393,-0.085589,-0.17972,-0.032612,0.15273,0.12128
1.2314e+05,1.0951e+08,0,-0.13695,0.049435,0.19597,0.10244,-0.10393,-0.085589,-0.17972,-0.032612,0.15273,0.12128
1.2318e+05,1.0952e+08,0,-0.13695,0.049435,0.19597,0.10244,-0.10393,-0.085589,-0.17972,-0.032612,0.15273,0.12128
1.2323e+05,1.0953e+08,0,-0.13695,0.049435,0.19597,0.10244,-0.10393,-0.085589,-0.17972,-0.032612,0.15273,0.12128
1.2328e+05,1.0954e+08,0,-0.13695,0.049435,0.19597,0.10244,-0.10393,-0.085589,-0.17972,-0.032612,0.15273,0.12128
1.2332e+05,1.0955e+08,0,-0.13695,0.049435,0.19597,0.10244,-0.10393,-0.085589,-0.17972,-0.032612,0.15273,0.12128
1.2337e+05,1.0956e+08,0,-0.13695,0.049435,0.19597,0.10244,-0.10393,-0.085589,-0.17972,-0.032612,0.15273,0.12128
1.2342e+05,1.0957e+08,0,-0.13695,0.049435,0.19597,0.10244,-0.10393,-0.085589,-0.17972,-0.032612,0.15273,0.12128
1.2346e+05,1.0958e+08,0,-0.13695,0.049435,0.19597,0.10244,-0.10393,-0.085589,-0.17972,-0.032612,0.15273,0.12128
1.235e+05,1.0959e+08,0,-0.13695,0.049435,0.19597,0.10244,-0.10393,-0.085589,-0.17972,-0.032612,0.15273,0.12128
1.2355e+05,1.096e+08,0,-0.13695,0.049435,0.19597,0.10244,-0.10393,-0.085589,-0.17972,-0.032612,0.15273,0.12128
1.2359e+05,1.0961e+08,0,-0.13695,0.049435,0.19597,0.10244,-0.10393,-0.085589,-0.17972,-0.032612,0.15273,0.12128
1.2364e+05,1.0962e+08,0,-0.13695,0.049435,0.19597,0.10244,-0.10393,-0.085589,-0.17972,-0.032612,0.15273,0.12128
1.2368e+05,1.0963e+08,0,-0.13695,0.049435,0.19597,0.10244,-0.10393,-0.085589,-0.17972,-0.032612,0.15273,0.12128
1.2373e+05,1.0964e+08,0,-0.13695,0.049435,0.19597,0.10244,-0.10393,-0.085589,-0.17972,-0.032612,0.15273,0.12128
1.2377e+05,1.0965e+08,0,-0.13813,0.059304,0.22422,0.12948,-0.094585,-0.056767,-0.16629,-0.012684,0.19173,0.16495
1.2382e+05,1.0966e+08,0,-0.13813,0.059304,0.22422,0.12948,-0.094585,-0.056767,-0.16629,-0.012684,0.19173,0.16495
1.2386e+05,1.0967e+08,0,-0.13813,0.059304,0.22422,0.12948,-0.094585,-0.056767,-0.16629,-0.012684,0.19173,0.16495
1.2391e+05,1.0968e+08,0,-0.13813,0.059304,0.22422,0.12948,-0.094585,-0.056767,-0.16629,-0.012684,0.19173,0.16495
1.2395e+05,1.097e+08,0,-0.13813,0.059304,0.22422,0.12948,-0.094585,-0.056767,-0.16629,-0.012684,0.19173,0.16495
1.24e+05,1.0971e+08,0,-0.13813,0.059304,0.22422,0.12948,-0.094585,-0.056767,-0.16629,-0.012684,0.19173,0.16495
1.2404e+05,1.0972e+08,0,-0.13813,0.059304,0.22422,0.12948,-0.094585,-0.056767,-0.16629,-0.012684,0.19173,0.16495
1.2409e+05,1.0973e+08,0,-0.13813,0.059304,0.22422,0.12948,-0.094585,-0.056767,-0.16629,-0.012684,0.19173,0.16495
1.2413e+05,1.0974e+08,0,-0.13813,0.059304,0.22422,0.12948,-0.094585,-0.056767,-0.16629,-0.012684,0.19173,0.16495
1.2418e+05,1.0975e+08,0,-0.13813,0.059304,0.22422,0.12948,-0.094585,-0.056767,-0.16629,-0.012684,0.19173,0.16495
1.2422e+05,1.0976e+08,0,-0.13813,0.059304,0.22422,0.12948,-0.094585,-0.056767,-0.16629,-0.012684,0.19173,0.16495
1.2427e+05,1.0977e+08,0,-0.13813,0.059304,0.22422,0.12948,-0.094585,-0.056767,-0.16629,-0.012684,0.19173,0.16495
1.2432e+05,1.0978e+08,0,-0.13813,0.059304,0.22422,0.12948,-0.094585,-0.056767,-0.16629,-0.012684,0.19173,0.16495
1.2436e+05,1.0979e+08,0,-0.13813,0.059304,0.22422,0.12948,-0.094585,-0.056767,-0.16629,-0.012684,0.19173,0.16495
1.244e+05,1.098e+08,0,-0.13813,0.059304,0.22422,0.12948,-0.094585,-0.056767,-0.16629,-0.012684,0.19173,0.16495
1.2445e+05,1.0981e+08,0,-0.13813,0.059304,0.22422,0.12948,-0.094585,-0.056767,-0.16629,-0.012684,0.19173,0.16495
1.2449e+05,1.0982e+08,0,-0.13813,0.059304,0.22422,0.12948,-0.094585,-0.056767,-0.16629,-0.012684,0.19173,0.16495
1.2454e+05,1.0983e+08,0,-0.13813,0.059304,0.22422,0.12948,-0.094585,-0.056767,-0.16629,-0.012684,0.19173,0.16495
1.2458e+05,1.0984e+08,0,-0.17903,0.026928,0.19244,0.086601,-0.14387,-0.088625,-0.19405,-0.030501,0.17821,0.14057
1.2462e+05,1.0985e+08,0,-0.17903,0.026928,0.19244,0.086601,-0.14387,-0.088625,-0.19405,-0.030501,0.17821,0.14057
1.2467e+05,1.0986e+08,0,-0.17903,0.026928,0.19244,0.086601,-0.14387,-0.088625,-0.19405,-0.030501,0.17821,0.14057
1.2472e+05,1.0987e+08,0,-0.17903,0.026928,0.19244,0.086601,-0.14387,-0.088625,-0.19405,-0.030501,0.17821,0.14057
1.2477e+05,1.0988e+08,0,-0.17903,0.026928,0.19244,0.086601,-0.14387,-0.088625,-0.19405,-0.030501,0.17821,0.14057
1.2481e+05,1.0989e+08,0,-0.17903,0.026928,0.19244,0.086601,-0.14387,-0.088625,-0.19405,-0.030501,0.17821,0.14057
1.2486e+05,1.099e+08,0,-0.17903,0.026928,0.19244,0.086601,-0.14387,-0.088625,-0.19405,-0.030501,0.17821,0.14057
1.249e+05,1.0991e+08,0,-0.17903,0.026928,0.19244,0.086601,-0.14387,-0.088625,-0.19405,-0.030501,0.17821,0.14057
1.2495e+05,1.0992e+08,0,-0.17903,0.026928,0.19244,0.086601,-0.14387,-0.088625,-0.19405,-0.030501,0.17821,0.14057
1.2499e+05,1.0993e+08,0,-0.17903,0.026928,0.19244,0.086601,-0.14387,-0.088625,-0.19405,-0.030501,0.17821,0.14057
1.2504e+05,1.0994e+08,0,-0.17903,0.026928,0.19244,0.086601,-0.14387,-0.088625,-0.19405,-0.030501,0.17821,0.14057
1.2508e+05,1.0995e+08,0,-0.17903,0.026928,0.19244,0.086601,-0.14387,-0.088625,-0.19405,-0.030501,0.17821,0.14057
1.2513e+05,1.0996e+08,0,-0.17903,0.026928,0.19244,0.086601,-0.14387,-0.088625,-0.19405,-0.030501,0.17821,0.14057
1.2518e+05,1.0997e+08,0,-0.17903,0.026928,0.19244,0.086601,-0.14387,-0.088625,-0.19405,-0.030501,0.17821,0.14057
1.2522e+05,1.0998e+08,0,-0.17903,0.026928,0.19244,0.086601,-0.14387,-0.088625,-0.19405,-0.030501,0.17821,0.14057
1.2527e+05,1.0999e+08,0,-0.17903,0.026928,0.19244,0.086601,-0.14387,-0.088625,-0.19405,-0.030501,0.17821,0.14057
1.2531e+05,1.1e+08,0,-0.17903,0.026928,0.19244,0.086601,-0.14387,-0.088625,-0.19405,-0.030501,0.17821,0.14057
1.2536e+05,1.1001e+08,0,-0.17903,0.026928,0.19244,0.086601,-0.14387,-0.088625,-0.19405,-0.030501,0.17821,0.14057
1.254e+05,1.1002e+08,0,-0.17903,0.026928,0.19244,0.086601,-0.14387,-0.088625,-0.19405,-0.030501,0.17821,0.14057
1.2545e+05,1.1003e+08,0,-0.17903,0.026928,0.19244,0.086601,-0.14387,-0.088625,-0.19405,-0.030501,0.17821,0.14057
1.2549e+05,1.1005e+08,0,-0.19122,0.022938,0.19596,0.08686,-0.1535,-0.12397,-0.23463,-0.065091,0.15276,0.11479
1.2554e+05,1.1006e+08,0,-0.19122,0.022938,0.19596,0.08686,-0.1535,-0.12397,-0.23463,-0.065091,0.15276,0.11479
1.2558e+05,1.1007e+08,0,-0.19122,0.022938,0.19596,0.08686,-0.1535,-0.12397,-0.23463,-0.065091,0.15276,0.11479
1.2563e+05,1.1008e+08,0,-0.19122,0.022938,0.19596,0.08686,-0.1535,-0.12397,-0.23463,-0.065091,0.15276,0.11479
1.2567e+05,1.1009e+08,0,-0.19122,0.022938,0.19596,0.08686,-0.1535,-0.12397,-0.23463,-0.065091,0.15276,0.11479
1.2572e+05,1.101e+08,0,-0.19122,0.022938,0.19596,0.08686,-0.1535,-0.12397,-0.23463,-0.065091,0.15276,0.11479
1.2577e+05,1.1011e+08,0,-0.19122,0.022938,0.19596,0.08686,-0.1535,-0.12397,-0.23463,-0.065091,0.15276,0.11479
1.2581e+05,1.1012e+08,0,-0.19122,0.022938,0.19596,0.08686,-0.1535,-0.12397,-0.23463,-0.065091,0.15276,0.11479
1.2586e+05,1.1013e+08,0,-0.19122,0.022938,0.19596,0.08686,-0.1535,-0.12397,-0.23463,-0.065091,0.15276,0.11479
1.259e+05,1.1014e+08,0,-0.19122,0.022938,0.19596,0.08686,-0.1535,-0.12397,-0.23463,-0.065091,0.15276,0.11479
1.2595e+05,1.1015e+08,0,-0.19122,0.022938,0.19596,0.08686,-0.1535,-0.12397,-0.23463,-0.065091,0.15276,0.11479
1.2599e+05,1.1016e+08,0,-0.19122,0.022938,0.19596,0.08686,-0.1535,-0.12397,-0.23463,-0.065091,0.15276,0.11479
1.2604e+05,1.1017e+08,0,-0.19122,0.022938,0.19596,0.08686,-0.1535,-0.12397,-0.23463,-0.065091,0.15276,0.11479
1.2609e+05,1.1018e+08,0,-0.19122,0.022938,0.19596,0.08686,-0.1535,-0.12397,-0.23463,-0.065091,0.15276,0.11479
1.2613e+05,1.1019e+08,0,-0.19122,0.022938,0.19596,0.08686,-0.1535,-0.12397,-0.23463,-0.065091,0.15276,0.11479
1.2618e+05,1.102e+08,0,-0.19122,0.022938,0.19596,0.08686,-0.1535,-0.12397,-0.23463,-0.065091,0.15276,0.11479
1.2622e+05,1.1021e+08,0,-0.19122,0.022938,0.19596,0.08686,-0.1535,-0.12397,-0.23463,-0.065091,0.15276,0.11479
1.2627e+05,1.1022e+08,0,-0.19122,0.022938,0.19596,0.08686,-0.1535,-0.12397,-0.23463,-0.065091,0.15276,0.11479
1.2632e+05,1.1023e+08,0,-0.19122,0.022938,0.19596,0.08686,-0.1535,-0.12397,-0.23463,-0.065091,0.15276,0.11479
1.2636e+05,1.1024e+08,0,-0.19122,0.022938,0.19596,0.08686,-0.1535,-0.12397,-0.23463,-0.065091,0.15276,0.11479
1.2641e+05,1.1026e+08,0,-0.19122,0.022938,0.19596,0.08686,-0.1535,-0.12397,-0.23463,-0.065091,0.15276,0.11479
1.2645e+05,1.1027e+08,0,-0.19122,0.022938,0.19596,0.08686,-0.1535,-0.12397,-0.23463,-0.065091,0.15276,0.11479
1.265e+05,1.1028e+08,0,-0.20668,0.023494,0.21448,0.10105,-0.15878,-0.13063,-0.2564,-0.075702,0.16138,0.12675
1.2654e+05,1.1029e+08,0,-0.20668,0.023494,0.21448,0.10105,-0.15878,-0.13063,-0.2564,-0.075702,0.16138,0.12675
1.2659e+05,1.103e+08,0,-0.20668,0.023494,0.21448,0.10105,-0.15878,-0.13063,-0.2564,-0.075702,0.16138,0.12675
1.2663e+05,1.1031e+08,0,-0.20668,0.023494,0.21448,0.10105,-0.15878,-0.13063,-0.2564,-0.075702,0.16138,0.12675
1.2668e+05,1.1032e+08,0,-0.20668,0.023494,0.21448,0.10105,-0.15878,-0.13063,-0.2564,-0.075702,0.16138,0.12675
1.2673e+05,1.1033e+08,0,-0.20668,0.023494,0.21448,0.10105,-0.15878,-0.13063,-0.2564,-0.075702,0.16138,0.12675
1.2677e+05,1.1034e+08,0,-0.20668,0.023494,0.21448,0.10105,-0.15878,-0.13063,-0.2564,-0.075702,0.16138,0.12675
1.2682e+05,1.1035e+08,0,-0.20668,0.023494,0.21448,0.10105,-0.15878,-0.13063,-0.2564,-0.075702,0.16138,0.12675
1.2686e+05,1.1036e+08,0,-0.20668,0.023494,0.21448,0.10105,-0.15878,-0.13063,-0.2564,-0.075702,0.16138,0.12675
1.2691e+05,1.1037e+08,0,-0.20668,0.023494,0.21448,0.10105,-0.15878,-0.13063,-0.2564,-0.075702,0.16138,0.12675
1.2695e+05,1.1038e+08,0,-0.20668,0.023494,0.21448,0.10105,-0.15878,-0.13063,-0.2564,-0.075702,0.16138,0.12675
1.27e+05,1.1039e+08,0,-0.20668,0.023494,0.21448,0.10105,-0.15878,-0.13063,-0.2564,-0.075702,0.16138,0.12675
1.2704e+05,1.104e+08,0,-0.20668,0.023494,0.21448,0.10105,-0.15878,-0.13063,-0.2564,-0.075702,0.16138,0.12675
1.2709e+05,1.1041e+08,0,-0.20668,0.023494,0.21448,0.10105,-0.15878,-0.13063,-0.2564,-0.075702,0.16138,0.12675
1.2713e+05,1.1042e+08,0,-0.20668,0.023494,0.21448,0.10105,-0.15878,-0.13063,-0.2564,-0.075702,0.16138,0.12675
1.2718e+05,1.1043e+08,0,-0.20668,0.023494,0.21448,0.10105,-0.15878,-0.13063,-0.2564,-0.075702,0.16138,0.12675
1.2723e+05,1.1044e+08,0,-0.20668,0.023494,0.21448,0.10105,-0.15878,-0.13063,-0.2564,-0.075702,0.16138,0.12675
1.2726e+05,1.1045e+08,0,-0.21756,0.019681,0.20845,0.087027,-0.17383,-0.078006,-0.20085,-0.011638,0.22429,0.18352
1.2731e+05,1.1046e+08,0,-0.21756,0.019681,0.20845,0.087027,-0.17383,-0.078006,-0.20085,-0.011638,0.22429,0.18352
1.2735e+05,1.1047e+08,0,-0.21756,0.019681,0.20845,0.087027,-0.17383,-0.078006,-0.20085,-0.011638,0.22429,0.18352
1.274e+05,1.1048e+08,0,-0.21756,0.019681,0.20845,0.087027,-0.17383,-0.078006,-0.20085,-0.011638,0.22429,0.18352
1.2745e+05,1.1049e+08,0,-0.21756,0.019681,0.20845,0.087027,-0.17383,-0.078006,-0.20085,-0.011638,0.22429,0.18352
1.2749e+05,1.105e+08,0,-0.21756,0.019681,0.20845,0.087027,-0.17383,-0.078006,-0.20085,-0.011638,0.22429,0.18352
1.2754e+05,1.1051e+08,0,-0.21756,0.019681,0.20845,0.087027,-0.17383,-0.078006,-0.20085,-0.011638,0.22429,0.18352
1.2759e+05,1.1053e+08,0,-0.21756,0.019681,0.20845,0.087027,-0.17383,-0.078006,-0.20085,-0.011638,0.22429,0.18352
1.2763e+05,1.1054e+08,0,-0.21756,0.019681,0.20845,0.087027,-0.17383,-0.078006,-0.20085,-0.011638,0.22429,0.18352
1.2768e+05,1.1055e+08,0,-0.21756,0.019681,0.20845,0.087027,-0.17383,-0.078006,-0.20085,-0.011638,0.22429,0.18352
1.2772e+05,1.1056e+08,0,-0.21756,0.019681,0.20845,0.087027,-0.17383,-0.078006,-0.20085,-0.011638,0.22429,0.18352
1.2776e+05,1.1057e+08,0,-0.21756,0.019681,0.20845,0.087027,-0.17383,-0.078006,-0.20085,-0.011638,0.22429,0.18352
1.2781e+05,1.1058e+08,0,-0.21756,0.019681,0.20845,0.087027,-0.17383,-0.078006,-0.20085,-0.011638,0.22429,0.18352
1.2786e+05,1.1059e+08,0,-0.21756,0.019681,0.20845,0.087027,-0.17383,-0.078006,-0.20085,-0.011638,0.22429,0.18352
1.279e+05,1.106e+08,0,-0.21756,0.019681,0.20845,0.087027,-0.17383,-0.078006,-0.20085,-0.011638,0.22429,0.18352
1.2795e+05,1.1061e+08,0,-0.21756,0.019681,0.20845,0.087027,-0.17383,-0.078006,-0.20085,-0.011638,0.22429,0.18352
1.28e+05,1.1062e+08,0,-0.21756,0.019681,0.20845,0.087027,-0.17383,-0.078006,-0.20085,-0.011638,0.22429,0.18352
1.2804e+05,1.1063e+08,0,-0.21756,0.019681,0.20845,0.087027,-0.17383,-0.078006,-0.20085,-0.011638,0.22429,0.18352
1.2808e+05,1.1064e+08,0,-0.21756,0.019681,0.20845,0.087027,-0.17383,-0.078006,-0.20085,-0.011638,0.22429,0.18352
1.2813e+05,1.1065e+08,0,-0.21756,0.019681,0.20845,0.087027,-0.17383,-0.078006,-0.20085,-0.011638,0.22429,0.18352
1.2817e+05,1.1066e+08,0,-0.20685,0.032575,0.22481,0.10485,-0.16117,-0.075018,-0.20024,-0.011049,0.2296,0.19073
1.2821e+05,1.1067e+08,0,-0.20685,0.032575,0.22481,0.10485,-0.16117,-0.075018,-0.20024,-0.011049,0.2296,0.19073
1.2823e+05,1.107e+08,0,-0.20685,0.032575,0.22481,0.10485,-0.16117,-0.075018,-0.20024,-0.011049,0.2296,0.19073
1.2828e+05,1.1071e+08,0,-0.20685,0.032575,0.22481,0.10485,-0.16117,-0.075018,-0.20024,-0.011049,0.2296,0.19073
1.2832e+05,1.1072e+08,0,-0.20685,0.032575,0.22481,0.10485,-0.16117,-0.075018,-0.20024,-0.011049,0.2296,0.19073
1.2837e+05,1.1073e+08,0,-0.20685,0.032575,0.22481,0.10485,-0.16117,-0.075018,-0.20024,-0.011049,0.2296,0.19073
1.2841e+05,1.1074e+08,0,-0.20685,0.032575,0.22481,0.10485,-0.16117,-0.075018,-0.20024,-0.011049,0.2296,0.19073
1.2846e+05,1.1075e+08,0,-0.20685,0.032575,0.22481,0.10485,-0.16117,-0.075018,-0.20024,-0.011049,0.2296,0.19073
1.285e+05,1.1076e+08,0,-0.20685,0.032575,0.22481,0.10485,-0.16117,-0.075018,-0.20024,-0.011049,0.2296,0.19073
1.2854e+05,1.1077e+08,0,-0.20685,0.032575,0.22481,0.10485,-0.16117,-0.075018,-0.20024,-0.011049,0.2296,0.19073
1.286e+05,1.1078e+08,0,-0.20685,0.032575,0.22481,0.10485,-0.16117,-0.075018,-0.20024,-0.011049,0.2296,0.19073
1.2864e+05,1.1079e+08,0,-0.20685,0.032575,0.22481,0.10485,-0.16117,-0.075018,-0.20024,-0.011049,0.2296,0.19073
1.2869e+05,1.108e+08,0,-0.20685,0.032575,0.22481,0.10485,-0.16117,-0.075018,-0.20024,-0.011049,0.2296,0.19073
1.2873e+05,1.1081e+08,0,-0.20685,0.032575,0.22481,0.10485,-0.16117,-0.075018,-0.20024,-0.011049,0.2296,0.19073
1.2878e+05,1.1083e+08,0,-0.20685,0.032575,0.22481,0.10485,-0.16117,-0.075018,-0.20024,-0.011049,0.2296,0.19073
1.2882e+05,1.1084e+08,0,-0.21883,0.018599,0.20263,0.079704,-0.18156,-0.086982,-0.2031,-0.013841,0.22034,0.17537
1.2887e+05,1.1085e+08,0,-0.21883,0.018599,0.20263,0.079704,-0.18156,-0.086982,-0.2031,-0.013841,0.22034,0.17537
1.2892e+05,1.1086e+08,0,-0.21883,0.018599,0.20263,0.079704,-0.18156,-0.086982,-0.2031,-0.013841,0.22034,0.17537
1.2896e+05,1.1087e+08,0,-0.21883,0.018599,0.20263,0.079704,-0.18156,-0.086982,-0.2031,-0.013841,0.22034,0.17537
1.29e+05,1.1088e+08,0,-0.21883,0.018599,0.20263,0.079704,-0.18156,-0.086982,-0.2031,-0.013841,0.22034,0.17537
1.2905e+05,1.1089e+08,0,-0.21883,0.018599,0.20263,0.079704,-0.18156,-0.086982,-0.2031,-0.013841,0.22034,0.17537
1.291e+05,1.109e+08,0,-0.21883,0.018599,0.20263,0.079704,-0.18156,-0.086982,-0.2031,-0.013841,0.22034,0.17537
1.2914e+05,1.1091e+08,0,-0.21883,0.018599,0.20263,0.079704,-0.18156,-0.086982,-0.2031,-0.013841,0.22034,0.17537
1.2919e+05,1.1092e+08,0,-0.21883,0.018599,0.20263,0.079704,-0.18156,-0.086982,-0.2031,-0.013841,0.22034,0.17537
1.2923e+05,1.1094e+08,0,-0.21883,0.018599,0.20263,0.079704,-0.18156,-0.086982,-0.2031,-0.013841,0.22034,0.17537
1.2928e+05,1.1095e+08,0,-0.21883,0.018599,0.20263,0.079704,-0.18156,-0.086982,-0.2031,-0.013841,0.22034,0.17537
1.2932e+05,1.1096e+08,0,-0.21883,0.018599,0.20263,0.079704,-0.18156,-0.086982,-0.2031,-0.013841,0.22034,0.17537
1.2937e+05,1.1097e+08,0,-0.21883,0.018599,0.20263,0.079704,-0.18156,-0.086982,-0.2031,-0.013841,0.22034,0.17537
1.2941e+05,1.1098e+08,0,-0.21883,0.018599,0.20263,0.079704,-0.18156,-0.086982,-0.2031,-0.013841,0.22034,0.17537
1.2946e+05,1.1099e+08,0,-0.21883,0.018599,0.20263,0.079704,-0.18156,-0.086982,-0.2031,-0.013841,0.22034,0.17537
1.295e+05,1.11e+08,0,-0.21883,0.018599,0.20263,0.079704,-0.18156,-0.086982,-0.2031,-0.013841,0.22034,0.17537
1.2955e+05,1.1101e+08,0,-0.21883,0.018599,0.20263,0.079704,-0.18156,-0.086982,-0.2031,-0.013841,0.22034,0.17537
1.296e+05,1.1102e+08,0,-0.21883,0.018599,0.20263,0.079704,-0.18156,-0.086982,-0.2031,-0.013841,0.22034,0.17537
1.2964e+05,1.1103e+08,0,-0.21883,0.018599,0.20263,0.079704,-0.18156,-0.086982,-0.2031,-0.013841,0.22034,0.17537
1.2969e+05,1.1104e+08,0,-0.21883,0.018599,0.20263,0.079704,-0.18156,-0.086982,-0.2031,-0.013841,0.22034,0.17537
1.2973e+05,1.1105e+08,0,-0.24276,-0.0019958,0.19659,0.081234,-0.19242,-0.09987,-0.2301,-0.04334,0.20504,0.17115
1.2978e+05,1.1106e+08,0,-0.24276,-0.0019958,0.19659,0.081234,-0.19242,-0.09987,-0.2301,-0.04334,0.20504,0.17115
1.2982e+05,1.1107e+08,0,-0.24276,-0.0019958,0.19659,0.081234,-0.19242,-0.09987,-0.2301,-0.04334,0.20504,0.17115
1.2986e+05,1.1108e+08,0,-0.24276,-0.0019958,0.19659,0.081234,-0.19242,-0.09987,-0.2301,-0.04334,0.20504,0.17115
1.2991e+05,1.1109e+08,0,-0.24276,-0.0019958,0.19659,0.081234,-0.19242,-0.09987,-0.2301,-0.04334,0.20504,0.17115
1.2996e+05,1.111e+08,0,-0.24276,-0.0019958,0.19659,0.081234,-0.19242,-0.09987,-0.2301,-0.04334,0.20504,0.17115
1.3e+05,1.1111e+08,0,-0.24276,-0.0019958,0.19659,0.081234,-0.19242,-0.09987,-0.2301,-0.04334,0.20504,0.17115
1.3005e+05,1.1112e+08,0,-0.24276,-0.0019958,0.19659,0.081234,-0.19242,-0.09987,-0.2301,-0.04334,0.20504,0.17115
1.3009e+05,1.1113e+08,0,-0.24276,-0.0019958,0.19659,0.081234,-0.19242,-0.09987,-0.2301,-0.04334,0.20504,0.17115
1.3014e+05,1.1114e+08,0,-0.24276,-0.0019958,0.19659,0.081234,-0.19242,-0.09987,-0.2301,-0.04334,0.20504,0.17115
1.3019e+05,1.1115e+08,0,-0.24276,-0.0019958,0.19659,0.081234,-0.19242,-0.09987,-0.2301,-0.04334,0.20504,0.17115
1.3023e+05,1.1116e+08,0,-0.24276,-0.0019958,0.19659,0.081234,-0.19242,-0.09987,-0.2301,-0.04334,0.20504,0.17115
1.3028e+05,1.1118e+08,0,-0.24276,-0.0019958,0.19659,0.081234,-0.19242,-0.09987,-0.2301,-0.04334,0.20504,0.17115
1.3032e+05,1.1119e+08,0,-0.24276,-0.0019958,0.19659,0.081234,-0.19242,-0.09987,-0.2301,-0.04334,0.20504,0.17115
1.3037e+05,1.112e+08,0,-0.24276,-0.0019958,0.19659,0.081234,-0.19242,-0.09987,-0.2301,-0.04334,0.20504,0.17115
1.3042e+05,1.1121e+08,0,-0.24276,-0.0019958,0.19659,0.081234,-0.19242,-0.09987,-0.2301,-0.04334,0.20504,0.17115
1.3046e+05,1.1122e+08,0,-0.24276,-0.0019958,0.19659,0.081234,-0.19242,-0.09987,-0.2301,-0.04334,0.20504,0.17115
1.3051e+05,1.1123e+08,0,-0.24276,-0.0019958,0.19659,0.081234,-0.19242,-0.09987,-0.2301,-0.04334,0.20504,0.17115
1.3055e+05,1.1124e+08,0,-0.24276,-0.0019958,0.19659,0.081234,-0.19242,-0.09987,-0.2301,-0.04334,0.20504,0.17115
1.3059e+05,1.1125e+08,0,-0.24276,-0.0019958,0.19659,0.081234,-0.19242,-0.09987,-0.2301,-0.04334,0.20504,0.17115
1.3064e+05,1.1126e+08,0,-0.21366,0.033103,0.23411,0.11722,-0.16214,-0.11286,-0.24469,-0.053959,0.19837,0.1648
1.3068e+05,1.1127e+08,0,-0.21366,0.033103,0.23411,0.11722,-0.16214,-0.11286,-0.24469,-0.053959,0.19837,0.1648
1.3073e+05,1.1128e+08,0,-0.21366,0.033103,0.23411,0.11722,-0.16214,-0.11286,-0.24469,-0.053959,0.19837,0.1648
1.3077e+05,1.1129e+08,0,-0.21366,0.033103,0.23411,0.11722,-0.16214,-0.11286,-0.24469,-0.053959,0.19837,0.1648
1.3082e+05,1.113e+08,0,-0.21366,0.033103,0.23411,0.11722,-0.16214,-0.11286,-0.24469,-0.053959,0.19837,0.1648
1.3087e+05,1.1131e+08,0,-0.21366,0.033103,0.23411,0.11722,-0.16214,-0.11286,-0.24469,-0.053959,0.19837,0.1648
1.3091e+05,1.1132e+08,0,-0.21366,0.033103,0.23411,0.11722,-0.16214,-0.11286,-0.24469,-0.053959,0.19837,0.1648
1.3096e+05,1.1133e+08,0,-0.21366,0.033103,0.23411,0.11722,-0.16214,-0.11286,-0.24469,-0.053959,0.19837,0.1648
1.31e+05,1.1134e+08,0,-0.21366,0.033103,0.23411,0.11722,-0.16214,-0.11286,-0.24469,-0.053959,0.19837,0.1648
1.3105e+05,1.1135e+08,0,-0.21366,0.033103,0.23411,0.11722,-0.16214,-0.11286,-0.24469,-0.053959,0.19837,0.1648
1.3109e+05,1.1136e+08,0,-0.21366,0.033103,0.23411,0.11722,-0.16214,-0.11286,-0.24469,-0.053959,0.19837,0.1648
1.3114e+05,1.1137e+08,0,-0.21366,0.033103,0.23411,0.11722,-0.16214,-0.11286,-0.24469,-0.053959,0.19837,0.1648
1.3118e+05,1.1138e+08,0,-0.21366,0.033103,0.23411,0.11722,-0.16214,-0.11286,-0.24469,-0.053959,0.19837,0.1648
1.3122e+05,1.114e+08,0,-0.21366,0.033103,0.23411,0.11722,-0.16214,-0.11286,-0.24469,-0.053959,0.19837,0.1648
1.3127e+05,1.1141e+08,0,-0.21366,0.033103,0.23411,0.11722,-0.16214,-0.11286,-0.24469,-0.053959,0.19837,0.1648
1.3132e+05,1.1142e+08,0,-0.21366,0.033103,0.23411,0.11722,-0.16214,-0.11286,-0.24469,-0.053959,0.19837,0.1648
1.3136e+05,1.1143e+08,0,-0.21366,0.033103,0.23411,0.11722,-0.16214,-0.11286,-0.24469,-0.053959,0.19837,0.1648
1.3141e+05,1.1144e+08,0,-0.21366,0.033103,0.23411,0.11722,-0.16214,-0.11286,-0.24469,-0.053959,0.19837,0.1648
1.3145e+05,1.1145e+08,0,-0.21366,0.033103,0.23411,0.11722,-0.16214,-0.11286,-0.24469,-0.053959,0.19837,0.1648
1.315e+05,1.1146e+08,0,-0.21366,0.033103,0.23411,0.11722,-0.16214,-0.11286,-0.24469,-0.053959,0.19837,0.1648
1.3154e+05,1.1147e+08,0,-0.20157,0.055347,0.26046,0.13585,-0.15186,-0.082247,-0.21539,-0.01514,0.24365,0.20508
1.3158e+05,1.1148e+08,0,-0.20157,0.055347,0.26046,0.13585,-0.15186,-0.082247,-0.21539,-0.01514,0.24365,0.20508
1.3163e+05,1.1149e+08,0,-0.20157,0.055347,0.26046,0.13585,-0.15186,-0.082247,-0.21539,-0.01514,0.24365,0.20508
1.3167e+05,1.115e+08,0,-0.20157,0.055347,0.26046,0.13585,-0.15186,-0.082247,-0.21539,-0.01514,0.24365,0.20508
1.3172e+05,1.1151e+08,0,-0.20157,0.055347,0.26046,0.13585,-0.15186,-0.082247,-0.21539,-0.01514,0.24365,0.20508
1.3177e+05,1.1152e+08,0,-0.20157,0.055347,0.26046,0.13585,-0.15186,-0.082247,-0.21539,-0.01514,0.24365,0.20508
1.3181e+05,1.1153e+08,0,-0.20157,0.055347,0.26046,0.13585,-0.15186,-0.082247,-0.21539,-0.01514,0.24365,0.20508
1.3186e+05,1.1154e+08,0,-0.20157,0.055347,0.26046,0.13585,-0.15186,-0.082247,-0.21539,-0.01514,0.24365,0.20508
1.319e+05,1.1155e+08,0,-0.20157,0.055347,0.26046,0.13585,-0.15186,-0.082247,-0.21539,-0.01514,0.24365,0.20508
1.3195e+05,1.1156e+08,0,-0.20157,0.055347,0.26046,0.13585,-0.15186,-0.082247,-0.21539,-0.01514,0.24365,0.20508
1.3199e+05,1.1157e+08,0,-0.20157,0.055347,0.26046,0.13585,-0.15186,-0.082247,-0.21539,-0.01514,0.24365,0.20508
1.3204e+05,1.1158e+08,0,-0.20157,0.055347,0.26046,0.13585,-0.15186,-0.082247,-0.21539,-0.01514,0.24365,0.20508
1.3208e+05,1.1159e+08,0,-0.20157,0.055347,0.26046,0.13585,-0.15186,-0.082247,-0.21539,-0.01514,0.24365,0.20508
1.3213e+05,1.116e+08,0,-0.20157,0.055347,0.26046,0.13585,-0.15186,-0.082247,-0.21539,-0.01514,0.24365,0.20508
1.3218e+05,1.1161e+08,0,-0.20157,0.055347,0.26046,0.13585,-0.15186,-0.082247,-0.21539,-0.01514,0.24365,0.20508
1.3222e+05,1.1162e+08,0,-0.20157,0.055347,0.26046,0.13585,-0.15186,-0.082247,-0.21539,-0.01514,0.24365,0.20508
1.3227e+05,1.1163e+08,0,-0.20157,0.055347,0.26046,0.13585,-0.15186,-0.082247,-0.21539,-0.01514,0.24365,0.20508
1.3231e+05,1.1164e+08,0,-0.20157,0.055347,0.26046,0.13585,-0.15186,-0.082247,-0.21539,-0.01514,0.24365,0.20508
1.3236e+05,1.1165e+08,0,-0.20157,0.055347,0.26046,0.13585,-0.15186,-0.082247,-0.21539,-0.01514,0.24365,0.20508
1.324e+05,1.1166e+08,0,-0.20339,0.051835,0.25479,0.12874,-0.15778,-0.10618,-0.23588,-0.03619,0.22138,0.17947
1.3244e+05,1.1167e+08,0,-0.20339,0.051835,0.25479,0.12874,-0.15778,-0.10618,-0.23588,-0.03619,0.22138,0.17947
1.3249e+05,1.1169e+08,0,-0.20339,0.051835,0.25479,0.12874,-0.15778,-0.10618,-0.23588,-0.03619,0.22138,0.17947
1.3253e+05,1.117e+08,0,-0.20339,0.051835,0.25479,0.12874,-0.15778,-0.10618,-0.23588,-0.03619,0.22138,0.17947
1.3258e+05,1.1171e+08,0,-0.20339,0.051835,0.25479,0.12874,-0.15778,-0.10618,-0.23588,-0.03619,0.22138,0.17947
1.3263e+05,1.1172e+08,0,-0.20339,0.051835,0.25479,0.12874,-0.15778,-0.10618,-0.23588,-0.03619,0.22138,0.17947
1.3267e+05,1.1173e+08,0,-0.20339,0.051835,0.25479,0.12874,-0.15778,-0.10618,-0.23588,-0.03619,0.22138,0.17947
1.3272e+05,1.1174e+08,0,-0.20339,0.051835,0.25479,0.12874,-0.15778,-0.10618,-0.23588,-0.03619,0.22138,0.17947
1.3276e+05,1.1175e+08,0,-0.20339,0.051835,0.25479,0.12874,-0.15778,-0.10618,-0.23588,-0.03619,0.22138,0.17947
1.3281e+05,1.1176e+08,0,-0.20339,0.051835,0.25479,0.12874,-0.15778,-0.10618,-0.23588,-0.03619,0.22138,0.17947
1.3285e+05,1.1177e+08,0,-0.20339,0.051835,0.25479,0.12874,-0.15778,-0.10618,-0.23588,-0.03619,0.22138,0.17947
1.329e+05,1.1178e+08,0,-0.20339,0.051835,0.25479,0.12874,-0.15778,-0.10618,-0.23588,-0.03619,0.22138,0.17947
1.3294e+05,1.1179e+08,0,-0.20339,0.051835,0.25479,0.12874,-0.15778,-0.10618,-0.23588,-0.03619,0.22138,0.17947
1.3299e+05,1.118e+08,0,-0.20339,0.051835,0.25479,0.12874,-0.15778,-0.10618,-0.23588,-0.03619,0.22138,0.17947
1.3303e+05,1.1181e+08,0,-0.20339,0.051835,0.25479,0.12874,-0.15778,-0.10618,-0.23588,-0.03619,0.22138,0.17947
1.3308e+05,1.1182e+08,0,-0.20339,0.051835,0.25479,0.12874,-0.15778,-0.10618,-0.23588,-0.03619,0.22138,0.17947
1.3312e+05,1.1183e+08,0,-0.20339,0.051835,0.25479,0.12874,-0.15778,-0.10618,-0.23588,-0.03619,0.22138,0.17947
1.3317e+05,1.1184e+08,0,-0.20339,0.051835,0.25479,0.12874,-0.15778,-0.10618,-0.23588,-0.03619,0.22138,0.17947
1.3321e+05,1.1185e+08,0,-0.22958,0.02598,0.23132,0.10518,-0.18304,-0.11892,-0.25043,-0.050588,0.20931,0.16761
1.3326e+05,1.1186e+08,0,-0.22958,0.02598,0.23132,0.10518,-0.18304,-0.11892,-0.25043,-0.050588,0.20931,0.16761
1.333e+05,1.1187e+08,0,-0.22958,0.02598,0.23132,0.10518,-0.18304,-0.11892,-0.25043,-0.050588,0.20931,0.16761
1.3335e+05,1.1189e+08,0,-0.22958,0.02598,0.23132,0.10518,-0.18304,-0.11892,-0.25043,-0.050588,0.20931,0.16761
1.3339e+05,1.119e+08,0,-0.22958,0.02598,0.23132,0.10518,-0.18304,-0.11892,-0.25043,-0.050588,0.20931,0.16761
1.3344e+05,1.1191e+08,0,-0.22958,0.02598,0.23132,0.10518,-0.18304,-0.11892,-0.25043,-0.050588,0.20931,0.16761
1.3348e+05,1.1192e+08,0,-0.22958,0.02598,0.23132,0.10518,-0.18304,-0.11892,-0.25043,-0.050588,0.20931,0.16761
1.3353e+05,1.1193e+08,0,-0.22958,0.02598,0.23132,0.10518,-0.18304,-0.11892,-0.25043,-0.050588,0.20931,0.16761
1.3358e+05,1.1194e+08,0,-0.22958,0.02598,0.23132,0.10518,-0.18304,-0.11892,-0.25043,-0.050588,0.20931,0.16761
1.3362e+05,1.1195e+08,0,-0.22958,0.02598,0.23132,0.10518,-0.18304,-0.11892,-0.25043,-0.050588,0.20931,0.16761
1.3367e+05,1.1196e+08,0,-0.22958,0.02598,0.23132,0.10518,-0.18304,-0.11892,-0.25043,-0.050588,0.20931,0.16761
1.3371e+05,1.1197e+08,0,-0.22958,0.02598,0.23132,0.10518,-0.18304,-0.11892,-0.25043,-0.050588,0.20931,0.16761
1.3376e+05,1.1198e+08,0,-0.22958,0.02598,0.23132,0.10518,-0.18304,-0.11892,-0.25043,-0.050588,0.20931,0.16761
1.338e+05,1.1199e+08,0,-0.22958,0.02598,0.23132,0.10518,-0.18304,-0.11892,-0.25043,-0.050588,0.20931,0.16761
1.3384e+05,1.12e+08,0,-0.22958,0.02598,0.23132,0.10518,-0.18304,-0.11892,-0.25043,-0.050588,0.20931,0.16761
1.3389e+05,1.1201e+08,0,-0.22958,0.02598,0.23132,0.10518,-0.18304,-0.11892,-0.25043,-0.050588,0.20931,0.16761
1.3394e+05,1.1202e+08,0,-0.22958,0.02598,0.23132,0.10518,-0.18304,-0.11892,-0.25043,-0.050588,0.20931,0.16761
1.3399e+05,1.1203e+08,0,-0.22958,0.02598,0.23132,0.10518,-0.18304,-0.11892,-0.25043,-0.050588,0.20931,0.16761
1.3403e+05,1.1204e+08,0,-0.22958,0.02598,0.23132,0.10518,-0.18304,-0.11892,-0.25043,-0.050588,0.20931,0.16761
1.3408e+05,1.1205e+08,0,-0.22958,0.02598,0.23132,0.10518,-0.18304,-0.11892,-0.25043,-0.050588,0.20931,0.16761
1.3412e+05,1.1206e+08,0,-0.21324,0.045049,0.25945,0.13724,-0.15802,-0.13736,-0.27818,-0.078848,0.1893,0.15446
1.3417e+05,1.1207e+08,0,-0.21324,0.045049,0.25945,0.13724,-0.15802,-0.13736,-0.27818,-0.078848,0.1893,0.15446
1.3421e+05,1.1208e+08,0,-0.21324,0.045049,0.25945,0.13724,-0.15802,-0.13736,-0.27818,-0.078848,0.1893,0.15446
1.3426e+05,1.1209e+08,0,-0.21324,0.045049,0.25945,0.13724,-0.15802,-0.13736,-0.27818,-0.078848,0.1893,0.15446
1.343e+05,1.121e+08,0,-0.21324,0.045049,0.25945,0.13724,-0.15802,-0.13736,-0.27818,-0.078848,0.1893,0.15446
1.3435e+05,1.1211e+08,0,-0.21324,0.045049,0.25945,0.13724,-0.15802,-0.13736,-0.27818,-0.078848,0.1893,0.15446
1.344e+05,1.1213e+08,0,-0.21324,0.045049,0.25945,0.13724,-0.15802,-0.13736,-0.27818,-0.078848,0.1893,0.15446
1.3444e+05,1.1214e+08,0,-0.21324,0.045049,0.25945,0.13724,-0.15802,-0.13736,-0.27818,-0.078848,0.1893,0.15446
1.3449e+05,1.1215e+08,0,-0.21324,0.045049,0.25945,0.13724,-0.15802,-0.13736,-0.27818,-0.078848,0.1893,0.15446
1.3453e+05,1.1216e+08,0,-0.21324,0.045049,0.25945,0.13724,-0.15802,-0.13736,-0.27818,-0.078848,0.1893,0.15446
1.3458e+05,1.1217e+08,0,-0.21324,0.045049,0.25945,0.13724,-0.15802,-0.13736,-0.27818,-0.078848,0.1893,0.15446
1.3462e+05,1.1218e+08,0,-0.21324,0.045049,0.25945,0.13724,-0.15802,-0.13736,-0.27818,-0.078848,0.1893,0.15446
1.3467e+05,1.1219e+08,0,-0.21324,0.045049,0.25945,0.13724,-0.15802,-0.13736,-0.27818,-0.078848,0.1893,0.15446
1.3472e+05,1.122e+08,0,-0.21324,0.045049,0.25945,0.13724,-0.15802,-0.13736,-0.27818,-0.078848,0.1893,0.15446
1.3476e+05,1.1221e+08,0,-0.21324,0.045049,0.25945,0.13724,-0.15802,-0.13736,-0.27818,-0.078848,0.1893,0.15446
1.3481e+05,1.1222e+08,0,-0.21324,0.045049,0.25945,0.13724,-0.15802,-0.13736,-0.27818,-0.078848,0.1893,0.15446
1.3486e+05,1.1223e+08,0,-0.21324,0.045049,0.25945,0.13724,-0.15802,-0.13736,-0.27818,-0.078848,0.1893,0.15446
1.349e+05,1.1224e+08,0,-0.22539,0.023037,0.22419,0.1022,-0.17702,-0.10266,-0.23341,-0.038951,0.21362,0.17516
1.3494e+05,1.1225e+08,0,-0.22539,0.023037,0.22419,0.1022,-0.17702,-0.10266,-0.23341,-0.038951,0.21362,0.17516
1.3499e+05,1.1227e+08,0,-0.22539,0.023037,0.22419,0.1022,-0.17702,-0.10266,-0.23341,-0.038951,0.21362,0.17516
1.3504e+05,1.1228e+08,0,-0.22539,0.023037,0.22419,0.1022,-0.17702,-0.10266,-0.23341,-0.038951,0.21362,0.17516
1.3508e+05,1.1229e+08,0,-0.22539,0.023037,0.22419,0.1022,-0.17702,-0.10266,-0.23341,-0.038951,0.21362,0.17516
1.3513e+05,1.123e+08,0,-0.22539,0.023037,0.22419,0.1022,-0.17702,-0.10266,-0.23341,-0.038951,0.21362,0.17516
1.3517e+05,1.1231e+08,0,-0.22539,0.023037,0.22419,0.1022,-0.17702,-0.10266,-0.23341,-0.038951,0.21362,0.17516
1.3522e+05,1.1232e+08,0,-0.22539,0.023037,0.22419,0.1022,-0.17702,-0.10266,-0.23341,-0.038951,0.21362,0.17516
1.3526e+05,1.1233e+08,0,-0.22539,0.023037,0.22419,0.1022,-0.17702,-0.10266,-0.23341,-0.038951,0.21362,0.17516
1.3531e+05,1.1234e+08,0,-0.22539,0.023037,0.22419,0.1022,-0.17702,-0.10266,-0.23341,-0.038951,0.21362,0.17516
1.3535e+05,1.1235e+08,0,-0.22539,0.023037,0.22419,0.1022,-0.17702,-0.10266,-0.23341,-0.038951,0.21362,0.17516
1.354e+05,1.1236e+08,0,-0.22539,0.023037,0.22419,0.1022,-0.17702,-0.10266,-0.23341,-0.038951,0.21362,0.17516
1.3544e+05,1.1237e+08,0,-0.22539,0.023037,0.22419,0.1022,-0.17702,-0.10266,-0.23341,-0.038951,0.21362,0.17516
1.3549e+05,1.1238e+08,0,-0.22539,0.023037,0.22419,0.1022,-0.17702,-0.10266,-0.23341,-0.038951,0.21362,0.17516
1.3554e+05,1.1239e+08,0,-0.22539,0.023037,0.22419,0.1022,-0.17702,-0.10266,-0.23341,-0.038951,0.21362,0.17516
1.3558e+05,1.124e+08,0,-0.22539,0.023037,0.22419,0.1022,-0.17702,-0.10266,-0.23341,-0.038951,0.21362,0.17516
1.3562e+05,1.1241e+08,0,-0.22539,0.023037,0.22419,0.1022,-0.17702,-0.10266,-0.23341,-0.038951,0.21362,0.17516
1.3567e+05,1.1242e+08,0,-0.22539,0.023037,0.22419,0.1022,-0.17702,-0.10266,-0.23341,-0.038951,0.21362,0.17516
1.3572e+05,1.1243e+08,0,-0.22539,0.023037,0.22419,0.1022,-0.17702,-0.10266,-0.23341,-0.038951,0.21362,0.17516
1.3576e+05,1.1244e+08,0,-0.24192,0.018122,0.22788,0.10057,-0.19153,-0.11744,-0.25363,-0.050332,0.21348,0.17344
1.358e+05,1.1245e+08,0,-0.24192,0.018122,0.22788,0.10057,-0.19153,-0.11744,-0.25363,-0.050332,0.21348,0.17344
1.3585e+05,1.1246e+08,0,-0.24192,0.018122,0.22788,0.10057,-0.19153,-0.11744,-0.25363,-0.050332,0.21348,0.17344
1.3589e+05,1.1247e+08,0,-0.24192,0.018122,0.22788,0.10057,-0.19153,-0.11744,-0.25363,-0.050332,0.21348,0.17344
1.3594e+05,1.1248e+08,0,-0.24192,0.018122,0.22788,0.10057,-0.19153,-0.11744,-0.25363,-0.050332,0.21348,0.17344
1.3598e+05,1.1249e+08,0,-0.24192,0.018122,0.22788,0.10057,-0.19153,-0.11744,-0.25363,-0.050332,0.21348,0.17344
1.3603e+05,1.125e+08,0,-0.24192,0.018122,0.22788,0.10057,-0.19153,-0.11744,-0.25363,-0.050332,0.21348,0.17344
1.3608e+05,1.1251e+08,0,-0.24192,0.018122,0.22788,0.10057,-0.19153,-0.11744,-0.25363,-0.050332,0.21348,0.17344
1.3612e+05,1.1252e+08,0,-0.24192,0.018122,0.22788,0.10057,-0.19153,-0.11744,-0.25363,-0.050332,0.21348,0.17344
1.3617e+05,1.1253e+08,0,-0.24192,0.018122,0.22788,0.10057,-0.19153,-0.11744,-0.25363,-0.050332,0.21348,0.17344
1.3621e+05,1.1254e+08,0,-0.24192,0.018122,0.22788,0.10057,-0.19153,-0.11744,-0.25363,-0.050332,0.21348,0.17344
1.3626e+05,1.1255e+08,0,-0.24192,0.018122,0.22788,0.10057,-0.19153,-0.11744,-0.25363,-0.050332,0.21348,0.17344
1.363e+05,1.1256e+08,0,-0.24192,0.018122,0.22788,0.10057,-0.19153,-0.11744,-0.25363,-0.050332,0.21348,0.17344
1.3635e+05,1.1257e+08,0,-0.24192,0.018122,0.22788,0.10057,-0.19153,-0.11744,-0.25363,-0.050332,0.21348,0.17344
1.3639e+05,1.1258e+08,0,-0.24192,0.018122,0.22788,0.10057,-0.19153,-0.11744,-0.25363,-0.050332,0.21348,0.17344
1.3644e+05,1.1259e+08,0,-0.24192,0.018122,0.22788,0.10057,-0.19153,-0.11744,-0.25363,-0.050332,0.21348,0.17344
1.3648e+05,1.126e+08,0,-0.24192,0.018122,0.22788,0.10057,-0.19153,-0.11744,-0.25363,-0.050332,0.21348,0.17344
1.3653e+05,1.1261e+08,0,-0.24192,0.018122,0.22788,0.10057,-0.19153,-0.11744,-0.25363,-0.050332,0.21348,0.17344
1.3658e+05,1.1262e+08,0,-0.24192,0.018122,0.22788,0.10057,-0.19153,-0.11744,-0.25363,-0.050332,0.21348,0.17344
1.3662e+05,1.1263e+08,0,-0.24192,0.018122,0.22788,0.10057,-0.19153,-0.11744,-0.25363,-0.050332,0.21348,0.17344
1.3667e+05,1.1265e+08,0,-0.24192,0.018122,0.22788,0.10057,-0.19153,-0.11744,-0.25363,-0.050332,0.21348,0.17344
1.3671e+05,1.1266e+08,0,-0.20528,0.059326,0.27885,0.15454,-0.14635,-0.10321,-0.24894,-0.044722,0.2286,0.19493
1.3675e+05,1.1267e+08,0,-0.20528,0.059326,0.27885,0.15454,-0.14635,-0.10321,-0.24894,-0.044722,0.2286,0.19493
1.368e+05,1.1268e+08,0,-0.20528,0.059326,0.27885,0.15454,-0.14635,-0.10321,-0.24894,-0.044722,0.2286,0.19493
1.3684e+05,1.1269e+08,0,-0.20528,0.059326,0.27885,0.15454,-0.14635,-0.10321,-0.24894,-0.044722,0.2286,0.19493
1.3689e+05,1.127e+08,0,-0.20528,0.059326,0.27885,0.15454,-0.14635,-0.10321,-0.24894,-0.044722,0.2286,0.19493
1.3693e+05,1.1271e+08,0,-0.20528,0.059326,0.27885,0.15454,-0.14635,-0.10321,-0.24894,-0.044722,0.2286,0.19493
1.3698e+05,1.1272e+08,0,-0.20528,0.059326,0.27885,0.15454,-0.14635,-0.10321,-0.24894,-0.044722,0.2286,0.19493
1.3702e+05,1.1273e+08,0,-0.20528,0.059326,0.27885,0.15454,-0.14635,-0.10321,-0.24894,-0.044722,0.2286,0.19493
1.3707e+05,1.1274e+08,0,-0.20528,0.059326,0.27885,0.15454,-0.14635,-0.10321,-0.24894,-0.044722,0.2286,0.19493
1.3712e+05,1.1275e+08,0,-0.20528,0.059326,0.27885,0.15454,-0.14635,-0.10321,-0.24894,-0.044722,0.2286,0.19493
1.3716e+05,1.1276e+08,0,-0.20528,0.059326,0.27885,0.15454,-0.14635,-0.10321,-0.24894,-0.044722,0.2286,0.19493
1.3721e+05,1.1277e+08,0,-0.20528,0.059326,0.27885,0.15454,-0.14635,-0.10321,-0.24894,-0.044722,0.2286,0.19493
1.3725e+05,1.1278e+08,0,-0.20528,0.059326,0.27885,0.15454,-0.14635,-0.10321,-0.24894,-0.044722,0.2286,0.19493
1.373e+05,1.1279e+08,0,-0.20528,0.059326,0.27885,0.15454,-0.14635,-0.10321,-0.24894,-0.044722,0.2286,0.19493
1.3734e+05,1.128e+08,0,-0.20528,0.059326,0.27885,0.15454,-0.14635,-0.10321,-0.24894,-0.044722,0.2286,0.19493
1.3739e+05,1.1281e+08,0,-0.20528,0.059326,0.27885,0.15454,-0.14635,-0.10321,-0.24894,-0.044722,0.2286,0.19493
1.3744e+05,1.1283e+08,0,-0.20528,0.059326,0.27885,0.15454,-0.14635,-0.10321,-0.24894,-0.044722,0.2286,0.19493
1.3748e+05,1.1284e+08,0,-0.20528,0.059326,0.27885,0.15454,-0.14635,-0.10321,-0.24894,-0.044722,0.2286,0.19493
1.3753e+05,1.1285e+08,0,-0.20528,0.059326,0.27885,0.15454,-0.14635,-0.10321,-0.24894,-0.044722,0.2286,0.19493
1.3757e+05,1.1286e+08,0,-0.23491,0.022083,0.23492,0.11186,-0.18014,-0.087393,-0.22758,-0.02811,0.23734,0.20172
1.3762e+05,1.1287e+08,0,-0.23491,0.022083,0.23492,0.11186,-0.18014,-0.087393,-0.22758,-0.02811,0.23734,0.20172
1.3766e+05,1.1288e+08,0,-0.23491,0.022083,0.23492,0.11186,-0.18014,-0.087393,-0.22758,-0.02811,0.23734,0.20172
1.3771e+05,1.1289e+08,0,-0.23491,0.022083,0.23492,0.11186,-0.18014,-0.087393,-0.22758,-0.02811,0.23734,0.20172
1.3775e+05,1.129e+08,0,-0.23491,0.022083,0.23492,0.11186,-0.18014,-0.087393,-0.22758,-0.02811,0.23734,0.20172
1.378e+05,1.1291e+08,0,-0.23491,0.022083,0.23492,0.11186,-0.18014,-0.087393,-0.22758,-0.02811,0.23734,0.20172
1.3784e+05,1.1292e+08,0,-0.23491,0.022083,0.23492,0.11186,-0.18014,-0.087393,-0.22758,-0.02811,0.23734,0.20172
1.3789e+05,1.1293e+08,0,-0.23491,0.022083,0.23492,0.11186,-0.18014,-0.087393,-0.22758,-0.02811,0.23734,0.20172
1.3793e+05,1.1294e+08,0,-0.23491,0.022083,0.23492,0.11186,-0.18014,-0.087393,-0.22758,-0.02811,0.23734,0.20172
1.3798e+05,1.1295e+08,0,-0.23491,0.022083,0.23492,0.11186,-0.18014,-0.087393,-0.22758,-0.02811,0.23734,0.20172
1.3802e+05,1.1296e+08,0,-0.23491,0.022083,0.23492,0.11186,-0.18014,-0.087393,-0.22758,-0.02811,0.23734,0.20172
1.3807e+05,1.1297e+08,0,-0.23491,0.022083,0.23492,0.11186,-0.18014,-0.087393,-0.22758,-0.02811,0.23734,0.20172
1.3812e+05,1.1298e+08,0,-0.23491,0.022083,0.23492,0.11186,-0.18014,-0.087393,-0.22758,-0.02811,0.23734,0.20172
1.3816e+05,1.1299e+08,0,-0.23491,0.022083,0.23492,0.11186,-0.18014,-0.087393,-0.22758,-0.02811,0.23734,0.20172
1.3821e+05,1.13e+08,0,-0.23491,0.022083,0.23492,0.11186,-0.18014,-0.087393,-0.22758,-0.02811,0.23734,0.20172
1.3825e+05,1.1301e+08,0,-0.23491,0.022083,0.23492,0.11186,-0.18014,-0.087393,-0.22758,-0.02811,0.23734,0.20172
1.383e+05,1.1302e+08,0,-0.23491,0.022083,0.23492,0.11186,-0.18014,-0.087393,-0.22758,-0.02811,0.23734,0.20172
1.3834e+05,1.1303e+08,0,-0.23491,0.022083,0.23492,0.11186,-0.18014,-0.087393,-0.22758,-0.02811,0.23734,0.20172
1.3839e+05,1.1304e+08,0,-0.23491,0.022083,0.23492,0.11186,-0.18014,-0.087393,-0.22758,-0.02811,0.23734,0.20172
1.3844e+05,1.1305e+08,0,-0.23491,0.022083,0.23492,0.11186,-0.18014,-0.087393,-0.22758,-0.02811,0.23734,0.20172
1.3848e+05,1.1306e+08,0,-0.19065,0.063718,0.26733,0.14187,-0.14375,-0.10514,-0.23608,-0.036965,0.22039,0.17942
1.3852e+05,1.1307e+08,0,-0.19065,0.063718,0.26733,0.14187,-0.14375,-0.10514,-0.23608,-0.036965,0.22039,0.17942
1.3857e+05,1.1308e+08,0,-0.19065,0.063718,0.26733,0.14187,-0.14375,-0.10514,-0.23608,-0.036965,0.22039,0.17942
1.3862e+05,1.131e+08,0,-0.19065,0.063718,0.26733,0.14187,-0.14375,-0.10514,-0.23608,-0.036965,0.22039,0.17942
1.3866e+05,1.1311e+08,0,-0.19065,0.063718,0.26733,0.14187,-0.14375,-0.10514,-0.23608,-0.036965,0.22039,0.17942
1.3871e+05,1.1312e+08,0,-0.19065,0.063718,0.26733,0.14187,-0.14375,-0.10514,-0.23608,-0.036965,0.22039,0.17942
1.3875e+05,1.1313e+08,0,-0.19065,0.063718,0.26733,0.14187,-0.14375,-0.10514,-0.23608,-0.036965,0.22039,0.17942
1.388e+05,1.1314e+08,0,-0.19065,0.063718,0.26733,0.14187,-0.14375,-0.10514,-0.23608,-0.036965,0.22039,0.17942
1.3885e+05,1.1315e+08,0,-0.19065,0.063718,0.26733,0.14187,-0.14375,-0.10514,-0.23608,-0.036965,0.22039,0.17942
1.9916e+05,1.7406e+08,0,0,0,0,0,0,0,0,0,0,0
1.9921e+05,1.7407e+08,0,0,0,0,0,0,0,0,0,0,0
1.9926e+05,1.7408e+08,0,0,0,0,0,0,0,0,0,0,0
1.993e+05,1.7409e+08,0,0,0,0,0,0,0,0,0,0,0
1.9935e+05,1.741e+08,0,0,0,0,0,0,0,0,0,0,0
1.9939e+05,1.7411e+08,0,0,0,0,0,0,0,0,0,0,0
1.9944e+05,1.7412e+08,0,0,0,0,0,0,0,0,0,0,0
1.9948e+05,1.7413e+08,0,0,0,0,0,0,0,0,0,0,0
1.9953e+05,1.7414e+08,0,0,0,0,0,0,0,0,0,0,0
1.9957e+05,1.7415e+08,0,0,0,0,0,0,0,0,0,0,0
1.9962e+05,1.7416e+08,0,0,0,0,0,0,0,0,0,0,0
1.9966e+05,1.7417e+08,0,0,0,0,0,0,0,0,0,0,0
1.9971e+05,1.7418e+08,0,0,0,0,0,0,0,0,0,0,0
1.9976e+05,1.7419e+08,0,0,0,0,0,0,0,0,0,0,0
1.998e+05,1.742e+08,0,0,0,0,0,0,0,0,0,0,0
1.9984e+05,1.7421e+08,0,0,0,0,0,0,0,0,0,0,0
1.9989e+05,1.7422e+08,0,0,0,0,0,0,0,0,0,0,0
1.9993e+05,1.7423e+08,0,0,0,0,0,0,0,0,0,0,0
1.9999e+05,1.7425e+08,0,0,0,0,0,0,0,0,0,0,0
2.0003e+05,1.7426e+08,0,-0.043818,-0.076837,-0.032691,0.027612,0.020734,0.053296,-0.00385,-0.052912,-0.026087,0.039553
2.0008e+05,1.7427e+08,0,-0.043818,-0.076837,-0.032691,0.027612,0.020734,0.053296,-0.00385,-0.052912,-0.026087,0.039553
2.0012e+05,1.7428e+08,0,-0.043818,-0.076837,-0.032691,0.027612,0.020734,0.053296,-0.00385,-0.052912,-0.026087,0.039553
2.0017e+05,1.7429e+08,0,-0.043818,-0.076837,-0.032691,0.027612,0.020734,0.053296,-0.00385,-0.052912,-0.026087,0.039553
2.0021e+05,1.743e+08,0,-0.043818,-0.076837,-0.032691,0.027612,0.020734,0.053296,-0.00385,-0.052912,-0.026087,0.039553
2.0026e+05,1.7431e+08,0,-0.043818,-0.076837,-0.032691,0.027612,0.020734,0.053296,-0.00385,-0.052912,-0.026087,0.039553
2.003e+05,1.7432e+08,0,-0.043818,-0.076837,-0.032691,0.027612,0.020734,0.053296,-0.00385,-0.052912,-0.026087,0.039553
2.0035e+05,1.7433e+08,0,-0.043818,-0.076837,-0.032691,0.027612,0.020734,0.053296,-0.00385,-0.052912,-0.026087,0.039553
2.0039e+05,1.7434e+08,0,-0.043818,-0.076837,-0.032691,0.027612,0.020734,0.053296,-0.00385,-0.052912,-0.026087,0.039553
2.0044e+05,1.7435e+08,0,-0.043818,-0.076837,-0.032691,0.027612,0.020734,0.053296,-0.00385,-0.052912,-0.026087,0.039553
2.0048e+05,1.7436e+08,0,-0.043818,-0.076837,-0.032691,0.027612,0.020734,0.053296,-0.00385,-0.052912,-0.026087,0.039553
2.0053e+05,1.7437e+08,0,-0.043818,-0.076837,-0.032691,0.027612,0.020734,0.053296,-0.00385,-0.052912,-0.026087,0.039553
2.0058e+05,1.7438e+08,0,-0.043818,-0.076837,-0.032691,0.027612,0.020734,0.053296,-0.00385,-0.052912,-0.026087,0.039553
2.0062e+05,1.7439e+08,0,-0.043818,-0.076837,-0.032691,0.027612,0.020734,0.053296,-0.00385,-0.052912,-0.026087,0.039553
2.0066e+05,1.744e+08,0,-0.043818,-0.076837,-0.032691,0.027612,0.020734,0.053296,-0.00385,-0.052912,-0.026087,0.039553
2.0071e+05,1.7441e+08,0,-0.043818,-0.076837,-0.032691,0.027612,0.020734,0.053296,-0.00385,-0.052912,-0.026087,0.039553
2.0076e+05,1.7443e+08,0,-0.043818,-0.076837,-0.032691,0.027612,0.020734,0.053296,-0.00385,-0.052912,-0.026087,0.039553
2.008e+05,1.7444e+08,0,-0.061235,-0.10807,-0.0473,0.03694,0.028354,0.08071,0.0016468,-0.067263,-0.030786,0.060577
2.0084e+05,1.7445e+08,0,-0.061235,-0.10807,-0.0473,0.03694,0.028354,0.08071,0.0016468,-0.067263,-0.030786,0.060577
2.0089e+05,1.7446e+08,0,-0.061235,-0.10807,-0.0473,0.03694,0.028354,0.08071,0.0016468,-0.067263,-0.030786,0.060577
2.0093e+05,1.7447e+08,0,-0.061235,-0.10807,-0.0473,0.03694,0.028354,0.08071,0.0016468,-0.067263,-0.030786,0.060577
2.0098e+05,1.7448e+08,0,-0.061235,-0.10807,-0.0473,0.03694,0.028354,0.08071,0.0016468,-0.067263,-0.030786,0.060577
2.0103e+05,1.7449e+08,0,-0.061235,-0.10807,-0.0473,0.03694,0.028354,0.08071,0.0016468,-0.067263,-0.030786,0.060577
2.0108e+05,1.745e+08,0,-0.061235,-0.10807,-0.0473,0.03694,0.028354,0.08071,0.0016468,-0.067263,-0.030786,0.060577
2.0112e+05,1.7451e+08,0,-0.061235,-0.10807,-0.0473,0.03694,0.028354,0.08071,0.0016468,-0.067263,-0.030786,0.060577
2.0117e+05,1.7452e+08,0,-0.061235,-0.10807,-0.0473,0.03694,0.028354,0.08071,0.0016468,-0.067263,-0.030786,0.060577
2.0121e+05,1.7453e+08,0,-0.061235,-0.10807,-0.0473,0.03694,0.028354,0.08071,0.0016468,-0.067263,-0.030786,0.060577
2.0126e+05,1.7454e+08,0,-0.061235,-0.10807,-0.0473,0.03694,0.028354,0.08071,0.0016468,-0.067263,-0.030786,0.060577
