LineNo,TimeUS,DesRoll,Roll,DesPitch,Pitch,DesYaw,Yaw,ErrRP,ErrYaw,AEKF
295,4.908e+07,0,1.66,0,-1.56,16.44,16.42,0,0.01,3
522,4.9126e+07,0,1.66,0,-1.56,16.45,16.42,0,0.01,3
863,4.9188e+07,0,1.66,0,-1.56,16.45,16.43,0,0.01,3
983,4.9217e+07,0,1.66,0,-1.56,16.45,16.43,0,0.01,3
1200,4.9329e+07,0,1.66,0,-1.56,16.45,16.43,0,0.01,3
1393,4.9425e+07,0,1.66,0,-1.56,16.46,16.44,0,0.01,3
1613,4.9451e+07,0,1.66,0,-1.56,16.46,16.44,0,0.01,3
1654,4.9461e+07,0,1.66,0,-1.56,16.46,16.44,0,0.01,3
1677,4.9482e+07,0,1.66,0,-1.57,16.46,16.44,0,0.01,3
1721,4.9493e+07,0,1.66,0,-1.57,16.46,16.44,0,0.01,3
1762,4.9503e+07,0,1.66,0,-1.57,16.46,16.44,0,0.01,3
1803,4.9513e+07,0,1.65,0,-1.57,16.46,16.44,0,0.01,3
1844,4.9523e+07,0,1.65,0,-1.57,16.46,16.44,0,0.01,3
1885,4.9533e+07,0,1.65,0,-1.57,16.46,16.44,0,0.01,3
1926,4.9543e+07,0,1.66,0,-1.57,16.46,16.43,0,0.01,3
1966,4.9554e+07,0,1.66,0,-1.57,16.45,16.43,0,0.01,3
2007,4.9563e+07,0,1.66,0,-1.57,16.45,16.43,0,0.01,3
2049,4.9573e+07,0,1.66,0,-1.57,16.45,16.43,0,0.01,3
2091,4.9583e+07,0,1.66,0,-1.57,16.45,16.43,0,0.01,3
2136,4.9594e+07,0,1.66,0,-1.57,16.45,16.42,0,0.01,3
2176,4.9604e+07,0,1.66,0,-1.57,16.45,16.42,0,0.01,3
2218,4.9614e+07,0,1.66,0,-1.57,16.44,16.42,0,0.01,3
2258,4.9627e+07,0,1.66,0,-1.57,16.44,16.42,0,0.01,3
2299,4.9637e+07,0,1.66,0,-1.57,16.44,16.42,0,0.01,3
2341,4.9648e+07,0,1.66,0,-1.56,16.43,16.41,0,0.01,3
2381,4.9657e+07,0,1.65,0,-1.56,16.43,16.41,0,0.01,3
2422,4.9668e+07,0,1.65,0,-1.56,16.43,16.41,0,0.01,3
2462,4.9678e+07,0,1.65,0,-1.56,16.42,16.4,0,0.01,3
2508,4.9688e+07,0,1.65,0,-1.57,16.42,16.4,0,0.01,3
2549,4.9699e+07,0,1.65,0,-1.57,16.41,16.39,0,0.02,3
2589,4.9709e+07,0,1.66,0,-1.57,16.41,16.39,0,0.02,3
2631,4.9719e+07,0,1.66,0,-1.57,16.41,16.39,0,0.02,3
2671,4.9729e+07,0,1.66,0,-1.57,16.41,16.39,0,0.02,3
2709,4.9739e+07,0,1.66,0,-1.57,16.4,16.38,0,0.02,3
2749,4.9749e+07,0,1.66,0,-1.57,16.4,16.38,0,0.02,3
2790,4.9759e+07,0,1.66,0,-1.57,16.39,16.37,0,0.02,3
2832,4.9769e+07,0,1.66,0,-1.57,16.39,16.37,0,0.02,3
2872,4.9779e+07,0,1.66,0,-1.57,16.39,16.37,0,0.02,3
2919,4.979e+07,0,1.66,0,-1.57,16.38,16.36,0,0.02,3
2960,4.98e+07,0,1.66,0,-1.57,16.38,16.36,0,0.01,3
3006,4.981e+07,0,1.65,0,-1.57,16.38,16.36,0,0.01,3
3047,4.982e+07,0,1.65,0,-1.57,16.37,16.35,0,0.01,3
3088,4.983e+07,0,1.65,0,-1.57,16.37,16.35,0,0.01,3
3125,4.9841e+07,0,1.65,0,-1.57,16.37,16.35,0,0.01,3
3166,4.9851e+07,0,1.65,0,-1.57,16.36,16.34,0,0.01,3
3208,4.9861e+07,0,1.65,0,-1.57,16.36,16.34,0,0.01,3
3249,4.9871e+07,0,1.65,0,-1.57,16.36,16.34,0,0.01,3
3290,4.9881e+07,0,1.65,0,-1.57,16.36,16.34,0,0.01,3
3338,4.9892e+07,0,1.66,0,-1.57,16.35,16.33,0,0.01,3
3378,4.9903e+07,0,1.66,0,-1.57,16.35,16.33,0,0.01,3
3419,4.9913e+07,0,1.66,0,-1.57,16.35,16.33,0,0.01,3
3459,4.9923e+07,0,1.66,0,-1.57,16.35,16.33,0,0.01,3
3500,4.9932e+07,0,1.66,0,-1.57,16.35,16.33,0,0.01,3
3542,4.9943e+07,0,1.66,0,-1.57,16.35,16.33,0,0.01,3
3582,4.9953e+07,0,1.65,0,-1.57,16.35,16.33,0,0.01,3
3623,4.9963e+07,0,1.65,0,-1.57,16.35,16.33,0,0.01,3
3664,4.9973e+07,0,1.65,0,-1.57,16.35,16.33,0,0.01,3
3706,4.9983e+07,0,1.65,0,-1.57,16.35,16.33,0,0.01,3
3753,4.9994e+07,0,1.65,0,-1.57,16.35,16.33,0,0.01,3
3793,5.0003e+07,0,1.65,0,-1.57,16.35,16.33,0,0.01,3
3834,5.0014e+07,0,1.65,0,-1.57,16.35,16.33,0,0.01,3
3874,5.0023e+07,0,1.65,0,-1.57,16.35,16.33,0,0.01,3
3915,5.0033e+07,0,1.65,0,-1.57,16.35,16.33,0,0.01,3
3955,5.0046e+07,0,1.65,0,-1.57,16.35,16.33,0,0.01,3
3996,5.0057e+07,0,1.65,0,-1.57,16.35,16.33,0,0.01,3
4037,5.0067e+07,0,1.65,0,-1.57,16.35,16.33,0,0.01,3
4078,5.0077e+07,0,1.65,0,-1.57,16.35,16.33,0,0.01,3
4120,5.0087e+07,0,1.65,0,-1.57,16.35,16.33,0,0.01,3
4166,5.0097e+07,0,1.65,0,-1.57,16.35,16.33,0,0.01,3
4207,5.0108e+07,0,1.65,0,-1.57,16.35,16.33,0,0.01,3
4248,5.0118e+07,0,1.65,0,-1.57,16.35,16.33,0,0.01,3
4288,5.0128e+07,0,1.65,0,-1.57,16.35,16.33,0,0.01,3
4330,5.0138e+07,0,1.64,0,-1.57,16.35,16.33,0,0.01,3
4367,5.0148e+07,0,1.64,0,-1.57,16.35,16.33,0,0.01,3
4408,5.0158e+07,0,1.64,0,-1.57,16.35,16.33,0,0.01,3
4448,5.0169e+07,0,1.64,0,-1.57,16.34,16.33,0,0.01,3
4489,5.0178e+07,0,1.64,0,-1.57,16.34,16.32,0,0.01,3
4530,5.0188e+07,0,1.64,0,-1.57,16.34,16.32,0,0.01,3
4577,5.0198e+07,0,1.64,0,-1.57,16.34,16.32,0,0.01,3
4618,5.0208e+07,0,1.64,0,-1.57,16.34,16.32,0,0.01,3
4658,5.0218e+07,0,1.64,0,-1.57,16.34,16.32,0,0.01,3
4699,5.0228e+07,0,1.65,0,-1.57,16.34,16.32,0,0.01,3
4739,5.0241e+07,0,1.65,0,-1.57,16.34,16.32,0,0.01,3
4780,5.0251e+07,0,1.65,0,-1.57,16.34,16.32,0,0.01,3
4820,5.0261e+07,0,1.65,0,-1.57,16.34,16.32,0,0.01,3
4862,5.0271e+07,0,1.65,0,-1.57,16.34,16.32,0,0.01,3
4903,5.0282e+07,0,1.65,0,-1.57,16.34,16.32,0,0.01,3
4945,5.0292e+07,0,1.65,0,-1.57,16.34,16.32,0,0.01,3
4991,5.0303e+07,0,1.65,0,-1.57,16.34,16.32,0,0.01,3
5031,5.0313e+07,0,1.65,0,-1.57,16.34,16.32,0,0.01,3
5074,5.0323e+07,0,1.65,0,-1.57,16.34,16.32,0,0.01,3
5115,5.0336e+07,0,1.64,0,-1.57,16.34,16.32,0,0.01,3
5156,5.0346e+07,0,1.64,0,-1.57,16.34,16.32,0,0.01,3
5194,5.0356e+07,0,1.64,0,-1.57,16.34,16.32,0,0.01,3
5234,5.0366e+07,0,1.65,0,-1.57,16.34,16.32,0,0.01,3
5275,5.0376e+07,0,1.65,0,-1.57,16.34,16.32,0,0.01,3
5318,5.0386e+07,0,1.65,0,-1.57,16.34,16.32,0,0.01,3
5359,5.0397e+07,0,1.65,0,-1.57,16.34,16.32,0,0.01,3
5404,5.0407e+07,0,1.65,0,-1.56,16.34,16.32,0,0,3
5445,5.0417e+07,0,1.65,0,-1.56,16.34,16.32,0,0,3
5486,5.0427e+07,0,1.65,0,-1.56,16.33,16.31,0,0,3
5526,5.0437e+07,0,1.65,0,-1.57,16.33,16.31,0,0,3
5567,5.045e+07,0,1.65,0,-1.57,16.33,16.31,0,0,3
5605,5.046e+07,0,1.65,0,-1.57,16.33,16.31,0,0,3
5646,5.0471e+07,0,1.65,0,-1.57,16.33,16.31,0,0,3
5687,5.048e+07,0,1.64,0,-1.57,16.33,16.31,0,0,3
5727,5.049e+07,0,1.64,0,-1.57,16.33,16.31,0,0,3
5772,5.0501e+07,0,1.64,0,-1.56,16.33,16.31,0,0,3
5812,5.051e+07,0,1.64,0,-1.57,16.33,16.31,0,0,3
5855,5.0521e+07,0,1.64,0,-1.57,16.33,16.31,0,0,3
5895,5.0531e+07,0,1.64,0,-1.57,16.33,16.31,0,0,3
5933,5.0541e+07,0,1.64,0,-1.57,16.33,16.31,0,0,3
5973,5.0551e+07,0,1.64,0,-1.57,16.33,16.31,0,0,3
6010,5.0561e+07,0,1.64,0,-1.57,16.33,16.31,0,0,3
6051,5.0571e+07,0,1.64,0,-1.57,16.33,16.31,0,0,3
6097,5.0584e+07,0,1.64,0,-1.57,16.33,16.31,0,0,3
6137,5.0594e+07,0,1.64,0,-1.56,16.34,16.32,0,0,3
6185,5.0607e+07,0,1.64,0,-1.56,16.34,16.32,0,0.01,3
6225,5.0617e+07,0,1.64,0,-1.56,16.34,16.32,0,0.01,3
6266,5.0627e+07,0,1.64,0,-1.56,16.34,16.32,0,0.01,3
6307,5.0637e+07,0,1.64,0,-1.56,16.34,16.32,0,0.01,3
6346,5.065e+07,0,1.64,0,-1.56,16.34,16.32,0,0.01,3
6386,5.0659e+07,0,1.64,0,-1.56,16.34,16.32,0,0.01,3
6427,5.067e+07,0,1.64,0,-1.57,16.34,16.32,0,0.01,3
6469,5.068e+07,0,1.64,0,-1.57,16.34,16.32,0,0.01,3
6509,5.069e+07,0,1.64,0,-1.57,16.34,16.32,0,0.01,3
6550,5.0701e+07,0,1.64,0,-1.57,16.34,16.32,0,0.01,3
6595,5.071e+07,0,1.64,0,-1.57,16.34,16.32,0,0,3
6635,5.0721e+07,0,1.64,0,-1.57,16.34,16.32,0,0,3
6677,5.0731e+07,0,1.64,0,-1.57,16.34,16.32,0,0,3
6718,5.0742e+07,0,1.64,0,-1.57,16.33,16.31,0,0,3
6756,5.0751e+07,0,1.64,0,-1.57,16.34,16.32,0,0,3
6797,5.0764e+07,0,1.64,0,-1.57,16.34,16.32,0,0,3
6837,5.0775e+07,0,1.64,0,-1.57,16.33,16.31,0,0,3
6879,5.0784e+07,0,1.64,0,-1.56,16.33,16.31,0,0,3
6923,5.0794e+07,0,1.64,0,-1.57,16.33,16.31,0,0,3
6968,5.0805e+07,0,1.64,0,-1.57,16.34,16.32,0,0,3
7008,5.0815e+07,0,1.64,0,-1.56,16.34,16.32,0,0,3
7049,5.0825e+07,0,1.64,0,-1.56,16.34,16.32,0,0,3
7091,5.0835e+07,0,1.64,0,-1.56,16.34,16.32,0,0,3
7132,5.0845e+07,0,1.64,0,-1.56,16.34,16.32,0,0,3
7177,5.0858e+07,0,1.64,0,-1.56,16.34,16.32,0,0,3
7217,5.0868e+07,0,1.64,0,-1.56,16.34,16.32,0,0,3
7259,5.0879e+07,0,1.64,0,-1.56,16.34,16.32,0,0,3
7300,5.0889e+07,0,1.64,0,-1.56,16.34,16.32,0,0,3
7340,5.0899e+07,0,1.64,0,-1.56,16.34,16.32,0,0,3
7386,5.0909e+07,0,1.64,0,-1.56,16.34,16.32,0,0,3
7427,5.0919e+07,0,1.64,0,-1.56,16.34,16.32,0,0,3
7468,5.0929e+07,0,1.64,0,-1.56,16.34,16.32,0,0,3
7508,5.0939e+07,0,1.64,0,-1.56,16.34,16.33,0,0,3
7550,5.0949e+07,0,1.64,0,-1.56,16.35,16.33,0,0,3
7590,5.0959e+07,0,1.64,0,-1.56,16.35,16.33,0,0,3
7631,5.097e+07,0,1.63,0,-1.56,16.35,16.33,0,0,3
7672,5.0979e+07,0,1.63,0,-1.56,16.35,16.33,0,0,3
7714,5.099e+07,0,1.63,0,-1.56,16.35,16.33,0,0,3
7755,5.1001e+07,0,1.63,0,-1.56,16.35,16.33,0,0,3
7799,5.1011e+07,0,1.63,0,-1.56,16.35,16.33,0,0,3
7841,5.1021e+07,0,1.63,0,-1.56,16.36,16.34,0,0,3
7882,5.1031e+07,0,1.63,0,-1.56,16.36,16.34,0,0,3
7922,5.1041e+07,0,1.63,0,-1.56,16.36,16.34,0,0,3
7964,5.1054e+07,0,1.64,0,-1.56,16.36,16.34,0,0,3
8005,5.1065e+07,0,1.64,0,-1.56,16.36,16.34,0,0,3
8046,5.1074e+07,0,1.64,0,-1.56,16.36,16.34,0,0,3
8087,5.1084e+07,0,1.64,0,-1.56,16.36,16.34,0,0,3
8127,5.1094e+07,0,1.64,0,-1.56,16.36,16.34,0,0,3
8168,5.1104e+07,0,1.64,0,-1.56,16.36,16.34,0,0,3
8215,5.1115e+07,0,1.64,0,-1.56,16.36,16.34,0,0,3
8256,5.1124e+07,0,1.64,0,-1.56,16.36,16.34,0,0,3
8297,5.1134e+07,0,1.63,0,-1.56,16.36,16.34,0,0,3
8337,5.1144e+07,0,1.63,0,-1.56,16.37,16.35,0,0,3
8379,5.1157e+07,0,1.63,0,-1.56,16.37,16.35,0,0,3
8419,5.1167e+07,0,1.63,0,-1.56,16.37,16.35,0,0,3
8457,5.1177e+07,0,1.63,0,-1.56,16.37,16.35,0,0,3
8498,5.1187e+07,0,1.63,0,-1.56,16.36,16.35,0,0,3
8540,5.1198e+07,0,1.63,0,-1.56,16.36,16.34,0,0,3
8582,5.1208e+07,0,1.63,0,-1.56,16.36,16.34,0,0,3
8626,5.1219e+07,0,1.63,0,-1.56,16.36,16.34,0,0,3
8667,5.1229e+07,0,1.63,0,-1.56,16.36,16.34,0,0,3
8708,5.1239e+07,0,1.63,0,-1.56,16.36,16.34,0,0,3
8749,5.1249e+07,0,1.63,0,-1.56,16.36,16.34,0,0,3
8788,5.1261e+07,0,1.63,0,-1.56,16.36,16.34,0,0,3
8828,5.1272e+07,0,1.63,0,-1.56,16.36,16.34,0,0,3
8869,5.1283e+07,0,1.63,0,-1.56,16.36,16.34,0,0,3
8911,5.1293e+07,0,1.63,0,-1.56,16.36,16.34,0,0,3
8952,5.1302e+07,0,1.63,0,-1.56,16.36,16.34,0,0,3
8997,5.1313e+07,0,1.63,0,-1.56,16.36,16.34,0,0,3
9037,5.1323e+07,0,1.63,0,-1.56,16.36,16.34,0,0,3
9078,5.1333e+07,0,1.63,0,-1.56,16.36,16.34,0,0,3
9118,5.1343e+07,0,1.63,0,-1.56,16.36,16.34,0,0,3
9159,5.1353e+07,0,1.63,0,-1.56,16.35,16.34,0,0,3
9196,5.1363e+07,0,1.63,0,-1.56,16.35,16.33,0,0,3
9237,5.1373e+07,0,1.63,0,-1.56,16.35,16.33,0,0,3
9280,5.1384e+07,0,1.63,0,-1.56,16.35,16.33,0,0,3
9320,5.1394e+07,0,1.63,0,-1.56,16.35,16.33,0,0,3
9361,5.1404e+07,0,1.63,0,-1.56,16.35,16.33,0,0,3
9405,5.1414e+07,0,1.63,0,-1.56,16.35,16.33,0,0,3
9446,5.1424e+07,0,1.63,0,-1.56,16.35,16.33,0,0,3
9487,5.1434e+07,0,1.63,0,-1.56,16.35,16.33,0,0,3
9513,5.1456e+07,0,1.63,0,-1.56,16.35,16.33,0,0,3
9553,5.1467e+07,0,1.63,0,-1.56,16.35,16.33,0,0,3
9595,5.1477e+07,0,1.63,0,-1.56,16.35,16.33,0,0,3
9635,5.1487e+07,0,1.63,0,-1.56,16.35,16.33,0,0,3
9676,5.1497e+07,0,1.63,0,-1.56,16.35,16.33,0,0,3
9716,5.1507e+07,0,1.63,0,-1.56,16.35,16.33,0,0,3
9761,5.1518e+07,0,1.63,0,-1.56,16.35,16.33,0,0,3
9803,5.1528e+07,0,1.63,0,-1.56,16.35,16.33,0,0,3
9843,5.1538e+07,0,1.63,0,-1.56,16.35,16.33,0,0,3
9885,5.1548e+07,0,1.64,0,-1.56,16.35,16.33,0,0,3
9922,5.1558e+07,0,1.63,0,-1.56,16.35,16.33,0,0,3
9963,5.1568e+07,0,1.63,0,-1.56,16.35,16.33,0,0,3
10005,5.1578e+07,0,1.63,0,-1.56,16.35,16.33,0,0,3
10047,5.1588e+07,0,1.64,0,-1.56,16.35,16.33,0,0,3
10088,5.1599e+07,0,1.63,0,-1.56,16.35,16.33,0,0,3
10128,5.1608e+07,0,1.63,0,-1.56,16.35,16.33,0,0,3
10173,5.1619e+07,0,1.63,0,-1.56,16.35,16.33,0,0,3
10213,5.1629e+07,0,1.63,0,-1.56,16.35,16.33,0,0,3
10254,5.1639e+07,0,1.63,0,-1.56,16.35,16.33,0,0,3
10297,5.1649e+07,0,1.63,0,-1.56,16.35,16.33,0,0,3
10334,5.1659e+07,0,1.63,0,-1.56,16.35,16.33,0,0,3
10375,5.167e+07,0,1.63,0,-1.56,16.35,16.33,0,0,3
10415,5.1679e+07,0,1.63,0,-1.56,16.35,16.33,0,0,3
10457,5.1689e+07,0,1.64,0,-1.56,16.35,16.33,0,0,3
10497,5.1699e+07,0,1.64,0,-1.56,16.35,16.33,0,0,3
10538,5.1709e+07,0,1.64,0,-1.56,16.35,16.33,0,0,3
10584,5.172e+07,0,1.64,0,-1.56,16.35,16.33,0,0,3
10624,5.173e+07,0,1.64,0,-1.56,16.35,16.33,0,0,3
10665,5.174e+07,0,1.64,0,-1.56,16.35,16.33,0,0,3
10705,5.175e+07,0,1.64,0,-1.55,16.34,16.32,0,0,3
10745,5.176e+07,0,1.64,0,-1.55,16.34,16.32,0,0,3
10783,5.1771e+07,0,1.64,0,-1.55,16.34,16.32,0,0,3
10823,5.1781e+07,0,1.63,0,-1.55,16.34,16.32,0,0,3
10868,5.1792e+07,0,1.63,0,-1.55,16.34,16.32,0,0,3
10908,5.1803e+07,0,1.63,0,-1.55,16.34,16.32,0,0,3
10949,5.1813e+07,0,1.63,0,-1.55,16.34,16.32,0,0,3
10995,5.1823e+07,0,1.63,0,-1.55,16.34,16.32,0,0,3
11035,5.1833e+07,0,1.63,0,-1.56,16.34,16.32,0,0,3
11076,5.1843e+07,0,1.63,0,-1.55,16.34,16.32,0,0,3
11116,5.1853e+07,0,1.63,0,-1.55,16.34,16.32,0,0,3
11158,5.1863e+07,0,1.64,0,-1.55,16.34,16.32,0,0,3
11192,5.1873e+07,0,1.64,0,-1.55,16.34,16.32,0,0,3
11235,5.1883e+07,0,1.64,0,-1.55,16.34,16.32,0,0,3
11276,5.1894e+07,0,1.64,0,-1.55,16.34,16.32,0,0,3
11318,5.1904e+07,0,1.64,0,-1.55,16.34,16.32,0,0,3
11360,5.1914e+07,0,1.64,0,-1.55,16.34,16.32,0,0,3
11404,5.1924e+07,0,1.63,0,-1.55,16.34,16.32,0,0,3
11445,5.1934e+07,0,1.63,0,-1.55,16.33,16.31,0,0,3
11485,5.1944e+07,0,1.63,0,-1.55,16.33,16.31,0,0,3
11528,5.1954e+07,0,1.63,0,-1.55,16.34,16.32,0,0,3
11569,5.1964e+07,0,1.63,0,-1.55,16.34,16.32,0,0,3
11611,5.1977e+07,0,1.63,0,-1.55,16.34,16.32,0,0,3
11651,5.1988e+07,0,1.63,0,-1.55,16.34,16.32,0,0,3
11693,5.1998e+07,0,1.63,0,-1.55,16.34,16.32,0,0,3
11734,5.2008e+07,0,1.63,0,-1.55,16.34,16.32,0,0,3
11775,5.2018e+07,0,1.63,0,-1.54,16.34,16.32,0,0,3
11820,5.2028e+07,0,1.63,0,-1.54,16.34,16.32,0,0.01,3
11861,5.2038e+07,0,1.63,0,-1.54,16.34,16.32,0,0.01,3
11902,5.2048e+07,0,1.63,0,-1.54,16.34,16.32,0,0.01,3
11942,5.2058e+07,0,1.63,0,-1.55,16.34,16.32,0,0.01,3
11988,5.2074e+07,0,1.63,0,-1.55,16.34,16.32,0,0.01,3
12028,5.2084e+07,0,1.63,0,-1.55,16.34,16.32,0,0.01,3
12070,5.2095e+07,0,1.63,0,-1.54,16.34,16.32,0,0.01,3
12110,5.2105e+07,0,1.63,0,-1.55,16.34,16.32,0,0.01,3
12152,5.2115e+07,0,1.63,0,-1.54,16.33,16.31,0,0.01,3
12199,5.2125e+07,0,1.63,0,-1.54,16.33,16.31,0,0.01,3
12240,5.2135e+07,0,1.63,0,-1.54,16.33,16.31,0,0.01,3
12281,5.2145e+07,0,1.63,0,-1.54,16.33,16.31,0,0.01,3
12321,5.2155e+07,0,1.63,0,-1.54,16.33,16.31,0,0.01,3
12362,5.2166e+07,0,1.63,0,-1.54,16.33,16.31,0,0.01,3
12399,5.2179e+07,0,1.63,0,-1.54,16.33,16.31,0,0.01,3
12442,5.2189e+07,0,1.63,0,-1.54,16.33,16.31,0,0.01,3
12484,5.2199e+07,0,1.63,0,-1.54,16.32,16.3,0,0.01,3
12525,5.221e+07,0,1.63,0,-1.54,16.32,16.3,0,0.01,3
12566,5.222e+07,0,1.63,0,-1.54,16.32,16.3,0,0.01,3
12610,5.2231e+07,0,1.63,0,-1.54,16.32,16.3,0,0.01,3
12651,5.2241e+07,0,1.63,0,-1.54,16.32,16.3,0,0.01,3
12692,5.225e+07,0,1.63,0,-1.54,16.32,16.3,0,0.01,3
12733,5.2261e+07,0,1.63,0,-1.54,16.32,16.3,0,0.01,3
12770,5.227e+07,0,1.63,0,-1.54,16.32,16.3,0,0.01,3
12808,5.2281e+07,0,1.63,0,-1.54,16.31,16.29,0,0.01,3
12851,5.2291e+07,0,1.63,0,-1.54,16.31,16.29,0,0.01,3
12892,5.2302e+07,0,1.63,0,-1.54,16.31,16.29,0,0.01,3
12934,5.2312e+07,0,1.63,0,-1.55,16.31,16.29,0,0.01,3
12974,5.2323e+07,0,1.63,0,-1.54,16.31,16.29,0,0.01,3
13019,5.2333e+07,0,1.63,0,-1.54,16.31,16.29,0,0.01,3
13060,5.2344e+07,0,1.63,0,-1.54,16.31,16.29,0,0.01,3
13101,5.2354e+07,0,1.63,0,-1.54,16.31,16.29,0,0.01,3
13145,5.2366e+07,0,1.63,0,-1.54,16.31,16.29,0,0.01,3
13188,5.2381e+07,0,1.63,0,-1.54,16.31,16.29,0,0.01,3
13231,5.2391e+07,0,1.63,0,-1.54,16.31,16.29,0,0.01,3
13272,5.2402e+07,0,1.63,0,-1.54,16.31,16.29,0,0.01,3
13314,5.2412e+07,0,1.63,0,-1.54,16.31,16.29,0,0.01,3
13355,5.2422e+07,0,1.63,0,-1.54,16.31,16.29,0,0.01,3
13402,5.2434e+07,0,1.63,0,-1.54,16.31,16.29,0,0,3
13443,5.2445e+07,0,1.63,0,-1.54,16.31,16.29,0,0,3
13484,5.2455e+07,0,1.63,0,-1.54,16.31,16.29,0,0,3
13526,5.2465e+07,0,1.63,0,-1.54,16.31,16.29,0,0,3
13567,5.2475e+07,0,1.63,0,-1.54,16.31,16.29,0,0,3
13602,5.2486e+07,0,1.63,0,-1.54,16.31,16.29,0,0,3
13642,5.2496e+07,0,1.63,0,-1.54,16.31,16.29,0,0,3
13684,5.2506e+07,0,1.63,0,-1.54,16.31,16.29,0,0,3
13725,5.2517e+07,0,1.63,0,-1.54,16.31,16.29,0,0,3
13766,5.2527e+07,0,1.63,0,-1.54,16.31,16.29,0,0,3
13810,5.2537e+07,0,1.63,0,-1.54,16.31,16.29,0,0.01,3
13851,5.2547e+07,0,1.63,0,-1.54,16.31,16.29,0,0.01,3
13891,5.2557e+07,0,1.63,0,-1.54,16.31,16.29,0,0.01,3
13930,5.2567e+07,0,1.63,0,-1.54,16.31,16.29,0,0.01,3
13971,5.2577e+07,0,1.63,0,-1.54,16.31,16.29,0,0.01,3
14012,5.2588e+07,0,1.63,0,-1.53,16.31,16.29,0,0.01,3
14055,5.2599e+07,0,1.63,0,-1.53,16.3,16.28,0,0.01,3
14095,5.2609e+07,0,1.63,0,-1.53,16.3,16.28,0,0.01,3
14137,5.2619e+07,0,1.63,0,-1.53,16.3,16.28,0,0.01,3
14178,5.2629e+07,0,1.63,0,-1.53,16.3,16.28,0,0.01,3
14223,5.2639e+07,0,1.63,0,-1.53,16.3,16.28,0,0.01,3
14264,5.2649e+07,0,1.63,0,-1.54,16.29,16.27,0,0.01,3
14305,5.2659e+07,0,1.63,0,-1.54,16.29,16.27,0,0.01,3
14346,5.2669e+07,0,1.63,0,-1.54,16.29,16.27,0,0.01,3
14386,5.2679e+07,0,1.63,0,-1.54,16.29,16.27,0,0.01,3
14427,5.2693e+07,0,1.63,0,-1.54,16.29,16.27,0,0.01,3
14468,5.2704e+07,0,1.63,0,-1.54,16.29,16.27,0,0.01,3
14508,5.2714e+07,0,1.63,0,-1.54,16.29,16.27,0,0.01,3
14551,5.2724e+07,0,1.63,0,-1.54,16.29,16.27,0,0.01,3
14591,5.2734e+07,0,1.62,0,-1.54,16.29,16.27,0,0.01,3
14636,5.2744e+07,0,1.63,0,-1.54,16.28,16.26,0,0.01,3
14676,5.2754e+07,0,1.63,0,-1.54,16.28,16.26,0,0.01,3
14717,5.2764e+07,0,1.62,0,-1.54,16.28,16.26,0,0.01,3
14762,5.2777e+07,0,1.63,0,-1.54,16.28,16.26,0,0.01,3
14805,5.279e+07,0,1.63,0,-1.54,16.28,16.26,0,0.01,3
14847,5.28e+07,0,1.63,0,-1.54,16.28,16.26,0,0.01,3
14888,5.2811e+07,0,1.63,0,-1.53,16.28,16.26,0,0.01,3
14929,5.2821e+07,0,1.63,0,-1.53,16.29,16.27,0,0.01,3
14972,5.2832e+07,0,1.63,0,-1.53,16.29,16.27,0,0.01,3
15019,5.2845e+07,0,1.63,0,-1.53,16.29,16.27,0,0.01,3
15060,5.2855e+07,0,1.63,0,-1.53,16.29,16.27,0,0.01,3
15100,5.2865e+07,0,1.63,0,-1.53,16.29,16.27,0,0.01,3
15141,5.2875e+07,0,1.63,0,-1.53,16.29,16.27,0,0.01,3
15179,5.2885e+07,0,1.63,0,-1.53,16.29,16.27,0,0.01,3
15217,5.2896e+07,0,1.63,0,-1.53,16.29,16.27,0,0.01,3
15258,5.2906e+07,0,1.63,0,-1.53,16.29,16.27,0,0.01,3
15298,5.2916e+07,0,1.63,0,-1.53,16.29,16.27,0,0.01,3
15340,5.2926e+07,0,1.63,0,-1.53,16.29,16.27,0,0.01,3
15383,5.2936e+07,0,1.63,0,-1.53,16.29,16.27,0,0.01,3
15430,5.2946e+07,0,1.63,0,-1.53,16.29,16.27,0,0.01,3
15472,5.2956e+07,0,1.63,0,-1.53,16.29,16.27,0,0.01,3
15512,5.2966e+07,0,1.63,0,-1.53,16.29,16.27,0,0.01,3
15553,5.2976e+07,0,1.63,0,-1.53,16.29,16.27,0,0.01,3
15591,5.299e+07,0,1.63,0,-1.53,16.29,16.27,0,0.01,3
15631,5.3001e+07,0,1.63,0,-1.53,16.29,16.27,0,0.01,3
15673,5.3011e+07,0,1.63,0,-1.53,16.29,16.27,0,0.01,3
15715,5.3021e+07,0,1.63,0,-1.53,16.29,16.27,0,0.01,3
15756,5.3031e+07,0,1.63,0,-1.53,16.28,16.27,0,0.01,3
15796,5.3041e+07,0,1.63,0,-1.53,16.28,16.26,0,0.01,3
15842,5.3052e+07,0,1.63,0,-1.53,16.28,16.26,0,0.01,3
15883,5.3063e+07,0,1.63,0,-1.53,16.28,16.26,0,0.01,3
15924,5.3073e+07,0,1.63,0,-1.53,16.28,16.26,0,0.01,3
15964,5.3083e+07,0,1.63,0,-1.53,16.28,16.26,0,0.01,3
15999,5.3094e+07,0,1.63,0,-1.53,16.28,16.26,0,0.01,3
16040,5.3104e+07,0,1.63,0,-1.53,16.28,16.26,0,0.01,3
16080,5.3114e+07,0,1.63,0,-1.53,16.28,16.26,0,0.01,3
16121,5.3124e+07,0,1.63,0,-1.53,16.28,16.26,0,0.01,3
16161,5.3134e+07,0,1.63,0,-1.53,16.28,16.26,0,0.01,3
16202,5.3144e+07,0,1.63,0,-1.53,16.27,16.25,0,0.01,3
16249,5.3154e+07,0,1.63,0,-1.53,16.27,16.25,0,0.01,3
16291,5.3164e+07,0,1.63,0,-1.53,16.27,16.25,0,0.01,3
16332,5.3174e+07,0,1.63,0,-1.52,16.28,16.26,0,0.01,3
16372,5.3184e+07,0,1.63,0,-1.52,16.27,16.25,0,0.01,3
16415,5.3197e+07,0,1.63,0,-1.52,16.27,16.25,0,0.01,3
16455,5.3208e+07,0,1.63,0,-1.52,16.27,16.25,0,0.01,3
16496,5.3218e+07,0,1.63,0,-1.52,16.27,16.25,0,0.01,3
16538,5.3228e+07,0,1.63,0,-1.52,16.27,16.25,0,0.01,3
16578,5.3238e+07,0,1.63,0,-1.52,16.27,16.25,0,0.01,3
16619,5.3248e+07,0,1.63,0,-1.52,16.27,16.25,0,0.01,3
16664,5.3258e+07,0,1.63,0,-1.52,16.28,16.26,0,0.01,3
16705,5.3268e+07,0,1.63,0,-1.52,16.28,16.26,0,0.01,3
16749,5.3279e+07,0,1.63,0,-1.52,16.28,16.26,0,0.01,3
16789,5.3292e+07,0,1.63,0,-1.52,16.28,16.26,0,0.01,3
16830,5.3303e+07,0,1.63,0,-1.52,16.28,16.26,0,0.01,3
16871,5.3314e+07,0,1.63,0,-1.52,16.28,16.26,0,0.01,3
16911,5.3324e+07,0,1.63,0,-1.52,16.28,16.26,0,0.01,3
16952,5.3334e+07,0,1.63,0,-1.52,16.28,16.26,0,0.01,3
16992,5.3344e+07,0,1.63,0,-1.52,16.29,16.27,0,0.01,3
17041,5.3356e+07,0,1.63,0,-1.52,16.29,16.27,0,0.01,3
17083,5.3367e+07,0,1.63,0,-1.52,16.29,16.27,0,0.01,3
17125,5.3377e+07,0,1.62,0,-1.52,16.29,16.27,0,0.01,3
17166,5.3389e+07,0,1.63,0,-1.52,16.29,16.27,0,0.01,3
17210,5.3402e+07,0,1.63,0,-1.52,16.29,16.27,0,0.01,3
17251,5.3412e+07,0,1.63,0,-1.52,16.29,16.28,0,0.01,3
17292,5.3423e+07,0,1.63,0,-1.52,16.3,16.28,0,0.01,3
17333,5.3433e+07,0,1.63,0,-1.52,16.3,16.28,0,0.01,3
17373,5.3443e+07,0,1.63,0,-1.52,16.3,16.28,0,0.01,3
17414,5.3453e+07,0,1.63,0,-1.52,16.3,16.28,0,0.01,3
17459,5.3463e+07,0,1.63,0,-1.52,16.3,16.28,0,0.01,3
17500,5.3474e+07,0,1.63,0,-1.52,16.3,16.28,0,0.01,3
17541,5.3483e+07,0,1.63,0,-1.52,16.3,16.28,0,0.01,3
17578,5.3494e+07,0,1.63,0,-1.52,16.3,16.28,0,0.01,3
17616,5.3505e+07,0,1.63,0,-1.52,16.3,16.28,0,0.01,3
17657,5.3515e+07,0,1.63,0,-1.52,16.29,16.27,0,0.01,3
17697,5.3525e+07,0,1.62,0,-1.52,16.29,16.27,0,0.01,3
17737,5.3536e+07,0,1.63,0,-1.52,16.29,16.27,0,0.01,3
17777,5.3545e+07,0,1.63,0,-1.52,16.29,16.27,0,0.01,3
17818,5.3556e+07,0,1.63,0,-1.52,16.29,16.27,0,0.01,3
17863,5.3565e+07,0,1.63,0,-1.52,16.29,16.27,0,0.01,3
17904,5.3576e+07,0,1.63,0,-1.52,16.29,16.27,0,0.01,3
17948,5.3586e+07,0,1.63,0,-1.52,16.29,16.27,0,0.01,3
17988,5.3596e+07,0,1.63,0,-1.52,16.29,16.27,0,0.01,3
18026,5.3608e+07,0,1.63,0,-1.52,16.29,16.27,0,0.01,3
18067,5.3619e+07,0,1.63,0,-1.52,16.29,16.27,0,0.01,3
18107,5.3629e+07,0,1.63,0,-1.52,16.28,16.26,0,0.01,3
18148,5.364e+07,0,1.63,0,-1.52,16.28,16.26,0,0.01,3
18189,5.365e+07,0,1.63,0,-1.52,16.28,16.26,0,0.01,3
18234,5.366e+07,0,1.63,0,-1.52,16.28,16.26,0,0.01,3
18275,5.367e+07,0,1.63,0,-1.52,16.28,16.26,0,0.01,3
18317,5.3681e+07,0,1.63,0,-1.52,16.28,16.26,0,0.01,3
18358,5.3691e+07,0,1.63,0,-1.52,16.28,16.26,0,0.01,3
18398,5.3703e+07,0,1.63,0,-1.52,16.28,16.26,0,0.01,3
18439,5.3714e+07,0,1.63,0,-1.52,16.28,16.26,0,0.01,3
18476,5.3724e+07,0,1.63,0,-1.52,16.28,16.26,0,0.01,3
18517,5.3735e+07,0,1.63,0,-1.52,16.28,16.26,0,0.01,3
18558,5.3745e+07,0,1.63,0,-1.52,16.28,16.26,0,0.01,3
18599,5.3755e+07,0,1.63,0,-1.52,16.27,16.25,0,0.01,3
18644,5.3765e+07,0,1.63,0,-1.52,16.28,16.26,0,0.01,3
18686,5.3775e+07,0,1.63,0,-1.52,16.28,16.26,0,0.01,3
18729,5.3786e+07,0,1.63,0,-1.52,16.27,16.26,0,0.01,3
18767,5.3796e+07,0,1.63,0,-1.52,16.27,16.25,0,0.01,3
18811,5.3808e+07,0,1.63,0,-1.52,16.27,16.25,0,0.01,3
18849,5.3818e+07,0,1.63,0,-1.52,16.27,16.25,0,0.01,3
18890,5.3829e+07,0,1.63,0,-1.52,16.27,16.25,0,0.01,3
18931,5.3839e+07,0,1.63,0,-1.52,16.27,16.25,0,0.01,3
18971,5.3849e+07,0,1.63,0,-1.52,16.27,16.25,0,0.01,3
19012,5.3859e+07,0,1.63,0,-1.52,16.27,16.26,0,0.01,3
19058,5.3869e+07,0,1.63,0,-1.52,16.28,16.26,0,0,3
19098,5.3879e+07,0,1.63,0,-1.52,16.28,16.26,0,0,3
19139,5.389e+07,0,1.63,0,-1.52,16.28,16.26,0,0,3
19183,5.3902e+07,0,1.63,0,-1.52,16.28,16.26,0,0,3
19221,5.3913e+07,0,1.63,0,-1.52,16.28,16.26,0,0,3
19262,5.3923e+07,0,1.63,0,-1.52,16.28,16.26,0,0,3
19303,5.3933e+07,0,1.63,0,-1.52,16.28,16.26,0,0,3
19345,5.3944e+07,0,1.63,0,-1.52,16.28,16.26,0,0,3
19386,5.3954e+07,0,1.63,0,-1.52,16.28,16.26,0,0,3
19428,5.3964e+07,0,1.63,0,-1.52,16.28,16.26,0,0,3
19472,5.3974e+07,0,1.63,0,-1.52,16.28,16.26,0,0,3
19513,5.3984e+07,0,1.63,0,-1.52,16.28,16.26,0,0,3
19558,5.3994e+07,0,1.63,0,-1.52,16.29,16.27,0,0,3
19598,5.4004e+07,0,1.63,0,-1.52,16.29,16.27,0,0,3
19637,5.4014e+07,0,1.63,0,-1.52,16.29,16.27,0,0,3
19677,5.4027e+07,0,1.63,0,-1.52,16.29,16.27,0,0,3
19719,5.4037e+07,0,1.63,0,-1.52,16.29,16.27,0,0,3
19760,5.4047e+07,0,1.63,0,-1.52,16.29,16.27,0,0,3
19800,5.4057e+07,0,1.63,0,-1.52,16.29,16.27,0,0,3
19845,5.4068e+07,0,1.63,0,-1.52,16.29,16.27,0,0,3
19888,5.4081e+07,0,1.63,0,-1.52,16.29,16.27,0,0,3
19930,5.4092e+07,0,1.63,0,-1.52,16.29,16.27,0,0,3
19970,5.4102e+07,0,1.63,0,-1.51,16.29,16.27,0,0,3
20010,5.4112e+07,0,1.63,0,-1.51,16.29,16.27,0,0,3
20051,5.4122e+07,0,1.63,0,-1.52,16.29,16.27,0,0,3
20094,5.4135e+07,0,1.63,0,-1.52,16.29,16.27,0,0,3
20136,5.4145e+07,0,1.63,0,-1.52,16.29,16.27,0,0,3
20177,5.4156e+07,0,1.63,0,-1.52,16.29,16.27,0,0,3
20218,5.4166e+07,0,1.63,0,-1.52,16.29,16.27,0,0,3
20267,5.4176e+07,0,1.63,0,-1.52,16.29,16.27,0,0.01,3
20307,5.4186e+07,0,1.63,0,-1.52,16.29,16.27,0,0.01,3
20348,5.4196e+07,0,1.63,0,-1.51,16.29,16.27,0,0.01,3
20388,5.4207e+07,0,1.63,0,-1.51,16.29,16.27,0,0.01,3
20430,5.4217e+07,0,1.63,0,-1.51,16.29,16.27,0,0.01,3
20468,5.4227e+07,0,1.63,0,-1.51,16.29,16.27,0,0.01,3
20508,5.4237e+07,0,1.63,0,-1.52,16.29,16.27,0,0.01,3
20550,5.4247e+07,0,1.63,0,-1.52,16.29,16.27,0,0.01,3
20590,5.426e+07,0,1.63,0,-1.52,16.29,16.27,0,0.01,3
20633,5.4271e+07,0,1.63,0,-1.52,16.29,16.27,0,0.01,3
20678,5.4281e+07,0,1.63,0,-1.52,16.29,16.27,0,0.01,3
20719,5.429e+07,0,1.63,0,-1.52,16.29,16.27,0,0.01,3
20760,5.4301e+07,0,1.63,0,-1.51,16.28,16.26,0,0.01,3
20800,5.4311e+07,0,1.63,0,-1.51,16.28,16.26,0,0.01,3
20838,5.4324e+07,0,1.63,0,-1.51,16.28,16.26,0,0.01,3
20878,5.4334e+07,0,1.63,0,-1.51,16.28,16.26,0,0.01,3
20919,5.4344e+07,0,1.63,0,-1.51,16.28,16.26,0,0.01,3
20962,5.4354e+07,0,1.63,0,-1.51,16.28,16.26,0,0.01,3
21002,5.4365e+07,0,1.63,0,-1.52,16.28,16.26,0,0.01,3
21047,5.4375e+07,0,1.63,0,-1.52,16.28,16.26,0,0.01,3
21089,5.4386e+07,0,1.63,0,-1.52,16.27,16.26,0,0.01,3
21130,5.4396e+07,0,1.63,0,-1.52,16.27,16.25,0,0.01,3
21172,5.4406e+07,0,1.63,0,-1.52,16.27,16.25,0,0.01,3
21212,5.4422e+07,0,1.63,0,-1.51,16.27,16.25,0,0.01,3
21256,5.4435e+07,0,1.63,0,-1.51,16.27,16.25,0,0.01,3
21297,5.4445e+07,0,1.63,0,-1.51,16.27,16.25,0,0.01,3
21338,5.4455e+07,0,1.63,0,-1.51,16.27,16.25,0,0.01,3
21380,5.4465e+07,0,1.63,0,-1.51,16.27,16.25,0,0.01,3
21420,5.4475e+07,0,1.63,0,-1.51,16.27,16.25,0,0.01,3
21465,5.4486e+07,0,1.63,0,-1.51,16.26,16.25,0,0.01,3
21506,5.4495e+07,0,1.63,0,-1.51,16.26,16.24,0,0.01,3
21546,5.4506e+07,0,1.63,0,-1.51,16.26,16.24,0,0.01,3
21587,5.4519e+07,0,1.63,0,-1.51,16.26,16.24,0,0.01,3
21625,5.453e+07,0,1.63,0,-1.51,16.26,16.24,0,0.01,3
21666,5.454e+07,0,1.63,0,-1.51,16.26,16.24,0,0.01,3
21707,5.455e+07,0,1.63,0,-1.51,16.26,16.24,0,0.01,3
21748,5.456e+07,0,1.63,0,-1.51,16.26,16.24,0,0.01,3
21789,5.457e+07,0,1.63,0,-1.51,16.26,16.24,0,0.01,3
21836,5.4582e+07,0,1.63,0,-1.51,16.26,16.24,0,0.01,3
21879,5.4592e+07,0,1.63,0,-1.52,16.26,16.24,0,0.01,3
21921,5.4603e+07,0,1.63,0,-1.52,16.26,16.24,0,0.01,3
21961,5.4613e+07,0,1.63,0,-1.52,16.26,16.24,0,0.01,3
22003,5.4623e+07,0,1.63,0,-1.51,16.26,16.24,0,0.01,3
22044,5.4633e+07,0,1.63,0,-1.51,16.26,16.24,0,0.01,3
22081,5.4644e+07,0,1.63,0,-1.51,16.26,16.24,0,0.01,3
22122,5.4654e+07,0,1.63,0,-1.51,16.26,16.24,0,0.01,3
22163,5.4664e+07,0,1.63,0,-1.51,16.26,16.24,0,0.01,3
22205,5.4674e+07,0,1.63,0,-1.51,16.26,16.24,0,0.01,3
22249,5.4684e+07,0,1.63,0,-1.51,16.26,16.24,0,0.01,3
22290,5.4695e+07,0,1.63,0,-1.51,16.26,16.24,0,0.01,3
22331,5.4705e+07,0,1.63,0,-1.51,16.25,16.23,0,0.01,3
22371,5.4715e+07,0,1.63,0,-1.51,16.25,16.23,0,0.01,3
22409,5.4728e+07,0,1.63,0,-1.51,16.25,16.23,0,0.01,3
22449,5.4739e+07,0,1.64,0,-1.51,16.25,16.23,0,0.01,3
22491,5.4748e+07,0,1.64,0,-1.51,16.25,16.23,0,0.01,3
22531,5.4758e+07,0,1.64,0,-1.51,16.25,16.23,0,0.01,3
22574,5.4768e+07,0,1.64,0,-1.51,16.25,16.23,0,0.01,3
22618,5.4779e+07,0,1.64,0,-1.51,16.25,16.23,0,0.01,3
22662,5.4788e+07,0,1.63,0,-1.51,16.24,16.22,0,0.01,3
22704,5.4798e+07,0,1.63,0,-1.51,16.24,16.22,0,0.01,3
22745,5.4809e+07,0,1.63,0,-1.51,16.24,16.22,0,0.01,3
22785,5.4819e+07,0,1.63,0,-1.51,16.24,16.22,0,0.01,3
22826,5.4829e+07,0,1.63,0,-1.51,16.24,16.22,0,0.01,3
22863,5.4839e+07,0,1.63,0,-1.51,16.24,16.22,0,0.01,3
22905,5.4849e+07,0,1.63,0,-1.51,16.24,16.22,0,0.01,3
22945,5.4859e+07,0,1.63,0,-1.51,16.24,16.22,0,0.01,3
22986,5.487e+07,0,1.63,0,-1.51,16.24,16.22,0,0.01,3
23028,5.488e+07,0,1.63,0,-1.51,16.24,16.22,0,0.01,3
23072,5.4891e+07,0,1.63,0,-1.51,16.24,16.22,0,0,3
23113,5.49e+07,0,1.63,0,-1.51,16.24,16.22,0,0,3
23154,5.491e+07,0,1.63,0,-1.51,16.24,16.22,0,0,3
23196,5.4921e+07,0,1.63,0,-1.51,16.24,16.22,0,0,3
23237,5.4934e+07,0,1.64,0,-1.51,16.24,16.22,0,0,3
23278,5.4944e+07,0,1.64,0,-1.51,16.24,16.22,0,0,3
23319,5.4955e+07,0,1.63,0,-1.51,16.24,16.22,0,0,3
23360,5.4965e+07,0,1.63,0,-1.51,16.24,16.22,0,0,3
23402,5.4975e+07,0,1.63,0,-1.51,16.24,16.22,0,0,3
23442,5.4985e+07,0,1.63,0,-1.51,16.23,16.21,0,0,3
23487,5.4995e+07,0,1.63,0,-1.51,16.23,16.21,0,0,3
23530,5.5005e+07,0,1.63,0,-1.51,16.23,16.21,0,0,3
23572,5.5015e+07,0,1.63,0,-1.51,16.23,16.21,0,0,3
23613,5.5025e+07,0,1.63,0,-1.51,16.23,16.21,0,0,3
23650,5.5036e+07,0,1.63,0,-1.51,16.23,16.21,0,0,3
23692,5.5046e+07,0,1.64,0,-1.51,16.23,16.21,0,0,3
23732,5.5056e+07,0,1.64,0,-1.51,16.23,16.21,0,0,3
23773,5.5066e+07,0,1.64,0,-1.51,16.23,16.21,0,0,3
23814,5.5076e+07,0,1.64,0,-1.51,16.23,16.21,0,0,3
23854,5.5086e+07,0,1.64,0,-1.51,16.23,16.21,0,0,3
23900,5.5096e+07,0,1.64,0,-1.51,16.23,16.21,0,0,3
23940,5.5106e+07,0,1.64,0,-1.51,16.23,16.21,0,0,3
23981,5.5116e+07,0,1.64,0,-1.51,16.23,16.21,0,0,3
24022,5.5126e+07,0,1.64,0,-1.51,16.23,16.21,0,0,3
24067,5.5142e+07,0,1.64,0,-1.51,16.23,16.21,0,0,3
24107,5.5153e+07,0,1.64,0,-1.51,16.23,16.21,0,0,3
24148,5.5163e+07,0,1.64,0,-1.51,16.23,16.21,0,0,3
24188,5.5173e+07,0,1.64,0,-1.51,16.23,16.21,0,0,3
24230,5.5184e+07,0,1.64,0,-1.51,16.23,16.21,0,0,3
24277,5.5194e+07,0,1.64,0,-1.51,16.23,16.21,0,0.01,3
24318,5.5204e+07,0,1.64,0,-1.51,16.23,16.21,0,0.01,3
24359,5.5214e+07,0,1.64,0,-1.51,16.23,16.21,0,0.01,3
24399,5.5223e+07,0,1.64,0,-1.51,16.23,16.21,0,0.01,3
24441,5.5237e+07,0,1.64,0,-1.51,16.23,16.21,0,0.01,3
24482,5.5247e+07,0,1.64,0,-1.51,16.23,16.21,0,0.01,3
24523,5.5258e+07,0,1.64,0,-1.51,16.23,16.21,0,0.01,3
24566,5.5268e+07,0,1.64,0,-1.51,16.22,16.2,0,0.01,3
24606,5.5278e+07,0,1.64,0,-1.51,16.22,16.2,0,0.01,3
24647,5.5288e+07,0,1.64,0,-1.51,16.22,16.2,0,0.01,3
24692,5.5299e+07,0,1.64,0,-1.51,16.22,16.2,0,0.01,3
24734,5.5309e+07,0,1.64,0,-1.51,16.22,16.2,0,0.01,3
24776,5.5319e+07,0,1.64,0,-1.51,16.22,16.2,0,0.01,3
24820,5.5332e+07,0,1.64,0,-1.51,16.21,16.19,0,0.01,3
24868,5.5347e+07,0,1.64,0,-1.51,16.21,16.19,0,0.01,3
24911,5.536e+07,0,1.64,0,-1.51,16.21,16.19,0,0.01,3
24952,5.537e+07,0,1.64,0,-1.51,16.21,16.19,0,0.01,3
24993,5.538e+07,0,1.64,0,-1.51,16.21,16.19,0,0.01,3
25036,5.539e+07,0,1.64,0,-1.51,16.2,16.18,0,0.01,3
25080,5.54e+07,0,1.64,0,-1.51,16.2,16.18,0,0,3
25121,5.5411e+07,0,1.64,0,-1.51,16.2,16.18,0,0,3
25162,5.5421e+07,0,1.64,0,-1.51,16.2,16.18,0,0,3
25204,5.5431e+07,0,1.64,0,-1.51,16.2,16.18,0,0,3
25244,5.5445e+07,0,1.64,0,-1.51,16.2,16.18,0,0,3
25284,5.5455e+07,0,1.64,0,-1.51,16.2,16.18,0,0,3
25321,5.5465e+07,0,1.64,0,-1.51,16.2,16.18,0,0,3
25361,5.5475e+07,0,1.64,0,-1.51,16.2,16.18,0,0,3
25402,5.5485e+07,0,1.64,0,-1.51,16.19,16.17,0,0,3
25444,5.5495e+07,0,1.64,0,-1.51,16.19,16.17,0,0,3
25488,5.5505e+07,0,1.64,0,-1.51,16.19,16.17,0,0.01,3
25529,5.5516e+07,0,1.64,0,-1.51,16.19,16.17,0,0.01,3
25569,5.5526e+07,0,1.64,0,-1.51,16.19,16.17,0,0.01,3
25611,5.5536e+07,0,1.64,0,-1.51,16.2,16.18,0,0.01,3
25649,5.5549e+07,0,1.64,0,-1.51,16.19,16.17,0,0.01,3
25690,5.5559e+07,0,1.64,0,-1.51,16.19,16.17,0,0.01,3
25731,5.557e+07,0,1.64,0,-1.5,16.19,16.17,0,0.01,3
25771,5.558e+07,0,1.64,0,-1.51,16.19,16.17,0,0.01,3
25817,5.5592e+07,0,1.64,0,-1.5,16.19,16.17,0,0.01,3
25862,5.5603e+07,0,1.64,0,-1.51,16.19,16.17,0,0.01,3
25903,5.5613e+07,0,1.64,0,-1.51,16.18,16.16,0,0.01,3
25944,5.5623e+07,0,1.64,0,-1.51,16.18,16.16,0,0.01,3
25984,5.5633e+07,0,1.64,0,-1.51,16.18,16.16,0,0.01,3
26023,5.5644e+07,0,1.63,0,-1.51,16.18,16.16,0,0.01,3
26061,5.5654e+07,0,1.63,0,-1.51,16.18,16.16,0,0.01,3
26102,5.5665e+07,0,1.63,0,-1.51,16.17,16.15,0,0.01,3
26143,5.5675e+07,0,1.63,0,-1.51,16.17,16.15,0,0.01,3
26183,5.5685e+07,0,1.63,0,-1.51,16.17,16.15,0,0.01,3
26224,5.5695e+07,0,1.63,0,-1.51,16.17,16.15,0,0.01,3
26269,5.5705e+07,0,1.63,0,-1.51,16.17,16.15,0,0.01,3
26310,5.5716e+07,0,1.63,0,-1.51,16.17,16.15,0,0.01,3
26351,5.5726e+07,0,1.64,0,-1.51,16.17,16.15,0,0.01,3
26391,5.5736e+07,0,1.64,0,-1.51,16.17,16.15,0,0.01,3
26430,5.5746e+07,0,1.64,0,-1.51,16.16,16.14,0,0.01,3
26471,5.5756e+07,0,1.64,0,-1.51,16.16,16.14,0,0.01,3
26514,5.577e+07,0,1.64,0,-1.51,16.16,16.14,0,0.01,3
26555,5.578e+07,0,1.64,0,-1.5,16.16,16.14,0,0.01,3
26595,5.579e+07,0,1.64,0,-1.51,16.16,16.14,0,0.01,3
26638,5.58e+07,0,1.63,0,-1.51,16.16,16.14,0,0.01,3
26683,5.581e+07,0,1.63,0,-1.51,16.16,16.14,0,0.01,3
26725,5.5821e+07,0,1.63,0,-1.51,16.16,16.14,0,0.01,3
26765,5.5831e+07,0,1.63,0,-1.51,16.16,16.14,0,0.01,3
26806,5.5841e+07,0,1.63,0,-1.51,16.15,16.13,0,0.01,3
26847,5.5851e+07,0,1.63,0,-1.51,16.15,16.13,0,0.01,3
26887,5.5861e+07,0,1.63,0,-1.51,16.15,16.13,0,0.01,3
26925,5.5871e+07,0,1.63,0,-1.51,16.15,16.13,0,0.01,3
26966,5.5881e+07,0,1.63,0,-1.51,16.15,16.13,0,0.01,3
27006,5.5891e+07,0,1.63,0,-1.51,16.16,16.14,0,0.01,3
27047,5.5901e+07,0,1.63,0,-1.51,16.16,16.14,0,0.01,3
27091,5.5911e+07,0,1.63,0,-1.51,16.16,16.14,0,0.01,3
27132,5.5922e+07,0,1.63,0,-1.51,16.16,16.14,0,0.01,3
27173,5.5932e+07,0,1.63,0,-1.51,16.16,16.14,0,0.01,3
27215,5.5942e+07,0,1.63,0,-1.51,16.16,16.14,0,0.01,3
27252,5.5952e+07,0,1.63,0,-1.51,16.16,16.14,0,0.01,3
27294,5.5965e+07,0,1.63,0,-1.51,16.16,16.14,0,0.01,3
27335,5.5975e+07,0,1.63,0,-1.51,16.16,16.14,0,0.01,3
27379,5.5986e+07,0,1.63,0,-1.51,16.16,16.14,0,0.01,3
27420,5.5996e+07,0,1.63,0,-1.51,16.16,16.14,0,0.01,3
27460,5.6006e+07,0,1.63,0,-1.51,16.16,16.14,0,0.01,3
27505,5.6015e+07,0,1.63,0,-1.51,16.16,16.14,0,0.01,3
27546,5.6026e+07,0,1.63,0,-1.51,16.17,16.15,0,0.01,3
27587,5.6035e+07,0,1.63,0,-1.51,16.17,16.15,0,0.01,3
27628,5.6048e+07,0,1.63,0,-1.51,16.17,16.15,0,0.01,3
27668,5.6059e+07,0,1.63,0,-1.51,16.17,16.15,0,0.01,3
27709,5.6069e+07,0,1.63,0,-1.51,16.17,16.15,0,0.01,3
27750,5.6079e+07,0,1.63,0,-1.51,16.17,16.15,0,0.01,3
27791,5.6089e+07,0,1.63,0,-1.51,16.17,16.16,0,0.01,3
27833,5.6099e+07,0,1.63,0,-1.51,16.18,16.16,0,0.01,3
27878,5.6109e+07,0,1.63,0,-1.51,16.18,16.16,0,0.01,3
27919,5.612e+07,0,1.63,0,-1.51,16.18,16.16,0,0.01,3
27959,5.613e+07,0,1.63,0,-1.51,16.18,16.16,0,0.01,3
28000,5.614e+07,0,1.63,0,-1.51,16.18,16.16,0,0.01,3
28038,5.615e+07,0,1.63,0,-1.51,16.18,16.16,0,0.01,3
28076,5.616e+07,0,1.63,0,-1.51,16.18,16.16,0,0.01,3
28116,5.617e+07,0,1.63,0,-1.51,16.18,16.16,0,0.01,3
28162,5.6183e+07,0,1.63,0,-1.51,16.18,16.16,0,0.01,3
28203,5.6194e+07,0,1.63,0,-1.51,16.18,16.16,0,0.01,3
28244,5.6204e+07,0,1.63,0,-1.51,16.18,16.16,0,0.01,3
28291,5.6214e+07,0,1.64,0,-1.51,16.18,16.16,0,0.01,3
28332,5.6224e+07,0,1.64,0,-1.51,16.18,16.16,0,0.01,3
28373,5.6234e+07,0,1.64,0,-1.51,16.18,16.16,0,0.01,3
28414,5.6244e+07,0,1.64,0,-1.51,16.18,16.16,0,0.01,3
28451,5.6257e+07,0,1.64,0,-1.51,16.18,16.16,0,0.01,3
28494,5.6267e+07,0,1.64,0,-1.51,16.18,16.16,0,0.01,3
28535,5.6277e+07,0,1.64,0,-1.51,16.18,16.16,0,0.01,3
28575,5.6288e+07,0,1.64,0,-1.51,16.18,16.16,0,0.01,3
28617,5.6297e+07,0,1.64,0,-1.51,16.18,16.16,0,0.01,3
28657,5.6308e+07,0,1.64,0,-1.51,16.17,16.15,0,0.01,3
28703,5.6318e+07,0,1.64,0,-1.51,16.17,16.15,0,0.01,3
28743,5.6329e+07,0,1.64,0,-1.51,16.17,16.15,0,0.01,3
28784,5.6338e+07,0,1.64,0,-1.51,16.17,16.15,0,0.01,3
28825,5.6349e+07,0,1.64,0,-1.51,16.17,16.15,0,0.01,3
28863,5.6361e+07,0,1.64,0,-1.51,16.17,16.15,0,0.01,3
28904,5.6372e+07,0,1.64,0,-1.51,16.17,16.15,0,0.01,3
28944,5.6383e+07,0,1.64,0,-1.51,16.16,16.14,0,0.01,3
28988,5.6393e+07,0,1.64,0,-1.51,16.16,16.14,0,0.01,3
29028,5.6404e+07,0,1.64,0,-1.51,16.16,16.14,0,0.01,3
29069,5.6414e+07,0,1.63,0,-1.51,16.15,16.14,0,0.01,3
29115,5.6424e+07,0,1.63,0,-1.51,16.15,16.13,0,0.01,3
29155,5.6434e+07,0,1.63,0,-1.51,16.15,16.13,0,0.01,3
29196,5.6444e+07,0,1.63,0,-1.51,16.15,16.13,0,0.01,3
29236,5.6454e+07,0,1.63,0,-1.51,16.15,16.13,0,0.01,3
29271,5.6465e+07,0,1.63,0,-1.51,16.14,16.13,0,0.01,3
29312,5.6475e+07,0,1.63,0,-1.51,16.14,16.12,0,0.01,3
29352,5.6485e+07,0,1.63,0,-1.51,16.14,16.12,0,0.01,3
29394,5.6495e+07,0,1.63,0,-1.51,16.14,16.12,0,0.01,3
29435,5.6505e+07,0,1.63,0,-1.51,16.14,16.12,0,0.01,3
29476,5.6515e+07,0,1.63,0,-1.51,16.14,16.12,0,0.01,3
29521,5.6525e+07,0,1.64,0,-1.51,16.13,16.11,0,0.01,3
29561,5.6535e+07,0,1.64,0,-1.51,16.13,16.11,0,0.01,3
29603,5.6545e+07,0,1.64,0,-1.51,16.13,16.11,0,0.01,3
29643,5.6555e+07,0,1.64,0,-1.51,16.13,16.11,0,0.01,3
29681,5.6566e+07,0,1.64,0,-1.51,16.13,16.11,0,0.01,3
29725,5.6578e+07,0,1.63,0,-1.51,16.13,16.11,0,0.01,3
29768,5.659e+07,0,1.63,0,-1.51,16.13,16.11,0,0.01,3
29809,5.6601e+07,0,1.63,0,-1.51,16.13,16.11,0,0.01,3
29850,5.6611e+07,0,1.63,0,-1.51,16.13,16.11,0,0.01,3
29895,5.6621e+07,0,1.63,0,-1.51,16.12,16.1,0,0.01,3
29935,5.6632e+07,0,1.63,0,-1.51,16.12,16.1,0,0.01,3
29976,5.6642e+07,0,1.63,0,-1.51,16.12,16.1,0,0.01,3
30016,5.6653e+07,0,1.63,0,-1.51,16.12,16.1,0,0.01,3
30058,5.6663e+07,0,1.64,0,-1.51,16.12,16.1,0,0.01,3
30093,5.6674e+07,0,1.64,0,-1.51,16.12,16.1,0,0.01,3
30134,5.6684e+07,0,1.64,0,-1.51,16.12,16.1,0,0.01,3
30174,5.6694e+07,0,1.64,0,-1.51,16.12,16.1,0,0.01,3
30215,5.6704e+07,0,1.64,0,-1.51,16.12,16.1,0,0.01,3
30257,5.6714e+07,0,1.64,0,-1.51,16.12,16.1,0,0.01,3
30302,5.6724e+07,0,1.64,0,-1.51,16.12,16.1,0,0.01,3
30342,5.6735e+07,0,1.64,0,-1.51,16.12,16.1,0,0.01,3
30383,5.6745e+07,0,1.64,0,-1.51,16.12,16.1,0,0.01,3
30424,5.6755e+07,0,1.64,0,-1.51,16.12,16.1,0,0.01,3
30463,5.6765e+07,0,1.64,0,-1.51,16.12,16.1,0,0.01,3
30502,5.6776e+07,0,1.64,0,-1.51,16.12,16.1,0,0.01,3
30544,5.6786e+07,0,1.64,0,-1.51,16.12,16.1,0,0.01,3
30584,5.6796e+07,0,1.64,0,-1.51,16.12,16.1,0,0.01,3
30625,5.6807e+07,0,1.64,0,-1.51,16.12,16.1,0,0.01,3
30666,5.6816e+07,0,1.64,0,-1.51,16.12,16.1,0,0.01,3
30711,5.6826e+07,0,1.64,0,-1.51,16.12,16.1,0,0.01,3
30752,5.6836e+07,0,1.64,0,-1.51,16.12,16.1,0,0.01,3
30792,5.6846e+07,0,1.64,0,-1.51,16.12,16.1,0,0.01,3
30834,5.6857e+07,0,1.64,0,-1.51,16.12,16.1,0,0.01,3
30871,5.6867e+07,0,1.64,0,-1.51,16.12,16.1,0,0.01,3
30912,5.6878e+07,0,1.64,0,-1.51,16.12,16.1,0,0.01,3
30950,5.6888e+07,0,1.64,0,-1.51,16.12,16.1,0,0.01,3
30990,5.6898e+07,0,1.64,0,-1.51,16.12,16.1,0,0.01,3
31032,5.6908e+07,0,1.64,0,-1.51,16.12,16.1,0,0.01,3
31072,5.6918e+07,0,1.64,0,-1.51,16.11,16.09,0,0.01,3
31118,5.6929e+07,0,1.64,0,-1.51,16.11,16.09,0,0.01,3
31159,5.6939e+07,0,1.64,0,-1.51,16.11,16.09,0,0.01,3
31200,5.6949e+07,0,1.64,0,-1.51,16.11,16.09,0,0.01,3
31242,5.6959e+07,0,1.64,0,-1.51,16.11,16.09,0,0.01,3
31281,5.6969e+07,0,1.64,0,-1.51,16.11,16.09,0,0.01,3
31321,5.698e+07,0,1.64,0,-1.51,16.11,16.09,0,0.01,3
31361,5.699e+07,0,1.64,0,-1.51,16.11,16.09,0,0.01,3
31402,5.7e+07,0,1.64,0,-1.51,16.11,16.09,0,0.01,3
31443,5.701e+07,0,1.64,0,-1.51,16.11,16.09,0,0.01,3
31483,5.702e+07,0,1.64,0,-1.51,16.11,16.09,0,0.01,3
31530,5.703e+07,0,1.64,0,-1.51,16.11,16.09,0,0.01,3
31570,5.704e+07,0,1.64,0,-1.51,16.1,16.08,0,0.01,3
31611,5.705e+07,0,1.64,0,-1.51,16.1,16.08,0,0.01,3
31652,5.706e+07,0,1.64,0,-1.52,16.1,16.08,0,0.01,3
31690,5.7071e+07,0,1.64,0,-1.52,16.1,16.08,0,0.01,3
31731,5.7081e+07,0,1.64,0,-1.52,16.1,16.08,0,0.01,3
31771,5.7091e+07,0,1.64,0,-1.52,16.1,16.08,0,0.01,3
31811,5.7102e+07,0,1.64,0,-1.52,16.1,16.08,0,0.01,3
31852,5.7112e+07,0,1.64,0,-1.52,16.1,16.08,0,0.01,3
31893,5.7122e+07,0,1.64,0,-1.52,16.1,16.08,0,0.01,3
31938,5.7132e+07,0,1.64,0,-1.52,16.1,16.08,0,0,3
31983,5.7144e+07,0,1.64,0,-1.52,16.1,16.08,0,0,3
32024,5.7155e+07,0,1.64,0,-1.52,16.1,16.08,0,0,3
32064,5.7165e+07,0,1.64,0,-1.52,16.1,16.08,0,0,3
32108,5.718e+07,0,1.64,0,-1.52,16.1,16.08,0,0,3
32151,5.7191e+07,0,1.64,0,-1.52,16.1,16.08,0,0,3
32192,5.7201e+07,0,1.64,0,-1.51,16.1,16.08,0,0,3
32233,5.7212e+07,0,1.64,0,-1.51,16.1,16.08,0,0,3
32273,5.7222e+07,0,1.64,0,-1.51,16.1,16.08,0,0,3
32324,5.7234e+07,0,1.64,0,-1.51,16.1,16.08,0,0.01,3
32366,5.7245e+07,0,1.64,0,-1.51,16.1,16.08,0,0.01,3
32407,5.7255e+07,0,1.64,0,-1.51,16.1,16.08,0,0.01,3
32450,5.7265e+07,0,1.64,0,-1.52,16.1,16.08,0,0.01,3
32487,5.7275e+07,0,1.64,0,-1.52,16.1,16.08,0,0.01,3
32524,5.7285e+07,0,1.64,0,-1.52,16.1,16.08,0,0.01,3
32565,5.7295e+07,0,1.64,0,-1.52,16.1,16.08,0,0.01,3
32605,5.7306e+07,0,1.64,0,-1.51,16.1,16.08,0,0.01,3
32646,5.7315e+07,0,1.64,0,-1.51,16.1,16.08,0,0.01,3
32686,5.7325e+07,0,1.64,0,-1.51,16.1,16.08,0,0.01,3
32732,5.7335e+07,0,1.64,0,-1.51,16.1,16.08,0,0,3
32772,5.7346e+07,0,1.64,0,-1.51,16.1,16.08,0,0,3
32814,5.7356e+07,0,1.64,0,-1.51,16.1,16.08,0,0,3
32854,5.7365e+07,0,1.64,0,-1.51,16.1,16.08,0,0,3
32892,5.7375e+07,0,1.64,0,-1.51,16.09,16.07,0,0,3
32931,5.7386e+07,0,1.64,0,-1.52,16.09,16.07,0,0,3
32971,5.7396e+07,0,1.64,0,-1.52,16.09,16.07,0,0,3
33012,5.7407e+07,0,1.64,0,-1.52,16.09,16.07,0,0,3
33052,5.7417e+07,0,1.64,0,-1.51,16.09,16.07,0,0,3
33093,5.7428e+07,0,1.64,0,-1.52,16.09,16.07,0,0,3
33140,5.7438e+07,0,1.64,0,-1.51,16.09,16.07,0,0,3
33180,5.7448e+07,0,1.64,0,-1.51,16.09,16.07,0,0,3
33221,5.7458e+07,0,1.64,0,-1.51,16.09,16.07,0,0,3
33267,5.7473e+07,0,1.64,0,-1.51,16.09,16.07,0,0,3
33305,5.7484e+07,0,1.64,0,-1.51,16.09,16.07,0,0,3
33347,5.7494e+07,0,1.64,0,-1.51,16.09,16.07,0,0,3
33387,5.7504e+07,0,1.64,0,-1.51,16.09,16.07,0,0,3
33428,5.7514e+07,0,1.64,0,-1.51,16.09,16.07,0,0,3
33468,5.7524e+07,0,1.64,0,-1.51,16.09,16.07,0,0,3
33510,5.7534e+07,0,1.64,0,-1.51,16.09,16.07,0,0,3
33554,5.7544e+07,0,1.64,0,-1.52,16.09,16.07,0,0,3
33596,5.7555e+07,0,1.64,0,-1.52,16.09,16.07,0,0,3
33637,5.7565e+07,0,1.65,0,-1.52,16.09,16.07,0,0,3
33677,5.7575e+07,0,1.65,0,-1.52,16.09,16.07,0,0,3
33719,5.7588e+07,0,1.65,0,-1.52,16.09,16.07,0,0,3
33761,5.7598e+07,0,1.65,0,-1.52,16.09,16.07,0,0,3
33802,5.7609e+07,0,1.64,0,-1.52,16.09,16.07,0,0,3
33843,5.7619e+07,0,1.64,0,-1.52,16.09,16.07,0,0,3
33883,5.7629e+07,0,1.64,0,-1.52,16.09,16.07,0,0,3
33931,5.7641e+07,0,1.64,0,-1.52,16.09,16.07,0,0,3
33973,5.7652e+07,0,1.64,0,-1.52,16.09,16.07,0,0,3
34014,5.7662e+07,0,1.64,0,-1.52,16.09,16.07,0,0,3
34055,5.7673e+07,0,1.64,0,-1.52,16.09,16.07,0,0,3
34095,5.7683e+07,0,1.64,0,-1.52,16.09,16.07,0,0,3
34136,5.7696e+07,0,1.64,0,-1.52,16.09,16.07,0,0,3
34178,5.7706e+07,0,1.64,0,-1.52,16.09,16.07,0,0,3
34218,5.7717e+07,0,1.64,0,-1.52,16.09,16.07,0,0,3
34259,5.7727e+07,0,1.64,0,-1.52,16.09,16.07,0,0,3
34299,5.7737e+07,0,1.64,0,-1.52,16.09,16.07,0,0,3
34346,5.7747e+07,0,1.64,0,-1.52,16.09,16.07,0,0,3
34388,5.7758e+07,0,1.64,0,-1.52,16.08,16.06,0,0,3
34429,5.7768e+07,0,1.64,0,-1.52,16.08,16.06,0,0,3
34471,5.7778e+07,0,1.64,0,-1.52,16.08,16.06,0,0,3
34509,5.7789e+07,0,1.64,0,-1.52,16.08,16.06,0,0,3
34550,5.7799e+07,0,1.64,0,-1.52,16.08,16.06,0,0,3
34590,5.7809e+07,0,1.64,0,-1.52,16.08,16.06,0,0,3
34632,5.782e+07,0,1.64,0,-1.51,16.08,16.06,0,0,3
34672,5.783e+07,0,1.64,0,-1.51,16.08,16.06,0,0,3
34713,5.784e+07,0,1.64,0,-1.51,16.08,16.06,0,0,3
34758,5.7851e+07,0,1.64,0,-1.51,16.08,16.06,0,0,3
34799,5.7861e+07,0,1.64,0,-1.52,16.08,16.06,0,0,3
34841,5.7872e+07,0,1.64,0,-1.52,16.08,16.06,0,0,3
34881,5.7882e+07,0,1.64,0,-1.52,16.08,16.06,0,0,3
34923,5.7892e+07,0,1.64,0,-1.52,16.08,16.06,0,0,3
34960,5.7903e+07,0,1.64,0,-1.52,16.08,16.06,0,0,3
35001,5.7914e+07,0,1.64,0,-1.52,16.08,16.06,0,0,3
35042,5.7924e+07,0,1.64,0,-1.52,16.08,16.06,0,0,3
35083,5.7934e+07,0,1.64,0,-1.52,16.08,16.06,0,0,3
35126,5.7944e+07,0,1.64,0,-1.52,16.08,16.06,0,0,3
35170,5.7954e+07,0,1.64,0,-1.52,16.08,16.06,0,0,3
35213,5.7965e+07,0,1.64,0,-1.52,16.08,16.06,0,0,3
35255,5.7975e+07,0,1.64,0,-1.52,16.08,16.06,0,0,3
35298,5.7985e+07,0,1.64,0,-1.52,16.08,16.06,0,0,3
35335,5.7998e+07,0,1.64,0,-1.52,16.08,16.06,0,0,3
35376,5.8008e+07,0,1.64,0,-1.52,16.08,16.06,0,0,3
35417,5.8018e+07,0,1.64,0,-1.52,16.08,16.06,0,0,3
35458,5.8029e+07,0,1.64,0,-1.52,16.07,16.05,0,0,3
35498,5.8039e+07,0,1.64,0,-1.52,16.07,16.05,0,0,3
35540,5.805e+07,0,1.64,0,-1.52,16.07,16.05,0,0,3
35584,5.806e+07,0,1.64,0,-1.52,16.07,16.05,0,0,3
35626,5.8069e+07,0,1.64,0,-1.52,16.07,16.05,0,0,3
35666,5.808e+07,0,1.64,0,-1.52,16.07,16.05,0,0,3
35704,5.8092e+07,0,1.64,0,-1.52,16.07,16.05,0,0,3
35745,5.8103e+07,0,1.64,0,-1.52,16.07,16.05,0,0,3
35786,5.8113e+07,0,1.64,0,-1.52,16.07,16.05,0,0,3
35827,5.8124e+07,0,1.64,0,-1.52,16.07,16.05,0,0,3
35867,5.8134e+07,0,1.64,0,-1.52,16.07,16.05,0,0,3
35908,5.8144e+07,0,1.64,0,-1.52,16.07,16.05,0,0,3
35952,5.8154e+07,0,1.64,0,-1.52,16.06,16.04,0,0,3
35995,5.8164e+07,0,1.64,0,-1.52,16.06,16.04,0,0,3
36039,5.8175e+07,0,1.64,0,-1.52,16.06,16.04,0,0,3
36079,5.8185e+07,0,1.64,0,-1.52,16.06,16.04,0,0,3
36120,5.8198e+07,0,1.64,0,-1.52,16.06,16.04,0,0,3
36160,5.8208e+07,0,1.64,0,-1.52,16.06,16.04,0,0,3
36201,5.8219e+07,0,1.64,0,-1.52,16.06,16.04,0,0,3
36241,5.8228e+07,0,1.64,0,-1.52,16.06,16.04,0,0,3
36282,5.8239e+07,0,1.64,0,-1.52,16.06,16.04,0,0,3
36325,5.8249e+07,0,1.64,0,-1.52,16.06,16.04,0,0,3
36372,5.826e+07,0,1.64,0,-1.52,16.06,16.04,0,0,3
36413,5.827e+07,0,1.64,0,-1.52,16.06,16.04,0,0,3
36454,5.8281e+07,0,1.64,0,-1.52,16.06,16.04,0,0,3
36495,5.8291e+07,0,1.64,0,-1.52,16.06,16.04,0,0,3
36535,5.8301e+07,0,1.64,0,-1.52,16.06,16.04,0,0,3
36577,5.8312e+07,0,1.64,0,-1.52,16.06,16.04,0,0,3
36617,5.8322e+07,0,1.64,0,-1.52,16.06,16.04,0,0,3
36658,5.8332e+07,0,1.64,0,-1.52,16.06,16.05,0,0,3
36699,5.8343e+07,0,1.64,0,-1.52,16.07,16.05,0,0,3
36739,5.8353e+07,0,1.64,0,-1.52,16.07,16.05,0,0,3
36785,5.8363e+07,0,1.64,0,-1.52,16.07,16.05,0,0.01,3
36825,5.8373e+07,0,1.64,0,-1.52,16.07,16.05,0,0.01,3
36872,5.8386e+07,0,1.64,0,-1.52,16.07,16.05,0,0.01,3
36913,5.8396e+07,0,1.64,0,-1.52,16.07,16.05,0,0.01,3
36951,5.8406e+07,0,1.64,0,-1.53,16.07,16.05,0,0.01,3
36988,5.8416e+07,0,1.64,0,-1.53,16.07,16.05,0,0.01,3
37029,5.8426e+07,0,1.64,0,-1.53,16.07,16.05,0,0.01,3
37070,5.8437e+07,0,1.64,0,-1.53,16.07,16.05,0,0.01,3
37111,5.8447e+07,0,1.64,0,-1.53,16.07,16.05,0,0.01,3
37151,5.8458e+07,0,1.64,0,-1.53,16.07,16.05,0,0.01,3
37196,5.8468e+07,0,1.64,0,-1.53,16.07,16.05,0,0.01,3
37236,5.8478e+07,0,1.64,0,-1.53,16.07,16.05,0,0.01,3
37279,5.8488e+07,0,1.64,0,-1.53,16.07,16.05,0,0.01,3
37323,5.85e+07,0,1.64,0,-1.53,16.07,16.05,0,0.01,3
37360,5.8511e+07,0,1.64,0,-1.53,16.07,16.05,0,0.01,3
37401,5.8521e+07,0,1.64,0,-1.53,16.07,16.05,0,0.01,3
37442,5.8532e+07,0,1.64,0,-1.53,16.07,16.05,0,0.01,3
37483,5.8542e+07,0,1.64,0,-1.53,16.07,16.05,0,0.01,3
37523,5.8552e+07,0,1.64,0,-1.53,16.07,16.05,0,0.01,3
37564,5.8562e+07,0,1.64,0,-1.53,16.07,16.05,0,0.01,3
37609,5.8573e+07,0,1.64,0,-1.53,16.07,16.05,0,0,3
37649,5.8583e+07,0,1.64,0,-1.53,16.07,16.05,0,0,3
37693,5.8593e+07,0,1.64,0,-1.53,16.07,16.05,0,0,3
37734,5.8606e+07,0,1.64,0,-1.53,16.07,16.05,0,0,3
37772,5.8616e+07,0,1.64,0,-1.53,16.07,16.05,0,0,3
37813,5.8627e+07,0,1.64,0,-1.53,16.07,16.05,0,0,3
37853,5.8637e+07,0,1.64,0,-1.53,16.07,16.05,0,0,3
37894,5.8647e+07,0,1.64,0,-1.53,16.07,16.05,0,0,3
37935,5.8658e+07,0,1.64,0,-1.53,16.07,16.05,0,0,3
37980,5.8668e+07,0,1.64,0,-1.53,16.07,16.05,0,0,3
38020,5.8678e+07,0,1.64,0,-1.53,16.07,16.05,0,0.01,3
38064,5.869e+07,0,1.64,0,-1.53,16.07,16.05,0,0.01,3
38106,5.8701e+07,0,1.64,0,-1.53,16.07,16.05,0,0.01,3
38149,5.8714e+07,0,1.64,0,-1.53,16.07,16.05,0,0.01,3
38191,5.8724e+07,0,1.64,0,-1.53,16.07,16.05,0,0.01,3
38232,5.8735e+07,0,1.64,0,-1.53,16.07,16.05,0,0.01,3
38274,5.8745e+07,0,1.64,0,-1.53,16.07,16.05,0,0.01,3
38315,5.8755e+07,0,1.64,0,-1.53,16.07,16.05,0,0.01,3
38355,5.8765e+07,0,1.64,0,-1.53,16.07,16.05,0,0.01,3
38402,5.8776e+07,0,1.64,0,-1.53,16.07,16.05,0,0.01,3
38442,5.8786e+07,0,1.64,0,-1.53,16.07,16.05,0,0.01,3
38484,5.8796e+07,0,1.64,0,-1.53,16.07,16.05,0,0.01,3
38532,5.8812e+07,0,1.64,0,-1.53,16.07,16.05,0,0.01,3
38573,5.8823e+07,0,1.64,0,-1.53,16.08,16.06,0,0.01,3
38614,5.8833e+07,0,1.64,0,-1.53,16.08,16.06,0,0.01,3
38655,5.8843e+07,0,1.64,0,-1.53,16.08,16.06,0,0.01,3
38695,5.8853e+07,0,1.64,0,-1.53,16.08,16.06,0,0.01,3
38736,5.8864e+07,0,1.64,0,-1.53,16.08,16.06,0,0.01,3
38780,5.8874e+07,0,1.64,0,-1.53,16.08,16.06,0,0.01,3
38821,5.8884e+07,0,1.64,0,-1.53,16.09,16.07,0,0.01,3
38862,5.8894e+07,0,1.64,0,-1.53,16.09,16.07,0,0.01,3
38903,5.8904e+07,0,1.64,0,-1.53,16.09,16.07,0,0.01,3
38945,5.8915e+07,0,1.64,0,-1.53,16.09,16.07,0,0.01,3
38985,5.8926e+07,0,1.64,0,-1.53,16.09,16.07,0,0.01,3
39026,5.8937e+07,0,1.64,0,-1.53,16.09,16.07,0,0.01,3
39067,5.8947e+07,0,1.64,0,-1.53,16.09,16.07,0,0.01,3
39108,5.8957e+07,0,1.64,0,-1.53,16.09,16.07,0,0.01,3
39149,5.8968e+07,0,1.64,0,-1.53,16.09,16.07,0,0.01,3
39195,5.8978e+07,0,1.64,0,-1.53,16.09,16.07,0,0.01,3
39236,5.8989e+07,0,1.64,0,-1.53,16.09,16.07,0,0.01,3
39276,5.8999e+07,0,1.64,0,-1.53,16.09,16.07,0,0.01,3
39320,5.9009e+07,0,1.64,0,-1.53,16.09,16.07,0,0.01,3
39361,5.9019e+07,0,1.64,0,-1.53,16.09,16.07,0,0.01,3
39401,5.9029e+07,0,1.64,0,-1.53,16.09,16.07,0,0.01,3
39442,5.904e+07,0,1.64,0,-1.53,16.1,16.08,0,0.01,3
39482,5.9051e+07,0,1.64,0,-1.53,16.1,16.08,0,0.01,3
39523,5.9061e+07,0,1.64,0,-1.53,16.1,16.08,0,0.01,3
39563,5.9071e+07,0,1.64,0,-1.53,16.1,16.08,0,0.01,3
39609,5.9081e+07,0,1.64,0,-1.53,16.1,16.08,0,0.01,3
39649,5.9091e+07,0,1.65,0,-1.53,16.1,16.08,0,0.01,3
39690,5.9101e+07,0,1.65,0,-1.53,16.1,16.08,0,0.01,3
39731,5.9112e+07,0,1.65,0,-1.53,16.1,16.08,0,0.01,3
39776,5.9128e+07,0,1.64,0,-1.53,16.1,16.08,0,0.01,3
39817,5.9138e+07,0,1.64,0,-1.53,16.1,16.08,0,0.01,3
39858,5.9148e+07,0,1.64,0,-1.53,16.1,16.08,0,0.01,3
39898,5.9158e+07,0,1.64,0,-1.53,16.1,16.08,0,0.01,3
39939,5.9169e+07,0,1.65,0,-1.53,16.1,16.08,0,0.01,3
39981,5.9179e+07,0,1.65,0,-1.53,16.11,16.09,0,0.01,3
40027,5.9189e+07,0,1.65,0,-1.53,16.11,16.09,0,0.01,3
40068,5.9199e+07,0,1.65,0,-1.53,16.11,16.09,0,0.01,3
40109,5.921e+07,0,1.65,0,-1.53,16.11,16.09,0,0.01,3
40149,5.922e+07,0,1.65,0,-1.53,16.11,16.09,0,0.01,3
40191,5.9231e+07,0,1.65,0,-1.53,16.11,16.09,0,0.01,3
40233,5.9241e+07,0,1.65,0,-1.53,16.11,16.09,0,0.01,3
40275,5.9251e+07,0,1.65,0,-1.53,16.11,16.09,0,0.01,3
40316,5.9262e+07,0,1.65,0,-1.53,16.1,16.08,0,0.01,3
40356,5.9272e+07,0,1.65,0,-1.53,16.1,16.08,0,0.01,3
40397,5.9282e+07,0,1.65,0,-1.53,16.1,16.08,0,0.01,3
40443,5.9292e+07,0,1.65,0,-1.53,16.1,16.08,0,0.01,3
40485,5.9303e+07,0,1.65,0,-1.53,16.1,16.08,0,0.01,3
40526,5.9313e+07,0,1.64,0,-1.53,16.1,16.08,0,0.01,3
40567,5.9323e+07,0,1.64,0,-1.53,16.1,16.08,0,0.01,3
40605,5.9334e+07,0,1.64,0,-1.53,16.1,16.08,0,0.01,3
40648,5.9347e+07,0,1.64,0,-1.53,16.1,16.08,0,0.01,3
40690,5.9357e+07,0,1.65,0,-1.53,16.1,16.08,0,0.01,3
40731,5.9367e+07,0,1.65,0,-1.53,16.1,16.08,0,0.01,3
40773,5.9378e+07,0,1.65,0,-1.54,16.1,16.08,0,0.01,3
40814,5.9388e+07,0,1.65,0,-1.54,16.09,16.07,0,0.01,3
40858,5.9398e+07,0,1.65,0,-1.54,16.09,16.07,0,0.01,3
40900,5.9409e+07,0,1.65,0,-1.54,16.09,16.07,0,0.01,3
40940,5.9419e+07,0,1.65,0,-1.53,16.09,16.07,0,0.01,3
40982,5.9429e+07,0,1.65,0,-1.54,16.09,16.07,0,0.01,3
41023,5.944e+07,0,1.65,0,-1.53,16.09,16.07,0,0.01,3
41064,5.945e+07,0,1.65,0,-1.53,16.09,16.07,0,0.01,3
41105,5.946e+07,0,1.65,0,-1.54,16.09,16.07,0,0.01,3
41145,5.9471e+07,0,1.65,0,-1.53,16.09,16.07,0,0.01,3
41186,5.9481e+07,0,1.65,0,-1.54,16.09,16.07,0,0.01,3
41226,5.9491e+07,0,1.65,0,-1.53,16.09,16.07,0,0.01,3
41271,5.9502e+07,0,1.65,0,-1.53,16.09,16.07,0,0.01,3
41313,5.9512e+07,0,1.65,0,-1.53,16.08,16.06,0,0.01,3
41354,5.9522e+07,0,1.65,0,-1.53,16.08,16.06,0,0.01,3
41395,5.9532e+07,0,1.65,0,-1.53,16.08,16.06,0,0.01,3
41432,5.9543e+07,0,1.65,0,-1.53,16.08,16.06,0,0.01,3
41473,5.9554e+07,0,1.65,0,-1.53,16.08,16.06,0,0.01,3
41513,5.9564e+07,0,1.65,0,-1.53,16.08,16.06,0,0.01,3
41554,5.9574e+07,0,1.65,0,-1.53,16.08,16.06,0,0.01,3
41598,5.9584e+07,0,1.65,0,-1.54,16.08,16.06,0,0.01,3
41638,5.9594e+07,0,1.65,0,-1.53,16.08,16.06,0,0.01,3
41683,5.9604e+07,0,1.65,0,-1.53,16.08,16.06,0,0.01,3
41723,5.9615e+07,0,1.65,0,-1.53,16.07,16.05,0,0.01,3
41766,5.9625e+07,0,1.65,0,-1.53,16.07,16.05,0,0.01,3
41806,5.9635e+07,0,1.64,0,-1.53,16.07,16.05,0,0.01,3
41844,5.9645e+07,0,1.64,0,-1.53,16.07,16.05,0,0.01,3
41884,5.9655e+07,0,1.64,0,-1.53,16.07,16.05,0,0.01,3
41925,5.9665e+07,0,1.64,0,-1.53,16.07,16.05,0,0.01,3
41966,5.9675e+07,0,1.65,0,-1.53,16.07,16.05,0,0.01,3
42007,5.9685e+07,0,1.65,0,-1.53,16.07,16.05,0,0.01,3
42048,5.9695e+07,0,1.65,0,-1.53,16.07,16.05,0,0.01,3
42093,5.9705e+07,0,1.65,0,-1.53,16.07,16.05,0,0.01,3
42134,5.9715e+07,0,1.65,0,-1.53,16.07,16.05,0,0.01,3
42175,5.9726e+07,0,1.65,0,-1.53,16.07,16.05,0,0.01,3
42217,5.9736e+07,0,1.65,0,-1.53,16.07,16.05,0,0.01,3
42253,5.9746e+07,0,1.65,0,-1.53,16.07,16.05,0,0.01,3
42294,5.9757e+07,0,1.65,0,-1.53,16.07,16.05,0,0.01,3
42334,5.9767e+07,0,1.65,0,-1.53,16.07,16.05,0,0.01,3
42375,5.9778e+07,0,1.65,0,-1.53,16.07,16.05,0,0.01,3
42418,5.9788e+07,0,1.65,0,-1.53,16.06,16.04,0,0.01,3
42459,5.9798e+07,0,1.64,0,-1.53,16.06,16.04,0,0.01,3
42504,5.9809e+07,0,1.64,0,-1.53,16.06,16.04,0,0.01,3
42544,5.9819e+07,0,1.64,0,-1.53,16.06,16.04,0,0.01,3
42586,5.9829e+07,0,1.64,0,-1.54,16.06,16.04,0,0.01,3
42629,5.9842e+07,0,1.65,0,-1.54,16.06,16.04,0,0.01,3
42671,5.9853e+07,0,1.65,0,-1.53,16.06,16.04,0,0.01,3
42714,5.9865e+07,0,1.65,0,-1.53,16.06,16.04,0,0.01,3
42755,5.9876e+07,0,1.65,0,-1.53,16.06,16.04,0,0.01,3
42796,5.9886e+07,0,1.65,0,-1.53,16.06,16.04,0,0.01,3
42837,5.9896e+07,0,1.65,0,-1.53,16.06,16.04,0,0.01,3
42882,5.9906e+07,0,1.65,0,-1.53,16.06,16.04,0,0.01,3
42922,5.9916e+07,0,1.65,0,-1.53,16.06,16.04,0,0.01,3
42963,5.9926e+07,0,1.65,0,-1.53,16.06,16.04,0,0.01,3
43003,5.9936e+07,0,1.65,0,-1.53,16.06,16.04,0,0.01,3
43048,5.9949e+07,0,1.65,0,-1.53,16.05,16.03,0,0.01,3
43089,5.9962e+07,0,1.65,0,-1.53,16.05,16.03,0,0.01,3
43134,5.9973e+07,0,1.65,0,-1.53,16.05,16.03,0,0.01,3
43176,5.9983e+07,0,1.65,0,-1.53,16.05,16.03,0,0.01,3
43217,5.9993e+07,0,1.65,0,-1.53,16.05,16.03,0,0.01,3
43257,6.0003e+07,0,1.65,0,-1.53,16.05,16.03,0,0.01,3
43301,6.0013e+07,0,1.65,0,-1.54,16.05,16.03,0,0.01,3
43343,6.0023e+07,0,1.65,0,-1.54,16.05,16.03,0,0.01,3
43383,6.0033e+07,0,1.65,0,-1.54,16.05,16.03,0,0.01,3
43424,6.0044e+07,0,1.65,0,-1.54,16.05,16.03,0,0.01,3
43461,6.0054e+07,0,1.65,0,-1.54,16.05,16.03,0,0.01,3
43505,6.0066e+07,0,1.66,0,-1.54,16.05,16.03,0,0.01,3
43547,6.0077e+07,0,1.66,0,-1.54,16.05,16.03,0,0.01,3
43588,6.0087e+07,0,1.66,0,-1.54,16.05,16.03,0,0.01,3
43628,6.0097e+07,0,1.66,0,-1.54,16.05,16.03,0,0.01,3
43672,6.0107e+07,0,1.65,0,-1.54,16.05,16.03,0,0.01,3
43713,6.0118e+07,0,1.65,0,-1.54,16.05,16.03,0,0.01,3
43754,6.0129e+07,0,1.65,0,-1.54,16.05,16.03,0,0.01,3
43795,6.0138e+07,0,1.65,0,-1.54,16.05,16.03,0,0.01,3
43835,6.0148e+07,0,1.65,0,-1.54,16.05,16.03,0,0.01,3
43869,6.0159e+07,0,1.65,0,-1.54,16.05,16.03,0,0.01,3
43910,6.0169e+07,0,1.65,0,-1.54,16.05,16.03,0,0.01,3
43954,6.018e+07,0,1.65,0,-1.54,16.05,16.03,0,0.01,3
43995,6.0191e+07,0,1.65,0,-1.54,16.05,16.03,0,0.01,3
44036,6.0201e+07,0,1.65,0,-1.54,16.05,16.03,0,0.01,3
44081,6.0212e+07,0,1.66,0,-1.54,16.06,16.04,0,0.01,3
44122,6.0223e+07,0,1.66,0,-1.54,16.06,16.04,0,0.01,3
44165,6.0233e+07,0,1.65,0,-1.54,16.06,16.04,0,0.01,3
44205,6.0244e+07,0,1.65,0,-1.54,16.06,16.04,0,0.01,3
44247,6.0254e+07,0,1.65,0,-1.54,16.06,16.04,0,0.01,3
44288,6.0264e+07,0,1.65,0,-1.54,16.06,16.04,0,0.01,3
44329,6.0275e+07,0,1.65,0,-1.54,16.06,16.04,0,0.01,3
44371,6.0284e+07,0,1.65,0,-1.54,16.06,16.04,0,0.01,3
44412,6.0294e+07,0,1.65,0,-1.54,16.06,16.04,0,0.01,3
44454,6.0305e+07,0,1.65,0,-1.54,16.06,16.04,0,0.01,3
44501,6.0316e+07,0,1.65,0,-1.54,16.06,16.04,0,0.01,3
44541,6.0326e+07,0,1.65,0,-1.54,16.06,16.04,0,0,3
44582,6.0336e+07,0,1.65,0,-1.54,16.06,16.04,0,0,3
44622,6.0346e+07,0,1.65,0,-1.54,16.06,16.04,0,0,3
44664,6.0356e+07,0,1.65,0,-1.54,16.06,16.04,0,0,3
44701,6.0367e+07,0,1.65,0,-1.54,16.06,16.04,0,0,3
44742,6.0379e+07,0,1.66,0,-1.54,16.06,16.04,0,0,3
44786,6.0389e+07,0,1.66,0,-1.54,16.06,16.04,0,0,3
44826,6.0399e+07,0,1.65,0,-1.54,16.07,16.05,0,0,3
44868,6.041e+07,0,1.65,0,-1.54,16.06,16.04,0,0,3
44912,6.042e+07,0,1.65,0,-1.54,16.06,16.04,0,0.01,3
44953,6.043e+07,0,1.65,0,-1.54,16.06,16.04,0,0.01,3
44993,6.044e+07,0,1.65,0,-1.54,16.06,16.04,0,0.01,3
45034,6.045e+07,0,1.65,0,-1.54,16.06,16.04,0,0.01,3
45076,6.0463e+07,0,1.65,0,-1.54,16.06,16.04,0,0.01,3
45117,6.0473e+07,0,1.65,0,-1.54,16.06,16.04,0,0.01,3
45157,6.0484e+07,0,1.65,0,-1.54,16.06,16.04,0,0.01,3
45199,6.0494e+07,0,1.65,0,-1.54,16.06,16.04,0,0.01,3
45239,6.0504e+07,0,1.65,0,-1.54,16.06,16.04,0,0.01,3
45280,6.0515e+07,0,1.65,0,-1.54,16.06,16.04,0,0.01,3
45324,6.0525e+07,0,1.65,0,-1.55,16.06,16.04,0,0.01,3
45366,6.0535e+07,0,1.65,0,-1.55,16.06,16.04,0,0.01,3
45406,6.0545e+07,0,1.65,0,-1.55,16.06,16.04,0,0.01,3
45447,6.0555e+07,0,1.65,0,-1.55,16.06,16.04,0,0.01,3
45481,6.0566e+07,0,1.65,0,-1.55,16.06,16.04,0,0.01,3
45522,6.0576e+07,0,1.65,0,-1.55,16.05,16.03,0,0.01,3
45565,6.0586e+07,0,1.65,0,-1.55,16.05,16.03,0,0.01,3
45607,6.0596e+07,0,1.65,0,-1.55,16.05,16.03,0,0.01,3
45648,6.0606e+07,0,1.65,0,-1.54,16.05,16.03,0,0.01,3
45688,6.0616e+07,0,1.64,0,-1.55,16.05,16.03,0,0.01,3
45734,6.0627e+07,0,1.64,0,-1.55,16.04,16.02,0,0.01,3
45774,6.0637e+07,0,1.64,0,-1.55,16.04,16.02,0,0.01,3
45815,6.0647e+07,0,1.64,0,-1.55,16.04,16.02,0,0.01,3
45856,6.066e+07,0,1.64,0,-1.55,16.04,16.02,0,0.01,3
45893,6.067e+07,0,1.65,0,-1.55,16.04,16.02,0,0.01,3
45934,6.068e+07,0,1.65,0,-1.55,16.04,16.02,0,0.01,3
45974,6.069e+07,0,1.65,0,-1.55,16.03,16.01,0,0.01,3
46015,6.07e+07,0,1.65,0,-1.54,16.03,16.01,0,0.01,3
46057,6.0711e+07,0,1.65,0,-1.54,16.03,16.01,0,0.01,3
46097,6.072e+07,0,1.65,0,-1.54,16.03,16.01,0,0.01,3
46144,6.073e+07,0,1.65,0,-1.55,16.03,16.01,0,0.01,3
46184,6.074e+07,0,1.65,0,-1.55,16.03,16.01,0,0.01,3
46226,6.0751e+07,0,1.65,0,-1.55,16.02,16,0,0.01,3
46266,6.0761e+07,0,1.65,0,-1.55,16.02,16,0,0.01,3
46310,6.0777e+07,0,1.64,0,-1.55,16.02,16,0,0.01,3
46350,6.0787e+07,0,1.64,0,-1.55,16.02,16,0,0.01,3
46392,6.0798e+07,0,1.64,0,-1.55,16.01,15.99,0,0.01,3
46434,6.0808e+07,0,1.65,0,-1.55,16.01,15.99,0,0.01,3
46476,6.0819e+07,0,1.65,0,-1.55,16.01,15.99,0,0.01,3
46520,6.0829e+07,0,1.65,0,-1.55,16.01,15.99,0,0.02,3
46561,6.0839e+07,0,1.65,0,-1.55,16.01,15.99,0,0.02,3
46602,6.0849e+07,0,1.65,0,-1.55,16.01,15.99,0,0.02,3
46643,6.0859e+07,0,1.65,0,-1.55,16,15.98,0,0.02,3
46680,6.087e+07,0,1.65,0,-1.55,16,15.98,0,0.02,3
46721,6.088e+07,0,1.65,0,-1.55,16,15.98,0,0.02,3
46763,6.089e+07,0,1.65,0,-1.55,16,15.98,0,0.02,3
46800,6.09e+07,0,1.65,0,-1.55,16,15.98,0,0.02,3
46841,6.0911e+07,0,1.65,0,-1.55,16,15.98,0,0.02,3
46881,6.092e+07,0,1.65,0,-1.55,16,15.98,0,0.02,3
46927,6.0931e+07,0,1.65,0,-1.55,16,15.98,0,0.01,3
46968,6.0941e+07,0,1.65,0,-1.55,16,15.98,0,0.01,3
47009,6.0951e+07,0,1.65,0,-1.55,16,15.98,0,0.01,3
47050,6.0961e+07,0,1.65,0,-1.55,16,15.98,0,0.01,3
47088,6.0975e+07,0,1.65,0,-1.55,16,15.98,0,0.01,3
47133,6.0985e+07,0,1.65,0,-1.55,16.01,15.99,0,0.01,3
47173,6.0995e+07,0,1.65,0,-1.55,16.01,15.99,0,0.01,3
47214,6.1005e+07,0,1.65,0,-1.55,16.01,15.99,0,0.01,3
47255,6.1016e+07,0,1.65,0,-1.55,16.01,15.99,0,0.01,3
47296,6.1026e+07,0,1.65,0,-1.55,16.01,15.99,0,0.01,3
47342,6.1036e+07,0,1.65,0,-1.55,16.01,15.99,0,0.01,3
47382,6.1047e+07,0,1.65,0,-1.55,16.02,16,0,0.01,3
47423,6.1056e+07,0,1.65,0,-1.55,16.02,16,0,0.01,3
47467,6.1069e+07,0,1.65,0,-1.55,16.02,16,0,0.01,3
47504,6.108e+07,0,1.65,0,-1.55,16.02,16,0,0.01,3
47545,6.1091e+07,0,1.65,0,-1.55,16.02,16,0,0.01,3
47586,6.1101e+07,0,1.65,0,-1.55,16.02,16,0,0.01,3
47627,6.1111e+07,0,1.65,0,-1.55,16.02,16,0,0.01,3
47667,6.1121e+07,0,1.65,0,-1.55,16.02,16,0,0.01,3
47708,6.1132e+07,0,1.65,0,-1.55,16.02,16,0,0.01,3
47755,6.1142e+07,0,1.65,0,-1.55,16.02,16,0,0.01,3
47795,6.1153e+07,0,1.65,0,-1.55,16.02,16,0,0.01,3
47836,6.1163e+07,0,1.65,0,-1.55,16.02,16,0,0.01,3
47876,6.1176e+07,0,1.65,0,-1.55,16.02,16,0,0.01,3
47917,6.1186e+07,0,1.65,0,-1.55,16.02,16,0,0.01,3
47961,6.1197e+07,0,1.65,0,-1.55,16.02,16,0,0.01,3
48001,6.1207e+07,0,1.65,0,-1.55,16.02,16,0,0.01,3
48042,6.1217e+07,0,1.65,0,-1.55,16.02,16,0,0.01,3
48084,6.1227e+07,0,1.65,0,-1.55,16.02,16,0,0.01,3
48128,6.1238e+07,0,1.65,0,-1.55,16.02,16,0,0.01,3
48168,6.1248e+07,0,1.65,0,-1.55,16.02,16,0,0.01,3
48211,6.1258e+07,0,1.65,0,-1.55,16.02,16,0,0.01,3
48252,6.1268e+07,0,1.65,0,-1.55,16.01,15.99,0,0.01,3
48289,6.1281e+07,0,1.65,0,-1.55,16.01,15.99,0,0.01,3
48330,6.1292e+07,0,1.65,0,-1.55,16.01,15.99,0,0.01,3
48371,6.1302e+07,0,1.65,0,-1.55,16.01,15.99,0,0.01,3
48412,6.1312e+07,0,1.65,0,-1.55,16.01,15.99,0,0.01,3
48453,6.1323e+07,0,1.65,0,-1.55,16.02,16,0,0.01,3
48494,6.1333e+07,0,1.65,0,-1.55,16.01,15.99,0,0.01,3
48541,6.1343e+07,0,1.65,0,-1.55,16.01,15.99,0,0.01,3
48582,6.1354e+07,0,1.65,0,-1.55,16.01,15.99,0,0.01,3
48626,6.1364e+07,0,1.65,0,-1.55,16.01,15.99,0,0.01,3
48666,6.1374e+07,0,1.65,0,-1.55,16.01,15.99,0,0.01,3
48704,6.1384e+07,0,1.65,0,-1.55,16.01,15.99,0,0.01,3
48743,6.1395e+07,0,1.65,0,-1.55,16.01,15.99,0,0.01,3
48786,6.1407e+07,0,1.65,0,-1.55,16.01,15.99,0,0.01,3
48828,6.1417e+07,0,1.65,0,-1.55,16.01,15.99,0,0.01,3
48868,6.1428e+07,0,1.65,0,-1.55,16.01,15.99,0,0.01,3
48909,6.1438e+07,0,1.65,0,-1.55,16.01,15.99,0,0.01,3
48954,6.1449e+07,0,1.65,0,-1.55,16.01,15.99,0,0.01,3
48996,6.1459e+07,0,1.65,0,-1.55,16.01,15.99,0,0.01,3
49037,6.1469e+07,0,1.65,0,-1.55,16.01,15.99,0,0.01,3
49077,6.1479e+07,0,1.66,0,-1.55,16.01,15.99,0,0.01,3
49117,6.1489e+07,0,1.66,0,-1.56,16.01,15.99,0,0.01,3
49157,6.15e+07,0,1.66,0,-1.56,16.01,15.99,0,0.01,3
49198,6.1509e+07,0,1.66,0,-1.56,16.01,15.99,0,0.01,3
49239,6.152e+07,0,1.65,0,-1.56,16.01,15.99,0,0.01,3
49279,6.153e+07,0,1.65,0,-1.56,16.01,15.99,0,0.01,3
