LineNo,TimeUS,DesRoll,Roll,DesPitch,Pitch,DesYaw,Yaw,ErrRP,ErrYaw,AEKF
295,49080064,0,1.66,0,-1.56,16.44,16.42,0,0.01,3
522,49126296,0,1.66,0,-1.56,16.45,16.42,0,0.01,3
863,49188235,0,1.66,0,-1.56,16.45,16.43,0,0.01,3
983,49216807,0,1.66,0,-1.56,16.45,16.43,0,0.01,3
1200,49328846,0,1.66,0,-1.56,16.45,16.43,0,0.01,3
1393,49425245,0,1.66,0,-1.56,16.46,16.44,0,0.01,3
1613,49451417,0,1.66,0,-1.56,16.46,16.44,0,0.01,3
1654,49461489,0,1.66,0,-1.56,16.46,16.44,0,0.01,3
1677,49482318,0,1.66,0,-1.57,16.46,16.44,0,0.01,3
1721,49492827,0,1.66,0,-1.57,16.46,16.44,0,0.01,3
1762,49502849,0,1.66,0,-1.57,16.46,16.44,0,0.01,3
1803,49513196,0,1.65,0,-1.57,16.46,16.44,0,0.01,3
1844,49522812,0,1.65,0,-1.57,16.46,16.44,0,0.01,3
1885,49533012,0,1.65,0,-1.57,16.46,16.44,0,0.01,3
1926,49543244,0,1.66,0,-1.57,16.46,16.43,0,0.01,3
1966,49553689,0,1.66,0,-1.57,16.45,16.43,0,0.01,3
2007,49563303,0,1.66,0,-1.57,16.45,16.43,0,0.01,3
2049,49573163,0,1.66,0,-1.57,16.45,16.43,0,0.01,3
2091,49583088,0,1.66,0,-1.57,16.45,16.43,0,0.01,3
2136,49593794,0,1.66,0,-1.57,16.45,16.42,0,0.01,3
2176,49603857,0,1.66,0,-1.57,16.45,16.42,0,0.01,3
2218,49614182,0,1.66,0,-1.57,16.44,16.42,0,0.01,3
2258,49626681,0,1.66,0,-1.57,16.44,16.42,0,0.01,3
2299,49637226,0,1.66,0,-1.57,16.44,16.42,0,0.01,3
2341,49647714,0,1.66,0,-1.56,16.43,16.41,0,0.01,3
2381,49657300,0,1.65,0,-1.56,16.43,16.41,0,0.01,3
2422,49668078,0,1.65,0,-1.56,16.43,16.41,0,0.01,3
2462,49678037,0,1.65,0,-1.56,16.42,16.4,0,0.01,3
2508,49688328,0,1.65,0,-1.57,16.42,16.4,0,0.01,3
2549,49698772,0,1.65,0,-1.57,16.41,16.39,0,0.02,3
2589,49708865,0,1.66,0,-1.57,16.41,16.39,0,0.02,3
2631,49719190,0,1.66,0,-1.57,16.41,16.39,0,0.02,3
2671,49729014,0,1.66,0,-1.57,16.41,16.39,0,0.02,3
2709,49739036,0,1.66,0,-1.57,16.4,16.38,0,0.02,3
2749,49749392,0,1.66,0,-1.57,16.4,16.38,0,0.02,3
2790,49759064,0,1.66,0,-1.57,16.39,16.37,0,0.02,3
2832,49769246,0,1.66,0,-1.57,16.39,16.37,0,0.02,3
2872,49779164,0,1.66,0,-1.57,16.39,16.37,0,0.02,3
2919,49789824,0,1.66,0,-1.57,16.38,16.36,0,0.02,3
2960,49799882,0,1.66,0,-1.57,16.38,16.36,0,0.01,3
3006,49809987,0,1.65,0,-1.57,16.38,16.36,0,0.01,3
3047,49820026,0,1.65,0,-1.57,16.37,16.35,0,0.01,3
3088,49829854,0,1.65,0,-1.57,16.37,16.35,0,0.01,3
3125,49840885,0,1.65,0,-1.57,16.37,16.35,0,0.01,3
3166,49851296,0,1.65,0,-1.57,16.36,16.34,0,0.01,3
3208,49861271,0,1.65,0,-1.57,16.36,16.34,0,0.01,3
3249,49871162,0,1.65,0,-1.57,16.36,16.34,0,0.01,3
3290,49881298,0,1.65,0,-1.57,16.36,16.34,0,0.01,3
3338,49891889,0,1.66,0,-1.57,16.35,16.33,0,0.01,3
3378,49902677,0,1.66,0,-1.57,16.35,16.33,0,0.01,3
3419,49912704,0,1.66,0,-1.57,16.35,16.33,0,0.01,3
3459,49922782,0,1.66,0,-1.57,16.35,16.33,0,0.01,3
3500,49932290,0,1.66,0,-1.57,16.35,16.33,0,0.01,3
3542,49942709,0,1.66,0,-1.57,16.35,16.33,0,0.01,3
3582,49952826,0,1.65,0,-1.57,16.35,16.33,0,0.01,3
3623,49963066,0,1.65,0,-1.57,16.35,16.33,0,0.01,3
3664,49972997,0,1.65,0,-1.57,16.35,16.33,0,0.01,3
3706,49982892,0,1.65,0,-1.57,16.35,16.33,0,0.01,3
3753,49993638,0,1.65,0,-1.57,16.35,16.33,0,0.01,3
3793,50003431,0,1.65,0,-1.57,16.35,16.33,0,0.01,3
3834,50013754,0,1.65,0,-1.57,16.35,16.33,0,0.01,3
3874,50023451,0,1.65,0,-1.57,16.35,16.33,0,0.01,3
3915,50033484,0,1.65,0,-1.57,16.35,16.33,0,0.01,3
3955,50046163,0,1.65,0,-1.57,16.35,16.33,0,0.01,3
3996,50057026,0,1.65,0,-1.57,16.35,16.33,0,0.01,3
4037,50067434,0,1.65,0,-1.57,16.35,16.33,0,0.01,3
4078,50077382,0,1.65,0,-1.57,16.35,16.33,0,0.01,3
4120,50087262,0,1.65,0,-1.57,16.35,16.33,0,0.01,3
4166,50097294,0,1.65,0,-1.57,16.35,16.33,0,0.01,3
4207,50107875,0,1.65,0,-1.57,16.35,16.33,0,0.01,3
4248,50118231,0,1.65,0,-1.57,16.35,16.33,0,0.01,3
4288,50128475,0,1.65,0,-1.57,16.35,16.33,0,0.01,3
4330,50138201,0,1.64,0,-1.57,16.35,16.33,0,0.01,3
4367,50148210,0,1.64,0,-1.57,16.35,16.33,0,0.01,3
4408,50158055,0,1.64,0,-1.57,16.35,16.33,0,0.01,3
4448,50168695,0,1.64,0,-1.57,16.34,16.33,0,0.01,3
4489,50178386,0,1.64,0,-1.57,16.34,16.32,0,0.01,3
4530,50188065,0,1.64,0,-1.57,16.34,16.32,0,0.01,3
4577,50198235,0,1.64,0,-1.57,16.34,16.32,0,0.01,3
4618,50208240,0,1.64,0,-1.57,16.34,16.32,0,0.01,3
4658,50218460,0,1.64,0,-1.57,16.34,16.32,0,0.01,3
4699,50228175,0,1.65,0,-1.57,16.34,16.32,0,0.01,3
4739,50240938,0,1.65,0,-1.57,16.34,16.32,0,0.01,3
4780,50251058,0,1.65,0,-1.57,16.34,16.32,0,0.01,3
4820,50261383,0,1.65,0,-1.57,16.34,16.32,0,0.01,3
4862,50271326,0,1.65,0,-1.57,16.34,16.32,0,0.01,3
4903,50281822,0,1.65,0,-1.57,16.34,16.32,0,0.01,3
4945,50292272,0,1.65,0,-1.57,16.34,16.32,0,0.01,3
4991,50302753,0,1.65,0,-1.57,16.34,16.32,0,0.01,3
5031,50312830,0,1.65,0,-1.57,16.34,16.32,0,0.01,3
5074,50323154,0,1.65,0,-1.57,16.34,16.32,0,0.01,3
5115,50335722,0,1.64,0,-1.57,16.34,16.32,0,0.01,3
5156,50346041,0,1.64,0,-1.57,16.34,16.32,0,0.01,3
5194,50356177,0,1.64,0,-1.57,16.34,16.32,0,0.01,3
5234,50366224,0,1.65,0,-1.57,16.34,16.32,0,0.01,3
5275,50376243,0,1.65,0,-1.57,16.34,16.32,0,0.01,3
5318,50386245,0,1.65,0,-1.57,16.34,16.32,0,0.01,3
5359,50396706,0,1.65,0,-1.57,16.34,16.32,0,0.01,3
5404,50406765,0,1.65,0,-1.56,16.34,16.32,0,0,3
5445,50416893,0,1.65,0,-1.56,16.34,16.32,0,0,3
5486,50426809,0,1.65,0,-1.56,16.33,16.31,0,0,3
5526,50437179,0,1.65,0,-1.57,16.33,16.31,0,0,3
5567,50449811,0,1.65,0,-1.57,16.33,16.31,0,0,3
5605,50460006,0,1.65,0,-1.57,16.33,16.31,0,0,3
5646,50470721,0,1.65,0,-1.57,16.33,16.31,0,0,3
5687,50480449,0,1.64,0,-1.57,16.33,16.31,0,0,3
5727,50490267,0,1.64,0,-1.57,16.33,16.31,0,0,3
5772,50500767,0,1.64,0,-1.56,16.33,16.31,0,0,3
5812,50510282,0,1.64,0,-1.57,16.33,16.31,0,0,3
5855,50520837,0,1.64,0,-1.57,16.33,16.31,0,0,3
5895,50531223,0,1.64,0,-1.57,16.33,16.31,0,0,3
5933,50541425,0,1.64,0,-1.57,16.33,16.31,0,0,3
5973,50550941,0,1.64,0,-1.57,16.33,16.31,0,0,3
6010,50561266,0,1.64,0,-1.57,16.33,16.31,0,0,3
6051,50571053,0,1.64,0,-1.57,16.33,16.31,0,0,3
6097,50583797,0,1.64,0,-1.57,16.33,16.31,0,0,3
6137,50594180,0,1.64,0,-1.56,16.34,16.32,0,0,3
6185,50606938,0,1.64,0,-1.56,16.34,16.32,0,0.01,3
6225,50617233,0,1.64,0,-1.56,16.34,16.32,0,0.01,3
6266,50627188,0,1.64,0,-1.56,16.34,16.32,0,0.01,3
6307,50636909,0,1.64,0,-1.56,16.34,16.32,0,0.01,3
6346,50649501,0,1.64,0,-1.56,16.34,16.32,0,0.01,3
6386,50659450,0,1.64,0,-1.56,16.34,16.32,0,0.01,3
6427,50669855,0,1.64,0,-1.57,16.34,16.32,0,0.01,3
6469,50680029,0,1.64,0,-1.57,16.34,16.32,0,0.01,3
6509,50690217,0,1.64,0,-1.57,16.34,16.32,0,0.01,3
6550,50700725,0,1.64,0,-1.57,16.34,16.32,0,0.01,3
6595,50710430,0,1.64,0,-1.57,16.34,16.32,0,0,3
6635,50721073,0,1.64,0,-1.57,16.34,16.32,0,0,3
6677,50731349,0,1.64,0,-1.57,16.34,16.32,0,0,3
6718,50741598,0,1.64,0,-1.57,16.33,16.31,0,0,3
6756,50751433,0,1.64,0,-1.57,16.34,16.32,0,0,3
6797,50764414,0,1.64,0,-1.57,16.34,16.32,0,0,3
6837,50774750,0,1.64,0,-1.57,16.33,16.31,0,0,3
6879,50784441,0,1.64,0,-1.56,16.33,16.31,0,0,3
6923,50794415,0,1.64,0,-1.57,16.33,16.31,0,0,3
6968,50805304,0,1.64,0,-1.57,16.34,16.32,0,0,3
7008,50815450,0,1.64,0,-1.56,16.34,16.32,0,0,3
7049,50825064,0,1.64,0,-1.56,16.34,16.32,0,0,3
7091,50835221,0,1.64,0,-1.56,16.34,16.32,0,0,3
7132,50844981,0,1.64,0,-1.56,16.34,16.32,0,0,3
7177,50857587,0,1.64,0,-1.56,16.34,16.32,0,0,3
7217,50868428,0,1.64,0,-1.56,16.34,16.32,0,0,3
7259,50878806,0,1.64,0,-1.56,16.34,16.32,0,0,3
7300,50888815,0,1.64,0,-1.56,16.34,16.32,0,0,3
7340,50898819,0,1.64,0,-1.56,16.34,16.32,0,0,3
7386,50908858,0,1.64,0,-1.56,16.34,16.32,0,0,3
7427,50919176,0,1.64,0,-1.56,16.34,16.32,0,0,3
7468,50929494,0,1.64,0,-1.56,16.34,16.32,0,0,3
7508,50939003,0,1.64,0,-1.56,16.34,16.33,0,0,3
7550,50949074,0,1.64,0,-1.56,16.35,16.33,0,0,3
7590,50959067,0,1.64,0,-1.56,16.35,16.33,0,0,3
7631,50969762,0,1.63,0,-1.56,16.35,16.33,0,0,3
7672,50979474,0,1.63,0,-1.56,16.35,16.33,0,0,3
7714,50990279,0,1.63,0,-1.56,16.35,16.33,0,0,3
7755,51000757,0,1.63,0,-1.56,16.35,16.33,0,0,3
7799,51010759,0,1.63,0,-1.56,16.35,16.33,0,0,3
7841,51021161,0,1.63,0,-1.56,16.36,16.34,0,0,3
7882,51031381,0,1.63,0,-1.56,16.36,16.34,0,0,3
7922,51041248,0,1.63,0,-1.56,16.36,16.34,0,0,3
7964,51054240,0,1.64,0,-1.56,16.36,16.34,0,0,3
8005,51064729,0,1.64,0,-1.56,16.36,16.34,0,0,3
8046,51074061,0,1.64,0,-1.56,16.36,16.34,0,0,3
8087,51084390,0,1.64,0,-1.56,16.36,16.34,0,0,3
8127,51094478,0,1.64,0,-1.56,16.36,16.34,0,0,3
8168,51104196,0,1.64,0,-1.56,16.36,16.34,0,0,3
8215,51114613,0,1.64,0,-1.56,16.36,16.34,0,0,3
8256,51124259,0,1.64,0,-1.56,16.36,16.34,0,0,3
8297,51134284,0,1.63,0,-1.56,16.36,16.34,0,0,3
8337,51144475,0,1.63,0,-1.56,16.37,16.35,0,0,3
8379,51157188,0,1.63,0,-1.56,16.37,16.35,0,0,3
8419,51167413,0,1.63,0,-1.56,16.37,16.35,0,0,3
8457,51177171,0,1.63,0,-1.56,16.37,16.35,0,0,3
8498,51187172,0,1.63,0,-1.56,16.36,16.35,0,0,3
8540,51197517,0,1.63,0,-1.56,16.36,16.34,0,0,3
8582,51208209,0,1.63,0,-1.56,16.36,16.34,0,0,3
8626,51218869,0,1.63,0,-1.56,16.36,16.34,0,0,3
8667,51228864,0,1.63,0,-1.56,16.36,16.34,0,0,3
8708,51238868,0,1.63,0,-1.56,16.36,16.34,0,0,3
8749,51248938,0,1.63,0,-1.56,16.36,16.34,0,0,3
8788,51261434,0,1.63,0,-1.56,16.36,16.34,0,0,3
8828,51271895,0,1.63,0,-1.56,16.36,16.34,0,0,3
8869,51282615,0,1.63,0,-1.56,16.36,16.34,0,0,3
8911,51292506,0,1.63,0,-1.56,16.36,16.34,0,0,3
8952,51302495,0,1.63,0,-1.56,16.36,16.34,0,0,3
8997,51312818,0,1.63,0,-1.56,16.36,16.34,0,0,3
9037,51322781,0,1.63,0,-1.56,16.36,16.34,0,0,3
9078,51333020,0,1.63,0,-1.56,16.36,16.34,0,0,3
9118,51343432,0,1.63,0,-1.56,16.36,16.34,0,0,3
9159,51353271,0,1.63,0,-1.56,16.35,16.34,0,0,3
9196,51363319,0,1.63,0,-1.56,16.35,16.33,0,0,3
9237,51373302,0,1.63,0,-1.56,16.35,16.33,0,0,3
9280,51383750,0,1.63,0,-1.56,16.35,16.33,0,0,3
9320,51393816,0,1.63,0,-1.56,16.35,16.33,0,0,3
9361,51404037,0,1.63,0,-1.56,16.35,16.33,0,0,3
9405,51414214,0,1.63,0,-1.56,16.35,16.33,0,0,3
9446,51424309,0,1.63,0,-1.56,16.35,16.33,0,0,3
9487,51433879,0,1.63,0,-1.56,16.35,16.33,0,0,3
9513,51456450,0,1.63,0,-1.56,16.35,16.33,0,0,3
9553,51467153,0,1.63,0,-1.56,16.35,16.33,0,0,3
9595,51477414,0,1.63,0,-1.56,16.35,16.33,0,0,3
9635,51487390,0,1.63,0,-1.56,16.35,16.33,0,0,3
9676,51496940,0,1.63,0,-1.56,16.35,16.33,0,0,3
9716,51507215,0,1.63,0,-1.56,16.35,16.33,0,0,3
9761,51517691,0,1.63,0,-1.56,16.35,16.33,0,0,3
9803,51527636,0,1.63,0,-1.56,16.35,16.33,0,0,3
9843,51538040,0,1.63,0,-1.56,16.35,16.33,0,0,3
9885,51548190,0,1.64,0,-1.56,16.35,16.33,0,0,3
9922,51558196,0,1.63,0,-1.56,16.35,16.33,0,0,3
9963,51568474,0,1.63,0,-1.56,16.35,16.33,0,0,3
10005,51578309,0,1.63,0,-1.56,16.35,16.33,0,0,3
10047,51588349,0,1.64,0,-1.56,16.35,16.33,0,0,3
10088,51598525,0,1.63,0,-1.56,16.35,16.33,0,0,3
10128,51608466,0,1.63,0,-1.56,16.35,16.33,0,0,3
10173,51618754,0,1.63,0,-1.56,16.35,16.33,0,0,3
10213,51628916,0,1.63,0,-1.56,16.35,16.33,0,0,3
10254,51639045,0,1.63,0,-1.56,16.35,16.33,0,0,3
10297,51648875,0,1.63,0,-1.56,16.35,16.33,0,0,3
10334,51659252,0,1.63,0,-1.56,16.35,16.33,0,0,3
10375,51669590,0,1.63,0,-1.56,16.35,16.33,0,0,3
10415,51679071,0,1.63,0,-1.56,16.35,16.33,0,0,3
10457,51689264,0,1.64,0,-1.56,16.35,16.33,0,0,3
10497,51699078,0,1.64,0,-1.56,16.35,16.33,0,0,3
10538,51709177,0,1.64,0,-1.56,16.35,16.33,0,0,3
10584,51719763,0,1.64,0,-1.56,16.35,16.33,0,0,3
10624,51729746,0,1.64,0,-1.56,16.35,16.33,0,0,3
10665,51739882,0,1.64,0,-1.56,16.35,16.33,0,0,3
10705,51750165,0,1.64,0,-1.55,16.34,16.32,0,0,3
10745,51760165,0,1.64,0,-1.55,16.34,16.32,0,0,3
10783,51770926,0,1.64,0,-1.55,16.34,16.32,0,0,3
10823,51781448,0,1.63,0,-1.55,16.34,16.32,0,0,3
10868,51792193,0,1.63,0,-1.55,16.34,16.32,0,0,3
10908,51802821,0,1.63,0,-1.55,16.34,16.32,0,0,3
10949,51813020,0,1.63,0,-1.55,16.34,16.32,0,0,3
10995,51822822,0,1.63,0,-1.55,16.34,16.32,0,0,3
11035,51832823,0,1.63,0,-1.56,16.34,16.32,0,0,3
11076,51843195,0,1.63,0,-1.55,16.34,16.32,0,0,3
11116,51853316,0,1.63,0,-1.55,16.34,16.32,0,0,3
11158,51863235,0,1.64,0,-1.55,16.34,16.32,0,0,3
11192,51873288,0,1.64,0,-1.55,16.34,16.32,0,0,3
11235,51883318,0,1.64,0,-1.55,16.34,16.32,0,0,3
11276,51893752,0,1.64,0,-1.55,16.34,16.32,0,0,3
11318,51903854,0,1.64,0,-1.55,16.34,16.32,0,0,3
11360,51914079,0,1.64,0,-1.55,16.34,16.32,0,0,3
11404,51924192,0,1.63,0,-1.55,16.34,16.32,0,0,3
11445,51934081,0,1.63,0,-1.55,16.33,16.31,0,0,3
11485,51944309,0,1.63,0,-1.55,16.33,16.31,0,0,3
11528,51954114,0,1.63,0,-1.55,16.34,16.32,0,0,3
11569,51964045,0,1.63,0,-1.55,16.34,16.32,0,0,3
11611,51977243,0,1.63,0,-1.55,16.34,16.32,0,0,3
11651,51987815,0,1.63,0,-1.55,16.34,16.32,0,0,3
11693,51997917,0,1.63,0,-1.55,16.34,16.32,0,0,3
11734,52007938,0,1.63,0,-1.55,16.34,16.32,0,0,3
11775,52018160,0,1.63,0,-1.54,16.34,16.32,0,0,3
11820,52028184,0,1.63,0,-1.54,16.34,16.32,0,0.01,3
11861,52037795,0,1.63,0,-1.54,16.34,16.32,0,0.01,3
11902,52047970,0,1.63,0,-1.54,16.34,16.32,0,0.01,3
11942,52058260,0,1.63,0,-1.55,16.34,16.32,0,0.01,3
11988,52073725,0,1.63,0,-1.55,16.34,16.32,0,0.01,3
12028,52084448,0,1.63,0,-1.55,16.34,16.32,0,0.01,3
12070,52094768,0,1.63,0,-1.54,16.34,16.32,0,0.01,3
12110,52105170,0,1.63,0,-1.55,16.34,16.32,0,0.01,3
12152,52114827,0,1.63,0,-1.54,16.33,16.31,0,0.01,3
12199,52125203,0,1.63,0,-1.54,16.33,16.31,0,0.01,3
12240,52135388,0,1.63,0,-1.54,16.33,16.31,0,0.01,3
12281,52145242,0,1.63,0,-1.54,16.33,16.31,0,0.01,3
12321,52155465,0,1.63,0,-1.54,16.33,16.31,0,0.01,3
12362,52166039,0,1.63,0,-1.54,16.33,16.31,0,0.01,3
12399,52179414,0,1.63,0,-1.54,16.33,16.31,0,0.01,3
12442,52189308,0,1.63,0,-1.54,16.33,16.31,0,0.01,3
12484,52199433,0,1.63,0,-1.54,16.32,16.3,0,0.01,3
12525,52209604,0,1.63,0,-1.54,16.32,16.3,0,0.01,3
12566,52220078,0,1.63,0,-1.54,16.32,16.3,0,0.01,3
12610,52230770,0,1.63,0,-1.54,16.32,16.3,0,0.01,3
12651,52240819,0,1.63,0,-1.54,16.32,16.3,0,0.01,3
12692,52250446,0,1.63,0,-1.54,16.32,16.3,0,0.01,3
12733,52260832,0,1.63,0,-1.54,16.32,16.3,0,0.01,3
12770,52270418,0,1.63,0,-1.54,16.32,16.3,0,0.01,3
12808,52281208,0,1.63,0,-1.54,16.31,16.29,0,0.01,3
12851,52291433,0,1.63,0,-1.54,16.31,16.29,0,0.01,3
12892,52302028,0,1.63,0,-1.54,16.31,16.29,0,0.01,3
12934,52312477,0,1.63,0,-1.55,16.31,16.29,0,0.01,3
12974,52323033,0,1.63,0,-1.54,16.31,16.29,0,0.01,3
13019,52333208,0,1.63,0,-1.54,16.31,16.29,0,0.01,3
13060,52343583,0,1.63,0,-1.54,16.31,16.29,0,0.01,3
13101,52353516,0,1.63,0,-1.54,16.31,16.29,0,0.01,3
13145,52366200,0,1.63,0,-1.54,16.31,16.29,0,0.01,3
13188,52381174,0,1.63,0,-1.54,16.31,16.29,0,0.01,3
13231,52391437,0,1.63,0,-1.54,16.31,16.29,0,0.01,3
13272,52401716,0,1.63,0,-1.54,16.31,16.29,0,0.01,3
13314,52411957,0,1.63,0,-1.54,16.31,16.29,0,0.01,3
13355,52422225,0,1.63,0,-1.54,16.31,16.29,0,0.01,3
13402,52434467,0,1.63,0,-1.54,16.31,16.29,0,0,3
13443,52444923,0,1.63,0,-1.54,16.31,16.29,0,0,3
13484,52454761,0,1.63,0,-1.54,16.31,16.29,0,0,3
13526,52464859,0,1.63,0,-1.54,16.31,16.29,0,0,3
13567,52474992,0,1.63,0,-1.54,16.31,16.29,0,0,3
13602,52485726,0,1.63,0,-1.54,16.31,16.29,0,0,3
13642,52495833,0,1.63,0,-1.54,16.31,16.29,0,0,3
13684,52506185,0,1.63,0,-1.54,16.31,16.29,0,0,3
13725,52516696,0,1.63,0,-1.54,16.31,16.29,0,0,3
13766,52526803,0,1.63,0,-1.54,16.31,16.29,0,0,3
13810,52536930,0,1.63,0,-1.54,16.31,16.29,0,0.01,3
13851,52547280,0,1.63,0,-1.54,16.31,16.29,0,0.01,3
13891,52557464,0,1.63,0,-1.54,16.31,16.29,0,0.01,3
13930,52567324,0,1.63,0,-1.54,16.31,16.29,0,0.01,3
13971,52577480,0,1.63,0,-1.54,16.31,16.29,0,0.01,3
14012,52588080,0,1.63,0,-1.53,16.31,16.29,0,0.01,3
14055,52598698,0,1.63,0,-1.53,16.3,16.28,0,0.01,3
14095,52608953,0,1.63,0,-1.53,16.3,16.28,0,0.01,3
14137,52619080,0,1.63,0,-1.53,16.3,16.28,0,0.01,3
14178,52629057,0,1.63,0,-1.53,16.3,16.28,0,0.01,3
14223,52639262,0,1.63,0,-1.53,16.3,16.28,0,0.01,3
14264,52649021,0,1.63,0,-1.54,16.29,16.27,0,0.01,3
14305,52658983,0,1.63,0,-1.54,16.29,16.27,0,0.01,3
14346,52668991,0,1.63,0,-1.54,16.29,16.27,0,0.01,3
14386,52678993,0,1.63,0,-1.54,16.29,16.27,0,0.01,3
14427,52693120,0,1.63,0,-1.54,16.29,16.27,0,0.01,3
14468,52703772,0,1.63,0,-1.54,16.29,16.27,0,0.01,3
14508,52713869,0,1.63,0,-1.54,16.29,16.27,0,0.01,3
14551,52724085,0,1.63,0,-1.54,16.29,16.27,0,0.01,3
14591,52733833,0,1.62,0,-1.54,16.29,16.27,0,0.01,3
14636,52744179,0,1.63,0,-1.54,16.28,16.26,0,0.01,3
14676,52753897,0,1.63,0,-1.54,16.28,16.26,0,0.01,3
14717,52764014,0,1.62,0,-1.54,16.28,16.26,0,0.01,3
14762,52776809,0,1.63,0,-1.54,16.28,16.26,0,0.01,3
14805,52789827,0,1.63,0,-1.54,16.28,16.26,0,0.01,3
14847,52800308,0,1.63,0,-1.54,16.28,16.26,0,0.01,3
14888,52810807,0,1.63,0,-1.53,16.28,16.26,0,0.01,3
14929,52821425,0,1.63,0,-1.53,16.29,16.27,0,0.01,3
14972,52831751,0,1.63,0,-1.53,16.29,16.27,0,0.01,3
15019,52844824,0,1.63,0,-1.53,16.29,16.27,0,0.01,3
15060,52854785,0,1.63,0,-1.53,16.29,16.27,0,0.01,3
15100,52864818,0,1.63,0,-1.53,16.29,16.27,0,0.01,3
15141,52875171,0,1.63,0,-1.53,16.29,16.27,0,0.01,3
15179,52885048,0,1.63,0,-1.53,16.29,16.27,0,0.01,3
15217,52895805,0,1.63,0,-1.53,16.29,16.27,0,0.01,3
15258,52905802,0,1.63,0,-1.53,16.29,16.27,0,0.01,3
15298,52915826,0,1.63,0,-1.53,16.29,16.27,0,0.01,3
15340,52925838,0,1.63,0,-1.53,16.29,16.27,0,0.01,3
15383,52936226,0,1.63,0,-1.53,16.29,16.27,0,0.01,3
15430,52946387,0,1.63,0,-1.53,16.29,16.27,0,0.01,3
15472,52956213,0,1.63,0,-1.53,16.29,16.27,0,0.01,3
15512,52966445,0,1.63,0,-1.53,16.29,16.27,0,0.01,3
15553,52976373,0,1.63,0,-1.53,16.29,16.27,0,0.01,3
15591,52990048,0,1.63,0,-1.53,16.29,16.27,0,0.01,3
15631,53000784,0,1.63,0,-1.53,16.29,16.27,0,0.01,3
15673,53010699,0,1.63,0,-1.53,16.29,16.27,0,0.01,3
15715,53021049,0,1.63,0,-1.53,16.29,16.27,0,0.01,3
15756,53031060,0,1.63,0,-1.53,16.28,16.27,0,0.01,3
15796,53041437,0,1.63,0,-1.53,16.28,16.26,0,0.01,3
15842,53052062,0,1.63,0,-1.53,16.28,16.26,0,0.01,3
15883,53062773,0,1.63,0,-1.53,16.28,16.26,0,0.01,3
15924,53072916,0,1.63,0,-1.53,16.28,16.26,0,0.01,3
15964,53082930,0,1.63,0,-1.53,16.28,16.26,0,0.01,3
15999,53093724,0,1.63,0,-1.53,16.28,16.26,0,0.01,3
16040,53103932,0,1.63,0,-1.53,16.28,16.26,0,0.01,3
16080,53114002,0,1.63,0,-1.53,16.28,16.26,0,0.01,3
16121,53124010,0,1.63,0,-1.53,16.28,16.26,0,0.01,3
16161,53134047,0,1.63,0,-1.53,16.28,16.26,0,0.01,3
16202,53143902,0,1.63,0,-1.53,16.27,16.25,0,0.01,3
16249,53154173,0,1.63,0,-1.53,16.27,16.25,0,0.01,3
16291,53164399,0,1.63,0,-1.53,16.27,16.25,0,0.01,3
16332,53174205,0,1.63,0,-1.52,16.28,16.26,0,0.01,3
16372,53184484,0,1.63,0,-1.52,16.27,16.25,0,0.01,3
16415,53197296,0,1.63,0,-1.52,16.27,16.25,0,0.01,3
16455,53207943,0,1.63,0,-1.52,16.27,16.25,0,0.01,3
16496,53218071,0,1.63,0,-1.52,16.27,16.25,0,0.01,3
16538,53227950,0,1.63,0,-1.52,16.27,16.25,0,0.01,3
16578,53238279,0,1.63,0,-1.52,16.27,16.25,0,0.01,3
16619,53248418,0,1.63,0,-1.52,16.27,16.25,0,0.01,3
16664,53258251,0,1.63,0,-1.52,16.28,16.26,0,0.01,3
16705,53268450,0,1.63,0,-1.52,16.28,16.26,0,0.01,3
16749,53279413,0,1.63,0,-1.52,16.28,16.26,0,0.01,3
16789,53292465,0,1.63,0,-1.52,16.28,16.26,0,0.01,3
16830,53302734,0,1.63,0,-1.52,16.28,16.26,0,0.01,3
16871,53313752,0,1.63,0,-1.52,16.28,16.26,0,0.01,3
16911,53323823,0,1.63,0,-1.52,16.28,16.26,0,0.01,3
16952,53333988,0,1.63,0,-1.52,16.28,16.26,0,0.01,3
16992,53343880,0,1.63,0,-1.52,16.29,16.27,0,0.01,3
17041,53356215,0,1.63,0,-1.52,16.29,16.27,0,0.01,3
17083,53366730,0,1.63,0,-1.52,16.29,16.27,0,0.01,3
17125,53376960,0,1.62,0,-1.52,16.29,16.27,0,0.01,3
17166,53389254,0,1.63,0,-1.52,16.29,16.27,0,0.01,3
17210,53401923,0,1.63,0,-1.52,16.29,16.27,0,0.01,3
17251,53412028,0,1.63,0,-1.52,16.29,16.28,0,0.01,3
17292,53422833,0,1.63,0,-1.52,16.3,16.28,0,0.01,3
17333,53432870,0,1.63,0,-1.52,16.3,16.28,0,0.01,3
17373,53442993,0,1.63,0,-1.52,16.3,16.28,0,0.01,3
17414,53453238,0,1.63,0,-1.52,16.3,16.28,0,0.01,3
17459,53463385,0,1.63,0,-1.52,16.3,16.28,0,0.01,3
17500,53473766,0,1.63,0,-1.52,16.3,16.28,0,0.01,3
17541,53483375,0,1.63,0,-1.52,16.3,16.28,0,0.01,3
17578,53493707,0,1.63,0,-1.52,16.3,16.28,0,0.01,3
17616,53504692,0,1.63,0,-1.52,16.3,16.28,0,0.01,3
17657,53515015,0,1.63,0,-1.52,16.29,16.27,0,0.01,3
17697,53525466,0,1.62,0,-1.52,16.29,16.27,0,0.01,3
17737,53535509,0,1.63,0,-1.52,16.29,16.27,0,0.01,3
17777,53545357,0,1.63,0,-1.52,16.29,16.27,0,0.01,3
17818,53555746,0,1.63,0,-1.52,16.29,16.27,0,0.01,3
17863,53565349,0,1.63,0,-1.52,16.29,16.27,0,0.01,3
17904,53575803,0,1.63,0,-1.52,16.29,16.27,0,0.01,3
17948,53585843,0,1.63,0,-1.52,16.29,16.27,0,0.01,3
17988,53595859,0,1.63,0,-1.52,16.29,16.27,0,0.01,3
18026,53608421,0,1.63,0,-1.52,16.29,16.27,0,0.01,3
18067,53618794,0,1.63,0,-1.52,16.29,16.27,0,0.01,3
18107,53629389,0,1.63,0,-1.52,16.28,16.26,0,0.01,3
18148,53639820,0,1.63,0,-1.52,16.28,16.26,0,0.01,3
18189,53650084,0,1.63,0,-1.52,16.28,16.26,0,0.01,3
18234,53660322,0,1.63,0,-1.52,16.28,16.26,0,0.01,3
18275,53670470,0,1.63,0,-1.52,16.28,16.26,0,0.01,3
18317,53680890,0,1.63,0,-1.52,16.28,16.26,0,0.01,3
18358,53690936,0,1.63,0,-1.52,16.28,16.26,0,0.01,3
18398,53703474,0,1.63,0,-1.52,16.28,16.26,0,0.01,3
18439,53713819,0,1.63,0,-1.52,16.28,16.26,0,0.01,3
18476,53724243,0,1.63,0,-1.52,16.28,16.26,0,0.01,3
18517,53734755,0,1.63,0,-1.52,16.28,16.26,0,0.01,3
18558,53744759,0,1.63,0,-1.52,16.28,16.26,0,0.01,3
18599,53754728,0,1.63,0,-1.52,16.27,16.25,0,0.01,3
18644,53765160,0,1.63,0,-1.52,16.28,16.26,0,0.01,3
18686,53775182,0,1.63,0,-1.52,16.28,16.26,0,0.01,3
18729,53785730,0,1.63,0,-1.52,16.27,16.26,0,0.01,3
18767,53795764,0,1.63,0,-1.52,16.27,16.25,0,0.01,3
18811,53808195,0,1.63,0,-1.52,16.27,16.25,0,0.01,3
18849,53818047,0,1.63,0,-1.52,16.27,16.25,0,0.01,3
18890,53828772,0,1.63,0,-1.52,16.27,16.25,0,0.01,3
18931,53838839,0,1.63,0,-1.52,16.27,16.25,0,0.01,3
18971,53849268,0,1.63,0,-1.52,16.27,16.25,0,0.01,3
19012,53859495,0,1.63,0,-1.52,16.27,16.26,0,0.01,3
19058,53869479,0,1.63,0,-1.52,16.28,16.26,0,0,3
19098,53879457,0,1.63,0,-1.52,16.28,16.26,0,0,3
19139,53889762,0,1.63,0,-1.52,16.28,16.26,0,0,3
19183,53902090,0,1.63,0,-1.52,16.28,16.26,0,0,3
19221,53912815,0,1.63,0,-1.52,16.28,16.26,0,0,3
19262,53923216,0,1.63,0,-1.52,16.28,16.26,0,0,3
19303,53933389,0,1.63,0,-1.52,16.28,16.26,0,0,3
19345,53943576,0,1.63,0,-1.52,16.28,16.26,0,0,3
19386,53953810,0,1.63,0,-1.52,16.28,16.26,0,0,3
19428,53964091,0,1.63,0,-1.52,16.28,16.26,0,0,3
19472,53974054,0,1.63,0,-1.52,16.28,16.26,0,0,3
19513,53984399,0,1.63,0,-1.52,16.28,16.26,0,0,3
19558,53994249,0,1.63,0,-1.52,16.29,16.27,0,0,3
19598,54004255,0,1.63,0,-1.52,16.29,16.27,0,0,3
19637,54014249,0,1.63,0,-1.52,16.29,16.27,0,0,3
19677,54026695,0,1.63,0,-1.52,16.29,16.27,0,0,3
19719,54037052,0,1.63,0,-1.52,16.29,16.27,0,0,3
19760,54047319,0,1.63,0,-1.52,16.29,16.27,0,0,3
19800,54057464,0,1.63,0,-1.52,16.29,16.27,0,0,3
19845,54067969,0,1.63,0,-1.52,16.29,16.27,0,0,3
19888,54081081,0,1.63,0,-1.52,16.29,16.27,0,0,3
19930,54091603,0,1.63,0,-1.52,16.29,16.27,0,0,3
19970,54102088,0,1.63,0,-1.51,16.29,16.27,0,0,3
20010,54112073,0,1.63,0,-1.51,16.29,16.27,0,0,3
20051,54122296,0,1.63,0,-1.52,16.29,16.27,0,0,3
20094,54134911,0,1.63,0,-1.52,16.29,16.27,0,0,3
20136,54145186,0,1.63,0,-1.52,16.29,16.27,0,0,3
20177,54155760,0,1.63,0,-1.52,16.29,16.27,0,0,3
20218,54165846,0,1.63,0,-1.52,16.29,16.27,0,0,3
20267,54176209,0,1.63,0,-1.52,16.29,16.27,0,0.01,3
20307,54186485,0,1.63,0,-1.52,16.29,16.27,0,0.01,3
20348,54196152,0,1.63,0,-1.51,16.29,16.27,0,0.01,3
20388,54206736,0,1.63,0,-1.51,16.29,16.27,0,0.01,3
20430,54216776,0,1.63,0,-1.51,16.29,16.27,0,0.01,3
20468,54226807,0,1.63,0,-1.51,16.29,16.27,0,0.01,3
20508,54236828,0,1.63,0,-1.52,16.29,16.27,0,0.01,3
20550,54247065,0,1.63,0,-1.52,16.29,16.27,0,0.01,3
20590,54259940,0,1.63,0,-1.52,16.29,16.27,0,0.01,3
20633,54270745,0,1.63,0,-1.52,16.29,16.27,0,0.01,3
20678,54280818,0,1.63,0,-1.52,16.29,16.27,0,0.01,3
20719,54290319,0,1.63,0,-1.52,16.29,16.27,0,0.01,3
20760,54300737,0,1.63,0,-1.51,16.28,16.26,0,0.01,3
20800,54310581,0,1.63,0,-1.51,16.28,16.26,0,0.01,3
20838,54323796,0,1.63,0,-1.51,16.28,16.26,0,0.01,3
20878,54333910,0,1.63,0,-1.51,16.28,16.26,0,0.01,3
20919,54344278,0,1.63,0,-1.51,16.28,16.26,0,0.01,3
20962,54354431,0,1.63,0,-1.51,16.28,16.26,0,0.01,3
21002,54364763,0,1.63,0,-1.52,16.28,16.26,0,0.01,3
21047,54375436,0,1.63,0,-1.52,16.28,16.26,0,0.01,3
21089,54386075,0,1.63,0,-1.52,16.27,16.26,0,0.01,3
21130,54396060,0,1.63,0,-1.52,16.27,16.25,0,0.01,3
21172,54406404,0,1.63,0,-1.52,16.27,16.25,0,0.01,3
21212,54421869,0,1.63,0,-1.51,16.27,16.25,0,0.01,3
21256,54435196,0,1.63,0,-1.51,16.27,16.25,0,0.01,3
21297,54445384,0,1.63,0,-1.51,16.27,16.25,0,0.01,3
21338,54455237,0,1.63,0,-1.51,16.27,16.25,0,0.01,3
21380,54465293,0,1.63,0,-1.51,16.27,16.25,0,0.01,3
21420,54475049,0,1.63,0,-1.51,16.27,16.25,0,0.01,3
21465,54485688,0,1.63,0,-1.51,16.26,16.25,0,0.01,3
21506,54495424,0,1.63,0,-1.51,16.26,16.24,0,0.01,3
21546,54505960,0,1.63,0,-1.51,16.26,16.24,0,0.01,3
21587,54518803,0,1.63,0,-1.51,16.26,16.24,0,0.01,3
21625,54529837,0,1.63,0,-1.51,16.26,16.24,0,0.01,3
21666,54539953,0,1.63,0,-1.51,16.26,16.24,0,0.01,3
21707,54550070,0,1.63,0,-1.51,16.26,16.24,0,0.01,3
21748,54559937,0,1.63,0,-1.51,16.26,16.24,0,0.01,3
21789,54570002,0,1.63,0,-1.51,16.26,16.24,0,0.01,3
21836,54582331,0,1.63,0,-1.51,16.26,16.24,0,0.01,3
21879,54592454,0,1.63,0,-1.52,16.26,16.24,0,0.01,3
21921,54602963,0,1.63,0,-1.52,16.26,16.24,0,0.01,3
21961,54613087,0,1.63,0,-1.52,16.26,16.24,0,0.01,3
22003,54623465,0,1.63,0,-1.51,16.26,16.24,0,0.01,3
22044,54633480,0,1.63,0,-1.51,16.26,16.24,0,0.01,3
22081,54643953,0,1.63,0,-1.51,16.26,16.24,0,0.01,3
22122,54653730,0,1.63,0,-1.51,16.26,16.24,0,0.01,3
22163,54664051,0,1.63,0,-1.51,16.26,16.24,0,0.01,3
22205,54674234,0,1.63,0,-1.51,16.26,16.24,0,0.01,3
22249,54684467,0,1.63,0,-1.51,16.26,16.24,0,0.01,3
22290,54694728,0,1.63,0,-1.51,16.26,16.24,0,0.01,3
22331,54705028,0,1.63,0,-1.51,16.25,16.23,0,0.01,3
22371,54715405,0,1.63,0,-1.51,16.25,16.23,0,0.01,3
22409,54728345,0,1.63,0,-1.51,16.25,16.23,0,0.01,3
22449,54738611,0,1.64,0,-1.51,16.25,16.23,0,0.01,3
22491,54748179,0,1.64,0,-1.51,16.25,16.23,0,0.01,3
22531,54758200,0,1.64,0,-1.51,16.25,16.23,0,0.01,3
22574,54768295,0,1.64,0,-1.51,16.25,16.23,0,0.01,3
22618,54778696,0,1.64,0,-1.51,16.25,16.23,0,0.01,3
22662,54788189,0,1.63,0,-1.51,16.24,16.22,0,0.01,3
22704,54798291,0,1.63,0,-1.51,16.24,16.22,0,0.01,3
22745,54808736,0,1.63,0,-1.51,16.24,16.22,0,0.01,3
22785,54818608,0,1.63,0,-1.51,16.24,16.22,0,0.01,3
22826,54829314,0,1.63,0,-1.51,16.24,16.22,0,0.01,3
22863,54839455,0,1.63,0,-1.51,16.24,16.22,0,0.01,3
22905,54849439,0,1.63,0,-1.51,16.24,16.22,0,0.01,3
22945,54859246,0,1.63,0,-1.51,16.24,16.22,0,0.01,3
22986,54869790,0,1.63,0,-1.51,16.24,16.22,0,0.01,3
23028,54880198,0,1.63,0,-1.51,16.24,16.22,0,0.01,3
23072,54890521,0,1.63,0,-1.51,16.24,16.22,0,0,3
23113,54900063,0,1.63,0,-1.51,16.24,16.22,0,0,3
23154,54910292,0,1.63,0,-1.51,16.24,16.22,0,0,3
23196,54920746,0,1.63,0,-1.51,16.24,16.22,0,0,3
23237,54933910,0,1.64,0,-1.51,16.24,16.22,0,0,3
23278,54944284,0,1.64,0,-1.51,16.24,16.22,0,0,3
23319,54954799,0,1.63,0,-1.51,16.24,16.22,0,0,3
23360,54964808,0,1.63,0,-1.51,16.24,16.22,0,0,3
23402,54974726,0,1.63,0,-1.51,16.24,16.22,0,0,3
23442,54984738,0,1.63,0,-1.51,16.23,16.21,0,0,3
23487,54995059,0,1.63,0,-1.51,16.23,16.21,0,0,3
23530,55005177,0,1.63,0,-1.51,16.23,16.21,0,0,3
23572,55015452,0,1.63,0,-1.51,16.23,16.21,0,0,3
23613,55025421,0,1.63,0,-1.51,16.23,16.21,0,0,3
23650,55036177,0,1.63,0,-1.51,16.23,16.21,0,0,3
23692,55046270,0,1.64,0,-1.51,16.23,16.21,0,0,3
23732,55056285,0,1.64,0,-1.51,16.23,16.21,0,0,3
23773,55066075,0,1.64,0,-1.51,16.23,16.21,0,0,3
23814,55076031,0,1.64,0,-1.51,16.23,16.21,0,0,3
23854,55086431,0,1.64,0,-1.51,16.23,16.21,0,0,3
23900,55096320,0,1.64,0,-1.51,16.23,16.21,0,0,3
23940,55106152,0,1.64,0,-1.51,16.23,16.21,0,0,3
23981,55116476,0,1.64,0,-1.51,16.23,16.21,0,0,3
24022,55126471,0,1.64,0,-1.51,16.23,16.21,0,0,3
24067,55142030,0,1.64,0,-1.51,16.23,16.21,0,0,3
24107,55152943,0,1.64,0,-1.51,16.23,16.21,0,0,3
24148,55163050,0,1.64,0,-1.51,16.23,16.21,0,0,3
24188,55173065,0,1.64,0,-1.51,16.23,16.21,0,0,3
24230,55183718,0,1.64,0,-1.51,16.23,16.21,0,0,3
24277,55193591,0,1.64,0,-1.51,16.23,16.21,0,0.01,3
24318,55203738,0,1.64,0,-1.51,16.23,16.21,0,0.01,3
24359,55213738,0,1.64,0,-1.51,16.23,16.21,0,0.01,3
24399,55223465,0,1.64,0,-1.51,16.23,16.21,0,0.01,3
24441,55236742,0,1.64,0,-1.51,16.23,16.21,0,0.01,3
24482,55247277,0,1.64,0,-1.51,16.23,16.21,0,0.01,3
24523,55257680,0,1.64,0,-1.51,16.23,16.21,0,0.01,3
24566,55267974,0,1.64,0,-1.51,16.22,16.2,0,0.01,3
24606,55277851,0,1.64,0,-1.51,16.22,16.2,0,0.01,3
24647,55288385,0,1.64,0,-1.51,16.22,16.2,0,0.01,3
24692,55298804,0,1.64,0,-1.51,16.22,16.2,0,0.01,3
24734,55308798,0,1.64,0,-1.51,16.22,16.2,0,0.01,3
24776,55319323,0,1.64,0,-1.51,16.22,16.2,0,0.01,3
24820,55331797,0,1.64,0,-1.51,16.21,16.19,0,0.01,3
24868,55347032,0,1.64,0,-1.51,16.21,16.19,0,0.01,3
24911,55359762,0,1.64,0,-1.51,16.21,16.19,0,0.01,3
24952,55370186,0,1.64,0,-1.51,16.21,16.19,0,0.01,3
24993,55380271,0,1.64,0,-1.51,16.21,16.19,0,0.01,3
25036,55390207,0,1.64,0,-1.51,16.2,16.18,0,0.01,3
25080,55400182,0,1.64,0,-1.51,16.2,16.18,0,0,3
25121,55410841,0,1.64,0,-1.51,16.2,16.18,0,0,3
25162,55420947,0,1.64,0,-1.51,16.2,16.18,0,0,3
25204,55431379,0,1.64,0,-1.51,16.2,16.18,0,0,3
25244,55444694,0,1.64,0,-1.51,16.2,16.18,0,0,3
25284,55454814,0,1.64,0,-1.51,16.2,16.18,0,0,3
25321,55465459,0,1.64,0,-1.51,16.2,16.18,0,0,3
25361,55475225,0,1.64,0,-1.51,16.2,16.18,0,0,3
25402,55485045,0,1.64,0,-1.51,16.19,16.17,0,0,3
25444,55495292,0,1.64,0,-1.51,16.19,16.17,0,0,3
25488,55505441,0,1.64,0,-1.51,16.19,16.17,0,0.01,3
25529,55515723,0,1.64,0,-1.51,16.19,16.17,0,0.01,3
25569,55525678,0,1.64,0,-1.51,16.19,16.17,0,0.01,3
25611,55535840,0,1.64,0,-1.51,16.2,16.18,0,0.01,3
25649,55548923,0,1.64,0,-1.51,16.19,16.17,0,0.01,3
25690,55559295,0,1.64,0,-1.51,16.19,16.17,0,0.01,3
25731,55569767,0,1.64,0,-1.5,16.19,16.17,0,0.01,3
25771,55579761,0,1.64,0,-1.51,16.19,16.17,0,0.01,3
25817,55592193,0,1.64,0,-1.5,16.19,16.17,0,0.01,3
25862,55602858,0,1.64,0,-1.51,16.19,16.17,0,0.01,3
25903,55612953,0,1.64,0,-1.51,16.18,16.16,0,0.01,3
25944,55623088,0,1.64,0,-1.51,16.18,16.16,0,0.01,3
25984,55633303,0,1.64,0,-1.51,16.18,16.16,0,0.01,3
26023,55643981,0,1.63,0,-1.51,16.18,16.16,0,0.01,3
26061,55654492,0,1.63,0,-1.51,16.18,16.16,0,0.01,3
26102,55664905,0,1.63,0,-1.51,16.17,16.15,0,0.01,3
26143,55674935,0,1.63,0,-1.51,16.17,16.15,0,0.01,3
26183,55684796,0,1.63,0,-1.51,16.17,16.15,0,0.01,3
26224,55694806,0,1.63,0,-1.51,16.17,16.15,0,0.01,3
26269,55705251,0,1.63,0,-1.51,16.17,16.15,0,0.01,3
26310,55715749,0,1.63,0,-1.51,16.17,16.15,0,0.01,3
26351,55725776,0,1.64,0,-1.51,16.17,16.15,0,0.01,3
26391,55735862,0,1.64,0,-1.51,16.17,16.15,0,0.01,3
26430,55745869,0,1.64,0,-1.51,16.16,16.14,0,0.01,3
26471,55756393,0,1.64,0,-1.51,16.16,16.14,0,0.01,3
26514,55769725,0,1.64,0,-1.51,16.16,16.14,0,0.01,3
26555,55779744,0,1.64,0,-1.5,16.16,16.14,0,0.01,3
26595,55790203,0,1.64,0,-1.51,16.16,16.14,0,0.01,3
26638,55800051,0,1.63,0,-1.51,16.16,16.14,0,0.01,3
26683,55810165,0,1.63,0,-1.51,16.16,16.14,0,0.01,3
26725,55820731,0,1.63,0,-1.51,16.16,16.14,0,0.01,3
26765,55830737,0,1.63,0,-1.51,16.16,16.14,0,0.01,3
26806,55841002,0,1.63,0,-1.51,16.15,16.13,0,0.01,3
26847,55851012,0,1.63,0,-1.51,16.15,16.13,0,0.01,3
26887,55861224,0,1.63,0,-1.51,16.15,16.13,0,0.01,3
26925,55871493,0,1.63,0,-1.51,16.15,16.13,0,0.01,3
26966,55881345,0,1.63,0,-1.51,16.15,16.13,0,0.01,3
27006,55891070,0,1.63,0,-1.51,16.16,16.14,0,0.01,3
27047,55901203,0,1.63,0,-1.51,16.16,16.14,0,0.01,3
27091,55911440,0,1.63,0,-1.51,16.16,16.14,0,0.01,3
27132,55921811,0,1.63,0,-1.51,16.16,16.14,0,0.01,3
27173,55932011,0,1.63,0,-1.51,16.16,16.14,0,0.01,3
27215,55942013,0,1.63,0,-1.51,16.16,16.14,0,0.01,3
27252,55952077,0,1.63,0,-1.51,16.16,16.14,0,0.01,3
27294,55964789,0,1.63,0,-1.51,16.16,16.14,0,0.01,3
27335,55975217,0,1.63,0,-1.51,16.16,16.14,0,0.01,3
27379,55985588,0,1.63,0,-1.51,16.16,16.14,0,0.01,3
27420,55995888,0,1.63,0,-1.51,16.16,16.14,0,0.01,3
27460,56005830,0,1.63,0,-1.51,16.16,16.14,0,0.01,3
27505,56015425,0,1.63,0,-1.51,16.16,16.14,0,0.01,3
27546,56025614,0,1.63,0,-1.51,16.17,16.15,0,0.01,3
27587,56035445,0,1.63,0,-1.51,16.17,16.15,0,0.01,3
27628,56048466,0,1.63,0,-1.51,16.17,16.15,0,0.01,3
27668,56058975,0,1.63,0,-1.51,16.17,16.15,0,0.01,3
27709,56069188,0,1.63,0,-1.51,16.17,16.15,0,0.01,3
27750,56079236,0,1.63,0,-1.51,16.17,16.15,0,0.01,3
27791,56089269,0,1.63,0,-1.51,16.17,16.16,0,0.01,3
27833,56099032,0,1.63,0,-1.51,16.18,16.16,0,0.01,3
27878,56109484,0,1.63,0,-1.51,16.18,16.16,0,0.01,3
27919,56119789,0,1.63,0,-1.51,16.18,16.16,0,0.01,3
27959,56129965,0,1.63,0,-1.51,16.18,16.16,0,0.01,3
28000,56139899,0,1.63,0,-1.51,16.18,16.16,0,0.01,3
28038,56150163,0,1.63,0,-1.51,16.18,16.16,0,0.01,3
28076,56160410,0,1.63,0,-1.51,16.18,16.16,0,0.01,3
28116,56170254,0,1.63,0,-1.51,16.18,16.16,0,0.01,3
28162,56183033,0,1.63,0,-1.51,16.18,16.16,0,0.01,3
28203,56193735,0,1.63,0,-1.51,16.18,16.16,0,0.01,3
28244,56204030,0,1.63,0,-1.51,16.18,16.16,0,0.01,3
28291,56213996,0,1.64,0,-1.51,16.18,16.16,0,0.01,3
28332,56223970,0,1.64,0,-1.51,16.18,16.16,0,0.01,3
28373,56233949,0,1.64,0,-1.51,16.18,16.16,0,0.01,3
28414,56244222,0,1.64,0,-1.51,16.18,16.16,0,0.01,3
28451,56256777,0,1.64,0,-1.51,16.18,16.16,0,0.01,3
28494,56267312,0,1.64,0,-1.51,16.18,16.16,0,0.01,3
28535,56277356,0,1.64,0,-1.51,16.18,16.16,0,0.01,3
28575,56287752,0,1.64,0,-1.51,16.18,16.16,0,0.01,3
28617,56297351,0,1.64,0,-1.51,16.18,16.16,0,0.01,3
28657,56307912,0,1.64,0,-1.51,16.17,16.15,0,0.01,3
28703,56318402,0,1.64,0,-1.51,16.17,16.15,0,0.01,3
28743,56328734,0,1.64,0,-1.51,16.17,16.15,0,0.01,3
28784,56338500,0,1.64,0,-1.51,16.17,16.15,0,0.01,3
28825,56348737,0,1.64,0,-1.51,16.17,16.15,0,0.01,3
28863,56361499,0,1.64,0,-1.51,16.17,16.15,0,0.01,3
28904,56372496,0,1.64,0,-1.51,16.17,16.15,0,0.01,3
28944,56382812,0,1.64,0,-1.51,16.16,16.14,0,0.01,3
28988,56393426,0,1.64,0,-1.51,16.16,16.14,0,0.01,3
29028,56403705,0,1.64,0,-1.51,16.16,16.14,0,0.01,3
29069,56413900,0,1.63,0,-1.51,16.15,16.14,0,0.01,3
29115,56423793,0,1.63,0,-1.51,16.15,16.13,0,0.01,3
29155,56434199,0,1.63,0,-1.51,16.15,16.13,0,0.01,3
29196,56444452,0,1.63,0,-1.51,16.15,16.13,0,0.01,3
29236,56454384,0,1.63,0,-1.51,16.15,16.13,0,0.01,3
29271,56465013,0,1.63,0,-1.51,16.14,16.13,0,0.01,3
29312,56475404,0,1.63,0,-1.51,16.14,16.12,0,0.01,3
29352,56485291,0,1.63,0,-1.51,16.14,16.12,0,0.01,3
29394,56495259,0,1.63,0,-1.51,16.14,16.12,0,0.01,3
29435,56505006,0,1.63,0,-1.51,16.14,16.12,0,0.01,3
29476,56515218,0,1.63,0,-1.51,16.14,16.12,0,0.01,3
29521,56524993,0,1.64,0,-1.51,16.13,16.11,0,0.01,3
29561,56535450,0,1.64,0,-1.51,16.13,16.11,0,0.01,3
29603,56545452,0,1.64,0,-1.51,16.13,16.11,0,0.01,3
29643,56555464,0,1.64,0,-1.51,16.13,16.11,0,0.01,3
29681,56565575,0,1.64,0,-1.51,16.13,16.11,0,0.01,3
29725,56577949,0,1.63,0,-1.51,16.13,16.11,0,0.01,3
29768,56590464,0,1.63,0,-1.51,16.13,16.11,0,0.01,3
29809,56600798,0,1.63,0,-1.51,16.13,16.11,0,0.01,3
29850,56611298,0,1.63,0,-1.51,16.13,16.11,0,0.01,3
29895,56621478,0,1.63,0,-1.51,16.12,16.1,0,0.01,3
29935,56631998,0,1.63,0,-1.51,16.12,16.1,0,0.01,3
29976,56642300,0,1.63,0,-1.51,16.12,16.1,0,0.01,3
30016,56652704,0,1.63,0,-1.51,16.12,16.1,0,0.01,3
30058,56662780,0,1.64,0,-1.51,16.12,16.1,0,0.01,3
30093,56673747,0,1.64,0,-1.51,16.12,16.1,0,0.01,3
30134,56683933,0,1.64,0,-1.51,16.12,16.1,0,0.01,3
30174,56693812,0,1.64,0,-1.51,16.12,16.1,0,0.01,3
30215,56703937,0,1.64,0,-1.51,16.12,16.1,0,0.01,3
30257,56714155,0,1.64,0,-1.51,16.12,16.1,0,0.01,3
30302,56724468,0,1.64,0,-1.51,16.12,16.1,0,0.01,3
30342,56734826,0,1.64,0,-1.51,16.12,16.1,0,0.01,3
30383,56745013,0,1.64,0,-1.51,16.12,16.1,0,0.01,3
30424,56754804,0,1.64,0,-1.51,16.12,16.1,0,0.01,3
30463,56765255,0,1.64,0,-1.51,16.12,16.1,0,0.01,3
30502,56776187,0,1.64,0,-1.51,16.12,16.1,0,0.01,3
30544,56786479,0,1.64,0,-1.51,16.12,16.1,0,0.01,3
30584,56796116,0,1.64,0,-1.51,16.12,16.1,0,0.01,3
30625,56806592,0,1.64,0,-1.51,16.12,16.1,0,0.01,3
30666,56816088,0,1.64,0,-1.51,16.12,16.1,0,0.01,3
30711,56826446,0,1.64,0,-1.51,16.12,16.1,0,0.01,3
30752,56836182,0,1.64,0,-1.51,16.12,16.1,0,0.01,3
30792,56846177,0,1.64,0,-1.51,16.12,16.1,0,0.01,3
30834,56856742,0,1.64,0,-1.51,16.12,16.1,0,0.01,3
30871,56866954,0,1.64,0,-1.51,16.12,16.1,0,0.01,3
30912,56877780,0,1.64,0,-1.51,16.12,16.1,0,0.01,3
30950,56887981,0,1.64,0,-1.51,16.12,16.1,0,0.01,3
30990,56897841,0,1.64,0,-1.51,16.12,16.1,0,0.01,3
31032,56907976,0,1.64,0,-1.51,16.12,16.1,0,0.01,3
31072,56918263,0,1.64,0,-1.51,16.11,16.09,0,0.01,3
31118,56928715,0,1.64,0,-1.51,16.11,16.09,0,0.01,3
31159,56938924,0,1.64,0,-1.51,16.11,16.09,0,0.01,3
31200,56948839,0,1.64,0,-1.51,16.11,16.09,0,0.01,3
31242,56958846,0,1.64,0,-1.51,16.11,16.09,0,0.01,3
31281,56968954,0,1.64,0,-1.51,16.11,16.09,0,0.01,3
31321,56979813,0,1.64,0,-1.51,16.11,16.09,0,0.01,3
31361,56990026,0,1.64,0,-1.51,16.11,16.09,0,0.01,3
31402,57000001,0,1.64,0,-1.51,16.11,16.09,0,0.01,3
31443,57010018,0,1.64,0,-1.51,16.11,16.09,0,0.01,3
31483,57020040,0,1.64,0,-1.51,16.11,16.09,0,0.01,3
31530,57030388,0,1.64,0,-1.51,16.11,16.09,0,0.01,3
31570,57040314,0,1.64,0,-1.51,16.1,16.08,0,0.01,3
31611,57050263,0,1.64,0,-1.51,16.1,16.08,0,0.01,3
31652,57060491,0,1.64,0,-1.52,16.1,16.08,0,0.01,3
31690,57070850,0,1.64,0,-1.52,16.1,16.08,0,0.01,3
31731,57081231,0,1.64,0,-1.52,16.1,16.08,0,0.01,3
31771,57091375,0,1.64,0,-1.52,16.1,16.08,0,0.01,3
31811,57101682,0,1.64,0,-1.52,16.1,16.08,0,0.01,3
31852,57111813,0,1.64,0,-1.52,16.1,16.08,0,0.01,3
31893,57122295,0,1.64,0,-1.52,16.1,16.08,0,0.01,3
31938,57132093,0,1.64,0,-1.52,16.1,16.08,0,0,3
31983,57144394,0,1.64,0,-1.52,16.1,16.08,0,0,3
32024,57154934,0,1.64,0,-1.52,16.1,16.08,0,0,3
32064,57165162,0,1.64,0,-1.52,16.1,16.08,0,0,3
32108,57180266,0,1.64,0,-1.52,16.1,16.08,0,0,3
32151,57190852,0,1.64,0,-1.52,16.1,16.08,0,0,3
32192,57201313,0,1.64,0,-1.51,16.1,16.08,0,0,3
32233,57211807,0,1.64,0,-1.51,16.1,16.08,0,0,3
32273,57222060,0,1.64,0,-1.51,16.1,16.08,0,0,3
32324,57234484,0,1.64,0,-1.51,16.1,16.08,0,0.01,3
32366,57244913,0,1.64,0,-1.51,16.1,16.08,0,0.01,3
32407,57254806,0,1.64,0,-1.51,16.1,16.08,0,0.01,3
32450,57265045,0,1.64,0,-1.52,16.1,16.08,0,0.01,3
32487,57274838,0,1.64,0,-1.52,16.1,16.08,0,0.01,3
32524,57284968,0,1.64,0,-1.52,16.1,16.08,0,0.01,3
32565,57295228,0,1.64,0,-1.52,16.1,16.08,0,0.01,3
32605,57305710,0,1.64,0,-1.51,16.1,16.08,0,0.01,3
32646,57315069,0,1.64,0,-1.51,16.1,16.08,0,0.01,3
32686,57325195,0,1.64,0,-1.51,16.1,16.08,0,0.01,3
32732,57335175,0,1.64,0,-1.51,16.1,16.08,0,0,3
32772,57345684,0,1.64,0,-1.51,16.1,16.08,0,0,3
32814,57355678,0,1.64,0,-1.51,16.1,16.08,0,0,3
32854,57365064,0,1.64,0,-1.51,16.1,16.08,0,0,3
32892,57375254,0,1.64,0,-1.51,16.09,16.07,0,0,3
32931,57385738,0,1.64,0,-1.52,16.09,16.07,0,0,3
32971,57396227,0,1.64,0,-1.52,16.09,16.07,0,0,3
33012,57407010,0,1.64,0,-1.52,16.09,16.07,0,0,3
33052,57417441,0,1.64,0,-1.51,16.09,16.07,0,0,3
33093,57427707,0,1.64,0,-1.52,16.09,16.07,0,0,3
33140,57437980,0,1.64,0,-1.51,16.09,16.07,0,0,3
33180,57447965,0,1.64,0,-1.51,16.09,16.07,0,0,3
33221,57458229,0,1.64,0,-1.51,16.09,16.07,0,0,3
33267,57473194,0,1.64,0,-1.51,16.09,16.07,0,0,3
33305,57483959,0,1.64,0,-1.51,16.09,16.07,0,0,3
33347,57493966,0,1.64,0,-1.51,16.09,16.07,0,0,3
33387,57504274,0,1.64,0,-1.51,16.09,16.07,0,0,3
33428,57514075,0,1.64,0,-1.51,16.09,16.07,0,0,3
33468,57524032,0,1.64,0,-1.51,16.09,16.07,0,0,3
33510,57534225,0,1.64,0,-1.51,16.09,16.07,0,0,3
33554,57544440,0,1.64,0,-1.52,16.09,16.07,0,0,3
33596,57554801,0,1.64,0,-1.52,16.09,16.07,0,0,3
33637,57564792,0,1.65,0,-1.52,16.09,16.07,0,0,3
33677,57574878,0,1.65,0,-1.52,16.09,16.07,0,0,3
33719,57587912,0,1.65,0,-1.52,16.09,16.07,0,0,3
33761,57598424,0,1.65,0,-1.52,16.09,16.07,0,0,3
33802,57608908,0,1.64,0,-1.52,16.09,16.07,0,0,3
33843,57619004,0,1.64,0,-1.52,16.09,16.07,0,0,3
33883,57629025,0,1.64,0,-1.52,16.09,16.07,0,0,3
33931,57641235,0,1.64,0,-1.52,16.09,16.07,0,0,3
33973,57651802,0,1.64,0,-1.52,16.09,16.07,0,0,3
34014,57662459,0,1.64,0,-1.52,16.09,16.07,0,0,3
34055,57672870,0,1.64,0,-1.52,16.09,16.07,0,0,3
34095,57683166,0,1.64,0,-1.52,16.09,16.07,0,0,3
34136,57695707,0,1.64,0,-1.52,16.09,16.07,0,0,3
34178,57706416,0,1.64,0,-1.52,16.09,16.07,0,0,3
34218,57716926,0,1.64,0,-1.52,16.09,16.07,0,0,3
34259,57727089,0,1.64,0,-1.52,16.09,16.07,0,0,3
34299,57737072,0,1.64,0,-1.52,16.09,16.07,0,0,3
34346,57747454,0,1.64,0,-1.52,16.09,16.07,0,0,3
34388,57757794,0,1.64,0,-1.52,16.08,16.06,0,0,3
34429,57768042,0,1.64,0,-1.52,16.08,16.06,0,0,3
34471,57778082,0,1.64,0,-1.52,16.08,16.06,0,0,3
34509,57788765,0,1.64,0,-1.52,16.08,16.06,0,0,3
34550,57799045,0,1.64,0,-1.52,16.08,16.06,0,0,3
34590,57809274,0,1.64,0,-1.52,16.08,16.06,0,0,3
34632,57819939,0,1.64,0,-1.51,16.08,16.06,0,0,3
34672,57830425,0,1.64,0,-1.51,16.08,16.06,0,0,3
34713,57840443,0,1.64,0,-1.51,16.08,16.06,0,0,3
34758,57850828,0,1.64,0,-1.51,16.08,16.06,0,0,3
34799,57861413,0,1.64,0,-1.52,16.08,16.06,0,0,3
34841,57871963,0,1.64,0,-1.52,16.08,16.06,0,0,3
34881,57882334,0,1.64,0,-1.52,16.08,16.06,0,0,3
34923,57892397,0,1.64,0,-1.52,16.08,16.06,0,0,3
34960,57903266,0,1.64,0,-1.52,16.08,16.06,0,0,3
35001,57913766,0,1.64,0,-1.52,16.08,16.06,0,0,3
35042,57924050,0,1.64,0,-1.52,16.08,16.06,0,0,3
35083,57934068,0,1.64,0,-1.52,16.08,16.06,0,0,3
35126,57944231,0,1.64,0,-1.52,16.08,16.06,0,0,3
35170,57954048,0,1.64,0,-1.52,16.08,16.06,0,0,3
35213,57964712,0,1.64,0,-1.52,16.08,16.06,0,0,3
35255,57974770,0,1.64,0,-1.52,16.08,16.06,0,0,3
35298,57985167,0,1.64,0,-1.52,16.08,16.06,0,0,3
35335,57997745,0,1.64,0,-1.52,16.08,16.06,0,0,3
35376,58008188,0,1.64,0,-1.52,16.08,16.06,0,0,3
35417,58018281,0,1.64,0,-1.52,16.08,16.06,0,0,3
35458,58028572,0,1.64,0,-1.52,16.07,16.05,0,0,3
35498,58039040,0,1.64,0,-1.52,16.07,16.05,0,0,3
35540,58049716,0,1.64,0,-1.52,16.07,16.05,0,0,3
35584,58059743,0,1.64,0,-1.52,16.07,16.05,0,0,3
35626,58069351,0,1.64,0,-1.52,16.07,16.05,0,0,3
35666,58079761,0,1.64,0,-1.52,16.07,16.05,0,0,3
35704,58092445,0,1.64,0,-1.52,16.07,16.05,0,0,3
35745,58102829,0,1.64,0,-1.52,16.07,16.05,0,0,3
35786,58113240,0,1.64,0,-1.52,16.07,16.05,0,0,3
35827,58123777,0,1.64,0,-1.52,16.07,16.05,0,0,3
35867,58133863,0,1.64,0,-1.52,16.07,16.05,0,0,3
35908,58143928,0,1.64,0,-1.52,16.07,16.05,0,0,3
35952,58154411,0,1.64,0,-1.52,16.06,16.04,0,0,3
35995,58164264,0,1.64,0,-1.52,16.06,16.04,0,0,3
36039,58174697,0,1.64,0,-1.52,16.06,16.04,0,0,3
36079,58184924,0,1.64,0,-1.52,16.06,16.04,0,0,3
36120,58198158,0,1.64,0,-1.52,16.06,16.04,0,0,3
36160,58208410,0,1.64,0,-1.52,16.06,16.04,0,0,3
36201,58218683,0,1.64,0,-1.52,16.06,16.04,0,0,3
36241,58228321,0,1.64,0,-1.52,16.06,16.04,0,0,3
36282,58239045,0,1.64,0,-1.52,16.06,16.04,0,0,3
36325,58249352,0,1.64,0,-1.52,16.06,16.04,0,0,3
36372,58259566,0,1.64,0,-1.52,16.06,16.04,0,0,3
36413,58270026,0,1.64,0,-1.52,16.06,16.04,0,0,3
36454,58280774,0,1.64,0,-1.52,16.06,16.04,0,0,3
36495,58290708,0,1.64,0,-1.52,16.06,16.04,0,0,3
36535,58301309,0,1.64,0,-1.52,16.06,16.04,0,0,3
36577,58311719,0,1.64,0,-1.52,16.06,16.04,0,0,3
36617,58322001,0,1.64,0,-1.52,16.06,16.04,0,0,3
36658,58332493,0,1.64,0,-1.52,16.06,16.05,0,0,3
36699,58342779,0,1.64,0,-1.52,16.07,16.05,0,0,3
36739,58352790,0,1.64,0,-1.52,16.07,16.05,0,0,3
36785,58362789,0,1.64,0,-1.52,16.07,16.05,0,0.01,3
36825,58372976,0,1.64,0,-1.52,16.07,16.05,0,0.01,3
36872,58385841,0,1.64,0,-1.52,16.07,16.05,0,0.01,3
36913,58396234,0,1.64,0,-1.52,16.07,16.05,0,0.01,3
36951,58406198,0,1.64,0,-1.53,16.07,16.05,0,0.01,3
36988,58416162,0,1.64,0,-1.53,16.07,16.05,0,0.01,3
37029,58426195,0,1.64,0,-1.53,16.07,16.05,0,0.01,3
37070,58436727,0,1.64,0,-1.53,16.07,16.05,0,0.01,3
37111,58447059,0,1.64,0,-1.53,16.07,16.05,0,0.01,3
37151,58457710,0,1.64,0,-1.53,16.07,16.05,0,0.01,3
37196,58467835,0,1.64,0,-1.53,16.07,16.05,0,0.01,3
37236,58477779,0,1.64,0,-1.53,16.07,16.05,0,0.01,3
37279,58487983,0,1.64,0,-1.53,16.07,16.05,0,0.01,3
37323,58500403,0,1.64,0,-1.53,16.07,16.05,0,0.01,3
37360,58511175,0,1.64,0,-1.53,16.07,16.05,0,0.01,3
37401,58521223,0,1.64,0,-1.53,16.07,16.05,0,0.01,3
37442,58531809,0,1.64,0,-1.53,16.07,16.05,0,0.01,3
37483,58542234,0,1.64,0,-1.53,16.07,16.05,0,0.01,3
37523,58552293,0,1.64,0,-1.53,16.07,16.05,0,0.01,3
37564,58562293,0,1.64,0,-1.53,16.07,16.05,0,0.01,3
37609,58572779,0,1.64,0,-1.53,16.07,16.05,0,0,3
37649,58583023,0,1.64,0,-1.53,16.07,16.05,0,0,3
37693,58593217,0,1.64,0,-1.53,16.07,16.05,0,0,3
37734,58605818,0,1.64,0,-1.53,16.07,16.05,0,0,3
37772,58616474,0,1.64,0,-1.53,16.07,16.05,0,0,3
37813,58626968,0,1.64,0,-1.53,16.07,16.05,0,0,3
37853,58637210,0,1.64,0,-1.53,16.07,16.05,0,0,3
37894,58646982,0,1.64,0,-1.53,16.07,16.05,0,0,3
37935,58657703,0,1.64,0,-1.53,16.07,16.05,0,0,3
37980,58668176,0,1.64,0,-1.53,16.07,16.05,0,0,3
38020,58678241,0,1.64,0,-1.53,16.07,16.05,0,0.01,3
38064,58690448,0,1.64,0,-1.53,16.07,16.05,0,0.01,3
38106,58700811,0,1.64,0,-1.53,16.07,16.05,0,0.01,3
38149,58713815,0,1.64,0,-1.53,16.07,16.05,0,0.01,3
38191,58724231,0,1.64,0,-1.53,16.07,16.05,0,0.01,3
38232,58734912,0,1.64,0,-1.53,16.07,16.05,0,0.01,3
38274,58744866,0,1.64,0,-1.53,16.07,16.05,0,0.01,3
38315,58755071,0,1.64,0,-1.53,16.07,16.05,0,0.01,3
38355,58764902,0,1.64,0,-1.53,16.07,16.05,0,0.01,3
38402,58775779,0,1.64,0,-1.53,16.07,16.05,0,0.01,3
38442,58785877,0,1.64,0,-1.53,16.07,16.05,0,0.01,3
38484,58796271,0,1.64,0,-1.53,16.07,16.05,0,0.01,3
38532,58812427,0,1.64,0,-1.53,16.07,16.05,0,0.01,3
38573,58822920,0,1.64,0,-1.53,16.08,16.06,0,0.01,3
38614,58833160,0,1.64,0,-1.53,16.08,16.06,0,0.01,3
38655,58843192,0,1.64,0,-1.53,16.08,16.06,0,0.01,3
38695,58853464,0,1.64,0,-1.53,16.08,16.06,0,0.01,3
38736,58863807,0,1.64,0,-1.53,16.08,16.06,0,0.01,3
38780,58874044,0,1.64,0,-1.53,16.08,16.06,0,0.01,3
38821,58884156,0,1.64,0,-1.53,16.09,16.07,0,0.01,3
38862,58894213,0,1.64,0,-1.53,16.09,16.07,0,0.01,3
38903,58904425,0,1.64,0,-1.53,16.09,16.07,0,0.01,3
38945,58914844,0,1.64,0,-1.53,16.09,16.07,0,0.01,3
38985,58926226,0,1.64,0,-1.53,16.09,16.07,0,0.01,3
39026,58937028,0,1.64,0,-1.53,16.09,16.07,0,0.01,3
39067,58947422,0,1.64,0,-1.53,16.09,16.07,0,0.01,3
39108,58957390,0,1.64,0,-1.53,16.09,16.07,0,0.01,3
39149,58967715,0,1.64,0,-1.53,16.09,16.07,0,0.01,3
39195,58978050,0,1.64,0,-1.53,16.09,16.07,0,0.01,3
39236,58988707,0,1.64,0,-1.53,16.09,16.07,0,0.01,3
39276,58998742,0,1.64,0,-1.53,16.09,16.07,0,0.01,3
39320,59008794,0,1.64,0,-1.53,16.09,16.07,0,0.01,3
39361,59019170,0,1.64,0,-1.53,16.09,16.07,0,0.01,3
39401,59029304,0,1.64,0,-1.53,16.09,16.07,0,0.01,3
39442,59040048,0,1.64,0,-1.53,16.1,16.08,0,0.01,3
39482,59050693,0,1.64,0,-1.53,16.1,16.08,0,0.01,3
39523,59060791,0,1.64,0,-1.53,16.1,16.08,0,0.01,3
39563,59071050,0,1.64,0,-1.53,16.1,16.08,0,0.01,3
39609,59081238,0,1.64,0,-1.53,16.1,16.08,0,0.01,3
39649,59091059,0,1.65,0,-1.53,16.1,16.08,0,0.01,3
39690,59101474,0,1.65,0,-1.53,16.1,16.08,0,0.01,3
39731,59111877,0,1.65,0,-1.53,16.1,16.08,0,0.01,3
39776,59127740,0,1.64,0,-1.53,16.1,16.08,0,0.01,3
39817,59138031,0,1.64,0,-1.53,16.1,16.08,0,0.01,3
39858,59148274,0,1.64,0,-1.53,16.1,16.08,0,0.01,3
39898,59158064,0,1.64,0,-1.53,16.1,16.08,0,0.01,3
39939,59168800,0,1.65,0,-1.53,16.1,16.08,0,0.01,3
39981,59178811,0,1.65,0,-1.53,16.11,16.09,0,0.01,3
40027,59189279,0,1.65,0,-1.53,16.11,16.09,0,0.01,3
40068,59199085,0,1.65,0,-1.53,16.11,16.09,0,0.01,3
40109,59209945,0,1.65,0,-1.53,16.11,16.09,0,0.01,3
40149,59220416,0,1.65,0,-1.53,16.11,16.09,0,0.01,3
40191,59230858,0,1.65,0,-1.53,16.11,16.09,0,0.01,3
40233,59241299,0,1.65,0,-1.53,16.11,16.09,0,0.01,3
40275,59251455,0,1.65,0,-1.53,16.11,16.09,0,0.01,3
40316,59261511,0,1.65,0,-1.53,16.1,16.08,0,0.01,3
40356,59271905,0,1.65,0,-1.53,16.1,16.08,0,0.01,3
40397,59282016,0,1.65,0,-1.53,16.1,16.08,0,0.01,3
40443,59292315,0,1.65,0,-1.53,16.1,16.08,0,0.01,3
40485,59302935,0,1.65,0,-1.53,16.1,16.08,0,0.01,3
40526,59313251,0,1.64,0,-1.53,16.1,16.08,0,0.01,3
40567,59323320,0,1.64,0,-1.53,16.1,16.08,0,0.01,3
40605,59333995,0,1.64,0,-1.53,16.1,16.08,0,0.01,3
40648,59347056,0,1.64,0,-1.53,16.1,16.08,0,0.01,3
40690,59357196,0,1.65,0,-1.53,16.1,16.08,0,0.01,3
40731,59367456,0,1.65,0,-1.53,16.1,16.08,0,0.01,3
40773,59377790,0,1.65,0,-1.54,16.1,16.08,0,0.01,3
40814,59388162,0,1.65,0,-1.54,16.09,16.07,0,0.01,3
40858,59398483,0,1.65,0,-1.54,16.09,16.07,0,0.01,3
40900,59408854,0,1.65,0,-1.54,16.09,16.07,0,0.01,3
40940,59419034,0,1.65,0,-1.53,16.09,16.07,0,0.01,3
40982,59429036,0,1.65,0,-1.54,16.09,16.07,0,0.01,3
41023,59440067,0,1.65,0,-1.53,16.09,16.07,0,0.01,3
41064,59450433,0,1.65,0,-1.53,16.09,16.07,0,0.01,3
41105,59460315,0,1.65,0,-1.54,16.09,16.07,0,0.01,3
41145,59470590,0,1.65,0,-1.53,16.09,16.07,0,0.01,3
41186,59480982,0,1.65,0,-1.54,16.09,16.07,0,0.01,3
41226,59491269,0,1.65,0,-1.53,16.09,16.07,0,0.01,3
41271,59501638,0,1.65,0,-1.53,16.09,16.07,0,0.01,3
41313,59511818,0,1.65,0,-1.53,16.08,16.06,0,0.01,3
41354,59522428,0,1.65,0,-1.53,16.08,16.06,0,0.01,3
41395,59532279,0,1.65,0,-1.53,16.08,16.06,0,0.01,3
41432,59543077,0,1.65,0,-1.53,16.08,16.06,0,0.01,3
41473,59553784,0,1.65,0,-1.53,16.08,16.06,0,0.01,3
41513,59563933,0,1.65,0,-1.53,16.08,16.06,0,0.01,3
41554,59573944,0,1.65,0,-1.53,16.08,16.06,0,0.01,3
41598,59584421,0,1.65,0,-1.54,16.08,16.06,0,0.01,3
41638,59594421,0,1.65,0,-1.53,16.08,16.06,0,0.01,3
41683,59604268,0,1.65,0,-1.53,16.08,16.06,0,0.01,3
41723,59614747,0,1.65,0,-1.53,16.07,16.05,0,0.01,3
41766,59624967,0,1.65,0,-1.53,16.07,16.05,0,0.01,3
41806,59634771,0,1.64,0,-1.53,16.07,16.05,0,0.01,3
41844,59645361,0,1.64,0,-1.53,16.07,16.05,0,0.01,3
41884,59655006,0,1.64,0,-1.53,16.07,16.05,0,0.01,3
41925,59665426,0,1.64,0,-1.53,16.07,16.05,0,0.01,3
41966,59675373,0,1.65,0,-1.53,16.07,16.05,0,0.01,3
42007,59685420,0,1.65,0,-1.53,16.07,16.05,0,0.01,3
42048,59695033,0,1.65,0,-1.53,16.07,16.05,0,0.01,3
42093,59705080,0,1.65,0,-1.53,16.07,16.05,0,0.01,3
42134,59715433,0,1.65,0,-1.53,16.07,16.05,0,0.01,3
42175,59725711,0,1.65,0,-1.53,16.07,16.05,0,0.01,3
42217,59735680,0,1.65,0,-1.53,16.07,16.05,0,0.01,3
42253,59746312,0,1.65,0,-1.53,16.07,16.05,0,0.01,3
42294,59756767,0,1.65,0,-1.53,16.07,16.05,0,0.01,3
42334,59767245,0,1.65,0,-1.53,16.07,16.05,0,0.01,3
42375,59777824,0,1.65,0,-1.53,16.07,16.05,0,0.01,3
42418,59788394,0,1.65,0,-1.53,16.06,16.04,0,0.01,3
42459,59798468,0,1.64,0,-1.53,16.06,16.04,0,0.01,3
42504,59808821,0,1.64,0,-1.53,16.06,16.04,0,0.01,3
42544,59818947,0,1.64,0,-1.53,16.06,16.04,0,0.01,3
42586,59829444,0,1.64,0,-1.54,16.06,16.04,0,0.01,3
42629,59842036,0,1.65,0,-1.54,16.06,16.04,0,0.01,3
42671,59852571,0,1.65,0,-1.53,16.06,16.04,0,0.01,3
42714,59865465,0,1.65,0,-1.53,16.06,16.04,0,0.01,3
42755,59875703,0,1.65,0,-1.53,16.06,16.04,0,0.01,3
42796,59886084,0,1.65,0,-1.53,16.06,16.04,0,0.01,3
42837,59895980,0,1.65,0,-1.53,16.06,16.04,0,0.01,3
42882,59906396,0,1.65,0,-1.53,16.06,16.04,0,0.01,3
42922,59916082,0,1.65,0,-1.53,16.06,16.04,0,0.01,3
42963,59926315,0,1.65,0,-1.53,16.06,16.04,0,0.01,3
43003,59936203,0,1.65,0,-1.53,16.06,16.04,0,0.01,3
43048,59948700,0,1.65,0,-1.53,16.05,16.03,0,0.01,3
43089,59961804,0,1.65,0,-1.53,16.05,16.03,0,0.01,3
43134,59972708,0,1.65,0,-1.53,16.05,16.03,0,0.01,3
43176,59982905,0,1.65,0,-1.53,16.05,16.03,0,0.01,3
43217,59993059,0,1.65,0,-1.53,16.05,16.03,0,0.01,3
43257,60003052,0,1.65,0,-1.53,16.05,16.03,0,0.01,3
43301,60013079,0,1.65,0,-1.54,16.05,16.03,0,0.01,3
43343,60023409,0,1.65,0,-1.54,16.05,16.03,0,0.01,3
43383,60033404,0,1.65,0,-1.54,16.05,16.03,0,0.01,3
43424,60043529,0,1.65,0,-1.54,16.05,16.03,0,0.01,3
43461,60054036,0,1.65,0,-1.54,16.05,16.03,0,0.01,3
43505,60066234,0,1.66,0,-1.54,16.05,16.03,0,0.01,3
43547,60076786,0,1.66,0,-1.54,16.05,16.03,0,0.01,3
43588,60086850,0,1.66,0,-1.54,16.05,16.03,0,0.01,3
43628,60097032,0,1.66,0,-1.54,16.05,16.03,0,0.01,3
43672,60107433,0,1.65,0,-1.54,16.05,16.03,0,0.01,3
43713,60118183,0,1.65,0,-1.54,16.05,16.03,0,0.01,3
43754,60128709,0,1.65,0,-1.54,16.05,16.03,0,0.01,3
43795,60138199,0,1.65,0,-1.54,16.05,16.03,0,0.01,3
43835,60148169,0,1.65,0,-1.54,16.05,16.03,0,0.01,3
43869,60158847,0,1.65,0,-1.54,16.05,16.03,0,0.01,3
43910,60169426,0,1.65,0,-1.54,16.05,16.03,0,0.01,3
43954,60180043,0,1.65,0,-1.54,16.05,16.03,0,0.01,3
43995,60190700,0,1.65,0,-1.54,16.05,16.03,0,0.01,3
44036,60201182,0,1.65,0,-1.54,16.05,16.03,0,0.01,3
44081,60211827,0,1.66,0,-1.54,16.06,16.04,0,0.01,3
44122,60222787,0,1.66,0,-1.54,16.06,16.04,0,0.01,3
44165,60233196,0,1.65,0,-1.54,16.06,16.04,0,0.01,3
44205,60243788,0,1.65,0,-1.54,16.06,16.04,0,0.01,3
44247,60253881,0,1.65,0,-1.54,16.06,16.04,0,0.01,3
44288,60264214,0,1.65,0,-1.54,16.06,16.04,0,0.01,3
44329,60274734,0,1.65,0,-1.54,16.06,16.04,0,0.01,3
44371,60284260,0,1.65,0,-1.54,16.06,16.04,0,0.01,3
44412,60294252,0,1.65,0,-1.54,16.06,16.04,0,0.01,3
44454,60305051,0,1.65,0,-1.54,16.06,16.04,0,0.01,3
44501,60315702,0,1.65,0,-1.54,16.06,16.04,0,0.01,3
44541,60325683,0,1.65,0,-1.54,16.06,16.04,0,0,3
44582,60335970,0,1.65,0,-1.54,16.06,16.04,0,0,3
44622,60346468,0,1.65,0,-1.54,16.06,16.04,0,0,3
44664,60356469,0,1.65,0,-1.54,16.06,16.04,0,0,3
44701,60366682,0,1.65,0,-1.54,16.06,16.04,0,0,3
44742,60379082,0,1.66,0,-1.54,16.06,16.04,0,0,3
44786,60389430,0,1.66,0,-1.54,16.06,16.04,0,0,3
44826,60399484,0,1.65,0,-1.54,16.07,16.05,0,0,3
44868,60409859,0,1.65,0,-1.54,16.06,16.04,0,0,3
44912,60419931,0,1.65,0,-1.54,16.06,16.04,0,0.01,3
44953,60430038,0,1.65,0,-1.54,16.06,16.04,0,0.01,3
44993,60439804,0,1.65,0,-1.54,16.06,16.04,0,0.01,3
45034,60449965,0,1.65,0,-1.54,16.06,16.04,0,0.01,3
45076,60462843,0,1.65,0,-1.54,16.06,16.04,0,0.01,3
45117,60473372,0,1.65,0,-1.54,16.06,16.04,0,0.01,3
45157,60483773,0,1.65,0,-1.54,16.06,16.04,0,0.01,3
45199,60493839,0,1.65,0,-1.54,16.06,16.04,0,0.01,3
45239,60503974,0,1.65,0,-1.54,16.06,16.04,0,0.01,3
45280,60514582,0,1.65,0,-1.54,16.06,16.04,0,0.01,3
45324,60524971,0,1.65,0,-1.55,16.06,16.04,0,0.01,3
45366,60535028,0,1.65,0,-1.55,16.06,16.04,0,0.01,3
45406,60544867,0,1.65,0,-1.55,16.06,16.04,0,0.01,3
45447,60554724,0,1.65,0,-1.55,16.06,16.04,0,0.01,3
45481,60565705,0,1.65,0,-1.55,16.06,16.04,0,0.01,3
45522,60575975,0,1.65,0,-1.55,16.05,16.03,0,0.01,3
45565,60585975,0,1.65,0,-1.55,16.05,16.03,0,0.01,3
45607,60596246,0,1.65,0,-1.55,16.05,16.03,0,0.01,3
45648,60605973,0,1.65,0,-1.54,16.05,16.03,0,0.01,3
45688,60616378,0,1.64,0,-1.55,16.05,16.03,0,0.01,3
45734,60626754,0,1.64,0,-1.55,16.04,16.02,0,0.01,3
45774,60636940,0,1.64,0,-1.55,16.04,16.02,0,0.01,3
45815,60647197,0,1.64,0,-1.55,16.04,16.02,0,0.01,3
45856,60659937,0,1.64,0,-1.55,16.04,16.02,0,0.01,3
45893,60670063,0,1.65,0,-1.55,16.04,16.02,0,0.01,3
45934,60680285,0,1.65,0,-1.55,16.04,16.02,0,0.01,3
45974,60690049,0,1.65,0,-1.55,16.03,16.01,0,0.01,3
46015,60700076,0,1.65,0,-1.54,16.03,16.01,0,0.01,3
46057,60710683,0,1.65,0,-1.54,16.03,16.01,0,0.01,3
46097,60720036,0,1.65,0,-1.54,16.03,16.01,0,0.01,3
46144,60730054,0,1.65,0,-1.55,16.03,16.01,0,0.01,3
46184,60739981,0,1.65,0,-1.55,16.03,16.01,0,0.01,3
46226,60750716,0,1.65,0,-1.55,16.02,16,0,0.01,3
46266,60760792,0,1.65,0,-1.55,16.02,16,0,0.01,3
46310,60776770,0,1.64,0,-1.55,16.02,16,0,0.01,3
46350,60787119,0,1.64,0,-1.55,16.02,16,0,0.01,3
46392,60797975,0,1.64,0,-1.55,16.01,15.99,0,0.01,3
46434,60808441,0,1.65,0,-1.55,16.01,15.99,0,0.01,3
46476,60818797,0,1.65,0,-1.55,16.01,15.99,0,0.01,3
46520,60829155,0,1.65,0,-1.55,16.01,15.99,0,0.02,3
46561,60839156,0,1.65,0,-1.55,16.01,15.99,0,0.02,3
46602,60849174,0,1.65,0,-1.55,16.01,15.99,0,0.02,3
46643,60859415,0,1.65,0,-1.55,16,15.98,0,0.02,3
46680,60870056,0,1.65,0,-1.55,16,15.98,0,0.02,3
46721,60880047,0,1.65,0,-1.55,16,15.98,0,0.02,3
46763,60890223,0,1.65,0,-1.55,16,15.98,0,0.02,3
46800,60900207,0,1.65,0,-1.55,16,15.98,0,0.02,3
46841,60910698,0,1.65,0,-1.55,16,15.98,0,0.02,3
46881,60920221,0,1.65,0,-1.55,16,15.98,0,0.02,3
46927,60930903,0,1.65,0,-1.55,16,15.98,0,0.01,3
46968,60941048,0,1.65,0,-1.55,16,15.98,0,0.01,3
47009,60951005,0,1.65,0,-1.55,16,15.98,0,0.01,3
47050,60961397,0,1.65,0,-1.55,16,15.98,0,0.01,3
47088,60974904,0,1.65,0,-1.55,16,15.98,0,0.01,3
47133,60985081,0,1.65,0,-1.55,16.01,15.99,0,0.01,3
47173,60995419,0,1.65,0,-1.55,16.01,15.99,0,0.01,3
47214,61005346,0,1.65,0,-1.55,16.01,15.99,0,0.01,3
47255,61015545,0,1.65,0,-1.55,16.01,15.99,0,0.01,3
47296,61025889,0,1.65,0,-1.55,16.01,15.99,0,0.01,3
47342,61036298,0,1.65,0,-1.55,16.01,15.99,0,0.01,3
47382,61046708,0,1.65,0,-1.55,16.02,16,0,0.01,3
47423,61056192,0,1.65,0,-1.55,16.02,16,0,0.01,3
47467,61069033,0,1.65,0,-1.55,16.02,16,0,0.01,3
47504,61079976,0,1.65,0,-1.55,16.02,16,0,0.01,3
47545,61090599,0,1.65,0,-1.55,16.02,16,0,0.01,3
47586,61101024,0,1.65,0,-1.55,16.02,16,0,0.01,3
47627,61111205,0,1.65,0,-1.55,16.02,16,0,0.01,3
47667,61121404,0,1.65,0,-1.55,16.02,16,0,0.01,3
47708,61131980,0,1.65,0,-1.55,16.02,16,0,0.01,3
47755,61142416,0,1.65,0,-1.55,16.02,16,0,0.01,3
47795,61152516,0,1.65,0,-1.55,16.02,16,0,0.01,3
47836,61163007,0,1.65,0,-1.55,16.02,16,0,0.01,3
47876,61176055,0,1.65,0,-1.55,16.02,16,0,0.01,3
47917,61186449,0,1.65,0,-1.55,16.02,16,0,0.01,3
47961,61196559,0,1.65,0,-1.55,16.02,16,0,0.01,3
48001,61206817,0,1.65,0,-1.55,16.02,16,0,0.01,3
48042,61217071,0,1.65,0,-1.55,16.02,16,0,0.01,3
48084,61227081,0,1.65,0,-1.55,16.02,16,0,0.01,3
48128,61237696,0,1.65,0,-1.55,16.02,16,0,0.01,3
48168,61248055,0,1.65,0,-1.55,16.02,16,0,0.01,3
48211,61257746,0,1.65,0,-1.55,16.02,16,0,0.01,3
48252,61268205,0,1.65,0,-1.55,16.01,15.99,0,0.01,3
48289,61281243,0,1.65,0,-1.55,16.01,15.99,0,0.01,3
48330,61291767,0,1.65,0,-1.55,16.01,15.99,0,0.01,3
48371,61301976,0,1.65,0,-1.55,16.01,15.99,0,0.01,3
48412,61312453,0,1.65,0,-1.55,16.01,15.99,0,0.01,3
48453,61322797,0,1.65,0,-1.55,16.02,16,0,0.01,3
48494,61333077,0,1.65,0,-1.55,16.01,15.99,0,0.01,3
48541,61343464,0,1.65,0,-1.55,16.01,15.99,0,0.01,3
48582,61353914,0,1.65,0,-1.55,16.01,15.99,0,0.01,3
48626,61363992,0,1.65,0,-1.55,16.01,15.99,0,0.01,3
48666,61373997,0,1.65,0,-1.55,16.01,15.99,0,0.01,3
48704,61384287,0,1.65,0,-1.55,16.01,15.99,0,0.01,3
48743,61394859,0,1.65,0,-1.55,16.01,15.99,0,0.01,3
48786,61407320,0,1.65,0,-1.55,16.01,15.99,0,0.01,3
48828,61417462,0,1.65,0,-1.55,16.01,15.99,0,0.01,3
48868,61427553,0,1.65,0,-1.55,16.01,15.99,0,0.01,3
48909,61438190,0,1.65,0,-1.55,16.01,15.99,0,0.01,3
48954,61448784,0,1.65,0,-1.55,16.01,15.99,0,0.01,3
48996,61458950,0,1.65,0,-1.55,16.01,15.99,0,0.01,3
49037,61468930,0,1.65,0,-1.55,16.01,15.99,0,0.01,3
49077,61478929,0,1.66,0,-1.55,16.01,15.99,0,0.01,3
49117,61489215,0,1.66,0,-1.56,16.01,15.99,0,0.01,3
49157,61499693,0,1.66,0,-1.56,16.01,15.99,0,0.01,3
49198,61509439,0,1.66,0,-1.56,16.01,15.99,0,0.01,3
49239,61519769,0,1.65,0,-1.56,16.01,15.99,0,0.01,3
49279,61529913,0,1.65,0,-1.56,16.01,15.99,0,0.01,3
49321,61540450,0,1.65,0,-1.56,16.01,15.99,0,0.01,3
49365,61550949,0,1.65,0,-1.56,16.01,15.99,0,0.01,3
49406,61561251,0,1.65,0,-1.56,16.01,15.99,0,0.01,3
49448,61571083,0,1.65,0,-1.56,16.01,15.99,0,0.01,3
49491,61581260,0,1.65,0,-1.56,16.01,15.99,0,0.01,3
49532,61594090,0,1.65,0,-1.56,16.01,15.99,0,0.01,3
49572,61604894,0,1.65,0,-1.56,16.01,15.99,0,0.01,3
49613,61615264,0,1.65,0,-1.56,16.01,15.99,0,0.01,3
49653,61625475,0,1.65,0,-1.56,16.01,15.99,0,0.01,3
49694,61635185,0,1.66,0,-1.56,16.01,15.99,0,0.01,3
49736,61645007,0,1.66,0,-1.56,16.01,15.99,0,0.01,3
49780,61655084,0,1.66,0,-1.56,16.01,15.99,0,0,3
49821,61665461,0,1.66,0,-1.56,16.01,15.99,0,0,3
49862,61675482,0,1.66,0,-1.56,16.01,15.99,0,0,3
49903,61685169,0,1.66,0,-1.56,16.01,15.99,0,0,3
49938,61696168,0,1.66,0,-1.56,16.01,15.99,0,0,3
49979,61705809,0,1.65,0,-1.56,16.01,15.99,0,0,3
50020,61716024,0,1.65,0,-1.56,16.01,15.99,0,0,3
50063,61725897,0,1.65,0,-1.56,16.01,15.99,0,0,3
50103,61736285,0,1.65,0,-1.56,16.01,15.99,0,0,3
50145,61746510,0,1.65,0,-1.56,16.01,15.99,0,0,3
50189,61756193,0,1.65,0,-1.56,16.01,15.99,0,0,3
50230,61766767,0,1.65,0,-1.56,16.01,15.99,0,0,3
50270,61776865,0,1.65,0,-1.56,16.01,15.99,0,0,3
50314,61787169,0,1.66,0,-1.56,16.01,15.99,0,0,3
50358,61799765,0,1.66,0,-1.56,16.01,15.99,0,0,3
50401,61812014,0,1.66,0,-1.56,16.01,15.99,0,0,3
50447,61824708,0,1.66,0,-1.56,16.01,15.99,0,0,3
50487,61835194,0,1.66,0,-1.56,16.01,15.99,0,0,3
50528,61845410,0,1.66,0,-1.56,16.01,15.99,0,0,3
50572,61855716,0,1.66,0,-1.56,16.01,15.99,0,0,3
50613,61865438,0,1.66,0,-1.56,16.01,15.99,0,0,3
50654,61875461,0,1.66,0,-1.56,16.01,15.99,0,0,3
50695,61885746,0,1.66,0,-1.56,16.01,15.99,0,0,3
50737,61901413,0,1.66,0,-1.56,16.01,15.99,0,0,3
50778,61911424,0,1.66,0,-1.56,16.01,15.99,0,0,3
50818,61921977,0,1.66,0,-1.56,16.01,15.99,0,0,3
50859,61932780,0,1.66,0,-1.56,16.01,15.99,0,0,3
50900,61943053,0,1.66,0,-1.56,16.01,15.99,0,0,3
50945,61953195,0,1.66,0,-1.56,16.01,15.99,0,0,3
50985,61963270,0,1.66,0,-1.56,16.01,15.99,0,0,3
51026,61973407,0,1.66,0,-1.56,16.01,15.99,0,0,3
51068,61983755,0,1.66,0,-1.56,16,15.98,0,0,3
51113,61994011,0,1.66,0,-1.56,16,15.98,0,0,3
51148,62004806,0,1.66,0,-1.57,16,15.98,0,0,3
