LineNo,TimeUS,ThI,ABst,ThO,ThH,DAlt,Alt,BAlt,DSAlt,SAlt,TAlt,DCRt,CRt
553,49129167,0,0,0,0.2585996,0,-0.7569742,-0.77,NaN,0,0.4173853,0,8
1708,49484720,0,0,0,0.2585996,0,-0.6637658,-0.65,NaN,0,0.511242,0,58
2122,49585954,0,0,0,0.2585996,0,-0.6072269,-0.84,NaN,0,0.567781,0,58
2504,49688187,0,0,0,0.2585996,0,-0.5514462999999999,-0.78,NaN,0,0.6235616,0,58
2915,49789414,0,0,0,0.2585996,0,-0.498748,-0.91,NaN,0,0.676092,0,58
3334,49891702,0,0,0,0.2585996,0,-0.4494283,-0.9,NaN,0,0.7254118000000001,0,58
3749,49993391,0,0,0,0.2585996,0,-0.4047,-0.88,NaN,0,0.7709488,0,58
4157,50095290,0,0,0,0.2585996,0,-0.3613055,-0.91,NaN,0,0.8143433,0,57
4569,50195969,0,0,0,0.2585996,0,-0.3231986,-0.78,NaN,0,0.8524501,0,57
4981,50297945,0,0,0,0.2585996,0,-0.2875893,-1.09,NaN,0,0.8878917,0,56
5390,50399306,0,0,0,0.2585996,0,-0.255603,-0.76,NaN,0,0.9215029,0,56
5768,50500280,0,0,0,0.2585996,0,-0.224645,-0.92,NaN,0,0.9524609000000001,0,55
6175,50601796,0,0,0,0.2585996,0,-0.1971442,-0.74,NaN,0,0.9805187,0,54
6581,50703164,0,0,0,0.2585996,0,-0.1686695,-0.64,NaN,0,1.008994,0,54
6964,50805185,0,0,0,0.2585996,0,-0.1430435,-0.79,NaN,0,1.036077,0,53
7379,50906552,0,0,0,0.2585996,0,-0.1154734,-1.18,NaN,0,1.063647,0,52
7792,51008787,0,0,0,0.2585996,0,-0.09355598,-0.96,NaN,0,1.086297,0,52
8202,51109271,0,0,0,0.2585996,0,-0.07744452,-0.57,NaN,0,1.102408,0,51
8613,51210315,0,0,0,0.2585996,0,-0.05966557,-1.04,NaN,0,1.121637,0,50
8993,51312500,0,0,0,0.2585996,0,-0.04473748,-1.08,NaN,0,1.136565,0,49
9401,51414015,0,0,0,0.2585996,0,-0.03548941,-0.93,NaN,0,1.145813,0,48
9754,51514873,0,0,0,0.2585996,0,-0.02875858,-1.14,NaN,0,1.152544,0,47
10166,51615901,0,0,0,0.2585996,0,-0.02537665,-0.98,NaN,0,1.15649,0,46
10577,51716822,0,0,0,0.2585996,0,-0.02529367,-0.75,NaN,0,1.156573,0,45
10986,51820157,0,0,0,0.2585996,0,-0.0268187,-0.85,NaN,0,1.157306,0,44
11397,51921802,0,0,0,0.2585996,0,-0.02241154,-0.88,NaN,0,1.161713,0,43
11810,52023048,0,0,0,0.2585996,0,-0.01919505,-0.98,NaN,0,1.16493,0,42
12193,52124822,0,0,0,0.2585996,-0.017426,-0.017426,-0.91,NaN,0,1.166699,41,41
12603,52227822,0,0,0,0.2585996,-0.01747749,-0.01747749,-1.07,NaN,0,1.168921,40,40
13012,52330283,0,0,0,0.2585996,-0.02554932,-0.02554932,-1.05,NaN,0,1.160849,39,39
13395,52432758,0,0,0,0.2585996,-0.03147825,-0.03147825,-1.16,NaN,0,1.157987,38,38
13803,52534880,0,0,0,0.2585996,-0.04458429,-0.04458429,-0.84,NaN,0,1.144881,37,37
14216,52636444,0,0,0,0.2585996,-0.05193808,-0.05193808,-0.9,NaN,0,1.138168,36,36
14626,52738996,0,0,0,0.2585996,-0.05798172,-0.05798172,-1.18,NaN,0,1.132125,34,34
15012,52842438,0,0,0,0.2585996,-0.06892709,-0.06892709,-0.9,NaN,0,1.122629,33,33
15421,52944029,0,0,0,0.2585996,-0.08380884,-0.08380884,-0.98,NaN,0,1.107747,32,32
15831,53046805,0,0,0,0.2585996,-0.09339181000000001,-0.09339181000000001,-1.12,NaN,0,1.098813,31,31
16237,53149054,0,0,0,0.2585996,-0.104707,-0.104707,-1.02,NaN,0,1.087497,30,30
16650,53251191,0,0,0,0.2585996,-0.1234148,-0.1234148,-1.06,NaN,0,1.070247,28,28
17034,53354699,0,0,0,0.2585996,-0.138409,-0.138409,-1.08,NaN,0,1.055253,27,27
17445,53455958,0,0,0,0.2585996,-0.1551467,-0.1551467,-1.21,NaN,0,1.038515,26,26
17849,53558312,0,0,0,0.2585996,-0.1728192,-0.1728192,-1,NaN,0,1.020843,25,25
18230,53660016,0,0,0,0.2585996,-0.1919844,-0.1919844,-1.22,NaN,0,1.002494,24,24
18637,53762716,0,0,0,0.2585996,-0.2175766,-0.2175766,-1.16,NaN,0,0.9769015,22,22
19047,53864731,0,0,0,0.2585996,-0.2397465,-0.2397465,-1.14,NaN,0,0.9569898999999999,21,21
19459,53966685,0,0,0,0.2585996,-0.2615915,-0.2615915,-0.96,NaN,0,0.935145,19,19
19841,54067819,0,0,0,0.2585996,-0.2831644,-0.2831644,-1.16,NaN,0,0.9143807,18,18
20253,54171240,0,0,0,0.2585996,-0.3053821,-0.3053821,-0.84,NaN,0,0.892163,17,17
20664,54273183,0,0,0,0.2585996,-0.3255869,-0.3255869,-1.13,NaN,0,0.8733315,16,16
21043,54375279,0,0,0,0.2585996,-0.3458326,-0.3458326,-1.24,NaN,0,0.8530859,15,15
21451,54477452,0,0,0,0.2585996,-0.3684055,-0.3684055,-1.19,NaN,0,0.830345,14,14
21829,54580300,0,0,0,0.2585996,-0.3974217,-0.3974217,-0.92,NaN,0,0.8013288,12,12
22242,54681932,0,0,0,0.2585996,-0.4194951,-0.4194951,-0.83,NaN,0,0.7791792,11,11
22652,54784186,0,0,0,0.2585996,-0.4371805,-0.4371805,-1.1,NaN,0,0.7597085,10,10
23062,54885575,0,0,0,0.2585996,-0.4551607,-0.4551607,-0.75,NaN,0,0.7417283,10,10
23473,54987160,0,0,0,0.2585996,-0.4709808,-0.4709808,-1.22,NaN,0,0.7259082,9,9
23885,55088971,0,0,0,0.2585996,-0.4885291,-0.4885291,-1.19,NaN,0,0.709985,8,8
24268,55190993,0,0,0,0.2585996,-0.5099285,-0.5099285,-0.96,NaN,0,0.6893867,7,7
24682,55294015,0,0,0,0.2585996,-0.5338211,-0.5338211,-1.06,NaN,0,0.6654941,6,6
25070,55395455,0,0,0,0.2585996,-0.5539052,-0.5539052,-0.85,NaN,0,0.6451734,5,5
25475,55497757,0,0,0,0.2585996,-0.5710999,-0.5710999,-1.12,NaN,0,0.6279787999999999,4,4
25855,55599844,0,0,0,0.2585996,-0.5889368,-0.5889368,-0.86,NaN,0,0.6117593,3,3
26262,55702884,0,0,0,0.2585996,-0.6082286,-0.6082286,-1.16,NaN,0,0.5924674,2,2
26672,55805069,0,0,0,0.2585996,-0.624714,-0.624714,-0.91,NaN,0,0.5767908,1,1
27081,55906389,0,0,0,0.2585996,-0.643409,-0.643409,-1.13,NaN,0,0.5580958,1,1
27491,56008714,0,0,0,0.2585996,-0.6650051,-0.6650051,-0.67,NaN,0,0.5363318,0,0
27874,56109217,0,0,0,0.2585996,-0.6801361,-0.6801361,-0.97,NaN,0,0.5212008,0,0
28282,56211083,0,0,0,0.2585996,-0.693898,-0.693898,-1.22,NaN,0,0.50647,-1,-1
28692,56313172,0,0,0,0.2585996,-0.7109997,-0.7109997,-0.97,NaN,0,0.4893683,-1,-1
29100,56416237,0,0,0,0.2585996,-0.7292371,-0.7292371,-0.99,NaN,0,0.4711309,-2,-2
29507,56518070,0,0,0,0.2585996,-0.7471411,-0.7471411,-1.21,NaN,0,0.4532269,-3,-3
29888,56619007,0,0,0,0.2585996,-0.7672749,-0.7672749,-1.05,NaN,0,0.433734,-4,-4
30294,56721918,0,0,0,0.2585996,-0.788385,-0.788385,-1.04,NaN,0,0.4126239,-4,-4
30703,56823892,0,0,0,0.2585996,-0.8087633,-0.8087633,-0.92,NaN,0,0.3922455,-5,-5
31111,56925799,0,0,0,0.2585996,-0.8273509999999999,-0.8273509999999999,-0.98,NaN,0,0.3736579,-6,-6
31523,57027950,0,0,0,0.2585996,-0.844669,-0.844669,-1.09,NaN,0,0.3563398,-6,-6
31930,57130006,0,0,0,0.2585996,-0.8636347,-0.8636347,-1.16,NaN,0,0.3373742,-7,-7
32315,57232819,0,0,0,0.2585996,-0.8833325,-0.8833325,-1.28,NaN,0,0.3175162,-8,-8
32725,57333381,0,0,0,0.2585996,-0.9056902999999999,-0.9056902999999999,-1.24,NaN,0,0.2951584,-9,-9
33133,57435758,0,0,0,0.2585996,-0.9301741,-0.9301741,-1.15,NaN,0,0.2695378,-9,-9
33541,57536942,0,0,0,0.2585996,-0.9538398,-0.9538398,-1.24,NaN,0,0.245872,-10,-10
33924,57639468,0,0,0,0.2585996,-0.979834,-0.979834,-1,NaN,0,0.2198778,-11,-11
34334,57742485,0,0,0,0.2585996,-1.001947,-1.001947,-1.02,NaN,0,0.1977652,-12,-12
34747,57845810,0,0,0,0.2585996,-1.022086,-1.022086,-1.23,NaN,0,0.1777935,-12,-12
35160,57949324,0,0,0,0.2585996,-1.042365,-1.042365,-1.4,NaN,0,0.1575144,-13,-13
35571,58052005,0,0,0,0.2585996,-1.066532,-1.066532,-1.06,NaN,0,0.1354454,-13,-13
35948,58154194,0,0,0,0.2585996,-1.088424,-1.088424,-1.22,NaN,0,0.1135537,-14,-14
36363,58257033,0,0,0,0.2585996,-1.110644,-1.110644,-1.09,NaN,0,0.09295127,-14,-14
36778,58360317,0,0,0,0.2585996,-1.131093,-1.131093,-1.06,NaN,0,0.07250223,-15,-15
37185,58462998,0,0,0,0.2585996,-1.149497,-1.149497,-1.21,NaN,0,0.05426618,-15,-15
37595,58564734,0,0,0,0.2585996,-1.168074,-1.168074,-1.32,NaN,0,0.03568885,-16,-16
37976,58667981,0,0,0,0.2585996,-1.188479,-1.188479,-0.95,NaN,0,0.01689419,-16,-16
38390,58769897,0,0,0,0.2585996,-1.206579,-1.206579,-0.97,NaN,0,-0.00120607,-17,-17
38776,58873812,0,0,0,0.2585996,-1.220693,-1.220693,-1.13,NaN,0,-0.01467112,-17,-17
39191,58977909,0,0,0,0.2585996,-1.234057,-1.234057,-0.9,NaN,0,-0.02803567,-17,-17
39605,59081032,0,0,0,0.2585996,-1.245017,-1.245017,-1.19,NaN,0,-0.03754595,-17,-17
40015,59184312,0,0,0,0.2585996,-1.255944,-1.255944,-0.99,NaN,0,-0.04847279,-18,-18
40431,59287295,0,0,0,0.2585996,-1.266953,-1.266953,-1.26,NaN,0,-0.05948165,-18,-18
40845,59390966,0,0,0,0.2585996,-1.278907,-1.278907,-1.28,NaN,0,-0.07159606,-18,-18
41257,59494242,0,0,0,0.2585996,-1.29465,-1.29465,-1,NaN,0,-0.08733931,-18,-18
41669,59597234,0,0,0,0.2585996,-1.308494,-1.308494,-0.77,NaN,0,-0.1011828,-19,-19
42079,59697768,0,0,0,0.2585996,-1.316542,-1.316542,-1,NaN,0,-0.1092316,-19,-19
42490,59801037,0,0,0,0.2585996,-1.322557,-1.322557,-1.07,NaN,0,-0.1154906,-19,-19
42875,59903717,0,0,0,0.2585996,-1.328752,-1.328752,-0.67,NaN,0,-0.1216851,-19,-19
43288,60005950,0,0,0,0.2585996,-1.330738,-1.330738,-0.9,NaN,0,-0.1226183,-19,-19
43668,60107233,0,0,0,0.2585996,-1.329961,-1.329961,-0.84,NaN,0,-0.1218416,-19,-19
44077,60211686,0,0,0,0.2585996,-1.326227,-1.326227,-1.24,NaN,0,-0.1183516,-18,-18
44495,60315193,0,0,0,0.2585996,-1.32892,-1.32892,-1.16,NaN,0,-0.1210447,-18,-18
44905,60417395,0,0,0,0.2585996,-1.334864,-1.334864,-1.14,NaN,0,-0.1278814,-18,-18
45314,60519829,0,0,0,0.2585996,-1.342178,-1.342178,-1.14,NaN,0,-0.135195,-18,-18
45724,60621841,0,0,0,0.2585996,-1.349261,-1.349261,-0.93,NaN,0,-0.1440556,-18,-18
46130,60723081,0,0,0,0.2585996,-1.355388,-1.355388,-0.9399999999999999,NaN,0,-0.1501831,-19,-19
46513,60826170,0,0,0,0.2585996,-1.360606,-1.360606,-0.9,NaN,0,-0.1554008,-19,-19
46920,60927878,0,0,0,0.2585996,-1.363032,-1.363032,-1.14,NaN,0,-0.1578274,-19,-19
47331,61030972,0,0,0,0.2585996,-1.36506,-1.36506,-1.13,NaN,0,-0.1600149,-19,-19
47739,61134722,0,0,0,0.2585996,-1.370505,-1.370505,-1.19,NaN,0,-0.1654605,-19,-19
48124,61237412,0,0,0,0.2585996,-1.376698,-1.376698,-0.9,NaN,0,-0.1718974,-18,-18
48532,61340303,0,0,0,0.2585996,-1.381748,-1.381748,-1.03,NaN,0,-0.1769476,-19,-19
48944,61443765,0,0,0,0.2585996,-1.384512,-1.384512,-1.01,NaN,0,-0.1797114,-18,-18
49355,61545485,0,0,0,0.2585996,-1.387863,-1.387863,-0.64,NaN,0,-0.1830626,-18,-18
49767,61647936,0,0,0,0.2585996,-1.387141,-1.387141,-0.85,NaN,0,-0.1825009,-18,-18
50176,61749079,0,0,0,0.2585996,-1.38311,-1.38311,-1.12,NaN,0,-0.1784699,-18,-18
50562,61850354,0,0,0,0.2585996,-1.380506,-1.380506,-0.86,NaN,0,-0.1760254,-18,-18
50941,61952990,0,0,0,0.2585996,-1.378083,-1.378083,-0.66,NaN,0,-0.1736024,-18,-18
51352,62056087,0,0,0,0.2585996,-1.369228,-1.369228,-1.15,NaN,0,-0.1631455,-18,-18
51762,62158966,0,0,0,0.2585996,-1.365989,-1.365989,-0.67,NaN,0,-0.1599068,-17,-17
52171,62261394,0,0,0,0.2585996,-1.3613,-1.3613,-0.79,NaN,0,-0.1543932,-17,-17
52582,62365274,0,0,0,0.2585996,-1.354205,-1.354205,-0.88,NaN,0,-0.1472988,-17,-17
52993,62468966,0,0,0,0.2585996,-1.344149,-1.344149,-0.63,NaN,0,-0.1372429,-17,-17
53402,62570471,0,0,0,0.2585996,-1.334219,-1.334219,-0.96,NaN,0,-0.1273125,-16,-16
53813,62672949,0,0,0,0.2585996,-1.326339,-1.326339,-0.67,NaN,0,-0.1194328,-16,-16
54198,62773691,0,0,0,0.2585996,-1.317275,-1.317275,-0.98,NaN,0,-0.110369,-16,-16
54606,62875458,0,0,0,0.2585996,-1.309614,-1.309614,-0.53,NaN,0,-0.1035315,-15,-15
55020,62977705,0,0,0,0.2585996,-1.296502,-1.296502,-0.97,NaN,0,-0.09186175000000001,-15,-15
55432,63081804,0,0,0,0.2585996,-1.288331,-1.288331,-0.8,NaN,0,-0.08369032,-15,-15
55843,63183026,0,0,0,0.2585996,-1.280988,-1.280988,-0.83,NaN,0,-0.07717183,-15,-15
56253,63285758,0,0,0,0.2585996,-1.271331,-1.271331,-0.88,NaN,0,-0.06751480999999999,-14,-14
56662,63388936,0,0,0,0.2585996,-1.264948,-1.264948,-0.76,NaN,0,-0.06290117000000001,-14,-14
57045,63490602,0,0,0,0.2585996,-1.258424,-1.258424,-0.89,NaN,0,-0.0563772,-14,-14
57453,63592792,0,0,0,0.2585996,-1.249719,-1.249719,-0.54,NaN,0,-0.04767206,-13,-13
57832,63693876,0,0,0,0.2585996,-1.240094,-1.240094,-0.83,NaN,0,-0.03804746,-13,-13
57875,70513463,0,0,0,0.2585996,-0.9731031999999999,-0.9731031999999999,-0.85,NaN,0,0.006896812,-6,-6
58293,70614909,0,0,0,0.2585996,-0.9754688,-0.9754688,-0.92,NaN,0,0.004691441,-5,-5
58747,70716807,0,0,0,0.2585996,-0.9783226,-0.9783226,-1,NaN,0,0.00183757,-5,-5
59196,70817780,0,0,0,0.2585996,-0.9826481,-0.9826481,-0.73,NaN,0,-0.00410537,-5,-5
59650,70919741,0,0,0,0.2585996,-0.9880641999999999,-0.9880641999999999,-0.77,NaN,0,-0.009521465999999999,-5,-5
60100,71023297,0,0,0,0.2585996,-0.9934089,-0.9934089,-1.17,NaN,0,-0.01567493,-5,-5
60552,71125962,0,0,0,0.2585996,-1.000275,-1.000275,-1.09,NaN,0,-0.02254133,-5,-5
61001,71229038,0,0,0,0.2585996,-1.007434,-1.007434,-1.11,NaN,0,-0.0297002,-6,-6
61453,71329969,0,0,0,0.2585996,-1.014657,-1.014657,-1.23,NaN,0,-0.03692309,-6,-6
61871,71434074,0,0,0,0.2585996,-1.021017,-1.021017,-0.8100000000000001,NaN,0,-0.0440915,-6,-6
62320,71536309,0,0,0,0.2585996,-1.024487,-1.024487,-0.89,NaN,0,-0.04756145,-6,-6
62766,71640824,0,0,0,0.2585996,-1.025814,-1.025814,-0.89,NaN,0,-0.04905609,-6,-6
63187,71743388,0,0,0,0.2585996,-1.026665,-1.026665,-1.18,NaN,0,-0.05152516,-5,-5
63635,71846003,0,0,0,0.2585996,-1.029594,-1.029594,-1.02,NaN,0,-0.05445437,-5,-5
64088,71949022,0,0,0,0.2585996,-1.033448,-1.033448,-0.92,NaN,0,-0.05830781,-5,-5
64537,72053408,0,0,0,0.2585996,-1.03482,-1.03482,-0.97,NaN,0,-0.0604885,-5,-5
64957,72154581,0,0,0,0.2585996,-1.036623,-1.036623,-0.86,NaN,0,-0.06390957999999999,-5,-5
65406,72258468,0,0,0,0.2585996,-1.035921,-1.035921,-0.79,NaN,0,-0.0632066,-5,-5
65858,72361417,0,0,0,0.2585996,-1.034834,-1.034834,-0.82,NaN,0,-0.06293683,-5,-5
66307,72464735,0,0,0,0.2585996,-1.033766,-1.033766,-0.97,NaN,0,-0.06347862999999999,-5,-5
66760,72566702,0,0,0,0.2585996,-1.034836,-1.034836,-1.08,NaN,0,-0.06454854,-5,-5
67178,72670069,0,0,0,0.2585996,-1.035479,-1.035479,-0.9399999999999999,NaN,0,-0.0660073,-5,-5
67630,72774430,0,0,0,0.2585996,-1.037521,-1.037521,-0.84,NaN,0,-0.06885806999999999,-4,-4
68080,72877023,0,0,0,0.2585996,-1.037796,-1.037796,-0.9399999999999999,NaN,0,-0.06913308999999999,-4,-4
68534,72980076,0,0,0,0.2585996,-1.038468,-1.038468,-0.82,NaN,0,-0.07142237999999999,-4,-4
68983,73082994,0,0,0,0.2585996,-1.039281,-1.039281,-0.74,NaN,0,-0.07223539,-4,-4
69402,73184975,0.01624988,1.276471e-05,0.002664124,0.2585996,-1.039564,-1.039564,-0.83,NaN,0,-0.07357149,-4,-4
69843,73290308,0.06374939,4.842877e-05,0.03153387,0.2585996,-1.03686,-1.03686,-0.89,NaN,0,-0.07249264,-2,-2
70255,73396860,0.111249,8.283556e-05,0.07506568,0.2585996,-1.035079,-1.035079,-0.96,NaN,0,-0.07151251,-3,-3
70707,73501056,0.1612488,0.0001237094,0.1216932,0.2585996,-1.035855,-1.035855,-1.13,NaN,0,-0.0724564,-3,-3
71153,73606966,0.2099988,0.0001576692,0.1706674,0.2585996,-1.038451,-1.038451,-1.01,NaN,0,-0.07667045,-5,-5
71606,73711986,0.2599987,0.0002139211,0.2195844,0.2585996,-1.044814,-1.044814,-0.64,NaN,0,-0.08384137,-3,-3
71974,74021435,0.2794545,7.185340000000001e-05,0.2966479,0.2585996,-1.018175,-1.003539,0.03,NaN,0,-0.04500071,30,40
72428,74124970,0.3050294,5.453825e-06,0.3009407,0.2585996,-0.9746293,-0.9431459,-0.09,NaN,0,0.01556047,52,63
72844,74229870,0.2935781,1.683831e-05,0.2968203,0.2585996,-0.9085449,-0.8543357,0.21,NaN,0,0.1037984,74,87
73295,74335928,0.3039254,2.786517e-05,0.2943774,0.2585996,-0.8160785,-0.737248,0,NaN,0,0.221054,97,110
73742,74441609,0.3016569,5.164742e-05,0.2988891,0.2585996,-0.7050812,-0.5911913,-0.1,NaN,0,0.3672785,117,132
74197,74547710,0.292322,5.614758e-05,0.2936187,0.2585996,-0.5650209,-0.4228896,-0.39,NaN,0,0.5357404,136,150
74645,74654174,0.2816216,5.52237e-05,0.2890031,0.2585996,-0.4134041,-0.2416754,-0.12,NaN,0,0.7180991,150,165
75098,74762050,0.2710921,5.784631e-05,0.2766915,0.2585996,-0.237767,-0.04310527,0.08,NaN,0,0.9194234,163,180
75513,74869857,0.2740663,0.00024575,0.2730664,0.2585996,-0.05349224,0.1660953,0.21,NaN,0,1.131462,172,188
75966,74973985,0.2942857,0.000798434,0.2810291,0.2585996,0.1464606,0.3748808,-0.13,NaN,0,1.343894,181,192
76417,75080813,0.2856389,0.001184821,0.2894672,0.2585996,0.3555061,0.5830662,0.01,NaN,0,1.555238,190,196
76869,75189086,0.2766294,0.001276195,0.2851394,0.2585996,0.5774875,0.7943963000000001,0.46,NaN,0,1.769651,198,201
77321,75294205,0.2933307,0.001191884,0.2847894,0.2585996,0.8001996,1.001848,0.71,NaN,0,1.978652,205,206
77769,75399244,0.331097,0.001517326,0.3050045,0.2585996,1.022125,1.207572,1.05,NaN,0,2.184871,211,205
78222,75504463,0.3443823,0.002149105,0.3322102,0.2585996,1.25376,1.412083,1.03,NaN,0,2.391167,217,203
78641,75610515,0.3332565,0.002422005,0.341359,0.2585996,1.482822,1.619013,1.33,NaN,0,2.596473,222,207
79094,75714118,0.314512,0.001569897,0.3273246,0.2585996,1.720462,1.830563,1.08,NaN,0,2.807206,227,215
79508,75819476,0.3178447,0.0008454323,0.3206671,0.2585996,1.948307,2.050399,1.35,NaN,0,3.026882,230,222
79953,75924980,0.3196495,0.0004442036,0.3202626,0.2585996,2.177825,2.268001,1.63,NaN,0,3.241645,233,226
80395,76033259,0.3048433,0.0002007484,0.3151063,0.2585996,2.408729,2.496023,1.95,NaN,0,3.466998,234,230
80843,76139044,0.2990723,0.0001144707,0.3046412,0.2585996,2.640776,2.727001,2.22,NaN,0,3.695298,236,236
81284,76246040,0.2908841,0.0001052618,0.3011456,0.2585996,2.87377,2.966989,2.82,NaN,0,3.932859,236,239
81729,76352287,0.2666478,8.589029e-05,0.2836258,0.2585996,3.107545,3.215953,2.63,NaN,0,4.180861,235,244
82170,76459169,0.2805371,0.0001449883,0.2778665,0.2585996,3.341958,3.466636,3.31,NaN,0,4.428303,234,245
82586,76564959,0.2665004,0.0002850294,0.2709287,0.2585996,3.576307,3.717742,3.62,NaN,0,4.676974,231,243
83029,76671000,0.2570487,0.0004334152,0.2648458,0.2585996,3.80289,3.974375,3.38,NaN,0,4.928763,226,240
83476,76777787,0.243691,0.0006661564,0.2534408,0.2585996,4.032428,4.227943,3.71,NaN,0,5.178113,219,235
83918,76887212,0.2440383,0.001072019,0.2518634,0.2585996,4.257396,4.478753,4.41,NaN,0,5.42407,211,226
84333,76992873,0.2595058,0.001678944,0.2497919,0.2585996,4.476624,4.711607,4.66,NaN,0,5.653528,203,215
84777,77099034,0.2785681,0.002376258,0.2715658,0.2585996,4.689125,4.941001,4.82,NaN,0,5.878711,194,200
85187,77207334,0.2857036,0.00195539,0.2743136,0.2585996,4.894016,5.159436,4.76,NaN,0,6.093408,184,187
85633,77313307,0.2760516,0.001468152,0.282753,0.2585996,5.09054,5.354434,5.38,NaN,0,6.287277,175,175
86074,77420763,0.2428484,0.0005793124,0.2647673,0.2585996,5.278103,5.542355,5.28,NaN,0,6.472443,166,168
86519,77525451,0.2370673,0.0004069507,0.2510189,0.2585996,5.456183,5.716432,6.06,NaN,0,6.644567,156,160
86963,77632260,0.2225085,0.0004100204,0.2369176,0.2585996,5.624257,5.885698,6.31,NaN,0,6.810996,145,153
87379,77737153,0.2156192,0.0005310625,0.2239758,0.2585996,5.781736,6.047459,6.74,NaN,0,6.97049,133,143
87821,77844076,0.196424,0.0006160438,0.2124111,0.2585996,5.924203,6.210352,6.84,NaN,0,7.130614,119,133
88265,77949478,0.1891294,0.0005599707,0.1959963,0.2585996,6.058625,6.363098,6.93,NaN,0,7.282948,104,121
88714,78057906,0.1918731,0.0005074888,0.1917056,0.2585996,6.174434,6.50796,7.1,NaN,0,7.427642,88,106
89130,78164927,0.1951402,0.0005061477,0.1916279,0.2585996,6.284213,6.635824,6.98,NaN,0,7.555674,73,90
89571,78274382,0.1889045,0.0006131678999999999,0.1916859,0.2585996,6.381273,6.749227,7.02,NaN,0,7.669329,58,72
90018,78380049,0.2024409,0.0009626895,0.1976653,0.2585996,6.465972,6.838644,7.53,NaN,0,7.759723,45,56
90460,78487683,0.207374,0.001160279,0.2013074,0.2585996,6.538953,6.918322,7.55,NaN,0,7.840858,32,39
90908,78594485,0.1954997,0.0006665736,0.2029075,0.2585996,6.600965,6.978819,7.43,NaN,0,7.90272,22,26
91350,78702997,0.2018335,0.000373587,0.2030874,0.2585996,6.652917,7.023634,7.61,NaN,0,7.949801,12,14
91761,78811283,0.2238099,0.0002595931,0.2142839,0.2585996,6.695801,7.056966,7.34,NaN,0,7.985475,4,2
92176,78917166,0.2198378,0.0002235174,0.2217055,0.2585996,6.73066,7.072632,7.12,NaN,0,8.003652000000001,-1,-6
92619,79026245,0.2354823,0.0003086478,0.2272999,0.2585996,6.758613,7.075922,7.46,NaN,0,8.010351,-5,-13
93068,79131907,0.247577,0.000523597,0.2382274,0.2585996,6.780815,7.066813,7.66,NaN,0,8.004073,-7,-19
93477,79239387,0.2211477,0.000525862,0.2349502,0.2585996,6.798397,7.057658,7.55,NaN,0,7.998481,-9,-19
93925,79345509,0.227422,0.0005623250999999999,0.2285688,0.2585996,6.812307,7.052385,7.46,NaN,0,7.995321,-11,-18
94366,79455771,0.236841,0.000823766,0.2286805,0.2585996,6.823286,7.044454,7.62,NaN,0,7.991373,-11,-19
94814,79563219,0.2562383,0.001451999,0.2394201,0.2585996,6.831959,7.03607,7.33,NaN,0,7.985904,-12,-20
95257,79673024,0.2375763,0.001874506,0.246373,0.2585996,6.838883,7.023692,7.22,NaN,0,7.976615,-11,-20
95703,79779234,0.2412525,0.001946643,0.2434976,0.2585996,6.844538,7.012197,7.44,NaN,0,7.967875,-11,-18
96151,79889822,0.2452724,0.001775935,0.2399669,0.2585996,6.849355,6.996535,7.35,NaN,0,7.955935,-9,-16
96595,80000482,0.2417493,0.001650617,0.2417821,0.2585996,6.853834,6.984273,7.47,NaN,0,7.946505,-8,-15
97047,80107925,0.2342349,0.001536608,0.2379632,0.2585996,6.858024,6.975934,7.47,NaN,0,7.940843,-7,-11
97487,80216089,0.2436796,0.00179632,0.24127,0.2585996,6.862207,6.972184,7.47,NaN,0,7.938153,-6,-10
97935,80321192,0.2277394,0.002456307,0.2404495,0.2585996,6.866458,6.967748,7.22,NaN,0,7.933877,-5,-9
98345,80430071,0.2455294,0.004329652,0.2395962,0.2585996,6.870824,6.966651,7.34,NaN,0,7.933422,-4,-7
98793,80537393,0.2402262,0.00629735,0.2435069,0.2585996,6.875309,6.965575,7.49,NaN,0,7.93211,-4,-7
99233,80646793,0.2386188,0.007759437,0.2462239,0.2585996,6.879907,6.96713,6.98,NaN,0,7.932199,-3,-5
99646,80753282,0.2312898,0.007710099,0.2441631,0.2585996,6.884575,6.968888,6.81,NaN,0,7.932317,-3,-4
100089,80862432,0.2330525,0.00715974,0.2474413,0.2585996,6.889288,6.962715,7.46,NaN,0,7.92323,-2,-3
100503,80967915,0.2302883,0.005546808,0.2346461,0.2585996,6.894124,6.960454,6.88,NaN,0,7.91617,-1,0
100948,81078044,0.2467117,0.00521943,0.2427025,0.2585996,6.899113,6.955693,7.04,NaN,0,7.903863,0,-2
101363,81184259,0.2483537,0.005318016,0.2475899,0.2585996,6.904293,6.951069,7.7,NaN,0,7.892327,0,-2
101803,81292340,0.2325912,0.004281864,0.2441743,0.2585996,6.909719,6.94822,7.43,NaN,0,7.881589,1,0
102252,81406052,0.2372505,0.003262445,0.238612,0.2585996,6.915681,6.954035,6.7,NaN,0,7.876593,2,2
102699,81513025,0.2419976,0.002745062,0.2431323,0.2585996,6.921466,6.954,6.46,NaN,0,7.865664,2,1
103141,81619703,0.2215443,0.002057403,0.2349882,0.2585996,6.927339,6.949714,6.89,NaN,0,7.850003,4,4
103586,81726400,0.2226191,0.001773953,0.2236553,0.2585996,6.933346,6.94837,6.95,NaN,0,7.835963,4,7
103998,81834476,0.217263,0.00167422,0.2232234,0.2585996,6.939487,6.949736,6.58,NaN,0,7.824077,5,8
104445,81940725,0.2269427,0.002080813,0.2235578,0.2585996,6.945727,6.948404,7.25,NaN,0,7.811095,6,8
104860,82049171,0.2680677,0.003345788,0.2421547,0.2585996,6.951891,6.949759,6.34,NaN,0,7.798381,6,2
105307,82157195,0.2668796,0.003963113,0.2643369,0.2585996,6.958295,6.943501,6.93,NaN,0,7.777223,8,0
105716,82263469,0.2697258,0.003953338,0.271861,0.2585996,6.964666,6.939133,6.53,NaN,0,7.758679,9,-1
106162,82371084,0.2733918,0.0032233,0.2747743,0.2585996,6.971407,6.93311,7.09,NaN,0,7.737832,11,0
106602,82479052,0.2692746,0.002849758,0.2730626,0.2585996,6.978409,6.927585,6.86,NaN,0,7.716172,12,1
107018,82586087,0.2695042,0.003145903,0.2723036,0.2585996,6.985907,6.926839,6.8,NaN,0,7.701143,13,5
107465,82695563,0.2806765,0.003586352,0.2721276,0.2585996,6.993487,6.926351,7.12,NaN,0,7.685145,14,6
107907,82802863,0.2679555,0.003555149,0.2763424,0.2585996,7.001289,6.929106,6.77,NaN,0,7.675083,15,7
108354,82908694,0.2695782,0.003641844,0.2771472,0.2585996,7.009252,6.927729,6.92,NaN,0,7.659628,16,9
108805,83018236,0.2580035,0.003059238,0.2659599,0.2585996,7.017555,6.930843,6.79,NaN,0,7.648758,17,13
109253,83125387,0.270671,0.003101587,0.2681709,0.2585996,7.025707,6.934675,7.15,NaN,0,7.639811,17,13
109665,83233201,0.2680047,0.002706379,0.2720433,0.2585996,7.033849,6.940375,6.54,NaN,0,7.631916,17,14
110111,83340287,0.2633035,0.002279133,0.2696827,0.2585996,7.041903,6.941947,7.11,NaN,0,7.621585,18,15
110553,83448485,0.269278,0.002214015,0.2679731,0.2585996,7.049635,6.944902,6.86,NaN,0,7.611571,18,15
110999,83554339,0.2743595,0.002354413,0.2740557,0.2585996,7.057439,6.947441,6.81,NaN,0,7.602932,19,14
111440,83661092,0.2807052,0.002618015,0.279761,0.2585996,7.065088,6.947847,6.71,NaN,0,7.592886,19,14
111886,83767831,0.2723547,0.002474219,0.2751865,0.2585996,7.072602,6.948564,7.12,NaN,0,7.582083,20,15
112297,83875923,0.2947859,0.00288716,0.2838754,0.2585996,7.079798,6.947018,7.01,NaN,0,7.56965,21,14
112744,83982272,0.2767428,0.002772003,0.2937667,0.2585996,7.087095,6.949486,7.71,NaN,0,7.561398,21,13
113189,84090315,0.2232257,0.001430184,0.2582616,0.2585996,7.094288,6.95933,7.78,NaN,0,7.560271,20,23
113640,84200835,0.2463421,0.001455709,0.241189,0.2585996,7.101391,6.988962,7.96,NaN,0,7.579658,18,26
114084,84308767,0.2411194,0.001651868,0.2467893,0.2585996,7.107632,7.019157,8.33,NaN,0,7.599683,14,23
114526,84415965,0.2545648,0.002713054,0.2515919,0.2585996,7.112797,7.056515,7.44,NaN,0,7.627037,10,19
114942,84522261,0.2509518,0.003636211,0.2545332,0.2585996,7.116486,7.087013,6.87,NaN,0,7.648266,5,13
115384,84630024,0.2384103,0.003907904,0.2469576,0.2585996,7.118431,7.107593,7.14,NaN,0,7.659385,2,11
115829,84735206,0.260063,0.004275709,0.2511282,0.2585996,7.118606,7.116706,6.69,NaN,0,7.660518,0,5
116238,84844050,0.2294011,0.003211498,0.24998,0.2585996,7.117169,7.115193,7.04,NaN,0,7.649384,-2,2
116683,84949838,0.1989026,0.00108926,0.2253324,0.2585996,7.114407,7.113726,7.22,NaN,0,7.637472,-3,5
117128,85057169,0.2017463,0.0003235936,0.2076803,0.2585996,7.110803,7.114564,6.73,NaN,0,7.62885,-4,7
117573,85165047,0.2058698,0.0005154908,0.2072185,0.2585996,7.106122,7.114236,7.01,NaN,0,7.620122,-6,6
117985,85272883,0.2072289,0.002606109,0.2063679,0.2585996,7.100704,7.110212,6.42,NaN,0,7.605661,-6,4
118433,85378086,0.2200959,0.005470335,0.2165965,0.2585996,7.094742,7.098713,6.54,NaN,0,7.584153,-6,0
118875,85487931,0.2206165,0.007555097,0.2242184,0.2585996,7.088707,7.072731,7.36,NaN,0,7.547993,-4,0
119287,85595965,0.2331545,0.009986251999999999,0.2326417,0.2585996,7.082695,7.054527,7.26,NaN,0,7.52129,-3,-1
119732,85703335,0.241638,0.01024704,0.2400593,0.2585996,7.07718,7.033315,7.16,NaN,0,7.490602,-1,-2
120176,85814601,0.2333838,0.008258015,0.2427183,0.2585996,7.072274,7.018382,8.720000000000001,NaN,0,7.46566,0,-2
120623,85920909,0.2471668,0.005839571,0.2446604,0.2585996,7.068367,7.000942,8.01,NaN,0,7.44043,3,-1
121066,86029751,0.2535448,0.002900928,0.2556072,0.2585996,7.065436,6.987525,7.31,NaN,0,7.420482,5,-3
121481,86137246,0.2693138,0.0003083348,0.2593068,0.2585996,7.06356,6.969508,7.21,NaN,0,7.39653,8,-2
121923,86245244,0.2531228,7.551908e-05,0.2621742,0.2585996,7.062841,6.956308,7.51,NaN,0,7.376487,10,0
122372,86352425,0.2576973,0.0002259314,0.2589302,0.2585996,7.063289,6.952411,7.61,NaN,0,7.366982,12,4
122817,86458410,0.2401047,0.0001869947,0.2505398,0.2585996,7.064764,6.960554,7.55,NaN,0,7.370432,12,8
123264,86565483,0.2354704,0.0002478361,0.2429016,0.2585996,7.066946,6.980543,7.58,NaN,0,7.386637,11,12
123673,86674417,0.2337483,0.0003623068,0.2394097,0.2585996,7.069341,7.000515,7.27,NaN,0,7.403,9,12
124119,86781746,0.2421024,0.0006579757,0.2401071,0.2585996,7.071688,7.020434,7.33,NaN,0,7.420127,7,10
124531,86890806,0.2404758,0.001222908,0.240614,0.2585996,7.073631,7.033984,7.27,NaN,0,7.432526,5,8
124977,87003723,0.2337212,0.001698479,0.2387659,0.2585996,7.075037,7.046813,7.48,NaN,0,7.443385,3,6
125425,87110753,0.2419425,0.001930639,0.2396969,0.2585996,7.075729,7.055155,7.45,NaN,0,7.452864,2,4
125867,87218023,0.2405876,0.002201587,0.2432883,0.2585996,7.075721,7.063902,7.32,NaN,0,7.461032,0,1
126281,87324013,0.2380551,0.002431259,0.2393388,0.2585996,7.074998,7.069004,7.07,NaN,0,7.469559,0,1
126726,87432813,0.2304363,0.002490029,0.2341424,0.2585996,7.073596,7.071422,7.39,NaN,0,7.475395,-1,1
127173,87541115,0.2344902,0.002611101,0.2396055,0.2585996,7.07159,7.07097,7.31,NaN,0,7.481825,-2,-1
127616,87650399,0.2345653,0.002557859,0.2399443,0.2585996,7.069096,7.067803,7.06,NaN,0,7.486341,-2,-2
128061,87757010,0.2402804,0.002597556,0.2405923,0.2585996,7.066248,7.062693,7.04,NaN,0,7.490378,-2,-3
128472,87864211,0.2446231,0.002819985,0.2430867,0.2585996,7.063198,7.053783,7.27,NaN,0,7.492332,-2,-4
128918,87971772,0.2477169,0.003017202,0.2476007,0.2585996,7.060124,7.045949,7.37,NaN,0,7.497095,-1,-4
129363,88079272,0.2530672,0.003090978,0.2517861,0.2585996,7.057155,7.04125,7.19,NaN,0,7.507426,-1,-5
129808,88183709,0.2498394,0.003267184,0.2556313,0.2585996,7.05435,7.039145,6.75,NaN,0,7.52135,-1,-5
130252,88291878,0.2495645,0.003446057,0.2549098,0.2585996,7.051729,7.032135,7.08,NaN,0,7.532796,0,-4
130695,88401421,0.2564482,0.003455043,0.257249,0.2585996,7.049303,7.025003,6.81,NaN,0,7.546751,0,-4
131147,88507783,0.2583118,0.003395677,0.2589311,0.2585996,7.047282,7.012652,7.1,NaN,0,7.556213,1,-3
131589,88615481,0.2555383,0.003586471,0.2600777,0.2585996,7.045721,7.003663,7.09,NaN,0,7.569662,2,-1
132033,88721250,0.2475154,0.003541231,0.2542802,0.2585996,7.044703,6.995716,7.03,NaN,0,7.585885,4,1
132443,88829729,0.2358379,0.003326565,0.2456205,0.2585996,7.044266,6.992537,7.15,NaN,0,7.611019,4,4
132890,88936317,0.2384994,0.003027484,0.240614,0.2585996,7.044338,6.993714,7.05,NaN,0,7.639349,5,7
133336,89045212,0.2356749,0.003172874,0.2393971,0.2585996,7.044805,6.997601,6.78,NaN,0,7.67309,5,8
133785,89153039,0.2380485,0.003399268,0.2398472,0.2585996,7.045566,6.998761,7.22,NaN,0,7.706277,5,7
134228,89260488,0.2422003,0.00365442,0.2436736,0.2585996,7.046518,7.002135,7.16,NaN,0,7.74152,5,6
134674,89368178,0.240732,0.00344421,0.2439059,0.2585996,7.047616,7.0093,7,NaN,0,7.782078,5,5
135084,89475028,0.2388997,0.002410471,0.2430802,0.2585996,7.048707,7.013608,7.14,NaN,0,7.820192,4,5
135533,89581433,0.2361066,0.001045763,0.2392942,0.2585996,7.049711,7.019031,7.21,NaN,0,7.85785,4,5
135974,89688414,0.2346958,0.0005866438,0.2359831,0.2585996,7.050538,7.024879,7.19,NaN,0,7.897321,3,6
136388,89798452,0.2386707,0.0007371604,0.238746,0.2585996,7.051174,7.032495,7.17,NaN,0,7.937659,2,4
136835,89907383,0.2391224,0.0008002371,0.2411692,0.2585996,7.051481,7.038724,6.94,NaN,0,7.974878,1,3
137278,90015889,0.2430614,0.0006526709,0.2414183,0.2585996,7.051428,7.041647,7.24,NaN,0,8.007159,0,1
137692,90122333,0.2377168,0.0004283637,0.2420128,0.2585996,7.051034,7.041612,7.17,NaN,0,8.036725000000001,0,1
138105,90229189,0.234182,0.0002412796,0.2382362,0.2585996,7.050352,7.042901,6.88,NaN,0,8.064176,0,1
138553,90335869,0.2381541,0.000114128,0.2354407,0.2585996,7.049411,7.042795,6.82,NaN,0,8.089347,0,1
138995,90444236,0.249599,0.0001305342,0.2433646,0.2585996,7.048262,7.039781,6.77,NaN,0,8.111599999999999,0,-1
139444,90548996,0.2396611,0.0005037934,0.2430934,0.2585996,7.046987,7.034302,6.95,NaN,0,8.128947999999999,0,0
139886,90656994,0.243932,0.00198929,0.2402582,0.2585996,7.045735,7.027142,6.94,NaN,0,8.144591999999999,0,0
140332,90763325,0.2448026,0.004409507,0.245054,0.2585996,7.04455,7.021174,6.61,NaN,0,8.159231999999999,1,0
140747,90871729,0.2408088,0.005958587,0.2484406,0.2585996,7.04356,7.013836,6.54,NaN,0,8.169976,2,0
141196,90980047,0.2402826,0.006347179,0.2510211,0.2585996,7.04285,7.004871,6.27,NaN,0,8.177292,3,1
141607,91089071,0.2350946,0.005321383,0.2410241,0.2585996,7.04251,6.993171,6.56,NaN,0,8.179667999999999,4,4
142055,91195992,0.2354387,0.005230308,0.2395719,0.2585996,7.042653,6.986887,6.52,NaN,0,8.183142,6,7
142465,91304082,0.2267894,0.004835665,0.2371101,0.2585996,7.043333,6.978691,6.22,NaN,0,8.183820000000001,7,8
142908,91411258,0.2531482,0.002004176,0.2375619,0.2585996,7.044533,6.969989,6.19,NaN,0,8.18145,9,8
143359,91517195,0.2393805,0.0006496608,0.2414051,0.2585996,7.046365,6.957145,6.28,NaN,0,8.173969,11,8
143800,91626753,0.2309704,0.0008282661,0.2419572,0.2585996,7.04891,6.939983,6.54,NaN,0,8.162178000000001,13,9
144247,91733754,0.2499398,0.0009909420999999999,0.237142,0.2585996,7.052297,6.926715,6.48,NaN,0,8.153534000000001,16,13
144663,91842013,0.2698171,0.001328945,0.2601444,0.2585996,7.056614,6.915654,6.63,NaN,0,8.146868,19,9
145108,91949280,0.2584678,0.001817942,0.2630073,0.2585996,7.061873,6.910295,6.92,NaN,0,8.14485,21,12
145522,92055786,0.2462258,0.001957983,0.2550865,0.2585996,7.067843,6.913335,6.93,NaN,0,8.150575999999999,22,16
145968,92162349,0.2502104,0.001525253,0.2526491,0.2585996,7.074653,6.92453,6.82,NaN,0,8.162334,22,19
146410,92270163,0.2682745,0.001622081,0.26171,0.2585996,7.081845,6.938665,6.58,NaN,0,8.176470999999999,21,17
146856,92376268,0.2744662,0.001760155,0.2709964,0.2585996,7.089134,6.949697,6.46,NaN,0,8.187265,21,15
147269,92481924,0.2613087,0.001347333,0.2697054,0.2585996,7.09632,6.958053,6.83,NaN,0,8.194416,21,15
147717,92590881,0.252231,0.0007989705,0.2631125,0.2585996,7.103462,6.96678,6.49,NaN,0,8.202662,20,17
148162,92699283,0.2438129,0.0004908442,0.2533661,0.2585996,7.110085,6.974893,6.76,NaN,0,8.21031,20,19
148574,92806750,0.2469264,0.0002997518,0.2503839,0.2585996,7.116292,6.986645,6.8,NaN,0,8.221742000000001,19,20
149020,92913755,0.2511097,0.001645744,0.2497655,0.2585996,7.121978,6.998466,7.03,NaN,0,8.231534,18,20
149466,93022939,0.2472079,0.003566146,0.2545796,0.2585996,7.127033,7.011914,6.77,NaN,0,8.246606,16,18
149913,93128927,0.2458887,0.00422065,0.2522413,0.2585996,7.131348,7.02319,6.83,NaN,0,8.258438,14,17
150323,93234726,0.2557673,0.003800839,0.254839,0.2585996,7.134861,7.032583,6.62,NaN,0,8.268784999999999,13,14
150770,93341212,0.2516654,0.002785981,0.2562139,0.2585996,7.137567,7.03673,6.69,NaN,0,8.274932,12,14
151213,93449598,0.2559635,0.002024919,0.2571527,0.2585996,7.139521,7.040762,6.86,NaN,0,8.279826,11,12
151627,93554816,0.2506367,0.001567662,0.2559305,0.2585996,7.140786,7.046573,6.89,NaN,0,8.287376,10,11
152068,93662436,0.2504747,0.001467556,0.2525832,0.2585996,7.141388,7.052644,6.93,NaN,0,8.295591,9,10
152482,93767826,0.2524692,0.001347572,0.2524311,0.2585996,7.141346,7.058344,7.17,NaN,0,8.303596000000001,7,10
152925,93873768,0.2415007,0.001316726,0.2494416,0.2585996,7.140673,7.065616,6.91,NaN,0,8.311195,6,9
153373,93979449,0.2393117,0.001238242,0.2442035,0.2585996,7.139364,7.073393,7.16,NaN,0,8.320360000000001,4,8
153782,94087484,0.2449958,0.0009333342,0.2458167,0.2585996,7.137412,7.077031,7.17,NaN,0,8.325699999999999,3,7
154223,94195836,0.2403998,0.0005900711,0.2443474,0.2585996,7.134858,7.080864,7.16,NaN,0,8.330508999999999,2,6
154671,94302366,0.2381871,0.0003804862,0.2409754,0.2585996,7.131741,7.086014,7.07,NaN,0,8.335247000000001,1,5
155083,94413195,0.2423628,0.0003227443,0.2397987,0.2585996,7.127975,7.090339,6.85,NaN,0,8.341913999999999,0,3
155532,94518281,0.2460668,0.0003450215,0.2439449,0.2585996,7.123787,7.088659,7.2,NaN,0,8.341692,-1,1
155974,94628603,0.2504521,0.0003690124,0.2461628,0.2585996,7.119201,7.084783,6.98,NaN,0,8.337892999999999,-1,0
156389,94734769,0.255885,0.0003306866,0.2515001,0.2585996,7.114346,7.079063,6.99,NaN,0,8.33305,-1,-2
156833,94842805,0.2570943,0.0002956688,0.2558292,0.2585996,7.109498,7.070209,7.13,NaN,0,8.323623,-1,-4
157283,94949247,0.2568373,0.0003171861,0.256474,0.2585996,7.104547,7.062117,7.07,NaN,0,8.316661,0,-3
157693,95056697,0.257262,0.0003036261,0.2583112,0.2585996,7.099761,7.055273,7.08,NaN,0,8.309412,0,-3
158137,95163829,0.2466414,0.0001616776,0.2523084,0.2585996,7.095222,7.050938,7.08,NaN,0,8.306527000000001,0,-1
158579,95272938,0.2501725,8.648633999999999e-05,0.2495972,0.2585996,7.091178,7.048827,7.5,NaN,0,8.30498,0,0
159026,95379243,0.2439351,6.769598e-05,0.2490495,0.2585996,7.08716,7.051739,7.18,NaN,0,8.307663,0,0
159438,95486049,0.2332131,3.407896e-05,0.2421324,0.2585996,7.083312,7.057167,7.19,NaN,0,8.312702,-1,1
159879,95594061,0.2392231,8.969009e-05,0.2415963,0.2585996,7.079511,7.06307,7.17,NaN,0,8.318377,-2,1
160293,95700288,0.2400623,0.0002765357,0.2417426,0.2585996,7.075666,7.06708,7.23,NaN,0,8.322806999999999,-3,0
160739,95811704,0.2408733,0.000539422,0.2423434,0.2585996,7.071608,7.070723,7.25,NaN,0,8.327037000000001,-4,0
161188,95917681,0.2391905,0.0006840676,0.241681,0.2585996,7.067505,7.073577,7.1,NaN,0,8.330814,-5,-1
161635,96027075,0.242571,0.0006081462,0.2423218,0.2585996,7.063344,7.075716,6.95,NaN,0,8.334035999999999,-5,-2
162083,96133296,0.2387875,0.0004581213,0.2405041,0.2585996,7.058906,7.07395,7.18,NaN,0,8.333026,-6,-3
162524,96241224,0.2343584,0.0003660172,0.23753,0.2585996,7.054346,7.072263,6.88,NaN,0,8.332834,-6,-3
162970,96347836,0.2368113,0.0003656298,0.2367468,0.2585996,7.04972,7.069953,6.88,NaN,0,8.332103999999999,-6,-4
163382,96453987,0.2430042,0.0004452169,0.2405166,0.2585996,7.045075,7.064238,6.64,NaN,0,8.328616,-6,-5
163828,96560354,0.2419592,0.000509128,0.2434663,0.2585996,7.040514,7.053729,7.04,NaN,0,8.321135999999999,-6,-7
164270,96667970,0.2406382,0.0005507767,0.2435766,0.2585996,7.0363,7.041529,6.93,NaN,0,8.313497999999999,-4,-5
164684,96774235,0.2426187,0.0006072819,0.2431388,0.2585996,7.032364,7.030689,7.13,NaN,0,8.306495999999999,-3,-4
165128,96882348,0.2454075,0.0006046444,0.2443694,0.2585996,7.028931,7.023857,7.03,NaN,0,8.304957999999999,-2,-5
165574,96991611,0.2401718,0.0006244034,0.2436457,0.2585996,7.026028,7.019287,7.05,NaN,0,8.306393,-2,-2
165989,97096791,0.2446748,0.0006383657,0.2427181,0.2585996,7.023635,7.017503,6.75,NaN,0,8.308126,-1,-2
166435,97207723,0.2453821,0.0006594211,0.2450092,0.2585996,7.021653,7.014681,6.92,NaN,0,8.312194,-1,-1
166882,97314195,0.2423045,0.0006517917,0.2440766,0.2585996,7.020147,7.012426,7,NaN,0,8.316431,0,-1
167294,97421466,0.2486781,0.0006325543,0.2463289,0.2585996,7.019026,7.010902,6.59,NaN,0,8.322048000000001,0,-1
167738,97526513,0.2467648,0.000595063,0.2477941,0.2585996,7.01825,7.008126,7.08,NaN,0,8.326627999999999,0,-1
168181,97634182,0.2467876,0.0005782694,0.2479337,0.2585996,7.017803,7.005566,7.11,NaN,0,8.331848000000001,0,0
168627,97742037,0.2423909,0.0006102324,0.2461113,0.2585996,7.017665,7.007421,7.22,NaN,0,8.341623,1,0
169039,97849772,0.2385172,0.000638932,0.2424904,0.2585996,7.017748,7.013291,7.2,NaN,0,8.354383,0,1
169487,97954285,0.2434237,0.0006756037,0.2434473,0.2585996,7.01793,7.020516,6.84,NaN,0,8.369222000000001,0,0
169900,98063242,0.242698,0.0006734133,0.2440468,0.2585996,7.018069,7.026775,7.02,NaN,0,8.384109,0,0
170349,98169725,0.2492606,0.0007822067,0.24592,0.2585996,7.018078,7.030583,7.13,NaN,0,8.396089,-1,0
170790,98276410,0.2570774,0.0007792115,0.2491284,0.2585996,7.017917,7.031088,7.22,NaN,0,8.403956000000001,-1,-2
171205,98382093,0.2493472,0.0006852299,0.2505233,0.2585996,7.017604,7.02991,7.22,NaN,0,8.410843,-1,-2
171649,98490715,0.246526,0.0005757958,0.2479671,0.2585996,7.017175,7.030994,7.18,NaN,0,8.419853,-1,-1
172095,98597315,0.2482509,0.0003986061,0.2505975,0.2585996,7.01664,7.031517,7.14,NaN,0,8.427486,-2,-2
172534,98704479,0.2526878,0.0001660287,0.2498389,0.2585996,7.016015,7.029433,7.08,NaN,0,8.433161999999999,-2,-2
172945,98810778,0.2505179,8.055568e-05,0.2515871,0.2585996,7.015345,7.027061,7.18,NaN,0,8.437734000000001,-1,-3
173394,98917451,0.2437123,2.495944e-05,0.248114,0.2585996,7.014673,7.026446,6.94,NaN,0,8.44406,-1,-2
173833,99024192,0.2307355,5.875528e-05,0.2414488,0.2585996,7.014,7.026696,6.91,NaN,0,8.449819,-1,0
174280,99129890,0.2481755,8.961558e-05,0.2431793,0.2585996,7.013335,7.026128,7.14,NaN,0,8.455628000000001,-1,0
174726,99237720,0.2368637,5.39273e-05,0.2441194,0.2585996,7.012703,7.026511,6.97,NaN,0,8.462634,-2,0
175173,99344418,0.2353158,2.594292e-05,0.2391452,0.2585996,7.012053,7.027837,7.23,NaN,0,8.470651999999999,-2,0
175585,99452815,0.2530915,0.001514733,0.2435985,0.2585996,7.01139,7.033295,7.12,NaN,0,8.482723999999999,-2,-1
176032,99559474,0.2553941,0.006953627,0.2557651,0.2585996,7.01063,7.036631,7.2,NaN,0,8.492507,-3,-4
176473,99665951,0.2541235,0.01302144,0.2638313,0.2585996,7.009753,7.03893,6.88,NaN,0,8.501344,-3,-5
176919,99771709,0.2560984,0.01529929,0.26997,0.2585996,7.008709,7.037512,7.12,NaN,0,8.506076,-4,-6
177360,99879216,0.2556379,0.01362073,0.2699109,0.2585996,7.007593,7.034802,6.95,NaN,0,8.509988,-3,-7
177811,99986458,0.2441425,0.01007842,0.2638662,0.2585996,7.006411,7.031013,7.05,NaN,0,8.512912,-3,-6
178221,100095062,0.2379182,0.00438945,0.2477653,0.2585996,7.005309,7.027469,7.32,NaN,0,8.516556,-3,-1
178666,100205963,0.236,0.0004008114,0.2441822,0.2585996,7.004195,7.025155,7.43,NaN,0,8.522084,-3,-1
179116,100312956,0.2291227,0.0002473742,0.2358812,0.2585996,7.003218,7.023262,6.85,NaN,0,8.528332000000001,-2,0
179527,100419690,0.2307914,0.0003570914,0.232753,0.2585996,7.002353,7.023224,6.86,NaN,0,8.535335999999999,-2,0
179973,100526011,0.2375276,0.0001600087,0.2353392,0.2585996,7.001586,7.023122,7.28,NaN,0,8.540751,-2,0
180414,100632932,0.2403477,2.834201e-05,0.2392252,0.2585996,7.000902,7.023347,7.11,NaN,0,8.546735,-2,0
180860,100738606,0.2413543,0.0001500398,0.2397986,0.2585996,7.000281,7.024528,7.55,NaN,0,8.553668,-3,0
181301,100846271,0.2397212,0.001676813,0.2405316,0.2585996,6.999695,7.026252,7.41,NaN,0,8.558742000000001,-3,-1
181751,100953414,0.2328639,0.004950643,0.2430741,0.2585996,6.999114,7.027657,7.31,NaN,0,8.562863,-3,-1
182162,101060325,0.2251975,0.00696598,0.2407754,0.2585996,6.998512,7.035306,7.15,NaN,0,8.570512000000001,-4,0
182608,101166451,0.2286577,0.00702998,0.2342226,0.2585996,6.997747,7.044942,7.38,NaN,0,8.577753,-5,0
183050,101275289,0.2303339,0.005989045,0.2341248,0.2585996,6.996703,7.053328,7.19,NaN,0,8.5815,-6,-1
183467,101380774,0.2278036,0.00486131,0.2374882,0.2585996,6.995299,7.057119,7.15,NaN,0,8.581453,-7,-3
183910,101490835,0.2309814,0.004079521,0.2360698,0.2585996,6.993529,7.05902,7.06,NaN,0,8.573993,-8,-4
184359,101599557,0.2399044,0.00306493,0.2379171,0.2585996,6.991434,7.057274,7.34,NaN,0,8.562885,-8,-6
184771,101708865,0.2396881,0.002511948,0.2382092,0.2585996,6.98909,7.054004,7.7,NaN,0,8.547866000000001,-9,-7
185218,101817450,0.2413625,0.002389312,0.2386058,0.2585996,6.986597,7.050518,7.42,NaN,0,8.531349000000001,-9,-8
185666,101924400,0.2420781,0.002346322,0.245716,0.2585996,6.984027,7.04895,7.27,NaN,0,8.515865,-9,-10
186112,102032501,0.2453214,0.002568319,0.2459674,0.2585996,6.98143,7.047788,7.75,NaN,0,8.497591,-9,-10
186558,102139292,0.2475249,0.002583221,0.2470235,0.2585996,6.978832,7.051466,7.25,NaN,0,8.485049,-10,-10
186999,102247430,0.2415269,0.002762005,0.2480305,0.2585996,6.976162,7.059686,7.46,NaN,0,8.474562000000001,-11,-11
187445,102353885,0.2441079,0.00245443,0.2466631,0.2585996,6.973224,7.065607,7.9,NaN,0,8.462668000000001,-12,-11
187894,102461306,0.2342488,0.001771927,0.242751,0.2585996,6.970082,7.079928,8.52,NaN,0,8.456054,-14,-11
188339,102568812,0.2312559,0.001536444,0.2375891,0.2585996,6.966496,7.104192,9.050000000000001,NaN,0,8.459383000000001,-17,-11
188748,102677421,0.2168443,0.001385599,0.2294411,0.2585996,6.962162,7.14456,8.41,NaN,0,8.477466,-23,-12
189193,102784075,0.2210293,0.001691848,0.2250099,0.2585996,6.95658,7.179922,8.609999999999999,NaN,0,8.491258999999999,-29,-16
189639,102891957,0.2174342,0.002014697,0.2223559,0.2585996,6.949293,7.216582,8.529999999999999,NaN,0,8.504992,-35,-20
190057,102998316,0.2196937,0.002383217,0.2189917,0.2585996,6.94001,7.246683,8.460000000000001,NaN,0,8.511388999999999,-41,-28
190502,103106466,0.2161379,0.002480537,0.2192999,0.2585996,6.928566,7.269819,8.85,NaN,0,8.510096000000001,-47,-34
190915,103215212,0.2196949,0.002774686,0.2177232,0.2585996,6.914595,7.287114,8.69,NaN,0,8.502412,-52,-40
191360,103322251,0.2224254,0.003037184,0.2230042,0.2585996,6.898937,7.302038,8.35,NaN,0,8.493167,-57,-47
191773,103428251,0.2157426,0.003011748,0.2220035,0.2585996,6.881385,7.303424,8.73,NaN,0,8.467200999999999,-61,-52
192220,103533962,0.2213143,0.003127784,0.2221876,0.2585996,6.862234,7.298408,8.31,NaN,0,8.434673,-64,-56
192666,103641950,0.2315353,0.003168449,0.227093,0.2585996,6.841867,7.276533,8.960000000000001,NaN,0,8.38386,-65,-61
193113,103748181,0.2314078,0.00315544,0.2320171,0.2585996,6.820781,7.256783,8.65,NaN,0,8.335889,-65,-63
193523,103854822,0.2349219,0.003098741,0.2338545,0.2585996,6.799478,7.234676,8.59,NaN,0,8.283440000000001,-65,-65
193972,103962051,0.2083857,0.002589375,0.2313168,0.2585996,6.778388,7.203961,8.43,NaN,0,8.221489999999999,-64,-64
194414,104070946,0.2219262,0.002705783,0.2207497,0.2585996,6.758448,7.182195,7.81,NaN,0,8.167794000000001,-63,-60
194829,104177199,0.2422229,0.002753317,0.2317363,0.2585996,6.738886,7.151113,7.66,NaN,0,8.104798000000001,-61,-61
195270,104285478,0.242245,0.002775073,0.241887,0.2585996,6.721516,7.112885,7.81,NaN,0,8.032093,-57,-62
195720,104389840,0.2303378,0.002588198,0.2407086,0.2585996,6.704782,7.078487,7.43,NaN,0,7.96521,-54,-58
196128,104497221,0.2588013,0.003017664,0.2483597,0.2585996,6.689997,7.040348,7.86,NaN,0,7.891571,-49,-57
196573,104604808,0.2502436,0.002550483,0.2541801,0.2585996,6.677461,7.002217,7.42,NaN,0,7.817239,-44,-53
197019,104710944,0.2405131,0.001301542,0.246931,0.2585996,6.667412,6.96708,7.8,NaN,0,7.748289,-39,-45
197431,104817499,0.239116,0.0003246665,0.2407204,0.2585996,6.659978,6.936866,7.57,NaN,0,7.684185,-34,-39
197880,104926299,0.2621334,0.0004301667,0.2511281,0.2585996,6.655226,6.904295,7.43,NaN,0,7.616236,-28,-36
198322,105035765,0.2828896,0.0007729232,0.2703003,0.2585996,6.653214,6.872079,7.05,NaN,0,7.550146,-22,-36
198767,105142116,0.2706251,0.0009250939,0.2739463,0.2585996,6.653986,6.841059,7.17,NaN,0,7.487578,-16,-30
199181,105250232,0.26992,0.0009501278,0.2654238,0.2585996,6.657568,6.814432,6.86,NaN,0,7.428512,-10,-22
199626,105355953,0.2709143,0.001207411,0.2745729,0.2585996,6.663917,6.790763,6.5,NaN,0,7.376575,-4,-17
200071,105463292,0.2686561,0.001878321,0.273167,0.2585996,6.672939,6.772303,6.44,NaN,0,7.331267,0,-11
200519,105569449,0.2877935,0.002791077,0.2826938,0.2585996,6.684808,6.756973,5.96,NaN,0,7.288838,6,-7
200962,105676539,0.2813695,0.003224283,0.2858638,0.2585996,6.698723,6.739222,6.23,NaN,0,7.248862,11,-1
201375,105783200,0.2760602,0.003464609,0.285091,0.2585996,6.714846,6.724063,6.14,NaN,0,7.211388,17,4
201819,105890708,0.2654314,0.003814727,0.2796462,0.2585996,6.733059,6.711611,6.11,NaN,0,7.17813,22,12
202228,105996727,0.2663064,0.004412323,0.2725284,0.2585996,6.753161,6.71087,6.28,NaN,0,7.160124,26,20
202676,106103294,0.25863,0.004851878,0.2673928,0.2585996,6.774866,6.714277,6.1,NaN,0,7.148912,29,26
203119,106211271,0.2578009,0.005345017,0.2659816,0.2585996,6.797843,6.725288,5.96,NaN,0,7.149289,31,29
203564,106319956,0.2541794,0.005665511,0.2620044,0.2585996,6.821691,6.740865,6.27,NaN,0,7.15433,33,33
203977,106428891,0.2534966,0.004967749,0.2575898,0.2585996,6.845346,6.759533,5.95,NaN,0,7.166527,34,35
204423,106535960,0.2454486,0.004196197,0.2542854,0.2585996,6.869699,6.777972,5.92,NaN,0,7.182472,34,36
204869,106644705,0.2468038,0.003497213,0.2546534,0.2585996,6.893799,6.796834,5.94,NaN,0,7.198145,34,36
205318,106750943,0.2552657,0.002341211,0.2525907,0.2585996,6.917377,6.817269,6.02,NaN,0,7.218732,34,36
205762,106861051,0.2588156,0.0009257495,0.2520236,0.2585996,6.940201,6.835566,6.41,NaN,0,7.238173,34,34
206209,106967303,0.2535104,0.0005313456,0.2546851,0.2585996,6.962096,6.85256,6.01,NaN,0,7.257266,33,33
206651,107076044,0.2545585,0.0008275211,0.2541694,0.2585996,6.982405,6.870421,6.45,NaN,0,7.276256,32,32
207097,107181181,0.2495201,0.0007836521,0.2507423,0.2585996,7.002104,6.890216,6.12,NaN,0,7.29789,31,31
207540,107288465,0.2444242,0.000794962,0.2490224,0.2585996,7.020506,6.912145,6.25,NaN,0,7.319803,29,30
207955,107397476,0.2352754,0.0007789731,0.2432452,0.2585996,7.03791,6.93207,6.33,NaN,0,7.341399,27,30
208400,107505739,0.2367166,0.00128749,0.2412504,0.2585996,7.053355,6.948768,6.52,NaN,0,7.35976,25,29
208845,107616549,0.2503877,0.003693461,0.2476214,0.2585996,7.067629,6.96375,6.37,NaN,0,7.376322,24,24
209292,107723999,0.2536829,0.007388622,0.2555989,0.2585996,7.080039,6.973256,6.59,NaN,0,7.386972,22,22
209737,107830473,0.2521689,0.009629100999999999,0.2596183,0.2585996,7.090511,6.984101,6.18,NaN,0,7.400106,21,19
210186,107937716,0.2486634,0.01015258,0.2590807,0.2585996,7.100266,6.993769,6.64,NaN,0,7.410125,20,18
210629,108045003,0.2521138,0.01108178,0.2600536,0.2585996,7.108763,6.999992,6.25,NaN,0,7.417759,19,18
211044,108151582,0.2493591,0.01161651,0.2586676,0.2585996,7.116112,7.004298,6.27,NaN,0,7.42366,18,17
211455,108258201,0.2467428,0.01220253,0.2578265,0.2585996,7.122139,7.00579,6.07,NaN,0,7.427898,17,16
211904,108363411,0.2400011,0.01262812,0.2574959,0.2585996,7.12766,7.003405,6.08,NaN,0,7.429763,17,17
212346,108472809,0.235276,0.01306972,0.2509692,0.2585996,7.132374,7.002106,6.06,NaN,0,7.431836,17,18
212793,108578986,0.217394,0.01195958,0.2426434,0.2585996,7.136676,7.000791,6.42,NaN,0,7.433374,17,20
213234,108688198,0.2240247,0.01249221,0.2423773,0.2585996,7.140528,7.001877,5.99,NaN,0,7.439175,17,20
213681,108794063,0.2485729,0.01442041,0.2519651,0.2585996,7.144009,7.001485,6.33,NaN,0,7.442904,17,17
214097,108903986,0.2430555,0.01464829,0.256896,0.2585996,7.147298,6.993518,6.2,NaN,0,7.439225,18,16
214547,109012074,0.2441078,0.01379827,0.255189,0.2585996,7.150365,6.990534,5.82,NaN,0,7.440475,19,16
214993,109117328,0.2473625,0.01333168,0.261169,0.2585996,7.153388,6.985324,5.9,NaN,0,7.438614,19,15
215433,109224989,0.234832,0.01102468,0.2610227,0.2585996,7.156474,6.973285,6.71,NaN,0,7.430039,21,16
215851,109331070,0.2488646,0.009834498000000001,0.2579026,0.2585996,7.159764,6.969195,6.32,NaN,0,7.428192,22,17
216294,109439377,0.2573747,0.008726239,0.2639049,0.2585996,7.163308,6.965886,5.92,NaN,0,7.426607,23,17
216739,109545212,0.2627752,0.008237213,0.2711181,0.2585996,7.167116,6.959728,6.14,NaN,0,7.422829,24,18
217181,109653692,0.2735788,0.008467168000000001,0.2698089,0.2585996,7.171228,6.959599,6.62,NaN,0,7.423753,25,19
217594,109759446,0.2662548,0.008620739000000001,0.2763064,0.2585996,7.175623,6.960975,6.64,NaN,0,7.427006,26,19
218036,109866832,0.2572731,0.008293718,0.2748968,0.2585996,7.180091,6.970182,6.26,NaN,0,7.435076,25,21
218483,109972503,0.2335712,0.006901294,0.2544704,0.2585996,7.184693,6.984131,6.11,NaN,0,7.448628,24,25
218891,110080156,0.2480461,0.007761657,0.2480204,0.2585996,7.189085,6.998265,5.93,NaN,0,7.461946,23,27
219338,110187088,0.2356587,0.008114979,0.2494422,0.2585996,7.193077,7.006166,5.52,NaN,0,7.470473,22,26
219746,110293972,0.2263044,0.008073851,0.2477757,0.2585996,7.196608,7.008031,6.43,NaN,0,7.472003,22,25
220192,110402067,0.2382641,0.008832916999999999,0.2443875,0.2585996,7.199706,7.012796,5.53,NaN,0,7.476645,21,25
220606,110507944,0.2312194,0.008901684999999999,0.2414865,0.2585996,7.202398,7.011994,5.64,NaN,0,7.475279,21,24
221046,110615280,0.2383526,0.009711117,0.2428013,0.2585996,7.204762,7.008047,5.19,NaN,0,7.470179,22,23
221488,110721996,0.2728292,0.01230192,0.2621247,0.2585996,7.206903,6.996241,5.43,NaN,0,7.457778,23,19
221936,110830458,0.2746789,0.01342592,0.2905421,0.2585996,7.209051,6.971968,5.62,NaN,0,7.431857,26,13
222382,110936806,0.2802071,0.01295072,0.2878694,0.2585996,7.211583,6.94485,5.69,NaN,0,7.403755,29,15
222827,111046939,0.2787271,0.01152495,0.2939291,0.2585996,7.214872,6.924781,5.38,NaN,0,7.381222,32,19
223241,111152407,0.2533155,0.007646024,0.284416,0.2585996,7.219116,6.913002,5.36,NaN,0,7.366276,35,24
223685,111260254,0.2311569,0.003142059,0.251676,0.2585996,7.224363,6.908258,5.6,NaN,0,7.358473,37,35
224132,111366274,0.2298186,0.0008825809,0.2385245,0.2585996,7.230551,6.904737,5.69,NaN,0,7.351977,39,43
224575,111473863,0.2465286,0.0002517402,0.2424153,0.2585996,7.237357,6.906772,5.7,NaN,0,7.351326,40,41
225021,111579495,0.2359001,8.663535e-05,0.243974,0.2585996,7.24495,6.917423,6.45,NaN,0,7.359551,40,44
225430,111687228,0.2280502,9.082258000000001e-05,0.2335906,0.2585996,7.252886,6.939748,6.07,NaN,0,7.378099,39,46
225877,111793031,0.2195661,0.0001145601,0.2230786,0.2585996,7.260747,6.967767,6.82,NaN,0,7.403685,37,47
226286,111900246,0.1993521,8.414686e-05,0.2155065,0.2585996,7.268078,7.005544,7.16,NaN,0,7.439211,33,46
226730,112010036,0.1812069,0.001172423,0.1983005,0.2585996,7.274516,7.050912,7.4,NaN,0,7.48187,28,46
227178,112116035,0.2056557,0.003082499,0.2003443,0.2585996,7.279173,7.102448,7.37,NaN,0,7.531003,21,41
227619,112225188,0.2005393,0.004679486,0.2043752,0.2585996,7.281671,7.152956,7.8,NaN,0,7.579368,14,33
228067,112331115,0.20573,0.005889148,0.2023308,0.2585996,7.28155,7.200017,7.8,NaN,0,7.624666,6,24
228510,112437811,0.2118535,0.006650254,0.2087987,0.2585996,7.278478,7.243538,8.289999999999999,NaN,0,7.667027,-1,15
228954,112543903,0.2056272,0.006957218,0.2112643,0.2585996,7.272254,7.282859,8.4,NaN,0,7.705326,-9,6
229395,112651805,0.2174696,0.006816775,0.222352,0.2585996,7.263092,7.313121,8.23,NaN,0,7.735161,-16,-4
229840,112758467,0.2049548,0.00636816,0.2182792,0.2585996,7.250511,7.338827,8.23,NaN,0,7.760546,-23,-11
230280,112865440,0.2097099,0.005294695,0.2121725,0.2585996,7.235347,7.35232,7.92,NaN,0,7.773688,-29,-19
230725,112972056,0.2227875,0.00322336,0.2197732,0.2585996,7.217056,7.351993,8.23,NaN,0,7.773514,-34,-27
231137,113079994,0.2412617,0.0007518083,0.2312848,0.2585996,7.197031,7.342911,8.32,NaN,0,7.765264,-37,-37
231587,113185902,0.2680873,0.0001699924,0.2504137,0.2585996,7.174744,7.322199,8.02,NaN,0,7.744102,-38,-46
232027,113296747,0.258742,0.001759559,0.2612672,0.2585996,7.151339,7.296119,8.279999999999999,NaN,0,7.71928,-39,-48
232436,113405743,0.2585214,0.002425581,0.2579059,0.2585996,7.128093,7.260496,8.42,NaN,0,7.685015,-38,-47
232881,113512755,0.2509423,0.002073377,0.2543202,0.2585996,7.104406,7.219153,8.84,NaN,0,7.643291,-36,-44
233291,113621306,0.2511731,0.001411319,0.2527416,0.2585996,7.081541,7.181849,8.82,NaN,0,7.606353,-33,-41
233736,113728923,0.2449675,0.001090363,0.251232,0.2585996,7.059966,7.150409,9.27,NaN,0,7.574532,-30,-36
234178,113837528,0.2508958,0.001028806,0.2497752,0.2585996,7.039987,7.126357,8.85,NaN,0,7.550037,-28,-32
234622,113944208,0.2471728,0.001064792,0.2485565,0.2585996,7.021726,7.108175,9.01,NaN,0,7.530657,-26,-29
235061,114052354,0.2460353,0.00102666,0.249078,0.2585996,7.005588,7.096069,8.609999999999999,NaN,0,7.517368,-25,-27
235476,114158814,0.2440203,0.001010507,0.2453213,0.2585996,6.990618,7.086574,8.57,NaN,0,7.508224,-24,-24
235920,114267007,0.2441427,0.001002163,0.2508675,0.2585996,6.977165,7.072147,8.99,NaN,0,7.492607,-22,-23
236366,114373193,0.2386996,0.0004577339,0.2454237,0.2585996,6.96518,7.061204,8.35,NaN,0,7.480391,-21,-20
236809,114480026,0.2352435,6.814301e-05,0.2358187,0.2585996,6.954584,7.057279,8.140000000000001,NaN,0,7.475443,-20,-17
237251,114589787,0.239792,2.329051e-05,0.2389327,0.2585996,6.94476,7.05231,8.470000000000001,NaN,0,7.469543,-19,-17
237694,114697271,0.2530313,2.884865e-05,0.243627,0.2585996,6.93655,7.043217,8.300000000000001,NaN,0,7.459596,-18,-16
238108,114805905,0.2546124,0.0001921654,0.2490269,0.2585996,6.929374,7.035601,8.470000000000001,NaN,0,7.449668,-17,-19
238552,114912745,0.2588872,0.000303179,0.254459,0.2585996,6.923185,7.026919,8.220000000000001,NaN,0,7.439391,-16,-19
238995,115021966,0.2560537,0.0003315508,0.2553402,0.2585996,6.917954,7.018641,8.199999999999999,NaN,0,7.430434,-15,-18
239440,115128753,0.2593511,0.0003193617,0.2576292,0.2585996,6.913651,7.01132,8.550000000000001,NaN,0,7.421709,-13,-17
239848,115235828,0.2549687,0.0002842844,0.2551597,0.2585996,6.910244,7.007481,8.16,NaN,0,7.415551,-12,-15
240300,115342898,0.2514479,0.0002299547,0.254831,0.2585996,6.907641,7.003554,8.41,NaN,0,7.410121,-11,-13
240736,115449407,0.241214,0.0001499802,0.2472121,0.2585996,6.905797,7.004643,8.279999999999999,NaN,0,7.409059,-11,-10
241150,115555066,0.2284897,7.32094e-05,0.2354384,0.2585996,6.904476,7.011459,7.93,NaN,0,7.415287,-11,-6
241591,115662490,0.232358,6.869435e-05,0.2311131,0.2585996,6.903562,7.014486,8.27,NaN,0,7.416979,-11,-6
242038,115768924,0.2255489,6.079674e-05,0.2286126,0.2585996,6.902873,7.018023,8.52,NaN,0,7.420173,-12,-5
242483,115877539,0.2346039,7.587671e-05,0.227321,0.2585996,6.902331,7.023726,8.539999999999999,NaN,0,7.42554,-12,-6
242925,115986749,0.2327887,9.210408e-05,0.2337002,0.2585996,6.901832,7.028403,8.640000000000001,NaN,0,7.429706,-13,-9
243368,116093756,0.2314526,0.000170067,0.2300168,0.2585996,6.901287,7.032201,8.109999999999999,NaN,0,7.433077,-13,-8
243809,116201467,0.2359877,0.0001165569,0.2316794,0.2585996,6.90064,7.035241,8.449999999999999,NaN,0,7.435948,-14,-11
244223,116308022,0.2396006,0.0001486987,0.2371961,0.2585996,6.899851,7.037235,8.5,NaN,0,7.437691,-14,-13
244664,116416948,0.2294281,9.982288e-05,0.2371894,0.2585996,6.898912,7.038597,8.630000000000001,NaN,0,7.43845,-15,-13
245110,116523412,0.2372034,5.64158e-05,0.2332708,0.2585996,6.897838,7.037725,8.43,NaN,0,7.438228,-15,-13
245555,116630995,0.2375429,0.001111001,0.2343744,0.2585996,6.896651,7.03522,8.029999999999999,NaN,0,7.437369,-15,-14
245999,116737532,0.2518488,0.002588749,0.2447472,0.2585996,6.895428,7.027327,7.86,NaN,0,7.430469,-14,-16
246411,116845239,0.2418629,0.002594769,0.2476671,0.2585996,6.894307,7.017895,8.199999999999999,NaN,0,7.424081,-13,-16
246856,116951447,0.2595738,0.002233326,0.2507148,0.2585996,6.893416,7.009284,8.380000000000001,NaN,0,7.417148,-12,-15
247296,117058021,0.2404723,0.001787961,0.2523043,0.2585996,6.892851,7.004434,8.42,NaN,0,7.415113,-11,-14
247742,117163891,0.2505512,0.002083868,0.2516182,0.2585996,6.89264,7.003887,8.119999999999999,NaN,0,7.417007,-11,-13
248184,117271079,0.2426683,0.002205059,0.2478429,0.2585996,6.892725,7.014459,8.25,NaN,0,7.431341,-11,-11
248627,117377408,0.2320383,0.001956299,0.2365101,0.2585996,6.892901,7.037371,8.49,NaN,0,7.458189,-14,-9
249040,117484894,0.225043,0.001554534,0.2322198,0.2585996,6.892748,7.077704,8.220000000000001,NaN,0,7.503604,-19,-10
249482,117592516,0.217612,0.001088679,0.225924,0.2585996,6.891648,7.117891,8.27,NaN,0,7.549047,-24,-12
249925,117699531,0.2233713,0.0008028299,0.2248185,0.2585996,6.88913,7.147529,8.23,NaN,0,7.584293,-29,-17
250371,117809304,0.2236702,0.0006465167,0.2228798,0.2585996,6.884831,7.172322,8.19,NaN,0,7.61593,-34,-22
250817,117916015,0.2363328,0.0005285293,0.2288349,0.2585996,6.87887,7.189569,8.34,NaN,0,7.640745,-38,-29
251263,118026993,0.228745,0.000363186,0.2316228,0.2585996,6.870953,7.198645,8.18,NaN,0,7.657809,-41,-35
251706,118133297,0.2323685,0.0002694726,0.2314139,0.2585996,6.861643,7.198088,8.06,NaN,0,7.66524,-44,-39
252146,118240840,0.2411748,0.0002138168,0.2351121,0.2585996,6.851036,7.187889,7.71,NaN,0,7.663114,-45,-44
252591,118346424,0.252553,0.0001959801,0.244802,0.2585996,6.839537,7.161467,7.51,NaN,0,7.645663,-44,-47
253000,118454378,0.2516659,0.0004077256,0.2507055,0.2585996,6.827696,7.129088,7.39,NaN,0,7.622416,-42,-48
253447,118562029,0.2492278,0.0008009821,0.2491455,0.2585996,6.816111,7.093615,7.15,NaN,0,7.595259,-39,-46
253887,118669062,0.2516361,0.001266778,0.2509892,0.2585996,6.805333,7.053454,7.19,NaN,0,7.566596,-35,-43
254335,118776988,0.2602895,0.00146836,0.2550481,0.2585996,6.795879,7.012196,7.43,NaN,0,7.536088,-30,-40
254776,118885737,0.2567652,0.001403928,0.2558715,0.2585996,6.7882,6.974515,7.07,NaN,0,7.510622,-25,-34
255190,118991772,0.2504049,0.001252741,0.25382,0.2585996,6.782597,6.943463,6.95,NaN,0,7.491601,-20,-28
255632,119099456,0.24824,0.001042545,0.2513838,0.2585996,6.779352,6.917815,6.6,NaN,0,7.480517,-16,-22
256047,119205180,0.2524814,0.001003593,0.2523133,0.2585996,6.778153,6.895088,6.72,NaN,0,7.472179,-11,-17
256488,119313808,0.251166,0.001115412,0.2502406,0.2585996,6.779223,6.874394,6.45,NaN,0,7.466584,-7,-12
256928,119420344,0.2479282,0.001179695,0.2483963,0.2585996,6.782506,6.857028,6.7,NaN,0,7.464882,-2,-7
257373,119526415,0.2415854,0.001131952,0.2456049,0.2585996,6.787903,6.843557,6.71,NaN,0,7.468775,1,-1
257784,119632785,0.2475404,0.0009474456,0.2472733,0.2585996,6.795052,6.836532,6.73,NaN,0,7.47868,4,1
258230,119738880,0.2446464,0.0008294284,0.2462975,0.2585996,6.804118,6.835239,6.71,NaN,0,7.494324,7,5
258640,119844392,0.2402679,0.0007371604,0.2433078,0.2585996,6.814356,6.838825,6.83,NaN,0,7.51474,9,8
259085,119950482,0.2276317,0.0006263256,0.2372528,0.2585996,6.826009,6.847994,7,NaN,0,7.540404,10,11
259525,120057983,0.2395709,0.0006676018,0.2338105,0.2585996,6.837798,6.862044,6.45,NaN,0,7.570301,10,13
259971,120163987,0.2371825,0.0007700771,0.2378274,0.2585996,6.850676,6.873466,6.71,NaN,0,7.598285,11,13
260382,120271988,0.2454051,0.000775978,0.2422663,0.2585996,6.863391,6.881971,6.73,NaN,0,7.623186,11,13
260829,120378050,0.2442676,0.0004858822,0.2448202,0.2585996,6.876459,6.88826,6.5,NaN,0,7.643086,12,11
261270,120484004,0.2444912,0.0002318472,0.2425096,0.2585996,6.889091,6.89248,6.75,NaN,0,7.660917,13,11
261716,120590016,0.2477443,0.0001346171,0.2450862,0.2585996,6.901917,6.89669,6.58,NaN,0,7.679714,13,11
262127,120696935,0.2459854,0.0001374334,0.2468294,0.2585996,6.914211,6.902379,6.47,NaN,0,7.697801,14,11
262570,120805480,0.2411527,0.0002828836,0.2429868,0.2585996,6.926583,6.908235,6.71,NaN,0,7.716772,14,12
263015,120913191,0.2365917,0.0006406456,0.241867,0.2585996,6.938963,6.913054,6.6,NaN,0,7.734538,15,13
