LineNo,TimeUS,Instance,RPM,RawRPM,Volt,Curr,Temp,CTot,MotTemp,Err
1667,49474186,1,0,0,16.59,0.04,23,0,0,0
2126,49586175,1,0,0,16.59,0.04,23,0,0,0
2539,49691009,1,0,0,16.59,0.04,23,0,0,0
2996,49803200,1,0,0,16.59,0.04,23,0,0,0
3412,49907702,1,0,0,16.59,0.04,23,0,0,0
3830,50011205,1,0,0,16.59,0.04,23,0,0,0
4244,50115323,1,0,0,16.59,0.04,23,0,0,0
4695,50226033,1,0,0,16.59,0.04,23,0,0,0
5146,50338173,1,0,0,16.59,0.04,23,0,0,0
5557,50439468,1,0,0,16.59,0.04,23,0,0,0
6414,50660412,1,0,0,16.59,0.04,23,0,0,0
6790,50757054,1,0,0,16.6,0.04,23,0,0,0
7248,50870747,1,0,0,16.59,0.04,23,0,0,0
7662,50971963,1,0,0,16.59,0.04,23,0,0,0
8077,51077214,1,0,0,16.59,0.04,23,0,0,0
8491,51182770,1,0,0,16.58,0.04,23,0,0,0
8942,51295306,1,0,0,16.59,0.04,23,0,0,0
9354,51399048,1,0,0,16.6,0.04,23,0,0,0
9747,51509383,1,0,0,16.59,0.04,23,0,0,0
10162,51613408,1,0,0,16.59,0.04,23,0,0,0
10573,51714035,1,0,0,16.59,0.04,23,0,0,0
10990,51820404,1,0,0,16.59,0.04,23,0,0,0
11441,51932079,1,0,0,16.6,0.04,23,0,0,0
11892,52040857,1,0,0,16.59,0.04,23,0,0,0
12277,52143210,1,0,0,16.59,0.04,23,0,0,0
12726,52256025,1,0,0,16.6,0.04,23,0,0,0
13135,52358464,1,0,0,16.59,0.04,23,0,0,0
13557,52467280,1,0,0,16.59,0.04,23,0,0,0
14005,52583469,1,0,0,16.59,0.04,23,0,0,0
14420,52684711,1,0,0,16.59,0.05,23,0,0,0
14833,52790767,1,0,0,16.59,0.04,23,0,0,0
15251,52900972,1,0,0,16.6,0.03,23,0,0,0
15704,53013841,1,0,0,16.59,0.04,23,0,0,0
16111,53116820,1,0,0,16.59,0.04,23,0,0,0
16527,53221027,1,0,0,16.59,0.04,23,0,0,0
16945,53329269,1,0,0,16.59,0.04,23,0,0,0
17329,53430274,1,0,0,16.6,0.04,23,0,0,0
17808,53548001,1,0,0,16.59,0.04,23,0,0,0
18223,53654899,1,0,0,16.6,0.03,23,0,0,0
18630,53757165,1,0,0,16.59,0.04,23,0,0,0
19043,53862199,1,0,0,16.6,0.03,23,0,0,0
19503,53976913,1,0,0,16.6,0.03,23,0,0,0
19919,54083605,1,0,0,16.59,0.04,23,0,0,0
20338,54189202,1,0,0,16.58,0.03,23,0,0,0
20750,54293083,1,0,0,16.59,0.04,23,0,0,0
21161,54399022,1,0,0,16.6,0.04,23,0,0,0
21577,54508999,1,0,0,16.59,0.04,23,0,0,0
21995,54619173,1,0,0,16.59,0.04,23,0,0,0
22405,54723201,1,0,0,16.59,0.04,23,0,0,0
22822,54826476,1,0,0,16.59,0.04,23,0,0,0
23274,54941682,1,0,0,16.6,0.04,23,0,0,0
23688,55044208,1,0,0,16.59,0.04,23,0,0,0
24138,55155285,1,0,0,16.59,0.04,23,0,0,0
24556,55260196,1,0,0,16.6,0.04,23,0,0,0
24942,55362706,1,0,0,16.59,0.04,23,0,0,0
25392,55478181,1,0,0,16.59,0.04,23,0,0,0
25802,55582714,1,0,0,16.59,0.04,23,0,0,0
26217,55690383,1,0,0,16.59,0.04,23,0,0,0
26631,55796003,1,0,0,16.59,0.04,23,0,0,0
27043,55899297,1,0,0,16.6,0.04,23,0,0,0
27498,56010455,1,0,0,16.59,0.04,23,0,0,0
27909,56112490,1,0,0,16.59,0.04,23,0,0,0
28363,56226396,1,0,0,16.59,0.04,23,0,0,0
28774,56331397,1,0,0,16.59,0.03,23,0,0,0
29186,56436475,1,0,0,16.6,0.04,23,0,0,0
29599,56543238,1,0,0,16.59,0.04,23,0,0,0
30047,56655316,1,0,0,16.59,0.03,23,0,0,0
30420,56752429,1,0,0,16.59,0.04,23,0,0,0
30902,56869939,1,0,0,16.59,0.04,23,0,0,0
31312,56974337,1,0,0,16.59,0.04,23,0,0,0
31724,57076161,1,0,0,16.59,0.04,23,0,0,0
32182,57193754,1,0,0,16.59,0.04,23,0,0,0
32558,57290049,1,0,0,16.6,0.04,23,0,0,0
33005,57401842,1,0,0,16.59,0.04,23,0,0,0
33418,57506878,1,0,0,16.6,0.04,23,0,0,0
33833,57611428,1,0,0,16.6,0.04,23,0,0,0
34249,57719692,1,0,0,16.6,0.04,23,0,0,0
34703,57833199,1,0,0,16.6,0.04,23,0,0,0
35116,57936457,1,0,0,16.6,0.04,23,0,0,0
35532,58044718,1,0,0,16.59,0.03,23,0,0,0
35983,58157019,1,0,0,16.59,0.03,23,0,0,0
36403,58262473,1,0,0,16.6,0.03,23,0,0,0
36856,58375739,1,0,0,16.59,0.04,23,0,0,0
37270,58483282,1,0,0,16.6,0.04,23,0,0,0
37680,58585933,1,0,0,16.59,0.04,23,0,0,0
38092,58691262,1,0,0,16.6,0.04,23,0,0,0
38515,58799175,1,0,0,16.59,0.04,23,0,0,0
38934,58906943,1,0,0,16.59,0.04,23,0,0,0
39772,59126039,1,0,0,16.59,0.04,23,0,0,0
40264,59244751,1,0,0,16.59,0.03,23,0,0,0
40676,59348170,1,0,0,16.6,0.04,23,0,0,0
41095,59452998,1,0,0,16.6,0.03,23,0,0,0
41544,59566756,1,0,0,16.6,0.04,23,0,0,0
41956,59668318,1,0,0,16.6,0.04,23,0,0,0
42371,59774871,1,0,0,16.6,0.04,23,0,0,0
42827,59888959,1,0,0,16.6,0.04,23,0,0,0
43213,59990833,1,0,0,16.6,0.04,23,0,0,0
44067,60203749,1,0,0,16.59,0.03,23,0,0,0
44488,60310740,1,0,0,16.6,0.03,23,0,0,0
44943,60423039,1,0,0,16.59,0.04,23,0,0,0
45358,60529785,1,0,0,16.59,0.03,23,0,0,0
45805,60639804,1,0,0,16.59,0.03,23,0,0,0
46215,60742706,1,0,0,16.6,0.03,23,0,0,0
46633,60851690,1,0,0,16.59,0.03,23,0,0,0
47040,60953438,1,0,0,16.6,0.04,23,0,0,0
47454,61059197,1,0,0,16.6,0.04,23,0,0,0
47904,61176950,1,0,0,16.6,0.03,23,0,0,0
48317,61282303,1,0,0,16.6,0.04,23,0,0,0
49191,61504799,1,0,0,16.6,0.04,23,0,0,0
49603,61607451,1,0,0,16.59,0.04,23,0,0,0
50016,61713542,1,0,0,16.59,0.04,23,0,0,0
50437,61817091,1,0,0,16.59,0.03,23,0,0,0
50849,61925025,1,0,0,16.6,0.03,23,0,0,0
51266,62032912,1,0,0,16.58,0.04,24,0,0,0
51677,62136262,1,0,0,16.58,0.04,24,0,0,0
52161,62254165,1,0,0,16.6,0.04,23,0,0,0
52572,62358238,1,0,0,16.59,0.03,23,0,0,0
52986,62463737,1,0,0,16.6,0.04,23,0,0,0
53443,62577612,1,0,0,16.59,0.04,23,0,0,0
53858,62682354,1,0,0,16.6,0.04,23,0,0,0
54275,62786814,1,0,0,16.6,0.04,23,0,0,0
54687,62893294,1,0,0,16.59,0.04,23,0,0,0
55144,63006805,1,0,0,16.6,0.04,23,0,0,0
55559,63112735,1,0,0,16.59,0.03,23,0,0,0
55973,63214009,1,0,0,16.6,0.04,23,0,0,0
56382,63318931,1,0,0,16.6,0.04,23,0,0,0
56834,63432050,1,0,0,16.6,0.03,23,0,0,0
57278,63545031,1,0,0,16.6,0.04,23,0,0,0
57665,63650080,1,0,0,16.6,0.04,23,0,0,0
57914,70518484,1,0,0,16.59,0.04,24,0,0,0
58207,70590976,1,0,0,16.59,0.04,23,0,0,0
58658,70696229,1,0,0,16.6,0.04,23,0,0,0
59157,70812855,1,0,0,16.59,0.04,24,0,0,0
59567,70903993,1,0,0,16.58,0.03,24,0,0,0
60060,71017482,1,0,0,16.58,0.04,24,0,0,0
60513,71120279,1,0,0,16.58,0.03,24,0,0,0
61011,71233892,1,0,0,16.59,0.04,23,0,0,0
62409,71554931,1,0,0,16.58,0.04,24,0,0,0
62860,71660324,1,0,0,16.59,0.04,23,0,0,0
63360,71776075,1,0,0,16.59,0.04,24,0,0,0
63811,71882077,1,0,0,16.59,0.04,24,0,0,0
64267,71988476,1,0,0,16.58,0.04,24,0,0,0
64722,72095946,1,0,0,16.59,0.04,24,0,0,0
65178,72199230,1,0,0,16.59,0.04,24,0,0,0
65672,72314921,1,0,0,16.59,0.04,24,0,0,0
66577,72523964,1,0,0,16.58,0.04,24,0,0,0
67034,72633023,1,9,142,16.58,0.03,24,0,0,0
67531,72745298,1,177,571,16.57,0.08,23,0,0,0
67987,72854726,1,605,957,16.55,0.14,24,0,0,0
68441,72957191,1,974,1214,16.57,0.13,24,0,0,0
68894,73061932,1,1219,1357,16.54,0.17,24,0,0,0
69389,73175465,1,1380,1714,16.42,0.37,24,0,0,0
69842,73287953,1,1803,2757,16.49,1.33,24,0,0,0
70294,73399807,1,2839,3485,16.41,1.52,24,0,0,0
70746,73504258,1,3519,3885,16.25,1.59,24,0,0,0
71200,73614325,1,3932,4442,16.21,2.22,24,0,0,0
71651,73720028,1,4488,4928,16.05,2.64,24,0,0,0
72106,74048087,1,5904,5814,15.99,3.06,24,0,0,0
72563,74153194,1,5810,5757,15.88,2.83,24,0,0,0
73017,74265163,1,5747,5657,15.92,2.81,24,1,0,0
73467,74369949,1,5648,5528,15.82,2.74,24,1,0,0
73921,74480430,1,5523,5457,15.91,2.58,24,1,0,0
74375,74586698,1,5454,5271,15.88,2.35,24,1,0,0
74828,74697887,1,5260,5128,15.94,1.82,24,1,0,0
75277,74805003,1,5123,5071,15.93,1.88,24,1,0,0
75733,74915213,1,5054,4900,15.88,1.82,24,1,0,0
76185,75023783,1,4894,4842,15.86,1.41,24,1,0,0
76642,75131259,1,4786,4400,15.87,1.15,24,1,0,0
77549,75346952,1,4430,5028,15.77,2.83,24,1,0,0
78041,75462798,1,5089,5728,15.77,3.69,24,1,0,0
78497,75569430,1,5756,6042,15.67,3.91,24,1,0,0
78910,75670443,1,6049,6200,15.77,3.67,24,1,0,0
79403,75788972,1,6197,6171,15.75,3.57,24,2,0,0
80260,76003231,1,6164,6042,15.76,3.23,24,2,0,0
80744,76111279,1,6039,6000,15.8,3.13,24,2,0,0
81144,76211073,1,5990,5842,15.82,3,24,2,0,0
81594,76322048,1,5824,5585,15.88,2.32,24,2,0,0
82036,76428946,1,5568,5242,15.86,1.94,24,2,0,0
82488,76539783,1,5239,5200,15.91,2.25,24,2,0,0
82938,76649862,1,5183,5000,15.91,1.7,24,2,0,0
83344,76749196,1,4997,4871,15.92,1.79,24,2,0,0
83831,76869754,1,4862,4771,15.91,1.69,24,2,0,0
84279,76973833,1,4769,4742,15.89,1.82,24,2,0,0
84687,77079336,1,4760,5028,15.77,2.26,24,2,0,0
85579,77296315,1,5030,5114,15.76,2.42,24,3,0,0
85988,77402730,1,5111,5071,15.86,1.83,24,3,0,0
86436,77510930,1,5067,4900,15.98,1.86,24,3,0,0
87372,77731827,1,4884,4557,15.96,1.28,24,3,0,0
87811,77836395,1,4541,4200,16.04,0.82,24,3,0,0
88304,77953059,1,4189,4085,16.04,0.97,25,3,0,0
88718,78058076,1,4077,3914,16.07,1.39,25,3,0,0
89123,78160224,1,3912,3828,16.06,1.7,24,3,0,0
89610,78277770,1,3831,3914,16.01,1.7,25,3,0,0
90062,78392805,1,3943,4128,15.99,1.51,25,3,0,0
90464,78487957,1,4129,4242,16,1.37,24,3,0,0
90961,78608535,1,4230,4142,16.03,0.92,25,3,0,0
91360,78708223,1,4140,4114,16,1.66,24,3,0,0
91811,78821750,1,4119,4171,15.95,1.25,25,3,0,0
92667,79036947,1,4172,4257,15.95,1.13,25,3,0,0
93120,79145163,1,4267,4414,15.93,1.34,25,3,0,0
93562,79253014,1,4412,4342,15.97,1.12,25,3,0,0
94011,79362735,1,4329,4185,16.01,1.01,25,3,0,0
94450,79470216,1,4176,4071,15.97,1.05,25,3,0,0
94856,79569185,1,4071,4114,15.89,1.66,25,3,0,0
95341,79686484,1,4127,4328,15.88,1.61,25,4,0,0
95745,79785191,1,4330,4457,15.93,1.29,25,4,0,0
96237,79906165,1,4445,4328,15.91,1.25,25,4,0,0
97133,80123470,1,4329,4357,15.92,1.23,25,4,0,0
97580,80236757,1,4345,4228,15.92,1.23,25,4,0,0
97984,80332055,1,4228,4271,15.91,1.31,25,4,0,0
98431,80446245,1,4273,4300,15.92,1.4,25,4,0,0
98882,80556087,1,4305,4357,15.88,1.5,25,4,0,0
99278,80655070,1,4359,4457,15.88,1.43,25,4,0,0
99730,80766523,1,4454,4400,15.89,1.38,25,4,0,0
100175,80878217,1,4402,4457,15.85,1.24,25,4,0,0
100630,80993709,1,4441,4300,15.95,1.17,25,4,0,0
101042,81099000,1,4313,4514,15.84,1.7,25,4,0,0
101492,81212772,1,4533,4771,15.89,1.77,25,4,0,0
101935,81319188,1,4768,4742,15.89,1.49,25,4,0,0
102333,81417674,1,4738,4585,15.9,1.33,25,4,0,0
102787,81528746,1,4585,4585,15.89,1.69,25,4,0,0
103233,81641005,1,4589,4642,15.96,1.36,25,4,0,0
103680,81747296,1,4637,4542,15.91,1.46,25,4,0,0
104089,81853769,1,4538,4471,15.96,1.41,25,4,0,0
104539,81960470,1,4471,4514,15.97,1.63,25,4,0,0
104992,82075914,1,4532,4714,15.89,1.94,25,4,0,0
105443,82185699,1,4734,4942,15.79,2.01,25,5,0,0
105845,82287838,1,4951,5071,15.82,2.11,25,5,0,0
106291,82395026,1,5063,4900,15.82,1.79,25,5,0,0
106737,82505473,1,4900,4914,15.82,1.62,25,5,0,0
107188,82620930,1,4898,4742,15.81,1.54,25,5,0,0
107640,82732834,1,4745,4800,15.78,1.63,25,5,0,0
108052,82839196,1,4788,4671,15.79,1.67,25,5,0,0
108534,82946983,1,4669,4642,15.8,1.44,25,5,0,0
108989,83059267,1,4643,4657,15.77,1.53,25,5,0,0
109438,83171196,1,4648,4571,15.78,1.48,25,5,0,0
109880,83279317,1,4569,4557,15.75,1.46,25,5,0,0
110329,83388526,1,4549,4457,15.82,1.35,25,5,0,0
110773,83498773,1,4468,4614,15.82,1.68,25,5,0,0
111181,83600241,1,4613,4585,15.75,1.62,25,5,0,0
111667,83717049,1,4592,4671,15.74,1.58,25,5,0,0
112069,83817825,1,4671,4671,15.76,1.91,25,5,0,0
112518,83927292,1,4681,4871,15.67,2.22,25,5,0,0
112969,84034804,1,4856,4714,15.77,1.13,25,5,0,0
113414,84142855,1,4706,4242,15.89,0.93,25,5,0,0
113817,84248985,1,4215,3914,15.82,1.08,25,5,0,0
114311,84364912,1,3922,4014,15.83,1.86,25,5,0,0
114747,84470846,1,4043,4214,15.79,2.14,25,6,0,0
115156,84567812,1,4216,4385,15.76,1.62,25,6,0,0
116049,84790010,1,4390,4500,15.81,1.73,25,6,0,0
116493,84900321,1,4509,4600,15.93,0.9399999999999999,25,6,0,0
116902,84999553,1,4587,4057,15.97,0.97,25,6,0,0
117348,85111820,1,4058,4071,15.97,1.17,25,6,0,0
118244,85329156,1,4061,3571,15.95,0.9399999999999999,25,6,0,0
118692,85443050,1,3597,3857,15.79,1.68,25,6,0,0
119146,85555201,1,3839,3700,15.88,1.05,25,6,0,0
119506,85647400,1,3700,3714,15.85,1.21,25,6,0,0
119997,85768174,1,3729,3885,15.83,1.29,25,6,0,0
120445,85881258,1,3905,4128,15.91,1.78,25,6,0,0
120851,85980997,1,4127,4085,15.79,1.61,25,6,0,0
121340,86100412,1,4124,4471,15.84,2.55,25,6,0,0
121821,86215196,1,4498,4857,15.83,2.14,25,6,0,0
122225,86313241,1,4860,4928,15.81,1.64,25,6,0,0
122679,86424916,1,4916,4685,15.82,1.44,25,6,0,0
123132,86536800,1,4670,4471,15.85,1.31,25,6,0,0
123574,86645990,1,4473,4514,15.87,1.24,25,6,0,0
124020,86753027,1,4511,4457,15.86,1.49,25,6,0,0
124431,86862815,1,4468,4700,15.82,1.93,25,6,0,0
124883,86974940,1,4707,4885,15.82,1.8,25,7,0,0
125328,87083923,1,4880,4828,15.85,1.62,25,7,0,0
125774,87195953,1,4831,4857,15.86,1.94,25,7,0,0
126226,87305960,1,4855,4842,15.83,1.82,25,7,0,0
126630,87409182,1,4842,4842,15.88,1.4,25,7,0,0
127117,87522795,1,4838,4785,15.8,1.65,25,7,0,0
127564,87635451,1,4792,4871,15.84,1.75,25,7,0,0
127971,87735515,1,4868,4842,15.85,1.65,25,7,0,0
128414,87844839,1,4837,4785,15.84,1.59,25,7,0,0
128867,87955854,1,4788,4828,15.85,1.51,25,7,0,0
129311,88064262,1,4813,4614,15.82,1.25,25,7,0,0
129760,88170820,1,4621,4714,15.75,1.5,25,7,0,0
130204,88279991,1,4708,4585,15.77,1.4,25,7,0,0
130648,88384532,1,4583,4542,15.77,1.43,25,7,0,0
131102,88497907,1,4544,4571,15.81,1.57,25,7,0,0
131550,88610269,1,4549,4371,15.77,1.24,25,7,0,0
131988,88711188,1,4374,4457,15.76,1.49,25,7,0,0
132395,88816004,1,4456,4414,15.8,1.17,25,7,0,0
132845,88925998,1,4411,4300,15.85,1.25,25,7,0,0
133341,89045451,1,4313,4442,15.73,1.38,25,7,0,0
133743,89146037,1,4445,4600,15.83,1.83,25,7,0,0
134232,89260915,1,4612,4785,15.8,1.82,25,8,0,0
134684,89373221,1,4807,5042,15.8,2,25,8,0,0
135125,89478003,1,5049,5214,15.82,2.11,25,8,0,0
135575,89586939,1,5215,5257,15.85,2.37,25,8,0,0
136019,89696471,1,5260,5342,15.87,2.08,25,8,0,0
136473,89812349,1,5342,5357,15.76,2.12,25,8,0,0
136924,89926188,1,5368,5485,15.82,2.1,25,8,0,0
137778,90137248,1,5483,5428,15.8,1.9,25,8,0,0
138189,90243427,1,5422,5328,15.85,1.62,25,8,0,0
138685,90362062,1,5315,5185,15.85,1.58,25,8,0,0
139084,90461942,1,5183,5157,15.8,1.72,25,8,0,0
139538,90570152,1,5146,5000,15.79,1.46,25,8,0,0
139941,90672456,1,4998,4900,15.83,1.37,25,8,0,0
140471,90794741,1,4880,4685,15.82,1.21,25,8,0,0
140876,90896449,1,4681,4614,15.83,1.35,25,8,0,0
141332,91008930,1,4620,4771,15.83,1.32,25,8,0,0
141784,91126738,1,4760,4657,15.81,1.44,25,8,0,0
142189,91228432,1,4655,4628,15.86,1.41,25,9,0,0
142638,91338198,1,4632,4700,15.83,1.22,25,9,0,0
143048,91442780,1,4697,4628,15.81,1.54,25,9,0,0
143534,91554744,1,4641,4828,15.86,1.78,25,9,0,0
143938,91658173,1,4827,4785,15.83,1.36,25,9,0,0
144390,91766807,1,4783,4714,15.77,1.63,25,9,0,0
144885,91888685,1,4737,5000,15.8,1.91,25,9,0,0
145331,92004978,1,5017,5157,15.78,2.34,25,9,0,0
145740,92103388,1,5165,5271,15.77,1.87,25,9,0,0
146631,92320236,1,5271,5300,15.69,2.29,25,9,0,0
147039,92428820,1,5299,5271,15.67,2.17,25,9,0,0
147531,92543289,1,5242,4957,15.75,1.45,25,9,0,0
147930,92641466,1,4952,4728,15.79,1.47,25,9,0,0
148385,92752013,1,4717,4600,15.72,1.51,25,9,0,0
148792,92855732,1,4583,4257,15.78,1.12,25,9,0,0
149285,92976062,1,4251,4214,15.66,1.48,25,9,0,0
149736,93090255,1,4205,4142,15.7,1.11,25,9,0,0
150182,93195449,1,4160,4314,15.72,1.56,25,9,0,0
150587,93297065,1,4316,4342,15.69,1.73,25,9,0,0
150995,93397956,1,4345,4571,15.73,1.96,25,10,0,0
151483,93516748,1,4584,4771,15.7,1.9,25,10,0,0
151931,93628827,1,4762,4642,15.75,1.6,25,10,0,0
152383,93738589,1,4653,4742,15.72,1.95,25,10,0,0
152783,93837984,1,4738,4657,15.73,1.74,25,10,0,0
153279,93955958,1,4661,4714,15.75,1.73,25,10,0,0
153682,94059949,1,4714,4714,15.74,1.95,25,10,0,0
154171,94177475,1,4736,4957,15.76,2.24,25,10,0,0
154575,94277313,1,4962,5057,15.79,1.91,25,10,0,0
155024,94386171,1,5050,4928,15.81,1.82,25,10,0,0
155436,94493392,1,4936,5100,15.76,2.2,25,10,0,0
155884,94604759,1,5092,5000,15.79,2.19,25,10,0,0
156331,94714578,1,5012,5128,15.73,2.38,25,10,0,0
156739,94819738,1,5133,5242,15.73,2.38,25,10,0,0
157197,94931275,1,5242,5242,15.76,2.08,25,10,0,0
158529,95259934,1,5239,5128,15.69,1.73,25,11,0,0
158981,95369088,1,5117,4971,15.79,1.85,25,11,0,0
159428,95479057,1,4955,4800,15.77,1.4,25,11,0,0
159878,95592008,1,4779,4642,15.77,1.47,25,11,0,0
160286,95695714,1,4651,4742,15.73,1.88,26,11,0,0
160691,95794999,1,4743,4800,15.79,1.86,26,11,0,0
161138,95904790,1,4804,4900,15.79,1.96,25,11,0,0
161590,96016965,1,4904,4971,15.76,1.76,25,11,0,0
162041,96125778,1,4968,4942,15.79,1.74,25,11,0,0
162440,96225238,1,4941,4900,15.8,1.6,25,11,0,0
162934,96342842,1,4894,4842,15.8,1.72,26,11,0,0
163378,96449166,1,4843,4871,15.77,1.71,25,11,0,0
163827,96558306,1,4871,4885,15.79,1.81,26,11,0,0
164269,96664953,1,4890,4971,15.75,1.69,25,11,0,0
165127,96880007,1,4966,4771,15.78,1.59,26,11,0,0
166031,97102556,1,4772,4800,15.77,1.45,26,11,0,0
166483,97218114,1,4800,4800,15.75,1.61,26,11,0,0
166890,97316799,1,4799,4742,15.77,1.64,25,12,0,0
167377,97435743,1,4741,4728,15.75,1.58,26,12,0,0
167824,97543203,1,4728,4742,15.79,1.57,26,12,0,0
168271,97653397,1,4738,4685,15.67,1.48,25,12,0,0
168721,97762469,1,4686,4714,15.73,1.66,25,12,0,0
169129,97866795,1,4708,4628,15.75,1.48,25,12,0,0
169584,97978229,1,4634,4700,15.79,1.72,25,12,0,0
170033,98089224,1,4698,4685,15.79,1.71,25,12,0,0
170928,98306951,1,4692,4928,15.77,1.93,26,12,0,0
171334,98411303,1,4931,4971,15.74,2.06,26,12,0,0
171787,98523020,1,4981,5128,15.72,2.16,26,12,0,0
172186,98622458,1,5126,5028,15.69,1.97,25,12,0,0
172633,98731242,1,5030,5100,15.73,2.18,26,12,0,0
173120,98851911,1,5089,5014,15.75,2.04,26,12,0,0
173573,98955936,1,5004,4900,15.79,1.53,26,12,0,0
174010,99060779,1,4888,4714,15.76,1.36,26,12,0,0
174457,99173910,1,4715,4728,15.71,1.66,26,12,0,0
174902,99278322,1,4721,4642,15.76,1.27,26,12,0,0
175350,99388871,1,4619,4442,15.77,1.17,26,13,0,0
175762,99492026,1,4460,4685,15.75,2.12,26,13,0,0
176245,99611999,1,4713,4957,15.73,2.13,26,13,0,0
176694,99717016,1,4964,5028,15.66,2.09,26,13,0,0
177139,99829320,1,5013,4885,15.67,1.73,26,13,0,0
177547,99927381,1,4884,4828,15.66,1.44,25,13,0,0
178031,100044180,1,4865,5185,15.67,3.09,26,13,0,0
178485,100156734,1,5080,4285,15.73,0.75,26,13,0,0
179785,100477042,1,4273,3942,15.73,1.49,26,13,0,0
180234,100584780,1,3954,4142,15.76,1.59,26,13,0,0
180636,100687318,1,4146,4342,15.77,1.6,26,13,0,0
181119,100799515,1,4347,4400,15.73,1.61,26,13,0,0
181571,100910778,1,4408,4471,15.76,1.54,26,13,0,0
182017,101021468,1,4483,4600,15.76,1.37,26,13,0,0
182909,101239451,1,4589,4385,15.7,1.61,26,13,0,0
183318,101340053,1,4391,4514,15.74,1.46,26,13,0,0
183766,101450800,1,4512,4485,15.76,1.34,26,13,0,0
184218,101565552,1,4475,4400,15.79,1.21,26,13,0,0
184628,101669379,1,4403,4442,15.78,1.5,26,13,0,0
185117,101786997,1,4443,4457,15.75,1.35,26,14,0,0
185481,101880049,1,4458,4542,15.76,1.55,26,14,0,0
185974,101995201,1,4543,4557,15.72,1.61,26,14,0,0
186418,102102803,1,4561,4657,15.76,1.5,26,14,0,0
186865,102216465,1,4650,4585,15.73,1.54,26,14,0,0
187345,102326230,1,4587,4642,15.74,1.62,26,14,0,0
187798,102436491,1,4644,4685,15.74,1.52,26,14,0,0
188243,102542467,1,4687,4742,15.7,1.59,26,14,0,0
188646,102646422,1,4739,4657,15.77,1.57,26,14,0,0
189139,102766193,1,4660,4700,15.79,1.73,26,14,0,0
189550,102872001,1,4697,4657,15.8,1.6,26,14,0,0
190001,102980864,1,4644,4485,15.8,1.2,26,14,0,0
190412,103086968,1,4493,4600,15.82,1.35,26,14,0,0
190857,103191379,1,4594,4471,15.83,1.42,26,14,0,0
191309,103307242,1,4476,4600,15.76,1.7,26,14,0,0
191719,103410478,1,4600,4614,15.83,1.39,26,14,0,0
192216,103528936,1,4610,4557,15.83,1.4,26,14,0,0
192617,103629989,1,4555,4500,15.76,1.48,26,14,0,0
193077,103742762,1,4501,4528,15.77,1.43,26,14,0,0
193516,103847481,1,4530,4628,15.8,1.63,26,14,0,0
193971,103960307,1,4627,4614,15.77,1.2,26,14,0,0
194418,104071174,1,4601,4428,15.82,1.38,26,14,0,0
194865,104178433,1,4434,4571,15.72,1.66,26,15,0,0
195316,104294023,1,4596,4842,15.71,2.14,26,15,0,0
195767,104401811,1,4837,4785,15.77,1.48,26,15,0,0
196212,104510775,1,4772,4600,15.71,1.75,26,15,0,0
196615,104610032,1,4608,4800,15.71,1.67,26,15,0,0
197067,104721437,1,4793,4657,15.76,1.54,26,15,0,0
197517,104833842,1,4655,4642,15.76,1.5,26,15,0,0
197969,104945293,1,4654,4785,15.75,1.95,26,15,0,0
198373,105048719,1,4789,4900,15.65,2.18,26,15,0,0
198819,105154448,1,4902,5114,15.64,1.91,26,15,0,0
199267,105266086,1,5112,5028,15.59,2,26,15,0,0
199720,105374697,1,5030,5142,15.67,2.05,26,15,0,0
200207,105490963,1,5146,5200,15.64,2.11,26,15,0,0
200658,105600157,1,5203,5242,15.6,2.11,26,15,0,0
201061,105702512,1,5240,5200,15.63,2.14,26,15,0,0
201464,105803270,1,5197,5014,15.63,1.91,26,15,0,0
201954,105918957,1,5010,4971,15.6,2.03,26,15,0,0
202399,106032231,1,4977,5057,15.64,2.1,26,15,0,0
202849,106145232,1,5055,5042,15.63,2,26,16,0,0
203254,106240543,1,5042,5071,15.66,2.17,26,16,0,0
203741,106355696,1,5064,4985,15.7,1.74,26,16,0,0
204152,106464392,1,4984,4971,15.73,1.98,26,16,0,0
204601,106573444,1,4967,4800,15.67,1.69,26,16,0,0
205084,106689927,1,4797,4771,15.61,1.66,26,16,0,0
205534,106804936,1,4772,4785,15.62,1.66,26,16,0,0
205945,106902475,1,4778,4685,15.69,1.66,26,16,0,0
206390,107013324,1,4693,4814,15.69,1.95,26,16,0,0
207238,107219073,1,4813,4685,15.7,1.54,26,16,0,0
207724,107336750,1,4688,4714,15.76,1.66,26,16,0,0
208175,107448790,1,4712,4700,15.72,1.47,26,16,0,0
208617,107554937,1,4693,4600,15.72,1.56,26,16,0,0
209060,107666438,1,4626,5028,15.63,2.32,26,16,0,0
209510,107775181,1,5027,5000,15.68,1.91,26,16,0,0
209957,107883091,1,4998,4914,15.68,1.39,26,16,0,0
210403,107988702,1,4912,4814,15.69,1.57,26,16,0,0
210854,108102202,1,4806,4685,15.71,1.25,26,16,0,0
211306,108217991,1,4677,4571,15.67,1.37,26,17,0,0
211758,108325988,1,4561,4428,15.7,1.25,26,17,0,0
212201,108433299,1,4430,4457,15.66,1.29,26,17,0,0
212650,108543056,1,4443,4271,15.72,0.88,26,17,0,0
213094,108653281,1,4255,4100,15.7,1.2,26,17,0,0
213500,108751386,1,4102,4242,15.69,1.67,26,17,0,0
213952,108864530,1,4249,4314,15.66,1.69,26,17,0,0
214403,108975802,1,4309,4257,15.7,1.21,26,17,0,0
214856,109086159,1,4275,4585,15.61,1.89,26,17,0,0
215703,109292444,1,4586,4685,15.66,1.7,26,17,0,0
216158,109405306,1,4693,4800,15.66,1.91,26,17,0,0
216604,109513249,1,4797,4771,15.61,1.7,26,17,0,0
217049,109625033,1,4781,4885,15.6,2.15,26,17,0,0
217494,109732071,1,4891,4985,15.64,2.09,26,17,0,0
217943,109843924,1,4995,5100,15.59,2.14,26,17,0,0
218348,109942209,1,5096,4900,15.67,1.45,26,17,0,0
218791,110052742,1,4897,4842,15.7,1.83,26,17,0,0
219244,110163940,1,4838,4785,15.7,1.81,26,17,0,0
219691,110276061,1,4771,4628,15.7,1.7,26,17,0,0
220146,110385385,1,4625,4600,15.63,1.69,26,18,0,0
220548,110487857,1,4607,4700,15.69,1.54,26,18,0,0
220989,110595277,1,4684,4542,15.68,1.72,26,18,0,0
221877,110810188,1,4552,4985,15.52,2.6,26,18,0,0
222330,110922314,1,4991,5057,15.48,2.16,26,18,0,0
222737,111025810,1,5065,5242,15.55,2.68,26,18,0,0
223186,111135081,1,5242,5257,15.61,2.2,26,18,0,0
223630,111243311,1,5246,5042,15.64,1.73,26,18,0,0
224077,111349734,1,5032,4671,15.73,1.21,26,18,0,0
224527,111460422,1,4664,4485,15.72,1.47,26,18,0,0
224973,111567250,1,4485,4485,15.68,1.4,26,18,0,0
225382,111674289,1,4484,4471,15.73,1.32,26,18,0,0
225830,111783217,1,4471,4485,15.77,2.31,26,18,0,0
226279,111896003,1,4480,4428,15.78,1.05,26,18,0,0
226726,112001206,1,4400,3814,15.82,0.8,26,18,0,0
227171,112110779,1,3808,3471,15.75,1.29,26,18,0,0
227609,112217506,1,3478,3571,15.78,1.08,26,18,0,0
228057,112323405,1,3574,3657,15.75,1.17,26,18,0,0
228499,112431069,1,3660,3742,15.72,1.06,26,18,0,0
228947,112538449,1,3744,3785,15.72,1.36,26,18,0,0
229350,112642468,1,3800,3985,15.76,1.8,26,19,0,0
229797,112750065,1,3987,4042,15.76,1.55,26,19,0,0
230276,112862819,1,4016,3757,15.77,1.7,26,19,0,0
230729,112972438,1,3757,3771,15.71,1.42,26,19,0,0
231130,113075188,1,3781,4000,15.69,1.57,26,19,0,0
231583,113183760,1,4005,4342,15.64,2.23,26,19,0,0
232031,113296994,1,4385,4785,15.66,2.08,26,19,0,0
232429,113401060,1,4772,4642,15.59,1.46,26,19,0,0
232885,113513067,1,4637,4600,15.61,1.4,26,19,0,0
233284,113616413,1,4598,4500,15.67,1.33,26,19,0,0
233731,113725974,1,4495,4457,15.61,1.32,26,19,0,0
234174,113834799,1,4457,4457,15.7,1.23,26,19,0,0
234626,113944438,1,4449,4371,15.68,1.17,26,19,0,0
235065,114052833,1,4359,4257,15.69,1.22,26,19,0,0
235469,114153773,1,4260,4342,15.66,1.27,26,19,0,0
235874,114257225,1,4344,4457,15.64,1.43,26,19,0,0
236362,114371234,1,4444,4328,15.7,1.26,26,19,0,0
236802,114475213,1,4320,4014,15.69,0.9,26,19,0,0
237698,114697688,1,4012,3971,15.51,1.84,26,19,0,0
238150,114811406,1,3990,4185,15.54,2.08,26,19,0,0
238548,114910720,1,4191,4328,15.68,1.5,26,19,0,0
238991,115019299,1,4328,4371,15.64,1.58,26,20,0,0
239436,115125314,1,4372,4514,15.64,1.59,26,20,0,0
239887,115238828,1,4516,4557,15.63,1.51,26,20,0,0
240296,115340068,1,4555,4457,15.57,1.52,26,20,0,0
240740,115449827,1,4455,4385,15.67,1.1,26,20,0,0
241235,115569037,1,4367,4200,15.69,1.05,26,20,0,0
241675,115676384,1,4195,4128,15.64,1.24,26,20,0,0
242122,115782750,1,4118,4000,15.72,1.22,26,20,0,0
242528,115885990,1,3998,3928,15.67,1.95,26,20,0,0
243455,116109917,1,3935,4100,15.59,1.93,26,20,0,0
243854,116210060,1,4098,4042,15.73,1.38,26,20,0,0
244307,116321938,1,4052,4271,15.66,2.18,26,20,0,0
244748,116430182,1,4281,4471,15.69,1.67,26,20,0,0
245196,116539689,1,4459,4300,15.73,1.05,26,20,0,0
245644,116650266,1,4288,4057,15.67,1.22,26,20,0,0
246094,116757870,1,4059,4128,15.6,1.54,26,20,0,0
246542,116871286,1,4161,4528,15.64,1.94,26,20,0,0
247389,117079433,1,4535,4857,15.62,1.75,26,20,0,0
247881,117195693,1,4862,4914,15.63,2.04,26,20,0,0
248283,117296768,1,4914,4928,15.69,1.95,26,21,0,0
248764,117412804,1,4931,4985,15.69,1.94,26,21,0,0
249215,117521720,1,4988,5028,15.72,2.03,26,21,0,0
249617,117624027,1,5028,5042,15.73,2.26,26,21,0,0
250107,117740437,1,5057,5214,15.64,2.44,26,21,0,0
250509,117841464,1,5216,5328,15.72,2.5,26,21,0,0
250995,117955603,1,5343,5542,15.72,2.74,26,21,0,0
251884,118171775,1,5543,5600,15.63,2.34,26,21,0,0
252289,118274222,1,5600,5600,15.68,2.76,26,21,0,0
252773,118391930,1,5600,5600,15.63,2.45,26,21,0,0
253177,118495504,1,5598,5442,15.69,2.05,26,21,0,0
253666,118612778,1,5418,5214,15.69,1.76,26,21,0,0
254067,118712704,1,5199,4928,15.68,1.59,26,21,0,0
254513,118824173,1,4914,4800,15.66,1.37,26,21,0,0
254959,118930740,1,4782,4571,15.62,1.37,26,21,0,0
255372,119038021,1,4568,4528,15.67,1.27,26,22,0,0
255858,119159166,1,4508,4357,15.66,1.27,26,22,0,0
256263,119258048,1,4358,4371,15.6,1.53,26,22,0,0
256710,119366902,1,4385,4485,15.64,1.61,26,22,0,0
257151,119473173,1,4491,4571,15.62,1.86,26,22,0,0
257642,119591783,1,4573,4600,15.64,1.56,26,22,0,0
258052,119696418,1,4607,4685,15.64,1.57,26,22,0,0
258940,119912225,1,4685,4700,15.7,1.55,26,22,0,0
259384,120021905,1,4697,4642,15.7,1.35,26,22,0,0
259836,120133473,1,4642,4657,15.69,1.72,26,22,0,0
260288,120248235,1,4672,4785,15.69,1.88,26,22,0,0
260694,120346778,1,4788,4971,15.69,2.16,26,22,0,0
261135,120453264,1,4979,5157,15.63,2.05,26,22,0,0
261588,120563297,1,5159,5300,15.67,2.29,26,22,0,0
262070,120677462,1,5302,5357,15.61,2.3,26,22,0,0
262525,120795404,1,5379,5528,15.72,2.46,26,22,0,0
262926,120892033,1,5527,5514,15.6,2.61,26,22,0,0
263376,121000957,1,5510,5385,15.66,2.3,26,22,0,0
263818,121111028,1,5390,5500,15.67,2.02,26,23,0,0
264228,121216776,1,5496,5242,15.67,1.77,26,23,0,0
264713,121332018,1,5231,5128,15.69,1.64,26,23,0,0
265113,121434705,1,5120,4928,15.71,1.6,26,23,0,0
265559,121541469,1,4925,4871,15.72,1.51,26,23,0,0
266003,121650020,1,4869,4814,15.7,1.52,26,23,0,0
266456,121758945,1,4812,4785,15.73,1.71,26,23,0,0
266908,121870818,1,4786,4814,15.72,1.6,26,23,0,0
267357,121981081,1,4814,4814,15.65,1.72,26,23,0,0
267801,122090164,1,4803,4657,15.67,1.52,26,23,0,0
268296,122207192,1,4654,4628,15.66,1.32,26,23,0,0
268700,122310001,1,4620,4442,15.64,1.21,26,23,0,0
269144,122419931,1,4433,4271,15.6,1.17,26,23,0,0
269633,122535743,1,4270,4257,15.64,1.36,26,23,0,0
270035,122638204,1,4264,4414,15.66,1.39,26,23,0,0
270484,122747401,1,4412,4328,15.72,1.23,26,23,0,0
270927,122854867,1,4328,4371,15.67,1.41,26,23,0,0
271416,122973415,1,4364,4300,15.7,1.23,26,23,0,0
271817,123073447,1,4302,4442,15.6,1.56,26,23,0,0
272306,123194008,1,4474,4685,15.6,1.94,26,23,0,0
272747,123294460,1,4691,4842,15.66,2.27,26,24,0,0
273200,123406937,1,4855,5042,15.63,1.83,26,24,0,0
273646,123519849,1,5031,4928,15.65,1.68,26,24,0,0
274087,123624789,1,4910,4742,15.65,1.47,26,24,0,0
274537,123733865,1,4753,4871,15.61,1.77,26,24,0,0
274939,123837919,1,4868,4814,15.62,1.69,26,24,0,0
275352,123943067,1,4818,4871,15.64,1.73,26,24,0,0
275803,124057191,1,4872,4885,15.62,1.79,26,24,0,0
276690,124276183,1,4879,4671,15.6,1.49,26,24,0,0
277135,124382794,1,4667,4600,15.63,1.54,26,24,0,0
277583,124496807,1,4596,4557,15.67,1.41,26,24,0,0
277984,124596199,1,4557,4571,15.63,1.56,26,24,0,0
278434,124706179,1,4571,4585,15.65,1.59,26,24,0,0
278834,124808072,1,4585,4614,15.61,1.46,26,24,0,0
279323,124924207,1,4618,4657,15.63,1.66,26,24,0,0
279731,125029307,1,4661,4771,15.63,1.72,26,24,0,0
280177,125134767,1,4770,4714,15.58,1.48,26,24,0,0
281071,125355473,1,4707,4542,15.64,0.9399999999999999,26,24,0,0
281512,125465935,1,4526,4300,15.72,1.26,26,24,0,0
282365,125678215,1,4305,4571,15.59,1.82,26,25,0,0
282813,125788299,1,4575,4785,15.65,1.69,26,25,0,0
283261,125900751,1,4789,4857,15.64,1.87,26,25,0,0
283703,126012344,1,4863,4957,15.64,2,26,25,0,0
284115,126114824,1,4953,4714,15.72,1.29,26,25,0,0
284603,126235456,1,4678,4357,15.74,1.19,26,25,0,0
285010,126333400,1,4357,4400,15.7,1.33,26,25,0,0
285457,126443169,1,4402,4528,15.67,1.64,26,25,0,0
285941,126562222,1,4547,4714,15.69,1.74,26,25,0,0
286346,126660988,1,4710,4485,15.66,1.21,26,25,0,0
286833,126782824,1,4477,4385,15.66,1.27,26,25,0,0
287278,126890734,1,4386,4400,15.64,1.12,26,25,0,0
287726,126999316,1,4375,4128,15.72,0.96,26,25,0,0
288133,127103781,1,4118,3985,15.71,1,26,25,0,0
289029,127321185,1,3979,3828,15.69,1.35,26,25,0,0
289432,127428893,1,3825,3657,15.73,0.97,26,25,0,0
289912,127539692,1,3677,3900,15.67,1.58,26,25,0,0
290324,127647909,1,3920,4200,15.66,1.84,26,25,0,0
290816,127765297,1,4218,4371,15.73,1.49,26,25,0,0
291174,127856449,1,4371,4400,15.71,1.36,26,25,0,0
291669,127977415,1,4401,4414,15.72,1.3,26,25,0,0
292030,128071934,1,4418,4514,15.72,1.51,26,26,0,0
292487,128183049,1,4515,4571,15.69,1.52,26,26,0,0
292972,128300243,1,4573,4600,15.69,1.27,26,26,0,0
293378,128403730,1,4605,4657,15.68,1.39,26,26,0,0
293820,128505405,1,4674,4900,15.66,1.88,26,26,0,0
294710,128726304,1,4888,4571,15.73,0.84,26,26,0,0
295154,128837983,1,4568,4542,15.7,1.59,26,26,0,0
295602,128946312,1,4553,4700,15.7,1.43,26,26,0,0
296003,129046304,1,4694,4442,15.66,1.13,26,26,0,0
296457,129156065,1,4442,4457,15.63,1.41,26,26,0,0
296906,129267797,1,4464,4642,15.69,1.53,26,26,0,0
297354,129376469,1,4635,4514,15.73,1.21,26,26,0,0
297795,129484202,1,4517,4585,15.63,1.33,26,26,0,0
298687,129702017,1,4583,4528,15.73,1.35,26,26,0,0
299131,129812261,1,4527,4514,15.69,1.19,26,26,0,0
299582,129925207,1,4520,4585,15.66,1.49,26,26,0,0
300026,130034442,1,4585,4585,15.63,1.43,26,26,0,0
300475,130140265,1,4576,4485,15.66,1.2,26,26,0,0
300912,130244799,1,4477,4328,15.69,1.13,26,26,0,0
301366,130356604,1,4305,4000,15.69,0.96,26,26,0,0
301816,130468470,1,3997,3971,15.69,1.95,26,26,0,0
302264,130577972,1,3959,3800,15.69,1.88,26,26,0,0
302710,130688036,1,3823,4057,15.66,1.69,26,27,0,0
303159,130796799,1,4057,4057,15.64,2.25,26,27,0,0
303558,130897240,1,4068,4300,15.68,1.73,26,27,0,0
303971,131007797,1,4313,4600,15.61,1.91,26,27,0,0
304904,131229835,1,4588,4357,15.71,1.09,26,27,0,0
305304,131325046,1,4359,4457,15.71,1.35,26,27,0,0
305758,131441734,1,4445,4328,15.67,1.21,26,27,0,0
306202,131548206,1,4328,4328,15.74,1.26,26,27,0,0
306643,131653980,1,4326,4285,15.69,0.92,26,27,0,0
307094,131764910,1,4276,4085,15.66,0.95,26,27,0,0
307570,131876230,1,4089,4157,15.71,1.54,26,27,0,0
307979,131981235,1,4180,4471,15.61,1.41,26,27,0,0
308426,132093265,1,4484,4628,15.62,1.75,26,27,0,0
308879,132204601,1,4631,4657,15.61,1.62,26,27,0,0
309281,132304268,1,4658,4685,15.61,1.5,26,27,0,0
309731,132416201,1,4685,4685,15.6,1.75,26,27,0,0
310179,132524039,1,4684,4671,15.55,1.64,26,27,0,0
310585,132627215,1,4672,4714,15.57,1.64,26,27,0,0
311076,132744989,1,4718,4771,15.6,1.8,26,27,0,0
311480,132847269,1,4771,4785,15.55,1.82,26,27,0,0
311927,132956114,1,4778,4642,15.56,1.65,26,28,0,0
312370,133063792,1,4636,4514,15.62,1.26,26,28,0,0
312820,133172486,1,4510,4442,15.58,1.32,26,28,0,0
313268,133286225,1,4441,4428,15.65,1.51,26,28,0,0
313718,133394957,1,4412,4257,15.66,1.18,26,28,0,0
314159,133505087,1,4257,4257,15.63,1.28,26,28,0,0
314567,133608717,1,4268,4585,15.54,2.17,26,28,0,0
315012,133714857,1,4592,5014,15.49,2.84,26,28,0,0
315452,133822351,1,5013,5000,15.47,2,26,28,0,0
315906,133936158,1,5003,5057,15.56,1.83,26,28,0,0
316315,134041730,1,5021,4557,15.65,0.82,26,28,0,0
316766,134151185,1,4511,3914,15.68,0.48,26,28,0,0
317166,134250295,1,3908,3528,15.7,1.01,26,28,0,0
317656,134366299,1,3521,3428,15.67,1.55,26,28,0,0
318059,134468419,1,3435,3771,15.55,1.7,26,28,0,0
318552,134590232,1,3802,4014,15.68,1.95,26,28,0,0
318991,134699240,1,4030,4228,15.5,2.13,26,28,0,0
319479,134810301,1,4269,4442,15.66,1.57,26,28,0,0
319878,134907258,1,4445,4542,15.66,1.37,26,28,0,0
320325,135020235,1,4538,4471,15.63,1.33,26,28,0,0
320779,135135261,1,4472,4485,15.62,1.3,26,28,0,0
321183,135229996,1,4484,4457,15.63,1.6,26,28,0,0
322074,135455605,1,4454,4371,15.65,1.26,26,29,0,0
322527,135564022,1,4380,4514,15.62,1.59,26,29,0,0
322975,135676734,1,4511,4485,15.6,1.45,26,29,0,0
324272,135993842,1,4493,4771,15.57,1.6,26,29,0,0
324671,136093743,1,4764,4471,15.65,1.14,26,29,0,0
325160,136214483,1,4457,4314,15.67,1.18,26,29,0,0
325596,136315475,1,4308,4257,15.58,1.65,26,29,0,0
326000,136418934,1,4259,4385,15.42,1.45,26,29,0,0
326491,136535558,1,4377,4300,15.58,1.43,26,29,0,0
326928,136638739,1,4295,4242,15.63,1.01,26,29,0,0
327381,136750883,1,4234,4128,15.58,1.25,26,29,0,0
327816,136854028,1,4125,4042,15.46,1.19,26,29,0,0
328270,136966460,1,4046,4114,15.59,2.8,26,29,0,0
328716,137076874,1,4130,4342,15.56,2.21,26,29,0,0
329124,137176677,1,4342,4342,15.61,1.59,26,29,0,0
329606,137293461,1,4338,4285,15.55,1.67,26,29,0,0
330010,137394868,1,4287,4457,15.62,1.49,26,29,0,0
330455,137501984,1,4457,4457,15.63,1.27,26,29,0,0
330908,137617421,1,4439,4271,15.66,1.08,26,29,0,0
331357,137726390,1,4265,4185,15.64,1.28,26,29,0,0
331806,137839860,1,4174,4057,15.52,1.36,26,30,0,0
332214,137941031,1,4056,4042,15.61,1.88,26,30,0,0
332703,138058675,1,4040,4028,15.45,2.15,26,30,0,0
333110,138158455,1,4029,4057,15.52,2.18,26,30,0,0
333587,138271163,1,4057,4057,15.58,2.21,26,30,0,0
334035,138379428,1,4070,4257,15.61,1.7,26,30,0,0
334477,138487940,1,4263,4400,15.56,1.56,26,30,0,0
334934,138604738,1,4454,4842,15.5,2.2,26,30,0,0
335333,138703085,1,4847,5100,15.54,2.43,26,30,0,0
335778,138814969,1,5121,5414,15.49,2.27,26,30,0,0
336231,138924979,1,5413,5400,15.5,2.31,26,30,0,0
336669,139030444,1,5400,5414,15.55,2.26,26,30,0,0
337124,139140115,1,5414,5414,15.57,2.32,26,30,0,0
337609,139259271,1,5411,5385,15.55,2.16,26,30,0,0
338013,139358164,1,5386,5400,15.61,1.98,26,30,0,0
338459,139471474,1,5385,5142,15.61,1.7,26,30,0,0
338906,139577203,1,5142,5157,15.59,2.18,26,31,0,0
339354,139690155,1,5164,5242,15.64,1.97,26,31,0,0
339833,139805170,1,5235,5157,15.64,1.76,26,31,0,0
340240,139906675,1,5151,5042,15.61,1.72,26,31,0,0
341135,140126180,1,5041,5028,15.61,1.85,26,31,0,0
341586,140241795,1,5031,5071,15.6,1.84,26,31,0,0
342032,140349006,1,5063,5000,15.54,1.68,26,31,0,0
342923,140566180,1,4998,4942,15.66,1.71,26,31,0,0
343368,140676816,1,4940,4900,15.64,1.64,26,31,0,0
344260,140896212,1,4902,4985,15.67,1.68,26,31,0,0
344670,141003212,1,4982,4900,15.63,1.84,26,31,0,0
345158,141121968,1,4888,4800,15.66,1.47,26,31,0,0
346041,141330191,1,4757,3014,15.75,1.15,26,31,0,0
346896,141545790,1,3016,3314,15.84,1.1,26,31,0,0
347341,141660277,1,3234,2528,15.9,0.36,26,31,0,0
347790,141764382,1,2514,2185,15.91,0.17,26,31,0,0
348235,141882894,1,2159,2028,16.04,0.12,26,31,0,0
348641,141976871,1,2026,2000,16,0.21,26,31,0,0
349092,142086802,1,2001,2071,16.02,0.24,26,31,0,0
349540,142193408,1,2069,1971,16.02,0.16,26,31,0,0
349979,142309923,1,1969,1942,16.02,0.16,26,31,0,0
350429,142420318,1,1940,1928,16.02,0.2,26,31,0,0
350837,142516900,1,1928,1957,16.04,0.18,26,31,0,0
351322,142639877,1,1961,2014,16.03,0.17,26,31,0,0
351768,142745182,1,2014,2014,16.04,0.26,26,31,0,0
352212,142857213,1,2012,2000,16.05,0.15,26,31,0,0
352661,142961945,1,1999,1985,16.01,0.27,26,31,0,0
353113,143072497,1,1991,2085,16.02,0.32,26,31,0,0
353557,143183223,1,2101,2285,16.04,0.47,26,31,0,0
353964,143282013,1,2290,2542,16.05,0.52,26,32,0,0
354868,143504778,1,2552,2771,16.05,0.43,26,32,0,0
355318,143614336,1,2709,2157,16.14,0.04,26,32,0,0
355756,143714463,1,2133,1657,16.11,0,26,32,0,0
356200,143821086,1,1650,1357,16.11,0.04,26,32,0,0
356695,143940195,1,1353,1314,16.1,0.09,26,32,0,0
357100,144041838,1,1313,1300,16.11,0.09,26,32,0,0
357589,144156695,1,1300,1300,16.11,0.09,26,32,0,0
358037,144266155,1,1300,1300,16.12,0.09999999,26,32,0,0
358441,144362438,1,1300,1300,16.11,0.09999999,26,32,0,0
358927,144479806,1,1300,1300,16.11,0.09,26,32,0,0
359375,144586024,1,1300,1300,16.12,0.09999999,26,32,0,0
359820,144694611,1,1300,1300,16.12,0.09999999,26,32,0,0
360275,144806907,1,1300,1300,16.12,0.09,26,32,0,0
360758,144916059,1,1300,1300,16.13,0.09,26,32,0,0
361207,145028840,1,1300,1300,16.13,0.09,26,32,0,0
361614,145127475,1,1300,1314,16.13,0.09999999,26,32,0,0
362062,145234957,1,1313,1300,16.13,0.09,26,32,0,0
362512,145341994,1,1300,1300,16.14,0.09,26,32,0,0
362959,145451817,1,1300,1300,16.13,0.09999999,26,32,0,0
363453,145568854,1,1300,1300,16.14,0.09999999,26,32,0,0
363897,145677342,1,1300,1300,16.14,0.09,26,32,0,0
364346,145784828,1,1300,1300,16.14,0.09,26,32,0,0
364749,145885185,1,1300,1300,16.14,0.09999999,26,32,0,0
365195,145994031,1,1299,1285,16.14,0.09999999,26,32,0,0
365684,146109484,1,1286,1300,16.14,0.09999999,26,32,0,0
366123,146216254,1,1300,1300,16.14,0.09,26,32,0,0
366567,146324205,1,1300,1300,16.14,0.09999999,26,32,0,0
367016,146432305,1,1298,1285,16.15,0.09999999,26,32,0,0
367421,146529714,1,1285,1300,16.15,0.09,26,32,0,0
367909,146652685,1,1300,1300,16.15,0.09999999,26,32,0,0
368317,146750592,1,1300,1300,16.16,0.09999999,26,32,0,0
368759,146855810,1,1300,1300,16.16,0.09999999,26,32,0,0
369213,146965186,1,1300,1300,16.15,0.09,26,32,0,0
369654,147069316,1,1300,1300,16.16,0.09999999,26,32,0,0
370106,147178039,1,1300,1300,16.16,0.09999999,26,32,0,0
371032,147395194,1,1300,1300,16.17,0.09999999,26,32,0,0
371481,147504009,1,1300,1300,16.17,0.09999999,26,32,0,0
371922,147610011,1,1300,1300,16.17,0.09999999,26,32,0,0
372371,147716259,1,1300,1300,16.16,0.09999999,26,32,0,0
372857,147834198,1,1300,1300,16.17,0.09999999,26,32,0,0
373262,147932952,1,1300,1300,16.17,0.09,26,32,0,0
373740,148042272,1,1300,1300,16.17,0.09999999,26,32,0,0
374190,148149738,1,1300,1300,16.17,0.09999999,26,32,0,0
374640,148259889,1,1241,471,16.19,0,26,32,0,0
375090,148363483,1,451,0,16.19,0.02,26,32,0,0
376040,148588821,1,0,0,16.19,0.03,26,32,0,0
376338,148697068,1,0,0,16.2,0.02,26,32,0,0
376786,148803700,1,0,0,16.19,0.02,26,32,0,0
377241,148909266,1,0,0,16.2,0.03,26,32,0,0
377694,149019417,1,0,0,16.2,0.02,26,32,0,0
378192,149134975,1,0,0,16.2,0.02,26,32,0,0
378640,149240443,1,0,0,16.2,0.02,26,32,0,0
379093,149348299,1,0,0,16.2,0.02,26,32,0,0
379547,149459279,1,0,0,16.2,0.02,26,32,0,0
379998,149563248,1,0,0,16.2,0.02,26,32,0,0
380448,149671742,1,0,0,16.21,0.02,26,32,0,0
380940,149789495,1,0,0,16.21,0.02,26,32,0,0
381389,149893919,1,0,0,16.21,0.02,26,32,0,0
381798,149992933,1,0,0,16.2,0.02,26,32,0,0
382261,150104704,1,0,0,16.22,0.02,26,32,0,0
382747,150214065,1,0,0,16.21,0.02,26,32,0,0
383199,150320880,1,0,0,16.21,0.03,26,32,0,0
383651,150429782,1,0,0,16.21,0.02,26,32,0,0
384104,150533436,1,0,0,16.22,0.02,26,32,0,0
384560,150647092,1,0,0,16.22,0.02,26,32,0,0
385056,150760264,1,0,0,16.22,0.02,26,32,0,0
385966,150976721,1,0,0,16.22,0.02,26,32,0,0
386452,151088842,1,0,0,16.22,0.02,26,32,0,0
387356,151305183,1,0,0,16.22,0.02,26,32,0,0
387805,151411749,1,0,0,16.23,0.02,26,32,0,0
388304,151526305,1,0,0,16.23,0.02,26,32,0,0
388718,151626972,1,0,0,16.22,0.02,26,32,0,0
389171,151733448,1,0,0,16.23,0.02,25,32,0,0
389667,151851228,1,0,0,16.23,0.02,25,32,0,0
390120,151955075,1,0,0,16.23,0.02,25,32,0,0
390574,152066735,1,0,0,16.23,0.02,25,32,0,0
391025,152169188,1,0,0,16.23,0.02,25,32,0,0
