LineNo,TimeUS,Instance,RPM,RawRPM,Volt,Curr,Temp,CTot,MotTemp,Err
1644,4.9455e+07,5,0,0,16.62,0.04,22,0,0,0
1997,4.9556e+07,5,0,0,16.62,0.04,22,0,0,0
2412,4.966e+07,5,0,0,16.63,0.04,22,0,0,0
2821,4.9762e+07,5,0,0,16.62,0.04,22,0,0,0
3242,4.9866e+07,5,0,0,16.63,0.03,22,0,0,0
3701,4.998e+07,5,0,0,16.62,0.04,22,0,0,0
4116,5.0085e+07,5,0,0,16.62,0.04,22,0,0,0
4573,5.0196e+07,5,0,0,16.62,0.04,22,0,0,0
5435,5.0409e+07,5,0,0,16.63,0.04,22,0,0,0
5843,5.0513e+07,5,0,0,16.61,0.04,22,0,0,0
6256,5.062e+07,5,0,0,16.61,0.04,22,0,0,0
6666,5.0723e+07,5,0,0,16.61,0.04,22,0,0,0
7080,5.0828e+07,5,0,0,16.62,0.04,22,0,0,0
7540,5.0942e+07,5,0,0,16.61,0.04,22,0,0,0
7956,5.1046e+07,5,0,0,16.61,0.04,22,0,0,0
8368,5.1147e+07,5,0,0,16.61,0.04,22,0,0,0
8783,5.1254e+07,5,0,0,16.62,0.04,22,0,0,0
9230,5.1369e+07,5,0,0,16.62,0.04,22,0,0,0
9584,5.1469e+07,5,0,0,16.62,0.04,22,0,0,0
9997,5.1573e+07,5,0,0,16.61,0.04,22,0,0,0
10449,5.1684e+07,5,0,0,16.61,0.04,22,0,0,0
10862,5.1789e+07,5,0,0,16.62,0.04,22,0,0,0
11272,5.1891e+07,5,0,0,16.63,0.04,22,0,0,0
11724,5.2e+07,5,0,0,16.61,0.04,22,0,0,0
12148,5.2112e+07,5,0,0,16.61,0.04,22,0,0,0
12559,5.2215e+07,5,0,0,16.62,0.04,22,0,0,0
13008,5.2329e+07,5,0,0,16.61,0.04,22,0,0,0
13430,5.2435e+07,5,0,0,16.61,0.04,22,0,0,0
13844,5.2542e+07,5,0,0,16.61,0.04,22,0,0,0
14257,5.2644e+07,5,0,0,16.62,0.04,22,0,0,0
14707,5.2757e+07,5,0,0,16.62,0.04,22,0,0,0
15131,5.2867e+07,5,0,0,16.63,0.04,22,0,0,0
15546,5.2971e+07,5,0,0,16.63,0.04,22,0,0,0
16405,5.319e+07,5,0,0,16.63,0.04,22,0,0,0
16820,5.3295e+07,5,0,0,16.62,0.04,22,0,0,0
17206,5.34e+07,5,0,0,16.62,0.04,22,0,0,0
18060,5.3613e+07,5,0,0,16.61,0.04,22,0,0,0
18507,5.3727e+07,5,0,0,16.63,0.04,22,0,0,0
18921,5.3831e+07,5,0,0,16.63,0.04,22,0,0,0
19334,5.3936e+07,5,0,0,16.63,0.04,22,0,0,0
19750,5.404e+07,5,0,0,16.62,0.04,22,0,0,0
20167,5.4148e+07,5,0,0,16.63,0.04,22,0,0,0
20623,5.4263e+07,5,0,0,16.62,0.04,22,0,0,0
21033,5.4367e+07,5,0,0,16.62,0.04,22,0,0,0
21455,5.4478e+07,5,0,0,16.62,0.04,22,0,0,0
21867,5.4585e+07,5,0,0,16.62,0.04,22,0,0,0
22283,5.469e+07,5,0,0,16.62,0.04,22,0,0,0
22699,5.4796e+07,5,0,0,16.62,0.04,22,0,0,0
23109,5.4898e+07,5,0,0,16.63,0.04,22,0,0,0
23526,5.5002e+07,5,0,0,16.62,0.04,22,0,0,0
23977,5.5114e+07,5,0,0,16.61,0.04,22,0,0,0
24430,5.5226e+07,5,0,0,16.63,0.04,22,0,0,0
24848,5.5333e+07,5,0,0,16.62,0.04,22,0,0,0
25680,5.5552e+07,5,0,0,16.62,0.04,22,0,0,0
26095,5.5659e+07,5,0,0,16.61,0.04,22,0,0,0
26467,5.5754e+07,5,0,0,16.62,0.04,22,0,0,0
27328,5.597e+07,5,0,0,16.62,0.04,22,0,0,0
27781,5.6082e+07,5,0,0,16.62,0.04,22,0,0,0
28193,5.6186e+07,5,0,0,16.61,0.04,23,0,0,0
28606,5.629e+07,5,0,0,16.62,0.04,22,0,0,0
29059,5.6406e+07,5,0,0,16.62,0.04,22,0,0,0
29431,5.6503e+07,5,0,0,16.62,0.04,23,0,0,0
29881,5.6614e+07,5,0,0,16.62,0.04,22,0,0,0
30298,5.6722e+07,5,0,0,16.63,0.04,22,0,0,0
30742,5.6829e+07,5,0,0,16.63,0.04,22,0,0,0
31152,5.6934e+07,5,0,0,16.63,0.04,22,0,0,0
31604,5.7046e+07,5,0,0,16.62,0.04,22,0,0,0
32017,5.7149e+07,5,0,0,16.62,0.04,22,0,0,0
32440,5.7257e+07,5,0,0,16.62,0.04,22,0,0,0
32885,5.737e+07,5,0,0,16.62,0.04,22,0,0,0
33295,5.7474e+07,5,0,0,16.62,0.04,22,0,0,0
33708,5.7577e+07,5,0,0,16.62,0.04,22,0,0,0
34126,5.7685e+07,5,0,0,16.63,0.04,22,0,0,0
34540,5.7791e+07,5,0,0,16.62,0.04,22,0,0,0
34991,5.7906e+07,5,0,0,16.62,0.04,22,0,0,0
35407,5.8011e+07,5,0,0,16.62,0.04,22,0,0,0
35817,5.8116e+07,5,0,0,16.61,0.04,22,0,0,0
36272,5.8231e+07,5,0,0,16.62,0.04,22,0,0,0
36689,5.8336e+07,5,0,0,16.62,0.04,22,0,0,0
37104,5.8442e+07,5,0,0,16.62,0.04,22,0,0,0
37554,5.8555e+07,5,0,0,16.62,0.04,22,0,0,0
37966,5.866e+07,5,0,0,16.63,0.04,22,0,0,0
38386,5.8767e+07,5,0,0,16.62,0.04,22,0,0,0
38811,5.8876e+07,5,0,0,16.62,0.04,22,0,0,0
39226,5.8981e+07,5,0,0,16.62,0.04,22,0,0,0
39680,5.9094e+07,5,0,0,16.62,0.04,22,0,0,0
40064,5.9197e+07,5,0,0,16.62,0.04,22,0,0,0
40516,5.9305e+07,5,0,0,16.62,0.04,23,0,0,0
40971,5.9422e+07,5,0,0,16.62,0.04,22,0,0,0
41385,5.9525e+07,5,0,0,16.62,0.04,22,0,0,0
41837,5.9637e+07,5,0,0,16.62,0.04,22,0,0,0
42248,5.9744e+07,5,0,0,16.61,0.04,22,0,0,0
42663,5.9847e+07,5,0,0,16.62,0.04,22,0,0,0
43085,5.996e+07,5,0,0,16.62,0.04,22,0,0,0
43498,6.0062e+07,5,0,0,16.62,0.04,22,0,0,0
43941,6.0172e+07,5,0,0,16.63,0.04,22,0,0,0
44363,6.0279e+07,5,0,0,16.62,0.04,22,0,0,0
44773,6.0382e+07,5,0,0,16.62,0.04,22,0,0,0
45192,6.0489e+07,5,0,0,16.62,0.04,22,0,0,0
45638,6.0599e+07,5,0,0,16.61,0.04,22,0,0,0
46046,6.0703e+07,5,0,0,16.62,0.04,22,0,0,0
46465,6.0811e+07,5,0,0,16.62,0.04,22,0,0,0
46912,6.0923e+07,5,0,0,16.62,0.04,22,0,0,0
47327,6.1029e+07,5,0,0,16.62,0.04,22,0,0,0
47743,6.1135e+07,5,0,0,16.62,0.04,22,0,0,0
48199,6.1251e+07,5,0,0,16.62,0.04,22,0,0,0
48613,6.1356e+07,5,0,0,16.62,0.04,23,0,0,0
49027,6.1462e+07,5,0,0,16.61,0.04,22,0,0,0
49440,6.1567e+07,5,0,0,16.62,0.04,22,0,0,0
49893,6.1678e+07,5,0,0,16.62,0.04,22,0,0,0
50310,6.1785e+07,5,0,0,16.62,0.04,22,0,0,0
50726,6.1888e+07,5,0,0,16.62,0.04,22,0,0,0
51144,6.2002e+07,5,0,0,16.62,0.04,22,0,0,0
51554,6.2106e+07,5,0,0,16.61,0.04,22,0,0,0
51999,6.221e+07,5,0,0,16.61,0.04,22,0,0,0
52449,6.2327e+07,5,0,0,16.62,0.04,22,0,0,0
52864,6.2432e+07,5,0,0,16.62,0.04,22,0,0,0
53273,6.2535e+07,5,0,0,16.62,0.04,22,0,0,0
53730,6.2651e+07,5,0,0,16.62,0.04,22,0,0,0
54145,6.2756e+07,5,0,0,16.62,0.04,22,0,0,0
54520,6.2853e+07,5,0,0,16.62,0.04,22,0,0,0
54972,6.2965e+07,5,0,0,16.62,0.04,22,0,0,0
55391,6.3071e+07,5,0,0,16.61,0.04,23,0,0,0
55847,6.3183e+07,5,0,0,16.62,0.04,22,0,0,0
56260,6.3288e+07,5,0,0,16.62,0.04,22,0,0,0
56671,6.3391e+07,5,0,0,16.62,0.04,22,0,0,0
57120,6.3504e+07,5,0,0,16.62,0.04,22,0,0,0
57535,6.361e+07,5,0,0,16.62,0.04,23,0,0,0
57918,7.0519e+07,5,0,0,16.61,0.04,22,0,0,0
58081,7.0559e+07,5,0,0,16.62,0.04,22,0,0,0
58523,7.0666e+07,5,0,0,16.61,0.04,22,0,0,0
58977,7.0767e+07,5,0,0,16.61,0.04,22,0,0,0
59432,7.0874e+07,5,0,0,16.61,0.04,23,0,0,0
59928,7.0986e+07,5,0,0,16.62,0.04,23,0,0,0
60379,7.109e+07,5,0,0,16.62,0.04,23,0,0,0
60834,7.1192e+07,5,0,0,16.61,0.04,23,0,0,0
61324,7.1304e+07,5,0,0,16.61,0.04,23,0,0,0
61775,7.1411e+07,5,0,0,16.61,0.04,22,0,0,0
62271,7.1524e+07,5,0,0,16.62,0.04,23,0,0,0
62721,7.163e+07,5,0,0,16.62,0.03,23,0,0,0
63177,7.1735e+07,5,0,0,16.62,0.04,23,0,0,0
63628,7.1841e+07,5,0,0,16.62,0.04,22,0,0,0
64087,7.1946e+07,5,0,0,16.61,0.04,22,0,0,0
64541,7.2054e+07,5,0,0,16.61,0.04,23,0,0,0
65040,7.2167e+07,5,0,0,16.61,0.04,23,0,0,0
65494,7.2275e+07,5,0,0,16.62,0.04,23,0,0,0
65946,7.2376e+07,5,0,0,16.62,0.04,22,0,0,0
66442,7.2493e+07,5,0,0,16.62,0.04,23,0,0,0
66898,7.2598e+07,5,0,0,16.62,0.03,22,0,0,0
67352,7.2705e+07,5,19,285,16.6,0.07,23,0,0,0
67808,7.2814e+07,5,306,828,16.59,0.13,23,0,0,0
68259,7.2916e+07,5,832,1185,16.6,0.15,23,0,0,0
68759,7.3031e+07,5,1191,1300,16.58,0.14,23,0,0,0
69664,7.3246e+07,5,1319,1914,16.3,0.35,23,0,0,0
70113,7.3354e+07,5,1936,2357,16.39,0.57,23,0,0,0
71058,7.3578e+07,5,2410,3571,16.19,2.02,23,0,0,0
71469,7.3678e+07,5,3581,4257,16.09,2.34,23,0,0,0
71918,7.3901e+07,5,4948,5428,15.81,3.76,23,0,0,0
72379,7.4112e+07,5,5831,5900,15.8,4.05,23,0,0,0
72834,7.4222e+07,5,5897,5842,15.89,3.67,23,1,0,0
73334,7.4339e+07,5,5864,6100,15.92,4.09,23,1,0,0
73741,7.444e+07,5,6100,6142,15.93,4.18,23,1,0,0
74195,7.4545e+07,5,6143,6228,15.86,4.28,23,1,0,0
74693,7.4665e+07,5,6237,6328,15.9,4.05,23,1,0,0
75102,7.4763e+07,5,6331,6385,15.98,4.24,23,1,0,0
75552,7.4873e+07,5,6369,6171,15.87,4.11,23,1,0,0
76048,7.4988e+07,5,6191,6385,15.85,4.67,23,1,0,0
76505,7.5096e+07,5,6416,6742,15.79,5.35,23,2,0,0
76918,7.5199e+07,5,6734,6628,15.9,4.81,23,2,0,0
77369,7.5305e+07,5,6622,6271,15.86,3.95,23,2,0,0
77862,7.542e+07,5,6266,6200,15.72,4.36,23,2,0,0
78316,7.5525e+07,5,6215,6542,15.67,5.14,23,2,0,0
78776,7.5639e+07,5,6540,6528,15.66,4.62,23,2,0,0
79680,7.5853e+07,5,6519,6242,15.72,4.15,23,3,0,0
80130,7.5963e+07,5,6239,6214,15.75,4.04,23,3,0,0
81064,7.6187e+07,5,6211,6157,15.79,4.02,23,3,0,0
81911,7.6402e+07,5,6151,6057,15.9,3.86,23,3,0,0
82351,7.6507e+07,5,6066,6157,15.85,4.07,23,3,0,0
82804,7.6616e+07,5,6169,6271,15.88,3.98,23,3,0,0
83655,7.6826e+07,5,6269,6014,15.92,3.57,23,4,0,0
84144,7.6943e+07,5,6010,5985,15.91,3.75,24,4,0,0
85003,7.7154e+07,5,5990,6142,15.82,4.16,24,4,0,0
85400,7.7255e+07,5,6145,6314,15.81,4.27,24,4,0,0
85900,7.7378e+07,5,6308,6271,15.78,4.32,24,4,0,0
86302,7.748e+07,5,6269,6200,15.95,3.89,24,4,0,0
86754,7.7583e+07,5,6198,6142,15.88,3.45,24,4,0,0
87717,7.7814e+07,5,6115,5800,16.01,2.8,24,5,0,0
88121,7.7911e+07,5,5794,5657,16.09,2.94,24,5,0,0
88578,7.8027e+07,5,5645,5528,16.12,2.5,24,5,0,0
89032,7.8138e+07,5,5513,5357,16.07,2.62,24,5,0,0
89472,7.8245e+07,5,5359,5385,16.01,2.82,24,5,0,0
89921,7.8354e+07,5,5389,5442,16.05,2.95,24,5,0,0
90325,7.8456e+07,5,5445,5528,16.08,2.89,24,5,0,0
90774,7.8564e+07,5,5525,5500,16.04,2.54,24,5,0,0
91667,7.8784e+07,5,5496,5400,16.04,2.82,24,5,0,0
92117,7.8897e+07,5,5402,5428,15.92,3.05,24,5,0,0
92524,7.9003e+07,5,5438,5542,15.97,2.87,24,6,0,0
92981,7.9114e+07,5,5558,5728,15.92,3.41,24,6,0,0
93422,7.9221e+07,5,5722,5585,15.88,3.07,24,6,0,0
93872,7.9331e+07,5,5583,5571,15.99,2.88,24,6,0,0
94307,7.9436e+07,5,5571,5571,16.02,2.89,24,6,0,0
94716,7.9537e+07,5,5574,5757,15.9,3.46,24,6,0,0
95201,7.9655e+07,5,5760,5800,15.86,3.72,24,6,0,0
95651,7.9764e+07,5,5798,5785,15.96,3.1,24,6,0,0
96052,7.9863e+07,5,5783,5714,15.95,2.99,24,6,0,0
96504,7.9973e+07,5,5715,5742,15.85,3.14,24,6,0,0
96949,8.0083e+07,5,5743,5828,15.91,2.96,24,6,0,0
97440,8.0199e+07,5,5821,5757,15.88,2.83,24,7,0,0
97844,8.0301e+07,5,5742,5542,15.9,2.95,24,7,0,0
98294,8.0415e+07,5,5558,5785,15.91,3.22,24,7,0,0
98697,8.0515e+07,5,5781,5728,15.86,3.19,24,7,0,0
99591,8.0735e+07,5,5732,5871,15.93,3.34,24,7,0,0
99991,8.0837e+07,5,5870,5857,15.83,3.66,24,7,0,0
1.0044e+05,8.0948e+07,5,5848,5671,15.95,2.73,24,7,0,0
1.0086e+05,8.1055e+07,5,5671,5685,15.85,2.93,24,7,0,0
1.0131e+05,8.1166e+07,5,5685,5685,15.89,3.24,24,7,0,0
1.022e+05,8.1384e+07,5,5684,5585,15.89,2.92,24,8,0,0
1.0265e+05,8.1498e+07,5,5577,5485,15.92,2.84,24,8,0,0
1.0309e+05,8.1607e+07,5,5491,5557,15.89,2.52,24,8,0,0
1.0395e+05,8.182e+07,5,5551,5314,15.95,2.12,24,8,0,0
1.044e+05,8.193e+07,5,5314,5314,15.93,2.29,24,8,0,0
1.0481e+05,8.2033e+07,5,5318,5385,15.86,3.06,24,8,0,0
1.0526e+05,8.2145e+07,5,5411,5771,15.8,3.17,24,8,0,0
1.0571e+05,8.2256e+07,5,5771,5771,15.76,3.83,24,8,0,0
1.0615e+05,8.2364e+07,5,5783,5942,15.8,3.64,24,8,0,0
1.066e+05,8.2475e+07,5,5940,5914,15.8,3.38,24,8,0,0
1.07e+05,8.2577e+07,5,5914,5914,15.84,3.66,24,9,0,0
1.0746e+05,8.2691e+07,5,5925,6085,15.7,3.93,24,9,0,0
1.0792e+05,8.2808e+07,5,6082,6014,15.7,4.12,24,9,0,0
1.0835e+05,8.2907e+07,5,6023,6200,15.78,4.12,24,9,0,0
1.0926e+05,8.3126e+07,5,6198,6157,15.77,4.17,24,9,0,0
1.097e+05,8.3237e+07,5,6163,6300,15.79,3.87,24,9,0,0
1.102e+05,8.3355e+07,5,6281,6071,15.79,3.95,24,9,0,0
1.1105e+05,8.3565e+07,5,6076,6214,15.8,3.86,24,10,0,0
1.1149e+05,8.3674e+07,5,6211,6171,15.67,4.23,24,10,0,0
1.1194e+05,8.3781e+07,5,6173,6214,15.7,4.21,25,10,0,0
1.1238e+05,8.3893e+07,5,6221,6328,15.63,4.16,24,10,0,0
1.1283e+05,8.4004e+07,5,6337,6400,15.67,4.01,24,10,0,0
1.1324e+05,8.4101e+07,5,6397,6257,15.79,3.92,24,10,0,0
1.1369e+05,8.4211e+07,5,6251,5814,15.87,2.92,24,10,0,0
1.1414e+05,8.4321e+07,5,5832,6100,15.83,3.29,24,10,0,0
1.1454e+05,8.4421e+07,5,6096,5885,15.77,3.79,25,11,0,0
1.1502e+05,8.4536e+07,5,5906,6128,15.79,3.92,25,11,0,0
1.1543e+05,8.4636e+07,5,6126,6071,15.86,3.45,24,11,0,0
1.1592e+05,8.4754e+07,5,6060,5957,15.77,3.56,25,11,0,0
1.1632e+05,8.4857e+07,5,5975,6228,15.83,4.1,25,11,0,0
1.1677e+05,8.4963e+07,5,6193,5685,15.95,2.63,25,11,0,0
1.1722e+05,8.5076e+07,5,5683,5657,15.98,2.59,25,11,0,0
1.1767e+05,8.5186e+07,5,5626,5314,15.97,2.05,25,11,0,0
1.1807e+05,8.5287e+07,5,5308,5200,15.98,2.04,25,11,0,0
1.1856e+05,8.5405e+07,5,5184,5028,15.86,2.06,25,11,0,0
1.1901e+05,8.5516e+07,5,5042,5200,15.91,1.92,25,11,0,0
1.1938e+05,8.5614e+07,5,5198,5100,15.91,2.16,25,12,0,0
1.2027e+05,8.5836e+07,5,5102,5328,15.86,2.29,25,12,0,0
1.2076e+05,8.5954e+07,5,5318,5214,15.83,2.07,25,12,0,0
1.2117e+05,8.6056e+07,5,5216,5342,15.79,3.05,25,12,0,0
1.2166e+05,8.6174e+07,5,5367,5628,15.76,3.16,25,12,0,0
1.2209e+05,8.6277e+07,5,5636,5814,15.77,3.57,25,12,0,0
1.2255e+05,8.6388e+07,5,5812,5742,15.79,3.21,25,12,0,0
1.2344e+05,8.6611e+07,5,5734,5600,15.89,2.94,25,12,0,0
1.2389e+05,8.6721e+07,5,5592,5514,15.89,2.84,25,12,0,0
1.2434e+05,8.6839e+07,5,5527,5657,15.85,3.12,25,12,0,0
1.2475e+05,8.6943e+07,5,5663,5714,15.83,3.04,25,13,0,0
1.252e+05,8.7052e+07,5,5694,5514,15.86,2.97,25,13,0,0
1.2564e+05,8.7159e+07,5,5515,5528,15.78,2.92,25,13,0,0
1.261e+05,8.7273e+07,5,5520,5442,15.79,3,25,13,0,0
1.2698e+05,8.7489e+07,5,5446,5542,15.85,2.77,25,13,0,0
1.2743e+05,8.7598e+07,5,5543,5557,15.77,3.1,25,13,0,0
1.2784e+05,8.77e+07,5,5565,5657,15.79,3.04,25,13,0,0
1.2824e+05,8.78e+07,5,5657,5671,15.78,3.24,25,13,0,0
1.2868e+05,8.7911e+07,5,5672,5728,15.81,3.37,25,13,0,0
1.2963e+05,8.8139e+07,5,5733,5914,15.75,3.92,25,14,0,0
1.3007e+05,8.8248e+07,5,5924,6057,15.73,4.12,25,14,0,0
1.3096e+05,8.8463e+07,5,6071,6457,15.66,4.76,25,14,0,0
1.3142e+05,8.8574e+07,5,6448,6357,15.73,4.35,25,14,0,0
1.3226e+05,8.8784e+07,5,6354,6242,15.72,4.21,25,14,0,0
1.3271e+05,8.8895e+07,5,6235,6100,15.85,3.9,25,14,0,0
1.3316e+05,8.9002e+07,5,6101,6157,15.75,3.83,25,15,0,0
1.3361e+05,8.911e+07,5,6155,6057,15.77,4.06,25,15,0,0
1.3409e+05,8.9227e+07,5,6072,6185,15.77,3.57,25,15,0,0
1.345e+05,8.9332e+07,5,6179,5857,15.77,3.68,25,15,0,0
1.3498e+05,8.9447e+07,5,5850,5785,15.83,2.99,25,15,0,0
1.3588e+05,8.9666e+07,5,5784,5771,15.8,2.91,25,15,0,0
1.3633e+05,8.9776e+07,5,5771,5771,15.76,3.06,25,15,0,0
1.3674e+05,8.9883e+07,5,5768,5742,15.82,3.02,25,15,0,0
1.3719e+05,9e+07,5,5726,5585,15.83,3.17,25,16,0,0
1.3764e+05,9.0107e+07,5,5605,5814,15.85,3.29,25,16,0,0
1.3805e+05,9.0209e+07,5,5811,5771,15.82,3.33,25,16,0,0
1.385e+05,9.0321e+07,5,5770,5757,15.8,3.19,25,16,0,0
1.3895e+05,9.0431e+07,5,5751,5700,15.82,2.9,25,16,0,0
1.394e+05,9.0537e+07,5,5701,5728,15.84,3.06,25,16,0,0
1.398e+05,9.0641e+07,5,5727,5714,15.8,2.98,25,16,0,0
1.4029e+05,9.0753e+07,5,5714,5728,15.76,3.38,25,16,0,0
1.4074e+05,9.0865e+07,5,5731,5785,15.72,3.29,25,16,0,0
1.4119e+05,9.0977e+07,5,5785,5785,15.76,3.18,25,16,0,0
1.416e+05,9.1084e+07,5,5757,5385,15.87,2.66,25,16,0,0
1.4201e+05,9.1185e+07,5,5386,5485,15.8,2.96,25,17,0,0
1.4246e+05,9.1297e+07,5,5493,5671,15.72,4.41,25,17,0,0
1.4291e+05,9.1412e+07,5,5644,5371,15.85,1.77,25,17,0,0
1.4335e+05,9.1513e+07,5,5363,5214,15.78,2.48,25,17,0,0
1.4425e+05,9.1736e+07,5,5217,5328,15.79,2.99,25,17,0,0
1.447e+05,9.1847e+07,5,5366,5914,15.7,4.35,25,17,0,0
1.4516e+05,9.1957e+07,5,5920,6014,15.73,3.85,25,17,0,0
1.456e+05,9.2069e+07,5,6007,5914,15.78,3.37,25,17,0,0
1.4605e+05,9.2178e+07,5,5908,5857,15.71,3.34,25,17,0,0
1.465e+05,9.2289e+07,5,5862,5942,15.66,3.98,25,17,0,0
1.4695e+05,9.2398e+07,5,5943,5957,15.63,3.66,25,18,0,0
1.4736e+05,9.25e+07,5,5964,6071,15.66,4.3,25,18,0,0
1.478e+05,9.2608e+07,5,6085,6285,15.67,4.47,25,18,0,0
1.4825e+05,9.2716e+07,5,6286,6300,15.75,4.43,25,18,0,0
1.4866e+05,9.2821e+07,5,6282,6057,15.72,3.93,25,18,0,0
1.4911e+05,9.293e+07,5,6060,6142,15.72,4.02,25,18,0,0
1.4956e+05,9.3044e+07,5,6138,6100,15.7,4.02,25,18,0,0
1.5001e+05,9.3151e+07,5,6098,6071,15.61,4.26,25,19,0,0
1.5041e+05,9.3253e+07,5,6072,6100,15.65,4.1,25,19,0,0
1.5091e+05,9.3372e+07,5,6110,6228,15.72,4.19,25,19,0,0
1.5135e+05,9.348e+07,5,6215,6085,15.72,4.42,25,19,0,0
1.518e+05,9.3591e+07,5,6098,6228,15.68,4.1,25,19,0,0
1.5221e+05,9.3693e+07,5,6220,6028,15.73,3.96,25,19,0,0
1.531e+05,9.3913e+07,5,6026,5971,15.68,3.81,26,19,0,0
1.54e+05,9.4133e+07,5,5969,5914,15.77,3.65,26,20,0,0
1.5444e+05,9.4244e+07,5,5907,5742,15.72,3.19,26,20,0,0
1.5489e+05,9.4354e+07,5,5729,5642,15.76,3.17,26,20,0,0
1.553e+05,9.4459e+07,5,5648,5728,15.79,2.82,26,20,0,0
1.5575e+05,9.4571e+07,5,5713,5542,15.77,2.87,26,20,0,0
1.562e+05,9.4682e+07,5,5530,5428,15.8,3.07,25,20,0,0
1.5661e+05,9.4784e+07,5,5430,5557,15.73,2.9,26,20,0,0
1.5706e+05,9.4894e+07,5,5558,5585,15.69,3.29,26,20,0,0
1.5751e+05,9.5009e+07,5,5594,5657,15.75,3.48,26,20,0,0
1.584e+05,9.5227e+07,5,5670,5971,15.71,3.88,26,21,0,0
1.588e+05,9.5328e+07,5,5970,5942,15.76,3.98,26,21,0,0
1.5929e+05,9.5447e+07,5,5951,6028,15.8,3.58,26,21,0,0
1.5969e+05,9.5544e+07,5,6024,5885,15.74,3.7,26,21,0,0
1.6011e+05,9.5653e+07,5,5900,6114,15.79,3.7,26,21,0,0
1.61e+05,9.5871e+07,5,6109,5900,15.69,3.57,26,21,0,0
1.6145e+05,9.5983e+07,5,5892,5814,15.75,3.12,26,21,0,0
1.6191e+05,9.6094e+07,5,5807,5742,15.78,3.29,26,21,0,0
1.6235e+05,9.6205e+07,5,5736,5685,15.75,2.85,26,22,0,0
1.6275e+05,9.6301e+07,5,5682,5628,15.8,2.94,26,22,0,0
1.632e+05,9.6407e+07,5,5627,5571,15.77,2.99,26,22,0,0
1.6369e+05,9.6524e+07,5,5576,5642,15.69,3.1,26,22,0,0
1.6409e+05,9.6623e+07,5,5644,5828,15.78,3.18,26,22,0,0
1.6454e+05,9.6735e+07,5,5827,5814,15.76,3.18,26,22,0,0
1.6499e+05,9.6845e+07,5,5810,5742,15.77,3.16,26,22,0,0
1.6544e+05,9.6957e+07,5,5747,5828,15.79,3.26,26,22,0,0
1.6584e+05,9.7061e+07,5,5823,5714,15.73,3.25,26,22,0,0
1.663e+05,9.717e+07,5,5720,5871,15.72,3.12,26,22,0,0
1.6675e+05,9.7284e+07,5,5859,5728,15.73,3.25,26,23,0,0
1.6724e+05,9.7404e+07,5,5742,5871,15.69,3.39,26,23,0,0
1.6809e+05,9.7609e+07,5,5870,5842,15.66,3.53,26,23,0,0
1.6854e+05,9.7721e+07,5,5846,5942,15.76,3.53,26,23,0,0
1.6899e+05,9.7834e+07,5,5934,5857,15.77,3.25,26,23,0,0
1.694e+05,9.7936e+07,5,5855,5742,15.67,3.19,26,23,0,0
1.6985e+05,9.8048e+07,5,5742,5742,15.7,3.19,26,23,0,0
1.703e+05,9.8156e+07,5,5740,5714,15.7,3.43,26,23,0,0
1.7074e+05,9.8266e+07,5,5714,5728,15.75,3.13,26,23,0,0
1.712e+05,9.8377e+07,5,5719,5642,15.66,3.14,26,23,0,0
1.716e+05,9.8481e+07,5,5640,5600,15.77,3.07,26,24,0,0
1.7205e+05,9.859e+07,5,5607,5714,15.66,3.3,26,24,0,0
1.725e+05,9.8699e+07,5,5710,5671,15.67,3.16,26,24,0,0
1.7294e+05,9.8806e+07,5,5668,5628,15.73,3.07,26,24,0,0
1.7339e+05,9.8915e+07,5,5631,5685,15.69,3.19,26,24,0,0
1.7388e+05,9.903e+07,5,5683,5671,15.79,2.64,26,24,0,0
1.7432e+05,9.9135e+07,5,5668,5628,15.71,2.95,26,24,0,0
1.7477e+05,9.9243e+07,5,5622,5542,15.73,2.83,26,24,0,0
1.7518e+05,9.9345e+07,5,5544,5585,15.8,2.69,26,24,0,0
1.7563e+05,9.9458e+07,5,5588,5628,15.67,3.27,26,24,0,0
1.7608e+05,9.9568e+07,5,5653,5985,15.67,3.97,26,24,0,0
1.7652e+05,9.9674e+07,5,5989,6085,15.72,4.01,26,25,0,0
1.7697e+05,9.9782e+07,5,6083,6057,15.62,4.11,26,25,0,0
1.7741e+05,9.9892e+07,5,6061,6128,15.64,3.82,26,25,0,0
1.7786e+05,1e+08,5,6128,6142,15.67,4.21,26,25,0,0
1.7831e+05,1.0011e+08,5,6143,6171,15.69,3.65,26,25,0,0
1.7875e+05,1.0022e+08,5,6163,6028,15.66,3.67,26,25,0,0
1.7921e+05,1.0033e+08,5,6014,5800,15.76,3.15,26,25,0,0
1.7966e+05,1.0044e+08,5,5798,5785,15.68,3.31,26,25,0,0
1.801e+05,1.0055e+08,5,5768,5600,15.73,3.16,26,26,0,0
1.805e+05,1.0065e+08,5,5600,5600,15.67,3.23,26,26,0,0
1.8095e+05,1.0076e+08,5,5598,5528,15.67,2.85,26,26,0,0
1.8143e+05,1.0087e+08,5,5543,5742,15.78,3.38,26,26,0,0
1.8189e+05,1.0098e+08,5,5757,5914,15.78,3.29,26,26,0,0
1.8229e+05,1.0109e+08,5,5903,5671,15.73,3.01,26,26,0,0
1.8275e+05,1.012e+08,5,5669,5657,15.76,2.91,26,26,0,0
1.8318e+05,1.013e+08,5,5651,5542,15.76,2.73,26,26,0,0
1.8408e+05,1.0153e+08,5,5552,5742,15.79,2.89,26,26,0,0
1.845e+05,1.0163e+08,5,5727,5585,15.67,2.94,26,26,0,0
1.8494e+05,1.0174e+08,5,5583,5557,15.73,2.93,26,27,0,0
1.8535e+05,1.0184e+08,5,5557,5585,15.77,3.01,26,27,0,0
1.858e+05,1.0195e+08,5,5585,5585,15.74,2.88,26,27,0,0
1.8629e+05,1.0207e+08,5,5583,5571,15.71,3.11,26,27,0,0
1.8766e+05,1.024e+08,5,5572,5600,15.75,2.81,26,27,0,0
1.8811e+05,1.0251e+08,5,5598,5585,15.73,2.42,26,27,0,0
1.8856e+05,1.0263e+08,5,5571,5457,15.75,2.27,26,27,0,0
1.8896e+05,1.0272e+08,5,5453,5214,15.75,2.23,26,27,0,0
1.8941e+05,1.0284e+08,5,5212,5200,15.81,2,26,27,0,0
1.8986e+05,1.0295e+08,5,5195,5157,15.85,1.92,26,27,0,0
1.9027e+05,1.0305e+08,5,5152,5100,15.82,2.04,26,27,0,0
1.9072e+05,1.0316e+08,5,5092,4971,15.82,1.91,26,28,0,0
1.9113e+05,1.0326e+08,5,4972,5071,15.82,2.12,26,28,0,0
1.9162e+05,1.0338e+08,5,5070,5057,15.82,1.94,26,28,0,0
1.9203e+05,1.0349e+08,5,5057,5100,15.82,2.16,26,28,0,0
1.9249e+05,1.036e+08,5,5100,5100,15.77,2.2,26,28,0,0
1.9294e+05,1.0371e+08,5,5114,5214,15.73,2.22,26,28,0,0
1.9338e+05,1.0382e+08,5,5222,5328,15.75,2.35,26,28,0,0
1.9383e+05,1.0393e+08,5,5328,5328,15.78,2.49,26,28,0,0
1.9423e+05,1.0403e+08,5,5328,5342,15.83,2.33,26,28,0,0
1.9473e+05,1.0415e+08,5,5332,5200,15.71,2.25,26,28,0,0
1.9513e+05,1.0425e+08,5,5201,5271,15.74,2.76,26,28,0,0
1.9563e+05,1.0437e+08,5,5281,5385,15.75,2.36,26,28,0,0
1.9603e+05,1.0447e+08,5,5387,5442,15.78,2.61,26,28,0,0
1.9648e+05,1.0458e+08,5,5443,5542,15.69,2.84,26,29,0,0
1.9693e+05,1.0469e+08,5,5558,5728,15.73,3,26,29,0,0
1.9738e+05,1.048e+08,5,5711,5542,15.75,2.16,26,29,0,0
1.9779e+05,1.049e+08,5,5532,5414,15.75,2.65,26,29,0,0
1.9823e+05,1.0502e+08,5,5422,5500,15.62,2.65,26,29,0,0
1.9868e+05,1.0512e+08,5,5506,5657,15.63,3.24,26,29,0,0
1.9913e+05,1.0523e+08,5,5673,5885,15.65,3.56,26,29,0,0
1.9958e+05,1.0534e+08,5,5883,5871,15.66,3.48,26,29,0,0
2.0002e+05,1.0545e+08,5,5871,5885,15.69,3.58,26,29,0,0
2.0047e+05,1.0556e+08,5,5884,5871,15.61,3.58,26,29,0,0
2.0088e+05,1.0566e+08,5,5874,6057,15.58,3.89,26,29,0,0
2.0177e+05,1.0588e+08,5,6057,6100,15.55,3.56,26,30,0,0
2.0227e+05,1.06e+08,5,6073,5885,15.59,3.3,26,30,0,0
2.0267e+05,1.061e+08,5,5868,5657,15.64,2.94,26,30,0,0
2.0312e+05,1.0621e+08,5,5657,5714,15.6,3.25,26,30,0,0
2.036e+05,1.0632e+08,5,5719,5771,15.66,2.94,26,30,0,0
2.0402e+05,1.0643e+08,5,5765,5700,15.7,3.59,26,30,0,0
2.0447e+05,1.0654e+08,5,5710,5814,15.68,3.37,26,30,0,0
2.0491e+05,1.0665e+08,5,5817,5900,15.63,3.25,26,30,0,0
2.0536e+05,1.0676e+08,5,5893,5742,15.66,3.62,26,30,0,0
2.0581e+05,1.0687e+08,5,5752,5914,15.66,3.53,26,30,0,0
2.0622e+05,1.0697e+08,5,5919,6185,15.65,4.08,26,31,0,0
2.0666e+05,1.0708e+08,5,6183,6114,15.58,3.77,26,31,0,0
2.0715e+05,1.0719e+08,5,6098,5957,15.66,3.68,26,31,0,0
2.0755e+05,1.0729e+08,5,5955,5842,15.64,3.56,26,31,0,0
2.08e+05,1.074e+08,5,5842,5871,15.67,3.3,26,31,0,0
2.0848e+05,1.0752e+08,5,5864,5714,15.76,3.16,26,31,0,0
2.0893e+05,1.0763e+08,5,5724,5828,15.67,3.62,26,31,0,0
2.0938e+05,1.0774e+08,5,5834,5928,15.65,3.51,26,31,0,0
2.0983e+05,1.0785e+08,5,5931,5971,15.67,3.48,26,31,0,0
2.1032e+05,1.0797e+08,5,5981,6100,15.65,3.64,26,32,0,0
2.1072e+05,1.0807e+08,5,6085,5885,15.61,3.75,26,32,0,0
2.1118e+05,1.0818e+08,5,5891,6071,15.66,3.55,26,32,0,0
2.1162e+05,1.0829e+08,5,6072,6085,15.63,3.79,26,32,0,0
2.1208e+05,1.084e+08,5,6101,6300,15.62,3.88,26,32,0,0
2.1248e+05,1.085e+08,5,6286,5971,15.67,3.18,26,32,0,0
2.1292e+05,1.0861e+08,5,5970,5914,15.66,3.24,26,32,0,0
2.1337e+05,1.0872e+08,5,5921,6114,15.72,3.78,26,32,0,0
2.1382e+05,1.0883e+08,5,6123,6257,15.65,4.37,26,33,0,0
2.1426e+05,1.0894e+08,5,6250,6200,15.63,3.81,26,33,0,0
2.1468e+05,1.0904e+08,5,6201,6257,15.58,4.18,26,33,0,0
2.1518e+05,1.0916e+08,5,6235,6014,15.59,3.83,26,33,0,0
2.1561e+05,1.0927e+08,5,6031,6142,15.69,3.61,26,33,0,0
2.1602e+05,1.0937e+08,5,6123,5985,15.67,3.34,26,33,0,0
2.1647e+05,1.0948e+08,5,5974,5857,15.62,3.39,26,33,0,0
2.1692e+05,1.0959e+08,5,5857,5857,15.59,3.67,26,33,0,0
2.1736e+05,1.097e+08,5,5877,6071,15.55,3.61,26,33,0,0
2.178e+05,1.0981e+08,5,6064,6000,15.64,3.62,26,34,0,0
2.1911e+05,1.1013e+08,5,5990,5657,15.67,3.02,26,34,0,0
2.1956e+05,1.1025e+08,5,5662,5714,15.72,3.1,26,34,0,0
2.2001e+05,1.1035e+08,5,5713,5700,15.67,3.01,26,34,0,0
2.2041e+05,1.1046e+08,5,5707,5771,15.71,2.88,26,34,0,0
2.2086e+05,1.1056e+08,5,5769,5714,15.73,2.75,26,34,0,0
2.2171e+05,1.1077e+08,5,5716,5857,15.5,3.53,26,34,0,0
2.2219e+05,1.1089e+08,5,5863,5928,15.57,4.02,26,35,0,0
2.226e+05,1.1099e+08,5,5939,6228,15.51,3.88,26,35,0,0
2.2305e+05,1.111e+08,5,6229,6257,15.55,4.2,26,35,0,0
2.235e+05,1.1121e+08,5,6244,6128,15.67,3.22,26,35,0,0
2.2395e+05,1.1132e+08,5,6118,5914,15.7,2.94,26,35,0,0
2.2439e+05,1.1143e+08,5,5877,5557,15.72,2.84,26,35,0,0
2.2484e+05,1.1154e+08,5,5564,5657,15.64,3.09,26,35,0,0
2.2529e+05,1.1165e+08,5,5653,5600,15.61,2.89,26,35,0,0
2.2569e+05,1.1175e+08,5,5604,5700,15.75,2.81,26,35,0,0
2.261e+05,1.1185e+08,5,5700,5714,15.73,3.18,26,35,0,0
2.2659e+05,1.1197e+08,5,5699,5557,15.8,2.39,26,36,0,0
2.2699e+05,1.1207e+08,5,5552,5300,15.8,1.94,26,36,0,0
2.2748e+05,1.1219e+08,5,5301,5314,15.81,2.73,26,36,0,0
2.2792e+05,1.1229e+08,5,5311,5285,15.82,2.33,26,36,0,0
2.2836e+05,1.124e+08,5,5292,5428,15.78,2.6,26,36,0,0
2.2877e+05,1.125e+08,5,5427,5414,15.72,2.67,26,36,0,0
2.2922e+05,1.1261e+08,5,5411,5385,15.73,2.54,26,36,0,0
2.2966e+05,1.1272e+08,5,5393,5471,15.65,2.76,26,36,0,0
2.301e+05,1.1282e+08,5,5468,5357,15.77,2.3,26,36,0,0
2.3055e+05,1.1293e+08,5,5358,5385,15.76,2.68,26,36,0,0
2.31e+05,1.1304e+08,5,5393,5471,15.72,2.86,26,36,0,0
2.3145e+05,1.1315e+08,5,5474,5528,15.64,3.4,26,36,0,0
2.3185e+05,1.1325e+08,5,5540,5771,15.58,3.86,27,36,0,0
2.3229e+05,1.1336e+08,5,5787,5971,15.67,3.45,26,37,0,0
2.327e+05,1.1347e+08,5,5968,5842,15.6,3.39,26,37,0,0
2.3315e+05,1.1358e+08,5,5849,5942,15.61,3.19,26,37,0,0
2.3355e+05,1.1368e+08,5,5938,5857,15.64,3.43,26,37,0,0
2.3404e+05,1.138e+08,5,5870,5985,15.61,3.56,26,37,0,0
2.3448e+05,1.1391e+08,5,5972,5857,15.65,3.63,26,37,0,0
2.3488e+05,1.1401e+08,5,5857,5885,15.57,3.66,26,37,0,0
2.3534e+05,1.1412e+08,5,5897,6014,15.69,3.4,26,37,0,0
2.3574e+05,1.1423e+08,5,6014,6028,15.57,3.96,26,37,0,0
2.3623e+05,1.1433e+08,5,6034,6100,15.66,3.71,26,37,0,0
2.3667e+05,1.1444e+08,5,6083,5857,15.66,3.15,26,38,0,0
2.3756e+05,1.1467e+08,5,5855,5828,15.61,3.36,26,38,0,0
2.3797e+05,1.1477e+08,5,5835,5942,15.69,3.66,26,38,0,0
2.3886e+05,1.1499e+08,5,5945,6028,15.66,3.77,26,38,0,0
2.393e+05,1.151e+08,5,6022,5971,15.6,3.73,26,38,0,0
2.3975e+05,1.152e+08,5,5971,5971,15.66,3.72,26,38,0,0
2.4016e+05,1.1531e+08,5,5983,6128,15.58,3.8,26,38,0,0
2.4105e+05,1.1553e+08,5,6122,5885,15.69,3.16,26,39,0,0
2.4198e+05,1.1575e+08,5,5875,5671,15.71,3.15,26,39,0,0
2.4239e+05,1.1585e+08,5,5671,5728,15.69,3.07,26,39,0,0
2.4327e+05,1.1607e+08,5,5729,5800,15.71,3.22,26,39,0,0
2.4372e+05,1.1618e+08,5,5801,5914,15.63,3.18,26,39,0,0
2.4416e+05,1.1629e+08,5,5914,5914,15.69,3.26,26,39,0,0
2.4501e+05,1.165e+08,5,5915,5971,15.63,3.26,26,40,0,0
2.4551e+05,1.1662e+08,5,5951,5671,15.67,2.73,26,40,0,0
2.4595e+05,1.1673e+08,5,5672,5685,15.67,3.17,27,40,0,0
2.4636e+05,1.1683e+08,5,5688,5842,15.64,3.32,26,40,0,0
2.468e+05,1.1694e+08,5,5842,5871,15.64,3.22,26,40,0,0
2.4725e+05,1.1705e+08,5,5873,5914,15.59,3.3,27,40,0,0
2.477e+05,1.1715e+08,5,5905,5785,15.64,3.3,27,40,0,0
2.4814e+05,1.1727e+08,5,5797,5928,15.63,3.12,26,40,0,0
2.4863e+05,1.1738e+08,5,5904,5671,15.71,2.79,26,40,0,0
2.4903e+05,1.1748e+08,5,5665,5600,15.66,2.55,26,40,0,0
2.4949e+05,1.1759e+08,5,5595,5485,15.72,2.38,26,41,0,0
2.4993e+05,1.177e+08,5,5462,5157,15.66,2.25,26,41,0,0
2.5042e+05,1.1782e+08,5,5149,5071,15.74,1.99,26,41,0,0
2.5081e+05,1.1791e+08,5,5069,5042,15.69,2.05,26,41,0,0
2.5175e+05,1.1814e+08,5,5036,4914,15.75,2.28,26,41,0,0
2.5215e+05,1.1824e+08,5,4933,5114,15.64,2.57,26,41,0,0
2.526e+05,1.1835e+08,5,5127,5314,15.68,2.89,26,41,0,0
2.5304e+05,1.1846e+08,5,5325,5485,15.61,2.83,26,41,0,0
2.5349e+05,1.1857e+08,5,5500,5657,15.59,3.05,26,41,0,0
2.5393e+05,1.1868e+08,5,5657,5657,15.62,3.25,26,41,0,0
2.5438e+05,1.1879e+08,5,5660,5700,15.59,3.47,26,41,0,0
2.5483e+05,1.189e+08,5,5722,5942,15.63,3.67,26,42,0,0
2.5528e+05,1.1901e+08,5,5955,6128,15.64,3.76,26,42,0,0
2.5568e+05,1.1911e+08,5,6114,5985,15.6,3.73,26,42,0,0
2.5613e+05,1.1922e+08,5,5988,6028,15.59,3.78,26,42,0,0
2.5653e+05,1.1932e+08,5,6029,6128,15.58,3.71,26,42,0,0
2.5702e+05,1.1944e+08,5,6121,6057,15.64,3.53,27,42,0,0
2.5747e+05,1.1955e+08,5,6049,5971,15.64,3.18,26,42,0,0
2.5792e+05,1.1966e+08,5,5967,5914,15.59,3.65,26,42,0,0
2.5837e+05,1.1977e+08,5,5911,5885,15.7,3.4,26,42,0,0
2.5881e+05,1.1988e+08,5,5871,5685,15.6,3.31,26,43,0,0
2.5926e+05,1.1999e+08,5,5687,5728,15.68,3.25,26,43,0,0
2.597e+05,1.201e+08,5,5722,5671,15.67,3.13,26,43,0,0
2.6016e+05,1.2021e+08,5,5672,5685,15.61,3.1,26,43,0,0
2.6056e+05,1.2031e+08,5,5676,5557,15.68,2.77,27,43,0,0
2.6145e+05,1.2053e+08,5,5553,5457,15.62,2.63,26,43,0,0
2.6194e+05,1.2065e+08,5,5437,5228,15.67,2.33,26,43,0,0
2.6239e+05,1.2075e+08,5,5230,5257,15.68,2.54,26,43,0,0
2.628e+05,1.2086e+08,5,5258,5300,15.67,2.59,26,43,0,0
2.6324e+05,1.2097e+08,5,5301,5314,15.7,2.35,27,43,0,0
2.6368e+05,1.2108e+08,5,5313,5271,15.73,2.55,26,43,0,0
2.6413e+05,1.2119e+08,5,5277,5342,15.73,2.72,27,43,0,0
2.6453e+05,1.2129e+08,5,5344,5428,15.61,2.74,26,44,0,0
2.6543e+05,1.2151e+08,5,5427,5342,15.73,2.6,27,44,0,0
2.6587e+05,1.2162e+08,5,5343,5400,15.63,2.67,26,44,0,0
2.6632e+05,1.2173e+08,5,5407,5500,15.69,2.87,26,44,0,0
2.6677e+05,1.2184e+08,5,5502,5528,15.66,2.97,27,44,0,0
2.6722e+05,1.2195e+08,5,5546,5714,15.66,3.17,27,44,0,0
2.6767e+05,1.2206e+08,5,5706,5628,15.61,3.33,26,44,0,0
2.6811e+05,1.2216e+08,5,5640,5914,15.68,3.24,26,44,0,0
2.6856e+05,1.2228e+08,5,5911,5885,15.66,3.47,27,44,0,0
2.6901e+05,1.2238e+08,5,5878,5742,15.59,2.95,27,44,0,0
2.6945e+05,1.2249e+08,5,5748,5885,15.58,3.78,26,45,0,0
2.7035e+05,1.2272e+08,5,5885,5885,15.57,3.67,27,45,0,0
2.7079e+05,1.2282e+08,5,5883,5871,15.58,3.29,27,45,0,0
2.7123e+05,1.2293e+08,5,5869,5800,15.64,3.2,27,45,0,0
2.7168e+05,1.2304e+08,5,5799,5785,15.62,3.09,27,45,0,0
2.7212e+05,1.2315e+08,5,5780,5657,15.65,2.98,27,45,0,0
2.7261e+05,1.2326e+08,5,5650,5514,15.66,3.08,27,45,0,0
2.7306e+05,1.2338e+08,5,5515,5528,15.69,2.87,27,45,0,0
2.7346e+05,1.2348e+08,5,5530,5585,15.69,2.78,27,45,0,0
2.7391e+05,1.2359e+08,5,5582,5385,15.69,2.43,27,46,0,0
2.7436e+05,1.2369e+08,5,5389,5485,15.6,2.75,27,46,0,0
2.748e+05,1.238e+08,5,5481,5414,15.63,2.75,27,46,0,0
2.7521e+05,1.2391e+08,5,5415,5442,15.61,2.77,27,46,0,0
2.7562e+05,1.2401e+08,5,5441,5414,15.63,2.81,27,46,0,0
2.7611e+05,1.2413e+08,5,5425,5557,15.66,2.95,26,46,0,0
2.7651e+05,1.2423e+08,5,5557,5571,15.7,3,27,46,0,0
2.77e+05,1.2435e+08,5,5579,5700,15.61,3.08,27,46,0,0
2.774e+05,1.2446e+08,5,5692,5542,15.64,3.03,26,46,0,0
2.7785e+05,1.2456e+08,5,5556,5771,15.6,3.2,27,46,0,0
2.7829e+05,1.2468e+08,5,5756,5614,15.67,2.93,27,46,0,0
2.7874e+05,1.2478e+08,5,5626,5742,15.62,3.51,27,47,0,0
2.7914e+05,1.2488e+08,5,5749,5857,15.6,3.64,26,47,0,0
2.7959e+05,1.2499e+08,5,5862,6000,15.6,3.72,27,47,0,0
2.8004e+05,1.251e+08,5,5992,5871,15.52,3.57,27,47,0,0
2.8045e+05,1.2521e+08,5,5873,6071,15.64,4.05,26,47,0,0
2.8093e+05,1.2532e+08,5,6045,5728,15.66,2.78,26,47,0,0
2.8178e+05,1.2553e+08,5,5724,5557,15.61,3.15,26,47,0,0
2.8222e+05,1.2565e+08,5,5558,5585,15.66,2.8,27,47,0,0
2.8268e+05,1.2576e+08,5,5587,5614,15.6,3.23,26,47,0,0
2.8308e+05,1.2586e+08,5,5616,5671,15.49,3.47,27,48,0,0
2.8352e+05,1.2597e+08,5,5668,5542,15.58,2.97,27,48,0,0
2.8398e+05,1.2608e+08,5,5534,5328,15.67,2.36,27,48,0,0
2.8443e+05,1.2619e+08,5,5307,4871,15.7,1.8,27,48,0,0
2.8488e+05,1.263e+08,5,4869,4857,15.73,1.78,27,48,0,0
2.8532e+05,1.2641e+08,5,4857,4885,15.61,2.39,27,48,0,0
2.8577e+05,1.2652e+08,5,4906,5185,15.64,2.75,26,48,0,0
2.8621e+05,1.2663e+08,5,5196,5371,15.68,2.71,27,48,0,0
2.8666e+05,1.2674e+08,5,5373,5400,15.58,2.94,27,48,0,0
2.871e+05,1.2685e+08,5,5404,5485,15.61,3.01,26,48,0,0
2.8755e+05,1.2696e+08,5,5487,5528,15.67,2.74,27,48,0,0
2.8796e+05,1.2706e+08,5,5525,5442,15.65,2.48,27,48,0,0
2.8885e+05,1.2728e+08,5,5439,5271,15.67,2.66,27,49,0,0
2.893e+05,1.2739e+08,5,5272,5300,15.7,2.33,26,49,0,0
2.8975e+05,1.275e+08,5,5300,5300,15.68,2.61,27,49,0,0
2.9018e+05,1.2761e+08,5,5298,5242,15.61,2.58,26,49,0,0
2.9064e+05,1.2772e+08,5,5242,5257,15.7,2.43,27,49,0,0
2.9105e+05,1.2782e+08,5,5253,5100,15.72,2.57,27,49,0,0
2.9149e+05,1.2793e+08,5,5099,5042,15.63,2.26,27,49,0,0
2.9194e+05,1.2805e+08,5,5042,5042,15.7,1.97,27,49,0,0
2.9235e+05,1.2815e+08,5,5027,4842,15.64,2.19,27,49,0,0
2.928e+05,1.2826e+08,5,4861,5057,15.7,2.24,27,49,0,0
2.9324e+05,1.2836e+08,5,5062,5142,15.75,2.88,27,49,0,0
2.9365e+05,1.2847e+08,5,5146,5271,15.64,3.06,27,49,0,0
2.9414e+05,1.2858e+08,5,5279,5400,15.64,2.87,27,49,0,0
2.9458e+05,1.2869e+08,5,5387,5257,15.7,2.3,27,50,0,0
2.9503e+05,1.288e+08,5,5224,4985,15.67,1.91,27,50,0,0
2.9543e+05,1.289e+08,5,4989,5171,15.7,2.38,27,50,0,0
2.9637e+05,1.2914e+08,5,5182,5314,15.65,2.69,27,50,0,0
2.9678e+05,1.2924e+08,5,5306,5142,15.66,2.47,26,50,0,0
2.9722e+05,1.2934e+08,5,5152,5271,15.7,2.72,26,50,0,0
2.9766e+05,1.2945e+08,5,5267,5228,15.62,2.5,27,50,0,0
2.9856e+05,1.2967e+08,5,5235,5457,15.68,2.69,27,50,0,0
2.9945e+05,1.2989e+08,5,5452,5357,15.58,2.88,27,50,0,0
2.9989e+05,1.3e+08,5,5394,5771,15.63,3.37,27,50,0,0
3.003e+05,1.301e+08,5,5771,5785,15.61,3.37,27,51,0,0
3.0123e+05,1.3032e+08,5,5785,5800,15.7,2.81,27,51,0,0
3.0168e+05,1.3044e+08,5,5782,5600,15.67,3.16,27,51,0,0
3.0208e+05,1.3053e+08,5,5597,5471,15.59,2.77,26,51,0,0
3.0253e+05,1.3065e+08,5,5472,5500,15.66,3.12,26,51,0,0
3.0298e+05,1.3076e+08,5,5506,5628,15.65,3.17,26,51,0,0
3.0342e+05,1.3087e+08,5,5622,5557,15.61,3.16,26,51,0,0
3.0383e+05,1.3097e+08,5,5560,5642,15.61,3.42,26,51,0,0
3.0427e+05,1.3108e+08,5,5640,5571,15.6,2.91,27,51,0,0
3.0476e+05,1.312e+08,5,5557,5442,15.66,2.36,27,51,0,0
3.0517e+05,1.3129e+08,5,5442,5457,15.67,3.08,27,52,0,0
3.0562e+05,1.3141e+08,5,5466,5528,15.63,2.83,26,52,0,0
3.0602e+05,1.3151e+08,5,5526,5414,15.69,2.5,26,52,0,0
3.065e+05,1.3162e+08,5,5416,5457,15.59,3.12,27,52,0,0
3.0696e+05,1.3173e+08,5,5455,5442,15.63,2.76,27,52,0,0
3.0739e+05,1.3184e+08,5,5438,5371,15.72,2.59,26,52,0,0
3.0784e+05,1.3195e+08,5,5374,5414,15.65,2.95,27,52,0,0
3.0824e+05,1.3205e+08,5,5426,5585,15.66,3.49,27,52,0,0
3.0869e+05,1.3216e+08,5,5586,5628,15.64,3.59,27,52,0,0
3.091e+05,1.3226e+08,5,5639,6057,15.61,3.9,27,52,0,0
3.0955e+05,1.3237e+08,5,6057,6071,15.53,3.92,27,52,0,0
3.1004e+05,1.3249e+08,5,6077,6214,15.47,4.31,27,53,0,0
3.1044e+05,1.326e+08,5,6212,6157,15.49,4.08,26,53,0,0
3.1089e+05,1.327e+08,5,6159,6200,15.48,4.13,27,53,0,0
3.1134e+05,1.3282e+08,5,6202,6228,15.52,4.3,27,53,0,0
3.1179e+05,1.3292e+08,5,6226,6200,15.55,4.21,27,53,0,0
3.1223e+05,1.3303e+08,5,6203,6257,15.57,3.93,27,53,0,0
3.1268e+05,1.3314e+08,5,6246,6100,15.55,3.88,26,53,0,0
3.1308e+05,1.3325e+08,5,6105,6228,15.57,3.98,27,54,0,0
3.1353e+05,1.3335e+08,5,6224,6057,15.61,3.44,27,54,0,0
3.1397e+05,1.3346e+08,5,6059,6157,15.63,3.71,27,54,0,0
3.1443e+05,1.3357e+08,5,6151,6000,15.5,4.08,27,54,0,0
3.1488e+05,1.3368e+08,5,6011,6285,15.51,4.51,27,54,0,0
3.1532e+05,1.3379e+08,5,6280,6185,15.43,3.96,27,54,0,0
3.1572e+05,1.3389e+08,5,6185,6214,15.55,3.85,27,54,0,0
3.1658e+05,1.3411e+08,5,6209,5657,15.61,2.89,27,54,0,0
3.1703e+05,1.3422e+08,5,5654,5628,15.66,2.72,27,54,0,0
3.1748e+05,1.3433e+08,5,5623,5528,15.67,2.6,26,55,0,0
3.1792e+05,1.3444e+08,5,5532,5585,15.56,3.14,27,55,0,0
3.1837e+05,1.3454e+08,5,5576,5457,15.58,3.12,27,55,0,0
3.1881e+05,1.3465e+08,5,5468,5685,15.64,3.19,27,55,0,0
3.1926e+05,1.3476e+08,5,5686,5785,15.6,3.24,27,55,0,0
3.1975e+05,1.3488e+08,5,5775,5671,15.61,3.07,27,55,0,0
3.2019e+05,1.3498e+08,5,5666,5600,15.52,3.07,27,55,0,0
3.206e+05,1.3509e+08,5,5597,5542,15.64,2.96,27,55,0,0
3.2109e+05,1.3521e+08,5,5545,5585,15.61,3,26,55,0,0
3.215e+05,1.3531e+08,5,5595,5728,15.65,2.98,27,55,0,0
3.2194e+05,1.3542e+08,5,5712,5571,15.64,2.77,27,55,0,0
3.2239e+05,1.3553e+08,5,5569,5557,15.6,3,27,56,0,0
3.2284e+05,1.3564e+08,5,5570,5714,15.58,3.07,27,56,0,0
3.2325e+05,1.3574e+08,5,5714,5714,15.51,3.32,27,56,0,0
3.2369e+05,1.3585e+08,5,5723,5842,15.54,3.53,27,56,0,0
3.2414e+05,1.3596e+08,5,5855,5985,15.55,3.62,27,56,0,0
3.2454e+05,1.3606e+08,5,5982,5857,15.53,3.32,27,56,0,0
3.2499e+05,1.3617e+08,5,5854,5728,15.63,3.16,27,56,0,0
3.2592e+05,1.3639e+08,5,5742,5971,15.52,3.56,27,56,0,0
3.2632e+05,1.3649e+08,5,5967,5785,15.61,2.98,27,56,0,0
3.2676e+05,1.366e+08,5,5783,5728,15.63,3.09,27,57,0,0
3.2725e+05,1.3671e+08,5,5726,5700,15.58,3.22,27,57,0,0
3.2769e+05,1.3682e+08,5,5704,5785,15.61,3.29,27,57,0,0
3.2814e+05,1.3693e+08,5,5785,5785,15.51,3.37,27,57,0,0
3.2858e+05,1.3704e+08,5,5802,6028,15.35,4.15,27,57,0,0
3.2903e+05,1.3715e+08,5,6013,5914,15.6,3.39,27,57,0,0
3.2947e+05,1.3726e+08,5,5909,5871,15.56,3.59,27,57,0,0
3.2992e+05,1.3737e+08,5,5876,5942,15.56,3.37,27,57,0,0
3.3032e+05,1.3747e+08,5,5942,5957,15.6,3.1,27,57,0,0
3.3078e+05,1.3758e+08,5,5927,5657,15.64,2.91,27,57,0,0
3.3122e+05,1.3769e+08,5,5660,5685,15.65,3.22,27,58,0,0
3.3167e+05,1.3781e+08,5,5692,5757,15.62,3.48,27,58,0,0
3.3212e+05,1.3792e+08,5,5753,5714,15.58,3.52,27,58,0,0
3.3253e+05,1.3802e+08,5,5715,5814,15.61,3.66,27,58,0,0
3.3341e+05,1.3823e+08,5,5815,5971,15.51,3.89,27,58,0,0
3.339e+05,1.3835e+08,5,5971,5971,15.61,3.51,27,58,0,0
3.3434e+05,1.3846e+08,5,5966,5928,15.57,3.83,27,58,0,0
3.352e+05,1.3867e+08,5,5935,6157,15.38,4.11,27,59,0,0
3.3564e+05,1.3878e+08,5,6162,6242,15.44,4.18,27,59,0,0
3.3609e+05,1.3889e+08,5,6240,6228,15.47,3.78,27,59,0,0
3.3699e+05,1.3911e+08,5,6214,5928,15.51,3.41,27,59,0,0
3.3743e+05,1.3922e+08,5,5927,5900,15.58,3.28,27,59,0,0
3.3788e+05,1.3933e+08,5,5881,5714,15.55,3.19,27,59,0,0
3.3877e+05,1.3955e+08,5,5703,5485,15.63,2.8,27,59,0,0
3.3917e+05,1.3965e+08,5,5485,5500,15.63,2.9,27,60,0,0
3.3962e+05,1.3976e+08,5,5499,5457,15.6,2.58,27,60,0,0
3.401e+05,1.3987e+08,5,5454,5414,15.59,2.65,27,60,0,0
3.4056e+05,1.3999e+08,5,5415,5428,15.61,2.62,27,60,0,0
3.41e+05,1.401e+08,5,5426,5414,15.62,2.97,27,60,0,0
3.414e+05,1.402e+08,5,5418,5528,15.6,3.02,27,60,0,0
3.4185e+05,1.4031e+08,5,5528,5557,15.57,2.9,27,60,0,0
3.4233e+05,1.4042e+08,5,5555,5542,15.62,2.94,27,60,0,0
3.4278e+05,1.4054e+08,5,5535,5471,15.64,2.72,27,60,0,0
3.4323e+05,1.4065e+08,5,5467,5428,15.63,2.75,27,60,0,0
3.4368e+05,1.4076e+08,5,5424,5385,15.61,2.82,27,60,0,0
3.4412e+05,1.4087e+08,5,5381,5342,15.57,2.93,27,60,0,0
3.4457e+05,1.4097e+08,5,5353,5471,15.55,3.08,27,61,0,0
3.4543e+05,1.4119e+08,5,5466,5214,15.69,1.97,27,61,0,0
3.459e+05,1.413e+08,5,5148,4300,16.17,0.47,27,61,0,0
3.4636e+05,1.4142e+08,5,4333,4685,15.76,3,27,61,0,0
3.4676e+05,1.4151e+08,5,4654,4300,15.83,1.62,27,61,0,0
3.4721e+05,1.4163e+08,5,4252,3800,15.91,0.57,27,61,0,0
3.4761e+05,1.4172e+08,5,3794,3514,16.09,0.44,27,61,0,0
3.4806e+05,1.4183e+08,5,3499,3214,16.05,0.31,27,61,0,0
3.4851e+05,1.4195e+08,5,3185,2914,16.04,0.34,27,61,0,0
3.4895e+05,1.4205e+08,5,2909,2842,16.05,0.44,27,61,0,0
3.494e+05,1.4216e+08,5,2840,2814,16.03,0.4,27,61,0,0
3.4984e+05,1.4227e+08,5,2810,2742,16.04,0.39,27,61,0,0
3.503e+05,1.4238e+08,5,2746,2785,16.04,0.5,27,61,0,0
3.507e+05,1.4248e+08,5,2784,2771,16.07,0.44,27,61,0,0
3.5159e+05,1.427e+08,5,2771,2785,16.06,0.46,27,61,0,0
3.5204e+05,1.4281e+08,5,2785,2800,16.05,0.45,27,61,0,0
3.5248e+05,1.4292e+08,5,2800,2800,16.03,0.46,27,61,0,0
3.5298e+05,1.4304e+08,5,2797,2771,16.07,0.49,27,61,0,0
3.5338e+05,1.4314e+08,5,2769,2685,16.04,0.4,27,61,0,0
3.5383e+05,1.4324e+08,5,2678,2400,16.04,0.24,27,61,0,0
3.5428e+05,1.4336e+08,5,2395,2285,16.05,0.33,27,61,0,0
3.5473e+05,1.4347e+08,5,2283,2257,16.07,0.27,27,61,0,0
3.5518e+05,1.4358e+08,5,2249,2171,16.15,0.14,27,61,0,0
3.5559e+05,1.4368e+08,5,2165,1700,16.14,0,27,61,0,0
3.5608e+05,1.4379e+08,5,1679,1385,16.13,0.03,27,61,0,0
3.5696e+05,1.4401e+08,5,1383,1300,16.13,0.09,27,61,0,0
3.5742e+05,1.4411e+08,5,1300,1300,16.13,0.09,27,61,0,0
3.5835e+05,1.4434e+08,5,1300,1300,16.13,0.1,27,61,0,0
3.5879e+05,1.4445e+08,5,1298,1285,16.13,0.09,26,61,0,0
3.5924e+05,1.4456e+08,5,1286,1300,16.14,0.1,27,61,0,0
3.5968e+05,1.4466e+08,5,1300,1300,16.14,0.1,26,61,0,0
3.6013e+05,1.4477e+08,5,1300,1300,16.14,0.1,26,61,0,0
3.6058e+05,1.4488e+08,5,1300,1300,16.14,0.09,27,61,0,0
3.6103e+05,1.4498e+08,5,1300,1300,16.14,0.1,26,61,0,0
3.6148e+05,1.451e+08,5,1300,1300,16.14,0.09,26,61,0,0
3.6192e+05,1.452e+08,5,1300,1300,16.15,0.09,26,61,0,0
3.6282e+05,1.4542e+08,5,1300,1300,16.15,0.09,26,61,0,0
3.6327e+05,1.4553e+08,5,1300,1300,16.16,0.1,26,61,0,0
3.6371e+05,1.4564e+08,5,1300,1300,16.16,0.1,26,61,0,0
3.6416e+05,1.4574e+08,5,1300,1300,16.16,0.1,26,61,0,0
3.6462e+05,1.4585e+08,5,1300,1300,16.16,0.1,26,61,0,0
3.6506e+05,1.4596e+08,5,1300,1300,16.16,0.1,26,61,0,0
3.6551e+05,1.4607e+08,5,1300,1300,16.16,0.1,26,61,0,0
3.66e+05,1.4618e+08,5,1300,1300,16.16,0.1,26,61,0,0
3.6688e+05,1.464e+08,5,1299,1285,16.16,0.1,26,61,0,0
3.6774e+05,1.4661e+08,5,1285,1300,16.17,0.1,26,61,0,0
3.6818e+05,1.4671e+08,5,1299,1285,16.18,0.1,26,61,0,0
3.6862e+05,1.4682e+08,5,1285,1285,16.17,0.1,26,61,0,0
3.6908e+05,1.4693e+08,5,1286,1300,16.17,0.1,26,61,0,0
3.6948e+05,1.4703e+08,5,1300,1300,16.18,0.1,26,61,0,0
3.6997e+05,1.4714e+08,5,1300,1300,16.18,0.1,26,61,0,0
3.7038e+05,1.4724e+08,5,1300,1300,16.18,0.1,26,61,0,0
3.7087e+05,1.4736e+08,5,1300,1300,16.17,0.1,26,61,0,0
3.7131e+05,1.4746e+08,5,1300,1300,16.17,0.1,26,61,0,0
3.718e+05,1.4758e+08,5,1300,1300,16.17,0.09,26,61,0,0
3.7224e+05,1.4768e+08,5,1300,1300,16.19,0.09,26,61,0,0
3.7264e+05,1.4779e+08,5,1300,1300,16.19,0.09,26,61,0,0
3.7361e+05,1.4801e+08,5,1300,1300,16.19,0.1,26,61,0,0
3.7406e+05,1.4812e+08,5,1300,1300,16.19,0.09,26,61,0,0
3.7451e+05,1.4823e+08,5,1240,657,16.21,0.01,26,61,0,0
3.7496e+05,1.4833e+08,5,629,228,16.2,0,26,61,0,0
3.7541e+05,1.4844e+08,5,213,0,16.2,0.01,26,61,0,0
3.759e+05,1.4856e+08,5,0,0,16.21,0.02,26,61,0,0
3.762e+05,1.4866e+08,5,0,0,16.21,0.02,26,61,0,0
3.7665e+05,1.4877e+08,5,0,0,16.21,0.02,26,61,0,0
3.771e+05,1.4888e+08,5,0,0,16.22,0.02,26,61,0,0
3.7756e+05,1.4899e+08,5,0,0,16.21,0.02,26,61,0,0
3.7801e+05,1.4909e+08,5,0,0,16.22,0.02,26,61,0,0
3.785e+05,1.4921e+08,5,0,0,16.22,0.02,26,61,0,0
3.7936e+05,1.4942e+08,5,0,0,16.22,0.02,26,61,0,0
3.7986e+05,1.4953e+08,5,0,0,16.22,0.02,26,61,0,0
3.8031e+05,1.4964e+08,5,0,0,16.22,0.01,26,61,0,0
3.8077e+05,1.4975e+08,5,0,0,16.22,0.02,26,61,0,0
3.8121e+05,1.4985e+08,5,0,0,16.23,0.02,26,61,0,0
3.8171e+05,1.4997e+08,5,0,0,16.23,0.02,26,61,0,0
3.8208e+05,1.5006e+08,5,0,0,16.23,0.02,26,61,0,0
3.8258e+05,1.5018e+08,5,0,0,16.23,0.02,26,61,0,0
3.8306e+05,1.5029e+08,5,0,0,16.23,0.02,26,61,0,0
3.8352e+05,1.504e+08,5,0,0,16.23,0.02,26,61,0,0
3.8397e+05,1.505e+08,5,0,0,16.23,0.02,26,61,0,0
3.8442e+05,1.5061e+08,5,0,0,16.24,0.02,26,61,0,0
3.8488e+05,1.5072e+08,5,0,0,16.23,0.02,26,61,0,0
3.8533e+05,1.5083e+08,5,0,0,16.23,0.02,26,61,0,0
3.8578e+05,1.5093e+08,5,0,0,16.24,0.02,26,61,0,0
3.8627e+05,1.5105e+08,5,0,0,16.24,0.02,26,61,0,0
3.8677e+05,1.5116e+08,5,0,0,16.24,0.02,26,61,0,0
3.8718e+05,1.5126e+08,5,0,0,16.24,0.02,26,61,0,0
3.8812e+05,1.5148e+08,5,0,0,16.24,0.03,25,61,0,0
3.8858e+05,1.516e+08,5,0,0,16.25,0.03,26,61,0,0
3.8903e+05,1.517e+08,5,0,0,16.25,0.03,26,61,0,0
3.8948e+05,1.5181e+08,5,0,0,16.25,0.02,25,61,0,0
3.8998e+05,1.5192e+08,5,0,0,16.25,0.02,25,61,0,0
3.9044e+05,1.5203e+08,5,0,0,16.25,0.02,26,61,0,0
3.9089e+05,1.5214e+08,5,0,0,16.25,0.02,26,61,0,0
