LineNo,TimeUS,Instance,RPM,RawRPM,Volt,Curr,Temp,CTot,MotTemp,Err
2038,4.9566e+07,0,0,0,16.45,0.04,29,0,0,0
2493,4.9681e+07,0,0,0,16.45,0.04,29,0,0,0
2903,4.9782e+07,0,0,0,16.45,0.04,29,0,0,0
3324,4.9887e+07,0,0,0,16.45,0.04,30,0,0,0
3745,4.9991e+07,0,0,0,16.45,0.04,30,0,0,0
4203,5.0106e+07,0,0,0,16.45,0.04,29,0,0,0
4614,5.0206e+07,0,0,0,16.45,0.04,29,0,0,0
5067,5.0318e+07,0,0,0,16.45,0.04,29,0,0,0
5476,5.0419e+07,0,0,0,16.45,0.03,29,0,0,0
5926,5.0536e+07,0,0,0,16.45,0.03,29,0,0,0
6338,5.0639e+07,0,0,0,16.45,0.04,30,0,0,0
6749,5.0748e+07,0,0,0,16.45,0.04,29,0,0,0
7163,5.0848e+07,0,0,0,16.45,0.03,29,0,0,0
7581,5.0951e+07,0,0,0,16.45,0.03,29,0,0,0
7995,5.1057e+07,0,0,0,16.45,0.03,29,0,0,0
8450,5.1172e+07,0,0,0,16.45,0.03,29,0,0,0
8859,5.1274e+07,0,0,0,16.45,0.03,29,0,0,0
9271,5.1379e+07,0,0,0,16.46,0.04,29,0,0,0
9666,5.149e+07,0,0,0,16.46,0.04,30,0,0,0
10081,5.1593e+07,0,0,0,16.45,0.04,29,0,0,0
10531,5.1704e+07,0,0,0,16.45,0.03,30,0,0,0
10945,5.181e+07,0,0,0,16.45,0.03,29,0,0,0
11356,5.1911e+07,0,0,0,16.45,0.03,29,0,0,0
11806,5.202e+07,0,0,0,16.46,0.04,29,0,0,0
12236,5.2133e+07,0,0,0,16.45,0.03,29,0,0,0
12644,5.2236e+07,0,0,0,16.45,0.04,29,0,0,0
13094,5.2349e+07,0,0,0,16.45,0.03,29,0,0,0
13474,5.2447e+07,0,0,0,16.46,0.03,29,0,0,0
13926,5.2562e+07,0,0,0,16.45,0.04,30,0,0,0
14339,5.2664e+07,0,0,0,16.45,0.03,29,0,0,0
14795,5.2779e+07,0,0,0,16.45,0.03,30,0,0,0
15172,5.2877e+07,0,0,0,16.45,0.03,29,0,0,0
15584,5.2982e+07,0,0,0,16.45,0.03,29,0,0,0
16030,5.3096e+07,0,0,0,16.45,0.03,30,0,0,0
16486,5.3211e+07,0,0,0,16.45,0.03,29,0,0,0
16864,5.3308e+07,0,0,0,16.45,0.03,30,0,0,0
17288,5.342e+07,0,0,0,16.45,0.03,30,0,0,0
18141,5.3634e+07,0,0,0,16.45,0.03,29,0,0,0
18548,5.3737e+07,0,0,0,16.45,0.04,29,0,0,0
19002,5.3852e+07,0,0,0,16.45,0.04,30,0,0,0
19418,5.3956e+07,0,0,0,16.45,0.03,30,0,0,0
19831,5.406e+07,0,0,0,16.45,0.04,30,0,0,0
20249,5.4169e+07,0,0,0,16.45,0.03,30,0,0,0
20668,5.4273e+07,0,0,0,16.45,0.03,30,0,0,0
21120,5.4389e+07,0,0,0,16.46,0.03,29,0,0,0
21496,5.4488e+07,0,0,0,16.45,0.03,30,0,0,0
21910,5.4595e+07,0,0,0,16.45,0.03,30,0,0,0
22324,5.47e+07,0,0,0,16.45,0.03,30,0,0,0
22741,5.4806e+07,0,0,0,16.45,0.04,29,0,0,0
23192,5.4918e+07,0,0,0,16.45,0.03,30,0,0,0
23609,5.5023e+07,0,0,0,16.46,0.03,30,0,0,0
24060,5.5134e+07,0,0,0,16.45,0.03,29,0,0,0
24472,5.5239e+07,0,0,0,16.45,0.03,30,0,0,0
24861,5.5343e+07,0,0,0,16.45,0.03,29,0,0,0
25721,5.5562e+07,0,0,0,16.45,0.03,30,0,0,0
26136,5.567e+07,0,0,0,16.45,0.03,29,0,0,0
26548,5.5775e+07,0,0,0,16.45,0.03,29,0,0,0
27413,5.5991e+07,0,0,0,16.45,0.03,30,0,0,0
27864,5.6102e+07,0,0,0,16.45,0.03,30,0,0,0
28275,5.6207e+07,0,0,0,16.45,0.03,30,0,0,0
28688,5.631e+07,0,0,0,16.45,0.03,30,0,0,0
29104,5.6416e+07,0,0,0,16.45,0.03,30,0,0,0
29517,5.6523e+07,0,0,0,16.45,0.03,29,0,0,0
29966,5.6634e+07,0,0,0,16.45,0.03,30,0,0,0
30379,5.6742e+07,0,0,0,16.45,0.04,30,0,0,0
30823,5.6849e+07,0,0,0,16.45,0.04,30,0,0,0
31235,5.6954e+07,0,0,0,16.45,0.04,30,0,0,0
31645,5.7056e+07,0,0,0,16.45,0.04,30,0,0,0
32098,5.717e+07,0,0,0,16.45,0.04,30,0,0,0
33336,5.7486e+07,0,0,0,16.45,0.04,30,0,0,0
33792,5.7601e+07,0,0,0,16.45,0.04,30,0,0,0
34167,5.7699e+07,0,0,0,16.45,0.04,29,0,0,0
34621,5.7812e+07,0,0,0,16.45,0.04,30,0,0,0
35073,5.7927e+07,0,0,0,16.45,0.04,30,0,0,0
35451,5.8024e+07,0,0,0,16.45,0.04,30,0,0,0
35898,5.8137e+07,0,0,0,16.45,0.04,30,0,0,0
36315,5.8242e+07,0,0,0,16.45,0.04,30,0,0,0
36770,5.8355e+07,0,0,0,16.45,0.04,30,0,0,0
37189,5.8463e+07,0,0,0,16.45,0.04,30,0,0,0
37599,5.8565e+07,0,0,0,16.45,0.04,30,0,0,0
38051,5.8681e+07,0,0,0,16.46,0.04,30,0,0,0
38473,5.8788e+07,0,0,0,16.45,0.04,30,0,0,0
38893,5.8897e+07,0,0,0,16.45,0.04,30,0,0,0
39307,5.9002e+07,0,0,0,16.45,0.04,30,0,0,0
39762,5.9115e+07,0,0,0,16.45,0.04,30,0,0,0
40177,5.9221e+07,0,0,0,16.45,0.04,30,0,0,0
40598,5.9326e+07,0,0,0,16.45,0.04,30,0,0,0
41013,5.9433e+07,0,0,0,16.45,0.04,30,0,0,0
41463,5.9546e+07,0,0,0,16.45,0.04,30,0,0,0
41915,5.9658e+07,0,0,0,16.45,0.04,30,0,0,0
42290,5.9754e+07,0,0,0,16.45,0.04,30,0,0,0
42745,5.9868e+07,0,0,0,16.45,0.04,30,0,0,0
43130,5.997e+07,0,0,0,16.45,0.04,29,0,0,0
43581,6.0082e+07,0,0,0,16.45,0.04,30,0,0,0
44026,6.0193e+07,0,0,0,16.45,0.04,30,0,0,0
44405,6.029e+07,0,0,0,16.45,0.04,30,0,0,0
44857,6.0402e+07,0,0,0,16.45,0.04,30,0,0,0
45273,6.051e+07,0,0,0,16.45,0.04,30,0,0,0
45719,6.0619e+07,0,0,0,16.45,0.04,30,0,0,0
46134,6.0723e+07,0,0,0,16.45,0.04,30,0,0,0
46551,6.0832e+07,0,0,0,16.45,0.04,30,0,0,0
46999,6.0944e+07,0,0,0,16.45,0.04,30,0,0,0
47413,6.1049e+07,0,0,0,16.45,0.04,30,0,0,0
47826,6.1155e+07,0,0,0,16.45,0.04,30,0,0,0
48242,6.126e+07,0,0,0,16.45,0.04,30,0,0,0
48697,6.1377e+07,0,0,0,16.45,0.04,30,0,0,0
49525,6.1586e+07,0,0,0,16.45,0.04,29,0,0,0
49934,6.1693e+07,0,0,0,16.45,0.04,30,0,0,0
50354,6.1798e+07,0,0,0,16.45,0.04,30,0,0,0
50768,6.1904e+07,0,0,0,16.45,0.03,30,0,0,0
51185,6.2013e+07,0,0,0,16.45,0.04,30,0,0,0
51635,6.2126e+07,0,0,0,16.45,0.04,30,0,0,0
52080,6.2234e+07,0,0,0,16.45,0.03,30,0,0,0
52490,6.2337e+07,0,0,0,16.45,0.03,30,0,0,0
52945,6.2453e+07,0,0,0,16.45,0.03,30,0,0,0
53358,6.2558e+07,0,0,0,16.45,0.03,30,0,0,0
53772,6.2662e+07,0,0,0,16.45,0.03,30,0,0,0
54187,6.2766e+07,0,0,0,16.45,0.04,30,0,0,0
54602,6.2873e+07,0,0,0,16.46,0.03,30,0,0,0
55062,6.2985e+07,0,0,0,16.45,0.04,30,0,0,0
55478,6.3091e+07,0,0,0,16.45,0.04,30,0,0,0
55889,6.3193e+07,0,0,0,16.45,0.04,30,0,0,0
56752,6.3412e+07,0,0,0,16.45,0.04,30,0,0,0
57203,6.3524e+07,0,0,0,16.45,0.04,30,0,0,0
57615,6.363e+07,0,0,0,16.45,0.03,30,0,0,0
57913,7.0518e+07,0,0,0,16.45,0.04,30,0,0,0
58122,7.0569e+07,0,0,0,16.45,0.04,30,0,0,0
58569,7.0677e+07,0,0,0,16.45,0.04,30,0,0,0
59066,7.0787e+07,0,0,0,16.45,0.04,30,0,0,0
59522,7.0894e+07,0,0,0,16.45,0.04,30,0,0,0
59973,7.0997e+07,0,0,0,16.45,0.04,30,0,0,0
60468,7.111e+07,0,0,0,16.45,0.04,30,0,0,0
60917,7.1214e+07,0,0,0,16.45,0.04,30,0,0,0
61414,7.1325e+07,0,0,0,16.45,0.04,30,0,0,0
61870,7.1432e+07,0,0,0,16.45,0.04,30,0,0,0
62319,7.1534e+07,0,0,0,16.45,0.04,30,0,0,0
62814,7.1651e+07,0,0,0,16.45,0.04,30,0,0,0
63270,7.1756e+07,0,0,0,16.45,0.04,30,0,0,0
63722,7.1862e+07,0,0,0,16.45,0.04,30,0,0,0
64177,7.1967e+07,0,0,0,16.45,0.04,30,0,0,0
64630,7.2073e+07,0,0,0,16.45,0.04,30,0,0,0
65087,7.2178e+07,0,0,0,16.45,0.04,30,0,0,0
65583,7.2294e+07,0,0,0,16.45,0.04,30,0,0,0
66531,7.2513e+07,0,0,0,16.45,0.04,30,0,0,0
66940,7.261e+07,0,0,0,16.45,0.03,30,0,0,0
67442,7.2725e+07,0,11,142,16.42,0.16,30,0,0,0
67897,7.2834e+07,0,200,785,16.42,0.2,30,0,0,0
68348,7.2936e+07,0,790,1185,16.42,0.15,30,0,0,0
68804,7.3042e+07,0,1186,1300,16.41,0.17,30,0,0,0
69300,7.3154e+07,0,1321,1628,16.38,0.29,30,0,0,0
69750,7.3268e+07,0,1681,2428,16.15,0.93,30,0,0,0
70202,7.3376e+07,0,2451,2757,16.3,1.05,30,0,0,0
70651,7.3484e+07,0,2785,3185,16.14,1.33,30,0,0,0
71103,7.3588e+07,0,3196,3985,16.01,2.48,30,0,0,0
71558,7.37e+07,0,4035,4714,15.9,2.64,30,0,0,0
71963,7.3911e+07,0,4724,5842,15.66,3.95,30,0,0,0
72016,7.4027e+07,0,5851,5942,15.83,4.01,30,0,0,0
72473,7.4133e+07,0,5953,6128,15.69,4.24,30,0,0,0
72927,7.4244e+07,0,6141,6271,15.79,4.33,30,1,0,0
73832,7.4459e+07,0,6273,6442,15.7,4.92,30,1,0,0
74286,7.4567e+07,0,6442,6485,15.7,4.88,30,1,0,0
74738,7.4676e+07,0,6499,6685,15.67,5.25,30,1,0,0
75191,7.4783e+07,0,6680,6614,15.78,4.72,30,1,0,0
75643,7.4894e+07,0,6616,6642,15.71,4.94,30,2,0,0
76092,7.5e+07,0,6645,6714,15.64,5.69,30,2,0,0
76550,7.5107e+07,0,6736,7014,15.66,6.46,30,2,0,0
76963,7.521e+07,0,7010,6800,15.66,5.46,30,2,0,0
77460,7.5325e+07,0,6798,6700,15.66,4.48,30,2,0,0
77952,7.544e+07,0,6684,6528,15.54,4.33,30,2,0,0
78405,7.5546e+07,0,6519,6414,15.56,4.62,30,2,0,0
78821,7.5649e+07,0,6423,6614,15.61,4.65,30,3,0,0
79725,7.5864e+07,0,6613,6500,15.59,4.48,30,3,0,0
80216,7.5989e+07,0,6501,6514,15.6,4.62,30,3,0,0
80623,7.6087e+07,0,6517,6600,15.66,4.44,30,3,0,0
81502,7.6299e+07,0,6599,6585,15.64,4.78,30,3,0,0
81988,7.6416e+07,0,6585,6585,15.71,4.49,30,4,0,0
82396,7.6517e+07,0,6583,6557,15.67,4.56,30,4,0,0
82849,7.6626e+07,0,6559,6600,15.67,4.63,30,4,0,0
83299,7.6738e+07,0,6600,6628,15.72,4.32,30,4,0,0
83742,7.6848e+07,0,6619,6514,15.71,4.28,30,4,0,0
84189,7.6953e+07,0,6511,6457,15.82,4.18,30,4,0,0
84642,7.707e+07,0,6433,6200,15.71,4.13,30,4,0,0
85090,7.7175e+07,0,6223,6457,15.64,4.69,30,4,0,0
85489,7.7276e+07,0,6460,6542,15.65,4.38,30,5,0,0
86347,7.749e+07,0,6540,6357,15.79,4.02,30,5,0,0
87280,7.7712e+07,0,6353,6200,15.79,3.83,30,5,0,0
87762,7.7824e+07,0,6206,6271,15.8,4.12,30,5,0,0
88211,7.7932e+07,0,6263,6157,15.91,3.43,30,5,0,0
88623,7.8038e+07,0,6142,5871,15.84,3.3,30,5,0,0
89078,7.815e+07,0,5873,5900,15.91,3.46,30,5,0,0
89517,7.8256e+07,0,5906,6042,15.82,3.4,30,6,0,0
89966,7.8364e+07,0,6026,5700,15.89,3.13,30,6,0,0
90414,7.8477e+07,0,5693,5628,15.83,3.24,30,6,0,0
90863,7.8584e+07,0,5653,5928,15.87,3.72,30,6,0,0
91267,7.8687e+07,0,5927,5914,15.88,3.63,30,6,0,0
91765,7.8812e+07,0,5931,6028,15.77,3.69,30,6,0,0
92163,7.8908e+07,0,6028,6042,15.82,3.97,30,6,0,0
92569,7.9013e+07,0,6046,6228,15.81,4.05,30,6,0,0
93075,7.9135e+07,0,6230,6257,15.72,4.06,30,6,0,0
93516,7.9243e+07,0,6275,6457,15.7,4.41,31,7,0,0
93917,7.9341e+07,0,6456,6442,15.76,4.27,31,7,0,0
94353,7.9446e+07,0,6441,6428,15.8,4.12,30,7,0,0
94807,7.9558e+07,0,6431,6471,15.7,4.57,30,7,0,0
95247,7.9665e+07,0,6470,6457,15.7,4.81,30,7,0,0
95696,7.9774e+07,0,6451,6371,15.73,4.51,31,7,0,0
96142,7.9884e+07,0,6371,6371,15.79,4.42,31,7,0,0
96631,8.0002e+07,0,6377,6428,15.69,4.39,31,8,0,0
97039,8.0103e+07,0,6431,6485,15.75,4.46,31,8,0,0
97491,8.0216e+07,0,6481,6457,15.74,4.51,31,8,0,0
97939,8.0321e+07,0,6463,6528,15.78,4.75,31,8,0,0
98789,8.0536e+07,0,6526,6485,15.67,4.57,31,8,0,0
99229,8.0645e+07,0,6481,6428,15.74,4.4,31,8,0,0
99685,8.0756e+07,0,6435,6514,15.73,4.3,31,8,0,0
1.0008e+05,8.0858e+07,0,6509,6428,15.7,4.58,31,9,0,0
1.0054e+05,8.0971e+07,0,6439,6600,15.81,4.22,31,9,0,0
1.0094e+05,8.1076e+07,0,6591,6414,15.68,3.96,31,9,0,0
1.014e+05,8.1188e+07,0,6411,6385,15.69,3.96,31,9,0,0
1.0184e+05,8.1298e+07,0,6380,6314,15.76,3.93,31,9,0,0
1.0229e+05,8.1407e+07,0,6301,6171,15.75,3.94,31,9,0,0
1.0269e+05,8.1508e+07,0,6175,6357,15.73,4.04,31,9,0,0
1.0314e+05,8.1617e+07,0,6357,6371,15.77,4.05,31,10,0,0
1.0363e+05,8.1737e+07,0,6356,6200,15.8,3.52,31,10,0,0
1.0404e+05,8.1843e+07,0,6197,6171,15.8,3.55,31,10,0,0
1.0449e+05,8.195e+07,0,6170,6157,15.77,3.36,31,10,0,0
1.049e+05,8.2054e+07,0,6146,6000,15.75,3.61,31,10,0,0
1.0535e+05,8.2165e+07,0,6012,6185,15.62,4.32,31,10,0,0
1.0576e+05,8.2266e+07,0,6187,6357,15.57,4.37,31,10,0,0
1.0624e+05,8.2385e+07,0,6367,6514,15.63,4.7,31,10,0,0
1.0664e+05,8.2485e+07,0,6516,6600,15.6,4.7,31,10,0,0
1.071e+05,8.2598e+07,0,6599,6585,15.63,4.92,31,11,0,0
1.0755e+05,8.2712e+07,0,6593,6714,15.56,4.84,31,11,0,0
1.0796e+05,8.2819e+07,0,6721,6885,15.58,5.2,31,11,0,0
1.0844e+05,8.2927e+07,0,6873,6642,15.54,5.23,31,11,0,0
1.089e+05,8.3038e+07,0,6651,6742,15.62,4.85,31,11,0,0
1.0935e+05,8.3146e+07,0,6744,6785,15.61,5.08,31,11,0,0
1.0979e+05,8.3258e+07,0,6785,6785,15.55,5.35,31,12,0,0
1.1024e+05,8.3366e+07,0,6785,6800,15.54,5.26,31,12,0,0
1.1114e+05,8.3586e+07,0,6805,6985,15.62,5.16,31,12,0,0
1.1158e+05,8.3695e+07,0,6970,6828,15.56,5.15,31,12,0,0
1.1203e+05,8.3805e+07,0,6814,6714,15.58,4.91,31,12,0,0
1.1243e+05,8.3903e+07,0,6713,6700,15.53,4.97,31,12,0,0
1.1288e+05,8.4014e+07,0,6707,6914,15.55,6.12,31,13,0,0
1.1333e+05,8.4121e+07,0,6915,7014,15.72,5.17,31,13,0,0
1.1422e+05,8.4342e+07,0,6998,6685,15.67,5.08,31,13,0,0
1.1462e+05,8.4442e+07,0,6678,6528,15.66,4.8,31,13,0,0
1.1511e+05,8.4557e+07,0,6535,6614,15.65,4.74,31,13,0,0
1.1552e+05,8.4657e+07,0,6614,6614,15.64,4.57,31,14,0,0
1.1596e+05,8.4764e+07,0,6608,6485,15.51,4.71,31,14,0,0
1.1641e+05,8.4877e+07,0,6487,6514,15.66,4.43,31,14,0,0
1.1686e+05,8.4984e+07,0,6507,6442,15.79,4.17,32,14,0,0
1.1731e+05,8.51e+07,0,6405,6128,15.8,3.6,32,14,0,0
1.1816e+05,8.5306e+07,0,6130,6242,15.73,4.05,32,14,0,0
1.1861e+05,8.5417e+07,0,6243,6357,15.74,4.3,32,14,0,0
1.1906e+05,8.5527e+07,0,6363,6485,15.72,4.84,32,15,0,0
1.1946e+05,8.5636e+07,0,6489,6571,15.71,4.78,32,15,0,0
1.1991e+05,8.5743e+07,0,6572,6642,15.68,4.96,32,15,0,0
1.2036e+05,8.5856e+07,0,6641,6600,15.7,4.49,32,15,0,0
1.2081e+05,8.5966e+07,0,6599,6585,15.64,5.25,32,15,0,0
1.2125e+05,8.6078e+07,0,6590,6742,15.61,4.5,32,15,0,0
1.217e+05,8.6185e+07,0,6736,6285,15.57,4.02,32,15,0,0
1.2218e+05,8.6303e+07,0,6286,6328,15.66,4.39,32,16,0,0
1.2263e+05,8.6414e+07,0,6342,6457,15.66,4.6,32,16,0,0
1.2309e+05,8.6526e+07,0,6452,6400,15.69,4.46,32,16,0,0
1.2348e+05,8.6624e+07,0,6396,6328,15.65,4.1,32,16,0,0
1.2393e+05,8.6731e+07,0,6323,6242,15.64,4.05,32,16,0,0
1.2439e+05,8.6851e+07,0,6245,6271,15.66,3.74,32,16,0,0
1.2484e+05,8.6964e+07,0,6247,6000,15.66,3.8,32,16,0,0
1.2524e+05,8.7062e+07,0,6002,6057,15.63,3.79,32,16,0,0
1.2574e+05,8.7184e+07,0,6067,6142,15.67,3.87,32,17,0,0
1.2614e+05,8.7286e+07,0,6139,6114,15.69,3.87,32,17,0,0
1.2658e+05,8.7399e+07,0,6116,6142,15.61,3.95,32,17,0,0
1.2703e+05,8.7502e+07,0,6140,6114,15.67,3.61,32,17,0,0
1.2752e+05,8.7625e+07,0,6100,5971,15.63,3.71,32,17,0,0
1.2792e+05,8.7723e+07,0,5984,6157,15.64,3.93,32,17,0,0
1.2832e+05,8.7824e+07,0,6153,6085,15.66,3.92,32,17,0,0
1.2878e+05,8.7935e+07,0,6089,6157,15.62,4.12,32,17,0,0
1.2967e+05,8.815e+07,0,6160,6314,15.6,4.59,32,18,0,0
1.306e+05,8.8374e+07,0,6323,6585,15.58,4.72,32,18,0,0
1.3101e+05,8.8476e+07,0,6579,6457,15.54,5.07,32,18,0,0
1.3146e+05,8.8585e+07,0,6458,6514,15.58,5.06,32,18,0,0
1.3194e+05,8.8701e+07,0,6523,6614,15.55,4.83,32,18,0,0
1.3235e+05,8.8805e+07,0,6604,6514,15.64,4.87,32,19,0,0
1.328e+05,8.8916e+07,0,6520,6585,15.67,4.54,32,19,0,0
1.3325e+05,8.9024e+07,0,6574,6457,15.67,4.18,32,19,0,0
1.337e+05,8.9135e+07,0,6427,6114,15.69,3.87,32,19,0,0
1.3413e+05,8.9238e+07,0,6113,6100,15.67,4.09,32,19,0,0
1.3459e+05,8.9352e+07,0,6096,6014,15.63,3.67,32,19,0,0
1.3503e+05,8.9458e+07,0,6003,5800,15.62,3.29,32,19,0,0
1.3553e+05,8.9577e+07,0,5786,5657,15.62,3.11,32,19,0,0
1.3593e+05,8.9676e+07,0,5655,5585,15.72,3.1,32,19,0,0
1.3643e+05,8.9801e+07,0,5579,5542,15.69,3.07,32,20,0,0
1.3683e+05,8.9905e+07,0,5553,5700,15.64,3.22,32,20,0,0
1.3724e+05,9.0011e+07,0,5697,5642,15.6,3.1,32,20,0,0
1.3768e+05,9.0118e+07,0,5639,5600,15.66,3.34,32,20,0,0
1.3814e+05,9.023e+07,0,5605,5671,15.64,3.29,32,20,0,0
1.386e+05,9.0341e+07,0,5676,5757,15.7,3.61,32,20,0,0
1.3899e+05,9.0442e+07,0,5759,5814,15.67,3.67,32,20,0,0
1.3944e+05,9.0547e+07,0,5815,5857,15.57,4.26,32,20,0,0
1.399e+05,9.0662e+07,0,5884,6171,15.65,3.91,32,20,0,0
1.4038e+05,9.0773e+07,0,6176,6242,15.65,4.28,32,21,0,0
1.4079e+05,9.0875e+07,0,6246,6414,15.58,4.5,32,21,0,0
1.4124e+05,9.0988e+07,0,6414,6428,15.58,4.65,32,21,0,0
1.417e+05,9.1105e+07,0,6409,6214,15.63,4,32,21,0,0
1.4214e+05,9.1218e+07,0,6214,6214,15.6,4.16,32,21,0,0
1.4255e+05,9.1317e+07,0,6214,6228,15.6,3.98,32,21,0,0
1.4296e+05,9.1422e+07,0,6226,6171,15.6,3.95,32,21,0,0
1.4344e+05,9.1533e+07,0,6171,6171,15.61,4.07,32,22,0,0
1.4389e+05,9.1648e+07,0,6172,6200,15.64,3.92,32,22,0,0
1.4434e+05,9.1756e+07,0,6192,6114,15.64,3.59,32,22,0,0
1.448e+05,9.1869e+07,0,6118,6185,15.54,4.31,32,22,0,0
1.4524e+05,9.1977e+07,0,6184,6171,15.57,3.83,32,22,0,0
1.457e+05,9.2089e+07,0,6167,6128,15.62,3.86,33,22,0,0
1.4615e+05,9.2198e+07,0,6121,6057,15.6,3.57,32,22,0,0
1.4659e+05,9.2309e+07,0,6054,6028,15.53,3.87,32,22,0,0
1.4699e+05,9.2411e+07,0,6034,6171,15.52,4.22,33,22,0,0
1.4745e+05,9.252e+07,0,6198,6585,15.49,4.89,33,22,0,0
1.4789e+05,9.2628e+07,0,6573,6457,15.59,4.66,33,23,0,0
1.483e+05,9.2727e+07,0,6455,6428,15.57,4.63,33,23,0,0
1.4871e+05,9.2833e+07,0,6433,6542,15.55,5.11,33,23,0,0
1.492e+05,9.2949e+07,0,6547,6642,15.51,5.1,33,23,0,0
1.4961e+05,9.3055e+07,0,6645,6714,15.52,5.25,33,23,0,0
1.501e+05,9.3171e+07,0,6701,6557,15.52,4.86,33,23,0,0
1.505e+05,9.3274e+07,0,6550,6471,15.56,4.84,33,24,0,0
1.5095e+05,9.3386e+07,0,6470,6457,15.52,4.35,33,24,0,0
1.5144e+05,9.3506e+07,0,6447,6385,15.51,4.48,33,24,0,0
1.5185e+05,9.3606e+07,0,6386,6428,15.52,4.65,33,24,0,0
1.5229e+05,9.3716e+07,0,6421,6357,15.51,4.25,33,24,0,0
1.5269e+05,9.3818e+07,0,6357,6371,15.55,4.3,33,24,0,0
1.5408e+05,9.4155e+07,0,6362,6085,15.57,3.7,33,25,0,0
1.5453e+05,9.4266e+07,0,6059,5800,15.56,3.62,33,25,0,0
1.5493e+05,9.4365e+07,0,5802,5857,15.56,3.71,33,25,0,0
1.5539e+05,9.448e+07,0,5857,5857,15.57,3.5,33,25,0,0
1.558e+05,9.4583e+07,0,5859,5914,15.54,3.59,33,25,0,0
1.5624e+05,9.4692e+07,0,5902,5742,15.58,3.47,33,25,0,0
1.5669e+05,9.4807e+07,0,5757,5957,15.57,3.45,33,25,0,0
1.5715e+05,9.4921e+07,0,5963,6028,15.52,3.71,33,25,0,0
1.5756e+05,9.5019e+07,0,6034,6114,15.56,3.89,33,25,0,0
1.58e+05,9.5128e+07,0,6117,6200,15.51,3.56,33,26,0,0
1.5844e+05,9.5238e+07,0,6192,6042,15.58,3.78,33,26,0,0
1.5889e+05,9.5348e+07,0,6045,6114,15.55,3.99,33,26,0,0
1.5934e+05,9.5459e+07,0,6127,6300,15.57,4.2,33,26,0,0
1.5979e+05,9.5567e+07,0,6293,6200,15.55,4.02,33,26,0,0
1.602e+05,9.5674e+07,0,6189,6057,15.54,3.8,33,26,0,0
1.6065e+05,9.5784e+07,0,6060,6100,15.61,3.81,33,26,0,0
1.6109e+05,9.5892e+07,0,6096,6057,15.6,3.85,33,26,0,0
1.615e+05,9.5996e+07,0,6049,5971,15.58,3.79,33,27,0,0
1.6195e+05,9.6105e+07,0,5973,6000,15.58,3.76,33,27,0,0
1.6284e+05,9.6322e+07,0,6001,6085,15.64,3.72,33,27,0,0
1.6329e+05,9.6429e+07,0,6083,6057,15.56,3.78,33,27,0,0
1.6378e+05,9.6545e+07,0,6055,6042,15.55,3.78,33,27,0,0
1.6418e+05,9.6644e+07,0,6041,6028,15.52,4.02,33,27,0,0
1.6463e+05,9.6757e+07,0,6028,6042,15.63,3.91,33,27,0,0
1.6508e+05,9.6867e+07,0,6047,6114,15.63,3.95,33,28,0,0
1.6553e+05,9.6983e+07,0,6106,6057,15.58,4.03,33,28,0,0
1.6594e+05,9.7081e+07,0,6056,6042,15.54,4.15,33,28,0,0
1.6639e+05,9.7191e+07,0,6040,6014,15.63,4.04,33,28,0,0
1.668e+05,9.7295e+07,0,6016,6171,15.57,4.1,33,28,0,0
1.6728e+05,9.7415e+07,0,6157,6014,15.52,4.11,33,28,0,0
1.6773e+05,9.7522e+07,0,6027,6214,15.53,4.24,33,28,0,0
1.6818e+05,9.7631e+07,0,6214,6228,15.56,4.34,33,28,0,0
1.6863e+05,9.7742e+07,0,6232,6300,15.59,4.08,33,29,0,0
1.6904e+05,9.7847e+07,0,6294,6171,15.62,4.21,33,29,0,0
1.695e+05,9.7957e+07,0,6173,6214,15.57,4.18,33,29,0,0
1.6994e+05,9.8069e+07,0,6211,6185,15.6,4.19,33,29,0,0
1.7039e+05,9.8177e+07,0,6188,6271,15.57,3.82,33,29,0,0
1.7084e+05,9.8286e+07,0,6264,6171,15.55,4.02,33,29,0,0
1.7129e+05,9.8401e+07,0,6154,6014,15.52,3.8,33,29,0,0
1.717e+05,9.8501e+07,0,6015,6042,15.56,3.7,33,29,0,0
1.7259e+05,9.8721e+07,0,6043,6071,15.57,3.69,33,30,0,0
1.7303e+05,9.8827e+07,0,6070,6057,15.53,4,33,30,0,0
1.7348e+05,9.8936e+07,0,6065,6157,15.58,4.22,33,30,0,0
1.7392e+05,9.904e+07,0,6161,6271,15.61,4.33,33,30,0,0
1.7441e+05,9.9156e+07,0,6268,6242,15.56,4.04,33,30,0,0
1.7486e+05,9.9264e+07,0,6251,6342,15.57,4.62,33,30,0,0
1.7527e+05,9.9366e+07,0,6329,6214,15.56,4.22,33,30,0,0
1.7567e+05,9.9468e+07,0,6216,6271,15.49,4.01,33,30,0,0
1.7617e+05,9.9588e+07,0,6253,6057,15.5,4.06,33,31,0,0
1.7661e+05,9.9695e+07,0,6075,6314,15.46,4.25,33,31,0,0
1.7706e+05,9.9802e+07,0,6305,6185,15.48,4.82,33,31,0,0
1.775e+05,9.9916e+07,0,6212,6471,15.53,5.02,34,31,0,0
1.7795e+05,1.0002e+08,0,6455,6314,15.52,3.37,34,31,0,0
1.784e+05,1.0013e+08,0,6322,6442,15.48,5.78,33,31,0,0
1.7884e+05,1.0025e+08,0,6479,6785,15.52,5.49,34,31,0,0
1.7929e+05,1.0035e+08,0,6786,6800,15.55,5.08,34,32,0,0
1.7974e+05,1.0047e+08,0,6774,6542,15.52,4.69,34,32,0,0
1.8015e+05,1.0056e+08,0,6540,6514,15.57,4.24,34,32,0,0
1.8059e+05,1.0068e+08,0,6504,6428,15.47,4.54,34,32,0,0
1.8104e+05,1.0078e+08,0,6425,6271,15.52,4.29,34,32,0,0
1.8148e+05,1.0088e+08,0,6269,6228,15.56,4.1,34,32,0,0
1.8193e+05,1.01e+08,0,6229,6314,15.56,4.35,34,32,0,0
1.8238e+05,1.0111e+08,0,6317,6342,15.56,4.37,34,32,0,0
1.8283e+05,1.0122e+08,0,6332,6242,15.58,4.1,34,33,0,0
1.8323e+05,1.0132e+08,0,6239,6142,15.61,3.87,34,33,0,0
1.8368e+05,1.0143e+08,0,6146,6257,15.52,4.3,34,33,0,0
1.8413e+05,1.0154e+08,0,6252,6200,15.54,4.12,34,33,0,0
1.8454e+05,1.0165e+08,0,6202,6285,15.59,4.22,34,33,0,0
1.8503e+05,1.0177e+08,0,6280,6242,15.57,4.16,34,33,0,0
1.8544e+05,1.0187e+08,0,6240,6228,15.59,4.09,34,33,0,0
1.8592e+05,1.0198e+08,0,6228,6228,15.52,4.16,34,33,0,0
1.8633e+05,1.0208e+08,0,6227,6214,15.57,4.28,34,34,0,0
1.8678e+05,1.022e+08,0,6215,6385,15.54,4.22,34,34,0,0
1.873e+05,1.0232e+08,0,6375,6314,15.55,4.21,34,34,0,0
1.877e+05,1.0241e+08,0,6314,6328,15.52,4.05,34,34,0,0
1.882e+05,1.0253e+08,0,6313,6128,15.59,3.85,34,34,0,0
1.886e+05,1.0264e+08,0,6136,6242,15.58,3.82,34,34,0,0
1.8905e+05,1.0274e+08,0,6227,6028,15.58,3.42,34,34,0,0
1.8946e+05,1.0285e+08,0,6028,6042,15.63,3.49,34,35,0,0
1.8991e+05,1.0296e+08,0,6034,5942,15.61,3.55,34,35,0,0
1.9032e+05,1.0306e+08,0,5937,5771,15.61,3.43,34,35,0,0
1.9077e+05,1.0317e+08,0,5772,5842,15.56,3.56,34,35,0,0
1.9122e+05,1.0329e+08,0,5844,5900,15.59,3.39,34,35,0,0
1.9172e+05,1.0341e+08,0,5908,5957,15.56,3.48,34,35,0,0
1.9212e+05,1.0351e+08,0,5953,5914,15.67,3.55,34,35,0,0
1.9257e+05,1.0362e+08,0,5914,5914,15.55,3.75,34,35,0,0
1.9298e+05,1.0372e+08,0,5915,6014,15.6,3.81,34,35,0,0
1.9347e+05,1.0384e+08,0,6016,6057,15.63,3.78,34,35,0,0
1.9388e+05,1.0394e+08,0,6058,6114,15.55,4.16,34,36,0,0
1.9432e+05,1.0405e+08,0,6109,6014,15.61,3.71,34,36,0,0
1.9477e+05,1.0416e+08,0,6016,6100,15.58,3.46,34,36,0,0
1.9568e+05,1.0438e+08,0,6099,6057,15.58,3.92,34,36,0,0
1.9617e+05,1.045e+08,0,6077,6285,15.52,4.26,34,36,0,0
1.9657e+05,1.046e+08,0,6286,6300,15.52,4.35,34,36,0,0
1.9697e+05,1.047e+08,0,6302,6342,15.57,4.28,34,36,0,0
1.9743e+05,1.0481e+08,0,6340,6314,15.55,4.24,34,37,0,0
1.9788e+05,1.0492e+08,0,6302,6142,15.58,4.05,34,37,0,0
1.9828e+05,1.0503e+08,0,6147,6271,15.44,4.41,34,37,0,0
1.9877e+05,1.0514e+08,0,6273,6300,15.49,4.75,34,37,0,0
1.9918e+05,1.0525e+08,0,6299,6285,15.5,4.24,34,37,0,0
1.9967e+05,1.0536e+08,0,6296,6414,15.45,4.48,34,37,0,0
2.0012e+05,1.0547e+08,0,6407,6342,15.46,4.18,34,37,0,0
2.0057e+05,1.0558e+08,0,6344,6385,15.38,4.68,34,37,0,0
2.0097e+05,1.0568e+08,0,6387,6500,15.44,4.83,34,38,0,0
2.0142e+05,1.0579e+08,0,6501,6557,15.4,5.1,34,38,0,0
2.0186e+05,1.059e+08,0,6556,6500,15.44,4.93,34,38,0,0
2.0231e+05,1.0601e+08,0,6491,6400,15.42,4.51,34,38,0,0
2.0276e+05,1.0612e+08,0,6396,6357,15.45,4.55,34,38,0,0
2.0316e+05,1.0622e+08,0,6356,6342,15.51,4.04,34,38,0,0
2.0365e+05,1.0633e+08,0,6338,6257,15.49,4.47,34,38,0,0
2.0411e+05,1.0645e+08,0,6271,6428,15.49,4.1,34,39,0,0
2.0456e+05,1.0656e+08,0,6419,6328,15.44,4.33,34,39,0,0
2.05e+05,1.0667e+08,0,6326,6300,15.51,4.51,34,39,0,0
2.0545e+05,1.0678e+08,0,6313,6500,15.45,4.15,34,39,0,0
2.0586e+05,1.0688e+08,0,6488,6342,15.48,4.46,34,39,0,0
2.063e+05,1.0699e+08,0,6350,6471,15.46,4.21,34,39,0,0
2.0675e+05,1.071e+08,0,6472,6500,15.52,4.43,34,39,0,0
2.0719e+05,1.0721e+08,0,6497,6314,15.5,4.3,34,40,0,0
2.0764e+05,1.0731e+08,0,6310,6242,15.54,4.18,34,40,0,0
2.0809e+05,1.0742e+08,0,6242,6271,15.55,4.12,34,40,0,0
2.0857e+05,1.0754e+08,0,6272,6285,15.48,3.93,34,40,0,0
2.0902e+05,1.0766e+08,0,6259,6085,15.52,3.68,34,40,0,0
2.0942e+05,1.0775e+08,0,6088,6328,15.48,4.31,34,40,0,0
2.0987e+05,1.0786e+08,0,6329,6428,15.47,4.56,34,40,0,0
2.1036e+05,1.0798e+08,0,6427,6400,15.47,4.56,34,40,0,0
2.1081e+05,1.0809e+08,0,6407,6471,15.47,4.73,34,40,0,0
2.1126e+05,1.0821e+08,0,6487,6642,15.49,4.83,34,41,0,0
2.1167e+05,1.083e+08,0,6633,6485,15.44,4.99,34,41,0,0
2.1256e+05,1.0852e+08,0,6487,6528,15.48,4.97,34,41,0,0
2.1346e+05,1.0874e+08,0,6529,6571,15.54,4.78,34,41,0,0
2.139e+05,1.0885e+08,0,6585,6728,15.44,4.71,34,42,0,0
2.1431e+05,1.0896e+08,0,6715,6557,15.48,5.03,34,42,0,0
2.1481e+05,1.0908e+08,0,6567,6685,15.42,4.6,34,42,0,0
2.1521e+05,1.0917e+08,0,6682,6628,15.35,4.69,34,42,0,0
2.1566e+05,1.0928e+08,0,6623,6571,15.46,4.71,34,42,0,0
2.1611e+05,1.0939e+08,0,6576,6657,15.48,4.51,34,42,0,0
2.1656e+05,1.095e+08,0,6644,6471,15.4,4.65,34,42,0,0
2.17e+05,1.0961e+08,0,6467,6428,15.45,4.58,34,43,0,0
2.1741e+05,1.0971e+08,0,6430,6485,15.36,4.47,34,43,0,0
2.1785e+05,1.0982e+08,0,6487,6542,15.42,4.56,34,43,0,0
2.1875e+05,1.1004e+08,0,6538,6485,15.52,4.16,34,43,0,0
2.1916e+05,1.1014e+08,0,6480,6385,15.51,4.01,34,43,0,0
2.196e+05,1.1026e+08,0,6390,6442,15.45,4.32,34,43,0,0
2.2005e+05,1.1036e+08,0,6439,6385,15.5,4.19,34,43,0,0
2.2046e+05,1.1047e+08,0,6380,6285,15.48,4.38,34,43,0,0
2.2095e+05,1.1058e+08,0,6285,6285,15.56,3.98,34,44,0,0
2.2183e+05,1.108e+08,0,6297,6471,15.42,4.59,34,44,0,0
2.2224e+05,1.109e+08,0,6486,6685,15.38,5.26,34,44,0,0
2.2269e+05,1.1101e+08,0,6685,6685,15.33,4.77,34,44,0,0
2.2314e+05,1.1113e+08,0,6669,6514,15.38,4.8,34,44,0,0
2.2358e+05,1.1123e+08,0,6530,6742,15.48,4.5,34,44,0,0
2.2403e+05,1.1134e+08,0,6724,6400,15.53,4.1,35,45,0,0
2.2444e+05,1.1144e+08,0,6401,6442,15.53,4.05,35,45,0,0
2.2493e+05,1.1156e+08,0,6441,6428,15.48,4.3,35,45,0,0
2.2534e+05,1.1166e+08,0,6428,6428,15.47,4.44,35,45,0,0
2.2578e+05,1.1177e+08,0,6430,6457,15.57,3.32,35,45,0,0
2.2619e+05,1.1187e+08,0,6447,6257,15.57,3.78,34,45,0,0
2.2668e+05,1.1199e+08,0,6265,6357,15.55,4.32,34,45,0,0
2.2708e+05,1.1209e+08,0,6355,6257,15.61,3.75,35,45,0,0
2.2756e+05,1.122e+08,0,6265,6357,15.67,3.78,35,46,0,0
2.2801e+05,1.1231e+08,0,6346,6242,15.58,3.61,35,46,0,0
2.2841e+05,1.1241e+08,0,6240,6185,15.58,3.76,35,46,0,0
2.2886e+05,1.1252e+08,0,6187,6228,15.6,4.15,35,46,0,0
2.2926e+05,1.1262e+08,0,6225,6028,15.6,3.86,35,46,0,0
2.2971e+05,1.1273e+08,0,6031,6228,15.57,4.41,34,46,0,0
2.3018e+05,1.1284e+08,0,6232,6314,15.66,4.12,35,46,0,0
2.3064e+05,1.1295e+08,0,6308,6242,15.6,4.26,35,46,0,0
2.3108e+05,1.1306e+08,0,6253,6371,15.49,4.03,35,46,0,0
2.3154e+05,1.1317e+08,0,6360,6257,15.41,4.26,35,47,0,0
2.3194e+05,1.1327e+08,0,6255,6242,15.44,4.39,35,47,0,0
2.3239e+05,1.1339e+08,0,6254,6385,15.43,4.88,34,47,0,0
2.3279e+05,1.1349e+08,0,6390,6500,15.42,4.6,35,47,0,0
2.3324e+05,1.136e+08,0,6517,6685,15.44,4.88,35,47,0,0
2.3364e+05,1.1371e+08,0,6687,6714,15.47,4.73,35,47,0,0
2.3408e+05,1.1381e+08,0,6710,6628,15.45,4.89,35,47,0,0
2.3453e+05,1.1392e+08,0,6628,6642,15.46,4.62,35,48,0,0
2.3497e+05,1.1403e+08,0,6640,6614,15.4,4.85,35,48,0,0
2.3538e+05,1.1413e+08,0,6615,6657,15.51,4.55,35,48,0,0
2.3583e+05,1.1425e+08,0,6641,6485,15.45,4.61,35,48,0,0
2.3632e+05,1.1436e+08,0,6497,6628,15.41,4.95,35,48,0,0
2.3671e+05,1.1445e+08,0,6630,6714,15.47,5.08,35,48,0,0
2.372e+05,1.1457e+08,0,6699,6500,15.48,4.32,35,48,0,0
2.376e+05,1.1468e+08,0,6503,6542,15.42,5.12,35,49,0,0
2.3806e+05,1.1479e+08,0,6531,6428,15.44,4.6,35,49,0,0
2.389e+05,1.15e+08,0,6429,6614,15.44,4.82,35,49,0,0
2.3935e+05,1.1511e+08,0,6613,6585,15.42,4.79,35,49,0,0
2.4025e+05,1.1533e+08,0,6583,6557,15.41,4.94,35,50,0,0
2.4114e+05,1.1555e+08,0,6560,6657,15.5,4.82,35,50,0,0
2.4158e+05,1.1566e+08,0,6638,6385,15.49,4.64,35,50,0,0
2.4203e+05,1.1576e+08,0,6385,6385,15.48,4.36,35,50,0,0
2.4248e+05,1.1587e+08,0,6386,6414,15.5,4.65,35,50,0,0
2.438e+05,1.162e+08,0,6413,6400,15.48,4.7,35,51,0,0
2.4426e+05,1.1631e+08,0,6405,6457,15.47,4.83,35,51,0,0
2.451e+05,1.1652e+08,0,6450,6271,15.45,4.76,35,51,0,0
2.4555e+05,1.1663e+08,0,6283,6528,15.48,4.68,35,51,0,0
2.46e+05,1.1674e+08,0,6525,6471,15.49,5.07,35,51,0,0
2.4645e+05,1.1685e+08,0,6469,6442,15.49,4.34,35,51,0,0
2.469e+05,1.1696e+08,0,6440,6385,15.48,4.1,35,52,0,0
2.4734e+05,1.1707e+08,0,6368,6214,15.48,4.41,35,52,0,0
2.4779e+05,1.1717e+08,0,6221,6300,15.45,4.15,35,52,0,0
2.4824e+05,1.1729e+08,0,6289,6185,15.49,4.03,35,52,0,0
2.4868e+05,1.1739e+08,0,6179,6071,15.46,3.57,35,52,0,0
2.4913e+05,1.175e+08,0,6072,6100,15.51,3.46,35,52,0,0
2.4957e+05,1.1761e+08,0,6076,5828,15.5,2.79,35,52,0,0
2.5002e+05,1.1772e+08,0,5796,5500,15.52,2.76,35,52,0,0
2.5042e+05,1.1782e+08,0,5495,5242,15.57,2.63,35,52,0,0
2.5091e+05,1.1793e+08,0,5241,5228,15.49,2.6,35,53,0,0
2.522e+05,1.1825e+08,0,5228,5285,15.51,2.82,35,53,0,0
2.5269e+05,1.1837e+08,0,5296,5414,15.48,3.42,35,53,0,0
2.5313e+05,1.1848e+08,0,5433,5728,15.47,3.83,35,53,0,0
2.5358e+05,1.1859e+08,0,5743,5900,15.47,4.02,35,53,0,0
2.5398e+05,1.1869e+08,0,5903,6114,15.46,4.31,35,53,0,0
2.5443e+05,1.188e+08,0,6138,6428,15.39,4.58,35,53,0,0
2.5487e+05,1.1891e+08,0,6427,6414,15.4,4.7,35,53,0,0
2.5533e+05,1.1903e+08,0,6428,6571,15.42,4.87,35,54,0,0
2.5618e+05,1.1924e+08,0,6571,6585,15.39,4.5,35,54,0,0
2.5706e+05,1.1945e+08,0,6582,6457,15.48,4.46,35,54,0,0
2.5751e+05,1.1956e+08,0,6455,6342,15.41,4.45,35,54,0,0
2.5801e+05,1.1969e+08,0,6339,6314,15.45,4.2,35,55,0,0
2.5841e+05,1.1978e+08,0,6311,6200,15.47,4.17,35,55,0,0
2.589e+05,1.199e+08,0,6212,6314,15.42,4.12,35,55,0,0
2.5934e+05,1.2001e+08,0,6309,6271,15.45,4.13,35,55,0,0
2.5979e+05,1.2012e+08,0,6264,6200,15.51,3.89,35,55,0,0
2.602e+05,1.2022e+08,0,6196,6128,15.44,3.86,35,55,0,0
2.6065e+05,1.2034e+08,0,6120,6042,15.49,3.72,35,55,0,0
2.6104e+05,1.2043e+08,0,6040,5942,15.47,3.38,35,55,0,0
2.6154e+05,1.2055e+08,0,5934,5857,15.5,3.28,35,55,0,0
2.6198e+05,1.2066e+08,0,5860,5928,15.53,3.38,35,55,0,0
2.6243e+05,1.2077e+08,0,5915,5700,15.51,2.89,35,56,0,0
2.6288e+05,1.2088e+08,0,5695,5657,15.5,2.82,35,56,0,0
2.6328e+05,1.2098e+08,0,5652,5471,15.5,3.06,35,56,0,0
2.6373e+05,1.2109e+08,0,5473,5600,15.48,3.22,35,56,0,0
2.6418e+05,1.212e+08,0,5610,5742,15.47,3.5,35,56,0,0
2.6462e+05,1.2131e+08,0,5746,5814,15.53,3.8,35,56,0,0
2.6551e+05,1.2153e+08,0,5821,6000,15.51,3.82,35,56,0,0
2.6596e+05,1.2164e+08,0,6005,6071,15.46,3.81,35,56,0,0
2.6637e+05,1.2174e+08,0,6070,6014,15.49,4.02,35,57,0,0
2.6682e+05,1.2185e+08,0,6014,6028,15.45,3.85,35,57,0,0
2.6731e+05,1.2197e+08,0,6026,6014,15.43,3.75,35,57,0,0
2.6771e+05,1.2207e+08,0,6014,6042,15.41,4.1,35,57,0,0
2.682e+05,1.2219e+08,0,6048,6128,15.51,4.38,35,57,0,0
2.6861e+05,1.2229e+08,0,6130,6300,15.5,4.38,35,57,0,0
2.691e+05,1.2241e+08,0,6324,6514,15.45,4.72,35,57,0,0
2.6954e+05,1.2251e+08,0,6504,6371,15.42,4.35,35,57,0,0
2.6998e+05,1.2263e+08,0,6377,6471,15.44,4.61,35,58,0,0
2.7044e+05,1.2274e+08,0,6464,6400,15.42,4.62,35,58,0,0
2.7088e+05,1.2285e+08,0,6397,6371,15.51,4.39,35,58,0,0
2.7133e+05,1.2295e+08,0,6371,6371,15.49,4.58,35,58,0,0
2.7177e+05,1.2306e+08,0,6357,6228,15.47,4.42,35,58,0,0
2.7222e+05,1.2317e+08,0,6233,6300,15.45,4.13,35,58,0,0
2.727e+05,1.2328e+08,0,6288,6171,15.52,3.76,35,58,0,0
2.7311e+05,1.2339e+08,0,6163,6000,15.47,3.82,35,59,0,0
2.7355e+05,1.235e+08,0,6009,6142,15.48,3.83,35,59,0,0
2.7404e+05,1.2361e+08,0,6161,6285,15.49,4.03,35,59,0,0
2.7445e+05,1.2371e+08,0,6279,6200,15.48,3.85,35,59,0,0
2.7489e+05,1.2383e+08,0,6191,6071,15.5,3.94,35,59,0,0
2.7531e+05,1.2393e+08,0,6068,6042,15.44,3.79,35,59,0,0
2.7571e+05,1.2404e+08,0,6044,6100,15.47,4.19,35,59,0,0
2.766e+05,1.2425e+08,0,6104,6271,15.48,4.18,35,59,0,0
2.7705e+05,1.2436e+08,0,6272,6328,15.41,4.55,35,60,0,0
2.7794e+05,1.2458e+08,0,6324,6257,15.45,4.22,35,60,0,0
2.7834e+05,1.2469e+08,0,6256,6228,15.42,4.15,35,60,0,0
2.7879e+05,1.248e+08,0,6233,6300,15.37,4.71,35,60,0,0
2.7923e+05,1.249e+08,0,6314,6457,15.39,4.49,35,60,0,0
2.7968e+05,1.2501e+08,0,6455,6428,15.4,4.61,35,60,0,0
2.8013e+05,1.2512e+08,0,6426,6414,15.38,4.68,35,61,0,0
2.8054e+05,1.2523e+08,0,6414,6428,15.45,3.92,35,61,0,0
2.8142e+05,1.2545e+08,0,6423,6314,15.49,4.23,35,61,0,0
2.8187e+05,1.2555e+08,0,6313,6300,15.45,4.17,35,61,0,0
2.8232e+05,1.2567e+08,0,6300,6300,15.44,4.1,35,61,0,0
2.8272e+05,1.2577e+08,0,6296,6157,15.46,4.02,35,61,0,0
2.8317e+05,1.2588e+08,0,6162,6242,15.38,4.22,36,61,0,0
2.8362e+05,1.2599e+08,0,6243,6271,15.38,4.05,35,62,0,0
2.8407e+05,1.261e+08,0,6253,6057,15.47,4.1,35,62,0,0
2.8452e+05,1.2621e+08,0,6067,6228,15.51,3.93,35,62,0,0
2.8496e+05,1.2632e+08,0,6204,5985,15.55,3.48,35,62,0,0
2.8541e+05,1.2643e+08,0,5992,6071,15.52,3.62,35,62,0,0
2.8586e+05,1.2654e+08,0,6065,6014,15.5,3.84,35,62,0,0
2.863e+05,1.2665e+08,0,6026,6157,15.52,4.19,35,62,0,0
2.8675e+05,1.2676e+08,0,6159,6185,15.42,4.38,35,62,0,0
2.8719e+05,1.2687e+08,0,6197,6371,15.46,4.57,35,63,0,0
2.8764e+05,1.2698e+08,0,6362,6271,15.5,4.6,35,63,0,0
2.8805e+05,1.2708e+08,0,6273,6300,15.48,4.42,35,63,0,0
2.885e+05,1.2719e+08,0,6304,6485,15.46,4.76,35,63,0,0
2.8894e+05,1.273e+08,0,6482,6371,15.49,4.66,35,63,0,0
2.8939e+05,1.2742e+08,0,6402,6671,15.52,4.56,35,63,0,0
2.8979e+05,1.2751e+08,0,6664,6257,15.44,4.16,35,63,0,0
2.9027e+05,1.2764e+08,0,6249,6185,15.48,4.22,35,63,0,0
2.9073e+05,1.2774e+08,0,6189,6242,15.52,4.08,35,64,0,0
2.9117e+05,1.2786e+08,0,6225,6042,15.5,3.58,35,64,0,0
2.9158e+05,1.2795e+08,0,6045,6085,15.52,3.92,35,64,0,0
2.9198e+05,1.2806e+08,0,6087,6114,15.53,3.61,35,64,0,0
2.9244e+05,1.2817e+08,0,6115,6128,15.46,3.69,36,64,0,0
2.9288e+05,1.2828e+08,0,6125,6100,15.38,3.96,36,64,0,0
2.9333e+05,1.2839e+08,0,6103,6128,15.54,3.49,36,64,0,0
2.9378e+05,1.2849e+08,0,6123,6085,15.44,3.55,36,64,0,0
2.9422e+05,1.2861e+08,0,6100,6228,15.51,3.84,36,64,0,0
2.9462e+05,1.287e+08,0,6234,6342,15.51,4.06,36,65,0,0
2.9507e+05,1.2882e+08,0,6340,6314,15.46,3.91,35,65,0,0
2.9552e+05,1.2892e+08,0,6297,5957,15.5,3.73,36,65,0,0
2.9596e+05,1.2904e+08,0,5967,6114,15.45,4.05,36,65,0,0
2.9641e+05,1.2915e+08,0,6130,6300,15.53,3.92,36,65,0,0
2.9682e+05,1.2925e+08,0,6299,6271,15.5,3.65,36,65,0,0
2.9731e+05,1.2937e+08,0,6260,6142,15.5,3.72,36,65,0,0
2.9771e+05,1.2946e+08,0,6150,6314,15.45,4.08,36,65,0,0
2.986e+05,1.2968e+08,0,6311,6157,15.49,3.82,35,66,0,0
2.9909e+05,1.298e+08,0,6154,6128,15.48,3.97,36,66,0,0
2.9949e+05,1.299e+08,0,6129,6228,15.52,3.92,36,66,0,0
2.9994e+05,1.3001e+08,0,6237,6328,15.42,4.15,36,66,0,0
3.0038e+05,1.3012e+08,0,6329,6442,15.42,4.45,36,66,0,0
3.0086e+05,1.3023e+08,0,6433,6328,15.48,4.38,36,66,0,0
3.0172e+05,1.3045e+08,0,6328,6328,15.57,4.32,35,66,0,0
3.0217e+05,1.3056e+08,0,6324,6157,15.51,3.88,36,67,0,0
3.0262e+05,1.3067e+08,0,6152,6028,15.44,3.85,36,67,0,0
3.0307e+05,1.3078e+08,0,6028,6028,15.42,4.29,36,67,0,0
3.0347e+05,1.3088e+08,0,6029,6085,15.46,3.85,36,67,0,0
3.0392e+05,1.3099e+08,0,6089,6157,15.5,3.71,36,67,0,0
3.0436e+05,1.311e+08,0,6154,6114,15.44,4.29,36,67,0,0
3.0481e+05,1.3121e+08,0,6116,6157,15.49,4.34,36,67,0,0
3.0526e+05,1.3131e+08,0,6167,6300,15.49,3.79,36,68,0,0
3.0566e+05,1.3142e+08,0,6301,6328,15.48,4.22,36,68,0,0
3.0611e+05,1.3153e+08,0,6327,6314,15.5,3.81,36,68,0,0
3.0659e+05,1.3164e+08,0,6311,6271,15.45,4.24,36,68,0,0
3.07e+05,1.3174e+08,0,6271,6271,15.45,4.06,36,68,0,0
3.0748e+05,1.3186e+08,0,6269,6257,15.52,3.47,36,68,0,0
3.0788e+05,1.3196e+08,0,6254,6171,15.47,4.11,36,68,0,0
3.0833e+05,1.3207e+08,0,6169,6157,15.41,4.14,36,68,0,0
3.0878e+05,1.3218e+08,0,6163,6300,15.39,4.25,36,68,0,0
3.0919e+05,1.3228e+08,0,6299,6285,15.42,4.43,36,69,0,0
3.0964e+05,1.3239e+08,0,6288,6371,15.38,4.67,36,69,0,0
3.1009e+05,1.325e+08,0,6379,6571,15.33,4.98,36,69,0,0
3.1054e+05,1.3262e+08,0,6575,6642,15.32,4.84,36,69,0,0
3.1099e+05,1.3272e+08,0,6648,6714,15.31,4.67,36,69,0,0
3.1139e+05,1.3283e+08,0,6708,6514,15.37,4.52,36,69,0,0
3.1188e+05,1.3295e+08,0,6507,6442,15.3,4.82,36,69,0,0
3.1232e+05,1.3305e+08,0,6444,6471,15.38,4.93,36,70,0,0
3.1278e+05,1.3316e+08,0,6479,6571,15.36,4.54,36,70,0,0
3.1318e+05,1.3327e+08,0,6582,6742,15.41,4.54,36,70,0,0
3.1363e+05,1.3337e+08,0,6734,6628,15.4,4.5,36,70,0,0
3.1407e+05,1.3348e+08,0,6618,6414,15.39,4.21,36,70,0,0
3.1452e+05,1.336e+08,0,6439,6671,15.37,4.42,36,70,0,0
3.1497e+05,1.337e+08,0,6650,6442,15.31,4.19,36,70,0,0
3.1582e+05,1.3392e+08,0,6449,6642,15.3,4.78,36,71,0,0
3.1627e+05,1.3403e+08,0,6635,6571,15.41,4.74,36,71,0,0
3.1668e+05,1.3413e+08,0,6580,6700,15.44,5.24,36,71,0,0
3.1712e+05,1.3424e+08,0,6693,6600,15.46,4.53,36,71,0,0
3.1757e+05,1.3435e+08,0,6593,6442,15.54,3.99,36,71,0,0
3.1797e+05,1.3445e+08,0,6438,6242,15.44,3.89,36,71,0,0
3.1846e+05,1.3457e+08,0,6236,6185,15.4,4.02,36,72,0,0
3.189e+05,1.3467e+08,0,6181,6128,15.35,3.78,36,72,0,0
3.1935e+05,1.3478e+08,0,6144,6300,15.36,4.47,36,72,0,0
3.1979e+05,1.3489e+08,0,6300,6314,15.43,4.13,36,72,0,0
3.2028e+05,1.3501e+08,0,6311,6271,15.41,4.36,36,72,0,0
3.2069e+05,1.3511e+08,0,6285,6471,15.45,4.21,36,72,0,0
3.2109e+05,1.3521e+08,0,6467,6300,15.43,4.26,36,72,0,0
3.2159e+05,1.3533e+08,0,6298,6285,15.47,4.14,36,72,0,0
3.2199e+05,1.3543e+08,0,6286,6371,15.42,4.26,36,73,0,0
3.2244e+05,1.3554e+08,0,6364,6214,15.41,3.93,36,73,0,0
3.2289e+05,1.3565e+08,0,6220,6300,15.47,4.27,36,73,0,0
3.2333e+05,1.3576e+08,0,6301,6314,15.36,4.05,36,73,0,0
3.2374e+05,1.3586e+08,0,6317,6514,15.32,4.63,36,73,0,0
3.2423e+05,1.3598e+08,0,6511,6485,15.36,4.66,36,73,0,0
3.2463e+05,1.3608e+08,0,6493,6557,15.37,4.8,36,73,0,0
3.2508e+05,1.3619e+08,0,6551,6500,15.41,4.48,36,73,0,0
3.264e+05,1.3651e+08,0,6502,6557,15.49,4.49,36,74,0,0
3.2688e+05,1.3663e+08,0,6544,6442,15.38,4.34,36,74,0,0
3.2734e+05,1.3674e+08,0,6442,6442,15.45,4.58,36,74,0,0
3.2777e+05,1.3684e+08,0,6443,6500,15.37,4.61,36,74,0,0
3.2822e+05,1.3696e+08,0,6512,6600,15.39,4.65,36,75,0,0
3.2862e+05,1.3705e+08,0,6595,6442,15.33,4.61,36,75,0,0
3.2908e+05,1.3717e+08,0,6449,6585,15.4,4.68,36,75,0,0
3.2952e+05,1.3727e+08,0,6583,6571,15.42,4.59,36,75,0,0
3.2997e+05,1.3738e+08,0,6551,6371,15.4,4.16,36,75,0,0
3.3041e+05,1.3749e+08,0,6362,6285,15.41,4.32,36,75,0,0
3.3082e+05,1.3759e+08,0,6293,6485,15.43,4.45,36,75,0,0
3.3127e+05,1.3771e+08,0,6467,6242,15.47,4.13,36,75,0,0
3.3172e+05,1.3782e+08,0,6255,6471,15.37,4.44,36,76,0,0
3.3212e+05,1.3792e+08,0,6468,6342,15.39,4.34,36,76,0,0
3.3261e+05,1.3804e+08,0,6353,6514,15.26,4.71,36,76,0,0
3.3302e+05,1.3814e+08,0,6510,6328,15.42,4.64,36,76,0,0
3.335e+05,1.3825e+08,0,6333,6457,15.39,5.13,36,76,0,0
3.3395e+05,1.3836e+08,0,6457,6500,15.4,4.78,36,76,0,0
3.3439e+05,1.3847e+08,0,6495,6342,15.4,4.49,36,76,0,0
3.3484e+05,1.3858e+08,0,6341,6328,15.31,4.68,36,77,0,0
3.3573e+05,1.388e+08,0,6330,6371,15.31,4.43,36,77,0,0
3.3614e+05,1.389e+08,0,6365,6257,15.33,4.12,36,77,0,0
3.3662e+05,1.3902e+08,0,6251,6171,15.32,4.11,36,77,0,0
3.3708e+05,1.3913e+08,0,6159,6042,15.35,3.67,36,77,0,0
3.3752e+05,1.3924e+08,0,6043,6057,15.33,3.73,36,77,0,0
3.3792e+05,1.3934e+08,0,6055,6014,15.39,3.51,36,77,0,0
3.3837e+05,1.3945e+08,0,6001,5700,15.45,3.04,36,78,0,0
3.3881e+05,1.3956e+08,0,5698,5657,15.47,3.11,36,78,0,0
3.3926e+05,1.3967e+08,0,5650,5500,15.41,3.13,36,78,0,0
3.3971e+05,1.3978e+08,0,5501,5585,15.48,3.23,36,78,0,0
3.402e+05,1.399e+08,0,5596,5714,15.44,3.46,36,78,0,0
3.4104e+05,1.4011e+08,0,5718,5914,15.35,3.55,36,78,0,0
3.415e+05,1.4022e+08,0,5918,5971,15.44,3.84,36,78,0,0
3.4242e+05,1.4044e+08,0,5968,5900,15.46,3.53,36,78,0,0
3.4288e+05,1.4056e+08,0,5906,5971,15.48,3.34,36,79,0,0
3.4332e+05,1.4067e+08,0,5973,6000,15.45,3.53,36,79,0,0
3.4373e+05,1.4077e+08,0,6001,6085,15.45,3.43,36,79,0,0
3.4417e+05,1.4088e+08,0,6079,5814,15.41,2.99,36,79,0,0
3.4462e+05,1.4099e+08,0,5827,5942,15.42,3.17,36,79,0,0
3.4507e+05,1.411e+08,0,5936,5885,15.46,3.34,36,79,0,0
3.4555e+05,1.4121e+08,0,5909,6071,15.51,4.27,36,79,0,0
3.4599e+05,1.4132e+08,0,5958,4457,15.83,0.65,36,79,0,0
3.464e+05,1.4143e+08,0,4457,4457,15.73,1.61,36,79,0,0
3.4685e+05,1.4154e+08,0,4446,4328,15.61,1.73,36,79,0,0
3.4725e+05,1.4164e+08,0,4323,4028,15.75,1.38,36,79,0,0
3.477e+05,1.4174e+08,0,4013,3657,15.84,0.45,36,79,0,0
3.4814e+05,1.4186e+08,0,3617,3228,15.86,0.28,36,79,0,0
3.4855e+05,1.4196e+08,0,3224,3014,15.86,0.4,36,79,0,0
3.4904e+05,1.4208e+08,0,3002,2885,15.87,0.4,36,79,0,0
3.4949e+05,1.4218e+08,0,2889,2942,15.84,0.55,36,79,0,0
3.4993e+05,1.4229e+08,0,2942,2957,15.88,0.54,36,79,0,0
3.5034e+05,1.424e+08,0,2957,2957,15.86,0.54,36,79,0,0
3.5079e+05,1.4251e+08,0,2956,2942,15.86,0.52,36,80,0,0
3.5168e+05,1.4272e+08,0,2940,2900,15.88,0.5,36,80,0,0
3.5213e+05,1.4283e+08,0,2901,2914,15.88,0.5,36,80,0,0
3.5257e+05,1.4294e+08,0,2914,2928,15.88,0.51,36,80,0,0
3.5302e+05,1.4305e+08,0,2925,2871,15.86,0.45,36,80,0,0
3.5352e+05,1.4317e+08,0,2851,2685,15.93,0.39,36,80,0,0
3.5392e+05,1.4326e+08,0,2678,2414,15.89,0.31,36,80,0,0
3.5437e+05,1.4338e+08,0,2396,2242,15.9,0.28,36,80,0,0
3.5482e+05,1.4349e+08,0,2234,2185,15.9,0.23,36,80,0,0
3.5523e+05,1.4359e+08,0,2173,2028,15.98,0.07,36,80,0,0
3.5571e+05,1.437e+08,0,1993,1614,15.95,0,36,80,0,0
3.5616e+05,1.4381e+08,0,1594,1357,15.94,0.05,36,80,0,0
3.566e+05,1.4392e+08,0,1353,1314,15.94,0.09,36,80,0,0
3.5701e+05,1.4402e+08,0,1313,1300,15.95,0.1,36,80,0,0
3.575e+05,1.4414e+08,0,1300,1300,15.95,0.1,36,80,0,0
3.584e+05,1.4435e+08,0,1299,1285,15.94,0.1,36,80,0,0
3.5929e+05,1.4457e+08,0,1285,1285,15.95,0.1,36,80,0,0
3.5977e+05,1.4468e+08,0,1285,1285,15.96,0.1,36,80,0,0
3.6022e+05,1.448e+08,0,1285,1285,15.96,0.1,36,80,0,0
3.6066e+05,1.449e+08,0,1286,1300,15.97,0.1,36,80,0,0
3.6112e+05,1.45e+08,0,1300,1300,15.97,0.1,36,80,0,0
3.6157e+05,1.4512e+08,0,1300,1300,15.97,0.1,36,80,0,0
3.6202e+05,1.4522e+08,0,1300,1300,15.97,0.1,36,80,0,0
3.6247e+05,1.4533e+08,0,1298,1285,15.97,0.11,36,80,0,0
3.6291e+05,1.4544e+08,0,1286,1300,15.97,0.1,35,80,0,0
3.6336e+05,1.4555e+08,0,1300,1300,15.98,0.1,35,80,0,0
3.6381e+05,1.4566e+08,0,1300,1300,15.98,0.1,35,80,0,0
3.6425e+05,1.4576e+08,0,1300,1300,15.98,0.1,35,80,0,0
3.647e+05,1.4587e+08,0,1300,1300,15.98,0.1,35,80,0,0
3.6515e+05,1.4598e+08,0,1299,1285,15.98,0.1,35,80,0,0
3.656e+05,1.4609e+08,0,1285,1285,15.98,0.11,35,80,0,0
3.6608e+05,1.462e+08,0,1286,1300,15.98,0.1,35,80,0,0
3.6652e+05,1.4631e+08,0,1301,1314,15.99,0.1,35,80,0,0
3.6693e+05,1.4641e+08,0,1313,1300,15.99,0.1,35,80,0,0
3.6738e+05,1.4652e+08,0,1300,1300,15.99,0.1,35,80,0,0
3.6782e+05,1.4663e+08,0,1300,1300,15.99,0.1,35,80,0,0
3.6827e+05,1.4673e+08,0,1300,1300,15.99,0.1,35,80,0,0
3.6872e+05,1.4684e+08,0,1300,1300,15.99,0.1,35,80,0,0
3.6912e+05,1.4694e+08,0,1300,1300,16,0.1,35,80,0,0
3.6957e+05,1.4705e+08,0,1300,1300,16,0.1,35,80,0,0
3.7002e+05,1.4715e+08,0,1300,1300,16,0.1,35,80,0,0
3.7046e+05,1.4726e+08,0,1300,1300,16,0.1,35,80,0,0
3.714e+05,1.4748e+08,0,1300,1300,16.01,0.1,35,80,0,0
3.7188e+05,1.476e+08,0,1300,1300,16.01,0.1,35,80,0,0
3.7233e+05,1.4771e+08,0,1300,1300,16,0.1,35,80,0,0
3.7317e+05,1.4791e+08,0,1300,1300,16.01,0.1,35,80,0,0
3.7365e+05,1.4802e+08,0,1300,1314,16.01,0.1,35,80,0,0
3.741e+05,1.4813e+08,0,1313,1300,16,0.1,35,80,0,0
3.7455e+05,1.4824e+08,0,1268,542,16.03,0.01,35,80,0,0
3.7504e+05,1.4835e+08,0,495,0,16.02,0,35,80,0,0
3.755e+05,1.4846e+08,0,0,0,16.02,0.02,35,80,0,0
3.7595e+05,1.4857e+08,0,0,0,16.03,0.03,35,80,0,0
3.7624e+05,1.4868e+08,0,0,0,16.04,0.03,35,80,0,0
3.767e+05,1.4878e+08,0,0,0,16.04,0.03,35,80,0,0
3.772e+05,1.489e+08,0,0,0,16.04,0.03,35,80,0,0
3.7765e+05,1.4901e+08,0,0,0,16.04,0.03,35,80,0,0
3.781e+05,1.4911e+08,0,0,0,16.04,0.03,35,80,0,0
3.7855e+05,1.4922e+08,0,0,0,16.04,0.03,35,80,0,0
3.79e+05,1.4933e+08,0,0,0,16.04,0.03,35,80,0,0
3.7946e+05,1.4944e+08,0,0,0,16.04,0.03,35,80,0,0
3.7991e+05,1.4954e+08,0,0,0,16.04,0.03,35,80,0,0
3.8036e+05,1.4965e+08,0,0,0,16.04,0.03,35,80,0,0
3.8086e+05,1.4977e+08,0,0,0,16.05,0.03,35,80,0,0
3.813e+05,1.4987e+08,0,0,0,16.04,0.03,35,80,0,0
3.8175e+05,1.4998e+08,0,0,0,16.05,0.04,35,80,0,0
3.8217e+05,1.5008e+08,0,0,0,16.05,0.03,35,80,0,0
3.827e+05,1.502e+08,0,0,0,16.05,0.04,35,80,0,0
3.8315e+05,1.5031e+08,0,0,0,16.05,0.03,35,80,0,0
3.8361e+05,1.5042e+08,0,0,0,16.05,0.03,35,80,0,0
3.8406e+05,1.5052e+08,0,0,0,16.05,0.03,35,80,0,0
3.8452e+05,1.5064e+08,0,0,0,16.05,0.03,35,80,0,0
3.8497e+05,1.5074e+08,0,0,0,16.05,0.04,35,80,0,0
3.8542e+05,1.5085e+08,0,0,0,16.06,0.03,35,80,0,0
3.8587e+05,1.5096e+08,0,0,0,16.06,0.03,35,80,0,0
3.8636e+05,1.5107e+08,0,0,0,16.06,0.03,35,80,0,0
3.8682e+05,1.5118e+08,0,0,0,16.06,0.03,35,80,0,0
3.8727e+05,1.5128e+08,0,0,0,16.05,0.03,35,80,0,0
3.8776e+05,1.514e+08,0,0,0,16.06,0.03,35,80,0,0
3.8821e+05,1.5151e+08,0,0,0,16.06,0.03,35,80,0,0
3.8867e+05,1.5162e+08,0,0,0,16.07,0.03,35,80,0,0
3.8912e+05,1.5172e+08,0,0,0,16.07,0.03,34,80,0,0
3.8958e+05,1.5183e+08,0,0,0,16.07,0.03,34,80,0,0
3.9003e+05,1.5194e+08,0,0,0,16.07,0.03,35,80,0,0
3.9048e+05,1.5205e+08,0,0,0,16.07,0.03,35,80,0,0
3.9094e+05,1.5215e+08,0,0,0,16.07,0.03,35,80,0,0
