LineNo,TimeUS,Instance,RPM,RawRPM,Volt,Curr,Temp,CTot,MotTemp,Err
2038,49566061,0,0,0,16.45,0.04,29,0,0,0
2493,49681083,0,0,0,16.45,0.04,29,0,0,0
2903,49781732,0,0,0,16.45,0.04,29,0,0,0
3324,49886720,0,0,0,16.45,0.04,30,0,0,0
3745,49991208,0,0,0,16.45,0.04,30,0,0,0
4203,50105717,0,0,0,16.45,0.04,29,0,0,0
4614,50205935,0,0,0,16.45,0.04,29,0,0,0
5067,50317610,0,0,0,16.45,0.04,29,0,0,0
5476,50419499,0,0,0,16.45,0.03,29,0,0,0
5926,50536470,0,0,0,16.45,0.03,29,0,0,0
6338,50639425,0,0,0,16.45,0.04,30,0,0,0
6749,50747700,0,0,0,16.45,0.04,29,0,0,0
7163,50847774,0,0,0,16.45,0.03,29,0,0,0
7581,50951470,0,0,0,16.45,0.03,29,0,0,0
7995,51056869,0,0,0,16.45,0.03,29,0,0,0
8450,51172232,0,0,0,16.45,0.03,29,0,0,0
8859,51274437,0,0,0,16.45,0.03,29,0,0,0
9271,51379099,0,0,0,16.46,0.04,29,0,0,0
9666,51490255,0,0,0,16.46,0.04,30,0,0,0
10081,51593369,0,0,0,16.45,0.04,29,0,0,0
10531,51704088,0,0,0,16.45,0.03,30,0,0,0
10945,51810166,0,0,0,16.45,0.03,29,0,0,0
11356,51911246,0,0,0,16.45,0.03,29,0,0,0
11806,52020218,0,0,0,16.46,0.04,29,0,0,0
12236,52133031,0,0,0,16.45,0.03,29,0,0,0
12644,52235776,0,0,0,16.45,0.04,29,0,0,0
13094,52348873,0,0,0,16.45,0.03,29,0,0,0
13474,52447481,0,0,0,16.46,0.03,29,0,0,0
13926,52562500,0,0,0,16.45,0.04,30,0,0,0
14339,52664425,0,0,0,16.45,0.03,29,0,0,0
14795,52779497,0,0,0,16.45,0.03,30,0,0,0
15172,52877437,0,0,0,16.45,0.03,29,0,0,0
15584,52981905,0,0,0,16.45,0.03,29,0,0,0
16030,53096191,0,0,0,16.45,0.03,30,0,0,0
16486,53210840,0,0,0,16.45,0.03,29,0,0,0
16864,53308182,0,0,0,16.45,0.03,30,0,0,0
17288,53419613,0,0,0,16.45,0.03,30,0,0,0
18141,53634237,0,0,0,16.45,0.03,29,0,0,0
18548,53737276,0,0,0,16.45,0.04,29,0,0,0
19002,53851818,0,0,0,16.45,0.04,30,0,0,0
19418,53956208,0,0,0,16.45,0.03,30,0,0,0
19831,54060069,0,0,0,16.45,0.04,30,0,0,0
20249,54169002,0,0,0,16.45,0.03,30,0,0,0
20668,54273399,0,0,0,16.45,0.03,30,0,0,0
21120,54388874,0,0,0,16.46,0.03,29,0,0,0
21496,54488395,0,0,0,16.45,0.03,30,0,0,0
21910,54595036,0,0,0,16.45,0.03,30,0,0,0
22324,54699750,0,0,0,16.45,0.03,30,0,0,0
22741,54805919,0,0,0,16.45,0.04,29,0,0,0
23192,54917879,0,0,0,16.45,0.03,30,0,0,0
23609,55023202,0,0,0,16.46,0.03,30,0,0,0
24060,55134287,0,0,0,16.45,0.03,29,0,0,0
24472,55239459,0,0,0,16.45,0.03,30,0,0,0
24861,55342880,0,0,0,16.45,0.03,29,0,0,0
25721,55561950,0,0,0,16.45,0.03,30,0,0,0
26136,55669982,0,0,0,16.45,0.03,29,0,0,0
26548,55774974,0,0,0,16.45,0.03,29,0,0,0
27413,55990600,0,0,0,16.45,0.03,30,0,0,0
27864,56101790,0,0,0,16.45,0.03,30,0,0,0
28275,56206833,0,0,0,16.45,0.03,30,0,0,0
28688,56310202,0,0,0,16.45,0.03,30,0,0,0
29104,56416459,0,0,0,16.45,0.03,30,0,0,0
29517,56523190,0,0,0,16.45,0.03,29,0,0,0
29966,56634453,0,0,0,16.45,0.03,30,0,0,0
30379,56742479,0,0,0,16.45,0.04,30,0,0,0
30823,56848729,0,0,0,16.45,0.04,30,0,0,0
31235,56954153,0,0,0,16.45,0.04,30,0,0,0
31645,57055785,0,0,0,16.45,0.04,30,0,0,0
32098,57170194,0,0,0,16.45,0.04,30,0,0,0
33336,57486250,0,0,0,16.45,0.04,30,0,0,0
33792,57601389,0,0,0,16.45,0.04,30,0,0,0
34167,57699082,0,0,0,16.45,0.04,29,0,0,0
34621,57812356,0,0,0,16.45,0.04,30,0,0,0
35073,57926972,0,0,0,16.45,0.04,30,0,0,0
35451,58023541,0,0,0,16.45,0.04,30,0,0,0
35898,58136722,0,0,0,16.45,0.04,30,0,0,0
36315,58241735,0,0,0,16.45,0.04,30,0,0,0
36770,58355065,0,0,0,16.45,0.04,30,0,0,0
37189,58463307,0,0,0,16.45,0.04,30,0,0,0
37599,58564961,0,0,0,16.45,0.04,30,0,0,0
38051,58680538,0,0,0,16.46,0.04,30,0,0,0
38473,58788332,0,0,0,16.45,0.04,30,0,0,0
38893,58896712,0,0,0,16.45,0.04,30,0,0,0
39307,59001770,0,0,0,16.45,0.04,30,0,0,0
39762,59114952,0,0,0,16.45,0.04,30,0,0,0
40177,59221431,0,0,0,16.45,0.04,30,0,0,0
40598,59325769,0,0,0,16.45,0.04,30,0,0,0
41013,59432950,0,0,0,16.45,0.04,30,0,0,0
41463,59545983,0,0,0,16.45,0.04,30,0,0,0
41915,59657819,0,0,0,16.45,0.04,30,0,0,0
42290,59754159,0,0,0,16.45,0.04,30,0,0,0
42745,59868377,0,0,0,16.45,0.04,30,0,0,0
43130,59969833,0,0,0,16.45,0.04,29,0,0,0
43581,60081959,0,0,0,16.45,0.04,30,0,0,0
44026,60193091,0,0,0,16.45,0.04,30,0,0,0
44405,60289783,0,0,0,16.45,0.04,30,0,0,0
44857,60402499,0,0,0,16.45,0.04,30,0,0,0
45273,60509764,0,0,0,16.45,0.04,30,0,0,0
45719,60618994,0,0,0,16.45,0.04,30,0,0,0
46134,60723422,0,0,0,16.45,0.04,30,0,0,0
46551,60831949,0,0,0,16.45,0.04,30,0,0,0
46999,60944033,0,0,0,16.45,0.04,30,0,0,0
47413,61049201,0,0,0,16.45,0.04,30,0,0,0
47826,61155395,0,0,0,16.45,0.04,30,0,0,0
48242,61260088,0,0,0,16.45,0.04,30,0,0,0
48697,61376807,0,0,0,16.45,0.04,30,0,0,0
49525,61586328,0,0,0,16.45,0.04,29,0,0,0
49934,61693272,0,0,0,16.45,0.04,30,0,0,0
50354,61798203,0,0,0,16.45,0.04,30,0,0,0
50768,61904161,0,0,0,16.45,0.03,30,0,0,0
51185,62012909,0,0,0,16.45,0.04,30,0,0,0
51635,62125811,0,0,0,16.45,0.04,30,0,0,0
52080,62233726,0,0,0,16.45,0.03,30,0,0,0
52490,62336512,0,0,0,16.45,0.03,30,0,0,0
52945,62453248,0,0,0,16.45,0.03,30,0,0,0
53358,62558269,0,0,0,16.45,0.03,30,0,0,0
53772,62662372,0,0,0,16.45,0.03,30,0,0,0
54187,62766203,0,0,0,16.45,0.04,30,0,0,0
54602,62873030,0,0,0,16.46,0.03,30,0,0,0
55062,62985435,0,0,0,16.45,0.04,30,0,0,0
55478,63091282,0,0,0,16.45,0.04,30,0,0,0
55889,63193453,0,0,0,16.45,0.04,30,0,0,0
56752,63412348,0,0,0,16.45,0.04,30,0,0,0
57203,63523948,0,0,0,16.45,0.04,30,0,0,0
57615,63630435,0,0,0,16.45,0.03,30,0,0,0
57913,70518470,0,0,0,16.45,0.04,30,0,0,0
58122,70569192,0,0,0,16.45,0.04,30,0,0,0
58569,70676882,0,0,0,16.45,0.04,30,0,0,0
59066,70787170,0,0,0,16.45,0.04,30,0,0,0
59522,70894083,0,0,0,16.45,0.04,30,0,0,0
59973,70996901,0,0,0,16.45,0.04,30,0,0,0
60468,71109814,0,0,0,16.45,0.04,30,0,0,0
60917,71213506,0,0,0,16.45,0.04,30,0,0,0
61414,71325114,0,0,0,16.45,0.04,30,0,0,0
61870,71431948,0,0,0,16.45,0.04,30,0,0,0
62319,71534217,0,0,0,16.45,0.04,30,0,0,0
62814,71650772,0,0,0,16.45,0.04,30,0,0,0
63270,71756438,0,0,0,16.45,0.04,30,0,0,0
63722,71861794,0,0,0,16.45,0.04,30,0,0,0
64177,71966759,0,0,0,16.45,0.04,30,0,0,0
64630,72073486,0,0,0,16.45,0.04,30,0,0,0
65087,72177698,0,0,0,16.45,0.04,30,0,0,0
65583,72293847,0,0,0,16.45,0.04,30,0,0,0
66531,72513183,0,0,0,16.45,0.04,30,0,0,0
66940,72609958,0,0,0,16.45,0.03,30,0,0,0
67442,72725227,0,11,142,16.42,0.16,30,0,0,0
67897,72834063,0,200,785,16.42,0.2,30,0,0,0
68348,72936032,0,790,1185,16.42,0.15,30,0,0,0
68804,73042073,0,1186,1300,16.41,0.17,30,0,0,0
69300,73154163,0,1321,1628,16.38,0.29,30,0,0,0
69750,73267712,0,1681,2428,16.15,0.93,30,0,0,0
70202,73376041,0,2451,2757,16.3,1.05,30,0,0,0
70651,73483604,0,2785,3185,16.14,1.33,30,0,0,0
71103,73587749,0,3196,3985,16.01,2.48,30,0,0,0
71558,73699817,0,4035,4714,15.9,2.64,30,0,0,0
71963,73911260,0,4724,5842,15.66,3.95,30,0,0,0
72016,74026790,0,5851,5942,15.83,4.01,30,0,0,0
72473,74132846,0,5953,6128,15.69,4.24,30,0,0,0
72927,74243702,0,6141,6271,15.79,4.33,30,1,0,0
73832,74458962,0,6273,6442,15.7,4.92,30,1,0,0
74286,74566766,0,6442,6485,15.7,4.88,30,1,0,0
74738,74676022,0,6499,6685,15.67,5.25,30,1,0,0
75191,74782811,0,6680,6614,15.78,4.72,30,1,0,0
75643,74893973,0,6616,6642,15.71,4.94,30,2,0,0
76092,75000047,0,6645,6714,15.64,5.69,30,2,0,0
76550,75107455,0,6736,7014,15.66,6.46,30,2,0,0
76963,75209764,0,7010,6800,15.66,5.46,30,2,0,0
77460,75325423,0,6798,6700,15.66,4.48,30,2,0,0
77952,75440451,0,6684,6528,15.54,4.33,30,2,0,0
78405,75546093,0,6519,6414,15.56,4.62,30,2,0,0
78821,75649450,0,6423,6614,15.61,4.65,30,3,0,0
79725,75863860,0,6613,6500,15.59,4.48,30,3,0,0
80216,75988892,0,6501,6514,15.6,4.62,30,3,0,0
80623,76086978,0,6517,6600,15.66,4.44,30,3,0,0
81502,76298932,0,6599,6585,15.64,4.78,30,3,0,0
81988,76416244,0,6585,6585,15.71,4.49,30,4,0,0
82396,76516974,0,6583,6557,15.67,4.56,30,4,0,0
82849,76625990,0,6559,6600,15.67,4.63,30,4,0,0
83299,76738411,0,6600,6628,15.72,4.32,30,4,0,0
83742,76848398,0,6619,6514,15.71,4.28,30,4,0,0
84189,76953005,0,6511,6457,15.82,4.18,30,4,0,0
84642,77069587,0,6433,6200,15.71,4.13,30,4,0,0
85090,77175396,0,6223,6457,15.64,4.69,30,4,0,0
85489,77275853,0,6460,6542,15.65,4.38,30,5,0,0
86347,77489996,0,6540,6357,15.79,4.02,30,5,0,0
87280,77711716,0,6353,6200,15.79,3.83,30,5,0,0
87762,77824248,0,6206,6271,15.8,4.12,30,5,0,0
88211,77931968,0,6263,6157,15.91,3.43,30,5,0,0
88623,78037965,0,6142,5871,15.84,3.3,30,5,0,0
89078,78149743,0,5873,5900,15.91,3.46,30,5,0,0
89517,78256245,0,5906,6042,15.82,3.4,30,6,0,0
89966,78364408,0,6026,5700,15.89,3.13,30,6,0,0
90414,78477057,0,5693,5628,15.83,3.24,30,6,0,0
90863,78584184,0,5653,5928,15.87,3.72,30,6,0,0
91267,78687481,0,5927,5914,15.88,3.63,30,6,0,0
91765,78811598,0,5931,6028,15.77,3.69,30,6,0,0
92163,78907704,0,6028,6042,15.82,3.97,30,6,0,0
92569,79013310,0,6046,6228,15.81,4.05,30,6,0,0
93075,79135075,0,6230,6257,15.72,4.06,30,6,0,0
93516,79242870,0,6275,6457,15.7,4.41,31,7,0,0
93917,79340800,0,6456,6442,15.76,4.27,31,7,0,0
94353,79446436,0,6441,6428,15.8,4.12,30,7,0,0
94807,79558003,0,6431,6471,15.7,4.57,30,7,0,0
95247,79665236,0,6470,6457,15.7,4.81,30,7,0,0
95696,79774182,0,6451,6371,15.73,4.51,31,7,0,0
96142,79884216,0,6371,6371,15.79,4.42,31,7,0,0
96631,80001895,0,6377,6428,15.69,4.39,31,8,0,0
97039,80102871,0,6431,6485,15.75,4.46,31,8,0,0
97491,80216390,0,6481,6457,15.74,4.51,31,8,0,0
97939,80321413,0,6463,6528,15.78,4.75,31,8,0,0
98789,80535798,0,6526,6485,15.67,4.57,31,8,0,0
99229,80644608,0,6481,6428,15.74,4.4,31,8,0,0
99685,80756295,0,6435,6514,15.73,4.3,31,8,0,0
100082,80857690,0,6509,6428,15.7,4.58,31,9,0,0
100542,80970755,0,6439,6600,15.81,4.22,31,9,0,0
100944,81075857,0,6591,6414,15.68,3.96,31,9,0,0
101402,81187706,0,6411,6385,15.69,3.96,31,9,0,0
101845,81298069,0,6380,6314,15.76,3.93,31,9,0,0
102288,81407247,0,6301,6171,15.75,3.94,31,9,0,0
102691,81508116,0,6175,6357,15.73,4.04,31,9,0,0
103137,81617477,0,6357,6371,15.77,4.05,31,10,0,0
103634,81736908,0,6356,6200,15.8,3.52,31,10,0,0
104044,81843283,0,6197,6171,15.8,3.55,31,10,0,0
104494,81950458,0,6170,6157,15.77,3.36,31,10,0,0
104902,82054336,0,6146,6000,15.75,3.61,31,10,0,0
105352,82165418,0,6012,6185,15.62,4.32,31,10,0,0
105755,82266421,0,6187,6357,15.57,4.37,31,10,0,0
106245,82384735,0,6367,6514,15.63,4.7,31,10,0,0
106645,82485016,0,6516,6600,15.6,4.7,31,10,0,0
107102,82598084,0,6599,6585,15.63,4.92,31,11,0,0
107551,82712029,0,6593,6714,15.56,4.84,31,11,0,0
107963,82818694,0,6721,6885,15.58,5.2,31,11,0,0
108444,82926842,0,6873,6642,15.54,5.23,31,11,0,0
108899,83038474,0,6651,6742,15.62,4.85,31,11,0,0
109347,83145805,0,6744,6785,15.61,5.08,31,11,0,0
109794,83257791,0,6785,6785,15.55,5.35,31,12,0,0
110243,83365745,0,6785,6800,15.54,5.26,31,12,0,0
111139,83585989,0,6805,6985,15.62,5.16,31,12,0,0
111581,83694890,0,6970,6828,15.56,5.15,31,12,0,0
112030,83805200,0,6814,6714,15.58,4.91,31,12,0,0
112429,83903304,0,6713,6700,15.53,4.97,31,12,0,0
112879,84014227,0,6707,6914,15.55,6.12,31,13,0,0
113327,84121303,0,6915,7014,15.72,5.17,31,13,0,0
114225,84342428,0,6998,6685,15.67,5.08,31,13,0,0
114625,84441765,0,6678,6528,15.66,4.8,31,13,0,0
115114,84556766,0,6535,6614,15.65,4.74,31,13,0,0
115516,84656797,0,6614,6614,15.64,4.57,31,14,0,0
115963,84764053,0,6608,6485,15.51,4.71,31,14,0,0
116410,84877313,0,6487,6514,15.66,4.43,31,14,0,0
116856,84983522,0,6507,6442,15.79,4.17,32,14,0,0
117306,85099844,0,6405,6128,15.8,3.6,32,14,0,0
118159,85306429,0,6130,6242,15.73,4.05,32,14,0,0
118606,85416929,0,6243,6357,15.74,4.3,32,14,0,0
119057,85526969,0,6363,6485,15.72,4.84,32,15,0,0
119464,85636211,0,6489,6571,15.71,4.78,32,15,0,0
119910,85742847,0,6572,6642,15.68,4.96,32,15,0,0
120358,85856421,0,6641,6600,15.7,4.49,32,15,0,0
120808,85965825,0,6599,6585,15.64,5.25,32,15,0,0
121254,86078266,0,6590,6742,15.61,4.5,32,15,0,0
121701,86185482,0,6736,6285,15.57,4.02,32,15,0,0
122180,86302600,0,6286,6328,15.66,4.39,32,16,0,0
122633,86414482,0,6342,6457,15.66,4.6,32,16,0,0
123087,86525816,0,6452,6400,15.69,4.46,32,16,0,0
123485,86624447,0,6396,6328,15.65,4.1,32,16,0,0
123931,86731468,0,6323,6242,15.64,4.05,32,16,0,0
124386,86851273,0,6245,6271,15.66,3.74,32,16,0,0
124838,86964467,0,6247,6000,15.66,3.8,32,16,0,0
125242,87062009,0,6002,6057,15.63,3.79,32,16,0,0
125735,87184047,0,6067,6142,15.67,3.87,32,17,0,0
126137,87285831,0,6139,6114,15.69,3.87,32,17,0,0
126585,87399244,0,6116,6142,15.61,3.95,32,17,0,0
127028,87501833,0,6140,6114,15.67,3.61,32,17,0,0
127518,87624902,0,6100,5971,15.63,3.71,32,17,0,0
127923,87723055,0,5984,6157,15.64,3.93,32,17,0,0
128323,87823802,0,6153,6085,15.66,3.92,32,17,0,0
128776,87934576,0,6089,6157,15.62,4.12,32,17,0,0
129670,88150436,0,6160,6314,15.6,4.59,32,18,0,0
130602,88374303,0,6323,6585,15.58,4.72,32,18,0,0
131008,88476017,0,6579,6457,15.54,5.07,32,18,0,0
131461,88584770,0,6458,6514,15.58,5.06,32,18,0,0
131943,88700905,0,6523,6614,15.55,4.83,32,18,0,0
132349,88805460,0,6604,6514,15.64,4.87,32,19,0,0
132800,88915737,0,6520,6585,15.67,4.54,32,19,0,0
133246,89024170,0,6574,6457,15.67,4.18,32,19,0,0
133698,89134959,0,6427,6114,15.69,3.87,32,19,0,0
134134,89237885,0,6113,6100,15.67,4.09,32,19,0,0
134589,89352360,0,6096,6014,15.63,3.67,32,19,0,0
135028,89458207,0,6003,5800,15.62,3.29,32,19,0,0
135526,89576823,0,5786,5657,15.62,3.11,32,19,0,0
135926,89676221,0,5655,5585,15.72,3.1,32,19,0,0
136427,89801447,0,5579,5542,15.69,3.07,32,20,0,0
136831,89905176,0,5553,5700,15.64,3.22,32,20,0,0
137239,90010982,0,5697,5642,15.6,3.1,32,20,0,0
137685,90117817,0,5639,5600,15.66,3.34,32,20,0,0
138141,90230303,0,5605,5671,15.64,3.29,32,20,0,0
138595,90341450,0,5676,5757,15.7,3.61,32,20,0,0
138991,90441694,0,5759,5814,15.67,3.67,32,20,0,0
139440,90547221,0,5815,5857,15.57,4.26,32,20,0,0
139896,90661984,0,5884,6171,15.65,3.91,32,20,0,0
140380,90773186,0,6176,6242,15.65,4.28,32,21,0,0
140786,90875386,0,6246,6414,15.58,4.5,32,21,0,0
141241,90987812,0,6414,6428,15.58,4.65,32,21,0,0
141695,91104774,0,6409,6214,15.63,4,32,21,0,0
142142,91218153,0,6214,6214,15.6,4.16,32,21,0,0
142548,91317079,0,6214,6228,15.6,3.98,32,21,0,0
142959,91422303,0,6226,6171,15.6,3.95,32,21,0,0
143445,91533239,0,6171,6171,15.61,4.07,32,22,0,0
143893,91647707,0,6172,6200,15.64,3.92,32,22,0,0
144345,91755997,0,6192,6114,15.64,3.59,32,22,0,0
144795,91868781,0,6118,6185,15.54,4.31,32,22,0,0
145245,91977300,0,6184,6171,15.57,3.83,32,22,0,0
145695,92089462,0,6167,6128,15.62,3.86,33,22,0,0
146146,92197965,0,6121,6057,15.6,3.57,32,22,0,0
146589,92308792,0,6054,6028,15.53,3.87,32,22,0,0
146993,92410872,0,6034,6171,15.52,4.22,33,22,0,0
147448,92520208,0,6198,6585,15.49,4.89,33,22,0,0
147891,92628480,0,6573,6457,15.59,4.66,33,23,0,0
148296,92726847,0,6455,6428,15.57,4.63,33,23,0,0
148706,92833400,0,6433,6542,15.55,5.11,33,23,0,0
149199,92949254,0,6547,6642,15.51,5.1,33,23,0,0
149606,93054812,0,6645,6714,15.52,5.25,33,23,0,0
150100,93171231,0,6701,6557,15.52,4.86,33,23,0,0
150504,93273844,0,6550,6471,15.56,4.84,33,24,0,0
150953,93386313,0,6470,6457,15.52,4.35,33,24,0,0
151438,93506346,0,6447,6385,15.51,4.48,33,24,0,0
151847,93605517,0,6386,6428,15.52,4.65,33,24,0,0
152290,93715705,0,6421,6357,15.51,4.25,33,24,0,0
152692,93817597,0,6357,6371,15.55,4.3,33,24,0,0
154083,94155258,0,6362,6085,15.57,3.7,33,25,0,0
154529,94265919,0,6059,5800,15.56,3.62,33,25,0,0
154934,94364975,0,5802,5857,15.56,3.71,33,25,0,0
155388,94480418,0,5857,5857,15.57,3.5,33,25,0,0
155796,94582726,0,5859,5914,15.54,3.59,33,25,0,0
156245,94692458,0,5902,5742,15.58,3.47,33,25,0,0
156691,94807252,0,5757,5957,15.57,3.45,33,25,0,0
157149,94921298,0,5963,6028,15.52,3.71,33,25,0,0
157559,95019468,0,6034,6114,15.56,3.89,33,25,0,0
158004,95128022,0,6117,6200,15.51,3.56,33,26,0,0
158440,95238447,0,6192,6042,15.58,3.78,33,26,0,0
158892,95347910,0,6045,6114,15.55,3.99,33,26,0,0
159338,95458734,0,6127,6300,15.57,4.2,33,26,0,0
159786,95566520,0,6293,6200,15.55,4.02,33,26,0,0
160197,95674405,0,6189,6057,15.54,3.8,33,26,0,0
160646,95784486,0,6060,6100,15.61,3.81,33,26,0,0
161090,95891754,0,6096,6057,15.6,3.85,33,26,0,0
161503,95995917,0,6049,5971,15.58,3.79,33,27,0,0
161951,96104926,0,5973,6000,15.58,3.76,33,27,0,0
162842,96322045,0,6001,6085,15.64,3.72,33,27,0,0
163286,96428930,0,6083,6057,15.56,3.78,33,27,0,0
163775,96545457,0,6055,6042,15.55,3.78,33,27,0,0
164176,96644060,0,6041,6028,15.52,4.02,33,27,0,0
164629,96756849,0,6028,6042,15.63,3.91,33,27,0,0
165076,96867466,0,6047,6114,15.63,3.95,33,28,0,0
165532,96982854,0,6106,6057,15.58,4.03,33,28,0,0
165937,97081382,0,6056,6042,15.54,4.15,33,28,0,0
166387,97190723,0,6040,6014,15.63,4.04,33,28,0,0
166795,97295417,0,6016,6171,15.57,4.1,33,28,0,0
167283,97414758,0,6157,6014,15.52,4.11,33,28,0,0
167733,97521926,0,6027,6214,15.53,4.24,33,28,0,0
168180,97631398,0,6214,6228,15.56,4.34,33,28,0,0
168631,97742493,0,6232,6300,15.59,4.08,33,29,0,0
169037,97846773,0,6294,6171,15.62,4.21,33,29,0,0
169495,97957195,0,6173,6214,15.57,4.18,33,29,0,0
169943,98069480,0,6211,6185,15.6,4.19,33,29,0,0
170394,98177387,0,6188,6271,15.57,3.82,33,29,0,0
170838,98286208,0,6264,6171,15.55,4.02,33,29,0,0
171289,98400824,0,6154,6014,15.52,3.8,33,29,0,0
171697,98501205,0,6015,6042,15.56,3.7,33,29,0,0
172588,98721084,0,6043,6071,15.57,3.69,33,30,0,0
173031,98827006,0,6070,6057,15.53,4,33,30,0,0
173483,98936403,0,6065,6157,15.58,4.22,33,30,0,0
173920,99040426,0,6161,6271,15.61,4.33,33,30,0,0
174412,99156252,0,6268,6242,15.56,4.04,33,30,0,0
174857,99264174,0,6251,6342,15.57,4.62,33,30,0,0
175267,99365782,0,6329,6214,15.56,4.22,33,30,0,0
175673,99468043,0,6216,6271,15.49,4.01,33,30,0,0
176168,99588185,0,6253,6057,15.5,4.06,33,31,0,0
176608,99694706,0,6075,6314,15.46,4.25,33,31,0,0
177059,99802250,0,6305,6185,15.48,4.82,33,31,0,0
177505,99915967,0,6212,6471,15.53,5.02,34,31,0,0
177954,100023315,0,6455,6314,15.52,3.37,34,31,0,0
178395,100128700,0,6322,6442,15.48,5.78,33,31,0,0
178838,100245691,0,6479,6785,15.52,5.49,34,31,0,0
179291,100353542,0,6786,6800,15.55,5.08,34,32,0,0
179743,100465167,0,6774,6542,15.52,4.69,34,32,0,0
180149,100562486,0,6540,6514,15.57,4.24,34,32,0,0
180591,100675882,0,6504,6428,15.47,4.54,34,32,0,0
181040,100781471,0,6425,6271,15.52,4.29,34,32,0,0
181479,100883261,0,6269,6228,15.56,4.1,34,32,0,0
181929,100996870,0,6229,6314,15.56,4.35,34,32,0,0
182383,101114469,0,6317,6342,15.56,4.37,34,32,0,0
182826,101216335,0,6332,6242,15.58,4.1,34,33,0,0
183226,101319396,0,6239,6142,15.61,3.87,34,33,0,0
183676,101430034,0,6146,6257,15.52,4.3,34,33,0,0
184126,101542281,0,6252,6200,15.54,4.12,34,33,0,0
184542,101646437,0,6202,6285,15.59,4.22,34,33,0,0
185028,101765920,0,6280,6242,15.57,4.16,34,33,0,0
185436,101869286,0,6240,6228,15.59,4.09,34,33,0,0
185919,101979450,0,6228,6228,15.52,4.16,34,33,0,0
186328,102081745,0,6227,6214,15.57,4.28,34,34,0,0
186776,102195953,0,6215,6385,15.54,4.22,34,34,0,0
187300,102316020,0,6375,6314,15.55,4.21,34,34,0,0
187703,102413239,0,6314,6328,15.52,4.05,34,34,0,0
188198,102531766,0,6313,6128,15.59,3.85,34,34,0,0
188601,102635851,0,6136,6242,15.58,3.82,34,34,0,0
189050,102744429,0,6227,6028,15.58,3.42,34,34,0,0
189456,102848963,0,6028,6042,15.63,3.49,34,35,0,0
189909,102959306,0,6034,5942,15.61,3.55,34,35,0,0
190318,103063452,0,5937,5771,15.61,3.43,34,35,0,0
190768,103171071,0,5772,5842,15.56,3.56,34,35,0,0
191220,103286295,0,5844,5900,15.59,3.39,34,35,0,0
191718,103410464,0,5908,5957,15.56,3.48,34,35,0,0
192124,103509089,0,5953,5914,15.67,3.55,34,35,0,0
192572,103619794,0,5914,5914,15.55,3.75,34,35,0,0
192983,103721912,0,5915,6014,15.6,3.81,34,35,0,0
193468,103837447,0,6016,6057,15.63,3.78,34,35,0,0
193877,103939436,0,6058,6114,15.55,4.16,34,36,0,0
194324,104050074,0,6109,6014,15.61,3.71,34,36,0,0
194771,104157875,0,6016,6100,15.58,3.46,34,36,0,0
195675,104380200,0,6099,6057,15.58,3.92,34,36,0,0
196167,104500253,0,6077,6285,15.52,4.26,34,36,0,0
196572,104598451,0,6286,6300,15.52,4.35,34,36,0,0
196974,104700999,0,6302,6342,15.57,4.28,34,36,0,0
197426,104809311,0,6340,6314,15.55,4.24,34,37,0,0
197879,104924741,0,6302,6142,15.58,4.05,34,37,0,0
198283,105028090,0,6147,6271,15.44,4.41,34,37,0,0
198774,105144256,0,6273,6300,15.49,4.75,34,37,0,0
199177,105245309,0,6299,6285,15.5,4.24,34,37,0,0
199673,105364059,0,6296,6414,15.45,4.48,34,37,0,0
200118,105471598,0,6407,6342,15.46,4.18,34,37,0,0
200567,105579231,0,6344,6385,15.38,4.68,34,37,0,0
200972,105682693,0,6387,6500,15.44,4.83,34,38,0,0
201417,105789046,0,6501,6557,15.4,5.1,34,38,0,0
201864,105898589,0,6556,6500,15.44,4.93,34,38,0,0
202312,106010042,0,6491,6400,15.42,4.51,34,38,0,0
202762,106119791,0,6396,6357,15.45,4.55,34,38,0,0
203164,106219586,0,6356,6342,15.51,4.04,34,38,0,0
203649,106333913,0,6338,6257,15.49,4.47,34,38,0,0
204106,106453692,0,6271,6428,15.49,4.1,34,39,0,0
204556,106562282,0,6419,6328,15.44,4.33,34,39,0,0
204998,106668058,0,6326,6300,15.51,4.51,34,39,0,0
205449,106777235,0,6313,6500,15.45,4.15,34,39,0,0
205855,106882433,0,6488,6342,15.48,4.46,34,39,0,0
206305,106990839,0,6350,6471,15.46,4.21,34,39,0,0
206749,107099458,0,6472,6500,15.52,4.43,34,39,0,0
207193,107208965,0,6497,6314,15.5,4.3,34,40,0,0
207639,107314081,0,6310,6242,15.54,4.18,34,40,0,0
208086,107424420,0,6242,6271,15.55,4.12,34,40,0,0
208572,107544166,0,6272,6285,15.48,3.93,34,40,0,0
209015,107656030,0,6259,6085,15.52,3.68,34,40,0,0
209424,107749996,0,6088,6328,15.48,4.31,34,40,0,0
209874,107860033,0,6329,6428,15.47,4.56,34,40,0,0
210364,107976069,0,6427,6400,15.47,4.56,34,40,0,0
210808,108088315,0,6407,6471,15.47,4.73,34,40,0,0
211260,108207681,0,6487,6642,15.49,4.83,34,41,0,0
211670,108304223,0,6633,6485,15.44,4.99,34,41,0,0
212561,108521817,0,6487,6528,15.48,4.97,34,41,0,0
213455,108741959,0,6529,6571,15.54,4.78,34,41,0,0
213902,108851222,0,6585,6728,15.44,4.71,34,42,0,0
214312,108955078,0,6715,6557,15.48,5.03,34,42,0,0
214811,109077003,0,6567,6685,15.42,4.6,34,42,0,0
215214,109171685,0,6682,6628,15.35,4.69,34,42,0,0
215658,109281701,0,6623,6571,15.46,4.71,34,42,0,0
216113,109394391,0,6576,6657,15.48,4.51,34,42,0,0
216556,109500823,0,6644,6471,15.4,4.65,34,42,0,0
217004,109614421,0,6467,6428,15.45,4.58,34,43,0,0
217408,109710079,0,6430,6485,15.36,4.47,34,43,0,0
217851,109820869,0,6487,6542,15.42,4.56,34,43,0,0
218746,110041315,0,6538,6485,15.52,4.16,34,43,0,0
219155,110142959,0,6480,6385,15.51,4.01,34,43,0,0
219602,110255751,0,6390,6442,15.45,4.32,34,43,0,0
220052,110361271,0,6439,6385,15.5,4.19,34,43,0,0
220459,110466982,0,6380,6285,15.48,4.38,34,43,0,0
220947,110584210,0,6285,6285,15.56,3.98,34,44,0,0
221830,110798852,0,6297,6471,15.42,4.59,34,44,0,0
222238,110898707,0,6486,6685,15.38,5.26,34,44,0,0
222689,111013010,0,6685,6685,15.33,4.77,34,44,0,0
223141,111125046,0,6669,6514,15.38,4.8,34,44,0,0
223585,111232854,0,6530,6742,15.48,4.5,34,44,0,0
224032,111339162,0,6724,6400,15.53,4.1,35,45,0,0
224437,111440235,0,6401,6442,15.53,4.05,35,45,0,0
224928,111556973,0,6441,6428,15.48,4.3,35,45,0,0
225337,111663468,0,6428,6428,15.47,4.44,35,45,0,0
225784,111773015,0,6430,6457,15.57,3.32,35,45,0,0
226186,111872196,0,6447,6257,15.57,3.78,34,45,0,0
226678,111990753,0,6265,6357,15.55,4.32,34,45,0,0
227084,112089780,0,6355,6257,15.61,3.75,35,45,0,0
227561,112204982,0,6265,6357,15.67,3.78,35,46,0,0
228011,112312452,0,6346,6242,15.58,3.61,35,46,0,0
228408,112410460,0,6240,6185,15.58,3.76,35,46,0,0
228857,112518729,0,6187,6228,15.6,4.15,35,46,0,0
229260,112621409,0,6225,6028,15.6,3.86,35,46,0,0
229708,112729315,0,6031,6228,15.57,4.41,34,46,0,0
230184,112840430,0,6232,6314,15.66,4.12,35,46,0,0
230636,112951844,0,6308,6242,15.6,4.26,35,46,0,0
231085,113064769,0,6253,6371,15.49,4.03,35,46,0,0
231536,113173243,0,6360,6257,15.41,4.26,35,47,0,0
231935,113274828,0,6255,6242,15.44,4.39,35,47,0,0
232387,113385980,0,6254,6385,15.43,4.88,34,47,0,0
232789,113489271,0,6390,6500,15.42,4.6,35,47,0,0
233242,113602497,0,6517,6685,15.44,4.88,35,47,0,0
233642,113705507,0,6687,6714,15.47,4.73,35,47,0,0
234083,113813460,0,6710,6628,15.45,4.89,35,47,0,0
234532,113923837,0,6628,6642,15.46,4.62,35,48,0,0
234972,114031236,0,6640,6614,15.4,4.85,35,48,0,0
235380,114133246,0,6615,6657,15.51,4.55,35,48,0,0
235829,114246715,0,6641,6485,15.45,4.61,35,48,0,0
236317,114360441,0,6497,6628,15.41,4.95,35,48,0,0
236713,114454780,0,6630,6714,15.47,5.08,35,48,0,0
237201,114571038,0,6699,6500,15.48,4.32,35,48,0,0
237605,114676926,0,6503,6542,15.42,5.12,35,49,0,0
238058,114788987,0,6531,6428,15.44,4.6,35,49,0,0
238901,114998244,0,6429,6614,15.44,4.82,35,49,0,0
239347,115105855,0,6613,6585,15.42,4.79,35,49,0,0
240250,115329730,0,6583,6557,15.41,4.94,35,50,0,0
241140,115546812,0,6560,6657,15.5,4.82,35,50,0,0
241581,115655198,0,6638,6385,15.49,4.64,35,50,0,0
242028,115761452,0,6385,6385,15.48,4.36,35,50,0,0
242478,115874702,0,6386,6414,15.5,4.65,35,50,0,0
243805,116199726,0,6413,6400,15.48,4.7,35,51,0,0
244262,116311053,0,6405,6457,15.47,4.83,35,51,0,0
245103,116519163,0,6450,6271,15.45,4.76,35,51,0,0
245551,116629183,0,6283,6528,15.48,4.68,35,51,0,0
246003,116738044,0,6525,6471,15.49,5.07,35,51,0,0
246453,116850488,0,6469,6442,15.49,4.34,35,51,0,0
246898,116957219,0,6440,6385,15.48,4.1,35,52,0,0
247344,117068756,0,6368,6214,15.48,4.41,35,52,0,0
247790,117173936,0,6221,6300,15.45,4.15,35,52,0,0
248238,117286444,0,6289,6185,15.49,4.03,35,52,0,0
248676,117387869,0,6179,6071,15.46,3.57,35,52,0,0
249126,117501033,0,6072,6100,15.51,3.46,35,52,0,0
249572,117614251,0,6076,5828,15.5,2.79,35,52,0,0
250018,117720876,0,5796,5500,15.52,2.76,35,52,0,0
250419,117820168,0,5495,5242,15.57,2.63,35,52,0,0
250906,117933824,0,5241,5228,15.49,2.6,35,53,0,0
252200,118253301,0,5228,5285,15.51,2.82,35,53,0,0
252687,118369833,0,5296,5414,15.48,3.42,35,53,0,0
253132,118481288,0,5433,5728,15.47,3.83,35,53,0,0
253581,118589560,0,5743,5900,15.47,4.02,35,53,0,0
253977,118688033,0,5903,6114,15.46,4.31,35,53,0,0
254427,118802479,0,6138,6428,15.39,4.58,35,53,0,0
254872,118909447,0,6427,6414,15.4,4.7,35,53,0,0
255327,119028286,0,6428,6571,15.42,4.87,35,54,0,0
256177,119235819,0,6571,6585,15.39,4.5,35,54,0,0
257062,119449249,0,6582,6457,15.48,4.46,35,54,0,0
257511,119558218,0,6455,6342,15.41,4.45,35,54,0,0
258007,119686087,0,6339,6314,15.45,4.2,35,55,0,0
258413,119780164,0,6311,6200,15.47,4.17,35,55,0,0
258895,119901836,0,6212,6314,15.42,4.12,35,55,0,0
259342,120010946,0,6309,6271,15.45,4.13,35,55,0,0
259791,120123064,0,6264,6200,15.51,3.89,35,55,0,0
260199,120223938,0,6196,6128,15.44,3.86,35,55,0,0
260649,120336285,0,6120,6042,15.49,3.72,35,55,0,0
261045,120433250,0,6040,5942,15.47,3.38,35,55,0,0
261542,120553798,0,5934,5857,15.5,3.28,35,55,0,0
261980,120656939,0,5860,5928,15.53,3.38,35,55,0,0
262431,120765879,0,5915,5700,15.51,2.89,35,56,0,0
262880,120881475,0,5695,5657,15.5,2.82,35,56,0,0
263284,120980275,0,5652,5471,15.5,3.06,35,56,0,0
263729,121090773,0,5473,5600,15.48,3.22,35,56,0,0
264183,121202245,0,5610,5742,15.47,3.5,35,56,0,0
264624,121310716,0,5746,5814,15.53,3.8,35,56,0,0
265514,121530883,0,5821,6000,15.51,3.82,35,56,0,0
265958,121639801,0,6005,6071,15.46,3.81,35,56,0,0
266366,121737415,0,6070,6014,15.49,4.02,35,57,0,0
266819,121850224,0,6014,6028,15.45,3.85,35,57,0,0
267312,121970418,0,6026,6014,15.43,3.75,35,57,0,0
267712,122069243,0,6014,6042,15.41,4.1,35,57,0,0
268202,122185961,0,6048,6128,15.51,4.38,35,57,0,0
268607,122289008,0,6130,6300,15.5,4.38,35,57,0,0
269095,122408747,0,6324,6514,15.45,4.72,35,57,0,0
269540,122514948,0,6504,6371,15.42,4.35,35,57,0,0
269983,122625384,0,6377,6471,15.44,4.61,35,58,0,0
270439,122736829,0,6464,6400,15.42,4.62,35,58,0,0
270881,122845238,0,6397,6371,15.51,4.39,35,58,0,0
271327,122952183,0,6371,6371,15.49,4.58,35,58,0,0
271772,123062828,0,6357,6228,15.47,4.42,35,58,0,0
272218,123168944,0,6233,6300,15.45,4.13,35,58,0,0
272702,123284233,0,6288,6171,15.52,3.76,35,58,0,0
273109,123386162,0,6163,6000,15.47,3.82,35,59,0,0
273553,123496929,0,6009,6142,15.48,3.83,35,59,0,0
274042,123614319,0,6161,6285,15.49,4.03,35,59,0,0
274448,123713082,0,6279,6200,15.48,3.85,35,59,0,0
274894,123827091,0,6191,6071,15.5,3.94,35,59,0,0
275307,123932018,0,6068,6042,15.44,3.79,35,59,0,0
275714,124035980,0,6044,6100,15.47,4.19,35,59,0,0
276601,124254962,0,6104,6271,15.48,4.18,35,59,0,0
277046,124361719,0,6272,6328,15.41,4.55,35,60,0,0
277945,124584803,0,6324,6257,15.45,4.22,35,60,0,0
278345,124685486,0,6256,6228,15.42,4.15,35,60,0,0
278789,124797473,0,6233,6300,15.37,4.71,35,60,0,0
279234,124902988,0,6314,6457,15.39,4.49,35,60,0,0
279684,125012441,0,6455,6428,15.4,4.61,35,60,0,0
280132,125124738,0,6426,6414,15.38,4.68,35,61,0,0
280540,125229251,0,6414,6428,15.45,3.92,35,61,0,0
281423,125445716,0,6423,6314,15.49,4.23,35,61,0,0
281872,125554720,0,6313,6300,15.45,4.17,35,61,0,0
282318,125668015,0,6300,6300,15.44,4.1,35,61,0,0
282724,125767300,0,6296,6157,15.46,4.02,35,61,0,0
283172,125879979,0,6162,6242,15.38,4.22,36,61,0,0
283618,125989389,0,6243,6271,15.38,4.05,35,62,0,0
284070,126104293,0,6253,6057,15.47,4.1,35,62,0,0
284517,126212949,0,6067,6228,15.51,3.93,35,62,0,0
284965,126322830,0,6204,5985,15.55,3.48,35,62,0,0
285412,126432735,0,5992,6071,15.52,3.62,35,62,0,0
285857,126538379,0,6065,6014,15.5,3.84,35,62,0,0
286302,126649939,0,6026,6157,15.52,4.19,35,62,0,0
286751,126758722,0,6159,6185,15.42,4.38,35,62,0,0
287192,126866049,0,6197,6371,15.46,4.57,35,63,0,0
287643,126975747,0,6362,6271,15.5,4.6,35,63,0,0
288048,127079978,0,6273,6300,15.48,4.42,35,63,0,0
288497,127185189,0,6304,6485,15.46,4.76,35,63,0,0
288940,127296914,0,6482,6371,15.49,4.66,35,63,0,0
289390,127417072,0,6402,6671,15.52,4.56,35,63,0,0
289794,127513753,0,6664,6257,15.44,4.16,35,63,0,0
290274,127635301,0,6249,6185,15.48,4.22,35,63,0,0
290730,127739778,0,6189,6242,15.52,4.08,35,64,0,0
291173,127856435,0,6225,6042,15.5,3.58,35,64,0,0
291580,127953492,0,6045,6085,15.52,3.92,35,64,0,0
291985,128061514,0,6087,6114,15.53,3.61,35,64,0,0
292442,128172492,0,6115,6128,15.46,3.69,36,64,0,0
292880,128276719,0,6125,6100,15.38,3.96,36,64,0,0
293333,128393854,0,6103,6128,15.54,3.49,36,64,0,0
293775,128494417,0,6123,6085,15.44,3.55,36,64,0,0
294223,128605888,0,6100,6228,15.51,3.84,36,64,0,0
294624,128704244,0,6234,6342,15.51,4.06,36,65,0,0
295068,128816063,0,6340,6314,15.46,3.91,35,65,0,0
295516,128924721,0,6297,5957,15.5,3.73,36,65,0,0
295961,129035189,0,5967,6114,15.45,4.05,36,65,0,0
296412,129145772,0,6130,6300,15.53,3.92,36,65,0,0
296820,129246409,0,6299,6271,15.5,3.65,36,65,0,0
297309,129366045,0,6260,6142,15.5,3.72,36,65,0,0
297706,129463613,0,6150,6314,15.45,4.08,36,65,0,0
298601,129680346,0,6311,6157,15.49,3.82,35,66,0,0
299086,129801785,0,6154,6128,15.48,3.97,36,66,0,0
299493,129903808,0,6129,6228,15.52,3.92,36,66,0,0
299937,130014313,0,6237,6328,15.42,4.15,36,66,0,0
300383,130120287,0,6329,6442,15.42,4.45,36,66,0,0
300864,130232068,0,6433,6328,15.48,4.38,36,66,0,0
301724,130448050,0,6328,6328,15.57,4.32,35,66,0,0
302171,130556735,0,6324,6157,15.51,3.88,36,67,0,0
302618,130667081,0,6152,6028,15.44,3.85,36,67,0,0
303066,130776244,0,6028,6028,15.42,4.29,36,67,0,0
303466,130876482,0,6029,6085,15.46,3.85,36,67,0,0
303921,130990697,0,6089,6157,15.5,3.71,36,67,0,0
304365,131099908,0,6154,6114,15.44,4.29,36,67,0,0
304811,131208475,0,6116,6157,15.49,4.34,36,67,0,0
305256,131314767,0,6167,6300,15.49,3.79,36,68,0,0
305664,131420202,0,6301,6328,15.48,4.22,36,68,0,0
306109,131526285,0,6327,6314,15.5,3.81,36,68,0,0
306594,131643922,0,6311,6271,15.45,4.24,36,68,0,0
307001,131744024,0,6271,6271,15.45,4.06,36,68,0,0
307475,131855960,0,6269,6257,15.52,3.47,36,68,0,0
307883,131957047,0,6254,6171,15.47,4.11,36,68,0,0
308333,132072504,0,6169,6157,15.41,4.14,36,68,0,0
308781,132177708,0,6163,6300,15.39,4.25,36,68,0,0
309188,132284163,0,6299,6285,15.42,4.43,36,69,0,0
309641,132394273,0,6288,6371,15.38,4.67,36,69,0,0
310086,132503018,0,6379,6571,15.33,4.98,36,69,0,0
310539,132616827,0,6575,6642,15.32,4.84,36,69,0,0
310987,132724757,0,6648,6714,15.31,4.67,36,69,0,0
311390,132826740,0,6708,6514,15.37,4.52,36,69,0,0
311882,132945972,0,6507,6442,15.3,4.82,36,69,0,0
312325,133053959,0,6444,6471,15.38,4.93,36,70,0,0
312775,133161923,0,6479,6571,15.36,4.54,36,70,0,0
313179,133265943,0,6582,6742,15.41,4.54,36,70,0,0
313627,133374834,0,6734,6628,15.4,4.5,36,70,0,0
314067,133481945,0,6618,6414,15.39,4.21,36,70,0,0
314524,133596743,0,6439,6671,15.37,4.42,36,70,0,0
314967,133704082,0,6650,6442,15.31,4.19,36,70,0,0
315817,133915809,0,6449,6642,15.3,4.78,36,71,0,0
316267,134029276,0,6635,6571,15.41,4.74,36,71,0,0
316676,134130400,0,6580,6700,15.44,5.24,36,71,0,0
317121,134240996,0,6693,6600,15.46,4.53,36,71,0,0
317567,134345558,0,6593,6442,15.54,3.99,36,71,0,0
317970,134447819,0,6438,6242,15.44,3.89,36,71,0,0
318459,134565176,0,6236,6185,15.4,4.02,36,72,0,0
318905,134673413,0,6181,6128,15.35,3.78,36,72,0,0
319353,134780282,0,6144,6300,15.36,4.47,36,72,0,0
319792,134885302,0,6300,6314,15.43,4.13,36,72,0,0
320283,135008817,0,6311,6271,15.41,4.36,36,72,0,0
320690,135107356,0,6285,6471,15.45,4.21,36,72,0,0
321093,135210088,0,6467,6300,15.43,4.26,36,72,0,0
321586,135327459,0,6298,6285,15.47,4.14,36,72,0,0
321988,135430931,0,6286,6371,15.42,4.26,36,73,0,0
322438,135539484,0,6364,6214,15.41,3.93,36,73,0,0
322886,135651915,0,6220,6300,15.47,4.27,36,73,0,0
323334,135763744,0,6301,6314,15.36,4.05,36,73,0,0
323736,135860564,0,6317,6514,15.32,4.63,36,73,0,0
324227,135983383,0,6511,6485,15.36,4.66,36,73,0,0
324626,136083005,0,6493,6557,15.37,4.8,36,73,0,0
325078,136191168,0,6551,6500,15.41,4.48,36,73,0,0
326401,136514844,0,6502,6557,15.49,4.49,36,74,0,0
326883,136628283,0,6544,6442,15.38,4.34,36,74,0,0
327336,136740047,0,6442,6442,15.45,4.58,36,74,0,0
327774,136842483,0,6443,6500,15.37,4.61,36,74,0,0
328225,136956419,0,6512,6600,15.39,4.65,36,75,0,0
328624,137053272,0,6595,6442,15.33,4.61,36,75,0,0
329079,137166461,0,6449,6585,15.4,4.68,36,75,0,0
329517,137272880,0,6583,6571,15.42,4.59,36,75,0,0
329970,137383469,0,6551,6371,15.4,4.16,36,75,0,0
330410,137491442,0,6362,6285,15.41,4.32,36,75,0,0
330823,137594807,0,6293,6485,15.43,4.45,36,75,0,0
331268,137705290,0,6467,6242,15.47,4.13,36,75,0,0
331717,137819319,0,6255,6471,15.37,4.44,36,76,0,0
332124,137920084,0,6468,6342,15.39,4.34,36,76,0,0
332612,138038027,0,6353,6514,15.26,4.71,36,76,0,0
333020,138137789,0,6510,6328,15.42,4.64,36,76,0,0
333498,138251064,0,6333,6457,15.39,5.13,36,76,0,0
333946,138359087,0,6457,6500,15.4,4.78,36,76,0,0
334388,138467186,0,6495,6342,15.4,4.49,36,76,0,0
334839,138577246,0,6341,6328,15.31,4.68,36,77,0,0
335733,138804045,0,6330,6371,15.31,4.43,36,77,0,0
336138,138903696,0,6365,6257,15.33,4.12,36,77,0,0
336624,139019917,0,6251,6171,15.32,4.11,36,77,0,0
337075,139130048,0,6159,6042,15.35,3.67,36,77,0,0
337516,139238794,0,6043,6057,15.33,3.73,36,77,0,0
337920,139336814,0,6055,6014,15.39,3.51,36,77,0,0
338366,139450268,0,6001,5700,15.45,3.04,36,78,0,0
338813,139556938,0,5698,5657,15.47,3.11,36,78,0,0
339261,139669358,0,5650,5500,15.41,3.13,36,78,0,0
339706,139776470,0,5501,5585,15.48,3.23,36,78,0,0
340195,139895978,0,5596,5714,15.44,3.46,36,78,0,0
341042,140106022,0,5718,5914,15.35,3.55,36,78,0,0
341497,140220750,0,5918,5971,15.44,3.84,36,78,0,0
342425,140443757,0,5968,5900,15.46,3.53,36,78,0,0
342878,140555306,0,5906,5971,15.48,3.34,36,79,0,0
343323,140666172,0,5973,6000,15.45,3.53,36,79,0,0
343730,140767948,0,6001,6085,15.45,3.43,36,79,0,0
344170,140875765,0,6079,5814,15.41,2.99,36,79,0,0
344621,140991834,0,5827,5942,15.42,3.17,36,79,0,0
345069,141098160,0,5936,5885,15.46,3.34,36,79,0,0
345549,141211527,0,5909,6071,15.51,4.27,36,79,0,0
345993,141317391,0,5958,4457,15.83,0.65,36,79,0,0
346401,141425728,0,4457,4457,15.73,1.61,36,79,0,0
346850,141535184,0,4446,4328,15.61,1.73,36,79,0,0
347251,141635793,0,4323,4028,15.75,1.38,36,79,0,0
347700,141744230,0,4013,3657,15.84,0.45,36,79,0,0
348145,141855065,0,3617,3228,15.86,0.28,36,79,0,0
348552,141955997,0,3224,3014,15.86,0.4,36,79,0,0
349045,142075911,0,3002,2885,15.87,0.4,36,79,0,0
349492,142182492,0,2889,2942,15.84,0.55,36,79,0,0
349933,142291513,0,2942,2957,15.88,0.54,36,79,0,0
350339,142395554,0,2957,2957,15.86,0.54,36,79,0,0
350792,142506045,0,2956,2942,15.86,0.52,36,80,0,0
351682,142723263,0,2940,2900,15.88,0.5,36,80,0,0
352129,142833461,0,2901,2914,15.88,0.5,36,80,0,0
352574,142940759,0,2914,2928,15.88,0.51,36,80,0,0
353022,143047445,0,2925,2871,15.86,0.45,36,80,0,0
353516,143171315,0,2851,2685,15.93,0.39,36,80,0,0
353919,143264957,0,2678,2414,15.89,0.31,36,80,0,0
354370,143379005,0,2396,2242,15.9,0.28,36,80,0,0
354820,143492500,0,2234,2185,15.9,0.23,36,80,0,0
355230,143589867,0,2173,2028,15.98,0.07000000000000001,36,80,0,0
355711,143704293,0,1993,1614,15.95,0,36,80,0,0
356158,143810332,0,1594,1357,15.94,0.05,36,80,0,0
356603,143917804,0,1353,1314,15.94,0.09,36,80,0,0
357011,144020938,0,1313,1300,15.95,0.09999999,36,80,0,0
357500,144135481,0,1300,1300,15.95,0.09999999,36,80,0,0
358396,144351487,0,1299,1285,15.94,0.09999999,36,80,0,0
359286,144565419,0,1285,1285,15.95,0.09999999,36,80,0,0
359774,144684492,0,1285,1285,15.96,0.09999999,36,80,0,0
360225,144796271,0,1285,1285,15.96,0.09999999,36,80,0,0
360665,144896281,0,1286,1300,15.97,0.09999999,36,80,0,0
361115,145003444,0,1300,1300,15.97,0.09999999,36,80,0,0
361569,145117787,0,1300,1300,15.97,0.09999999,36,80,0,0
362017,145224471,0,1300,1300,15.97,0.09999999,36,80,0,0
362467,145331235,0,1298,1285,15.97,0.11,36,80,0,0
362914,145441400,0,1286,1300,15.97,0.09999999,35,80,0,0
363364,145548293,0,1300,1300,15.98,0.09999999,35,80,0,0
363808,145656775,0,1300,1300,15.98,0.09999999,35,80,0,0
364254,145761898,0,1300,1300,15.98,0.09999999,35,80,0,0
364704,145874883,0,1300,1300,15.98,0.09999999,35,80,0,0
365154,145982516,0,1299,1285,15.98,0.09999999,35,80,0,0
365595,146088839,0,1285,1285,15.98,0.11,35,80,0,0
366081,146204968,0,1286,1300,15.98,0.09999999,35,80,0,0
366525,146308203,0,1301,1314,15.99,0.09999999,35,80,0,0
366930,146410794,0,1313,1300,15.99,0.09999999,35,80,0,0
367379,146518290,0,1300,1300,15.99,0.09999999,35,80,0,0
367823,146627287,0,1300,1300,15.99,0.09999999,35,80,0,0
368272,146733765,0,1300,1300,15.99,0.09999999,35,80,0,0
368717,146844081,0,1300,1300,15.99,0.09999999,35,80,0,0
369125,146942952,0,1300,1300,16,0.09999999,35,80,0,0
369571,147047189,0,1300,1300,16,0.09999999,35,80,0,0
370019,147153835,0,1300,1300,16,0.09999999,35,80,0,0
370463,147263880,0,1300,1300,16,0.09999999,35,80,0,0
371395,147482947,0,1300,1300,16.01,0.09999999,35,80,0,0
371880,147598011,0,1300,1300,16.01,0.09999999,35,80,0,0
372326,147705764,0,1300,1300,16,0.09999999,35,80,0,0
373173,147912801,0,1300,1300,16.01,0.09999999,35,80,0,0
373654,148020297,0,1300,1314,16.01,0.09999999,35,80,0,0
374101,148128975,0,1313,1300,16,0.09999999,35,80,0,0
374551,148238207,0,1268,542,16.03,0.01,35,80,0,0
375045,148353449,0,495,0,16.02,0,35,80,0,0
375499,148462803,0,0,0,16.02,0.02,35,80,0,0
375948,148566760,0,0,0,16.03,0.03,35,80,0,0
376245,148676393,0,0,0,16.04,0.03,35,80,0,0
376697,148781228,0,0,0,16.04,0.03,35,80,0,0
377196,148899550,0,0,0,16.04,0.03,35,80,0,0
377652,149008464,0,0,0,16.04,0.03,35,80,0,0
378103,149113331,0,0,0,16.04,0.03,35,80,0,0
378551,149220081,0,0,0,16.04,0.03,35,80,0,0
379004,149327458,0,0,0,16.04,0.03,35,80,0,0
379456,149437489,0,0,0,16.04,0.03,35,80,0,0
379909,149541971,0,0,0,16.04,0.03,35,80,0,0
380359,149651244,0,0,0,16.04,0.03,35,80,0,0
380855,149768260,0,0,0,16.05,0.03,35,80,0,0
381299,149872469,0,0,0,16.04,0.03,35,80,0,0
381753,149982434,0,0,0,16.05,0.04,35,80,0,0
382172,150084116,0,0,0,16.05,0.03,35,80,0,0
382699,150201713,0,0,0,16.05,0.04,35,80,0,0
383154,150310487,0,0,0,16.05,0.03,35,80,0,0
383606,150419292,0,0,0,16.05,0.03,35,80,0,0
384059,150524235,0,0,0,16.05,0.03,35,80,0,0
384515,150636762,0,0,0,16.05,0.03,35,80,0,0
384967,150740219,0,0,0,16.05,0.04,35,80,0,0
385421,150850275,0,0,0,16.06,0.03,35,80,0,0
385873,150955198,0,0,0,16.06,0.03,35,80,0,0
386362,151068780,0,0,0,16.06,0.03,35,80,0,0
386815,151175080,0,0,0,16.06,0.03,35,80,0,0
387267,151284226,0,0,0,16.05,0.03,35,80,0,0
387759,151400863,0,0,0,16.06,0.03,35,80,0,0
388210,151505601,0,0,0,16.06,0.03,35,80,0,0
388668,151616882,0,0,0,16.07,0.03,35,80,0,0
389122,151724088,0,0,0,16.07,0.03,34,80,0,0
389577,151831857,0,0,0,16.07,0.03,34,80,0,0
390030,151935467,0,0,0,16.07,0.03,35,80,0,0
390485,152045017,0,0,0,16.07,0.03,35,80,0,0
390936,152148195,0,0,0,16.07,0.03,35,80,0,0
