LineNo,TimeUS,Instance,RPM,RawRPM,Volt,Curr,Temp,CTot,MotTemp,Err
1667,4.9474e+07,1,0,0,16.59,0.04,23,0,0,0
2126,4.9586e+07,1,0,0,16.59,0.04,23,0,0,0
2539,4.9691e+07,1,0,0,16.59,0.04,23,0,0,0
2996,4.9803e+07,1,0,0,16.59,0.04,23,0,0,0
3412,4.9908e+07,1,0,0,16.59,0.04,23,0,0,0
3830,5.0011e+07,1,0,0,16.59,0.04,23,0,0,0
4244,5.0115e+07,1,0,0,16.59,0.04,23,0,0,0
4695,5.0226e+07,1,0,0,16.59,0.04,23,0,0,0
5146,5.0338e+07,1,0,0,16.59,0.04,23,0,0,0
5557,5.0439e+07,1,0,0,16.59,0.04,23,0,0,0
6414,5.066e+07,1,0,0,16.59,0.04,23,0,0,0
6790,5.0757e+07,1,0,0,16.6,0.04,23,0,0,0
7248,5.0871e+07,1,0,0,16.59,0.04,23,0,0,0
7662,5.0972e+07,1,0,0,16.59,0.04,23,0,0,0
8077,5.1077e+07,1,0,0,16.59,0.04,23,0,0,0
8491,5.1183e+07,1,0,0,16.58,0.04,23,0,0,0
8942,5.1295e+07,1,0,0,16.59,0.04,23,0,0,0
9354,5.1399e+07,1,0,0,16.6,0.04,23,0,0,0
9747,5.1509e+07,1,0,0,16.59,0.04,23,0,0,0
10162,5.1613e+07,1,0,0,16.59,0.04,23,0,0,0
10573,5.1714e+07,1,0,0,16.59,0.04,23,0,0,0
10990,5.182e+07,1,0,0,16.59,0.04,23,0,0,0
11441,5.1932e+07,1,0,0,16.6,0.04,23,0,0,0
11892,5.2041e+07,1,0,0,16.59,0.04,23,0,0,0
12277,5.2143e+07,1,0,0,16.59,0.04,23,0,0,0
12726,5.2256e+07,1,0,0,16.6,0.04,23,0,0,0
13135,5.2358e+07,1,0,0,16.59,0.04,23,0,0,0
13557,5.2467e+07,1,0,0,16.59,0.04,23,0,0,0
14005,5.2583e+07,1,0,0,16.59,0.04,23,0,0,0
14420,5.2685e+07,1,0,0,16.59,0.05,23,0,0,0
14833,5.2791e+07,1,0,0,16.59,0.04,23,0,0,0
15251,5.2901e+07,1,0,0,16.6,0.03,23,0,0,0
15704,5.3014e+07,1,0,0,16.59,0.04,23,0,0,0
16111,5.3117e+07,1,0,0,16.59,0.04,23,0,0,0
16527,5.3221e+07,1,0,0,16.59,0.04,23,0,0,0
16945,5.3329e+07,1,0,0,16.59,0.04,23,0,0,0
17329,5.343e+07,1,0,0,16.6,0.04,23,0,0,0
17808,5.3548e+07,1,0,0,16.59,0.04,23,0,0,0
18223,5.3655e+07,1,0,0,16.6,0.03,23,0,0,0
18630,5.3757e+07,1,0,0,16.59,0.04,23,0,0,0
19043,5.3862e+07,1,0,0,16.6,0.03,23,0,0,0
19503,5.3977e+07,1,0,0,16.6,0.03,23,0,0,0
19919,5.4084e+07,1,0,0,16.59,0.04,23,0,0,0
20338,5.4189e+07,1,0,0,16.58,0.03,23,0,0,0
20750,5.4293e+07,1,0,0,16.59,0.04,23,0,0,0
21161,5.4399e+07,1,0,0,16.6,0.04,23,0,0,0
21577,5.4509e+07,1,0,0,16.59,0.04,23,0,0,0
21995,5.4619e+07,1,0,0,16.59,0.04,23,0,0,0
22405,5.4723e+07,1,0,0,16.59,0.04,23,0,0,0
22822,5.4826e+07,1,0,0,16.59,0.04,23,0,0,0
23274,5.4942e+07,1,0,0,16.6,0.04,23,0,0,0
23688,5.5044e+07,1,0,0,16.59,0.04,23,0,0,0
24138,5.5155e+07,1,0,0,16.59,0.04,23,0,0,0
24556,5.526e+07,1,0,0,16.6,0.04,23,0,0,0
24942,5.5363e+07,1,0,0,16.59,0.04,23,0,0,0
25392,5.5478e+07,1,0,0,16.59,0.04,23,0,0,0
25802,5.5583e+07,1,0,0,16.59,0.04,23,0,0,0
26217,5.569e+07,1,0,0,16.59,0.04,23,0,0,0
26631,5.5796e+07,1,0,0,16.59,0.04,23,0,0,0
27043,5.5899e+07,1,0,0,16.6,0.04,23,0,0,0
27498,5.601e+07,1,0,0,16.59,0.04,23,0,0,0
27909,5.6112e+07,1,0,0,16.59,0.04,23,0,0,0
28363,5.6226e+07,1,0,0,16.59,0.04,23,0,0,0
28774,5.6331e+07,1,0,0,16.59,0.03,23,0,0,0
29186,5.6436e+07,1,0,0,16.6,0.04,23,0,0,0
29599,5.6543e+07,1,0,0,16.59,0.04,23,0,0,0
30047,5.6655e+07,1,0,0,16.59,0.03,23,0,0,0
30420,5.6752e+07,1,0,0,16.59,0.04,23,0,0,0
30902,5.687e+07,1,0,0,16.59,0.04,23,0,0,0
31312,5.6974e+07,1,0,0,16.59,0.04,23,0,0,0
31724,5.7076e+07,1,0,0,16.59,0.04,23,0,0,0
32182,5.7194e+07,1,0,0,16.59,0.04,23,0,0,0
32558,5.729e+07,1,0,0,16.6,0.04,23,0,0,0
33005,5.7402e+07,1,0,0,16.59,0.04,23,0,0,0
33418,5.7507e+07,1,0,0,16.6,0.04,23,0,0,0
33833,5.7611e+07,1,0,0,16.6,0.04,23,0,0,0
34249,5.772e+07,1,0,0,16.6,0.04,23,0,0,0
34703,5.7833e+07,1,0,0,16.6,0.04,23,0,0,0
35116,5.7936e+07,1,0,0,16.6,0.04,23,0,0,0
35532,5.8045e+07,1,0,0,16.59,0.03,23,0,0,0
35983,5.8157e+07,1,0,0,16.59,0.03,23,0,0,0
36403,5.8262e+07,1,0,0,16.6,0.03,23,0,0,0
36856,5.8376e+07,1,0,0,16.59,0.04,23,0,0,0
37270,5.8483e+07,1,0,0,16.6,0.04,23,0,0,0
37680,5.8586e+07,1,0,0,16.59,0.04,23,0,0,0
38092,5.8691e+07,1,0,0,16.6,0.04,23,0,0,0
38515,5.8799e+07,1,0,0,16.59,0.04,23,0,0,0
38934,5.8907e+07,1,0,0,16.59,0.04,23,0,0,0
39772,5.9126e+07,1,0,0,16.59,0.04,23,0,0,0
40264,5.9245e+07,1,0,0,16.59,0.03,23,0,0,0
40676,5.9348e+07,1,0,0,16.6,0.04,23,0,0,0
41095,5.9453e+07,1,0,0,16.6,0.03,23,0,0,0
41544,5.9567e+07,1,0,0,16.6,0.04,23,0,0,0
41956,5.9668e+07,1,0,0,16.6,0.04,23,0,0,0
42371,5.9775e+07,1,0,0,16.6,0.04,23,0,0,0
42827,5.9889e+07,1,0,0,16.6,0.04,23,0,0,0
43213,5.9991e+07,1,0,0,16.6,0.04,23,0,0,0
44067,6.0204e+07,1,0,0,16.59,0.03,23,0,0,0
44488,6.0311e+07,1,0,0,16.6,0.03,23,0,0,0
44943,6.0423e+07,1,0,0,16.59,0.04,23,0,0,0
45358,6.053e+07,1,0,0,16.59,0.03,23,0,0,0
45805,6.064e+07,1,0,0,16.59,0.03,23,0,0,0
46215,6.0743e+07,1,0,0,16.6,0.03,23,0,0,0
46633,6.0852e+07,1,0,0,16.59,0.03,23,0,0,0
47040,6.0953e+07,1,0,0,16.6,0.04,23,0,0,0
47454,6.1059e+07,1,0,0,16.6,0.04,23,0,0,0
47904,6.1177e+07,1,0,0,16.6,0.03,23,0,0,0
48317,6.1282e+07,1,0,0,16.6,0.04,23,0,0,0
49191,6.1505e+07,1,0,0,16.6,0.04,23,0,0,0
49603,6.1607e+07,1,0,0,16.59,0.04,23,0,0,0
50016,6.1714e+07,1,0,0,16.59,0.04,23,0,0,0
50437,6.1817e+07,1,0,0,16.59,0.03,23,0,0,0
50849,6.1925e+07,1,0,0,16.6,0.03,23,0,0,0
51266,6.2033e+07,1,0,0,16.58,0.04,24,0,0,0
51677,6.2136e+07,1,0,0,16.58,0.04,24,0,0,0
52161,6.2254e+07,1,0,0,16.6,0.04,23,0,0,0
52572,6.2358e+07,1,0,0,16.59,0.03,23,0,0,0
52986,6.2464e+07,1,0,0,16.6,0.04,23,0,0,0
53443,6.2578e+07,1,0,0,16.59,0.04,23,0,0,0
53858,6.2682e+07,1,0,0,16.6,0.04,23,0,0,0
54275,6.2787e+07,1,0,0,16.6,0.04,23,0,0,0
54687,6.2893e+07,1,0,0,16.59,0.04,23,0,0,0
55144,6.3007e+07,1,0,0,16.6,0.04,23,0,0,0
55559,6.3113e+07,1,0,0,16.59,0.03,23,0,0,0
55973,6.3214e+07,1,0,0,16.6,0.04,23,0,0,0
56382,6.3319e+07,1,0,0,16.6,0.04,23,0,0,0
56834,6.3432e+07,1,0,0,16.6,0.03,23,0,0,0
57278,6.3545e+07,1,0,0,16.6,0.04,23,0,0,0
57665,6.365e+07,1,0,0,16.6,0.04,23,0,0,0
57914,7.0518e+07,1,0,0,16.59,0.04,24,0,0,0
58207,7.0591e+07,1,0,0,16.59,0.04,23,0,0,0
58658,7.0696e+07,1,0,0,16.6,0.04,23,0,0,0
59157,7.0813e+07,1,0,0,16.59,0.04,24,0,0,0
59567,7.0904e+07,1,0,0,16.58,0.03,24,0,0,0
60060,7.1017e+07,1,0,0,16.58,0.04,24,0,0,0
60513,7.112e+07,1,0,0,16.58,0.03,24,0,0,0
61011,7.1234e+07,1,0,0,16.59,0.04,23,0,0,0
62409,7.1555e+07,1,0,0,16.58,0.04,24,0,0,0
62860,7.166e+07,1,0,0,16.59,0.04,23,0,0,0
63360,7.1776e+07,1,0,0,16.59,0.04,24,0,0,0
63811,7.1882e+07,1,0,0,16.59,0.04,24,0,0,0
64267,7.1988e+07,1,0,0,16.58,0.04,24,0,0,0
64722,7.2096e+07,1,0,0,16.59,0.04,24,0,0,0
65178,7.2199e+07,1,0,0,16.59,0.04,24,0,0,0
65672,7.2315e+07,1,0,0,16.59,0.04,24,0,0,0
66577,7.2524e+07,1,0,0,16.58,0.04,24,0,0,0
67034,7.2633e+07,1,9,142,16.58,0.03,24,0,0,0
67531,7.2745e+07,1,177,571,16.57,0.08,23,0,0,0
67987,7.2855e+07,1,605,957,16.55,0.14,24,0,0,0
68441,7.2957e+07,1,974,1214,16.57,0.13,24,0,0,0
68894,7.3062e+07,1,1219,1357,16.54,0.17,24,0,0,0
69389,7.3175e+07,1,1380,1714,16.42,0.37,24,0,0,0
69842,7.3288e+07,1,1803,2757,16.49,1.33,24,0,0,0
70294,7.34e+07,1,2839,3485,16.41,1.52,24,0,0,0
70746,7.3504e+07,1,3519,3885,16.25,1.59,24,0,0,0
71200,7.3614e+07,1,3932,4442,16.21,2.22,24,0,0,0
71651,7.372e+07,1,4488,4928,16.05,2.64,24,0,0,0
72106,7.4048e+07,1,5904,5814,15.99,3.06,24,0,0,0
72563,7.4153e+07,1,5810,5757,15.88,2.83,24,0,0,0
73017,7.4265e+07,1,5747,5657,15.92,2.81,24,1,0,0
73467,7.437e+07,1,5648,5528,15.82,2.74,24,1,0,0
73921,7.448e+07,1,5523,5457,15.91,2.58,24,1,0,0
74375,7.4587e+07,1,5454,5271,15.88,2.35,24,1,0,0
74828,7.4698e+07,1,5260,5128,15.94,1.82,24,1,0,0
75277,7.4805e+07,1,5123,5071,15.93,1.88,24,1,0,0
75733,7.4915e+07,1,5054,4900,15.88,1.82,24,1,0,0
76185,7.5024e+07,1,4894,4842,15.86,1.41,24,1,0,0
76642,7.5131e+07,1,4786,4400,15.87,1.15,24,1,0,0
77549,7.5347e+07,1,4430,5028,15.77,2.83,24,1,0,0
78041,7.5463e+07,1,5089,5728,15.77,3.69,24,1,0,0
78497,7.5569e+07,1,5756,6042,15.67,3.91,24,1,0,0
78910,7.567e+07,1,6049,6200,15.77,3.67,24,1,0,0
79403,7.5789e+07,1,6197,6171,15.75,3.57,24,2,0,0
80260,7.6003e+07,1,6164,6042,15.76,3.23,24,2,0,0
80744,7.6111e+07,1,6039,6000,15.8,3.13,24,2,0,0
81144,7.6211e+07,1,5990,5842,15.82,3,24,2,0,0
81594,7.6322e+07,1,5824,5585,15.88,2.32,24,2,0,0
82036,7.6429e+07,1,5568,5242,15.86,1.94,24,2,0,0
82488,7.654e+07,1,5239,5200,15.91,2.25,24,2,0,0
82938,7.665e+07,1,5183,5000,15.91,1.7,24,2,0,0
83344,7.6749e+07,1,4997,4871,15.92,1.79,24,2,0,0
83831,7.687e+07,1,4862,4771,15.91,1.69,24,2,0,0
84279,7.6974e+07,1,4769,4742,15.89,1.82,24,2,0,0
84687,7.7079e+07,1,4760,5028,15.77,2.26,24,2,0,0
85579,7.7296e+07,1,5030,5114,15.76,2.42,24,3,0,0
85988,7.7403e+07,1,5111,5071,15.86,1.83,24,3,0,0
86436,7.7511e+07,1,5067,4900,15.98,1.86,24,3,0,0
87372,7.7732e+07,1,4884,4557,15.96,1.28,24,3,0,0
87811,7.7836e+07,1,4541,4200,16.04,0.82,24,3,0,0
88304,7.7953e+07,1,4189,4085,16.04,0.97,25,3,0,0
88718,7.8058e+07,1,4077,3914,16.07,1.39,25,3,0,0
89123,7.816e+07,1,3912,3828,16.06,1.7,24,3,0,0
89610,7.8278e+07,1,3831,3914,16.01,1.7,25,3,0,0
90062,7.8393e+07,1,3943,4128,15.99,1.51,25,3,0,0
90464,7.8488e+07,1,4129,4242,16,1.37,24,3,0,0
90961,7.8609e+07,1,4230,4142,16.03,0.92,25,3,0,0
91360,7.8708e+07,1,4140,4114,16,1.66,24,3,0,0
91811,7.8822e+07,1,4119,4171,15.95,1.25,25,3,0,0
92667,7.9037e+07,1,4172,4257,15.95,1.13,25,3,0,0
93120,7.9145e+07,1,4267,4414,15.93,1.34,25,3,0,0
93562,7.9253e+07,1,4412,4342,15.97,1.12,25,3,0,0
94011,7.9363e+07,1,4329,4185,16.01,1.01,25,3,0,0
94450,7.947e+07,1,4176,4071,15.97,1.05,25,3,0,0
94856,7.9569e+07,1,4071,4114,15.89,1.66,25,3,0,0
95341,7.9686e+07,1,4127,4328,15.88,1.61,25,4,0,0
95745,7.9785e+07,1,4330,4457,15.93,1.29,25,4,0,0
96237,7.9906e+07,1,4445,4328,15.91,1.25,25,4,0,0
97133,8.0123e+07,1,4329,4357,15.92,1.23,25,4,0,0
97580,8.0237e+07,1,4345,4228,15.92,1.23,25,4,0,0
97984,8.0332e+07,1,4228,4271,15.91,1.31,25,4,0,0
98431,8.0446e+07,1,4273,4300,15.92,1.4,25,4,0,0
98882,8.0556e+07,1,4305,4357,15.88,1.5,25,4,0,0
99278,8.0655e+07,1,4359,4457,15.88,1.43,25,4,0,0
99730,8.0767e+07,1,4454,4400,15.89,1.38,25,4,0,0
1.0018e+05,8.0878e+07,1,4402,4457,15.85,1.24,25,4,0,0
1.0063e+05,8.0994e+07,1,4441,4300,15.95,1.17,25,4,0,0
1.0104e+05,8.1099e+07,1,4313,4514,15.84,1.7,25,4,0,0
1.0149e+05,8.1213e+07,1,4533,4771,15.89,1.77,25,4,0,0
1.0194e+05,8.1319e+07,1,4768,4742,15.89,1.49,25,4,0,0
1.0233e+05,8.1418e+07,1,4738,4585,15.9,1.33,25,4,0,0
1.0279e+05,8.1529e+07,1,4585,4585,15.89,1.69,25,4,0,0
1.0323e+05,8.1641e+07,1,4589,4642,15.96,1.36,25,4,0,0
1.0368e+05,8.1747e+07,1,4637,4542,15.91,1.46,25,4,0,0
1.0409e+05,8.1854e+07,1,4538,4471,15.96,1.41,25,4,0,0
1.0454e+05,8.196e+07,1,4471,4514,15.97,1.63,25,4,0,0
1.0499e+05,8.2076e+07,1,4532,4714,15.89,1.94,25,4,0,0
1.0544e+05,8.2186e+07,1,4734,4942,15.79,2.01,25,5,0,0
1.0584e+05,8.2288e+07,1,4951,5071,15.82,2.11,25,5,0,0
1.0629e+05,8.2395e+07,1,5063,4900,15.82,1.79,25,5,0,0
1.0674e+05,8.2505e+07,1,4900,4914,15.82,1.62,25,5,0,0
1.0719e+05,8.2621e+07,1,4898,4742,15.81,1.54,25,5,0,0
1.0764e+05,8.2733e+07,1,4745,4800,15.78,1.63,25,5,0,0
1.0805e+05,8.2839e+07,1,4788,4671,15.79,1.67,25,5,0,0
1.0853e+05,8.2947e+07,1,4669,4642,15.8,1.44,25,5,0,0
1.0899e+05,8.3059e+07,1,4643,4657,15.77,1.53,25,5,0,0
1.0944e+05,8.3171e+07,1,4648,4571,15.78,1.48,25,5,0,0
1.0988e+05,8.3279e+07,1,4569,4557,15.75,1.46,25,5,0,0
1.1033e+05,8.3389e+07,1,4549,4457,15.82,1.35,25,5,0,0
1.1077e+05,8.3499e+07,1,4468,4614,15.82,1.68,25,5,0,0
1.1118e+05,8.36e+07,1,4613,4585,15.75,1.62,25,5,0,0
1.1167e+05,8.3717e+07,1,4592,4671,15.74,1.58,25,5,0,0
1.1207e+05,8.3818e+07,1,4671,4671,15.76,1.91,25,5,0,0
1.1252e+05,8.3927e+07,1,4681,4871,15.67,2.22,25,5,0,0
1.1297e+05,8.4035e+07,1,4856,4714,15.77,1.13,25,5,0,0
1.1341e+05,8.4143e+07,1,4706,4242,15.89,0.93,25,5,0,0
1.1382e+05,8.4249e+07,1,4215,3914,15.82,1.08,25,5,0,0
1.1431e+05,8.4365e+07,1,3922,4014,15.83,1.86,25,5,0,0
1.1475e+05,8.4471e+07,1,4043,4214,15.79,2.14,25,6,0,0
1.1516e+05,8.4568e+07,1,4216,4385,15.76,1.62,25,6,0,0
1.1605e+05,8.479e+07,1,4390,4500,15.81,1.73,25,6,0,0
1.1649e+05,8.49e+07,1,4509,4600,15.93,0.94,25,6,0,0
1.169e+05,8.5e+07,1,4587,4057,15.97,0.97,25,6,0,0
1.1735e+05,8.5112e+07,1,4058,4071,15.97,1.17,25,6,0,0
1.1824e+05,8.5329e+07,1,4061,3571,15.95,0.94,25,6,0,0
1.1869e+05,8.5443e+07,1,3597,3857,15.79,1.68,25,6,0,0
1.1915e+05,8.5555e+07,1,3839,3700,15.88,1.05,25,6,0,0
1.1951e+05,8.5647e+07,1,3700,3714,15.85,1.21,25,6,0,0
1.2e+05,8.5768e+07,1,3729,3885,15.83,1.29,25,6,0,0
1.2044e+05,8.5881e+07,1,3905,4128,15.91,1.78,25,6,0,0
1.2085e+05,8.5981e+07,1,4127,4085,15.79,1.61,25,6,0,0
1.2134e+05,8.61e+07,1,4124,4471,15.84,2.55,25,6,0,0
1.2182e+05,8.6215e+07,1,4498,4857,15.83,2.14,25,6,0,0
1.2222e+05,8.6313e+07,1,4860,4928,15.81,1.64,25,6,0,0
1.2268e+05,8.6425e+07,1,4916,4685,15.82,1.44,25,6,0,0
1.2313e+05,8.6537e+07,1,4670,4471,15.85,1.31,25,6,0,0
1.2357e+05,8.6646e+07,1,4473,4514,15.87,1.24,25,6,0,0
1.2402e+05,8.6753e+07,1,4511,4457,15.86,1.49,25,6,0,0
1.2443e+05,8.6863e+07,1,4468,4700,15.82,1.93,25,6,0,0
1.2488e+05,8.6975e+07,1,4707,4885,15.82,1.8,25,7,0,0
1.2533e+05,8.7084e+07,1,4880,4828,15.85,1.62,25,7,0,0
1.2577e+05,8.7196e+07,1,4831,4857,15.86,1.94,25,7,0,0
1.2623e+05,8.7306e+07,1,4855,4842,15.83,1.82,25,7,0,0
1.2663e+05,8.7409e+07,1,4842,4842,15.88,1.4,25,7,0,0
1.2712e+05,8.7523e+07,1,4838,4785,15.8,1.65,25,7,0,0
1.2756e+05,8.7635e+07,1,4792,4871,15.84,1.75,25,7,0,0
1.2797e+05,8.7736e+07,1,4868,4842,15.85,1.65,25,7,0,0
1.2841e+05,8.7845e+07,1,4837,4785,15.84,1.59,25,7,0,0
1.2887e+05,8.7956e+07,1,4788,4828,15.85,1.51,25,7,0,0
1.2931e+05,8.8064e+07,1,4813,4614,15.82,1.25,25,7,0,0
1.2976e+05,8.8171e+07,1,4621,4714,15.75,1.5,25,7,0,0
1.302e+05,8.828e+07,1,4708,4585,15.77,1.4,25,7,0,0
1.3065e+05,8.8385e+07,1,4583,4542,15.77,1.43,25,7,0,0
1.311e+05,8.8498e+07,1,4544,4571,15.81,1.57,25,7,0,0
1.3155e+05,8.861e+07,1,4549,4371,15.77,1.24,25,7,0,0
1.3199e+05,8.8711e+07,1,4374,4457,15.76,1.49,25,7,0,0
1.324e+05,8.8816e+07,1,4456,4414,15.8,1.17,25,7,0,0
1.3284e+05,8.8926e+07,1,4411,4300,15.85,1.25,25,7,0,0
1.3334e+05,8.9045e+07,1,4313,4442,15.73,1.38,25,7,0,0
1.3374e+05,8.9146e+07,1,4445,4600,15.83,1.83,25,7,0,0
1.3423e+05,8.9261e+07,1,4612,4785,15.8,1.82,25,8,0,0
1.3468e+05,8.9373e+07,1,4807,5042,15.8,2,25,8,0,0
1.3512e+05,8.9478e+07,1,5049,5214,15.82,2.11,25,8,0,0
1.3558e+05,8.9587e+07,1,5215,5257,15.85,2.37,25,8,0,0
1.3602e+05,8.9696e+07,1,5260,5342,15.87,2.08,25,8,0,0
1.3647e+05,8.9812e+07,1,5342,5357,15.76,2.12,25,8,0,0
1.3692e+05,8.9926e+07,1,5368,5485,15.82,2.1,25,8,0,0
1.3778e+05,9.0137e+07,1,5483,5428,15.8,1.9,25,8,0,0
1.3819e+05,9.0243e+07,1,5422,5328,15.85,1.62,25,8,0,0
1.3868e+05,9.0362e+07,1,5315,5185,15.85,1.58,25,8,0,0
1.3908e+05,9.0462e+07,1,5183,5157,15.8,1.72,25,8,0,0
1.3954e+05,9.057e+07,1,5146,5000,15.79,1.46,25,8,0,0
1.3994e+05,9.0672e+07,1,4998,4900,15.83,1.37,25,8,0,0
1.4047e+05,9.0795e+07,1,4880,4685,15.82,1.21,25,8,0,0
1.4088e+05,9.0896e+07,1,4681,4614,15.83,1.35,25,8,0,0
1.4133e+05,9.1009e+07,1,4620,4771,15.83,1.32,25,8,0,0
1.4178e+05,9.1127e+07,1,4760,4657,15.81,1.44,25,8,0,0
1.4219e+05,9.1228e+07,1,4655,4628,15.86,1.41,25,9,0,0
1.4264e+05,9.1338e+07,1,4632,4700,15.83,1.22,25,9,0,0
1.4305e+05,9.1443e+07,1,4697,4628,15.81,1.54,25,9,0,0
1.4353e+05,9.1555e+07,1,4641,4828,15.86,1.78,25,9,0,0
1.4394e+05,9.1658e+07,1,4827,4785,15.83,1.36,25,9,0,0
1.4439e+05,9.1767e+07,1,4783,4714,15.77,1.63,25,9,0,0
1.4488e+05,9.1889e+07,1,4737,5000,15.8,1.91,25,9,0,0
1.4533e+05,9.2005e+07,1,5017,5157,15.78,2.34,25,9,0,0
1.4574e+05,9.2103e+07,1,5165,5271,15.77,1.87,25,9,0,0
1.4663e+05,9.232e+07,1,5271,5300,15.69,2.29,25,9,0,0
1.4704e+05,9.2429e+07,1,5299,5271,15.67,2.17,25,9,0,0
1.4753e+05,9.2543e+07,1,5242,4957,15.75,1.45,25,9,0,0
1.4793e+05,9.2641e+07,1,4952,4728,15.79,1.47,25,9,0,0
1.4838e+05,9.2752e+07,1,4717,4600,15.72,1.51,25,9,0,0
1.4879e+05,9.2856e+07,1,4583,4257,15.78,1.12,25,9,0,0
1.4928e+05,9.2976e+07,1,4251,4214,15.66,1.48,25,9,0,0
1.4974e+05,9.309e+07,1,4205,4142,15.7,1.11,25,9,0,0
1.5018e+05,9.3195e+07,1,4160,4314,15.72,1.56,25,9,0,0
1.5059e+05,9.3297e+07,1,4316,4342,15.69,1.73,25,9,0,0
1.51e+05,9.3398e+07,1,4345,4571,15.73,1.96,25,10,0,0
1.5148e+05,9.3517e+07,1,4584,4771,15.7,1.9,25,10,0,0
1.5193e+05,9.3629e+07,1,4762,4642,15.75,1.6,25,10,0,0
1.5238e+05,9.3739e+07,1,4653,4742,15.72,1.95,25,10,0,0
1.5278e+05,9.3838e+07,1,4738,4657,15.73,1.74,25,10,0,0
1.5328e+05,9.3956e+07,1,4661,4714,15.75,1.73,25,10,0,0
1.5368e+05,9.406e+07,1,4714,4714,15.74,1.95,25,10,0,0
1.5417e+05,9.4177e+07,1,4736,4957,15.76,2.24,25,10,0,0
1.5458e+05,9.4277e+07,1,4962,5057,15.79,1.91,25,10,0,0
1.5502e+05,9.4386e+07,1,5050,4928,15.81,1.82,25,10,0,0
1.5544e+05,9.4493e+07,1,4936,5100,15.76,2.2,25,10,0,0
1.5588e+05,9.4605e+07,1,5092,5000,15.79,2.19,25,10,0,0
1.5633e+05,9.4715e+07,1,5012,5128,15.73,2.38,25,10,0,0
1.5674e+05,9.482e+07,1,5133,5242,15.73,2.38,25,10,0,0
1.572e+05,9.4931e+07,1,5242,5242,15.76,2.08,25,10,0,0
1.5853e+05,9.526e+07,1,5239,5128,15.69,1.73,25,11,0,0
1.5898e+05,9.5369e+07,1,5117,4971,15.79,1.85,25,11,0,0
1.5943e+05,9.5479e+07,1,4955,4800,15.77,1.4,25,11,0,0
1.5988e+05,9.5592e+07,1,4779,4642,15.77,1.47,25,11,0,0
1.6029e+05,9.5696e+07,1,4651,4742,15.73,1.88,26,11,0,0
1.6069e+05,9.5795e+07,1,4743,4800,15.79,1.86,26,11,0,0
1.6114e+05,9.5905e+07,1,4804,4900,15.79,1.96,25,11,0,0
1.6159e+05,9.6017e+07,1,4904,4971,15.76,1.76,25,11,0,0
1.6204e+05,9.6126e+07,1,4968,4942,15.79,1.74,25,11,0,0
1.6244e+05,9.6225e+07,1,4941,4900,15.8,1.6,25,11,0,0
1.6293e+05,9.6343e+07,1,4894,4842,15.8,1.72,26,11,0,0
1.6338e+05,9.6449e+07,1,4843,4871,15.77,1.71,25,11,0,0
1.6383e+05,9.6558e+07,1,4871,4885,15.79,1.81,26,11,0,0
1.6427e+05,9.6665e+07,1,4890,4971,15.75,1.69,25,11,0,0
1.6513e+05,9.688e+07,1,4966,4771,15.78,1.59,26,11,0,0
1.6603e+05,9.7103e+07,1,4772,4800,15.77,1.45,26,11,0,0
1.6648e+05,9.7218e+07,1,4800,4800,15.75,1.61,26,11,0,0
1.6689e+05,9.7317e+07,1,4799,4742,15.77,1.64,25,12,0,0
1.6738e+05,9.7436e+07,1,4741,4728,15.75,1.58,26,12,0,0
1.6782e+05,9.7543e+07,1,4728,4742,15.79,1.57,26,12,0,0
1.6827e+05,9.7653e+07,1,4738,4685,15.67,1.48,25,12,0,0
1.6872e+05,9.7762e+07,1,4686,4714,15.73,1.66,25,12,0,0
1.6913e+05,9.7867e+07,1,4708,4628,15.75,1.48,25,12,0,0
1.6958e+05,9.7978e+07,1,4634,4700,15.79,1.72,25,12,0,0
1.7003e+05,9.8089e+07,1,4698,4685,15.79,1.71,25,12,0,0
1.7093e+05,9.8307e+07,1,4692,4928,15.77,1.93,26,12,0,0
1.7133e+05,9.8411e+07,1,4931,4971,15.74,2.06,26,12,0,0
1.7179e+05,9.8523e+07,1,4981,5128,15.72,2.16,26,12,0,0
1.7219e+05,9.8622e+07,1,5126,5028,15.69,1.97,25,12,0,0
1.7263e+05,9.8731e+07,1,5030,5100,15.73,2.18,26,12,0,0
1.7312e+05,9.8852e+07,1,5089,5014,15.75,2.04,26,12,0,0
1.7357e+05,9.8956e+07,1,5004,4900,15.79,1.53,26,12,0,0
1.7401e+05,9.9061e+07,1,4888,4714,15.76,1.36,26,12,0,0
1.7446e+05,9.9174e+07,1,4715,4728,15.71,1.66,26,12,0,0
1.749e+05,9.9278e+07,1,4721,4642,15.76,1.27,26,12,0,0
1.7535e+05,9.9389e+07,1,4619,4442,15.77,1.17,26,13,0,0
1.7576e+05,9.9492e+07,1,4460,4685,15.75,2.12,26,13,0,0
1.7624e+05,9.9612e+07,1,4713,4957,15.73,2.13,26,13,0,0
1.7669e+05,9.9717e+07,1,4964,5028,15.66,2.09,26,13,0,0
1.7714e+05,9.9829e+07,1,5013,4885,15.67,1.73,26,13,0,0
1.7755e+05,9.9927e+07,1,4884,4828,15.66,1.44,25,13,0,0
1.7803e+05,1.0004e+08,1,4865,5185,15.67,3.09,26,13,0,0
1.7848e+05,1.0016e+08,1,5080,4285,15.73,0.75,26,13,0,0
1.7978e+05,1.0048e+08,1,4273,3942,15.73,1.49,26,13,0,0
1.8023e+05,1.0058e+08,1,3954,4142,15.76,1.59,26,13,0,0
1.8064e+05,1.0069e+08,1,4146,4342,15.77,1.6,26,13,0,0
1.8112e+05,1.008e+08,1,4347,4400,15.73,1.61,26,13,0,0
1.8157e+05,1.0091e+08,1,4408,4471,15.76,1.54,26,13,0,0
1.8202e+05,1.0102e+08,1,4483,4600,15.76,1.37,26,13,0,0
1.8291e+05,1.0124e+08,1,4589,4385,15.7,1.61,26,13,0,0
1.8332e+05,1.0134e+08,1,4391,4514,15.74,1.46,26,13,0,0
1.8377e+05,1.0145e+08,1,4512,4485,15.76,1.34,26,13,0,0
1.8422e+05,1.0157e+08,1,4475,4400,15.79,1.21,26,13,0,0
1.8463e+05,1.0167e+08,1,4403,4442,15.78,1.5,26,13,0,0
1.8512e+05,1.0179e+08,1,4443,4457,15.75,1.35,26,14,0,0
1.8548e+05,1.0188e+08,1,4458,4542,15.76,1.55,26,14,0,0
1.8597e+05,1.02e+08,1,4543,4557,15.72,1.61,26,14,0,0
1.8642e+05,1.021e+08,1,4561,4657,15.76,1.5,26,14,0,0
1.8686e+05,1.0222e+08,1,4650,4585,15.73,1.54,26,14,0,0
1.8734e+05,1.0233e+08,1,4587,4642,15.74,1.62,26,14,0,0
1.878e+05,1.0244e+08,1,4644,4685,15.74,1.52,26,14,0,0
1.8824e+05,1.0254e+08,1,4687,4742,15.7,1.59,26,14,0,0
1.8865e+05,1.0265e+08,1,4739,4657,15.77,1.57,26,14,0,0
1.8914e+05,1.0277e+08,1,4660,4700,15.79,1.73,26,14,0,0
1.8955e+05,1.0287e+08,1,4697,4657,15.8,1.6,26,14,0,0
1.9e+05,1.0298e+08,1,4644,4485,15.8,1.2,26,14,0,0
1.9041e+05,1.0309e+08,1,4493,4600,15.82,1.35,26,14,0,0
1.9086e+05,1.0319e+08,1,4594,4471,15.83,1.42,26,14,0,0
1.9131e+05,1.0331e+08,1,4476,4600,15.76,1.7,26,14,0,0
1.9172e+05,1.0341e+08,1,4600,4614,15.83,1.39,26,14,0,0
1.9222e+05,1.0353e+08,1,4610,4557,15.83,1.4,26,14,0,0
1.9262e+05,1.0363e+08,1,4555,4500,15.76,1.48,26,14,0,0
1.9308e+05,1.0374e+08,1,4501,4528,15.77,1.43,26,14,0,0
1.9352e+05,1.0385e+08,1,4530,4628,15.8,1.63,26,14,0,0
1.9397e+05,1.0396e+08,1,4627,4614,15.77,1.2,26,14,0,0
1.9442e+05,1.0407e+08,1,4601,4428,15.82,1.38,26,14,0,0
1.9486e+05,1.0418e+08,1,4434,4571,15.72,1.66,26,15,0,0
1.9532e+05,1.0429e+08,1,4596,4842,15.71,2.14,26,15,0,0
1.9577e+05,1.044e+08,1,4837,4785,15.77,1.48,26,15,0,0
1.9621e+05,1.0451e+08,1,4772,4600,15.71,1.75,26,15,0,0
1.9662e+05,1.0461e+08,1,4608,4800,15.71,1.67,26,15,0,0
1.9707e+05,1.0472e+08,1,4793,4657,15.76,1.54,26,15,0,0
1.9752e+05,1.0483e+08,1,4655,4642,15.76,1.5,26,15,0,0
1.9797e+05,1.0495e+08,1,4654,4785,15.75,1.95,26,15,0,0
1.9837e+05,1.0505e+08,1,4789,4900,15.65,2.18,26,15,0,0
1.9882e+05,1.0515e+08,1,4902,5114,15.64,1.91,26,15,0,0
1.9927e+05,1.0527e+08,1,5112,5028,15.59,2,26,15,0,0
1.9972e+05,1.0537e+08,1,5030,5142,15.67,2.05,26,15,0,0
2.0021e+05,1.0549e+08,1,5146,5200,15.64,2.11,26,15,0,0
2.0066e+05,1.056e+08,1,5203,5242,15.6,2.11,26,15,0,0
2.0106e+05,1.057e+08,1,5240,5200,15.63,2.14,26,15,0,0
2.0146e+05,1.058e+08,1,5197,5014,15.63,1.91,26,15,0,0
2.0195e+05,1.0592e+08,1,5010,4971,15.6,2.03,26,15,0,0
2.024e+05,1.0603e+08,1,4977,5057,15.64,2.1,26,15,0,0
2.0285e+05,1.0615e+08,1,5055,5042,15.63,2,26,16,0,0
2.0325e+05,1.0624e+08,1,5042,5071,15.66,2.17,26,16,0,0
2.0374e+05,1.0636e+08,1,5064,4985,15.7,1.74,26,16,0,0
2.0415e+05,1.0646e+08,1,4984,4971,15.73,1.98,26,16,0,0
2.046e+05,1.0657e+08,1,4967,4800,15.67,1.69,26,16,0,0
2.0508e+05,1.0669e+08,1,4797,4771,15.61,1.66,26,16,0,0
2.0553e+05,1.068e+08,1,4772,4785,15.62,1.66,26,16,0,0
2.0594e+05,1.069e+08,1,4778,4685,15.69,1.66,26,16,0,0
2.0639e+05,1.0701e+08,1,4693,4814,15.69,1.95,26,16,0,0
2.0724e+05,1.0722e+08,1,4813,4685,15.7,1.54,26,16,0,0
2.0772e+05,1.0734e+08,1,4688,4714,15.76,1.66,26,16,0,0
2.0818e+05,1.0745e+08,1,4712,4700,15.72,1.47,26,16,0,0
2.0862e+05,1.0755e+08,1,4693,4600,15.72,1.56,26,16,0,0
2.0906e+05,1.0767e+08,1,4626,5028,15.63,2.32,26,16,0,0
2.0951e+05,1.0778e+08,1,5027,5000,15.68,1.91,26,16,0,0
2.0996e+05,1.0788e+08,1,4998,4914,15.68,1.39,26,16,0,0
2.104e+05,1.0799e+08,1,4912,4814,15.69,1.57,26,16,0,0
2.1085e+05,1.081e+08,1,4806,4685,15.71,1.25,26,16,0,0
2.1131e+05,1.0822e+08,1,4677,4571,15.67,1.37,26,17,0,0
2.1176e+05,1.0833e+08,1,4561,4428,15.7,1.25,26,17,0,0
2.122e+05,1.0843e+08,1,4430,4457,15.66,1.29,26,17,0,0
2.1265e+05,1.0854e+08,1,4443,4271,15.72,0.88,26,17,0,0
2.1309e+05,1.0865e+08,1,4255,4100,15.7,1.2,26,17,0,0
2.135e+05,1.0875e+08,1,4102,4242,15.69,1.67,26,17,0,0
2.1395e+05,1.0886e+08,1,4249,4314,15.66,1.69,26,17,0,0
2.144e+05,1.0898e+08,1,4309,4257,15.7,1.21,26,17,0,0
2.1486e+05,1.0909e+08,1,4275,4585,15.61,1.89,26,17,0,0
2.157e+05,1.0929e+08,1,4586,4685,15.66,1.7,26,17,0,0
2.1616e+05,1.0941e+08,1,4693,4800,15.66,1.91,26,17,0,0
2.166e+05,1.0951e+08,1,4797,4771,15.61,1.7,26,17,0,0
2.1705e+05,1.0963e+08,1,4781,4885,15.6,2.15,26,17,0,0
2.1749e+05,1.0973e+08,1,4891,4985,15.64,2.09,26,17,0,0
2.1794e+05,1.0984e+08,1,4995,5100,15.59,2.14,26,17,0,0
2.1835e+05,1.0994e+08,1,5096,4900,15.67,1.45,26,17,0,0
2.1879e+05,1.1005e+08,1,4897,4842,15.7,1.83,26,17,0,0
2.1924e+05,1.1016e+08,1,4838,4785,15.7,1.81,26,17,0,0
2.1969e+05,1.1028e+08,1,4771,4628,15.7,1.7,26,17,0,0
2.2015e+05,1.1039e+08,1,4625,4600,15.63,1.69,26,18,0,0
2.2055e+05,1.1049e+08,1,4607,4700,15.69,1.54,26,18,0,0
2.2099e+05,1.106e+08,1,4684,4542,15.68,1.72,26,18,0,0
2.2188e+05,1.1081e+08,1,4552,4985,15.52,2.6,26,18,0,0
2.2233e+05,1.1092e+08,1,4991,5057,15.48,2.16,26,18,0,0
2.2274e+05,1.1103e+08,1,5065,5242,15.55,2.68,26,18,0,0
2.2319e+05,1.1114e+08,1,5242,5257,15.61,2.2,26,18,0,0
2.2363e+05,1.1124e+08,1,5246,5042,15.64,1.73,26,18,0,0
2.2408e+05,1.1135e+08,1,5032,4671,15.73,1.21,26,18,0,0
2.2453e+05,1.1146e+08,1,4664,4485,15.72,1.47,26,18,0,0
2.2497e+05,1.1157e+08,1,4485,4485,15.68,1.4,26,18,0,0
2.2538e+05,1.1167e+08,1,4484,4471,15.73,1.32,26,18,0,0
2.2583e+05,1.1178e+08,1,4471,4485,15.77,2.31,26,18,0,0
2.2628e+05,1.119e+08,1,4480,4428,15.78,1.05,26,18,0,0
2.2673e+05,1.12e+08,1,4400,3814,15.82,0.8,26,18,0,0
2.2717e+05,1.1211e+08,1,3808,3471,15.75,1.29,26,18,0,0
2.2761e+05,1.1222e+08,1,3478,3571,15.78,1.08,26,18,0,0
2.2806e+05,1.1232e+08,1,3574,3657,15.75,1.17,26,18,0,0
2.285e+05,1.1243e+08,1,3660,3742,15.72,1.06,26,18,0,0
2.2895e+05,1.1254e+08,1,3744,3785,15.72,1.36,26,18,0,0
2.2935e+05,1.1264e+08,1,3800,3985,15.76,1.8,26,19,0,0
2.298e+05,1.1275e+08,1,3987,4042,15.76,1.55,26,19,0,0
2.3028e+05,1.1286e+08,1,4016,3757,15.77,1.7,26,19,0,0
2.3073e+05,1.1297e+08,1,3757,3771,15.71,1.42,26,19,0,0
2.3113e+05,1.1308e+08,1,3781,4000,15.69,1.57,26,19,0,0
2.3158e+05,1.1318e+08,1,4005,4342,15.64,2.23,26,19,0,0
2.3203e+05,1.133e+08,1,4385,4785,15.66,2.08,26,19,0,0
2.3243e+05,1.134e+08,1,4772,4642,15.59,1.46,26,19,0,0
2.3288e+05,1.1351e+08,1,4637,4600,15.61,1.4,26,19,0,0
2.3328e+05,1.1362e+08,1,4598,4500,15.67,1.33,26,19,0,0
2.3373e+05,1.1373e+08,1,4495,4457,15.61,1.32,26,19,0,0
2.3417e+05,1.1383e+08,1,4457,4457,15.7,1.23,26,19,0,0
2.3463e+05,1.1394e+08,1,4449,4371,15.68,1.17,26,19,0,0
2.3506e+05,1.1405e+08,1,4359,4257,15.69,1.22,26,19,0,0
2.3547e+05,1.1415e+08,1,4260,4342,15.66,1.27,26,19,0,0
2.3587e+05,1.1426e+08,1,4344,4457,15.64,1.43,26,19,0,0
2.3636e+05,1.1437e+08,1,4444,4328,15.7,1.26,26,19,0,0
2.368e+05,1.1448e+08,1,4320,4014,15.69,0.9,26,19,0,0
2.377e+05,1.147e+08,1,4012,3971,15.51,1.84,26,19,0,0
2.3815e+05,1.1481e+08,1,3990,4185,15.54,2.08,26,19,0,0
2.3855e+05,1.1491e+08,1,4191,4328,15.68,1.5,26,19,0,0
2.3899e+05,1.1502e+08,1,4328,4371,15.64,1.58,26,20,0,0
2.3944e+05,1.1513e+08,1,4372,4514,15.64,1.59,26,20,0,0
2.3989e+05,1.1524e+08,1,4516,4557,15.63,1.51,26,20,0,0
2.403e+05,1.1534e+08,1,4555,4457,15.57,1.52,26,20,0,0
2.4074e+05,1.1545e+08,1,4455,4385,15.67,1.1,26,20,0,0
2.4124e+05,1.1557e+08,1,4367,4200,15.69,1.05,26,20,0,0
2.4168e+05,1.1568e+08,1,4195,4128,15.64,1.24,26,20,0,0
2.4212e+05,1.1578e+08,1,4118,4000,15.72,1.22,26,20,0,0
2.4253e+05,1.1589e+08,1,3998,3928,15.67,1.95,26,20,0,0
2.4346e+05,1.1611e+08,1,3935,4100,15.59,1.93,26,20,0,0
2.4385e+05,1.1621e+08,1,4098,4042,15.73,1.38,26,20,0,0
2.4431e+05,1.1632e+08,1,4052,4271,15.66,2.18,26,20,0,0
2.4475e+05,1.1643e+08,1,4281,4471,15.69,1.67,26,20,0,0
2.452e+05,1.1654e+08,1,4459,4300,15.73,1.05,26,20,0,0
2.4564e+05,1.1665e+08,1,4288,4057,15.67,1.22,26,20,0,0
2.4609e+05,1.1676e+08,1,4059,4128,15.6,1.54,26,20,0,0
2.4654e+05,1.1687e+08,1,4161,4528,15.64,1.94,26,20,0,0
2.4739e+05,1.1708e+08,1,4535,4857,15.62,1.75,26,20,0,0
2.4788e+05,1.172e+08,1,4862,4914,15.63,2.04,26,20,0,0
2.4828e+05,1.173e+08,1,4914,4928,15.69,1.95,26,21,0,0
2.4876e+05,1.1741e+08,1,4931,4985,15.69,1.94,26,21,0,0
2.4922e+05,1.1752e+08,1,4988,5028,15.72,2.03,26,21,0,0
2.4962e+05,1.1762e+08,1,5028,5042,15.73,2.26,26,21,0,0
2.5011e+05,1.1774e+08,1,5057,5214,15.64,2.44,26,21,0,0
2.5051e+05,1.1784e+08,1,5216,5328,15.72,2.5,26,21,0,0
2.51e+05,1.1796e+08,1,5343,5542,15.72,2.74,26,21,0,0
2.5188e+05,1.1817e+08,1,5543,5600,15.63,2.34,26,21,0,0
2.5229e+05,1.1827e+08,1,5600,5600,15.68,2.76,26,21,0,0
2.5277e+05,1.1839e+08,1,5600,5600,15.63,2.45,26,21,0,0
2.5318e+05,1.185e+08,1,5598,5442,15.69,2.05,26,21,0,0
2.5367e+05,1.1861e+08,1,5418,5214,15.69,1.76,26,21,0,0
2.5407e+05,1.1871e+08,1,5199,4928,15.68,1.59,26,21,0,0
2.5451e+05,1.1882e+08,1,4914,4800,15.66,1.37,26,21,0,0
2.5496e+05,1.1893e+08,1,4782,4571,15.62,1.37,26,21,0,0
2.5537e+05,1.1904e+08,1,4568,4528,15.67,1.27,26,22,0,0
2.5586e+05,1.1916e+08,1,4508,4357,15.66,1.27,26,22,0,0
2.5626e+05,1.1926e+08,1,4358,4371,15.6,1.53,26,22,0,0
2.5671e+05,1.1937e+08,1,4385,4485,15.64,1.61,26,22,0,0
2.5715e+05,1.1947e+08,1,4491,4571,15.62,1.86,26,22,0,0
2.5764e+05,1.1959e+08,1,4573,4600,15.64,1.56,26,22,0,0
2.5805e+05,1.197e+08,1,4607,4685,15.64,1.57,26,22,0,0
2.5894e+05,1.1991e+08,1,4685,4700,15.7,1.55,26,22,0,0
2.5938e+05,1.2002e+08,1,4697,4642,15.7,1.35,26,22,0,0
2.5984e+05,1.2013e+08,1,4642,4657,15.69,1.72,26,22,0,0
2.6029e+05,1.2025e+08,1,4672,4785,15.69,1.88,26,22,0,0
2.6069e+05,1.2035e+08,1,4788,4971,15.69,2.16,26,22,0,0
2.6114e+05,1.2045e+08,1,4979,5157,15.63,2.05,26,22,0,0
2.6159e+05,1.2056e+08,1,5159,5300,15.67,2.29,26,22,0,0
2.6207e+05,1.2068e+08,1,5302,5357,15.61,2.3,26,22,0,0
2.6252e+05,1.208e+08,1,5379,5528,15.72,2.46,26,22,0,0
2.6293e+05,1.2089e+08,1,5527,5514,15.6,2.61,26,22,0,0
2.6338e+05,1.21e+08,1,5510,5385,15.66,2.3,26,22,0,0
2.6382e+05,1.2111e+08,1,5390,5500,15.67,2.02,26,23,0,0
2.6423e+05,1.2122e+08,1,5496,5242,15.67,1.77,26,23,0,0
2.6471e+05,1.2133e+08,1,5231,5128,15.69,1.64,26,23,0,0
2.6511e+05,1.2143e+08,1,5120,4928,15.71,1.6,26,23,0,0
2.6556e+05,1.2154e+08,1,4925,4871,15.72,1.51,26,23,0,0
2.66e+05,1.2165e+08,1,4869,4814,15.7,1.52,26,23,0,0
2.6646e+05,1.2176e+08,1,4812,4785,15.73,1.71,26,23,0,0
2.6691e+05,1.2187e+08,1,4786,4814,15.72,1.6,26,23,0,0
2.6736e+05,1.2198e+08,1,4814,4814,15.65,1.72,26,23,0,0
2.678e+05,1.2209e+08,1,4803,4657,15.67,1.52,26,23,0,0
2.683e+05,1.2221e+08,1,4654,4628,15.66,1.32,26,23,0,0
2.687e+05,1.2231e+08,1,4620,4442,15.64,1.21,26,23,0,0
2.6914e+05,1.2242e+08,1,4433,4271,15.6,1.17,26,23,0,0
2.6963e+05,1.2254e+08,1,4270,4257,15.64,1.36,26,23,0,0
2.7004e+05,1.2264e+08,1,4264,4414,15.66,1.39,26,23,0,0
2.7048e+05,1.2275e+08,1,4412,4328,15.72,1.23,26,23,0,0
2.7093e+05,1.2285e+08,1,4328,4371,15.67,1.41,26,23,0,0
2.7142e+05,1.2297e+08,1,4364,4300,15.7,1.23,26,23,0,0
2.7182e+05,1.2307e+08,1,4302,4442,15.6,1.56,26,23,0,0
2.7231e+05,1.2319e+08,1,4474,4685,15.6,1.94,26,23,0,0
2.7275e+05,1.2329e+08,1,4691,4842,15.66,2.27,26,24,0,0
2.732e+05,1.2341e+08,1,4855,5042,15.63,1.83,26,24,0,0
2.7365e+05,1.2352e+08,1,5031,4928,15.65,1.68,26,24,0,0
2.7409e+05,1.2362e+08,1,4910,4742,15.65,1.47,26,24,0,0
2.7454e+05,1.2373e+08,1,4753,4871,15.61,1.77,26,24,0,0
2.7494e+05,1.2384e+08,1,4868,4814,15.62,1.69,26,24,0,0
2.7535e+05,1.2394e+08,1,4818,4871,15.64,1.73,26,24,0,0
2.758e+05,1.2406e+08,1,4872,4885,15.62,1.79,26,24,0,0
2.7669e+05,1.2428e+08,1,4879,4671,15.6,1.49,26,24,0,0
2.7714e+05,1.2438e+08,1,4667,4600,15.63,1.54,26,24,0,0
2.7758e+05,1.245e+08,1,4596,4557,15.67,1.41,26,24,0,0
2.7798e+05,1.246e+08,1,4557,4571,15.63,1.56,26,24,0,0
2.7843e+05,1.2471e+08,1,4571,4585,15.65,1.59,26,24,0,0
2.7883e+05,1.2481e+08,1,4585,4614,15.61,1.46,26,24,0,0
2.7932e+05,1.2492e+08,1,4618,4657,15.63,1.66,26,24,0,0
2.7973e+05,1.2503e+08,1,4661,4771,15.63,1.72,26,24,0,0
2.8018e+05,1.2513e+08,1,4770,4714,15.58,1.48,26,24,0,0
2.8107e+05,1.2536e+08,1,4707,4542,15.64,0.94,26,24,0,0
2.8151e+05,1.2547e+08,1,4526,4300,15.72,1.26,26,24,0,0
2.8236e+05,1.2568e+08,1,4305,4571,15.59,1.82,26,25,0,0
2.8281e+05,1.2579e+08,1,4575,4785,15.65,1.69,26,25,0,0
2.8326e+05,1.259e+08,1,4789,4857,15.64,1.87,26,25,0,0
2.837e+05,1.2601e+08,1,4863,4957,15.64,2,26,25,0,0
2.8412e+05,1.2611e+08,1,4953,4714,15.72,1.29,26,25,0,0
2.846e+05,1.2624e+08,1,4678,4357,15.74,1.19,26,25,0,0
2.8501e+05,1.2633e+08,1,4357,4400,15.7,1.33,26,25,0,0
2.8546e+05,1.2644e+08,1,4402,4528,15.67,1.64,26,25,0,0
2.8594e+05,1.2656e+08,1,4547,4714,15.69,1.74,26,25,0,0
2.8635e+05,1.2666e+08,1,4710,4485,15.66,1.21,26,25,0,0
2.8683e+05,1.2678e+08,1,4477,4385,15.66,1.27,26,25,0,0
2.8728e+05,1.2689e+08,1,4386,4400,15.64,1.12,26,25,0,0
2.8773e+05,1.27e+08,1,4375,4128,15.72,0.96,26,25,0,0
2.8813e+05,1.271e+08,1,4118,3985,15.71,1,26,25,0,0
2.8903e+05,1.2732e+08,1,3979,3828,15.69,1.35,26,25,0,0
2.8943e+05,1.2743e+08,1,3825,3657,15.73,0.97,26,25,0,0
2.8991e+05,1.2754e+08,1,3677,3900,15.67,1.58,26,25,0,0
2.9032e+05,1.2765e+08,1,3920,4200,15.66,1.84,26,25,0,0
2.9082e+05,1.2777e+08,1,4218,4371,15.73,1.49,26,25,0,0
2.9117e+05,1.2786e+08,1,4371,4400,15.71,1.36,26,25,0,0
2.9167e+05,1.2798e+08,1,4401,4414,15.72,1.3,26,25,0,0
2.9203e+05,1.2807e+08,1,4418,4514,15.72,1.51,26,26,0,0
2.9249e+05,1.2818e+08,1,4515,4571,15.69,1.52,26,26,0,0
2.9297e+05,1.283e+08,1,4573,4600,15.69,1.27,26,26,0,0
2.9338e+05,1.284e+08,1,4605,4657,15.68,1.39,26,26,0,0
2.9382e+05,1.2851e+08,1,4674,4900,15.66,1.88,26,26,0,0
2.9471e+05,1.2873e+08,1,4888,4571,15.73,0.84,26,26,0,0
2.9515e+05,1.2884e+08,1,4568,4542,15.7,1.59,26,26,0,0
2.956e+05,1.2895e+08,1,4553,4700,15.7,1.43,26,26,0,0
2.96e+05,1.2905e+08,1,4694,4442,15.66,1.13,26,26,0,0
2.9646e+05,1.2916e+08,1,4442,4457,15.63,1.41,26,26,0,0
2.9691e+05,1.2927e+08,1,4464,4642,15.69,1.53,26,26,0,0
2.9735e+05,1.2938e+08,1,4635,4514,15.73,1.21,26,26,0,0
2.978e+05,1.2948e+08,1,4517,4585,15.63,1.33,26,26,0,0
2.9869e+05,1.297e+08,1,4583,4528,15.73,1.35,26,26,0,0
2.9913e+05,1.2981e+08,1,4527,4514,15.69,1.19,26,26,0,0
2.9958e+05,1.2993e+08,1,4520,4585,15.66,1.49,26,26,0,0
3.0003e+05,1.3003e+08,1,4585,4585,15.63,1.43,26,26,0,0
3.0048e+05,1.3014e+08,1,4576,4485,15.66,1.2,26,26,0,0
3.0091e+05,1.3024e+08,1,4477,4328,15.69,1.13,26,26,0,0
3.0137e+05,1.3036e+08,1,4305,4000,15.69,0.96,26,26,0,0
3.0182e+05,1.3047e+08,1,3997,3971,15.69,1.95,26,26,0,0
3.0226e+05,1.3058e+08,1,3959,3800,15.69,1.88,26,26,0,0
3.0271e+05,1.3069e+08,1,3823,4057,15.66,1.69,26,27,0,0
3.0316e+05,1.308e+08,1,4057,4057,15.64,2.25,26,27,0,0
3.0356e+05,1.309e+08,1,4068,4300,15.68,1.73,26,27,0,0
3.0397e+05,1.3101e+08,1,4313,4600,15.61,1.91,26,27,0,0
3.049e+05,1.3123e+08,1,4588,4357,15.71,1.09,26,27,0,0
3.053e+05,1.3133e+08,1,4359,4457,15.71,1.35,26,27,0,0
3.0576e+05,1.3144e+08,1,4445,4328,15.67,1.21,26,27,0,0
3.062e+05,1.3155e+08,1,4328,4328,15.74,1.26,26,27,0,0
3.0664e+05,1.3165e+08,1,4326,4285,15.69,0.92,26,27,0,0
3.0709e+05,1.3176e+08,1,4276,4085,15.66,0.95,26,27,0,0
3.0757e+05,1.3188e+08,1,4089,4157,15.71,1.54,26,27,0,0
3.0798e+05,1.3198e+08,1,4180,4471,15.61,1.41,26,27,0,0
3.0843e+05,1.3209e+08,1,4484,4628,15.62,1.75,26,27,0,0
3.0888e+05,1.322e+08,1,4631,4657,15.61,1.62,26,27,0,0
3.0928e+05,1.323e+08,1,4658,4685,15.61,1.5,26,27,0,0
3.0973e+05,1.3242e+08,1,4685,4685,15.6,1.75,26,27,0,0
3.1018e+05,1.3252e+08,1,4684,4671,15.55,1.64,26,27,0,0
3.1058e+05,1.3263e+08,1,4672,4714,15.57,1.64,26,27,0,0
3.1108e+05,1.3274e+08,1,4718,4771,15.6,1.8,26,27,0,0
3.1148e+05,1.3285e+08,1,4771,4785,15.55,1.82,26,27,0,0
3.1193e+05,1.3296e+08,1,4778,4642,15.56,1.65,26,28,0,0
3.1237e+05,1.3306e+08,1,4636,4514,15.62,1.26,26,28,0,0
3.1282e+05,1.3317e+08,1,4510,4442,15.58,1.32,26,28,0,0
3.1327e+05,1.3329e+08,1,4441,4428,15.65,1.51,26,28,0,0
3.1372e+05,1.3339e+08,1,4412,4257,15.66,1.18,26,28,0,0
3.1416e+05,1.3351e+08,1,4257,4257,15.63,1.28,26,28,0,0
3.1457e+05,1.3361e+08,1,4268,4585,15.54,2.17,26,28,0,0
3.1501e+05,1.3371e+08,1,4592,5014,15.49,2.84,26,28,0,0
3.1545e+05,1.3382e+08,1,5013,5000,15.47,2,26,28,0,0
3.1591e+05,1.3394e+08,1,5003,5057,15.56,1.83,26,28,0,0
3.1632e+05,1.3404e+08,1,5021,4557,15.65,0.82,26,28,0,0
3.1677e+05,1.3415e+08,1,4511,3914,15.68,0.48,26,28,0,0
3.1717e+05,1.3425e+08,1,3908,3528,15.7,1.01,26,28,0,0
3.1766e+05,1.3437e+08,1,3521,3428,15.67,1.55,26,28,0,0
3.1806e+05,1.3447e+08,1,3435,3771,15.55,1.7,26,28,0,0
3.1855e+05,1.3459e+08,1,3802,4014,15.68,1.95,26,28,0,0
3.1899e+05,1.347e+08,1,4030,4228,15.5,2.13,26,28,0,0
3.1948e+05,1.3481e+08,1,4269,4442,15.66,1.57,26,28,0,0
3.1988e+05,1.3491e+08,1,4445,4542,15.66,1.37,26,28,0,0
3.2032e+05,1.3502e+08,1,4538,4471,15.63,1.33,26,28,0,0
3.2078e+05,1.3514e+08,1,4472,4485,15.62,1.3,26,28,0,0
3.2118e+05,1.3523e+08,1,4484,4457,15.63,1.6,26,28,0,0
3.2207e+05,1.3546e+08,1,4454,4371,15.65,1.26,26,29,0,0
3.2253e+05,1.3556e+08,1,4380,4514,15.62,1.59,26,29,0,0
3.2298e+05,1.3568e+08,1,4511,4485,15.6,1.45,26,29,0,0
3.2427e+05,1.3599e+08,1,4493,4771,15.57,1.6,26,29,0,0
3.2467e+05,1.3609e+08,1,4764,4471,15.65,1.14,26,29,0,0
3.2516e+05,1.3621e+08,1,4457,4314,15.67,1.18,26,29,0,0
3.256e+05,1.3632e+08,1,4308,4257,15.58,1.65,26,29,0,0
3.26e+05,1.3642e+08,1,4259,4385,15.42,1.45,26,29,0,0
3.2649e+05,1.3654e+08,1,4377,4300,15.58,1.43,26,29,0,0
3.2693e+05,1.3664e+08,1,4295,4242,15.63,1.01,26,29,0,0
3.2738e+05,1.3675e+08,1,4234,4128,15.58,1.25,26,29,0,0
3.2782e+05,1.3685e+08,1,4125,4042,15.46,1.19,26,29,0,0
3.2827e+05,1.3697e+08,1,4046,4114,15.59,2.8,26,29,0,0
3.2872e+05,1.3708e+08,1,4130,4342,15.56,2.21,26,29,0,0
3.2912e+05,1.3718e+08,1,4342,4342,15.61,1.59,26,29,0,0
3.2961e+05,1.3729e+08,1,4338,4285,15.55,1.67,26,29,0,0
3.3001e+05,1.3739e+08,1,4287,4457,15.62,1.49,26,29,0,0
3.3046e+05,1.375e+08,1,4457,4457,15.63,1.27,26,29,0,0
3.3091e+05,1.3762e+08,1,4439,4271,15.66,1.08,26,29,0,0
3.3136e+05,1.3773e+08,1,4265,4185,15.64,1.28,26,29,0,0
3.3181e+05,1.3784e+08,1,4174,4057,15.52,1.36,26,30,0,0
3.3221e+05,1.3794e+08,1,4056,4042,15.61,1.88,26,30,0,0
3.327e+05,1.3806e+08,1,4040,4028,15.45,2.15,26,30,0,0
3.3311e+05,1.3816e+08,1,4029,4057,15.52,2.18,26,30,0,0
3.3359e+05,1.3827e+08,1,4057,4057,15.58,2.21,26,30,0,0
3.3404e+05,1.3838e+08,1,4070,4257,15.61,1.7,26,30,0,0
3.3448e+05,1.3849e+08,1,4263,4400,15.56,1.56,26,30,0,0
3.3493e+05,1.386e+08,1,4454,4842,15.5,2.2,26,30,0,0
3.3533e+05,1.387e+08,1,4847,5100,15.54,2.43,26,30,0,0
3.3578e+05,1.3881e+08,1,5121,5414,15.49,2.27,26,30,0,0
3.3623e+05,1.3892e+08,1,5413,5400,15.5,2.31,26,30,0,0
3.3667e+05,1.3903e+08,1,5400,5414,15.55,2.26,26,30,0,0
3.3712e+05,1.3914e+08,1,5414,5414,15.57,2.32,26,30,0,0
3.3761e+05,1.3926e+08,1,5411,5385,15.55,2.16,26,30,0,0
3.3801e+05,1.3936e+08,1,5386,5400,15.61,1.98,26,30,0,0
3.3846e+05,1.3947e+08,1,5385,5142,15.61,1.7,26,30,0,0
3.3891e+05,1.3958e+08,1,5142,5157,15.59,2.18,26,31,0,0
3.3935e+05,1.3969e+08,1,5164,5242,15.64,1.97,26,31,0,0
3.3983e+05,1.3981e+08,1,5235,5157,15.64,1.76,26,31,0,0
3.4024e+05,1.3991e+08,1,5151,5042,15.61,1.72,26,31,0,0
3.4114e+05,1.4013e+08,1,5041,5028,15.61,1.85,26,31,0,0
3.4159e+05,1.4024e+08,1,5031,5071,15.6,1.84,26,31,0,0
3.4203e+05,1.4035e+08,1,5063,5000,15.54,1.68,26,31,0,0
3.4292e+05,1.4057e+08,1,4998,4942,15.66,1.71,26,31,0,0
3.4337e+05,1.4068e+08,1,4940,4900,15.64,1.64,26,31,0,0
3.4426e+05,1.409e+08,1,4902,4985,15.67,1.68,26,31,0,0
3.4467e+05,1.41e+08,1,4982,4900,15.63,1.84,26,31,0,0
3.4516e+05,1.4112e+08,1,4888,4800,15.66,1.47,26,31,0,0
3.4604e+05,1.4133e+08,1,4757,3014,15.75,1.15,26,31,0,0
3.469e+05,1.4155e+08,1,3016,3314,15.84,1.1,26,31,0,0
3.4734e+05,1.4166e+08,1,3234,2528,15.9,0.36,26,31,0,0
3.4779e+05,1.4176e+08,1,2514,2185,15.91,0.17,26,31,0,0
3.4824e+05,1.4188e+08,1,2159,2028,16.04,0.12,26,31,0,0
3.4864e+05,1.4198e+08,1,2026,2000,16,0.21,26,31,0,0
3.4909e+05,1.4209e+08,1,2001,2071,16.02,0.24,26,31,0,0
3.4954e+05,1.4219e+08,1,2069,1971,16.02,0.16,26,31,0,0
3.4998e+05,1.4231e+08,1,1969,1942,16.02,0.16,26,31,0,0
3.5043e+05,1.4242e+08,1,1940,1928,16.02,0.2,26,31,0,0
3.5084e+05,1.4252e+08,1,1928,1957,16.04,0.18,26,31,0,0
3.5132e+05,1.4264e+08,1,1961,2014,16.03,0.17,26,31,0,0
3.5177e+05,1.4275e+08,1,2014,2014,16.04,0.26,26,31,0,0
3.5221e+05,1.4286e+08,1,2012,2000,16.05,0.15,26,31,0,0
3.5266e+05,1.4296e+08,1,1999,1985,16.01,0.27,26,31,0,0
3.5311e+05,1.4307e+08,1,1991,2085,16.02,0.32,26,31,0,0
3.5356e+05,1.4318e+08,1,2101,2285,16.04,0.47,26,31,0,0
3.5396e+05,1.4328e+08,1,2290,2542,16.05,0.52,26,32,0,0
3.5487e+05,1.435e+08,1,2552,2771,16.05,0.43,26,32,0,0
3.5532e+05,1.4361e+08,1,2709,2157,16.14,0.04,26,32,0,0
3.5576e+05,1.4371e+08,1,2133,1657,16.11,0,26,32,0,0
3.562e+05,1.4382e+08,1,1650,1357,16.11,0.04,26,32,0,0
3.567e+05,1.4394e+08,1,1353,1314,16.1,0.09,26,32,0,0
3.571e+05,1.4404e+08,1,1313,1300,16.11,0.09,26,32,0,0
3.5759e+05,1.4416e+08,1,1300,1300,16.11,0.09,26,32,0,0
3.5804e+05,1.4427e+08,1,1300,1300,16.12,0.1,26,32,0,0
3.5844e+05,1.4436e+08,1,1300,1300,16.11,0.1,26,32,0,0
3.5893e+05,1.4448e+08,1,1300,1300,16.11,0.09,26,32,0,0
3.5938e+05,1.4459e+08,1,1300,1300,16.12,0.1,26,32,0,0
3.5982e+05,1.4469e+08,1,1300,1300,16.12,0.1,26,32,0,0
3.6028e+05,1.4481e+08,1,1300,1300,16.12,0.09,26,32,0,0
3.6076e+05,1.4492e+08,1,1300,1300,16.13,0.09,26,32,0,0
3.6121e+05,1.4503e+08,1,1300,1300,16.13,0.09,26,32,0,0
3.6161e+05,1.4513e+08,1,1300,1314,16.13,0.1,26,32,0,0
3.6206e+05,1.4523e+08,1,1313,1300,16.13,0.09,26,32,0,0
3.6251e+05,1.4534e+08,1,1300,1300,16.14,0.09,26,32,0,0
3.6296e+05,1.4545e+08,1,1300,1300,16.13,0.1,26,32,0,0
3.6345e+05,1.4557e+08,1,1300,1300,16.14,0.1,26,32,0,0
3.639e+05,1.4568e+08,1,1300,1300,16.14,0.09,26,32,0,0
3.6435e+05,1.4578e+08,1,1300,1300,16.14,0.09,26,32,0,0
3.6475e+05,1.4589e+08,1,1300,1300,16.14,0.1,26,32,0,0
3.652e+05,1.4599e+08,1,1299,1285,16.14,0.1,26,32,0,0
3.6568e+05,1.4611e+08,1,1286,1300,16.14,0.1,26,32,0,0
3.6612e+05,1.4622e+08,1,1300,1300,16.14,0.09,26,32,0,0
3.6657e+05,1.4632e+08,1,1300,1300,16.14,0.1,26,32,0,0
3.6702e+05,1.4643e+08,1,1298,1285,16.15,0.1,26,32,0,0
3.6742e+05,1.4653e+08,1,1285,1300,16.15,0.09,26,32,0,0
3.6791e+05,1.4665e+08,1,1300,1300,16.15,0.1,26,32,0,0
3.6832e+05,1.4675e+08,1,1300,1300,16.16,0.1,26,32,0,0
3.6876e+05,1.4686e+08,1,1300,1300,16.16,0.1,26,32,0,0
3.6921e+05,1.4697e+08,1,1300,1300,16.15,0.09,26,32,0,0
3.6965e+05,1.4707e+08,1,1300,1300,16.16,0.1,26,32,0,0
3.7011e+05,1.4718e+08,1,1300,1300,16.16,0.1,26,32,0,0
3.7103e+05,1.474e+08,1,1300,1300,16.17,0.1,26,32,0,0
3.7148e+05,1.475e+08,1,1300,1300,16.17,0.1,26,32,0,0
3.7192e+05,1.4761e+08,1,1300,1300,16.17,0.1,26,32,0,0
3.7237e+05,1.4772e+08,1,1300,1300,16.16,0.1,26,32,0,0
3.7286e+05,1.4783e+08,1,1300,1300,16.17,0.1,26,32,0,0
3.7326e+05,1.4793e+08,1,1300,1300,16.17,0.09,26,32,0,0
3.7374e+05,1.4804e+08,1,1300,1300,16.17,0.1,26,32,0,0
3.7419e+05,1.4815e+08,1,1300,1300,16.17,0.1,26,32,0,0
3.7464e+05,1.4826e+08,1,1241,471,16.19,0,26,32,0,0
3.7509e+05,1.4836e+08,1,451,0,16.19,0.02,26,32,0,0
3.7604e+05,1.4859e+08,1,0,0,16.19,0.03,26,32,0,0
3.7634e+05,1.487e+08,1,0,0,16.2,0.02,26,32,0,0
3.7679e+05,1.488e+08,1,0,0,16.19,0.02,26,32,0,0
3.7724e+05,1.4891e+08,1,0,0,16.2,0.03,26,32,0,0
3.7769e+05,1.4902e+08,1,0,0,16.2,0.02,26,32,0,0
3.7819e+05,1.4913e+08,1,0,0,16.2,0.02,26,32,0,0
3.7864e+05,1.4924e+08,1,0,0,16.2,0.02,26,32,0,0
3.7909e+05,1.4935e+08,1,0,0,16.2,0.02,26,32,0,0
3.7955e+05,1.4946e+08,1,0,0,16.2,0.02,26,32,0,0
3.8e+05,1.4956e+08,1,0,0,16.2,0.02,26,32,0,0
3.8045e+05,1.4967e+08,1,0,0,16.21,0.02,26,32,0,0
3.8094e+05,1.4979e+08,1,0,0,16.21,0.02,26,32,0,0
3.8139e+05,1.4989e+08,1,0,0,16.21,0.02,26,32,0,0
3.818e+05,1.4999e+08,1,0,0,16.2,0.02,26,32,0,0
3.8226e+05,1.501e+08,1,0,0,16.22,0.02,26,32,0,0
3.8275e+05,1.5021e+08,1,0,0,16.21,0.02,26,32,0,0
3.832e+05,1.5032e+08,1,0,0,16.21,0.03,26,32,0,0
3.8365e+05,1.5043e+08,1,0,0,16.21,0.02,26,32,0,0
3.841e+05,1.5053e+08,1,0,0,16.22,0.02,26,32,0,0
3.8456e+05,1.5065e+08,1,0,0,16.22,0.02,26,32,0,0
3.8506e+05,1.5076e+08,1,0,0,16.22,0.02,26,32,0,0
3.8597e+05,1.5098e+08,1,0,0,16.22,0.02,26,32,0,0
3.8645e+05,1.5109e+08,1,0,0,16.22,0.02,26,32,0,0
3.8736e+05,1.5131e+08,1,0,0,16.22,0.02,26,32,0,0
3.878e+05,1.5141e+08,1,0,0,16.23,0.02,26,32,0,0
3.883e+05,1.5153e+08,1,0,0,16.23,0.02,26,32,0,0
3.8872e+05,1.5163e+08,1,0,0,16.22,0.02,26,32,0,0
3.8917e+05,1.5173e+08,1,0,0,16.23,0.02,25,32,0,0
3.8967e+05,1.5185e+08,1,0,0,16.23,0.02,25,32,0,0
3.9012e+05,1.5196e+08,1,0,0,16.23,0.02,25,32,0,0
3.9057e+05,1.5207e+08,1,0,0,16.23,0.02,25,32,0,0
3.9102e+05,1.5217e+08,1,0,0,16.23,0.02,25,32,0,0
