LineNo,TimeUS,I,GyrX,GyrY,GyrZ,AccX,AccY,AccZ,EG,EA,T,GH,AH,GHz,AHz
184,4.9046e+07,1,0.003436,-0.00056587,-0.00045384,-0.40568,-0.07511,-9.8335,0,0,45.341,1,1,755,999
293,4.908e+07,1,0.0015149,0.0016924,0.0030093,-0.354,-0.12982,-9.9163,0,0,45.34,1,1,755,999
324,4.9083e+07,1,0.00091456,0.002694,0.003001,-0.34162,-0.1392,-9.8726,0,0,45.34,1,1,755,999
404,4.9103e+07,1,0.0025552,0.0037399,-0.0047977,-0.41355,-0.12063,-9.7207,0,0,45.34,1,1,755,999
520,4.9126e+07,1,-0.0015673,-0.0036952,0.00053243,-0.43095,-0.15259,-9.7533,0,0,45.34,1,1,755,999
555,4.9129e+07,1,-0.0013217,-0.0052851,-0.00050829,-0.43831,-0.14855,-9.7477,0,0,45.34,1,1,755,999
631,4.9146e+07,1,-0.0012446,0.00042738,-0.0037336,-0.40553,-0.10658,-9.7246,0,0,45.34,1,1,755,999
746,4.9167e+07,1,-0.0064311,0.0025267,0.0069498,-0.38093,-0.12938,-9.8231,0,0,45.34,1,1,755,999
861,4.9188e+07,1,-0.0014269,0.0061552,0.0049386,-0.35196,-0.069637,-9.7957,0,0,45.34,1,1,755,999
975,4.9212e+07,1,0.00021746,-0.0024627,-0.000256,-0.35303,-0.069721,-9.7051,0,0,45.339,1,1,755,999
978,4.9215e+07,1,0.0011175,-0.0027535,0.0013163,-0.3408,-0.075025,-9.7376,0,0,45.339,1,1,755,999
981,4.9216e+07,1,0.001912,-0.0026688,0.00048718,-0.32651,-0.082614,-9.765,0,0,45.339,1,1,755,999
1012,4.9219e+07,1,0.0036694,-0.0028157,-0.00024373,-0.32252,-0.10328,-9.8032,0,0,45.339,1,1,755,999
1083,4.9246e+07,1,0.0012467,0.0017338,0.0044036,-0.35879,-0.13027,-9.8049,0,0,45.34,1,1,755,999
1198,4.9329e+07,1,-0.0086521,-0.002866,-0.011905,-0.32976,0.005504,-9.6977,0,0,45.34,1,1,755,999
1229,4.9331e+07,1,-0.0073263,-0.003524,-0.012633,-0.32361,0.013582,-9.6982,0,0,45.34,1,1,755,999
1309,4.9405e+07,1,0.0018515,0.0078322,-0.0035784,-0.39322,-0.13503,-9.7871,0,0,45.342,1,1,755,999
1391,4.9425e+07,1,0.0023789,-0.0011139,-0.001235,-0.37165,-0.10865,-9.7887,0,0,45.343,1,1,755,999
1488,4.9436e+07,1,0.0046906,-0.012103,0.0061369,-0.35412,-0.1215,-9.7512,0,0,45.343,1,1,755,999
1580,4.9448e+07,1,0.00361,0.0020078,-0.0012857,-0.39987,-0.10159,-9.7828,0,0,45.343,1,1,755,999
1611,4.9451e+07,1,0.0025811,-0.0016062,0.00033116,-0.38458,-0.097902,-9.7919,0,0,45.343,1,1,755,999
1642,4.9455e+07,1,0.0019864,-0.0053422,0.0020395,-0.35735,-0.086138,-9.7727,0,0,45.343,1,1,755,999
1646,4.9456e+07,1,0.00082119,-0.0077921,0.0019052,-0.3431,-0.089263,-9.7736,0,0,45.343,1,1,755,999
1649,4.9459e+07,1,-0.00089731,-0.0087669,0.0010994,-0.34608,-0.10203,-9.7762,0,0,45.343,1,1,755,999
1652,4.9461e+07,1,-0.0068174,-0.0088467,-0.0022575,-0.36517,-0.10485,-9.7753,0,0,45.343,1,1,755,999
1665,4.9474e+07,1,-0.0080584,-0.0015172,0.0011978,-0.43478,-0.013595,-9.7924,0,0,45.343,1,1,755,999
1669,4.9477e+07,1,-0.0070358,-0.0027648,0.0019682,-0.4515,-0.0077253,-9.8026,0,0,45.343,1,1,755,999
1672,4.9479e+07,1,-0.0058926,-0.0023402,0.0013675,-0.45938,-0.019291,-9.8122,0,0,45.343,1,1,755,999
1675,4.9482e+07,1,-0.0056191,0.0014155,-0.0016462,-0.47072,-0.057824,-9.8069,0,0,45.344,1,1,755,999
1710,4.9485e+07,1,-0.0066131,0.0021026,-0.003432,-0.47508,-0.096476,-9.7912,0,0,45.344,1,1,755,999
1713,4.9488e+07,1,-0.00684,-0.0013857,-0.0039495,-0.48268,-0.13066,-9.7799,0,0,45.344,1,1,755,999
1716,4.9489e+07,1,-0.0057684,-0.0035279,-0.0074985,-0.4808,-0.13944,-9.7881,0,0,45.344,1,1,755,999
1719,4.9493e+07,1,-0.0030639,-0.0035541,-0.0061912,-0.46544,-0.14558,-9.8172,0,0,45.344,1,1,755,999
1750,4.9495e+07,1,-0.0021187,-0.0033405,-0.0042964,-0.4576,-0.14697,-9.8408,0,0,45.344,1,1,755,999
1754,4.9497e+07,1,-0.00075733,-0.0012322,-0.0030932,-0.44356,-0.14218,-9.835,0,0,45.344,1,1,755,999
1757,4.95e+07,1,-0.00034035,-0.0026112,-0.00017641,-0.42924,-0.14282,-9.8315,0,0,45.344,1,1,755,999
1760,4.9502e+07,1,0.00068886,-0.0049179,0.001295,-0.43146,-0.15237,-9.8326,0,0,45.344,1,1,755,999
1791,4.9505e+07,1,0.0023931,-0.0052191,0.0025885,-0.43108,-0.17114,-9.7938,0,0,45.344,1,1,755,999
1794,4.9507e+07,1,0.0025697,-0.002164,0.0015604,-0.41966,-0.19477,-9.765,0,0,45.344,1,1,755,999
1797,4.951e+07,1,0.0020996,0.00391,-0.001712,-0.40206,-0.21949,-9.7353,0,0,45.344,1,1,755,999
1801,4.9513e+07,1,0.00059564,0.0054077,-0.0024871,-0.38704,-0.22765,-9.7212,0,0,45.344,1,1,755,999
1832,4.9515e+07,1,-0.0010153,0.0020769,-0.0020057,-0.37307,-0.23473,-9.7126,0,0,45.344,1,1,755,999
1836,4.9518e+07,1,-0.0024634,0.00025317,-0.0017625,-0.36985,-0.23122,-9.7137,0,0,45.344,1,1,755,999
1839,4.952e+07,1,-0.0029894,-0.0012022,-0.001848,-0.35505,-0.23408,-9.7314,0,0,45.344,1,1,755,999
1842,4.9522e+07,1,-0.0033643,-0.0024141,-0.00070957,-0.34561,-0.24063,-9.7628,0,0,45.344,1,1,755,999
1873,4.9525e+07,1,-0.0036451,-0.0049195,-0.00060953,-0.3367,-0.24302,-9.8092,0,0,45.345,1,1,755,999
1877,4.9527e+07,1,-0.0028208,-0.0054654,-0.0013359,-0.34239,-0.2314,-9.8186,0,0,45.345,1,1,755,999
1880,4.9531e+07,1,0.0016,-0.0044514,-0.0028156,-0.34605,-0.19475,-9.8122,0,0,45.345,1,1,755,999
1883,4.9533e+07,1,0.0042798,-0.0060978,-0.0010323,-0.35299,-0.14756,-9.773,0,0,45.345,1,1,755,999
1914,4.9535e+07,1,0.005623,-0.0061524,0.00050219,-0.36245,-0.11918,-9.7399,0,0,45.345,1,1,755,999
1918,4.9537e+07,1,0.0060091,-0.0049074,0.0025213,-0.37016,-0.10138,-9.7079,0,0,45.345,1,1,755,999
1921,4.954e+07,1,0.0025133,-0.0047402,0.0027755,-0.38775,-0.082617,-9.6977,0,0,45.345,1,1,755,999
1924,4.9543e+07,1,0.001121,-0.00088996,0.0040785,-0.39378,-0.078455,-9.7068,0,0,45.345,1,1,755,999
1955,4.9547e+07,1,0.001239,-3.3424e-05,0.0057949,-0.38784,-0.070912,-9.689,0,0,45.345,1,1,755,999
1958,4.9548e+07,1,0.0008576,-0.0012948,0.0058227,-0.37885,-0.050227,-9.6873,0,0,45.345,1,1,755,999
1961,4.955e+07,1,-0.00018901,-0.0013222,0.0051189,-0.37528,-0.045514,-9.7042,0,0,45.345,1,1,755,999
1964,4.9553e+07,1,-0.0014093,-0.0017271,0.0016421,-0.38247,-0.053739,-9.7155,0,0,45.345,1,1,755,999
1995,4.9556e+07,1,0.0013165,-0.00068454,-0.0010852,-0.39221,-0.0412,-9.7017,0,0,45.345,1,1,755,999
1999,4.9558e+07,1,0.005183,-0.00015564,0.00094625,-0.39197,-0.03157,-9.6929,0,0,45.345,1,1,755,999
2002,4.956e+07,1,0.0064878,-0.00074193,0.0024161,-0.39351,-0.028883,-9.693,0,0,45.345,1,1,755,999
2005,4.9563e+07,1,0.0056467,-0.0044517,0.0036717,-0.39435,-0.032353,-9.7126,0,0,45.345,1,1,755,999
2036,4.9566e+07,1,0.0052058,-0.005075,0.0035045,-0.39778,-0.035782,-9.7132,0,0,45.345,1,1,755,999
2041,4.9568e+07,1,0.0050868,-0.0044621,0.0026088,-0.39716,-0.04022,-9.7107,0,0,45.345,1,1,755,999
2044,4.957e+07,1,0.0047999,-0.0047587,0.0035576,-0.38849,-0.041419,-9.7147,0,0,45.345,1,1,755,999
2047,4.9573e+07,1,0.0062027,-0.004289,0.0054437,-0.37626,-0.050826,-9.7312,0,0,45.345,1,1,755,999
2078,4.9575e+07,1,0.0080159,-0.0032516,0.0061689,-0.37483,-0.060369,-9.7432,0,0,45.345,1,1,755,999
2081,4.9578e+07,1,0.006524,-0.0037373,0.0068733,-0.38698,-0.069167,-9.7664,0,0,45.345,1,1,755,999
2086,4.9581e+07,1,0.0049988,-0.0043476,0.00647,-0.3995,-0.06488,-9.7762,0,0,45.345,1,1,755,999
2089,4.9583e+07,1,0.0039369,-0.0058538,0.0017151,-0.41528,-0.047231,-9.7905,0,0,45.345,1,1,755,999
2124,4.9586e+07,1,0.0049821,-0.0054889,0.00062259,-0.42139,-0.03087,-9.8003,0,0,45.345,1,1,755,999
2128,4.9588e+07,1,0.005834,-0.0045402,0.00091726,-0.43135,-0.015314,-9.8199,0,0,45.345,1,1,755,999
2131,4.9591e+07,1,0.0060459,-0.0061042,0.0021295,-0.43288,-0.022419,-9.835,0,0,45.346,1,1,755,999
2134,4.9594e+07,1,0.0059435,-0.0069404,0.0028185,-0.42564,-0.041664,-9.8404,0,0,45.346,1,1,755,999
2165,4.9596e+07,1,0.0029506,-0.0068323,0.0043818,-0.41162,-0.099495,-9.8183,0,0,45.346,1,1,755,999
2168,4.9598e+07,1,0.0021282,-0.0029937,0.0027366,-0.41257,-0.13378,-9.8174,0,0,45.346,1,1,755,999
2171,4.9601e+07,1,0.0020517,-0.00045922,0.00034076,-0.40466,-0.1735,-9.8193,0,0,45.346,1,1,755,999
2174,4.9604e+07,1,0.0030361,-0.0014194,-0.00082509,-0.394,-0.19596,-9.809,0,0,45.346,1,1,755,999
2205,4.9606e+07,1,0.0045724,-0.0013109,0.00024451,-0.37125,-0.2142,-9.7728,0,0,45.346,1,1,755,999
2209,4.9608e+07,1,0.0050035,0.00039357,0.0025767,-0.35538,-0.21141,-9.7357,0,0,45.346,1,1,755,999
2212,4.9611e+07,1,0.0023048,-6.2072e-05,0.002959,-0.34166,-0.19974,-9.7079,0,0,45.346,1,1,755,999
2216,4.9614e+07,1,0.00021292,-0.0014542,0.0018673,-0.33189,-0.16738,-9.6916,0,0,45.346,1,1,755,999
2247,4.9616e+07,1,-0.006315,-0.0033387,0.0013206,-0.34854,-0.13641,-9.6834,0,0,45.346,1,1,755,999
2250,4.9619e+07,1,-0.010546,-0.0035526,0.00039413,-0.3634,-0.1298,-9.6665,0,0,45.346,1,1,755,999
2253,4.9622e+07,1,-0.012195,-0.0032863,-0.0011203,-0.39499,-0.1289,-9.6559,0,0,45.346,1,1,755,999
2256,4.9626e+07,1,-0.010959,-0.0017965,-0.0092189,-0.43354,-0.11909,-9.6537,0,0,45.346,1,1,755,999
2288,4.9629e+07,1,-0.0054108,0.00072529,-0.0084077,-0.43168,-0.11906,-9.6632,0,0,45.346,1,1,755,999
2291,4.9633e+07,1,-0.0026554,0.004029,-0.0040578,-0.42793,-0.12316,-9.6701,0,0,45.346,1,1,755,999
2294,4.9634e+07,1,-0.0034043,0.00542,-0.00053006,-0.42759,-0.14168,-9.6524,0,0,45.346,1,1,755,999
2297,4.9637e+07,1,-0.0038485,0.0041589,0.0022643,-0.42247,-0.15446,-9.6378,0,0,45.346,1,1,755,999
2328,4.9639e+07,1,-0.003768,0.0020735,0.004573,-0.39209,-0.16619,-9.6412,0,0,45.346,1,1,755,999
2333,4.9642e+07,1,-0.0054983,0.004642,0.0019862,-0.36094,-0.15338,-9.6569,0,0,45.346,1,1,755,999
2336,4.9645e+07,1,-0.0067574,0.0068975,-0.00079062,-0.3467,-0.13137,-9.6722,0,0,45.346,1,1,755,999
2339,4.9647e+07,1,-0.0075855,0.0057386,-0.0027034,-0.33266,-0.1038,-9.6732,0,0,45.346,1,1,755,999
2370,4.965e+07,1,-0.0079182,0.0060394,-0.0033091,-0.32734,-0.080543,-9.6724,0,0,45.346,1,1,755,999
2373,4.9653e+07,1,-0.0066648,0.0077125,-0.0024024,-0.32573,-0.065972,-9.6819,0,0,45.346,1,1,755,999
2376,4.9655e+07,1,-0.0049305,0.0080772,0.00044291,-0.32753,-0.063588,-9.6858,0,0,45.346,1,1,755,999
2379,4.9657e+07,1,-0.0045846,0.0073478,0.0010076,-0.33516,-0.070628,-9.6836,0,0,45.346,1,1,755,999
2410,4.966e+07,1,-0.0035924,0.0056482,0.00014939,-0.34625,-0.093465,-9.6729,0,0,45.346,1,1,755,999
2414,4.9663e+07,1,-0.0030053,0.0057961,0.00069759,-0.36489,-0.10861,-9.6491,0,0,45.346,1,1,755,999
2417,4.9665e+07,1,-0.0015636,0.0065759,-0.00056432,-0.39832,-0.1188,-9.6174,0,0,45.346,1,1,755,999
2420,4.9668e+07,1,-0.0015431,0.0057744,-0.0036144,-0.40833,-0.12613,-9.6073,0,0,45.346,1,1,755,999
2451,4.967e+07,1,-0.00096355,0.0050842,-0.009053,-0.41097,-0.1388,-9.6028,0,0,45.346,1,1,755,999
2454,4.9673e+07,1,-0.0019982,0.0074655,-0.0092248,-0.40972,-0.15021,-9.6024,0,0,45.346,1,1,755,999
2457,4.9675e+07,1,-0.0025185,0.0076569,-0.0079264,-0.40421,-0.15932,-9.5919,0,0,45.346,1,1,755,999
2460,4.9678e+07,1,-0.0054885,0.0050613,-0.0045814,-0.40767,-0.15585,-9.5819,0,0,45.346,1,1,755,999
2491,4.9681e+07,1,-0.0082453,0.00074782,-0.004436,-0.41374,-0.13581,-9.5864,0,0,45.346,1,1,755,999
2495,4.9683e+07,1,-0.0076146,-0.00010698,-0.0056736,-0.42055,-0.11244,-9.5861,0,0,45.346,1,1,755,999
2499,4.9686e+07,1,-0.0068408,0.00063008,-0.0060689,-0.4157,-0.10347,-9.5754,0,0,45.346,1,1,755,999
2506,4.9688e+07,1,-0.0076216,0.0022396,-0.0055288,-0.40773,-0.10479,-9.5663,0,0,45.346,1,1,755,999
2537,4.969e+07,1,-0.0076765,0.0029585,-0.0048889,-0.39942,-0.12391,-9.5683,0,0,45.347,1,1,755,999
2541,4.9693e+07,1,-0.0049255,0.00051785,-0.001399,-0.39966,-0.14896,-9.5788,0,0,45.347,1,1,755,999
2544,4.9695e+07,1,-0.003219,-0.0013209,0.00041393,-0.39676,-0.18119,-9.5851,0,0,45.347,1,1,755,999
2547,4.9699e+07,1,0.0015524,-0.0028509,0.0019139,-0.39176,-0.19691,-9.5869,0,0,45.347,1,1,755,999
2578,4.9701e+07,1,0.0039286,0.0011727,-0.00059079,-0.38919,-0.18986,-9.6063,0,0,45.347,1,1,755,999
2581,4.9704e+07,1,0.0046588,0.002316,-0.0018722,-0.3924,-0.17463,-9.6174,0,0,45.347,1,1,755,999
2584,4.9706e+07,1,0.0061106,-0.0027835,-0.0008586,-0.39602,-0.15458,-9.6523,0,0,45.347,1,1,755,999
2587,4.9709e+07,1,0.0065148,-0.0048239,0.00031331,-0.39652,-0.16123,-9.6734,0,0,45.347,1,1,755,999
2618,4.9711e+07,1,0.0062488,-0.0084512,0.0029208,-0.41171,-0.16497,-9.7088,0,0,45.347,1,1,755,999
2622,4.9713e+07,1,0.0058325,-0.0078346,0.0037152,-0.41868,-0.15651,-9.7458,0,0,45.347,1,1,755,999
2625,4.9716e+07,1,0.0060415,-0.0034528,0.0031955,-0.42082,-0.14681,-9.7997,0,0,45.347,1,1,755,999
2629,4.9719e+07,1,0.0052025,0.00033218,0.00022106,-0.42315,-0.12733,-9.8272,0,0,45.347,1,1,755,999
2660,4.9721e+07,1,0.005272,0.0025169,-0.0022384,-0.40505,-0.097636,-9.8558,0,0,45.347,1,1,755,999
2663,4.9725e+07,1,0.0062265,0.0029039,-0.0038932,-0.38585,-0.079402,-9.8625,0,0,45.347,1,1,755,999
2666,4.9726e+07,1,0.0064371,0.0015533,-0.0041944,-0.36816,-0.058912,-9.8561,0,0,45.347,1,1,755,999
2669,4.9729e+07,1,0.0075922,0.00056897,-0.0020541,-0.36857,-0.049257,-9.8666,0,0,45.347,1,1,755,999
2700,4.9731e+07,1,0.0078189,0.00033361,0.0033253,-0.36692,-0.042541,-9.8695,0,0,45.347,1,1,755,999
2704,4.9737e+07,1,0.005824,0.00095399,0.0083987,-0.36706,-0.023387,-9.8702,0,0,45.347,1,1,755,999
2707,4.9739e+07,1,0.0034426,0.00039076,0.0051926,-0.38406,-0.025462,-9.8598,0,0,45.347,1,1,755,999
2738,4.9741e+07,1,0.0034121,-3.771e-05,0.0045537,-0.41548,-0.029891,-9.827,0,0,45.347,1,1,755,999
2741,4.9744e+07,1,0.0036331,-0.00032556,0.0026006,-0.43311,-0.026385,-9.7992,0,0,45.347,1,1,755,999
2744,4.9747e+07,1,0.0016489,0.0018835,-0.0012003,-0.43937,0.0051674,-9.7615,0,0,45.347,1,1,755,999
2747,4.9749e+07,1,-0.00095404,0.0037425,-0.0045116,-0.44332,0.018928,-9.7366,0,0,45.347,1,1,755,999
2778,4.9752e+07,1,-0.001264,0.003947,-0.0057934,-0.44866,0.02973,-9.704,0,0,45.347,1,1,755,999
2782,4.9754e+07,1,4.4388e-05,0.0046458,-0.0055723,-0.44622,0.04011,-9.6957,0,0,45.347,1,1,755,999
2785,4.9756e+07,1,0.0043581,0.00687,-0.0028986,-0.43361,0.054778,-9.6971,0,0,45.347,1,1,755,999
2788,4.9759e+07,1,0.0057938,0.00727,0.0034686,-0.4231,0.060228,-9.6988,0,0,45.347,1,1,755,999
2819,4.9762e+07,1,0.0058386,0.0070434,0.0038027,-0.41332,0.050408,-9.7081,0,0,45.347,1,1,755,999
2823,4.9764e+07,1,0.0045944,0.0037605,0.0026812,-0.41152,0.035881,-9.7111,0,0,45.347,1,1,755,999
2826,4.9766e+07,1,0.0016448,-0.00089691,0.0017226,-0.41532,-0.0091158,-9.7043,0,0,45.347,1,1,755,999
2830,4.9769e+07,1,0.00018967,-0.0022873,0.0014848,-0.42384,-0.046944,-9.6862,0,0,45.347,1,1,755,999
2861,4.9772e+07,1,0.0023275,-0.0021123,0.0025579,-0.42354,-0.057773,-9.6726,0,0,45.347,1,1,755,999
2864,4.9774e+07,1,0.0036963,-0.0018957,0.003676,-0.41929,-0.069427,-9.674,0,0,45.347,1,1,755,999
2867,4.9777e+07,1,0.0077927,-0.00065258,0.0044038,-0.41631,-0.089323,-9.6813,0,0,45.347,1,1,755,999
2870,4.9779e+07,1,0.007444,-0.0021046,0.00247,-0.41209,-0.091281,-9.686,0,0,45.347,1,1,755,999
2901,4.9781e+07,1,0.0066975,-0.0038686,0.0024829,-0.41331,-0.082299,-9.699,0,0,45.347,1,1,755,999
2905,4.9784e+07,1,0.0043108,-0.0078898,0.0032777,-0.40608,-0.076858,-9.716,0,0,45.347,1,1,755,999
2910,4.9787e+07,1,0.0012368,-0.007922,0.0021027,-0.39181,-0.073833,-9.7503,0,0,45.347,1,1,755,999
2917,4.9789e+07,1,-0.002535,-0.0047081,-0.0020497,-0.38611,-0.075118,-9.7463,0,0,45.347,1,1,755,999
2948,4.9792e+07,1,-0.00091469,-0.0019561,-0.0047478,-0.37977,-0.094616,-9.7343,0,0,45.347,1,1,755,999
2951,4.9795e+07,1,0.00021893,-0.00065925,-0.0036775,-0.38326,-0.10442,-9.7425,0,0,45.347,1,1,755,999
2954,4.9797e+07,1,-0.00011091,0.002022,-0.0022571,-0.38911,-0.10591,-9.7743,0,0,45.347,1,1,755,999
2958,4.9799e+07,1,-0.0018368,0.0019288,-0.0023932,-0.38916,-0.096956,-9.7983,0,0,45.347,1,1,755,999
2994,4.9803e+07,1,-0.0043708,-0.0011191,-0.0022395,-0.39363,-0.081715,-9.8425,0,0,45.347,1,1,755,999
2998,4.9804e+07,1,-0.006069,-0.0036002,-0.0022601,-0.3978,-0.071937,-9.8692,0,0,45.347,1,1,755,999
3001,4.9807e+07,1,-0.0066335,-0.0055069,-0.0014942,-0.41822,-0.057368,-9.8963,0,0,45.347,1,1,755,999
3004,4.981e+07,1,-0.0083817,-0.005988,-0.0015715,-0.43384,-0.051042,-9.8937,0,0,45.347,1,1,755,999
3035,4.9812e+07,1,-0.0095861,-0.0033641,-0.0066632,-0.44727,-0.042565,-9.8555,0,0,45.347,1,1,755,999
3038,4.9815e+07,1,-0.0063278,-0.0034508,-0.0077279,-0.45228,-0.035218,-9.8116,0,0,45.347,1,1,755,999
3041,4.9817e+07,1,0.00044728,-0.0095925,-0.0036634,-0.46071,-0.026492,-9.7352,0,0,45.347,1,1,755,999
3045,4.982e+07,1,0.0012531,-0.011359,-0.0024636,-0.46526,-0.012563,-9.6883,0,0,45.347,1,1,755,999
3076,4.9822e+07,1,0.00088677,-0.010338,-0.0015778,-0.46363,0.010999,-9.6191,0,0,45.347,1,1,755,999
3080,4.9824e+07,1,-0.0022635,-0.0069436,-0.0024781,-0.45703,0.017228,-9.5863,0,0,45.347,1,1,755,999
3083,4.9828e+07,1,-0.0048039,-0.0021046,-0.0023182,-0.44909,0.0067235,-9.5817,0,0,45.347,1,1,755,999
3086,4.9829e+07,1,-0.0040739,0.0044366,-0.00032592,-0.44098,-0.0039258,-9.6073,0,0,45.347,1,1,755,999
3117,4.9835e+07,1,-0.0020721,0.0064594,-0.0018589,-0.42922,-0.023315,-9.7268,0,0,45.347,1,1,755,999
3120,4.9837e+07,1,0.0001602,0.003839,-0.0040195,-0.42195,-0.027233,-9.7414,0,0,45.347,1,1,755,999
3123,4.9841e+07,1,0.0026957,0.002554,-0.0015837,-0.41613,-0.035055,-9.7541,0,0,45.347,1,1,755,999
3154,4.9843e+07,1,0.0020608,0.001415,0.0023135,-0.42377,-0.040589,-9.7566,0,0,45.347,1,1,755,999
3157,4.9846e+07,1,0.00038713,-0.00085948,0.0035478,-0.43783,-0.04071,-9.7649,0,0,45.347,1,1,755,999
3161,4.9848e+07,1,0.00063849,-0.0042873,0.0015259,-0.45435,-0.055653,-9.7767,0,0,45.347,1,1,755,999
3164,4.9851e+07,1,0.00099837,-0.0063335,-0.00053304,-0.457,-0.071427,-9.781,0,0,45.347,1,1,755,999
3195,4.9854e+07,1,0.0028281,-0.0073574,-0.0039944,-0.45681,-0.086238,-9.7933,0,0,45.347,1,1,755,999
3198,4.9857e+07,1,0.002408,-0.0023187,-0.0040746,-0.46423,-0.074782,-9.8121,0,0,45.347,1,1,755,999
3202,4.9859e+07,1,0.00093811,0.0025062,-0.0064155,-0.45697,-0.068444,-9.8168,0,0,45.347,1,1,755,999
3206,4.9861e+07,1,-0.00012773,0.0031853,-0.0052905,-0.448,-0.052783,-9.8244,0,0,45.347,1,1,755,999
3237,4.9864e+07,1,-0.00070284,0.0034262,-0.0031021,-0.43412,-0.041501,-9.8312,0,0,45.347,1,1,755,999
3240,4.9866e+07,1,-0.0010632,0.0052547,0.0059018,-0.42669,-0.036049,-9.8537,0,0,45.347,1,1,755,999
3244,4.9869e+07,1,-5.4231e-05,0.0052662,0.0084333,-0.42659,-0.040298,-9.8649,0,0,45.347,1,1,755,999
3247,4.9871e+07,1,0.0028853,0.0042434,0.010009,-0.42261,-0.067257,-9.8743,0,0,45.347,1,1,755,999
3278,4.9874e+07,1,0.0068235,0.0012852,0.0077732,-0.42083,-0.076175,-9.8656,0,0,45.347,1,1,755,999
3281,4.9876e+07,1,0.010107,-0.0032023,0.0082961,-0.41139,-0.085312,-9.8539,0,0,45.347,1,1,755,999
3284,4.9879e+07,1,0.010271,-0.0066116,0.0079395,-0.40492,-0.083124,-9.8583,0,0,45.347,1,1,755,999
3288,4.9881e+07,1,0.0087477,-0.0069144,0.0052425,-0.40038,-0.084184,-9.8439,0,0,45.347,1,1,755,999
3319,4.9883e+07,1,0.0082806,-0.0063625,0.0046991,-0.39738,-0.086911,-9.8153,0,0,45.347,1,1,755,999
3322,4.9886e+07,1,0.006944,-0.005104,0.0045394,-0.39659,-0.099127,-9.7826,0,0,45.347,1,1,755,999
3329,4.9889e+07,1,0.0065905,-0.0047206,0.0050485,-0.39779,-0.10792,-9.7806,0,0,45.347,1,1,755,999
3336,4.9892e+07,1,0.0066607,-0.0034982,0.0046127,-0.40806,-0.099089,-9.7979,0,0,45.347,1,1,755,999
3367,4.9894e+07,1,0.0070187,1.9486e-05,0.0028255,-0.42541,-0.078665,-9.807,0,0,45.347,1,1,755,999
3370,4.9897e+07,1,0.0068494,0.00063003,0.0023685,-0.43175,-0.062457,-9.807,0,0,45.347,1,1,755,999
3373,4.9899e+07,1,0.002605,0.0033463,3.9073e-05,-0.43414,-0.041283,-9.7954,0,0,45.347,1,1,755,999
3376,4.9902e+07,1,0.0015092,0.0046902,-7.1164e-05,-0.43232,-0.02596,-9.7974,0,0,45.347,1,1,755,999
3407,4.9905e+07,1,0.0012414,0.0049018,0.00054487,-0.42114,-0.0029545,-9.7981,0,0,45.347,1,1,755,999
3410,4.9907e+07,1,0.0041601,0.002947,-0.00087208,-0.4192,0.0022724,-9.7891,0,0,45.347,1,1,755,999
3414,4.991e+07,1,0.0043625,0.0017825,-0.0008574,-0.4238,0.0034441,-9.7887,0,0,45.347,1,1,755,999
3417,4.9912e+07,1,0.0039019,-0.0013898,-0.0013053,-0.43484,0.0049359,-9.7895,0,0,45.347,1,1,755,999
3448,4.9915e+07,1,0.0043103,-0.0028697,-0.0038585,-0.42406,0.013272,-9.7658,0,0,45.347,1,1,755,999
3451,4.9918e+07,1,0.0051141,-0.003256,-0.0035501,-0.41257,0.023246,-9.7443,0,0,45.347,1,1,755,999
3454,4.992e+07,1,0.0069982,-0.0032119,-0.0013623,-0.40539,0.034519,-9.7324,0,0,45.347,1,1,755,999
3457,4.9923e+07,1,0.0064207,-0.0046476,0.0020142,-0.39549,0.043402,-9.742,0,0,45.347,1,1,755,999
3488,4.9925e+07,1,0.0045597,-0.0052929,0.003804,-0.37969,0.032246,-9.7529,0,0,45.347,1,1,755,999
3491,4.9928e+07,1,0.0029982,-0.0034099,0.0043413,-0.36072,0.023877,-9.7547,0,0,45.347,1,1,755,999
3494,4.993e+07,1,0.00081332,-0.0033724,0.0049061,-0.34055,0.0029592,-9.7497,0,0,45.347,1,1,755,999
3498,4.9932e+07,1,3.9394e-05,-0.0035432,0.0055668,-0.33432,-0.0027963,-9.7346,0,0,45.347,1,1,755,999
3529,4.9935e+07,1,-0.0019269,-0.0030104,0.0068375,-0.33605,-0.005908,-9.7127,0,0,45.347,1,1,755,999
3532,4.9937e+07,1,-0.0052082,-0.003253,0.0049713,-0.35464,-0.0081738,-9.6865,0,0,45.347,1,1,755,999
3536,4.994e+07,1,-0.0058121,-0.0022384,0.0020514,-0.35958,-0.011097,-9.6651,0,0,45.347,1,1,755,999
3540,4.9942e+07,1,-0.0037267,-0.0027961,-7.1942e-05,-0.36794,-0.027577,-9.6443,0,0,45.347,1,1,755,999
3571,4.9946e+07,1,-0.00090668,-0.0049566,-0.0014246,-0.37651,-0.04262,-9.64,0,0,45.347,1,1,755,999
3574,4.9948e+07,1,0.00044307,-0.0056548,-0.0015221,-0.3934,-0.070503,-9.6457,0,0,45.347,1,1,755,999
3577,4.995e+07,1,0.00020325,-0.0067411,-0.00053193,-0.39864,-0.09204,-9.6626,0,0,45.347,1,1,755,999
3580,4.9953e+07,1,-0.0017889,-0.0092953,-0.00064752,-0.40472,-0.12455,-9.6893,0,0,45.347,1,1,755,999
3611,4.9956e+07,1,-0.0050767,-0.0042833,-0.0034205,-0.40773,-0.14866,-9.7304,0,0,45.347,1,1,755,999
3614,4.9958e+07,1,-0.0060562,-0.00068788,-0.0050928,-0.41431,-0.15121,-9.7482,0,0,45.347,1,1,755,999
3617,4.996e+07,1,-0.0056026,0.0035254,-0.0075958,-0.42397,-0.14849,-9.7689,0,0,45.347,1,1,755,999
3621,4.9963e+07,1,-0.0048924,0.0027794,-0.0082995,-0.42042,-0.14655,-9.768,0,0,45.347,1,1,755,999
3652,4.9965e+07,1,-0.0030694,0.0005268,-0.0086878,-0.40118,-0.13495,-9.7356,0,0,45.347,1,1,755,999
3656,4.9968e+07,1,-0.0014923,0.0010262,-0.0060263,-0.39066,-0.13142,-9.7167,0,0,45.347,1,1,755,999
3659,4.997e+07,1,-0.00086208,0.0022245,-0.0025367,-0.38122,-0.1222,-9.7268,0,0,45.347,1,1,755,999
3662,4.9973e+07,1,-0.0017179,0.0030282,-0.0030113,-0.36369,-0.10732,-9.7396,0,0,45.347,1,1,755,999
3693,4.9975e+07,1,-0.0029162,0.0058854,-0.0039614,-0.33482,-0.083543,-9.7265,0,0,45.347,1,1,755,999
3696,4.9978e+07,1,-0.0031815,0.008739,-0.0043483,-0.31755,-0.069928,-9.7064,0,0,45.347,1,1,755,999
3699,4.998e+07,1,-0.0028708,0.0084218,-0.0032208,-0.30941,-0.060876,-9.6787,0,0,45.347,1,1,755,999
3704,4.9983e+07,1,-0.0022639,0.0070437,-0.0027501,-0.31425,-0.058319,-9.6681,0,0,45.347,1,1,755,999
3735,4.9985e+07,1,-0.0012176,0.0034127,-0.0015049,-0.3169,-0.049731,-9.6663,0,0,45.347,1,1,755,999
3738,4.9987e+07,1,-0.0020729,0.0037136,-0.00037787,-0.31233,-0.046786,-9.6613,0,0,45.347,1,1,755,999
3743,4.9991e+07,1,-0.0043611,0.0040283,0.0012848,-0.32525,-0.043046,-9.6632,0,0,45.347,1,1,755,999
3751,4.9993e+07,1,-0.0032573,0.0025788,0.0026943,-0.34572,-0.02825,-9.6691,0,0,45.347,1,1,755,999
3782,4.9996e+07,1,0.0001932,0.00041835,0.0049651,-0.37412,-0.025019,-9.6779,0,0,45.347,1,1,755,999
3785,4.9998e+07,1,0.0015718,-0.0027911,0.0068059,-0.39208,-0.045953,-9.6864,0,0,45.348,1,1,755,999
3788,5.0001e+07,1,-0.00052056,-0.004346,0.0081158,-0.40095,-0.075386,-9.6828,0,0,45.348,1,1,755,999
3791,5.0003e+07,1,-0.0045873,-0.0052587,0.0081133,-0.40416,-0.10961,-9.6537,0,0,45.348,1,1,755,999
3822,5.0006e+07,1,-0.0066607,-0.0053583,0.0054578,-0.40127,-0.13016,-9.6399,0,0,45.348,1,1,755,999
3825,5.0008e+07,1,-0.0034037,-0.0042376,0.0019131,-0.38737,-0.15969,-9.6368,0,0,45.348,1,1,755,999
3828,5.0011e+07,1,-0.0017539,-0.0034356,0.0003734,-0.37329,-0.16888,-9.6418,0,0,45.348,1,1,755,999
3832,5.0013e+07,1,-0.00085532,-0.00015156,-0.0015861,-0.36264,-0.17019,-9.6661,0,0,45.348,1,1,755,999
3863,5.0016e+07,1,-0.0015511,0.0034157,-0.00059815,-0.36359,-0.16962,-9.6895,0,0,45.348,1,1,755,999
3866,5.0019e+07,1,-0.00088546,0.005065,6.3303e-05,-0.36887,-0.17637,-9.6902,0,0,45.348,1,1,755,999
3869,5.0021e+07,1,-0.00011652,0.0079579,0.0013244,-0.37654,-0.18415,-9.6768,0,0,45.348,1,1,755,999
3872,5.0023e+07,1,-0.0005879,0.01068,0.0016026,-0.39103,-0.19813,-9.6621,0,0,45.348,1,1,755,999
3903,5.0026e+07,1,-0.0039286,0.01045,0.00060376,-0.40354,-0.21209,-9.6671,0,0,45.348,1,1,755,999
3906,5.0029e+07,1,-0.0063883,0.0069042,-0.0026252,-0.41719,-0.22534,-9.6824,0,0,45.348,1,1,755,999
3909,5.0031e+07,1,-0.0051674,0.0025286,-0.005817,-0.42364,-0.22454,-9.6955,0,0,45.348,1,1,755,999
3913,5.0033e+07,1,-0.0031139,-0.00095096,-0.0064012,-0.43614,-0.21558,-9.7064,0,0,45.348,1,1,755,999
3944,5.0036e+07,1,-0.0014239,-0.0033333,-0.006487,-0.44849,-0.20666,-9.7018,0,0,45.348,1,1,755,999
3947,5.0038e+07,1,0.0038493,-0.0080743,-0.0073003,-0.45499,-0.19778,-9.7003,0,0,45.348,1,1,755,999
3950,5.0045e+07,1,0.0044007,-0.0047508,-0.0051178,-0.4375,-0.19033,-9.7458,0,0,45.348,1,1,755,999
3953,5.0046e+07,1,0.0029706,-0.0025913,0.0035326,-0.43675,-0.17362,-9.7989,0,0,45.348,1,1,755,999
3984,5.0049e+07,1,0.0029287,-0.0026236,0.0063881,-0.44558,-0.15549,-9.8339,0,0,45.348,1,1,755,999
3987,5.0051e+07,1,0.0032252,-0.0015172,0.0096043,-0.45569,-0.14018,-9.8659,0,0,45.348,1,1,755,999
3990,5.0054e+07,1,0.0023095,0.0010736,0.0098308,-0.46201,-0.13123,-9.8669,0,0,45.348,1,1,755,999
3994,5.0057e+07,1,0.00095766,0.0039621,0.0059169,-0.46524,-0.13179,-9.8768,0,0,45.348,1,1,755,999
4025,5.0059e+07,1,-0.00046593,0.0058757,0.0010619,-0.46029,-0.1391,-9.8782,0,0,45.348,1,1,755,999
4028,5.0062e+07,1,-0.0013827,0.0076016,-0.0026154,-0.45007,-0.14468,-9.8696,0,0,45.348,1,1,755,999
4031,5.0064e+07,1,-0.00034897,0.0066587,-0.0055253,-0.44515,-0.14149,-9.8379,0,0,45.348,1,1,755,999
4035,5.0067e+07,1,0.00078118,0.0050424,-0.0070504,-0.44537,-0.12972,-9.8107,0,0,45.348,1,1,755,999
4066,5.007e+07,1,0.0035334,0.0036631,-0.004001,-0.44599,-0.11457,-9.7795,0,0,45.348,1,1,755,999
4069,5.0072e+07,1,0.0056322,0.0020176,0.00024228,-0.44221,-0.088332,-9.7782,0,0,45.348,1,1,755,999
4073,5.0075e+07,1,0.004774,0.0014721,0.0046087,-0.43653,-0.078256,-9.7819,0,0,45.348,1,1,755,999
4076,5.0077e+07,1,0.0041358,0.00096919,0.0069216,-0.42074,-0.067777,-9.7874,0,0,45.348,1,1,755,999
4107,5.008e+07,1,0.003046,3.006e-06,0.0066627,-0.41416,-0.058933,-9.7733,0,0,45.348,1,1,755,999
4110,5.0082e+07,1,0.00096607,-0.0019009,0.0058979,-0.4082,-0.037186,-9.744,0,0,45.348,1,1,755,999
4114,5.0085e+07,1,0.0006175,-0.0032168,0.0052421,-0.40923,-0.026935,-9.724,0,0,45.348,1,1,755,999
4118,5.0087e+07,1,0.00097748,-0.0086302,0.0026767,-0.41079,-0.024065,-9.7029,0,0,45.348,1,1,755,999
4149,5.009e+07,1,0.0011854,-0.008429,0.002166,-0.41291,-0.030815,-9.6938,0,0,45.348,1,1,755,999
4152,5.0093e+07,1,0.001812,-0.0052499,0.0024947,-0.42093,-0.058225,-9.6941,0,0,45.348,1,1,755,999
4159,5.0095e+07,1,0.0032489,-0.0045623,0.0049265,-0.42582,-0.059278,-9.6995,0,0,45.348,1,1,755,999
4164,5.0097e+07,1,0.0046988,-0.0074744,0.0046184,-0.43046,-0.044307,-9.7,0,0,45.348,1,1,755,999
4195,5.01e+07,1,0.0039498,-0.0087295,0.0044493,-0.4342,-0.041944,-9.7141,0,0,45.348,1,1,755,999
4198,5.0102e+07,1,0.0033237,-0.0072281,0.0040833,-0.43919,-0.052531,-9.7306,0,0,45.348,1,1,755,999
4201,5.0105e+07,1,0.0019358,-0.0058747,0.0030359,-0.44655,-0.061751,-9.745,0,0,45.348,1,1,755,999
4205,5.0108e+07,1,-0.0042993,-0.00037759,-0.0014459,-0.45858,-0.06846,-9.7592,0,0,45.348,1,1,755,999
4236,5.011e+07,1,-0.0038837,0.00082659,-0.0025497,-0.44969,-0.059339,-9.768,0,0,45.348,1,1,755,999
4239,5.0113e+07,1,-0.0028062,0.00068611,-0.0021577,-0.44555,-0.051289,-9.7667,0,0,45.348,1,1,755,999
4242,5.0115e+07,1,-0.00010978,-0.00069043,-0.0021194,-0.44397,-0.032554,-9.756,0,0,45.348,1,1,755,999
4246,5.0118e+07,1,0.00022107,-0.0015342,-0.0020177,-0.44185,-0.024064,-9.7435,0,0,45.348,1,1,755,999
4277,5.0121e+07,1,0.0001062,-0.0037871,-0.0027314,-0.42531,-0.017125,-9.7483,0,0,45.348,1,1,755,999
4280,5.0123e+07,1,-0.0026229,-0.0036344,-0.0040292,-0.40496,-0.022362,-9.7645,0,0,45.348,1,1,755,999
4283,5.0125e+07,1,-0.0051618,-0.0033058,-0.0043938,-0.39171,-0.025467,-9.7653,0,0,45.348,1,1,755,999
4286,5.0128e+07,1,-0.0090002,-0.0034668,-0.0056697,-0.38275,-0.035941,-9.7669,0,0,45.348,1,1,755,999
4317,5.0131e+07,1,-0.0093254,-0.0030543,-0.0059926,-0.38448,-0.046752,-9.7523,0,0,45.348,1,1,755,999
4321,5.0134e+07,1,-0.0074964,-0.0015365,-0.004478,-0.38906,-0.06865,-9.7027,0,0,45.348,1,1,755,999
4324,5.0135e+07,1,-0.0042015,0.0003832,-0.0032984,-0.38959,-0.075197,-9.6846,0,0,45.348,1,1,755,999
4328,5.0138e+07,1,-0.001433,0.001164,-0.0065375,-0.38621,-0.080715,-9.6953,0,0,45.348,1,1,755,999
4359,5.0144e+07,1,-0.00011643,0.0010049,-0.0065223,-0.38661,-0.065155,-9.7487,0,0,45.349,1,1,755,999
4362,5.0145e+07,1,-0.0014385,0.0013077,-0.0039133,-0.38407,-0.035774,-9.7605,0,0,45.349,1,1,755,999
4365,5.0148e+07,1,-0.0036411,-0.0010163,0.0057238,-0.38098,-0.010883,-9.7822,0,0,45.349,1,1,755,999
4396,5.015e+07,1,-0.0037054,-0.0020691,0.007104,-0.3793,-0.0023371,-9.8161,0,0,45.349,1,1,755,999
4399,5.0154e+07,1,-0.0037575,-0.0030814,0.0044258,-0.38663,-0.0041929,-9.8186,0,0,45.349,1,1,755,999
4402,5.0156e+07,1,-0.00303,-0.0046944,-0.0010333,-0.38779,-0.0073381,-9.8122,0,0,45.349,1,1,755,999
4406,5.0158e+07,1,-0.00088314,-0.0086524,-0.00453,-0.38504,-0.021842,-9.7902,0,0,45.349,1,1,755,999
4437,5.016e+07,1,0.00028874,-0.010596,-0.0045405,-0.37239,-0.033088,-9.7651,0,0,45.349,1,1,755,999
4440,5.0163e+07,1,0.0016371,-0.0097377,-0.0035928,-0.35937,-0.045656,-9.7342,0,0,45.349,1,1,755,999
4443,5.0166e+07,1,0.0018503,-0.0084844,-0.0029558,-0.35138,-0.050539,-9.7324,0,0,45.349,1,1,755,999
4446,5.0168e+07,1,0.0013954,-0.0064095,-0.0030404,-0.34612,-0.065972,-9.7446,0,0,45.349,1,1,755,999
4477,5.017e+07,1,0.0016524,-0.0046985,-0.0029405,-0.35292,-0.071841,-9.7542,0,0,45.349,1,1,755,999
4480,5.0173e+07,1,0.00097655,-0.001099,-0.0033706,-0.34676,-0.071065,-9.7837,0,0,45.349,1,1,755,999
4483,5.0176e+07,1,0.00097169,-0.00063547,-0.0025844,-0.34258,-0.059967,-9.8078,0,0,45.349,1,1,755,999
4487,5.0178e+07,1,-0.00070008,-0.00069439,-0.00033013,-0.33951,-0.043042,-9.8442,0,0,45.349,1,1,755,999
4518,5.0181e+07,1,-0.0023158,-0.0026964,0.0018908,-0.33241,-0.031564,-9.8459,0,0,45.349,1,1,755,999
4521,5.0183e+07,1,-0.00088998,-0.0035238,0.0028314,-0.33731,-0.018983,-9.8183,0,0,45.349,1,1,755,999
4525,5.0185e+07,1,0.0023821,-0.0032123,0.0023672,-0.34187,-0.0047344,-9.7909,0,0,45.349,1,1,755,999
4528,5.0188e+07,1,0.0039197,-0.0032697,0.0010426,-0.33846,0.0077936,-9.7505,0,0,45.349,1,1,755,999
4559,5.0191e+07,1,0.0042282,-0.0038146,5.7885e-05,-0.33458,0.0055605,-9.7218,0,0,45.349,1,1,755,999
4562,5.0193e+07,1,0.0075505,-0.0055654,-0.00159,-0.35002,-0.0094182,-9.7009,0,0,45.349,1,1,755,999
4571,5.0196e+07,1,0.0080948,-0.0056674,-0.001984,-0.36892,-0.022066,-9.6969,0,0,45.349,1,1,755,999
4575,5.0198e+07,1,0.0089894,-0.0038517,-0.002057,-0.38374,-0.040979,-9.6945,0,0,45.349,1,1,755,999
4606,5.0201e+07,1,0.0087342,-0.0040037,-0.0017699,-0.39219,-0.069536,-9.7127,0,0,45.349,1,1,755,999
4609,5.0203e+07,1,0.0061234,-0.0058374,-0.001711,-0.38913,-0.077461,-9.7349,0,0,45.349,1,1,755,999
4612,5.0206e+07,1,0.002652,-0.007132,-0.0027045,-0.38411,-0.069432,-9.7544,0,0,45.349,1,1,755,999
4616,5.0208e+07,1,-0.00071715,-0.0076735,-0.0031193,-0.37116,-0.053708,-9.7801,0,0,45.349,1,1,755,999
4647,5.021e+07,1,-0.002173,-0.0066724,-0.0049966,-0.36445,-0.035923,-9.7877,0,0,45.349,1,1,755,999
4650,5.0213e+07,1,-0.0014831,-0.0048384,-0.005678,-0.37033,-0.018632,-9.7899,0,0,45.349,1,1,755,999
4653,5.0215e+07,1,-0.0014639,-0.0038937,-0.0053504,-0.38581,-0.0048014,-9.7909,0,0,45.349,1,1,755,999
4656,5.0218e+07,1,-0.0016205,0.001687,-0.0028251,-0.40018,0.0040038,-9.8036,0,0,45.349,1,1,755,999
4687,5.0221e+07,1,-0.0015995,0.0026281,-0.0017497,-0.40638,0.0098607,-9.8152,0,0,45.349,1,1,755,999
4690,5.0223e+07,1,-0.001325,0.0021122,-0.0017207,-0.40463,0.0046891,-9.815,0,0,45.349,1,1,755,999
4693,5.0226e+07,1,-0.00024527,0.0036415,-0.0022814,-0.40748,-0.012707,-9.8086,0,0,45.349,1,1,755,999
4697,5.0228e+07,1,0.0015796,0.0065166,-0.00086419,-0.40133,-0.03649,-9.8055,0,0,45.35,1,1,755,999
4728,5.0231e+07,1,0.0030628,0.0066299,0.00033512,-0.39714,-0.042909,-9.8045,0,0,45.35,1,1,755,999
4731,5.0233e+07,1,0.0027363,0.0046336,0.0022392,-0.40834,-0.045419,-9.7949,0,0,45.35,1,1,755,999
4734,5.0235e+07,1,0.0025658,0.0032217,0.0029864,-0.41507,-0.047427,-9.7904,0,0,45.35,1,1,755,999
4737,5.024e+07,1,0.0007604,-0.0060692,0.003669,-0.41164,-0.056618,-9.7799,0,0,45.35,1,1,755,999
4768,5.0244e+07,1,0.0033658,-0.0041216,0.00083327,-0.39869,-0.055722,-9.7771,0,0,45.35,1,1,755,999
4771,5.0245e+07,1,0.0055197,-0.0026714,0.00033089,-0.39403,-0.061846,-9.7844,0,0,45.35,1,1,755,999
4775,5.0248e+07,1,0.0086186,-0.00085621,-0.00078745,-0.39001,-0.056981,-9.7975,0,0,45.35,1,1,755,999
4778,5.0251e+07,1,0.0082789,0.0011048,-0.0013425,-0.38638,-0.0502,-9.7987,0,0,45.35,1,1,755,999
4809,5.0253e+07,1,0.0046367,0.002393,-7.756e-05,-0.37904,-0.047686,-9.7877,0,0,45.35,1,1,755,999
4812,5.0256e+07,1,0.00094749,0.0010972,-0.00072436,-0.37881,-0.057313,-9.7857,0,0,45.35,1,1,755,999
4815,5.0258e+07,1,-0.0032852,-0.00024985,-0.0013213,-0.3726,-0.068909,-9.7945,0,0,45.35,1,1,755,999
4818,5.0261e+07,1,-0.0060124,-0.0022558,-0.0029338,-0.36129,-0.077406,-9.7986,0,0,45.35,1,1,755,999
4849,5.0264e+07,1,-0.0060428,-0.001133,-0.0059339,-0.35565,-0.086514,-9.821,0,0,45.35,1,1,755,999
4853,5.0267e+07,1,-0.0047604,0.00094692,-0.005109,-0.35609,-0.091033,-9.8542,0,0,45.35,1,1,755,999
4857,5.0269e+07,1,-0.0035991,0.0010516,-0.0040655,-0.35723,-0.085109,-9.8647,0,0,45.35,1,1,755,999
4860,5.0271e+07,1,-0.00069814,0.0018361,-0.00059201,-0.37634,-0.078628,-9.8544,0,0,45.35,1,1,755,999
4891,5.0274e+07,1,-0.0004265,0.0016629,0.0012137,-0.38997,-0.068779,-9.8473,0,0,45.35,1,1,755,999
4894,5.0276e+07,1,0.00029714,0.0011812,0.0032106,-0.39502,-0.049242,-9.8351,0,0,45.35,1,1,755,999
4898,5.0279e+07,1,0.0018033,0.0017265,0.0024994,-0.40506,-0.038612,-9.8285,0,0,45.35,1,1,755,999
4901,5.0282e+07,1,0.0024871,0.0019526,0.0027136,-0.42387,-0.02164,-9.8019,0,0,45.35,1,1,755,999
4932,5.0284e+07,1,-0.0018145,0.00017216,0.0014902,-0.4378,0.0024816,-9.7592,0,0,45.351,1,1,755,999
4937,5.0287e+07,1,-0.0034323,-0.0015748,0.00044843,-0.44881,0.0032106,-9.721,0,0,45.351,1,1,755,999
4940,5.0289e+07,1,-0.0034582,-0.0015719,-0.0018372,-0.4735,-0.0090886,-9.6883,0,0,45.351,1,1,755,999
4943,5.0292e+07,1,-0.00040716,0.0027326,-0.0028126,-0.4757,-0.016725,-9.6786,0,0,45.351,1,1,755,999
4976,5.0294e+07,1,0.002801,0.0033172,-0.0020958,-0.44853,-0.025369,-9.667,0,0,45.351,1,1,755,999
4983,5.0298e+07,1,0.0030398,-0.00071907,-0.0012584,-0.41662,-0.033762,-9.6749,0,0,45.351,1,1,755,999
4986,5.0299e+07,1,0.0020357,-0.0035761,-0.0019692,-0.39796,-0.034857,-9.6873,0,0,45.351,1,1,755,999
4989,5.0302e+07,1,0.0014977,-0.0035886,-0.0038942,-0.36444,-0.056644,-9.696,0,0,45.351,1,1,755,999
5020,5.0305e+07,1,0.0027864,-0.0028392,-0.005709,-0.33432,-0.080977,-9.6975,0,0,45.351,1,1,755,999
5023,5.0307e+07,1,0.003469,-0.0024031,-0.006214,-0.31975,-0.09863,-9.6926,0,0,45.351,1,1,755,999
5026,5.031e+07,1,0.0023126,-0.0016966,-0.006682,-0.30253,-0.11893,-9.6864,0,0,45.351,1,1,755,999
5029,5.0313e+07,1,0.0012884,0.0028149,-0.0052356,-0.29451,-0.12572,-9.6834,0,0,45.351,1,1,755,999
5060,5.0315e+07,1,-0.00020294,0.0039147,-0.0036201,-0.29982,-0.1291,-9.6903,0,0,45.351,1,1,755,999
5065,5.0317e+07,1,-0.0006688,0.0034455,-0.0029717,-0.31014,-0.13291,-9.7015,0,0,45.351,1,1,755,999
5069,5.032e+07,1,-0.0036435,0.0013361,-0.00076782,-0.31471,-0.14284,-9.7265,0,0,45.351,1,1,755,999
5072,5.0323e+07,1,-0.0046145,0.00064799,0.00080179,-0.31485,-0.14731,-9.739,0,0,45.351,1,1,755,999
5103,5.0325e+07,1,-0.0055069,-0.0019474,-0.0011013,-0.31321,-0.14595,-9.7446,0,0,45.351,1,1,755,999
5106,5.0328e+07,1,-0.0055281,-0.0035974,-0.0032899,-0.32259,-0.13922,-9.7379,0,0,45.351,1,1,755,999
5110,5.033e+07,1,-0.0070248,-0.0044406,-0.0061451,-0.34972,-0.13072,-9.7288,0,0,45.351,1,1,755,999
5113,5.0335e+07,1,-0.0057325,-0.0010693,0.002434,-0.41377,-0.095585,-9.7009,0,0,45.351,1,1,755,999
5144,5.0338e+07,1,-0.0065035,-0.0008828,0.0047401,-0.42769,-0.075771,-9.6629,0,0,45.352,1,1,755,999
5148,5.034e+07,1,-0.0067889,-0.00071008,0.0046707,-0.43511,-0.066801,-9.6466,0,0,45.352,1,1,755,999
5151,5.0343e+07,1,-0.005757,-0.00025806,0.0043588,-0.44156,-0.065145,-9.6374,0,0,45.352,1,1,755,999
5154,5.0346e+07,1,-0.0024878,-0.00047046,0.0043495,-0.44598,-0.072458,-9.6125,0,0,45.352,1,1,755,999
5185,5.0348e+07,1,-1.626e-05,-0.0027042,0.0040279,-0.43408,-0.097886,-9.5776,0,0,45.352,1,1,755,999
5189,5.0353e+07,1,0.0025016,-0.0052821,0.0059252,-0.38374,-0.10419,-9.5794,0,0,45.352,1,1,755,999
5192,5.0356e+07,1,0.0023757,-0.005299,0.0051972,-0.37493,-0.097028,-9.5842,0,0,45.352,1,1,755,999
5223,5.0359e+07,1,0.0029352,-0.0056551,0.0034305,-0.36755,-0.070662,-9.6035,0,0,45.352,1,1,755,999
5226,5.0361e+07,1,0.004089,-0.0055346,0.0019856,-0.36923,-0.044288,-9.6252,0,0,45.352,1,1,755,999
5229,5.0363e+07,1,0.0044965,-0.0038015,0.00083585,-0.38546,-0.010939,-9.6419,0,0,45.352,1,1,755,999
5232,5.0366e+07,1,0.0027517,-0.0066371,0.001445,-0.39968,0.0065376,-9.655,0,0,45.352,1,1,755,999
5263,5.0368e+07,1,0.0013725,-0.00955,0.0022221,-0.42174,0.0045275,-9.6936,0,0,45.352,1,1,755,999
5267,5.0371e+07,1,-6.1352e-06,-0.0068733,0.0019825,-0.43097,-0.010425,-9.7048,0,0,45.352,1,1,755,999
5270,5.0374e+07,1,-0.0012601,-0.0037199,-0.00047897,-0.44144,-0.024196,-9.6977,0,0,45.352,1,1,755,999
5273,5.0376e+07,1,-0.00091622,-0.0019307,-0.0021317,-0.4535,-0.024839,-9.6894,0,0,45.352,1,1,755,999
5306,5.0379e+07,1,0.002689,0.0010039,-0.0029426,-0.45006,-0.018365,-9.6872,0,0,45.352,1,1,755,999
5309,5.0381e+07,1,0.0054054,0.00081983,-0.0014529,-0.42781,-0.026246,-9.6894,0,0,45.353,1,1,755,999
5312,5.0384e+07,1,0.0065912,0.00071472,-0.00058056,-0.4064,-0.033433,-9.6953,0,0,45.353,1,1,755,999
5316,5.0386e+07,1,0.0085087,-0.00060274,0.00042083,-0.38876,-0.035424,-9.6954,0,0,45.353,1,1,755,999
5347,5.0388e+07,1,0.0085699,-0.0013022,0.00095236,-0.36677,-0.043781,-9.6834,0,0,45.353,1,1,755,999
5351,5.0391e+07,1,0.0070247,-0.0025916,0.0011821,-0.35845,-0.047967,-9.6837,0,0,45.353,1,1,755,999
5354,5.0393e+07,1,0.0033118,-0.0047589,-0.00014343,-0.35403,-0.06438,-9.6935,0,0,45.353,1,1,755,999
5357,5.0396e+07,1,0.0006569,-0.0055526,-0.0018947,-0.35749,-0.079111,-9.696,0,0,45.353,1,1,755,999
5392,5.0399e+07,1,-0.0034151,-0.0037747,-0.0062453,-0.37404,-0.092195,-9.7013,0,0,45.353,1,1,755,999
5395,5.0401e+07,1,-0.0033387,-0.0020581,-0.0063859,-0.38281,-0.09791,-9.7063,0,0,45.353,1,1,755,999
5399,5.0404e+07,1,-0.003109,-0.0009926,-0.0069982,-0.38759,-0.098343,-9.7096,0,0,45.353,1,1,755,999
5402,5.0407e+07,1,-0.0022666,-0.00013928,-0.0093135,-0.38365,-0.094941,-9.7132,0,0,45.353,1,1,755,999
5433,5.0409e+07,1,-0.00058407,-0.0022009,-0.0078244,-0.37099,-0.091758,-9.7029,0,0,45.353,1,1,755,999
5437,5.0412e+07,1,0.0016817,-0.0035945,-0.0050843,-0.3611,-0.092263,-9.6963,0,0,45.353,1,1,755,999
5440,5.0414e+07,1,0.0081271,-0.0025997,0.0031315,-0.35177,-0.086523,-9.6945,0,0,45.353,1,1,755,999
5443,5.0416e+07,1,0.0084835,-0.0012215,0.0043881,-0.3469,-0.08038,-9.7121,0,0,45.353,1,1,755,999
5474,5.0419e+07,1,0.0048715,-0.0022768,0.0058509,-0.33379,-0.069776,-9.7614,0,0,45.353,1,1,755,999
5478,5.0422e+07,1,0.0038284,-0.0034014,0.005812,-0.3344,-0.070791,-9.7915,0,0,45.353,1,1,755,999
5481,5.0424e+07,1,0.0018086,-0.0032126,0.0043847,-0.34355,-0.073545,-9.8305,0,0,45.353,1,1,755,999
5484,5.0426e+07,1,0.00099141,-0.00092566,0.001935,-0.34808,-0.081081,-9.8492,0,0,45.354,1,1,755,999
5515,5.0429e+07,1,0.001082,0.00057644,0.00099521,-0.36206,-0.10396,-9.8663,0,0,45.354,1,1,755,999
5518,5.0432e+07,1,0.0027191,0.00055827,7.5915e-05,-0.37287,-0.11055,-9.8698,0,0,45.354,1,1,755,999
5521,5.0434e+07,1,0.0036154,-0.0023503,-0.0024335,-0.39019,-0.11465,-9.8646,0,0,45.354,1,1,755,999
5524,5.0437e+07,1,0.0033007,-0.0039435,-0.0027111,-0.40399,-0.11067,-9.8453,0,0,45.354,1,1,755,999
5555,5.0439e+07,1,0.00021924,-0.0085147,0.0002526,-0.42106,-0.099078,-9.8281,0,0,45.354,1,1,755,999
5559,5.0442e+07,1,-0.001127,-0.0073123,0.0020239,-0.43962,-0.0956,-9.8167,0,0,45.354,1,1,755,999
5562,5.0444e+07,1,-0.0013492,-0.0048084,0.0012828,-0.45329,-0.092636,-9.8039,0,0,45.354,1,1,755,999
5565,5.0449e+07,1,0.0006819,0.0072389,-0.0037019,-0.4623,-0.081911,-9.7567,0,0,45.355,1,1,755,999
5596,5.0452e+07,1,0.0029192,0.0070095,-0.00043301,-0.46219,-0.075878,-9.7273,0,0,45.355,1,1,755,999
5599,5.0457e+07,1,-0.00051887,-0.0028699,0.0026227,-0.44378,-0.041228,-9.7329,0,0,45.355,1,1,755,999
5603,5.046e+07,1,-0.002078,-0.0091183,0.0025164,-0.44356,-0.027277,-9.7509,0,0,45.355,1,1,755,999
5634,5.0462e+07,1,-0.0039451,-0.010466,0.00064754,-0.44484,-0.013451,-9.8063,0,0,45.355,1,1,755,999
5638,5.0465e+07,1,-0.0053543,-0.0082685,-0.0040247,-0.423,-0.020837,-9.8532,0,0,45.355,1,1,755,999
5641,5.0468e+07,1,-0.0034278,-0.0042987,-0.0075175,-0.40417,-0.03688,-9.8621,0,0,45.355,1,1,755,999
5644,5.047e+07,1,-0.0018395,0.00085371,-0.0077254,-0.39635,-0.044675,-9.862,0,0,45.355,1,1,755,999
5675,5.0473e+07,1,-0.0014538,0.004958,-0.0071001,-0.3829,-0.064277,-9.8714,0,0,45.355,1,1,755,999
5679,5.0475e+07,1,-0.0039076,0.0066616,-0.0065537,-0.37211,-0.087233,-9.8835,0,0,45.355,1,1,755,999
5682,5.0477e+07,1,-0.005599,0.0064841,-0.0061644,-0.35583,-0.097661,-9.882,0,0,45.355,1,1,755,999
5685,5.048e+07,1,-0.00539,0.00097193,-0.0044379,-0.32674,-0.1132,-9.8798,0,0,45.355,1,1,755,999
5716,5.0483e+07,1,-0.0038468,6.1411e-05,-0.0050987,-0.32556,-0.12274,-9.8856,0,0,45.355,1,1,755,999
5719,5.0485e+07,1,1.8448e-05,-0.00066585,-0.0044861,-0.34501,-0.10421,-9.9035,0,0,45.355,1,1,755,999
5722,5.0488e+07,1,0.0042487,-0.0033401,-0.00053519,-0.36438,-0.084076,-9.919,0,0,45.355,1,1,755,999
5725,5.049e+07,1,0.0033864,-0.003844,0.0027139,-0.39348,-0.064007,-9.9283,0,0,45.355,1,1,755,999
5756,5.0493e+07,1,0.00087162,-0.0036366,0.00058302,-0.4149,-0.053757,-9.9202,0,0,45.356,1,1,755,999
5760,5.0496e+07,1,-0.0010151,-0.0049564,-0.0025108,-0.43301,-0.042416,-9.8915,0,0,45.356,1,1,755,999
5763,5.0497e+07,1,-0.0013518,-0.0063664,-0.003253,-0.42344,-0.036031,-9.8622,0,0,45.356,1,1,755,999
5770,5.05e+07,1,-0.0025364,-0.0085211,-0.0041721,-0.39306,-0.025844,-9.8095,0,0,45.356,1,1,755,999
5801,5.0503e+07,1,-0.0048659,-0.0059615,-0.0035834,-0.37808,-0.023585,-9.7505,0,0,45.356,1,1,755,999
5804,5.0505e+07,1,-0.0074708,-0.0056394,9.7247e-05,-0.37787,-0.03253,-9.7202,0,0,45.356,1,1,755,999
5807,5.0508e+07,1,-0.007938,-0.0058491,0.0014633,-0.38421,-0.034374,-9.706,0,0,45.356,1,1,755,999
5810,5.051e+07,1,-0.0064353,-0.0043641,0.0019354,-0.39018,-0.036915,-9.6914,0,0,45.356,1,1,755,999
5841,5.0513e+07,1,-0.0050795,-0.0021064,0.00164,-0.39417,-0.032045,-9.687,0,0,45.356,1,1,755,999
5845,5.0515e+07,1,-0.0055404,-0.0021267,0.0009792,-0.40618,-0.014932,-9.7091,0,0,45.356,1,1,755,999
5850,5.0518e+07,1,-0.0040037,-0.0027004,0.0015743,-0.41385,-0.0024879,-9.732,0,0,45.356,1,1,755,999
5853,5.0521e+07,1,-0.0011481,-0.0042462,0.0044249,-0.43071,0.012055,-9.7553,0,0,45.356,1,1,755,999
5884,5.0523e+07,1,-0.0001206,-0.0055604,0.0064423,-0.43897,0.018806,-9.7557,0,0,45.356,1,1,755,999
5887,5.0525e+07,1,0.00022044,-0.0052984,0.0067565,-0.44376,0.026824,-9.7536,0,0,45.357,1,1,755,999
5890,5.0528e+07,1,-0.00061515,-0.0015553,0.004639,-0.44446,0.034961,-9.7534,0,0,45.357,1,1,755,999
5893,5.0531e+07,1,-0.0012952,1.5132e-05,0.0039845,-0.431,0.029554,-9.7568,0,0,45.357,1,1,755,999
5924,5.0536e+07,1,-0.00039262,-0.00068906,0.0050571,-0.4083,0.040299,-9.7635,0,0,45.357,1,1,755,999
5928,5.0539e+07,1,0.00055598,-0.002074,0.0036811,-0.40668,0.036972,-9.7727,0,0,45.357,1,1,755,999
5931,5.0541e+07,1,0.0033632,-0.0015829,-0.00037395,-0.40387,0.01682,-9.768,0,0,45.357,1,1,755,999
5962,5.0544e+07,1,0.0030461,0.00031093,-0.00066051,-0.41649,-0.0026048,-9.7665,0,0,45.357,1,1,755,999
5965,5.0546e+07,1,-0.0011893,0.0051447,-0.0032468,-0.42157,-0.02487,-9.7951,0,0,45.357,1,1,755,999
5968,5.0549e+07,1,-0.002896,0.0057595,-0.0049559,-0.41428,-0.036054,-9.8062,0,0,45.357,1,1,755,999
5971,5.0551e+07,1,-0.0057871,0.0049782,-0.0055691,-0.38583,-0.046433,-9.8247,0,0,45.357,1,1,755,999
6002,5.0556e+07,1,-0.00054866,0.0037503,-0.006051,-0.34322,-0.09964,-9.8693,0,0,45.357,1,1,755,999
6005,5.0559e+07,1,0.0027037,0.0031307,-0.005588,-0.34457,-0.11955,-9.8835,0,0,45.358,1,1,755,999
6008,5.0561e+07,1,0.0038043,0.0045074,-0.003618,-0.35854,-0.13587,-9.8691,0,0,45.358,1,1,755,999
6039,5.0563e+07,1,0.0038485,0.005023,-0.0021296,-0.37542,-0.12859,-9.8432,0,0,45.358,1,1,755,999
6042,5.0566e+07,1,0.0045042,0.0025579,-0.001429,-0.38996,-0.11188,-9.8095,0,0,45.358,1,1,755,999
6046,5.0569e+07,1,0.0052908,0.0013895,-0.0014877,-0.389,-0.11283,-9.7879,0,0,45.358,1,1,755,999
6049,5.0571e+07,1,0.0071289,-0.0020659,-0.00043765,-0.39779,-0.11459,-9.7474,0,0,45.358,1,1,755,999
6080,5.0573e+07,1,0.0080697,-0.0036475,-0.00060023,-0.41527,-0.10692,-9.7256,0,0,45.358,1,1,755,999
6083,5.0576e+07,1,0.0081337,-0.0023076,-0.0014822,-0.4324,-0.099391,-9.7175,0,0,45.358,1,1,755,999
6087,5.0579e+07,1,0.0061968,-0.002984,-2.3605e-05,-0.45411,-0.086434,-9.7278,0,0,45.358,1,1,755,999
6092,5.0582e+07,1,0.0012236,-0.0042339,0.0012153,-0.46878,-0.076659,-9.7591,0,0,45.358,1,1,755,999
6095,5.0583e+07,1,-0.0019661,-0.0050234,0.0012191,-0.47399,-0.071714,-9.7691,0,0,45.358,1,1,755,999
6126,5.0586e+07,1,-0.0052591,-0.0035273,-0.00065985,-0.48006,-0.061903,-9.7624,0,0,45.358,1,1,755,999
6129,5.0589e+07,1,-0.0068516,-0.0013375,-0.002323,-0.47562,-0.054694,-9.7487,0,0,45.358,1,1,755,999
6132,5.0591e+07,1,-0.0063475,0.0014584,-0.0034388,-0.46616,-0.05913,-9.7136,0,0,45.358,1,1,755,999
6135,5.0594e+07,1,-0.0053843,0.00041894,-0.0023503,-0.4614,-0.063786,-9.697,0,0,45.358,1,1,755,999
6166,5.0596e+07,1,-0.0026381,-0.003528,0.00014985,-0.45092,-0.062848,-9.6862,0,0,45.358,1,1,755,999
6170,5.0599e+07,1,-0.000329,-0.0060457,0.0024155,-0.44681,-0.062484,-9.6818,0,0,45.358,1,1,755,999
6177,5.0602e+07,1,0.0010564,-0.0048895,0.0036195,-0.43861,-0.048896,-9.686,0,0,45.358,1,1,755,999
6180,5.0604e+07,1,0.0021093,-0.0024042,0.0043445,-0.43022,-0.022401,-9.6768,0,0,45.359,1,1,755,999
6183,5.0607e+07,1,0.0013251,-0.002003,0.0046374,-0.42104,0.013094,-9.6512,0,0,45.359,1,1,755,999
6214,5.0609e+07,1,-0.00055846,-0.0053204,0.0037409,-0.41134,0.021212,-9.5996,0,0,45.359,1,1,755,999
6217,5.0612e+07,1,-0.00030055,-0.0075885,0.0034934,-0.39964,0.0082717,-9.5554,0,0,45.359,1,1,755,999
6220,5.0614e+07,1,0.0018816,-0.0065132,0.0042651,-0.37256,-0.023768,-9.5193,0,0,45.359,1,1,755,999
6223,5.0617e+07,1,0.0031664,-0.0067494,0.0043122,-0.36014,-0.037602,-9.5228,0,0,45.359,1,1,755,999
6254,5.062e+07,1,0.0046146,-0.0086514,0.0039038,-0.36075,-0.051225,-9.5595,0,0,45.359,1,1,755,999
6258,5.0622e+07,1,0.005222,-0.0082322,0.0039489,-0.37221,-0.065283,-9.5975,0,0,45.359,1,1,755,999
6261,5.0624e+07,1,0.0041835,-0.00587,0.0048814,-0.3759,-0.08905,-9.646,0,0,45.359,1,1,755,999
6264,5.0627e+07,1,0.0018423,-0.0039052,0.0046864,-0.3742,-0.096237,-9.6729,0,0,45.359,1,1,755,999
6295,5.063e+07,1,0.00065564,-0.0030011,0.0027312,-0.38438,-0.098367,-9.6897,0,0,45.359,1,1,755,999
6299,5.0632e+07,1,0.00056995,-0.0024398,0.00075471,-0.40193,-0.09465,-9.6987,0,0,45.359,1,1,755,999
6302,5.0634e+07,1,-0.0011627,-0.0012441,-0.0014708,-0.42484,-0.073193,-9.705,0,0,45.359,1,1,755,999
6305,5.0636e+07,1,-0.0038687,-0.00203,-0.0016412,-0.43563,-0.055511,-9.7039,0,0,45.359,1,1,755,999
6336,5.0639e+07,1,-0.004124,-0.0036916,0.0010152,-0.44503,-0.043174,-9.6952,0,0,45.359,1,1,755,999
6341,5.0642e+07,1,-0.0035881,-0.0037871,0.0021526,-0.44358,-0.051008,-9.694,0,0,45.359,1,1,755,999
6344,5.0649e+07,1,0.000688,-0.0042874,0.003586,-0.44345,-0.068051,-9.7428,0,0,45.36,1,1,755,999
6375,5.0652e+07,1,-0.0044306,-0.0059869,-0.00085998,-0.44704,-0.048925,-9.7626,0,0,45.36,1,1,755,999
6378,5.0654e+07,1,-0.0063629,-0.0060039,-0.0024372,-0.44844,-0.03605,-9.7588,0,0,45.36,1,1,755,999
6381,5.0657e+07,1,-0.0063645,-0.0045222,-0.0051192,-0.4396,-0.026949,-9.7486,0,0,45.36,1,1,755,999
6384,5.0659e+07,1,-0.005143,-0.0023333,-0.0053495,-0.4077,-0.0084662,-9.7462,0,0,45.36,1,1,755,999
6416,5.0662e+07,1,-0.0047917,-0.0010172,-0.0049846,-0.38813,0.0075666,-9.7601,0,0,45.36,1,1,755,999
6419,5.0664e+07,1,-0.0019839,-0.00086989,-0.00086509,-0.36708,0.013401,-9.7726,0,0,45.36,1,1,755,999
6422,5.0666e+07,1,-0.00078037,-0.0022864,0.0006488,-0.35614,0.011064,-9.7777,0,0,45.36,1,1,755,999
6425,5.067e+07,1,0.00071454,-0.0049661,0.0031347,-0.33905,0.0025571,-9.7717,0,0,45.36,1,1,755,999
6456,5.0672e+07,1,-0.00099157,-0.008504,0.0033656,-0.32678,-0.01464,-9.7609,0,0,45.36,1,1,755,999
6460,5.0674e+07,1,-0.0014991,-0.008273,0.0016473,-0.3365,-0.026134,-9.7664,0,0,45.36,1,1,755,999
6463,5.0677e+07,1,0.0012104,-0.0079649,-0.00061773,-0.35938,-0.039321,-9.7771,0,0,45.36,1,1,755,999
6467,5.068e+07,1,0.0010987,-0.0089545,0.00059763,-0.37199,-0.059283,-9.7789,0,0,45.36,1,1,755,999
6498,5.0683e+07,1,-0.00091269,-0.0095495,0.0018631,-0.40385,-0.087191,-9.8188,0,0,45.36,1,1,755,999
6501,5.0685e+07,1,-0.00041434,-0.008341,-0.00033364,-0.42895,-0.098449,-9.8456,0,0,45.36,1,1,755,999
6504,5.0687e+07,1,0.00028089,-0.0060142,-0.0042078,-0.46237,-0.10225,-9.8761,0,0,45.36,1,1,755,999
6507,5.069e+07,1,0.0009714,-0.0040239,-0.0052811,-0.47586,-0.096132,-9.8932,0,0,45.36,1,1,755,999
6538,5.0693e+07,1,0.0027562,-0.003338,-0.0036379,-0.49404,-0.07785,-9.8831,0,0,45.36,1,1,755,999
6542,5.0695e+07,1,0.0032301,-0.0055272,-0.0024049,-0.5035,-0.0691,-9.8665,0,0,45.36,1,1,755,999
6545,5.0697e+07,1,0.002528,-0.0093755,-0.0038719,-0.51578,-0.066592,-9.8348,0,0,45.36,1,1,755,999
6548,5.07e+07,1,0.001358,-0.01011,-0.0049838,-0.5111,-0.063788,-9.7778,0,0,45.36,1,1,755,999
6583,5.0703e+07,1,0.00033945,-0.010096,-0.0036986,-0.50236,-0.049078,-9.7304,0,0,45.36,1,1,755,999
6587,5.0705e+07,1,0.00026461,-0.0090738,-0.0022656,-0.49091,-0.039663,-9.7069,0,0,45.36,1,1,755,999
6590,5.0708e+07,1,0.00056725,-0.0076269,-0.0021969,-0.4876,-0.037227,-9.6908,0,0,45.36,1,1,755,999
6593,5.071e+07,1,0.0019825,-0.0045237,-0.0015739,-0.49571,-0.031952,-9.6908,0,0,45.36,1,1,755,999
6624,5.0713e+07,1,0.0035034,-0.0035929,-0.00055749,-0.49347,-0.03179,-9.6937,0,0,45.361,1,1,755,999
6627,5.0715e+07,1,0.003497,-0.0033292,-0.00037032,-0.47526,-0.0517,-9.7021,0,0,45.361,1,1,755,999
6630,5.0718e+07,1,0.0015293,-0.0031076,0.0022532,-0.46137,-0.052568,-9.7122,0,0,45.361,1,1,755,999
6633,5.0721e+07,1,-0.0022867,-0.0037698,0.0032218,-0.44469,-0.04628,-9.7246,0,0,45.361,1,1,755,999
6664,5.0723e+07,1,-0.0042324,-0.0027284,0.00028806,-0.42463,-0.045813,-9.7108,0,0,45.361,1,1,755,999
6668,5.0726e+07,1,-0.0024297,-0.0014971,-0.0028176,-0.40992,-0.05835,-9.6819,0,0,45.361,1,1,755,999
6671,5.0728e+07,1,4.4296e-06,-0.002193,-0.0039989,-0.38795,-0.077972,-9.6543,0,0,45.361,1,1,755,999
6675,5.0731e+07,1,0.001274,-0.0056709,-0.0051916,-0.38182,-0.084364,-9.6518,0,0,45.361,1,1,755,999
6706,5.0733e+07,1,0.0018725,-0.0080477,-0.0065319,-0.37723,-0.094351,-9.669,0,0,45.361,1,1,755,999
6709,5.0736e+07,1,0.0020398,-0.0052528,-0.0057336,-0.38056,-0.10129,-9.7004,0,0,45.361,1,1,755,999
6713,5.0739e+07,1,0.0019593,-0.0018727,-0.003485,-0.39006,-0.096032,-9.7064,0,0,45.361,1,1,755,999
6716,5.0741e+07,1,0.0037353,-9.9455e-05,-0.0026562,-0.41319,-0.080059,-9.7046,0,0,45.361,1,1,755,999
6747,5.0747e+07,1,-0.00084719,0.0001586,-0.0052981,-0.44618,-0.052921,-9.7387,0,0,45.361,1,1,755,999
6751,5.0749e+07,1,-0.0036095,0.0021756,-0.0049424,-0.45278,-0.030694,-9.7423,0,0,45.361,1,1,755,999
6754,5.0751e+07,1,-0.0042491,0.0025229,-0.0042904,-0.45754,-0.013142,-9.7485,0,0,45.361,1,1,755,999
6785,5.0754e+07,1,-0.0023268,0.0016277,-0.0015995,-0.45313,-0.0041661,-9.7628,0,0,45.361,1,1,755,999
6788,5.0757e+07,1,-0.0025,0.00043708,-0.00076598,-0.44915,-0.010061,-9.7652,0,0,45.361,1,1,755,999
6792,5.0759e+07,1,-0.0031694,-0.0033999,0.0011227,-0.44938,-0.019994,-9.7694,0,0,45.361,1,1,755,999
6795,5.0764e+07,1,-0.0011179,-0.0054015,0.0050661,-0.40287,-0.06168,-9.7975,0,0,45.361,1,1,755,999
6826,5.0767e+07,1,0.0019107,-0.0038566,0.0062731,-0.37684,-0.064076,-9.7927,0,0,45.361,1,1,755,999
6829,5.0769e+07,1,0.0034254,-0.0049887,0.0078722,-0.34442,-0.076996,-9.7908,0,0,45.361,1,1,755,999
6832,5.0771e+07,1,0.0030008,-0.0083253,0.0069788,-0.33459,-0.086503,-9.7906,0,0,45.361,1,1,755,999
6835,5.0774e+07,1,0.0017513,-0.0091765,0.0044862,-0.33479,-0.092281,-9.7832,0,0,45.361,1,1,755,999
6866,5.0777e+07,1,0.0012335,-0.0077051,0.0028506,-0.35211,-0.089659,-9.7496,0,0,45.361,1,1,755,999
6870,5.078e+07,1,-0.0012945,-0.0085221,0.0022815,-0.36772,-0.079425,-9.7417,0,0,45.361,1,1,755,999
6873,5.0782e+07,1,-0.0041631,-0.0075546,0.0027771,-0.37314,-0.069561,-9.7374,0,0,45.361,1,1,755,999
6877,5.0784e+07,1,-0.0047256,-0.006196,0.0033284,-0.36352,-0.075566,-9.7331,0,0,45.361,1,1,755,999
6912,5.0788e+07,1,-0.0031223,-0.0022014,0.0019052,-0.35273,-0.086935,-9.7129,0,0,45.361,1,1,755,999
6915,5.0789e+07,1,-0.00068679,-0.0015594,0.0014438,-0.34104,-0.083748,-9.696,0,0,45.362,1,1,755,999
6918,5.0792e+07,1,0.0051484,-0.0016664,0.0011012,-0.33083,-0.066079,-9.6791,0,0,45.362,1,1,755,999
6921,5.0794e+07,1,0.0084541,-0.0035715,0.0030811,-0.32483,-0.050785,-9.6831,0,0,45.362,1,1,755,999
6952,5.0797e+07,1,0.0076326,-0.0041093,0.0059107,-0.32972,-0.023896,-9.6715,0,0,45.362,1,1,755,999
6956,5.08e+07,1,0.0071082,-0.0022587,0.0063475,-0.33694,-0.013001,-9.6709,0,0,45.362,1,1,755,999
6959,5.0802e+07,1,0.0066122,-0.0016464,0.0043072,-0.34909,0.0022362,-9.6787,0,0,45.362,1,1,755,999
6966,5.0805e+07,1,0.0052782,-0.0044509,0.0012002,-0.35386,0.011032,-9.691,0,0,45.362,1,1,755,999
6997,5.0807e+07,1,0.0036304,-0.0066387,-0.0021135,-0.3639,0.029774,-9.7081,0,0,45.362,1,1,755,999
7000,5.081e+07,1,0.00082869,-0.0068136,-0.0024444,-0.38369,0.017985,-9.7257,0,0,45.362,1,1,755,999
7003,5.0813e+07,1,-0.0024031,-0.0056383,-0.0011557,-0.39344,-0.0064125,-9.7469,0,0,45.362,1,1,755,999
7006,5.0815e+07,1,-0.0030708,-0.0046475,0.0032389,-0.39856,-0.047519,-9.7744,0,0,45.362,1,1,755,999
7037,5.0818e+07,1,-0.0026592,-0.004312,0.0053831,-0.40834,-0.065903,-9.7957,0,0,45.362,1,1,755,999
7041,5.082e+07,1,-0.0023402,-0.0021445,0.004462,-0.41976,-0.077492,-9.8305,0,0,45.362,1,1,755,999
7044,5.0822e+07,1,-0.0023506,-0.00093763,0.0026044,-0.41613,-0.076797,-9.8528,0,0,45.362,1,1,755,999
7047,5.0825e+07,1,-0.0034301,-0.0014097,-0.00136,-0.40002,-0.064317,-9.8647,0,0,45.362,1,1,755,999
7078,5.0828e+07,1,-0.0034588,-0.0049425,-0.0027872,-0.39508,-0.058833,-9.8696,0,0,45.362,1,1,755,999
7083,5.083e+07,1,-0.002042,-0.007982,-0.0025661,-0.38681,-0.065698,-9.866,0,0,45.362,1,1,755,999
7086,5.0833e+07,1,-0.0001187,-0.005867,-0.0014891,-0.38127,-0.075303,-9.8438,0,0,45.362,1,1,755,999
7089,5.0835e+07,1,0.00053629,-0.0033672,0.00028624,-0.3773,-0.087015,-9.8231,0,0,45.362,1,1,755,999
7120,5.0837e+07,1,0.00069997,-0.0023439,0.0014267,-0.36947,-0.089745,-9.8189,0,0,45.362,1,1,755,999
7124,5.0841e+07,1,0.0015425,-0.0034308,0.0011697,-0.36298,-0.10787,-9.7925,0,0,45.362,1,1,755,999
7127,5.0843e+07,1,0.0015654,-0.0040261,0.00018863,-0.36462,-0.11725,-9.7573,0,0,45.362,1,1,755,999
7130,5.0845e+07,1,0.0015832,-0.00085276,-0.00016267,-0.37324,-0.13463,-9.6884,0,0,45.362,1,1,755,999
7161,5.0847e+07,1,0.0020163,-3.3786e-05,0.001271,-0.37811,-0.1471,-9.6486,0,0,45.362,1,1,755,999
7166,5.085e+07,1,0.0031345,-0.001172,0.0031058,-0.38384,-0.14311,-9.6094,0,0,45.362,1,1,755,999
7169,5.0853e+07,1,0.0039436,-0.0016427,0.002275,-0.38795,-0.13226,-9.5993,0,0,45.362,1,1,755,999
7172,5.0856e+07,1,0.0046188,-0.0028657,0.00036813,-0.40409,-0.11906,-9.5962,0,0,45.363,1,1,755,999
7175,5.0857e+07,1,0.0043051,-0.0023334,-0.00076991,-0.4159,-0.12052,-9.6107,0,0,45.363,1,1,755,999
7206,5.086e+07,1,-8.3505e-05,-0.00014365,-0.0036679,-0.4154,-0.12045,-9.6616,0,0,45.363,1,1,755,999
7209,5.0862e+07,1,-0.0020512,-7.7166e-05,-0.0061379,-0.40793,-0.12017,-9.7059,0,0,45.363,1,1,755,999
7212,5.0865e+07,1,-0.00088247,-0.0021663,-0.00527,-0.3889,-0.10632,-9.7749,0,0,45.363,1,1,755,999
7215,5.0868e+07,1,0.00090051,-0.0040382,-0.0024174,-0.37445,-0.091075,-9.8146,0,0,45.363,1,1,755,999
7246,5.087e+07,1,0.0046546,-0.0069698,0.0022907,-0.37355,-0.070041,-9.8582,0,0,45.363,1,1,755,999
7250,5.0873e+07,1,0.0040323,-0.0060323,0.0024087,-0.39319,-0.047259,-9.907,0,0,45.363,1,1,755,999
7253,5.0875e+07,1,0.0036094,-0.0045282,0.0014037,-0.40564,-0.027614,-9.9498,0,0,45.363,1,1,755,999
7257,5.0878e+07,1,0.0034577,-0.00044617,-0.00053315,-0.40884,-0.0050176,-9.9819,0,0,45.363,1,1,755,999
7288,5.0881e+07,1,0.0010901,0.0078077,-0.0015955,-0.41339,0.008767,-9.9723,0,0,45.363,1,1,755,999
7292,5.0883e+07,1,0.00038789,0.0081749,-0.0016341,-0.41398,0.010569,-9.9456,0,0,45.363,1,1,755,999
7295,5.0886e+07,1,-0.0028417,0.0035559,-0.0023743,-0.41155,-0.0030025,-9.9011,0,0,45.363,1,1,755,999
7298,5.0889e+07,1,-0.0039121,0.00032872,-0.0023347,-0.40567,-0.025247,-9.872,0,0,45.363,1,1,755,999
7329,5.0891e+07,1,-0.0031065,-0.004589,-0.0023631,-0.39829,-0.056714,-9.8446,0,0,45.363,1,1,755,999
7332,5.0894e+07,1,0.00017168,-0.00499,-0.0027789,-0.3955,-0.070945,-9.8376,0,0,45.363,1,1,755,999
7335,5.0896e+07,1,0.0013584,-0.0045925,-0.0014042,-0.38882,-0.078745,-9.8299,0,0,45.363,1,1,755,999
7338,5.0899e+07,1,-7.6981e-05,-0.0065466,-0.00038583,-0.38758,-0.075302,-9.8309,0,0,45.363,1,1,755,999
7370,5.0901e+07,1,-0.001664,-0.0068834,2.5808e-05,-0.3925,-0.054003,-9.8172,0,0,45.363,1,1,755,999
7374,5.0904e+07,1,-0.00092097,-0.0059815,7.8321e-05,-0.39014,-0.032219,-9.8164,0,0,45.363,1,1,755,999
7381,5.0907e+07,1,0.0039481,-0.00090045,0.0012509,-0.39118,-0.016459,-9.8208,0,0,45.363,1,1,755,999
7384,5.0909e+07,1,0.0058551,-0.0010971,0.0017115,-0.40065,-0.022846,-9.834,0,0,45.363,1,1,755,999
7415,5.0911e+07,1,0.0075751,-0.0027341,0.0011855,-0.4085,-0.060747,-9.8482,0,0,45.363,1,1,755,999
7419,5.0913e+07,1,0.0055597,-0.002526,0.0030573,-0.41605,-0.077673,-9.8457,0,0,45.363,1,1,755,999
7422,5.0916e+07,1,0.0019973,-0.0013047,0.0038639,-0.41923,-0.096677,-9.8318,0,0,45.363,1,1,755,999
7425,5.0919e+07,1,0.00052866,-0.00045043,0.0024097,-0.40593,-0.11235,-9.8131,0,0,45.363,1,1,755,999
7456,5.0921e+07,1,9.4678e-05,-7.2448e-05,0.001439,-0.38762,-0.1186,-9.7771,0,0,45.363,1,1,755,999
7460,5.0924e+07,1,0.0011076,-0.0012032,0.0015125,-0.3713,-0.12545,-9.7356,0,0,45.363,1,1,755,999
7463,5.0926e+07,1,0.0037597,-0.0029396,0.0019986,-0.36119,-0.13562,-9.7222,0,0,45.363,1,1,755,999
7466,5.0929e+07,1,0.0040328,-0.0032996,0.0016414,-0.35246,-0.13655,-9.6828,0,0,45.363,1,1,755,999
7497,5.0932e+07,1,0.0027393,-0.0026377,0.0016059,-0.3455,-0.12183,-9.6471,0,0,45.363,1,1,755,999
7500,5.0934e+07,1,-0.00071225,-0.002982,0.0019442,-0.35581,-0.094577,-9.5972,0,0,45.363,1,1,755,999
7503,5.0936e+07,1,-0.0028312,-0.0036735,0.0021473,-0.35906,-0.082226,-9.5751,0,0,45.363,1,1,755,999
7506,5.0939e+07,1,-0.0032195,-0.0055423,0.0026824,-0.3741,-0.074022,-9.5508,0,0,45.363,1,1,755,999
7537,5.0942e+07,1,-0.0024509,-0.006906,0.0024298,-0.38479,-0.06992,-9.5434,0,0,45.363,1,1,755,999
7542,5.0945e+07,1,-0.0028056,-0.010103,0.001089,-0.3936,-0.0662,-9.5598,0,0,45.364,1,1,755,999
7545,5.0946e+07,1,-0.004526,-0.010002,-3.8877e-05,-0.40124,-0.060818,-9.5895,0,0,45.364,1,1,755,999
7548,5.0949e+07,1,-0.0036033,-0.008247,-0.0012337,-0.41314,-0.045544,-9.6366,0,0,45.364,1,1,755,999
7579,5.0951e+07,1,-0.0020548,-0.0054551,8.1109e-05,-0.41937,-0.035684,-9.6646,0,0,45.364,1,1,755,999
7584,5.0957e+07,1,0.00043803,-0.0036255,0.0031015,-0.43061,-0.026639,-9.7194,0,0,45.364,1,1,755,999
7588,5.0959e+07,1,0.00026124,-0.0021588,0.0021681,-0.42892,-0.031165,-9.7476,0,0,45.364,1,1,755,999
7619,5.0961e+07,1,-0.0010286,-0.00028753,0.00041433,-0.43128,-0.030641,-9.7582,0,0,45.364,1,1,755,999
7622,5.0964e+07,1,-0.0044598,0.0021096,-0.0025687,-0.43393,-0.032702,-9.7755,0,0,45.364,1,1,755,999
7626,5.0967e+07,1,-0.00623,0.0030128,-0.0027842,-0.43499,-0.036199,-9.7891,0,0,45.364,1,1,755,999
7629,5.0969e+07,1,-0.002759,0.003146,-0.00085237,-0.43747,-0.040359,-9.7911,0,0,45.364,1,1,755,999
7660,5.0972e+07,1,0.0010869,0.0027261,0.0015727,-0.43827,-0.032965,-9.7768,0,0,45.364,1,1,755,999
7664,5.0974e+07,1,0.001449,0.0032221,0.0015002,-0.43663,-0.017985,-9.7633,0,0,45.364,1,1,755,999
7667,5.0977e+07,1,-0.00083075,0.0033319,-0.00018567,-0.43253,-0.012013,-9.7544,0,0,45.364,1,1,755,999
7670,5.0979e+07,1,-0.0025825,0.0026269,-0.0021916,-0.42572,-0.037508,-9.7548,0,0,45.364,1,1,755,999
7701,5.0982e+07,1,-0.00075379,-0.00029966,-0.0031534,-0.41151,-0.087444,-9.7621,0,0,45.364,1,1,755,999
7704,5.0984e+07,1,0.001724,-0.0022694,-0.0026203,-0.40408,-0.11987,-9.7643,0,0,45.364,1,1,755,999
7707,5.0987e+07,1,0.00068452,-0.0024081,0.00044727,-0.39801,-0.13772,-9.7671,0,0,45.364,1,1,755,999
