LineNo,TimeUS,C,Roll,Pitch,Yaw,VN,VE,VD,dPD,PN,PE,PD,GX,GY,GZ,OH
302,49078863,0,1.66,-1.56,16.42,0.00475988,0.01680722,-0.08329731,-0.07565698,0.5231985,0.008061273000000001,0.7601167,-0.04,-0.04,-0.13,92.91
529,49125355,0,1.66,-1.56,16.42,0.005157784,0.01642266,-0.08291174,-0.06059485,0.5231985,0.008061273000000001,0.7568427,-0.04,-0.04,-0.12,92.91
870,49187205,0,1.66,-1.56,16.43,0.005522338,0.0167493,-0.08347987,-0.05313429,0.5231985,0,0.7528179,-0.04,-0.04,-0.12,92.91
990,49215867,0,1.66,-1.56,16.43,0.005594356,0.01706489,-0.08302872,-0.05305908,0.5231985,0,0.7510517,-0.04,-0.04,-0.12,92.91
1207,49327364,0,1.66,-1.56,16.43,0.00557144,0.01659706,-0.3367299,-0.2821527,0.5231985,0,0.7338391,-0.03,-0.04,-0.12,92.91
1400,49424307,0,1.66,-1.56,16.44,0.005182555,0.01700288,-0.5901393,-0.5168321,0.5343305,0,0.6962098,-0.03,-0.04,-0.11,92.91
1620,49450416,0,1.66,-1.56,16.44,0.005435239,0.01696087,-0.590004,-0.5263172,0.5343305,0,0.6812663,-0.03,-0.04,-0.11,92.91
1661,49460469,0,1.66,-1.56,16.44,0.005423064,0.01677303,-0.5898412,-0.5293237,0.5343305,0,0.6760524999999999,-0.03,-0.04,-0.11,92.91
1684,49480367,0,1.66,-1.57,16.44,0.00552993,0.0166448,-0.5896671,-0.5336663,0.5343305,0,0.6655329,-0.03,-0.04,-0.11,92.91
1728,49491358,0,1.66,-1.57,16.44,0.005506483,0.01668883,-0.5893366,-0.5346533999999999,0.5343305,0,0.6595673,-0.03,-0.04,-0.11,92.91
1769,49501875,0,1.66,-1.57,16.44,0.005451654,0.01673137,-0.5892079,-0.5352027,0.5343305,0,0.6536805999999999,-0.03,-0.04,-0.11,92.91
1810,49511863,0,1.65,-1.57,16.44,0.005396684,0.01679537,-0.5888662,-0.5359451,0.5343305,0,0.6482862,-0.03,-0.04,-0.11,92.91
1851,49521849,0,1.65,-1.57,16.44,0.005317138,0.01680077,-0.5888249,-0.5370349,0.5343305,0,0.6428706,-0.03,-0.04,-0.11,92.91
1892,49531996,0,1.65,-1.57,16.44,0.00524594,0.01689163,-0.5887987,-0.5386412,0.5343305,0,0.6367080000000001,-0.03,-0.04,-0.11,92.91
1933,49541858,0,1.66,-1.57,16.43,0.005209325,0.01699584,-0.5885996999999999,-0.5403413,0.5343305,0,0.631709,-0.03,-0.04,-0.11,92.91
1973,49551954,0,1.66,-1.57,16.43,0.005073621,0.01705341,-0.5885944,-0.5426312,0.5343305,0,0.6255211000000001,-0.03,-0.04,-0.11,92.91
2014,49561987,0,1.66,-1.57,16.43,0.005156992,0.01706126,-0.5885707,-0.5446938,0.5343305,0,0.6196409,-0.03,-0.04,-0.11,92.91
2056,49572203,0,1.66,-1.57,16.43,0.00509351,0.01706754,-0.5886203,-0.5470794,0.5343305,0,0.6140283,-0.03,-0.04,-0.11,92.91
2098,49582287,0,1.66,-1.57,16.43,0.005263391,0.01708292,-0.5887218,-0.54972,0.5343305,0,0.608403,-0.03,-0.04,-0.11,92.91
2143,49592355,0,1.66,-1.57,16.42,0.005369087,0.01695022,-0.5884676,-0.5520111,0.5343305,0,0.6027669,-0.03,-0.04,-0.11,92.91
2183,49602517,0,1.66,-1.57,16.42,0.005522618,0.01684543,-0.5883678,-0.5543285,0.5343305,0,0.5971203,-0.03,-0.04,-0.11,92.91
2225,49612523,0,1.66,-1.57,16.42,0.005612672,0.01671835,-0.5883998,-0.5567579,0.5343305,0,0.5914632,-0.03,-0.04,-0.11,92.91
2265,49625800,0,1.66,-1.57,16.42,0.005618462,0.01672295,-0.588414,-0.5589747,0.5343305,0,0.5839916000000001,-0.03,-0.04,-0.11,92.91
2306,49636014,0,1.66,-1.57,16.42,0.005792386,0.01673526,-0.5882729,-0.5590563,0.5343305,0,0.5794245,-0.03,-0.04,-0.11,92.91
2348,49646063,0,1.66,-1.56,16.41,0.005822092,0.01660233,-0.5881518999999999,-0.5572324,0.5343305,0,0.573648,-0.03,-0.04,-0.11,92.91
2388,49656528,0,1.65,-1.56,16.41,0.00579279,0.01673254,-0.5880952,-0.5545398,0.5343305,0,0.5677732,-0.03,-0.04,-0.11,92.91
2429,49666508,0,1.65,-1.56,16.41,0.005816467,0.0168003,-0.5880395,-0.5521738,0.5343305,0,0.5625559999999999,-0.03,-0.04,-0.11,92.91
2469,49676958,0,1.65,-1.56,16.4,0.005965482,0.01686796,-0.5878344,-0.5496789,0.5343305,0,0.5567213,-0.03,-0.04,-0.11,92.91
2515,49686991,0,1.65,-1.57,16.4,0.006085992,0.01704179,-0.587847,-0.5477676,0.5343305,0,0.5514462999999999,-0.03,-0.04,-0.11,92.91
2556,49696964,0,1.65,-1.57,16.39,0.006220358,0.01701544,-0.5877308999999999,-0.546285,0.5343305,0,0.5461441,-0.03,-0.04,-0.11,92.91
2596,49707512,0,1.66,-1.57,16.39,0.006324623,0.0170594,-0.5878314,-0.544591,0.5343305,0,0.5402726,-0.03,-0.04,-0.11,92.91
2638,49717482,0,1.66,-1.57,16.39,0.006372462,0.01702234,-0.587711,-0.5433597999999999,0.5343305,0,0.534946,-0.03,-0.04,-0.11,92.91
2678,49728019,0,1.66,-1.57,16.39,0.006420737,0.01684741,-0.5875311,-0.5414601999999999,0.5343305,0,0.529501,-0.03,-0.04,-0.11,92.91
2716,49737922,0,1.66,-1.57,16.38,0.006448383,0.01655462,-0.5872049,-0.5385162999999999,0.5343305,0,0.5245979,-0.03,-0.04,-0.11,92.91
2756,49747986,0,1.66,-1.57,16.38,0.006547515,0.01647588,-0.5870326,-0.5355571,0.5343305,0,0.518733,-0.03,-0.04,-0.11,92.91
2797,49758021,0,1.66,-1.57,16.37,0.00658378,0.01621886,-0.5867243,-0.5322474,0.5343305,0,0.5137945,-0.03,-0.04,-0.11,92.91
2839,49767913,0,1.66,-1.57,16.37,0.00658683,0.01594542,-0.5864829,-0.5293286,0.5343305,0,0.5088165,-0.03,-0.04,-0.11,92.91
2879,49777903,0,1.66,-1.57,16.37,0.006389508,0.01582174,-0.5861636,-0.5264284,0.5343305,0,0.5038005,-0.03,-0.04,-0.11,92.91
2926,49787899,0,1.66,-1.57,16.36,0.006535168,0.01576793,-0.5859733,-0.5243793,0.5343305,-0.008061273000000001,0.498748,-0.03,-0.04,-0.11,92.91
2967,49798908,0,1.66,-1.57,16.36,0.006421319,0.01594965,-0.586295,-0.5222046,0.5343305,-0.008061273000000001,0.4928926,-0.03,-0.04,-0.11,92.91
3013,49808553,0,1.65,-1.57,16.36,0.006377328,0.01601643,-0.5863676,-0.5207136,0.5343305,-0.008061273000000001,0.4878025,-0.03,-0.04,-0.11,92.91
3054,49818897,0,1.65,-1.57,16.35,0.006461364,0.01622818,-0.5863699,-0.5195659,0.5343305,-0.008061273000000001,0.4826751,-0.03,-0.04,-0.11,92.91
3095,49828795,0,1.65,-1.57,16.35,0.006404256,0.01624255,-0.5859469,-0.5181004,0.5343305,-0.008061273000000001,0.4784742,-0.03,-0.04,-0.11,92.91
3132,49839277,0,1.65,-1.57,16.35,0.006386487,0.016388,-0.5855545,-0.5140201,0.5343305,-0.008061273000000001,0.4736166,-0.03,-0.04,-0.11,92.91
3173,49849999,0,1.65,-1.57,16.34,0.006471931,0.01657403,-0.5853244,-0.5073762000000001,0.5343305,-0.008061273000000001,0.4686863,-0.03,-0.04,-0.11,92.91
3215,49860248,0,1.65,-1.57,16.34,0.006608794,0.01673847,-0.5853776000000001,-0.499929,0.5343305,-0.008061273000000001,0.4628396,-0.03,-0.04,-0.11,92.91
3256,49870326,0,1.65,-1.57,16.34,0.006643855,0.01660674,-0.5851286,-0.4928237,0.5343305,-0.008061273000000001,0.4584292,-0.03,-0.04,-0.11,92.91
3297,49880285,0,1.65,-1.57,16.34,0.006692247,0.01657072,-0.5847942,-0.4869008,0.5343305,-0.008061273000000001,0.4539564,-0.03,-0.04,-0.11,92.91
3345,49890276,0,1.66,-1.57,16.33,0.006825677,0.01653559,-0.5845167999999999,-0.4836512,0.5343305,-0.008061273000000001,0.4494283,-0.03,-0.04,-0.11,92.91
3385,49901062,0,1.66,-1.57,16.33,0.007028788,0.01627383,-0.5842422,-0.4792969,0.5343305,-0.008061273000000001,0.4442565,-0.03,-0.04,-0.11,92.91
3426,49911433,0,1.66,-1.57,16.33,0.007245299,0.01632713,-0.5844388,-0.4755026,0.5343305,-0.008061273000000001,0.4384189,-0.03,-0.04,-0.11,92.91
3466,49921400,0,1.66,-1.57,16.33,0.007327314,0.01639519,-0.5843969,-0.4731364,0.5343305,-0.008061273000000001,0.4337756,-0.03,-0.04,-0.11,92.91
3507,49931243,0,1.66,-1.57,16.33,0.007301523,0.0163805,-0.58397,-0.4690412,0.5343305,-0.008061273000000001,0.4301192,-0.03,-0.04,-0.11,92.91
3549,49941406,0,1.66,-1.57,16.33,0.007346035,0.01640148,-0.5832715000000001,-0.4638532,0.5343305,-0.008061273000000001,0.4263703,-0.03,-0.04,-0.11,92.91
3589,49951329,0,1.65,-1.57,16.33,0.007419181,0.01650486,-0.5827491,-0.457821,0.5343305,-0.008061273000000001,0.4225297,-0.03,-0.04,-0.11,92.91
3630,49961986,0,1.65,-1.57,16.33,0.007528224,0.01664527,-0.5826244,-0.4496855,0.5343305,-0.008061273000000001,0.41671,-0.03,-0.04,-0.11,92.91
3671,49971945,0,1.65,-1.57,16.33,0.007489546,0.01655747,-0.5824337000000001,-0.4431853,0.5343305,-0.008061273000000001,0.4127877,-0.03,-0.04,-0.11,92.91
3713,49981893,0,1.65,-1.57,16.33,0.007605148,0.01644343,-0.5818641,-0.4369833,0.5343305,-0.008061273000000001,0.4087812,-0.03,-0.04,-0.11,92.91
3760,49991897,0,1.65,-1.57,16.33,0.00755039,0.01650639,-0.5814359,-0.4327477,0.5454624,-0.008061273000000001,0.4047,-0.03,-0.04,-0.11,92.91
3800,50002417,0,1.65,-1.57,16.33,0.007573262,0.01656304,-0.581168,-0.4279453,0.5454624,-0.008061273000000001,0.3999574,-0.03,-0.04,-0.11,92.91
3841,50012577,0,1.65,-1.57,16.33,0.007568338,0.01662176,-0.5811972,-0.4253012,0.5454624,-0.008061273000000001,0.3941518,-0.03,-0.04,-0.11,92.91
3881,50022429,0,1.65,-1.57,16.33,0.007593807,0.01655289,-0.5806189,-0.4239169,0.5454624,-0.008061273000000001,0.3899285,-0.03,-0.04,-0.11,92.91
3922,50032421,0,1.65,-1.57,16.33,0.007663136,0.01652815,-0.5802244,-0.4234781,0.5454624,-0.008061273000000001,0.3856364,-0.03,-0.04,-0.11,92.91
3962,50045404,0,1.65,-1.57,16.33,0.007694302,0.01643512,-0.5797106,-0.4220725,0.5454624,-0.008061273000000001,0.3806235,-0.03,-0.04,-0.11,92.91
4003,50055325,0,1.65,-1.57,16.33,0.007599807,0.01638594,-0.5790277,-0.4183089,0.5454624,-0.008061273000000001,0.3772388,-0.03,-0.04,-0.11,92.91
4044,50065941,0,1.65,-1.57,16.33,0.007560899,0.01637118,-0.5782649,-0.4147603,0.5454624,-0.008061273000000001,0.3731767,-0.03,-0.04,-0.11,92.91
4085,50076359,0,1.65,-1.57,16.33,0.007672878,0.01645378,-0.5780864,-0.40923,0.5454624,-0.008061273000000001,0.3674012,-0.03,-0.04,-0.11,92.91
4127,50086305,0,1.65,-1.57,16.33,0.007909617000000001,0.01629355,-0.5777072,-0.4049899,0.5454624,-0.008061273000000001,0.3638249,-0.03,-0.04,-0.11,92.91
4173,50096301,0,1.65,-1.57,16.33,0.007847099999999999,0.01618334,-0.5771155,-0.4008827,0.5454624,-0.008061273000000001,0.3601525,-0.03,-0.04,-0.11,92.91
4214,50106319,0,1.65,-1.57,16.33,0.007742759,0.01593933,-0.5768004,-0.3987647,0.5454624,-0.008061273000000001,0.3563898,-0.03,-0.04,-0.11,92.91
4255,50116914,0,1.65,-1.57,16.33,0.007821593,0.01602149,-0.5764749,-0.3973448,0.5454624,-0.008061273000000001,0.3525384,-0.03,-0.04,-0.11,92.91
4295,50126997,0,1.65,-1.57,16.33,0.008063389000000001,0.0160824,-0.5760575999999999,-0.3950161,0.5454624,-0.008061273000000001,0.348023,-0.03,-0.04,-0.11,92.91
4337,50137048,0,1.64,-1.57,16.33,0.008116622,0.01590461,-0.5760753,-0.3930684,0.5454624,-0.008061273000000001,0.3422685,-0.03,-0.04,-0.11,92.91
4374,50147041,0,1.64,-1.57,16.33,0.008169984999999999,0.01585951,-0.5754849,-0.3881706,0.5454624,-0.008061273000000001,0.339501,-0.03,-0.04,-0.11,92.91
4415,50156943,0,1.64,-1.57,16.33,0.008280518000000001,0.01594734,-0.5748852,-0.3830097,0.5454624,-0.008061273000000001,0.3366059,-0.03,-0.04,-0.11,92.91
4455,50166977,0,1.64,-1.57,16.33,0.008220511,0.01606281,-0.5744256,-0.3772634,0.5454624,-0.008061273000000001,0.3335857,-0.03,-0.04,-0.11,92.91
4496,50177064,0,1.64,-1.57,16.32,0.008246527999999999,0.01599832,-0.5737073,-0.3727769,0.5454624,-0.008061273000000001,0.3304522,-0.03,-0.04,-0.11,92.91
4537,50186952,0,1.64,-1.57,16.32,0.008402442,0.01600562,-0.5735739,-0.3661642,0.5454624,-0.008061273000000001,0.3247215,-0.03,-0.04,-0.11,92.91
4584,50197243,0,1.64,-1.57,16.32,0.00834964,0.01594925,-0.5730035999999999,-0.3606262,0.5454624,-0.01612255,0.3214815,-0.03,-0.04,-0.11,92.91
4625,50206949,0,1.64,-1.57,16.32,0.008201201999999999,0.01597912,-0.5725814,-0.3556437,0.5454624,-0.01612255,0.3181279,-0.04,-0.04,-0.11,92.91
4665,50216951,0,1.64,-1.57,16.32,0.008296566,0.01587593,-0.5721959,-0.3524093,0.5454624,-0.01612255,0.3146686,-0.04,-0.04,-0.11,92.91
4706,50226960,0,1.65,-1.57,16.32,0.008252993,0.01574018,-0.5716018,-0.350686,0.5454624,-0.01612255,0.3111112,-0.04,-0.04,-0.11,92.91
4746,50239823,0,1.65,-1.57,16.32,0.008376033,0.01549001,-0.5709571,-0.3502819,0.5454624,-0.01612255,0.3073054,-0.04,-0.04,-0.11,92.91
4787,50249843,0,1.65,-1.57,16.32,0.008366432,0.01547838,-0.5699725,-0.3483696,0.5454624,-0.01612255,0.3045111,-0.04,-0.04,-0.11,92.91
4827,50260012,0,1.65,-1.57,16.32,0.008440807999999999,0.01536086,-0.5695511,-0.3436277,0.5454624,-0.01612255,0.3010168,-0.04,-0.04,-0.11,92.91
4869,50270322,0,1.65,-1.57,16.32,0.008455673,0.01533078,-0.5692824,-0.3376679,0.5454624,-0.01612255,0.2953289,-0.04,-0.04,-0.11,92.91
4910,50280317,0,1.65,-1.57,16.32,0.008579745,0.01521263,-0.5687597,-0.3342672,0.5454624,-0.01612255,0.2922963,-0.04,-0.04,-0.11,92.91
4952,50290944,0,1.65,-1.57,16.32,0.008836299000000001,0.01513076,-0.5681933,-0.3322219,0.5454624,-0.01612255,0.2880147,-0.04,-0.04,-0.11,92.91
4998,50301277,0,1.65,-1.57,16.32,0.008809305999999999,0.01501645,-0.5676957,-0.3308001,0.5454624,-0.01612255,0.2847538,-0.04,-0.04,-0.11,92.91
5038,50311435,0,1.65,-1.57,16.32,0.008795987999999999,0.01492441,-0.5671669,-0.3319077,0.5454624,-0.01612255,0.2813919,-0.04,-0.04,-0.11,92.91
5081,50321513,0,1.65,-1.57,16.32,0.008697556,0.01491513,-0.5666065,-0.334098,0.5454624,-0.01612255,0.2779297,-0.04,-0.04,-0.11,92.91
5122,50334738,0,1.64,-1.57,16.32,0.009092581000000001,0.01511869,-0.565845,-0.3339101,0.5454624,-0.01612255,0.2744875,-0.04,-0.04,-0.11,92.91
5163,50344429,0,1.64,-1.57,16.32,0.009069827000000001,0.01512448,-0.5650311,-0.3304852,0.5454624,-0.01612255,0.2725727,-0.04,-0.04,-0.11,92.91
5201,50355042,0,1.64,-1.57,16.32,0.00923596,0.01497121,-0.5650299,-0.321153,0.5454624,-0.01612255,0.2663635,-0.04,-0.04,-0.11,92.91
5241,50364917,0,1.65,-1.57,16.32,0.009471532,0.01500443,-0.5640396,-0.3125308,0.5454624,-0.01612255,0.2643033,-0.04,-0.04,-0.11,92.91
5282,50375168,0,1.65,-1.57,16.32,0.009777701,0.01520003,-0.5631024,-0.305636,0.5454624,-0.01612255,0.2620966,-0.04,-0.04,-0.11,92.91
5325,50384964,0,1.65,-1.57,16.32,0.009851851,0.01510045,-0.562223,-0.3040226,0.5565943,-0.01612255,0.2597598,-0.04,-0.04,-0.11,92.91
5366,50395225,0,1.65,-1.57,16.32,0.009990498,0.01524111,-0.5620874,-0.2989724,0.5565943,-0.01612255,0.2541435,-0.04,-0.04,-0.11,92.91
5411,50405354,0,1.65,-1.56,16.32,0.0101225,0.0151301,-0.5611342,-0.2956018,0.5565943,-0.01612255,0.2516781,-0.04,-0.04,-0.11,92.91
5452,50415889,0,1.65,-1.56,16.32,0.009856128,0.01503875,-0.5604818,-0.2931808,0.5565943,-0.01612255,0.2490784,-0.04,-0.04,-0.11,92.91
5493,50425873,0,1.65,-1.56,16.31,0.009816935000000001,0.01494798,-0.559893,-0.2932661,0.5565943,-0.01612255,0.2463529,-0.04,-0.04,-0.11,92.91
5533,50435881,0,1.65,-1.57,16.31,0.009860890000000001,0.01477979,-0.5591341,-0.2940692,0.5565943,-0.01612255,0.2435022,-0.04,-0.04,-0.11,92.91
5574,50448930,0,1.65,-1.57,16.31,0.00999236,0.01471903,-0.5583083,-0.2909841,0.5565943,-0.01612255,0.2393564,-0.04,-0.04,-0.11,92.91
5612,50458478,0,1.65,-1.57,16.31,0.01014832,0.01459234,-0.5577103,-0.2902129,0.5565943,-0.01612255,0.2378437,-0.04,-0.04,-0.11,92.91
5653,50468914,0,1.65,-1.57,16.31,0.01018114,0.01415587,-0.5571251,-0.2847338,0.5565943,-0.01612255,0.2350583,-0.04,-0.04,-0.11,92.91
5694,50479492,0,1.64,-1.57,16.31,0.01021643,0.01416953,-0.5568811,-0.2781249,0.5565943,-0.01612255,0.2294941,-0.04,-0.04,-0.11,92.91
5734,50489187,0,1.64,-1.57,16.31,0.01036135,0.01410612,-0.5562122,-0.2745826,0.5565943,-0.01612255,0.2271386,-0.04,-0.04,-0.11,92.91
5779,50499305,0,1.64,-1.56,16.31,0.01031494,0.01415336,-0.5555047,-0.2723286,0.5565943,-0.01612255,0.224645,-0.04,-0.04,-0.11,92.91
5819,50509189,0,1.64,-1.57,16.31,0.01023719,0.01403199,-0.5548244,-0.2730463,0.5565943,-0.01612255,0.2220249,-0.04,-0.04,-0.11,92.91
5862,50519191,0,1.64,-1.57,16.31,0.01029752,0.01419416,-0.5541166,-0.2749349,0.5565943,-0.01612255,0.2192796,-0.04,-0.04,-0.11,92.91
5902,50529912,0,1.64,-1.57,16.31,0.01015602,0.01426609,-0.5540022,-0.2754295,0.5565943,-0.01612255,0.213745,-0.04,-0.04,-0.11,92.91
5940,50540079,0,1.64,-1.57,16.31,0.01003177,0.01401244,-0.5531013,-0.2736864,0.5565943,-0.01612255,0.2118575,-0.04,-0.04,-0.11,92.91
5980,50550093,0,1.64,-1.57,16.31,0.009996814,0.01387004,-0.5523301,-0.267753,0.5565943,-0.01612255,0.2103344,-0.04,-0.04,-0.11,92.91
6017,50559995,0,1.64,-1.57,16.31,0.01024048,0.01378595,-0.5514816,-0.2614174,0.5565943,-0.01612255,0.2086397,-0.04,-0.04,-0.11,92.91
6058,50570051,0,1.64,-1.57,16.31,0.01032412,0.01387698,-0.5502812,-0.2553495,0.5565943,-0.01612255,0.2067815,-0.04,-0.04,-0.11,92.91
6104,50582752,0,1.64,-1.57,16.31,0.0102428,0.01377806,-0.5493649,-0.2504819,0.5677261,-0.02418382,0.203679,-0.04,-0.04,-0.11,92.91
6144,50592613,0,1.64,-1.56,16.32,0.01028785,0.01383049,-0.5484681,-0.2484674,0.5677261,-0.02418382,0.2015274,-0.04,-0.04,-0.11,92.91
6192,50605389,0,1.64,-1.56,16.32,0.01020218,0.01396877,-0.5477252,-0.2434405,0.5677261,-0.02418382,0.1975868,-0.04,-0.04,-0.11,92.91
6232,50615894,0,1.64,-1.56,16.32,0.01020474,0.01401661,-0.5469168,-0.2439298,0.5677261,-0.02418382,0.194614,-0.04,-0.04,-0.11,92.91
6273,50626046,0,1.64,-1.56,16.32,0.01026027,0.01403878,-0.547111,-0.2443141,0.5677261,-0.02418382,0.1891502,-0.04,-0.04,-0.11,92.91
6314,50635894,0,1.64,-1.56,16.32,0.01032127,0.0140115,-0.5465473,-0.2462674,0.5677261,-0.02418382,0.186599,-0.04,-0.04,-0.11,92.91
6353,50648494,0,1.64,-1.56,16.32,0.01038839,0.01379034,-0.5458693,-0.2519099,0.5677261,-0.02418382,0.1839724,-0.04,-0.04,-0.11,92.91
6393,50658247,0,1.64,-1.56,16.32,0.010469,0.01360221,-0.545046,-0.2553148,0.5677261,-0.02418382,0.1822748,-0.04,-0.04,-0.11,92.91
6434,50668501,0,1.64,-1.57,16.32,0.01048278,0.01345732,-0.5441397,-0.2569795,0.5677261,-0.02418382,0.1804149,-0.04,-0.04,-0.11,92.91
6476,50678971,0,1.64,-1.57,16.32,0.01058461,0.01361737,-0.5440773,-0.2546968,0.5677261,-0.02418382,0.1749794,-0.04,-0.04,-0.11,92.91
6516,50688915,0,1.64,-1.57,16.32,0.01066961,0.01363355,-0.543345,-0.2541699,0.5677261,-0.02418382,0.1729799,-0.04,-0.04,-0.11,92.91
6557,50698921,0,1.64,-1.57,16.32,0.01092094,0.01349979,-0.5426143,-0.2552257,0.5677261,-0.02418382,0.1702954,-0.04,-0.04,-0.11,92.91
6602,50709254,0,1.64,-1.57,16.32,0.01090731,0.01353928,-0.5419414,-0.2582238,0.5677261,-0.02418382,0.1680163,-0.04,-0.04,-0.11,92.91
6642,50719296,0,1.64,-1.57,16.32,0.0109065,0.01333753,-0.5411548,-0.2614709,0.5677261,-0.02418382,0.165601,-0.04,-0.04,-0.11,92.91
6684,50729952,0,1.64,-1.57,16.32,0.01105726,0.01331312,-0.5404518,-0.2632495,0.5677261,-0.02418382,0.1625107,-0.04,-0.04,-0.11,92.91
6725,50740336,0,1.64,-1.57,16.31,0.01125892,0.01332756,-0.5404129,-0.2643547,0.5677261,-0.02418382,0.1571121,-0.04,-0.04,-0.11,92.91
6763,50750766,0,1.64,-1.57,16.32,0.01135124,0.01330535,-0.5396889,-0.2650981,0.5677261,-0.02418382,0.1554164,-0.04,-0.04,-0.11,92.91
6804,50763248,0,1.64,-1.57,16.32,0.01129322,0.01324742,-0.539201,-0.264725,0.5677261,-0.02418382,0.1519441,-0.04,-0.04,-0.11,92.91
6844,50773024,0,1.64,-1.57,16.31,0.01137256,0.01322014,-0.5385723,-0.2619388,0.5677261,-0.02418382,0.1499275,-0.04,-0.04,-0.11,92.91
6886,50783782,0,1.64,-1.56,16.31,0.01143757,0.01325502,-0.5379846,-0.2601879,0.5677261,-0.02418382,0.1477653,-0.04,-0.04,-0.11,92.91
6930,50793794,0,1.64,-1.57,16.31,0.0115021,0.01325648,-0.5371905,-0.2610065,0.578858,-0.03224509,0.1454702,-0.04,-0.04,-0.11,92.91
6975,50803851,0,1.64,-1.57,16.32,0.01160923,0.01315149,-0.5364261,-0.2628588,0.578858,-0.03224509,0.1430435,-0.04,-0.04,-0.11,92.91
7015,50814074,0,1.64,-1.56,16.32,0.01153479,0.01317951,-0.5357977,-0.2637441,0.578858,-0.03224509,0.1399495,-0.04,-0.04,-0.11,92.91
7056,50824237,0,1.64,-1.56,16.32,0.01158925,0.01333286,-0.5353439,-0.2639552,0.578858,-0.03224509,0.1345987,-0.04,-0.04,-0.11,92.91
7098,50834205,0,1.64,-1.56,16.32,0.01152468,0.01340153,-0.5348144,-0.2663289,0.578858,-0.03224509,0.1319285,-0.04,-0.04,-0.11,92.91
7139,50844226,0,1.64,-1.56,16.32,0.01145322,0.01350426,-0.5340518,-0.2681722,0.578858,-0.03224509,0.130548,-0.04,-0.04,-0.11,92.91
7184,50856820,0,1.64,-1.56,16.32,0.01137182,0.01365251,-0.5330805,-0.266239,0.578858,-0.03224509,0.1279328,-0.04,-0.04,-0.11,92.91
7224,50866838,0,1.64,-1.56,16.32,0.01128953,0.01364717,-0.5323624,-0.2653536,0.578858,-0.03224509,0.1262267,-0.04,-0.04,-0.11,92.91
7266,50877176,0,1.64,-1.56,16.32,0.01132506,0.01363279,-0.5313059,-0.2641102,0.578858,-0.03224509,0.1238422,-0.04,-0.04,-0.11,92.91
7307,50887526,0,1.64,-1.56,16.32,0.01140237,0.01359583,-0.5315966,-0.2609778,0.578858,-0.03224509,0.118533,-0.04,-0.04,-0.11,92.91
7347,50897523,0,1.64,-1.56,16.32,0.01138725,0.01341489,-0.5304675,-0.2590885,0.578858,-0.03224509,0.1165449,-0.04,-0.04,-0.11,92.91
7393,50907527,0,1.64,-1.56,16.32,0.0114937,0.01336614,-0.5297190000000001,-0.2581981,0.578858,-0.03224509,0.1144151,-0.04,-0.04,-0.11,92.91
7434,50917551,0,1.64,-1.56,16.32,0.0114321,0.01321836,-0.5290129,-0.2597943,0.578858,-0.03224509,0.112153,-0.04,-0.04,-0.11,92.91
7475,50928246,0,1.64,-1.56,16.32,0.01153474,0.01320205,-0.5281878,-0.2627985,0.578858,-0.03224509,0.1092385,-0.04,-0.04,-0.11,92.91
7515,50938257,0,1.64,-1.56,16.33,0.01142762,0.01347893,-0.5280502,-0.264147,0.578858,-0.03224509,0.1039632,-0.04,-0.04,-0.11,92.91
7557,50948261,0,1.64,-1.56,16.33,0.01137964,0.01344034,-0.5273373,-0.2663902,0.578858,-0.03224509,0.1014587,-0.04,-0.04,-0.11,92.91
7597,50958242,0,1.64,-1.56,16.33,0.01133965,0.01319958,-0.5262935,-0.2654476,0.578858,-0.03224509,0.1012379,-0.04,-0.04,-0.11,92.91
7638,50967983,0,1.63,-1.56,16.33,0.01125367,0.01303129,-0.5253658,-0.2591417,0.578858,-0.03224509,0.1007997,-0.04,-0.04,-0.11,92.91
7679,50978436,0,1.63,-1.56,16.33,0.01136333,0.01291133,-0.5244126,-0.2479721,0.578858,-0.03224509,0.100147,-0.04,-0.04,-0.11,92.91
7721,50988452,0,1.63,-1.56,16.33,0.01120341,0.01286955,-0.5233581,-0.2364038,0.578858,-0.03224509,0.09929900999999999,-0.04,-0.04,-0.11,92.91
7762,50999252,0,1.63,-1.56,16.33,0.01123579,0.01272331,-0.5226073,-0.2210912,0.5899899,-0.04030636,0.09773274,-0.04,-0.04,-0.11,92.91
7806,51009480,0,1.63,-1.56,16.33,0.01113642,0.01276162,-0.5224644000000001,-0.206524,0.5899899,-0.04030636,0.09251204,-0.04,-0.04,-0.11,92.91
7848,51019845,0,1.63,-1.56,16.34,0.01118651,0.01290093,-0.5217192,-0.1966871,0.5899899,-0.04030636,0.09130783000000001,-0.04,-0.04,-0.11,92.91
7889,51029971,0,1.63,-1.56,16.34,0.01117745,0.0128401,-0.5208595,-0.1899471,0.5899899,-0.04030636,0.08941781,-0.04,-0.04,-0.11,92.91
7929,51039960,0,1.63,-1.56,16.34,0.01129039,0.01268725,-0.5203638,-0.1864674,0.5899899,-0.04030636,0.08788302000000001,-0.04,-0.04,-0.11,92.91
7971,51052799,0,1.64,-1.56,16.34,0.01138514,0.01261001,-0.5190413,-0.1833818,0.5899899,-0.04030636,0.08703813000000001,-0.04,-0.04,-0.11,92.91
8012,51063303,0,1.64,-1.56,16.34,0.01149208,0.01260481,-0.5181178,-0.1780488,0.5899899,-0.04030636,0.08649392,-0.04,-0.04,-0.11,92.91
8053,51073267,0,1.64,-1.56,16.34,0.01133115,0.01258367,-0.5182491,-0.1673981,0.5899899,-0.04030636,0.08131774,-0.04,-0.04,-0.11,92.91
8094,51083423,0,1.64,-1.56,16.34,0.01132003,0.01233466,-0.5169643,-0.1561554,0.5899899,-0.04030636,0.08108456,-0.04,-0.04,-0.11,92.91
8134,51093305,0,1.64,-1.56,16.34,0.01116488,0.01207937,-0.5157755000000001,-0.1479455,0.5899899,-0.04030636,0.08064995,-0.04,-0.04,-0.11,92.91
8175,51103273,0,1.64,-1.56,16.34,0.0112219,0.01200992,-0.5145184,-0.1407848,0.5899899,-0.04030636,0.08001435,-0.04,-0.04,-0.11,92.91
8222,51113313,0,1.64,-1.56,16.34,0.01135557,0.01202733,-0.5135291,-0.1379301,0.5899899,-0.04030636,0.07919524999999999,-0.04,-0.04,-0.11,92.91
8263,51123403,0,1.64,-1.56,16.34,0.01137489,0.0121375,-0.5137733,-0.1327205,0.5899899,-0.04030636,0.07406422,-0.04,-0.04,-0.11,92.91
8304,51133339,0,1.63,-1.56,16.34,0.01139861,0.01191639,-0.5130146,-0.1294515,0.5899899,-0.04030636,0.0730662,-0.04,-0.04,-0.11,92.91
8344,51143180,0,1.63,-1.56,16.35,0.01142479,0.0116704,-0.5121095,-0.1299224,0.5899899,-0.04030636,0.07189672,-0.04,-0.04,-0.11,92.91
8386,51155828,0,1.63,-1.56,16.35,0.01144643,0.01174964,-0.5110130000000001,-0.1356185,0.5899899,-0.04030636,0.07002257000000001,-0.04,-0.04,-0.11,92.91
8426,51166210,0,1.63,-1.56,16.35,0.01132866,0.01162391,-0.5098853,-0.1406405,0.5899899,-0.04030636,0.06948635,-0.04,-0.04,-0.11,92.91
8464,51176031,0,1.63,-1.56,16.35,0.01134281,0.01176605,-0.5098191,-0.139675,0.5899899,-0.04030636,0.06439284000000001,-0.04,-0.04,-0.11,92.91
8505,51186021,0,1.63,-1.56,16.35,0.01138784,0.01175696,-0.5089116,-0.1385519,0.5899899,-0.04030636,0.06366854,-0.04,-0.04,-0.11,92.91
8547,51196251,0,1.63,-1.56,16.34,0.01151648,0.01173468,-0.5078151,-0.1395548,0.5899899,-0.04030636,0.06276294,-0.04,-0.04,-0.11,92.91
8589,51206845,0,1.63,-1.56,16.34,0.01148251,0.01158554,-0.50648,-0.143997,0.6011218,-0.04836764,0.06118331,-0.04,-0.04,-0.11,92.91
8633,51217014,0,1.63,-1.56,16.34,0.01159403,0.01156726,-0.5054139,-0.1501546,0.6011218,-0.04836764,0.05944154,-0.04,-0.04,-0.11,92.91
8674,51227607,0,1.63,-1.56,16.34,0.01161779,0.01158341,-0.5051697000000001,-0.153007,0.6011218,-0.04836764,0.05439462,-0.04,-0.04,-0.11,92.91
8715,51237755,0,1.63,-1.56,16.34,0.01170869,0.01143088,-0.5042244,-0.1586382,0.6011218,-0.04836764,0.05250591,-0.04,-0.04,-0.11,92.91
8756,51247900,0,1.63,-1.56,16.34,0.0116364,0.01137028,-0.5033408,-0.1638252,0.6011218,-0.04836764,0.05096188,-0.04,-0.04,-0.11,92.91
8795,51260313,0,1.63,-1.56,16.34,0.01175512,0.01127131,-0.5021660999999999,-0.1675259,0.6011218,-0.04836764,0.05044509,-0.04,-0.04,-0.11,92.91
8835,51270279,0,1.63,-1.56,16.34,0.01169563,0.01112964,-0.5005941,-0.1667305,0.6011218,-0.04836764,0.05070612,-0.04,-0.04,-0.1,92.91
8876,51281082,0,1.63,-1.56,16.34,0.01169949,0.01103306,-0.4994404,-0.1634005,0.6011218,-0.04836764,0.05025024,-0.04,-0.04,-0.1,92.91
8918,51291445,0,1.63,-1.56,16.34,0.01199329,0.01120684,-0.4995674,-0.1549278,0.6011218,-0.04836764,0.04526024,-0.04,-0.04,-0.1,92.91
8959,51301351,0,1.63,-1.56,16.34,0.01216201,0.01107812,-0.4982721,-0.1478263,0.6011218,-0.04836764,0.04510353,-0.04,-0.04,-0.1,92.91
9004,51311342,0,1.63,-1.56,16.34,0.01213716,0.01104759,-0.4970393,-0.1410644,0.6011218,-0.04836764,0.04473749,-0.04,-0.04,-0.1,92.91
9044,51321422,0,1.63,-1.56,16.34,0.01210257,0.01098829,-0.4961416,-0.137927,0.6011218,-0.04836764,0.04417972,-0.04,-0.04,-0.1,92.91
9085,51331427,0,1.63,-1.56,16.34,0.01211962,0.01096641,-0.4953275,-0.1359719,0.6011218,-0.04836764,0.04342645,-0.04,-0.04,-0.1,92.91
9125,51341971,0,1.63,-1.56,16.34,0.01214576,0.01083713,-0.4946104,-0.1319657,0.6011218,-0.04836764,0.04198528,-0.04,-0.04,-0.11,92.91
9166,51352427,0,1.63,-1.56,16.34,0.01222692,0.01089362,-0.4946142,-0.1280924,0.6011218,-0.04836764,0.03704467,-0.04,-0.04,-0.11,92.91
9203,51362307,0,1.63,-1.56,16.33,0.01225546,0.01080485,-0.4932017,-0.1188306,0.6011218,-0.04836764,0.03821018,-0.04,-0.04,-0.1,92.91
9244,51372359,0,1.63,-1.56,16.33,0.01222468,0.0108243,-0.4922594,-0.1100094,0.6011218,-0.04836764,0.03912162,-0.04,-0.04,-0.1,92.91
9287,51382374,0,1.63,-1.56,16.33,0.01240447,0.01077007,-0.4910446,-0.09967524,0.6011218,-0.04836764,0.03977855,-0.04,-0.04,-0.1,92.91
9327,51392839,0,1.63,-1.56,16.33,0.01236168,0.01069139,-0.489538,-0.08715643000000001,0.6011218,-0.04836764,0.04018682,-0.04,-0.04,-0.11,92.91
9368,51402588,0,1.63,-1.56,16.33,0.01245308,0.010726,-0.4882875,-0.07715887,0.6011218,-0.04836764,0.04036688,-0.04,-0.04,-0.11,92.91
9412,51412564,0,1.63,-1.56,16.33,0.01244363,0.01071614,-0.4883578,-0.06531081,0.6011218,-0.04836764,0.03548941,-0.04,-0.04,-0.11,92.91
9453,51423032,0,1.63,-1.56,16.33,0.01242545,0.01080946,-0.4875929,-0.05845761,0.6011218,-0.04836764,0.03498217,-0.04,-0.04,-0.11,92.91
9494,51432994,0,1.63,-1.56,16.33,0.01232557,0.01085038,-0.4863105,-0.05601738,0.6011218,-0.04836764,0.03475919,-0.04,-0.04,-0.11,92.91
9520,51455811,0,1.63,-1.56,16.33,0.01216813,0.01066296,-0.4837775,-0.05781348,0.6011218,-0.04836764,0.03467565,-0.04,-0.04,-0.1,92.91
9560,51465787,0,1.63,-1.56,16.33,0.01202257,0.01055601,-0.4824878,-0.05632234,0.6011218,-0.04836764,0.03572457,-0.04,-0.04,-0.1,92.91
9602,51475940,0,1.63,-1.56,16.33,0.01207346,0.0105982,-0.4811889,-0.04755791,0.6011218,-0.04836764,0.03602728,-0.04,-0.04,-0.11,92.91
9642,51485970,0,1.63,-1.56,16.33,0.01210744,0.01068685,-0.4813423,-0.03691529,0.6011218,-0.04836764,0.03121947,-0.04,-0.04,-0.11,92.91
9683,51495912,0,1.63,-1.56,16.33,0.01208676,0.01062796,-0.4800911,-0.02807878,0.6011218,-0.04836764,0.03177694,-0.04,-0.04,-0.11,92.91
9723,51506077,0,1.63,-1.56,16.33,0.01192813,0.0106123,-0.478873,-0.02401524,0.6011218,-0.04836764,0.03210663,-0.04,-0.04,-0.11,92.91
9768,51516072,0,1.63,-1.56,16.33,0.01201891,0.01046874,-0.4778875,-0.02938465,0.6011218,-0.04836764,0.03224499,-0.04,-0.04,-0.1,92.91
9810,51526556,0,1.63,-1.56,16.33,0.01199907,0.01055397,-0.4778773,-0.03019404,0.6011218,-0.04836764,0.02747101,-0.04,-0.04,-0.1,92.91
9850,51536788,0,1.63,-1.56,16.33,0.01206962,0.01060626,-0.4769599,-0.03408517,0.6011218,-0.04836764,0.0274127,-0.04,-0.04,-0.1,92.91
9892,51547078,0,1.64,-1.56,16.33,0.01209384,0.01058351,-0.4759612,-0.04090604,0.6011218,-0.04836764,0.02667915,-0.04,-0.04,-0.1,92.91
9929,51557020,0,1.63,-1.56,16.33,0.01205684,0.01042597,-0.474577,-0.04453604,0.6011218,-0.04836764,0.02865547,-0.04,-0.04,-0.1,92.91
9970,51567007,0,1.63,-1.56,16.33,0.01197574,0.01039319,-0.4731854,-0.04570937,0.6011218,-0.04836764,0.0303511,-0.04,-0.04,-0.1,92.91
10012,51577238,0,1.63,-1.56,16.33,0.01202306,0.01042303,-0.4731286,-0.03674336,0.6011218,-0.04836764,0.02562465,-0.04,-0.04,-0.1,92.91
10054,51587285,0,1.64,-1.56,16.33,0.01208487,0.0102868,-0.4718516,-0.02666854,0.6122537,-0.05642891,0.02705198,-0.04,-0.04,-0.1,92.91
10095,51597256,0,1.63,-1.56,16.33,0.01201821,0.0102976,-0.4705219,-0.01483333,0.6122537,-0.05642891,0.02819898,-0.04,-0.04,-0.1,92.91
10135,51607319,0,1.63,-1.56,16.33,0.01191073,0.01024384,-0.469182,-0.01266733,0.6122537,-0.05642891,0.0291267,-0.04,-0.04,-0.1,92.91
10180,51617222,0,1.63,-1.56,16.33,0.01213378,0.01007885,-0.4681877,-0.01133574,0.6122537,-0.05642891,0.02980991,-0.04,-0.04,-0.1,92.91
10220,51627525,0,1.63,-1.56,16.33,0.01220814,0.01008508,-0.4680316,-0.005868015,0.6122537,-0.05642891,0.02513348,-0.04,-0.04,-0.1,92.91
10261,51637518,0,1.63,-1.56,16.33,0.01223798,0.009982375,-0.4668382,-0.004633514,0.6122537,-0.05642891,0.02560465,-0.04,-0.04,-0.1,92.91
10304,51647789,0,1.63,-1.56,16.33,0.01234774,0.009849396,-0.4658489,-0.005353177,0.6122537,-0.05642891,0.02584939,-0.04,-0.04,-0.1,92.91
10341,51657817,0,1.63,-1.56,16.33,0.01243096,0.009763702000000001,-0.4642752,-0.008317084000000001,0.6122537,-0.05642891,0.02793635,-0.04,-0.04,-0.1,92.91
10382,51668281,0,1.63,-1.56,16.33,0.01245616,0.009802529000000001,-0.4629178,-0.00775104,0.6122537,-0.05642891,0.02928114,-0.04,-0.04,-0.1,92.91
10422,51678325,0,1.63,-1.56,16.33,0.01238842,0.009807531,-0.4630636,0.0001555932,0.6122537,-0.05642891,0.02465645,-0.04,-0.04,-0.1,92.91
10464,51688325,0,1.64,-1.56,16.33,0.01236024,0.009670339,-0.4615625,0.008832960000000001,0.6122537,-0.05642891,0.02619423,-0.04,-0.04,-0.1,92.91
10504,51698067,0,1.64,-1.56,16.33,0.0123882,0.009653159,-0.4601471,0.01402325,0.6122537,-0.05642891,0.0274733,-0.04,-0.04,-0.1,92.91
10545,51708127,0,1.64,-1.56,16.33,0.01252746,0.009562813999999999,-0.4585795,0.01831866,0.6122537,-0.05642891,0.02849974,-0.04,-0.04,-0.1,92.91
10591,51718070,0,1.64,-1.56,16.33,0.01267678,0.009319048,-0.4571443,0.01784872,0.6122537,-0.05642891,0.02929211,-0.04,-0.04,-0.1,92.91
10631,51728870,0,1.64,-1.56,16.33,0.01260966,0.009253232,-0.4571928,0.02075416,0.6122537,-0.05642891,0.02472529,-0.04,-0.04,-0.1,92.91
10672,51738511,0,1.64,-1.56,16.33,0.01269728,0.009089425999999999,-0.4558197,0.01979154,0.6122537,-0.05642891,0.02530507,-0.04,-0.04,-0.1,92.91
10712,51748872,0,1.64,-1.55,16.32,0.0127397,0.009202811,-0.4548195,0.01675707,0.6122537,-0.05642891,0.02565659,-0.04,-0.04,-0.1,92.91
10752,51759053,0,1.64,-1.55,16.32,0.01294018,0.009117332000000001,-0.4534994,0.01722579,0.6122537,-0.05642891,0.02683331,-0.04,-0.04,-0.1,92.91
10790,51769322,0,1.64,-1.55,16.32,0.01306817,0.009079138,-0.4522963,0.01035594,0.6122537,-0.05642891,0.02822901,-0.03,-0.04,-0.1,92.91
10830,51779993,0,1.63,-1.55,16.32,0.01306593,0.009110966999999999,-0.4509082,0.01096927,0.6122537,-0.05642891,0.02890098,-0.04,-0.04,-0.1,92.91
10875,51790435,0,1.63,-1.55,16.32,0.01323442,0.009161838,-0.4508863,0.01509359,0.6122537,-0.05642891,0.02439748,-0.04,-0.04,-0.1,92.91
10915,51801135,0,1.63,-1.55,16.32,0.01319903,0.009275633,-0.4494174,0.01586256,0.6345174,-0.06449017999999999,0.0248493,-0.04,-0.04,-0.1,92.91
10956,51811936,0,1.63,-1.55,16.32,0.01328679,0.009284222999999999,-0.4483857,0.01735063,0.6345174,-0.06449017999999999,0.02550124,-0.04,-0.04,-0.1,92.91
11002,51821841,0,1.63,-1.55,16.32,0.01334923,0.009191522000000001,-0.447425,0.0163985,0.6345174,-0.06449017999999999,0.02592486,-0.04,-0.04,-0.1,92.91
11042,51831790,0,1.63,-1.56,16.32,0.01346074,0.009212404,-0.4463518,0.01082881,0.6345174,-0.06449017999999999,0.02614086,-0.04,-0.04,-0.1,92.91
11083,51841854,0,1.63,-1.55,16.32,0.01351951,0.009079800000000001,-0.4450596,0.003707943,0.6345174,-0.06449017999999999,0.02615038,-0.04,-0.04,-0.1,92.91
11123,51851853,0,1.63,-1.55,16.32,0.01363299,0.009236952999999999,-0.444871,-0.001103015,0.6345174,-0.06449017999999999,0.02170571,-0.04,-0.04,-0.1,92.91
11165,51862090,0,1.64,-1.55,16.32,0.01363676,0.009230087,-0.4440267,-0.01089454,0.6345174,-0.06449017999999999,0.02109129,-0.04,-0.04,-0.1,92.91
11199,51872086,0,1.64,-1.55,16.32,0.01353545,0.009158107,-0.4429043,-0.01839251,0.6345174,-0.06449017999999999,0.02253902,-0.04,-0.04,-0.1,92.91
11242,51882088,0,1.64,-1.55,16.32,0.01347891,0.009055107999999999,-0.4415264,-0.02180569,0.6345174,-0.06449017999999999,0.02372567,-0.04,-0.04,-0.1,92.91
11283,51892341,0,1.64,-1.55,16.32,0.01347748,0.008893526000000001,-0.4401199,-0.02614062,0.6345174,-0.06449017999999999,0.02467725,-0.04,-0.04,-0.1,92.91
11325,51902771,0,1.64,-1.55,16.32,0.01356019,0.008793036000000001,-0.4399202,-0.02410433,0.6345174,-0.06449017999999999,0.02028205,-0.04,-0.04,-0.1,92.91
11367,51912610,0,1.64,-1.55,16.32,0.01359902,0.008605956,-0.4387917,-0.02444613,0.6345174,-0.06449017999999999,0.02101933,-0.04,-0.04,-0.1,92.91
11411,51923015,0,1.63,-1.55,16.32,0.01369155,0.008526139,-0.4376901,-0.02696652,0.6345174,-0.06449017999999999,0.02109986,-0.03,-0.04,-0.1,92.91
11452,51933054,0,1.63,-1.55,16.31,0.01364528,0.008607358000000001,-0.4365056,-0.02963311,0.6345174,-0.06449017999999999,0.02140018,-0.04,-0.04,-0.1,92.91
11492,51942970,0,1.63,-1.55,16.31,0.01355974,0.008326976999999999,-0.4354664,-0.03578032,0.6345174,-0.06449017999999999,0.02150092,-0.03,-0.04,-0.1,92.91
11535,51953034,0,1.63,-1.55,16.32,0.01358699,0.008298484,-0.4354809,-0.03840628,0.6345174,-0.06449017999999999,0.01715062,-0.03,-0.04,-0.1,92.91
11576,51962931,0,1.63,-1.55,16.32,0.01338876,0.008390543,-0.4344581,-0.04214276,0.6345174,-0.06449017999999999,0.01705991,-0.04,-0.04,-0.1,92.91
11618,51975999,0,1.63,-1.55,16.32,0.01328938,0.008534752,-0.4332342,-0.04957169,0.6345174,-0.06449017999999999,0.01739029,-0.03,-0.04,-0.1,92.91
11658,51986267,0,1.63,-1.55,16.32,0.01331124,0.008315677,-0.4318763,-0.04678918,0.6345174,-0.06449017999999999,0.01874327,-0.03,-0.04,-0.1,92.91
11700,51996759,0,1.63,-1.55,16.32,0.0132887,0.008379765000000001,-0.4306392,-0.04521127,0.6345174,-0.06449017999999999,0.01985642,-0.03,-0.04,-0.1,92.91
11741,52006953,0,1.63,-1.55,16.32,0.01341061,0.008332038999999999,-0.4295045,-0.03799501,0.6345174,-0.06449017999999999,0.02071108,-0.04,-0.04,-0.1,92.91
11782,52016916,0,1.63,-1.54,16.32,0.01350983,0.008243308,-0.4284876,-0.03281486,0.6345174,-0.06449017999999999,0.02133509,-0.04,-0.04,-0.1,92.91
11827,52026896,0,1.63,-1.54,16.32,0.01377002,0.008187231,-0.4282414,-0.02498892,0.6345174,-0.06449017999999999,0.01705562,-0.04,-0.04,-0.1,92.91
11868,52036852,0,1.63,-1.54,16.32,0.01377435,0.007856277,-0.4271182,-0.02195703,0.6345174,-0.06449017999999999,0.01748257,-0.04,-0.04,-0.1,92.91
11909,52046851,0,1.63,-1.54,16.32,0.01365834,0.007780268,-0.4260804,-0.0212402,0.6345174,-0.06449017999999999,0.01769846,-0.04,-0.04,-0.1,92.91
11949,52056834,0,1.63,-1.55,16.32,0.01383014,0.007872209999999999,-0.4250444,-0.02492472,0.6345174,-0.06449017999999999,0.01772269,-0.04,-0.04,-0.1,92.91
11995,52072530,0,1.63,-1.55,16.32,0.01385945,0.007533364,-0.4235317,-0.02679268,0.6345174,-0.06449017999999999,0.01715107,-0.03,-0.04,-0.1,92.91
12035,52082863,0,1.63,-1.55,16.32,0.01375931,0.007468436,-0.4222218,-0.02656641,0.6345174,-0.06449017999999999,0.01886277,-0.03,-0.04,-0.1,92.91
12077,52093318,0,1.63,-1.54,16.32,0.0138194,0.007519609,-0.4209003,-0.01863677,0.6345174,-0.06449017999999999,0.01987826,-0.03,-0.04,-0.1,92.91
12117,52103895,0,1.63,-1.55,16.32,0.01375653,0.007463739,-0.4196034,-0.01275261,0.6345174,-0.06449017999999999,0.02106281,-0.03,-0.04,-0.1,92.91
12159,52113785,0,1.63,-1.54,16.31,0.01387554,0.007519199,-0.4196468,-0.003130057,0.6345174,-0.06449017999999999,0.01645214,-0.03,-0.04,-0.1,92.91
12206,52123831,0,1.63,-1.54,16.31,0.01370089,0.007505355,-0.4182865,0.0008953325,0.6345174,-0.06449017999999999,0.017426,-0.03,-0.04,-0.1,92.91
12247,52133993,0,1.63,-1.54,16.31,0.01343112,0.00752572,-0.4170072,0.001941351,0.6345174,-0.06449017999999999,0.01776504,-0.03,-0.04,-0.1,92.91
12288,52144084,0,1.63,-1.54,16.31,0.01331694,0.00748583,-0.4156289,0.001686914,0.6345174,-0.06449017999999999,0.01830182,-0.03,-0.04,-0.1,92.91
12328,52154039,0,1.63,-1.54,16.31,0.0132899,0.007403465,-0.4144481,-0.002765272,0.6345174,-0.06449017999999999,0.01864015,-0.03,-0.04,-0.1,92.91
12369,52164320,0,1.63,-1.54,16.31,0.01326067,0.007363431,-0.4143696,-0.004215722,0.6345174,-0.06449017999999999,0.01450033,-0.03,-0.04,-0.1,92.91
12406,52178043,0,1.63,-1.54,16.31,0.01318194,0.007037598,-0.4113398,-0.004061856,0.6345174,-0.06449017999999999,0.02088153,-0.03,-0.04,-0.1,92.91
12449,52188174,0,1.63,-1.54,16.31,0.01332061,0.006947394,-0.4113641,0.005180703,0.6567812,-0.07255146,0.01677283,-0.03,-0.04,-0.1,92.91
12491,52198164,0,1.63,-1.54,16.3,0.01320763,0.006587052,-0.4099758,0.01211121,0.6567812,-0.07255146,0.01833958,-0.03,-0.04,-0.1,92.91
12532,52208494,0,1.63,-1.54,16.3,0.01326961,0.006214786,-0.408898,0.01813407,0.6567812,-0.07255146,0.01965206,-0.03,-0.04,-0.1,92.91
12573,52218930,0,1.63,-1.54,16.3,0.01327893,0.006126123,-0.4077413,0.020231,0.6567812,-0.07255146,0.02073567,-0.03,-0.04,-0.1,92.91
12617,52228917,0,1.63,-1.54,16.3,0.01335832,0.00599076,-0.4066003,0.02015421,0.6567812,-0.07255146,0.02119272,-0.03,-0.04,-0.1,92.91
12658,52239359,0,1.63,-1.54,16.3,0.013498,0.006033212,-0.4064947,0.02235931,0.6567812,-0.07255146,0.01713195,-0.03,-0.04,-0.1,92.91
12699,52249372,0,1.63,-1.54,16.3,0.01364031,0.005958745,-0.4052823,0.02097961,0.6567812,-0.07255146,0.01779633,-0.03,-0.04,-0.1,92.91
12740,52259474,0,1.63,-1.54,16.3,0.01369197,0.006014761,-0.4042,0.01805198,0.6567812,-0.07255146,0.01824686,-0.03,-0.04,-0.1,92.91
12777,52269735,0,1.63,-1.54,16.3,0.01375078,0.006021162,-0.4025239,0.01364978,0.6567812,-0.07255146,0.02081879,-0.03,-0.04,-0.1,92.91
12815,52279377,0,1.63,-1.54,16.29,0.01394096,0.005859926,-0.4012448,0.0145247,0.6567812,-0.07255146,0.02309538,-0.03,-0.04,-0.1,92.91
12858,52290082,0,1.63,-1.54,16.29,0.01386442,0.005857052,-0.4000617,0.02422409,0.6567812,-0.07255146,0.02467954,-0.03,-0.04,-0.1,92.91
12899,52300901,0,1.63,-1.54,16.29,0.01374669,0.00612732,-0.3999318,0.0371557,0.6567812,-0.07255146,0.02068418,-0.03,-0.04,-0.1,92.91
12941,52310988,0,1.63,-1.55,16.29,0.01367157,0.006052728,-0.3985404,0.04675655,0.6567812,-0.07255146,0.02203001,-0.03,-0.04,-0.1,92.91
12981,52321319,0,1.63,-1.54,16.29,0.01364305,0.006059724,-0.397164,0.05627162,0.6567812,-0.07255146,0.02350946,-0.03,-0.04,-0.1,92.91
13026,52331958,0,1.63,-1.54,16.29,0.01347553,0.005814957,-0.3960838,0.0610615,0.6567812,-0.07255146,0.02436255,-0.03,-0.04,-0.1,92.91
13067,52342166,0,1.63,-1.54,16.29,0.01322723,0.005661814,-0.394684,0.06297959,0.6567812,-0.07255146,0.02537891,-0.03,-0.04,-0.1,92.91
13108,52352508,0,1.63,-1.54,16.29,0.01322448,0.00556486,-0.3937108,0.06380278,0.6567812,-0.07255146,0.02616191,-0.04,-0.04,-0.1,92.91
13152,52365058,0,1.63,-1.54,16.29,0.01324853,0.005403953,-0.3920182,0.06666121,0.6567812,-0.07255146,0.02777881,-0.04,-0.04,-0.1,92.91
13195,52380083,0,1.63,-1.54,16.29,0.01333131,0.005226839,-0.3903957,0.07523571,0.6567812,-0.07255146,0.0283456,-0.03,-0.04,-0.1,92.91
13238,52389968,0,1.63,-1.54,16.29,0.01328095,0.005228725,-0.389061,0.08120321,0.6901768,-0.08061272999999999,0.03058503,-0.03,-0.04,-0.1,92.91
13279,52400409,0,1.63,-1.54,16.29,0.01334809,0.005225973,-0.3877431,0.08903579,0.6901768,-0.08061272999999999,0.03254146,-0.04,-0.04,-0.1,92.91
13321,52410341,0,1.63,-1.54,16.29,0.01330133,0.005071274,-0.3864015,0.09441173,0.6901768,-0.08061272999999999,0.03423945,-0.04,-0.04,-0.1,92.91
13362,52421081,0,1.63,-1.54,16.29,0.01325239,0.005086774,-0.3859887,0.1022044,0.6901768,-0.08061272999999999,0.02999543,-0.04,-0.04,-0.1,92.91
13409,52433434,0,1.63,-1.54,16.29,0.01306924,0.005055184,-0.3846371,0.1034937,0.6901768,-0.08061272999999999,0.03070974,-0.04,-0.04,-0.1,92.91
13450,52443340,0,1.63,-1.54,16.29,0.01321487,0.005046219,-0.3831471,0.1020834,0.6901768,-0.08061272999999999,0.03197209,-0.04,-0.04,-0.1,92.91
13491,52453868,0,1.63,-1.54,16.29,0.01337264,0.004926156,-0.3822153,0.09800244,0.6901768,-0.08061272999999999,0.03300576,-0.04,-0.04,-0.1,92.91
13533,52463872,0,1.63,-1.54,16.29,0.01345125,0.00484501,-0.3811298,0.08963018,0.6901768,-0.08061272999999999,0.03383154,-0.04,-0.04,-0.1,92.91
13574,52473971,0,1.63,-1.54,16.29,0.013425,0.004873175,-0.3808462,0.07990899,0.6901768,-0.08061272999999999,0.03002606,-0.04,-0.04,-0.1,92.91
13609,52484433,0,1.63,-1.54,16.29,0.01333739,0.004683217,-0.3792717,0.0751865,0.6901768,-0.08061272999999999,0.03281305,-0.03,-0.04,-0.1,92.91
13649,52494526,0,1.63,-1.54,16.29,0.01322676,0.004657108,-0.3775152,0.08018517999999999,0.6901768,-0.08061272999999999,0.03566051,-0.03,-0.04,-0.1,92.91
13691,52504536,0,1.63,-1.54,16.29,0.01323925,0.004591584,-0.3758496,0.08688174,0.6901768,-0.08061272999999999,0.03821541,-0.03,-0.04,-0.1,92.91
13732,52515225,0,1.63,-1.54,16.29,0.01322707,0.004353953,-0.3744677,0.09726964,0.6901768,-0.08061272999999999,0.04010543,-0.04,-0.04,-0.1,92.91
13773,52525053,0,1.63,-1.54,16.29,0.01316061,0.004265045,-0.3730907,0.1044249,0.6901768,-0.08061272999999999,0.0421053,-0.04,-0.04,-0.1,92.91
13817,52535910,0,1.63,-1.54,16.29,0.01311113,0.004095368,-0.3716551,0.1113,0.6901768,-0.08061272999999999,0.04384178,-0.04,-0.04,-0.1,92.91
13858,52545902,0,1.63,-1.54,16.29,0.01302614,0.003914187,-0.3704968,0.1141317,0.6901768,-0.08061272999999999,0.04533624,-0.04,-0.04,-0.1,92.91
13898,52556203,0,1.63,-1.54,16.29,0.01300523,0.003997955,-0.3690779,0.1179809,0.6901768,-0.08061272999999999,0.04622036,-0.04,-0.04,-0.1,92.91
13937,52566275,0,1.63,-1.54,16.29,0.01306679,0.003889682,-0.3691231,0.120051,0.6901768,-0.08061272999999999,0.04253312,-0.04,-0.04,-0.1,92.91
13978,52576504,0,1.63,-1.54,16.29,0.01291197,0.003649637,-0.3674645,0.121837,0.6901768,-0.08061272999999999,0.04529531,-0.04,-0.04,-0.1,92.91
14019,52586535,0,1.63,-1.53,16.29,0.01302893,0.003559025,-0.3661958,0.1243052,0.6901768,-0.08061272999999999,0.04777457,-0.04,-0.04,-0.09,92.91
14062,52597014,0,1.63,-1.53,16.28,0.0130635,0.003622859,-0.364669,0.1301179,0.7013087,-0.088674,0.04960776,-0.04,-0.04,-0.09,92.91
14102,52607255,0,1.63,-1.53,16.28,0.01292004,0.003604934,-0.3632686,0.1302607,0.7013087,-0.088674,0.05156361,-0.04,-0.04,-0.09,92.91
14144,52617870,0,1.63,-1.53,16.28,0.0128862,0.003758518,-0.3630274,0.1286428,0.7013087,-0.088674,0.04793491,-0.04,-0.04,-0.09,92.91
14185,52627598,0,1.63,-1.53,16.28,0.01291933,0.00356677,-0.3617278,0.1240846,0.7013087,-0.088674,0.04969612,-0.03,-0.04,-0.09,92.91
14230,52637600,0,1.63,-1.53,16.28,0.01287807,0.003457593,-0.3602187,0.1191579,0.7013087,-0.088674,0.05121833,-0.03,-0.04,-0.09,92.91
14271,52647583,0,1.63,-1.54,16.27,0.01280679,0.003212616,-0.3589629,0.1104893,0.7013087,-0.088674,0.05252535,-0.03,-0.04,-0.09,92.91
14312,52657813,0,1.63,-1.54,16.27,0.01268421,0.003103244,-0.3589207,0.1008926,0.7013087,-0.088674,0.0489399,-0.03,-0.04,-0.09,92.91
14353,52667584,0,1.63,-1.54,16.27,0.01261437,0.003057332,-0.3577214,0.08607563,0.7013087,-0.088674,0.0500952,-0.03,-0.04,-0.09,92.91
14393,52677585,0,1.63,-1.54,16.27,0.01265475,0.003020035,-0.3564184,0.07068426999999999,0.7013087,-0.088674,0.05104721,-0.03,-0.04,-0.09,92.91
14434,52691177,0,1.63,-1.54,16.27,0.01274484,0.003013036,-0.3547013,0.05588763,0.7013087,-0.088674,0.05225585,-0.03,-0.04,-0.09,92.91
14475,52702059,0,1.63,-1.54,16.27,0.01274899,0.002934758,-0.3532771,0.05429724,0.7013087,-0.088674,0.05424462,-0.03,-0.04,-0.09,92.91
14515,52712872,0,1.63,-1.54,16.27,0.01267841,0.002871484,-0.3517269,0.05743635,0.7013087,-0.088674,0.05631265,-0.03,-0.04,-0.09,92.91
14558,52722858,0,1.63,-1.54,16.27,0.0127045,0.002862516,-0.3504468,0.06022128,0.7013087,-0.088674,0.05813279,-0.03,-0.04,-0.09,92.91
14598,52732816,0,1.62,-1.54,16.27,0.01273394,0.002937247,-0.3503237,0.06706896,0.7013087,-0.088674,0.054633,-0.03,-0.04,-0.09,92.91
14643,52742855,0,1.63,-1.54,16.26,0.01268534,0.002809705,-0.3488837,0.07016661,0.7013087,-0.088674,0.05623868,-0.03,-0.04,-0.09,92.91
14683,52752848,0,1.63,-1.54,16.26,0.01269171,0.002806503,-0.34767,0.07140492,0.7013087,-0.088674,0.05761524,-0.03,-0.04,-0.09,92.91
14724,52762879,0,1.62,-1.54,16.26,0.012455,0.002697088,-0.3465425,0.06833413000000001,0.7013087,-0.088674,0.05878658,-0.03,-0.04,-0.09,92.91
14769,52775396,0,1.63,-1.54,16.26,0.01236288,0.00259061,-0.3448713,0.06894483999999999,0.7013087,-0.088674,0.06118319,-0.03,-0.04,-0.09,92.91
14812,52788840,0,1.63,-1.54,16.26,0.0124304,0.002372945,-0.3433279,0.08216950000000001,0.7124406,-0.09673528000000001,0.06327032,-0.03,-0.04,-0.09,92.91
14854,52798524,0,1.63,-1.54,16.26,0.01237529,0.002132969,-0.3417602,0.09030199,0.7124406,-0.09673528000000001,0.06611452,-0.03,-0.04,-0.09,92.91
14895,52809192,0,1.63,-1.53,16.26,0.01222273,0.001806961,-0.3401954,0.1070601,0.7124406,-0.09673528000000001,0.06832031,-0.03,-0.04,-0.09,92.91
14936,52819558,0,1.63,-1.53,16.27,0.0121278,0.001752584,-0.3387289,0.1150447,0.7124406,-0.09673528000000001,0.07060983999999999,-0.03,-0.04,-0.09,92.91
14979,52830339,0,1.63,-1.53,16.27,0.01216763,0.001686052,-0.337551,0.1258808,0.7124406,-0.09673528000000001,0.07229777,-0.04,-0.04,-0.09,92.91
15026,52843296,0,1.63,-1.53,16.27,0.01209583,0.001827839,-0.3360046,0.1337161,0.7124406,-0.09673528000000001,0.0730885,-0.04,-0.04,-0.09,92.91
15067,52853847,0,1.63,-1.53,16.27,0.01216112,0.002056655,-0.335496,0.1379449,0.7124406,-0.09673528000000001,0.06973403,-0.04,-0.04,-0.09,92.91
15107,52863795,0,1.63,-1.53,16.27,0.01203598,0.002002778,-0.3339465,0.1370092,0.7124406,-0.09673528000000001,0.07133768,-0.03,-0.04,-0.09,92.91
15148,52873925,0,1.63,-1.53,16.27,0.01199886,0.001996056,-0.3327923,0.1332853,0.7124406,-0.09673528000000001,0.07271878,-0.04,-0.04,-0.09,92.91
15186,52883838,0,1.63,-1.53,16.27,0.01190649,0.001866789,-0.3312511,0.1277186,0.7124406,-0.09673528000000001,0.07537397,-0.03,-0.04,-0.09,92.91
15224,52894202,0,1.63,-1.53,16.27,0.01176533,0.001761222,-0.3296545,0.1227056,0.7124406,-0.09673528000000001,0.0780983,-0.03,-0.04,-0.09,92.91
15265,52904809,0,1.63,-1.53,16.27,0.01175792,0.00172066,-0.329752,0.1255088,0.7124406,-0.09673528000000001,0.07480507,-0.03,-0.04,-0.09,92.91
15305,52914832,0,1.63,-1.53,16.27,0.01157719,0.001659721,-0.3283455,0.1267021,0.7124406,-0.09673528000000001,0.07728446,-0.03,-0.04,-0.09,92.91
15347,52924854,0,1.63,-1.53,16.27,0.01124715,0.001738723,-0.3268109,0.1323764,0.7124406,-0.09673528000000001,0.07948833,-0.03,-0.04,-0.09,92.91
15390,52934918,0,1.63,-1.53,16.27,0.01113807,0.001782406,-0.3255303,0.1354702,0.7124406,-0.09673528000000001,0.08144788,-0.03,-0.04,-0.09,92.91
15437,52945205,0,1.63,-1.53,16.27,0.01102642,0.00175866,-0.3243665,0.1385322,0.7124406,-0.09673528000000001,0.08283675,-0.04,-0.04,-0.09,92.91
15479,52954953,0,1.63,-1.53,16.27,0.01101194,0.001714957,-0.3227904,0.1380958,0.7124406,-0.09673528000000001,0.08432992,-0.04,-0.04,-0.09,92.91
15519,52965019,0,1.63,-1.53,16.27,0.01094844,0.00165235,-0.3214676,0.1318792,0.7124406,-0.09673528000000001,0.08562572,-0.04,-0.04,-0.09,92.91
15560,52974950,0,1.63,-1.53,16.27,0.01073776,0.00168888,-0.3214243,0.1275255,0.7124406,-0.09673528000000001,0.08241581000000001,-0.04,-0.04,-0.09,92.91
15598,52988289,0,1.63,-1.53,16.27,0.01058917,0.001502086,-0.3187166,0.1253911,0.7124406,-0.09673528000000001,0.09046675999999999,-0.04,-0.04,-0.09,92.91
15638,52998898,0,1.63,-1.53,16.27,0.01055184,0.001338235,-0.3170215,0.1318313,0.7124406,-0.09673528000000001,0.09263372,-0.04,-0.04,-0.09,92.91
15680,53009371,0,1.63,-1.53,16.27,0.01059654,0.001188707,-0.3169024,0.1395847,0.7235725,-0.1047966,0.08946671,-0.04,-0.04,-0.09,92.91
15722,53019542,0,1.63,-1.53,16.27,0.010618,0.001016598,-0.3154845,0.1435591,0.7235725,-0.1047966,0.09172835,-0.04,-0.04,-0.09,92.91
15763,53029971,0,1.63,-1.53,16.27,0.01040888,0.000955977,-0.3140379,0.1413705,0.7235725,-0.1047966,0.09314138,-0.04,-0.04,-0.09,92.91
15803,53039932,0,1.63,-1.53,16.26,0.01033032,0.0009327367,-0.3126341,0.138125,0.7235725,-0.1047966,0.09495286999999999,-0.04,-0.04,-0.09,92.91
15849,53050308,0,1.63,-1.53,16.26,0.01029431,0.0008744127,-0.3113967,0.1353575,0.7235725,-0.1047966,0.09653196,-0.04,-0.04,-0.09,92.91
15890,53061007,0,1.63,-1.53,16.26,0.01029621,0.0008974256,-0.3100208,0.1290074,0.7235725,-0.1047966,0.09760389,-0.04,-0.04,-0.09,92.91
15931,53071859,0,1.63,-1.53,16.26,0.01021089,0.000942449,-0.3096547,0.1246733,0.7235725,-0.1047966,0.09450919000000001,-0.04,-0.04,-0.09,92.91
15971,53081891,0,1.63,-1.53,16.26,0.01012985,0.001117519,-0.3083324,0.1168372,0.7235725,-0.1047966,0.09571531,-0.04,-0.04,-0.09,92.91
16006,53092426,0,1.63,-1.53,16.26,0.01007504,0.001076028,-0.3066107,0.1131064,0.7235725,-0.1047966,0.09868439,-0.04,-0.04,-0.09,92.91
16047,53102407,0,1.63,-1.53,16.26,0.009990728000000001,0.001139136,-0.3054144,0.116424,0.7235725,-0.1047966,0.1016664,-0.04,-0.04,-0.09,92.91
16087,53112768,0,1.63,-1.53,16.26,0.009972145999999999,0.0009694224,-0.3040627,0.1182687,0.7235725,-0.1047966,0.1043961,-0.04,-0.04,-0.09,92.91
16128,53122959,0,1.63,-1.53,16.26,0.01003904,0.0007089113,-0.3038631,0.1207305,0.7235725,-0.1047966,0.1013598,-0.04,-0.04,-0.09,92.91
16168,53132933,0,1.63,-1.53,16.26,0.0100884,0.0006723778,-0.3024213,0.1218669,0.7235725,-0.1047966,0.1038894,-0.03,-0.04,-0.09,92.91
16209,53142886,0,1.63,-1.53,16.25,0.01006936,0.0006666834,-0.3010221,0.1162695,0.7235725,-0.1047966,0.1062104,-0.03,-0.04,-0.09,92.91
16256,53152868,0,1.63,-1.53,16.25,0.01003816,0.0004775459,-0.2996418,0.1122152,0.7235725,-0.1047966,0.1082896,-0.03,-0.04,-0.09,92.91
16298,53162953,0,1.63,-1.53,16.25,0.009908162,0.0005245474,-0.298595,0.1122828,0.7235725,-0.1047966,0.1098271,-0.03,-0.04,-0.09,92.91
16339,53173068,0,1.63,-1.52,16.26,0.009751928,0.0006217192,-0.2982866,0.1145678,0.7235725,-0.1047966,0.106846,-0.03,-0.04,-0.09,92.91
16379,53182913,0,1.63,-1.52,16.25,0.009623476000000001,0.0006150216,-0.2968996,0.1149774,0.7235725,-0.1047966,0.108478,-0.03,-0.04,-0.09,92.91
16422,53196387,0,1.63,-1.52,16.25,0.009668998999999999,0.0006297854,-0.2953544,0.1209576,0.7347044,-0.1128578,0.1110085,-0.03,-0.04,-0.09,92.91
16462,53206192,0,1.63,-1.52,16.25,0.009618514999999999,0.0005458222,-0.2938074,0.1283166,0.7347044,-0.1128578,0.114161,-0.03,-0.04,-0.09,92.91
16503,53216947,0,1.63,-1.52,16.25,0.009386525999999999,0.0005452328,-0.2920843,0.134978,0.7347044,-0.1128578,0.1167674,-0.03,-0.04,-0.09,92.91
16545,53226903,0,1.63,-1.52,16.25,0.00933382,0.0004428484,-0.2906709,0.1405198,0.7347044,-0.1128578,0.1194109,-0.03,-0.04,-0.09,92.91
16585,53236915,0,1.63,-1.52,16.25,0.009442562,0.0003813519,-0.2894423,0.1418388,0.7347044,-0.1128578,0.1218204,-0.03,-0.04,-0.09,92.91
16626,53247245,0,1.63,-1.52,16.25,0.009192906000000001,0.0005743932,-0.2891859,0.1473622,0.7347044,-0.1128578,0.1189302,-0.03,-0.04,-0.09,92.91
16671,53257219,0,1.63,-1.52,16.26,0.009135163,0.0002049525,-0.2877858,0.1509515,0.7347044,-0.1128578,0.1211142,-0.03,-0.04,-0.09,92.91
16712,53267234,0,1.63,-1.52,16.26,0.008894819,0.000238341,-0.2862712,0.1503303,0.7347044,-0.1128578,0.1230822,-0.03,-0.04,-0.09,92.91
16756,53277522,0,1.63,-1.52,16.26,0.008933685,0.0001816353,-0.2853006,0.1451819,0.7347044,-0.1128578,0.1248428,-0.03,-0.04,-0.09,92.91
16796,53290968,0,1.63,-1.52,16.26,0.008886639999999999,0.0001409089,-0.2834975,0.1413055,0.7347044,-0.1128578,0.1273283,-0.03,-0.04,-0.09,92.91
16837,53301419,0,1.63,-1.52,16.26,0.008723229000000001,9.368274e-05,-0.2818545,0.1446716,0.7347044,-0.1128578,0.1306537,-0.03,-0.04,-0.09,92.91
16878,53312026,0,1.63,-1.52,16.26,0.008484528999999999,-9.765498e-05,-0.2802193,0.1489159,0.7347044,-0.1128578,0.1334413,-0.03,-0.04,-0.09,92.91
16918,53322785,0,1.63,-1.52,16.26,0.008501929,-0.0002095838,-0.2801207,0.1573101,0.7347044,-0.1128578,0.1306428,-0.03,-0.04,-0.09,92.91
16959,53332546,0,1.63,-1.52,16.26,0.008442128,-0.0005001118,-0.2786141,0.1626851,0.7347044,-0.1128578,0.1334764,-0.03,-0.04,-0.09,92.91
16999,53342794,0,1.63,-1.52,16.27,0.008262617999999999,-0.000696694,-0.2772233,0.1668926,0.7347044,-0.1128578,0.1360574,-0.03,-0.04,-0.09,92.91
17048,53355209,0,1.63,-1.52,16.27,0.008107824,-0.0007421239,-0.2759719,0.1685876,0.7347044,-0.1128578,0.137582,-0.03,-0.04,-0.09,92.91
17090,53365073,0,1.63,-1.52,16.27,0.008102098,-0.0007617611,-0.2744696,0.1681701,0.7347044,-0.1128578,0.1397042,-0.03,-0.04,-0.09,92.91
17132,53375865,0,1.62,-1.52,16.27,0.007938106,-0.0008054568,-0.2732,0.1675224,0.7347044,-0.1128578,0.1415941,-0.03,-0.04,-0.09,92.91
17173,53388274,0,1.63,-1.52,16.27,0.007736429,-0.001008358,-0.2717499,0.1684372,0.7347044,-0.1128578,0.1445301,-0.03,-0.04,-0.09,92.91
17217,53400848,0,1.63,-1.52,16.27,0.007612098,-0.001070074,-0.2703213,0.1714514,0.7347044,-0.1128578,0.1474701,-0.03,-0.04,-0.09,92.91
17258,53410826,0,1.63,-1.52,16.28,0.007435409,-0.001191229,-0.2690246,0.1743436,0.7347044,-0.1128578,0.1506764,-0.03,-0.04,-0.09,92.91
17299,53421193,0,1.63,-1.52,16.28,0.007470946,-0.001203628,-0.268717,0.1829986,0.7347044,-0.1128578,0.1477217,-0.03,-0.04,-0.09,92.91
17340,53431840,0,1.63,-1.52,16.28,0.007421785,-0.00138001,-0.2672639,0.1863441,0.7347044,-0.1128578,0.1507078,-0.03,-0.04,-0.09,92.91
17380,53441918,0,1.63,-1.52,16.28,0.007484701,-0.001609306,-0.2657697,0.1889925,0.7347044,-0.1128578,0.1534384,-0.03,-0.04,-0.09,92.91
17421,53451947,0,1.63,-1.52,16.28,0.007452588,-0.00182134,-0.2644833,0.1874349,0.7347044,-0.1128578,0.1559393,-0.03,-0.04,-0.09,92.91
17466,53461852,0,1.63,-1.52,16.28,0.007394102,-0.002009073,-0.2632594,0.1845804,0.7347044,-0.1128578,0.1582045,-0.03,-0.04,-0.09,92.91
17507,53472572,0,1.63,-1.52,16.28,0.007398821,-0.002270872,-0.2627832,0.184383,0.7347044,-0.1128578,0.1553141,-0.03,-0.04,-0.09,92.91
17548,53482419,0,1.63,-1.52,16.28,0.007255006,-0.002375454,-0.2614611,0.1791229,0.7347044,-0.1128578,0.1573951,-0.03,-0.04,-0.09,92.91
17585,53492759,0,1.63,-1.52,16.28,0.007230483,-0.002511597,-0.2602695,0.1727272,0.7347044,-0.1128578,0.1592595,-0.03,-0.04,-0.09,92.91
17623,53503021,0,1.63,-1.52,16.28,0.007309404,-0.002576179,-0.2586505,0.1662626,0.7347044,-0.1128578,0.1630332,-0.03,-0.04,-0.09,92.91
17664,53513440,0,1.63,-1.52,16.27,0.00724871,-0.002821245,-0.25703,0.1687811,0.7347044,-0.1128578,0.1667541,-0.03,-0.04,-0.09,92.91
17704,53524018,0,1.62,-1.52,16.27,0.0071406,-0.002814588,-0.2553556,0.1729207,0.7347044,-0.1128578,0.1699553,-0.03,-0.04,-0.09,92.91
17744,53534302,0,1.63,-1.52,16.27,0.007148588,-0.002913615,-0.2551512,0.1819215,0.7347044,-0.1128578,0.1674052,-0.03,-0.04,-0.09,92.91
17784,53544352,0,1.63,-1.52,16.27,0.007154368,-0.003001799,-0.2536982,0.1879374,0.7347044,-0.1128578,0.1706206,-0.03,-0.04,-0.09,92.91
17825,53554305,0,1.63,-1.52,16.27,0.007209388,-0.002963977,-0.2523403,0.1929751,0.7347044,-0.1128578,0.1735753,-0.03,-0.04,-0.09,92.91
17870,53564306,0,1.63,-1.52,16.27,0.007115704,-0.00291209,-0.2507023,0.1940649,0.7347044,-0.1128578,0.1762944,-0.03,-0.04,-0.09,92.91
17911,53574399,0,1.63,-1.52,16.27,0.006912685,-0.002958684,-0.2493152,0.1934628,0.7347044,-0.1128578,0.1787768,-0.03,-0.04,-0.09,92.91
17955,53584610,0,1.63,-1.52,16.27,0.006934089,-0.003021258,-0.2492249,0.1955563,0.7458363,-0.1128578,0.176287,-0.03,-0.04,-0.09,92.91
17995,53594842,0,1.63,-1.52,16.27,0.006835097,-0.003196267,-0.2479914,0.1934952,0.7458363,-0.1128578,0.1785649,-0.03,-0.04,-0.09,92.91
18033,53607277,0,1.63,-1.52,16.27,0.006709957,-0.003313616,-0.2464029,0.1942054,0.7458363,-0.1128578,0.1817117,-0.03,-0.04,-0.09,92.91
18074,53617208,0,1.63,-1.52,16.27,0.006657198,-0.003528537,-0.244934,0.2014516,0.7458363,-0.1128578,0.1852984,-0.03,-0.04,-0.09,92.91
18114,53627504,0,1.63,-1.52,16.26,0.006414163,-0.003696257,-0.2434973,0.2005352,0.7458363,-0.1128578,0.1886566,-0.03,-0.04,-0.09,92.91
18155,53638253,0,1.63,-1.52,16.26,0.006293564,-0.003756001,-0.2422787,0.1993869,0.7458363,-0.1128578,0.1915216,-0.03,-0.04,-0.09,92.91
18196,53648963,0,1.63,-1.52,16.26,0.006316978,-0.003847035,-0.2420805,0.2028491,0.7458363,-0.1128578,0.1891018,-0.03,-0.04,-0.09,92.91
18241,53658586,0,1.63,-1.52,16.26,0.006284108,-0.004048045,-0.2403072,0.20372,0.7458363,-0.1128578,0.1919844,-0.03,-0.04,-0.09,92.91
18282,53669276,0,1.63,-1.52,16.26,0.006211488,-0.004113647,-0.2389415,0.2054981,0.7458363,-0.1128578,0.1943742,-0.03,-0.04,-0.09,92.91
18324,53679082,0,1.63,-1.52,16.26,0.006195231,-0.004187307,-0.2376434,0.2050163,0.7458363,-0.1128578,0.1967713,-0.03,-0.04,-0.09,92.91
18365,53689975,0,1.63,-1.52,16.26,0.006030351,-0.004338139,-0.2363192,0.200067,0.7458363,-0.1128578,0.1989605,-0.03,-0.04,-0.09,92.91
18405,53702690,0,1.63,-1.52,16.26,0.00594656,-0.004326123,-0.2343372,0.1977332,0.7458363,-0.1128578,0.2025257,-0.03,-0.04,-0.09,92.91
18446,53712754,0,1.63,-1.52,16.26,0.005974457,-0.004327404,-0.2325293,0.2025012,0.7458363,-0.1128578,0.2064863,-0.03,-0.04,-0.09,92.91
18483,53722849,0,1.63,-1.52,16.26,0.005936483,-0.004394126,-0.2313316,0.2078334,0.7458363,-0.1128578,0.2101656,-0.03,-0.04,-0.09,92.91
18524,53733047,0,1.63,-1.52,16.26,0.005700553,-0.00434963,-0.2297269,0.2190025,0.7458363,-0.1128578,0.2133296,-0.03,-0.04,-0.09,92.91
18565,53743503,0,1.63,-1.52,16.26,0.005770603,-0.004403628,-0.2294839,0.2304309,0.7458363,-0.1128578,0.2110358,-0.03,-0.04,-0.09,92.91
18606,53753444,0,1.63,-1.52,16.25,0.005834701,-0.004439895,-0.2279339,0.2366474,0.7458363,-0.1128578,0.2142041,-0.03,-0.04,-0.09,92.91
18651,53763450,0,1.63,-1.52,16.26,0.005756603,-0.004464211,-0.2264894,0.2401369,0.7458363,-0.1128578,0.217124,-0.03,-0.04,-0.09,92.91
18693,53774030,0,1.63,-1.52,16.26,0.005919711,-0.004538431,-0.225014,0.2434823,0.7458363,-0.1128578,0.2195713,-0.03,-0.04,-0.09,92.91
18736,53783990,0,1.63,-1.52,16.26,0.005990189,-0.004627419,-0.2235949,0.2426757,0.7458363,-0.1128578,0.22202,-0.03,-0.04,-0.09,92.91
18774,53794840,0,1.63,-1.52,16.25,0.005783594,-0.004798374,-0.2217882,0.2440259,0.7681,-0.1209191,0.2261049,-0.03,-0.04,-0.09,92.91
18818,53807116,0,1.63,-1.52,16.25,0.00576642,-0.004969598,-0.2200487,0.2500355,0.7681,-0.1209191,0.229684,-0.03,-0.04,-0.09,92.91
18856,53816920,0,1.63,-1.52,16.25,0.005723058,-0.004936695,-0.2182579,0.2571238,0.7681,-0.1209191,0.2334166,-0.03,-0.04,-0.09,92.91
18897,53827055,0,1.63,-1.52,16.25,0.005513653,-0.004949202,-0.2166113,0.2620762,0.7681,-0.1209191,0.2368952,-0.03,-0.04,-0.09,92.91
18938,53837480,0,1.63,-1.52,16.25,0.005474327,-0.004847957,-0.2159758,0.2701893,0.7681,-0.1209191,0.2347348,-0.03,-0.04,-0.09,92.91
18978,53847478,0,1.63,-1.52,16.25,0.005487777,-0.004885723,-0.2147345,0.272483,0.7681,-0.1209191,0.2379947,-0.03,-0.04,-0.09,92.91
19019,53858057,0,1.63,-1.52,16.26,0.005329993,-0.004865075,-0.2132037,0.2706299,0.7681,-0.1209191,0.2408106,-0.03,-0.04,-0.09,92.91
19065,53868302,0,1.63,-1.52,16.26,0.005204844,-0.004980691,-0.2115969,0.2645962,0.7681,-0.1209191,0.2436222,-0.03,-0.04,-0.09,92.91
19105,53878314,0,1.63,-1.52,16.26,0.005160922,-0.004989848,-0.2113063,0.2569019,0.7681,-0.1209191,0.2415099,-0.03,-0.04,-0.09,92.91
19146,53888307,0,1.63,-1.52,16.26,0.005018175,-0.005026511,-0.2099901,0.2432759,0.7681,-0.1209191,0.2441768,-0.03,-0.04,-0.09,92.91
19190,53901175,0,1.63,-1.52,16.26,0.005005327,-0.005144237,-0.2082696,0.2266451,0.7681,-0.1209191,0.2460109,-0.03,-0.04,-0.09,92.91
19228,53911172,0,1.63,-1.52,16.26,0.004928014,-0.005349286,-0.2065801,0.21722,0.7681,-0.1209191,0.2502688,-0.03,-0.04,-0.09,92.91
19269,53921932,0,1.63,-1.52,16.26,0.004881662,-0.005530078,-0.2049507,0.2161126,0.7681,-0.1209191,0.2542249,-0.03,-0.04,-0.09,92.91
19310,53931956,0,1.63,-1.52,16.26,0.004828678,-0.00569787,-0.2031871,0.2173787,0.7681,-0.1209191,0.2579107,-0.03,-0.04,-0.09,92.91
