LineNo,TimeUS,C,Roll,Pitch,Yaw,VN,VE,VD,dPD,PN,PE,PD,GX,GY,GZ,OH
309,49078863,1,1.95,-1.65,16.53,-0.03302129,-0.00166911,-0.1064788,-0.07961068,0.5231985,0.008061273000000001,0.7158272,-0.02,-0.04,-0.1,92.89
536,49125355,1,1.96,-1.65,16.53,-0.03243423,-0.002752533,-0.1055205,-0.06398388000000001,0.5231985,0.008061273000000001,0.7126298,-0.02,-0.04,-0.1,92.89
877,49187205,1,1.95,-1.65,16.54,-0.02971377,-0.002259857,-0.1056387,-0.0633712,0.5231985,0,0.7077353,-0.02,-0.04,-0.09,92.89
997,49215867,1,1.95,-1.65,16.54,-0.02703477,-0.001247111,-0.1053103,-0.0647934,0.5231985,0,0.7059493999999999,-0.02,-0.04,-0.09,92.89
1214,49327364,1,1.96,-1.66,16.56,-0.02022362,0.002512511,-0.3495104,-0.2856635,0.5231985,0,0.6878614,-0.02,-0.04,-0.09,92.89
1407,49424307,1,1.98,-1.66,16.56,-0.01773758,0.002074059,-0.6068358,-0.5206015000000001,0.5343305,0,0.6505393,-0.02,-0.04,-0.08,92.89
1627,49450416,1,1.98,-1.67,16.57,-0.01645054,0.003119282,-0.6067129999999999,-0.5302904000000001,0.5343305,0,0.6356484,-0.02,-0.04,-0.08,92.89
1691,49480367,1,1.97,-1.67,16.57,-0.01706653,0.003608855,-0.6074047,-0.5389769,0.5343305,0,0.619459,-0.02,-0.04,-0.08,92.89
1735,49491358,1,1.97,-1.67,16.56,-0.01686163,0.003195254,-0.6085243,-0.5397736,0.5343305,0,0.6136819,-0.02,-0.04,-0.08,92.89
1776,49501875,1,1.97,-1.67,16.56,-0.0165544,0.002583985,-0.6081707,-0.5392564,0.5343305,0,0.6084937,-0.02,-0.04,-0.08,92.89
1817,49511863,1,1.97,-1.67,16.56,-0.014815,0.001392156,-0.6069778,-0.5378121,0.5343305,0,0.6032149,-0.02,-0.04,-0.08,92.89
1858,49521849,1,1.97,-1.67,16.56,-0.0135133,0.0005177908,-0.6089185,-0.5386588,0.5343305,0,0.5971026,-0.02,-0.04,-0.08,92.89
1899,49531996,1,1.97,-1.68,16.56,-0.013668,0.001534242,-0.6069290000000001,-0.536413,0.5343305,0,0.5912122,-0.02,-0.04,-0.08,92.89
1940,49541858,1,1.97,-1.68,16.56,-0.01360067,0.001259455,-0.6069154,-0.5379065,0.5343305,0,0.5856867,-0.02,-0.04,-0.08,92.89
1980,49551954,1,1.97,-1.68,16.56,-0.01315373,0.002153789,-0.6057296,-0.5384932,0.5343305,0,0.5798133,-0.02,-0.04,-0.08,92.89
2021,49561987,1,1.98,-1.68,16.57,-0.01266699,0.003077895,-0.6056009999999999,-0.5394188,0.5343305,0,0.5744095,-0.02,-0.04,-0.08,92.89
2063,49572203,1,1.98,-1.68,16.57,-0.01167201,0.003645023,-0.605497,-0.5404002,0.5343305,0,0.5690331,-0.02,-0.04,-0.08,92.89
2105,49582287,1,1.98,-1.69,16.57,-0.01228001,0.004821626,-0.6059809,-0.542089,0.5343305,0,0.5635535,-0.02,-0.04,-0.08,92.89
2150,49592355,1,1.99,-1.69,16.57,-0.0117549,0.004286656,-0.6065085,-0.5439197,0.5343305,0,0.5581545999999999,-0.02,-0.04,-0.08,92.89
2190,49602517,1,1.99,-1.69,16.57,-0.01034693,0.002723762,-0.6064259,-0.5459678,0.5343305,0,0.5520402,-0.02,-0.04,-0.08,92.89
2232,49612523,1,1.99,-1.69,16.57,-0.009859173000000001,0.003780685,-0.6050681,-0.5460680999999999,0.5343305,0,0.5465634,-0.02,-0.04,-0.08,92.89
2272,49625800,1,1.98,-1.69,16.56,-0.01009443,0.003315024,-0.6037216,-0.5474897,0.5343305,0,0.539082,-0.02,-0.04,-0.08,92.89
2313,49636014,1,1.98,-1.69,16.57,-0.008860032,0.002269084,-0.6020969,-0.5461341,0.5343305,0,0.5343179,-0.02,-0.04,-0.08,92.89
2355,49646063,1,1.98,-1.69,16.56,-0.007681414,0.003760155,-0.6008068,-0.5436696,0.5343305,0,0.5288355,-0.02,-0.04,-0.08,92.89
2395,49656528,1,1.97,-1.68,16.56,-0.007021461,0.003499545,-0.6001943,-0.5406132,0.5343305,0,0.5239158,-0.02,-0.04,-0.08,92.89
2436,49666508,1,1.97,-1.68,16.56,-0.006776535,0.003195173,-0.5977775,-0.5354401,0.5343305,0,0.5188787,-0.02,-0.04,-0.08,92.89
2476,49676958,1,1.97,-1.68,16.55,-0.006798702,0.002966793,-0.5963107,-0.530188,0.5343305,0,0.5129535,-0.02,-0.04,-0.08,92.89
2522,49686991,1,1.97,-1.68,16.55,-0.006135103,0.00291833,-0.5940244,-0.5250842999999999,0.5343305,0,0.5079197,-0.02,-0.04,-0.08,92.89
2563,49696964,1,1.97,-1.68,16.55,-0.005146704,0.001560209,-0.5924851,-0.5212575,0.5343305,0,0.5028679,-0.02,-0.04,-0.08,92.89
2603,49707512,1,1.97,-1.68,16.55,-0.004850038,0.001276689,-0.5925481,-0.5199569000000001,0.5343305,0,0.4972544,-0.02,-0.04,-0.08,92.89
2645,49717482,1,1.97,-1.68,16.55,-0.004813349,0.002164848,-0.5942526,-0.5210038,0.5343305,0,0.4921693,-0.02,-0.04,-0.08,92.89
2685,49728019,1,1.98,-1.68,16.54,-0.004494593,0.002684738,-0.5948488,-0.5204018,0.5343305,0,0.4862212,-0.02,-0.04,-0.08,92.89
2723,49737922,1,1.98,-1.68,16.54,-0.004592074,0.003228592,-0.5949832,-0.5195742,0.5343305,0,0.4816465,-0.02,-0.04,-0.08,92.89
2763,49747986,1,1.98,-1.68,16.54,-0.00507343,0.005080704,-0.5931082,-0.5160075,0.5343305,0,0.4770489,-0.02,-0.04,-0.08,92.89
2804,49758021,1,1.98,-1.67,16.54,-0.004837908,0.006475294,-0.5932431,-0.513397,0.5343305,0,0.4711595,-0.02,-0.04,-0.08,92.89
2846,49767913,1,1.98,-1.68,16.53,-0.005160876,0.006463883,-0.5918949999999999,-0.5091830000000001,0.5343305,0,0.4659784,-0.02,-0.04,-0.08,92.89
2886,49777903,1,1.99,-1.68,16.53,-0.004845121,0.006786863,-0.5917526,-0.5055344000000001,0.5343305,0,0.4618678,-0.02,-0.04,-0.08,92.89
2933,49787899,1,1.99,-1.68,16.53,-0.004041011,0.007152169,-0.5909647,-0.5009846999999999,0.5343305,-0.008061273000000001,0.4565184,-0.02,-0.04,-0.08,92.89
2976,49798908,1,1.99,-1.68,16.53,-0.003755804,0.007407586,-0.5927681,-0.4996314,0.5343305,-0.008061273000000001,0.4516742,-0.02,-0.04,-0.08,92.89
3020,49808553,1,1.98,-1.68,16.52,-0.004453463,0.007971203,-0.5935099,-0.4986298,0.5343305,-0.008061273000000001,0.4468052,-0.02,-0.04,-0.08,92.89
3061,49818897,1,1.98,-1.69,16.52,-0.005244124,0.00928707,-0.5899752,-0.4940998,0.5343305,-0.008061273000000001,0.4418523,-0.02,-0.04,-0.08,92.89
3102,49828795,1,1.98,-1.69,16.52,-0.005359375,0.009781188999999999,-0.5904599,-0.4932433,0.5343305,-0.008061273000000001,0.4359509,-0.02,-0.04,-0.08,92.89
3139,49839277,1,1.98,-1.68,16.51,-0.005188243,0.01031872,-0.5900433,-0.4892321,0.5343305,-0.008061273000000001,0.4315149,-0.02,-0.04,-0.08,92.89
3180,49849999,1,1.98,-1.69,16.51,-0.005475718,0.009977018000000001,-0.5903127,-0.4833391,0.5343305,-0.008061273000000001,0.4275916,-0.02,-0.04,-0.08,92.89
3222,49860248,1,1.98,-1.69,16.51,-0.005508389,0.01163311,-0.5909469000000001,-0.4772059,0.5343305,-0.008061273000000001,0.4229406,-0.02,-0.04,-0.08,92.89
3263,49870326,1,1.98,-1.68,16.51,-0.005702202,0.01095887,-0.5920944,-0.4744265,0.5343305,-0.008061273000000001,0.4170406,-0.02,-0.04,-0.08,92.89
3304,49880285,1,1.99,-1.69,16.51,-0.005233496,0.01151526,-0.5916573000000001,-0.4697417,0.5343305,-0.008061273000000001,0.4128875,-0.02,-0.04,-0.08,92.89
3352,49890276,1,1.99,-1.69,16.52,-0.005228066,0.01181237,-0.5927144,-0.4672518,0.5343305,-0.008061273000000001,0.4086666,-0.02,-0.04,-0.08,92.89
3392,49901062,1,2,-1.69,16.52,-0.005534513,0.01337076,-0.592807,-0.4659766,0.5343305,-0.008061273000000001,0.4026408,-0.02,-0.04,-0.08,92.89
3433,49911433,1,2,-1.69,16.51,-0.005866447,0.01408099,-0.5921136,-0.4641938,0.5343305,-0.008061273000000001,0.3977673,-0.02,-0.04,-0.08,92.89
3473,49921400,1,2,-1.69,16.51,-0.005518156,0.0157052,-0.5919619,-0.4633474,0.5343305,-0.008061273000000001,0.393414,-0.02,-0.04,-0.08,92.89
3514,49931243,1,2,-1.69,16.52,-0.004381967,0.01676151,-0.590448,-0.461916,0.5343305,-0.008061273000000001,0.3890594,-0.02,-0.04,-0.08,92.89
3556,49941406,1,2,-1.69,16.52,-0.004874042,0.01699069,-0.5893067,-0.4606043,0.5343305,-0.008061273000000001,0.3831372,-0.02,-0.04,-0.08,92.89
3596,49951329,1,2,-1.7,16.52,-0.004213467,0.0161607,-0.5894876999999999,-0.4569867,0.5343305,-0.008061273000000001,0.3798293,-0.02,-0.04,-0.08,92.89
3637,49961986,1,2,-1.7,16.51,-0.003625779,0.01660237,-0.5882387,-0.4485656,0.5343305,-0.008061273000000001,0.3763495,-0.02,-0.04,-0.08,92.89
3678,49971945,1,2,-1.69,16.51,-0.002603129,0.01729286,-0.5882223,-0.4457727,0.5343305,-0.008061273000000001,0.3705042,-0.02,-0.04,-0.08,92.89
3720,49981893,1,2,-1.69,16.51,-0.002082824,0.01801434,-0.5864483,-0.4404184,0.5343305,-0.008061273000000001,0.3670096,-0.02,-0.04,-0.08,92.89
3767,49991897,1,1.99,-1.69,16.51,-0.002153301,0.01900663,-0.5852537,-0.4396906,0.5454624,-0.008061273000000001,0.3634923,-0.02,-0.04,-0.08,92.89
3807,50002417,1,1.99,-1.69,16.52,-0.001412582,0.01775867,-0.5832198,-0.4334157,0.5454624,-0.008061273000000001,0.3570654,-0.02,-0.04,-0.08,92.89
3848,50012577,1,1.99,-1.69,16.52,-0.0002397559,0.01756436,-0.5828359,-0.4292597,0.5454624,-0.008061273000000001,0.353405,-0.02,-0.04,-0.08,92.89
3888,50022429,1,1.99,-1.68,16.52,-3.822886e-05,0.01592382,-0.5813564,-0.4246684,0.5454624,-0.008061273000000001,0.3496495,-0.02,-0.04,-0.08,92.89
3929,50032421,1,1.99,-1.69,16.52,-0.0002783733,0.01522627,-0.5801381,-0.4202946,0.5454624,-0.008061273000000001,0.3456662,-0.02,-0.04,-0.08,92.89
3969,50045404,1,1.99,-1.69,16.52,-6.761868e-06,0.01504633,-0.5814759,-0.4168196,0.5454624,-0.008061273000000001,0.34128,-0.02,-0.04,-0.08,92.89
4010,50055325,1,1.99,-1.69,16.52,-7.680836e-05,0.014393,-0.5816692,-0.4125659,0.5454624,-0.008061273000000001,0.3384558,-0.02,-0.04,-0.08,92.89
4051,50065941,1,1.99,-1.68,16.52,-0.0005043265,0.01451584,-0.5805334,-0.4017557,0.5454624,-0.008061273000000001,0.3326165,-0.02,-0.04,-0.08,92.89
4092,50076359,1,2,-1.68,16.52,-0.0001054005,0.01535205,-0.5807084,-0.3928848,0.5454624,-0.008061273000000001,0.3289396,-0.02,-0.04,-0.08,92.89
4134,50086305,1,2,-1.69,16.52,-0.00025093,0.01618205,-0.5787826,-0.3863742,0.5454624,-0.008061273000000001,0.3259175,-0.02,-0.04,-0.08,92.89
4180,50096301,1,2,-1.69,16.53,-0.0005241505,0.01663817,-0.5781978,-0.3787559,0.5454624,-0.008061273000000001,0.3226615,-0.02,-0.04,-0.08,92.89
4221,50106319,1,2,-1.69,16.53,-0.0007538301,0.01666458,-0.5781578000000001,-0.3742592,0.5454624,-0.008061273000000001,0.3192816,-0.02,-0.04,-0.08,92.89
4262,50116914,1,2,-1.69,16.53,-0.001327814,0.01778257,-0.5774303,-0.3674672,0.5454624,-0.008061273000000001,0.31352,-0.02,-0.04,-0.08,92.89
4302,50126997,1,1.99,-1.69,16.53,-0.0006660041,0.01828495,-0.5772825,-0.363995,0.5454624,-0.008061273000000001,0.3094089,-0.02,-0.04,-0.08,92.89
4344,50137048,1,1.99,-1.69,16.52,-7.411515e-05,0.01845182,-0.5760775,-0.3590243,0.5454624,-0.008061273000000001,0.307246,-0.02,-0.04,-0.08,92.89
4381,50147041,1,1.99,-1.69,16.53,0.0001184942,0.02053055,-0.5768315000000001,-0.3520551,0.5454624,-0.008061273000000001,0.3053772,-0.02,-0.04,-0.08,92.89
4422,50156943,1,1.99,-1.7,16.53,0.0007777551,0.02072226,-0.5746515,-0.3397274,0.5454624,-0.008061273000000001,0.3023079,-0.02,-0.04,-0.08,92.89
4462,50166977,1,1.99,-1.7,16.53,0.001193922,0.02118063,-0.5745865,-0.3333651,0.5454624,-0.008061273000000001,0.2995998,-0.02,-0.04,-0.08,92.89
4503,50177064,1,1.99,-1.7,16.53,0.001915508,0.02290951,-0.5760447,-0.3260226,0.5454624,-0.008061273000000001,0.2938888,-0.02,-0.04,-0.08,92.89
4544,50186952,1,1.99,-1.7,16.53,0.002418964,0.02397879,-0.5735371,-0.3169161,0.5454624,-0.008061273000000001,0.291011,-0.02,-0.04,-0.08,92.89
4591,50197243,1,2,-1.7,16.53,0.002306718,0.02338855,-0.5731602,-0.3137135,0.5454624,-0.01612255,0.2885846,-0.02,-0.04,-0.08,92.89
4632,50206949,1,2,-1.71,16.52,0.003070003,0.02530357,-0.5734848,-0.3117639,0.5454624,-0.01612255,0.2849377,-0.02,-0.04,-0.08,92.89
4672,50216951,1,2,-1.71,16.52,0.002307062,0.02643394,-0.5736085,-0.3131624,0.5454624,-0.01612255,0.2817346,-0.02,-0.04,-0.08,92.89
4713,50226960,1,2,-1.7,16.52,0.002985795,0.02662596,-0.5739031,-0.3131427,0.5454624,-0.01612255,0.2759676,-0.02,-0.04,-0.08,92.89
4753,50239823,1,2,-1.71,16.53,0.002993669,0.02740382,-0.5729967,-0.3106321,0.5454624,-0.01612255,0.2726408,-0.02,-0.04,-0.08,92.89
4794,50249843,1,2.01,-1.7,16.53,0.003305255,0.02832719,-0.5724455000000001,-0.3078496,0.5454624,-0.01612255,0.2702039,-0.02,-0.04,-0.08,92.89
4834,50260012,1,2,-1.71,16.53,0.004425596,0.02831598,-0.5729564,-0.3059699,0.5454624,-0.01612255,0.267669,-0.02,-0.04,-0.08,92.89
4876,50270322,1,2,-1.7,16.53,0.00391841,0.02901505,-0.5731051,-0.3023285,0.5454624,-0.01612255,0.2643459,-0.02,-0.04,-0.08,92.89
4917,50280317,1,2,-1.7,16.53,0.003495182,0.03056371,-0.5719379,-0.303522,0.5454624,-0.01612255,0.2614812,-0.02,-0.04,-0.08,92.89
4961,50290944,1,2,-1.7,16.53,0.003235042,0.03091636,-0.5702140999999999,-0.3017771,0.5454624,-0.01612255,0.2584947,-0.02,-0.04,-0.08,92.89
5005,50301277,1,2,-1.7,16.53,0.004890225,0.03130198,-0.5695451,-0.300461,0.5454624,-0.01612255,0.2547547,-0.02,-0.04,-0.08,92.89
5045,50311435,1,2.01,-1.7,16.52,0.005828111,0.03146631,-0.5685504,-0.2988203,0.5454624,-0.01612255,0.2491156,-0.02,-0.04,-0.08,92.89
5088,50321513,1,2,-1.7,16.52,0.006983432,0.03117486,-0.568404,-0.3015381,0.5454624,-0.01612255,0.2458963,-0.02,-0.04,-0.08,92.89
5129,50334738,1,2,-1.7,16.52,0.006138996,0.03186243,-0.566291,-0.3050917,0.5454624,-0.01612255,0.240854,-0.02,-0.04,-0.09,92.89
5170,50344429,1,2,-1.7,16.53,0.006052901,0.03115275,-0.5642035,-0.3139696,0.5454624,-0.01612255,0.2351915,-0.02,-0.04,-0.09,92.89
5208,50355042,1,2,-1.71,16.53,0.006862554,0.03205177,-0.5625034,-0.3208469,0.5454624,-0.01612255,0.2338025,-0.02,-0.04,-0.08,92.89
5248,50364917,1,2,-1.71,16.53,0.006001482,0.03378946,-0.5616613,-0.3277427,0.5454624,-0.01612255,0.2323407,-0.02,-0.04,-0.08,92.89
5289,50375168,1,2,-1.71,16.53,0.00528633,0.03401507,-0.560376,-0.3234867,0.5454624,-0.01612255,0.2267015,-0.02,-0.04,-0.08,92.89
5332,50384964,1,2.01,-1.71,16.53,0.006662742,0.03480583,-0.5586545000000001,-0.3178973,0.5565943,-0.01612255,0.2249389,-0.02,-0.04,-0.08,92.89
5373,50395225,1,2,-1.71,16.53,0.006839537,0.03477659,-0.5575288,-0.3197526,0.5565943,-0.01612255,0.2231646,-0.02,-0.04,-0.08,92.89
5418,50405354,1,2,-1.71,16.53,0.007635691,0.03539295,-0.5559092,-0.3142108,0.5565943,-0.01612255,0.2206309,-0.02,-0.04,-0.08,92.89
5459,50415889,1,2.01,-1.71,16.53,0.008386424,0.03612712,-0.5569465,-0.3076957,0.5565943,-0.01612255,0.2150927,-0.02,-0.04,-0.08,92.89
5500,50425873,1,2.01,-1.72,16.53,0.008870424999999999,0.03573841,-0.5574538999999999,-0.3031834,0.5565943,-0.01612255,0.2128831,-0.02,-0.04,-0.08,92.89
5540,50435881,1,2.01,-1.72,16.53,0.008654277,0.03622196,-0.5569729,-0.2983883,0.5565943,-0.01612255,0.2105505,-0.02,-0.04,-0.08,92.89
5581,50448930,1,2.01,-1.72,16.53,0.007958138,0.0361964,-0.555667,-0.2909499,0.5565943,-0.01612255,0.2063445,-0.02,-0.04,-0.08,92.89
5619,50458478,1,2.01,-1.72,16.54,0.007800373,0.03759469,-0.5567038,-0.2867204,0.5565943,-0.01612255,0.2049005,-0.02,-0.04,-0.08,92.89
5660,50468914,1,2.01,-1.72,16.53,0.008810059,0.03768634,-0.5564557999999999,-0.2827484,0.5565943,-0.01612255,0.2035894,-0.02,-0.04,-0.08,92.89
5701,50479492,1,2.01,-1.72,16.53,0.009998682,0.03756297,-0.5587198,-0.2782146,0.5565943,-0.01612255,0.1971223,-0.02,-0.04,-0.08,92.89
5741,50489187,1,2.01,-1.72,16.53,0.008902204,0.03882248,-0.5596475,-0.2826157,0.5565943,-0.01612255,0.1953335,-0.02,-0.04,-0.08,92.89
5786,50499305,1,2.01,-1.72,16.53,0.009868128,0.04000853,-0.558131,-0.2833001,0.5565943,-0.01612255,0.1897252,-0.02,-0.04,-0.08,92.89
5826,50509189,1,2,-1.73,16.53,0.009523815,0.04025138,-0.5569158,-0.2841293,0.5565943,-0.01612255,0.1878001,-0.02,-0.04,-0.08,92.89
5869,50519191,1,2,-1.73,16.53,0.008596829,0.04161863,-0.5567539,-0.2877023,0.5565943,-0.01612255,0.1856623,-0.02,-0.04,-0.08,92.89
5909,50529912,1,2,-1.73,16.54,0.008921363,0.04310915,-0.5559382,-0.2905017,0.5565943,-0.01612255,0.1834092,-0.02,-0.04,-0.08,92.89
5947,50540079,1,2,-1.73,16.54,0.008389689000000001,0.04359496,-0.5548916,-0.2894796,0.5565943,-0.01612255,0.1803616,-0.02,-0.04,-0.08,92.89
5987,50550093,1,2,-1.73,16.54,0.009973967,0.04417197,-0.5568377,-0.2892604,0.5565943,-0.01612255,0.1748548,-0.02,-0.04,-0.08,92.89
6024,50559995,1,2,-1.72,16.54,0.009653775999999999,0.04386589,-0.5559319,-0.282258,0.5565943,-0.01612255,0.1739309,-0.02,-0.04,-0.08,92.89
6065,50570051,1,2.01,-1.72,16.54,0.009546015999999999,0.0440395,-0.5539343,-0.2738482,0.5565943,-0.01612255,0.1728387,-0.02,-0.04,-0.08,92.89
6111,50582752,1,2.01,-1.72,16.54,0.008851726000000001,0.04422264,-0.5539965,-0.2632428,0.5677261,-0.02418382,0.1703067,-0.02,-0.04,-0.08,92.89
6151,50592613,1,2.01,-1.72,16.54,0.008791583,0.04461087,-0.5519746,-0.2550419,0.5677261,-0.02418382,0.1689065,-0.02,-0.04,-0.08,92.89
6199,50605389,1,2.01,-1.73,16.54,0.008308530999999999,0.04682665,-0.5491222,-0.2474154,0.5677261,-0.02418382,0.1655922,-0.02,-0.04,-0.08,92.89
6239,50615894,1,2.01,-1.73,16.55,0.009156553,0.04659829,-0.5465124,-0.239293,0.5677261,-0.02418382,0.1600268,-0.02,-0.04,-0.08,92.89
6280,50626046,1,2.01,-1.73,16.55,0.009761106,0.04669312,-0.5461626000000001,-0.2365421,0.5677261,-0.02418382,0.1583319,-0.02,-0.04,-0.08,92.89
6321,50635894,1,2.01,-1.73,16.55,0.008365223999999999,0.0472321,-0.5445276999999999,-0.2334351,0.5677261,-0.02418382,0.1563169,-0.02,-0.04,-0.08,92.89
6360,50648494,1,2.01,-1.74,16.56,0.008246326999999999,0.04770541,-0.5441033,-0.2347367,0.5677261,-0.02418382,0.1538213,-0.02,-0.04,-0.08,92.89
6400,50658247,1,2,-1.74,16.56,0.008720018,0.04954441,-0.5439121,-0.2349448,0.5677261,-0.02418382,0.1484582,-0.02,-0.04,-0.08,92.89
6441,50668501,1,2,-1.74,16.56,0.009736649,0.04997975,-0.5420492,-0.2364196,0.5677261,-0.02418382,0.1474737,-0.02,-0.04,-0.08,92.89
6483,50678971,1,2,-1.75,16.56,0.009407112,0.04965094,-0.5426175,-0.2391452,0.5677261,-0.02418382,0.1462153,-0.02,-0.04,-0.08,92.89
6523,50688915,1,2,-1.75,16.56,0.008316766,0.05036318,-0.5436085000000001,-0.2402689,0.5677261,-0.02418382,0.1448042,-0.02,-0.04,-0.08,92.89
6564,50698921,1,2.01,-1.75,16.56,0.007420027,0.05028203,-0.5409561000000001,-0.233392,0.5677261,-0.02418382,0.1426286,-0.02,-0.04,-0.08,92.89
6609,50709254,1,2.01,-1.76,16.56,0.006307323,0.05113926,-0.5410525,-0.2273976,0.5677261,-0.02418382,0.1372404,-0.02,-0.04,-0.08,92.89
6649,50719296,1,2.01,-1.76,16.56,0.006847545,0.05161265,-0.5399026,-0.2226111,0.5677261,-0.02418382,0.1354211,-0.02,-0.04,-0.08,92.89
6691,50729952,1,2.01,-1.76,16.56,0.007216172,0.05141611,-0.5373644,-0.2199105,0.5677261,-0.02418382,0.133469,-0.02,-0.04,-0.08,92.89
6732,50740336,1,2.01,-1.76,16.55,0.006381467,0.05190929,-0.5372288,-0.2263604,0.5677261,-0.02418382,0.1275225,-0.02,-0.04,-0.08,92.89
6770,50750766,1,2.01,-1.76,16.55,0.006044794,0.05335039,-0.5370609,-0.2363826,0.5677261,-0.02418382,0.1255215,-0.02,-0.04,-0.08,92.89
6811,50763248,1,2.01,-1.76,16.56,0.007459308,0.05356668,-0.5362526,-0.2483512,0.5677261,-0.02418382,0.1227707,-0.02,-0.04,-0.08,92.89
6851,50773024,1,2.01,-1.77,16.56,0.007881533,0.05339193,-0.5353441,-0.2537773,0.5677261,-0.02418382,0.1220068,-0.02,-0.04,-0.08,92.89
6895,50783782,1,2,-1.77,16.56,0.008694036,0.05389266,-0.5347283,-0.2516657,0.5677261,-0.02418382,0.1161691,-0.02,-0.04,-0.08,92.89
6937,50793794,1,2.01,-1.77,16.56,0.009154915,0.05578158,-0.5327041,-0.249983,0.578858,-0.03224509,0.1146593,-0.02,-0.04,-0.08,92.89
6982,50803851,1,2.01,-1.77,16.57,0.0091159,0.05714475,-0.5319279,-0.2533891,0.578858,-0.03224509,0.1130701,-0.02,-0.04,-0.08,92.89
7022,50814074,1,2.01,-1.78,16.57,0.009212687000000001,0.05664574,-0.5327595000000001,-0.256823,0.578858,-0.03224509,0.1072394,-0.02,-0.04,-0.08,92.89
7063,50824237,1,2.01,-1.78,16.57,0.009672887999999999,0.05785946,-0.5330868,-0.2593017,0.578858,-0.03224509,0.1054155,-0.02,-0.04,-0.08,92.89
7105,50834205,1,2.01,-1.78,16.57,0.01054602,0.05797045,-0.5325327,-0.2615178,0.578858,-0.03224509,0.1034225,-0.02,-0.04,-0.08,92.89
7146,50844226,1,2.01,-1.78,16.57,0.01100884,0.05679747,-0.5292915,-0.2606376,0.578858,-0.03224509,0.1013178,-0.02,-0.04,-0.08,92.89
7191,50856820,1,2.01,-1.78,16.57,0.01103634,0.05708354,-0.5280219,-0.2620094,0.578858,-0.03224509,0.09963447,-0.02,-0.04,-0.08,92.89
7231,50866838,1,2.01,-1.78,16.57,0.01209567,0.05832895,-0.5290074,-0.2610849,0.578858,-0.03224509,0.09870904,-0.02,-0.04,-0.08,92.89
7273,50877176,1,2.02,-1.78,16.57,0.01130898,0.05957544,-0.5316756,-0.2543801,0.578858,-0.03224509,0.09287569,-0.02,-0.04,-0.08,92.89
7314,50887526,1,2.01,-1.78,16.57,0.01206465,0.05928869,-0.5301143,-0.2469956,0.578858,-0.03224509,0.09177202,-0.02,-0.04,-0.08,92.89
7354,50897523,1,2.01,-1.79,16.58,0.01213654,0.06041346,-0.5301685,-0.2410031,0.578858,-0.03224509,0.09043379,-0.02,-0.04,-0.08,92.89
7400,50907527,1,2.02,-1.79,16.58,0.0122424,0.06059787,-0.53103,-0.23872,0.578858,-0.03224509,0.08893648,-0.02,-0.04,-0.08,92.89
7441,50917551,1,2.02,-1.79,16.58,0.01313739,0.06040543,-0.5295947,-0.2346651,0.578858,-0.03224509,0.08719373,-0.02,-0.04,-0.08,92.89
7482,50928246,1,2.02,-1.79,16.58,0.01388714,0.06092481,-0.5273600000000001,-0.2272124,0.578858,-0.03224509,0.08138114,-0.02,-0.04,-0.08,92.89
7522,50938257,1,2.02,-1.79,16.59,0.01334884,0.06127878,-0.5242814,-0.2227062,0.578858,-0.03224509,0.07953635000000001,-0.02,-0.04,-0.08,92.89
7564,50948261,1,2.02,-1.79,16.59,0.01337535,0.06214655,-0.5235596,-0.2180912,0.578858,-0.03224509,0.08014341,-0.02,-0.04,-0.09,92.89
7604,50958242,1,2.02,-1.79,16.59,0.01345792,0.06270665,-0.522539,-0.207436,0.578858,-0.03224509,0.08043718,-0.02,-0.04,-0.09,92.89
7645,50967983,1,2.01,-1.79,16.6,0.01310598,0.06311131,-0.5212554,-0.1972703,0.578858,-0.03224509,0.08051313,-0.02,-0.04,-0.09,92.89
7686,50978436,1,2.01,-1.79,16.6,0.01364929,0.06314400000000001,-0.5213996,-0.1810285,0.578858,-0.03224509,0.07522891,-0.02,-0.04,-0.09,92.89
7728,50988452,1,2.01,-1.79,16.6,0.01454993,0.06315579,-0.5206158,-0.1679479,0.578858,-0.03224509,0.0751887,-0.02,-0.04,-0.09,92.89
7769,50999252,1,2.02,-1.8,16.61,0.01591746,0.06315804,-0.5194829,-0.1559368,0.5899899,-0.04030636,0.0742531,-0.02,-0.04,-0.09,92.89
7813,51009480,1,2.02,-1.8,16.61,0.01653756,0.06291227000000001,-0.5185843,-0.1471877,0.5899899,-0.04030636,0.07363143,-0.02,-0.04,-0.09,92.89
7855,51019845,1,2.01,-1.8,16.61,0.01639092,0.06330521,-0.5160173,-0.1409182,0.5899899,-0.04030636,0.07279509000000001,-0.02,-0.04,-0.09,92.89
7896,51029971,1,2.01,-1.8,16.61,0.01771004,0.06377463999999999,-0.5150389,-0.1341503,0.5899899,-0.04030636,0.07124179999999999,-0.02,-0.04,-0.09,92.89
7936,51039960,1,2.01,-1.8,16.61,0.01792389,0.06338639,-0.5142297,-0.1275713,0.5899899,-0.04030636,0.06608496,-0.02,-0.04,-0.09,92.89
7978,51052799,1,2.02,-1.8,16.61,0.0161067,0.06440253999999999,-0.5110277,-0.1166176,0.5899899,-0.04030636,0.07151876,-0.02,-0.04,-0.09,92.89
8019,51063303,1,2.02,-1.8,16.61,0.01715005,0.06493393,-0.5123754,-0.1011892,0.5899899,-0.04030636,0.06589127,-0.02,-0.04,-0.09,92.89
8060,51073267,1,2.02,-1.8,16.61,0.01801114,0.06451733,-0.5110182,-0.08849600000000001,0.5899899,-0.04030636,0.06615078000000001,-0.02,-0.04,-0.09,92.89
8101,51083423,1,2.02,-1.8,16.62,0.01833543,0.06525251,-0.510366,-0.08086964000000001,0.5899899,-0.04030636,0.06617576999999999,-0.02,-0.04,-0.09,92.89
8141,51093305,1,2.02,-1.8,16.62,0.01877355,0.06556489,-0.5095097,-0.0821231,0.5899899,-0.04030636,0.06591366,-0.02,-0.04,-0.09,92.89
8182,51103273,1,2.02,-1.8,16.62,0.01925331,0.06690473,-0.5107988,-0.08015881,0.5899899,-0.04030636,0.06087628,-0.02,-0.04,-0.09,92.89
8229,51113313,1,2.02,-1.8,16.62,0.02006937,0.06636707,-0.5101095,-0.09398843,0.5899899,-0.04030636,0.05569478,-0.02,-0.04,-0.09,92.89
8270,51123403,1,2.02,-1.8,16.62,0.01984324,0.06617847,-0.5092338,-0.1035492,0.5899899,-0.04030636,0.05540882,-0.02,-0.04,-0.09,92.89
8311,51133339,1,2.02,-1.8,16.62,0.01917934,0.06745511,-0.5087644,-0.1131768,0.5899899,-0.04030636,0.05480802,-0.02,-0.04,-0.09,92.89
8351,51143180,1,2.02,-1.8,16.63,0.01971597,0.06716408,-0.5087521,-0.1276259,0.5899899,-0.04030636,0.05401572,-0.02,-0.04,-0.09,92.89
8393,51155828,1,2.02,-1.8,16.63,0.01976593,0.06838697000000001,-0.5076329000000001,-0.1370923,0.5899899,-0.04030636,0.05206174,-0.02,-0.04,-0.09,92.89
8433,51166210,1,2.02,-1.8,16.63,0.02137076,0.06839327000000001,-0.5065255,-0.1417903,0.5899899,-0.04030636,0.04643234,-0.02,-0.04,-0.09,92.89
8471,51176031,1,2.02,-1.8,16.63,0.02084472,0.06822966,-0.5047659,-0.1425267,0.5899899,-0.04030636,0.04683649,-0.02,-0.04,-0.09,92.89
8512,51186021,1,2.03,-1.8,16.64,0.02103215,0.06803873000000001,-0.50253,-0.1433919,0.5899899,-0.04030636,0.04607617,-0.02,-0.04,-0.09,92.89
8554,51196251,1,2.03,-1.8,16.64,0.02182202,0.06923081,-0.5022875999999999,-0.1441983,0.5899899,-0.04030636,0.04557735,-0.02,-0.04,-0.09,92.89
8596,51206845,1,2.03,-1.81,16.64,0.02240556,0.07074582,-0.5009724,-0.1462162,0.6011218,-0.04836764,0.0449082,-0.02,-0.04,-0.09,92.89
8640,51217014,1,2.03,-1.81,16.64,0.02292551,0.07248278,-0.5013937000000001,-0.1454643,0.6011218,-0.04836764,0.03936896,-0.02,-0.04,-0.09,92.89
8681,51227607,1,2.03,-1.81,16.64,0.02353339,0.07331971,-0.5005814,-0.1478062,0.6011218,-0.04836764,0.03846582,-0.02,-0.04,-0.09,92.89
8722,51237755,1,2.03,-1.81,16.64,0.02410565,0.07370778,-0.5004641,-0.1510257,0.6011218,-0.04836764,0.03734008,-0.02,-0.04,-0.09,92.89
8763,51247900,1,2.03,-1.81,16.64,0.02518293,0.07384004,-0.4994279,-0.1558007,0.6011218,-0.04836764,0.03607586,-0.02,-0.04,-0.09,92.89
8802,51260313,1,2.03,-1.81,16.64,0.02462239,0.0730799,-0.4991119,-0.1585372,0.6011218,-0.04836764,0.03547718,-0.02,-0.04,-0.09,92.89
8842,51270279,1,2.04,-1.81,16.64,0.0253595,0.07368131999999999,-0.496049,-0.1556489,0.6011218,-0.04836764,0.03607189,-0.02,-0.04,-0.09,92.89
8885,51281082,1,2.03,-1.81,16.64,0.02684075,0.07441539,-0.4938899,-0.1435277,0.6011218,-0.04836764,0.03112958,-0.02,-0.04,-0.09,92.89
8925,51291445,1,2.04,-1.81,16.64,0.02816281,0.07400291000000001,-0.4916711,-0.1346167,0.6011218,-0.04836764,0.03105243,-0.02,-0.04,-0.09,92.89
8966,51301351,1,2.04,-1.81,16.64,0.02822336,0.07486063,-0.4910444,-0.126731,0.6011218,-0.04836764,0.03116289,-0.02,-0.04,-0.09,92.89
9011,51311342,1,2.04,-1.81,16.64,0.02811402,0.07560176,-0.4902168,-0.1196296,0.6011218,-0.04836764,0.03114177,-0.02,-0.04,-0.09,92.89
9051,51321422,1,2.04,-1.8,16.64,0.02837409,0.07491908,-0.4905525,-0.1163781,0.6011218,-0.04836764,0.02621214,-0.02,-0.04,-0.09,92.89
9092,51331427,1,2.04,-1.8,16.64,0.0297378,0.07519481,-0.4909212,-0.1161981,0.6011218,-0.04836764,0.02593781,-0.02,-0.04,-0.09,92.89
9132,51341971,1,2.04,-1.8,16.64,0.03090958,0.075712,-0.4902977,-0.1120592,0.6011218,-0.04836764,0.02535699,-0.02,-0.04,-0.09,92.89
9173,51352427,1,2.04,-1.8,16.64,0.03073293,0.07585264999999999,-0.4880257,-0.1098905,0.6011218,-0.04836764,0.02408433,-0.02,-0.04,-0.09,92.89
9210,51362307,1,2.04,-1.8,16.64,0.03109448,0.07596198999999999,-0.4900155,-0.1188117,0.6011218,-0.04836764,0.0192792,-0.02,-0.04,-0.09,92.89
9251,51372359,1,2.04,-1.8,16.64,0.03117266,0.07637304,-0.4886456,-0.1162904,0.6011218,-0.04836764,0.02085505,-0.02,-0.04,-0.09,92.89
9294,51382374,1,2.04,-1.8,16.64,0.03149413,0.07696043,-0.4878812,-0.1113637,0.6011218,-0.04836764,0.02208649,-0.02,-0.04,-0.09,92.89
9334,51392839,1,2.04,-1.81,16.65,0.03237854,0.07753988000000001,-0.485375,-0.09658700000000001,0.6011218,-0.04836764,0.02304875,-0.02,-0.04,-0.09,92.89
9375,51402588,1,2.04,-1.81,16.65,0.03188479,0.07771392000000001,-0.4839838,-0.08632194,0.6011218,-0.04836764,0.02378587,-0.02,-0.04,-0.09,92.89
9419,51412564,1,2.04,-1.81,16.65,0.03330365,0.0789593,-0.4836321,-0.07778816,0.6011218,-0.04836764,0.02419213,-0.02,-0.04,-0.09,92.89
9460,51423032,1,2.04,-1.81,16.65,0.03422108,0.07978117999999999,-0.4837543,-0.06538910000000001,0.6011218,-0.04836764,0.01889133,-0.02,-0.04,-0.09,92.89
9501,51432994,1,2.05,-1.81,16.65,0.0342478,0.08082427,-0.482893,-0.05783121,0.6011218,-0.04836764,0.01903626,-0.02,-0.04,-0.09,92.89
9527,51455811,1,2.05,-1.82,16.64,0.03434326,0.08152413,-0.4806098,-0.04350487,0.6011218,-0.04836764,0.01983278,-0.02,-0.04,-0.09,92.89
9567,51465787,1,2.05,-1.82,16.65,0.03467391,0.08230367,-0.4786887,-0.03077435,0.6011218,-0.04836764,0.02126752,-0.02,-0.04,-0.09,92.89
9609,51475940,1,2.05,-1.82,16.65,0.03498948,0.08214751000000001,-0.4773524,-0.01991604,0.6011218,-0.04836764,0.02196784,-0.02,-0.04,-0.09,92.89
9649,51485970,1,2.04,-1.82,16.65,0.03540437,0.08291287,-0.4764324,-0.01522505,0.6011218,-0.04836764,0.02286081,-0.02,-0.04,-0.09,92.89
9690,51495912,1,2.05,-1.82,16.65,0.0353456,0.08396035,-0.4765488,-0.00618637,0.6011218,-0.04836764,0.01812388,-0.02,-0.04,-0.09,92.89
9730,51506077,1,2.05,-1.82,16.65,0.03525856,0.08412956000000001,-0.4764282,-0.0007457933,0.6011218,-0.04836764,0.01921303,-0.02,-0.04,-0.09,92.89
9775,51516072,1,2.05,-1.83,16.66,0.03583243,0.08488132,-0.4758703,0.0002836299,0.6011218,-0.04836764,0.01956991,-0.02,-0.04,-0.09,92.89
9817,51526556,1,2.05,-1.83,16.66,0.03488173,0.08454472,-0.475908,-0.0007787284,0.6011218,-0.04836764,0.01928722,-0.02,-0.04,-0.09,92.89
9857,51536788,1,2.05,-1.83,16.66,0.03462385,0.08577354,-0.4746571,-0.005974913,0.6011218,-0.04836764,0.01918314,-0.02,-0.04,-0.09,92.89
9899,51547078,1,2.05,-1.83,16.66,0.03460235,0.08742734000000001,-0.4743826,-0.008455536,0.6011218,-0.04836764,0.01445673,-0.02,-0.04,-0.09,92.89
9936,51557020,1,2.04,-1.83,16.66,0.03397398,0.08673267,-0.4716986,-0.006001632,0.6011218,-0.04836764,0.01624046,-0.02,-0.04,-0.09,92.89
9977,51567007,1,2.04,-1.83,16.66,0.03389556,0.0861364,-0.4705162,0.004101007,0.6011218,-0.04836764,0.01865863,-0.02,-0.04,-0.09,92.89
10019,51577238,1,2.04,-1.83,16.67,0.03474081,0.0864573,-0.4685594,0.008590560000000001,0.6011218,-0.04836764,0.0198232,-0.02,-0.04,-0.09,92.89
10061,51587285,1,2.05,-1.83,16.67,0.03491312,0.08683287000000001,-0.4685952,0.0162911,0.6122537,-0.05642891,0.02116096,-0.02,-0.04,-0.09,92.89
10102,51597256,1,2.05,-1.83,16.67,0.03538872,0.08717867999999999,-0.4667165,0.02103983,0.6122537,-0.05642891,0.02222304,-0.02,-0.04,-0.09,92.89
10142,51607319,1,2.05,-1.83,16.67,0.03442637,0.08870976999999999,-0.4660585,0.02933305,0.6122537,-0.05642891,0.01753934,-0.02,-0.04,-0.09,92.89
10187,51617222,1,2.05,-1.83,16.67,0.03561283,0.08813369,-0.4655665,0.03349842,0.6122537,-0.05642891,0.0183796,-0.02,-0.04,-0.09,92.89
10227,51627525,1,2.05,-1.83,16.67,0.03522625,0.08849696999999999,-0.4642873,0.03711665,0.6122537,-0.05642891,0.01885206,-0.02,-0.04,-0.09,92.89
10268,51637518,1,2.05,-1.83,16.68,0.03602761,0.08775143000000001,-0.4627226,0.03749093,0.6122537,-0.05642891,0.01922941,-0.02,-0.04,-0.09,92.89
10311,51647789,1,2.05,-1.83,16.68,0.03575569,0.0869349,-0.4606478,0.03381455,0.6122537,-0.05642891,0.02146799,-0.02,-0.04,-0.09,92.89
10348,51657817,1,2.05,-1.84,16.68,0.03640359,0.08760287,-0.4579485,0.03491789,0.6122537,-0.05642891,0.02332791,-0.02,-0.04,-0.09,92.89
10389,51668281,1,2.05,-1.83,16.68,0.03625083,0.08797122,-0.4591701,0.0407154,0.6122537,-0.05642891,0.01834031,-0.02,-0.04,-0.09,92.89
10429,51678325,1,2.05,-1.83,16.68,0.03562763,0.08740726,-0.4589413,0.04476837,0.6122537,-0.05642891,0.01995417,-0.02,-0.04,-0.09,92.89
10471,51688325,1,2.05,-1.83,16.68,0.03540021,0.08709586,-0.4570159,0.04694636,0.6122537,-0.05642891,0.02132232,-0.02,-0.04,-0.09,92.89
10511,51698067,1,2.05,-1.83,16.68,0.03561988,0.08753958000000001,-0.4542516,0.04906833,0.6122537,-0.05642891,0.02239743,-0.02,-0.04,-0.09,92.89
10552,51708127,1,2.05,-1.83,16.68,0.03492114,0.08706532,-0.4536604,0.04550526,0.6122537,-0.05642891,0.0178599,-0.02,-0.04,-0.09,92.89
10598,51718070,1,2.05,-1.84,16.68,0.03516836,0.08699195999999999,-0.4532132,0.04057083,0.6122537,-0.05642891,0.01873845,-0.02,-0.04,-0.09,92.89
10638,51728870,1,2.05,-1.84,16.68,0.03472287,0.08839295,-0.4525458,0.03305195,0.6122537,-0.05642891,0.01937748,-0.02,-0.04,-0.09,92.89
10679,51738511,1,2.05,-1.83,16.69,0.03587028,0.08820182,-0.4511855,0.02326337,0.6122537,-0.05642891,0.01977909,-0.02,-0.04,-0.09,92.89
10719,51748872,1,2.05,-1.83,16.68,0.0364003,0.08698694999999999,-0.4499522,0.01282164,0.6122537,-0.05642891,0.01986909,-0.02,-0.04,-0.09,92.89
10759,51759053,1,2.05,-1.83,16.68,0.03715878,0.08630023000000001,-0.4500658,0.00600628,0.6122537,-0.05642891,0.01544996,-0.02,-0.04,-0.09,92.89
10797,51769322,1,2.04,-1.83,16.68,0.03748619,0.08638994,-0.4497369,-0.0001918135,0.6122537,-0.05642891,0.01655036,-0.02,-0.04,-0.09,92.89
10839,51779993,1,2.05,-1.83,16.68,0.0367301,0.08628801,-0.4459875,-0.001335359,0.6122537,-0.05642891,0.01782374,-0.02,-0.04,-0.09,92.89
10882,51790435,1,2.04,-1.83,16.68,0.03738547,0.08650049999999999,-0.4456469,-0.0138897,0.6122537,-0.05642891,0.01847862,-0.02,-0.04,-0.09,92.89
10922,51801135,1,2.04,-1.83,16.68,0.03834419,0.08655916,-0.4416237,-0.0156031,0.6345174,-0.06449017999999999,0.01881779,-0.02,-0.04,-0.09,92.89
10963,51811936,1,2.04,-1.83,16.68,0.0395721,0.08717672999999999,-0.4421692,-0.01588525,0.6345174,-0.06449017999999999,0.01444355,-0.02,-0.04,-0.09,92.89
11009,51821841,1,2.04,-1.83,16.68,0.03978007,0.08748903,-0.439606,-0.0170461,0.6345174,-0.06449017999999999,0.01500075,-0.02,-0.04,-0.09,92.89
11049,51831790,1,2.04,-1.83,16.68,0.03953383,0.08912247,-0.4393802,-0.02044143,0.6345174,-0.06449017999999999,0.01542452,-0.02,-0.04,-0.09,92.89
11090,51841854,1,2.04,-1.83,16.68,0.04002938,0.08981428,-0.4400893,-0.02820178,0.6345174,-0.06449017999999999,0.01555404,-0.02,-0.04,-0.09,92.89
11130,51851853,1,2.04,-1.83,16.69,0.0411207,0.09067281000000001,-0.4395482,-0.0357898,0.6345174,-0.06449017999999999,0.01541683,-0.02,-0.04,-0.09,92.89
11172,51862090,1,2.04,-1.83,16.69,0.0411814,0.09200901,-0.4426646,-0.0440549,0.6345174,-0.06449017999999999,0.01064633,-0.02,-0.04,-0.09,92.89
11206,51872086,1,2.04,-1.83,16.69,0.04032512,0.09057111,-0.4402921,-0.04307655,0.6345174,-0.06449017999999999,0.01221482,-0.02,-0.04,-0.09,92.89
11249,51882088,1,2.04,-1.82,16.69,0.04109479,0.08937784999999999,-0.4387074,-0.03597803,0.6345174,-0.06449017999999999,0.01349522,-0.02,-0.04,-0.09,92.89
11290,51892341,1,2.04,-1.82,16.69,0.04171973,0.08976236,-0.4365173,-0.03077754,0.6345174,-0.06449017999999999,0.01450042,-0.02,-0.04,-0.09,92.89
11332,51902771,1,2.03,-1.82,16.69,0.04204439,0.08930099,-0.4359829,-0.02775116,0.6345174,-0.06449017999999999,0.01527319,-0.02,-0.04,-0.09,92.89
11374,51912610,1,2.04,-1.82,16.69,0.0423433,0.08907261,-0.4360211,-0.02930578,0.6345174,-0.06449017999999999,0.01588825,-0.02,-0.04,-0.09,92.89
11418,51923015,1,2.03,-1.82,16.7,0.04191554,0.08937629,-0.4370258,-0.02704807,0.6345174,-0.06449017999999999,0.01151635,-0.02,-0.04,-0.09,92.89
11459,51933054,1,2.03,-1.82,16.7,0.04293022,0.09119897,-0.4357517,-0.0273347,0.6345174,-0.06449017999999999,0.01182234,-0.02,-0.04,-0.09,92.89
11499,51942970,1,2.03,-1.82,16.7,0.04313995,0.0915096,-0.4347152,-0.03897342,0.6345174,-0.06449017999999999,0.007413747,-0.02,-0.04,-0.09,92.89
11542,51953034,1,2.03,-1.82,16.7,0.04343919,0.09154144,-0.4342578,-0.05062617,0.6345174,-0.06449017999999999,0.007694338,-0.02,-0.04,-0.09,92.89
11583,51962931,1,2.02,-1.82,16.71,0.04310643,0.09062289,-0.4333077,-0.06031863,0.6345174,-0.06449017999999999,0.007514731,-0.02,-0.04,-0.09,92.89
11625,51975999,1,2.02,-1.82,16.71,0.04397044,0.09082666,-0.4308675,-0.07448203,0.6345174,-0.06449017999999999,0.008199028000000001,-0.02,-0.04,-0.09,92.89
11665,51986267,1,2.02,-1.82,16.71,0.04460786,0.09039042999999999,-0.4299465,-0.08045679,0.6345174,-0.06449017999999999,0.009232247000000001,-0.02,-0.04,-0.09,92.89
11707,51996759,1,2.02,-1.82,16.71,0.04443147,0.09015703,-0.4277856,-0.07361349,0.6345174,-0.06449017999999999,0.004980401,-0.02,-0.04,-0.09,92.89
11748,52006953,1,2.03,-1.82,16.71,0.04466302,0.0895619,-0.4251457,-0.06729097000000001,0.6345174,-0.06449017999999999,0.006258382,-0.02,-0.04,-0.09,92.89
11789,52016916,1,2.03,-1.82,16.71,0.04440989,0.08866243,-0.424597,-0.0685109,0.6345174,-0.06449017999999999,0.007312494,-0.02,-0.04,-0.09,92.89
11834,52026896,1,2.03,-1.82,16.71,0.04457493,0.08967226,-0.4246308,-0.06826160000000001,0.6345174,-0.06449017999999999,0.00811515,-0.02,-0.04,-0.09,92.89
11875,52036852,1,2.03,-1.83,16.71,0.04455573,0.09045055,-0.423916,-0.06081251,0.6345174,-0.06449017999999999,0.003881151,-0.02,-0.04,-0.09,92.89
11916,52046851,1,2.03,-1.83,16.72,0.04506356,0.0903592,-0.4206127,-0.05474075,0.6345174,-0.06449017999999999,0.004447807,-0.02,-0.04,-0.09,92.89
11956,52056834,1,2.03,-1.83,16.72,0.04505423,0.08976582,-0.4192012,-0.06191432,0.6345174,-0.06449017999999999,0.00484,-0.02,-0.04,-0.09,92.89
12002,52072530,1,2.03,-1.83,16.72,0.04396398,0.09042650000000001,-0.4151648,-0.06223698,0.6345174,-0.06449017999999999,0.004839397,-0.02,-0.04,-0.09,92.89
12042,52082863,1,2.02,-1.83,16.72,0.04399589,0.08980411000000001,-0.4125651,-0.05785879,0.6345174,-0.06449017999999999,0.007006546,-0.02,-0.04,-0.09,92.89
12084,52093318,1,2.02,-1.83,16.71,0.04343044,0.08995109,-0.4102458,-0.04302072,0.6345174,-0.06449017999999999,0.008445127,-0.02,-0.04,-0.09,92.89
12124,52103895,1,2.02,-1.83,16.71,0.04375218,0.08994629,-0.4115833,-0.0271826,0.6345174,-0.06449017999999999,0.004339526,-0.02,-0.04,-0.09,92.89
12166,52113785,1,2.01,-1.83,16.7,0.04264488,0.08970506,-0.4081752,-0.01140271,0.6345174,-0.06449017999999999,0.005929085,-0.02,-0.04,-0.09,92.89
12213,52123831,1,2.01,-1.82,16.7,0.04346523,0.08946983999999999,-0.4051793,0.002475265,0.6345174,-0.06449017999999999,0.007319099,-0.02,-0.04,-0.09,92.89
12254,52133993,1,2.01,-1.83,16.7,0.04365595,0.08953069,-0.4023577,0.006133227,0.6345174,-0.06449017999999999,0.008439156999999999,-0.02,-0.04,-0.09,92.89
12295,52144084,1,2.02,-1.83,16.7,0.04427686,0.08955730000000001,-0.4013384,0.01342526,0.6345174,-0.06449017999999999,0.004443733,-0.02,-0.04,-0.09,92.89
12335,52154039,1,2.02,-1.83,16.7,0.04429898,0.08930631,-0.4009354,0.01551074,0.6345174,-0.06449017999999999,0.00535122,-0.02,-0.04,-0.09,92.89
12376,52164320,1,2.01,-1.84,16.7,0.04429916,0.08914437,-0.4005638,0.003589532,0.6345174,-0.06449017999999999,0.005722712,-0.02,-0.04,-0.09,92.89
12413,52178043,1,2.02,-1.84,16.7,0.04373644,0.08947275,-0.3976827,0.003399825,0.6345174,-0.06449017999999999,0.006705742,-0.02,-0.04,-0.08,92.89
12456,52188174,1,2.02,-1.85,16.7,0.04468671,0.09046002,-0.3974501,0.0039136,0.6567812,-0.07255146,0.002745074,-0.02,-0.04,-0.08,92.89
12498,52198164,1,2.02,-1.85,16.71,0.04443154,0.08992331000000001,-0.3956383,-0.002976477,0.6567812,-0.07255146,0.005100599,-0.02,-0.04,-0.08,92.89
12539,52208494,1,2.02,-1.85,16.71,0.04443868,0.09036502,-0.394593,-0.005786018,0.6567812,-0.07255146,0.001177521,-0.02,-0.04,-0.08,92.89
12580,52218930,1,2.03,-1.85,16.71,0.04437523,0.08991474000000001,-0.3939319,-0.006618967,0.6567812,-0.07255146,0.003312874,-0.02,-0.04,-0.08,92.89
12624,52228917,1,2.02,-1.85,16.7,0.0445018,0.08903102,-0.3916968,-0.00146843,0.6567812,-0.07255146,0.004798338,-0.02,-0.04,-0.08,92.89
12665,52239359,1,2.03,-1.85,16.7,0.04354646,0.08822536,-0.3901272,2.339948e-06,0.6567812,-0.07255146,0.006367797,-0.02,-0.04,-0.08,92.89
12706,52249372,1,2.03,-1.85,16.7,0.04294484,0.08969289,-0.3895565,0.009142374999999999,0.6567812,-0.07255146,0.007671564,-0.02,-0.04,-0.08,92.89
12747,52259474,1,2.02,-1.85,16.7,0.04322658,0.09117980000000001,-0.3906809,0.01281488,0.6567812,-0.07255146,0.003751426,-0.02,-0.04,-0.08,92.89
12784,52269735,1,2.03,-1.85,16.7,0.04371356,0.09144223,-0.3896706,0.01465085,0.6567812,-0.07255146,0.004808831,-0.02,-0.04,-0.08,92.89
12824,52279377,1,2.03,-1.85,16.7,0.04412156,0.0907646,-0.3875185,0.02758155,0.6567812,-0.07255146,0.008064227,-0.02,-0.04,-0.08,92.89
12865,52290082,1,2.03,-1.86,16.71,0.0464393,0.09020241,-0.386656,0.04122249,0.6567812,-0.07255146,0.01060483,-0.02,-0.04,-0.08,92.89
12906,52300901,1,2.03,-1.86,16.71,0.04645009,0.0911059,-0.3863941,0.05283918,0.6567812,-0.07255146,0.01337106,-0.02,-0.04,-0.08,92.89
12948,52310988,1,2.03,-1.86,16.71,0.0476646,0.09188771,-0.3853782,0.06409641000000001,0.6567812,-0.07255146,0.01546478,-0.02,-0.04,-0.08,92.89
12988,52321319,1,2.03,-1.86,16.71,0.04834767,0.09215932,-0.3850686,0.07850475,0.6567812,-0.07255146,0.01706817,-0.02,-0.04,-0.08,92.89
13033,52331958,1,2.03,-1.86,16.71,0.04860836,0.09187946,-0.3851812,0.09274108,0.6567812,-0.07255146,0.01315008,-0.02,-0.04,-0.08,92.89
13074,52342166,1,2.03,-1.86,16.71,0.04839174,0.09098534,-0.383492,0.1013882,0.6567812,-0.07255146,0.01488319,-0.02,-0.04,-0.08,92.89
13115,52352508,1,2.03,-1.86,16.71,0.04830091,0.09113699,-0.38359,0.1033296,0.6567812,-0.07255146,0.0159927,-0.02,-0.04,-0.08,92.89
13159,52365058,1,2.03,-1.86,16.71,0.04962102,0.09076173999999999,-0.3827018,0.1038087,0.6567812,-0.07255146,0.01599723,-0.02,-0.04,-0.09,92.89
13202,52380083,1,2.03,-1.86,16.71,0.04926316,0.0924603,-0.379889,0.0919957,0.6567812,-0.07255146,0.01749435,-0.01,-0.04,-0.08,92.89
13245,52389968,1,2.03,-1.87,16.72,0.04966747,0.09191145000000001,-0.377536,0.08835833999999999,0.6901768,-0.08061272999999999,0.02091566,-0.01,-0.04,-0.08,92.89
13286,52400409,1,2.03,-1.87,16.71,0.04945657,0.09151052,-0.3778565,0.09530503,0.6901768,-0.08061272999999999,0.01676551,-0.01,-0.04,-0.08,92.89
13328,52410341,1,2.03,-1.88,16.71,0.05035637,0.09087186999999999,-0.3756483,0.1001603,0.6901768,-0.08061272999999999,0.01952384,-0.01,-0.04,-0.08,92.89
13369,52421081,1,2.03,-1.87,16.71,0.05149356,0.08973625,-0.3734457,0.1066403,0.6901768,-0.08061272999999999,0.02197833,-0.01,-0.04,-0.08,92.89
13416,52433434,1,2.03,-1.88,16.7,0.05252274,0.08992264,-0.3704205,0.1082155,0.6901768,-0.08061272999999999,0.02305248,-0.01,-0.04,-0.08,92.89
13457,52443340,1,2.03,-1.88,16.7,0.05295689,0.09084386,-0.369276,0.1044909,0.6901768,-0.08061272999999999,0.02500211,-0.01,-0.04,-0.08,92.89
13498,52453868,1,2.03,-1.88,16.71,0.05370804,0.09167639,-0.3692071,0.1064673,0.6901768,-0.08061272999999999,0.02129599,-0.01,-0.04,-0.08,92.89
13540,52463872,1,2.02,-1.87,16.71,0.05373478,0.08949819000000001,-0.3685244,0.1046029,0.6901768,-0.08061272999999999,0.02299242,-0.01,-0.04,-0.08,92.89
13581,52473971,1,2.02,-1.87,16.71,0.05491538,0.08944219,-0.3675085,0.09545463,0.6901768,-0.08061272999999999,0.02438091,-0.01,-0.04,-0.08,92.89
13616,52484433,1,2.03,-1.87,16.72,0.05600621,0.08947343000000001,-0.365561,0.09584351000000001,0.6901768,-0.08061272999999999,0.02784448,-0.01,-0.04,-0.08,92.89
13656,52494526,1,2.03,-1.87,16.72,0.05603166,0.0904779,-0.362232,0.1061045,0.6901768,-0.08061272999999999,0.03132995,-0.01,-0.04,-0.08,92.89
13698,52504536,1,2.03,-1.87,16.72,0.0565498,0.09045148,-0.3621539,0.1149262,0.6901768,-0.08061272999999999,0.03445559,-0.01,-0.04,-0.08,92.89
13739,52515225,1,2.03,-1.87,16.72,0.05589836,0.08990548,-0.3607469,0.1315464,0.6901768,-0.08061272999999999,0.03685815,-0.02,-0.04,-0.09,92.89
13780,52525053,1,2.03,-1.87,16.72,0.05509862,0.09049962,-0.3589146,0.1482677,0.6901768,-0.08061272999999999,0.03926764,-0.02,-0.04,-0.09,92.89
13824,52535910,1,2.03,-1.87,16.73,0.05492914,0.091864,-0.3588593,0.1645226,0.6901768,-0.08061272999999999,0.03567124,-0.02,-0.04,-0.09,92.89
13865,52545902,1,2.02,-1.87,16.72,0.05560927,0.09111413,-0.3577339,0.1726813,0.6901768,-0.08061272999999999,0.03785385,-0.02,-0.04,-0.09,92.89
13905,52556203,1,2.02,-1.87,16.72,0.05423011,0.09057407000000001,-0.35655,0.1771656,0.6901768,-0.08061272999999999,0.03940835,-0.02,-0.04,-0.09,92.89
13944,52566275,1,2.02,-1.86,16.72,0.0551951,0.09006064,-0.3557859,0.1760582,0.6901768,-0.08061272999999999,0.04285815,-0.01,-0.04,-0.09,92.89
13985,52576504,1,2.02,-1.87,16.72,0.05489005,0.09059597,-0.3540294,0.1807467,0.6901768,-0.08061272999999999,0.04593944,-0.01,-0.04,-0.08,92.89
14026,52586535,1,2.02,-1.87,16.72,0.05509022,0.09049322,-0.3526813,0.1842472,0.6901768,-0.08061272999999999,0.04870969,-0.01,-0.04,-0.08,92.89
14069,52597014,1,2.02,-1.86,16.71,0.05534272,0.08989313,-0.3507554,0.1924167,0.7013087,-0.088674,0.05113546,-0.02,-0.04,-0.08,92.89
14109,52607255,1,2.02,-1.86,16.71,0.05393932,0.09008779,-0.3492114,0.2012288,0.7013087,-0.088674,0.05293217,-0.02,-0.04,-0.08,92.89
14151,52617870,1,2.03,-1.87,16.71,0.05394191,0.09029163,-0.3475779,0.2085578,0.7013087,-0.088674,0.04944992,-0.02,-0.04,-0.08,92.89
14192,52627598,1,2.03,-1.87,16.71,0.05408438,0.08957008,-0.346553,0.1954825,0.7013087,-0.088674,0.05144342,-0.01,-0.04,-0.08,92.89
14237,52637600,1,2.03,-1.87,16.71,0.0533324,0.08979208,-0.3461809,0.1828002,0.7013087,-0.088674,0.0479644,-0.01,-0.04,-0.08,92.89
14278,52647583,1,2.03,-1.87,16.71,0.05252191,0.08907229,-0.3448194,0.1687237,0.7013087,-0.088674,0.04974983,-0.01,-0.04,-0.08,92.89
14319,52657813,1,2.03,-1.87,16.71,0.05216165,0.08869702,-0.3421777,0.1499443,0.7013087,-0.088674,0.0512899,-0.01,-0.04,-0.08,92.89
14360,52667584,1,2.03,-1.87,16.7,0.05284959,0.08900072000000001,-0.33924,0.1378623,0.7013087,-0.088674,0.05260868,-0.01,-0.04,-0.08,92.89
14400,52677585,1,2.03,-1.87,16.7,0.05231995,0.08820628,-0.3400675,0.1227874,0.7013087,-0.088674,0.04919761,-0.01,-0.04,-0.08,92.89
14441,52691177,1,2.03,-1.87,16.7,0.05187159,0.087533,-0.3367353,0.1086513,0.7013087,-0.088674,0.05700684,-0.01,-0.04,-0.08,92.89
14482,52702059,1,2.02,-1.87,16.71,0.05160368,0.08768415,-0.3345436,0.1099111,0.7013087,-0.088674,0.0591175,-0.01,-0.04,-0.08,92.89
14522,52712872,1,2.02,-1.87,16.71,0.05161298,0.08845095,-0.3347711,0.1143985,0.7013087,-0.088674,0.05578281,-0.01,-0.04,-0.08,92.89
14565,52722858,1,2.02,-1.87,16.71,0.05187491,0.08858737,-0.334105,0.1149784,0.7013087,-0.088674,0.05793577,-0.01,-0.04,-0.08,92.89
14605,52732816,1,2.02,-1.87,16.7,0.05158827,0.08982403999999999,-0.3318453,0.1092555,0.7013087,-0.088674,0.05989421,-0.01,-0.04,-0.08,92.89
14650,52742855,1,2.02,-1.87,16.7,0.05089619,0.08993652000000001,-0.3311523,0.1026601,0.7013087,-0.088674,0.06159212,-0.01,-0.04,-0.08,92.89
14690,52752848,1,2.02,-1.87,16.7,0.05084498,0.09027267,-0.3304295,0.1015711,0.7013087,-0.088674,0.05828367,-0.01,-0.04,-0.08,92.89
14731,52762879,1,2.02,-1.87,16.71,0.05079933,0.09083474,-0.3283333,0.09765625999999999,0.7013087,-0.088674,0.05976817,-0.01,-0.04,-0.08,92.89
14778,52775396,1,2.03,-1.87,16.71,0.0512758,0.0914539,-0.3269514,0.08462543,0.7013087,-0.088674,0.06003751,-0.01,-0.04,-0.08,92.89
14819,52788840,1,2.03,-1.88,16.71,0.05166207,0.09126070999999999,-0.3263927,0.07011972,0.7124406,-0.09673528000000001,0.06277951,-0.01,-0.04,-0.09,92.89
14861,52798524,1,2.03,-1.88,16.71,0.0521914,0.09293866000000001,-0.3256253,0.06425153,0.7124406,-0.09673528000000001,0.06614953,-0.01,-0.04,-0.09,92.89
14902,52809192,1,2.03,-1.87,16.71,0.05238083,0.09234499,-0.3244735,0.07097984,0.7124406,-0.09673528000000001,0.06883572,-0.01,-0.04,-0.09,92.89
14943,52819558,1,2.03,-1.87,16.71,0.05385465,0.09287144,-0.3251173,0.08281152,0.7124406,-0.09673528000000001,0.06560533,-0.01,-0.04,-0.09,92.89
14986,52830339,1,2.03,-1.87,16.72,0.05380201,0.09335101,-0.3222067,0.09497799,0.7124406,-0.09673528000000001,0.06802017,-0.01,-0.04,-0.09,92.89
15033,52843296,1,2.03,-1.87,16.72,0.05435665,0.09473149,-0.3198234,0.1085617,0.7124406,-0.09673528000000001,0.06952301,-0.01,-0.04,-0.09,92.89
15074,52853847,1,2.03,-1.87,16.72,0.05592849,0.09411732,-0.318277,0.1161376,0.7124406,-0.09673528000000001,0.0717285,-0.01,-0.04,-0.09,92.89
15114,52863795,1,2.03,-1.87,16.73,0.05671721,0.0947192,-0.3167416,0.1144123,0.7124406,-0.09673528000000001,0.07371266999999999,-0.01,-0.04,-0.09,92.89
15155,52873925,1,2.03,-1.87,16.73,0.05658323,0.09425617999999999,-0.3152257,0.1119658,0.7124406,-0.09673528000000001,0.07542082,-0.01,-0.04,-0.09,92.89
15193,52883838,1,2.03,-1.87,16.73,0.05671065,0.09481125999999999,-0.3153034,0.1124024,0.7124406,-0.09673528000000001,0.07230816,-0.01,-0.04,-0.09,92.89
15231,52894202,1,2.02,-1.87,16.74,0.05702877,0.09526711,-0.3142567,0.1150933,0.7124406,-0.09673528000000001,0.07538946000000001,-0.01,-0.04,-0.08,92.89
15272,52904809,1,2.03,-1.87,16.74,0.05646687,0.09440923,-0.3134475,0.1232038,0.7124406,-0.09673528000000001,0.0784981,-0.01,-0.04,-0.08,92.89
15312,52914832,1,2.03,-1.87,16.74,0.05646797,0.09450024,-0.3120986,0.131953,0.7124406,-0.09673528000000001,0.08121327,-0.01,-0.04,-0.08,92.89
15355,52924854,1,2.03,-1.87,16.74,0.05694029,0.09360925,-0.3112858,0.1351595,0.7124406,-0.09673528000000001,0.08377643999999999,-0.01,-0.04,-0.08,92.89
15397,52934918,1,2.03,-1.87,16.74,0.05599869,0.09392498000000001,-0.3088626,0.139087,0.7124406,-0.09673528000000001,0.08598218000000001,-0.01,-0.04,-0.08,92.89
15444,52945205,1,2.03,-1.88,16.74,0.05573189,0.09398449,-0.3090264,0.1444755,0.7124406,-0.09673528000000001,0.08289082,-0.01,-0.04,-0.08,92.89
15486,52954953,1,2.03,-1.88,16.74,0.05621923,0.09430117,-0.3089227,0.1442035,0.7124406,-0.09673528000000001,0.08491129,-0.01,-0.04,-0.08,92.89
15526,52965019,1,2.03,-1.87,16.74,0.05601938,0.09472952,-0.3067212,0.1422036,0.7124406,-0.09673528000000001,0.08665951,-0.01,-0.04,-0.08,92.89
15567,52974950,1,2.03,-1.87,16.74,0.05636245,0.09483163999999999,-0.3064812,0.1369649,0.7124406,-0.09673528000000001,0.0879086,-0.01,-0.04,-0.08,92.89
15605,52988289,1,2.02,-1.88,16.74,0.05635947,0.09491543,-0.304882,0.1315929,0.7124406,-0.09673528000000001,0.09034880000000001,-0.01,-0.04,-0.08,92.89
15645,52998898,1,2.02,-1.87,16.74,0.05654829,0.09420745,-0.3032268,0.135395,0.7124406,-0.09673528000000001,0.09307998000000001,-0.01,-0.04,-0.08,92.89
15687,53009371,1,2.02,-1.87,16.75,0.05724275,0.09338316000000001,-0.3024276,0.1367208,0.7235725,-0.1047966,0.09004297,-0.01,-0.04,-0.08,92.89
15729,53019542,1,2.02,-1.87,16.75,0.05725782,0.09325137999999999,-0.2999329,0.1333724,0.7235725,-0.1047966,0.09290416999999999,-0.01,-0.04,-0.08,92.89
15770,53029971,1,2.02,-1.87,16.75,0.05696102,0.09463467,-0.2986487,0.1289196,0.7235725,-0.1047966,0.0954676,-0.01,-0.04,-0.08,92.89
15810,53039932,1,2.02,-1.87,16.75,0.05736325,0.09397975,-0.2972512,0.1259897,0.7235725,-0.1047966,0.09779636999999999,-0.01,-0.04,-0.08,92.89
15856,53050308,1,2.02,-1.88,16.75,0.05828743,0.09416405999999999,-0.2943208,0.1293395,0.7235725,-0.1047966,0.09953853,-0.01,-0.04,-0.08,92.89
15897,53061007,1,2.02,-1.88,16.75,0.05875293,0.09491146,-0.2937222,0.1325036,0.7235725,-0.1047966,0.09631076,-0.01,-0.04,-0.08,92.89
15938,53071859,1,2.02,-1.88,16.75,0.05873508,0.09465438,-0.2921256,0.1306874,0.7235725,-0.1047966,0.09815601,-0.01,-0.04,-0.08,92.89
15978,53081891,1,2.02,-1.88,16.75,0.05861671,0.09457142,-0.2915404,0.1265708,0.7235725,-0.1047966,0.09980248999999999,-0.01,-0.04,-0.08,92.89
16013,53092426,1,2.02,-1.88,16.75,0.05917265,0.09249008,-0.2906952,0.1221525,0.7235725,-0.1047966,0.1032603,-0.01,-0.04,-0.08,92.89
16054,53102407,1,2.02,-1.88,16.75,0.0598206,0.09278021,-0.290884,0.1205347,0.7235725,-0.1047966,0.1003585,-0.01,-0.04,-0.08,92.89
16094,53112768,1,2.02,-1.88,16.74,0.05990406,0.09255882999999999,-0.289592,0.1219864,0.7235725,-0.1047966,0.1038027,-0.01,-0.04,-0.08,92.89
16135,53122959,1,2.02,-1.88,16.74,0.05989077,0.0928947,-0.2885989,0.1309049,0.7235725,-0.1047966,0.1070302,-0.01,-0.04,-0.08,92.89
16175,53132933,1,2.02,-1.88,16.75,0.06027837,0.09278574000000001,-0.2865644,0.1332941,0.7235725,-0.1047966,0.1099329,-0.01,-0.04,-0.08,92.89
16216,53142886,1,2.02,-1.89,16.74,0.05963535,0.09206718,-0.2852605,0.1368954,0.7235725,-0.1047966,0.1070904,-0.01,-0.04,-0.08,92.89
16263,53152868,1,2.02,-1.89,16.74,0.05774597,0.09228348,-0.284308,0.1372822,0.7235725,-0.1047966,0.1097866,-0.01,-0.04,-0.08,92.89
16305,53162953,1,2.02,-1.89,16.74,0.05739305,0.09218132,-0.2821762,0.1381145,0.7235725,-0.1047966,0.111942,-0.01,-0.04,-0.08,92.89
16346,53173068,1,2.02,-1.88,16.74,0.05760177,0.09237897,-0.2809489,0.1411741,0.7235725,-0.1047966,0.1143909,-0.01,-0.04,-0.08,92.89
16386,53182913,1,2.03,-1.89,16.74,0.06008647,0.0925699,-0.277639,0.138878,0.7235725,-0.1047966,0.1160736,-0.01,-0.04,-0.08,92.89
16429,53196387,1,2.02,-1.89,16.74,0.06125353,0.0925574,-0.2748607,0.1445487,0.7347044,-0.1128578,0.1190339,-0.01,-0.04,-0.08,92.89
16469,53206192,1,2.02,-1.89,16.74,0.0627718,0.09151015,-0.2727648,0.1474498,0.7347044,-0.1128578,0.1225633,-0.01,-0.04,-0.09,92.89
16510,53216947,1,2.02,-1.89,16.74,0.06344324,0.09144061000000001,-0.272015,0.1584449,0.7347044,-0.1128578,0.1198594,-0.01,-0.04,-0.09,92.89
16552,53226903,1,2.02,-1.89,16.74,0.06366753999999999,0.09162877,-0.2701082,0.1668456,0.7347044,-0.1128578,0.1231153,-0.01,-0.04,-0.09,92.89
16592,53236915,1,2.02,-1.89,16.74,0.06325543,0.09204534,-0.26938,0.161883,0.7347044,-0.1128578,0.120432,-0.01,-0.04,-0.09,92.89
16633,53247245,1,2.02,-1.89,16.74,0.06416218,0.09109784999999999,-0.269953,0.1555316,0.7347044,-0.1128578,0.1232234,-0.01,-0.04,-0.08,92.89
16678,53257219,1,2.02,-1.89,16.74,0.06427860000000001,0.0919876,-0.2700978,0.1511904,0.7347044,-0.1128578,0.1260471,-0.01,-0.04,-0.08,92.89
16721,53267234,1,2.03,-1.89,16.74,0.06428204999999999,0.09186822,-0.2693824,0.14922,0.7347044,-0.1128578,0.1285568,-0.01,-0.04,-0.08,92.89
16763,53277522,1,2.03,-1.89,16.74,0.06433464999999999,0.09199372,-0.2690463,0.1442368,0.7347044,-0.1128578,0.1308356,-0.01,-0.04,-0.08,92.89
16803,53290968,1,2.03,-1.89,16.74,0.06379335999999999,0.09209605,-0.2666793,0.1414851,0.7347044,-0.1128578,0.1318234,-0.01,-0.04,-0.08,92.89
16844,53301419,1,2.03,-1.89,16.75,0.06311888,0.09306188999999999,-0.2658654,0.1397833,0.7347044,-0.1128578,0.1291441,-0.01,-0.04,-0.08,92.89
16885,53312026,1,2.03,-1.89,16.75,0.06270415,0.09391349,-0.2646178,0.1413203,0.7347044,-0.1128578,0.1331554,-0.01,-0.04,-0.08,92.89
16925,53322785,1,2.02,-1.89,16.75,0.06245014,0.09485615,-0.2630356,0.1511811,0.7347044,-0.1128578,0.1365777,-0.01,-0.04,-0.09,92.89
16966,53332546,1,2.02,-1.89,16.75,0.06182524,0.09480426,-0.2616449,0.161552,0.7347044,-0.1128578,0.1398795,-0.01,-0.04,-0.09,92.89
17006,53342794,1,2.02,-1.89,16.75,0.06183085,0.09483651999999999,-0.2612364,0.1668019,0.7347044,-0.1128578,0.1430074,-0.01,-0.04,-0.09,92.89
17055,53355209,1,2.01,-1.89,16.75,0.0621891,0.09550451,-0.2615292,0.1759802,0.7347044,-0.1128578,0.1450233,-0.01,-0.04,-0.09,92.89
17097,53365073,1,2.02,-1.89,16.75,0.06266973000000001,0.09497269999999999,-0.2613716,0.1765049,0.7347044,-0.1128578,0.1475239,-0.01,-0.04,-0.09,92.89
17139,53375865,1,2.01,-1.89,16.75,0.06259078999999999,0.09558026999999999,-0.2612302,0.1811947,0.7347044,-0.1128578,0.1449312,-0.01,-0.04,-0.09,92.89
17180,53388274,1,2.01,-1.88,16.75,0.06198853,0.09710362,-0.2583717,0.1812956,0.7347044,-0.1128578,0.1464532,-0.01,-0.04,-0.09,92.89
17224,53400848,1,2.01,-1.89,16.75,0.06116627,0.09611087,-0.2571592,0.1869472,0.7347044,-0.1128578,0.1501469,-0.01,-0.04,-0.09,92.89
17265,53410826,1,2.01,-1.89,16.76,0.06130696,0.09635150000000001,-0.2555928,0.1945105,0.7347044,-0.1128578,0.1540729,-0.01,-0.04,-0.08,92.89
17306,53421193,1,2.01,-1.9,16.76,0.06140399,0.0969251,-0.2529158,0.2018809,0.7347044,-0.1128578,0.1576286,-0.01,-0.04,-0.08,92.89
17347,53431840,1,2.01,-1.9,16.76,0.06123183,0.09576753,-0.2506517,0.21518,0.7347044,-0.1128578,0.1607123,-0.01,-0.04,-0.09,92.89
17387,53441918,1,2.01,-1.9,16.76,0.06081108,0.09588636,-0.2489038,0.2208265,0.7347044,-0.1128578,0.1637457,-0.01,-0.04,-0.08,92.89
17428,53451947,1,2.01,-1.9,16.76,0.06156835,0.09571705,-0.2483245,0.2239687,0.7347044,-0.1128578,0.1612593,-0.01,-0.04,-0.08,92.89
17473,53461852,1,2.01,-1.9,16.76,0.0622324,0.09512719,-0.2474031,0.222939,0.7347044,-0.1128578,0.1640561,-0.01,-0.04,-0.08,92.89
17514,53472572,1,2.01,-1.9,16.76,0.06243395,0.09500958,-0.245625,0.2247617,0.7347044,-0.1128578,0.1663781,-0.01,-0.04,-0.09,92.89
17555,53482419,1,2.01,-1.9,16.76,0.0619371,0.09513436,-0.2451335,0.2210687,0.7347044,-0.1128578,0.1686925,-0.01,-0.04,-0.09,92.89
17592,53492759,1,2.01,-1.9,16.76,0.06318548,0.09462302,-0.2441673,0.2181502,0.7347044,-0.1128578,0.1731523,-0.01,-0.04,-0.09,92.89
17630,53503021,1,2.01,-1.91,16.76,0.06247817,0.09349660999999999,-0.2442779,0.2154742,0.7347044,-0.1128578,0.1772906,-0.01,-0.04,-0.08,92.89
17671,53513440,1,2,-1.9,16.76,0.06204045,0.09245114,-0.2435274,0.2228333,0.7347044,-0.1128578,0.1808318,-0.01,-0.04,-0.08,92.89
17711,53524018,1,2,-1.9,16.76,0.06365696,0.09366681,-0.2425994,0.234495,0.7347044,-0.1128578,0.1784017,-0.01,-0.04,-0.08,92.89
17751,53534302,1,2,-1.9,16.76,0.06330371999999999,0.09401658,-0.2407485,0.2420903,0.7347044,-0.1128578,0.1817082,-0.01,-0.04,-0.08,92.89
17791,53544352,1,2,-1.9,16.76,0.06348933,0.09331423,-0.240189,0.2441398,0.7347044,-0.1128578,0.1849646,-0.01,-0.04,-0.08,92.89
17832,53554305,1,2,-1.9,16.76,0.06305721,0.09305149,-0.2377961,0.2384481,0.7347044,-0.1128578,0.1879968,-0.01,-0.04,-0.08,92.89
17877,53564306,1,2,-1.9,16.76,0.06411043,0.09396187,-0.2376345,0.2371737,0.7347044,-0.1128578,0.1856297,-0.01,-0.04,-0.08,92.89
17918,53574399,1,1.99,-1.91,16.77,0.06408247,0.09560169,-0.235899,0.2350913,0.7347044,-0.1128578,0.1883562,-0.01,-0.04,-0.08,92.89
17962,53584610,1,1.99,-1.91,16.77,0.06377497,0.09585241,-0.2348079,0.2330291,0.7458363,-0.1128578,0.1909348,-0.01,-0.04,-0.08,92.89
18002,53594842,1,1.99,-1.91,16.77,0.06265774,0.09660828,-0.2326938,0.2295658,0.7458363,-0.1128578,0.1932152,-0.01,-0.04,-0.08,92.89
18040,53607277,1,1.99,-1.91,16.77,0.06287769999999999,0.09497238,-0.2319466,0.2171869,0.7458363,-0.1128578,0.1964621,-0.01,-0.04,-0.08,92.89
18081,53617208,1,1.99,-1.92,16.77,0.06228686,0.09590201,-0.2309824,0.2090096,0.7458363,-0.1128578,0.2001408,-0.01,-0.04,-0.08,92.89
18121,53627504,1,1.99,-1.92,16.77,0.063046,0.09508985,-0.2284142,0.211607,0.7458363,-0.1128578,0.2034976,-0.01,-0.04,-0.08,92.89
18162,53638253,1,1.99,-1.92,16.78,0.06370054,0.09487922,-0.2277504,0.2182033,0.7458363,-0.1128578,0.2010008,-0.01,-0.04,-0.08,92.89
18203,53648963,1,2,-1.91,16.78,0.06395482,0.09484176,-0.2265118,0.2189383,0.7458363,-0.1128578,0.2041105,-0.01,-0.04,-0.08,92.89
18248,53658586,1,2,-1.91,16.78,0.06358103,0.09480461,-0.2282031,0.2090646,0.7458363,-0.1128578,0.2070298,-0.01,-0.04,-0.08,92.89
18289,53669276,1,2,-1.91,16.77,0.06383245,0.09402219000000001,-0.2281787,0.2014276,0.7458363,-0.1128578,0.2045152,-0.01,-0.04,-0.08,92.89
18331,53679082,1,2,-1.91,16.78,0.06304479,0.09451763000000001,-0.2283083,0.1764627,0.7458363,-0.1128578,0.2072901,-0.01,-0.04,-0.08,92.89
18372,53689975,1,1.99,-1.91,16.78,0.06291252,0.09546649,-0.2294167,0.1624473,0.7458363,-0.1128578,0.2049796,-0.01,-0.04,-0.08,92.89
18412,53702690,1,2,-1.91,16.78,0.06124409,0.09572453,-0.2279706,0.1442864,0.7458363,-0.1128578,0.2068598,-0.01,-0.04,-0.08,92.89
18453,53712754,1,2,-1.91,16.78,0.06146853,0.09444349,-0.2258854,0.1383473,0.7458363,-0.1128578,0.2091517,-0.01,-0.04,-0.08,92.89
18490,53722849,1,2,-1.91,16.78,0.06123083,0.0939178,-0.2241244,0.1381506,0.7458363,-0.1128578,0.2135979,-0.01,-0.04,-0.08,92.89
18531,53733047,1,2,-1.91,16.78,0.06152913,0.09279679,-0.2206258,0.1430639,0.7458363,-0.1128578,0.2177416,-0.01,-0.04,-0.08,92.89
18572,53743503,1,2,-1.91,16.78,0.06206728,0.09402494,-0.221731,0.1486135,0.7458363,-0.1128578,0.2153202,-0.01,-0.04,-0.08,92.89
18613,53753444,1,2,-1.91,16.78,0.06255773000000001,0.0946212,-0.2196547,0.1452167,0.7458363,-0.1128578,0.2192787,-0.01,-0.04,-0.08,92.89
18660,53763450,1,2,-1.92,16.78,0.06322377999999999,0.0947149,-0.2187389,0.1431956,0.7458363,-0.1128578,0.2229547,-0.01,-0.04,-0.08,92.89
18700,53774030,1,2,-1.92,16.78,0.06364989,0.09513928000000001,-0.219727,0.1499738,0.7458363,-0.1128578,0.2207414,-0.01,-0.04,-0.08,92.89
18743,53783990,1,2,-1.92,16.79,0.06302299,0.0943775,-0.2188994,0.1564491,0.7458363,-0.1128578,0.2240779,-0.01,-0.04,-0.08,92.89
18781,53794840,1,2,-1.92,16.79,0.06356683,0.09466856999999999,-0.2192771,0.1648574,0.7681,-0.1209191,0.2269751,-0.01,-0.04,-0.08,92.89
18825,53807116,1,2,-1.92,16.78,0.06384787,0.0936273,-0.2180615,0.1741192,0.7681,-0.1209191,0.229155,-0.01,-0.04,-0.08,92.89
18863,53816920,1,2,-1.92,16.78,0.06368169999999999,0.09283176,-0.2162758,0.1861499,0.7681,-0.1209191,0.2339071,-0.01,-0.04,-0.08,92.89
18904,53827055,1,2,-1.92,16.78,0.06346350000000001,0.09317483,-0.2156506,0.1966817,0.7681,-0.1209191,0.2383071,-0.01,-0.04,-0.08,92.89
18945,53837480,1,2,-1.91,16.78,0.06312719,0.09202763,-0.2141196,0.2115425,0.7681,-0.1209191,0.242388,-0.01,-0.04,-0.08,92.89
18985,53847478,1,1.99,-1.91,16.78,0.06379739,0.09319536,-0.2136436,0.2239029,0.7681,-0.1209191,0.2461479,-0.01,-0.04,-0.08,92.89
19026,53858057,1,2,-1.91,16.79,0.06387423,0.09402518999999999,-0.2142411,0.2387074,0.7681,-0.1209191,0.249367,-0.01,-0.04,-0.08,92.89
19072,53868302,1,2,-1.91,16.79,0.06349552,0.09469994,-0.2137572,0.2535414,0.7681,-0.1209191,0.2472304,-0.01,-0.04,-0.08,92.89
19112,53878314,1,2,-1.91,16.79,0.06419871000000001,0.09417362,-0.2130572,0.2611184,0.7681,-0.1209191,0.2504009,-0.01,-0.04,-0.08,92.89
19153,53888307,1,2,-1.91,16.79,0.06430907,0.09414543,-0.2111244,0.2613878,0.7681,-0.1209191,0.2533477,-0.01,-0.04,-0.08,92.89
19197,53901175,1,1.99,-1.92,16.79,0.06368396,0.0941612,-0.2103255,0.2601605,0.7681,-0.1209191,0.2574538,-0.01,-0.04,-0.08,92.89
19235,53911172,1,2,-1.92,16.79,0.06499650999999999,0.09282733,-0.2084445,0.2596376,0.7681,-0.1209191,0.2619047,-0.01,-0.04,-0.08,92.89
19276,53921932,1,2,-1.92,16.79,0.06570073,0.09330497,-0.2089712,0.2669923,0.7681,-0.1209191,0.259792,-0.01,-0.04,-0.08,92.89
