LineNo,TimeUS,C,Roll,Pitch,Yaw,VN,VE,VD,dPD,PN,PE,PD,GX,GY,GZ,OH
309,4.9079e+07,1,1.95,-1.65,16.53,-0.033021,-0.0016691,-0.10648,-0.079611,0.5232,0.0080613,0.71583,-0.02,-0.04,-0.1,92.89
536,4.9125e+07,1,1.96,-1.65,16.53,-0.032434,-0.0027525,-0.10552,-0.063984,0.5232,0.0080613,0.71263,-0.02,-0.04,-0.1,92.89
877,4.9187e+07,1,1.95,-1.65,16.54,-0.029714,-0.0022599,-0.10564,-0.063371,0.5232,0,0.70774,-0.02,-0.04,-0.09,92.89
997,4.9216e+07,1,1.95,-1.65,16.54,-0.027035,-0.0012471,-0.10531,-0.064793,0.5232,0,0.70595,-0.02,-0.04,-0.09,92.89
1214,4.9327e+07,1,1.96,-1.66,16.56,-0.020224,0.0025125,-0.34951,-0.28566,0.5232,0,0.68786,-0.02,-0.04,-0.09,92.89
1407,4.9424e+07,1,1.98,-1.66,16.56,-0.017738,0.0020741,-0.60684,-0.5206,0.53433,0,0.65054,-0.02,-0.04,-0.08,92.89
1627,4.945e+07,1,1.98,-1.67,16.57,-0.016451,0.0031193,-0.60671,-0.53029,0.53433,0,0.63565,-0.02,-0.04,-0.08,92.89
1691,4.948e+07,1,1.97,-1.67,16.57,-0.017067,0.0036089,-0.6074,-0.53898,0.53433,0,0.61946,-0.02,-0.04,-0.08,92.89
1735,4.9491e+07,1,1.97,-1.67,16.56,-0.016862,0.0031953,-0.60852,-0.53977,0.53433,0,0.61368,-0.02,-0.04,-0.08,92.89
1776,4.9502e+07,1,1.97,-1.67,16.56,-0.016554,0.002584,-0.60817,-0.53926,0.53433,0,0.60849,-0.02,-0.04,-0.08,92.89
1817,4.9512e+07,1,1.97,-1.67,16.56,-0.014815,0.0013922,-0.60698,-0.53781,0.53433,0,0.60321,-0.02,-0.04,-0.08,92.89
1858,4.9522e+07,1,1.97,-1.67,16.56,-0.013513,0.00051779,-0.60892,-0.53866,0.53433,0,0.5971,-0.02,-0.04,-0.08,92.89
1899,4.9532e+07,1,1.97,-1.68,16.56,-0.013668,0.0015342,-0.60693,-0.53641,0.53433,0,0.59121,-0.02,-0.04,-0.08,92.89
1940,4.9542e+07,1,1.97,-1.68,16.56,-0.013601,0.0012595,-0.60692,-0.53791,0.53433,0,0.58569,-0.02,-0.04,-0.08,92.89
1980,4.9552e+07,1,1.97,-1.68,16.56,-0.013154,0.0021538,-0.60573,-0.53849,0.53433,0,0.57981,-0.02,-0.04,-0.08,92.89
2021,4.9562e+07,1,1.98,-1.68,16.57,-0.012667,0.0030779,-0.6056,-0.53942,0.53433,0,0.57441,-0.02,-0.04,-0.08,92.89
2063,4.9572e+07,1,1.98,-1.68,16.57,-0.011672,0.003645,-0.6055,-0.5404,0.53433,0,0.56903,-0.02,-0.04,-0.08,92.89
2105,4.9582e+07,1,1.98,-1.69,16.57,-0.01228,0.0048216,-0.60598,-0.54209,0.53433,0,0.56355,-0.02,-0.04,-0.08,92.89
2150,4.9592e+07,1,1.99,-1.69,16.57,-0.011755,0.0042867,-0.60651,-0.54392,0.53433,0,0.55815,-0.02,-0.04,-0.08,92.89
2190,4.9603e+07,1,1.99,-1.69,16.57,-0.010347,0.0027238,-0.60643,-0.54597,0.53433,0,0.55204,-0.02,-0.04,-0.08,92.89
2232,4.9613e+07,1,1.99,-1.69,16.57,-0.0098592,0.0037807,-0.60507,-0.54607,0.53433,0,0.54656,-0.02,-0.04,-0.08,92.89
2272,4.9626e+07,1,1.98,-1.69,16.56,-0.010094,0.003315,-0.60372,-0.54749,0.53433,0,0.53908,-0.02,-0.04,-0.08,92.89
2313,4.9636e+07,1,1.98,-1.69,16.57,-0.00886,0.0022691,-0.6021,-0.54613,0.53433,0,0.53432,-0.02,-0.04,-0.08,92.89
2355,4.9646e+07,1,1.98,-1.69,16.56,-0.0076814,0.0037602,-0.60081,-0.54367,0.53433,0,0.52884,-0.02,-0.04,-0.08,92.89
2395,4.9657e+07,1,1.97,-1.68,16.56,-0.0070215,0.0034995,-0.60019,-0.54061,0.53433,0,0.52392,-0.02,-0.04,-0.08,92.89
2436,4.9667e+07,1,1.97,-1.68,16.56,-0.0067765,0.0031952,-0.59778,-0.53544,0.53433,0,0.51888,-0.02,-0.04,-0.08,92.89
2476,4.9677e+07,1,1.97,-1.68,16.55,-0.0067987,0.0029668,-0.59631,-0.53019,0.53433,0,0.51295,-0.02,-0.04,-0.08,92.89
2522,4.9687e+07,1,1.97,-1.68,16.55,-0.0061351,0.0029183,-0.59402,-0.52508,0.53433,0,0.50792,-0.02,-0.04,-0.08,92.89
2563,4.9697e+07,1,1.97,-1.68,16.55,-0.0051467,0.0015602,-0.59249,-0.52126,0.53433,0,0.50287,-0.02,-0.04,-0.08,92.89
2603,4.9708e+07,1,1.97,-1.68,16.55,-0.00485,0.0012767,-0.59255,-0.51996,0.53433,0,0.49725,-0.02,-0.04,-0.08,92.89
2645,4.9717e+07,1,1.97,-1.68,16.55,-0.0048133,0.0021648,-0.59425,-0.521,0.53433,0,0.49217,-0.02,-0.04,-0.08,92.89
2685,4.9728e+07,1,1.98,-1.68,16.54,-0.0044946,0.0026847,-0.59485,-0.5204,0.53433,0,0.48622,-0.02,-0.04,-0.08,92.89
2723,4.9738e+07,1,1.98,-1.68,16.54,-0.0045921,0.0032286,-0.59498,-0.51957,0.53433,0,0.48165,-0.02,-0.04,-0.08,92.89
2763,4.9748e+07,1,1.98,-1.68,16.54,-0.0050734,0.0050807,-0.59311,-0.51601,0.53433,0,0.47705,-0.02,-0.04,-0.08,92.89
2804,4.9758e+07,1,1.98,-1.67,16.54,-0.0048379,0.0064753,-0.59324,-0.5134,0.53433,0,0.47116,-0.02,-0.04,-0.08,92.89
2846,4.9768e+07,1,1.98,-1.68,16.53,-0.0051609,0.0064639,-0.59189,-0.50918,0.53433,0,0.46598,-0.02,-0.04,-0.08,92.89
2886,4.9778e+07,1,1.99,-1.68,16.53,-0.0048451,0.0067869,-0.59175,-0.50553,0.53433,0,0.46187,-0.02,-0.04,-0.08,92.89
2933,4.9788e+07,1,1.99,-1.68,16.53,-0.004041,0.0071522,-0.59096,-0.50098,0.53433,-0.0080613,0.45652,-0.02,-0.04,-0.08,92.89
2976,4.9799e+07,1,1.99,-1.68,16.53,-0.0037558,0.0074076,-0.59277,-0.49963,0.53433,-0.0080613,0.45167,-0.02,-0.04,-0.08,92.89
3020,4.9809e+07,1,1.98,-1.68,16.52,-0.0044535,0.0079712,-0.59351,-0.49863,0.53433,-0.0080613,0.44681,-0.02,-0.04,-0.08,92.89
3061,4.9819e+07,1,1.98,-1.69,16.52,-0.0052441,0.0092871,-0.58998,-0.4941,0.53433,-0.0080613,0.44185,-0.02,-0.04,-0.08,92.89
3102,4.9829e+07,1,1.98,-1.69,16.52,-0.0053594,0.0097812,-0.59046,-0.49324,0.53433,-0.0080613,0.43595,-0.02,-0.04,-0.08,92.89
3139,4.9839e+07,1,1.98,-1.68,16.51,-0.0051882,0.010319,-0.59004,-0.48923,0.53433,-0.0080613,0.43151,-0.02,-0.04,-0.08,92.89
3180,4.985e+07,1,1.98,-1.69,16.51,-0.0054757,0.009977,-0.59031,-0.48334,0.53433,-0.0080613,0.42759,-0.02,-0.04,-0.08,92.89
3222,4.986e+07,1,1.98,-1.69,16.51,-0.0055084,0.011633,-0.59095,-0.47721,0.53433,-0.0080613,0.42294,-0.02,-0.04,-0.08,92.89
3263,4.987e+07,1,1.98,-1.68,16.51,-0.0057022,0.010959,-0.59209,-0.47443,0.53433,-0.0080613,0.41704,-0.02,-0.04,-0.08,92.89
3304,4.988e+07,1,1.99,-1.69,16.51,-0.0052335,0.011515,-0.59166,-0.46974,0.53433,-0.0080613,0.41289,-0.02,-0.04,-0.08,92.89
3352,4.989e+07,1,1.99,-1.69,16.52,-0.0052281,0.011812,-0.59271,-0.46725,0.53433,-0.0080613,0.40867,-0.02,-0.04,-0.08,92.89
3392,4.9901e+07,1,2,-1.69,16.52,-0.0055345,0.013371,-0.59281,-0.46598,0.53433,-0.0080613,0.40264,-0.02,-0.04,-0.08,92.89
3433,4.9911e+07,1,2,-1.69,16.51,-0.0058664,0.014081,-0.59211,-0.46419,0.53433,-0.0080613,0.39777,-0.02,-0.04,-0.08,92.89
3473,4.9921e+07,1,2,-1.69,16.51,-0.0055182,0.015705,-0.59196,-0.46335,0.53433,-0.0080613,0.39341,-0.02,-0.04,-0.08,92.89
3514,4.9931e+07,1,2,-1.69,16.52,-0.004382,0.016762,-0.59045,-0.46192,0.53433,-0.0080613,0.38906,-0.02,-0.04,-0.08,92.89
3556,4.9941e+07,1,2,-1.69,16.52,-0.004874,0.016991,-0.58931,-0.4606,0.53433,-0.0080613,0.38314,-0.02,-0.04,-0.08,92.89
3596,4.9951e+07,1,2,-1.7,16.52,-0.0042135,0.016161,-0.58949,-0.45699,0.53433,-0.0080613,0.37983,-0.02,-0.04,-0.08,92.89
3637,4.9962e+07,1,2,-1.7,16.51,-0.0036258,0.016602,-0.58824,-0.44857,0.53433,-0.0080613,0.37635,-0.02,-0.04,-0.08,92.89
3678,4.9972e+07,1,2,-1.69,16.51,-0.0026031,0.017293,-0.58822,-0.44577,0.53433,-0.0080613,0.3705,-0.02,-0.04,-0.08,92.89
3720,4.9982e+07,1,2,-1.69,16.51,-0.0020828,0.018014,-0.58645,-0.44042,0.53433,-0.0080613,0.36701,-0.02,-0.04,-0.08,92.89
3767,4.9992e+07,1,1.99,-1.69,16.51,-0.0021533,0.019007,-0.58525,-0.43969,0.54546,-0.0080613,0.36349,-0.02,-0.04,-0.08,92.89
3807,5.0002e+07,1,1.99,-1.69,16.52,-0.0014126,0.017759,-0.58322,-0.43342,0.54546,-0.0080613,0.35707,-0.02,-0.04,-0.08,92.89
3848,5.0013e+07,1,1.99,-1.69,16.52,-0.00023976,0.017564,-0.58284,-0.42926,0.54546,-0.0080613,0.35341,-0.02,-0.04,-0.08,92.89
3888,5.0022e+07,1,1.99,-1.68,16.52,-3.8229e-05,0.015924,-0.58136,-0.42467,0.54546,-0.0080613,0.34965,-0.02,-0.04,-0.08,92.89
3929,5.0032e+07,1,1.99,-1.69,16.52,-0.00027837,0.015226,-0.58014,-0.42029,0.54546,-0.0080613,0.34567,-0.02,-0.04,-0.08,92.89
3969,5.0045e+07,1,1.99,-1.69,16.52,-6.7619e-06,0.015046,-0.58148,-0.41682,0.54546,-0.0080613,0.34128,-0.02,-0.04,-0.08,92.89
4010,5.0055e+07,1,1.99,-1.69,16.52,-7.6808e-05,0.014393,-0.58167,-0.41257,0.54546,-0.0080613,0.33846,-0.02,-0.04,-0.08,92.89
4051,5.0066e+07,1,1.99,-1.68,16.52,-0.00050433,0.014516,-0.58053,-0.40176,0.54546,-0.0080613,0.33262,-0.02,-0.04,-0.08,92.89
4092,5.0076e+07,1,2,-1.68,16.52,-0.0001054,0.015352,-0.58071,-0.39288,0.54546,-0.0080613,0.32894,-0.02,-0.04,-0.08,92.89
4134,5.0086e+07,1,2,-1.69,16.52,-0.00025093,0.016182,-0.57878,-0.38637,0.54546,-0.0080613,0.32592,-0.02,-0.04,-0.08,92.89
4180,5.0096e+07,1,2,-1.69,16.53,-0.00052415,0.016638,-0.5782,-0.37876,0.54546,-0.0080613,0.32266,-0.02,-0.04,-0.08,92.89
4221,5.0106e+07,1,2,-1.69,16.53,-0.00075383,0.016665,-0.57816,-0.37426,0.54546,-0.0080613,0.31928,-0.02,-0.04,-0.08,92.89
4262,5.0117e+07,1,2,-1.69,16.53,-0.0013278,0.017783,-0.57743,-0.36747,0.54546,-0.0080613,0.31352,-0.02,-0.04,-0.08,92.89
4302,5.0127e+07,1,1.99,-1.69,16.53,-0.000666,0.018285,-0.57728,-0.364,0.54546,-0.0080613,0.30941,-0.02,-0.04,-0.08,92.89
4344,5.0137e+07,1,1.99,-1.69,16.52,-7.4115e-05,0.018452,-0.57608,-0.35902,0.54546,-0.0080613,0.30725,-0.02,-0.04,-0.08,92.89
4381,5.0147e+07,1,1.99,-1.69,16.53,0.00011849,0.020531,-0.57683,-0.35206,0.54546,-0.0080613,0.30538,-0.02,-0.04,-0.08,92.89
4422,5.0157e+07,1,1.99,-1.7,16.53,0.00077776,0.020722,-0.57465,-0.33973,0.54546,-0.0080613,0.30231,-0.02,-0.04,-0.08,92.89
4462,5.0167e+07,1,1.99,-1.7,16.53,0.0011939,0.021181,-0.57459,-0.33337,0.54546,-0.0080613,0.2996,-0.02,-0.04,-0.08,92.89
4503,5.0177e+07,1,1.99,-1.7,16.53,0.0019155,0.02291,-0.57604,-0.32602,0.54546,-0.0080613,0.29389,-0.02,-0.04,-0.08,92.89
4544,5.0187e+07,1,1.99,-1.7,16.53,0.002419,0.023979,-0.57354,-0.31692,0.54546,-0.0080613,0.29101,-0.02,-0.04,-0.08,92.89
4591,5.0197e+07,1,2,-1.7,16.53,0.0023067,0.023389,-0.57316,-0.31371,0.54546,-0.016123,0.28858,-0.02,-0.04,-0.08,92.89
4632,5.0207e+07,1,2,-1.71,16.52,0.00307,0.025304,-0.57348,-0.31176,0.54546,-0.016123,0.28494,-0.02,-0.04,-0.08,92.89
4672,5.0217e+07,1,2,-1.71,16.52,0.0023071,0.026434,-0.57361,-0.31316,0.54546,-0.016123,0.28173,-0.02,-0.04,-0.08,92.89
4713,5.0227e+07,1,2,-1.7,16.52,0.0029858,0.026626,-0.5739,-0.31314,0.54546,-0.016123,0.27597,-0.02,-0.04,-0.08,92.89
4753,5.024e+07,1,2,-1.71,16.53,0.0029937,0.027404,-0.573,-0.31063,0.54546,-0.016123,0.27264,-0.02,-0.04,-0.08,92.89
4794,5.025e+07,1,2.01,-1.7,16.53,0.0033053,0.028327,-0.57245,-0.30785,0.54546,-0.016123,0.2702,-0.02,-0.04,-0.08,92.89
4834,5.026e+07,1,2,-1.71,16.53,0.0044256,0.028316,-0.57296,-0.30597,0.54546,-0.016123,0.26767,-0.02,-0.04,-0.08,92.89
4876,5.027e+07,1,2,-1.7,16.53,0.0039184,0.029015,-0.57311,-0.30233,0.54546,-0.016123,0.26435,-0.02,-0.04,-0.08,92.89
4917,5.028e+07,1,2,-1.7,16.53,0.0034952,0.030564,-0.57194,-0.30352,0.54546,-0.016123,0.26148,-0.02,-0.04,-0.08,92.89
4961,5.0291e+07,1,2,-1.7,16.53,0.003235,0.030916,-0.57021,-0.30178,0.54546,-0.016123,0.25849,-0.02,-0.04,-0.08,92.89
5005,5.0301e+07,1,2,-1.7,16.53,0.0048902,0.031302,-0.56955,-0.30046,0.54546,-0.016123,0.25475,-0.02,-0.04,-0.08,92.89
5045,5.0311e+07,1,2.01,-1.7,16.52,0.0058281,0.031466,-0.56855,-0.29882,0.54546,-0.016123,0.24912,-0.02,-0.04,-0.08,92.89
5088,5.0322e+07,1,2,-1.7,16.52,0.0069834,0.031175,-0.5684,-0.30154,0.54546,-0.016123,0.2459,-0.02,-0.04,-0.08,92.89
5129,5.0335e+07,1,2,-1.7,16.52,0.006139,0.031862,-0.56629,-0.30509,0.54546,-0.016123,0.24085,-0.02,-0.04,-0.09,92.89
5170,5.0344e+07,1,2,-1.7,16.53,0.0060529,0.031153,-0.5642,-0.31397,0.54546,-0.016123,0.23519,-0.02,-0.04,-0.09,92.89
5208,5.0355e+07,1,2,-1.71,16.53,0.0068626,0.032052,-0.5625,-0.32085,0.54546,-0.016123,0.2338,-0.02,-0.04,-0.08,92.89
5248,5.0365e+07,1,2,-1.71,16.53,0.0060015,0.033789,-0.56166,-0.32774,0.54546,-0.016123,0.23234,-0.02,-0.04,-0.08,92.89
5289,5.0375e+07,1,2,-1.71,16.53,0.0052863,0.034015,-0.56038,-0.32349,0.54546,-0.016123,0.2267,-0.02,-0.04,-0.08,92.89
5332,5.0385e+07,1,2.01,-1.71,16.53,0.0066627,0.034806,-0.55865,-0.3179,0.55659,-0.016123,0.22494,-0.02,-0.04,-0.08,92.89
5373,5.0395e+07,1,2,-1.71,16.53,0.0068395,0.034777,-0.55753,-0.31975,0.55659,-0.016123,0.22316,-0.02,-0.04,-0.08,92.89
5418,5.0405e+07,1,2,-1.71,16.53,0.0076357,0.035393,-0.55591,-0.31421,0.55659,-0.016123,0.22063,-0.02,-0.04,-0.08,92.89
5459,5.0416e+07,1,2.01,-1.71,16.53,0.0083864,0.036127,-0.55695,-0.3077,0.55659,-0.016123,0.21509,-0.02,-0.04,-0.08,92.89
5500,5.0426e+07,1,2.01,-1.72,16.53,0.0088704,0.035738,-0.55745,-0.30318,0.55659,-0.016123,0.21288,-0.02,-0.04,-0.08,92.89
5540,5.0436e+07,1,2.01,-1.72,16.53,0.0086543,0.036222,-0.55697,-0.29839,0.55659,-0.016123,0.21055,-0.02,-0.04,-0.08,92.89
5581,5.0449e+07,1,2.01,-1.72,16.53,0.0079581,0.036196,-0.55567,-0.29095,0.55659,-0.016123,0.20634,-0.02,-0.04,-0.08,92.89
5619,5.0458e+07,1,2.01,-1.72,16.54,0.0078004,0.037595,-0.5567,-0.28672,0.55659,-0.016123,0.2049,-0.02,-0.04,-0.08,92.89
5660,5.0469e+07,1,2.01,-1.72,16.53,0.0088101,0.037686,-0.55646,-0.28275,0.55659,-0.016123,0.20359,-0.02,-0.04,-0.08,92.89
5701,5.0479e+07,1,2.01,-1.72,16.53,0.0099987,0.037563,-0.55872,-0.27821,0.55659,-0.016123,0.19712,-0.02,-0.04,-0.08,92.89
5741,5.0489e+07,1,2.01,-1.72,16.53,0.0089022,0.038822,-0.55965,-0.28262,0.55659,-0.016123,0.19533,-0.02,-0.04,-0.08,92.89
5786,5.0499e+07,1,2.01,-1.72,16.53,0.0098681,0.040009,-0.55813,-0.2833,0.55659,-0.016123,0.18973,-0.02,-0.04,-0.08,92.89
5826,5.0509e+07,1,2,-1.73,16.53,0.0095238,0.040251,-0.55692,-0.28413,0.55659,-0.016123,0.1878,-0.02,-0.04,-0.08,92.89
5869,5.0519e+07,1,2,-1.73,16.53,0.0085968,0.041619,-0.55675,-0.2877,0.55659,-0.016123,0.18566,-0.02,-0.04,-0.08,92.89
5909,5.053e+07,1,2,-1.73,16.54,0.0089214,0.043109,-0.55594,-0.2905,0.55659,-0.016123,0.18341,-0.02,-0.04,-0.08,92.89
5947,5.054e+07,1,2,-1.73,16.54,0.0083897,0.043595,-0.55489,-0.28948,0.55659,-0.016123,0.18036,-0.02,-0.04,-0.08,92.89
5987,5.055e+07,1,2,-1.73,16.54,0.009974,0.044172,-0.55684,-0.28926,0.55659,-0.016123,0.17485,-0.02,-0.04,-0.08,92.89
6024,5.056e+07,1,2,-1.72,16.54,0.0096538,0.043866,-0.55593,-0.28226,0.55659,-0.016123,0.17393,-0.02,-0.04,-0.08,92.89
6065,5.057e+07,1,2.01,-1.72,16.54,0.009546,0.04404,-0.55393,-0.27385,0.55659,-0.016123,0.17284,-0.02,-0.04,-0.08,92.89
6111,5.0583e+07,1,2.01,-1.72,16.54,0.0088517,0.044223,-0.554,-0.26324,0.56773,-0.024184,0.17031,-0.02,-0.04,-0.08,92.89
6151,5.0593e+07,1,2.01,-1.72,16.54,0.0087916,0.044611,-0.55197,-0.25504,0.56773,-0.024184,0.16891,-0.02,-0.04,-0.08,92.89
6199,5.0605e+07,1,2.01,-1.73,16.54,0.0083085,0.046827,-0.54912,-0.24742,0.56773,-0.024184,0.16559,-0.02,-0.04,-0.08,92.89
6239,5.0616e+07,1,2.01,-1.73,16.55,0.0091566,0.046598,-0.54651,-0.23929,0.56773,-0.024184,0.16003,-0.02,-0.04,-0.08,92.89
6280,5.0626e+07,1,2.01,-1.73,16.55,0.0097611,0.046693,-0.54616,-0.23654,0.56773,-0.024184,0.15833,-0.02,-0.04,-0.08,92.89
6321,5.0636e+07,1,2.01,-1.73,16.55,0.0083652,0.047232,-0.54453,-0.23344,0.56773,-0.024184,0.15632,-0.02,-0.04,-0.08,92.89
6360,5.0648e+07,1,2.01,-1.74,16.56,0.0082463,0.047705,-0.5441,-0.23474,0.56773,-0.024184,0.15382,-0.02,-0.04,-0.08,92.89
6400,5.0658e+07,1,2,-1.74,16.56,0.00872,0.049544,-0.54391,-0.23494,0.56773,-0.024184,0.14846,-0.02,-0.04,-0.08,92.89
6441,5.0669e+07,1,2,-1.74,16.56,0.0097366,0.04998,-0.54205,-0.23642,0.56773,-0.024184,0.14747,-0.02,-0.04,-0.08,92.89
6483,5.0679e+07,1,2,-1.75,16.56,0.0094071,0.049651,-0.54262,-0.23915,0.56773,-0.024184,0.14622,-0.02,-0.04,-0.08,92.89
6523,5.0689e+07,1,2,-1.75,16.56,0.0083168,0.050363,-0.54361,-0.24027,0.56773,-0.024184,0.1448,-0.02,-0.04,-0.08,92.89
6564,5.0699e+07,1,2.01,-1.75,16.56,0.00742,0.050282,-0.54096,-0.23339,0.56773,-0.024184,0.14263,-0.02,-0.04,-0.08,92.89
6609,5.0709e+07,1,2.01,-1.76,16.56,0.0063073,0.051139,-0.54105,-0.2274,0.56773,-0.024184,0.13724,-0.02,-0.04,-0.08,92.89
6649,5.0719e+07,1,2.01,-1.76,16.56,0.0068475,0.051613,-0.5399,-0.22261,0.56773,-0.024184,0.13542,-0.02,-0.04,-0.08,92.89
6691,5.073e+07,1,2.01,-1.76,16.56,0.0072162,0.051416,-0.53736,-0.21991,0.56773,-0.024184,0.13347,-0.02,-0.04,-0.08,92.89
6732,5.074e+07,1,2.01,-1.76,16.55,0.0063815,0.051909,-0.53723,-0.22636,0.56773,-0.024184,0.12752,-0.02,-0.04,-0.08,92.89
6770,5.0751e+07,1,2.01,-1.76,16.55,0.0060448,0.05335,-0.53706,-0.23638,0.56773,-0.024184,0.12552,-0.02,-0.04,-0.08,92.89
6811,5.0763e+07,1,2.01,-1.76,16.56,0.0074593,0.053567,-0.53625,-0.24835,0.56773,-0.024184,0.12277,-0.02,-0.04,-0.08,92.89
6851,5.0773e+07,1,2.01,-1.77,16.56,0.0078815,0.053392,-0.53534,-0.25378,0.56773,-0.024184,0.12201,-0.02,-0.04,-0.08,92.89
6895,5.0784e+07,1,2,-1.77,16.56,0.008694,0.053893,-0.53473,-0.25167,0.56773,-0.024184,0.11617,-0.02,-0.04,-0.08,92.89
6937,5.0794e+07,1,2.01,-1.77,16.56,0.0091549,0.055782,-0.5327,-0.24998,0.57886,-0.032245,0.11466,-0.02,-0.04,-0.08,92.89
6982,5.0804e+07,1,2.01,-1.77,16.57,0.0091159,0.057145,-0.53193,-0.25339,0.57886,-0.032245,0.11307,-0.02,-0.04,-0.08,92.89
7022,5.0814e+07,1,2.01,-1.78,16.57,0.0092127,0.056646,-0.53276,-0.25682,0.57886,-0.032245,0.10724,-0.02,-0.04,-0.08,92.89
7063,5.0824e+07,1,2.01,-1.78,16.57,0.0096729,0.057859,-0.53309,-0.2593,0.57886,-0.032245,0.10542,-0.02,-0.04,-0.08,92.89
7105,5.0834e+07,1,2.01,-1.78,16.57,0.010546,0.05797,-0.53253,-0.26152,0.57886,-0.032245,0.10342,-0.02,-0.04,-0.08,92.89
7146,5.0844e+07,1,2.01,-1.78,16.57,0.011009,0.056797,-0.52929,-0.26064,0.57886,-0.032245,0.10132,-0.02,-0.04,-0.08,92.89
7191,5.0857e+07,1,2.01,-1.78,16.57,0.011036,0.057084,-0.52802,-0.26201,0.57886,-0.032245,0.099634,-0.02,-0.04,-0.08,92.89
7231,5.0867e+07,1,2.01,-1.78,16.57,0.012096,0.058329,-0.52901,-0.26108,0.57886,-0.032245,0.098709,-0.02,-0.04,-0.08,92.89
7273,5.0877e+07,1,2.02,-1.78,16.57,0.011309,0.059575,-0.53168,-0.25438,0.57886,-0.032245,0.092876,-0.02,-0.04,-0.08,92.89
7314,5.0888e+07,1,2.01,-1.78,16.57,0.012065,0.059289,-0.53011,-0.247,0.57886,-0.032245,0.091772,-0.02,-0.04,-0.08,92.89
7354,5.0898e+07,1,2.01,-1.79,16.58,0.012137,0.060413,-0.53017,-0.241,0.57886,-0.032245,0.090434,-0.02,-0.04,-0.08,92.89
7400,5.0908e+07,1,2.02,-1.79,16.58,0.012242,0.060598,-0.53103,-0.23872,0.57886,-0.032245,0.088936,-0.02,-0.04,-0.08,92.89
7441,5.0918e+07,1,2.02,-1.79,16.58,0.013137,0.060405,-0.52959,-0.23467,0.57886,-0.032245,0.087194,-0.02,-0.04,-0.08,92.89
7482,5.0928e+07,1,2.02,-1.79,16.58,0.013887,0.060925,-0.52736,-0.22721,0.57886,-0.032245,0.081381,-0.02,-0.04,-0.08,92.89
7522,5.0938e+07,1,2.02,-1.79,16.59,0.013349,0.061279,-0.52428,-0.22271,0.57886,-0.032245,0.079536,-0.02,-0.04,-0.08,92.89
7564,5.0948e+07,1,2.02,-1.79,16.59,0.013375,0.062147,-0.52356,-0.21809,0.57886,-0.032245,0.080143,-0.02,-0.04,-0.09,92.89
7604,5.0958e+07,1,2.02,-1.79,16.59,0.013458,0.062707,-0.52254,-0.20744,0.57886,-0.032245,0.080437,-0.02,-0.04,-0.09,92.89
7645,5.0968e+07,1,2.01,-1.79,16.6,0.013106,0.063111,-0.52126,-0.19727,0.57886,-0.032245,0.080513,-0.02,-0.04,-0.09,92.89
7686,5.0978e+07,1,2.01,-1.79,16.6,0.013649,0.063144,-0.5214,-0.18103,0.57886,-0.032245,0.075229,-0.02,-0.04,-0.09,92.89
7728,5.0988e+07,1,2.01,-1.79,16.6,0.01455,0.063156,-0.52062,-0.16795,0.57886,-0.032245,0.075189,-0.02,-0.04,-0.09,92.89
7769,5.0999e+07,1,2.02,-1.8,16.61,0.015917,0.063158,-0.51948,-0.15594,0.58999,-0.040306,0.074253,-0.02,-0.04,-0.09,92.89
7813,5.1009e+07,1,2.02,-1.8,16.61,0.016538,0.062912,-0.51858,-0.14719,0.58999,-0.040306,0.073631,-0.02,-0.04,-0.09,92.89
7855,5.102e+07,1,2.01,-1.8,16.61,0.016391,0.063305,-0.51602,-0.14092,0.58999,-0.040306,0.072795,-0.02,-0.04,-0.09,92.89
7896,5.103e+07,1,2.01,-1.8,16.61,0.01771,0.063775,-0.51504,-0.13415,0.58999,-0.040306,0.071242,-0.02,-0.04,-0.09,92.89
7936,5.104e+07,1,2.01,-1.8,16.61,0.017924,0.063386,-0.51423,-0.12757,0.58999,-0.040306,0.066085,-0.02,-0.04,-0.09,92.89
7978,5.1053e+07,1,2.02,-1.8,16.61,0.016107,0.064403,-0.51103,-0.11662,0.58999,-0.040306,0.071519,-0.02,-0.04,-0.09,92.89
8019,5.1063e+07,1,2.02,-1.8,16.61,0.01715,0.064934,-0.51238,-0.10119,0.58999,-0.040306,0.065891,-0.02,-0.04,-0.09,92.89
8060,5.1073e+07,1,2.02,-1.8,16.61,0.018011,0.064517,-0.51102,-0.088496,0.58999,-0.040306,0.066151,-0.02,-0.04,-0.09,92.89
8101,5.1083e+07,1,2.02,-1.8,16.62,0.018335,0.065253,-0.51037,-0.08087,0.58999,-0.040306,0.066176,-0.02,-0.04,-0.09,92.89
8141,5.1093e+07,1,2.02,-1.8,16.62,0.018774,0.065565,-0.50951,-0.082123,0.58999,-0.040306,0.065914,-0.02,-0.04,-0.09,92.89
8182,5.1103e+07,1,2.02,-1.8,16.62,0.019253,0.066905,-0.5108,-0.080159,0.58999,-0.040306,0.060876,-0.02,-0.04,-0.09,92.89
8229,5.1113e+07,1,2.02,-1.8,16.62,0.020069,0.066367,-0.51011,-0.093988,0.58999,-0.040306,0.055695,-0.02,-0.04,-0.09,92.89
8270,5.1123e+07,1,2.02,-1.8,16.62,0.019843,0.066178,-0.50923,-0.10355,0.58999,-0.040306,0.055409,-0.02,-0.04,-0.09,92.89
8311,5.1133e+07,1,2.02,-1.8,16.62,0.019179,0.067455,-0.50876,-0.11318,0.58999,-0.040306,0.054808,-0.02,-0.04,-0.09,92.89
8351,5.1143e+07,1,2.02,-1.8,16.63,0.019716,0.067164,-0.50875,-0.12763,0.58999,-0.040306,0.054016,-0.02,-0.04,-0.09,92.89
8393,5.1156e+07,1,2.02,-1.8,16.63,0.019766,0.068387,-0.50763,-0.13709,0.58999,-0.040306,0.052062,-0.02,-0.04,-0.09,92.89
8433,5.1166e+07,1,2.02,-1.8,16.63,0.021371,0.068393,-0.50653,-0.14179,0.58999,-0.040306,0.046432,-0.02,-0.04,-0.09,92.89
8471,5.1176e+07,1,2.02,-1.8,16.63,0.020845,0.06823,-0.50477,-0.14253,0.58999,-0.040306,0.046836,-0.02,-0.04,-0.09,92.89
8512,5.1186e+07,1,2.03,-1.8,16.64,0.021032,0.068039,-0.50253,-0.14339,0.58999,-0.040306,0.046076,-0.02,-0.04,-0.09,92.89
8554,5.1196e+07,1,2.03,-1.8,16.64,0.021822,0.069231,-0.50229,-0.1442,0.58999,-0.040306,0.045577,-0.02,-0.04,-0.09,92.89
8596,5.1207e+07,1,2.03,-1.81,16.64,0.022406,0.070746,-0.50097,-0.14622,0.60112,-0.048368,0.044908,-0.02,-0.04,-0.09,92.89
8640,5.1217e+07,1,2.03,-1.81,16.64,0.022926,0.072483,-0.50139,-0.14546,0.60112,-0.048368,0.039369,-0.02,-0.04,-0.09,92.89
8681,5.1228e+07,1,2.03,-1.81,16.64,0.023533,0.07332,-0.50058,-0.14781,0.60112,-0.048368,0.038466,-0.02,-0.04,-0.09,92.89
8722,5.1238e+07,1,2.03,-1.81,16.64,0.024106,0.073708,-0.50046,-0.15103,0.60112,-0.048368,0.03734,-0.02,-0.04,-0.09,92.89
8763,5.1248e+07,1,2.03,-1.81,16.64,0.025183,0.07384,-0.49943,-0.1558,0.60112,-0.048368,0.036076,-0.02,-0.04,-0.09,92.89
8802,5.126e+07,1,2.03,-1.81,16.64,0.024622,0.07308,-0.49911,-0.15854,0.60112,-0.048368,0.035477,-0.02,-0.04,-0.09,92.89
8842,5.127e+07,1,2.04,-1.81,16.64,0.02536,0.073681,-0.49605,-0.15565,0.60112,-0.048368,0.036072,-0.02,-0.04,-0.09,92.89
8885,5.1281e+07,1,2.03,-1.81,16.64,0.026841,0.074415,-0.49389,-0.14353,0.60112,-0.048368,0.03113,-0.02,-0.04,-0.09,92.89
8925,5.1291e+07,1,2.04,-1.81,16.64,0.028163,0.074003,-0.49167,-0.13462,0.60112,-0.048368,0.031052,-0.02,-0.04,-0.09,92.89
8966,5.1301e+07,1,2.04,-1.81,16.64,0.028223,0.074861,-0.49104,-0.12673,0.60112,-0.048368,0.031163,-0.02,-0.04,-0.09,92.89
9011,5.1311e+07,1,2.04,-1.81,16.64,0.028114,0.075602,-0.49022,-0.11963,0.60112,-0.048368,0.031142,-0.02,-0.04,-0.09,92.89
9051,5.1321e+07,1,2.04,-1.8,16.64,0.028374,0.074919,-0.49055,-0.11638,0.60112,-0.048368,0.026212,-0.02,-0.04,-0.09,92.89
9092,5.1331e+07,1,2.04,-1.8,16.64,0.029738,0.075195,-0.49092,-0.1162,0.60112,-0.048368,0.025938,-0.02,-0.04,-0.09,92.89
9132,5.1342e+07,1,2.04,-1.8,16.64,0.03091,0.075712,-0.4903,-0.11206,0.60112,-0.048368,0.025357,-0.02,-0.04,-0.09,92.89
9173,5.1352e+07,1,2.04,-1.8,16.64,0.030733,0.075853,-0.48803,-0.10989,0.60112,-0.048368,0.024084,-0.02,-0.04,-0.09,92.89
9210,5.1362e+07,1,2.04,-1.8,16.64,0.031094,0.075962,-0.49002,-0.11881,0.60112,-0.048368,0.019279,-0.02,-0.04,-0.09,92.89
9251,5.1372e+07,1,2.04,-1.8,16.64,0.031173,0.076373,-0.48865,-0.11629,0.60112,-0.048368,0.020855,-0.02,-0.04,-0.09,92.89
9294,5.1382e+07,1,2.04,-1.8,16.64,0.031494,0.07696,-0.48788,-0.11136,0.60112,-0.048368,0.022086,-0.02,-0.04,-0.09,92.89
9334,5.1393e+07,1,2.04,-1.81,16.65,0.032379,0.07754,-0.48538,-0.096587,0.60112,-0.048368,0.023049,-0.02,-0.04,-0.09,92.89
9375,5.1403e+07,1,2.04,-1.81,16.65,0.031885,0.077714,-0.48398,-0.086322,0.60112,-0.048368,0.023786,-0.02,-0.04,-0.09,92.89
9419,5.1413e+07,1,2.04,-1.81,16.65,0.033304,0.078959,-0.48363,-0.077788,0.60112,-0.048368,0.024192,-0.02,-0.04,-0.09,92.89
9460,5.1423e+07,1,2.04,-1.81,16.65,0.034221,0.079781,-0.48375,-0.065389,0.60112,-0.048368,0.018891,-0.02,-0.04,-0.09,92.89
9501,5.1433e+07,1,2.05,-1.81,16.65,0.034248,0.080824,-0.48289,-0.057831,0.60112,-0.048368,0.019036,-0.02,-0.04,-0.09,92.89
9527,5.1456e+07,1,2.05,-1.82,16.64,0.034343,0.081524,-0.48061,-0.043505,0.60112,-0.048368,0.019833,-0.02,-0.04,-0.09,92.89
9567,5.1466e+07,1,2.05,-1.82,16.65,0.034674,0.082304,-0.47869,-0.030774,0.60112,-0.048368,0.021268,-0.02,-0.04,-0.09,92.89
9609,5.1476e+07,1,2.05,-1.82,16.65,0.034989,0.082148,-0.47735,-0.019916,0.60112,-0.048368,0.021968,-0.02,-0.04,-0.09,92.89
9649,5.1486e+07,1,2.04,-1.82,16.65,0.035404,0.082913,-0.47643,-0.015225,0.60112,-0.048368,0.022861,-0.02,-0.04,-0.09,92.89
9690,5.1496e+07,1,2.05,-1.82,16.65,0.035346,0.08396,-0.47655,-0.0061864,0.60112,-0.048368,0.018124,-0.02,-0.04,-0.09,92.89
9730,5.1506e+07,1,2.05,-1.82,16.65,0.035259,0.08413,-0.47643,-0.00074579,0.60112,-0.048368,0.019213,-0.02,-0.04,-0.09,92.89
9775,5.1516e+07,1,2.05,-1.83,16.66,0.035832,0.084881,-0.47587,0.00028363,0.60112,-0.048368,0.01957,-0.02,-0.04,-0.09,92.89
9817,5.1527e+07,1,2.05,-1.83,16.66,0.034882,0.084545,-0.47591,-0.00077873,0.60112,-0.048368,0.019287,-0.02,-0.04,-0.09,92.89
9857,5.1537e+07,1,2.05,-1.83,16.66,0.034624,0.085774,-0.47466,-0.0059749,0.60112,-0.048368,0.019183,-0.02,-0.04,-0.09,92.89
9899,5.1547e+07,1,2.05,-1.83,16.66,0.034602,0.087427,-0.47438,-0.0084555,0.60112,-0.048368,0.014457,-0.02,-0.04,-0.09,92.89
9936,5.1557e+07,1,2.04,-1.83,16.66,0.033974,0.086733,-0.4717,-0.0060016,0.60112,-0.048368,0.01624,-0.02,-0.04,-0.09,92.89
9977,5.1567e+07,1,2.04,-1.83,16.66,0.033896,0.086136,-0.47052,0.004101,0.60112,-0.048368,0.018659,-0.02,-0.04,-0.09,92.89
10019,5.1577e+07,1,2.04,-1.83,16.67,0.034741,0.086457,-0.46856,0.0085906,0.60112,-0.048368,0.019823,-0.02,-0.04,-0.09,92.89
10061,5.1587e+07,1,2.05,-1.83,16.67,0.034913,0.086833,-0.4686,0.016291,0.61225,-0.056429,0.021161,-0.02,-0.04,-0.09,92.89
10102,5.1597e+07,1,2.05,-1.83,16.67,0.035389,0.087179,-0.46672,0.02104,0.61225,-0.056429,0.022223,-0.02,-0.04,-0.09,92.89
10142,5.1607e+07,1,2.05,-1.83,16.67,0.034426,0.08871,-0.46606,0.029333,0.61225,-0.056429,0.017539,-0.02,-0.04,-0.09,92.89
10187,5.1617e+07,1,2.05,-1.83,16.67,0.035613,0.088134,-0.46557,0.033498,0.61225,-0.056429,0.01838,-0.02,-0.04,-0.09,92.89
10227,5.1628e+07,1,2.05,-1.83,16.67,0.035226,0.088497,-0.46429,0.037117,0.61225,-0.056429,0.018852,-0.02,-0.04,-0.09,92.89
10268,5.1638e+07,1,2.05,-1.83,16.68,0.036028,0.087751,-0.46272,0.037491,0.61225,-0.056429,0.019229,-0.02,-0.04,-0.09,92.89
10311,5.1648e+07,1,2.05,-1.83,16.68,0.035756,0.086935,-0.46065,0.033815,0.61225,-0.056429,0.021468,-0.02,-0.04,-0.09,92.89
10348,5.1658e+07,1,2.05,-1.84,16.68,0.036404,0.087603,-0.45795,0.034918,0.61225,-0.056429,0.023328,-0.02,-0.04,-0.09,92.89
10389,5.1668e+07,1,2.05,-1.83,16.68,0.036251,0.087971,-0.45917,0.040715,0.61225,-0.056429,0.01834,-0.02,-0.04,-0.09,92.89
10429,5.1678e+07,1,2.05,-1.83,16.68,0.035628,0.087407,-0.45894,0.044768,0.61225,-0.056429,0.019954,-0.02,-0.04,-0.09,92.89
10471,5.1688e+07,1,2.05,-1.83,16.68,0.0354,0.087096,-0.45702,0.046946,0.61225,-0.056429,0.021322,-0.02,-0.04,-0.09,92.89
10511,5.1698e+07,1,2.05,-1.83,16.68,0.03562,0.08754,-0.45425,0.049068,0.61225,-0.056429,0.022397,-0.02,-0.04,-0.09,92.89
10552,5.1708e+07,1,2.05,-1.83,16.68,0.034921,0.087065,-0.45366,0.045505,0.61225,-0.056429,0.01786,-0.02,-0.04,-0.09,92.89
10598,5.1718e+07,1,2.05,-1.84,16.68,0.035168,0.086992,-0.45321,0.040571,0.61225,-0.056429,0.018738,-0.02,-0.04,-0.09,92.89
10638,5.1729e+07,1,2.05,-1.84,16.68,0.034723,0.088393,-0.45255,0.033052,0.61225,-0.056429,0.019377,-0.02,-0.04,-0.09,92.89
10679,5.1739e+07,1,2.05,-1.83,16.69,0.03587,0.088202,-0.45119,0.023263,0.61225,-0.056429,0.019779,-0.02,-0.04,-0.09,92.89
10719,5.1749e+07,1,2.05,-1.83,16.68,0.0364,0.086987,-0.44995,0.012822,0.61225,-0.056429,0.019869,-0.02,-0.04,-0.09,92.89
10759,5.1759e+07,1,2.05,-1.83,16.68,0.037159,0.0863,-0.45007,0.0060063,0.61225,-0.056429,0.01545,-0.02,-0.04,-0.09,92.89
10797,5.1769e+07,1,2.04,-1.83,16.68,0.037486,0.08639,-0.44974,-0.00019181,0.61225,-0.056429,0.01655,-0.02,-0.04,-0.09,92.89
10839,5.178e+07,1,2.05,-1.83,16.68,0.03673,0.086288,-0.44599,-0.0013354,0.61225,-0.056429,0.017824,-0.02,-0.04,-0.09,92.89
10882,5.179e+07,1,2.04,-1.83,16.68,0.037385,0.0865,-0.44565,-0.01389,0.61225,-0.056429,0.018479,-0.02,-0.04,-0.09,92.89
10922,5.1801e+07,1,2.04,-1.83,16.68,0.038344,0.086559,-0.44162,-0.015603,0.63452,-0.06449,0.018818,-0.02,-0.04,-0.09,92.89
10963,5.1812e+07,1,2.04,-1.83,16.68,0.039572,0.087177,-0.44217,-0.015885,0.63452,-0.06449,0.014444,-0.02,-0.04,-0.09,92.89
11009,5.1822e+07,1,2.04,-1.83,16.68,0.03978,0.087489,-0.43961,-0.017046,0.63452,-0.06449,0.015001,-0.02,-0.04,-0.09,92.89
11049,5.1832e+07,1,2.04,-1.83,16.68,0.039534,0.089122,-0.43938,-0.020441,0.63452,-0.06449,0.015425,-0.02,-0.04,-0.09,92.89
11090,5.1842e+07,1,2.04,-1.83,16.68,0.040029,0.089814,-0.44009,-0.028202,0.63452,-0.06449,0.015554,-0.02,-0.04,-0.09,92.89
11130,5.1852e+07,1,2.04,-1.83,16.69,0.041121,0.090673,-0.43955,-0.03579,0.63452,-0.06449,0.015417,-0.02,-0.04,-0.09,92.89
11172,5.1862e+07,1,2.04,-1.83,16.69,0.041181,0.092009,-0.44266,-0.044055,0.63452,-0.06449,0.010646,-0.02,-0.04,-0.09,92.89
11206,5.1872e+07,1,2.04,-1.83,16.69,0.040325,0.090571,-0.44029,-0.043077,0.63452,-0.06449,0.012215,-0.02,-0.04,-0.09,92.89
11249,5.1882e+07,1,2.04,-1.82,16.69,0.041095,0.089378,-0.43871,-0.035978,0.63452,-0.06449,0.013495,-0.02,-0.04,-0.09,92.89
11290,5.1892e+07,1,2.04,-1.82,16.69,0.04172,0.089762,-0.43652,-0.030778,0.63452,-0.06449,0.0145,-0.02,-0.04,-0.09,92.89
11332,5.1903e+07,1,2.03,-1.82,16.69,0.042044,0.089301,-0.43598,-0.027751,0.63452,-0.06449,0.015273,-0.02,-0.04,-0.09,92.89
11374,5.1913e+07,1,2.04,-1.82,16.69,0.042343,0.089073,-0.43602,-0.029306,0.63452,-0.06449,0.015888,-0.02,-0.04,-0.09,92.89
11418,5.1923e+07,1,2.03,-1.82,16.7,0.041916,0.089376,-0.43703,-0.027048,0.63452,-0.06449,0.011516,-0.02,-0.04,-0.09,92.89
11459,5.1933e+07,1,2.03,-1.82,16.7,0.04293,0.091199,-0.43575,-0.027335,0.63452,-0.06449,0.011822,-0.02,-0.04,-0.09,92.89
11499,5.1943e+07,1,2.03,-1.82,16.7,0.04314,0.09151,-0.43472,-0.038973,0.63452,-0.06449,0.0074137,-0.02,-0.04,-0.09,92.89
11542,5.1953e+07,1,2.03,-1.82,16.7,0.043439,0.091541,-0.43426,-0.050626,0.63452,-0.06449,0.0076943,-0.02,-0.04,-0.09,92.89
11583,5.1963e+07,1,2.02,-1.82,16.71,0.043106,0.090623,-0.43331,-0.060319,0.63452,-0.06449,0.0075147,-0.02,-0.04,-0.09,92.89
11625,5.1976e+07,1,2.02,-1.82,16.71,0.04397,0.090827,-0.43087,-0.074482,0.63452,-0.06449,0.008199,-0.02,-0.04,-0.09,92.89
11665,5.1986e+07,1,2.02,-1.82,16.71,0.044608,0.09039,-0.42995,-0.080457,0.63452,-0.06449,0.0092322,-0.02,-0.04,-0.09,92.89
11707,5.1997e+07,1,2.02,-1.82,16.71,0.044431,0.090157,-0.42779,-0.073613,0.63452,-0.06449,0.0049804,-0.02,-0.04,-0.09,92.89
11748,5.2007e+07,1,2.03,-1.82,16.71,0.044663,0.089562,-0.42515,-0.067291,0.63452,-0.06449,0.0062584,-0.02,-0.04,-0.09,92.89
11789,5.2017e+07,1,2.03,-1.82,16.71,0.04441,0.088662,-0.4246,-0.068511,0.63452,-0.06449,0.0073125,-0.02,-0.04,-0.09,92.89
11834,5.2027e+07,1,2.03,-1.82,16.71,0.044575,0.089672,-0.42463,-0.068262,0.63452,-0.06449,0.0081151,-0.02,-0.04,-0.09,92.89
11875,5.2037e+07,1,2.03,-1.83,16.71,0.044556,0.090451,-0.42392,-0.060813,0.63452,-0.06449,0.0038812,-0.02,-0.04,-0.09,92.89
11916,5.2047e+07,1,2.03,-1.83,16.72,0.045064,0.090359,-0.42061,-0.054741,0.63452,-0.06449,0.0044478,-0.02,-0.04,-0.09,92.89
11956,5.2057e+07,1,2.03,-1.83,16.72,0.045054,0.089766,-0.4192,-0.061914,0.63452,-0.06449,0.00484,-0.02,-0.04,-0.09,92.89
12002,5.2073e+07,1,2.03,-1.83,16.72,0.043964,0.090427,-0.41516,-0.062237,0.63452,-0.06449,0.0048394,-0.02,-0.04,-0.09,92.89
12042,5.2083e+07,1,2.02,-1.83,16.72,0.043996,0.089804,-0.41257,-0.057859,0.63452,-0.06449,0.0070065,-0.02,-0.04,-0.09,92.89
12084,5.2093e+07,1,2.02,-1.83,16.71,0.04343,0.089951,-0.41025,-0.043021,0.63452,-0.06449,0.0084451,-0.02,-0.04,-0.09,92.89
12124,5.2104e+07,1,2.02,-1.83,16.71,0.043752,0.089946,-0.41158,-0.027183,0.63452,-0.06449,0.0043395,-0.02,-0.04,-0.09,92.89
12166,5.2114e+07,1,2.01,-1.83,16.7,0.042645,0.089705,-0.40818,-0.011403,0.63452,-0.06449,0.0059291,-0.02,-0.04,-0.09,92.89
12213,5.2124e+07,1,2.01,-1.82,16.7,0.043465,0.08947,-0.40518,0.0024753,0.63452,-0.06449,0.0073191,-0.02,-0.04,-0.09,92.89
12254,5.2134e+07,1,2.01,-1.83,16.7,0.043656,0.089531,-0.40236,0.0061332,0.63452,-0.06449,0.0084392,-0.02,-0.04,-0.09,92.89
12295,5.2144e+07,1,2.02,-1.83,16.7,0.044277,0.089557,-0.40134,0.013425,0.63452,-0.06449,0.0044437,-0.02,-0.04,-0.09,92.89
12335,5.2154e+07,1,2.02,-1.83,16.7,0.044299,0.089306,-0.40094,0.015511,0.63452,-0.06449,0.0053512,-0.02,-0.04,-0.09,92.89
12376,5.2164e+07,1,2.01,-1.84,16.7,0.044299,0.089144,-0.40056,0.0035895,0.63452,-0.06449,0.0057227,-0.02,-0.04,-0.09,92.89
12413,5.2178e+07,1,2.02,-1.84,16.7,0.043736,0.089473,-0.39768,0.0033998,0.63452,-0.06449,0.0067057,-0.02,-0.04,-0.08,92.89
12456,5.2188e+07,1,2.02,-1.85,16.7,0.044687,0.09046,-0.39745,0.0039136,0.65678,-0.072551,0.0027451,-0.02,-0.04,-0.08,92.89
12498,5.2198e+07,1,2.02,-1.85,16.71,0.044432,0.089923,-0.39564,-0.0029765,0.65678,-0.072551,0.0051006,-0.02,-0.04,-0.08,92.89
12539,5.2208e+07,1,2.02,-1.85,16.71,0.044439,0.090365,-0.39459,-0.005786,0.65678,-0.072551,0.0011775,-0.02,-0.04,-0.08,92.89
12580,5.2219e+07,1,2.03,-1.85,16.71,0.044375,0.089915,-0.39393,-0.006619,0.65678,-0.072551,0.0033129,-0.02,-0.04,-0.08,92.89
12624,5.2229e+07,1,2.02,-1.85,16.7,0.044502,0.089031,-0.3917,-0.0014684,0.65678,-0.072551,0.0047983,-0.02,-0.04,-0.08,92.89
12665,5.2239e+07,1,2.03,-1.85,16.7,0.043546,0.088225,-0.39013,2.3399e-06,0.65678,-0.072551,0.0063678,-0.02,-0.04,-0.08,92.89
12706,5.2249e+07,1,2.03,-1.85,16.7,0.042945,0.089693,-0.38956,0.0091424,0.65678,-0.072551,0.0076716,-0.02,-0.04,-0.08,92.89
12747,5.2259e+07,1,2.02,-1.85,16.7,0.043227,0.09118,-0.39068,0.012815,0.65678,-0.072551,0.0037514,-0.02,-0.04,-0.08,92.89
12784,5.227e+07,1,2.03,-1.85,16.7,0.043714,0.091442,-0.38967,0.014651,0.65678,-0.072551,0.0048088,-0.02,-0.04,-0.08,92.89
12824,5.2279e+07,1,2.03,-1.85,16.7,0.044122,0.090765,-0.38752,0.027582,0.65678,-0.072551,0.0080642,-0.02,-0.04,-0.08,92.89
12865,5.229e+07,1,2.03,-1.86,16.71,0.046439,0.090202,-0.38666,0.041222,0.65678,-0.072551,0.010605,-0.02,-0.04,-0.08,92.89
12906,5.2301e+07,1,2.03,-1.86,16.71,0.04645,0.091106,-0.38639,0.052839,0.65678,-0.072551,0.013371,-0.02,-0.04,-0.08,92.89
12948,5.2311e+07,1,2.03,-1.86,16.71,0.047665,0.091888,-0.38538,0.064096,0.65678,-0.072551,0.015465,-0.02,-0.04,-0.08,92.89
12988,5.2321e+07,1,2.03,-1.86,16.71,0.048348,0.092159,-0.38507,0.078505,0.65678,-0.072551,0.017068,-0.02,-0.04,-0.08,92.89
13033,5.2332e+07,1,2.03,-1.86,16.71,0.048608,0.091879,-0.38518,0.092741,0.65678,-0.072551,0.01315,-0.02,-0.04,-0.08,92.89
13074,5.2342e+07,1,2.03,-1.86,16.71,0.048392,0.090985,-0.38349,0.10139,0.65678,-0.072551,0.014883,-0.02,-0.04,-0.08,92.89
13115,5.2353e+07,1,2.03,-1.86,16.71,0.048301,0.091137,-0.38359,0.10333,0.65678,-0.072551,0.015993,-0.02,-0.04,-0.08,92.89
13159,5.2365e+07,1,2.03,-1.86,16.71,0.049621,0.090762,-0.3827,0.10381,0.65678,-0.072551,0.015997,-0.02,-0.04,-0.09,92.89
13202,5.238e+07,1,2.03,-1.86,16.71,0.049263,0.09246,-0.37989,0.091996,0.65678,-0.072551,0.017494,-0.01,-0.04,-0.08,92.89
13245,5.239e+07,1,2.03,-1.87,16.72,0.049667,0.091911,-0.37754,0.088358,0.69018,-0.080613,0.020916,-0.01,-0.04,-0.08,92.89
13286,5.24e+07,1,2.03,-1.87,16.71,0.049457,0.091511,-0.37786,0.095305,0.69018,-0.080613,0.016766,-0.01,-0.04,-0.08,92.89
13328,5.241e+07,1,2.03,-1.88,16.71,0.050356,0.090872,-0.37565,0.10016,0.69018,-0.080613,0.019524,-0.01,-0.04,-0.08,92.89
13369,5.2421e+07,1,2.03,-1.87,16.71,0.051494,0.089736,-0.37345,0.10664,0.69018,-0.080613,0.021978,-0.01,-0.04,-0.08,92.89
13416,5.2433e+07,1,2.03,-1.88,16.7,0.052523,0.089923,-0.37042,0.10822,0.69018,-0.080613,0.023052,-0.01,-0.04,-0.08,92.89
13457,5.2443e+07,1,2.03,-1.88,16.7,0.052957,0.090844,-0.36928,0.10449,0.69018,-0.080613,0.025002,-0.01,-0.04,-0.08,92.89
13498,5.2454e+07,1,2.03,-1.88,16.71,0.053708,0.091676,-0.36921,0.10647,0.69018,-0.080613,0.021296,-0.01,-0.04,-0.08,92.89
13540,5.2464e+07,1,2.02,-1.87,16.71,0.053735,0.089498,-0.36852,0.1046,0.69018,-0.080613,0.022992,-0.01,-0.04,-0.08,92.89
13581,5.2474e+07,1,2.02,-1.87,16.71,0.054915,0.089442,-0.36751,0.095455,0.69018,-0.080613,0.024381,-0.01,-0.04,-0.08,92.89
13616,5.2484e+07,1,2.03,-1.87,16.72,0.056006,0.089473,-0.36556,0.095844,0.69018,-0.080613,0.027844,-0.01,-0.04,-0.08,92.89
13656,5.2495e+07,1,2.03,-1.87,16.72,0.056032,0.090478,-0.36223,0.1061,0.69018,-0.080613,0.03133,-0.01,-0.04,-0.08,92.89
13698,5.2505e+07,1,2.03,-1.87,16.72,0.05655,0.090451,-0.36215,0.11493,0.69018,-0.080613,0.034456,-0.01,-0.04,-0.08,92.89
13739,5.2515e+07,1,2.03,-1.87,16.72,0.055898,0.089905,-0.36075,0.13155,0.69018,-0.080613,0.036858,-0.02,-0.04,-0.09,92.89
13780,5.2525e+07,1,2.03,-1.87,16.72,0.055099,0.0905,-0.35891,0.14827,0.69018,-0.080613,0.039268,-0.02,-0.04,-0.09,92.89
13824,5.2536e+07,1,2.03,-1.87,16.73,0.054929,0.091864,-0.35886,0.16452,0.69018,-0.080613,0.035671,-0.02,-0.04,-0.09,92.89
13865,5.2546e+07,1,2.02,-1.87,16.72,0.055609,0.091114,-0.35773,0.17268,0.69018,-0.080613,0.037854,-0.02,-0.04,-0.09,92.89
13905,5.2556e+07,1,2.02,-1.87,16.72,0.05423,0.090574,-0.35655,0.17717,0.69018,-0.080613,0.039408,-0.02,-0.04,-0.09,92.89
13944,5.2566e+07,1,2.02,-1.86,16.72,0.055195,0.090061,-0.35579,0.17606,0.69018,-0.080613,0.042858,-0.01,-0.04,-0.09,92.89
13985,5.2577e+07,1,2.02,-1.87,16.72,0.05489,0.090596,-0.35403,0.18075,0.69018,-0.080613,0.045939,-0.01,-0.04,-0.08,92.89
14026,5.2587e+07,1,2.02,-1.87,16.72,0.05509,0.090493,-0.35268,0.18425,0.69018,-0.080613,0.04871,-0.01,-0.04,-0.08,92.89
14069,5.2597e+07,1,2.02,-1.86,16.71,0.055343,0.089893,-0.35076,0.19242,0.70131,-0.088674,0.051135,-0.02,-0.04,-0.08,92.89
14109,5.2607e+07,1,2.02,-1.86,16.71,0.053939,0.090088,-0.34921,0.20123,0.70131,-0.088674,0.052932,-0.02,-0.04,-0.08,92.89
14151,5.2618e+07,1,2.03,-1.87,16.71,0.053942,0.090292,-0.34758,0.20856,0.70131,-0.088674,0.04945,-0.02,-0.04,-0.08,92.89
14192,5.2628e+07,1,2.03,-1.87,16.71,0.054084,0.08957,-0.34655,0.19548,0.70131,-0.088674,0.051443,-0.01,-0.04,-0.08,92.89
14237,5.2638e+07,1,2.03,-1.87,16.71,0.053332,0.089792,-0.34618,0.1828,0.70131,-0.088674,0.047964,-0.01,-0.04,-0.08,92.89
14278,5.2648e+07,1,2.03,-1.87,16.71,0.052522,0.089072,-0.34482,0.16872,0.70131,-0.088674,0.04975,-0.01,-0.04,-0.08,92.89
14319,5.2658e+07,1,2.03,-1.87,16.71,0.052162,0.088697,-0.34218,0.14994,0.70131,-0.088674,0.05129,-0.01,-0.04,-0.08,92.89
14360,5.2668e+07,1,2.03,-1.87,16.7,0.05285,0.089001,-0.33924,0.13786,0.70131,-0.088674,0.052609,-0.01,-0.04,-0.08,92.89
14400,5.2678e+07,1,2.03,-1.87,16.7,0.05232,0.088206,-0.34007,0.12279,0.70131,-0.088674,0.049198,-0.01,-0.04,-0.08,92.89
14441,5.2691e+07,1,2.03,-1.87,16.7,0.051872,0.087533,-0.33674,0.10865,0.70131,-0.088674,0.057007,-0.01,-0.04,-0.08,92.89
14482,5.2702e+07,1,2.02,-1.87,16.71,0.051604,0.087684,-0.33454,0.10991,0.70131,-0.088674,0.059118,-0.01,-0.04,-0.08,92.89
14522,5.2713e+07,1,2.02,-1.87,16.71,0.051613,0.088451,-0.33477,0.1144,0.70131,-0.088674,0.055783,-0.01,-0.04,-0.08,92.89
14565,5.2723e+07,1,2.02,-1.87,16.71,0.051875,0.088587,-0.3341,0.11498,0.70131,-0.088674,0.057936,-0.01,-0.04,-0.08,92.89
14605,5.2733e+07,1,2.02,-1.87,16.7,0.051588,0.089824,-0.33185,0.10926,0.70131,-0.088674,0.059894,-0.01,-0.04,-0.08,92.89
14650,5.2743e+07,1,2.02,-1.87,16.7,0.050896,0.089937,-0.33115,0.10266,0.70131,-0.088674,0.061592,-0.01,-0.04,-0.08,92.89
14690,5.2753e+07,1,2.02,-1.87,16.7,0.050845,0.090273,-0.33043,0.10157,0.70131,-0.088674,0.058284,-0.01,-0.04,-0.08,92.89
14731,5.2763e+07,1,2.02,-1.87,16.71,0.050799,0.090835,-0.32833,0.097656,0.70131,-0.088674,0.059768,-0.01,-0.04,-0.08,92.89
14778,5.2775e+07,1,2.03,-1.87,16.71,0.051276,0.091454,-0.32695,0.084625,0.70131,-0.088674,0.060038,-0.01,-0.04,-0.08,92.89
14819,5.2789e+07,1,2.03,-1.88,16.71,0.051662,0.091261,-0.32639,0.07012,0.71244,-0.096735,0.06278,-0.01,-0.04,-0.09,92.89
14861,5.2799e+07,1,2.03,-1.88,16.71,0.052191,0.092939,-0.32563,0.064252,0.71244,-0.096735,0.06615,-0.01,-0.04,-0.09,92.89
14902,5.2809e+07,1,2.03,-1.87,16.71,0.052381,0.092345,-0.32447,0.07098,0.71244,-0.096735,0.068836,-0.01,-0.04,-0.09,92.89
14943,5.282e+07,1,2.03,-1.87,16.71,0.053855,0.092871,-0.32512,0.082812,0.71244,-0.096735,0.065605,-0.01,-0.04,-0.09,92.89
14986,5.283e+07,1,2.03,-1.87,16.72,0.053802,0.093351,-0.32221,0.094978,0.71244,-0.096735,0.06802,-0.01,-0.04,-0.09,92.89
15033,5.2843e+07,1,2.03,-1.87,16.72,0.054357,0.094731,-0.31982,0.10856,0.71244,-0.096735,0.069523,-0.01,-0.04,-0.09,92.89
15074,5.2854e+07,1,2.03,-1.87,16.72,0.055928,0.094117,-0.31828,0.11614,0.71244,-0.096735,0.071729,-0.01,-0.04,-0.09,92.89
15114,5.2864e+07,1,2.03,-1.87,16.73,0.056717,0.094719,-0.31674,0.11441,0.71244,-0.096735,0.073713,-0.01,-0.04,-0.09,92.89
15155,5.2874e+07,1,2.03,-1.87,16.73,0.056583,0.094256,-0.31523,0.11197,0.71244,-0.096735,0.075421,-0.01,-0.04,-0.09,92.89
15193,5.2884e+07,1,2.03,-1.87,16.73,0.056711,0.094811,-0.3153,0.1124,0.71244,-0.096735,0.072308,-0.01,-0.04,-0.09,92.89
15231,5.2894e+07,1,2.02,-1.87,16.74,0.057029,0.095267,-0.31426,0.11509,0.71244,-0.096735,0.075389,-0.01,-0.04,-0.08,92.89
15272,5.2905e+07,1,2.03,-1.87,16.74,0.056467,0.094409,-0.31345,0.1232,0.71244,-0.096735,0.078498,-0.01,-0.04,-0.08,92.89
15312,5.2915e+07,1,2.03,-1.87,16.74,0.056468,0.0945,-0.3121,0.13195,0.71244,-0.096735,0.081213,-0.01,-0.04,-0.08,92.89
15355,5.2925e+07,1,2.03,-1.87,16.74,0.05694,0.093609,-0.31129,0.13516,0.71244,-0.096735,0.083776,-0.01,-0.04,-0.08,92.89
15397,5.2935e+07,1,2.03,-1.87,16.74,0.055999,0.093925,-0.30886,0.13909,0.71244,-0.096735,0.085982,-0.01,-0.04,-0.08,92.89
15444,5.2945e+07,1,2.03,-1.88,16.74,0.055732,0.093984,-0.30903,0.14448,0.71244,-0.096735,0.082891,-0.01,-0.04,-0.08,92.89
15486,5.2955e+07,1,2.03,-1.88,16.74,0.056219,0.094301,-0.30892,0.1442,0.71244,-0.096735,0.084911,-0.01,-0.04,-0.08,92.89
15526,5.2965e+07,1,2.03,-1.87,16.74,0.056019,0.09473,-0.30672,0.1422,0.71244,-0.096735,0.08666,-0.01,-0.04,-0.08,92.89
15567,5.2975e+07,1,2.03,-1.87,16.74,0.056362,0.094832,-0.30648,0.13696,0.71244,-0.096735,0.087909,-0.01,-0.04,-0.08,92.89
15605,5.2988e+07,1,2.02,-1.88,16.74,0.056359,0.094915,-0.30488,0.13159,0.71244,-0.096735,0.090349,-0.01,-0.04,-0.08,92.89
15645,5.2999e+07,1,2.02,-1.87,16.74,0.056548,0.094207,-0.30323,0.13539,0.71244,-0.096735,0.09308,-0.01,-0.04,-0.08,92.89
15687,5.3009e+07,1,2.02,-1.87,16.75,0.057243,0.093383,-0.30243,0.13672,0.72357,-0.1048,0.090043,-0.01,-0.04,-0.08,92.89
15729,5.302e+07,1,2.02,-1.87,16.75,0.057258,0.093251,-0.29993,0.13337,0.72357,-0.1048,0.092904,-0.01,-0.04,-0.08,92.89
15770,5.303e+07,1,2.02,-1.87,16.75,0.056961,0.094635,-0.29865,0.12892,0.72357,-0.1048,0.095468,-0.01,-0.04,-0.08,92.89
15810,5.304e+07,1,2.02,-1.87,16.75,0.057363,0.09398,-0.29725,0.12599,0.72357,-0.1048,0.097796,-0.01,-0.04,-0.08,92.89
15856,5.305e+07,1,2.02,-1.88,16.75,0.058287,0.094164,-0.29432,0.12934,0.72357,-0.1048,0.099539,-0.01,-0.04,-0.08,92.89
15897,5.3061e+07,1,2.02,-1.88,16.75,0.058753,0.094911,-0.29372,0.1325,0.72357,-0.1048,0.096311,-0.01,-0.04,-0.08,92.89
15938,5.3072e+07,1,2.02,-1.88,16.75,0.058735,0.094654,-0.29213,0.13069,0.72357,-0.1048,0.098156,-0.01,-0.04,-0.08,92.89
15978,5.3082e+07,1,2.02,-1.88,16.75,0.058617,0.094571,-0.29154,0.12657,0.72357,-0.1048,0.099802,-0.01,-0.04,-0.08,92.89
16013,5.3092e+07,1,2.02,-1.88,16.75,0.059173,0.09249,-0.2907,0.12215,0.72357,-0.1048,0.10326,-0.01,-0.04,-0.08,92.89
16054,5.3102e+07,1,2.02,-1.88,16.75,0.059821,0.09278,-0.29088,0.12053,0.72357,-0.1048,0.10036,-0.01,-0.04,-0.08,92.89
16094,5.3113e+07,1,2.02,-1.88,16.74,0.059904,0.092559,-0.28959,0.12199,0.72357,-0.1048,0.1038,-0.01,-0.04,-0.08,92.89
16135,5.3123e+07,1,2.02,-1.88,16.74,0.059891,0.092895,-0.2886,0.1309,0.72357,-0.1048,0.10703,-0.01,-0.04,-0.08,92.89
16175,5.3133e+07,1,2.02,-1.88,16.75,0.060278,0.092786,-0.28656,0.13329,0.72357,-0.1048,0.10993,-0.01,-0.04,-0.08,92.89
16216,5.3143e+07,1,2.02,-1.89,16.74,0.059635,0.092067,-0.28526,0.1369,0.72357,-0.1048,0.10709,-0.01,-0.04,-0.08,92.89
16263,5.3153e+07,1,2.02,-1.89,16.74,0.057746,0.092283,-0.28431,0.13728,0.72357,-0.1048,0.10979,-0.01,-0.04,-0.08,92.89
16305,5.3163e+07,1,2.02,-1.89,16.74,0.057393,0.092181,-0.28218,0.13811,0.72357,-0.1048,0.11194,-0.01,-0.04,-0.08,92.89
16346,5.3173e+07,1,2.02,-1.88,16.74,0.057602,0.092379,-0.28095,0.14117,0.72357,-0.1048,0.11439,-0.01,-0.04,-0.08,92.89
16386,5.3183e+07,1,2.03,-1.89,16.74,0.060086,0.09257,-0.27764,0.13888,0.72357,-0.1048,0.11607,-0.01,-0.04,-0.08,92.89
16429,5.3196e+07,1,2.02,-1.89,16.74,0.061254,0.092557,-0.27486,0.14455,0.7347,-0.11286,0.11903,-0.01,-0.04,-0.08,92.89
16469,5.3206e+07,1,2.02,-1.89,16.74,0.062772,0.09151,-0.27276,0.14745,0.7347,-0.11286,0.12256,-0.01,-0.04,-0.09,92.89
16510,5.3217e+07,1,2.02,-1.89,16.74,0.063443,0.091441,-0.27202,0.15844,0.7347,-0.11286,0.11986,-0.01,-0.04,-0.09,92.89
16552,5.3227e+07,1,2.02,-1.89,16.74,0.063668,0.091629,-0.27011,0.16685,0.7347,-0.11286,0.12312,-0.01,-0.04,-0.09,92.89
16592,5.3237e+07,1,2.02,-1.89,16.74,0.063255,0.092045,-0.26938,0.16188,0.7347,-0.11286,0.12043,-0.01,-0.04,-0.09,92.89
16633,5.3247e+07,1,2.02,-1.89,16.74,0.064162,0.091098,-0.26995,0.15553,0.7347,-0.11286,0.12322,-0.01,-0.04,-0.08,92.89
16678,5.3257e+07,1,2.02,-1.89,16.74,0.064279,0.091988,-0.2701,0.15119,0.7347,-0.11286,0.12605,-0.01,-0.04,-0.08,92.89
16721,5.3267e+07,1,2.03,-1.89,16.74,0.064282,0.091868,-0.26938,0.14922,0.7347,-0.11286,0.12856,-0.01,-0.04,-0.08,92.89
16763,5.3278e+07,1,2.03,-1.89,16.74,0.064335,0.091994,-0.26905,0.14424,0.7347,-0.11286,0.13084,-0.01,-0.04,-0.08,92.89
16803,5.3291e+07,1,2.03,-1.89,16.74,0.063793,0.092096,-0.26668,0.14149,0.7347,-0.11286,0.13182,-0.01,-0.04,-0.08,92.89
16844,5.3301e+07,1,2.03,-1.89,16.75,0.063119,0.093062,-0.26587,0.13978,0.7347,-0.11286,0.12914,-0.01,-0.04,-0.08,92.89
16885,5.3312e+07,1,2.03,-1.89,16.75,0.062704,0.093913,-0.26462,0.14132,0.7347,-0.11286,0.13316,-0.01,-0.04,-0.08,92.89
16925,5.3323e+07,1,2.02,-1.89,16.75,0.06245,0.094856,-0.26304,0.15118,0.7347,-0.11286,0.13658,-0.01,-0.04,-0.09,92.89
16966,5.3333e+07,1,2.02,-1.89,16.75,0.061825,0.094804,-0.26164,0.16155,0.7347,-0.11286,0.13988,-0.01,-0.04,-0.09,92.89
17006,5.3343e+07,1,2.02,-1.89,16.75,0.061831,0.094837,-0.26124,0.1668,0.7347,-0.11286,0.14301,-0.01,-0.04,-0.09,92.89
17055,5.3355e+07,1,2.01,-1.89,16.75,0.062189,0.095505,-0.26153,0.17598,0.7347,-0.11286,0.14502,-0.01,-0.04,-0.09,92.89
17097,5.3365e+07,1,2.02,-1.89,16.75,0.06267,0.094973,-0.26137,0.1765,0.7347,-0.11286,0.14752,-0.01,-0.04,-0.09,92.89
17139,5.3376e+07,1,2.01,-1.89,16.75,0.062591,0.09558,-0.26123,0.18119,0.7347,-0.11286,0.14493,-0.01,-0.04,-0.09,92.89
17180,5.3388e+07,1,2.01,-1.88,16.75,0.061989,0.097104,-0.25837,0.1813,0.7347,-0.11286,0.14645,-0.01,-0.04,-0.09,92.89
17224,5.3401e+07,1,2.01,-1.89,16.75,0.061166,0.096111,-0.25716,0.18695,0.7347,-0.11286,0.15015,-0.01,-0.04,-0.09,92.89
17265,5.3411e+07,1,2.01,-1.89,16.76,0.061307,0.096352,-0.25559,0.19451,0.7347,-0.11286,0.15407,-0.01,-0.04,-0.08,92.89
17306,5.3421e+07,1,2.01,-1.9,16.76,0.061404,0.096925,-0.25292,0.20188,0.7347,-0.11286,0.15763,-0.01,-0.04,-0.08,92.89
17347,5.3432e+07,1,2.01,-1.9,16.76,0.061232,0.095768,-0.25065,0.21518,0.7347,-0.11286,0.16071,-0.01,-0.04,-0.09,92.89
17387,5.3442e+07,1,2.01,-1.9,16.76,0.060811,0.095886,-0.2489,0.22083,0.7347,-0.11286,0.16375,-0.01,-0.04,-0.08,92.89
17428,5.3452e+07,1,2.01,-1.9,16.76,0.061568,0.095717,-0.24832,0.22397,0.7347,-0.11286,0.16126,-0.01,-0.04,-0.08,92.89
17473,5.3462e+07,1,2.01,-1.9,16.76,0.062232,0.095127,-0.2474,0.22294,0.7347,-0.11286,0.16406,-0.01,-0.04,-0.08,92.89
17514,5.3473e+07,1,2.01,-1.9,16.76,0.062434,0.09501,-0.24563,0.22476,0.7347,-0.11286,0.16638,-0.01,-0.04,-0.09,92.89
17555,5.3482e+07,1,2.01,-1.9,16.76,0.061937,0.095134,-0.24513,0.22107,0.7347,-0.11286,0.16869,-0.01,-0.04,-0.09,92.89
17592,5.3493e+07,1,2.01,-1.9,16.76,0.063185,0.094623,-0.24417,0.21815,0.7347,-0.11286,0.17315,-0.01,-0.04,-0.09,92.89
17630,5.3503e+07,1,2.01,-1.91,16.76,0.062478,0.093497,-0.24428,0.21547,0.7347,-0.11286,0.17729,-0.01,-0.04,-0.08,92.89
17671,5.3513e+07,1,2,-1.9,16.76,0.06204,0.092451,-0.24353,0.22283,0.7347,-0.11286,0.18083,-0.01,-0.04,-0.08,92.89
17711,5.3524e+07,1,2,-1.9,16.76,0.063657,0.093667,-0.2426,0.2345,0.7347,-0.11286,0.1784,-0.01,-0.04,-0.08,92.89
17751,5.3534e+07,1,2,-1.9,16.76,0.063304,0.094017,-0.24075,0.24209,0.7347,-0.11286,0.18171,-0.01,-0.04,-0.08,92.89
17791,5.3544e+07,1,2,-1.9,16.76,0.063489,0.093314,-0.24019,0.24414,0.7347,-0.11286,0.18496,-0.01,-0.04,-0.08,92.89
17832,5.3554e+07,1,2,-1.9,16.76,0.063057,0.093051,-0.2378,0.23845,0.7347,-0.11286,0.188,-0.01,-0.04,-0.08,92.89
17877,5.3564e+07,1,2,-1.9,16.76,0.06411,0.093962,-0.23763,0.23717,0.7347,-0.11286,0.18563,-0.01,-0.04,-0.08,92.89
17918,5.3574e+07,1,1.99,-1.91,16.77,0.064082,0.095602,-0.2359,0.23509,0.7347,-0.11286,0.18836,-0.01,-0.04,-0.08,92.89
17962,5.3585e+07,1,1.99,-1.91,16.77,0.063775,0.095852,-0.23481,0.23303,0.74584,-0.11286,0.19093,-0.01,-0.04,-0.08,92.89
18002,5.3595e+07,1,1.99,-1.91,16.77,0.062658,0.096608,-0.23269,0.22957,0.74584,-0.11286,0.19322,-0.01,-0.04,-0.08,92.89
18040,5.3607e+07,1,1.99,-1.91,16.77,0.062878,0.094972,-0.23195,0.21719,0.74584,-0.11286,0.19646,-0.01,-0.04,-0.08,92.89
18081,5.3617e+07,1,1.99,-1.92,16.77,0.062287,0.095902,-0.23098,0.20901,0.74584,-0.11286,0.20014,-0.01,-0.04,-0.08,92.89
18121,5.3628e+07,1,1.99,-1.92,16.77,0.063046,0.09509,-0.22841,0.21161,0.74584,-0.11286,0.2035,-0.01,-0.04,-0.08,92.89
18162,5.3638e+07,1,1.99,-1.92,16.78,0.063701,0.094879,-0.22775,0.2182,0.74584,-0.11286,0.201,-0.01,-0.04,-0.08,92.89
18203,5.3649e+07,1,2,-1.91,16.78,0.063955,0.094842,-0.22651,0.21894,0.74584,-0.11286,0.20411,-0.01,-0.04,-0.08,92.89
18248,5.3659e+07,1,2,-1.91,16.78,0.063581,0.094805,-0.2282,0.20906,0.74584,-0.11286,0.20703,-0.01,-0.04,-0.08,92.89
18289,5.3669e+07,1,2,-1.91,16.77,0.063832,0.094022,-0.22818,0.20143,0.74584,-0.11286,0.20452,-0.01,-0.04,-0.08,92.89
18331,5.3679e+07,1,2,-1.91,16.78,0.063045,0.094518,-0.22831,0.17646,0.74584,-0.11286,0.20729,-0.01,-0.04,-0.08,92.89
18372,5.369e+07,1,1.99,-1.91,16.78,0.062913,0.095466,-0.22942,0.16245,0.74584,-0.11286,0.20498,-0.01,-0.04,-0.08,92.89
18412,5.3703e+07,1,2,-1.91,16.78,0.061244,0.095725,-0.22797,0.14429,0.74584,-0.11286,0.20686,-0.01,-0.04,-0.08,92.89
18453,5.3713e+07,1,2,-1.91,16.78,0.061469,0.094443,-0.22589,0.13835,0.74584,-0.11286,0.20915,-0.01,-0.04,-0.08,92.89
18490,5.3723e+07,1,2,-1.91,16.78,0.061231,0.093918,-0.22412,0.13815,0.74584,-0.11286,0.2136,-0.01,-0.04,-0.08,92.89
18531,5.3733e+07,1,2,-1.91,16.78,0.061529,0.092797,-0.22063,0.14306,0.74584,-0.11286,0.21774,-0.01,-0.04,-0.08,92.89
18572,5.3744e+07,1,2,-1.91,16.78,0.062067,0.094025,-0.22173,0.14861,0.74584,-0.11286,0.21532,-0.01,-0.04,-0.08,92.89
18613,5.3753e+07,1,2,-1.91,16.78,0.062558,0.094621,-0.21965,0.14522,0.74584,-0.11286,0.21928,-0.01,-0.04,-0.08,92.89
18660,5.3763e+07,1,2,-1.92,16.78,0.063224,0.094715,-0.21874,0.1432,0.74584,-0.11286,0.22295,-0.01,-0.04,-0.08,92.89
18700,5.3774e+07,1,2,-1.92,16.78,0.06365,0.095139,-0.21973,0.14997,0.74584,-0.11286,0.22074,-0.01,-0.04,-0.08,92.89
18743,5.3784e+07,1,2,-1.92,16.79,0.063023,0.094378,-0.2189,0.15645,0.74584,-0.11286,0.22408,-0.01,-0.04,-0.08,92.89
18781,5.3795e+07,1,2,-1.92,16.79,0.063567,0.094669,-0.21928,0.16486,0.7681,-0.12092,0.22698,-0.01,-0.04,-0.08,92.89
18825,5.3807e+07,1,2,-1.92,16.78,0.063848,0.093627,-0.21806,0.17412,0.7681,-0.12092,0.22915,-0.01,-0.04,-0.08,92.89
18863,5.3817e+07,1,2,-1.92,16.78,0.063682,0.092832,-0.21628,0.18615,0.7681,-0.12092,0.23391,-0.01,-0.04,-0.08,92.89
18904,5.3827e+07,1,2,-1.92,16.78,0.063464,0.093175,-0.21565,0.19668,0.7681,-0.12092,0.23831,-0.01,-0.04,-0.08,92.89
18945,5.3837e+07,1,2,-1.91,16.78,0.063127,0.092028,-0.21412,0.21154,0.7681,-0.12092,0.24239,-0.01,-0.04,-0.08,92.89
18985,5.3847e+07,1,1.99,-1.91,16.78,0.063797,0.093195,-0.21364,0.2239,0.7681,-0.12092,0.24615,-0.01,-0.04,-0.08,92.89
19026,5.3858e+07,1,2,-1.91,16.79,0.063874,0.094025,-0.21424,0.23871,0.7681,-0.12092,0.24937,-0.01,-0.04,-0.08,92.89
19072,5.3868e+07,1,2,-1.91,16.79,0.063496,0.0947,-0.21376,0.25354,0.7681,-0.12092,0.24723,-0.01,-0.04,-0.08,92.89
19112,5.3878e+07,1,2,-1.91,16.79,0.064199,0.094174,-0.21306,0.26112,0.7681,-0.12092,0.2504,-0.01,-0.04,-0.08,92.89
19153,5.3888e+07,1,2,-1.91,16.79,0.064309,0.094145,-0.21112,0.26139,0.7681,-0.12092,0.25335,-0.01,-0.04,-0.08,92.89
19197,5.3901e+07,1,1.99,-1.92,16.79,0.063684,0.094161,-0.21033,0.26016,0.7681,-0.12092,0.25745,-0.01,-0.04,-0.08,92.89
19235,5.3911e+07,1,2,-1.92,16.79,0.064997,0.092827,-0.20844,0.25964,0.7681,-0.12092,0.2619,-0.01,-0.04,-0.08,92.89
19276,5.3922e+07,1,2,-1.92,16.79,0.065701,0.093305,-0.20897,0.26699,0.7681,-0.12092,0.25979,-0.01,-0.04,-0.08,92.89
19317,5.3932e+07,1,2,-1.92,16.79,0.065276,0.093304,-0.20889,0.27141,0.7681,-0.12092,0.26392,-0.01,-0.04,-0.08,92.89
19359,5.3942e+07,1,2,-1.92,16.79,0.065757,0.092189,-0.2072,0.28214,0.7681,-0.12092,0.26752,-0.01,-0.04,-0.08,92.89
19400,5.3953e+07,1,2,-1.92,16.79,0.066627,0.091599,-0.20578,0.2817,0.7681,-0.12092,0.27108,-0.01,-0.04,-0.08,92.89
19442,5.3963e+07,1,1.99,-1.91,16.79,0.067039,0.090885,-0.20407,0.27807,0.7681,-0.12092,0.27436,-0.01,-0.04,-0.08,92.89
19486,5.3973e+07,1,1.99,-1.92,16.79,0.067691,0.090832,-0.20294,0.27923,0.7681,-0.12092,0.27232,-0.01,-0.04,-0.08,92.89
19527,5.3983e+07,1,1.99,-1.91,16.8,0.067085,0.090969,-0.2024,0.27474,0.7681,-0.12092,0.27534,-0.01,-0.04,-0.08,92.89
19572,5.3993e+07,1,1.99,-1.91,16.8,0.067207,0.091362,-0.2034,0.26109,0.77923,-0.12092,0.27815,-0.01,-0.04,-0.08,92.89
19612,5.4003e+07,1,1.99,-1.91,16.8,0.067712,0.09288,-0.20341,0.24964,0.77923,-0.12092,0.27616,-0.01,-0.04,-0.08,92.89
19651,5.4013e+07,1,1.99,-1.92,16.8,0.06801,0.093185,-0.20351,0.23601,0.77923,-0.12092,0.27874,-0.01,-0.04,-0.08,92.89
19691,5.4026e+07,1,1.99,-1.92,16.81,0.066421,0.092993,-0.20198,0.21431,0.77923,-0.12092,0.28218,-0.01,-0.04,-0.08,92.89
19733,5.4035e+07,1,1.99,-1.92,16.81,0.066629,0.092107,-0.19873,0.20371,0.77923,-0.12092,0.28593,-0.01,-0.04,-0.08,92.89
19774,5.4046e+07,1,1.98,-1.92,16.8,0.067656,0.092161,-0.19852,0.20202,0.77923,-0.12092,0.28393,-0.01,-0.04,-0.08,92.89
19814,5.4056e+07,1,1.98,-1.91,16.8,0.067911,0.092073,-0.19781,0.19337,0.77923,-0.12092,0.28725,-0.01,-0.04,-0.08,92.89
19859,5.4066e+07,1,1.98,-1.91,16.8,0.068732,0.093221,-0.19534,0.18341,0.77923,-0.12092,0.29054,-0.01,-0.04,-0.08,92.89
19902,5.4079e+07,1,1.98,-1.91,16.81,0.06874,0.09304,-0.19268,0.17886,0.77923,-0.12092,0.29299,-0.01,-0.04,-0.08,92.89
19944,5.409e+07,1,1.98,-1.91,16.81,0.068935,0.092292,-0.19099,0.18004,0.77923,-0.12092,0.29108,-0.01,-0.04,-0.08,92.89
19984,5.4101e+07,1,1.98,-1.91,16.81,0.068847,0.090248,-0.19098,0.17503,0.77923,-0.12092,0.2937,-0.01,-0.04,-0.08,92.89
20024,5.4111e+07,1,1.98,-1.92,16.81,0.069317,0.091294,-0.18855,0.17212,0.77923,-0.12092,0.29613,-0.01,-0.04,-0.08,92.89
20065,5.4121e+07,1,1.98,-1.92,16.81,0.069364,0.090692,-0.1879,0.17065,0.77923,-0.12092,0.30059,-0.01,-0.04,-0.08,92.89
20108,5.4133e+07,1,1.97,-1.92,16.81,0.070278,0.090094,-0.18652,0.17621,0.77923,-0.12092,0.30433,-0.01,-0.04,-0.08,92.89
20150,5.4144e+07,1,1.97,-1.92,16.81,0.07099,0.090263,-0.18488,0.18277,0.77923,-0.12092,0.30818,-0.01,-0.04,-0.08,92.89
20191,5.4154e+07,1,1.98,-1.92,16.81,0.07164,0.091124,-0.18368,0.19673,0.77923,-0.12092,0.30616,-0.01,-0.04,-0.08,92.89
20232,5.4165e+07,1,1.98,-1.92,16.81,0.071472,0.091837,-0.18185,0.20508,0.77923,-0.12092,0.30976,-0.01,-0.04,-0.08,92.89
20281,5.4175e+07,1,1.98,-1.93,16.82,0.071653,0.090718,-0.18097,0.21158,0.77923,-0.12092,0.31311,-0.01,-0.04,-0.08,92.89
20321,5.4185e+07,1,1.98,-1.93,16.82,0.072337,0.090815,-0.17944,0.21033,0.79036,-0.12898,0.31619,-0.01,-0.04,-0.08,92.89
20362,5.4195e+07,1,1.98,-1.93,16.82,0.072167,0.091434,-0.18064,0.2115,0.79036,-0.12898,0.31422,-0.01,-0.04,-0.08,92.89
20402,5.4205e+07,1,1.98,-1.93,16.81,0.072989,0.090661,-0.17968,0.21189,0.79036,-0.12898,0.31706,-0.01,-0.04,-0.08,92.89
20444,5.4216e+07,1,1.98,-1.93,16.81,0.07204,0.090548,-0.17782,0.21709,0.79036,-0.12898,0.32092,-0.01,-0.04,-0.08,92.89
20482,5.4226e+07,1,1.98,-1.93,16.81,0.071883,0.090699,-0.17679,0.22229,0.79036,-0.12898,0.32447,-0.01,-0.04,-0.08,92.89
20522,5.4236e+07,1,1.98,-1.94,16.81,0.071687,0.091743,-0.17463,0.2252,0.79036,-0.12898,0.32777,-0.01,-0.04,-0.08,92.89
20564,5.4246e+07,1,1.98,-1.94,16.81,0.072173,0.091918,-0.17417,0.2258,0.79036,-0.12898,0.33078,-0.01,-0.04,-0.08,92.89
20606,5.4259e+07,1,1.98,-1.94,16.82,0.071471,0.091916,-0.17212,0.22854,0.79036,-0.12898,0.33308,-0.01,-0.04,-0.08,92.89
20647,5.4269e+07,1,1.98,-1.94,16.82,0.070829,0.091585,-0.17155,0.2301,0.79036,-0.12898,0.33134,-0.01,-0.04,-0.08,92.89
20692,5.4279e+07,1,1.98,-1.94,16.82,0.070699,0.091315,-0.17008,0.22259,0.79036,-0.12898,0.33382,-0.01,-0.04,-0.08,92.89
20733,5.4289e+07,1,1.98,-1.94,16.82,0.072262,0.090948,-0.16859,0.21587,0.79036,-0.12898,0.33622,-0.01,-0.04,-0.08,92.89
20774,5.4299e+07,1,1.98,-1.94,16.82,0.072844,0.091587,-0.16828,0.20618,0.79036,-0.12898,0.33456,-0.01,-0.04,-0.08,92.89
20814,5.4309e+07,1,1.98,-1.93,16.82,0.072084,0.091902,-0.16644,0.19634,0.79036,-0.12898,0.33682,-0.01,-0.04,-0.08,92.89
20852,5.4323e+07,1,1.98,-1.93,16.83,0.071583,0.091524,-0.16559,0.18934,0.79036,-0.12898,0.34024,-0.01,-0.04,-0.08,92.89
20892,5.4333e+07,1,1.98,-1.93,16.83,0.071715,0.090537,-0.16471,0.19254,0.79036,-0.12898,0.34393,-0.01,-0.04,-0.08,92.89
20933,5.4343e+07,1,1.98,-1.93,16.83,0.071913,0.089968,-0.16439,0.1964,0.79036,-0.12898,0.34732,-0.01,-0.04,-0.08,92.89
20976,5.4353e+07,1,1.98,-1.93,16.83,0.072693,0.089348,-0.16405,0.20215,0.79036,-0.12898,0.3504,-0.01,-0.04,-0.08,92.89
21016,5.4363e+07,1,1.98,-1.93,16.83,0.073365,0.089952,-0.16369,0.20095,0.79036,-0.12898,0.35313,-0.01,-0.04,-0.08,92.89
21061,5.4374e+07,1,1.98,-1.94,16.84,0.073541,0.08962,-0.16367,0.20227,0.79036,-0.12898,0.35573,-0.01,-0.04,-0.08,92.89
21103,5.4384e+07,1,1.98,-1.93,16.84,0.07306,0.090018,-0.16233,0.20611,0.79036,-0.12898,0.35794,-0.01,-0.04,-0.08,92.89
21144,5.4395e+07,1,1.99,-1.94,16.83,0.073133,0.090384,-0.16154,0.20938,0.79036,-0.13704,0.35632,-0.01,-0.04,-0.08,92.89
21186,5.4405e+07,1,1.99,-1.94,16.83,0.073025,0.090409,-0.16022,0.20774,0.79036,-0.13704,0.35852,-0.01,-0.04,-0.08,92.89
21226,5.4421e+07,1,1.99,-1.94,16.83,0.072676,0.089675,-0.15779,0.19617,0.79036,-0.13704,0.36177,-0.01,-0.04,-0.08,92.89
21270,5.4433e+07,1,1.99,-1.94,16.84,0.0736,0.089097,-0.15748,0.18131,0.79036,-0.13704,0.3653,-0.01,-0.04,-0.08,92.89
21311,5.4444e+07,1,1.99,-1.94,16.84,0.074075,0.088902,-0.15592,0.1826,0.79036,-0.13704,0.36373,-0.01,-0.04,-0.08,92.89
21352,5.4454e+07,1,1.99,-1.94,16.84,0.074631,0.087344,-0.15438,0.18463,0.79036,-0.13704,0.36749,-0.01,-0.04,-0.08,92.89
21394,5.4464e+07,1,1.99,-1.95,16.84,0.074978,0.086618,-0.15157,0.18359,0.79036,-0.13704,0.371,-0.01,-0.04,-0.08,92.89
21434,5.4474e+07,1,1.99,-1.94,16.84,0.075609,0.085134,-0.14992,0.18882,0.79036,-0.13704,0.37424,-0.01,-0.04,-0.08,92.89
21479,5.4484e+07,1,1.99,-1.94,16.83,0.075807,0.085121,-0.14845,0.19353,0.79036,-0.13704,0.37722,-0.01,-0.04,-0.08,92.89
21520,5.4494e+07,1,1.99,-1.94,16.83,0.07564,0.085493,-0.14797,0.20097,0.79036,-0.13704,0.37561,-0.01,-0.04,-0.08,92.89
21560,5.4504e+07,1,1.99,-1.94,16.83,0.074408,0.084753,-0.14516,0.20648,0.79036,-0.13704,0.3784,-0.01,-0.04,-0.08,92.89
21601,5.4518e+07,1,1.99,-1.94,16.83,0.07422,0.083746,-0.14309,0.21016,0.79036,-0.13704,0.38053,-0.01,-0.04,-0.08,92.89
21639,5.4528e+07,1,1.99,-1.94,16.83,0.074766,0.083316,-0.14197,0.21552,0.79036,-0.13704,0.38473,-0.01,-0.04,-0.08,92.89
21680,5.4539e+07,1,1.99,-1.94,16.84,0.074484,0.081154,-0.13913,0.22334,0.79036,-0.13704,0.38879,-0.01,-0.04,-0.08,92.89
21721,5.4549e+07,1,1.99,-1.95,16.83,0.074305,0.080072,-0.13781,0.22808,0.79036,-0.13704,0.3926,-0.01,-0.04,-0.08,92.89
21762,5.4559e+07,1,1.99,-1.95,16.84,0.075106,0.079809,-0.13815,0.23283,0.79036,-0.13704,0.39121,-0.01,-0.04,-0.08,92.89
21803,5.4569e+07,1,1.99,-1.95,16.83,0.075523,0.080546,-0.13589,0.2375,0.79036,-0.13704,0.39481,-0.01,-0.04,-0.08,92.89
21850,5.4581e+07,1,1.99,-1.95,16.83,0.076733,0.080897,-0.13436,0.23655,0.79036,-0.13704,0.39777,-0.01,-0.04,-0.08,92.89
21893,5.4591e+07,1,1.99,-1.95,16.83,0.075839,0.08144,-0.13397,0.23874,0.79036,-0.1451,0.40087,-0.01,-0.04,-0.08,92.89
21935,5.4601e+07,1,1.99,-1.95,16.83,0.075263,0.081643,-0.13222,0.23571,0.79036,-0.1451,0.39952,-0.01,-0.04,-0.08,92.89
21975,5.4612e+07,1,1.99,-1.95,16.83,0.075709,0.080989,-0.13134,0.23052,0.79036,-0.1451,0.40249,-0.01,-0.04,-0.08,92.89
