LineNo,TimeUS,C,Roll,Pitch,Yaw,VN,VE,VD,dPD,PN,PE,PD,GX,GY,GZ,OH
302,4.9079e+07,0,1.66,-1.56,16.42,0.0047599,0.016807,-0.083297,-0.075657,0.5232,0.0080613,0.76012,-0.04,-0.04,-0.13,92.91
529,4.9125e+07,0,1.66,-1.56,16.42,0.0051578,0.016423,-0.082912,-0.060595,0.5232,0.0080613,0.75684,-0.04,-0.04,-0.12,92.91
870,4.9187e+07,0,1.66,-1.56,16.43,0.0055223,0.016749,-0.08348,-0.053134,0.5232,0,0.75282,-0.04,-0.04,-0.12,92.91
990,4.9216e+07,0,1.66,-1.56,16.43,0.0055944,0.017065,-0.083029,-0.053059,0.5232,0,0.75105,-0.04,-0.04,-0.12,92.91
1207,4.9327e+07,0,1.66,-1.56,16.43,0.0055714,0.016597,-0.33673,-0.28215,0.5232,0,0.73384,-0.03,-0.04,-0.12,92.91
1400,4.9424e+07,0,1.66,-1.56,16.44,0.0051826,0.017003,-0.59014,-0.51683,0.53433,0,0.69621,-0.03,-0.04,-0.11,92.91
1620,4.945e+07,0,1.66,-1.56,16.44,0.0054352,0.016961,-0.59,-0.52632,0.53433,0,0.68127,-0.03,-0.04,-0.11,92.91
1661,4.946e+07,0,1.66,-1.56,16.44,0.0054231,0.016773,-0.58984,-0.52932,0.53433,0,0.67605,-0.03,-0.04,-0.11,92.91
1684,4.948e+07,0,1.66,-1.57,16.44,0.0055299,0.016645,-0.58967,-0.53367,0.53433,0,0.66553,-0.03,-0.04,-0.11,92.91
1728,4.9491e+07,0,1.66,-1.57,16.44,0.0055065,0.016689,-0.58934,-0.53465,0.53433,0,0.65957,-0.03,-0.04,-0.11,92.91
1769,4.9502e+07,0,1.66,-1.57,16.44,0.0054517,0.016731,-0.58921,-0.5352,0.53433,0,0.65368,-0.03,-0.04,-0.11,92.91
1810,4.9512e+07,0,1.65,-1.57,16.44,0.0053967,0.016795,-0.58887,-0.53595,0.53433,0,0.64829,-0.03,-0.04,-0.11,92.91
1851,4.9522e+07,0,1.65,-1.57,16.44,0.0053171,0.016801,-0.58882,-0.53703,0.53433,0,0.64287,-0.03,-0.04,-0.11,92.91
1892,4.9532e+07,0,1.65,-1.57,16.44,0.0052459,0.016892,-0.5888,-0.53864,0.53433,0,0.63671,-0.03,-0.04,-0.11,92.91
1933,4.9542e+07,0,1.66,-1.57,16.43,0.0052093,0.016996,-0.5886,-0.54034,0.53433,0,0.63171,-0.03,-0.04,-0.11,92.91
1973,4.9552e+07,0,1.66,-1.57,16.43,0.0050736,0.017053,-0.58859,-0.54263,0.53433,0,0.62552,-0.03,-0.04,-0.11,92.91
2014,4.9562e+07,0,1.66,-1.57,16.43,0.005157,0.017061,-0.58857,-0.54469,0.53433,0,0.61964,-0.03,-0.04,-0.11,92.91
2056,4.9572e+07,0,1.66,-1.57,16.43,0.0050935,0.017068,-0.58862,-0.54708,0.53433,0,0.61403,-0.03,-0.04,-0.11,92.91
2098,4.9582e+07,0,1.66,-1.57,16.43,0.0052634,0.017083,-0.58872,-0.54972,0.53433,0,0.6084,-0.03,-0.04,-0.11,92.91
2143,4.9592e+07,0,1.66,-1.57,16.42,0.0053691,0.01695,-0.58847,-0.55201,0.53433,0,0.60277,-0.03,-0.04,-0.11,92.91
2183,4.9603e+07,0,1.66,-1.57,16.42,0.0055226,0.016845,-0.58837,-0.55433,0.53433,0,0.59712,-0.03,-0.04,-0.11,92.91
2225,4.9613e+07,0,1.66,-1.57,16.42,0.0056127,0.016718,-0.5884,-0.55676,0.53433,0,0.59146,-0.03,-0.04,-0.11,92.91
2265,4.9626e+07,0,1.66,-1.57,16.42,0.0056185,0.016723,-0.58841,-0.55897,0.53433,0,0.58399,-0.03,-0.04,-0.11,92.91
2306,4.9636e+07,0,1.66,-1.57,16.42,0.0057924,0.016735,-0.58827,-0.55906,0.53433,0,0.57942,-0.03,-0.04,-0.11,92.91
2348,4.9646e+07,0,1.66,-1.56,16.41,0.0058221,0.016602,-0.58815,-0.55723,0.53433,0,0.57365,-0.03,-0.04,-0.11,92.91
2388,4.9657e+07,0,1.65,-1.56,16.41,0.0057928,0.016733,-0.5881,-0.55454,0.53433,0,0.56777,-0.03,-0.04,-0.11,92.91
2429,4.9667e+07,0,1.65,-1.56,16.41,0.0058165,0.0168,-0.58804,-0.55217,0.53433,0,0.56256,-0.03,-0.04,-0.11,92.91
2469,4.9677e+07,0,1.65,-1.56,16.4,0.0059655,0.016868,-0.58783,-0.54968,0.53433,0,0.55672,-0.03,-0.04,-0.11,92.91
2515,4.9687e+07,0,1.65,-1.57,16.4,0.006086,0.017042,-0.58785,-0.54777,0.53433,0,0.55145,-0.03,-0.04,-0.11,92.91
2556,4.9697e+07,0,1.65,-1.57,16.39,0.0062204,0.017015,-0.58773,-0.54629,0.53433,0,0.54614,-0.03,-0.04,-0.11,92.91
2596,4.9708e+07,0,1.66,-1.57,16.39,0.0063246,0.017059,-0.58783,-0.54459,0.53433,0,0.54027,-0.03,-0.04,-0.11,92.91
2638,4.9717e+07,0,1.66,-1.57,16.39,0.0063725,0.017022,-0.58771,-0.54336,0.53433,0,0.53495,-0.03,-0.04,-0.11,92.91
2678,4.9728e+07,0,1.66,-1.57,16.39,0.0064207,0.016847,-0.58753,-0.54146,0.53433,0,0.5295,-0.03,-0.04,-0.11,92.91
2716,4.9738e+07,0,1.66,-1.57,16.38,0.0064484,0.016555,-0.5872,-0.53852,0.53433,0,0.5246,-0.03,-0.04,-0.11,92.91
2756,4.9748e+07,0,1.66,-1.57,16.38,0.0065475,0.016476,-0.58703,-0.53556,0.53433,0,0.51873,-0.03,-0.04,-0.11,92.91
2797,4.9758e+07,0,1.66,-1.57,16.37,0.0065838,0.016219,-0.58672,-0.53225,0.53433,0,0.51379,-0.03,-0.04,-0.11,92.91
2839,4.9768e+07,0,1.66,-1.57,16.37,0.0065868,0.015945,-0.58648,-0.52933,0.53433,0,0.50882,-0.03,-0.04,-0.11,92.91
2879,4.9778e+07,0,1.66,-1.57,16.37,0.0063895,0.015822,-0.58616,-0.52643,0.53433,0,0.5038,-0.03,-0.04,-0.11,92.91
2926,4.9788e+07,0,1.66,-1.57,16.36,0.0065352,0.015768,-0.58597,-0.52438,0.53433,-0.0080613,0.49875,-0.03,-0.04,-0.11,92.91
2967,4.9799e+07,0,1.66,-1.57,16.36,0.0064213,0.01595,-0.5863,-0.5222,0.53433,-0.0080613,0.49289,-0.03,-0.04,-0.11,92.91
3013,4.9809e+07,0,1.65,-1.57,16.36,0.0063773,0.016016,-0.58637,-0.52071,0.53433,-0.0080613,0.4878,-0.03,-0.04,-0.11,92.91
3054,4.9819e+07,0,1.65,-1.57,16.35,0.0064614,0.016228,-0.58637,-0.51957,0.53433,-0.0080613,0.48268,-0.03,-0.04,-0.11,92.91
3095,4.9829e+07,0,1.65,-1.57,16.35,0.0064043,0.016243,-0.58595,-0.5181,0.53433,-0.0080613,0.47847,-0.03,-0.04,-0.11,92.91
3132,4.9839e+07,0,1.65,-1.57,16.35,0.0063865,0.016388,-0.58555,-0.51402,0.53433,-0.0080613,0.47362,-0.03,-0.04,-0.11,92.91
3173,4.985e+07,0,1.65,-1.57,16.34,0.0064719,0.016574,-0.58532,-0.50738,0.53433,-0.0080613,0.46869,-0.03,-0.04,-0.11,92.91
3215,4.986e+07,0,1.65,-1.57,16.34,0.0066088,0.016738,-0.58538,-0.49993,0.53433,-0.0080613,0.46284,-0.03,-0.04,-0.11,92.91
3256,4.987e+07,0,1.65,-1.57,16.34,0.0066439,0.016607,-0.58513,-0.49282,0.53433,-0.0080613,0.45843,-0.03,-0.04,-0.11,92.91
3297,4.988e+07,0,1.65,-1.57,16.34,0.0066922,0.016571,-0.58479,-0.4869,0.53433,-0.0080613,0.45396,-0.03,-0.04,-0.11,92.91
3345,4.989e+07,0,1.66,-1.57,16.33,0.0068257,0.016536,-0.58452,-0.48365,0.53433,-0.0080613,0.44943,-0.03,-0.04,-0.11,92.91
3385,4.9901e+07,0,1.66,-1.57,16.33,0.0070288,0.016274,-0.58424,-0.4793,0.53433,-0.0080613,0.44426,-0.03,-0.04,-0.11,92.91
3426,4.9911e+07,0,1.66,-1.57,16.33,0.0072453,0.016327,-0.58444,-0.4755,0.53433,-0.0080613,0.43842,-0.03,-0.04,-0.11,92.91
3466,4.9921e+07,0,1.66,-1.57,16.33,0.0073273,0.016395,-0.5844,-0.47314,0.53433,-0.0080613,0.43378,-0.03,-0.04,-0.11,92.91
3507,4.9931e+07,0,1.66,-1.57,16.33,0.0073015,0.01638,-0.58397,-0.46904,0.53433,-0.0080613,0.43012,-0.03,-0.04,-0.11,92.91
3549,4.9941e+07,0,1.66,-1.57,16.33,0.007346,0.016401,-0.58327,-0.46385,0.53433,-0.0080613,0.42637,-0.03,-0.04,-0.11,92.91
3589,4.9951e+07,0,1.65,-1.57,16.33,0.0074192,0.016505,-0.58275,-0.45782,0.53433,-0.0080613,0.42253,-0.03,-0.04,-0.11,92.91
3630,4.9962e+07,0,1.65,-1.57,16.33,0.0075282,0.016645,-0.58262,-0.44969,0.53433,-0.0080613,0.41671,-0.03,-0.04,-0.11,92.91
3671,4.9972e+07,0,1.65,-1.57,16.33,0.0074895,0.016557,-0.58243,-0.44319,0.53433,-0.0080613,0.41279,-0.03,-0.04,-0.11,92.91
3713,4.9982e+07,0,1.65,-1.57,16.33,0.0076051,0.016443,-0.58186,-0.43698,0.53433,-0.0080613,0.40878,-0.03,-0.04,-0.11,92.91
3760,4.9992e+07,0,1.65,-1.57,16.33,0.0075504,0.016506,-0.58144,-0.43275,0.54546,-0.0080613,0.4047,-0.03,-0.04,-0.11,92.91
3800,5.0002e+07,0,1.65,-1.57,16.33,0.0075733,0.016563,-0.58117,-0.42795,0.54546,-0.0080613,0.39996,-0.03,-0.04,-0.11,92.91
3841,5.0013e+07,0,1.65,-1.57,16.33,0.0075683,0.016622,-0.5812,-0.4253,0.54546,-0.0080613,0.39415,-0.03,-0.04,-0.11,92.91
3881,5.0022e+07,0,1.65,-1.57,16.33,0.0075938,0.016553,-0.58062,-0.42392,0.54546,-0.0080613,0.38993,-0.03,-0.04,-0.11,92.91
3922,5.0032e+07,0,1.65,-1.57,16.33,0.0076631,0.016528,-0.58022,-0.42348,0.54546,-0.0080613,0.38564,-0.03,-0.04,-0.11,92.91
3962,5.0045e+07,0,1.65,-1.57,16.33,0.0076943,0.016435,-0.57971,-0.42207,0.54546,-0.0080613,0.38062,-0.03,-0.04,-0.11,92.91
4003,5.0055e+07,0,1.65,-1.57,16.33,0.0075998,0.016386,-0.57903,-0.41831,0.54546,-0.0080613,0.37724,-0.03,-0.04,-0.11,92.91
4044,5.0066e+07,0,1.65,-1.57,16.33,0.0075609,0.016371,-0.57826,-0.41476,0.54546,-0.0080613,0.37318,-0.03,-0.04,-0.11,92.91
4085,5.0076e+07,0,1.65,-1.57,16.33,0.0076729,0.016454,-0.57809,-0.40923,0.54546,-0.0080613,0.3674,-0.03,-0.04,-0.11,92.91
4127,5.0086e+07,0,1.65,-1.57,16.33,0.0079096,0.016294,-0.57771,-0.40499,0.54546,-0.0080613,0.36382,-0.03,-0.04,-0.11,92.91
4173,5.0096e+07,0,1.65,-1.57,16.33,0.0078471,0.016183,-0.57712,-0.40088,0.54546,-0.0080613,0.36015,-0.03,-0.04,-0.11,92.91
4214,5.0106e+07,0,1.65,-1.57,16.33,0.0077428,0.015939,-0.5768,-0.39876,0.54546,-0.0080613,0.35639,-0.03,-0.04,-0.11,92.91
4255,5.0117e+07,0,1.65,-1.57,16.33,0.0078216,0.016021,-0.57647,-0.39734,0.54546,-0.0080613,0.35254,-0.03,-0.04,-0.11,92.91
4295,5.0127e+07,0,1.65,-1.57,16.33,0.0080634,0.016082,-0.57606,-0.39502,0.54546,-0.0080613,0.34802,-0.03,-0.04,-0.11,92.91
4337,5.0137e+07,0,1.64,-1.57,16.33,0.0081166,0.015905,-0.57608,-0.39307,0.54546,-0.0080613,0.34227,-0.03,-0.04,-0.11,92.91
4374,5.0147e+07,0,1.64,-1.57,16.33,0.00817,0.01586,-0.57548,-0.38817,0.54546,-0.0080613,0.3395,-0.03,-0.04,-0.11,92.91
4415,5.0157e+07,0,1.64,-1.57,16.33,0.0082805,0.015947,-0.57489,-0.38301,0.54546,-0.0080613,0.33661,-0.03,-0.04,-0.11,92.91
4455,5.0167e+07,0,1.64,-1.57,16.33,0.0082205,0.016063,-0.57443,-0.37726,0.54546,-0.0080613,0.33359,-0.03,-0.04,-0.11,92.91
4496,5.0177e+07,0,1.64,-1.57,16.32,0.0082465,0.015998,-0.57371,-0.37278,0.54546,-0.0080613,0.33045,-0.03,-0.04,-0.11,92.91
4537,5.0187e+07,0,1.64,-1.57,16.32,0.0084024,0.016006,-0.57357,-0.36616,0.54546,-0.0080613,0.32472,-0.03,-0.04,-0.11,92.91
4584,5.0197e+07,0,1.64,-1.57,16.32,0.0083496,0.015949,-0.573,-0.36063,0.54546,-0.016123,0.32148,-0.03,-0.04,-0.11,92.91
4625,5.0207e+07,0,1.64,-1.57,16.32,0.0082012,0.015979,-0.57258,-0.35564,0.54546,-0.016123,0.31813,-0.04,-0.04,-0.11,92.91
4665,5.0217e+07,0,1.64,-1.57,16.32,0.0082966,0.015876,-0.5722,-0.35241,0.54546,-0.016123,0.31467,-0.04,-0.04,-0.11,92.91
4706,5.0227e+07,0,1.65,-1.57,16.32,0.008253,0.01574,-0.5716,-0.35069,0.54546,-0.016123,0.31111,-0.04,-0.04,-0.11,92.91
4746,5.024e+07,0,1.65,-1.57,16.32,0.008376,0.01549,-0.57096,-0.35028,0.54546,-0.016123,0.30731,-0.04,-0.04,-0.11,92.91
4787,5.025e+07,0,1.65,-1.57,16.32,0.0083664,0.015478,-0.56997,-0.34837,0.54546,-0.016123,0.30451,-0.04,-0.04,-0.11,92.91
4827,5.026e+07,0,1.65,-1.57,16.32,0.0084408,0.015361,-0.56955,-0.34363,0.54546,-0.016123,0.30102,-0.04,-0.04,-0.11,92.91
4869,5.027e+07,0,1.65,-1.57,16.32,0.0084557,0.015331,-0.56928,-0.33767,0.54546,-0.016123,0.29533,-0.04,-0.04,-0.11,92.91
4910,5.028e+07,0,1.65,-1.57,16.32,0.0085797,0.015213,-0.56876,-0.33427,0.54546,-0.016123,0.2923,-0.04,-0.04,-0.11,92.91
4952,5.0291e+07,0,1.65,-1.57,16.32,0.0088363,0.015131,-0.56819,-0.33222,0.54546,-0.016123,0.28801,-0.04,-0.04,-0.11,92.91
4998,5.0301e+07,0,1.65,-1.57,16.32,0.0088093,0.015016,-0.5677,-0.3308,0.54546,-0.016123,0.28475,-0.04,-0.04,-0.11,92.91
5038,5.0311e+07,0,1.65,-1.57,16.32,0.008796,0.014924,-0.56717,-0.33191,0.54546,-0.016123,0.28139,-0.04,-0.04,-0.11,92.91
5081,5.0322e+07,0,1.65,-1.57,16.32,0.0086976,0.014915,-0.56661,-0.3341,0.54546,-0.016123,0.27793,-0.04,-0.04,-0.11,92.91
5122,5.0335e+07,0,1.64,-1.57,16.32,0.0090926,0.015119,-0.56585,-0.33391,0.54546,-0.016123,0.27449,-0.04,-0.04,-0.11,92.91
5163,5.0344e+07,0,1.64,-1.57,16.32,0.0090698,0.015124,-0.56503,-0.33049,0.54546,-0.016123,0.27257,-0.04,-0.04,-0.11,92.91
5201,5.0355e+07,0,1.64,-1.57,16.32,0.009236,0.014971,-0.56503,-0.32115,0.54546,-0.016123,0.26636,-0.04,-0.04,-0.11,92.91
5241,5.0365e+07,0,1.65,-1.57,16.32,0.0094715,0.015004,-0.56404,-0.31253,0.54546,-0.016123,0.2643,-0.04,-0.04,-0.11,92.91
5282,5.0375e+07,0,1.65,-1.57,16.32,0.0097777,0.0152,-0.5631,-0.30564,0.54546,-0.016123,0.2621,-0.04,-0.04,-0.11,92.91
5325,5.0385e+07,0,1.65,-1.57,16.32,0.0098519,0.0151,-0.56222,-0.30402,0.55659,-0.016123,0.25976,-0.04,-0.04,-0.11,92.91
5366,5.0395e+07,0,1.65,-1.57,16.32,0.0099905,0.015241,-0.56209,-0.29897,0.55659,-0.016123,0.25414,-0.04,-0.04,-0.11,92.91
5411,5.0405e+07,0,1.65,-1.56,16.32,0.010122,0.01513,-0.56113,-0.2956,0.55659,-0.016123,0.25168,-0.04,-0.04,-0.11,92.91
5452,5.0416e+07,0,1.65,-1.56,16.32,0.0098561,0.015039,-0.56048,-0.29318,0.55659,-0.016123,0.24908,-0.04,-0.04,-0.11,92.91
5493,5.0426e+07,0,1.65,-1.56,16.31,0.0098169,0.014948,-0.55989,-0.29327,0.55659,-0.016123,0.24635,-0.04,-0.04,-0.11,92.91
5533,5.0436e+07,0,1.65,-1.57,16.31,0.0098609,0.01478,-0.55913,-0.29407,0.55659,-0.016123,0.2435,-0.04,-0.04,-0.11,92.91
5574,5.0449e+07,0,1.65,-1.57,16.31,0.0099924,0.014719,-0.55831,-0.29098,0.55659,-0.016123,0.23936,-0.04,-0.04,-0.11,92.91
5612,5.0458e+07,0,1.65,-1.57,16.31,0.010148,0.014592,-0.55771,-0.29021,0.55659,-0.016123,0.23784,-0.04,-0.04,-0.11,92.91
5653,5.0469e+07,0,1.65,-1.57,16.31,0.010181,0.014156,-0.55713,-0.28473,0.55659,-0.016123,0.23506,-0.04,-0.04,-0.11,92.91
5694,5.0479e+07,0,1.64,-1.57,16.31,0.010216,0.01417,-0.55688,-0.27812,0.55659,-0.016123,0.22949,-0.04,-0.04,-0.11,92.91
5734,5.0489e+07,0,1.64,-1.57,16.31,0.010361,0.014106,-0.55621,-0.27458,0.55659,-0.016123,0.22714,-0.04,-0.04,-0.11,92.91
5779,5.0499e+07,0,1.64,-1.56,16.31,0.010315,0.014153,-0.5555,-0.27233,0.55659,-0.016123,0.22465,-0.04,-0.04,-0.11,92.91
5819,5.0509e+07,0,1.64,-1.57,16.31,0.010237,0.014032,-0.55482,-0.27305,0.55659,-0.016123,0.22202,-0.04,-0.04,-0.11,92.91
5862,5.0519e+07,0,1.64,-1.57,16.31,0.010298,0.014194,-0.55412,-0.27493,0.55659,-0.016123,0.21928,-0.04,-0.04,-0.11,92.91
5902,5.053e+07,0,1.64,-1.57,16.31,0.010156,0.014266,-0.554,-0.27543,0.55659,-0.016123,0.21374,-0.04,-0.04,-0.11,92.91
5940,5.054e+07,0,1.64,-1.57,16.31,0.010032,0.014012,-0.5531,-0.27369,0.55659,-0.016123,0.21186,-0.04,-0.04,-0.11,92.91
5980,5.055e+07,0,1.64,-1.57,16.31,0.0099968,0.01387,-0.55233,-0.26775,0.55659,-0.016123,0.21033,-0.04,-0.04,-0.11,92.91
6017,5.056e+07,0,1.64,-1.57,16.31,0.01024,0.013786,-0.55148,-0.26142,0.55659,-0.016123,0.20864,-0.04,-0.04,-0.11,92.91
6058,5.057e+07,0,1.64,-1.57,16.31,0.010324,0.013877,-0.55028,-0.25535,0.55659,-0.016123,0.20678,-0.04,-0.04,-0.11,92.91
6104,5.0583e+07,0,1.64,-1.57,16.31,0.010243,0.013778,-0.54936,-0.25048,0.56773,-0.024184,0.20368,-0.04,-0.04,-0.11,92.91
6144,5.0593e+07,0,1.64,-1.56,16.32,0.010288,0.01383,-0.54847,-0.24847,0.56773,-0.024184,0.20153,-0.04,-0.04,-0.11,92.91
6192,5.0605e+07,0,1.64,-1.56,16.32,0.010202,0.013969,-0.54773,-0.24344,0.56773,-0.024184,0.19759,-0.04,-0.04,-0.11,92.91
6232,5.0616e+07,0,1.64,-1.56,16.32,0.010205,0.014017,-0.54692,-0.24393,0.56773,-0.024184,0.19461,-0.04,-0.04,-0.11,92.91
6273,5.0626e+07,0,1.64,-1.56,16.32,0.01026,0.014039,-0.54711,-0.24431,0.56773,-0.024184,0.18915,-0.04,-0.04,-0.11,92.91
6314,5.0636e+07,0,1.64,-1.56,16.32,0.010321,0.014011,-0.54655,-0.24627,0.56773,-0.024184,0.1866,-0.04,-0.04,-0.11,92.91
6353,5.0648e+07,0,1.64,-1.56,16.32,0.010388,0.01379,-0.54587,-0.25191,0.56773,-0.024184,0.18397,-0.04,-0.04,-0.11,92.91
6393,5.0658e+07,0,1.64,-1.56,16.32,0.010469,0.013602,-0.54505,-0.25531,0.56773,-0.024184,0.18227,-0.04,-0.04,-0.11,92.91
6434,5.0669e+07,0,1.64,-1.57,16.32,0.010483,0.013457,-0.54414,-0.25698,0.56773,-0.024184,0.18041,-0.04,-0.04,-0.11,92.91
6476,5.0679e+07,0,1.64,-1.57,16.32,0.010585,0.013617,-0.54408,-0.2547,0.56773,-0.024184,0.17498,-0.04,-0.04,-0.11,92.91
6516,5.0689e+07,0,1.64,-1.57,16.32,0.01067,0.013634,-0.54334,-0.25417,0.56773,-0.024184,0.17298,-0.04,-0.04,-0.11,92.91
6557,5.0699e+07,0,1.64,-1.57,16.32,0.010921,0.0135,-0.54261,-0.25523,0.56773,-0.024184,0.1703,-0.04,-0.04,-0.11,92.91
6602,5.0709e+07,0,1.64,-1.57,16.32,0.010907,0.013539,-0.54194,-0.25822,0.56773,-0.024184,0.16802,-0.04,-0.04,-0.11,92.91
6642,5.0719e+07,0,1.64,-1.57,16.32,0.010906,0.013338,-0.54115,-0.26147,0.56773,-0.024184,0.1656,-0.04,-0.04,-0.11,92.91
6684,5.073e+07,0,1.64,-1.57,16.32,0.011057,0.013313,-0.54045,-0.26325,0.56773,-0.024184,0.16251,-0.04,-0.04,-0.11,92.91
6725,5.074e+07,0,1.64,-1.57,16.31,0.011259,0.013328,-0.54041,-0.26435,0.56773,-0.024184,0.15711,-0.04,-0.04,-0.11,92.91
6763,5.0751e+07,0,1.64,-1.57,16.32,0.011351,0.013305,-0.53969,-0.2651,0.56773,-0.024184,0.15542,-0.04,-0.04,-0.11,92.91
6804,5.0763e+07,0,1.64,-1.57,16.32,0.011293,0.013247,-0.5392,-0.26472,0.56773,-0.024184,0.15194,-0.04,-0.04,-0.11,92.91
6844,5.0773e+07,0,1.64,-1.57,16.31,0.011373,0.01322,-0.53857,-0.26194,0.56773,-0.024184,0.14993,-0.04,-0.04,-0.11,92.91
6886,5.0784e+07,0,1.64,-1.56,16.31,0.011438,0.013255,-0.53798,-0.26019,0.56773,-0.024184,0.14777,-0.04,-0.04,-0.11,92.91
6930,5.0794e+07,0,1.64,-1.57,16.31,0.011502,0.013256,-0.53719,-0.26101,0.57886,-0.032245,0.14547,-0.04,-0.04,-0.11,92.91
6975,5.0804e+07,0,1.64,-1.57,16.32,0.011609,0.013151,-0.53643,-0.26286,0.57886,-0.032245,0.14304,-0.04,-0.04,-0.11,92.91
7015,5.0814e+07,0,1.64,-1.56,16.32,0.011535,0.01318,-0.5358,-0.26374,0.57886,-0.032245,0.13995,-0.04,-0.04,-0.11,92.91
7056,5.0824e+07,0,1.64,-1.56,16.32,0.011589,0.013333,-0.53534,-0.26396,0.57886,-0.032245,0.1346,-0.04,-0.04,-0.11,92.91
7098,5.0834e+07,0,1.64,-1.56,16.32,0.011525,0.013402,-0.53481,-0.26633,0.57886,-0.032245,0.13193,-0.04,-0.04,-0.11,92.91
7139,5.0844e+07,0,1.64,-1.56,16.32,0.011453,0.013504,-0.53405,-0.26817,0.57886,-0.032245,0.13055,-0.04,-0.04,-0.11,92.91
7184,5.0857e+07,0,1.64,-1.56,16.32,0.011372,0.013653,-0.53308,-0.26624,0.57886,-0.032245,0.12793,-0.04,-0.04,-0.11,92.91
7224,5.0867e+07,0,1.64,-1.56,16.32,0.01129,0.013647,-0.53236,-0.26535,0.57886,-0.032245,0.12623,-0.04,-0.04,-0.11,92.91
7266,5.0877e+07,0,1.64,-1.56,16.32,0.011325,0.013633,-0.53131,-0.26411,0.57886,-0.032245,0.12384,-0.04,-0.04,-0.11,92.91
7307,5.0888e+07,0,1.64,-1.56,16.32,0.011402,0.013596,-0.5316,-0.26098,0.57886,-0.032245,0.11853,-0.04,-0.04,-0.11,92.91
7347,5.0898e+07,0,1.64,-1.56,16.32,0.011387,0.013415,-0.53047,-0.25909,0.57886,-0.032245,0.11654,-0.04,-0.04,-0.11,92.91
7393,5.0908e+07,0,1.64,-1.56,16.32,0.011494,0.013366,-0.52972,-0.2582,0.57886,-0.032245,0.11442,-0.04,-0.04,-0.11,92.91
7434,5.0918e+07,0,1.64,-1.56,16.32,0.011432,0.013218,-0.52901,-0.25979,0.57886,-0.032245,0.11215,-0.04,-0.04,-0.11,92.91
7475,5.0928e+07,0,1.64,-1.56,16.32,0.011535,0.013202,-0.52819,-0.2628,0.57886,-0.032245,0.10924,-0.04,-0.04,-0.11,92.91
7515,5.0938e+07,0,1.64,-1.56,16.33,0.011428,0.013479,-0.52805,-0.26415,0.57886,-0.032245,0.10396,-0.04,-0.04,-0.11,92.91
7557,5.0948e+07,0,1.64,-1.56,16.33,0.01138,0.01344,-0.52734,-0.26639,0.57886,-0.032245,0.10146,-0.04,-0.04,-0.11,92.91
7597,5.0958e+07,0,1.64,-1.56,16.33,0.01134,0.0132,-0.52629,-0.26545,0.57886,-0.032245,0.10124,-0.04,-0.04,-0.11,92.91
7638,5.0968e+07,0,1.63,-1.56,16.33,0.011254,0.013031,-0.52537,-0.25914,0.57886,-0.032245,0.1008,-0.04,-0.04,-0.11,92.91
7679,5.0978e+07,0,1.63,-1.56,16.33,0.011363,0.012911,-0.52441,-0.24797,0.57886,-0.032245,0.10015,-0.04,-0.04,-0.11,92.91
7721,5.0988e+07,0,1.63,-1.56,16.33,0.011203,0.01287,-0.52336,-0.2364,0.57886,-0.032245,0.099299,-0.04,-0.04,-0.11,92.91
7762,5.0999e+07,0,1.63,-1.56,16.33,0.011236,0.012723,-0.52261,-0.22109,0.58999,-0.040306,0.097733,-0.04,-0.04,-0.11,92.91
7806,5.1009e+07,0,1.63,-1.56,16.33,0.011136,0.012762,-0.52246,-0.20652,0.58999,-0.040306,0.092512,-0.04,-0.04,-0.11,92.91
7848,5.102e+07,0,1.63,-1.56,16.34,0.011187,0.012901,-0.52172,-0.19669,0.58999,-0.040306,0.091308,-0.04,-0.04,-0.11,92.91
7889,5.103e+07,0,1.63,-1.56,16.34,0.011177,0.01284,-0.52086,-0.18995,0.58999,-0.040306,0.089418,-0.04,-0.04,-0.11,92.91
7929,5.104e+07,0,1.63,-1.56,16.34,0.01129,0.012687,-0.52036,-0.18647,0.58999,-0.040306,0.087883,-0.04,-0.04,-0.11,92.91
7971,5.1053e+07,0,1.64,-1.56,16.34,0.011385,0.01261,-0.51904,-0.18338,0.58999,-0.040306,0.087038,-0.04,-0.04,-0.11,92.91
8012,5.1063e+07,0,1.64,-1.56,16.34,0.011492,0.012605,-0.51812,-0.17805,0.58999,-0.040306,0.086494,-0.04,-0.04,-0.11,92.91
8053,5.1073e+07,0,1.64,-1.56,16.34,0.011331,0.012584,-0.51825,-0.1674,0.58999,-0.040306,0.081318,-0.04,-0.04,-0.11,92.91
8094,5.1083e+07,0,1.64,-1.56,16.34,0.01132,0.012335,-0.51696,-0.15616,0.58999,-0.040306,0.081085,-0.04,-0.04,-0.11,92.91
8134,5.1093e+07,0,1.64,-1.56,16.34,0.011165,0.012079,-0.51578,-0.14795,0.58999,-0.040306,0.08065,-0.04,-0.04,-0.11,92.91
8175,5.1103e+07,0,1.64,-1.56,16.34,0.011222,0.01201,-0.51452,-0.14078,0.58999,-0.040306,0.080014,-0.04,-0.04,-0.11,92.91
8222,5.1113e+07,0,1.64,-1.56,16.34,0.011356,0.012027,-0.51353,-0.13793,0.58999,-0.040306,0.079195,-0.04,-0.04,-0.11,92.91
8263,5.1123e+07,0,1.64,-1.56,16.34,0.011375,0.012138,-0.51377,-0.13272,0.58999,-0.040306,0.074064,-0.04,-0.04,-0.11,92.91
8304,5.1133e+07,0,1.63,-1.56,16.34,0.011399,0.011916,-0.51301,-0.12945,0.58999,-0.040306,0.073066,-0.04,-0.04,-0.11,92.91
8344,5.1143e+07,0,1.63,-1.56,16.35,0.011425,0.01167,-0.51211,-0.12992,0.58999,-0.040306,0.071897,-0.04,-0.04,-0.11,92.91
8386,5.1156e+07,0,1.63,-1.56,16.35,0.011446,0.01175,-0.51101,-0.13562,0.58999,-0.040306,0.070023,-0.04,-0.04,-0.11,92.91
8426,5.1166e+07,0,1.63,-1.56,16.35,0.011329,0.011624,-0.50989,-0.14064,0.58999,-0.040306,0.069486,-0.04,-0.04,-0.11,92.91
8464,5.1176e+07,0,1.63,-1.56,16.35,0.011343,0.011766,-0.50982,-0.13967,0.58999,-0.040306,0.064393,-0.04,-0.04,-0.11,92.91
8505,5.1186e+07,0,1.63,-1.56,16.35,0.011388,0.011757,-0.50891,-0.13855,0.58999,-0.040306,0.063669,-0.04,-0.04,-0.11,92.91
8547,5.1196e+07,0,1.63,-1.56,16.34,0.011516,0.011735,-0.50782,-0.13955,0.58999,-0.040306,0.062763,-0.04,-0.04,-0.11,92.91
8589,5.1207e+07,0,1.63,-1.56,16.34,0.011483,0.011586,-0.50648,-0.144,0.60112,-0.048368,0.061183,-0.04,-0.04,-0.11,92.91
8633,5.1217e+07,0,1.63,-1.56,16.34,0.011594,0.011567,-0.50541,-0.15015,0.60112,-0.048368,0.059442,-0.04,-0.04,-0.11,92.91
8674,5.1228e+07,0,1.63,-1.56,16.34,0.011618,0.011583,-0.50517,-0.15301,0.60112,-0.048368,0.054395,-0.04,-0.04,-0.11,92.91
8715,5.1238e+07,0,1.63,-1.56,16.34,0.011709,0.011431,-0.50422,-0.15864,0.60112,-0.048368,0.052506,-0.04,-0.04,-0.11,92.91
8756,5.1248e+07,0,1.63,-1.56,16.34,0.011636,0.01137,-0.50334,-0.16383,0.60112,-0.048368,0.050962,-0.04,-0.04,-0.11,92.91
8795,5.126e+07,0,1.63,-1.56,16.34,0.011755,0.011271,-0.50217,-0.16753,0.60112,-0.048368,0.050445,-0.04,-0.04,-0.11,92.91
8835,5.127e+07,0,1.63,-1.56,16.34,0.011696,0.01113,-0.50059,-0.16673,0.60112,-0.048368,0.050706,-0.04,-0.04,-0.1,92.91
8876,5.1281e+07,0,1.63,-1.56,16.34,0.011699,0.011033,-0.49944,-0.1634,0.60112,-0.048368,0.05025,-0.04,-0.04,-0.1,92.91
8918,5.1291e+07,0,1.63,-1.56,16.34,0.011993,0.011207,-0.49957,-0.15493,0.60112,-0.048368,0.04526,-0.04,-0.04,-0.1,92.91
8959,5.1301e+07,0,1.63,-1.56,16.34,0.012162,0.011078,-0.49827,-0.14783,0.60112,-0.048368,0.045104,-0.04,-0.04,-0.1,92.91
9004,5.1311e+07,0,1.63,-1.56,16.34,0.012137,0.011048,-0.49704,-0.14106,0.60112,-0.048368,0.044737,-0.04,-0.04,-0.1,92.91
9044,5.1321e+07,0,1.63,-1.56,16.34,0.012103,0.010988,-0.49614,-0.13793,0.60112,-0.048368,0.04418,-0.04,-0.04,-0.1,92.91
9085,5.1331e+07,0,1.63,-1.56,16.34,0.01212,0.010966,-0.49533,-0.13597,0.60112,-0.048368,0.043426,-0.04,-0.04,-0.1,92.91
9125,5.1342e+07,0,1.63,-1.56,16.34,0.012146,0.010837,-0.49461,-0.13197,0.60112,-0.048368,0.041985,-0.04,-0.04,-0.11,92.91
9166,5.1352e+07,0,1.63,-1.56,16.34,0.012227,0.010894,-0.49461,-0.12809,0.60112,-0.048368,0.037045,-0.04,-0.04,-0.11,92.91
9203,5.1362e+07,0,1.63,-1.56,16.33,0.012255,0.010805,-0.4932,-0.11883,0.60112,-0.048368,0.03821,-0.04,-0.04,-0.1,92.91
9244,5.1372e+07,0,1.63,-1.56,16.33,0.012225,0.010824,-0.49226,-0.11001,0.60112,-0.048368,0.039122,-0.04,-0.04,-0.1,92.91
9287,5.1382e+07,0,1.63,-1.56,16.33,0.012404,0.01077,-0.49104,-0.099675,0.60112,-0.048368,0.039779,-0.04,-0.04,-0.1,92.91
9327,5.1393e+07,0,1.63,-1.56,16.33,0.012362,0.010691,-0.48954,-0.087156,0.60112,-0.048368,0.040187,-0.04,-0.04,-0.11,92.91
9368,5.1403e+07,0,1.63,-1.56,16.33,0.012453,0.010726,-0.48829,-0.077159,0.60112,-0.048368,0.040367,-0.04,-0.04,-0.11,92.91
9412,5.1413e+07,0,1.63,-1.56,16.33,0.012444,0.010716,-0.48836,-0.065311,0.60112,-0.048368,0.035489,-0.04,-0.04,-0.11,92.91
9453,5.1423e+07,0,1.63,-1.56,16.33,0.012425,0.010809,-0.48759,-0.058458,0.60112,-0.048368,0.034982,-0.04,-0.04,-0.11,92.91
9494,5.1433e+07,0,1.63,-1.56,16.33,0.012326,0.01085,-0.48631,-0.056017,0.60112,-0.048368,0.034759,-0.04,-0.04,-0.11,92.91
9520,5.1456e+07,0,1.63,-1.56,16.33,0.012168,0.010663,-0.48378,-0.057813,0.60112,-0.048368,0.034676,-0.04,-0.04,-0.1,92.91
9560,5.1466e+07,0,1.63,-1.56,16.33,0.012023,0.010556,-0.48249,-0.056322,0.60112,-0.048368,0.035725,-0.04,-0.04,-0.1,92.91
9602,5.1476e+07,0,1.63,-1.56,16.33,0.012073,0.010598,-0.48119,-0.047558,0.60112,-0.048368,0.036027,-0.04,-0.04,-0.11,92.91
9642,5.1486e+07,0,1.63,-1.56,16.33,0.012107,0.010687,-0.48134,-0.036915,0.60112,-0.048368,0.031219,-0.04,-0.04,-0.11,92.91
9683,5.1496e+07,0,1.63,-1.56,16.33,0.012087,0.010628,-0.48009,-0.028079,0.60112,-0.048368,0.031777,-0.04,-0.04,-0.11,92.91
9723,5.1506e+07,0,1.63,-1.56,16.33,0.011928,0.010612,-0.47887,-0.024015,0.60112,-0.048368,0.032107,-0.04,-0.04,-0.11,92.91
9768,5.1516e+07,0,1.63,-1.56,16.33,0.012019,0.010469,-0.47789,-0.029385,0.60112,-0.048368,0.032245,-0.04,-0.04,-0.1,92.91
9810,5.1527e+07,0,1.63,-1.56,16.33,0.011999,0.010554,-0.47788,-0.030194,0.60112,-0.048368,0.027471,-0.04,-0.04,-0.1,92.91
9850,5.1537e+07,0,1.63,-1.56,16.33,0.01207,0.010606,-0.47696,-0.034085,0.60112,-0.048368,0.027413,-0.04,-0.04,-0.1,92.91
9892,5.1547e+07,0,1.64,-1.56,16.33,0.012094,0.010584,-0.47596,-0.040906,0.60112,-0.048368,0.026679,-0.04,-0.04,-0.1,92.91
9929,5.1557e+07,0,1.63,-1.56,16.33,0.012057,0.010426,-0.47458,-0.044536,0.60112,-0.048368,0.028655,-0.04,-0.04,-0.1,92.91
9970,5.1567e+07,0,1.63,-1.56,16.33,0.011976,0.010393,-0.47319,-0.045709,0.60112,-0.048368,0.030351,-0.04,-0.04,-0.1,92.91
10012,5.1577e+07,0,1.63,-1.56,16.33,0.012023,0.010423,-0.47313,-0.036743,0.60112,-0.048368,0.025625,-0.04,-0.04,-0.1,92.91
10054,5.1587e+07,0,1.64,-1.56,16.33,0.012085,0.010287,-0.47185,-0.026669,0.61225,-0.056429,0.027052,-0.04,-0.04,-0.1,92.91
10095,5.1597e+07,0,1.63,-1.56,16.33,0.012018,0.010298,-0.47052,-0.014833,0.61225,-0.056429,0.028199,-0.04,-0.04,-0.1,92.91
10135,5.1607e+07,0,1.63,-1.56,16.33,0.011911,0.010244,-0.46918,-0.012667,0.61225,-0.056429,0.029127,-0.04,-0.04,-0.1,92.91
10180,5.1617e+07,0,1.63,-1.56,16.33,0.012134,0.010079,-0.46819,-0.011336,0.61225,-0.056429,0.02981,-0.04,-0.04,-0.1,92.91
10220,5.1628e+07,0,1.63,-1.56,16.33,0.012208,0.010085,-0.46803,-0.005868,0.61225,-0.056429,0.025133,-0.04,-0.04,-0.1,92.91
10261,5.1638e+07,0,1.63,-1.56,16.33,0.012238,0.0099824,-0.46684,-0.0046335,0.61225,-0.056429,0.025605,-0.04,-0.04,-0.1,92.91
10304,5.1648e+07,0,1.63,-1.56,16.33,0.012348,0.0098494,-0.46585,-0.0053532,0.61225,-0.056429,0.025849,-0.04,-0.04,-0.1,92.91
10341,5.1658e+07,0,1.63,-1.56,16.33,0.012431,0.0097637,-0.46428,-0.0083171,0.61225,-0.056429,0.027936,-0.04,-0.04,-0.1,92.91
10382,5.1668e+07,0,1.63,-1.56,16.33,0.012456,0.0098025,-0.46292,-0.007751,0.61225,-0.056429,0.029281,-0.04,-0.04,-0.1,92.91
10422,5.1678e+07,0,1.63,-1.56,16.33,0.012388,0.0098075,-0.46306,0.00015559,0.61225,-0.056429,0.024656,-0.04,-0.04,-0.1,92.91
10464,5.1688e+07,0,1.64,-1.56,16.33,0.01236,0.0096703,-0.46156,0.008833,0.61225,-0.056429,0.026194,-0.04,-0.04,-0.1,92.91
10504,5.1698e+07,0,1.64,-1.56,16.33,0.012388,0.0096532,-0.46015,0.014023,0.61225,-0.056429,0.027473,-0.04,-0.04,-0.1,92.91
10545,5.1708e+07,0,1.64,-1.56,16.33,0.012527,0.0095628,-0.45858,0.018319,0.61225,-0.056429,0.0285,-0.04,-0.04,-0.1,92.91
10591,5.1718e+07,0,1.64,-1.56,16.33,0.012677,0.009319,-0.45714,0.017849,0.61225,-0.056429,0.029292,-0.04,-0.04,-0.1,92.91
10631,5.1729e+07,0,1.64,-1.56,16.33,0.01261,0.0092532,-0.45719,0.020754,0.61225,-0.056429,0.024725,-0.04,-0.04,-0.1,92.91
10672,5.1739e+07,0,1.64,-1.56,16.33,0.012697,0.0090894,-0.45582,0.019792,0.61225,-0.056429,0.025305,-0.04,-0.04,-0.1,92.91
10712,5.1749e+07,0,1.64,-1.55,16.32,0.01274,0.0092028,-0.45482,0.016757,0.61225,-0.056429,0.025657,-0.04,-0.04,-0.1,92.91
10752,5.1759e+07,0,1.64,-1.55,16.32,0.01294,0.0091173,-0.4535,0.017226,0.61225,-0.056429,0.026833,-0.04,-0.04,-0.1,92.91
10790,5.1769e+07,0,1.64,-1.55,16.32,0.013068,0.0090791,-0.4523,0.010356,0.61225,-0.056429,0.028229,-0.03,-0.04,-0.1,92.91
10830,5.178e+07,0,1.63,-1.55,16.32,0.013066,0.009111,-0.45091,0.010969,0.61225,-0.056429,0.028901,-0.04,-0.04,-0.1,92.91
10875,5.179e+07,0,1.63,-1.55,16.32,0.013234,0.0091618,-0.45089,0.015094,0.61225,-0.056429,0.024397,-0.04,-0.04,-0.1,92.91
10915,5.1801e+07,0,1.63,-1.55,16.32,0.013199,0.0092756,-0.44942,0.015863,0.63452,-0.06449,0.024849,-0.04,-0.04,-0.1,92.91
10956,5.1812e+07,0,1.63,-1.55,16.32,0.013287,0.0092842,-0.44839,0.017351,0.63452,-0.06449,0.025501,-0.04,-0.04,-0.1,92.91
11002,5.1822e+07,0,1.63,-1.55,16.32,0.013349,0.0091915,-0.44743,0.016398,0.63452,-0.06449,0.025925,-0.04,-0.04,-0.1,92.91
11042,5.1832e+07,0,1.63,-1.56,16.32,0.013461,0.0092124,-0.44635,0.010829,0.63452,-0.06449,0.026141,-0.04,-0.04,-0.1,92.91
11083,5.1842e+07,0,1.63,-1.55,16.32,0.01352,0.0090798,-0.44506,0.0037079,0.63452,-0.06449,0.02615,-0.04,-0.04,-0.1,92.91
11123,5.1852e+07,0,1.63,-1.55,16.32,0.013633,0.009237,-0.44487,-0.001103,0.63452,-0.06449,0.021706,-0.04,-0.04,-0.1,92.91
11165,5.1862e+07,0,1.64,-1.55,16.32,0.013637,0.0092301,-0.44403,-0.010895,0.63452,-0.06449,0.021091,-0.04,-0.04,-0.1,92.91
11199,5.1872e+07,0,1.64,-1.55,16.32,0.013535,0.0091581,-0.4429,-0.018393,0.63452,-0.06449,0.022539,-0.04,-0.04,-0.1,92.91
11242,5.1882e+07,0,1.64,-1.55,16.32,0.013479,0.0090551,-0.44153,-0.021806,0.63452,-0.06449,0.023726,-0.04,-0.04,-0.1,92.91
11283,5.1892e+07,0,1.64,-1.55,16.32,0.013477,0.0088935,-0.44012,-0.026141,0.63452,-0.06449,0.024677,-0.04,-0.04,-0.1,92.91
11325,5.1903e+07,0,1.64,-1.55,16.32,0.01356,0.008793,-0.43992,-0.024104,0.63452,-0.06449,0.020282,-0.04,-0.04,-0.1,92.91
11367,5.1913e+07,0,1.64,-1.55,16.32,0.013599,0.008606,-0.43879,-0.024446,0.63452,-0.06449,0.021019,-0.04,-0.04,-0.1,92.91
11411,5.1923e+07,0,1.63,-1.55,16.32,0.013692,0.0085261,-0.43769,-0.026967,0.63452,-0.06449,0.0211,-0.03,-0.04,-0.1,92.91
11452,5.1933e+07,0,1.63,-1.55,16.31,0.013645,0.0086074,-0.43651,-0.029633,0.63452,-0.06449,0.0214,-0.04,-0.04,-0.1,92.91
11492,5.1943e+07,0,1.63,-1.55,16.31,0.01356,0.008327,-0.43547,-0.03578,0.63452,-0.06449,0.021501,-0.03,-0.04,-0.1,92.91
11535,5.1953e+07,0,1.63,-1.55,16.32,0.013587,0.0082985,-0.43548,-0.038406,0.63452,-0.06449,0.017151,-0.03,-0.04,-0.1,92.91
11576,5.1963e+07,0,1.63,-1.55,16.32,0.013389,0.0083905,-0.43446,-0.042143,0.63452,-0.06449,0.01706,-0.04,-0.04,-0.1,92.91
11618,5.1976e+07,0,1.63,-1.55,16.32,0.013289,0.0085348,-0.43323,-0.049572,0.63452,-0.06449,0.01739,-0.03,-0.04,-0.1,92.91
11658,5.1986e+07,0,1.63,-1.55,16.32,0.013311,0.0083157,-0.43188,-0.046789,0.63452,-0.06449,0.018743,-0.03,-0.04,-0.1,92.91
11700,5.1997e+07,0,1.63,-1.55,16.32,0.013289,0.0083798,-0.43064,-0.045211,0.63452,-0.06449,0.019856,-0.03,-0.04,-0.1,92.91
11741,5.2007e+07,0,1.63,-1.55,16.32,0.013411,0.008332,-0.4295,-0.037995,0.63452,-0.06449,0.020711,-0.04,-0.04,-0.1,92.91
11782,5.2017e+07,0,1.63,-1.54,16.32,0.01351,0.0082433,-0.42849,-0.032815,0.63452,-0.06449,0.021335,-0.04,-0.04,-0.1,92.91
11827,5.2027e+07,0,1.63,-1.54,16.32,0.01377,0.0081872,-0.42824,-0.024989,0.63452,-0.06449,0.017056,-0.04,-0.04,-0.1,92.91
11868,5.2037e+07,0,1.63,-1.54,16.32,0.013774,0.0078563,-0.42712,-0.021957,0.63452,-0.06449,0.017483,-0.04,-0.04,-0.1,92.91
11909,5.2047e+07,0,1.63,-1.54,16.32,0.013658,0.0077803,-0.42608,-0.02124,0.63452,-0.06449,0.017698,-0.04,-0.04,-0.1,92.91
11949,5.2057e+07,0,1.63,-1.55,16.32,0.01383,0.0078722,-0.42504,-0.024925,0.63452,-0.06449,0.017723,-0.04,-0.04,-0.1,92.91
11995,5.2073e+07,0,1.63,-1.55,16.32,0.013859,0.0075334,-0.42353,-0.026793,0.63452,-0.06449,0.017151,-0.03,-0.04,-0.1,92.91
12035,5.2083e+07,0,1.63,-1.55,16.32,0.013759,0.0074684,-0.42222,-0.026566,0.63452,-0.06449,0.018863,-0.03,-0.04,-0.1,92.91
12077,5.2093e+07,0,1.63,-1.54,16.32,0.013819,0.0075196,-0.4209,-0.018637,0.63452,-0.06449,0.019878,-0.03,-0.04,-0.1,92.91
12117,5.2104e+07,0,1.63,-1.55,16.32,0.013757,0.0074637,-0.4196,-0.012753,0.63452,-0.06449,0.021063,-0.03,-0.04,-0.1,92.91
12159,5.2114e+07,0,1.63,-1.54,16.31,0.013876,0.0075192,-0.41965,-0.0031301,0.63452,-0.06449,0.016452,-0.03,-0.04,-0.1,92.91
12206,5.2124e+07,0,1.63,-1.54,16.31,0.013701,0.0075054,-0.41829,0.00089533,0.63452,-0.06449,0.017426,-0.03,-0.04,-0.1,92.91
12247,5.2134e+07,0,1.63,-1.54,16.31,0.013431,0.0075257,-0.41701,0.0019414,0.63452,-0.06449,0.017765,-0.03,-0.04,-0.1,92.91
12288,5.2144e+07,0,1.63,-1.54,16.31,0.013317,0.0074858,-0.41563,0.0016869,0.63452,-0.06449,0.018302,-0.03,-0.04,-0.1,92.91
12328,5.2154e+07,0,1.63,-1.54,16.31,0.01329,0.0074035,-0.41445,-0.0027653,0.63452,-0.06449,0.01864,-0.03,-0.04,-0.1,92.91
12369,5.2164e+07,0,1.63,-1.54,16.31,0.013261,0.0073634,-0.41437,-0.0042157,0.63452,-0.06449,0.0145,-0.03,-0.04,-0.1,92.91
12406,5.2178e+07,0,1.63,-1.54,16.31,0.013182,0.0070376,-0.41134,-0.0040619,0.63452,-0.06449,0.020882,-0.03,-0.04,-0.1,92.91
12449,5.2188e+07,0,1.63,-1.54,16.31,0.013321,0.0069474,-0.41136,0.0051807,0.65678,-0.072551,0.016773,-0.03,-0.04,-0.1,92.91
12491,5.2198e+07,0,1.63,-1.54,16.3,0.013208,0.0065871,-0.40998,0.012111,0.65678,-0.072551,0.01834,-0.03,-0.04,-0.1,92.91
12532,5.2208e+07,0,1.63,-1.54,16.3,0.01327,0.0062148,-0.4089,0.018134,0.65678,-0.072551,0.019652,-0.03,-0.04,-0.1,92.91
12573,5.2219e+07,0,1.63,-1.54,16.3,0.013279,0.0061261,-0.40774,0.020231,0.65678,-0.072551,0.020736,-0.03,-0.04,-0.1,92.91
12617,5.2229e+07,0,1.63,-1.54,16.3,0.013358,0.0059908,-0.4066,0.020154,0.65678,-0.072551,0.021193,-0.03,-0.04,-0.1,92.91
12658,5.2239e+07,0,1.63,-1.54,16.3,0.013498,0.0060332,-0.40649,0.022359,0.65678,-0.072551,0.017132,-0.03,-0.04,-0.1,92.91
12699,5.2249e+07,0,1.63,-1.54,16.3,0.01364,0.0059587,-0.40528,0.02098,0.65678,-0.072551,0.017796,-0.03,-0.04,-0.1,92.91
12740,5.2259e+07,0,1.63,-1.54,16.3,0.013692,0.0060148,-0.4042,0.018052,0.65678,-0.072551,0.018247,-0.03,-0.04,-0.1,92.91
12777,5.227e+07,0,1.63,-1.54,16.3,0.013751,0.0060212,-0.40252,0.01365,0.65678,-0.072551,0.020819,-0.03,-0.04,-0.1,92.91
12815,5.2279e+07,0,1.63,-1.54,16.29,0.013941,0.0058599,-0.40124,0.014525,0.65678,-0.072551,0.023095,-0.03,-0.04,-0.1,92.91
12858,5.229e+07,0,1.63,-1.54,16.29,0.013864,0.0058571,-0.40006,0.024224,0.65678,-0.072551,0.02468,-0.03,-0.04,-0.1,92.91
12899,5.2301e+07,0,1.63,-1.54,16.29,0.013747,0.0061273,-0.39993,0.037156,0.65678,-0.072551,0.020684,-0.03,-0.04,-0.1,92.91
12941,5.2311e+07,0,1.63,-1.55,16.29,0.013672,0.0060527,-0.39854,0.046757,0.65678,-0.072551,0.02203,-0.03,-0.04,-0.1,92.91
12981,5.2321e+07,0,1.63,-1.54,16.29,0.013643,0.0060597,-0.39716,0.056272,0.65678,-0.072551,0.023509,-0.03,-0.04,-0.1,92.91
13026,5.2332e+07,0,1.63,-1.54,16.29,0.013476,0.005815,-0.39608,0.061061,0.65678,-0.072551,0.024363,-0.03,-0.04,-0.1,92.91
13067,5.2342e+07,0,1.63,-1.54,16.29,0.013227,0.0056618,-0.39468,0.06298,0.65678,-0.072551,0.025379,-0.03,-0.04,-0.1,92.91
13108,5.2353e+07,0,1.63,-1.54,16.29,0.013224,0.0055649,-0.39371,0.063803,0.65678,-0.072551,0.026162,-0.04,-0.04,-0.1,92.91
13152,5.2365e+07,0,1.63,-1.54,16.29,0.013249,0.005404,-0.39202,0.066661,0.65678,-0.072551,0.027779,-0.04,-0.04,-0.1,92.91
13195,5.238e+07,0,1.63,-1.54,16.29,0.013331,0.0052268,-0.3904,0.075236,0.65678,-0.072551,0.028346,-0.03,-0.04,-0.1,92.91
13238,5.239e+07,0,1.63,-1.54,16.29,0.013281,0.0052287,-0.38906,0.081203,0.69018,-0.080613,0.030585,-0.03,-0.04,-0.1,92.91
13279,5.24e+07,0,1.63,-1.54,16.29,0.013348,0.005226,-0.38774,0.089036,0.69018,-0.080613,0.032541,-0.04,-0.04,-0.1,92.91
13321,5.241e+07,0,1.63,-1.54,16.29,0.013301,0.0050713,-0.3864,0.094412,0.69018,-0.080613,0.034239,-0.04,-0.04,-0.1,92.91
13362,5.2421e+07,0,1.63,-1.54,16.29,0.013252,0.0050868,-0.38599,0.1022,0.69018,-0.080613,0.029995,-0.04,-0.04,-0.1,92.91
13409,5.2433e+07,0,1.63,-1.54,16.29,0.013069,0.0050552,-0.38464,0.10349,0.69018,-0.080613,0.03071,-0.04,-0.04,-0.1,92.91
13450,5.2443e+07,0,1.63,-1.54,16.29,0.013215,0.0050462,-0.38315,0.10208,0.69018,-0.080613,0.031972,-0.04,-0.04,-0.1,92.91
13491,5.2454e+07,0,1.63,-1.54,16.29,0.013373,0.0049262,-0.38222,0.098002,0.69018,-0.080613,0.033006,-0.04,-0.04,-0.1,92.91
13533,5.2464e+07,0,1.63,-1.54,16.29,0.013451,0.004845,-0.38113,0.08963,0.69018,-0.080613,0.033832,-0.04,-0.04,-0.1,92.91
13574,5.2474e+07,0,1.63,-1.54,16.29,0.013425,0.0048732,-0.38085,0.079909,0.69018,-0.080613,0.030026,-0.04,-0.04,-0.1,92.91
13609,5.2484e+07,0,1.63,-1.54,16.29,0.013337,0.0046832,-0.37927,0.075187,0.69018,-0.080613,0.032813,-0.03,-0.04,-0.1,92.91
13649,5.2495e+07,0,1.63,-1.54,16.29,0.013227,0.0046571,-0.37752,0.080185,0.69018,-0.080613,0.035661,-0.03,-0.04,-0.1,92.91
13691,5.2505e+07,0,1.63,-1.54,16.29,0.013239,0.0045916,-0.37585,0.086882,0.69018,-0.080613,0.038215,-0.03,-0.04,-0.1,92.91
13732,5.2515e+07,0,1.63,-1.54,16.29,0.013227,0.004354,-0.37447,0.09727,0.69018,-0.080613,0.040105,-0.04,-0.04,-0.1,92.91
13773,5.2525e+07,0,1.63,-1.54,16.29,0.013161,0.004265,-0.37309,0.10442,0.69018,-0.080613,0.042105,-0.04,-0.04,-0.1,92.91
13817,5.2536e+07,0,1.63,-1.54,16.29,0.013111,0.0040954,-0.37166,0.1113,0.69018,-0.080613,0.043842,-0.04,-0.04,-0.1,92.91
13858,5.2546e+07,0,1.63,-1.54,16.29,0.013026,0.0039142,-0.3705,0.11413,0.69018,-0.080613,0.045336,-0.04,-0.04,-0.1,92.91
13898,5.2556e+07,0,1.63,-1.54,16.29,0.013005,0.003998,-0.36908,0.11798,0.69018,-0.080613,0.04622,-0.04,-0.04,-0.1,92.91
13937,5.2566e+07,0,1.63,-1.54,16.29,0.013067,0.0038897,-0.36912,0.12005,0.69018,-0.080613,0.042533,-0.04,-0.04,-0.1,92.91
13978,5.2577e+07,0,1.63,-1.54,16.29,0.012912,0.0036496,-0.36746,0.12184,0.69018,-0.080613,0.045295,-0.04,-0.04,-0.1,92.91
14019,5.2587e+07,0,1.63,-1.53,16.29,0.013029,0.003559,-0.3662,0.12431,0.69018,-0.080613,0.047775,-0.04,-0.04,-0.09,92.91
14062,5.2597e+07,0,1.63,-1.53,16.28,0.013064,0.0036229,-0.36467,0.13012,0.70131,-0.088674,0.049608,-0.04,-0.04,-0.09,92.91
14102,5.2607e+07,0,1.63,-1.53,16.28,0.01292,0.0036049,-0.36327,0.13026,0.70131,-0.088674,0.051564,-0.04,-0.04,-0.09,92.91
14144,5.2618e+07,0,1.63,-1.53,16.28,0.012886,0.0037585,-0.36303,0.12864,0.70131,-0.088674,0.047935,-0.04,-0.04,-0.09,92.91
14185,5.2628e+07,0,1.63,-1.53,16.28,0.012919,0.0035668,-0.36173,0.12408,0.70131,-0.088674,0.049696,-0.03,-0.04,-0.09,92.91
14230,5.2638e+07,0,1.63,-1.53,16.28,0.012878,0.0034576,-0.36022,0.11916,0.70131,-0.088674,0.051218,-0.03,-0.04,-0.09,92.91
14271,5.2648e+07,0,1.63,-1.54,16.27,0.012807,0.0032126,-0.35896,0.11049,0.70131,-0.088674,0.052525,-0.03,-0.04,-0.09,92.91
14312,5.2658e+07,0,1.63,-1.54,16.27,0.012684,0.0031032,-0.35892,0.10089,0.70131,-0.088674,0.04894,-0.03,-0.04,-0.09,92.91
14353,5.2668e+07,0,1.63,-1.54,16.27,0.012614,0.0030573,-0.35772,0.086076,0.70131,-0.088674,0.050095,-0.03,-0.04,-0.09,92.91
14393,5.2678e+07,0,1.63,-1.54,16.27,0.012655,0.00302,-0.35642,0.070684,0.70131,-0.088674,0.051047,-0.03,-0.04,-0.09,92.91
14434,5.2691e+07,0,1.63,-1.54,16.27,0.012745,0.003013,-0.3547,0.055888,0.70131,-0.088674,0.052256,-0.03,-0.04,-0.09,92.91
14475,5.2702e+07,0,1.63,-1.54,16.27,0.012749,0.0029348,-0.35328,0.054297,0.70131,-0.088674,0.054245,-0.03,-0.04,-0.09,92.91
14515,5.2713e+07,0,1.63,-1.54,16.27,0.012678,0.0028715,-0.35173,0.057436,0.70131,-0.088674,0.056313,-0.03,-0.04,-0.09,92.91
14558,5.2723e+07,0,1.63,-1.54,16.27,0.012705,0.0028625,-0.35045,0.060221,0.70131,-0.088674,0.058133,-0.03,-0.04,-0.09,92.91
14598,5.2733e+07,0,1.62,-1.54,16.27,0.012734,0.0029372,-0.35032,0.067069,0.70131,-0.088674,0.054633,-0.03,-0.04,-0.09,92.91
14643,5.2743e+07,0,1.63,-1.54,16.26,0.012685,0.0028097,-0.34888,0.070167,0.70131,-0.088674,0.056239,-0.03,-0.04,-0.09,92.91
14683,5.2753e+07,0,1.63,-1.54,16.26,0.012692,0.0028065,-0.34767,0.071405,0.70131,-0.088674,0.057615,-0.03,-0.04,-0.09,92.91
14724,5.2763e+07,0,1.62,-1.54,16.26,0.012455,0.0026971,-0.34654,0.068334,0.70131,-0.088674,0.058787,-0.03,-0.04,-0.09,92.91
14769,5.2775e+07,0,1.63,-1.54,16.26,0.012363,0.0025906,-0.34487,0.068945,0.70131,-0.088674,0.061183,-0.03,-0.04,-0.09,92.91
14812,5.2789e+07,0,1.63,-1.54,16.26,0.01243,0.0023729,-0.34333,0.08217,0.71244,-0.096735,0.06327,-0.03,-0.04,-0.09,92.91
14854,5.2799e+07,0,1.63,-1.54,16.26,0.012375,0.002133,-0.34176,0.090302,0.71244,-0.096735,0.066115,-0.03,-0.04,-0.09,92.91
14895,5.2809e+07,0,1.63,-1.53,16.26,0.012223,0.001807,-0.3402,0.10706,0.71244,-0.096735,0.06832,-0.03,-0.04,-0.09,92.91
14936,5.282e+07,0,1.63,-1.53,16.27,0.012128,0.0017526,-0.33873,0.11504,0.71244,-0.096735,0.07061,-0.03,-0.04,-0.09,92.91
14979,5.283e+07,0,1.63,-1.53,16.27,0.012168,0.0016861,-0.33755,0.12588,0.71244,-0.096735,0.072298,-0.04,-0.04,-0.09,92.91
15026,5.2843e+07,0,1.63,-1.53,16.27,0.012096,0.0018278,-0.336,0.13372,0.71244,-0.096735,0.073089,-0.04,-0.04,-0.09,92.91
15067,5.2854e+07,0,1.63,-1.53,16.27,0.012161,0.0020567,-0.3355,0.13794,0.71244,-0.096735,0.069734,-0.04,-0.04,-0.09,92.91
15107,5.2864e+07,0,1.63,-1.53,16.27,0.012036,0.0020028,-0.33395,0.13701,0.71244,-0.096735,0.071338,-0.03,-0.04,-0.09,92.91
15148,5.2874e+07,0,1.63,-1.53,16.27,0.011999,0.0019961,-0.33279,0.13329,0.71244,-0.096735,0.072719,-0.04,-0.04,-0.09,92.91
15186,5.2884e+07,0,1.63,-1.53,16.27,0.011906,0.0018668,-0.33125,0.12772,0.71244,-0.096735,0.075374,-0.03,-0.04,-0.09,92.91
15224,5.2894e+07,0,1.63,-1.53,16.27,0.011765,0.0017612,-0.32965,0.12271,0.71244,-0.096735,0.078098,-0.03,-0.04,-0.09,92.91
15265,5.2905e+07,0,1.63,-1.53,16.27,0.011758,0.0017207,-0.32975,0.12551,0.71244,-0.096735,0.074805,-0.03,-0.04,-0.09,92.91
15305,5.2915e+07,0,1.63,-1.53,16.27,0.011577,0.0016597,-0.32835,0.1267,0.71244,-0.096735,0.077284,-0.03,-0.04,-0.09,92.91
15347,5.2925e+07,0,1.63,-1.53,16.27,0.011247,0.0017387,-0.32681,0.13238,0.71244,-0.096735,0.079488,-0.03,-0.04,-0.09,92.91
15390,5.2935e+07,0,1.63,-1.53,16.27,0.011138,0.0017824,-0.32553,0.13547,0.71244,-0.096735,0.081448,-0.03,-0.04,-0.09,92.91
15437,5.2945e+07,0,1.63,-1.53,16.27,0.011026,0.0017587,-0.32437,0.13853,0.71244,-0.096735,0.082837,-0.04,-0.04,-0.09,92.91
15479,5.2955e+07,0,1.63,-1.53,16.27,0.011012,0.001715,-0.32279,0.1381,0.71244,-0.096735,0.08433,-0.04,-0.04,-0.09,92.91
15519,5.2965e+07,0,1.63,-1.53,16.27,0.010948,0.0016523,-0.32147,0.13188,0.71244,-0.096735,0.085626,-0.04,-0.04,-0.09,92.91
15560,5.2975e+07,0,1.63,-1.53,16.27,0.010738,0.0016889,-0.32142,0.12753,0.71244,-0.096735,0.082416,-0.04,-0.04,-0.09,92.91
15598,5.2988e+07,0,1.63,-1.53,16.27,0.010589,0.0015021,-0.31872,0.12539,0.71244,-0.096735,0.090467,-0.04,-0.04,-0.09,92.91
15638,5.2999e+07,0,1.63,-1.53,16.27,0.010552,0.0013382,-0.31702,0.13183,0.71244,-0.096735,0.092634,-0.04,-0.04,-0.09,92.91
15680,5.3009e+07,0,1.63,-1.53,16.27,0.010597,0.0011887,-0.3169,0.13958,0.72357,-0.1048,0.089467,-0.04,-0.04,-0.09,92.91
15722,5.302e+07,0,1.63,-1.53,16.27,0.010618,0.0010166,-0.31548,0.14356,0.72357,-0.1048,0.091728,-0.04,-0.04,-0.09,92.91
15763,5.303e+07,0,1.63,-1.53,16.27,0.010409,0.00095598,-0.31404,0.14137,0.72357,-0.1048,0.093141,-0.04,-0.04,-0.09,92.91
15803,5.304e+07,0,1.63,-1.53,16.26,0.01033,0.00093274,-0.31263,0.13812,0.72357,-0.1048,0.094953,-0.04,-0.04,-0.09,92.91
15849,5.305e+07,0,1.63,-1.53,16.26,0.010294,0.00087441,-0.3114,0.13536,0.72357,-0.1048,0.096532,-0.04,-0.04,-0.09,92.91
15890,5.3061e+07,0,1.63,-1.53,16.26,0.010296,0.00089743,-0.31002,0.12901,0.72357,-0.1048,0.097604,-0.04,-0.04,-0.09,92.91
15931,5.3072e+07,0,1.63,-1.53,16.26,0.010211,0.00094245,-0.30965,0.12467,0.72357,-0.1048,0.094509,-0.04,-0.04,-0.09,92.91
15971,5.3082e+07,0,1.63,-1.53,16.26,0.01013,0.0011175,-0.30833,0.11684,0.72357,-0.1048,0.095715,-0.04,-0.04,-0.09,92.91
16006,5.3092e+07,0,1.63,-1.53,16.26,0.010075,0.001076,-0.30661,0.11311,0.72357,-0.1048,0.098684,-0.04,-0.04,-0.09,92.91
16047,5.3102e+07,0,1.63,-1.53,16.26,0.0099907,0.0011391,-0.30541,0.11642,0.72357,-0.1048,0.10167,-0.04,-0.04,-0.09,92.91
16087,5.3113e+07,0,1.63,-1.53,16.26,0.0099721,0.00096942,-0.30406,0.11827,0.72357,-0.1048,0.1044,-0.04,-0.04,-0.09,92.91
16128,5.3123e+07,0,1.63,-1.53,16.26,0.010039,0.00070891,-0.30386,0.12073,0.72357,-0.1048,0.10136,-0.04,-0.04,-0.09,92.91
16168,5.3133e+07,0,1.63,-1.53,16.26,0.010088,0.00067238,-0.30242,0.12187,0.72357,-0.1048,0.10389,-0.03,-0.04,-0.09,92.91
16209,5.3143e+07,0,1.63,-1.53,16.25,0.010069,0.00066668,-0.30102,0.11627,0.72357,-0.1048,0.10621,-0.03,-0.04,-0.09,92.91
16256,5.3153e+07,0,1.63,-1.53,16.25,0.010038,0.00047755,-0.29964,0.11222,0.72357,-0.1048,0.10829,-0.03,-0.04,-0.09,92.91
16298,5.3163e+07,0,1.63,-1.53,16.25,0.0099082,0.00052455,-0.29859,0.11228,0.72357,-0.1048,0.10983,-0.03,-0.04,-0.09,92.91
16339,5.3173e+07,0,1.63,-1.52,16.26,0.0097519,0.00062172,-0.29829,0.11457,0.72357,-0.1048,0.10685,-0.03,-0.04,-0.09,92.91
16379,5.3183e+07,0,1.63,-1.52,16.25,0.0096235,0.00061502,-0.2969,0.11498,0.72357,-0.1048,0.10848,-0.03,-0.04,-0.09,92.91
16422,5.3196e+07,0,1.63,-1.52,16.25,0.009669,0.00062979,-0.29535,0.12096,0.7347,-0.11286,0.11101,-0.03,-0.04,-0.09,92.91
16462,5.3206e+07,0,1.63,-1.52,16.25,0.0096185,0.00054582,-0.29381,0.12832,0.7347,-0.11286,0.11416,-0.03,-0.04,-0.09,92.91
16503,5.3217e+07,0,1.63,-1.52,16.25,0.0093865,0.00054523,-0.29208,0.13498,0.7347,-0.11286,0.11677,-0.03,-0.04,-0.09,92.91
16545,5.3227e+07,0,1.63,-1.52,16.25,0.0093338,0.00044285,-0.29067,0.14052,0.7347,-0.11286,0.11941,-0.03,-0.04,-0.09,92.91
16585,5.3237e+07,0,1.63,-1.52,16.25,0.0094426,0.00038135,-0.28944,0.14184,0.7347,-0.11286,0.12182,-0.03,-0.04,-0.09,92.91
16626,5.3247e+07,0,1.63,-1.52,16.25,0.0091929,0.00057439,-0.28919,0.14736,0.7347,-0.11286,0.11893,-0.03,-0.04,-0.09,92.91
16671,5.3257e+07,0,1.63,-1.52,16.26,0.0091352,0.00020495,-0.28779,0.15095,0.7347,-0.11286,0.12111,-0.03,-0.04,-0.09,92.91
16712,5.3267e+07,0,1.63,-1.52,16.26,0.0088948,0.00023834,-0.28627,0.15033,0.7347,-0.11286,0.12308,-0.03,-0.04,-0.09,92.91
16756,5.3278e+07,0,1.63,-1.52,16.26,0.0089337,0.00018164,-0.2853,0.14518,0.7347,-0.11286,0.12484,-0.03,-0.04,-0.09,92.91
16796,5.3291e+07,0,1.63,-1.52,16.26,0.0088866,0.00014091,-0.2835,0.14131,0.7347,-0.11286,0.12733,-0.03,-0.04,-0.09,92.91
16837,5.3301e+07,0,1.63,-1.52,16.26,0.0087232,9.3683e-05,-0.28185,0.14467,0.7347,-0.11286,0.13065,-0.03,-0.04,-0.09,92.91
16878,5.3312e+07,0,1.63,-1.52,16.26,0.0084845,-9.7655e-05,-0.28022,0.14892,0.7347,-0.11286,0.13344,-0.03,-0.04,-0.09,92.91
16918,5.3323e+07,0,1.63,-1.52,16.26,0.0085019,-0.00020958,-0.28012,0.15731,0.7347,-0.11286,0.13064,-0.03,-0.04,-0.09,92.91
16959,5.3333e+07,0,1.63,-1.52,16.26,0.0084421,-0.00050011,-0.27861,0.16269,0.7347,-0.11286,0.13348,-0.03,-0.04,-0.09,92.91
16999,5.3343e+07,0,1.63,-1.52,16.27,0.0082626,-0.00069669,-0.27722,0.16689,0.7347,-0.11286,0.13606,-0.03,-0.04,-0.09,92.91
17048,5.3355e+07,0,1.63,-1.52,16.27,0.0081078,-0.00074212,-0.27597,0.16859,0.7347,-0.11286,0.13758,-0.03,-0.04,-0.09,92.91
17090,5.3365e+07,0,1.63,-1.52,16.27,0.0081021,-0.00076176,-0.27447,0.16817,0.7347,-0.11286,0.1397,-0.03,-0.04,-0.09,92.91
17132,5.3376e+07,0,1.62,-1.52,16.27,0.0079381,-0.00080546,-0.2732,0.16752,0.7347,-0.11286,0.14159,-0.03,-0.04,-0.09,92.91
17173,5.3388e+07,0,1.63,-1.52,16.27,0.0077364,-0.0010084,-0.27175,0.16844,0.7347,-0.11286,0.14453,-0.03,-0.04,-0.09,92.91
17217,5.3401e+07,0,1.63,-1.52,16.27,0.0076121,-0.0010701,-0.27032,0.17145,0.7347,-0.11286,0.14747,-0.03,-0.04,-0.09,92.91
17258,5.3411e+07,0,1.63,-1.52,16.28,0.0074354,-0.0011912,-0.26902,0.17434,0.7347,-0.11286,0.15068,-0.03,-0.04,-0.09,92.91
17299,5.3421e+07,0,1.63,-1.52,16.28,0.0074709,-0.0012036,-0.26872,0.183,0.7347,-0.11286,0.14772,-0.03,-0.04,-0.09,92.91
17340,5.3432e+07,0,1.63,-1.52,16.28,0.0074218,-0.00138,-0.26726,0.18634,0.7347,-0.11286,0.15071,-0.03,-0.04,-0.09,92.91
17380,5.3442e+07,0,1.63,-1.52,16.28,0.0074847,-0.0016093,-0.26577,0.18899,0.7347,-0.11286,0.15344,-0.03,-0.04,-0.09,92.91
17421,5.3452e+07,0,1.63,-1.52,16.28,0.0074526,-0.0018213,-0.26448,0.18743,0.7347,-0.11286,0.15594,-0.03,-0.04,-0.09,92.91
17466,5.3462e+07,0,1.63,-1.52,16.28,0.0073941,-0.0020091,-0.26326,0.18458,0.7347,-0.11286,0.1582,-0.03,-0.04,-0.09,92.91
17507,5.3473e+07,0,1.63,-1.52,16.28,0.0073988,-0.0022709,-0.26278,0.18438,0.7347,-0.11286,0.15531,-0.03,-0.04,-0.09,92.91
17548,5.3482e+07,0,1.63,-1.52,16.28,0.007255,-0.0023755,-0.26146,0.17912,0.7347,-0.11286,0.1574,-0.03,-0.04,-0.09,92.91
17585,5.3493e+07,0,1.63,-1.52,16.28,0.0072305,-0.0025116,-0.26027,0.17273,0.7347,-0.11286,0.15926,-0.03,-0.04,-0.09,92.91
17623,5.3503e+07,0,1.63,-1.52,16.28,0.0073094,-0.0025762,-0.25865,0.16626,0.7347,-0.11286,0.16303,-0.03,-0.04,-0.09,92.91
17664,5.3513e+07,0,1.63,-1.52,16.27,0.0072487,-0.0028212,-0.25703,0.16878,0.7347,-0.11286,0.16675,-0.03,-0.04,-0.09,92.91
17704,5.3524e+07,0,1.62,-1.52,16.27,0.0071406,-0.0028146,-0.25536,0.17292,0.7347,-0.11286,0.16996,-0.03,-0.04,-0.09,92.91
17744,5.3534e+07,0,1.63,-1.52,16.27,0.0071486,-0.0029136,-0.25515,0.18192,0.7347,-0.11286,0.16741,-0.03,-0.04,-0.09,92.91
17784,5.3544e+07,0,1.63,-1.52,16.27,0.0071544,-0.0030018,-0.2537,0.18794,0.7347,-0.11286,0.17062,-0.03,-0.04,-0.09,92.91
17825,5.3554e+07,0,1.63,-1.52,16.27,0.0072094,-0.002964,-0.25234,0.19298,0.7347,-0.11286,0.17358,-0.03,-0.04,-0.09,92.91
17870,5.3564e+07,0,1.63,-1.52,16.27,0.0071157,-0.0029121,-0.2507,0.19406,0.7347,-0.11286,0.17629,-0.03,-0.04,-0.09,92.91
17911,5.3574e+07,0,1.63,-1.52,16.27,0.0069127,-0.0029587,-0.24932,0.19346,0.7347,-0.11286,0.17878,-0.03,-0.04,-0.09,92.91
17955,5.3585e+07,0,1.63,-1.52,16.27,0.0069341,-0.0030213,-0.24922,0.19556,0.74584,-0.11286,0.17629,-0.03,-0.04,-0.09,92.91
17995,5.3595e+07,0,1.63,-1.52,16.27,0.0068351,-0.0031963,-0.24799,0.1935,0.74584,-0.11286,0.17856,-0.03,-0.04,-0.09,92.91
18033,5.3607e+07,0,1.63,-1.52,16.27,0.00671,-0.0033136,-0.2464,0.19421,0.74584,-0.11286,0.18171,-0.03,-0.04,-0.09,92.91
18074,5.3617e+07,0,1.63,-1.52,16.27,0.0066572,-0.0035285,-0.24493,0.20145,0.74584,-0.11286,0.1853,-0.03,-0.04,-0.09,92.91
18114,5.3628e+07,0,1.63,-1.52,16.26,0.0064142,-0.0036963,-0.2435,0.20054,0.74584,-0.11286,0.18866,-0.03,-0.04,-0.09,92.91
18155,5.3638e+07,0,1.63,-1.52,16.26,0.0062936,-0.003756,-0.24228,0.19939,0.74584,-0.11286,0.19152,-0.03,-0.04,-0.09,92.91
18196,5.3649e+07,0,1.63,-1.52,16.26,0.006317,-0.003847,-0.24208,0.20285,0.74584,-0.11286,0.1891,-0.03,-0.04,-0.09,92.91
18241,5.3659e+07,0,1.63,-1.52,16.26,0.0062841,-0.004048,-0.24031,0.20372,0.74584,-0.11286,0.19198,-0.03,-0.04,-0.09,92.91
18282,5.3669e+07,0,1.63,-1.52,16.26,0.0062115,-0.0041136,-0.23894,0.2055,0.74584,-0.11286,0.19437,-0.03,-0.04,-0.09,92.91
18324,5.3679e+07,0,1.63,-1.52,16.26,0.0061952,-0.0041873,-0.23764,0.20502,0.74584,-0.11286,0.19677,-0.03,-0.04,-0.09,92.91
18365,5.369e+07,0,1.63,-1.52,16.26,0.0060304,-0.0043381,-0.23632,0.20007,0.74584,-0.11286,0.19896,-0.03,-0.04,-0.09,92.91
18405,5.3703e+07,0,1.63,-1.52,16.26,0.0059466,-0.0043261,-0.23434,0.19773,0.74584,-0.11286,0.20253,-0.03,-0.04,-0.09,92.91
18446,5.3713e+07,0,1.63,-1.52,16.26,0.0059745,-0.0043274,-0.23253,0.2025,0.74584,-0.11286,0.20649,-0.03,-0.04,-0.09,92.91
18483,5.3723e+07,0,1.63,-1.52,16.26,0.0059365,-0.0043941,-0.23133,0.20783,0.74584,-0.11286,0.21017,-0.03,-0.04,-0.09,92.91
18524,5.3733e+07,0,1.63,-1.52,16.26,0.0057006,-0.0043496,-0.22973,0.219,0.74584,-0.11286,0.21333,-0.03,-0.04,-0.09,92.91
18565,5.3744e+07,0,1.63,-1.52,16.26,0.0057706,-0.0044036,-0.22948,0.23043,0.74584,-0.11286,0.21104,-0.03,-0.04,-0.09,92.91
18606,5.3753e+07,0,1.63,-1.52,16.25,0.0058347,-0.0044399,-0.22793,0.23665,0.74584,-0.11286,0.2142,-0.03,-0.04,-0.09,92.91
18651,5.3763e+07,0,1.63,-1.52,16.26,0.0057566,-0.0044642,-0.22649,0.24014,0.74584,-0.11286,0.21712,-0.03,-0.04,-0.09,92.91
18693,5.3774e+07,0,1.63,-1.52,16.26,0.0059197,-0.0045384,-0.22501,0.24348,0.74584,-0.11286,0.21957,-0.03,-0.04,-0.09,92.91
18736,5.3784e+07,0,1.63,-1.52,16.26,0.0059902,-0.0046274,-0.22359,0.24268,0.74584,-0.11286,0.22202,-0.03,-0.04,-0.09,92.91
18774,5.3795e+07,0,1.63,-1.52,16.25,0.0057836,-0.0047984,-0.22179,0.24403,0.7681,-0.12092,0.2261,-0.03,-0.04,-0.09,92.91
18818,5.3807e+07,0,1.63,-1.52,16.25,0.0057664,-0.0049696,-0.22005,0.25004,0.7681,-0.12092,0.22968,-0.03,-0.04,-0.09,92.91
18856,5.3817e+07,0,1.63,-1.52,16.25,0.0057231,-0.0049367,-0.21826,0.25712,0.7681,-0.12092,0.23342,-0.03,-0.04,-0.09,92.91
18897,5.3827e+07,0,1.63,-1.52,16.25,0.0055137,-0.0049492,-0.21661,0.26208,0.7681,-0.12092,0.2369,-0.03,-0.04,-0.09,92.91
18938,5.3837e+07,0,1.63,-1.52,16.25,0.0054743,-0.004848,-0.21598,0.27019,0.7681,-0.12092,0.23473,-0.03,-0.04,-0.09,92.91
18978,5.3847e+07,0,1.63,-1.52,16.25,0.0054878,-0.0048857,-0.21473,0.27248,0.7681,-0.12092,0.23799,-0.03,-0.04,-0.09,92.91
19019,5.3858e+07,0,1.63,-1.52,16.26,0.00533,-0.0048651,-0.2132,0.27063,0.7681,-0.12092,0.24081,-0.03,-0.04,-0.09,92.91
19065,5.3868e+07,0,1.63,-1.52,16.26,0.0052048,-0.0049807,-0.2116,0.2646,0.7681,-0.12092,0.24362,-0.03,-0.04,-0.09,92.91
19105,5.3878e+07,0,1.63,-1.52,16.26,0.0051609,-0.0049898,-0.21131,0.2569,0.7681,-0.12092,0.24151,-0.03,-0.04,-0.09,92.91
19146,5.3888e+07,0,1.63,-1.52,16.26,0.0050182,-0.0050265,-0.20999,0.24328,0.7681,-0.12092,0.24418,-0.03,-0.04,-0.09,92.91
19190,5.3901e+07,0,1.63,-1.52,16.26,0.0050053,-0.0051442,-0.20827,0.22665,0.7681,-0.12092,0.24601,-0.03,-0.04,-0.09,92.91
19228,5.3911e+07,0,1.63,-1.52,16.26,0.004928,-0.0053493,-0.20658,0.21722,0.7681,-0.12092,0.25027,-0.03,-0.04,-0.09,92.91
19269,5.3922e+07,0,1.63,-1.52,16.26,0.0048817,-0.0055301,-0.20495,0.21611,0.7681,-0.12092,0.25422,-0.03,-0.04,-0.09,92.91
19310,5.3932e+07,0,1.63,-1.52,16.26,0.0048287,-0.0056979,-0.20319,0.21738,0.7681,-0.12092,0.25791,-0.03,-0.04,-0.09,92.91
19352,5.3942e+07,0,1.63,-1.52,16.26,0.0047652,-0.0057448,-0.20252,0.22426,0.7681,-0.12092,0.25548,-0.03,-0.04,-0.09,92.91
19393,5.3953e+07,0,1.63,-1.52,16.26,0.00461,-0.0059186,-0.20116,0.22478,0.7681,-0.12092,0.25896,-0.03,-0.04,-0.09,92.91
19435,5.3963e+07,0,1.63,-1.52,16.26,0.0045412,-0.0060257,-0.19986,0.22546,0.7681,-0.12092,0.26219,-0.03,-0.04,-0.09,92.91
19479,5.3973e+07,0,1.63,-1.52,16.26,0.0045029,-0.0061209,-0.19856,0.22388,0.7681,-0.12092,0.26499,-0.03,-0.04,-0.09,92.91
19520,5.3983e+07,0,1.63,-1.52,16.26,0.0043038,-0.0061315,-0.19728,0.21866,0.7681,-0.12092,0.26778,-0.03,-0.04,-0.09,92.91
19565,5.3993e+07,0,1.63,-1.52,16.27,0.0043099,-0.0062041,-0.19688,0.21769,0.77923,-0.12092,0.26581,-0.03,-0.04,-0.09,92.91
19605,5.4003e+07,0,1.63,-1.52,16.27,0.0041928,-0.0062546,-0.19593,0.21499,0.77923,-0.12092,0.26839,-0.03,-0.04,-0.09,92.91
19644,5.4013e+07,0,1.63,-1.52,16.27,0.0042786,-0.0064066,-0.19426,0.21282,0.77923,-0.12092,0.27231,-0.03,-0.04,-0.09,92.91
19684,5.4026e+07,0,1.63,-1.52,16.27,0.0040802,-0.0065207,-0.19287,0.21448,0.77923,-0.12092,0.27558,-0.03,-0.04,-0.09,92.91
19726,5.4035e+07,0,1.63,-1.52,16.27,0.0041854,-0.0063548,-0.19147,0.21448,0.77923,-0.12092,0.279,-0.03,-0.04,-0.09,92.91
19767,5.4046e+07,0,1.63,-1.52,16.27,0.0039857,-0.0063409,-0.19144,0.21369,0.77923,-0.12092,0.27689,-0.03,-0.04,-0.09,92.91
19807,5.4056e+07,0,1.63,-1.52,16.27,0.0039158,-0.0064384,-0.1899,0.21136,0.77923,-0.12092,0.28013,-0.03,-0.04,-0.09,92.91
19852,5.4066e+07,0,1.63,-1.52,16.27,0.0036514,-0.0064056,-0.18866,0.20305,0.77923,-0.12092,0.28316,-0.03,-0.04,-0.09,92.91
19895,5.4079e+07,0,1.63,-1.52,16.27,0.0034624,-0.006279,-0.18718,0.19637,0.77923,-0.12092,0.28542,-0.03,-0.04,-0.09,92.91
19937,5.409e+07,0,1.63,-1.52,16.27,0.0034869,-0.0063759,-0.18615,0.1889,0.77923,-0.12092,0.28784,-0.03,-0.04,-0.09,92.91
19977,5.4101e+07,0,1.63,-1.51,16.27,0.0034854,-0.0066717,-0.18566,0.18642,0.77923,-0.12092,0.28598,-0.03,-0.04,-0.09,92.91
20017,5.4111e+07,0,1.63,-1.51,16.27,0.0033942,-0.0068387,-0.18448,0.18106,0.77923,-0.12092,0.28821,-0.03,-0.04,-0.09,92.91
20058,5.4121e+07,0,1.63,-1.52,16.27,0.003262,-0.0070546,-0.18306,0.17912,0.77923,-0.12092,0.29246,-0.03,-0.04,-0.09,92.91
20101,5.4133e+07,0,1.63,-1.52,16.27,0.0030622,-0.0071893,-0.18182,0.18395,0.77923,-0.12092,0.29606,-0.03,-0.04,-0.09,92.91
20143,5.4144e+07,0,1.63,-1.52,16.27,0.0029703,-0.0072309,-0.18059,0.18784,0.77923,-0.12092,0.29976,-0.03,-0.04,-0.09,92.91
20184,5.4154e+07,0,1.63,-1.52,16.27,0.0028852,-0.0072859,-0.17892,0.19282,0.77923,-0.12092,0.30304,-0.03,-0.04,-0.09,92.91
20225,5.4165e+07,0,1.63,-1.52,16.27,0.0027701,-0.0074502,-0.17873,0.2011,0.77923,-0.12092,0.30126,-0.03,-0.04,-0.09,92.91
20274,5.4175e+07,0,1.63,-1.52,16.27,0.0026073,-0.0074233,-0.17735,0.20641,0.77923,-0.12092,0.3045,-0.03,-0.04,-0.09,92.91
20314,5.4185e+07,0,1.63,-1.52,16.27,0.0024386,-0.0073581,-0.17594,0.20928,0.79036,-0.12898,0.30733,-0.03,-0.04,-0.09,92.91
20355,5.4195e+07,0,1.63,-1.51,16.27,0.0022639,-0.0074074,-0.17451,0.21072,0.79036,-0.12898,0.31012,-0.03,-0.04,-0.09,92.91
20395,5.4205e+07,0,1.63,-1.51,16.27,0.0022828,-0.0075262,-0.17308,0.20825,0.79036,-0.12898,0.3127,-0.03,-0.04,-0.09,92.91
20437,5.4216e+07,0,1.63,-1.51,16.27,0.0023143,-0.0073922,-0.17283,0.20847,0.79036,-0.12898,0.31097,-0.03,-0.04,-0.09,92.91
20475,5.4226e+07,0,1.63,-1.51,16.27,0.0023257,-0.0075319,-0.17143,0.20905,0.79036,-0.12898,0.3146,-0.03,-0.04,-0.08,92.91
20515,5.4236e+07,0,1.63,-1.52,16.27,0.0022576,-0.0075653,-0.16982,0.21138,0.79036,-0.12898,0.31797,-0.03,-0.04,-0.08,92.91
20557,5.4246e+07,0,1.63,-1.52,16.27,0.0022212,-0.0074526,-0.16847,0.21125,0.79036,-0.12898,0.32111,-0.03,-0.04,-0.08,92.91
20597,5.4259e+07,0,1.63,-1.52,16.27,0.0020058,-0.0076607,-0.16701,0.2121,0.79036,-0.12898,0.32353,-0.03,-0.04,-0.08,92.91
20640,5.4269e+07,0,1.63,-1.52,16.27,0.0018719,-0.0077037,-0.16564,0.20941,0.79036,-0.12898,0.32608,-0.03,-0.04,-0.08,92.91
20685,5.4279e+07,0,1.63,-1.52,16.27,0.0017178,-0.0077958,-0.16528,0.20953,0.79036,-0.12898,0.32443,-0.03,-0.04,-0.08,92.91
20726,5.4289e+07,0,1.63,-1.52,16.27,0.0016277,-0.0078969,-0.164,0.20678,0.79036,-0.12898,0.32696,-0.03,-0.04,-0.08,92.91
20767,5.4299e+07,0,1.63,-1.51,16.26,0.001591,-0.0079185,-0.16292,0.20287,0.79036,-0.12898,0.32928,-0.03,-0.04,-0.08,92.91
20807,5.4309e+07,0,1.63,-1.51,16.26,0.0014049,-0.0079588,-0.1618,0.19596,0.79036,-0.12898,0.33142,-0.03,-0.04,-0.08,92.91
20845,5.4323e+07,0,1.63,-1.51,16.26,0.0011913,-0.0083015,-0.16026,0.19095,0.79036,-0.12898,0.33476,-0.03,-0.04,-0.08,92.91
20885,5.4333e+07,0,1.63,-1.51,16.26,0.0011054,-0.0083209,-0.15899,0.19277,0.79036,-0.12898,0.33832,-0.03,-0.04,-0.08,92.91
20926,5.4343e+07,0,1.63,-1.51,16.26,0.00090793,-0.008276,-0.15758,0.196,0.79036,-0.12898,0.34163,-0.03,-0.04,-0.08,92.91
20969,5.4353e+07,0,1.63,-1.51,16.26,0.0008262,-0.0083178,-0.15663,0.20329,0.79036,-0.12898,0.34453,-0.03,-0.04,-0.08,92.91
21009,5.4363e+07,0,1.63,-1.52,16.26,0.0010007,-0.0083841,-0.15639,0.21147,0.79036,-0.12898,0.34297,-0.03,-0.04,-0.08,92.91
21054,5.4374e+07,0,1.63,-1.52,16.26,0.0010978,-0.0082667,-0.15513,0.2155,0.79036,-0.12898,0.34583,-0.03,-0.04,-0.08,92.91
21096,5.4384e+07,0,1.63,-1.52,16.26,0.0011018,-0.0082504,-0.15408,0.21602,0.79036,-0.12898,0.34834,-0.03,-0.04,-0.08,92.91
21137,5.4395e+07,0,1.63,-1.52,16.25,0.0010038,-0.0082667,-0.15267,0.21685,0.79036,-0.13704,0.35063,-0.03,-0.04,-0.08,92.91
21179,5.4405e+07,0,1.63,-1.52,16.25,0.0008426,-0.008417,-0.1516,0.20929,0.79036,-0.13704,0.35292,-0.03,-0.04,-0.08,92.91
21219,5.4421e+07,0,1.63,-1.51,16.25,0.00082197,-0.0085015,-0.14991,0.20267,0.79036,-0.13704,0.35636,-0.03,-0.04,-0.08,92.91
21263,5.4433e+07,0,1.63,-1.51,16.25,0.0007984,-0.0088031,-0.14836,0.20372,0.79036,-0.13704,0.35986,-0.03,-0.04,-0.08,92.91
21304,5.4444e+07,0,1.63,-1.51,16.25,0.00056903,-0.0088776,-0.14664,0.20584,0.79036,-0.13704,0.36342,-0.03,-0.04,-0.08,92.91
21345,5.4454e+07,0,1.63,-1.51,16.25,0.00051515,-0.0089574,-0.14634,0.21311,0.79036,-0.13704,0.36196,-0.03,-0.04,-0.08,92.91
21387,5.4464e+07,0,1.63,-1.51,16.25,0.00052726,-0.0089806,-0.14474,0.22058,0.79036,-0.13704,0.36544,-0.03,-0.04,-0.08,92.91
21427,5.4474e+07,0,1.63,-1.51,16.25,0.00040052,-0.0092593,-0.1433,0.22488,0.79036,-0.13704,0.36869,-0.03,-0.04,-0.08,92.91
21472,5.4484e+07,0,1.63,-1.51,16.25,0.00042508,-0.009221,-0.14196,0.22805,0.79036,-0.13704,0.37172,-0.03,-0.04,-0.08,92.91
21513,5.4494e+07,0,1.63,-1.51,16.24,0.00040303,-0.0091741,-0.14027,0.23174,0.79036,-0.13704,0.37452,-0.03,-0.04,-0.08,92.91
21553,5.4504e+07,0,1.63,-1.51,16.24,0.00026509,-0.0093232,-0.13912,0.23231,0.79036,-0.13704,0.37712,-0.03,-0.04,-0.08,92.91
21594,5.4518e+07,0,1.63,-1.51,16.24,0.00016712,-0.0091458,-0.13743,0.23684,0.79036,-0.13704,0.38099,-0.03,-0.04,-0.08,92.91
21632,5.4528e+07,0,1.63,-1.51,16.24,0.00012092,-0.0090295,-0.13578,0.24079,0.79036,-0.13704,0.38489,-0.03,-0.04,-0.08,92.91
21673,5.4539e+07,0,1.63,-1.51,16.24,6.2231e-05,-0.0091336,-0.13533,0.24969,0.79036,-0.13704,0.38354,-0.03,-0.04,-0.08,92.91
21714,5.4549e+07,0,1.63,-1.51,16.24,-4.0472e-05,-0.0091932,-0.13367,0.25618,0.79036,-0.13704,0.38736,-0.03,-0.04,-0.08,92.91
