LineNo,TimeUS,ThI,ABst,ThO,ThH,DAlt,Alt,BAlt,DSAlt,SAlt,TAlt,DCRt,CRt
752,19672117,0,0,0,0.2479322,0,0.2889987,0.32,NaN,0,-88.69801,0,0
1797,20009739,0,0,0,0.2479322,0,0.3763079,-0.01,NaN,0,-89.04046,0,54
2183,20110878,0,0,0,0.2479322,0,0.4203185,0.23,NaN,0,-88.79098999999999,0,54
2596,20212320,0,0,0,0.2479322,0,0.4606571,0.35,NaN,0,-88.66665999999999,0,53
3010,20314460,0,0,0,0.2479322,0,0.5011238,0.08,NaN,0,-88.94087,0,52
3417,20415244,0,0,0,0.2479322,0,0.5356199,0.3,NaN,0,-88.72047000000001,0,51
3826,20515328,0,0,0,0.2479322,0,0.5695295,0.21,NaN,0,-88.81628000000001,0,51
4235,20616330,0,0,0,0.2479322,0,0.5957005,0.11,NaN,0,-88.90953,0,49
4646,20718122,0,0,0,0.2479322,0,0.6184189,0.2,NaN,0,-88.8232,0,48
5028,20819914,0,0,0,0.2479322,0,0.6375948,0.19,NaN,0,-88.83450000000001,0,47
5439,20922194,0,0,0,0.2479322,0,0.6492833,0.12,NaN,0,-88.90282000000001,0,45
5849,21023018,0,0,0,0.2479322,0,0.6585452000000001,0.12,NaN,0,-88.90282000000001,0,44
6257,21124082,0,0,0,0.2479322,0,0.6639903,0.09,NaN,0,-88.93394000000001,0,42
6665,21224352,0,0,0,0.2479322,0,0.6641632,0.06,NaN,0,-88.97068,0,40
7073,21324940,0,0,0,0.2479322,0,0.6603092,0.07000000000000001,NaN,0,-88.96043,0,39
7455,21425400,0,0,0,0.2479322,0,0.6525317,0.18,NaN,0,-88.85023,0,36
7864,21527070,0,0,0,0.2479322,0,0.6467319,0.01,NaN,0,-89.02771,0,35
8271,21628218,0,0,0,0.2479322,0,0.6372613,0.04,NaN,0,-88.99097,0,33
8680,21731375,0,0,0,0.2479322,0,0.6188952,0.28,NaN,0,-88.75955999999999,0,30
9085,21832784,0,0,0,0.2479322,0,0.6081261,0.16,NaN,0,-88.87541,0,29
9387,21933699,0,0,0,0.2479322,0,0.5980948,0.19,NaN,0,-88.85294,0,27
9798,22033706,0,0,0,0.2479322,0,0.5889314,0.02,NaN,0,-89.01682,0,25
10210,22135187,0,0,0,0.2479322,0,0.5753683000000001,0.18,NaN,0,-88.86077,0,23
10617,22235881,0,0,0,0.2479322,0,0.5621504000000001,0.05,NaN,0,-88.99075999999999,0,22
11031,22337172,0,0,0,0.2479322,0,0.5474467,0.04,NaN,0,-89.00143,0,20
11441,22438103,0,0,0,0.2479322,0,0.529767,0.2,NaN,0,-88.84035,0,18
11823,22538717,0,0,0,0.2479322,0,0.5129416999999999,-0.1,NaN,0,-89.15355,0,17
12232,22640834,0,0,0,0.2479322,0,0.4928654,0.25,NaN,0,-88.80034000000001,0,15
12644,22741334,0,0,0,0.2479322,0,0.4736587,0.43,NaN,0,-88.61451,0,13
13054,22844466,0,0,0,0.2479322,0,0.4620209,0.2,NaN,0,-88.84904,0,12
13463,22945883,0,0,0,0.2479322,0,0.4526557,-0.03,NaN,0,-89.0951,0,10
13873,23047747,0,0,0,0.2479322,0,0.4354939,0.39,NaN,0,-88.65994000000001,0,9
14288,23149863,0,0,0,0.2479322,0,0.4242664,0.2,NaN,0,-88.85419,0,7
14699,23250274,0,0,0,0.2479322,0,0.4146246,0.27,NaN,0,-88.78355000000001,0,6
15115,23352129,0,0,0,0.2479322,0,0.4054704,0.27,NaN,0,-88.78865,0,5
15497,23453676,0,0,0,0.2479322,0,0.3969064,0.05,NaN,0,-89.00341,0,4
15910,23555037,0,0,0,0.2479322,0,0.3831382,0.21,NaN,0,-88.84359000000001,0,3
16321,23656667,0,0,0,0.2479322,0,0.3700351,0.46,NaN,0,-88.59775999999999,0,2
16737,23759664,0,0,0,0.2479322,0,0.3620182,0.31,NaN,0,-88.75169,0,1
17151,23861134,0,0,0,0.2479322,0,0.3558343,0.32,NaN,0,-88.74039,0,0
17565,23962696,0,0,0,0.2479322,0,0.3504241,0.45,NaN,0,-88.60441,0,0
17948,24064145,0,0,0,0.2479322,0,0.3476328,0.39,NaN,0,-88.6694,0,-1
18361,24164735,0,0,0,0.2479322,0,0.346132,0.39,NaN,0,-88.66538,0,-2
18771,24266344,0,0,0,0.2479322,0,0.3452823,0.3,NaN,0,-88.7576,0,-2
19180,24368122,0,0,0,0.2479322,0,0.3426712,0.33,NaN,0,-88.72651999999999,0,-3
19592,24469267,0,0,0,0.2479322,0,0.3390628,0.09,NaN,0,-88.96088,0,-4
19999,24569926,0,0,0,0.2479322,0,0.3307769,0.17,NaN,0,-88.88741,0,-4
20409,24673333,0,0,0,0.2479322,0,0.3176711,0.02,NaN,0,-89.03758999999999,0,-5
20789,24774194,0,0,0,0.2479322,0,0.3018964,0.25,NaN,0,-88.80023,0,-6
21200,24876239,0,0,0,0.2479322,0,0.2844481,0.28,NaN,0,-88.77171,0,-7
21610,24978170,0,0,0,0.2479322,0,0.2685495,0.18,NaN,0,-88.87061,0,-8
22023,25080595,0,0,0,0.2479322,0,0.2537101,0.26,NaN,0,-88.79942,0,-9
22429,25182096,0,0,0,0.2479322,0,0.2393098,-0.18,NaN,0,-89.24871,0,-10
22845,25282732,0,0,0,0.2479322,0,0.2199203,0,NaN,0,-89.05920999999999,0,-10
23227,25384056,0,0,0,0.2479322,0,0.1941146,0.29,NaN,0,-88.76533999999999,0,-12
23639,25485631,0,0,0,0.2479322,0,0.1735559,-0.11,NaN,0,-89.17574,0,-13
24020,25586083,0,0,0,0.2479322,0,0.1501718,0.35,NaN,0,-88.70949,0,-14
24431,25687875,0,0,0,0.2479322,0,0.1308281,0,NaN,0,-89.06225000000001,0,-14
24839,25789949,0,0,0,0.2479322,0,0.1110775,0.06,NaN,0,-89.00291,0,-15
25226,25891541,0,0,0,0.2479322,0,0.09012118,-0.2,NaN,0,-0.009878817999999999,0,-16
25637,25993620,0,0,0,0.2479322,0,0.06498632999999999,0.26,NaN,0,-0.03501366,0,-16
26046,26094094,0,0,0,0.2479322,0,0.04336743,0.1,NaN,0,-0.05731158,0,-17
26456,26194808,0,0,0,0.2479322,0,0.02450336,-0.09,NaN,0,-0.07617564,0,-18
26865,26295661,0,0,0,0.2479322,0,0.003352542,0,NaN,0,-0.1010267,0,-19
27277,26396602,0,0,0,0.2479322,0,-0.01878516,-0.15,NaN,0,-0.1231644,0,-20
27692,26498168,0,0,0,0.2479322,0,-0.04339514,0,NaN,0,-0.1490256,0,-21
28099,26600084,0,0,0,0.2479322,0,-0.06796700999999999,-0.23,NaN,0,-0.1735975,0,-22
28512,26700700,0,0,0,0.2479322,0,-0.09467576,0.27,NaN,0,-0.2025798,0,-22
28923,26800898,0,0,0,0.2479322,0,-0.1166769,0.11,NaN,0,-0.2245809,0,-23
29332,26902842,0,0,0,0.2479322,0,-0.1344508,0.21,NaN,0,-0.2442851,0,-23
29740,27004175,0,0,0,0.2479322,0,-0.1475036,0.04,NaN,0,-0.2573379,0,-24
30123,27104935,0,0,0,0.2479322,0,-0.1606914,0.37,NaN,0,-0.2703502,0,-24
30529,27206153,0,0,0,0.2479322,0,-0.1692957,0.33,NaN,0,-0.2789545,0,-24
30943,27308415,0,0,0,0.2479322,0,-0.174689,0.12,NaN,0,-0.2863696,0,-25
31353,27409855,0,0,0,0.2479322,0,-0.1773084,0.3,NaN,0,-0.2889889,0,-25
31768,27511924,0,0,0,0.2479322,0,-0.1813574,0.17,NaN,0,-0.293534,0,-25
32146,27612790,0,0,0,0.2479322,0,-0.1852248,0.49,NaN,0,-0.2974013,0,-25
32560,27714667,0,0,0,0.2479322,0,-0.1857851,0.37,NaN,0,-0.2993044,0,-25
32969,27815330,0,0,0,0.2479322,0,-0.1828707,0.42,NaN,0,-0.29639,0,-25
33380,27918146,0,0,0,0.2479322,0,-0.1786786,0.38,NaN,0,-0.2930447,0,-25
33786,28019699,0,0,0,0.2479322,0,-0.1732929,0.24,NaN,0,-0.2876591,0,-25
34194,28121337,0,0,0,0.2479322,0,-0.1694992,0.36,NaN,0,-0.283606,0,-25
34602,28222191,0,0,0,0.2479322,0,-0.1658056,-0.15,NaN,0,-0.2799124,0,-25
34987,28323065,0,0,0,0.2479322,0,-0.1683601,0.32,NaN,0,-0.2814445,0,-25
35393,28424942,0,0,0,0.2479322,0,-0.1718592,0.37,NaN,0,-0.2849436,0,-25
35803,28526635,0,0,0,0.2479322,0,-0.1766974,0.2,NaN,0,-0.2905371,0,-25
36213,28626852,0,0,0,0.2479322,0,-0.178193,0.14,NaN,0,-0.2920328,0,-25
36595,28729474,0,0,0,0.2479322,0,-0.1812588,0.21,NaN,0,-0.2942517,0,-25
37003,28831665,0,0,0,0.2479322,0,-0.1830864,0.05,NaN,0,-0.2960793,0,-25
37417,28933867,0,0,0,0.2479322,0,-0.1903122,0.1,NaN,0,-0.3056702,0,-25
37822,29034657,0,0,0,0.2479322,0,-0.1993649,-0.11,NaN,0,-0.3147229,0,-26
38233,29135299,0,0,0,0.2479322,0,-0.211829,-0.04,NaN,0,-0.3269276,0,-26
38643,29236574,0,0,0,0.2479322,0,-0.2270506,0.14,NaN,0,-0.3421492,0,-27
39053,29338129,0,0,0,0.2479322,0,-0.2410087,-0.2,NaN,0,-0.3572135,0,-27
39461,29439086,0,0,0,0.2479322,0,-0.2580484,0.37,NaN,0,-0.3742533,0,-27
39872,29541142,0,0,0,0.2479322,0,-0.2719557,-0.06,NaN,0,-0.3881606,0,-28
40281,29642086,0,0,0,0.2479322,0,-0.2843428,-0.06,NaN,0,-0.4030882,0,-28
40692,29742927,0,0,0,0.2479322,0,-0.2976339,0.32,NaN,0,-0.4172185,0,-28
41103,29844547,0,0,0,0.2479322,0,-0.3083161,0.34,NaN,0,-0.4279008,0,-28
41516,29945763,0,0,0,0.2479322,0,-0.3151933,0.47,NaN,0,-0.4370592,0,-28
41930,30049648,0,0,0,0.2479322,0,-0.3134548,0.02,NaN,0,-0.4353206,0,-28
42344,30151285,0,0,0,0.2479322,0,-0.3161867,0.44,NaN,0,-0.4422716,0,-28
42758,30254200,0,0,0,0.2479322,0,-0.3178017,0.31,NaN,0,-0.4438866,0,-28
43148,30355175,0,0,0,0.2479322,0,-0.3164204,-0.13,NaN,0,-0.4433598,0,-28
43560,30456655,0,0,0,0.2479322,0,-0.3167931,-0.01,NaN,0,-0.4437325,0,-28
43975,30559884,0,0,0,0.2479322,0,-0.3250022,0.16,NaN,0,-0.4527884,0,-28
44388,30662242,0,0,0,0.2479322,0,-0.3313709,0.06,NaN,0,-0.4591572,0,-28
44802,30762840,0,0,0,0.2479322,0,-0.3418766,0.26,NaN,0,-0.4694873,0,-28
45219,30863970,0,0,0,0.2479322,0,-0.3474956,0.02,NaN,0,-0.4751064,0,-28
45630,30965662,0,0,0,0.2479322,0,-0.3532411,0.1,NaN,0,-0.4808519,0,-28
46040,31067144,0,0,0,0.2479322,0,-0.3599965,0.12,NaN,0,-0.4876073,0,-28
46427,31169116,0,0,0,0.2479322,0,-0.3636107,0.32,NaN,0,-0.4913969,0,-28
46838,31269371,0,0,0,0.2479322,0,-0.3668205,0.18,NaN,0,-0.4946068,0,-28
47247,31369938,0,0,0,0.2479322,0,-0.3719569,0.2,NaN,0,-0.4995677,0,-28
47653,31471328,0,0,0,0.2479322,0,-0.3700868,0.24,NaN,0,-0.4976976,0,-28
48037,31571233,0,0,0,0.2479322,0,-0.3704634,0.11,NaN,0,-0.4997603,0,-28
48446,31671727,0,0,0,0.2479322,0,-0.3713923,0.33,NaN,0,-0.4988275,0,-27
48856,31772823,0,0,0,0.2479322,0,-0.3708546,0.03,NaN,0,-0.4982899,0,-27
49266,31873958,0,0,0,0.2479322,0,-0.3715946,0.14,NaN,0,-0.49903,0,-27
49674,31975223,0,0,0,0.2479322,0,-0.373092,0.44,NaN,0,-0.5003518,0,-27
50084,32075948,0,0,0,0.2479322,0,-0.3709297,0.3,NaN,0,-0.4981896,0,-26
50494,32175867,0,0,0,0.2479322,0,-0.3667444,0.65,NaN,0,-0.4940042,0,-26
50908,32276838,0,0,0,0.2479322,0,-0.3591703,0.31,NaN,0,-0.4879484,0,-26
51314,32378763,0,0,0,0.2479322,0,-0.3455125,0.39,NaN,0,-0.4742906,0,-25
51723,32480616,0,0,0,0.2479322,0,-0.3361122,0.79,NaN,0,-0.4657296,0,-25
52101,32581753,0,0,0,0.2479322,0,-0.3229676,0.5,NaN,0,-0.4525849,0,-24
52509,32683722,0,0,0,0.2479322,0,-0.3069161,0.41,NaN,0,-0.4392419,0,-24
52920,32784937,0,0,0,0.2479322,0,-0.2913355,0.5,NaN,0,-0.4236612,0,-23
53327,32887189,0,0,0,0.2479322,0,-0.2758378,0.6899999999999999,NaN,0,-0.4100327,0,-22
53707,32988912,0,0,0,0.2479322,0,-0.2530246,0.58,NaN,0,-0.3872195,0,-22
54117,33090643,0,0,0,0.2479322,0,-0.2341819,0.82,NaN,0,-0.3698951,0,-21
54528,33193648,0,0,0,0.2479322,0,-0.2141936,0.71,NaN,0,-0.3499069,0,-21
54940,33295833,0,0,0,0.2479322,0,-0.1870523,0.39,NaN,0,-0.3244592,0,-20
55349,33397948,0,0,0,0.2479322,0,-0.1637945,0.83,NaN,0,-0.3012014,0,-19
55759,33498652,0,0,0,0.2479322,0,-0.1439195,0.48,NaN,0,-0.2819978,0,-18
56165,33598950,0,0,0,0.2479322,0,-0.1249506,0.58,NaN,0,-0.2630289,0,-18
56254,50817122,0,0,0,0.2479322,0,0.4846857,0.34,NaN,0,0.2459451,0,1
56670,50919219,0,0,0,0.2479322,0,0.4882433,0.42,NaN,0,0.2495027,0,2
57085,51019682,0,0,0,0.2479322,0,0.49152,0.68,NaN,0,0.2527794,0,2
57493,51121578,0,0,0,0.2479322,0,0.4976148,0.3,NaN,0,0.260568,0,2
57905,51222679,0,0,0,0.2479322,0,0.5043493999999999,0.63,NaN,0,0.2673025,0,2
58314,51325744,0,0,0,0.2479322,0,0.5123094,0.64,NaN,0,0.2752626,0,3
58726,51427129,0,0,0,0.2479322,0,0.5215241,0.35,NaN,0,0.2853242,0,3
59108,51529636,0,0,0,0.2479322,0,0.5286648,0.22,NaN,0,0.2924649,0,3
59523,51631594,0,0,0,0.2479322,0,0.5319455,0.5600000000000001,NaN,0,0.2957456,0,3
59931,51734562,0,0,0,0.2479322,0,0.5373405999999999,0.63,NaN,0,0.3028344,0,3
60343,51835158,0,0,0,0.2479322,0,0.5436453999999999,0.46,NaN,0,0.3091392,0,3
60755,51939038,0,0,0,0.2479322,0,0.5514562,0.5600000000000001,NaN,0,0.3169499,0,4
61167,52039182,0,0,0,0.2479322,0,0.5584427,0.41,NaN,0,0.3247757,0,4
61549,52141567,0,0,0,0.2479322,0,0.564588,0.54,NaN,0,0.3307531,0,4
61961,52244065,0,0,0,0.2479322,0,0.5697833,0.33,NaN,0,0.3359485,0,4
62371,52345262,0,0,0,0.2479322,0,0.5771701,0.39,NaN,0,0.3441745,0,4
62784,52445735,0,0,0,0.2479322,0,0.582337,0.39,NaN,0,0.3493414,0,4
63190,52548949,0,0,0,0.2479322,0,0.5856848,0.5,NaN,0,0.3526892,0,4
63604,52651605,0,0,0,0.2479322,0,0.5878009,0.62,NaN,0,0.3563159,0,4
63985,52752891,0,0,0,0.2479322,0,0.5903423,0.48,NaN,0,0.3588574,0,4
64397,52855818,0,0,0,0.2479322,0,0.5927017999999999,0.65,NaN,0,0.3612169,0,4
64809,52956622,0,0,0,0.2479322,0,0.5966656,0.53,NaN,0,0.3651806,0,4
65222,53058096,0,0,0,0.2479322,0,0.6008435,0.55,NaN,0,0.370213,0,4
65632,53162586,0,0,0,0.2479322,0,0.6037509,0.46,NaN,0,0.372945,0,4
66046,53263305,0,0,0,0.2479322,0,0.6055928,0.65,NaN,0,0.3747869,0,4
66451,53363616,0,0,0,0.2479322,0,0.6073708,0.38,NaN,0,0.3765648,0,4
66779,53464307,0,0,0,0.2479322,0,0.6086566,0.34,NaN,0,0.3778506,0,4
67158,53565675,0,0,0,0.2479322,0,0.606652,0.53,NaN,0,0.3775245,0,4
67573,53667790,0,0,0,0.2479322,0,0.604461,0.62,NaN,0,0.3753335,0,4
67980,53768836,0,0,0,0.2479322,0,0.60351,0.66,NaN,0,0.3743825,0,4
68391,53869840,0,0,0,0.2479322,0,0.6045378,0.67,NaN,0,0.3754103,0,4
68804,53971909,0,0,0,0.2479322,0,0.6074964,0.32,NaN,0,0.3792234,0,4
69218,54073794,0,0,0,0.2479322,0,0.6090969000000001,0.35,NaN,0,0.3808239,0,4
69597,54176307,0,0,0,0.2479322,0,0.6089209,0.6,NaN,0,0.380648,0,4
70009,54277094,0,0,0,0.2479322,0,0.6097015,0.68,NaN,0,0.3814284,0,4
70417,54378883,0,0,0,0.2479322,0,0.6099539,0.67,NaN,0,0.3825201,0,3
70830,54480051,0,0,0,0.2479322,0,0.6120897,0.87,NaN,0,0.3846559,0,3
71211,54580351,0,0,0,0.2479322,0,0.6171567999999999,0.75,NaN,0,0.389723,0,3
71594,54682772,0,0,0,0.2479322,0,0.6246022,0.72,NaN,0,0.399709,0,4
72007,54784959,0,0,0,0.2479322,0,0.6316184,0.59,NaN,0,0.4067252,0,4
72416,54886898,0,0,0,0.2479322,0,0.6376834,0.32,NaN,0,0.4127902,0,4
72830,54988099,0,0,0,0.2479322,0,0.6407321,0.65,NaN,0,0.4158389,0,4
73217,55090070,0,0,0,0.2479322,0,0.6431082,0.37,NaN,0,0.4197333,0,4
73627,55192046,0,0,0,0.2479322,0,0.644243,0.32,NaN,0,0.420868,0,3
74035,55293188,0,0,0,0.2479322,0,0.6432886,0.48,NaN,0,0.4207529,0,3
74451,55394279,0,0,0,0.2479322,0,0.6426188,0.5600000000000001,NaN,0,0.4216013,0,3
74834,55496314,0,0,0,0.2479322,0,0.6423079,0.34,NaN,0,0.4221298,0,3
75244,55598895,0,0,0,0.2479322,0,0.6403714,0.38,NaN,0,0.4208722,0,3
75654,55701699,0,0,0,0.2479322,0,0.6373053,0.71,NaN,0,0.4201635,0,3
76068,55803129,0,0,0,0.2479322,0,0.63559,0.19,NaN,0,0.4184483,0,3
76476,55904785,0,0,0,0.2479322,0,0.6313364,0.33,NaN,0,0.4158807,0,3
76891,56006159,0,0,0,0.2479322,0,0.6266569,0.21,NaN,0,0.4110258,0,3
77275,56110161,0,0,0,0.2479322,0,0.6187456,0.09,NaN,0,0.4039613,0,2
77685,56211040,0,0,0,0.2479322,0,0.6104581,0.57,NaN,0,0.3973599,0,2
78093,56313360,0,0,0,0.2479322,0,0.6036618,0.46,NaN,0,0.3914181,0,2
78477,56414581,0,0,0,0.2479322,0,0.5984091,0,NaN,0,0.3861654,0,2
78886,56517321,0,0,0,0.2479322,0,0.590675,0.38,NaN,0,0.3792706,0,2
79301,56619304,0,0,0,0.2479322,0,0.5828463,0.34,NaN,0,0.3731356,0,2
79682,56721424,0,0,0,0.2479322,0,0.5763747,0.4,NaN,0,0.3672439,0,1
80095,56824167,0,0,0,0.2479322,0,0.5714277,0.4,NaN,0,0.3639906,0,2
80504,56926166,0,0,0,0.2479322,0,0.5678747,0.57,NaN,0,0.3604375,0,1
80921,57026892,0,0,0,0.2479322,0,0.5677759,0.59,NaN,0,0.361178,0,2
81331,57130801,0,0,0,0.2479322,0,0.5694229,0.5,NaN,0,0.3645264,0,2
81716,57233086,0,0,0,0.2479322,0,0.5714653,0.17,NaN,0,0.3663857,0,2
82125,57336059,0,0,0,0.2479322,0,0.5709815,0.5600000000000001,NaN,0,0.3667411,0,2
82538,57439214,0,0,0,0.2479322,0,0.5704039,0.34,NaN,0,0.3668425,0,2
82948,57542172,0,0,0,0.2479322,0,0.5703073,0.32,NaN,0,0.369195,0,2
83362,57644050,0,0,0,0.2479322,0,0.568754,0.41,NaN,0,0.3693354,0,2
83771,57745756,0,0,0,0.2479322,0,0.5671157999999999,0.51,NaN,0,0.3681016,0,2
84184,57845680,0,0,0,0.2479322,0,0.5661904,0.52,NaN,0,0.3688699,0,2
84593,57948890,0,0,0,0.2479322,0,0.5675266,0.55,NaN,0,0.3708698,0,2
84981,58051139,0,0,0,0.2479322,0,0.5696186,0.4,NaN,0,0.3738087,0,2
85389,58153230,0,0,0,0.2479322,0,0.5711277,0.4,NaN,0,0.376836,0,2
85803,58252682,0,0,0,0.2479322,0,0.5716063,0.54,NaN,0,0.3779784,0,2
86216,58356147,0,0,0,0.2479322,0,0.5744367,0.64,NaN,0,0.3825025,0,2
86629,58456744,0,0,0,0.2479322,0,0.5779269,0.62,NaN,0,0.3866717,0,2
87012,58560552,0,0,0,0.2479322,0,0.582379,0.46,NaN,0,0.3934813,0,2
87425,58662738,0,0,0,0.2479322,0,0.5852973,0.75,NaN,0,0.3962242,0,2
87809,58765075,0,0,0,0.2479322,0,0.5881302,0.59,NaN,0,0.3997208,0,2
88218,58867715,0,0,0,0.2479322,0,0.5913865,0.57,NaN,0,0.4046708,0,2
88633,58969907,0,0,0,0.2479322,0,0.596123,0.5600000000000001,NaN,0,0.4099871,0,2
89047,59078072,0,0,0,0.2479322,0,0.5999703,0.72,NaN,0,0.4153527,0,2
89460,59182136,0,0,0,0.2479322,0,0.6046724,0.14,NaN,0,0.4209017,0,2
89872,59286345,0,0,0,0.2479322,0,0.6052839,0.4,NaN,0,0.4215131,0,2
90286,59388048,0,0,0,0.2479322,0,0.605023,0.59,NaN,0,0.4219236,0,2
90698,59490861,0,0,0,0.2479322,0,0.6051189,0.46,NaN,0,0.4237056,0,2
91112,59593970,0,0,0,0.2479322,0,0.6060498,0.53,NaN,0,0.4253994,0,2
91523,59697648,0,0,0,0.2479322,0,0.606625,0.49,NaN,0,0.4259747,0,2
91936,59799846,0,0,0,0.2479322,0,0.6075853,0.4,NaN,0,0.4292085,0,2
92345,59902695,0,0,0,0.2479322,0,0.6074932,0.18,NaN,0,0.4291164,0,2
92763,60003472,0,0,0,0.2479322,0,0.6048747,0.26,NaN,0,0.4280162,0,2
93147,60105616,0,0,0,0.2479322,0,0.5991864,0.55,NaN,0,0.4231748,0,2
93561,60207636,0,0,0,0.2479322,0,0.5925071,0.57,NaN,0,0.4171669,0,2
93968,60311311,0,0,0,0.2479322,0,0.5899278999999999,0.2,NaN,0,0.4161898,0,2
94384,60414151,0,0,0,0.2479322,0,0.5873488,0.62,NaN,0,0.4159682,0,2
94795,60516578,0,0,0,0.2479322,0,0.5862532,0.35,NaN,0,0.4157194,0,2
95209,60618163,0,0,0,0.2479322,0,0.5851694,0.52,NaN,0,0.4161539,0,2
95619,60720186,0,0,0,0.2479322,0,0.5838796000000001,0.54,NaN,0,0.4163823,0,2
96031,60821571,0,0,0,0.2479322,0,0.584076,0.16,NaN,0,0.4165788,0,2
96441,60921886,0,0,0,0.2479322,0,0.5815672,0.46,NaN,0,0.4164275,0,2
96857,61023339,0,0,0,0.2479322,0,0.5775863,0.41,NaN,0,0.4139724,0,2
97241,61127086,0,0,0,0.2479322,0,0.5744223000000001,0.32,NaN,0,0.4116476,0,2
97653,61229072,0,0,0,0.2479322,0,0.570949,0.29,NaN,0,0.4096926,0,2
98063,61330784,0,0,0,0.2479322,0,0.5680953,0.31,NaN,0,0.4083495,0,2
98477,61430504,0,0,0,0.2479322,0,0.5648155,0.47,NaN,0,0.4067634,0,2
98845,61531620,0,0,0,0.2479322,0,0.5621647,0.37,NaN,0,0.4047841,0,2
99259,61634536,0,0,0,0.2479322,0,0.5595083,0.62,NaN,0,0.403562,0,2
99638,61737139,0,0,0,0.2479322,0,0.5598112,0.6899999999999999,NaN,0,0.4061308,0,2
100053,61839697,0,0,0,0.2479322,0,0.563346,0.23,NaN,0,0.4105201,0,2
100460,61941548,0,0,0,0.2479322,0,0.5648147,0.42,NaN,0,0.4128281,0,2
100874,62042941,0,0,0,0.2479322,0,0.5650902,0.57,NaN,0,0.4154686,0,2
101283,62146909,0,0,0,0.2479322,0,0.5651321,0.59,NaN,0,0.4169448,0,2
101695,62248291,0,0,0,0.2479322,0,0.5661959,0.48,NaN,0,0.4205492,0,2
102077,62349894,0,0,0,0.2479322,0,0.5667989,0.46,NaN,0,0.421816,0,2
102490,62451624,0,0,0,0.2479322,0,0.5668008,0.36,NaN,0,0.4241754,0,2
102901,62553813,0,0,0,0.2479322,0,0.5646745,0.35,NaN,0,0.4227281,0,2
103314,62655791,0,0,0,0.2479322,0,0.5616826,0.59,NaN,0,0.4212469,0,2
103722,62757810,0,0,0,0.2479322,0,0.5599653999999999,0.42,NaN,0,0.4210555,0,1
104135,62860088,0,0,0,0.2479322,0,0.558906,0.48,NaN,0,0.4215143,0,1
104545,62960685,0,0,0,0.2479322,0,0.5567198,0.35,NaN,0,0.4201674,0,1
104962,63060826,0,0,0,0.2479322,0,0.5539432,0.64,NaN,0,0.418909,0,1
105369,63165158,0,0,0,0.2479322,0,0.5526073,0.46,NaN,0,0.4182445,0,1
105782,63266158,0,0,0,0.2479322,0,0.5521952,0.41,NaN,0,0.4192591,0,1
106162,63368322,0,0,0,0.2479322,0,0.5479501,0.68,NaN,0,0.4156854,0,1
106576,63470867,0,0,0,0.2479322,0,0.5457916,0.3,NaN,0,0.4143814,0,1
106988,63574204,0,0,0,0.2479322,0,0.5436875,0.42,NaN,0,0.4139558,0,1
107397,63677326,0,0,0,0.2479322,0,0.5415301,0.42,NaN,0,0.4125689,0,1
107810,63778401,0,0,0,0.2479322,0,0.541068,0.25,NaN,0,0.4121068,0,1
108218,63879614,0,0,0,0.2479322,0,0.5381024,0.42,NaN,0,0.4108274,0,0
108633,63980850,0,0,0,0.2479322,0,0.5347923999999999,0.43,NaN,0,0.4073418,0,0
109014,64081971,0,0,0,0.2479322,0,0.5318292,0.25,NaN,0,0.4052332,0,0
109431,64185692,0,0,0,0.2479322,0,0.5287667,0.45,NaN,0,0.4038644,0,0
109838,64286840,0,0,0,0.2479322,0,0.5261872,0.25,NaN,0,0.4021241,0,0
110251,64388345,0,0,0,0.2479322,0,0.5228755,0.68,NaN,0,0.3993922,0,0
110661,64491091,0,0,0,0.2479322,0,0.5214942,0.75,NaN,0,0.3980109,0,0
111076,64593661,0,0,0,0.2479322,0,0.5244089,0.48,NaN,0,0.4024515,0,0
111456,64696089,0,0,0,0.2479322,0,0.5273972,0.66,NaN,0,0.4062791,0,0
111869,64796924,0,0,0,0.2479322,0,0.5318233,0.45,NaN,0,0.4123989,0,0
112279,64899326,0,0,0,0.2479322,0,0.5355601,0.49,NaN,0,0.4159679,0,0
112692,65000836,0,0,0,0.2479322,0,0.539428,0.58,NaN,0,0.4198357,0,0
113103,65101972,0,0,0,0.2479322,0,0.5432708000000001,0.44,NaN,0,0.4245177,0,0
113517,65203162,0,0,0,0.2479322,0,0.5467061,0.45,NaN,0,0.4277776,0,0
113923,65305414,0,0,0,0.2479322,0,0.548894,0.53,NaN,0,0.4316669,0,0
114311,65407143,0,0,0,0.2479322,0,0.550758,0.48,NaN,0,0.4333554,0,0
114724,65510223,0,0,0,0.2479322,0,0.5524,0.5,NaN,0,0.4358366,0,0
115135,65611953,0,0,0,0.2479322,0,0.5540167,0.3,NaN,0,0.4381323,0,0
115513,65713742,0,0,0,0.2479322,0,0.5544908,0.39,NaN,0,0.4403001,0,0
115926,65814471,0,0,0,0.2479322,0,0.5545297,0.27,NaN,0,0.4403391,0,0
115936,104860061,0,0,0,0.2479322,0,0.4788658,0.31,NaN,0,0.008865843,0,-1
116381,104963377,0,0,0,0.2479322,0,0.4757809,0.5600000000000001,NaN,0,0.005780974,0,-1
116805,105069255,0,0,0,0.2479322,0,0.4732665,0.59,NaN,0,0.002595166,0,-1
117259,105171171,0,0,0,0.2479322,0,0.4716572,0.51,NaN,0,0.0009858701000000001,0,-1
117715,105272348,0,0,0,0.2479322,0,0.4703144,0.6,NaN,0,-0.00102078,0,-1
118162,105372803,0,0,0,0.2479322,0,0.4685165,0.62,NaN,0,-0.002818575,0,-1
118611,105473944,0,0,0,0.2479322,0,0.4672593,0.39,NaN,0,-0.005594065,0,-1
119031,105576651,0,0,0,0.2479322,0,0.4662159,0.53,NaN,0,-0.006637504,0,-1
119482,105679720,0,0,0,0.2479322,0,0.4650433,0.49,NaN,0,-0.008473804,0,-1
119935,105781780,0,0,0,0.2479322,0,0.4633073,0.8,NaN,0,-0.01020988,0,-1
120387,105885852,0,0,0,0.2479322,0,0.4628119,0.39,NaN,0,-0.01053732,0,-1
120838,105987861,0,0,0,0.2479322,0,0.4639367,0.54,NaN,0,-0.01110627,0,-1
121288,106091195,0,0,0,0.2479322,0,0.4647983,0.39,NaN,0,-0.01006921,0,-1
121742,106191859,0,0,0,0.2479322,0,0.4652777,0.61,NaN,0,-0.009589871,0,-1
122195,106296783,0,0,0,0.2479322,0,0.4653878,0.48,NaN,0,-0.009479751999999999,0,-1
122646,106398941,0,0,0,0.2479322,0,0.4645112,0.5600000000000001,NaN,0,-0.01018079,0,-1
123062,106501758,0,0,0,0.2479322,0,0.4636298,0.61,NaN,0,-0.01190912,0,-1
123516,106602764,0,0,0,0.2479322,0,0.4629879,0.49,NaN,0,-0.01229163,0,-1
123935,106706721,0,0,0,0.2479322,0,0.4623152,0.44,NaN,0,-0.0129643,0,-1
124389,106808927,0,0,0,0.2479322,0,0.4611615,0.53,NaN,0,-0.01411801,0,-1
124840,106910853,0,0,0,0.2479322,0,0.4605949,0.49,NaN,0,-0.01619529,0,-1
125292,107013906,0,0,0,0.2479322,0,0.4608711,0.54,NaN,0,-0.01591908,0,-1
125739,107116225,0,0,0,0.2479322,0,0.4612645,0.76,NaN,0,-0.01552563,0,-1
126194,107218389,0,0,0,0.2479322,0,0.463027,0.5600000000000001,NaN,0,-0.01452609,0,0
126644,107322669,0,0,0,0.2479322,0,0.4663191,0.34,NaN,0,-0.01207315,0,-1
127095,107423922,0,0,0,0.2479322,0,0.4692969,0.52,NaN,0,-0.009095361,0,0
127823,107628176,0,0,0,0.2479322,0,0.4726796,0.84,NaN,0,-0.007818421000000001,0,0
128272,107729918,0,0,0,0.2479322,0,0.4741263,0.5600000000000001,NaN,0,-0.006371668,0,0
128726,107832178,0,0,0,0.2479322,0,0.4758179,0.74,NaN,0,-0.004504671,0,-1
129176,107935801,0,0,0,0.2479322,0,0.4778721,0.5,NaN,0,-0.004136523,0,0
129597,108037046,0,0,0,0.2479322,0,0.4805912,0.61,NaN,0,-0.001417449,0,0
130048,108141070,0,0,0,0.2479322,0,0.4818966,0.53,NaN,0,-0.0007834341,0,-1
130502,108241858,0,0,0,0.2479322,0,0.4827715,0.66,NaN,0,9.141304e-05,0,0
130921,108344200,0,0,0,0.2479322,0,0.4839305,0.71,NaN,0,-0.0003516581,0,-1
131371,108445264,0,0,0,0.2479322,0,0.4856481,0.52,NaN,0,0.001365909,0,0
131819,108548716,0,0,0,0.2479322,0,0.4891671,0.79,NaN,0,0.004213462,0,0
132244,108650337,0,0,0,0.2479322,0,0.4926082,0.57,NaN,0,0.007654587,0,0
132585,108753265,0,0,0,0.2479322,0,0.4938873,0.73,NaN,0,0.008086869,0,0
133036,108854273,0,0,0,0.2479322,0,0.495111,0.64,NaN,0,0.007799903,0,0
133487,108959408,0,0,0,0.2479322,0,0.4979871,0.64,NaN,0,0.009829173,0,0
133906,109060665,0,0,0,0.2479322,0,0.5007563,1.31,NaN,0,0.01276616,0,0
134355,109163957,0,0,0,0.2479322,0,0.5066303,0.97,NaN,0,0.0169541,0,0
134807,109264173,0,0,0,0.2479322,0,0.5131031,0.87,NaN,0,0.02258001,0,0
135225,109365667,0,0,0,0.2479322,0,0.51869,0.8100000000000001,NaN,0,0.02630536,0,0
135679,109467070,0,0,0,0.2479322,0,0.5241717,0.79,NaN,0,0.03178702,0,0
136129,109570715,0,0,0,0.2479322,0,0.5289062,0.6899999999999999,NaN,0,0.03584258,0,0
136583,109673037,0,0,0,0.2479322,0,0.5331517,0.54,NaN,0,0.04008809,0,0
136999,109775655,0,0,0,0.2479322,0,0.5360671,0.68,NaN,0,0.04216418,0,0
137452,109875908,0,0,0,0.2479322,0,0.5379096,0.5600000000000001,NaN,0,0.04400674,0,0
137901,109979562,0,0,0,0.2479322,0,0.5385101,0.74,NaN,0,0.04308895,0,0
138319,110081422,0,0,0,0.2479322,0,0.5398166,0.71,NaN,0,0.04439548,0,-1
138774,110183883,0,0,0,0.2479322,0,0.5438119,0.7,NaN,0,0.04754392,0,1
139222,110287321,0,0,0,0.2479322,0,0.5480680999999999,0.28,NaN,0,0.05011401,0,-2
139679,110389699,0,0,0,0.2479322,0,0.5504784,0.28,NaN,0,0.05185292,0,0
140128,110492692,0,0,0,0.2479322,0,0.5512699,0.35,NaN,0,0.05179767,0,-1
140582,110593777,0,0,0,0.2479322,0,0.5512913,0.66,NaN,0,0.05181894,0,0
141034,110697177,0,0,0,0.2479322,0,0.5514774,0.47,NaN,0,0.05031899,0,0
141488,110798176,0,0,0,0.2479322,0,0.5511667,0.67,NaN,0,0.05018375,0,0
141933,110900070,0,0,0,0.2479322,0,0.5508402999999999,0.51,NaN,0,0.0490028,0,0
142388,111000687,0,0,0,0.2479322,0,0.5501748,0.62,NaN,0,0.04664359,0,0
142838,111102965,0,0,0,0.2479322,0,0.5500133,0.42,NaN,0,0.04648212,0,0
143287,111204686,0,0,0,0.2479322,0,0.5503243,0.88,NaN,0,0.04595391,0,0
143737,111307654,0,0,0,0.2479322,0,0.5510491,0.38,NaN,0,0.04498491,0,0
144189,111408109,0,0,0,0.2479322,0,0.5501894000000001,0.67,NaN,0,0.04327837,0,0
144638,111510800,0,0,0,0.2479322,0,0.5483477,0.6,NaN,0,0.04143665,0,0
145090,111612782,0,0,0,0.2479322,0,0.5454835,0.54,NaN,0,0.03773323,0,0
145505,111715092,0,0,0,0.2479322,0,0.5428123,0.47,NaN,0,0.03336839,0,0
145956,111817279,0,0,0,0.2479322,0,0.5392761,0.82,NaN,0,0.0298321,0,-1
146405,111920834,0,0,0,0.2479322,0,0.5382011,0.74,NaN,0,0.02791027,0,0
146860,112021891,0,0,0,0.2479322,0,0.5384923,0.9399999999999999,NaN,0,0.02650771,0,-1
147316,112125789,0,0,0,0.2479322,0,0.5404482,0.38,NaN,0,0.02863912,0,0
147735,112230580,0,0,0,0.2479322,0,0.53992,0.76,NaN,0,0.02727167,0,0
148184,112333916,0,0,0,0.2479322,0,0.5428113,0.27,NaN,0,0.0284693,0,0
148638,112437332,0,0,0,0.2479322,0,0.5427473,0.86,NaN,0,0.02755842,0,0
149086,112541955,0,0,0,0.2479322,0,0.5476008999999999,0.79,NaN,0,0.03267143,0,0
149543,112645666,0,0,0,0.2479322,0,0.556447,0.42,NaN,0,0.04067824,0,0
149991,112750872,0,0,0,0.2479322,0,0.5638281000000001,0.59,NaN,0,0.0463656,0,0
150443,112851734,0,0,0,0.2479322,0,0.5685571,0.5,NaN,0,0.05033938,0,0
150892,112955469,0,0,0,0.2479322,0,0.5723948,0.41,NaN,0,0.05417708,0,0
151347,113058595,0,0,0,0.2479322,0,0.5732782,0.6899999999999999,NaN,0,0.05336676,0,0
151795,113162846,0,0,0,0.2479322,0,0.5759174,0.46,NaN,0,0.0551667,0,0
152216,113265245,0,0,0,0.2479322,0,0.5770369,0.71,NaN,0,0.05628613,0,0
152664,113368263,0,0,0,0.2479322,0,0.5781863,0.48,NaN,0,0.0559173,0,0
153119,113471649,0,0,0,0.2479322,0,0.5784638,0.53,NaN,0,0.05619482,0,0
153569,113576412,0,0,0,0.2479322,0,0.5758795,0.45,NaN,0,0.05277131,0,0
154023,113682721,0,0,0,0.2479322,0,0.5722935,0.61,NaN,0,0.04833076,0,0
154439,113787832,0,0,0,0.2479322,0,0.5706206,0.3,NaN,0,0.04683337,0,0
154889,113895939,0,0,0,0.2479322,0,0.5663721,0.33,NaN,0,0.04089878,0,0
155341,114001100,0,0,0,0.2479322,0,0.5586067,0.52,NaN,0,0.03313342,0,0
155795,114105039,0,0,0,0.2479322,0,0.5519249000000001,0.67,NaN,0,0.0256047,0,0
156215,114209946,0,0,0,0.2479322,0,0.5468077,0.59,NaN,0,0.01906083,0,-1
156661,114312709,0,0,0,0.2479322,0,0.5439336,0.71,NaN,0,0.01533983,0,-1
157110,114415925,0,0,0,0.2479322,0,0.5425093,0.29,NaN,0,0.01391552,0,-1
157560,114518835,0,0,0,0.2479322,0,0.5396178,0.49,NaN,0,0.009513415000000001,0,-1
158015,114623665,0,0,0,0.2479322,0,0.5355607,0.5,NaN,0,0.003755011,0,-1
158429,114726052,0,0,0,0.2479322,0,0.5320741,0.52,NaN,0,-0.001242243,0,-1
158882,114829116,0,0,0,0.2479322,0,0.5292262,0.59,NaN,0,-0.004090093,0,-1
159330,114931076,0,0,0,0.2479322,0,0.5275064,0.46,NaN,0,-0.006473683,0,-1
159783,115034047,0,0,0,0.2479322,0,0.5253268,0.27,NaN,0,-0.01034703,0,-1
160236,115139827,0,0,0,0.2479322,0,0.5205677,0.51,NaN,0,-0.01510616,0,-2
160689,115243740,0,0,0,0.2479322,0,0.5159077,0.58,NaN,0,-0.02061298,0,-2
161140,115347842,0,0,0,0.2479322,0,0.5130625,0.66,NaN,0,-0.02515193,0,-2
161592,115451326,0,0,0,0.2479322,0,0.5121557,0.31,NaN,0,-0.0260587,0,-2
162046,115556967,0,0,0,0.2479322,0,0.5074542,0.23,NaN,0,-0.03142395,0,-2
162470,115659903,0,0,0,0.2479322,0,0.499952,0.42,NaN,0,-0.03977298,0,-2
162918,115764091,0,0,0,0.2479322,0,0.4947202,0.36,NaN,0,-0.04651546,0,-2
163371,115868823,0,0,0,0.2479322,0,0.4886746,0.57,NaN,0,-0.0534155,0,-2
163817,115972651,0,0,0,0.2479322,0,0.485433,0.5,NaN,0,-0.05835082,0,-2
164272,116075185,0,0,0,0.2479322,0,0.4827867,0.6,NaN,0,-0.06099718,0,-2
164721,116181079,0,0,0,0.2479322,0,0.4806578,0.39,NaN,0,-0.06378981,0,-2
165169,116285374,0,0,0,0.2479322,0,0.4779576,0.64,NaN,0,-0.06732922,0,-2
165621,116389798,0,0,0,0.2479322,0,0.4778385,0.61,NaN,0,-0.0691421,0,-2
166070,116494886,0,0,0,0.2479322,0,0.4783642,0.28,NaN,0,-0.06928777,0,-2
166494,116596829,0,0,0,0.2479322,0,0.475816,0.33,NaN,0,-0.07183599,0,-2
166944,116703758,0,0,0,0.2479322,0,0.4705755,0.43,NaN,0,-0.07877020999999999,0,-2
167397,116807175,0,0,0,0.2479322,0,0.4648881,0.46,NaN,0,-0.08445759999999999,0,-3
167843,116913352,0,0,0,0.2479322,0,0.4597116,0.25,NaN,0,-0.09029784,0,-3
168264,117016590,0,0,0,0.2479322,0,0.4538678,0.29,NaN,0,-0.09783532,0,-3
168715,117120934,0,0,0,0.2479322,0,0.4477547,0.24,NaN,0,-0.1047877,0,-3
169168,117224149,0,0,0,0.2479322,0,0.440573,0.59,NaN,0,-0.1128239,0,-3
169611,117329372,0,0,0,0.2479322,0,0.43623,0.41,NaN,0,-0.1185936,0,-3
170064,117433086,0,0,0,0.2479322,0,0.4330153,0.44,NaN,0,-0.1218083,0,-3
170514,117538088,0,0,0,0.2479322,0,0.4307433,0.29,NaN,0,-0.1249195,0,-3
170969,117641843,0,0,0,0.2479322,0,0.4277175,0.44,NaN,0,-0.1279454,0,-3
171418,117746080,0,0,0,0.2479322,0,0.4258397,0.46,NaN,0,-0.1296477,0,-3
171870,117848702,0,0,0,0.2479322,0,0.4242371,0.39,NaN,0,-0.132944,0,-3
172287,117951622,0,0,0,0.2479322,0,0.4221944,0.35,NaN,0,-0.1349867,0,-2
172736,118054458,0,0,0,0.2479322,0,0.4191068,0.55,NaN,0,-0.1389135,0,-3
173186,118159830,0,0,0,0.2479322,0,0.4149583,0.63,NaN,0,-0.1445803,0,-3
173639,118262703,0,0,0,0.2479322,0,0.4130253,0.53,NaN,0,-0.1471847,0,-3
174084,118367111,0,0,0,0.2479322,0,0.4121506,0.25,NaN,0,-0.1488986,0,-3
174536,118469679,0,0,0,0.2479322,0,0.4097437,0.85,NaN,0,-0.1528161,0,-3
174954,118571767,0,0,0,0.2479322,0,0.4094011,0.59,NaN,0,-0.1537461,0,-3
175406,118674738,0,0,0,0.2479322,0,0.4105397,0.2,NaN,0,-0.1542937,0,-3
175858,118775815,0,0,0,0.2479322,0,0.4104845,0.44,NaN,0,-0.1551958,0,-3
176273,118877882,0,0,0,0.2479322,0,0.4089248,0.59,NaN,0,-0.1582736,0,-3
176726,118980695,0,0,0,0.2479322,0,0.4072298,0.33,NaN,0,-0.1599687,0,-3
177178,119084935,0,0,0,0.2479322,0,0.4052798,0.3,NaN,0,-0.1627655,0,-2
177628,119188795,0,0,0,0.2479322,0,0.402954,0.61,NaN,0,-0.1657627,0,-3
178044,119291838,0,0,0,0.2479322,0,0.4017323,0.25,NaN,0,-0.1668929,0,-3
178498,119394670,0,0,0,0.2479322,0,0.3998817,0.15,NaN,0,-0.1704372,0,-3
178946,119497754,0,0,0,0.2479322,0,0.3956849,0.55,NaN,0,-0.1752138,0,-3
179400,119599605,0,0,0,0.2479322,0,0.3934662,0.14,NaN,0,-0.1774325,0,-2
179817,119701163,0,0,0,0.2479322,0,0.3894644,0.31,NaN,0,-0.1831205,0,-3
180269,119804798,0,0,0,0.2479322,0,0.384072,-0.09,NaN,0,-0.1883374,0,-3
180718,119910167,0,0,0,0.2479322,0,0.3750793,0.25,NaN,0,-0.1979938,0,-3
181173,120013593,0,0,0,0.2479322,0,0.3659611,0.32,NaN,0,-0.207112,0,-3
181622,120119625,0,0,0,0.2479322,0,0.3582034,0.19,NaN,0,-0.216388,0,-3
182075,120222549,0,0,0,0.2479322,0,0.3513156,-0.18,NaN,0,-0.2239395,0,-3
182494,120325709,0,0,0,0.2479322,0,0.3417495,0.45,NaN,0,-0.2335056,0,-3
182947,120430087,0,0,0,0.2479322,0,0.3323956,0.21,NaN,0,-0.2435386,0,-3
183398,120534801,0,0,0,0.2479322,0,0.3246763,0.35,NaN,0,-0.2512578,0,-3
183852,120639186,0,0,0,0.2479322,0,0.3175676,0,NaN,0,-0.260045,0,-3
184305,120743695,0,0,0,0.2479322,0,0.310272,0.19,NaN,0,-0.2671651,0,-3
184727,120846350,0,0,0,0.2479322,0,0.3025291,0.01,NaN,0,-0.274908,0,-3
185174,120950034,0,0,0,0.2479322,0,0.2956993,0.22,NaN,0,-0.2815623,0,-3
185629,121051963,0,0,0,0.2479322,0,0.2895573,0.2,NaN,0,-0.2877043,0,-3
186044,121157267,0,0,0,0.2479322,0,0.2841013,0.01,NaN,0,-0.2941903,0,-3
186497,121258074,0,0,0,0.2479322,0,0.278038,0.35,NaN,0,-0.3002536,0,-3
186944,121361868,0,0,0,0.2479322,0,0.2747919,0.08,NaN,0,-0.3034997,0,-3
187395,121466303,0,0,0,0.2479322,0,0.2708318,-0.12,NaN,0,-0.3091383,0,-2
187846,121571841,0,0,0,0.2479322,0,0.2654436,0,NaN,0,-0.3145265,0,-2
188299,121674658,0,0,0,0.2479322,0,0.2578549,0.07000000000000001,NaN,0,-0.3221151,0,-2
188716,121777550,0,0,0,0.2479322,0,0.2504421,-0.07000000000000001,NaN,0,-0.3293525,0,-2
189169,121879310,0,0,0,0.2479322,0,0.2418597,0.31,NaN,0,-0.3362488,0,-2
189619,121984336,0,0,0,0.2479322,0,0.2361391,0.34,NaN,0,-0.3434801,0,-2
190069,122087831,0,0,0,0.2479322,0,0.232314,0.3,NaN,0,-0.3473051,0,-2
190521,122191275,0,0,0,0.2479322,0,0.2300551,0,NaN,0,-0.3502431,0,-2
190937,122293956,0,0,0,0.2479322,0,0.2264392,0.19,NaN,0,-0.3538589,0,-2
191390,122397323,0,0,0,0.2479322,0,0.2242858,0.21,NaN,0,-0.3574314,0,-2
191841,122501294,0,0,0,0.2479322,0,0.2222093,0.36,NaN,0,-0.3595079,0,-2
192294,122604350,0,0,0,0.2479322,0,0.223435,0.46,NaN,0,-0.3591215,0,-2
192744,122707283,0,0,0,0.2479322,0,0.2264418,0.06,NaN,0,-0.3561147,0,-1
193194,122810672,0,0,0,0.2479322,0,0.2290359,0.37,NaN,0,-0.354192,0,-1
193644,122914277,0,0,0,0.2479322,0,0.2313512,0.19,NaN,0,-0.3518766,0,-1
194065,123015896,0,0,0,0.2479322,0,0.2341629,0.4,NaN,0,-0.3507586,0,-1
194515,123119774,0,0,0,0.2479322,0,0.2360729,0.54,NaN,0,-0.3488486,0,-1
194968,123223922,0,0,0,0.2479322,0,0.2392688,0.5600000000000001,NaN,0,-0.3455612,0,-1
195415,123327936,0,0,0,0.2479322,0,0.2436018,0.19,NaN,0,-0.3412281,0,-1
195868,123431556,0,0,0,0.2479322,0,0.2465619,0.34,NaN,0,-0.339115,0,-1
196288,123534838,0,0,0,0.2479322,0,0.2480385,0.34,NaN,0,-0.3374553,0,-1
196741,123637923,0,0,0,0.2479322,0,0.2497936,0.45,NaN,0,-0.3357002,0,-1
197190,123743138,0,0,0,0.2479322,0,0.251967,0.57,NaN,0,-0.3335268,0,-1
197645,123846099,0,0,0,0.2479322,0,0.2554863,0.45,NaN,0,-0.3297481,0,-1
198094,123950593,0,0,0,0.2479322,0,0.2599973,0.66,NaN,0,-0.3243902,0,-1
198550,124053315,0,0,0,0.2479322,0,0.2669803,0.43,NaN,0,-0.3174072,0,0
198968,124159720,0,0,0,0.2479322,0,0.2734216,0.51,NaN,0,-0.3109658,0,0
199418,124263653,0,0,0,0.2479322,0,0.279858,0.58,NaN,0,-0.3045295,0,0
199866,124368727,0,0,0,0.2479322,0,0.2874238,0.42,NaN,0,-0.2967882,0,0
200317,124472314,0,0,0,0.2479322,0,0.2949437,0.46,NaN,0,-0.2892683,0,0
200734,124576052,0,0,0,0.2479322,0,0.3018229,0.68,NaN,0,-0.2822136,0,0
201184,124681627,0,0,0,0.2479322,0,0.3094074,0.42,NaN,0,-0.275476,0,0
201605,124786586,0,0,0,0.2479322,0,0.3169751,0.63,NaN,0,-0.2677329,0,0
202055,124889195,0,0,0,0.2479322,0,0.3240582,0.57,NaN,0,-0.2606497,0,0
202510,124992772,0,0,0,0.2479322,0,0.3321206,0.45,NaN,0,-0.2540979,0,0
202959,125097952,0,0,0,0.2479322,0,0.3402385,0.13,NaN,0,-0.2459801,0,0
203411,125202717,0,0,0,0.2479322,0,0.3444619,0.45,NaN,0,-0.2417567,0,0
203825,125305866,0,0,0,0.2479322,0,0.3477959,0.29,NaN,0,-0.2384227,0,0
204279,125409671,0,0,0,0.2479322,0,0.3498481,0.49,NaN,0,-0.2372096,0,0
204729,125512656,0,0,0,0.2479322,0,0.3524692,0.43,NaN,0,-0.2345885,0,0
205184,125616883,0,0,0,0.2479322,0,0.355931,0.7,NaN,0,-0.2311268,0,0
205598,125719613,0,0,0,0.2479322,0,0.3618092,0.44,NaN,0,-0.2252485,0,1
206048,125822899,0,0,0,0.2479322,0,0.3677098,0.03,NaN,0,-0.2202025,0,1
206467,125928879,0,0,0,0.2479322,0,0.3702102,0.07000000000000001,NaN,0,-0.2177021,0,1
206921,126031086,0,0,0,0.2479322,0,0.3693432,0.43,NaN,0,-0.2185691,0,1
207337,126136316,0,0,0,0.2479322,0,0.3682918,0.27,NaN,0,-0.2213066,0,1
207790,126240773,0,0,0,0.2479322,0,0.3675743,0.52,NaN,0,-0.2220241,0,1
208238,126344207,0,0,0,0.2479322,0,0.3674452,0.41,NaN,0,-0.2228246,0,1
208693,126447958,0,0,0,0.2479322,0,0.3683952,0.36,NaN,0,-0.2218746,0,1
209140,126552666,0,0,0,0.2479322,0,0.3681886,0.44,NaN,0,-0.2235917,0,1
209562,126655256,0,0,0,0.2479322,0,0.3688777,0.29,NaN,0,-0.2229027,0,1
210013,126759766,0,0,0,0.2479322,0,0.3678245,0.38,NaN,0,-0.2247951,0,1
210465,126862821,0,0,0,0.2479322,0,0.3676564,0.52,NaN,0,-0.2249632,0,1
210917,126966178,0,0,0,0.2479322,0,0.3675972,0.46,NaN,0,-0.2248469,0,1
211371,127068865,0,0,0,0.2479322,0,0.3689604,0.37,NaN,0,-0.2251774,0,1
211569,197662724,0,0,0,0.2479322,0,-0.3375354,-0.15,NaN,0,0.002464641,0,0
212020,197765284,0,0,0,0.2479322,0,-0.3359743,-0.23,NaN,0,0.003865439,0,0
212471,197865795,0,0,0,0.2479322,0,-0.3348134,-0.37,NaN,0,0.0050263,0,0
212889,197969345,0,0,0,0.2479322,0,-0.3338331,-0.24,NaN,0,0.006006707,0,0
213340,198070580,0,0,0,0.2479322,0,-0.3329428,-0.16,NaN,0,0.006897021,0,0
213788,198171886,0,0,0,0.2479322,0,-0.3323235,-0.27,NaN,0,0.006516803,0,0
214237,198277302,0,0,0,0.2479322,0,-0.33181,0,NaN,0,0.007030297,0,0
214694,198379180,0,0,0,0.2479322,0,-0.3318924,-0.1,NaN,0,0.006947923,0,0
215146,198480693,0,0,0,0.2479322,0,-0.3314822,-0.38,NaN,0,0.007358123,0,0
215564,198583104,0,0,0,0.2479322,0,-0.3319332,-0.2,NaN,0,0.006746877,0,0
216019,198691371,0,0,0,0.2479322,0,-0.3322423,-0.5600000000000001,NaN,0,0.006437737,0,0
216469,198792673,0,0,0,0.2479322,0,-0.33343,0.15,NaN,0,0.005250085,0,0
216921,198894291,0,0,0,0.2479322,0,-0.3335193,-0.13,NaN,0,0.005160768,0,0
217372,198995452,0,0,0,0.2479322,0,-0.3323934,0,NaN,0,0.006286729,0,0
217821,199097115,0,0,0,0.2479322,0,-0.330733,-0.16,NaN,0,0.007947076000000001,0,0
218242,199198731,0,0,0,0.2479322,0,-0.3286337,-0.11,NaN,0,0.00980987,0,0
218692,199301077,0,0,0,0.2479322,0,-0.3266346,-0.21,NaN,0,0.01012285,0,0
219148,199402821,0,0,0,0.2479322,0,-0.3244016,-0.23,NaN,0,0.01235594,0,0
219596,199504328,0,0,0,0.2479322,0,-0.3222845,-0.45,NaN,0,0.01431273,0,0
220049,199606143,0,0,0,0.2479322,0,-0.320596,-0.38,NaN,0,0.01600127,0,0
220467,199708842,0,0,0,0.2479322,0,-0.3188499,-0.29,NaN,0,0.01774736,0,0
220918,199809747,0,0,0,0.2479322,0,-0.3165817,-0.03,NaN,0,0.01993166,0,0
221372,199914173,0,0,0,0.2479322,0,-0.3142294,-0.2,NaN,0,0.02228393,0,0
221825,200015055,0,0,0,0.2479322,0,-0.3133124,-0.8,NaN,0,0.02320101,0,0
222274,200116945,0,0,0,0.2479322,0,-0.3145448,-0.25,NaN,0,0.02196859,0,0
222726,200218881,0,0,0,0.2479322,0,-0.3170696,-0.3,NaN,0,0.01944377,0,0
223174,200322167,0,0,0,0.2479322,0,-0.3181822,-0.23,NaN,0,0.01733168,0,0
223544,200425111,0,0,0,0.2479322,0,-0.3182894,-0.06,NaN,0,0.01722451,0,1
223993,200526593,0,0,0,0.2479322,0,-0.3174255,-0.23,NaN,0,0.01808845,0,0
224445,200628330,0,0,0,0.2479322,0,-0.3162853,-0.22,NaN,0,0.01899214,0,0
224864,200730582,0,0,0,0.2479322,0,-0.3165774,-0.04,NaN,0,0.01869999,0,1
225316,200832871,0,0,0,0.2479322,0,-0.3167199,-0.31,NaN,0,0.01855754,0,0
225768,200935601,0,0,0,0.2479322,0,-0.3161443,-0.27,NaN,0,0.01897283,0,1
226220,201036907,0,0,0,0.2479322,0,-0.3152702,-0.19,NaN,0,0.01984696,0,0
226637,201138688,0,0,0,0.2479322,0,-0.3145877,-0.5600000000000001,NaN,0,0.02052953,0,1
227091,201239669,0,0,0,0.2479322,0,-0.3149388,-0.18,NaN,0,0.02001812,0,0
227537,201342322,0,0,0,0.2479322,0,-0.3154864,0.12,NaN,0,0.01947056,0,0
227994,201443913,0,0,0,0.2479322,0,-0.3142803,-0.27,NaN,0,0.02067666,0,0
228444,201545264,0,0,0,0.2479322,0,-0.3127483,-0.07000000000000001,NaN,0,0.02136179,0,0
228896,201647267,0,0,0,0.2479322,0,-0.3105854,-0.16,NaN,0,0.02336444,0,1
229313,201748956,0,0,0,0.2479322,0,-0.3089685,-0.34,NaN,0,0.0249814,0,0
229769,201850141,0,0,0,0.2479322,0,-0.3077253,-0.5,NaN,0,0.02622463,0,1
230217,201951719,0,0,0,0.2479322,0,-0.308331,-0.16,NaN,0,0.02561884,0,0
230670,202052534,0,0,0,0.2479322,0,-0.3086524,-0.07000000000000001,NaN,0,0.02529748,0,0
231121,202154280,0,0,0,0.2479322,0,-0.3089625,-0.29,NaN,0,0.02498739,0,0
231543,202254724,0,0,0,0.2479322,0,-0.3089366,-0.05,NaN,0,0.02501329,0,1
231994,202358102,0,0,0,0.2479322,0,-0.3086943,0.14,NaN,0,0.02509533,0,0
232448,202459610,0,0,0,0.2479322,0,-0.306679,-0.32,NaN,0,0.02711065,0,1
232865,202561709,0,0,0,0.2479322,0,-0.305063,-0.15,NaN,0,0.02872663,0,1
233317,202662857,0,0,0,0.2479322,0,-0.3032879,-0.41,NaN,0,0.03034155,0,1
233765,202764178,0,0,0,0.2479322,0,-0.3023838,-0.16,NaN,0,0.03124561,0,0
234221,202865832,0,0,0,0.2479322,0,-0.3011041,-0.29,NaN,0,0.03252535,0,1
234669,202968324,0,0,0,0.2479322,0,-0.297643,-0.06,NaN,0,0.03582625,0,0
234941,203069312,0,0,0,0.2479322,0,-0.2940466,-0.15,NaN,0,0.03942259,0,1
235389,203171150,0,0,0,0.2479322,0,-0.290388,-0.29,NaN,0,0.04308118,0,0
235827,203272283,0,0,0,0.2479322,0,-0.2871792,-0.02,NaN,0,0.04612981,0,2
236245,203375301,0,0,0,0.2479322,0,-0.2831093,-0.51,NaN,0,0.04852127,0,0
236699,203476613,0,0,0,0.2479322,0,-0.280064,-0.45,NaN,0,0.0515665,0,1
237115,203578327,0,0,0,0.2479322,0,-0.2779225,-0.38,NaN,0,0.0537081,0,1
237569,203678669,0,0,0,0.2479322,0,-0.2764888,-0.43,NaN,0,0.05498149,0,1
237985,203780113,0,0,0,0.2479322,0,-0.2747417,-0.19,NaN,0,0.05672865,0,1
238439,203885118,0,0,0,0.2479322,0,-0.2731165,-0.27,NaN,0,0.0583538,0,1
238893,203985926,0,0,0,0.2479322,0,-0.2733346,-0.2,NaN,0,0.05797549,0,1
239341,204087886,0,0,0,0.2479322,0,-0.2726421,-0.22,NaN,0,0.05866797,0,1
239795,204188949,0.3480025,8.437037000000001e-05,0.3480809,0.2479322,0,-0.2706516,0.05,NaN,0,0.0606585,0,4
240243,204292183,0.3449324,7.626414e-05,0.345014,0.2479322,0,-0.2644791,0,NaN,0,0.06683101,0,7
240699,204394068,0.3459535,0.0001401305,0.346092,0.2479322,0,-0.2468677,-0.14,NaN,0,0.08444242,0,28
241148,204496901,0.3459535,0.0003141463,0.3462763,0.2479322,0,-0.200563,-0.21,NaN,0,0.1299002,0,61
241601,204598168,0.3500605,0.0004454851,0.3504924,0.2479322,0,-0.1251005,-0.48,NaN,0,0.205523,0,97
242051,204701922,0.2543919,0.0003283024,0.2748569,0.2479322,0,-0.01234755,-0.15,NaN,0,0.3185964,0,128
242503,204802175,0.2261264,0.0002383441,0.2263681,0.2479322,0,0.1247751,-0.07000000000000001,NaN,0,0.4570465,0,136
242924,204905942,0.2237019,0.0001656264,0.2255003,0.2479322,0,0.2678783,0.33,NaN,0,0.602553,0,130
243376,205007121,0.2237019,0.0001116097,0.2238154,0.2479322,0,0.4054298,0.22,NaN,0,0.7417448,0,123
243824,205107702,0.2237019,0.0001024008,0.2238069,0.2479322,0,0.5339635,0.5600000000000001,NaN,0,0.8719264,0,116
244277,205209145,0.2237019,0.0001015514,0.2238063,0.2479322,0,0.6552346,0.59,NaN,0,0.9958373,0,108
244729,205310630,0.2261264,6.556510999999999e-05,0.2261914,0.2479322,0,0.7710987,0.93,NaN,0,1.112907,0,102
245184,205411321,0.2957582,5.948544e-05,0.2958255,0.2479322,0,0.8847936,0.99,NaN,0,1.228563,0,102
245602,205514671,0.2994146,8.85129e-06,0.2994224,0.2479322,0,1.00853,0.96,NaN,0,1.355343,0,115
246055,205614966,0.2948492,8.144975e-05,0.2949203,0.2479322,0,1.143284,0.98,NaN,0,1.492294,0,130
246505,205718626,0.2560256,0.0003731251,0.2563894,0.2479322,0,1.295771,0.85,NaN,0,1.648665,0,143
246957,205820957,0.2453422,0.0006799996,0.2459991,0.2479322,0,1.448692,1.43,NaN,0,1.80624,0,145
247407,205923734,0.2444832,0.0003034025,0.2439422,0.2479322,0,1.604514,0.89,NaN,0,1.965693,0,148
247861,206024645,0.2444832,1.299381e-05,0.2445001,0.2479322,0,1.756154,1.31,NaN,0,2.121056,0,147
248310,206125602,0.2453422,3.255904e-05,0.2445171,0.2479322,0,1.904317,1.58,NaN,0,2.272858,0,146
248765,206228183,0.2479323,8.367002e-05,0.2480178,0.2479322,0,2.055807,1.76,NaN,0,2.429079,0,147
249215,206330891,0.2444832,6.338954e-05,0.2445461,0.2479322,0,2.210894,1.94,NaN,0,2.588888,0,147
249667,206431768,0.2453422,2.232194e-05,0.2453614,0.2479322,0,2.363388,2.32,NaN,0,2.747181,0,148
250116,206535327,0.2444832,1.713634e-06,0.2444857,0.2479322,0,2.523098,2.41,NaN,0,2.911926,0,147
250531,206639108,0.2444832,8.940697e-08,0.2444833,0.2479322,0,2.682805,2.16,NaN,0,3.078347,0,146
250973,206744944,0.2453422,2.506375e-05,0.2453675,0.2479322,0,2.840568,2.69,NaN,0,3.241313,0,145
251425,206847926,0.2444832,9.565055000000001e-05,0.2445749,0.2479322,0,2.994156,2.77,NaN,0,3.401775,0,145
251869,206953822,0.2118544,0.0001146346,0.2119711,0.2479322,0,3.149933,2.87,NaN,0,3.562977,0,144
252315,207058125,0.1330219,0.0001042634,0.133128,0.2479322,0,3.295675,2.88,NaN,0,3.714082,0,125
252726,207161135,0.205742,0.0003686845,0.1338441,0.2479322,3.409154,3.409604,2.95,NaN,0,3.83268,89,89
253173,207266850,0.199014,0.002439767,0.1828654,0.2479322,3.4829,3.482412,3.15,NaN,0,3.910669,65,54
253616,207373457,0.1895217,0.005786315,0.1878628,0.2479322,3.532031,3.522209,3.35,NaN,0,3.955662,44,26
254065,207485629,0.2097401,0.008999824999999999,0.2054855,0.2479322,3.564404,3.535517,3.23,NaN,0,3.974836,26,4
254514,207591713,0.2083629,0.008805334999999999,0.213492,0.2479322,3.578607,3.527476,3.28,NaN,0,3.971106,12,-11
254956,207699174,0.2330313,0.006519213,0.2277171,0.2479322,3.579415,3.503003,3.15,NaN,0,3.950624,2,-23
255405,207805637,0.2432462,0.003813937,0.2369661,0.2479322,3.57108,3.469635,2.93,NaN,0,3.92001,-1,-27
255816,207914035,0.2495601,0.002351418,0.2479057,0.2479322,3.558261,3.431636,2.93,NaN,0,3.885367,-2,-29
256261,208019609,0.2656974,0.001972228,0.2580658,0.2479322,3.544449,3.396391,3.11,NaN,0,3.854082,1,-24
256703,208128835,0.2583339,0.001637161,0.2596916,0.2479322,3.532746,3.364314,3.12,NaN,0,3.825881,5,-17
257117,208234310,0.2466633,0.001168802,0.2555357,0.2479322,3.523072,3.340642,2.91,NaN,0,3.806092,8,-9
257560,208342154,0.2397904,0.0006140321,0.2482324,0.2479322,3.515076,3.325716,2.7,NaN,0,3.794882,11,-2
258007,208450052,0.2420376,0.0004658848,0.2431894,0.2479322,3.508466,3.319382,2.69,NaN,0,3.793102,12,2
258417,208559735,0.2470932,0.0005284399,0.2413874,0.2479322,3.503003,3.312636,3.01,NaN,0,3.789561,13,5
258864,208667311,0.2400134,0.0007038563,0.244674,0.2479322,3.498486,3.312375,2.89,NaN,0,3.793785,14,8
259306,208776594,0.2443155,0.0008231848,0.2409273,0.2479322,3.494843,3.315638,3.08,NaN,0,3.800002,14,11
259757,208884620,0.2435482,0.0009805708999999999,0.243122,0.2479322,3.491743,3.32152,2.84,NaN,0,3.807928,14,12
260197,208994051,0.2409093,0.001053795,0.2405138,0.2479322,3.489181,3.326072,2.99,NaN,0,3.815524,13,13
260608,209101971,0.2253239,0.001042351,0.236264,0.2479322,3.487063,3.332053,3.22,NaN,0,3.825228,13,13
261054,209207174,0.2328752,0.0009380132,0.2308309,0.2479322,3.485312,3.338685,2.77,NaN,0,3.834058,12,15
261499,209316291,0.2215309,0.0009427071,0.2254013,0.2479322,3.483865,3.347356,2.89,NaN,0,3.84401,12,17
261944,209424279,0.2290146,0.0009470582,0.2254201,0.2479322,3.482669,3.354793,3.41,NaN,0,3.853576,11,16
262388,209531810,0.2255525,0.0008771718,0.2294647,0.2479322,3.48168,3.362359,3.32,NaN,0,3.863262,10,13
262802,209638700,0.2433422,0.001152337,0.2309153,0.2479322,3.480864,3.370349,2.75,NaN,0,3.873297,10,12
263246,209746692,0.2505193,0.001468211,0.2420339,0.2479322,3.480188,3.37436,2.99,NaN,0,3.879514,9,9
263693,209852797,0.2396383,0.001461402,0.2454983,0.2479322,3.47963,3.375767,3.36,NaN,0,3.88144,9,6
264139,209959923,0.2449211,0.001264021,0.2476368,0.2479322,3.47918,3.376966,3.1,NaN,0,3.883928,9,7
264586,210068754,0.2404636,0.0009750575,0.2454487,0.2479322,3.478797,3.379261,3.3,NaN,0,3.885825,9,6
264994,210176789,0.2398798,0.0007977933,0.2416349,0.2479322,3.47848,3.378876,3.54,NaN,0,3.885883,9,7
265443,210284397,0.2381536,0.0007556826,0.2419626,0.2479322,3.478218,3.383006,3.81,NaN,0,3.889693,9,7
265886,210393648,0.2617294,0.001026511,0.250816,0.2479322,3.478001,3.386333,3.43,NaN,0,3.894233,8,7
266331,210503127,0.2478116,0.001041844,0.2497818,0.2479322,3.477818,3.390603,3.67,NaN,0,3.89819,8,6
266777,210610301,0.2513337,0.0009595454,0.2504987,0.2479322,3.47767,3.394964,3.36,NaN,0,3.90291,8,5
267189,210716665,0.241048,0.0006562024,0.2480032,0.2479322,3.477549,3.399838,3.52,NaN,0,3.906548,7,7
267638,210823541,0.2435565,0.0005233437,0.2434918,0.2479322,3.477449,3.405327,3.78,NaN,0,3.909885,7,7
268049,210931787,0.2413236,0.0004345626,0.2414523,0.2479322,3.477365,3.411159,3.67,NaN,0,3.914566,6,8
268496,211038945,0.252126,0.000507772,0.2447427,0.2479322,3.477296,3.417145,3.54,NaN,0,3.918553,5,6
268941,211149199,0.2512386,0.0005635023,0.2526171,0.2479322,3.477239,3.419504,3.49,NaN,0,3.919683,5,4
269387,211253211,0.2495898,0.0005206764,0.2515627,0.2479322,3.477193,3.420333,3.35,NaN,0,3.91859,5,4
269803,211359767,0.2515958,0.000495404,0.2518947,0.2479322,3.477156,3.418761,3.85,NaN,0,3.915781,5,2
270248,211466071,0.2460869,0.0003618896,0.2483438,0.2479322,3.477121,3.420636,3.9,NaN,0,3.916497,5,5
270689,211574695,0.249109,0.0002552122,0.2457315,0.2479322,3.477097,3.420902,3.72,NaN,0,3.914764,5,4
271099,211682681,0.2502108,0.0002993047,0.2488936,0.2479322,3.477074,3.423445,3.58,NaN,0,3.916155,5,5
271549,211790616,0.2374331,0.0002856404,0.2442319,0.2479322,3.477054,3.424272,3.8,NaN,0,3.914983,5,5
271964,211899131,0.2486051,0.0002701581,0.2430607,0.2479322,3.477042,3.428819,3.56,NaN,0,3.918538,4,5
272411,212005817,0.2452024,0.0002850592,0.2476887,0.2479322,3.477031,3.4309,3.57,NaN,0,3.917773,4,4
272855,212114619,0.2440508,0.0003085583,0.2492629,0.2479322,3.477019,3.431337,3.47,NaN,0,3.917218,4,3
273301,212221572,0.244218,0.0002826899,0.2441855,0.2479322,3.477007,3.429942,3.66,NaN,0,3.913146,4,5
273713,212330744,0.2492705,0.0003101975,0.2439112,0.2479322,3.476996,3.430437,3.52,NaN,0,3.911962,4,5
274158,212436813,0.2567708,0.0004370809,0.2526436,0.2479322,3.47699,3.428943,3.77,NaN,0,3.909621,4,3
274600,212544628,0.2444969,0.0004658103,0.2541684,0.2479322,3.47699,3.429443,3.87,NaN,0,3.908442,4,2
275013,212649905,0.24438,0.0005547404,0.2466138,0.2479322,3.47699,3.434057,3.74,NaN,0,3.91221,4,3
275454,212757926,0.2379435,0.00049752,0.244924,0.2479322,3.47699,3.440184,3.66,NaN,0,3.917666,3,4
275899,212863913,0.2433739,0.00055933,0.241593,0.2479322,3.47699,3.447217,3.74,NaN,0,3.925172,2,6
276313,212970844,0.2431495,0.004760489,0.2438286,0.2479322,3.47699,3.450128,3.71,NaN,0,3.92703,2,5
276759,213082294,0.2487835,0.009260684,0.2507173,0.2479322,3.47699,3.454116,3.48,NaN,0,3.931453,2,3
277207,213189670,0.2509735,0.009651750000000001,0.2594012,0.2479322,3.47699,3.452531,3.61,NaN,0,3.930242,2,2
277658,213295910,0.2587657,0.008164018,0.2640626,0.2479322,3.47699,3.452005,3.72,NaN,0,3.929975,2,1
278099,213404036,0.2526325,0.005989254,0.2622049,0.2479322,3.47699,3.45221,3.68,NaN,0,3.93243,2,1
278541,213514340,0.2433274,0.004773974,0.255235,0.2479322,3.47699,3.457783,3.92,NaN,0,3.93953,1,3
278986,213621211,0.2410544,0.004447952,0.2496506,0.2479322,3.47699,3.469147,3.63,NaN,0,3.952656,0,4
279398,213730362,0.2359704,0.004648268,0.2446525,0.2479322,3.47699,3.481163,3.65,NaN,0,3.967907,0,5
279846,213837082,0.237912,0.004923806,0.2410973,0.2479322,3.47699,3.49014,3.51,NaN,0,3.978089,-1,4
280290,213946587,0.2397877,0.004765302,0.2431038,0.2479322,3.47699,3.496432,3.79,NaN,0,3.987144,-1,3
280738,214052862,0.2350924,0.004305542,0.2393355,0.2479322,3.47699,3.503699,3.74,NaN,0,3.997477,-2,2
281181,214160540,0.2401158,0.00418663,0.2412424,0.2479322,3.47699,3.508411,3.42,NaN,0,4.004089,-3,1
281630,214267708,0.2433004,0.004018232,0.2445279,0.2479322,3.47699,3.508252,4.01,NaN,0,4.007645,-3,0
282039,214375084,0.2505117,0.004538894,0.2505338,0.2479322,3.47699,3.50737,3.68,NaN,0,4.00938,-3,-2
282488,214480811,0.2449327,0.005165949,0.2512536,0.2479322,3.47699,3.508823,3.45,NaN,0,4.013534,-3,-2
282928,214587188,0.2469349,0.005994171,0.250639,0.2479322,3.47699,3.501979,3.72,NaN,0,4.010947,-2,-3
283338,214693854,0.2565819,0.006533831,0.2582437,0.2479322,3.47699,3.497293,3.21,NaN,0,4.008261,-2,-4
283785,214800331,0.254815,0.006422043,0.263189,0.2479322,3.47699,3.485992,3.53,NaN,0,4.0031,0,-5
284227,214907768,0.2623346,0.005703807,0.2657547,0.2479322,3.47699,3.474298,3.56,NaN,0,3.996953,0,-5
284642,215014326,0.2494348,0.00421384,0.2619801,0.2479322,3.47699,3.464633,3.64,NaN,0,3.993423,1,-2
285055,215121268,0.2551283,0.003486842,0.2573903,0.2479322,3.47699,3.460577,3.52,NaN,0,3.996798,1,0
285503,215227291,0.2451134,0.001352757,0.2531067,0.2479322,3.47699,3.458592,3.29,NaN,0,4.002168,1,0
285950,215335301,0.2523318,0.000154525,0.2531351,0.2479322,3.47699,3.455948,3.43,NaN,0,4.005482,2,1
286396,215441806,0.247602,0.00157322,0.2489895,0.2479322,3.47699,3.452377,3.48,NaN,0,4.007785,2,1
286835,215549726,0.2487513,0.002460167,0.2492628,0.2479322,3.47699,3.450974,3.72,NaN,0,4.012784,2,1
287281,215655340,0.2501827,0.002929389,0.2518178,0.2479322,3.47699,3.453164,3.16,NaN,0,4.019993,2,2
287692,215762859,0.2520199,0.005450875,0.2528803,0.2479322,3.47699,3.454305,3.37,NaN,0,4.026079,2,2
288138,215869696,0.2525573,0.01108092,0.2550973,0.2479322,3.47699,3.454189,3.17,NaN,0,4.029968,2,1
288582,215976790,0.2601251,0.01706269,0.2641438,0.2479322,3.47699,3.45141,2.9,NaN,0,4.031538,2,0
289029,216084152,0.2499424,0.01946798,0.2698967,0.2479322,3.47699,3.443892,3.16,NaN,0,4.02833,3,0
289471,216192572,0.2486512,0.01968829,0.2682357,0.2479322,3.47699,3.43528,2.9,NaN,0,4.022396,4,1
289892,216300088,0.2455076,0.01766245,0.2644216,0.2479322,3.47699,3.425176,2.92,NaN,0,4.015825,5,3
290338,216405557,0.2516037,0.0155122,0.2654773,0.2479322,3.47699,3.412824,2.72,NaN,0,4.005151,6,3
290780,216516555,0.2543052,0.01392919,0.2683715,0.2479322,3.47699,3.393642,2.83,NaN,0,3.989624,8,3
291193,216623309,0.2627882,0.01459357,0.269535,0.2479322,3.47699,3.377474,2.7,NaN,0,3.975653,9,3
291634,216730827,0.2629166,0.01543373,0.2746473,0.2479322,3.47699,3.358708,2.63,NaN,0,3.959038,11,2
292050,216837256,0.2572693,0.01540107,0.2758559,0.2479322,3.47699,3.344742,2.93,NaN,0,3.945904,13,5
292494,216946627,0.260747,0.01645297,0.2755147,0.2479322,3.47699,3.33612,2.61,NaN,0,3.938143,14,6
292941,217053921,0.2596675,0.01687658,0.2789987,0.2479322,3.47699,3.333458,2.6,NaN,0,3.935627,14,8
293354,217162198,0.266665,0.01769352,0.282423,0.2479322,3.47699,3.334168,2.46,NaN,0,3.935093,14,9
293805,217270323,0.248608,0.01607001,0.2748948,0.2479322,3.47699,3.33808,2.44,NaN,0,3.938609,13,12
294247,217377712,0.2577569,0.01707095,0.2716358,0.2479322,3.47699,3.342323,2.32,NaN,0,3.94173,13,13
294687,217485148,0.2443537,0.01652595,0.2679153,0.2479322,3.47699,3.348698,2.33,NaN,0,3.948067,12,14
295134,217591043,0.2575667,0.01838002,0.2695291,0.2479322,3.47699,3.355163,1.97,NaN,0,3.953181,12,13
295574,217697386,0.2462508,0.01789561,0.2676422,0.2479322,3.47699,3.351135,1.97,NaN,0,3.948573,12,12
296025,217805106,0.2539952,0.01885289,0.2680963,0.2479322,3.47699,3.337779,1.87,NaN,0,3.934752,13,12
296470,217914084,0.2648096,0.01988855,0.2753591,0.2479322,3.47699,3.31859,1.61,NaN,0,3.914686,15,11
296882,218018180,0.2821617,0.02186877,0.2908419,0.2479322,3.47699,3.283458,1.43,NaN,0,3.87738,19,8
297324,218127905,0.2884147,0.02305466,0.3075092,0.2479322,3.47699,3.240433,1.74,NaN,0,3.833027,23,7
297771,218233613,0.2895361,0.02246159,0.3055028,0.2479322,3.47699,3.198528,2,NaN,0,3.788413,27,11
298217,218340685,0.2735461,0.01954889,0.3020596,0.2479322,3.47699,3.158622,1.48,NaN,0,3.745006,31,17
298630,218446325,0.2648532,0.01716909,0.2896684,0.2479322,3.47699,3.12565,1.83,NaN,0,3.708219,35,22
299073,218554821,0.2750375,0.01704884,0.287534,0.2479322,3.47699,3.102734,1.65,NaN,0,3.681435,37,28
299517,218661887,0.2745765,0.01673338,0.2930241,0.2479322,3.47699,3.088401,2.06,NaN,0,3.660525,38,31
299963,218768362,0.2801813,0.01780429,0.2921824,0.2479322,3.47699,3.078853,1.6,NaN,0,3.646644,39,33
300376,218874319,0.3274939,0.02316213,0.3193667,0.2479322,3.47699,3.070154,1.46,NaN,0,3.631491,40,27
300820,218982401,0.3002674,0.02171654,0.3361849,0.2479322,3.47699,3.047582,1.52,NaN,0,3.600748,42,27
301265,219089358,0.3114013,0.02074641,0.3316162,0.2479322,3.47699,3.022825,1.64,NaN,0,3.56759,45,29
301709,219195072,0.285394,0.01661167,0.317819,0.2479322,3.47699,3.007922,1.12,NaN,0,3.542235,46,34
302154,219301828,0.2976251,0.01599294,0.3133818,0.2479322,3.47699,2.997078,0.84,NaN,0,3.521518,47,39
302570,219407095,0.2777186,0.01422042,0.3037908,0.2479322,3.47699,2.982174,1.09,NaN,0,3.497032,49,43
303010,219515267,0.2914609,0.01493055,0.3017078,0.2479322,3.47699,2.976663,0.79,NaN,0,3.480382,50,43
303456,219622103,0.2734329,0.01420438,0.3021329,0.2479322,3.47699,2.966978,1.12,NaN,0,3.461237,51,48
303867,219730697,0.2788159,0.01481557,0.2869341,0.2479322,3.47699,2.958655,1.22,NaN,0,3.441378,51,52
304315,219837315,0.3221532,0.01911277,0.3164534,0.2479322,3.47699,2.956225,1.28,NaN,0,3.428419,52,45
304760,219944974,0.3046691,0.01892281,0.3304056,0.2479322,3.47699,2.953051,1.38,NaN,0,3.413481,52,44
305205,220050660,0.2947342,0.01804817,0.3169547,0.2479322,3.47699,2.954413,1.42,NaN,0,3.403994,52,46
305616,220158641,0.3052303,0.01794988,0.3210208,0.2479322,3.47699,2.961751,0.97,NaN,0,3.398934,51,45
306067,220266091,0.2214666,0.01147249,0.2870498,0.2479322,3.47699,2.96613,2.08,NaN,0,3.391449,51,55
306480,220374196,0.2736003,0.01386398,0.2745214,0.2479322,3.47699,2.987495,1.87,NaN,0,3.400615,48,57
306928,220480296,0.2887241,0.01587322,0.2986618,0.2479322,3.47699,3.013854,1.25,NaN,0,3.417239,46,53
307369,220587665,0.2094178,0.01067515,0.259772,0.2479322,3.47699,3.037806,1.41,NaN,0,3.429289,43,59
307814,220696037,0.2173471,0.005608305,0.2320309,0.2479322,3.47699,3.064054,2.07,NaN,0,3.444581,41,60
308262,220802824,0.1847087,0.00117749,0.2111289,0.2479322,3.47699,3.092167,2.21,NaN,0,3.461655,38,62
308672,220910457,0.1570223,0.0005345792,0.1731062,0.2479322,3.47699,3.134575,2.6,NaN,0,3.493435,34,66
309119,221015938,0.1822175,0.0007611215,0.1725669,0.2479322,3.47699,3.184203,1.72,NaN,0,3.534777,29,61
309559,221122761,0.1730133,0.0006363541,0.1758244,0.2474239,3.47699,3.225158,2.08,NaN,0,3.568454,25,55
310008,221230046,0.181199,0.0003694296,0.182513,0.2467343,3.47699,3.253843,1.94,NaN,0,3.589441,22,47
310453,221336289,0.1935961,0.0002140254,0.1907515,0.2461325,3.47699,3.275056,2.83,NaN,0,3.60436,20,36
310900,221442834,0.1977742,0.000152275,0.1937979,0.2456047,3.47699,3.293707,2.52,NaN,0,3.616815,18,32
311342,221551411,0.189552,0.0001274198,0.1898147,0.2450711,3.47699,3.309697,3.09,NaN,0,3.627091,16,28
311788,221656103,0.1994916,0.000137046,0.1968637,0.2445498,3.47699,3.325566,3.31,NaN,0,3.637361,15,23
312200,221764903,0.208048,0.0001054257,0.2002092,0.2441399,3.47699,3.343568,3.21,NaN,0,3.650235,13,19
312646,221871049,0.2099682,0.0002249777,0.2022653,0.2437099,3.47699,3.361532,4.47,NaN,0,3.663942,11,17
313058,221980793,0.2017136,0.0007282346,0.202548,0.2433483,3.47699,3.385816,4.56,NaN,0,3.683915,9,13
313507,222089995,0.198199,0.002328217,0.2035634,0.2433075,3.47699,3.416246,4.14,NaN,0,3.709661,6,10
313953,222197255,0.190598,0.004614189,0.1962435,0.2433075,3.47699,3.457497,3.74,NaN,0,3.747189,1,10
314393,222303832,0.2043081,0.007870376,0.1995302,0.2433075,3.47699,3.492762,4.48,NaN,0,3.778662,-1,8
314839,222411882,0.1945519,0.009937227,0.2088429,0.2433075,3.47699,3.524458,4.67,NaN,0,3.808153,-4,4
315248,222519967,0.2215912,0.01099108,0.2204359,0.2433075,3.47699,3.551294,5.09,NaN,0,3.831624,-7,-1
315697,222627349,0.2194485,0.009702697,0.2275871,0.2433075,3.47699,3.573417,5.58,NaN,0,3.852344,-9,-7
316109,222735273,0.2311216,0.008287489,0.2275851,0.2433075,3.47699,3.607725,5.65,NaN,0,3.883081,-13,-10
316557,222841101,0.2259312,0.00579533,0.2334102,0.2433075,3.47699,3.650159,5.95,NaN,0,3.925385,-17,-13
316999,222948747,0.215353,0.004996479,0.2269162,0.2433075,3.47699,3.697629,5.78,NaN,0,3.969842,-22,-15
317413,223053370,0.2135323,0.004528776,0.2225606,0.2433075,3.47699,3.740615,5.87,NaN,0,4.011081,-26,-18
317855,223160075,0.238546,0.003474161,0.2286363,0.2433075,3.47699,3.785021,5.95,NaN,0,4.050848,-30,-23
318274,223266837,0.2298264,0.001926973,0.2330672,0.2433075,3.47699,3.828452,6.1,NaN,0,4.090976,-35,-27
318716,223374132,0.229468,0.00107342,0.233213,0.2433075,3.47699,3.849305,5.95,NaN,0,4.107968,-37,-32
319131,223480214,0.2389741,0.0006298423,0.2354379,0.2432521,3.47699,3.855443,5.97,NaN,0,4.111435,-37,-36
319572,223586829,0.2494631,0.0005216449,0.2438893,0.2432094,3.47699,3.850992,5.98,NaN,0,4.103605,-37,-40
320019,223696916,0.2509598,0.0004131794,0.2447499,0.2432285,3.47699,3.835149,5.63,NaN,0,4.085565,-35,-40
320466,223802738,0.2566902,0.0002518892,0.2497086,0.2432643,3.47699,3.811292,5.69,NaN,0,4.058175,-33,-41
320907,223910923,0.2524818,0.0001040995,0.2540763,0.243348,3.47699,3.78799,5.58,NaN,0,4.031662,-31,-40
321354,224017356,0.2570319,4.962087e-05,0.2555137,0.2434621,3.47699,3.758571,5.69,NaN,0,4.000511,-28,-37
321798,224126186,0.262097,7.086992e-05,0.2567656,0.2435879,3.47699,3.735303,5.6,NaN,0,3.975747,-25,-35
322246,224232845,0.2612536,0.0001422465,0.2583854,0.2437322,3.47699,3.717417,5.49,NaN,0,3.957388,-24,-32
322690,224340997,0.2621409,0.0001948774,0.2605225,0.2438831,3.47699,3.70307,5.17,NaN,0,3.940844,-22,-30
323136,224447286,0.2644054,0.0002849102,0.2622077,0.2440576,3.47699,3.689719,5.2,NaN,0,3.926486,-21,-27
323580,224557348,0.2619941,0.0002969503,0.2610468,0.2442362,3.47699,3.676149,5.16,NaN,0,3.910719,-19,-25
