LineNo,TimeUS,Instance,RPM,RawRPM,Volt,Curr,Temp,CTot,MotTemp,Err
1920,2.0037e+07,1,0,0,16.8,0.03,26,0,0,0
2341,2.0144e+07,1,0,0,16.8,0.03,26,0,0,0
2797,2.0261e+07,1,0,0,16.81,0.03,26,0,0,0
3201,2.0356e+07,1,0,0,16.81,0.03,27,0,0,0
3655,2.0471e+07,1,0,0,16.8,0.03,26,0,0,0
4063,2.0572e+07,1,0,0,16.8,0.03,26,0,0,0
4482,2.0678e+07,1,0,0,16.81,0.03,26,0,0,0
4895,2.0782e+07,1,0,0,16.8,0.03,27,0,0,0
5309,2.0887e+07,1,0,0,16.81,0.03,27,0,0,0
5764,2.1e+07,1,0,0,16.8,0.03,26,0,0,0
6175,2.1104e+07,1,0,0,16.8,0.03,27,0,0,0
6583,2.1204e+07,1,0,0,16.8,0.03,27,0,0,0
7032,2.1315e+07,1,0,0,16.8,0.03,26,0,0,0
7441,2.1415e+07,1,0,0,16.8,0.03,26,0,0,0
7863,2.1525e+07,1,0,0,16.81,0.03,26,0,0,0
8718,2.1737e+07,1,0,0,16.8,0.03,26,0,0,0
9163,2.1848e+07,1,0,0,16.8,0.03,26,0,0,0
9466,2.1949e+07,1,0,0,16.81,0.03,26,0,0,0
9917,2.2059e+07,1,0,0,16.8,0.03,26,0,0,0
10332,2.2163e+07,1,0,0,16.81,0.03,26,0,0,0
10743,2.2266e+07,1,0,0,16.8,0.03,26,0,0,0
11201,2.238e+07,1,0,0,16.81,0.03,26,0,0,0
11614,2.2481e+07,1,0,0,16.8,0.03,26,0,0,0
12021,2.2588e+07,1,0,0,16.8,0.03,27,0,0,0
12507,2.2703e+07,1,0,0,16.8,0.03,27,0,0,0
12883,2.2798e+07,1,0,0,16.8,0.03,27,0,0,0
13337,2.2914e+07,1,0,0,16.8,0.03,27,0,0,0
13751,2.3018e+07,1,0,0,16.8,0.03,27,0,0,0
14166,2.3119e+07,1,0,0,16.8,0.03,27,0,0,0
14580,2.3224e+07,1,0,0,16.8,0.03,26,0,0,0
15035,2.3334e+07,1,0,0,16.8,0.03,27,0,0,0
15450,2.3439e+07,1,0,0,16.8,0.03,26,0,0,0
15909,2.3552e+07,1,0,0,16.8,0.03,27,0,0,0
16312,2.3651e+07,1,0,0,16.8,0.03,27,0,0,0
16744,2.3762e+07,1,0,0,16.8,0.03,27,0,0,0
17201,2.3875e+07,1,0,0,16.8,0.03,26,0,0,0
17606,2.3971e+07,1,0,0,16.8,0.03,26,0,0,0
18067,2.4087e+07,1,0,0,16.8,0.03,27,0,0,0
18480,2.419e+07,1,0,0,16.8,0.03,26,0,0,0
18890,2.4292e+07,1,0,0,16.8,0.03,26,0,0,0
19302,2.4396e+07,1,0,0,16.8,0.03,26,0,0,0
19759,2.451e+07,1,0,0,16.8,0.03,27,0,0,0
20200,2.4622e+07,1,0,0,16.8,0.03,27,0,0,0
20577,2.4719e+07,1,0,0,16.8,0.03,27,0,0,0
21442,2.4935e+07,1,0,0,16.8,0.03,27,0,0,0
21853,2.5038e+07,1,0,0,16.8,0.03,27,0,0,0
22308,2.5154e+07,1,0,0,16.8,0.03,27,0,0,0
22722,2.5255e+07,1,0,0,16.8,0.03,26,0,0,0
23138,2.5359e+07,1,0,0,16.8,0.03,27,0,0,0
23594,2.5474e+07,1,0,0,16.8,0.03,27,0,0,0
24010,2.5578e+07,1,0,0,16.8,0.03,27,0,0,0
24422,2.5683e+07,1,0,0,16.8,0.03,26,0,0,0
24838,2.5787e+07,1,0,0,16.8,0.03,27,0,0,0
25261,2.5895e+07,1,0,0,16.8,0.03,27,0,0,0
25712,2.6007e+07,1,0,0,16.8,0.03,26,0,0,0
26124,2.611e+07,1,0,0,16.8,0.03,27,0,0,0
26535,2.621e+07,1,0,0,16.8,0.03,26,0,0,0
26990,2.6324e+07,1,0,0,16.8,0.03,27,0,0,0
27400,2.6425e+07,1,0,0,16.81,0.03,27,0,0,0
27818,2.6529e+07,1,0,0,16.8,0.03,27,0,0,0
28260,2.6635e+07,1,0,0,16.8,0.03,27,0,0,0
28713,2.675e+07,1,0,0,16.8,0.03,26,0,0,0
29092,2.6845e+07,1,0,0,16.8,0.03,27,0,0,0
29542,2.6958e+07,1,0,0,16.8,0.03,27,0,0,0
29952,2.706e+07,1,0,0,16.8,0.03,27,0,0,0
30400,2.7171e+07,1,0,0,16.8,0.03,27,0,0,0
30813,2.7276e+07,1,0,0,16.8,0.03,27,0,0,0
31230,2.7379e+07,1,0,0,16.81,0.03,26,0,0,0
31649,2.7484e+07,1,0,0,16.8,0.03,27,0,0,0
32096,2.7595e+07,1,0,0,16.8,0.03,26,0,0,0
32548,2.7707e+07,1,0,0,16.8,0.02,27,0,0,0
32962,2.7811e+07,1,0,0,16.8,0.02,27,0,0,0
33379,2.7916e+07,1,0,0,16.8,0.02,27,0,0,0
33790,2.802e+07,1,0,0,16.8,0.03,27,0,0,0
34242,2.8134e+07,1,0,0,16.8,0.03,27,0,0,0
34654,2.8238e+07,1,0,0,16.8,0.03,27,0,0,0
35068,2.8341e+07,1,0,0,16.8,0.03,27,0,0,0
35509,2.8448e+07,1,0,0,16.8,0.03,27,0,0,0
35960,2.856e+07,1,0,0,16.8,0.03,27,0,0,0
36373,2.8662e+07,1,0,0,16.81,0.03,27,0,0,0
36790,2.8773e+07,1,0,0,16.8,0.03,27,0,0,0
37200,2.8876e+07,1,0,0,16.8,0.03,27,0,0,0
38472,2.9191e+07,1,0,0,16.8,0.02,26,0,0,0
38890,2.9299e+07,1,0,0,16.8,0.02,27,0,0,0
39337,2.9409e+07,1,0,0,16.8,0.02,26,0,0,0
39749,2.951e+07,1,0,0,16.8,0.02,26,0,0,0
40198,2.9622e+07,1,0,0,16.8,0.02,26,0,0,0
40642,2.9728e+07,1,0,0,16.8,0.03,27,0,0,0
41056,2.983e+07,1,0,0,16.8,0.03,26,0,0,0
41515,2.9944e+07,1,0,0,16.8,0.03,27,0,0,0
41929,3.0047e+07,1,0,0,16.8,0.03,26,0,0,0
42348,3.0152e+07,1,0,0,16.8,0.02,26,0,0,0
42765,3.0257e+07,1,0,0,16.8,0.02,27,0,0,0
43226,3.0371e+07,1,0,0,16.8,0.02,26,0,0,0
43641,3.0472e+07,1,0,0,16.8,0.02,27,0,0,0
44055,3.0575e+07,1,0,0,16.8,0.03,27,0,0,0
44509,3.0687e+07,1,0,0,16.8,0.03,27,0,0,0
44930,3.0791e+07,1,0,0,16.8,0.02,27,0,0,0
45383,3.0901e+07,1,0,0,16.8,0.02,27,0,0,0
45797,3.1007e+07,1,0,0,16.8,0.02,27,0,0,0
46211,3.1111e+07,1,0,0,16.8,0.02,27,0,0,0
46631,3.1219e+07,1,0,0,16.8,0.02,27,0,0,0
47045,3.132e+07,1,0,0,16.8,0.03,27,0,0,0
47489,3.1431e+07,1,0,0,16.8,0.02,27,0,0,0
47906,3.1536e+07,1,0,0,16.8,0.02,27,0,0,0
48318,3.1639e+07,1,0,0,16.8,0.02,27,0,0,0
48766,3.1751e+07,1,0,0,16.8,0.02,26,0,0,0
49626,3.196e+07,1,0,0,16.8,0.03,27,0,0,0
50040,3.2064e+07,1,0,0,16.8,0.03,27,0,0,0
50493,3.2174e+07,1,0,0,16.8,0.03,27,0,0,0
50912,3.2277e+07,1,0,0,16.8,0.03,27,0,0,0
51324,3.2384e+07,1,0,0,16.8,0.03,27,0,0,0
51767,3.2491e+07,1,0,0,16.8,0.02,27,0,0,0
52592,3.2701e+07,1,0,0,16.8,0.03,27,0,0,0
53047,3.2817e+07,1,0,0,16.8,0.03,27,0,0,0
53455,3.2918e+07,1,0,0,16.8,0.03,26,0,0,0
53865,3.3023e+07,1,0,0,16.8,0.03,27,0,0,0
54280,3.3127e+07,1,0,0,16.8,0.03,27,0,0,0
54766,3.3247e+07,1,0,0,16.8,0.03,27,0,0,0
55181,3.3354e+07,1,0,0,16.8,0.02,26,0,0,0
55591,3.3458e+07,1,0,0,16.8,0.02,26,0,0,0
56004,3.3562e+07,1,0,0,16.8,0.02,26,0,0,0
56292,5.082e+07,1,0,0,16.81,0.03,26,0,0,0
56626,5.0907e+07,1,0,0,16.81,0.03,26,0,0,0
57041,5.1008e+07,1,0,0,16.81,0.03,26,0,0,0
57455,5.1114e+07,1,0,0,16.81,0.03,26,0,0,0
57912,5.1225e+07,1,0,0,16.81,0.03,26,0,0,0
58324,5.1331e+07,1,0,0,16.81,0.03,26,0,0,0
58736,5.1432e+07,1,0,0,16.81,0.03,26,0,0,0
59186,5.1545e+07,1,0,0,16.81,0.03,26,0,0,0
59604,5.1649e+07,1,0,0,16.81,0.03,26,0,0,0
60016,5.1754e+07,1,0,0,16.82,0.03,26,0,0,0
60471,5.1866e+07,1,0,0,16.81,0.03,26,0,0,0
60879,5.1966e+07,1,0,0,16.81,0.03,26,0,0,0
61333,5.2084e+07,1,0,0,16.81,0.03,26,0,0,0
61746,5.2186e+07,1,0,0,16.81,0.03,26,0,0,0
62158,5.229e+07,1,0,0,16.81,0.03,26,0,0,0
62573,5.2391e+07,1,0,0,16.81,0.03,26,0,0,0
63021,5.2506e+07,1,0,0,16.81,0.03,26,0,0,0
63437,5.2609e+07,1,0,0,16.8,0.03,26,0,0,0
63852,5.2716e+07,1,0,0,16.81,0.03,26,0,0,0
64309,5.2831e+07,1,0,0,16.81,0.03,26,0,0,0
64691,5.2932e+07,1,0,0,16.81,0.03,26,0,0,0
65141,5.3038e+07,1,0,0,16.81,0.03,26,0,0,0
65557,5.3147e+07,1,0,0,16.81,0.03,26,0,0,0
65969,5.3248e+07,1,0,0,16.81,0.03,26,0,0,0
66455,5.3364e+07,1,0,0,16.82,0.03,26,0,0,0
66783,5.3465e+07,1,0,0,16.82,0.03,26,0,0,0
67193,5.3569e+07,1,0,0,16.81,0.03,26,0,0,0
67648,5.3681e+07,1,0,0,16.81,0.03,26,0,0,0
68059,5.3784e+07,1,0,0,16.81,0.03,26,0,0,0
68472,5.3889e+07,1,0,0,16.81,0.03,26,0,0,0
68928,5.4e+07,1,0,0,16.81,0.03,26,0,0,0
69342,5.4106e+07,1,0,0,16.82,0.03,26,0,0,0
69755,5.4209e+07,1,0,0,16.81,0.03,26,0,0,0
70625,5.443e+07,1,0,0,16.81,0.03,26,0,0,0
71008,5.4531e+07,1,0,0,16.81,0.03,26,0,0,0
71462,5.4642e+07,1,0,0,16.8,0.03,26,0,0,0
71874,5.4746e+07,1,0,0,16.81,0.03,26,0,0,0
72290,5.4851e+07,1,0,0,16.81,0.03,26,0,0,0
72708,5.4958e+07,1,0,0,16.81,0.03,26,0,0,0
73122,5.506e+07,1,0,0,16.81,0.03,26,0,0,0
73542,5.517e+07,1,0,0,16.81,0.03,26,0,0,0
74000,5.5283e+07,1,0,0,16.81,0.03,26,0,0,0
74410,5.5385e+07,1,0,0,16.81,0.03,26,0,0,0
74824,5.5489e+07,1,0,0,16.81,0.03,26,0,0,0
75279,5.5602e+07,1,0,0,16.81,0.03,26,0,0,0
75695,5.571e+07,1,0,0,16.8,0.03,26,0,0,0
76109,5.5811e+07,1,0,0,16.81,0.03,26,0,0,0
76560,5.5922e+07,1,0,0,16.81,0.03,26,0,0,0
76976,5.6027e+07,1,0,0,16.8,0.03,26,0,0,0
77394,5.6136e+07,1,0,0,16.81,0.03,26,0,0,0
77807,5.6239e+07,1,0,0,16.81,0.03,26,0,0,0
78257,5.6352e+07,1,0,0,16.81,0.03,26,0,0,0
78642,5.6453e+07,1,0,0,16.81,0.03,26,0,0,0
79097,5.6569e+07,1,0,0,16.81,0.03,26,0,0,0
79513,5.667e+07,1,0,0,16.81,0.03,26,0,0,0
79925,5.6779e+07,1,0,0,16.81,0.03,26,0,0,0
80343,5.6883e+07,1,0,0,16.81,0.03,26,0,0,0
80794,5.6994e+07,1,0,0,16.81,0.03,26,0,0,0
81207,5.7101e+07,1,0,0,16.81,0.03,26,0,0,0
81624,5.7204e+07,1,0,0,16.81,0.03,26,0,0,0
82073,5.7319e+07,1,0,0,16.81,0.03,26,0,0,0
82487,5.7421e+07,1,0,0,16.81,0.03,26,0,0,0
82899,5.7527e+07,1,0,0,16.81,0.03,26,0,0,0
83355,5.764e+07,1,0,0,16.81,0.03,26,0,0,0
83770,5.7744e+07,1,0,0,16.81,0.03,26,0,0,0
84183,5.7844e+07,1,0,0,16.81,0.03,26,0,0,0
84640,5.7959e+07,1,0,0,16.8,0.03,26,0,0,0
85027,5.8061e+07,1,0,0,16.81,0.03,26,0,0,0
85435,5.8163e+07,1,0,0,16.8,0.03,26,0,0,0
85894,5.8279e+07,1,0,0,16.81,0.03,26,0,0,0
86308,5.8382e+07,1,0,0,16.81,0.03,26,0,0,0
86757,5.8493e+07,1,0,0,16.81,0.03,26,0,0,0
87174,5.8598e+07,1,0,0,16.81,0.03,26,0,0,0
87594,5.8708e+07,1,0,0,16.81,0.03,26,0,0,0
88009,5.8808e+07,1,0,0,16.8,0.03,26,0,0,0
88423,5.8917e+07,1,0,0,16.81,0.03,26,0,0,0
88879,5.9031e+07,1,0,0,16.8,0.03,26,0,0,0
89327,5.9145e+07,1,0,0,16.81,0.03,26,0,0,0
89742,5.9249e+07,1,0,0,16.81,0.03,26,0,0,0
90152,5.935e+07,1,0,0,16.8,0.03,26,0,0,0
90606,5.9462e+07,1,0,0,16.8,0.03,26,0,0,0
91020,5.9566e+07,1,0,0,16.81,0.03,26,0,0,0
91474,5.9679e+07,1,0,0,16.81,0.03,26,0,0,0
91885,5.9782e+07,1,0,0,16.81,0.03,26,0,0,0
92341,5.9901e+07,1,0,0,16.81,0.03,26,0,0,0
92718,5.9993e+07,1,0,0,16.81,0.03,26,0,0,0
93182,6.011e+07,1,0,0,16.81,0.03,26,0,0,0
93596,6.0211e+07,1,0,0,16.8,0.03,26,0,0,0
94008,6.0317e+07,1,0,0,16.81,0.03,26,0,0,0
94466,6.0433e+07,1,0,0,16.81,0.03,26,0,0,0
94876,6.0534e+07,1,0,0,16.81,0.03,26,0,0,0
95333,6.0647e+07,1,0,0,16.8,0.03,26,0,0,0
95744,6.0751e+07,1,0,0,16.81,0.03,26,0,0,0
96157,6.0852e+07,1,0,0,16.81,0.03,26,0,0,0
96609,6.0963e+07,1,0,0,16.81,0.03,26,0,0,0
97441,6.1173e+07,1,0,0,16.81,0.03,26,0,0,0
97892,6.1286e+07,1,0,0,16.81,0.03,26,0,0,0
98309,6.1388e+07,1,0,0,16.81,0.03,26,0,0,0
98718,6.1489e+07,1,0,0,16.81,0.03,26,0,0,0
99131,6.1602e+07,1,0,0,16.81,0.03,26,0,0,0
99543,6.1707e+07,1,0,0,16.81,0.03,26,0,0,0
99960,6.1812e+07,1,0,0,16.81,0.03,26,0,0,0
1.0041e+05,6.1927e+07,1,0,0,16.81,0.03,26,0,0,0
1.0083e+05,6.203e+07,1,0,0,16.81,0.03,26,0,0,0
1.0124e+05,6.2137e+07,1,0,0,16.81,0.03,26,0,0,0
1.017e+05,6.2249e+07,1,0,0,16.8,0.03,26,0,0,0
1.0212e+05,6.2355e+07,1,0,0,16.8,0.03,26,0,0,0
1.0253e+05,6.2457e+07,1,0,0,16.81,0.03,26,0,0,0
1.0294e+05,6.2564e+07,1,0,0,16.81,0.03,26,0,0,0
1.0336e+05,6.2666e+07,1,0,0,16.81,0.03,26,0,0,0
1.0384e+05,6.2783e+07,1,0,0,16.81,0.03,26,0,0,0
1.0425e+05,6.2886e+07,1,0,0,16.81,0.03,26,0,0,0
1.0467e+05,6.2989e+07,1,0,0,16.81,0.03,26,0,0,0
1.0512e+05,6.3101e+07,1,0,0,16.81,0.03,26,0,0,0
1.0553e+05,6.3203e+07,1,0,0,16.81,0.03,26,0,0,0
1.0598e+05,6.3318e+07,1,0,0,16.81,0.03,26,0,0,0
1.064e+05,6.3422e+07,1,0,0,16.8,0.03,26,0,0,0
1.0681e+05,6.3526e+07,1,0,0,16.81,0.03,26,0,0,0
1.0727e+05,6.3639e+07,1,0,0,16.8,0.03,26,0,0,0
1.0768e+05,6.3743e+07,1,0,0,16.81,0.03,26,0,0,0
1.0813e+05,6.3854e+07,1,0,0,16.81,0.03,26,0,0,0
1.0855e+05,6.3958e+07,1,0,0,16.81,0.03,26,0,0,0
1.0896e+05,6.4059e+07,1,0,0,16.81,0.03,26,0,0,0
1.0938e+05,6.417e+07,1,0,0,16.8,0.03,26,0,0,0
1.0979e+05,6.4272e+07,1,0,0,16.81,0.03,26,0,0,0
1.1025e+05,6.4386e+07,1,0,0,16.81,0.03,26,0,0,0
1.1066e+05,6.4488e+07,1,0,0,16.81,0.03,26,0,0,0
1.1108e+05,6.4594e+07,1,0,0,16.81,0.03,26,0,0,0
1.1153e+05,6.4708e+07,1,0,0,16.81,0.03,26,0,0,0
1.1195e+05,6.481e+07,1,0,0,16.8,0.03,26,0,0,0
1.1278e+05,6.5019e+07,1,0,0,16.81,0.03,26,0,0,0
1.1323e+05,6.5134e+07,1,0,0,16.8,0.03,26,0,0,0
1.1364e+05,6.5234e+07,1,0,0,16.8,0.03,26,0,0,0
1.141e+05,6.5349e+07,1,0,0,16.81,0.03,26,0,0,0
1.1451e+05,6.5453e+07,1,0,0,16.81,0.03,26,0,0,0
1.1534e+05,6.5663e+07,1,0,0,16.8,0.03,26,0,0,0
1.1576e+05,6.577e+07,1,0,0,16.81,0.03,26,0,0,0
1.1598e+05,1.0486e+08,1,0,0,16.81,0.03,26,0,0,0
1.1629e+05,1.0494e+08,1,0,0,16.82,0.03,26,0,0,0
1.1675e+05,1.0505e+08,1,0,0,16.81,0.02,26,0,0,0
1.1721e+05,1.0516e+08,1,0,0,16.8,0.02,26,0,0,0
1.1771e+05,1.0527e+08,1,0,0,16.8,0.03,26,0,0,0
1.1817e+05,1.0537e+08,1,0,0,16.81,0.03,26,0,0,0
1.1862e+05,1.0547e+08,1,0,0,16.81,0.03,26,0,0,0
1.1907e+05,1.0558e+08,1,0,0,16.81,0.02,26,0,0,0
1.1953e+05,1.0569e+08,1,0,0,16.81,0.02,26,0,0,0
1.1998e+05,1.0579e+08,1,0,0,16.81,0.03,26,0,0,0
1.2051e+05,1.0591e+08,1,0,0,16.8,0.03,26,0,0,0
1.2097e+05,1.0601e+08,1,0,0,16.81,0.03,26,0,0,0
1.2142e+05,1.0612e+08,1,0,0,16.81,0.02,26,0,0,0
1.2192e+05,1.0623e+08,1,0,0,16.81,0.02,26,0,0,0
1.2237e+05,1.0634e+08,1,0,0,16.81,0.02,26,0,0,0
1.2283e+05,1.0644e+08,1,0,0,16.8,0.03,26,0,0,0
1.2328e+05,1.0655e+08,1,0,0,16.81,0.03,26,0,0,0
1.2375e+05,1.0666e+08,1,0,0,16.8,0.03,26,0,0,0
1.242e+05,1.0676e+08,1,0,0,16.8,0.03,26,0,0,0
1.247e+05,1.0687e+08,1,0,0,16.8,0.03,26,0,0,0
1.2515e+05,1.0698e+08,1,17,200,16.8,0.03,26,0,0,0
1.2564e+05,1.0709e+08,1,238,528,16.79,0.07,26,0,0,0
1.261e+05,1.0719e+08,1,554,942,16.78,0.14,26,0,0,0
1.2659e+05,1.0731e+08,1,965,1228,16.78,0.12,26,0,0,0
1.2704e+05,1.0741e+08,1,1231,1285,16.8,0.11,26,0,0,0
1.2782e+05,1.0763e+08,1,1314,1328,16.79,0.11,26,0,0,0
1.2828e+05,1.0773e+08,1,1328,1342,16.79,0.1,26,0,0,0
1.2873e+05,1.0783e+08,1,1341,1328,16.79,0.1,26,0,0,0
1.2922e+05,1.0795e+08,1,1328,1342,16.79,0.1,26,0,0,0
1.2968e+05,1.0805e+08,1,1342,1342,16.8,0.1,26,0,0,0
1.3014e+05,1.0816e+08,1,1342,1342,16.79,0.1,26,0,0,0
1.3064e+05,1.0827e+08,1,1342,1342,16.8,0.1,26,0,0,0
1.311e+05,1.0838e+08,1,1343,1357,16.79,0.1,26,0,0,0
1.3155e+05,1.0849e+08,1,1355,1342,16.79,0.1,26,0,0,0
1.32e+05,1.0859e+08,1,1342,1342,16.79,0.1,26,0,0,0
1.3246e+05,1.087e+08,1,1342,1357,16.79,0.1,26,0,0,0
1.3285e+05,1.0881e+08,1,1357,1357,16.79,0.1,26,0,0,0
1.333e+05,1.0892e+08,1,1355,1342,16.79,0.1,26,0,0,0
1.3376e+05,1.0902e+08,1,1342,1342,16.79,0.1,26,0,0,0
1.3418e+05,1.0912e+08,1,1342,1342,16.79,0.11,26,0,0,0
1.3467e+05,1.0924e+08,1,1343,1357,16.79,0.1,26,0,0,0
1.3513e+05,1.0934e+08,1,1357,1357,16.79,0.1,26,0,0,0
1.3563e+05,1.0945e+08,1,1357,1357,16.79,0.1,26,0,0,0
1.3608e+05,1.0956e+08,1,1355,1342,16.79,0.1,26,0,0,0
1.3653e+05,1.0966e+08,1,1342,1342,16.79,0.1,26,0,0,0
1.3696e+05,1.0977e+08,1,1342,1357,16.79,0.1,26,0,0,0
1.3746e+05,1.0988e+08,1,1356,1342,16.79,0.1,26,0,0,0
1.3795e+05,1.0999e+08,1,1343,1357,16.79,0.1,26,0,0,0
1.384e+05,1.1009e+08,1,1357,1357,16.79,0.1,26,0,0,0
1.3886e+05,1.102e+08,1,1357,1371,16.79,0.1,26,0,0,0
1.3931e+05,1.103e+08,1,1370,1357,16.79,0.1,26,0,0,0
1.3982e+05,1.1042e+08,1,1357,1357,16.79,0.1,26,0,0,0
1.4027e+05,1.1052e+08,1,1357,1357,16.78,0.1,26,0,0,0
1.4077e+05,1.1063e+08,1,1357,1357,16.79,0.1,26,0,0,0
1.4122e+05,1.1074e+08,1,1357,1357,16.79,0.1,26,0,0,0
1.4216e+05,1.1095e+08,1,1357,1357,16.79,0.1,26,0,0,0
1.4266e+05,1.1106e+08,1,1357,1357,16.78,0.1,26,0,0,0
1.4311e+05,1.1117e+08,1,1355,1342,16.79,0.1,26,0,0,0
1.4356e+05,1.1127e+08,1,1342,1357,16.79,0.1,26,0,0,0
1.4402e+05,1.1137e+08,1,1356,1342,16.79,0.1,26,0,0,0
1.4455e+05,1.1149e+08,1,1343,1357,16.79,0.1,26,0,0,0
1.45e+05,1.1159e+08,1,1355,1342,16.79,0.1,26,0,0,0
1.459e+05,1.118e+08,1,1342,1357,16.79,0.1,26,0,0,0
1.464e+05,1.1192e+08,1,1357,1357,16.78,0.1,26,0,0,0
1.4686e+05,1.1202e+08,1,1357,1357,16.79,0.1,26,0,0,0
1.4728e+05,1.1212e+08,1,1356,1342,16.79,0.1,26,0,0,0
1.4778e+05,1.1224e+08,1,1282,414,16.81,0,26,0,0,0
1.4823e+05,1.1234e+08,1,405,171,16.8,0.02,26,0,0,0
1.4869e+05,1.1245e+08,1,169,0,16.8,0.02,26,0,0,0
1.4922e+05,1.1257e+08,1,0,0,16.8,0.02,26,0,0,0
1.4967e+05,1.1267e+08,1,0,0,16.8,0.02,26,0,0,0
1.5013e+05,1.1278e+08,1,0,0,16.8,0.03,26,0,0,0
1.5062e+05,1.1289e+08,1,0,0,16.8,0.02,26,0,0,0
1.5107e+05,1.1299e+08,1,0,0,16.8,0.02,26,0,0,0
1.5203e+05,1.1322e+08,1,0,0,16.8,0.02,26,0,0,0
1.5248e+05,1.1332e+08,1,0,0,16.8,0.02,26,0,0,0
1.5293e+05,1.1343e+08,1,0,0,16.8,0.02,26,0,0,0
1.5339e+05,1.1354e+08,1,0,0,16.8,0.03,26,0,0,0
1.5384e+05,1.1364e+08,1,0,0,16.81,0.03,26,0,0,0
1.5426e+05,1.1375e+08,1,0,0,16.8,0.03,26,0,0,0
1.5475e+05,1.1386e+08,1,0,0,16.8,0.03,26,0,0,0
1.5524e+05,1.1397e+08,1,0,0,16.8,0.03,26,0,0,0
1.5566e+05,1.1408e+08,1,0,0,16.81,0.03,26,0,0,0
1.5612e+05,1.1418e+08,1,0,0,16.8,0.03,26,0,0,0
1.5706e+05,1.144e+08,1,0,0,16.8,0.03,26,0,0,0
1.5752e+05,1.1451e+08,1,0,0,16.8,0.03,26,0,0,0
1.5802e+05,1.1462e+08,1,0,0,16.81,0.03,26,0,0,0
1.5847e+05,1.1473e+08,1,0,0,16.8,0.03,26,0,0,0
1.5892e+05,1.1483e+08,1,0,0,16.8,0.03,26,0,0,0
1.5942e+05,1.1495e+08,1,0,0,16.8,0.03,26,0,0,0
1.5987e+05,1.1505e+08,1,0,0,16.81,0.03,26,0,0,0
1.6037e+05,1.1517e+08,1,0,0,16.8,0.03,26,0,0,0
1.6083e+05,1.1527e+08,1,0,0,16.8,0.03,26,0,0,0
1.6128e+05,1.1538e+08,1,0,0,16.81,0.03,26,0,0,0
1.6173e+05,1.1548e+08,1,0,0,16.8,0.03,26,0,0,0
1.6223e+05,1.156e+08,1,0,0,16.8,0.03,26,0,0,0
1.6264e+05,1.157e+08,1,0,0,16.8,0.03,26,0,0,0
1.6314e+05,1.1581e+08,1,0,0,16.8,0.03,26,0,0,0
1.6359e+05,1.1592e+08,1,0,0,16.8,0.03,26,0,0,0
1.6408e+05,1.1603e+08,1,0,0,16.81,0.03,26,0,0,0
1.6454e+05,1.1614e+08,1,0,0,16.8,0.03,26,0,0,0
1.6499e+05,1.1624e+08,1,0,0,16.8,0.03,26,0,0,0
1.6544e+05,1.1635e+08,1,0,0,16.8,0.03,26,0,0,0
1.6594e+05,1.1646e+08,1,0,0,16.8,0.03,26,0,0,0
1.6639e+05,1.1657e+08,1,0,0,16.8,0.03,26,0,0,0
1.669e+05,1.1669e+08,1,0,0,16.8,0.03,26,0,0,0
1.673e+05,1.1678e+08,1,0,0,16.8,0.03,26,0,0,0
1.6775e+05,1.1689e+08,1,0,0,16.8,0.03,26,0,0,0
1.6821e+05,1.17e+08,1,0,0,16.8,0.03,26,0,0,0
1.6871e+05,1.1712e+08,1,0,0,16.8,0.03,26,0,0,0
1.6916e+05,1.1722e+08,1,0,0,16.8,0.03,26,0,0,0
1.6962e+05,1.1733e+08,1,0,0,16.8,0.03,26,0,0,0
1.7007e+05,1.1743e+08,1,0,0,16.8,0.03,26,0,0,0
1.7052e+05,1.1754e+08,1,0,0,16.8,0.03,26,0,0,0
1.7102e+05,1.1765e+08,1,0,0,16.81,0.03,26,0,0,0
1.7147e+05,1.1776e+08,1,0,0,16.8,0.02,26,0,0,0
1.7196e+05,1.1787e+08,1,0,0,16.8,0.03,26,0,0,0
1.7242e+05,1.1798e+08,1,0,0,16.8,0.03,26,0,0,0
1.7287e+05,1.1808e+08,1,0,0,16.8,0.03,26,0,0,0
1.7332e+05,1.1819e+08,1,0,0,16.8,0.03,26,0,0,0
1.7377e+05,1.183e+08,1,0,0,16.8,0.03,26,0,0,0
1.7427e+05,1.1841e+08,1,0,0,16.8,0.03,26,0,0,0
1.7476e+05,1.1852e+08,1,0,0,16.8,0.03,26,0,0,0
1.7522e+05,1.1863e+08,1,0,0,16.8,0.03,26,0,0,0
1.7568e+05,1.1873e+08,1,0,0,16.8,0.03,26,0,0,0
1.7613e+05,1.1884e+08,1,0,0,16.8,0.03,26,0,0,0
1.7658e+05,1.1894e+08,1,0,0,16.81,0.03,26,0,0,0
1.7708e+05,1.1906e+08,1,0,0,16.81,0.03,26,0,0,0
1.7754e+05,1.1917e+08,1,0,0,16.8,0.03,26,0,0,0
1.7799e+05,1.1927e+08,1,0,0,16.8,0.03,26,0,0,0
1.7845e+05,1.1938e+08,1,0,0,16.8,0.02,26,0,0,0
1.789e+05,1.1948e+08,1,0,0,16.8,0.03,26,0,0,0
1.7936e+05,1.1959e+08,1,0,0,16.81,0.03,26,0,0,0
1.7986e+05,1.197e+08,1,0,0,16.81,0.03,26,0,0,0
1.8028e+05,1.1981e+08,1,0,0,16.8,0.03,26,0,0,0
1.8072e+05,1.1991e+08,1,0,0,16.81,0.03,26,0,0,0
1.8122e+05,1.2003e+08,1,0,0,16.8,0.03,26,0,0,0
1.8172e+05,1.2014e+08,1,0,0,16.8,0.03,26,0,0,0
1.8217e+05,1.2025e+08,1,0,0,16.8,0.03,26,0,0,0
1.8267e+05,1.2036e+08,1,0,0,16.8,0.02,26,0,0,0
1.8308e+05,1.2046e+08,1,0,0,16.8,0.02,26,0,0,0
1.8358e+05,1.2057e+08,1,0,0,16.81,0.03,26,0,0,0
1.8403e+05,1.2068e+08,1,0,0,16.8,0.03,26,0,0,0
1.8449e+05,1.2079e+08,1,0,0,16.81,0.03,26,0,0,0
1.849e+05,1.2089e+08,1,0,0,16.81,0.03,26,0,0,0
1.854e+05,1.21e+08,1,0,0,16.81,0.03,26,0,0,0
1.8631e+05,1.2121e+08,1,0,0,16.8,0.02,26,0,0,0
1.8677e+05,1.2132e+08,1,0,0,16.8,0.03,26,0,0,0
1.8726e+05,1.2144e+08,1,0,0,16.8,0.02,26,0,0,0
1.8771e+05,1.2154e+08,1,0,0,16.8,0.02,26,0,0,0
1.8816e+05,1.2164e+08,1,0,0,16.8,0.02,26,0,0,0
1.8863e+05,1.2176e+08,1,0,0,16.8,0.02,26,0,0,0
1.8908e+05,1.2186e+08,1,0,0,16.8,0.02,26,0,0,0
1.8957e+05,1.2197e+08,1,0,0,16.8,0.02,26,0,0,0
1.9006e+05,1.2209e+08,1,0,0,16.8,0.03,26,0,0,0
1.9052e+05,1.2219e+08,1,0,0,16.8,0.03,26,0,0,0
1.9098e+05,1.223e+08,1,0,0,16.8,0.03,26,0,0,0
1.9147e+05,1.2241e+08,1,0,0,16.81,0.03,26,0,0,0
1.9192e+05,1.2251e+08,1,0,0,16.81,0.02,26,0,0,0
1.9238e+05,1.2262e+08,1,0,0,16.8,0.03,26,0,0,0
1.9283e+05,1.2273e+08,1,0,0,16.8,0.03,26,0,0,0
1.9333e+05,1.2284e+08,1,0,0,16.8,0.03,26,0,0,0
1.9378e+05,1.2295e+08,1,0,0,16.8,0.03,26,0,0,0
1.9424e+05,1.2305e+08,1,0,0,16.8,0.03,26,0,0,0
1.947e+05,1.2316e+08,1,0,0,16.8,0.03,26,0,0,0
1.952e+05,1.2328e+08,1,0,0,16.8,0.02,26,0,0,0
1.9564e+05,1.2338e+08,1,0,0,16.8,0.02,26,0,0,0
1.961e+05,1.2349e+08,1,0,0,16.81,0.03,26,0,0,0
1.966e+05,1.236e+08,1,0,0,16.81,0.03,26,0,0,0
1.9701e+05,1.237e+08,1,0,0,16.8,0.03,26,0,0,0
1.9751e+05,1.2382e+08,1,0,0,16.81,0.03,26,0,0,0
1.9796e+05,1.2392e+08,1,0,0,16.8,0.03,26,0,0,0
1.9842e+05,1.2403e+08,1,0,0,16.82,0.03,26,0,0,0
1.9892e+05,1.2414e+08,1,0,0,16.8,0.03,26,0,0,0
2.0032e+05,1.2447e+08,1,0,0,16.8,0.03,26,0,0,0
2.0078e+05,1.2458e+08,1,0,0,16.81,0.02,26,0,0,0
2.0123e+05,1.2469e+08,1,0,0,16.81,0.03,26,0,0,0
2.0169e+05,1.248e+08,1,0,0,16.81,0.03,26,0,0,0
2.021e+05,1.249e+08,1,0,0,16.8,0.03,26,0,0,0
2.026e+05,1.2501e+08,1,0,0,16.8,0.03,26,0,0,0
2.0305e+05,1.2512e+08,1,0,0,16.81,0.03,26,0,0,0
2.0351e+05,1.2523e+08,1,0,0,16.81,0.03,26,0,0,0
2.04e+05,1.2534e+08,1,0,0,16.81,0.03,26,0,0,0
2.0446e+05,1.2545e+08,1,0,0,16.8,0.03,26,0,0,0
2.0491e+05,1.2555e+08,1,0,0,16.8,0.03,26,0,0,0
2.0541e+05,1.2567e+08,1,0,0,16.81,0.02,26,0,0,0
2.0582e+05,1.2577e+08,1,0,0,16.8,0.02,26,0,0,0
2.0628e+05,1.2588e+08,1,0,0,16.81,0.03,26,0,0,0
2.0674e+05,1.2599e+08,1,0,0,16.8,0.03,26,0,0,0
2.0724e+05,1.2611e+08,1,0,0,16.8,0.02,26,0,0,0
2.0769e+05,1.2621e+08,1,0,0,16.8,0.02,26,0,0,0
2.0814e+05,1.2632e+08,1,0,0,16.8,0.03,26,0,0,0
2.086e+05,1.2642e+08,1,0,0,16.8,0.03,26,0,0,0
2.0905e+05,1.2653e+08,1,0,0,16.8,0.03,26,0,0,0
2.0955e+05,1.2665e+08,1,0,0,16.8,0.02,26,0,0,0
2.0997e+05,1.2675e+08,1,0,0,16.8,0.02,26,0,0,0
2.1042e+05,1.2685e+08,1,0,0,16.8,0.03,26,0,0,0
2.1092e+05,1.2697e+08,1,0,0,16.8,0.02,26,0,0,0
2.1142e+05,1.2708e+08,1,0,0,16.8,0.02,26,0,0,0
2.1161e+05,1.9767e+08,1,0,0,16.79,0.03,27,1,0,0
2.1196e+05,1.9775e+08,1,0,0,16.79,0.03,27,1,0,0
2.1238e+05,1.9784e+08,1,0,0,16.8,0.02,27,1,0,0
2.1288e+05,1.9796e+08,1,0,0,16.79,0.02,27,1,0,0
2.1334e+05,1.9807e+08,1,0,0,16.79,0.02,27,1,0,0
2.1379e+05,1.9817e+08,1,0,0,16.8,0.02,27,1,0,0
2.1428e+05,1.9829e+08,1,0,0,16.8,0.02,27,1,0,0
2.1474e+05,1.9838e+08,1,0,0,16.79,0.02,27,1,0,0
2.1519e+05,1.9849e+08,1,0,0,16.79,0.02,27,1,0,0
2.1565e+05,1.986e+08,1,0,0,16.8,0.02,27,1,0,0
2.161e+05,1.987e+08,1,0,0,16.79,0.02,27,1,0,0
2.166e+05,1.9882e+08,1,0,0,16.79,0.03,27,1,0,0
2.1706e+05,1.9892e+08,1,0,0,16.8,0.03,27,1,0,0
2.1751e+05,1.9902e+08,1,0,0,16.79,0.02,27,1,0,0
2.18e+05,1.9914e+08,1,0,0,16.79,0.02,27,1,0,0
2.1846e+05,1.9924e+08,1,0,0,16.79,0.02,27,1,0,0
2.1892e+05,1.9935e+08,1,0,0,16.79,0.02,27,1,0,0
2.1937e+05,1.9945e+08,1,0,0,16.79,0.02,27,1,0,0
2.1987e+05,1.9956e+08,1,0,0,16.79,0.02,27,1,0,0
2.2033e+05,1.9967e+08,1,0,0,16.79,0.02,27,1,0,0
2.2078e+05,1.9978e+08,1,13,157,16.79,0.01,27,1,0,0
2.2124e+05,1.9988e+08,1,172,542,16.77,0.06,27,1,0,0
2.2169e+05,1.9998e+08,1,547,957,16.75,0.13,27,1,0,0
2.2217e+05,2.0009e+08,1,962,1214,16.77,0.12,27,1,0,0
2.2267e+05,2.002e+08,1,1219,1285,16.77,0.1,27,1,0,0
2.2313e+05,2.0031e+08,1,1286,1328,16.77,0.1,27,1,0,0
2.2354e+05,2.0042e+08,1,1328,1342,16.77,0.1,27,1,0,0
2.24e+05,2.0053e+08,1,1343,1357,16.77,0.1,27,1,0,0
2.2445e+05,2.0063e+08,1,1357,1357,16.78,0.09,28,1,0,0
2.254e+05,2.0085e+08,1,1357,1357,16.78,0.1,27,1,0,0
2.2582e+05,2.0095e+08,1,1357,1357,16.77,0.1,27,1,0,0
2.2631e+05,2.0106e+08,1,1357,1357,16.77,0.1,27,1,0,0
2.2677e+05,2.0116e+08,1,1357,1357,16.77,0.1,27,1,0,0
2.2727e+05,2.0128e+08,1,1355,1342,16.77,0.1,27,1,0,0
2.2772e+05,2.0138e+08,1,1343,1357,16.77,0.09,28,1,0,0
2.2817e+05,2.0148e+08,1,1357,1357,16.77,0.09,27,1,0,0
2.2867e+05,2.016e+08,1,1357,1357,16.77,0.1,27,1,0,0
2.2912e+05,2.017e+08,1,1357,1357,16.77,0.1,27,1,0,0
2.2958e+05,2.0181e+08,1,1357,1357,16.77,0.09,27,1,0,0
2.3004e+05,2.0191e+08,1,1357,1357,16.77,0.09,27,1,0,0
2.3049e+05,2.0201e+08,1,1357,1357,16.77,0.1,28,1,0,0
2.3099e+05,2.0212e+08,1,1357,1357,16.77,0.09,27,1,0,0
2.3144e+05,2.0223e+08,1,1357,1357,16.77,0.09,27,1,0,0
2.3194e+05,2.0235e+08,1,1357,1357,16.77,0.09,27,1,0,0
2.3236e+05,2.0244e+08,1,1357,1371,16.77,0.09,28,1,0,0
2.3286e+05,2.0256e+08,1,1369,1357,16.77,0.09,28,1,0,0
2.3331e+05,2.0266e+08,1,1357,1357,16.77,0.1,28,1,0,0
2.3381e+05,2.0277e+08,1,1357,1357,16.77,0.09,27,1,0,0
2.3426e+05,2.0287e+08,1,1357,1357,16.77,0.09,28,1,0,0
2.3503e+05,2.0309e+08,1,1357,1357,16.77,0.09,27,1,0,0
2.3592e+05,2.033e+08,1,1357,1357,16.77,0.1,27,1,0,0
2.3638e+05,2.0341e+08,1,1357,1357,16.78,0.09,28,1,0,0
2.3684e+05,2.0351e+08,1,1357,1357,16.77,0.09,27,1,0,0
2.373e+05,2.0362e+08,1,1357,1357,16.77,0.09,28,1,0,0
2.3775e+05,2.0372e+08,1,1357,1357,16.77,0.09,28,1,0,0
2.3825e+05,2.0383e+08,1,1357,1357,16.77,0.1,28,1,0,0
2.3871e+05,2.0394e+08,1,1357,1357,16.78,0.09,28,1,0,0
2.3916e+05,2.0404e+08,1,1357,1414,16.76,0.16,27,1,0,0
2.3965e+05,2.0415e+08,1,1428,1757,16.5,0.51,28,1,0,0
2.4056e+05,2.0436e+08,1,1784,5800,15.8,4.71,28,1,0,0
2.4106e+05,2.0448e+08,1,5814,5971,15.89,3.7,28,1,0,0
2.4151e+05,2.0458e+08,1,5970,5928,15.86,3.47,28,2,0,0
2.4204e+05,2.047e+08,1,5938,6000,16.11,2.65,28,2,0,0
2.4246e+05,2.0479e+08,1,5960,5028,16.32,1,28,2,0,0
2.4292e+05,2.049e+08,1,5013,4685,16.22,1.4,28,2,0,0
2.4339e+05,2.0501e+08,1,4681,4642,16.26,1.48,28,2,0,0
2.4384e+05,2.0511e+08,1,4634,4471,16.25,1.29,28,2,0,0
2.4433e+05,2.0522e+08,1,4473,4528,16.23,1.47,28,2,0,0
2.4479e+05,2.0533e+08,1,4526,4428,15.97,1.49,28,2,0,0
2.4528e+05,2.0544e+08,1,4472,4928,16.01,2.32,28,2,0,0
2.4574e+05,2.0554e+08,1,4934,5042,16.01,2.35,28,2,0,0
2.4624e+05,2.0566e+08,1,5043,5057,16.11,2.02,28,2,0,0
2.4668e+05,2.0575e+08,1,5047,4814,16.2,1.43,28,2,0,0
2.4718e+05,2.0587e+08,1,4828,5028,16.13,2.28,28,2,0,0
2.4759e+05,2.0596e+08,1,5023,4742,16.14,1.49,28,2,0,0
2.4813e+05,2.0608e+08,1,4737,4671,16.14,1.62,28,2,0,0
2.4858e+05,2.0619e+08,1,4675,4742,16.07,1.78,28,2,0,0
2.4907e+05,2.063e+08,1,4744,4771,16.14,1.85,28,2,0,0
2.4998e+05,2.065e+08,1,4774,4871,16.1,1.92,28,3,0,0
2.5043e+05,2.0661e+08,1,4879,5014,16.14,2.07,28,3,0,0
2.5088e+05,2.0672e+08,1,5013,5000,16.17,1.77,28,3,0,0
2.5133e+05,2.0683e+08,1,4997,4942,16.14,1.94,28,3,0,0
2.5178e+05,2.0694e+08,1,4939,4871,16.22,1.37,28,3,0,0
2.5223e+05,2.0704e+08,1,4864,4471,16.51,1.41,28,3,0,0
2.5272e+05,2.0716e+08,1,4367,3300,16.43,0.39,28,3,0,0
2.5317e+05,2.0726e+08,1,3353,3885,16.23,2.58,28,3,0,0
2.5361e+05,2.0737e+08,1,3935,4657,16.23,1.61,28,3,0,0
2.541e+05,2.0749e+08,1,4642,4542,16.23,1.52,28,3,0,0
2.5451e+05,2.0759e+08,1,4545,4742,16.21,1.89,28,3,0,0
2.5496e+05,2.077e+08,1,4731,4585,16.15,1.3,28,3,0,0
2.5541e+05,2.0781e+08,1,4582,4457,16.09,1.29,28,3,0,0
2.5631e+05,2.0803e+08,1,4457,4500,16.08,1.56,28,3,0,0
2.5675e+05,2.0814e+08,1,4513,4757,16.07,1.57,28,3,0,0
2.572e+05,2.0825e+08,1,4753,4671,16.07,1.49,28,3,0,0
2.5765e+05,2.0836e+08,1,4668,4471,16.12,1.09,28,3,0,0
2.5814e+05,2.0848e+08,1,4459,4342,16.09,1.21,28,3,0,0
2.5855e+05,2.0858e+08,1,4347,4400,16.13,1.27,28,3,0,0
2.5895e+05,2.0869e+08,1,4402,4457,16.13,1.33,28,3,0,0
2.5944e+05,2.088e+08,1,4456,4442,16.11,1.33,28,4,0,0
2.5984e+05,2.0891e+08,1,4444,4557,16.11,1.35,28,4,0,0
2.6034e+05,2.0902e+08,1,4548,4457,16.14,1.25,28,4,0,0
2.6074e+05,2.0913e+08,1,4441,4285,16.11,0.98,28,4,0,0
2.6119e+05,2.0924e+08,1,4270,4085,16.18,0.95,28,4,0,0
2.6164e+05,2.0935e+08,1,4092,4171,16.16,1.12,28,4,0,0
2.6208e+05,2.0946e+08,1,4161,4042,16.17,1.22,28,4,0,0
2.6249e+05,2.0956e+08,1,4042,4071,16.07,1.48,28,4,0,0
2.6298e+05,2.0968e+08,1,4066,4028,16.07,2,28,4,0,0
2.6338e+05,2.0978e+08,1,4031,4214,15.97,2.1,28,4,0,0
2.6387e+05,2.0989e+08,1,4215,4257,16.07,1.4,28,4,0,0
2.6432e+05,2.1e+08,1,4264,4314,16.07,1.16,28,4,0,0
2.6472e+05,2.101e+08,1,4312,4285,16.11,1.12,28,4,0,0
2.6517e+05,2.1021e+08,1,4280,4200,16.1,1.19,28,4,0,0
2.6561e+05,2.1033e+08,1,4212,4357,16.09,1.34,28,4,0,0
2.6607e+05,2.1044e+08,1,4365,4485,16.05,1.42,28,4,0,0
2.6647e+05,2.1054e+08,1,4483,4414,16.06,1.47,28,4,0,0
2.6696e+05,2.1065e+08,1,4422,4542,16.07,1.28,28,4,0,0
2.674e+05,2.1077e+08,1,4532,4457,16.08,1.26,28,4,0,0
2.6786e+05,2.1088e+08,1,4462,4514,16.07,1.34,28,4,0,0
2.6827e+05,2.1098e+08,1,4510,4442,16.12,1.27,28,4,0,0
2.6871e+05,2.1109e+08,1,4452,4642,16.08,1.66,28,4,0,0
2.6961e+05,2.1131e+08,1,4642,4642,16.05,1.62,28,5,0,0
2.7002e+05,2.1141e+08,1,4645,4700,16.01,1.57,28,5,0,0
2.7042e+05,2.1151e+08,1,4697,4542,16.04,1.36,28,5,0,0
2.7091e+05,2.1163e+08,1,4551,4642,16.02,1.57,28,5,0,0
2.7136e+05,2.1174e+08,1,4643,4657,16.08,1.44,28,5,0,0
2.7181e+05,2.1185e+08,1,4650,4585,16.04,1.28,28,5,0,0
2.7267e+05,2.1207e+08,1,4585,4600,16.05,1.47,28,5,0,0
2.7312e+05,2.1218e+08,1,4598,4585,16,1.32,28,5,0,0
2.7353e+05,2.1228e+08,1,4577,4457,16.04,1.27,28,5,0,0
2.7397e+05,2.1239e+08,1,4448,4371,16,1.34,28,5,0,0
2.7442e+05,2.125e+08,1,4379,4557,16.01,1.39,28,5,0,0
2.7487e+05,2.1261e+08,1,4555,4528,16.08,1.49,28,5,0,0
2.7532e+05,2.1272e+08,1,4528,4528,16.05,2.05,28,5,0,0
2.7616e+05,2.1293e+08,1,4521,4242,16.06,0.91,28,5,0,0
2.7662e+05,2.1304e+08,1,4245,4328,15.99,1.45,28,5,0,0
2.7707e+05,2.1316e+08,1,4348,4557,15.98,1.71,28,5,0,0
2.7751e+05,2.1326e+08,1,4587,4885,15.95,2.02,28,5,0,0
2.7795e+05,2.1336e+08,1,4887,4971,15.94,2.09,28,5,0,0
2.784e+05,2.1348e+08,1,4973,5171,16.02,1.88,28,5,0,0
2.7885e+05,2.1359e+08,1,5168,5128,15.98,1.76,28,5,0,0
2.793e+05,2.137e+08,1,5108,4928,16.05,1.59,28,6,0,0
2.7971e+05,2.1381e+08,1,4918,4785,16.04,1.53,28,6,0,0
2.8011e+05,2.1391e+08,1,4784,4771,16.01,1.65,28,6,0,0
2.8061e+05,2.1402e+08,1,4784,4928,15.99,2.01,28,6,0,0
2.8104e+05,2.1413e+08,1,4925,4871,16.05,1.83,28,6,0,0
2.8149e+05,2.1424e+08,1,4886,5185,16,2.32,28,6,0,0
2.8239e+05,2.1445e+08,1,5185,5271,15.97,2.3,28,6,0,0
2.8284e+05,2.1457e+08,1,5271,5271,15.98,2.07,28,6,0,0
2.8329e+05,2.1468e+08,1,5276,5328,15.95,2.28,28,6,0,0
2.8369e+05,2.1478e+08,1,5323,5228,15.92,2.19,28,6,0,0
2.8414e+05,2.1489e+08,1,5237,5457,15.91,2.89,28,6,0,0
2.8459e+05,2.15e+08,1,5466,5657,15.91,2.78,28,6,0,0
2.8504e+05,2.1511e+08,1,5648,5528,15.92,2.39,28,6,0,0
2.8546e+05,2.1522e+08,1,5501,4857,15.91,1.05,28,6,0,0
2.8594e+05,2.1533e+08,1,4906,5557,15.95,2.79,28,6,0,0
2.8639e+05,2.1544e+08,1,5528,5242,15.97,2.24,28,7,0,0
2.8684e+05,2.1555e+08,1,5237,5185,15.94,1.98,28,7,0,0
2.8728e+05,2.1566e+08,1,5179,4857,15.98,1.7,28,7,0,0
2.8773e+05,2.1577e+08,1,4861,4942,15.97,1.95,28,7,0,0
2.8863e+05,2.1599e+08,1,4948,5257,15.9,2.41,28,7,0,0
2.8912e+05,2.1611e+08,1,5269,5414,15.92,2.39,28,7,0,0
2.8957e+05,2.1622e+08,1,5414,5414,15.92,2.19,28,7,0,0
2.8998e+05,2.1632e+08,1,5411,5285,15.96,2.04,29,7,0,0
2.9043e+05,2.1642e+08,1,5273,5128,15.92,1.74,28,7,0,0
2.9083e+05,2.1653e+08,1,5131,5171,15.95,2.17,28,7,0,0
2.9128e+05,2.1664e+08,1,5174,5242,15.9,2.24,28,7,0,0
2.9173e+05,2.1675e+08,1,5232,5128,15.88,2.02,28,7,0,0
2.9218e+05,2.1686e+08,1,5125,5100,15.91,1.89,28,7,0,0
2.9259e+05,2.1697e+08,1,5093,5000,15.88,1.85,28,7,0,0
2.9304e+05,2.1708e+08,1,4994,4914,15.88,1.77,29,7,0,0
2.9344e+05,2.1718e+08,1,4913,4885,15.86,1.68,29,8,0,0
2.9393e+05,2.173e+08,1,4865,4671,15.86,1.48,28,8,0,0
2.9438e+05,2.1741e+08,1,4671,4671,15.86,1.49,29,8,0,0
2.9482e+05,2.1752e+08,1,4661,4571,15.88,1.59,29,8,0,0
2.9526e+05,2.1762e+08,1,4572,4642,15.85,1.6,29,8,0,0
2.9571e+05,2.1772e+08,1,4643,4685,15.85,1.58,29,8,0,0
2.962e+05,2.1785e+08,1,4686,4700,15.8,1.67,29,8,0,0
2.9661e+05,2.1795e+08,1,4710,4857,15.88,2.1,29,8,0,0
2.9706e+05,2.1806e+08,1,4872,5071,15.76,2.17,29,8,0,0
2.975e+05,2.1817e+08,1,5081,5300,15.75,2.63,29,8,0,0
2.9796e+05,2.1827e+08,1,5301,5328,15.76,2.28,29,8,0,0
2.984e+05,2.1839e+08,1,5322,5257,15.78,2.07,29,8,0,0
2.9884e+05,2.185e+08,1,5250,5171,15.83,1.9,29,8,0,0
2.9978e+05,2.1872e+08,1,5183,5457,15.83,2.77,29,8,0,0
3.0023e+05,2.1883e+08,1,5451,5414,15.73,2.71,29,8,0,0
3.0063e+05,2.1894e+08,1,5448,5828,15.66,3.42,29,9,0,0
3.0109e+05,2.1904e+08,1,5829,5857,15.64,3.2,29,9,0,0
3.0149e+05,2.1915e+08,1,5861,5971,15.68,2.93,29,9,0,0
3.0198e+05,2.1926e+08,1,5941,5628,15.77,2.39,29,9,0,0
3.0239e+05,2.1936e+08,1,5627,5585,15.75,2.52,29,9,0,0
3.0287e+05,2.1948e+08,1,5573,5414,15.77,2.24,29,9,0,0
3.0332e+05,2.1959e+08,1,5404,5300,15.75,2.26,29,9,0,0
3.0372e+05,2.1969e+08,1,5300,5300,15.84,2.14,29,9,0,0
3.0417e+05,2.198e+08,1,5300,5314,15.74,2.54,29,9,0,0
3.0462e+05,2.1991e+08,1,5328,5642,15.57,3.18,29,9,0,0
3.0507e+05,2.2002e+08,1,5655,5814,15.63,2.77,29,9,0,0
3.0552e+05,2.2013e+08,1,5782,5528,15.69,2.52,29,10,0,0
3.0597e+05,2.2024e+08,1,5519,5428,15.68,2.1,29,10,0,0
3.0638e+05,2.2035e+08,1,5409,5157,15.85,1.92,29,10,0,0
3.0683e+05,2.2045e+08,1,5151,5014,15.69,2.06,29,10,0,0
3.0728e+05,2.2056e+08,1,5044,5342,15.82,2.6,29,10,0,0
3.0772e+05,2.2067e+08,1,5307,4971,15.95,1.33,29,10,0,0
3.0813e+05,2.2077e+08,1,4959,4342,16.04,0.58,29,10,0,0
3.0858e+05,2.2088e+08,1,4333,3700,16.15,0.36,29,10,0,0
3.0902e+05,2.2099e+08,1,3690,3200,16.13,0.89,29,10,0,0
3.0995e+05,2.2121e+08,1,3191,2957,16.03,0.88,29,10,0,0
3.104e+05,2.2132e+08,1,2963,3028,16.05,0.75,29,10,0,0
3.1085e+05,2.2143e+08,1,3028,3028,16.03,0.8,29,10,0,0
3.1129e+05,2.2154e+08,1,3024,2971,16.04,0.53,29,10,0,0
3.1174e+05,2.2164e+08,1,2969,2942,16.01,0.87,29,10,0,0
3.1214e+05,2.2175e+08,1,2946,3157,16.03,0.97,29,10,0,0
3.1259e+05,2.2186e+08,1,3164,3300,16.03,0.82,29,10,0,0
3.1305e+05,2.2197e+08,1,3315,3485,16.03,1.03,29,10,0,0
3.135e+05,2.2208e+08,1,3477,3371,16.04,0.79,29,10,0,0
3.1394e+05,2.2219e+08,1,3367,3328,16.06,0.74,29,10,0,0
3.148e+05,2.224e+08,1,3319,3085,15.99,0.85,29,10,0,0
3.1529e+05,2.2252e+08,1,3118,3485,15.95,1.49,29,10,0,0
3.1569e+05,2.2262e+08,1,3508,3828,15.91,1.55,29,10,0,0
3.161e+05,2.2273e+08,1,3832,4028,16,1.23,29,10,0,0
3.1655e+05,2.2284e+08,1,4049,4471,15.94,1.91,29,10,0,0
3.1701e+05,2.2295e+08,1,4471,4471,15.97,1.27,29,10,0,0
3.1746e+05,2.2306e+08,1,4473,4500,16.01,1.3,29,10,0,0
3.1786e+05,2.2316e+08,1,4520,4785,15.96,1.77,29,11,0,0
3.1832e+05,2.2327e+08,1,4788,4842,16.01,1.36,29,11,0,0
3.1872e+05,2.2337e+08,1,4845,4914,15.98,1.54,29,11,0,0
3.1921e+05,2.235e+08,1,4914,4914,15.95,1.44,29,11,0,0
3.1962e+05,2.236e+08,1,4909,4814,15.93,1.44,29,11,0,0
3.2006e+05,2.237e+08,1,4813,4800,15.94,1.6,29,11,0,0
3.2051e+05,2.2381e+08,1,4800,4814,15.89,1.47,29,11,0,0
3.2099e+05,2.2393e+08,1,4815,4828,15.88,1.53,29,11,0,0
3.214e+05,2.2403e+08,1,4827,4785,15.89,1.48,29,11,0,0
3.2184e+05,2.2413e+08,1,4785,4785,15.89,1.58,29,11,0,0
3.2229e+05,2.2424e+08,1,4784,4742,15.87,1.45,29,11,0,0
3.2274e+05,2.2435e+08,1,4748,4814,15.86,1.58,29,11,0,0
3.2322e+05,2.2446e+08,1,4808,4728,15.86,1.86,29,11,0,0
3.2367e+05,2.2457e+08,1,4731,4800,15.84,1.66,29,11,0,0
3.2412e+05,2.2469e+08,1,4799,4785,15.84,1.62,29,11,0,0
3.2457e+05,2.2479e+08,1,4785,4785,15.84,1.54,29,11,0,0
3.2497e+05,2.249e+08,1,4783,4757,15.83,1.73,29,11,0,0
3.2542e+05,2.2501e+08,1,4765,4885,15.85,1.7,29,11,0,0
3.2587e+05,2.2512e+08,1,4886,4900,15.83,1.75,29,11,0,0
3.2632e+05,2.2523e+08,1,4902,5014,15.84,1.87,29,11,0,0
3.2677e+05,2.2534e+08,1,5017,5057,15.86,1.75,29,12,0,0
3.2721e+05,2.2545e+08,1,5054,5000,15.91,1.8,29,12,0,0
3.2763e+05,2.2556e+08,1,5007,5157,15.87,2.13,29,12,0,0
3.2808e+05,2.2567e+08,1,5147,5014,15.83,1.41,29,12,0,0
3.2853e+05,2.2578e+08,1,4993,4714,15.8,2.05,29,12,0,0
3.2898e+05,2.2589e+08,1,4730,5414,15.64,3.12,29,12,0,0
3.2943e+05,2.26e+08,1,5473,6042,15.63,4.81,29,12,0,0
3.3028e+05,2.2621e+08,1,6027,5642,15.67,2.7,29,12,0,0
3.3069e+05,2.2631e+08,1,5636,5514,15.62,3.37,29,12,0,0
3.3118e+05,2.2643e+08,1,5537,5785,15.8,1.77,29,12,0,0
3.3158e+05,2.2653e+08,1,5766,4842,15.82,1.47,29,12,0,0
3.3203e+05,2.2664e+08,1,4839,4642,15.92,1.08,29,12,0,0
3.3252e+05,2.2676e+08,1,4638,4600,15.88,1.45,29,12,0,0
3.3293e+05,2.2686e+08,1,4585,3742,15.88,0.36,29,12,0,0
3.3338e+05,2.2697e+08,1,3772,4957,15.83,3.49,29,12,0,0
3.3428e+05,2.2719e+08,1,4962,5285,15.79,2.15,29,13,0,0
3.3499e+05,2.2741e+08,1,4865,5085,15.97,2.19,29,13,0,0
3.3544e+05,2.2753e+08,1,5036,4528,15.95,0.49,29,13,0,0
3.3584e+05,2.2762e+08,1,4494,4100,15.98,0.79,29,13,0,0
3.3629e+05,2.2774e+08,1,4049,3742,16.01,1.08,29,13,0,0
3.3674e+05,2.2784e+08,1,3745,3785,15.97,1.21,29,13,0,0
3.3715e+05,2.2795e+08,1,3839,4542,15.96,3,29,13,0,0
3.376e+05,2.2806e+08,1,4545,4571,15.92,0.79,29,13,0,0
3.3801e+05,2.2817e+08,1,4581,4714,15.86,1.73,29,13,0,0
3.3845e+05,2.2828e+08,1,4709,4685,15.88,1.42,29,13,0,0
3.389e+05,2.2839e+08,1,4661,4428,15.88,1.45,29,13,0,0
3.3935e+05,2.2849e+08,1,4476,4885,15.85,2.77,29,13,0,0
3.398e+05,2.286e+08,1,4921,5285,15.85,1.95,29,13,0,0
3.4024e+05,2.2872e+08,1,5283,5271,15.83,1.94,29,13,0,0
3.4065e+05,2.2881e+08,1,5266,5200,15.8,1.74,29,13,0,0
3.4106e+05,2.2892e+08,1,5200,5200,15.76,1.86,29,13,0,0
3.4152e+05,2.2903e+08,1,5191,5100,15.79,1.35,29,13,0,0
3.4197e+05,2.2914e+08,1,5080,4642,15.76,1.29,29,14,0,0
3.4242e+05,2.2925e+08,1,4683,5100,15.75,2.61,29,14,0,0
3.429e+05,2.2936e+08,1,5126,5500,15.72,2.89,29,14,0,0
3.4335e+05,2.2947e+08,1,5506,5600,15.76,2.64,29,14,0,0
3.4376e+05,2.2958e+08,1,5595,5500,15.75,2.32,29,14,0,0
3.4421e+05,2.2968e+08,1,5487,5271,15.79,2.11,29,14,0,0
3.4465e+05,2.2979e+08,1,5269,5185,15.79,2.12,29,14,0,0
3.4514e+05,2.2991e+08,1,5178,5114,15.76,1.93,29,14,0,0
3.46e+05,2.3012e+08,1,5110,4971,15.83,1.86,29,14,0,0
3.4644e+05,2.3023e+08,1,4975,5071,15.85,1.94,29,14,0,0
3.469e+05,2.3034e+08,1,5062,4942,15.8,1.78,29,14,0,0
3.4734e+05,2.3045e+08,1,4942,4942,15.84,1.93,29,14,0,0
3.4782e+05,2.3056e+08,1,4952,5171,15.77,2.19,29,14,0,0
3.4828e+05,2.3067e+08,1,5172,5185,15.86,1.93,29,14,0,0
3.4913e+05,2.3089e+08,1,5205,5514,15.89,2.38,29,15,0,0
3.5044e+05,2.3121e+08,1,5498,4828,15.81,1.75,29,15,0,0
3.5088e+05,2.3131e+08,1,4848,5071,15.76,2.25,29,15,0,0
3.5133e+05,2.3142e+08,1,5087,5257,15.8,2.27,29,15,0,0
3.5173e+05,2.3152e+08,1,5257,5300,15.81,2.09,29,15,0,0
3.5218e+05,2.3163e+08,1,5291,5185,15.83,2.01,29,15,0,0
3.5258e+05,2.3174e+08,1,5185,5228,15.82,2.07,29,15,0,0
3.5307e+05,2.3185e+08,1,5224,5142,15.81,2.16,29,15,0,0
3.5347e+05,2.3196e+08,1,5139,5057,15.84,1.99,29,15,0,0
3.5397e+05,2.3208e+08,1,5064,5171,15.84,2,29,15,0,0
3.5441e+05,2.3218e+08,1,5166,5085,15.78,2.09,29,15,0,0
3.5483e+05,2.3229e+08,1,5088,5242,15.8,2.2,29,15,0,0
3.5527e+05,2.324e+08,1,5244,5285,15.8,2.49,29,15,0,0
3.5573e+05,2.3251e+08,1,5286,5400,15.79,2.52,29,15,0,0
3.5618e+05,2.3262e+08,1,5388,5285,15.75,2.58,29,16,0,0
3.566e+05,2.3272e+08,1,5297,5457,15.79,2.37,29,16,0,0
3.5706e+05,2.3283e+08,1,5457,5457,15.82,2.69,29,16,0,0
3.5751e+05,2.3294e+08,1,5452,5400,15.77,2.68,29,16,0,0
3.584e+05,2.3316e+08,1,5390,5185,15.91,3.17,29,16,0,0
3.5885e+05,2.3327e+08,1,5240,5785,15.85,3.33,29,16,0,0
3.593e+05,2.3338e+08,1,5788,5842,15.83,3.36,29,16,0,0
3.5974e+05,2.3349e+08,1,5846,5900,15.8,3.11,29,16,0,0
3.6019e+05,2.336e+08,1,5890,5628,15.81,2.78,29,16,0,0
3.6063e+05,2.337e+08,1,5634,5771,15.8,2.82,29,16,0,0
3.6108e+05,2.3382e+08,1,5759,5600,15.82,2.81,29,17,0,0
3.6152e+05,2.3393e+08,1,5604,5671,15.8,2.95,29,17,0,0
3.6198e+05,2.3404e+08,1,5671,5671,15.83,2.92,29,17,0,0
3.6242e+05,2.3415e+08,1,5680,5785,15.85,2.59,29,17,0,0
3.6287e+05,2.3426e+08,1,5776,5685,15.79,2.46,29,17,0,0
3.6328e+05,2.3436e+08,1,5677,5514,15.77,2.45,29,17,0,0
3.6372e+05,2.3446e+08,1,5514,5571,15.77,2.57,29,17,0,0
3.642e+05,2.3458e+08,1,5569,5542,15.8,2.54,29,17,0,0
3.6466e+05,2.3469e+08,1,5560,5728,15.69,2.76,29,17,0,0
3.6506e+05,2.3479e+08,1,5728,5742,15.8,2.87,29,17,0,0
3.655e+05,2.349e+08,1,5735,5457,15.82,2.29,29,17,0,0
3.6595e+05,2.3501e+08,1,5453,5257,15.8,2.28,29,17,0,0
3.6639e+05,2.3512e+08,1,5261,5300,15.75,2.44,29,17,0,0
3.6688e+05,2.3524e+08,1,5314,5414,15.78,2.61,29,18,0,0
3.6732e+05,2.3534e+08,1,5415,5428,15.78,2.5,29,18,0,0
3.6777e+05,2.3546e+08,1,5417,5357,15.74,2.44,29,18,0,0
3.6822e+05,2.3557e+08,1,5353,5328,15.75,2.23,29,18,0,0
3.6862e+05,2.3566e+08,1,5326,5214,15.8,2.04,29,18,0,0
3.6955e+05,2.359e+08,1,5217,5271,15.83,2.17,29,18,0,0
3.6995e+05,2.3599e+08,1,5270,5257,15.77,1.99,29,18,0,0
3.7041e+05,2.361e+08,1,5250,5100,15.77,1.78,29,18,0,0
3.7085e+05,2.3621e+08,1,5087,4871,15.8,1.67,29,18,0,0
3.7129e+05,2.3632e+08,1,4869,4771,15.77,1.6,29,18,0,0
3.7174e+05,2.3642e+08,1,4771,4771,15.82,1.48,29,18,0,0
3.7263e+05,2.3664e+08,1,4768,4514,15.79,1.24,29,18,0,0
3.7311e+05,2.3675e+08,1,4506,4385,15.81,1.2,29,18,0,0
3.7356e+05,2.3687e+08,1,4380,4328,15.84,1.11,29,18,0,0
3.7401e+05,2.3698e+08,1,4326,4314,15.76,1.26,29,18,0,0
3.7446e+05,2.3709e+08,1,4314,4314,15.83,1.29,29,18,0,0
3.7486e+05,2.3719e+08,1,4322,4414,15.72,1.34,29,18,0,0
3.7579e+05,2.3742e+08,1,4410,4342,15.8,1.07,29,19,0,0
3.7624e+05,2.3753e+08,1,4349,4428,15.79,1.38,29,19,0,0
3.7669e+05,2.3764e+08,1,4430,4457,15.82,1.4,29,19,0,0
3.7709e+05,2.3774e+08,1,4456,4414,15.72,1.57,29,19,0,0
3.7754e+05,2.3785e+08,1,4418,4500,15.79,1.46,29,19,0,0
3.7798e+05,2.3795e+08,1,4501,4542,15.77,1.7,29,19,0,0
3.7843e+05,2.3806e+08,1,4542,4600,15.71,1.67,29,19,0,0
3.7887e+05,2.3817e+08,1,4601,4628,15.77,1.52,29,19,0,0
3.7937e+05,2.3829e+08,1,4631,4657,15.77,1.65,29,19,0,0
3.7977e+05,2.3839e+08,1,4647,4557,15.8,1.4,29,19,0,0
3.8017e+05,2.385e+08,1,4557,4557,15.76,1.5,29,19,0,0
3.8062e+05,2.3861e+08,1,4554,4528,15.8,1.39,29,19,0,0
3.8102e+05,2.3871e+08,1,4528,4571,15.77,1.54,29,19,0,0
3.8147e+05,2.3882e+08,1,4570,4542,15.83,1.29,29,19,0,0
3.8194e+05,2.3893e+08,1,4542,4542,15.84,1.36,29,19,0,0
3.824e+05,2.3904e+08,1,4537,4485,15.8,1.28,29,19,0,0
3.8288e+05,2.3916e+08,1,4492,4571,15.83,1.45,29,19,0,0
3.8329e+05,2.3926e+08,1,4566,4471,15.83,1.44,29,19,0,0
3.8374e+05,2.3937e+08,1,4474,4557,15.82,1.21,29,19,0,0
3.8418e+05,2.3948e+08,1,4553,4471,15.79,1.44,29,19,0,0
3.8463e+05,2.3958e+08,1,4470,4457,15.83,1.31,29,19,0,0
3.8508e+05,2.3969e+08,1,4455,4385,15.85,1.14,29,19,0,0
3.8556e+05,2.3981e+08,1,4392,4500,15.84,1.3,29,20,0,0
3.8641e+05,2.4002e+08,1,4500,4514,15.8,1.49,29,20,0,0
3.8686e+05,2.4013e+08,1,4517,4571,15.78,1.33,29,20,0,0
3.8735e+05,2.4025e+08,1,4553,4357,15.89,1.05,29,20,0,0
3.8775e+05,2.4035e+08,1,4353,4285,15.83,1.27,29,20,0,0
3.882e+05,2.4046e+08,1,4294,4500,15.83,1.83,29,20,0,0
3.8865e+05,2.4057e+08,1,4505,4642,15.85,1.43,29,20,0,0
3.891e+05,2.4068e+08,1,4641,4628,15.81,1.33,29,20,0,0
3.8955e+05,2.4079e+08,1,4637,4857,15.82,1.82,29,20,0,0
3.8999e+05,2.409e+08,1,4855,4814,15.79,1.69,29,20,0,0
3.9044e+05,2.4101e+08,1,4819,4885,15.75,2.04,29,20,0,0
3.9084e+05,2.4111e+08,1,4888,5157,15.67,1.95,29,20,0,0
3.9133e+05,2.4122e+08,1,5158,5185,15.7,2.12,29,20,0,0
3.9178e+05,2.4133e+08,1,5189,5271,15.55,2.1,29,20,0,0
3.9223e+05,2.4144e+08,1,5256,5100,15.69,1.7,29,20,0,0
3.9264e+05,2.4155e+08,1,5097,4928,15.76,1.42,29,20,0,0
3.9313e+05,2.4167e+08,1,4917,4800,15.73,1.61,29,20,0,0
3.9353e+05,2.4177e+08,1,4799,4757,15.77,1.45,29,20,0,0
3.9402e+05,2.4189e+08,1,4751,4700,15.78,1.51,29,20,0,0
3.9447e+05,2.42e+08,1,4697,4671,15.77,1.5,29,20,0,0
3.9487e+05,2.421e+08,1,4656,4528,15.8,1.31,29,21,0,0
3.9535e+05,2.4221e+08,1,4521,4457,15.79,1.32,29,21,0,0
3.9575e+05,2.4231e+08,1,4456,4428,15.8,1.39,29,21,0,0
3.9624e+05,2.4243e+08,1,4433,4471,15.84,1.29,29,21,0,0
3.9709e+05,2.4264e+08,1,4478,4657,15.69,1.98,29,21,0,0
3.975e+05,2.4274e+08,1,4660,4871,15.77,1.83,29,21,0,0
3.9799e+05,2.4286e+08,1,4874,4957,15.72,1.92,29,21,0,0
3.9843e+05,2.4297e+08,1,4954,4828,15.77,1.7,29,21,0,0
3.9892e+05,2.4308e+08,1,4838,4928,15.77,1.68,29,21,0,0
3.9936e+05,2.4318e+08,1,4926,4871,15.72,1.67,29,21,0,0
3.9981e+05,2.433e+08,1,4862,4757,15.73,1.73,29,21,0,0
4.0021e+05,2.434e+08,1,4756,4742,15.86,1.61,29,21,0,0
4.0065e+05,2.4351e+08,1,4740,4642,15.81,1.31,29,21,0,0
4.011e+05,2.4361e+08,1,4640,4614,15.74,1.59,29,21,0,0
4.0154e+05,2.4373e+08,1,4614,4614,15.77,1.48,29,21,0,0
4.0199e+05,2.4384e+08,1,4612,4571,15.83,1.45,29,21,0,0
4.0244e+05,2.4395e+08,1,4574,4628,15.81,1.44,29,21,0,0
4.0289e+05,2.4405e+08,1,4629,4642,15.85,1.5,29,21,0,0
4.0333e+05,2.4416e+08,1,4639,4600,15.86,1.41,29,21,0,0
4.0374e+05,2.4426e+08,1,4600,4600,15.8,1.47,29,21,0,0
4.0418e+05,2.4437e+08,1,4601,4614,15.86,1.54,29,22,0,0
4.0463e+05,2.4449e+08,1,4622,4685,15.79,1.59,29,22,0,0
4.0508e+05,2.4459e+08,1,4686,4714,15.8,1.6,29,22,0,0
4.0552e+05,2.447e+08,1,4714,4728,15.77,1.53,29,22,0,0
4.0597e+05,2.4481e+08,1,4720,4614,15.82,1.34,29,22,0,0
4.0641e+05,2.4492e+08,1,4617,4671,15.82,1.45,29,22,0,0
4.0686e+05,2.4503e+08,1,4655,4500,15.76,1.21,29,22,0,0
4.0731e+05,2.4514e+08,1,4497,4471,15.82,1.24,29,22,0,0
4.0771e+05,2.4524e+08,1,4472,4514,15.8,1.48,29,22,0,0
4.0816e+05,2.4535e+08,1,4526,4771,15.78,1.59,29,22,0,0
4.086e+05,2.4545e+08,1,4770,4757,15.8,1.68,29,22,0,0
4.0872e+05,2.4556e+08,1,4756,4742,15.79,1.46,29,22,0,0
4.0916e+05,2.4567e+08,1,4740,4671,15.77,1.53,29,22,0,0
4.0961e+05,2.4578e+08,1,4673,4714,15.82,1.51,29,22,0,0
4.1009e+05,2.4589e+08,1,4687,4471,15.85,1.24,29,22,0,0
4.105e+05,2.4599e+08,1,4466,4400,15.86,1.22,29,22,0,0
4.1139e+05,2.4621e+08,1,4404,4528,15.87,1.35,29,22,0,0
4.118e+05,2.4631e+08,1,4528,4585,15.81,1.63,29,22,0,0
4.1229e+05,2.4643e+08,1,4599,4742,15.8,1.81,29,22,0,0
4.127e+05,2.4653e+08,1,4742,4771,15.7,1.61,29,22,0,0
4.1318e+05,2.4664e+08,1,4772,4814,15.78,1.52,29,22,0,0
4.1362e+05,2.4675e+08,1,4806,4714,15.8,1.48,29,22,0,0
4.1403e+05,2.4686e+08,1,4721,4900,15.81,1.7,29,23,0,0
4.1452e+05,2.4697e+08,1,4891,4814,15.8,1.73,29,23,0,0
4.1492e+05,2.4707e+08,1,4817,4900,15.75,1.79,29,23,0,0
4.1586e+05,2.473e+08,1,4892,4728,15.79,1.4,29,23,0,0
4.1626e+05,2.474e+08,1,4727,4714,15.77,1.46,29,23,0,0
4.1672e+05,2.4751e+08,1,4712,4700,15.78,1.45,29,23,0,0
4.1716e+05,2.4762e+08,1,4687,4557,15.79,1.49,29,23,0,0
4.1801e+05,2.4783e+08,1,4558,4614,15.83,1.48,29,23,0,0
4.1846e+05,2.4794e+08,1,4619,4728,15.82,1.6,29,23,0,0
4.1887e+05,2.4805e+08,1,4728,4757,15.75,1.57,29,23,0,0
4.202e+05,2.4837e+08,1,4757,4785,15.77,1.71,29,23,0,0
4.207e+05,2.4849e+08,1,4780,4742,15.83,1.45,29,23,0,0
4.2114e+05,2.486e+08,1,4749,4828,15.79,1.73,29,23,0,0
4.2158e+05,2.4871e+08,1,4845,5014,15.79,1.72,29,23,0,0
4.2199e+05,2.4881e+08,1,5011,4900,15.8,1.79,29,23,0,0
4.2243e+05,2.4892e+08,1,4900,4900,15.77,1.59,29,23,0,0
4.2293e+05,2.4904e+08,1,4892,4814,15.73,1.73,29,23,0,0
4.2329e+05,2.4914e+08,1,4816,4985,15.74,1.85,29,24,0,0
4.2378e+05,2.4925e+08,1,4985,4985,15.67,2.05,29,24,0,0
4.2422e+05,2.4936e+08,1,4987,5028,15.67,2.04,29,24,0,0
4.2467e+05,2.4946e+08,1,5030,5085,15.64,1.97,29,24,0,0
4.2512e+05,2.4958e+08,1,5079,4985,15.78,1.78,29,24,0,0
4.2557e+05,2.4969e+08,1,4989,5028,15.74,1.79,29,24,0,0
4.2601e+05,2.498e+08,1,5004,4785,15.77,1.25,29,24,0,0
4.2646e+05,2.499e+08,1,4779,4728,15.79,1.37,29,24,0,0
4.269e+05,2.5002e+08,1,4710,4557,15.82,1.24,29,24,0,0
4.2734e+05,2.5013e+08,1,4555,4542,15.78,1.32,29,24,0,0
4.2775e+05,2.5023e+08,1,4544,4571,15.77,1.41,29,24,0,0
4.282e+05,2.5034e+08,1,4551,4428,15.79,1.07,29,24,0,0
4.2861e+05,2.5044e+08,1,4429,4471,15.81,1.28,29,24,0,0
4.2906e+05,2.5055e+08,1,4474,4542,15.8,1.22,29,24,0,0
4.2951e+05,2.5066e+08,1,4527,4357,15.86,1.17,29,24,0,0
4.2996e+05,2.5077e+08,1,4361,4400,15.84,1.16,29,24,0,0
4.3085e+05,2.5099e+08,1,4401,4428,15.88,1.06,28,24,0,0
4.313e+05,2.511e+08,1,4418,4328,15.89,1.04,29,24,0,0
4.3169e+05,2.512e+08,1,4331,4485,15.82,1.47,29,24,0,0
4.3218e+05,2.5132e+08,1,4507,4742,15.81,1.61,29,24,0,0
4.3259e+05,2.5143e+08,1,4734,4657,15.88,1.12,29,24,0,0
4.33e+05,2.5152e+08,1,4655,4557,15.73,1.66,29,24,0,0
4.3345e+05,2.5163e+08,1,4557,4614,15.86,1.54,29,25,0,0
4.3388e+05,2.5174e+08,1,4618,4728,15.82,1.42,29,25,0,0
4.3433e+05,2.5185e+08,1,4726,4685,15.8,1.63,29,25,0,0
4.3482e+05,2.5197e+08,1,4694,4785,15.75,1.61,29,25,0,0
4.3568e+05,2.5218e+08,1,4780,4685,15.73,1.44,28,25,0,0
4.3612e+05,2.5228e+08,1,4684,4657,15.78,1.38,29,25,0,0
4.366e+05,2.524e+08,1,4649,4542,15.75,1.28,29,25,0,0
4.3701e+05,2.525e+08,1,4536,4414,15.8,1,29,25,0,0
4.3746e+05,2.5261e+08,1,4403,4285,15.83,1.03,28,25,0,0
4.3831e+05,2.5282e+08,1,4285,4314,15.82,1.64,29,25,0,0
4.3879e+05,2.5294e+08,1,4328,4542,15.79,1.27,28,25,0,0
4.3924e+05,2.5305e+08,1,4540,4514,15.82,1.33,29,25,0,0
4.3968e+05,2.5316e+08,1,4515,4528,15.77,1.54,29,25,0,0
4.4009e+05,2.5326e+08,1,4529,4557,15.83,1.24,28,25,0,0
4.4054e+05,2.5337e+08,1,4552,4442,15.81,1.26,28,25,0,0
4.4098e+05,2.5348e+08,1,4443,4542,15.88,1.18,29,25,0,0
4.4147e+05,2.536e+08,1,4547,4600,15.8,1.57,28,25,0,0
4.4187e+05,2.537e+08,1,4594,4542,15.83,1.42,29,25,0,0
4.4228e+05,2.538e+08,1,4540,4457,15.76,1.4,29,25,0,0
4.4273e+05,2.5391e+08,1,4467,4614,15.8,1.34,28,25,0,0
4.4318e+05,2.5402e+08,1,4618,4728,15.73,1.78,29,25,0,0
4.436e+05,2.5413e+08,1,4737,4985,15.72,1.82,28,26,0,0
4.4408e+05,2.5424e+08,1,4984,4971,15.73,1.75,29,26,0,0
4.4448e+05,2.5434e+08,1,4963,4800,15.76,1.25,28,26,0,0
4.4494e+05,2.5445e+08,1,4794,4671,15.76,1.3,28,26,0,0
4.4538e+05,2.5456e+08,1,4670,4657,15.73,1.41,28,26,0,0
4.4583e+05,2.5467e+08,1,4657,4657,15.76,1.52,28,26,0,0
4.4628e+05,2.5478e+08,1,4656,4642,15.77,1.4,28,26,0,0
4.4672e+05,2.5489e+08,1,4641,4628,15.75,1.38,28,26,0,0
4.4713e+05,2.5499e+08,1,4626,4571,15.76,1.47,28,26,0,0
4.4758e+05,2.551e+08,1,4571,4585,15.77,1.31,28,26,0,0
4.4803e+05,2.5521e+08,1,4591,4685,15.75,1.55,28,26,0,0
4.4848e+05,2.5533e+08,1,4678,4614,15.82,1.53,28,26,0,0
4.4933e+05,2.5554e+08,1,4631,4985,15.75,2,28,26,0,0
4.4978e+05,2.5564e+08,1,4983,4942,15.76,1.68,28,26,0,0
4.5019e+05,2.5575e+08,1,4947,5057,15.76,2.1,28,26,0,0
4.5064e+05,2.5586e+08,1,5053,4985,15.75,1.85,28,26,0,0
4.5108e+05,2.5597e+08,1,4989,5114,15.79,1.76,28,26,0,0
4.5153e+05,2.5608e+08,1,5107,4971,15.82,1.79,28,26,0,0
4.5198e+05,2.5619e+08,1,4972,5028,15.77,1.56,28,26,0,0
4.5247e+05,2.5631e+08,1,5031,5057,15.76,1.54,28,26,0,0
4.5288e+05,2.5641e+08,1,5042,4900,15.81,1.59,28,26,0,0
4.5373e+05,2.5662e+08,1,4899,4871,15.76,1.57,28,27,0,0
4.5413e+05,2.5672e+08,1,4866,4657,15.76,1.16,28,27,0,0
4.5503e+05,2.5694e+08,1,4656,4628,15.75,1.38,28,27,0,0
4.5548e+05,2.5705e+08,1,4627,4600,15.78,1.37,28,27,0,0
4.5592e+05,2.5716e+08,1,4595,4485,15.81,1.23,28,27,0,0
4.564e+05,2.5727e+08,1,4491,4557,15.75,1.38,28,27,0,0
4.5685e+05,2.5738e+08,1,4560,4614,15.73,1.57,28,27,0,0
4.573e+05,2.575e+08,1,4612,4600,15.76,1.29,28,27,0,0
4.5819e+05,2.5771e+08,1,4596,4514,15.74,1.25,28,27,0,0
4.5864e+05,2.5782e+08,1,4518,4585,15.75,1.74,28,27,0,0
4.5905e+05,2.5793e+08,1,4592,4785,15.75,1.36,28,27,0,0
4.5953e+05,2.5804e+08,1,4774,4542,15.74,1.25,28,27,0,0
4.5997e+05,2.5815e+08,1,4542,4557,15.73,1.92,28,27,0,0
4.6042e+05,2.5826e+08,1,4564,4742,15.64,1.53,28,27,0,0
4.6086e+05,2.5837e+08,1,4737,4671,15.73,1.33,28,27,0,0
4.6132e+05,2.5848e+08,1,4668,4642,15.77,1.24,28,27,0,0
4.6175e+05,2.5859e+08,1,4639,4585,15.73,1.48,28,27,0,0
4.6224e+05,2.5871e+08,1,4589,4628,15.74,1.36,28,27,0,0
4.6264e+05,2.5881e+08,1,4632,4700,15.74,1.59,28,27,0,0
4.6305e+05,2.5892e+08,1,4699,4657,15.73,1.41,28,27,0,0
4.6354e+05,2.5903e+08,1,4657,4657,15.75,1.44,28,28,0,0
4.6398e+05,2.5914e+08,1,4654,4628,15.69,1.42,28,28,0,0
4.6443e+05,2.5925e+08,1,4628,4628,15.74,1.51,28,28,0,0
4.6484e+05,2.5936e+08,1,4634,4685,15.77,1.46,28,28,0,0
4.6525e+05,2.5946e+08,1,4684,4657,15.73,1.49,28,28,0,0
4.6569e+05,2.5957e+08,1,4662,4771,15.63,1.97,28,28,0,0
4.6618e+05,2.5968e+08,1,4779,4857,15.7,1.74,28,28,0,0
4.6662e+05,2.598e+08,1,4846,4742,15.75,1.4,28,28,0,0
4.6704e+05,2.5989e+08,1,4739,4685,15.71,1.46,28,28,0,0
4.6748e+05,2.6001e+08,1,4666,4428,15.76,1.18,28,28,0,0
4.6792e+05,2.6012e+08,1,4430,4457,15.77,1.12,28,28,0,0
4.6841e+05,2.6023e+08,1,4444,4300,15.8,1.04,28,28,0,0
4.6881e+05,2.6033e+08,1,4314,4457,15.84,1.17,28,28,0,0
4.693e+05,2.6045e+08,1,4437,4157,15.76,1.18,28,28,0,0
4.6971e+05,2.6055e+08,1,4150,4057,15.81,0.96,28,28,0,0
4.7016e+05,2.6066e+08,1,4015,3600,15.82,1.06,28,28,0,0
4.7106e+05,2.6089e+08,1,3585,3285,15.79,1.35,28,28,0,0
4.7145e+05,2.6098e+08,1,3284,3228,15.85,1.07,28,28,0,0
4.7191e+05,2.6109e+08,1,3236,3757,15.76,2.01,28,28,0,0
4.7235e+05,2.612e+08,1,3762,4071,15.66,1.51,28,28,0,0
4.7283e+05,2.6132e+08,1,4095,4414,15.63,1.73,28,28,0,0
4.7324e+05,2.6142e+08,1,4418,4571,15.69,1.49,28,29,0,0
4.7372e+05,2.6154e+08,1,4569,4557,15.72,1.53,28,29,0,0
4.7414e+05,2.6164e+08,1,4548,4414,15.75,1.35,28,29,0,0
4.7462e+05,2.6176e+08,1,4408,4342,15.73,1.08,28,29,0,0
4.7507e+05,2.6187e+08,1,4335,4271,15.75,1.18,28,29,0,0
4.7551e+05,2.6198e+08,1,4269,4257,15.79,1.28,28,29,0,0
4.7595e+05,2.6208e+08,1,4245,4014,15.76,1.01,28,29,0,0
4.764e+05,2.6219e+08,1,3979,3528,15.86,0.7,28,29,0,0
4.7685e+05,2.623e+08,1,3526,3400,15.83,0.9,28,29,0,0
4.7774e+05,2.6252e+08,1,3421,3871,15.76,1.54,28,29,0,0
4.7819e+05,2.6263e+08,1,3881,4142,15.75,1.45,28,29,0,0
4.7863e+05,2.6274e+08,1,4145,4214,15.75,1.65,28,29,0,0
4.7908e+05,2.6284e+08,1,4246,4671,15.67,1.97,28,29,0,0
4.7953e+05,2.6296e+08,1,4704,5028,15.59,2.21,28,29,0,0
4.8001e+05,2.6307e+08,1,5049,5271,15.51,2.4,28,29,0,0
4.8045e+05,2.6318e+08,1,5281,5500,15.39,2.64,28,29,0,0
4.8091e+05,2.6329e+08,1,5522,5757,15.31,3.08,28,29,0,0
4.8131e+05,2.6339e+08,1,5767,5971,15.26,3.87,28,29,0,0
4.8176e+05,2.6351e+08,1,5971,5971,15.32,3.38,28,29,0,0
4.8265e+05,2.6372e+08,1,5954,5414,15.44,2.46,28,30,0,0
4.8306e+05,2.6382e+08,1,5413,5400,15.41,2.71,28,30,0,0
4.8351e+05,2.6394e+08,1,5400,5428,15.44,2.67,28,30,0,0
4.8399e+05,2.6405e+08,1,5435,5528,15.51,2.59,28,30,0,0
4.8443e+05,2.6416e+08,1,5518,5400,15.51,2.52,28,30,0,0
4.8484e+05,2.6426e+08,1,5401,5442,15.5,2.51,28,30,0,0
4.8529e+05,2.6437e+08,1,5439,5371,15.53,2.5,28,30,0,0
4.8574e+05,2.6448e+08,1,5361,5257,15.55,2.15,28,30,0,0
4.8618e+05,2.6459e+08,1,5242,5100,15.64,1.99,28,30,0,0
4.8663e+05,2.647e+08,1,5097,5071,15.6,2.15,28,30,0,0
4.8707e+05,2.6481e+08,1,5072,5085,15.67,2.25,28,30,0,0
4.8752e+05,2.6492e+08,1,5085,5085,15.68,2.21,28,30,0,0
4.8796e+05,2.6503e+08,1,5098,5300,15.64,2.35,28,31,0,0
4.8841e+05,2.6514e+08,1,5292,5128,15.63,2.16,28,31,0,0
4.8886e+05,2.6525e+08,1,5122,5057,15.66,2.13,28,31,0,0
4.893e+05,2.6536e+08,1,5047,4928,15.72,1.75,28,31,0,0
4.8976e+05,2.6547e+08,1,4924,4885,15.75,1.71,28,31,0,0
4.902e+05,2.6558e+08,1,4876,4828,15.75,2.08,28,31,0,0
4.9061e+05,2.6568e+08,1,4831,5042,15.73,2.07,28,31,0,0
4.9105e+05,2.6579e+08,1,5040,4942,15.76,1.85,28,31,0,0
4.915e+05,2.6589e+08,1,4938,4800,15.79,1.48,28,31,0,0
4.9198e+05,2.6601e+08,1,4794,4657,15.73,1.61,28,31,0,0
4.9243e+05,2.6612e+08,1,4660,4714,15.77,1.8,28,31,0,0
4.9287e+05,2.6623e+08,1,4730,4914,15.77,1.88,28,31,0,0
4.9332e+05,2.6634e+08,1,4899,4785,15.72,1.78,28,31,0,0
4.9376e+05,2.6645e+08,1,4805,4957,15.73,1.8,28,31,0,0
4.9418e+05,2.6655e+08,1,4953,4871,15.7,2,28,31,0,0
4.9462e+05,2.6666e+08,1,4877,4928,15.72,1.86,28,31,0,0
4.9502e+05,2.6676e+08,1,4929,5042,15.69,1.99,28,31,0,0
4.9551e+05,2.6688e+08,1,5039,5014,15.72,1.94,28,31,0,0
4.9592e+05,2.6698e+08,1,5013,5000,15.66,2.14,29,32,0,0
4.9641e+05,2.671e+08,1,5007,5071,15.69,1.93,28,32,0,0
4.9681e+05,2.672e+08,1,5069,5042,15.69,1.78,28,32,0,0
4.9726e+05,2.6731e+08,1,5041,5000,15.6,1.8,28,32,0,0
4.9771e+05,2.6742e+08,1,4998,4985,15.67,1.85,28,32,0,0
4.9812e+05,2.6753e+08,1,4983,4871,15.69,1.54,28,32,0,0
4.9861e+05,2.6765e+08,1,4863,4800,15.7,1.45,28,32,0,0
4.9901e+05,2.6775e+08,1,4800,4800,15.71,1.5,28,32,0,0
4.9946e+05,2.6786e+08,1,4798,4757,15.73,1.53,28,32,0,0
4.9991e+05,2.6797e+08,1,4758,4771,15.67,1.66,28,32,0,0
5.0032e+05,2.6807e+08,1,4777,4928,15.66,1.94,29,32,0,0
5.0077e+05,2.6818e+08,1,4928,4928,15.74,1.64,28,32,0,0
5.0121e+05,2.683e+08,1,4918,4828,15.74,1.5,28,32,0,0
5.0162e+05,2.684e+08,1,4827,4814,15.7,1.56,28,32,0,0
5.0206e+05,2.685e+08,1,4814,4857,15.66,1.98,28,32,0,0
5.0251e+05,2.6861e+08,1,4861,5042,15.66,1.87,28,32,0,0
5.0341e+05,2.6884e+08,1,5042,5042,15.69,1.75,28,32,0,0
5.0381e+05,2.6895e+08,1,5042,5042,15.69,2.03,28,33,0,0
5.0426e+05,2.6905e+08,1,5034,4942,15.69,1.77,28,33,0,0
5.0475e+05,2.6917e+08,1,4946,4985,15.7,1.75,28,33,0,0
5.0559e+05,2.6938e+08,1,4977,4771,15.7,1.52,28,33,0,0
5.0604e+05,2.6949e+08,1,4771,4771,15.72,1.54,28,33,0,0
5.0645e+05,2.6959e+08,1,4771,4814,15.72,1.67,28,33,0,0
5.0697e+05,2.6972e+08,1,4805,4714,15.69,1.49,28,33,0,0
5.0827e+05,2.7003e+08,1,4716,4885,15.69,1.73,28,33,0,0
5.0871e+05,2.7015e+08,1,4897,5028,15.73,1.83,28,33,0,0
5.0916e+05,2.7025e+08,1,5036,5128,15.7,2.28,28,33,0,0
5.0956e+05,2.7036e+08,1,5128,5157,15.66,1.99,28,33,0,0
5.1006e+05,2.7047e+08,1,5145,4971,15.72,1.87,28,33,0,0
5.1046e+05,2.7058e+08,1,4975,5071,15.67,1.73,28,33,0,0
5.1091e+05,2.7068e+08,1,5073,5114,15.7,1.9,28,33,0,0
5.1136e+05,2.7079e+08,1,5113,5071,15.66,1.92,28,33,0,0
5.1184e+05,2.7091e+08,1,5080,5200,15.7,1.77,28,33,0,0
5.1225e+05,2.7101e+08,1,5194,5128,15.7,1.75,28,33,0,0
5.1265e+05,2.7111e+08,1,5128,5128,15.67,1.81,28,34,0,0
5.1314e+05,2.7123e+08,1,5120,5042,15.69,1.86,28,34,0,0
5.1355e+05,2.7133e+08,1,5043,5128,15.67,1.87,28,34,0,0
5.1403e+05,2.7144e+08,1,5123,5057,15.62,1.73,28,34,0,0
5.1448e+05,2.7156e+08,1,5061,5114,15.6,1.71,28,34,0,0
5.1489e+05,2.7166e+08,1,5104,4928,15.62,1.65,28,34,0,0
5.1533e+05,2.7177e+08,1,4934,5000,15.63,1.72,28,34,0,0
5.1574e+05,2.7187e+08,1,5002,5142,15.6,2.1,28,34,0,0
5.1622e+05,2.7199e+08,1,5150,5271,15.64,2.39,28,34,0,0
5.1667e+05,2.721e+08,1,5283,5414,15.64,2.41,28,34,0,0
5.1707e+05,2.722e+08,1,5412,5385,15.63,2.16,28,34,0,0
5.1752e+05,2.7231e+08,1,5379,5271,15.66,2.07,28,34,0,0
5.1798e+05,2.7243e+08,1,5252,5071,15.67,1.9,28,34,0,0
5.1838e+05,2.7253e+08,1,5074,5142,15.66,2.11,28,34,0,0
5.1882e+05,2.7263e+08,1,5141,5128,15.58,1.97,28,34,0,0
5.1928e+05,2.7275e+08,1,5129,5157,15.63,2.03,28,34,0,0
5.1972e+05,2.7285e+08,1,5156,5142,15.66,1.97,28,35,0,0
5.2017e+05,2.7297e+08,1,5135,5042,15.72,1.79,28,35,0,0
5.2062e+05,2.7308e+08,1,5048,5128,15.72,1.87,28,35,0,0
5.2106e+05,2.7318e+08,1,5125,5085,15.69,1.74,28,35,0,0
5.2155e+05,2.733e+08,1,5080,5028,15.7,1.87,28,35,0,0
5.22e+05,2.7341e+08,1,5033,5085,15.66,1.76,28,35,0,0
5.2284e+05,2.7362e+08,1,5087,5157,15.72,2.07,28,35,0,0
5.2325e+05,2.7373e+08,1,5159,5200,15.7,1.99,28,35,0,0
5.237e+05,2.7383e+08,1,5202,5242,15.69,2.02,28,35,0,0
5.2414e+05,2.7394e+08,1,5238,5171,15.65,1.95,28,35,0,0
5.246e+05,2.7405e+08,1,5175,5228,15.68,1.91,28,35,0,0
5.2508e+05,2.7417e+08,1,5223,5171,15.69,1.77,28,35,0,0
5.2552e+05,2.7428e+08,1,5162,5071,15.66,1.83,28,35,0,0
5.2593e+05,2.7438e+08,1,5073,5157,15.69,2.07,28,35,0,0
5.2638e+05,2.7449e+08,1,5156,5128,15.69,2.01,28,35,0,0
5.2682e+05,2.746e+08,1,5126,5114,15.69,1.83,28,35,0,0
5.2726e+05,2.7471e+08,1,5106,5028,15.67,1.77,28,36,0,0
5.2768e+05,2.7481e+08,1,5026,4957,15.63,1.74,28,36,0,0
5.2813e+05,2.7492e+08,1,4976,5171,15.67,1.84,28,36,0,0
5.2857e+05,2.7503e+08,1,5164,5071,15.67,1.84,28,36,0,0
5.2902e+05,2.7514e+08,1,5065,5014,15.73,1.57,28,36,0,0
5.2951e+05,2.7525e+08,1,5014,5014,15.67,1.96,28,36,0,0
5.2991e+05,2.7535e+08,1,5022,5142,15.67,2.19,28,36,0,0
5.3036e+05,2.7546e+08,1,5142,5142,15.62,2.09,28,36,0,0
5.3081e+05,2.7557e+08,1,5138,5085,15.66,2.09,28,36,0,0
5.3126e+05,2.7568e+08,1,5087,5142,15.67,2.01,28,36,0,0
5.3171e+05,2.758e+08,1,5139,5114,15.68,1.84,28,36,0,0
5.3215e+05,2.7591e+08,1,5106,5028,15.61,2.08,28,36,0,0
5.3304e+05,2.7612e+08,1,5036,5314,15.67,2.1,28,36,0,0
5.3349e+05,2.7623e+08,1,5310,5257,15.58,2.31,28,36,0,0
5.3393e+05,2.7635e+08,1,5269,5385,15.55,2.55,28,36,0,0
5.3438e+05,2.7645e+08,1,5387,5442,15.63,2.52,28,37,0,0
5.3483e+05,2.7656e+08,1,5436,5171,15.64,2.16,28,37,0,0
5.3528e+05,2.7667e+08,1,5171,5200,15.63,1.98,28,37,0,0
5.3572e+05,2.7678e+08,1,5199,5128,15.69,1.91,28,37,0,0
5.3621e+05,2.769e+08,1,5135,5200,15.71,1.92,28,37,0,0
5.3665e+05,2.7701e+08,1,5195,5157,15.69,1.87,28,37,0,0
5.3706e+05,2.7711e+08,1,5157,5185,15.64,1.81,28,37,0,0
5.3754e+05,2.7722e+08,1,5181,5128,15.69,2.24,28,37,0,0
5.3799e+05,2.7734e+08,1,5129,5142,15.67,2.06,28,37,0,0
5.3847e+05,2.7745e+08,1,5136,5057,15.63,1.93,28,37,0,0
5.3892e+05,2.7756e+08,1,5078,5300,15.61,2.07,28,37,0,0
5.3932e+05,2.7766e+08,1,5296,5157,15.6,2.23,28,37,0,0
5.3977e+05,2.7777e+08,1,5170,5342,15.54,2.38,28,37,0,0
5.4022e+05,2.7788e+08,1,5324,5157,15.6,1.99,28,37,0,0
5.4062e+05,2.7798e+08,1,5153,4971,15.51,1.63,28,37,0,0
5.4111e+05,2.7809e+08,1,4985,5328,15.59,2.57,28,37,0,0
5.4155e+05,2.782e+08,1,5317,5214,15.6,1.95,28,38,0,0
5.4196e+05,2.783e+08,1,5214,5228,15.61,2.07,29,38,0,0
5.4245e+05,2.7842e+08,1,5224,5185,15.56,2.08,28,38,0,0
5.4285e+05,2.7853e+08,1,5183,5157,15.61,2.23,28,38,0,0
5.433e+05,2.7864e+08,1,5151,5071,15.67,1.44,28,38,0,0
5.4375e+05,2.7875e+08,1,5058,4942,15.7,1.61,28,38,0,0
5.4463e+05,2.7896e+08,1,4942,4971,15.65,1.67,29,38,0,0
5.4508e+05,2.7907e+08,1,4971,5028,15.65,1.99,28,38,0,0
5.4553e+05,2.7918e+08,1,5040,5157,15.66,2.01,28,38,0,0
5.4594e+05,2.7929e+08,1,5161,5271,15.66,1.98,28,38,0,0
5.4688e+05,2.7951e+08,1,5265,5142,15.69,1.95,29,38,0,0
5.4732e+05,2.7962e+08,1,5159,5385,15.65,2.05,28,38,0,0
5.4777e+05,2.7973e+08,1,5361,5128,15.69,1.99,28,38,0,0
5.4817e+05,2.7983e+08,1,5129,5142,15.64,1.76,28,38,0,0
5.4862e+05,2.7994e+08,1,5143,5185,15.68,1.9,29,38,0,0
5.4906e+05,2.8005e+08,1,5179,5100,15.66,1.87,28,39,0,0
5.4951e+05,2.8016e+08,1,5098,5085,15.69,1.95,29,39,0,0
5.4996e+05,2.8027e+08,1,5090,5142,15.7,1.73,28,39,0,0
5.504e+05,2.8038e+08,1,5133,5014,15.66,1.66,28,39,0,0
5.5089e+05,2.805e+08,1,5005,4928,15.73,1.64,28,39,0,0
5.5129e+05,2.806e+08,1,4926,4900,15.7,1.65,28,39,0,0
5.5174e+05,2.8071e+08,1,4904,4942,15.67,1.72,28,39,0,0
5.522e+05,2.8082e+08,1,4937,4871,15.7,1.7,28,39,0,0
5.526e+05,2.8092e+08,1,4869,4785,15.66,1.54,28,39,0,0
5.5308e+05,2.8103e+08,1,4784,4771,15.68,1.58,28,39,0,0
5.5353e+05,2.8115e+08,1,4765,4714,15.67,1.52,28,39,0,0
5.5398e+05,2.8125e+08,1,4713,4700,15.66,1.62,28,39,0,0
5.5442e+05,2.8136e+08,1,4707,4785,15.69,1.58,28,39,0,0
5.5528e+05,2.8157e+08,1,4785,4785,15.63,1.81,28,39,0,0
5.5572e+05,2.8168e+08,1,4785,4814,15.67,1.8,29,39,0,0
