LineNo,TimeUS,Instance,RPM,RawRPM,Volt,Curr,Temp,CTot,MotTemp,Err
1547,1.9943e+07,2,0,0,16.62,0.06,27,0,0,0
2004,2.0061e+07,2,0,0,16.62,0.06,27,0,0,0
2423,2.0164e+07,2,0,0,16.62,0.06,27,0,0,0
3284,2.0378e+07,2,0,0,16.62,0.06,27,0,0,0
3696,2.0481e+07,2,0,0,16.62,0.06,27,0,0,0
4107,2.0584e+07,2,0,0,16.61,0.05,28,0,0,0
4563,2.0698e+07,2,0,0,16.62,0.06,27,0,0,0
4979,2.0805e+07,2,0,0,16.62,0.06,27,0,0,0
5391,2.0907e+07,2,0,0,16.61,0.05,28,0,0,0
5805,2.1011e+07,2,0,0,16.62,0.05,27,0,0,0
6216,2.1114e+07,2,0,0,16.62,0.05,27,0,0,0
6669,2.1225e+07,2,0,0,16.61,0.06,27,0,0,0
7117,2.1335e+07,2,0,0,16.62,0.06,27,0,0,0
7530,2.1438e+07,2,0,0,16.62,0.06,27,0,0,0
7946,2.1545e+07,2,0,0,16.62,0.06,27,0,0,0
8357,2.1649e+07,2,0,0,16.62,0.06,27,0,0,0
8799,2.1757e+07,2,0,0,16.61,0.06,27,0,0,0
9548,2.1969e+07,2,0,0,16.62,0.06,27,0,0,0
10001,2.208e+07,2,0,0,16.62,0.06,27,0,0,0
10374,2.2176e+07,2,0,0,16.62,0.06,27,0,0,0
10826,2.2287e+07,2,0,0,16.62,0.06,27,0,0,0
11239,2.239e+07,2,0,0,16.61,0.06,27,0,0,0
11692,2.2504e+07,2,0,0,16.61,0.06,27,0,0,0
12102,2.2608e+07,2,0,0,16.61,0.06,28,0,0,0
12548,2.2713e+07,2,0,0,16.62,0.05,27,0,0,0
12964,2.2819e+07,2,0,0,16.62,0.06,27,0,0,0
13378,2.2924e+07,2,0,0,16.61,0.06,27,0,0,0
13792,2.3028e+07,2,0,0,16.62,0.05,27,0,0,0
14247,2.3139e+07,2,0,0,16.62,0.05,27,0,0,0
14661,2.3243e+07,2,0,0,16.61,0.05,27,0,0,0
15122,2.3354e+07,2,0,0,16.62,0.05,27,0,0,0
15951,2.3563e+07,2,0,0,16.61,0.06,27,0,0,0
16405,2.3675e+07,2,0,0,16.62,0.05,27,0,0,0
16825,2.3782e+07,2,0,0,16.62,0.06,27,0,0,0
17242,2.3885e+07,2,0,0,16.61,0.06,27,0,0,0
17690,2.3994e+07,2,0,0,16.61,0.06,27,0,0,0
18108,2.4098e+07,2,0,0,16.61,0.05,27,0,0,0
18522,2.42e+07,2,0,0,16.62,0.05,27,0,0,0
18972,2.4315e+07,2,0,0,16.62,0.05,27,0,0,0
19424,2.443e+07,2,0,0,16.61,0.05,27,0,0,0
19837,2.453e+07,2,0,0,16.62,0.05,27,0,0,0
20241,2.4632e+07,2,0,0,16.61,0.05,27,0,0,0
20658,2.474e+07,2,0,0,16.61,0.05,27,0,0,0
21112,2.4851e+07,2,0,0,16.62,0.05,27,0,0,0
21524,2.4955e+07,2,0,0,16.62,0.05,28,0,0,0
21934,2.5058e+07,2,0,0,16.61,0.05,27,0,0,0
22349,2.5165e+07,2,0,0,16.61,0.06,27,0,0,0
22804,2.5275e+07,2,0,0,16.61,0.06,27,0,0,0
23220,2.5379e+07,2,0,0,16.62,0.05,28,0,0,0
23638,2.5484e+07,2,0,0,16.61,0.06,27,0,0,0
24055,2.5589e+07,2,0,0,16.61,0.05,27,0,0,0
24510,2.5704e+07,2,0,0,16.61,0.06,27,0,0,0
24921,2.5808e+07,2,0,0,16.61,0.06,27,0,0,0
25342,2.5915e+07,2,0,0,16.62,0.06,27,0,0,0
25753,2.6016e+07,2,0,0,16.61,0.06,27,0,0,0
26165,2.6119e+07,2,0,0,16.61,0.06,27,0,0,0
26616,2.623e+07,2,0,0,16.61,0.05,28,0,0,0
27031,2.6334e+07,2,0,0,16.62,0.06,27,0,0,0
27484,2.6448e+07,2,0,0,16.61,0.06,27,0,0,0
27925,2.6553e+07,2,0,0,16.61,0.06,27,0,0,0
28341,2.6658e+07,2,0,0,16.61,0.06,27,0,0,0
28755,2.676e+07,2,0,0,16.62,0.06,28,0,0,0
29171,2.6865e+07,2,0,0,16.61,0.06,27,0,0,0
29583,2.6968e+07,2,0,0,16.61,0.06,27,0,0,0
30035,2.708e+07,2,0,0,16.61,0.06,27,0,0,0
30481,2.7192e+07,2,0,0,16.62,0.06,27,0,0,0
30898,2.7295e+07,2,0,0,16.62,0.06,27,0,0,0
31312,2.74e+07,2,0,0,16.62,0.06,27,0,0,0
31730,2.7504e+07,2,0,0,16.61,0.06,27,0,0,0
32181,2.7615e+07,2,0,0,16.62,0.06,27,0,0,0
32595,2.7718e+07,2,0,0,16.61,0.06,27,0,0,0
33048,2.7831e+07,2,0,0,16.61,0.06,27,0,0,0
33461,2.7936e+07,2,0,0,16.62,0.06,27,0,0,0
33871,2.804e+07,2,0,0,16.61,0.05,28,0,0,0
34283,2.8145e+07,2,0,0,16.61,0.06,27,0,0,0
34696,2.8247e+07,2,0,0,16.61,0.06,27,0,0,0
35178,2.8366e+07,2,0,0,16.61,0.06,27,0,0,0
35589,2.8469e+07,2,0,0,16.61,0.06,27,0,0,0
36001,2.857e+07,2,0,0,16.61,0.06,27,0,0,0
36419,2.868e+07,2,0,0,16.61,0.06,28,0,0,0
36830,2.8783e+07,2,0,0,16.62,0.06,27,0,0,0
37285,2.8899e+07,2,0,0,16.61,0.06,27,0,0,0
37692,2.8999e+07,2,0,0,16.62,0.06,27,0,0,0
38144,2.911e+07,2,0,0,16.61,0.06,28,0,0,0
38554,2.9211e+07,2,0,0,16.63,0.06,27,0,0,0
38972,2.9319e+07,2,0,0,16.62,0.06,27,0,0,0
39378,2.942e+07,2,0,0,16.61,0.06,27,0,0,0
39831,2.9531e+07,2,0,0,16.61,0.06,27,0,0,0
40239,2.9632e+07,2,0,0,16.62,0.06,27,0,0,0
40730,2.9748e+07,2,0,0,16.62,0.06,27,0,0,0
41142,2.985e+07,2,0,0,16.61,0.05,27,0,0,0
41558,2.9955e+07,2,0,0,16.61,0.05,27,0,0,0
42012,3.0067e+07,2,0,0,16.61,0.05,27,0,0,0
42430,3.0173e+07,2,0,0,16.62,0.05,27,0,0,0
43267,3.0382e+07,2,0,0,16.61,0.06,27,0,0,0
43723,3.0493e+07,2,0,0,16.61,0.05,28,0,0,0
44136,3.0596e+07,2,0,0,16.61,0.06,27,0,0,0
44591,3.0712e+07,2,0,0,16.62,0.06,27,0,0,0
45009,3.0812e+07,2,0,0,16.61,0.05,28,0,0,0
45421,3.0913e+07,2,0,0,16.61,0.05,28,0,0,0
45878,3.1029e+07,2,0,0,16.62,0.05,27,0,0,0
46296,3.1134e+07,2,0,0,16.62,0.05,27,0,0,0
47123,3.134e+07,2,0,0,16.62,0.06,27,0,0,0
47570,3.1451e+07,2,0,0,16.62,0.06,27,0,0,0
47988,3.1557e+07,2,0,0,16.61,0.06,27,0,0,0
48402,3.166e+07,2,0,0,16.62,0.05,27,0,0,0
48809,3.1761e+07,2,0,0,16.61,0.06,27,0,0,0
49264,3.1872e+07,2,0,0,16.61,0.06,27,0,0,0
49712,3.198e+07,2,0,0,16.62,0.06,27,0,0,0
50125,3.2084e+07,2,0,0,16.61,0.06,27,0,0,0
50576,3.2194e+07,2,0,0,16.61,0.06,27,0,0,0
50994,3.2298e+07,2,0,0,16.62,0.06,28,0,0,0
51406,3.2404e+07,2,0,0,16.61,0.06,27,0,0,0
51850,3.2511e+07,2,0,0,16.62,0.06,27,0,0,0
52259,3.2615e+07,2,0,0,16.62,0.06,27,0,0,0
52674,3.2721e+07,2,0,0,16.62,0.05,27,0,0,0
53535,3.2941e+07,2,0,0,16.62,0.05,27,0,0,0
53944,3.3046e+07,2,0,0,16.62,0.05,27,0,0,0
54361,3.315e+07,2,0,0,16.61,0.05,27,0,0,0
54804,3.3258e+07,2,0,0,16.62,0.05,27,0,0,0
55222,3.3365e+07,2,0,0,16.62,0.05,27,0,0,0
55634,3.3469e+07,2,0,0,16.62,0.05,27,0,0,0
56045,3.3572e+07,2,0,0,16.62,0.05,27,0,0,0
56293,5.082e+07,2,0,0,16.62,0.05,27,0,0,0
56711,5.0926e+07,2,0,0,16.62,0.05,27,0,0,0
57126,5.1027e+07,2,0,0,16.61,0.05,27,0,0,0
57540,5.1134e+07,2,0,0,16.61,0.05,27,0,0,0
57953,5.1236e+07,2,0,0,16.61,0.05,27,0,0,0
58817,5.1453e+07,2,0,0,16.61,0.05,27,0,0,0
59267,5.1565e+07,2,0,0,16.61,0.05,27,0,0,0
59688,5.1669e+07,2,0,0,16.62,0.05,27,0,0,0
60098,5.1774e+07,2,0,0,16.61,0.05,27,0,0,0
60542,5.1883e+07,2,0,0,16.62,0.06,27,0,0,0
60963,5.1989e+07,2,0,0,16.62,0.05,27,0,0,0
61374,5.2095e+07,2,0,0,16.61,0.05,27,0,0,0
61828,5.2206e+07,2,0,0,16.62,0.05,27,0,0,0
62241,5.2311e+07,2,0,0,16.62,0.06,27,0,0,0
62657,5.2413e+07,2,0,0,16.62,0.06,27,0,0,0
63104,5.2526e+07,2,0,0,16.62,0.05,27,0,0,0
63519,5.2629e+07,2,0,0,16.62,0.05,27,0,0,0
63934,5.2736e+07,2,0,0,16.61,0.06,27,0,0,0
64350,5.2841e+07,2,0,0,16.61,0.06,27,0,0,0
64774,5.2952e+07,2,0,0,16.62,0.06,27,0,0,0
65226,5.3058e+07,2,0,0,16.61,0.05,27,0,0,0
65642,5.3168e+07,2,0,0,16.61,0.05,27,0,0,0
66084,5.3271e+07,2,0,0,16.62,0.05,27,0,0,0
66496,5.3374e+07,2,0,0,16.63,0.06,27,0,0,0
66861,5.3487e+07,2,0,0,16.61,0.05,27,0,0,0
67275,5.3589e+07,2,0,0,16.61,0.05,27,0,0,0
67691,5.3694e+07,2,0,0,16.62,0.05,27,0,0,0
68140,5.3805e+07,2,0,0,16.61,0.05,27,0,0,0
68554,5.3909e+07,2,0,0,16.62,0.05,27,0,0,0
69010,5.402e+07,2,0,0,16.62,0.05,27,0,0,0
69383,5.4119e+07,2,0,0,16.61,0.05,27,0,0,0
69840,5.4232e+07,2,0,0,16.62,0.05,27,0,0,0
70667,5.444e+07,2,0,0,16.61,0.05,27,0,0,0
71089,5.455e+07,2,0,0,16.61,0.06,27,0,0,0
71503,5.4652e+07,2,0,0,16.61,0.05,27,0,0,0
71956,5.4767e+07,2,0,0,16.62,0.06,27,0,0,0
72375,5.4872e+07,2,0,0,16.62,0.06,27,0,0,0
72789,5.4978e+07,2,0,0,16.61,0.05,27,0,0,0
73207,5.5082e+07,2,0,0,16.61,0.05,27,0,0,0
73626,5.5189e+07,2,0,0,16.61,0.05,27,0,0,0
74039,5.5294e+07,2,0,0,16.61,0.05,27,0,0,0
74495,5.5405e+07,2,0,0,16.61,0.05,27,0,0,0
74909,5.551e+07,2,0,0,16.61,0.05,27,0,0,0
75362,5.5623e+07,2,0,0,16.61,0.05,27,0,0,0
75737,5.5721e+07,2,0,0,16.61,0.05,27,0,0,0
76191,5.5831e+07,2,0,0,16.61,0.05,27,0,0,0
76642,5.5942e+07,2,0,0,16.62,0.05,27,0,0,0
77062,5.6051e+07,2,0,0,16.61,0.05,27,0,0,0
77473,5.6157e+07,2,0,0,16.61,0.05,27,0,0,0
77890,5.6259e+07,2,0,0,16.61,0.05,27,0,0,0
78270,5.6362e+07,2,0,0,16.62,0.05,27,0,0,0
78722,5.6477e+07,2,0,0,16.61,0.05,27,0,0,0
79138,5.6578e+07,2,0,0,16.62,0.05,27,0,0,0
79591,5.6694e+07,2,0,0,16.62,0.05,27,0,0,0
80007,5.6799e+07,2,0,0,16.62,0.05,27,0,0,0
80419,5.6904e+07,2,0,0,16.62,0.05,27,0,0,0
80836,5.7004e+07,2,0,0,16.62,0.06,27,0,0,0
81290,5.7121e+07,2,0,0,16.61,0.05,27,0,0,0
81706,5.7226e+07,2,0,0,16.62,0.05,27,0,0,0
82114,5.7329e+07,2,0,0,16.62,0.05,27,0,0,0
82573,5.7442e+07,2,0,0,16.61,0.05,27,0,0,0
82986,5.7547e+07,2,0,0,16.62,0.05,27,0,0,0
83400,5.7649e+07,2,0,0,16.61,0.05,27,0,0,0
83853,5.7764e+07,2,0,0,16.61,0.05,27,0,0,0
84266,5.7864e+07,2,0,0,16.61,0.06,27,0,0,0
84682,5.7969e+07,2,0,0,16.61,0.06,27,0,0,0
85518,5.8184e+07,2,0,0,16.61,0.05,27,0,0,0
85935,5.829e+07,2,0,0,16.61,0.05,27,0,0,0
86390,5.8402e+07,2,0,0,16.62,0.05,27,0,0,0
86799,5.8504e+07,2,0,0,16.62,0.05,27,0,0,0
87258,5.8621e+07,2,0,0,16.62,0.05,27,0,0,0
87676,5.8727e+07,2,0,0,16.62,0.05,27,0,0,0
88090,5.8828e+07,2,0,0,16.62,0.05,27,0,0,0
88505,5.8937e+07,2,0,0,16.62,0.05,27,0,0,0
88962,5.9052e+07,2,0,0,16.61,0.05,27,0,0,0
89368,5.9155e+07,2,0,0,16.62,0.06,27,0,0,0
89825,5.9268e+07,2,0,0,16.61,0.06,27,0,0,0
90235,5.9371e+07,2,0,0,16.61,0.05,27,0,0,0
90687,5.9483e+07,2,0,0,16.62,0.05,27,0,0,0
91102,5.9587e+07,2,0,0,16.61,0.06,27,0,0,0
91558,5.9701e+07,2,0,0,16.61,0.06,27,0,0,0
91971,5.9803e+07,2,0,0,16.62,0.05,27,0,0,0
92386,5.9911e+07,2,0,0,16.62,0.05,27,0,0,0
92807,6.0013e+07,2,0,0,16.62,0.06,27,0,0,0
93223,6.0118e+07,2,0,0,16.62,0.06,27,0,0,0
93677,6.0231e+07,2,0,0,16.62,0.06,27,0,0,0
94091,6.0338e+07,2,0,0,16.62,0.06,27,0,0,0
94508,6.0443e+07,2,0,0,16.62,0.05,27,0,0,0
94961,6.0554e+07,2,0,0,16.61,0.06,27,0,0,0
95374,6.0657e+07,2,0,0,16.61,0.05,27,0,0,0
95785,6.0762e+07,2,0,0,16.61,0.05,27,0,0,0
96240,6.0872e+07,2,0,0,16.61,0.06,27,0,0,0
96691,6.0983e+07,2,0,0,16.62,0.06,27,0,0,0
97109,6.1085e+07,2,0,0,16.61,0.06,27,0,0,0
97524,6.1194e+07,2,0,0,16.62,0.05,27,0,0,0
97937,6.1298e+07,2,0,0,16.61,0.05,27,0,0,0
98391,6.1408e+07,2,0,0,16.62,0.05,27,0,0,0
99213,6.1622e+07,2,0,0,16.62,0.05,27,0,0,0
99627,6.173e+07,2,0,0,16.62,0.05,27,0,0,0
1.0004e+05,6.1835e+07,2,0,0,16.62,0.06,27,0,0,0
1.0045e+05,6.1937e+07,2,0,0,16.61,0.05,27,0,0,0
1.0092e+05,6.2051e+07,2,0,0,16.62,0.05,27,0,0,0
1.0133e+05,6.2157e+07,2,0,0,16.61,0.05,27,0,0,0
1.0174e+05,6.2259e+07,2,0,0,16.62,0.05,27,0,0,0
1.0216e+05,6.2365e+07,2,0,0,16.62,0.05,27,0,0,0
1.0261e+05,6.2477e+07,2,0,0,16.61,0.05,27,0,0,0
1.0303e+05,6.2584e+07,2,0,0,16.61,0.05,27,0,0,0
1.0347e+05,6.2691e+07,2,0,0,16.63,0.05,27,0,0,0
1.0388e+05,6.2794e+07,2,0,0,16.62,0.06,27,0,0,0
1.0433e+05,6.2908e+07,2,0,0,16.62,0.05,27,0,0,0
1.0475e+05,6.3008e+07,2,0,0,16.62,0.05,27,0,0,0
1.052e+05,6.3123e+07,2,0,0,16.61,0.05,27,0,0,0
1.0562e+05,6.3223e+07,2,0,0,16.61,0.05,27,0,0,0
1.0603e+05,6.3328e+07,2,0,0,16.61,0.05,27,0,0,0
1.0648e+05,6.3442e+07,2,0,0,16.62,0.05,27,0,0,0
1.069e+05,6.3547e+07,2,0,0,16.62,0.05,27,0,0,0
1.0735e+05,6.3659e+07,2,0,0,16.61,0.05,27,0,0,0
1.0776e+05,6.3763e+07,2,0,0,16.61,0.05,27,0,0,0
1.0817e+05,6.3864e+07,2,0,0,16.61,0.05,27,0,0,0
1.0863e+05,6.3978e+07,2,0,0,16.62,0.05,27,0,0,0
1.0905e+05,6.4086e+07,2,0,0,16.62,0.05,27,0,0,0
1.0942e+05,6.418e+07,2,0,0,16.61,0.05,27,0,0,0
1.0988e+05,6.4295e+07,2,0,0,16.62,0.05,27,0,0,0
1.1074e+05,6.4509e+07,2,0,0,16.61,0.05,27,0,0,0
1.1116e+05,6.4614e+07,2,0,0,16.61,0.05,27,0,0,0
1.1157e+05,6.4719e+07,2,0,0,16.62,0.05,27,0,0,0
1.1203e+05,6.483e+07,2,0,0,16.61,0.05,27,0,0,0
1.1244e+05,6.4934e+07,2,0,0,16.62,0.05,27,0,0,0
1.1286e+05,6.5038e+07,2,0,0,16.61,0.05,27,0,0,0
1.1327e+05,6.5143e+07,2,0,0,16.61,0.05,27,0,0,0
1.1373e+05,6.5256e+07,2,0,0,16.61,0.05,27,0,0,0
1.1418e+05,6.537e+07,2,0,0,16.62,0.05,27,0,0,0
1.146e+05,6.5475e+07,2,0,0,16.62,0.05,27,0,0,0
1.1501e+05,6.5581e+07,2,0,0,16.62,0.05,27,0,0,0
1.1542e+05,6.5688e+07,2,0,0,16.62,0.05,27,0,0,0
1.1584e+05,6.579e+07,2,0,0,16.61,0.05,27,0,0,0
1.1598e+05,1.0486e+08,2,0,0,16.61,0.05,27,1,0,0
1.1638e+05,1.0496e+08,2,0,0,16.61,0.05,27,1,0,0
1.1684e+05,1.0507e+08,2,0,0,16.61,0.05,27,1,0,0
1.173e+05,1.0518e+08,2,0,0,16.61,0.06,27,1,0,0
1.1776e+05,1.0528e+08,2,0,0,16.61,0.05,27,1,0,0
1.1821e+05,1.0538e+08,2,0,0,16.61,0.05,27,1,0,0
1.187e+05,1.055e+08,2,0,0,16.61,0.05,27,1,0,0
1.1916e+05,1.056e+08,2,0,0,16.61,0.05,27,1,0,0
1.2007e+05,1.0581e+08,2,0,0,16.61,0.05,27,1,0,0
1.2056e+05,1.0592e+08,2,0,0,16.62,0.05,27,1,0,0
1.2106e+05,1.0603e+08,2,0,0,16.61,0.05,27,1,0,0
1.2151e+05,1.0614e+08,2,0,0,16.61,0.05,27,1,0,0
1.2196e+05,1.0624e+08,2,0,0,16.62,0.05,27,1,0,0
1.2246e+05,1.0636e+08,2,0,0,16.61,0.05,27,1,0,0
1.2338e+05,1.0657e+08,2,0,0,16.61,0.06,27,1,0,0
1.2384e+05,1.0668e+08,2,0,0,16.61,0.05,27,1,0,0
1.2429e+05,1.0678e+08,2,0,0,16.61,0.05,27,1,0,0
1.2474e+05,1.0689e+08,2,0,0,16.61,0.04,27,1,0,0
1.2524e+05,1.07e+08,2,19,242,16.61,0.06,27,1,0,0
1.2619e+05,1.0721e+08,2,276,1042,16.57,0.17,27,1,0,0
1.2664e+05,1.0732e+08,2,1049,1257,16.59,0.14,27,1,0,0
1.2714e+05,1.0743e+08,2,1260,1300,16.6,0.13,28,1,0,0
1.2791e+05,1.0765e+08,2,1316,1342,16.6,0.12,27,1,0,0
1.2836e+05,1.0775e+08,2,1342,1342,16.6,0.12,27,1,0,0
1.2882e+05,1.0785e+08,2,1342,1342,16.6,0.12,27,1,0,0
1.2932e+05,1.0797e+08,2,1343,1357,16.6,0.12,27,1,0,0
1.2977e+05,1.0807e+08,2,1357,1357,16.6,0.12,27,1,0,0
1.3023e+05,1.0818e+08,2,1357,1357,16.59,0.12,27,1,0,0
1.3068e+05,1.0829e+08,2,1355,1342,16.6,0.12,27,1,0,0
1.3159e+05,1.085e+08,2,1342,1342,16.6,0.12,28,1,0,0
1.3206e+05,1.0861e+08,2,1342,1342,16.6,0.12,27,1,0,0
1.329e+05,1.0882e+08,2,1357,1357,16.6,0.12,27,1,0,0
1.3335e+05,1.0893e+08,2,1357,1357,16.6,0.12,27,1,0,0
1.3385e+05,1.0904e+08,2,1355,1342,16.59,0.12,27,1,0,0
1.3427e+05,1.0915e+08,2,1342,1357,16.59,0.12,27,1,0,0
1.3477e+05,1.0926e+08,2,1357,1357,16.59,0.12,28,1,0,0
1.3522e+05,1.0936e+08,2,1355,1342,16.6,0.12,27,1,0,0
1.3568e+05,1.0946e+08,2,1343,1371,16.59,0.12,27,1,0,0
1.3613e+05,1.0957e+08,2,1370,1342,16.59,0.12,27,1,0,0
1.3663e+05,1.0968e+08,2,1342,1357,16.6,0.11,27,1,0,0
1.3705e+05,1.0979e+08,2,1357,1371,16.59,0.12,27,1,0,0
1.3799e+05,1.1e+08,2,1370,1357,16.6,0.12,27,1,0,0
1.3845e+05,1.1011e+08,2,1357,1371,16.59,0.11,28,1,0,0
1.3895e+05,1.1022e+08,2,1370,1357,16.6,0.11,28,1,0,0
1.394e+05,1.1033e+08,2,1357,1357,16.59,0.12,27,1,0,0
1.3991e+05,1.1044e+08,2,1358,1371,16.6,0.12,27,1,0,0
1.4081e+05,1.1065e+08,2,1371,1371,16.58,0.12,28,1,0,0
1.4131e+05,1.1076e+08,2,1369,1357,16.59,0.12,28,1,0,0
1.4225e+05,1.1097e+08,2,1356,1342,16.6,0.12,28,1,0,0
1.4271e+05,1.1107e+08,2,1343,1357,16.58,0.12,28,1,0,0
1.432e+05,1.1119e+08,2,1357,1357,16.59,0.12,27,1,0,0
1.4365e+05,1.1129e+08,2,1357,1357,16.6,0.12,27,1,0,0
1.4411e+05,1.1139e+08,2,1357,1357,16.59,0.12,27,1,0,0
1.4509e+05,1.1161e+08,2,1357,1357,16.6,0.12,27,1,0,0
1.46e+05,1.1182e+08,2,1356,1342,16.6,0.12,27,1,0,0
1.4645e+05,1.1193e+08,2,1342,1357,16.58,0.12,27,1,0,0
1.4695e+05,1.1204e+08,2,1357,1357,16.59,0.12,28,1,0,0
1.4737e+05,1.1214e+08,2,1355,1328,16.62,0.07,27,1,0,0
1.4787e+05,1.1226e+08,2,1265,328,16.61,0.02,27,1,0,0
1.4832e+05,1.1236e+08,2,298,0,16.61,0.03,27,1,0,0
1.4926e+05,1.1258e+08,2,0,0,16.61,0.06,27,1,0,0
1.4972e+05,1.1269e+08,2,0,0,16.61,0.06,28,1,0,0
1.5022e+05,1.128e+08,2,0,0,16.61,0.06,28,1,0,0
1.5071e+05,1.1291e+08,2,0,0,16.61,0.06,27,1,0,0
1.5116e+05,1.1301e+08,2,0,0,16.61,0.05,27,1,0,0
1.5162e+05,1.1312e+08,2,0,0,16.61,0.05,28,1,0,0
1.5207e+05,1.1323e+08,2,0,0,16.61,0.05,27,1,0,0
1.5256e+05,1.1334e+08,2,0,0,16.6,0.05,28,1,0,0
1.5302e+05,1.1345e+08,2,0,0,16.61,0.06,27,1,0,0
1.5348e+05,1.1356e+08,2,0,0,16.61,0.05,27,1,0,0
1.5393e+05,1.1366e+08,2,0,0,16.61,0.05,27,1,0,0
1.5435e+05,1.1377e+08,2,0,0,16.61,0.06,27,1,0,0
1.5484e+05,1.1388e+08,2,0,0,16.61,0.05,27,1,0,0
1.5533e+05,1.1399e+08,2,0,0,16.61,0.05,28,1,0,0
1.5571e+05,1.1409e+08,2,0,0,16.61,0.06,27,1,0,0
1.5621e+05,1.142e+08,2,0,0,16.61,0.05,27,1,0,0
1.567e+05,1.1432e+08,2,0,0,16.61,0.05,27,1,0,0
1.5716e+05,1.1442e+08,2,0,0,16.61,0.06,27,1,0,0
1.5761e+05,1.1453e+08,2,0,0,16.61,0.05,27,1,0,0
1.5811e+05,1.1464e+08,2,0,0,16.61,0.05,27,1,0,0
1.5856e+05,1.1475e+08,2,0,0,16.61,0.06,27,1,0,0
1.5901e+05,1.1485e+08,2,0,0,16.61,0.06,28,1,0,0
1.5951e+05,1.1497e+08,2,0,0,16.6,0.05,27,1,0,0
1.5996e+05,1.1507e+08,2,0,0,16.61,0.05,27,1,0,0
1.6042e+05,1.1518e+08,2,0,0,16.61,0.06,27,1,0,0
1.6087e+05,1.1529e+08,2,0,0,16.61,0.06,27,1,0,0
1.6137e+05,1.154e+08,2,0,0,16.6,0.05,27,1,0,0
1.6182e+05,1.155e+08,2,0,0,16.61,0.05,28,1,0,0
1.6228e+05,1.1561e+08,2,0,0,16.61,0.05,28,1,0,0
1.6273e+05,1.1572e+08,2,0,0,16.61,0.05,27,1,0,0
1.6323e+05,1.1583e+08,2,0,0,16.61,0.05,27,1,0,0
1.6413e+05,1.1604e+08,2,0,0,16.61,0.05,28,1,0,0
1.6463e+05,1.1616e+08,2,0,0,16.61,0.05,27,1,0,0
1.6508e+05,1.1626e+08,2,0,0,16.61,0.05,27,1,0,0
1.6553e+05,1.1637e+08,2,0,0,16.61,0.05,27,1,0,0
1.6603e+05,1.1649e+08,2,0,0,16.61,0.05,27,1,0,0
1.6649e+05,1.1659e+08,2,0,0,16.61,0.05,27,1,0,0
1.6694e+05,1.167e+08,2,0,0,16.61,0.06,27,1,0,0
1.674e+05,1.1681e+08,2,0,0,16.61,0.06,27,1,0,0
1.6785e+05,1.1691e+08,2,0,0,16.61,0.06,27,1,0,0
1.683e+05,1.1702e+08,2,0,0,16.61,0.06,27,1,0,0
1.6876e+05,1.1713e+08,2,0,0,16.61,0.06,27,1,0,0
1.6925e+05,1.1724e+08,2,0,0,16.61,0.06,27,1,0,0
1.697e+05,1.1735e+08,2,0,0,16.61,0.06,27,1,0,0
1.7016e+05,1.1745e+08,2,0,0,16.61,0.06,27,1,0,0
1.7061e+05,1.1756e+08,2,0,0,16.61,0.06,27,1,0,0
1.7107e+05,1.1766e+08,2,0,0,16.61,0.06,27,1,0,0
1.7156e+05,1.1778e+08,2,0,0,16.61,0.06,27,1,0,0
1.7205e+05,1.1789e+08,2,0,0,16.61,0.06,27,1,0,0
1.725e+05,1.18e+08,2,0,0,16.61,0.06,27,1,0,0
1.7296e+05,1.1811e+08,2,0,0,16.61,0.06,27,1,0,0
1.7341e+05,1.1821e+08,2,0,0,16.61,0.06,28,1,0,0
1.7436e+05,1.1843e+08,2,0,0,16.61,0.06,27,1,0,0
1.7481e+05,1.1853e+08,2,0,0,16.61,0.06,27,1,0,0
1.7527e+05,1.1864e+08,2,0,0,16.61,0.06,27,1,0,0
1.7576e+05,1.1875e+08,2,0,0,16.61,0.06,27,1,0,0
1.7622e+05,1.1886e+08,2,0,0,16.61,0.06,27,1,0,0
1.7667e+05,1.1896e+08,2,0,0,16.61,0.06,27,1,0,0
1.7713e+05,1.1907e+08,2,0,0,16.61,0.06,27,1,0,0
1.7808e+05,1.1929e+08,2,0,0,16.61,0.05,27,1,0,0
1.7854e+05,1.194e+08,2,0,0,16.61,0.06,27,1,0,0
1.7899e+05,1.1951e+08,2,0,0,16.61,0.06,27,1,0,0
1.7945e+05,1.1961e+08,2,0,0,16.61,0.06,27,1,0,0
1.8037e+05,1.1983e+08,2,0,0,16.61,0.05,27,1,0,0
1.8081e+05,1.1993e+08,2,0,0,16.61,0.06,27,1,0,0
1.8131e+05,1.2005e+08,2,0,0,16.61,0.05,27,1,0,0
1.8176e+05,1.2015e+08,2,0,0,16.61,0.06,27,1,0,0
1.8226e+05,1.2027e+08,2,0,0,16.61,0.06,27,1,0,0
1.8272e+05,1.2037e+08,2,0,0,16.61,0.06,27,1,0,0
1.8317e+05,1.2048e+08,2,0,0,16.61,0.05,27,1,0,0
1.8367e+05,1.2059e+08,2,0,0,16.61,0.05,27,1,0,0
1.8412e+05,1.207e+08,2,0,0,16.61,0.05,27,1,0,0
1.8458e+05,1.2081e+08,2,0,0,16.61,0.06,27,1,0,0
1.8499e+05,1.2091e+08,2,0,0,16.61,0.05,28,1,0,0
1.855e+05,1.2102e+08,2,0,0,16.61,0.06,27,1,0,0
1.864e+05,1.2123e+08,2,0,0,16.61,0.06,27,1,0,0
1.8686e+05,1.2134e+08,2,0,0,16.6,0.05,27,1,0,0
1.8735e+05,1.2146e+08,2,0,0,16.61,0.05,27,1,0,0
1.878e+05,1.2156e+08,2,0,0,16.6,0.06,27,1,0,0
1.8872e+05,1.2178e+08,2,0,0,16.61,0.06,27,1,0,0
1.8917e+05,1.2188e+08,2,0,0,16.61,0.06,27,1,0,0
1.8966e+05,1.2199e+08,2,0,0,16.61,0.06,27,1,0,0
1.9012e+05,1.221e+08,2,0,0,16.61,0.06,27,1,0,0
1.9061e+05,1.2221e+08,2,0,0,16.61,0.06,27,1,0,0
1.9107e+05,1.2232e+08,2,0,0,16.61,0.06,27,1,0,0
1.9152e+05,1.2242e+08,2,0,0,16.61,0.05,27,1,0,0
1.9202e+05,1.2254e+08,2,0,0,16.61,0.05,27,1,0,0
1.9247e+05,1.2264e+08,2,0,0,16.61,0.06,27,1,0,0
1.9292e+05,1.2275e+08,2,0,0,16.61,0.06,27,1,0,0
1.9342e+05,1.2286e+08,2,0,0,16.61,0.06,27,1,0,0
1.9388e+05,1.2297e+08,2,0,0,16.61,0.05,27,1,0,0
1.9433e+05,1.2307e+08,2,0,0,16.61,0.05,27,1,0,0
1.9478e+05,1.2318e+08,2,0,0,16.61,0.05,27,1,0,0
1.9524e+05,1.2329e+08,2,0,0,16.61,0.06,27,1,0,0
1.9573e+05,1.234e+08,2,0,0,16.61,0.06,27,1,0,0
1.9619e+05,1.2351e+08,2,0,0,16.61,0.05,27,1,0,0
1.9664e+05,1.2361e+08,2,0,0,16.61,0.06,27,1,0,0
1.971e+05,1.2372e+08,2,0,0,16.61,0.05,27,1,0,0
1.976e+05,1.2384e+08,2,0,0,16.61,0.05,27,1,0,0
1.9801e+05,1.2394e+08,2,0,0,16.61,0.05,27,1,0,0
1.9851e+05,1.2405e+08,2,0,0,16.61,0.06,27,1,0,0
1.9896e+05,1.2416e+08,2,0,0,16.61,0.06,27,1,0,0
1.9946e+05,1.2427e+08,2,0,0,16.6,0.06,27,1,0,0
1.9991e+05,1.2438e+08,2,0,0,16.61,0.06,27,1,0,0
2.0041e+05,1.245e+08,2,0,0,16.61,0.06,27,1,0,0
2.0082e+05,1.2459e+08,2,0,0,16.61,0.06,27,1,0,0
2.0128e+05,1.247e+08,2,0,0,16.61,0.06,27,1,0,0
2.0178e+05,1.2482e+08,2,0,0,16.61,0.05,27,1,0,0
2.0219e+05,1.2492e+08,2,0,0,16.61,0.06,27,1,0,0
2.0265e+05,1.2502e+08,2,0,0,16.62,0.06,27,1,0,0
2.0314e+05,1.2514e+08,2,0,0,16.61,0.06,27,1,0,0
2.0364e+05,1.2526e+08,2,0,0,16.61,0.06,27,1,0,0
2.0409e+05,1.2536e+08,2,0,0,16.61,0.06,27,1,0,0
2.0455e+05,1.2547e+08,2,0,0,16.61,0.06,27,1,0,0
2.05e+05,1.2558e+08,2,0,0,16.61,0.06,27,1,0,0
2.0591e+05,1.2579e+08,2,0,0,16.61,0.06,27,1,0,0
2.0633e+05,1.2589e+08,2,0,0,16.61,0.06,27,1,0,0
2.0683e+05,1.2601e+08,2,0,0,16.61,0.06,27,1,0,0
2.0728e+05,1.2612e+08,2,0,0,16.61,0.06,27,1,0,0
2.0774e+05,1.2622e+08,2,0,0,16.61,0.06,27,1,0,0
2.0819e+05,1.2633e+08,2,0,0,16.61,0.06,27,1,0,0
2.0869e+05,1.2645e+08,2,0,0,16.61,0.06,27,1,0,0
2.0914e+05,1.2655e+08,2,0,0,16.61,0.05,27,1,0,0
2.096e+05,1.2666e+08,2,0,0,16.61,0.06,27,1,0,0
2.1006e+05,1.2677e+08,2,0,0,16.61,0.06,27,1,0,0
2.1052e+05,1.2688e+08,2,0,0,16.61,0.06,27,1,0,0
2.1101e+05,1.2699e+08,2,0,0,16.61,0.06,27,1,0,0
2.1151e+05,1.271e+08,2,0,0,16.61,0.06,27,1,0,0
2.1161e+05,1.9767e+08,2,0,0,16.6,0.06,28,2,0,0
2.1201e+05,1.9776e+08,2,0,0,16.6,0.06,28,2,0,0
2.1248e+05,1.9787e+08,2,0,0,16.6,0.06,28,2,0,0
2.1293e+05,1.9797e+08,2,0,0,16.6,0.06,28,2,0,0
2.1338e+05,1.9808e+08,2,0,0,16.6,0.06,28,2,0,0
2.1388e+05,1.9819e+08,2,0,0,16.6,0.06,28,2,0,0
2.1433e+05,1.983e+08,2,0,0,16.6,0.06,28,2,0,0
2.1483e+05,1.984e+08,2,0,0,16.6,0.06,28,2,0,0
2.1528e+05,1.9851e+08,2,0,0,16.6,0.06,28,2,0,0
2.157e+05,1.9861e+08,2,0,0,16.6,0.06,28,2,0,0
2.1619e+05,1.9872e+08,2,0,0,16.6,0.06,28,2,0,0
2.1665e+05,1.9883e+08,2,0,0,16.6,0.06,28,2,0,0
2.1714e+05,1.9894e+08,2,0,0,16.61,0.06,28,2,0,0
2.176e+05,1.9904e+08,2,0,0,16.6,0.06,28,2,0,0
2.1805e+05,1.9915e+08,2,0,0,16.6,0.06,28,2,0,0
2.1855e+05,1.9926e+08,2,0,0,16.6,0.06,28,2,0,0
2.1901e+05,1.9937e+08,2,0,0,16.6,0.06,28,2,0,0
2.1947e+05,1.9948e+08,2,0,0,16.6,0.06,28,2,0,0
2.1992e+05,1.9958e+08,2,0,0,16.6,0.06,28,2,0,0
2.2042e+05,1.997e+08,2,0,0,16.61,0.05,28,2,0,0
2.2087e+05,1.998e+08,2,12,128,16.6,0.06,28,2,0,0
2.2133e+05,1.999e+08,2,147,542,16.58,0.1,28,2,0,0
2.2178e+05,2.0001e+08,2,558,1000,16.55,0.17,28,2,0,0
2.2227e+05,2.0011e+08,2,1017,1257,16.59,0.14,28,2,0,0
2.2277e+05,2.0022e+08,2,1261,1314,16.58,0.13,28,2,0,0
2.2322e+05,2.0033e+08,2,1316,1342,16.58,0.12,28,2,0,0
2.2359e+05,2.0043e+08,2,1342,1357,16.58,0.12,28,2,0,0
2.2404e+05,2.0054e+08,2,1357,1371,16.58,0.12,28,2,0,0
2.2454e+05,2.0065e+08,2,1371,1371,16.58,0.12,28,2,0,0
2.25e+05,2.0076e+08,2,1371,1371,16.58,0.12,28,2,0,0
2.255e+05,2.0087e+08,2,1371,1371,16.58,0.12,28,2,0,0
2.2591e+05,2.0097e+08,2,1371,1371,16.59,0.12,28,2,0,0
2.264e+05,2.0108e+08,2,1369,1357,16.59,0.12,28,2,0,0
2.2686e+05,2.0118e+08,2,1358,1371,16.58,0.12,28,2,0,0
2.2777e+05,2.0139e+08,2,1370,1357,16.58,0.12,28,2,0,0
2.2826e+05,2.015e+08,2,1357,1357,16.58,0.12,28,2,0,0
2.2872e+05,2.0161e+08,2,1357,1371,16.58,0.12,28,2,0,0
2.2917e+05,2.0171e+08,2,1371,1371,16.58,0.12,29,2,0,0
2.2967e+05,2.0183e+08,2,1371,1371,16.58,0.12,29,2,0,0
2.3013e+05,2.0193e+08,2,1371,1371,16.58,0.12,29,2,0,0
2.3058e+05,2.0203e+08,2,1371,1371,16.58,0.12,28,3,0,0
2.3108e+05,2.0215e+08,2,1371,1371,16.59,0.12,28,3,0,0
2.3153e+05,2.0225e+08,2,1371,1371,16.58,0.12,28,3,0,0
2.3199e+05,2.0236e+08,2,1371,1371,16.58,0.11,28,3,0,0
2.3246e+05,2.0246e+08,2,1371,1371,16.58,0.11,29,3,0,0
2.3291e+05,2.0257e+08,2,1371,1371,16.58,0.11,28,3,0,0
2.3336e+05,2.0267e+08,2,1371,1371,16.57,0.11,29,3,0,0
2.3385e+05,2.0278e+08,2,1371,1371,16.58,0.12,29,3,0,0
2.3435e+05,2.0289e+08,2,1372,1385,16.58,0.12,29,3,0,0
2.3507e+05,2.031e+08,2,1385,1385,16.58,0.12,28,3,0,0
2.3555e+05,2.0321e+08,2,1384,1371,16.58,0.12,29,3,0,0
2.3601e+05,2.0332e+08,2,1371,1371,16.58,0.11,28,3,0,0
2.3647e+05,2.0342e+08,2,1371,1371,16.58,0.12,29,3,0,0
2.3693e+05,2.0354e+08,2,1371,1371,16.58,0.12,28,3,0,0
2.3735e+05,2.0363e+08,2,1371,1371,16.58,0.12,29,3,0,0
2.3784e+05,2.0374e+08,2,1371,1371,16.58,0.12,28,3,0,0
2.383e+05,2.0385e+08,2,1370,1357,16.58,0.12,29,3,0,0
2.3875e+05,2.0395e+08,2,1357,1357,16.58,0.12,29,3,0,0
2.3925e+05,2.0406e+08,2,1365,1500,16.56,0.21,29,3,0,0
2.3974e+05,2.0417e+08,2,1568,2257,16.21,1.14,29,3,0,0
2.402e+05,2.0428e+08,2,2401,4414,15.54,4.54,29,3,0,0
2.4065e+05,2.0438e+08,2,4503,5885,15.67,4.54,28,3,0,0
2.4115e+05,2.045e+08,2,5906,6128,15.71,4.2,29,3,0,0
2.416e+05,2.046e+08,2,6147,6414,15.72,4.61,29,3,0,0
2.4209e+05,2.0471e+08,2,6410,6328,16.07,3.81,29,3,0,0
2.4255e+05,2.0481e+08,2,6299,5928,16.12,3.16,29,3,0,0
2.4301e+05,2.0492e+08,2,5924,5814,16.09,3.27,29,3,0,0
2.4343e+05,2.0502e+08,2,5815,5942,16.12,3.31,29,3,0,0
2.4392e+05,2.0513e+08,2,5937,5828,15.98,3.28,29,4,0,0
2.4442e+05,2.0524e+08,2,5837,5985,16.1,3.7,29,4,0,0
2.4488e+05,2.0535e+08,2,5984,5971,15.88,4,29,4,0,0
2.4533e+05,2.0545e+08,2,5978,6400,15.88,4.79,29,4,0,0
2.4583e+05,2.0556e+08,2,6418,6628,15.84,4.92,29,4,0,0
2.4628e+05,2.0567e+08,2,6625,6514,15.89,4.36,29,4,0,0
2.4677e+05,2.0578e+08,2,6500,6214,15.97,3.7,29,4,0,0
2.4727e+05,2.0589e+08,2,6215,6228,15.97,3.87,29,4,0,0
2.4768e+05,2.0598e+08,2,6223,6057,15.96,3.51,29,5,0,0
2.4817e+05,2.0609e+08,2,6057,6085,15.96,3.66,29,5,0,0
2.4863e+05,2.062e+08,2,6086,6157,16.02,3.55,29,5,0,0
2.4912e+05,2.0631e+08,2,6152,6042,16.01,3.63,29,5,0,0
2.4957e+05,2.0641e+08,2,6041,6000,15.87,3.52,29,5,0,0
2.5003e+05,2.0651e+08,2,6000,6000,16.01,3.29,29,5,0,0
2.5052e+05,2.0663e+08,2,5990,5885,15.91,3.37,29,5,0,0
2.5097e+05,2.0674e+08,2,5879,5814,15.92,2.94,29,5,0,0
2.5142e+05,2.0685e+08,2,5813,5800,15.92,2.91,29,5,0,0
2.5188e+05,2.0696e+08,2,5783,5600,16.1,1.95,29,5,0,0
2.5232e+05,2.0706e+08,2,5566,5028,16.27,1.63,29,6,0,0
2.5277e+05,2.0717e+08,2,5020,4571,16.22,1.23,29,6,0,0
2.5322e+05,2.0728e+08,2,4579,5014,16,2.82,29,6,0,0
2.5371e+05,2.0739e+08,2,5028,5228,16.11,2.61,29,6,0,0
2.5415e+05,2.075e+08,2,5239,5357,16.07,2.69,29,6,0,0
2.546e+05,2.0761e+08,2,5375,5642,16.05,2.72,29,6,0,0
2.5505e+05,2.0772e+08,2,5640,5614,15.99,2.62,29,6,0,0
2.555e+05,2.0783e+08,2,5616,5785,15.98,2.71,30,6,0,0
2.5591e+05,2.0793e+08,2,5790,6042,15.91,3.19,30,6,0,0
2.5636e+05,2.0804e+08,2,6041,6014,15.86,3.14,30,6,0,0
2.5684e+05,2.0816e+08,2,6031,6271,15.88,3.29,29,6,0,0
2.5729e+05,2.0827e+08,2,6271,6271,15.91,3.06,30,6,0,0
2.5774e+05,2.0838e+08,2,6261,6142,15.97,3.07,29,6,0,0
2.5818e+05,2.0849e+08,2,6135,6028,15.94,2.99,30,7,0,0
2.5863e+05,2.0861e+08,2,6033,6085,15.9,2.94,29,7,0,0
2.59e+05,2.087e+08,2,6084,6042,15.97,2.8,30,7,0,0
2.5948e+05,2.0881e+08,2,6045,6114,15.96,2.93,30,7,0,0
2.5993e+05,2.0893e+08,2,6096,5942,15.96,2.75,30,7,0,0
2.6038e+05,2.0904e+08,2,5939,5914,16.01,2.87,30,7,0,0
2.6079e+05,2.0914e+08,2,5920,6085,15.94,3.08,30,7,0,0
2.6124e+05,2.0925e+08,2,6082,5914,15.91,3.06,30,7,0,0
2.6172e+05,2.0937e+08,2,5929,6085,16,2.97,30,7,0,0
2.6213e+05,2.0947e+08,2,6084,6042,15.98,2.71,30,7,0,0
2.6257e+05,2.0958e+08,2,6039,5885,15.91,2.79,30,7,0,0
2.6302e+05,2.0969e+08,2,5894,6057,15.87,3.08,30,8,0,0
2.635e+05,2.098e+08,2,6045,5928,15.9,3.3,30,8,0,0
2.6395e+05,2.0991e+08,2,5974,6385,15.89,3.45,30,8,0,0
2.6436e+05,2.1001e+08,2,6379,6271,15.83,3.41,30,8,0,0
2.648e+05,2.1012e+08,2,6269,6257,15.92,3.44,30,8,0,0
2.6526e+05,2.1024e+08,2,6263,6342,15.89,3.47,30,8,0,0
2.657e+05,2.1035e+08,2,6313,6071,15.92,3.14,30,8,0,0
2.6616e+05,2.1046e+08,2,6069,6057,15.9,3.27,30,8,0,0
2.6656e+05,2.1056e+08,2,6054,5942,15.91,3.12,30,8,0,0
2.6705e+05,2.1068e+08,2,5950,6014,15.85,3.25,30,8,0,0
2.6786e+05,2.1088e+08,2,6013,5971,15.87,3.04,30,9,0,0
2.6835e+05,2.11e+08,2,5966,5900,15.89,3.01,30,9,0,0
2.6876e+05,2.1111e+08,2,5902,5928,15.86,3.19,30,9,0,0
2.6921e+05,2.1121e+08,2,5940,6071,15.83,3.32,30,9,0,0
2.6965e+05,2.1132e+08,2,6065,5942,15.86,3.11,30,9,0,0
2.7011e+05,2.1143e+08,2,5948,6014,15.89,3.32,30,9,0,0
2.7051e+05,2.1153e+08,2,6008,5942,15.86,2.88,30,9,0,0
2.71e+05,2.1165e+08,2,5948,6014,15.85,2.96,30,9,0,0
2.714e+05,2.1175e+08,2,6003,5885,15.92,2.78,30,9,0,0
2.7186e+05,2.1187e+08,2,5886,5900,15.86,3.01,30,10,0,0
2.7227e+05,2.1197e+08,2,5899,5885,15.89,2.73,30,10,0,0
2.7272e+05,2.1208e+08,2,5884,5871,15.9,2.96,30,10,0,0
2.7317e+05,2.1219e+08,2,5877,5942,15.86,2.98,30,10,0,0
2.7362e+05,2.123e+08,2,5931,5785,15.89,2.95,30,10,0,0
2.7406e+05,2.1241e+08,2,5792,5900,15.85,3.29,30,10,0,0
2.7446e+05,2.1251e+08,2,5902,6000,15.78,3.28,30,10,0,0
2.7496e+05,2.1263e+08,2,5993,5914,15.85,3.1,30,10,0,0
2.7581e+05,2.1284e+08,2,5919,6042,15.89,2.73,30,10,0,0
2.7626e+05,2.1295e+08,2,6033,5857,15.86,2.72,30,10,0,0
2.7671e+05,2.1306e+08,2,5853,5800,15.82,2.84,30,11,0,0
2.7711e+05,2.1317e+08,2,5802,6028,15.77,3.16,30,11,0,0
2.7761e+05,2.1328e+08,2,6028,6028,15.82,3.02,30,11,0,0
2.7804e+05,2.1338e+08,2,6030,6085,15.8,3.17,30,11,0,0
2.7849e+05,2.135e+08,2,6075,5957,15.8,2.97,30,11,0,0
2.7894e+05,2.1361e+08,2,5960,6000,15.83,3.04,30,11,0,0
2.7934e+05,2.1371e+08,2,6000,6014,15.8,3.38,30,11,0,0
2.798e+05,2.1383e+08,2,6019,6071,15.83,3.32,30,11,0,0
2.802e+05,2.1393e+08,2,6071,6085,15.88,3,30,11,0,0
2.8065e+05,2.1403e+08,2,6084,6071,15.84,2.96,30,11,0,0
2.8113e+05,2.1415e+08,2,6065,5985,15.86,2.74,30,11,0,0
2.8158e+05,2.1426e+08,2,5970,5828,15.88,3,30,12,0,0
2.8203e+05,2.1437e+08,2,5828,5828,15.86,2.94,30,12,0,0
2.8248e+05,2.1448e+08,2,5830,5857,15.82,3.02,30,12,0,0
2.8288e+05,2.1458e+08,2,5852,5742,15.82,3.02,30,12,0,0
2.8378e+05,2.148e+08,2,5745,5857,15.75,3.69,30,12,0,0
2.8423e+05,2.1491e+08,2,5868,6028,15.73,3.7,30,12,0,0
2.8468e+05,2.1502e+08,2,6033,6157,15.73,3.91,30,12,0,0
2.851e+05,2.1513e+08,2,6151,6042,15.81,3.45,30,12,0,0
2.8555e+05,2.1524e+08,2,6040,5942,15.8,3.4,30,12,0,0
2.8604e+05,2.1535e+08,2,5966,6228,15.76,3.51,30,13,0,0
2.8648e+05,2.1546e+08,2,6216,6028,15.74,3.82,30,13,0,0
2.8688e+05,2.1556e+08,2,6029,6100,15.77,3.43,30,13,0,0
2.8737e+05,2.1568e+08,2,6101,6128,15.81,3.54,30,13,0,0
2.8782e+05,2.1579e+08,2,6128,6128,15.76,3.76,30,13,0,0
2.8831e+05,2.1591e+08,2,6133,6200,15.77,3.78,30,13,0,0
2.8872e+05,2.1601e+08,2,6203,6242,15.77,3.66,30,13,0,0
2.8916e+05,2.1612e+08,2,6236,6128,15.75,3.57,30,13,0,0
2.8961e+05,2.1623e+08,2,6125,6028,15.74,3.33,30,14,0,0
2.9007e+05,2.1634e+08,2,6017,5871,15.75,3.23,30,14,0,0
2.9052e+05,2.1645e+08,2,5871,5871,15.72,3.14,30,14,0,0
2.9092e+05,2.1655e+08,2,5877,5942,15.72,3.14,30,14,0,0
2.9137e+05,2.1666e+08,2,5936,5714,15.69,3.1,30,14,0,0
2.9182e+05,2.1677e+08,2,5719,5771,15.64,3.17,30,14,0,0
2.9222e+05,2.1687e+08,2,5778,5928,15.72,3.27,30,14,0,0
2.9268e+05,2.1699e+08,2,5933,6000,15.72,3.25,30,14,0,0
2.9313e+05,2.171e+08,2,6008,6085,15.68,3.66,30,14,0,0
2.9353e+05,2.172e+08,2,6085,6100,15.67,3.62,30,14,0,0
2.9398e+05,2.1731e+08,2,6100,6128,15.66,3.87,30,15,0,0
2.9442e+05,2.1742e+08,2,6128,6128,15.75,3.62,30,15,0,0
2.949e+05,2.1753e+08,2,6130,6157,15.75,3.82,30,15,0,0
2.9535e+05,2.1764e+08,2,6154,6128,15.74,3.5,30,15,0,0
2.9579e+05,2.1775e+08,2,6125,6028,15.72,3.24,30,15,0,0
2.9629e+05,2.1787e+08,2,6033,6085,15.67,3.3,30,15,0,0
2.9665e+05,2.1796e+08,2,6081,5928,15.65,3.43,30,15,0,0
2.9714e+05,2.1808e+08,2,5928,5928,15.61,3.57,30,15,0,0
2.98e+05,2.1829e+08,2,5930,6185,15.58,3.65,30,16,0,0
2.9889e+05,2.1851e+08,2,6183,5942,15.69,3.26,30,16,0,0
2.9982e+05,2.1874e+08,2,5936,5771,15.66,3.29,30,16,0,0
3.0027e+05,2.1884e+08,2,5778,5942,15.56,3.62,30,16,0,0
3.0068e+05,2.1895e+08,2,5940,5900,15.41,3.75,30,16,0,0
3.0118e+05,2.1907e+08,2,5901,5914,15.47,3.69,30,16,0,0
3.0158e+05,2.1917e+08,2,5922,6000,15.45,3.68,30,16,0,0
3.0203e+05,2.1927e+08,2,6000,6000,15.61,3.56,30,16,0,0
3.0248e+05,2.1938e+08,2,6005,6142,15.59,3.78,30,17,0,0
3.0296e+05,2.195e+08,2,6135,6085,15.61,3.67,30,17,0,0
3.0337e+05,2.196e+08,2,6083,6057,15.57,3.83,30,17,0,0
3.0381e+05,2.1971e+08,2,6057,6071,15.58,3.76,30,17,0,0
3.0426e+05,2.1982e+08,2,6065,6014,15.52,3.74,30,17,0,0
3.0471e+05,2.1993e+08,2,6012,6000,15.49,3.64,30,17,0,0
3.0516e+05,2.2004e+08,2,5986,5842,15.56,3.48,30,17,0,0
3.0556e+05,2.2014e+08,2,5855,6128,15.5,3.96,30,17,0,0
3.0602e+05,2.2025e+08,2,6119,5942,15.62,3.06,30,17,0,0
3.0647e+05,2.2037e+08,2,5937,5885,15.66,3.44,30,18,0,0
3.0692e+05,2.2047e+08,2,5889,5942,15.53,3.56,30,18,0,0
3.0732e+05,2.2057e+08,2,5943,6028,15.73,3.9,30,18,0,0
3.0777e+05,2.2068e+08,2,6019,5914,15.82,2.97,30,18,0,0
3.0911e+05,2.2101e+08,2,5900,5271,15.91,2.27,30,18,0,0
3.096e+05,2.2113e+08,2,5274,5314,15.9,2.43,30,18,0,0
3.1005e+05,2.2123e+08,2,5320,5400,15.91,2.57,30,18,0,0
3.1045e+05,2.2133e+08,2,5402,5557,15.86,2.74,30,18,0,0
3.1095e+05,2.2145e+08,2,5572,5728,15.91,2.63,30,18,0,0
3.1138e+05,2.2156e+08,2,5719,5600,15.82,2.4,30,18,0,0
3.1183e+05,2.2166e+08,2,5614,5800,15.9,2.48,30,19,0,0
3.1224e+05,2.2177e+08,2,5798,5771,15.85,2.55,30,19,0,0
3.1269e+05,2.2188e+08,2,5770,5757,15.85,2.49,30,19,0,0
3.131e+05,2.2198e+08,2,5753,5714,15.87,2.53,30,19,0,0
3.1359e+05,2.2211e+08,2,5704,5585,15.82,2.37,30,19,0,0
3.1399e+05,2.222e+08,2,5582,5528,15.85,2.06,30,19,0,0
3.1489e+05,2.2242e+08,2,5523,5414,15.77,2.54,30,19,0,0
3.1533e+05,2.2253e+08,2,5440,5700,15.75,3.14,30,19,0,0
3.1578e+05,2.2264e+08,2,5701,5728,15.79,2.37,30,19,0,0
3.1619e+05,2.2275e+08,2,5732,5842,15.72,2.84,30,19,0,0
3.1664e+05,2.2286e+08,2,5825,5614,15.77,1.87,30,19,0,0
3.1705e+05,2.2296e+08,2,5608,5285,15.82,1.22,30,19,0,0
3.175e+05,2.2307e+08,2,5281,5200,15.82,1.92,30,19,0,0
3.1795e+05,2.2318e+08,2,5210,5314,15.75,2.17,30,19,0,0
3.1841e+05,2.2329e+08,2,5317,5357,15.8,2.05,30,20,0,0
3.1881e+05,2.234e+08,2,5365,5471,15.82,2.33,30,20,0,0
3.1926e+05,2.2351e+08,2,5472,5500,15.81,2.33,30,20,0,0
3.1971e+05,2.2362e+08,2,5503,5542,15.75,2.4,30,20,0,0
3.2015e+05,2.2372e+08,2,5556,5757,15.8,2.7,30,20,0,0
3.206e+05,2.2383e+08,2,5768,5885,15.73,2.79,30,20,0,0
3.2104e+05,2.2394e+08,2,5879,5771,15.68,2.81,30,20,0,0
3.2149e+05,2.2405e+08,2,5772,5842,15.69,3.04,30,20,0,0
3.2193e+05,2.2416e+08,2,5846,6142,15.66,3.47,30,20,0,0
3.2238e+05,2.2426e+08,2,6138,6100,15.67,3.36,30,20,0,0
3.2279e+05,2.2436e+08,2,6098,6014,15.67,3.27,30,20,0,0
3.2376e+05,2.246e+08,2,6010,5914,15.67,3.25,30,21,0,0
3.2506e+05,2.2492e+08,2,5915,6000,15.69,3.22,30,21,0,0
3.2551e+05,2.2503e+08,2,5990,5900,15.67,3.06,30,21,0,0
3.2596e+05,2.2514e+08,2,5898,5885,15.69,2.92,30,21,0,0
3.264e+05,2.2525e+08,2,5880,5785,15.69,2.7,30,21,0,0
3.2681e+05,2.2535e+08,2,5781,5642,15.73,2.44,30,21,0,0
3.273e+05,2.2547e+08,2,5643,5657,15.7,2.83,30,21,0,0
3.2772e+05,2.2558e+08,2,5662,5714,15.69,2.51,30,21,0,0
3.2817e+05,2.2569e+08,2,5689,5457,15.67,2.15,30,21,0,0
3.2862e+05,2.258e+08,2,5464,5514,15.54,3.13,30,22,0,0
3.2902e+05,2.259e+08,2,5527,6057,15.52,4.43,30,22,0,0
3.2947e+05,2.2601e+08,2,6072,6314,15.52,4.35,30,22,0,0
3.2992e+05,2.2612e+08,2,6278,5871,15.5,3.52,30,22,0,0
3.3037e+05,2.2623e+08,2,5919,6342,15.55,4.12,30,22,0,0
3.3078e+05,2.2633e+08,2,6339,6300,15.48,4.71,30,22,0,0
3.3122e+05,2.2644e+08,2,6290,6057,15.66,2.61,30,22,0,0
3.3215e+05,2.2667e+08,2,6031,5471,15.7,2.53,30,22,0,0
3.3256e+05,2.2677e+08,2,5472,5557,15.7,2.2,30,23,0,0
3.3306e+05,2.2689e+08,2,5518,5114,15.64,1.97,30,23,0,0
3.335e+05,2.27e+08,2,5182,5857,15.68,3.51,30,23,0,0
3.3395e+05,2.2711e+08,2,5850,5785,15.63,3.34,30,23,0,0
3.3436e+05,2.2722e+08,2,5794,5885,15.71,2.95,30,23,0,0
3.3508e+05,2.2744e+08,2,5625,5785,15.7,2.87,30,23,0,0
3.3548e+05,2.2754e+08,2,5749,5457,15.77,1.92,30,23,0,0
3.3593e+05,2.2765e+08,2,5458,5471,15.81,1.9,30,23,0,0
3.3633e+05,2.2775e+08,2,5449,5171,15.85,1.82,30,23,0,0
3.3678e+05,2.2786e+08,2,5158,5028,15.8,1.59,30,23,0,0
3.3723e+05,2.2797e+08,2,5066,5414,15.74,3.06,30,23,0,0
3.3764e+05,2.2807e+08,2,5389,5157,15.7,1.71,30,23,0,0
3.3805e+05,2.2818e+08,2,5154,4971,15.74,1.46,30,23,0,0
3.385e+05,2.2829e+08,2,4969,4828,15.75,1.49,30,24,0,0
3.3895e+05,2.284e+08,2,4827,4800,15.74,1.91,30,24,0,0
3.3944e+05,2.2852e+08,2,4832,5157,15.61,2.63,30,24,0,0
3.3984e+05,2.2861e+08,2,5176,5528,15.63,2.87,30,24,0,0
3.4029e+05,2.2873e+08,2,5542,5742,15.71,2.58,30,24,0,0
3.4074e+05,2.2884e+08,2,5731,5585,15.64,2.68,30,24,0,0
3.4116e+05,2.2894e+08,2,5585,5585,15.63,2.66,30,24,0,0
3.4161e+05,2.2905e+08,2,5590,5657,15.57,2.52,30,24,0,0
3.4205e+05,2.2916e+08,2,5668,5900,15.66,3.24,30,24,0,0
3.4246e+05,2.2926e+08,2,5903,6114,15.63,3.74,30,24,0,0
3.4294e+05,2.2937e+08,2,6119,6300,15.61,3.78,30,24,0,0
3.4339e+05,2.2948e+08,2,6292,6000,15.61,3.43,30,24,0,0
3.4384e+05,2.296e+08,2,6001,6028,15.59,3.38,30,25,0,0
3.4429e+05,2.2971e+08,2,6021,5957,15.59,3.25,30,25,0,0
3.4475e+05,2.2981e+08,2,5954,5914,15.61,3.42,30,25,0,0
3.4519e+05,2.2992e+08,2,5918,5985,15.63,3.24,30,25,0,0
3.4559e+05,2.3002e+08,2,5981,5814,15.67,2.95,30,25,0,0
3.4608e+05,2.3014e+08,2,5812,5785,15.72,3.06,30,25,0,0
3.4654e+05,2.3025e+08,2,5783,5757,15.7,2.91,30,25,0,0
3.4698e+05,2.3036e+08,2,5759,5785,15.64,2.93,30,25,0,0
3.4743e+05,2.3047e+08,2,5787,5814,15.64,3.21,30,25,0,0
3.4787e+05,2.3057e+08,2,5816,5871,15.64,3.08,30,25,0,0
3.4833e+05,2.3069e+08,2,5867,5828,15.68,2.79,30,25,0,0
3.4878e+05,2.308e+08,2,5826,5814,15.67,3.1,30,26,0,0
3.4918e+05,2.309e+08,2,5824,5985,15.77,3.12,30,26,0,0
3.4963e+05,2.3101e+08,2,5947,5571,15.72,2.35,30,26,0,0
3.5008e+05,2.3112e+08,2,5583,5714,15.63,2.87,30,26,0,0
3.5053e+05,2.3123e+08,2,5711,5685,15.62,2.86,30,26,0,0
3.5093e+05,2.3132e+08,2,5690,5957,15.63,3.34,30,26,0,0
3.5137e+05,2.3143e+08,2,5955,5928,15.66,3.32,30,26,0,0
3.5183e+05,2.3155e+08,2,5928,5928,15.65,3.15,30,26,0,0
3.5227e+05,2.3165e+08,2,5929,5957,15.67,3.31,30,26,0,0
3.5267e+05,2.3176e+08,2,5955,5885,15.66,3.23,30,26,0,0
3.5316e+05,2.3187e+08,2,5896,6014,15.64,3.44,30,26,0,0
3.5357e+05,2.3198e+08,2,6008,5942,15.6,3.49,30,27,0,0
3.5406e+05,2.321e+08,2,5941,5928,15.64,3.64,30,27,0,0
3.5451e+05,2.3221e+08,2,5934,6000,15.57,3.78,30,27,0,0
3.5496e+05,2.3232e+08,2,6015,6185,15.61,3.79,30,27,0,0
3.5536e+05,2.3241e+08,2,6177,6071,15.67,3.78,30,27,0,0
3.5581e+05,2.3253e+08,2,6079,6171,15.61,3.76,30,27,0,0
3.5622e+05,2.3263e+08,2,6168,6000,15.59,3.66,30,27,0,0
3.567e+05,2.3274e+08,2,6000,6000,15.62,3.3,30,27,0,0
3.5715e+05,2.3285e+08,2,5984,5828,15.66,3.49,30,28,0,0
3.576e+05,2.3296e+08,2,5841,5985,15.64,3.67,30,28,0,0
3.5804e+05,2.3307e+08,2,5963,5742,15.63,2.95,30,28,0,0
3.5845e+05,2.3317e+08,2,5745,5942,15.66,3.85,30,28,0,0
3.5889e+05,2.3329e+08,2,5942,5957,15.72,3.51,30,28,0,0
3.5934e+05,2.3339e+08,2,5958,6000,15.68,3.35,30,28,0,0
3.5983e+05,2.3351e+08,2,5988,5871,15.67,3.08,31,28,0,0
3.6031e+05,2.3363e+08,2,5860,5728,15.64,2.95,30,28,0,0
3.6072e+05,2.3373e+08,2,5719,5642,15.63,3.16,30,28,0,0
3.6117e+05,2.3384e+08,2,5647,5700,15.64,3.31,30,28,0,0
3.6162e+05,2.3395e+08,2,5715,5828,15.66,3.21,30,29,0,0
3.6202e+05,2.3405e+08,2,5829,5885,15.63,3.58,30,29,0,0
3.6247e+05,2.3416e+08,2,5885,5885,15.67,3.66,30,29,0,0
3.6292e+05,2.3427e+08,2,5886,5985,15.64,3.75,31,29,0,0
3.6336e+05,2.3438e+08,2,5992,6057,15.62,4.01,31,29,0,0
3.6385e+05,2.345e+08,2,6073,6200,15.53,4.06,30,29,0,0
3.6429e+05,2.346e+08,2,6200,6200,15.57,3.93,30,29,0,0
3.647e+05,2.3471e+08,2,6204,6242,15.52,4.07,30,29,0,0
3.6514e+05,2.3481e+08,2,6241,6185,15.6,4.01,30,30,0,0
3.6644e+05,2.3513e+08,2,6178,5785,15.58,2.99,30,30,0,0
3.6692e+05,2.3525e+08,2,5755,5542,15.65,2.72,30,30,0,0
3.6736e+05,2.3535e+08,2,5534,5428,15.66,2.71,31,30,0,0
3.6782e+05,2.3547e+08,2,5437,5542,15.63,2.74,30,30,0,0
3.6871e+05,2.3568e+08,2,5543,5571,15.59,2.64,30,30,0,0
3.6915e+05,2.3579e+08,2,5572,5600,15.61,2.75,30,30,0,0
3.6955e+05,2.359e+08,2,5600,5642,15.7,2.69,31,30,0,0
3.7004e+05,2.3601e+08,2,5650,5742,15.7,3.07,31,30,0,0
3.7049e+05,2.3612e+08,2,5746,5814,15.64,2.72,31,31,0,0
3.7093e+05,2.3623e+08,2,5809,5771,15.56,2.96,31,31,0,0
3.7138e+05,2.3634e+08,2,5769,5757,15.6,3.1,31,31,0,0
3.7183e+05,2.3644e+08,2,5767,6028,15.63,3.16,31,31,0,0
3.7227e+05,2.3655e+08,2,6022,5957,15.67,3.13,31,31,0,0
3.7272e+05,2.3666e+08,2,5960,6157,15.56,3.37,31,31,0,0
3.7365e+05,2.3689e+08,2,6152,6042,15.66,3.26,31,31,0,0
3.7406e+05,2.3699e+08,2,6042,6042,15.64,3.4,31,31,0,0
3.745e+05,2.371e+08,2,6043,6057,15.59,3.26,31,31,0,0
3.7495e+05,2.3721e+08,2,6047,5900,15.61,3.09,31,32,0,0
3.7535e+05,2.3731e+08,2,5901,5957,15.66,3.35,31,32,0,0
3.7584e+05,2.3743e+08,2,5957,5957,15.64,3.2,31,32,0,0
3.7628e+05,2.3754e+08,2,5960,6028,15.6,3.24,31,32,0,0
3.7674e+05,2.3765e+08,2,6029,6057,15.63,3.4,31,32,0,0
3.7718e+05,2.3776e+08,2,6060,6114,15.59,3.31,31,32,0,0
3.7807e+05,2.3797e+08,2,6108,5942,15.52,3.48,31,32,0,0
3.7852e+05,2.3808e+08,2,5940,5914,15.55,3.38,31,32,0,0
3.7897e+05,2.3819e+08,2,5917,6014,15.63,3.29,31,32,0,0
3.7941e+05,2.383e+08,2,6014,6014,15.54,3.34,31,33,0,0
3.8026e+05,2.3852e+08,2,6009,5914,15.69,3.35,31,33,0,0
3.8067e+05,2.3862e+08,2,5910,5842,15.64,3.23,31,33,0,0
3.8111e+05,2.3873e+08,2,5839,5700,15.63,3.07,31,33,0,0
3.8156e+05,2.3884e+08,2,5705,5814,15.64,3.12,31,33,0,0
3.8204e+05,2.3895e+08,2,5814,5814,15.6,3.14,31,33,0,0
3.8249e+05,2.3906e+08,2,5824,5928,15.64,2.91,31,33,0,0
3.8293e+05,2.3917e+08,2,5925,5857,15.69,2.94,31,33,0,0
3.8338e+05,2.3928e+08,2,5854,5814,15.64,2.98,31,33,0,0
3.8383e+05,2.3939e+08,2,5809,5771,15.64,2.91,31,34,0,0
3.8431e+05,2.395e+08,2,5776,5828,15.58,2.76,31,34,0,0
3.8472e+05,2.396e+08,2,5825,5785,15.7,2.79,31,34,0,0
3.852e+05,2.3972e+08,2,5782,5742,15.67,2.48,31,34,0,0
3.8565e+05,2.3983e+08,2,5735,5671,15.71,2.61,31,34,0,0
3.8605e+05,2.3993e+08,2,5667,5585,15.7,2.59,31,34,0,0
3.865e+05,2.4004e+08,2,5583,5571,15.66,2.67,31,34,0,0
3.8695e+05,2.4015e+08,2,5571,5571,15.63,2.59,31,34,0,0
3.874e+05,2.4026e+08,2,5570,5557,15.74,2.25,31,34,0,0
3.8784e+05,2.4037e+08,2,5557,5571,15.73,2.15,31,34,0,0
3.8829e+05,2.4048e+08,2,5568,5542,15.67,2.3,31,34,0,0
3.8874e+05,2.4059e+08,2,5537,5500,15.7,1.77,31,34,0,0
3.8959e+05,2.408e+08,2,5498,5371,15.65,2.07,31,34,0,0
3.9008e+05,2.4092e+08,2,5372,5385,15.64,2.23,31,35,0,0
3.9053e+05,2.4103e+08,2,5397,5542,15.52,2.94,31,35,0,0
3.9096e+05,2.4113e+08,2,5554,5714,15.5,2.7,31,35,0,0
3.9142e+05,2.4125e+08,2,5719,5757,15.51,3.1,31,35,0,0
3.9186e+05,2.4136e+08,2,5768,5885,15.49,3.36,31,35,0,0
3.9227e+05,2.4145e+08,2,5886,5971,15.51,3.09,31,35,0,0
3.9273e+05,2.4157e+08,2,5968,5857,15.54,3.39,31,35,0,0
3.9322e+05,2.417e+08,2,5871,5942,15.51,3.22,31,35,0,0
3.9362e+05,2.4179e+08,2,5945,5985,15.55,3.32,31,35,0,0
3.9406e+05,2.419e+08,2,5974,5871,15.6,3.37,30,35,0,0
3.9491e+05,2.4211e+08,2,5871,5957,15.55,3.11,31,36,0,0
3.954e+05,2.4222e+08,2,5940,5714,15.6,2.91,31,36,0,0
3.9584e+05,2.4233e+08,2,5723,5857,15.6,3.13,31,36,0,0
3.9629e+05,2.4244e+08,2,5849,5742,15.57,2.96,31,36,0,0
3.9714e+05,2.4265e+08,2,5741,5728,15.58,3.14,31,36,0,0
3.9758e+05,2.4276e+08,2,5723,5614,15.55,3.06,31,36,0,0
3.9807e+05,2.4288e+08,2,5626,5757,15.54,3.03,31,36,0,0
3.9852e+05,2.4299e+08,2,5751,5614,15.64,2.67,31,36,0,0
3.9896e+05,2.4309e+08,2,5612,5514,15.62,2.68,31,36,0,0
3.9944e+05,2.432e+08,2,5518,5600,15.56,2.8,31,36,0,0
3.999e+05,2.4332e+08,2,5590,5500,15.6,2.72,31,37,0,0
4.003e+05,2.4342e+08,2,5500,5500,15.61,2.69,31,37,0,0
4.0074e+05,2.4353e+08,2,5500,5500,15.64,2.54,31,37,0,0
4.0119e+05,2.4364e+08,2,5500,5514,15.63,2.55,31,37,0,0
4.0163e+05,2.4375e+08,2,5504,5385,15.66,2.77,31,37,0,0
4.0208e+05,2.4386e+08,2,5390,5471,15.58,2.6,31,37,0,0
4.0248e+05,2.4396e+08,2,5470,5457,15.63,2.61,31,37,0,0
4.0298e+05,2.4408e+08,2,5465,5542,15.63,2.58,31,37,0,0
4.0337e+05,2.4417e+08,2,5538,5471,15.61,2.59,31,37,0,0
4.0383e+05,2.4429e+08,2,5475,5514,15.63,2.66,31,37,0,0
4.0427e+05,2.4439e+08,2,5528,5671,15.66,2.63,31,37,0,0
4.0472e+05,2.4451e+08,2,5666,5614,15.61,2.65,31,37,0,0
4.0517e+05,2.4461e+08,2,5624,5757,15.65,2.77,31,37,0,0
4.0561e+05,2.4472e+08,2,5757,5757,15.66,2.75,31,38,0,0
4.0606e+05,2.4483e+08,2,5747,5600,15.61,2.62,31,38,0,0
4.065e+05,2.4494e+08,2,5611,5728,15.64,2.73,31,38,0,0
4.0696e+05,2.4505e+08,2,5708,5500,15.64,2.71,31,38,0,0
4.0736e+05,2.4515e+08,2,5509,5685,15.65,2.64,31,38,0,0
4.078e+05,2.4526e+08,2,5681,5614,15.55,2.79,31,38,0,0
4.0825e+05,2.4537e+08,2,5620,5742,15.57,3.05,31,38,0,0
4.0881e+05,2.4558e+08,2,5771,5771,15.58,2.69,31,38,0,0
4.093e+05,2.457e+08,2,5771,5771,15.64,2.73,31,38,0,0
4.097e+05,2.458e+08,2,5761,5671,15.6,2.39,31,38,0,0
4.1014e+05,2.459e+08,2,5662,5500,15.72,2.63,31,38,0,0
4.1059e+05,2.4602e+08,2,5497,5471,15.68,2.38,31,39,0,0
4.1103e+05,2.4612e+08,2,5469,5414,15.7,2.41,31,39,0,0
4.1148e+05,2.4623e+08,2,5416,5442,15.6,2.37,31,39,0,0
4.1194e+05,2.4634e+08,2,5440,5428,15.65,2.24,31,39,0,0
4.1234e+05,2.4644e+08,2,5419,5242,15.62,2.48,31,39,0,0
4.1279e+05,2.4655e+08,2,5247,5385,15.65,2.59,31,39,0,0
4.1327e+05,2.4666e+08,2,5386,5414,15.61,2.34,31,39,0,0
4.1368e+05,2.4677e+08,2,5416,5471,15.6,2.33,31,39,0,0
4.1413e+05,2.4688e+08,2,5472,5485,15.67,2.37,31,39,0,0
4.1456e+05,2.4698e+08,2,5489,5585,15.61,2.57,31,39,0,0
4.1502e+05,2.471e+08,2,5597,5685,15.59,2.63,31,39,0,0
4.1546e+05,2.472e+08,2,5686,5714,15.6,2.85,31,39,0,0
4.159e+05,2.4731e+08,2,5721,5885,15.66,2.74,31,40,0,0
4.1635e+05,2.4742e+08,2,5878,5757,15.61,2.74,31,40,0,0
4.1676e+05,2.4753e+08,2,5760,5828,15.55,2.81,31,40,0,0
4.1725e+05,2.4764e+08,2,5829,5857,15.61,2.71,31,40,0,0
4.1766e+05,2.4775e+08,2,5858,5871,15.63,2.78,31,40,0,0
4.181e+05,2.4785e+08,2,5863,5714,15.64,2.54,30,40,0,0
4.1855e+05,2.4797e+08,2,5711,5671,15.64,2.56,31,40,0,0
4.1896e+05,2.4807e+08,2,5669,5600,15.57,2.39,31,40,0,0
4.194e+05,2.4818e+08,2,5598,5585,15.69,2.38,31,40,0,0
4.1984e+05,2.4828e+08,2,5570,5371,15.64,2.09,31,40,0,0
4.2029e+05,2.4839e+08,2,5387,5628,15.64,2.44,31,40,0,0
4.2074e+05,2.485e+08,2,5621,5457,15.69,1.82,31,40,0,0
4.2118e+05,2.4862e+08,2,5471,5600,15.58,2.46,31,40,0,0
4.2162e+05,2.4872e+08,2,5592,5428,15.59,2.35,31,40,0,0
4.2208e+05,2.4883e+08,2,5429,5500,15.58,2.42,31,41,0,0
4.2252e+05,2.4894e+08,2,5512,5628,15.63,2.57,31,41,0,0
4.2297e+05,2.4905e+08,2,5623,5542,15.54,2.69,31,41,0,0
4.2338e+05,2.4916e+08,2,5542,5557,15.54,2.95,31,41,0,0
4.2383e+05,2.4926e+08,2,5556,5542,15.55,2.71,31,41,0,0
4.2431e+05,2.4938e+08,2,5549,5628,15.51,2.96,31,41,0,0
4.2476e+05,2.4949e+08,2,5631,5657,15.57,2.9,31,41,0,0
4.252e+05,2.496e+08,2,5660,5714,15.55,2.63,30,41,0,0
4.2561e+05,2.497e+08,2,5716,5771,15.59,2.65,31,41,0,0
4.2605e+05,2.4981e+08,2,5765,5657,15.67,2.49,31,41,0,0
4.2654e+05,2.4993e+08,2,5667,5785,15.62,2.7,31,41,0,0
4.2694e+05,2.5003e+08,2,5786,5800,15.59,2.78,31,41,0,0
4.2739e+05,2.5014e+08,2,5801,5814,15.63,2.65,31,42,0,0
4.2779e+05,2.5024e+08,2,5814,5857,15.62,3.02,31,42,0,0
4.2825e+05,2.5036e+08,2,5865,5928,15.62,2.77,31,42,0,0
4.287e+05,2.5046e+08,2,5925,5857,15.64,2.35,31,42,0,0
4.2915e+05,2.5058e+08,2,5858,5885,15.65,2.55,31,42,0,0
4.296e+05,2.5068e+08,2,5863,5657,15.69,2.11,31,42,0,0
4.3e+05,2.5079e+08,2,5651,5542,15.69,2.02,31,42,0,0
4.3049e+05,2.509e+08,2,5524,5342,15.63,1.83,30,42,0,0
4.3089e+05,2.51e+08,2,5340,5300,15.67,1.61,31,42,0,0
4.3134e+05,2.5111e+08,2,5281,5028,15.71,1.46,31,42,0,0
4.3178e+05,2.5122e+08,2,5037,5228,15.64,1.73,31,42,0,0
4.3223e+05,2.5133e+08,2,5232,5285,15.63,2.16,31,42,0,0
4.3264e+05,2.5144e+08,2,5282,5157,15.72,1.56,31,42,0,0
4.3308e+05,2.5154e+08,2,5167,5285,15.64,2.06,30,42,0,0
4.3353e+05,2.5165e+08,2,5283,5271,15.69,2.25,31,42,0,0
4.3397e+05,2.5176e+08,2,5283,5471,15.69,2.18,31,43,0,0
4.3442e+05,2.5187e+08,2,5475,5528,15.64,2.62,30,43,0,0
4.3486e+05,2.5198e+08,2,5526,5500,15.54,2.59,30,43,0,0
4.3572e+05,2.5219e+08,2,5502,5742,15.57,2.65,31,43,0,0
4.362e+05,2.5231e+08,2,5727,5571,15.6,2.49,30,43,0,0
4.3665e+05,2.5242e+08,2,5578,5685,15.58,2.73,31,43,0,0
4.371e+05,2.5253e+08,2,5700,5857,15.61,2.73,30,43,0,0
4.3755e+05,2.5263e+08,2,5849,5771,15.66,2.71,31,43,0,0
4.3799e+05,2.5274e+08,2,5764,5700,15.67,2.58,30,43,0,0
4.384e+05,2.5284e+08,2,5701,5785,15.61,2.6,30,43,0,0
4.3888e+05,2.5296e+08,2,5776,5657,15.63,2.25,30,43,0,0
4.3933e+05,2.5307e+08,2,5649,5571,15.65,2.27,31,43,0,0
4.3973e+05,2.5317e+08,2,5571,5585,15.57,2.47,30,44,0,0
4.4018e+05,2.5328e+08,2,5570,5428,15.64,1.91,30,44,0,0
4.4062e+05,2.5339e+08,2,5435,5514,15.62,2.44,31,44,0,0
4.4107e+05,2.535e+08,2,5516,5557,15.72,2.05,31,44,0,0
4.4152e+05,2.5361e+08,2,5554,5528,15.66,2.26,31,44,0,0
4.4192e+05,2.5371e+08,2,5525,5414,15.67,1.86,30,44,0,0
4.4237e+05,2.5382e+08,2,5411,5371,15.68,2.25,30,44,0,0
4.4282e+05,2.5393e+08,2,5374,5414,15.64,2.25,31,44,0,0
4.4327e+05,2.5404e+08,2,5439,5700,15.51,2.75,31,44,0,0
4.4369e+05,2.5415e+08,2,5725,5971,15.6,2.81,31,44,0,0
4.4418e+05,2.5426e+08,2,5968,5942,15.58,2.6,31,44,0,0
4.4458e+05,2.5436e+08,2,5934,5828,15.58,2.52,31,44,0,0
4.4503e+05,2.5447e+08,2,5830,5857,15.58,2.67,30,44,0,0
4.4547e+05,2.5458e+08,2,5852,5800,15.6,2.69,31,44,0,0
4.4592e+05,2.5469e+08,2,5815,5942,15.6,2.98,30,45,0,0
4.4632e+05,2.5479e+08,2,5944,6042,15.6,2.88,30,45,0,0
4.4682e+05,2.5491e+08,2,6019,5814,15.57,2.72,30,45,0,0
4.4722e+05,2.5501e+08,2,5816,5900,15.6,2.8,31,45,0,0
4.4812e+05,2.5523e+08,2,5890,5685,15.58,2.55,31,45,0,0
4.4853e+05,2.5534e+08,2,5682,5642,15.58,2.45,31,45,0,0
4.4898e+05,2.5545e+08,2,5645,5700,15.57,2.58,30,45,0,0
4.4938e+05,2.5555e+08,2,5698,5585,15.61,2.74,31,45,0,0
4.4987e+05,2.5566e+08,2,5586,5614,15.6,2.45,30,45,0,0
4.5028e+05,2.5577e+08,2,5610,5528,15.59,2.26,31,45,0,0
4.5073e+05,2.5588e+08,2,5522,5400,15.55,2.27,30,45,0,0
4.5118e+05,2.5599e+08,2,5403,5457,15.57,2.53,30,45,0,0
4.5163e+05,2.561e+08,2,5467,5585,15.57,2.31,30,46,0,0
4.5252e+05,2.5632e+08,2,5581,5514,15.57,2.46,30,46,0,0
4.5292e+05,2.5642e+08,2,5523,5728,15.63,2.48,30,46,0,0
4.5382e+05,2.5664e+08,2,5730,5814,15.57,2.94,30,46,0,0
4.5422e+05,2.5674e+08,2,5817,5900,15.57,2.85,30,46,0,0
4.5467e+05,2.5685e+08,2,5900,5928,15.56,2.97,30,46,0,0
4.5512e+05,2.5696e+08,2,5926,5900,15.52,3.07,30,46,0,0
4.5601e+05,2.5718e+08,2,5895,5785,15.63,2.55,30,46,0,0
4.565e+05,2.5729e+08,2,5791,5857,15.65,2.89,30,46,0,0
4.5694e+05,2.574e+08,2,5859,5885,15.58,2.64,30,47,0,0
4.5738e+05,2.5752e+08,2,5879,5828,15.6,2.65,30,47,0,0
4.5783e+05,2.5763e+08,2,5823,5785,15.6,2.57,30,47,0,0
4.5828e+05,2.5774e+08,2,5783,5771,15.61,2.81,31,47,0,0
4.5872e+05,2.5784e+08,2,5781,5871,15.57,3.05,30,47,0,0
4.5916e+05,2.5795e+08,2,5882,6000,15.6,3.12,31,47,0,0
4.6005e+05,2.5817e+08,2,5996,5928,15.5,3.13,30,47,0,0
4.605e+05,2.5828e+08,2,5928,5928,15.54,3.33,30,47,0,0
4.6095e+05,2.5839e+08,2,5943,6100,15.61,3.34,30,47,0,0
4.6136e+05,2.585e+08,2,6100,6100,15.58,3.11,30,47,0,0
4.6184e+05,2.5861e+08,2,6113,6242,15.53,3.17,30,48,0,0
4.6228e+05,2.5872e+08,2,6222,5971,15.57,2.99,30,48,0,0
4.6273e+05,2.5883e+08,2,5976,6057,15.57,3.15,30,48,0,0
4.6314e+05,2.5894e+08,2,6050,5985,15.5,2.98,30,48,0,0
4.6358e+05,2.5904e+08,2,5983,5914,15.57,2.92,30,48,0,0
4.6403e+05,2.5915e+08,2,5911,5871,15.58,2.89,30,48,0,0
4.6447e+05,2.5926e+08,2,5875,5957,15.52,3.02,30,48,0,0
4.6488e+05,2.5937e+08,2,5954,5900,15.58,3.2,30,48,0,0
4.6534e+05,2.5948e+08,2,5900,5942,15.55,2.99,30,48,0,0
4.6578e+05,2.5959e+08,2,5934,5828,15.47,3.36,30,48,0,0
4.6622e+05,2.597e+08,2,5826,5785,15.54,3.32,30,48,0,0
4.6667e+05,2.5981e+08,2,5801,6042,15.53,3.35,30,49,0,0
4.6757e+05,2.6003e+08,2,6044,6114,15.53,3.35,31,49,0,0
4.6801e+05,2.6014e+08,2,6103,5942,15.55,2.95,30,49,0,0
4.6846e+05,2.6024e+08,2,5946,6014,15.64,3.17,31,49,0,0
4.689e+05,2.6036e+08,2,6009,5957,15.56,2.88,31,49,0,0
4.6935e+05,2.6046e+08,2,5955,5914,15.64,2.82,30,49,0,0
4.698e+05,2.6057e+08,2,5901,5714,15.64,2.47,31,49,0,0
4.7025e+05,2.6069e+08,2,5707,5642,15.64,2.18,30,49,0,0
4.7065e+05,2.6079e+08,2,5645,5728,15.67,2.57,30,49,0,0
4.7114e+05,2.6091e+08,2,5725,5700,15.7,2.47,31,49,0,0
4.7154e+05,2.6101e+08,2,5691,5585,15.64,2.37,30,50,0,0
4.7199e+05,2.6112e+08,2,5592,5714,15.56,2.97,31,50,0,0
4.7287e+05,2.6133e+08,2,5715,5857,15.49,3.28,30,50,0,0
4.7333e+05,2.6144e+08,2,5862,6114,15.54,3.42,30,50,0,0
4.7377e+05,2.6155e+08,2,6103,5971,15.51,3.36,30,50,0,0
4.7423e+05,2.6166e+08,2,5976,6114,15.52,3.63,30,50,0,0
4.7467e+05,2.6177e+08,2,6113,6042,15.51,3.33,30,50,0,0
4.7516e+05,2.6189e+08,2,6059,6242,15.55,3.58,31,50,0,0
4.756e+05,2.62e+08,2,6248,6314,15.6,3.26,30,50,0,0
4.7605e+05,2.621e+08,2,6297,6071,15.64,2.77,30,50,0,0
4.7649e+05,2.6221e+08,2,6034,5657,15.7,2.31,30,51,0,0
4.7694e+05,2.6232e+08,2,5653,5614,15.7,2.21,30,51,0,0
4.7738e+05,2.6242e+08,2,5608,5528,15.6,2.82,30,51,0,0
4.7779e+05,2.6253e+08,2,5530,5671,15.6,2.65,30,51,0,0
4.7824e+05,2.6264e+08,2,5669,5614,15.61,2.42,30,51,0,0
4.7872e+05,2.6276e+08,2,5640,5900,15.57,3.21,31,51,0,0
4.7962e+05,2.6298e+08,2,5910,6142,15.42,3.2,31,51,0,0
4.8054e+05,2.632e+08,2,6144,6214,15.28,4.13,30,51,0,0
4.8095e+05,2.633e+08,2,6216,6342,15.14,4.51,31,51,0,0
4.814e+05,2.6341e+08,2,6360,6542,15.14,4.79,31,52,0,0
4.818e+05,2.6352e+08,2,6540,6457,15.24,3.76,31,52,0,0
4.8225e+05,2.6362e+08,2,6451,6157,15.29,3.84,31,52,0,0
4.8274e+05,2.6374e+08,2,6177,6385,15.3,4.59,31,52,0,0
4.8314e+05,2.6384e+08,2,6393,6585,15.25,5.22,31,52,0,0
4.8355e+05,2.6395e+08,2,6587,6757,15.32,5.37,31,52,0,0
4.8403e+05,2.6406e+08,2,6754,6657,15.38,4.51,31,52,0,0
4.8448e+05,2.6417e+08,2,6646,6457,15.35,4.21,31,53,0,0
4.8493e+05,2.6428e+08,2,6437,6271,15.39,4.14,31,53,0,0
4.8538e+05,2.6439e+08,2,6265,6214,15.35,3.99,31,53,0,0
4.8582e+05,2.645e+08,2,6200,6085,15.42,3.75,31,53,0,0
4.8627e+05,2.6461e+08,2,6062,5842,15.5,3.29,31,53,0,0
4.8667e+05,2.6471e+08,2,5846,6042,15.51,3.54,31,53,0,0
4.876e+05,2.6494e+08,2,6024,5700,15.48,3.26,31,53,0,0
4.8805e+05,2.6505e+08,2,5709,5814,15.53,3.14,31,54,0,0
4.8895e+05,2.6527e+08,2,5797,5485,15.48,2.86,31,54,0,0
4.8934e+05,2.6537e+08,2,5484,5471,15.6,2.78,31,54,0,0
4.898e+05,2.6548e+08,2,5470,5442,15.51,2.66,31,54,0,0
4.9024e+05,2.656e+08,2,5441,5428,15.59,2.61,31,54,0,0
4.9069e+05,2.657e+08,2,5426,5385,15.57,2.9,31,54,0,0
4.9162e+05,2.6592e+08,2,5374,5185,15.58,2.27,31,54,0,0
4.9206e+05,2.6603e+08,2,5193,5328,15.57,2.36,31,54,0,0
4.9247e+05,2.6613e+08,2,5327,5285,15.52,2.6,31,54,0,0
4.9292e+05,2.6624e+08,2,5288,5428,15.55,2.55,31,54,0,0
4.9336e+05,2.6635e+08,2,5426,5400,15.58,2.61,31,54,0,0
4.9381e+05,2.6646e+08,2,5398,5357,15.57,2.43,31,55,0,0
4.9422e+05,2.6656e+08,2,5357,5385,15.6,2.75,31,55,0,0
4.9466e+05,2.6667e+08,2,5385,5414,15.48,2.69,31,55,0,0
4.9515e+05,2.6679e+08,2,5417,5457,15.45,2.76,31,55,0,0
4.9556e+05,2.6689e+08,2,5462,5557,15.48,2.61,31,55,0,0
4.96e+05,2.67e+08,2,5550,5471,15.55,2.73,31,55,0,0
4.969e+05,2.6722e+08,2,5472,5528,15.43,2.76,31,55,0,0
4.9735e+05,2.6733e+08,2,5532,5585,15.51,2.65,31,55,0,0
4.978e+05,2.6744e+08,2,5582,5557,15.54,2.87,31,55,0,0
4.9821e+05,2.6755e+08,2,5559,5585,15.54,2.9,31,55,0,0
4.9865e+05,2.6766e+08,2,5586,5614,15.52,2.84,31,55,0,0
4.991e+05,2.6777e+08,2,5626,5757,15.55,2.96,31,56,0,0
4.9955e+05,2.6788e+08,2,5757,5771,15.48,2.91,31,56,0,0
4.9996e+05,2.6798e+08,2,5764,5685,15.54,2.86,31,56,0,0
5.0037e+05,2.6808e+08,2,5684,5642,15.51,2.54,31,56,0,0
5.0081e+05,2.682e+08,2,5640,5571,15.54,2.59,31,56,0,0
5.0126e+05,2.6831e+08,2,5561,5428,15.55,2.59,31,56,0,0
5.0171e+05,2.6842e+08,2,5421,5328,15.54,2.25,30,56,0,0
5.0215e+05,2.6853e+08,2,5332,5400,15.47,2.59,31,56,0,0
5.026e+05,2.6864e+08,2,5400,5414,15.47,2.53,31,56,0,0
5.0304e+05,2.6875e+08,2,5417,5471,15.58,2.42,30,56,0,0
5.035e+05,2.6886e+08,2,5468,5442,15.48,2.76,31,56,0,0
5.0386e+05,2.6896e+08,2,5446,5614,15.49,3.01,31,56,0,0
5.0435e+05,2.6907e+08,2,5611,5557,15.47,2.45,31,57,0,0
5.0479e+05,2.6918e+08,2,5553,5500,15.49,2.67,31,57,0,0
5.0524e+05,2.6929e+08,2,5515,5642,15.53,2.8,30,57,0,0
5.0568e+05,2.694e+08,2,5637,5571,15.55,2.67,31,57,0,0
5.0613e+05,2.6951e+08,2,5580,5657,15.52,2.52,31,57,0,0
5.0653e+05,2.6961e+08,2,5658,5714,15.52,2.81,31,57,0,0
5.0702e+05,2.6973e+08,2,5701,5542,15.57,2.58,31,57,0,0
5.0787e+05,2.6994e+08,2,5542,5542,15.53,2.49,31,57,0,0
5.0836e+05,2.7005e+08,2,5547,5600,15.54,2.48,31,57,0,0
5.0876e+05,2.7016e+08,2,5597,5442,15.49,2.63,31,57,0,0
5.0925e+05,2.7027e+08,2,5453,5571,15.56,2.52,31,57,0,0
5.0965e+05,2.7038e+08,2,5565,5457,15.52,2.35,30,58,0,0
5.1015e+05,2.705e+08,2,5457,5457,15.52,2.26,31,58,0,0
5.1055e+05,2.706e+08,2,5445,5285,15.54,2.31,31,58,0,0
5.11e+05,2.707e+08,2,5294,5400,15.47,2.29,31,58,0,0
5.1144e+05,2.7081e+08,2,5405,5471,15.51,2.39,31,58,0,0
5.1189e+05,2.7092e+08,2,5471,5485,15.54,2.4,30,58,0,0
5.1234e+05,2.7103e+08,2,5501,5657,15.49,2.83,30,58,0,0
5.1274e+05,2.7113e+08,2,5658,5685,15.47,2.91,30,58,0,0
5.1323e+05,2.7125e+08,2,5693,5785,15.5,2.71,30,58,0,0
5.1364e+05,2.7135e+08,2,5781,5714,15.54,2.59,30,58,0,0
5.1413e+05,2.7146e+08,2,5719,5800,15.55,2.6,30,58,0,0
5.1453e+05,2.7157e+08,2,5803,5885,15.45,2.74,31,58,0,0
5.1498e+05,2.7168e+08,2,5894,5985,15.45,3.32,31,58,0,0
5.1538e+05,2.7178e+08,2,5979,5871,15.47,3.35,31,59,0,0
5.1588e+05,2.7191e+08,2,5887,6071,15.42,3.18,31,59,0,0
5.1632e+05,2.7201e+08,2,6052,5885,15.48,3.04,31,59,0,0
5.1672e+05,2.7211e+08,2,5880,5685,15.46,2.8,31,59,0,0
5.1717e+05,2.7222e+08,2,5683,5657,15.48,2.67,30,59,0,0
5.1761e+05,2.7233e+08,2,5669,5842,15.38,3.29,30,59,0,0
5.1802e+05,2.7244e+08,2,5840,5814,15.5,3.08,31,59,0,0
5.1847e+05,2.7255e+08,2,5812,5785,15.47,3.09,31,59,0,0
5.1891e+05,2.7265e+08,2,5781,5700,15.48,2.92,30,59,0,0
5.1936e+05,2.7277e+08,2,5712,5885,15.48,3.23,31,59,0,0
5.1981e+05,2.7287e+08,2,5887,5928,15.47,3.09,31,60,0,0
5.2026e+05,2.7299e+08,2,5903,5628,15.52,2.63,31,60,0,0
5.2071e+05,2.731e+08,2,5621,5528,15.53,2.59,30,60,0,0
5.2115e+05,2.7321e+08,2,5536,5642,15.56,2.53,30,60,0,0
5.2159e+05,2.7331e+08,2,5634,5485,15.56,2.58,30,60,0,0
5.2204e+05,2.7342e+08,2,5485,5500,15.5,2.38,30,60,0,0
5.2244e+05,2.7352e+08,2,5497,5342,15.54,2.26,30,60,0,0
5.2293e+05,2.7364e+08,2,5344,5385,15.49,2.5,30,60,0,0
5.2334e+05,2.7375e+08,2,5386,5400,15.51,2.48,30,60,0,0
5.2379e+05,2.7385e+08,2,5403,5457,15.49,2.49,30,60,0,0
5.2423e+05,2.7397e+08,2,5455,5428,15.55,2.43,30,60,0,0
5.2469e+05,2.7408e+08,2,5438,5542,15.45,2.54,30,60,0,0
5.2512e+05,2.7418e+08,2,5541,5528,15.58,2.45,31,60,0,0
5.2557e+05,2.7429e+08,2,5525,5357,15.54,2.54,31,60,0,0
5.2602e+05,2.744e+08,2,5360,5400,15.5,2.63,30,61,0,0
5.2646e+05,2.7451e+08,2,5403,5442,15.5,2.58,30,61,0,0
5.2687e+05,2.7461e+08,2,5444,5600,15.47,2.78,30,61,0,0
5.2731e+05,2.7472e+08,2,5599,5571,15.47,2.57,30,61,0,0
5.2776e+05,2.7483e+08,2,5572,5600,15.52,2.52,30,61,0,0
5.2817e+05,2.7493e+08,2,5597,5485,15.51,2.48,30,61,0,0
5.2866e+05,2.7505e+08,2,5489,5557,15.48,2.5,31,61,0,0
5.291e+05,2.7515e+08,2,5556,5542,15.48,2.57,30,61,0,0
5.2955e+05,2.7526e+08,2,5540,5500,15.52,2.34,30,61,0,0
5.3e+05,2.7537e+08,2,5498,5485,15.48,2.61,30,61,0,0
5.3044e+05,2.7549e+08,2,5493,5571,15.44,2.85,30,61,0,0
5.309e+05,2.7559e+08,2,5571,5571,15.44,2.91,30,61,0,0
5.3134e+05,2.7571e+08,2,5581,5685,15.51,2.96,30,62,0,0
5.3175e+05,2.7581e+08,2,5679,5557,15.44,3,30,62,0,0
5.322e+05,2.7592e+08,2,5560,5614,15.42,2.91,30,62,0,0
5.3264e+05,2.7603e+08,2,5613,5600,15.48,2.8,30,62,0,0
5.3313e+05,2.7614e+08,2,5600,5600,15.49,2.85,30,62,0,0
5.3358e+05,2.7625e+08,2,5603,5657,15.43,3.25,30,62,0,0
5.3402e+05,2.7637e+08,2,5648,5557,15.43,2.54,30,62,0,0
5.3443e+05,2.7646e+08,2,5554,5400,15.48,2.66,30,62,0,0
5.3491e+05,2.7658e+08,2,5402,5471,15.45,2.65,30,62,0,0
5.354e+05,2.767e+08,2,5466,5428,15.45,2.57,30,62,0,0
5.3581e+05,2.768e+08,2,5442,5585,15.53,2.61,30,62,0,0
5.3626e+05,2.7691e+08,2,5586,5614,15.54,2.71,30,62,0,0
5.3674e+05,2.7703e+08,2,5617,5657,15.47,2.58,30,63,0,0
5.3714e+05,2.7713e+08,2,5644,5500,15.44,2.9,30,63,0,0
5.3763e+05,2.7724e+08,2,5504,5600,15.52,2.59,30,63,0,0
5.3804e+05,2.7735e+08,2,5599,5571,15.51,2.52,30,63,0,0
5.3857e+05,2.7747e+08,2,5568,5542,15.51,2.78,30,63,0,0
5.3896e+05,2.7757e+08,2,5546,5642,15.45,2.94,30,63,0,0
5.3941e+05,2.7768e+08,2,5642,5671,15.43,3,30,63,0,0
5.3986e+05,2.7779e+08,2,5677,5757,15.36,3.05,30,63,0,0
5.4071e+05,2.78e+08,2,5756,5642,15.38,3,30,63,0,0
5.412e+05,2.7812e+08,2,5666,5914,15.4,3.58,30,63,0,0
5.416e+05,2.7821e+08,2,5913,5885,15.49,3.46,30,63,0,0
5.4204e+05,2.7832e+08,2,5885,5900,15.42,3.52,30,64,0,0
5.4249e+05,2.7844e+08,2,5898,5871,15.43,3.23,30,64,0,0
5.4294e+05,2.7855e+08,2,5872,5900,15.45,3.33,30,64,0,0
5.4424e+05,2.7887e+08,2,5897,5557,15.56,2.77,30,64,0,0
5.4472e+05,2.7898e+08,2,5558,5585,15.5,2.45,30,64,0,0
5.4517e+05,2.7909e+08,2,5582,5557,15.52,2.72,30,64,0,0
5.4562e+05,2.792e+08,2,5564,5642,15.45,3.05,30,64,0,0
5.4603e+05,2.7931e+08,2,5643,5657,15.46,2.98,30,64,0,0
5.4648e+05,2.7941e+08,2,5661,5771,15.51,3.12,30,64,0,0
5.4692e+05,2.7952e+08,2,5769,5728,15.5,2.91,30,65,0,0
5.4741e+05,2.7964e+08,2,5724,5685,15.53,2.86,30,65,0,0
5.4781e+05,2.7974e+08,2,5685,5700,15.5,2.67,31,65,0,0
5.4826e+05,2.7985e+08,2,5689,5585,15.45,2.71,30,65,0,0
5.487e+05,2.7996e+08,2,5581,5528,15.55,2.66,30,65,0,0
5.4916e+05,2.8007e+08,2,5532,5585,15.52,2.78,30,65,0,0
5.4956e+05,2.8018e+08,2,5584,5571,15.47,2.83,30,65,0,0
5.5005e+05,2.8029e+08,2,5573,5600,15.45,2.89,30,65,0,0
5.5049e+05,2.804e+08,2,5616,5842,15.47,3.14,30,65,0,0
5.5094e+05,2.8051e+08,2,5850,5985,15.51,3.22,30,65,0,0
5.5138e+05,2.8062e+08,2,5984,5971,15.44,3.21,30,66,0,0
5.5183e+05,2.8073e+08,2,5971,5971,15.54,3.19,30,66,0,0
5.5224e+05,2.8083e+08,2,5970,5900,15.51,3.25,30,66,0,0
5.5272e+05,2.8095e+08,2,5904,5957,15.44,3.37,30,66,0,0
5.5317e+05,2.8106e+08,2,5968,6071,15.5,3.31,30,66,0,0
5.5402e+05,2.8127e+08,2,6070,6057,15.47,3.29,30,66,0,0
5.5447e+05,2.8138e+08,2,6056,6042,15.45,3.34,30,66,0,0
5.5491e+05,2.8149e+08,2,6039,5985,15.53,3.29,30,66,0,0
