LineNo,TimeUS,Instance,RPM,RawRPM,Volt,Curr,Temp,CTot,MotTemp,Err
1838,2.0018e+07,0,0,0,16.65,0.04,33,0,0,0
2260,2.0124e+07,0,0,0,16.65,0.04,33,0,0,0
2713,2.0236e+07,0,0,0,16.66,0.04,33,0,0,0
3132,2.0342e+07,0,0,0,16.66,0.04,33,0,0,0
3577,2.0448e+07,0,0,0,16.65,0.04,33,0,0,0
3988,2.0551e+07,0,0,0,16.65,0.04,33,0,0,0
4399,2.0656e+07,0,0,0,16.66,0.04,33,0,0,0
4853,2.0772e+07,0,0,0,16.65,0.04,33,0,0,0
5268,2.0877e+07,0,0,0,16.66,0.04,33,0,0,0
5682,2.098e+07,0,0,0,16.66,0.04,33,0,0,0
6094,2.1084e+07,0,0,0,16.65,0.04,33,0,0,0
6502,2.1184e+07,0,0,0,16.65,0.04,33,0,0,0
6951,2.1295e+07,0,0,0,16.66,0.04,33,0,0,0
7400,2.1406e+07,0,0,0,16.65,0.04,33,0,0,0
7779,2.1504e+07,0,0,0,16.65,0.04,33,0,0,0
8188,2.1608e+07,0,0,0,16.64,0.04,33,0,0,0
8673,2.1727e+07,0,0,0,16.65,0.03,33,0,0,0
9078,2.1828e+07,0,0,0,16.65,0.03,33,0,0,0
9425,2.1939e+07,0,0,0,16.65,0.03,33,0,0,0
9836,2.2039e+07,0,0,0,16.66,0.03,33,0,0,0
10251,2.2143e+07,0,0,0,16.66,0.03,33,0,0,0
10702,2.2256e+07,0,0,0,16.65,0.03,33,0,0,0
11119,2.2358e+07,0,0,0,16.66,0.04,33,0,0,0
11530,2.2461e+07,0,0,0,16.66,0.03,33,0,0,0
11942,2.2564e+07,0,0,0,16.65,0.04,33,0,0,0
12395,2.2679e+07,0,0,0,16.65,0.04,33,0,0,0
12841,2.2789e+07,0,0,0,16.65,0.04,33,0,0,0
13255,2.2893e+07,0,0,0,16.66,0.04,33,0,0,0
13669,2.2998e+07,0,0,0,16.66,0.03,33,0,0,0
14124,2.3109e+07,0,0,0,16.66,0.04,33,0,0,0
14538,2.3213e+07,0,0,0,16.65,0.03,33,0,0,0
14954,2.3315e+07,0,0,0,16.65,0.04,33,0,0,0
15369,2.3418e+07,0,0,0,16.65,0.04,33,0,0,0
15824,2.3533e+07,0,0,0,16.65,0.04,33,0,0,0
16271,2.3641e+07,0,0,0,16.66,0.04,33,0,0,0
16659,2.3742e+07,0,0,0,16.64,0.04,33,0,0,0
17113,2.3854e+07,0,0,0,16.66,0.04,33,0,0,0
17564,2.3961e+07,0,0,0,16.65,0.04,33,0,0,0
17983,2.4067e+07,0,0,0,16.66,0.04,33,0,0,0
18399,2.417e+07,0,0,0,16.65,0.04,33,0,0,0
18849,2.4282e+07,0,0,0,16.64,0.04,33,0,0,0
19261,2.4386e+07,0,0,0,16.65,0.04,33,0,0,0
19677,2.449e+07,0,0,0,16.65,0.04,33,0,0,0
20124,2.4601e+07,0,0,0,16.65,0.04,33,0,0,0
20536,2.4704e+07,0,0,0,16.66,0.04,33,0,0,0
20950,2.481e+07,0,0,0,16.66,0.04,33,0,0,0
21401,2.4925e+07,0,0,0,16.65,0.03,33,0,0,0
21814,2.5027e+07,0,0,0,16.65,0.03,33,0,0,0
22227,2.5132e+07,0,0,0,16.65,0.04,33,0,0,0
22641,2.5235e+07,0,0,0,16.65,0.03,33,0,0,0
23097,2.535e+07,0,0,0,16.65,0.03,33,0,0,0
23509,2.5453e+07,0,0,0,16.66,0.04,33,0,0,0
23928,2.5558e+07,0,0,0,16.65,0.03,33,0,0,0
24339,2.5662e+07,0,0,0,16.66,0.04,33,0,0,0
24753,2.5767e+07,0,0,0,16.65,0.04,33,0,0,0
25171,2.5874e+07,0,0,0,16.66,0.04,33,0,0,0
25626,2.5986e+07,0,0,0,16.65,0.04,33,0,0,0
26039,2.609e+07,0,0,0,16.65,0.03,33,0,0,0
26448,2.619e+07,0,0,0,16.64,0.04,33,0,0,0
26906,2.6303e+07,0,0,0,16.65,0.03,33,0,0,0
27318,2.6404e+07,0,0,0,16.65,0.04,33,0,0,0
27737,2.6509e+07,0,0,0,16.65,0.04,33,0,0,0
28218,2.6625e+07,0,0,0,16.65,0.04,33,0,0,0
28635,2.6729e+07,0,0,0,16.66,0.04,33,0,0,0
29051,2.6833e+07,0,0,0,16.65,0.03,33,0,0,0
29463,2.6936e+07,0,0,0,16.66,0.03,33,0,0,0
29873,2.7039e+07,0,0,0,16.66,0.04,33,0,0,0
30321,2.7151e+07,0,0,0,16.66,0.03,33,0,0,0
30732,2.7256e+07,0,0,0,16.65,0.04,33,0,0,0
31149,2.7359e+07,0,0,0,16.66,0.04,33,0,0,0
31606,2.7474e+07,0,0,0,16.66,0.04,33,0,0,0
32015,2.7576e+07,0,0,0,16.66,0.03,33,0,0,0
32466,2.7687e+07,0,0,0,16.65,0.03,33,0,0,0
32881,2.7791e+07,0,0,0,16.65,0.03,33,0,0,0
33294,2.7896e+07,0,0,0,16.65,0.03,33,0,0,0
33745,2.8009e+07,0,0,0,16.65,0.03,33,0,0,0
34156,2.8114e+07,0,0,0,16.65,0.03,33,0,0,0
34567,2.8218e+07,0,0,0,16.64,0.03,33,0,0,0
34986,2.8321e+07,0,0,0,16.65,0.03,33,0,0,0
35428,2.8428e+07,0,0,0,16.65,0.03,33,0,0,0
35878,2.8539e+07,0,0,0,16.65,0.03,33,0,0,0
36291,2.8642e+07,0,0,0,16.65,0.04,33,0,0,0
36711,2.8753e+07,0,0,0,16.64,0.04,33,0,0,0
37120,2.8856e+07,0,0,0,16.65,0.04,33,0,0,0
37576,2.8969e+07,0,0,0,16.65,0.03,33,0,0,0
37983,2.907e+07,0,0,0,16.65,0.04,33,0,0,0
38434,2.918e+07,0,0,0,16.65,0.04,33,0,0,0
38849,2.9288e+07,0,0,0,16.65,0.03,33,0,0,0
39255,2.9389e+07,0,0,0,16.65,0.04,33,0,0,0
39708,2.95e+07,0,0,0,16.65,0.04,33,0,0,0
40117,2.9602e+07,0,0,0,16.65,0.03,33,0,0,0
40560,2.9708e+07,0,0,0,16.65,0.03,33,0,0,0
41015,2.9819e+07,0,0,0,16.65,0.04,33,0,0,0
41431,2.9924e+07,0,0,0,16.65,0.03,33,0,0,0
41845,3.0027e+07,0,0,0,16.65,0.04,33,0,0,0
42263,3.0131e+07,0,0,0,16.65,0.04,33,0,0,0
42679,3.0237e+07,0,0,0,16.66,0.04,33,0,0,0
43141,3.0351e+07,0,0,0,16.66,0.03,33,0,0,0
43553,3.0451e+07,0,0,0,16.65,0.04,33,0,0,0
44013,3.0565e+07,0,0,0,16.65,0.03,33,0,0,0
44428,3.0668e+07,0,0,0,16.66,0.04,33,0,0,0
44888,3.0781e+07,0,0,0,16.65,0.04,33,0,0,0
45302,3.0881e+07,0,0,0,16.65,0.04,33,0,0,0
46170,3.11e+07,0,0,0,16.66,0.04,33,0,0,0
46589,3.1209e+07,0,0,0,16.64,0.03,33,0,0,0
47004,3.131e+07,0,0,0,16.65,0.04,33,0,0,0
47414,3.141e+07,0,0,0,16.64,0.04,33,0,0,0
47824,3.1517e+07,0,0,0,16.66,0.04,33,0,0,0
48277,3.163e+07,0,0,0,16.66,0.04,33,0,0,0
48684,3.1731e+07,0,0,0,16.65,0.04,33,0,0,0
49544,3.194e+07,0,0,0,16.66,0.04,33,0,0,0
49996,3.2054e+07,0,0,0,16.65,0.03,33,0,0,0
50408,3.2154e+07,0,0,0,16.66,0.04,33,0,0,0
50824,3.2257e+07,0,0,0,16.66,0.04,33,0,0,0
51239,3.2364e+07,0,0,0,16.66,0.04,33,0,0,0
51681,3.247e+07,0,0,0,16.65,0.04,33,0,0,0
52136,3.2585e+07,0,0,0,16.65,0.04,33,0,0,0
52551,3.2692e+07,0,0,0,16.66,0.04,33,0,0,0
52964,3.2796e+07,0,0,0,16.65,0.04,33,0,0,0
53372,3.2898e+07,0,0,0,16.65,0.04,33,0,0,0
53824,3.3013e+07,0,0,0,16.64,0.04,33,0,0,0
54237,3.3117e+07,0,0,0,16.65,0.04,33,0,0,0
54650,3.3221e+07,0,0,0,16.64,0.04,33,0,0,0
55099,3.3332e+07,0,0,0,16.65,0.04,33,0,0,0
55509,3.3437e+07,0,0,0,16.65,0.04,33,0,0,0
55923,3.3539e+07,0,0,0,16.65,0.03,33,0,0,0
56291,5.082e+07,0,0,0,16.65,0.04,33,0,0,0
56585,5.0897e+07,0,0,0,16.65,0.04,33,0,0,0
56999,5.0998e+07,0,0,0,16.65,0.04,33,0,0,0
57372,5.1094e+07,0,0,0,16.65,0.04,33,0,0,0
57827,5.1204e+07,0,0,0,16.65,0.04,33,0,0,0
58239,5.131e+07,0,0,0,16.65,0.04,33,0,0,0
58691,5.1422e+07,0,0,0,16.65,0.04,33,0,0,0
59100,5.1525e+07,0,0,0,16.65,0.04,33,0,0,0
59522,5.1629e+07,0,0,0,16.65,0.04,33,0,0,0
59975,5.1744e+07,0,0,0,16.65,0.04,33,0,0,0
60389,5.1845e+07,0,0,0,16.65,0.04,33,0,0,0
60838,5.1957e+07,0,0,0,16.65,0.03,33,0,0,0
61255,5.206e+07,0,0,0,16.65,0.03,33,0,0,0
61664,5.2164e+07,0,0,0,16.64,0.04,33,0,0,0
62117,5.2281e+07,0,0,0,16.65,0.04,33,0,0,0
62532,5.2381e+07,0,0,0,16.65,0.03,33,0,0,0
62943,5.2484e+07,0,0,0,16.65,0.04,33,0,0,0
63396,5.2599e+07,0,0,0,16.65,0.04,33,0,0,0
63771,5.2695e+07,0,0,0,16.65,0.03,33,0,0,0
64227,5.281e+07,0,0,0,16.65,0.04,33,0,0,0
64610,5.2912e+07,0,0,0,16.66,0.04,33,0,0,0
65059,5.3018e+07,0,0,0,16.64,0.03,33,0,0,0
65475,5.3127e+07,0,0,0,16.65,0.04,33,0,0,0
65928,5.3238e+07,0,0,0,16.65,0.04,33,0,0,0
66370,5.3344e+07,0,0,0,16.64,0.03,33,0,0,0
66695,5.3444e+07,0,0,0,16.65,0.04,33,0,0,0
67148,5.3558e+07,0,0,0,16.65,0.04,33,0,0,0
67563,5.366e+07,0,0,0,16.65,0.04,33,0,0,0
67973,5.3764e+07,0,0,0,16.65,0.03,33,0,0,0
68434,5.3875e+07,0,0,0,16.65,0.03,33,0,0,0
68846,5.398e+07,0,0,0,16.66,0.04,33,0,0,0
69301,5.4095e+07,0,0,0,16.65,0.03,33,0,0,0
69714,5.4199e+07,0,0,0,16.66,0.04,33,0,0,0
70092,5.4299e+07,0,0,0,16.65,0.04,33,0,0,0
70544,5.441e+07,0,0,0,16.64,0.03,33,0,0,0
70952,5.4511e+07,0,0,0,16.65,0.04,33,0,0,0
71381,5.4621e+07,0,0,0,16.66,0.03,33,0,0,0
71793,5.4727e+07,0,0,0,16.64,0.03,33,0,0,0
72246,5.4839e+07,0,0,0,16.64,0.04,33,0,0,0
72624,5.4938e+07,0,0,0,16.65,0.04,33,0,0,0
73079,5.505e+07,0,0,0,16.65,0.03,33,0,0,0
73501,5.5159e+07,0,0,0,16.65,0.04,33,0,0,0
73916,5.5263e+07,0,0,0,16.65,0.04,33,0,0,0
74327,5.5365e+07,0,0,0,16.65,0.04,33,0,0,0
74779,5.5477e+07,0,0,0,16.64,0.03,33,0,0,0
75194,5.558e+07,0,0,0,16.65,0.04,33,0,0,0
75609,5.569e+07,0,0,0,16.65,0.04,33,0,0,0
76022,5.5791e+07,0,0,0,16.64,0.04,33,0,0,0
76475,5.5902e+07,0,0,0,16.65,0.04,33,0,0,0
76895,5.6007e+07,0,0,0,16.64,0.04,33,0,0,0
77313,5.6116e+07,0,0,0,16.64,0.04,33,0,0,0
77766,5.623e+07,0,0,0,16.65,0.04,33,0,0,0
78175,5.6331e+07,0,0,0,16.65,0.04,33,0,0,0
78560,5.6432e+07,0,0,0,16.65,0.04,33,0,0,0
79013,5.6548e+07,0,0,0,16.64,0.03,33,0,0,0
79428,5.665e+07,0,0,0,16.65,0.04,33,0,0,0
79843,5.6757e+07,0,0,0,16.64,0.04,33,0,0,0
80300,5.6873e+07,0,0,0,16.65,0.04,33,0,0,0
80712,5.6975e+07,0,0,0,16.64,0.04,33,0,0,0
81166,5.709e+07,0,0,0,16.64,0.03,33,0,0,0
81991,5.7299e+07,0,0,0,16.65,0.03,33,0,0,0
82405,5.7401e+07,0,0,0,16.64,0.04,33,0,0,0
82817,5.7507e+07,0,0,0,16.65,0.04,33,0,0,0
83273,5.7619e+07,0,0,0,16.65,0.04,33,0,0,0
83685,5.7723e+07,0,0,0,16.65,0.04,33,0,0,0
84138,5.7834e+07,0,0,0,16.65,0.04,33,0,0,0
84551,5.7938e+07,0,0,0,16.65,0.03,33,0,0,0
84940,5.804e+07,0,0,0,16.64,0.03,33,0,0,0
85393,5.8154e+07,0,0,0,16.65,0.03,33,0,0,0
85807,5.8253e+07,0,0,0,16.66,0.03,33,0,0,0
86226,5.8362e+07,0,0,0,16.66,0.03,33,0,0,0
86682,5.8473e+07,0,0,0,16.66,0.03,33,0,0,0
87091,5.8576e+07,0,0,0,16.65,0.03,33,0,0,0
87553,5.8697e+07,0,0,0,16.65,0.03,33,0,0,0
87966,5.8799e+07,0,0,0,16.65,0.04,33,0,0,0
88341,5.8896e+07,0,0,0,16.65,0.04,33,0,0,0
88797,5.9011e+07,0,0,0,16.65,0.04,33,0,0,0
89244,5.9123e+07,0,0,0,16.64,0.04,33,0,0,0
89661,5.9227e+07,0,0,0,16.65,0.04,33,0,0,0
90110,5.934e+07,0,0,0,16.65,0.04,33,0,0,0
90525,5.9442e+07,0,0,0,16.65,0.04,33,0,0,0
90979,5.9557e+07,0,0,0,16.65,0.04,33,0,0,0
91391,5.9659e+07,0,0,0,16.65,0.04,33,0,0,0
91843,5.9773e+07,0,0,0,16.65,0.04,33,0,0,0
92256,5.9874e+07,0,0,0,16.65,0.04,33,0,0,0
92676,5.9983e+07,0,0,0,16.65,0.03,33,0,0,0
93096,6.0088e+07,0,0,0,16.64,0.04,33,0,0,0
93509,6.019e+07,0,0,0,16.65,0.03,33,0,0,0
93961,6.0306e+07,0,0,0,16.65,0.04,33,0,0,0
94380,6.0411e+07,0,0,0,16.65,0.04,33,0,0,0
94791,6.0514e+07,0,0,0,16.65,0.04,33,0,0,0
95251,6.0626e+07,0,0,0,16.65,0.04,33,0,0,0
95663,6.0731e+07,0,0,0,16.65,0.04,33,0,0,0
96116,6.0842e+07,0,0,0,16.65,0.04,33,0,0,0
96526,6.0943e+07,0,0,0,16.65,0.04,33,0,0,0
96987,6.1055e+07,0,0,0,16.65,0.04,33,0,0,0
97400,6.1163e+07,0,0,0,16.65,0.03,33,0,0,0
97814,6.1264e+07,0,0,0,16.64,0.04,33,0,0,0
98227,6.1368e+07,0,0,0,16.65,0.04,33,0,0,0
98683,6.1478e+07,0,0,0,16.65,0.04,33,0,0,0
99050,6.158e+07,0,0,0,16.65,0.04,33,0,0,0
99502,6.1697e+07,0,0,0,16.66,0.04,33,0,0,0
99919,6.1802e+07,0,0,0,16.65,0.03,33,0,0,0
1.0033e+05,6.1906e+07,0,0,0,16.65,0.03,33,0,0,0
1.0074e+05,6.201e+07,0,0,0,16.65,0.03,33,0,0,0
1.0116e+05,6.2117e+07,0,0,0,16.66,0.03,33,0,0,0
1.0161e+05,6.2228e+07,0,0,0,16.65,0.04,33,0,0,0
1.0203e+05,6.2335e+07,0,0,0,16.64,0.03,33,0,0,0
1.0244e+05,6.2437e+07,0,0,0,16.65,0.03,33,0,0,0
1.0286e+05,6.2544e+07,0,0,0,16.65,0.03,33,0,0,0
1.0332e+05,6.2656e+07,0,0,0,16.65,0.03,33,0,0,0
1.0376e+05,6.2762e+07,0,0,0,16.65,0.03,33,0,0,0
1.0417e+05,6.2866e+07,0,0,0,16.65,0.04,33,0,0,0
1.0463e+05,6.2979e+07,0,0,0,16.65,0.03,33,0,0,0
1.0504e+05,6.308e+07,0,0,0,16.65,0.03,33,0,0,0
1.0549e+05,6.3193e+07,0,0,0,16.65,0.03,33,0,0,0
1.059e+05,6.3297e+07,0,0,0,16.65,0.03,33,0,0,0
1.0632e+05,6.3403e+07,0,0,0,16.65,0.03,33,0,0,0
1.0677e+05,6.3517e+07,0,0,0,16.65,0.03,33,0,0,0
1.0719e+05,6.362e+07,0,0,0,16.66,0.03,33,0,0,0
1.076e+05,6.3723e+07,0,0,0,16.65,0.03,33,0,0,0
1.0805e+05,6.3834e+07,0,0,0,16.65,0.03,33,0,0,0
1.0846e+05,6.3935e+07,0,0,0,16.65,0.03,33,0,0,0
1.0892e+05,6.4049e+07,0,0,0,16.65,0.03,33,0,0,0
1.093e+05,6.415e+07,0,0,0,16.65,0.04,33,0,0,0
1.0975e+05,6.4262e+07,0,0,0,16.65,0.04,33,0,0,0
1.1016e+05,6.4366e+07,0,0,0,16.65,0.04,33,0,0,0
1.1058e+05,6.4468e+07,0,0,0,16.65,0.03,33,0,0,0
1.1104e+05,6.4583e+07,0,0,0,16.64,0.04,33,0,0,0
1.1145e+05,6.4689e+07,0,0,0,16.64,0.03,33,0,0,0
1.1186e+05,6.479e+07,0,0,0,16.65,0.04,33,0,0,0
1.1232e+05,6.4904e+07,0,0,0,16.65,0.04,33,0,0,0
1.1274e+05,6.5009e+07,0,0,0,16.64,0.03,33,0,0,0
1.1315e+05,6.5112e+07,0,0,0,16.65,0.04,33,0,0,0
1.136e+05,6.5224e+07,0,0,0,16.65,0.04,33,0,0,0
1.1401e+05,6.5328e+07,0,0,0,16.65,0.04,33,0,0,0
1.1443e+05,6.543e+07,0,0,0,16.65,0.03,33,0,0,0
1.1485e+05,6.5541e+07,0,0,0,16.65,0.04,33,0,0,0
1.153e+05,6.5653e+07,0,0,0,16.65,0.03,33,0,0,0
1.1567e+05,6.5749e+07,0,0,0,16.65,0.03,33,0,0,0
1.1597e+05,1.0486e+08,0,0,0,16.64,0.03,33,0,0,0
1.1625e+05,1.0493e+08,0,0,0,16.64,0.03,33,0,0,0
1.1666e+05,1.0503e+08,0,0,0,16.64,0.03,33,0,0,0
1.1712e+05,1.0514e+08,0,0,0,16.65,0.03,33,0,0,0
1.1762e+05,1.0525e+08,0,0,0,16.64,0.03,33,0,0,0
1.1852e+05,1.0545e+08,0,0,0,16.65,0.03,33,0,0,0
1.1898e+05,1.0556e+08,0,0,0,16.64,0.03,33,0,0,0
1.1949e+05,1.0568e+08,0,0,0,16.64,0.03,33,0,0,0
1.1994e+05,1.0578e+08,0,0,0,16.64,0.03,33,0,0,0
1.2088e+05,1.0599e+08,0,0,0,16.65,0.03,33,0,0,0
1.2137e+05,1.0611e+08,0,0,0,16.64,0.03,33,0,0,0
1.2183e+05,1.0621e+08,0,0,0,16.65,0.03,33,0,0,0
1.2228e+05,1.0631e+08,0,0,0,16.64,0.03,33,0,0,0
1.2278e+05,1.0643e+08,0,0,0,16.64,0.03,33,0,0,0
1.2319e+05,1.0653e+08,0,0,0,16.65,0.03,33,0,0,0
1.2365e+05,1.0663e+08,0,0,0,16.65,0.03,33,0,0,0
1.2411e+05,1.0674e+08,0,0,0,16.64,0.04,33,0,0,0
1.2461e+05,1.0685e+08,0,0,0,16.64,0.03,33,0,0,0
1.2506e+05,1.0696e+08,0,0,0,16.64,0.03,33,0,0,0
1.2552e+05,1.0706e+08,0,6,471,16.63,0.08,33,0,0,0
1.2601e+05,1.0717e+08,0,488,900,16.61,0.14,33,0,0,0
1.265e+05,1.0729e+08,0,920,1228,16.62,0.14,33,0,0,0
1.2696e+05,1.0739e+08,0,1230,1285,16.62,0.11,33,0,0,0
1.2745e+05,1.075e+08,0,1288,1328,16.63,0.11,34,0,0,0
1.2773e+05,1.0761e+08,0,1328,1328,16.62,0.11,33,0,0,0
1.2818e+05,1.0771e+08,0,1328,1342,16.63,0.11,33,0,0,0
1.2868e+05,1.0782e+08,0,1340,1328,16.63,0.11,33,0,0,0
1.2913e+05,1.0793e+08,0,1328,1342,16.63,0.11,33,0,0,0
1.2964e+05,1.0804e+08,0,1342,1342,16.63,0.11,34,0,0,0
1.3009e+05,1.0815e+08,0,1342,1342,16.63,0.11,34,0,0,0
1.3055e+05,1.0825e+08,0,1342,1342,16.63,0.11,34,0,0,0
1.3101e+05,1.0836e+08,0,1342,1342,16.62,0.11,34,0,0,0
1.3146e+05,1.0846e+08,0,1342,1342,16.63,0.11,34,0,0,0
1.3191e+05,1.0857e+08,0,1342,1342,16.63,0.11,34,0,0,0
1.3238e+05,1.0868e+08,0,1342,1342,16.62,0.11,34,0,0,0
1.3276e+05,1.0879e+08,0,1342,1342,16.63,0.11,34,0,0,0
1.3322e+05,1.089e+08,0,1342,1342,16.63,0.11,34,0,0,0
1.3367e+05,1.09e+08,0,1342,1357,16.63,0.11,34,0,0,0
1.3504e+05,1.0932e+08,0,1356,1342,16.63,0.11,34,0,0,0
1.3554e+05,1.0943e+08,0,1342,1342,16.62,0.11,34,1,0,0
1.3599e+05,1.0954e+08,0,1342,1357,16.63,0.11,34,1,0,0
1.3649e+05,1.0965e+08,0,1355,1342,16.62,0.11,34,1,0,0
1.3691e+05,1.0975e+08,0,1342,1342,16.63,0.11,34,1,0,0
1.3736e+05,1.0986e+08,0,1342,1342,16.63,0.11,34,1,0,0
1.3786e+05,1.0997e+08,0,1342,1342,16.62,0.11,34,1,0,0
1.3832e+05,1.1007e+08,0,1342,1342,16.62,0.11,34,1,0,0
1.3877e+05,1.1018e+08,0,1342,1342,16.62,0.11,34,1,0,0
1.3927e+05,1.1029e+08,0,1342,1342,16.62,0.11,34,1,0,0
1.3972e+05,1.104e+08,0,1342,1342,16.63,0.11,34,1,0,0
1.4018e+05,1.105e+08,0,1342,1342,16.62,0.11,34,1,0,0
1.4068e+05,1.1061e+08,0,1343,1357,16.62,0.11,34,1,0,0
1.4113e+05,1.1072e+08,0,1356,1342,16.62,0.11,34,1,0,0
1.4163e+05,1.1083e+08,0,1342,1342,16.62,0.11,34,1,0,0
1.4207e+05,1.1093e+08,0,1342,1357,16.63,0.11,34,1,0,0
1.4302e+05,1.1115e+08,0,1357,1357,16.62,0.11,34,1,0,0
1.4347e+05,1.1125e+08,0,1356,1342,16.63,0.11,34,1,0,0
1.4397e+05,1.1136e+08,0,1343,1357,16.63,0.11,34,1,0,0
1.4442e+05,1.1146e+08,0,1356,1342,16.62,0.11,34,1,0,0
1.4491e+05,1.1157e+08,0,1342,1342,16.62,0.1,34,1,0,0
1.4586e+05,1.1179e+08,0,1342,1342,16.63,0.11,34,1,0,0
1.4631e+05,1.1189e+08,0,1342,1357,16.62,0.11,34,1,0,0
1.4677e+05,1.12e+08,0,1357,1357,16.62,0.11,34,1,0,0
1.4723e+05,1.1211e+08,0,1355,1342,16.62,0.11,34,1,0,0
1.4768e+05,1.1222e+08,0,1308,428,16.64,0,34,1,0,0
1.4814e+05,1.1232e+08,0,421,0,16.64,0.01,34,1,0,0
1.4864e+05,1.1244e+08,0,0,0,16.64,0.03,34,1,0,0
1.4913e+05,1.1255e+08,0,0,0,16.64,0.03,34,1,0,0
1.4958e+05,1.1265e+08,0,0,0,16.64,0.03,34,1,0,0
1.5004e+05,1.1276e+08,0,0,0,16.64,0.03,33,1,0,0
1.5054e+05,1.1287e+08,0,0,0,16.64,0.03,34,1,0,0
1.5098e+05,1.1297e+08,0,0,0,16.64,0.03,34,1,0,0
1.5148e+05,1.1309e+08,0,0,0,16.64,0.03,34,1,0,0
1.5193e+05,1.1319e+08,0,0,0,16.64,0.03,33,1,0,0
1.5238e+05,1.133e+08,0,0,0,16.64,0.03,34,1,0,0
1.5288e+05,1.1342e+08,0,0,0,16.64,0.03,34,1,0,0
1.5334e+05,1.1352e+08,0,0,0,16.64,0.03,34,1,0,0
1.538e+05,1.1363e+08,0,0,0,16.64,0.03,34,1,0,0
1.5421e+05,1.1374e+08,0,0,0,16.64,0.03,34,1,0,0
1.547e+05,1.1385e+08,0,0,0,16.64,0.03,34,1,0,0
1.5515e+05,1.1395e+08,0,0,0,16.64,0.03,34,1,0,0
1.5558e+05,1.1406e+08,0,0,0,16.64,0.03,33,1,0,0
1.5607e+05,1.1417e+08,0,0,0,16.64,0.03,34,1,0,0
1.5656e+05,1.1429e+08,0,0,0,16.64,0.03,33,1,0,0
1.5702e+05,1.1439e+08,0,0,0,16.64,0.03,33,1,0,0
1.5792e+05,1.146e+08,0,0,0,16.64,0.03,34,1,0,0
1.5838e+05,1.1471e+08,0,0,0,16.64,0.03,34,1,0,0
1.5888e+05,1.1482e+08,0,0,0,16.64,0.03,34,1,0,0
1.5933e+05,1.1493e+08,0,0,0,16.64,0.03,34,1,0,0
1.5983e+05,1.1504e+08,0,0,0,16.64,0.04,33,1,0,0
1.6028e+05,1.1515e+08,0,0,0,16.64,0.03,34,1,0,0
1.6073e+05,1.1525e+08,0,0,0,16.64,0.04,33,1,0,0
1.6119e+05,1.1536e+08,0,0,0,16.64,0.03,33,1,0,0
1.6168e+05,1.1547e+08,0,0,0,16.64,0.04,34,1,0,0
1.6214e+05,1.1558e+08,0,0,0,16.64,0.04,34,1,0,0
1.626e+05,1.1569e+08,0,0,0,16.64,0.04,33,1,0,0
1.6305e+05,1.1579e+08,0,0,0,16.64,0.03,33,1,0,0
1.64e+05,1.1601e+08,0,0,0,16.65,0.03,33,1,0,0
1.6495e+05,1.1623e+08,0,0,0,16.64,0.04,33,1,0,0
1.654e+05,1.1634e+08,0,0,0,16.64,0.04,34,1,0,0
1.6585e+05,1.1644e+08,0,0,0,16.64,0.04,34,1,0,0
1.6635e+05,1.1656e+08,0,0,0,16.64,0.04,33,1,0,0
1.6681e+05,1.1667e+08,0,0,0,16.64,0.03,34,1,0,0
1.6726e+05,1.1677e+08,0,0,0,16.64,0.03,34,1,0,0
1.6771e+05,1.1688e+08,0,0,0,16.64,0.03,34,1,0,0
1.6816e+05,1.1699e+08,0,0,0,16.64,0.03,33,1,0,0
1.6862e+05,1.171e+08,0,0,0,16.64,0.03,33,1,0,0
1.6907e+05,1.172e+08,0,0,0,16.64,0.03,34,1,0,0
1.6998e+05,1.1741e+08,0,0,0,16.64,0.03,33,1,0,0
1.7043e+05,1.1752e+08,0,0,0,16.64,0.03,33,1,0,0
1.7093e+05,1.1763e+08,0,0,0,16.65,0.04,33,1,0,0
1.7142e+05,1.1775e+08,0,0,0,16.64,0.03,34,1,0,0
1.7187e+05,1.1785e+08,0,0,0,16.64,0.03,34,1,0,0
1.7233e+05,1.1795e+08,0,0,0,16.64,0.03,33,1,0,0
1.7278e+05,1.1806e+08,0,0,0,16.64,0.03,34,1,0,0
1.7328e+05,1.1818e+08,0,0,0,16.64,0.03,34,1,0,0
1.7418e+05,1.1839e+08,0,0,0,16.64,0.04,34,1,0,0
1.7467e+05,1.185e+08,0,0,0,16.64,0.04,34,1,0,0
1.7513e+05,1.1861e+08,0,0,0,16.64,0.04,33,1,0,0
1.7559e+05,1.1871e+08,0,0,0,16.64,0.04,33,1,0,0
1.7608e+05,1.1883e+08,0,0,0,16.64,0.04,34,1,0,0
1.7649e+05,1.1892e+08,0,0,0,16.64,0.04,33,1,0,0
1.7699e+05,1.1903e+08,0,0,0,16.64,0.04,34,1,0,0
1.7745e+05,1.1915e+08,0,0,0,16.64,0.04,34,1,0,0
1.779e+05,1.1925e+08,0,0,0,16.64,0.04,33,1,0,0
1.7836e+05,1.1936e+08,0,0,0,16.64,0.04,34,1,0,0
1.7881e+05,1.1946e+08,0,0,0,16.64,0.04,34,1,0,0
1.7931e+05,1.1958e+08,0,0,0,16.64,0.04,34,1,0,0
1.8018e+05,1.1979e+08,0,0,0,16.64,0.03,34,1,0,0
1.8068e+05,1.199e+08,0,0,0,16.64,0.04,33,1,0,0
1.8113e+05,1.2001e+08,0,0,0,16.64,0.04,34,1,0,0
1.8163e+05,1.2012e+08,0,0,0,16.64,0.04,34,1,0,0
1.8208e+05,1.2023e+08,0,0,0,16.64,0.03,33,1,0,0
1.8258e+05,1.2034e+08,0,0,0,16.64,0.03,34,1,0,0
1.8303e+05,1.2045e+08,0,0,0,16.64,0.03,34,1,0,0
1.8349e+05,1.2055e+08,0,0,0,16.64,0.03,34,1,0,0
1.8394e+05,1.2066e+08,0,0,0,16.64,0.03,34,1,0,0
1.8444e+05,1.2077e+08,0,0,0,16.64,0.03,34,1,0,0
1.849e+05,1.2089e+08,0,0,0,16.64,0.03,34,1,0,0
1.8531e+05,1.2098e+08,0,0,0,16.64,0.04,33,1,0,0
1.8581e+05,1.211e+08,0,0,0,16.64,0.04,33,1,0,0
1.8626e+05,1.212e+08,0,0,0,16.63,0.04,34,1,0,0
1.8672e+05,1.2131e+08,0,0,0,16.64,0.03,33,1,0,0
1.8717e+05,1.2141e+08,0,0,0,16.64,0.04,33,1,0,0
1.8767e+05,1.2153e+08,0,0,0,16.64,0.04,33,1,0,0
1.8812e+05,1.2163e+08,0,0,0,16.64,0.03,33,1,0,0
1.8854e+05,1.2174e+08,0,0,0,16.64,0.03,34,1,0,0
1.8904e+05,1.2185e+08,0,0,0,16.64,0.03,33,1,0,0
1.8948e+05,1.2195e+08,0,0,0,16.64,0.03,33,1,0,0
1.8998e+05,1.2206e+08,0,0,0,16.64,0.03,33,1,0,0
1.9043e+05,1.2217e+08,0,0,0,16.64,0.03,33,1,0,0
1.9093e+05,1.2228e+08,0,0,0,16.64,0.03,33,1,0,0
1.9138e+05,1.2239e+08,0,0,0,16.64,0.03,33,1,0,0
1.9183e+05,1.2249e+08,0,0,0,16.64,0.03,34,1,0,0
1.9229e+05,1.226e+08,0,0,0,16.64,0.03,33,1,0,0
1.9279e+05,1.2272e+08,0,0,0,16.64,0.04,33,1,0,0
1.9324e+05,1.2282e+08,0,0,0,16.64,0.03,33,1,0,0
1.9415e+05,1.2303e+08,0,0,0,16.64,0.04,34,1,0,0
1.9465e+05,1.2315e+08,0,0,0,16.64,0.04,33,1,0,0
1.951e+05,1.2325e+08,0,0,0,16.64,0.04,34,1,0,0
1.9556e+05,1.2336e+08,0,0,0,16.64,0.04,33,1,0,0
1.9606e+05,1.2347e+08,0,0,0,16.64,0.04,34,1,0,0
1.9651e+05,1.2358e+08,0,0,0,16.64,0.04,34,1,0,0
1.9692e+05,1.2368e+08,0,0,0,16.64,0.04,33,1,0,0
1.9746e+05,1.2381e+08,0,0,0,16.64,0.04,33,1,0,0
1.9788e+05,1.239e+08,0,0,0,16.64,0.04,33,1,0,0
1.9833e+05,1.2401e+08,0,0,0,16.64,0.04,33,1,0,0
1.9883e+05,1.2412e+08,0,0,0,16.64,0.04,34,1,0,0
1.9928e+05,1.2423e+08,0,0,0,16.64,0.04,33,1,0,0
1.9977e+05,1.2435e+08,0,0,0,16.64,0.04,34,1,0,0
2.0023e+05,1.2445e+08,0,0,0,16.64,0.04,33,1,0,0
2.0068e+05,1.2456e+08,0,0,0,16.64,0.04,33,1,0,0
2.0114e+05,1.2467e+08,0,0,0,16.64,0.04,34,1,0,0
2.0159e+05,1.2478e+08,0,0,0,16.64,0.04,34,1,0,0
2.0206e+05,1.2489e+08,0,0,0,16.65,0.04,33,1,0,0
2.0251e+05,1.2499e+08,0,0,0,16.64,0.04,34,1,0,0
2.0346e+05,1.2522e+08,0,0,0,16.64,0.04,33,1,0,0
2.0391e+05,1.2532e+08,0,0,0,16.64,0.04,34,1,0,0
2.0441e+05,1.2544e+08,0,0,0,16.64,0.04,34,1,0,0
2.0487e+05,1.2554e+08,0,0,0,16.65,0.04,34,1,0,0
2.0532e+05,1.2565e+08,0,0,0,16.64,0.04,34,1,0,0
2.0578e+05,1.2576e+08,0,0,0,16.64,0.04,33,1,0,0
2.0624e+05,1.2587e+08,0,0,0,16.64,0.04,34,1,0,0
2.0665e+05,1.2597e+08,0,0,0,16.64,0.03,33,1,0,0
2.0715e+05,1.2608e+08,0,0,0,16.64,0.04,34,1,0,0
2.076e+05,1.2619e+08,0,0,0,16.64,0.04,34,1,0,0
2.0806e+05,1.263e+08,0,0,0,16.64,0.04,34,1,0,0
2.0855e+05,1.2641e+08,0,0,0,16.64,0.04,34,1,0,0
2.0901e+05,1.2652e+08,0,0,0,16.64,0.04,34,1,0,0
2.0946e+05,1.2663e+08,0,0,0,16.64,0.04,34,1,0,0
2.0988e+05,1.2673e+08,0,0,0,16.64,0.04,33,1,0,0
2.1038e+05,1.2684e+08,0,0,0,16.64,0.04,34,1,0,0
2.1087e+05,1.2696e+08,0,0,0,16.64,0.03,34,1,0,0
2.1132e+05,1.2706e+08,0,0,0,16.64,0.03,34,1,0,0
2.1161e+05,1.9767e+08,0,0,0,16.63,0.03,34,1,0,0
2.1187e+05,1.9773e+08,0,0,0,16.64,0.03,34,1,0,0
2.1233e+05,1.9783e+08,0,0,0,16.63,0.03,34,1,0,0
2.1279e+05,1.9794e+08,0,0,0,16.64,0.03,34,1,0,0
2.1325e+05,1.9805e+08,0,0,0,16.64,0.03,34,1,0,0
2.1369e+05,1.9815e+08,0,0,0,16.64,0.03,34,1,0,0
2.1419e+05,1.9826e+08,0,0,0,16.63,0.03,34,1,0,0
2.1464e+05,1.9836e+08,0,0,0,16.63,0.03,34,1,0,0
2.1514e+05,1.9848e+08,0,0,0,16.64,0.03,34,1,0,0
2.1556e+05,1.9858e+08,0,0,0,16.63,0.03,34,1,0,0
2.1602e+05,1.9868e+08,0,0,0,16.63,0.03,34,1,0,0
2.1651e+05,1.988e+08,0,0,0,16.64,0.03,34,1,0,0
2.1697e+05,1.989e+08,0,0,0,16.63,0.03,34,1,0,0
2.1746e+05,1.9901e+08,0,0,0,16.64,0.03,34,1,0,0
2.1791e+05,1.9912e+08,0,0,0,16.64,0.03,34,1,0,0
2.1837e+05,1.9922e+08,0,0,0,16.63,0.03,34,1,0,0
2.1882e+05,1.9933e+08,0,0,0,16.63,0.03,34,1,0,0
2.1932e+05,1.9944e+08,0,0,0,16.64,0.03,34,1,0,0
2.1974e+05,1.9954e+08,0,0,0,16.63,0.03,34,1,0,0
2.2023e+05,1.9965e+08,0,0,0,16.63,0.03,34,1,0,0
2.2069e+05,1.9976e+08,0,0,0,16.63,0.03,34,1,0,0
2.2119e+05,1.9987e+08,0,23,442,16.61,0.07,34,1,0,0
2.2164e+05,1.9997e+08,0,480,885,16.59,0.14,34,1,0,0
2.221e+05,2.0008e+08,0,898,1200,16.61,0.15,34,1,0,0
2.2258e+05,2.0018e+08,0,1203,1285,16.61,0.12,34,1,0,0
2.2303e+05,2.0029e+08,0,1285,1328,16.61,0.11,34,1,0,0
2.2345e+05,2.004e+08,0,1328,1342,16.61,0.11,34,1,0,0
2.239e+05,2.0051e+08,0,1342,1342,16.62,0.11,34,1,0,0
2.2436e+05,2.0061e+08,0,1342,1357,16.61,0.11,34,1,0,0
2.2486e+05,2.0073e+08,0,1355,1342,16.62,0.11,34,1,0,0
2.2531e+05,2.0083e+08,0,1343,1357,16.61,0.11,34,1,0,0
2.2577e+05,2.0094e+08,0,1357,1357,16.62,0.1,34,1,0,0
2.2622e+05,2.0104e+08,0,1357,1357,16.61,0.1,34,1,0,0
2.2668e+05,2.0114e+08,0,1357,1357,16.62,0.1,34,1,0,0
2.2718e+05,2.0126e+08,0,1357,1357,16.61,0.11,34,1,0,0
2.2763e+05,2.0136e+08,0,1357,1357,16.61,0.11,34,1,0,0
2.2808e+05,2.0146e+08,0,1357,1357,16.61,0.11,34,1,0,0
2.2858e+05,2.0158e+08,0,1357,1357,16.62,0.11,34,1,0,0
2.2904e+05,2.0168e+08,0,1357,1357,16.62,0.11,34,1,0,0
2.2954e+05,2.018e+08,0,1357,1357,16.61,0.11,34,1,0,0
2.2995e+05,2.0189e+08,0,1357,1357,16.62,0.11,34,1,0,0
2.3045e+05,2.02e+08,0,1357,1357,16.61,0.1,35,1,0,0
2.309e+05,2.021e+08,0,1357,1357,16.61,0.11,34,1,0,0
2.3135e+05,2.0221e+08,0,1356,1342,16.62,0.11,34,1,0,0
2.3185e+05,2.0232e+08,0,1343,1357,16.61,0.1,34,1,0,0
2.3227e+05,2.0242e+08,0,1357,1357,16.61,0.11,34,1,0,0
2.3277e+05,2.0254e+08,0,1357,1357,16.61,0.1,34,1,0,0
2.3322e+05,2.0264e+08,0,1357,1357,16.62,0.1,34,1,0,0
2.3371e+05,2.0275e+08,0,1357,1357,16.62,0.1,34,1,0,0
2.3417e+05,2.0285e+08,0,1357,1357,16.61,0.1,34,1,0,0
2.3466e+05,2.0297e+08,0,1357,1357,16.61,0.11,34,1,0,0
2.3494e+05,2.0307e+08,0,1357,1357,16.62,0.1,34,1,0,0
2.3538e+05,2.0317e+08,0,1357,1357,16.61,0.1,35,1,0,0
2.3588e+05,2.0329e+08,0,1357,1357,16.62,0.1,34,1,0,0
2.3634e+05,2.034e+08,0,1357,1357,16.61,0.11,34,2,0,0
2.3679e+05,2.035e+08,0,1357,1357,16.61,0.11,34,2,0,0
2.3721e+05,2.036e+08,0,1357,1357,16.61,0.11,34,2,0,0
2.3766e+05,2.037e+08,0,1357,1357,16.62,0.1,35,2,0,0
2.3816e+05,2.0381e+08,0,1357,1357,16.61,0.11,34,2,0,0
2.3861e+05,2.0392e+08,0,1356,1342,16.62,0.1,34,2,0,0
2.3912e+05,2.0403e+08,0,1347,1400,16.6,0.15,35,2,0,0
2.3956e+05,2.0413e+08,0,1412,1657,16.57,0.28,34,2,0,0
2.4006e+05,2.0425e+08,0,1822,3514,15.61,4.04,35,2,0,0
2.4048e+05,2.0434e+08,0,3566,5700,15.54,5.8,35,2,0,0
2.4097e+05,2.0446e+08,0,5728,6514,15.74,5.14,35,2,0,0
2.4142e+05,2.0456e+08,0,6516,6657,15.66,5.19,35,2,0,0
2.4192e+05,2.0467e+08,0,6663,6871,15.92,5.22,35,2,0,0
2.4241e+05,2.0478e+08,0,6817,6242,16.18,3.32,35,2,0,0
2.4287e+05,2.0489e+08,0,6232,6128,16.07,3.48,35,2,0,0
2.4329e+05,2.0499e+08,0,6118,5985,16.05,3.86,35,3,0,0
2.4374e+05,2.0509e+08,0,5986,6100,16.04,3.83,35,3,0,0
2.4428e+05,2.0521e+08,0,6093,6028,16.02,3.83,35,3,0,0
2.4469e+05,2.053e+08,0,6028,6042,16.04,3.98,35,3,0,0
2.4519e+05,2.0542e+08,0,6058,6457,15.81,5.29,35,3,0,0
2.4565e+05,2.0552e+08,0,6459,6642,15.73,5.25,35,3,0,0
2.4614e+05,2.0563e+08,0,6650,6728,15.79,5.41,35,3,0,0
2.4664e+05,2.0574e+08,0,6705,6471,15.98,4.28,35,3,0,0
2.4709e+05,2.0585e+08,0,6449,6114,15.95,3.41,35,4,0,0
2.4754e+05,2.0595e+08,0,6128,6285,15.91,4.54,35,4,0,0
2.48e+05,2.0605e+08,0,6285,6285,15.98,4.29,35,4,0,0
2.4849e+05,2.0616e+08,0,6283,6242,15.88,4.11,35,4,0,0
2.4894e+05,2.0627e+08,0,6242,6257,15.98,3.9,35,4,0,0
2.4944e+05,2.0638e+08,0,6249,6085,15.98,3.81,35,4,0,0
2.4994e+05,2.0649e+08,0,6086,6100,15.94,3.94,35,4,0,0
2.5034e+05,2.0659e+08,0,6099,6071,15.94,3.76,35,4,0,0
2.5083e+05,2.0671e+08,0,6073,6100,15.88,3.97,35,5,0,0
2.5128e+05,2.0681e+08,0,6101,6114,15.87,3.96,35,5,0,0
2.5169e+05,2.0692e+08,0,6112,6085,15.97,3.86,35,5,0,0
2.5219e+05,2.0703e+08,0,6038,5557,16.33,1.46,35,5,0,0
2.5263e+05,2.0714e+08,0,5539,5285,16.28,2.93,35,5,0,0
2.5308e+05,2.0724e+08,0,5282,5228,16.08,2.4,35,5,0,0
2.5352e+05,2.0735e+08,0,5225,5100,16.13,2.65,35,5,0,0
2.5397e+05,2.0746e+08,0,5111,5371,15.97,3.05,35,5,0,0
2.5446e+05,2.0758e+08,0,5388,5571,16.1,2.9,35,5,0,0
2.5487e+05,2.0768e+08,0,5574,5657,16,3.97,35,5,0,0
2.5536e+05,2.078e+08,0,5707,6228,15.93,4.24,35,6,0,0
2.5577e+05,2.079e+08,0,6230,6385,15.89,4.4,35,6,0,0
2.5622e+05,2.0801e+08,0,6385,6385,15.85,4.54,35,6,0,0
2.567e+05,2.0813e+08,0,6386,6414,15.89,4.5,35,6,0,0
2.5716e+05,2.0824e+08,0,6423,6514,15.88,4.51,35,6,0,0
2.576e+05,2.0835e+08,0,6514,6514,15.94,4.73,36,6,0,0
2.58e+05,2.0845e+08,0,6514,6528,15.91,4.41,35,6,0,0
2.5846e+05,2.0856e+08,0,6530,6557,15.95,4.3,36,7,0,0
2.5891e+05,2.0867e+08,0,6557,6557,15.86,4.46,36,7,0,0
2.5935e+05,2.0878e+08,0,6544,6385,15.91,4.37,36,7,0,0
2.598e+05,2.089e+08,0,6379,6342,15.87,4.34,36,7,0,0
2.6024e+05,2.09e+08,0,6346,6414,15.91,4.53,36,7,0,0
2.6065e+05,2.0911e+08,0,6416,6442,15.91,4.53,36,7,0,0
2.611e+05,2.0922e+08,0,6445,6485,15.91,4.44,36,7,0,0
2.6155e+05,2.0933e+08,0,6468,6228,15.96,3.87,36,7,0,0
2.6204e+05,2.0944e+08,0,6243,6428,15.94,4.17,36,7,0,0
2.6244e+05,2.0955e+08,0,6429,6442,15.92,4.74,36,8,0,0
2.6289e+05,2.0966e+08,0,6442,6442,15.96,4.22,36,8,0,0
2.6334e+05,2.0977e+08,0,6445,6485,15.83,4.71,36,8,0,0
2.6378e+05,2.0987e+08,0,6485,6500,15.83,4.72,36,8,0,0
2.6423e+05,2.0998e+08,0,6496,6457,15.87,4.74,36,8,0,0
2.6467e+05,2.1009e+08,0,6469,6600,15.91,4.78,36,8,0,0
2.6512e+05,2.102e+08,0,6610,6714,15.88,4.63,36,9,0,0
2.6602e+05,2.1043e+08,0,6701,6428,15.83,4.6,36,9,0,0
2.6643e+05,2.1053e+08,0,6432,6471,15.85,4.78,36,9,0,0
2.6687e+05,2.1063e+08,0,6472,6500,15.87,4.55,36,9,0,0
2.6732e+05,2.1074e+08,0,6499,6485,15.82,4.58,36,9,0,0
2.6818e+05,2.1096e+08,0,6483,6428,15.94,4.18,36,10,0,0
2.6867e+05,2.1108e+08,0,6413,6271,15.85,4.18,36,10,0,0
2.6908e+05,2.1118e+08,0,6271,6285,15.87,4.6,36,10,0,0
2.6953e+05,2.1128e+08,0,6292,6400,15.77,4.44,36,10,0,0
2.6998e+05,2.1139e+08,0,6401,6414,15.81,4.53,36,10,0,0
2.7038e+05,2.115e+08,0,6410,6357,15.82,4.54,36,10,0,0
2.7083e+05,2.1161e+08,0,6353,6300,15.82,4.24,36,10,0,0
2.7127e+05,2.1172e+08,0,6298,6285,15.8,4.4,36,10,0,0
2.7173e+05,2.1183e+08,0,6287,6314,15.86,4.26,36,10,0,0
2.7214e+05,2.1193e+08,0,6323,6442,15.83,4.31,36,11,0,0
2.7259e+05,2.1204e+08,0,6433,6314,15.79,4.33,36,11,0,0
2.7303e+05,2.1215e+08,0,6325,6500,15.84,4.6,36,11,0,0
2.7348e+05,2.1226e+08,0,6486,6357,15.86,4.35,36,11,0,0
2.7389e+05,2.1237e+08,0,6359,6414,15.8,4.43,36,11,0,0
2.7434e+05,2.1248e+08,0,6414,6457,15.79,4.79,36,11,0,0
2.7527e+05,2.1271e+08,0,6459,6500,15.9,4.14,36,12,0,0
2.7612e+05,2.1292e+08,0,6496,6428,15.79,5.28,37,12,0,0
2.7702e+05,2.1315e+08,0,6429,6471,15.85,4.42,37,12,0,0
2.7747e+05,2.1325e+08,0,6463,6385,15.77,4.35,37,12,0,0
2.7791e+05,2.1335e+08,0,6377,6285,15.83,4.09,37,12,0,0
2.7836e+05,2.1346e+08,0,6282,6242,15.85,3.96,37,13,0,0
2.7876e+05,2.1357e+08,0,6241,6228,15.78,3.85,37,13,0,0
2.7926e+05,2.1369e+08,0,6222,6185,15.86,4.12,37,13,0,0
2.7962e+05,2.1378e+08,0,6187,6342,15.82,4.17,37,13,0,0
2.8007e+05,2.139e+08,0,6317,6128,15.89,3.93,37,13,0,0
2.8052e+05,2.14e+08,0,6126,6028,15.86,3.64,37,13,0,0
2.81e+05,2.1412e+08,0,6024,5985,15.8,3.55,37,13,0,0
2.8144e+05,2.1422e+08,0,5983,5971,15.88,3.12,37,13,0,0
2.823e+05,2.1443e+08,0,5971,5971,15.78,3.41,37,14,0,0
2.8274e+05,2.1454e+08,0,5966,5871,15.85,3.46,37,14,0,0
2.832e+05,2.1465e+08,0,5877,5971,15.75,3.44,37,14,0,0
2.8365e+05,2.1477e+08,0,5981,6085,15.8,3.64,37,14,0,0
2.841e+05,2.1487e+08,0,6070,5942,15.77,3.12,37,14,0,0
2.8454e+05,2.1499e+08,0,5942,5942,15.73,3.25,37,14,0,0
2.8496e+05,2.1509e+08,0,5939,5771,15.75,3.02,37,14,0,0
2.8541e+05,2.1521e+08,0,5817,6271,15.72,5.47,37,14,0,0
2.8585e+05,2.1531e+08,0,6236,5771,15.75,2.24,37,14,0,0
2.863e+05,2.1542e+08,0,5787,6100,15.75,3.69,37,15,0,0
2.8723e+05,2.1565e+08,0,6103,6185,15.73,4.39,37,15,0,0
2.8813e+05,2.1587e+08,0,6181,6100,15.69,3.57,37,15,0,0
2.8858e+05,2.1597e+08,0,6092,6014,15.72,3.79,37,15,0,0
2.8903e+05,2.1608e+08,0,6025,6185,15.69,4.02,37,15,0,0
2.8948e+05,2.162e+08,0,6182,6157,15.73,4.11,37,15,0,0
2.8988e+05,2.163e+08,0,6154,6000,15.72,4.23,37,16,0,0
2.9033e+05,2.164e+08,0,6010,6257,15.75,4.37,37,16,0,0
2.9074e+05,2.1651e+08,0,6258,6342,15.71,4.29,37,16,0,0
2.9118e+05,2.1662e+08,0,6338,6214,15.72,4.11,37,16,0,0
2.9164e+05,2.1673e+08,0,6220,6300,15.66,4.55,37,16,0,0
2.9209e+05,2.1684e+08,0,6319,6500,15.6,4.88,37,16,0,0
2.925e+05,2.1695e+08,0,6495,6400,15.68,4.59,37,16,0,0
2.9299e+05,2.1707e+08,0,6404,6457,15.63,5.04,37,17,0,0
2.934e+05,2.1717e+08,0,6477,6714,15.61,5.17,37,17,0,0
2.9385e+05,2.1728e+08,0,6716,6742,15.6,5.32,37,17,0,0
2.9429e+05,2.1739e+08,0,6744,6785,15.66,5.14,37,17,0,0
2.9522e+05,2.176e+08,0,6783,6742,15.66,4.83,37,17,0,0
2.9566e+05,2.1771e+08,0,6731,6600,15.67,4.93,37,17,0,0
2.9611e+05,2.1782e+08,0,6603,6685,15.71,4.84,37,18,0,0
2.9656e+05,2.1794e+08,0,6687,6714,15.63,4.63,37,18,0,0
2.9697e+05,2.1803e+08,0,6712,6642,15.57,4.92,37,18,0,0
2.9741e+05,2.1815e+08,0,6644,6700,15.5,4.95,37,18,0,0
2.9787e+05,2.1825e+08,0,6705,6828,15.52,5.23,37,18,0,0
2.9831e+05,2.1836e+08,0,6826,6800,15.54,5.13,37,18,0,0
2.988e+05,2.1848e+08,0,6796,6771,15.63,5.01,37,18,0,0
2.992e+05,2.1858e+08,0,6770,6742,15.59,4.8,37,19,0,0
2.997e+05,2.187e+08,0,6733,6642,15.58,4.61,37,19,0,0
3.0014e+05,2.1881e+08,0,6629,6457,15.55,4.67,37,19,0,0
3.0055e+05,2.1891e+08,0,6456,6442,15.37,5.06,37,19,0,0
3.01e+05,2.1902e+08,0,6453,6714,15.45,5.14,37,19,0,0
3.0144e+05,2.1913e+08,0,6712,6700,15.41,4.93,37,19,0,0
3.019e+05,2.1924e+08,0,6721,6928,15.5,5.27,37,20,0,0
3.0234e+05,2.1935e+08,0,6924,6714,15.51,5.22,37,20,0,0
3.0283e+05,2.1947e+08,0,6744,6971,15.55,5.2,37,20,0,0
3.0323e+05,2.1957e+08,0,6966,6757,15.44,5.2,37,20,0,0
3.0412e+05,2.1979e+08,0,6746,6557,15.51,4.6,37,20,0,0
3.0458e+05,2.199e+08,0,6575,6757,15.44,5.35,37,20,0,0
3.0498e+05,2.1999e+08,0,6756,6714,15.49,5.4,37,21,0,0
3.0543e+05,2.2011e+08,0,6715,6742,15.48,5.31,37,21,0,0
3.0588e+05,2.2022e+08,0,6745,6785,15.5,5.69,37,21,0,0
3.0633e+05,2.2034e+08,0,6778,6714,15.65,4.51,37,21,0,0
3.0678e+05,2.2044e+08,0,6718,6757,15.51,5.23,38,21,0,0
3.0719e+05,2.2054e+08,0,6757,6771,15.55,4.87,38,21,0,0
3.0763e+05,2.2065e+08,0,6757,6442,15.79,3.8,38,21,0,0
3.0809e+05,2.2076e+08,0,6452,6542,15.74,4.76,38,22,0,0
3.0854e+05,2.2087e+08,0,6536,6457,15.92,3.8,37,22,0,0
3.0898e+05,2.2098e+08,0,6442,6214,15.89,3.36,37,22,0,0
3.0938e+05,2.2108e+08,0,6215,6342,15.8,3.85,38,22,0,0
3.0986e+05,2.2119e+08,0,6334,6142,15.86,3.57,38,22,0,0
3.1031e+05,2.213e+08,0,6153,6314,15.87,4.03,38,22,0,0
3.1076e+05,2.2141e+08,0,6310,6128,15.82,4.08,38,22,0,0
3.1165e+05,2.2162e+08,0,6130,6357,15.78,4.03,38,23,0,0
3.121e+05,2.2174e+08,0,6360,6400,15.82,3.88,38,23,0,0
3.125e+05,2.2183e+08,0,6394,6200,15.82,4,38,23,0,0
3.1296e+05,2.2195e+08,0,6200,6200,15.88,3.83,38,23,0,0
3.134e+05,2.2206e+08,0,6203,6285,15.86,4.06,38,23,0,0
3.1385e+05,2.2217e+08,0,6284,6271,15.84,3.95,38,23,0,0
3.1431e+05,2.2228e+08,0,6277,6342,15.89,3.67,38,23,0,0
3.1471e+05,2.2238e+08,0,6343,6428,15.84,4.08,38,23,0,0
3.1516e+05,2.2249e+08,0,6425,6285,15.76,3.83,38,23,0,0
3.156e+05,2.226e+08,0,6292,6557,15.74,4.35,38,24,0,0
3.1605e+05,2.2272e+08,0,6555,6542,15.74,3.93,38,24,0,0
3.1646e+05,2.2282e+08,0,6533,6171,15.75,3.56,38,24,0,0
3.1691e+05,2.2293e+08,0,6165,6085,15.76,4.07,38,24,0,0
3.1736e+05,2.2304e+08,0,6083,6057,15.77,3.67,38,24,0,0
3.1777e+05,2.2314e+08,0,6053,5985,15.81,3.13,38,24,0,0
3.1822e+05,2.2325e+08,0,5977,5871,15.72,3.71,38,24,0,0
3.1867e+05,2.2336e+08,0,5878,5957,15.75,3.65,38,24,0,0
3.1912e+05,2.2347e+08,0,5955,5928,15.69,3.89,38,24,0,0
3.1952e+05,2.2357e+08,0,5931,6128,15.75,3.95,38,25,0,0
3.2001e+05,2.2369e+08,0,6134,6200,15.7,4.02,38,25,0,0
3.2042e+05,2.2379e+08,0,6199,6185,15.67,4.11,38,25,0,0
3.2135e+05,2.2401e+08,0,6195,6400,15.69,4.33,38,25,0,0
3.2179e+05,2.2412e+08,0,6401,6414,15.67,4.65,38,25,0,0
3.2224e+05,2.2423e+08,0,6410,6371,15.63,4.5,38,25,0,0
3.2265e+05,2.2433e+08,0,6371,6371,15.63,4.63,38,26,0,0
3.2313e+05,2.2444e+08,0,6373,6428,15.6,4.5,38,26,0,0
3.2357e+05,2.2455e+08,0,6427,6414,15.61,4.56,38,26,0,0
3.2402e+05,2.2466e+08,0,6414,6428,15.63,4.46,38,26,0,0
3.2448e+05,2.2477e+08,0,6426,6414,15.65,4.56,38,26,0,0
3.2492e+05,2.2489e+08,0,6419,6471,15.68,4.47,38,26,0,0
3.2533e+05,2.2499e+08,0,6471,6485,15.68,4.12,38,26,0,0
3.2582e+05,2.2511e+08,0,6469,6328,15.65,4.3,38,26,0,0
3.2622e+05,2.2521e+08,0,6328,6328,15.67,4.23,38,27,0,0
3.2712e+05,2.2543e+08,0,6323,6157,15.67,4.03,38,27,0,0
3.2754e+05,2.2554e+08,0,6142,5857,15.67,3.43,38,27,0,0
3.2799e+05,2.2565e+08,0,5865,6200,15.63,4.36,38,27,0,0
3.2844e+05,2.2576e+08,0,6222,6671,15.64,5.37,38,27,0,0
3.2889e+05,2.2587e+08,0,6652,6300,15.55,4.24,38,27,0,0
3.2934e+05,2.2598e+08,0,6290,6157,15.45,2.94,38,27,0,0
3.2978e+05,2.2609e+08,0,6180,6671,15.5,6.2,38,28,0,0
3.3019e+05,2.2619e+08,0,6667,6585,15.42,4.99,38,28,0,0
3.3064e+05,2.263e+08,0,6589,6628,15.55,4.77,38,28,0,0
3.3109e+05,2.2641e+08,0,6589,6014,15.52,4.02,38,28,0,0
3.3154e+05,2.2652e+08,0,6057,6485,15.57,5.2,38,28,0,0
3.3194e+05,2.2662e+08,0,6486,6571,15.66,4.77,38,28,0,0
3.3243e+05,2.2674e+08,0,6559,6442,15.66,4.19,38,28,0,0
3.3288e+05,2.2685e+08,0,6466,6800,15.58,6.13,38,29,0,0
3.3333e+05,2.2696e+08,0,6761,6257,15.65,2.92,38,29,0,0
3.3378e+05,2.2707e+08,0,6256,6242,15.61,4.11,38,29,0,0
3.3419e+05,2.2717e+08,0,6236,6100,15.55,4.2,38,29,0,0
3.3467e+05,2.2729e+08,0,6119,6514,15.7,4.64,38,29,0,0
3.349e+05,2.2739e+08,0,6483,5885,15.66,2.7,38,29,0,0
3.3575e+05,2.276e+08,0,5895,6371,15.79,4.19,38,29,0,0
3.3616e+05,2.2771e+08,0,6367,6285,15.81,3.69,38,30,0,0
3.3665e+05,2.2782e+08,0,6285,6285,15.79,3.61,38,30,0,0
3.3706e+05,2.2792e+08,0,6259,5785,15.8,1.68,38,30,0,0
3.3751e+05,2.2804e+08,0,5775,5642,15.67,3.98,38,30,0,0
3.3792e+05,2.2814e+08,0,5673,6285,15.62,3.93,38,30,0,0
3.3837e+05,2.2825e+08,0,6285,6285,15.74,4.01,38,30,0,0
3.3882e+05,2.2836e+08,0,6300,6457,15.66,4.26,38,30,0,0
3.3927e+05,2.2847e+08,0,6431,6085,15.59,3.12,38,30,0,0
3.3971e+05,2.2858e+08,0,6072,5914,15.64,3.82,38,30,0,0
3.4016e+05,2.2869e+08,0,5943,6200,15.6,4.04,38,31,0,0
3.4061e+05,2.288e+08,0,6193,6100,15.67,4.01,38,31,0,0
3.4098e+05,2.289e+08,0,6101,6128,15.62,4.38,38,31,0,0
3.4148e+05,2.2902e+08,0,6150,6371,15.55,4.86,38,31,0,0
3.4188e+05,2.2912e+08,0,6380,6714,15.58,5.47,38,31,0,0
3.4278e+05,2.2934e+08,0,6708,6257,15.54,3.86,38,31,0,0
3.4326e+05,2.2945e+08,0,6254,6228,15.61,3.78,38,31,0,0
3.4371e+05,2.2956e+08,0,6215,6100,15.53,4,38,32,0,0
3.4417e+05,2.2967e+08,0,6105,6157,15.52,4.38,38,32,0,0
3.4461e+05,2.2978e+08,0,6165,6242,15.58,4.44,38,32,0,0
3.4509e+05,2.299e+08,0,6267,6442,15.61,4.37,38,32,0,0
3.455e+05,2.3e+08,0,6406,6228,15.63,4.17,38,32,0,0
3.4591e+05,2.301e+08,0,6229,6314,15.63,4.02,38,32,0,0
3.464e+05,2.3022e+08,0,6297,6114,15.66,3.92,38,32,0,0
3.468e+05,2.3032e+08,0,6115,6228,15.63,4.17,38,33,0,0
3.473e+05,2.3044e+08,0,6226,6214,15.58,3.86,38,33,0,0
3.4818e+05,2.3065e+08,0,6210,6057,15.63,3.92,38,33,0,0
3.4909e+05,2.3088e+08,0,6033,5514,15.7,2.82,38,33,0,0
3.4945e+05,2.3097e+08,0,5521,5814,15.61,4.76,38,33,0,0
3.4994e+05,2.3108e+08,0,5839,6171,15.64,4.34,38,33,0,0
3.5039e+05,2.3119e+08,0,6189,6342,15.58,4.57,38,33,0,0
3.5079e+05,2.3129e+08,0,6342,6342,15.57,4.48,38,34,0,0
3.5124e+05,2.314e+08,0,6336,6257,15.56,3.81,38,34,0,0
3.5164e+05,2.315e+08,0,6253,6000,15.6,3.63,38,34,0,0
3.5209e+05,2.3161e+08,0,6000,6000,15.7,3.41,38,34,0,0
3.5254e+05,2.3173e+08,0,5992,5914,15.6,3.45,38,34,0,0
3.5298e+05,2.3183e+08,0,5911,5814,15.69,3.46,38,34,0,0
3.5343e+05,2.3194e+08,0,5823,5942,15.65,3.59,38,34,0,0
3.5388e+05,2.3205e+08,0,5940,5914,15.63,3.54,38,34,0,0
3.5432e+05,2.3216e+08,0,5914,5928,15.58,3.57,38,34,0,0
3.5478e+05,2.3228e+08,0,5934,6000,15.63,3.6,38,35,0,0
3.5523e+05,2.3238e+08,0,5989,5885,15.55,3.31,38,35,0,0
3.5563e+05,2.3249e+08,0,5883,5828,15.68,3.17,38,35,0,0
3.5608e+05,2.326e+08,0,5823,5714,15.61,3.21,38,35,0,0
3.5656e+05,2.3271e+08,0,5744,5942,15.55,3.19,38,35,0,0
3.5697e+05,2.3281e+08,0,5938,5757,15.61,2.85,38,35,0,0
3.5741e+05,2.3292e+08,0,5754,5728,15.68,2.85,38,35,0,0
3.5786e+05,2.3303e+08,0,5727,5714,15.63,3.25,38,35,0,0
3.5831e+05,2.3314e+08,0,5724,5871,15.73,2.75,38,35,0,0
3.5876e+05,2.3325e+08,0,5803,5128,15.63,1.73,38,35,0,0
3.592e+05,2.3336e+08,0,5119,5000,15.74,1.78,38,35,0,0
3.5965e+05,2.3347e+08,0,5000,5014,15.66,2.32,38,35,0,0
3.601e+05,2.3358e+08,0,5019,5314,15.61,2.74,38,36,0,0
3.6059e+05,2.3369e+08,0,5324,5428,15.64,2.6,38,36,0,0
3.6099e+05,2.338e+08,0,5431,5571,15.63,2.79,38,36,0,0
3.6144e+05,2.3391e+08,0,5558,5385,15.63,2.53,38,36,0,0
3.6189e+05,2.3402e+08,0,5390,5471,15.63,2.55,38,36,0,0
3.6233e+05,2.3413e+08,0,5472,5500,15.61,2.86,38,36,0,0
3.6278e+05,2.3424e+08,0,5509,5600,15.58,3.26,38,36,0,0
3.6318e+05,2.3434e+08,0,5602,5714,15.64,3.32,38,36,0,0
3.6363e+05,2.3444e+08,0,5715,5771,15.59,3.27,38,36,0,0
3.6411e+05,2.3456e+08,0,5775,5842,15.59,3.41,38,36,0,0
3.6457e+05,2.3467e+08,0,5844,5871,15.54,3.64,38,36,0,0
3.6501e+05,2.3478e+08,0,5876,5928,15.54,3.43,38,37,0,0
3.6546e+05,2.3489e+08,0,5936,6042,15.66,3.53,38,37,0,0
3.659e+05,2.35e+08,0,6051,6142,15.58,3.68,38,37,0,0
3.6631e+05,2.351e+08,0,6139,6071,15.61,3.75,38,37,0,0
3.6679e+05,2.3521e+08,0,6064,5971,15.57,3.46,38,37,0,0
3.6723e+05,2.3532e+08,0,5955,5742,15.61,3.45,38,37,0,0
3.6768e+05,2.3543e+08,0,5741,5728,15.63,3.34,38,37,0,0
3.6812e+05,2.3554e+08,0,5740,5914,15.58,3.63,38,37,0,0
3.6858e+05,2.3565e+08,0,5910,5871,15.58,3.85,38,37,0,0
3.6902e+05,2.3576e+08,0,5872,5900,15.6,3.68,38,38,0,0
3.6947e+05,2.3587e+08,0,5906,6000,15.67,3.45,38,38,0,0
3.6987e+05,2.3597e+08,0,5999,5985,15.57,3.76,38,38,0,0
3.7036e+05,2.3608e+08,0,5995,6171,15.58,4.15,38,38,0,0
3.708e+05,2.3619e+08,0,6166,6128,15.55,4.32,38,38,0,0
3.7125e+05,2.363e+08,0,6148,6328,15.57,4.39,38,38,0,0
3.7165e+05,2.364e+08,0,6326,6257,15.61,4.25,38,38,0,0
3.7214e+05,2.3652e+08,0,6263,6357,15.57,4.55,38,38,0,0
3.7259e+05,2.3662e+08,0,6364,6471,15.57,4.75,38,39,0,0
3.7307e+05,2.3674e+08,0,6472,6485,15.56,4.77,38,39,0,0
3.7352e+05,2.3686e+08,0,6495,6614,15.67,4.57,38,39,0,0
3.7392e+05,2.3696e+08,0,6605,6528,15.61,4.57,38,39,0,0
3.7433e+05,2.3706e+08,0,6528,6528,15.57,4.61,38,39,0,0
3.7478e+05,2.3717e+08,0,6526,6471,15.64,4.46,38,39,0,0
3.7527e+05,2.3729e+08,0,6464,6414,15.55,4.54,38,39,0,0
3.7615e+05,2.3751e+08,0,6417,6514,15.64,4.48,38,40,0,0
3.766e+05,2.3761e+08,0,6507,6442,15.58,4.48,38,40,0,0
3.7704e+05,2.3773e+08,0,6445,6485,15.52,4.84,38,40,0,0
3.7749e+05,2.3783e+08,0,6482,6457,15.58,4.77,38,40,0,0
3.7793e+05,2.3794e+08,0,6473,6642,15.54,4.75,38,40,0,0
3.7834e+05,2.3804e+08,0,6640,6585,15.5,4.83,38,40,0,0
3.7878e+05,2.3815e+08,0,6584,6528,15.58,4.75,38,41,0,0
3.7927e+05,2.3827e+08,0,6528,6528,15.53,4.75,38,41,0,0
3.7968e+05,2.3837e+08,0,6530,6557,15.54,4.77,38,41,0,0
3.8008e+05,2.3847e+08,0,6555,6457,15.57,4.55,38,41,0,0
3.8053e+05,2.3859e+08,0,6459,6500,15.58,4.5,38,41,0,0
3.8142e+05,2.3881e+08,0,6500,6500,15.58,4.59,38,41,0,0
3.8186e+05,2.3891e+08,0,6498,6428,15.54,4.37,38,42,0,0
3.8235e+05,2.3903e+08,0,6425,6400,15.61,4.33,38,42,0,0
3.8279e+05,2.3913e+08,0,6397,6342,15.63,4.17,38,42,0,0
3.8324e+05,2.3925e+08,0,6344,6371,15.6,4.52,38,42,0,0
3.8364e+05,2.3935e+08,0,6372,6442,15.66,4.06,38,42,0,0
3.8409e+05,2.3945e+08,0,6440,6357,15.58,4.38,38,42,0,0
3.8458e+05,2.3957e+08,0,6353,6314,15.62,4.2,38,42,0,0
3.8547e+05,2.3979e+08,0,6314,6314,15.67,3.9,38,42,0,0
3.8591e+05,2.3989e+08,0,6314,6342,15.64,4.19,38,43,0,0
3.8632e+05,2.4e+08,0,6340,6242,15.58,4.1,38,43,0,0
3.8676e+05,2.4011e+08,0,6244,6357,15.64,4.3,39,43,0,0
3.8721e+05,2.4022e+08,0,6357,6400,15.71,4.2,38,43,0,0
3.8771e+05,2.4034e+08,0,6382,6200,15.72,3.62,39,43,0,0
3.8816e+05,2.4045e+08,0,6180,5985,15.67,3.58,39,43,0,0
3.8856e+05,2.4055e+08,0,5987,6142,15.66,3.87,39,43,0,0
3.8905e+05,2.4067e+08,0,6133,6042,15.61,3.76,38,43,0,0
3.8946e+05,2.4077e+08,0,6049,6157,15.61,3.78,38,44,0,0
3.8995e+05,2.4088e+08,0,6165,6257,15.66,3.75,39,44,0,0
3.904e+05,2.41e+08,0,6250,6185,15.57,3.99,38,44,0,0
3.908e+05,2.411e+08,0,6192,6342,15.55,4.59,39,44,0,0
3.9128e+05,2.4121e+08,0,6358,6514,15.5,4.74,39,44,0,0
3.9173e+05,2.4132e+08,0,6522,6628,15.39,5.41,39,44,0,0
3.9214e+05,2.4142e+08,0,6626,6614,15.45,5.14,39,44,0,0
3.9259e+05,2.4154e+08,0,6618,6657,15.54,4.84,39,45,0,0
3.9304e+05,2.4164e+08,0,6657,6657,15.52,4.81,39,45,0,0
3.9344e+05,2.4175e+08,0,6652,6542,15.58,4.72,39,45,0,0
3.9394e+05,2.4187e+08,0,6544,6571,15.54,4.62,39,45,0,0
3.9438e+05,2.4198e+08,0,6560,6457,15.52,4.75,39,45,0,0
3.9483e+05,2.4209e+08,0,6457,6457,15.52,4.83,39,45,0,0
3.9571e+05,2.423e+08,0,6457,6471,15.5,4.52,39,45,0,0
3.9616e+05,2.424e+08,0,6462,6342,15.55,4.29,39,46,0,0
3.9656e+05,2.4251e+08,0,6343,6442,15.56,4.32,39,46,0,0
3.9701e+05,2.4261e+08,0,6439,6342,15.51,4.08,39,46,0,0
3.9749e+05,2.4274e+08,0,6351,6457,15.47,4.44,39,46,0,0
3.979e+05,2.4284e+08,0,6455,6371,15.57,4.22,39,46,0,0
3.9834e+05,2.4295e+08,0,6371,6414,15.57,4.36,39,46,0,0
3.9887e+05,2.4307e+08,0,6404,6314,15.55,4.03,39,46,0,0
3.9931e+05,2.4317e+08,0,6310,6228,15.58,4.15,39,47,0,0
3.9976e+05,2.4328e+08,0,6235,6314,15.55,4.09,39,47,0,0
4.0105e+05,2.436e+08,0,6310,6185,15.62,3.86,39,47,0,0
4.015e+05,2.4372e+08,0,6177,6100,15.61,3.82,39,47,0,0
4.0194e+05,2.4383e+08,0,6109,6200,15.61,3.88,39,47,0,0
4.0235e+05,2.4393e+08,0,6205,6271,15.57,4.02,39,47,0,0
4.028e+05,2.4403e+08,0,6271,6271,15.59,4.04,39,48,0,0
4.0324e+05,2.4414e+08,0,6268,6242,15.63,3.9,39,48,0,0
4.0365e+05,2.4424e+08,0,6239,6071,15.6,4.07,39,48,0,0
4.0414e+05,2.4436e+08,0,6084,6228,15.61,3.92,39,48,0,0
4.0498e+05,2.4457e+08,0,6229,6285,15.57,4.3,39,48,0,0
4.0543e+05,2.4468e+08,0,6287,6400,15.58,4.24,39,48,0,0
4.0588e+05,2.4479e+08,0,6398,6314,15.55,4.35,39,48,0,0
4.0636e+05,2.4491e+08,0,6320,6385,15.58,4.29,39,49,0,0
4.0677e+05,2.4501e+08,0,6381,6328,15.57,4.31,39,49,0,0
4.0722e+05,2.4512e+08,0,6338,6442,15.62,4.39,39,49,0,0
4.0766e+05,2.4522e+08,0,6436,6371,15.55,4.1,39,49,0,0
4.0807e+05,2.4533e+08,0,6362,6200,15.57,4.21,39,49,0,0
4.0851e+05,2.4543e+08,0,6206,6457,15.57,4.44,39,49,0,0
4.0867e+05,2.4555e+08,0,6460,6500,15.6,4.52,39,49,0,0
4.0912e+05,2.4566e+08,0,6485,6342,15.61,4.2,39,49,0,0
4.0957e+05,2.4577e+08,0,6347,6400,15.58,4.11,39,50,0,0
4.0997e+05,2.4587e+08,0,6397,6228,15.63,3.98,39,50,0,0
4.1045e+05,2.4598e+08,0,6211,6042,15.72,3.5,39,50,0,0
4.1086e+05,2.4608e+08,0,6042,6042,15.69,3.59,39,50,0,0
4.113e+05,2.4619e+08,0,6044,6157,15.68,3.78,39,50,0,0
4.1175e+05,2.463e+08,0,6157,6157,15.65,3.62,39,50,0,0
4.122e+05,2.4641e+08,0,6153,6114,15.58,3.72,39,50,0,0
4.1265e+05,2.4652e+08,0,6116,6142,15.58,4.09,39,50,0,0
4.1309e+05,2.4662e+08,0,6146,6228,15.6,3.9,39,51,0,0
4.1354e+05,2.4673e+08,0,6224,6157,15.66,3.97,39,51,0,0
4.1442e+05,2.4695e+08,0,6155,6071,15.63,3.62,39,51,0,0
4.1488e+05,2.4706e+08,0,6072,6085,15.51,4.11,39,51,0,0
4.1532e+05,2.4717e+08,0,6095,6242,15.6,4.22,39,51,0,0
4.1576e+05,2.4727e+08,0,6245,6314,15.59,4.46,39,51,0,0
4.1622e+05,2.4739e+08,0,6314,6314,15.58,4.35,39,51,0,0
4.1663e+05,2.4749e+08,0,6317,6400,15.54,4.4,39,52,0,0
4.1707e+05,2.476e+08,0,6400,6414,15.52,4.62,39,52,0,0
4.1752e+05,2.4772e+08,0,6408,6357,15.59,4.4,39,52,0,0
4.1836e+05,2.4792e+08,0,6354,6257,15.53,4.22,39,52,0,0
4.1882e+05,2.4804e+08,0,6257,6257,15.54,4.21,39,52,0,0
4.1922e+05,2.4814e+08,0,6256,6242,15.57,4,39,52,0,0
4.1966e+05,2.4824e+08,0,6242,6257,15.61,3.95,39,52,0,0
4.2011e+05,2.4835e+08,0,6255,6228,15.57,3.94,39,52,0,0
4.206e+05,2.4847e+08,0,6224,6185,15.63,4.04,39,53,0,0
4.2105e+05,2.4858e+08,0,6188,6242,15.61,3.42,39,53,0,0
4.2146e+05,2.4868e+08,0,6239,6128,15.59,3.82,39,53,0,0
4.2194e+05,2.488e+08,0,6142,6285,15.54,4.17,39,53,0,0
4.2239e+05,2.4891e+08,0,6290,6328,15.57,3.98,39,53,0,0
4.2284e+05,2.4902e+08,0,6321,6257,15.55,4.25,39,53,0,0
4.2369e+05,2.4923e+08,0,6257,6271,15.52,4.22,39,53,0,0
4.2417e+05,2.4934e+08,0,6265,6214,15.5,4.33,39,54,0,0
4.2462e+05,2.4945e+08,0,6218,6257,15.52,4.43,39,54,0,0
4.2503e+05,2.4956e+08,0,6260,6342,15.52,4.22,39,54,0,0
4.2548e+05,2.4967e+08,0,6340,6285,15.56,3.97,39,54,0,0
4.2596e+05,2.4978e+08,0,6285,6285,15.55,4.46,39,54,0,0
4.2637e+05,2.4988e+08,0,6286,6400,15.58,4.18,39,54,0,0
4.2681e+05,2.4999e+08,0,6403,6457,15.53,4.2,39,54,0,0
4.2726e+05,2.501e+08,0,6454,6314,15.6,4.39,39,55,0,0
4.2771e+05,2.5022e+08,0,6314,6314,15.56,4.16,39,55,0,0
4.2857e+05,2.5043e+08,0,6313,6300,15.57,4.12,39,55,0,0
4.2897e+05,2.5053e+08,0,6298,6271,15.6,4.09,39,55,0,0
4.2942e+05,2.5064e+08,0,6273,6371,15.63,4.39,39,55,0,0
4.3032e+05,2.5086e+08,0,6364,6042,15.63,3.94,39,55,0,0
4.3076e+05,2.5097e+08,0,6052,6200,15.67,3.94,39,55,0,0
4.3121e+05,2.5108e+08,0,6194,6057,15.64,3.7,39,56,0,0
4.321e+05,2.513e+08,0,6061,6142,15.58,3.73,39,56,0,0
4.3255e+05,2.5141e+08,0,6143,6157,15.6,3.67,39,56,0,0
4.3295e+05,2.5151e+08,0,6151,6100,15.57,3.76,39,56,0,0
4.334e+05,2.5162e+08,0,6116,6228,15.59,3.84,39,56,0,0
4.3429e+05,2.5183e+08,0,6218,5985,15.59,3.75,39,56,0,0
4.3473e+05,2.5194e+08,0,5994,6114,15.62,3.96,39,56,0,0
4.3518e+05,2.5205e+08,0,6131,6314,15.54,4.35,39,57,0,0
4.3559e+05,2.5216e+08,0,6315,6371,15.51,4.44,39,57,0,0
4.3607e+05,2.5227e+08,0,6373,6400,15.6,4.31,39,57,0,0
4.3651e+05,2.5238e+08,0,6398,6385,15.5,4.48,39,57,0,0
4.3697e+05,2.5249e+08,0,6397,6557,15.59,4.54,39,57,0,0
4.3737e+05,2.5259e+08,0,6555,6428,15.66,4.19,39,57,0,0
4.3874e+05,2.5292e+08,0,6426,6357,15.57,4.16,39,58,0,0
4.3915e+05,2.5303e+08,0,6356,6328,15.55,4.29,39,58,0,0
4.3959e+05,2.5314e+08,0,6336,6428,15.63,4.02,39,58,0,0
4.4004e+05,2.5325e+08,0,6405,6228,15.58,4.01,39,58,0,0
4.4045e+05,2.5335e+08,0,6227,6171,15.64,3.79,39,58,0,0
4.4094e+05,2.5347e+08,0,6166,6114,15.6,3.8,39,58,0,0
4.4138e+05,2.5357e+08,0,6103,6014,15.63,3.56,39,58,0,0
4.4183e+05,2.5368e+08,0,6015,6028,15.6,3.82,39,58,0,0
4.4224e+05,2.5379e+08,0,6037,6128,15.58,4.05,39,59,0,0
4.4268e+05,2.539e+08,0,6132,6171,15.63,3.54,39,59,0,0
4.4309e+05,2.54e+08,0,6173,6300,15.53,4.04,39,59,0,0
4.4355e+05,2.5412e+08,0,6320,6500,15.51,4.4,39,59,0,0
4.4399e+05,2.5422e+08,0,6489,6342,15.45,4.62,39,59,0,0
4.4444e+05,2.5433e+08,0,6365,6600,15.49,4.96,39,59,0,0
4.4485e+05,2.5443e+08,0,6597,6528,15.57,4.57,39,59,0,0
4.4533e+05,2.5455e+08,0,6517,6385,15.53,4.34,39,60,0,0
4.4574e+05,2.5465e+08,0,6387,6442,15.53,4.58,39,60,0,0
4.4619e+05,2.5476e+08,0,6442,6442,15.58,4.43,39,60,0,0
4.4663e+05,2.5487e+08,0,6435,6314,15.54,4.5,39,60,0,0
4.4708e+05,2.5498e+08,0,6324,6428,15.52,4.42,39,60,0,0
4.4749e+05,2.5508e+08,0,6428,6428,15.55,4.35,39,60,0,0
4.4794e+05,2.5519e+08,0,6426,6357,15.55,4.38,39,60,0,0
4.4838e+05,2.553e+08,0,6349,6257,15.57,4.14,39,60,0,0
4.4884e+05,2.5541e+08,0,6246,6142,15.61,3.89,39,61,0,0
4.4924e+05,2.5552e+08,0,6144,6214,15.53,3.93,39,61,0,0
4.4969e+05,2.5562e+08,0,6209,6114,15.6,4.01,39,61,0,0
4.5014e+05,2.5574e+08,0,6101,5971,15.57,3.71,39,61,0,0
4.5059e+05,2.5585e+08,0,5971,5971,15.52,3.86,39,61,0,0
4.5104e+05,2.5596e+08,0,5964,5900,15.54,3.87,39,61,0,0
4.5149e+05,2.5606e+08,0,5916,6100,15.58,3.84,39,61,0,0
4.5194e+05,2.5618e+08,0,6103,6142,15.58,3.97,39,61,0,0
4.5238e+05,2.5628e+08,0,6151,6242,15.55,4.09,39,61,0,0
4.5278e+05,2.5639e+08,0,6240,6214,15.59,4.12,39,62,0,0
4.5364e+05,2.566e+08,0,6215,6371,15.58,4.16,39,62,0,0
4.5453e+05,2.5682e+08,0,6371,6457,15.54,4.45,39,62,0,0
4.5498e+05,2.5693e+08,0,6462,6528,15.52,4.48,39,62,0,0
4.5543e+05,2.5704e+08,0,6518,6414,15.51,4.64,39,62,0,0
4.5583e+05,2.5714e+08,0,6414,6428,15.55,4.45,39,63,0,0
4.5631e+05,2.5725e+08,0,6420,6300,15.55,4.06,39,63,0,0
4.5675e+05,2.5736e+08,0,6299,6285,15.52,4.4,39,63,0,0
4.5721e+05,2.5747e+08,0,6286,6300,15.52,4.59,39,63,0,0
4.5766e+05,2.5758e+08,0,6311,6471,15.57,4.55,39,63,0,0
4.581e+05,2.5769e+08,0,6455,6242,15.57,4.16,39,63,0,0
4.5855e+05,2.578e+08,0,6250,6457,15.45,4.44,39,63,0,0
4.59e+05,2.5791e+08,0,6458,6471,15.54,4.72,39,64,0,0
4.5944e+05,2.5802e+08,0,6472,6514,15.52,4.79,39,64,0,0
4.5992e+05,2.5814e+08,0,6514,6514,15.55,4.44,39,64,0,0
4.6037e+05,2.5825e+08,0,6510,6471,15.45,4.8,39,64,0,0
4.6078e+05,2.5835e+08,0,6475,6571,15.47,5,39,64,0,0
4.6123e+05,2.5846e+08,0,6579,6700,15.48,4.65,39,64,0,0
4.6171e+05,2.5857e+08,0,6683,6500,15.52,4.53,39,64,0,0
4.6216e+05,2.5868e+08,0,6497,6471,15.52,4.54,39,65,0,0
4.6255e+05,2.5879e+08,0,6469,6371,15.54,4.36,39,65,0,0
4.6301e+05,2.589e+08,0,6374,6414,15.51,4.37,40,65,0,0
4.6346e+05,2.5901e+08,0,6409,6300,15.52,4.26,39,65,0,0
4.639e+05,2.5912e+08,0,6313,6500,15.48,4.46,39,65,0,0
4.6434e+05,2.5923e+08,0,6493,6442,15.5,4.42,39,65,0,0
4.6479e+05,2.5934e+08,0,6442,6442,15.5,4.29,39,65,0,0
4.652e+05,2.5945e+08,0,6431,6314,15.5,4.36,39,65,0,0
4.6565e+05,2.5955e+08,0,6326,6442,15.45,4.48,40,66,0,0
4.661e+05,2.5966e+08,0,6440,6414,15.48,4.64,40,66,0,0
4.6654e+05,2.5977e+08,0,6422,6600,15.49,4.8,40,66,0,0
4.6699e+05,2.5988e+08,0,6576,6371,15.48,4.69,40,66,0,0
4.6743e+05,2.6e+08,0,6375,6414,15.55,4.8,40,66,0,0
4.6788e+05,2.6011e+08,0,6423,6500,15.53,4.5,39,66,0,0
4.6832e+05,2.6021e+08,0,6490,6400,15.52,4.45,40,66,0,0
4.6876e+05,2.6032e+08,0,6395,6300,15.6,3.75,40,67,0,0
4.6918e+05,2.6042e+08,0,6301,6371,15.57,4.25,39,67,0,0
4.6966e+05,2.6054e+08,0,6358,6228,15.58,4.15,39,67,0,0
4.7012e+05,2.6065e+08,0,6252,6442,15.58,4.53,40,67,0,0
4.7052e+05,2.6076e+08,0,6447,6485,15.62,3.73,40,67,0,0
4.7097e+05,2.6086e+08,0,6485,6485,15.66,4.41,40,67,0,0
4.7141e+05,2.6097e+08,0,6483,6471,15.62,4.65,40,67,0,0
4.7186e+05,2.6108e+08,0,6472,6485,15.55,3.86,40,67,0,0
4.7226e+05,2.6118e+08,0,6484,6457,15.54,4.58,40,68,0,0
4.7278e+05,2.6131e+08,0,6464,6542,15.47,4.83,40,68,0,0
4.7319e+05,2.6141e+08,0,6538,6500,15.47,4.73,40,68,0,0
4.7364e+05,2.6152e+08,0,6508,6685,15.48,4.8,40,68,0,0
4.7453e+05,2.6174e+08,0,6678,6485,15.52,4.92,40,68,0,0
4.7498e+05,2.6185e+08,0,6487,6557,15.57,4.7,40,68,0,0
4.7542e+05,2.6195e+08,0,6550,6400,15.54,4.15,40,69,0,0
4.7591e+05,2.6207e+08,0,6403,6442,15.54,4.76,40,69,0,0
4.7631e+05,2.6217e+08,0,6438,6357,15.66,4.52,40,69,0,0
4.7676e+05,2.6228e+08,0,6356,6342,15.61,4.35,39,69,0,0
4.7724e+05,2.6239e+08,0,6338,6300,15.6,3.99,40,69,0,0
4.7765e+05,2.625e+08,0,6303,6342,15.51,4.2,40,69,0,0
4.781e+05,2.6261e+08,0,6339,6271,15.53,3.96,40,69,0,0
4.7858e+05,2.6273e+08,0,6274,6314,15.54,4.66,40,69,0,0
4.7899e+05,2.6282e+08,0,6318,6400,15.45,4.3,40,70,0,0
4.7944e+05,2.6294e+08,0,6404,6514,15.41,4.81,40,70,0,0
4.7992e+05,2.6305e+08,0,6525,6642,15.29,5.6,40,70,0,0
4.8036e+05,2.6316e+08,0,6647,6871,15.29,5.86,40,70,0,0
4.8081e+05,2.6327e+08,0,6880,6971,15.08,6.46,40,70,0,0
4.8127e+05,2.6338e+08,0,7001,7300,15.07,6.09,40,71,0,0
4.8167e+05,2.6348e+08,0,7295,7171,15.22,6.29,40,71,0,0
4.8211e+05,2.6359e+08,0,7168,7142,15.26,5.86,40,71,0,0
4.8256e+05,2.637e+08,0,7136,7042,15.25,5.74,40,71,0,0
4.8301e+05,2.6381e+08,0,7036,6985,15.27,5.54,40,71,0,0
4.8341e+05,2.6392e+08,0,6981,6900,15.26,5.78,40,71,0,0
4.839e+05,2.6403e+08,0,6907,7042,15.26,5.53,40,72,0,0
4.8474e+05,2.6424e+08,0,7038,6814,15.32,4.92,40,72,0,0
4.852e+05,2.6435e+08,0,6812,6728,15.32,4.93,40,72,0,0
4.8564e+05,2.6446e+08,0,6726,6657,15.38,5.13,40,72,0,0
4.8608e+05,2.6457e+08,0,6658,6714,15.43,4.51,40,72,0,0
4.8658e+05,2.6468e+08,0,6684,6385,15.44,4.11,40,72,0,0
4.8698e+05,2.6479e+08,0,6375,6257,15.43,3.94,40,73,0,0
4.8787e+05,2.6501e+08,0,6252,6042,15.42,3.75,40,73,0,0
4.8832e+05,2.6512e+08,0,6044,6142,15.47,3.85,40,73,0,0
4.8877e+05,2.6523e+08,0,6139,5985,15.52,3.64,40,73,0,0
4.8921e+05,2.6534e+08,0,5986,6100,15.56,3.81,40,73,0,0
4.8967e+05,2.6544e+08,0,6099,6085,15.57,3.63,40,73,0,0
4.9011e+05,2.6556e+08,0,6067,5900,15.54,3.16,40,73,0,0
4.9052e+05,2.6566e+08,0,5898,5828,15.57,3.18,40,73,0,0
4.9096e+05,2.6577e+08,0,5828,5857,15.5,3.58,40,74,0,0
4.9145e+05,2.6588e+08,0,5848,5757,15.53,3.45,40,74,0,0
4.9189e+05,2.6599e+08,0,5755,5728,15.55,3.48,40,74,0,0
4.9234e+05,2.661e+08,0,5728,5728,15.58,3.53,40,74,0,0
4.9279e+05,2.6621e+08,0,5728,5757,15.52,3.27,40,74,0,0
4.9323e+05,2.6631e+08,0,5757,5757,15.6,3.41,40,74,0,0
4.9368e+05,2.6642e+08,0,5758,5785,15.53,3.6,40,74,0,0
4.9409e+05,2.6653e+08,0,5782,5628,15.57,3.44,40,74,0,0
4.9453e+05,2.6663e+08,0,5632,5871,15.44,3.83,40,74,0,0
4.9498e+05,2.6675e+08,0,5890,6071,15.47,3.79,40,74,0,0
4.9543e+05,2.6685e+08,0,6076,6128,15.53,3.85,40,75,0,0
4.9587e+05,2.6697e+08,0,6125,6100,15.47,3.83,40,75,0,0
4.9632e+05,2.6707e+08,0,6096,6042,15.48,3.9,40,75,0,0
4.9677e+05,2.6719e+08,0,6046,6100,15.49,4.13,40,75,0,0
4.9722e+05,2.673e+08,0,6102,6228,15.44,4.22,40,75,0,0
4.9767e+05,2.674e+08,0,6222,6157,15.48,4.1,40,75,0,0
4.9808e+05,2.6752e+08,0,6166,6257,15.47,4.34,40,75,0,0
4.9852e+05,2.6762e+08,0,6257,6257,15.47,4.21,40,75,0,0
4.9897e+05,2.6774e+08,0,6266,6357,15.49,4.51,40,76,0,0
4.9942e+05,2.6785e+08,0,6343,6228,15.5,4.3,40,76,0,0
4.9982e+05,2.6794e+08,0,6228,6242,15.51,4.32,40,76,0,0
5.0028e+05,2.6806e+08,0,6220,6100,15.45,4.11,40,76,0,0
5.0068e+05,2.6816e+08,0,6100,6185,15.5,3.76,40,76,0,0
5.0113e+05,2.6827e+08,0,6184,6157,15.55,3.85,40,76,0,0
5.0158e+05,2.6838e+08,0,6152,6057,15.51,3.92,40,76,0,0
5.0202e+05,2.6849e+08,0,6059,6100,15.45,4.06,40,76,0,0
5.0246e+05,2.686e+08,0,6110,6228,15.42,4.33,40,77,0,0
5.0292e+05,2.6872e+08,0,6214,6114,15.48,4.02,40,77,0,0
5.0336e+05,2.6883e+08,0,6107,6057,15.54,4.05,40,77,0,0
5.0377e+05,2.6894e+08,0,6081,6228,15.49,4.13,40,77,0,0
5.0417e+05,2.6903e+08,0,6229,6300,15.45,4.32,40,77,0,0
5.0466e+05,2.6915e+08,0,6291,6185,15.48,4.15,40,77,0,0
5.051e+05,2.6926e+08,0,6189,6228,15.47,4.32,40,77,0,0
5.0551e+05,2.6936e+08,0,6228,6285,15.5,4.39,40,77,0,0
5.06e+05,2.6948e+08,0,6286,6300,15.51,4.2,40,78,0,0
5.064e+05,2.6958e+08,0,6297,6271,15.5,4.24,40,78,0,0
5.0685e+05,2.6969e+08,0,6270,6257,15.48,4.27,40,78,0,0
5.0729e+05,2.698e+08,0,6256,6242,15.5,3.99,40,78,0,0
5.0822e+05,2.7002e+08,0,6243,6285,15.54,4.02,40,78,0,0
5.0867e+05,2.7014e+08,0,6274,6200,15.44,3.82,40,78,0,0
5.0912e+05,2.7024e+08,0,6203,6242,15.54,3.94,40,78,0,0
5.0952e+05,2.7035e+08,0,6223,5971,15.45,3.71,40,79,0,0
5.1037e+05,2.7056e+08,0,5972,6085,15.44,4.07,40,79,0,0
5.1131e+05,2.7078e+08,0,6087,6157,15.51,4.01,40,79,0,0
5.1176e+05,2.7089e+08,0,6146,6042,15.48,3.71,40,79,0,0
5.122e+05,2.71e+08,0,6046,6100,15.47,4.02,40,79,0,0
5.1265e+05,2.7111e+08,0,6106,6171,15.42,4.27,40,79,0,0
5.1305e+05,2.7121e+08,0,6188,6414,15.47,4.38,40,80,0,0
5.135e+05,2.7132e+08,0,6394,6185,15.48,4.14,40,80,0,0
5.1394e+05,2.7142e+08,0,6186,6228,15.43,4.61,40,80,0,0
5.1439e+05,2.7154e+08,0,6242,6428,15.44,4.45,40,80,0,0
5.1484e+05,2.7165e+08,0,6428,6428,15.38,4.61,40,80,0,0
5.1524e+05,2.7175e+08,0,6428,6442,15.44,4.56,40,80,0,0
5.1569e+05,2.7186e+08,0,6427,6228,15.43,4.26,40,80,0,0
5.1613e+05,2.7197e+08,0,6228,6228,15.44,3.95,40,81,0,0
5.1658e+05,2.7208e+08,0,6223,6157,15.38,4,40,81,0,0
5.1703e+05,2.7219e+08,0,6152,6114,15.39,4.15,40,81,0,0
5.1747e+05,2.723e+08,0,6117,6200,15.35,4.22,40,81,0,0
5.1788e+05,2.724e+08,0,6207,6271,15.41,4.38,40,81,0,0
5.1833e+05,2.7252e+08,0,6253,6100,15.42,4.09,40,81,0,0
5.1878e+05,2.7262e+08,0,6108,6228,15.44,4.07,40,81,0,0
5.1918e+05,2.7272e+08,0,6230,6314,15.45,4.04,40,81,0,0
5.1967e+05,2.7284e+08,0,6304,6214,15.43,4.15,40,81,0,0
5.2008e+05,2.7294e+08,0,6206,6042,15.49,3.92,40,82,0,0
5.2097e+05,2.7316e+08,0,6042,6114,15.45,3.75,40,82,0,0
5.2142e+05,2.7328e+08,0,6106,5928,15.47,3.78,40,82,0,0
5.219e+05,2.7339e+08,0,5928,5928,15.5,3.74,40,82,0,0
5.2235e+05,2.735e+08,0,5928,5928,15.5,3.66,40,82,0,0
5.2275e+05,2.736e+08,0,5926,5885,15.55,3.37,40,82,0,0
5.232e+05,2.7372e+08,0,5878,5814,15.45,3.76,40,82,0,0
5.2361e+05,2.7381e+08,0,5818,5900,15.5,3.67,40,83,0,0
5.2405e+05,2.7392e+08,0,5901,5971,15.45,3.75,40,83,0,0
5.245e+05,2.7403e+08,0,5974,6057,15.48,3.79,40,83,0,0
5.2499e+05,2.7415e+08,0,6044,5871,15.52,3.69,40,83,0,0
5.2544e+05,2.7426e+08,0,5891,6085,15.45,3.75,40,83,0,0
5.2583e+05,2.7436e+08,0,6083,6014,15.43,3.68,40,83,0,0
5.2629e+05,2.7447e+08,0,6014,6057,15.49,3.94,40,83,0,0
5.2674e+05,2.7458e+08,0,6059,6128,15.45,4.09,40,83,0,0
5.2722e+05,2.747e+08,0,6124,6100,15.51,4.14,40,83,0,0
5.2758e+05,2.7479e+08,0,6100,6100,15.48,4.01,40,84,0,0
5.2804e+05,2.749e+08,0,6094,5985,15.45,3.71,40,84,0,0
5.2848e+05,2.7501e+08,0,5995,6228,15.38,4.12,40,84,0,0
5.2894e+05,2.7512e+08,0,6221,6057,15.47,4.13,40,84,0,0
5.2942e+05,2.7523e+08,0,6054,6028,15.51,3.87,40,84,0,0
5.2982e+05,2.7533e+08,0,6028,6071,15.44,3.71,40,84,0,0
5.3027e+05,2.7544e+08,0,6066,5914,15.42,3.68,40,84,0,0
5.3072e+05,2.7555e+08,0,5914,5928,15.45,4.04,40,84,0,0
5.3121e+05,2.7567e+08,0,5951,6200,15.44,4.34,40,85,0,0
5.3162e+05,2.7577e+08,0,6199,6185,15.43,4.19,40,85,0,0
5.3207e+05,2.7588e+08,0,6184,6171,15.42,4.08,40,85,0,0
5.3251e+05,2.7599e+08,0,6167,6114,15.44,3.92,40,85,0,0
5.3295e+05,2.761e+08,0,6112,6057,15.45,3.81,40,85,0,0
5.3344e+05,2.7622e+08,0,6049,5971,15.47,3.86,40,85,0,0
5.3385e+05,2.7632e+08,0,5972,6014,15.39,3.93,40,85,0,0
5.3434e+05,2.7644e+08,0,5997,5842,15.47,3.58,40,85,0,0
5.3474e+05,2.7654e+08,0,5845,6071,15.47,3.84,40,85,0,0
5.3523e+05,2.7666e+08,0,6071,6071,15.41,4.05,40,86,0,0
5.3564e+05,2.7676e+08,0,6062,5957,15.41,3.89,40,86,0,0
5.3612e+05,2.7687e+08,0,5962,6028,15.43,3.68,40,86,0,0
5.3657e+05,2.7698e+08,0,6026,6000,15.48,3.78,40,86,0,0
5.3746e+05,2.7721e+08,0,6001,6028,15.48,3.93,40,86,0,0
5.379e+05,2.7732e+08,0,6030,6057,15.41,3.8,40,86,0,0
5.3883e+05,2.7754e+08,0,6059,6128,15.39,3.96,40,87,0,0
5.3927e+05,2.7765e+08,0,6134,6214,15.39,4.11,40,87,0,0
5.3972e+05,2.7776e+08,0,6208,6157,15.33,4.33,40,87,0,0
5.4013e+05,2.7786e+08,0,6169,6328,15.35,4.67,40,87,0,0
5.4058e+05,2.7797e+08,0,6329,6342,15.38,5.35,40,87,0,0
5.4102e+05,2.7807e+08,0,6339,6285,15.35,4,40,87,0,0
5.4151e+05,2.7819e+08,0,6290,6357,15.38,4.66,40,87,0,0
5.4196e+05,2.783e+08,0,6344,6228,15.43,4.34,40,88,0,0
5.4236e+05,2.784e+08,0,6232,6285,15.35,4.61,40,88,0,0
5.441e+05,2.7884e+08,0,6283,6171,15.5,3.97,40,88,0,0
5.4459e+05,2.7895e+08,0,6168,6142,15.46,3.99,40,88,0,0
5.4499e+05,2.7905e+08,0,6143,6228,15.42,3.99,40,88,0,0
5.4544e+05,2.7916e+08,0,6227,6214,15.37,3.99,40,89,0,0
5.4589e+05,2.7927e+08,0,6197,5971,15.42,3.92,40,89,0,0
5.463e+05,2.7937e+08,0,5972,6085,15.41,3.89,40,89,0,0
5.4678e+05,2.7949e+08,0,6081,6042,15.51,3.84,40,89,0,0
5.4723e+05,2.796e+08,0,6038,5985,15.47,3.64,40,89,0,0
5.4767e+05,2.7971e+08,0,5984,5971,15.45,3.39,40,89,0,0
5.4808e+05,2.7981e+08,0,5967,5828,15.44,3.48,40,89,0,0
5.4856e+05,2.7993e+08,0,5827,5814,15.54,3.45,40,89,0,0
5.4897e+05,2.8003e+08,0,5814,5857,15.45,3.66,40,89,0,0
5.4942e+05,2.8014e+08,0,5860,5914,15.44,3.86,40,89,0,0
5.4986e+05,2.8025e+08,0,5924,6057,15.42,4,40,90,0,0
5.5035e+05,2.8037e+08,0,6062,6128,15.43,4.21,40,90,0,0
5.508e+05,2.8047e+08,0,6130,6171,15.46,4.04,40,90,0,0
