LineNo,TimeUS,Instance,RPM,RawRPM,Volt,Curr,Temp,CTot,MotTemp,Err
1920,20037170,1,0,0,16.8,0.03,26,0,0,0
2341,20144151,1,0,0,16.8,0.03,26,0,0,0
2797,20261104,1,0,0,16.81,0.03,26,0,0,0
3201,20355648,1,0,0,16.81,0.03,27,0,0,0
3655,20470740,1,0,0,16.8,0.03,26,0,0,0
4063,20571633,1,0,0,16.8,0.03,26,0,0,0
4482,20678304,1,0,0,16.81,0.03,26,0,0,0
4895,20782396,1,0,0,16.8,0.03,27,0,0,0
5309,20886794,1,0,0,16.81,0.03,27,0,0,0
5764,21000360,1,0,0,16.8,0.03,26,0,0,0
6175,21103820,1,0,0,16.8,0.03,27,0,0,0
6583,21204157,1,0,0,16.8,0.03,27,0,0,0
7032,21315046,1,0,0,16.8,0.03,26,0,0,0
7441,21415059,1,0,0,16.8,0.03,26,0,0,0
7863,21524695,1,0,0,16.81,0.03,26,0,0,0
8718,21736580,1,0,0,16.8,0.03,26,0,0,0
9163,21847812,1,0,0,16.8,0.03,26,0,0,0
9466,21949162,1,0,0,16.81,0.03,26,0,0,0
9917,22059141,1,0,0,16.8,0.03,26,0,0,0
10332,22162902,1,0,0,16.81,0.03,26,0,0,0
10743,22266283,1,0,0,16.8,0.03,26,0,0,0
11201,22380325,1,0,0,16.81,0.03,26,0,0,0
11614,22480894,1,0,0,16.8,0.03,26,0,0,0
12021,22587763,1,0,0,16.8,0.03,27,0,0,0
12507,22702804,1,0,0,16.8,0.03,27,0,0,0
12883,22798298,1,0,0,16.8,0.03,27,0,0,0
13337,22913848,1,0,0,16.8,0.03,27,0,0,0
13751,23017568,1,0,0,16.8,0.03,27,0,0,0
14166,23119198,1,0,0,16.8,0.03,27,0,0,0
14580,23223672,1,0,0,16.8,0.03,26,0,0,0
15035,23334184,1,0,0,16.8,0.03,27,0,0,0
15450,23438642,1,0,0,16.8,0.03,26,0,0,0
15909,23552135,1,0,0,16.8,0.03,27,0,0,0
16312,23651107,1,0,0,16.8,0.03,27,0,0,0
16744,23761820,1,0,0,16.8,0.03,27,0,0,0
17201,23875046,1,0,0,16.8,0.03,26,0,0,0
17606,23971341,1,0,0,16.8,0.03,26,0,0,0
18067,24087172,1,0,0,16.8,0.03,27,0,0,0
18480,24190105,1,0,0,16.8,0.03,26,0,0,0
18890,24292207,1,0,0,16.8,0.03,26,0,0,0
19302,24396077,1,0,0,16.8,0.03,26,0,0,0
19759,24509730,1,0,0,16.8,0.03,27,0,0,0
20200,24621656,1,0,0,16.8,0.03,27,0,0,0
20577,24719218,1,0,0,16.8,0.03,27,0,0,0
21442,24935431,1,0,0,16.8,0.03,27,0,0,0
21853,25037718,1,0,0,16.8,0.03,27,0,0,0
22308,25154402,1,0,0,16.8,0.03,27,0,0,0
22722,25255117,1,0,0,16.8,0.03,26,0,0,0
23138,25359104,1,0,0,16.8,0.03,27,0,0,0
23594,25473582,1,0,0,16.8,0.03,27,0,0,0
24010,25577950,1,0,0,16.8,0.03,27,0,0,0
24422,25682681,1,0,0,16.8,0.03,26,0,0,0
24838,25786996,1,0,0,16.8,0.03,27,0,0,0
25261,25894602,1,0,0,16.8,0.03,27,0,0,0
25712,26006679,1,0,0,16.8,0.03,26,0,0,0
26124,26109682,1,0,0,16.8,0.03,27,0,0,0
26535,26209740,1,0,0,16.8,0.03,26,0,0,0
26990,26323626,1,0,0,16.8,0.03,27,0,0,0
27400,26424893,1,0,0,16.81,0.03,27,0,0,0
27818,26529050,1,0,0,16.8,0.03,27,0,0,0
28260,26634825,1,0,0,16.8,0.03,27,0,0,0
28713,26749720,1,0,0,16.8,0.03,26,0,0,0
29092,26845062,1,0,0,16.8,0.03,27,0,0,0
29542,26958249,1,0,0,16.8,0.03,27,0,0,0
29952,27059922,1,0,0,16.8,0.03,27,0,0,0
30400,27170968,1,0,0,16.8,0.03,27,0,0,0
30813,27275647,1,0,0,16.8,0.03,27,0,0,0
31230,27379406,1,0,0,16.81,0.03,26,0,0,0
31649,27484176,1,0,0,16.8,0.03,27,0,0,0
32096,27594949,1,0,0,16.8,0.03,26,0,0,0
32548,27706829,1,0,0,16.8,0.02,27,0,0,0
32962,27811056,1,0,0,16.8,0.02,27,0,0,0
33379,27915800,1,0,0,16.8,0.02,27,0,0,0
33790,28019943,1,0,0,16.8,0.03,27,0,0,0
34242,28134092,1,0,0,16.8,0.03,27,0,0,0
34654,28238090,1,0,0,16.8,0.03,27,0,0,0
35068,28341275,1,0,0,16.8,0.03,27,0,0,0
35509,28447888,1,0,0,16.8,0.03,27,0,0,0
35960,28559636,1,0,0,16.8,0.03,27,0,0,0
36373,28662151,1,0,0,16.81,0.03,27,0,0,0
36790,28773363,1,0,0,16.8,0.03,27,0,0,0
37200,28876115,1,0,0,16.8,0.03,27,0,0,0
38472,29190708,1,0,0,16.8,0.02,26,0,0,0
38890,29298834,1,0,0,16.8,0.02,27,0,0,0
39337,29409344,1,0,0,16.8,0.02,26,0,0,0
39749,29510127,1,0,0,16.8,0.02,26,0,0,0
40198,29621733,1,0,0,16.8,0.02,26,0,0,0
40642,29728327,1,0,0,16.8,0.03,27,0,0,0
41056,29829785,1,0,0,16.8,0.03,26,0,0,0
41515,29943964,1,0,0,16.8,0.03,27,0,0,0
41929,30047168,1,0,0,16.8,0.03,26,0,0,0
42348,30151731,1,0,0,16.8,0.02,26,0,0,0
42765,30256542,1,0,0,16.8,0.02,27,0,0,0
43226,30371083,1,0,0,16.8,0.02,26,0,0,0
43641,30472196,1,0,0,16.8,0.02,27,0,0,0
44055,30575329,1,0,0,16.8,0.03,27,0,0,0
44509,30687116,1,0,0,16.8,0.03,27,0,0,0
44930,30790925,1,0,0,16.8,0.02,27,0,0,0
45383,30901135,1,0,0,16.8,0.02,27,0,0,0
45797,31007280,1,0,0,16.8,0.02,27,0,0,0
46211,31111176,1,0,0,16.8,0.02,27,0,0,0
46631,31219350,1,0,0,16.8,0.02,27,0,0,0
47045,31319815,1,0,0,16.8,0.03,27,0,0,0
47489,31430775,1,0,0,16.8,0.02,27,0,0,0
47906,31536342,1,0,0,16.8,0.02,27,0,0,0
48318,31639107,1,0,0,16.8,0.02,27,0,0,0
48766,31750700,1,0,0,16.8,0.02,26,0,0,0
49626,31960099,1,0,0,16.8,0.03,27,0,0,0
50040,32064240,1,0,0,16.8,0.03,27,0,0,0
50493,32173914,1,0,0,16.8,0.03,27,0,0,0
50912,32277164,1,0,0,16.8,0.03,27,0,0,0
51324,32383803,1,0,0,16.8,0.03,27,0,0,0
51767,32490579,1,0,0,16.8,0.02,27,0,0,0
52592,32701448,1,0,0,16.8,0.03,27,0,0,0
53047,32816835,1,0,0,16.8,0.03,27,0,0,0
53455,32917688,1,0,0,16.8,0.03,26,0,0,0
53865,33022771,1,0,0,16.8,0.03,27,0,0,0
54280,33126843,1,0,0,16.8,0.03,27,0,0,0
54766,33246947,1,0,0,16.8,0.03,27,0,0,0
55181,33354226,1,0,0,16.8,0.02,26,0,0,0
55591,33458354,1,0,0,16.8,0.02,26,0,0,0
56004,33562119,1,0,0,16.8,0.02,26,0,0,0
56292,50820289,1,0,0,16.81,0.03,26,0,0,0
56626,50907039,1,0,0,16.81,0.03,26,0,0,0
57041,51007749,1,0,0,16.81,0.03,26,0,0,0
57455,51114270,1,0,0,16.81,0.03,26,0,0,0
57912,51225205,1,0,0,16.81,0.03,26,0,0,0
58324,51330917,1,0,0,16.81,0.03,26,0,0,0
58736,51432330,1,0,0,16.81,0.03,26,0,0,0
59186,51544674,1,0,0,16.81,0.03,26,0,0,0
59604,51648951,1,0,0,16.81,0.03,26,0,0,0
60016,51754118,1,0,0,16.82,0.03,26,0,0,0
60471,51865916,1,0,0,16.81,0.03,26,0,0,0
60879,51966259,1,0,0,16.81,0.03,26,0,0,0
61333,52083656,1,0,0,16.81,0.03,26,0,0,0
61746,52186188,1,0,0,16.81,0.03,26,0,0,0
62158,52290101,1,0,0,16.81,0.03,26,0,0,0
62573,52391381,1,0,0,16.81,0.03,26,0,0,0
63021,52505666,1,0,0,16.81,0.03,26,0,0,0
63437,52609338,1,0,0,16.8,0.03,26,0,0,0
63852,52715730,1,0,0,16.81,0.03,26,0,0,0
64309,52830674,1,0,0,16.81,0.03,26,0,0,0
64691,52931659,1,0,0,16.81,0.03,26,0,0,0
65141,53038095,1,0,0,16.81,0.03,26,0,0,0
65557,53147242,1,0,0,16.81,0.03,26,0,0,0
65969,53247961,1,0,0,16.81,0.03,26,0,0,0
66455,53363853,1,0,0,16.82,0.03,26,0,0,0
66783,53464644,1,0,0,16.82,0.03,26,0,0,0
67193,53568873,1,0,0,16.81,0.03,26,0,0,0
67648,53680806,1,0,0,16.81,0.03,26,0,0,0
68059,53784280,1,0,0,16.81,0.03,26,0,0,0
68472,53888867,1,0,0,16.81,0.03,26,0,0,0
68928,53999900,1,0,0,16.81,0.03,26,0,0,0
69342,54106069,1,0,0,16.82,0.03,26,0,0,0
69755,54209102,1,0,0,16.81,0.03,26,0,0,0
70625,54429859,1,0,0,16.81,0.03,26,0,0,0
71008,54531097,1,0,0,16.81,0.03,26,0,0,0
71462,54641618,1,0,0,16.8,0.03,26,0,0,0
71874,54746047,1,0,0,16.81,0.03,26,0,0,0
72290,54850687,1,0,0,16.81,0.03,26,0,0,0
72708,54958346,1,0,0,16.81,0.03,26,0,0,0
73122,55060049,1,0,0,16.81,0.03,26,0,0,0
73542,55169600,1,0,0,16.81,0.03,26,0,0,0
74000,55282682,1,0,0,16.81,0.03,26,0,0,0
74410,55384682,1,0,0,16.81,0.03,26,0,0,0
74824,55489089,1,0,0,16.81,0.03,26,0,0,0
75279,55601594,1,0,0,16.81,0.03,26,0,0,0
75695,55709787,1,0,0,16.8,0.03,26,0,0,0
76109,55811071,1,0,0,16.81,0.03,26,0,0,0
76560,55921869,1,0,0,16.81,0.03,26,0,0,0
76976,56027174,1,0,0,16.8,0.03,26,0,0,0
77394,56135958,1,0,0,16.81,0.03,26,0,0,0
77807,56238874,1,0,0,16.81,0.03,26,0,0,0
78257,56351566,1,0,0,16.81,0.03,26,0,0,0
78642,56452839,1,0,0,16.81,0.03,26,0,0,0
79097,56569063,1,0,0,16.81,0.03,26,0,0,0
79513,56670164,1,0,0,16.81,0.03,26,0,0,0
79925,56778664,1,0,0,16.81,0.03,26,0,0,0
80343,56882592,1,0,0,16.81,0.03,26,0,0,0
80794,56994060,1,0,0,16.81,0.03,26,0,0,0
81207,57100652,1,0,0,16.81,0.03,26,0,0,0
81624,57204089,1,0,0,16.81,0.03,26,0,0,0
82073,57318856,1,0,0,16.81,0.03,26,0,0,0
82487,57420848,1,0,0,16.81,0.03,26,0,0,0
82899,57526859,1,0,0,16.81,0.03,26,0,0,0
83355,57639714,1,0,0,16.81,0.03,26,0,0,0
83770,57743944,1,0,0,16.81,0.03,26,0,0,0
84183,57844178,1,0,0,16.81,0.03,26,0,0,0
84640,57958785,1,0,0,16.8,0.03,26,0,0,0
85027,58061264,1,0,0,16.81,0.03,26,0,0,0
85435,58163177,1,0,0,16.8,0.03,26,0,0,0
85894,58279258,1,0,0,16.81,0.03,26,0,0,0
86308,58382088,1,0,0,16.81,0.03,26,0,0,0
86757,58493174,1,0,0,16.81,0.03,26,0,0,0
87174,58597617,1,0,0,16.81,0.03,26,0,0,0
87594,58707918,1,0,0,16.81,0.03,26,0,0,0
88009,58808068,1,0,0,16.8,0.03,26,0,0,0
88423,58916672,1,0,0,16.81,0.03,26,0,0,0
88879,59031146,1,0,0,16.8,0.03,26,0,0,0
89327,59144711,1,0,0,16.81,0.03,26,0,0,0
89742,59249039,1,0,0,16.81,0.03,26,0,0,0
90152,59349867,1,0,0,16.8,0.03,26,0,0,0
90606,59462388,1,0,0,16.8,0.03,26,0,0,0
91020,59565968,1,0,0,16.81,0.03,26,0,0,0
91474,59679351,1,0,0,16.81,0.03,26,0,0,0
91885,59782359,1,0,0,16.81,0.03,26,0,0,0
92341,59900926,1,0,0,16.81,0.03,26,0,0,0
92718,59993185,1,0,0,16.81,0.03,26,0,0,0
93182,60109629,1,0,0,16.81,0.03,26,0,0,0
93596,60210717,1,0,0,16.8,0.03,26,0,0,0
94008,60317146,1,0,0,16.81,0.03,26,0,0,0
94466,60433053,1,0,0,16.81,0.03,26,0,0,0
94876,60534275,1,0,0,16.81,0.03,26,0,0,0
95333,60646864,1,0,0,16.8,0.03,26,0,0,0
95744,60750667,1,0,0,16.81,0.03,26,0,0,0
96157,60851933,1,0,0,16.81,0.03,26,0,0,0
96609,60962612,1,0,0,16.81,0.03,26,0,0,0
97441,61172876,1,0,0,16.81,0.03,26,0,0,0
97892,61285845,1,0,0,16.81,0.03,26,0,0,0
98309,61387629,1,0,0,16.81,0.03,26,0,0,0
98718,61488898,1,0,0,16.81,0.03,26,0,0,0
99131,61601635,1,0,0,16.81,0.03,26,0,0,0
99543,61707187,1,0,0,16.81,0.03,26,0,0,0
99960,61812073,1,0,0,16.81,0.03,26,0,0,0
100412,61926869,1,0,0,16.81,0.03,26,0,0,0
100828,62030352,1,0,0,16.81,0.03,26,0,0,0
101241,62136587,1,0,0,16.81,0.03,26,0,0,0
101699,62248730,1,0,0,16.8,0.03,26,0,0,0
102115,62354578,1,0,0,16.8,0.03,26,0,0,0
102528,62456839,1,0,0,16.81,0.03,26,0,0,0
102945,62563898,1,0,0,16.81,0.03,26,0,0,0
103361,62666120,1,0,0,16.81,0.03,26,0,0,0
103841,62783111,1,0,0,16.81,0.03,26,0,0,0
104250,62885698,1,0,0,16.81,0.03,26,0,0,0
104668,62988678,1,0,0,16.81,0.03,26,0,0,0
105120,63101356,1,0,0,16.81,0.03,26,0,0,0
105533,63203105,1,0,0,16.81,0.03,26,0,0,0
105985,63318085,1,0,0,16.81,0.03,26,0,0,0
106403,63421907,1,0,0,16.8,0.03,26,0,0,0
106814,63526130,1,0,0,16.81,0.03,26,0,0,0
107267,63638846,1,0,0,16.8,0.03,26,0,0,0
107679,63742561,1,0,0,16.81,0.03,26,0,0,0
108133,63853677,1,0,0,16.81,0.03,26,0,0,0
108546,63957905,1,0,0,16.81,0.03,26,0,0,0
108962,64059156,1,0,0,16.81,0.03,26,0,0,0
109382,64170127,1,0,0,16.8,0.03,26,0,0,0
109790,64272264,1,0,0,16.81,0.03,26,0,0,0
110247,64386192,1,0,0,16.81,0.03,26,0,0,0
110657,64488386,1,0,0,16.81,0.03,26,0,0,0
111080,64593925,1,0,0,16.81,0.03,26,0,0,0
111533,64708399,1,0,0,16.81,0.03,26,0,0,0
111947,64809719,1,0,0,16.8,0.03,26,0,0,0
112777,65018737,1,0,0,16.81,0.03,26,0,0,0
113232,65133631,1,0,0,16.8,0.03,26,0,0,0
113645,65234165,1,0,0,16.8,0.03,26,0,0,0
114096,65348789,1,0,0,16.81,0.03,26,0,0,0
114513,65453438,1,0,0,16.81,0.03,26,0,0,0
115343,65663387,1,0,0,16.8,0.03,26,0,0,0
115756,65769867,1,0,0,16.81,0.03,26,0,0,0
115975,104864907,1,0,0,16.81,0.03,26,0,0,0
116292,104942736,1,0,0,16.82,0.03,26,0,0,0
116752,105048365,1,0,0,16.81,0.02,26,0,0,0
117208,105156157,1,0,0,16.8,0.02,26,0,0,0
117711,105267564,1,0,0,16.8,0.03,26,0,0,0
118166,105373086,1,0,0,16.81,0.03,26,0,0,0
118615,105474184,1,0,0,16.81,0.03,26,0,0,0
119073,105581779,1,0,0,16.81,0.02,26,0,0,0
119531,105690151,1,0,0,16.81,0.02,26,0,0,0
119984,105791999,1,0,0,16.81,0.03,26,0,0,0
120514,105909789,1,0,0,16.8,0.03,26,0,0,0
120967,106011128,1,0,0,16.81,0.03,26,0,0,0
121419,106117169,1,0,0,16.81,0.02,26,0,0,0
121917,106228197,1,0,0,16.81,0.02,26,0,0,0
122374,106335156,1,0,0,16.81,0.02,26,0,0,0
122826,106437337,1,0,0,16.8,0.03,26,0,0,0
123284,106547659,1,0,0,16.81,0.03,26,0,0,0
123747,106655717,1,0,0,16.8,0.03,26,0,0,0
124198,106760601,1,0,0,16.8,0.03,26,0,0,0
124698,106872673,1,0,0,16.8,0.03,26,0,0,0
125153,106980847,1,17,200,16.8,0.03,26,0,0,0
125644,107090595,1,238,528,16.79,0.07000000000000001,26,0,0,0
126098,107193745,1,554,942,16.78,0.14,26,0,0,0
126592,107306829,1,965,1228,16.78,0.12,26,0,0,0
127044,107409050,1,1231,1285,16.8,0.11,26,0,0,0
127822,107625320,1,1314,1328,16.79,0.11,26,0,0,0
128276,107730144,1,1328,1342,16.79,0.09999999,26,0,0,0
128730,107832686,1,1341,1328,16.79,0.09999999,26,0,0,0
129224,107945277,1,1328,1342,16.79,0.09999999,26,0,0,0
129682,108050341,1,1342,1342,16.8,0.09999999,26,0,0,0
130139,108158706,1,1342,1342,16.79,0.09999999,26,0,0,0
130641,108274895,1,1342,1342,16.8,0.09999999,26,0,0,0
131096,108379082,1,1343,1357,16.79,0.09999999,26,0,0,0
131549,108486894,1,1355,1342,16.79,0.09999999,26,0,0,0
132003,108590097,1,1342,1342,16.79,0.09999999,26,0,0,0
132457,108696171,1,1342,1357,16.79,0.09999999,26,0,0,0
132853,108811554,1,1357,1357,16.79,0.09999999,26,0,0,0
133305,108919082,1,1355,1342,16.79,0.09999999,26,0,0,0
133759,109022565,1,1342,1342,16.79,0.09999999,26,0,0,0
134178,109124931,1,1342,1342,16.79,0.11,26,0,0,0
134674,109236860,1,1343,1357,16.79,0.09999999,26,0,0,0
135128,109340300,1,1357,1357,16.79,0.09999999,26,0,0,0
135626,109452331,1,1357,1357,16.79,0.09999999,26,0,0,0
136078,109558209,1,1355,1342,16.79,0.09999999,26,0,0,0
136534,109660093,1,1342,1342,16.79,0.09999999,26,0,0,0
136957,109765194,1,1342,1357,16.79,0.09999999,26,0,0,0
137456,109876139,1,1356,1342,16.79,0.09999999,26,0,0,0
137949,109989356,1,1343,1357,16.79,0.09999999,26,0,0,0
138403,110094712,1,1357,1357,16.79,0.09999999,26,0,0,0
138860,110198897,1,1357,1371,16.79,0.09999999,26,0,0,0
139312,110304951,1,1370,1357,16.79,0.09999999,26,0,0,0
139815,110418097,1,1357,1357,16.79,0.09999999,26,0,0,0
140267,110523238,1,1357,1357,16.78,0.09999999,26,0,0,0
140768,110634946,1,1357,1357,16.79,0.09999999,26,0,0,0
141217,110738301,1,1357,1357,16.79,0.09999999,26,0,0,0
142162,110950625,1,1357,1357,16.79,0.09999999,26,0,0,0
142660,111061313,1,1357,1357,16.78,0.09999999,26,0,0,0
143110,111166888,1,1355,1342,16.79,0.09999999,26,0,0,0
143563,111269724,1,1342,1357,16.79,0.09999999,26,0,0,0
144015,111373298,1,1356,1342,16.79,0.09999999,26,0,0,0
144548,111488323,1,1343,1357,16.79,0.09999999,26,0,0,0
145001,111594083,1,1355,1342,16.79,0.09999999,26,0,0,0
145905,111802121,1,1342,1357,16.79,0.09999999,26,0,0,0
146404,111918105,1,1357,1357,16.78,0.09999999,26,0,0,0
146864,112022199,1,1357,1357,16.79,0.09999999,26,0,0,0
147279,112120833,1,1356,1342,16.79,0.09999999,26,0,0,0
147778,112235997,1,1282,414,16.81,0,26,0,0,0
148232,112344287,1,405,171,16.8,0.02,26,0,0,0
148688,112447821,1,169,0,16.8,0.02,26,0,0,0
149217,112567318,1,0,0,16.8,0.02,26,0,0,0
149674,112671604,1,0,0,16.8,0.02,26,0,0,0
150129,112781139,1,0,0,16.8,0.03,26,0,0,0
150620,112891270,1,0,0,16.8,0.02,26,0,0,0
151073,112994629,1,0,0,16.8,0.02,26,0,0,0
152027,113216638,1,0,0,16.8,0.02,26,0,0,0
152475,113319475,1,0,0,16.8,0.02,26,0,0,0
152930,113425904,1,0,0,16.8,0.02,26,0,0,0
153387,113535556,1,0,0,16.8,0.03,26,0,0,0
153843,113641836,1,0,0,16.81,0.03,26,0,0,0
154260,113746876,1,0,0,16.8,0.03,26,0,0,0
154748,113856798,1,0,0,16.8,0.03,26,0,0,0
155241,113973176,1,0,0,16.8,0.03,26,0,0,0
155664,114078342,1,0,0,16.81,0.03,26,0,0,0
156118,114183841,1,0,0,16.8,0.03,26,0,0,0
157062,114403588,1,0,0,16.8,0.03,26,0,0,0
157517,114510072,1,0,0,16.8,0.03,26,0,0,0
158019,114623855,1,0,0,16.81,0.03,26,0,0,0
158468,114728831,1,0,0,16.8,0.03,26,0,0,0
158924,114833864,1,0,0,16.8,0.03,26,0,0,0
159417,114946075,1,0,0,16.8,0.03,26,0,0,0
159871,115050702,1,0,0,16.81,0.03,26,0,0,0
160370,115167589,1,0,0,16.8,0.03,26,0,0,0
160826,115272192,1,0,0,16.8,0.03,26,0,0,0
161277,115379046,1,0,0,16.81,0.03,26,0,0,0
161732,115482319,1,0,0,16.8,0.03,26,0,0,0
162234,115602150,1,0,0,16.8,0.03,26,0,0,0
162642,115697696,1,0,0,16.8,0.03,26,0,0,0
163139,115811116,1,0,0,16.8,0.03,26,0,0,0
163590,115919082,1,0,0,16.8,0.03,26,0,0,0
164085,116031840,1,0,0,16.81,0.03,26,0,0,0
164539,116139885,1,0,0,16.8,0.03,26,0,0,0
164993,116244630,1,0,0,16.8,0.03,26,0,0,0
165442,116348955,1,0,0,16.8,0.03,26,0,0,0
165939,116461771,1,0,0,16.8,0.03,26,0,0,0
166393,116569810,1,0,0,16.8,0.03,26,0,0,0
166895,116690856,1,0,0,16.8,0.03,26,0,0,0
167302,116784064,1,0,0,16.8,0.03,26,0,0,0
167754,116892782,1,0,0,16.8,0.03,26,0,0,0
168210,116998139,1,0,0,16.8,0.03,26,0,0,0
168711,117116839,1,0,0,16.8,0.03,26,0,0,0
169163,117219720,1,0,0,16.8,0.03,26,0,0,0
169615,117329817,1,0,0,16.8,0.03,26,0,0,0
170068,117433601,1,0,0,16.8,0.03,26,0,0,0
170521,117540683,1,0,0,16.8,0.03,26,0,0,0
171021,117654708,1,0,0,16.81,0.03,26,0,0,0
171467,117756902,1,0,0,16.8,0.02,26,0,0,0
171963,117869661,1,0,0,16.8,0.03,26,0,0,0
172416,117976057,1,0,0,16.8,0.03,26,0,0,0
172871,118080182,1,0,0,16.8,0.03,26,0,0,0
173320,118187929,1,0,0,16.8,0.03,26,0,0,0
173772,118295129,1,0,0,16.8,0.03,26,0,0,0
174268,118408677,1,0,0,16.8,0.03,26,0,0,0
174765,118523931,1,0,0,16.8,0.03,26,0,0,0
175220,118628099,1,0,0,16.8,0.03,26,0,0,0
175676,118732937,1,0,0,16.8,0.03,26,0,0,0
176130,118837348,1,0,0,16.8,0.03,26,0,0,0
176583,118943788,1,0,0,16.81,0.03,26,0,0,0
177081,119056595,1,0,0,16.81,0.03,26,0,0,0
177536,119165610,1,0,0,16.8,0.03,26,0,0,0
177988,119267771,1,0,0,16.8,0.03,26,0,0,0
178446,119379599,1,0,0,16.8,0.02,26,0,0,0
178904,119483863,1,0,0,16.8,0.03,26,0,0,0
179355,119590138,1,0,0,16.81,0.03,26,0,0,0
179856,119704725,1,0,0,16.81,0.03,26,0,0,0
180276,119808072,1,0,0,16.8,0.03,26,0,0,0
180725,119912829,1,0,0,16.81,0.03,26,0,0,0
181224,120026269,1,0,0,16.8,0.03,26,0,0,0
181718,120142037,1,0,0,16.8,0.03,26,0,0,0
182171,120245335,1,0,0,16.8,0.03,26,0,0,0
182670,120362602,1,0,0,16.8,0.02,26,0,0,0
183079,120456801,1,0,0,16.8,0.02,26,0,0,0
183578,120572685,1,0,0,16.81,0.03,26,0,0,0
184032,120681344,1,0,0,16.8,0.03,26,0,0,0
184491,120787868,1,0,0,16.81,0.03,26,0,0,0
184905,120888892,1,0,0,16.81,0.03,26,0,0,0
185405,121001297,1,0,0,16.81,0.03,26,0,0,0
186311,121213125,1,0,0,16.8,0.02,26,0,0,0
186766,121320824,1,0,0,16.8,0.03,26,0,0,0
187260,121435065,1,0,0,16.8,0.02,26,0,0,0
187711,121540062,1,0,0,16.8,0.02,26,0,0,0
188163,121643691,1,0,0,16.8,0.02,26,0,0,0
188626,121756822,1,0,0,16.8,0.02,26,0,0,0
189080,121859343,1,0,0,16.8,0.02,26,0,0,0
189569,121972306,1,0,0,16.8,0.02,26,0,0,0
190065,122086335,1,0,0,16.8,0.03,26,0,0,0
190525,122191660,1,0,0,16.8,0.03,26,0,0,0
190976,122296818,1,0,0,16.8,0.03,26,0,0,0
191474,122411284,1,0,0,16.81,0.03,26,0,0,0
191925,122514740,1,0,0,16.81,0.02,26,0,0,0
192380,122619606,1,0,0,16.8,0.03,26,0,0,0
192834,122726322,1,0,0,16.8,0.03,26,0,0,0
193331,122838730,1,0,0,16.8,0.03,26,0,0,0
193782,122945187,1,0,0,16.8,0.03,26,0,0,0
194239,123049703,1,0,0,16.8,0.03,26,0,0,0
194695,123160069,1,0,0,16.8,0.03,26,0,0,0
195195,123276053,1,0,0,16.8,0.02,26,0,0,0
195644,123379858,1,0,0,16.8,0.02,26,0,0,0
196099,123487122,1,0,0,16.81,0.03,26,0,0,0
196599,123603609,1,0,0,16.81,0.03,26,0,0,0
197012,123701109,1,0,0,16.8,0.03,26,0,0,0
197509,123816474,1,0,0,16.81,0.03,26,0,0,0
197965,123924572,1,0,0,16.8,0.03,26,0,0,0
198421,124027621,1,0,0,16.82,0.03,26,0,0,0
198915,124144304,1,0,0,16.8,0.03,26,0,0,0
200321,124472721,1,0,0,16.8,0.03,26,0,0,0
200776,124581559,1,0,0,16.81,0.02,26,0,0,0
201232,124692138,1,0,0,16.81,0.03,26,0,0,0
201688,124799874,1,0,0,16.81,0.03,26,0,0,0
202105,124899815,1,0,0,16.8,0.03,26,0,0,0
202603,125013316,1,0,0,16.8,0.03,26,0,0,0
203054,125121325,1,0,0,16.81,0.03,26,0,0,0
203507,125225844,1,0,0,16.81,0.03,26,0,0,0
204001,125339289,1,0,0,16.81,0.03,26,0,0,0
204456,125446092,1,0,0,16.8,0.03,26,0,0,0
204913,125554356,1,0,0,16.8,0.03,26,0,0,0
205409,125668362,1,0,0,16.81,0.02,26,0,0,0
205820,125768868,1,0,0,16.8,0.02,26,0,0,0
206282,125884343,1,0,0,16.81,0.03,26,0,0,0
206741,125990911,1,0,0,16.8,0.03,26,0,0,0
207238,126108095,1,0,0,16.8,0.02,26,0,0,0
207690,126212930,1,0,0,16.8,0.02,26,0,0,0
208145,126321658,1,0,0,16.8,0.03,26,0,0,0
208598,126424179,1,0,0,16.8,0.03,26,0,0,0
209051,126531089,1,0,0,16.8,0.03,26,0,0,0
209552,126647846,1,0,0,16.8,0.02,26,0,0,0
209971,126751828,1,0,0,16.8,0.02,26,0,0,0
210423,126854599,1,0,0,16.8,0.03,26,0,0,0
210921,126966594,1,0,0,16.8,0.02,26,0,0,0
211422,127078320,1,0,0,16.8,0.02,26,0,0,0
211612,197669102,1,0,0,16.79,0.03,27,1,0,0
211963,197747596,1,0,0,16.79,0.03,27,1,0,0
212376,197843802,1,0,0,16.8,0.02,27,1,0,0
212882,197964547,1,0,0,16.79,0.02,27,1,0,0
213339,198068371,1,0,0,16.79,0.02,27,1,0,0
213787,198170312,1,0,0,16.8,0.02,27,1,0,0
214285,198287801,1,0,0,16.8,0.02,27,1,0,0
214737,198384063,1,0,0,16.79,0.02,27,1,0,0
215189,198489206,1,0,0,16.79,0.02,27,1,0,0
215654,198601631,1,0,0,16.8,0.02,27,1,0,0
216102,198704546,1,0,0,16.79,0.02,27,1,0,0
216597,198816299,1,0,0,16.79,0.03,27,1,0,0
217055,198922310,1,0,0,16.8,0.03,27,1,0,0
217506,199023584,1,0,0,16.79,0.02,27,1,0,0
218004,199138062,1,0,0,16.79,0.02,27,1,0,0
218461,199241945,1,0,0,16.79,0.02,27,1,0,0
218915,199348041,1,0,0,16.79,0.02,27,1,0,0
219373,199451176,1,0,0,16.79,0.02,27,1,0,0
219867,199563698,1,0,0,16.79,0.02,27,1,0,0
220327,199669769,1,0,0,16.79,0.02,27,1,0,0
220780,199776864,1,13,157,16.79,0.01,27,1,0,0
221235,199878096,1,172,542,16.77,0.06,27,1,0,0
221690,199984669,1,547,957,16.75,0.13,27,1,0,0
222174,200090236,1,962,1214,16.77,0.12,27,1,0,0
222674,200204789,1,1219,1285,16.77,0.09999999,27,1,0,0
223126,200309688,1,1286,1328,16.77,0.09999999,27,1,0,0
223540,200422303,1,1328,1342,16.77,0.09999999,27,1,0,0
223997,200526812,1,1343,1357,16.77,0.09999999,27,1,0,0
224449,200628947,1,1357,1357,16.78,0.09,28,1,0,0
225405,200847745,1,1357,1357,16.78,0.09999999,27,1,0,0
225817,200945765,1,1357,1357,16.77,0.09999999,27,1,0,0
226313,201057730,1,1357,1357,16.77,0.09999999,27,1,0,0
226769,201163879,1,1357,1357,16.77,0.09999999,27,1,0,0
227267,201275609,1,1355,1342,16.77,0.09999999,27,1,0,0
227722,201380361,1,1343,1357,16.77,0.09,28,1,0,0
228174,201484351,1,1357,1357,16.77,0.09,27,1,0,0
228672,201596282,1,1357,1357,16.77,0.09999999,27,1,0,0
229124,201701255,1,1357,1357,16.77,0.09999999,27,1,0,0
229580,201805641,1,1357,1357,16.77,0.09,27,1,0,0
230039,201912176,1,1357,1357,16.77,0.09,27,1,0,0
230491,202012073,1,1357,1357,16.77,0.09999999,28,1,0,0
230986,202123762,1,1357,1357,16.77,0.09,27,1,0,0
231443,202226809,1,1357,1357,16.77,0.09,27,1,0,0
231944,202345762,1,1357,1357,16.77,0.09,27,1,0,0
232362,202441372,1,1357,1371,16.77,0.09,28,1,0,0
232857,202557088,1,1369,1357,16.77,0.09,28,1,0,0
233313,202660306,1,1357,1357,16.77,0.09999999,28,1,0,0
233807,202769302,1,1357,1357,16.77,0.09,27,1,0,0
234263,202870683,1,1357,1357,16.77,0.09,28,1,0,0
235030,203087158,1,1357,1357,16.77,0.09,27,1,0,0
235922,203299101,1,1357,1357,16.77,0.09999999,27,1,0,0
236385,203405575,1,1357,1357,16.78,0.09,28,1,0,0
236839,203512816,1,1357,1357,16.77,0.09,27,1,0,0
237302,203621921,1,1357,1357,16.77,0.09,28,1,0,0
237751,203723166,1,1357,1357,16.77,0.09,28,1,0,0
238250,203834152,1,1357,1357,16.77,0.09999999,28,1,0,0
238707,203941604,1,1357,1357,16.78,0.09,28,1,0,0
239161,204042055,1,1357,1414,16.76,0.16,27,1,0,0
239651,204151951,1,1428,1757,16.5,0.51,28,1,0,0
240564,204364115,1,1784,5800,15.8,4.71,28,1,0,0
241063,204475844,1,5814,5971,15.89,3.7,28,1,0,0
241512,204578274,1,5970,5928,15.86,3.47,28,2,0,0
242044,204697468,1,5938,6000,16.11,2.65,28,2,0,0
242458,204792811,1,5960,5028,16.32,1,28,2,0,0
242917,204901569,1,5013,4685,16.22,1.4,28,2,0,0
243386,205012702,1,4681,4642,16.26,1.48,28,2,0,0
243835,205113350,1,4634,4471,16.25,1.29,28,2,0,0
244326,205219288,1,4473,4528,16.23,1.47,28,2,0,0
244786,205325658,1,4526,4428,15.97,1.49,28,2,0,0
245285,205436954,1,4472,4928,16.01,2.32,28,2,0,0
245737,205542110,1,4934,5042,16.01,2.35,28,2,0,0
246236,205655082,1,5043,5057,16.11,2.02,28,2,0,0
246683,205754310,1,5047,4814,16.2,1.43,28,2,0,0
247180,205867552,1,4828,5028,16.13,2.28,28,2,0,0
247591,205963952,1,5023,4742,16.14,1.49,28,2,0,0
248127,206077857,1,4737,4671,16.14,1.62,28,2,0,0
248580,206185833,1,4675,4742,16.07,1.78,28,2,0,0
249071,206295106,1,4744,4771,16.14,1.85,28,2,0,0
249981,206504579,1,4774,4871,16.1,1.92,28,3,0,0
250431,206611368,1,4879,5014,16.14,2.07,28,3,0,0
250876,206719909,1,5013,5000,16.17,1.77,28,3,0,0
251331,206825706,1,4997,4942,16.14,1.94,28,3,0,0
251782,206935664,1,4939,4871,16.22,1.37,28,3,0,0
252232,207042748,1,4864,4471,16.51,1.41,28,3,0,0
252718,207156794,1,4367,3300,16.43,0.39,28,3,0,0
253169,207264161,1,3353,3885,16.23,2.58,28,3,0,0
253612,207370841,1,3935,4657,16.23,1.61,28,3,0,0
254104,207489170,1,4642,4542,16.23,1.52,28,3,0,0
254507,207586657,1,4545,4742,16.21,1.89,28,3,0,0
254963,207702242,1,4731,4585,16.15,1.3,28,3,0,0
255412,207808083,1,4582,4457,16.09,1.29,28,3,0,0
256309,208030551,1,4457,4500,16.08,1.56,28,3,0,0
256748,208137678,1,4513,4757,16.07,1.57,28,3,0,0
257201,208247673,1,4753,4671,16.07,1.49,28,3,0,0
257648,208358767,1,4668,4471,16.12,1.09,28,3,0,0
258140,208480105,1,4459,4342,16.09,1.21,28,3,0,0
258547,208583884,1,4347,4400,16.13,1.27,28,3,0,0
258953,208690392,1,4402,4457,16.13,1.33,28,3,0,0
259439,208803224,1,4456,4442,16.11,1.33,28,4,0,0
259845,208907646,1,4444,4557,16.11,1.35,28,4,0,0
260336,209024343,1,4548,4457,16.14,1.25,28,4,0,0
260742,209130938,1,4441,4285,16.11,0.98,28,4,0,0
261190,209237657,1,4270,4085,16.18,0.95,28,4,0,0
261637,209348107,1,4092,4171,16.16,1.12,28,4,0,0
262084,209455962,1,4161,4042,16.17,1.22,28,4,0,0
262487,209558627,1,4042,4071,16.07,1.48,28,4,0,0
262982,209676359,1,4066,4028,16.07,2,28,4,0,0
263380,209775995,1,4031,4214,15.97,2.1,28,4,0,0
263872,209889142,1,4215,4257,16.07,1.4,28,4,0,0
264318,210003869,1,4264,4314,16.07,1.16,28,4,0,0
264718,210101605,1,4312,4285,16.11,1.12,28,4,0,0
265168,210212736,1,4280,4200,16.1,1.19,28,4,0,0
265614,210326693,1,4212,4357,16.09,1.34,28,4,0,0
266069,210436601,1,4365,4485,16.05,1.42,28,4,0,0
266472,210536850,1,4483,4414,16.06,1.47,28,4,0,0
266959,210649135,1,4422,4542,16.07,1.28,28,4,0,0
267405,210766597,1,4532,4457,16.08,1.26,28,4,0,0
267861,210881884,1,4462,4514,16.07,1.34,28,4,0,0
268267,210976084,1,4510,4442,16.12,1.27,28,4,0,0
268713,211087380,1,4452,4642,16.08,1.66,28,4,0,0
269609,211308181,1,4642,4642,16.05,1.62,28,5,0,0
270017,211406088,1,4645,4700,16.01,1.57,28,5,0,0
270424,211511592,1,4697,4542,16.04,1.36,28,5,0,0
270914,211627333,1,4551,4642,16.02,1.57,28,5,0,0
271363,211741870,1,4643,4657,16.08,1.44,28,5,0,0
271814,211854171,1,4650,4585,16.04,1.28,28,5,0,0
272672,212065911,1,4585,4600,16.05,1.47,28,5,0,0
273120,212178955,1,4598,4585,16,1.32,28,5,0,0
273526,212277138,1,4577,4457,16.04,1.27,28,5,0,0
273973,212391200,1,4448,4371,16,1.34,28,5,0,0
274418,212500608,1,4379,4557,16.01,1.39,28,5,0,0
274869,212608129,1,4555,4528,16.08,1.49,28,5,0,0
275316,212724797,1,4528,4528,16.05,2.05,28,5,0,0
276164,212930850,1,4521,4242,16.06,0.91,28,5,0,0
276617,213038902,1,4245,4328,15.99,1.45,28,5,0,0
277067,213155676,1,4348,4557,15.98,1.71,28,5,0,0
277514,213262894,1,4587,4885,15.95,2.02,28,5,0,0
277951,213362739,1,4887,4971,15.94,2.09,28,5,0,0
278404,213475229,1,4973,5171,16.02,1.88,28,5,0,0
278849,213587859,1,5168,5128,15.98,1.76,28,5,0,0
279300,213704285,1,5108,4928,16.05,1.59,28,6,0,0
279710,213805839,1,4918,4785,16.04,1.53,28,6,0,0
280114,213907191,1,4784,4771,16.01,1.65,28,6,0,0
280606,214024162,1,4784,4928,15.99,2.01,28,6,0,0
281042,214127941,1,4925,4871,16.05,1.83,28,6,0,0
281491,214235782,1,4886,5185,16,2.32,28,6,0,0
282389,214454276,1,5185,5271,15.97,2.3,28,6,0,0
282837,214567162,1,5271,5271,15.98,2.07,28,6,0,0
283290,214675597,1,5276,5328,15.95,2.28,28,6,0,0
283691,214777700,1,5323,5228,15.92,2.19,28,6,0,0
284138,214886563,1,5237,5457,15.91,2.89,28,6,0,0
284587,214996960,1,5466,5657,15.91,2.78,28,6,0,0
285045,215114315,1,5648,5528,15.92,2.39,28,6,0,0
285457,215216798,1,5501,4857,15.91,1.05,28,6,0,0
285943,215330819,1,4906,5557,15.95,2.79,28,6,0,0
286392,215439170,1,5528,5242,15.97,2.24,28,7,0,0
286839,215550079,1,5237,5185,15.94,1.98,28,7,0,0
287285,215655738,1,5179,4857,15.98,1.7,28,7,0,0
287731,215765869,1,4861,4942,15.97,1.95,28,7,0,0
288627,215985069,1,4948,5257,15.9,2.41,28,7,0,0
289118,216106669,1,5269,5414,15.92,2.39,28,7,0,0
289568,216216263,1,5414,5414,15.92,2.19,28,7,0,0
289978,216315754,1,5411,5285,15.96,2.04,29,7,0,0
290427,216424171,1,5273,5128,15.92,1.74,28,7,0,0
290831,216530071,1,5131,5171,15.95,2.17,28,7,0,0
291276,216636869,1,5174,5242,15.9,2.24,28,7,0,0
291729,216751642,1,5232,5128,15.88,2.02,28,7,0,0
292178,216861613,1,5125,5100,15.91,1.89,28,7,0,0
292587,216967860,1,5093,5000,15.88,1.85,28,7,0,0
293038,217076123,1,4994,4914,15.88,1.77,29,7,0,0
293443,217178225,1,4913,4885,15.86,1.68,29,8,0,0
293932,217298881,1,4865,4671,15.86,1.48,28,8,0,0
294382,217406977,1,4671,4671,15.86,1.49,29,8,0,0
294825,217516116,1,4661,4571,15.88,1.59,29,8,0,0
295262,217615184,1,4572,4642,15.85,1.6,29,8,0,0
295707,217724815,1,4643,4685,15.85,1.58,29,8,0,0
296203,217845188,1,4686,4700,15.8,1.67,29,8,0,0
296610,217947672,1,4710,4857,15.88,2.1,29,8,0,0
297058,218056281,1,4872,5071,15.76,2.17,29,8,0,0
297504,218166854,1,5081,5300,15.75,2.63,29,8,0,0
297959,218274876,1,5301,5328,15.76,2.28,29,8,0,0
298400,218385919,1,5322,5257,15.78,2.07,29,8,0,0
298844,218496825,1,5250,5171,15.83,1.9,29,8,0,0
299780,218724566,1,5183,5457,15.83,2.77,29,8,0,0
300227,218833788,1,5451,5414,15.73,2.71,29,8,0,0
300632,218936293,1,5448,5828,15.66,3.42,29,9,0,0
301086,219043138,1,5829,5857,15.64,3.2,29,9,0,0
301489,219145122,1,5861,5971,15.68,2.93,29,9,0,0
301985,219261273,1,5941,5628,15.77,2.39,29,9,0,0
302387,219360363,1,5627,5585,15.75,2.52,29,9,0,0
302871,219475650,1,5573,5414,15.77,2.24,29,9,0,0
303322,219590350,1,5404,5300,15.75,2.26,29,9,0,0
303725,219690399,1,5300,5300,15.84,2.14,29,9,0,0
304170,219799196,1,5300,5314,15.74,2.54,29,9,0,0
304624,219910880,1,5328,5642,15.57,3.18,29,9,0,0
305071,220019129,1,5655,5814,15.63,2.77,29,9,0,0
305519,220132826,1,5782,5528,15.69,2.52,29,10,0,0
305970,220242060,1,5519,5428,15.68,2.1,29,10,0,0
306380,220346310,1,5409,5157,15.85,1.92,29,10,0,0
306828,220451648,1,5151,5014,15.69,2.06,29,10,0,0
307276,220564856,1,5044,5342,15.82,2.6,29,10,0,0
307725,220671645,1,5307,4971,15.95,1.33,29,10,0,0
308131,220774043,1,4959,4342,16.04,0.58,29,10,0,0
308580,220879311,1,4333,3700,16.15,0.36,29,10,0,0
309023,220990636,1,3690,3200,16.13,0.89,29,10,0,0
309953,221211800,1,3191,2957,16.03,0.88,29,10,0,0
310404,221323784,1,2963,3028,16.05,0.75,29,10,0,0
310852,221430435,1,3028,3028,16.03,0.8,29,10,0,0
311291,221535587,1,3024,2971,16.04,0.53,29,10,0,0
311737,221641760,1,2969,2942,16.01,0.87,29,10,0,0
312145,221747124,1,2946,3157,16.03,0.97,29,10,0,0
312593,221855893,1,3164,3300,16.03,0.82,29,10,0,0
313048,221972398,1,3315,3485,16.03,1.03,29,10,0,0
313495,222079260,1,3477,3371,16.04,0.79,29,10,0,0
313943,222190260,1,3367,3328,16.06,0.74,29,10,0,0
314797,222404212,1,3319,3085,15.99,0.85,29,10,0,0
315287,222522875,1,3118,3485,15.95,1.49,29,10,0,0
315690,222622871,1,3508,3828,15.91,1.55,29,10,0,0
316095,222725662,1,3832,4028,16,1.23,29,10,0,0
316548,222836658,1,4049,4471,15.94,1.91,29,10,0,0
317006,222950811,1,4471,4471,15.97,1.27,29,10,0,0
317455,223059142,1,4473,4500,16.01,1.3,29,10,0,0
317859,223160302,1,4520,4785,15.96,1.77,29,11,0,0
318316,223272039,1,4788,4842,16.01,1.36,29,11,0,0
318720,223374466,1,4845,4914,15.98,1.54,29,11,0,0
319213,223498113,1,4914,4914,15.95,1.44,29,11,0,0
319619,223595410,1,4909,4814,15.93,1.44,29,11,0,0
320061,223702279,1,4813,4800,15.94,1.6,29,11,0,0
320511,223810776,1,4800,4814,15.89,1.47,29,11,0,0
320994,223926800,1,4815,4828,15.88,1.53,29,11,0,0
321399,224025184,1,4827,4785,15.89,1.48,29,11,0,0
321843,224134315,1,4785,4785,15.89,1.58,29,11,0,0
322291,224241148,1,4784,4742,15.87,1.45,29,11,0,0
322741,224353934,1,4748,4814,15.86,1.58,29,11,0,0
323222,224464647,1,4808,4728,15.86,1.86,29,11,0,0
323666,224574645,1,4731,4800,15.84,1.66,29,11,0,0
324121,224688656,1,4799,4785,15.84,1.62,29,11,0,0
324566,224794111,1,4785,4785,15.84,1.54,29,11,0,0
324972,224895939,1,4783,4757,15.83,1.73,29,11,0,0
325423,225007894,1,4765,4885,15.85,1.7,29,11,0,0
325868,225119651,1,4886,4900,15.83,1.75,29,11,0,0
326315,225226955,1,4902,5014,15.84,1.87,29,11,0,0
326767,225341651,1,5017,5057,15.86,1.75,29,12,0,0
327213,225447785,1,5054,5000,15.91,1.8,29,12,0,0
327627,225556836,1,5007,5157,15.87,2.13,29,12,0,0
328084,225668919,1,5147,5014,15.83,1.41,29,12,0,0
328530,225777715,1,4993,4714,15.8,2.05,29,12,0,0
328980,225889181,1,4730,5414,15.64,3.12,29,12,0,0
329430,225998148,1,5473,6042,15.63,4.81,29,12,0,0
330280,226208355,1,6027,5642,15.67,2.7,29,12,0,0
330686,226312172,1,5636,5514,15.62,3.37,29,12,0,0
331178,226429136,1,5537,5785,15.8,1.77,29,12,0,0
331582,226529973,1,5766,4842,15.82,1.47,29,12,0,0
332030,226640180,1,4839,4642,15.92,1.08,29,12,0,0
332519,226759198,1,4638,4600,15.88,1.45,29,12,0,0
332927,226859836,1,4585,3742,15.88,0.36,29,12,0,0
333375,226969039,1,3772,4957,15.83,3.49,29,12,0,0
334277,227192917,1,4962,5285,15.79,2.15,29,13,0,0
334990,227412910,1,4865,5085,15.97,2.19,29,13,0,0
335436,227527071,1,5036,4528,15.95,0.49,29,13,0,0
335842,227623630,1,4494,4100,15.98,0.79,29,13,0,0
336286,227735563,1,4049,3742,16.01,1.08,29,13,0,0
336739,227841656,1,3745,3785,15.97,1.21,29,13,0,0
337146,227945637,1,3839,4542,15.96,3,29,13,0,0
337595,228061088,1,4545,4571,15.92,0.79,29,13,0,0
338007,228165739,1,4581,4714,15.86,1.73,29,13,0,0
338454,228279345,1,4709,4685,15.88,1.42,29,13,0,0
338902,228386188,1,4661,4428,15.88,1.45,29,13,0,0
339354,228492652,1,4476,4885,15.85,2.77,29,13,0,0
339797,228602332,1,4921,5285,15.85,1.95,29,13,0,0
340243,228715046,1,5283,5271,15.83,1.94,29,13,0,0
340651,228811854,1,5266,5200,15.8,1.74,29,13,0,0
341063,228920293,1,5200,5200,15.76,1.86,29,13,0,0
341517,229029613,1,5191,5100,15.79,1.35,29,13,0,0
341966,229137151,1,5080,4642,15.76,1.29,29,14,0,0
342418,229251895,1,4683,5100,15.75,2.61,29,14,0,0
342896,229362309,1,5126,5500,15.72,2.89,29,14,0,0
343349,229471311,1,5506,5600,15.76,2.64,29,14,0,0
343756,229575110,1,5595,5500,15.75,2.32,29,14,0,0
344207,229683906,1,5487,5271,15.79,2.11,29,14,0,0
344653,229792231,1,5269,5185,15.79,2.12,29,14,0,0
345141,229913178,1,5178,5114,15.76,1.93,29,14,0,0
345995,230120276,1,5110,4971,15.83,1.86,29,14,0,0
346444,230228737,1,4975,5071,15.85,1.94,29,14,0,0
346896,230340317,1,5062,4942,15.8,1.78,29,14,0,0
347345,230447617,1,4942,4942,15.84,1.93,29,14,0,0
347819,230559600,1,4952,5171,15.77,2.19,29,14,0,0
348277,230672145,1,5172,5185,15.86,1.93,29,14,0,0
349133,230890371,1,5205,5514,15.89,2.38,29,15,0,0
350435,231205791,1,5498,4828,15.81,1.75,29,15,0,0
350881,231313961,1,4848,5071,15.76,2.25,29,15,0,0
351328,231421195,1,5087,5257,15.8,2.27,29,15,0,0
351732,231524884,1,5257,5300,15.81,2.09,29,15,0,0
352180,231633172,1,5291,5185,15.83,2.01,29,15,0,0
352582,231735822,1,5185,5228,15.82,2.07,29,15,0,0
353068,231850619,1,5224,5142,15.81,2.16,29,15,0,0
353474,231955193,1,5139,5057,15.84,1.99,29,15,0,0
353967,232075152,1,5064,5171,15.84,2,29,15,0,0
354414,232183745,1,5166,5085,15.78,2.09,29,15,0,0
354827,232285796,1,5088,5242,15.8,2.2,29,15,0,0
355271,232395115,1,5244,5285,15.8,2.49,29,15,0,0
355728,232507272,1,5286,5400,15.79,2.52,29,15,0,0
356175,232616955,1,5388,5285,15.75,2.58,29,16,0,0
356604,232720661,1,5297,5457,15.79,2.37,29,16,0,0
357062,232831177,1,5457,5457,15.82,2.69,29,16,0,0
357507,232942800,1,5452,5400,15.77,2.68,29,16,0,0
358401,233163758,1,5390,5185,15.91,3.17,29,16,0,0
358850,233273914,1,5240,5785,15.85,3.33,29,16,0,0
359297,233384160,1,5788,5842,15.83,3.36,29,16,0,0
359743,233489344,1,5846,5900,15.8,3.11,29,16,0,0
360191,233600627,1,5890,5628,15.81,2.78,29,16,0,0
360634,233704101,1,5634,5771,15.8,2.82,29,16,0,0
361077,233815046,1,5759,5600,15.82,2.81,29,17,0,0
361525,233927613,1,5604,5671,15.8,2.95,29,17,0,0
361977,234040075,1,5671,5671,15.83,2.92,29,17,0,0
362421,234148176,1,5680,5785,15.85,2.59,29,17,0,0
362870,234256832,1,5776,5685,15.79,2.46,29,17,0,0
363276,234357633,1,5677,5514,15.77,2.45,29,17,0,0
363720,234463152,1,5514,5571,15.77,2.57,29,17,0,0
364204,234578291,1,5569,5542,15.8,2.54,29,17,0,0
364657,234693627,1,5560,5728,15.69,2.76,29,17,0,0
365056,234790254,1,5728,5742,15.8,2.87,29,17,0,0
365499,234898739,1,5735,5457,15.82,2.29,29,17,0,0
365951,235010133,1,5453,5257,15.8,2.28,29,17,0,0
366392,235121880,1,5261,5300,15.75,2.44,29,17,0,0
366878,235237143,1,5314,5414,15.78,2.61,29,18,0,0
367319,235342679,1,5415,5428,15.78,2.5,29,18,0,0
367773,235456893,1,5417,5357,15.74,2.44,29,18,0,0
368216,235565294,1,5353,5328,15.75,2.23,29,18,0,0
368622,235658798,1,5326,5214,15.8,2.04,29,18,0,0
369552,235895645,1,5217,5271,15.83,2.17,29,18,0,0
369954,235991614,1,5270,5257,15.77,1.99,29,18,0,0
370406,236095756,1,5250,5100,15.77,1.78,29,18,0,0
370848,236205689,1,5087,4871,15.8,1.67,29,18,0,0
371288,236316576,1,4869,4771,15.77,1.6,29,18,0,0
371737,236423640,1,4771,4771,15.82,1.48,29,18,0,0
372628,236639122,1,4768,4514,15.79,1.24,29,18,0,0
373110,236754273,1,4506,4385,15.81,1.2,29,18,0,0
373563,236868719,1,4380,4328,15.84,1.11,29,18,0,0
374010,236979905,1,4326,4314,15.76,1.26,29,18,0,0
374456,237092310,1,4314,4314,15.83,1.29,29,18,0,0
374863,237192565,1,4322,4414,15.72,1.34,29,18,0,0
375792,237416346,1,4410,4342,15.8,1.07,29,19,0,0
376236,237527102,1,4349,4428,15.79,1.38,29,19,0,0
376688,237636274,1,4430,4457,15.82,1.4,29,19,0,0
377088,237735777,1,4456,4414,15.72,1.57,29,19,0,0
377538,237845931,1,4418,4500,15.79,1.46,29,19,0,0
377979,237953656,1,4501,4542,15.77,1.7,29,19,0,0
378430,238062775,1,4542,4600,15.71,1.67,29,19,0,0
378874,238171873,1,4601,4628,15.77,1.52,29,19,0,0
379366,238292959,1,4631,4657,15.77,1.65,29,19,0,0
379771,238394881,1,4647,4557,15.8,1.4,29,19,0,0
380169,238498944,1,4557,4557,15.76,1.5,29,19,0,0
380619,238608135,1,4554,4528,15.8,1.39,29,19,0,0
381020,238708961,1,4528,4571,15.77,1.54,29,19,0,0
381467,238817821,1,4570,4542,15.83,1.29,29,19,0,0
381943,238930184,1,4542,4542,15.84,1.36,29,19,0,0
382397,239040286,1,4537,4485,15.8,1.28,29,19,0,0
382883,239155683,1,4492,4571,15.83,1.45,29,19,0,0
383286,239256343,1,4566,4471,15.83,1.44,29,19,0,0
383737,239369345,1,4474,4557,15.82,1.21,29,19,0,0
384183,239475158,1,4553,4471,15.79,1.44,29,19,0,0
384629,239584553,1,4470,4457,15.83,1.31,29,19,0,0
385080,239692710,1,4455,4385,15.85,1.14,29,19,0,0
385560,239809137,1,4392,4500,15.84,1.3,29,20,0,0
386411,240020038,1,4500,4514,15.8,1.49,29,20,0,0
386858,240129264,1,4517,4571,15.78,1.33,29,20,0,0
387350,240247182,1,4553,4357,15.89,1.05,29,20,0,0
387753,240346661,1,4353,4285,15.83,1.27,29,20,0,0
388202,240455677,1,4294,4500,15.83,1.83,29,20,0,0
388653,240570396,1,4505,4642,15.85,1.43,29,20,0,0
389099,240675962,1,4641,4628,15.81,1.33,29,20,0,0
389549,240788739,1,4637,4857,15.82,1.82,29,20,0,0
389993,240898320,1,4855,4814,15.79,1.69,29,20,0,0
390440,241006556,1,4819,4885,15.75,2.04,29,20,0,0
390845,241107950,1,4888,5157,15.67,1.95,29,20,0,0
391329,241220947,1,5158,5185,15.7,2.12,29,20,0,0
391777,241331080,1,5189,5271,15.55,2.1,29,20,0,0
392229,241442330,1,5256,5100,15.69,1.7,29,20,0,0
392637,241549136,1,5097,4928,15.76,1.42,29,20,0,0
393126,241665670,1,4917,4800,15.73,1.61,29,20,0,0
393528,241773631,1,4799,4757,15.77,1.45,29,20,0,0
394019,241889859,1,4751,4700,15.78,1.51,29,20,0,0
394468,241997782,1,4697,4671,15.77,1.5,29,20,0,0
394869,242101687,1,4656,4528,15.8,1.31,29,21,0,0
395352,242212135,1,4521,4457,15.79,1.32,29,21,0,0
395751,242308736,1,4456,4428,15.8,1.39,29,21,0,0
396244,242429347,1,4433,4471,15.84,1.29,29,21,0,0
397093,242638290,1,4478,4657,15.69,1.98,29,21,0,0
397495,242740910,1,4660,4871,15.77,1.83,29,21,0,0
397987,242855815,1,4874,4957,15.72,1.92,29,21,0,0
398431,242966166,1,4954,4828,15.77,1.7,29,21,0,0
398920,243083922,1,4838,4928,15.77,1.68,29,21,0,0
399356,243181907,1,4926,4871,15.72,1.67,29,21,0,0
399809,243296790,1,4862,4757,15.73,1.73,29,21,0,0
400209,243397708,1,4756,4742,15.86,1.61,29,21,0,0
400652,243506837,1,4740,4642,15.81,1.31,29,21,0,0
401097,243614588,1,4640,4614,15.74,1.59,29,21,0,0
401540,243727320,1,4614,4614,15.77,1.48,29,21,0,0
401988,243836331,1,4612,4571,15.83,1.45,29,21,0,0
402435,243947716,1,4574,4628,15.81,1.44,29,21,0,0
402886,244053099,1,4629,4642,15.85,1.5,29,21,0,0
403329,244162536,1,4639,4600,15.86,1.41,29,21,0,0
403738,244264846,1,4600,4600,15.8,1.47,29,21,0,0
404181,244373740,1,4601,4614,15.86,1.54,29,22,0,0
404631,244485685,1,4622,4685,15.79,1.59,29,22,0,0
405075,244591573,1,4686,4714,15.8,1.6,29,22,0,0
405518,244701621,1,4714,4728,15.77,1.53,29,22,0,0
405966,244810211,1,4720,4614,15.82,1.34,29,22,0,0
406408,244918680,1,4617,4671,15.82,1.45,29,22,0,0
406862,245030140,1,4655,4500,15.76,1.21,29,22,0,0
407308,245137793,1,4497,4471,15.82,1.24,29,22,0,0
407709,245235089,1,4472,4514,15.8,1.48,29,22,0,0
408159,245348037,1,4526,4771,15.78,1.59,29,22,0,0
408603,245454878,1,4770,4757,15.8,1.68,29,22,0,0
408717,245559932,1,4756,4742,15.79,1.46,29,22,0,0
409161,245667926,1,4740,4671,15.77,1.53,29,22,0,0
409611,245779922,1,4673,4714,15.82,1.51,29,22,0,0
410089,245894087,1,4687,4471,15.85,1.24,29,22,0,0
410501,245994629,1,4466,4400,15.86,1.22,29,22,0,0
411390,246210664,1,4404,4528,15.87,1.35,29,22,0,0
411799,246314295,1,4528,4585,15.81,1.63,29,22,0,0
412290,246430338,1,4599,4742,15.8,1.81,29,22,0,0
412698,246532883,1,4742,4771,15.7,1.61,29,22,0,0
413181,246643142,1,4772,4814,15.78,1.52,29,22,0,0
413625,246752774,1,4806,4714,15.8,1.48,29,22,0,0
414034,246857056,1,4721,4900,15.81,1.7,29,23,0,0
414518,246970161,1,4891,4814,15.8,1.73,29,23,0,0
414922,247071671,1,4817,4900,15.75,1.79,29,23,0,0
415859,247299605,1,4892,4728,15.79,1.4,29,23,0,0
416264,247397959,1,4727,4714,15.77,1.46,29,23,0,0
416717,247513815,1,4712,4700,15.78,1.45,29,23,0,0
417164,247622693,1,4687,4557,15.79,1.49,29,23,0,0
418013,247833206,1,4558,4614,15.83,1.48,29,23,0,0
418458,247944750,1,4619,4728,15.82,1.6,29,23,0,0
418868,248045938,1,4728,4757,15.75,1.57,29,23,0,0
420202,248373816,1,4757,4785,15.77,1.71,29,23,0,0
420697,248491239,1,4780,4742,15.83,1.45,29,23,0,0
421139,248601822,1,4749,4828,15.79,1.73,29,23,0,0
421580,248708877,1,4845,5014,15.79,1.72,29,23,0,0
421987,248810083,1,5011,4900,15.8,1.79,29,23,0,0
422434,248922205,1,4900,4900,15.77,1.59,29,23,0,0
422930,249040803,1,4892,4814,15.73,1.73,29,23,0,0
423294,249135943,1,4816,4985,15.74,1.85,29,24,0,0
423782,249252551,1,4985,4985,15.67,2.05,29,24,0,0
424219,249356086,1,4987,5028,15.67,2.04,29,24,0,0
424669,249463909,1,5030,5085,15.64,1.97,29,24,0,0
425119,249577358,1,5079,4985,15.78,1.78,29,24,0,0
425566,249688938,1,4989,5028,15.74,1.79,29,24,0,0
426007,249798961,1,5004,4785,15.77,1.25,29,24,0,0
426457,249903193,1,4779,4728,15.79,1.37,29,24,0,0
426899,250017570,1,4710,4557,15.82,1.24,29,24,0,0
427343,250126185,1,4555,4542,15.78,1.32,29,24,0,0
427747,250227977,1,4544,4571,15.77,1.41,29,24,0,0
428199,250343129,1,4551,4428,15.79,1.07,29,24,0,0
428611,250440184,1,4429,4471,15.81,1.28,29,24,0,0
429060,250551164,1,4474,4542,15.8,1.22,29,24,0,0
429509,250660658,1,4527,4357,15.86,1.17,29,24,0,0
429960,250771934,1,4361,4400,15.84,1.16,29,24,0,0
430848,250991274,1,4401,4428,15.88,1.06,28,24,0,0
431295,251101352,1,4418,4328,15.89,1.04,29,24,0,0
431690,251197889,1,4331,4485,15.82,1.47,29,24,0,0
432182,251321106,1,4507,4742,15.81,1.61,29,24,0,0
432593,251425104,1,4734,4657,15.88,1.12,29,24,0,0
432998,251521593,1,4655,4557,15.73,1.66,29,24,0,0
433447,251630781,1,4557,4614,15.86,1.54,29,25,0,0
433884,251739830,1,4618,4728,15.82,1.42,29,25,0,0
434332,251845279,1,4726,4685,15.8,1.63,29,25,0,0
434819,251965917,1,4694,4785,15.75,1.61,29,25,0,0
435676,252182692,1,4780,4685,15.73,1.44,28,25,0,0
436115,252282798,1,4684,4657,15.78,1.38,29,25,0,0
436603,252403366,1,4649,4542,15.75,1.28,29,25,0,0
437010,252504185,1,4536,4414,15.8,1,29,25,0,0
437459,252612900,1,4403,4285,15.83,1.03,28,25,0,0
438308,252823874,1,4285,4314,15.82,1.64,29,25,0,0
438790,252936102,1,4328,4542,15.79,1.27,28,25,0,0
439240,253047695,1,4540,4514,15.82,1.33,29,25,0,0
439681,253157649,1,4515,4528,15.77,1.54,29,25,0,0
440090,253259278,1,4529,4557,15.83,1.24,28,25,0,0
440535,253368865,1,4552,4442,15.81,1.26,28,25,0,0
440982,253475995,1,4443,4542,15.88,1.18,29,25,0,0
441471,253597177,1,4547,4600,15.8,1.57,28,25,0,0
441873,253697110,1,4594,4542,15.83,1.42,29,25,0,0
442283,253800321,1,4540,4457,15.76,1.4,29,25,0,0
442728,253910899,1,4467,4614,15.8,1.34,28,25,0,0
443179,254018838,1,4618,4728,15.73,1.78,29,25,0,0
443599,254125901,1,4737,4985,15.72,1.82,28,26,0,0
444082,254237660,1,4984,4971,15.73,1.75,29,26,0,0
444484,254340943,1,4963,4800,15.76,1.25,28,26,0,0
444937,254452155,1,4794,4671,15.76,1.3,28,26,0,0
445375,254555716,1,4670,4657,15.73,1.41,28,26,0,0
445831,254668733,1,4657,4657,15.76,1.52,28,26,0,0
446278,254780574,1,4656,4642,15.77,1.4,28,26,0,0
446722,254886381,1,4641,4628,15.75,1.38,28,26,0,0
447128,254988935,1,4626,4571,15.76,1.47,28,26,0,0
447576,255097968,1,4571,4585,15.77,1.31,28,26,0,0
448030,255212710,1,4591,4685,15.75,1.55,28,26,0,0
448479,255327673,1,4678,4614,15.82,1.53,28,26,0,0
449331,255537672,1,4631,4985,15.75,2,28,26,0,0
449777,255643332,1,4983,4942,15.76,1.68,28,26,0,0
450188,255749703,1,4947,5057,15.76,2.1,28,26,0,0
450635,255858067,1,5053,4985,15.75,1.85,28,26,0,0
451082,255966907,1,4989,5114,15.79,1.76,28,26,0,0
451531,256075586,1,5107,4971,15.82,1.79,28,26,0,0
451984,256187357,1,4972,5028,15.77,1.56,28,26,0,0
452469,256305857,1,5031,5057,15.76,1.54,28,26,0,0
452879,256406949,1,5042,4900,15.81,1.59,28,26,0,0
453729,256617931,1,4899,4871,15.76,1.57,28,27,0,0
454130,256722139,1,4866,4657,15.76,1.16,28,27,0,0
455027,256939050,1,4656,4628,15.75,1.38,28,27,0,0
455476,257047439,1,4627,4600,15.78,1.37,28,27,0,0
455919,257157949,1,4595,4485,15.81,1.23,28,27,0,0
456405,257272520,1,4491,4557,15.75,1.38,28,27,0,0
456850,257382761,1,4560,4614,15.73,1.57,28,27,0,0
457302,257495952,1,4612,4600,15.76,1.29,28,27,0,0
458194,257711186,1,4596,4514,15.74,1.25,28,27,0,0
458636,257820349,1,4518,4585,15.75,1.74,28,27,0,0
459046,257925121,1,4592,4785,15.75,1.36,28,27,0,0
459531,258039820,1,4774,4542,15.74,1.25,28,27,0,0
459970,258148876,1,4542,4557,15.73,1.92,28,27,0,0
460417,258258836,1,4564,4742,15.64,1.53,28,27,0,0
460865,258373298,1,4737,4671,15.73,1.33,28,27,0,0
461315,258484353,1,4668,4642,15.77,1.24,28,27,0,0
461754,258585209,1,4639,4585,15.73,1.48,28,27,0,0
462239,258707729,1,4589,4628,15.74,1.36,28,27,0,0
462640,258808085,1,4632,4700,15.74,1.59,28,27,0,0
463048,258916677,1,4699,4657,15.73,1.41,28,27,0,0
463535,259029050,1,4657,4657,15.75,1.44,28,28,0,0
463982,259141914,1,4654,4628,15.69,1.42,28,28,0,0
464429,259251038,1,4628,4628,15.74,1.51,28,28,0,0
464838,259356282,1,4634,4685,15.77,1.46,28,28,0,0
465248,259455860,1,4684,4657,15.73,1.49,28,28,0,0
465688,259567378,1,4662,4771,15.63,1.97,28,28,0,0
466183,259682214,1,4779,4857,15.7,1.74,28,28,0,0
466625,259795358,1,4846,4742,15.75,1.4,28,28,0,0
467038,259892943,1,4739,4685,15.71,1.46,28,28,0,0
467478,260006181,1,4666,4428,15.76,1.18,28,28,0,0
467922,260116732,1,4430,4457,15.77,1.12,28,28,0,0
468410,260233071,1,4444,4300,15.8,1.04,28,28,0,0
468814,260334932,1,4314,4457,15.84,1.17,28,28,0,0
469305,260451965,1,4437,4157,15.76,1.18,28,28,0,0
469709,260554160,1,4150,4057,15.81,0.96,28,28,0,0
470161,260664878,1,4015,3600,15.82,1.06,28,28,0,0
471056,260885359,1,3585,3285,15.79,1.35,28,28,0,0
471453,260984353,1,3284,3228,15.85,1.07,28,28,0,0
471906,261093838,1,3236,3757,15.76,2.01,28,28,0,0
472350,261202810,1,3762,4071,15.66,1.51,28,28,0,0
472826,261317649,1,4095,4414,15.63,1.73,28,28,0,0
473237,261420300,1,4418,4571,15.69,1.49,28,29,0,0
473724,261539704,1,4569,4557,15.72,1.53,28,29,0,0
474135,261642706,1,4548,4414,15.75,1.35,28,29,0,0
474616,261757238,1,4408,4342,15.73,1.08,28,29,0,0
475067,261866546,1,4335,4271,15.75,1.18,28,29,0,0
475508,261975675,1,4269,4257,15.79,1.28,28,29,0,0
475951,262079586,1,4245,4014,15.76,1.01,28,29,0,0
476397,262191807,1,3979,3528,15.86,0.7,28,29,0,0
476847,262299946,1,3526,3400,15.83,0.9,28,29,0,0
477742,262521321,1,3421,3871,15.76,1.54,28,29,0,0
478192,262630127,1,3881,4142,15.75,1.45,28,29,0,0
478633,262736271,1,4145,4214,15.75,1.65,28,29,0,0
479081,262844676,1,4246,4671,15.67,1.97,28,29,0,0
479529,262958757,1,4704,5028,15.59,2.21,28,29,0,0
480014,263070249,1,5049,5271,15.51,2.4,28,29,0,0
480450,263175899,1,5281,5500,15.39,2.64,28,29,0,0
480908,263289355,1,5522,5757,15.31,3.08,28,29,0,0
481313,263392972,1,5767,5971,15.26,3.87,28,29,0,0
481759,263507336,1,5971,5971,15.32,3.38,28,29,0,0
482648,263719367,1,5954,5414,15.44,2.46,28,30,0,0
483055,263822157,1,5413,5400,15.41,2.71,28,30,0,0
483507,263936591,1,5400,5428,15.44,2.67,28,30,0,0
483988,264048648,1,5435,5528,15.51,2.59,28,30,0,0
484430,264155692,1,5518,5400,15.51,2.52,28,30,0,0
484838,264259207,1,5401,5442,15.5,2.51,28,30,0,0
485291,264370653,1,5439,5371,15.53,2.5,28,30,0,0
485735,264479846,1,5361,5257,15.55,2.15,28,30,0,0
486178,264588253,1,5242,5100,15.64,1.99,28,30,0,0
486626,264695815,1,5097,5071,15.6,2.15,28,30,0,0
487074,264811823,1,5072,5085,15.67,2.25,28,30,0,0
487517,264922206,1,5085,5085,15.68,2.21,28,30,0,0
487963,265027842,1,5098,5300,15.64,2.35,28,31,0,0
488408,265138601,1,5292,5128,15.63,2.16,28,31,0,0
488858,265250095,1,5122,5057,15.66,2.13,28,31,0,0
489303,265356941,1,5047,4928,15.72,1.75,28,31,0,0
489755,265465667,1,4924,4885,15.75,1.71,28,31,0,0
490199,265584341,1,4876,4828,15.75,2.08,28,31,0,0
490609,265679155,1,4831,5042,15.73,2.07,28,31,0,0
491050,265787925,1,5040,4942,15.76,1.85,28,31,0,0
491500,265894374,1,4938,4800,15.79,1.48,28,31,0,0
491977,266007348,1,4794,4657,15.73,1.61,28,31,0,0
492428,266118819,1,4660,4714,15.77,1.8,28,31,0,0
492874,266228782,1,4730,4914,15.77,1.88,28,31,0,0
493317,266339790,1,4899,4785,15.72,1.78,28,31,0,0
493765,266447896,1,4805,4957,15.73,1.8,28,31,0,0
494176,266548038,1,4953,4871,15.7,2,28,31,0,0
494619,266657312,1,4877,4928,15.72,1.86,28,31,0,0
495025,266757046,1,4929,5042,15.69,1.99,28,31,0,0
495513,266876845,1,5039,5014,15.72,1.94,28,31,0,0
495919,266977057,1,5013,5000,15.66,2.14,29,32,0,0
496409,267098610,1,5007,5071,15.69,1.93,28,32,0,0
496812,267196802,1,5069,5042,15.69,1.78,28,32,0,0
497257,267308329,1,5041,5000,15.6,1.8,28,32,0,0
497711,267421858,1,4998,4985,15.67,1.85,28,32,0,0
498117,267528060,1,4983,4871,15.69,1.54,28,32,0,0
498608,267646554,1,4863,4800,15.7,1.45,28,32,0,0
499009,267746946,1,4800,4800,15.71,1.5,28,32,0,0
499462,267855362,1,4798,4757,15.73,1.53,28,32,0,0
499913,267972802,1,4758,4771,15.67,1.66,28,32,0,0
500321,268074115,1,4777,4928,15.66,1.94,29,32,0,0
500768,268184857,1,4928,4928,15.74,1.64,28,32,0,0
501210,268297275,1,4918,4828,15.74,1.5,28,32,0,0
501617,268396577,1,4827,4814,15.7,1.56,28,32,0,0
502065,268503153,1,4814,4857,15.66,1.98,28,32,0,0
502507,268613827,1,4861,5042,15.66,1.87,28,32,0,0
503408,268840636,1,5042,5042,15.69,1.75,28,32,0,0
503811,268945912,1,5042,5042,15.69,2.03,28,33,0,0
504260,269049578,1,5034,4942,15.69,1.77,28,33,0,0
504747,269173237,1,4946,4985,15.7,1.75,28,33,0,0
505594,269379353,1,4977,4771,15.7,1.52,28,33,0,0
506041,269490174,1,4771,4771,15.72,1.54,28,33,0,0
506448,269591088,1,4771,4814,15.72,1.67,28,33,0,0
506971,269716688,1,4805,4714,15.69,1.49,28,33,0,0
508267,270032910,1,4716,4885,15.69,1.73,28,33,0,0
508714,270146086,1,4897,5028,15.73,1.83,28,33,0,0
509159,270254059,1,5036,5128,15.7,2.28,28,33,0,0
509563,270355315,1,5128,5157,15.66,1.99,28,33,0,0
510056,270472152,1,5145,4971,15.72,1.87,28,33,0,0
510462,270576496,1,4975,5071,15.67,1.73,28,33,0,0
510906,270681862,1,5073,5114,15.7,1.9,28,33,0,0
511355,270790725,1,5113,5071,15.66,1.92,28,33,0,0
511841,270909117,1,5080,5200,15.7,1.77,28,33,0,0
512249,271008775,1,5194,5128,15.7,1.75,28,33,0,0
512652,271110665,1,5128,5128,15.67,1.81,28,34,0,0
513141,271228315,1,5120,5042,15.69,1.86,28,34,0,0
513548,271333187,1,5043,5128,15.67,1.87,28,34,0,0
514033,271443871,1,5123,5057,15.62,1.73,28,34,0,0
514480,271558927,1,5061,5114,15.6,1.71,28,34,0,0
514887,271660588,1,5104,4928,15.62,1.65,28,34,0,0
515334,271774165,1,4934,5000,15.63,1.72,28,34,0,0
515741,271871877,1,5002,5142,15.6,2.1,28,34,0,0
516222,271988872,1,5150,5271,15.64,2.39,28,34,0,0
516667,272100334,1,5283,5414,15.64,2.41,28,34,0,0
517074,272201316,1,5412,5385,15.63,2.16,28,34,0,0
517520,272311972,1,5379,5271,15.66,2.07,28,34,0,0
517979,272426102,1,5252,5071,15.67,1.9,28,34,0,0
518375,272525792,1,5074,5142,15.66,2.11,28,34,0,0
518820,272632102,1,5141,5128,15.58,1.97,28,34,0,0
519275,272746823,1,5129,5157,15.63,2.03,28,34,0,0
519723,272853862,1,5156,5142,15.66,1.97,28,35,0,0
520170,272966084,1,5135,5042,15.72,1.79,28,35,0,0
520621,273076124,1,5048,5128,15.72,1.87,28,35,0,0
521059,273182725,1,5125,5085,15.69,1.74,28,35,0,0
521547,273302260,1,5080,5028,15.7,1.87,28,35,0,0
521995,273409910,1,5033,5085,15.66,1.76,28,35,0,0
522842,273620173,1,5087,5157,15.72,2.07,28,35,0,0
523249,273725913,1,5159,5200,15.7,1.99,28,35,0,0
523700,273833411,1,5202,5242,15.69,2.02,28,35,0,0
524140,273941951,1,5238,5171,15.65,1.95,28,35,0,0
524598,274054403,1,5175,5228,15.68,1.91,28,35,0,0
525077,274167376,1,5223,5171,15.69,1.77,28,35,0,0
525525,274277598,1,5162,5071,15.66,1.83,28,35,0,0
525927,274378035,1,5073,5157,15.69,2.07,28,35,0,0
526378,274490088,1,5156,5128,15.69,2.01,28,35,0,0
526824,274600070,1,5126,5114,15.69,1.83,28,35,0,0
527265,274705648,1,5106,5028,15.67,1.77,28,36,0,0
527675,274806915,1,5026,4957,15.63,1.74,28,36,0,0
528126,274920884,1,4976,5171,15.67,1.84,28,36,0,0
528574,275028655,1,5164,5071,15.67,1.84,28,36,0,0
529024,275139957,1,5065,5014,15.73,1.57,28,36,0,0
529507,275252208,1,5014,5014,15.67,1.96,28,36,0,0
529911,275351860,1,5022,5142,15.67,2.19,28,36,0,0
530360,275461847,1,5142,5142,15.62,2.09,28,36,0,0
530808,275572298,1,5138,5085,15.66,2.09,28,36,0,0
531257,275679828,1,5087,5142,15.67,2.01,28,36,0,0
531706,275795971,1,5139,5114,15.68,1.84,28,36,0,0
532151,275907155,1,5106,5028,15.61,2.08,28,36,0,0
533036,276121330,1,5036,5314,15.67,2.1,28,36,0,0
533486,276230577,1,5310,5257,15.58,2.31,28,36,0,0
533934,276346139,1,5269,5385,15.55,2.55,28,36,0,0
534383,276453875,1,5387,5442,15.63,2.52,28,37,0,0
534827,276560114,1,5436,5171,15.64,2.16,28,37,0,0
535276,276667861,1,5171,5200,15.63,1.98,28,37,0,0
535720,276779880,1,5199,5128,15.69,1.91,28,37,0,0
536210,276896629,1,5135,5200,15.71,1.92,28,37,0,0
536652,277006176,1,5195,5157,15.69,1.87,28,37,0,0
537055,277108944,1,5157,5185,15.64,1.81,28,37,0,0
537540,277221623,1,5181,5128,15.69,2.24,28,37,0,0
537992,277336883,1,5129,5142,15.67,2.06,28,37,0,0
538472,277446325,1,5136,5057,15.63,1.93,28,37,0,0
538915,277557094,1,5078,5300,15.61,2.07,28,37,0,0
539319,277655780,1,5296,5157,15.6,2.23,28,37,0,0
539768,277767700,1,5170,5342,15.54,2.38,28,37,0,0
540222,277880926,1,5324,5157,15.6,1.99,28,37,0,0
540622,277979604,1,5153,4971,15.51,1.63,28,37,0,0
541107,278093586,1,4985,5328,15.59,2.57,28,37,0,0
541552,278202736,1,5317,5214,15.6,1.95,28,38,0,0
541956,278302728,1,5214,5228,15.61,2.07,29,38,0,0
542449,278424664,1,5224,5185,15.56,2.08,28,38,0,0
542850,278526645,1,5183,5157,15.61,2.23,28,38,0,0
543300,278637855,1,5151,5071,15.67,1.44,28,38,0,0
543746,278750701,1,5058,4942,15.7,1.61,28,38,0,0
544631,278962350,1,4942,4971,15.65,1.67,29,38,0,0
545080,279070318,1,4971,5028,15.65,1.99,28,38,0,0
545534,279184635,1,5040,5157,15.66,2.01,28,38,0,0
545938,279287653,1,5161,5271,15.66,1.98,28,38,0,0
546876,279513925,1,5265,5142,15.69,1.95,29,38,0,0
547321,279620145,1,5159,5385,15.65,2.05,28,38,0,0
547766,279731678,1,5361,5128,15.69,1.99,28,38,0,0
548170,279830685,1,5129,5142,15.64,1.76,28,38,0,0
548615,279943301,1,5143,5185,15.68,1.9,29,38,0,0
549064,280053235,1,5179,5100,15.66,1.87,28,39,0,0
549509,280164537,1,5098,5085,15.69,1.95,29,39,0,0
549956,280270942,1,5090,5142,15.7,1.73,28,39,0,0
550399,280378325,1,5133,5014,15.66,1.66,28,39,0,0
550887,280495938,1,5005,4928,15.73,1.64,28,39,0,0
551294,280595955,1,4926,4900,15.7,1.65,28,39,0,0
551741,280707959,1,4904,4942,15.67,1.72,28,39,0,0
552195,280817679,1,4937,4871,15.7,1.7,28,39,0,0
552599,280920661,1,4869,4785,15.66,1.54,28,39,0,0
553085,281033944,1,4784,4771,15.68,1.58,28,39,0,0
553533,281146824,1,4765,4714,15.67,1.52,28,39,0,0
553983,281253847,1,4713,4700,15.66,1.62,28,39,0,0
554424,281361079,1,4707,4785,15.69,1.58,28,39,0,0
555275,281573861,1,4785,4785,15.63,1.81,28,39,0,0
555719,281679703,1,4785,4814,15.67,1.8,29,39,0,0
556203,281794932,1,4820,4885,15.61,1.83,28,39,0,0
556645,281899814,1,4878,4800,15.6,1.86,28,39,0,0
557093,282015381,1,4816,4957,15.59,1.89,28,39,0,0
557536,282124282,1,4944,4842,15.66,1.58,28,39,0,0
557986,282232298,1,4812,4585,15.68,1.22,28,40,0,0
558393,282336964,1,4572,4457,15.69,1.21,28,40,0,0
558842,282442767,1,4451,4400,15.69,1.28,28,40,0,0
559276,282546558,1,4403,4457,15.66,1.47,28,40,0,0
559728,282653363,1,4464,4571,15.64,1.57,28,40,0,0
560171,282764680,1,4575,4614,15.66,1.44,28,40,0,0
560621,282877379,1,4612,4600,15.61,1.43,28,40,0,0
561063,282986178,1,4595,4557,15.7,1.42,28,40,0,0
561474,283087914,1,4557,4571,15.68,1.59,28,40,0,0
561920,283202155,1,4578,4642,15.65,1.44,28,40,0,0
562323,283305571,1,4639,4614,15.68,1.38,28,40,0,0
562775,283412173,1,4615,4642,15.7,1.55,28,40,0,0
563213,283521071,1,4643,4685,15.67,1.6,28,40,0,0
563664,283632864,1,4685,4700,15.64,1.58,28,40,0,0
564115,283746853,1,4704,4742,15.68,1.61,28,40,0,0
564929,283949886,1,4743,4814,15.68,1.61,28,40,0,0
565418,284066846,1,4817,4857,15.63,1.69,28,40,0,0
565822,284170613,1,4854,4814,15.66,1.43,28,40,0,0
566667,284380042,1,4815,5014,15.61,1.89,28,40,0,0
567160,284496587,1,5013,5000,15.58,1.91,28,40,0,0
568503,284830795,1,4993,4728,15.63,1.39,28,41,0,0
568900,284930330,1,4720,4571,15.67,1.35,28,41,0,0
569792,285150134,1,4569,4428,15.64,1.41,28,41,0,0
570243,285258638,1,4427,4414,15.61,1.33,28,41,0,0
570694,285374626,1,4412,4400,15.62,1.21,28,41,0,0
571541,285584083,1,4399,4371,15.59,1.42,28,41,0,0
571989,285693453,1,4369,4271,15.63,1.22,28,41,0,0
572437,285802955,1,4273,4428,15.64,1.4,28,41,0,0
572920,285917589,1,4428,4428,15.61,1.56,28,41,0,0
573370,286026034,1,4441,4585,15.63,1.43,28,41,0,0
573768,286127056,1,4582,4528,15.67,1.63,28,41,0,0
574253,286239256,1,4531,4585,15.63,1.61,28,41,0,0
574694,286346678,1,4605,4800,15.56,1.95,28,41,0,0
575143,286455206,1,4802,4828,15.58,1.83,28,41,0,0
575539,286555302,1,4827,4814,15.57,1.99,28,41,0,0
576032,286674044,1,4815,4828,15.63,1.8,28,41,0,0
576435,286776951,1,4828,4828,15.64,1.82,28,41,0,0
576884,286881845,1,4825,4700,15.62,1.51,28,42,0,0
577367,286996929,1,4688,4528,15.63,1.34,28,42,0,0
577772,287098332,1,4527,4471,15.63,1.33,28,42,0,0
578222,287207623,1,4468,4342,15.64,1.67,28,42,0,0
578661,287315804,1,4357,4557,15.68,1.3,28,42,0,0
579109,287424832,1,4532,4200,15.7,0.87,28,42,0,0
579550,287533788,1,4176,3871,15.71,0.89,28,42,0,0
580001,287643811,1,3861,3771,15.72,1.17,28,42,0,0
580409,287750109,1,3783,4057,15.64,1.33,28,42,0,0
580897,287861308,1,4071,4400,15.58,2.46,28,42,0,0
581298,287963135,1,4403,4628,15.7,1.51,28,42,0,0
581832,288083891,1,4623,4571,15.64,1.43,28,42,0,0
582236,288186778,1,4571,4614,15.63,1.49,28,42,0,0
582910,288404808,1,4627,4614,15.71,1.26,28,42,0,0
583358,288517921,1,4611,4585,15.65,1.47,28,42,0,0
583809,288629282,1,4594,4685,15.63,1.5,28,42,0,0
584254,288736901,1,4675,4514,15.72,1.35,28,42,0,0
584699,288843118,1,4521,4628,15.69,1.43,28,42,0,0
585146,288956859,1,4642,4785,15.63,1.81,28,42,0,0
585594,289061500,1,4787,4842,15.62,1.93,28,42,0,0
586044,289173624,1,4854,4971,15.62,1.92,28,42,0,0
586491,289278939,1,4973,5014,15.65,1.75,28,42,0,0
586930,289386622,1,5008,4942,15.62,1.63,28,43,0,0
587415,289503343,1,4943,4957,15.6,1.84,28,43,0,0
587863,289614408,1,4966,5071,15.63,1.71,28,43,0,0
588264,289710116,1,5065,4942,15.63,1.55,28,43,0,0
588715,289821318,1,4936,4828,15.6,1.52,28,43,0,0
589157,289932699,1,4833,4900,15.61,1.68,28,43,0,0
590009,290147093,1,4897,4628,15.65,0.96,28,43,0,0
590466,290260830,1,4579,4185,15.67,0.82,28,43,0,0
590909,290366098,1,4183,4171,15.64,1.42,28,43,0,0
591311,290467825,1,4175,4400,15.63,1.87,28,43,0,0
592210,290691037,1,4423,4828,15.54,2.14,28,43,0,0
592618,290795897,1,4834,4971,15.58,2.17,28,43,0,0
593067,290901140,1,4977,5128,15.52,2.1,28,43,0,0
593512,291014681,1,5127,5071,15.55,1.95,28,43,0,0
593954,291123853,1,5064,5014,15.6,1.75,28,43,0,0
594408,291234329,1,4993,4771,15.6,1.53,28,43,0,0
594849,291338636,1,4768,4728,15.63,1.51,28,43,0,0
595699,291551620,1,4728,4757,15.67,1.37,28,44,0,0
596146,291659777,1,4756,4728,15.62,1.42,28,44,0,0
596590,291771159,1,4723,4671,15.67,1.59,28,44,0,0
597040,291882569,1,4681,4828,15.62,2.12,28,44,0,0
597489,291993692,1,4850,5085,15.59,2.23,28,44,0,0
598378,292211861,1,5081,4942,15.54,1.98,28,44,0,0
598793,292323648,1,4961,5242,15.57,2.32,28,44,0,0
599278,292432695,1,5238,5185,15.49,2.56,28,44,0,0
599717,292539793,1,5203,5471,15.52,2.56,28,44,0,0
600165,292648349,1,5475,5571,15.51,2.53,28,44,0,0
600613,292761846,1,5548,5300,15.54,2.5,28,44,0,0
601061,292870750,1,5293,5228,15.54,2.06,28,44,0,0
601502,292977335,1,5212,4900,15.58,1.63,28,44,0,0
