LineNo,TimeUS,Instance,RPM,RawRPM,Volt,Curr,Temp,CTot,MotTemp,Err
1669,19975971,3,0,0,16.7,0.04,28,0,0,0
2045,20071116,3,0,0,16.7,0.04,28,0,0,0
2504,20185177,3,0,0,16.7,0.04,28,0,0,0
2881,20281270,3,0,0,16.7,0.04,28,0,0,0
3325,20387627,3,0,0,16.7,0.05,28,0,0,0
3779,20500791,3,0,0,16.7,0.04,28,0,0,0
4189,20603847,3,0,0,16.7,0.04,28,0,0,0
4604,20707969,3,0,0,16.7,0.05,28,0,0,0
5021,20815370,3,0,0,16.7,0.05,28,0,0,0
5477,20927179,3,0,0,16.7,0.05,28,0,0,0
5891,21030043,3,0,0,16.7,0.05,28,0,0,0
6302,21134134,3,0,0,16.7,0.05,28,0,0,0
6750,21244671,3,0,0,16.7,0.05,28,0,0,0
7159,21345077,3,0,0,16.7,0.05,28,0,0,0
7612,21458671,3,0,0,16.7,0.05,28,0,0,0
8027,21565546,3,0,0,16.7,0.05,28,0,0,0
8468,21672767,3,0,0,16.7,0.05,28,0,0,0
8874,21777684,3,0,0,16.7,0.05,28,0,0,0
9626,21988673,3,0,0,16.7,0.05,28,0,0,0
10042,22092190,3,0,0,16.71,0.05,28,0,0,0
10453,22196096,3,0,0,16.7,0.05,28,0,0,0
10907,22306288,3,0,0,16.7,0.05,28,0,0,0
11320,22410917,3,0,0,16.7,0.05,28,0,0,0
11733,22512896,3,0,0,16.7,0.04,28,0,0,0
12143,22617337,3,0,0,16.7,0.04,28,0,0,0
12629,22732604,3,0,0,16.7,0.05,28,0,0,0
13046,22839348,3,0,0,16.7,0.05,28,0,0,0
13462,22944085,3,0,0,16.7,0.05,28,0,0,0
13877,23048068,3,0,0,16.71,0.05,28,0,0,0
14333,23159238,3,0,0,16.7,0.05,28,0,0,0
14749,23263667,3,0,0,16.71,0.04,28,0,0,0
15164,23364824,3,0,0,16.7,0.04,28,0,0,0
15619,23479326,3,0,0,16.7,0.04,28,0,0,0
16032,23582285,3,0,0,16.7,0.04,28,0,0,0
16494,23700718,3,0,0,16.7,0.05,28,0,0,0
16868,23793285,3,0,0,16.71,0.05,28,0,0,0
17356,23910887,3,0,0,16.7,0.05,28,0,0,0
17774,24016719,3,0,0,16.71,0.05,28,0,0,0
18193,24119965,3,0,0,16.7,0.04,28,0,0,0
18598,24219921,3,0,0,16.7,0.04,28,0,0,0
19010,24325888,3,0,0,16.71,0.04,28,0,0,0
19466,24439587,3,0,0,16.7,0.04,28,0,0,0
19876,24540038,3,0,0,16.7,0.04,28,0,0,0
20323,24652685,3,0,0,16.7,0.04,28,0,0,0
20741,24759201,3,0,0,16.7,0.04,28,0,0,0
21153,24861302,3,0,0,16.7,0.04,28,0,0,0
21609,24976150,3,0,0,16.7,0.04,28,0,0,0
22022,25078328,3,0,0,16.7,0.04,28,0,0,0
22436,25184566,3,0,0,16.7,0.04,28,0,0,0
22852,25285502,3,0,0,16.7,0.04,28,0,0,0
23306,25399898,3,0,0,16.7,0.04,28,0,0,0
23720,25502795,3,0,0,16.7,0.04,28,0,0,0
24138,25608871,3,0,0,16.7,0.04,28,0,0,0
24552,25713641,3,0,0,16.7,0.05,28,0,0,0
25005,25833381,3,0,0,16.71,0.05,28,0,0,0
25422,25935067,3,0,0,16.71,0.05,28,0,0,0
25833,26039341,3,0,0,16.71,0.04,28,0,0,0
26243,26139329,3,0,0,16.7,0.04,28,0,0,0
26696,26252164,3,0,0,16.7,0.04,28,0,0,0
27109,26353546,3,0,0,16.71,0.04,28,0,0,0
27525,26457332,3,0,0,16.7,0.05,28,0,0,0
27969,26564352,3,0,0,16.7,0.05,28,0,0,0
28424,26678132,3,0,0,16.71,0.05,28,0,0,0
28839,26781717,3,0,0,16.7,0.05,28,0,0,0
29254,26884923,3,0,0,16.7,0.05,28,0,0,0
29664,26989158,3,0,0,16.71,0.05,28,0,0,0
30116,27099936,3,0,0,16.71,0.05,28,0,0,0
30522,27202167,3,0,0,16.7,0.05,28,0,0,0
30984,27315843,3,0,0,16.71,0.05,28,0,0,0
31397,27420619,3,0,0,16.7,0.05,28,0,0,0
31816,27524656,3,0,0,16.7,0.05,28,0,0,0
32262,27636653,3,0,0,16.7,0.05,28,0,0,0
32676,27737880,3,0,0,16.71,0.05,28,0,0,0
33089,27841358,3,0,0,16.71,0.05,28,0,0,0
33542,27956114,3,0,0,16.71,0.04,28,0,0,0
33952,28062724,3,0,0,16.7,0.04,28,0,0,0
34805,28270948,3,0,0,16.7,0.04,28,0,0,0
35219,28376845,3,0,0,16.7,0.04,28,0,0,0
35627,28478747,3,0,0,16.7,0.04,28,0,0,0
36082,28592368,3,0,0,16.7,0.04,28,0,0,0
36500,28701119,3,0,0,16.7,0.04,28,0,0,0
36911,28804255,3,0,0,16.7,0.04,28,0,0,0
37327,28909179,3,0,0,16.7,0.04,28,0,0,0
37774,29019611,3,0,0,16.7,0.04,28,0,0,0
38185,29120058,3,0,0,16.7,0.04,28,0,0,0
38635,29231084,3,0,0,16.7,0.05,28,0,0,0
39057,29338717,3,0,0,16.7,0.05,28,0,0,0
39465,29439404,3,0,0,16.7,0.04,28,0,0,0
39916,29551690,3,0,0,16.7,0.04,28,0,0,0
40325,29651924,3,0,0,16.7,0.04,28,0,0,0
40771,29758716,3,0,0,16.7,0.04,28,0,0,0
41223,29869654,3,0,0,16.7,0.04,28,0,0,0
41640,29974334,3,0,0,16.7,0.04,28,0,0,0
42096,30089172,3,0,0,16.7,0.04,28,0,0,0
42515,30195558,3,0,0,16.7,0.04,28,0,0,0
42937,30300107,3,0,0,16.7,0.04,28,0,0,0
43347,30401949,3,0,0,16.7,0.04,28,0,0,0
43804,30513710,3,0,0,16.7,0.05,28,0,0,0
44217,30616432,3,0,0,16.7,0.05,28,0,0,0
44632,30720339,3,0,0,16.7,0.05,28,0,0,0
45091,30831332,3,0,0,16.7,0.04,28,0,0,0
45506,30935188,3,0,0,16.7,0.04,28,0,0,0
45920,31039699,3,0,0,16.7,0.05,28,0,0,0
46378,31154131,3,0,0,16.7,0.05,28,0,0,0
46754,31249203,3,0,0,16.7,0.05,28,0,0,0
47206,31360102,3,0,0,16.7,0.05,28,0,0,0
47657,31471686,3,0,0,16.7,0.05,28,0,0,0
48030,31566342,3,0,0,16.71,0.05,28,0,0,0
48897,31781141,3,0,0,16.7,0.04,28,0,0,0
49350,31892054,3,0,0,16.7,0.04,28,0,0,0
49795,32000916,3,0,0,16.7,0.04,28,0,0,0
50207,32104132,3,0,0,16.71,0.05,28,0,0,0
50617,32204063,3,0,0,16.7,0.05,28,0,0,0
51076,32323726,3,0,0,16.7,0.04,28,0,0,0
51476,32417596,3,0,0,16.7,0.05,28,0,0,0
51925,32532059,3,0,0,16.71,0.05,28,0,0,0
52340,32640723,3,0,0,16.7,0.05,28,0,0,0
52754,32745058,3,0,0,16.7,0.05,28,0,0,0
53162,32847284,3,0,0,16.7,0.05,28,0,0,0
53576,32951756,3,0,0,16.7,0.05,28,0,0,0
53986,33055197,3,0,0,16.7,0.05,27,0,0,0
54442,33170674,3,0,0,16.7,0.05,28,0,0,0
54891,33280875,3,0,0,16.7,0.05,28,0,0,0
55304,33385814,3,0,0,16.7,0.05,28,0,0,0
55717,33488041,3,0,0,16.71,0.05,28,0,0,0
56127,33591863,3,0,0,16.7,0.05,28,0,0,0
56294,50820321,3,0,0,16.7,0.05,27,0,0,0
56340,50832674,3,0,0,16.71,0.05,27,0,0,0
56752,50936473,3,0,0,16.7,0.05,28,0,0,0
57209,51047850,3,0,0,16.7,0.05,27,0,0,0
57623,51154716,3,0,0,16.7,0.05,27,0,0,0
58036,51256624,3,0,0,16.7,0.05,27,0,0,0
58446,51361917,3,0,0,16.7,0.05,27,0,0,0
58899,51473962,3,0,0,16.7,0.05,27,0,0,0
59310,51575177,3,0,0,16.7,0.05,27,0,0,0
59727,51683086,3,0,0,16.71,0.05,27,0,0,0
60180,51794352,3,0,0,16.7,0.05,27,0,0,0
60586,51895154,3,0,0,16.7,0.05,27,0,0,0
61044,52009316,3,0,0,16.7,0.05,27,0,0,0
61869,52215888,3,0,0,16.71,0.05,27,0,0,0
62323,52330919,3,0,0,16.7,0.05,27,0,0,0
62740,52433369,3,0,0,16.71,0.04,27,0,0,0
63145,52536655,3,0,0,16.71,0.04,27,0,0,0
63603,52648966,3,0,0,16.71,0.05,27,0,0,0
64020,52756136,3,0,0,16.71,0.05,27,0,0,0
64437,52861287,3,0,0,16.7,0.05,27,0,0,0
64819,52962276,3,0,0,16.7,0.05,27,0,0,0
65310,53079594,3,0,0,16.71,0.05,27,0,0,0
65683,53177668,3,0,0,16.7,0.05,27,0,0,0
66165,53293757,3,0,0,16.7,0.05,27,0,0,0
66577,53394273,3,0,0,16.7,0.04,27,0,0,0
66902,53497589,3,0,0,16.7,0.05,27,0,0,0
67358,53610210,3,0,0,16.7,0.05,27,0,0,0
68221,53824097,3,0,0,16.7,0.05,27,0,0,0
68635,53929161,3,0,0,16.71,0.05,27,0,0,0
69051,54031121,3,0,0,16.7,0.05,27,0,0,0
69465,54139293,3,0,0,16.7,0.05,27,0,0,0
69921,54252692,3,0,0,16.7,0.05,27,0,0,0
70335,54358923,3,0,0,16.7,0.05,27,0,0,0
70748,54459706,3,0,0,16.71,0.05,27,0,0,0
71130,54560348,3,0,0,16.7,0.05,27,0,0,0
71584,54674869,3,0,0,16.7,0.05,27,0,0,0
71997,54777074,3,0,0,16.7,0.05,27,0,0,0
72874,54999321,3,0,0,16.71,0.05,27,0,0,0
73295,55106171,3,0,0,16.69,0.04,27,0,0,0
73709,55209833,3,0,0,16.71,0.04,27,0,0,0
74123,55313927,3,0,0,16.7,0.04,27,0,0,0
74577,55425417,3,0,0,16.71,0.04,27,0,0,0
74992,55529082,3,0,0,16.71,0.05,27,0,0,0
75403,55632166,3,0,0,16.71,0.05,27,0,0,0
75818,55740114,3,0,0,16.71,0.05,27,0,0,0
76272,55851677,3,0,0,16.71,0.05,27,0,0,0
76687,55954975,3,0,0,16.7,0.05,27,0,0,0
77105,56063723,3,0,0,16.7,0.05,27,0,0,0
77518,56169173,3,0,0,16.7,0.04,27,0,0,0
78351,56381062,3,0,0,16.7,0.05,27,0,0,0
78804,56496695,3,0,0,16.7,0.05,27,0,0,0
79220,56599092,3,0,0,16.7,0.05,27,0,0,0
79632,56704353,3,0,0,16.7,0.05,27,0,0,0
80088,56819303,3,0,0,16.7,0.05,27,0,0,0
80503,56924563,3,0,0,16.71,0.05,27,0,0,0
80920,57024956,3,0,0,16.7,0.04,27,0,0,0
81335,57131141,3,0,0,16.7,0.04,27,0,0,0
81791,57246193,3,0,0,16.7,0.05,27,0,0,0
82201,57348919,3,0,0,16.71,0.05,27,0,0,0
82655,57462130,3,0,0,16.7,0.05,27,0,0,0
83069,57567124,3,0,0,16.7,0.05,27,0,0,0
83482,57669355,3,0,0,16.7,0.05,27,0,0,0
83894,57773178,3,0,0,16.7,0.05,27,0,0,0
84347,57887183,3,0,0,16.7,0.04,27,0,0,0
84764,57989418,3,0,0,16.7,0.05,27,0,0,0
85182,58100266,3,0,0,16.7,0.05,27,0,0,0
85599,58203094,3,0,0,16.71,0.05,27,0,0,0
86017,58309897,3,0,0,16.7,0.04,27,0,0,0
86431,58412149,3,0,0,16.71,0.04,27,0,0,0
86880,58524877,3,0,0,16.71,0.04,27,0,0,0
87299,58630660,3,0,0,16.71,0.04,27,0,0,0
87717,58737996,3,0,0,16.7,0.04,27,0,0,0
88171,58849575,3,0,0,16.7,0.04,27,0,0,0
88587,58957070,3,0,0,16.7,0.04,27,0,0,0
89003,59061836,3,0,0,16.7,0.04,27,0,0,0
89450,59175199,3,0,0,16.7,0.04,27,0,0,0
89868,59277950,3,0,0,16.71,0.05,27,0,0,0
90321,59391097,3,0,0,16.71,0.04,27,0,0,0
91187,59607315,3,0,0,16.71,0.04,27,0,0,0
91599,59710289,3,0,0,16.71,0.04,27,0,0,0
92052,59823592,3,0,0,16.7,0.05,27,0,0,0
92427,59920922,3,0,0,16.7,0.05,27,0,0,0
92891,60032907,3,0,0,16.71,0.05,27,0,0,0
93305,60139197,3,0,0,16.71,0.04,27,0,0,0
93758,60252288,3,0,0,16.71,0.04,27,0,0,0
94175,60360192,3,0,0,16.71,0.05,27,0,0,0
94589,60462525,3,0,0,16.7,0.05,27,0,0,0
95003,60564870,3,0,0,16.7,0.05,27,0,0,0
95456,60676914,3,0,0,16.71,0.05,27,0,0,0
95867,60781641,3,0,0,16.71,0.04,27,0,0,0
96321,60891943,3,0,0,16.7,0.04,27,0,0,0
96732,60993330,3,0,0,16.7,0.04,27,0,0,0
97193,61111919,3,0,0,16.7,0.05,27,0,0,0
97606,61213903,3,0,0,16.7,0.05,27,0,0,0
98019,61318064,3,0,0,16.71,0.05,27,0,0,0
98473,61427636,3,0,0,16.71,0.05,27,0,0,0
98841,61528889,3,0,0,16.71,0.05,27,0,0,0
99254,61631703,3,0,0,16.71,0.05,27,0,0,0
99673,61739793,3,0,0,16.71,0.05,27,0,0,0
100131,61855673,3,0,0,16.7,0.04,27,0,0,0
100541,61956271,3,0,0,16.7,0.04,27,0,0,0
100958,62060850,3,0,0,16.7,0.04,27,0,0,0
101409,62177326,3,0,0,16.71,0.04,27,0,0,0
101824,62278164,3,0,0,16.7,0.04,27,0,0,0
102238,62385617,3,0,0,16.71,0.04,27,0,0,0
102652,62493204,3,0,0,16.7,0.05,27,0,0,0
103068,62595128,3,0,0,16.7,0.05,27,0,0,0
103551,62712576,3,0,0,16.7,0.05,27,0,0,0
103965,62814350,3,0,0,16.7,0.05,27,0,0,0
104377,62918068,3,0,0,16.7,0.05,27,0,0,0
104834,63029132,3,0,0,16.7,0.05,27,0,0,0
105244,63132176,3,0,0,16.71,0.05,27,0,0,0
105696,63243790,3,0,0,16.7,0.05,27,0,0,0
106108,63348679,3,0,0,16.7,0.04,27,0,0,0
106525,63452925,3,0,0,16.71,0.04,27,0,0,0
106978,63567095,3,0,0,16.7,0.04,27,0,0,0
107390,63670043,3,0,0,16.7,0.04,27,0,0,0
107848,63783955,3,0,0,16.7,0.04,27,0,0,0
108257,63884649,3,0,0,16.7,0.04,27,0,0,0
108675,63988055,3,0,0,16.71,0.04,27,0,0,0
109133,64107359,3,0,0,16.7,0.04,27,0,0,0
109509,64201600,3,0,0,16.7,0.05,27,0,0,0
109961,64315051,3,0,0,16.7,0.04,27,0,0,0
110374,64417345,3,0,0,16.7,0.04,27,0,0,0
110827,64528966,3,0,0,16.7,0.04,27,0,0,0
111243,64633724,3,0,0,16.7,0.04,27,0,0,0
111655,64739884,3,0,0,16.71,0.05,27,0,0,0
112110,64850700,3,0,0,16.7,0.05,27,0,0,0
112524,64957597,3,0,0,16.7,0.05,27,0,0,0
112943,65061387,3,0,0,16.7,0.05,27,0,0,0
113354,65163350,3,0,0,16.7,0.05,27,0,0,0
113767,65266178,3,0,0,16.7,0.05,27,0,0,0
114218,65379574,3,0,0,16.71,0.05,27,0,0,0
115054,65591596,3,0,0,16.71,0.05,27,0,0,0
115466,65698927,3,0,0,16.7,0.05,27,0,0,0
115919,65809801,3,0,0,16.71,0.05,27,0,0,0
115977,104864935,3,0,0,16.7,0.05,27,1,0,0
116022,104878693,3,0,0,16.7,0.05,27,1,0,0
116430,104973376,3,0,0,16.7,0.05,27,1,0,0
116889,105081958,3,0,0,16.7,0.05,28,1,0,0
117391,105196683,3,0,0,16.7,0.05,28,1,0,0
117847,105300406,3,0,0,16.7,0.05,28,1,0,0
118300,105404160,3,0,0,16.7,0.05,27,1,0,0
118749,105508366,3,0,0,16.7,0.05,28,1,0,0
119252,105623913,3,0,0,16.7,0.05,27,1,0,0
119665,105720844,3,0,0,16.7,0.05,27,1,0,0
120201,105837938,3,0,0,16.7,0.05,27,1,0,0
120648,105940350,3,0,0,16.7,0.05,28,1,0,0
121106,106044269,3,0,0,16.7,0.05,28,1,0,0
121599,106156775,3,0,0,16.7,0.05,28,1,0,0
122055,106262038,3,0,0,16.7,0.05,27,1,0,0
123009,106486766,3,0,0,16.7,0.05,27,1,0,0
123422,106579943,3,0,0,16.7,0.05,27,1,0,0
123924,106697303,3,0,0,16.7,0.05,28,1,0,0
124380,106801607,3,0,0,16.7,0.04,28,1,0,0
124839,106908152,3,0,0,16.7,0.04,28,1,0,0
125291,107010752,3,8,257,16.69,0.06,28,1,0,0
125781,107122150,3,287,714,16.67,0.12,27,1,0,0
126280,107233693,3,747,1114,16.66,0.18,28,1,0,0
126731,107336801,3,1118,1257,16.67,0.13,28,1,0,0
127226,107449664,3,1262,1314,16.69,0.12,28,1,0,0
127505,107554163,3,1315,1328,16.67,0.12,28,1,0,0
128004,107666692,3,1329,1342,16.68,0.11,28,1,0,0
128412,107760326,3,1342,1342,16.69,0.11,28,1,0,0
128910,107873775,3,1343,1357,16.67,0.11,28,1,0,0
129363,107978686,3,1356,1342,16.68,0.12,28,1,0,0
129859,108095776,3,1343,1357,16.69,0.11,28,1,0,0
130321,108201573,3,1357,1357,16.68,0.11,28,1,0,0
130777,108309599,3,1355,1342,16.69,0.11,28,1,0,0
131685,108518087,3,1342,1342,16.69,0.11,28,1,0,0
132107,108619938,3,1342,1357,16.68,0.11,28,1,0,0
132529,108736319,3,1355,1342,16.68,0.11,28,1,0,0
132988,108841638,3,1343,1357,16.68,0.11,28,1,0,0
133445,108949195,3,1357,1357,16.67,0.11,28,1,0,0
133899,109053199,3,1357,1357,16.68,0.11,28,1,0,0
134362,109166562,3,1357,1357,16.68,0.11,28,1,0,0
134814,109266926,3,1356,1342,16.68,0.11,28,1,0,0
135312,109381306,3,1343,1357,16.69,0.11,28,1,0,0
135764,109485567,3,1357,1357,16.68,0.11,28,1,0,0
136218,109589285,3,1357,1357,16.67,0.11,28,1,0,0
136717,109704175,3,1355,1342,16.69,0.11,28,1,0,0
137138,109805731,3,1342,1357,16.68,0.11,28,1,0,0
137586,109907700,3,1357,1357,16.69,0.11,28,1,0,0
138084,110019918,3,1357,1357,16.68,0.11,28,1,0,0
138543,110128191,3,1357,1357,16.68,0.11,28,1,0,0
139040,110240179,3,1355,1342,16.69,0.11,28,1,0,0
139494,110345668,3,1342,1342,16.67,0.11,28,1,0,0
139953,110451660,3,1342,1357,16.68,0.11,28,1,0,0
140402,110553791,3,1357,1357,16.68,0.11,28,1,0,0
140903,110664856,3,1356,1342,16.68,0.11,28,1,0,0
141352,110767883,3,1342,1357,16.68,0.11,28,1,0,0
141844,110879865,3,1357,1357,16.68,0.11,28,1,0,0
142298,110980581,3,1357,1357,16.68,0.11,28,1,0,0
142799,111096065,3,1355,1342,16.68,0.11,28,1,0,0
143248,111198275,3,1342,1357,16.69,0.11,28,1,0,0
143700,111302707,3,1357,1357,16.68,0.11,28,1,0,0
144201,111413792,3,1357,1357,16.68,0.11,28,1,0,0
145140,111623825,3,1357,1371,16.68,0.11,28,1,0,0
145591,111730136,3,1370,1357,16.68,0.11,28,1,0,0
146088,111843365,3,1357,1357,16.68,0.11,28,1,0,0
146540,111948365,3,1357,1371,16.68,0.11,28,1,0,0
146999,112052758,3,1370,1357,16.68,0.11,28,1,0,0
147460,112162901,3,1350,871,16.72,0.03,28,1,0,0
147956,112277216,3,833,257,16.7,0.02,28,1,0,0
148367,112375083,3,253,0,16.7,0.03,28,1,0,0
148899,112495101,3,0,0,16.7,0.04,28,1,0,0
149355,112598091,3,0,0,16.7,0.04,28,1,0,0
149811,112709367,3,0,0,16.7,0.04,28,1,0,0
150263,112811623,3,0,0,16.7,0.04,28,1,0,0
150754,112922784,3,0,0,16.7,0.04,28,1,0,0
151251,113034918,3,0,0,16.7,0.05,28,1,0,0
151705,113142593,3,0,0,16.7,0.04,28,1,0,0
152161,113247167,3,0,0,16.7,0.04,28,1,0,0
152657,113361584,3,0,0,16.7,0.04,28,1,0,0
153115,113467293,3,0,0,16.7,0.04,28,1,0,0
153573,113576905,3,0,0,16.7,0.04,28,1,0,0
154027,113683146,3,0,0,16.7,0.04,28,1,0,0
154443,113788169,3,0,0,16.7,0.05,28,1,0,0
154928,113899148,3,0,0,16.69,0.05,28,1,0,0
155383,114005715,3,0,0,16.7,0.05,28,1,0,0
155805,114110839,3,0,0,16.7,0.04,28,1,0,0
156301,114226134,3,0,0,16.7,0.04,28,1,0,0
156749,114327972,3,0,0,16.7,0.04,28,1,0,0
157202,114434096,3,0,0,16.7,0.04,28,1,0,0
157698,114550423,3,0,0,16.7,0.04,28,1,0,0
158155,114654089,3,0,0,16.69,0.05,28,1,0,0
158648,114770359,3,0,0,16.7,0.05,28,1,0,0
159105,114874646,3,0,0,16.7,0.05,28,1,0,0
159553,114977334,3,0,0,16.7,0.04,28,1,0,0
160049,115093291,3,0,0,16.7,0.04,28,1,0,0
160506,115200603,3,0,0,16.7,0.05,28,1,0,0
160959,115307827,3,0,0,16.7,0.05,28,1,0,0
161413,115411743,3,0,0,16.7,0.05,28,1,0,0
161906,115525165,3,0,0,16.7,0.04,28,1,0,0
162369,115632561,3,0,0,16.7,0.04,28,1,0,0
162821,115737919,3,0,0,16.7,0.05,28,1,0,0
163318,115853721,3,0,0,16.7,0.05,28,1,0,0
163769,115959937,3,0,0,16.7,0.05,28,1,0,0
164224,116063173,3,0,0,16.7,0.05,28,1,0,0
164678,116171353,3,0,0,16.7,0.05,28,1,0,0
165173,116285821,3,0,0,16.7,0.05,28,1,0,0
165625,116390141,3,0,0,16.7,0.05,28,1,0,0
166077,116496970,3,0,0,16.7,0.05,28,1,0,0
166577,116610947,3,0,0,16.7,0.05,28,1,0,0
167034,116721076,3,0,0,16.69,0.05,28,1,0,0
167486,116826063,3,0,0,16.69,0.05,28,1,0,0
167938,116934959,3,0,0,16.7,0.05,28,1,0,0
168396,117041034,3,0,0,16.69,0.05,28,1,0,0
168846,117147620,3,0,0,16.7,0.05,28,1,0,0
169343,117260941,3,0,0,16.7,0.05,28,1,0,0
169751,117360089,3,0,0,16.7,0.05,28,1,0,0
170655,117571832,3,0,0,16.7,0.04,28,1,0,0
171191,117692042,3,0,0,16.7,0.04,28,1,0,0
171645,117797154,3,0,0,16.7,0.05,28,1,0,0
172098,117903102,3,0,0,16.7,0.05,28,1,0,0
172548,118008944,3,0,0,16.7,0.05,28,1,0,0
173002,118115718,3,0,0,16.7,0.05,28,1,0,0
173499,118230695,3,0,0,16.7,0.05,28,1,0,0
173949,118336827,3,0,0,16.7,0.05,28,1,0,0
174446,118448363,3,0,0,16.7,0.05,28,1,0,0
174899,118554080,3,0,0,16.7,0.05,28,1,0,0
175361,118659114,3,0,0,16.69,0.05,28,1,0,0
175810,118762954,3,0,0,16.7,0.05,28,1,0,0
176312,118880820,3,0,0,16.7,0.04,28,1,0,0
176765,118983968,3,0,0,16.7,0.04,28,1,0,0
177673,119197110,3,0,0,16.7,0.05,28,1,0,0
178129,119305196,3,0,0,16.7,0.05,28,1,0,0
178585,119409892,3,0,0,16.7,0.04,28,1,0,0
179041,119517791,3,0,0,16.7,0.04,28,1,0,0
179537,119630594,3,0,0,16.7,0.04,28,1,0,0
179990,119736099,3,0,0,16.7,0.04,28,1,0,0
180411,119838748,3,0,0,16.7,0.04,28,1,0,0
180904,119953786,3,0,0,16.7,0.04,28,1,0,0
181403,120068357,3,0,0,16.7,0.04,28,1,0,0
181853,120173964,3,0,0,16.7,0.05,28,1,0,0
182304,120279323,3,0,0,16.69,0.05,28,1,0,0
182804,120394042,3,0,0,16.7,0.05,28,1,0,0
183255,120499827,3,0,0,16.7,0.05,28,1,0,0
183713,120605265,3,0,0,16.7,0.04,28,1,0,0
184168,120712335,3,0,0,16.7,0.04,28,1,0,0
184671,120827887,3,0,0,16.7,0.04,28,1,0,0
185084,120929840,3,0,0,16.7,0.04,28,1,0,0
185540,121032686,3,0,0,16.7,0.05,28,1,0,0
186034,121149731,3,0,0,16.7,0.05,28,1,0,0
186490,121253562,3,0,0,16.7,0.05,28,1,0,0
187399,121466682,3,0,0,16.7,0.05,28,1,0,0
187894,121581322,3,0,0,16.7,0.05,28,1,0,0
188765,121787091,3,0,0,16.69,0.04,28,1,0,0
189257,121898127,3,0,0,16.7,0.04,27,1,0,0
189709,122002928,3,0,0,16.7,0.04,28,1,0,0
190206,122119604,3,0,0,16.7,0.05,28,1,0,0
190659,122221839,3,0,0,16.7,0.04,28,1,0,0
191155,122338667,3,0,0,16.7,0.04,28,1,0,0
191609,122440927,3,0,0,16.7,0.04,28,1,0,0
192060,122546355,3,0,0,16.7,0.04,28,1,0,0
192559,122661327,3,0,0,16.7,0.04,28,1,0,0
193010,122767130,3,0,0,16.7,0.04,28,1,0,0
193465,122870113,3,0,0,16.69,0.04,28,1,0,0
193921,122978354,3,0,0,16.7,0.05,28,1,0,0
194421,123096188,3,0,0,16.7,0.05,28,1,0,0
194874,123200280,3,0,0,16.7,0.05,28,1,0,0
195326,123308319,3,0,0,16.7,0.04,28,1,0,0
195823,123420224,3,0,0,16.7,0.04,28,1,0,0
196237,123519634,3,0,0,16.7,0.05,28,1,0,0
196734,123633823,3,0,0,16.7,0.04,28,1,0,0
197194,123743396,3,0,0,16.7,0.04,28,1,0,0
197649,123846342,3,0,0,16.7,0.04,28,1,0,0
198104,123955560,3,0,0,16.7,0.05,28,1,0,0
198604,124069141,3,0,0,16.7,0.04,28,1,0,0
199054,124175060,3,0,0,16.7,0.05,28,1,0,0
199546,124290172,3,0,0,16.7,0.05,28,1,0,0
200001,124397637,3,0,0,16.7,0.05,28,1,0,0
200454,124506604,3,0,0,16.7,0.05,28,1,0,0
200911,124613358,3,0,0,16.7,0.05,28,1,0,0
201367,124724322,3,0,0,16.7,0.05,28,1,0,0
201829,124835108,3,0,0,16.7,0.05,28,1,0,0
202283,124941170,3,0,0,16.7,0.05,28,1,0,0
202738,125044622,3,0,0,16.7,0.05,28,1,0,0
203233,125164060,3,0,0,16.7,0.05,28,1,0,0
204179,125380799,3,0,0,16.7,0.05,28,1,0,0
204595,125482261,3,0,0,16.7,0.05,28,1,0,0
205094,125596903,3,0,0,16.69,0.05,28,1,0,0
205999,125809324,3,0,0,16.7,0.05,28,1,0,0
206419,125915700,3,0,0,16.7,0.05,28,1,0,0
206876,126021135,3,0,0,16.7,0.05,28,1,0,0
207376,126139684,3,0,0,16.7,0.04,28,1,0,0
207829,126243630,3,0,0,16.7,0.05,28,1,0,0
208283,126352278,3,0,0,16.7,0.05,28,1,0,0
208782,126466770,3,0,0,16.7,0.05,28,1,0,0
209234,126573136,3,0,0,16.7,0.05,28,1,0,0
209687,126679830,3,0,0,16.7,0.05,28,1,0,0
210109,126782333,3,0,0,16.7,0.05,28,1,0,0
210596,126891750,3,0,0,16.7,0.05,28,1,0,0
211102,127006838,3,0,0,16.7,0.05,28,1,0,0
211557,127116194,3,0,0,16.7,0.05,28,1,0,0
211614,197669135,3,0,0,16.69,0.05,29,2,0,0
212109,197783665,3,0,0,16.69,0.05,29,2,0,0
212567,197892655,3,0,0,16.69,0.05,29,2,0,0
213021,197994933,3,0,0,16.69,0.05,29,2,0,0
213471,198099333,3,0,0,16.69,0.05,29,2,0,0
213923,198199685,3,0,0,16.69,0.05,29,2,0,0
214378,198308684,3,0,0,16.69,0.05,29,2,0,0
214871,198414686,3,0,0,16.69,0.05,29,2,0,0
215335,198530177,3,0,0,16.69,0.05,29,2,0,0
215788,198632540,3,0,0,16.69,0.04,29,2,0,0
216737,198847946,3,0,0,16.69,0.04,29,2,0,0
217686,199063914,3,0,0,16.69,0.05,29,2,0,0
218141,199171175,3,0,0,16.69,0.05,29,2,0,0
218595,199273403,3,0,0,16.69,0.05,29,2,0,0
219095,199387623,3,0,0,16.69,0.05,29,2,0,0
219513,199490121,3,0,0,16.69,0.05,29,2,0,0
220004,199596871,3,0,0,16.69,0.05,29,2,0,0
220463,199706101,3,0,0,16.69,0.04,29,2,0,0
221420,199924149,3,25,614,16.67,0.11,29,2,0,0
221873,200025594,3,655,1057,16.66,0.18,29,2,0,0
222360,200132266,3,1073,1257,16.66,0.13,29,2,0,0
223312,200350761,3,1259,1328,16.67,0.11,29,2,0,0
223678,200453581,3,1328,1342,16.67,0.11,29,2,0,0
224131,200556605,3,1342,1357,16.67,0.11,29,2,0,0
224630,200668875,3,1357,1357,16.67,0.11,29,2,0,0
225084,200776826,3,1357,1357,16.66,0.11,29,2,0,0
225545,200884876,3,1357,1357,16.67,0.11,29,2,0,0
226492,201101380,3,1357,1357,16.67,0.11,29,2,0,0
226948,201204082,3,1357,1357,16.66,0.11,29,2,0,0
227857,201411153,3,1357,1357,16.67,0.11,29,2,0,0
228353,201525340,3,1357,1357,16.67,0.11,29,2,0,0
228807,201626697,3,1357,1357,16.66,0.11,29,2,0,0
229262,201734141,3,1357,1357,16.67,0.11,29,2,0,0
229762,201845427,3,1357,1357,16.67,0.11,29,2,0,0
230221,201951970,3,1355,1342,16.67,0.11,29,2,0,0
230674,202052784,3,1342,1357,16.66,0.11,29,2,0,0
231128,202156775,3,1357,1357,16.66,0.11,29,2,0,0
231626,202267057,3,1357,1357,16.67,0.11,29,2,0,0
232086,202375742,3,1357,1357,16.66,0.11,29,2,0,0
232546,202482690,3,1357,1357,16.67,0.11,29,2,0,0
232998,202587315,3,1357,1357,16.67,0.11,29,2,0,0
233487,202696141,3,1357,1357,16.66,0.11,29,2,0,0
233943,202800755,3,1357,1357,16.66,0.11,29,2,0,0
234398,202903938,3,1357,1357,16.66,0.11,29,2,0,0
235162,203119223,3,1357,1357,16.67,0.11,29,2,0,0
235646,203231113,3,1357,1357,16.67,0.11,29,2,0,0
236062,203331666,3,1357,1357,16.67,0.11,29,2,0,0
236563,203446576,3,1357,1357,16.66,0.11,29,2,0,0
236977,203546576,3,1357,1357,16.67,0.11,29,2,0,0
237437,203650909,3,1357,1357,16.67,0.11,29,2,0,0
237929,203763358,3,1357,1357,16.67,0.11,29,2,0,0
238389,203867105,3,1357,1357,16.67,0.11,29,2,0,0
238842,203971729,3,1357,1357,16.66,0.11,29,2,0,0
239380,204090937,3,1377,1500,16.63,0.23,29,2,0,0
240292,204302780,3,1641,4785,15.48,4.78,29,2,0,0
240747,204404652,3,4906,6085,15.76,4.98,29,2,0,0
241197,204507313,3,6090,6228,15.75,4.29,29,3,0,0
241695,204617864,3,6230,6300,15.71,4.02,29,3,0,0
242185,204729860,3,6258,5828,16.2,2.18,29,3,0,0
242643,204833798,3,5770,5200,16.17,1.51,29,3,0,0
243100,204941269,3,5181,4885,16.15,1.78,29,3,0,0
243520,205041652,3,4885,4900,16.1,1.91,29,3,0,0
244052,205158103,3,4894,4857,16.13,1.86,29,3,0,0
244506,205259752,3,4845,4685,16.14,1.56,29,3,0,0
244964,205365583,3,4694,4857,15.8,2.61,29,3,0,0
245420,205467044,3,4860,5257,15.89,2.81,29,3,0,0
245871,205572164,3,5257,5257,15.85,2.64,29,3,0,0
246360,205681845,3,5256,5228,15.98,2.25,29,3,0,0
246858,205794741,3,5221,5114,16,1.92,30,3,0,0
247272,205893667,3,5111,4914,16.01,2.16,30,3,0,0
247769,206003706,3,4917,5014,15.97,2.27,30,4,0,0
248258,206110938,3,5014,5014,16.04,2.31,29,4,0,0
248715,206215768,3,5014,5014,16.03,2.26,29,4,0,0
249208,206326585,3,5014,5014,16.04,2.14,30,4,0,0
249663,206429785,3,5017,5085,16.01,2.37,30,4,0,0
250120,206535780,3,5087,5200,15.93,2.49,30,4,0,0
250614,206651642,3,5198,5185,16.01,2.64,30,4,0,0
251017,206750325,3,5190,5471,16.02,2.84,30,4,0,0
251515,206866633,3,5469,5442,15.94,2.78,30,4,0,0
251921,206965709,3,5443,5571,16.17,2.52,30,4,0,0
252410,207083657,3,5472,4457,16.39,0.89,30,4,0,0
252858,207186935,3,4454,4314,16.21,1.67,30,4,0,0
253300,207293767,3,4318,4585,16.15,1.62,30,4,0,0
253753,207402734,3,4586,4671,16.16,1.77,30,4,0,0
254241,207520356,3,4682,4800,16.08,2.03,30,4,0,0
254690,207629843,3,4805,4857,16.13,2.01,30,5,0,0
255138,207744174,3,4865,4957,16.04,2.63,30,5,0,0
255590,207850268,3,4970,5157,15.98,2.44,30,5,0,0
256036,207967052,3,5147,5085,16,2.48,30,5,0,0
256479,208069369,3,5108,5300,15.94,2.23,30,5,0,0
256924,208179132,3,5295,5242,15.95,2.42,30,5,0,0
257335,208282354,3,5242,5300,15.97,2.42,30,5,0,0
257782,208394101,3,5298,5214,16.02,2.18,30,5,0,0
258271,208515620,3,5206,5128,16.01,2.24,30,5,0,0
258678,208619789,3,5135,5200,15.96,2.51,30,5,0,0
259117,208727886,3,5198,5171,16.04,2.28,30,5,0,0
259526,208829858,3,5171,5171,16.03,2.47,30,5,0,0
259976,208940123,3,5172,5285,16.02,2.4,30,5,0,0
260871,209163950,3,5278,5085,16.02,1.9,30,6,0,0
261322,209273107,3,5082,4971,16.05,1.83,30,6,0,0
261768,209380923,3,4968,4828,16.08,1.6,30,6,0,0
262214,209495935,3,4826,4785,15.93,2.14,30,6,0,0
262661,209602171,3,4791,4885,16,1.97,30,6,0,0
263111,209711969,3,4889,5000,15.92,1.97,30,6,0,0
263552,209816678,3,5002,5057,15.97,2.2,30,6,0,0
263999,209926622,3,5053,5014,15.98,1.94,30,6,0,0
264449,210036087,3,5021,5085,15.96,2.07,30,6,0,0
264894,210147605,3,5080,5028,15.95,1.96,30,6,0,0
265304,210250551,3,5023,4928,15.98,1.98,30,6,0,0
265749,210359627,3,4930,4985,15.85,2.34,30,6,0,0
266160,210463832,3,4989,5200,15.9,2.58,30,6,0,0
266681,210584290,3,5202,5242,15.87,2.48,30,6,0,0
267133,210699083,3,5239,5214,15.89,2.37,30,6,0,0
267543,210799922,3,5220,5285,15.95,2.29,30,6,0,0
267948,210903838,3,5275,5142,15.93,2.27,30,7,0,0
268396,211010908,3,5147,5257,15.88,2.36,30,7,0,0
268806,211117731,3,5255,5228,15.85,2.45,30,7,0,0
269296,211233301,3,5247,5442,15.93,2.46,30,7,0,0
269747,211341191,3,5429,5300,15.92,2.6,30,7,0,0
270151,211440581,3,5298,5271,15.94,2.47,30,7,0,0
270600,211554581,3,5278,5357,15.92,2.56,30,7,0,0
271049,211663118,3,5353,5314,15.91,2.62,30,7,0,0
271496,211775322,3,5317,5357,15.91,2.62,30,7,0,0
271908,211877240,3,5358,5385,15.92,2.36,30,7,0,0
272359,211990676,3,5379,5328,15.92,2.65,30,7,0,0
272802,212099344,3,5331,5385,15.89,2.62,30,7,0,0
273255,212211334,3,5377,5300,15.88,2.52,30,7,0,0
273706,212325591,3,5293,5228,15.88,2.47,30,8,0,0
274107,212422130,3,5228,5242,15.88,2.41,30,8,0,0
274552,212532282,3,5250,5414,15.91,2.71,30,8,0,0
275000,212640114,3,5414,5414,15.85,2.42,30,8,0,0
275450,212756102,3,5390,5071,15.87,1.64,30,8,0,0
275906,212866066,3,5077,5142,15.95,2.93,30,8,0,0
276352,212973890,3,5159,5328,15.87,2.66,30,8,0,0
277202,213187632,3,5329,5457,15.79,2.82,30,8,0,0
277654,213293347,3,5459,5628,15.77,2.96,30,8,0,0
278138,213407174,3,5617,5514,15.81,2.82,30,8,0,0
278586,213522913,3,5520,5585,15.84,2.76,30,8,0,0
278990,213621622,3,5579,5471,15.85,2.51,30,9,0,0
279443,213737820,3,5445,5171,15.88,2.34,30,9,0,0
279850,213837309,3,5168,5057,15.93,2.13,30,9,0,0
280299,213948903,3,5068,5171,15.87,2.55,30,9,0,0
280745,214055322,3,5168,5114,15.89,2.57,30,9,0,0
281177,214158718,3,5117,5242,15.92,2.67,30,9,0,0
281678,214277393,3,5251,5400,15.85,2.75,30,9,0,0
282078,214377809,3,5402,5457,15.87,2.79,30,9,0,0
282530,214489139,3,5453,5371,15.85,2.89,30,9,0,0
282976,214597940,3,5380,5514,15.83,2.74,30,9,0,0
283424,214709922,3,5498,5342,15.78,2.9,30,9,0,0
283875,214818924,3,5350,5442,15.83,2.54,30,9,0,0
284321,214929261,3,5440,5414,15.77,2.62,30,9,0,0
284774,215037645,3,5406,5300,15.85,2.42,30,10,0,0
285188,215148091,3,5301,5328,15.8,2.86,30,10,0,0
285642,215257653,3,5330,5371,15.83,2.1,30,10,0,0
286126,215371796,3,5347,5114,15.85,2.51,30,10,0,0
286531,215469633,3,5112,5085,15.86,2.12,30,10,0,0
286974,215580797,3,5084,5071,15.76,2.66,30,10,0,0
287466,215700396,3,5080,5157,15.83,2.32,30,10,0,0
287911,215807852,3,5155,5128,15.84,2.16,30,10,0,0
288353,215922942,3,5128,5128,15.76,2.33,30,10,0,0
288804,216029080,3,5133,5200,15.79,2.78,30,10,0,0
289250,216142759,3,5232,5471,15.76,2.88,30,10,0,0
289703,216253114,3,5462,5371,15.8,2.96,30,10,0,0
290151,216360294,3,5385,5528,15.84,3.02,30,10,0,0
290562,216459958,3,5533,5600,15.75,3.05,30,10,0,0
290965,216561118,3,5600,5671,15.78,3.28,30,11,0,0
291449,216679971,3,5686,5828,15.8,3.33,30,11,0,0
291864,216787340,3,5819,5728,15.69,3.31,30,11,0,0
292312,216902835,3,5735,5785,15.79,3.11,30,11,0,0
292764,217014268,3,5785,5785,15.67,3.34,30,11,0,0
293168,217115088,3,5782,5642,15.7,3.01,30,11,0,0
294067,217333348,3,5636,5471,15.77,2.37,30,11,0,0
294988,217552554,3,5472,5514,15.75,2.56,30,11,0,0
295437,217661053,3,5504,5400,15.73,2.88,30,11,0,0
295884,217770674,3,5412,5585,15.8,2.9,30,12,0,0
296337,217881956,3,5587,5628,15.7,3.07,30,12,0,0
296739,217981131,3,5633,5857,15.64,3.45,30,12,0,0
297186,218094554,3,5867,5971,15.53,3.84,30,12,0,0
297631,218199194,3,5972,6057,15.62,3.86,30,12,0,0
298083,218309871,3,6062,6171,15.6,3.62,30,12,0,0
298530,218418642,3,6165,6057,15.66,4,30,12,0,0
298977,218529943,3,6051,5985,15.65,3.29,30,12,0,0
299424,218638298,3,5993,6185,15.64,4.26,30,12,0,0
299914,218755918,3,6191,6285,15.67,3.79,30,13,0,0
300366,218867310,3,6279,6228,15.55,3.93,30,13,0,0
300771,218969710,3,6252,6571,15.42,4.9,30,13,0,0
301221,219077274,3,6583,6714,15.56,4.68,30,13,0,0
301666,219187079,3,6711,6685,15.57,4.52,30,13,0,0
302566,219404696,3,6671,6257,15.6,3.85,30,13,0,0
303460,219622327,3,6256,6242,15.64,3.76,30,14,0,0
303906,219733962,3,6214,5957,15.58,3.27,30,14,0,0
304308,219832193,3,5968,6214,15.48,4.08,30,14,0,0
304756,219943133,3,6223,6671,15.42,4.73,30,14,0,0
305209,220050847,3,6666,6557,15.58,4.26,30,14,0,0
305658,220163813,3,6550,6400,15.5,4.04,30,14,0,0
306519,220377189,3,6390,5971,15.66,2.75,30,14,0,0
307010,220498057,3,5982,6100,15.52,3.7,30,15,0,0
307414,220595768,3,6087,5800,15.79,2.27,30,15,0,0
307818,220696282,3,5793,5442,15.85,2.29,30,15,0,0
308313,220815828,3,5436,5357,15.88,2.22,30,15,0,0
308718,220918682,3,5338,4900,16.07,1.21,30,15,0,0
309206,221031722,3,4879,4571,15.98,1.33,30,15,0,0
309643,221136579,3,4565,4485,15.97,1.28,30,15,0,0
310137,221253927,3,4475,4371,15.94,1.33,30,15,0,0
310544,221354196,3,4374,4428,15.86,1.49,30,15,0,0
310992,221461691,3,4428,4457,15.94,1.48,30,15,0,0
311473,221577083,3,4459,4485,15.98,1.39,30,15,0,0
311923,221685350,3,4488,4528,15.89,1.68,30,15,0,0
312328,221788185,3,4525,4471,15.92,1.44,30,15,0,0
312776,221901061,3,4480,4557,15.8,1.68,30,15,0,0
313187,222004961,3,4557,4557,15.88,1.76,30,15,0,0
313591,222106619,3,4559,4685,15.8,1.9,30,15,0,0
314081,222220455,3,4704,5000,15.95,2.07,30,15,0,0
314528,222333164,3,4994,4914,15.91,2.2,30,15,0,0
314937,222434786,3,4917,5100,15.91,1.97,30,16,0,0
315425,222554124,3,5072,4771,15.88,1.44,30,16,0,0
315873,222664155,3,4805,5157,15.87,2.5,30,16,0,0
316283,222770580,3,5142,4957,15.85,1.92,30,16,0,0
316733,222877284,3,4981,5285,15.78,3.04,30,16,0,0
317141,222980938,3,5303,5585,15.89,3.27,30,16,0,0
317587,223091653,3,5595,5714,15.85,2.72,30,16,0,0
318038,223207644,3,5701,5600,15.77,2.73,30,16,0,0
318450,223307697,3,5602,5628,15.79,2.86,30,16,0,0
318899,223416123,3,5615,5428,15.82,2.64,30,16,0,0
319754,223626159,3,5428,5485,15.76,2.89,30,16,0,0
320236,223749384,3,5479,5442,15.79,2.63,30,16,0,0
320645,223841148,3,5443,5514,15.78,2.68,30,17,0,0
321128,223961745,3,5510,5457,15.76,2.65,30,17,0,0
321574,224068174,3,5455,5385,15.76,2.49,30,17,0,0
322018,224179956,3,5374,5300,15.73,2.37,30,17,0,0
322468,224292690,3,5285,5200,15.73,2.61,30,17,0,0
323393,224511474,3,5213,5400,15.75,2.69,30,17,0,0
323797,224607174,3,5398,5328,15.72,2.69,30,17,0,0
324249,224722278,3,5333,5371,15.73,2.7,30,17,0,0
325148,224940625,3,5374,5442,15.79,2.66,30,17,0,0
325555,225040378,3,5444,5657,15.67,2.89,30,17,0,0
326492,225274049,3,5660,5714,15.73,3.08,30,18,0,0
326895,225374956,3,5715,5742,15.75,3.05,30,18,0,0
327350,225490652,3,5722,5600,15.68,2.77,30,18,0,0
327758,225593707,3,5606,5700,15.64,3.53,30,18,0,0
328220,225699900,3,5701,5857,15.72,3.78,30,18,0,0
328662,225814120,3,5883,6142,15.62,3.24,30,18,0,0
329109,225922757,3,6123,5871,15.51,3.44,30,18,0,0
329562,226031626,3,5871,5871,15.52,3.82,30,18,0,0
330005,226144778,3,5900,6185,15.46,3.75,30,18,0,0
330454,226252761,3,6180,6142,15.51,3.82,30,18,0,0
330820,226344616,3,6137,5900,15.58,2.37,30,19,0,0
331306,226461326,3,5900,5900,15.66,3.85,30,19,0,0
331716,226564860,3,5903,6100,15.67,3.37,30,19,0,0
332197,226678290,3,6082,5742,15.72,2.77,30,19,0,0
332651,226796915,3,5743,5757,15.69,3.14,30,19,0,0
333103,226904961,3,5764,5900,15.73,2.97,30,19,0,0
333547,227012078,3,5880,5571,15.69,2.9,30,19,0,0
333990,227122670,3,5573,5600,15.64,3.21,30,19,0,0
334406,227227189,3,5608,5785,15.67,3.24,30,19,0,0
335121,227445963,3,5543,5257,15.79,2.03,30,20,0,0
335523,227549649,3,5269,5514,15.86,2.95,30,20,0,0
335978,227661114,3,5504,5371,15.84,2.21,30,20,0,0
336418,227767140,3,5364,5271,15.86,2.41,30,20,0,0
336874,227878275,3,5287,5442,15.8,2.72,30,20,0,0
337278,227981548,3,5418,4928,15.74,1.6,30,20,0,0
337728,228096687,3,4992,5628,15.75,3.59,30,20,0,0
338138,228198069,3,5634,6085,15.69,4.25,30,20,0,0
338546,228302115,3,6088,6242,15.74,3.69,30,20,0,0
339037,228417184,3,6235,6171,15.76,3.25,30,20,0,0
339483,228527940,3,6158,5900,15.74,3.19,30,20,0,0
339935,228637876,3,5898,5885,15.68,3.1,30,20,0,0
340377,228746108,3,5870,5728,15.74,3.15,30,21,0,0
340785,228846677,3,5745,5985,15.69,3.24,30,21,0,0
341200,228954585,3,5985,6000,15.63,3.5,30,21,0,0
342142,229179890,3,5998,5971,15.65,3.1,30,21,0,0
342553,229282526,3,5966,5700,15.6,2.65,30,21,0,0
343034,229396789,3,5692,5600,15.64,2.95,30,21,0,0
343482,229507887,3,5611,5771,15.67,2.97,30,21,0,0
343888,229606912,3,5769,5728,15.63,3.04,30,21,0,0
344338,229716920,3,5725,5642,15.66,3.13,30,21,0,0
344839,229835877,3,5633,5542,15.61,2.94,30,22,0,0
345281,229944451,3,5562,5771,15.66,2.92,30,22,0,0
345684,230044082,3,5768,5657,15.67,2.86,30,22,0,0
346130,230151862,3,5655,5585,15.67,2.64,30,22,0,0
346630,230273263,3,5581,5542,15.68,2.86,30,22,0,0
347034,230371765,3,5539,5428,15.66,2.88,30,22,0,0
347530,230489870,3,5434,5500,15.65,2.67,30,22,0,0
347962,230593815,3,5490,5371,15.64,3.03,30,22,0,0
348418,230709880,3,5394,5585,15.72,2.87,30,22,0,0
348821,230806849,3,5576,5414,15.74,2.11,30,22,0,0
349272,230921320,3,5391,5157,15.76,2.32,30,22,0,0
349721,231029958,3,5187,5485,15.7,3.25,30,23,0,0
350169,231138684,3,5490,5542,15.6,3.04,30,23,0,0
350575,231236779,3,5545,5614,15.63,3.14,30,23,0,0
351021,231346114,3,5617,5657,15.62,2.99,30,23,0,0
351466,231453272,3,5651,5571,15.64,2.58,30,23,0,0
351915,231566842,3,5546,5285,15.7,2.41,30,23,0,0
352362,231674834,3,5279,5228,15.68,2.44,30,23,0,0
352765,231778299,3,5226,5200,15.66,2.42,30,23,0,0
353248,231895590,3,5200,5200,15.73,2.2,30,23,0,0
353659,231999649,3,5187,5057,15.7,2.23,30,23,0,0
354106,232107697,3,5052,4971,15.64,2.24,30,23,0,0
355005,232327871,3,4974,5071,15.65,2.27,30,23,0,0
355454,232436816,3,5075,5128,15.72,2.08,30,24,0,0
355860,232539243,3,5128,5171,15.72,2.23,30,24,0,0
356310,232648080,3,5173,5228,15.7,2.37,30,24,0,0
356744,232751906,3,5230,5314,15.72,2.58,30,24,0,0
357197,232864045,3,5313,5271,15.69,2.23,30,24,0,0
357642,232974295,3,5271,5271,15.69,2.12,30,24,0,0
358093,233086906,3,5274,5314,15.66,2.81,30,24,0,0
358978,233307649,3,5291,4857,15.79,1.86,30,24,0,0
359428,233416316,3,4857,4871,15.77,2.09,30,24,0,0
359872,233524677,3,4879,5114,15.73,2.28,30,24,0,0
360360,233638154,3,5124,5271,15.75,2.58,30,24,0,0
360763,233740136,3,5271,5285,15.68,2.44,30,24,0,0
361208,233847725,3,5286,5400,15.72,2.24,30,24,0,0
361660,233966654,3,5380,5242,15.69,2.28,30,24,0,0
362111,234072255,3,5247,5328,15.66,2.27,30,25,0,0
362509,234173799,3,5325,5142,15.72,2.19,30,25,0,0
363404,234390747,3,5141,5128,15.63,2.19,30,25,0,0
363930,234515561,3,5122,5085,15.64,2.24,30,25,0,0
364339,234616362,3,5097,5228,15.61,2.56,30,25,0,0
364783,234726640,3,5235,5314,15.57,2.6,30,25,0,0
365228,234833467,3,5306,5228,15.6,2.36,30,25,0,0
365678,234947063,3,5224,5185,15.59,2.67,30,25,0,0
366081,235045686,3,5194,5400,15.56,3.02,30,25,0,0
366562,235160597,3,5435,5785,15.62,3.16,30,25,0,0
366969,235260402,3,5785,5785,15.67,3.12,30,25,0,0
367455,235377339,3,5779,5728,15.69,2.93,30,25,0,0
367864,235478087,3,5727,5714,15.69,3.23,30,26,0,0
368306,235585840,3,5714,5742,15.63,3.22,30,26,0,0
369236,235810692,3,5742,5757,15.66,3.07,30,26,0,0
370089,236022701,3,5754,5442,15.66,2.67,30,26,0,0
370532,236129462,3,5444,5585,15.69,2.93,30,26,0,0
371422,236347582,3,5583,5428,15.66,2.51,30,26,0,0
371871,236454077,3,5425,5271,15.71,2.17,30,26,0,0
372813,236680852,3,5268,5200,15.64,2.32,30,27,0,0
373294,236798692,3,5195,5128,15.72,1.99,30,27,0,0
373741,236911710,3,5122,5071,15.63,2.27,30,27,0,0
374148,237012227,3,5070,5042,15.67,2.47,30,27,0,0
374553,237115669,3,5045,5100,15.67,2.32,30,27,0,0
375046,237233856,3,5103,5142,15.67,2.32,30,27,0,0
375448,237335558,3,5143,5171,15.67,2.18,30,27,0,0
375930,237448140,3,5176,5300,15.73,2.34,30,27,0,0
376379,237558885,3,5290,5071,15.71,2.14,30,27,0,0
376827,237667868,3,5080,5300,15.64,2.54,30,27,0,0
377274,237778345,3,5304,5371,15.65,2.6,30,27,0,0
377719,237887719,3,5374,5414,15.6,2.79,30,27,0,0
378162,237995276,3,5419,5500,15.6,2.75,30,27,0,0
378567,238097283,3,5500,5542,15.66,2.82,30,28,0,0
379057,238212935,3,5545,5585,15.65,2.69,30,28,0,0
379502,238323337,3,5587,5614,15.63,2.62,30,28,0,0
380309,238530356,3,5610,5271,15.65,2.47,30,28,0,0
380759,238640100,3,5279,5400,15.7,2.63,30,28,0,0
381202,238750829,3,5400,5400,15.63,2.7,30,28,0,0
381606,238850665,3,5400,5414,15.7,2.5,30,28,0,0
382085,238964093,3,5407,5285,15.71,2.51,30,28,0,0
383017,239186874,3,5287,5357,15.66,2.58,30,28,0,0
383464,239306599,3,5345,5242,15.69,2.31,30,28,0,0
383871,239401292,3,5242,5285,15.7,2.45,30,28,0,0
384351,239514975,3,5303,5457,15.66,2.44,30,29,0,0
384807,239629085,3,5431,5242,15.76,2.4,30,29,0,0
385246,239734751,3,5249,5342,15.73,2.6,30,29,0,0
386137,239957593,3,5342,5357,15.72,2.64,30,29,0,0
386588,240061964,3,5370,5514,15.72,2.75,30,29,0,0
387036,240173191,3,5521,5600,15.67,2.65,30,29,0,0
387481,240282897,3,5589,5428,15.79,2.21,30,29,0,0
387925,240391088,3,5392,5128,15.76,2.16,30,29,0,0
388379,240506734,3,5147,5328,15.64,2.7,30,29,0,0
388782,240603808,3,5331,5557,15.73,3.01,30,29,0,0
389274,240727277,3,5566,5671,15.7,2.84,30,29,0,0
389677,240822174,3,5670,5614,15.63,3.58,30,29,0,0
390122,240933646,3,5637,5928,15.61,3.16,30,30,0,0
390573,241041711,3,5913,5714,15.47,3.48,30,30,0,0
391008,241145329,3,5721,5971,15.54,3.69,30,30,0,0
391463,241259453,3,5972,6071,15.48,3.82,30,30,0,0
391908,241367334,3,6071,6071,15.49,3.87,30,30,0,0
392406,241493192,3,6072,6085,15.64,3.37,30,30,0,0
392812,241591209,3,6076,5857,15.64,2.71,30,30,0,0
393262,241707751,3,5847,5742,15.64,2.91,30,30,0,0
393663,241804902,3,5734,5585,15.66,2.59,30,30,0,0
394109,241914104,3,5583,5514,15.64,2.86,30,30,0,0
394600,242030129,3,5514,5514,15.61,2.66,30,31,0,0
395003,242132568,3,5512,5471,15.63,2.56,30,31,0,0
395486,242243597,3,5472,5500,15.63,2.48,30,31,0,0
395931,242352747,3,5499,5485,15.63,2.5,30,31,0,0
396380,242460951,3,5474,5371,15.6,2.57,30,31,0,0
396780,242560941,3,5370,5357,15.55,2.67,30,31,0,0
397227,242669599,3,5358,5457,15.58,3.01,30,31,0,0
397673,242782223,3,5468,5757,15.52,3.23,30,31,0,0
398170,242898118,3,5754,5728,15.6,3.17,30,31,0,0
398618,243007771,3,5722,5671,15.6,3.18,30,31,0,0
399059,243114910,3,5671,5671,15.66,2.98,30,31,0,0
399539,243222850,3,5675,5728,15.66,2.86,30,31,0,0
399945,243330615,3,5727,5714,15.65,2.81,30,32,0,0
400391,243439280,3,5702,5428,15.7,2.58,30,32,0,0
400834,243548830,3,5433,5485,15.67,2.65,30,32,0,0
401678,243759301,3,5483,5400,15.69,2.65,30,32,0,0
402172,243880769,3,5405,5457,15.7,2.7,30,32,0,0
402577,243978110,3,5457,5485,15.64,2.71,30,32,0,0
403027,244086745,3,5481,5428,15.72,2.65,30,32,0,0
403873,244298041,3,5428,5485,15.65,2.68,30,32,0,0
404319,244404050,3,5479,5357,15.62,2.75,30,32,0,0
404768,244517124,3,5368,5542,15.64,2.93,30,32,0,0
405257,244632924,3,5542,5542,15.63,2.85,30,33,0,0
405701,244744301,3,5534,5457,15.67,2.81,30,33,0,0
406150,244851152,3,5464,5542,15.57,2.89,30,33,0,0
406547,244948864,3,5540,5471,15.68,2.71,30,33,0,0
407002,245061744,3,5469,5442,15.67,2.71,30,33,0,0
407446,245169812,3,5439,5400,15.7,2.53,30,33,0,0
408298,245380051,3,5400,5414,15.66,2.8,30,33,0,0
408899,245602657,3,5565,5514,15.61,2.93,30,33,0,0
409345,245711138,3,5526,5657,15.59,2.83,30,33,0,0
409793,245821728,3,5664,5742,15.71,2.82,30,33,0,0
410228,245925323,3,5708,5271,15.67,2.47,30,34,0,0
410683,246037097,3,5271,5271,15.7,2.37,30,34,0,0
411122,246141050,3,5269,5228,15.7,2.63,30,34,0,0
411572,246253173,3,5239,5400,15.73,2.69,30,34,0,0
411982,246354636,3,5399,5385,15.68,3.01,30,34,0,0
412428,246461324,3,5398,5585,15.67,2.96,30,34,0,0
412881,246573582,3,5588,5628,15.64,2.96,30,34,0,0
413362,246689057,3,5635,5700,15.65,2.91,30,34,0,0
413766,246787612,3,5691,5614,15.64,2.88,30,34,0,0
414215,246898675,3,5621,5700,15.69,2.88,30,34,0,0
414654,247001928,3,5693,5557,15.58,2.79,30,34,0,0
415066,247110813,3,5556,5542,15.64,2.99,30,34,0,0
415993,247333995,3,5540,5514,15.6,2.65,30,35,0,0
416443,247446128,3,5507,5457,15.68,2.6,30,35,0,0
416854,247546654,3,5454,5414,15.63,2.72,30,35,0,0
417299,247653434,3,5419,5557,15.6,2.89,30,35,0,0
417745,247765865,3,5544,5385,15.67,2.59,30,35,0,0
418194,247879062,3,5386,5400,15.63,2.77,30,35,0,0
418639,247993770,3,5413,5500,15.6,2.89,30,35,0,0
419443,248186920,3,5501,5657,15.69,2.79,30,35,0,0
419932,248307643,3,5657,5657,15.67,2.87,30,35,0,0
420333,248405901,3,5655,5542,15.69,2.96,30,36,0,0
420822,248525205,3,5566,5785,15.73,3.42,30,36,0,0
421273,248640077,3,5776,5685,15.67,2.77,30,36,0,0
421714,248747368,3,5687,5714,15.66,3.04,30,36,0,0
422159,248854401,3,5715,5814,15.64,3.05,30,36,0,0
422565,248955101,3,5810,5671,15.67,2.69,30,36,0,0
423014,249065089,3,5672,5714,15.66,3.45,30,36,0,0
423944,249289918,3,5717,5814,15.58,3.31,30,36,0,0
424392,249399815,3,5821,5914,15.54,3.26,30,36,0,0
424799,249502129,3,5908,5828,15.64,3.14,30,36,0,0
425294,249620653,3,5821,5757,15.64,3,30,37,0,0
426139,249830952,3,5754,5514,15.65,2.76,30,37,0,0
427034,250048688,3,5508,5385,15.63,2.44,30,37,0,0
427433,250150341,3,5385,5385,15.66,2.59,30,37,0,0
427885,250261106,3,5378,5285,15.6,2.33,30,37,0,0
428293,250366339,3,5276,5100,15.66,2.3,30,37,0,0
428741,250473537,3,5101,5200,15.64,2.66,30,37,0,0
429192,250586142,3,5206,5328,15.73,2.51,30,37,0,0
429644,250695941,3,5324,5271,15.73,2.35,30,37,0,0
430094,250806887,3,5275,5342,15.72,2.69,30,37,0,0
430535,250915095,3,5356,5557,15.64,3.24,30,37,0,0
430982,251022621,3,5558,5585,15.69,3.23,30,38,0,0
431426,251132750,3,5580,5528,15.67,2.91,30,38,0,0
431872,251241209,3,5532,5600,15.68,3.33,30,38,0,0
432320,251354590,3,5593,5528,15.72,2.93,30,38,0,0
432729,251456449,3,5531,5600,15.67,3.05,30,38,0,0
433173,251564674,3,5606,5671,15.63,3.08,30,38,0,0
433622,251672889,3,5665,5585,15.73,2.59,30,38,0,0
434062,251780580,3,5583,5557,15.66,2.78,30,38,0,0
434512,251890327,3,5554,5528,15.6,2.8,30,38,0,0
434955,251997069,3,5531,5585,15.6,2.95,30,38,0,0
435810,252212380,3,5583,5528,15.56,2.82,30,39,0,0
436248,252318343,3,5529,5571,15.61,2.9,30,39,0,0
436746,252437141,3,5569,5542,15.63,2.61,30,39,0,0
437193,252546621,3,5523,5342,15.69,2.36,30,39,0,0
437597,252644314,3,5339,5214,15.69,2.28,30,39,0,0
438040,252753927,3,5214,5214,15.63,2.48,30,39,0,0
438490,252864121,3,5214,5228,15.66,2.59,30,39,0,0
438973,252979665,3,5260,5585,15.69,2.93,30,39,0,0
439380,253086137,3,5591,5642,15.67,2.97,30,39,0,0
439819,253188080,3,5638,5514,15.64,2.74,30,39,0,0
440227,253294066,3,5513,5485,15.75,2.72,30,39,0,0
440673,253400303,3,5482,5371,15.67,2.31,30,39,0,0
441160,253519796,3,5369,5357,15.69,2.78,30,40,0,0
441612,253628934,3,5350,5285,15.72,2.64,30,40,0,0
442011,253727853,3,5295,5500,15.69,2.98,30,40,0,0
442465,253842108,3,5505,5557,15.71,2.57,30,40,0,0
442912,253951968,3,5541,5385,15.67,2.88,30,40,0,0
443317,254050274,3,5390,5628,15.54,3.04,30,40,0,0
443737,254156957,3,5629,5714,15.5,2.99,30,40,0,0
444220,254269077,3,5718,5828,15.55,3.43,30,40,0,0
445076,254483846,3,5825,5557,15.67,2.66,30,40,0,0
445561,254599538,3,5549,5471,15.62,2.77,30,40,0,0
445968,254701635,3,5465,5328,15.63,2.61,30,41,0,0
446416,254811902,3,5330,5414,15.58,2.65,30,41,0,0
446862,254922148,3,5419,5485,15.64,3.01,30,41,0,0
447312,255029670,3,5480,5428,15.63,2.61,30,41,0,0
447758,255139774,3,5430,5457,15.57,3.04,30,41,0,0
448168,255244678,3,5458,5571,15.61,2.9,30,41,0,0
448618,255358110,3,5576,5657,15.59,3.01,30,41,0,0
449066,255466689,3,5655,5642,15.64,2.85,30,41,0,0
449470,255568350,3,5642,5685,15.63,2.94,30,41,0,0
449958,255690110,3,5681,5657,15.58,3.1,30,41,0,0
450813,255901783,3,5662,5757,15.59,3.27,30,42,0,0
451265,256008729,3,5752,5685,15.7,2.94,30,42,0,0
451674,256113160,3,5686,5742,15.64,2.91,30,42,0,0
452162,256228916,3,5730,5571,15.66,3.04,30,42,0,0
452603,256341605,3,5580,5657,15.52,2.95,30,42,0,0
453013,256437842,3,5653,5614,15.63,2.92,30,42,0,0
453416,256541967,3,5613,5600,15.61,2.86,30,42,0,0
453901,256662199,3,5575,5357,15.61,2.7,30,42,0,0
454309,256763461,3,5362,5485,15.58,2.63,30,42,0,0
454757,256870593,3,5483,5457,15.62,2.55,30,42,0,0
455652,257094593,3,5455,5442,15.57,2.85,30,42,0,0
456053,257188851,3,5442,5442,15.61,2.38,30,43,0,0
456573,257318102,3,5422,5242,15.53,2.51,30,43,0,0
457024,257427905,3,5266,5457,15.6,2.78,30,43,0,0
457430,257529621,3,5461,5528,15.65,2.86,30,43,0,0
457878,257637963,3,5520,5442,15.71,2.45,30,43,0,0
458767,257855900,3,5440,5371,15.6,2.64,30,43,0,0
459212,257964554,3,5378,5485,15.61,2.58,30,43,0,0
459658,258072366,3,5484,5428,15.63,2.69,30,43,0,0
460544,258297682,3,5431,5514,15.52,2.9,30,43,0,0
460998,258408335,3,5503,5371,15.52,2.64,30,43,0,0
461477,258521285,3,5376,5414,15.63,2.59,30,44,0,0
461885,258621577,3,5409,5185,15.63,2.53,30,44,0,0
463183,258947636,3,5186,5414,15.6,2.59,30,44,0,0
463669,259059950,3,5411,5357,15.63,2.64,30,44,0,0
464116,259172340,3,5364,5471,15.64,2.69,30,44,0,0
464564,259282506,3,5465,5385,15.61,2.77,30,44,0,0
464975,259387725,3,5384,5371,15.58,2.66,30,44,0,0
465867,259609166,3,5379,5571,15.5,3.12,30,44,0,0
466308,259716942,3,5571,5571,15.6,2.93,30,44,0,0
466760,259826338,3,5554,5385,15.58,2.55,30,44,0,0
467208,259937468,3,5381,5342,15.62,2.59,30,45,0,0
467658,260047264,3,5335,5257,15.64,2.33,30,45,0,0
468057,260147620,3,5257,5300,15.67,2.28,30,45,0,0
468549,260264284,3,5289,5142,15.66,1.94,30,45,0,0
469444,260482950,3,5135,4957,15.72,2.03,30,45,0,0
469891,260594331,3,4970,5114,15.66,2.17,30,45,0,0
470301,260700686,3,5101,4957,15.71,1.93,30,45,0,0
470747,260809930,3,4946,4842,15.72,1.58,30,45,0,0
471190,260918116,3,4844,4900,15.72,1.92,30,45,0,0
471638,261026851,3,4902,4928,15.64,1.96,30,45,0,0
472084,261136572,3,4925,4900,15.66,1.93,30,45,0,0
472531,261244697,3,4914,5057,15.5,2.84,30,45,0,0
472968,261351663,3,5079,5371,15.56,2.77,30,45,0,0
473419,261461169,3,5365,5257,15.55,2.49,30,45,0,0
473866,261573384,3,5266,5357,15.51,2.48,30,46,0,0
474273,261674159,3,5353,5171,15.59,2.13,30,46,0,0
474755,261789944,3,5168,5128,15.54,2.34,30,46,0,0
475245,261910718,3,5120,5042,15.64,1.83,30,46,0,0
475647,262006777,3,5037,4842,15.68,1.72,30,46,0,0
476130,262123114,3,4844,4871,15.72,1.99,30,46,0,0
476580,262232550,3,4863,4785,15.75,1.81,30,46,0,0
476983,262332115,3,4787,4928,15.75,2.08,30,46,0,0
477471,262446306,3,4921,4828,15.64,2.02,30,46,0,0
477877,262552790,3,4843,5057,15.66,2.52,30,46,0,0
478326,262661140,3,5058,5100,15.63,2.38,30,46,0,0
478770,262770222,3,5100,5100,15.59,2.17,30,46,0,0
479260,262894831,3,5180,5614,15.5,3.44,30,46,0,0
480105,263097346,3,5618,6328,15.29,4.28,30,47,0,0
480585,263213852,3,6331,6371,15.19,4.69,30,47,0,0
481037,263325186,3,6380,6500,15.17,5.08,30,47,0,0
481491,263443380,3,6529,6828,15.11,5.31,30,47,0,0
481894,263538859,3,6829,6842,15.25,5.54,30,47,0,0
482339,263645573,3,6834,6742,15.32,4.21,30,47,0,0
482783,263755334,3,6706,6314,15.39,3.2,30,47,0,0
483230,263866052,3,6276,5957,15.29,3,30,48,0,0
484123,264080931,3,5957,5971,15.37,3.5,30,48,0,0
484564,264194624,3,5966,5942,15.41,3.36,30,48,0,0
484972,264296190,3,5940,5900,15.42,3.29,30,48,0,0
485422,264402161,3,5899,5842,15.4,3.49,30,48,0,0
485864,264512922,3,5842,5857,15.43,3.07,30,48,0,0
486351,264632351,3,5846,5742,15.52,2.98,30,48,0,0
486754,264736190,3,5728,5600,15.58,2.64,30,48,0,0
487206,264843217,3,5599,5585,15.52,3.09,30,48,0,0
487646,264956312,3,5595,5728,15.57,2.89,30,49,0,0
488138,265070469,3,5726,5714,15.5,2.88,30,49,0,0
488541,265177255,3,5714,5714,15.52,2.94,30,49,0,0
488985,265283908,3,5713,5700,15.58,2.82,30,49,0,0
489436,265392299,3,5675,5414,15.63,2.58,30,49,0,0
489882,265500630,3,5415,5428,15.61,2.67,30,49,0,0
490289,265604875,3,5427,5385,15.59,2.45,30,49,0,0
490777,265724907,3,5373,5257,15.56,2.63,30,49,0,0
491177,265821357,3,5259,5414,15.61,2.81,30,49,0,0
491701,265943115,3,5417,5471,15.65,2.3,30,49,0,0
492151,266050689,3,5462,5385,15.58,2.54,30,49,0,0
492560,266154596,3,5375,5257,15.61,2.45,30,49,0,0
493006,266261351,3,5255,5228,15.66,2.44,30,49,0,0
493455,266373738,3,5234,5328,15.63,2.7,30,50,0,0
493901,266478605,3,5341,5514,15.64,2.82,30,50,0,0
494348,266591876,3,5505,5414,15.57,2.66,30,50,0,0
494753,266689340,3,5421,5514,15.55,2.91,30,50,0,0
495153,266791265,3,5516,5714,15.52,3.23,30,50,0,0
495646,266914631,3,5715,5728,15.53,3.25,30,50,0,0
496095,267020143,3,5726,5714,15.52,3,30,50,0,0
496492,267121140,3,5711,5614,15.57,2.99,30,50,0,0
496988,267242775,3,5624,5771,15.53,3.14,30,50,0,0
497437,267352581,3,5777,5842,15.5,3.24,30,50,0,0
497848,267455269,3,5838,5785,15.53,2.9,30,50,0,0
498253,267559801,3,5783,5728,15.58,2.65,30,51,0,0
498744,267678094,3,5717,5557,15.57,2.82,30,51,0,0
499146,267780353,3,5556,5542,15.57,2.71,30,51,0,0
499595,267887963,3,5543,5600,15.57,2.76,30,51,0,0
500047,268004187,3,5603,5657,15.54,2.93,30,51,0,0
500451,268108065,3,5658,5700,15.55,2.96,30,51,0,0
500899,268217338,3,5690,5571,15.64,2.82,30,51,0,0
501344,268329320,3,5571,5571,15.62,2.64,30,51,0,0
501796,268437187,3,5574,5614,15.53,3.15,30,51,0,0
502240,268547334,3,5622,5714,15.47,3.17,30,51,0,0
502690,268658124,3,5736,5971,15.52,3.49,30,51,0,0
503090,268760539,3,5968,5885,15.57,3.08,30,52,0,0
503543,268872073,3,5876,5700,15.55,2.89,30,52,0,0
504391,269081717,3,5703,5957,15.5,3.46,30,52,0,0
504837,269193756,3,5952,5671,15.55,3,30,52,0,0
505280,269304348,3,5671,5671,15.55,3.05,30,52,0,0
505777,269422144,3,5673,5700,15.55,2.85,30,52,0,0
506175,269524609,3,5696,5657,15.57,3.12,30,52,0,0
506623,269633377,3,5654,5528,15.6,2.88,30,52,0,0
507061,269737601,3,5532,5685,15.55,2.7,30,52,0,0
507514,269848062,3,5686,5771,15.59,2.91,30,52,0,0
507960,269958043,3,5772,5800,15.6,2.99,30,53,0,0
508449,270074861,3,5802,5828,15.58,3,30,53,0,0
508852,270177567,3,5824,5614,15.56,3,30,53,0,0
509343,270299808,3,5630,5742,15.58,3,30,53,0,0
509747,270395895,3,5752,5900,15.54,3.38,30,53,0,0
510193,270507161,3,5901,5928,15.49,3.31,30,53,0,0
510644,270617068,3,5931,5971,15.52,3.35,30,53,0,0
511041,270714224,3,5969,5900,15.55,3.33,30,53,0,0
511982,270943631,3,5896,5814,15.52,3.15,30,53,0,0
512432,271049509,3,5802,5685,15.48,3.02,30,54,0,0
512834,271153467,3,5686,5700,15.46,3.33,30,54,0,0
513279,271258811,3,5700,5714,15.51,3.28,30,54,0,0
513730,271374627,3,5715,5728,15.49,3.24,30,54,0,0
514215,271486281,3,5732,5785,15.49,3.43,30,54,0,0
514618,271589704,3,5785,5785,15.46,3.22,30,54,0,0
515065,271704871,3,5773,5671,15.45,3,30,54,0,0
515472,271804897,3,5666,5600,15.5,2.86,30,54,0,0
515878,271907789,3,5601,5714,15.5,3.16,30,54,0,0
516360,272019995,3,5717,5785,15.47,3.06,30,54,0,0
516808,272133832,3,5785,5785,15.43,3.34,30,54,0,0
517256,272242884,3,5799,6000,15.44,3.37,30,55,0,0
517661,272345097,3,5994,5885,15.52,2.94,30,55,0,0
518114,272456573,3,5879,5742,15.46,3.02,30,55,0,0
518558,272568195,3,5734,5657,15.54,2.9,30,55,0,0
519453,272787845,3,5659,5728,15.51,2.83,30,55,0,0
519897,272900686,3,5702,5500,15.54,3.09,30,55,0,0
520346,273008729,3,5517,5671,15.57,3.05,30,55,0,0
520831,273130090,3,5661,5600,15.51,3.08,30,55,0,0
521241,273234865,3,5600,5600,15.5,3.01,30,55,0,0
521681,273333327,3,5608,5714,15.49,2.75,30,56,0,0
522126,273441344,3,5713,5700,15.62,3.12,30,56,0,0
522532,273544752,3,5699,5685,15.55,3.08,30,56,0,0
523021,273661822,3,5691,5757,15.51,3.1,30,56,0,0
523384,273756922,3,5757,5757,15.56,3.3,30,56,0,0
523834,273864572,3,5757,5785,15.52,3.18,30,56,0,0
524279,273982908,3,5783,5742,15.5,3.21,30,56,0,0
524764,274090104,3,5742,5757,15.52,3.04,30,56,0,0
525209,274204348,3,5745,5614,15.61,3.02,30,56,0,0
525616,274303275,3,5619,5828,15.5,3.1,30,56,0,0
526104,274420633,3,5827,5814,15.54,3.19,30,56,0,0
526509,274522134,3,5812,5700,15.47,3.26,30,57,0,0
526955,274632125,3,5700,5757,15.52,2.97,30,57,0,0
527400,274740680,3,5760,5800,15.52,3.07,30,57,0,0
527850,274852877,3,5776,5614,15.57,2.87,30,57,0,0
528254,274954141,3,5617,5771,15.49,3.37,30,57,0,0
528753,275073972,3,5761,5657,15.57,3.36,30,57,0,0
529187,275176996,3,5668,5771,15.6,3.18,30,57,0,0
529637,275289196,3,5768,5742,15.45,3.28,30,57,0,0
530039,275386225,3,5743,5814,15.56,3.04,30,57,0,0
530487,275496604,3,5809,5628,15.5,2.94,30,57,0,0
530981,275615814,3,5646,5814,15.48,3.33,30,57,0,0
531384,275717911,3,5811,5771,15.47,3.23,30,58,0,0
531841,275830820,3,5773,5814,15.47,3.07,30,58,0,0
532732,276051098,3,5813,5800,15.55,3.2,30,58,0,0
534068,276375930,3,5800,5914,15.41,3.82,30,58,0,0
534513,276485911,3,5917,6014,15.56,3.2,30,58,0,0
535002,276600926,3,6002,5814,15.49,3.21,30,58,0,0
535441,276707612,3,5824,5942,15.48,3.46,30,59,0,0
535898,276821930,3,5920,5685,15.55,3.09,30,59,0,0
536790,277037849,3,5684,5657,15.56,3,30,59,0,0
537237,277150474,3,5655,5642,15.49,3,30,59,0,0
537725,277266121,3,5648,5714,15.59,2.94,30,59,0,0
538130,277369136,3,5717,5800,15.57,3.1,30,59,0,0
538613,277479900,3,5793,5628,15.52,3.24,30,59,0,0
539053,277588351,3,5635,5742,15.51,3.11,30,59,0,0
539499,277699289,3,5755,5942,15.51,3.3,30,59,0,0
539950,277809676,3,5948,6028,15.42,3.69,30,59,0,0
540356,277912598,3,6022,5914,15.39,3.32,30,60,0,0
540804,278020352,3,5914,5928,15.42,3.36,30,60,0,0
541242,278125726,3,5926,5885,15.48,2.91,30,60,0,0
541690,278234688,3,5873,5714,15.42,2.99,30,60,0,0
542138,278345310,3,5704,5571,15.44,3.09,30,60,0,0
542590,278457678,3,5584,5800,15.41,3.31,30,60,0,0
543032,278567351,3,5793,5728,15.49,2.86,30,60,0,0
543481,278679103,3,5734,5800,15.48,3.37,30,60,0,0
543887,278782749,3,5795,5685,15.56,3.07,30,60,0,0
544334,278888192,3,5683,5614,15.57,2.51,30,60,0,0
544814,279002880,3,5618,5685,15.44,3.4,30,61,0,0
545262,279114895,3,5688,5728,15.52,3.01,30,61,0,0
545709,279226884,3,5733,5785,15.51,2.92,30,61,0,0
546076,279318900,3,5783,5714,15.57,2.99,30,61,0,0
546566,279434607,3,5702,5585,15.52,2.54,30,61,0,0
547010,279544121,3,5576,5485,15.51,2.88,30,61,0,0
547455,279651308,3,5486,5514,15.52,2.9,30,61,0,0
548751,279978962,3,5513,5414,15.52,2.73,30,61,0,0
549243,280099316,3,5417,5442,15.55,2.83,30,61,0,0
549641,280197191,3,5447,5514,15.52,2.86,30,61,0,0
550087,280303373,3,5512,5485,15.54,2.67,30,62,0,0
550573,280421093,3,5475,5385,15.52,2.47,30,62,0,0
551018,280531197,3,5378,5285,15.6,2.24,30,62,0,0
551426,280628408,3,5284,5271,15.52,2.33,30,62,0,0
551874,280741913,3,5270,5257,15.51,2.32,30,62,0,0
552327,280854078,3,5254,5228,15.49,2.33,30,62,0,0
552769,280958608,3,5226,5157,15.57,2.24,30,62,0,0
553217,281069615,3,5157,5157,15.49,2.22,30,62,0,0
553664,281181215,3,5154,5128,15.55,2.21,30,62,0,0
554107,281289176,3,5126,5114,15.57,2.24,30,62,0,0
554511,281386706,3,5115,5257,15.51,2.29,30,62,0,0
555405,281605253,3,5255,5114,15.57,2.29,30,62,0,0
556335,281830346,3,5130,5514,15.51,2.62,30,63,0,0
556783,281940198,3,5499,5342,15.48,2.55,30,63,0,0
557227,282046586,3,5336,5257,15.43,2.58,30,63,0,0
557629,282146363,3,5253,5171,15.49,2.08,30,63,0,0
558079,282255295,3,5160,4928,15.51,1.97,30,63,0,0
558527,282367958,3,4915,4785,15.49,1.8,30,63,0,0
559412,282581757,3,4786,4842,15.54,2.12,30,63,0,0
559861,282690770,3,4863,5142,15.5,2.49,30,63,0,0
560305,282800375,3,5147,5228,15.47,2.46,30,63,0,0
560748,282908093,3,5225,5185,15.5,2.34,30,63,0,0
561197,283017692,3,5176,5071,15.5,2.34,30,63,0,0
561604,283123404,3,5080,5200,15.51,2.39,30,63,0,0
562057,283236057,3,5198,5185,15.53,2.33,30,63,0,0
562457,283336961,3,5186,5228,15.5,2.43,30,63,0,0
562906,283445654,3,5226,5114,15.51,2.29,30,64,0,0
563391,283563180,3,5114,5128,15.54,2.31,30,64,0,0
563800,283664918,3,5128,5171,15.51,2.35,30,64,0,0
564253,283780906,3,5171,5171,15.46,2.59,30,64,0,0
564702,283890150,3,5173,5200,15.53,2.4,30,64,0,0
565104,283993190,3,5210,5314,15.51,2.87,30,64,0,0
565552,284105932,3,5326,5442,15.48,2.83,30,64,0,0
565958,284205186,3,5442,5457,15.47,2.85,30,64,0,0
566847,284420212,3,5457,5571,15.51,2.76,30,64,0,0
567291,284532062,3,5564,5485,15.51,2.69,30,64,0,0
567737,284640917,3,5484,5414,15.45,2.78,30,64,0,0
568232,284760093,3,5423,5500,15.45,2.66,30,65,0,0
569043,284964143,3,5497,5385,15.47,2.44,30,65,0,0
569489,285074451,3,5377,5228,15.49,2.44,30,65,0,0
569980,285194265,3,5229,5242,15.47,2.34,30,65,0,0
570424,285301706,3,5236,5185,15.41,2.41,30,65,0,0
570833,285406916,3,5195,5328,15.47,2.44,30,65,0,0
571723,285624955,3,5326,5285,15.5,2.72,30,65,0,0
572169,285736876,3,5283,5271,15.52,2.24,30,65,0,0
572577,285833142,3,5270,5228,15.47,2.6,30,65,0,0
573059,285948320,3,5226,5200,15.46,2.35,30,65,0,0
573509,286058619,3,5197,5171,15.52,2.43,30,65,0,0
573907,286158748,3,5173,5314,15.48,2.73,30,66,0,0
574392,286270116,3,5319,5400,15.45,3.1,30,66,0,0
574832,286378271,3,5417,5657,15.43,3.2,30,66,0,0
575282,286487546,3,5658,5685,15.45,3.25,30,66,0,0
575726,286599864,3,5676,5585,15.46,2.87,30,66,0,0
576618,286818154,3,5580,5471,15.46,2.83,30,66,0,0
577061,286923194,3,5474,5528,15.47,2.64,30,66,0,0
577510,287029791,3,5524,5457,15.47,2.59,30,66,0,0
577955,287139807,3,5443,5257,15.49,2.23,30,66,0,0
578405,287250070,3,5239,5071,15.56,1.63,30,66,0,0
578844,287356917,3,5064,5000,15.54,2.05,30,66,0,0
579248,287456061,3,5002,5128,15.58,2.23,30,67,0,0
580139,287675129,3,5114,4728,15.54,1.64,30,67,0,0
580547,287780795,3,4728,4771,15.53,2.07,30,67,0,0
581072,287911360,3,4768,4742,15.57,1.7,30,67,0,0
581481,288003861,3,4762,5228,15.42,3.47,30,67,0,0
581962,288123284,3,5232,5271,15.58,2.22,30,67,0,0
582414,288228302,3,5286,5442,15.52,2.93,30,67,0,0
583086,288450678,3,5282,5371,15.54,2.48,30,67,0,0
583495,288555498,3,5368,5328,15.52,2.53,30,67,0,0
583943,288662934,3,5322,5228,15.54,2.55,30,67,0,0
584382,288770567,3,5225,5057,15.61,1.94,30,67,0,0
584836,288881930,3,5055,5028,15.55,2.37,30,67,0,0
585277,288989601,3,5036,5228,15.5,2.66,30,67,0,0
585727,289100861,3,5254,5471,15.47,3.28,30,68,0,0
586172,289206671,3,5476,5528,15.45,3.07,30,68,0,0
586616,289311677,3,5538,5800,15.42,3.2,30,68,0,0
587102,289429623,3,5797,5771,15.43,3.17,30,68,0,0
587543,289536681,3,5766,5671,15.45,3.01,30,68,0,0
587993,289646301,3,5664,5600,15.52,2.75,30,68,0,0
588398,289749047,3,5600,5600,15.45,2.62,30,68,0,0
588846,289857320,3,5582,5371,15.48,2.39,30,68,0,0
589292,289966818,3,5364,5271,15.42,2.35,30,68,0,0
589741,290082547,3,5276,5314,15.52,2.09,30,68,0,0
590149,290180869,3,5311,5271,15.41,2.71,30,68,0,0
590634,290300047,3,5278,5342,15.5,2.79,30,68,0,0
591043,290401464,3,5343,5357,15.51,2.39,30,69,0,0
591447,290505262,3,5350,5214,15.48,2.35,30,69,0,0
591897,290615175,3,5205,5128,15.47,2.48,30,69,0,0
592343,290726653,3,5148,5357,15.44,2.78,30,69,0,0
592753,290827112,3,5356,5342,15.43,2.66,30,69,0,0
593239,290944821,3,5366,5614,15.49,2.97,30,69,0,0
593646,291045619,3,5612,5585,15.44,3.23,30,69,0,0
594092,291156101,3,5581,5542,15.47,2.63,30,69,0,0
594542,291265951,3,5529,5400,15.5,2.61,30,69,0,0
594983,291373207,3,5399,5385,15.5,3.07,30,69,0,0
595429,291479933,3,5393,5557,15.48,2.79,30,69,0,0
595877,291595968,3,5560,5600,15.47,2.93,30,69,0,0
596323,291705897,3,5583,5471,15.46,2.68,30,70,0,0
597174,291919053,3,5477,5614,15.44,2.79,30,70,0,0
598060,292134085,3,5615,5771,15.41,3.56,30,70,0,0
598564,292254759,3,5780,5885,15.42,3.37,30,70,0,0
598932,292353848,3,5885,5885,15.41,3.51,30,70,0,0
599460,292474324,3,5889,5957,15.42,3.43,30,70,0,0
599856,292572046,3,5945,5742,15.39,3.27,30,70,0,0
600751,292793936,3,5745,5842,15.38,3.49,30,71,0,0
601238,292909735,3,5846,5914,15.42,3.32,30,71,0,0
601687,293021703,3,5900,5771,15.47,2.92,30,71,0,0
602091,293125050,3,5759,5471,15.51,2.65,30,71,0,0
602582,293241824,3,5454,5285,15.58,2.28,30,71,0,0
603023,293347650,3,5281,5200,15.48,2.4,30,71,0,0
603512,293466954,3,5188,5085,15.56,2.15,30,71,0,0
603918,293569802,3,5082,5057,15.55,2.41,30,71,0,0
604366,293678841,3,5073,5257,15.54,2.61,30,71,0,0
604766,293780291,3,5259,5314,15.53,2.65,30,71,0,0
605217,293890334,3,5322,5428,15.48,2.99,30,71,0,0
605619,293992574,3,5429,5542,15.51,3.14,30,71,0,0
606104,294111696,3,5556,5685,15.4,3.06,30,72,0,0
606551,294218186,3,5686,5714,15.51,3,30,72,0,0
606957,294322792,3,5715,5728,15.46,3.43,30,72,0,0
607405,294429909,3,5738,5885,15.45,3.72,30,72,0,0
607852,294542057,3,5883,5857,15.41,3.58,30,72,0,0
608296,294644652,3,5855,5814,15.49,3.29,30,72,0,0
608699,294750053,3,5812,5771,15.52,2.72,30,72,0,0
