LineNo,TimeUS,Instance,RPM,RawRPM,Volt,Curr,Temp,CTot,MotTemp,Err
1838,20017592,0,0,0,16.65,0.04,33,0,0,0
2260,20123662,0,0,0,16.65,0.04,33,0,0,0
2713,20235856,0,0,0,16.66,0.04,33,0,0,0
3132,20341953,0,0,0,16.66,0.04,33,0,0,0
3577,20447956,0,0,0,16.65,0.04,33,0,0,0
3988,20550548,0,0,0,16.65,0.04,33,0,0,0
4399,20655666,0,0,0,16.66,0.04,33,0,0,0
4853,20771672,0,0,0,16.65,0.04,33,0,0,0
5268,20876551,0,0,0,16.66,0.04,33,0,0,0
5682,20980107,0,0,0,16.66,0.04,33,0,0,0
6094,21083795,0,0,0,16.65,0.04,33,0,0,0
6502,21184159,0,0,0,16.65,0.04,33,0,0,0
6951,21294650,0,0,0,16.66,0.04,33,0,0,0
7400,21405713,0,0,0,16.65,0.04,33,0,0,0
7779,21504419,0,0,0,16.65,0.04,33,0,0,0
8188,21608157,0,0,0,16.64,0.04,33,0,0,0
8673,21726664,0,0,0,16.65,0.03,33,0,0,0
9078,21827727,0,0,0,16.65,0.03,33,0,0,0
9425,21938648,0,0,0,16.65,0.03,33,0,0,0
9836,22038852,0,0,0,16.66,0.03,33,0,0,0
10251,22142807,0,0,0,16.66,0.03,33,0,0,0
10702,22256067,0,0,0,16.65,0.03,33,0,0,0
11119,22357864,0,0,0,16.66,0.04,33,0,0,0
11530,22461108,0,0,0,16.66,0.03,33,0,0,0
11942,22564168,0,0,0,16.65,0.04,33,0,0,0
12395,22679100,0,0,0,16.65,0.04,33,0,0,0
12841,22788965,0,0,0,16.65,0.04,33,0,0,0
13255,22893208,0,0,0,16.66,0.04,33,0,0,0
13669,22997609,0,0,0,16.66,0.03,33,0,0,0
14124,23109157,0,0,0,16.66,0.04,33,0,0,0
14538,23212806,0,0,0,16.65,0.03,33,0,0,0
14954,23314796,0,0,0,16.65,0.04,33,0,0,0
15369,23417866,0,0,0,16.65,0.04,33,0,0,0
15824,23532540,0,0,0,16.65,0.04,33,0,0,0
16271,23640941,0,0,0,16.66,0.04,33,0,0,0
16659,23741596,0,0,0,16.64,0.04,33,0,0,0
17113,23854079,0,0,0,16.66,0.04,33,0,0,0
17564,23961319,0,0,0,16.65,0.04,33,0,0,0
17983,24067180,0,0,0,16.66,0.04,33,0,0,0
18399,24170180,0,0,0,16.65,0.04,33,0,0,0
18849,24282046,0,0,0,16.64,0.04,33,0,0,0
19261,24386311,0,0,0,16.65,0.04,33,0,0,0
19677,24489854,0,0,0,16.65,0.04,33,0,0,0
20124,24601284,0,0,0,16.65,0.04,33,0,0,0
20536,24704120,0,0,0,16.66,0.04,33,0,0,0
20950,24810293,0,0,0,16.66,0.04,33,0,0,0
21401,24924681,0,0,0,16.65,0.03,33,0,0,0
21814,25026845,0,0,0,16.65,0.03,33,0,0,0
22227,25131818,0,0,0,16.65,0.04,33,0,0,0
22641,25234847,0,0,0,16.65,0.03,33,0,0,0
23097,25349776,0,0,0,16.65,0.03,33,0,0,0
23509,25452902,0,0,0,16.66,0.04,33,0,0,0
23928,25558411,0,0,0,16.65,0.03,33,0,0,0
24339,25662303,0,0,0,16.66,0.04,33,0,0,0
24753,25766889,0,0,0,16.65,0.04,33,0,0,0
25171,25874126,0,0,0,16.66,0.04,33,0,0,0
25626,25985793,0,0,0,16.65,0.04,33,0,0,0
26039,26089716,0,0,0,16.65,0.03,33,0,0,0
26448,26189878,0,0,0,16.64,0.04,33,0,0,0
26906,26303341,0,0,0,16.65,0.03,33,0,0,0
27318,26404070,0,0,0,16.65,0.04,33,0,0,0
27737,26508821,0,0,0,16.65,0.04,33,0,0,0
28218,26625080,0,0,0,16.65,0.04,33,0,0,0
28635,26728865,0,0,0,16.66,0.04,33,0,0,0
29051,26832512,0,0,0,16.65,0.03,33,0,0,0
29463,26935726,0,0,0,16.66,0.03,33,0,0,0
29873,27039315,0,0,0,16.66,0.04,33,0,0,0
30321,27151150,0,0,0,16.66,0.03,33,0,0,0
30732,27256281,0,0,0,16.65,0.04,33,0,0,0
31149,27358883,0,0,0,16.66,0.04,33,0,0,0
31606,27474103,0,0,0,16.66,0.04,33,0,0,0
32015,27575651,0,0,0,16.66,0.03,33,0,0,0
32466,27687191,0,0,0,16.65,0.03,33,0,0,0
32881,27790918,0,0,0,16.65,0.03,33,0,0,0
33294,27895876,0,0,0,16.65,0.03,33,0,0,0
33745,28009117,0,0,0,16.65,0.03,33,0,0,0
34156,28113864,0,0,0,16.65,0.03,33,0,0,0
34567,28217829,0,0,0,16.64,0.03,33,0,0,0
34986,28320849,0,0,0,16.65,0.03,33,0,0,0
35428,28427941,0,0,0,16.65,0.03,33,0,0,0
35878,28539065,0,0,0,16.65,0.03,33,0,0,0
36291,28641871,0,0,0,16.65,0.04,33,0,0,0
36711,28753295,0,0,0,16.64,0.04,33,0,0,0
37120,28855541,0,0,0,16.65,0.04,33,0,0,0
37576,28969130,0,0,0,16.65,0.03,33,0,0,0
37983,29069699,0,0,0,16.65,0.04,33,0,0,0
38434,29180328,0,0,0,16.65,0.04,33,0,0,0
38849,29288400,0,0,0,16.65,0.03,33,0,0,0
39255,29389338,0,0,0,16.65,0.04,33,0,0,0
39708,29500328,0,0,0,16.65,0.04,33,0,0,0
40117,29601773,0,0,0,16.65,0.03,33,0,0,0
40560,29708325,0,0,0,16.65,0.03,33,0,0,0
41015,29819101,0,0,0,16.65,0.04,33,0,0,0
41431,29923651,0,0,0,16.65,0.03,33,0,0,0
41845,30026649,0,0,0,16.65,0.04,33,0,0,0
42263,30131334,0,0,0,16.65,0.04,33,0,0,0
42679,30236765,0,0,0,16.66,0.04,33,0,0,0
43141,30350906,0,0,0,16.66,0.03,33,0,0,0
43553,30451293,0,0,0,16.65,0.04,33,0,0,0
44013,30565289,0,0,0,16.65,0.03,33,0,0,0
44428,30667664,0,0,0,16.66,0.04,33,0,0,0
44888,30780887,0,0,0,16.65,0.04,33,0,0,0
45302,30881245,0,0,0,16.65,0.04,33,0,0,0
46170,31099963,0,0,0,16.66,0.04,33,0,0,0
46589,31209131,0,0,0,16.64,0.03,33,0,0,0
47004,31309720,0,0,0,16.65,0.04,33,0,0,0
47414,31410296,0,0,0,16.64,0.04,33,0,0,0
47824,31516595,0,0,0,16.66,0.04,33,0,0,0
48277,31629582,0,0,0,16.66,0.04,33,0,0,0
48684,31730601,0,0,0,16.65,0.04,33,0,0,0
49544,31940178,0,0,0,16.66,0.04,33,0,0,0
49996,32054169,0,0,0,16.65,0.03,33,0,0,0
50408,32153841,0,0,0,16.66,0.04,33,0,0,0
50824,32256922,0,0,0,16.66,0.04,33,0,0,0
51239,32363877,0,0,0,16.66,0.04,33,0,0,0
51681,32470183,0,0,0,16.65,0.04,33,0,0,0
52136,32584588,0,0,0,16.65,0.04,33,0,0,0
52551,32691691,0,0,0,16.66,0.04,33,0,0,0
52964,32796331,0,0,0,16.65,0.04,33,0,0,0
53372,32897903,0,0,0,16.65,0.04,33,0,0,0
53824,33012668,0,0,0,16.64,0.04,33,0,0,0
54237,33116579,0,0,0,16.65,0.04,33,0,0,0
54650,33221452,0,0,0,16.64,0.04,33,0,0,0
55099,33331642,0,0,0,16.65,0.04,33,0,0,0
55509,33436693,0,0,0,16.65,0.04,33,0,0,0
55923,33538676,0,0,0,16.65,0.03,33,0,0,0
56291,50820274,0,0,0,16.65,0.04,33,0,0,0
56585,50896599,0,0,0,16.65,0.04,33,0,0,0
56999,50997596,0,0,0,16.65,0.04,33,0,0,0
57372,51093959,0,0,0,16.65,0.04,33,0,0,0
57827,51204319,0,0,0,16.65,0.04,33,0,0,0
58239,51309957,0,0,0,16.65,0.04,33,0,0,0
58691,51421729,0,0,0,16.65,0.04,33,0,0,0
59100,51524732,0,0,0,16.65,0.04,33,0,0,0
59522,51628824,0,0,0,16.65,0.04,33,0,0,0
59975,51744189,0,0,0,16.65,0.04,33,0,0,0
60389,51845335,0,0,0,16.65,0.04,33,0,0,0
60838,51956623,0,0,0,16.65,0.03,33,0,0,0
61255,52059826,0,0,0,16.65,0.03,33,0,0,0
61664,52164145,0,0,0,16.64,0.04,33,0,0,0
62117,52280648,0,0,0,16.65,0.04,33,0,0,0
62532,52381180,0,0,0,16.65,0.03,33,0,0,0
62943,52484101,0,0,0,16.65,0.04,33,0,0,0
63396,52598679,0,0,0,16.65,0.04,33,0,0,0
63771,52694831,0,0,0,16.65,0.03,33,0,0,0
64227,52809872,0,0,0,16.65,0.04,33,0,0,0
64610,52911742,0,0,0,16.66,0.04,33,0,0,0
65059,53017827,0,0,0,16.64,0.03,33,0,0,0
65475,53126608,0,0,0,16.65,0.04,33,0,0,0
65928,53237691,0,0,0,16.65,0.04,33,0,0,0
66370,53344158,0,0,0,16.64,0.03,33,0,0,0
66695,53444280,0,0,0,16.65,0.04,33,0,0,0
67148,53558300,0,0,0,16.65,0.04,33,0,0,0
67563,53660073,0,0,0,16.65,0.04,33,0,0,0
67973,53763950,0,0,0,16.65,0.03,33,0,0,0
68434,53875323,0,0,0,16.65,0.03,33,0,0,0
68846,53979894,0,0,0,16.66,0.04,33,0,0,0
69301,54094894,0,0,0,16.65,0.03,33,0,0,0
69714,54199036,0,0,0,16.66,0.04,33,0,0,0
70092,54298673,0,0,0,16.65,0.04,33,0,0,0
70544,54409953,0,0,0,16.64,0.03,33,0,0,0
70952,54510959,0,0,0,16.65,0.04,33,0,0,0
71381,54620972,0,0,0,16.66,0.03,33,0,0,0
71793,54726972,0,0,0,16.64,0.03,33,0,0,0
72246,54839150,0,0,0,16.64,0.04,33,0,0,0
72624,54937714,0,0,0,16.65,0.04,33,0,0,0
73079,55049841,0,0,0,16.65,0.03,33,0,0,0
73501,55159332,0,0,0,16.65,0.04,33,0,0,0
73916,55262630,0,0,0,16.65,0.04,33,0,0,0
74327,55364579,0,0,0,16.65,0.04,33,0,0,0
74779,55476950,0,0,0,16.64,0.03,33,0,0,0
75194,55580303,0,0,0,16.65,0.04,33,0,0,0
75609,55689659,0,0,0,16.65,0.04,33,0,0,0
76022,55790744,0,0,0,16.64,0.04,33,0,0,0
76475,55902259,0,0,0,16.65,0.04,33,0,0,0
76895,56006697,0,0,0,16.64,0.04,33,0,0,0
77313,56115698,0,0,0,16.64,0.04,33,0,0,0
77766,56229668,0,0,0,16.65,0.04,33,0,0,0
78175,56331278,0,0,0,16.65,0.04,33,0,0,0
78560,56432085,0,0,0,16.65,0.04,33,0,0,0
79013,56547671,0,0,0,16.64,0.03,33,0,0,0
79428,56649754,0,0,0,16.65,0.04,33,0,0,0
79843,56757092,0,0,0,16.64,0.04,33,0,0,0
80300,56873143,0,0,0,16.65,0.04,33,0,0,0
80712,56974938,0,0,0,16.64,0.04,33,0,0,0
81166,57090193,0,0,0,16.64,0.03,33,0,0,0
81991,57299138,0,0,0,16.65,0.03,33,0,0,0
82405,57401298,0,0,0,16.64,0.04,33,0,0,0
82817,57506811,0,0,0,16.65,0.04,33,0,0,0
83273,57619174,0,0,0,16.65,0.04,33,0,0,0
83685,57722840,0,0,0,16.65,0.04,33,0,0,0
84138,57833664,0,0,0,16.65,0.04,33,0,0,0
84551,57938039,0,0,0,16.65,0.03,33,0,0,0
84940,58040172,0,0,0,16.64,0.03,33,0,0,0
85393,58153635,0,0,0,16.65,0.03,33,0,0,0
85807,58253093,0,0,0,16.66,0.03,33,0,0,0
86226,58361787,0,0,0,16.66,0.03,33,0,0,0
86682,58472509,0,0,0,16.66,0.03,33,0,0,0
87091,58575851,0,0,0,16.65,0.03,33,0,0,0
87553,58696865,0,0,0,16.65,0.03,33,0,0,0
87966,58799143,0,0,0,16.65,0.04,33,0,0,0
88341,58895947,0,0,0,16.65,0.04,33,0,0,0
88797,59010948,0,0,0,16.65,0.04,33,0,0,0
89244,59122778,0,0,0,16.64,0.04,33,0,0,0
89661,59227359,0,0,0,16.65,0.04,33,0,0,0
90110,59340267,0,0,0,16.65,0.04,33,0,0,0
90525,59442077,0,0,0,16.65,0.04,33,0,0,0
90979,59556758,0,0,0,16.65,0.04,33,0,0,0
91391,59658894,0,0,0,16.65,0.04,33,0,0,0
91843,59772940,0,0,0,16.65,0.04,33,0,0,0
92256,59873958,0,0,0,16.65,0.04,33,0,0,0
92676,59982917,0,0,0,16.65,0.03,33,0,0,0
93096,60087612,0,0,0,16.64,0.04,33,0,0,0
93509,60189831,0,0,0,16.65,0.03,33,0,0,0
93961,60306343,0,0,0,16.65,0.04,33,0,0,0
94380,60411308,0,0,0,16.65,0.04,33,0,0,0
94791,60514179,0,0,0,16.65,0.04,33,0,0,0
95251,60625884,0,0,0,16.65,0.04,33,0,0,0
95663,60730632,0,0,0,16.65,0.04,33,0,0,0
96116,60841807,0,0,0,16.65,0.04,33,0,0,0
96526,60942515,0,0,0,16.65,0.04,33,0,0,0
96987,61054605,0,0,0,16.65,0.04,33,0,0,0
97400,61162693,0,0,0,16.65,0.03,33,0,0,0
97814,61263874,0,0,0,16.64,0.04,33,0,0,0
98227,61368146,0,0,0,16.65,0.04,33,0,0,0
98683,61477937,0,0,0,16.65,0.04,33,0,0,0
99050,61579935,0,0,0,16.65,0.04,33,0,0,0
99502,61697155,0,0,0,16.66,0.04,33,0,0,0
99919,61801866,0,0,0,16.65,0.03,33,0,0,0
100331,61905959,0,0,0,16.65,0.03,33,0,0,0
100745,62010257,0,0,0,16.65,0.03,33,0,0,0
101160,62116843,0,0,0,16.66,0.03,33,0,0,0
101613,62227754,0,0,0,16.65,0.04,33,0,0,0
102028,62335125,0,0,0,16.64,0.03,33,0,0,0
102442,62436830,0,0,0,16.65,0.03,33,0,0,0
102860,62544090,0,0,0,16.65,0.03,33,0,0,0
103318,62656087,0,0,0,16.65,0.03,33,0,0,0
103760,62762342,0,0,0,16.65,0.03,33,0,0,0
104173,62865891,0,0,0,16.65,0.04,33,0,0,0
104627,62978740,0,0,0,16.65,0.03,33,0,0,0
105039,63079969,0,0,0,16.65,0.03,33,0,0,0
105492,63192864,0,0,0,16.65,0.03,33,0,0,0
105903,63297149,0,0,0,16.65,0.03,33,0,0,0
106322,63402681,0,0,0,16.65,0.03,33,0,0,0
106773,63516667,0,0,0,16.65,0.03,33,0,0,0
107186,63619662,0,0,0,16.66,0.03,33,0,0,0
107598,63723299,0,0,0,16.65,0.03,33,0,0,0
108051,63834090,0,0,0,16.65,0.03,33,0,0,0
108461,63935110,0,0,0,16.65,0.03,33,0,0,0
108920,64048944,0,0,0,16.65,0.03,33,0,0,0
109300,64150364,0,0,0,16.65,0.04,33,0,0,0
109749,64262291,0,0,0,16.65,0.04,33,0,0,0
110165,64365663,0,0,0,16.65,0.04,33,0,0,0
110579,64467959,0,0,0,16.65,0.03,33,0,0,0
111035,64583323,0,0,0,16.64,0.04,33,0,0,0
111446,64688962,0,0,0,16.64,0.03,33,0,0,0
111859,64789926,0,0,0,16.65,0.04,33,0,0,0
112317,64904333,0,0,0,16.65,0.04,33,0,0,0
112735,65008883,0,0,0,16.64,0.03,33,0,0,0
113149,65112151,0,0,0,16.65,0.04,33,0,0,0
113602,65223947,0,0,0,16.65,0.04,33,0,0,0
114013,65327903,0,0,0,16.65,0.04,33,0,0,0
114427,65430087,0,0,0,16.65,0.03,33,0,0,0
114849,65540611,0,0,0,16.65,0.04,33,0,0,0
115302,65652543,0,0,0,16.65,0.03,33,0,0,0
115673,65749138,0,0,0,16.65,0.03,33,0,0,0
115974,104864893,0,0,0,16.64,0.03,33,0,0,0
116247,104932053,0,0,0,16.64,0.03,33,0,0,0
116661,105029575,0,0,0,16.64,0.03,33,0,0,0
117117,105136159,0,0,0,16.65,0.03,33,0,0,0
117616,105246273,0,0,0,16.64,0.03,33,0,0,0
118522,105454606,0,0,0,16.65,0.03,33,0,0,0
118980,105561080,0,0,0,16.64,0.03,33,0,0,0
119486,105679930,0,0,0,16.64,0.03,33,0,0,0
119939,105782057,0,0,0,16.64,0.03,33,0,0,0
120877,105990272,0,0,0,16.65,0.03,33,0,0,0
121374,106107590,0,0,0,16.64,0.03,33,0,0,0
121828,106206818,0,0,0,16.65,0.03,33,0,0,0
122285,106314931,0,0,0,16.64,0.03,33,0,0,0
122781,106426574,0,0,0,16.64,0.03,33,0,0,0
123194,106526872,0,0,0,16.65,0.03,33,0,0,0
123654,106632264,0,0,0,16.65,0.03,33,0,0,0
124109,106739111,0,0,0,16.64,0.04,33,0,0,0
124607,106852103,0,0,0,16.64,0.03,33,0,0,0
125064,106960150,0,0,0,16.64,0.03,33,0,0,0
125518,107061838,0,6,471,16.63,0.08,33,0,0,0
126009,107172771,0,488,900,16.61,0.14,33,0,0,0
126500,107286295,0,920,1228,16.62,0.14,33,0,0,0
126955,107388146,0,1230,1285,16.62,0.11,33,0,0,0
127448,107503656,0,1288,1328,16.63,0.11,34,0,0,0
127728,107605653,0,1328,1328,16.62,0.11,33,0,0,0
128182,107709742,0,1328,1342,16.63,0.11,33,0,0,0
128684,107822327,0,1340,1328,16.63,0.11,33,0,0,0
129134,107925741,0,1328,1342,16.63,0.11,33,0,0,0
129636,108040033,0,1342,1342,16.63,0.11,34,0,0,0
130094,108148095,0,1342,1342,16.63,0.11,34,0,0,0
130550,108251591,0,1342,1342,16.63,0.11,34,0,0,0
131007,108359836,0,1342,1342,16.62,0.11,34,0,0,0
131460,108462759,0,1342,1342,16.63,0.11,34,0,0,0
131914,108569332,0,1342,1342,16.63,0.11,34,0,0,0
132380,108681580,0,1342,1342,16.62,0.11,34,0,0,0
132761,108788889,0,1342,1342,16.63,0.11,34,0,0,0
133216,108898119,0,1342,1342,16.63,0.11,34,0,0,0
133667,108999845,0,1342,1357,16.63,0.11,34,0,0,0
135037,109319707,0,1356,1342,16.63,0.11,34,0,0,0
135536,109431194,0,1342,1342,16.62,0.11,34,1,0,0
135988,109537364,0,1342,1357,16.63,0.11,34,1,0,0
136489,109650353,0,1355,1342,16.62,0.11,34,1,0,0
136909,109754714,0,1342,1342,16.63,0.11,34,1,0,0
137361,109855916,0,1342,1342,16.63,0.11,34,1,0,0
137859,109969051,0,1342,1342,16.62,0.11,34,1,0,0
138318,110073348,0,1342,1342,16.62,0.11,34,1,0,0
138770,110179132,0,1342,1342,16.62,0.11,34,1,0,0
139267,110294568,0,1342,1342,16.62,0.11,34,1,0,0
139725,110396845,0,1342,1342,16.63,0.11,34,1,0,0
140176,110502135,0,1342,1342,16.62,0.11,34,1,0,0
140678,110614627,0,1343,1357,16.62,0.11,34,1,0,0
141127,110717418,0,1356,1342,16.62,0.11,34,1,0,0
141626,110829105,0,1342,1342,16.62,0.11,34,1,0,0
142072,110929918,0,1342,1357,16.63,0.11,34,1,0,0
143021,111147107,0,1357,1357,16.62,0.11,34,1,0,0
143474,111248776,0,1356,1342,16.63,0.11,34,1,0,0
143970,111363706,0,1343,1357,16.63,0.11,34,1,0,0
144425,111464448,0,1356,1342,16.62,0.11,34,1,0,0
144908,111572159,0,1342,1342,16.62,0.09999999,34,1,0,0
145860,111792727,0,1342,1342,16.63,0.11,34,1,0,0
146308,111894659,0,1342,1357,16.62,0.11,34,1,0,0
146769,112002087,0,1357,1357,16.62,0.11,34,1,0,0
147227,112110313,0,1355,1342,16.62,0.11,34,1,0,0
147683,112215124,0,1308,428,16.64,0,34,1,0,0
148139,112323926,0,421,0,16.64,0.01,34,1,0,0
148642,112437704,0,0,0,16.64,0.03,34,1,0,0
149128,112546342,0,0,0,16.64,0.03,34,1,0,0
149585,112651102,0,0,0,16.64,0.03,34,1,0,0
150039,112760739,0,0,0,16.64,0.03,33,1,0,0
150537,112872568,0,0,0,16.64,0.03,34,1,0,0
150983,112974106,0,0,0,16.64,0.03,34,1,0,0
151482,113090642,0,0,0,16.64,0.03,34,1,0,0
151933,113194335,0,0,0,16.64,0.03,33,1,0,0
152385,113299319,0,0,0,16.64,0.03,34,1,0,0
152885,113415802,0,0,0,16.64,0.03,34,1,0,0
153342,113524613,0,0,0,16.64,0.03,34,1,0,0
153797,113631118,0,0,0,16.64,0.03,34,1,0,0
154214,113736337,0,0,0,16.64,0.03,34,1,0,0
154703,113846086,0,0,0,16.64,0.03,34,1,0,0
155152,113951942,0,0,0,16.64,0.03,34,1,0,0
155577,114057604,0,0,0,16.64,0.03,33,1,0,0
156072,114174093,0,0,0,16.64,0.03,34,1,0,0
156563,114285375,0,0,0,16.64,0.03,33,1,0,0
157017,114392273,0,0,0,16.64,0.03,33,1,0,0
157924,114603147,0,0,0,16.64,0.03,34,1,0,0
158375,114708036,0,0,0,16.64,0.03,34,1,0,0
158875,114820911,0,0,0,16.64,0.03,34,1,0,0
159326,114926148,0,0,0,16.64,0.03,34,1,0,0
159826,115040070,0,0,0,16.64,0.04,33,1,0,0
160281,115148073,0,0,0,16.64,0.03,34,1,0,0
160734,115252180,0,0,0,16.64,0.04,33,1,0,0
161188,115358147,0,0,0,16.64,0.03,33,1,0,0
161685,115473065,0,0,0,16.64,0.04,34,1,0,0
162140,115577575,0,0,0,16.64,0.04,34,1,0,0
162597,115687076,0,0,0,16.64,0.04,33,1,0,0
163049,115789342,0,0,0,16.64,0.03,33,1,0,0
163996,116010088,0,0,0,16.65,0.03,33,1,0,0
164948,116233699,0,0,0,16.64,0.04,33,1,0,0
165396,116339197,0,0,0,16.64,0.04,34,1,0,0
165849,116441728,0,0,0,16.64,0.04,34,1,0,0
166346,116559637,0,0,0,16.64,0.04,33,1,0,0
166808,116666809,0,0,0,16.64,0.03,34,1,0,0
167257,116773579,0,0,0,16.64,0.03,34,1,0,0
167712,116878329,0,0,0,16.64,0.03,34,1,0,0
168165,116988068,0,0,0,16.64,0.03,33,1,0,0
168619,117095626,0,0,0,16.64,0.03,33,1,0,0
169070,117198159,0,0,0,16.64,0.03,34,1,0,0
169975,117412546,0,0,0,16.64,0.03,33,1,0,0
170426,117521082,0,0,0,16.64,0.03,33,1,0,0
170930,117634186,0,0,0,16.65,0.04,33,1,0,0
171422,117746343,0,0,0,16.64,0.03,34,1,0,0
171874,117849043,0,0,0,16.64,0.03,34,1,0,0
172326,117954618,0,0,0,16.64,0.03,33,1,0,0
172779,118060047,0,0,0,16.64,0.03,34,1,0,0
173275,118178698,0,0,0,16.64,0.03,34,1,0,0
174178,118387932,0,0,0,16.64,0.04,34,1,0,0
174671,118500209,0,0,0,16.64,0.04,34,1,0,0
175131,118609311,0,0,0,16.64,0.04,33,1,0,0
175586,118712944,0,0,0,16.64,0.04,33,1,0,0
176085,118826302,0,0,0,16.64,0.04,34,1,0,0
176493,118922517,0,0,0,16.64,0.04,33,1,0,0
176991,119034977,0,0,0,16.64,0.04,34,1,0,0
177447,119145575,0,0,0,16.64,0.04,34,1,0,0
177898,119246925,0,0,0,16.64,0.04,33,1,0,0
178357,119359056,0,0,0,16.64,0.04,34,1,0,0
178810,119461781,0,0,0,16.64,0.04,34,1,0,0
179309,119579269,0,0,0,16.64,0.04,34,1,0,0
180183,119787177,0,0,0,16.64,0.03,34,1,0,0
180676,119903220,0,0,0,16.64,0.04,33,1,0,0
181131,120005632,0,0,0,16.64,0.04,34,1,0,0
181629,120121941,0,0,0,16.64,0.04,34,1,0,0
182082,120225175,0,0,0,16.64,0.03,33,1,0,0
182581,120341657,0,0,0,16.64,0.03,34,1,0,0
183034,120446113,0,0,0,16.64,0.03,34,1,0,0
183489,120553372,0,0,0,16.64,0.03,34,1,0,0
183944,120657095,0,0,0,16.64,0.03,34,1,0,0
184443,120774800,0,0,0,16.64,0.03,34,1,0,0
184904,120888784,0,0,0,16.64,0.03,34,1,0,0
185314,120981070,0,0,0,16.64,0.04,33,1,0,0
185809,121095608,0,0,0,16.64,0.04,33,1,0,0
186263,121201055,0,0,0,16.63,0.04,34,1,0,0
186720,121309997,0,0,0,16.64,0.03,33,1,0,0
187171,121414564,0,0,0,16.64,0.04,33,1,0,0
187666,121529709,0,0,0,16.64,0.04,33,1,0,0
188118,121634041,0,0,0,16.64,0.03,33,1,0,0
188535,121736621,0,0,0,16.64,0.03,34,1,0,0
189035,121848286,0,0,0,16.64,0.03,33,1,0,0
189478,121951081,0,0,0,16.64,0.03,33,1,0,0
189978,122063907,0,0,0,16.64,0.03,33,1,0,0
190431,122170152,0,0,0,16.64,0.03,33,1,0,0
190927,122284272,0,0,0,16.64,0.03,33,1,0,0
191380,122389860,0,0,0,16.64,0.03,33,1,0,0
191834,122492876,0,0,0,16.64,0.03,34,1,0,0
192287,122599303,0,0,0,16.64,0.03,33,1,0,0
192789,122715823,0,0,0,16.64,0.04,33,1,0,0
193240,122818710,0,0,0,16.64,0.03,33,1,0,0
194150,123028384,0,0,0,16.64,0.04,34,1,0,0
194650,123149324,0,0,0,16.64,0.04,33,1,0,0
195103,123251681,0,0,0,16.64,0.04,34,1,0,0
195555,123359677,0,0,0,16.64,0.04,33,1,0,0
196055,123472275,0,0,0,16.64,0.04,34,1,0,0
196510,123581674,0,0,0,16.64,0.04,34,1,0,0
196921,123680356,0,0,0,16.64,0.04,33,1,0,0
197464,123806141,0,0,0,16.64,0.04,33,1,0,0
197876,123904606,0,0,0,16.64,0.04,33,1,0,0
198332,124008171,0,0,0,16.64,0.04,33,1,0,0
198826,124124282,0,0,0,16.64,0.04,34,1,0,0
199279,124227728,0,0,0,16.64,0.04,33,1,0,0
199774,124346608,0,0,0,16.64,0.04,34,1,0,0
200226,124451573,0,0,0,16.64,0.04,33,1,0,0
200683,124560605,0,0,0,16.64,0.04,33,1,0,0
201138,124665888,0,0,0,16.64,0.04,34,1,0,0
201594,124779130,0,0,0,16.64,0.04,34,1,0,0
202059,124889586,0,0,0,16.65,0.04,33,1,0,0
202514,124993158,0,0,0,16.64,0.04,34,1,0,0
203462,125216039,0,0,0,16.64,0.04,33,1,0,0
203911,125319319,0,0,0,16.64,0.04,34,1,0,0
204411,125435302,0,0,0,16.64,0.04,34,1,0,0
204868,125543891,0,0,0,16.65,0.04,34,1,0,0
205323,125648377,0,0,0,16.64,0.04,34,1,0,0
205775,125756130,0,0,0,16.64,0.04,33,1,0,0
206235,125867328,0,0,0,16.64,0.04,34,1,0,0
206649,125967704,0,0,0,16.64,0.03,33,1,0,0
207152,126083148,0,0,0,16.64,0.04,34,1,0,0
207601,126191925,0,0,0,16.64,0.04,34,1,0,0
208056,126300126,0,0,0,16.64,0.04,34,1,0,0
208552,126413756,0,0,0,16.64,0.04,34,1,0,0
209006,126520659,0,0,0,16.64,0.04,34,1,0,0
209462,126627665,0,0,0,16.64,0.04,34,1,0,0
209881,126731584,0,0,0,16.64,0.04,33,1,0,0
210378,126844665,0,0,0,16.64,0.04,34,1,0,0
210872,126955882,0,0,0,16.64,0.03,34,1,0,0
211325,127058671,0,0,0,16.64,0.03,34,1,0,0
211611,197668965,0,0,0,16.63,0.03,34,1,0,0
211874,197727920,0,0,0,16.64,0.03,34,1,0,0
212331,197834191,0,0,0,16.63,0.03,34,1,0,0
212792,197944618,0,0,0,16.64,0.03,34,1,0,0
213246,198047615,0,0,0,16.64,0.03,34,1,0,0
213694,198149849,0,0,0,16.64,0.03,34,1,0,0
214190,198261709,0,0,0,16.63,0.03,34,1,0,0
214643,198364143,0,0,0,16.63,0.03,34,1,0,0
215142,198478643,0,0,0,16.64,0.03,34,1,0,0
215560,198580957,0,0,0,16.63,0.03,34,1,0,0
216015,198683377,0,0,0,16.63,0.03,34,1,0,0
216508,198795293,0,0,0,16.64,0.03,34,1,0,0
216966,198901596,0,0,0,16.63,0.03,34,1,0,0
217461,199012850,0,0,0,16.64,0.03,34,1,0,0
217914,199117337,0,0,0,16.64,0.03,34,1,0,0
218372,199222346,0,0,0,16.63,0.03,34,1,0,0
218825,199326669,0,0,0,16.63,0.03,34,1,0,0
219325,199438093,0,0,0,16.64,0.03,34,1,0,0
219742,199539848,0,0,0,16.63,0.03,34,1,0,0
220233,199647310,0,0,0,16.63,0.03,34,1,0,0
220691,199757145,0,0,0,16.63,0.03,34,1,0,0
221190,199867860,0,23,442,16.61,0.07000000000000001,34,1,0,0
221644,199974352,0,480,885,16.59,0.14,34,1,0,0
222098,200076569,0,898,1200,16.61,0.15,34,1,0,0
222585,200182951,0,1203,1285,16.61,0.12,34,1,0,0
223031,200286830,0,1285,1328,16.61,0.11,34,1,0,0
223451,200402658,0,1328,1342,16.61,0.11,34,1,0,0
223903,200506333,0,1342,1342,16.62,0.11,34,1,0,0
224356,200607854,0,1342,1357,16.61,0.11,34,1,0,0
224857,200725843,0,1355,1342,16.62,0.11,34,1,0,0
225309,200828145,0,1343,1357,16.61,0.11,34,1,0,0
225772,200935856,0,1357,1357,16.62,0.09999999,34,1,0,0
226224,201037303,0,1357,1357,16.61,0.09999999,34,1,0,0
226680,201143966,0,1357,1357,16.62,0.09999999,34,1,0,0
227178,201255314,0,1357,1357,16.61,0.11,34,1,0,0
227633,201360086,0,1357,1357,16.61,0.11,34,1,0,0
228085,201460742,0,1357,1357,16.61,0.11,34,1,0,0
228583,201575601,0,1357,1357,16.62,0.11,34,1,0,0
229038,201680220,0,1357,1357,16.62,0.11,34,1,0,0
229535,201796100,0,1357,1357,16.61,0.11,34,1,0,0
229949,201891399,0,1357,1357,16.62,0.11,34,1,0,0
230446,202002045,0,1357,1357,16.61,0.09999999,35,1,0,0
230896,202103832,0,1357,1357,16.61,0.11,34,1,0,0
231353,202207305,0,1356,1342,16.62,0.11,34,1,0,0
231853,202324693,0,1343,1357,16.61,0.09999999,34,1,0,0
232272,202421730,0,1357,1357,16.61,0.11,34,1,0,0
232768,202536267,0,1357,1357,16.61,0.09999999,34,1,0,0
233224,202639351,0,1357,1357,16.62,0.09999999,34,1,0,0
233714,202749179,0,1357,1357,16.62,0.09999999,34,1,0,0
234170,202850661,0,1357,1357,16.61,0.09999999,34,1,0,0
234665,202965697,0,1357,1357,16.61,0.11,34,1,0,0
234937,203067561,0,1357,1357,16.62,0.09999999,34,1,0,0
235385,203169043,0,1357,1357,16.61,0.09999999,35,1,0,0
235877,203286136,0,1357,1357,16.62,0.09999999,34,1,0,0
236339,203395292,0,1357,1357,16.61,0.11,34,2,0,0
236791,203500836,0,1357,1357,16.61,0.11,34,2,0,0
237209,203598746,0,1357,1357,16.61,0.11,34,2,0,0
237662,203702116,0,1357,1357,16.62,0.09999999,35,2,0,0
238158,203813319,0,1357,1357,16.61,0.11,34,2,0,0
238613,203919275,0,1356,1342,16.62,0.09999999,34,2,0,0
239116,204033130,0,1347,1400,16.6,0.15,35,2,0,0
239562,204131831,0,1412,1657,16.57,0.28,34,2,0,0
240062,204246138,0,1822,3514,15.61,4.04,35,2,0,0
240475,204343994,0,3566,5700,15.54,5.8,35,2,0,0
240974,204455356,0,5728,6514,15.74,5.14,35,2,0,0
241423,204557852,0,6516,6657,15.66,5.19,35,2,0,0
241920,204670131,0,6663,6871,15.92,5.22,35,2,0,0
242413,204782606,0,6817,6242,16.18,3.32,35,2,0,0
242872,204890681,0,6232,6128,16.07,3.48,35,2,0,0
243293,204992192,0,6118,5985,16.05,3.86,35,3,0,0
243740,205092884,0,5986,6100,16.04,3.83,35,3,0,0
244281,205209352,0,6093,6028,16.02,3.83,35,3,0,0
244688,205304925,0,6028,6042,16.04,3.98,35,3,0,0
245194,205416875,0,6058,6457,15.81,5.29,35,3,0,0
245647,205522058,0,6459,6642,15.73,5.25,35,3,0,0
246145,205634090,0,6650,6728,15.79,5.41,35,3,0,0
246637,205744085,0,6705,6471,15.98,4.28,35,3,0,0
247089,205845840,0,6449,6114,15.95,3.41,35,4,0,0
247545,205953767,0,6128,6285,15.91,4.54,35,4,0,0
248000,206054302,0,6285,6285,15.98,4.29,35,4,0,0
248488,206162327,0,6283,6242,15.88,4.11,35,4,0,0
248945,206266045,0,6242,6257,15.98,3.9,35,4,0,0
249437,206376947,0,6249,6085,15.98,3.81,35,4,0,0
249936,206494187,0,6086,6100,15.94,3.94,35,4,0,0
250339,206589119,0,6099,6071,15.94,3.76,35,4,0,0
250831,206709582,0,6073,6100,15.88,3.97,35,5,0,0
251282,206813859,0,6101,6114,15.87,3.96,35,5,0,0
251692,206915301,0,6112,6085,15.97,3.86,35,5,0,0
252187,207032650,0,6038,5557,16.33,1.46,35,5,0,0
252629,207136646,0,5539,5285,16.28,2.93,35,5,0,0
253079,207243633,0,5282,5228,16.08,2.4,35,5,0,0
253523,207350280,0,5225,5100,16.13,2.65,35,5,0,0
253974,207458635,0,5111,5371,15.97,3.05,35,5,0,0
254462,207576271,0,5388,5571,16.1,2.9,35,5,0,0
254869,207681221,0,5574,5657,16,3.97,35,5,0,0
255362,207797626,0,5707,6228,15.93,4.24,35,6,0,0
255768,207901124,0,6230,6385,15.89,4.4,35,6,0,0
256216,208008876,0,6385,6385,15.85,4.54,35,6,0,0
256699,208127052,0,6386,6414,15.89,4.5,35,6,0,0
257156,208238046,0,6423,6514,15.88,4.51,35,6,0,0
257603,208347679,0,6514,6514,15.94,4.73,36,6,0,0
258003,208447742,0,6514,6528,15.91,4.41,35,6,0,0
258456,208563371,0,6530,6557,15.95,4.3,36,7,0,0
258906,208673877,0,6557,6557,15.86,4.46,36,7,0,0
259348,208783203,0,6544,6385,15.91,4.37,36,7,0,0
259800,208896960,0,6379,6342,15.87,4.34,36,7,0,0
260245,209004108,0,6346,6414,15.91,4.53,36,7,0,0
260653,209110693,0,6416,6442,15.91,4.53,36,7,0,0
261100,209216342,0,6445,6485,15.91,4.44,36,7,0,0
261547,209326773,0,6468,6228,15.96,3.87,36,7,0,0
262037,209444958,0,6243,6428,15.94,4.17,36,7,0,0
262442,209547846,0,6429,6442,15.92,4.74,36,8,0,0
262890,209655313,0,6442,6442,15.96,4.22,36,8,0,0
263335,209765350,0,6445,6485,15.83,4.71,36,8,0,0
263781,209869579,0,6485,6500,15.83,4.72,36,8,0,0
264228,209979054,0,6496,6457,15.87,4.74,36,8,0,0
264673,210090594,0,6469,6600,15.91,4.78,36,8,0,0
265122,210201317,0,6610,6714,15.88,4.63,36,9,0,0
266024,210425317,0,6701,6428,15.83,4.6,36,9,0,0
266427,210526711,0,6432,6471,15.85,4.78,36,9,0,0
266868,210629059,0,6472,6500,15.87,4.55,36,9,0,0
267319,210740095,0,6499,6485,15.82,4.58,36,9,0,0
268178,210956130,0,6483,6428,15.94,4.18,36,10,0,0
268670,211075140,0,6413,6271,15.85,4.18,36,10,0,0
269080,211179815,0,6271,6285,15.87,4.6,36,10,0,0
269529,211283853,0,6292,6400,15.77,4.44,36,10,0,0
269975,211393765,0,6401,6414,15.81,4.53,36,10,0,0
270382,211499575,0,6410,6357,15.82,4.54,36,10,0,0
270828,211606271,0,6353,6300,15.82,4.24,36,10,0,0
271273,211717256,0,6298,6285,15.8,4.4,36,10,0,0
271728,211828836,0,6287,6314,15.86,4.26,36,10,0,0
272139,211933889,0,6323,6442,15.83,4.31,36,11,0,0
272589,212042738,0,6433,6314,15.79,4.33,36,11,0,0
273033,212153642,0,6325,6500,15.84,4.6,36,11,0,0
273485,212264115,0,6486,6357,15.86,4.35,36,11,0,0
273890,212367196,0,6359,6414,15.8,4.43,36,11,0,0
274338,212476561,0,6414,6457,15.79,4.79,36,11,0,0
275271,212707632,0,6459,6500,15.9,4.14,36,12,0,0
276119,212920579,0,6496,6428,15.79,5.28,37,12,0,0
277022,213145194,0,6429,6471,15.85,4.42,37,12,0,0
277469,213251942,0,6463,6385,15.77,4.35,37,12,0,0
277906,213352066,0,6377,6285,15.83,4.09,37,12,0,0
278362,213463809,0,6282,6242,15.85,3.96,37,13,0,0
278760,213567143,0,6241,6228,15.78,3.85,37,13,0,0
279255,213690428,0,6222,6185,15.86,4.12,37,13,0,0
279624,213784300,0,6187,6342,15.82,4.17,37,13,0,0
280069,213896579,0,6317,6128,15.89,3.93,37,13,0,0
280519,214002387,0,6126,6028,15.86,3.64,37,13,0,0
280997,214117859,0,6024,5985,15.8,3.55,37,13,0,0
281443,214222707,0,5983,5971,15.88,3.12,37,13,0,0
282302,214432785,0,5971,5971,15.78,3.41,37,14,0,0
282744,214544346,0,5966,5871,15.85,3.46,37,14,0,0
283197,214654700,0,5877,5971,15.75,3.44,37,14,0,0
283646,214767065,0,5981,6085,15.8,3.64,37,14,0,0
284098,214874831,0,6070,5942,15.77,3.12,37,14,0,0
284542,214986346,0,5942,5942,15.73,3.25,37,14,0,0
284958,215089180,0,5939,5771,15.75,3.02,37,14,0,0
285411,215206601,0,5817,6271,15.72,5.47,37,14,0,0
285851,215309630,0,6236,5771,15.75,2.24,37,14,0,0
286300,215416042,0,5787,6100,15.75,3.69,37,15,0,0
287234,215645290,0,6103,6185,15.73,4.39,37,15,0,0
288134,215866349,0,6181,6100,15.69,3.57,37,15,0,0
288578,215974549,0,6092,6014,15.72,3.79,37,15,0,0
289033,216084642,0,6025,6185,15.69,4.02,37,15,0,0
289478,216195633,0,6182,6157,15.73,4.11,37,15,0,0
289885,216295128,0,6154,6000,15.72,4.23,37,16,0,0
290334,216403317,0,6010,6257,15.75,4.37,37,16,0,0
290738,216508124,0,6258,6342,15.71,4.29,37,16,0,0
291183,216615705,0,6338,6214,15.72,4.11,37,16,0,0
291638,216731125,0,6220,6300,15.66,4.55,37,16,0,0
292089,216840789,0,6319,6500,15.6,4.88,37,16,0,0
292498,216946864,0,6495,6400,15.68,4.59,37,16,0,0
292992,217066091,0,6404,6457,15.63,5.04,37,17,0,0
293396,217168798,0,6477,6714,15.61,5.17,37,17,0,0
293849,217276607,0,6716,6742,15.6,5.32,37,17,0,0
294292,217386194,0,6744,6785,15.66,5.14,37,17,0,0
295217,217604769,0,6783,6742,15.66,4.83,37,17,0,0
295662,217714174,0,6731,6600,15.67,4.93,37,17,0,0
296114,217823751,0,6603,6685,15.71,4.84,37,18,0,0
296565,217936972,0,6687,6714,15.63,4.63,37,18,0,0
296966,218032293,0,6712,6642,15.57,4.92,37,18,0,0
297413,218146087,0,6644,6700,15.5,4.95,37,18,0,0
297870,218254312,0,6705,6828,15.52,5.23,37,18,0,0
298311,218361184,0,6826,6800,15.54,5.13,37,18,0,0
298805,218484938,0,6796,6771,15.63,5.01,37,18,0,0
299204,218581807,0,6770,6742,15.59,4.8,37,19,0,0
299695,218701645,0,6733,6642,15.58,4.61,37,19,0,0
300141,218807792,0,6629,6457,15.55,4.67,37,19,0,0
300549,218912218,0,6456,6442,15.37,5.06,37,19,0,0
300999,219021875,0,6453,6714,15.45,5.14,37,19,0,0
301444,219134670,0,6712,6700,15.41,4.93,37,19,0,0
301898,219239646,0,6721,6928,15.5,5.27,37,20,0,0
302342,219349645,0,6924,6714,15.51,5.22,37,20,0,0
302826,219465172,0,6744,6971,15.55,5.2,37,20,0,0
303229,219567304,0,6966,6757,15.44,5.2,37,20,0,0
304125,219788900,0,6746,6557,15.51,4.6,37,20,0,0
304581,219896681,0,6575,6757,15.44,5.35,37,20,0,0
304982,219994959,0,6756,6714,15.49,5.4,37,21,0,0
305433,220107353,0,6715,6742,15.48,5.31,37,21,0,0
305881,220220928,0,6745,6785,15.5,5.69,37,21,0,0
306334,220335640,0,6778,6714,15.65,4.51,37,21,0,0
306783,220441568,0,6718,6757,15.51,5.23,38,21,0,0
307187,220543687,0,6757,6771,15.55,4.87,38,21,0,0
307634,220650823,0,6757,6442,15.79,3.8,38,21,0,0
308086,220762901,0,6452,6542,15.74,4.76,38,22,0,0
308535,220869348,0,6536,6457,15.92,3.8,37,22,0,0
308978,220979972,0,6442,6214,15.89,3.36,37,22,0,0
309383,221077419,0,6215,6342,15.8,3.85,38,22,0,0
309862,221190148,0,6334,6142,15.86,3.57,38,22,0,0
310314,221303334,0,6153,6314,15.87,4.03,38,22,0,0
310762,221409797,0,6310,6128,15.82,4.08,38,22,0,0
311648,221621129,0,6130,6357,15.78,4.03,38,23,0,0
312100,221737125,0,6360,6400,15.82,3.88,38,23,0,0
312504,221834844,0,6394,6200,15.82,4,38,23,0,0
312957,221950788,0,6200,6200,15.88,3.83,38,23,0,0
313405,222058251,0,6203,6285,15.86,4.06,38,23,0,0
313850,222169330,0,6284,6271,15.84,3.95,38,23,0,0
314307,222279793,0,6277,6342,15.89,3.67,38,23,0,0
314707,222382552,0,6343,6428,15.84,4.08,38,23,0,0
315156,222492298,0,6425,6285,15.76,3.83,38,23,0,0
315597,222599933,0,6292,6557,15.74,4.35,38,24,0,0
316050,222715276,0,6555,6542,15.74,3.93,38,24,0,0
316459,222815881,0,6533,6171,15.75,3.56,38,24,0,0
316913,222929909,0,6165,6085,15.76,4.07,38,24,0,0
317362,223037705,0,6083,6057,15.77,3.67,38,24,0,0
317766,223139851,0,6053,5985,15.81,3.13,38,24,0,0
318220,223251822,0,5977,5871,15.72,3.71,38,24,0,0
318670,223363661,0,5878,5957,15.75,3.65,38,24,0,0
319121,223472763,0,5955,5928,15.69,3.89,38,24,0,0
319524,223574041,0,5931,6128,15.75,3.95,38,25,0,0
320009,223689808,0,6134,6200,15.7,4.02,38,25,0,0
320416,223790662,0,6199,6185,15.67,4.11,38,25,0,0
321350,224014969,0,6195,6400,15.69,4.33,38,25,0,0
321794,224124150,0,6401,6414,15.67,4.65,38,25,0,0
322242,224230637,0,6410,6371,15.63,4.5,38,25,0,0
322648,224334179,0,6371,6371,15.63,4.63,38,26,0,0
323129,224442959,0,6373,6428,15.6,4.5,38,26,0,0
323573,224553154,0,6427,6414,15.61,4.56,38,26,0,0
324019,224660865,0,6414,6428,15.63,4.46,38,26,0,0
324477,224774062,0,6426,6414,15.65,4.56,38,26,0,0
324925,224885602,0,6419,6471,15.68,4.47,38,26,0,0
325329,224986819,0,6471,6485,15.68,4.12,38,26,0,0
325823,225109044,0,6469,6328,15.65,4.3,38,26,0,0
326222,225206187,0,6328,6328,15.67,4.23,38,27,0,0
327124,225426820,0,6323,6157,15.67,4.03,38,27,0,0
327538,225535662,0,6142,5857,15.67,3.43,38,27,0,0
327987,225645645,0,5865,6200,15.63,4.36,38,27,0,0
328441,225756867,0,6222,6671,15.64,5.37,38,27,0,0
328891,225866692,0,6652,6300,15.55,4.24,38,27,0,0
329341,225977339,0,6290,6157,15.45,2.94,38,27,0,0
329785,226085294,0,6180,6671,15.5,6.2,38,28,0,0
330191,226186615,0,6667,6585,15.42,4.99,38,28,0,0
330641,226301687,0,6589,6628,15.55,4.77,38,28,0,0
331088,226407890,0,6589,6014,15.52,4.02,38,28,0,0
331536,226519053,0,6057,6485,15.57,5.2,38,28,0,0
331941,226619077,0,6486,6571,15.66,4.77,38,28,0,0
332429,226737459,0,6559,6442,15.66,4.19,38,28,0,0
332882,226849806,0,6466,6800,15.58,6.13,38,29,0,0
333329,226958644,0,6761,6257,15.65,2.92,38,29,0,0
333776,227065967,0,6256,6242,15.61,4.11,38,29,0,0
334188,227173186,0,6236,6100,15.55,4.2,38,29,0,0
334674,227292071,0,6119,6514,15.7,4.64,38,29,0,0
334904,227392162,0,6483,5885,15.66,2.7,38,29,0,0
335753,227601796,0,5895,6371,15.79,4.19,38,29,0,0
336165,227709908,0,6367,6285,15.81,3.69,38,30,0,0
336650,227821628,0,6285,6285,15.79,3.61,38,30,0,0
337057,227924842,0,6259,5785,15.8,1.68,38,30,0,0
337508,228035268,0,5775,5642,15.67,3.98,38,30,0,0
337918,228141931,0,5673,6285,15.62,3.93,38,30,0,0
338366,228250756,0,6285,6285,15.74,4.01,38,30,0,0
338819,228363734,0,6300,6457,15.66,4.26,38,30,0,0
339266,228470413,0,6431,6085,15.59,3.12,38,30,0,0
339711,228580579,0,6072,5914,15.64,3.82,38,30,0,0
340163,228690726,0,5943,6200,15.6,4.04,38,31,0,0
340606,228797677,0,6193,6100,15.67,4.01,38,31,0,0
340985,228902835,0,6101,6128,15.62,4.38,38,31,0,0
341475,229017793,0,6150,6371,15.55,4.86,38,31,0,0
341878,229115677,0,6380,6714,15.58,5.47,38,31,0,0
342778,229336664,0,6708,6257,15.54,3.86,38,31,0,0
343262,229449101,0,6254,6228,15.61,3.78,38,31,0,0
343711,229564653,0,6215,6100,15.53,4,38,32,0,0
344166,229670943,0,6105,6157,15.52,4.38,38,32,0,0
344611,229781185,0,6165,6242,15.58,4.44,38,32,0,0
345093,229900194,0,6267,6442,15.61,4.37,38,32,0,0
345505,230002859,0,6406,6228,15.63,4.17,38,32,0,0
345910,230096337,0,6229,6314,15.63,4.02,38,32,0,0
346399,230218173,0,6297,6114,15.66,3.92,38,32,0,0
346803,230319966,0,6115,6228,15.63,4.17,38,33,0,0
347299,230436821,0,6226,6214,15.58,3.86,38,33,0,0
348181,230648197,0,6210,6057,15.63,3.92,38,33,0,0
349088,230876310,0,6033,5514,15.7,2.82,38,33,0,0
349452,230967045,0,5521,5814,15.61,4.76,38,33,0,0
349937,231080826,0,5839,6171,15.64,4.34,38,33,0,0
350390,231194941,0,6189,6342,15.58,4.57,38,33,0,0
350794,231290691,0,6342,6342,15.57,4.48,38,34,0,0
351239,231400057,0,6336,6257,15.56,3.81,38,34,0,0
351642,231503273,0,6253,6000,15.6,3.63,38,34,0,0
352090,231611968,0,6000,6000,15.7,3.41,38,34,0,0
352536,231725336,0,5992,5914,15.6,3.45,38,34,0,0
352976,231827278,0,5911,5814,15.69,3.46,38,34,0,0
353428,231944865,0,5823,5942,15.65,3.59,38,34,0,0
353877,232054301,0,5940,5914,15.63,3.54,38,34,0,0
354325,232162671,0,5914,5928,15.58,3.57,38,34,0,0
354780,232275083,0,5934,6000,15.63,3.6,38,35,0,0
355226,232384126,0,5989,5885,15.55,3.31,38,35,0,0
355633,232485193,0,5883,5828,15.68,3.17,38,35,0,0
356082,232596217,0,5823,5714,15.61,3.21,38,35,0,0
356559,232710059,0,5744,5942,15.55,3.19,38,35,0,0
356968,232810816,0,5938,5757,15.61,2.85,38,35,0,0
357413,232922964,0,5754,5728,15.68,2.85,38,35,0,0
357862,233031057,0,5727,5714,15.63,3.25,38,35,0,0
358307,233143549,0,5724,5871,15.73,2.75,38,35,0,0
358755,233251906,0,5803,5128,15.63,1.73,38,35,0,0
359203,233363106,0,5119,5000,15.74,1.78,38,35,0,0
359648,233468758,0,5000,5014,15.66,2.32,38,35,0,0
360101,233580223,0,5019,5314,15.61,2.74,38,36,0,0
360587,233693640,0,5324,5428,15.64,2.6,38,36,0,0
360987,233795173,0,5431,5571,15.63,2.79,38,36,0,0
361435,233906690,0,5558,5385,15.63,2.53,38,36,0,0
361888,234020094,0,5390,5471,15.63,2.55,38,36,0,0
362331,234127763,0,5472,5500,15.61,2.86,38,36,0,0
362780,234236613,0,5509,5600,15.58,3.26,38,36,0,0
363185,234337285,0,5602,5714,15.64,3.32,38,36,0,0
363631,234443222,0,5715,5771,15.59,3.27,38,36,0,0
364113,234557749,0,5775,5842,15.59,3.41,38,36,0,0
364566,234669135,0,5844,5871,15.54,3.64,38,36,0,0
365010,234780194,0,5876,5928,15.54,3.43,38,37,0,0
365459,234887044,0,5936,6042,15.66,3.53,38,37,0,0
365905,234999918,0,6051,6142,15.58,3.68,38,37,0,0
366306,235099949,0,6139,6071,15.61,3.75,38,37,0,0
366789,235212162,0,6064,5971,15.57,3.46,38,37,0,0
367233,235319755,0,5955,5742,15.61,3.45,38,37,0,0
367684,235429142,0,5741,5728,15.63,3.34,38,37,0,0
368125,235537714,0,5740,5914,15.58,3.63,38,37,0,0
368577,235648166,0,5910,5871,15.58,3.85,38,37,0,0
369016,235755093,0,5872,5900,15.6,3.68,38,38,0,0
369467,235865871,0,5906,6000,15.67,3.45,38,38,0,0
369871,235968891,0,5999,5985,15.57,3.76,38,38,0,0
370362,236084119,0,5995,6171,15.58,4.15,38,38,0,0
370803,236191795,0,6166,6128,15.55,4.32,38,38,0,0
371248,236304149,0,6148,6328,15.57,4.39,38,38,0,0
371651,236399180,0,6326,6257,15.61,4.25,38,38,0,0
372138,236519112,0,6263,6357,15.57,4.55,38,38,0,0
372586,236623653,0,6364,6471,15.57,4.75,38,39,0,0
373068,236742200,0,6472,6485,15.56,4.77,38,39,0,0
373518,236858086,0,6495,6614,15.67,4.57,38,39,0,0
373919,236958216,0,6605,6528,15.61,4.57,38,39,0,0
374327,237059930,0,6528,6528,15.57,4.61,38,39,0,0
374777,237171642,0,6526,6471,15.64,4.46,38,39,0,0
375268,237293906,0,6464,6414,15.55,4.54,38,39,0,0
376147,237506859,0,6417,6514,15.64,4.48,38,40,0,0
376599,237614620,0,6507,6442,15.58,4.48,38,40,0,0
377043,237725835,0,6445,6485,15.52,4.84,38,40,0,0
377493,237834797,0,6482,6457,15.58,4.77,38,40,0,0
377934,237943711,0,6473,6642,15.54,4.75,38,40,0,0
378341,238041845,0,6640,6585,15.5,4.83,38,40,0,0
378785,238151184,0,6584,6528,15.58,4.75,38,41,0,0
379274,238267188,0,6528,6528,15.53,4.75,38,41,0,0
379681,238373349,0,6530,6557,15.54,4.77,38,41,0,0
380084,238474957,0,6555,6457,15.57,4.55,38,41,0,0
380530,238587720,0,6459,6500,15.58,4.5,38,41,0,0
381422,238807624,0,6500,6500,15.58,4.59,38,41,0,0
381857,238908894,0,6498,6428,15.54,4.37,38,42,0,0
382352,239029169,0,6425,6400,15.61,4.33,38,42,0,0
382787,239131962,0,6397,6342,15.63,4.17,38,42,0,0
383241,239245955,0,6344,6371,15.6,4.52,38,42,0,0
383643,239347886,0,6372,6442,15.66,4.06,38,42,0,0
384090,239454342,0,6440,6357,15.58,4.38,38,42,0,0
384580,239573368,0,6353,6314,15.62,4.2,38,42,0,0
385467,239787136,0,6314,6314,15.67,3.9,38,42,0,0
385911,239894186,0,6314,6342,15.64,4.19,38,43,0,0
386318,239999750,0,6340,6242,15.58,4.1,38,43,0,0
386760,240106354,0,6244,6357,15.64,4.3,39,43,0,0
387212,240215553,0,6357,6400,15.71,4.2,38,43,0,0
387707,240336634,0,6382,6200,15.72,3.62,39,43,0,0
388157,240445573,0,6180,5985,15.67,3.58,39,43,0,0
388564,240548680,0,5987,6142,15.66,3.87,39,43,0,0
389054,240666085,0,6133,6042,15.61,3.76,38,43,0,0
389460,240768354,0,6049,6157,15.61,3.78,38,44,0,0
389951,240884879,0,6165,6257,15.66,3.75,39,44,0,0
390395,240995338,0,6250,6185,15.57,3.99,38,44,0,0
390800,241098274,0,6192,6342,15.55,4.59,39,44,0,0
391283,241210887,0,6358,6514,15.5,4.74,39,44,0,0
391728,241318135,0,6522,6628,15.39,5.41,39,44,0,0
392139,241421889,0,6626,6614,15.45,5.14,39,44,0,0
392592,241538877,0,6618,6657,15.54,4.84,39,45,0,0
393040,241643920,0,6657,6657,15.52,4.81,39,45,0,0
393445,241750256,0,6652,6542,15.58,4.72,39,45,0,0
393936,241865943,0,6544,6571,15.54,4.62,39,45,0,0
394382,241976656,0,6560,6457,15.52,4.75,39,45,0,0
394827,242090592,0,6457,6457,15.52,4.83,39,45,0,0
395712,242296238,0,6457,6471,15.5,4.52,39,45,0,0
396158,242403775,0,6462,6342,15.55,4.29,39,46,0,0
396563,242505934,0,6343,6442,15.56,4.32,39,46,0,0
397007,242613143,0,6439,6342,15.51,4.08,39,46,0,0
397494,242740896,0,6351,6457,15.47,4.44,39,46,0,0
397898,242835302,0,6455,6371,15.57,4.22,39,46,0,0
398341,242945921,0,6371,6414,15.57,4.36,39,46,0,0
398870,243065142,0,6404,6314,15.55,4.03,39,46,0,0
399311,243171887,0,6310,6228,15.58,4.15,39,47,0,0
399762,243282280,0,6235,6314,15.55,4.09,39,47,0,0
401052,243604135,0,6310,6185,15.62,3.86,39,47,0,0
401495,243716633,0,6177,6100,15.61,3.82,39,47,0,0
401943,243825947,0,6109,6200,15.61,3.88,39,47,0,0
402349,243925933,0,6205,6271,15.57,4.02,39,47,0,0
402797,244031946,0,6271,6271,15.59,4.04,39,48,0,0
403239,244141972,0,6268,6242,15.63,3.9,39,48,0,0
403648,244244912,0,6239,6071,15.6,4.07,39,48,0,0
404136,244362202,0,6084,6228,15.61,3.92,39,48,0,0
404985,244571365,0,6229,6285,15.57,4.3,39,48,0,0
405433,244679594,0,6287,6400,15.58,4.24,39,48,0,0
405877,244790160,0,6398,6314,15.55,4.35,39,48,0,0
406363,244907759,0,6320,6385,15.58,4.29,39,49,0,0
406773,245008164,0,6381,6328,15.57,4.31,39,49,0,0
407219,245117645,0,6338,6442,15.62,4.39,39,49,0,0
407664,245224658,0,6436,6371,15.55,4.1,39,49,0,0
408068,245327089,0,6362,6200,15.57,4.21,39,49,0,0
408514,245433850,0,6206,6457,15.57,4.44,39,49,0,0
408671,245549401,0,6460,6500,15.6,4.52,39,49,0,0
409116,245657552,0,6485,6342,15.61,4.2,39,49,0,0
409566,245769282,0,6347,6400,15.58,4.11,39,50,0,0
409969,245868075,0,6397,6228,15.63,3.98,39,50,0,0
410454,245984115,0,6211,6042,15.72,3.5,39,50,0,0
410859,246082885,0,6042,6042,15.69,3.59,39,50,0,0
411297,246187938,0,6044,6157,15.68,3.78,39,50,0,0
411754,246304464,0,6157,6157,15.65,3.62,39,50,0,0
412200,246409698,0,6153,6114,15.58,3.72,39,50,0,0
412653,246522900,0,6116,6142,15.58,4.09,39,50,0,0
413091,246622734,0,6146,6228,15.6,3.9,39,51,0,0
413535,246732556,0,6224,6157,15.66,3.97,39,51,0,0
414420,246946832,0,6155,6071,15.63,3.62,39,51,0,0
414877,247061552,0,6072,6085,15.51,4.11,39,51,0,0
415318,247167926,0,6095,6242,15.6,4.22,39,51,0,0
415763,247272172,0,6245,6314,15.59,4.46,39,51,0,0
416215,247387617,0,6314,6314,15.58,4.35,39,51,0,0
416628,247490747,0,6317,6400,15.54,4.4,39,52,0,0
417071,247601153,0,6400,6414,15.52,4.62,39,52,0,0
417518,247715119,0,6408,6357,15.59,4.4,39,52,0,0
418365,247923940,0,6354,6257,15.53,4.22,39,52,0,0
418819,248035316,0,6257,6257,15.54,4.21,39,52,0,0
419217,248135724,0,6256,6242,15.57,4,39,52,0,0
419660,248240925,0,6242,6257,15.61,3.95,39,52,0,0
420108,248352951,0,6255,6228,15.57,3.94,39,52,0,0
420605,248470164,0,6224,6185,15.63,4.04,39,53,0,0
421050,248580151,0,6188,6242,15.61,3.42,39,53,0,0
421455,248681628,0,6239,6128,15.59,3.82,39,53,0,0
421941,248799045,0,6142,6285,15.54,4.17,39,53,0,0
422389,248911857,0,6290,6328,15.57,3.98,39,53,0,0
422841,249020314,0,6321,6257,15.55,4.25,39,53,0,0
423692,249231691,0,6257,6271,15.52,4.22,39,53,0,0
424174,249344996,0,6265,6214,15.5,4.33,39,54,0,0
424622,249453755,0,6218,6257,15.52,4.43,39,54,0,0
425029,249557183,0,6260,6342,15.52,4.22,39,54,0,0
425477,249665841,0,6340,6285,15.56,3.97,39,54,0,0
425962,249784918,0,6285,6285,15.55,4.46,39,54,0,0
426366,249881905,0,6286,6400,15.58,4.18,39,54,0,0
426813,249993353,0,6403,6457,15.53,4.2,39,54,0,0
427263,250102341,0,6454,6314,15.6,4.39,39,55,0,0
427708,250215142,0,6314,6314,15.56,4.16,39,55,0,0
428566,250429623,0,6313,6300,15.57,4.12,39,55,0,0
428971,250530909,0,6298,6271,15.6,4.09,39,55,0,0
429420,250636891,0,6273,6371,15.63,4.39,39,55,0,0
430323,250858954,0,6364,6042,15.63,3.94,39,55,0,0
430764,250967707,0,6052,6200,15.67,3.94,39,55,0,0
431213,251076949,0,6194,6057,15.64,3.7,39,56,0,0
432099,251298306,0,6061,6142,15.58,3.73,39,56,0,0
432548,251414699,0,6143,6157,15.6,3.67,39,56,0,0
432951,251511163,0,6151,6100,15.57,3.76,39,56,0,0
433402,251620830,0,6116,6228,15.59,3.84,39,56,0,0
434287,251834678,0,6218,5985,15.59,3.75,39,56,0,0
434733,251944272,0,5994,6114,15.62,3.96,39,56,0,0
435179,252054164,0,6131,6314,15.54,4.35,39,57,0,0
435586,252158361,0,6315,6371,15.51,4.44,39,57,0,0
436070,252272702,0,6373,6400,15.6,4.31,39,57,0,0
436514,252382869,0,6398,6385,15.5,4.48,39,57,0,0
436971,252491827,0,6397,6557,15.59,4.54,39,57,0,0
437370,252588905,0,6555,6428,15.66,4.19,39,57,0,0
438740,252923812,0,6426,6357,15.57,4.16,39,58,0,0
439150,253026737,0,6356,6328,15.55,4.29,39,58,0,0
439592,253136175,0,6336,6428,15.63,4.02,39,58,0,0
440045,253249299,0,6405,6228,15.58,4.01,39,58,0,0
440446,253348359,0,6227,6171,15.64,3.79,39,58,0,0
440937,253465658,0,6166,6114,15.6,3.8,39,58,0,0
441382,253572941,0,6103,6014,15.63,3.56,39,58,0,0
441834,253684738,0,6015,6028,15.6,3.82,39,58,0,0
442238,253790574,0,6037,6128,15.58,4.05,39,59,0,0
442683,253900574,0,6132,6171,15.63,3.54,39,59,0,0
443090,253998173,0,6173,6300,15.53,4.04,39,59,0,0
443554,254116038,0,6320,6500,15.51,4.4,39,59,0,0
443992,254216326,0,6489,6342,15.45,4.62,39,59,0,0
444439,254330387,0,6365,6600,15.49,4.96,39,59,0,0
444848,254430955,0,6597,6528,15.57,4.57,39,59,0,0
445329,254545322,0,6517,6385,15.53,4.34,39,60,0,0
445740,254647301,0,6387,6442,15.53,4.58,39,60,0,0
446188,254759879,0,6442,6442,15.58,4.43,39,60,0,0
446633,254866280,0,6435,6314,15.54,4.5,39,60,0,0
447082,254978625,0,6324,6428,15.52,4.42,39,60,0,0
447494,255080431,0,6428,6428,15.55,4.35,39,60,0,0
447937,255189164,0,6426,6357,15.55,4.38,39,60,0,0
448384,255304257,0,6349,6257,15.57,4.14,39,60,0,0
448840,255414923,0,6246,6142,15.61,3.89,39,61,0,0
449241,255516868,0,6144,6214,15.53,3.93,39,61,0,0
449687,255621832,0,6209,6114,15.6,4.01,39,61,0,0
450141,255739191,0,6101,5971,15.57,3.71,39,61,0,0
450590,255847904,0,5971,5971,15.52,3.86,39,61,0,0
451037,255957326,0,5964,5900,15.54,3.87,39,61,0,0
451486,256064935,0,5916,6100,15.58,3.84,39,61,0,0
451935,256176350,0,6103,6142,15.58,3.97,39,61,0,0
452379,256282879,0,6151,6242,15.55,4.09,39,61,0,0
452783,256386602,0,6240,6214,15.59,4.12,39,62,0,0
453635,256597177,0,6215,6371,15.58,4.16,39,62,0,0
454529,256818119,0,6371,6457,15.54,4.45,39,62,0,0
454975,256926642,0,6462,6528,15.52,4.48,39,62,0,0
455427,257036189,0,6518,6414,15.51,4.64,39,62,0,0
455826,257136196,0,6414,6428,15.55,4.45,39,63,0,0
456312,257251144,0,6420,6300,15.55,4.06,39,63,0,0
456754,257359891,0,6299,6285,15.52,4.4,39,63,0,0
457210,257472094,0,6286,6300,15.52,4.59,39,63,0,0
457656,257582752,0,6311,6471,15.57,4.55,39,63,0,0
458103,257690870,0,6455,6242,15.57,4.16,39,63,0,0
458546,257799290,0,6250,6457,15.45,4.44,39,63,0,0
459001,257914805,0,6458,6471,15.54,4.72,39,64,0,0
459441,258018343,0,6472,6514,15.52,4.79,39,64,0,0
459925,258138099,0,6514,6514,15.55,4.44,39,64,0,0
460372,258248305,0,6510,6471,15.45,4.8,39,64,0,0
460775,258352350,0,6475,6571,15.47,5,39,64,0,0
461226,258460952,0,6579,6700,15.48,4.65,39,64,0,0
461709,258574949,0,6683,6500,15.52,4.53,39,64,0,0
462159,258683838,0,6497,6471,15.52,4.54,39,65,0,0
462554,258785296,0,6469,6371,15.54,4.36,39,65,0,0
463006,258901066,0,6374,6414,15.51,4.37,40,65,0,0
463458,259010196,0,6409,6300,15.52,4.26,39,65,0,0
463899,259118190,0,6313,6500,15.48,4.46,39,65,0,0
464343,259229106,0,6493,6442,15.5,4.42,39,65,0,0
464790,259344057,0,6442,6442,15.5,4.29,39,65,0,0
465203,259445162,0,6431,6314,15.5,4.36,39,65,0,0
465646,259553249,0,6326,6442,15.45,4.48,40,66,0,0
466095,259661389,0,6440,6414,15.48,4.64,40,66,0,0
466536,259767905,0,6422,6600,15.49,4.8,40,66,0,0
466991,259882210,0,6576,6371,15.48,4.69,40,66,0,0
467432,259995074,0,6375,6414,15.55,4.8,40,66,0,0
467880,260105096,0,6423,6500,15.53,4.5,39,66,0,0
468324,260211108,0,6490,6400,15.52,4.45,40,66,0,0
468764,260322512,0,6395,6300,15.6,3.75,40,67,0,0
469175,260420068,0,6301,6371,15.57,4.25,39,67,0,0
469663,260543880,0,6358,6228,15.58,4.15,39,67,0,0
470115,260654538,0,6252,6442,15.58,4.53,40,67,0,0
470520,260757863,0,6447,6485,15.62,3.73,40,67,0,0
470966,260862726,0,6485,6485,15.66,4.41,40,67,0,0
471408,260974157,0,6483,6471,15.62,4.65,40,67,0,0
471858,261083690,0,6472,6485,15.55,3.86,40,67,0,0
472260,261181692,0,6484,6457,15.54,4.58,40,68,0,0
472781,261307268,0,6464,6542,15.47,4.83,40,68,0,0
473191,261409801,0,6538,6500,15.47,4.73,40,68,0,0
473635,261515810,0,6508,6685,15.48,4.8,40,68,0,0
474527,261737618,0,6678,6485,15.52,4.92,40,68,0,0
474975,261845172,0,6487,6557,15.57,4.7,40,68,0,0
475418,261954881,0,6550,6400,15.54,4.15,40,69,0,0
475906,262068719,0,6403,6442,15.54,4.76,40,69,0,0
476306,262170067,0,6438,6357,15.66,4.52,40,69,0,0
476756,262278903,0,6356,6342,15.61,4.35,39,69,0,0
477244,262394597,0,6338,6300,15.6,3.99,40,69,0,0
477652,262499574,0,6303,6342,15.51,4.2,40,69,0,0
478097,262609726,0,6339,6271,15.53,3.96,40,69,0,0
478583,262725813,0,6274,6314,15.54,4.66,40,69,0,0
478987,262823679,0,6318,6400,15.45,4.3,40,70,0,0
479435,262936812,0,6404,6514,15.41,4.81,40,70,0,0
479920,263048886,0,6525,6642,15.29,5.6,40,70,0,0
480357,263155075,0,6647,6871,15.29,5.86,40,70,0,0
480813,263269091,0,6880,6971,15.08,6.46,40,70,0,0
481267,263382322,0,7001,7300,15.07,6.09,40,71,0,0
481672,263484182,0,7295,7171,15.22,6.29,40,71,0,0
482111,263593305,0,7168,7142,15.26,5.86,40,71,0,0
482555,263698668,0,7136,7042,15.25,5.74,40,71,0,0
483006,263811168,0,7036,6985,15.27,5.54,40,71,0,0
483414,263915193,0,6981,6900,15.26,5.78,40,71,0,0
483895,264027333,0,6907,7042,15.26,5.53,40,72,0,0
484742,264236166,0,7038,6814,15.32,4.92,40,72,0,0
485196,264349858,0,6812,6728,15.32,4.93,40,72,0,0
485642,264457668,0,6726,6657,15.38,5.13,40,72,0,0
486084,264566593,0,6658,6714,15.43,4.51,40,72,0,0
486579,264684629,0,6684,6385,15.44,4.11,40,72,0,0
486985,264790800,0,6375,6257,15.43,3.94,40,73,0,0
487873,265007850,0,6252,6042,15.42,3.75,40,73,0,0
488318,265118305,0,6044,6142,15.47,3.85,40,73,0,0
488769,265229137,0,6139,5985,15.52,3.64,40,73,0,0
489212,265336138,0,5986,6100,15.56,3.81,40,73,0,0
489666,265444642,0,6099,6085,15.57,3.63,40,73,0,0
490110,265556069,0,6067,5900,15.54,3.16,40,73,0,0
490518,265657899,0,5898,5828,15.57,3.18,40,73,0,0
490961,265766792,0,5828,5857,15.5,3.58,40,74,0,0
491452,265883644,0,5848,5757,15.53,3.45,40,74,0,0
491888,265987324,0,5755,5728,15.55,3.48,40,74,0,0
492339,266096271,0,5728,5728,15.58,3.53,40,74,0,0
492788,266206182,0,5728,5757,15.52,3.27,40,74,0,0
493229,266314971,0,5757,5757,15.6,3.41,40,74,0,0
493682,266424853,0,5758,5785,15.53,3.6,40,74,0,0
494087,266526932,0,5782,5628,15.57,3.44,40,74,0,0
494532,266634590,0,5632,5871,15.44,3.83,40,74,0,0
494980,266746665,0,5890,6071,15.47,3.79,40,74,0,0
495427,266854346,0,6076,6128,15.53,3.85,40,75,0,0
495874,266966869,0,6125,6100,15.47,3.83,40,75,0,0
496321,267072043,0,6096,6042,15.48,3.9,40,75,0,0
496767,267186044,0,6046,6100,15.49,4.13,40,75,0,0
497215,267296815,0,6102,6228,15.44,4.22,40,75,0,0
497666,267404317,0,6222,6157,15.48,4.1,40,75,0,0
498078,267515199,0,6166,6257,15.47,4.34,40,75,0,0
498525,267624148,0,6257,6257,15.47,4.21,40,75,0,0
498967,267735803,0,6266,6357,15.49,4.51,40,76,0,0
499417,267845128,0,6343,6228,15.5,4.3,40,76,0,0
499821,267942681,0,6228,6242,15.51,4.32,40,76,0,0
500276,268064082,0,6220,6100,15.45,4.11,40,76,0,0
500679,268161083,0,6100,6185,15.5,3.76,40,76,0,0
501128,268270614,0,6184,6157,15.55,3.85,40,76,0,0
501575,268380609,0,6152,6057,15.51,3.92,40,76,0,0
502024,268490653,0,6059,6100,15.45,4.06,40,76,0,0
502465,268601798,0,6110,6228,15.42,4.33,40,77,0,0
502915,268717069,0,6214,6114,15.48,4.02,40,77,0,0
503360,268827831,0,6107,6057,15.54,4.05,40,77,0,0
503766,268935365,0,6081,6228,15.49,4.13,40,77,0,0
504173,269028054,0,6229,6300,15.45,4.32,40,77,0,0
504655,269146588,0,6291,6185,15.48,4.15,40,77,0,0
505105,269256348,0,6189,6228,15.47,4.32,40,77,0,0
505511,269355787,0,6228,6285,15.5,4.39,40,77,0,0
506002,269477465,0,6286,6300,15.51,4.2,40,78,0,0
506403,269581176,0,6297,6271,15.5,4.24,40,78,0,0
506849,269686886,0,6270,6257,15.48,4.27,40,78,0,0
507293,269795044,0,6256,6242,15.5,3.99,40,78,0,0
508221,270021688,0,6243,6285,15.54,4.02,40,78,0,0
508669,270135656,0,6274,6200,15.44,3.82,40,78,0,0
509117,270241806,0,6203,6242,15.54,3.94,40,78,0,0
509518,270345184,0,6223,5971,15.45,3.71,40,79,0,0
510373,270555646,0,5972,6085,15.44,4.07,40,79,0,0
511313,270779287,0,6087,6157,15.51,4.01,40,79,0,0
511756,270886635,0,6146,6042,15.48,3.71,40,79,0,0
512201,270996089,0,6046,6100,15.47,4.02,40,79,0,0
512651,271110651,0,6106,6171,15.42,4.27,40,79,0,0
513052,271207102,0,6188,6414,15.47,4.38,40,80,0,0
513503,271321995,0,6394,6185,15.48,4.14,40,80,0,0
513944,271423664,0,6186,6228,15.43,4.61,40,80,0,0
514388,271535801,0,6242,6428,15.44,4.45,40,80,0,0
514842,271649866,0,6428,6428,15.38,4.61,40,80,0,0
515245,271753243,0,6428,6442,15.44,4.56,40,80,0,0
515694,271861644,0,6427,6228,15.43,4.26,40,80,0,0
516132,271968102,0,6228,6228,15.44,3.95,40,81,0,0
516582,272076601,0,6223,6157,15.38,4,40,81,0,0
517029,272191829,0,6152,6114,15.39,4.15,40,81,0,0
517472,272301799,0,6117,6200,15.35,4.22,40,81,0,0
517885,272404656,0,6207,6271,15.41,4.38,40,81,0,0
518330,272515178,0,6253,6100,15.42,4.09,40,81,0,0
518775,272622062,0,6108,6228,15.44,4.07,40,81,0,0
519178,272723242,0,6230,6314,15.45,4.04,40,81,0,0
519673,272842896,0,6304,6214,15.43,4.15,40,81,0,0
520077,272944782,0,6206,6042,15.49,3.92,40,82,0,0
520966,273161775,0,6042,6114,15.45,3.75,40,82,0,0
521420,273276566,0,6106,5928,15.47,3.78,40,82,0,0
521897,273386674,0,5928,5928,15.5,3.74,40,82,0,0
522349,273502876,0,5928,5928,15.5,3.66,40,82,0,0
522749,273599309,0,5926,5885,15.55,3.37,40,82,0,0
523199,273715318,0,5878,5814,15.45,3.76,40,82,0,0
523606,273813715,0,5818,5900,15.5,3.67,40,83,0,0
524047,273920658,0,5901,5971,15.45,3.75,40,83,0,0
524504,274034054,0,5974,6057,15.48,3.79,40,83,0,0
524988,274147163,0,6044,5871,15.52,3.69,40,83,0,0
525436,274257263,0,5891,6085,15.45,3.75,40,83,0,0
525834,274357626,0,6083,6014,15.43,3.68,40,83,0,0
526290,274468931,0,6014,6057,15.49,3.94,40,83,0,0
526735,274579189,0,6059,6128,15.45,4.09,40,83,0,0
527220,274695243,0,6124,6100,15.51,4.14,40,83,0,0
527580,274786659,0,6100,6100,15.48,4.01,40,84,0,0
528040,274897907,0,6094,5985,15.45,3.71,40,84,0,0
528485,275007811,0,5995,6228,15.38,4.12,40,84,0,0
528935,275119851,0,6221,6057,15.47,4.13,40,84,0,0
529418,275231582,0,6054,6028,15.51,3.87,40,84,0,0
529822,275332196,0,6028,6071,15.44,3.71,40,84,0,0
530268,275438150,0,6066,5914,15.42,3.68,40,84,0,0
530719,275551916,0,5914,5928,15.45,4.04,40,84,0,0
531212,275669786,0,5951,6200,15.44,4.34,40,85,0,0
531618,275773361,0,6199,6185,15.43,4.19,40,85,0,0
532069,275882577,0,6184,6171,15.42,4.08,40,85,0,0
532512,275994338,0,6167,6114,15.44,3.92,40,85,0,0
532950,276099938,0,6112,6057,15.45,3.81,40,85,0,0
533444,276218835,0,6049,5971,15.47,3.86,40,85,0,0
533848,276320643,0,5972,6014,15.39,3.93,40,85,0,0
534338,276439702,0,5997,5842,15.47,3.58,40,85,0,0
534741,276537622,0,5845,6071,15.47,3.84,40,85,0,0
535231,276657079,0,6071,6071,15.41,4.05,40,86,0,0
535638,276763863,0,6062,5957,15.41,3.89,40,86,0,0
536125,276873840,0,5962,6028,15.43,3.68,40,86,0,0
536569,276983774,0,6026,6000,15.48,3.78,40,86,0,0
537461,277206206,0,6001,6028,15.48,3.93,40,86,0,0
537903,277316285,0,6030,6057,15.41,3.8,40,86,0,0
538826,277535631,0,6059,6128,15.39,3.96,40,87,0,0
539274,277645290,0,6134,6214,15.39,4.11,40,87,0,0
539720,277757106,0,6208,6157,15.33,4.33,40,87,0,0
540130,277859069,0,6169,6328,15.35,4.67,40,87,0,0
540577,277969901,0,6329,6342,15.38,5.35,40,87,0,0
541019,278071882,0,6339,6285,15.35,4,40,87,0,0
541507,278192595,0,6290,6357,15.38,4.66,40,87,0,0
541955,278302714,0,6344,6228,15.43,4.34,40,88,0,0
542360,278403362,0,6232,6285,15.35,4.61,40,88,0,0
544105,278835833,0,6283,6171,15.5,3.97,40,88,0,0
544586,278951750,0,6168,6142,15.46,3.99,40,88,0,0
544990,279048721,0,6143,6228,15.42,3.99,40,88,0,0
545441,279162837,0,6227,6214,15.37,3.99,40,89,0,0
545891,279271052,0,6197,5971,15.42,3.92,40,89,0,0
546295,279371857,0,5972,6085,15.41,3.89,40,89,0,0
546781,279487126,0,6081,6042,15.51,3.84,40,89,0,0
547228,279599055,0,6038,5985,15.47,3.64,40,89,0,0
547670,279707847,0,5984,5971,15.45,3.39,40,89,0,0
548076,279809763,0,5967,5828,15.44,3.48,40,89,0,0
548563,279930792,0,5827,5814,15.54,3.45,40,89,0,0
548971,280032154,0,5814,5857,15.45,3.66,40,89,0,0
549416,280142713,0,5860,5914,15.44,3.86,40,89,0,0
549863,280250337,0,5924,6057,15.42,4,40,90,0,0
550354,280367266,0,6062,6128,15.43,4.21,40,90,0,0
550802,280472862,0,6130,6171,15.46,4.04,40,90,0,0
551249,280585893,0,6165,6114,15.47,4.01,40,90,0,0
551653,280684131,0,6115,6185,15.46,4.29,40,90,0,0
552106,280797823,0,6178,6042,15.48,4.01,40,90,0,0
552554,280910226,0,6059,6242,15.45,4.35,40,90,0,0
552996,281013945,0,6239,6185,15.45,4.21,40,90,0,0
553444,281125040,0,6191,6257,15.42,4.23,40,91,0,0
553894,281233916,0,6258,6285,15.42,4.19,40,91,0,0
554335,281340276,0,6285,6285,15.44,4.23,40,91,0,0
554784,281449912,0,6279,6228,15.45,4.17,40,91,0,0
555186,281553332,0,6226,6157,15.42,4.1,40,91,0,0
555674,281669127,0,6167,6271,15.4,4.14,40,91,0,0
556112,281774609,0,6261,6128,15.39,4.33,40,91,0,0
556600,281889145,0,6143,6314,15.46,4.24,40,92,0,0
557010,281991857,0,6295,6100,15.42,4.2,40,92,0,0
557901,282208055,0,6114,6442,15.45,4.57,40,92,0,0
558310,282314344,0,6437,6385,15.48,4.59,40,92,0,0
558756,282420798,0,6387,6442,15.44,4.46,40,92,0,0
559199,282531832,0,6436,6385,15.42,4.52,40,92,0,0
559639,282633906,0,6390,6500,15.39,4.47,40,92,0,0
560085,282742320,0,6498,6385,15.41,4.53,40,93,0,0
560535,282852158,0,6388,6442,15.44,4.63,40,93,0,0
560976,282959934,0,6442,6442,15.4,4.59,40,93,0,0
561429,283077665,0,6445,6471,15.43,4.46,40,93,0,0
561832,283176564,0,6469,6428,15.4,4.67,40,93,0,0
562240,283281739,0,6426,6385,15.45,4.48,40,93,0,0
562729,283398350,0,6373,6257,15.5,4.09,40,93,0,0
563130,283498702,0,6255,6157,15.42,4.18,40,94,0,0
563619,283619124,0,6168,6271,15.46,4.36,40,94,0,0
564032,283723310,0,6262,6171,15.47,4.18,40,94,0,0
564481,283836946,0,6190,6371,15.41,4.38,40,94,0,0
564881,283937155,0,6371,6371,15.44,4.23,40,94,0,0
565329,284045813,0,6365,6300,15.45,4.2,40,94,0,0
565777,284160197,0,6292,6228,15.41,4.55,40,94,0,0
566227,284269112,0,6242,6371,15.44,4.38,40,94,0,0
566666,284379971,0,6376,6414,15.38,4.39,40,95,0,0
567071,284473686,0,6411,6257,15.39,4.28,40,95,0,0
568003,284705288,0,6268,6471,15.4,4.65,40,95,0,0
568411,284806568,0,6473,6500,15.39,4.87,40,95,0,0
568858,284918915,0,6500,6514,15.45,4.88,40,95,0,0
570197,285248323,0,6519,6685,15.41,4.76,40,96,0,0
570605,285353663,0,6683,6671,15.4,5.04,40,96,0,0
571054,285463745,0,6660,6571,15.41,5.01,40,96,0,0
571496,285572956,0,6572,6585,15.4,4.98,40,96,0,0
571945,285681854,0,6583,6571,15.44,4.96,40,96,0,0
572834,285893344,0,6571,6600,15.39,4.86,40,97,0,0
573281,286005939,0,6600,6600,15.41,4.63,40,97,0,0
574167,286217704,0,6591,6342,15.41,4.54,40,97,0,0
574602,286323624,0,6349,6471,15.33,4.71,40,97,0,0
575051,286432838,0,6468,6428,15.39,4.66,40,97,0,0
575943,286653637,0,6432,6571,15.41,4.76,40,98,0,0
576346,286755822,0,6569,6500,15.39,4.34,40,98,0,0
576839,286871216,0,6507,6585,15.37,4.74,40,98,0,0
577278,286976669,0,6588,6671,15.41,4.91,40,98,0,0
577727,287087947,0,6659,6557,15.37,4.75,40,98,0,0
578133,287187663,0,6558,6628,15.41,4.62,40,98,0,0
579019,287403660,0,6625,6357,15.47,4.72,40,98,0,0
579461,287512752,0,6357,6371,15.5,4.6,40,99,0,0
579911,287622924,0,6376,6442,15.39,4.52,40,99,0,0
580320,287729322,0,6443,6471,15.44,4.37,40,99,0,0
580800,287838188,0,6468,6357,15.42,4.21,40,99,0,0
581253,287953214,0,6342,6200,15.49,3.95,40,99,0,0
581736,288063334,0,6203,6242,15.5,4.17,40,99,0,0
582185,288175958,0,6245,6285,15.4,4.41,40,99,0,0
582626,288277128,0,6282,6228,15.38,4.41,40,100,0,0
582865,288394601,0,6231,6271,15.47,4.17,40,100,0,0
583316,288506498,0,6275,6314,15.43,4.25,40,100,0,0
583720,288607669,0,6308,6228,15.46,4.2,40,100,0,0
584610,288823184,0,6226,6171,15.5,3.88,40,100,0,0
585057,288935072,0,6165,6014,15.42,3.89,40,100,0,0
585505,289040927,0,6018,6128,15.41,4.24,40,100,0,0
585953,289153224,0,6134,6200,15.47,4.12,40,101,0,0
586400,289259210,0,6206,6285,15.42,4.28,40,101,0,0
586841,289365884,0,6282,6228,15.46,4.37,40,101,0,0
587330,289481904,0,6220,6142,15.4,4.42,40,101,0,0
587774,289590347,0,6165,6400,15.39,4.58,40,101,0,0
588178,289689680,0,6401,6471,15.36,4.65,40,101,0,0
588670,289810886,0,6463,6385,15.41,4.57,40,101,0,0
589074,289910056,0,6373,6228,15.42,4.04,40,101,0,0
589969,290134282,0,6229,6271,15.38,4.82,40,102,0,0
590421,290243931,0,6291,6571,15.41,5.39,40,102,0,0
590823,290344880,0,6571,6571,15.36,5.08,40,102,0,0
591272,290454622,0,6564,6471,15.32,4.93,40,102,0,0
591678,290559830,0,6455,6242,15.41,4.51,40,102,0,0
592126,290669057,0,6261,6514,15.32,4.53,40,102,0,0
592573,290778703,0,6503,6371,15.35,4.31,40,103,0,0
592982,290878859,0,6368,6242,15.3,4.19,40,103,0,0
593467,290996871,0,6247,6300,15.4,4.59,40,103,0,0
593905,291107607,0,6309,6414,15.38,4.4,40,103,0,0
594322,291210055,0,6400,6242,15.44,4.32,40,103,0,0
594804,291328300,0,6243,6257,15.37,4.29,40,103,0,0
595651,291538171,0,6259,6314,15.39,4.31,40,103,0,0
596104,291648331,0,6314,6314,15.38,4.38,40,104,0,0
596545,291760660,0,6314,6314,15.38,4.4,40,104,0,0
596995,291871693,0,6304,6242,15.42,3.98,40,104,0,0
597398,291973149,0,6223,6014,15.43,3.76,40,104,0,0
597890,292089919,0,6027,6142,15.39,4.32,41,104,0,0
598331,292201320,0,6152,6314,15.33,4.48,40,104,0,0
