LineNo,TimeUS,Instance,RPM,RawRPM,Volt,Curr,Temp,CTot,MotTemp,Err
1669,1.9976e+07,3,0,0,16.7,0.04,28,0,0,0
2045,2.0071e+07,3,0,0,16.7,0.04,28,0,0,0
2504,2.0185e+07,3,0,0,16.7,0.04,28,0,0,0
2881,2.0281e+07,3,0,0,16.7,0.04,28,0,0,0
3325,2.0388e+07,3,0,0,16.7,0.05,28,0,0,0
3779,2.0501e+07,3,0,0,16.7,0.04,28,0,0,0
4189,2.0604e+07,3,0,0,16.7,0.04,28,0,0,0
4604,2.0708e+07,3,0,0,16.7,0.05,28,0,0,0
5021,2.0815e+07,3,0,0,16.7,0.05,28,0,0,0
5477,2.0927e+07,3,0,0,16.7,0.05,28,0,0,0
5891,2.103e+07,3,0,0,16.7,0.05,28,0,0,0
6302,2.1134e+07,3,0,0,16.7,0.05,28,0,0,0
6750,2.1245e+07,3,0,0,16.7,0.05,28,0,0,0
7159,2.1345e+07,3,0,0,16.7,0.05,28,0,0,0
7612,2.1459e+07,3,0,0,16.7,0.05,28,0,0,0
8027,2.1566e+07,3,0,0,16.7,0.05,28,0,0,0
8468,2.1673e+07,3,0,0,16.7,0.05,28,0,0,0
8874,2.1778e+07,3,0,0,16.7,0.05,28,0,0,0
9626,2.1989e+07,3,0,0,16.7,0.05,28,0,0,0
10042,2.2092e+07,3,0,0,16.71,0.05,28,0,0,0
10453,2.2196e+07,3,0,0,16.7,0.05,28,0,0,0
10907,2.2306e+07,3,0,0,16.7,0.05,28,0,0,0
11320,2.2411e+07,3,0,0,16.7,0.05,28,0,0,0
11733,2.2513e+07,3,0,0,16.7,0.04,28,0,0,0
12143,2.2617e+07,3,0,0,16.7,0.04,28,0,0,0
12629,2.2733e+07,3,0,0,16.7,0.05,28,0,0,0
13046,2.2839e+07,3,0,0,16.7,0.05,28,0,0,0
13462,2.2944e+07,3,0,0,16.7,0.05,28,0,0,0
13877,2.3048e+07,3,0,0,16.71,0.05,28,0,0,0
14333,2.3159e+07,3,0,0,16.7,0.05,28,0,0,0
14749,2.3264e+07,3,0,0,16.71,0.04,28,0,0,0
15164,2.3365e+07,3,0,0,16.7,0.04,28,0,0,0
15619,2.3479e+07,3,0,0,16.7,0.04,28,0,0,0
16032,2.3582e+07,3,0,0,16.7,0.04,28,0,0,0
16494,2.3701e+07,3,0,0,16.7,0.05,28,0,0,0
16868,2.3793e+07,3,0,0,16.71,0.05,28,0,0,0
17356,2.3911e+07,3,0,0,16.7,0.05,28,0,0,0
17774,2.4017e+07,3,0,0,16.71,0.05,28,0,0,0
18193,2.412e+07,3,0,0,16.7,0.04,28,0,0,0
18598,2.422e+07,3,0,0,16.7,0.04,28,0,0,0
19010,2.4326e+07,3,0,0,16.71,0.04,28,0,0,0
19466,2.444e+07,3,0,0,16.7,0.04,28,0,0,0
19876,2.454e+07,3,0,0,16.7,0.04,28,0,0,0
20323,2.4653e+07,3,0,0,16.7,0.04,28,0,0,0
20741,2.4759e+07,3,0,0,16.7,0.04,28,0,0,0
21153,2.4861e+07,3,0,0,16.7,0.04,28,0,0,0
21609,2.4976e+07,3,0,0,16.7,0.04,28,0,0,0
22022,2.5078e+07,3,0,0,16.7,0.04,28,0,0,0
22436,2.5185e+07,3,0,0,16.7,0.04,28,0,0,0
22852,2.5286e+07,3,0,0,16.7,0.04,28,0,0,0
23306,2.54e+07,3,0,0,16.7,0.04,28,0,0,0
23720,2.5503e+07,3,0,0,16.7,0.04,28,0,0,0
24138,2.5609e+07,3,0,0,16.7,0.04,28,0,0,0
24552,2.5714e+07,3,0,0,16.7,0.05,28,0,0,0
25005,2.5833e+07,3,0,0,16.71,0.05,28,0,0,0
25422,2.5935e+07,3,0,0,16.71,0.05,28,0,0,0
25833,2.6039e+07,3,0,0,16.71,0.04,28,0,0,0
26243,2.6139e+07,3,0,0,16.7,0.04,28,0,0,0
26696,2.6252e+07,3,0,0,16.7,0.04,28,0,0,0
27109,2.6354e+07,3,0,0,16.71,0.04,28,0,0,0
27525,2.6457e+07,3,0,0,16.7,0.05,28,0,0,0
27969,2.6564e+07,3,0,0,16.7,0.05,28,0,0,0
28424,2.6678e+07,3,0,0,16.71,0.05,28,0,0,0
28839,2.6782e+07,3,0,0,16.7,0.05,28,0,0,0
29254,2.6885e+07,3,0,0,16.7,0.05,28,0,0,0
29664,2.6989e+07,3,0,0,16.71,0.05,28,0,0,0
30116,2.71e+07,3,0,0,16.71,0.05,28,0,0,0
30522,2.7202e+07,3,0,0,16.7,0.05,28,0,0,0
30984,2.7316e+07,3,0,0,16.71,0.05,28,0,0,0
31397,2.7421e+07,3,0,0,16.7,0.05,28,0,0,0
31816,2.7525e+07,3,0,0,16.7,0.05,28,0,0,0
32262,2.7637e+07,3,0,0,16.7,0.05,28,0,0,0
32676,2.7738e+07,3,0,0,16.71,0.05,28,0,0,0
33089,2.7841e+07,3,0,0,16.71,0.05,28,0,0,0
33542,2.7956e+07,3,0,0,16.71,0.04,28,0,0,0
33952,2.8063e+07,3,0,0,16.7,0.04,28,0,0,0
34805,2.8271e+07,3,0,0,16.7,0.04,28,0,0,0
35219,2.8377e+07,3,0,0,16.7,0.04,28,0,0,0
35627,2.8479e+07,3,0,0,16.7,0.04,28,0,0,0
36082,2.8592e+07,3,0,0,16.7,0.04,28,0,0,0
36500,2.8701e+07,3,0,0,16.7,0.04,28,0,0,0
36911,2.8804e+07,3,0,0,16.7,0.04,28,0,0,0
37327,2.8909e+07,3,0,0,16.7,0.04,28,0,0,0
37774,2.902e+07,3,0,0,16.7,0.04,28,0,0,0
38185,2.912e+07,3,0,0,16.7,0.04,28,0,0,0
38635,2.9231e+07,3,0,0,16.7,0.05,28,0,0,0
39057,2.9339e+07,3,0,0,16.7,0.05,28,0,0,0
39465,2.9439e+07,3,0,0,16.7,0.04,28,0,0,0
39916,2.9552e+07,3,0,0,16.7,0.04,28,0,0,0
40325,2.9652e+07,3,0,0,16.7,0.04,28,0,0,0
40771,2.9759e+07,3,0,0,16.7,0.04,28,0,0,0
41223,2.987e+07,3,0,0,16.7,0.04,28,0,0,0
41640,2.9974e+07,3,0,0,16.7,0.04,28,0,0,0
42096,3.0089e+07,3,0,0,16.7,0.04,28,0,0,0
42515,3.0196e+07,3,0,0,16.7,0.04,28,0,0,0
42937,3.03e+07,3,0,0,16.7,0.04,28,0,0,0
43347,3.0402e+07,3,0,0,16.7,0.04,28,0,0,0
43804,3.0514e+07,3,0,0,16.7,0.05,28,0,0,0
44217,3.0616e+07,3,0,0,16.7,0.05,28,0,0,0
44632,3.072e+07,3,0,0,16.7,0.05,28,0,0,0
45091,3.0831e+07,3,0,0,16.7,0.04,28,0,0,0
45506,3.0935e+07,3,0,0,16.7,0.04,28,0,0,0
45920,3.104e+07,3,0,0,16.7,0.05,28,0,0,0
46378,3.1154e+07,3,0,0,16.7,0.05,28,0,0,0
46754,3.1249e+07,3,0,0,16.7,0.05,28,0,0,0
47206,3.136e+07,3,0,0,16.7,0.05,28,0,0,0
47657,3.1472e+07,3,0,0,16.7,0.05,28,0,0,0
48030,3.1566e+07,3,0,0,16.71,0.05,28,0,0,0
48897,3.1781e+07,3,0,0,16.7,0.04,28,0,0,0
49350,3.1892e+07,3,0,0,16.7,0.04,28,0,0,0
49795,3.2001e+07,3,0,0,16.7,0.04,28,0,0,0
50207,3.2104e+07,3,0,0,16.71,0.05,28,0,0,0
50617,3.2204e+07,3,0,0,16.7,0.05,28,0,0,0
51076,3.2324e+07,3,0,0,16.7,0.04,28,0,0,0
51476,3.2418e+07,3,0,0,16.7,0.05,28,0,0,0
51925,3.2532e+07,3,0,0,16.71,0.05,28,0,0,0
52340,3.2641e+07,3,0,0,16.7,0.05,28,0,0,0
52754,3.2745e+07,3,0,0,16.7,0.05,28,0,0,0
53162,3.2847e+07,3,0,0,16.7,0.05,28,0,0,0
53576,3.2952e+07,3,0,0,16.7,0.05,28,0,0,0
53986,3.3055e+07,3,0,0,16.7,0.05,27,0,0,0
54442,3.3171e+07,3,0,0,16.7,0.05,28,0,0,0
54891,3.3281e+07,3,0,0,16.7,0.05,28,0,0,0
55304,3.3386e+07,3,0,0,16.7,0.05,28,0,0,0
55717,3.3488e+07,3,0,0,16.71,0.05,28,0,0,0
56127,3.3592e+07,3,0,0,16.7,0.05,28,0,0,0
56294,5.082e+07,3,0,0,16.7,0.05,27,0,0,0
56340,5.0833e+07,3,0,0,16.71,0.05,27,0,0,0
56752,5.0936e+07,3,0,0,16.7,0.05,28,0,0,0
57209,5.1048e+07,3,0,0,16.7,0.05,27,0,0,0
57623,5.1155e+07,3,0,0,16.7,0.05,27,0,0,0
58036,5.1257e+07,3,0,0,16.7,0.05,27,0,0,0
58446,5.1362e+07,3,0,0,16.7,0.05,27,0,0,0
58899,5.1474e+07,3,0,0,16.7,0.05,27,0,0,0
59310,5.1575e+07,3,0,0,16.7,0.05,27,0,0,0
59727,5.1683e+07,3,0,0,16.71,0.05,27,0,0,0
60180,5.1794e+07,3,0,0,16.7,0.05,27,0,0,0
60586,5.1895e+07,3,0,0,16.7,0.05,27,0,0,0
61044,5.2009e+07,3,0,0,16.7,0.05,27,0,0,0
61869,5.2216e+07,3,0,0,16.71,0.05,27,0,0,0
62323,5.2331e+07,3,0,0,16.7,0.05,27,0,0,0
62740,5.2433e+07,3,0,0,16.71,0.04,27,0,0,0
63145,5.2537e+07,3,0,0,16.71,0.04,27,0,0,0
63603,5.2649e+07,3,0,0,16.71,0.05,27,0,0,0
64020,5.2756e+07,3,0,0,16.71,0.05,27,0,0,0
64437,5.2861e+07,3,0,0,16.7,0.05,27,0,0,0
64819,5.2962e+07,3,0,0,16.7,0.05,27,0,0,0
65310,5.308e+07,3,0,0,16.71,0.05,27,0,0,0
65683,5.3178e+07,3,0,0,16.7,0.05,27,0,0,0
66165,5.3294e+07,3,0,0,16.7,0.05,27,0,0,0
66577,5.3394e+07,3,0,0,16.7,0.04,27,0,0,0
66902,5.3498e+07,3,0,0,16.7,0.05,27,0,0,0
67358,5.361e+07,3,0,0,16.7,0.05,27,0,0,0
68221,5.3824e+07,3,0,0,16.7,0.05,27,0,0,0
68635,5.3929e+07,3,0,0,16.71,0.05,27,0,0,0
69051,5.4031e+07,3,0,0,16.7,0.05,27,0,0,0
69465,5.4139e+07,3,0,0,16.7,0.05,27,0,0,0
69921,5.4253e+07,3,0,0,16.7,0.05,27,0,0,0
70335,5.4359e+07,3,0,0,16.7,0.05,27,0,0,0
70748,5.446e+07,3,0,0,16.71,0.05,27,0,0,0
71130,5.456e+07,3,0,0,16.7,0.05,27,0,0,0
71584,5.4675e+07,3,0,0,16.7,0.05,27,0,0,0
71997,5.4777e+07,3,0,0,16.7,0.05,27,0,0,0
72874,5.4999e+07,3,0,0,16.71,0.05,27,0,0,0
73295,5.5106e+07,3,0,0,16.69,0.04,27,0,0,0
73709,5.521e+07,3,0,0,16.71,0.04,27,0,0,0
74123,5.5314e+07,3,0,0,16.7,0.04,27,0,0,0
74577,5.5425e+07,3,0,0,16.71,0.04,27,0,0,0
74992,5.5529e+07,3,0,0,16.71,0.05,27,0,0,0
75403,5.5632e+07,3,0,0,16.71,0.05,27,0,0,0
75818,5.574e+07,3,0,0,16.71,0.05,27,0,0,0
76272,5.5852e+07,3,0,0,16.71,0.05,27,0,0,0
76687,5.5955e+07,3,0,0,16.7,0.05,27,0,0,0
77105,5.6064e+07,3,0,0,16.7,0.05,27,0,0,0
77518,5.6169e+07,3,0,0,16.7,0.04,27,0,0,0
78351,5.6381e+07,3,0,0,16.7,0.05,27,0,0,0
78804,5.6497e+07,3,0,0,16.7,0.05,27,0,0,0
79220,5.6599e+07,3,0,0,16.7,0.05,27,0,0,0
79632,5.6704e+07,3,0,0,16.7,0.05,27,0,0,0
80088,5.6819e+07,3,0,0,16.7,0.05,27,0,0,0
80503,5.6925e+07,3,0,0,16.71,0.05,27,0,0,0
80920,5.7025e+07,3,0,0,16.7,0.04,27,0,0,0
81335,5.7131e+07,3,0,0,16.7,0.04,27,0,0,0
81791,5.7246e+07,3,0,0,16.7,0.05,27,0,0,0
82201,5.7349e+07,3,0,0,16.71,0.05,27,0,0,0
82655,5.7462e+07,3,0,0,16.7,0.05,27,0,0,0
83069,5.7567e+07,3,0,0,16.7,0.05,27,0,0,0
83482,5.7669e+07,3,0,0,16.7,0.05,27,0,0,0
83894,5.7773e+07,3,0,0,16.7,0.05,27,0,0,0
84347,5.7887e+07,3,0,0,16.7,0.04,27,0,0,0
84764,5.7989e+07,3,0,0,16.7,0.05,27,0,0,0
85182,5.81e+07,3,0,0,16.7,0.05,27,0,0,0
85599,5.8203e+07,3,0,0,16.71,0.05,27,0,0,0
86017,5.831e+07,3,0,0,16.7,0.04,27,0,0,0
86431,5.8412e+07,3,0,0,16.71,0.04,27,0,0,0
86880,5.8525e+07,3,0,0,16.71,0.04,27,0,0,0
87299,5.8631e+07,3,0,0,16.71,0.04,27,0,0,0
87717,5.8738e+07,3,0,0,16.7,0.04,27,0,0,0
88171,5.885e+07,3,0,0,16.7,0.04,27,0,0,0
88587,5.8957e+07,3,0,0,16.7,0.04,27,0,0,0
89003,5.9062e+07,3,0,0,16.7,0.04,27,0,0,0
89450,5.9175e+07,3,0,0,16.7,0.04,27,0,0,0
89868,5.9278e+07,3,0,0,16.71,0.05,27,0,0,0
90321,5.9391e+07,3,0,0,16.71,0.04,27,0,0,0
91187,5.9607e+07,3,0,0,16.71,0.04,27,0,0,0
91599,5.971e+07,3,0,0,16.71,0.04,27,0,0,0
92052,5.9824e+07,3,0,0,16.7,0.05,27,0,0,0
92427,5.9921e+07,3,0,0,16.7,0.05,27,0,0,0
92891,6.0033e+07,3,0,0,16.71,0.05,27,0,0,0
93305,6.0139e+07,3,0,0,16.71,0.04,27,0,0,0
93758,6.0252e+07,3,0,0,16.71,0.04,27,0,0,0
94175,6.036e+07,3,0,0,16.71,0.05,27,0,0,0
94589,6.0463e+07,3,0,0,16.7,0.05,27,0,0,0
95003,6.0565e+07,3,0,0,16.7,0.05,27,0,0,0
95456,6.0677e+07,3,0,0,16.71,0.05,27,0,0,0
95867,6.0782e+07,3,0,0,16.71,0.04,27,0,0,0
96321,6.0892e+07,3,0,0,16.7,0.04,27,0,0,0
96732,6.0993e+07,3,0,0,16.7,0.04,27,0,0,0
97193,6.1112e+07,3,0,0,16.7,0.05,27,0,0,0
97606,6.1214e+07,3,0,0,16.7,0.05,27,0,0,0
98019,6.1318e+07,3,0,0,16.71,0.05,27,0,0,0
98473,6.1428e+07,3,0,0,16.71,0.05,27,0,0,0
98841,6.1529e+07,3,0,0,16.71,0.05,27,0,0,0
99254,6.1632e+07,3,0,0,16.71,0.05,27,0,0,0
99673,6.174e+07,3,0,0,16.71,0.05,27,0,0,0
1.0013e+05,6.1856e+07,3,0,0,16.7,0.04,27,0,0,0
1.0054e+05,6.1956e+07,3,0,0,16.7,0.04,27,0,0,0
1.0096e+05,6.2061e+07,3,0,0,16.7,0.04,27,0,0,0
1.0141e+05,6.2177e+07,3,0,0,16.71,0.04,27,0,0,0
1.0182e+05,6.2278e+07,3,0,0,16.7,0.04,27,0,0,0
1.0224e+05,6.2386e+07,3,0,0,16.71,0.04,27,0,0,0
1.0265e+05,6.2493e+07,3,0,0,16.7,0.05,27,0,0,0
1.0307e+05,6.2595e+07,3,0,0,16.7,0.05,27,0,0,0
1.0355e+05,6.2713e+07,3,0,0,16.7,0.05,27,0,0,0
1.0396e+05,6.2814e+07,3,0,0,16.7,0.05,27,0,0,0
1.0438e+05,6.2918e+07,3,0,0,16.7,0.05,27,0,0,0
1.0483e+05,6.3029e+07,3,0,0,16.7,0.05,27,0,0,0
1.0524e+05,6.3132e+07,3,0,0,16.71,0.05,27,0,0,0
1.057e+05,6.3244e+07,3,0,0,16.7,0.05,27,0,0,0
1.0611e+05,6.3349e+07,3,0,0,16.7,0.04,27,0,0,0
1.0652e+05,6.3453e+07,3,0,0,16.71,0.04,27,0,0,0
1.0698e+05,6.3567e+07,3,0,0,16.7,0.04,27,0,0,0
1.0739e+05,6.367e+07,3,0,0,16.7,0.04,27,0,0,0
1.0785e+05,6.3784e+07,3,0,0,16.7,0.04,27,0,0,0
1.0826e+05,6.3885e+07,3,0,0,16.7,0.04,27,0,0,0
1.0868e+05,6.3988e+07,3,0,0,16.71,0.04,27,0,0,0
1.0913e+05,6.4107e+07,3,0,0,16.7,0.04,27,0,0,0
1.0951e+05,6.4202e+07,3,0,0,16.7,0.05,27,0,0,0
1.0996e+05,6.4315e+07,3,0,0,16.7,0.04,27,0,0,0
1.1037e+05,6.4417e+07,3,0,0,16.7,0.04,27,0,0,0
1.1083e+05,6.4529e+07,3,0,0,16.7,0.04,27,0,0,0
1.1124e+05,6.4634e+07,3,0,0,16.7,0.04,27,0,0,0
1.1166e+05,6.474e+07,3,0,0,16.71,0.05,27,0,0,0
1.1211e+05,6.4851e+07,3,0,0,16.7,0.05,27,0,0,0
1.1252e+05,6.4958e+07,3,0,0,16.7,0.05,27,0,0,0
1.1294e+05,6.5061e+07,3,0,0,16.7,0.05,27,0,0,0
1.1335e+05,6.5163e+07,3,0,0,16.7,0.05,27,0,0,0
1.1377e+05,6.5266e+07,3,0,0,16.7,0.05,27,0,0,0
1.1422e+05,6.538e+07,3,0,0,16.71,0.05,27,0,0,0
1.1505e+05,6.5592e+07,3,0,0,16.71,0.05,27,0,0,0
1.1547e+05,6.5699e+07,3,0,0,16.7,0.05,27,0,0,0
1.1592e+05,6.581e+07,3,0,0,16.71,0.05,27,0,0,0
1.1598e+05,1.0486e+08,3,0,0,16.7,0.05,27,1,0,0
1.1602e+05,1.0488e+08,3,0,0,16.7,0.05,27,1,0,0
1.1643e+05,1.0497e+08,3,0,0,16.7,0.05,27,1,0,0
1.1689e+05,1.0508e+08,3,0,0,16.7,0.05,28,1,0,0
1.1739e+05,1.052e+08,3,0,0,16.7,0.05,28,1,0,0
1.1785e+05,1.053e+08,3,0,0,16.7,0.05,28,1,0,0
1.183e+05,1.054e+08,3,0,0,16.7,0.05,27,1,0,0
1.1875e+05,1.0551e+08,3,0,0,16.7,0.05,28,1,0,0
1.1925e+05,1.0562e+08,3,0,0,16.7,0.05,27,1,0,0
1.1966e+05,1.0572e+08,3,0,0,16.7,0.05,27,1,0,0
1.202e+05,1.0584e+08,3,0,0,16.7,0.05,27,1,0,0
1.2065e+05,1.0594e+08,3,0,0,16.7,0.05,28,1,0,0
1.2111e+05,1.0604e+08,3,0,0,16.7,0.05,28,1,0,0
1.216e+05,1.0616e+08,3,0,0,16.7,0.05,28,1,0,0
1.2206e+05,1.0626e+08,3,0,0,16.7,0.05,27,1,0,0
1.2301e+05,1.0649e+08,3,0,0,16.7,0.05,27,1,0,0
1.2342e+05,1.0658e+08,3,0,0,16.7,0.05,27,1,0,0
1.2392e+05,1.067e+08,3,0,0,16.7,0.05,28,1,0,0
1.2438e+05,1.068e+08,3,0,0,16.7,0.04,28,1,0,0
1.2484e+05,1.0691e+08,3,0,0,16.7,0.04,28,1,0,0
1.2529e+05,1.0701e+08,3,8,257,16.69,0.06,28,1,0,0
1.2578e+05,1.0712e+08,3,287,714,16.67,0.12,27,1,0,0
1.2628e+05,1.0723e+08,3,747,1114,16.66,0.18,28,1,0,0
1.2673e+05,1.0734e+08,3,1118,1257,16.67,0.13,28,1,0,0
1.2723e+05,1.0745e+08,3,1262,1314,16.69,0.12,28,1,0,0
1.275e+05,1.0755e+08,3,1315,1328,16.67,0.12,28,1,0,0
1.28e+05,1.0767e+08,3,1329,1342,16.68,0.11,28,1,0,0
1.2841e+05,1.0776e+08,3,1342,1342,16.69,0.11,28,1,0,0
1.2891e+05,1.0787e+08,3,1343,1357,16.67,0.11,28,1,0,0
1.2936e+05,1.0798e+08,3,1356,1342,16.68,0.12,28,1,0,0
1.2986e+05,1.081e+08,3,1343,1357,16.69,0.11,28,1,0,0
1.3032e+05,1.082e+08,3,1357,1357,16.68,0.11,28,1,0,0
1.3078e+05,1.0831e+08,3,1355,1342,16.69,0.11,28,1,0,0
1.3168e+05,1.0852e+08,3,1342,1342,16.69,0.11,28,1,0,0
1.3211e+05,1.0862e+08,3,1342,1357,16.68,0.11,28,1,0,0
1.3253e+05,1.0874e+08,3,1355,1342,16.68,0.11,28,1,0,0
1.3299e+05,1.0884e+08,3,1343,1357,16.68,0.11,28,1,0,0
1.3344e+05,1.0895e+08,3,1357,1357,16.67,0.11,28,1,0,0
1.339e+05,1.0905e+08,3,1357,1357,16.68,0.11,28,1,0,0
1.3436e+05,1.0917e+08,3,1357,1357,16.68,0.11,28,1,0,0
1.3481e+05,1.0927e+08,3,1356,1342,16.68,0.11,28,1,0,0
1.3531e+05,1.0938e+08,3,1343,1357,16.69,0.11,28,1,0,0
1.3576e+05,1.0949e+08,3,1357,1357,16.68,0.11,28,1,0,0
1.3622e+05,1.0959e+08,3,1357,1357,16.67,0.11,28,1,0,0
1.3672e+05,1.097e+08,3,1355,1342,16.69,0.11,28,1,0,0
1.3714e+05,1.0981e+08,3,1342,1357,16.68,0.11,28,1,0,0
1.3759e+05,1.0991e+08,3,1357,1357,16.69,0.11,28,1,0,0
1.3808e+05,1.1002e+08,3,1357,1357,16.68,0.11,28,1,0,0
1.3854e+05,1.1013e+08,3,1357,1357,16.68,0.11,28,1,0,0
1.3904e+05,1.1024e+08,3,1355,1342,16.69,0.11,28,1,0,0
1.3949e+05,1.1035e+08,3,1342,1342,16.67,0.11,28,1,0,0
1.3995e+05,1.1045e+08,3,1342,1357,16.68,0.11,28,1,0,0
1.404e+05,1.1055e+08,3,1357,1357,16.68,0.11,28,1,0,0
1.409e+05,1.1066e+08,3,1356,1342,16.68,0.11,28,1,0,0
1.4135e+05,1.1077e+08,3,1342,1357,16.68,0.11,28,1,0,0
1.4184e+05,1.1088e+08,3,1357,1357,16.68,0.11,28,1,0,0
1.423e+05,1.1098e+08,3,1357,1357,16.68,0.11,28,1,0,0
1.428e+05,1.111e+08,3,1355,1342,16.68,0.11,28,1,0,0
1.4325e+05,1.112e+08,3,1342,1357,16.69,0.11,28,1,0,0
1.437e+05,1.113e+08,3,1357,1357,16.68,0.11,28,1,0,0
1.442e+05,1.1141e+08,3,1357,1357,16.68,0.11,28,1,0,0
1.4514e+05,1.1162e+08,3,1357,1371,16.68,0.11,28,1,0,0
1.4559e+05,1.1173e+08,3,1370,1357,16.68,0.11,28,1,0,0
1.4609e+05,1.1184e+08,3,1357,1357,16.68,0.11,28,1,0,0
1.4654e+05,1.1195e+08,3,1357,1371,16.68,0.11,28,1,0,0
1.47e+05,1.1205e+08,3,1370,1357,16.68,0.11,28,1,0,0
1.4746e+05,1.1216e+08,3,1350,871,16.72,0.03,28,1,0,0
1.4796e+05,1.1228e+08,3,833,257,16.7,0.02,28,1,0,0
1.4837e+05,1.1238e+08,3,253,0,16.7,0.03,28,1,0,0
1.489e+05,1.125e+08,3,0,0,16.7,0.04,28,1,0,0
1.4936e+05,1.126e+08,3,0,0,16.7,0.04,28,1,0,0
1.4981e+05,1.1271e+08,3,0,0,16.7,0.04,28,1,0,0
1.5026e+05,1.1281e+08,3,0,0,16.7,0.04,28,1,0,0
1.5075e+05,1.1292e+08,3,0,0,16.7,0.04,28,1,0,0
1.5125e+05,1.1303e+08,3,0,0,16.7,0.05,28,1,0,0
1.517e+05,1.1314e+08,3,0,0,16.7,0.04,28,1,0,0
1.5216e+05,1.1325e+08,3,0,0,16.7,0.04,28,1,0,0
1.5266e+05,1.1336e+08,3,0,0,16.7,0.04,28,1,0,0
1.5312e+05,1.1347e+08,3,0,0,16.7,0.04,28,1,0,0
1.5357e+05,1.1358e+08,3,0,0,16.7,0.04,28,1,0,0
1.5403e+05,1.1368e+08,3,0,0,16.7,0.04,28,1,0,0
1.5444e+05,1.1379e+08,3,0,0,16.7,0.05,28,1,0,0
1.5493e+05,1.139e+08,3,0,0,16.69,0.05,28,1,0,0
1.5538e+05,1.1401e+08,3,0,0,16.7,0.05,28,1,0,0
1.558e+05,1.1411e+08,3,0,0,16.7,0.04,28,1,0,0
1.563e+05,1.1423e+08,3,0,0,16.7,0.04,28,1,0,0
1.5675e+05,1.1433e+08,3,0,0,16.7,0.04,28,1,0,0
1.572e+05,1.1443e+08,3,0,0,16.7,0.04,28,1,0,0
1.577e+05,1.1455e+08,3,0,0,16.7,0.04,28,1,0,0
1.5816e+05,1.1465e+08,3,0,0,16.69,0.05,28,1,0,0
1.5865e+05,1.1477e+08,3,0,0,16.7,0.05,28,1,0,0
1.591e+05,1.1487e+08,3,0,0,16.7,0.05,28,1,0,0
1.5955e+05,1.1498e+08,3,0,0,16.7,0.04,28,1,0,0
1.6005e+05,1.1509e+08,3,0,0,16.7,0.04,28,1,0,0
1.6051e+05,1.152e+08,3,0,0,16.7,0.05,28,1,0,0
1.6096e+05,1.1531e+08,3,0,0,16.7,0.05,28,1,0,0
1.6141e+05,1.1541e+08,3,0,0,16.7,0.05,28,1,0,0
1.6191e+05,1.1553e+08,3,0,0,16.7,0.04,28,1,0,0
1.6237e+05,1.1563e+08,3,0,0,16.7,0.04,28,1,0,0
1.6282e+05,1.1574e+08,3,0,0,16.7,0.05,28,1,0,0
1.6332e+05,1.1585e+08,3,0,0,16.7,0.05,28,1,0,0
1.6377e+05,1.1596e+08,3,0,0,16.7,0.05,28,1,0,0
1.6422e+05,1.1606e+08,3,0,0,16.7,0.05,28,1,0,0
1.6468e+05,1.1617e+08,3,0,0,16.7,0.05,28,1,0,0
1.6517e+05,1.1629e+08,3,0,0,16.7,0.05,28,1,0,0
1.6562e+05,1.1639e+08,3,0,0,16.7,0.05,28,1,0,0
1.6608e+05,1.165e+08,3,0,0,16.7,0.05,28,1,0,0
1.6658e+05,1.1661e+08,3,0,0,16.7,0.05,28,1,0,0
1.6703e+05,1.1672e+08,3,0,0,16.69,0.05,28,1,0,0
1.6749e+05,1.1683e+08,3,0,0,16.69,0.05,28,1,0,0
1.6794e+05,1.1693e+08,3,0,0,16.7,0.05,28,1,0,0
1.684e+05,1.1704e+08,3,0,0,16.69,0.05,28,1,0,0
1.6885e+05,1.1715e+08,3,0,0,16.7,0.05,28,1,0,0
1.6934e+05,1.1726e+08,3,0,0,16.7,0.05,28,1,0,0
1.6975e+05,1.1736e+08,3,0,0,16.7,0.05,28,1,0,0
1.7066e+05,1.1757e+08,3,0,0,16.7,0.04,28,1,0,0
1.7119e+05,1.1769e+08,3,0,0,16.7,0.04,28,1,0,0
1.7164e+05,1.178e+08,3,0,0,16.7,0.05,28,1,0,0
1.721e+05,1.179e+08,3,0,0,16.7,0.05,28,1,0,0
1.7255e+05,1.1801e+08,3,0,0,16.7,0.05,28,1,0,0
1.73e+05,1.1812e+08,3,0,0,16.7,0.05,28,1,0,0
1.735e+05,1.1823e+08,3,0,0,16.7,0.05,28,1,0,0
1.7395e+05,1.1834e+08,3,0,0,16.7,0.05,28,1,0,0
1.7445e+05,1.1845e+08,3,0,0,16.7,0.05,28,1,0,0
1.749e+05,1.1855e+08,3,0,0,16.7,0.05,28,1,0,0
1.7536e+05,1.1866e+08,3,0,0,16.69,0.05,28,1,0,0
1.7581e+05,1.1876e+08,3,0,0,16.7,0.05,28,1,0,0
1.7631e+05,1.1888e+08,3,0,0,16.7,0.04,28,1,0,0
1.7676e+05,1.1898e+08,3,0,0,16.7,0.04,28,1,0,0
1.7767e+05,1.192e+08,3,0,0,16.7,0.05,28,1,0,0
1.7813e+05,1.1931e+08,3,0,0,16.7,0.05,28,1,0,0
1.7858e+05,1.1941e+08,3,0,0,16.7,0.04,28,1,0,0
1.7904e+05,1.1952e+08,3,0,0,16.7,0.04,28,1,0,0
1.7954e+05,1.1963e+08,3,0,0,16.7,0.04,28,1,0,0
1.7999e+05,1.1974e+08,3,0,0,16.7,0.04,28,1,0,0
1.8041e+05,1.1984e+08,3,0,0,16.7,0.04,28,1,0,0
1.809e+05,1.1995e+08,3,0,0,16.7,0.04,28,1,0,0
1.814e+05,1.2007e+08,3,0,0,16.7,0.04,28,1,0,0
1.8185e+05,1.2017e+08,3,0,0,16.7,0.05,28,1,0,0
1.823e+05,1.2028e+08,3,0,0,16.69,0.05,28,1,0,0
1.828e+05,1.2039e+08,3,0,0,16.7,0.05,28,1,0,0
1.8326e+05,1.205e+08,3,0,0,16.7,0.05,28,1,0,0
1.8371e+05,1.2061e+08,3,0,0,16.7,0.04,28,1,0,0
1.8417e+05,1.2071e+08,3,0,0,16.7,0.04,28,1,0,0
1.8467e+05,1.2083e+08,3,0,0,16.7,0.04,28,1,0,0
1.8508e+05,1.2093e+08,3,0,0,16.7,0.04,28,1,0,0
1.8554e+05,1.2103e+08,3,0,0,16.7,0.05,28,1,0,0
1.8603e+05,1.2115e+08,3,0,0,16.7,0.05,28,1,0,0
1.8649e+05,1.2125e+08,3,0,0,16.7,0.05,28,1,0,0
1.874e+05,1.2147e+08,3,0,0,16.7,0.05,28,1,0,0
1.8789e+05,1.2158e+08,3,0,0,16.7,0.05,28,1,0,0
1.8876e+05,1.2179e+08,3,0,0,16.69,0.04,28,1,0,0
1.8926e+05,1.219e+08,3,0,0,16.7,0.04,27,1,0,0
1.8971e+05,1.22e+08,3,0,0,16.7,0.04,28,1,0,0
1.9021e+05,1.2212e+08,3,0,0,16.7,0.05,28,1,0,0
1.9066e+05,1.2222e+08,3,0,0,16.7,0.04,28,1,0,0
1.9116e+05,1.2234e+08,3,0,0,16.7,0.04,28,1,0,0
1.9161e+05,1.2244e+08,3,0,0,16.7,0.04,28,1,0,0
1.9206e+05,1.2255e+08,3,0,0,16.7,0.04,28,1,0,0
1.9256e+05,1.2266e+08,3,0,0,16.7,0.04,28,1,0,0
1.9301e+05,1.2277e+08,3,0,0,16.7,0.04,28,1,0,0
1.9346e+05,1.2287e+08,3,0,0,16.69,0.04,28,1,0,0
1.9392e+05,1.2298e+08,3,0,0,16.7,0.05,28,1,0,0
1.9442e+05,1.231e+08,3,0,0,16.7,0.05,28,1,0,0
1.9487e+05,1.232e+08,3,0,0,16.7,0.05,28,1,0,0
1.9533e+05,1.2331e+08,3,0,0,16.7,0.04,28,1,0,0
1.9582e+05,1.2342e+08,3,0,0,16.7,0.04,28,1,0,0
1.9624e+05,1.2352e+08,3,0,0,16.7,0.05,28,1,0,0
1.9673e+05,1.2363e+08,3,0,0,16.7,0.04,28,1,0,0
1.9719e+05,1.2374e+08,3,0,0,16.7,0.04,28,1,0,0
1.9765e+05,1.2385e+08,3,0,0,16.7,0.04,28,1,0,0
1.981e+05,1.2396e+08,3,0,0,16.7,0.05,28,1,0,0
1.986e+05,1.2407e+08,3,0,0,16.7,0.04,28,1,0,0
1.9905e+05,1.2418e+08,3,0,0,16.7,0.05,28,1,0,0
1.9955e+05,1.2429e+08,3,0,0,16.7,0.05,28,1,0,0
2e+05,1.244e+08,3,0,0,16.7,0.05,28,1,0,0
2.0045e+05,1.2451e+08,3,0,0,16.7,0.05,28,1,0,0
2.0091e+05,1.2461e+08,3,0,0,16.7,0.05,28,1,0,0
2.0137e+05,1.2472e+08,3,0,0,16.7,0.05,28,1,0,0
2.0183e+05,1.2484e+08,3,0,0,16.7,0.05,28,1,0,0
2.0228e+05,1.2494e+08,3,0,0,16.7,0.05,28,1,0,0
2.0274e+05,1.2504e+08,3,0,0,16.7,0.05,28,1,0,0
2.0323e+05,1.2516e+08,3,0,0,16.7,0.05,28,1,0,0
2.0418e+05,1.2538e+08,3,0,0,16.7,0.05,28,1,0,0
2.046e+05,1.2548e+08,3,0,0,16.7,0.05,28,1,0,0
2.0509e+05,1.256e+08,3,0,0,16.69,0.05,28,1,0,0
2.06e+05,1.2581e+08,3,0,0,16.7,0.05,28,1,0,0
2.0642e+05,1.2592e+08,3,0,0,16.7,0.05,28,1,0,0
2.0688e+05,1.2602e+08,3,0,0,16.7,0.05,28,1,0,0
2.0738e+05,1.2614e+08,3,0,0,16.7,0.04,28,1,0,0
2.0783e+05,1.2624e+08,3,0,0,16.7,0.05,28,1,0,0
2.0828e+05,1.2635e+08,3,0,0,16.7,0.05,28,1,0,0
2.0878e+05,1.2647e+08,3,0,0,16.7,0.05,28,1,0,0
2.0923e+05,1.2657e+08,3,0,0,16.7,0.05,28,1,0,0
2.0969e+05,1.2668e+08,3,0,0,16.7,0.05,28,1,0,0
2.1011e+05,1.2678e+08,3,0,0,16.7,0.05,28,1,0,0
2.106e+05,1.2689e+08,3,0,0,16.7,0.05,28,1,0,0
2.111e+05,1.2701e+08,3,0,0,16.7,0.05,28,1,0,0
2.1156e+05,1.2712e+08,3,0,0,16.7,0.05,28,1,0,0
2.1161e+05,1.9767e+08,3,0,0,16.69,0.05,29,2,0,0
2.1211e+05,1.9778e+08,3,0,0,16.69,0.05,29,2,0,0
2.1257e+05,1.9789e+08,3,0,0,16.69,0.05,29,2,0,0
2.1302e+05,1.9799e+08,3,0,0,16.69,0.05,29,2,0,0
2.1347e+05,1.981e+08,3,0,0,16.69,0.05,29,2,0,0
2.1392e+05,1.982e+08,3,0,0,16.69,0.05,29,2,0,0
2.1438e+05,1.9831e+08,3,0,0,16.69,0.05,29,2,0,0
2.1487e+05,1.9841e+08,3,0,0,16.69,0.05,29,2,0,0
2.1534e+05,1.9853e+08,3,0,0,16.69,0.05,29,2,0,0
2.1579e+05,1.9863e+08,3,0,0,16.69,0.04,29,2,0,0
2.1674e+05,1.9885e+08,3,0,0,16.69,0.04,29,2,0,0
2.1769e+05,1.9906e+08,3,0,0,16.69,0.05,29,2,0,0
2.1814e+05,1.9917e+08,3,0,0,16.69,0.05,29,2,0,0
2.186e+05,1.9927e+08,3,0,0,16.69,0.05,29,2,0,0
2.191e+05,1.9939e+08,3,0,0,16.69,0.05,29,2,0,0
2.1951e+05,1.9949e+08,3,0,0,16.69,0.05,29,2,0,0
2.2e+05,1.996e+08,3,0,0,16.69,0.05,29,2,0,0
2.2046e+05,1.9971e+08,3,0,0,16.69,0.04,29,2,0,0
2.2142e+05,1.9992e+08,3,25,614,16.67,0.11,29,2,0,0
2.2187e+05,2.0003e+08,3,655,1057,16.66,0.18,29,2,0,0
2.2236e+05,2.0013e+08,3,1073,1257,16.66,0.13,29,2,0,0
2.2331e+05,2.0035e+08,3,1259,1328,16.67,0.11,29,2,0,0
2.2368e+05,2.0045e+08,3,1328,1342,16.67,0.11,29,2,0,0
2.2413e+05,2.0056e+08,3,1342,1357,16.67,0.11,29,2,0,0
2.2463e+05,2.0067e+08,3,1357,1357,16.67,0.11,29,2,0,0
2.2508e+05,2.0078e+08,3,1357,1357,16.66,0.11,29,2,0,0
2.2554e+05,2.0088e+08,3,1357,1357,16.67,0.11,29,2,0,0
2.2649e+05,2.011e+08,3,1357,1357,16.67,0.11,29,2,0,0
2.2695e+05,2.012e+08,3,1357,1357,16.66,0.11,29,2,0,0
2.2786e+05,2.0141e+08,3,1357,1357,16.67,0.11,29,2,0,0
2.2835e+05,2.0153e+08,3,1357,1357,16.67,0.11,29,2,0,0
2.2881e+05,2.0163e+08,3,1357,1357,16.66,0.11,29,2,0,0
2.2926e+05,2.0173e+08,3,1357,1357,16.67,0.11,29,2,0,0
2.2976e+05,2.0185e+08,3,1357,1357,16.67,0.11,29,2,0,0
2.3022e+05,2.0195e+08,3,1355,1342,16.67,0.11,29,2,0,0
2.3067e+05,2.0205e+08,3,1342,1357,16.66,0.11,29,2,0,0
2.3113e+05,2.0216e+08,3,1357,1357,16.66,0.11,29,2,0,0
2.3163e+05,2.0227e+08,3,1357,1357,16.67,0.11,29,2,0,0
2.3209e+05,2.0238e+08,3,1357,1357,16.66,0.11,29,2,0,0
2.3255e+05,2.0248e+08,3,1357,1357,16.67,0.11,29,2,0,0
2.33e+05,2.0259e+08,3,1357,1357,16.67,0.11,29,2,0,0
2.3349e+05,2.027e+08,3,1357,1357,16.66,0.11,29,2,0,0
2.3394e+05,2.028e+08,3,1357,1357,16.66,0.11,29,2,0,0
2.344e+05,2.029e+08,3,1357,1357,16.66,0.11,29,2,0,0
2.3516e+05,2.0312e+08,3,1357,1357,16.67,0.11,29,2,0,0
2.3565e+05,2.0323e+08,3,1357,1357,16.67,0.11,29,2,0,0
2.3606e+05,2.0333e+08,3,1357,1357,16.67,0.11,29,2,0,0
2.3656e+05,2.0345e+08,3,1357,1357,16.66,0.11,29,2,0,0
2.3698e+05,2.0355e+08,3,1357,1357,16.67,0.11,29,2,0,0
2.3744e+05,2.0365e+08,3,1357,1357,16.67,0.11,29,2,0,0
2.3793e+05,2.0376e+08,3,1357,1357,16.67,0.11,29,2,0,0
2.3839e+05,2.0387e+08,3,1357,1357,16.67,0.11,29,2,0,0
2.3884e+05,2.0397e+08,3,1357,1357,16.66,0.11,29,2,0,0
2.3938e+05,2.0409e+08,3,1377,1500,16.63,0.23,29,2,0,0
2.4029e+05,2.043e+08,3,1641,4785,15.48,4.78,29,2,0,0
2.4075e+05,2.044e+08,3,4906,6085,15.76,4.98,29,2,0,0
2.412e+05,2.0451e+08,3,6090,6228,15.75,4.29,29,3,0,0
2.417e+05,2.0462e+08,3,6230,6300,15.71,4.02,29,3,0,0
2.4218e+05,2.0473e+08,3,6258,5828,16.2,2.18,29,3,0,0
2.4264e+05,2.0483e+08,3,5770,5200,16.17,1.51,29,3,0,0
2.431e+05,2.0494e+08,3,5181,4885,16.15,1.78,29,3,0,0
2.4352e+05,2.0504e+08,3,4885,4900,16.1,1.91,29,3,0,0
2.4405e+05,2.0516e+08,3,4894,4857,16.13,1.86,29,3,0,0
2.4451e+05,2.0526e+08,3,4845,4685,16.14,1.56,29,3,0,0
2.4496e+05,2.0537e+08,3,4694,4857,15.8,2.61,29,3,0,0
2.4542e+05,2.0547e+08,3,4860,5257,15.89,2.81,29,3,0,0
2.4587e+05,2.0557e+08,3,5257,5257,15.85,2.64,29,3,0,0
2.4636e+05,2.0568e+08,3,5256,5228,15.98,2.25,29,3,0,0
2.4686e+05,2.0579e+08,3,5221,5114,16,1.92,30,3,0,0
2.4727e+05,2.0589e+08,3,5111,4914,16.01,2.16,30,3,0,0
2.4777e+05,2.06e+08,3,4917,5014,15.97,2.27,30,4,0,0
2.4826e+05,2.0611e+08,3,5014,5014,16.04,2.31,29,4,0,0
2.4872e+05,2.0622e+08,3,5014,5014,16.03,2.26,29,4,0,0
2.4921e+05,2.0633e+08,3,5014,5014,16.04,2.14,30,4,0,0
2.4966e+05,2.0643e+08,3,5017,5085,16.01,2.37,30,4,0,0
2.5012e+05,2.0654e+08,3,5087,5200,15.93,2.49,30,4,0,0
2.5061e+05,2.0665e+08,3,5198,5185,16.01,2.64,30,4,0,0
2.5102e+05,2.0675e+08,3,5190,5471,16.02,2.84,30,4,0,0
2.5152e+05,2.0687e+08,3,5469,5442,15.94,2.78,30,4,0,0
2.5192e+05,2.0697e+08,3,5443,5571,16.17,2.52,30,4,0,0
2.5241e+05,2.0708e+08,3,5472,4457,16.39,0.89,30,4,0,0
2.5286e+05,2.0719e+08,3,4454,4314,16.21,1.67,30,4,0,0
2.533e+05,2.0729e+08,3,4318,4585,16.15,1.62,30,4,0,0
2.5375e+05,2.074e+08,3,4586,4671,16.16,1.77,30,4,0,0
2.5424e+05,2.0752e+08,3,4682,4800,16.08,2.03,30,4,0,0
2.5469e+05,2.0763e+08,3,4805,4857,16.13,2.01,30,5,0,0
2.5514e+05,2.0774e+08,3,4865,4957,16.04,2.63,30,5,0,0
2.5559e+05,2.0785e+08,3,4970,5157,15.98,2.44,30,5,0,0
2.5604e+05,2.0797e+08,3,5147,5085,16,2.48,30,5,0,0
2.5648e+05,2.0807e+08,3,5108,5300,15.94,2.23,30,5,0,0
2.5692e+05,2.0818e+08,3,5295,5242,15.95,2.42,30,5,0,0
2.5734e+05,2.0828e+08,3,5242,5300,15.97,2.42,30,5,0,0
2.5778e+05,2.0839e+08,3,5298,5214,16.02,2.18,30,5,0,0
2.5827e+05,2.0852e+08,3,5206,5128,16.01,2.24,30,5,0,0
2.5868e+05,2.0862e+08,3,5135,5200,15.96,2.51,30,5,0,0
2.5912e+05,2.0873e+08,3,5198,5171,16.04,2.28,30,5,0,0
2.5953e+05,2.0883e+08,3,5171,5171,16.03,2.47,30,5,0,0
2.5998e+05,2.0894e+08,3,5172,5285,16.02,2.4,30,5,0,0
2.6087e+05,2.0916e+08,3,5278,5085,16.02,1.9,30,6,0,0
2.6132e+05,2.0927e+08,3,5082,4971,16.05,1.83,30,6,0,0
2.6177e+05,2.0938e+08,3,4968,4828,16.08,1.6,30,6,0,0
2.6221e+05,2.095e+08,3,4826,4785,15.93,2.14,30,6,0,0
2.6266e+05,2.096e+08,3,4791,4885,16,1.97,30,6,0,0
2.6311e+05,2.0971e+08,3,4889,5000,15.92,1.97,30,6,0,0
2.6355e+05,2.0982e+08,3,5002,5057,15.97,2.2,30,6,0,0
2.64e+05,2.0993e+08,3,5053,5014,15.98,1.94,30,6,0,0
2.6445e+05,2.1004e+08,3,5021,5085,15.96,2.07,30,6,0,0
2.6489e+05,2.1015e+08,3,5080,5028,15.95,1.96,30,6,0,0
2.653e+05,2.1025e+08,3,5023,4928,15.98,1.98,30,6,0,0
2.6575e+05,2.1036e+08,3,4930,4985,15.85,2.34,30,6,0,0
2.6616e+05,2.1046e+08,3,4989,5200,15.9,2.58,30,6,0,0
2.6668e+05,2.1058e+08,3,5202,5242,15.87,2.48,30,6,0,0
2.6713e+05,2.107e+08,3,5239,5214,15.89,2.37,30,6,0,0
2.6754e+05,2.108e+08,3,5220,5285,15.95,2.29,30,6,0,0
2.6795e+05,2.109e+08,3,5275,5142,15.93,2.27,30,7,0,0
2.684e+05,2.1101e+08,3,5147,5257,15.88,2.36,30,7,0,0
2.6881e+05,2.1112e+08,3,5255,5228,15.85,2.45,30,7,0,0
2.693e+05,2.1123e+08,3,5247,5442,15.93,2.46,30,7,0,0
2.6975e+05,2.1134e+08,3,5429,5300,15.92,2.6,30,7,0,0
2.7015e+05,2.1144e+08,3,5298,5271,15.94,2.47,30,7,0,0
2.706e+05,2.1155e+08,3,5278,5357,15.92,2.56,30,7,0,0
2.7105e+05,2.1166e+08,3,5353,5314,15.91,2.62,30,7,0,0
2.715e+05,2.1178e+08,3,5317,5357,15.91,2.62,30,7,0,0
2.7191e+05,2.1188e+08,3,5358,5385,15.92,2.36,30,7,0,0
2.7236e+05,2.1199e+08,3,5379,5328,15.92,2.65,30,7,0,0
2.728e+05,2.121e+08,3,5331,5385,15.89,2.62,30,7,0,0
2.7326e+05,2.1221e+08,3,5377,5300,15.88,2.52,30,7,0,0
2.7371e+05,2.1233e+08,3,5293,5228,15.88,2.47,30,8,0,0
2.7411e+05,2.1242e+08,3,5228,5242,15.88,2.41,30,8,0,0
2.7455e+05,2.1253e+08,3,5250,5414,15.91,2.71,30,8,0,0
2.75e+05,2.1264e+08,3,5414,5414,15.85,2.42,30,8,0,0
2.7545e+05,2.1276e+08,3,5390,5071,15.87,1.64,30,8,0,0
2.7591e+05,2.1287e+08,3,5077,5142,15.95,2.93,30,8,0,0
2.7635e+05,2.1297e+08,3,5159,5328,15.87,2.66,30,8,0,0
2.772e+05,2.1319e+08,3,5329,5457,15.79,2.82,30,8,0,0
2.7765e+05,2.1329e+08,3,5459,5628,15.77,2.96,30,8,0,0
2.7814e+05,2.1341e+08,3,5617,5514,15.81,2.82,30,8,0,0
2.7859e+05,2.1352e+08,3,5520,5585,15.84,2.76,30,8,0,0
2.7899e+05,2.1362e+08,3,5579,5471,15.85,2.51,30,9,0,0
2.7944e+05,2.1374e+08,3,5445,5171,15.88,2.34,30,9,0,0
2.7985e+05,2.1384e+08,3,5168,5057,15.93,2.13,30,9,0,0
2.803e+05,2.1395e+08,3,5068,5171,15.87,2.55,30,9,0,0
2.8074e+05,2.1406e+08,3,5168,5114,15.89,2.57,30,9,0,0
2.8118e+05,2.1416e+08,3,5117,5242,15.92,2.67,30,9,0,0
2.8168e+05,2.1428e+08,3,5251,5400,15.85,2.75,30,9,0,0
2.8208e+05,2.1438e+08,3,5402,5457,15.87,2.79,30,9,0,0
2.8253e+05,2.1449e+08,3,5453,5371,15.85,2.89,30,9,0,0
2.8298e+05,2.146e+08,3,5380,5514,15.83,2.74,30,9,0,0
2.8342e+05,2.1471e+08,3,5498,5342,15.78,2.9,30,9,0,0
2.8388e+05,2.1482e+08,3,5350,5442,15.83,2.54,30,9,0,0
2.8432e+05,2.1493e+08,3,5440,5414,15.77,2.62,30,9,0,0
2.8477e+05,2.1504e+08,3,5406,5300,15.85,2.42,30,10,0,0
2.8519e+05,2.1515e+08,3,5301,5328,15.8,2.86,30,10,0,0
2.8564e+05,2.1526e+08,3,5330,5371,15.83,2.1,30,10,0,0
2.8613e+05,2.1537e+08,3,5347,5114,15.85,2.51,30,10,0,0
2.8653e+05,2.1547e+08,3,5112,5085,15.86,2.12,30,10,0,0
2.8697e+05,2.1558e+08,3,5084,5071,15.76,2.66,30,10,0,0
2.8747e+05,2.157e+08,3,5080,5157,15.83,2.32,30,10,0,0
2.8791e+05,2.1581e+08,3,5155,5128,15.84,2.16,30,10,0,0
2.8835e+05,2.1592e+08,3,5128,5128,15.76,2.33,30,10,0,0
2.888e+05,2.1603e+08,3,5133,5200,15.79,2.78,30,10,0,0
2.8925e+05,2.1614e+08,3,5232,5471,15.76,2.88,30,10,0,0
2.897e+05,2.1625e+08,3,5462,5371,15.8,2.96,30,10,0,0
2.9015e+05,2.1636e+08,3,5385,5528,15.84,3.02,30,10,0,0
2.9056e+05,2.1646e+08,3,5533,5600,15.75,3.05,30,10,0,0
2.9096e+05,2.1656e+08,3,5600,5671,15.78,3.28,30,11,0,0
2.9145e+05,2.1668e+08,3,5686,5828,15.8,3.33,30,11,0,0
2.9186e+05,2.1679e+08,3,5819,5728,15.69,3.31,30,11,0,0
2.9231e+05,2.169e+08,3,5735,5785,15.79,3.11,30,11,0,0
2.9276e+05,2.1701e+08,3,5785,5785,15.67,3.34,30,11,0,0
2.9317e+05,2.1712e+08,3,5782,5642,15.7,3.01,30,11,0,0
2.9407e+05,2.1733e+08,3,5636,5471,15.77,2.37,30,11,0,0
2.9499e+05,2.1755e+08,3,5472,5514,15.75,2.56,30,11,0,0
2.9544e+05,2.1766e+08,3,5504,5400,15.73,2.88,30,11,0,0
2.9588e+05,2.1777e+08,3,5412,5585,15.8,2.9,30,12,0,0
2.9634e+05,2.1788e+08,3,5587,5628,15.7,3.07,30,12,0,0
2.9674e+05,2.1798e+08,3,5633,5857,15.64,3.45,30,12,0,0
2.9719e+05,2.1809e+08,3,5867,5971,15.53,3.84,30,12,0,0
2.9763e+05,2.182e+08,3,5972,6057,15.62,3.86,30,12,0,0
2.9808e+05,2.1831e+08,3,6062,6171,15.6,3.62,30,12,0,0
2.9853e+05,2.1842e+08,3,6165,6057,15.66,4,30,12,0,0
2.9898e+05,2.1853e+08,3,6051,5985,15.65,3.29,30,12,0,0
2.9942e+05,2.1864e+08,3,5993,6185,15.64,4.26,30,12,0,0
2.9991e+05,2.1876e+08,3,6191,6285,15.67,3.79,30,13,0,0
3.0037e+05,2.1887e+08,3,6279,6228,15.55,3.93,30,13,0,0
3.0077e+05,2.1897e+08,3,6252,6571,15.42,4.9,30,13,0,0
3.0122e+05,2.1908e+08,3,6583,6714,15.56,4.68,30,13,0,0
3.0167e+05,2.1919e+08,3,6711,6685,15.57,4.52,30,13,0,0
3.0257e+05,2.194e+08,3,6671,6257,15.6,3.85,30,13,0,0
3.0346e+05,2.1962e+08,3,6256,6242,15.64,3.76,30,14,0,0
3.0391e+05,2.1973e+08,3,6214,5957,15.58,3.27,30,14,0,0
3.0431e+05,2.1983e+08,3,5968,6214,15.48,4.08,30,14,0,0
3.0476e+05,2.1994e+08,3,6223,6671,15.42,4.73,30,14,0,0
3.0521e+05,2.2005e+08,3,6666,6557,15.58,4.26,30,14,0,0
3.0566e+05,2.2016e+08,3,6550,6400,15.5,4.04,30,14,0,0
3.0652e+05,2.2038e+08,3,6390,5971,15.66,2.75,30,14,0,0
3.0701e+05,2.205e+08,3,5982,6100,15.52,3.7,30,15,0,0
3.0741e+05,2.206e+08,3,6087,5800,15.79,2.27,30,15,0,0
3.0782e+05,2.207e+08,3,5793,5442,15.85,2.29,30,15,0,0
3.0831e+05,2.2082e+08,3,5436,5357,15.88,2.22,30,15,0,0
3.0872e+05,2.2092e+08,3,5338,4900,16.07,1.21,30,15,0,0
3.0921e+05,2.2103e+08,3,4879,4571,15.98,1.33,30,15,0,0
3.0964e+05,2.2114e+08,3,4565,4485,15.97,1.28,30,15,0,0
3.1014e+05,2.2125e+08,3,4475,4371,15.94,1.33,30,15,0,0
3.1054e+05,2.2135e+08,3,4374,4428,15.86,1.49,30,15,0,0
3.1099e+05,2.2146e+08,3,4428,4457,15.94,1.48,30,15,0,0
3.1147e+05,2.2158e+08,3,4459,4485,15.98,1.39,30,15,0,0
3.1192e+05,2.2169e+08,3,4488,4528,15.89,1.68,30,15,0,0
3.1233e+05,2.2179e+08,3,4525,4471,15.92,1.44,30,15,0,0
3.1278e+05,2.219e+08,3,4480,4557,15.8,1.68,30,15,0,0
3.1319e+05,2.22e+08,3,4557,4557,15.88,1.76,30,15,0,0
3.1359e+05,2.2211e+08,3,4559,4685,15.8,1.9,30,15,0,0
3.1408e+05,2.2222e+08,3,4704,5000,15.95,2.07,30,15,0,0
3.1453e+05,2.2233e+08,3,4994,4914,15.91,2.2,30,15,0,0
3.1494e+05,2.2243e+08,3,4917,5100,15.91,1.97,30,16,0,0
3.1542e+05,2.2255e+08,3,5072,4771,15.88,1.44,30,16,0,0
3.1587e+05,2.2266e+08,3,4805,5157,15.87,2.5,30,16,0,0
3.1628e+05,2.2277e+08,3,5142,4957,15.85,1.92,30,16,0,0
3.1673e+05,2.2288e+08,3,4981,5285,15.78,3.04,30,16,0,0
3.1714e+05,2.2298e+08,3,5303,5585,15.89,3.27,30,16,0,0
3.1759e+05,2.2309e+08,3,5595,5714,15.85,2.72,30,16,0,0
3.1804e+05,2.2321e+08,3,5701,5600,15.77,2.73,30,16,0,0
3.1845e+05,2.2331e+08,3,5602,5628,15.79,2.86,30,16,0,0
3.189e+05,2.2342e+08,3,5615,5428,15.82,2.64,30,16,0,0
3.1975e+05,2.2363e+08,3,5428,5485,15.76,2.89,30,16,0,0
3.2024e+05,2.2375e+08,3,5479,5442,15.79,2.63,30,16,0,0
3.2064e+05,2.2384e+08,3,5443,5514,15.78,2.68,30,17,0,0
3.2113e+05,2.2396e+08,3,5510,5457,15.76,2.65,30,17,0,0
3.2157e+05,2.2407e+08,3,5455,5385,15.76,2.49,30,17,0,0
3.2202e+05,2.2418e+08,3,5374,5300,15.73,2.37,30,17,0,0
3.2247e+05,2.2429e+08,3,5285,5200,15.73,2.61,30,17,0,0
3.2339e+05,2.2451e+08,3,5213,5400,15.75,2.69,30,17,0,0
3.238e+05,2.2461e+08,3,5398,5328,15.72,2.69,30,17,0,0
3.2425e+05,2.2472e+08,3,5333,5371,15.73,2.7,30,17,0,0
3.2515e+05,2.2494e+08,3,5374,5442,15.79,2.66,30,17,0,0
3.2556e+05,2.2504e+08,3,5444,5657,15.67,2.89,30,17,0,0
3.2649e+05,2.2527e+08,3,5660,5714,15.73,3.08,30,18,0,0
3.269e+05,2.2537e+08,3,5715,5742,15.75,3.05,30,18,0,0
3.2735e+05,2.2549e+08,3,5722,5600,15.68,2.77,30,18,0,0
3.2776e+05,2.2559e+08,3,5606,5700,15.64,3.53,30,18,0,0
3.2822e+05,2.257e+08,3,5701,5857,15.72,3.78,30,18,0,0
3.2866e+05,2.2581e+08,3,5883,6142,15.62,3.24,30,18,0,0
3.2911e+05,2.2592e+08,3,6123,5871,15.51,3.44,30,18,0,0
3.2956e+05,2.2603e+08,3,5871,5871,15.52,3.82,30,18,0,0
3.3e+05,2.2614e+08,3,5900,6185,15.46,3.75,30,18,0,0
3.3045e+05,2.2625e+08,3,6180,6142,15.51,3.82,30,18,0,0
3.3082e+05,2.2634e+08,3,6137,5900,15.58,2.37,30,19,0,0
3.3131e+05,2.2646e+08,3,5900,5900,15.66,3.85,30,19,0,0
3.3172e+05,2.2656e+08,3,5903,6100,15.67,3.37,30,19,0,0
3.322e+05,2.2668e+08,3,6082,5742,15.72,2.77,30,19,0,0
3.3265e+05,2.268e+08,3,5743,5757,15.69,3.14,30,19,0,0
3.331e+05,2.269e+08,3,5764,5900,15.73,2.97,30,19,0,0
3.3355e+05,2.2701e+08,3,5880,5571,15.69,2.9,30,19,0,0
3.3399e+05,2.2712e+08,3,5573,5600,15.64,3.21,30,19,0,0
3.3441e+05,2.2723e+08,3,5608,5785,15.67,3.24,30,19,0,0
3.3512e+05,2.2745e+08,3,5543,5257,15.79,2.03,30,20,0,0
3.3552e+05,2.2755e+08,3,5269,5514,15.86,2.95,30,20,0,0
3.3598e+05,2.2766e+08,3,5504,5371,15.84,2.21,30,20,0,0
3.3642e+05,2.2777e+08,3,5364,5271,15.86,2.41,30,20,0,0
3.3687e+05,2.2788e+08,3,5287,5442,15.8,2.72,30,20,0,0
3.3728e+05,2.2798e+08,3,5418,4928,15.74,1.6,30,20,0,0
3.3773e+05,2.281e+08,3,4992,5628,15.75,3.59,30,20,0,0
3.3814e+05,2.282e+08,3,5634,6085,15.69,4.25,30,20,0,0
3.3855e+05,2.283e+08,3,6088,6242,15.74,3.69,30,20,0,0
3.3904e+05,2.2842e+08,3,6235,6171,15.76,3.25,30,20,0,0
3.3948e+05,2.2853e+08,3,6158,5900,15.74,3.19,30,20,0,0
3.3994e+05,2.2864e+08,3,5898,5885,15.68,3.1,30,20,0,0
3.4038e+05,2.2875e+08,3,5870,5728,15.74,3.15,30,21,0,0
3.4078e+05,2.2885e+08,3,5745,5985,15.69,3.24,30,21,0,0
3.412e+05,2.2895e+08,3,5985,6000,15.63,3.5,30,21,0,0
3.4214e+05,2.2918e+08,3,5998,5971,15.65,3.1,30,21,0,0
3.4255e+05,2.2928e+08,3,5966,5700,15.6,2.65,30,21,0,0
3.4303e+05,2.294e+08,3,5692,5600,15.64,2.95,30,21,0,0
3.4348e+05,2.2951e+08,3,5611,5771,15.67,2.97,30,21,0,0
3.4389e+05,2.2961e+08,3,5769,5728,15.63,3.04,30,21,0,0
3.4434e+05,2.2972e+08,3,5725,5642,15.66,3.13,30,21,0,0
3.4484e+05,2.2984e+08,3,5633,5542,15.61,2.94,30,22,0,0
3.4528e+05,2.2994e+08,3,5562,5771,15.66,2.92,30,22,0,0
3.4568e+05,2.3004e+08,3,5768,5657,15.67,2.86,30,22,0,0
3.4613e+05,2.3015e+08,3,5655,5585,15.67,2.64,30,22,0,0
3.4663e+05,2.3027e+08,3,5581,5542,15.68,2.86,30,22,0,0
3.4703e+05,2.3037e+08,3,5539,5428,15.66,2.88,30,22,0,0
3.4753e+05,2.3049e+08,3,5434,5500,15.65,2.67,30,22,0,0
3.4796e+05,2.3059e+08,3,5490,5371,15.64,3.03,30,22,0,0
3.4842e+05,2.3071e+08,3,5394,5585,15.72,2.87,30,22,0,0
3.4882e+05,2.3081e+08,3,5576,5414,15.74,2.11,30,22,0,0
3.4927e+05,2.3092e+08,3,5391,5157,15.76,2.32,30,22,0,0
3.4972e+05,2.3103e+08,3,5187,5485,15.7,3.25,30,23,0,0
3.5017e+05,2.3114e+08,3,5490,5542,15.6,3.04,30,23,0,0
3.5058e+05,2.3124e+08,3,5545,5614,15.63,3.14,30,23,0,0
3.5102e+05,2.3135e+08,3,5617,5657,15.62,2.99,30,23,0,0
3.5147e+05,2.3145e+08,3,5651,5571,15.64,2.58,30,23,0,0
3.5192e+05,2.3157e+08,3,5546,5285,15.7,2.41,30,23,0,0
3.5236e+05,2.3167e+08,3,5279,5228,15.68,2.44,30,23,0,0
3.5276e+05,2.3178e+08,3,5226,5200,15.66,2.42,30,23,0,0
3.5325e+05,2.319e+08,3,5200,5200,15.73,2.2,30,23,0,0
3.5366e+05,2.32e+08,3,5187,5057,15.7,2.23,30,23,0,0
3.5411e+05,2.3211e+08,3,5052,4971,15.64,2.24,30,23,0,0
3.55e+05,2.3233e+08,3,4974,5071,15.65,2.27,30,23,0,0
3.5545e+05,2.3244e+08,3,5075,5128,15.72,2.08,30,24,0,0
3.5586e+05,2.3254e+08,3,5128,5171,15.72,2.23,30,24,0,0
3.5631e+05,2.3265e+08,3,5173,5228,15.7,2.37,30,24,0,0
3.5674e+05,2.3275e+08,3,5230,5314,15.72,2.58,30,24,0,0
3.572e+05,2.3286e+08,3,5313,5271,15.69,2.23,30,24,0,0
3.5764e+05,2.3297e+08,3,5271,5271,15.69,2.12,30,24,0,0
3.5809e+05,2.3309e+08,3,5274,5314,15.66,2.81,30,24,0,0
3.5898e+05,2.3331e+08,3,5291,4857,15.79,1.86,30,24,0,0
3.5943e+05,2.3342e+08,3,4857,4871,15.77,2.09,30,24,0,0
3.5987e+05,2.3352e+08,3,4879,5114,15.73,2.28,30,24,0,0
3.6036e+05,2.3364e+08,3,5124,5271,15.75,2.58,30,24,0,0
3.6076e+05,2.3374e+08,3,5271,5285,15.68,2.44,30,24,0,0
3.6121e+05,2.3385e+08,3,5286,5400,15.72,2.24,30,24,0,0
3.6166e+05,2.3397e+08,3,5380,5242,15.69,2.28,30,24,0,0
3.6211e+05,2.3407e+08,3,5247,5328,15.66,2.27,30,25,0,0
3.6251e+05,2.3417e+08,3,5325,5142,15.72,2.19,30,25,0,0
3.634e+05,2.3439e+08,3,5141,5128,15.63,2.19,30,25,0,0
3.6393e+05,2.3452e+08,3,5122,5085,15.64,2.24,30,25,0,0
3.6434e+05,2.3462e+08,3,5097,5228,15.61,2.56,30,25,0,0
3.6478e+05,2.3473e+08,3,5235,5314,15.57,2.6,30,25,0,0
3.6523e+05,2.3483e+08,3,5306,5228,15.6,2.36,30,25,0,0
3.6568e+05,2.3495e+08,3,5224,5185,15.59,2.67,30,25,0,0
3.6608e+05,2.3505e+08,3,5194,5400,15.56,3.02,30,25,0,0
3.6656e+05,2.3516e+08,3,5435,5785,15.62,3.16,30,25,0,0
3.6697e+05,2.3526e+08,3,5785,5785,15.67,3.12,30,25,0,0
3.6746e+05,2.3538e+08,3,5779,5728,15.69,2.93,30,25,0,0
3.6786e+05,2.3548e+08,3,5727,5714,15.69,3.23,30,26,0,0
3.6831e+05,2.3559e+08,3,5714,5742,15.63,3.22,30,26,0,0
3.6924e+05,2.3581e+08,3,5742,5757,15.66,3.07,30,26,0,0
3.7009e+05,2.3602e+08,3,5754,5442,15.66,2.67,30,26,0,0
3.7053e+05,2.3613e+08,3,5444,5585,15.69,2.93,30,26,0,0
3.7142e+05,2.3635e+08,3,5583,5428,15.66,2.51,30,26,0,0
3.7187e+05,2.3645e+08,3,5425,5271,15.71,2.17,30,26,0,0
3.7281e+05,2.3668e+08,3,5268,5200,15.64,2.32,30,27,0,0
3.7329e+05,2.368e+08,3,5195,5128,15.72,1.99,30,27,0,0
3.7374e+05,2.3691e+08,3,5122,5071,15.63,2.27,30,27,0,0
3.7415e+05,2.3701e+08,3,5070,5042,15.67,2.47,30,27,0,0
3.7455e+05,2.3712e+08,3,5045,5100,15.67,2.32,30,27,0,0
3.7505e+05,2.3723e+08,3,5103,5142,15.67,2.32,30,27,0,0
3.7545e+05,2.3734e+08,3,5143,5171,15.67,2.18,30,27,0,0
3.7593e+05,2.3745e+08,3,5176,5300,15.73,2.34,30,27,0,0
3.7638e+05,2.3756e+08,3,5290,5071,15.71,2.14,30,27,0,0
3.7683e+05,2.3767e+08,3,5080,5300,15.64,2.54,30,27,0,0
3.7727e+05,2.3778e+08,3,5304,5371,15.65,2.6,30,27,0,0
3.7772e+05,2.3789e+08,3,5374,5414,15.6,2.79,30,27,0,0
3.7816e+05,2.38e+08,3,5419,5500,15.6,2.75,30,27,0,0
3.7857e+05,2.381e+08,3,5500,5542,15.66,2.82,30,28,0,0
3.7906e+05,2.3821e+08,3,5545,5585,15.65,2.69,30,28,0,0
3.795e+05,2.3832e+08,3,5587,5614,15.63,2.62,30,28,0,0
3.8031e+05,2.3853e+08,3,5610,5271,15.65,2.47,30,28,0,0
3.8076e+05,2.3864e+08,3,5279,5400,15.7,2.63,30,28,0,0
3.812e+05,2.3875e+08,3,5400,5400,15.63,2.7,30,28,0,0
3.8161e+05,2.3885e+08,3,5400,5414,15.7,2.5,30,28,0,0
3.8208e+05,2.3896e+08,3,5407,5285,15.71,2.51,30,28,0,0
3.8302e+05,2.3919e+08,3,5287,5357,15.66,2.58,30,28,0,0
3.8346e+05,2.3931e+08,3,5345,5242,15.69,2.31,30,28,0,0
3.8387e+05,2.394e+08,3,5242,5285,15.7,2.45,30,28,0,0
3.8435e+05,2.3951e+08,3,5303,5457,15.66,2.44,30,29,0,0
3.8481e+05,2.3963e+08,3,5431,5242,15.76,2.4,30,29,0,0
3.8525e+05,2.3973e+08,3,5249,5342,15.73,2.6,30,29,0,0
3.8614e+05,2.3996e+08,3,5342,5357,15.72,2.64,30,29,0,0
3.8659e+05,2.4006e+08,3,5370,5514,15.72,2.75,30,29,0,0
3.8704e+05,2.4017e+08,3,5521,5600,15.67,2.65,30,29,0,0
3.8748e+05,2.4028e+08,3,5589,5428,15.79,2.21,30,29,0,0
3.8792e+05,2.4039e+08,3,5392,5128,15.76,2.16,30,29,0,0
3.8838e+05,2.4051e+08,3,5147,5328,15.64,2.7,30,29,0,0
3.8878e+05,2.406e+08,3,5331,5557,15.73,3.01,30,29,0,0
3.8927e+05,2.4073e+08,3,5566,5671,15.7,2.84,30,29,0,0
3.8968e+05,2.4082e+08,3,5670,5614,15.63,3.58,30,29,0,0
3.9012e+05,2.4093e+08,3,5637,5928,15.61,3.16,30,30,0,0
3.9057e+05,2.4104e+08,3,5913,5714,15.47,3.48,30,30,0,0
3.9101e+05,2.4115e+08,3,5721,5971,15.54,3.69,30,30,0,0
3.9146e+05,2.4126e+08,3,5972,6071,15.48,3.82,30,30,0,0
3.9191e+05,2.4137e+08,3,6071,6071,15.49,3.87,30,30,0,0
3.9241e+05,2.4149e+08,3,6072,6085,15.64,3.37,30,30,0,0
3.9281e+05,2.4159e+08,3,6076,5857,15.64,2.71,30,30,0,0
3.9326e+05,2.4171e+08,3,5847,5742,15.64,2.91,30,30,0,0
3.9366e+05,2.418e+08,3,5734,5585,15.66,2.59,30,30,0,0
3.9411e+05,2.4191e+08,3,5583,5514,15.64,2.86,30,30,0,0
3.946e+05,2.4203e+08,3,5514,5514,15.61,2.66,30,31,0,0
3.95e+05,2.4213e+08,3,5512,5471,15.63,2.56,30,31,0,0
3.9549e+05,2.4224e+08,3,5472,5500,15.63,2.48,30,31,0,0
3.9593e+05,2.4235e+08,3,5499,5485,15.63,2.5,30,31,0,0
3.9638e+05,2.4246e+08,3,5474,5371,15.6,2.57,30,31,0,0
3.9678e+05,2.4256e+08,3,5370,5357,15.55,2.67,30,31,0,0
3.9723e+05,2.4267e+08,3,5358,5457,15.58,3.01,30,31,0,0
3.9767e+05,2.4278e+08,3,5468,5757,15.52,3.23,30,31,0,0
3.9817e+05,2.429e+08,3,5754,5728,15.6,3.17,30,31,0,0
3.9862e+05,2.4301e+08,3,5722,5671,15.6,3.18,30,31,0,0
3.9906e+05,2.4311e+08,3,5671,5671,15.66,2.98,30,31,0,0
3.9954e+05,2.4322e+08,3,5675,5728,15.66,2.86,30,31,0,0
3.9994e+05,2.4333e+08,3,5727,5714,15.65,2.81,30,32,0,0
4.0039e+05,2.4344e+08,3,5702,5428,15.7,2.58,30,32,0,0
4.0083e+05,2.4355e+08,3,5433,5485,15.67,2.65,30,32,0,0
4.0168e+05,2.4376e+08,3,5483,5400,15.69,2.65,30,32,0,0
4.0217e+05,2.4388e+08,3,5405,5457,15.7,2.7,30,32,0,0
4.0258e+05,2.4398e+08,3,5457,5485,15.64,2.71,30,32,0,0
4.0303e+05,2.4409e+08,3,5481,5428,15.72,2.65,30,32,0,0
4.0387e+05,2.443e+08,3,5428,5485,15.65,2.68,30,32,0,0
4.0432e+05,2.444e+08,3,5479,5357,15.62,2.75,30,32,0,0
4.0477e+05,2.4452e+08,3,5368,5542,15.64,2.93,30,32,0,0
4.0526e+05,2.4463e+08,3,5542,5542,15.63,2.85,30,33,0,0
4.057e+05,2.4474e+08,3,5534,5457,15.67,2.81,30,33,0,0
4.0615e+05,2.4485e+08,3,5464,5542,15.57,2.89,30,33,0,0
4.0655e+05,2.4495e+08,3,5540,5471,15.68,2.71,30,33,0,0
4.07e+05,2.4506e+08,3,5469,5442,15.67,2.71,30,33,0,0
4.0745e+05,2.4517e+08,3,5439,5400,15.7,2.53,30,33,0,0
4.083e+05,2.4538e+08,3,5400,5414,15.66,2.8,30,33,0,0
4.089e+05,2.456e+08,3,5565,5514,15.61,2.93,30,33,0,0
4.0934e+05,2.4571e+08,3,5526,5657,15.59,2.83,30,33,0,0
4.0979e+05,2.4582e+08,3,5664,5742,15.71,2.82,30,33,0,0
4.1023e+05,2.4593e+08,3,5708,5271,15.67,2.47,30,34,0,0
4.1068e+05,2.4604e+08,3,5271,5271,15.7,2.37,30,34,0,0
4.1112e+05,2.4614e+08,3,5269,5228,15.7,2.63,30,34,0,0
4.1157e+05,2.4625e+08,3,5239,5400,15.73,2.69,30,34,0,0
4.1198e+05,2.4635e+08,3,5399,5385,15.68,3.01,30,34,0,0
4.1243e+05,2.4646e+08,3,5398,5585,15.67,2.96,30,34,0,0
4.1288e+05,2.4657e+08,3,5588,5628,15.64,2.96,30,34,0,0
4.1336e+05,2.4669e+08,3,5635,5700,15.65,2.91,30,34,0,0
4.1377e+05,2.4679e+08,3,5691,5614,15.64,2.88,30,34,0,0
4.1422e+05,2.469e+08,3,5621,5700,15.69,2.88,30,34,0,0
4.1465e+05,2.47e+08,3,5693,5557,15.58,2.79,30,34,0,0
4.1507e+05,2.4711e+08,3,5556,5542,15.64,2.99,30,34,0,0
4.1599e+05,2.4733e+08,3,5540,5514,15.6,2.65,30,35,0,0
4.1644e+05,2.4745e+08,3,5507,5457,15.68,2.6,30,35,0,0
4.1685e+05,2.4755e+08,3,5454,5414,15.63,2.72,30,35,0,0
4.173e+05,2.4765e+08,3,5419,5557,15.6,2.89,30,35,0,0
4.1774e+05,2.4777e+08,3,5544,5385,15.67,2.59,30,35,0,0
4.1819e+05,2.4788e+08,3,5386,5400,15.63,2.77,30,35,0,0
4.1864e+05,2.4799e+08,3,5413,5500,15.6,2.89,30,35,0,0
4.1944e+05,2.4819e+08,3,5501,5657,15.69,2.79,30,35,0,0
4.1993e+05,2.4831e+08,3,5657,5657,15.67,2.87,30,35,0,0
4.2033e+05,2.4841e+08,3,5655,5542,15.69,2.96,30,36,0,0
4.2082e+05,2.4853e+08,3,5566,5785,15.73,3.42,30,36,0,0
4.2127e+05,2.4864e+08,3,5776,5685,15.67,2.77,30,36,0,0
4.2171e+05,2.4875e+08,3,5687,5714,15.66,3.04,30,36,0,0
4.2216e+05,2.4885e+08,3,5715,5814,15.64,3.05,30,36,0,0
4.2256e+05,2.4896e+08,3,5810,5671,15.67,2.69,30,36,0,0
4.2301e+05,2.4907e+08,3,5672,5714,15.66,3.45,30,36,0,0
4.2394e+05,2.4929e+08,3,5717,5814,15.58,3.31,30,36,0,0
4.2439e+05,2.494e+08,3,5821,5914,15.54,3.26,30,36,0,0
4.248e+05,2.495e+08,3,5908,5828,15.64,3.14,30,36,0,0
4.2529e+05,2.4962e+08,3,5821,5757,15.64,3,30,37,0,0
4.2614e+05,2.4983e+08,3,5754,5514,15.65,2.76,30,37,0,0
4.2703e+05,2.5005e+08,3,5508,5385,15.63,2.44,30,37,0,0
4.2743e+05,2.5015e+08,3,5385,5385,15.66,2.59,30,37,0,0
4.2788e+05,2.5026e+08,3,5378,5285,15.6,2.33,30,37,0,0
4.2829e+05,2.5037e+08,3,5276,5100,15.66,2.3,30,37,0,0
4.2874e+05,2.5047e+08,3,5101,5200,15.64,2.66,30,37,0,0
4.2919e+05,2.5059e+08,3,5206,5328,15.73,2.51,30,37,0,0
4.2964e+05,2.507e+08,3,5324,5271,15.73,2.35,30,37,0,0
4.3009e+05,2.5081e+08,3,5275,5342,15.72,2.69,30,37,0,0
4.3054e+05,2.5092e+08,3,5356,5557,15.64,3.24,30,37,0,0
4.3098e+05,2.5102e+08,3,5558,5585,15.69,3.23,30,38,0,0
4.3143e+05,2.5113e+08,3,5580,5528,15.67,2.91,30,38,0,0
4.3187e+05,2.5124e+08,3,5532,5600,15.68,3.33,30,38,0,0
4.3232e+05,2.5135e+08,3,5593,5528,15.72,2.93,30,38,0,0
4.3273e+05,2.5146e+08,3,5531,5600,15.67,3.05,30,38,0,0
4.3317e+05,2.5156e+08,3,5606,5671,15.63,3.08,30,38,0,0
4.3362e+05,2.5167e+08,3,5665,5585,15.73,2.59,30,38,0,0
4.3406e+05,2.5178e+08,3,5583,5557,15.66,2.78,30,38,0,0
4.3451e+05,2.5189e+08,3,5554,5528,15.6,2.8,30,38,0,0
4.3496e+05,2.52e+08,3,5531,5585,15.6,2.95,30,38,0,0
4.3581e+05,2.5221e+08,3,5583,5528,15.56,2.82,30,39,0,0
4.3625e+05,2.5232e+08,3,5529,5571,15.61,2.9,30,39,0,0
4.3675e+05,2.5244e+08,3,5569,5542,15.63,2.61,30,39,0,0
4.3719e+05,2.5255e+08,3,5523,5342,15.69,2.36,30,39,0,0
4.376e+05,2.5264e+08,3,5339,5214,15.69,2.28,30,39,0,0
4.3804e+05,2.5275e+08,3,5214,5214,15.63,2.48,30,39,0,0
4.3849e+05,2.5286e+08,3,5214,5228,15.66,2.59,30,39,0,0
4.3897e+05,2.5298e+08,3,5260,5585,15.69,2.93,30,39,0,0
4.3938e+05,2.5309e+08,3,5591,5642,15.67,2.97,30,39,0,0
4.3982e+05,2.5319e+08,3,5638,5514,15.64,2.74,30,39,0,0
4.4023e+05,2.5329e+08,3,5513,5485,15.75,2.72,30,39,0,0
4.4067e+05,2.534e+08,3,5482,5371,15.67,2.31,30,39,0,0
4.4116e+05,2.5352e+08,3,5369,5357,15.69,2.78,30,40,0,0
4.4161e+05,2.5363e+08,3,5350,5285,15.72,2.64,30,40,0,0
4.4201e+05,2.5373e+08,3,5295,5500,15.69,2.98,30,40,0,0
4.4246e+05,2.5384e+08,3,5505,5557,15.71,2.57,30,40,0,0
4.4291e+05,2.5395e+08,3,5541,5385,15.67,2.88,30,40,0,0
4.4332e+05,2.5405e+08,3,5390,5628,15.54,3.04,30,40,0,0
4.4374e+05,2.5416e+08,3,5629,5714,15.5,2.99,30,40,0,0
4.4422e+05,2.5427e+08,3,5718,5828,15.55,3.43,30,40,0,0
4.4508e+05,2.5448e+08,3,5825,5557,15.67,2.66,30,40,0,0
4.4556e+05,2.546e+08,3,5549,5471,15.62,2.77,30,40,0,0
4.4597e+05,2.547e+08,3,5465,5328,15.63,2.61,30,41,0,0
4.4642e+05,2.5481e+08,3,5330,5414,15.58,2.65,30,41,0,0
4.4686e+05,2.5492e+08,3,5419,5485,15.64,3.01,30,41,0,0
4.4731e+05,2.5503e+08,3,5480,5428,15.63,2.61,30,41,0,0
4.4776e+05,2.5514e+08,3,5430,5457,15.57,3.04,30,41,0,0
4.4817e+05,2.5524e+08,3,5458,5571,15.61,2.9,30,41,0,0
4.4862e+05,2.5536e+08,3,5576,5657,15.59,3.01,30,41,0,0
4.4907e+05,2.5547e+08,3,5655,5642,15.64,2.85,30,41,0,0
4.4947e+05,2.5557e+08,3,5642,5685,15.63,2.94,30,41,0,0
4.4996e+05,2.5569e+08,3,5681,5657,15.58,3.1,30,41,0,0
4.5081e+05,2.559e+08,3,5662,5757,15.59,3.27,30,42,0,0
4.5126e+05,2.5601e+08,3,5752,5685,15.7,2.94,30,42,0,0
4.5167e+05,2.5611e+08,3,5686,5742,15.64,2.91,30,42,0,0
4.5216e+05,2.5623e+08,3,5730,5571,15.66,3.04,30,42,0,0
4.526e+05,2.5634e+08,3,5580,5657,15.52,2.95,30,42,0,0
4.5301e+05,2.5644e+08,3,5653,5614,15.63,2.92,30,42,0,0
4.5342e+05,2.5654e+08,3,5613,5600,15.61,2.86,30,42,0,0
4.539e+05,2.5666e+08,3,5575,5357,15.61,2.7,30,42,0,0
4.5431e+05,2.5676e+08,3,5362,5485,15.58,2.63,30,42,0,0
4.5476e+05,2.5687e+08,3,5483,5457,15.62,2.55,30,42,0,0
4.5565e+05,2.5709e+08,3,5455,5442,15.57,2.85,30,42,0,0
4.5605e+05,2.5719e+08,3,5442,5442,15.61,2.38,30,43,0,0
4.5657e+05,2.5732e+08,3,5422,5242,15.53,2.51,30,43,0,0
4.5702e+05,2.5743e+08,3,5266,5457,15.6,2.78,30,43,0,0
4.5743e+05,2.5753e+08,3,5461,5528,15.65,2.86,30,43,0,0
4.5788e+05,2.5764e+08,3,5520,5442,15.71,2.45,30,43,0,0
4.5877e+05,2.5786e+08,3,5440,5371,15.6,2.64,30,43,0,0
4.5921e+05,2.5796e+08,3,5378,5485,15.61,2.58,30,43,0,0
4.5966e+05,2.5807e+08,3,5484,5428,15.63,2.69,30,43,0,0
4.6054e+05,2.583e+08,3,5431,5514,15.52,2.9,30,43,0,0
4.61e+05,2.5841e+08,3,5503,5371,15.52,2.64,30,43,0,0
4.6148e+05,2.5852e+08,3,5376,5414,15.63,2.59,30,44,0,0
4.6188e+05,2.5862e+08,3,5409,5185,15.63,2.53,30,44,0,0
4.6318e+05,2.5895e+08,3,5186,5414,15.6,2.59,30,44,0,0
4.6367e+05,2.5906e+08,3,5411,5357,15.63,2.64,30,44,0,0
4.6412e+05,2.5917e+08,3,5364,5471,15.64,2.69,30,44,0,0
4.6456e+05,2.5928e+08,3,5465,5385,15.61,2.77,30,44,0,0
4.6498e+05,2.5939e+08,3,5384,5371,15.58,2.66,30,44,0,0
4.6587e+05,2.5961e+08,3,5379,5571,15.5,3.12,30,44,0,0
4.6631e+05,2.5972e+08,3,5571,5571,15.6,2.93,30,44,0,0
4.6676e+05,2.5983e+08,3,5554,5385,15.58,2.55,30,44,0,0
4.6721e+05,2.5994e+08,3,5381,5342,15.62,2.59,30,45,0,0
4.6766e+05,2.6005e+08,3,5335,5257,15.64,2.33,30,45,0,0
4.6806e+05,2.6015e+08,3,5257,5300,15.67,2.28,30,45,0,0
4.6855e+05,2.6026e+08,3,5289,5142,15.66,1.94,30,45,0,0
4.6944e+05,2.6048e+08,3,5135,4957,15.72,2.03,30,45,0,0
4.6989e+05,2.6059e+08,3,4970,5114,15.66,2.17,30,45,0,0
4.703e+05,2.607e+08,3,5101,4957,15.71,1.93,30,45,0,0
4.7075e+05,2.6081e+08,3,4946,4842,15.72,1.58,30,45,0,0
4.7119e+05,2.6092e+08,3,4844,4900,15.72,1.92,30,45,0,0
4.7164e+05,2.6103e+08,3,4902,4928,15.64,1.96,30,45,0,0
4.7208e+05,2.6114e+08,3,4925,4900,15.66,1.93,30,45,0,0
4.7253e+05,2.6124e+08,3,4914,5057,15.5,2.84,30,45,0,0
4.7297e+05,2.6135e+08,3,5079,5371,15.56,2.77,30,45,0,0
4.7342e+05,2.6146e+08,3,5365,5257,15.55,2.49,30,45,0,0
4.7387e+05,2.6157e+08,3,5266,5357,15.51,2.48,30,46,0,0
4.7427e+05,2.6167e+08,3,5353,5171,15.59,2.13,30,46,0,0
4.7476e+05,2.6179e+08,3,5168,5128,15.54,2.34,30,46,0,0
4.7524e+05,2.6191e+08,3,5120,5042,15.64,1.83,30,46,0,0
4.7565e+05,2.6201e+08,3,5037,4842,15.68,1.72,30,46,0,0
4.7613e+05,2.6212e+08,3,4844,4871,15.72,1.99,30,46,0,0
4.7658e+05,2.6223e+08,3,4863,4785,15.75,1.81,30,46,0,0
4.7698e+05,2.6233e+08,3,4787,4928,15.75,2.08,30,46,0,0
4.7747e+05,2.6245e+08,3,4921,4828,15.64,2.02,30,46,0,0
4.7788e+05,2.6255e+08,3,4843,5057,15.66,2.52,30,46,0,0
4.7833e+05,2.6266e+08,3,5058,5100,15.63,2.38,30,46,0,0
4.7877e+05,2.6277e+08,3,5100,5100,15.59,2.17,30,46,0,0
4.7926e+05,2.6289e+08,3,5180,5614,15.5,3.44,30,46,0,0
4.801e+05,2.631e+08,3,5618,6328,15.29,4.28,30,47,0,0
4.8058e+05,2.6321e+08,3,6331,6371,15.19,4.69,30,47,0,0
4.8104e+05,2.6333e+08,3,6380,6500,15.17,5.08,30,47,0,0
4.8149e+05,2.6344e+08,3,6529,6828,15.11,5.31,30,47,0,0
4.8189e+05,2.6354e+08,3,6829,6842,15.25,5.54,30,47,0,0
4.8234e+05,2.6365e+08,3,6834,6742,15.32,4.21,30,47,0,0
4.8278e+05,2.6376e+08,3,6706,6314,15.39,3.2,30,47,0,0
4.8323e+05,2.6387e+08,3,6276,5957,15.29,3,30,48,0,0
4.8412e+05,2.6408e+08,3,5957,5971,15.37,3.5,30,48,0,0
4.8456e+05,2.6419e+08,3,5966,5942,15.41,3.36,30,48,0,0
4.8497e+05,2.643e+08,3,5940,5900,15.42,3.29,30,48,0,0
4.8542e+05,2.644e+08,3,5899,5842,15.4,3.49,30,48,0,0
4.8586e+05,2.6451e+08,3,5842,5857,15.43,3.07,30,48,0,0
4.8635e+05,2.6463e+08,3,5846,5742,15.52,2.98,30,48,0,0
4.8675e+05,2.6474e+08,3,5728,5600,15.58,2.64,30,48,0,0
4.8721e+05,2.6484e+08,3,5599,5585,15.52,3.09,30,48,0,0
4.8765e+05,2.6496e+08,3,5595,5728,15.57,2.89,30,49,0,0
4.8814e+05,2.6507e+08,3,5726,5714,15.5,2.88,30,49,0,0
4.8854e+05,2.6518e+08,3,5714,5714,15.52,2.94,30,49,0,0
4.8898e+05,2.6528e+08,3,5713,5700,15.58,2.82,30,49,0,0
4.8944e+05,2.6539e+08,3,5675,5414,15.63,2.58,30,49,0,0
4.8988e+05,2.655e+08,3,5415,5428,15.61,2.67,30,49,0,0
4.9029e+05,2.656e+08,3,5427,5385,15.59,2.45,30,49,0,0
4.9078e+05,2.6572e+08,3,5373,5257,15.56,2.63,30,49,0,0
4.9118e+05,2.6582e+08,3,5259,5414,15.61,2.81,30,49,0,0
4.917e+05,2.6594e+08,3,5417,5471,15.65,2.3,30,49,0,0
4.9215e+05,2.6605e+08,3,5462,5385,15.58,2.54,30,49,0,0
4.9256e+05,2.6615e+08,3,5375,5257,15.61,2.45,30,49,0,0
4.9301e+05,2.6626e+08,3,5255,5228,15.66,2.44,30,49,0,0
4.9346e+05,2.6637e+08,3,5234,5328,15.63,2.7,30,50,0,0
4.939e+05,2.6648e+08,3,5341,5514,15.64,2.82,30,50,0,0
4.9435e+05,2.6659e+08,3,5505,5414,15.57,2.66,30,50,0,0
4.9475e+05,2.6669e+08,3,5421,5514,15.55,2.91,30,50,0,0
4.9515e+05,2.6679e+08,3,5516,5714,15.52,3.23,30,50,0,0
4.9565e+05,2.6691e+08,3,5715,5728,15.53,3.25,30,50,0,0
4.961e+05,2.6702e+08,3,5726,5714,15.52,3,30,50,0,0
4.9649e+05,2.6712e+08,3,5711,5614,15.57,2.99,30,50,0,0
4.9699e+05,2.6724e+08,3,5624,5771,15.53,3.14,30,50,0,0
4.9744e+05,2.6735e+08,3,5777,5842,15.5,3.24,30,50,0,0
4.9785e+05,2.6746e+08,3,5838,5785,15.53,2.9,30,50,0,0
4.9825e+05,2.6756e+08,3,5783,5728,15.58,2.65,30,51,0,0
4.9874e+05,2.6768e+08,3,5717,5557,15.57,2.82,30,51,0,0
4.9915e+05,2.6778e+08,3,5556,5542,15.57,2.71,30,51,0,0
4.996e+05,2.6789e+08,3,5543,5600,15.57,2.76,30,51,0,0
5.0005e+05,2.68e+08,3,5603,5657,15.54,2.93,30,51,0,0
5.0045e+05,2.6811e+08,3,5658,5700,15.55,2.96,30,51,0,0
5.009e+05,2.6822e+08,3,5690,5571,15.64,2.82,30,51,0,0
5.0134e+05,2.6833e+08,3,5571,5571,15.62,2.64,30,51,0,0
5.018e+05,2.6844e+08,3,5574,5614,15.53,3.15,30,51,0,0
5.0224e+05,2.6855e+08,3,5622,5714,15.47,3.17,30,51,0,0
5.0269e+05,2.6866e+08,3,5736,5971,15.52,3.49,30,51,0,0
5.0309e+05,2.6876e+08,3,5968,5885,15.57,3.08,30,52,0,0
5.0354e+05,2.6887e+08,3,5876,5700,15.55,2.89,30,52,0,0
5.0439e+05,2.6908e+08,3,5703,5957,15.5,3.46,30,52,0,0
5.0484e+05,2.6919e+08,3,5952,5671,15.55,3,30,52,0,0
5.0528e+05,2.693e+08,3,5671,5671,15.55,3.05,30,52,0,0
5.0578e+05,2.6942e+08,3,5673,5700,15.55,2.85,30,52,0,0
5.0618e+05,2.6952e+08,3,5696,5657,15.57,3.12,30,52,0,0
5.0662e+05,2.6963e+08,3,5654,5528,15.6,2.88,30,52,0,0
5.0706e+05,2.6974e+08,3,5532,5685,15.55,2.7,30,52,0,0
5.0751e+05,2.6985e+08,3,5686,5771,15.59,2.91,30,52,0,0
5.0796e+05,2.6996e+08,3,5772,5800,15.6,2.99,30,53,0,0
5.0845e+05,2.7007e+08,3,5802,5828,15.58,3,30,53,0,0
5.0885e+05,2.7018e+08,3,5824,5614,15.56,3,30,53,0,0
5.0934e+05,2.703e+08,3,5630,5742,15.58,3,30,53,0,0
5.0975e+05,2.704e+08,3,5752,5900,15.54,3.38,30,53,0,0
5.1019e+05,2.7051e+08,3,5901,5928,15.49,3.31,30,53,0,0
5.1064e+05,2.7062e+08,3,5931,5971,15.52,3.35,30,53,0,0
5.1104e+05,2.7071e+08,3,5969,5900,15.55,3.33,30,53,0,0
5.1198e+05,2.7094e+08,3,5896,5814,15.52,3.15,30,53,0,0
5.1243e+05,2.7105e+08,3,5802,5685,15.48,3.02,30,54,0,0
5.1283e+05,2.7115e+08,3,5686,5700,15.46,3.33,30,54,0,0
5.1328e+05,2.7126e+08,3,5700,5714,15.51,3.28,30,54,0,0
5.1373e+05,2.7137e+08,3,5715,5728,15.49,3.24,30,54,0,0
5.1422e+05,2.7149e+08,3,5732,5785,15.49,3.43,30,54,0,0
5.1462e+05,2.7159e+08,3,5785,5785,15.46,3.22,30,54,0,0
5.1506e+05,2.717e+08,3,5773,5671,15.45,3,30,54,0,0
5.1547e+05,2.718e+08,3,5666,5600,15.5,2.86,30,54,0,0
5.1588e+05,2.7191e+08,3,5601,5714,15.5,3.16,30,54,0,0
5.1636e+05,2.7202e+08,3,5717,5785,15.47,3.06,30,54,0,0
5.1681e+05,2.7213e+08,3,5785,5785,15.43,3.34,30,54,0,0
5.1726e+05,2.7224e+08,3,5799,6000,15.44,3.37,30,55,0,0
5.1766e+05,2.7235e+08,3,5994,5885,15.52,2.94,30,55,0,0
5.1811e+05,2.7246e+08,3,5879,5742,15.46,3.02,30,55,0,0
5.1856e+05,2.7257e+08,3,5734,5657,15.54,2.9,30,55,0,0
5.1945e+05,2.7279e+08,3,5659,5728,15.51,2.83,30,55,0,0
5.199e+05,2.729e+08,3,5702,5500,15.54,3.09,30,55,0,0
5.2035e+05,2.7301e+08,3,5517,5671,15.57,3.05,30,55,0,0
5.2083e+05,2.7313e+08,3,5661,5600,15.51,3.08,30,55,0,0
5.2124e+05,2.7323e+08,3,5600,5600,15.5,3.01,30,55,0,0
5.2168e+05,2.7333e+08,3,5608,5714,15.49,2.75,30,56,0,0
5.2213e+05,2.7344e+08,3,5713,5700,15.62,3.12,30,56,0,0
5.2253e+05,2.7354e+08,3,5699,5685,15.55,3.08,30,56,0,0
5.2302e+05,2.7366e+08,3,5691,5757,15.51,3.1,30,56,0,0
5.2338e+05,2.7376e+08,3,5757,5757,15.56,3.3,30,56,0,0
5.2383e+05,2.7386e+08,3,5757,5785,15.52,3.18,30,56,0,0
5.2428e+05,2.7398e+08,3,5783,5742,15.5,3.21,30,56,0,0
5.2476e+05,2.7409e+08,3,5742,5757,15.52,3.04,30,56,0,0
5.2521e+05,2.742e+08,3,5745,5614,15.61,3.02,30,56,0,0
5.2562e+05,2.743e+08,3,5619,5828,15.5,3.1,30,56,0,0
5.261e+05,2.7442e+08,3,5827,5814,15.54,3.19,30,56,0,0
5.2651e+05,2.7452e+08,3,5812,5700,15.47,3.26,30,57,0,0
5.2696e+05,2.7463e+08,3,5700,5757,15.52,2.97,30,57,0,0
5.274e+05,2.7474e+08,3,5760,5800,15.52,3.07,30,57,0,0
5.2785e+05,2.7485e+08,3,5776,5614,15.57,2.87,30,57,0,0
5.2825e+05,2.7495e+08,3,5617,5771,15.49,3.37,30,57,0,0
5.2875e+05,2.7507e+08,3,5761,5657,15.57,3.36,30,57,0,0
5.2919e+05,2.7518e+08,3,5668,5771,15.6,3.18,30,57,0,0
5.2964e+05,2.7529e+08,3,5768,5742,15.45,3.28,30,57,0,0
5.3004e+05,2.7539e+08,3,5743,5814,15.56,3.04,30,57,0,0
5.3049e+05,2.755e+08,3,5809,5628,15.5,2.94,30,57,0,0
5.3098e+05,2.7562e+08,3,5646,5814,15.48,3.33,30,57,0,0
5.3138e+05,2.7572e+08,3,5811,5771,15.47,3.23,30,58,0,0
5.3184e+05,2.7583e+08,3,5773,5814,15.47,3.07,30,58,0,0
5.3273e+05,2.7605e+08,3,5813,5800,15.55,3.2,30,58,0,0
5.3407e+05,2.7638e+08,3,5800,5914,15.41,3.82,30,58,0,0
5.3451e+05,2.7649e+08,3,5917,6014,15.56,3.2,30,58,0,0
5.35e+05,2.766e+08,3,6002,5814,15.49,3.21,30,58,0,0
5.3544e+05,2.7671e+08,3,5824,5942,15.48,3.46,30,59,0,0
5.359e+05,2.7682e+08,3,5920,5685,15.55,3.09,30,59,0,0
5.3679e+05,2.7704e+08,3,5684,5657,15.56,3,30,59,0,0
5.3724e+05,2.7715e+08,3,5655,5642,15.49,3,30,59,0,0
5.3772e+05,2.7727e+08,3,5648,5714,15.59,2.94,30,59,0,0
5.3813e+05,2.7737e+08,3,5717,5800,15.57,3.1,30,59,0,0
5.3861e+05,2.7748e+08,3,5793,5628,15.52,3.24,30,59,0,0
5.3905e+05,2.7759e+08,3,5635,5742,15.51,3.11,30,59,0,0
5.395e+05,2.777e+08,3,5755,5942,15.51,3.3,30,59,0,0
5.3995e+05,2.7781e+08,3,5948,6028,15.42,3.69,30,59,0,0
5.4036e+05,2.7791e+08,3,6022,5914,15.39,3.32,30,60,0,0
5.408e+05,2.7802e+08,3,5914,5928,15.42,3.36,30,60,0,0
5.4124e+05,2.7813e+08,3,5926,5885,15.48,2.91,30,60,0,0
5.4169e+05,2.7823e+08,3,5873,5714,15.42,2.99,30,60,0,0
5.4214e+05,2.7835e+08,3,5704,5571,15.44,3.09,30,60,0,0
5.4259e+05,2.7846e+08,3,5584,5800,15.41,3.31,30,60,0,0
5.4303e+05,2.7857e+08,3,5793,5728,15.49,2.86,30,60,0,0
5.4348e+05,2.7868e+08,3,5734,5800,15.48,3.37,30,60,0,0
5.4389e+05,2.7878e+08,3,5795,5685,15.56,3.07,30,60,0,0
5.4433e+05,2.7889e+08,3,5683,5614,15.57,2.51,30,60,0,0
5.4481e+05,2.79e+08,3,5618,5685,15.44,3.4,30,61,0,0
5.4526e+05,2.7911e+08,3,5688,5728,15.52,3.01,30,61,0,0
5.4571e+05,2.7923e+08,3,5733,5785,15.51,2.92,30,61,0,0
5.4608e+05,2.7932e+08,3,5783,5714,15.57,2.99,30,61,0,0
5.4657e+05,2.7943e+08,3,5702,5585,15.52,2.54,30,61,0,0
5.4701e+05,2.7954e+08,3,5576,5485,15.51,2.88,30,61,0,0
5.4746e+05,2.7965e+08,3,5486,5514,15.52,2.9,30,61,0,0
5.4875e+05,2.7998e+08,3,5513,5414,15.52,2.73,30,61,0,0
5.4924e+05,2.801e+08,3,5417,5442,15.55,2.83,30,61,0,0
5.4964e+05,2.802e+08,3,5447,5514,15.52,2.86,30,61,0,0
5.5009e+05,2.803e+08,3,5512,5485,15.54,2.67,30,62,0,0
5.5057e+05,2.8042e+08,3,5475,5385,15.52,2.47,30,62,0,0
5.5102e+05,2.8053e+08,3,5378,5285,15.6,2.24,30,62,0,0
5.5143e+05,2.8063e+08,3,5284,5271,15.52,2.33,30,62,0,0
5.5187e+05,2.8074e+08,3,5270,5257,15.51,2.32,30,62,0,0
5.5233e+05,2.8085e+08,3,5254,5228,15.49,2.33,30,62,0,0
5.5277e+05,2.8096e+08,3,5226,5157,15.57,2.24,30,62,0,0
5.5322e+05,2.8107e+08,3,5157,5157,15.49,2.22,30,62,0,0
5.5366e+05,2.8118e+08,3,5154,5128,15.55,2.21,30,62,0,0
5.5411e+05,2.8129e+08,3,5126,5114,15.57,2.24,30,62,0,0
5.5451e+05,2.8139e+08,3,5115,5257,15.51,2.29,30,62,0,0
5.554e+05,2.8161e+08,3,5255,5114,15.57,2.29,30,62,0,0
5.5634e+05,2.8183e+08,3,5130,5514,15.51,2.62,30,63,0,0
5.5678e+05,2.8194e+08,3,5499,5342,15.48,2.55,30,63,0,0
5.5723e+05,2.8205e+08,3,5336,5257,15.43,2.58,30,63,0,0
5.5763e+05,2.8215e+08,3,5253,5171,15.49,2.08,30,63,0,0
5.5808e+05,2.8226e+08,3,5160,4928,15.51,1.97,30,63,0,0
5.5853e+05,2.8237e+08,3,4915,4785,15.49,1.8,30,63,0,0
5.5941e+05,2.8258e+08,3,4786,4842,15.54,2.12,30,63,0,0
5.5986e+05,2.8269e+08,3,4863,5142,15.5,2.49,30,63,0,0
5.603e+05,2.828e+08,3,5147,5228,15.47,2.46,30,63,0,0
