LineNo,TimeUS,Instance,RPM,RawRPM,Volt,Curr,Temp,CTot,MotTemp,Err
1547,19942804,2,0,0,16.62,0.06,27,0,0,0
2004,20061164,2,0,0,16.62,0.06,27,0,0,0
2423,20164312,2,0,0,16.62,0.06,27,0,0,0
3284,20377938,2,0,0,16.62,0.06,27,0,0,0
3696,20480915,2,0,0,16.62,0.06,27,0,0,0
4107,20583808,2,0,0,16.61,0.05,28,0,0,0
4563,20698163,2,0,0,16.62,0.06,27,0,0,0
4979,20804923,2,0,0,16.62,0.06,27,0,0,0
5391,20906848,2,0,0,16.61,0.05,28,0,0,0
5805,21010660,2,0,0,16.62,0.05,27,0,0,0
6216,21113854,2,0,0,16.62,0.05,27,0,0,0
6669,21224704,2,0,0,16.61,0.06,27,0,0,0
7117,21335340,2,0,0,16.62,0.06,27,0,0,0
7530,21438175,2,0,0,16.62,0.06,27,0,0,0
7946,21544916,2,0,0,16.62,0.06,27,0,0,0
8357,21649045,2,0,0,16.62,0.06,27,0,0,0
8799,21757037,2,0,0,16.61,0.06,27,0,0,0
9548,21968966,2,0,0,16.62,0.06,27,0,0,0
10001,22079869,2,0,0,16.62,0.06,27,0,0,0
10374,22175855,2,0,0,16.62,0.06,27,0,0,0
10826,22287281,2,0,0,16.62,0.06,27,0,0,0
11239,22390065,2,0,0,16.61,0.06,27,0,0,0
11692,22503663,2,0,0,16.61,0.06,27,0,0,0
12102,22607904,2,0,0,16.61,0.06,28,0,0,0
12548,22712819,2,0,0,16.62,0.05,27,0,0,0
12964,22818669,2,0,0,16.62,0.06,27,0,0,0
13378,22924314,2,0,0,16.61,0.06,27,0,0,0
13792,23027812,2,0,0,16.62,0.05,27,0,0,0
14247,23139201,2,0,0,16.62,0.05,27,0,0,0
14661,23243327,2,0,0,16.61,0.05,27,0,0,0
15122,23354080,2,0,0,16.62,0.05,27,0,0,0
15951,23562564,2,0,0,16.61,0.06,27,0,0,0
16405,23674590,2,0,0,16.62,0.05,27,0,0,0
16825,23781948,2,0,0,16.62,0.06,27,0,0,0
17242,23884640,2,0,0,16.61,0.06,27,0,0,0
17690,23993695,2,0,0,16.61,0.06,27,0,0,0
18108,24097924,2,0,0,16.61,0.05,27,0,0,0
18522,24200126,2,0,0,16.62,0.05,27,0,0,0
18972,24315171,2,0,0,16.62,0.05,27,0,0,0
19424,24429881,2,0,0,16.61,0.05,27,0,0,0
19837,24530167,2,0,0,16.62,0.05,27,0,0,0
20241,24631669,2,0,0,16.61,0.05,27,0,0,0
20658,24739813,2,0,0,16.61,0.05,27,0,0,0
21112,24851271,2,0,0,16.62,0.05,27,0,0,0
21524,24955077,2,0,0,16.62,0.05,28,0,0,0
21934,25058073,2,0,0,16.61,0.05,27,0,0,0
22349,25164656,2,0,0,16.61,0.06,27,0,0,0
22804,25275351,2,0,0,16.61,0.06,27,0,0,0
23220,25379106,2,0,0,16.62,0.05,28,0,0,0
23638,25483814,2,0,0,16.61,0.06,27,0,0,0
24055,25588877,2,0,0,16.61,0.05,27,0,0,0
24510,25703614,2,0,0,16.61,0.06,27,0,0,0
24921,25807595,2,0,0,16.61,0.06,27,0,0,0
25342,25915132,2,0,0,16.62,0.06,27,0,0,0
25753,26016146,2,0,0,16.61,0.06,27,0,0,0
26165,26119188,2,0,0,16.61,0.06,27,0,0,0
26616,26229709,2,0,0,16.61,0.05,28,0,0,0
27031,26333600,2,0,0,16.62,0.06,27,0,0,0
27484,26448242,2,0,0,16.61,0.06,27,0,0,0
27925,26552724,2,0,0,16.61,0.06,27,0,0,0
28341,26657716,2,0,0,16.61,0.06,27,0,0,0
28755,26759722,2,0,0,16.62,0.06,28,0,0,0
29171,26865316,2,0,0,16.61,0.06,27,0,0,0
29583,26967838,2,0,0,16.61,0.06,27,0,0,0
30035,27080101,2,0,0,16.61,0.06,27,0,0,0
30481,27191722,2,0,0,16.62,0.06,27,0,0,0
30898,27295448,2,0,0,16.62,0.06,27,0,0,0
31312,27399849,2,0,0,16.62,0.06,27,0,0,0
31730,27504345,2,0,0,16.61,0.06,27,0,0,0
32181,27615347,2,0,0,16.62,0.06,27,0,0,0
32595,27717589,2,0,0,16.61,0.06,27,0,0,0
33048,27831069,2,0,0,16.61,0.06,27,0,0,0
33461,27936307,2,0,0,16.62,0.06,27,0,0,0
33871,28039893,2,0,0,16.61,0.05,28,0,0,0
34283,28144579,2,0,0,16.61,0.06,27,0,0,0
34696,28247320,2,0,0,16.61,0.06,27,0,0,0
35178,28366392,2,0,0,16.61,0.06,27,0,0,0
35589,28468704,2,0,0,16.61,0.06,27,0,0,0
36001,28569837,2,0,0,16.61,0.06,27,0,0,0
36419,28680133,2,0,0,16.61,0.06,28,0,0,0
36830,28783363,2,0,0,16.62,0.06,27,0,0,0
37285,28898609,2,0,0,16.61,0.06,27,0,0,0
37692,28998957,2,0,0,16.62,0.06,27,0,0,0
38144,29110173,2,0,0,16.61,0.06,28,0,0,0
38554,29211295,2,0,0,16.63,0.06,27,0,0,0
38972,29318675,2,0,0,16.62,0.06,27,0,0,0
39378,29419583,2,0,0,16.61,0.06,27,0,0,0
39831,29530862,2,0,0,16.61,0.06,27,0,0,0
40239,29632035,2,0,0,16.62,0.06,27,0,0,0
40730,29748133,2,0,0,16.62,0.06,27,0,0,0
41142,29849656,2,0,0,16.61,0.05,27,0,0,0
41558,29954654,2,0,0,16.61,0.05,27,0,0,0
42012,30066884,2,0,0,16.61,0.05,27,0,0,0
42430,30172772,2,0,0,16.62,0.05,27,0,0,0
43267,30381602,2,0,0,16.61,0.06,27,0,0,0
43723,30492739,2,0,0,16.61,0.05,28,0,0,0
44136,30595780,2,0,0,16.61,0.06,27,0,0,0
44591,30711681,2,0,0,16.62,0.06,27,0,0,0
45009,30812157,2,0,0,16.61,0.05,28,0,0,0
45421,30912770,2,0,0,16.61,0.05,28,0,0,0
45878,31029349,2,0,0,16.62,0.05,27,0,0,0
46296,31133870,2,0,0,16.62,0.05,27,0,0,0
47123,31340235,2,0,0,16.62,0.06,27,0,0,0
47570,31451292,2,0,0,16.62,0.06,27,0,0,0
47988,31556791,2,0,0,16.61,0.06,27,0,0,0
48402,31659865,2,0,0,16.62,0.05,27,0,0,0
48809,31760583,2,0,0,16.61,0.06,27,0,0,0
49264,31872133,2,0,0,16.61,0.06,27,0,0,0
49712,31980437,2,0,0,16.62,0.06,27,0,0,0
50125,32084119,2,0,0,16.61,0.06,27,0,0,0
50576,32193935,2,0,0,16.61,0.06,27,0,0,0
50994,32297704,2,0,0,16.62,0.06,28,0,0,0
51406,32403842,2,0,0,16.61,0.06,27,0,0,0
51850,32510641,2,0,0,16.62,0.06,27,0,0,0
52259,32615086,2,0,0,16.62,0.06,27,0,0,0
52674,32720968,2,0,0,16.62,0.05,27,0,0,0
53535,32940613,2,0,0,16.62,0.05,27,0,0,0
53944,33045562,2,0,0,16.62,0.05,27,0,0,0
54361,33149658,2,0,0,16.61,0.05,27,0,0,0
54804,33257661,2,0,0,16.62,0.05,27,0,0,0
55222,33364916,2,0,0,16.62,0.05,27,0,0,0
55634,33468671,2,0,0,16.62,0.05,27,0,0,0
56045,33572087,2,0,0,16.62,0.05,27,0,0,0
56293,50820305,2,0,0,16.62,0.05,27,0,0,0
56711,50926167,2,0,0,16.62,0.05,27,0,0,0
57126,51026927,2,0,0,16.61,0.05,27,0,0,0
57540,51134418,2,0,0,16.61,0.05,27,0,0,0
57953,51235809,2,0,0,16.61,0.05,27,0,0,0
58817,51452930,2,0,0,16.61,0.05,27,0,0,0
59267,51564938,2,0,0,16.61,0.05,27,0,0,0
59688,51669121,2,0,0,16.62,0.05,27,0,0,0
60098,51774204,2,0,0,16.61,0.05,27,0,0,0
60542,51883246,2,0,0,16.62,0.06,27,0,0,0
60963,51989362,2,0,0,16.62,0.05,27,0,0,0
61374,52094660,2,0,0,16.61,0.05,27,0,0,0
61828,52206266,2,0,0,16.62,0.05,27,0,0,0
62241,52310617,2,0,0,16.62,0.06,27,0,0,0
62657,52413332,2,0,0,16.62,0.06,27,0,0,0
63104,52526116,2,0,0,16.62,0.05,27,0,0,0
63519,52629124,2,0,0,16.62,0.05,27,0,0,0
63934,52735613,2,0,0,16.61,0.06,27,0,0,0
64350,52841118,2,0,0,16.61,0.06,27,0,0,0
64774,52951930,2,0,0,16.62,0.06,27,0,0,0
65226,53058338,2,0,0,16.61,0.05,27,0,0,0
65642,53167720,2,0,0,16.61,0.05,27,0,0,0
66084,53271259,2,0,0,16.62,0.05,27,0,0,0
66496,53373877,2,0,0,16.63,0.06,27,0,0,0
66861,53487107,2,0,0,16.61,0.05,27,0,0,0
67275,53589320,2,0,0,16.61,0.05,27,0,0,0
67691,53693792,2,0,0,16.62,0.05,27,0,0,0
68140,53804738,2,0,0,16.61,0.05,27,0,0,0
68554,53908967,2,0,0,16.62,0.05,27,0,0,0
69010,54020335,2,0,0,16.62,0.05,27,0,0,0
69383,54118974,2,0,0,16.61,0.05,27,0,0,0
69840,54231819,2,0,0,16.62,0.05,27,0,0,0
70667,54439742,2,0,0,16.61,0.05,27,0,0,0
71089,54550059,2,0,0,16.61,0.06,27,0,0,0
71503,54652104,2,0,0,16.61,0.05,27,0,0,0
71956,54767157,2,0,0,16.62,0.06,27,0,0,0
72375,54871944,2,0,0,16.62,0.06,27,0,0,0
72789,54978403,2,0,0,16.61,0.05,27,0,0,0
73207,55082329,2,0,0,16.61,0.05,27,0,0,0
73626,55189185,2,0,0,16.61,0.05,27,0,0,0
74039,55293643,2,0,0,16.61,0.05,27,0,0,0
74495,55404952,2,0,0,16.61,0.05,27,0,0,0
74909,55509551,2,0,0,16.61,0.05,27,0,0,0
75362,55622562,2,0,0,16.61,0.05,27,0,0,0
75737,55720545,2,0,0,16.61,0.05,27,0,0,0
76191,55831201,2,0,0,16.61,0.05,27,0,0,0
76642,55942191,2,0,0,16.62,0.05,27,0,0,0
77062,56050747,2,0,0,16.61,0.05,27,0,0,0
77473,56156960,2,0,0,16.61,0.05,27,0,0,0
77890,56259348,2,0,0,16.61,0.05,27,0,0,0
78270,56361702,2,0,0,16.62,0.05,27,0,0,0
78722,56476613,2,0,0,16.61,0.05,27,0,0,0
79138,56578332,2,0,0,16.62,0.05,27,0,0,0
79591,56694257,2,0,0,16.62,0.05,27,0,0,0
80007,56798899,2,0,0,16.62,0.05,27,0,0,0
80419,56904047,2,0,0,16.62,0.05,27,0,0,0
80836,57003882,2,0,0,16.62,0.06,27,0,0,0
81290,57120585,2,0,0,16.61,0.05,27,0,0,0
81706,57225946,2,0,0,16.62,0.05,27,0,0,0
82114,57328944,2,0,0,16.62,0.05,27,0,0,0
82573,57441923,2,0,0,16.61,0.05,27,0,0,0
82986,57546870,2,0,0,16.62,0.05,27,0,0,0
83400,57649458,2,0,0,16.61,0.05,27,0,0,0
83853,57763917,2,0,0,16.61,0.05,27,0,0,0
84266,57863751,2,0,0,16.61,0.06,27,0,0,0
84682,57969338,2,0,0,16.61,0.06,27,0,0,0
85518,58183765,2,0,0,16.61,0.05,27,0,0,0
85935,58289561,2,0,0,16.61,0.05,27,0,0,0
86390,58401957,2,0,0,16.62,0.05,27,0,0,0
86799,58504116,2,0,0,16.62,0.05,27,0,0,0
87258,58620911,2,0,0,16.62,0.05,27,0,0,0
87676,58727270,2,0,0,16.62,0.05,27,0,0,0
88090,58828392,2,0,0,16.62,0.05,27,0,0,0
88505,58936909,2,0,0,16.62,0.05,27,0,0,0
88962,59051745,2,0,0,16.61,0.05,27,0,0,0
89368,59155188,2,0,0,16.62,0.06,27,0,0,0
89825,59268381,2,0,0,16.61,0.06,27,0,0,0
90235,59370886,2,0,0,16.61,0.05,27,0,0,0
90687,59482843,2,0,0,16.62,0.05,27,0,0,0
91102,59587046,2,0,0,16.61,0.06,27,0,0,0
91558,59700849,2,0,0,16.61,0.06,27,0,0,0
91971,59802862,2,0,0,16.62,0.05,27,0,0,0
92386,59910943,2,0,0,16.62,0.05,27,0,0,0
92807,60013165,2,0,0,16.62,0.06,27,0,0,0
93223,60118351,2,0,0,16.62,0.06,27,0,0,0
93677,60231171,2,0,0,16.62,0.06,27,0,0,0
94091,60337607,2,0,0,16.62,0.06,27,0,0,0
94508,60442934,2,0,0,16.62,0.05,27,0,0,0
94961,60554312,2,0,0,16.61,0.06,27,0,0,0
95374,60657304,2,0,0,16.61,0.05,27,0,0,0
95785,60761858,2,0,0,16.61,0.05,27,0,0,0
96240,60871871,2,0,0,16.61,0.06,27,0,0,0
96691,60982712,2,0,0,16.62,0.06,27,0,0,0
97109,61085321,2,0,0,16.61,0.06,27,0,0,0
97524,61194057,2,0,0,16.62,0.05,27,0,0,0
97937,61297617,2,0,0,16.61,0.05,27,0,0,0
98391,61407920,2,0,0,16.62,0.05,27,0,0,0
99213,61622298,2,0,0,16.62,0.05,27,0,0,0
99627,61730046,2,0,0,16.62,0.05,27,0,0,0
100045,61834736,2,0,0,16.62,0.06,27,0,0,0
100453,61936956,2,0,0,16.61,0.05,27,0,0,0
100915,62050881,2,0,0,16.62,0.05,27,0,0,0
101327,62156850,2,0,0,16.61,0.05,27,0,0,0
101740,62258685,2,0,0,16.62,0.05,27,0,0,0
102156,62364654,2,0,0,16.62,0.05,27,0,0,0
102609,62477101,2,0,0,16.61,0.05,27,0,0,0
103027,62583873,2,0,0,16.61,0.05,27,0,0,0
103470,62690784,2,0,0,16.63,0.05,27,0,0,0
103882,62793828,2,0,0,16.62,0.06,27,0,0,0
104334,62907927,2,0,0,16.62,0.05,27,0,0,0
104749,63008142,2,0,0,16.62,0.05,27,0,0,0
105202,63122535,2,0,0,16.61,0.05,27,0,0,0
105615,63223341,2,0,0,16.61,0.05,27,0,0,0
106026,63327965,2,0,0,16.61,0.05,27,0,0,0
106484,63442189,2,0,0,16.62,0.05,27,0,0,0
106896,63546660,2,0,0,16.62,0.05,27,0,0,0
107349,63658739,2,0,0,16.61,0.05,27,0,0,0
107761,63763352,2,0,0,16.61,0.05,27,0,0,0
108174,63863855,2,0,0,16.61,0.05,27,0,0,0
108629,63978301,2,0,0,16.62,0.05,27,0,0,0
109051,64085657,2,0,0,16.62,0.05,27,0,0,0
109423,64180144,2,0,0,16.61,0.05,27,0,0,0
109880,64294777,2,0,0,16.62,0.05,27,0,0,0
110745,64509298,2,0,0,16.61,0.05,27,0,0,0
111162,64613738,2,0,0,16.61,0.05,27,0,0,0
111574,64718663,2,0,0,16.62,0.05,27,0,0,0
112028,64829756,2,0,0,16.61,0.05,27,0,0,0
112439,64934182,2,0,0,16.62,0.05,27,0,0,0
112859,65038269,2,0,0,16.61,0.05,27,0,0,0
113273,65143180,2,0,0,16.61,0.05,27,0,0,0
113726,65256291,2,0,0,16.61,0.05,27,0,0,0
114177,65369602,2,0,0,16.62,0.05,27,0,0,0
114596,65474574,2,0,0,16.62,0.05,27,0,0,0
115013,65580601,2,0,0,16.62,0.05,27,0,0,0
115424,65688337,2,0,0,16.62,0.05,27,0,0,0
115837,65789559,2,0,0,16.61,0.05,27,0,0,0
115976,104864921,2,0,0,16.61,0.05,27,1,0,0
116385,104963738,2,0,0,16.61,0.05,27,1,0,0
116844,105072066,2,0,0,16.61,0.05,27,1,0,0
117301,105176644,2,0,0,16.61,0.06,27,1,0,0
117757,105277052,2,0,0,16.61,0.05,27,1,0,0
118211,105383189,2,0,0,16.61,0.05,27,1,0,0
118704,105498346,2,0,0,16.61,0.05,27,1,0,0
119163,105603669,2,0,0,16.61,0.05,27,1,0,0
120074,105812693,2,0,0,16.61,0.05,27,1,0,0
120559,105919187,2,0,0,16.62,0.05,27,1,0,0
121056,106032114,2,0,0,16.61,0.05,27,1,0,0
121510,106136603,2,0,0,16.61,0.05,27,1,0,0
121965,106240617,2,0,0,16.62,0.05,27,1,0,0
122464,106355133,2,0,0,16.61,0.05,27,1,0,0
123377,106570587,2,0,0,16.61,0.06,27,1,0,0
123838,106675065,2,0,0,16.61,0.05,27,1,0,0
124288,106779959,2,0,0,16.61,0.05,27,1,0,0
124745,106888676,2,0,0,16.61,0.04,27,1,0,0
125243,107000163,2,19,242,16.61,0.06,27,1,0,0
126190,107213552,2,276,1042,16.57,0.17,27,1,0,0
126640,107316870,2,1049,1257,16.59,0.14,27,1,0,0
127137,107428722,2,1260,1300,16.6,0.13,28,1,0,0
127913,107645873,2,1316,1342,16.6,0.12,27,1,0,0
128365,107750271,2,1342,1342,16.6,0.12,27,1,0,0
128819,107852077,2,1342,1342,16.6,0.12,27,1,0,0
129315,107965844,2,1343,1357,16.6,0.12,27,1,0,0
129770,108070643,2,1357,1357,16.6,0.12,27,1,0,0
130228,108179121,2,1357,1357,16.59,0.12,27,1,0,0
130684,108286786,2,1355,1342,16.6,0.12,27,1,0,0
131594,108497864,2,1342,1342,16.6,0.12,28,1,0,0
132060,108609610,2,1342,1342,16.6,0.12,27,1,0,0
132898,108822154,2,1357,1357,16.6,0.12,27,1,0,0
133351,108929165,2,1357,1357,16.6,0.12,27,1,0,0
133850,109043834,2,1355,1342,16.59,0.12,27,1,0,0
134267,109145725,2,1342,1357,16.59,0.12,27,1,0,0
134767,109256635,2,1357,1357,16.59,0.12,28,1,0,0
135221,109361403,2,1355,1342,16.6,0.12,27,1,0,0
135675,109462314,2,1343,1371,16.59,0.12,27,1,0,0
136128,109568662,2,1370,1342,16.59,0.12,27,1,0,0
136631,109680876,2,1342,1357,16.6,0.11,27,1,0,0
137049,109785628,2,1357,1371,16.59,0.12,27,1,0,0
137994,109999630,2,1370,1357,16.6,0.12,27,1,0,0
138453,110108205,2,1357,1371,16.59,0.11,28,1,0,0
138951,110219824,2,1370,1357,16.6,0.11,28,1,0,0
139405,110325964,2,1357,1357,16.59,0.12,27,1,0,0
139907,110440685,2,1358,1371,16.6,0.12,27,1,0,0
140814,110645925,2,1371,1371,16.58,0.12,28,1,0,0
141307,110757855,2,1369,1357,16.59,0.12,28,1,0,0
142252,110970938,2,1356,1342,16.6,0.12,28,1,0,0
142707,111074625,2,1343,1357,16.58,0.12,28,1,0,0
143200,111188048,2,1357,1357,16.59,0.12,27,1,0,0
143652,111293214,2,1357,1357,16.6,0.12,27,1,0,0
144106,111393667,2,1357,1357,16.59,0.12,27,1,0,0
145094,111613280,2,1357,1357,16.6,0.12,27,1,0,0
145999,111821847,2,1356,1342,16.6,0.12,27,1,0,0
146450,111928382,2,1342,1357,16.58,0.12,27,1,0,0
146953,112041908,2,1357,1357,16.59,0.12,28,1,0,0
147370,112141741,2,1355,1328,16.62,0.07000000000000001,27,1,0,0
147867,112256970,2,1265,328,16.61,0.02,27,1,0,0
148322,112364717,2,298,0,16.61,0.03,27,1,0,0
149265,112578178,2,0,0,16.61,0.06,27,1,0,0
149721,112688996,2,0,0,16.61,0.06,28,1,0,0
150218,112800942,2,0,0,16.61,0.06,28,1,0,0
150709,112912705,2,0,0,16.61,0.06,27,1,0,0
151162,113013903,2,0,0,16.61,0.05,27,1,0,0
151616,113121958,2,0,0,16.61,0.05,28,1,0,0
152072,113227120,2,0,0,16.61,0.05,27,1,0,0
152565,113340893,2,0,0,16.6,0.05,28,1,0,0
153022,113446930,2,0,0,16.61,0.06,27,1,0,0
153477,113555258,2,0,0,16.61,0.05,27,1,0,0
153933,113662142,2,0,0,16.61,0.05,27,1,0,0
154349,113767278,2,0,0,16.61,0.06,27,1,0,0
154838,113877288,2,0,0,16.61,0.05,27,1,0,0
155334,113993297,2,0,0,16.61,0.05,28,1,0,0
155711,114089657,2,0,0,16.61,0.06,27,1,0,0
156211,114204915,2,0,0,16.61,0.05,27,1,0,0
156703,114317621,2,0,0,16.61,0.05,27,1,0,0
157155,114424888,2,0,0,16.61,0.06,27,1,0,0
157608,114529755,2,0,0,16.61,0.05,27,1,0,0
158109,114643884,2,0,0,16.61,0.05,27,1,0,0
158557,114749146,2,0,0,16.61,0.06,27,1,0,0
159013,114854292,2,0,0,16.61,0.06,28,1,0,0
159508,114968092,2,0,0,16.6,0.05,27,1,0,0
159963,115070273,2,0,0,16.61,0.05,27,1,0,0
160416,115179140,2,0,0,16.61,0.06,27,1,0,0
160869,115286142,2,0,0,16.61,0.06,27,1,0,0
161368,115401163,2,0,0,16.6,0.05,27,1,0,0
161816,115504688,2,0,0,16.61,0.05,28,1,0,0
162280,115611400,2,0,0,16.61,0.05,28,1,0,0
162731,115718619,2,0,0,16.61,0.05,27,1,0,0
163229,115831743,2,0,0,16.61,0.05,27,1,0,0
164130,116042171,2,0,0,16.61,0.05,28,1,0,0
164630,116160969,2,0,0,16.61,0.05,27,1,0,0
165084,116264904,2,0,0,16.61,0.05,27,1,0,0
165531,116368836,2,0,0,16.61,0.05,27,1,0,0
166034,116486037,2,0,0,16.61,0.05,27,1,0,0
166487,116589639,2,0,0,16.61,0.05,27,1,0,0
166943,116701129,2,0,0,16.61,0.06,27,1,0,0
167396,116805578,2,0,0,16.61,0.06,27,1,0,0
167847,116913784,2,0,0,16.61,0.06,27,1,0,0
168303,117019647,2,0,0,16.61,0.06,27,1,0,0
168757,117126658,2,0,0,16.61,0.06,27,1,0,0
169254,117239312,2,0,0,16.61,0.06,27,1,0,0
169705,117349883,2,0,0,16.61,0.06,27,1,0,0
170158,117454057,2,0,0,16.61,0.06,27,1,0,0
170610,117561404,2,0,0,16.61,0.06,27,1,0,0
171066,117664747,2,0,0,16.61,0.06,27,1,0,0
171556,117777860,2,0,0,16.61,0.06,27,1,0,0
172049,117891243,2,0,0,16.61,0.06,27,1,0,0
172502,117996713,2,0,0,16.61,0.06,27,1,0,0
172957,118105292,2,0,0,16.61,0.06,27,1,0,0
173409,118209130,2,0,0,16.61,0.06,28,1,0,0
174357,118428081,2,0,0,16.61,0.06,27,1,0,0
174810,118534634,2,0,0,16.61,0.06,27,1,0,0
175266,118639361,2,0,0,16.61,0.06,27,1,0,0
175765,118753714,2,0,0,16.61,0.06,27,1,0,0
176219,118856868,2,0,0,16.61,0.06,27,1,0,0
176672,118963161,2,0,0,16.61,0.06,27,1,0,0
177128,119066886,2,0,0,16.61,0.06,27,1,0,0
178083,119294730,2,0,0,16.61,0.05,27,1,0,0
178540,119399791,2,0,0,16.61,0.06,27,1,0,0
178993,119505742,2,0,0,16.61,0.06,27,1,0,0
179448,119609695,2,0,0,16.61,0.06,27,1,0,0
180366,119829586,2,0,0,16.61,0.05,27,1,0,0
180814,119934143,2,0,0,16.61,0.06,27,1,0,0
181314,120047111,2,0,0,16.61,0.05,27,1,0,0
181764,120152708,2,0,0,16.61,0.06,27,1,0,0
182260,120265948,2,0,0,16.61,0.06,27,1,0,0
182715,120374180,2,0,0,16.61,0.06,27,1,0,0
183170,120478651,2,0,0,16.61,0.05,27,1,0,0
183668,120594296,2,0,0,16.61,0.05,27,1,0,0
184122,120701752,2,0,0,16.61,0.05,27,1,0,0
184581,120807936,2,0,0,16.61,0.06,27,1,0,0
184994,120909264,2,0,0,16.61,0.05,28,1,0,0
185495,121022066,2,0,0,16.61,0.06,27,1,0,0
186400,121233512,2,0,0,16.61,0.06,27,1,0,0
186855,121341776,2,0,0,16.6,0.05,27,1,0,0
187350,121456727,2,0,0,16.61,0.05,27,1,0,0
187800,121561825,2,0,0,16.6,0.06,27,1,0,0
188720,121777800,2,0,0,16.61,0.06,27,1,0,0
189173,121879755,2,0,0,16.61,0.06,27,1,0,0
189664,121992690,2,0,0,16.61,0.06,27,1,0,0
190117,122098663,2,0,0,16.61,0.06,27,1,0,0
190614,122210887,2,0,0,16.61,0.06,27,1,0,0
191066,122317342,2,0,0,16.61,0.06,27,1,0,0
191519,122421196,2,0,0,16.61,0.05,27,1,0,0
192015,122535818,2,0,0,16.61,0.05,27,1,0,0
192470,122640451,2,0,0,16.61,0.06,27,1,0,0
192924,122745885,2,0,0,16.61,0.06,27,1,0,0
193420,122859609,2,0,0,16.61,0.06,27,1,0,0
193876,122969111,2,0,0,16.61,0.05,27,1,0,0
194330,123070062,2,0,0,16.61,0.05,27,1,0,0
194785,123179583,2,0,0,16.61,0.05,27,1,0,0
195237,123287039,2,0,0,16.61,0.06,27,1,0,0
195734,123399900,2,0,0,16.61,0.06,27,1,0,0
196191,123510063,2,0,0,16.61,0.05,27,1,0,0
196644,123612599,2,0,0,16.61,0.06,27,1,0,0
197101,123722733,2,0,0,16.61,0.05,27,1,0,0
197600,123836152,2,0,0,16.61,0.05,27,1,0,0
198011,123935340,2,0,0,16.61,0.05,27,1,0,0
198511,124047790,2,0,0,16.61,0.06,27,1,0,0
198961,124155093,2,0,0,16.61,0.06,27,1,0,0
199462,124269821,2,0,0,16.6,0.06,27,1,0,0
199911,124376346,2,0,0,16.61,0.06,27,1,0,0
200409,124496631,2,0,0,16.61,0.06,27,1,0,0
200821,124591960,2,0,0,16.61,0.06,27,1,0,0
201278,124702677,2,0,0,16.61,0.06,27,1,0,0
201778,124819285,2,0,0,16.61,0.05,27,1,0,0
202194,124920637,2,0,0,16.61,0.06,27,1,0,0
202648,125023328,2,0,0,16.62,0.06,27,1,0,0
203144,125141654,2,0,0,16.61,0.06,27,1,0,0
203640,125257093,2,0,0,16.61,0.06,27,1,0,0
204090,125360911,2,0,0,16.61,0.06,27,1,0,0
204547,125470220,2,0,0,16.61,0.06,27,1,0,0
205005,125577267,2,0,0,16.61,0.06,27,1,0,0
205910,125789676,2,0,0,16.61,0.06,27,1,0,0
206327,125894269,2,0,0,16.61,0.06,27,1,0,0
206830,126011743,2,0,0,16.61,0.06,27,1,0,0
207283,126117662,2,0,0,16.61,0.06,27,1,0,0
207736,126222674,2,0,0,16.61,0.06,27,1,0,0
208190,126331935,2,0,0,16.61,0.06,27,1,0,0
208689,126445947,2,0,0,16.61,0.06,27,1,0,0
209144,126552903,2,0,0,16.61,0.05,27,1,0,0
209601,126658337,2,0,0,16.61,0.06,27,1,0,0
210064,126772571,2,0,0,16.61,0.06,27,1,0,0
210515,126875891,2,0,0,16.61,0.06,27,1,0,0
211011,126986331,2,0,0,16.61,0.06,27,1,0,0
211508,127102270,2,0,0,16.61,0.06,27,1,0,0
211613,197669119,2,0,0,16.6,0.06,28,2,0,0
212012,197760110,2,0,0,16.6,0.06,28,2,0,0
212475,197866121,2,0,0,16.6,0.06,28,2,0,0
212931,197974048,2,0,0,16.6,0.06,28,2,0,0
213385,198078588,2,0,0,16.6,0.06,28,2,0,0
213878,198190078,2,0,0,16.6,0.06,28,2,0,0
214331,198297186,2,0,0,16.6,0.06,28,2,0,0
214826,198404198,2,0,0,16.6,0.06,28,2,0,0
215278,198509675,2,0,0,16.6,0.06,28,2,0,0
215699,198611052,2,0,0,16.6,0.06,28,2,0,0
216191,198724918,2,0,0,16.6,0.06,28,2,0,0
216646,198828372,2,0,0,16.6,0.06,28,2,0,0
217144,198941604,2,0,0,16.61,0.06,28,2,0,0
217596,199043088,2,0,0,16.6,0.06,28,2,0,0
218052,199150283,2,0,0,16.6,0.06,28,2,0,0
218550,199262630,2,0,0,16.6,0.06,28,2,0,0
219006,199367331,2,0,0,16.6,0.06,28,2,0,0
219468,199479094,2,0,0,16.6,0.06,28,2,0,0
219915,199575709,2,0,0,16.6,0.06,28,2,0,0
220418,199695888,2,0,0,16.61,0.05,28,2,0,0
220870,199797906,2,12,128,16.6,0.06,28,2,0,0
221327,199898940,2,147,542,16.58,0.09999999,28,2,0,0
221780,200005094,2,558,1000,16.55,0.17,28,2,0,0
222267,200112901,2,1017,1257,16.59,0.14,28,2,0,0
222768,200224560,2,1261,1314,16.58,0.13,28,2,0,0
223219,200330336,2,1316,1342,16.58,0.12,28,2,0,0
223589,200433100,2,1342,1357,16.58,0.12,28,2,0,0
224042,200537077,2,1357,1371,16.58,0.12,28,2,0,0
224540,200648051,2,1371,1371,16.58,0.12,28,2,0,0
224995,200755857,2,1371,1371,16.58,0.12,28,2,0,0
225495,200868348,2,1371,1371,16.58,0.12,28,2,0,0
225907,200965801,2,1371,1371,16.59,0.12,28,2,0,0
226404,201076896,2,1369,1357,16.59,0.12,28,2,0,0
226858,201183787,2,1358,1371,16.58,0.12,28,2,0,0
227767,201390897,2,1370,1357,16.58,0.12,28,2,0,0
228263,201504702,2,1357,1357,16.58,0.12,28,2,0,0
228717,201607257,2,1357,1371,16.58,0.12,28,2,0,0
229172,201713620,2,1371,1371,16.58,0.12,29,2,0,0
229669,201825667,2,1371,1371,16.58,0.12,29,2,0,0
230128,201931684,2,1371,1371,16.58,0.12,29,2,0,0
230581,202032389,2,1371,1371,16.58,0.12,28,3,0,0
231079,202146195,2,1371,1371,16.59,0.12,28,3,0,0
231532,202247770,2,1371,1371,16.58,0.12,28,3,0,0
231990,202355162,2,1371,1371,16.58,0.11,28,3,0,0
232455,202461904,2,1371,1371,16.58,0.11,29,3,0,0
232908,202567272,2,1371,1371,16.58,0.11,28,3,0,0
233364,202671562,2,1371,1371,16.57,0.11,29,3,0,0
233852,202779777,2,1371,1371,16.58,0.12,29,3,0,0
234348,202892155,2,1372,1385,16.58,0.12,29,3,0,0
235073,203098103,2,1385,1385,16.58,0.12,28,3,0,0
235553,203208343,2,1384,1371,16.58,0.12,29,3,0,0
236011,203319955,2,1371,1371,16.58,0.11,28,3,0,0
236474,203424849,2,1371,1371,16.58,0.12,29,3,0,0
236931,203535852,2,1371,1371,16.58,0.12,28,3,0,0
237347,203631569,2,1371,1371,16.58,0.12,29,3,0,0
237840,203742365,2,1371,1371,16.58,0.12,28,3,0,0
238299,203846604,2,1370,1357,16.58,0.12,29,3,0,0
238752,203951196,2,1357,1357,16.58,0.12,29,3,0,0
239250,204062167,2,1365,1500,16.56,0.21,29,3,0,0
239741,204172051,2,1568,2257,16.21,1.14,29,3,0,0
240198,204276939,2,2401,4414,15.54,4.54,29,3,0,0
240653,204384152,2,4503,5885,15.67,4.54,28,3,0,0
241152,204497138,2,5906,6128,15.71,4.2,29,3,0,0
241605,204598643,2,6147,6414,15.72,4.61,29,3,0,0
242093,204707694,2,6410,6328,16.07,3.81,29,3,0,0
242553,204813330,2,6299,5928,16.12,3.16,29,3,0,0
243010,204920952,2,5924,5814,16.09,3.27,29,3,0,0
243431,205021676,2,5815,5942,16.12,3.31,29,3,0,0
243924,205132810,2,5937,5828,15.98,3.28,29,4,0,0
244416,205238907,2,5837,5985,16.1,3.7,29,4,0,0
244875,205345626,2,5984,5971,15.88,4,29,4,0,0
245330,205447046,2,5978,6400,15.88,4.79,29,4,0,0
245826,205561945,2,6418,6628,15.84,4.92,29,4,0,0
246283,205665331,2,6625,6514,15.89,4.36,29,4,0,0
246769,205775647,2,6500,6214,15.97,3.7,29,4,0,0
247271,205893654,2,6215,6228,15.97,3.87,29,4,0,0
247680,205984648,2,6223,6057,15.96,3.51,29,5,0,0
248166,206088961,2,6057,6085,15.96,3.66,29,5,0,0
248626,206195813,2,6086,6157,16.02,3.55,29,5,0,0
249118,206305003,2,6152,6042,16.01,3.63,29,5,0,0
249574,206409188,2,6041,6000,15.87,3.52,29,5,0,0
250026,206514724,2,6000,6000,16.01,3.29,29,5,0,0
250520,206631813,2,5990,5885,15.91,3.37,29,5,0,0
250966,206739728,2,5879,5814,15.92,2.94,29,5,0,0
251421,206845367,2,5813,5800,15.92,2.91,29,5,0,0
251876,206955392,2,5783,5600,16.1,1.95,29,5,0,0
252325,207062969,2,5566,5028,16.27,1.63,29,6,0,0
252768,207166592,2,5020,4571,16.22,1.23,29,6,0,0
253218,207275175,2,4579,5014,16,2.82,29,6,0,0
253708,207392128,2,5028,5228,16.11,2.61,29,6,0,0
254151,207499044,2,5239,5357,16.07,2.69,29,6,0,0
254600,207607787,2,5375,5642,16.05,2.72,29,6,0,0
255052,207722781,2,5640,5614,15.99,2.62,29,6,0,0
255501,207828749,2,5616,5785,15.98,2.71,30,6,0,0
255906,207931863,2,5790,6042,15.91,3.19,30,6,0,0
256355,208041270,2,6041,6014,15.86,3.14,30,6,0,0
256838,208157899,2,6031,6271,15.88,3.29,29,6,0,0
257290,208268173,2,6271,6271,15.91,3.06,30,6,0,0
257737,208380264,2,6261,6142,15.97,3.07,29,6,0,0
258179,208492684,2,6135,6028,15.94,2.99,30,7,0,0
258633,208605890,2,6033,6085,15.9,2.94,29,7,0,0
258998,208701584,2,6084,6042,15.97,2.8,30,7,0,0
259484,208814292,2,6045,6114,15.96,2.93,30,7,0,0
259931,208929933,2,6096,5942,15.96,2.75,30,7,0,0
260378,209036848,2,5939,5914,16.01,2.87,30,7,0,0
260787,209140465,2,5920,6085,15.94,3.08,30,7,0,0
261235,209251306,2,6082,5914,15.91,3.06,30,7,0,0
261723,209370604,2,5929,6085,16,2.97,30,7,0,0
262129,209470257,2,6084,6042,15.98,2.71,30,7,0,0
262571,209581102,2,6039,5885,15.91,2.79,30,7,0,0
263025,209690883,2,5894,6057,15.87,3.08,30,8,0,0
263504,209804317,2,6045,5928,15.9,3.3,30,8,0,0
263954,209912759,2,5974,6385,15.89,3.45,30,8,0,0
264363,210014281,2,6379,6271,15.83,3.41,30,8,0,0
264801,210124972,2,6269,6257,15.92,3.44,30,8,0,0
265258,210239849,2,6263,6342,15.89,3.47,30,8,0,0
265703,210348889,2,6313,6071,15.92,3.14,30,8,0,0
266159,210463818,2,6069,6057,15.9,3.27,30,8,0,0
266560,210559768,2,6054,5942,15.91,3.12,30,8,0,0
267050,210677096,2,5950,6014,15.85,3.25,30,8,0,0
267862,210881897,2,6013,5971,15.87,3.04,30,9,0,0
268351,211000101,2,5966,5900,15.89,3.01,30,9,0,0
268758,211105054,2,5902,5928,15.86,3.19,30,9,0,0
269207,211211930,2,5940,6071,15.83,3.32,30,9,0,0
269654,211318151,2,6065,5942,15.86,3.11,30,9,0,0
270106,211430187,2,5948,6014,15.89,3.32,30,9,0,0
270514,211533359,2,6008,5942,15.86,2.88,30,9,0,0
271001,211650131,2,5948,6014,15.85,2.96,30,9,0,0
271405,211753902,2,6003,5885,15.92,2.78,30,9,0,0
271862,211867149,2,5886,5900,15.86,3.01,30,10,0,0
272269,211965187,2,5899,5885,15.89,2.73,30,10,0,0
272717,212076628,2,5884,5871,15.9,2.96,30,10,0,0
273166,212189693,2,5877,5942,15.86,2.98,30,10,0,0
273620,212300755,2,5931,5785,15.89,2.95,30,10,0,0
274062,212411949,2,5792,5900,15.85,3.29,30,10,0,0
274463,212510965,2,5902,6000,15.78,3.28,30,10,0,0
274955,212629819,2,5993,5914,15.85,3.1,30,10,0,0
275813,212844962,2,5919,6042,15.89,2.73,30,10,0,0
276256,212951154,2,6033,5857,15.86,2.72,30,10,0,0
276706,213060069,2,5853,5800,15.82,2.84,30,11,0,0
277113,213166204,2,5802,6028,15.77,3.16,30,11,0,0
277607,213283291,2,6028,6028,15.82,3.02,30,11,0,0
278042,213383793,2,6030,6085,15.8,3.17,30,11,0,0
278493,213501381,2,6075,5957,15.8,2.97,30,11,0,0
278941,213610856,2,5960,6000,15.83,3.04,30,11,0,0
279345,213714946,2,6000,6014,15.8,3.38,30,11,0,0
279800,213826780,2,6019,6071,15.83,3.32,30,11,0,0
280204,213927687,2,6071,6085,15.88,3,30,11,0,0
280651,214034050,2,6084,6071,15.84,2.96,30,11,0,0
281131,214148344,2,6065,5985,15.86,2.74,30,11,0,0
281582,214256642,2,5970,5828,15.88,3,30,12,0,0
282028,214366895,2,5828,5828,15.86,2.94,30,12,0,0
282479,214475049,2,5830,5857,15.82,3.02,30,12,0,0
282883,214576914,2,5852,5742,15.82,3.02,30,12,0,0
283781,214797789,2,5745,5857,15.75,3.69,30,12,0,0
284231,214908071,2,5868,6028,15.73,3.7,30,12,0,0
284683,215017834,2,6033,6157,15.73,3.91,30,12,0,0
285097,215127153,2,6151,6042,15.81,3.45,30,12,0,0
285551,215237630,2,6040,5942,15.8,3.4,30,12,0,0
286037,215350285,2,5966,6228,15.76,3.51,30,13,0,0
286485,215458897,2,6216,6028,15.74,3.82,30,13,0,0
286884,215559671,2,6029,6100,15.77,3.43,30,13,0,0
287374,215676768,2,6101,6128,15.81,3.54,30,13,0,0
287821,215786941,2,6128,6128,15.76,3.76,30,13,0,0
288314,215910344,2,6133,6200,15.77,3.78,30,13,0,0
288717,216007060,2,6203,6242,15.77,3.66,30,13,0,0
289163,216117695,2,6236,6128,15.75,3.57,30,13,0,0
289614,216227673,2,6125,6028,15.74,3.33,30,14,0,0
290068,216336661,2,6017,5871,15.75,3.23,30,14,0,0
290517,216449117,2,5871,5871,15.72,3.14,30,14,0,0
290920,216550783,2,5877,5942,15.72,3.14,30,14,0,0
291366,216657277,2,5936,5714,15.69,3.1,30,14,0,0
291819,216772973,2,5719,5771,15.64,3.17,30,14,0,0
292224,216872658,2,5778,5928,15.72,3.27,30,14,0,0
292677,216988198,2,5933,6000,15.72,3.25,30,14,0,0
293126,217102893,2,6008,6085,15.68,3.66,30,14,0,0
293533,217199829,2,6085,6100,15.67,3.62,30,14,0,0
293977,217309045,2,6100,6128,15.66,3.87,30,15,0,0
294424,217418723,2,6128,6128,15.75,3.62,30,15,0,0
294902,217530757,2,6130,6157,15.75,3.82,30,15,0,0
295351,217639782,2,6154,6128,15.74,3.5,30,15,0,0
295792,217747971,2,6125,6028,15.72,3.24,30,15,0,0
296293,217870608,2,6033,6085,15.67,3.3,30,15,0,0
296649,217960317,2,6081,5928,15.65,3.43,30,15,0,0
297141,218083968,2,5928,5928,15.61,3.57,30,15,0,0
298000,218287611,2,5930,6185,15.58,3.65,30,16,0,0
298886,218508321,2,6183,5942,15.69,3.26,30,16,0,0
299825,218735125,2,5936,5771,15.66,3.29,30,16,0,0
300272,218844276,2,5778,5942,15.56,3.62,30,16,0,0
300677,218946742,2,5940,5900,15.41,3.75,30,16,0,0
301176,219066860,2,5901,5914,15.47,3.69,30,16,0,0
301575,219166713,2,5922,6000,15.45,3.68,30,16,0,0
302027,219272319,2,6000,6000,15.61,3.56,30,16,0,0
302476,219384455,2,6005,6142,15.59,3.78,30,17,0,0
302962,219499582,2,6135,6085,15.61,3.67,30,17,0,0
303367,219601611,2,6083,6057,15.57,3.83,30,17,0,0
303813,219712340,2,6057,6071,15.58,3.76,30,17,0,0
304263,219822049,2,6065,6014,15.52,3.74,30,17,0,0
304711,219932772,2,6012,6000,15.49,3.64,30,17,0,0
305160,220039959,2,5986,5842,15.56,3.48,30,17,0,0
305564,220143820,2,5855,6128,15.5,3.96,30,17,0,0
306018,220252742,2,6119,5942,15.62,3.06,30,17,0,0
306470,220367053,2,5937,5885,15.66,3.44,30,18,0,0
306918,220472934,2,5889,5942,15.53,3.56,30,18,0,0
307321,220574810,2,5943,6028,15.73,3.9,30,18,0,0
307772,220684963,2,6019,5914,15.82,2.97,30,18,0,0
309112,221011055,2,5900,5271,15.91,2.27,30,18,0,0
309598,221125914,2,5274,5314,15.9,2.43,30,18,0,0
310047,221233584,2,5320,5400,15.91,2.57,30,18,0,0
310449,221333788,2,5402,5557,15.86,2.74,30,18,0,0
310947,221451343,2,5572,5728,15.91,2.63,30,18,0,0
311384,221557148,2,5719,5600,15.82,2.4,30,18,0,0
311830,221662111,2,5614,5800,15.9,2.48,30,19,0,0
312239,221768095,2,5798,5771,15.85,2.55,30,19,0,0
312691,221878705,2,5770,5757,15.85,2.49,30,19,0,0
313097,221983604,2,5753,5714,15.87,2.53,30,19,0,0
313590,222106605,2,5704,5585,15.82,2.37,30,19,0,0
313992,222200832,2,5582,5528,15.85,2.06,30,19,0,0
314891,222424686,2,5523,5414,15.77,2.54,30,19,0,0
315334,222533846,2,5440,5700,15.75,3.14,30,19,0,0
315783,222642890,2,5701,5728,15.79,2.37,30,19,0,0
316194,222748850,2,5732,5842,15.72,2.84,30,19,0,0
316643,222856784,2,5825,5614,15.77,1.87,30,19,0,0
317051,222961137,2,5608,5285,15.82,1.22,30,19,0,0
317501,223069363,2,5281,5200,15.82,1.92,30,19,0,0
317951,223181683,2,5210,5314,15.75,2.17,30,19,0,0
318407,223293354,2,5317,5357,15.8,2.05,30,20,0,0
318809,223395451,2,5365,5471,15.82,2.33,30,20,0,0
319258,223508037,2,5472,5500,15.81,2.33,30,20,0,0
319709,223616295,2,5503,5542,15.75,2.4,30,20,0,0
320150,223723563,2,5556,5757,15.8,2.7,30,20,0,0
320600,223831659,2,5768,5885,15.73,2.79,30,20,0,0
321039,223937827,2,5879,5771,15.68,2.81,30,20,0,0
321488,224045788,2,5772,5842,15.69,3.04,30,20,0,0
321933,224155051,2,5846,6142,15.66,3.47,30,20,0,0
322381,224262819,2,6138,6100,15.67,3.36,30,20,0,0
322786,224363956,2,6098,6014,15.67,3.27,30,20,0,0
323755,224595885,2,6010,5914,15.67,3.25,30,21,0,0
325062,224918677,2,5915,6000,15.69,3.22,30,21,0,0
325512,225029276,2,5990,5900,15.67,3.06,30,21,0,0
325958,225140957,2,5898,5885,15.69,2.92,30,21,0,0
326405,225248095,2,5880,5785,15.69,2.7,30,21,0,0
326812,225352055,2,5781,5642,15.73,2.44,30,21,0,0
327299,225472806,2,5643,5657,15.7,2.83,30,21,0,0
327716,225581833,2,5662,5714,15.69,2.51,30,21,0,0
328173,225690101,2,5689,5457,15.67,2.15,30,21,0,0
328617,225803806,2,5464,5514,15.54,3.13,30,22,0,0
329022,225901131,2,5527,6057,15.52,4.43,30,22,0,0
329472,226010551,2,6072,6314,15.52,4.35,30,22,0,0
329916,226119947,2,6278,5871,15.5,3.52,30,22,0,0
330368,226231139,2,5919,6342,15.55,4.12,30,22,0,0
330778,226332371,2,6339,6300,15.48,4.71,30,22,0,0
331223,226438964,2,6290,6057,15.66,2.61,30,22,0,0
332152,226667652,2,6031,5471,15.7,2.53,30,22,0,0
332565,226770535,2,5472,5557,15.7,2.2,30,23,0,0
333061,226891881,2,5518,5114,15.64,1.97,30,23,0,0
333505,227000902,2,5182,5857,15.68,3.51,30,23,0,0
333948,227110895,2,5850,5785,15.63,3.34,30,23,0,0
334360,227216323,2,5794,5885,15.71,2.95,30,23,0,0
335076,227435704,2,5625,5785,15.7,2.87,30,23,0,0
335478,227538763,2,5749,5457,15.77,1.92,30,23,0,0
335933,227650645,2,5458,5471,15.81,1.9,30,23,0,0
336328,227746880,2,5449,5171,15.85,1.82,30,23,0,0
336781,227857108,2,5158,5028,15.8,1.59,30,23,0,0
337233,227971294,2,5066,5414,15.74,3.06,30,23,0,0
337645,228073701,2,5389,5157,15.7,1.71,30,23,0,0
338052,228175772,2,5154,4971,15.74,1.46,30,23,0,0
338500,228290909,2,4969,4828,15.75,1.49,30,24,0,0
338947,228396061,2,4827,4800,15.74,1.91,30,24,0,0
339441,228516295,2,4832,5157,15.61,2.63,30,24,0,0
339840,228614041,2,5176,5528,15.63,2.87,30,24,0,0
340288,228725323,2,5542,5742,15.71,2.58,30,24,0,0
340740,228836192,2,5731,5585,15.64,2.68,30,24,0,0
341155,228943701,2,5585,5585,15.63,2.66,30,24,0,0
341607,229050863,2,5590,5657,15.57,2.52,30,24,0,0
342052,229159094,2,5668,5900,15.66,3.24,30,24,0,0
342463,229262101,2,5903,6114,15.63,3.74,30,24,0,0
342942,229372812,2,6119,6300,15.61,3.78,30,24,0,0
343391,229483069,2,6292,6000,15.61,3.43,30,24,0,0
343842,229596679,2,6001,6028,15.59,3.38,30,25,0,0
344293,229706614,2,6021,5957,15.59,3.25,30,25,0,0
344746,229814697,2,5954,5914,15.61,3.42,30,25,0,0
345188,229923829,2,5918,5985,15.63,3.24,30,25,0,0
345594,230023677,2,5981,5814,15.67,2.95,30,25,0,0
346085,230141101,2,5812,5785,15.72,3.06,30,25,0,0
346536,230251890,2,5783,5757,15.7,2.91,30,25,0,0
346985,230361109,2,5759,5785,15.64,2.93,30,25,0,0
347434,230469126,2,5787,5814,15.64,3.21,30,25,0,0
347868,230572119,2,5816,5871,15.64,3.08,30,25,0,0
348327,230685066,2,5867,5828,15.68,2.79,30,25,0,0
348776,230796083,2,5826,5814,15.67,3.1,30,26,0,0
349178,230900809,2,5824,5985,15.77,3.12,30,26,0,0
349632,231009473,2,5947,5571,15.72,2.35,30,26,0,0
350079,231117321,2,5583,5714,15.63,2.87,30,26,0,0
350529,231226313,2,5711,5685,15.62,2.86,30,26,0,0
350926,231324758,2,5690,5957,15.63,3.34,30,26,0,0
351373,231432099,2,5955,5928,15.66,3.32,30,26,0,0
351826,231545734,2,5928,5928,15.65,3.15,30,26,0,0
352273,231653725,2,5929,5957,15.67,3.31,30,26,0,0
352672,231757426,2,5955,5885,15.66,3.23,30,26,0,0
353162,231871880,2,5896,6014,15.64,3.44,30,26,0,0
353570,231979120,2,6008,5942,15.6,3.49,30,27,0,0
354064,232095903,2,5941,5928,15.64,3.64,30,27,0,0
354513,232206076,2,5934,6000,15.57,3.78,30,27,0,0
354960,232317281,2,6015,6185,15.61,3.79,30,27,0,0
355365,232414900,2,6177,6071,15.67,3.78,30,27,0,0
355814,232529191,2,6079,6171,15.61,3.76,30,27,0,0
356220,232627303,2,6168,6000,15.59,3.66,30,27,0,0
356699,232741663,2,6000,6000,15.62,3.3,30,27,0,0
357152,232853136,2,5984,5828,15.66,3.49,30,28,0,0
357596,232963129,2,5841,5985,15.64,3.67,30,28,0,0
358044,233072286,2,5963,5742,15.63,2.95,30,28,0,0
358446,233174146,2,5745,5942,15.66,3.85,30,28,0,0
358894,233285103,2,5942,5957,15.72,3.51,30,28,0,0
359342,233394333,2,5958,6000,15.68,3.35,30,28,0,0
359829,233513766,2,5988,5871,15.67,3.08,31,28,0,0
360312,233625783,2,5860,5728,15.64,2.95,30,28,0,0
360721,233729176,2,5719,5642,15.63,3.16,30,28,0,0
361166,233836252,2,5647,5700,15.64,3.31,30,28,0,0
361615,233952958,2,5715,5828,15.66,3.21,30,29,0,0
362023,234050841,2,5829,5885,15.63,3.58,30,29,0,0
362466,234162272,2,5885,5885,15.67,3.66,30,29,0,0
362915,234267328,2,5886,5985,15.64,3.75,31,29,0,0
363362,234379239,2,5992,6057,15.62,4.01,31,29,0,0
363853,234499447,2,6073,6200,15.53,4.06,30,29,0,0
364291,234604174,2,6200,6200,15.57,3.93,30,29,0,0
364696,234705138,2,6204,6242,15.52,4.07,30,29,0,0
365142,234812083,2,6241,6185,15.6,4.01,30,30,0,0
366437,235133606,2,6178,5785,15.58,2.99,30,30,0,0
366923,235250729,2,5755,5542,15.65,2.72,30,30,0,0
367361,235354341,2,5534,5428,15.66,2.71,31,30,0,0
367819,235467656,2,5437,5542,15.63,2.74,30,30,0,0
368710,235684835,2,5543,5571,15.59,2.64,30,30,0,0
369146,235789695,2,5572,5600,15.61,2.75,30,30,0,0
369553,235895659,2,5600,5642,15.7,2.69,31,30,0,0
370043,236012268,2,5650,5742,15.7,3.07,31,30,0,0
370490,236118348,2,5746,5814,15.64,2.72,31,31,0,0
370934,236226691,2,5809,5771,15.56,2.96,31,31,0,0
371377,236336826,2,5769,5757,15.6,3.1,31,31,0,0
371826,236443626,2,5767,6028,15.63,3.16,31,31,0,0
372270,236551682,2,6022,5957,15.67,3.13,31,31,0,0
372717,236658792,2,5960,6157,15.56,3.37,31,31,0,0
373652,236889871,2,6152,6042,15.66,3.26,31,31,0,0
374055,236990946,2,6042,6042,15.64,3.4,31,31,0,0
374501,237102695,2,6043,6057,15.59,3.26,31,31,0,0
374952,237212339,2,6047,5900,15.61,3.09,31,32,0,0
375354,237314894,2,5901,5957,15.66,3.35,31,32,0,0
375837,237427263,2,5957,5957,15.64,3.2,31,32,0,0
376283,237537823,2,5960,6028,15.6,3.24,31,32,0,0
376737,237646972,2,6029,6057,15.63,3.4,31,32,0,0
377184,237758340,2,6060,6114,15.59,3.31,31,32,0,0
378072,237974450,2,6108,5942,15.52,3.48,31,32,0,0
378523,238084061,2,5940,5914,15.55,3.38,31,32,0,0
378967,238192504,2,5917,6014,15.63,3.29,31,32,0,0
379411,238302277,2,6014,6014,15.54,3.34,31,33,0,0
380262,238519836,2,6009,5914,15.69,3.35,31,33,0,0
380670,238619306,2,5910,5842,15.64,3.23,31,33,0,0
381113,238730174,2,5839,5700,15.63,3.07,31,33,0,0
381561,238840254,2,5705,5814,15.64,3.12,31,33,0,0
382040,238952972,2,5814,5814,15.6,3.14,31,33,0,0
382490,239060862,2,5824,5928,15.64,2.91,31,33,0,0
382928,239165780,2,5925,5857,15.69,2.94,31,33,0,0
383379,239276543,2,5854,5814,15.64,2.98,31,33,0,0
383826,239390570,2,5809,5771,15.64,2.91,31,34,0,0
384306,239501062,2,5776,5828,15.58,2.76,31,34,0,0
384718,239604783,2,5825,5785,15.7,2.79,31,34,0,0
385198,239718298,2,5782,5742,15.67,2.48,31,34,0,0
385649,239830306,2,5735,5671,15.71,2.61,31,34,0,0
386050,239931688,2,5667,5585,15.7,2.59,31,34,0,0
386502,240040621,2,5583,5571,15.66,2.67,31,34,0,0
386947,240149569,2,5571,5571,15.63,2.59,31,34,0,0
387395,240257676,2,5570,5557,15.74,2.25,31,34,0,0
387842,240367292,2,5557,5571,15.73,2.15,31,34,0,0
388291,240477155,2,5568,5542,15.67,2.3,31,34,0,0
388740,240592285,2,5537,5500,15.7,1.77,31,34,0,0
389594,240799765,2,5498,5371,15.65,2.07,31,34,0,0
390077,240922336,2,5372,5385,15.64,2.23,31,35,0,0
390528,241030843,2,5397,5542,15.52,2.94,31,35,0,0
390963,241134569,2,5554,5714,15.5,2.7,31,35,0,0
391418,241249124,2,5719,5757,15.51,3.1,31,35,0,0
391863,241356910,2,5768,5885,15.49,3.36,31,35,0,0
392271,241454073,2,5886,5971,15.51,3.09,31,35,0,0
392726,241569967,2,5968,5857,15.54,3.39,31,35,0,0
393217,241697149,2,5871,5942,15.51,3.22,31,35,0,0
393617,241793880,2,5945,5985,15.55,3.32,31,35,0,0
394064,241903169,2,5974,5871,15.6,3.37,30,35,0,0
394914,242111697,2,5871,5957,15.55,3.11,31,36,0,0
395397,242222794,2,5940,5714,15.6,2.91,31,36,0,0
395842,242332336,2,5723,5857,15.6,3.13,31,36,0,0
396290,242439391,2,5849,5742,15.57,2.96,31,36,0,0
397138,242649326,2,5741,5728,15.58,3.14,31,36,0,0
397584,242760917,2,5723,5614,15.55,3.06,31,36,0,0
398073,242877199,2,5626,5757,15.54,3.03,31,36,0,0
398522,242986901,2,5751,5614,15.64,2.67,31,36,0,0
398965,243094364,2,5612,5514,15.62,2.68,31,36,0,0
399445,243202158,2,5518,5600,15.56,2.8,31,36,0,0
399895,243319125,2,5590,5500,15.6,2.72,31,37,0,0
400298,243418169,2,5500,5500,15.61,2.69,31,37,0,0
400741,243527550,2,5500,5500,15.64,2.54,31,37,0,0
401186,243635862,2,5500,5514,15.63,2.55,31,37,0,0
401629,243748711,2,5504,5385,15.66,2.77,31,37,0,0
402077,243856853,2,5390,5471,15.58,2.6,31,37,0,0
402481,243958041,2,5470,5457,15.63,2.61,31,37,0,0
402982,244077105,2,5465,5542,15.63,2.58,31,37,0,0
403374,244172857,2,5538,5471,15.61,2.59,31,37,0,0
403827,244286703,2,5475,5514,15.63,2.66,31,37,0,0
404270,244393771,2,5528,5671,15.66,2.63,31,37,0,0
404723,244506938,2,5666,5614,15.61,2.65,31,37,0,0
405168,244612651,2,5624,5757,15.65,2.77,31,37,0,0
405611,244723136,2,5757,5757,15.66,2.75,31,38,0,0
406060,244831204,2,5747,5600,15.61,2.62,31,38,0,0
406502,244938344,2,5611,5728,15.64,2.73,31,38,0,0
406957,245050931,2,5708,5500,15.64,2.71,31,38,0,0
407357,245149082,2,5509,5685,15.65,2.64,31,38,0,0
407802,245255910,2,5681,5614,15.55,2.79,31,38,0,0
408253,245369332,2,5620,5742,15.57,3.05,31,38,0,0
408810,245580729,2,5771,5771,15.58,2.69,31,38,0,0
409300,245700832,2,5771,5771,15.64,2.73,31,38,0,0
409704,245800621,2,5761,5671,15.6,2.39,31,38,0,0
410139,245904785,2,5662,5500,15.72,2.63,31,38,0,0
410594,246016118,2,5497,5471,15.68,2.38,31,39,0,0
411033,246120922,2,5469,5414,15.7,2.41,31,39,0,0
411483,246231848,2,5416,5442,15.6,2.37,31,39,0,0
411937,246344970,2,5440,5428,15.65,2.24,31,39,0,0
412339,246440646,2,5419,5242,15.62,2.48,31,39,0,0
412792,246553339,2,5247,5385,15.65,2.59,31,39,0,0
413274,246663347,2,5386,5414,15.61,2.34,31,39,0,0
413677,246765899,2,5416,5471,15.6,2.33,31,39,0,0
414127,246877112,2,5472,5485,15.67,2.37,31,39,0,0
414565,246980292,2,5489,5585,15.61,2.57,31,39,0,0
415021,247099805,2,5597,5685,15.59,2.63,31,39,0,0
415458,247198728,2,5686,5714,15.6,2.85,31,39,0,0
415904,247309864,2,5721,5885,15.66,2.74,31,40,0,0
416353,247418333,2,5878,5757,15.61,2.74,31,40,0,0
416765,247527056,2,5760,5828,15.55,2.81,31,40,0,0
417254,247644164,2,5829,5857,15.61,2.71,31,40,0,0
417655,247745155,2,5858,5871,15.63,2.78,31,40,0,0
418103,247854131,2,5863,5714,15.64,2.54,30,40,0,0
418547,247965850,2,5711,5671,15.64,2.56,31,40,0,0
418957,248066687,2,5669,5600,15.57,2.39,31,40,0,0
419398,248176900,2,5598,5585,15.69,2.38,31,40,0,0
419844,248282093,2,5570,5371,15.64,2.09,31,40,0,0
420291,248394553,2,5387,5628,15.64,2.44,31,40,0,0
420736,248502195,2,5621,5457,15.69,1.82,31,40,0,0
421184,248616171,2,5471,5600,15.58,2.46,31,40,0,0
421625,248719369,2,5592,5428,15.59,2.35,31,40,0,0
422076,248830795,2,5429,5500,15.58,2.42,31,41,0,0
422520,248944733,2,5512,5628,15.63,2.57,31,41,0,0
422969,249054604,2,5623,5542,15.54,2.69,31,41,0,0
423383,249156737,2,5542,5557,15.54,2.95,31,41,0,0
423827,249263836,2,5556,5542,15.55,2.71,31,41,0,0
424306,249378125,2,5549,5628,15.51,2.96,31,41,0,0
424756,249490732,2,5631,5657,15.57,2.9,31,41,0,0
425205,249598885,2,5660,5714,15.55,2.63,30,41,0,0
425610,249700960,2,5716,5771,15.59,2.65,31,41,0,0
426053,249809684,2,5765,5657,15.67,2.49,31,41,0,0
426536,249927919,2,5667,5785,15.62,2.7,31,41,0,0
426944,250028762,2,5786,5800,15.59,2.78,31,41,0,0
427388,250140085,2,5801,5814,15.63,2.65,31,42,0,0
427793,250238145,2,5814,5857,15.62,3.02,31,42,0,0
428247,250356101,2,5865,5928,15.62,2.77,31,42,0,0
428696,250463111,2,5925,5857,15.64,2.35,31,42,0,0
429147,250575787,2,5858,5885,15.65,2.55,31,42,0,0
429595,250682521,2,5863,5657,15.69,2.11,31,42,0,0
430005,250786161,2,5651,5542,15.69,2.02,31,42,0,0
430490,250904307,2,5524,5342,15.63,1.83,30,42,0,0
430893,251001659,2,5340,5300,15.67,1.61,31,42,0,0
431337,251112677,2,5281,5028,15.71,1.46,31,42,0,0
431780,251218076,2,5037,5228,15.64,1.73,31,42,0,0
432227,251331856,2,5232,5285,15.63,2.16,31,42,0,0
432638,251435179,2,5282,5157,15.72,1.56,31,42,0,0
433084,251543820,2,5167,5285,15.64,2.06,30,42,0,0
433533,251652569,2,5283,5271,15.69,2.25,31,42,0,0
433973,251759827,2,5283,5471,15.69,2.18,31,43,0,0
434421,251869635,2,5475,5528,15.64,2.62,30,43,0,0
434864,251976814,2,5526,5500,15.54,2.59,30,43,0,0
435721,252192736,2,5502,5742,15.57,2.65,31,43,0,0
436203,252307797,2,5727,5571,15.6,2.49,30,43,0,0
436651,252415788,2,5578,5685,15.58,2.73,31,43,0,0
437097,252525303,2,5700,5857,15.61,2.73,30,43,0,0
437548,252634386,2,5849,5771,15.66,2.71,31,43,0,0
437991,252744116,2,5764,5700,15.67,2.58,30,43,0,0
438397,252843604,2,5701,5785,15.61,2.6,30,43,0,0
438879,252957612,2,5776,5657,15.63,2.25,30,43,0,0
439329,253069285,2,5649,5571,15.65,2.27,31,43,0,0
439726,253167787,2,5571,5585,15.57,2.47,30,44,0,0
440178,253283930,2,5570,5428,15.64,1.91,30,44,0,0
440624,253389309,2,5435,5514,15.62,2.44,31,44,0,0
441073,253496650,2,5516,5557,15.72,2.05,31,44,0,0
441518,253607811,2,5554,5528,15.66,2.26,31,44,0,0
441918,253707556,2,5525,5414,15.67,1.86,30,44,0,0
442372,253820127,2,5411,5371,15.68,2.25,30,44,0,0
442819,253931276,2,5374,5414,15.64,2.25,31,44,0,0
443272,254040171,2,5439,5700,15.51,2.75,31,44,0,0
443692,254146901,2,5725,5971,15.6,2.81,31,44,0,0
444175,254258180,2,5968,5942,15.58,2.6,31,44,0,0
444579,254362107,2,5934,5828,15.58,2.52,31,44,0,0
445031,254473161,2,5830,5857,15.58,2.67,30,44,0,0
445472,254578862,2,5852,5800,15.6,2.69,31,44,0,0
445923,254691339,2,5815,5942,15.6,2.98,30,45,0,0
446323,254790826,2,5944,6042,15.6,2.88,30,45,0,0
446817,254911577,2,6019,5814,15.57,2.72,30,45,0,0
447219,255009324,2,5816,5900,15.6,2.8,31,45,0,0
448123,255233653,2,5890,5685,15.58,2.55,31,45,0,0
448528,255338108,2,5682,5642,15.58,2.45,31,45,0,0
448977,255445082,2,5645,5700,15.57,2.58,30,45,0,0
449380,255547844,2,5698,5585,15.61,2.74,31,45,0,0
449870,255664666,2,5586,5614,15.6,2.45,30,45,0,0
450281,255769346,2,5610,5528,15.59,2.26,31,45,0,0
450728,255878944,2,5522,5400,15.55,2.27,30,45,0,0
451175,255988155,2,5403,5457,15.57,2.53,30,45,0,0
451629,256102196,2,5467,5585,15.57,2.31,30,46,0,0
452517,256318673,2,5581,5514,15.57,2.46,30,46,0,0
452924,256417160,2,5523,5728,15.63,2.48,30,46,0,0
453818,256639878,2,5730,5814,15.57,2.94,30,46,0,0
454219,256742144,2,5817,5900,15.57,2.85,30,46,0,0
454668,256850605,2,5900,5928,15.56,2.97,30,46,0,0
455117,256959685,2,5926,5900,15.52,3.07,30,46,0,0
456008,257178080,2,5895,5785,15.63,2.55,30,46,0,0
456496,257293139,2,5791,5857,15.65,2.89,30,46,0,0
456941,257403837,2,5859,5885,15.58,2.64,30,47,0,0
457385,257519611,2,5879,5828,15.6,2.65,30,47,0,0
457833,257627673,2,5823,5785,15.6,2.57,30,47,0,0
458277,257737087,2,5783,5771,15.61,2.81,31,47,0,0
458722,257841835,2,5781,5871,15.57,3.05,30,47,0,0
459164,257951798,2,5882,6000,15.6,3.12,31,47,0,0
460053,258172777,2,5996,5928,15.5,3.13,30,47,0,0
460502,258282744,2,5928,5928,15.54,3.33,30,47,0,0
460953,258394579,2,5943,6100,15.61,3.34,30,47,0,0
461362,258495056,2,6100,6100,15.58,3.11,30,47,0,0
461840,258610404,2,6113,6242,15.53,3.17,30,48,0,0
462284,258718260,2,6222,5971,15.57,2.99,30,48,0,0
462729,258828783,2,5976,6057,15.57,3.15,30,48,0,0
463138,258937129,2,6050,5985,15.5,2.98,30,48,0,0
463580,259039319,2,5983,5914,15.57,2.92,30,48,0,0
464027,259152270,2,5911,5871,15.58,2.89,30,48,0,0
464474,259261655,2,5875,5957,15.52,3.02,30,48,0,0
464884,259366900,2,5954,5900,15.58,3.2,30,48,0,0
465337,259476272,2,5900,5942,15.55,2.99,30,48,0,0
465778,259588937,2,5934,5828,15.47,3.36,30,48,0,0
466222,259695050,2,5826,5785,15.54,3.32,30,48,0,0
466670,259806119,2,5801,6042,15.53,3.35,30,49,0,0
467567,260027042,2,6044,6114,15.53,3.35,31,49,0,0
468012,260136756,2,6103,5942,15.55,2.95,30,49,0,0
468455,260243236,2,5946,6014,15.64,3.17,31,49,0,0
468904,260356135,2,6009,5957,15.56,2.88,31,49,0,0
469351,260462320,2,5955,5914,15.64,2.82,30,49,0,0
469798,260574173,2,5901,5714,15.64,2.47,31,49,0,0
470250,260686428,2,5707,5642,15.64,2.18,30,49,0,0
470653,260789160,2,5645,5728,15.67,2.57,30,49,0,0
471145,260908124,2,5725,5700,15.7,2.47,31,49,0,0
471543,261006150,2,5691,5585,15.64,2.37,30,50,0,0
471991,261115917,2,5592,5714,15.56,2.97,31,50,0,0
472871,261328076,2,5715,5857,15.49,3.28,30,50,0,0
473326,261440784,2,5862,6114,15.54,3.42,30,50,0,0
473769,261550061,2,6103,5971,15.51,3.36,30,50,0,0
474228,261663695,2,5976,6114,15.52,3.63,30,50,0,0
474666,261768088,2,6113,6042,15.51,3.33,30,50,0,0
475162,261887942,2,6059,6242,15.55,3.58,31,50,0,0
475602,261996200,2,6248,6314,15.6,3.26,30,50,0,0
476047,262100304,2,6297,6071,15.64,2.77,30,50,0,0
476491,262212287,2,6034,5657,15.7,2.31,30,51,0,0
476938,262321683,2,5653,5614,15.7,2.21,30,51,0,0
477382,262424916,2,5608,5528,15.6,2.82,30,51,0,0
477788,262532071,2,5530,5671,15.6,2.65,30,51,0,0
478237,262640797,2,5669,5614,15.61,2.42,30,51,0,0
478725,262759738,2,5640,5900,15.57,3.21,31,51,0,0
479618,262978332,2,5910,6142,15.42,3.2,31,51,0,0
480540,263196335,2,6144,6214,15.28,4.13,30,51,0,0
480948,263301765,2,6216,6342,15.14,4.51,31,51,0,0
481402,263414311,2,6360,6542,15.14,4.79,31,52,0,0
481805,263517806,2,6540,6457,15.24,3.76,31,52,0,0
482250,263624191,2,6451,6157,15.29,3.84,31,52,0,0
482737,263740669,2,6177,6385,15.3,4.59,31,52,0,0
483145,263843816,2,6393,6585,15.25,5.22,31,52,0,0
483553,263947202,2,6587,6757,15.32,5.37,31,52,0,0
484034,264058926,2,6754,6657,15.38,4.51,31,52,0,0
484478,264168862,2,6646,6457,15.35,4.21,31,53,0,0
484930,264283952,2,6437,6271,15.39,4.14,31,53,0,0
485380,264391059,2,6265,6214,15.35,3.99,31,53,0,0
485819,264502302,2,6200,6085,15.42,3.75,31,53,0,0
486267,264610110,2,6062,5842,15.5,3.29,31,53,0,0
486668,264711109,2,5846,6042,15.51,3.54,31,53,0,0
487601,264944920,2,6024,5700,15.48,3.26,31,53,0,0
488052,265048179,2,5709,5814,15.53,3.14,31,54,0,0
488946,265271598,2,5797,5485,15.48,2.86,31,54,0,0
489345,265368264,2,5484,5471,15.6,2.78,31,54,0,0
489797,265476935,2,5470,5442,15.51,2.66,31,54,0,0
490244,265595214,2,5441,5428,15.59,2.61,31,54,0,0
490689,265702548,2,5426,5385,15.57,2.9,31,54,0,0
491615,265920840,2,5374,5185,15.58,2.27,31,54,0,0
492064,266029041,2,5193,5328,15.57,2.36,31,54,0,0
492470,266133673,2,5327,5285,15.52,2.6,31,54,0,0
492916,266240779,2,5288,5428,15.55,2.55,31,54,0,0
493362,266350170,2,5426,5400,15.58,2.61,31,54,0,0
493810,266457837,2,5398,5357,15.57,2.43,31,55,0,0
494218,266559286,2,5357,5385,15.6,2.75,31,55,0,0
494664,266667622,2,5385,5414,15.48,2.69,31,55,0,0
495152,266791199,2,5417,5457,15.45,2.76,31,55,0,0
495560,266891040,2,5462,5557,15.48,2.61,31,55,0,0
496005,266999127,2,5550,5471,15.55,2.73,31,55,0,0
496899,267221842,2,5472,5528,15.43,2.76,31,55,0,0
497346,267328904,2,5532,5585,15.51,2.65,31,55,0,0
497803,267444646,2,5582,5557,15.54,2.87,31,55,0,0
498206,267549319,2,5559,5585,15.54,2.9,31,55,0,0
498653,267656829,2,5586,5614,15.52,2.84,31,55,0,0
499101,267770196,2,5626,5757,15.55,2.96,31,56,0,0
499548,267877301,2,5757,5771,15.48,2.91,31,56,0,0
499958,267983903,2,5764,5685,15.54,2.86,31,56,0,0
500366,268084681,2,5684,5642,15.51,2.54,31,56,0,0
500810,268196150,2,5640,5571,15.54,2.59,31,56,0,0
501255,268307919,2,5561,5428,15.55,2.59,31,56,0,0
501707,268416767,2,5421,5328,15.54,2.25,30,56,0,0
502151,268525955,2,5332,5400,15.47,2.59,31,56,0,0
502601,268637654,2,5400,5414,15.47,2.53,31,56,0,0
503045,268749844,2,5417,5471,15.58,2.42,30,56,0,0
503497,268861862,2,5468,5442,15.48,2.76,31,56,0,0
503857,268956305,2,5446,5614,15.49,3.01,31,56,0,0
504346,269071276,2,5611,5557,15.47,2.45,31,57,0,0
504792,269183188,2,5553,5500,15.49,2.67,31,57,0,0
505235,269294422,2,5515,5642,15.53,2.8,30,57,0,0
505684,269400357,2,5637,5571,15.55,2.67,31,57,0,0
506130,269513965,2,5580,5657,15.52,2.52,31,57,0,0
506534,269612770,2,5658,5714,15.52,2.81,31,57,0,0
507016,269727121,2,5701,5542,15.57,2.58,31,57,0,0
507867,269937705,2,5542,5542,15.53,2.49,31,57,0,0
508356,270053752,2,5547,5600,15.54,2.48,31,57,0,0
508759,270156564,2,5597,5442,15.49,2.63,31,57,0,0
509248,270274687,2,5453,5571,15.56,2.52,31,57,0,0
509653,270375814,2,5565,5457,15.52,2.35,30,58,0,0
510148,270496880,2,5457,5457,15.52,2.26,31,58,0,0
510551,270596720,2,5445,5285,15.54,2.31,31,58,0,0
510995,270703111,2,5294,5400,15.47,2.29,31,58,0,0
511444,270811815,2,5405,5471,15.51,2.39,31,58,0,0
511886,270919757,2,5471,5485,15.54,2.4,30,58,0,0
512342,271030261,2,5501,5657,15.49,2.83,30,58,0,0
512741,271132329,2,5658,5685,15.47,2.91,30,58,0,0
513234,271248064,2,5693,5785,15.5,2.71,30,58,0,0
513641,271354081,2,5781,5714,15.54,2.59,30,58,0,0
514126,271464927,2,5719,5800,15.55,2.6,30,58,0,0
514529,271568885,2,5803,5885,15.45,2.74,31,58,0,0
514980,271681897,2,5894,5985,15.45,3.32,31,58,0,0
515383,271784920,2,5979,5871,15.47,3.35,31,59,0,0
515877,271907775,2,5887,6071,15.42,3.18,31,59,0,0
516315,272009665,2,6052,5885,15.48,3.04,31,59,0,0
516716,272110876,2,5880,5685,15.46,2.8,31,59,0,0
517167,272221193,2,5683,5657,15.48,2.67,30,59,0,0
517613,272332741,2,5669,5842,15.38,3.29,30,59,0,0
518024,272436620,2,5840,5814,15.5,3.08,31,59,0,0
518469,272547049,2,5812,5785,15.47,3.09,31,59,0,0
518914,272652807,2,5781,5700,15.48,2.92,30,59,0,0
519364,272767937,2,5712,5885,15.48,3.23,31,59,0,0
519812,272873650,2,5887,5928,15.47,3.09,31,60,0,0
520260,272985849,2,5903,5628,15.52,2.63,31,60,0,0
520711,273097123,2,5621,5528,15.53,2.59,30,60,0,0
521152,273206677,2,5536,5642,15.56,2.53,30,60,0,0
521592,273312510,2,5634,5485,15.56,2.58,30,60,0,0
522040,273420188,2,5485,5500,15.5,2.38,30,60,0,0
522442,273523971,2,5497,5342,15.54,2.26,30,60,0,0
522932,273640462,2,5344,5385,15.49,2.5,30,60,0,0
523339,273746855,2,5386,5400,15.51,2.48,30,60,0,0
523789,273854687,2,5403,5457,15.49,2.49,30,60,0,0
524234,273965167,2,5455,5428,15.55,2.43,30,60,0,0
524687,274075051,2,5438,5542,15.45,2.54,30,60,0,0
525122,274178184,2,5541,5528,15.58,2.45,31,60,0,0
525572,274288325,2,5525,5357,15.54,2.54,31,60,0,0
526018,274398678,2,5360,5400,15.5,2.63,30,61,0,0
526464,274511208,2,5403,5442,15.5,2.58,30,61,0,0
526869,274610607,2,5444,5600,15.47,2.78,30,61,0,0
527310,274715820,2,5599,5571,15.47,2.57,30,61,0,0
527764,274827292,2,5572,5600,15.52,2.52,30,61,0,0
528171,274931072,2,5597,5485,15.51,2.48,30,61,0,0
528664,275048199,2,5489,5557,15.48,2.5,31,61,0,0
529101,275154917,2,5556,5542,15.48,2.57,30,61,0,0
529552,275262719,2,5540,5500,15.52,2.34,30,61,0,0
529997,275374347,2,5498,5485,15.48,2.61,30,61,0,0
530445,275485066,2,5493,5571,15.44,2.85,30,61,0,0
530895,275594073,2,5571,5571,15.44,2.91,30,61,0,0
531342,275706854,2,5581,5685,15.51,2.96,30,62,0,0
531752,275809688,2,5679,5557,15.44,3,30,62,0,0
532199,275919696,2,5560,5614,15.42,2.91,30,62,0,0
532642,276030955,2,5613,5600,15.48,2.8,30,62,0,0
533131,276144696,2,5600,5600,15.49,2.85,30,62,0,0
533575,276254587,2,5603,5657,15.43,3.25,30,62,0,0
534023,276365871,2,5648,5557,15.43,2.54,30,62,0,0
534428,276463968,2,5554,5400,15.48,2.66,30,62,0,0
534913,276580975,2,5402,5471,15.45,2.65,30,62,0,0
535399,276695669,2,5466,5428,15.45,2.57,30,62,0,0
535809,276800648,2,5442,5585,15.53,2.61,30,62,0,0
536255,276910150,2,5586,5614,15.54,2.71,30,62,0,0
536741,277027355,2,5617,5657,15.47,2.58,30,63,0,0
537144,277130107,2,5644,5500,15.44,2.9,30,63,0,0
537629,277242092,2,5504,5600,15.52,2.59,30,63,0,0
538037,277347627,2,5599,5571,15.51,2.52,30,63,0,0
538568,277469923,2,5568,5542,15.51,2.78,30,63,0,0
538960,277567598,2,5546,5642,15.45,2.94,30,63,0,0
539412,277676870,2,5642,5671,15.43,3,30,63,0,0
539857,277788665,2,5677,5757,15.36,3.05,30,63,0,0
540711,278000176,2,5756,5642,15.38,3,30,63,0,0
541197,278115072,2,5666,5914,15.4,3.58,30,63,0,0
541597,278213658,2,5913,5885,15.49,3.46,30,63,0,0
542045,278324113,2,5885,5900,15.42,3.52,30,64,0,0
542494,278435103,2,5898,5871,15.43,3.23,30,64,0,0
542943,278547665,2,5872,5900,15.45,3.33,30,64,0,0
544242,278868094,2,5897,5557,15.56,2.77,30,64,0,0
544724,278981823,2,5558,5585,15.5,2.45,30,64,0,0
545169,279092320,2,5582,5557,15.52,2.72,30,64,0,0
545623,279204601,2,5564,5642,15.45,3.05,30,64,0,0
546031,279308360,2,5643,5657,15.46,2.98,30,64,0,0
546477,279414218,2,5661,5771,15.51,3.12,30,64,0,0
546921,279523713,2,5769,5728,15.5,2.91,30,65,0,0
547410,279640084,2,5724,5685,15.53,2.86,30,65,0,0
547813,279741868,2,5685,5700,15.5,2.67,31,65,0,0
548259,279851040,2,5689,5585,15.45,2.71,30,65,0,0
548705,279964636,2,5581,5528,15.55,2.66,30,65,0,0
549155,280074593,2,5532,5585,15.52,2.78,30,65,0,0
549555,280175680,2,5584,5571,15.47,2.83,30,65,0,0
550048,280291764,2,5573,5600,15.45,2.89,30,65,0,0
550489,280399273,2,5616,5842,15.47,3.14,30,65,0,0
550935,280508129,2,5850,5985,15.51,3.22,30,65,0,0
551383,280616182,2,5984,5971,15.44,3.21,30,66,0,0
551830,280730288,2,5971,5971,15.54,3.19,30,66,0,0
552240,280831371,2,5970,5900,15.51,3.25,30,66,0,0
552721,280945832,2,5904,5957,15.44,3.37,30,66,0,0
553171,281055646,2,5968,6071,15.5,3.31,30,66,0,0
554025,281265546,2,6070,6057,15.47,3.29,30,66,0,0
554466,281376277,2,6056,6042,15.45,3.34,30,66,0,0
554914,281485290,2,6039,5985,15.53,3.29,30,66,0,0
555761,281694715,2,5984,5871,15.48,3.29,30,66,0,0
556246,281806623,2,5869,5771,15.47,2.94,30,67,0,0
556737,281929946,2,5782,5900,15.46,3.54,30,67,0,0
557581,282134203,2,5910,6200,15.48,3.93,30,67,0,0
558034,282244669,2,6193,6142,15.5,3.77,30,67,0,0
558438,282347710,2,6140,6114,15.48,3.87,30,67,0,0
558887,282453673,2,6115,6214,15.51,3.7,30,67,0,0
559367,282571052,2,6231,6428,15.47,3.48,30,67,0,0
559814,282679632,2,6402,6185,15.51,3.36,30,67,0,0
560213,282777084,2,6183,6114,15.44,3.41,30,68,0,0
560703,282897349,2,6100,6028,15.45,3.56,30,68,0,0
561108,282996739,2,6026,6014,15.5,3.35,30,68,0,0
561521,283097665,2,6015,6085,15.47,3.35,30,68,0,0
561965,283212865,2,6080,5985,15.51,3.39,30,68,0,0
562412,283326357,2,5991,6057,15.52,3.2,30,68,0,0
562817,283424095,2,6056,6000,15.54,3.07,30,68,0,0
563302,283542765,2,6003,6057,15.44,3.33,30,68,0,0
563755,283653786,2,6047,5957,15.5,3.31,30,68,0,0
564163,283759837,2,5957,5957,15.51,3.01,30,68,0,0
564611,283868110,2,5971,6100,15.5,3.2,30,69,0,0
565015,283972744,2,6078,5800,15.47,2.86,30,69,0,0
565461,284078190,2,5802,5914,15.42,2.84,30,69,0,0
565913,284194585,2,5905,5814,15.4,2.88,30,69,0,0
566757,284400666,2,5815,5942,15.48,3.22,30,69,0,0
567243,284519302,2,5961,6157,15.45,3.37,30,69,0,0
567692,284630693,2,6140,5971,15.44,3.46,30,69,0,0
568135,284737621,2,5977,6057,15.4,3.53,30,69,0,0
568548,284840887,2,6061,6157,15.47,3.42,31,69,0,0
568991,284951359,2,6153,6114,15.42,3.35,30,69,0,0
569440,285063769,2,6112,6100,15.5,3.48,31,70,0,0
569885,285173132,2,6100,6100,15.42,3.59,31,70,0,0
570332,285279951,2,6095,6057,15.5,3.6,30,70,0,0
570739,285384849,2,6057,6057,15.48,3.4,31,70,0,0
571189,285494711,2,6061,6157,15.41,3.66,31,70,0,0
572075,285715267,2,6152,6057,15.41,3.33,30,70,0,0
572531,285822917,2,6048,5957,15.5,3.12,31,70,0,0
572966,285929168,2,5960,6028,15.41,3.37,31,70,0,0
573419,286037320,2,6028,6071,15.45,3.3,31,71,0,0
573861,286147838,2,6060,5957,15.47,3.03,31,71,0,0
574298,286249634,2,5953,5871,15.47,3,30,71,0,0
574787,286367872,2,5866,5814,15.46,3.1,31,71,0,0
575192,286466457,2,5819,5914,15.48,3.02,30,71,0,0
575636,286579345,2,5905,5800,15.5,3.37,31,71,0,0
576083,286685185,2,5794,5685,15.47,3.07,31,71,0,0
576528,286797818,2,5696,5814,15.45,3.44,31,71,0,0
576971,286902262,2,5821,5985,15.49,3.38,31,71,0,0
577419,287009659,2,5979,5871,15.45,3.36,30,71,0,0
577865,287119760,2,5876,5957,15.43,3.34,31,71,0,0
578315,287228209,2,5972,6128,15.5,3.7,31,72,0,0
578754,287336908,2,6134,6200,15.54,3.13,31,72,0,0
579202,287445651,2,6167,5828,15.5,2.74,31,72,0,0
579647,287556845,2,5837,5942,15.56,2.67,31,72,0,0
580050,287654821,2,5947,6042,15.52,3.27,31,72,0,0
580986,287881882,2,6051,6271,15.47,3.21,31,72,0,0
581391,287983052,2,6267,6057,15.52,1.93,30,72,0,0
581917,288105568,2,6033,5785,15.51,2.46,31,72,0,0
582325,288207200,2,5787,5857,15.49,2.52,31,72,0,0
583000,288425285,2,5931,5785,15.55,2.48,31,73,0,0
583406,288530606,2,5797,6071,15.47,2.76,31,73,0,0
583898,288653338,2,6071,6071,15.46,2.84,31,73,0,0
584343,288758141,2,6061,5971,15.54,2.92,31,73,0,0
584789,288868058,2,5971,5971,15.52,2.71,31,73,0,0
585230,288979682,2,5966,5928,15.41,2.87,31,73,0,0
586127,289196040,2,5921,5800,15.45,2.67,31,73,0,0
586530,289290104,2,5799,5742,15.47,2.7,31,73,0,0
587457,289514347,2,5741,5714,15.41,3.07,31,73,0,0
588350,289735609,2,5730,6000,15.42,3.2,31,74,0,0
588760,289834798,2,6000,6014,15.45,3.25,31,74,0,0
589199,289944092,2,6022,6185,15.5,3.41,31,74,0,0
589697,290068359,2,6180,6128,15.48,3.47,31,74,0,0
590104,290169897,2,6108,5914,15.44,3.15,31,74,0,0
590511,290271338,2,5916,6042,15.48,3.09,31,74,0,0
590998,290390665,2,6031,5928,15.44,2.98,30,74,0,0
591402,290494956,2,5956,6128,15.47,3.47,31,74,0,0
591808,290594303,2,6127,6114,15.39,3.65,31,74,0,0
592254,290702751,2,6116,6157,15.41,3.71,31,74,0,0
592707,290816633,2,6147,6042,15.42,3.7,31,75,0,0
593150,290923458,2,6041,6028,15.44,3.21,31,75,0,0
593557,291024918,2,6024,5828,15.38,3.17,30,75,0,0
594001,291134407,2,5827,5785,15.47,3.23,31,75,0,0
594453,291244853,2,5781,5728,15.53,2.93,31,75,0,0
594938,291362690,2,5730,5757,15.42,2.81,31,75,0,0
595382,291468903,2,5749,5671,15.45,2.78,31,75,0,0
595788,291575332,2,5668,5628,15.42,2.88,31,75,0,0
596235,291680858,2,5631,5685,15.43,2.83,31,75,0,0
596682,291794656,2,5683,5671,15.48,2.91,31,75,0,0
597129,291908332,2,5676,5728,15.41,3.08,31,75,0,0
597575,292014947,2,5724,5685,15.48,2.94,31,76,0,0
598015,292123393,2,5690,5757,15.39,2.87,31,76,0,0
598470,292234890,2,5739,5571,15.41,2.71,31,76,0,0
598838,292333776,2,5569,5485,15.39,2.73,31,76,0,0
599367,292453346,2,5495,5614,15.4,2.92,31,76,0,0
599807,292560927,2,5626,5757,15.39,3.24,31,76,0,0
600254,292668714,2,5757,5757,15.35,3.28,31,76,0,0
600658,292773135,2,5757,5800,15.36,3.12,31,76,0,0
601111,292884679,2,5797,5585,15.42,2.92,31,76,0,0
601598,292999941,2,5579,5500,15.45,2.56,31,76,0,0
602001,293104877,2,5504,5757,15.44,2.7,31,76,0,0
602493,293220324,2,5747,5600,15.47,2.71,31,77,0,0
602978,293336359,2,5612,5742,15.47,2.56,31,77,0,0
