LineNo,TimeUS,C,Roll,Pitch,Yaw,VN,VE,VD,dPD,PN,PE,PD,GX,GY,GZ,OH
534,1.9632e+07,0,1.36,0.41,17.36,0.011262,0.0062683,0.003669,0.14743,0,0,-0.29288,0,0,-0.2,0
1216,1.9883e+07,0,1.42,0.44,17.41,-0.0032762,0.00294,-0.54941,-0.4304,0,0,-0.31411,0,0,-0.19,0
1479,1.9929e+07,0,1.39,0.43,17.42,0.0059067,0.0046648,-0.54477,-0.43737,0,0,-0.33602,0,0,-0.19,0
1523,1.9939e+07,0,1.38,0.43,17.43,0.0081418,0.0047596,-0.5435,-0.44079,0,0,-0.34052,0,0,-0.19,0
1564,1.9949e+07,0,1.38,0.43,17.43,0.010061,0.0044759,-0.54319,-0.44528,0,0,-0.34505,0,0,-0.19,0
1604,1.9962e+07,0,1.37,0.43,17.44,0.01221,0.0038049,-0.54376,-0.45341,0,0,-0.35192,0,0,-0.19,0
1645,1.9972e+07,0,1.37,0.43,17.44,0.013508,0.0031935,-0.54441,-0.46182,0,0,-0.35718,0,0,-0.19,0
1686,1.9983e+07,0,1.37,0.43,17.44,0.014318,0.0028171,-0.54507,-0.47129,0,0,-0.36246,0,0,-0.19,0
1728,1.9992e+07,0,1.37,0.42,17.44,0.015015,0.0022612,-0.54554,-0.48098,0,0,-0.36774,0,0,-0.19,0
1769,2.0003e+07,0,1.38,0.41,17.44,0.014853,0.0015446,-0.54534,-0.49081,0,0,-0.37358,0,0,-0.19,0
1814,2.0013e+07,0,1.39,0.4,17.44,0.013937,0.00056918,-0.54478,-0.49896,0,0,-0.37903,0,0,-0.19,0
1855,2.0023e+07,0,1.4,0.38,17.44,0.01238,-0.00061081,-0.54407,-0.50662,0,0,-0.38432,0,0,-0.19,0
1896,2.0034e+07,0,1.4,0.37,17.44,0.010157,-0.0019274,-0.54316,-0.51369,0,0,-0.38961,0,0,-0.19,0
1943,2.0049e+07,0,1.4,0.36,17.44,0.0061238,-0.0032655,-0.54164,-0.51892,0,0,-0.39624,0,0,-0.19,0
1983,2.0059e+07,0,1.41,0.35,17.44,0.0034831,-0.0041636,-0.5409,-0.51441,0,0,-0.3997,0,0,-0.19,0
2024,2.0069e+07,0,1.4,0.35,17.44,0.0003698,-0.0049392,-0.54066,-0.50813,0,0,-0.40325,0,0,-0.19,0
2068,2.0079e+07,0,1.4,0.36,17.45,-0.0026239,-0.0056585,-0.54025,-0.49971,0,0,-0.40688,0,0,-0.19,0
2108,2.0089e+07,0,1.39,0.37,17.45,-0.0052847,-0.0064023,-0.54023,-0.48909,0,0,-0.41059,0,0,-0.19,0
2150,2.01e+07,0,1.39,0.38,17.46,-0.0075598,-0.0067153,-0.54086,-0.47636,0,0,-0.41653,0,0,-0.19,0
2194,2.011e+07,0,1.38,0.4,17.47,-0.0088309,-0.006356,-0.54035,-0.46565,0,0,-0.42032,0,0,-0.2,0
2236,2.012e+07,0,1.38,0.41,17.47,-0.0093246,-0.0056461,-0.53937,-0.4562,0,0,-0.42417,0,0,-0.2,0
2277,2.013e+07,0,1.37,0.41,17.48,-0.0095142,-0.0049621,-0.53807,-0.4475,0,0,-0.42808,0,0,-0.2,0
2317,2.014e+07,0,1.37,0.42,17.49,-0.0093359,-0.0040565,-0.5367,-0.44069,0,0,-0.43204,0,0,-0.2,0
2359,2.015e+07,0,1.38,0.42,17.49,-0.0088122,-0.0030962,-0.53608,-0.43379,0,0,-0.4374,0,0,-0.2,0
2399,2.016e+07,0,1.38,0.42,17.49,-0.0077841,-0.0020557,-0.53492,-0.42841,0,0,-0.44071,0,0,-0.19,0
2440,2.017e+07,0,1.39,0.42,17.49,-0.0063704,-0.0009291,-0.53425,-0.42341,0,0,-0.44411,0,0,-0.19,0
2480,2.0181e+07,0,1.39,0.42,17.49,-0.0046264,0.00054492,-0.53377,-0.4178,0,0,-0.44813,0,0,-0.19,0
2521,2.0191e+07,0,1.4,0.42,17.48,-0.003018,0.0017427,-0.53441,-0.41169,0,0,-0.45346,0,0,-0.19,0
2562,2.0201e+07,0,1.41,0.42,17.48,-0.0015155,0.0027618,-0.53408,-0.40582,0,0,-0.45702,0,0,-0.19,0
2607,2.0211e+07,0,1.41,0.43,17.48,-0.00019393,0.0033301,-0.53371,-0.40141,0,0,-0.46066,0,0,-0.19,0
2649,2.0222e+07,0,1.41,0.43,17.48,0.001158,0.0039446,-0.53282,-0.39804,0,0,-0.46436,0,0,-0.19,0
2689,2.0232e+07,0,1.4,0.43,17.48,0.0024296,0.0041716,-0.53171,-0.39515,0,0,-0.46813,0,0,-0.19,0
2730,2.0242e+07,0,1.4,0.43,17.48,0.0037781,0.0043245,-0.53064,-0.39164,0,0,-0.47249,0,0,-0.19,0
2770,2.0252e+07,0,1.39,0.42,17.48,0.004798,0.0042388,-0.52983,-0.38827,0,0,-0.47779,0,0,-0.19,0
2808,2.0263e+07,0,1.38,0.41,17.48,0.0054024,0.0038848,-0.52895,-0.38584,0,0,-0.48143,0,0,-0.21,0
2848,2.0273e+07,0,1.38,0.41,17.48,0.0056457,0.0032318,-0.52783,-0.38316,0,0,-0.48513,0,0,-0.21,0
2892,2.0283e+07,0,1.37,0.4,17.49,0.0056468,0.0026806,-0.52752,-0.38217,0,0,-0.4889,0,0,-0.21,0
2932,2.0293e+07,0,1.37,0.4,17.5,0.0057138,0.0020082,-0.52732,-0.38139,0,0,-0.49327,0,0,-0.21,0
2975,2.0303e+07,0,1.37,0.39,17.5,0.0057988,0.0016663,-0.52716,-0.38192,0,0,-0.49717,0,0,-0.21,0
3021,2.0313e+07,0,1.37,0.39,17.51,0.0056852,0.0013108,-0.52713,-0.38425,0,0,-0.50112,0,0,-0.21,0
3062,2.0324e+07,0,1.38,0.39,17.51,0.0054378,0.00080001,-0.52743,-0.38584,0,0,-0.50639,0,0,-0.21,0
3102,2.0334e+07,0,1.38,0.4,17.52,0.0052138,2.0856e-06,-0.5271,-0.38849,0,0,-0.5104,0,0,-0.21,0
3143,2.0344e+07,0,1.39,0.4,17.53,0.0048884,-0.00061653,-0.52629,-0.39112,0,0,-0.51447,0,0,-0.21,0
3180,2.0354e+07,0,1.39,0.4,17.53,0.0046545,-0.0012748,-0.52448,-0.39206,0,0,-0.5173,0,0,-0.21,0
3218,2.0364e+07,0,1.4,0.4,17.54,0.0045251,-0.0017535,-0.52254,-0.38925,0,0,-0.51972,0,0,-0.21,0
3260,2.0374e+07,0,1.4,0.4,17.55,0.004453,-0.00191,-0.52212,-0.38089,0,0,-0.52493,0,0,-0.21,0
3301,2.0384e+07,0,1.4,0.4,17.55,0.0041479,-0.0019861,-0.52064,-0.37101,0,0,-0.52745,0,0,-0.21,0
3342,2.0394e+07,0,1.4,0.39,17.56,0.0036697,-0.0022252,-0.5197,-0.36237,0,0,-0.53007,0,0,-0.21,0
3382,2.0404e+07,0,1.4,0.39,17.56,0.0028165,-0.0025527,-0.51901,-0.35404,0,0,-0.53279,0,0,-0.21,0
3428,2.0414e+07,0,1.39,0.38,17.56,0.0018348,-0.0021588,-0.51836,-0.3477,0,0,-0.53562,0,0,-0.21,0
3468,2.0424e+07,0,1.39,0.38,17.56,0.00063347,-0.0015016,-0.51852,-0.33976,0,0,-0.5408,0,0,-0.21,0
3510,2.0434e+07,0,1.38,0.38,17.57,-0.0006721,-0.0007957,-0.51801,-0.33594,0,0,-0.54371,0,0,-0.21,0
3552,2.0444e+07,0,1.38,0.38,17.57,-0.0019469,-0.00020698,-0.51705,-0.33223,0,0,-0.54671,0,0,-0.21,0
3594,2.0457e+07,0,1.38,0.38,17.58,-0.0039916,0.00074999,-0.51545,-0.32712,0,0,-0.55057,0,0,-0.21,0
3631,2.0467e+07,0,1.38,0.38,17.58,-0.0055461,0.0012819,-0.51406,-0.32378,0,0,-0.55299,0,0,-0.21,0
3672,2.0477e+07,0,1.38,0.38,17.59,-0.0067423,0.00145,-0.51365,-0.31699,0,0,-0.55813,0,0,-0.21,0
3715,2.0487e+07,0,1.38,0.39,17.59,-0.0077511,0.0017352,-0.51204,-0.31018,0,0,-0.56064,0,0,-0.21,0
3755,2.0497e+07,0,1.39,0.39,17.6,-0.0081241,0.002071,-0.51077,-0.30546,0,0,-0.56325,0,0,-0.21,0
3796,2.0507e+07,0,1.39,0.39,17.61,-0.0084729,0.0021461,-0.50985,-0.30183,0,0,-0.56596,0,0,-0.21,0
3840,2.0517e+07,0,1.4,0.4,17.61,-0.0083581,0.0020473,-0.50915,-0.30063,0,0,-0.56877,0,0,-0.21,0
3883,2.0527e+07,0,1.4,0.4,17.62,-0.008222,0.0018019,-0.50934,-0.2981,0,0,-0.57386,0,0,-0.21,0
3924,2.0537e+07,0,1.41,0.4,17.63,-0.0076777,0.0011056,-0.50846,-0.29732,0,0,-0.57675,0,0,-0.21,0
3964,2.0547e+07,0,1.41,0.41,17.63,-0.0066803,0.00048483,-0.50754,-0.29739,0,0,-0.57973,0,0,-0.22,0
4002,2.056e+07,0,1.4,0.41,17.64,-0.0053721,0.00018982,-0.50608,-0.2926,0,0,-0.58242,0,0,-0.22,0
4042,2.057e+07,0,1.4,0.41,17.64,-0.0040009,7.6678e-05,-0.50459,-0.28586,0,0,-0.58423,0,0,-0.22,0
4083,2.0579e+07,0,1.4,0.42,17.64,-0.0024772,0.00015302,-0.50308,-0.28009,0,0,-0.58617,0,0,-0.22,0
4124,2.059e+07,0,1.39,0.42,17.65,-0.00092512,0.00010777,-0.50169,-0.27438,0,0,-0.58823,0,0,-0.22,0
4165,2.06e+07,0,1.39,0.42,17.65,0.0006696,4.7591e-05,-0.50055,-0.26644,0,0,-0.59091,0,0,-0.22,0
4206,2.061e+07,0,1.38,0.42,17.65,0.0021132,5.8016e-05,-0.50035,-0.25879,0,0,-0.59591,0,0,-0.22,0
4252,2.0621e+07,0,1.38,0.42,17.65,0.0036156,0.00023255,-0.49952,-0.25338,0,0,-0.59819,0,0,-0.22,0
4296,2.0631e+07,0,1.38,0.42,17.66,0.0048584,0.00066718,-0.49851,-0.24873,0,0,-0.60059,0,0,-0.22,0
4337,2.0641e+07,0,1.38,0.41,17.66,0.0058241,0.001022,-0.49772,-0.24718,0,0,-0.60359,0,0,-0.22,0
4378,2.0654e+07,0,1.38,0.4,17.66,0.0062774,0.00092603,-0.49574,-0.24835,0,0,-0.60528,0,0,-0.22,0
4418,2.0664e+07,0,1.39,0.39,17.66,0.0063796,0.00084062,-0.49372,-0.24468,0,0,-0.60664,0,0,-0.21,0
4458,2.0674e+07,0,1.39,0.39,17.66,0.0059738,0.00088839,-0.49187,-0.23476,0,0,-0.60816,0,0,-0.21,0
4499,2.0685e+07,0,1.39,0.39,17.66,0.0056282,0.00067271,-0.4914,-0.2224,0,0,-0.61307,0,0,-0.21,0
4539,2.0695e+07,0,1.4,0.38,17.66,0.0048415,0.00046455,-0.48971,-0.21238,0,0,-0.61422,0,0,-0.21,0
4580,2.0705e+07,0,1.4,0.38,17.66,0.0038534,0.00029947,-0.4877,-0.20288,0,0,-0.61552,0,0,-0.21,0
4625,2.0715e+07,0,1.4,0.38,17.66,0.0025581,-0.00011101,-0.48647,-0.19728,0,0,-0.61696,0,0,-0.21,0
4666,2.0725e+07,0,1.4,0.38,17.66,0.0012608,-0.00067762,-0.48517,-0.19312,0,0,-0.61902,0,0,-0.21,0
4707,2.0735e+07,0,1.4,0.38,17.66,0.00019362,-0.00087329,-0.48513,-0.18833,0,0,-0.62387,0,0,-0.21,0
4748,2.0745e+07,0,1.39,0.39,17.66,-0.00083647,-0.00095725,-0.48382,-0.18505,0,0,-0.62556,0,0,-0.21,0
4789,2.0755e+07,0,1.39,0.39,17.66,-0.0014682,-0.00084269,-0.48271,-0.18493,0,0,-0.62736,0,0,-0.21,0
4829,2.0768e+07,0,1.38,0.39,17.66,-0.002554,-0.00035628,-0.48097,-0.18178,0,0,-0.62919,0,0,-0.22,0
4874,2.0781e+07,0,1.38,0.39,17.66,-0.0034123,0.00014352,-0.47878,-0.17174,0,0,-0.6312,0,0,-0.22,0
4915,2.0791e+07,0,1.38,0.39,17.66,-0.0040649,0.00040634,-0.47655,-0.16247,0,0,-0.63192,0,0,-0.22,0
4955,2.0801e+07,0,1.38,0.39,17.67,-0.0044461,0.00078002,-0.47492,-0.15658,0,0,-0.63279,0,0,-0.22,0
4997,2.0811e+07,0,1.38,0.4,17.67,-0.0044356,0.0012713,-0.47321,-0.15354,0,0,-0.63381,0,0,-0.22,0
5042,2.0822e+07,0,1.38,0.4,17.67,-0.0044473,0.0018514,-0.4734,-0.14837,0,0,-0.63854,0,0,-0.22,0
5082,2.0832e+07,0,1.39,0.4,17.68,-0.0042823,0.0020463,-0.47199,-0.14583,0,0,-0.63969,0,0,-0.22,0
5123,2.0842e+07,0,1.39,0.4,17.68,-0.0039916,0.0017771,-0.47083,-0.14478,0,0,-0.64099,0,0,-0.22,0
5164,2.0852e+07,0,1.4,0.4,17.69,-0.0038355,0.0014134,-0.46972,-0.14353,0,0,-0.64289,0,0,-0.22,0
5203,2.0862e+07,0,1.4,0.4,17.69,-0.0035481,0.00089214,-0.46776,-0.14202,0,0,-0.64284,0,0,-0.22,0
5244,2.0872e+07,0,1.4,0.4,17.69,-0.0031293,0.00022493,-0.46598,-0.14038,0,0,-0.64296,0,0,-0.22,0
5285,2.0883e+07,0,1.4,0.4,17.69,-0.0025028,-0.00048881,-0.46404,-0.13243,0,0,-0.64374,0,0,-0.22,0
5327,2.0893e+07,0,1.4,0.4,17.7,-0.0020771,-0.00095806,-0.46372,-0.12261,0,0,-0.64837,0,0,-0.22,0
5367,2.0903e+07,0,1.4,0.4,17.7,-0.0016739,-0.0017216,-0.4617,-0.11568,0,0,-0.64882,0,0,-0.22,0
5409,2.0913e+07,0,1.4,0.4,17.7,-0.0011738,-0.0023196,-0.45995,-0.1103,0,0,-0.64944,0,0,-0.22,0
5453,2.0923e+07,0,1.39,0.4,17.7,-0.0008405,-0.0025127,-0.45823,-0.10849,0,0,-0.6502,0,0,-0.22,0
5494,2.0933e+07,0,1.39,0.4,17.7,-0.00048805,-0.0027853,-0.45813,-0.10834,0,0,-0.65478,0,0,-0.22,0
5534,2.0944e+07,0,1.38,0.4,17.7,-8.9311e-07,-0.0027308,-0.45682,-0.11045,0,0,-0.65566,0,0,-0.22,0
5577,2.0953e+07,0,1.38,0.4,17.7,0.00043568,-0.0023366,-0.4554,-0.11296,0,0,-0.65669,0,0,-0.22,0
5615,2.0964e+07,0,1.38,0.4,17.7,0.00057878,-0.0020672,-0.45351,-0.11641,0,0,-0.65591,0,0,-0.21,0
5655,2.0974e+07,0,1.38,0.4,17.7,0.00070171,-0.0016125,-0.45152,-0.11456,0,0,-0.65534,0,0,-0.21,0
5697,2.0984e+07,0,1.38,0.4,17.7,0.00099503,-0.0012301,-0.44968,-0.10501,0,0,-0.65543,0,0,-0.21,0
5737,2.0994e+07,0,1.39,0.41,17.7,0.0011895,-0.00083854,-0.44963,-0.092824,0,0,-0.65992,0,0,-0.21,0
5778,2.1004e+07,0,1.39,0.41,17.7,0.0017859,-0.00035381,-0.4475,-0.083344,0,0,-0.65972,0,0,-0.21,0
5819,2.1014e+07,0,1.4,0.4,17.7,0.0022522,0.00017974,-0.44534,-0.07506,0,0,-0.65971,0,0,-0.21,0
5864,2.1024e+07,0,1.4,0.4,17.7,0.0022395,0.00050632,-0.44328,-0.068713,0,0,-0.65987,0,0,-0.21,0
5905,2.1034e+07,0,1.4,0.4,17.7,0.002195,0.00074457,-0.44148,-0.066924,0,0,-0.66019,0,0,-0.21,0
5945,2.1044e+07,0,1.4,0.4,17.7,0.0021185,0.00081674,-0.44135,-0.063055,0,0,-0.6646,0,0,-0.21,0
5987,2.1054e+07,0,1.4,0.39,17.7,0.001844,0.0007665,-0.43972,-0.061167,0,0,-0.66506,0,0,-0.21,0
6024,2.1064e+07,0,1.4,0.39,17.7,0.0015281,0.00074082,-0.43724,-0.05841,0,0,-0.66373,0,0,-0.2,0
6067,2.1074e+07,0,1.4,0.39,17.7,0.0011669,0.0010217,-0.43501,-0.05506,0,0,-0.66261,0,0,-0.2,0
6105,2.1085e+07,0,1.39,0.38,17.69,0.0003894,0.0011438,-0.43267,-0.049757,0,0,-0.66213,0,0,-0.2,0
6145,2.1095e+07,0,1.39,0.38,17.69,-0.0001798,0.0012766,-0.4324,-0.040181,0,0,-0.66646,0,0,-0.2,0
6186,2.1105e+07,0,1.39,0.38,17.69,-0.00094044,0.0012117,-0.43054,-0.033318,0,0,-0.66572,0,0,-0.2,0
6227,2.1115e+07,0,1.38,0.38,17.68,-0.0017387,0.0011383,-0.42827,-0.026716,0,0,-0.66519,0,0,-0.2,0
6272,2.1125e+07,0,1.38,0.38,17.68,-0.0023334,0.001071,-0.42617,-0.023942,0,0,-0.66484,0,0,-0.2,0
6313,2.1135e+07,0,1.38,0.38,17.68,-0.0028263,0.00084059,-0.42436,-0.02271,0,0,-0.66467,0,0,-0.2,0
6353,2.1146e+07,0,1.38,0.39,17.68,-0.0034715,0.00081008,-0.42398,-0.018754,0,0,-0.66891,0,0,-0.2,0
6394,2.1156e+07,0,1.38,0.39,17.68,-0.0038958,0.00070769,-0.42237,-0.018864,0,0,-0.66889,0,0,-0.2,0
6433,2.1166e+07,0,1.39,0.39,17.68,-0.0041054,0.00046983,-0.42003,-0.01593,0,0,-0.667,0,0,-0.21,0
6472,2.1176e+07,0,1.39,0.39,17.68,-0.0042183,2.8108e-05,-0.41811,-0.012698,0,0,-0.66533,0,0,-0.21,0
6513,2.1186e+07,0,1.39,0.39,17.68,-0.00437,-0.00027988,-0.41622,-0.0072952,0,0,-0.6639,0,0,-0.21,0
6553,2.1196e+07,0,1.4,0.39,17.68,-0.0044305,-0.00047931,-0.41617,0.0041066,0,0,-0.66806,0,0,-0.21,0
6594,2.1206e+07,0,1.4,0.39,17.69,-0.0041931,-0.00074169,-0.4141,0.0124,0,0,-0.66683,0,0,-0.21,0
6634,2.1216e+07,0,1.4,0.39,17.69,-0.0038608,-0.00091913,-0.41168,0.019908,0,0,-0.66581,0,0,-0.21,0
6680,2.1226e+07,0,1.4,0.39,17.69,-0.0036717,-0.0013164,-0.40952,0.022937,0,0,-0.66498,0,0,-0.21,0
6720,2.1236e+07,0,1.4,0.4,17.69,-0.0031986,-0.0016762,-0.40746,0.024328,0,0,-0.66435,0,0,-0.21,0
6761,2.1246e+07,0,1.4,0.4,17.69,-0.0025941,-0.001954,-0.40729,0.028103,0,0,-0.66842,0,0,-0.21,0
6802,2.1256e+07,0,1.4,0.4,17.69,-0.0021499,-0.0020818,-0.40513,0.028124,0,0,-0.66795,0,0,-0.21,0
6840,2.1268e+07,0,1.39,0.41,17.69,-0.0011758,-0.0017776,-0.4024,0.032501,0,0,-0.66669,0,0,-0.2,0
6883,2.1278e+07,0,1.39,0.41,17.69,-0.0003791,-0.0016333,-0.40003,0.043547,0,0,-0.66448,0,0,-0.2,0
6924,2.1288e+07,0,1.39,0.41,17.69,0.00015328,-0.0014561,-0.39776,0.0546,0,0,-0.66251,0,0,-0.2,0
6965,2.1298e+07,0,1.39,0.4,17.68,0.00075039,-0.00092418,-0.39541,0.061758,0,0,-0.66078,0,0,-0.2,0
7005,2.1308e+07,0,1.39,0.4,17.68,0.0012446,-0.00058615,-0.39337,0.06735,0,0,-0.65927,0,0,-0.2,0
7046,2.1319e+07,0,1.39,0.4,17.68,0.0017186,8.8676e-05,-0.39298,0.076345,0,0,-0.66359,0,0,-0.2,0
7090,2.1329e+07,0,1.39,0.4,17.68,0.0019095,0.00057804,-0.39053,0.081265,0,0,-0.66226,0,0,-0.2,0
7132,2.1339e+07,0,1.39,0.4,17.68,0.0019743,0.0011022,-0.38847,0.081463,0,0,-0.66113,0,0,-0.2,0
7173,2.1349e+07,0,1.4,0.39,17.68,0.0019734,0.0014131,-0.3863,0.08005,0,0,-0.6602,0,0,-0.2,0
7213,2.1361e+07,0,1.4,0.39,17.68,0.0015748,0.0016023,-0.38327,0.077207,0,0,-0.65816,0,0,-0.2,0
7256,2.1371e+07,0,1.4,0.39,17.68,0.0013798,0.0017506,-0.3827,0.078683,0,0,-0.66198,0,0,-0.2,0
7294,2.1382e+07,0,1.4,0.39,17.67,0.0010817,0.0017444,-0.38025,0.081035,0,0,-0.65938,0,0,-0.19,0
7336,2.1392e+07,0,1.4,0.39,17.67,0.00088262,0.001916,-0.37759,0.086056,0,0,-0.65703,0,0,-0.19,0
7376,2.1402e+07,0,1.4,0.39,17.67,0.00064412,0.0018873,-0.37504,0.096555,0,0,-0.65493,0,0,-0.19,0
7417,2.1412e+07,0,1.4,0.39,17.67,0.00013061,0.0017601,-0.3727,0.10193,0,0,-0.65307,0,0,-0.19,0
7466,2.1424e+07,0,1.4,0.38,17.66,-0.00062371,0.0017098,-0.36994,0.11032,0,0,-0.65253,0,0,-0.19,0
7506,2.1435e+07,0,1.39,0.38,17.66,-0.00083186,0.0014133,-0.36747,0.11458,0,0,-0.6511,0,0,-0.19,0
7547,2.1445e+07,0,1.39,0.38,17.66,-0.0011288,0.0013492,-0.36515,0.11531,0,0,-0.64987,0,0,-0.19,0
7588,2.1455e+07,0,1.39,0.38,17.66,-0.001513,0.0012969,-0.36307,0.11655,0,0,-0.6492,0,0,-0.19,0
7629,2.1468e+07,0,1.38,0.38,17.65,-0.0018546,0.0011952,-0.36073,0.11993,0,0,-0.64751,0,0,-0.19,0
7668,2.1478e+07,0,1.38,0.38,17.65,-0.0023212,0.00098507,-0.35844,0.12091,0,0,-0.64568,0,0,-0.19,0
7711,2.1488e+07,0,1.39,0.39,17.64,-0.0023902,0.00069118,-0.35825,0.12572,0,0,-0.64926,0,0,-0.19,0
7752,2.1498e+07,0,1.39,0.39,17.64,-0.002535,0.0004157,-0.35572,0.12962,0,0,-0.64728,0,0,-0.19,0
7793,2.1508e+07,0,1.39,0.39,17.64,-0.0027093,0.00016499,-0.3536,0.12909,0,0,-0.64551,0,0,-0.19,0
7833,2.1518e+07,0,1.39,0.39,17.63,-0.0026767,-3.852e-05,-0.35155,0.11975,0,0,-0.64393,0,0,-0.18,0
7878,2.1528e+07,0,1.4,0.39,17.63,-0.0028421,-0.00045331,-0.35098,0.11611,0,0,-0.64743,0,0,-0.18,0
7918,2.1538e+07,0,1.4,0.39,17.63,-0.0031391,-0.00073592,-0.34887,0.10985,0,0,-0.64602,0,0,-0.18,0
7960,2.1549e+07,0,1.4,0.38,17.63,-0.0033099,-0.0012903,-0.34682,0.10326,0,0,-0.64481,0,0,-0.18,0
8000,2.1559e+07,0,1.4,0.38,17.62,-0.0035568,-0.0016347,-0.34469,0.097689,0,0,-0.64415,0,0,-0.18,0
8041,2.1569e+07,0,1.4,0.38,17.62,-0.0037209,-0.0017171,-0.3418,0.094364,0,0,-0.64104,0,0,-0.18,0
8082,2.1579e+07,0,1.4,0.38,17.62,-0.003676,-0.0018378,-0.34142,0.090802,0,0,-0.6448,0,0,-0.18,0
8116,2.1589e+07,0,1.4,0.38,17.62,-0.0036348,-0.0019324,-0.339,0.091715,0,0,-0.64189,0,0,-0.18,0
8158,2.1599e+07,0,1.4,0.39,17.61,-0.0038569,-0.0015936,-0.33671,0.097734,0,0,-0.63924,0,0,-0.18,0
8199,2.1609e+07,0,1.39,0.39,17.61,-0.0037251,-0.0014834,-0.3342,0.099515,0,0,-0.63681,0,0,-0.18,0
8239,2.162e+07,0,1.39,0.39,17.6,-0.003645,-0.0013749,-0.33214,0.098735,0,0,-0.63461,0,0,-0.18,0
8286,2.163e+07,0,1.39,0.4,17.6,-0.0035269,-0.00058835,-0.32968,0.1037,0,0,-0.63297,0,0,-0.18,0
8327,2.164e+07,0,1.39,0.4,17.6,-0.0030502,6.4857e-05,-0.32919,0.11026,0,0,-0.63626,0,0,-0.18,0
8368,2.165e+07,0,1.39,0.4,17.6,-0.0025855,0.00060147,-0.32689,0.11469,0,0,-0.63447,0,0,-0.18,0
8408,2.166e+07,0,1.39,0.4,17.6,-0.0020937,0.0012579,-0.32451,0.1148,0,0,-0.63288,0,0,-0.18,0
8447,2.1671e+07,0,1.39,0.4,17.6,-0.0016422,0.0019548,-0.32146,0.11275,0,0,-0.62943,0,0,-0.18,0
8485,2.1681e+07,0,1.4,0.4,17.6,-0.0011443,0.0022658,-0.3186,0.11458,0,0,-0.62653,0,0,-0.18,0
8526,2.1692e+07,0,1.4,0.39,17.61,-0.0004177,0.0023404,-0.31818,0.12388,0,0,-0.62971,0,0,-0.18,0
8566,2.1702e+07,0,1.4,0.39,17.61,0.0001587,0.0026201,-0.3156,0.13144,0,0,-0.62672,0,0,-0.18,0
8609,2.1712e+07,0,1.4,0.39,17.61,0.00071239,0.0028286,-0.31308,0.14247,0,0,-0.6243,0,0,-0.19,0
8649,2.1723e+07,0,1.4,0.39,17.61,0.0012686,0.0028562,-0.31089,0.14923,0,0,-0.6221,0,0,-0.18,0
8694,2.1733e+07,0,1.4,0.39,17.61,0.0013788,0.0028326,-0.30876,0.15347,0,0,-0.61982,0,0,-0.19,0
8735,2.1743e+07,0,1.4,0.39,17.61,0.0016426,0.0028146,-0.30656,0.15288,0,0,-0.61775,0,0,-0.18,0
8775,2.1753e+07,0,1.4,0.39,17.61,0.0016536,0.0025721,-0.30585,0.15585,0,0,-0.62081,0,0,-0.18,0
8816,2.1763e+07,0,1.4,0.38,17.61,0.0015003,0.0022783,-0.3036,0.15454,0,0,-0.61891,0,0,-0.18,0
8850,2.1774e+07,0,1.39,0.38,17.62,0.0011508,0.0022707,-0.30096,0.15432,0,0,-0.61648,0,0,-0.18,0
8891,2.1784e+07,0,1.39,0.38,17.62,0.00063392,0.0020609,-0.29864,0.15707,0,0,-0.61398,0,0,-0.18,0
8931,2.1794e+07,0,1.39,0.37,17.62,1.2429e-05,0.0016052,-0.29654,0.15853,0,0,-0.6117,0,0,-0.18,0
8972,2.1804e+07,0,1.39,0.37,17.62,-0.00081279,0.0013737,-0.29447,0.1557,0,0,-0.60964,0,0,-0.18,0
9013,2.1814e+07,0,1.38,0.37,17.62,-0.0016149,0.0011923,-0.29404,0.15659,0,0,-0.61257,0,0,-0.18,0
9054,2.1824e+07,0,1.38,0.37,17.63,-0.0023856,0.00077589,-0.292,0.15565,0,0,-0.61069,0,0,-0.18,0
9099,2.1834e+07,0,1.39,0.37,17.63,-0.0029907,0.0004829,-0.2901,0.15073,0,0,-0.609,0,0,-0.18,0
9139,2.1844e+07,0,1.39,0.37,17.63,-0.003673,0.00040648,-0.28825,0.14442,0,0,-0.60749,0,0,-0.18,0
9180,2.1854e+07,0,1.39,0.38,17.63,-0.0040765,0.00021274,-0.28632,0.13455,0,0,-0.60616,0,0,-0.18,0
9235,2.1895e+07,0,1.4,0.39,17.64,-0.0035806,-0.0010009,-0.27863,0.1171,0,0,-0.60156,0,0,-0.18,0
9276,2.1905e+07,0,1.4,0.39,17.65,-0.0034516,-0.00077921,-0.27673,0.11356,0,0,-0.59976,0,0,-0.18,0
9316,2.1915e+07,0,1.4,0.39,17.65,-0.0033586,-0.00073545,-0.2765,0.11435,0,0,-0.60252,0,0,-0.18,0
9357,2.1925e+07,0,1.4,0.39,17.65,-0.0030252,-0.00072862,-0.27442,0.11489,0,0,-0.60062,0,0,-0.18,0
9401,2.1935e+07,0,1.39,0.39,17.65,-0.0028612,-0.00044363,-0.27233,0.11255,0,0,-0.59891,0,0,-0.18,0
9442,2.1945e+07,0,1.39,0.39,17.64,-0.0026245,-5.0954e-05,-0.27048,0.10922,0,0,-0.59738,0,0,-0.18,0
9483,2.1955e+07,0,1.39,0.39,17.64,-0.0022202,0.00029884,-0.26842,0.10288,0,0,-0.59602,0,0,-0.18,0
9524,2.1965e+07,0,1.39,0.39,17.64,-0.0019237,0.0007068,-0.26792,0.099583,0,0,-0.5987,0,0,-0.18,0
9562,2.1975e+07,0,1.39,0.39,17.64,-0.0015138,0.0011726,-0.26578,0.095522,0,0,-0.59749,0,0,-0.18,0
9602,2.1985e+07,0,1.39,0.39,17.64,-0.0012135,0.0015105,-0.26359,0.091486,0,0,-0.59503,0,0,-0.18,0
9645,2.1995e+07,0,1.39,0.39,17.64,-0.00095051,0.0016847,-0.26144,0.09035,0,0,-0.59277,0,0,-0.18,0
9685,2.2005e+07,0,1.39,0.39,17.64,-0.00079394,0.0019001,-0.25955,0.08787,0,0,-0.5907,0,0,-0.18,0
9726,2.2015e+07,0,1.39,0.39,17.64,-0.00036687,0.0022108,-0.25918,0.09087,0,0,-0.59329,0,0,-0.18,0
9767,2.2025e+07,0,1.4,0.39,17.65,2.9851e-05,0.0023362,-0.25736,0.093508,0,0,-0.5914,0,0,-0.18,0
9812,2.2035e+07,0,1.4,0.39,17.65,0.00063281,0.0022865,-0.25556,0.093433,0,0,-0.5897,0,0,-0.18,0
9853,2.2045e+07,0,1.4,0.39,17.65,0.00088507,0.0023947,-0.25376,0.092638,0,0,-0.58817,0,0,-0.18,0
9893,2.2055e+07,0,1.4,0.39,17.66,0.00077684,0.0025719,-0.25208,0.088547,0,0,-0.58681,0,0,-0.18,0
9934,2.2066e+07,0,1.4,0.39,17.66,0.00094888,0.0024322,-0.25191,0.087252,0,0,-0.58933,0,0,-0.18,0
9980,2.2078e+07,0,1.4,0.39,17.67,0.0013295,0.0023008,-0.24901,0.089953,0,0,-0.58683,0,0,-0.18,0
10018,2.2088e+07,0,1.4,0.39,17.67,0.0012292,0.002204,-0.24659,0.098671,0,0,-0.58382,0,0,-0.18,0
10059,2.2098e+07,0,1.4,0.39,17.67,0.0013945,0.0020722,-0.24424,0.11032,0,0,-0.58105,0,0,-0.18,0
10100,2.2109e+07,0,1.4,0.39,17.68,0.001245,0.0019512,-0.2421,0.12087,0,0,-0.57849,0,0,-0.18,0
10141,2.2118e+07,0,1.39,0.39,17.68,0.00099677,0.0018563,-0.24002,0.12735,0,0,-0.57613,0,0,-0.18,0
10182,2.2129e+07,0,1.39,0.38,17.68,0.00076009,0.0018641,-0.23996,0.13184,0,0,-0.57853,0,0,-0.18,0
10227,2.2139e+07,0,1.39,0.38,17.68,0.00029132,0.001693,-0.23794,0.13417,0,0,-0.57656,0,0,-0.18,0
10268,2.2149e+07,0,1.39,0.38,17.68,7.5469e-07,0.0017666,-0.2362,0.13394,0,0,-0.57453,0,0,-0.18,0
10308,2.2159e+07,0,1.39,0.38,17.68,-0.00046186,0.0018172,-0.23437,0.13309,0,0,-0.5727,0,0,-0.18,0
10349,2.2169e+07,0,1.39,0.38,17.68,-0.00078183,0.0014865,-0.23244,0.12912,0,0,-0.57103,0,0,-0.18,0
10389,2.218e+07,0,1.39,0.38,17.69,-0.0012993,0.0016378,-0.23218,0.12787,0,0,-0.57335,0,0,-0.18,0
10426,2.219e+07,0,1.4,0.38,17.69,-0.0019765,0.0017644,-0.22996,0.12818,0,0,-0.57049,0,0,-0.18,0
10467,2.2199e+07,0,1.4,0.38,17.69,-0.0023811,0.0014272,-0.22781,0.13065,0,0,-0.56785,0,0,-0.18,0
10507,2.2209e+07,0,1.4,0.38,17.69,-0.0028649,0.00098801,-0.22559,0.13166,0,0,-0.5654,0,0,-0.18,0
10549,2.222e+07,0,1.4,0.38,17.7,-0.0033334,0.0011372,-0.22518,0.13273,0,0,-0.56766,0,0,-0.18,0
10590,2.2229e+07,0,1.4,0.38,17.7,-0.003511,0.0011986,-0.22292,0.13297,0,0,-0.56536,0,0,-0.18,0
10635,2.224e+07,0,1.4,0.38,17.7,-0.0035061,0.00074991,-0.22098,0.13324,0,0,-0.56325,0,0,-0.18,0
10675,2.225e+07,0,1.4,0.38,17.71,-0.0038639,0.00066606,-0.21922,0.13508,0,0,-0.56156,0,0,-0.18,0
10716,2.226e+07,0,1.4,0.39,17.71,-0.0038758,0.0006931,-0.21741,0.13514,0,0,-0.55983,0,0,-0.18,0
10757,2.227e+07,0,1.4,0.39,17.71,-0.0035733,0.00046089,-0.21553,0.13159,0,0,-0.55826,0,0,-0.18,0
10799,2.228e+07,0,1.4,0.39,17.71,-0.0032429,0.00057202,-0.21513,0.13019,0,0,-0.56041,0,0,-0.18,0
10840,2.2291e+07,0,1.4,0.39,17.71,-0.002811,0.00099171,-0.21292,0.13146,0,0,-0.55714,0,0,-0.18,0
10880,2.23e+07,0,1.39,0.39,17.71,-0.0026363,0.0011642,-0.21049,0.13618,0,0,-0.55411,0,0,-0.18,0
10922,2.231e+07,0,1.39,0.39,17.71,-0.002259,0.0013646,-0.20833,0.13958,0,0,-0.55128,0,0,-0.18,0
10963,2.2321e+07,0,1.39,0.39,17.71,-0.0019521,0.0018202,-0.20632,0.14308,0,0,-0.54886,0,0,-0.18,0
11004,2.2331e+07,0,1.39,0.39,17.71,-0.0014183,0.0023295,-0.20586,0.14985,0,0,-0.55092,0,0,-0.18,0
11049,2.2341e+07,0,1.4,0.39,17.71,-0.001088,0.0028583,-0.20394,0.15561,0,0,-0.54847,0,0,-0.18,0
11090,2.2351e+07,0,1.4,0.39,17.71,-0.00070769,0.0031799,-0.20211,0.15799,0,0,-0.5462,0,0,-0.18,0
11133,2.2362e+07,0,1.4,0.39,17.71,-0.00050596,0.0032312,-0.20042,0.157,0,0,-0.54411,0,0,-0.18,0
11173,2.2372e+07,0,1.4,0.39,17.71,-0.0001652,0.0034186,-0.19846,0.159,0,0,-0.54222,0,0,-0.18,0
11212,2.2384e+07,0,1.4,0.38,17.71,-1.0092e-05,0.0034724,-0.19604,0.16293,0,0,-0.53931,0,0,-0.18,0
11253,2.2394e+07,0,1.4,0.38,17.72,0.0001091,0.0029313,-0.19357,0.16522,0,0,-0.53602,0,0,-0.18,0
11293,2.2404e+07,0,1.4,0.38,17.72,-4.808e-05,0.0028009,-0.19326,0.17382,0,0,-0.53795,0,0,-0.18,0
11334,2.2414e+07,0,1.4,0.38,17.73,-0.00047844,0.0027634,-0.19076,0.17694,0,0,-0.53483,0,0,-0.18,0
11374,2.2424e+07,0,1.4,0.38,17.73,-0.00059854,0.0023576,-0.18872,0.18049,0,0,-0.53192,0,0,-0.18,0
11420,2.2434e+07,0,1.4,0.38,17.73,-0.00096794,0.0024837,-0.1865,0.18158,0,0,-0.52921,0,0,-0.18,0
11461,2.2445e+07,0,1.39,0.38,17.73,-0.0013801,0.002568,-0.18608,0.18648,0,0,-0.53107,0,0,-0.18,0
11503,2.2455e+07,0,1.39,0.38,17.73,-0.0015906,0.0023905,-0.18435,0.18821,0,0,-0.52852,0,0,-0.18,0
11545,2.2465e+07,0,1.39,0.38,17.73,-0.001986,0.0022696,-0.18244,0.18907,0,0,-0.52617,0,0,-0.18,0
11585,2.2475e+07,0,1.39,0.38,17.74,-0.0021602,0.0022909,-0.18109,0.18657,0,0,-0.52418,0,0,-0.18,0
11628,2.2487e+07,0,1.39,0.38,17.74,-0.0023402,0.0022153,-0.17868,0.18389,0,0,-0.52164,0,0,-0.18,0
11665,2.2497e+07,0,1.39,0.38,17.74,-0.0026836,0.0023389,-0.17679,0.18039,0,0,-0.51876,0,0,-0.18,0
11706,2.2507e+07,0,1.39,0.38,17.74,-0.0027577,0.002571,-0.17609,0.1832,0,0,-0.52052,0,0,-0.18,0
11747,2.2517e+07,0,1.39,0.38,17.74,-0.0028261,0.0025781,-0.17395,0.18603,0,0,-0.51781,0,0,-0.18,0
11788,2.2527e+07,0,1.4,0.38,17.74,-0.0025847,0.0028326,-0.17188,0.18631,0,0,-0.51529,0,0,-0.18,0
11834,2.2538e+07,0,1.4,0.38,17.74,-0.0027496,0.0030585,-0.17018,0.18365,0,0,-0.51294,0,0,-0.18,0
11874,2.2548e+07,0,1.4,0.38,17.75,-0.0029822,0.003252,-0.16823,0.18075,0,0,-0.51077,0,0,-0.18,0
11915,2.2558e+07,0,1.4,0.38,17.75,-0.0032776,0.0034101,-0.16696,0.1792,0,0,-0.50895,0,0,-0.18,0
11956,2.2568e+07,0,1.4,0.38,17.76,-0.0036663,0.0035137,-0.16644,0.17889,0,0,-0.51062,0,0,-0.18,0
11997,2.2578e+07,0,1.4,0.38,17.76,-0.0038071,0.0038134,-0.16499,0.17504,0,0,-0.50877,0,0,-0.18,0
12032,2.2589e+07,0,1.4,0.38,17.77,-0.0039223,0.003783,-0.16253,0.1734,0,0,-0.50498,0,0,-0.18,0
12072,2.2599e+07,0,1.4,0.38,17.77,-0.0040623,0.0035167,-0.1603,0.177,0,0,-0.50127,0,0,-0.18,0
12113,2.2609e+07,0,1.39,0.38,17.77,-0.0043229,0.003151,-0.1595,0.18068,0,0,-0.50287,0,0,-0.18,0
12154,2.2619e+07,0,1.4,0.38,17.77,-0.0043139,0.0029247,-0.15686,0.1873,0,0,-0.49932,0,0,-0.18,0
12196,2.2629e+07,0,1.4,0.38,17.77,-0.0042334,0.0023557,-0.15476,0.19236,0,0,-0.49599,0,0,-0.18,0
12243,2.264e+07,0,1.4,0.38,17.77,-0.003916,0.0016857,-0.15259,0.19791,0,0,-0.49287,0,0,-0.18,0
12283,2.265e+07,0,1.39,0.38,17.77,-0.0035299,0.0016596,-0.15014,0.20663,0,0,-0.4901,0,0,-0.18,0
12324,2.266e+07,0,1.39,0.38,17.77,-0.0032463,0.0014304,-0.14827,0.20922,0,0,-0.48737,0,0,-0.18,0
12364,2.267e+07,0,1.39,0.38,17.77,-0.002919,0.0010089,-0.14785,0.21419,0,0,-0.48885,0,0,-0.18,0
12406,2.268e+07,0,1.39,0.38,17.77,-0.00281,0.0010999,-0.14591,0.21724,0,0,-0.48629,0,0,-0.18,0
12445,2.2691e+07,0,1.39,0.38,17.77,-0.0026108,0.0016602,-0.14402,0.21794,0,0,-0.48312,0,0,-0.18,0
12486,2.2701e+07,0,1.4,0.38,17.77,-0.0024683,0.0017522,-0.14215,0.21684,0,0,-0.48015,0,0,-0.18,0
12527,2.2711e+07,0,1.4,0.38,17.77,-0.0022615,0.0022183,-0.13982,0.21633,0,0,-0.47736,0,0,-0.18,0
12568,2.2721e+07,0,1.4,0.38,17.77,-0.0021539,0.002987,-0.13902,0.21907,0,0,-0.47875,0,0,-0.18,0
12608,2.2731e+07,0,1.4,0.38,17.77,-0.0022189,0.0039031,-0.13689,0.21892,0,0,-0.47612,0,0,-0.18,0
12655,2.2741e+07,0,1.4,0.38,17.78,-0.0021602,0.0041506,-0.13515,0.21736,0,0,-0.47366,0,0,-0.18,0
12696,2.2751e+07,0,1.4,0.38,17.78,-0.0022477,0.0046991,-0.13315,0.21299,0,0,-0.47136,0,0,-0.18,0
12736,2.2761e+07,0,1.4,0.39,17.78,-0.0022231,0.0051968,-0.13142,0.20745,0,0,-0.46922,0,0,-0.18,0
12777,2.2771e+07,0,1.4,0.38,17.78,-0.0019456,0.0055187,-0.12999,0.20286,0,0,-0.46738,0,0,-0.18,0
12817,2.2782e+07,0,1.4,0.38,17.78,-0.0017079,0.0056708,-0.12963,0.1992,0,0,-0.46868,0,0,-0.18,0
12856,2.2792e+07,0,1.4,0.38,17.78,-0.0015895,0.0058729,-0.12822,0.19196,0,0,-0.46691,0,0,-0.18,0
12897,2.2802e+07,0,1.4,0.38,17.79,-0.0015944,0.0059743,-0.12685,0.18344,0,0,-0.46515,0,0,-0.18,0
12937,2.2812e+07,0,1.4,0.38,17.79,-0.0015781,0.0055024,-0.12508,0.17477,0,0,-0.46353,0,0,-0.18,0
12979,2.2823e+07,0,1.4,0.38,17.79,-0.0014653,0.0049715,-0.12354,0.16646,0,0,-0.46205,0,0,-0.18,0
13019,2.2833e+07,0,1.4,0.38,17.79,-0.0018224,0.0048565,-0.12206,0.15708,0,0,-0.46069,0,0,-0.18,0
13065,2.2843e+07,0,1.39,0.38,17.79,-0.0018757,0.0045796,-0.12107,0.14846,0,0,-0.46202,0,0,-0.18,0
13107,2.2854e+07,0,1.39,0.37,17.79,-0.0020869,0.0041891,-0.11973,0.13797,0,0,-0.46075,0,0,-0.18,0
13148,2.2864e+07,0,1.39,0.37,17.79,-0.0025676,0.0037462,-0.11853,0.12728,0,0,-0.4596,0,0,-0.18,0
13191,2.2874e+07,0,1.39,0.38,17.8,-0.0029213,0.003508,-0.11708,0.11569,0,0,-0.45855,0,0,-0.18,0
13231,2.2887e+07,0,1.39,0.38,17.8,-0.003339,0.003148,-0.11535,0.10193,0,0,-0.4571,0,0,-0.18,0
13269,2.2897e+07,0,1.39,0.38,17.8,-0.0034441,0.0032841,-0.11412,0.093006,0,0,-0.45531,0,0,-0.18,0
13309,2.2907e+07,0,1.4,0.38,17.8,-0.0034969,0.0036394,-0.11325,0.089935,0,0,-0.45645,0,0,-0.18,0
13351,2.2918e+07,0,1.4,0.38,17.81,-0.0038057,0.0037993,-0.11162,0.08686,0,0,-0.45477,0,0,-0.18,0
13392,2.2927e+07,0,1.4,0.39,17.81,-0.0039515,0.0040555,-0.10998,0.084749,0,0,-0.45322,0,0,-0.18,0
13432,2.2937e+07,0,1.4,0.38,17.81,-0.0041251,0.0043393,-0.10843,0.08165,0,0,-0.45179,0,0,-0.18,0
13477,2.2947e+07,0,1.4,0.38,17.82,-0.0040851,0.0046353,-0.10684,0.078882,0,0,-0.45048,0,0,-0.18,0
13519,2.2958e+07,0,1.4,0.38,17.82,-0.0040852,0.0048212,-0.10556,0.077452,0,0,-0.44939,0,0,-0.18,0
13560,2.2968e+07,0,1.4,0.38,17.82,-0.0041164,0.0049393,-0.1048,0.077169,0,0,-0.45044,0,0,-0.18,0
13601,2.2978e+07,0,1.4,0.38,17.83,-0.0040973,0.0050212,-0.10367,0.075632,0,0,-0.44935,0,0,-0.18,0
13639,2.2989e+07,0,1.4,0.38,17.83,-0.004092,0.0049146,-0.10178,0.076675,0,0,-0.44651,0,0,-0.18,0
13680,2.2999e+07,0,1.4,0.38,17.83,-0.0038248,0.004595,-0.10006,0.08434,0,0,-0.44396,0,0,-0.18,0
13721,2.3009e+07,0,1.4,0.38,17.84,-0.0036462,0.0044167,-0.098451,0.092875,0,0,-0.44146,0,0,-0.18,0
13762,2.3019e+07,0,1.39,0.38,17.84,-0.003477,0.0042098,-0.096842,0.099943,0,0,-0.43912,0,0,-0.18,0
13803,2.3029e+07,0,1.39,0.38,17.84,-0.0034998,0.0038963,-0.095956,0.11048,0,0,-0.44008,0,0,-0.18,0
13843,2.3039e+07,0,1.39,0.38,17.84,-0.0033133,0.0036137,-0.093864,0.11893,0,0,-0.43786,0,0,-0.18,0
13888,2.3049e+07,0,1.39,0.38,17.84,-0.003512,0.0036922,-0.091941,0.12622,0,0,-0.43577,0,0,-0.18,0
13928,2.3059e+07,0,1.39,0.38,17.85,-0.0030155,0.0038977,-0.090316,0.13183,0,0,-0.43381,0,0,-0.18,0
13970,2.3069e+07,0,1.4,0.39,17.85,-0.0013936,0.0037498,-0.088656,0.13445,0,0,-0.43198,0,0,-0.18,0
14013,2.3079e+07,0,1.4,0.39,17.84,0.00092815,0.0034675,-0.088594,0.1377,0,0,-0.43287,0,0,-0.18,0
14057,2.3092e+07,0,1.4,0.41,17.83,0.0046933,0.0037773,-0.087152,0.13856,0,0,-0.43129,0,0,-0.18,0
14097,2.3102e+07,0,1.4,0.42,17.82,0.0084573,0.0047004,-0.085641,0.13973,0,0,-0.42956,0,0,-0.18,0
14138,2.3113e+07,0,1.4,0.43,17.81,0.012387,0.0060035,-0.083833,0.14081,0,0,-0.42805,0,0,-0.18,0
14180,2.3123e+07,0,1.4,0.43,17.8,0.01571,0.0080879,-0.082429,0.1392,0,0,-0.42655,0,0,-0.18,0
14220,2.3133e+07,0,1.4,0.43,17.79,0.017843,0.01066,-0.080751,0.13677,0,0,-0.42516,0,0,-0.18,0
14261,2.3143e+07,0,1.4,0.41,17.8,0.018939,0.012707,-0.079292,0.13197,0,0,-0.42387,0,0,-0.18,0
14306,2.3153e+07,0,1.4,0.39,17.81,0.018825,0.014294,-0.078375,0.12867,0,0,-0.42466,0,0,-0.18,0
14347,2.3163e+07,0,1.4,0.35,17.84,0.017277,0.015461,-0.077264,0.12336,0,0,-0.42344,0,0,-0.18,0
14389,2.3173e+07,0,1.39,0.32,17.86,0.014437,0.015055,-0.077003,0.11675,0,0,-0.42233,0,0,-0.18,0
14430,2.3183e+07,0,1.39,0.29,17.9,0.010862,0.013037,-0.077147,0.10844,0,0,-0.42132,0,0,-0.18,0
14471,2.3193e+07,0,1.39,0.26,17.92,0.0061153,0.0095931,-0.077775,0.10004,0,0,-0.42209,0,0,-0.18,0
14508,2.3204e+07,0,1.38,0.25,17.94,0.00041153,0.0048011,-0.076803,0.094127,0,0,-0.42037,0,0,-0.18,0
14550,2.3214e+07,0,1.38,0.25,17.94,-0.0052529,0.00026951,-0.075403,0.090917,0,0,-0.4187,0,0,-0.18,0
14591,2.3224e+07,0,1.38,0.26,17.93,-0.011424,-0.0037979,-0.073228,0.088958,0,0,-0.41712,0,0,-0.18,0
14631,2.3235e+07,0,1.38,0.27,17.91,-0.018356,-0.0067613,-0.07102,0.088168,0,0,-0.41565,0,0,-0.18,0
14672,2.3244e+07,0,1.38,0.29,17.88,-0.025243,-0.0082749,-0.06841,0.090368,0,0,-0.41429,0,0,-0.18,0
14717,2.3254e+07,0,1.38,0.3,17.85,-0.032015,-0.0089146,-0.066697,0.093646,0,0,-0.41496,0,0,-0.18,0
14760,2.3265e+07,0,1.39,0.31,17.83,-0.038054,-0.0088263,-0.064828,0.094711,0,0,-0.41366,0,0,-0.18,0
14800,2.3275e+07,0,1.39,0.32,17.82,-0.043048,-0.0078284,-0.063823,0.094197,0,0,-0.41245,0,0,-0.18,0
14842,2.3284e+07,0,1.4,0.33,17.82,-0.046751,-0.0066068,-0.063568,0.091307,0,0,-0.41133,0,0,-0.18,0
14886,2.3298e+07,0,1.4,0.35,17.83,-0.048799,-0.0052798,-0.063756,0.087201,0,0,-0.40993,0,0,-0.18,0
14927,2.3307e+07,0,1.41,0.37,17.85,-0.047656,-0.0044614,-0.063335,0.085127,0,0,-0.40846,0,0,-0.18,0
14968,2.3318e+07,0,1.41,0.4,17.87,-0.043771,-0.0037525,-0.06259,0.085735,0,0,-0.40717,0,0,-0.18,0
15008,2.3328e+07,0,1.41,0.44,17.9,-0.037857,-0.0031859,-0.061599,0.088253,0,0,-0.40779,0,0,-0.18,0
15049,2.3338e+07,0,1.41,0.49,17.92,-0.030074,-0.0018809,-0.05931,0.090038,0,0,-0.40651,0,0,-0.18,0
15094,2.3348e+07,0,1.41,0.53,17.94,-0.020775,6.5021e-05,-0.056286,0.092022,0,0,-0.4053,0,0,-0.18,0
15137,2.3358e+07,0,1.41,0.56,17.96,-0.010591,0.0025118,-0.053624,0.092967,0,0,-0.40417,0,0,-0.18,0
15178,2.3368e+07,0,1.41,0.57,17.96,0.00022508,0.0056434,-0.051299,0.092004,0,0,-0.4031,0,0,-0.18,0
15219,2.3378e+07,0,1.41,0.57,17.97,0.010861,0.0090547,-0.050593,0.090974,0,0,-0.40361,0,0,-0.18,0
15260,2.3391e+07,0,1.4,0.54,17.97,0.023483,0.013172,-0.05022,0.086455,0,0,-0.40275,0,0,-0.18,0
15300,2.3402e+07,0,1.4,0.5,17.97,0.032658,0.016131,-0.050019,0.0831,0,0,-0.40132,0,0,-0.18,0
15342,2.3412e+07,0,1.4,0.46,17.96,0.038729,0.018528,-0.050322,0.080924,0,0,-0.39995,0,0,-0.18,0
15383,2.3422e+07,0,1.4,0.41,17.95,0.042849,0.019883,-0.050274,0.078796,0,0,-0.39867,0,0,-0.18,0
15423,2.3432e+07,0,1.4,0.37,17.93,0.04464,0.02018,-0.049591,0.077273,0,0,-0.39754,0,0,-0.18,0
15464,2.3443e+07,0,1.4,0.33,17.91,0.04364,0.019493,-0.048449,0.078309,0,0,-0.39803,0,0,-0.18,0
15508,2.3453e+07,0,1.4,0.31,17.9,0.040656,0.018046,-0.046122,0.079153,0,0,-0.39691,0,0,-0.18,0
15550,2.3463e+07,0,1.4,0.29,17.88,0.035843,0.016072,-0.043316,0.080291,0,0,-0.39585,0,0,-0.18,0
15592,2.3473e+07,0,1.4,0.27,17.86,0.028272,0.014003,-0.040572,0.081613,0,0,-0.3949,0,0,-0.18,0
15634,2.3483e+07,0,1.39,0.26,17.85,0.020072,0.01247,-0.038199,0.081906,0,0,-0.39397,0,0,-0.18,0
15675,2.3496e+07,0,1.39,0.25,17.85,0.0080652,0.010339,-0.036192,0.081909,0,0,-0.39191,0,0,-0.18,0
15716,2.3505e+07,0,1.39,0.24,17.85,-0.00040602,0.008811,-0.035722,0.08272,0,0,-0.38982,0,0,-0.18,0
15757,2.3516e+07,0,1.39,0.24,17.86,-0.010256,0.0070401,-0.035814,0.088062,0,0,-0.38794,0,0,-0.18,0
15797,2.3526e+07,0,1.38,0.24,17.87,-0.018553,0.0056351,-0.037144,0.094319,0,0,-0.38831,0,0,-0.18,0
15838,2.3536e+07,0,1.38,0.24,17.89,-0.025693,0.0043155,-0.037177,0.1007,0,0,-0.38651,0,0,-0.18,0
15879,2.3546e+07,0,1.38,0.26,17.9,-0.031353,0.0032716,-0.03652,0.10603,0,0,-0.38483,0,0,-0.18,0
15924,2.3556e+07,0,1.38,0.29,17.92,-0.035107,0.0024369,-0.034954,0.1114,0,0,-0.38324,0,0,-0.18,0
15965,2.3566e+07,0,1.39,0.32,17.93,-0.036931,0.0017162,-0.032515,0.11559,0,0,-0.38174,0,0,-0.18,0
16005,2.3576e+07,0,1.39,0.36,17.94,-0.036891,0.0013015,-0.030289,0.12101,0,0,-0.38205,0,0,-0.18,0
16046,2.3586e+07,0,1.39,0.39,17.95,-0.035463,0.0012677,-0.027484,0.12527,0,0,-0.38059,0,0,-0.18,0
16083,2.3597e+07,0,1.4,0.42,17.95,-0.032517,0.0018798,-0.024712,0.12927,0,0,-0.37858,0,0,-0.18,0
16126,2.3607e+07,0,1.4,0.44,17.95,-0.029153,0.0028672,-0.022846,0.13198,0,0,-0.37664,0,0,-0.18,0
16166,2.3617e+07,0,1.41,0.45,17.94,-0.02527,0.0038233,-0.022031,0.13288,0,0,-0.37479,0,0,-0.18,0
16207,2.3628e+07,0,1.41,0.44,17.94,-0.021549,0.0048593,-0.022397,0.13539,0,0,-0.37501,0,0,-0.18,0
16247,2.3638e+07,0,1.41,0.43,17.93,-0.018015,0.0053366,-0.022647,0.13612,0,0,-0.37326,0,0,-0.18,0
16288,2.3648e+07,0,1.41,0.41,17.93,-0.01486,0.0056412,-0.022991,0.13631,0,0,-0.37162,0,0,-0.18,0
16335,2.3658e+07,0,1.41,0.39,17.92,-0.012095,0.0060604,-0.023077,0.13557,0,0,-0.3701,0,0,-0.18,0
16381,2.367e+07,0,1.41,0.38,17.92,-0.009742,0.0062249,-0.022003,0.13474,0,0,-0.3687,0,0,-0.18,0
16422,2.3681e+07,0,1.4,0.38,17.92,-0.0082347,0.0060213,-0.019794,0.13386,0,0,-0.36734,0,0,-0.18,0
16464,2.3692e+07,0,1.4,0.38,17.92,-0.0069964,0.0057206,-0.017995,0.13403,0,0,-0.36753,0,0,-0.18,0
16505,2.3702e+07,0,1.4,0.4,17.92,-0.0055642,0.0052559,-0.015707,0.13186,0,0,-0.36646,0,0,-0.18,0
16546,2.3712e+07,0,1.4,0.41,17.93,-0.0040445,0.0046848,-0.013764,0.12922,0,0,-0.36545,0,0,-0.18,0
16588,2.3723e+07,0,1.39,0.42,17.94,-0.0020238,0.0043526,-0.012198,0.12432,0,0,-0.36449,0,0,-0.18,0
16628,2.3733e+07,0,1.39,0.43,17.95,0.00010478,0.004209,-0.012103,0.11789,0,0,-0.36359,0,0,-0.18,0
16670,2.3743e+07,0,1.39,0.43,17.96,0.0023034,0.0044205,-0.011654,0.1109,0,0,-0.36274,0,0,-0.18,0
16710,2.3753e+07,0,1.4,0.42,17.97,0.0045155,0.0045622,-0.012186,0.10404,0,0,-0.36286,0,0,-0.18,0
16755,2.3764e+07,0,1.4,0.41,17.98,0.0068284,0.0048369,-0.012092,0.096993,0,0,-0.36208,0,0,-0.18,0
16795,2.3774e+07,0,1.4,0.4,17.99,0.0091016,0.0051749,-0.011739,0.089135,0,0,-0.36134,0,0,-0.18,0
16836,2.3783e+07,0,1.4,0.39,18,0.011372,0.0054949,-0.010601,0.082537,0,0,-0.36066,0,0,-0.18,0
16882,2.3796e+07,0,1.4,0.38,18.01,0.013988,0.0058269,-0.0085853,0.076444,0,0,-0.35975,0,0,-0.18,0
16922,2.3807e+07,0,1.4,0.38,18.01,0.015786,0.0061494,-0.0068599,0.072686,0,0,-0.35886,0,0,-0.18,0
16963,2.3817e+07,0,1.4,0.38,18.01,0.017988,0.0064423,-0.0050533,0.070176,0,0,-0.35803,0,0,-0.18,0
17003,2.3827e+07,0,1.4,0.39,18.01,0.019561,0.0067053,-0.0043824,0.068041,0,0,-0.35808,0,0,-0.18,0
17044,2.3838e+07,0,1.4,0.39,18,0.021005,0.0069091,-0.0034527,0.06527,0,0,-0.35728,0,0,-0.18,0
17086,2.3848e+07,0,1.39,0.39,18,0.021585,0.0075114,-0.0031932,0.062006,0,0,-0.35653,0,0,-0.18,0
17130,2.3858e+07,0,1.39,0.37,17.99,0.021044,0.0085255,-0.0027599,0.059032,0,0,-0.35583,0,0,-0.18,0
17172,2.3868e+07,0,1.39,0.36,17.98,0.019368,0.009808,-0.0025985,0.055466,0,0,-0.35518,0,0,-0.18,0
17215,2.3878e+07,0,1.38,0.33,17.97,0.016225,0.011318,-0.002265,0.053046,0,0,-0.3552,0,0,-0.18,0
17256,2.3889e+07,0,1.38,0.31,17.97,0.011942,0.012566,-0.0012201,0.050833,0,0,-0.35459,0,0,-0.18,0
17297,2.3899e+07,0,1.38,0.28,17.97,0.0063386,0.013622,0.00019777,0.049036,0,0,-0.35402,0,0,-0.18,0
17335,2.3909e+07,0,1.38,0.26,17.97,-0.00084021,0.014752,0.001403,0.046855,0,0,-0.35322,0,0,-0.18,0
17377,2.3919e+07,0,1.38,0.25,17.97,-0.0081545,0.015466,0.0025042,0.045231,0,0,-0.35247,0,0,-0.18,0
17418,2.3929e+07,0,1.38,0.25,17.98,-0.015172,0.01578,0.003105,0.04466,0,0,-0.35244,0,0,-0.18,0
17458,2.3939e+07,0,1.39,0.25,17.99,-0.022117,0.015457,0.0039182,0.04431,0,0,-0.35172,0,0,-0.18,0
17499,2.3949e+07,0,1.39,0.27,17.99,-0.028303,0.01479,0.004409,0.043943,0,0,-0.35106,0,0,-0.19,0
17543,2.3959e+07,0,1.39,0.3,18,-0.033176,0.013449,0.004818,0.043369,0,0,-0.35044,0,0,-0.19,0
17585,2.3969e+07,0,1.39,0.32,18.01,-0.036604,0.011761,0.0051731,0.042559,0,0,-0.34986,0,0,-0.19,0
17626,2.3979e+07,0,1.39,0.34,18.02,-0.0384,0.0099139,0.0052676,0.041484,0,0,-0.34934,0,0,-0.19,0
17666,2.399e+07,0,1.39,0.37,18.03,-0.038445,0.0079224,0.0059004,0.040641,0,0,-0.34885,0,0,-0.19,0
17707,2.3999e+07,0,1.39,0.38,18.04,-0.037225,0.0057088,0.0066375,0.040189,0,0,-0.34879,0,0,-0.19,0
17750,2.4013e+07,0,1.39,0.4,18.06,-0.03295,0.002227,0.0081588,0.03798,0,0,-0.34839,0,0,-0.19,0
17793,2.4023e+07,0,1.39,0.41,18.07,-0.028627,-0.00012941,0.0091041,0.035703,0,0,-0.34831,0,0,-0.19,0
17834,2.4034e+07,0,1.38,0.41,18.08,-0.023327,-0.0024691,0.010109,0.032949,0,0,-0.34811,0,0,-0.19,0
17874,2.4043e+07,0,1.39,0.42,18.09,-0.017291,-0.0043752,0.010962,0.029838,0,0,-0.34792,0,0,-0.19,0
17915,2.4053e+07,0,1.39,0.42,18.1,-0.011178,-0.0059136,0.011437,0.026258,0,0,-0.34775,0,0,-0.19,0
17959,2.4063e+07,0,1.39,0.43,18.11,-0.004893,-0.0069221,0.01209,0.022975,0,0,-0.34763,0,0,-0.19,0
18001,2.4073e+07,0,1.39,0.44,18.11,0.00157,-0.0073933,0.012467,0.019503,0,0,-0.34747,0,0,-0.19,0
18043,2.4084e+07,0,1.4,0.45,18.11,0.007558,-0.0070643,0.01284,0.016218,0,0,-0.34731,0,0,-0.19,0
18084,2.4094e+07,0,1.4,0.45,18.1,0.012709,-0.0059441,0.013545,0.013565,0,0,-0.34717,0,0,-0.19,0
18125,2.4104e+07,0,1.4,0.44,18.09,0.016848,-0.0039614,0.014613,0.01158,0,0,-0.34703,0,0,-0.19,0
18166,2.4114e+07,0,1.41,0.43,18.08,0.020003,-0.0012712,0.015975,0.010116,0,0,-0.34688,0,0,-0.18,0
18208,2.4126e+07,0,1.41,0.41,18.06,0.022363,0.0033313,0.017793,0.0087049,0,0,-0.34667,0,0,-0.18,0
18248,2.4136e+07,0,1.41,0.39,18.05,0.022898,0.0072146,0.019045,0.007772,0,0,-0.34652,0,0,-0.18,0
18289,2.4146e+07,0,1.41,0.36,18.04,0.021955,0.011271,0.019859,0.0065729,0,0,-0.34639,0,0,-0.18,0
18331,2.4156e+07,0,1.41,0.34,18.03,0.020045,0.015178,0.020345,0.0052736,0,0,-0.34628,0,0,-0.18,0
18375,2.4166e+07,0,1.41,0.33,18.02,0.017089,0.01881,0.020747,0.0039803,0,0,-0.34607,0,0,-0.18,0
18416,2.4176e+07,0,1.4,0.31,18.03,0.013368,0.022005,0.020949,0.0025912,0,0,-0.34597,0,0,-0.18,0
18456,2.4186e+07,0,1.4,0.31,18.03,0.0091721,0.024505,0.021122,0.0012358,0,0,-0.34588,0,0,-0.18,0
18498,2.4196e+07,0,1.39,0.3,18.04,0.0045667,0.026228,0.021434,0.00013419,0,0,-0.34581,0,0,-0.18,0
18536,2.4206e+07,0,1.39,0.3,18.05,5.916e-05,0.027012,0.022152,-0.00044142,0,0,-0.34575,0,0,-0.18,0
18574,2.4217e+07,0,1.38,0.3,18.06,-0.0045237,0.026732,0.02298,-0.00086085,0,0,-0.34571,0,0,-0.18,0
18616,2.4227e+07,0,1.38,0.3,18.06,-0.0090969,0.025582,0.024148,-0.00081656,0,0,-0.34566,0,0,-0.18,0
18656,2.4237e+07,0,1.38,0.3,18.07,-0.01335,0.023691,0.025468,-0.00071549,0,0,-0.34542,0,0,-0.18,0
18697,2.4247e+07,0,1.38,0.3,18.08,-0.017837,0.020511,0.026669,-0.00061818,0,0,-0.34533,0,0,-0.18,0
18739,2.4258e+07,0,1.38,0.3,18.08,-0.021641,0.017106,0.027506,-0.00079635,0,0,-0.34528,0,0,-0.18,0
18785,2.4268e+07,0,1.38,0.3,18.07,-0.025437,0.013002,0.027863,-0.0013429,0,0,-0.3452,0,0,-0.18,0
18825,2.4278e+07,0,1.38,0.3,18.07,-0.028172,0.0089423,0.028073,-0.0018462,0,0,-0.34516,0,0,-0.18,0
18866,2.4288e+07,0,1.38,0.31,18.06,-0.030069,0.0047098,0.02813,-0.0025057,0,0,-0.34513,0,0,-0.18,0
18908,2.4299e+07,0,1.38,0.33,18.05,-0.031198,0.0006376,0.028176,-0.0030983,0,0,-0.34482,0,0,-0.18,0
18945,2.4309e+07,0,1.38,0.34,18.04,-0.031254,-0.002936,0.028348,-0.0022956,0,0,-0.34444,0,0,-0.18,0
18983,2.4319e+07,0,1.39,0.37,18.04,-0.030255,-0.0058188,0.02904,-0.00023907,0,0,-0.34412,0,0,-0.17,0
19025,2.4329e+07,0,1.39,0.39,18.03,-0.028313,-0.0081339,0.030001,0.002491,0,0,-0.34381,0,0,-0.17,0
19067,2.4339e+07,0,1.39,0.41,18.03,-0.025525,-0.0097117,0.030961,0.0054207,0,0,-0.34351,0,0,-0.17,0
19108,2.4349e+07,0,1.39,0.43,18.03,-0.021853,-0.010733,0.031981,0.0084757,0,0,-0.34321,0,0,-0.17,0
19149,2.436e+07,0,1.39,0.44,18.04,-0.017027,-0.011437,0.032729,0.011381,0,0,-0.3429,0,0,-0.17,0
19194,2.437e+07,0,1.39,0.44,18.04,-0.012301,-0.011113,0.033449,0.01389,0,0,-0.34257,0,0,-0.17,0
19234,2.438e+07,0,1.4,0.45,18.05,-0.0073626,-0.01018,0.033992,0.015976,0,0,-0.3423,0,0,-0.17,0
19275,2.439e+07,0,1.4,0.44,18.06,-0.0025012,-0.009148,0.034474,0.017824,0,0,-0.34203,0,0,-0.17,0
19317,2.44e+07,0,1.4,0.44,18.06,0.0023504,-0.0074702,0.034874,0.019371,0,0,-0.34178,0,0,-0.17,0
19360,2.4415e+07,0,1.4,0.43,18.06,0.0087305,-0.0040289,0.035339,0.021503,0,0,-0.34118,0,0,-0.17,0
19400,2.4425e+07,0,1.4,0.43,18.06,0.012485,-0.0013777,0.036001,0.023537,0,0,-0.34076,0,0,-0.17,0
19442,2.4436e+07,0,1.4,0.43,18.05,0.016067,0.0022442,0.036848,0.026143,0,0,-0.34032,0,0,-0.17,0
19483,2.4446e+07,0,1.4,0.42,18.04,0.018436,0.0059395,0.037925,0.028865,0,0,-0.33995,0,0,-0.17,0
19524,2.4456e+07,0,1.41,0.42,18.02,0.020452,0.0097509,0.039185,0.03157,0,0,-0.33954,0,0,-0.17,0
19571,2.4466e+07,0,1.4,0.41,18.01,0.021464,0.013519,0.040341,0.033992,0,0,-0.33914,0,0,-0.17,0
19613,2.4476e+07,0,1.4,0.4,17.99,0.021655,0.017529,0.041213,0.035954,0,0,-0.33874,0,0,-0.16,0
19653,2.4486e+07,0,1.4,0.39,17.98,0.020911,0.02132,0.041967,0.037659,0,0,-0.33833,0,0,-0.16,0
19694,2.4496e+07,0,1.4,0.37,17.97,0.019287,0.024712,0.042919,0.039294,0,0,-0.33793,0,0,-0.17,0
19735,2.4506e+07,0,1.4,0.35,17.96,0.017122,0.027021,0.043502,0.040303,0,0,-0.33759,0,0,-0.17,0
19773,2.4516e+07,0,1.39,0.33,17.96,0.013848,0.028912,0.044089,0.043036,0,0,-0.33623,0,0,-0.16,0
19813,2.4526e+07,0,1.39,0.31,17.96,0.01005,0.029814,0.044717,0.046811,0,0,-0.33495,0,0,-0.16,0
19852,2.4536e+07,0,1.39,0.29,17.96,0.0057843,0.029759,0.045018,0.053006,0,0,-0.3345,0,0,-0.16,0
19893,2.4546e+07,0,1.39,0.29,17.97,0.0016527,0.028488,0.045621,0.059982,0,0,-0.33327,0,0,-0.16,0
19934,2.4556e+07,0,1.38,0.29,17.97,-0.0024499,0.026161,0.046468,0.067078,0,0,-0.33207,0,0,-0.16,0
19978,2.4566e+07,0,1.38,0.29,17.98,-0.0059589,0.023246,0.047717,0.074446,0,0,-0.33092,0,0,-0.16,0
20019,2.4577e+07,0,1.38,0.3,17.99,-0.0090477,0.019251,0.04913,0.081199,0,0,-0.3298,0,0,-0.16,0
20060,2.4587e+07,0,1.38,0.31,17.99,-0.011789,0.014562,0.050406,0.088319,0,0,-0.32866,0,0,-0.16,0
20100,2.4597e+07,0,1.38,0.31,17.99,-0.013818,0.0099374,0.050933,0.093898,0,0,-0.32815,0,0,-0.16,0
20139,2.4607e+07,0,1.37,0.32,17.99,-0.015165,0.0053651,0.052107,0.098797,0,0,-0.32709,0,0,-0.16,0
20176,2.4618e+07,0,1.37,0.33,17.98,-0.015954,0.00031668,0.053084,0.10451,0,0,-0.32537,0,0,-0.16,0
20217,2.4628e+07,0,1.38,0.33,17.98,-0.016365,-0.0026547,0.053554,0.1105,0,0,-0.32378,0,0,-0.16,0
20259,2.4638e+07,0,1.38,0.34,17.97,-0.016425,-0.0057826,0.054948,0.11689,0,0,-0.32223,0,0,-0.16,0
20299,2.4648e+07,0,1.38,0.34,17.97,-0.015535,-0.0099871,0.05528,0.12196,0,0,-0.32073,0,0,-0.16,0
20341,2.4659e+07,0,1.38,0.35,17.96,-0.014275,-0.011007,0.055797,0.12757,0,0,-0.31929,0,0,-0.16,0
20388,2.4669e+07,0,1.38,0.36,17.96,-0.013369,-0.012866,0.056451,0.13375,0,0,-0.31868,0,0,-0.16,0
20430,2.468e+07,0,1.39,0.37,17.95,-0.010722,-0.013241,0.057019,0.13769,0,0,-0.31722,0,0,-0.16,0
20471,2.469e+07,0,1.39,0.38,17.95,-0.0092513,-0.012097,0.058526,0.14109,0,0,-0.31585,0,0,-0.16,0
20512,2.47e+07,0,1.4,0.39,17.96,-0.0078385,-0.01059,0.06037,0.14405,0,0,-0.31452,0,0,-0.16,0
20553,2.4713e+07,0,1.4,0.4,17.96,-0.0048472,-0.0083404,0.062355,0.14771,0,0,-0.31197,0,0,-0.16,0
20591,2.4723e+07,0,1.4,0.4,17.97,-0.0037679,-0.0046956,0.063091,0.15114,0,0,-0.30969,0,0,-0.16,0
20631,2.4733e+07,0,1.4,0.4,17.98,-0.0030557,-0.00029123,0.064014,0.15836,0,0,-0.30905,0,0,-0.16,0
20673,2.4743e+07,0,1.4,0.39,17.99,-0.0022658,0.0025319,0.064748,0.16533,0,0,-0.30682,0,0,-0.16,0
20714,2.4753e+07,0,1.4,0.39,17.99,-0.0015742,0.0059166,0.066245,0.17226,0,0,-0.30467,0,0,-0.16,0
20755,2.4763e+07,0,1.4,0.38,18,-0.0016796,0.0088511,0.067045,0.17605,0,0,-0.30257,0,0,-0.16,0
20800,2.4773e+07,0,1.4,0.37,18,-0.0013643,0.012215,0.067487,0.18125,0,0,-0.3019,0,0,-0.16,0
20841,2.4784e+07,0,1.4,0.37,18,-0.00081956,0.01573,0.068422,0.18542,0,0,-0.29985,0,0,-0.16,0
20882,2.4794e+07,0,1.39,0.37,18,-0.0011425,0.017724,0.069892,0.18781,0,0,-0.29786,0,0,-0.16,0
20923,2.4804e+07,0,1.39,0.37,18,-0.0013871,0.018602,0.071164,0.18981,0,0,-0.29592,0,0,-0.16,0
20964,2.4817e+07,0,1.38,0.37,17.99,-0.0013295,0.019695,0.07272,0.19362,0,0,-0.29364,0,0,-0.16,0
21002,2.4827e+07,0,1.37,0.38,17.98,-0.0012686,0.019587,0.074297,0.19587,0,0,-0.29156,0,0,-0.16,0
21044,2.4837e+07,0,1.37,0.38,17.97,-0.00036729,0.019704,0.074549,0.19764,0,0,-0.29082,0,0,-0.16,0
21086,2.4847e+07,0,1.37,0.38,17.96,-4.8708e-05,0.019312,0.076033,0.19918,0,0,-0.28885,0,0,-0.16,0
21129,2.4858e+07,0,1.36,0.37,17.96,-0.00035925,0.018255,0.076896,0.19806,0,0,-0.28693,0,0,-0.16,0
21170,2.4868e+07,0,1.35,0.37,17.97,-0.0002498,0.017352,0.077587,0.19667,0,0,-0.28507,0,0,-0.16,0
21214,2.4878e+07,0,1.35,0.36,17.97,-0.00061285,0.015865,0.078122,0.19561,0,0,-0.28319,0,0,-0.16,0
21255,2.4888e+07,0,1.35,0.35,17.98,-0.0011548,0.014477,0.078755,0.1952,0,0,-0.28241,0,0,-0.16,0
21296,2.4898e+07,0,1.35,0.34,17.99,-0.0018991,0.01256,0.079316,0.19378,0,0,-0.28066,0,0,-0.16,0
21340,2.4911e+07,0,1.35,0.34,17.99,-0.0031847,0.0096854,0.080036,0.19095,0,0,-0.2788,0,0,-0.16,0
21377,2.4921e+07,0,1.36,0.34,18,-0.0043207,0.0070256,0.080897,0.18865,0,0,-0.27708,0,0,-0.15,0
21418,2.4931e+07,0,1.36,0.35,17.99,-0.0052462,0.0044613,0.081941,0.18647,0,0,-0.27533,0,0,-0.15,0
21460,2.4941e+07,0,1.36,0.35,17.98,-0.0058088,0.0021488,0.083014,0.18375,0,0,-0.27371,0,0,-0.15,0
21500,2.4951e+07,0,1.37,0.36,17.97,-0.006074,-0.00039932,0.084263,0.18096,0,0,-0.27212,0,0,-0.15,0
21541,2.4962e+07,0,1.37,0.37,17.96,-0.0066363,-0.0027857,0.085421,0.1781,0,0,-0.27049,0,0,-0.15,0
21582,2.4972e+07,0,1.37,0.37,17.95,-0.006863,-0.00443,0.08616,0.17551,0,0,-0.26963,0,0,-0.15,0
21627,2.4982e+07,0,1.37,0.37,17.94,-0.0067859,-0.0056142,0.08677,0.17224,0,0,-0.26812,0,0,-0.15,0
21669,2.4992e+07,0,1.36,0.37,17.93,-0.0065985,-0.005995,0.087394,0.16895,0,0,-0.26664,0,0,-0.15,0
21709,2.5003e+07,0,1.36,0.37,17.93,-0.0067834,-0.0059607,0.088117,0.16547,0,0,-0.2652,0,0,-0.15,0
21750,2.5013e+07,0,1.36,0.37,17.93,-0.0068012,-0.0058989,0.088792,0.16172,0,0,-0.26344,0,0,-0.15,0
21790,2.5023e+07,0,1.36,0.37,17.93,-0.0066354,-0.005259,0.089445,0.15893,0,0,-0.26173,0,0,-0.15,0
21829,2.5034e+07,0,1.35,0.37,17.94,-0.0063789,-0.0046171,0.090477,0.15767,0,0,-0.25997,0,0,-0.15,0
21870,2.5044e+07,0,1.35,0.38,17.95,-0.0055246,-0.0042775,0.09141,0.15695,0,0,-0.25826,0,0,-0.15,0
21910,2.5054e+07,0,1.36,0.38,17.97,-0.0044645,-0.0034181,0.092027,0.15665,0,0,-0.25734,0,0,-0.15,0
21952,2.5064e+07,0,1.36,0.39,17.98,-0.003316,-0.0028475,0.093083,0.15635,0,0,-0.25574,0,0,-0.15,0
21995,2.5074e+07,0,1.36,0.4,17.99,-0.0016885,-0.0024195,0.093755,0.15514,0,0,-0.25418,0,0,-0.15,0
22040,2.5085e+07,0,1.37,0.4,17.99,0.0002228,-0.0018316,0.094807,0.15388,0,0,-0.25265,0,0,-0.15,0
22080,2.5095e+07,0,1.37,0.4,17.99,0.0017675,-0.0009756,0.095503,0.15218,0,0,-0.25114,0,0,-0.15,0
22121,2.5105e+07,0,1.37,0.4,17.98,0.0038376,8.526e-05,0.096694,0.15112,0,0,-0.24958,0,0,-0.15,0
22162,2.5115e+07,0,1.37,0.39,17.98,0.0050763,0.0013238,0.097271,0.1499,0,0,-0.24861,0,0,-0.15,0
22200,2.5125e+07,0,1.37,0.39,17.97,0.0056374,0.0029006,0.09855,0.14899,0,0,-0.24709,0,0,-0.15,0
22241,2.5136e+07,0,1.37,0.37,17.96,0.0059612,0.0046371,0.099043,0.14731,0,0,-0.2456,0,0,-0.15,0
22278,2.5145e+07,0,1.37,0.37,17.95,0.0059642,0.0059021,0.099746,0.14558,0,0,-0.24413,0,0,-0.15,0
22319,2.5155e+07,0,1.37,0.36,17.94,0.0055191,0.0072851,0.10046,0.14389,0,0,-0.2427,0,0,-0.15,0
22360,2.5166e+07,0,1.36,0.35,17.94,0.0046752,0.0091208,0.1011,0.14226,0,0,-0.24119,0,0,-0.15,0
22401,2.5176e+07,0,1.36,0.35,17.94,0.0034499,0.01012,0.10154,0.14091,0,0,-0.24018,0,0,-0.15,0
22447,2.5186e+07,0,1.36,0.35,17.95,0.002995,0.010701,0.10246,0.13975,0,0,-0.2388,0,0,-0.15,0
22487,2.5196e+07,0,1.35,0.35,17.95,0.0021298,0.012786,0.10294,0.1379,0,0,-0.23744,0,0,-0.15,0
22529,2.5206e+07,0,1.36,0.36,17.96,0.00020488,0.012986,0.10389,0.13602,0,0,-0.23608,0,0,-0.15,0
22570,2.5216e+07,0,1.36,0.35,17.97,-0.00066092,0.01229,0.10501,0.13462,0,0,-0.23494,0,0,-0.15,0
22611,2.5226e+07,0,1.36,0.35,17.98,-0.0025902,0.012333,0.10631,0.1382,0,0,-0.23212,0,0,-0.15,0
22655,2.5238e+07,0,1.36,0.34,18.01,-0.0058882,0.010568,0.1079,0.14605,0,0,-0.22917,0,0,-0.15,0
22695,2.5248e+07,0,1.36,0.32,18.03,-0.0069747,0.0076823,0.10854,0.15216,0,0,-0.22649,0,0,-0.15,0
22736,2.5259e+07,0,1.36,0.31,18.04,-0.0093331,0.0044903,0.10919,0.16029,0,0,-0.22377,0,0,-0.15,0
22777,2.5269e+07,0,1.36,0.31,18.06,-0.010928,0.0011198,0.1093,0.16942,0,0,-0.22268,0,0,-0.15,0
22824,2.5279e+07,0,1.36,0.31,18.07,-0.011116,-0.0022885,0.10981,0.17839,0,0,-0.22014,0,0,-0.15,0
22866,2.5289e+07,0,1.37,0.32,18.06,-0.011938,-0.0055036,0.11066,0.18655,0,0,-0.21767,0,0,-0.15,0
22907,2.5299e+07,0,1.36,0.34,18.05,-0.010921,-0.0067462,0.11201,0.19449,0,0,-0.21525,0,0,-0.15,0
22948,2.5309e+07,0,1.36,0.37,18.02,-0.010714,-0.0070154,0.11393,0.20257,0,0,-0.2129,0,0,-0.15,0
22990,2.5322e+07,0,1.36,0.4,17.99,-0.0098274,-0.0069815,0.11624,0.2128,0,0,-0.20952,0,0,-0.14,0
23030,2.5333e+07,0,1.36,0.42,17.96,-0.007531,-0.0034312,0.1183,0.22205,0,0,-0.20656,0,0,-0.14,0
23070,2.5343e+07,0,1.36,0.43,17.94,-0.0072213,0.00015597,0.11941,0.23008,0,0,-0.20367,0,0,-0.14,0
23111,2.5353e+07,0,1.37,0.42,17.92,-0.0051101,0.003068,0.12023,0.23972,0,0,-0.20235,0,0,-0.14,0
23152,2.5363e+07,0,1.37,0.41,17.92,-0.0026867,0.0064109,0.12019,0.24515,0,0,-0.19953,0,0,-0.14,0
23193,2.5373e+07,0,1.37,0.39,17.93,-0.001369,0.0092754,0.12042,0.24997,0,0,-0.19678,0,0,-0.14,0
23238,2.5383e+07,0,1.37,0.38,17.96,0.0014729,0.0095072,0.12013,0.25318,0,0,-0.19411,0,0,-0.14,0
23279,2.5393e+07,0,1.37,0.36,17.98,0.0047349,0.0076901,0.12057,0.25524,0,0,-0.19152,0,0,-0.14,0
23320,2.5404e+07,0,1.36,0.35,18.01,0.0070306,0.0066507,0.12069,0.25776,0,0,-0.19032,0,0,-0.14,0
23361,2.5414e+07,0,1.36,0.35,18.04,0.0097558,0.0047405,0.12308,0.26055,0,0,-0.18777,0,0,-0.14,0
23399,2.5426e+07,0,1.36,0.36,18.08,0.012908,-0.001106,0.12503,0.26052,0,0,-0.18519,0,0,-0.14,0
23440,2.5436e+07,0,1.35,0.36,18.1,0.014205,-0.0045289,0.12728,0.25976,0,0,-0.183,0,0,-0.14,0
23482,2.5447e+07,0,1.35,0.36,18.12,0.01452,-0.0075066,0.1293,0.25775,0,0,-0.18072,0,0,-0.14,0
23523,2.5457e+07,0,1.36,0.36,18.12,0.014355,-0.010945,0.13048,0.25306,0,0,-0.1786,0,0,-0.14,0
23567,2.5467e+07,0,1.35,0.34,18.11,0.013309,-0.013455,0.13071,0.24813,0,0,-0.17729,0,0,-0.14,0
23608,2.5477e+07,0,1.35,0.32,18.1,0.010471,-0.013199,0.13126,0.24301,0,0,-0.17521,0,0,-0.14,0
23653,2.5487e+07,0,1.36,0.31,18.08,0.0061621,-0.012301,0.13142,0.23699,0,0,-0.17316,0,0,-0.14,0
23693,2.5497e+07,0,1.36,0.29,18.05,0.0018011,-0.010123,0.13154,0.2309,0,0,-0.17116,0,0,-0.14,0
23739,2.5509e+07,0,1.36,0.29,18.01,-0.0047443,-0.0046957,0.13234,0.22426,0,0,-0.16894,0,0,-0.14,0
23782,2.5525e+07,0,1.37,0.31,17.96,-0.012197,0.0055953,0.1345,0.21978,0,0,-0.16534,0,0,-0.14,0
23823,2.5535e+07,0,1.38,0.33,17.91,-0.016635,0.01229,0.13655,0.21987,0,0,-0.16248,0,0,-0.13,0
23864,2.5545e+07,0,1.39,0.36,17.87,-0.018975,0.021213,0.13826,0.22145,0,0,-0.15967,0,0,-0.13,0
23904,2.5555e+07,0,1.39,0.4,17.83,-0.021371,0.030798,0.13909,0.22496,0,0,-0.15828,0,0,-0.13,0
23946,2.5565e+07,0,1.39,0.43,17.8,-0.021576,0.040195,0.14092,0.22886,0,0,-0.15552,0,0,-0.13,0
23986,2.5575e+07,0,1.4,0.45,17.78,-0.02029,0.049085,0.14178,0.23189,0,0,-0.15282,0,0,-0.13,0
24031,2.5585e+07,0,1.4,0.46,17.77,-0.019706,0.056126,0.14257,0.23403,0,0,-0.15017,0,0,-0.13,0
24072,2.5595e+07,0,1.39,0.45,17.78,-0.016981,0.062568,0.14264,0.23549,0,0,-0.1486,0,0,-0.13,0
24113,2.5605e+07,0,1.39,0.43,17.79,-0.01384,0.065889,0.14281,0.2362,0,0,-0.146,0,0,-0.13,0
24155,2.5615e+07,0,1.37,0.41,17.82,-0.010891,0.065714,0.14311,0.23637,0,0,-0.14346,0,0,-0.13,0
24192,2.5625e+07,0,1.36,0.38,17.85,-0.0069293,0.062451,0.14333,0.23557,0,0,-0.14156,0,0,-0.13,0
24233,2.5635e+07,0,1.35,0.35,17.89,-0.0034013,0.056826,0.14335,0.23237,0,0,-0.13968,0,0,-0.13,0
24273,2.5648e+07,0,1.32,0.33,17.93,0.00070313,0.046426,0.14371,0.22688,0,0,-0.13741,0,0,-0.13,0
24315,2.5658e+07,0,1.31,0.32,17.96,0.0045076,0.036617,0.14469,0.22267,0,0,-0.13597,0,0,-0.13,0
24358,2.5669e+07,0,1.29,0.32,17.98,0.0075666,0.025163,0.14519,0.21721,0,0,-0.13414,0,0,-0.13,0
24398,2.5679e+07,0,1.28,0.32,17.98,0.011394,0.011246,0.14684,0.21196,0,0,-0.13218,0,0,-0.13,0
24445,2.569e+07,0,1.26,0.33,17.97,0.014486,-0.0020154,0.14791,0.20677,0,0,-0.13039,0,0,-0.13,0
24486,2.57e+07,0,1.25,0.33,17.95,0.016884,-0.015386,0.14913,0.20196,0,0,-0.12861,0,0,-0.13,0
24528,2.571e+07,0,1.25,0.33,17.91,0.018808,-0.027704,0.1503,0.19724,0,0,-0.12686,0,0,-0.13,0
24569,2.5723e+07,0,1.25,0.31,17.86,0.019899,-0.041547,0.15105,0.19112,0,0,-0.12401,0,0,-0.13,0
24609,2.5733e+07,0,1.26,0.3,17.82,0.019066,-0.047631,0.15142,0.18832,0,0,-0.12195,0,0,-0.13,0
24647,2.5743e+07,0,1.27,0.29,17.78,0.016371,-0.051717,0.15147,0.18659,0,0,-0.11964,0,0,-0.13,0
24687,2.5754e+07,0,1.29,0.28,17.75,0.012835,-0.052234,0.15153,0.1863,0,0,-0.11813,0,0,-0.13,0
24729,2.5764e+07,0,1.31,0.28,17.73,0.009098,-0.050964,0.15166,0.18594,0,0,-0.11601,0,0,-0.13,0
24771,2.5773e+07,0,1.33,0.29,17.73,0.0053073,-0.047741,0.1527,0.18667,0,0,-0.11392,0,0,-0.13,0
24811,2.5783e+07,0,1.36,0.31,17.74,0.0013279,-0.042672,0.15463,0.18807,0,0,-0.11185,0,0,-0.13,0
24856,2.5793e+07,0,1.38,0.33,17.75,-0.0023233,-0.036426,0.15745,0.19036,0,0,-0.1098,0,0,-0.13,0
24897,2.5804e+07,0,1.4,0.37,17.78,-0.005374,-0.028384,0.15995,0.19262,0,0,-0.1076,0,0,-0.13,0
24938,2.5814e+07,0,1.41,0.4,17.8,-0.0074125,-0.019712,0.16138,0.19403,0,0,-0.106,0,0,-0.13,0
24981,2.5827e+07,0,1.42,0.42,17.84,-0.0090789,-0.0071762,0.16236,0.19412,0,0,-0.10346,0,0,-0.13,0
25019,2.5837e+07,0,1.42,0.43,17.86,-0.0099918,0.0024477,0.16162,0.19344,0,0,-0.1012,0,0,-0.13,0
25060,2.5847e+07,0,1.42,0.43,17.88,-0.010776,0.011857,0.16096,0.19339,0,0,-0.098996,0,0,-0.13,0
25100,2.5857e+07,0,1.41,0.42,17.89,-0.011282,0.020702,0.1596,0.19268,0,0,-0.096839,0,0,-0.13,0
25141,2.5867e+07,0,1.39,0.41,17.89,-0.011618,0.028531,0.15884,0.19221,0,0,-0.094726,0,0,-0.13,0
25193,2.588e+07,0,1.37,0.38,17.89,-0.011423,0.035339,0.15939,0.19336,0,0,-0.092177,0,0,-0.13,83
25237,2.589e+07,0,1.36,0.37,17.88,-0.011036,0.038774,0.16118,0.19494,0,0,-0.090121,0,0,-0.13,83
25278,2.5901e+07,0,1.34,0.36,17.86,-0.01059,0.039819,0.16335,0.19717,0,0,-0.088083,0,0,-0.13,83
25318,2.5911e+07,0,1.33,0.36,17.83,-0.0094399,0.039002,0.16602,0.19998,0,0,-0.086274,0,0,-0.13,83
25359,2.5921e+07,0,1.33,0.36,17.81,-0.0081804,0.037239,0.16817,0.20168,0,0,-0.084216,0,0,-0.13,83
25398,2.5931e+07,0,1.33,0.37,17.79,-0.0066488,0.034116,0.16987,0.20451,0,0,-0.081171,0,0,-0.12,83
25439,2.5941e+07,0,1.33,0.38,17.77,-0.0043661,0.030131,0.17096,0.20723,0,0,-0.078172,0,0,-0.12,83
25480,2.5952e+07,0,1.33,0.38,17.76,-0.0024242,0.024775,0.17048,0.2119,0,0,-0.075071,0,0,-0.12,83
25520,2.5962e+07,0,1.33,0.38,17.76,-0.00022841,0.01973,0.17012,0.21819,0,0,-0.073371,0,0,-0.12,83
25561,2.5972e+07,0,1.33,0.37,17.77,0.0016754,0.014717,0.16918,0.2236,0,0,-0.070515,0,0,-0.12,83
25602,2.5982e+07,0,1.34,0.36,17.78,0.0034752,0.0093034,0.16943,0.22938,0,0,-0.067719,0,0,-0.12,83
25648,2.5992e+07,0,1.34,0.35,17.8,0.0046727,0.0043253,0.16951,0.2345,0,0,-0.064986,0,0,-0.12,83
25688,2.6003e+07,0,1.35,0.34,17.82,0.0058894,-0.00037173,0.17069,0.24043,0,0,-0.062304,0,0,-0.12,83
25729,2.6013e+07,0,1.35,0.34,17.83,0.0064654,-0.0043536,0.17235,0.24675,0,0,-0.059669,0,0,-0.13,83
25771,2.6023e+07,0,1.35,0.34,17.85,0.0067029,-0.0074976,0.17408,0.25185,0,0,-0.057068,0,0,-0.13,83
25809,2.6033e+07,0,1.35,0.35,17.86,0.0071171,-0.010308,0.17602,0.25718,0,0,-0.055144,0,0,-0.13,83
25847,2.6043e+07,0,1.35,0.36,17.87,0.0073848,-0.011861,0.17733,0.25824,0,0,-0.053104,0,0,-0.12,83
25888,2.6053e+07,0,1.35,0.37,17.86,0.0075952,-0.012983,0.1778,0.25623,0,0,-0.051078,0,0,-0.12,83
25928,2.6063e+07,0,1.34,0.38,17.86,0.0082253,-0.013428,0.17788,0.25238,0,0,-0.049073,0,0,-0.12,83
25970,2.6073e+07,0,1.34,0.38,17.84,0.0084193,-0.012891,0.17734,0.2468,0,0,-0.04709,0,0,-0.12,83
26012,2.6083e+07,0,1.34,0.38,17.83,0.0086504,-0.012068,0.17688,0.241,-0.011132,0.0080613,-0.045322,0,0,-0.12,83
26057,2.6093e+07,0,1.34,0.38,17.81,0.0087391,-0.011375,0.17702,0.23539,-0.011132,0.0080613,-0.043367,0,0,-0.12,83
26097,2.6103e+07,0,1.34,0.36,17.8,0.0080851,-0.0099719,0.17761,0.23015,-0.011132,0.0080613,-0.041434,0,0,-0.13,83
26138,2.6113e+07,0,1.34,0.35,17.79,0.0071812,-0.0082047,0.17887,0.22558,-0.011132,0.0080613,-0.039509,0,0,-0.13,83
26179,2.6123e+07,0,1.34,0.34,17.78,0.0056354,-0.006206,0.18098,0.22136,-0.011132,0.0080613,-0.037407,0,0,-0.13,83
26219,2.6136e+07,0,1.35,0.33,17.79,0.0028342,-0.004049,0.18288,0.21607,-0.011132,0.0080613,-0.035008,0,0,-0.13,83
26262,2.6146e+07,0,1.35,0.33,17.79,0.00071039,-0.0021309,0.18443,0.2127,-0.011132,0.0080613,-0.033337,0,0,-0.13,83
26302,2.6156e+07,0,1.35,0.33,17.8,-0.0025748,0.00061725,0.18515,0.20766,-0.011132,0.0080613,-0.0313,0,0,-0.13,83
26343,2.6166e+07,0,1.36,0.34,17.81,-0.005063,0.0026422,0.18564,0.20319,-0.011132,0.0080613,-0.029447,0,0,-0.13,83
26383,2.6176e+07,0,1.35,0.35,17.83,-0.0078605,0.005073,0.18551,0.1984,-0.011132,0.0080613,-0.027604,0,0,-0.13,83
26424,2.6186e+07,0,1.36,0.36,17.84,-0.010318,0.0074961,0.18575,0.19433,-0.011132,0.0080613,-0.025769,0,0,-0.13,83
26470,2.6196e+07,0,1.36,0.37,17.86,-0.01234,0.0097282,0.18513,0.18976,-0.011132,0.0080613,-0.023949,0,0,-0.13,83
26511,2.6206e+07,0,1.35,0.38,17.87,-0.01356,0.011935,0.18603,0.1871,-0.011132,0.0080613,-0.022134,0,0,-0.13,83
26552,2.6216e+07,0,1.35,0.38,17.88,-0.014678,0.014079,0.18702,0.18484,-0.011132,0.0080613,-0.020273,0,0,-0.13,83
26592,2.6226e+07,0,1.34,0.39,17.89,-0.01458,0.01575,0.1881,0.183,-0.011132,0.0080613,-0.018449,0,0,-0.13,83
26630,2.6236e+07,0,1.34,0.39,17.89,-0.014028,0.016509,0.19016,0.18341,-0.011132,0.0080613,-0.016157,0,0,-0.13,83
26667,2.6246e+07,0,1.33,0.39,17.89,-0.012762,0.017152,0.19188,0.18497,-0.011132,0.0080613,-0.013874,0,0,-0.13,83
26710,2.6256e+07,0,1.33,0.39,17.89,-0.010865,0.017218,0.19321,0.18693,-0.011132,0.0080613,-0.011602,0,0,-0.13,83
26753,2.6267e+07,0,1.33,0.39,17.88,-0.0086631,0.016345,0.19383,0.18929,-0.044528,0.032245,-0.0096684,0,0,-0.13,83
26794,2.6277e+07,0,1.32,0.39,17.87,-0.0060148,0.0151,0.19433,0.19163,-0.044528,0.032245,-0.0074058,0,0,-0.13,83
