LineNo,TimeUS,C,Roll,Pitch,Yaw,VN,VE,VD,dPD,PN,PE,PD,GX,GY,GZ,OH
534,19631923,0,1.36,0.41,17.36,0.01126196,0.006268325,0.003668973,0.1474343,0,0,-0.2928844,0,0,-0.2,0
1216,19883363,0,1.42,0.44,17.41,-0.003276217,0.002939983,-0.5494107,-0.4304008,0,0,-0.3141089,0,0,-0.19,0
1479,19928876,0,1.39,0.43,17.42,0.005906711,0.004664816,-0.5447686,-0.4373659,0,0,-0.3360161,0,0,-0.19,0
1523,19938885,0,1.38,0.43,17.43,0.008141773,0.004759633,-0.5434999,-0.4407945,0,0,-0.3405157,0,0,-0.19,0
1564,19948949,0,1.38,0.43,17.43,0.01006061,0.004475872,-0.5431878,-0.4452777,0,0,-0.3450512,0,0,-0.19,0
1604,19961942,0,1.37,0.43,17.44,0.01221009,0.003804853,-0.5437581,-0.4534062,0,0,-0.3519237,0,0,-0.19,0
1645,19972096,0,1.37,0.43,17.44,0.01350765,0.0031935,-0.5444078,-0.4618182,0,0,-0.3571819,0,0,-0.19,0
1686,19982696,0,1.37,0.43,17.44,0.01431755,0.002817121,-0.5450671,-0.4712897,0,0,-0.3624552,0,0,-0.19,0
1728,19992460,0,1.37,0.42,17.44,0.0150147,0.002261168,-0.5455351000000001,-0.480981,0,0,-0.3677422,0,0,-0.19,0
1769,20002869,0,1.38,0.41,17.44,0.01485335,0.001544649,-0.5453381,-0.4908066,0,0,-0.3735849,0,0,-0.19,0
1814,20013426,0,1.39,0.4,17.44,0.01393734,0.0005691753,-0.5447791,-0.4989593,0,0,-0.3790294,0,0,-0.19,0
1855,20023447,0,1.4,0.38,17.44,0.01237967,-0.0006108147,-0.5440714,-0.5066221,0,0,-0.3843226,0,0,-0.19,0
1896,20033727,0,1.4,0.37,17.44,0.01015745,-0.001927371,-0.543162,-0.513692,0,0,-0.3896146,0,0,-0.19,0
1943,20049091,0,1.4,0.36,17.44,0.006123842,-0.003265508,-0.5416351,-0.5189183000000001,0,0,-0.3962395,0,0,-0.19,0
1983,20059268,0,1.41,0.35,17.44,0.003483089,-0.004163564,-0.5409005,-0.5144078,0,0,-0.3997,0,0,-0.19,0
2024,20069079,0,1.4,0.35,17.44,0.0003697982,-0.004939211,-0.5406597,-0.5081335,0,0,-0.4032467,0,0,-0.19,0
2068,20079115,0,1.4,0.36,17.45,-0.002623868,-0.005658493,-0.5402545,-0.4997137,0,0,-0.4068767,0,0,-0.19,0
2108,20089452,0,1.39,0.37,17.45,-0.005284702,-0.006402321,-0.5402279,-0.4890886,0,0,-0.41059,0,0,-0.19,0
2150,20099925,0,1.39,0.38,17.46,-0.007559802,-0.006715317,-0.5408616000000001,-0.4763607,0,0,-0.4165297,0,0,-0.19,0
2194,20109829,0,1.38,0.4,17.47,-0.008830894000000001,-0.006356049,-0.540351,-0.4656458,0,0,-0.4203185,0,0,-0.2,0
2236,20119839,0,1.38,0.41,17.47,-0.009324626000000001,-0.005646086,-0.5393749,-0.4562016,0,0,-0.42417,0,0,-0.2,0
2277,20129788,0,1.37,0.41,17.48,-0.009514164,-0.004962074,-0.5380722999999999,-0.4475004,0,0,-0.428078,0,0,-0.2,0
2317,20139929,0,1.37,0.42,17.49,-0.009335862,-0.004056451,-0.5367045,-0.4406882,0,0,-0.4320378,0,0,-0.2,0
2359,20149947,0,1.38,0.42,17.49,-0.008812199,-0.003096249,-0.5360846,-0.4337859,0,0,-0.4373963,0,0,-0.2,0
2399,20160326,0,1.38,0.42,17.49,-0.007784056,-0.002055689,-0.5349158000000001,-0.4284104,0,0,-0.4407137,0,0,-0.19,0
2440,20170320,0,1.39,0.42,17.49,-0.00637035,-0.0009291013,-0.5342531,-0.4234105,0,0,-0.4441119,0,0,-0.19,0
2480,20180960,0,1.39,0.42,17.49,-0.004626372,0.000544918,-0.5337734,-0.417803,0,0,-0.4481252,0,0,-0.19,0
2521,20190952,0,1.4,0.42,17.48,-0.00301804,0.001742676,-0.5344058,-0.4116923,0,0,-0.4534604,0,0,-0.19,0
2562,20201059,0,1.41,0.42,17.48,-0.00151551,0.002761757,-0.5340822,-0.4058245,0,0,-0.4570213,0,0,-0.19,0
2607,20211062,0,1.41,0.43,17.48,-0.0001939343,0.003330125,-0.5337055000000001,-0.4014145,0,0,-0.4606571,0,0,-0.19,0
2649,20221899,0,1.41,0.43,17.48,0.001157955,0.003944605,-0.5328153,-0.3980377,0,0,-0.4643615,0,0,-0.19,0
2689,20231841,0,1.4,0.43,17.48,0.002429586,0.004171557,-0.5317098,-0.3951483,0,0,-0.4681302,0,0,-0.19,0
2730,20241964,0,1.4,0.43,17.48,0.003778111,0.004324529,-0.5306447,-0.391638,0,0,-0.4724904,0,0,-0.19,0
2770,20251916,0,1.39,0.42,17.48,0.004797962,0.004238848,-0.5298284,-0.3882736,0,0,-0.4777866,0,0,-0.19,0
2808,20262802,0,1.38,0.41,17.48,0.005402444,0.003884845,-0.52895,-0.3858442,0,0,-0.4814263,0,0,-0.21,0
2848,20272809,0,1.38,0.41,17.48,0.005645712,0.003231782,-0.527826,-0.3831579,0,0,-0.4851319,0,0,-0.21,0
2892,20282778,0,1.37,0.4,17.49,0.005646765,0.002680639,-0.527518,-0.3821652,0,0,-0.4889022,0,0,-0.21,0
2932,20292881,0,1.37,0.4,17.5,0.005713787,0.002008247,-0.527317,-0.3813882,0,0,-0.4932664,0,0,-0.21,0
2975,20302927,0,1.37,0.39,17.5,0.005798823,0.001666288,-0.527158,-0.3819173,0,0,-0.4971658,0,0,-0.21,0
3021,20312886,0,1.37,0.39,17.51,0.005685242,0.001310782,-0.5271307,-0.3842489,0,0,-0.5011238,0,0,-0.21,0
3062,20323762,0,1.38,0.39,17.51,0.005437823,0.0008000091,-0.527427,-0.3858442,0,0,-0.5063909,0,0,-0.21,0
3102,20333768,0,1.38,0.4,17.52,0.005213821,2.08561e-06,-0.5271007,-0.3884906,0,0,-0.5104033,0,0,-0.21,0
3143,20343765,0,1.39,0.4,17.53,0.004888404,-0.0006165307,-0.5262879,-0.3911179,0,0,-0.5144679,0,0,-0.21,0
3180,20353881,0,1.39,0.4,17.53,0.004654516,-0.001274843,-0.5244787,-0.3920583,0,0,-0.5172994,0,0,-0.21,0
3218,20363950,0,1.4,0.4,17.54,0.004525072,-0.001753468,-0.5225408,-0.3892474,0,0,-0.5197172,0,0,-0.21,0
3260,20373938,0,1.4,0.4,17.55,0.00445298,-0.001910038,-0.5221237,-0.3808945,0,0,-0.5249346,0,0,-0.21,0
3301,20383952,0,1.4,0.4,17.55,0.004147857,-0.001986118,-0.5206383,-0.3710135,0,0,-0.5274463,0,0,-0.21,0
3342,20394092,0,1.4,0.39,17.56,0.003669714,-0.002225233,-0.5196982999999999,-0.362366,0,0,-0.5300662,0,0,-0.21,0
3382,20403931,0,1.4,0.39,17.56,0.002816502,-0.0025527,-0.5190123,-0.3540408,0,0,-0.5327938,0,0,-0.21,0
3428,20413957,0,1.39,0.38,17.56,0.001834839,-0.002158818,-0.5183645,-0.3476978,0,0,-0.5356199,0,0,-0.21,0
3468,20424088,0,1.39,0.38,17.56,0.0006334665,-0.001501598,-0.518522,-0.3397608,0,0,-0.5407983,0,0,-0.21,0
3510,20433969,0,1.38,0.38,17.57,-0.0006721043,-0.0007957045,-0.5180081,-0.3359411,0,0,-0.5437066,0,0,-0.21,0
3552,20443939,0,1.38,0.38,17.57,-0.001946863,-0.0002069805,-0.5170531,-0.3322334,0,0,-0.5467092,0,0,-0.21,0
3594,20456865,0,1.38,0.38,17.58,-0.003991582,0.0007499877,-0.5154508,-0.3271215,0,0,-0.5505727,0,0,-0.21,0
3631,20466966,0,1.38,0.38,17.58,-0.005546083,0.001281911,-0.5140643,-0.3237836,0,0,-0.5529931,0,0,-0.21,0
3672,20476938,0,1.38,0.38,17.59,-0.006742306,0.001450022,-0.513655,-0.3169886,0,0,-0.5581262,0,0,-0.21,0
3715,20486866,0,1.38,0.39,17.59,-0.007751108,0.001735177,-0.5120378,-0.3101751,0,0,-0.5606403,0,0,-0.21,0
3755,20496893,0,1.39,0.39,17.6,-0.008124126000000001,0.002070984,-0.5107680999999999,-0.3054641,0,0,-0.5632508000000001,0,0,-0.21,0
3796,20506906,0,1.39,0.39,17.61,-0.0084729,0.002146103,-0.5098501,-0.3018262,0,0,-0.5659631000000001,0,0,-0.21,0
3840,20516900,0,1.4,0.4,17.61,-0.008358132000000001,0.002047339,-0.5091544,-0.3006299,0,0,-0.5687713,0,0,-0.21,0
3883,20527121,0,1.4,0.4,17.62,-0.008221997,0.001801895,-0.5093374000000001,-0.2981021,0,0,-0.5738577,0,0,-0.21,0
3924,20537067,0,1.41,0.4,17.63,-0.007677746,0.001105643,-0.5084579,-0.297321,0,0,-0.5767466,0,0,-0.21,0
3964,20546964,0,1.41,0.41,17.63,-0.006680274,0.0004848297,-0.5075449,-0.2973874,0,0,-0.5797256,0,0,-0.22,0
4002,20559679,0,1.4,0.41,17.64,-0.005372139,0.0001898194,-0.5060811,-0.2926034,0,0,-0.5824186,0,0,-0.22,0
4042,20569764,0,1.4,0.41,17.64,-0.004000878,7.667825e-05,-0.5045927,-0.285859,0,0,-0.5842325,0,0,-0.22,0
4083,20579406,0,1.4,0.42,17.64,-0.002477246,0.0001530152,-0.5030822,-0.2800921,0,0,-0.5861699,0,0,-0.22,0
4124,20589728,0,1.39,0.42,17.65,-0.0009251245,0.0001077658,-0.5016884,-0.2743778,0,0,-0.5882290999999999,0,0,-0.22,0
4165,20599734,0,1.39,0.42,17.65,0.0006696023,4.759121e-05,-0.5005457,-0.2664412,0,0,-0.5909122999999999,0,0,-0.22,0
4206,20609744,0,1.38,0.42,17.65,0.00211322,5.801584e-05,-0.5003499,-0.2587934,0,0,-0.595912,0,0,-0.22,0
4252,20620593,0,1.38,0.42,17.65,0.003615567,0.0002325504,-0.4995164,-0.2533833,0,0,-0.5981948,0,0,-0.22,0
4296,20630767,0,1.38,0.42,17.66,0.004858405,0.0006671798,-0.498507,-0.2487268,0,0,-0.6005916,0,0,-0.22,0
4337,20640946,0,1.38,0.41,17.66,0.005824147,0.001021992,-0.4977243,-0.2471752,0,0,-0.6035857,0,0,-0.22,0
4378,20653762,0,1.38,0.4,17.66,0.006277402,0.0009260286,-0.4957414,-0.2483454,0,0,-0.6052776,0,0,-0.22,0
4418,20663682,0,1.39,0.39,17.66,0.006379595,0.000840618,-0.4937241,-0.2446779,0,0,-0.6066357,0,0,-0.21,0
4458,20674184,0,1.39,0.39,17.66,0.005973807,0.0008883875,-0.4918688,-0.2347604,0,0,-0.608155,0,0,-0.21,0
4499,20684828,0,1.39,0.39,17.66,0.005628208,0.0006727114,-0.4914041,-0.2224049,0,0,-0.6130656,0,0,-0.21,0
4539,20694719,0,1.4,0.38,17.66,0.004841481,0.0004645455,-0.4897139,-0.2123769,0,0,-0.6142201,0,0,-0.21,0
4580,20704769,0,1.4,0.38,17.66,0.003853416,0.0002994669,-0.4876991,-0.2028793,0,0,-0.6155226,0,0,-0.21,0
4625,20714851,0,1.4,0.38,17.66,0.002558142,-0.0001110065,-0.4864682,-0.1972762,0,0,-0.6169612,0,0,-0.21,0
4666,20724879,0,1.4,0.38,17.66,0.001260768,-0.0006776164000000001,-0.4851691,-0.1931183,0,0,-0.619019,0,0,-0.21,0
4707,20735143,0,1.4,0.38,17.66,0.0001936199,-0.0008732919,-0.4851264,-0.1883304,0,0,-0.6238661,0,0,-0.21,0
4748,20744818,0,1.39,0.39,17.66,-0.0008364697,-0.0009572523,-0.4838184,-0.1850543,0,0,-0.6255562,0,0,-0.21,0
4789,20754874,0,1.39,0.39,17.66,-0.001468166,-0.0008426858,-0.4827063,-0.1849306,0,0,-0.6273632,0,0,-0.21,0
4829,20767893,0,1.38,0.39,17.66,-0.002553993,-0.0003562756,-0.4809665,-0.1817797,0,0,-0.6291932,0,0,-0.22,0
4874,20780715,0,1.38,0.39,17.66,-0.003412337,0.0001435233,-0.4787847,-0.171738,0,0,-0.631196,0,0,-0.22,0
4915,20790779,0,1.38,0.39,17.66,-0.004064912,0.0004063415,-0.4765458,-0.1624665,0,0,-0.6319152,0,0,-0.22,0
4955,20801141,0,1.38,0.39,17.67,-0.004446068,0.0007800173,-0.4749247,-0.1565805,0,0,-0.6327904,0,0,-0.22,0
4997,20811222,0,1.38,0.4,17.67,-0.004435564,0.001271298,-0.4732097,-0.1535439,0,0,-0.6338133,0,0,-0.22,0
5042,20821804,0,1.38,0.4,17.67,-0.004447264,0.001851381,-0.4734028,-0.1483705,0,0,-0.6385405,0,0,-0.22,0
5082,20831813,0,1.39,0.4,17.68,-0.004282341,0.002046328,-0.4719943,-0.145834,0,0,-0.6396915,0,0,-0.22,0
5123,20841807,0,1.39,0.4,17.68,-0.003991604,0.001777097,-0.4708275,-0.1447787,0,0,-0.6409873,0,0,-0.22,0
5164,20851874,0,1.4,0.4,17.69,-0.003835507,0.001413433,-0.4697208,-0.1435282,0,0,-0.6428939,0,0,-0.22,0
5203,20862085,0,1.4,0.4,17.69,-0.00354805,0.0008921374,-0.4677596,-0.1420198,0,0,-0.6428367,0,0,-0.22,0
5244,20872145,0,1.4,0.4,17.69,-0.003129315,0.0002249315,-0.4659846,-0.1403822,0,0,-0.6429623,0,0,-0.22,0
5285,20882829,0,1.4,0.4,17.69,-0.002502768,-0.0004888069,-0.4640419,-0.1324342,0,0,-0.6437373,0,0,-0.22,0
5327,20893266,0,1.4,0.4,17.7,-0.002077052,-0.0009580588,-0.4637178,-0.1226118,0,0,-0.6483713,0,0,-0.22,0
5367,20903351,0,1.4,0.4,17.7,-0.001673859,-0.001721567,-0.4616964,-0.115678,0,0,-0.6488235999999999,0,0,-0.22,0
5409,20913322,0,1.4,0.4,17.7,-0.001173756,-0.002319629,-0.4599459,-0.1102962,0,0,-0.6494362,0,0,-0.22,0
5453,20923352,0,1.39,0.4,17.7,-0.0008404977,-0.002512736,-0.4582289,-0.1084925,0,0,-0.6501989,0,0,-0.22,0
5494,20933311,0,1.39,0.4,17.7,-0.0004880527,-0.002785336,-0.4581284,-0.1083392,0,0,-0.6547756,0,0,-0.22,0
5534,20943565,0,1.38,0.4,17.7,-8.931092e-07,-0.002730794,-0.4568202,-0.1104466,0,0,-0.6556573,0,0,-0.22,0
5577,20953491,0,1.38,0.4,17.7,0.0004356795,-0.00233657,-0.4553994,-0.1129589,0,0,-0.6566905,0,0,-0.22,0
5615,20963676,0,1.38,0.4,17.7,0.0005787772,-0.002067166,-0.4535089,-0.1164087,0,0,-0.6559073,0,0,-0.21,0
5655,20973799,0,1.38,0.4,17.7,0.0007017148,-0.001612499,-0.4515231,-0.1145599,0,0,-0.655336,0,0,-0.21,0
5697,20983924,0,1.38,0.4,17.7,0.0009950327000000001,-0.001230091,-0.4496833,-0.1050084,0,0,-0.6554261,0,0,-0.21,0
5737,20993914,0,1.39,0.41,17.7,0.0011895,-0.0008385405,-0.4496269,-0.09282434000000001,0,0,-0.6599184,0,0,-0.21,0
5778,21003834,0,1.39,0.41,17.7,0.00178587,-0.0003538117,-0.447502,-0.08334411,0,0,-0.6597237,0,0,-0.21,0
5819,21013847,0,1.4,0.4,17.7,0.002252172,0.0001797391,-0.4453363,-0.07505997,0,0,-0.6597131000000001,0,0,-0.21,0
5864,21023913,0,1.4,0.4,17.7,0.002239451,0.0005063202,-0.4432811,-0.06871264000000001,0,0,-0.6598737,0,0,-0.21,0
5905,21033854,0,1.4,0.4,17.7,0.002195022,0.000744566,-0.4414773,-0.0669245,0,0,-0.6601896,0,0,-0.21,0
5945,21043935,0,1.4,0.4,17.7,0.002118521,0.0008167357,-0.4413507,-0.06305519,0,0,-0.6645993,0,0,-0.21,0
5987,21054141,0,1.4,0.39,17.7,0.001844035,0.0007664982,-0.4397168,-0.06116655,0,0,-0.6650648,0,0,-0.21,0
6024,21063829,0,1.4,0.39,17.7,0.001528081,0.0007408183,-0.437239,-0.05840981,0,0,-0.6637285000000001,0,0,-0.2,0
6067,21074322,0,1.4,0.39,17.7,0.001166883,0.00102172,-0.4350078,-0.05506029,0,0,-0.6626098,0,0,-0.2,0
6105,21084899,0,1.39,0.38,17.69,0.0003894001,0.001143797,-0.4326713,-0.04975676,0,0,-0.6621342,0,0,-0.2,0
6145,21095263,0,1.39,0.38,17.69,-0.0001798024,0.001276627,-0.4324048,-0.0401813,0,0,-0.6664553,0,0,-0.2,0
6186,21105169,0,1.39,0.38,17.69,-0.0009404353,0.001211671,-0.4305426,-0.03331766,0,0,-0.665723,0,0,-0.2,0
6227,21115230,0,1.38,0.38,17.68,-0.001738699,0.001138301,-0.428273,-0.02671561,0,0,-0.665191,0,0,-0.2,0
6272,21125184,0,1.38,0.38,17.68,-0.002333351,0.001071027,-0.4261686,-0.02394209,0,0,-0.6648418,0,0,-0.2,0
6313,21135292,0,1.38,0.38,17.68,-0.002826322,0.0008405853,-0.4243552,-0.02271045,0,0,-0.664674,0,0,-0.2,0
6353,21145676,0,1.38,0.39,17.68,-0.003471483,0.0008100837,-0.4239843,-0.01875376,0,0,-0.6689107,0,0,-0.2,0
6394,21155679,0,1.38,0.39,17.68,-0.003895768,0.0007076937,-0.422374,-0.01886384,0,0,-0.6688942,0,0,-0.2,0
6433,21165707,0,1.39,0.39,17.68,-0.004105404,0.0004698278,-0.4200261,-0.01593001,0,0,-0.6669958,0,0,-0.21,0
6472,21175663,0,1.39,0.39,17.68,-0.004218282,2.810774e-05,-0.4181104,-0.01269817,0,0,-0.6653319,0,0,-0.21,0
6513,21185710,0,1.39,0.39,17.68,-0.004369993,-0.0002798778,-0.4162188,-0.007295214,0,0,-0.6639032,0,0,-0.21,0
6553,21195801,0,1.4,0.39,17.68,-0.004430549,-0.0004793097,-0.4161736,0.004106575,0,0,-0.6680612,0,0,-0.21,0
6594,21205677,0,1.4,0.39,17.69,-0.004193051,-0.0007416887,-0.4140987,0.01240044,0,0,-0.6668269999999999,0,0,-0.21,0
6634,21215777,0,1.4,0.39,17.69,-0.003860828,-0.0009191343,-0.4116787,0.01990808,0,0,-0.6658077,0,0,-0.21,0
6680,21225696,0,1.4,0.39,17.69,-0.003671697,-0.001316431,-0.4095245,0.02293718,0,0,-0.6649813999999999,0,0,-0.21,0
6720,21235688,0,1.4,0.4,17.69,-0.003198567,-0.001676154,-0.4074619,0.02432786,0,0,-0.6643509,0,0,-0.21,0
6761,21245664,0,1.4,0.4,17.69,-0.002594102,-0.001953966,-0.4072926,0.0281026,0,0,-0.6684201,0,0,-0.21,0
6802,21255631,0,1.4,0.4,17.69,-0.00214994,-0.002081848,-0.4051342,0.02812392,0,0,-0.6679502,0,0,-0.21,0
6840,21267996,0,1.39,0.41,17.69,-0.001175824,-0.001777567,-0.4023995,0.032501,0,0,-0.666686,0,0,-0.2,0
6883,21277881,0,1.39,0.41,17.69,-0.0003790957,-0.00163333,-0.4000341,0.04354722,0,0,-0.6644752,0,0,-0.2,0
6924,21288275,0,1.39,0.41,17.69,0.0001532762,-0.001456061,-0.3977565,0.05459988,0,0,-0.6625135,0,0,-0.2,0
6965,21298253,0,1.39,0.4,17.68,0.0007503881,-0.0009241821,-0.3954078,0.06175812,0,0,-0.6607764,0,0,-0.2,0
7005,21308244,0,1.39,0.4,17.68,0.001244635,-0.000586151,-0.3933707,0.06734973,0,0,-0.6592682,0,0,-0.2,0
7046,21318877,0,1.39,0.4,17.68,0.001718595,8.867617e-05,-0.3929801,0.07634521,0,0,-0.6635883,0,0,-0.2,0
7090,21329061,0,1.39,0.4,17.68,0.001909473,0.0005780409,-0.3905309,0.08126467,0,0,-0.6622606,0,0,-0.2,0
7132,21338899,0,1.39,0.4,17.68,0.001974283,0.001102236,-0.3884735,0.08146277,0,0,-0.6611320000000001,0,0,-0.2,0
7173,21349179,0,1.4,0.39,17.68,0.001973419,0.001413074,-0.3862969,0.0800497,0,0,-0.660202,0,0,-0.2,0
7213,21361341,0,1.4,0.39,17.68,0.001574796,0.001602278,-0.3832662,0.07720717000000001,0,0,-0.6581572999999999,0,0,-0.2,0
7256,21371389,0,1.4,0.39,17.68,0.001379781,0.001750636,-0.3826986,0.07868297,0,0,-0.6619836,0,0,-0.2,0
7294,21381813,0,1.4,0.39,17.67,0.001081717,0.001744425,-0.3802451,0.08103494999999999,0,0,-0.6593751,0,0,-0.19,0
7336,21391844,0,1.4,0.39,17.67,0.0008826177,0.001916039,-0.3775877,0.08605559,0,0,-0.6570251,0,0,-0.19,0
7376,21401831,0,1.4,0.39,17.67,0.0006441156,0.001887349,-0.3750428,0.09655513,0,0,-0.6549315,0,0,-0.19,0
7417,21411893,0,1.4,0.39,17.67,0.0001306115,0.001760096,-0.3726957,0.1019279,0,0,-0.6530675,0,0,-0.19,0
7466,21424143,0,1.4,0.38,17.66,-0.0006237086,0.001709805,-0.3699415,0.1103212,0,0,-0.6525317,0,0,-0.19,0
7506,21434797,0,1.39,0.38,17.66,-0.0008318604,0.001413308,-0.3674699,0.1145797,0,0,-0.6510996999999999,0,0,-0.19,0
7547,21444843,0,1.39,0.38,17.66,-0.001128845,0.001349213,-0.3651497,0.1153149,0,0,-0.6498686,0,0,-0.19,0
7588,21455102,0,1.39,0.38,17.66,-0.001513027,0.001296931,-0.363074,0.1165477,0,0,-0.6492012,0,0,-0.19,0
7629,21467687,0,1.38,0.38,17.65,-0.001854553,0.001195161,-0.3607296,0.1199267,0,0,-0.647509,0,0,-0.19,0
7668,21477816,0,1.38,0.38,17.65,-0.002321177,0.0009850715999999999,-0.3584351,0.120914,0,0,-0.6456788,0,0,-0.19,0
7711,21487791,0,1.39,0.39,17.64,-0.002390224,0.0006911809,-0.3582494,0.1257155,0,0,-0.649258,0,0,-0.19,0
7752,21497816,0,1.39,0.39,17.64,-0.002534981,0.0004157015,-0.35572,0.129625,0,0,-0.64728,0,0,-0.19,0
7793,21507813,0,1.39,0.39,17.64,-0.002709342,0.0001649854,-0.353598,0.1290893,0,0,-0.6455101,0,0,-0.19,0
7833,21518066,0,1.39,0.39,17.63,-0.002676693,-3.851956e-05,-0.3515495,0.1197529,0,0,-0.6439252,0,0,-0.18,0
7878,21528431,0,1.4,0.39,17.63,-0.002842146,-0.000453313,-0.3509755,0.1161088,0,0,-0.6474332,0,0,-0.18,0
7918,21538413,0,1.4,0.39,17.63,-0.003139113,-0.0007359216,-0.348874,0.1098526,0,0,-0.6460238,0,0,-0.18,0
7960,21548910,0,1.4,0.38,17.63,-0.003309915,-0.001290332,-0.3468231,0.103259,0,0,-0.6448140999999999,0,0,-0.18,0
8000,21558793,0,1.4,0.38,17.62,-0.003556829,-0.001634707,-0.3446924,0.0976889,0,0,-0.6441473,0,0,-0.18,0
8041,21569025,0,1.4,0.38,17.62,-0.003720898,-0.001717063,-0.3418024,0.09436446,0,0,-0.6410441,0,0,-0.18,0
8082,21578918,0,1.4,0.38,17.62,-0.003675999,-0.001837843,-0.3414186,0.09080207999999999,0,0,-0.6447983,0,0,-0.18,0
8116,21589201,0,1.4,0.38,17.62,-0.003634808,-0.001932408,-0.3390001,0.09171509999999999,0,0,-0.641888,0,0,-0.18,0
8158,21599304,0,1.4,0.39,17.61,-0.003856927,-0.001593568,-0.3367122,0.09773421,0,0,-0.6392441,0,0,-0.18,0
8199,21609122,0,1.39,0.39,17.61,-0.003725123,-0.00148342,-0.3341986,0.09951514,0,0,-0.6368138,0,0,-0.18,0
8239,21619681,0,1.39,0.39,17.6,-0.003645004,-0.001374917,-0.3321361,0.09873518000000001,0,0,-0.6346082,0,0,-0.18,0
8286,21629760,0,1.39,0.4,17.6,-0.003526913,-0.0005883456,-0.3296791,0.1036984,0,0,-0.6329659,0,0,-0.18,0
8327,21639729,0,1.39,0.4,17.6,-0.003050177,6.485701000000001e-05,-0.3291889,0.1102558,0,0,-0.6362564000000001,0,0,-0.18,0
8368,21649753,0,1.39,0.4,17.6,-0.002585501,0.0006014659,-0.3268905,0.1146909,0,0,-0.6344717,0,0,-0.18,0
8408,21659885,0,1.39,0.4,17.6,-0.002093664,0.001257863,-0.324508,0.1147993,0,0,-0.6328823,0,0,-0.18,0
8447,21670680,0,1.39,0.4,17.6,-0.001642216,0.001954776,-0.3214593,0.1127455,0,0,-0.6294264000000001,0,0,-0.18,0
8485,21681212,0,1.4,0.4,17.6,-0.001144276,0.002265848,-0.3186028,0.1145796,0,0,-0.6265332,0,0,-0.18,0
8526,21691881,0,1.4,0.39,17.61,-0.0004177022,0.002340441,-0.3181758,0.1238825,0,0,-0.6297133,0,0,-0.18,0
8566,21701849,0,1.4,0.39,17.61,0.000158704,0.002620073,-0.3155989,0.1314414,0,0,-0.6267231,0,0,-0.18,0
8609,21712217,0,1.4,0.39,17.61,0.0007123888000000001,0.002828614,-0.313081,0.1424732,0,0,-0.6243015,0,0,-0.19,0
8649,21722805,0,1.4,0.39,17.61,0.001268624,0.002856195,-0.3108917,0.1492272,0,0,-0.6221009,0,0,-0.18,0
8694,21732878,0,1.4,0.39,17.61,0.001378838,0.002832632,-0.3087613,0.1534667,0,0,-0.6198207,0,0,-0.19,0
8735,21742846,0,1.4,0.39,17.61,0.001642632,0.002814635,-0.3065608,0.1528784,0,0,-0.6177496,0,0,-0.18,0
8775,21753221,0,1.4,0.39,17.61,0.001653568,0.002572111,-0.3058529,0.1558546,0,0,-0.6208085,0,0,-0.18,0
8816,21763229,0,1.4,0.38,17.61,0.001500268,0.002278333,-0.3035977,0.1545386,0,0,-0.6189114,0,0,-0.18,0
8850,21774035,0,1.39,0.38,17.62,0.001150804,0.002270652,-0.3009602,0.1543228,0,0,-0.6164751000000001,0,0,-0.18,0
8891,21784047,0,1.39,0.38,17.62,0.0006339167,0.002060936,-0.2986404,0.1570669,0,0,-0.6139778,0,0,-0.18,0
8931,21793976,0,1.39,0.37,17.62,1.242886e-05,0.001605151,-0.2965435,0.1585297,0,0,-0.6117035,0,0,-0.18,0
8972,21803940,0,1.39,0.37,17.62,-0.0008127879,0.001373659,-0.294473,0.1557048,0,0,-0.6096357,0,0,-0.18,0
9013,21813927,0,1.38,0.37,17.62,-0.00161488,0.001192273,-0.29404,0.1565884,0,0,-0.6125748,0,0,-0.18,0
9054,21823946,0,1.38,0.37,17.63,-0.002385609,0.000775887,-0.2919997,0.1556525,0,0,-0.6106905,0,0,-0.18,0
9099,21833963,0,1.39,0.37,17.63,-0.002990737,0.0004829039,-0.2900975,0.1507296,0,0,-0.6089956,0,0,-0.18,0
9139,21843958,0,1.39,0.37,17.63,-0.003672963,0.0004064755,-0.2882499,0.1444214,0,0,-0.6074913,0,0,-0.18,0
9180,21853944,0,1.39,0.38,17.63,-0.004076486,0.000212736,-0.2863199,0.1345489,0,0,-0.606158,0,0,-0.18,0
9235,21894788,0,1.4,0.39,17.64,-0.003580586,-0.001000853,-0.2786296,0.1171033,0,0,-0.6015571,0,0,-0.18,0
9276,21904866,0,1.4,0.39,17.65,-0.003451568,-0.0007792141,-0.2767336,0.1135627,0,0,-0.5997564,0,0,-0.18,0
9316,21914952,0,1.4,0.39,17.65,-0.003358574,-0.0007354477,-0.276496,0.114355,0,0,-0.6025185,0,0,-0.18,0
9357,21924924,0,1.4,0.39,17.65,-0.003025232,-0.0007286213,-0.2744233,0.1148873,0,0,-0.6006239,0,0,-0.18,0
9401,21934900,0,1.39,0.39,17.65,-0.002861238,-0.0004436318,-0.2723335,0.1125472,0,0,-0.5989112,0,0,-0.18,0
9442,21944956,0,1.39,0.39,17.64,-0.002624532,-5.095411e-05,-0.2704789,0.1092217,0,0,-0.5973847,0,0,-0.18,0
9483,21954933,0,1.39,0.39,17.64,-0.002220171,0.0002988371,-0.268418,0.1028811,0,0,-0.5960245,0,0,-0.18,0
9524,21964957,0,1.39,0.39,17.64,-0.001923738,0.0007067954,-0.2679187,0.0995832,0,0,-0.5987033,0,0,-0.18,0
9562,21974881,0,1.39,0.39,17.64,-0.001513846,0.001172568,-0.2657807,0.09552236,0,0,-0.5974941,0,0,-0.18,0
9602,21984880,0,1.39,0.39,17.64,-0.001213497,0.001510453,-0.2635943,0.09148581,0,0,-0.5950274,0,0,-0.18,0
9645,21994867,0,1.39,0.39,17.64,-0.0009505115,0.00168474,-0.261442,0.09035044,0,0,-0.5927665,0,0,-0.18,0
9685,22004879,0,1.39,0.39,17.64,-0.0007939402,0.001900101,-0.2595524,0.08787013,0,0,-0.5907016,0,0,-0.18,0
9726,22014869,0,1.39,0.39,17.64,-0.0003668662,0.002210757,-0.2591768,0.09086996,0,0,-0.5932916,0,0,-0.18,0
9767,22024900,0,1.4,0.39,17.65,2.985138e-05,0.002336247,-0.2573588,0.09350835,0,0,-0.591405,0,0,-0.18,0
9812,22034832,0,1.4,0.39,17.65,0.0006328117,0.002286473,-0.255564,0.09343306,0,0,-0.5896975,0,0,-0.18,0
9853,22044877,0,1.4,0.39,17.65,0.000885073,0.002394662,-0.2537599,0.09263796000000001,0,0,-0.5881717,0,0,-0.18,0
9893,22054943,0,1.4,0.39,17.66,0.0007768388,0.002571913,-0.2520848,0.08854658999999999,0,0,-0.5868091,0,0,-0.18,0
9934,22065815,0,1.4,0.39,17.66,0.0009488832,0.002432153,-0.2519137,0.08725227000000001,0,0,-0.5893261,0,0,-0.18,0
9980,22078103,0,1.4,0.39,17.67,0.001329459,0.002300839,-0.2490106,0.08995336,0,0,-0.5868331,0,0,-0.18,0
10018,22088358,0,1.4,0.39,17.67,0.001229209,0.002203963,-0.246588,0.09867065999999999,0,0,-0.5838221,0,0,-0.18,0
10059,22098403,0,1.4,0.39,17.67,0.001394517,0.002072155,-0.2442404,0.1103218,0,0,-0.5810483,0,0,-0.18,0
10100,22108897,0,1.4,0.39,17.68,0.001244967,0.001951203,-0.2421036,0.1208675,0,0,-0.5784908,0,0,-0.18,0
10141,22118382,0,1.39,0.39,17.68,0.0009967737000000001,0.001856301,-0.2400221,0.1273452,0,0,-0.5761302,0,0,-0.18,0
10182,22128909,0,1.39,0.38,17.68,0.0007600902,0.001864051,-0.2399559,0.1318406,0,0,-0.5785274,0,0,-0.18,0
10227,22138916,0,1.39,0.38,17.68,0.0002913192,0.001693045,-0.2379376,0.1341714,0,0,-0.5765569,0,0,-0.18,0
10268,22148897,0,1.39,0.38,17.68,7.546914e-07,0.001766637,-0.2362023,0.1339393,0,0,-0.5745339,0,0,-0.18,0
10308,22158830,0,1.39,0.38,17.68,-0.0004618642,0.001817206,-0.2343743,0.1330944,0,0,-0.5726974,0,0,-0.18,0
10349,22168905,0,1.39,0.38,17.68,-0.0007818285,0.001486538,-0.2324382,0.1291189,0,0,-0.5710293,0,0,-0.18,0
10389,22179770,0,1.39,0.38,17.69,-0.001299336,0.001637815,-0.232184,0.1278721,0,0,-0.5733505,0,0,-0.18,0
10426,22189783,0,1.4,0.38,17.69,-0.001976471,0.001764411,-0.2299618,0.1281755,0,0,-0.5704891,0,0,-0.18,0
10467,22199419,0,1.4,0.38,17.69,-0.002381122,0.00142719,-0.2278144,0.1306494,0,0,-0.567848,0,0,-0.18,0
10507,22209432,0,1.4,0.38,17.69,-0.002864897,0.0009880061999999999,-0.2255874,0.13166,0,0,-0.5654038,0,0,-0.18,0
10549,22219892,0,1.4,0.38,17.7,-0.003333382,0.00113721,-0.2251792,0.1327328,0,0,-0.5676555,0,0,-0.18,0
10590,22229413,0,1.4,0.38,17.7,-0.003510982,0.001198577,-0.2229187,0.1329729,0,0,-0.5653599,0,0,-0.18,0
10635,22239772,0,1.4,0.38,17.7,-0.003506129,0.0007499056,-0.2209779,0.1332417,0,0,-0.5632547,0,0,-0.18,0
10675,22249935,0,1.4,0.38,17.71,-0.003863944,0.0006660636,-0.2192172,0.1350847,0,0,-0.5615641,0,0,-0.18,0
10716,22259830,0,1.4,0.39,17.71,-0.003875837,0.0006931006,-0.2174139,0.1351427,0,0,-0.5598312,0,0,-0.18,0
10757,22269827,0,1.4,0.39,17.71,-0.003573267,0.0004608873,-0.2155256,0.131594,0,0,-0.5582559,0,0,-0.18,0
10799,22280441,0,1.4,0.39,17.71,-0.003242901,0.0005720188,-0.2151314,0.1301894,0,0,-0.5604074999999999,0,0,-0.18,0
10840,22290700,0,1.4,0.39,17.71,-0.002811027,0.0009917095000000001,-0.2129167,0.1314633,0,0,-0.5571445,0,0,-0.18,0
10880,22300400,0,1.39,0.39,17.71,-0.002636297,0.001164183,-0.2104897,0.1361808,0,0,-0.5541113,0,0,-0.18,0
10922,22310394,0,1.39,0.39,17.71,-0.002258956,0.001364574,-0.2083272,0.1395821,0,0,-0.5512827,0,0,-0.18,0
10963,22320765,0,1.39,0.39,17.71,-0.001952057,0.001820214,-0.2063235,0.1430826,0,0,-0.5488578,0,0,-0.18,0
11004,22330784,0,1.39,0.39,17.71,-0.001418324,0.002329512,-0.205865,0.1498471,0,0,-0.5509167,0,0,-0.18,0
11049,22340816,0,1.4,0.39,17.71,-0.001088013,0.00285831,-0.2039449,0.1556098,0,0,-0.5484658,0,0,-0.18,0
11090,22350786,0,1.4,0.39,17.71,-0.0007076861,0.003179854,-0.2021051,0.1579907,0,0,-0.5462008,0,0,-0.18,0
11133,22361868,0,1.4,0.39,17.71,-0.0005059632,0.003231239,-0.200417,0.1569984,0,0,-0.544113,0,0,-0.18,0
11173,22371826,0,1.4,0.39,17.71,-0.0001652028,0.003418616,-0.1984585,0.1590031,0,0,-0.5422165,0,0,-0.18,0
11212,22384328,0,1.4,0.38,17.71,-1.009152e-05,0.003472446,-0.1960354,0.1629302,0,0,-0.5393054,0,0,-0.18,0
11253,22394116,0,1.4,0.38,17.72,0.0001090955,0.00293134,-0.1935741,0.1652158,0,0,-0.5360182999999999,0,0,-0.18,0
11293,22404223,0,1.4,0.38,17.72,-4.808026e-05,0.002800934,-0.1932575,0.1738227,0,0,-0.5379508,0,0,-0.18,0
11334,22414141,0,1.4,0.38,17.73,-0.000478438,0.002763375,-0.1907574,0.1769363,0,0,-0.5348286,0,0,-0.18,0
11374,22424199,0,1.4,0.38,17.73,-0.0005985415999999999,0.002357592,-0.1887249,0.1804921,0,0,-0.5319211,0,0,-0.18,0
11420,22434166,0,1.4,0.38,17.73,-0.000967938,0.002483655,-0.1865026,0.1815801,0,0,-0.5292082,0,0,-0.18,0
11461,22444674,0,1.39,0.38,17.73,-0.001380083,0.002568045,-0.1860779,0.1864761,0,0,-0.5310696,0,0,-0.18,0
11503,22454676,0,1.39,0.38,17.73,-0.00159062,0.002390463,-0.18435,0.1882107,0,0,-0.5285242999999999,0,0,-0.18,0
11545,22464733,0,1.39,0.38,17.73,-0.00198596,0.0022696,-0.1824379,0.1890687,0,0,-0.5261710000000001,0,0,-0.18,0
11585,22474740,0,1.39,0.38,17.74,-0.002160248,0.002290891,-0.1810862,0.1865685,0,0,-0.524177,0,0,-0.18,0
11628,22487047,0,1.39,0.38,17.74,-0.002340181,0.002215271,-0.1786811,0.1838934,0,0,-0.5216392,0,0,-0.18,0
11665,22496890,0,1.39,0.38,17.74,-0.002683623,0.00233895,-0.1767946,0.1803865,0,0,-0.5187568,0,0,-0.18,0
11706,22506928,0,1.39,0.38,17.74,-0.002757695,0.002571016,-0.176091,0.1831993,0,0,-0.5205197,0,0,-0.18,0
11747,22516875,0,1.39,0.38,17.74,-0.002826123,0.002578107,-0.1739458,0.1860287,0,0,-0.5178131,0,0,-0.18,0
11788,22526924,0,1.4,0.38,17.74,-0.002584683,0.002832647,-0.1718768,0.1863082,0,0,-0.5152898,0,0,-0.18,0
11834,22537786,0,1.4,0.38,17.74,-0.002749626,0.003058542,-0.1701842,0.1836459,0,0,-0.5129416999999999,0,0,-0.18,0
11874,22547751,0,1.4,0.38,17.75,-0.002982216,0.003251962,-0.1682254,0.1807519,0,0,-0.510772,0,0,-0.18,0
11915,22557881,0,1.4,0.38,17.75,-0.00327762,0.003410117,-0.1669586,0.1791995,0,0,-0.5089506,0,0,-0.18,0
11956,22567899,0,1.4,0.38,17.76,-0.003666347,0.003513694,-0.1664408,0.1788877,0,0,-0.510616,0,0,-0.18,0
11997,22578348,0,1.4,0.38,17.76,-0.003807069,0.003813417,-0.1649916,0.1750385,0,0,-0.5087660000000001,0,0,-0.18,0
12032,22589202,0,1.4,0.38,17.77,-0.003922334,0.003783014,-0.1625346,0.1734031,0,0,-0.5049818,0,0,-0.18,0
12072,22598784,0,1.4,0.38,17.77,-0.004062284,0.003516655,-0.1603025,0.1770031,0,0,-0.5012704,0,0,-0.18,0
12113,22609127,0,1.39,0.38,17.77,-0.004322893,0.003150972,-0.1595021,0.1806823,0,0,-0.5028667,0,0,-0.18,0
12154,22618854,0,1.4,0.38,17.77,-0.004313906,0.002924713,-0.1568578,0.1873005,0,0,-0.4993243,0,0,-0.18,0
12196,22629251,0,1.4,0.38,17.77,-0.00423337,0.002355685,-0.1547571,0.1923602,0,0,-0.4959893,0,0,-0.18,0
12243,22639670,0,1.4,0.38,17.77,-0.003916002,0.00168567,-0.1525911,0.1979139,0,0,-0.4928654,0,0,-0.18,0
12283,22649927,0,1.39,0.38,17.77,-0.003529906,0.001659594,-0.1501361,0.2066258,0,0,-0.4901031,0,0,-0.18,0
12324,22659851,0,1.39,0.38,17.77,-0.003246273,0.001430446,-0.148267,0.2092243,0,0,-0.4873718,0,0,-0.18,0
12364,22669806,0,1.39,0.38,17.77,-0.002918973,0.001008871,-0.1478529,0.2141916,0,0,-0.4888508,0,0,-0.18,0
12406,22679766,0,1.39,0.38,17.77,-0.002810014,0.001099915,-0.1459109,0.2172372,0,0,-0.4862857,0,0,-0.18,0
12445,22690585,0,1.39,0.38,17.77,-0.002610836,0.00166022,-0.1440164,0.2179419,0,0,-0.4831196,0,0,-0.18,0
12486,22700638,0,1.4,0.38,17.77,-0.002468336,0.001752226,-0.1421529,0.2168432,0,0,-0.4801463,0,0,-0.18,0
12527,22710666,0,1.4,0.38,17.77,-0.002261497,0.002218328,-0.1398214,0.2163282,0,0,-0.477362,0,0,-0.18,0
12568,22720667,0,1.4,0.38,17.77,-0.002153858,0.002987023,-0.1390197,0.2190679,0,0,-0.4787537,0,0,-0.18,0
12608,22730685,0,1.4,0.38,17.77,-0.002218922,0.003903061,-0.136889,0.2189183,0,0,-0.4761177,0,0,-0.18,0
12655,22740700,0,1.4,0.38,17.78,-0.002160208,0.004150595,-0.1351451,0.2173591,0,0,-0.4736587,0,0,-0.18,0
12696,22750618,0,1.4,0.38,17.78,-0.002247677,0.004699142,-0.1331536,0.2129881,0,0,-0.4713602,0,0,-0.18,0
12736,22760743,0,1.4,0.39,17.78,-0.002223148,0.005196828,-0.1314203,0.2074519,0,0,-0.4692229,0,0,-0.18,0
12777,22770923,0,1.4,0.38,17.78,-0.001945642,0.005518738,-0.1299945,0.2028561,0,0,-0.4673822,0,0,-0.18,0
12817,22781784,0,1.4,0.38,17.78,-0.001707927,0.005670844,-0.1296323,0.1991991,0,0,-0.4686791,0,0,-0.18,0
12856,22791929,0,1.4,0.38,17.78,-0.001589457,0.005872947,-0.1282187,0.191956,0,0,-0.4669103,0,0,-0.18,0
12897,22802151,0,1.4,0.38,17.79,-0.00159442,0.005974347,-0.1268464,0.1834401,0,0,-0.4651497,0,0,-0.18,0
12937,22811950,0,1.4,0.38,17.79,-0.001578116,0.005502365,-0.1250767,0.1747711,0,0,-0.4635284,0,0,-0.18,0
12979,22822807,0,1.4,0.38,17.79,-0.001465299,0.004971507,-0.1235377,0.1664566,0,0,-0.4620469,0,0,-0.18,0
13019,22832823,0,1.4,0.38,17.79,-0.001822412,0.004856474,-0.1220583,0.1570806,0,0,-0.4606857,0,0,-0.18,0
13065,22843261,0,1.39,0.38,17.79,-0.00187572,0.004579633,-0.1210746,0.1484579,0,0,-0.4620209,0,0,-0.18,0
13107,22853730,0,1.39,0.37,17.79,-0.002086933,0.004189099,-0.1197272,0.137973,0,0,-0.4607509,0,0,-0.18,0
13148,22863775,0,1.39,0.37,17.79,-0.002567569,0.003746238,-0.1185333,0.1272841,0,0,-0.4595995,0,0,-0.18,0
13191,22873783,0,1.39,0.38,17.8,-0.002921349,0.003507993,-0.1170812,0.1156918,0,0,-0.4585527,0,0,-0.18,0
13231,22886806,0,1.39,0.38,17.8,-0.003339049,0.003148036,-0.1153506,0.1019287,0,0,-0.4570984,0,0,-0.18,0
13269,22897178,0,1.39,0.38,17.8,-0.003444097,0.003284105,-0.1141231,0.09300600000000001,0,0,-0.4553105,0,0,-0.18,0
13309,22907374,0,1.4,0.38,17.8,-0.003496923,0.003639355,-0.1132512,0.08993451,0,0,-0.4564466,0,0,-0.18,0
13351,22917726,0,1.4,0.38,17.81,-0.003805676,0.003799259,-0.1116247,0.08685973,0,0,-0.4547694,0,0,-0.18,0
13392,22927388,0,1.4,0.39,17.81,-0.003951478,0.00405553,-0.1099769,0.08474938999999999,0,0,-0.4532228,0,0,-0.18,0
13432,22937419,0,1.4,0.38,17.81,-0.004125119,0.004339258,-0.1084305,0.08165015,0,0,-0.4517919,0,0,-0.18,0
13477,22947380,0,1.4,0.38,17.82,-0.004085104,0.00463531,-0.1068359,0.07888177,0,0,-0.4504789,0,0,-0.18,0
13519,22957883,0,1.4,0.38,17.82,-0.004085196,0.00482123,-0.105558,0.07745212,0,0,-0.449393,0,0,-0.18,0
13560,22967844,0,1.4,0.38,17.82,-0.004116363,0.004939305,-0.104805,0.07716876,0,0,-0.4504439,0,0,-0.18,0
13601,22977908,0,1.4,0.38,17.83,-0.004097281,0.00502123,-0.1036703,0.07563183,0,0,-0.449346,0,0,-0.18,0
13639,22988734,0,1.4,0.38,17.83,-0.004092017,0.004914639,-0.1017826,0.07667528,0,0,-0.4465105,0,0,-0.18,0
13680,22998937,0,1.4,0.38,17.83,-0.003824842,0.004594984,-0.1000567,0.08434034,0,0,-0.4439556,0,0,-0.18,0
13721,23008948,0,1.4,0.38,17.84,-0.003646231,0.00441665,-0.09845076,0.09287455999999999,0,0,-0.4414634,0,0,-0.18,0
13762,23018851,0,1.39,0.38,17.84,-0.003476996,0.004209778,-0.09684151000000001,0.09994334000000001,0,0,-0.439119,0,0,-0.18,0
13803,23029301,0,1.39,0.38,17.84,-0.003499832,0.00389626,-0.09595598,0.11048,0,0,-0.4400824,0,0,-0.18,0
13843,23039074,0,1.39,0.38,17.84,-0.003313329,0.003613704,-0.09386433,0.1189349,0,0,-0.4378557,0,0,-0.18,0
13888,23049110,0,1.39,0.38,17.84,-0.003511983,0.0036922,-0.09194141,0.1262247,0,0,-0.4357698,0,0,-0.18,0
13928,23059184,0,1.39,0.38,17.85,-0.003015494,0.003897714,-0.09031554999999999,0.1318304,0,0,-0.433814,0,0,-0.18,0
13970,23069114,0,1.4,0.39,17.85,-0.001393648,0.003749795,-0.08865584,0.1344508,0,0,-0.4319841,0,0,-0.18,0
14013,23079416,0,1.4,0.39,17.84,0.0009281519,0.003467461,-0.08859435,0.1376993,0,0,-0.4328697,0,0,-0.18,0
14057,23092157,0,1.4,0.41,17.83,0.004693297,0.003777296,-0.08715154,0.1385644,0,0,-0.4312851,0,0,-0.18,0
14097,23101960,0,1.4,0.42,17.82,0.008457258,0.004700439,-0.08564144,0.1397295,0,0,-0.4295603,0,0,-0.18,0
14138,23112897,0,1.4,0.43,17.81,0.01238743,0.006003512,-0.08383344,0.1408083,0,0,-0.428047,0,0,-0.18,0
14180,23122865,0,1.4,0.43,17.8,0.01571017,0.008087937,-0.08242915000000001,0.1391965,0,0,-0.4265516,0,0,-0.18,0
14220,23132961,0,1.4,0.43,17.79,0.0178432,0.01066019,-0.08075053,0.1367691,0,0,-0.4251637,0,0,-0.18,0
14261,23142855,0,1.4,0.41,17.8,0.0189387,0.01270676,-0.07929178000000001,0.1319727,0,0,-0.4238712,0,0,-0.18,0
14306,23153279,0,1.4,0.39,17.81,0.01882468,0.01429438,-0.07837548,0.1286729,0,0,-0.4246594,0,0,-0.18,0
14347,23163355,0,1.4,0.35,17.84,0.01727669,0.01546067,-0.07726434,0.1233571,0,0,-0.4234447,0,0,-0.18,0
14389,23173310,0,1.39,0.32,17.86,0.01443697,0.01505467,-0.07700256,0.1167537,0,0,-0.4223337,0,0,-0.18,0
14430,23183358,0,1.39,0.29,17.9,0.01086197,0.01303713,-0.07714728999999999,0.1084363,0,0,-0.42132,0,0,-0.18,0
14471,23193475,0,1.39,0.26,17.92,0.006115276,0.009593107999999999,-0.07777542,0.1000401,0,0,-0.4220941,0,0,-0.18,0
14508,23204084,0,1.38,0.25,17.94,0.0004115333,0.004801083,-0.0768028,0.09412742,0,0,-0.4203748,0,0,-0.18,0
14550,23214110,0,1.38,0.25,17.94,-0.005252942,0.0002695114,-0.07540263,0.0909166,0,0,-0.4186962,0,0,-0.18,0
14591,23224401,0,1.38,0.26,17.93,-0.01142395,-0.003797942,-0.07322826,0.08895846,0,0,-0.4171222,0,0,-0.18,0
14631,23234714,0,1.38,0.27,17.91,-0.01835608,-0.006761308,-0.07102019,0.08816752,0,0,-0.4156509,0,0,-0.18,0
14672,23244397,0,1.38,0.29,17.88,-0.0252433,-0.008274943999999999,-0.06841031,0.09036818000000001,0,0,-0.4142853,0,0,-0.18,0
14717,23254340,0,1.38,0.3,17.85,-0.03201493,-0.008914629,-0.06669735,0.09364591,0,0,-0.4149596,0,0,-0.18,0
14760,23264670,0,1.39,0.31,17.83,-0.03805432,-0.008826285999999999,-0.06482763,0.09471084,0,0,-0.4136584,0,0,-0.18,0
14800,23274557,0,1.39,0.32,17.82,-0.04304802,-0.007828352,-0.06382328,0.09419746,0,0,-0.4124482,0,0,-0.18,0
14842,23284393,0,1.4,0.33,17.82,-0.0467511,-0.006606784,-0.06356819,0.09130655,0,0,-0.4113285,0,0,-0.18,0
14886,23297728,0,1.4,0.35,17.83,-0.04879925,-0.005279798,-0.06375602,0.08720054000000001,0,0,-0.4099307,0,0,-0.18,0
14927,23307355,0,1.41,0.37,17.85,-0.04765578,-0.00446138,-0.06333508,0.08512709,0,0,-0.4084607,0,0,-0.18,0
14968,23317893,0,1.41,0.4,17.87,-0.04377069,-0.003752545,-0.06258985,0.08573531,0,0,-0.4071701,0,0,-0.18,0
15008,23327899,0,1.41,0.44,17.9,-0.03785736,-0.003185879,-0.06159903,0.08825333,0,0,-0.4077909,0,0,-0.18,0
15049,23337891,0,1.41,0.49,17.92,-0.03007393,-0.001880941,-0.05930961,0.09003767,0,0,-0.4065075,0,0,-0.18,0
15094,23347970,0,1.41,0.53,17.94,-0.02077514,6.502075e-05,-0.05628643,0.09202233999999999,0,0,-0.4053028,0,0,-0.18,0
15137,23357866,0,1.41,0.5600000000000001,17.96,-0.01059118,0.002511753,-0.05362432,0.0929667,0,0,-0.4041704,0,0,-0.18,0
15178,23367893,0,1.41,0.57,17.96,0.0002250811,0.005643447,-0.05129949,0.09200384,0,0,-0.4031039,0,0,-0.18,0
15219,23378249,0,1.41,0.57,17.97,0.01086062,0.009054687,-0.05059304,0.09097382,0,0,-0.4036112,0,0,-0.18,0
15260,23391187,0,1.4,0.54,17.97,0.02348319,0.01317181,-0.05021956,0.08645496,0,0,-0.4027546,0,0,-0.18,0
15300,23401832,0,1.4,0.5,17.97,0.0326581,0.01613114,-0.05001882,0.08309994,0,0,-0.4013203,0,0,-0.18,0
15342,23411751,0,1.4,0.46,17.96,0.03872919,0.01852806,-0.0503216,0.08092389,0,0,-0.3999465,0,0,-0.18,0
15383,23421811,0,1.4,0.41,17.95,0.04284858,0.01988331,-0.05027414,0.07879601999999999,0,0,-0.3986729,0,0,-0.18,0
15423,23432195,0,1.4,0.37,17.93,0.04463959,0.02017969,-0.0495914,0.07727262,0,0,-0.3975399,0,0,-0.18,0
15464,23442830,0,1.4,0.33,17.91,0.04364014,0.01949264,-0.0484486,0.078309,0,0,-0.39803,0,0,-0.18,0
15508,23452765,0,1.4,0.31,17.9,0.04065649,0.0180462,-0.04612192,0.07915252,0,0,-0.3969064,0,0,-0.18,0
15550,23462830,0,1.4,0.29,17.88,0.03584322,0.01607212,-0.04331598,0.08029140999999999,0,0,-0.3958502,0,0,-0.18,0
15592,23472860,0,1.4,0.27,17.86,0.02827187,0.0140029,-0.04057229,0.0816128,0,0,-0.3949031,0,0,-0.18,0
15634,23483016,0,1.39,0.26,17.85,0.02007235,0.01246974,-0.03819852,0.08190600000000001,0,0,-0.3939731,0,0,-0.18,0
15675,23495713,0,1.39,0.25,17.85,0.008065212,0.01033914,-0.03619188,0.08190886999999999,0,0,-0.3919116,0,0,-0.18,0
15716,23505365,0,1.39,0.24,17.85,-0.0004060215,0.008810959,-0.03572198,0.08271967,0,0,-0.3898249,0,0,-0.18,0
15757,23516064,0,1.39,0.24,17.86,-0.01025588,0.007040123,-0.0358141,0.08806247,0,0,-0.3879406,0,0,-0.18,0
15797,23526108,0,1.38,0.24,17.87,-0.01855301,0.005635105,-0.03714356,0.09431875000000001,0,0,-0.3883053,0,0,-0.18,0
15838,23536080,0,1.38,0.24,17.89,-0.02569328,0.004315482,-0.03717661,0.1006958,0,0,-0.3865145,0,0,-0.18,0
15879,23546155,0,1.38,0.26,17.9,-0.03135348,0.003271603,-0.03652044,0.1060251,0,0,-0.3848289,0,0,-0.18,0
15924,23556104,0,1.38,0.29,17.92,-0.03510749,0.00243689,-0.03495449,0.1113999,0,0,-0.3832435,0,0,-0.18,0
15965,23565939,0,1.39,0.32,17.93,-0.03693124,0.001716192,-0.03251507,0.1155863,0,0,-0.3817377,0,0,-0.18,0
16005,23576157,0,1.39,0.36,17.94,-0.03689054,0.001301482,-0.03028901,0.121011,0,0,-0.382051,0,0,-0.18,0
16046,23586137,0,1.39,0.39,17.95,-0.03546334,0.001267706,-0.02748361,0.1252733,0,0,-0.3805915,0,0,-0.18,0
16083,23596718,0,1.4,0.42,17.95,-0.03251729,0.001879764,-0.02471239,0.129267,0,0,-0.378581,0,0,-0.18,0
16126,23606794,0,1.4,0.44,17.95,-0.02915265,0.002867177,-0.02284561,0.131982,0,0,-0.3766352,0,0,-0.18,0
16166,23616964,0,1.41,0.45,17.94,-0.02526971,0.003823301,-0.02203105,0.1328812,0,0,-0.3747857,0,0,-0.18,0
16207,23627764,0,1.41,0.44,17.94,-0.02154898,0.004859322,-0.02239654,0.1353863,0,0,-0.3750074,0,0,-0.18,0
16247,23637696,0,1.41,0.43,17.93,-0.01801523,0.005336558,-0.02264748,0.1361223,0,0,-0.3732581,0,0,-0.18,0
16288,23647712,0,1.41,0.41,17.93,-0.01486008,0.005641201,-0.0229913,0.1363149,0,0,-0.37162,0,0,-0.18,0
16335,23657835,0,1.41,0.39,17.92,-0.01209479,0.006060403,-0.02307708,0.1355678,0,0,-0.3701042,0,0,-0.18,0
16381,23670334,0,1.41,0.38,17.92,-0.009742008999999999,0.006224884,-0.02200305,0.1347357,0,0,-0.3686977,0,0,-0.18,0
16422,23680916,0,1.4,0.38,17.92,-0.008234669999999999,0.006021299,-0.01979399,0.133859,0,0,-0.3673388,0,0,-0.18,0
16464,23691740,0,1.4,0.38,17.92,-0.006996381,0.005720579,-0.01799529,0.1340344,0,0,-0.3675282,0,0,-0.18,0
16505,23702323,0,1.4,0.4,17.92,-0.005564214,0.005255922,-0.01570669,0.1318629,0,0,-0.366464,0,0,-0.18,0
16546,23712401,0,1.4,0.41,17.93,-0.004044487,0.004684778,-0.0137638,0.1292215,0,0,-0.3654463,0,0,-0.18,0
16588,23722868,0,1.39,0.42,17.94,-0.00202377,0.004352602,-0.01219842,0.1243165,0,0,-0.3644923,0,0,-0.18,0
16628,23732842,0,1.39,0.43,17.95,0.0001047796,0.004208964,-0.01210316,0.1178912,0,0,-0.3635876,0,0,-0.18,0
16670,23742857,0,1.39,0.43,17.96,0.002303384,0.004420533,-0.01165358,0.1109034,0,0,-0.3627439,0,0,-0.18,0
16710,23753107,0,1.4,0.42,17.97,0.004515513,0.004562183,-0.01218594,0.1040388,0,0,-0.3628626,0,0,-0.18,0
16755,23763661,0,1.4,0.41,17.98,0.006828387,0.004836877,-0.01209235,0.09699286999999999,0,0,-0.3620784,0,0,-0.18,0
16795,23773693,0,1.4,0.4,17.99,0.009101583999999999,0.005174925,-0.01173939,0.08913531,0,0,-0.3613398,0,0,-0.18,0
16836,23783415,0,1.4,0.39,18,0.01137198,0.005494924,-0.0106005,0.08253657,0,0,-0.3606561,0,0,-0.18,0
16882,23796361,0,1.4,0.38,18.01,0.01398822,0.005826924,-0.008585316000000001,0.07644430000000001,0,0,-0.359749,0,0,-0.18,0
16922,23806628,0,1.4,0.38,18.01,0.01578594,0.006149441,-0.006859931,0.07268634,0,0,-0.3588597,0,0,-0.18,0
16963,23817163,0,1.4,0.38,18.01,0.01798773,0.006442311,-0.005053306,0.07017635,0,0,-0.3580309,0,0,-0.18,0
17003,23827202,0,1.4,0.39,18.01,0.01956135,0.00670534,-0.004382372,0.06804080999999999,0,0,-0.3580773,0,0,-0.18,0
17044,23837851,0,1.4,0.39,18,0.02100478,0.006909114,-0.003452692,0.0652696,0,0,-0.35728,0,0,-0.18,0
17086,23847851,0,1.39,0.39,18,0.02158502,0.00751141,-0.003193203,0.06200594,0,0,-0.3565271,0,0,-0.18,0
17130,23857849,0,1.39,0.37,17.99,0.02104403,0.00852547,-0.002759862,0.05903245,0,0,-0.3558289,0,0,-0.18,0
17172,23867795,0,1.39,0.36,17.98,0.01936809,0.009808046000000001,-0.002598515,0.0554662,0,0,-0.3551802,0,0,-0.18,0
17215,23878382,0,1.38,0.33,17.97,0.01622514,0.01131798,-0.002265,0.05304587,0,0,-0.3552049,0,0,-0.18,0
17256,23888846,0,1.38,0.31,17.97,0.01194231,0.01256622,-0.001220064,0.05083336,0,0,-0.3545927,0,0,-0.18,0
17297,23898745,0,1.38,0.28,17.97,0.006338551,0.01362152,0.0001977695,0.04903558,0,0,-0.3540181,0,0,-0.18,0
17335,23909035,0,1.38,0.26,17.97,-0.0008402055,0.01475192,0.001402991,0.04685511,0,0,-0.3532225,0,0,-0.18,0
17377,23918967,0,1.38,0.25,17.97,-0.008154508,0.0154662,0.00250422,0.04523139,0,0,-0.3524674,0,0,-0.18,0
17418,23928966,0,1.38,0.25,17.98,-0.01517184,0.01577953,0.003104965,0.0446598,0,0,-0.3524396,0,0,-0.18,0
17458,23939130,0,1.39,0.25,17.99,-0.0221173,0.01545671,0.003918236,0.04430972,0,0,-0.3517223,0,0,-0.18,0
17499,23949037,0,1.39,0.27,17.99,-0.02830321,0.01478963,0.004409011,0.04394349,0,0,-0.3510583,0,0,-0.19,0
17543,23958961,0,1.39,0.3,18,-0.03317556,0.01344926,0.004817987,0.04336897,0,0,-0.3504386,0,0,-0.19,0
17585,23969028,0,1.39,0.32,18.01,-0.03660446,0.01176076,0.005173124,0.04255899,0,0,-0.3498641,0,0,-0.19,0
17626,23979445,0,1.39,0.34,18.02,-0.03839976,0.009913912,0.005267569,0.04148351,0,0,-0.3493387,0,0,-0.19,0
17666,23989810,0,1.39,0.37,18.03,-0.03844455,0.007922393999999999,0.005900376,0.04064113,0,0,-0.3488517,0,0,-0.19,0
17707,23999436,0,1.39,0.38,18.04,-0.0372254,0.00570883,0.006637521,0.04018895,0,0,-0.3487889,0,0,-0.19,0
17750,24013102,0,1.39,0.4,18.06,-0.03295039,0.002227048,0.008158792999999999,0.03798015,0,0,-0.3483936,0,0,-0.19,0
17793,24023361,0,1.39,0.41,18.07,-0.02862712,-0.000129415,0.009104131999999999,0.03570346,0,0,-0.3483076,0,0,-0.19,0
17834,24033509,0,1.38,0.41,18.08,-0.02332688,-0.002469137,0.0101088,0.03294917,0,0,-0.3481056,0,0,-0.19,0
17874,24043340,0,1.39,0.42,18.09,-0.01729145,-0.00437524,0.01096181,0.02983765,0,0,-0.3479207,0,0,-0.19,0
17915,24053315,0,1.39,0.42,18.1,-0.0111785,-0.005913614,0.01143659,0.0262582,0,0,-0.3477513,0,0,-0.19,0
17959,24063446,0,1.39,0.43,18.11,-0.004892963,-0.006922072,0.01208961,0.02297495,0,0,-0.3476328,0,0,-0.19,0
18001,24073320,0,1.39,0.44,18.11,0.001569967,-0.007393314,0.01246652,0.01950317,0,0,-0.3474658,0,0,-0.19,0
18043,24083823,0,1.4,0.45,18.11,0.007558023,-0.007064258,0.01284029,0.01621847,0,0,-0.3473078,0,0,-0.19,0
18084,24093773,0,1.4,0.45,18.1,0.01270893,-0.005944148,0.01354464,0.01356475,0,0,-0.3471691,0,0,-0.19,0
18125,24103735,0,1.4,0.44,18.09,0.01684787,-0.003961368,0.01461329,0.01157976,0,0,-0.3470291,0,0,-0.19,0
18166,24113766,0,1.41,0.43,18.08,0.0200029,-0.001271215,0.01597468,0.01011561,0,0,-0.3468778,0,0,-0.18,0
18208,24126276,0,1.41,0.41,18.06,0.02236317,0.003331314,0.01779309,0.008704920999999999,0,0,-0.3466712,0,0,-0.18,0
18248,24136146,0,1.41,0.39,18.05,0.02289789,0.007214641,0.019045,0.007771994,0,0,-0.3465242,0,0,-0.18,0
18289,24146132,0,1.41,0.36,18.04,0.02195516,0.01127143,0.01985928,0.00657291,0,0,-0.3463937,0,0,-0.18,0
18331,24155952,0,1.41,0.34,18.03,0.02004548,0.01517815,0.02034495,0.005273635,0,0,-0.3462757,0,0,-0.18,0
18375,24166180,0,1.41,0.33,18.02,0.01708914,0.01880985,0.02074669,0.003980285,0,0,-0.3460699,0,0,-0.18,0
18416,24176097,0,1.4,0.31,18.03,0.01336801,0.02200548,0.02094934,0.002591217,0,0,-0.3459659,0,0,-0.18,0
18456,24186103,0,1.4,0.31,18.03,0.009172121,0.02450508,0.02112192,0.001235771,0,0,-0.3458824,0,0,-0.18,0
18498,24196131,0,1.39,0.3,18.04,0.004566665,0.02622824,0.02143369,0.0001341905,0,0,-0.3458137,0,0,-0.18,0
18536,24206265,0,1.39,0.3,18.05,5.915982e-05,0.0270121,0.02215239,-0.0004414161,0,0,-0.3457536,0,0,-0.18,0
18574,24216665,0,1.38,0.3,18.06,-0.004523742,0.02673187,0.02297998,-0.0008608537,0,0,-0.3457066,0,0,-0.18,0
18616,24226672,0,1.38,0.3,18.06,-0.00909692,0.02558172,0.02414786,-0.000816557,0,0,-0.3456634,0,0,-0.18,0
18656,24236719,0,1.38,0.3,18.07,-0.01334998,0.02369094,0.02546751,-0.0007154905,0,0,-0.3454159,0,0,-0.18,0
18697,24246851,0,1.38,0.3,18.08,-0.01783691,0.02051138,0.02666946,-0.0006181772,0,0,-0.3453295,0,0,-0.18,0
18739,24257722,0,1.38,0.3,18.08,-0.02164126,0.0171061,0.02750574,-0.0007963525,0,0,-0.345277,0,0,-0.18,0
18785,24267832,0,1.38,0.3,18.07,-0.0254369,0.01300227,0.02786282,-0.001342901,0,0,-0.345199,0,0,-0.18,0
18825,24277765,0,1.38,0.3,18.07,-0.02817218,0.00894226,0.02807347,-0.001846201,0,0,-0.3451558,0,0,-0.18,0
18866,24288265,0,1.38,0.31,18.06,-0.03006893,0.004709779,0.02813003,-0.002505708,0,0,-0.3451267,0,0,-0.18,0
18908,24299064,0,1.38,0.33,18.05,-0.03119828,0.0006375969,0.0281761,-0.003098321,0,0,-0.3448179,0,0,-0.18,0
18945,24309290,0,1.38,0.34,18.04,-0.03125444,-0.00293596,0.02834771,-0.002295564,0,0,-0.3444424,0,0,-0.18,0
18983,24319433,0,1.39,0.37,18.04,-0.03025544,-0.005818837,0.02904037,-0.0002390746,0,0,-0.3441175,0,0,-0.17,0
19025,24329347,0,1.39,0.39,18.03,-0.02831299,-0.008133936,0.03000075,0.002490962,0,0,-0.3438074,0,0,-0.17,0
19067,24339165,0,1.39,0.41,18.03,-0.0255253,-0.009711658,0.03096121,0.00542069,0,0,-0.3435057,0,0,-0.17,0
19108,24349265,0,1.39,0.43,18.03,-0.02185337,-0.01073266,0.0319812,0.008475687000000001,0,0,-0.3432135,0,0,-0.17,0
19149,24359827,0,1.39,0.44,18.04,-0.01702712,-0.01143734,0.03272932,0.01138121,0,0,-0.3429019,0,0,-0.17,0
19194,24369843,0,1.39,0.44,18.04,-0.01230101,-0.0111125,0.03344947,0.01388959,0,0,-0.3425711,0,0,-0.17,0
19234,24379969,0,1.4,0.45,18.05,-0.007362579,-0.01018043,0.03399161,0.01597637,0,0,-0.342298,0,0,-0.17,0
19275,24389847,0,1.4,0.44,18.06,-0.002501152,-0.009147987,0.03447445,0.01782385,0,0,-0.3420323,0,0,-0.17,0
19317,24399843,0,1.4,0.44,18.06,0.002350356,-0.007470167,0.03487355,0.01937058,0,0,-0.3417811,0,0,-0.17,0
19360,24415365,0,1.4,0.43,18.06,0.008730505,-0.004028898,0.03533929,0.02150254,0,0,-0.341178,0,0,-0.17,0
19400,24425316,0,1.4,0.43,18.06,0.01248549,-0.00137772,0.0360011,0.02353655,0,0,-0.3407571,0,0,-0.17,0
19442,24435805,0,1.4,0.43,18.05,0.01606713,0.002244174,0.03684784,0.02614261,0,0,-0.340319,0,0,-0.17,0
19483,24445845,0,1.4,0.42,18.04,0.01843594,0.005939504,0.03792535,0.0288655,0,0,-0.3399459,0,0,-0.17,0
19524,24455877,0,1.41,0.42,18.02,0.02045161,0.009750945,0.0391847,0.03157007,0,0,-0.3395424,0,0,-0.17,0
19571,24465867,0,1.4,0.41,18.01,0.02146369,0.01351856,0.04034138,0.03399247,0,0,-0.3391436,0,0,-0.17,0
19613,24475843,0,1.4,0.4,17.99,0.02165508,0.01752863,0.04121255,0.03595448,0,0,-0.3387438,0,0,-0.16,0
19653,24485928,0,1.4,0.39,17.98,0.02091145,0.02132016,0.04196749,0.03765871,0,0,-0.338329,0,0,-0.16,0
19694,24495816,0,1.4,0.37,17.97,0.01928735,0.02471178,0.04291927,0.03929426,0,0,-0.3379318,0,0,-0.17,0
19735,24505883,0,1.4,0.35,17.96,0.01712221,0.02702112,0.04350221,0.04030278,0,0,-0.3375886,0,0,-0.17,0
19773,24515965,0,1.39,0.33,17.96,0.01384782,0.02891161,0.04408903,0.04303584,0,0,-0.3362291,0,0,-0.16,0
19813,24526130,0,1.39,0.31,17.96,0.01004978,0.02981389,0.04471656,0.04681075,0,0,-0.3349525,0,0,-0.16,0
19852,24536186,0,1.39,0.29,17.96,0.005784329,0.02975946,0.04501779,0.05300641,0,0,-0.3345034,0,0,-0.16,0
19893,24546123,0,1.39,0.29,17.97,0.001652722,0.028488,0.04562081,0.05998185,0,0,-0.3332683,0,0,-0.16,0
19934,24556103,0,1.38,0.29,17.97,-0.002449856,0.02616126,0.04646837,0.06707804000000001,0,0,-0.3320739,0,0,-0.16,0
19978,24566177,0,1.38,0.29,17.98,-0.005958898,0.02324585,0.04771658,0.07444597,0,0,-0.3309204,0,0,-0.16,0
20019,24576749,0,1.38,0.3,17.99,-0.009047660000000001,0.01925061,0.04912997,0.08119923,0,0,-0.3297978,0,0,-0.16,0
20060,24586909,0,1.38,0.31,17.99,-0.01178937,0.01456216,0.05040571,0.08831944999999999,0,0,-0.3286609,0,0,-0.16,0
20100,24597392,0,1.38,0.31,17.99,-0.01381821,0.009937351000000001,0.05093265,0.09389821,0,0,-0.3281546,0,0,-0.16,0
20139,24607420,0,1.37,0.32,17.99,-0.01516469,0.005365129,0.05210723,0.09879661000000001,0,0,-0.3270875,0,0,-0.16,0
20176,24617837,0,1.37,0.33,17.98,-0.0159538,0.0003166804,0.05308392,0.1045093,0,0,-0.3253736,0,0,-0.16,0
20217,24627797,0,1.38,0.33,17.98,-0.0163654,-0.002654712,0.05355421,0.1104957,0,0,-0.3237758,0,0,-0.16,0
20259,24638059,0,1.38,0.34,17.97,-0.01642498,-0.005782625,0.05494753,0.1168873,0,0,-0.3222278,0,0,-0.16,0
20299,24648083,0,1.38,0.34,17.97,-0.01553483,-0.009987098,0.0552798,0.1219571,0,0,-0.3207309,0,0,-0.16,0
20341,24658867,0,1.38,0.35,17.96,-0.01427543,-0.01100734,0.05579684,0.1275692,0,0,-0.3192939,0,0,-0.16,0
20388,24668960,0,1.38,0.36,17.96,-0.01336906,-0.01286565,0.0564514,0.1337465,0,0,-0.3186771,0,0,-0.16,0
20430,24679910,0,1.39,0.37,17.95,-0.01072157,-0.01324111,0.05701913,0.1376939,0,0,-0.3172152,0,0,-0.16,0
20471,24689881,0,1.39,0.38,17.95,-0.009251301,-0.01209708,0.05852573,0.1410886,0,0,-0.3158494,0,0,-0.16,0
20512,24699855,0,1.4,0.39,17.96,-0.007838516,-0.0105899,0.06037042,0.1440538,0,0,-0.3145165,0,0,-0.16,0
20553,24712785,0,1.4,0.4,17.96,-0.004847194,-0.008340396,0.06235546,0.147709,0,0,-0.3119749,0,0,-0.16,0
20591,24723060,0,1.4,0.4,17.97,-0.003767883,-0.004695601,0.06309149,0.1511428,0,0,-0.3096854,0,0,-0.16,0
20631,24733050,0,1.4,0.4,17.98,-0.003055675,-0.0002912268,0.0640135,0.1583585,0,0,-0.3090495,0,0,-0.16,0
20673,24743062,0,1.4,0.39,17.99,-0.002265841,0.002531875,0.06474829999999999,0.1653289,0,0,-0.3068241,0,0,-0.16,0
20714,24752929,0,1.4,0.39,17.99,-0.001574155,0.005916615,0.06624476999999999,0.1722634,0,0,-0.304669,0,0,-0.16,0
20755,24763165,0,1.4,0.38,18,-0.001679642,0.008851056,0.06704543,0.1760547,0,0,-0.3025684,0,0,-0.16,0
20800,24772968,0,1.4,0.37,18,-0.001364329,0.01221486,0.06748672,0.1812485,0,0,-0.3018964,0,0,-0.16,0
20841,24783595,0,1.4,0.37,18,-0.0008195646,0.01572974,0.06842228,0.1854157,0,0,-0.2998524,0,0,-0.16,0
20882,24793810,0,1.39,0.37,18,-0.001142547,0.01772355,0.06989169000000001,0.1878112,0,0,-0.2978563,0,0,-0.16,0
20923,24803500,0,1.39,0.37,18,-0.001387136,0.01860246,0.07116428,0.1898054,0,0,-0.2959211,0,0,-0.16,0
20964,24816643,0,1.38,0.37,17.99,-0.001329512,0.01969491,0.07272039,0.1936188,0,0,-0.2936427,0,0,-0.16,0
21002,24826852,0,1.37,0.38,17.98,-0.001268612,0.01958702,0.07429676,0.1958682,0,0,-0.2915587,0,0,-0.16,0
21044,24837242,0,1.37,0.38,17.97,-0.0003672891,0.01970433,0.0745493,0.1976398,0,0,-0.2908159,0,0,-0.16,0
21086,24847178,0,1.37,0.38,17.96,-4.87077e-05,0.01931166,0.07603306,0.1991792,0,0,-0.2888503,0,0,-0.16,0
21129,24857783,0,1.36,0.37,17.96,-0.0003592501,0.01825521,0.07689628,0.198057,0,0,-0.2869296,0,0,-0.16,0
21170,24867773,0,1.35,0.37,17.97,-0.0002498008,0.01735206,0.07758709,0.196668,0,0,-0.2850683,0,0,-0.16,0
21214,24877853,0,1.35,0.36,17.97,-0.0006128454,0.01586546,0.07812159,0.1956076,0,0,-0.2831934,0,0,-0.16,0
21255,24887854,0,1.35,0.35,17.98,-0.00115476,0.01447652,0.07875531,0.1952004,0,0,-0.2824087,0,0,-0.16,0
21296,24897845,0,1.35,0.34,17.99,-0.001899141,0.01255985,0.07931565,0.193776,0,0,-0.2806583,0,0,-0.16,0
21340,24910675,0,1.35,0.34,17.99,-0.003184726,0.009685354,0.08003601,0.1909452,0,0,-0.2787954,0,0,-0.16,0
21377,24920720,0,1.36,0.34,18,-0.004320662,0.00702556,0.08089712,0.18865,0,0,-0.2770795,0,0,-0.15,0
21418,24931226,0,1.36,0.35,17.99,-0.005246151,0.004461306,0.08194145999999999,0.1864747,0,0,-0.2753322,0,0,-0.15,0
21460,24941235,0,1.36,0.35,17.98,-0.005808792,0.002148838,0.08301356,0.1837469,0,0,-0.2737062,0,0,-0.15,0
21500,24951191,0,1.37,0.36,17.97,-0.006074021,-0.0003993248,0.08426309999999999,0.1809618,0,0,-0.2721207,0,0,-0.15,0
21541,24961796,0,1.37,0.37,17.96,-0.006636299,-0.002785749,0.08542144,0.1781006,0,0,-0.2704907,0,0,-0.15,0
21582,24972172,0,1.37,0.37,17.95,-0.006862995,-0.004429979,0.08615977,0.1755077,0,0,-0.2696336,0,0,-0.15,0
21627,24982130,0,1.37,0.37,17.94,-0.006785881,-0.005614243,0.08677011,0.1722414,0,0,-0.2681166,0,0,-0.15,0
21669,24992137,0,1.36,0.37,17.93,-0.00659855,-0.005995028,0.08739383000000001,0.1689463,0,0,-0.2666422,0,0,-0.15,0
21709,25002787,0,1.36,0.37,17.93,-0.006783442,-0.005960681,0.08811651,0.1654691,0,0,-0.2652032,0,0,-0.15,0
21750,25012796,0,1.36,0.37,17.93,-0.006801205,-0.005898921,0.08879239999999999,0.1617164,0,0,-0.2634418,0,0,-0.15,0
21790,25022701,0,1.36,0.37,17.93,-0.006635447,-0.00525902,0.08944505,0.1589339,0,0,-0.261728,0,0,-0.15,0
21829,25033684,0,1.35,0.37,17.94,-0.006378871,-0.004617062,0.09047732,0.1576693,0,0,-0.2599708,0,0,-0.15,0
21870,25043955,0,1.35,0.38,17.95,-0.005524602,-0.004277477,0.09140998,0.1569496,0,0,-0.2582567,0,0,-0.15,0
21910,25053966,0,1.36,0.38,17.97,-0.0044645,-0.003418067,0.09202678,0.156652,0,0,-0.2573402,0,0,-0.15,0
21952,25064068,0,1.36,0.39,17.98,-0.003316037,-0.002847479,0.09308316,0.1563462,0,0,-0.2557438,0,0,-0.15,0
21995,25074121,0,1.36,0.4,17.99,-0.001688457,-0.002419456,0.0937548,0.1551449,0,0,-0.2541791,0,0,-0.15,0
22040,25084643,0,1.37,0.4,17.99,0.000222804,-0.001831584,0.09480653999999999,0.1538827,0,0,-0.2526453,0,0,-0.15,0
22080,25094791,0,1.37,0.4,17.99,0.001767519,-0.0009755956,0.09550313000000001,0.1521824,0,0,-0.2511419,0,0,-0.15,0
22121,25105116,0,1.37,0.4,17.98,0.003837603,8.526025e-05,0.09669395,0.1511167,0,0,-0.2495751,0,0,-0.15,0
22162,25114937,0,1.37,0.39,17.98,0.005076285,0.001323835,0.09727079,0.1499034,0,0,-0.2486063,0,0,-0.15,0
22200,25125408,0,1.37,0.39,17.97,0.005637416,0.002900625,0.09854981,0.1489879,0,0,-0.2470862,0,0,-0.15,0
22241,25135622,0,1.37,0.37,17.96,0.005961192,0.004637065,0.09904277,0.1473068,0,0,-0.2455955,0,0,-0.15,0
22278,25145396,0,1.37,0.37,17.95,0.005964206,0.005902107,0.09974614,0.1455832,0,0,-0.244132,0,0,-0.15,0
22319,25155339,0,1.37,0.36,17.94,0.005519108,0.007285082,0.1004573,0.1438915,0,0,-0.242698,0,0,-0.15,0
22360,25165879,0,1.36,0.35,17.94,0.004675203,0.009120754,0.1010959,0.1422633,0,0,-0.2411941,0,0,-0.15,0
22401,25175878,0,1.36,0.35,17.94,0.003449862,0.01012021,0.1015447,0.1409131,0,0,-0.2401831,0,0,-0.15,0
22447,25185879,0,1.36,0.35,17.95,0.002995044,0.01070072,0.1024586,0.1397499,0,0,-0.2388001,0,0,-0.15,0
22487,25195832,0,1.35,0.35,17.95,0.002129762,0.01278642,0.1029426,0.1378972,0,0,-0.237435,0,0,-0.15,0
22529,25205912,0,1.36,0.36,17.96,0.0002048771,0.01298575,0.1038886,0.1360217,0,0,-0.2360836,0,0,-0.15,0
22570,25215797,0,1.36,0.35,17.97,-0.0006609175,0.01228979,0.1050138,0.1346159,0,0,-0.2349353,0,0,-0.15,0
22611,25225851,0,1.36,0.35,17.98,-0.002590194,0.01233335,0.1063064,0.1382013,0,0,-0.2321235,0,0,-0.15,0
22655,25238247,0,1.36,0.34,18.01,-0.005888225,0.01056817,0.1078996,0.1460473,0,0,-0.2291678,0,0,-0.15,0
22695,25248184,0,1.36,0.32,18.03,-0.006974685,0.007682261,0.1085402,0.1521607,0,0,-0.2264868,0,0,-0.15,0
22736,25258938,0,1.36,0.31,18.04,-0.009333106000000001,0.004490301,0.1091945,0.1602907,0,0,-0.2237697,0,0,-0.15,0
22777,25269175,0,1.36,0.31,18.06,-0.0109279,0.0011198,0.109304,0.1694241,0,0,-0.2226788,0,0,-0.15,0
22824,25278949,0,1.36,0.31,18.07,-0.01111598,-0.002288456,0.1098061,0.1783931,0,0,-0.2201397,0,0,-0.15,0
22866,25288955,0,1.37,0.32,18.06,-0.01193841,-0.00550358,0.1106587,0.1865522,0,0,-0.2176661,0,0,-0.15,0
22907,25299072,0,1.36,0.34,18.05,-0.01092123,-0.006746182,0.1120094,0.1944943,0,0,-0.2152527,0,0,-0.15,0
22948,25309407,0,1.36,0.37,18.02,-0.01071378,-0.007015413,0.1139254,0.2025697,0,0,-0.212902,0,0,-0.15,0
22990,25322267,0,1.36,0.4,17.99,-0.009827433,-0.006981529,0.116243,0.2127973,0,0,-0.2095151,0,0,-0.14,0
23030,25332880,0,1.36,0.42,17.96,-0.007531045,-0.003431247,0.1182956,0.2220474,0,0,-0.2065564,0,0,-0.14,0
23070,25342727,0,1.36,0.43,17.94,-0.007221324,0.0001559743,0.1194096,0.2300837,0,0,-0.2036708,0,0,-0.14,0
23111,25353147,0,1.37,0.42,17.92,-0.005110059,0.003067977,0.12023,0.239723,0,0,-0.2023546,0,0,-0.14,0
23152,25362956,0,1.37,0.41,17.92,-0.002686733,0.006410914,0.1201885,0.2451532,0,0,-0.1995251,0,0,-0.14,0
23193,25373149,0,1.37,0.39,17.93,-0.001368984,0.009275405,0.1204236,0.2499733,0,0,-0.1967803,0,0,-0.14,0
23238,25383120,0,1.37,0.38,17.96,0.001472858,0.009507204,0.1201266,0.2531834,0,0,-0.1941146,0,0,-0.14,0
23279,25393135,0,1.37,0.36,17.98,0.004734877,0.007690148,0.1205661,0.255238,0,0,-0.1915223,0,0,-0.14,0
23320,25403691,0,1.36,0.35,18.01,0.007030557,0.006650686,0.1206869,0.2577565,0,0,-0.1903179,0,0,-0.14,0
23361,25413762,0,1.36,0.35,18.04,0.009755765,0.004740544,0.1230804,0.2605477,0,0,-0.1877745,0,0,-0.14,0
23399,25426401,0,1.36,0.36,18.08,0.0129075,-0.001106008,0.1250339,0.2605217,0,0,-0.1851856,0,0,-0.14,0
23440,25436331,0,1.35,0.36,18.1,0.01420491,-0.004528947,0.1272777,0.2597607,0,0,-0.1829999,0,0,-0.14,0
23482,25446906,0,1.35,0.36,18.12,0.01452002,-0.007506649,0.1292956,0.2577538,0,0,-0.1807238,0,0,-0.14,0
23523,25456913,0,1.36,0.36,18.12,0.01435451,-0.01094508,0.1304798,0.2530611,0,0,-0.1785992,0,0,-0.14,0
23567,25466901,0,1.35,0.34,18.11,0.01330933,-0.01345539,0.1307063,0.2481336,0,0,-0.1772947,0,0,-0.14,0
23608,25476883,0,1.35,0.32,18.1,0.01047066,-0.01319937,0.131263,0.2430103,0,0,-0.1752074,0,0,-0.14,0
23653,25486969,0,1.36,0.31,18.08,0.006162064,-0.01230067,0.131425,0.2369892,0,0,-0.1731621,0,0,-0.14,0
23693,25496914,0,1.36,0.29,18.05,0.001801061,-0.01012301,0.1315391,0.2309015,0,0,-0.1711611,0,0,-0.14,0
23739,25509282,0,1.36,0.29,18.01,-0.004744302,-0.004695722,0.1323394,0.2242567,0,0,-0.1689353,0,0,-0.14,0
23782,25524683,0,1.37,0.31,17.96,-0.01219696,0.005595277,0.1344983,0.2197831,0,0,-0.1653442,0,0,-0.14,0
23823,25534759,0,1.38,0.33,17.91,-0.01663465,0.01229045,0.1365549,0.21987,0,0,-0.162477,0,0,-0.13,0
23864,25544789,0,1.39,0.36,17.87,-0.01897549,0.02121296,0.138257,0.2214453,0,0,-0.1596696,0,0,-0.13,0
23904,25554769,0,1.39,0.4,17.83,-0.02137128,0.03079801,0.1390864,0.2249581,0,0,-0.1582847,0,0,-0.13,0
23946,25564824,0,1.39,0.43,17.8,-0.0215765,0.04019548,0.1409208,0.2288621,0,0,-0.1555183,0,0,-0.13,0
23986,25574842,0,1.4,0.45,17.78,-0.02029043,0.04908485,0.1417763,0.2318904,0,0,-0.1528173,0,0,-0.13,0
24031,25584785,0,1.4,0.46,17.77,-0.01970642,0.05612647,0.1425685,0.2340252,0,0,-0.1501718,0,0,-0.13,0
24072,25595319,0,1.39,0.45,17.78,-0.0169811,0.06256755,0.1426445,0.2354949,0,0,-0.148605,0,0,-0.13,0
24113,25605149,0,1.39,0.43,17.79,-0.01384008,0.06588913,0.1428073,0.2362012,0,0,-0.1460038,0,0,-0.13,0
24155,25615207,0,1.37,0.41,17.82,-0.01089068,0.06571415999999999,0.1431108,0.2363694,0,0,-0.1434643,0,0,-0.13,0
24192,25625131,0,1.36,0.38,17.85,-0.006929258,0.06245133,0.1433268,0.2355689,0,0,-0.1415574,0,0,-0.13,0
24233,25635174,0,1.35,0.35,17.89,-0.003401284,0.05682587,0.1433543,0.2323696,0,0,-0.1396842,0,0,-0.13,0
24273,25648126,0,1.32,0.33,17.93,0.0007031322,0.04642635,0.143712,0.2268828,0,0,-0.1374067,0,0,-0.13,0
24315,25658445,0,1.31,0.32,17.96,0.004507577,0.0366165,0.1446918,0.2226689,0,0,-0.1359684,0,0,-0.13,0
24358,25668954,0,1.29,0.32,17.98,0.007566619,0.02516345,0.1451916,0.217211,0,0,-0.134138,0,0,-0.13,0
24398,25678869,0,1.28,0.32,17.98,0.01139415,0.01124553,0.14684,0.2119621,0,0,-0.132179,0,0,-0.13,0
24445,25689651,0,1.26,0.33,17.97,0.01448583,-0.00201545,0.147913,0.2067687,0,0,-0.1303858,0,0,-0.13,0
24486,25699793,0,1.25,0.33,17.95,0.01688365,-0.01538625,0.1491305,0.201961,0,0,-0.1286115,0,0,-0.13,0
24528,25709798,0,1.25,0.33,17.91,0.0188081,-0.02770379,0.1503008,0.1972389,0,0,-0.1268557,0,0,-0.13,0
24569,25722746,0,1.25,0.31,17.86,0.01989901,-0.04154716,0.1510475,0.1911158,0,0,-0.124005,0,0,-0.13,0
