LineNo,TimeUS,DesRoll,Roll,DesPitch,Pitch,DesYaw,Yaw,ErrRP,ErrYaw,AEKF
185,12924383,0,1.45,0.01,-0.89,6.27,6.25,0,0.03,3
981,13119548,0,1.45,0.01,-0.89,6.39,6.37,0,0.02,3
1093,13167973,0,1.46,0.01,-0.89,6.41,6.39,0,0.02,3
1479,13334556,0,1.46,0.01,-0.89,6.47,6.45,0,0.02,3
1555,13345850,0,1.46,0.01,-0.89,6.48,6.46,0,0.02,3
1596,13355924,0,1.45,0.01,-0.89,6.49,6.47,0,0.02,3
1636,13366235,0,1.45,0.01,-0.89,6.49,6.48,0,0.02,3
1680,13377232,0,1.45,0.01,-0.89,6.5,6.48,0,0.02,3
1721,13387214,0,1.45,0.01,-0.89,6.51,6.49,0,0.02,3
1761,13397977,0,1.45,0.01,-0.89,6.53,6.51,0,0.02,3
1804,13408074,0,1.45,0.01,-0.89,6.54,6.52,0,0.02,3
1848,13418686,0,1.45,0.01,-0.89,6.55,6.53,0,0.02,3
1889,13429307,0,1.45,0.01,-0.89,6.56,6.55,0,0.02,3
1929,13439875,0,1.45,0.01,-0.9,6.58,6.56,0,0.02,3
1970,13449959,0,1.46,0.01,-0.9,6.59,6.57,0,0.02,3
2009,13460421,0,1.46,0.01,-0.9,6.6,6.59,0,0.02,3
2050,13470682,0,1.46,0.01,-0.9,6.62,6.6,0,0.02,3
2091,13480990,0,1.46,0.01,-0.9,6.64,6.62,0,0.02,3
2131,13491486,0,1.46,0.01,-0.9,6.65,6.64,0,0.02,3
2173,13501842,0,1.46,0.01,-0.89,6.67,6.65,0,0.02,3
2214,13511705,0,1.47,0.01,-0.89,6.68,6.66,0,0.02,3
2259,13521537,0,1.47,0.01,-0.89,6.7,6.68,0,0.02,3
2300,13532348,0,1.47,0.01,-0.89,6.71,6.69,0,0.02,3
2340,13542332,0,1.47,0.01,-0.89,6.72,6.7,0,0.02,3
2380,13552451,0,1.47,0.01,-0.89,6.73,6.71,0,0.02,3
2424,13565441,0,1.47,0.01,-0.89,6.75,6.73,0,0.02,3
2468,13577991,0,1.47,0.01,-0.89,6.76,6.75,0,0.02,3
2509,13588499,0,1.47,0.01,-0.89,6.78,6.76,0,0.02,3
2549,13598926,0,1.47,0.01,-0.89,6.79,6.77,0,0.02,3
2592,13609845,0,1.47,0.01,-0.89,6.8,6.78,0,0.02,3
2637,13620301,0,1.47,0.01,-0.89,6.81,6.79,0,0.02,3
2678,13630487,0,1.47,0.01,-0.89,6.82,6.8,0,0.02,3
2718,13640641,0,1.47,0.01,-0.89,6.83,6.81,0,0.02,3
2759,13651206,0,1.47,0.01,-0.89,6.84,6.82,0,0.02,3
2802,13667298,0,1.47,0.01,-0.89,6.85,6.83,0,0.02,3
2842,13677434,0,1.47,0.01,-0.89,6.87,6.85,0,0.02,3
2884,13687831,0,1.47,0.01,-0.89,6.88,6.86,0,0.02,3
2924,13697750,0,1.47,0.01,-0.89,6.89,6.88,0,0.02,3
2965,13708361,0,1.47,0.01,-0.89,6.9,6.89,0,0.02,3
3007,13718738,0,1.47,0.01,-0.9,6.92,6.9,0,0.02,3
3052,13729503,0,1.47,0.01,-0.9,6.93,6.91,0,0.02,3
3093,13739520,0,1.47,0.01,-0.9,6.94,6.92,0,0.02,3
3133,13749731,0,1.47,0.01,-0.9,6.95,6.93,0,0.02,3
3174,13760095,0,1.47,0.01,-0.9,6.95,6.94,0,0.02,3
3214,13773023,0,1.48,0.01,-0.9,6.97,6.95,0,0.02,3
3255,13783228,0,1.48,0.01,-0.9,6.98,6.97,0,0.02,3
3298,13793481,0,1.48,0.01,-0.9,7,6.98,0,0.02,3
3338,13803162,0,1.48,0.01,-0.9,7.01,7,0,0.02,3
3380,13813627,0,1.48,0.01,-0.89,7.03,7.01,0,0.02,3
3421,13823217,0,1.48,0.01,-0.89,7.04,7.02,0,0.02,3
3466,13833741,0,1.48,0.01,-0.89,7.06,7.04,0,0.01,3
3508,13843799,0,1.48,0.01,-0.89,7.07,7.05,0,0.01,3
3550,13853969,0,1.48,0.01,-0.89,7.08,7.06,0,0.01,3
3591,13863925,0,1.48,0.01,-0.89,7.09,7.08,0,0.01,3
3631,13876568,0,1.48,0.01,-0.89,7.11,7.09,0,0.01,3
3671,13886627,0,1.48,0.01,-0.89,7.12,7.1,0,0.01,3
3712,13896767,0,1.48,0.01,-0.89,7.13,7.12,0,0.01,3
3752,13906459,0,1.48,0.01,-0.89,7.14,7.13,0,0.01,3
3793,13916874,0,1.48,0.01,-0.89,7.16,7.14,0,0.01,3
3839,13927436,0,1.48,0.01,-0.89,7.17,7.15,0,0.01,3
3880,13937997,0,1.48,0.01,-0.89,7.17,7.16,0,0.01,3
3920,13948486,0,1.48,0.01,-0.89,7.18,7.17,0,0.01,3
3961,13958948,0,1.48,0.01,-0.89,7.19,7.18,0,0.01,3
4003,13969335,0,1.48,0.01,-0.89,7.2,7.19,0,0.01,3
4037,13980042,0,1.48,0.01,-0.89,7.22,7.2,0,0.01,3
4078,13990087,0,1.48,0.01,-0.89,7.23,7.21,0,0.01,3
4119,14000122,0,1.48,0.01,-0.89,7.24,7.22,0,0.01,3
4159,14010688,0,1.48,0.01,-0.89,7.25,7.24,0,0.01,3
4200,14020873,0,1.48,0.01,-0.89,7.27,7.25,0,0.01,3
4247,14031163,0,1.48,0.01,-0.89,7.28,7.26,0,0.01,3
4287,14041037,0,1.48,0.01,-0.89,7.29,7.27,0,0.01,3
4328,14051351,0,1.49,0.01,-0.89,7.3,7.28,0,0.01,3
4371,14061473,0,1.49,0.01,-0.89,7.31,7.29,0,0.01,3
4412,14071368,0,1.49,0.01,-0.89,7.32,7.3,0,0.01,3
4449,14082065,0,1.49,0.01,-0.89,7.33,7.31,0,0.01,3
4491,14092041,0,1.49,0.01,-0.89,7.34,7.32,0,0.01,3
4531,14101995,0,1.49,0.01,-0.89,7.35,7.33,0,0.01,3
4573,14112122,0,1.49,0.01,-0.89,7.36,7.34,0,0.01,3
4614,14122210,0,1.49,0.01,-0.89,7.37,7.35,0,0.01,3
4658,14132164,0,1.49,0.01,-0.89,7.38,7.36,0,0.01,3
4699,14142288,0,1.49,0.01,-0.89,7.39,7.37,0,0.01,3
4740,14152264,0,1.49,0.01,-0.89,7.4,7.38,0,0.01,3
4781,14162262,0,1.49,0.01,-0.89,7.41,7.39,0,0.01,3
4821,14174993,0,1.49,0.01,-0.89,7.42,7.41,0,0.01,3
4859,14185503,0,1.49,0.01,-0.89,7.43,7.42,0,0.01,3
4900,14195945,0,1.49,0.01,-0.89,7.44,7.43,0,0.01,3
4940,14206227,0,1.49,0.01,-0.89,7.45,7.44,0,0.01,3
4981,14216212,0,1.49,0.01,-0.89,7.46,7.44,0,0.01,3
5021,14226115,0,1.49,0.01,-0.89,7.47,7.45,0,0.01,3
5067,14236585,0,1.49,0.01,-0.89,7.48,7.46,0,0.01,3
5108,14246841,0,1.49,0.01,-0.89,7.48,7.47,0,0.01,3
5149,14257285,0,1.49,0.01,-0.89,7.49,7.47,0,0.01,3
5191,14266957,0,1.49,0.01,-0.89,7.5,7.48,0,0.01,3
5229,14277750,0,1.49,0.01,-0.89,7.5,7.49,0,0.01,3
5273,14288062,0,1.49,0.01,-0.89,7.51,7.49,0,0.01,3
5313,14298488,0,1.48,0.01,-0.89,7.52,7.5,0,0.01,3
5354,14309282,0,1.48,0.01,-0.89,7.53,7.52,0,0.01,3
5394,14319896,0,1.49,0.01,-0.89,7.54,7.53,0,0.01,3
5435,14330277,0,1.49,0.01,-0.89,7.55,7.53,0,0.01,3
5480,14340236,0,1.49,0.01,-0.89,7.56,7.54,0,0.01,3
5520,14350536,0,1.49,0.01,-0.89,7.57,7.55,0,0.01,3
5561,14361141,0,1.49,0.01,-0.89,7.58,7.56,0,0.01,3
5606,14374043,0,1.49,0.01,-0.89,7.59,7.57,0,0.01,3
5650,14389763,0,1.49,0.01,-0.89,7.6,7.58,0,0.01,3
5690,14400121,0,1.49,0.01,-0.89,7.61,7.59,0,0.01,3
5731,14410629,0,1.49,0.01,-0.89,7.62,7.6,0,0.01,3
5774,14421092,0,1.49,0.01,-0.89,7.63,7.61,0,0.01,3
5814,14431268,0,1.49,0.01,-0.88,7.63,7.62,0,0.01,3
5859,14441487,0,1.49,0.01,-0.88,7.64,7.62,0,0.01,3
5902,14451336,0,1.49,0.01,-0.88,7.65,7.63,0,0.01,3
5943,14461526,0,1.49,0.01,-0.88,7.66,7.64,0,0.01,3
5984,14471877,0,1.49,0.01,-0.88,7.67,7.65,0,0.01,3
6024,14481895,0,1.49,0.01,-0.88,7.68,7.66,0,0.01,3
6063,14491913,0,1.49,0.01,-0.88,7.69,7.67,0,0.01,3
6104,14502361,0,1.49,0.01,-0.88,7.7,7.68,0,0.01,3
6144,14512324,0,1.49,0.01,-0.89,7.72,7.7,0,0.01,3
6185,14522634,0,1.49,0.01,-0.89,7.73,7.71,0,0.01,3
6225,14532840,0,1.49,0.01,-0.89,7.74,7.72,0,0.01,3
6270,14542970,0,1.49,0.01,-0.89,7.75,7.73,0,0.01,3
6310,14552686,0,1.49,0.01,-0.89,7.76,7.74,0,0.01,3
6352,14563094,0,1.49,0.01,-0.89,7.77,7.75,0,0.01,3
6393,14572735,0,1.49,0.01,-0.89,7.78,7.76,0,0.01,3
6434,14585367,0,1.49,0.01,-0.89,7.79,7.78,0,0.01,3
6472,14595970,0,1.49,0.01,-0.88,7.8,7.79,0,0.01,3
6512,14606248,0,1.49,0.01,-0.88,7.81,7.79,0,0.01,3
6553,14616432,0,1.49,0.01,-0.88,7.82,7.8,0,0.01,3
6594,14626344,0,1.49,0.01,-0.88,7.83,7.81,0,0.01,3
6635,14636988,0,1.49,0.01,-0.88,7.84,7.82,0,0.01,3
6680,14647241,0,1.49,0.01,-0.88,7.85,7.83,0,0.01,3
6722,14657229,0,1.49,0.01,-0.88,7.86,7.84,0,0.01,3
6763,14666925,0,1.49,0.01,-0.88,7.86,7.85,0,0.01,3
6806,14677002,0,1.49,0.01,-0.88,7.87,7.85,0,0.01,3
6846,14689990,0,1.49,0.01,-0.88,7.88,7.86,0,0.01,3
6887,14700214,0,1.49,0.01,-0.88,7.89,7.87,0,0.01,3
6927,14710439,0,1.49,0.01,-0.88,7.9,7.88,0,0.01,3
6968,14720853,0,1.49,0.01,-0.88,7.9,7.88,0,0.01,3
7008,14730971,0,1.49,0.01,-0.88,7.91,7.89,0,0.01,3
7050,14741273,0,1.49,0.01,-0.88,7.92,7.9,0,0.01,3
7094,14751682,0,1.49,0.01,-0.88,7.92,7.9,0,0.01,3
7135,14761869,0,1.49,0.01,-0.88,7.93,7.91,0,0.01,3
7176,14772771,0,1.49,0.01,-0.89,7.94,7.92,0,0.01,3
7219,14783224,0,1.49,0.01,-0.89,7.94,7.92,0,0.01,3
7257,14796955,0,1.49,0.01,-0.88,7.95,7.94,0,0.01,3
7298,14807483,0,1.49,0.01,-0.88,7.96,7.94,0,0.01,3
7339,14817606,0,1.49,0.01,-0.88,7.97,7.95,0,0.01,3
7380,14827249,0,1.49,0.01,-0.88,7.98,7.96,0,0.01,3
7420,14837520,0,1.5,0.01,-0.88,7.98,7.97,0,0.01,3
7462,14847957,0,1.52,0.01,-0.89,7.99,7.97,0,0.01,3
7507,14857990,0,1.55,0.01,-0.88,7.98,7.96,0,0.01,3
7550,14868306,0,1.58,0.01,-0.89,7.97,7.95,0,0.01,3
7590,14878063,0,1.61,0.01,-0.89,7.95,7.93,0,0.01,3
7632,14888235,0,1.65,0.01,-0.9,7.95,7.93,0,0.01,3
7670,14898582,0,1.68,0.01,-0.91,7.94,7.92,0,0.01,3
7714,14911337,0,1.68,0.01,-0.9399999999999999,7.95,7.93,0,0.01,3
7755,14921847,0,1.67,0.01,-0.95,7.97,7.95,0,0.01,3
7795,14931838,0,1.65,0.01,-0.97,7.99,7.97,0,0.01,3
7836,14942095,0,1.63,0.01,-0.98,8.01,7.99,0,0.01,3
7885,14954516,0,1.6,0.01,-0.98,8.050000000000001,8.029999999999999,0,0.01,3
7925,14965228,0,1.57,0.01,-0.97,8.07,8.050000000000001,0,0.01,3
7966,14975740,0,1.55,0.01,-0.96,8.09,8.07,0,0.01,3
8006,14986114,0,1.53,0.01,-0.95,8.09,8.07,0,0.01,3
8048,14996247,0,1.52,0.01,-0.9399999999999999,8.09,8.07,0,0.01,3
8087,15006527,0,1.53,0.01,-0.92,8.1,8.08,0,0.01,3
8127,15016918,0,1.54,0.01,-0.9,8.1,8.08,0,0.01,3
8168,15027241,0,1.55,0.01,-0.89,8.1,8.08,0,0.01,3
8208,15037636,0,1.54,0.01,-0.88,8.1,8.08,0,0.01,3
8250,15048282,0,1.5,0.01,-0.86,8.109999999999999,8.09,0,0.01,3
8297,15058756,0,1.41,0.01,-0.83,8.140000000000001,8.130000000000001,0,0.01,3
8339,15068856,0,1.3,0.01,-0.8100000000000001,8.199999999999999,8.18,0,0.01,3
8380,15078561,0,1.17,0.01,-0.78,8.26,8.25,0,0.01,3
8420,15088880,0,1.02,0.01,-0.75,8.33,8.32,0,0.01,3
8459,15101864,0,0.8,0.01,-0.71,8.41,8.4,0,0.01,3
8501,15112430,0,0.64,0.01,-0.67,8.460000000000001,8.449999999999999,0,0.01,3
8541,15122727,0,0.48,0.01,-0.62,8.5,8.5,0,0.01,3
8583,15132327,0,0.29,0.01,-0.58,8.550000000000001,8.539999999999999,0,0.01,3
8623,15142238,0,0.07000000000000001,0.01,-0.53,8.6,8.6,0,0.01,3
8664,15152484,0,-0.15,0.01,-0.5,8.67,8.67,0,0.01,3
8708,15162841,0,-0.4,0.01,-0.47,8.74,8.75,0,0.02,3
8749,15172860,0,-0.67,0.01,-0.44,8.83,8.84,0,0.02,3
8789,15182752,0,-0.93,0.01,-0.42,8.92,8.93,0,0.02,3
8831,15192854,0,-1.19,0.01,-0.37,9.02,9.029999999999999,0,0.02,3
8870,15205944,0,-1.53,0.01,-0.32,9.16,9.18,0,0.02,3
8911,15216303,0,-1.81,0.01,-0.27,9.300000000000001,9.33,0,0.02,3
8952,15227058,0,-2.08,0.01,-0.2,9.49,9.51,0,0.02,3
8992,15237556,0,-2.33,0.01,-0.13,9.69,9.720000000000001,0,0.02,3
9033,15247915,0,-2.57,0.01,-0.05,9.93,9.960000000000001,0,0.02,3
9076,15257581,0,-2.8,0.01,0.04,10.19,10.22,0,0.02,3
9121,15267527,0,-3.02,0.01,0.15,10.49,10.53,0,0.02,3
9164,15277978,0,-3.22,0.01,0.28,10.82,10.86,0,0.02,3
9204,15288339,0,-3.47,0.01,0.43,11.23,11.28,0,0.02,3
9245,15298444,0,-3.7,0.01,0.59,11.64,11.68,0,0.02,3
9280,15309322,0,-3.93,0.01,0.8100000000000001,12.12,12.17,0,0.02,3
9322,15319286,0,-4.14,0.01,1.05,12.6,12.65,0,0.02,3
9363,15329880,0,-4.35,0.01,1.33,13.12,13.17,0,0.02,3
9405,15339990,0,-4.52,0.01,1.65,13.66,13.72,0,0.02,3
9445,15350298,0,-4.65,0.01,2,14.23,14.28,0,0.02,3
9486,15360892,0,-4.76,0.01,2.42,14.87,14.92,0,0.02,3
9530,15371029,0,-4.79,0.01,2.83,15.48,15.54,0,0.03,3
9571,15380938,0,-4.76,0.01,3.27,16.13,16.19,0,0.03,3
9611,15391201,0,-4.68,0.01,3.73,16.81,16.87,0,0.03,3
9652,15401047,0,-4.51,0.01,4.28,17.59,17.64,0,0.03,3
9689,15411509,0,-4.28,0.01,4.79,18.34,18.39,0,0.03,3
9729,15421894,0,-3.99,0.01,5.32,19.13,19.18,0,0.03,3
9770,15431535,0,-3.63,0.01,5.86,19.96,20.01,0,0.03,3
9811,15441507,0,-3.19,0.01,6.4,20.83,20.87,0,0.03,3
9852,15451513,0,-2.63,0.01,6.94,21.73,21.76,0,0.03,3
9895,15461595,0,-1.99,0.01,7.47,22.67,22.7,0.02,0.03,3
9940,15471983,0,-1.32,0.01,7.98,23.65,23.67,0.02,0.02,3
9982,15482283,0,-0.55,0.01,8.51,24.77,24.78,0.02,0.02,3
10022,15492250,0,0.14,0.01,8.960000000000001,25.81,25.81,0.02,0.02,3
10063,15502261,0,0.84,0.01,9.369999999999999,26.88,26.87,0.02,0.02,3
10103,15512975,0,1.55,0.01,9.76,28,27.98,0.02,0.02,3
10144,15523359,0,2.33,0.01,10.14,29.27,29.24,0.02,0.02,3
10181,15533872,0,3.04,0.01,10.46,30.46,30.43,0.02,0.02,3
10222,15543687,0,3.73,0.01,10.76,31.7,31.65,0.02,0.02,3
10264,15553579,0,4.41,0.01,11.04,32.97,32.92,0.02,0.02,3
10304,15564296,0,5.05,0.01,11.28,34.28,34.22,0.02,0.02,3
10349,15574577,0,5.75,0.01,11.51,35.76,35.69,0.02,0.02,3
10389,15584723,0,6.46,0.01,11.71,37.31,37.23,0.02,0.02,3
10430,15594732,0,7.12,0.01,11.88,38.76,38.67,0.02,0.02,3
10470,15604704,0,7.8,0.01,12.01,40.26,40.17,0.02,0.02,3
10504,15615433,0,8.539999999999999,0.01,12.13,41.97,41.86,0.02,0.02,3
10545,15625955,0,9.24,0.01,12.2,43.57,43.45,0.02,0.02,3
10586,15636630,0,9.960000000000001,0.01,12.23,45.19,45.07,0.02,0.02,3
10626,15647065,0,10.78,0.01,12.21,46.99,46.86,0.02,0.02,3
10667,15657416,0,11.56,0.01,12.14,48.63,48.49,0.02,0.02,3
10709,15667314,0,12.47,0.01,12.01,50.45,50.29,0.04,0.02,3
10756,15718686,0,17.11,0.01,10.81,58.71,58.5,0.04,0.03,3
10798,15728957,0,18.1,0.01,10.47,60.28,60.06,0.04,0.03,3
10838,15739063,0,19.09,0.01,10.11,61.82,61.59,0.04,0.03,3
10879,15749508,0,20.08,0.01,9.720000000000001,63.34,63.1,0.04,0.03,3
10920,15760231,0,21.15,0.01,9.27,64.97,64.72,0.04,0.03,3
10962,15770918,0,22.22,0.01,8.789999999999999,66.58,66.31999999999999,0.04,0.03,3
11007,15781243,0,23.22,0.01,8.35,68.02,67.73999999999999,0.04,0.05,3
11047,15791564,0,24.37,0.01,7.86,69.56,69.27,0.04,0.05,3
11088,15801729,0,25.44,0.01,7.41,70.93000000000001,70.63,0.04,0.05,3
11131,15812284,0,26.57,0.01,6.92,72.38,72.06999999999999,0.04,0.05,3
11172,15822773,0,27.57,0.01,6.48,73.66,73.34,0.04,0.05,3
11213,15832962,0,28.52,0.01,6.04,74.89,74.56,0.04,0.05,3
11253,15843206,0,29.47,0.01,5.62,76.08,75.73999999999999,0.04,0.05,3
11295,15853762,0,30.51,0.01,5.17,77.34999999999999,77,0.04,0.05,3
11335,15863702,0,31.48,0.01,4.76,78.48,78.12,0.04,0.05,3
11378,15873680,0,32.48,0.01,4.38,79.56999999999999,79.2,0.08,0.05,3
11423,15883568,0,33.52,0.01,4,80.63,80.25,0.08,0.06,3
11464,15894065,0,34.57,0.01,3.65,81.67,81.27,0.08,0.06,3
11505,15904560,0,35.72,0.01,3.27,82.77,82.37,0.08,0.06,3
11546,15914744,0,36.75,0.01,2.95,83.76000000000001,83.34,0.08,0.06,3
11584,15925514,0,37.89,0.01,2.62,84.81999999999999,84.40000000000001,0.08,0.06,3
11624,15935350,0,38.95,0.01,2.33,85.77,85.34,0.08,0.06,3
11665,15945943,0,40.03,0.01,2.06,86.70999999999999,86.27,0.08,0.06,3
11707,15956051,0,41.24,0.01,1.78,87.72,87.27,0.08,0.06,3
11747,15966494,0,42.37,0.01,1.54,88.63,88.16,0.08,0.06,3
11788,15976525,0,43.5,0.01,1.34,89.52,89.04000000000001,0.08,0.06,3
11832,15986333,0,44.6,0.01,1.16,90.38,89.89,0.08,0.1,3
11873,15996556,0,45.64,0.01,1.01,91.22,90.73,0.08,0.1,3
11915,16006800,0,46.63,0.01,0.89,92.05,91.54000000000001,0.08,0.1,3
11958,16019579,0,47.88,0.01,0.76,93.09999999999999,92.59,0.08,0.1,3
11999,16030451,0,48.94,0.01,0.68,93.98999999999999,93.47,0.08,0.1,3
12040,16040543,0,49.92,0.01,0.63,94.8,94.27,0.08,0.1,3
12083,16051221,0,50.93,0.01,0.6,95.62,95.09,0.08,0.1,3
12124,16061274,0,52.04,0.01,0.58,96.55,96,0.14,0.1,3
12165,16071269,0,53,0.01,0.58,97.41,96.84999999999999,0.14,0.1,3
12211,16081548,0,53.94,0.01,0.58,98.28,97.72,0.14,0.1,3
12253,16091539,0,54.91,0.01,0.58,99.18000000000001,98.61,0.14,0.16,3
12294,16102107,0,55.93,0.01,0.59,100.09,99.52,0.14,0.16,3
12338,16114728,0,57.22,0.01,0.6,101.29,100.71,0.14,0.16,3
12379,16125858,0,58.3,0.01,0.63,102.34,101.75,0.14,0.16,3
12420,16136259,0,59.29,0.01,0.66,103.31,102.71,0.14,0.16,3
12462,16146477,0,60.35,0.01,0.68,104.39,103.79,0.14,0.16,3
12503,16156971,0,61.28,0.01,0.71,105.41,104.8,0.14,0.16,3
12543,16166909,0,62.19,0.01,0.72,106.45,105.84,0.14,0.16,3
12584,16177353,0,63.09,0.01,0.73,107.51,106.9,0.14,0.16,3
12628,16187996,0,64.06999999999999,0.01,0.74,108.72,108.09,0.14,0.25,3
12670,16198264,0,65.01000000000001,0.01,0.73,109.95,109.32,0.14,0.25,3
12710,16207915,0,65.84999999999999,0.01,0.72,111.09,110.46,0.14,0.25,3
12751,16218104,0,66.69,0.01,0.71,112.26,111.62,0.14,0.25,3
12789,16228301,0,67.48,0.01,0.7,113.44,112.8,0.14,0.25,3
12830,16238749,0,68.23,0.01,0.68,114.64,113.99,0.14,0.25,3
12869,16249251,0,68.98999999999999,0.01,0.65,115.98,115.33,0.14,0.25,3
12911,16260126,0,69.63,0.01,0.61,117.22,116.57,0.14,0.25,3
12954,16270947,0,70.27,0.01,0.57,118.6,117.95,0.14,0.25,3
12994,16281206,0,70.8,0.01,0.52,119.87,119.21,0.14,0.25,3
13039,16291129,0,71.3,0.01,0.45,121.15,120.49,0.14,0.36,3
13080,16301451,0,71.79000000000001,0.01,0.35,122.57,121.92,0.14,0.36,3
13120,16311525,0,72.18000000000001,0.01,0.25,123.88,123.22,0.14,0.36,3
13161,16321221,0,72.54000000000001,0.01,0.13,125.2,124.54,0.14,0.36,3
13201,16331117,0,72.88,0.01,0,126.52,125.86,0.14,0.36,3
13241,16341917,0,73.20999999999999,0.01,-0.13,127.97,127.3,0.14,0.36,3
13282,16352549,0,73.47,0.01,-0.25,129.14,128.48,0.14,0.36,3
13322,16362716,0,73.77,0.01,-0.4,130.56,129.9,0.14,0.36,3
13363,16373041,0,74.02,0.01,-0.54,131.84,131.18,0.14,0.36,3
13404,16383349,0,74.28,0.01,-0.7,133.23,132.57,0.14,0.36,3
13449,16393364,0,74.5,0.01,-0.85,134.48,133.82,0.14,0.45,3
13489,16403560,0,74.73,0.01,-1,135.73,135.06,0.14,0.45,3
13530,16413843,0,74.95999999999999,0.01,-1.16,136.96,136.29,0.14,0.45,3
13570,16424119,0,75.19,0.01,-1.32,138.19,137.52,0.14,0.45,3
13612,16437491,0,75.48,0.01,-1.55,139.89,139.22,0.14,0.45,3
13655,16447492,0,75.69,0.01,-1.71,141.1,140.43,0.18,0.45,3
13696,16457360,0,75.92,0.01,-1.87,142.31,141.63,0.18,0.45,3
13737,16467966,0,76.14,0.01,-2.03,143.5,142.83,0.18,0.45,3
13777,16477935,0,76.34999999999999,0.01,-2.2,144.69,144.02,0.18,0.45,3
13818,16487871,0,76.56999999999999,0.01,-2.38,146,145.33,0.18,0.45,3
13863,16498300,0,76.75,0.01,-2.56,147.19,146.52,0.18,0.49,3
13905,16508801,0,76.92,0.01,-2.76,148.51,147.84,0.18,0.49,3
13946,16518954,0,77.06999999999999,0.01,-2.94,149.72,149.04,0.18,0.49,3
13986,16529125,0,77.20999999999999,0.01,-3.11,150.92,150.24,0.18,0.49,3
14027,16538995,0,77.36,0.01,-3.27,152.12,151.44,0.18,0.49,3
14067,16549256,0,77.53,0.01,-3.43,153.43,152.75,0.18,0.49,3
14108,16559355,0,77.68000000000001,0.01,-3.57,154.62,153.94,0.18,0.49,3
14151,16569909,0,77.81,0.01,-3.69,155.81,155.13,0.18,0.49,3
14191,16579860,0,77.94,0.01,-3.8,157,156.32,0.18,0.49,3
14232,16590164,0,78.08,0.01,-3.9,158.19,157.51,0.18,0.49,3
14276,16600519,0,78.23,0.01,-4,159.5,158.82,0.18,0.44,3
14317,16610862,0,78.36,0.01,-4.07,160.69,160.01,0.18,0.44,3
14357,16620760,0,78.51000000000001,0.01,-4.13,161.88,161.2,0.18,0.44,3
14399,16630569,0,78.65000000000001,0.01,-4.17,163.06,162.37,0.18,0.44,3
14436,16640563,0,78.76000000000001,0.01,-4.19,164.24,163.56,0.18,0.44,3
14481,16653425,0,78.89,0.01,-4.19,165.77,165.09,0.2,0.44,3
14522,16664258,0,79.01000000000001,0.01,-4.19,166.95,166.27,0.2,0.44,3
14563,16674576,0,79.12,0.01,-4.17,168.26,167.58,0.2,0.44,3
14605,16684306,0,79.2,0.01,-4.13,169.46,168.78,0.2,0.44,3
14646,16694279,0,79.29000000000001,0.01,-4.08,170.66,169.98,0.2,0.44,3
14690,16704342,0,79.34999999999999,0.01,-3.99,171.87,171.18,0.2,0.35,3
14731,16714915,0,79.36,0.01,-3.88,173.07,172.39,0.2,0.35,3
14771,16724972,0,79.33,0.01,-3.75,174.29,173.61,0.2,0.35,3
14812,16737717,0,79.20999999999999,0.01,-3.55,175.88,175.2,0.2,0.35,3
14849,16747957,0,79.06,0.01,-3.37,177.25,176.57,0.2,0.35,3
14890,16758285,0,78.88,0.01,-3.19,178.51,177.83,0.2,0.35,3
14933,16768261,0,78.69,0.01,-2.99,179.77,179.09,0.2,0.35,3
14975,16778330,0,78.48,0.01,-2.78,181.05,180.38,0.2,0.35,3
15016,16788725,0,78.27,0.01,-2.56,182.33,181.66,0.2,0.35,3
15060,16799543,0,78.06,0.01,-2.31,183.62,182.95,0.2,0.35,3
15101,16809845,0,77.81999999999999,0.01,-2.02,185.04,184.37,0.2,0.34,3
15143,16820272,0,77.59999999999999,0.01,-1.74,186.33,185.66,0.2,0.34,3
15186,16832953,0,77.31999999999999,0.01,-1.34,188.14,187.48,0.2,0.34,3
15224,16843722,0,77.15000000000001,0.01,-1.04,189.43,188.76,0.2,0.34,3
15269,16854262,0,77,0.01,-0.72,190.7,190.04,0.2,0.34,3
15310,16864555,0,76.86,0.01,-0.36,192.09,191.43,0.2,0.34,3
15351,16874286,0,76.76000000000001,0.01,-0.03,193.34,192.68,0.2,0.34,3
15391,16884336,0,76.69,0.01,0.29,194.58,193.92,0.2,0.34,3
15433,16894710,0,76.65000000000001,0.01,0.63,195.8,195.14,0.2,0.34,3
15478,16904736,0,76.64,0.01,0.96,197.02,196.35,0.2,0.33,3
15519,16915253,0,76.68000000000001,0.01,1.29,198.22,197.55,0.2,0.33,3
15559,16925541,0,76.77,0.01,1.65,199.52,198.85,0.2,0.33,3
15600,16936139,0,76.89,0.01,1.96,200.68,200.01,0.2,0.33,3
15641,16946361,0,77.05,0.01,2.3,201.93,201.27,0.2,0.33,3
15678,16956949,0,77.22,0.01,2.59,203.06,202.39,0.2,0.33,3
15721,16966458,0,77.39,0.01,2.86,204.16,203.49,0.2,0.33,3
15763,16977333,0,77.56,0.01,3.11,205.24,204.57,0.2,0.33,3
15804,16987966,0,77.76000000000001,0.01,3.36,206.41,205.74,0.2,0.33,3
15845,16997988,0,77.94,0.01,3.58,207.44,206.77,0.2,0.33,3
15889,17008329,0,78.09999999999999,0.01,3.79,208.43,207.76,0.2,0.33,3
15930,17018754,0,78.29000000000001,0.01,4,209.48,208.81,0.2,0.33,3
15970,17028962,0,78.45999999999999,0.01,4.2,210.49,209.82,0.2,0.33,3
16012,17039028,0,78.59999999999999,0.01,4.37,211.36,210.69,0.2,0.33,3
16047,17049964,0,78.72,0.01,4.53,212.19,211.52,0.2,0.33,3
16092,17062530,0,78.89,0.01,4.71,213.21,212.54,0.17,0.33,3
16133,17072705,0,79.01000000000001,0.01,4.83,213.95,213.27,0.17,0.33,3
16173,17082338,0,79.14,0.01,4.93,214.65,213.98,0.17,0.33,3
16214,17092771,0,79.28,0.01,5,215.31,214.64,0.17,0.33,3
16254,17102918,0,79.43000000000001,0.01,5.05,215.94,215.26,0.17,0.33,3
16302,17112988,0,79.58,0.01,5.07,216.53,215.86,0.17,0.34,3
16343,17123215,0,79.72,0.01,5.06,217.09,216.42,0.17,0.34,3
16385,17133296,0,79.87,0.01,5.01,217.61,216.94,0.17,0.34,3
16426,17143762,0,80.03,0.01,4.92,218.15,217.47,0.17,0.34,3
16463,17153768,0,80.15000000000001,0.01,4.8,218.59,217.91,0.17,0.34,3
16507,17166450,0,80.31,0.01,4.59,219.1,218.43,0.17,0.34,3
16547,17176469,0,80.43000000000001,0.01,4.39,219.45,218.78,0.17,0.34,3
16586,17186972,0,80.58,0.01,4.15,219.76,219.09,0.17,0.34,3
16627,17197010,0,80.73,0.01,3.87,220.05,219.37,0.17,0.34,3
16668,17207136,0,80.88,0.01,3.55,220.3,219.62,0.17,0.34,3
16713,17217111,0,81.03,0.01,3.19,220.52,219.84,0.17,0.34,3
16754,17227490,0,81.2,0.01,2.78,220.72,220.04,0.17,0.34,3
16795,17237903,0,81.41,0.01,2.27,220.93,220.25,0.17,0.34,3
16837,17247734,0,81.62,0.01,1.75,221.09,220.42,0.17,0.34,3
16875,17257926,0,81.86,0.01,1.19,221.24,220.57,0.17,0.34,3
16918,17267903,0,82.12,0.01,0.59,221.37,220.7,0.17,0.34,3
16955,17278095,0,82.40000000000001,0.01,-0.04,221.49,220.82,0.17,0.34,3
16996,17288433,0,82.69,0.01,-0.7,221.6,220.92,0.17,0.34,3
17037,17299121,0,83.02,0.01,-1.44,221.69,221.02,0.17,0.34,3
17079,17309315,0,83.36,0.01,-2.17,221.76,221.08,0.17,0.34,3
17124,17319495,0,83.69,0.01,-2.8,221.8,221.12,0.17,0.34,3
17164,17329527,0,84.03,0.01,-3.41,221.81,221.13,0.17,0.34,3
17205,17339573,0,84.37,0.01,-3.98,221.81,221.13,0.17,0.34,3
17242,17349989,0,84.70999999999999,0.01,-4.52,221.8,221.12,0.17,0.34,3
17283,17360483,0,85.06999999999999,0.01,-5.06,221.77,221.09,0.17,0.34,3
17321,17370824,0,85.39,0.01,-5.52,221.74,221.06,0.17,0.34,3
17361,17380680,0,85.7,0.01,-5.94,221.71,221.02,0.17,0.34,3
17403,17390969,0,85.98999999999999,0.01,-6.33,221.68,221,0.17,0.34,3
17443,17400961,0,86.31,0.01,-6.76,221.67,220.99,0.17,0.34,3
17484,17411451,0,86.53,0.01,-7.06,221.68,220.99,0.17,0.34,3
17530,17421842,0,86.8,0.01,-7.42,221.71,221.02,0.17,0.35,3
17571,17431868,0,87,0.01,-7.72,221.77,221.08,0.17,0.35,3
17612,17442052,0,87.17,0.01,-8.02,221.85,221.16,0.17,0.35,3
17654,17454721,0,87.33,0.01,-8.390000000000001,221.97,221.28,0.17,0.35,3
17692,17464731,0,87.43000000000001,0.01,-8.68,222.09,221.4,0.17,0.35,3
17732,17475322,0,87.51000000000001,0.01,-8.949999999999999,222.24,221.55,0.17,0.35,3
17773,17485752,0,87.59,0.01,-9.26,222.42,221.73,0.17,0.35,3
17814,17495765,0,87.62,0.01,-9.52,222.61,221.91,0.17,0.35,3
17854,17506084,0,87.64,0.01,-9.77,222.8,222.11,0.17,0.35,3
17902,17518343,0,87.63,0.01,-10.08,223.08,222.39,0.17,0.35,3
17944,17528895,0,87.59999999999999,0.01,-10.29,223.33,222.63,0.17,0.35,3
17985,17539293,0,87.52,0.01,-10.5,223.61,222.91,0.17,0.35,3
18033,17554554,0,87.39,0.01,-10.73,224,223.31,0.17,0.35,3
18074,17565444,0,87.31,0.01,-10.85,224.27,223.58,0.17,0.35,3
18115,17575839,0,87.23,0.01,-10.93,224.58,223.88,0.17,0.35,3
18156,17585956,0,87.17,0.01,-10.96,224.87,224.17,0.17,0.35,3
18196,17596011,0,87.13,0.01,-10.96,225.18,224.48,0.17,0.35,3
18237,17606340,0,87.11,0.01,-10.92,225.5,224.8,0.17,0.35,3
18278,17616558,0,87.08,0.01,-10.84,225.86,225.17,0.17,0.35,3
18323,17626449,0,87.06,0.01,-10.73,226.2,225.51,0.17,0.35,3
18364,17636981,0,87.06,0.01,-10.58,226.55,225.86,0.17,0.35,3
18405,17647282,0,87.08,0.01,-10.38,226.96,226.27,0.17,0.35,3
18446,17657730,0,87.09999999999999,0.01,-10.16,227.35,226.66,0.17,0.35,3
18485,17668127,0,87.14,0.01,-9.9,227.8,227.1,0.18,0.35,3
18525,17678349,0,87.18000000000001,0.01,-9.65,228.22,227.53,0.18,0.35,3
18566,17689392,0,87.23999999999999,0.01,-9.42,228.67,227.97,0.18,0.35,3
18608,17699694,0,87.33,0.01,-9.18,229.2,228.5,0.18,0.35,3
18648,17709875,0,87.43000000000001,0.01,-8.99,229.7,229.01,0.18,0.35,3
18689,17719929,0,87.54000000000001,0.01,-8.82,230.25,229.56,0.18,0.35,3
18733,17730234,0,87.66,0.01,-8.69,230.82,230.13,0.18,0.35,3
18775,17740862,0,87.83,0.01,-8.59,231.47,230.78,0.18,0.35,3
18816,17750768,0,88,0.01,-8.529999999999999,232.09,231.4,0.18,0.35,3
18859,17760938,0,88.18000000000001,0.01,-8.51,232.73,232.03,0.18,0.35,3
18894,17771423,0,88.39,0.01,-8.529999999999999,233.44,232.75,0.18,0.35,3
18934,17781547,0,88.59999999999999,0.01,-8.57,234.11,233.42,0.18,0.35,3
18975,17791983,0,88.81,0.01,-8.630000000000001,234.77,234.08,0.18,0.35,3
19015,17802291,0,89.02,0.01,-8.710000000000001,235.51,234.81,0.18,0.35,3
19057,17812472,0,89.2,0.01,-8.800000000000001,236.16,235.47,0.18,0.35,3
19097,17822531,0,89.38,0.01,-8.890000000000001,236.82,236.13,0.18,0.35,3
19142,17832469,0,89.53,0.01,-8.98,237.46,236.77,0.18,0.32,3
19184,17842666,0,89.65000000000001,0.01,-9.07,238.1,237.4,0.18,0.32,3
19227,17853429,0,89.75,0.01,-9.15,238.72,238.03,0.18,0.32,3
19272,17869276,0,89.88,0.01,-9.27,239.74,239.04,0.17,0.32,3
19312,17879987,0,89.92,0.01,-9.32,240.31,239.62,0.17,0.32,3
19354,17890341,0,89.91,0.01,-9.380000000000001,240.94,240.24,0.17,0.32,3
19395,17900540,0,89.86,0.01,-9.42,241.49,240.79,0.17,0.32,3
19435,17910896,0,89.77,0.01,-9.449999999999999,242.03,241.33,0.17,0.32,3
19477,17921130,0,89.64,0.01,-9.460000000000001,242.55,241.86,0.17,0.32,3
19521,17931133,0,89.45,0.01,-9.460000000000001,243.06,242.36,0.17,0.29,3
19562,17941057,0,89.22,0.01,-9.42,243.55,242.85,0.17,0.29,3
19604,17950958,0,88.95999999999999,0.01,-9.359999999999999,244.01,243.32,0.17,0.29,3
19648,17963546,0,88.55,0.01,-9.24,244.6,243.91,0.17,0.29,3
19689,17973580,0,88.19,0.01,-9.140000000000001,245.03,244.34,0.17,0.29,3
19729,17983992,0,87.8,0.01,-9.02,245.45,244.76,0.17,0.29,3
19770,17994481,0,87.36,0.01,-8.890000000000001,245.91,245.21,0.17,0.29,3
19811,18004551,0,86.93000000000001,0.01,-8.77,246.31,245.62,0.17,0.29,3
19852,18014909,0,86.48999999999999,0.01,-8.66,246.72,246.03,0.17,0.29,3
19893,18025283,0,86.04000000000001,0.01,-8.550000000000001,247.13,246.44,0.17,0.29,3
19937,18035842,0,85.54000000000001,0.01,-8.449999999999999,247.58,246.89,0.17,0.27,3
19980,18045913,0,85.09,0.01,-8.369999999999999,248,247.31,0.15,0.27,3
20020,18055906,0,84.66,0.01,-8.31,248.42,247.73,0.15,0.27,3
20061,18065926,0,84.25,0.01,-8.279999999999999,248.85,248.16,0.15,0.27,3
20101,18078950,0,83.73999999999999,0.01,-8.27,249.46,248.77,0.15,0.27,3
20141,18089290,0,83.42,0.01,-8.279999999999999,249.89,249.21,0.15,0.27,3
20183,18099480,0,83.12,0.01,-8.31,250.34,249.65,0.15,0.27,3
20224,18109917,0,82.81999999999999,0.01,-8.359999999999999,250.78,250.1,0.15,0.27,3
20265,18120496,0,82.55,0.01,-8.42,251.22,250.53,0.15,0.27,3
20306,18131097,0,82.31999999999999,0.01,-8.48,251.7,251.01,0.15,0.27,3
20352,18141520,0,82.08,0.01,-8.550000000000001,252.16,251.48,0.15,0.25,3
20393,18151740,0,81.88,0.01,-8.619999999999999,252.57,251.89,0.15,0.25,3
20433,18161865,0,81.7,0.01,-8.68,252.98,252.29,0.15,0.25,3
20474,18171564,0,81.56,0.01,-8.74,253.35,252.67,0.15,0.25,3
20518,18184550,0,81.39,0.01,-8.81,253.82,253.14,0.15,0.25,3
20559,18195254,0,81.28,0.01,-8.84,254.15,253.47,0.15,0.25,3
20601,18205611,0,81.18000000000001,0.01,-8.859999999999999,254.49,253.81,0.15,0.25,3
20641,18215639,0,81.06999999999999,0.01,-8.85,254.78,254.1,0.15,0.25,3
20682,18225750,0,80.95999999999999,0.01,-8.81,255.05,254.37,0.15,0.25,3
20726,18236122,0,80.84999999999999,0.01,-8.76,255.3,254.62,0.15,0.25,3
20769,18246897,0,80.75,0.01,-8.66,255.56,254.88,0.13,0.24,3
20812,18257097,0,80.67,0.01,-8.550000000000001,255.76,255.08,0.13,0.24,3
20852,18267361,0,80.59,0.01,-8.4,255.95,255.27,0.13,0.24,3
20894,18277871,0,80.45,0.01,-8.220000000000001,256.15,255.47,0.13,0.24,3
20934,18288081,0,80.3,0.01,-8.02,256.32,255.64,0.13,0.24,3
20972,18298569,0,80.18000000000001,0.01,-7.82,256.47,255.79,0.13,0.24,3
21014,18309078,0,80.03,0.01,-7.62,256.61,255.93,0.13,0.24,3
21054,18319884,0,79.84999999999999,0.01,-7.41,256.77,256.09,0.13,0.24,3
21096,18330071,0,79.73,0.01,-7.24,256.92,256.24,0.13,0.24,3
21140,18340839,0,79.56999999999999,0.01,-7.1,257.06,256.38,0.13,0.24,3
21181,18350842,0,79.34999999999999,0.01,-6.98,257.23,256.55,0.13,0.23,3
21221,18361003,0,79.17,0.01,-6.9,257.39,256.72,0.13,0.23,3
21262,18370928,0,79,0.01,-6.86,257.56,256.88,0.13,0.23,3
21304,18383753,0,78.77,0.01,-6.85,257.77,257.09,0.13,0.23,3
21345,18394233,0,78.58,0.01,-6.87,257.93,257.25,0.13,0.23,3
21386,18404489,0,78.45999999999999,0.01,-6.92,258.06,257.39,0.13,0.23,3
21426,18414597,0,78.33,0.01,-6.97,258.19,257.52,0.13,0.23,3
21466,18424574,0,78.20999999999999,0.01,-7.05,258.3,257.63,0.13,0.23,3
21506,18434923,0,78.11,0.01,-7.13,258.39,257.72,0.13,0.23,3
21551,18445212,0,78.02,0.01,-7.23,258.46,257.79,0.13,0.22,3
21595,18455326,0,77.93000000000001,0.01,-7.34,258.52,257.85,0.11,0.22,3
21635,18465769,0,77.84999999999999,0.01,-7.43,258.55,257.88,0.11,0.22,3
21676,18475765,0,77.78,0.01,-7.54,258.57,257.89,0.11,0.22,3
21719,18488970,0,77.65000000000001,0.01,-7.68,258.56,257.88,0.11,0.22,3
21762,18500104,0,77.55,0.01,-7.78,258.52,257.85,0.11,0.22,3
21803,18510715,0,77.44,0.01,-7.89,258.45,257.78,0.11,0.22,3
21843,18520877,0,77.31999999999999,0.01,-7.99,258.38,257.71,0.11,0.22,3
21884,18530866,0,77.17,0.01,-8.09,258.3,257.63,0.11,0.22,3
21924,18540847,0,77.02,0.01,-8.199999999999999,258.22,257.54,0.11,0.22,3
21970,18551068,0,76.86,0.01,-8.33,258.13,257.46,0.11,0.22,3
22010,18561550,0,76.70999999999999,0.01,-8.470000000000001,258.05,257.38,0.11,0.22,3
22051,18571549,0,76.54000000000001,0.01,-8.66,257.96,257.29,0.11,0.22,3
22093,18581359,0,76.39,0.01,-8.84,257.88,257.21,0.11,0.22,3
22130,18592079,0,76.26000000000001,0.01,-9.050000000000001,257.81,257.14,0.11,0.22,3
22173,18604958,0,76.08,0.01,-9.33,257.73,257.06,0.11,0.22,3
22213,18615322,0,75.93000000000001,0.01,-9.57,257.68,257.01,0.11,0.22,3
22254,18625761,0,75.8,0.01,-9.85,257.63,256.96,0.11,0.22,3
22295,18635967,0,75.7,0.01,-10.11,257.6,256.93,0.11,0.22,3
22335,18646293,0,75.56999999999999,0.01,-10.37,257.57,256.89,0.11,0.22,3
22385,18659247,0,75.45,0.01,-10.7,257.51,256.84,0.09,0.2,3
22426,18669946,0,75.38,0.01,-10.92,257.46,256.79,0.09,0.2,3
22467,18680337,0,75.26000000000001,0.01,-11.13,257.42,256.74,0.09,0.2,3
22508,18690906,0,75.15000000000001,0.01,-11.3,257.36,256.69,0.09,0.2,3
22545,18701233,0,75.08,0.01,-11.46,257.29,256.62,0.09,0.2,3
22586,18711305,0,75.04000000000001,0.01,-11.58,257.23,256.55,0.09,0.2,3
22627,18721764,0,75.02,0.01,-11.67,257.17,256.49,0.09,0.2,3
22667,18732226,0,75.04000000000001,0.01,-11.73,257.11,256.44,0.09,0.2,3
22708,18742533,0,75.11,0.01,-11.76,257.06,256.38,0.09,0.2,3
22754,18752918,0,75.18000000000001,0.01,-11.75,257.01,256.33,0.09,0.2,3
22795,18763109,0,75.25,0.01,-11.71,256.97,256.29,0.09,0.19,3
22835,18773241,0,75.37,0.01,-11.67,256.94,256.26,0.09,0.19,3
22877,18783524,0,75.53,0.01,-11.62,256.95,256.27,0.09,0.19,3
22917,18793894,0,75.73999999999999,0.01,-11.55,256.99,256.32,0.09,0.19,3
22955,18804366,0,75.98,0.01,-11.48,257.06,256.38,0.09,0.19,3
22994,18814741,0,76.20999999999999,0.01,-11.41,257.14,256.47,0.09,0.19,3
23034,18825235,0,76.47,0.01,-11.34,257.27,256.59,0.09,0.19,3
23075,18835241,0,76.76000000000001,0.01,-11.28,257.42,256.74,0.09,0.19,3
23118,18845564,0,76.98999999999999,0.01,-11.24,257.58,256.9,0.09,0.19,3
23165,18856140,0,77.2,0.01,-11.2,257.77,257.09,0.1,0.19,3
23205,18866918,0,77.43000000000001,0.01,-11.17,257.99,257.31,0.1,0.18,3
23246,18877283,0,77.63,0.01,-11.17,258.21,257.53,0.1,0.18,3
23287,18887232,0,77.84,0.01,-11.18,258.47,257.79,0.1,0.18,3
23327,18897516,0,78.03,0.01,-11.2,258.71,258.03,0.1,0.18,3
23368,18910239,0,78.25,0.01,-11.26,259.03,258.35,0.1,0.18,3
23408,18920572,0,78.37,0.01,-11.31,259.26,258.58,0.1,0.18,3
23449,18930392,0,78.45,0.01,-11.36,259.49,258.81,0.1,0.18,3
23489,18940892,0,78.5,0.01,-11.41,259.71,259.02,0.1,0.18,3
23530,18951073,0,78.52,0.01,-11.47,259.92,259.23,0.1,0.18,3
23576,18961006,0,78.51000000000001,0.01,-11.52,260.12,259.43,0.1,0.16,3
23616,18971134,0,78.48,0.01,-11.56,260.3,259.62,0.1,0.16,3
23657,18981060,0,78.41,0.01,-11.59,260.47,259.78,0.1,0.16,3
23697,18991308,0,78.31999999999999,0.01,-11.59,260.62,259.93,0.1,0.16,3
23738,19001316,0,78.19,0.01,-11.56,260.76,260.08,0.1,0.16,3
23775,19011535,0,78.08,0.01,-11.51,260.87,260.19,0.1,0.16,3
23816,19021759,0,77.98,0.01,-11.42,260.97,260.28,0.1,0.16,3
23857,19032275,0,77.88,0.01,-11.3,261.06,260.37,0.1,0.16,3
23898,19042853,0,77.8,0.01,-11.14,261.14,260.46,0.1,0.16,3
23942,19053443,0,77.73999999999999,0.01,-10.96,261.22,260.54,0.1,0.16,3
23986,19063904,0,77.68000000000001,0.01,-10.73,261.29,260.61,0.08,0.16,3
24027,19073767,0,77.64,0.01,-10.49,261.36,260.68,0.08,0.16,3
24068,19083758,0,77.59999999999999,0.01,-10.24,261.43,260.75,0.08,0.16,3
24108,19093915,0,77.58,0.01,-9.98,261.51,260.84,0.08,0.16,3
24147,19106502,0,77.55,0.01,-9.66,261.63,260.95,0.08,0.16,3
24187,19116351,0,77.55,0.01,-9.42,261.73,261.05,0.08,0.16,3
24228,19126553,0,77.56999999999999,0.01,-9.19,261.84,261.16,0.08,0.16,3
24269,19136480,0,77.61,0.01,-8.98,261.96,261.28,0.08,0.16,3
24311,19146773,0,77.67,0.01,-8.779999999999999,262.09,261.42,0.08,0.16,3
24352,19156959,0,77.75,0.01,-8.609999999999999,262.24,261.56,0.08,0.16,3
24398,19167375,0,77.87,0.01,-8.43,262.4,261.72,0.08,0.15,3
24440,19177557,0,78,0.01,-8.279999999999999,262.55,261.87,0.08,0.15,3
24480,19187264,0,78.15000000000001,0.01,-8.140000000000001,262.69,262.01,0.08,0.15,3
24521,19197446,0,78.31999999999999,0.01,-8.01,262.82,262.15,0.08,0.15,3
24558,19208455,0,78.52,0.01,-7.87,262.96,262.29,0.08,0.15,3
24599,19219334,0,78.70999999999999,0.01,-7.73,263.07,262.39,0.08,0.15,3
24640,19229900,0,78.93000000000001,0.01,-7.57,263.18,262.5,0.08,0.15,3
24680,19240650,0,79.09,0.01,-7.42,263.25,262.57,0.08,0.15,3
24725,19251029,0,79.23,0.01,-7.25,263.3,262.63,0.08,0.15,3
24767,19261431,0,79.34,0.01,-7.08,263.34,262.67,0.07000000000000001,0.15,3
24812,19271890,0,79.43000000000001,0.01,-6.9,263.36,262.69,0.07000000000000001,0.14,3
24852,19282507,0,79.52,0.01,-6.72,263.37,262.7,0.07000000000000001,0.14,3
24893,19292474,0,79.59999999999999,0.01,-6.51,263.37,262.69,0.07000000000000001,0.14,3
24932,19302444,0,79.67,0.01,-6.31,263.35,262.68,0.07000000000000001,0.14,3
24969,19313075,0,79.73999999999999,0.01,-6.09,263.32,262.65,0.07000000000000001,0.14,3
25010,19323360,0,79.78,0.01,-5.88,263.29,262.61,0.07000000000000001,0.14,3
25050,19333479,0,79.81999999999999,0.01,-5.69,263.25,262.58,0.07000000000000001,0.14,3
25091,19343448,0,79.84999999999999,0.01,-5.51,263.22,262.54,0.07000000000000001,0.14,3
25134,19353869,0,79.88,0.01,-5.34,263.18,262.5,0.07000000000000001,0.14,3
25174,19364102,0,79.90000000000001,0.01,-5.19,263.13,262.46,0.07000000000000001,0.14,3
25219,19374570,0,79.93000000000001,0.01,-5.04,263.08,262.41,0.07000000000000001,0.14,3
25259,19384956,0,79.95999999999999,0.01,-4.92,263.03,262.36,0.07000000000000001,0.14,3
25301,19394920,0,79.98999999999999,0.01,-4.81,262.97,262.3,0.07000000000000001,0.14,3
25341,19404946,0,80.03,0.01,-4.72,262.91,262.23,0.07000000000000001,0.14,3
25385,19417897,0,80.09,0.01,-4.62,262.81,262.13,0.07000000000000001,0.14,3
25426,19428470,0,80.13,0.01,-4.56,262.71,262.04,0.07000000000000001,0.14,3
25466,19439241,0,80.18000000000001,0.01,-4.5,262.59,261.92,0.07000000000000001,0.14,3
25509,19449895,0,80.23,0.01,-4.45,262.46,261.78,0.07000000000000001,0.14,3
25550,19460213,0,80.28,0.01,-4.4,262.32,261.64,0.07000000000000001,0.14,3
25591,19470139,0,80.31999999999999,0.01,-4.36,262.16,261.48,0.07000000000000001,0.14,3
25635,19480305,0,80.34999999999999,0.01,-4.32,261.99,261.31,0.07000000000000001,0.13,3
25677,19490494,0,80.34999999999999,0.01,-4.27,261.78,261.1,0.07000000000000001,0.13,3
25717,19500405,0,80.31999999999999,0.01,-4.22,261.57,260.9,0.07000000000000001,0.13,3
25757,19513137,0,80.25,0.01,-4.18,261.28,260.61,0.07000000000000001,0.13,3
25795,19523876,0,80.18000000000001,0.01,-4.15,261.05,260.38,0.07000000000000001,0.13,3
25837,19534231,0,80.09999999999999,0.01,-4.13,260.81,260.14,0.07000000000000001,0.13,3
25877,19544707,0,80,0.01,-4.14,260.55,259.87,0.07000000000000001,0.13,3
25918,19554719,0,79.90000000000001,0.01,-4.16,260.31,259.64,0.07000000000000001,0.13,3
25959,19565023,0,79.78,0.01,-4.21,260.08,259.41,0.07000000000000001,0.13,3
26004,19575002,0,79.65000000000001,0.01,-4.29,259.86,259.18,0.07000000000000001,0.13,3
26045,19585277,0,79.48999999999999,0.01,-4.39,259.65,258.97,0.07000000000000001,0.12,3
26086,19595575,0,79.31,0.01,-4.54,259.43,258.76,0.07000000000000001,0.12,3
26127,19606108,0,79.13,0.01,-4.71,259.24,258.57,0.07000000000000001,0.12,3
26167,19616266,0,78.94,0.01,-4.92,259.04,258.37,0.07000000000000001,0.12,3
26209,19627214,0,78.75,0.01,-5.15,258.84,258.17,0.07000000000000001,0.12,3
26249,19637359,0,78.59999999999999,0.01,-5.39,258.67,258,0.07000000000000001,0.12,3
26290,19647749,0,78.47,0.01,-5.65,258.5,257.83,0.07000000000000001,0.12,3
26333,19658267,0,78.34,0.01,-5.92,258.32,257.65,0.05,0.12,3
26373,19668423,0,78.2,0.01,-6.24,258.13,257.46,0.05,0.12,3
26420,19679058,0,78.09,0.01,-6.54,257.94,257.27,0.05,0.12,3
26460,19689476,0,77.95999999999999,0.01,-6.88,257.73,257.06,0.05,0.11,3
26501,19699933,0,77.83,0.01,-7.2,257.54,256.87,0.05,0.11,3
26541,19710503,0,77.69,0.01,-7.53,257.34,256.66,0.05,0.11,3
26582,19720495,0,77.53,0.01,-7.9,257.11,256.43,0.05,0.11,3
26621,19731891,0,77.34999999999999,0.01,-8.279999999999999,256.86,256.19,0.05,0.11,3
26663,19742008,0,77.18000000000001,0.01,-8.619999999999999,256.62,255.94,0.05,0.11,3
26704,19752258,0,77,0.01,-8.960000000000001,256.36,255.69,0.05,0.11,3
26744,19762559,0,76.78,0.01,-9.34,256.06,255.39,0.05,0.11,3
26785,19772568,0,76.56,0.01,-9.69,255.77,255.1,0.05,0.11,3
26832,19782949,0,76.34999999999999,0.01,-10.03,255.46,254.79,0.05,0.11,3
26872,19793446,0,76.14,0.01,-10.36,255.13,254.46,0.05,0.11,3
26913,19803889,0,75.95,0.01,-10.71,254.75,254.08,0.05,0.11,3
26953,19813992,0,75.8,0.01,-11.01,254.38,253.71,0.05,0.11,3
26994,19823933,0,75.68000000000001,0.01,-11.32,253.96,253.29,0.05,0.11,3
27031,19835130,0,75.59999999999999,0.01,-11.6,253.53,252.85,0.05,0.11,3
27072,19845346,0,75.56,0.01,-11.84,253.13,252.45,0.05,0.11,3
27115,19855523,0,75.53,0.01,-12.07,252.73,252.05,0.05,0.11,3
27157,19865723,0,75.51000000000001,0.01,-12.3,252.33,251.65,0.07000000000000001,0.11,3
27198,19876035,0,75.51000000000001,0.01,-12.53,251.96,251.28,0.07000000000000001,0.11,3
27243,19886847,0,75.52,0.01,-12.77,251.57,250.89,0.07000000000000001,0.11,3
27285,19896931,0,75.54000000000001,0.01,-13,251.23,250.55,0.07000000000000001,0.1,3
27325,19906747,0,75.56999999999999,0.01,-13.22,250.93,250.25,0.07000000000000001,0.1,3
27366,19917272,0,75.61,0.01,-13.46,250.66,249.98,0.07000000000000001,0.1,3
27413,19933280,0,75.66,0.01,-13.92,250.29,249.61,0.07000000000000001,0.1,3
27453,19943670,0,75.69,0.01,-14.22,250.13,249.44,0.07000000000000001,0.1,3
27495,19954048,0,75.72,0.01,-14.54,250,249.31,0.07000000000000001,0.1,3
27535,19964743,0,75.76000000000001,0.01,-14.91,249.89,249.2,0.07000000000000001,0.1,3
27577,19974553,0,75.81,0.01,-15.25,249.82,249.13,0.07000000000000001,0.1,3
27617,19985011,0,75.86,0.01,-15.6,249.76,249.08,0.07000000000000001,0.1,3
27662,19995488,0,75.89,0.01,-15.98,249.73,249.04,0.07000000000000001,0.11,3
27703,20005777,0,75.90000000000001,0.01,-16.34,249.72,249.02,0.07000000000000001,0.11,3
27744,20016525,0,75.90000000000001,0.01,-16.74,249.73,249.04,0.07000000000000001,0.11,3
27785,20026452,0,75.89,0.01,-17.11,249.77,249.07,0.07000000000000001,0.11,3
27825,20037813,0,75.86,0.01,-17.52,249.82,249.13,0.07000000000000001,0.11,3
27868,20048115,0,75.81999999999999,0.01,-17.91,249.89,249.19,0.07000000000000001,0.11,3
27909,20058436,0,75.76000000000001,0.01,-18.25,249.96,249.26,0.07000000000000001,0.11,3
27950,20068994,0,75.67,0.01,-18.56,250.03,249.33,0.07000000000000001,0.11,3
27991,20079871,0,75.53,0.01,-18.87,250.11,249.41,0.07000000000000001,0.11,3
28032,20089866,0,75.36,0.01,-19.12,250.17,249.47,0.07000000000000001,0.11,3
28077,20099908,0,75.14,0.01,-19.37,250.24,249.54,0.07000000000000001,0.11,3
28117,20110326,0,74.93000000000001,0.01,-19.54,250.3,249.6,0.07000000000000001,0.11,3
28159,20121208,0,74.66,0.01,-19.72,250.39,249.69,0.07000000000000001,0.11,3
28199,20131213,0,74.37,0.01,-19.87,250.49,249.79,0.07000000000000001,0.11,3
28240,20141982,0,74.04000000000001,0.01,-19.98,250.61,249.91,0.07000000000000001,0.11,3
28282,20152595,0,73.66,0.01,-20.07,250.75,250.05,0.07000000000000001,0.11,3
28322,20163124,0,73.28,0.01,-20.12,250.89,250.19,0.07000000000000001,0.11,3
28363,20173546,0,72.88,0.01,-20.16,251.06,250.37,0.07000000000000001,0.11,3
28403,20183562,0,72.52,0.01,-20.18,251.25,250.56,0.07000000000000001,0.11,3
28444,20193734,0,72.16,0.01,-20.19,251.47,250.77,0.07000000000000001,0.11,3
28492,20203978,0,71.81999999999999,0.01,-20.19,251.7,251.01,0.07000000000000001,0.11,3
28532,20214506,0,71.47,0.01,-20.17,251.99,251.3,0.07000000000000001,0.11,3
28573,20224569,0,71.16,0.01,-20.14,252.29,251.6,0.07000000000000001,0.11,3
28615,20234760,0,70.86,0.01,-20.1,252.6,251.91,0.07000000000000001,0.11,3
28657,20248327,0,70.44,0.01,-20.03,253.07,252.38,0.07000000000000001,0.11,3
28699,20258440,0,70.18000000000001,0.01,-19.96,253.42,252.74,0.07000000000000001,0.11,3
28740,20268756,0,69.95,0.01,-19.88,253.79,253.11,0.07000000000000001,0.11,3
28781,20278936,0,69.73,0.01,-19.79,254.17,253.49,0.07000000000000001,0.11,3
28822,20289064,0,69.55,0.01,-19.69,254.56,253.88,0.07000000000000001,0.11,3
28863,20299003,0,69.38,0.01,-19.58,254.96,254.28,0.07000000000000001,0.11,3
28907,20309307,0,69.22,0.01,-19.46,255.36,254.68,0.07000000000000001,0.11,3
28950,20319980,0,69.05,0.01,-19.31,255.79,255.11,0.07000000000000001,0.11,3
28990,20330284,0,68.90000000000001,0.01,-19.14,256.21,255.54,0.07000000000000001,0.11,3
29029,20340485,0,68.78,0.01,-18.97,256.59,255.91,0.07000000000000001,0.11,3
29070,20351225,0,68.67,0.01,-18.76,256.99,256.31,0.07000000000000001,0.11,3
29111,20361442,0,68.59,0.01,-18.56,257.34,256.66,0.07000000000000001,0.11,3
29152,20371551,0,68.52,0.01,-18.35,257.67,257,0.07000000000000001,0.11,3
29192,20381315,0,68.45999999999999,0.01,-18.13,257.99,257.32,0.07000000000000001,0.11,3
29233,20391715,0,68.41,0.01,-17.89,258.29,257.62,0.07000000000000001,0.11,3
29274,20401475,0,68.37,0.01,-17.64,258.57,257.9,0.07000000000000001,0.11,3
29319,20411349,0,68.33,0.01,-17.36,258.82,258.16,0.07000000000000001,0.12,3
29360,20421741,0,68.3,0.01,-17.08,259.05,258.38,0.07000000000000001,0.12,3
29400,20431482,0,68.29000000000001,0.01,-16.77,259.25,258.58,0.07000000000000001,0.12,3
29441,20441558,0,68.28,0.01,-16.46,259.42,258.76,0.07000000000000001,0.12,3
29478,20452518,0,68.28,0.01,-16.11,259.59,258.92,0.07000000000000001,0.12,3
29520,20463316,0,68.3,0.01,-15.77,259.72,259.06,0.06,0.12,3
29563,20473902,0,68.33,0.01,-15.39,259.83,259.17,0.06,0.12,3
29604,20484499,0,68.34999999999999,0.01,-15,259.92,259.26,0.06,0.12,3
29644,20494578,0,68.39,0.01,-14.63,259.98,259.32,0.06,0.12,3
29685,20505125,0,68.45999999999999,0.01,-14.24,260.02,259.37,0.06,0.12,3
29730,20515262,0,68.56999999999999,0.01,-13.8,260.06,259.4,0.06,0.12,3
29771,20525563,0,68.7,0.01,-13.38,260.07,259.42,0.06,0.12,3
29812,20535704,0,68.84,0.01,-12.96,260.1,259.44,0.06,0.12,3
29852,20545559,0,69.02,0.01,-12.53,260.12,259.47,0.06,0.12,3
29893,20558728,0,69.28,0.01,-11.98,260.18,259.53,0.06,0.12,3
29933,20569014,0,69.54000000000001,0.01,-11.53,260.26,259.6,0.06,0.12,3
29974,20580137,0,69.79000000000001,0.01,-11.14,260.36,259.7,0.06,0.12,3
30015,20590439,0,70.05,0.01,-10.73,260.49,259.83,0.06,0.12,3
30055,20600371,0,70.26000000000001,0.01,-10.37,260.62,259.97,0.06,0.12,3
30101,20610870,0,70.43000000000001,0.01,-10.03,260.77,260.11,0.06,0.12,3
30142,20621461,0,70.58,0.01,-9.699999999999999,260.91,260.26,0.06,0.13,3
30183,20631501,0,70.69,0.01,-9.359999999999999,261.07,260.42,0.06,0.13,3
30224,20641495,0,70.76000000000001,0.01,-9.07,261.23,260.57,0.06,0.13,3
30264,20651453,0,70.8,0.01,-8.800000000000001,261.38,260.72,0.06,0.13,3
30299,20662362,0,70.84,0.01,-8.52,261.54,260.89,0.06,0.13,3
30343,20672387,0,70.87,0.01,-8.279999999999999,261.7,261.05,0.06,0.13,3
30384,20682704,0,70.90000000000001,0.01,-8.06,261.87,261.22,0.06,0.13,3
30424,20692306,0,70.91,0.01,-7.87,262.04,261.39,0.06,0.13,3
30466,20702860,0,70.92,0.01,-7.7,262.22,261.57,0.06,0.13,3
30511,20712980,0,70.91,0.01,-7.54,262.4,261.75,0.06,0.13,3
30552,20723219,0,70.89,0.01,-7.41,262.59,261.94,0.06,0.12,3
30595,20733471,0,70.87,0.01,-7.28,262.79,262.14,0.06,0.12,3
30635,20743265,0,70.86,0.01,-7.18,262.98,262.33,0.06,0.12,3
30676,20756572,0,70.86,0.01,-7.04,263.2,262.55,0.06,0.12,3
30716,20766866,0,70.87,0.01,-6.94,263.34,262.69,0.06,0.12,3
30754,20777776,0,70.89,0.01,-6.83,263.49,262.84,0.06,0.12,3
30795,20787891,0,70.93000000000001,0.01,-6.72,263.59,262.95,0.06,0.12,3
30837,20798040,0,70.98,0.01,-6.61,263.68,263.03,0.06,0.12,3
30878,20808255,0,71.08,0.01,-6.47,263.75,263.1,0.06,0.12,3
30923,20818367,0,71.20999999999999,0.01,-6.35,263.79,263.14,0.06,0.11,3
30963,20828769,0,71.36,0.01,-6.21,263.81,263.16,0.06,0.11,3
31003,20839000,0,71.55,0.01,-6.06,263.8,263.15,0.06,0.11,3
31043,20849285,0,71.76000000000001,0.01,-5.91,263.77,263.12,0.06,0.11,3
31085,20862222,0,72.09,0.01,-5.69,263.69,263.04,0.06,0.11,3
31128,20872764,0,72.36,0.01,-5.52,263.62,262.96,0.05,0.11,3
31169,20882736,0,72.63,0.01,-5.35,263.52,262.87,0.05,0.11,3
31211,20892850,0,72.92,0.01,-5.17,263.41,262.75,0.05,0.11,3
31251,20903038,0,73.22,0.01,-5,263.29,262.63,0.05,0.11,3
31293,20913438,0,73.55,0.01,-4.81,263.14,262.48,0.05,0.11,3
31338,20923521,0,73.86,0.01,-4.65,263.01,262.35,0.05,0.1,3
31379,20933453,0,74.17,0.01,-4.48,262.87,262.21,0.05,0.1,3
31419,20943770,0,74.48,0.01,-4.32,262.73,262.07,0.05,0.1,3
31463,20956592,0,74.89,0.01,-4.13,262.55,261.89,0.05,0.1,3
31507,20969587,0,75.28,0.01,-3.96,262.39,261.72,0.05,0.1,3
31547,20980746,0,75.59,0.01,-3.85,262.26,261.6,0.05,0.1,3
31588,20991014,0,75.91,0.01,-3.74,262.14,261.48,0.05,0.1,3
31630,21001284,0,76.19,0.01,-3.64,262.04,261.37,0.05,0.1,3
31671,21011141,0,76.45,0.01,-3.56,261.94,261.27,0.05,0.1,3
31716,21021467,0,76.68000000000001,0.01,-3.5,261.85,261.18,0.05,0.1,3
31756,21031990,0,76.89,0.01,-3.44,261.76,261.09,0.05,0.09,3
31798,21042700,0,77.08,0.01,-3.39,261.68,261.01,0.05,0.09,3
31838,21053071,0,77.26000000000001,0.01,-3.36,261.6,260.93,0.05,0.09,3
31884,21066515,0,77.5,0.01,-3.32,261.51,260.84,0.06,0.09,3
31924,21076987,0,77.68000000000001,0.01,-3.3,261.45,260.78,0.06,0.09,3
31965,21087037,0,77.84999999999999,0.01,-3.28,261.39,260.72,0.06,0.09,3
32007,21097323,0,78,0.01,-3.25,261.32,260.65,0.06,0.09,3
32047,21107364,0,78.14,0.01,-3.23,261.24,260.58,0.06,0.09,3
32089,21117481,0,78.23999999999999,0.01,-3.2,261.17,260.5,0.06,0.09,3
32134,21127599,0,78.29000000000001,0.01,-3.18,261.09,260.42,0.06,0.08,3
32174,21137897,0,78.3,0.01,-3.15,261.01,260.34,0.06,0.08,3
32215,21148001,0,78.27,0.01,-3.12,260.93,260.26,0.06,0.08,3
32256,21158086,0,78.2,0.01,-3.1,260.85,260.18,0.06,0.08,3
32298,21170869,0,78.03,0.01,-3.07,260.74,260.07,0.06,0.08,3
32338,21180995,0,77.88,0.01,-3.06,260.66,259.99,0.06,0.08,3
32379,21191287,0,77.73,0.01,-3.05,260.59,259.92,0.06,0.08,3
32420,21201849,0,77.48999999999999,0.01,-3.05,260.53,259.86,0.06,0.08,3
32460,21211483,0,77.25,0.01,-3.05,260.47,259.8,0.06,0.08,3
32502,21221921,0,77.05,0.01,-3.06,260.43,259.76,0.06,0.08,3
32551,21231718,0,76.81999999999999,0.01,-3.07,260.39,259.73,0.06,0.08,3
32592,21242257,0,76.56,0.01,-3.09,260.36,259.7,0.06,0.08,3
32633,21252509,0,76.29000000000001,0.01,-3.12,260.34,259.68,0.06,0.08,3
32675,21262577,0,76.03,0.01,-3.15,260.33,259.66,0.06,0.08,3
32716,21273367,0,75.7,0.01,-3.2,260.33,259.67,0.06,0.08,3
32757,21284281,0,75.34999999999999,0.01,-3.26,260.34,259.68,0.06,0.08,3
32798,21294289,0,74.98999999999999,0.01,-3.34,260.37,259.71,0.06,0.08,3
32838,21304242,0,74.67,0.01,-3.41,260.41,259.75,0.06,0.08,3
32879,21314742,0,74.34,0.01,-3.48,260.45,259.79,0.06,0.08,3
32921,21324737,0,74.02,0.01,-3.56,260.5,259.85,0.06,0.08,3
32965,21334934,0,73.73,0.01,-3.63,260.57,259.91,0.06,0.08,3
33006,21344902,0,73.45999999999999,0.01,-3.71,260.65,259.99,0.06,0.08,3
33046,21355230,0,73.19,0.01,-3.79,260.73,260.08,0.06,0.08,3
33091,21368228,0,72.86,0.01,-3.91,260.87,260.22,0.06,0.08,3
33131,21378866,0,72.65000000000001,0.01,-4,260.98,260.33,0.06,0.08,3
33172,21389859,0,72.44,0.01,-4.11,261.12,260.47,0.06,0.08,3
33213,21399753,0,72.26000000000001,0.01,-4.21,261.25,260.6,0.06,0.08,3
33253,21409957,0,72.09999999999999,0.01,-4.31,261.4,260.75,0.06,0.08,3
33294,21420252,0,71.95999999999999,0.01,-4.42,261.56,260.9,0.06,0.08,3
33336,21430458,0,71.81999999999999,0.01,-4.54,261.73,261.08,0.06,0.08,3
33381,21440489,0,71.70999999999999,0.01,-4.67,261.91,261.26,0.06,0.07000000000000001,3
33422,21450913,0,71.62,0.01,-4.79,262.08,261.43,0.06,0.07000000000000001,3
33462,21461314,0,71.53,0.01,-4.92,262.27,261.62,0.06,0.07000000000000001,3
33505,21471846,0,71.45,0.01,-5.07,262.49,261.84,0.05,0.07000000000000001,3
33548,21485753,0,71.36,0.01,-5.28,262.77,262.12,0.05,0.07000000000000001,3
33593,21498861,0,71.31999999999999,0.01,-5.48,263.05,262.4,0.05,0.07000000000000001,3
33634,21509563,0,71.3,0.01,-5.66,263.29,262.64,0.05,0.07000000000000001,3
33674,21519856,0,71.3,0.01,-5.83,263.51,262.86,0.05,0.07000000000000001,3
33716,21529934,0,71.31,0.01,-6,263.72,263.07,0.05,0.07000000000000001,3
33760,21540473,0,71.34,0.01,-6.18,263.93,263.28,0.05,0.05,3
33801,21550746,0,71.38,0.01,-6.37,264.15,263.5,0.05,0.05,3
33842,21561283,0,71.45,0.01,-6.56,264.34,263.69,0.05,0.05,3
33886,21573885,0,71.58,0.01,-6.82,264.57,263.92,0.05,0.05,3
33927,21584551,0,71.67,0.01,-6.98,264.71,264.06,0.05,0.05,3
33964,21595422,0,71.8,0.01,-7.19,264.86,264.21,0.05,0.05,3
34005,21605948,0,71.92,0.01,-7.37,264.97,264.31,0.05,0.05,3
34046,21616544,0,72.06,0.01,-7.55,265.05,264.4,0.05,0.05,3
34087,21626635,0,72.18000000000001,0.01,-7.72,265.11,264.45,0.05,0.05,3
34128,21636368,0,72.28,0.01,-7.89,265.15,264.49,0.05,0.05,3
34173,21646341,0,72.38,0.01,-8.06,265.18,264.52,0.05,0.05,3
34216,21657218,0,72.45999999999999,0.01,-8.24,265.19,264.54,0.05,0.05,3
34256,21667072,0,72.56,0.01,-8.43,265.2,264.54,0.05,0.05,3
34301,21679979,0,72.66,0.01,-8.65,265.2,264.54,0.05,0.05,3
34339,21690738,0,72.70999999999999,0.01,-8.84,265.19,264.53,0.05,0.05,3
34379,21701005,0,72.73,0.01,-9.01,265.17,264.51,0.05,0.05,3
34421,21711322,0,72.70999999999999,0.01,-9.17,265.14,264.48,0.05,0.05,3
34462,21721712,0,72.63,0.01,-9.33,265.1,264.44,0.05,0.05,3
34505,21731731,0,72.51000000000001,0.01,-9.49,265.08,264.42,0.05,0.05,3
34546,21741335,0,72.36,0.01,-9.640000000000001,265.06,264.4,0.05,0.05,3
34590,21751306,0,72.2,0.01,-9.81,265.06,264.4,0.05,0.05,3
34632,21761951,0,72.02,0.01,-9.98,265.09,264.43,0.05,0.05,3
34672,21772240,0,71.81,0.01,-10.19,265.14,264.48,0.05,0.05,3
34713,21785258,0,71.55,0.01,-10.44,265.23,264.57,0.05,0.05,3
34758,21797997,0,71.23999999999999,0.01,-10.76,265.39,264.73,0.05,0.05,3
34802,21810474,0,70.98999999999999,0.01,-11.05,265.55,264.89,0.05,0.05,3
34843,21820763,0,70.81,0.01,-11.3,265.7,265.05,0.05,0.05,3
34887,21833140,0,70.61,0.01,-11.6,265.9,265.25,0.05,0.05,3
34927,21843087,0,70.47,0.01,-11.85,266.08,265.42,0.05,0.05,3
34972,21852948,0,70.34999999999999,0.01,-12.09,266.25,265.6,0.05,0.05,3
35018,21862762,0,70.26000000000001,0.01,-12.32,266.43,265.77,0.06,0.05,3
35060,21873133,0,70.2,0.01,-12.54,266.6,265.94,0.06,0.05,3
35098,21883202,0,70.15000000000001,0.01,-12.76,266.77,266.11,0.06,0.05,3
35138,21893911,0,70.14,0.01,-12.95,266.91,266.25,0.06,0.05,3
35179,21903896,0,70.14,0.01,-13.11,267.04,266.38,0.06,0.05,3
35220,21913867,0,70.16,0.01,-13.24,267.16,266.5,0.06,0.05,3
35261,21924350,0,70.2,0.01,-13.35,267.26,266.6,0.06,0.05,3
35302,21935001,0,70.26000000000001,0.01,-13.45,267.36,266.7,0.06,0.05,3
35342,21945138,0,70.34,0.01,-13.53,267.46,266.79,0.06,0.05,3
35387,21955040,0,70.40000000000001,0.01,-13.58,267.53,266.87,0.06,0.05,3
35427,21965464,0,70.48999999999999,0.01,-13.64,267.63,266.97,0.06,0.05,3
35469,21975903,0,70.59,0.01,-13.68,267.74,267.07,0.06,0.05,3
35510,21988998,0,70.72,0.01,-13.72,267.88,267.22,0.06,0.05,3
35551,21999525,0,70.83,0.01,-13.75,268,267.34,0.06,0.05,3
35592,22009848,0,70.95,0.01,-13.78,268.14,267.47,0.06,0.05,3
35632,22019902,0,71.06,0.01,-13.81,268.29,267.63,0.06,0.05,3
35673,22029922,0,71.17,0.01,-13.84,268.47,267.81,0.06,0.05,3
35713,22040536,0,71.27,0.01,-13.88,268.67,268.01,0.06,0.05,3
35760,22051355,0,71.37,0.01,-13.93,268.92,268.26,0.06,0.05,3
35800,22061629,0,71.45999999999999,0.01,-14,269.2,268.54,0.06,0.05,3
35842,22071474,0,71.52,0.01,-14.08,269.48,268.81,0.06,0.05,3
35884,22081712,0,71.56999999999999,0.01,-14.16,269.78,269.11,0.06,0.05,3
35924,22092317,0,71.59,0.01,-14.25,270.09,269.42,0.06,0.05,3
35966,22102763,0,71.59,0.01,-14.36,270.46,269.79,0.06,0.05,3
36006,22112752,0,71.58,0.01,-14.47,270.81,270.14,0.06,0.05,3
36047,22123911,0,71.54000000000001,0.01,-14.61,271.22,270.55,0.06,0.05,3
36088,22134120,0,71.51000000000001,0.01,-14.75,271.6,270.93,0.06,0.05,3
36128,22144433,0,71.47,0.01,-14.89,271.99,271.32,0.06,0.05,3
36173,22154627,0,71.43000000000001,0.01,-15.04,272.42,271.75,0.06,0.05,3
36214,22165263,0,71.38,0.01,-15.17,272.81,272.14,0.06,0.04,3
36256,22175851,0,71.33,0.01,-15.31,273.24,272.57,0.06,0.04,3
36297,22185896,0,71.28,0.01,-15.43,273.63,272.96,0.06,0.04,3
36338,22195979,0,71.23,0.01,-15.55,274.01,273.34,0.06,0.04,3
36379,22206502,0,71.19,0.01,-15.66,274.42,273.75,0.06,0.04,3
36419,22217097,0,71.17,0.01,-15.75,274.79,274.12,0.06,0.04,3
36463,22227356,0,71.15000000000001,0.01,-15.83,275.19,274.52,0.06,0.04,3
36504,22237996,0,71.12,0.01,-15.89,275.54,274.87,0.06,0.04,3
36544,22248138,0,71.06,0.01,-15.94,275.92,275.24,0.06,0.04,3
36596,22260550,0,70.95999999999999,0.01,-15.98,276.31,275.64,0.06,0.04,3
36640,22270975,0,70.81999999999999,0.01,-16,276.63,275.96,0.06,0.04,3
36681,22280918,0,70.66,0.01,-16.01,276.94,276.27,0.06,0.04,3
36722,22291236,0,70.48,0.01,-16.02,277.26,276.59,0.06,0.04,3
36764,22301347,0,70.27,0.01,-16.02,277.62,276.95,0.06,0.04,3
36798,22311980,0,70.03,0.01,-16.01,277.98,277.31,0.06,0.04,3
36839,22322928,0,69.8,0.01,-16,278.32,277.65,0.06,0.04,3
36880,22333296,0,69.56,0.01,-15.99,278.66,278,0.06,0.04,3
36920,22343563,0,69.28,0.01,-15.98,279.05,278.38,0.06,0.04,3
36961,22353491,0,69,0.01,-15.96,279.41,278.74,0.06,0.04,3
37005,22363979,0,68.73,0.01,-15.93,279.77,279.11,0.06,0.04,3
37047,22374361,0,68.41,0.01,-15.89,280.18,279.52,0.06,0.04,3
37087,22384691,0,68.13,0.01,-15.85,280.55,279.89,0.06,0.04,3
37128,22394746,0,67.86,0.01,-15.81,280.92,280.26,0.06,0.04,3
37167,22404957,0,67.58,0.01,-15.75,281.29,280.64,0.06,0.04,3
37210,22417741,0,67.22,0.01,-15.68,281.79,281.13,0.06,0.04,3
37251,22427936,0,66.90000000000001,0.01,-15.61,282.21,281.55,0.06,0.04,3
37292,22438253,0,66.61,0.01,-15.53,282.59,281.94,0.06,0.04,3
37333,22448119,0,66.31999999999999,0.01,-15.46,282.97,282.32,0.06,0.04,3
37374,22458333,0,66.03,0.01,-15.37,283.35,282.7,0.06,0.04,3
37420,22468290,0,65.77,0.01,-15.28,283.73,283.08,0.07000000000000001,0.04,3
37461,22478771,0,65.52,0.01,-15.17,284.09,283.45,0.07000000000000001,0.04,3
37502,22489022,0,65.28,0.01,-15.05,284.45,283.8,0.07000000000000001,0.04,3
37544,22499092,0,65.05,0.01,-14.92,284.79,284.15,0.07000000000000001,0.04,3
37581,22512124,0,64.77,0.01,-14.74,285.25,284.61,0.07000000000000001,0.04,3
37621,22522266,0,64.58,0.01,-14.59,285.56,284.92,0.07000000000000001,0.04,3
37662,22532274,0,64.41,0.01,-14.44,285.86,285.23,0.07000000000000001,0.04,3
37702,22542491,0,64.25,0.01,-14.28,286.15,285.52,0.07000000000000001,0.04,3
37743,22552933,0,64.09,0.01,-14.11,286.43,285.8,0.07000000000000001,0.04,3
37784,22563078,0,63.94,0.01,-13.93,286.69,286.06,0.07000000000000001,0.04,3
37829,22573204,0,63.78,0.01,-13.75,286.95,286.31,0.07000000000000001,0.05,3
37870,22583299,0,63.64,0.01,-13.55,287.19,286.56,0.07000000000000001,0.05,3
37910,22593576,0,63.47,0.01,-13.34,287.45,286.82,0.07000000000000001,0.05,3
37951,22603311,0,63.32,0.01,-13.14,287.68,287.06,0.07000000000000001,0.05,3
37990,22613474,0,63.15,0.01,-12.94,287.92,287.29,0.07000000000000001,0.05,3
38034,22625938,0,62.95,0.01,-12.71,288.19,287.57,0.07000000000000001,0.05,3
38075,22636536,0,62.79,0.01,-12.52,288.42,287.8,0.07000000000000001,0.05,3
38115,22646532,0,62.62,0.01,-12.31,288.66,288.04,0.07000000000000001,0.05,3
38158,22656724,0,62.46,0.01,-12.12,288.87,288.25,0.06,0.05,3
38203,22667262,0,62.3,0.01,-11.93,289.08,288.46,0.06,0.05,3
38244,22677685,0,62.14,0.01,-11.73,289.29,288.68,0.06,0.06,3
38284,22687749,0,61.99,0.01,-11.55,289.47,288.86,0.06,0.06,3
38325,22697766,0,61.84,0.01,-11.36,289.64,289.02,0.06,0.06,3
38365,22707861,0,61.72,0.01,-11.19,289.77,289.16,0.06,0.06,3
38409,22720571,0,61.63,0.01,-10.96,289.91,289.3,0.06,0.06,3
38450,22731164,0,61.57,0.01,-10.77,289.99,289.38,0.06,0.06,3
38492,22741578,0,61.52,0.01,-10.56,290.02,289.41,0.06,0.06,3
38533,22751856,0,61.51,0.01,-10.37,290.03,289.42,0.06,0.06,3
38573,22761891,0,61.52,0.01,-10.17,290.02,289.41,0.06,0.06,3
38618,22772282,0,61.51,0.01,-9.98,289.99,289.38,0.06,0.07000000000000001,3
38659,22782847,0,61.52,0.01,-9.77,289.94,289.33,0.06,0.07000000000000001,3
38700,22792674,0,61.54,0.01,-9.58,289.88,289.27,0.06,0.07000000000000001,3
38741,22802757,0,61.55,0.01,-9.390000000000001,289.8,289.19,0.06,0.07000000000000001,3
38781,22815774,0,61.55,0.01,-9.15,289.67,289.07,0.06,0.07000000000000001,3
38819,22826452,0,61.53,0.01,-8.93,289.55,288.94,0.06,0.07000000000000001,3
38861,22836717,0,61.51,0.01,-8.74,289.42,288.82,0.06,0.07000000000000001,3
38901,22847119,0,61.47,0.01,-8.539999999999999,289.3,288.69,0.06,0.07000000000000001,3
38945,22857484,0,61.41,0.01,-8.34,289.17,288.56,0.06,0.07000000000000001,3
38986,22867536,0,61.36,0.01,-8.15,289.05,288.44,0.06,0.07000000000000001,3
39031,22878209,0,61.3,0.01,-7.99,288.95,288.35,0.06,0.08,3
39072,22888759,0,61.24,0.01,-7.82,288.86,288.26,0.06,0.08,3
39112,22899060,0,61.17,0.01,-7.68,288.79,288.19,0.06,0.08,3
39153,22909580,0,61.09,0.01,-7.54,288.73,288.13,0.06,0.08,3
39190,22920446,0,60.98,0.01,-7.41,288.68,288.08,0.06,0.08,3
39232,22930544,0,60.85,0.01,-7.31,288.64,288.04,0.06,0.08,3
39273,22941352,0,60.71,0.01,-7.23,288.62,288.02,0.06,0.08,3
39314,22951887,0,60.54,0.01,-7.14,288.6,288,0.06,0.08,3
39355,22961927,0,60.37,0.01,-7.07,288.58,287.99,0.06,0.08,3
39395,22971933,0,60.18,0.01,-7,288.57,287.97,0.06,0.08,3
39442,22981907,0,59.99,0.01,-6.93,288.54,287.95,0.06,0.08,3
39483,22991948,0,59.8,0.01,-6.86,288.51,287.91,0.06,0.08,3
39523,23002284,0,59.61,0.01,-6.78,288.46,287.87,0.06,0.08,3
39564,23012630,0,59.41,0.01,-6.69,288.4,287.81,0.06,0.08,3
39602,23022946,0,59.25,0.01,-6.59,288.33,287.74,0.06,0.08,3
39640,23033466,0,59.1,0.01,-6.48,288.25,287.66,0.06,0.08,3
39680,23043909,0,58.99,0.01,-6.37,288.16,287.57,0.06,0.08,3
39722,23054243,0,58.89,0.01,-6.24,288.07,287.48,0.06,0.08,3
39765,23065028,0,58.82,0.01,-6.13,287.98,287.39,0.06,0.08,3
39806,23074970,0,58.75,0.01,-6.01,287.89,287.31,0.06,0.08,3
39851,23085433,0,58.7,0.01,-5.9,287.82,287.23,0.06,0.08,3
39891,23095881,0,58.66,0.01,-5.78,287.74,287.15,0.06,0.08,3
39932,23106065,0,58.64,0.01,-5.67,287.67,287.09,0.06,0.08,3
39972,23116216,0,58.63,0.01,-5.56,287.61,287.03,0.06,0.08,3
40013,23129000,0,58.6,0.01,-5.44,287.55,286.96,0.06,0.08,3
40053,23139759,0,58.56,0.01,-5.35,287.5,286.92,0.06,0.08,3
40095,23149839,0,58.53,0.01,-5.27,287.47,286.89,0.06,0.08,3
40137,23160264,0,58.47,0.01,-5.19,287.45,286.87,0.06,0.08,3
40178,23170878,0,58.4,0.01,-5.12,287.44,286.86,0.06,0.08,3
40219,23181095,0,58.33,0.01,-5.06,287.44,286.86,0.06,0.08,3
40263,23190939,0,58.26,0.01,-5,287.45,286.87,0.06,0.07000000000000001,3
40305,23201081,0,58.17,0.01,-4.95,287.48,286.89,0.06,0.07000000000000001,3
40347,23210952,0,58.07,0.01,-4.9,287.5,286.92,0.06,0.07000000000000001,3
40391,23223520,0,57.93,0.01,-4.84,287.56,286.98,0.06,0.07000000000000001,3
40429,23234085,0,57.8,0.01,-4.79,287.6,287.03,0.06,0.07000000000000001,3
