LineNo,TimeUS,DesRoll,Roll,DesPitch,Pitch,DesYaw,Yaw,ErrRP,ErrYaw,AEKF
185,1.2924e+07,0,1.45,0.01,-0.89,6.27,6.25,0,0.03,3
981,1.312e+07,0,1.45,0.01,-0.89,6.39,6.37,0,0.02,3
1093,1.3168e+07,0,1.46,0.01,-0.89,6.41,6.39,0,0.02,3
1479,1.3335e+07,0,1.46,0.01,-0.89,6.47,6.45,0,0.02,3
1555,1.3346e+07,0,1.46,0.01,-0.89,6.48,6.46,0,0.02,3
1596,1.3356e+07,0,1.45,0.01,-0.89,6.49,6.47,0,0.02,3
1636,1.3366e+07,0,1.45,0.01,-0.89,6.49,6.48,0,0.02,3
1680,1.3377e+07,0,1.45,0.01,-0.89,6.5,6.48,0,0.02,3
1721,1.3387e+07,0,1.45,0.01,-0.89,6.51,6.49,0,0.02,3
1761,1.3398e+07,0,1.45,0.01,-0.89,6.53,6.51,0,0.02,3
1804,1.3408e+07,0,1.45,0.01,-0.89,6.54,6.52,0,0.02,3
1848,1.3419e+07,0,1.45,0.01,-0.89,6.55,6.53,0,0.02,3
1889,1.3429e+07,0,1.45,0.01,-0.89,6.56,6.55,0,0.02,3
1929,1.344e+07,0,1.45,0.01,-0.9,6.58,6.56,0,0.02,3
1970,1.345e+07,0,1.46,0.01,-0.9,6.59,6.57,0,0.02,3
2009,1.346e+07,0,1.46,0.01,-0.9,6.6,6.59,0,0.02,3
2050,1.3471e+07,0,1.46,0.01,-0.9,6.62,6.6,0,0.02,3
2091,1.3481e+07,0,1.46,0.01,-0.9,6.64,6.62,0,0.02,3
2131,1.3491e+07,0,1.46,0.01,-0.9,6.65,6.64,0,0.02,3
2173,1.3502e+07,0,1.46,0.01,-0.89,6.67,6.65,0,0.02,3
2214,1.3512e+07,0,1.47,0.01,-0.89,6.68,6.66,0,0.02,3
2259,1.3522e+07,0,1.47,0.01,-0.89,6.7,6.68,0,0.02,3
2300,1.3532e+07,0,1.47,0.01,-0.89,6.71,6.69,0,0.02,3
2340,1.3542e+07,0,1.47,0.01,-0.89,6.72,6.7,0,0.02,3
2380,1.3552e+07,0,1.47,0.01,-0.89,6.73,6.71,0,0.02,3
2424,1.3565e+07,0,1.47,0.01,-0.89,6.75,6.73,0,0.02,3
2468,1.3578e+07,0,1.47,0.01,-0.89,6.76,6.75,0,0.02,3
2509,1.3588e+07,0,1.47,0.01,-0.89,6.78,6.76,0,0.02,3
2549,1.3599e+07,0,1.47,0.01,-0.89,6.79,6.77,0,0.02,3
2592,1.361e+07,0,1.47,0.01,-0.89,6.8,6.78,0,0.02,3
2637,1.362e+07,0,1.47,0.01,-0.89,6.81,6.79,0,0.02,3
2678,1.363e+07,0,1.47,0.01,-0.89,6.82,6.8,0,0.02,3
2718,1.3641e+07,0,1.47,0.01,-0.89,6.83,6.81,0,0.02,3
2759,1.3651e+07,0,1.47,0.01,-0.89,6.84,6.82,0,0.02,3
2802,1.3667e+07,0,1.47,0.01,-0.89,6.85,6.83,0,0.02,3
2842,1.3677e+07,0,1.47,0.01,-0.89,6.87,6.85,0,0.02,3
2884,1.3688e+07,0,1.47,0.01,-0.89,6.88,6.86,0,0.02,3
2924,1.3698e+07,0,1.47,0.01,-0.89,6.89,6.88,0,0.02,3
2965,1.3708e+07,0,1.47,0.01,-0.89,6.9,6.89,0,0.02,3
3007,1.3719e+07,0,1.47,0.01,-0.9,6.92,6.9,0,0.02,3
3052,1.373e+07,0,1.47,0.01,-0.9,6.93,6.91,0,0.02,3
3093,1.374e+07,0,1.47,0.01,-0.9,6.94,6.92,0,0.02,3
3133,1.375e+07,0,1.47,0.01,-0.9,6.95,6.93,0,0.02,3
3174,1.376e+07,0,1.47,0.01,-0.9,6.95,6.94,0,0.02,3
3214,1.3773e+07,0,1.48,0.01,-0.9,6.97,6.95,0,0.02,3
3255,1.3783e+07,0,1.48,0.01,-0.9,6.98,6.97,0,0.02,3
3298,1.3793e+07,0,1.48,0.01,-0.9,7,6.98,0,0.02,3
3338,1.3803e+07,0,1.48,0.01,-0.9,7.01,7,0,0.02,3
3380,1.3814e+07,0,1.48,0.01,-0.89,7.03,7.01,0,0.02,3
3421,1.3823e+07,0,1.48,0.01,-0.89,7.04,7.02,0,0.02,3
3466,1.3834e+07,0,1.48,0.01,-0.89,7.06,7.04,0,0.01,3
3508,1.3844e+07,0,1.48,0.01,-0.89,7.07,7.05,0,0.01,3
3550,1.3854e+07,0,1.48,0.01,-0.89,7.08,7.06,0,0.01,3
3591,1.3864e+07,0,1.48,0.01,-0.89,7.09,7.08,0,0.01,3
3631,1.3877e+07,0,1.48,0.01,-0.89,7.11,7.09,0,0.01,3
3671,1.3887e+07,0,1.48,0.01,-0.89,7.12,7.1,0,0.01,3
3712,1.3897e+07,0,1.48,0.01,-0.89,7.13,7.12,0,0.01,3
3752,1.3906e+07,0,1.48,0.01,-0.89,7.14,7.13,0,0.01,3
3793,1.3917e+07,0,1.48,0.01,-0.89,7.16,7.14,0,0.01,3
3839,1.3927e+07,0,1.48,0.01,-0.89,7.17,7.15,0,0.01,3
3880,1.3938e+07,0,1.48,0.01,-0.89,7.17,7.16,0,0.01,3
3920,1.3948e+07,0,1.48,0.01,-0.89,7.18,7.17,0,0.01,3
3961,1.3959e+07,0,1.48,0.01,-0.89,7.19,7.18,0,0.01,3
4003,1.3969e+07,0,1.48,0.01,-0.89,7.2,7.19,0,0.01,3
4037,1.398e+07,0,1.48,0.01,-0.89,7.22,7.2,0,0.01,3
4078,1.399e+07,0,1.48,0.01,-0.89,7.23,7.21,0,0.01,3
4119,1.4e+07,0,1.48,0.01,-0.89,7.24,7.22,0,0.01,3
4159,1.4011e+07,0,1.48,0.01,-0.89,7.25,7.24,0,0.01,3
4200,1.4021e+07,0,1.48,0.01,-0.89,7.27,7.25,0,0.01,3
4247,1.4031e+07,0,1.48,0.01,-0.89,7.28,7.26,0,0.01,3
4287,1.4041e+07,0,1.48,0.01,-0.89,7.29,7.27,0,0.01,3
4328,1.4051e+07,0,1.49,0.01,-0.89,7.3,7.28,0,0.01,3
4371,1.4061e+07,0,1.49,0.01,-0.89,7.31,7.29,0,0.01,3
4412,1.4071e+07,0,1.49,0.01,-0.89,7.32,7.3,0,0.01,3
4449,1.4082e+07,0,1.49,0.01,-0.89,7.33,7.31,0,0.01,3
4491,1.4092e+07,0,1.49,0.01,-0.89,7.34,7.32,0,0.01,3
4531,1.4102e+07,0,1.49,0.01,-0.89,7.35,7.33,0,0.01,3
4573,1.4112e+07,0,1.49,0.01,-0.89,7.36,7.34,0,0.01,3
4614,1.4122e+07,0,1.49,0.01,-0.89,7.37,7.35,0,0.01,3
4658,1.4132e+07,0,1.49,0.01,-0.89,7.38,7.36,0,0.01,3
4699,1.4142e+07,0,1.49,0.01,-0.89,7.39,7.37,0,0.01,3
4740,1.4152e+07,0,1.49,0.01,-0.89,7.4,7.38,0,0.01,3
4781,1.4162e+07,0,1.49,0.01,-0.89,7.41,7.39,0,0.01,3
4821,1.4175e+07,0,1.49,0.01,-0.89,7.42,7.41,0,0.01,3
4859,1.4186e+07,0,1.49,0.01,-0.89,7.43,7.42,0,0.01,3
4900,1.4196e+07,0,1.49,0.01,-0.89,7.44,7.43,0,0.01,3
4940,1.4206e+07,0,1.49,0.01,-0.89,7.45,7.44,0,0.01,3
4981,1.4216e+07,0,1.49,0.01,-0.89,7.46,7.44,0,0.01,3
5021,1.4226e+07,0,1.49,0.01,-0.89,7.47,7.45,0,0.01,3
5067,1.4237e+07,0,1.49,0.01,-0.89,7.48,7.46,0,0.01,3
5108,1.4247e+07,0,1.49,0.01,-0.89,7.48,7.47,0,0.01,3
5149,1.4257e+07,0,1.49,0.01,-0.89,7.49,7.47,0,0.01,3
5191,1.4267e+07,0,1.49,0.01,-0.89,7.5,7.48,0,0.01,3
5229,1.4278e+07,0,1.49,0.01,-0.89,7.5,7.49,0,0.01,3
5273,1.4288e+07,0,1.49,0.01,-0.89,7.51,7.49,0,0.01,3
5313,1.4298e+07,0,1.48,0.01,-0.89,7.52,7.5,0,0.01,3
5354,1.4309e+07,0,1.48,0.01,-0.89,7.53,7.52,0,0.01,3
5394,1.432e+07,0,1.49,0.01,-0.89,7.54,7.53,0,0.01,3
5435,1.433e+07,0,1.49,0.01,-0.89,7.55,7.53,0,0.01,3
5480,1.434e+07,0,1.49,0.01,-0.89,7.56,7.54,0,0.01,3
5520,1.4351e+07,0,1.49,0.01,-0.89,7.57,7.55,0,0.01,3
5561,1.4361e+07,0,1.49,0.01,-0.89,7.58,7.56,0,0.01,3
5606,1.4374e+07,0,1.49,0.01,-0.89,7.59,7.57,0,0.01,3
5650,1.439e+07,0,1.49,0.01,-0.89,7.6,7.58,0,0.01,3
5690,1.44e+07,0,1.49,0.01,-0.89,7.61,7.59,0,0.01,3
5731,1.4411e+07,0,1.49,0.01,-0.89,7.62,7.6,0,0.01,3
5774,1.4421e+07,0,1.49,0.01,-0.89,7.63,7.61,0,0.01,3
5814,1.4431e+07,0,1.49,0.01,-0.88,7.63,7.62,0,0.01,3
5859,1.4441e+07,0,1.49,0.01,-0.88,7.64,7.62,0,0.01,3
5902,1.4451e+07,0,1.49,0.01,-0.88,7.65,7.63,0,0.01,3
5943,1.4462e+07,0,1.49,0.01,-0.88,7.66,7.64,0,0.01,3
5984,1.4472e+07,0,1.49,0.01,-0.88,7.67,7.65,0,0.01,3
6024,1.4482e+07,0,1.49,0.01,-0.88,7.68,7.66,0,0.01,3
6063,1.4492e+07,0,1.49,0.01,-0.88,7.69,7.67,0,0.01,3
6104,1.4502e+07,0,1.49,0.01,-0.88,7.7,7.68,0,0.01,3
6144,1.4512e+07,0,1.49,0.01,-0.89,7.72,7.7,0,0.01,3
6185,1.4523e+07,0,1.49,0.01,-0.89,7.73,7.71,0,0.01,3
6225,1.4533e+07,0,1.49,0.01,-0.89,7.74,7.72,0,0.01,3
6270,1.4543e+07,0,1.49,0.01,-0.89,7.75,7.73,0,0.01,3
6310,1.4553e+07,0,1.49,0.01,-0.89,7.76,7.74,0,0.01,3
6352,1.4563e+07,0,1.49,0.01,-0.89,7.77,7.75,0,0.01,3
6393,1.4573e+07,0,1.49,0.01,-0.89,7.78,7.76,0,0.01,3
6434,1.4585e+07,0,1.49,0.01,-0.89,7.79,7.78,0,0.01,3
6472,1.4596e+07,0,1.49,0.01,-0.88,7.8,7.79,0,0.01,3
6512,1.4606e+07,0,1.49,0.01,-0.88,7.81,7.79,0,0.01,3
6553,1.4616e+07,0,1.49,0.01,-0.88,7.82,7.8,0,0.01,3
6594,1.4626e+07,0,1.49,0.01,-0.88,7.83,7.81,0,0.01,3
6635,1.4637e+07,0,1.49,0.01,-0.88,7.84,7.82,0,0.01,3
6680,1.4647e+07,0,1.49,0.01,-0.88,7.85,7.83,0,0.01,3
6722,1.4657e+07,0,1.49,0.01,-0.88,7.86,7.84,0,0.01,3
6763,1.4667e+07,0,1.49,0.01,-0.88,7.86,7.85,0,0.01,3
6806,1.4677e+07,0,1.49,0.01,-0.88,7.87,7.85,0,0.01,3
6846,1.469e+07,0,1.49,0.01,-0.88,7.88,7.86,0,0.01,3
6887,1.47e+07,0,1.49,0.01,-0.88,7.89,7.87,0,0.01,3
6927,1.471e+07,0,1.49,0.01,-0.88,7.9,7.88,0,0.01,3
6968,1.4721e+07,0,1.49,0.01,-0.88,7.9,7.88,0,0.01,3
7008,1.4731e+07,0,1.49,0.01,-0.88,7.91,7.89,0,0.01,3
7050,1.4741e+07,0,1.49,0.01,-0.88,7.92,7.9,0,0.01,3
7094,1.4752e+07,0,1.49,0.01,-0.88,7.92,7.9,0,0.01,3
7135,1.4762e+07,0,1.49,0.01,-0.88,7.93,7.91,0,0.01,3
7176,1.4773e+07,0,1.49,0.01,-0.89,7.94,7.92,0,0.01,3
7219,1.4783e+07,0,1.49,0.01,-0.89,7.94,7.92,0,0.01,3
7257,1.4797e+07,0,1.49,0.01,-0.88,7.95,7.94,0,0.01,3
7298,1.4807e+07,0,1.49,0.01,-0.88,7.96,7.94,0,0.01,3
7339,1.4818e+07,0,1.49,0.01,-0.88,7.97,7.95,0,0.01,3
7380,1.4827e+07,0,1.49,0.01,-0.88,7.98,7.96,0,0.01,3
7420,1.4838e+07,0,1.5,0.01,-0.88,7.98,7.97,0,0.01,3
7462,1.4848e+07,0,1.52,0.01,-0.89,7.99,7.97,0,0.01,3
7507,1.4858e+07,0,1.55,0.01,-0.88,7.98,7.96,0,0.01,3
7550,1.4868e+07,0,1.58,0.01,-0.89,7.97,7.95,0,0.01,3
7590,1.4878e+07,0,1.61,0.01,-0.89,7.95,7.93,0,0.01,3
7632,1.4888e+07,0,1.65,0.01,-0.9,7.95,7.93,0,0.01,3
7670,1.4899e+07,0,1.68,0.01,-0.91,7.94,7.92,0,0.01,3
7714,1.4911e+07,0,1.68,0.01,-0.94,7.95,7.93,0,0.01,3
7755,1.4922e+07,0,1.67,0.01,-0.95,7.97,7.95,0,0.01,3
7795,1.4932e+07,0,1.65,0.01,-0.97,7.99,7.97,0,0.01,3
7836,1.4942e+07,0,1.63,0.01,-0.98,8.01,7.99,0,0.01,3
7885,1.4955e+07,0,1.6,0.01,-0.98,8.05,8.03,0,0.01,3
7925,1.4965e+07,0,1.57,0.01,-0.97,8.07,8.05,0,0.01,3
7966,1.4976e+07,0,1.55,0.01,-0.96,8.09,8.07,0,0.01,3
8006,1.4986e+07,0,1.53,0.01,-0.95,8.09,8.07,0,0.01,3
8048,1.4996e+07,0,1.52,0.01,-0.94,8.09,8.07,0,0.01,3
8087,1.5007e+07,0,1.53,0.01,-0.92,8.1,8.08,0,0.01,3
8127,1.5017e+07,0,1.54,0.01,-0.9,8.1,8.08,0,0.01,3
8168,1.5027e+07,0,1.55,0.01,-0.89,8.1,8.08,0,0.01,3
8208,1.5038e+07,0,1.54,0.01,-0.88,8.1,8.08,0,0.01,3
8250,1.5048e+07,0,1.5,0.01,-0.86,8.11,8.09,0,0.01,3
8297,1.5059e+07,0,1.41,0.01,-0.83,8.14,8.13,0,0.01,3
8339,1.5069e+07,0,1.3,0.01,-0.81,8.2,8.18,0,0.01,3
8380,1.5079e+07,0,1.17,0.01,-0.78,8.26,8.25,0,0.01,3
8420,1.5089e+07,0,1.02,0.01,-0.75,8.33,8.32,0,0.01,3
8459,1.5102e+07,0,0.8,0.01,-0.71,8.41,8.4,0,0.01,3
8501,1.5112e+07,0,0.64,0.01,-0.67,8.46,8.45,0,0.01,3
8541,1.5123e+07,0,0.48,0.01,-0.62,8.5,8.5,0,0.01,3
8583,1.5132e+07,0,0.29,0.01,-0.58,8.55,8.54,0,0.01,3
8623,1.5142e+07,0,0.07,0.01,-0.53,8.6,8.6,0,0.01,3
8664,1.5152e+07,0,-0.15,0.01,-0.5,8.67,8.67,0,0.01,3
8708,1.5163e+07,0,-0.4,0.01,-0.47,8.74,8.75,0,0.02,3
8749,1.5173e+07,0,-0.67,0.01,-0.44,8.83,8.84,0,0.02,3
8789,1.5183e+07,0,-0.93,0.01,-0.42,8.92,8.93,0,0.02,3
8831,1.5193e+07,0,-1.19,0.01,-0.37,9.02,9.03,0,0.02,3
8870,1.5206e+07,0,-1.53,0.01,-0.32,9.16,9.18,0,0.02,3
8911,1.5216e+07,0,-1.81,0.01,-0.27,9.3,9.33,0,0.02,3
8952,1.5227e+07,0,-2.08,0.01,-0.2,9.49,9.51,0,0.02,3
8992,1.5238e+07,0,-2.33,0.01,-0.13,9.69,9.72,0,0.02,3
9033,1.5248e+07,0,-2.57,0.01,-0.05,9.93,9.96,0,0.02,3
9076,1.5258e+07,0,-2.8,0.01,0.04,10.19,10.22,0,0.02,3
9121,1.5268e+07,0,-3.02,0.01,0.15,10.49,10.53,0,0.02,3
9164,1.5278e+07,0,-3.22,0.01,0.28,10.82,10.86,0,0.02,3
9204,1.5288e+07,0,-3.47,0.01,0.43,11.23,11.28,0,0.02,3
9245,1.5298e+07,0,-3.7,0.01,0.59,11.64,11.68,0,0.02,3
9280,1.5309e+07,0,-3.93,0.01,0.81,12.12,12.17,0,0.02,3
9322,1.5319e+07,0,-4.14,0.01,1.05,12.6,12.65,0,0.02,3
9363,1.533e+07,0,-4.35,0.01,1.33,13.12,13.17,0,0.02,3
9405,1.534e+07,0,-4.52,0.01,1.65,13.66,13.72,0,0.02,3
9445,1.535e+07,0,-4.65,0.01,2,14.23,14.28,0,0.02,3
9486,1.5361e+07,0,-4.76,0.01,2.42,14.87,14.92,0,0.02,3
9530,1.5371e+07,0,-4.79,0.01,2.83,15.48,15.54,0,0.03,3
9571,1.5381e+07,0,-4.76,0.01,3.27,16.13,16.19,0,0.03,3
9611,1.5391e+07,0,-4.68,0.01,3.73,16.81,16.87,0,0.03,3
9652,1.5401e+07,0,-4.51,0.01,4.28,17.59,17.64,0,0.03,3
9689,1.5412e+07,0,-4.28,0.01,4.79,18.34,18.39,0,0.03,3
9729,1.5422e+07,0,-3.99,0.01,5.32,19.13,19.18,0,0.03,3
9770,1.5432e+07,0,-3.63,0.01,5.86,19.96,20.01,0,0.03,3
9811,1.5442e+07,0,-3.19,0.01,6.4,20.83,20.87,0,0.03,3
9852,1.5452e+07,0,-2.63,0.01,6.94,21.73,21.76,0,0.03,3
9895,1.5462e+07,0,-1.99,0.01,7.47,22.67,22.7,0.02,0.03,3
9940,1.5472e+07,0,-1.32,0.01,7.98,23.65,23.67,0.02,0.02,3
9982,1.5482e+07,0,-0.55,0.01,8.51,24.77,24.78,0.02,0.02,3
10022,1.5492e+07,0,0.14,0.01,8.96,25.81,25.81,0.02,0.02,3
10063,1.5502e+07,0,0.84,0.01,9.37,26.88,26.87,0.02,0.02,3
10103,1.5513e+07,0,1.55,0.01,9.76,28,27.98,0.02,0.02,3
10144,1.5523e+07,0,2.33,0.01,10.14,29.27,29.24,0.02,0.02,3
10181,1.5534e+07,0,3.04,0.01,10.46,30.46,30.43,0.02,0.02,3
10222,1.5544e+07,0,3.73,0.01,10.76,31.7,31.65,0.02,0.02,3
10264,1.5554e+07,0,4.41,0.01,11.04,32.97,32.92,0.02,0.02,3
10304,1.5564e+07,0,5.05,0.01,11.28,34.28,34.22,0.02,0.02,3
10349,1.5575e+07,0,5.75,0.01,11.51,35.76,35.69,0.02,0.02,3
10389,1.5585e+07,0,6.46,0.01,11.71,37.31,37.23,0.02,0.02,3
10430,1.5595e+07,0,7.12,0.01,11.88,38.76,38.67,0.02,0.02,3
10470,1.5605e+07,0,7.8,0.01,12.01,40.26,40.17,0.02,0.02,3
10504,1.5615e+07,0,8.54,0.01,12.13,41.97,41.86,0.02,0.02,3
10545,1.5626e+07,0,9.24,0.01,12.2,43.57,43.45,0.02,0.02,3
10586,1.5637e+07,0,9.96,0.01,12.23,45.19,45.07,0.02,0.02,3
10626,1.5647e+07,0,10.78,0.01,12.21,46.99,46.86,0.02,0.02,3
10667,1.5657e+07,0,11.56,0.01,12.14,48.63,48.49,0.02,0.02,3
10709,1.5667e+07,0,12.47,0.01,12.01,50.45,50.29,0.04,0.02,3
10756,1.5719e+07,0,17.11,0.01,10.81,58.71,58.5,0.04,0.03,3
10798,1.5729e+07,0,18.1,0.01,10.47,60.28,60.06,0.04,0.03,3
10838,1.5739e+07,0,19.09,0.01,10.11,61.82,61.59,0.04,0.03,3
10879,1.575e+07,0,20.08,0.01,9.72,63.34,63.1,0.04,0.03,3
10920,1.576e+07,0,21.15,0.01,9.27,64.97,64.72,0.04,0.03,3
10962,1.5771e+07,0,22.22,0.01,8.79,66.58,66.32,0.04,0.03,3
11007,1.5781e+07,0,23.22,0.01,8.35,68.02,67.74,0.04,0.05,3
11047,1.5792e+07,0,24.37,0.01,7.86,69.56,69.27,0.04,0.05,3
11088,1.5802e+07,0,25.44,0.01,7.41,70.93,70.63,0.04,0.05,3
11131,1.5812e+07,0,26.57,0.01,6.92,72.38,72.07,0.04,0.05,3
11172,1.5823e+07,0,27.57,0.01,6.48,73.66,73.34,0.04,0.05,3
11213,1.5833e+07,0,28.52,0.01,6.04,74.89,74.56,0.04,0.05,3
11253,1.5843e+07,0,29.47,0.01,5.62,76.08,75.74,0.04,0.05,3
11295,1.5854e+07,0,30.51,0.01,5.17,77.35,77,0.04,0.05,3
11335,1.5864e+07,0,31.48,0.01,4.76,78.48,78.12,0.04,0.05,3
11378,1.5874e+07,0,32.48,0.01,4.38,79.57,79.2,0.08,0.05,3
11423,1.5884e+07,0,33.52,0.01,4,80.63,80.25,0.08,0.06,3
11464,1.5894e+07,0,34.57,0.01,3.65,81.67,81.27,0.08,0.06,3
11505,1.5905e+07,0,35.72,0.01,3.27,82.77,82.37,0.08,0.06,3
11546,1.5915e+07,0,36.75,0.01,2.95,83.76,83.34,0.08,0.06,3
11584,1.5926e+07,0,37.89,0.01,2.62,84.82,84.4,0.08,0.06,3
11624,1.5935e+07,0,38.95,0.01,2.33,85.77,85.34,0.08,0.06,3
11665,1.5946e+07,0,40.03,0.01,2.06,86.71,86.27,0.08,0.06,3
11707,1.5956e+07,0,41.24,0.01,1.78,87.72,87.27,0.08,0.06,3
11747,1.5966e+07,0,42.37,0.01,1.54,88.63,88.16,0.08,0.06,3
11788,1.5977e+07,0,43.5,0.01,1.34,89.52,89.04,0.08,0.06,3
11832,1.5986e+07,0,44.6,0.01,1.16,90.38,89.89,0.08,0.1,3
11873,1.5997e+07,0,45.64,0.01,1.01,91.22,90.73,0.08,0.1,3
11915,1.6007e+07,0,46.63,0.01,0.89,92.05,91.54,0.08,0.1,3
11958,1.602e+07,0,47.88,0.01,0.76,93.1,92.59,0.08,0.1,3
11999,1.603e+07,0,48.94,0.01,0.68,93.99,93.47,0.08,0.1,3
12040,1.6041e+07,0,49.92,0.01,0.63,94.8,94.27,0.08,0.1,3
12083,1.6051e+07,0,50.93,0.01,0.6,95.62,95.09,0.08,0.1,3
12124,1.6061e+07,0,52.04,0.01,0.58,96.55,96,0.14,0.1,3
12165,1.6071e+07,0,53,0.01,0.58,97.41,96.85,0.14,0.1,3
12211,1.6082e+07,0,53.94,0.01,0.58,98.28,97.72,0.14,0.1,3
12253,1.6092e+07,0,54.91,0.01,0.58,99.18,98.61,0.14,0.16,3
12294,1.6102e+07,0,55.93,0.01,0.59,100.09,99.52,0.14,0.16,3
12338,1.6115e+07,0,57.22,0.01,0.6,101.29,100.71,0.14,0.16,3
12379,1.6126e+07,0,58.3,0.01,0.63,102.34,101.75,0.14,0.16,3
12420,1.6136e+07,0,59.29,0.01,0.66,103.31,102.71,0.14,0.16,3
12462,1.6146e+07,0,60.35,0.01,0.68,104.39,103.79,0.14,0.16,3
12503,1.6157e+07,0,61.28,0.01,0.71,105.41,104.8,0.14,0.16,3
12543,1.6167e+07,0,62.19,0.01,0.72,106.45,105.84,0.14,0.16,3
12584,1.6177e+07,0,63.09,0.01,0.73,107.51,106.9,0.14,0.16,3
12628,1.6188e+07,0,64.07,0.01,0.74,108.72,108.09,0.14,0.25,3
12670,1.6198e+07,0,65.01,0.01,0.73,109.95,109.32,0.14,0.25,3
12710,1.6208e+07,0,65.85,0.01,0.72,111.09,110.46,0.14,0.25,3
12751,1.6218e+07,0,66.69,0.01,0.71,112.26,111.62,0.14,0.25,3
12789,1.6228e+07,0,67.48,0.01,0.7,113.44,112.8,0.14,0.25,3
12830,1.6239e+07,0,68.23,0.01,0.68,114.64,113.99,0.14,0.25,3
12869,1.6249e+07,0,68.99,0.01,0.65,115.98,115.33,0.14,0.25,3
12911,1.626e+07,0,69.63,0.01,0.61,117.22,116.57,0.14,0.25,3
12954,1.6271e+07,0,70.27,0.01,0.57,118.6,117.95,0.14,0.25,3
12994,1.6281e+07,0,70.8,0.01,0.52,119.87,119.21,0.14,0.25,3
13039,1.6291e+07,0,71.3,0.01,0.45,121.15,120.49,0.14,0.36,3
13080,1.6301e+07,0,71.79,0.01,0.35,122.57,121.92,0.14,0.36,3
13120,1.6312e+07,0,72.18,0.01,0.25,123.88,123.22,0.14,0.36,3
13161,1.6321e+07,0,72.54,0.01,0.13,125.2,124.54,0.14,0.36,3
13201,1.6331e+07,0,72.88,0.01,0,126.52,125.86,0.14,0.36,3
13241,1.6342e+07,0,73.21,0.01,-0.13,127.97,127.3,0.14,0.36,3
13282,1.6353e+07,0,73.47,0.01,-0.25,129.14,128.48,0.14,0.36,3
13322,1.6363e+07,0,73.77,0.01,-0.4,130.56,129.9,0.14,0.36,3
13363,1.6373e+07,0,74.02,0.01,-0.54,131.84,131.18,0.14,0.36,3
13404,1.6383e+07,0,74.28,0.01,-0.7,133.23,132.57,0.14,0.36,3
13449,1.6393e+07,0,74.5,0.01,-0.85,134.48,133.82,0.14,0.45,3
13489,1.6404e+07,0,74.73,0.01,-1,135.73,135.06,0.14,0.45,3
13530,1.6414e+07,0,74.96,0.01,-1.16,136.96,136.29,0.14,0.45,3
13570,1.6424e+07,0,75.19,0.01,-1.32,138.19,137.52,0.14,0.45,3
13612,1.6437e+07,0,75.48,0.01,-1.55,139.89,139.22,0.14,0.45,3
13655,1.6447e+07,0,75.69,0.01,-1.71,141.1,140.43,0.18,0.45,3
13696,1.6457e+07,0,75.92,0.01,-1.87,142.31,141.63,0.18,0.45,3
13737,1.6468e+07,0,76.14,0.01,-2.03,143.5,142.83,0.18,0.45,3
13777,1.6478e+07,0,76.35,0.01,-2.2,144.69,144.02,0.18,0.45,3
13818,1.6488e+07,0,76.57,0.01,-2.38,146,145.33,0.18,0.45,3
13863,1.6498e+07,0,76.75,0.01,-2.56,147.19,146.52,0.18,0.49,3
13905,1.6509e+07,0,76.92,0.01,-2.76,148.51,147.84,0.18,0.49,3
13946,1.6519e+07,0,77.07,0.01,-2.94,149.72,149.04,0.18,0.49,3
13986,1.6529e+07,0,77.21,0.01,-3.11,150.92,150.24,0.18,0.49,3
14027,1.6539e+07,0,77.36,0.01,-3.27,152.12,151.44,0.18,0.49,3
14067,1.6549e+07,0,77.53,0.01,-3.43,153.43,152.75,0.18,0.49,3
14108,1.6559e+07,0,77.68,0.01,-3.57,154.62,153.94,0.18,0.49,3
14151,1.657e+07,0,77.81,0.01,-3.69,155.81,155.13,0.18,0.49,3
14191,1.658e+07,0,77.94,0.01,-3.8,157,156.32,0.18,0.49,3
14232,1.659e+07,0,78.08,0.01,-3.9,158.19,157.51,0.18,0.49,3
14276,1.6601e+07,0,78.23,0.01,-4,159.5,158.82,0.18,0.44,3
14317,1.6611e+07,0,78.36,0.01,-4.07,160.69,160.01,0.18,0.44,3
14357,1.6621e+07,0,78.51,0.01,-4.13,161.88,161.2,0.18,0.44,3
14399,1.6631e+07,0,78.65,0.01,-4.17,163.06,162.37,0.18,0.44,3
14436,1.6641e+07,0,78.76,0.01,-4.19,164.24,163.56,0.18,0.44,3
14481,1.6653e+07,0,78.89,0.01,-4.19,165.77,165.09,0.2,0.44,3
14522,1.6664e+07,0,79.01,0.01,-4.19,166.95,166.27,0.2,0.44,3
14563,1.6675e+07,0,79.12,0.01,-4.17,168.26,167.58,0.2,0.44,3
14605,1.6684e+07,0,79.2,0.01,-4.13,169.46,168.78,0.2,0.44,3
14646,1.6694e+07,0,79.29,0.01,-4.08,170.66,169.98,0.2,0.44,3
14690,1.6704e+07,0,79.35,0.01,-3.99,171.87,171.18,0.2,0.35,3
14731,1.6715e+07,0,79.36,0.01,-3.88,173.07,172.39,0.2,0.35,3
14771,1.6725e+07,0,79.33,0.01,-3.75,174.29,173.61,0.2,0.35,3
14812,1.6738e+07,0,79.21,0.01,-3.55,175.88,175.2,0.2,0.35,3
14849,1.6748e+07,0,79.06,0.01,-3.37,177.25,176.57,0.2,0.35,3
14890,1.6758e+07,0,78.88,0.01,-3.19,178.51,177.83,0.2,0.35,3
14933,1.6768e+07,0,78.69,0.01,-2.99,179.77,179.09,0.2,0.35,3
14975,1.6778e+07,0,78.48,0.01,-2.78,181.05,180.38,0.2,0.35,3
15016,1.6789e+07,0,78.27,0.01,-2.56,182.33,181.66,0.2,0.35,3
15060,1.68e+07,0,78.06,0.01,-2.31,183.62,182.95,0.2,0.35,3
15101,1.681e+07,0,77.82,0.01,-2.02,185.04,184.37,0.2,0.34,3
15143,1.682e+07,0,77.6,0.01,-1.74,186.33,185.66,0.2,0.34,3
15186,1.6833e+07,0,77.32,0.01,-1.34,188.14,187.48,0.2,0.34,3
15224,1.6844e+07,0,77.15,0.01,-1.04,189.43,188.76,0.2,0.34,3
15269,1.6854e+07,0,77,0.01,-0.72,190.7,190.04,0.2,0.34,3
15310,1.6865e+07,0,76.86,0.01,-0.36,192.09,191.43,0.2,0.34,3
15351,1.6874e+07,0,76.76,0.01,-0.03,193.34,192.68,0.2,0.34,3
15391,1.6884e+07,0,76.69,0.01,0.29,194.58,193.92,0.2,0.34,3
15433,1.6895e+07,0,76.65,0.01,0.63,195.8,195.14,0.2,0.34,3
15478,1.6905e+07,0,76.64,0.01,0.96,197.02,196.35,0.2,0.33,3
15519,1.6915e+07,0,76.68,0.01,1.29,198.22,197.55,0.2,0.33,3
15559,1.6926e+07,0,76.77,0.01,1.65,199.52,198.85,0.2,0.33,3
15600,1.6936e+07,0,76.89,0.01,1.96,200.68,200.01,0.2,0.33,3
15641,1.6946e+07,0,77.05,0.01,2.3,201.93,201.27,0.2,0.33,3
15678,1.6957e+07,0,77.22,0.01,2.59,203.06,202.39,0.2,0.33,3
15721,1.6966e+07,0,77.39,0.01,2.86,204.16,203.49,0.2,0.33,3
15763,1.6977e+07,0,77.56,0.01,3.11,205.24,204.57,0.2,0.33,3
15804,1.6988e+07,0,77.76,0.01,3.36,206.41,205.74,0.2,0.33,3
15845,1.6998e+07,0,77.94,0.01,3.58,207.44,206.77,0.2,0.33,3
15889,1.7008e+07,0,78.1,0.01,3.79,208.43,207.76,0.2,0.33,3
15930,1.7019e+07,0,78.29,0.01,4,209.48,208.81,0.2,0.33,3
15970,1.7029e+07,0,78.46,0.01,4.2,210.49,209.82,0.2,0.33,3
16012,1.7039e+07,0,78.6,0.01,4.37,211.36,210.69,0.2,0.33,3
16047,1.705e+07,0,78.72,0.01,4.53,212.19,211.52,0.2,0.33,3
16092,1.7063e+07,0,78.89,0.01,4.71,213.21,212.54,0.17,0.33,3
16133,1.7073e+07,0,79.01,0.01,4.83,213.95,213.27,0.17,0.33,3
16173,1.7082e+07,0,79.14,0.01,4.93,214.65,213.98,0.17,0.33,3
16214,1.7093e+07,0,79.28,0.01,5,215.31,214.64,0.17,0.33,3
16254,1.7103e+07,0,79.43,0.01,5.05,215.94,215.26,0.17,0.33,3
16302,1.7113e+07,0,79.58,0.01,5.07,216.53,215.86,0.17,0.34,3
16343,1.7123e+07,0,79.72,0.01,5.06,217.09,216.42,0.17,0.34,3
16385,1.7133e+07,0,79.87,0.01,5.01,217.61,216.94,0.17,0.34,3
16426,1.7144e+07,0,80.03,0.01,4.92,218.15,217.47,0.17,0.34,3
16463,1.7154e+07,0,80.15,0.01,4.8,218.59,217.91,0.17,0.34,3
16507,1.7166e+07,0,80.31,0.01,4.59,219.1,218.43,0.17,0.34,3
16547,1.7176e+07,0,80.43,0.01,4.39,219.45,218.78,0.17,0.34,3
16586,1.7187e+07,0,80.58,0.01,4.15,219.76,219.09,0.17,0.34,3
16627,1.7197e+07,0,80.73,0.01,3.87,220.05,219.37,0.17,0.34,3
16668,1.7207e+07,0,80.88,0.01,3.55,220.3,219.62,0.17,0.34,3
16713,1.7217e+07,0,81.03,0.01,3.19,220.52,219.84,0.17,0.34,3
16754,1.7227e+07,0,81.2,0.01,2.78,220.72,220.04,0.17,0.34,3
16795,1.7238e+07,0,81.41,0.01,2.27,220.93,220.25,0.17,0.34,3
16837,1.7248e+07,0,81.62,0.01,1.75,221.09,220.42,0.17,0.34,3
16875,1.7258e+07,0,81.86,0.01,1.19,221.24,220.57,0.17,0.34,3
16918,1.7268e+07,0,82.12,0.01,0.59,221.37,220.7,0.17,0.34,3
16955,1.7278e+07,0,82.4,0.01,-0.04,221.49,220.82,0.17,0.34,3
16996,1.7288e+07,0,82.69,0.01,-0.7,221.6,220.92,0.17,0.34,3
17037,1.7299e+07,0,83.02,0.01,-1.44,221.69,221.02,0.17,0.34,3
17079,1.7309e+07,0,83.36,0.01,-2.17,221.76,221.08,0.17,0.34,3
17124,1.7319e+07,0,83.69,0.01,-2.8,221.8,221.12,0.17,0.34,3
17164,1.733e+07,0,84.03,0.01,-3.41,221.81,221.13,0.17,0.34,3
17205,1.734e+07,0,84.37,0.01,-3.98,221.81,221.13,0.17,0.34,3
17242,1.735e+07,0,84.71,0.01,-4.52,221.8,221.12,0.17,0.34,3
17283,1.736e+07,0,85.07,0.01,-5.06,221.77,221.09,0.17,0.34,3
17321,1.7371e+07,0,85.39,0.01,-5.52,221.74,221.06,0.17,0.34,3
17361,1.7381e+07,0,85.7,0.01,-5.94,221.71,221.02,0.17,0.34,3
17403,1.7391e+07,0,85.99,0.01,-6.33,221.68,221,0.17,0.34,3
17443,1.7401e+07,0,86.31,0.01,-6.76,221.67,220.99,0.17,0.34,3
17484,1.7411e+07,0,86.53,0.01,-7.06,221.68,220.99,0.17,0.34,3
17530,1.7422e+07,0,86.8,0.01,-7.42,221.71,221.02,0.17,0.35,3
17571,1.7432e+07,0,87,0.01,-7.72,221.77,221.08,0.17,0.35,3
17612,1.7442e+07,0,87.17,0.01,-8.02,221.85,221.16,0.17,0.35,3
17654,1.7455e+07,0,87.33,0.01,-8.39,221.97,221.28,0.17,0.35,3
17692,1.7465e+07,0,87.43,0.01,-8.68,222.09,221.4,0.17,0.35,3
17732,1.7475e+07,0,87.51,0.01,-8.95,222.24,221.55,0.17,0.35,3
17773,1.7486e+07,0,87.59,0.01,-9.26,222.42,221.73,0.17,0.35,3
17814,1.7496e+07,0,87.62,0.01,-9.52,222.61,221.91,0.17,0.35,3
17854,1.7506e+07,0,87.64,0.01,-9.77,222.8,222.11,0.17,0.35,3
17902,1.7518e+07,0,87.63,0.01,-10.08,223.08,222.39,0.17,0.35,3
17944,1.7529e+07,0,87.6,0.01,-10.29,223.33,222.63,0.17,0.35,3
17985,1.7539e+07,0,87.52,0.01,-10.5,223.61,222.91,0.17,0.35,3
18033,1.7555e+07,0,87.39,0.01,-10.73,224,223.31,0.17,0.35,3
18074,1.7565e+07,0,87.31,0.01,-10.85,224.27,223.58,0.17,0.35,3
18115,1.7576e+07,0,87.23,0.01,-10.93,224.58,223.88,0.17,0.35,3
18156,1.7586e+07,0,87.17,0.01,-10.96,224.87,224.17,0.17,0.35,3
18196,1.7596e+07,0,87.13,0.01,-10.96,225.18,224.48,0.17,0.35,3
18237,1.7606e+07,0,87.11,0.01,-10.92,225.5,224.8,0.17,0.35,3
18278,1.7617e+07,0,87.08,0.01,-10.84,225.86,225.17,0.17,0.35,3
18323,1.7626e+07,0,87.06,0.01,-10.73,226.2,225.51,0.17,0.35,3
18364,1.7637e+07,0,87.06,0.01,-10.58,226.55,225.86,0.17,0.35,3
18405,1.7647e+07,0,87.08,0.01,-10.38,226.96,226.27,0.17,0.35,3
18446,1.7658e+07,0,87.1,0.01,-10.16,227.35,226.66,0.17,0.35,3
18485,1.7668e+07,0,87.14,0.01,-9.9,227.8,227.1,0.18,0.35,3
18525,1.7678e+07,0,87.18,0.01,-9.65,228.22,227.53,0.18,0.35,3
18566,1.7689e+07,0,87.24,0.01,-9.42,228.67,227.97,0.18,0.35,3
18608,1.77e+07,0,87.33,0.01,-9.18,229.2,228.5,0.18,0.35,3
18648,1.771e+07,0,87.43,0.01,-8.99,229.7,229.01,0.18,0.35,3
18689,1.772e+07,0,87.54,0.01,-8.82,230.25,229.56,0.18,0.35,3
18733,1.773e+07,0,87.66,0.01,-8.69,230.82,230.13,0.18,0.35,3
18775,1.7741e+07,0,87.83,0.01,-8.59,231.47,230.78,0.18,0.35,3
18816,1.7751e+07,0,88,0.01,-8.53,232.09,231.4,0.18,0.35,3
18859,1.7761e+07,0,88.18,0.01,-8.51,232.73,232.03,0.18,0.35,3
18894,1.7771e+07,0,88.39,0.01,-8.53,233.44,232.75,0.18,0.35,3
18934,1.7782e+07,0,88.6,0.01,-8.57,234.11,233.42,0.18,0.35,3
18975,1.7792e+07,0,88.81,0.01,-8.63,234.77,234.08,0.18,0.35,3
19015,1.7802e+07,0,89.02,0.01,-8.71,235.51,234.81,0.18,0.35,3
19057,1.7812e+07,0,89.2,0.01,-8.8,236.16,235.47,0.18,0.35,3
19097,1.7823e+07,0,89.38,0.01,-8.89,236.82,236.13,0.18,0.35,3
19142,1.7832e+07,0,89.53,0.01,-8.98,237.46,236.77,0.18,0.32,3
19184,1.7843e+07,0,89.65,0.01,-9.07,238.1,237.4,0.18,0.32,3
19227,1.7853e+07,0,89.75,0.01,-9.15,238.72,238.03,0.18,0.32,3
19272,1.7869e+07,0,89.88,0.01,-9.27,239.74,239.04,0.17,0.32,3
19312,1.788e+07,0,89.92,0.01,-9.32,240.31,239.62,0.17,0.32,3
19354,1.789e+07,0,89.91,0.01,-9.38,240.94,240.24,0.17,0.32,3
19395,1.7901e+07,0,89.86,0.01,-9.42,241.49,240.79,0.17,0.32,3
19435,1.7911e+07,0,89.77,0.01,-9.45,242.03,241.33,0.17,0.32,3
19477,1.7921e+07,0,89.64,0.01,-9.46,242.55,241.86,0.17,0.32,3
19521,1.7931e+07,0,89.45,0.01,-9.46,243.06,242.36,0.17,0.29,3
19562,1.7941e+07,0,89.22,0.01,-9.42,243.55,242.85,0.17,0.29,3
19604,1.7951e+07,0,88.96,0.01,-9.36,244.01,243.32,0.17,0.29,3
19648,1.7964e+07,0,88.55,0.01,-9.24,244.6,243.91,0.17,0.29,3
19689,1.7974e+07,0,88.19,0.01,-9.14,245.03,244.34,0.17,0.29,3
19729,1.7984e+07,0,87.8,0.01,-9.02,245.45,244.76,0.17,0.29,3
19770,1.7994e+07,0,87.36,0.01,-8.89,245.91,245.21,0.17,0.29,3
19811,1.8005e+07,0,86.93,0.01,-8.77,246.31,245.62,0.17,0.29,3
19852,1.8015e+07,0,86.49,0.01,-8.66,246.72,246.03,0.17,0.29,3
19893,1.8025e+07,0,86.04,0.01,-8.55,247.13,246.44,0.17,0.29,3
19937,1.8036e+07,0,85.54,0.01,-8.45,247.58,246.89,0.17,0.27,3
19980,1.8046e+07,0,85.09,0.01,-8.37,248,247.31,0.15,0.27,3
20020,1.8056e+07,0,84.66,0.01,-8.31,248.42,247.73,0.15,0.27,3
20061,1.8066e+07,0,84.25,0.01,-8.28,248.85,248.16,0.15,0.27,3
20101,1.8079e+07,0,83.74,0.01,-8.27,249.46,248.77,0.15,0.27,3
20141,1.8089e+07,0,83.42,0.01,-8.28,249.89,249.21,0.15,0.27,3
20183,1.8099e+07,0,83.12,0.01,-8.31,250.34,249.65,0.15,0.27,3
20224,1.811e+07,0,82.82,0.01,-8.36,250.78,250.1,0.15,0.27,3
20265,1.812e+07,0,82.55,0.01,-8.42,251.22,250.53,0.15,0.27,3
20306,1.8131e+07,0,82.32,0.01,-8.48,251.7,251.01,0.15,0.27,3
20352,1.8142e+07,0,82.08,0.01,-8.55,252.16,251.48,0.15,0.25,3
20393,1.8152e+07,0,81.88,0.01,-8.62,252.57,251.89,0.15,0.25,3
20433,1.8162e+07,0,81.7,0.01,-8.68,252.98,252.29,0.15,0.25,3
20474,1.8172e+07,0,81.56,0.01,-8.74,253.35,252.67,0.15,0.25,3
20518,1.8185e+07,0,81.39,0.01,-8.81,253.82,253.14,0.15,0.25,3
20559,1.8195e+07,0,81.28,0.01,-8.84,254.15,253.47,0.15,0.25,3
20601,1.8206e+07,0,81.18,0.01,-8.86,254.49,253.81,0.15,0.25,3
20641,1.8216e+07,0,81.07,0.01,-8.85,254.78,254.1,0.15,0.25,3
20682,1.8226e+07,0,80.96,0.01,-8.81,255.05,254.37,0.15,0.25,3
20726,1.8236e+07,0,80.85,0.01,-8.76,255.3,254.62,0.15,0.25,3
20769,1.8247e+07,0,80.75,0.01,-8.66,255.56,254.88,0.13,0.24,3
20812,1.8257e+07,0,80.67,0.01,-8.55,255.76,255.08,0.13,0.24,3
20852,1.8267e+07,0,80.59,0.01,-8.4,255.95,255.27,0.13,0.24,3
20894,1.8278e+07,0,80.45,0.01,-8.22,256.15,255.47,0.13,0.24,3
20934,1.8288e+07,0,80.3,0.01,-8.02,256.32,255.64,0.13,0.24,3
20972,1.8299e+07,0,80.18,0.01,-7.82,256.47,255.79,0.13,0.24,3
21014,1.8309e+07,0,80.03,0.01,-7.62,256.61,255.93,0.13,0.24,3
21054,1.832e+07,0,79.85,0.01,-7.41,256.77,256.09,0.13,0.24,3
21096,1.833e+07,0,79.73,0.01,-7.24,256.92,256.24,0.13,0.24,3
21140,1.8341e+07,0,79.57,0.01,-7.1,257.06,256.38,0.13,0.24,3
21181,1.8351e+07,0,79.35,0.01,-6.98,257.23,256.55,0.13,0.23,3
21221,1.8361e+07,0,79.17,0.01,-6.9,257.39,256.72,0.13,0.23,3
21262,1.8371e+07,0,79,0.01,-6.86,257.56,256.88,0.13,0.23,3
21304,1.8384e+07,0,78.77,0.01,-6.85,257.77,257.09,0.13,0.23,3
21345,1.8394e+07,0,78.58,0.01,-6.87,257.93,257.25,0.13,0.23,3
21386,1.8404e+07,0,78.46,0.01,-6.92,258.06,257.39,0.13,0.23,3
21426,1.8415e+07,0,78.33,0.01,-6.97,258.19,257.52,0.13,0.23,3
21466,1.8425e+07,0,78.21,0.01,-7.05,258.3,257.63,0.13,0.23,3
21506,1.8435e+07,0,78.11,0.01,-7.13,258.39,257.72,0.13,0.23,3
21551,1.8445e+07,0,78.02,0.01,-7.23,258.46,257.79,0.13,0.22,3
21595,1.8455e+07,0,77.93,0.01,-7.34,258.52,257.85,0.11,0.22,3
21635,1.8466e+07,0,77.85,0.01,-7.43,258.55,257.88,0.11,0.22,3
21676,1.8476e+07,0,77.78,0.01,-7.54,258.57,257.89,0.11,0.22,3
21719,1.8489e+07,0,77.65,0.01,-7.68,258.56,257.88,0.11,0.22,3
21762,1.85e+07,0,77.55,0.01,-7.78,258.52,257.85,0.11,0.22,3
21803,1.8511e+07,0,77.44,0.01,-7.89,258.45,257.78,0.11,0.22,3
21843,1.8521e+07,0,77.32,0.01,-7.99,258.38,257.71,0.11,0.22,3
21884,1.8531e+07,0,77.17,0.01,-8.09,258.3,257.63,0.11,0.22,3
21924,1.8541e+07,0,77.02,0.01,-8.2,258.22,257.54,0.11,0.22,3
21970,1.8551e+07,0,76.86,0.01,-8.33,258.13,257.46,0.11,0.22,3
22010,1.8562e+07,0,76.71,0.01,-8.47,258.05,257.38,0.11,0.22,3
22051,1.8572e+07,0,76.54,0.01,-8.66,257.96,257.29,0.11,0.22,3
22093,1.8581e+07,0,76.39,0.01,-8.84,257.88,257.21,0.11,0.22,3
22130,1.8592e+07,0,76.26,0.01,-9.05,257.81,257.14,0.11,0.22,3
22173,1.8605e+07,0,76.08,0.01,-9.33,257.73,257.06,0.11,0.22,3
22213,1.8615e+07,0,75.93,0.01,-9.57,257.68,257.01,0.11,0.22,3
22254,1.8626e+07,0,75.8,0.01,-9.85,257.63,256.96,0.11,0.22,3
22295,1.8636e+07,0,75.7,0.01,-10.11,257.6,256.93,0.11,0.22,3
22335,1.8646e+07,0,75.57,0.01,-10.37,257.57,256.89,0.11,0.22,3
22385,1.8659e+07,0,75.45,0.01,-10.7,257.51,256.84,0.09,0.2,3
22426,1.867e+07,0,75.38,0.01,-10.92,257.46,256.79,0.09,0.2,3
22467,1.868e+07,0,75.26,0.01,-11.13,257.42,256.74,0.09,0.2,3
22508,1.8691e+07,0,75.15,0.01,-11.3,257.36,256.69,0.09,0.2,3
22545,1.8701e+07,0,75.08,0.01,-11.46,257.29,256.62,0.09,0.2,3
22586,1.8711e+07,0,75.04,0.01,-11.58,257.23,256.55,0.09,0.2,3
22627,1.8722e+07,0,75.02,0.01,-11.67,257.17,256.49,0.09,0.2,3
22667,1.8732e+07,0,75.04,0.01,-11.73,257.11,256.44,0.09,0.2,3
22708,1.8743e+07,0,75.11,0.01,-11.76,257.06,256.38,0.09,0.2,3
22754,1.8753e+07,0,75.18,0.01,-11.75,257.01,256.33,0.09,0.2,3
22795,1.8763e+07,0,75.25,0.01,-11.71,256.97,256.29,0.09,0.19,3
22835,1.8773e+07,0,75.37,0.01,-11.67,256.94,256.26,0.09,0.19,3
22877,1.8784e+07,0,75.53,0.01,-11.62,256.95,256.27,0.09,0.19,3
22917,1.8794e+07,0,75.74,0.01,-11.55,256.99,256.32,0.09,0.19,3
22955,1.8804e+07,0,75.98,0.01,-11.48,257.06,256.38,0.09,0.19,3
22994,1.8815e+07,0,76.21,0.01,-11.41,257.14,256.47,0.09,0.19,3
23034,1.8825e+07,0,76.47,0.01,-11.34,257.27,256.59,0.09,0.19,3
23075,1.8835e+07,0,76.76,0.01,-11.28,257.42,256.74,0.09,0.19,3
23118,1.8846e+07,0,76.99,0.01,-11.24,257.58,256.9,0.09,0.19,3
23165,1.8856e+07,0,77.2,0.01,-11.2,257.77,257.09,0.1,0.19,3
23205,1.8867e+07,0,77.43,0.01,-11.17,257.99,257.31,0.1,0.18,3
23246,1.8877e+07,0,77.63,0.01,-11.17,258.21,257.53,0.1,0.18,3
23287,1.8887e+07,0,77.84,0.01,-11.18,258.47,257.79,0.1,0.18,3
23327,1.8898e+07,0,78.03,0.01,-11.2,258.71,258.03,0.1,0.18,3
23368,1.891e+07,0,78.25,0.01,-11.26,259.03,258.35,0.1,0.18,3
23408,1.8921e+07,0,78.37,0.01,-11.31,259.26,258.58,0.1,0.18,3
23449,1.893e+07,0,78.45,0.01,-11.36,259.49,258.81,0.1,0.18,3
23489,1.8941e+07,0,78.5,0.01,-11.41,259.71,259.02,0.1,0.18,3
23530,1.8951e+07,0,78.52,0.01,-11.47,259.92,259.23,0.1,0.18,3
23576,1.8961e+07,0,78.51,0.01,-11.52,260.12,259.43,0.1,0.16,3
23616,1.8971e+07,0,78.48,0.01,-11.56,260.3,259.62,0.1,0.16,3
23657,1.8981e+07,0,78.41,0.01,-11.59,260.47,259.78,0.1,0.16,3
23697,1.8991e+07,0,78.32,0.01,-11.59,260.62,259.93,0.1,0.16,3
23738,1.9001e+07,0,78.19,0.01,-11.56,260.76,260.08,0.1,0.16,3
23775,1.9012e+07,0,78.08,0.01,-11.51,260.87,260.19,0.1,0.16,3
23816,1.9022e+07,0,77.98,0.01,-11.42,260.97,260.28,0.1,0.16,3
23857,1.9032e+07,0,77.88,0.01,-11.3,261.06,260.37,0.1,0.16,3
23898,1.9043e+07,0,77.8,0.01,-11.14,261.14,260.46,0.1,0.16,3
23942,1.9053e+07,0,77.74,0.01,-10.96,261.22,260.54,0.1,0.16,3
23986,1.9064e+07,0,77.68,0.01,-10.73,261.29,260.61,0.08,0.16,3
24027,1.9074e+07,0,77.64,0.01,-10.49,261.36,260.68,0.08,0.16,3
24068,1.9084e+07,0,77.6,0.01,-10.24,261.43,260.75,0.08,0.16,3
24108,1.9094e+07,0,77.58,0.01,-9.98,261.51,260.84,0.08,0.16,3
24147,1.9107e+07,0,77.55,0.01,-9.66,261.63,260.95,0.08,0.16,3
24187,1.9116e+07,0,77.55,0.01,-9.42,261.73,261.05,0.08,0.16,3
24228,1.9127e+07,0,77.57,0.01,-9.19,261.84,261.16,0.08,0.16,3
24269,1.9136e+07,0,77.61,0.01,-8.98,261.96,261.28,0.08,0.16,3
24311,1.9147e+07,0,77.67,0.01,-8.78,262.09,261.42,0.08,0.16,3
24352,1.9157e+07,0,77.75,0.01,-8.61,262.24,261.56,0.08,0.16,3
24398,1.9167e+07,0,77.87,0.01,-8.43,262.4,261.72,0.08,0.15,3
24440,1.9178e+07,0,78,0.01,-8.28,262.55,261.87,0.08,0.15,3
24480,1.9187e+07,0,78.15,0.01,-8.14,262.69,262.01,0.08,0.15,3
24521,1.9197e+07,0,78.32,0.01,-8.01,262.82,262.15,0.08,0.15,3
24558,1.9208e+07,0,78.52,0.01,-7.87,262.96,262.29,0.08,0.15,3
24599,1.9219e+07,0,78.71,0.01,-7.73,263.07,262.39,0.08,0.15,3
24640,1.923e+07,0,78.93,0.01,-7.57,263.18,262.5,0.08,0.15,3
24680,1.9241e+07,0,79.09,0.01,-7.42,263.25,262.57,0.08,0.15,3
24725,1.9251e+07,0,79.23,0.01,-7.25,263.3,262.63,0.08,0.15,3
24767,1.9261e+07,0,79.34,0.01,-7.08,263.34,262.67,0.07,0.15,3
24812,1.9272e+07,0,79.43,0.01,-6.9,263.36,262.69,0.07,0.14,3
24852,1.9283e+07,0,79.52,0.01,-6.72,263.37,262.7,0.07,0.14,3
24893,1.9292e+07,0,79.6,0.01,-6.51,263.37,262.69,0.07,0.14,3
24932,1.9302e+07,0,79.67,0.01,-6.31,263.35,262.68,0.07,0.14,3
24969,1.9313e+07,0,79.74,0.01,-6.09,263.32,262.65,0.07,0.14,3
25010,1.9323e+07,0,79.78,0.01,-5.88,263.29,262.61,0.07,0.14,3
25050,1.9333e+07,0,79.82,0.01,-5.69,263.25,262.58,0.07,0.14,3
25091,1.9343e+07,0,79.85,0.01,-5.51,263.22,262.54,0.07,0.14,3
25134,1.9354e+07,0,79.88,0.01,-5.34,263.18,262.5,0.07,0.14,3
25174,1.9364e+07,0,79.9,0.01,-5.19,263.13,262.46,0.07,0.14,3
25219,1.9375e+07,0,79.93,0.01,-5.04,263.08,262.41,0.07,0.14,3
25259,1.9385e+07,0,79.96,0.01,-4.92,263.03,262.36,0.07,0.14,3
25301,1.9395e+07,0,79.99,0.01,-4.81,262.97,262.3,0.07,0.14,3
25341,1.9405e+07,0,80.03,0.01,-4.72,262.91,262.23,0.07,0.14,3
25385,1.9418e+07,0,80.09,0.01,-4.62,262.81,262.13,0.07,0.14,3
25426,1.9428e+07,0,80.13,0.01,-4.56,262.71,262.04,0.07,0.14,3
25466,1.9439e+07,0,80.18,0.01,-4.5,262.59,261.92,0.07,0.14,3
25509,1.945e+07,0,80.23,0.01,-4.45,262.46,261.78,0.07,0.14,3
25550,1.946e+07,0,80.28,0.01,-4.4,262.32,261.64,0.07,0.14,3
25591,1.947e+07,0,80.32,0.01,-4.36,262.16,261.48,0.07,0.14,3
25635,1.948e+07,0,80.35,0.01,-4.32,261.99,261.31,0.07,0.13,3
25677,1.949e+07,0,80.35,0.01,-4.27,261.78,261.1,0.07,0.13,3
25717,1.95e+07,0,80.32,0.01,-4.22,261.57,260.9,0.07,0.13,3
25757,1.9513e+07,0,80.25,0.01,-4.18,261.28,260.61,0.07,0.13,3
25795,1.9524e+07,0,80.18,0.01,-4.15,261.05,260.38,0.07,0.13,3
25837,1.9534e+07,0,80.1,0.01,-4.13,260.81,260.14,0.07,0.13,3
25877,1.9545e+07,0,80,0.01,-4.14,260.55,259.87,0.07,0.13,3
25918,1.9555e+07,0,79.9,0.01,-4.16,260.31,259.64,0.07,0.13,3
25959,1.9565e+07,0,79.78,0.01,-4.21,260.08,259.41,0.07,0.13,3
26004,1.9575e+07,0,79.65,0.01,-4.29,259.86,259.18,0.07,0.13,3
26045,1.9585e+07,0,79.49,0.01,-4.39,259.65,258.97,0.07,0.12,3
26086,1.9596e+07,0,79.31,0.01,-4.54,259.43,258.76,0.07,0.12,3
26127,1.9606e+07,0,79.13,0.01,-4.71,259.24,258.57,0.07,0.12,3
26167,1.9616e+07,0,78.94,0.01,-4.92,259.04,258.37,0.07,0.12,3
26209,1.9627e+07,0,78.75,0.01,-5.15,258.84,258.17,0.07,0.12,3
26249,1.9637e+07,0,78.6,0.01,-5.39,258.67,258,0.07,0.12,3
26290,1.9648e+07,0,78.47,0.01,-5.65,258.5,257.83,0.07,0.12,3
26333,1.9658e+07,0,78.34,0.01,-5.92,258.32,257.65,0.05,0.12,3
26373,1.9668e+07,0,78.2,0.01,-6.24,258.13,257.46,0.05,0.12,3
26420,1.9679e+07,0,78.09,0.01,-6.54,257.94,257.27,0.05,0.12,3
26460,1.9689e+07,0,77.96,0.01,-6.88,257.73,257.06,0.05,0.11,3
26501,1.97e+07,0,77.83,0.01,-7.2,257.54,256.87,0.05,0.11,3
26541,1.9711e+07,0,77.69,0.01,-7.53,257.34,256.66,0.05,0.11,3
26582,1.972e+07,0,77.53,0.01,-7.9,257.11,256.43,0.05,0.11,3
26621,1.9732e+07,0,77.35,0.01,-8.28,256.86,256.19,0.05,0.11,3
26663,1.9742e+07,0,77.18,0.01,-8.62,256.62,255.94,0.05,0.11,3
26704,1.9752e+07,0,77,0.01,-8.96,256.36,255.69,0.05,0.11,3
26744,1.9763e+07,0,76.78,0.01,-9.34,256.06,255.39,0.05,0.11,3
26785,1.9773e+07,0,76.56,0.01,-9.69,255.77,255.1,0.05,0.11,3
26832,1.9783e+07,0,76.35,0.01,-10.03,255.46,254.79,0.05,0.11,3
26872,1.9793e+07,0,76.14,0.01,-10.36,255.13,254.46,0.05,0.11,3
26913,1.9804e+07,0,75.95,0.01,-10.71,254.75,254.08,0.05,0.11,3
26953,1.9814e+07,0,75.8,0.01,-11.01,254.38,253.71,0.05,0.11,3
26994,1.9824e+07,0,75.68,0.01,-11.32,253.96,253.29,0.05,0.11,3
27031,1.9835e+07,0,75.6,0.01,-11.6,253.53,252.85,0.05,0.11,3
27072,1.9845e+07,0,75.56,0.01,-11.84,253.13,252.45,0.05,0.11,3
27115,1.9856e+07,0,75.53,0.01,-12.07,252.73,252.05,0.05,0.11,3
27157,1.9866e+07,0,75.51,0.01,-12.3,252.33,251.65,0.07,0.11,3
27198,1.9876e+07,0,75.51,0.01,-12.53,251.96,251.28,0.07,0.11,3
27243,1.9887e+07,0,75.52,0.01,-12.77,251.57,250.89,0.07,0.11,3
27285,1.9897e+07,0,75.54,0.01,-13,251.23,250.55,0.07,0.1,3
27325,1.9907e+07,0,75.57,0.01,-13.22,250.93,250.25,0.07,0.1,3
27366,1.9917e+07,0,75.61,0.01,-13.46,250.66,249.98,0.07,0.1,3
27413,1.9933e+07,0,75.66,0.01,-13.92,250.29,249.61,0.07,0.1,3
27453,1.9944e+07,0,75.69,0.01,-14.22,250.13,249.44,0.07,0.1,3
27495,1.9954e+07,0,75.72,0.01,-14.54,250,249.31,0.07,0.1,3
27535,1.9965e+07,0,75.76,0.01,-14.91,249.89,249.2,0.07,0.1,3
27577,1.9975e+07,0,75.81,0.01,-15.25,249.82,249.13,0.07,0.1,3
27617,1.9985e+07,0,75.86,0.01,-15.6,249.76,249.08,0.07,0.1,3
27662,1.9995e+07,0,75.89,0.01,-15.98,249.73,249.04,0.07,0.11,3
27703,2.0006e+07,0,75.9,0.01,-16.34,249.72,249.02,0.07,0.11,3
27744,2.0017e+07,0,75.9,0.01,-16.74,249.73,249.04,0.07,0.11,3
27785,2.0026e+07,0,75.89,0.01,-17.11,249.77,249.07,0.07,0.11,3
27825,2.0038e+07,0,75.86,0.01,-17.52,249.82,249.13,0.07,0.11,3
27868,2.0048e+07,0,75.82,0.01,-17.91,249.89,249.19,0.07,0.11,3
27909,2.0058e+07,0,75.76,0.01,-18.25,249.96,249.26,0.07,0.11,3
27950,2.0069e+07,0,75.67,0.01,-18.56,250.03,249.33,0.07,0.11,3
27991,2.008e+07,0,75.53,0.01,-18.87,250.11,249.41,0.07,0.11,3
28032,2.009e+07,0,75.36,0.01,-19.12,250.17,249.47,0.07,0.11,3
28077,2.01e+07,0,75.14,0.01,-19.37,250.24,249.54,0.07,0.11,3
28117,2.011e+07,0,74.93,0.01,-19.54,250.3,249.6,0.07,0.11,3
28159,2.0121e+07,0,74.66,0.01,-19.72,250.39,249.69,0.07,0.11,3
28199,2.0131e+07,0,74.37,0.01,-19.87,250.49,249.79,0.07,0.11,3
28240,2.0142e+07,0,74.04,0.01,-19.98,250.61,249.91,0.07,0.11,3
28282,2.0153e+07,0,73.66,0.01,-20.07,250.75,250.05,0.07,0.11,3
28322,2.0163e+07,0,73.28,0.01,-20.12,250.89,250.19,0.07,0.11,3
28363,2.0174e+07,0,72.88,0.01,-20.16,251.06,250.37,0.07,0.11,3
28403,2.0184e+07,0,72.52,0.01,-20.18,251.25,250.56,0.07,0.11,3
28444,2.0194e+07,0,72.16,0.01,-20.19,251.47,250.77,0.07,0.11,3
28492,2.0204e+07,0,71.82,0.01,-20.19,251.7,251.01,0.07,0.11,3
28532,2.0215e+07,0,71.47,0.01,-20.17,251.99,251.3,0.07,0.11,3
28573,2.0225e+07,0,71.16,0.01,-20.14,252.29,251.6,0.07,0.11,3
28615,2.0235e+07,0,70.86,0.01,-20.1,252.6,251.91,0.07,0.11,3
28657,2.0248e+07,0,70.44,0.01,-20.03,253.07,252.38,0.07,0.11,3
28699,2.0258e+07,0,70.18,0.01,-19.96,253.42,252.74,0.07,0.11,3
28740,2.0269e+07,0,69.95,0.01,-19.88,253.79,253.11,0.07,0.11,3
28781,2.0279e+07,0,69.73,0.01,-19.79,254.17,253.49,0.07,0.11,3
28822,2.0289e+07,0,69.55,0.01,-19.69,254.56,253.88,0.07,0.11,3
28863,2.0299e+07,0,69.38,0.01,-19.58,254.96,254.28,0.07,0.11,3
28907,2.0309e+07,0,69.22,0.01,-19.46,255.36,254.68,0.07,0.11,3
28950,2.032e+07,0,69.05,0.01,-19.31,255.79,255.11,0.07,0.11,3
28990,2.033e+07,0,68.9,0.01,-19.14,256.21,255.54,0.07,0.11,3
29029,2.034e+07,0,68.78,0.01,-18.97,256.59,255.91,0.07,0.11,3
29070,2.0351e+07,0,68.67,0.01,-18.76,256.99,256.31,0.07,0.11,3
29111,2.0361e+07,0,68.59,0.01,-18.56,257.34,256.66,0.07,0.11,3
29152,2.0372e+07,0,68.52,0.01,-18.35,257.67,257,0.07,0.11,3
29192,2.0381e+07,0,68.46,0.01,-18.13,257.99,257.32,0.07,0.11,3
29233,2.0392e+07,0,68.41,0.01,-17.89,258.29,257.62,0.07,0.11,3
29274,2.0401e+07,0,68.37,0.01,-17.64,258.57,257.9,0.07,0.11,3
29319,2.0411e+07,0,68.33,0.01,-17.36,258.82,258.16,0.07,0.12,3
29360,2.0422e+07,0,68.3,0.01,-17.08,259.05,258.38,0.07,0.12,3
29400,2.0431e+07,0,68.29,0.01,-16.77,259.25,258.58,0.07,0.12,3
29441,2.0442e+07,0,68.28,0.01,-16.46,259.42,258.76,0.07,0.12,3
29478,2.0453e+07,0,68.28,0.01,-16.11,259.59,258.92,0.07,0.12,3
29520,2.0463e+07,0,68.3,0.01,-15.77,259.72,259.06,0.06,0.12,3
29563,2.0474e+07,0,68.33,0.01,-15.39,259.83,259.17,0.06,0.12,3
29604,2.0484e+07,0,68.35,0.01,-15,259.92,259.26,0.06,0.12,3
29644,2.0495e+07,0,68.39,0.01,-14.63,259.98,259.32,0.06,0.12,3
29685,2.0505e+07,0,68.46,0.01,-14.24,260.02,259.37,0.06,0.12,3
29730,2.0515e+07,0,68.57,0.01,-13.8,260.06,259.4,0.06,0.12,3
29771,2.0526e+07,0,68.7,0.01,-13.38,260.07,259.42,0.06,0.12,3
29812,2.0536e+07,0,68.84,0.01,-12.96,260.1,259.44,0.06,0.12,3
29852,2.0546e+07,0,69.02,0.01,-12.53,260.12,259.47,0.06,0.12,3
29893,2.0559e+07,0,69.28,0.01,-11.98,260.18,259.53,0.06,0.12,3
29933,2.0569e+07,0,69.54,0.01,-11.53,260.26,259.6,0.06,0.12,3
29974,2.058e+07,0,69.79,0.01,-11.14,260.36,259.7,0.06,0.12,3
30015,2.059e+07,0,70.05,0.01,-10.73,260.49,259.83,0.06,0.12,3
30055,2.06e+07,0,70.26,0.01,-10.37,260.62,259.97,0.06,0.12,3
30101,2.0611e+07,0,70.43,0.01,-10.03,260.77,260.11,0.06,0.12,3
30142,2.0621e+07,0,70.58,0.01,-9.7,260.91,260.26,0.06,0.13,3
30183,2.0632e+07,0,70.69,0.01,-9.36,261.07,260.42,0.06,0.13,3
30224,2.0641e+07,0,70.76,0.01,-9.07,261.23,260.57,0.06,0.13,3
30264,2.0651e+07,0,70.8,0.01,-8.8,261.38,260.72,0.06,0.13,3
30299,2.0662e+07,0,70.84,0.01,-8.52,261.54,260.89,0.06,0.13,3
30343,2.0672e+07,0,70.87,0.01,-8.28,261.7,261.05,0.06,0.13,3
30384,2.0683e+07,0,70.9,0.01,-8.06,261.87,261.22,0.06,0.13,3
30424,2.0692e+07,0,70.91,0.01,-7.87,262.04,261.39,0.06,0.13,3
30466,2.0703e+07,0,70.92,0.01,-7.7,262.22,261.57,0.06,0.13,3
30511,2.0713e+07,0,70.91,0.01,-7.54,262.4,261.75,0.06,0.13,3
30552,2.0723e+07,0,70.89,0.01,-7.41,262.59,261.94,0.06,0.12,3
30595,2.0733e+07,0,70.87,0.01,-7.28,262.79,262.14,0.06,0.12,3
30635,2.0743e+07,0,70.86,0.01,-7.18,262.98,262.33,0.06,0.12,3
30676,2.0757e+07,0,70.86,0.01,-7.04,263.2,262.55,0.06,0.12,3
30716,2.0767e+07,0,70.87,0.01,-6.94,263.34,262.69,0.06,0.12,3
30754,2.0778e+07,0,70.89,0.01,-6.83,263.49,262.84,0.06,0.12,3
30795,2.0788e+07,0,70.93,0.01,-6.72,263.59,262.95,0.06,0.12,3
30837,2.0798e+07,0,70.98,0.01,-6.61,263.68,263.03,0.06,0.12,3
30878,2.0808e+07,0,71.08,0.01,-6.47,263.75,263.1,0.06,0.12,3
30923,2.0818e+07,0,71.21,0.01,-6.35,263.79,263.14,0.06,0.11,3
30963,2.0829e+07,0,71.36,0.01,-6.21,263.81,263.16,0.06,0.11,3
31003,2.0839e+07,0,71.55,0.01,-6.06,263.8,263.15,0.06,0.11,3
31043,2.0849e+07,0,71.76,0.01,-5.91,263.77,263.12,0.06,0.11,3
31085,2.0862e+07,0,72.09,0.01,-5.69,263.69,263.04,0.06,0.11,3
31128,2.0873e+07,0,72.36,0.01,-5.52,263.62,262.96,0.05,0.11,3
31169,2.0883e+07,0,72.63,0.01,-5.35,263.52,262.87,0.05,0.11,3
31211,2.0893e+07,0,72.92,0.01,-5.17,263.41,262.75,0.05,0.11,3
31251,2.0903e+07,0,73.22,0.01,-5,263.29,262.63,0.05,0.11,3
31293,2.0913e+07,0,73.55,0.01,-4.81,263.14,262.48,0.05,0.11,3
31338,2.0924e+07,0,73.86,0.01,-4.65,263.01,262.35,0.05,0.1,3
31379,2.0933e+07,0,74.17,0.01,-4.48,262.87,262.21,0.05,0.1,3
31419,2.0944e+07,0,74.48,0.01,-4.32,262.73,262.07,0.05,0.1,3
31463,2.0957e+07,0,74.89,0.01,-4.13,262.55,261.89,0.05,0.1,3
31507,2.097e+07,0,75.28,0.01,-3.96,262.39,261.72,0.05,0.1,3
31547,2.0981e+07,0,75.59,0.01,-3.85,262.26,261.6,0.05,0.1,3
31588,2.0991e+07,0,75.91,0.01,-3.74,262.14,261.48,0.05,0.1,3
31630,2.1001e+07,0,76.19,0.01,-3.64,262.04,261.37,0.05,0.1,3
31671,2.1011e+07,0,76.45,0.01,-3.56,261.94,261.27,0.05,0.1,3
31716,2.1021e+07,0,76.68,0.01,-3.5,261.85,261.18,0.05,0.1,3
31756,2.1032e+07,0,76.89,0.01,-3.44,261.76,261.09,0.05,0.09,3
31798,2.1043e+07,0,77.08,0.01,-3.39,261.68,261.01,0.05,0.09,3
31838,2.1053e+07,0,77.26,0.01,-3.36,261.6,260.93,0.05,0.09,3
31884,2.1067e+07,0,77.5,0.01,-3.32,261.51,260.84,0.06,0.09,3
31924,2.1077e+07,0,77.68,0.01,-3.3,261.45,260.78,0.06,0.09,3
31965,2.1087e+07,0,77.85,0.01,-3.28,261.39,260.72,0.06,0.09,3
32007,2.1097e+07,0,78,0.01,-3.25,261.32,260.65,0.06,0.09,3
32047,2.1107e+07,0,78.14,0.01,-3.23,261.24,260.58,0.06,0.09,3
32089,2.1117e+07,0,78.24,0.01,-3.2,261.17,260.5,0.06,0.09,3
32134,2.1128e+07,0,78.29,0.01,-3.18,261.09,260.42,0.06,0.08,3
32174,2.1138e+07,0,78.3,0.01,-3.15,261.01,260.34,0.06,0.08,3
32215,2.1148e+07,0,78.27,0.01,-3.12,260.93,260.26,0.06,0.08,3
32256,2.1158e+07,0,78.2,0.01,-3.1,260.85,260.18,0.06,0.08,3
32298,2.1171e+07,0,78.03,0.01,-3.07,260.74,260.07,0.06,0.08,3
32338,2.1181e+07,0,77.88,0.01,-3.06,260.66,259.99,0.06,0.08,3
32379,2.1191e+07,0,77.73,0.01,-3.05,260.59,259.92,0.06,0.08,3
32420,2.1202e+07,0,77.49,0.01,-3.05,260.53,259.86,0.06,0.08,3
32460,2.1211e+07,0,77.25,0.01,-3.05,260.47,259.8,0.06,0.08,3
32502,2.1222e+07,0,77.05,0.01,-3.06,260.43,259.76,0.06,0.08,3
32551,2.1232e+07,0,76.82,0.01,-3.07,260.39,259.73,0.06,0.08,3
32592,2.1242e+07,0,76.56,0.01,-3.09,260.36,259.7,0.06,0.08,3
32633,2.1253e+07,0,76.29,0.01,-3.12,260.34,259.68,0.06,0.08,3
32675,2.1263e+07,0,76.03,0.01,-3.15,260.33,259.66,0.06,0.08,3
32716,2.1273e+07,0,75.7,0.01,-3.2,260.33,259.67,0.06,0.08,3
32757,2.1284e+07,0,75.35,0.01,-3.26,260.34,259.68,0.06,0.08,3
32798,2.1294e+07,0,74.99,0.01,-3.34,260.37,259.71,0.06,0.08,3
32838,2.1304e+07,0,74.67,0.01,-3.41,260.41,259.75,0.06,0.08,3
32879,2.1315e+07,0,74.34,0.01,-3.48,260.45,259.79,0.06,0.08,3
32921,2.1325e+07,0,74.02,0.01,-3.56,260.5,259.85,0.06,0.08,3
32965,2.1335e+07,0,73.73,0.01,-3.63,260.57,259.91,0.06,0.08,3
33006,2.1345e+07,0,73.46,0.01,-3.71,260.65,259.99,0.06,0.08,3
33046,2.1355e+07,0,73.19,0.01,-3.79,260.73,260.08,0.06,0.08,3
33091,2.1368e+07,0,72.86,0.01,-3.91,260.87,260.22,0.06,0.08,3
33131,2.1379e+07,0,72.65,0.01,-4,260.98,260.33,0.06,0.08,3
33172,2.139e+07,0,72.44,0.01,-4.11,261.12,260.47,0.06,0.08,3
33213,2.14e+07,0,72.26,0.01,-4.21,261.25,260.6,0.06,0.08,3
33253,2.141e+07,0,72.1,0.01,-4.31,261.4,260.75,0.06,0.08,3
33294,2.142e+07,0,71.96,0.01,-4.42,261.56,260.9,0.06,0.08,3
33336,2.143e+07,0,71.82,0.01,-4.54,261.73,261.08,0.06,0.08,3
33381,2.144e+07,0,71.71,0.01,-4.67,261.91,261.26,0.06,0.07,3
33422,2.1451e+07,0,71.62,0.01,-4.79,262.08,261.43,0.06,0.07,3
33462,2.1461e+07,0,71.53,0.01,-4.92,262.27,261.62,0.06,0.07,3
33505,2.1472e+07,0,71.45,0.01,-5.07,262.49,261.84,0.05,0.07,3
33548,2.1486e+07,0,71.36,0.01,-5.28,262.77,262.12,0.05,0.07,3
33593,2.1499e+07,0,71.32,0.01,-5.48,263.05,262.4,0.05,0.07,3
33634,2.151e+07,0,71.3,0.01,-5.66,263.29,262.64,0.05,0.07,3
33674,2.152e+07,0,71.3,0.01,-5.83,263.51,262.86,0.05,0.07,3
33716,2.153e+07,0,71.31,0.01,-6,263.72,263.07,0.05,0.07,3
33760,2.154e+07,0,71.34,0.01,-6.18,263.93,263.28,0.05,0.05,3
33801,2.1551e+07,0,71.38,0.01,-6.37,264.15,263.5,0.05,0.05,3
33842,2.1561e+07,0,71.45,0.01,-6.56,264.34,263.69,0.05,0.05,3
33886,2.1574e+07,0,71.58,0.01,-6.82,264.57,263.92,0.05,0.05,3
33927,2.1585e+07,0,71.67,0.01,-6.98,264.71,264.06,0.05,0.05,3
33964,2.1595e+07,0,71.8,0.01,-7.19,264.86,264.21,0.05,0.05,3
34005,2.1606e+07,0,71.92,0.01,-7.37,264.97,264.31,0.05,0.05,3
34046,2.1617e+07,0,72.06,0.01,-7.55,265.05,264.4,0.05,0.05,3
34087,2.1627e+07,0,72.18,0.01,-7.72,265.11,264.45,0.05,0.05,3
34128,2.1636e+07,0,72.28,0.01,-7.89,265.15,264.49,0.05,0.05,3
34173,2.1646e+07,0,72.38,0.01,-8.06,265.18,264.52,0.05,0.05,3
34216,2.1657e+07,0,72.46,0.01,-8.24,265.19,264.54,0.05,0.05,3
34256,2.1667e+07,0,72.56,0.01,-8.43,265.2,264.54,0.05,0.05,3
34301,2.168e+07,0,72.66,0.01,-8.65,265.2,264.54,0.05,0.05,3
34339,2.1691e+07,0,72.71,0.01,-8.84,265.19,264.53,0.05,0.05,3
34379,2.1701e+07,0,72.73,0.01,-9.01,265.17,264.51,0.05,0.05,3
34421,2.1711e+07,0,72.71,0.01,-9.17,265.14,264.48,0.05,0.05,3
34462,2.1722e+07,0,72.63,0.01,-9.33,265.1,264.44,0.05,0.05,3
34505,2.1732e+07,0,72.51,0.01,-9.49,265.08,264.42,0.05,0.05,3
34546,2.1741e+07,0,72.36,0.01,-9.64,265.06,264.4,0.05,0.05,3
34590,2.1751e+07,0,72.2,0.01,-9.81,265.06,264.4,0.05,0.05,3
34632,2.1762e+07,0,72.02,0.01,-9.98,265.09,264.43,0.05,0.05,3
34672,2.1772e+07,0,71.81,0.01,-10.19,265.14,264.48,0.05,0.05,3
34713,2.1785e+07,0,71.55,0.01,-10.44,265.23,264.57,0.05,0.05,3
34758,2.1798e+07,0,71.24,0.01,-10.76,265.39,264.73,0.05,0.05,3
34802,2.181e+07,0,70.99,0.01,-11.05,265.55,264.89,0.05,0.05,3
34843,2.1821e+07,0,70.81,0.01,-11.3,265.7,265.05,0.05,0.05,3
34887,2.1833e+07,0,70.61,0.01,-11.6,265.9,265.25,0.05,0.05,3
34927,2.1843e+07,0,70.47,0.01,-11.85,266.08,265.42,0.05,0.05,3
34972,2.1853e+07,0,70.35,0.01,-12.09,266.25,265.6,0.05,0.05,3
35018,2.1863e+07,0,70.26,0.01,-12.32,266.43,265.77,0.06,0.05,3
35060,2.1873e+07,0,70.2,0.01,-12.54,266.6,265.94,0.06,0.05,3
35098,2.1883e+07,0,70.15,0.01,-12.76,266.77,266.11,0.06,0.05,3
35138,2.1894e+07,0,70.14,0.01,-12.95,266.91,266.25,0.06,0.05,3
35179,2.1904e+07,0,70.14,0.01,-13.11,267.04,266.38,0.06,0.05,3
35220,2.1914e+07,0,70.16,0.01,-13.24,267.16,266.5,0.06,0.05,3
35261,2.1924e+07,0,70.2,0.01,-13.35,267.26,266.6,0.06,0.05,3
35302,2.1935e+07,0,70.26,0.01,-13.45,267.36,266.7,0.06,0.05,3
35342,2.1945e+07,0,70.34,0.01,-13.53,267.46,266.79,0.06,0.05,3
35387,2.1955e+07,0,70.4,0.01,-13.58,267.53,266.87,0.06,0.05,3
35427,2.1965e+07,0,70.49,0.01,-13.64,267.63,266.97,0.06,0.05,3
35469,2.1976e+07,0,70.59,0.01,-13.68,267.74,267.07,0.06,0.05,3
35510,2.1989e+07,0,70.72,0.01,-13.72,267.88,267.22,0.06,0.05,3
35551,2.2e+07,0,70.83,0.01,-13.75,268,267.34,0.06,0.05,3
35592,2.201e+07,0,70.95,0.01,-13.78,268.14,267.47,0.06,0.05,3
35632,2.202e+07,0,71.06,0.01,-13.81,268.29,267.63,0.06,0.05,3
35673,2.203e+07,0,71.17,0.01,-13.84,268.47,267.81,0.06,0.05,3
35713,2.2041e+07,0,71.27,0.01,-13.88,268.67,268.01,0.06,0.05,3
35760,2.2051e+07,0,71.37,0.01,-13.93,268.92,268.26,0.06,0.05,3
35800,2.2062e+07,0,71.46,0.01,-14,269.2,268.54,0.06,0.05,3
35842,2.2071e+07,0,71.52,0.01,-14.08,269.48,268.81,0.06,0.05,3
35884,2.2082e+07,0,71.57,0.01,-14.16,269.78,269.11,0.06,0.05,3
35924,2.2092e+07,0,71.59,0.01,-14.25,270.09,269.42,0.06,0.05,3
35966,2.2103e+07,0,71.59,0.01,-14.36,270.46,269.79,0.06,0.05,3
36006,2.2113e+07,0,71.58,0.01,-14.47,270.81,270.14,0.06,0.05,3
36047,2.2124e+07,0,71.54,0.01,-14.61,271.22,270.55,0.06,0.05,3
36088,2.2134e+07,0,71.51,0.01,-14.75,271.6,270.93,0.06,0.05,3
36128,2.2144e+07,0,71.47,0.01,-14.89,271.99,271.32,0.06,0.05,3
36173,2.2155e+07,0,71.43,0.01,-15.04,272.42,271.75,0.06,0.05,3
36214,2.2165e+07,0,71.38,0.01,-15.17,272.81,272.14,0.06,0.04,3
36256,2.2176e+07,0,71.33,0.01,-15.31,273.24,272.57,0.06,0.04,3
36297,2.2186e+07,0,71.28,0.01,-15.43,273.63,272.96,0.06,0.04,3
36338,2.2196e+07,0,71.23,0.01,-15.55,274.01,273.34,0.06,0.04,3
36379,2.2207e+07,0,71.19,0.01,-15.66,274.42,273.75,0.06,0.04,3
36419,2.2217e+07,0,71.17,0.01,-15.75,274.79,274.12,0.06,0.04,3
36463,2.2227e+07,0,71.15,0.01,-15.83,275.19,274.52,0.06,0.04,3
36504,2.2238e+07,0,71.12,0.01,-15.89,275.54,274.87,0.06,0.04,3
36544,2.2248e+07,0,71.06,0.01,-15.94,275.92,275.24,0.06,0.04,3
36596,2.2261e+07,0,70.96,0.01,-15.98,276.31,275.64,0.06,0.04,3
36640,2.2271e+07,0,70.82,0.01,-16,276.63,275.96,0.06,0.04,3
36681,2.2281e+07,0,70.66,0.01,-16.01,276.94,276.27,0.06,0.04,3
36722,2.2291e+07,0,70.48,0.01,-16.02,277.26,276.59,0.06,0.04,3
36764,2.2301e+07,0,70.27,0.01,-16.02,277.62,276.95,0.06,0.04,3
36798,2.2312e+07,0,70.03,0.01,-16.01,277.98,277.31,0.06,0.04,3
36839,2.2323e+07,0,69.8,0.01,-16,278.32,277.65,0.06,0.04,3
36880,2.2333e+07,0,69.56,0.01,-15.99,278.66,278,0.06,0.04,3
36920,2.2344e+07,0,69.28,0.01,-15.98,279.05,278.38,0.06,0.04,3
36961,2.2353e+07,0,69,0.01,-15.96,279.41,278.74,0.06,0.04,3
37005,2.2364e+07,0,68.73,0.01,-15.93,279.77,279.11,0.06,0.04,3
37047,2.2374e+07,0,68.41,0.01,-15.89,280.18,279.52,0.06,0.04,3
37087,2.2385e+07,0,68.13,0.01,-15.85,280.55,279.89,0.06,0.04,3
37128,2.2395e+07,0,67.86,0.01,-15.81,280.92,280.26,0.06,0.04,3
37167,2.2405e+07,0,67.58,0.01,-15.75,281.29,280.64,0.06,0.04,3
37210,2.2418e+07,0,67.22,0.01,-15.68,281.79,281.13,0.06,0.04,3
37251,2.2428e+07,0,66.9,0.01,-15.61,282.21,281.55,0.06,0.04,3
37292,2.2438e+07,0,66.61,0.01,-15.53,282.59,281.94,0.06,0.04,3
37333,2.2448e+07,0,66.32,0.01,-15.46,282.97,282.32,0.06,0.04,3
37374,2.2458e+07,0,66.03,0.01,-15.37,283.35,282.7,0.06,0.04,3
37420,2.2468e+07,0,65.77,0.01,-15.28,283.73,283.08,0.07,0.04,3
37461,2.2479e+07,0,65.52,0.01,-15.17,284.09,283.45,0.07,0.04,3
37502,2.2489e+07,0,65.28,0.01,-15.05,284.45,283.8,0.07,0.04,3
37544,2.2499e+07,0,65.05,0.01,-14.92,284.79,284.15,0.07,0.04,3
37581,2.2512e+07,0,64.77,0.01,-14.74,285.25,284.61,0.07,0.04,3
37621,2.2522e+07,0,64.58,0.01,-14.59,285.56,284.92,0.07,0.04,3
37662,2.2532e+07,0,64.41,0.01,-14.44,285.86,285.23,0.07,0.04,3
37702,2.2542e+07,0,64.25,0.01,-14.28,286.15,285.52,0.07,0.04,3
37743,2.2553e+07,0,64.09,0.01,-14.11,286.43,285.8,0.07,0.04,3
37784,2.2563e+07,0,63.94,0.01,-13.93,286.69,286.06,0.07,0.04,3
37829,2.2573e+07,0,63.78,0.01,-13.75,286.95,286.31,0.07,0.05,3
37870,2.2583e+07,0,63.64,0.01,-13.55,287.19,286.56,0.07,0.05,3
37910,2.2594e+07,0,63.47,0.01,-13.34,287.45,286.82,0.07,0.05,3
37951,2.2603e+07,0,63.32,0.01,-13.14,287.68,287.06,0.07,0.05,3
37990,2.2613e+07,0,63.15,0.01,-12.94,287.92,287.29,0.07,0.05,3
38034,2.2626e+07,0,62.95,0.01,-12.71,288.19,287.57,0.07,0.05,3
38075,2.2637e+07,0,62.79,0.01,-12.52,288.42,287.8,0.07,0.05,3
38115,2.2647e+07,0,62.62,0.01,-12.31,288.66,288.04,0.07,0.05,3
38158,2.2657e+07,0,62.46,0.01,-12.12,288.87,288.25,0.06,0.05,3
38203,2.2667e+07,0,62.3,0.01,-11.93,289.08,288.46,0.06,0.05,3
38244,2.2678e+07,0,62.14,0.01,-11.73,289.29,288.68,0.06,0.06,3
38284,2.2688e+07,0,61.99,0.01,-11.55,289.47,288.86,0.06,0.06,3
38325,2.2698e+07,0,61.84,0.01,-11.36,289.64,289.02,0.06,0.06,3
38365,2.2708e+07,0,61.72,0.01,-11.19,289.77,289.16,0.06,0.06,3
38409,2.2721e+07,0,61.63,0.01,-10.96,289.91,289.3,0.06,0.06,3
38450,2.2731e+07,0,61.57,0.01,-10.77,289.99,289.38,0.06,0.06,3
38492,2.2742e+07,0,61.52,0.01,-10.56,290.02,289.41,0.06,0.06,3
38533,2.2752e+07,0,61.51,0.01,-10.37,290.03,289.42,0.06,0.06,3
38573,2.2762e+07,0,61.52,0.01,-10.17,290.02,289.41,0.06,0.06,3
38618,2.2772e+07,0,61.51,0.01,-9.98,289.99,289.38,0.06,0.07,3
38659,2.2783e+07,0,61.52,0.01,-9.77,289.94,289.33,0.06,0.07,3
38700,2.2793e+07,0,61.54,0.01,-9.58,289.88,289.27,0.06,0.07,3
38741,2.2803e+07,0,61.55,0.01,-9.39,289.8,289.19,0.06,0.07,3
38781,2.2816e+07,0,61.55,0.01,-9.15,289.67,289.07,0.06,0.07,3
38819,2.2826e+07,0,61.53,0.01,-8.93,289.55,288.94,0.06,0.07,3
38861,2.2837e+07,0,61.51,0.01,-8.74,289.42,288.82,0.06,0.07,3
38901,2.2847e+07,0,61.47,0.01,-8.54,289.3,288.69,0.06,0.07,3
38945,2.2857e+07,0,61.41,0.01,-8.34,289.17,288.56,0.06,0.07,3
38986,2.2868e+07,0,61.36,0.01,-8.15,289.05,288.44,0.06,0.07,3
39031,2.2878e+07,0,61.3,0.01,-7.99,288.95,288.35,0.06,0.08,3
39072,2.2889e+07,0,61.24,0.01,-7.82,288.86,288.26,0.06,0.08,3
39112,2.2899e+07,0,61.17,0.01,-7.68,288.79,288.19,0.06,0.08,3
39153,2.291e+07,0,61.09,0.01,-7.54,288.73,288.13,0.06,0.08,3
39190,2.292e+07,0,60.98,0.01,-7.41,288.68,288.08,0.06,0.08,3
39232,2.2931e+07,0,60.85,0.01,-7.31,288.64,288.04,0.06,0.08,3
39273,2.2941e+07,0,60.71,0.01,-7.23,288.62,288.02,0.06,0.08,3
39314,2.2952e+07,0,60.54,0.01,-7.14,288.6,288,0.06,0.08,3
39355,2.2962e+07,0,60.37,0.01,-7.07,288.58,287.99,0.06,0.08,3
39395,2.2972e+07,0,60.18,0.01,-7,288.57,287.97,0.06,0.08,3
39442,2.2982e+07,0,59.99,0.01,-6.93,288.54,287.95,0.06,0.08,3
39483,2.2992e+07,0,59.8,0.01,-6.86,288.51,287.91,0.06,0.08,3
39523,2.3002e+07,0,59.61,0.01,-6.78,288.46,287.87,0.06,0.08,3
39564,2.3013e+07,0,59.41,0.01,-6.69,288.4,287.81,0.06,0.08,3
39602,2.3023e+07,0,59.25,0.01,-6.59,288.33,287.74,0.06,0.08,3
39640,2.3033e+07,0,59.1,0.01,-6.48,288.25,287.66,0.06,0.08,3
39680,2.3044e+07,0,58.99,0.01,-6.37,288.16,287.57,0.06,0.08,3
39722,2.3054e+07,0,58.89,0.01,-6.24,288.07,287.48,0.06,0.08,3
39765,2.3065e+07,0,58.82,0.01,-6.13,287.98,287.39,0.06,0.08,3
39806,2.3075e+07,0,58.75,0.01,-6.01,287.89,287.31,0.06,0.08,3
39851,2.3085e+07,0,58.7,0.01,-5.9,287.82,287.23,0.06,0.08,3
39891,2.3096e+07,0,58.66,0.01,-5.78,287.74,287.15,0.06,0.08,3
39932,2.3106e+07,0,58.64,0.01,-5.67,287.67,287.09,0.06,0.08,3
39972,2.3116e+07,0,58.63,0.01,-5.56,287.61,287.03,0.06,0.08,3
40013,2.3129e+07,0,58.6,0.01,-5.44,287.55,286.96,0.06,0.08,3
40053,2.314e+07,0,58.56,0.01,-5.35,287.5,286.92,0.06,0.08,3
40095,2.315e+07,0,58.53,0.01,-5.27,287.47,286.89,0.06,0.08,3
40137,2.316e+07,0,58.47,0.01,-5.19,287.45,286.87,0.06,0.08,3
40178,2.3171e+07,0,58.4,0.01,-5.12,287.44,286.86,0.06,0.08,3
40219,2.3181e+07,0,58.33,0.01,-5.06,287.44,286.86,0.06,0.08,3
40263,2.3191e+07,0,58.26,0.01,-5,287.45,286.87,0.06,0.07,3
40305,2.3201e+07,0,58.17,0.01,-4.95,287.48,286.89,0.06,0.07,3
40347,2.3211e+07,0,58.07,0.01,-4.9,287.5,286.92,0.06,0.07,3
40391,2.3224e+07,0,57.93,0.01,-4.84,287.56,286.98,0.06,0.07,3
40429,2.3234e+07,0,57.8,0.01,-4.79,287.6,287.03,0.06,0.07,3
40469,2.3245e+07,0,57.66,0.01,-4.73,287.66,287.09,0.06,0.07,3
40513,2.3255e+07,0,57.53,0.01,-4.67,287.73,287.15,0.07,0.07,3
40554,2.3265e+07,0,57.39,0.01,-4.61,287.8,287.22,0.07,0.07,3
40595,2.3275e+07,0,57.26,0.01,-4.54,287.88,287.3,0.07,0.07,3
40642,2.3286e+07,0,57.11,0.01,-4.47,287.97,287.4,0.07,0.07,3
40682,2.3296e+07,0,56.96,0.01,-4.38,288.08,287.51,0.07,0.06,3
40723,2.3306e+07,0,56.83,0.01,-4.3,288.17,287.6,0.07,0.06,3
40764,2.3317e+07,0,56.67,0.01,-4.2,288.29,287.72,0.07,0.06,3
40808,2.333e+07,0,56.45,0.01,-4.07,288.43,287.86,0.07,0.06,3
40848,2.334e+07,0,56.27,0.01,-3.96,288.55,287.98,0.07,0.06,3
40889,2.3351e+07,0,56.06,0.01,-3.83,288.68,288.12,0.07,0.06,3
40930,2.3361e+07,0,55.84,0.01,-3.69,288.82,288.26,0.07,0.06,3
40972,2.3372e+07,0,55.62,0.01,-3.57,288.95,288.38,0.07,0.06,3
41013,2.3382e+07,0,55.38,0.01,-3.44,289.07,288.51,0.07,0.06,3
41057,2.3392e+07,0,55.12,0.01,-3.3,289.19,288.63,0.07,0.05,3
41098,2.3402e+07,0,54.84,0.01,-3.16,289.3,288.74,0.07,0.05,3
41139,2.3412e+07,0,54.53,0.01,-3.02,289.41,288.86,0.07,0.05,3
41180,2.3422e+07,0,54.21,0.01,-2.87,289.51,288.96,0.07,0.05,3
41221,2.3432e+07,0,53.83,0.01,-2.71,289.61,289.06,0.07,0.05,3
41261,2.3443e+07,0,53.46,0.01,-2.56,289.69,289.14,0.07,0.05,3
41302,2.3454e+07,0,53.06,0.01,-2.39,289.75,289.2,0.07,0.05,3
41346,2.3464e+07,0,52.71,0.01,-2.23,289.78,289.24,0.07,0.05,3
41387,2.3475e+07,0,52.33,0.01,-2.05,289.79,289.25,0.07,0.05,3
41427,2.3485e+07,0,52,0.01,-1.88,289.77,289.23,0.07,0.05,3
41472,2.3495e+07,0,51.67,0.01,-1.7,289.73,289.2,0.07,0.05,3
41513,2.3505e+07,0,51.3,0.01,-1.5,289.67,289.14,0.07,0.05,3
41553,2.3516e+07,0,50.97,0.01,-1.32,289.6,289.07,0.07,0.05,3
41597,2.3528e+07,0,50.53,0.01,-1.07,289.48,288.95,0.07,0.05,3
41635,2.354e+07,0,50.16,0.01,-0.86,289.36,288.83,0.07,0.05,3
41676,2.355e+07,0,49.77,0.01,-0.65,289.21,288.69,0.07,0.05,3
41717,2.3561e+07,0,49.4,0.01,-0.45,289.07,288.55,0.07,0.05,3
41758,2.3571e+07,0,49,0.01,-0.24,288.91,288.39,0.07,0.05,3
41799,2.3581e+07,0,48.58,0.01,-0.04,288.74,288.23,0.07,0.05,3
41840,2.3591e+07,0,48.13,0.01,0.16,288.56,288.05,0.07,0.05,3
41885,2.3602e+07,0,47.62,0.01,0.39,288.35,287.85,0.07,0.06,3
41925,2.3612e+07,0,47.14,0.01,0.6,288.16,287.66,0.07,0.06,3
41966,2.3622e+07,0,46.64,0.01,0.8,287.98,287.48,0.07,0.06,3
42008,2.3632e+07,0,46.12,0.01,1,287.79,287.3,0.07,0.06,3
42045,2.3645e+07,0,45.37,0.01,1.28,287.55,287.07,0.07,0.06,3
42086,2.3656e+07,0,44.82,0.01,1.47,287.39,286.91,0.07,0.06,3
42129,2.3666e+07,0,44.22,0.01,1.68,287.22,286.75,0.07,0.06,3
42170,2.3677e+07,0,43.68,0.01,1.86,287.08,286.61,0.07,0.06,3
42211,2.3688e+07,0,43.1,0.01,2.06,286.93,286.47,0.07,0.06,3
42251,2.3698e+07,0,42.56,0.01,2.24,286.8,286.35,0.07,0.06,3
42299,2.3708e+07,0,42.02,0.01,2.41,286.69,286.23,0.07,0.06,3
42339,2.3718e+07,0,41.44,0.01,2.59,286.57,286.12,0.07,0.06,3
42380,2.3728e+07,0,40.93,0.01,2.76,286.46,286.02,0.07,0.06,3
42420,2.3738e+07,0,40.44,0.01,2.92,286.36,285.92,0.07,0.06,3
42461,2.3749e+07,0,39.95,0.01,3.1,286.25,285.82,0.07,0.06,3
42504,2.376e+07,0,39.54,0.01,3.27,286.16,285.73,0.07,0.06,3
42544,2.3771e+07,0,39.12,0.01,3.45,286.05,285.62,0.07,0.06,3
42586,2.3781e+07,0,38.76,0.01,3.62,285.96,285.53,0.07,0.06,3
42626,2.3791e+07,0,38.4,0.01,3.8,285.85,285.43,0.07,0.06,3
42667,2.3802e+07,0,38.06,0.01,3.98,285.74,285.32,0.07,0.06,3
42711,2.3812e+07,0,37.76,0.01,4.14,285.63,285.22,0.07,0.07,3
42753,2.3822e+07,0,37.48,0.01,4.3,285.51,285.1,0.07,0.07,3
42794,2.3832e+07,0,37.22,0.01,4.47,285.39,284.98,0.07,0.07,3
42831,2.3842e+07,0,36.97,0.01,4.65,285.23,284.82,0.07,0.07,3
42874,2.3853e+07,0,36.75,0.01,4.81,285.07,284.66,0.07,0.07,3
42912,2.3864e+07,0,36.52,0.01,5,284.88,284.48,0.07,0.07,3
42953,2.3874e+07,0,36.28,0.01,5.18,284.69,284.28,0.07,0.07,3
42995,2.3885e+07,0,36.07,0.01,5.34,284.5,284.1,0.07,0.07,3
