LineNo,TimeUS,ThI,ABst,ThO,ThH,DAlt,Alt,BAlt,DSAlt,SAlt,TAlt,DCRt,CRt
1296,13304084,0,0,0,0.2502465,-0.5452542,-0.5452542,-0.21,NaN,0,-87.96252,31,31
1838,13413451,0,0,0,0.2502465,-0.4729441,-0.4729441,-0.68,NaN,0,-88.43159,33,33
2249,13516896,0,0,0,0.2502465,-0.4146406,-0.4146406,-0.38,NaN,0,-88.13235,34,34
2633,13620101,0,0,0,0.2502465,-0.3668481,-0.3668481,-0.27,NaN,0,-88.01931999999999,35,35
3041,13723852,0,0,0,0.2502465,-0.3173012,-0.3173012,-0.41,NaN,0,-88.16652999999999,35,35
3452,13826233,0,0,0,0.2502465,-0.273981,-0.273981,-0.4,NaN,0,-88.15524000000001,36,36
3835,13927249,0,0,0,0.2502465,-0.2370805,-0.2370805,-0.3,NaN,0,-88.05336,36,36
4241,14030761,0,0,0,0.2502465,-0.2015115,-0.2015115,-0.32,NaN,0,-88.07597,36,36
4654,14131910,0,0,0,0.2502465,-0.1692358,-0.1692358,-0.41,NaN,0,-88.16669,36,36
5060,14233873,0,0,0,0.2502465,-0.1419525,-0.1419525,-0.39,NaN,0,-88.14408,36,36
5473,14338079,0,0,0,0.2502465,-0.1213044,-0.1213044,-0.45,NaN,0,-88.20104000000001,35,35
5855,14441226,0,0,0,0.2502465,-0.1052938,-0.1052938,-0.38,NaN,0,-88.13321999999999,34,34
6266,14542633,0,0,0,0.2502465,-0.09309145000000001,-0.09309145000000001,-0.45,NaN,0,-88.20153000000001,33,33
6673,14644429,0,0,0,0.2502465,-0.08511979,-0.08511979,-0.27,NaN,0,-88.02068,32,32
7084,14746354,0,0,0,0.2502465,-0.07738773,-0.07738773,-0.35,NaN,0,-88.10559000000001,31,31
7493,14850479,0,0,0,0.2502465,-0.07213003,-0.07213003,-0.29,NaN,0,-88.04908,29,29
7878,14952964,0,0,0,0.2502465,-0.06801876,-0.06801876,-0.6899999999999999,NaN,0,-88.44490999999999,28,28
8288,15055986,0,0,0,0.2502465,-0.07107368999999999,-0.07107368999999999,-0.31,NaN,0,-88.06626,29,29
8698,15157732,0,0,0,0.2502465,-0.0713023,-0.0713023,-0.42,NaN,0,-88.17901999999999,35,35
9107,15260323,-5.960464e-08,-7.492673000000001e-11,0,0.2502465,-0.06230217,-0.06230217,-0.48,NaN,0,-88.22995,46,46
9517,15363313,-0.01341265,-6.000604e-05,0,0.2502465,-0.0390229,-0.0390229,-0.57,NaN,0,-88.32603,76,76
9926,15464113,-0.05148372,-0.0004856549,0,0.2502465,0.02140338,0.02140338,-0.06,NaN,0,-87.81316,118,118
10335,15566986,-0.03601959,-0.0008736439,0,0.2502465,0.1267709,0.1267709,-0.1,NaN,0,-87.85271,141,141
10740,15670056,-0.01937369,-0.0009259079,0,0.2502465,0.252344,0.252344,-0.18,NaN,0,-87.93236,147,147
10993,15773320,-0.01042056,-0.0009922897,0,0.2502465,0.3800093,0.3800093,-0.32,NaN,0,-88.07929,148,148
11409,15876343,-0.005605042,-0.001082316,0,0.2502465,0.4981923,0.4981923,0.05,NaN,0,-87.69374000000001,149,149
11819,15979739,-0.003015131,-0.001166226,0,0.2502465,0.6097365,0.6097365,0.37,NaN,0,-87.3716,142,142
12205,16081229,0.002872318,0.002007533,0,0.2502465,0.7173959,0.7173959,0.25,NaN,0,-87.49802,121,121
12621,16184939,0.0405781,0.05136762,0,0.2502465,0.7922434,0.7922434,0.37,NaN,0,-87.37934,81,81
13032,16288335,0.04703924,0.09899761,0,0.2502465,0.8238847,0.8238847,0.6,NaN,0,-87.14764,46,46
13442,16390988,0.03281896,0.08940703,0,0.2502465,0.8309643,0.8309643,0.43,NaN,0,-87.31153,18,18
13853,16493221,0.02774914,0.09243166,0,0.2502465,0.8046824,0.8046824,0.48,NaN,0,-87.2608,-8,-8
14266,16595756,0.01492466,0.05775754,0,0.2502465,0.7624213,0.7624213,0.45,NaN,0,-87.29188000000001,-13,-13
14677,16696893,0.008026958000000001,0.03515336,0,0.2502465,0.7285642,0.7285642,0.65,NaN,0,-87.09711,-7,-7
15056,16799251,0.004384473,0.01677695,0,0.2502465,0.7080318,0.7080318,0.61,NaN,0,-87.13101,9,9
15470,16902717,0.002357841,0.007852120000000001,0,0.2502465,0.7033475,0.7033475,0.61,NaN,0,-87.14063,9,9
15882,17005348,0.001267835,0.004896921,0,0.2502465,0.6978695,0.6978695,0.52,NaN,0,-87.22257,3,3
16289,17108027,0.000692144,0.003140883,0,0.2502465,0.6939331,0.6939331,0.83,NaN,0,-86.91373,10,10
16699,17210089,0.0003719032,0.00199853,0,0.2502465,0.707109,0.707109,0.9,NaN,0,-86.84309,24,24
17110,17312137,0.0002028346,0.001561648,0,0.2502465,0.7383,0.7383,1.06,NaN,0,-86.68774000000001,28,28
17515,17413972,0.0001087785,0.0005381998,0,0.2502465,0.7770547,0.7770547,0.92,NaN,0,-86.82903,21,21
17895,17516760,5.90682e-05,0.0001932594,0,0.2502465,0.8082775,0.8082775,0.76,NaN,0,-86.99432,6,6
18309,17619689,3.144145e-05,0.0001333479,0,0.2502465,0.81581,0.81581,0.98,NaN,0,-86.77956,-10,-10
18720,17722550,1.654029e-05,5.56949e-05,0,0.2502465,0.8134429,0.8134429,0.5,NaN,0,-87.25623,-10,-10
19128,17825006,8.523464e-06,1.570891e-06,0,0.2502465,0.814209,0.814209,0.75,NaN,0,-87.00757,7,7
19514,17928460,4.321337e-06,3.263003e-07,0,0.2502465,0.8282971,0.8282971,0.63,NaN,0,-87.13939999999999,16,16
19927,18030759,2.086163e-06,1.349472e-05,0,0.2502465,0.8365782,0.8365782,0.61,NaN,0,-87.1507,5,5
20337,18133757,7.450581e-07,4.7853e-06,0,0.2502465,0.8245714,0.8245714,0.54,NaN,0,-87.22984,-14,-14
20722,18235928,4.768372e-07,2.527772e-06,0,0.2502465,0.7916062,0.7916062,0.87,NaN,0,-86.90205,-25,-25
21136,18340478,4.768372e-07,2.159145e-06,0,0.2502465,0.7591103,0.7591103,0.62,NaN,0,-87.15733,-21,-21
21544,18442381,4.768372e-07,1.828452e-06,0,0.2502465,0.7349625,0.7349625,0.66,NaN,0,-87.12059000000001,-12,-12
21960,18545713,4.768372e-07,1.642573e-06,0,0.2502465,0.7243270000000001,0.7243270000000001,0.63,NaN,0,-87.15577999999999,0,0
22366,18648767,4.768372e-07,1.451737e-06,0,0.2502465,0.7131019,0.7131019,1.11,NaN,0,-86.67823,-12,-12
22750,18752629,4.768372e-07,1.412912e-06,0,0.2502465,0.6975501,0.6975501,0.83,NaN,0,-86.96569,-24,-24
23161,18855946,-0.0003002882,-0.001069386,0,0.2502465,0.6851575,0.6851575,0.6,NaN,0,-87.22016000000001,-12,-12
23569,18958349,-0.01221696,-0.04979457,0,0.2502465,0.6922606,0.6922606,0.38,NaN,0,-87.44056999999999,17,17
23979,19061097,-0.007041931,-0.02631455,0,0.2502465,0.7125552000000001,0.7125552000000001,0.35,NaN,0,-87.51035,20,20
24386,19162057,-0.003787905,-0.01420921,0,0.2502465,0.7122955,0.7122955,0.58,NaN,0,-87.27298999999999,2,2
24802,19266444,-0.002037644,-0.009031858,0,0.2502465,0.6891682,0.6891682,0.51,NaN,0,-87.38036,-10,-10
25208,19369326,-0.001096308,-0.00515792,0,0.2502465,0.6635948,0.6635948,0.37,NaN,0,-87.52448,-6,-6
25622,19472528,-0.000590086,-0.00291716,0,0.2502465,0.6406438,0.6406438,0.68,NaN,0,-87.2355,0,0
26000,19574746,-0.0003176928,-0.001447492,0,0.2502465,0.6258901,0.6258901,0.35,NaN,0,-87.56894,2,2
26416,19678857,-0.0001712441,-0.0006592077,0,0.2502465,0.6068394,0.6068394,0.85,NaN,0,-87.10167,-9,-9
26828,19782732,-9.241700000000001e-05,-0.0003024345,0,0.2502465,0.5813916,0.5813916,0.6,NaN,0,-87.35316,-25,-25
27239,19886432,-5.00679e-05,-0.0001535596,0,0.2502465,0.5421716,0.5421716,0.51,NaN,0,-87.46661,-38,-38
27652,19990754,-2.738833e-05,-8.806914e-05,0,0.2502465,0.5055361,0.5055361,0.29,NaN,0,-87.68419,-22,-22
28067,20094733,-0.00104171,-0.003241417,0,0.2502465,0.4853376,0.4853376,0.51,NaN,0,-87.49329,-4,-4
28479,20198759,-0.0005607605000000001,-0.001352239,0,0.2502465,0.4732152,0.4732152,0.12,NaN,0,-87.88324,-9,-9
28894,20301701,-0.0003019273,-0.0005986196,0,0.2502465,0.4436814,0.4436814,0.13,NaN,0,-87.90797000000001,-22,-22
29305,20404276,-0.0001627505,-0.0002968678,0,0.2502465,0.3943014,0.3943014,0.3,NaN,0,-87.73842999999999,-27,-27
29716,20507562,-8.788705e-05,-0.0001579878,0,0.2502465,0.3512706,0.3512706,0.48,NaN,0,-87.58633,-20,-20
30097,20610518,-4.836917e-05,-9.766111999999999e-05,0,0.2502465,0.3227265,0.3227265,0.06,NaN,0,-88.00171,-12,-12
30507,20712772,-2.631545e-05,-5.45872e-05,0,0.2502465,0.3044109,0.3044109,-0.03,NaN,0,-88.12736,-7,-7
30916,20816132,-1.451373e-05,-3.059259e-05,0,0.2502465,0.2697669,0.2697669,0.5,NaN,0,-87.59048,-25,-25
31328,20918444,-8.165836000000001e-06,-2.09594e-05,0,0.2502465,0.2263044,0.2263044,0.5600000000000001,NaN,0,-87.55521,-43,-43
31712,21021270,-4.827976e-06,-1.610788e-05,0,0.2502465,0.1895573,0.1895573,0.4,NaN,0,-87.71346,-40,-40
32127,21125253,-3.010035e-06,-1.178767e-05,0,0.2502465,0.1693352,0.1693352,0.25,NaN,0,-87.88634,-23,-23
32539,21227292,-2.354383e-06,-8.055791e-06,0,0.2502465,0.1691303,0.1691303,0.61,NaN,0,-87.52464999999999,-15,-15
32955,21330482,-2.294779e-06,-5.966321e-06,0,0.2502465,0.1754357,0.1754357,0.42,NaN,0,-87.74024,-24,-24
33367,21433261,-1.698732e-06,-3.745612e-06,0,0.2502465,0.1703897,0.1703897,0.36,NaN,0,-87.79676000000001,-40,-40
33753,21537802,-1.698732e-06,-3.623928e-06,0,0.2502465,0.1572908,0.1572908,0.45,NaN,0,-87.73989,-40,-40
34163,21641913,-1.698732e-06,-3.929988e-06,0,0.2502465,0.1516681,0.1516681,0.37,NaN,0,-87.81618,-25,-25
34577,21744095,-1.460314e-06,-3.396554e-06,0,0.2502465,0.1632321,0.1632321,0.35,NaN,0,-87.87439999999999,-8,-8
34958,21845919,-1.460314e-06,-2.972619e-06,0,0.2502465,0.1842228,0.1842228,0.49,NaN,0,-87.73029,-16,-16
35373,21947955,-1.460314e-06,-2.981573e-06,0,0.2502465,0.189348,0.189348,0.43,NaN,0,-87.81865000000001,-33,-33
35756,22051224,-1.460314e-06,-3.219778e-06,0,0.2502465,0.183813,0.183813,0.29,NaN,0,-87.95993,-39,-39
36169,22154329,-1.460314e-06,-3.254851e-06,0,0.2502465,0.1769516,0.1769516,0.43,NaN,0,-87.84725,-25,-25
36587,22258500,-1.460314e-06,-3.166873e-06,0,0.2502465,0.1864776,0.1864776,0.18,NaN,0,-88.10156000000001,-9,-9
36998,22361090,-1.460314e-06,-2.715781e-06,0,0.2502465,0.2037508,0.2037508,0.34,NaN,0,0.01375084,-7,-7
37410,22463778,-1.460314e-06,-2.230234e-06,0,0.2502465,0.2127336,0.2127336,0.7,NaN,0,0.02273362,-19,-19
37815,22565971,-1.460314e-06,-1.944828e-06,0,0.2502465,0.2179944,0.2179944,0.4,NaN,0,-0.001378758,-28,-28
38199,22667032,-1.460314e-06,-1.741693e-06,0,0.2502465,0.2288114,0.2288114,0.07000000000000001,NaN,0,-0.02349025,-20,-20
38611,22769972,-1.460314e-06,-1.641679e-06,0,0.2502465,0.2379204,0.2379204,0.55,NaN,0,-0.01438127,-5,-5
39020,22872447,-1.460314e-06,-1.608275e-06,0,0.2502465,0.2611815,0.2611815,0.44,NaN,0,-0.02091295,1,1
39431,22977509,-1.460314e-06,-1.485721e-06,0,0.2502465,0.2928626,0.2928626,0.68,NaN,0,0.01076815,-1,-1
39840,23080330,-1.460314e-06,-1.364769e-06,0,0.2502465,0.3154596,0.3154596,0.74,NaN,0,0.009653002000000001,-14,-14
40250,23184011,-1.460314e-06,-1.327838e-06,0,0.2502465,0.3386591,0.3386591,0.98,NaN,0,0.03285256,-20,-20
40636,23285457,-1.460314e-06,-1.235055e-06,0,0.2502465,0.3576127,0.3576127,0.61,NaN,0,0.03037518,-24,-24
41050,23389324,-1.460314e-06,-1.100039e-06,0,0.2502465,0.3839843,0.3839843,0.8100000000000001,NaN,0,0.05674678,-21,-21
41465,23492463,-1.460314e-06,-8.983102e-07,0,0.2502465,0.4106478,0.4106478,0.62,NaN,0,0.06223106,-16,-16
41875,23596550,-1.460314e-06,-7.161764e-07,0,0.2502465,0.4344195,0.4344195,1.05,NaN,0,0.0860028,-16,-16
42284,23700315,-1.460314e-06,-5.190523e-07,0,0.2502465,0.4598469,0.4598469,0.6,NaN,0,0.08433056,-22,-22
42698,23804684,-1.460314e-06,-3.971293e-07,0,0.2502465,0.4789336,0.4789336,0.37,NaN,0,0.1034173,-29,-29
43109,23907482,-1.460314e-06,-3.453363e-07,0,0.2502465,0.4760469,0.4760469,0.31,NaN,0,0.07196608,-30,-30
43518,24012093,-1.460314e-06,-2.881693e-07,0,0.2502465,0.4627834,0.4627834,0.53,NaN,0,0.05870259,-29,-29
43928,24114938,-1.460314e-06,-1.864967e-07,0,0.2502465,0.4463186,0.4463186,0.68,NaN,0,0.01865533,-29,-29
44338,24218475,-1.460314e-06,-1.022271e-07,0,0.2502465,0.428437,0.428437,0.22,NaN,0,0.0007737279,-34,-34
44750,24321748,-1.460314e-06,-5.570223e-08,0,0.2502465,0.4025887,0.4025887,0.17,NaN,0,-0.04874095,-34,-34
45160,24424574,-1.460314e-06,-3.204502e-08,0,0.2502465,0.3719926,0.3719926,0.15,NaN,0,-0.07933709,-27,-27
45571,24525867,-1.460314e-06,-1.883211e-08,0,0.2502465,0.3443928,0.3443928,0.27,NaN,0,-0.1227296,-19,-19
45977,24628472,-1.460314e-06,-7.430344e-09,0,0.2502465,0.3200582,0.3200582,-0.02,NaN,0,-0.1470643,-20,-20
46365,24730588,-1.460314e-06,-1.611852e-09,0,0.2502465,0.2891368,0.2891368,0.12,NaN,0,-0.1891475,-19,-19
46776,24833745,-0.00919494,-9.501353e-06,0,0.2502465,0.268286,0.268286,0.02,NaN,0,-0.2099983,2,2
47186,24936571,-0.005023211,-1.041451e-05,0,0.2502465,0.2532367,0.2532367,0.19,NaN,0,-0.2304645,-8,-8
47593,25038356,-0.002744287,-2.512708e-06,0,0.2502465,0.2360161,0.2360161,-0.09,NaN,0,-0.2476851,0,0
48004,25142072,-0.001476377,-1.254724e-06,0,0.2502465,0.2170961,0.2170961,0.16,NaN,0,-0.2704884,-5,-5
48387,25245433,-0.0007943511,-4.313188e-07,0,0.2502465,0.2003212,0.2003212,-0.18,NaN,0,-0.2872634,-8,-8
48801,25348222,-0.0004342496,-2.650486e-07,0,0.2502465,0.1784922,0.1784922,-0.08,NaN,0,-0.3156155,-5,-5
49209,25451302,-0.0002375841,-9.649375e-08,0,0.2502465,0.1515981,0.1515981,-0.02,NaN,0,-0.3425096,-4,-4
49623,25554436,-0.0001281202,-5.574839e-08,0,0.2502465,0.126711,0.126711,-0.18,NaN,0,-0.3724855,-7,-7
50006,25656108,-6.92606e-05,-1.989974e-08,0,0.2502465,0.100258,0.100258,-0.22,NaN,0,-0.3992742,-9,-9
50417,25760120,-3.761053e-05,-8.51287e-09,0,0.2502465,0.06742856999999999,0.06742856999999999,0.16,NaN,0,-0.4321036,-10,-10
50775,25863737,-2.05934e-05,-5.729817e-09,0,0.2502465,0.0398276,0.0398276,-0.27,NaN,0,-0.4644501,-11,-11
51183,25966940,-1.147389e-05,-2.168235e-09,0,0.2502465,0.01208243,0.01208243,-0.06,NaN,0,-0.4921952,-12,-12
51566,26069946,-6.586313e-06,-1.261014e-09,0,0.2502465,-0.0157266,-0.0157266,-0.1,NaN,0,-0.5200043,-12,-12
51978,26172456,-4.082918e-06,-6.507435e-10,0,0.2502465,-0.04462109,-0.04462109,-0.26,NaN,0,-0.5559102,-13,-13
52388,26276496,-2.622604e-06,-4.329195e-10,0,0.2502465,-0.07434654,-0.07434654,0.24,NaN,0,-0.5910525,-14,-14
52798,26379344,-2.413988e-06,-3.269633e-10,0,0.2502465,-0.09721771,-0.09721771,-0.16,NaN,0,-0.6139237,-15,-15
53213,26482483,-2.413988e-06,-3.294645e-10,0,0.2502465,-0.1194118,-0.1194118,0,NaN,0,-0.6379793,-16,-16
53622,26585958,-2.413988e-06,-3.810783e-10,0,0.2502465,-0.1408607,-0.1408607,0.21,NaN,0,-0.6594282,-16,-16
54035,26688468,-2.413988e-06,-3.312834e-10,0,0.2502465,-0.1559641,-0.1559641,0.34,NaN,0,-0.6718308,-17,-17
54417,26791337,-2.413988e-06,-3.560672e-10,0,0.2502465,-0.1628509,-0.1628509,-0.05,NaN,0,-0.6787176,-17,-17
54833,26894767,-2.413988e-06,-3.735749e-10,0,0.2502465,-0.1711775,-0.1711775,0.22,NaN,0,-0.6814671,-17,-17
55244,26996517,-2.413988e-06,-3.922196e-10,0,0.2502465,-0.1765645,-0.1765645,-0.16,NaN,0,-0.6868541,-18,-18
55657,27099932,-2.413988e-06,-3.665264e-10,0,0.2502465,-0.1842265,-0.1842265,0.01,NaN,0,-0.6928223999999999,-18,-18
56041,27202248,-2.413988e-06,-4.399681e-10,0,0.2502465,-0.1938427,-0.1938427,-0.2,NaN,0,-0.7024386,-18,-18
56127,60577680,0,0,0,0.2502465,0,-0.6749729,-0.6,NaN,0,0.005027093,0,3
56542,60677745,0,0,0,0.2502465,0,-0.6765298,-0.59,NaN,0,0.003607489,0,3
56953,60780094,0,0,0,0.2502465,0,-0.6773338,-0.67,NaN,0,0.003223099,0,3
57371,60882573,0,0,0,0.2502465,0,-0.6764014,-0.71,NaN,0,0.004300512,0,3
57827,60984664,0,0,0,0.2502465,0,-0.6758372,-0.63,NaN,0,0.004986681,0,3
58274,61086509,0,0,0,0.2502465,0,-0.6742513,-0.4,NaN,0,0.006641366,0,3
58724,61187800,0,0,0,0.2502465,0,-0.6722865,-0.53,NaN,0,0.008880772,0,3
59173,61289327,0,0,0,0.2502465,0,-0.6688437,-0.95,NaN,0,0.01246092,0,3
59627,61389488,0,0,0,0.2502465,0,-0.6656882,-0.72,NaN,0,0.01576898,0,3
60079,61493554,0,0,0,0.2502465,0,-0.6629257,-0.61,NaN,0,0.01865355,0,3
60531,61595879,0,0,0,0.2502465,0,-0.6601266,-0.71,NaN,0,0.0217425,0,4
60945,61697536,0,0,0,0.2502465,0,-0.657516,-1.05,NaN,0,0.02462784,0,4
61398,61799355,0,0,0,0.2502465,0,-0.6563519,-0.7,NaN,0,0.02579192,0,4
61819,61900121,0,0,0,0.2502465,0,-0.6544702999999999,-0.6899999999999999,NaN,0,0.02781848,0,4
62272,62000748,0,0,0,0.2502465,0,-0.6519147,-0.89,NaN,0,0.03064881,0,4
62719,62103866,0,0,0,0.2502465,0,-0.6496769,-0.79,NaN,0,0.03302387,0,4
63140,62204534,0,0,0,0.2502465,0,-0.6477887,-0.33,NaN,0,0.03505705,0,4
63590,62306734,0,0,0,0.2502465,0,-0.6460618,-0.49,NaN,0,0.03705851,0,4
64045,62409098,0,0,0,0.2502465,0,-0.6433144,-0.58,NaN,0,0.03980605,0,4
64491,62511323,0,0,0,0.2502465,0,-0.6408833,-0.73,NaN,0,0.0423821,0,4
64944,62612495,0,0,0,0.2502465,0,-0.6386412,-0.54,NaN,0,0.04489879,0,4
65393,62716095,0,0,0,0.2502465,0,-0.6383102,-0.44,NaN,0,0.04536716,0,4
65846,62817250,0,0,0,0.2502465,0,-0.6368737,-0.54,NaN,0,0.04694102,0,4
66295,62920077,0,0,0,0.2502465,0,-0.6347097,-0.38,NaN,0,0.04923473,0,4
66749,63020948,0,0,0,0.2502465,0,-0.6312921,-0.36,NaN,0,0.05279724,0,4
67195,63123269,0,0,0,0.2502465,0,-0.6275733,-0.47,NaN,0,0.05679838,0,4
67945,63326883,0,0,0,0.2502465,0,-0.6216316,-0.34,NaN,0,0.06315962,0,4
68400,63427752,0,0,0,0.2502465,0,-0.6177683,-0.6899999999999999,NaN,0,0.06716029,0,4
68851,63530559,0,0,0,0.2502465,0,-0.6139547,-0.48,NaN,0,0.07124851,0,5
69304,63631317,0,0,0,0.2502465,0,-0.6095225,-0.62,NaN,0,0.07597068999999999,0,5
69752,63734870,0,0,0,0.2502465,0,-0.6075127,-0.23,NaN,0,0.07812545,0,4
70173,63836554,0,0,0,0.2502465,0,-0.6052426,-0.51,NaN,0,0.08067022,0,4
70623,63938549,0,0,0,0.2502465,0,-0.6052014,-0.38,NaN,0,0.08113102,0,4
71077,64040257,0,0,0,0.2502465,0,-0.6041334,-0.76,NaN,0,0.08233633999999999,0,5
71526,64142945,0,0,0,0.2502465,0,-0.6033219,-0.73,NaN,0,0.08328519,0,4
71980,64245246,0,0,0,0.2502465,0,-0.6025758,-0.59,NaN,0,0.08431349,0,4
72428,64347335,0,0,0,0.2502465,0,-0.6005055,-0.38,NaN,0,0.08675001,0,4
72851,64448524,0,0,0,0.2502465,0,-0.5968001000000001,-0.66,NaN,0,0.09073005000000001,0,5
73302,64550727,0,0,0,0.2502465,0,-0.5955533,-0.5,NaN,0,0.09239653,0,4
73756,64652081,0,0,0,0.2502465,0,-0.5935709,-0.49,NaN,0,0.09452381999999999,0,4
74205,64753865,0,0,0,0.2502465,-0.5924495,-0.5924495,-0.63,NaN,0,0.09613351000000001,3,3
74626,64857209,0,0,0,0.2502465,-0.590377,-0.590377,-0.61,NaN,0,0.09835104,4,4
75078,64959939,0,0,0,0.2502465,-0.5890728,-0.5890728,-0.53,NaN,0,0.09992991,4,4
75527,65066449,0,0,0,0.2502465,-0.5869899,-0.5869899,-0.54,NaN,0,0.1023026,3,3
75975,65169570,0,0,0,0.2502465,-0.5843956,-0.5843956,-0.32,NaN,0,0.1051716,4,4
76394,65275851,0,0,0,0.2502465,-0.5798815,-0.5798815,-0.79,NaN,0,0.109968,5,5
76851,65380121,0,0,0,0.2502465,-0.5757627,-0.5757627,-0.5,NaN,0,0.1143691,4,4
77300,65484342,0,0,0,0.2502465,-0.5711604,-0.5711604,-0.74,NaN,0,0.1191087,5,5
77755,65588264,0,0,0,0.2502465,-0.5673084,-0.5673084,-0.44,NaN,0,0.1232354,5,5
78204,65691527,0,0,0,0.2502465,-0.5630794,-0.5630794,-0.58,NaN,0,0.1276093,4,4
78656,65793956,0,0,0,0.2502465,-0.5592443,-0.5592443,-0.6899999999999999,NaN,0,0.1318564,4,4
79105,65898466,0,0,0,0.2502465,-0.5564807000000001,-0.5564807000000001,-1.02,NaN,0,0.134765,5,5
79561,66001917,0,0,0,0.2502465,-0.5574922,-0.5574922,-0.52,NaN,0,0.1341731,5,5
79975,66105503,0,0,0,0.2502465,-0.5577325,-0.5577325,-0.67,NaN,0,0.1340778,4,4
80427,66206748,0,0,0,0.2502465,-0.558654,-0.558654,-0.91,NaN,0,0.133286,4,4
80877,66312363,0,0,0,0.2502465,-0.5619507,-0.5619507,-0.91,NaN,0,0.1301266,5,5
81299,66415720,0,0,0,0.2502465,-0.5653844,-0.5653844,-0.59,NaN,0,0.1272651,5,5
81743,66518485,0,0,0,0.2502465,-0.5689685,-0.5689685,-0.31,NaN,0,0.1238183,5,5
82198,66622331,0,0,0,0.2502465,-0.5714671,-0.5714671,-0.46,NaN,0,0.1214418,4,4
82616,66726048,0,0,0,0.2502465,-0.5717337,-0.5717337,-0.72,NaN,0,0.1213278,5,5
83068,66827266,0,0,0,0.2502465,-0.571858,-0.571858,-0.48,NaN,0,0.1213485,5,5
83521,66930332,0,0,0,0.2502465,-0.5697906,-0.5697906,-0.67,NaN,0,0.1236982,5,5
83975,67033957,0,0,0,0.2502465,-0.5676455,-0.5676455,-0.48,NaN,0,0.125973,4,4
84390,67136248,0,0,0,0.2502465,-0.567211,-0.567211,-0.83,NaN,0,0.1266973,4,4
84843,67239774,0,0,0,0.2502465,-0.5667745,-0.5667745,-0.88,NaN,0,0.1272635,4,4
85257,67344086,0.04374959,1.429394e-05,0.0169414,0.2502465,-0.5673213,-0.5673213,-0.87,NaN,0,0.1267168,4,4
85711,67449513,0.09374911,2.975017e-05,0.05685664,0.2502465,-0.5683551,-0.5683551,-0.32,NaN,0,0.1258279,4,4
86157,67554289,0.1412489,4.352629e-05,0.1023007,0.2502465,-0.5692047,-0.5692047,-0.34,NaN,0,0.1249783,4,4
86579,67657207,0.1912489,5.072355e-05,0.1508523,0.2502465,-0.566559,-0.566559,-0.19,NaN,0,0.1279063,5,5
87027,67761800,0.2387488,7.800758e-05,0.1988588,0.2502465,-0.5617959,-0.5617959,-0.45,NaN,0,0.1327991,7,7
87477,67867379,0.2862488,0.0001256168,0.2479686,0.2502465,-0.554907,-0.554907,-0.45,NaN,0,0.1399093,7,7
87929,67972287,0.344824,0.0001308918,0.2963222,0.2502465,-0.5430542,-0.5429186,-0.67,NaN,0,0.1521876,16,16
88348,68081857,0.3023213,0.0001100302,0.3118825,0.2502465,-0.5173759,-0.5136526,-0.25,NaN,0,0.1817359,34,40
88800,68187501,0.277705,0.0001937747,0.292825,0.2502465,-0.4715287,-0.4608296,-0.38,NaN,0,0.2347114,55,67
89248,68295852,0.2613291,0.000190407,0.2759366,0.2502465,-0.4099355,-0.378316,-0.42,NaN,0,0.3176599,69,88
89671,68400090,0.2677605,0.0001632869,0.2640141,0.2502465,-0.3296992,-0.282464,0.3,NaN,0,0.4138171,82,102
90118,68505982,0.2603099,0.000295192,0.265072,0.2502465,-0.239183,-0.1688474,-0.14,NaN,0,0.5277313,90,110
90537,68610947,0.2615046,0.0009084642,0.2618446,0.2502465,-0.1368816,-0.04618662,-0.27,NaN,0,0.6506896,97,116
90987,68716938,0.25917,0.001744092,0.2622321,0.2502465,-0.02961832,0.08203438,0.03,NaN,0,0.7790555,102,119
91441,68820846,0.2494561,0.002209857,0.2557681,0.2502465,0.08672974,0.2125053,0.22,NaN,0,0.909679,106,123
91888,68928577,0.2477096,0.002060518,0.2489927,0.2502465,0.2082505,0.3498571,0.51,NaN,0,1.046878,109,124
92342,69033754,0.2475192,0.00208199,0.2504408,0.2502465,0.3339434,0.4867729,0.38,NaN,0,1.183787,112,125
92757,69141087,0.2523448,0.001892954,0.2574891,0.2502465,0.456568,0.6209763,1.05,NaN,0,1.318112,114,123
93209,69245464,0.2437554,0.001472473,0.2532494,0.2502465,0.5884581,0.7558597,0.63,NaN,0,1.453125,116,124
93655,69354220,0.2395243,0.001009852,0.2427871,0.2502465,0.722787,0.9026024,0.65,NaN,0,1.599547,117,127
94102,69459320,0.2399703,0.0008984208,0.2405538,0.2502465,0.8522613999999999,1.04237,1.15,NaN,0,1.738773,118,128
94553,69564095,0.2456244,0.001086786,0.2415942,0.2502465,0.9901306,1.179121,0.29,NaN,0,1.875066,119,127
94968,69667564,0.2625201,0.001394808,0.253298,0.2502465,1.122368,1.302012,0.48,NaN,0,1.997774,121,123
95422,69771850,0.2396717,0.001251131,0.2492058,0.2502465,1.262661,1.405919,0.88,NaN,0,2.100987,126,126
95837,69879313,0.2553231,0.001444727,0.2477667,0.2502465,1.400353,1.517145,1.25,NaN,0,2.211885,129,127
96291,69984555,0.2580391,0.001581341,0.2575271,0.2502465,1.542345,1.632541,1.27,NaN,0,2.326885,133,128
96739,70091860,0.2722985,0.001861602,0.2632716,0.2502465,1.681379,1.758175,0.51,NaN,0,2.452053,135,128
97189,70195767,0.2756765,0.002335399,0.2726642,0.2502465,1.824498,1.875001,0.74,NaN,0,2.568292,138,129
97607,70302509,0.2834695,0.003322303,0.2799784,0.2502465,1.964422,1.984202,1.01,NaN,0,2.677035,141,130
98061,70408373,0.2824937,0.00372234,0.2849493,0.2502465,2.108243,2.086237,1.14,NaN,0,2.778726,146,132
98472,70517926,0.2868111,0.003125966,0.2878351,0.2502465,2.245127,2.191757,1.29,NaN,0,2.883987,149,135
98919,70625913,0.2780313,0.002148777,0.2861113,0.2502465,2.38218,2.298874,1.85,NaN,0,2.990684,152,139
99359,70734533,0.2842412,0.001922816,0.2866217,0.2502465,2.519375,2.421562,1.65,NaN,0,3.112679,154,143
99810,70842750,0.245947,0.001339391,0.2716202,0.2502465,2.655873,2.549778,2.48,NaN,0,3.239918,152,148
100219,70951921,0.2343603,0.001045629,0.2453399,0.2502465,2.788069,2.698294,2.42,NaN,0,3.386817,144,148
100665,71058909,0.2216419,0.001313776,0.2344464,0.2502465,2.911675,2.842786,2.58,NaN,0,3.529469,130,139
101107,71166121,0.2221103,0.00204061,0.2226133,0.2502465,3.023015,2.976886,2.13,NaN,0,3.661868,115,127
101519,71275517,0.2310773,0.002213866,0.2278144,0.2502465,3.125117,3.095699,3,NaN,0,3.779132,102,113
101970,71382443,0.2308947,0.001670808,0.2304264,0.2502465,3.214779,3.197063,2.97,NaN,0,3.878871,91,99
102410,71490715,0.2385058,0.001308411,0.2351148,0.2502465,3.296442,3.289211,2.82,NaN,0,3.969753,82,88
102824,71597777,0.2386237,0.0010539,0.2398859,0.2502465,3.371569,3.367929,3.31,NaN,0,4.047341,76,79
103232,71704306,0.245922,0.0007613152,0.2405562,0.2502465,3.439454,3.439919,3.23,NaN,0,4.118492,70,72
103679,71811290,0.2442643,0.0006591827,0.2459357,0.2502465,3.504677,3.508085,3.35,NaN,0,4.186186,66,67
104064,71917848,0.2442024,0.0006589293,0.2483348,0.2502465,3.564612,3.569341,3.6,NaN,0,4.246602,62,61
104511,72023960,0.247058,0.0007890612,0.2449333,0.2502465,3.623163,3.627456,3.75,NaN,0,4.304458,59,59
104953,72132568,0.24395,0.001010224,0.2455885,0.2502465,3.679147,3.692154,3.79,NaN,0,4.368828,56,57
105398,72240568,0.2511246,0.001353145,0.2467254,0.2502465,3.732991,3.757782,3.84,NaN,0,4.433838,53,54
105840,72349288,0.2526703,0.001680702,0.2491883,0.2502465,3.785125,3.822508,4.06,NaN,0,4.497961,50,51
106257,72461473,0.247377,0.001194507,0.2530959,0.2502465,3.83842,3.885921,4.15,NaN,0,4.560695,47,47
106703,72567506,0.2455671,0.0006973594,0.2506528,0.2502465,3.887808,3.940856,4.38,NaN,0,4.61489,46,46
107148,72677201,0.2439182,0.000541687,0.2460124,0.2502465,3.937535,3.999973,4.42,NaN,0,4.673045,44,45
107596,72785094,0.2581668,0.0005277693,0.2486997,0.2502465,3.985176,4.053919,4.85,NaN,0,4.726045,42,43
108040,72893088,0.2547552,0.0006627142,0.2572603,0.2502465,4.032138,4.11,4.59,NaN,0,4.781386,41,40
108488,73000319,0.2489745,0.0007645041,0.2553565,0.2502465,4.078539,4.165873,4.77,NaN,0,4.836519,39,39
108931,73108552,0.2427732,0.0008222014,0.2472931,0.2502465,4.124501,4.224336,4.88,NaN,0,4.894043,38,40
109375,73213950,0.2534584,0.0009601712,0.2496863,0.2502465,4.170074,4.280806,4.81,NaN,0,4.949774,36,37
109787,73323115,0.2417063,0.001037404,0.2520094,0.2502465,4.215353,4.341319,4.64,NaN,0,5.009417,34,36
110234,73428554,0.2342661,0.0009662062,0.2442696,0.2502465,4.260381,4.394308,4.86,NaN,0,5.061742,33,37
110676,73537478,0.2377642,0.0007359982,0.2389701,0.2502465,4.305184,4.446237,4.97,NaN,0,5.113083,32,37
111090,73645311,0.2450942,0.0004805923,0.2414286,0.2502465,4.349777,4.49677,5.03,NaN,0,5.162884,32,36
111531,73754291,0.2331832,0.0003263503,0.237441,0.2502465,4.394248,4.544847,5.63,NaN,0,5.210373,31,35
111947,73865754,0.2379029,0.0004001111,0.2358069,0.2502465,4.440909,4.600871,5.38,NaN,0,5.265879,30,35
112394,73973205,0.2386783,0.0006043613,0.2375773,0.2502465,4.485098,4.653119,5.19,NaN,0,5.3177,29,33
112838,74081320,0.2451972,0.0008871853,0.2424904,0.2502465,4.529233,4.705464,5.81,NaN,0,5.369748,28,31
113283,74187206,0.2540843,0.001057029,0.2465243,0.2502465,4.573374,4.755788,5.84,NaN,0,5.419636,28,28
113726,74294478,0.2430886,0.0009517074,0.2458701,0.2502465,4.61748,4.809118,5.98,NaN,0,5.472456,27,28
114173,74400583,0.2403171,0.0008698999999999999,0.241856,0.2502465,4.661554,4.862264,6.46,NaN,0,5.525243,26,28
114583,74509118,0.2424069,0.0009483397,0.2375633,0.2502465,4.705633,4.92138,6.2,NaN,0,5.583924,24,28
115029,74615124,0.2425625,0.001073286,0.2411439,0.2502465,4.749626,4.981678,5.51,NaN,0,5.644076,23,26
115471,74721897,0.2442855,0.001228765,0.2416484,0.2502465,4.793568,5.036554,5.5,NaN,0,5.698304,21,24
115918,74827762,0.2577313,0.001512825,0.2509579,0.2502465,4.837468,5.080512,4.61,NaN,0,5.742117,21,21
116328,74934045,0.2352281,0.001291648,0.2441373,0.2502465,4.879014,5.113681,4.75,NaN,0,5.774852,22,22
116778,75040717,0.244172,0.001200691,0.2414888,0.2502465,4.922843,5.137864,4.83,NaN,0,5.798607,24,23
117222,75147028,0.2613821,0.001346499,0.2513128,0.2502465,4.965453,5.152356,4.98,NaN,0,5.812954,27,21
117672,75256534,0.2663193,0.001500875,0.2615199,0.2502465,5.010327,5.165567,4.68,NaN,0,5.825594,30,21
118117,75364084,0.2559071,0.001270801,0.2611049,0.2502465,5.05293,5.174251,5.12,NaN,0,5.833842,33,23
118567,75473907,0.2616298,0.00128299,0.2600437,0.2502465,5.097853,5.188739,4.64,NaN,0,5.847903,36,26
119007,75580750,0.27674,0.002207786,0.2663091,0.2502465,5.141598,5.199717,4.86,NaN,0,5.858446,40,29
119415,75687846,0.2927788,0.005146325,0.2801336,0.2502465,5.18535,5.213421,4.23,NaN,0,5.871136,43,28
119865,75797115,0.2706078,0.007391304,0.2857739,0.2502465,5.229236,5.223941,4.58,NaN,0,5.880641,46,31
120275,75905541,0.2978373,0.009808511000000001,0.2953128,0.2502465,5.271912,5.230216,4.33,NaN,0,5.885321,50,34
120724,76011307,0.2549988,0.006657302,0.2841383,0.2502465,5.315692,5.242385,3.8,NaN,0,5.895659,53,40
121131,76120613,0.2540362,0.00462684,0.2650165,0.2502465,5.35951,5.252109,4.24,NaN,0,5.902834,56,49
121580,76226980,0.2595723,0.00328061,0.266867,0.2502465,5.403302,5.264841,4.13,NaN,0,5.913157,59,52
122023,76336121,0.2549822,0.002731591,0.2575923,0.2502465,5.447073,5.283301,5.34,NaN,0,5.928839,62,57
122469,76444946,0.2790719,0.003201216,0.2662131,0.2502465,5.490796,5.316069,5.04,NaN,0,5.959189,63,57
122911,76553954,0.2608655,0.00294289,0.2712193,0.2502465,5.53449,5.35601,4.75,NaN,0,5.996269,63,58
123358,76669533,0.245488,0.001541093,0.2614933,0.2502465,5.580565,5.398879,5.14,NaN,0,6.036124,64,63
123806,76776984,0.254812,0.0007122755,0.2565267,0.2502465,5.624351,5.439692,5.14,NaN,0,6.073626,64,64
124248,76884568,0.2422316,0.0003693551,0.2521474,0.2502465,5.668168,5.48637,4.88,NaN,0,6.117153,64,65
124663,76990254,0.2317905,0.0003046095,0.2403507,0.2502465,5.711962,5.533814,5.41,NaN,0,6.161507,63,69
125105,77097557,0.2510032,0.0004794598,0.2391253,0.2502465,5.75457,5.586265,5.63,NaN,0,6.21102,62,69
125518,77201894,0.2408468,0.0007289201,0.2437569,0.2502465,5.798349,5.640595,5.34,NaN,0,6.262994,61,66
125964,77309927,0.2382273,0.0009918660000000001,0.2463687,0.2502465,5.84205,5.695441,5.61,NaN,0,6.31497,60,64
126411,77416871,0.2143648,0.0008279085,0.2331829,0.2502465,5.883899,5.749202,5.4,NaN,0,6.366221,55,61
126853,77524695,0.2263678,0.000878185,0.2205406,0.2502465,5.920144,5.799836,5.57,NaN,0,6.414422,46,54
127299,77630448,0.2224889,0.0007989705,0.2276812,0.2502465,5.95012,5.841773,5.32,NaN,0,6.45349,39,45
127710,77737880,0.2229444,0.000698477,0.2253035,0.2502465,5.974898,5.876189,5.34,NaN,0,6.485396,33,39
128157,77844361,0.2315722,0.0006805658,0.2301514,0.2502465,5.995379,5.902854,5.84,NaN,0,6.509185,28,32
128569,77951961,0.2259241,0.0005989522,0.2251129,0.2502465,6.012296,5.921806,5.62,NaN,0,6.525322,25,29
129020,78060900,0.2405324,0.0004541576,0.2328825,0.2502465,6.026002,5.936825,6.17,NaN,0,6.53761,21,22
129464,78168897,0.25801,0.0003625751,0.2412988,0.2502465,6.035775,5.946031,6.44,NaN,0,6.543992,17,15
129912,78283454,0.2685276,0.0003185272,0.2593303,0.2502465,6.042885,5.956001,6.14,NaN,0,6.551071,14,7
130361,78390422,0.2692198,0.0001697242,0.2635958,0.2502465,6.047182,5.959785,5.74,NaN,0,6.552116,12,4
130804,78500236,0.2645818,0.0001310706,0.2664281,0.2502465,6.049579,5.95934,5.81,NaN,0,6.549221,10,2
131250,78607021,0.2487396,1.192093e-05,0.2565663,0.2502465,6.050245,5.956757,6.23,NaN,0,6.543961,9,3
131694,78716918,0.2475893,0.0002269149,0.2497432,0.2502465,6.049607,5.95706,5.99,NaN,0,6.541823,8,5
132138,78822323,0.2464439,0.0006089211,0.2451462,0.2502465,6.047996,5.960212,6.01,NaN,0,6.542594,6,6
132550,78928936,0.2374234,0.0009557158,0.2428708,0.2502465,6.045567,5.965782,6.11,NaN,0,6.545722,5,7
132993,79034360,0.2332303,0.0008831471,0.234264,0.2502465,6.042392,5.973777,5.9,NaN,0,6.551939,3,8
133436,79143208,0.2290972,0.0003980547,0.2361759,0.2502465,6.038518,5.979177,5.86,NaN,0,6.55557,1,7
133851,79252963,0.2221746,0.0002286136,0.2246204,0.2502465,6.034071,5.983054,6.1,NaN,0,6.557898,0,7
134297,79360228,0.2435696,0.0002230257,0.2307291,0.2502465,6.029404,5.982436,5.76,NaN,0,6.555662,0,4
134749,79466552,0.231746,0.0003179014,0.2328746,0.2502465,6.024336,5.981273,6.04,NaN,0,6.553164,-1,2
135188,79573527,0.2373769,0.0003954917,0.234628,0.2502465,6.018963,5.978745,5.87,NaN,0,6.549332,-1,0
135630,79682494,0.2502357,0.0004589856,0.2432223,0.2502465,6.013431,5.973691,5.84,NaN,0,6.543034,-1,-3
136078,79788332,0.2463595,0.0006040484,0.2472207,0.2502465,6.007669,5.963119,6.23,NaN,0,6.531295,-1,-4
136488,79895479,0.2446252,0.0007551908,0.2477444,0.2502465,6.001746,5.953891,5.86,NaN,0,6.5209,-1,-3
136935,80001225,0.2415118,0.0008104742,0.2436151,0.2502465,5.995692,5.9438,5.98,NaN,0,6.509504,-1,-3
137376,80110731,0.2442601,0.0008251518,0.2477149,0.2502465,5.989661,5.9336,5.86,NaN,0,6.497702,-1,-3
137825,80218299,0.2427184,0.0007742494,0.2458905,0.2502465,5.983284,5.924097,5.96,NaN,0,6.486887,0,-2
138235,80326450,0.2424017,0.0008604527,0.244836,0.2502465,5.977092,5.911486,6.09,NaN,0,6.472375,0,-2
138683,80431231,0.2536164,0.000792712,0.2496962,0.2502465,5.970719,5.901366,6.1,NaN,0,6.460653,0,-3
139125,80538749,0.2464315,0.0009648502,0.2520275,0.2502465,5.964633,5.893111,5.56,NaN,0,6.45072,0,-2
139571,80645538,0.2492386,0.001348287,0.2503244,0.2502465,5.958196,5.885653,5.78,NaN,0,6.441355,0,-1
139982,80752911,0.2391514,0.001588389,0.2470506,0.2502465,5.951751,5.878623,5.81,NaN,0,6.432273,0,0
140430,80858978,0.2260252,0.001660898,0.2357706,0.2502465,5.945369,5.875794,5.75,NaN,0,6.427383,0,2
140869,80966455,0.2341095,0.001863644,0.234966,0.2502465,5.938963,5.869102,5.65,NaN,0,6.418334,0,2
141287,81074087,0.2369795,0.001421273,0.2382052,0.2502465,5.93254,5.864979,5.43,NaN,0,6.411999,0,2
141727,81183124,0.2341256,0.0007477850000000001,0.2317179,0.2502465,5.926156,5.855744,4.91,NaN,0,6.400399,0,2
142170,81292082,0.2276866,0.0004898608,0.2330702,0.2502465,5.919718,5.850484,5.14,NaN,0,6.392842,0,2
142616,81398765,0.2459557,0.0007666051,0.2356299,0.2502465,5.913263,5.845223,5.46,NaN,0,6.385743,0,2
143059,81508935,0.2430544,0.00112246,0.2453562,0.2502465,5.906766,5.835643,5.64,NaN,0,6.374148,0,-2
143475,81614509,0.2397558,0.001392409,0.2450837,0.2502465,5.900197,5.825468,5.27,NaN,0,6.362272,0,0
143922,81723210,0.2409159,0.001264602,0.2403716,0.2502465,5.893874,5.815618,5.43,NaN,0,6.350644,1,0
144368,81830959,0.2392082,0.001302034,0.2393906,0.2502465,5.88739,5.806314,5.32,NaN,0,6.339173,1,0
144813,81939980,0.2365358,0.001260385,0.2391979,0.2502465,5.881025,5.800724,5.39,NaN,0,6.33179,1,1
145261,82046558,0.2438149,0.001513556,0.2425159,0.2502465,5.874486,5.796427,5.36,NaN,0,6.325708,0,0
145671,82156105,0.2617171,0.001638442,0.2497031,0.2502465,5.867939,5.790127,5.95,NaN,0,6.317921,0,-2
146116,82263565,0.2450383,0.001808122,0.2548041,0.2502465,5.861557,5.784308,5.65,NaN,0,6.310682,1,-2
146561,82370084,0.2265649,0.002289817,0.2428845,0.2502465,5.855254,5.779635,5.22,NaN,0,6.305331,0,0
147007,82478329,0.2378456,0.003178477,0.2398292,0.2502465,5.84898,5.776077,5.15,NaN,0,6.301239,0,1
147453,82585311,0.2581438,0.003989726,0.2513123,0.2502465,5.842731,5.764455,5.26,NaN,0,6.289616,1,-1
147864,82693130,0.2553675,0.004249513,0.2581389,0.2502465,5.83626,5.75194,5.5,NaN,0,6.277544,1,-2
148312,82801555,0.2514094,0.003760308,0.2539489,0.2502465,5.829936,5.741144,5.32,NaN,0,6.267045,2,-1
148754,82909998,0.258882,0.003334939,0.2554685,0.2502465,5.823496,5.731493,5.56,NaN,0,6.258272,2,-1
149170,83017105,0.2481982,0.002469271,0.2539693,0.2502465,5.81706,5.724109,5.59,NaN,0,6.252451,2,0
149610,83125235,0.2389158,0.001901731,0.2461026,0.2502465,5.810631,5.71921,5.45,NaN,0,6.249322,2,1
150027,83231286,0.2361865,0.001834676,0.2397061,0.2502465,5.804056,5.716876,5.38,NaN,0,6.248827,1,3
150470,83340509,0.2377915,0.002077013,0.2386692,0.2502465,5.797505,5.713464,5.18,NaN,0,6.247567,1,3
150915,83447027,0.2407863,0.002190635,0.2420232,0.2502465,5.790882,5.70835,5.19,NaN,0,6.245199,1,3
151303,83555917,0.2315833,0.002189606,0.2394874,0.2502465,5.784221,5.704283,5.6,NaN,0,6.244093,1,3
151751,83663427,0.2373344,0.002106056,0.2371202,0.2502465,5.777702,5.701054,5.26,NaN,0,6.244122,0,2
152194,83771912,0.2557871,0.002031267,0.2457755,0.2502465,5.771067,5.691784,5.5,NaN,0,6.238476,0,0
152603,83879854,0.2322827,0.0013666,0.2415151,0.2502465,5.76448,5.678958,6.23,NaN,0,6.229503,1,1
153051,83987738,0.2418657,0.0009810328,0.2372508,0.2502465,5.757811,5.676429,5.5,NaN,0,6.230735,1,2
153493,84095479,0.2468027,0.0009101778,0.2424742,0.2502465,5.751112,5.676508,5.39,NaN,0,6.235034,0,0
153939,84201580,0.2521881,0.001345277,0.2518366,0.2502465,5.744386,5.669145,5.36,NaN,0,6.231507,0,-2
154381,84310801,0.2497737,0.00104931,0.2531929,0.2502465,5.737645,5.655098,5.54,NaN,0,6.221809,1,-2
154826,84417928,0.2551988,0.001569599,0.2540822,0.2502465,5.730948,5.642979,5.52,NaN,0,6.21352,1,-2
155269,84527005,0.2655959,0.001892596,0.2621596,0.2502465,5.724361,5.633626,5.84,NaN,0,6.207844,2,-3
155714,84632358,0.2601897,0.00122717,0.2622312,0.2502465,5.717803,5.629358,5.81,NaN,0,6.206811,1,-2
156157,84742774,0.2651384,0.0007888079,0.2597952,0.2502465,5.711429,5.629526,5.48,NaN,0,6.210435,1,-1
156574,84850908,0.2617966,0.0007115006,0.2635911,0.2502465,5.70492,5.627654,5.08,NaN,0,6.211944,0,-2
157017,84959541,0.2578033,0.0009227395,0.2646843,0.2502465,5.698544,5.616783,4.9,NaN,0,6.204017,1,-1
157426,85070934,0.2688471,0.001017332,0.263048,0.2502465,5.691956,5.599069,5.23,NaN,0,6.189675,2,-1
157874,85178692,0.2795178,0.001052737,0.2710523,0.2502465,5.685403,5.578732,5.43,NaN,0,6.171841,3,-2
158285,85287906,0.2781455,0.0008892715,0.2786683,0.2502465,5.678794,5.560926,5.4,NaN,0,6.156896,4,-2
158734,85393985,0.2686945,0.0006675422,0.2726403,0.2502465,5.672076,5.547921,5.23,NaN,0,6.146454,5,0
159174,85502734,0.2702571,0.0006000102,0.2695835,0.2502465,5.665434,5.536939,4.62,NaN,0,6.137815,5,2
159618,85609621,0.2966924,0.0008879602,0.2797216,0.2502465,5.658769,5.521152,4.97,NaN,0,6.124667,6,0
160033,85717279,0.2871897,0.0009868145000000001,0.2879323,0.2502465,5.652183,5.49941,5.36,NaN,0,6.105344,8,0
160479,85824294,0.2541851,0.0006855725999999999,0.2768179,0.2502465,5.645622,5.48474,5.25,NaN,0,6.092794,9,4
160892,85933292,0.2603824,0.0005343854,0.2630377,0.2502465,5.63915,5.481505,5.39,NaN,0,6.091987,8,8
161338,86040517,0.272484,0.0005914867,0.2691285,0.2502465,5.632545,5.484527,5.19,NaN,0,6.097198,7,8
161750,86148842,0.253836,0.0006613135,0.2653698,0.2502465,5.625945,5.48877,5.08,NaN,0,6.1035,6,9
162195,86257235,0.2457775,0.0007094443,0.255946,0.2502465,5.619259,5.495348,5.45,NaN,0,6.112115,5,11
162642,86366440,0.2300093,0.0002369583,0.2440424,0.2502465,5.612532,5.504718,5.49,NaN,0,6.12369,3,13
163055,86475969,0.2390866,5.233288e-05,0.2367999,0.2502465,5.605786,5.517097,5.64,NaN,0,6.138259,1,13
163503,86582538,0.2429383,0.0001014173,0.2399994,0.2502465,5.59935,5.527331,5.4,NaN,0,6.150767,0,10
163918,86689525,0.2453413,0.0002046078,0.2379092,0.2502465,5.593064,5.53617,5.37,NaN,0,6.161948,0,9
164363,86797228,0.2442261,0.0001943707,0.2390649,0.2502465,5.586872,5.542012,5.4,NaN,0,6.170651,-2,6
164805,86905212,0.2453636,0.0001247525,0.2425046,0.2502465,5.580704,5.544443,5.41,NaN,0,6.175714,-2,3
165225,87011481,0.2467846,4.389882e-05,0.2429292,0.2502465,5.574471,5.543459,5.31,NaN,0,6.177438,-3,1
165668,87119502,0.2481087,1.676381e-05,0.2442004,0.2502465,5.568386,5.543119,5.42,NaN,0,6.180105,-3,0
166115,87225775,0.2472069,1.624227e-06,0.2488108,0.2502465,5.562263,5.542555,5.52,NaN,0,6.18225,-4,-2
166556,87333344,0.2454458,5.707145e-06,0.2454659,0.2502465,5.555978,5.542353,5.6,NaN,0,6.18461,-5,-3
166971,87441442,0.2618944,6.41048e-05,0.2512242,0.2502465,5.549478,5.541806,5.51,NaN,0,6.186696,-6,-5
167413,87550021,0.2545338,0.0001380146,0.2574546,0.2502465,5.542953,5.540143,5.29,NaN,0,6.187589,-6,-7
167862,87657211,0.2571692,0.0002323091,0.2578781,0.2502465,5.536365,5.535872,5.74,NaN,0,6.186025,-6,-7
168301,87765887,0.2637855,0.0003493428,0.2586771,0.2502465,5.529802,5.531242,5.62,NaN,0,6.183807,-7,-8
168718,87879095,0.2656115,0.000474751,0.2639118,0.2502465,5.522965,5.524709,5.77,NaN,0,6.179838,-6,-9
169166,87986548,0.2568925,0.0005072355,0.262693,0.2502465,5.516515,5.519227,5.81,NaN,0,6.176621,-7,-8
169612,88096025,0.2580555,0.0004333556,0.2573225,0.2502465,5.509943,5.515152,5.67,NaN,0,6.174667,-7,-8
170059,88202494,0.2589542,0.0002374649,0.2576378,0.2502465,5.503384,5.511116,5.77,NaN,0,6.172614,-7,-7
170502,88309891,0.2509826,0.0001708567,0.2537324,0.2502465,5.496798,5.507759,5.54,NaN,0,6.171089,-7,-6
170947,88414559,0.2515202,0.0001685917,0.2503668,0.2502465,5.490402,5.506205,5.66,NaN,0,6.171381,-8,-5
171391,88522423,0.257122,0.0002020001,0.2531305,0.2502465,5.484057,5.504921,5.73,NaN,0,6.172226,-9,-6
171805,88629305,0.2635922,0.0002601147,0.2579779,0.2502465,5.477543,5.503528,5.8,NaN,0,6.173251,-9,-8
172244,88739279,0.2547958,0.0003655255,0.2570463,0.2502465,5.47107,5.503787,5.72,NaN,0,6.175722,-10,-8
172690,88848007,0.2480937,0.0003801882,0.2523295,0.2502465,5.46464,5.504927,5.76,NaN,0,6.179152,-10,-7
173134,88957765,0.2462873,0.0003488511,0.247492,0.2502465,5.45815,5.505103,5.84,NaN,0,6.181471,-11,-7
173579,89069124,0.2480175,0.0002715588,0.2481735,0.2502465,5.451471,5.506917,5.84,NaN,0,6.185436,-12,-8
174029,89176457,0.252297,0.0002505481,0.2491944,0.2502465,5.44487,5.510204,5.66,NaN,0,6.191104,-13,-9
174473,89284998,0.2485278,0.0002535135,0.2497732,0.2502465,5.43834,5.510995,5.93,NaN,0,6.19391,-14,-10
174917,89390890,0.2542008,0.0003123581,0.2526561,0.2502465,5.431855,5.508818,5.79,NaN,0,6.193686,-14,-12
175328,89498954,0.2566853,0.0001633465,0.2533513,0.2502465,5.425235,5.507963,5.52,NaN,0,6.195012,-15,-13
175776,89605334,0.2605017,8.660555e-05,0.2577024,0.2502465,5.41854,5.500299,5.81,NaN,0,6.1896,-15,-15
176224,89715012,0.2589785,0.0003780127,0.2595296,0.2502465,5.411883,5.491228,5.84,NaN,0,6.18258,-14,-16
176637,89819984,0.2507227,0.0007328987,0.255832,0.2502465,5.405278,5.483707,5.78,NaN,0,6.177173,-14,-15
177079,89929047,0.2546327,0.0009604692,0.2549821,0.2502465,5.398582,5.478166,5.78,NaN,0,6.173539,-14,-15
177494,90033915,0.2457659,0.0008399934,0.2508065,0.2502465,5.391946,5.474176,5.58,NaN,0,6.171151,-15,-14
177940,90143314,0.2430329,0.0006277859,0.2463161,0.2502465,5.38548,5.470106,5.71,NaN,0,6.168912,-15,-12
178387,90250443,0.2477011,0.0005046129,0.2448658,0.2502465,5.378876,5.465893,5.84,NaN,0,6.166309,-15,-12
178831,90359961,0.249016,0.0004151762,0.2464356,0.2502465,5.372272,5.459524,5.53,NaN,0,6.161558,-15,-13
179280,90474961,0.2409009,0.0004451275,0.2478455,0.2502465,5.365339,5.452133,5.49,NaN,0,6.156158,-15,-13
179729,90582480,0.2514381,0.0005209148,0.2453413,0.2502465,5.358842,5.442914,5.32,NaN,0,6.148282,-15,-13
180176,90690950,0.2483432,0.0005144477,0.2471949,0.2502465,5.352258,5.430162,5.63,NaN,0,6.13714,-14,-13
180623,90798884,0.2521518,0.0005086362,0.2482431,0.2502465,5.345654,5.415389,5.39,NaN,0,6.123846,-13,-14
181067,90905237,0.2513999,0.0005201697,0.250249,0.2502465,5.339194,5.399495,5.64,NaN,0,6.109639,-12,-14
181482,91011856,0.2582517,0.00053069,0.2530016,0.2502465,5.332802,5.383175,5.14,NaN,0,6.095218,-11,-13
181931,91122256,0.251164,0.0004941523,0.25169,0.2502465,5.326418,5.366558,5.22,NaN,0,6.080211,-10,-12
182375,91228282,0.2555988,0.0005057752,0.250279,0.2502465,5.31988,5.351439,5.02,NaN,0,6.066564,-10,-11
182821,91335414,0.2569697,0.0006183385999999999,0.2526905,0.2502465,5.313274,5.335621,5.22,NaN,0,6.052082,-9,-12
183268,91441240,0.2571977,0.001024246,0.256252,0.2502465,5.306765,5.319331,5.34,NaN,0,6.037394,-8,-11
183682,91549549,0.264882,0.002521336,0.263745,0.2502465,5.300127,5.305933,5.3,NaN,0,6.025194,-7,-12
184131,91657926,0.2766121,0.004807115,0.270676,0.2502465,5.293628,5.291886,5.05,NaN,0,6.012452,-6,-12
184543,91765770,0.2643767,0.005437702,0.2734219,0.2502465,5.287252,5.276749,5.18,NaN,0,5.998481,-5,-11
184987,91872235,0.2605147,0.004644006,0.2685176,0.2502465,5.280583,5.26308,4.96,NaN,0,5.985545,-5,-9
185431,91978852,0.2538069,0.003332615,0.2632962,0.2502465,5.273867,5.249726,4.99,NaN,0,5.972687,-4,-7
185843,92086138,0.2524632,0.002476484,0.2586712,0.2502465,5.267045,5.238367,5.13,NaN,0,5.961747,-4,-5
186289,92190472,0.2410958,0.002000421,0.2506761,0.2502465,5.260239,5.230498,5.08,NaN,0,5.954215,-4,-2
186731,92297731,0.2392951,0.001942605,0.2440602,0.2502465,5.253451,5.225257,5.69,NaN,0,5.949172,-4,-1
187179,92403497,0.2246245,0.001464963,0.2387475,0.2502465,5.246675,5.223976,5.43,NaN,0,5.948134,-4,1
187624,92512271,0.23277,0.001229748,0.2314536,0.2502465,5.239781,5.22541,4.98,NaN,0,5.949661,-5,1
188073,92618935,0.2438878,0.00153102,0.2424864,0.2502465,5.23272,5.224684,4.99,NaN,0,5.948896,-6,-2
188519,92728079,0.2407951,0.00147368,0.2465286,0.2502465,5.225909,5.220967,4.84,NaN,0,5.94534,-6,-3
188930,92833737,0.2478254,0.0007232726000000001,0.2478913,0.2502465,5.219046,5.214782,5.15,NaN,0,5.93904,-6,-5
189375,92944583,0.2414251,2.209842e-05,0.2472,0.2502465,5.21217,5.206352,5.12,NaN,0,5.93077,-6,-6
189823,93050839,0.2308678,0.0001867414,0.2387689,0.2502465,5.20529,5.1998,5.69,NaN,0,5.924668,-6,-4
190268,93160323,0.253461,0.0003858805,0.2400114,0.2502465,5.198415,5.194099,5.23,NaN,0,5.919151,-6,-4
190677,93267911,0.255818,0.0001573861,0.249688,0.2502465,5.191496,5.187398,5.21,NaN,0,5.913144,-6,-7
191123,93373753,0.2614903,1.478195e-05,0.256377,0.2502465,5.184592,5.17935,5.3,NaN,0,5.905935,-6,-9
191567,93482248,0.2528018,6.079674e-06,0.2548355,0.2502465,5.177758,5.170439,5.65,NaN,0,5.897802,-6,-9
192014,93588115,0.2585208,9.000301e-06,0.2558332,0.2502465,5.171042,5.163672,5.5,NaN,0,5.891905,-6,-7
192426,93694778,0.2596941,2.101064e-05,0.2573076,0.2502465,5.164299,5.158043,5.68,NaN,0,5.887062,-6,-9
192873,93800885,0.2473662,0.0001888424,0.2531899,0.2502465,5.157662,5.154624,5.5,NaN,0,5.88452,-6,-6
193283,93908538,0.2511654,0.0006135404,0.2487544,0.2502465,5.150997,5.152701,5.71,NaN,0,5.883536,-7,-6
193730,94015246,0.2554919,0.001041263,0.2536585,0.2502465,5.144362,5.150638,5.75,NaN,0,5.882494,-7,-7
194141,94122289,0.2547541,0.00120464,0.2572774,0.2502465,5.137862,5.147347,5.62,NaN,0,5.880349,-7,-7
194588,94227901,0.2598388,0.00114435,0.2571469,0.2502465,5.131384,5.144534,5.33,NaN,0,5.878619,-8,-8
195030,94336036,0.256804,0.0009460449,0.2578305,0.2502465,5.125258,5.141178,5.65,NaN,0,5.876201,-8,-9
195477,94443439,0.258187,0.0007994771,0.2604106,0.2502465,5.118737,5.137801,5.42,NaN,0,5.873687,-8,-9
195889,94550373,0.2514028,0.0006147027,0.2576993,0.2502465,5.112195,5.133063,5.58,NaN,0,5.869864,-9,-8
196341,94657413,0.2470545,0.0005660206,0.2454499,0.2502465,5.105601,5.130152,5.77,NaN,0,5.867815,-9,-6
196748,94765075,0.2664116,0.0007592738,0.2514914,0.2502465,5.099028,5.126343,5.52,NaN,0,5.865074,-9,-8
197191,94872736,0.2622693,0.001004249,0.2606927,0.2502465,5.092613,5.120317,5.36,NaN,0,5.859894,-9,-11
197605,94978280,0.2622891,0.00175932,0.263727,0.2502465,5.086066,5.113817,5.43,NaN,0,5.854165,-9,-11
198050,95086553,0.2567186,0.002384126,0.258545,0.2502465,5.079486,5.105638,5.53,NaN,0,5.846619,-9,-10
198496,95192852,0.2483934,0.002311096,0.2512073,0.2502465,5.072674,5.097589,5.19,NaN,0,5.839394,-9,-8
198936,95300861,0.2449588,0.001824617,0.2487123,0.2502465,5.065716,5.089591,5.54,NaN,0,5.832145,-9,-7
199352,95406294,0.2411943,0.001401603,0.2458168,0.2502465,5.058774,5.081415,5.44,NaN,0,5.82435,-9,-7
199794,95515488,0.242384,0.00117597,0.2460961,0.2502465,5.05196,5.072853,5.57,NaN,0,5.816238,-9,-7
200245,95620278,0.239035,0.0009241849,0.2431398,0.2502465,5.044926,5.066492,5.27,NaN,0,5.810327,-9,-7
200655,95728206,0.2376168,0.0008476824,0.2382447,0.2502465,5.038085,5.059657,5.33,NaN,0,5.803927,-9,-7
201102,95834568,0.2698541,0.001337379,0.2566088,0.2502465,5.031023,5.04959,5.13,NaN,0,5.794432,-9,-10
201527,95942993,0.2692498,0.001117468,0.2674397,0.2502465,5.02394,5.035912,5.14,NaN,0,5.780975,-8,-13
201973,96051017,0.2587633,0.0005344152,0.2653086,0.2502465,5.016859,5.021442,5.23,NaN,0,5.766788,-7,-11
202415,96157967,0.2410543,0.0003490597,0.2542205,0.2502465,5.009895,5.010003,5.6,NaN,0,5.75557,-7,-9
202829,96261370,0.2399954,0.0004471987,0.2470546,0.2502465,5.003005,5.00486,5.26,NaN,0,5.75093,-7,-6
203267,96368880,0.2529335,0.0006149411,0.2448581,0.2502465,4.996085,4.99975,5.5,NaN,0,5.745691,-7,-5
203680,96476401,0.257596,0.0008461177,0.2526595,0.2502465,4.989169,4.996603,5.07,NaN,0,5.742719,-8,-7
204123,96584136,0.2515392,0.001193315,0.2555569,0.2502465,4.982298,4.99556,5.26,NaN,0,5.741416,-8,-7
204567,96691863,0.2520581,0.001266718,0.2513083,0.2502465,4.975443,4.993702,5.34,NaN,0,5.739033,-9,-7
205012,96796930,0.2539523,0.001115024,0.2557577,0.2502465,4.968601,4.990626,5.24,NaN,0,5.735148,-9,-8
205423,96902367,0.2459244,0.0007819235,0.2514037,0.2502465,4.961932,4.987299,5.5,NaN,0,5.73102,-9,-8
205872,97008276,0.2515356,0.0004842877,0.2489495,0.2502465,4.955231,4.985005,5.6,NaN,0,5.728047,-9,-7
206314,97116916,0.2424096,0.000353992,0.2443959,0.2502465,4.948659,4.983105,5.12,NaN,0,5.725063,-10,-6
206758,97222750,0.244559,0.0002460927,0.2423795,0.2502465,4.941946,4.979545,5.19,NaN,0,5.720435,-10,-7
207200,97331774,0.2442714,0.0003196448,0.2447382,0.2502465,4.935214,4.976573,5.26,NaN,0,5.716387,-11,-8
207646,97438253,0.2468106,0.0003895164,0.2474558,0.2502465,4.928483,4.973101,4.96,NaN,0,5.711709,-11,-9
208056,97546479,0.2463462,0.0004151016,0.250991,0.2502465,4.921856,4.967212,5.17,NaN,0,5.704623,-11,-10
208506,97658265,0.2542822,0.0003620982,0.2511416,0.2502465,4.914981,4.958562,5.24,NaN,0,5.694806,-11,-11
208954,97765542,0.2492829,0.0002368689,0.250317,0.2502465,4.908342,4.946505,5.25,NaN,0,5.681703,-10,-11
209364,97870956,0.2538617,0.0002625883,0.2519922,0.2502465,4.901674,4.936052,4.78,NaN,0,5.67029,-10,-12
209807,97979043,0.2449068,0.0003614724,0.2496552,0.2502465,4.895004,4.924268,5.13,NaN,0,5.657261,-10,-10
210218,98086086,0.2519111,0.0004616976,0.2494652,0.2502465,4.88831,4.914103,5.02,NaN,0,5.645868,-9,-10
210663,98191888,0.2583639,0.0008136034,0.2541743,0.2502465,4.881662,4.904597,5.18,NaN,0,5.63534,-9,-11
211103,98300119,0.2598114,0.0009483695,0.2611756,0.2502465,4.875476,4.89432,5.06,NaN,0,5.623629,-7,-10
211516,98407971,0.2504158,0.0008397698,0.2556204,0.2502465,4.870317,4.885692,4.94,NaN,0,5.613833,-6,-8
211957,98514930,0.2618439,0.0007944703,0.2569226,0.2502465,4.866155,4.878012,5.29,NaN,0,5.604673,-5,-7
212404,98621533,0.2577767,0.0006599426,0.2584862,0.2502465,4.862613,4.870897,5,NaN,0,5.596185,-4,-6
212845,98731327,0.2609329,0.0006381273,0.2594756,0.2502465,4.859685,4.865996,5.15,NaN,0,5.589659,-3,-5
213293,98838777,0.245375,0.0005661249,0.2545904,0.2502465,4.857264,4.863474,5.25,NaN,0,5.585581,-2,-3
213733,98946914,0.2426279,0.0006732196,0.2483162,0.2502465,4.855311,4.863977,4.87,NaN,0,5.584253,-2,-1
214148,99053480,0.2471066,0.000849843,0.2474663,0.2502465,4.85365,4.865687,5.16,NaN,0,5.584284,-2,0
214588,99160077,0.2419565,0.0008308291,0.2446081,0.2502465,4.852276,4.86742,4.89,NaN,0,5.584392,-2,0
215033,99265956,0.2479763,0.0008542538,0.2463464,0.2502465,4.85114,4.869442,5.08,NaN,0,5.584582,-2,0
215474,99374131,0.2516933,0.0008234382,0.2492425,0.2502465,4.850202,4.86442,4.77,NaN,0,5.577669,-2,-1
215883,99480322,0.2361383,0.0005488098,0.2458724,0.2502465,4.849445,4.858941,5.27,NaN,0,5.569924,-1,0
216330,99587574,0.2369749,0.0003118217,0.2400161,0.2502465,4.848801,4.852674,5.03,NaN,0,5.561543,-1,1
216771,99695166,0.2406093,0.0002258718,0.2392359,0.2502465,4.848268,4.849757,4.96,NaN,0,5.556353,0,1
217216,99800919,0.2427599,0.0002635717,0.2424661,0.2502465,4.847827,4.847743,5.29,NaN,0,5.552172,0,0
217627,99908913,0.2400617,0.0003443509,0.2436344,0.2502465,4.847463,4.851736,5.53,NaN,0,5.55396,0,0
218074,100014282,0.2253442,0.0003517419,0.235716,0.2502465,4.847162,4.865427,5.15,NaN,0,5.565537,-2,2
218517,100121547,0.2334703,0.0004448891,0.2316472,0.2502465,4.846926,4.883042,5.13,NaN,0,5.581139,-3,2
218960,100227255,0.2405036,0.0005525053,0.233819,0.2502465,4.846718,4.900989,5.04,NaN,0,5.597125,-5,0
219402,100337048,0.2360919,0.000777185,0.2383376,0.2502465,4.846547,4.91515,4.94,NaN,0,5.609058,-7,-1
219846,100442916,0.223414,0.000918895,0.232431,0.2502465,4.846405,4.922802,4.9,NaN,0,5.614628,-7,-3
220290,100550576,0.2527644,0.001154184,0.2390476,0.2502465,4.846285,4.923785,5.25,NaN,0,5.61323,-7,-6
220736,100655767,0.2373101,0.001175657,0.2441778,0.2502465,4.846188,4.9232,5.06,NaN,0,5.61076,-7,-7
221143,100762241,0.2273656,0.001091585,0.2391556,0.2502465,4.846109,4.922718,5.06,NaN,0,5.607906,-7,-7
221592,100869077,0.2365195,0.001161754,0.2359592,0.2502465,4.846044,4.923215,4.78,NaN,0,5.597615,-7,-7
222036,100978565,0.2337154,0.001089424,0.2352146,0.2502465,4.845989,4.91668,4.77,NaN,0,5.575425,-7,-6
222452,101086751,0.2416909,0.001033738,0.2393145,0.2502465,4.845942,4.907263,4.82,NaN,0,5.550268,-6,-7
222897,101192280,0.2368676,0.000960499,0.2446581,0.2502465,4.845908,4.895699,4.62,NaN,0,5.521973,-5,-7
223338,101300972,0.2306936,0.0006352961,0.2372696,0.2502465,4.845875,4.882057,4.76,NaN,0,5.49176,-3,-4
223783,101407085,0.2383431,0.0004575849,0.2378045,0.2502465,4.845852,4.870805,4.88,NaN,0,5.464013,-2,-3
224189,101512449,0.2407579,0.0004035085,0.2360936,0.2502465,4.845829,4.861469,5.02,NaN,0,5.439624,-1,-3
224638,101618488,0.2374533,0.0005541593,0.2379827,0.2502465,4.845812,4.85521,4.52,NaN,0,5.417793,0,-1
225079,101725122,0.2484757,0.001001239,0.2445585,0.2502465,4.845801,4.84596,5.01,NaN,0,5.393643,0,-4
225524,101831350,0.2489059,0.001337439,0.2500082,0.2502465,4.845789,4.837214,6.27,NaN,0,5.368326,0,-3
225966,101939998,0.2460244,0.001400992,0.2473299,0.2502465,4.845778,4.84216,6.03,NaN,0,5.356785,0,-1
226415,102044945,0.2395547,0.001262277,0.2413143,0.2502465,4.845766,4.863855,5.3,NaN,0,5.361756,-1,0
226825,102152546,0.2497797,0.001094967,0.2413465,0.2502465,4.845755,4.880446,4.6,NaN,0,5.360106,-3,-1
227233,102262935,0.235619,0.0009644628,0.24444,0.2502465,4.845751,4.89319,4.79,NaN,0,5.355287,-4,-2
227679,102370279,0.203196,0.0006695688,0.2283602,0.2502465,4.845751,4.89782,4.77,NaN,0,5.342353,-5,0
228126,102483374,0.2323242,0.0009278208,0.2222922,0.2502465,4.845751,4.901852,4.23,NaN,0,5.329662,-5,0
228574,102589757,0.2555021,0.001156777,0.2381915,0.2502465,4.845751,4.897104,4.38,NaN,0,5.30819,-5,-4
229019,102698862,0.248933,0.001064688,0.2473188,0.2502465,4.845751,4.886761,4.49,NaN,0,5.281795,-4,-6
229430,102803083,0.2493097,0.0009302199,0.2456097,0.2502465,4.845751,4.876104,4.7,NaN,0,5.256917,-3,-5
229873,102911547,0.2529247,0.0007258356,0.2448581,0.2502465,4.845751,4.865261,4.52,NaN,0,5.230937,-1,-4
230319,103017720,0.2388589,0.0009012073,0.2445943,0.2502465,4.845751,4.855933,4.43,NaN,0,5.207983,-1,-4
230736,103126953,0.2509049,0.001400977,0.2464861,0.2502465,4.845751,4.847407,4.57,NaN,0,5.185923,0,-3
231181,103234552,0.2571096,0.001748234,0.252881,0.2502465,4.845751,4.838995,4.48,NaN,0,5.165808,0,-4
231625,103345258,0.2432874,0.001654223,0.2475323,0.2502465,4.845751,4.829928,4.63,NaN,0,5.144869,1,-1
232069,103452316,0.246325,0.001878753,0.2512892,0.2502465,4.845751,4.822047,4.16,NaN,0,5.126108,2,-1
232479,103561413,0.2558109,0.002240568,0.2566889,0.2502465,4.845751,4.811122,4.3,NaN,0,5.105151,3,-2
232928,103668470,0.2512982,0.002347559,0.2567051,0.2502465,4.845751,4.801227,4.58,NaN,0,5.088732,4,0
233367,103776584,0.2562304,0.00253281,0.2564363,0.2502465,4.845751,4.79445,4.37,NaN,0,5.073418,5,1
233779,103883943,0.2570925,0.002467602,0.2590655,0.2502465,4.845751,4.788634,4.49,NaN,0,5.061751,5,0
234225,103991110,0.2469614,0.00226441,0.2572714,0.2502465,4.845751,4.783473,4.27,NaN,0,5.05157,6,2
234668,104099766,0.2560795,0.002027154,0.2532123,0.2502465,4.845751,4.780368,4.25,NaN,0,5.045115,6,4
235084,104205856,0.2477005,0.001219422,0.2515515,0.2502465,4.845751,4.779035,4.37,NaN,0,5.041279,6,4
235524,104315087,0.2511871,0.001025736,0.2517496,0.2502465,4.845751,4.778995,4.64,NaN,0,5.038729,6,5
235969,104423136,0.2580412,0.001054883,0.2529736,0.2502465,4.845751,4.779905,4.59,NaN,0,5.037129,6,5
236413,104530973,0.2559567,0.0009862483,0.2567618,0.2502465,4.845751,4.781134,4.65,NaN,0,5.037519,6,5
236858,104638309,0.2503711,0.0009709597,0.2549355,0.2502465,4.845751,4.783266,4.66,NaN,0,5.037896,6,6
237268,104745907,0.2371638,0.00150843,0.2460246,0.2502465,4.845751,4.786698,4.74,NaN,0,5.040253,5,7
237712,104852164,0.2332793,0.002427235,0.2403571,0.2502465,4.845751,4.792957,4.64,NaN,0,5.046344,5,8
238153,104959212,0.2376241,0.003927171,0.2460779,0.2502465,4.845751,4.798399,4.83,NaN,0,5.051466,4,8
238597,105068280,0.2407078,0.004409075,0.243036,0.2502465,4.845751,4.804172,4.8,NaN,0,5.056582,4,7
239042,105174801,0.2261354,0.003813133,0.2403239,0.2502465,4.845751,4.80954,4.68,NaN,0,5.061981,3,7
239460,105281120,0.2407682,0.00373213,0.2411298,0.2502465,4.845751,4.815145,4.67,NaN,0,5.068203,3,7
239872,105388127,0.2433684,0.003565714,0.2395821,0.2502465,4.845751,4.818016,4.91,NaN,0,5.07061,2,5
240313,105495438,0.2478215,0.003325,0.2449747,0.2502465,4.845751,4.820478,5.3,NaN,0,5.071691,2,3
240760,105602549,0.2377027,0.002848774,0.2469988,0.2502465,4.845751,4.823637,5.5,NaN,0,5.075658,2,2
241202,105710918,0.2459727,0.002961189,0.2471356,0.2502465,4.845751,4.827549,5.61,NaN,0,5.079372,1,1
241647,105819083,0.2479085,0.002978668,0.2517121,0.2502465,4.845751,4.832808,5.93,NaN,0,5.083684,1,0
242056,105926275,0.256197,0.003275335,0.2567489,0.2502465,4.845751,4.839015,5.45,NaN,0,5.088534,0,-1
242504,106032913,0.2573743,0.003547937,0.2576901,0.2502465,4.845751,4.844188,5.08,NaN,0,5.093272,0,-2
242946,106140443,0.2632227,0.003876299,0.2610784,0.2502465,4.845751,4.844949,5.36,NaN,0,5.092591,0,-2
243390,106246006,0.2405161,0.003304079,0.2560151,0.2502465,4.845751,4.844296,5.17,NaN,0,5.091267,0,-1
243801,106352550,0.2255422,0.002892658,0.2370454,0.2502465,4.845751,4.84379,4.65,NaN,0,5.088991,0,3
244243,106460546,0.252453,0.003081381,0.2399781,0.2502465,4.845751,4.844976,4.19,NaN,0,5.089017,0,2
244687,106568009,0.2561919,0.003107458,0.2529322,0.2502465,4.845751,4.83662,4.07,NaN,0,5.078822,0,-1
245103,106672904,0.2594354,0.003554136,0.2592736,0.2502465,4.845751,4.818065,4.18,NaN,0,5.059787,2,-1
245540,106779235,0.2700432,0.003814608,0.2648404,0.2502465,4.845751,4.790624,4.86,NaN,0,5.030263,5,-2
245982,106888527,0.2648616,0.00358057,0.2671421,0.2502465,4.845751,4.768134,5.62,NaN,0,5.006964,7,0
246428,106993690,0.2519023,0.003298104,0.2647152,0.2502465,4.845751,4.761905,4.69,NaN,0,4.999003,8,2
246840,107101908,0.2457955,0.002931952,0.2578706,0.2502465,4.845751,4.766754,4.74,NaN,0,5.001205,7,5
247285,107208898,0.2548896,0.002979636,0.2561281,0.2502465,4.845751,4.771967,4.34,NaN,0,5.005373,7,6
247726,107315887,0.255157,0.002989113,0.2551697,0.2502465,4.845751,4.772472,4.89,NaN,0,5.003063,7,8
248172,107421858,0.236051,0.002596825,0.2472294,0.2502465,4.845751,4.77487,5.35,NaN,0,5.004262,7,8
248581,107530762,0.2261656,0.002114877,0.2350746,0.2502465,4.845751,4.786901,5.52,NaN,0,5.01476,5,12
249026,107638219,0.2230928,0.002021044,0.2266794,0.2502465,4.845751,4.810117,4.52,NaN,0,5.034604,3,13
249467,107745968,0.2255523,0.002022967,0.2282784,0.2502465,4.845751,4.830229,4.33,NaN,0,5.054952,1,10
249913,107853972,0.2453177,0.002145812,0.2326199,0.2502465,4.845751,4.837953,4.26,NaN,0,5.060151,0,7
250353,107961566,0.2601987,0.002235323,0.2503996,0.2502465,4.845751,4.83398,4.48,NaN,0,5.056178,1,1
250800,108069463,0.2656594,0.001643956,0.2600296,0.2502465,4.845751,4.822008,4.61,NaN,0,5.042359,2,-2
251208,108177106,0.2534397,0.000616461,0.257494,0.2502465,4.845751,4.807604,4.81,NaN,0,5.026957,3,-1
251651,108284327,0.2516588,0.0001056194,0.2529501,0.2502465,4.845751,4.797859,4.77,NaN,0,5.015373,4,0
252096,108390775,0.2518852,1.770258e-05,0.2505394,0.2502477,4.845751,4.792042,4.82,NaN,0,5.006351,5,1
252507,108498727,0.2529959,1.829863e-05,0.2526143,0.2502607,4.845751,4.788965,4.84,NaN,0,5.000841,5,3
252954,108605356,0.2461442,2.503395e-05,0.2471887,0.2502607,4.845751,4.788741,4.64,NaN,0,4.997573,5,4
253395,108714133,0.2410919,8.206069e-05,0.2447661,0.2502225,4.845751,4.789866,4.92,NaN,0,4.995661,5,5
253841,108820447,0.244482,0.0001009256,0.2428171,0.2501635,4.845751,4.793351,5,NaN,0,4.995514,5,6
254282,108927085,0.2514309,0.0002138317,0.2510666,0.2501326,4.845751,4.797345,4.73,NaN,0,4.998318,4,4
254729,109032890,0.2537762,0.0004562736,0.253329,0.2501528,4.845751,4.799443,4.93,NaN,0,4.998714,4,3
255170,109141078,0.2509251,0.0007616282,0.2521423,0.2501828,4.845751,4.801138,4.39,NaN,0,4.999631,4,4
255615,109247505,0.2546715,0.000951916,0.2524571,0.2502027,4.845751,4.800094,4.73,NaN,0,4.997122,4,3
256055,109354434,0.251682,0.0008300245,0.255425,0.2502421,4.845751,4.793378,4.98,NaN,0,4.991406,5,2
256471,109467250,0.2582049,0.0007358789,0.2564543,0.250283,4.845751,4.789568,4.73,NaN,0,4.988001,5,3
256921,109573734,0.24298,0.0005228519,0.2525035,0.2503345,4.845751,4.785963,4.73,NaN,0,4.984861,5,4
257331,109682315,0.2438345,0.0005760491,0.2454987,0.2503198,4.845751,4.786755,4.8,NaN,0,4.988147,5,6
257776,109790042,0.2529794,0.0006288886,0.2495828,0.2502833,4.845751,4.787673,4.64,NaN,0,4.991408,5,5
258219,109896858,0.2458054,0.0006011426,0.2508783,0.2502882,4.845751,4.789796,4.8,NaN,0,4.995423,5,6
258665,110004900,0.2371981,0.0005360395,0.2440554,0.2502601,4.845751,4.793326,4.87,NaN,0,5.002554,5,7
259075,110111360,0.2492476,0.0006811917,0.2453011,0.2502037,4.845751,4.797287,4.89,NaN,0,5.011116,4,6
259519,110218320,0.2462388,0.0006373078,0.2469996,0.2501684,4.845751,4.800167,5.13,NaN,0,5.017909,4,6
259962,110327749,0.252892,0.0008173287,0.2470363,0.2501252,4.845751,4.805111,4.38,NaN,0,5.029163,4,4
260406,110432942,0.2532192,0.001645833,0.2522156,0.25012,4.845751,4.808318,4.96,NaN,0,5.037139,3,3
