LineNo,TimeUS,Instance,RPM,RawRPM,Volt,Curr,Temp,CTot,MotTemp,Err
1795,13402978,1,0,0,15.97,0.04,26,0,0,0
2210,13509920,1,0,0,15.95,0.04,26,0,0,0
2671,13625765,1,0,0,15.96,0.04,26,0,0,0
3083,13732713,1,0,0,15.95,0.04,26,0,0,0
3497,13836894,1,0,0,15.96,0.04,26,0,0,0
3951,13951248,1,0,0,15.96,0.04,26,0,0,0
4324,14048972,1,0,0,15.96,0.04,26,0,0,0
4777,14160437,1,0,0,15.96,0.04,26,0,0,0
5225,14272348,1,0,0,15.96,0.04,26,0,0,0
5637,14376870,1,0,0,15.95,0.04,26,0,0,0
6055,14484572,1,0,0,15.95,0.04,26,0,0,0
6465,14591081,1,0,0,15.96,0.04,26,0,0,0
6877,14692508,1,0,0,15.96,0.04,26,0,0,0
7329,14810025,1,0,0,15.95,0.04,26,0,0,0
7745,14913863,1,0,0,15.95,0.04,26,0,0,0
8161,15022291,1,0,0,15.96,0.04,26,0,0,0
8572,15125517,1,0,0,15.95,0.04,26,0,0,0
9023,15240477,1,0,0,15.96,0.04,26,0,0,0
9401,15338071,1,0,0,15.95,0.04,26,0,0,0
9848,15449085,1,0,0,15.96,0.04,26,0,0,0
10260,15551708,1,0,0,15.95,0.04,26,0,0,0
10744,15670336,1,0,0,15.96,0.04,26,0,0,0
10997,15773549,1,0,0,15.96,0.04,26,0,0,0
11454,15886731,1,0,0,15.96,0.04,26,0,0,0
11866,15992220,1,0,0,15.95,0.03,26,0,0,0
12284,16094122,1,0,0,15.96,0.04,26,0,0,0
12741,16210557,1,0,0,15.95,0.04,26,0,0,0
13151,16314402,1,0,0,15.96,0.04,26,0,0,0
13601,16426558,1,0,0,15.95,0.04,26,0,0,0
14017,16531981,1,0,0,15.95,0.04,26,0,0,0
14877,16748928,1,0,0,15.96,0.04,26,0,0,0
15300,16856988,1,0,0,15.97,0.04,26,0,0,0
15712,16961730,1,0,0,15.96,0.04,26,0,0,0
16123,17065247,1,0,0,15.96,0.04,26,0,0,0
16575,17177434,1,0,0,15.96,0.04,26,0,0,0
16989,17283233,1,0,0,15.97,0.04,26,0,0,0
17398,17388471,1,0,0,15.96,0.04,26,0,0,0
17807,17491207,1,0,0,15.96,0.04,26,0,0,0
18233,17603427,1,0,0,15.95,0.04,26,0,0,0
18679,17712516,1,0,0,15.96,0.04,26,0,0,0
19132,17825335,1,0,0,15.96,0.04,26,0,0,0
19552,17933522,1,0,0,15.96,0.04,26,0,0,0
19970,18039137,1,0,0,15.96,0.04,26,0,0,0
20802,18249945,1,0,0,15.96,0.04,26,0,0,0
21255,18366112,1,0,0,15.96,0.04,26,0,0,0
21666,18468088,1,0,0,15.95,0.04,26,0,0,0
22083,18574574,1,0,0,15.95,0.04,26,0,0,0
22501,18685996,1,0,0,15.96,0.04,26,0,0,0
22948,18799282,1,0,0,15.96,0.04,26,0,0,0
23806,19014266,1,0,0,15.96,0.04,26,0,0,0
24218,19119508,1,0,0,15.95,0.04,26,0,0,0
24630,19221967,1,0,0,15.95,0.04,26,0,0,0
25084,19338981,1,0,0,15.96,0.04,26,0,0,0
25497,19442077,1,0,0,15.96,0.04,26,0,0,0
25911,19549920,1,0,0,15.95,0.04,26,0,0,0
26326,19652859,1,0,0,15.96,0.04,26,0,0,0
26781,19770288,1,0,0,15.97,0.04,26,0,0,0
27194,19873312,1,0,0,15.96,0.04,26,0,0,0
27648,19987615,1,0,0,15.96,0.04,26,0,0,0
28063,20092707,1,0,0,15.96,0.04,26,0,0,0
28485,20199331,1,0,0,15.95,0.04,26,0,0,0
28943,20314955,1,0,0,15.96,0.04,26,0,0,0
29353,20417203,1,0,0,15.96,0.04,26,0,0,0
29802,20528117,1,0,0,15.96,0.04,26,0,0,0
30214,20634322,1,0,0,15.97,0.04,26,0,0,0
30669,20748284,1,0,0,15.96,0.04,26,0,0,0
31077,20855428,1,0,0,15.96,0.04,26,0,0,0
31494,20959491,1,0,0,15.95,0.04,26,0,0,0
31955,21079721,1,0,0,15.96,0.04,26,0,0,0
32366,21181965,1,0,0,15.95,0.04,26,0,0,0
32788,21287054,1,0,0,15.95,0.04,26,0,0,0
33203,21392323,1,0,0,15.96,0.04,26,0,0,0
33624,21501509,1,0,0,15.95,0.04,26,0,0,0
34036,21608847,1,0,0,15.96,0.04,26,0,0,0
34495,21724286,1,0,0,15.96,0.04,26,0,0,0
34880,21827921,1,0,0,15.95,0.04,26,0,0,0
35295,21929963,1,0,0,15.95,0.04,26,0,0,0
35744,22042981,1,0,0,15.95,0.04,26,0,0,0
36162,22149940,1,0,0,15.95,0.04,26,0,0,0
36581,22256037,1,0,0,15.95,0.04,26,0,0,0
37040,22369141,1,0,0,15.96,0.04,26,0,0,0
37454,22473648,1,0,0,15.96,0.04,26,0,0,0
37863,22578324,1,0,0,15.95,0.04,26,0,0,0
38315,22690567,1,0,0,15.96,0.04,26,0,0,0
38731,22795698,1,0,0,15.95,0.04,26,0,0,0
39146,22904320,1,0,0,15.95,0.04,26,0,0,0
39560,23009922,1,0,0,15.95,0.04,26,0,0,0
40006,23124081,1,0,0,15.95,0.04,26,0,0,0
40422,23228909,1,0,0,15.95,0.04,26,0,0,0
40879,23344062,1,0,0,15.96,0.04,26,0,0,0
41292,23446102,1,0,0,15.95,0.04,26,0,0,0
41707,23553500,1,0,0,15.95,0.04,26,0,0,0
42160,23669290,1,0,0,15.96,0.04,26,0,0,0
42578,23775546,1,0,0,15.96,0.04,26,0,0,0
42987,23879950,1,0,0,15.96,0.04,26,0,0,0
43401,23986863,1,0,0,15.96,0.04,26,0,0,0
43887,24104475,1,0,0,15.96,0.04,26,0,0,0
44295,24207895,1,0,0,15.95,0.04,26,0,0,0
44756,24322382,1,0,0,15.95,0.04,26,0,0,0
45167,24426879,1,0,0,15.95,0.04,26,0,0,0
45581,24530897,1,0,0,15.95,0.03,26,0,0,0
46027,24643573,1,0,0,15.96,0.03,26,0,0,0
46444,24746074,1,0,0,15.96,0.03,26,0,0,0
46863,24853986,1,0,0,15.95,0.03,26,0,0,0
47313,24967108,1,0,0,15.96,0.04,26,0,0,0
47723,25072301,1,0,0,15.96,0.04,26,0,0,0
48137,25178519,1,0,0,15.95,0.03,26,0,0,0
48588,25292991,1,0,0,15.95,0.04,26,0,0,0
49000,25397248,1,0,0,15.96,0.04,26,0,0,0
49419,25504317,1,0,0,15.95,0.04,26,0,0,0
49828,25606090,1,0,0,15.96,0.04,26,0,0,0
50247,25714141,1,0,0,15.96,0.04,26,0,0,0
50644,25827873,1,0,0,15.96,0.03,26,0,0,0
51061,25936762,1,0,0,15.95,0.04,26,0,0,0
51473,26041050,1,0,0,15.95,0.03,26,0,0,0
51927,26155073,1,0,0,15.96,0.04,26,0,0,0
52341,26261065,1,0,0,15.96,0.04,26,0,0,0
52754,26366729,1,0,0,15.96,0.04,26,0,0,0
53209,26479992,1,0,0,15.96,0.03,26,0,0,0
53626,26586329,1,0,0,15.96,0.03,26,0,0,0
54039,26688855,1,0,0,15.95,0.03,26,0,0,0
54495,26806447,1,0,0,15.96,0.04,26,0,0,0
54915,26912438,1,0,0,15.95,0.04,26,0,0,0
55331,27017727,1,0,0,15.96,0.04,26,0,0,0
55742,27120544,1,0,0,15.96,0.04,26,0,0,0
56169,60585961,1,0,0,15.96,0.04,27,0,0,0
56546,60678081,1,0,0,15.96,0.04,27,0,0,0
56961,60782770,1,0,0,15.96,0.04,26,0,0,0
57457,60896065,1,0,0,15.96,0.04,27,0,0,0
57911,60997871,1,0,0,15.96,0.04,26,0,0,0
58364,61104219,1,0,0,15.95,0.04,27,0,0,0
58859,61215611,1,0,0,15.95,0.04,26,0,0,0
59311,61319287,1,0,0,15.95,0.04,26,0,0,0
59765,61420873,1,0,0,15.95,0.04,26,0,0,0
60301,61540218,1,0,0,15.95,0.04,26,0,0,0
60755,61644051,1,0,0,15.95,0.03,26,0,0,0
61208,61751326,1,0,0,15.95,0.04,26,0,0,0
61665,61854592,1,0,0,15.97,0.04,26,0,0,0
62085,61955448,1,0,0,15.96,0.04,26,0,0,0
62583,62067256,1,0,0,15.97,0.04,26,0,0,0
63041,62176845,1,0,0,15.96,0.04,26,0,0,0
63492,62281487,1,0,0,15.96,0.04,26,0,0,0
63950,62386554,1,0,0,15.97,0.04,26,0,0,0
64440,62498924,1,0,0,15.96,0.04,26,0,0,0
64896,62600097,1,0,0,15.97,0.04,26,0,0,0
65389,62712893,1,9,171,15.96,0.04,26,0,0,0
65842,62814969,1,188,571,15.94,0.09,26,0,0,0
66299,62920360,1,576,928,15.92,0.15,26,0,0,0
66797,63031027,1,943,1185,15.95,0.12,26,0,0,0
67247,63135865,1,1185,1242,15.95,0.11,26,0,0,0
67626,63247551,1,1244,1271,15.94,0.11,26,0,0,0
68078,63352223,1,1271,1285,15.95,0.11,26,0,0,0
68538,63456077,1,1285,1285,15.95,0.09999999,26,0,0,0
68994,63562406,1,1285,1300,15.95,0.09999999,26,0,0,0
69489,63678979,1,1300,1300,15.95,0.09999999,26,0,0,0
69942,63780458,1,1300,1300,15.95,0.09999999,27,0,0,0
70852,63990043,1,1299,1285,15.95,0.09999999,26,0,0,0
71345,64102444,1,1285,1285,15.95,0.09999999,26,0,0,0
71797,64204445,1,1285,1285,15.95,0.09999999,26,0,0,0
72294,64317242,1,1286,1300,15.94,0.09999999,27,0,0,0
72751,64420902,1,1299,1285,15.94,0.09999999,26,0,0,0
73203,64525907,1,1285,1285,15.95,0.09999999,27,0,0,0
73659,64627081,1,1285,1285,15.95,0.09999999,26,0,0,0
74115,64734261,1,1285,1285,15.95,0.09999999,26,0,0,0
74616,64849731,1,1285,1285,15.95,0.11,27,0,0,0
75036,64952207,1,1285,1285,15.95,0.11,27,0,0,0
75488,65058231,1,1285,1285,15.94,0.11,27,0,0,0
75982,65172547,1,1285,1285,15.94,0.11,27,0,0,0
76433,65278762,1,1285,1285,15.95,0.09999999,27,0,0,0
76890,65383204,1,1285,1285,15.94,0.11,27,0,0,0
77386,65500570,1,1285,1285,15.95,0.11,26,0,0,0
77842,65603452,1,1285,1285,15.94,0.09999999,27,0,0,0
78294,65708956,1,1285,1285,15.94,0.09999999,27,0,0,0
78749,65814331,1,1285,1285,15.95,0.09999999,27,0,0,0
79205,65924520,1,1285,1285,15.95,0.11,27,0,0,0
79660,66026910,1,1285,1285,15.94,0.09999999,27,0,0,0
80155,66143235,1,1285,1285,15.95,0.11,27,0,0,0
80607,66244940,1,1285,1285,15.95,0.11,27,0,0,0
81030,66353877,1,1285,1285,15.94,0.09999999,27,0,0,0
81525,66466956,1,1285,1285,15.94,0.09999999,27,0,0,0
81975,66572282,1,1285,1285,15.94,0.09999999,27,0,0,0
82427,66677047,1,1285,1285,15.94,0.09999999,27,0,0,0
82892,66788299,1,1285,1285,15.95,0.09999999,27,0,0,0
83340,66890209,1,1285,1285,15.94,0.09999999,27,0,0,0
83839,67002506,1,1285,1285,15.95,0.11,27,0,0,0
84293,67111289,1,1285,1300,15.94,0.13,27,0,0,0
84746,67213364,1,1310,1571,15.89,0.25,27,0,0,0
85166,67323130,1,1583,2214,15.86,0.64,27,0,0,0
85620,67428842,1,2222,2757,15.75,1.23,27,0,0,0
86112,67544078,1,2798,3357,15.72,1.53,27,0,0,0
86569,67650257,1,3388,3971,15.6,1.82,27,0,0,0
87069,67766885,1,4018,4528,15.49,3.58,27,0,0,0
87525,67877983,1,4574,5071,15.39,3.22,27,0,0,0
87978,67982897,1,5108,5614,15.3,3.18,27,1,0,0
88432,68095017,1,5619,5714,15.27,3.07,27,1,0,0
88887,68203772,1,5702,5542,15.35,2.45,27,1,0,0
89344,68316328,1,5536,5457,15.32,2.23,27,1,0,0
89802,68426510,1,5388,4857,15.34,1.57,27,1,0,0
90252,68534062,1,4865,5000,15.38,1.96,27,1,0,0
90673,68639987,1,4988,4742,15.36,1.68,27,1,0,0
91167,68755391,1,4741,4728,15.36,1.59,27,1,0,0
92072,68970137,1,4705,4214,15.36,1.13,27,1,0,0
92975,69185769,1,4208,4057,15.31,1.72,27,1,0,0
93421,69295364,1,4076,4257,15.39,1.62,27,1,0,0
93875,69401124,1,4279,4557,15.38,1.92,27,1,0,0
94289,69506448,1,4561,4757,15.44,1.79,27,1,0,0
94786,69619707,1,4754,4728,15.39,1.73,27,1,0,0
95233,69726444,1,4734,4857,15.33,1.89,27,1,0,0
95692,69835563,1,4853,4771,15.42,1.43,27,2,0,0
96147,69946203,1,4768,4700,15.36,1.59,27,2,0,0
96604,70054300,1,4700,4700,15.36,1.71,27,2,0,0
97056,70165934,1,4701,4728,15.33,1.74,27,2,0,0
97968,70385302,1,4733,4971,15.31,2.18,27,2,0,0
98418,70499035,1,4966,4900,15.22,1.92,27,2,0,0
98867,70610928,1,4897,4871,15.22,1.65,27,2,0,0
99309,70721765,1,4862,4771,15.23,1.69,27,2,0,0
99764,70831897,1,4765,4685,15.3,1.49,27,2,0,0
100163,70934273,1,4675,4500,15.4,1.34,27,2,0,0
100614,71043112,1,4494,4414,15.39,1.32,27,2,0,0
101014,71143500,1,4408,4185,15.45,1.25,27,2,0,0
101509,71261534,1,4173,4057,15.36,1.32,27,2,0,0
101920,71369751,1,4068,4228,15.21,1.55,27,2,0,0
102365,71480077,1,4236,4357,15.35,1.45,27,2,0,0
102778,71587034,1,4359,4428,15.29,1.65,27,2,0,0
103218,71694759,1,4430,4485,15.33,1.58,27,2,0,0
103631,71798570,1,4488,4642,15.35,1.71,27,2,0,0
104057,71912731,1,4648,4757,15.3,1.79,27,3,0,0
104504,72019517,1,4758,4785,15.33,1.7,27,3,0,0
104949,72130126,1,4782,4742,15.35,1.66,27,3,0,0
105394,72238278,1,4744,4800,15.3,1.74,27,3,0,0
105848,72351846,1,4794,4742,15.3,1.65,27,3,0,0
106293,72462576,1,4739,4714,15.3,1.71,27,3,0,0
106742,72571229,1,4711,4685,15.28,1.47,27,3,0,0
107144,72668222,1,4682,4500,15.35,1.24,27,3,0,0
107589,72780074,1,4482,4314,15.36,1.16,27,3,0,0
108033,72888489,1,4322,4442,15.29,1.57,27,3,0,0
108892,73103505,1,4439,4342,15.32,1.32,27,3,0,0
109336,73209324,1,4341,4314,15.26,1.49,27,3,0,0
109829,73328334,1,4312,4285,15.24,1.43,27,3,0,0
110276,73434899,1,4288,4357,15.35,1.25,27,3,0,0
110721,73545981,1,4350,4271,15.33,1.27,28,3,0,0
111175,73662716,1,4264,4214,15.34,1.14,28,3,0,0
111983,73866940,1,4213,4142,15.33,1.26,27,3,0,0
112437,73979310,1,4152,4285,15.35,1.37,27,3,0,0
112886,74091310,1,4292,4371,15.27,1.33,28,3,0,0
113328,74194373,1,4372,4400,15.32,1.35,27,3,0,0
113777,74307567,1,4394,4342,15.3,1.22,28,3,0,0
114224,74414304,1,4340,4257,15.3,1.25,27,3,0,0
114669,74525255,1,4261,4300,15.28,1.19,27,4,0,0
115118,74632711,1,4297,4257,15.27,1.43,27,4,0,0
115560,74739551,1,4254,4214,15.26,1.36,27,4,0,0
116011,74848941,1,4223,4371,15.3,1.49,27,4,0,0
116456,74957566,1,4364,4271,15.32,1.34,27,4,0,0
116870,75059126,1,4270,4242,15.27,1.31,27,4,0,0
117356,75176310,1,4247,4300,15.25,1.48,27,4,0,0
117762,75278290,1,4309,4442,15.23,1.54,27,4,0,0
118215,75388225,1,4441,4428,15.22,1.26,27,4,0,0
119145,75613544,1,4421,4257,15.21,1.56,27,4,0,0
119545,75711928,1,4265,4585,15.14,1.93,28,4,0,0
120002,75827919,1,4596,4714,15.19,1.94,27,4,0,0
120404,75929064,1,4723,4900,15.1,2.4,27,4,0,0
121263,76147062,1,4900,4928,15.23,1.75,28,4,0,0
121716,76256580,1,4921,4757,15.19,1.69,28,4,0,0
122157,76365712,1,4759,4871,15.22,1.86,27,4,0,0
123089,76594771,1,4871,4871,15.19,1.8,28,4,0,0
123496,76700449,1,4867,4642,15.23,1.33,27,4,0,0
123944,76808573,1,4638,4442,15.2,1.24,28,5,0,0
124391,76918115,1,4434,4328,15.24,1.1,28,5,0,0
124842,77027361,1,4327,4285,15.29,1.19,28,5,0,0
125285,77135895,1,4288,4357,15.26,1.48,28,5,0,0
125736,77251313,1,4364,4442,15.24,1.54,28,5,0,0
126186,77360995,1,4449,4514,15.26,1.38,28,5,0,0
126595,77466548,1,4510,4442,15.34,1.36,28,5,0,0
127039,77572233,1,4438,4371,15.3,1.43,28,5,0,0
127484,77678090,1,4373,4428,15.3,1.27,28,5,0,0
127971,77801238,1,4424,4400,15.3,1.35,27,5,0,0
128379,77899291,1,4403,4471,15.29,1.43,28,5,0,0
128834,78009903,1,4474,4500,15.3,1.42,28,5,0,0
129276,78122362,1,4504,4542,15.29,1.51,27,5,0,0
129683,78221131,1,4545,4628,15.22,1.88,28,5,0,0
130130,78334744,1,4631,4657,15.16,1.74,28,5,0,0
130615,78445757,1,4668,4771,15.22,1.77,28,5,0,0
131022,78544581,1,4777,4928,15.19,2.05,28,5,0,0
131510,78668061,1,4902,4671,15.25,1.27,27,5,0,0
131911,78767499,1,4654,4500,15.25,1.6,27,5,0,0
132361,78882935,1,4517,4614,15.23,1.31,28,5,0,0
132813,78987115,1,4605,4500,15.26,1.46,27,5,0,0
133252,79096210,1,4512,4657,15.22,2.07,28,5,0,0
133706,79210446,1,4681,4942,15.31,1.85,28,5,0,0
134111,79309011,1,4936,4814,15.27,1.56,28,6,0,0
134563,79422376,1,4816,4842,15.25,2.06,27,6,0,0
135005,79530668,1,4836,4785,15.29,1.55,28,6,0,0
135410,79624213,1,4785,4800,15.23,1.64,28,6,0,0
136303,79845712,1,4798,4657,15.26,1.48,27,6,0,0
136754,79956358,1,4649,4471,15.23,1.28,28,6,0,0
138093,80290278,1,4478,4685,15.23,1.65,28,6,0,0
138543,80398746,1,4678,4614,15.23,1.35,28,6,0,0
138950,80496064,1,4612,4542,15.16,1.73,28,6,0,0
139440,80616910,1,4538,4500,15.18,1.36,28,6,0,0
140291,80825045,1,4498,4328,15.23,1.21,28,6,0,0
140776,80942800,1,4333,4385,15.3,1.47,28,6,0,0
141183,81043375,1,4384,4371,15.22,1.29,28,6,0,0
141624,81151773,1,4359,4128,15.23,0.9399999999999999,28,6,0,0
142078,81264353,1,4121,4042,15.29,1.72,28,6,0,0
142478,81365242,1,4040,3985,15.26,1.43,28,6,0,0
142922,81474724,1,3993,4142,15.13,1.81,28,6,0,0
143372,81584574,1,4148,4271,15.17,1.57,28,7,0,0
143829,81699849,1,4268,4200,15.23,1.11,28,7,0,0
144275,81807465,1,4203,4271,15.22,1.5,28,7,0,0
144720,81916004,1,4265,4214,15.16,1.33,28,7,0,0
145126,82014738,1,4213,4171,15.19,1.3,28,7,0,0
145571,82126697,1,4176,4285,15.18,1.38,27,7,0,0
146019,82233710,1,4283,4242,15.14,1.29,28,7,0,0
146466,82346307,1,4236,4157,15.16,0.9,28,7,0,0
146913,82452888,1,4151,4071,15.19,1.6,28,7,0,0
147365,82566327,1,4060,3942,15.16,2.15,28,7,0,0
147807,82673464,1,3962,4185,15.13,2.24,28,7,0,0
148263,82788406,1,4197,4328,15.16,1.47,28,7,0,0
148709,82899268,1,4324,4285,15.2,1.26,28,7,0,0
149160,83009334,1,4283,4271,15.14,1.21,28,7,0,0
149562,83112872,1,4258,4100,15.18,1.22,28,7,0,0
150020,83225887,1,4096,4057,15.19,1.76,28,7,0,0
150425,83329963,1,4054,4028,15.14,1.49,28,7,0,0
150876,83441324,1,4036,4128,15.19,1.13,28,7,0,0
151290,83546319,1,4132,4214,15.22,1.18,28,7,0,0
151739,83656017,1,4211,4157,15.23,1.53,28,7,0,0
152198,83772137,1,4179,4414,15.19,1.53,28,7,0,0
152639,83880926,1,4411,4385,15.17,1.15,28,7,0,0
153047,83985300,1,4385,4385,15.22,1.1,28,7,0,0
153489,84092743,1,4386,4414,15.17,1.67,28,7,0,0
153943,84201956,1,4418,4685,15.16,1.54,28,8,0,0
154388,84313135,1,4694,4928,15.17,2.29,28,8,0,0
154834,84420406,1,4928,4928,15.17,2.12,28,8,0,0
155762,84643316,1,4922,4771,15.11,1.69,28,8,0,0
156205,84752768,1,4769,4728,15.14,1.37,28,8,0,0
156659,84864979,1,4712,4514,15.14,1.64,28,8,0,0
157507,85082513,1,4516,4642,15.11,1.77,28,8,0,0
157961,85195304,1,4646,4700,15.1,1.91,28,8,0,0
158368,85301569,1,4703,4828,15.03,1.82,28,8,0,0
158823,85413251,1,4825,4800,15.12,1.74,28,8,0,0
159752,85638516,1,4804,4942,15.04,2.22,28,8,0,0
160161,85741750,1,4953,5100,15.04,2.13,28,8,0,0
160611,85851249,1,5083,4914,15.08,1.86,28,8,0,0
161020,85958226,1,4903,4800,15.16,1.68,28,8,0,0
161469,86071753,1,4804,4857,15.01,1.96,28,8,0,0
161880,86173398,1,4857,4857,15.1,1.93,28,9,0,0
162327,86286250,1,4860,4900,15.15,1.65,28,9,0,0
162779,86399847,1,4873,4628,15.16,1.15,28,9,0,0
163226,86508854,1,4622,4542,15.17,1.4,28,9,0,0
163631,86606126,1,4540,4471,15.19,1.28,28,9,0,0
164049,86716345,1,4469,4371,15.2,1.17,28,9,0,0
164542,86836320,1,4379,4471,15.2,1.3,28,9,0,0
164945,86937353,1,4468,4428,15.19,1.52,28,9,0,0
165401,87048445,1,4436,4514,15.17,1.42,28,9,0,0
165848,87158762,1,4518,4585,15.18,1.53,28,9,0,0
166701,87371050,1,4583,4500,15.19,1.53,28,9,0,0
167590,87586870,1,4504,4700,15.14,1.64,28,9,0,0
168036,87697938,1,4698,4671,15.13,1.66,28,9,0,0
168481,87806312,1,4676,4785,15.12,1.73,28,9,0,0
168892,87913775,1,4796,4942,15.13,1.79,28,9,0,0
169341,88026075,1,4940,4928,15.1,1.86,28,9,0,0
169710,88119933,1,4924,4800,15.1,1.57,28,9,0,0
170199,88234447,1,4793,4728,15.14,1.83,28,9,0,0
171084,88446675,1,4728,4742,15.17,1.62,28,10,0,0
171535,88559427,1,4742,4742,15.13,1.82,28,10,0,0
172379,88769003,1,4742,4800,15.06,1.81,28,10,0,0
172822,88879104,1,4798,4728,15.1,1.65,28,10,0,0
173268,88986528,1,4728,4757,15.11,1.78,28,10,0,0
173752,89104467,1,4756,4742,15.06,1.73,28,10,0,0
174204,89213904,1,4752,4857,15.15,1.83,28,10,0,0
174648,89322170,1,4857,4885,15.11,1.94,28,10,0,0
175097,89437919,1,4889,4914,15.1,1.94,28,10,0,0
175505,89535845,1,4910,4857,15.08,1.83,28,10,0,0
175958,89645474,1,4866,4957,15.1,2.28,28,10,0,0
176854,89873339,1,4960,5028,15.12,2.12,28,10,0,0
177262,89970448,1,5028,5028,15.15,1.88,28,10,0,0
177712,90080296,1,5017,4900,15.11,1.6,28,10,0,0
178157,90191555,1,4881,4657,15.12,1.5,28,10,0,0
178603,90299120,1,4654,4628,15.05,1.59,28,10,0,0
179014,90401869,1,4628,4642,15.11,1.49,28,11,0,0
179420,90507059,1,4642,4657,15.1,1.56,28,11,0,0
179905,90617570,1,4656,4642,15.14,1.67,28,11,0,0
180314,90722283,1,4642,4642,15.16,1.53,28,11,0,0
180798,90838052,1,4644,4671,15.11,1.68,28,11,0,0
181256,90951271,1,4672,4685,15.12,1.68,28,11,0,0
181700,91063314,1,4690,4742,15.08,1.76,28,11,0,0
182604,91285262,1,4742,4757,15.16,1.61,28,11,0,0
183040,91387318,1,4746,4642,15.11,1.27,28,11,0,0
183447,91485855,1,4640,4514,15.09,1.45,28,11,0,0
183899,91600281,1,4536,4785,15.05,1.91,28,11,0,0
184314,91708764,1,4791,4842,15.03,1.94,28,11,0,0
185657,92032099,1,4833,4600,15.02,1.45,28,11,0,0
186065,92140279,1,4597,4371,15.11,1.3,28,11,0,0
186515,92243112,1,4371,4442,15.11,1.32,28,11,0,0
186994,92357274,1,4428,4300,15.15,0.92,28,11,0,0
187451,92471508,1,4267,4057,15.15,1.27,28,11,0,0
187895,92580521,1,4067,4171,15.08,2.1,28,11,0,0
188336,92684314,1,4203,4442,15.11,1.54,28,11,0,0
189192,92900267,1,4447,4585,15.12,1.4,28,12,0,0
189643,93009870,1,4566,4314,15.14,0.92,28,12,0,0
190091,93121318,1,4307,4242,15.14,1.13,28,12,0,0
190495,93215634,1,4244,4385,15.13,2.18,28,12,0,0
190940,93330546,1,4387,4600,15.08,1.75,28,12,0,0
191425,93442876,1,4612,4771,15.08,1.66,28,12,0,0
191877,93553004,1,4771,4771,15.1,1.59,28,12,0,0
192328,93662340,1,4765,4685,15.08,1.31,28,12,0,0
192734,93763906,1,4671,4485,15.11,1.44,28,12,0,0
193181,93880260,1,4498,4685,15.1,1.61,28,12,0,0
193584,93976444,1,4683,4657,15.1,1.65,28,12,0,0
194038,94091896,1,4659,4685,15.08,1.64,28,12,0,0
194491,94202906,1,4683,4671,15.1,1.67,28,12,0,0
194889,94300324,1,4670,4657,15.07,1.52,28,12,0,0
195385,94422343,1,4663,4728,15.07,1.58,28,12,0,0
195788,94520938,1,4717,4585,15.04,1.44,28,12,0,0
196243,94633281,1,4580,4514,15.08,1.22,28,12,0,0
196651,94738830,1,4508,4428,15.11,1.6,28,12,0,0
197098,94845359,1,4426,4342,15.07,1.15,28,12,0,0
197549,94960124,1,4349,4428,15.05,1.54,28,12,0,0
197958,95061531,1,4432,4528,15.02,1.5,28,13,0,0
198403,95169052,1,4528,4528,15.08,1.4,28,13,0,0
198888,95287552,1,4518,4414,15.1,1.28,28,13,0,0
199301,95391117,1,4416,4442,15.13,1.38,28,13,0,0
199749,95504746,1,4449,4528,15.12,1.36,28,13,0,0
200200,95610246,1,4522,4442,15.13,1.48,28,13,0,0
200604,95713526,1,4442,4471,15.14,1.36,28,13,0,0
201057,95823880,1,4475,4757,15.08,2,28,13,0,0
201523,95940215,1,4755,4742,15.02,1.76,28,13,0,0
201931,96042546,1,4741,4700,15.02,1.52,28,13,0,0
202376,96152219,1,4697,4557,15.07,1.19,28,13,0,0
203309,96373910,1,4550,4342,15.13,1.4,28,13,0,0
203719,96482966,1,4357,4557,15.03,1.56,28,13,0,0
204168,96592257,1,4564,4642,15.07,1.58,28,13,0,0
204615,96702506,1,4639,4614,15.07,1.51,28,13,0,0
205060,96807769,1,4615,4642,15.05,1.51,28,13,0,0
205510,96918237,1,4639,4600,15.08,1.38,28,13,0,0
205962,97025432,1,4598,4557,15.09,1.51,28,13,0,0
206405,97134304,1,4558,4585,15.1,1.36,28,13,0,0
206893,97251501,1,4573,4457,15.1,1.42,28,13,0,0
207293,97353437,1,4452,4371,15.05,1.35,28,13,0,0
207741,97466081,1,4372,4414,15.05,1.43,28,13,0,0
208186,97570675,1,4411,4371,15.11,1.32,28,14,0,0
208634,97683227,1,4370,4357,15.11,1.16,28,14,0,0
209448,97888138,1,4356,4314,15.1,1.43,28,14,0,0
209944,98009859,1,4322,4414,15.07,1.32,28,14,0,0
210353,98114897,1,4414,4414,15.07,1.62,28,14,0,0
210798,98220563,1,4418,4714,15.04,1.81,28,14,0,0
211283,98344442,1,4706,4642,15.04,1.68,28,14,0,0
211693,98444451,1,4646,4714,15,1.7,28,14,0,0
212098,98548498,1,4713,4700,15.06,1.58,28,14,0,0
212583,98665976,1,4686,4571,15.04,1.5,28,14,0,0
213917,98992227,1,4570,4542,15.12,1.49,28,14,0,0
214326,99098720,1,4539,4500,15.08,1.5,28,14,0,0
214771,99204927,1,4498,4457,15.07,1.38,28,14,0,0
215250,99322298,1,4464,4571,15.04,1.44,28,14,0,0
215698,99427301,1,4568,4542,15.08,1.49,28,14,0,0
216139,99538295,1,4542,4542,15.09,1.49,28,14,0,0
216548,99638927,1,4539,4485,15.11,1.48,28,14,0,0
217036,99759563,1,4493,4585,15.08,1.58,28,14,0,0
217445,99857776,1,4584,4528,15.08,1.54,28,14,0,0
217890,99970736,1,4536,4657,15.11,1.46,28,14,0,0
218303,100071464,1,4653,4471,15.07,1.42,28,15,0,0
219217,100291372,1,4468,4342,15.07,1.65,28,15,0,0
219707,100409410,1,4358,4514,15.11,1.4,28,15,0,0
220106,100507111,1,4504,4185,15.11,1.01,28,15,0,0
220560,100617294,1,4186,4300,15.09,1.6,28,15,0,0
221044,100733841,1,4285,4071,15.07,0.86,28,15,0,0
221445,100830022,1,4064,3671,15.07,1.17,28,15,0,0
221892,100940425,1,3676,3871,15.1,1.18,28,15,0,0
222392,101062251,1,3892,4114,15.1,1.89,28,15,0,0
223241,101275291,1,4127,4428,15.1,1.73,28,15,0,0
223689,101384438,1,4421,4357,15.1,1.36,28,15,0,0
224096,101490089,1,4349,4285,15.06,1.15,28,15,0,0
224543,101595130,1,4284,4271,15.07,1.44,28,15,0,0
224985,101701334,1,4275,4357,15.12,1.26,28,15,0,0
225434,101810542,1,4358,4428,15.08,1.55,28,15,0,0
225919,101928842,1,4420,4342,15.08,1.2,28,15,0,0
226373,102037140,1,4323,4142,15.09,0.89,28,15,0,0
226771,102135460,1,4135,3914,15.04,0.87,28,15,0,0
227221,102248890,1,3919,4042,15.01,1.07,28,15,0,0
227672,102365563,1,4027,3814,15.06,1.18,28,15,0,0
228119,102472301,1,3809,3642,15.13,0.9899999,28,15,0,0
228564,102583041,1,3646,3742,15.07,1.15,28,15,0,0
228976,102690734,1,3745,3957,15.06,1.07,28,15,0,0
229469,102806099,1,3951,3871,14.97,1.65,28,16,0,0
229863,102904502,1,3872,3928,15.02,1.52,28,16,0,0
230312,103013294,1,3930,4028,15.07,1.18,28,16,0,0
230775,103130133,1,4036,4157,15.06,1.62,28,16,0,0
231223,103239774,1,4155,4142,15.04,1.47,28,16,0,0
231618,103340529,1,4146,4314,15.07,1.14,28,16,0,0
232073,103452750,1,4312,4242,15.07,1.39,28,16,0,0
232521,103567048,1,4255,4385,15.04,1.42,28,16,0,0
232932,103668752,1,4386,4457,15.07,1.36,28,16,0,0
233374,103779105,1,4454,4428,15.04,1.54,28,16,0,0
233818,103887088,1,4428,4428,14.98,1.38,28,16,0,0
234267,103997077,1,4432,4485,15.04,1.42,28,16,0,0
234716,104110502,1,4476,4385,15.05,1.27,28,16,0,0
235168,104219489,1,4391,4457,15.06,1.34,28,16,0,0
235569,104323239,1,4457,4471,15.05,1.53,28,16,0,0
236015,104430894,1,4471,4471,15.06,1.41,28,16,0,0
236423,104535760,1,4470,4428,15.03,1.41,28,16,0,0
236868,104643682,1,4422,4114,15.02,0.83,28,16,0,0
237313,104754247,1,4117,4285,15.04,1.42,28,16,0,0
237837,104876986,1,4291,4357,15.07,1.54,28,16,0,0
238282,104982321,1,4372,4542,15.02,1.55,28,16,0,0
238691,105088767,1,4536,4485,15.06,1.29,28,16,0,0
239135,105195881,1,4479,4400,15.1,1.32,28,16,0,0
239547,105301772,1,4404,4457,15.1,1.58,28,16,0,0
240000,105411259,1,4454,4414,15.07,1.47,28,17,0,0
240400,105511758,1,4415,4542,15.04,1.55,28,17,0,0
240892,105627919,1,4538,4485,15.09,1.4,28,17,0,0
241296,105732868,1,4492,4628,15.05,1.74,28,17,0,0
241744,105842663,1,4628,4671,15.04,1.58,28,17,0,0
242188,105952993,1,4671,4685,15.05,1.9,28,17,0,0
242683,106068892,1,4687,4714,15.01,1.7,28,17,0,0
243084,106172246,1,4718,4800,15.05,1.67,28,17,0,0
243532,106284554,1,4790,4671,15.07,1.33,28,17,0,0
244422,106502886,1,4653,4142,15.08,1.19,28,17,0,0
244870,106612313,1,4152,4242,14.99,1.6,28,17,0,0
245308,106717212,1,4253,4385,15.03,1.55,28,17,0,0
245755,106829567,1,4395,4457,14.98,1.5,28,17,0,0
246165,106929883,1,4464,4542,15.03,1.69,28,17,0,0
246610,107037041,1,4551,4628,14.98,1.61,28,17,0,0
247020,107145432,1,4620,4557,15.02,1.39,28,17,0,0
247467,107250292,1,4557,4571,15.05,1.61,28,17,0,0
248315,107459895,1,4570,4442,15.11,1.16,28,17,0,0
248757,107567294,1,4439,4285,15.1,0.98,28,17,0,0
249245,107692078,1,4274,4171,15.1,1.04,28,17,0,0
249649,107788759,1,4170,4142,15.11,1.17,28,17,0,0
250122,107902300,1,4160,4371,15.01,2.2,28,18,0,0
250575,108013448,1,4376,4500,15,1.73,28,18,0,0
251019,108127535,1,4527,4771,15.04,1.79,28,18,0,0
251468,108237484,1,4746,4500,15,1.26,28,18,0,0
251912,108346421,1,4506,4642,15.08,1.78,28,18,0,0
252322,108444248,1,4646,4957,15.06,2.13,28,18,0,0
252809,108566095,1,4954,4928,15.06,1.49,28,18,0,0
253215,108662727,1,4903,4628,15.06,1.13,28,18,0,0
253658,108776770,1,4607,4414,15.08,0.91,28,18,0,0
254102,108885241,1,4398,4171,15,1.09,28,18,0,0
254548,108991872,1,4172,4285,15.06,1.1,28,18,0,0
254994,109102110,1,4280,4171,15.02,1.2,28,18,0,0
255473,109211450,1,4169,4142,15.04,1.41,28,18,0,0
255920,109322556,1,4150,4271,15,1.47,28,18,0,0
256369,109431627,1,4276,4357,14.98,1.45,28,18,0,0
256779,109538329,1,4353,4285,15.04,1.32,28,18,0,0
257231,109648508,1,4278,4214,15.05,1.19,28,18,0,0
257635,109753878,1,4218,4271,15.04,1.31,28,18,0,0
258088,109865249,1,4277,4414,15.06,1.47,28,18,0,0
258529,109972459,1,4416,4457,15.05,1.36,28,18,0,0
258975,110083889,1,4466,4571,15.09,1.4,28,18,0,0
259381,110184752,1,4568,4428,15.04,1.36,28,18,0,0
259825,110295040,1,4428,4428,15.06,1.24,28,18,0,0
260759,110522967,1,4431,4542,15.07,1.63,28,19,0,0
261610,110734627,1,4539,4442,15.03,1.5,28,19,0,0
262062,110845318,1,4440,4400,15.08,1.28,28,19,0,0
262949,111061067,1,4400,4428,15,1.42,28,19,0,0
263397,111174999,1,4445,4628,15.11,1.95,28,19,0,0
263840,111285137,1,4604,4357,15.14,1.12,28,19,0,0
264243,111383002,1,4351,4157,15.11,0.83,28,19,0,0
265144,111607339,1,4153,4057,15.08,1.62,28,19,0,0
265598,111721506,1,4063,4128,15.11,1.8,28,19,0,0
266046,111833240,1,4158,4442,15.05,2.19,28,19,0,0
266442,111932299,1,4449,4600,15.07,1.79,28,19,0,0
266895,112041723,1,4596,4528,15.04,1.48,28,19,0,0
267297,112143981,1,4530,4671,15.04,1.55,28,19,0,0
267790,112263266,1,4660,4557,15.05,1.26,28,19,0,0
268227,112368072,1,4562,4628,15.03,1.51,28,19,0,0
269079,112583967,1,4628,4657,15.05,1.56,28,19,0,0
269484,112688885,1,4655,4614,15.06,1.49,28,19,0,0
269931,112794114,1,4614,4642,15.05,1.55,28,20,0,0
270383,112907766,1,4642,4642,15.05,1.39,28,20,0,0
271238,113122539,1,4642,4657,15.02,1.47,28,20,0,0
271683,113229542,1,4645,4500,15.02,1.33,28,20,0,0
272127,113337985,1,4502,4542,15.04,1.5,28,20,0,0
272581,113451719,1,4543,4557,15.01,1.56,28,20,0,0
273018,113555108,1,4561,4628,15,1.6,28,20,0,0
273433,113666520,1,4639,4771,14.97,1.58,28,20,0,0
273879,113773434,1,4765,4700,14.97,1.75,28,20,0,0
274325,113881278,1,4712,4857,14.98,1.89,28,20,0,0
274770,113991455,1,4853,4814,15,1.83,28,20,0,0
275170,114092673,1,4812,4728,15.02,1.94,28,20,0,0
275663,114210322,1,4746,4928,14.93,2.11,28,20,0,0
276062,114311222,1,4928,4928,14.97,2.16,28,20,0,0
276512,114421361,1,4930,5100,15.01,2.38,28,20,0,0
276958,114531486,1,5103,5200,14.97,2.42,28,20,0,0
277404,114639691,1,5196,5157,14.92,2.3,28,20,0,0
277808,114744768,1,5157,5157,14.96,2.38,28,21,0,0
278299,114860970,1,5165,5257,14.99,2.25,28,21,0,0
278705,114962359,1,5258,5285,14.93,2.38,28,21,0,0
279159,115080287,1,5272,5128,15,2.24,28,21,0,0
279560,115176831,1,5131,5200,14.95,2.36,28,21,0,0
280007,115289522,1,5204,5314,14.93,2.54,28,21,0,0
280457,115400724,1,5319,5400,14.93,2.56,28,21,0,0
280905,115514746,1,5393,5328,15.03,2.34,28,21,0,0
281353,115623940,1,5313,5157,14.94,2.25,28,21,0,0
281755,115724213,1,5154,5114,14.98,2.07,28,21,0,0
282206,115836053,1,5109,5057,14.95,2.22,28,21,0,0
282648,115944769,1,5051,5000,14.98,1.98,28,21,0,0
283102,116060564,1,4995,4971,14.98,1.83,28,21,0,0
283497,116153537,1,4966,4871,14.94,1.77,28,21,0,0
283942,116258344,1,4867,4785,15,1.86,28,21,0,0
284873,116486216,1,4783,4728,14.98,1.74,28,22,0,0
285323,116597228,1,4729,4742,14.98,1.66,28,22,0,0
285720,116696533,1,4740,4700,14.97,1.63,28,22,0,0
286173,116808037,1,4695,4600,15.02,1.31,28,22,0,0
286618,116918751,1,4591,4400,15.07,1.32,28,22,0,0
287037,117030027,1,4388,4228,15.11,1.04,28,22,0,0
287443,117132240,1,4223,4128,15.1,1.66,28,22,0,0
287890,117242099,1,4115,3957,15.15,1.58,28,22,0,0
288333,117353719,1,3954,3928,15.04,2.24,28,22,0,0
288745,117455536,1,3929,4028,15.08,2.03,28,22,0,0
289226,117572288,1,4040,4214,15.11,2.08,28,22,0,0
289673,117687260,1,4210,4171,15.06,1.46,28,22,0,0
290158,117801988,1,4186,4342,15.11,1.44,28,22,0,0
290556,117899842,1,4346,4442,15.08,1.57,28,22,0,0
291003,118006365,1,4449,4600,15.04,1.74,28,22,0,0
291410,118110931,1,4601,4628,15.05,1.54,28,22,0,0
291901,118230541,1,4635,4714,15,1.52,28,22,0,0
292307,118333120,1,4709,4657,15.04,1.5,28,22,0,0
292755,118440972,1,4648,4528,15.05,1.31,28,22,0,0
293196,118550366,1,4524,4442,15.04,1.39,28,23,0,0
293680,118670542,1,4439,4414,15.04,1.41,28,23,0,0
294085,118771253,1,4417,4471,15.05,1.38,28,23,0,0
294492,118872317,1,4468,4342,15.05,1.28,28,23,0,0
294943,118980359,1,4343,4485,14.98,1.54,28,23,0,0
295391,119090565,1,4484,4471,15.01,1.44,28,23,0,0
295882,119210493,1,4471,4471,15.07,1.36,28,23,0,0
296282,119313856,1,4472,4485,15.05,1.44,28,23,0,0
296730,119423106,1,4480,4428,15.03,1.51,28,23,0,0
297293,119636532,1,4527,4371,15.02,1.31,28,23,0,0
297698,119742442,1,4361,4285,15.03,1.24,28,23,0,0
298594,119960842,1,4285,4300,15.05,1.36,28,23,0,0
299043,120068361,1,4281,4157,15.05,1.24,28,23,0,0
299442,120169929,1,4159,4271,15.05,1.27,28,23,0,0
299924,120283865,1,4264,4114,15.06,1.21,28,23,0,0
300374,120391894,1,4114,4128,14.97,1.95,28,23,0,0
300823,120505494,1,4125,4085,14.94,1.83,28,23,0,0
301706,120717764,1,4083,4028,14.93,1.78,28,23,0,0
302597,120938097,1,4043,4500,14.88,2.01,28,23,0,0
303045,121048344,1,4526,4871,14.89,2.01,28,24,0,0
303407,121143335,1,4873,4985,14.84,2.28,28,24,0,0
303899,121261686,1,4983,4971,14.86,2.28,28,24,0,0
304299,121361018,1,4972,5071,14.91,2.08,28,24,0,0
304750,121473923,1,5069,5028,14.83,1.81,28,24,0,0
305633,121688326,1,5022,4728,14.92,1.4,28,24,0,0
306079,121796261,1,4728,4757,14.98,1.78,28,24,0,0
306529,121908708,1,4755,4685,14.97,1.6,28,24,0,0
306983,122019985,1,4677,4585,15.05,1.46,28,24,0,0
307426,122128870,1,4586,4614,14.98,1.75,28,24,0,0
307906,122237558,1,4621,4714,14.97,1.91,28,24,0,0
308308,122339130,1,4718,4871,14.98,2.16,28,24,0,0
308764,122449943,1,4878,5028,14.98,2.16,28,24,0,0
309210,122561563,1,5033,5100,14.97,2.04,28,24,0,0
309658,122671249,1,5084,4914,15.01,1.74,28,24,0,0
310062,122777862,1,4902,4742,15.01,1.6,28,24,0,0
310511,122889117,1,4728,4628,14.99,1.52,28,24,0,0
310959,122995244,1,4620,4542,15.04,1.42,28,25,0,0
311362,123098264,1,4545,4642,14.99,1.74,28,25,0,0
312290,123323778,1,4647,4771,14.97,1.82,28,25,0,0
312743,123434280,1,4763,4685,15.04,1.47,28,25,0,0
313103,123528061,1,4682,4585,14.97,1.53,28,25,0,0
313554,123639066,1,4582,4528,15.03,1.53,28,25,0,0
313999,123750840,1,4527,4514,15.01,1.57,28,25,0,0
314447,123858467,1,4520,4657,15.01,1.59,28,25,0,0
314897,123970327,1,4654,4628,14.95,1.64,28,25,0,0
315304,124074255,1,4626,4542,15.02,1.6,28,25,0,0
315755,124187454,1,4548,4642,15.03,1.44,28,25,0,0
316198,124297756,1,4627,4485,15.08,1.35,28,25,0,0
316645,124404930,1,4485,4514,15.05,1.85,28,25,0,0
317086,124512777,1,4515,4542,15.04,1.34,28,25,0,0
317542,124626721,1,4540,4514,15.02,1.36,28,25,0,0
317985,124738125,1,4499,4357,15.04,1.62,28,25,0,0
318430,124843477,1,4357,4371,15.07,1.33,28,25,0,0
318883,124957551,1,4364,4300,15.05,1.48,28,25,0,0
319327,125063867,1,4299,4285,15.06,1.62,28,25,0,0
320185,125280968,1,4295,4514,15.07,1.78,28,26,0,0
320638,125392762,1,4435,3614,15.51,0.35,28,26,0,0
321043,125494537,1,3574,2757,15.24,0.9399999999999999,28,26,0,0
321529,125607309,1,2701,2142,15.55,0.09,28,26,0,0
321937,125713853,1,2121,1914,15.45,0.14,28,26,0,0
322343,125814957,1,1912,1871,15.45,0.16,28,26,0,0
322794,125928936,1,1866,1828,15.45,0.16,28,26,0,0
323279,126042468,1,1829,1842,15.46,0.17,28,26,0,0
323683,126146204,1,1840,1828,15.45,0.16,28,26,0,0
324130,126254861,1,1828,1842,15.46,0.17,28,26,0,0
324577,126367930,1,1840,1828,15.45,0.17,28,26,0,0
324979,126466744,1,1828,1828,15.46,0.16,28,26,0,0
325427,126579567,1,1828,1842,15.47,0.18,28,26,0,0
325874,126692343,1,1843,1857,15.47,0.17,28,26,0,0
326281,126792514,1,1855,1828,15.47,0.16,28,26,0,0
326731,126905045,1,1830,1885,15.46,0.21,28,26,0,0
327179,127009887,1,1884,1857,15.48,0.16,28,26,0,0
327662,127122543,1,1858,1900,15.47,0.18,28,26,0,0
328111,127229909,1,1900,1914,15.47,0.18,28,26,0,0
328593,127342958,1,1916,1957,15.57,0.15,28,26,0,0
329043,127450554,1,1929,1657,15.54,0.01,28,26,0,0
329484,127556513,1,1644,1342,15.53,0.02,28,26,0,0
329966,127671030,1,1339,1285,15.52,0.07000000000000001,28,26,0,0
330413,127782564,1,1283,1271,15.52,0.08,28,26,0,0
331311,127995864,1,1270,1257,15.53,0.09,28,26,0,0
331749,128102860,1,1257,1257,15.53,0.09,28,26,0,0
332243,128219564,1,1257,1257,15.53,0.09,28,26,0,0
332643,128317124,1,1257,1257,15.54,0.09,28,26,0,0
333134,128431574,1,1257,1257,15.54,0.09,28,26,0,0
333581,128542944,1,1257,1257,15.54,0.09,28,26,0,0
334026,128647226,1,1257,1257,15.54,0.09,28,26,0,0
334515,128765765,1,1257,1257,15.54,0.09,28,26,0,0
334927,128865623,1,1257,1271,15.54,0.09,28,26,0,0
335383,128977896,1,1235,514,15.57,0,28,26,0,0
335873,129094459,1,494,214,15.56,0.01,28,26,0,0
336326,129201986,1,198,0,15.57,0.02,28,26,0,0
336779,129313950,1,0,0,15.57,0.02,28,26,0,0
337232,129417045,1,0,0,15.57,0.02,28,26,0,0
337641,129518844,1,0,0,15.57,0.03,28,26,0,0
338140,129633208,1,0,0,15.57,0.02,28,26,0,0
338587,129739539,1,0,0,15.57,0.02,28,26,0,0
339037,129845356,1,0,0,15.57,0.02,28,26,0,0
340019,130074472,1,0,0,15.57,0.02,28,26,0,0
340923,130290322,1,0,0,15.58,0.02,28,26,0,0
341423,130408449,1,0,0,15.58,0.02,28,26,0,0
341873,130517876,1,0,0,15.58,0.02,28,26,0,0
342324,130622245,1,0,0,15.59,0.02,28,26,0,0
342777,130731077,1,0,0,15.58,0.03,28,26,0,0
343274,130847250,1,0,0,15.58,0.02,28,26,0,0
343729,130954756,1,0,0,15.59,0.02,28,26,0,0
344668,131172492,1,0,0,15.6,0.03,28,26,0,0
345117,131277451,1,0,0,15.6,0.03,28,26,0,0
345571,131388247,1,0,0,15.6,0.03,28,26,0,0
346022,131497236,1,0,0,15.6,0.03,28,26,0,0
346473,131601231,1,0,0,15.6,0.03,28,26,0,0
346923,131708911,1,0,0,15.6,0.03,28,26,0,0
347374,131815754,1,0,0,15.6,0.03,28,26,0,0
347871,131932352,1,0,0,15.6,0.03,28,26,0,0
