LineNo,TimeUS,Instance,RPM,RawRPM,Volt,Curr,Temp,CTot,MotTemp,Err
1795,1.3403e+07,1,0,0,15.97,0.04,26,0,0,0
2210,1.351e+07,1,0,0,15.95,0.04,26,0,0,0
2671,1.3626e+07,1,0,0,15.96,0.04,26,0,0,0
3083,1.3733e+07,1,0,0,15.95,0.04,26,0,0,0
3497,1.3837e+07,1,0,0,15.96,0.04,26,0,0,0
3951,1.3951e+07,1,0,0,15.96,0.04,26,0,0,0
4324,1.4049e+07,1,0,0,15.96,0.04,26,0,0,0
4777,1.416e+07,1,0,0,15.96,0.04,26,0,0,0
5225,1.4272e+07,1,0,0,15.96,0.04,26,0,0,0
5637,1.4377e+07,1,0,0,15.95,0.04,26,0,0,0
6055,1.4485e+07,1,0,0,15.95,0.04,26,0,0,0
6465,1.4591e+07,1,0,0,15.96,0.04,26,0,0,0
6877,1.4693e+07,1,0,0,15.96,0.04,26,0,0,0
7329,1.481e+07,1,0,0,15.95,0.04,26,0,0,0
7745,1.4914e+07,1,0,0,15.95,0.04,26,0,0,0
8161,1.5022e+07,1,0,0,15.96,0.04,26,0,0,0
8572,1.5126e+07,1,0,0,15.95,0.04,26,0,0,0
9023,1.524e+07,1,0,0,15.96,0.04,26,0,0,0
9401,1.5338e+07,1,0,0,15.95,0.04,26,0,0,0
9848,1.5449e+07,1,0,0,15.96,0.04,26,0,0,0
10260,1.5552e+07,1,0,0,15.95,0.04,26,0,0,0
10744,1.567e+07,1,0,0,15.96,0.04,26,0,0,0
10997,1.5774e+07,1,0,0,15.96,0.04,26,0,0,0
11454,1.5887e+07,1,0,0,15.96,0.04,26,0,0,0
11866,1.5992e+07,1,0,0,15.95,0.03,26,0,0,0
12284,1.6094e+07,1,0,0,15.96,0.04,26,0,0,0
12741,1.6211e+07,1,0,0,15.95,0.04,26,0,0,0
13151,1.6314e+07,1,0,0,15.96,0.04,26,0,0,0
13601,1.6427e+07,1,0,0,15.95,0.04,26,0,0,0
14017,1.6532e+07,1,0,0,15.95,0.04,26,0,0,0
14877,1.6749e+07,1,0,0,15.96,0.04,26,0,0,0
15300,1.6857e+07,1,0,0,15.97,0.04,26,0,0,0
15712,1.6962e+07,1,0,0,15.96,0.04,26,0,0,0
16123,1.7065e+07,1,0,0,15.96,0.04,26,0,0,0
16575,1.7177e+07,1,0,0,15.96,0.04,26,0,0,0
16989,1.7283e+07,1,0,0,15.97,0.04,26,0,0,0
17398,1.7388e+07,1,0,0,15.96,0.04,26,0,0,0
17807,1.7491e+07,1,0,0,15.96,0.04,26,0,0,0
18233,1.7603e+07,1,0,0,15.95,0.04,26,0,0,0
18679,1.7713e+07,1,0,0,15.96,0.04,26,0,0,0
19132,1.7825e+07,1,0,0,15.96,0.04,26,0,0,0
19552,1.7934e+07,1,0,0,15.96,0.04,26,0,0,0
19970,1.8039e+07,1,0,0,15.96,0.04,26,0,0,0
20802,1.825e+07,1,0,0,15.96,0.04,26,0,0,0
21255,1.8366e+07,1,0,0,15.96,0.04,26,0,0,0
21666,1.8468e+07,1,0,0,15.95,0.04,26,0,0,0
22083,1.8575e+07,1,0,0,15.95,0.04,26,0,0,0
22501,1.8686e+07,1,0,0,15.96,0.04,26,0,0,0
22948,1.8799e+07,1,0,0,15.96,0.04,26,0,0,0
23806,1.9014e+07,1,0,0,15.96,0.04,26,0,0,0
24218,1.912e+07,1,0,0,15.95,0.04,26,0,0,0
24630,1.9222e+07,1,0,0,15.95,0.04,26,0,0,0
25084,1.9339e+07,1,0,0,15.96,0.04,26,0,0,0
25497,1.9442e+07,1,0,0,15.96,0.04,26,0,0,0
25911,1.955e+07,1,0,0,15.95,0.04,26,0,0,0
26326,1.9653e+07,1,0,0,15.96,0.04,26,0,0,0
26781,1.977e+07,1,0,0,15.97,0.04,26,0,0,0
27194,1.9873e+07,1,0,0,15.96,0.04,26,0,0,0
27648,1.9988e+07,1,0,0,15.96,0.04,26,0,0,0
28063,2.0093e+07,1,0,0,15.96,0.04,26,0,0,0
28485,2.0199e+07,1,0,0,15.95,0.04,26,0,0,0
28943,2.0315e+07,1,0,0,15.96,0.04,26,0,0,0
29353,2.0417e+07,1,0,0,15.96,0.04,26,0,0,0
29802,2.0528e+07,1,0,0,15.96,0.04,26,0,0,0
30214,2.0634e+07,1,0,0,15.97,0.04,26,0,0,0
30669,2.0748e+07,1,0,0,15.96,0.04,26,0,0,0
31077,2.0855e+07,1,0,0,15.96,0.04,26,0,0,0
31494,2.0959e+07,1,0,0,15.95,0.04,26,0,0,0
31955,2.108e+07,1,0,0,15.96,0.04,26,0,0,0
32366,2.1182e+07,1,0,0,15.95,0.04,26,0,0,0
32788,2.1287e+07,1,0,0,15.95,0.04,26,0,0,0
33203,2.1392e+07,1,0,0,15.96,0.04,26,0,0,0
33624,2.1502e+07,1,0,0,15.95,0.04,26,0,0,0
34036,2.1609e+07,1,0,0,15.96,0.04,26,0,0,0
34495,2.1724e+07,1,0,0,15.96,0.04,26,0,0,0
34880,2.1828e+07,1,0,0,15.95,0.04,26,0,0,0
35295,2.193e+07,1,0,0,15.95,0.04,26,0,0,0
35744,2.2043e+07,1,0,0,15.95,0.04,26,0,0,0
36162,2.215e+07,1,0,0,15.95,0.04,26,0,0,0
36581,2.2256e+07,1,0,0,15.95,0.04,26,0,0,0
37040,2.2369e+07,1,0,0,15.96,0.04,26,0,0,0
37454,2.2474e+07,1,0,0,15.96,0.04,26,0,0,0
37863,2.2578e+07,1,0,0,15.95,0.04,26,0,0,0
38315,2.2691e+07,1,0,0,15.96,0.04,26,0,0,0
38731,2.2796e+07,1,0,0,15.95,0.04,26,0,0,0
39146,2.2904e+07,1,0,0,15.95,0.04,26,0,0,0
39560,2.301e+07,1,0,0,15.95,0.04,26,0,0,0
40006,2.3124e+07,1,0,0,15.95,0.04,26,0,0,0
40422,2.3229e+07,1,0,0,15.95,0.04,26,0,0,0
40879,2.3344e+07,1,0,0,15.96,0.04,26,0,0,0
41292,2.3446e+07,1,0,0,15.95,0.04,26,0,0,0
41707,2.3554e+07,1,0,0,15.95,0.04,26,0,0,0
42160,2.3669e+07,1,0,0,15.96,0.04,26,0,0,0
42578,2.3776e+07,1,0,0,15.96,0.04,26,0,0,0
42987,2.388e+07,1,0,0,15.96,0.04,26,0,0,0
43401,2.3987e+07,1,0,0,15.96,0.04,26,0,0,0
43887,2.4104e+07,1,0,0,15.96,0.04,26,0,0,0
44295,2.4208e+07,1,0,0,15.95,0.04,26,0,0,0
44756,2.4322e+07,1,0,0,15.95,0.04,26,0,0,0
45167,2.4427e+07,1,0,0,15.95,0.04,26,0,0,0
45581,2.4531e+07,1,0,0,15.95,0.03,26,0,0,0
46027,2.4644e+07,1,0,0,15.96,0.03,26,0,0,0
46444,2.4746e+07,1,0,0,15.96,0.03,26,0,0,0
46863,2.4854e+07,1,0,0,15.95,0.03,26,0,0,0
47313,2.4967e+07,1,0,0,15.96,0.04,26,0,0,0
47723,2.5072e+07,1,0,0,15.96,0.04,26,0,0,0
48137,2.5179e+07,1,0,0,15.95,0.03,26,0,0,0
48588,2.5293e+07,1,0,0,15.95,0.04,26,0,0,0
49000,2.5397e+07,1,0,0,15.96,0.04,26,0,0,0
49419,2.5504e+07,1,0,0,15.95,0.04,26,0,0,0
49828,2.5606e+07,1,0,0,15.96,0.04,26,0,0,0
50247,2.5714e+07,1,0,0,15.96,0.04,26,0,0,0
50644,2.5828e+07,1,0,0,15.96,0.03,26,0,0,0
51061,2.5937e+07,1,0,0,15.95,0.04,26,0,0,0
51473,2.6041e+07,1,0,0,15.95,0.03,26,0,0,0
51927,2.6155e+07,1,0,0,15.96,0.04,26,0,0,0
52341,2.6261e+07,1,0,0,15.96,0.04,26,0,0,0
52754,2.6367e+07,1,0,0,15.96,0.04,26,0,0,0
53209,2.648e+07,1,0,0,15.96,0.03,26,0,0,0
53626,2.6586e+07,1,0,0,15.96,0.03,26,0,0,0
54039,2.6689e+07,1,0,0,15.95,0.03,26,0,0,0
54495,2.6806e+07,1,0,0,15.96,0.04,26,0,0,0
54915,2.6912e+07,1,0,0,15.95,0.04,26,0,0,0
55331,2.7018e+07,1,0,0,15.96,0.04,26,0,0,0
55742,2.7121e+07,1,0,0,15.96,0.04,26,0,0,0
56169,6.0586e+07,1,0,0,15.96,0.04,27,0,0,0
56546,6.0678e+07,1,0,0,15.96,0.04,27,0,0,0
56961,6.0783e+07,1,0,0,15.96,0.04,26,0,0,0
57457,6.0896e+07,1,0,0,15.96,0.04,27,0,0,0
57911,6.0998e+07,1,0,0,15.96,0.04,26,0,0,0
58364,6.1104e+07,1,0,0,15.95,0.04,27,0,0,0
58859,6.1216e+07,1,0,0,15.95,0.04,26,0,0,0
59311,6.1319e+07,1,0,0,15.95,0.04,26,0,0,0
59765,6.1421e+07,1,0,0,15.95,0.04,26,0,0,0
60301,6.154e+07,1,0,0,15.95,0.04,26,0,0,0
60755,6.1644e+07,1,0,0,15.95,0.03,26,0,0,0
61208,6.1751e+07,1,0,0,15.95,0.04,26,0,0,0
61665,6.1855e+07,1,0,0,15.97,0.04,26,0,0,0
62085,6.1955e+07,1,0,0,15.96,0.04,26,0,0,0
62583,6.2067e+07,1,0,0,15.97,0.04,26,0,0,0
63041,6.2177e+07,1,0,0,15.96,0.04,26,0,0,0
63492,6.2281e+07,1,0,0,15.96,0.04,26,0,0,0
63950,6.2387e+07,1,0,0,15.97,0.04,26,0,0,0
64440,6.2499e+07,1,0,0,15.96,0.04,26,0,0,0
64896,6.26e+07,1,0,0,15.97,0.04,26,0,0,0
65389,6.2713e+07,1,9,171,15.96,0.04,26,0,0,0
65842,6.2815e+07,1,188,571,15.94,0.09,26,0,0,0
66299,6.292e+07,1,576,928,15.92,0.15,26,0,0,0
66797,6.3031e+07,1,943,1185,15.95,0.12,26,0,0,0
67247,6.3136e+07,1,1185,1242,15.95,0.11,26,0,0,0
67626,6.3248e+07,1,1244,1271,15.94,0.11,26,0,0,0
68078,6.3352e+07,1,1271,1285,15.95,0.11,26,0,0,0
68538,6.3456e+07,1,1285,1285,15.95,0.1,26,0,0,0
68994,6.3562e+07,1,1285,1300,15.95,0.1,26,0,0,0
69489,6.3679e+07,1,1300,1300,15.95,0.1,26,0,0,0
69942,6.378e+07,1,1300,1300,15.95,0.1,27,0,0,0
70852,6.399e+07,1,1299,1285,15.95,0.1,26,0,0,0
71345,6.4102e+07,1,1285,1285,15.95,0.1,26,0,0,0
71797,6.4204e+07,1,1285,1285,15.95,0.1,26,0,0,0
72294,6.4317e+07,1,1286,1300,15.94,0.1,27,0,0,0
72751,6.4421e+07,1,1299,1285,15.94,0.1,26,0,0,0
73203,6.4526e+07,1,1285,1285,15.95,0.1,27,0,0,0
73659,6.4627e+07,1,1285,1285,15.95,0.1,26,0,0,0
74115,6.4734e+07,1,1285,1285,15.95,0.1,26,0,0,0
74616,6.485e+07,1,1285,1285,15.95,0.11,27,0,0,0
75036,6.4952e+07,1,1285,1285,15.95,0.11,27,0,0,0
75488,6.5058e+07,1,1285,1285,15.94,0.11,27,0,0,0
75982,6.5173e+07,1,1285,1285,15.94,0.11,27,0,0,0
76433,6.5279e+07,1,1285,1285,15.95,0.1,27,0,0,0
76890,6.5383e+07,1,1285,1285,15.94,0.11,27,0,0,0
77386,6.5501e+07,1,1285,1285,15.95,0.11,26,0,0,0
77842,6.5603e+07,1,1285,1285,15.94,0.1,27,0,0,0
78294,6.5709e+07,1,1285,1285,15.94,0.1,27,0,0,0
78749,6.5814e+07,1,1285,1285,15.95,0.1,27,0,0,0
79205,6.5925e+07,1,1285,1285,15.95,0.11,27,0,0,0
79660,6.6027e+07,1,1285,1285,15.94,0.1,27,0,0,0
80155,6.6143e+07,1,1285,1285,15.95,0.11,27,0,0,0
80607,6.6245e+07,1,1285,1285,15.95,0.11,27,0,0,0
81030,6.6354e+07,1,1285,1285,15.94,0.1,27,0,0,0
81525,6.6467e+07,1,1285,1285,15.94,0.1,27,0,0,0
81975,6.6572e+07,1,1285,1285,15.94,0.1,27,0,0,0
82427,6.6677e+07,1,1285,1285,15.94,0.1,27,0,0,0
82892,6.6788e+07,1,1285,1285,15.95,0.1,27,0,0,0
83340,6.689e+07,1,1285,1285,15.94,0.1,27,0,0,0
83839,6.7003e+07,1,1285,1285,15.95,0.11,27,0,0,0
84293,6.7111e+07,1,1285,1300,15.94,0.13,27,0,0,0
84746,6.7213e+07,1,1310,1571,15.89,0.25,27,0,0,0
85166,6.7323e+07,1,1583,2214,15.86,0.64,27,0,0,0
85620,6.7429e+07,1,2222,2757,15.75,1.23,27,0,0,0
86112,6.7544e+07,1,2798,3357,15.72,1.53,27,0,0,0
86569,6.765e+07,1,3388,3971,15.6,1.82,27,0,0,0
87069,6.7767e+07,1,4018,4528,15.49,3.58,27,0,0,0
87525,6.7878e+07,1,4574,5071,15.39,3.22,27,0,0,0
87978,6.7983e+07,1,5108,5614,15.3,3.18,27,1,0,0
88432,6.8095e+07,1,5619,5714,15.27,3.07,27,1,0,0
88887,6.8204e+07,1,5702,5542,15.35,2.45,27,1,0,0
89344,6.8316e+07,1,5536,5457,15.32,2.23,27,1,0,0
89802,6.8427e+07,1,5388,4857,15.34,1.57,27,1,0,0
90252,6.8534e+07,1,4865,5000,15.38,1.96,27,1,0,0
90673,6.864e+07,1,4988,4742,15.36,1.68,27,1,0,0
91167,6.8755e+07,1,4741,4728,15.36,1.59,27,1,0,0
92072,6.897e+07,1,4705,4214,15.36,1.13,27,1,0,0
92975,6.9186e+07,1,4208,4057,15.31,1.72,27,1,0,0
93421,6.9295e+07,1,4076,4257,15.39,1.62,27,1,0,0
93875,6.9401e+07,1,4279,4557,15.38,1.92,27,1,0,0
94289,6.9506e+07,1,4561,4757,15.44,1.79,27,1,0,0
94786,6.962e+07,1,4754,4728,15.39,1.73,27,1,0,0
95233,6.9726e+07,1,4734,4857,15.33,1.89,27,1,0,0
95692,6.9836e+07,1,4853,4771,15.42,1.43,27,2,0,0
96147,6.9946e+07,1,4768,4700,15.36,1.59,27,2,0,0
96604,7.0054e+07,1,4700,4700,15.36,1.71,27,2,0,0
97056,7.0166e+07,1,4701,4728,15.33,1.74,27,2,0,0
97968,7.0385e+07,1,4733,4971,15.31,2.18,27,2,0,0
98418,7.0499e+07,1,4966,4900,15.22,1.92,27,2,0,0
98867,7.0611e+07,1,4897,4871,15.22,1.65,27,2,0,0
99309,7.0722e+07,1,4862,4771,15.23,1.69,27,2,0,0
99764,7.0832e+07,1,4765,4685,15.3,1.49,27,2,0,0
1.0016e+05,7.0934e+07,1,4675,4500,15.4,1.34,27,2,0,0
1.0061e+05,7.1043e+07,1,4494,4414,15.39,1.32,27,2,0,0
1.0101e+05,7.1144e+07,1,4408,4185,15.45,1.25,27,2,0,0
1.0151e+05,7.1262e+07,1,4173,4057,15.36,1.32,27,2,0,0
1.0192e+05,7.137e+07,1,4068,4228,15.21,1.55,27,2,0,0
1.0236e+05,7.148e+07,1,4236,4357,15.35,1.45,27,2,0,0
1.0278e+05,7.1587e+07,1,4359,4428,15.29,1.65,27,2,0,0
1.0322e+05,7.1695e+07,1,4430,4485,15.33,1.58,27,2,0,0
1.0363e+05,7.1799e+07,1,4488,4642,15.35,1.71,27,2,0,0
1.0406e+05,7.1913e+07,1,4648,4757,15.3,1.79,27,3,0,0
1.045e+05,7.202e+07,1,4758,4785,15.33,1.7,27,3,0,0
1.0495e+05,7.213e+07,1,4782,4742,15.35,1.66,27,3,0,0
1.0539e+05,7.2238e+07,1,4744,4800,15.3,1.74,27,3,0,0
1.0585e+05,7.2352e+07,1,4794,4742,15.3,1.65,27,3,0,0
1.0629e+05,7.2463e+07,1,4739,4714,15.3,1.71,27,3,0,0
1.0674e+05,7.2571e+07,1,4711,4685,15.28,1.47,27,3,0,0
1.0714e+05,7.2668e+07,1,4682,4500,15.35,1.24,27,3,0,0
1.0759e+05,7.278e+07,1,4482,4314,15.36,1.16,27,3,0,0
1.0803e+05,7.2888e+07,1,4322,4442,15.29,1.57,27,3,0,0
1.0889e+05,7.3104e+07,1,4439,4342,15.32,1.32,27,3,0,0
1.0934e+05,7.3209e+07,1,4341,4314,15.26,1.49,27,3,0,0
1.0983e+05,7.3328e+07,1,4312,4285,15.24,1.43,27,3,0,0
1.1028e+05,7.3435e+07,1,4288,4357,15.35,1.25,27,3,0,0
1.1072e+05,7.3546e+07,1,4350,4271,15.33,1.27,28,3,0,0
1.1118e+05,7.3663e+07,1,4264,4214,15.34,1.14,28,3,0,0
1.1198e+05,7.3867e+07,1,4213,4142,15.33,1.26,27,3,0,0
1.1244e+05,7.3979e+07,1,4152,4285,15.35,1.37,27,3,0,0
1.1289e+05,7.4091e+07,1,4292,4371,15.27,1.33,28,3,0,0
1.1333e+05,7.4194e+07,1,4372,4400,15.32,1.35,27,3,0,0
1.1378e+05,7.4308e+07,1,4394,4342,15.3,1.22,28,3,0,0
1.1422e+05,7.4414e+07,1,4340,4257,15.3,1.25,27,3,0,0
1.1467e+05,7.4525e+07,1,4261,4300,15.28,1.19,27,4,0,0
1.1512e+05,7.4633e+07,1,4297,4257,15.27,1.43,27,4,0,0
1.1556e+05,7.474e+07,1,4254,4214,15.26,1.36,27,4,0,0
1.1601e+05,7.4849e+07,1,4223,4371,15.3,1.49,27,4,0,0
1.1646e+05,7.4958e+07,1,4364,4271,15.32,1.34,27,4,0,0
1.1687e+05,7.5059e+07,1,4270,4242,15.27,1.31,27,4,0,0
1.1736e+05,7.5176e+07,1,4247,4300,15.25,1.48,27,4,0,0
1.1776e+05,7.5278e+07,1,4309,4442,15.23,1.54,27,4,0,0
1.1822e+05,7.5388e+07,1,4441,4428,15.22,1.26,27,4,0,0
1.1914e+05,7.5614e+07,1,4421,4257,15.21,1.56,27,4,0,0
1.1954e+05,7.5712e+07,1,4265,4585,15.14,1.93,28,4,0,0
1.2e+05,7.5828e+07,1,4596,4714,15.19,1.94,27,4,0,0
1.204e+05,7.5929e+07,1,4723,4900,15.1,2.4,27,4,0,0
1.2126e+05,7.6147e+07,1,4900,4928,15.23,1.75,28,4,0,0
1.2172e+05,7.6257e+07,1,4921,4757,15.19,1.69,28,4,0,0
1.2216e+05,7.6366e+07,1,4759,4871,15.22,1.86,27,4,0,0
1.2309e+05,7.6595e+07,1,4871,4871,15.19,1.8,28,4,0,0
1.235e+05,7.67e+07,1,4867,4642,15.23,1.33,27,4,0,0
1.2394e+05,7.6809e+07,1,4638,4442,15.2,1.24,28,5,0,0
1.2439e+05,7.6918e+07,1,4434,4328,15.24,1.1,28,5,0,0
1.2484e+05,7.7027e+07,1,4327,4285,15.29,1.19,28,5,0,0
1.2528e+05,7.7136e+07,1,4288,4357,15.26,1.48,28,5,0,0
1.2574e+05,7.7251e+07,1,4364,4442,15.24,1.54,28,5,0,0
1.2619e+05,7.7361e+07,1,4449,4514,15.26,1.38,28,5,0,0
1.266e+05,7.7467e+07,1,4510,4442,15.34,1.36,28,5,0,0
1.2704e+05,7.7572e+07,1,4438,4371,15.3,1.43,28,5,0,0
1.2748e+05,7.7678e+07,1,4373,4428,15.3,1.27,28,5,0,0
1.2797e+05,7.7801e+07,1,4424,4400,15.3,1.35,27,5,0,0
1.2838e+05,7.7899e+07,1,4403,4471,15.29,1.43,28,5,0,0
1.2883e+05,7.801e+07,1,4474,4500,15.3,1.42,28,5,0,0
1.2928e+05,7.8122e+07,1,4504,4542,15.29,1.51,27,5,0,0
1.2968e+05,7.8221e+07,1,4545,4628,15.22,1.88,28,5,0,0
1.3013e+05,7.8335e+07,1,4631,4657,15.16,1.74,28,5,0,0
1.3062e+05,7.8446e+07,1,4668,4771,15.22,1.77,28,5,0,0
1.3102e+05,7.8545e+07,1,4777,4928,15.19,2.05,28,5,0,0
1.3151e+05,7.8668e+07,1,4902,4671,15.25,1.27,27,5,0,0
1.3191e+05,7.8767e+07,1,4654,4500,15.25,1.6,27,5,0,0
1.3236e+05,7.8883e+07,1,4517,4614,15.23,1.31,28,5,0,0
1.3281e+05,7.8987e+07,1,4605,4500,15.26,1.46,27,5,0,0
1.3325e+05,7.9096e+07,1,4512,4657,15.22,2.07,28,5,0,0
1.3371e+05,7.921e+07,1,4681,4942,15.31,1.85,28,5,0,0
1.3411e+05,7.9309e+07,1,4936,4814,15.27,1.56,28,6,0,0
1.3456e+05,7.9422e+07,1,4816,4842,15.25,2.06,27,6,0,0
1.35e+05,7.9531e+07,1,4836,4785,15.29,1.55,28,6,0,0
1.3541e+05,7.9624e+07,1,4785,4800,15.23,1.64,28,6,0,0
1.363e+05,7.9846e+07,1,4798,4657,15.26,1.48,27,6,0,0
1.3675e+05,7.9956e+07,1,4649,4471,15.23,1.28,28,6,0,0
1.3809e+05,8.029e+07,1,4478,4685,15.23,1.65,28,6,0,0
1.3854e+05,8.0399e+07,1,4678,4614,15.23,1.35,28,6,0,0
1.3895e+05,8.0496e+07,1,4612,4542,15.16,1.73,28,6,0,0
1.3944e+05,8.0617e+07,1,4538,4500,15.18,1.36,28,6,0,0
1.4029e+05,8.0825e+07,1,4498,4328,15.23,1.21,28,6,0,0
1.4078e+05,8.0943e+07,1,4333,4385,15.3,1.47,28,6,0,0
1.4118e+05,8.1043e+07,1,4384,4371,15.22,1.29,28,6,0,0
1.4162e+05,8.1152e+07,1,4359,4128,15.23,0.94,28,6,0,0
1.4208e+05,8.1264e+07,1,4121,4042,15.29,1.72,28,6,0,0
1.4248e+05,8.1365e+07,1,4040,3985,15.26,1.43,28,6,0,0
1.4292e+05,8.1475e+07,1,3993,4142,15.13,1.81,28,6,0,0
1.4337e+05,8.1585e+07,1,4148,4271,15.17,1.57,28,7,0,0
1.4383e+05,8.17e+07,1,4268,4200,15.23,1.11,28,7,0,0
1.4428e+05,8.1807e+07,1,4203,4271,15.22,1.5,28,7,0,0
1.4472e+05,8.1916e+07,1,4265,4214,15.16,1.33,28,7,0,0
1.4513e+05,8.2015e+07,1,4213,4171,15.19,1.3,28,7,0,0
1.4557e+05,8.2127e+07,1,4176,4285,15.18,1.38,27,7,0,0
1.4602e+05,8.2234e+07,1,4283,4242,15.14,1.29,28,7,0,0
1.4647e+05,8.2346e+07,1,4236,4157,15.16,0.9,28,7,0,0
1.4691e+05,8.2453e+07,1,4151,4071,15.19,1.6,28,7,0,0
1.4736e+05,8.2566e+07,1,4060,3942,15.16,2.15,28,7,0,0
1.4781e+05,8.2673e+07,1,3962,4185,15.13,2.24,28,7,0,0
1.4826e+05,8.2788e+07,1,4197,4328,15.16,1.47,28,7,0,0
1.4871e+05,8.2899e+07,1,4324,4285,15.2,1.26,28,7,0,0
1.4916e+05,8.3009e+07,1,4283,4271,15.14,1.21,28,7,0,0
1.4956e+05,8.3113e+07,1,4258,4100,15.18,1.22,28,7,0,0
1.5002e+05,8.3226e+07,1,4096,4057,15.19,1.76,28,7,0,0
1.5042e+05,8.333e+07,1,4054,4028,15.14,1.49,28,7,0,0
1.5088e+05,8.3441e+07,1,4036,4128,15.19,1.13,28,7,0,0
1.5129e+05,8.3546e+07,1,4132,4214,15.22,1.18,28,7,0,0
1.5174e+05,8.3656e+07,1,4211,4157,15.23,1.53,28,7,0,0
1.522e+05,8.3772e+07,1,4179,4414,15.19,1.53,28,7,0,0
1.5264e+05,8.3881e+07,1,4411,4385,15.17,1.15,28,7,0,0
1.5305e+05,8.3985e+07,1,4385,4385,15.22,1.1,28,7,0,0
1.5349e+05,8.4093e+07,1,4386,4414,15.17,1.67,28,7,0,0
1.5394e+05,8.4202e+07,1,4418,4685,15.16,1.54,28,8,0,0
1.5439e+05,8.4313e+07,1,4694,4928,15.17,2.29,28,8,0,0
1.5483e+05,8.442e+07,1,4928,4928,15.17,2.12,28,8,0,0
1.5576e+05,8.4643e+07,1,4922,4771,15.11,1.69,28,8,0,0
1.562e+05,8.4753e+07,1,4769,4728,15.14,1.37,28,8,0,0
1.5666e+05,8.4865e+07,1,4712,4514,15.14,1.64,28,8,0,0
1.5751e+05,8.5083e+07,1,4516,4642,15.11,1.77,28,8,0,0
1.5796e+05,8.5195e+07,1,4646,4700,15.1,1.91,28,8,0,0
1.5837e+05,8.5302e+07,1,4703,4828,15.03,1.82,28,8,0,0
1.5882e+05,8.5413e+07,1,4825,4800,15.12,1.74,28,8,0,0
1.5975e+05,8.5639e+07,1,4804,4942,15.04,2.22,28,8,0,0
1.6016e+05,8.5742e+07,1,4953,5100,15.04,2.13,28,8,0,0
1.6061e+05,8.5851e+07,1,5083,4914,15.08,1.86,28,8,0,0
1.6102e+05,8.5958e+07,1,4903,4800,15.16,1.68,28,8,0,0
1.6147e+05,8.6072e+07,1,4804,4857,15.01,1.96,28,8,0,0
1.6188e+05,8.6173e+07,1,4857,4857,15.1,1.93,28,9,0,0
1.6233e+05,8.6286e+07,1,4860,4900,15.15,1.65,28,9,0,0
1.6278e+05,8.64e+07,1,4873,4628,15.16,1.15,28,9,0,0
1.6323e+05,8.6509e+07,1,4622,4542,15.17,1.4,28,9,0,0
1.6363e+05,8.6606e+07,1,4540,4471,15.19,1.28,28,9,0,0
1.6405e+05,8.6716e+07,1,4469,4371,15.2,1.17,28,9,0,0
1.6454e+05,8.6836e+07,1,4379,4471,15.2,1.3,28,9,0,0
1.6494e+05,8.6937e+07,1,4468,4428,15.19,1.52,28,9,0,0
1.654e+05,8.7048e+07,1,4436,4514,15.17,1.42,28,9,0,0
1.6585e+05,8.7159e+07,1,4518,4585,15.18,1.53,28,9,0,0
1.667e+05,8.7371e+07,1,4583,4500,15.19,1.53,28,9,0,0
1.6759e+05,8.7587e+07,1,4504,4700,15.14,1.64,28,9,0,0
1.6804e+05,8.7698e+07,1,4698,4671,15.13,1.66,28,9,0,0
1.6848e+05,8.7806e+07,1,4676,4785,15.12,1.73,28,9,0,0
1.6889e+05,8.7914e+07,1,4796,4942,15.13,1.79,28,9,0,0
1.6934e+05,8.8026e+07,1,4940,4928,15.1,1.86,28,9,0,0
1.6971e+05,8.812e+07,1,4924,4800,15.1,1.57,28,9,0,0
1.702e+05,8.8234e+07,1,4793,4728,15.14,1.83,28,9,0,0
1.7108e+05,8.8447e+07,1,4728,4742,15.17,1.62,28,10,0,0
1.7154e+05,8.8559e+07,1,4742,4742,15.13,1.82,28,10,0,0
1.7238e+05,8.8769e+07,1,4742,4800,15.06,1.81,28,10,0,0
1.7282e+05,8.8879e+07,1,4798,4728,15.1,1.65,28,10,0,0
1.7327e+05,8.8987e+07,1,4728,4757,15.11,1.78,28,10,0,0
1.7375e+05,8.9104e+07,1,4756,4742,15.06,1.73,28,10,0,0
1.742e+05,8.9214e+07,1,4752,4857,15.15,1.83,28,10,0,0
1.7465e+05,8.9322e+07,1,4857,4885,15.11,1.94,28,10,0,0
1.751e+05,8.9438e+07,1,4889,4914,15.1,1.94,28,10,0,0
1.755e+05,8.9536e+07,1,4910,4857,15.08,1.83,28,10,0,0
1.7596e+05,8.9645e+07,1,4866,4957,15.1,2.28,28,10,0,0
1.7685e+05,8.9873e+07,1,4960,5028,15.12,2.12,28,10,0,0
1.7726e+05,8.997e+07,1,5028,5028,15.15,1.88,28,10,0,0
1.7771e+05,9.008e+07,1,5017,4900,15.11,1.6,28,10,0,0
1.7816e+05,9.0192e+07,1,4881,4657,15.12,1.5,28,10,0,0
1.786e+05,9.0299e+07,1,4654,4628,15.05,1.59,28,10,0,0
1.7901e+05,9.0402e+07,1,4628,4642,15.11,1.49,28,11,0,0
1.7942e+05,9.0507e+07,1,4642,4657,15.1,1.56,28,11,0,0
1.799e+05,9.0618e+07,1,4656,4642,15.14,1.67,28,11,0,0
1.8031e+05,9.0722e+07,1,4642,4642,15.16,1.53,28,11,0,0
1.808e+05,9.0838e+07,1,4644,4671,15.11,1.68,28,11,0,0
1.8126e+05,9.0951e+07,1,4672,4685,15.12,1.68,28,11,0,0
1.817e+05,9.1063e+07,1,4690,4742,15.08,1.76,28,11,0,0
1.826e+05,9.1285e+07,1,4742,4757,15.16,1.61,28,11,0,0
1.8304e+05,9.1387e+07,1,4746,4642,15.11,1.27,28,11,0,0
1.8345e+05,9.1486e+07,1,4640,4514,15.09,1.45,28,11,0,0
1.839e+05,9.16e+07,1,4536,4785,15.05,1.91,28,11,0,0
1.8431e+05,9.1709e+07,1,4791,4842,15.03,1.94,28,11,0,0
1.8566e+05,9.2032e+07,1,4833,4600,15.02,1.45,28,11,0,0
1.8606e+05,9.214e+07,1,4597,4371,15.11,1.3,28,11,0,0
1.8652e+05,9.2243e+07,1,4371,4442,15.11,1.32,28,11,0,0
1.8699e+05,9.2357e+07,1,4428,4300,15.15,0.92,28,11,0,0
1.8745e+05,9.2472e+07,1,4267,4057,15.15,1.27,28,11,0,0
1.879e+05,9.2581e+07,1,4067,4171,15.08,2.1,28,11,0,0
1.8834e+05,9.2684e+07,1,4203,4442,15.11,1.54,28,11,0,0
1.8919e+05,9.29e+07,1,4447,4585,15.12,1.4,28,12,0,0
1.8964e+05,9.301e+07,1,4566,4314,15.14,0.92,28,12,0,0
1.9009e+05,9.3121e+07,1,4307,4242,15.14,1.13,28,12,0,0
1.905e+05,9.3216e+07,1,4244,4385,15.13,2.18,28,12,0,0
1.9094e+05,9.3331e+07,1,4387,4600,15.08,1.75,28,12,0,0
1.9142e+05,9.3443e+07,1,4612,4771,15.08,1.66,28,12,0,0
1.9188e+05,9.3553e+07,1,4771,4771,15.1,1.59,28,12,0,0
1.9233e+05,9.3662e+07,1,4765,4685,15.08,1.31,28,12,0,0
1.9273e+05,9.3764e+07,1,4671,4485,15.11,1.44,28,12,0,0
1.9318e+05,9.388e+07,1,4498,4685,15.1,1.61,28,12,0,0
1.9358e+05,9.3976e+07,1,4683,4657,15.1,1.65,28,12,0,0
1.9404e+05,9.4092e+07,1,4659,4685,15.08,1.64,28,12,0,0
1.9449e+05,9.4203e+07,1,4683,4671,15.1,1.67,28,12,0,0
1.9489e+05,9.43e+07,1,4670,4657,15.07,1.52,28,12,0,0
1.9538e+05,9.4422e+07,1,4663,4728,15.07,1.58,28,12,0,0
1.9579e+05,9.4521e+07,1,4717,4585,15.04,1.44,28,12,0,0
1.9624e+05,9.4633e+07,1,4580,4514,15.08,1.22,28,12,0,0
1.9665e+05,9.4739e+07,1,4508,4428,15.11,1.6,28,12,0,0
1.971e+05,9.4845e+07,1,4426,4342,15.07,1.15,28,12,0,0
1.9755e+05,9.496e+07,1,4349,4428,15.05,1.54,28,12,0,0
1.9796e+05,9.5062e+07,1,4432,4528,15.02,1.5,28,13,0,0
1.984e+05,9.5169e+07,1,4528,4528,15.08,1.4,28,13,0,0
1.9889e+05,9.5288e+07,1,4518,4414,15.1,1.28,28,13,0,0
1.993e+05,9.5391e+07,1,4416,4442,15.13,1.38,28,13,0,0
1.9975e+05,9.5505e+07,1,4449,4528,15.12,1.36,28,13,0,0
2.002e+05,9.561e+07,1,4522,4442,15.13,1.48,28,13,0,0
2.006e+05,9.5714e+07,1,4442,4471,15.14,1.36,28,13,0,0
2.0106e+05,9.5824e+07,1,4475,4757,15.08,2,28,13,0,0
2.0152e+05,9.594e+07,1,4755,4742,15.02,1.76,28,13,0,0
2.0193e+05,9.6043e+07,1,4741,4700,15.02,1.52,28,13,0,0
2.0238e+05,9.6152e+07,1,4697,4557,15.07,1.19,28,13,0,0
2.0331e+05,9.6374e+07,1,4550,4342,15.13,1.4,28,13,0,0
2.0372e+05,9.6483e+07,1,4357,4557,15.03,1.56,28,13,0,0
2.0417e+05,9.6592e+07,1,4564,4642,15.07,1.58,28,13,0,0
2.0462e+05,9.6703e+07,1,4639,4614,15.07,1.51,28,13,0,0
2.0506e+05,9.6808e+07,1,4615,4642,15.05,1.51,28,13,0,0
2.0551e+05,9.6918e+07,1,4639,4600,15.08,1.38,28,13,0,0
2.0596e+05,9.7025e+07,1,4598,4557,15.09,1.51,28,13,0,0
2.064e+05,9.7134e+07,1,4558,4585,15.1,1.36,28,13,0,0
2.0689e+05,9.7252e+07,1,4573,4457,15.1,1.42,28,13,0,0
2.0729e+05,9.7353e+07,1,4452,4371,15.05,1.35,28,13,0,0
2.0774e+05,9.7466e+07,1,4372,4414,15.05,1.43,28,13,0,0
2.0819e+05,9.7571e+07,1,4411,4371,15.11,1.32,28,14,0,0
2.0863e+05,9.7683e+07,1,4370,4357,15.11,1.16,28,14,0,0
2.0945e+05,9.7888e+07,1,4356,4314,15.1,1.43,28,14,0,0
2.0994e+05,9.801e+07,1,4322,4414,15.07,1.32,28,14,0,0
2.1035e+05,9.8115e+07,1,4414,4414,15.07,1.62,28,14,0,0
2.108e+05,9.8221e+07,1,4418,4714,15.04,1.81,28,14,0,0
2.1128e+05,9.8344e+07,1,4706,4642,15.04,1.68,28,14,0,0
2.1169e+05,9.8444e+07,1,4646,4714,15,1.7,28,14,0,0
2.121e+05,9.8548e+07,1,4713,4700,15.06,1.58,28,14,0,0
2.1258e+05,9.8666e+07,1,4686,4571,15.04,1.5,28,14,0,0
2.1392e+05,9.8992e+07,1,4570,4542,15.12,1.49,28,14,0,0
2.1433e+05,9.9099e+07,1,4539,4500,15.08,1.5,28,14,0,0
2.1477e+05,9.9205e+07,1,4498,4457,15.07,1.38,28,14,0,0
2.1525e+05,9.9322e+07,1,4464,4571,15.04,1.44,28,14,0,0
2.157e+05,9.9427e+07,1,4568,4542,15.08,1.49,28,14,0,0
2.1614e+05,9.9538e+07,1,4542,4542,15.09,1.49,28,14,0,0
2.1655e+05,9.9639e+07,1,4539,4485,15.11,1.48,28,14,0,0
2.1704e+05,9.976e+07,1,4493,4585,15.08,1.58,28,14,0,0
2.1744e+05,9.9858e+07,1,4584,4528,15.08,1.54,28,14,0,0
2.1789e+05,9.9971e+07,1,4536,4657,15.11,1.46,28,14,0,0
2.183e+05,1.0007e+08,1,4653,4471,15.07,1.42,28,15,0,0
2.1922e+05,1.0029e+08,1,4468,4342,15.07,1.65,28,15,0,0
2.1971e+05,1.0041e+08,1,4358,4514,15.11,1.4,28,15,0,0
2.2011e+05,1.0051e+08,1,4504,4185,15.11,1.01,28,15,0,0
2.2056e+05,1.0062e+08,1,4186,4300,15.09,1.6,28,15,0,0
2.2104e+05,1.0073e+08,1,4285,4071,15.07,0.86,28,15,0,0
2.2144e+05,1.0083e+08,1,4064,3671,15.07,1.17,28,15,0,0
2.2189e+05,1.0094e+08,1,3676,3871,15.1,1.18,28,15,0,0
2.2239e+05,1.0106e+08,1,3892,4114,15.1,1.89,28,15,0,0
2.2324e+05,1.0128e+08,1,4127,4428,15.1,1.73,28,15,0,0
2.2369e+05,1.0138e+08,1,4421,4357,15.1,1.36,28,15,0,0
2.241e+05,1.0149e+08,1,4349,4285,15.06,1.15,28,15,0,0
2.2454e+05,1.016e+08,1,4284,4271,15.07,1.44,28,15,0,0
2.2498e+05,1.017e+08,1,4275,4357,15.12,1.26,28,15,0,0
2.2543e+05,1.0181e+08,1,4358,4428,15.08,1.55,28,15,0,0
2.2592e+05,1.0193e+08,1,4420,4342,15.08,1.2,28,15,0,0
2.2637e+05,1.0204e+08,1,4323,4142,15.09,0.89,28,15,0,0
2.2677e+05,1.0214e+08,1,4135,3914,15.04,0.87,28,15,0,0
2.2722e+05,1.0225e+08,1,3919,4042,15.01,1.07,28,15,0,0
2.2767e+05,1.0237e+08,1,4027,3814,15.06,1.18,28,15,0,0
2.2812e+05,1.0247e+08,1,3809,3642,15.13,0.99,28,15,0,0
2.2856e+05,1.0258e+08,1,3646,3742,15.07,1.15,28,15,0,0
2.2898e+05,1.0269e+08,1,3745,3957,15.06,1.07,28,15,0,0
2.2947e+05,1.0281e+08,1,3951,3871,14.97,1.65,28,16,0,0
2.2986e+05,1.029e+08,1,3872,3928,15.02,1.52,28,16,0,0
2.3031e+05,1.0301e+08,1,3930,4028,15.07,1.18,28,16,0,0
2.3078e+05,1.0313e+08,1,4036,4157,15.06,1.62,28,16,0,0
2.3122e+05,1.0324e+08,1,4155,4142,15.04,1.47,28,16,0,0
2.3162e+05,1.0334e+08,1,4146,4314,15.07,1.14,28,16,0,0
2.3207e+05,1.0345e+08,1,4312,4242,15.07,1.39,28,16,0,0
2.3252e+05,1.0357e+08,1,4255,4385,15.04,1.42,28,16,0,0
2.3293e+05,1.0367e+08,1,4386,4457,15.07,1.36,28,16,0,0
2.3337e+05,1.0378e+08,1,4454,4428,15.04,1.54,28,16,0,0
2.3382e+05,1.0389e+08,1,4428,4428,14.98,1.38,28,16,0,0
2.3427e+05,1.04e+08,1,4432,4485,15.04,1.42,28,16,0,0
2.3472e+05,1.0411e+08,1,4476,4385,15.05,1.27,28,16,0,0
2.3517e+05,1.0422e+08,1,4391,4457,15.06,1.34,28,16,0,0
2.3557e+05,1.0432e+08,1,4457,4471,15.05,1.53,28,16,0,0
2.3602e+05,1.0443e+08,1,4471,4471,15.06,1.41,28,16,0,0
2.3642e+05,1.0454e+08,1,4470,4428,15.03,1.41,28,16,0,0
2.3687e+05,1.0464e+08,1,4422,4114,15.02,0.83,28,16,0,0
2.3731e+05,1.0475e+08,1,4117,4285,15.04,1.42,28,16,0,0
2.3784e+05,1.0488e+08,1,4291,4357,15.07,1.54,28,16,0,0
2.3828e+05,1.0498e+08,1,4372,4542,15.02,1.55,28,16,0,0
2.3869e+05,1.0509e+08,1,4536,4485,15.06,1.29,28,16,0,0
2.3914e+05,1.052e+08,1,4479,4400,15.1,1.32,28,16,0,0
2.3955e+05,1.053e+08,1,4404,4457,15.1,1.58,28,16,0,0
2.4e+05,1.0541e+08,1,4454,4414,15.07,1.47,28,17,0,0
2.404e+05,1.0551e+08,1,4415,4542,15.04,1.55,28,17,0,0
2.4089e+05,1.0563e+08,1,4538,4485,15.09,1.4,28,17,0,0
2.413e+05,1.0573e+08,1,4492,4628,15.05,1.74,28,17,0,0
2.4174e+05,1.0584e+08,1,4628,4671,15.04,1.58,28,17,0,0
2.4219e+05,1.0595e+08,1,4671,4685,15.05,1.9,28,17,0,0
2.4268e+05,1.0607e+08,1,4687,4714,15.01,1.7,28,17,0,0
2.4308e+05,1.0617e+08,1,4718,4800,15.05,1.67,28,17,0,0
2.4353e+05,1.0628e+08,1,4790,4671,15.07,1.33,28,17,0,0
2.4442e+05,1.065e+08,1,4653,4142,15.08,1.19,28,17,0,0
2.4487e+05,1.0661e+08,1,4152,4242,14.99,1.6,28,17,0,0
2.4531e+05,1.0672e+08,1,4253,4385,15.03,1.55,28,17,0,0
2.4576e+05,1.0683e+08,1,4395,4457,14.98,1.5,28,17,0,0
2.4616e+05,1.0693e+08,1,4464,4542,15.03,1.69,28,17,0,0
2.4661e+05,1.0704e+08,1,4551,4628,14.98,1.61,28,17,0,0
2.4702e+05,1.0715e+08,1,4620,4557,15.02,1.39,28,17,0,0
2.4747e+05,1.0725e+08,1,4557,4571,15.05,1.61,28,17,0,0
2.4832e+05,1.0746e+08,1,4570,4442,15.11,1.16,28,17,0,0
2.4876e+05,1.0757e+08,1,4439,4285,15.1,0.98,28,17,0,0
2.4924e+05,1.0769e+08,1,4274,4171,15.1,1.04,28,17,0,0
2.4965e+05,1.0779e+08,1,4170,4142,15.11,1.17,28,17,0,0
2.5012e+05,1.079e+08,1,4160,4371,15.01,2.2,28,18,0,0
2.5058e+05,1.0801e+08,1,4376,4500,15,1.73,28,18,0,0
2.5102e+05,1.0813e+08,1,4527,4771,15.04,1.79,28,18,0,0
2.5147e+05,1.0824e+08,1,4746,4500,15,1.26,28,18,0,0
2.5191e+05,1.0835e+08,1,4506,4642,15.08,1.78,28,18,0,0
2.5232e+05,1.0844e+08,1,4646,4957,15.06,2.13,28,18,0,0
2.5281e+05,1.0857e+08,1,4954,4928,15.06,1.49,28,18,0,0
2.5322e+05,1.0866e+08,1,4903,4628,15.06,1.13,28,18,0,0
2.5366e+05,1.0878e+08,1,4607,4414,15.08,0.91,28,18,0,0
2.541e+05,1.0889e+08,1,4398,4171,15,1.09,28,18,0,0
2.5455e+05,1.0899e+08,1,4172,4285,15.06,1.1,28,18,0,0
2.5499e+05,1.091e+08,1,4280,4171,15.02,1.2,28,18,0,0
2.5547e+05,1.0921e+08,1,4169,4142,15.04,1.41,28,18,0,0
2.5592e+05,1.0932e+08,1,4150,4271,15,1.47,28,18,0,0
2.5637e+05,1.0943e+08,1,4276,4357,14.98,1.45,28,18,0,0
2.5678e+05,1.0954e+08,1,4353,4285,15.04,1.32,28,18,0,0
2.5723e+05,1.0965e+08,1,4278,4214,15.05,1.19,28,18,0,0
2.5764e+05,1.0975e+08,1,4218,4271,15.04,1.31,28,18,0,0
2.5809e+05,1.0987e+08,1,4277,4414,15.06,1.47,28,18,0,0
2.5853e+05,1.0997e+08,1,4416,4457,15.05,1.36,28,18,0,0
2.5898e+05,1.1008e+08,1,4466,4571,15.09,1.4,28,18,0,0
2.5938e+05,1.1018e+08,1,4568,4428,15.04,1.36,28,18,0,0
2.5982e+05,1.103e+08,1,4428,4428,15.06,1.24,28,18,0,0
2.6076e+05,1.1052e+08,1,4431,4542,15.07,1.63,28,19,0,0
2.6161e+05,1.1073e+08,1,4539,4442,15.03,1.5,28,19,0,0
2.6206e+05,1.1085e+08,1,4440,4400,15.08,1.28,28,19,0,0
2.6295e+05,1.1106e+08,1,4400,4428,15,1.42,28,19,0,0
2.634e+05,1.1117e+08,1,4445,4628,15.11,1.95,28,19,0,0
2.6384e+05,1.1129e+08,1,4604,4357,15.14,1.12,28,19,0,0
2.6424e+05,1.1138e+08,1,4351,4157,15.11,0.83,28,19,0,0
2.6514e+05,1.1161e+08,1,4153,4057,15.08,1.62,28,19,0,0
2.656e+05,1.1172e+08,1,4063,4128,15.11,1.8,28,19,0,0
2.6605e+05,1.1183e+08,1,4158,4442,15.05,2.19,28,19,0,0
2.6644e+05,1.1193e+08,1,4449,4600,15.07,1.79,28,19,0,0
2.669e+05,1.1204e+08,1,4596,4528,15.04,1.48,28,19,0,0
2.673e+05,1.1214e+08,1,4530,4671,15.04,1.55,28,19,0,0
2.6779e+05,1.1226e+08,1,4660,4557,15.05,1.26,28,19,0,0
2.6823e+05,1.1237e+08,1,4562,4628,15.03,1.51,28,19,0,0
2.6908e+05,1.1258e+08,1,4628,4657,15.05,1.56,28,19,0,0
2.6948e+05,1.1269e+08,1,4655,4614,15.06,1.49,28,19,0,0
2.6993e+05,1.1279e+08,1,4614,4642,15.05,1.55,28,20,0,0
2.7038e+05,1.1291e+08,1,4642,4642,15.05,1.39,28,20,0,0
2.7124e+05,1.1312e+08,1,4642,4657,15.02,1.47,28,20,0,0
2.7168e+05,1.1323e+08,1,4645,4500,15.02,1.33,28,20,0,0
2.7213e+05,1.1334e+08,1,4502,4542,15.04,1.5,28,20,0,0
2.7258e+05,1.1345e+08,1,4543,4557,15.01,1.56,28,20,0,0
2.7302e+05,1.1356e+08,1,4561,4628,15,1.6,28,20,0,0
2.7343e+05,1.1367e+08,1,4639,4771,14.97,1.58,28,20,0,0
2.7388e+05,1.1377e+08,1,4765,4700,14.97,1.75,28,20,0,0
2.7432e+05,1.1388e+08,1,4712,4857,14.98,1.89,28,20,0,0
2.7477e+05,1.1399e+08,1,4853,4814,15,1.83,28,20,0,0
2.7517e+05,1.1409e+08,1,4812,4728,15.02,1.94,28,20,0,0
2.7566e+05,1.1421e+08,1,4746,4928,14.93,2.11,28,20,0,0
2.7606e+05,1.1431e+08,1,4928,4928,14.97,2.16,28,20,0,0
2.7651e+05,1.1442e+08,1,4930,5100,15.01,2.38,28,20,0,0
2.7696e+05,1.1453e+08,1,5103,5200,14.97,2.42,28,20,0,0
2.774e+05,1.1464e+08,1,5196,5157,14.92,2.3,28,20,0,0
2.7781e+05,1.1474e+08,1,5157,5157,14.96,2.38,28,21,0,0
2.783e+05,1.1486e+08,1,5165,5257,14.99,2.25,28,21,0,0
2.787e+05,1.1496e+08,1,5258,5285,14.93,2.38,28,21,0,0
2.7916e+05,1.1508e+08,1,5272,5128,15,2.24,28,21,0,0
2.7956e+05,1.1518e+08,1,5131,5200,14.95,2.36,28,21,0,0
2.8001e+05,1.1529e+08,1,5204,5314,14.93,2.54,28,21,0,0
2.8046e+05,1.154e+08,1,5319,5400,14.93,2.56,28,21,0,0
2.809e+05,1.1551e+08,1,5393,5328,15.03,2.34,28,21,0,0
2.8135e+05,1.1562e+08,1,5313,5157,14.94,2.25,28,21,0,0
2.8176e+05,1.1572e+08,1,5154,5114,14.98,2.07,28,21,0,0
2.8221e+05,1.1584e+08,1,5109,5057,14.95,2.22,28,21,0,0
2.8265e+05,1.1594e+08,1,5051,5000,14.98,1.98,28,21,0,0
2.831e+05,1.1606e+08,1,4995,4971,14.98,1.83,28,21,0,0
2.835e+05,1.1615e+08,1,4966,4871,14.94,1.77,28,21,0,0
2.8394e+05,1.1626e+08,1,4867,4785,15,1.86,28,21,0,0
2.8487e+05,1.1649e+08,1,4783,4728,14.98,1.74,28,22,0,0
2.8532e+05,1.166e+08,1,4729,4742,14.98,1.66,28,22,0,0
2.8572e+05,1.167e+08,1,4740,4700,14.97,1.63,28,22,0,0
2.8617e+05,1.1681e+08,1,4695,4600,15.02,1.31,28,22,0,0
2.8662e+05,1.1692e+08,1,4591,4400,15.07,1.32,28,22,0,0
2.8704e+05,1.1703e+08,1,4388,4228,15.11,1.04,28,22,0,0
2.8744e+05,1.1713e+08,1,4223,4128,15.1,1.66,28,22,0,0
2.8789e+05,1.1724e+08,1,4115,3957,15.15,1.58,28,22,0,0
2.8833e+05,1.1735e+08,1,3954,3928,15.04,2.24,28,22,0,0
2.8874e+05,1.1746e+08,1,3929,4028,15.08,2.03,28,22,0,0
2.8923e+05,1.1757e+08,1,4040,4214,15.11,2.08,28,22,0,0
2.8967e+05,1.1769e+08,1,4210,4171,15.06,1.46,28,22,0,0
2.9016e+05,1.178e+08,1,4186,4342,15.11,1.44,28,22,0,0
2.9056e+05,1.179e+08,1,4346,4442,15.08,1.57,28,22,0,0
2.91e+05,1.1801e+08,1,4449,4600,15.04,1.74,28,22,0,0
2.9141e+05,1.1811e+08,1,4601,4628,15.05,1.54,28,22,0,0
2.919e+05,1.1823e+08,1,4635,4714,15,1.52,28,22,0,0
2.9231e+05,1.1833e+08,1,4709,4657,15.04,1.5,28,22,0,0
2.9276e+05,1.1844e+08,1,4648,4528,15.05,1.31,28,22,0,0
2.932e+05,1.1855e+08,1,4524,4442,15.04,1.39,28,23,0,0
2.9368e+05,1.1867e+08,1,4439,4414,15.04,1.41,28,23,0,0
2.9408e+05,1.1877e+08,1,4417,4471,15.05,1.38,28,23,0,0
2.9449e+05,1.1887e+08,1,4468,4342,15.05,1.28,28,23,0,0
2.9494e+05,1.1898e+08,1,4343,4485,14.98,1.54,28,23,0,0
2.9539e+05,1.1909e+08,1,4484,4471,15.01,1.44,28,23,0,0
2.9588e+05,1.1921e+08,1,4471,4471,15.07,1.36,28,23,0,0
2.9628e+05,1.1931e+08,1,4472,4485,15.05,1.44,28,23,0,0
2.9673e+05,1.1942e+08,1,4480,4428,15.03,1.51,28,23,0,0
2.9729e+05,1.1964e+08,1,4527,4371,15.02,1.31,28,23,0,0
2.977e+05,1.1974e+08,1,4361,4285,15.03,1.24,28,23,0,0
2.9859e+05,1.1996e+08,1,4285,4300,15.05,1.36,28,23,0,0
2.9904e+05,1.2007e+08,1,4281,4157,15.05,1.24,28,23,0,0
2.9944e+05,1.2017e+08,1,4159,4271,15.05,1.27,28,23,0,0
2.9992e+05,1.2028e+08,1,4264,4114,15.06,1.21,28,23,0,0
3.0037e+05,1.2039e+08,1,4114,4128,14.97,1.95,28,23,0,0
3.0082e+05,1.2051e+08,1,4125,4085,14.94,1.83,28,23,0,0
3.0171e+05,1.2072e+08,1,4083,4028,14.93,1.78,28,23,0,0
3.026e+05,1.2094e+08,1,4043,4500,14.88,2.01,28,23,0,0
3.0304e+05,1.2105e+08,1,4526,4871,14.89,2.01,28,24,0,0
3.0341e+05,1.2114e+08,1,4873,4985,14.84,2.28,28,24,0,0
3.039e+05,1.2126e+08,1,4983,4971,14.86,2.28,28,24,0,0
3.043e+05,1.2136e+08,1,4972,5071,14.91,2.08,28,24,0,0
3.0475e+05,1.2147e+08,1,5069,5028,14.83,1.81,28,24,0,0
3.0563e+05,1.2169e+08,1,5022,4728,14.92,1.4,28,24,0,0
3.0608e+05,1.218e+08,1,4728,4757,14.98,1.78,28,24,0,0
3.0653e+05,1.2191e+08,1,4755,4685,14.97,1.6,28,24,0,0
3.0698e+05,1.2202e+08,1,4677,4585,15.05,1.46,28,24,0,0
3.0743e+05,1.2213e+08,1,4586,4614,14.98,1.75,28,24,0,0
3.0791e+05,1.2224e+08,1,4621,4714,14.97,1.91,28,24,0,0
3.0831e+05,1.2234e+08,1,4718,4871,14.98,2.16,28,24,0,0
3.0876e+05,1.2245e+08,1,4878,5028,14.98,2.16,28,24,0,0
3.0921e+05,1.2256e+08,1,5033,5100,14.97,2.04,28,24,0,0
3.0966e+05,1.2267e+08,1,5084,4914,15.01,1.74,28,24,0,0
3.1006e+05,1.2278e+08,1,4902,4742,15.01,1.6,28,24,0,0
3.1051e+05,1.2289e+08,1,4728,4628,14.99,1.52,28,24,0,0
3.1096e+05,1.23e+08,1,4620,4542,15.04,1.42,28,25,0,0
3.1136e+05,1.231e+08,1,4545,4642,14.99,1.74,28,25,0,0
3.1229e+05,1.2332e+08,1,4647,4771,14.97,1.82,28,25,0,0
3.1274e+05,1.2343e+08,1,4763,4685,15.04,1.47,28,25,0,0
3.131e+05,1.2353e+08,1,4682,4585,14.97,1.53,28,25,0,0
3.1355e+05,1.2364e+08,1,4582,4528,15.03,1.53,28,25,0,0
3.14e+05,1.2375e+08,1,4527,4514,15.01,1.57,28,25,0,0
3.1445e+05,1.2386e+08,1,4520,4657,15.01,1.59,28,25,0,0
3.149e+05,1.2397e+08,1,4654,4628,14.95,1.64,28,25,0,0
3.153e+05,1.2407e+08,1,4626,4542,15.02,1.6,28,25,0,0
3.1576e+05,1.2419e+08,1,4548,4642,15.03,1.44,28,25,0,0
3.162e+05,1.243e+08,1,4627,4485,15.08,1.35,28,25,0,0
3.1664e+05,1.244e+08,1,4485,4514,15.05,1.85,28,25,0,0
3.1709e+05,1.2451e+08,1,4515,4542,15.04,1.34,28,25,0,0
3.1754e+05,1.2463e+08,1,4540,4514,15.02,1.36,28,25,0,0
3.1798e+05,1.2474e+08,1,4499,4357,15.04,1.62,28,25,0,0
3.1843e+05,1.2484e+08,1,4357,4371,15.07,1.33,28,25,0,0
3.1888e+05,1.2496e+08,1,4364,4300,15.05,1.48,28,25,0,0
3.1933e+05,1.2506e+08,1,4299,4285,15.06,1.62,28,25,0,0
3.2018e+05,1.2528e+08,1,4295,4514,15.07,1.78,28,26,0,0
3.2064e+05,1.2539e+08,1,4435,3614,15.51,0.35,28,26,0,0
3.2104e+05,1.2549e+08,1,3574,2757,15.24,0.94,28,26,0,0
3.2153e+05,1.2561e+08,1,2701,2142,15.55,0.09,28,26,0,0
3.2194e+05,1.2571e+08,1,2121,1914,15.45,0.14,28,26,0,0
3.2234e+05,1.2581e+08,1,1912,1871,15.45,0.16,28,26,0,0
3.2279e+05,1.2593e+08,1,1866,1828,15.45,0.16,28,26,0,0
3.2328e+05,1.2604e+08,1,1829,1842,15.46,0.17,28,26,0,0
3.2368e+05,1.2615e+08,1,1840,1828,15.45,0.16,28,26,0,0
3.2413e+05,1.2625e+08,1,1828,1842,15.46,0.17,28,26,0,0
3.2458e+05,1.2637e+08,1,1840,1828,15.45,0.17,28,26,0,0
3.2498e+05,1.2647e+08,1,1828,1828,15.46,0.16,28,26,0,0
3.2543e+05,1.2658e+08,1,1828,1842,15.47,0.18,28,26,0,0
3.2587e+05,1.2669e+08,1,1843,1857,15.47,0.17,28,26,0,0
3.2628e+05,1.2679e+08,1,1855,1828,15.47,0.16,28,26,0,0
3.2673e+05,1.2691e+08,1,1830,1885,15.46,0.21,28,26,0,0
3.2718e+05,1.2701e+08,1,1884,1857,15.48,0.16,28,26,0,0
3.2766e+05,1.2712e+08,1,1858,1900,15.47,0.18,28,26,0,0
3.2811e+05,1.2723e+08,1,1900,1914,15.47,0.18,28,26,0,0
3.2859e+05,1.2734e+08,1,1916,1957,15.57,0.15,28,26,0,0
3.2904e+05,1.2745e+08,1,1929,1657,15.54,0.01,28,26,0,0
3.2948e+05,1.2756e+08,1,1644,1342,15.53,0.02,28,26,0,0
3.2997e+05,1.2767e+08,1,1339,1285,15.52,0.07,28,26,0,0
3.3041e+05,1.2778e+08,1,1283,1271,15.52,0.08,28,26,0,0
3.3131e+05,1.28e+08,1,1270,1257,15.53,0.09,28,26,0,0
3.3175e+05,1.281e+08,1,1257,1257,15.53,0.09,28,26,0,0
3.3224e+05,1.2822e+08,1,1257,1257,15.53,0.09,28,26,0,0
3.3264e+05,1.2832e+08,1,1257,1257,15.54,0.09,28,26,0,0
3.3313e+05,1.2843e+08,1,1257,1257,15.54,0.09,28,26,0,0
3.3358e+05,1.2854e+08,1,1257,1257,15.54,0.09,28,26,0,0
3.3403e+05,1.2865e+08,1,1257,1257,15.54,0.09,28,26,0,0
3.3452e+05,1.2877e+08,1,1257,1257,15.54,0.09,28,26,0,0
3.3493e+05,1.2887e+08,1,1257,1271,15.54,0.09,28,26,0,0
3.3538e+05,1.2898e+08,1,1235,514,15.57,0,28,26,0,0
3.3587e+05,1.2909e+08,1,494,214,15.56,0.01,28,26,0,0
3.3633e+05,1.292e+08,1,198,0,15.57,0.02,28,26,0,0
3.3678e+05,1.2931e+08,1,0,0,15.57,0.02,28,26,0,0
3.3723e+05,1.2942e+08,1,0,0,15.57,0.02,28,26,0,0
3.3764e+05,1.2952e+08,1,0,0,15.57,0.03,28,26,0,0
3.3814e+05,1.2963e+08,1,0,0,15.57,0.02,28,26,0,0
3.3859e+05,1.2974e+08,1,0,0,15.57,0.02,28,26,0,0
3.3904e+05,1.2985e+08,1,0,0,15.57,0.02,28,26,0,0
3.4002e+05,1.3007e+08,1,0,0,15.57,0.02,28,26,0,0
3.4092e+05,1.3029e+08,1,0,0,15.58,0.02,28,26,0,0
3.4142e+05,1.3041e+08,1,0,0,15.58,0.02,28,26,0,0
3.4187e+05,1.3052e+08,1,0,0,15.58,0.02,28,26,0,0
3.4232e+05,1.3062e+08,1,0,0,15.59,0.02,28,26,0,0
3.4278e+05,1.3073e+08,1,0,0,15.58,0.03,28,26,0,0
3.4327e+05,1.3085e+08,1,0,0,15.58,0.02,28,26,0,0
3.4373e+05,1.3095e+08,1,0,0,15.59,0.02,28,26,0,0
3.4467e+05,1.3117e+08,1,0,0,15.6,0.03,28,26,0,0
3.4512e+05,1.3128e+08,1,0,0,15.6,0.03,28,26,0,0
3.4557e+05,1.3139e+08,1,0,0,15.6,0.03,28,26,0,0
3.4602e+05,1.315e+08,1,0,0,15.6,0.03,28,26,0,0
3.4647e+05,1.316e+08,1,0,0,15.6,0.03,28,26,0,0
3.4692e+05,1.3171e+08,1,0,0,15.6,0.03,28,26,0,0
3.4737e+05,1.3182e+08,1,0,0,15.6,0.03,28,26,0,0
3.4787e+05,1.3193e+08,1,0,0,15.6,0.03,28,26,0,0
