LineNo,TimeUS,Instance,RPM,RawRPM,Volt,Curr,Temp,CTot,MotTemp,Err
1670,13372426,5,0,0,15.98,0.03,25,0,0,0
2087,13478517,5,0,0,15.98,0.03,25,0,0,0
2502,13582972,5,0,0,15.98,0.04,25,0,0,0
2955,13700701,5,0,0,15.98,0.04,25,0,0,0
3369,13805950,5,0,0,15.99,0.04,25,0,0,0
3780,13907368,5,0,0,15.99,0.04,25,0,0,0
4196,14018304,5,0,0,15.99,0.03,25,0,0,0
4610,14119971,5,0,0,15.99,0.04,25,0,0,0
5055,14231248,5,0,0,15.99,0.03,25,0,0,0
5469,14335202,5,0,0,15.98,0.03,25,0,0,0
5890,14444299,5,0,0,15.98,0.03,25,0,0,0
6344,14558102,5,0,0,15.98,0.03,25,0,0,0
6756,14662542,5,0,0,15.98,0.03,25,0,0,0
7166,14765010,5,0,0,15.98,0.03,25,0,0,0
7624,14883925,5,0,0,15.98,0.03,25,0,0,0
8037,14989576,5,0,0,15.99,0.03,25,0,0,0
8454,15093898,5,0,0,15.98,0.03,25,0,0,0
8862,15195252,5,0,0,15.98,0.03,25,0,0,0
9276,15307033,5,0,0,15.98,0.03,25,0,0,0
10140,15520802,5,0,0,15.98,0.03,25,0,0,0
10576,15628372,5,0,0,15.98,0.04,25,0,0,0
10869,15742033,5,0,0,15.99,0.03,25,0,0,0
11285,15845902,5,0,0,15.98,0.04,25,0,0,0
11700,15951308,5,0,0,15.99,0.04,25,0,0,0
12155,16063739,5,0,0,15.98,0.03,25,0,0,0
12574,16169333,5,0,0,15.99,0.04,25,0,0,0
13025,16284054,5,0,0,15.98,0.04,25,0,0,0
13435,16386258,5,0,0,15.98,0.04,25,0,0,0
13849,16490474,5,0,0,15.98,0.04,25,0,0,0
14307,16603369,5,0,0,15.98,0.03,25,0,0,0
14721,16706851,5,0,0,15.98,0.04,25,0,0,0
15132,16812748,5,0,0,15.98,0.04,25,0,0,0
15590,16928285,5,0,0,15.99,0.04,25,0,0,0
16004,17034085,5,0,0,15.98,0.03,25,0,0,0
16416,17136065,5,0,0,15.98,0.03,25,0,0,0
16868,17253053,5,0,0,15.99,0.03,25,0,0,0
17276,17355139,5,0,0,15.98,0.03,25,0,0,0
17685,17460277,5,0,0,15.98,0.03,25,0,0,0
18070,17562927,5,0,0,15.98,0.03,25,0,0,0
18553,17679476,5,0,0,15.98,0.03,25,0,0,0
18965,17784116,5,0,0,15.99,0.03,25,0,0,0
19385,17892840,5,0,0,15.98,0.03,25,0,0,0
19801,17997493,5,0,0,15.98,0.03,25,0,0,0
20252,18110847,5,0,0,15.98,0.03,25,0,0,0
20672,18218583,5,0,0,15.98,0.03,25,0,0,0
21088,18324764,5,0,0,15.98,0.03,25,0,0,0
21537,18437906,5,0,0,15.98,0.03,25,0,0,0
21955,18543284,5,0,0,15.98,0.03,25,0,0,0
22370,18649040,5,0,0,15.99,0.04,25,0,0,0
22788,18757946,5,0,0,15.99,0.04,25,0,0,0
23239,18871921,5,0,0,15.98,0.03,25,0,0,0
23647,18973523,5,0,0,15.98,0.03,25,0,0,0
24058,19076984,5,0,0,15.98,0.03,25,0,0,0
24511,19189949,5,0,0,15.98,0.03,25,0,0,0
24924,19295433,5,0,0,15.98,0.03,25,0,0,0
25375,19409971,5,0,0,15.98,0.03,25,0,0,0
25788,19519122,5,0,0,15.98,0.03,25,0,0,0
26201,19623011,5,0,0,15.98,0.03,25,0,0,0
26616,19729526,5,0,0,15.99,0.03,25,0,0,0
27068,19843460,5,0,0,15.98,0.03,25,0,0,0
27484,19946266,5,0,0,15.98,0.03,25,0,0,0
27940,20061112,5,0,0,15.99,0.04,25,0,0,0
28356,20168274,5,0,0,15.98,0.03,25,0,0,0
28774,20274099,5,0,0,15.98,0.03,25,0,0,0
29226,20386913,5,0,0,15.98,0.03,25,0,0,0
29675,20497529,5,0,0,15.99,0.04,25,0,0,0
30086,20603294,5,0,0,15.98,0.03,25,0,0,0
30500,20708036,5,0,0,15.99,0.04,25,0,0,0
30912,20813379,5,0,0,15.98,0.03,26,0,0,0
31369,20926349,5,0,0,15.98,0.04,25,0,0,0
31787,21034515,5,0,0,15.98,0.03,26,0,0,0
32205,21140761,5,0,0,15.97,0.03,26,0,0,0
32623,21244864,5,0,0,15.98,0.03,26,0,0,0
33077,21357950,5,0,0,15.98,0.03,25,0,0,0
33493,21464354,5,0,0,15.98,0.03,25,0,0,0
33914,21574879,5,0,0,15.98,0.04,25,0,0,0
34329,21680939,5,0,0,15.98,0.03,26,0,0,0
34744,21787907,5,0,0,15.98,0.03,26,0,0,0
35172,21899883,5,0,0,15.98,0.03,26,0,0,0
35582,22003018,5,0,0,15.98,0.03,25,0,0,0
36040,22118334,5,0,0,15.98,0.03,25,0,0,0
36458,22225096,5,0,0,15.98,0.03,25,0,0,0
36873,22328135,5,0,0,15.99,0.03,26,0,0,0
37285,22433025,5,0,0,15.98,0.03,25,0,0,0
37736,22547531,5,0,0,15.98,0.04,25,0,0,0
38148,22649974,5,0,0,15.99,0.04,25,0,0,0
38604,22764332,5,0,0,15.98,0.04,25,0,0,0
39024,22872843,5,0,0,15.99,0.04,26,0,0,0
39438,22979949,5,0,0,15.98,0.04,26,0,0,0
39847,23082496,5,0,0,15.98,0.04,25,0,0,0
40297,23196272,5,0,0,15.98,0.03,25,0,0,0
40716,23301356,5,0,0,15.98,0.04,25,0,0,0
41170,23414575,5,0,0,15.99,0.03,25,0,0,0
41584,23518463,5,0,0,15.98,0.03,25,0,0,0
41997,23624323,5,0,0,15.98,0.03,25,0,0,0
42454,23744272,5,0,0,15.99,0.03,26,0,0,0
42865,23847558,5,0,0,15.99,0.04,25,0,0,0
43279,23955432,5,0,0,15.99,0.04,26,0,0,0
43726,24064366,5,0,0,15.98,0.04,25,0,0,0
44173,24176278,5,0,0,15.98,0.04,26,0,0,0
44587,24280857,5,0,0,15.98,0.04,26,0,0,0
45041,24396557,5,0,0,15.98,0.04,25,0,0,0
45454,24500449,5,0,0,15.98,0.04,26,0,0,0
45861,24602772,5,0,0,15.98,0.04,25,0,0,0
46317,24715876,5,0,0,15.98,0.03,25,0,0,0
46694,24812758,5,0,0,15.98,0.03,26,0,0,0
47145,24926232,5,0,0,15.98,0.03,26,0,0,0
47555,25031090,5,0,0,15.98,0.03,26,0,0,0
47969,25136761,5,0,0,15.98,0.04,26,0,0,0
48425,25250438,5,0,0,15.99,0.04,26,0,0,0
48844,25356216,5,0,0,15.98,0.04,25,0,0,0
49292,25469341,5,0,0,15.97,0.03,26,0,0,0
49708,25574912,5,0,0,15.98,0.03,26,0,0,0
50126,25681903,5,0,0,15.99,0.03,26,0,0,0
50934,25903533,5,0,0,15.99,0.03,25,0,0,0
51351,26007988,5,0,0,15.99,0.03,25,0,0,0
51763,26114308,5,0,0,15.98,0.03,26,0,0,0
52216,26229734,5,0,0,15.98,0.04,25,0,0,0
52630,26335700,5,0,0,15.99,0.04,25,0,0,0
53043,26438336,5,0,0,15.99,0.03,25,0,0,0
53458,26544550,5,0,0,15.98,0.03,25,0,0,0
53910,26657723,5,0,0,15.99,0.03,25,0,0,0
54328,26766133,5,0,0,15.98,0.03,26,0,0,0
54746,26871358,5,0,0,15.98,0.03,25,0,0,0
55163,26977083,5,0,0,15.98,0.03,26,0,0,0
55616,27089323,5,0,0,15.98,0.03,26,0,0,0
56030,27194433,5,0,0,15.98,0.03,26,0,0,0
56173,60586073,5,0,0,15.99,0.03,25,0,0,0
56419,60648228,5,0,0,15.98,0.03,25,0,0,0
56822,60751807,5,0,0,15.98,0.04,25,0,0,0
57320,60864164,5,0,0,15.99,0.04,25,0,0,0
57772,60967270,5,0,0,15.99,0.04,26,0,0,0
58229,61070842,5,0,0,15.98,0.04,25,0,0,0
58676,61175339,5,0,0,15.98,0.04,26,0,0,0
59128,61279909,5,0,0,15.98,0.04,26,0,0,0
59631,61389857,5,0,0,15.98,0.04,26,0,0,0
60121,61498312,5,0,0,15.98,0.04,25,0,0,0
61029,61710453,5,0,0,15.99,0.04,26,0,0,0
61530,61824061,5,0,0,15.99,0.04,25,0,0,0
61950,61925949,5,0,0,15.98,0.04,25,0,0,0
62449,62037308,5,0,0,15.98,0.04,25,0,0,0
62858,62134112,5,0,0,15.99,0.04,25,0,0,0
63358,62248408,5,0,0,15.99,0.04,25,0,0,0
63811,62351928,5,0,0,15.99,0.04,26,0,0,0
64761,62569960,5,0,0,15.98,0.04,25,0,0,0
65254,62682852,5,10,128,15.98,0.03,25,0,0,0
65707,62784755,5,159,471,15.97,0.08,25,0,0,0
66161,62889564,5,495,842,15.96,0.13,26,0,0,0
66615,62990838,5,847,1171,15.97,0.13,26,0,0,0
67109,63105580,5,1175,1228,15.97,0.11,26,0,0,0
67935,63319480,5,1271,1285,15.97,0.11,26,0,0,0
68396,63425886,5,1285,1285,15.97,0.11,26,0,0,0
68858,63532381,5,1286,1300,15.97,0.11,26,0,0,0
69312,63633716,5,1300,1300,15.97,0.11,26,0,0,0
69762,63740214,5,1299,1285,15.97,0.11,26,0,0,0
70259,63851295,5,1285,1285,15.97,0.11,26,0,0,0
70717,63959264,5,1286,1300,15.96,0.09999999,26,0,0,0
71170,64060028,5,1300,1300,15.97,0.11,26,0,0,0
71619,64162491,5,1300,1300,15.96,0.11,26,0,0,0
72114,64276028,5,1300,1300,15.97,0.11,26,0,0,0
72570,64377285,5,1299,1285,15.97,0.11,26,0,0,0
73025,64486060,5,1285,1285,15.97,0.11,26,0,0,0
73525,64595982,5,1285,1285,15.96,0.11,26,0,0,0
73977,64701773,5,1285,1285,15.97,0.11,26,0,0,0
74435,64806767,5,1285,1285,15.97,0.11,26,0,0,0
74856,64912296,5,1285,1285,15.97,0.11,26,0,0,0
75351,65023733,5,1285,1285,15.97,0.11,26,0,0,0
75800,65130720,5,1285,1285,15.97,0.11,26,0,0,0
76295,65243846,5,1285,1285,15.96,0.11,26,0,0,0
76752,65351978,5,1285,1285,15.96,0.11,26,0,0,0
77204,65454951,5,1285,1285,15.96,0.09999999,26,0,0,0
77700,65572880,5,1285,1285,15.97,0.11,26,0,0,0
78155,65679870,5,1285,1285,15.97,0.11,26,0,0,0
78610,65783310,5,1285,1285,15.97,0.11,26,0,0,0
79022,65882730,5,1285,1285,15.97,0.11,26,0,0,0
79522,65996473,5,1285,1285,15.97,0.11,26,0,0,0
80473,66214913,5,1285,1285,15.96,0.11,26,0,0,0
80925,66322004,5,1285,1285,15.97,0.11,26,0,0,0
81347,66425722,5,1285,1285,15.96,0.11,26,0,0,0
81795,66531074,5,1285,1285,15.96,0.11,26,0,0,0
82296,66644907,5,1285,1285,15.97,0.11,26,0,0,0
82745,66749090,5,1285,1285,15.96,0.11,26,0,0,0
83247,66868773,5,1285,1285,15.96,0.11,26,0,0,0
83660,66960932,5,1285,1285,15.97,0.11,26,0,0,0
84156,67078339,5,1285,1285,15.97,0.11,26,0,0,0
84611,67184070,5,1297,1471,15.94,0.21,26,0,0,0
85063,67291915,5,1515,1928,15.91,0.42,26,0,0,0
85486,67398066,5,1951,2457,15.74,0.96,26,0,0,0
85978,67512349,5,2495,2871,15.73,1.17,26,0,0,0
86433,67619280,5,2932,3571,15.61,1.6,26,0,0,0
86886,67725352,5,3609,4157,15.55,1.96,26,0,0,0
87388,67843037,5,4223,4771,15.35,2.79,26,0,0,0
88295,68060350,5,4818,5785,15.26,4.35,26,1,0,0
88749,68171090,5,5805,6028,15.29,3.97,26,1,0,0
89203,68285113,5,6018,5914,15.33,3.45,26,1,0,0
89616,68382063,5,5912,5871,15.44,3.14,26,1,0,0
90066,68490310,5,5873,5971,15.39,3.47,26,1,0,0
90489,68597272,5,5971,6014,15.31,3.82,26,1,0,0
90983,68714215,5,6021,6185,15.38,4.19,26,1,0,0
91445,68821454,5,6180,6100,15.31,4.08,26,1,0,0
91892,68929322,5,6108,6271,15.35,3.8,26,1,0,0
92346,69034368,5,6270,6257,15.3,4.54,26,2,0,0
92796,69144919,5,6259,6300,15.27,4.5,26,2,0,0
93294,69261732,5,6290,6200,15.36,3.68,26,2,0,0
93741,69369883,5,6179,5971,15.39,2.95,26,2,0,0
95099,69693981,5,5964,5757,15.26,3.18,26,2,0,0
95555,69798484,5,5751,5642,15.42,3.14,26,2,0,0
96012,69914326,5,5650,5771,15.38,3.32,26,2,0,0
96465,70020106,5,5780,5957,15.36,3.31,26,3,0,0
96919,70132114,5,5948,5842,15.29,3.41,26,3,0,0
97374,70239317,5,5849,5942,15.26,3.77,27,3,0,0
97833,70353079,5,5955,6128,15.26,3.86,26,3,0,0
98288,70465566,5,6141,6257,15.21,3.99,26,3,0,0
98734,70578021,5,6257,6257,15.2,4.3,26,3,0,0
99178,70686246,5,6276,6442,15.29,4.4,26,3,0,0
99622,70797764,5,6445,6500,15.22,4.72,27,3,0,0
100476,71009881,5,6478,6100,15.35,3.56,26,4,0,0
100924,71123278,5,6088,5985,15.45,3.28,27,4,0,0
101376,71229582,5,5973,5814,15.31,3.18,27,4,0,0
101782,71335601,5,5808,5771,15.32,3.39,27,4,0,0
102600,71545767,5,5769,5657,15.33,3.5,27,4,0,0
103495,71767951,5,5658,5742,15.3,3.49,27,4,0,0
104370,71987373,5,5728,5728,15.29,3.07,27,5,0,0
104812,72096138,5,5722,5642,15.29,3.04,27,5,0,0
105665,72310237,5,5642,5757,15.3,3.4,27,5,0,0
106155,72426229,5,5772,5942,15.27,3.59,27,5,0,0
106557,72526512,5,5936,5714,15.32,3.01,27,5,0,0
107008,72637731,5,5714,5714,15.32,3.27,27,5,0,0
107408,72737855,5,5720,5885,15.34,3.36,27,5,0,0
107900,72855273,5,5880,5828,15.27,3.57,27,5,0,0
108309,72956992,5,5830,5985,15.2,3.65,27,5,0,0
108754,73065327,5,5983,5957,15.26,3.52,27,5,0,0
109205,73177274,5,5958,5985,15.3,3.3,27,6,0,0
109689,73297235,5,5998,6142,15.26,3.73,27,6,0,0
110136,73403085,5,6114,5828,15.26,3.35,27,6,0,0
110579,73512373,5,5836,5942,15.32,3.38,27,6,0,0
110990,73615277,5,5941,5928,15.24,3.14,27,6,0,0
111441,73732542,5,5926,5914,15.37,3.05,27,6,0,0
111890,73841206,5,5898,5742,15.29,3.07,27,6,0,0
112297,73946855,5,5738,5700,15.29,3.11,27,6,0,0
112749,74056258,5,5708,5800,15.24,3.13,27,6,0,0
113190,74163878,5,5798,5785,15.3,3.21,27,6,0,0
113600,74264361,5,5791,5942,15.25,3.23,27,7,0,0
114042,74372282,5,5940,5814,15.22,3.22,27,7,0,0
114486,74483532,5,5800,5614,15.26,3.2,27,7,0,0
114935,74591118,5,5618,5914,15.24,3.38,27,7,0,0
115377,74698737,5,5913,5900,15.31,3.09,27,7,0,0
115873,74817734,5,5900,5900,15.25,3.59,27,7,0,0
116274,74916929,5,5899,5885,15.22,3.33,27,7,0,0
116726,75025894,5,5885,5900,15.22,3.21,27,7,0,0
117170,75132236,5,5897,5842,15.25,3.5,27,7,0,0
117623,75242461,5,5846,5914,15.19,3.64,27,7,0,0
118030,75346201,5,5914,5928,15.19,3.54,27,8,0,0
118523,75462768,5,5933,6014,15.2,3.42,27,8,0,0
118962,75570649,5,6020,6157,15.22,3.5,27,8,0,0
119454,75691164,5,6160,6200,15.08,4.57,27,8,0,0
119820,75785976,5,6203,6400,15.11,4.73,27,8,0,0
120264,75897778,5,6406,6542,15.05,5.13,27,8,0,0
120677,76001105,5,6534,6371,15.12,3.84,27,8,0,0
121124,76115328,5,6329,5914,15.2,3.11,27,8,0,0
121576,76224270,5,5906,5700,15.16,2.97,27,9,0,0
122019,76333578,5,5701,5742,15.22,3.14,27,9,0,0
122465,76443139,5,5741,5728,15.16,3.71,27,9,0,0
122907,76551438,5,5747,6185,15.2,4.1,27,9,0,0
123362,76670275,5,6180,5928,15.16,3.37,27,9,0,0
123810,76777595,5,5932,5971,15.19,3.27,27,9,0,0
124255,76887602,5,5960,5857,15.22,3.34,27,9,0,0
124705,76995701,5,5859,5885,15.23,3.03,27,9,0,0
125602,77214909,5,5883,5857,15.2,3.33,27,9,0,0
126009,77317856,5,5854,5800,15.19,3.43,27,10,0,0
126459,77427439,5,5796,5742,15.29,2.74,27,10,0,0
126863,77529977,5,5740,5657,15.3,2.97,27,10,0,0
127796,77753857,5,5658,5700,15.29,3,27,10,0,0
128248,77867686,5,5689,5600,15.27,2.64,27,10,0,0
128699,77975965,5,5600,5600,15.22,2.76,27,10,0,0
129104,78077551,5,5600,5600,15.26,3.18,27,10,0,0
129553,78187890,5,5611,5757,15.14,3.21,27,10,0,0
129996,78297294,5,5774,5957,15.15,3.89,27,10,0,0
130406,78399519,5,5954,5842,15.13,3.64,27,10,0,0
130887,78513567,5,5853,6028,15.14,4.44,27,11,0,0
131333,78620455,5,6027,6014,15.23,3.05,27,11,0,0
131780,78732751,5,5995,5742,15.23,3.35,27,11,0,0
132231,78842758,5,5743,5757,15.18,3.07,27,11,0,0
132636,78945125,5,5744,5571,15.25,2.47,27,11,0,0
133125,79060965,5,5553,5371,15.27,2.39,27,11,0,0
133529,79164212,5,5364,5228,15.27,2.39,27,11,0,0
133979,79277613,5,5216,5100,15.3,2.09,27,11,0,0
134426,79384253,5,5093,5000,15.25,2.2,27,11,0,0
134833,79486903,5,5006,5157,15.24,2.61,27,11,0,0
135278,79592090,5,5157,5200,15.26,2.49,27,11,0,0
135726,79703383,5,5208,5328,15.17,2.79,27,11,0,0
136174,79811853,5,5332,5400,15.2,3.13,27,12,0,0
136619,79922297,5,5409,5542,15.17,2.68,27,12,0,0
137070,80031476,5,5536,5485,15.17,2.94,27,12,0,0
137473,80134755,5,5488,5571,15.25,2.98,27,12,0,0
137963,80249559,5,5571,5571,15.2,3.19,27,12,0,0
138368,80352846,5,5578,5714,15.22,3.17,27,12,0,0
138864,80473242,5,5710,5685,15.18,3.39,27,12,0,0
139309,80580901,5,5692,5771,15.11,3.51,27,12,0,0
139713,80682775,5,5769,5657,15.2,3.23,27,12,0,0
140160,80793576,5,5666,5828,15.2,3.26,27,12,0,0
141052,81007548,5,5824,5700,15.23,3.29,27,13,0,0
141490,81120125,5,5706,5771,15.22,3.14,27,13,0,0
142796,81438276,5,5770,5728,15.13,3.71,27,13,0,0
143242,81550497,5,5736,5857,15.08,3.38,27,13,0,0
143693,81660540,5,5844,5728,15.2,3.17,27,13,0,0
144102,81762931,5,5729,5857,15.1,3.91,27,13,0,0
144582,81885142,5,5858,5871,15.17,3.11,27,13,0,0
144992,81979539,5,5872,5942,15.18,3.23,27,14,0,0
145480,82101760,5,5955,6100,15.14,3.82,27,14,0,0
145890,82200754,5,6087,5957,15.13,3.39,27,14,0,0
146294,82303346,5,5955,5885,15.19,3.11,27,14,0,0
146781,82420576,5,5875,5757,15.18,3.31,27,14,0,0
147233,82534358,5,5759,5785,15.07,3.74,27,14,0,0
147679,82641443,5,5806,5985,15.13,3.87,27,14,0,0
148125,82750945,5,5998,6200,15.07,4.37,27,14,0,0
148535,82852502,5,6201,6285,15.12,4.14,27,14,0,0
148983,82961800,5,6284,6271,15.11,4.38,27,15,0,0
149432,83078355,5,6251,6085,15.16,3.69,27,15,0,0
149885,83194766,5,6085,6085,15.16,3.7,27,15,0,0
150287,83295760,5,6084,6042,15.16,3.64,28,15,0,0
150698,83400723,5,6037,5928,15.2,3.28,27,15,0,0
151156,83514818,5,5926,5914,15.11,3.39,27,15,0,0
151604,83624238,5,5902,5785,15.18,3.37,27,15,0,0
152016,83726582,5,5786,5842,15.17,3.63,28,15,0,0
152912,83953214,5,5841,5828,15.18,3.4,28,15,0,0
153360,84060465,5,5835,5942,15.14,3.42,28,16,0,0
153805,84170575,5,5926,5757,15.17,2.98,27,16,0,0
154248,84281529,5,5756,5742,15.12,4.23,28,16,0,0
154694,84390228,5,5783,6171,15.11,4.03,27,16,0,0
155131,84492719,5,6167,6085,15.1,3.83,28,16,0,0
155575,84599324,5,6082,5985,15.1,3.45,27,16,0,0
156067,84721288,5,5975,5871,15.12,3.38,28,16,0,0
156519,84832441,5,5896,6157,15.12,3.6,28,16,0,0
156923,84936285,5,6160,6214,15.05,4.04,28,16,0,0
157365,85043413,5,6211,6157,15.06,3.65,28,17,0,0
157775,85152930,5,6155,6128,15.03,4,28,17,0,0
158230,85270243,5,6134,6271,15.05,4.38,28,17,0,0
158639,85372047,5,6268,6171,15.07,4.08,28,17,0,0
159126,85490915,5,6172,6200,15.07,3.97,28,17,0,0
159569,85597009,5,6190,6014,15,4,28,17,0,0
160019,85707504,5,6031,6271,15.05,4.29,28,17,0,0
160472,85818746,5,6277,6342,15.02,4.12,28,17,0,0
160879,85923527,5,6330,6185,15.09,3.71,27,18,0,0
161284,86023220,5,6182,6071,15.05,3.87,28,18,0,0
161735,86138878,5,6079,6200,15.1,4.07,28,18,0,0
162188,86251663,5,6196,6157,15.07,3.81,28,18,0,0
162594,86354338,5,6151,6042,15.17,3.28,28,18,0,0
163091,86477232,5,6010,5842,15.14,3.05,28,18,0,0
163493,86575843,5,5840,5814,15.16,3.22,28,18,0,0
163911,86683869,5,5817,5857,15.22,3.14,28,18,0,0
164358,86793990,5,5855,5828,15.13,3.25,28,18,0,0
164801,86903082,5,5831,5914,15.14,3.36,28,19,0,0
165218,87006750,5,5914,5942,15.13,3.28,28,19,0,0
165663,87117264,5,5939,5885,15.13,3.49,28,19,0,0
166111,87223578,5,5887,5985,15.04,3.34,28,19,0,0
166566,87338741,5,5970,5828,15.14,3.41,28,19,0,0
167013,87447411,5,5839,5985,15.15,3.76,28,19,0,0
167455,87555775,5,5985,5985,15.07,3.72,28,19,0,0
167910,87666737,5,5989,6057,15.14,3.64,28,19,0,0
168347,87773955,5,6059,6100,15.04,3.93,28,19,0,0
168757,87882264,5,6114,6228,15.04,4.25,28,20,0,0
169159,87981547,5,6230,6271,15.1,4.12,28,20,0,0
169570,88087536,5,6265,6185,15.07,3.81,28,20,0,0
170063,88202932,5,6171,6042,15.1,3.69,28,20,0,0
170463,88304080,5,6035,5971,15.12,3.65,28,20,0,0
170943,88412989,5,5961,5828,15.06,3.41,28,20,0,0
171352,88517272,5,5831,5985,15.11,3.7,28,20,0,0
171798,88624372,5,5985,6000,15.1,3.87,28,20,0,0
172240,88736131,5,6003,6085,15.08,3.62,28,20,0,0
172729,88850965,5,6070,5928,15.06,3.41,28,21,0,0
173130,88955001,5,5924,5842,15.08,3.35,28,21,0,0
173618,89072253,5,5834,5771,15.13,3.14,28,21,0,0
174021,89172102,5,5771,5771,15.07,3.47,28,21,0,0
174466,89280535,5,5774,5842,15.13,3.53,28,21,0,0
174921,89391118,5,5847,5971,15.05,3.76,28,21,0,0
175367,89502063,5,5971,5971,15.14,3.26,28,21,0,0
175821,89612743,5,5968,5942,15.07,3.67,28,21,0,0
176228,89715381,5,5939,5900,15.07,3.61,28,21,0,0
176676,89822882,5,5899,5885,15.11,3.6,28,21,0,0
177127,89939944,5,5894,5985,15.02,3.75,28,22,0,0
177576,90045332,5,5982,5942,15.11,3.44,28,22,0,0
178026,90158995,5,5930,5814,15.1,3.76,28,22,0,0
178432,90258518,5,5816,5928,15.12,3.56,28,22,0,0
178879,90370210,5,5930,5957,15.06,3.55,28,22,0,0
179284,90475247,5,5957,6000,15.11,3.59,28,22,0,0
179768,90586239,5,5989,5857,15.14,3.4,28,22,0,0
180180,90691255,5,5856,5842,15.1,3.31,28,22,0,0
180616,90794207,5,5843,5914,15.08,3.56,28,22,0,0
181077,90910034,5,5914,5928,15.13,3.45,28,23,0,0
181524,91017523,5,5927,5914,15.05,3.4,28,23,0,0
181973,91128846,5,5913,5885,15.13,3.51,28,23,0,0
182463,91244342,5,5885,5885,15.11,3.16,28,23,0,0
182874,91348509,5,5881,5785,15.05,3.32,28,23,0,0
183360,91463512,5,5785,5785,15.08,3.33,28,23,0,0
183765,91562871,5,5806,6100,15.04,3.94,28,23,0,0
184177,91665855,5,6104,6200,15.03,4.02,28,23,0,0
184588,91773569,5,6200,6214,14.97,4.18,28,23,0,0
185033,91883228,5,6210,6114,15.04,3.97,28,24,0,0
185524,91998961,5,6123,6228,15.02,4.13,28,24,0,0
185931,92101886,5,6216,6071,14.99,3.65,28,24,0,0
186383,92211393,5,6079,6157,15.11,3.39,28,24,0,0
186862,92323365,5,6140,5957,15.13,3.38,28,24,0,0
187310,92429992,5,5947,5828,15.13,3.21,28,24,0,0
187722,92535897,5,5833,5885,15.05,3.42,28,24,0,0
188169,92642331,5,5883,5857,15.05,3.4,28,24,0,0
188609,92746899,5,5856,5828,15.03,3.9,28,24,0,0
189060,92858279,5,5830,5857,15.1,3.34,28,25,0,0
189465,92963090,5,5857,5871,15.06,3.08,28,25,0,0
189912,93074352,5,5869,5757,15.11,2.95,28,25,0,0
190364,93183059,5,5745,5600,15.04,3.03,28,25,0,0
190805,93292886,5,5607,5757,15.08,3.47,28,25,0,0
191257,93403274,5,5769,6042,15.04,3.67,28,25,0,0
191699,93508551,5,6040,6000,15.05,3.7,28,25,0,0
192150,93615731,5,5999,5985,15.04,3.47,28,25,0,0
192603,93731240,5,5976,5885,15.06,3.08,28,25,0,0
193051,93839425,5,5887,5914,15.08,3.49,28,25,0,0
193456,93943365,5,5916,5971,15.07,3.65,28,26,0,0
193906,94051290,5,5974,6028,15.1,3.64,28,26,0,0
194359,94166861,5,6023,5971,15.08,3.89,28,26,0,0
194770,94273992,5,5994,6185,15.05,3.77,28,26,0,0
195210,94379746,5,6172,6028,14.99,3.82,28,26,0,0
195655,94486441,5,6042,6185,15.01,3.65,28,26,0,0
196106,94600112,5,6172,6042,15.02,3.78,28,26,0,0
196517,94707950,5,6043,6057,15.07,3.66,28,26,0,0
196967,94813007,5,6058,6185,14.98,3.88,28,26,0,0
197416,94926110,5,6192,6285,15.03,4.15,28,26,0,0
197865,95038479,5,6290,6342,15.02,4.08,28,27,0,0
198274,95135893,5,6336,6214,15.1,3.9,28,27,0,0
198720,95246564,5,6203,6071,15.07,3.63,28,27,0,0
199166,95359917,5,6052,5857,15.08,3.3,28,27,0,0
199576,95457324,5,5857,5914,15.13,3.27,28,27,0,0
200066,95579684,5,5911,5871,15.14,3.42,28,27,0,0
200472,95678610,5,5867,5742,15.05,3.15,28,27,0,0
200925,95792270,5,5748,5842,15.05,3.59,28,27,0,0
201385,95907135,5,5857,6014,15,3.8,28,27,0,0
203126,96332565,5,6011,5742,15.01,3.38,28,28,0,0
203578,96440846,5,5744,5800,15.04,3.53,28,28,0,0
204922,96776859,5,5804,5942,15.01,3.61,28,28,0,0
205324,96875207,5,5939,5842,15.04,3.34,28,28,0,0
205823,96995065,5,5845,5885,15.1,3.23,28,29,0,0
206266,97103318,5,5877,5800,15.08,3.33,28,29,0,0
206710,97210378,5,5793,5700,15.14,2.96,28,29,0,0
207155,97320874,5,5715,5871,15.06,3.35,28,29,0,0
207563,97422722,5,5869,5757,14.99,3.35,28,29,0,0
208043,97536463,5,5773,6100,15.04,3.56,28,29,0,0
208452,97639903,5,6093,5871,15.02,3.63,28,29,0,0
208905,97752985,5,5862,5757,15.08,3.18,29,29,0,0
209313,97855452,5,5762,5871,15,3.39,28,29,0,0
209762,97968569,5,5872,5914,15.08,3.4,28,29,0,0
210214,98082891,5,5913,5900,15.04,3.36,28,30,0,0
210659,98189314,5,5898,5885,14.98,3.64,28,30,0,0
211107,98300477,5,5886,5900,14.96,3.34,28,30,0,0
211558,98413891,5,5891,5800,15.01,3.31,28,30,0,0
211964,98517915,5,5805,5928,15.02,3.49,28,30,0,0
212449,98629849,5,5918,5828,14.98,3.45,28,30,0,0
212849,98731848,5,5828,5842,15.04,3.68,28,30,0,0
213300,98841797,5,5843,5928,15.01,3.53,28,30,0,0
213740,98949934,5,5928,5942,15,3.66,29,30,0,0
214192,99059104,5,5940,5914,15.07,3.56,28,31,0,0
215122,99285496,5,5909,5828,15.06,3.4,28,31,0,0
215523,99384325,5,5832,5928,15.07,3.36,29,31,0,0
215973,99498291,5,5912,5742,15.1,3.15,28,31,0,0
216417,99602843,5,5728,5528,15.04,2.83,29,31,0,0
216864,99715563,5,5535,5614,15.08,2.89,28,31,0,0
217309,99821478,5,5599,5400,15.02,2.89,28,31,0,0
217755,99932875,5,5405,5528,15.05,2.87,28,31,0,0
218211,100042919,5,5519,5400,15.06,2.46,28,31,0,0
218613,100145381,5,5397,5328,15.12,2.54,28,31,0,0
219091,100253886,5,5323,5242,15.08,2.55,29,32,0,0
219535,100365004,5,5254,5442,15.06,2.91,28,32,0,0
219979,100473722,5,5440,5371,15.11,2.53,28,32,0,0
220428,100581992,5,5375,5471,15.1,2.83,28,32,0,0
220876,100688900,5,5473,5628,15,3.27,28,32,0,0
221358,100807566,5,5651,5885,15.1,3.64,28,32,0,0
221762,100905364,5,5881,5814,15.14,3.25,28,32,0,0
222251,101028223,5,5780,5500,15.07,2.64,29,32,0,0
222664,101130316,5,5498,5485,15.05,2.94,29,32,0,0
223111,101239085,5,5498,5614,15.07,3.03,29,32,0,0
223558,101352163,5,5579,5271,15.13,2.38,29,32,0,0
224412,101563938,5,5272,5342,15.08,2.67,29,33,0,0
224857,101670074,5,5350,5557,15.06,3.03,29,33,0,0
225344,101789971,5,5567,5685,15.02,3.21,28,33,0,0
225744,101885852,5,5686,5800,15.07,3.23,28,33,0,0
226637,102103937,5,5801,5942,15.12,3.55,29,33,0,0
227537,102333964,5,5940,5914,15.1,3.41,28,33,0,0
227982,102441138,5,5900,5728,15.11,3.06,28,33,0,0
228429,102551920,5,5741,5857,15.07,3.4,29,33,0,0
228884,102662310,5,5864,5942,15.07,3.52,29,34,0,0
229287,102764435,5,5942,6014,15.02,3.83,28,34,0,0
229772,102883590,5,6019,6071,15.05,3.89,29,34,0,0
230177,102982228,5,6061,5871,15,3.44,29,34,0,0
230632,103095732,5,5884,6028,14.98,3.68,29,34,0,0
231040,103197491,5,6022,5900,15,3.61,29,34,0,0
231934,103420292,5,5907,6100,15.06,3.51,28,34,0,0
232336,103522964,5,6100,6100,15.05,3.66,28,35,0,0
232791,103637059,5,6094,6014,15.08,3.52,29,35,0,0
233191,103737582,5,6013,5957,15.05,3.66,28,35,0,0
233680,103854123,5,5966,6057,15,3.53,28,35,0,0
234084,103955533,5,6057,6071,14.97,3.78,28,35,0,0
234537,104067331,5,6068,6014,15.01,3.31,28,35,0,0
234981,104175798,5,6014,6028,15.01,4.2,28,35,0,0
235431,104292428,5,6041,6171,15.07,3.7,28,35,0,0
235876,104399463,5,6178,6257,14.96,3.99,28,35,0,0
236282,104504998,5,6251,6200,14.97,3.85,28,35,0,0
236729,104612023,5,6191,5985,15.04,3.22,28,36,0,0
237174,104722539,5,5981,5900,15.02,3.47,29,36,0,0
237658,104833993,5,5907,6028,14.97,4.01,29,36,0,0
238099,104941032,5,6029,6057,14.98,3.59,28,36,0,0
238555,105053975,5,6051,6000,15.03,3.33,29,36,0,0
238953,105154461,5,5996,5914,15.07,3.21,29,36,0,0
239404,105263128,5,5911,5814,14.98,3.41,29,36,0,0
239818,105370333,5,5808,5700,15.02,3.2,29,36,0,0
240306,105490222,5,5721,5971,15.02,3.31,29,36,0,0
240709,105587998,5,5955,5657,15,3.11,29,36,0,0
241154,105698738,5,5664,5814,15.03,3.28,29,37,0,0
241605,105810978,5,5820,5900,15.03,3.53,28,37,0,0
242049,105920877,5,5901,5928,15,3.5,29,37,0,0
242497,106027364,5,5932,6028,15,3.39,29,37,0,0
242942,106138086,5,6034,6171,14.97,3.66,29,37,0,0
243400,106251123,5,6167,6085,15.01,3.57,29,37,0,0
244247,106460905,5,6082,5771,15.09,3.33,29,37,0,0
244691,106568296,5,5778,5942,14.94,3.91,29,37,0,0
245142,106682289,5,5958,6100,14.97,3.88,29,38,0,0
245579,106781972,5,6102,6157,14.91,4.03,29,38,0,0
246030,106899003,5,6153,6100,14.98,3.87,28,38,0,0
246432,106993919,5,6098,6071,15.01,3.67,29,38,0,0
246885,107110112,5,6071,6071,15.02,3.25,29,38,0,0
247333,107219131,5,6063,5985,15.06,3.66,29,38,0,0
247730,107316246,5,5982,5928,15.04,3.8,28,38,0,0
248179,107424553,5,5935,6042,14.99,3.56,29,38,0,0
248623,107536583,5,6025,5814,15.08,2.92,29,38,0,0
249071,107646226,5,5810,5557,15.13,2.75,28,39,0,0
249515,107756989,5,5558,5600,15.06,3.07,28,39,0,0
249963,107865568,5,5605,5714,15.02,3.29,29,39,0,0
250442,107980921,5,5729,5885,14.94,3.49,28,39,0,0
251292,108190272,5,5884,5871,15,3.43,29,39,0,0
251740,108303576,5,5870,5857,14.98,3.09,28,39,0,0
252189,108411009,5,5844,5571,14.99,2.51,29,39,0,0
252637,108523220,5,5576,5657,15.01,3.05,29,39,0,0
253082,108629949,5,5660,5714,15,3.31,29,39,0,0
253527,108740069,5,5720,5814,15.05,3.61,29,40,0,0
253975,108847896,5,5823,5928,15.05,3.72,29,40,0,0
254420,108959471,5,5949,6157,14.95,4.12,28,40,0,0
254869,109064730,5,6151,6071,14.9,3.72,29,40,0,0
255310,109174556,5,6072,6114,14.99,3.78,29,40,0,0
255748,109280128,5,6115,6185,14.98,4.08,28,40,0,0
256234,109397123,5,6182,6157,14.98,3.84,29,40,0,0
257099,109612212,5,6156,6142,15.01,3.4,29,40,0,0
257504,109717861,5,6139,6114,15.02,3.56,29,40,0,0
257952,109826928,5,6113,6100,14.98,3.64,29,41,0,0
258394,109934030,5,6091,5914,15.01,3.66,29,41,0,0
258847,110045022,5,5916,5957,14.99,3.49,28,41,0,0
259288,110157532,5,5938,5728,15.02,2.91,29,41,0,0
259697,110261993,5,5729,5828,15.05,3.3,29,41,0,0
260220,110386581,5,5831,5857,15,3.59,29,41,0,0
260627,110486435,5,5876,6057,15.01,3.49,29,41,0,0
261080,110605474,5,6051,6000,15.01,3.28,29,41,0,0
261477,110703267,5,5983,5814,15.02,3.25,28,41,0,0
261924,110811213,5,5820,5942,15.05,3.34,29,42,0,0
262368,110922075,5,5932,5800,15.05,2.97,29,42,0,0
262811,111027246,5,5796,5757,14.98,3.37,29,42,0,0
263218,111130266,5,5763,6042,14.98,3.73,29,42,0,0
263710,111248972,5,6014,5742,15.11,2.82,29,42,0,0
264109,111351769,5,5735,5657,15.05,3.11,29,42,0,0
264560,111460735,5,5648,5485,15.1,3.09,29,42,0,0
265007,111573650,5,5480,5442,15.01,2.56,29,42,0,0
265460,111689030,5,5442,5457,15,2.84,29,42,0,0
265864,111789884,5,5457,5457,15.07,3.04,29,42,0,0
266308,111900876,5,5462,5542,14.98,2.93,29,42,0,0
266758,112007736,5,5542,5557,15.03,2.77,29,43,0,0
267652,112231478,5,5559,5614,15.07,3.06,29,43,0,0
268041,112324363,5,5616,5714,15.01,3.22,29,43,0,0
268537,112446239,5,5704,5600,14.93,3.37,29,43,0,0
268942,112550717,5,5613,5800,15,3.51,29,43,0,0
269398,112666334,5,5816,5928,14.97,3.48,29,43,0,0
269797,112762373,5,5935,6128,14.94,3.73,29,43,0,0
270242,112869483,5,6124,6057,14.9,3.64,29,43,0,0
270651,112974035,5,6048,5842,15.08,3.25,29,43,0,0
271097,113088323,5,5844,5871,14.96,3.63,29,44,0,0
271501,113187474,5,5872,5957,15,3.5,29,44,0,0
271989,113306120,5,5951,5714,15.01,3.11,29,44,0,0
272399,113409866,5,5716,5828,14.98,3.71,29,44,0,0
272877,113521864,5,5835,5928,14.93,3.82,29,44,0,0
273326,113631041,5,5935,6028,14.97,3.89,29,44,0,0
273741,113741216,5,6044,6214,15.04,3.85,29,44,0,0
274189,113850131,5,6201,6085,15,3.87,29,44,0,0
275083,114071513,5,6082,6042,14.98,3.95,29,45,0,0
275484,114166721,5,6042,6042,14.95,4.08,29,45,0,0
276330,114379907,5,6042,6085,14.99,3.97,29,45,0,0
276820,114500491,5,6079,6028,14.95,3.86,29,45,0,0
277266,114608939,5,6033,6085,14.98,4.08,29,45,0,0
277670,114712900,5,6083,6057,14.91,3.75,29,45,0,0
278115,114819546,5,6050,5971,14.94,3.57,29,45,0,0
278564,114931774,5,5965,5914,14.99,3.42,29,46,0,0
278971,115030555,5,5910,5757,15.02,3.36,29,46,0,0
279422,115146000,5,5757,5757,14.91,3.37,29,46,0,0
279872,115258205,5,5767,5857,14.91,3.63,29,46,0,0
280319,115369333,5,5859,5885,14.97,3.58,29,46,0,0
281171,115582087,5,5885,5885,14.95,3.57,29,46,0,0
281572,115682853,5,5886,5928,14.94,3.27,29,46,0,0
282068,115803948,5,5930,5957,14.97,3.58,29,46,0,0
282463,115900534,5,5958,6000,14.91,3.88,29,46,0,0
282917,116012279,5,5994,5885,14.94,3.83,29,47,0,0
283358,116121289,5,5891,5971,14.97,3.87,29,47,0,0
283803,116228228,5,5978,6071,14.91,3.96,29,47,0,0
284252,116342960,5,6071,6071,14.94,3.84,29,47,0,0
284701,116450759,5,6069,6057,14.97,3.74,29,47,0,0
285138,116553060,5,6054,6000,14.92,4.01,29,47,0,0
285585,116663358,5,6002,6057,14.94,3.67,29,47,0,0
286033,116777011,5,6046,5900,14.99,3.51,29,47,0,0
286479,116887759,5,5900,5900,15.07,3.18,29,47,0,0
286851,116986317,5,5893,5628,15.11,2.82,29,48,0,0
287304,117100936,5,5625,5585,15.07,2.77,29,48,0,0
287751,117209103,5,5561,5242,15.17,2.13,29,48,0,0
288151,117312409,5,5235,5100,15.13,2.55,29,48,0,0
288604,117425070,5,5098,5071,15.08,2.49,29,48,0,0
289040,117528489,5,5068,4971,15.08,2.39,29,48,0,0
289536,117648462,5,4971,4971,15.12,2.13,29,48,0,0
289979,117756934,5,4973,5014,15.05,2.52,29,48,0,0
290421,117868353,5,5016,5071,14.98,2.57,29,48,0,0
290868,117974558,5,5072,5085,15.01,2.36,29,48,0,0
291270,118076905,5,5101,5385,14.99,3.16,29,48,0,0
291725,118188277,5,5388,5442,14.98,2.95,29,48,0,0
292173,118300980,5,5428,5285,15.06,2.46,29,48,0,0
293062,118518230,5,5285,5314,15.04,2.44,29,49,0,0
293509,118626935,5,5307,5214,15.02,2.72,29,49,0,0
293953,118736974,5,5215,5242,15.03,2.43,29,49,0,0
294400,118845001,5,5239,5200,15.07,2.54,29,49,0,0
294806,118947566,5,5207,5357,15,2.76,29,49,0,0
295256,119056278,5,5362,5471,15,3.1,29,49,0,0
295702,119165754,5,5472,5500,15.03,2.81,29,49,0,0
296106,119267315,5,5498,5400,15.01,2.86,29,49,0,0
296555,119376004,5,5400,5457,15.01,2.97,29,49,0,0
297045,119496216,5,5468,5585,15.01,3.01,29,49,0,0
297566,119705474,5,5758,5585,15,2.96,29,50,0,0
298016,119815116,5,5579,5514,15.07,2.84,29,50,0,0
298416,119914890,5,5505,5328,15.03,2.79,29,50,0,0
299355,120143993,5,5335,5500,15.01,2.99,29,50,0,0
299804,120253009,5,5511,5628,15.07,2.97,29,50,0,0
300246,120358921,5,5620,5514,15.03,3.16,29,50,0,0
300691,120470444,5,5505,5400,14.91,3.17,29,50,0,0
301140,120578271,5,5409,5500,15.09,2.7,29,50,0,0
301614,120693115,5,5489,5414,15.01,2.73,29,50,0,0
302024,120792302,5,5414,5414,15.04,2.88,29,50,0,0
302467,120904722,5,5414,5414,14.97,2.87,29,51,0,0
302872,121004064,5,5421,5571,14.89,3.51,29,51,0,0
303317,121114985,5,5595,5900,14.84,4.05,29,51,0,0
303722,121214800,5,5906,6142,14.82,4.4,29,51,0,0
304169,121327839,5,6148,6242,14.82,4.4,29,51,0,0
304620,121433885,5,6234,6042,14.89,4.08,29,51,0,0
305065,121546513,5,6049,6171,14.85,4.16,29,51,0,0
305550,121664360,5,6179,6242,14.93,3.93,29,51,0,0
305950,121763304,5,6236,6171,14.96,3.59,29,51,0,0
306398,121875891,5,6155,5985,15.04,3.61,29,52,0,0
306852,121983866,5,5981,5914,15.01,3.16,29,52,0,0
307296,122093484,5,5917,5971,14.95,3.29,29,52,0,0
307775,122205875,5,5962,5871,14.97,3.16,29,52,0,0
308218,122318909,5,5871,5871,15,3.19,29,52,0,0
308670,122427251,5,5855,5757,14.97,3.57,29,52,0,0
309525,122634410,5,5762,5871,14.95,3.46,29,52,0,0
309928,122742535,5,5874,5914,15.02,3.51,29,52,0,0
310378,122850865,5,5915,5942,15.02,3.17,29,53,0,0
310826,122962529,5,5931,5828,14.94,3.28,29,53,0,0
311231,123058223,5,5828,5857,15,3.6,29,53,0,0
311676,123171998,5,5855,5828,14.98,3.48,29,53,0,0
312155,123292863,5,5849,6042,14.96,3.45,29,53,0,0
312562,123388234,5,6039,5985,15.04,3.44,29,53,0,0
313016,123505531,5,5990,6071,14.99,3.45,29,53,0,0
313423,123606895,5,6049,5828,15,3.38,29,53,0,0
313867,123716922,5,5834,5914,15,3.19,29,53,0,0
314360,123835963,5,5917,5957,14.99,3.4,29,53,0,0
314724,123926922,5,5955,5885,15.05,3.42,29,54,0,0
315212,124049076,5,5887,5914,15,3.14,29,54,0,0
315621,124152523,5,5906,5814,15.01,3.3,29,54,0,0
316512,124371944,5,5811,5742,15.07,3.09,29,54,0,0
316952,124481860,5,5746,5828,15.04,2.91,29,54,0,0
317405,124593106,5,5814,5628,15.05,3.01,29,54,0,0
317805,124694122,5,5630,5742,14.98,3.08,29,54,0,0
318255,124801132,5,5742,5771,15.04,3.2,29,54,0,0
318701,124915924,5,5766,5714,14.98,3.46,29,54,0,0
319146,125021544,5,5719,5828,15.1,3.25,29,55,0,0
319597,125134080,5,5831,5914,14.98,3.28,29,55,0,0
320047,125244079,5,5898,5742,15.05,2.77,29,55,0,0
320452,125348989,5,5696,5114,15.36,1.08,29,55,0,0
320864,125451457,5,5089,3714,15.25,0.72,29,55,0,0
321346,125565915,5,3696,3457,15.48,0.42,29,55,0,0
321795,125680339,5,3404,2814,15.5,0.18,29,55,0,0
322202,125782298,5,2810,2742,15.47,0.39,29,55,0,0
323096,126000456,5,2739,2657,15.44,0.43,29,55,0,0
323540,126112374,5,2659,2685,15.47,0.4,29,55,0,0
323944,126210744,5,2684,2657,15.45,0.38,29,55,0,0
324394,126327220,5,2656,2642,15.46,0.38,29,55,0,0
324803,126428110,5,2642,2657,15.46,0.38,29,55,0,0
325288,126548857,5,2656,2642,15.47,0.38,29,55,0,0
325738,126660365,5,2643,2657,15.47,0.4,29,55,0,0
326141,126760889,5,2655,2642,15.48,0.35,29,55,0,0
326590,126873490,5,2644,2671,15.48,0.38,29,55,0,0
327041,126978849,5,2673,2742,15.47,0.46,29,55,0,0
327519,127090066,5,2744,2785,15.48,0.44,29,55,0,0
327972,127199315,5,2786,2814,15.48,0.43,28,55,0,0
328410,127303121,5,2812,2785,15.5,0.42,29,55,0,0
328861,127409558,5,2774,2057,15.56,0.02,29,55,0,0
329350,127526002,5,2020,1500,15.55,0,28,55,0,0
329753,127625455,5,1496,1300,15.54,0.06,28,55,0,0
330277,127744497,5,1298,1271,15.55,0.09,29,55,0,0
330690,127846081,5,1270,1257,15.54,0.09,28,55,0,0
331177,127960774,5,1257,1257,15.54,0.09,28,55,0,0
331624,128068974,5,1257,1257,15.54,0.09,28,55,0,0
332067,128174689,5,1257,1257,15.54,0.09,28,55,0,0
332515,128284315,5,1257,1257,15.55,0.09,28,55,0,0
333006,128398769,5,1257,1257,15.55,0.09,28,55,0,0
333447,128505895,5,1257,1257,15.55,0.09,28,55,0,0
333898,128614723,5,1257,1257,15.55,0.09,28,55,0,0
334339,128720527,5,1257,1257,15.55,0.09,28,55,0,0
334831,128843265,5,1257,1257,15.57,0.09,28,55,0,0
335249,128945512,5,1214,828,15.58,0.02,28,55,0,0
336641,129280123,5,799,0,15.58,0.02,28,55,0,0
337097,129386894,5,0,0,15.58,0.02,28,55,0,0
337506,129487210,5,0,0,15.58,0.02,28,55,0,0
337957,129590491,5,0,0,15.59,0.02,28,55,0,0
338448,129707470,5,0,0,15.59,0.02,28,55,0,0
338899,129813512,5,0,0,15.6,0.03,28,55,0,0
339352,129920353,5,0,0,15.6,0.02,28,55,0,0
339847,130036283,5,0,0,15.59,0.02,28,55,0,0
340301,130147396,5,0,0,15.59,0.02,28,55,0,0
340751,130252208,5,0,0,15.6,0.02,28,55,0,0
341693,130476011,5,0,0,15.6,0.02,28,55,0,0
342189,130590112,5,0,0,15.6,0.02,28,55,0,0
342642,130700544,5,0,0,15.6,0.02,28,55,0,0
343093,130804272,5,0,0,15.61,0.02,28,55,0,0
343548,130912248,5,0,0,15.61,0.02,28,55,0,0
344045,131027978,5,0,0,15.61,0.02,28,55,0,0
344489,131131266,5,0,0,15.61,0.02,28,55,0,0
345434,131355088,5,0,0,15.61,0.02,28,55,0,0
345890,131464313,5,0,0,15.62,0.02,28,55,0,0
346338,131570533,5,0,0,15.61,0.02,28,55,0,0
346788,131677040,5,0,0,15.62,0.02,28,55,0,0
347239,131782489,5,0,0,15.61,0.02,28,55,0,0
347692,131890985,5,0,0,15.62,0.02,28,55,0,0
348147,131996230,5,0,0,15.62,0.02,28,55,0,0
