LineNo,TimeUS,Instance,RPM,RawRPM,Volt,Curr,Temp,CTot,MotTemp,Err
1882,13423872,2,0,0,15.77,0.02,28,0,0,0
2296,13529491,2,0,0,15.77,0.02,28,0,0,0
2752,13645954,2,0,0,15.77,0.02,28,0,0,0
3164,13752117,2,0,0,15.77,0.02,28,0,0,0
3581,13856914,2,0,0,15.77,0.02,28,0,0,0
3993,13962080,2,0,0,15.77,0.02,28,0,0,0
4408,14069005,2,0,0,15.77,0.02,28,0,0,0
4855,14180281,2,0,0,15.76,0.02,28,0,0,0
5265,14282964,2,0,0,15.77,0.02,28,0,0,0
5721,14402535,2,0,0,15.77,0.02,28,0,0,0
6097,14497879,2,0,0,15.77,0.02,28,0,0,0
6546,14611454,2,0,0,15.77,0.02,28,0,0,0
6958,14712774,2,0,0,15.77,0.02,28,0,0,0
7370,14820536,2,0,0,15.77,0.02,28,0,0,0
7826,14934568,2,0,0,15.77,0.02,28,0,0,0
8242,15042562,2,0,0,15.77,0.02,28,0,0,0
8654,15144800,2,0,0,15.77,0.03,28,0,0,0
9066,15251219,2,0,0,15.77,0.03,28,0,0,0
9482,15358134,2,0,0,15.77,0.02,28,0,0,0
9936,15468977,2,0,0,15.77,0.02,28,0,0,0
10345,15571844,2,0,0,15.77,0.02,28,0,0,0
11078,15794462,2,0,0,15.77,0.02,28,0,0,0
11495,15896550,2,0,0,15.77,0.02,28,0,0,0
11908,16001700,2,0,0,15.77,0.02,28,0,0,0
12366,16115687,2,0,0,15.77,0.02,28,0,0,0
12782,16220568,2,0,0,15.77,0.02,28,0,0,0
13232,16333732,2,0,0,15.77,0.02,28,0,0,0
13640,16438474,2,0,0,15.77,0.02,28,0,0,0
14098,16551919,2,0,0,15.77,0.02,28,0,0,0
14509,16654346,2,0,0,15.77,0.02,28,0,0,0
14923,16761506,2,0,0,15.77,0.02,28,0,0,0
15341,16867538,2,0,0,15.77,0.02,28,0,0,0
15755,16972073,2,0,0,15.77,0.02,28,0,0,0
16204,17085244,2,0,0,15.77,0.02,28,0,0,0
16617,17189401,2,0,0,15.77,0.02,28,0,0,0
17071,17304429,2,0,0,15.77,0.02,28,0,0,0
17480,17408725,2,0,0,15.77,0.02,28,0,0,0
17888,17511235,2,0,0,15.77,0.02,28,0,0,0
18319,17624423,2,0,0,15.77,0.02,28,0,0,0
18764,17732630,2,0,0,15.77,0.02,28,0,0,0
19173,17835097,2,0,0,15.77,0.02,28,0,0,0
19593,17943485,2,0,0,15.77,0.02,28,0,0,0
20051,18058512,2,0,0,15.77,0.02,28,0,0,0
20464,18164465,2,0,0,15.77,0.02,28,0,0,0
20883,18270296,2,0,0,15.77,0.02,28,0,0,0
21297,18375882,2,0,0,15.77,0.02,28,0,0,0
21747,18490035,2,0,0,15.77,0.02,28,0,0,0
22161,18594518,2,0,0,15.77,0.02,28,0,0,0
22989,18809955,2,0,0,15.78,0.02,28,0,0,0
23847,19024248,2,0,0,15.78,0.02,28,0,0,0
24300,19138983,2,0,0,15.77,0.02,28,0,0,0
24713,19243101,2,0,0,15.77,0.02,28,0,0,0
25125,19348863,2,0,0,15.78,0.03,28,0,0,0
25581,19462913,2,0,0,15.77,0.02,28,0,0,0
25993,19570362,2,0,0,15.77,0.02,28,0,0,0
26409,19674116,2,0,0,15.77,0.02,28,0,0,0
26824,19780736,2,0,0,15.77,0.02,28,0,0,0
27280,19894450,2,0,0,15.78,0.02,28,0,0,0
27734,20008976,2,0,0,15.77,0.02,28,0,0,0
28148,20112932,2,0,0,15.77,0.02,28,0,0,0
28566,20219925,2,0,0,15.77,0.02,28,0,0,0
29025,20335107,2,0,0,15.77,0.02,28,0,0,0
29434,20436933,2,0,0,15.77,0.02,28,0,0,0
29883,20547940,2,0,0,15.77,0.02,28,0,0,0
30295,20657116,2,0,0,15.77,0.02,28,0,0,0
30747,20772393,2,0,0,15.77,0.02,28,0,0,0
31159,20875122,2,0,0,15.77,0.02,28,0,0,0
31578,20982971,2,0,0,15.77,0.02,28,0,0,0
31996,21089971,2,0,0,15.77,0.02,28,0,0,0
32407,21192248,2,0,0,15.77,0.02,28,0,0,0
32869,21306883,2,0,0,15.78,0.02,28,0,0,0
33284,21412463,2,0,0,15.77,0.02,28,0,0,0
33705,21522486,2,0,0,15.77,0.02,28,0,0,0
34118,21629536,2,0,0,15.77,0.02,28,0,0,0
34536,21734472,2,0,0,15.77,0.02,28,0,0,0
34965,21847954,2,0,0,15.77,0.02,28,0,0,0
35380,21950091,2,0,0,15.77,0.02,28,0,0,0
35832,22064576,2,0,0,15.77,0.02,28,0,0,0
36248,22170358,2,0,0,15.77,0.02,28,0,0,0
36674,22276590,2,0,0,15.77,0.02,28,0,0,0
37121,22390429,2,0,0,15.77,0.02,28,0,0,0
37536,22493973,2,0,0,15.77,0.02,28,0,0,0
37944,22598957,2,0,0,15.77,0.02,28,0,0,0
38399,22710531,2,0,0,15.77,0.02,28,0,0,0
38812,22821294,2,0,0,15.77,0.02,28,0,0,0
39228,22928493,2,0,0,15.77,0.02,28,0,0,0
39636,23030995,2,0,0,15.77,0.02,28,0,0,0
40087,23144851,2,0,0,15.77,0.02,28,0,0,0
40505,23250351,2,0,0,15.78,0.02,28,0,0,0
40920,23354012,2,0,0,15.77,0.02,28,0,0,0
41377,23466577,2,0,0,15.77,0.02,28,0,0,0
41789,23573516,2,0,0,15.77,0.02,28,0,0,0
42201,23679953,2,0,0,15.77,0.02,28,0,0,0
42660,23796342,2,0,0,15.77,0.02,28,0,0,0
43070,23900556,2,0,0,15.77,0.02,28,0,0,0
43483,24007224,2,0,0,15.77,0.02,28,0,0,0
43932,24115233,2,0,0,15.77,0.02,28,0,0,0
44382,24229013,2,0,0,15.77,0.02,28,0,0,0
45249,24447271,2,0,0,15.77,0.02,28,0,0,0
45664,24550969,2,0,0,15.78,0.02,28,0,0,0
46068,24653454,2,0,0,15.77,0.02,28,0,0,0
46526,24766526,2,0,0,15.77,0.02,28,0,0,0
46944,24874572,2,0,0,15.77,0.02,28,0,0,0
47354,24977512,2,0,0,15.77,0.02,28,0,0,0
48218,25198556,2,0,0,15.77,0.02,28,0,0,0
48632,25305477,2,0,0,15.77,0.02,28,0,0,0
49083,25417883,2,0,0,15.77,0.02,28,0,0,0
49500,25523571,2,0,0,15.77,0.02,28,0,0,0
49913,25628500,2,0,0,15.77,0.02,28,0,0,0
50329,25734771,2,0,0,15.77,0.02,28,0,0,0
50725,25848451,2,0,0,15.77,0.02,28,0,0,0
51142,25956479,2,0,0,15.77,0.02,28,0,0,0
51556,26062343,2,0,0,15.77,0.02,28,0,0,0
51968,26164516,2,0,0,15.77,0.02,28,0,0,0
52426,26282001,2,0,0,15.77,0.02,28,0,0,0
52843,26387112,2,0,0,15.77,0.02,28,0,0,0
53254,26490319,2,0,0,15.77,0.02,28,0,0,0
53667,26595942,2,0,0,15.77,0.03,28,0,0,0
54121,26708540,2,0,0,15.77,0.02,28,0,0,0
54536,26816577,2,0,0,15.77,0.02,28,0,0,0
54956,26922410,2,0,0,15.77,0.02,28,0,0,0
55412,27037122,2,0,0,15.77,0.02,28,0,0,0
55821,27141269,2,0,0,15.77,0.02,28,0,0,0
56170,60585978,2,0,0,15.77,0.02,28,0,0,0
56215,60595543,2,0,0,15.77,0.02,28,0,0,0
56632,60700947,2,0,0,15.77,0.02,28,0,0,0
57050,60802343,2,0,0,15.77,0.02,28,0,0,0
57547,60915955,2,0,0,15.77,0.02,28,0,0,0
58000,61017972,2,0,0,15.78,0.02,28,0,0,0
58454,61123869,2,0,0,15.77,0.02,28,0,0,0
58905,61225971,2,0,0,15.78,0.02,28,0,0,0
59401,61340101,2,0,0,15.77,0.02,28,0,0,0
59857,61441889,2,0,0,15.78,0.02,28,0,0,0
60346,61550111,2,0,0,15.77,0.02,28,0,0,0
60800,61653900,2,0,0,15.77,0.03,28,0,0,0
61299,61772111,2,0,0,15.77,0.03,28,0,0,0
61759,61880913,2,0,0,15.77,0.02,28,0,0,0
62176,61976253,2,0,0,15.77,0.02,28,0,0,0
62627,62081277,2,0,0,15.77,0.02,28,0,0,0
63130,62196927,2,0,0,15.77,0.03,28,0,0,0
63583,62302085,2,0,0,15.77,0.03,28,0,0,0
64041,62406336,2,0,0,15.77,0.02,28,0,0,0
64536,62519330,2,0,0,15.77,0.02,28,0,0,0
64989,62620429,2,0,0,15.77,0.02,28,0,0,0
65483,62733614,2,16,200,15.76,0.03,28,0,0,0
65935,62835849,2,231,628,15.76,0.09,28,0,0,0
66389,62940496,2,644,1028,15.75,0.15,28,0,0,0
66886,63051721,2,1043,1200,15.76,0.11,28,0,0,0
67336,63156339,2,1202,1242,15.76,0.09999999,28,0,0,0
67711,63268371,2,1245,1285,15.76,0.09999999,28,0,0,0
68169,63373119,2,1285,1285,15.76,0.09999999,28,0,0,0
68583,63471360,2,1285,1300,15.76,0.09,28,0,0,0
69084,63583772,2,1299,1285,15.76,0.09,28,0,0,0
69534,63689274,2,1285,1300,15.76,0.09,28,0,0,0
70031,63800905,2,1300,1300,15.76,0.09,28,0,0,0
70444,63897800,2,1300,1300,15.76,0.09,28,0,0,0
70941,64010031,2,1300,1300,15.76,0.09,28,0,0,0
71390,64112871,2,1300,1300,15.76,0.09,28,0,0,0
71889,64224703,2,1300,1300,15.76,0.09,28,0,0,0
72339,64326259,2,1300,1300,15.76,0.09,28,0,0,0
72841,64440654,2,1300,1300,15.76,0.09,28,0,0,0
73294,64546101,2,1299,1285,15.76,0.09,28,0,0,0
73749,64647242,2,1286,1300,15.76,0.09,28,0,0,0
74209,64754083,2,1299,1285,15.76,0.09,28,0,0,0
74667,64860425,2,1285,1285,15.76,0.09,28,0,0,0
75129,64972218,2,1286,1300,15.76,0.09,29,0,0,0
75578,65078899,2,1300,1300,15.76,0.09,28,0,0,0
76072,65192223,2,1300,1300,15.76,0.09999999,28,0,0,0
76522,65299725,2,1298,1285,15.76,0.09,28,0,0,0
76980,65403996,2,1285,1300,15.75,0.09999999,28,0,0,0
77432,65510741,2,1300,1300,15.76,0.09,29,0,0,0
77931,65622978,2,1300,1300,15.75,0.09,29,0,0,0
78383,65729563,2,1300,1300,15.76,0.09,28,0,0,0
78839,65834303,2,1300,1300,15.75,0.09,28,0,0,0
79295,65944371,2,1298,1285,15.76,0.09,28,0,0,0
79750,66047485,2,1285,1285,15.75,0.09,28,0,0,0
80200,66153282,2,1285,1285,15.76,0.09,28,0,0,0
80696,66267306,2,1285,1285,15.75,0.09999999,28,0,0,0
81120,66374292,2,1285,1285,15.76,0.09,29,0,0,0
81567,66480766,2,1285,1285,15.76,0.09999999,29,0,0,0
82064,66593063,2,1285,1285,15.76,0.09,28,0,0,0
82517,66696744,2,1285,1285,15.75,0.09,28,0,0,0
82937,66799127,2,1285,1285,15.76,0.09,28,0,0,0
83431,66909536,2,1285,1285,15.76,0.09999999,28,0,0,0
83929,67024317,2,1285,1285,15.76,0.09999999,28,0,0,0
84383,67130870,2,1287,1314,15.75,0.14,28,0,0,0
84835,67235030,2,1333,1600,15.71,0.35,29,0,0,0
85261,67344321,2,1633,2457,15.67,0.86,29,0,0,0
85715,67449717,2,2470,3000,15.62,1.12,29,0,0,0
86206,67564370,2,3032,3528,15.51,1.57,29,0,0,0
86664,67670311,2,3555,4214,15.37,2.24,29,0,0,0
87115,67777469,2,4240,4800,15.3,3,28,0,0,0
87570,67888533,2,4807,5314,15.2,3.6,29,0,0,0
88067,68004091,2,5364,5857,15.08,3.97,29,0,0,0
88523,68116375,2,5881,6142,15.15,4.03,29,0,0,0
88976,68224732,2,6138,6100,15.22,3.91,29,1,0,0
89390,68327305,2,6096,6028,15.2,3.76,29,1,0,0
89848,68437305,2,6026,5985,15.23,3.84,29,1,0,0
90342,68556871,2,6011,6257,15.22,4.25,28,1,0,0
90764,68660485,2,6255,6228,15.2,4.74,29,1,0,0
91212,68766583,2,6239,6471,15.17,4.8,29,1,0,0
91665,68875537,2,6470,6428,15.19,4.81,29,1,0,0
92162,68992520,2,6424,6385,15.15,4.88,29,2,0,0
92568,69091955,2,6388,6428,15.19,4.68,29,2,0,0
93023,69198066,2,6433,6557,15.16,4.5,29,2,0,0
93469,69306110,2,6527,6142,15.21,3.48,29,2,0,0
93966,69422557,2,6124,5942,15.22,2.82,29,2,0,0
94378,69526300,2,5931,5657,15.22,2.55,29,2,0,0
94831,69630266,2,5655,5600,15.26,2.74,29,2,0,0
95322,69745533,2,5609,5771,15.22,3.33,29,2,0,0
96237,69966910,2,5766,5571,15.14,2.81,29,2,0,0
96690,70078742,2,5580,5714,15.19,3.29,29,3,0,0
97193,70196000,2,5714,5714,15.14,3.16,29,3,0,0
97600,70297995,2,5731,5900,15.09,3.71,29,3,0,0
98057,70405369,2,5907,6100,15.14,3.9,29,3,0,0
98511,70521255,2,6104,6142,15.07,4.19,29,3,0,0
98912,70621221,2,6138,6057,15.1,3.82,29,3,0,0
99860,70853925,2,6052,5957,15.11,3.95,29,3,0,0
100259,70955491,2,5954,5928,15.23,3.73,29,3,0,0
100707,71064257,2,5943,6100,15.2,3.57,29,4,0,0
101111,71166485,2,6089,5957,15.24,3.65,29,4,0,0
101558,71278960,2,5946,5857,15.22,3.11,29,4,0,0
102015,71391026,2,5841,5685,15.23,3.05,29,4,0,0
102459,71501734,2,5685,5685,15.14,3,29,4,0,0
102873,71608133,2,5694,5785,15.13,3.36,29,4,0,0
103315,71717974,2,5768,5600,15.19,2.74,29,4,0,0
104150,71933750,2,5598,5557,15.15,2.85,29,4,0,0
104597,72040748,2,5558,5585,15.2,2.69,29,4,0,0
105043,72151372,2,5578,5485,15.14,2.57,30,5,0,0
105490,72265717,2,5493,5542,15.18,2.76,30,5,0,0
105894,72362455,2,5540,5428,15.1,2.82,30,5,0,0
106383,72483106,2,5453,5814,15.13,3.41,30,5,0,0
107231,72690475,2,5817,5928,15.14,3.3,30,5,0,0
107683,72801224,2,5924,5885,15.19,3.61,30,5,0,0
108130,72911538,2,5910,6114,15.09,3.97,30,5,0,0
108536,73010304,2,6114,6128,15.16,3.71,30,5,0,0
108985,73124337,2,6108,5914,15.11,3.64,30,5,0,0
109430,73229484,2,5917,6014,15.05,3.59,30,6,0,0
109918,73350226,2,6015,6028,15.1,3.56,30,6,0,0
110365,73455488,2,6032,6100,15.13,3.4,30,6,0,0
110810,73566481,2,6093,6028,15.13,3.33,30,6,0,0
111217,73674237,2,6023,5971,15.17,3.41,30,6,0,0
112075,73890303,2,5969,5928,15.12,3.16,30,6,0,0
112527,73999717,2,5923,5871,15.19,3.17,30,6,0,0
112931,74101461,2,5875,5985,15.11,3.27,30,6,0,0
113417,74215001,2,5990,6071,15.14,3.48,30,6,0,0
113822,74318067,2,6067,5857,15.12,3.35,30,7,0,0
114313,74435909,2,5874,6042,15.11,3.32,30,7,0,0
114714,74535253,2,6037,5942,15.12,3.25,30,7,0,0
115208,74653969,2,5937,5885,15.1,3.35,30,7,0,0
115651,74761257,2,5900,6042,15.09,3.33,30,7,0,0
116099,74871484,2,6032,5914,15.13,3.34,30,7,0,0
116549,74982338,2,5903,5828,15.19,3.16,30,7,0,0
116988,75091475,2,5846,5957,15.12,3.39,30,7,0,0
117401,75185921,2,5962,6100,15.08,3.65,30,7,0,0
117849,75304110,2,6113,6200,15,3.91,30,7,0,0
118304,75408858,2,6186,6042,15.06,3.96,30,8,0,0
118744,75516566,2,6042,6100,15.05,3.94,30,8,0,0
119231,75638769,2,6121,6257,15,4.05,30,8,0,0
119637,75738730,2,6252,6214,14.94,4.17,30,8,0,0
120085,75852104,2,6216,6242,15.04,3.81,30,8,0,0
120493,75956920,2,6240,6228,14.88,4.36,30,8,0,0
120950,76071210,2,6228,6228,15.02,4.31,30,8,0,0
121352,76171234,2,6202,5985,15.08,3.38,30,8,0,0
121839,76292433,2,5972,5857,15.04,3.24,30,9,0,0
122244,76387856,2,5855,5771,15.08,3.19,30,9,0,0
122723,76507333,2,5781,5885,14.97,3.75,30,9,0,0
123129,76607890,2,5888,6057,15,4.1,30,9,0,0
123580,76723479,2,6057,6057,15.04,3.69,30,9,0,0
124433,76932850,2,6056,5957,15.09,3.56,30,9,0,0
124928,77048839,2,5957,6028,15.15,3.28,30,9,0,0
125374,77163770,2,6018,5942,15.07,3.06,30,9,0,0
126228,77372848,2,5937,5771,15.1,2.94,30,10,0,0
126680,77489521,2,5760,5671,15.16,2.74,30,10,0,0
127126,77593768,2,5663,5585,15.08,2.88,30,10,0,0
128019,77811456,2,5582,5514,15.13,3.03,30,10,0,0
128465,77921913,2,5524,5642,15.11,2.99,30,10,0,0
128876,78021302,2,5641,5585,15.13,2.7,30,10,0,0
129325,78134976,2,5589,5628,15.05,2.9,30,10,0,0
129773,78242261,2,5640,5814,15.07,3.42,30,10,0,0
130178,78346287,2,5815,5842,15.03,3.73,30,10,0,0
130660,78456353,2,5839,5800,14.99,3.67,30,10,0,0
131549,78680362,2,5816,6171,15.07,4.12,30,11,0,0
132407,78893414,2,6161,5885,15.07,3.03,30,11,0,0
133342,79120515,2,5875,5657,15.1,2.57,30,11,0,0
133752,79220934,2,5639,5400,15.09,2.43,30,11,0,0
134197,79330875,2,5393,5328,15.11,2.38,30,11,0,0
134608,79432935,2,5329,5385,15.1,2.47,30,11,0,0
135050,79540311,2,5398,5600,15.05,2.98,30,11,0,0
135499,79648854,2,5609,5700,15.08,3.25,30,11,0,0
135945,79755738,2,5709,5842,15.05,3.41,30,12,0,0
136395,79866340,2,5843,5857,15.01,3.38,30,12,0,0
136842,79977899,2,5872,6028,15.03,3.64,30,12,0,0
137245,80082336,2,6021,5857,15.02,3.41,30,12,0,0
137688,80187209,2,5858,5942,15.02,3.54,30,12,0,0
138138,80300601,2,5942,5942,15.08,3.18,30,12,0,0
138588,80408750,2,5938,5771,15.04,3.11,30,12,0,0
139080,80528468,2,5791,6014,15.01,3.5,30,12,0,0
139485,80627257,2,6017,6100,15.05,3.61,30,12,0,0
139931,80737424,2,6097,5985,15.04,3.44,30,13,0,0
140380,80846366,2,5981,5942,15.06,3.4,30,13,0,0
140821,80953366,2,5951,6085,15.05,3.55,30,13,0,0
141272,81064558,2,6088,6171,15.02,3.29,30,13,0,0
141717,81175116,2,6151,5957,15.06,3.06,30,13,0,0
142122,81275751,2,5958,6042,15.07,3.19,30,13,0,0
142568,81385628,2,6041,5985,15,3.35,30,13,0,0
143014,81498203,2,5978,5900,14.98,3.07,30,13,0,0
143462,81604998,2,5911,6057,15.03,3.62,30,13,0,0
143874,81710085,2,6058,6142,15.09,3.05,30,13,0,0
144320,81818070,2,6137,5885,15.04,3.14,30,14,0,0
144765,81927097,2,5887,6014,15.08,3.05,30,14,0,0
145215,82035449,2,6014,6071,15.01,3.42,30,14,0,0
145661,82147903,2,6056,5857,15,3.1,30,14,0,0
146112,82261103,2,5876,6042,15.02,3.52,30,14,0,0
146555,82366854,2,6049,6157,15.03,3.67,30,14,0,0
147003,82476460,2,6144,6014,15.02,3.5,30,14,0,0
147410,82576990,2,6015,6114,15,3.88,30,14,0,0
147900,82694292,2,6123,6314,14.9,3.98,30,14,0,0
148308,82799110,2,6310,6128,15,3.59,30,14,0,0
148758,82910251,2,6131,6285,15,3.89,30,15,0,0
149209,83020533,2,6283,6185,14.95,3.26,30,15,0,0
149658,83136289,2,6174,6042,15.03,3.22,30,15,0,0
150113,83247497,2,6039,6014,15,3.56,30,15,0,0
150518,83350742,2,6017,6100,15.05,3.25,30,15,0,0
150970,83462940,2,6085,5942,15.02,3.37,30,15,0,0
151386,83569839,2,5955,6085,15.03,3.19,30,15,0,0
151792,83673557,2,6080,5871,15,3.19,30,15,0,0
152243,83782717,2,5874,5942,15,2.76,30,15,0,0
152684,83891484,2,5935,5814,15.01,3.01,30,15,0,0
153141,84005989,2,5796,5528,15.05,2.26,30,16,0,0
153582,84114164,2,5536,5728,15.05,3.04,30,16,0,0
154033,84222956,2,5752,6085,14.98,3.73,30,16,0,0
154478,84334549,2,6041,5628,15.04,1.75,30,16,0,0
154923,84441317,2,5620,5414,15,2.69,30,16,0,0
155402,84555108,2,5426,5557,14.95,2.62,30,16,0,0
155855,84663969,2,5570,5714,15.01,3.29,30,16,0,0
156295,84774460,2,5728,5942,14.96,3.31,30,16,0,0
156745,84890263,2,5938,5885,15.01,3.38,30,16,0,0
157596,85103771,2,5887,5942,14.94,3.46,30,16,0,0
158006,85205955,2,5940,5871,14.91,3.47,30,17,0,0
158912,85434693,2,5873,5928,14.95,3.43,30,17,0,0
159797,85648771,2,5928,5971,14.89,3.58,30,17,0,0
160250,85762340,2,5963,5885,14.84,3.6,30,17,0,0
160697,85882092,2,5891,5928,14.91,3.23,30,17,0,0
161104,85982296,2,5913,5800,14.97,3.02,30,17,0,0
161514,86081887,2,5793,5671,14.97,3.1,30,17,0,0
161969,86193696,2,5674,5728,14.95,3.4,30,17,0,0
162372,86296900,2,5733,5928,14.95,3.24,30,18,0,0
162825,86417218,2,5894,5628,15.04,2.69,30,18,0,0
163272,86523227,2,5620,5542,15.04,2.81,30,18,0,0
163721,86631002,2,5555,5671,15,2.64,30,18,0,0
164135,86738727,2,5671,5671,15.04,2.65,30,18,0,0
164587,86847005,2,5666,5571,15.01,2.72,30,18,0,0
165036,86965591,2,5574,5600,15,2.62,30,18,0,0
165486,87071249,2,5607,5671,15,2.98,30,18,0,0
165931,87182313,2,5679,5800,14.99,2.89,30,18,0,0
166784,87393887,2,5801,5828,15.01,2.95,30,18,0,0
167224,87501356,2,5833,5885,14.96,3.02,30,19,0,0
167679,87614917,2,5878,5814,14.98,3.05,30,19,0,0
168122,87719890,2,5817,5871,14.97,3.12,30,19,0,0
168567,87832096,2,5871,5871,14.95,3.27,30,19,0,0
168932,87926985,2,5873,5957,14.94,3.37,30,19,0,0
169390,88038498,2,5955,5928,14.94,3.39,30,19,0,0
169877,88157911,2,5923,5871,14.92,3.57,30,19,0,0
170287,88255870,2,5864,5814,14.92,3.53,30,19,0,0
170687,88357243,2,5819,5971,14.98,3.26,30,19,0,0
171130,88463713,2,5971,5971,14.94,3.41,30,19,0,0
171618,88582414,2,5959,5857,14.86,3.47,30,20,0,0
172497,88795486,2,5857,5871,14.98,3.52,30,20,0,0
172908,88900951,2,5864,5742,14.92,3.48,30,20,0,0
173355,89008802,2,5744,5914,14.97,3.58,30,20,0,0
173797,89118565,2,5912,5814,14.94,3.43,30,20,0,0
174734,89347348,2,5810,5742,14.94,3.03,30,20,0,0
175142,89447537,2,5736,5685,14.96,3.11,30,20,0,0
175551,89549464,2,5685,5742,14.97,3.33,30,20,0,0
176002,89661092,2,5746,5842,14.97,3.51,30,21,0,0
176492,89781950,2,5854,5985,14.9,3.5,30,21,0,0
176896,89884911,2,5968,5757,14.91,3.4,30,21,0,0
177345,89993512,2,5768,5885,14.91,3.41,30,21,0,0
177792,90103848,2,5888,5957,15,3.49,30,21,0,0
178249,90216855,2,5953,5928,15,3.37,30,21,0,0
178647,90314958,2,5929,6014,14.92,3.48,30,21,0,0
179542,90532453,2,6012,5985,14.94,3.51,30,21,0,0
179991,90639108,2,5977,5900,14.97,3.35,30,22,0,0
180435,90752136,2,5917,6071,14.95,3.21,30,22,0,0
180840,90849270,2,6066,5885,14.92,3.18,30,22,0,0
181299,90963520,2,5885,5900,14.97,3.24,30,22,0,0
181746,91074064,2,5900,5914,14.92,3.35,30,22,0,0
182234,91192936,2,5918,5971,14.93,2.95,30,22,0,0
182643,91297322,2,5971,6000,14.92,3.18,30,22,0,0
183129,91408105,2,6000,6000,14.95,3.25,30,22,0,0
183533,91507922,2,5989,5785,14.89,3.17,30,22,0,0
183947,91613044,2,5789,5871,14.88,3.58,30,22,0,0
184359,91719082,2,5877,6000,14.91,3.7,30,22,0,0
184806,91826727,2,6003,6100,14.88,3.7,30,23,0,0
185253,91936938,2,6098,6057,14.83,3.41,30,23,0,0
185699,92044230,2,6043,5828,14.88,3.6,30,23,0,0
186155,92160547,2,5841,5985,14.91,3.8,30,23,0,0
186638,92268141,2,5987,6014,14.94,3.55,30,23,0,0
187039,92367512,2,6016,6128,14.93,3.27,30,23,0,0
187493,92483979,2,6095,5828,14.96,2.75,30,23,0,0
187940,92590225,2,5829,5857,14.97,2.84,30,23,0,0
188381,92694684,2,5857,5857,14.89,3.18,30,23,0,0
189238,92910932,2,5848,5628,14.91,3.11,30,24,0,0
189688,93019839,2,5629,5728,14.97,2.6,30,24,0,0
190136,93131954,2,5730,5757,14.97,2.88,30,24,0,0
190581,93237845,2,5772,5971,14.89,2.94,30,24,0,0
191029,93351030,2,5947,5700,14.89,2.72,30,24,0,0
191471,93452967,2,5701,5785,14.91,2.79,30,24,0,0
191922,93563766,2,5779,5671,14.94,2.69,30,24,0,0
192370,93677566,2,5698,5914,14.92,3.04,30,24,0,0
192820,93785914,2,5913,5900,14.92,3.23,30,24,0,0
193227,93890889,2,5907,6000,14.92,3.23,30,24,0,0
193676,93999975,2,5995,5942,14.93,3.11,30,25,0,0
194128,94112866,2,5947,6000,14.88,3.08,30,25,0,0
194537,94213122,2,5987,5742,14.91,2.96,30,25,0,0
194978,94320859,2,5744,5785,14.88,3.08,30,25,0,0
195430,94433255,2,5787,5814,14.91,3.07,30,25,0,0
195878,94542502,2,5816,5857,14.91,3.21,30,25,0,0
196289,94643743,2,5858,6014,14.95,2.98,30,25,0,0
196740,94760278,2,5989,5742,14.91,3.08,30,25,0,0
197187,94870850,2,5758,5900,14.85,3.6,30,25,0,0
197594,94970574,2,5900,5914,14.85,3.86,30,25,0,0
198046,95084086,2,5916,6085,14.86,3.75,30,26,0,0
198492,95190366,2,6077,5985,14.88,3.17,30,26,0,0
199394,95411351,2,5976,5785,14.92,2.92,30,26,0,0
199842,95525969,2,5792,5900,14.92,2.78,30,26,0,0
200293,95630518,2,5890,5771,14.95,2.94,30,26,0,0
200700,95736090,2,5776,5857,14.97,2.7,30,26,0,0
201150,95845868,2,5857,5857,14.86,2.94,30,26,0,0
202024,96062966,2,5859,5971,14.84,3.32,30,26,0,0
202469,96172473,2,5964,5800,14.86,3.22,30,26,0,0
203398,96394937,2,5798,5757,14.88,3.19,30,27,0,0
203808,96503959,2,5762,5814,14.88,3.05,30,27,0,0
204213,96603026,2,5815,5914,14.91,3.13,30,27,0,0
204660,96712970,2,5912,5871,14.89,3.19,30,27,0,0
205150,96827937,2,5871,5885,14.93,3.23,30,27,0,0
205602,96938563,2,5888,5928,14.94,3.43,30,27,0,0
206051,97046423,2,5928,5942,14.86,3.43,30,27,0,0
206940,97262087,2,5942,5957,14.89,3.35,30,27,0,0
207383,97380952,2,5944,5857,14.88,3.09,30,28,0,0
207822,97482946,2,5864,5942,14.91,3.49,30,28,0,0
208273,97594360,2,5944,5971,14.86,3.51,30,28,0,0
208679,97693853,2,5970,5942,14.86,3.44,30,28,0,0
209538,97908956,2,5945,6100,14.87,3.41,30,28,0,0
210034,98034203,2,6108,6200,14.92,3.45,30,28,0,0
210439,98135777,2,6196,5942,14.84,3.23,30,28,0,0
210887,98245272,2,5937,5885,14.88,3.37,30,28,0,0
211331,98357093,2,5886,5900,14.91,3.45,30,28,0,0
211776,98467899,2,5910,6142,14.91,3.62,30,29,0,0
212218,98574119,2,6138,6100,14.85,3.72,30,29,0,0
212622,98678434,2,6095,6014,14.9,3.75,30,29,0,0
213073,98785552,2,6019,6157,14.87,3.88,30,29,0,0
213516,98895933,2,6156,6128,14.91,3.82,30,29,0,0
214003,99015436,2,6125,6100,14.86,3.75,30,29,0,0
214892,99230090,2,6100,6100,14.94,3.52,30,29,0,0
215295,99332808,2,6098,5971,14.88,3.56,30,29,0,0
215740,99438458,2,5973,6071,14.88,3.78,30,30,0,0
216186,99548555,2,6061,5871,14.91,3.51,30,30,0,0
216639,99660616,2,5873,5900,14.91,3.45,30,30,0,0
217081,99769908,2,5915,6071,14.94,3.52,31,30,0,0
217530,99880977,2,6054,5857,14.93,3.44,30,30,0,0
217979,99990931,2,5870,6014,14.91,3.7,30,30,0,0
218386,100093342,2,6008,5885,14.89,3.23,30,30,0,0
219309,100313283,2,5882,5828,14.95,3.47,30,30,0,0
219752,100419635,2,5847,6100,14.95,3.65,31,30,0,0
220195,100527711,2,6088,5857,14.95,3.17,31,31,0,0
220649,100638040,2,5873,6100,14.95,4.27,31,31,0,0
221089,100744334,2,6103,6357,14.95,4.33,31,31,0,0
221579,100861029,2,6365,6457,14.92,4.33,31,31,0,0
221981,100961513,2,6449,6171,14.89,3.58,31,31,0,0
222442,101076559,2,6158,6057,14.92,3.21,30,31,0,0
222886,101184458,2,6039,5857,14.91,2.83,31,31,0,0
223287,101285755,2,5868,6085,14.89,3.79,31,31,0,0
223735,101394558,2,6085,6100,14.89,3.53,30,31,0,0
224185,101510332,2,6107,6185,14.92,3.06,31,32,0,0
224633,101616292,2,6163,5957,14.92,3.03,31,32,0,0
225074,101722981,2,5949,5857,14.94,2.91,31,32,0,0
225528,101831729,2,5862,5942,14.86,3.38,31,32,0,0
225970,101940351,2,5946,6028,14.9,3.59,31,32,0,0
226422,102047449,2,6029,6128,14.91,3.27,31,32,0,0
226868,102158458,2,6123,6057,14.88,3.63,31,32,0,0
227314,102274295,2,6072,6300,14.92,3.92,30,32,0,0
227765,102385887,2,6313,6457,14.92,4.17,31,32,0,0
228207,102494771,2,6450,6357,14.91,3.58,31,33,0,0
228657,102604082,2,6348,6242,14.91,3.83,31,33,0,0
229070,102711140,2,6239,6185,14.82,3.66,31,33,0,0
229514,102816471,2,6181,6100,14.9,3.55,31,33,0,0
229959,102927927,2,6087,5928,14.89,3.31,31,33,0,0
230407,103034477,2,5944,6257,14.92,3.44,31,33,0,0
230864,103150518,2,6244,6100,14.87,3.09,31,33,0,0
231268,103250871,2,6104,6185,14.88,3.39,31,33,0,0
231711,103360929,2,6171,5900,14.86,2.89,31,33,0,0
232164,103473916,2,5898,5885,14.94,3.19,31,33,0,0
232567,103576958,2,5894,6114,14.87,3.33,31,34,0,0
233018,103692847,2,6094,5885,14.88,3.3,31,34,0,0
233463,103800214,2,5893,6000,14.83,3.45,31,34,0,0
233910,103910026,2,5987,5857,14.88,3.21,31,34,0,0
234315,104009899,2,5858,5885,14.88,3.49,31,34,0,0
234762,104120956,2,5887,5942,14.89,3.09,31,34,0,0
235213,104230514,2,5939,5885,14.85,3.13,31,34,0,0
235659,104343984,2,5871,5728,14.91,2.94,31,34,0,0
236104,104450890,2,5735,5814,14.86,3.31,31,34,0,0
236512,104557328,2,5818,5928,14.86,3.39,31,34,0,0
236958,104664487,2,5925,5757,14.88,3.24,31,35,0,0
237402,104774301,2,5757,5757,14.91,2.97,31,35,0,0
237882,104887296,2,5756,5742,14.94,2.99,31,35,0,0
238327,104992868,2,5748,5885,14.9,3.05,31,35,0,0
238736,105099957,2,5887,5928,14.91,2.65,31,35,0,0
239224,105215990,2,5916,5785,14.92,2.54,31,35,0,0
239639,105325630,2,5755,5500,14.88,2.64,31,35,0,0
240087,105437132,2,5509,5571,14.91,2.53,31,35,0,0
240492,105533296,2,5571,5600,14.87,2.88,31,35,0,0
240979,105654508,2,5592,5542,14.91,2.62,31,35,0,0
241385,105753213,2,5540,5514,14.89,2.32,31,35,0,0
241829,105864259,2,5512,5471,14.88,2.45,31,35,0,0
242278,105973355,2,5474,5528,14.86,2.93,31,36,0,0
242722,106081874,2,5528,5528,14.92,2.96,31,36,0,0
243173,106199569,2,5533,5585,14.88,2.89,31,36,0,0
244021,106407891,2,5587,5842,14.88,2.81,31,36,0,0
244467,106514498,2,5840,5714,14.85,3.33,31,36,0,0
244912,106624955,2,5720,6000,14.85,3.44,31,36,0,0
245800,106839914,2,5987,5742,14.77,3.44,31,36,0,0
246206,106943019,2,5745,5814,14.84,3.31,31,36,0,0
246656,107051350,2,5813,5771,14.8,3.05,31,37,0,0
247109,107166538,2,5772,5785,14.91,3.03,31,37,0,0
247512,107261982,2,5785,5814,14.88,3.07,31,37,0,0
248843,107589775,2,5812,5528,14.91,2.68,31,37,0,0
249287,107703517,2,5535,5742,14.86,3.06,31,37,0,0
249778,107821494,2,5720,5485,14.91,2.47,31,37,0,0
250167,107915990,2,5485,5514,14.85,2.78,31,37,0,0
250617,108024503,2,5515,5628,14.83,2.98,31,37,0,0
251064,108138212,2,5639,5800,14.86,2.83,31,37,0,0
251516,108249885,2,5794,5714,14.86,2.89,31,37,0,0
251960,108358730,2,5704,5500,14.9,2.21,31,38,0,0
252410,108466872,2,5490,5328,14.87,1.98,31,38,0,0
252854,108576855,2,5326,5300,14.86,2.73,31,38,0,0
253299,108687907,2,5333,5685,14.9,3.35,31,38,0,0
253747,108797099,2,5698,5842,14.91,3.01,31,38,0,0
254147,108896985,2,5843,5914,14.8,3.3,31,38,0,0
254639,109012125,2,5910,5871,14.91,3.46,31,38,0,0
255562,109232214,2,5876,6028,14.84,3.58,31,38,0,0
256010,109344363,2,6029,6042,14.86,3.31,31,38,0,0
256461,109453855,2,6045,6085,14.82,3.41,31,38,0,0
256869,109558927,2,6062,5771,14.87,3.1,31,39,0,0
257323,109670090,2,5780,5871,14.88,3.25,31,39,0,0
257725,109774086,2,5861,5728,14.85,3.03,31,39,0,0
258166,109882325,2,5728,5728,14.88,2.87,31,39,0,0
258620,109993980,2,5726,5714,14.92,2.76,31,39,0,0
259065,110104271,2,5720,5800,14.84,3.21,31,39,0,0
259470,110205307,2,5797,5657,14.89,2.55,31,39,0,0
259915,110316988,2,5653,5500,14.86,2.63,31,39,0,0
260804,110533215,2,5501,5642,14.82,2.89,31,39,0,0
261259,110646877,2,5642,5657,14.91,2.87,31,39,0,0
262157,110872510,2,5660,5728,14.89,2.82,31,40,0,0
263042,111087008,2,5725,5671,14.85,2.76,31,40,0,0
263446,111185868,2,5678,5814,14.93,3.02,31,40,0,0
263892,111297926,2,5801,5628,14.87,2.46,31,40,0,0
264337,111403964,2,5615,5357,14.87,2.37,31,40,0,0
264789,111520228,2,5343,5214,14.94,1.8,31,40,0,0
265237,111627539,2,5214,5214,14.93,2.03,31,40,0,0
265643,111731710,2,5221,5371,14.89,2.35,31,40,0,0
266091,111842570,2,5376,5514,14.86,2.63,31,40,0,0
266538,111952579,2,5512,5485,14.88,2.59,31,40,0,0
266991,112065867,2,5489,5542,14.83,2.8,31,40,0,0
267390,112165538,2,5544,5728,14.88,2.71,31,41,0,0
267837,112274288,2,5726,5628,14.9,2.8,31,41,0,0
268316,112389301,2,5630,5657,14.84,3.18,31,41,0,0
268720,112494221,2,5657,5671,14.83,2.95,31,41,0,0
269172,112603973,2,5684,5885,14.85,3.09,31,41,0,0
269578,112708758,2,5884,5871,14.82,3.28,31,41,0,0
270025,112815260,2,5884,6071,14.85,3.56,31,41,0,0
270473,112928866,2,6068,6042,14.86,3.41,31,41,0,0
270921,113036493,2,6047,6100,14.82,3.29,31,41,0,0
271327,113143513,2,6088,5971,14.86,3.01,31,41,0,0
271772,113250496,2,5973,6014,14.87,3.35,31,41,0,0
272219,113360513,2,5999,5857,14.84,3.13,31,42,0,0
272628,113462351,2,5860,5957,14.84,3.31,31,42,0,0
273108,113575986,2,5956,5942,14.86,3.34,31,42,0,0
273479,113676029,2,5942,5957,14.84,3.36,31,42,0,0
273969,113794023,2,5953,5914,14.83,3.84,31,42,0,0
274411,113902734,2,5933,6128,14.83,4.04,31,42,0,0
274860,114012965,2,6129,6142,14.79,4.16,31,42,0,0
275307,114123534,2,6142,6142,14.76,3.94,31,42,0,0
275708,114220755,2,6145,6214,14.8,4.2,31,42,0,0
276152,114331843,2,6208,6142,14.83,4.13,31,43,0,0
276601,114441982,2,6144,6171,14.81,4.38,31,43,0,0
277048,114553060,2,6172,6185,14.83,4.2,31,43,0,0
277489,114663083,2,6169,6028,14.82,4.01,31,43,0,0
277897,114766330,2,6029,6042,14.8,3.91,31,43,0,0
278382,114882880,2,6043,6057,14.79,3.81,31,43,0,0
278794,114982839,2,6055,6042,14.89,3.83,31,43,0,0
279204,115090921,2,6037,5971,14.76,3.86,31,43,0,0
279649,115196595,2,5969,5942,14.83,3.57,31,44,0,0
280096,115310860,2,5936,5857,14.76,3.82,31,44,0,0
280547,115422110,2,5868,6014,14.82,3.8,31,44,0,0
280950,115524889,2,6010,5928,14.76,3.46,31,44,0,0
281398,115634315,2,5921,5785,14.79,3.6,31,44,0,0
281844,115744507,2,5794,5914,14.85,3.57,31,44,0,0
282297,115864137,2,5941,6128,14.79,3.99,31,44,0,0
282695,115955165,2,6116,5871,14.79,3.95,31,44,0,0
283147,116070850,2,5888,6071,14.74,4.1,31,45,0,0
283586,116173843,2,6060,5900,14.82,3.92,31,45,0,0
284030,116283921,2,5910,6042,14.79,4.04,31,45,0,0
284479,116394771,2,6046,6114,14.77,4.26,31,45,0,0
284959,116511852,2,6123,6200,14.79,4.19,31,45,0,0
285406,116621699,2,6191,6128,14.77,4.25,31,45,0,0
285813,116719915,2,6144,6357,14.85,3.96,31,45,0,0
286262,116829260,2,6345,6085,14.82,3.76,31,45,0,0
286709,116943729,2,6065,5900,14.88,3.43,31,45,0,0
287125,117053270,2,5888,5785,14.89,3.05,31,46,0,0
287981,117267854,2,5770,5514,14.98,2.6,31,46,0,0
288425,117377348,2,5507,5457,14.93,2.46,31,46,0,0
288865,117482443,2,5449,5357,14.91,2.74,31,46,0,0
289268,117584248,2,5361,5614,14.92,2.73,31,46,0,0
289791,117713331,2,5617,5642,14.92,2.51,31,46,0,0
290642,117921257,2,5643,5685,14.91,2.3,31,46,0,0
291089,118032439,2,5695,5785,14.88,2.51,31,46,0,0
291501,118135948,2,5773,5628,14.88,2.63,31,46,0,0
291943,118242861,2,5629,5785,14.83,3.04,31,47,0,0
292393,118358302,2,5809,5957,14.86,2.8,31,47,0,0
292840,118464336,2,5934,5728,14.9,2.76,31,47,0,0
293722,118682229,2,5736,5942,14.88,3.18,31,47,0,0
294172,118793165,2,5955,6085,14.88,3.26,31,47,0,0
295026,119002845,2,6080,5885,14.86,3.28,31,47,0,0
295474,119113229,2,5890,5971,14.86,3.05,31,47,0,0
295927,119220541,2,5967,5885,14.89,3.18,31,47,0,0
296327,119324339,2,5886,5914,14.85,3,31,47,0,0
296777,119432488,2,5914,5914,14.85,2.99,31,48,0,0
297341,119648992,2,5899,5885,14.85,2.95,31,48,0,0
297743,119753018,2,5882,5828,14.88,2.73,31,48,0,0
298189,119859309,2,5830,5971,14.88,3.19,31,48,0,0
298639,119970301,2,5970,5942,14.92,3.09,31,48,0,0
299127,120090726,2,5947,6014,14.91,3.22,31,48,0,0
299531,120189735,2,6013,5971,14.85,3.4,31,48,0,0
300018,120306961,2,5966,5914,14.82,3.14,31,48,0,0
300463,120413582,2,5925,6085,14.94,3.16,31,48,0,0
300868,120516516,2,6084,6057,14.89,3.09,31,48,0,0
301353,120629860,2,6048,5942,14.83,3.28,31,49,0,0
301795,120739284,2,5943,5957,14.87,3.37,31,49,0,0
302642,120948317,2,5958,6071,14.8,3.84,31,49,0,0
303090,121058939,2,6073,6128,14.72,4.07,31,49,0,0
303496,121163464,2,6141,6414,14.71,4.58,31,49,0,0
303938,121274127,2,6418,6514,14.67,4.98,31,49,0,0
304389,121382164,2,6516,6557,14.75,4.97,31,49,0,0
305278,121598956,2,6552,6442,14.8,4.59,31,50,0,0
305722,121710006,2,6426,6214,14.73,4.42,31,50,0,0
306168,121818203,2,6222,6400,14.79,4.4,31,50,0,0
306619,121929497,2,6387,6228,14.85,4.02,31,50,0,0
307072,122040260,2,6211,5985,14.82,3.75,31,50,0,0
307515,122148494,2,5982,5957,14.83,3.59,31,50,0,0
307997,122258095,2,5956,5942,14.83,3.55,31,50,0,0
308398,122360521,2,5938,5871,14.84,3.95,31,51,0,0
308855,122472952,2,5889,6100,14.82,4.36,31,51,0,0
309742,122694686,2,6100,6100,14.8,3.79,31,51,0,0
310153,122798730,2,6077,5885,14.83,3.9,31,51,0,0
311004,123005725,2,5887,6014,14.86,3.83,31,51,0,0
311452,123119125,2,6044,6342,14.84,4.11,31,51,0,0
311934,123230852,2,6325,6157,14.83,4.06,31,52,0,0
312335,123334092,2,6153,5985,14.85,3.92,31,52,0,0
312788,123444746,2,5990,6057,14.84,3.63,31,52,0,0
313196,123550933,2,6051,6000,14.75,3.95,31,52,0,0
313646,123660327,2,6010,6157,14.8,4.1,31,52,0,0
314088,123771091,2,6155,6114,14.8,3.91,31,52,0,0
314543,123886249,2,6112,6100,14.88,3.95,31,52,0,0
314991,123991442,2,6087,5957,14.85,3.93,31,52,0,0
315395,124097867,2,5957,5957,14.83,3.83,31,52,0,0
315849,124209242,2,5952,5900,14.86,3.38,31,53,0,0
316291,124318985,2,5886,5757,14.86,3.39,31,53,0,0
316738,124426863,2,5752,5714,14.83,3.18,31,53,0,0
317179,124532990,2,5718,5785,14.85,3.7,31,53,0,0
317635,124647776,2,5795,5900,14.83,3.63,31,53,0,0
318034,124748354,2,5895,5800,14.85,3.36,31,53,0,0
318525,124864932,2,5807,5914,14.83,3.96,31,53,0,0
318928,124967478,2,5914,5928,14.89,3.41,31,53,0,0
319376,125077749,2,5924,5871,14.86,3.44,31,53,0,0
319827,125187217,2,5868,5828,14.88,3.51,32,54,0,0
320230,125291723,2,5827,5814,14.91,3.29,31,54,0,0
320685,125403325,2,5764,5057,15.36,0.79,31,54,0,0
321132,125514531,2,4997,4328,15.16,1.12,31,54,0,0
321574,125617941,2,4289,3457,15.34,0.11,31,54,0,0
322026,125735065,2,3406,2885,15.26,0.3,32,54,0,0
322435,125835322,2,2874,2742,15.26,0.34,31,54,0,0
322839,125939164,2,2740,2628,15.26,0.33,31,54,0,0
323324,126053562,2,2637,2771,15.26,0.47,31,54,0,0
323772,126167036,2,2769,2757,15.26,0.42,31,54,0,0
324215,126277974,2,2760,2785,15.26,0.46,31,54,0,0
324622,126379060,2,2781,2742,15.26,0.36,32,54,0,0
325068,126491322,2,2741,2728,15.27,0.39,32,54,0,0
325516,126600343,2,2726,2700,15.27,0.41,31,54,0,0
325919,126703569,2,2700,2714,15.26,0.38,31,54,0,0
326370,126812299,2,2715,2742,15.27,0.44,32,54,0,0
326820,126925124,2,2740,2728,15.26,0.45,31,54,0,0
327268,127030133,2,2728,2785,15.27,0.43,31,54,0,0
327751,127147902,2,2786,2800,15.27,0.45,31,54,0,0
328199,127254982,2,2798,2785,15.26,0.43,31,54,0,0
328682,127366842,2,2750,2485,15.35,0.14,31,54,0,0
329088,127460958,2,2473,1814,15.35,0,31,54,0,0
329529,127573852,2,1808,1400,15.33,0.01,31,54,0,0
330049,127693525,2,1392,1285,15.33,0.06,31,54,0,0
330458,127792483,2,1284,1271,15.33,0.08,31,54,0,0
330905,127899952,2,1271,1271,15.33,0.08,31,54,0,0
331397,128017269,2,1271,1271,15.32,0.08,31,54,0,0
331839,128123282,2,1271,1271,15.33,0.08,31,54,0,0
332288,128229965,2,1271,1271,15.34,0.08,31,54,0,0
332732,128337995,2,1271,1271,15.34,0.08,31,54,0,0
333224,128452736,2,1271,1271,15.34,0.08,31,54,0,0
333627,128553134,2,1270,1257,15.35,0.08,31,54,0,0
334112,128669072,2,1257,1271,15.35,0.08,31,54,0,0
334560,128776881,2,1271,1271,15.35,0.08,31,54,0,0
335019,128892726,2,1272,1285,15.35,0.08,31,54,0,0
335473,128998852,2,1227,457,15.36,0,31,54,0,0
335926,129107463,2,443,185,15.37,0.01,31,54,0,0
336419,129223517,2,168,0,15.37,0.01,31,54,0,0
336828,129324230,2,0,0,15.37,0.01,31,54,0,0
337325,129438298,2,0,0,15.37,0.02,31,54,0,0
337734,129539313,2,0,0,15.37,0.01,31,54,0,0
338229,129653433,2,0,0,15.37,0.02,31,54,0,0
338676,129759520,2,0,0,15.38,0.01,31,54,0,0
339127,129869304,2,0,0,15.38,0.02,31,54,0,0
339578,129972012,2,0,0,15.38,0.02,31,54,0,0
340064,130084918,2,0,0,15.38,0.01,31,54,0,0
340528,130199131,2,0,0,15.38,0.01,31,54,0,0
341014,130312563,2,0,0,15.39,0.02,31,54,0,0
341512,130430513,2,0,0,15.39,0.01,31,54,0,0
341962,130539975,2,0,0,15.39,0.02,31,54,0,0
342413,130642542,2,0,0,15.39,0.01,31,54,0,0
342866,130753117,2,0,0,15.39,0.01,31,54,0,0
343319,130861557,2,0,0,15.39,0.01,31,54,0,0
343774,130965480,2,0,0,15.39,0.01,31,54,0,0
344258,131076760,2,0,0,15.39,0.02,31,54,0,0
344757,131192986,2,0,0,15.4,0.02,31,54,0,0
345206,131301007,2,0,0,15.39,0.02,31,54,0,0
345661,131410328,2,0,0,15.4,0.02,31,54,0,0
346111,131518091,2,0,0,15.4,0.02,30,54,0,0
346562,131622326,2,0,0,15.4,0.02,30,54,0,0
347012,131730234,2,0,0,15.4,0.02,30,54,0,0
347964,131952900,2,0,0,15.41,0.02,31,54,0,0
