LineNo,TimeUS,Instance,RPM,RawRPM,Volt,Curr,Temp,CTot,MotTemp,Err
1882,1.3424e+07,2,0,0,15.77,0.02,28,0,0,0
2296,1.3529e+07,2,0,0,15.77,0.02,28,0,0,0
2752,1.3646e+07,2,0,0,15.77,0.02,28,0,0,0
3164,1.3752e+07,2,0,0,15.77,0.02,28,0,0,0
3581,1.3857e+07,2,0,0,15.77,0.02,28,0,0,0
3993,1.3962e+07,2,0,0,15.77,0.02,28,0,0,0
4408,1.4069e+07,2,0,0,15.77,0.02,28,0,0,0
4855,1.418e+07,2,0,0,15.76,0.02,28,0,0,0
5265,1.4283e+07,2,0,0,15.77,0.02,28,0,0,0
5721,1.4403e+07,2,0,0,15.77,0.02,28,0,0,0
6097,1.4498e+07,2,0,0,15.77,0.02,28,0,0,0
6546,1.4611e+07,2,0,0,15.77,0.02,28,0,0,0
6958,1.4713e+07,2,0,0,15.77,0.02,28,0,0,0
7370,1.4821e+07,2,0,0,15.77,0.02,28,0,0,0
7826,1.4935e+07,2,0,0,15.77,0.02,28,0,0,0
8242,1.5043e+07,2,0,0,15.77,0.02,28,0,0,0
8654,1.5145e+07,2,0,0,15.77,0.03,28,0,0,0
9066,1.5251e+07,2,0,0,15.77,0.03,28,0,0,0
9482,1.5358e+07,2,0,0,15.77,0.02,28,0,0,0
9936,1.5469e+07,2,0,0,15.77,0.02,28,0,0,0
10345,1.5572e+07,2,0,0,15.77,0.02,28,0,0,0
11078,1.5794e+07,2,0,0,15.77,0.02,28,0,0,0
11495,1.5897e+07,2,0,0,15.77,0.02,28,0,0,0
11908,1.6002e+07,2,0,0,15.77,0.02,28,0,0,0
12366,1.6116e+07,2,0,0,15.77,0.02,28,0,0,0
12782,1.6221e+07,2,0,0,15.77,0.02,28,0,0,0
13232,1.6334e+07,2,0,0,15.77,0.02,28,0,0,0
13640,1.6438e+07,2,0,0,15.77,0.02,28,0,0,0
14098,1.6552e+07,2,0,0,15.77,0.02,28,0,0,0
14509,1.6654e+07,2,0,0,15.77,0.02,28,0,0,0
14923,1.6762e+07,2,0,0,15.77,0.02,28,0,0,0
15341,1.6868e+07,2,0,0,15.77,0.02,28,0,0,0
15755,1.6972e+07,2,0,0,15.77,0.02,28,0,0,0
16204,1.7085e+07,2,0,0,15.77,0.02,28,0,0,0
16617,1.7189e+07,2,0,0,15.77,0.02,28,0,0,0
17071,1.7304e+07,2,0,0,15.77,0.02,28,0,0,0
17480,1.7409e+07,2,0,0,15.77,0.02,28,0,0,0
17888,1.7511e+07,2,0,0,15.77,0.02,28,0,0,0
18319,1.7624e+07,2,0,0,15.77,0.02,28,0,0,0
18764,1.7733e+07,2,0,0,15.77,0.02,28,0,0,0
19173,1.7835e+07,2,0,0,15.77,0.02,28,0,0,0
19593,1.7943e+07,2,0,0,15.77,0.02,28,0,0,0
20051,1.8059e+07,2,0,0,15.77,0.02,28,0,0,0
20464,1.8164e+07,2,0,0,15.77,0.02,28,0,0,0
20883,1.827e+07,2,0,0,15.77,0.02,28,0,0,0
21297,1.8376e+07,2,0,0,15.77,0.02,28,0,0,0
21747,1.849e+07,2,0,0,15.77,0.02,28,0,0,0
22161,1.8595e+07,2,0,0,15.77,0.02,28,0,0,0
22989,1.881e+07,2,0,0,15.78,0.02,28,0,0,0
23847,1.9024e+07,2,0,0,15.78,0.02,28,0,0,0
24300,1.9139e+07,2,0,0,15.77,0.02,28,0,0,0
24713,1.9243e+07,2,0,0,15.77,0.02,28,0,0,0
25125,1.9349e+07,2,0,0,15.78,0.03,28,0,0,0
25581,1.9463e+07,2,0,0,15.77,0.02,28,0,0,0
25993,1.957e+07,2,0,0,15.77,0.02,28,0,0,0
26409,1.9674e+07,2,0,0,15.77,0.02,28,0,0,0
26824,1.9781e+07,2,0,0,15.77,0.02,28,0,0,0
27280,1.9894e+07,2,0,0,15.78,0.02,28,0,0,0
27734,2.0009e+07,2,0,0,15.77,0.02,28,0,0,0
28148,2.0113e+07,2,0,0,15.77,0.02,28,0,0,0
28566,2.022e+07,2,0,0,15.77,0.02,28,0,0,0
29025,2.0335e+07,2,0,0,15.77,0.02,28,0,0,0
29434,2.0437e+07,2,0,0,15.77,0.02,28,0,0,0
29883,2.0548e+07,2,0,0,15.77,0.02,28,0,0,0
30295,2.0657e+07,2,0,0,15.77,0.02,28,0,0,0
30747,2.0772e+07,2,0,0,15.77,0.02,28,0,0,0
31159,2.0875e+07,2,0,0,15.77,0.02,28,0,0,0
31578,2.0983e+07,2,0,0,15.77,0.02,28,0,0,0
31996,2.109e+07,2,0,0,15.77,0.02,28,0,0,0
32407,2.1192e+07,2,0,0,15.77,0.02,28,0,0,0
32869,2.1307e+07,2,0,0,15.78,0.02,28,0,0,0
33284,2.1412e+07,2,0,0,15.77,0.02,28,0,0,0
33705,2.1522e+07,2,0,0,15.77,0.02,28,0,0,0
34118,2.163e+07,2,0,0,15.77,0.02,28,0,0,0
34536,2.1734e+07,2,0,0,15.77,0.02,28,0,0,0
34965,2.1848e+07,2,0,0,15.77,0.02,28,0,0,0
35380,2.195e+07,2,0,0,15.77,0.02,28,0,0,0
35832,2.2065e+07,2,0,0,15.77,0.02,28,0,0,0
36248,2.217e+07,2,0,0,15.77,0.02,28,0,0,0
36674,2.2277e+07,2,0,0,15.77,0.02,28,0,0,0
37121,2.239e+07,2,0,0,15.77,0.02,28,0,0,0
37536,2.2494e+07,2,0,0,15.77,0.02,28,0,0,0
37944,2.2599e+07,2,0,0,15.77,0.02,28,0,0,0
38399,2.2711e+07,2,0,0,15.77,0.02,28,0,0,0
38812,2.2821e+07,2,0,0,15.77,0.02,28,0,0,0
39228,2.2928e+07,2,0,0,15.77,0.02,28,0,0,0
39636,2.3031e+07,2,0,0,15.77,0.02,28,0,0,0
40087,2.3145e+07,2,0,0,15.77,0.02,28,0,0,0
40505,2.325e+07,2,0,0,15.78,0.02,28,0,0,0
40920,2.3354e+07,2,0,0,15.77,0.02,28,0,0,0
41377,2.3467e+07,2,0,0,15.77,0.02,28,0,0,0
41789,2.3574e+07,2,0,0,15.77,0.02,28,0,0,0
42201,2.368e+07,2,0,0,15.77,0.02,28,0,0,0
42660,2.3796e+07,2,0,0,15.77,0.02,28,0,0,0
43070,2.3901e+07,2,0,0,15.77,0.02,28,0,0,0
43483,2.4007e+07,2,0,0,15.77,0.02,28,0,0,0
43932,2.4115e+07,2,0,0,15.77,0.02,28,0,0,0
44382,2.4229e+07,2,0,0,15.77,0.02,28,0,0,0
45249,2.4447e+07,2,0,0,15.77,0.02,28,0,0,0
45664,2.4551e+07,2,0,0,15.78,0.02,28,0,0,0
46068,2.4653e+07,2,0,0,15.77,0.02,28,0,0,0
46526,2.4767e+07,2,0,0,15.77,0.02,28,0,0,0
46944,2.4875e+07,2,0,0,15.77,0.02,28,0,0,0
47354,2.4978e+07,2,0,0,15.77,0.02,28,0,0,0
48218,2.5199e+07,2,0,0,15.77,0.02,28,0,0,0
48632,2.5305e+07,2,0,0,15.77,0.02,28,0,0,0
49083,2.5418e+07,2,0,0,15.77,0.02,28,0,0,0
49500,2.5524e+07,2,0,0,15.77,0.02,28,0,0,0
49913,2.5628e+07,2,0,0,15.77,0.02,28,0,0,0
50329,2.5735e+07,2,0,0,15.77,0.02,28,0,0,0
50725,2.5848e+07,2,0,0,15.77,0.02,28,0,0,0
51142,2.5956e+07,2,0,0,15.77,0.02,28,0,0,0
51556,2.6062e+07,2,0,0,15.77,0.02,28,0,0,0
51968,2.6165e+07,2,0,0,15.77,0.02,28,0,0,0
52426,2.6282e+07,2,0,0,15.77,0.02,28,0,0,0
52843,2.6387e+07,2,0,0,15.77,0.02,28,0,0,0
53254,2.649e+07,2,0,0,15.77,0.02,28,0,0,0
53667,2.6596e+07,2,0,0,15.77,0.03,28,0,0,0
54121,2.6709e+07,2,0,0,15.77,0.02,28,0,0,0
54536,2.6817e+07,2,0,0,15.77,0.02,28,0,0,0
54956,2.6922e+07,2,0,0,15.77,0.02,28,0,0,0
55412,2.7037e+07,2,0,0,15.77,0.02,28,0,0,0
55821,2.7141e+07,2,0,0,15.77,0.02,28,0,0,0
56170,6.0586e+07,2,0,0,15.77,0.02,28,0,0,0
56215,6.0596e+07,2,0,0,15.77,0.02,28,0,0,0
56632,6.0701e+07,2,0,0,15.77,0.02,28,0,0,0
57050,6.0802e+07,2,0,0,15.77,0.02,28,0,0,0
57547,6.0916e+07,2,0,0,15.77,0.02,28,0,0,0
58000,6.1018e+07,2,0,0,15.78,0.02,28,0,0,0
58454,6.1124e+07,2,0,0,15.77,0.02,28,0,0,0
58905,6.1226e+07,2,0,0,15.78,0.02,28,0,0,0
59401,6.134e+07,2,0,0,15.77,0.02,28,0,0,0
59857,6.1442e+07,2,0,0,15.78,0.02,28,0,0,0
60346,6.155e+07,2,0,0,15.77,0.02,28,0,0,0
60800,6.1654e+07,2,0,0,15.77,0.03,28,0,0,0
61299,6.1772e+07,2,0,0,15.77,0.03,28,0,0,0
61759,6.1881e+07,2,0,0,15.77,0.02,28,0,0,0
62176,6.1976e+07,2,0,0,15.77,0.02,28,0,0,0
62627,6.2081e+07,2,0,0,15.77,0.02,28,0,0,0
63130,6.2197e+07,2,0,0,15.77,0.03,28,0,0,0
63583,6.2302e+07,2,0,0,15.77,0.03,28,0,0,0
64041,6.2406e+07,2,0,0,15.77,0.02,28,0,0,0
64536,6.2519e+07,2,0,0,15.77,0.02,28,0,0,0
64989,6.262e+07,2,0,0,15.77,0.02,28,0,0,0
65483,6.2734e+07,2,16,200,15.76,0.03,28,0,0,0
65935,6.2836e+07,2,231,628,15.76,0.09,28,0,0,0
66389,6.294e+07,2,644,1028,15.75,0.15,28,0,0,0
66886,6.3052e+07,2,1043,1200,15.76,0.11,28,0,0,0
67336,6.3156e+07,2,1202,1242,15.76,0.1,28,0,0,0
67711,6.3268e+07,2,1245,1285,15.76,0.1,28,0,0,0
68169,6.3373e+07,2,1285,1285,15.76,0.1,28,0,0,0
68583,6.3471e+07,2,1285,1300,15.76,0.09,28,0,0,0
69084,6.3584e+07,2,1299,1285,15.76,0.09,28,0,0,0
69534,6.3689e+07,2,1285,1300,15.76,0.09,28,0,0,0
70031,6.3801e+07,2,1300,1300,15.76,0.09,28,0,0,0
70444,6.3898e+07,2,1300,1300,15.76,0.09,28,0,0,0
70941,6.401e+07,2,1300,1300,15.76,0.09,28,0,0,0
71390,6.4113e+07,2,1300,1300,15.76,0.09,28,0,0,0
71889,6.4225e+07,2,1300,1300,15.76,0.09,28,0,0,0
72339,6.4326e+07,2,1300,1300,15.76,0.09,28,0,0,0
72841,6.4441e+07,2,1300,1300,15.76,0.09,28,0,0,0
73294,6.4546e+07,2,1299,1285,15.76,0.09,28,0,0,0
73749,6.4647e+07,2,1286,1300,15.76,0.09,28,0,0,0
74209,6.4754e+07,2,1299,1285,15.76,0.09,28,0,0,0
74667,6.486e+07,2,1285,1285,15.76,0.09,28,0,0,0
75129,6.4972e+07,2,1286,1300,15.76,0.09,29,0,0,0
75578,6.5079e+07,2,1300,1300,15.76,0.09,28,0,0,0
76072,6.5192e+07,2,1300,1300,15.76,0.1,28,0,0,0
76522,6.53e+07,2,1298,1285,15.76,0.09,28,0,0,0
76980,6.5404e+07,2,1285,1300,15.75,0.1,28,0,0,0
77432,6.5511e+07,2,1300,1300,15.76,0.09,29,0,0,0
77931,6.5623e+07,2,1300,1300,15.75,0.09,29,0,0,0
78383,6.573e+07,2,1300,1300,15.76,0.09,28,0,0,0
78839,6.5834e+07,2,1300,1300,15.75,0.09,28,0,0,0
79295,6.5944e+07,2,1298,1285,15.76,0.09,28,0,0,0
79750,6.6047e+07,2,1285,1285,15.75,0.09,28,0,0,0
80200,6.6153e+07,2,1285,1285,15.76,0.09,28,0,0,0
80696,6.6267e+07,2,1285,1285,15.75,0.1,28,0,0,0
81120,6.6374e+07,2,1285,1285,15.76,0.09,29,0,0,0
81567,6.6481e+07,2,1285,1285,15.76,0.1,29,0,0,0
82064,6.6593e+07,2,1285,1285,15.76,0.09,28,0,0,0
82517,6.6697e+07,2,1285,1285,15.75,0.09,28,0,0,0
82937,6.6799e+07,2,1285,1285,15.76,0.09,28,0,0,0
83431,6.691e+07,2,1285,1285,15.76,0.1,28,0,0,0
83929,6.7024e+07,2,1285,1285,15.76,0.1,28,0,0,0
84383,6.7131e+07,2,1287,1314,15.75,0.14,28,0,0,0
84835,6.7235e+07,2,1333,1600,15.71,0.35,29,0,0,0
85261,6.7344e+07,2,1633,2457,15.67,0.86,29,0,0,0
85715,6.745e+07,2,2470,3000,15.62,1.12,29,0,0,0
86206,6.7564e+07,2,3032,3528,15.51,1.57,29,0,0,0
86664,6.767e+07,2,3555,4214,15.37,2.24,29,0,0,0
87115,6.7777e+07,2,4240,4800,15.3,3,28,0,0,0
87570,6.7889e+07,2,4807,5314,15.2,3.6,29,0,0,0
88067,6.8004e+07,2,5364,5857,15.08,3.97,29,0,0,0
88523,6.8116e+07,2,5881,6142,15.15,4.03,29,0,0,0
88976,6.8225e+07,2,6138,6100,15.22,3.91,29,1,0,0
89390,6.8327e+07,2,6096,6028,15.2,3.76,29,1,0,0
89848,6.8437e+07,2,6026,5985,15.23,3.84,29,1,0,0
90342,6.8557e+07,2,6011,6257,15.22,4.25,28,1,0,0
90764,6.866e+07,2,6255,6228,15.2,4.74,29,1,0,0
91212,6.8767e+07,2,6239,6471,15.17,4.8,29,1,0,0
91665,6.8876e+07,2,6470,6428,15.19,4.81,29,1,0,0
92162,6.8993e+07,2,6424,6385,15.15,4.88,29,2,0,0
92568,6.9092e+07,2,6388,6428,15.19,4.68,29,2,0,0
93023,6.9198e+07,2,6433,6557,15.16,4.5,29,2,0,0
93469,6.9306e+07,2,6527,6142,15.21,3.48,29,2,0,0
93966,6.9423e+07,2,6124,5942,15.22,2.82,29,2,0,0
94378,6.9526e+07,2,5931,5657,15.22,2.55,29,2,0,0
94831,6.963e+07,2,5655,5600,15.26,2.74,29,2,0,0
95322,6.9746e+07,2,5609,5771,15.22,3.33,29,2,0,0
96237,6.9967e+07,2,5766,5571,15.14,2.81,29,2,0,0
96690,7.0079e+07,2,5580,5714,15.19,3.29,29,3,0,0
97193,7.0196e+07,2,5714,5714,15.14,3.16,29,3,0,0
97600,7.0298e+07,2,5731,5900,15.09,3.71,29,3,0,0
98057,7.0405e+07,2,5907,6100,15.14,3.9,29,3,0,0
98511,7.0521e+07,2,6104,6142,15.07,4.19,29,3,0,0
98912,7.0621e+07,2,6138,6057,15.1,3.82,29,3,0,0
99860,7.0854e+07,2,6052,5957,15.11,3.95,29,3,0,0
1.0026e+05,7.0955e+07,2,5954,5928,15.23,3.73,29,3,0,0
1.0071e+05,7.1064e+07,2,5943,6100,15.2,3.57,29,4,0,0
1.0111e+05,7.1166e+07,2,6089,5957,15.24,3.65,29,4,0,0
1.0156e+05,7.1279e+07,2,5946,5857,15.22,3.11,29,4,0,0
1.0202e+05,7.1391e+07,2,5841,5685,15.23,3.05,29,4,0,0
1.0246e+05,7.1502e+07,2,5685,5685,15.14,3,29,4,0,0
1.0287e+05,7.1608e+07,2,5694,5785,15.13,3.36,29,4,0,0
1.0332e+05,7.1718e+07,2,5768,5600,15.19,2.74,29,4,0,0
1.0415e+05,7.1934e+07,2,5598,5557,15.15,2.85,29,4,0,0
1.046e+05,7.2041e+07,2,5558,5585,15.2,2.69,29,4,0,0
1.0504e+05,7.2151e+07,2,5578,5485,15.14,2.57,30,5,0,0
1.0549e+05,7.2266e+07,2,5493,5542,15.18,2.76,30,5,0,0
1.0589e+05,7.2362e+07,2,5540,5428,15.1,2.82,30,5,0,0
1.0638e+05,7.2483e+07,2,5453,5814,15.13,3.41,30,5,0,0
1.0723e+05,7.269e+07,2,5817,5928,15.14,3.3,30,5,0,0
1.0768e+05,7.2801e+07,2,5924,5885,15.19,3.61,30,5,0,0
1.0813e+05,7.2912e+07,2,5910,6114,15.09,3.97,30,5,0,0
1.0854e+05,7.301e+07,2,6114,6128,15.16,3.71,30,5,0,0
1.0898e+05,7.3124e+07,2,6108,5914,15.11,3.64,30,5,0,0
1.0943e+05,7.3229e+07,2,5917,6014,15.05,3.59,30,6,0,0
1.0992e+05,7.335e+07,2,6015,6028,15.1,3.56,30,6,0,0
1.1036e+05,7.3455e+07,2,6032,6100,15.13,3.4,30,6,0,0
1.1081e+05,7.3566e+07,2,6093,6028,15.13,3.33,30,6,0,0
1.1122e+05,7.3674e+07,2,6023,5971,15.17,3.41,30,6,0,0
1.1208e+05,7.389e+07,2,5969,5928,15.12,3.16,30,6,0,0
1.1253e+05,7.4e+07,2,5923,5871,15.19,3.17,30,6,0,0
1.1293e+05,7.4101e+07,2,5875,5985,15.11,3.27,30,6,0,0
1.1342e+05,7.4215e+07,2,5990,6071,15.14,3.48,30,6,0,0
1.1382e+05,7.4318e+07,2,6067,5857,15.12,3.35,30,7,0,0
1.1431e+05,7.4436e+07,2,5874,6042,15.11,3.32,30,7,0,0
1.1471e+05,7.4535e+07,2,6037,5942,15.12,3.25,30,7,0,0
1.1521e+05,7.4654e+07,2,5937,5885,15.1,3.35,30,7,0,0
1.1565e+05,7.4761e+07,2,5900,6042,15.09,3.33,30,7,0,0
1.161e+05,7.4871e+07,2,6032,5914,15.13,3.34,30,7,0,0
1.1655e+05,7.4982e+07,2,5903,5828,15.19,3.16,30,7,0,0
1.1699e+05,7.5091e+07,2,5846,5957,15.12,3.39,30,7,0,0
1.174e+05,7.5186e+07,2,5962,6100,15.08,3.65,30,7,0,0
1.1785e+05,7.5304e+07,2,6113,6200,15,3.91,30,7,0,0
1.183e+05,7.5409e+07,2,6186,6042,15.06,3.96,30,8,0,0
1.1874e+05,7.5517e+07,2,6042,6100,15.05,3.94,30,8,0,0
1.1923e+05,7.5639e+07,2,6121,6257,15,4.05,30,8,0,0
1.1964e+05,7.5739e+07,2,6252,6214,14.94,4.17,30,8,0,0
1.2008e+05,7.5852e+07,2,6216,6242,15.04,3.81,30,8,0,0
1.2049e+05,7.5957e+07,2,6240,6228,14.88,4.36,30,8,0,0
1.2095e+05,7.6071e+07,2,6228,6228,15.02,4.31,30,8,0,0
1.2135e+05,7.6171e+07,2,6202,5985,15.08,3.38,30,8,0,0
1.2184e+05,7.6292e+07,2,5972,5857,15.04,3.24,30,9,0,0
1.2224e+05,7.6388e+07,2,5855,5771,15.08,3.19,30,9,0,0
1.2272e+05,7.6507e+07,2,5781,5885,14.97,3.75,30,9,0,0
1.2313e+05,7.6608e+07,2,5888,6057,15,4.1,30,9,0,0
1.2358e+05,7.6723e+07,2,6057,6057,15.04,3.69,30,9,0,0
1.2443e+05,7.6933e+07,2,6056,5957,15.09,3.56,30,9,0,0
1.2493e+05,7.7049e+07,2,5957,6028,15.15,3.28,30,9,0,0
1.2537e+05,7.7164e+07,2,6018,5942,15.07,3.06,30,9,0,0
1.2623e+05,7.7373e+07,2,5937,5771,15.1,2.94,30,10,0,0
1.2668e+05,7.749e+07,2,5760,5671,15.16,2.74,30,10,0,0
1.2713e+05,7.7594e+07,2,5663,5585,15.08,2.88,30,10,0,0
1.2802e+05,7.7811e+07,2,5582,5514,15.13,3.03,30,10,0,0
1.2846e+05,7.7922e+07,2,5524,5642,15.11,2.99,30,10,0,0
1.2888e+05,7.8021e+07,2,5641,5585,15.13,2.7,30,10,0,0
1.2932e+05,7.8135e+07,2,5589,5628,15.05,2.9,30,10,0,0
1.2977e+05,7.8242e+07,2,5640,5814,15.07,3.42,30,10,0,0
1.3018e+05,7.8346e+07,2,5815,5842,15.03,3.73,30,10,0,0
1.3066e+05,7.8456e+07,2,5839,5800,14.99,3.67,30,10,0,0
1.3155e+05,7.868e+07,2,5816,6171,15.07,4.12,30,11,0,0
1.3241e+05,7.8893e+07,2,6161,5885,15.07,3.03,30,11,0,0
1.3334e+05,7.9121e+07,2,5875,5657,15.1,2.57,30,11,0,0
1.3375e+05,7.9221e+07,2,5639,5400,15.09,2.43,30,11,0,0
1.342e+05,7.9331e+07,2,5393,5328,15.11,2.38,30,11,0,0
1.3461e+05,7.9433e+07,2,5329,5385,15.1,2.47,30,11,0,0
1.3505e+05,7.954e+07,2,5398,5600,15.05,2.98,30,11,0,0
1.355e+05,7.9649e+07,2,5609,5700,15.08,3.25,30,11,0,0
1.3594e+05,7.9756e+07,2,5709,5842,15.05,3.41,30,12,0,0
1.364e+05,7.9866e+07,2,5843,5857,15.01,3.38,30,12,0,0
1.3684e+05,7.9978e+07,2,5872,6028,15.03,3.64,30,12,0,0
1.3724e+05,8.0082e+07,2,6021,5857,15.02,3.41,30,12,0,0
1.3769e+05,8.0187e+07,2,5858,5942,15.02,3.54,30,12,0,0
1.3814e+05,8.0301e+07,2,5942,5942,15.08,3.18,30,12,0,0
1.3859e+05,8.0409e+07,2,5938,5771,15.04,3.11,30,12,0,0
1.3908e+05,8.0528e+07,2,5791,6014,15.01,3.5,30,12,0,0
1.3948e+05,8.0627e+07,2,6017,6100,15.05,3.61,30,12,0,0
1.3993e+05,8.0737e+07,2,6097,5985,15.04,3.44,30,13,0,0
1.4038e+05,8.0846e+07,2,5981,5942,15.06,3.4,30,13,0,0
1.4082e+05,8.0953e+07,2,5951,6085,15.05,3.55,30,13,0,0
1.4127e+05,8.1065e+07,2,6088,6171,15.02,3.29,30,13,0,0
1.4172e+05,8.1175e+07,2,6151,5957,15.06,3.06,30,13,0,0
1.4212e+05,8.1276e+07,2,5958,6042,15.07,3.19,30,13,0,0
1.4257e+05,8.1386e+07,2,6041,5985,15,3.35,30,13,0,0
1.4301e+05,8.1498e+07,2,5978,5900,14.98,3.07,30,13,0,0
1.4346e+05,8.1605e+07,2,5911,6057,15.03,3.62,30,13,0,0
1.4387e+05,8.171e+07,2,6058,6142,15.09,3.05,30,13,0,0
1.4432e+05,8.1818e+07,2,6137,5885,15.04,3.14,30,14,0,0
1.4476e+05,8.1927e+07,2,5887,6014,15.08,3.05,30,14,0,0
1.4522e+05,8.2035e+07,2,6014,6071,15.01,3.42,30,14,0,0
1.4566e+05,8.2148e+07,2,6056,5857,15,3.1,30,14,0,0
1.4611e+05,8.2261e+07,2,5876,6042,15.02,3.52,30,14,0,0
1.4656e+05,8.2367e+07,2,6049,6157,15.03,3.67,30,14,0,0
1.47e+05,8.2476e+07,2,6144,6014,15.02,3.5,30,14,0,0
1.4741e+05,8.2577e+07,2,6015,6114,15,3.88,30,14,0,0
1.479e+05,8.2694e+07,2,6123,6314,14.9,3.98,30,14,0,0
1.4831e+05,8.2799e+07,2,6310,6128,15,3.59,30,14,0,0
1.4876e+05,8.291e+07,2,6131,6285,15,3.89,30,15,0,0
1.4921e+05,8.3021e+07,2,6283,6185,14.95,3.26,30,15,0,0
1.4966e+05,8.3136e+07,2,6174,6042,15.03,3.22,30,15,0,0
1.5011e+05,8.3247e+07,2,6039,6014,15,3.56,30,15,0,0
1.5052e+05,8.3351e+07,2,6017,6100,15.05,3.25,30,15,0,0
1.5097e+05,8.3463e+07,2,6085,5942,15.02,3.37,30,15,0,0
1.5139e+05,8.357e+07,2,5955,6085,15.03,3.19,30,15,0,0
1.5179e+05,8.3674e+07,2,6080,5871,15,3.19,30,15,0,0
1.5224e+05,8.3783e+07,2,5874,5942,15,2.76,30,15,0,0
1.5268e+05,8.3891e+07,2,5935,5814,15.01,3.01,30,15,0,0
1.5314e+05,8.4006e+07,2,5796,5528,15.05,2.26,30,16,0,0
1.5358e+05,8.4114e+07,2,5536,5728,15.05,3.04,30,16,0,0
1.5403e+05,8.4223e+07,2,5752,6085,14.98,3.73,30,16,0,0
1.5448e+05,8.4335e+07,2,6041,5628,15.04,1.75,30,16,0,0
1.5492e+05,8.4441e+07,2,5620,5414,15,2.69,30,16,0,0
1.554e+05,8.4555e+07,2,5426,5557,14.95,2.62,30,16,0,0
1.5586e+05,8.4664e+07,2,5570,5714,15.01,3.29,30,16,0,0
1.563e+05,8.4774e+07,2,5728,5942,14.96,3.31,30,16,0,0
1.5674e+05,8.489e+07,2,5938,5885,15.01,3.38,30,16,0,0
1.576e+05,8.5104e+07,2,5887,5942,14.94,3.46,30,16,0,0
1.5801e+05,8.5206e+07,2,5940,5871,14.91,3.47,30,17,0,0
1.5891e+05,8.5435e+07,2,5873,5928,14.95,3.43,30,17,0,0
1.598e+05,8.5649e+07,2,5928,5971,14.89,3.58,30,17,0,0
1.6025e+05,8.5762e+07,2,5963,5885,14.84,3.6,30,17,0,0
1.607e+05,8.5882e+07,2,5891,5928,14.91,3.23,30,17,0,0
1.611e+05,8.5982e+07,2,5913,5800,14.97,3.02,30,17,0,0
1.6151e+05,8.6082e+07,2,5793,5671,14.97,3.1,30,17,0,0
1.6197e+05,8.6194e+07,2,5674,5728,14.95,3.4,30,17,0,0
1.6237e+05,8.6297e+07,2,5733,5928,14.95,3.24,30,18,0,0
1.6282e+05,8.6417e+07,2,5894,5628,15.04,2.69,30,18,0,0
1.6327e+05,8.6523e+07,2,5620,5542,15.04,2.81,30,18,0,0
1.6372e+05,8.6631e+07,2,5555,5671,15,2.64,30,18,0,0
1.6414e+05,8.6739e+07,2,5671,5671,15.04,2.65,30,18,0,0
1.6459e+05,8.6847e+07,2,5666,5571,15.01,2.72,30,18,0,0
1.6504e+05,8.6966e+07,2,5574,5600,15,2.62,30,18,0,0
1.6549e+05,8.7071e+07,2,5607,5671,15,2.98,30,18,0,0
1.6593e+05,8.7182e+07,2,5679,5800,14.99,2.89,30,18,0,0
1.6678e+05,8.7394e+07,2,5801,5828,15.01,2.95,30,18,0,0
1.6722e+05,8.7501e+07,2,5833,5885,14.96,3.02,30,19,0,0
1.6768e+05,8.7615e+07,2,5878,5814,14.98,3.05,30,19,0,0
1.6812e+05,8.772e+07,2,5817,5871,14.97,3.12,30,19,0,0
1.6857e+05,8.7832e+07,2,5871,5871,14.95,3.27,30,19,0,0
1.6893e+05,8.7927e+07,2,5873,5957,14.94,3.37,30,19,0,0
1.6939e+05,8.8038e+07,2,5955,5928,14.94,3.39,30,19,0,0
1.6988e+05,8.8158e+07,2,5923,5871,14.92,3.57,30,19,0,0
1.7029e+05,8.8256e+07,2,5864,5814,14.92,3.53,30,19,0,0
1.7069e+05,8.8357e+07,2,5819,5971,14.98,3.26,30,19,0,0
1.7113e+05,8.8464e+07,2,5971,5971,14.94,3.41,30,19,0,0
1.7162e+05,8.8582e+07,2,5959,5857,14.86,3.47,30,20,0,0
1.725e+05,8.8795e+07,2,5857,5871,14.98,3.52,30,20,0,0
1.7291e+05,8.8901e+07,2,5864,5742,14.92,3.48,30,20,0,0
1.7336e+05,8.9009e+07,2,5744,5914,14.97,3.58,30,20,0,0
1.738e+05,8.9119e+07,2,5912,5814,14.94,3.43,30,20,0,0
1.7473e+05,8.9347e+07,2,5810,5742,14.94,3.03,30,20,0,0
1.7514e+05,8.9448e+07,2,5736,5685,14.96,3.11,30,20,0,0
1.7555e+05,8.9549e+07,2,5685,5742,14.97,3.33,30,20,0,0
1.76e+05,8.9661e+07,2,5746,5842,14.97,3.51,30,21,0,0
1.7649e+05,8.9782e+07,2,5854,5985,14.9,3.5,30,21,0,0
1.769e+05,8.9885e+07,2,5968,5757,14.91,3.4,30,21,0,0
1.7734e+05,8.9994e+07,2,5768,5885,14.91,3.41,30,21,0,0
1.7779e+05,9.0104e+07,2,5888,5957,15,3.49,30,21,0,0
1.7825e+05,9.0217e+07,2,5953,5928,15,3.37,30,21,0,0
1.7865e+05,9.0315e+07,2,5929,6014,14.92,3.48,30,21,0,0
1.7954e+05,9.0532e+07,2,6012,5985,14.94,3.51,30,21,0,0
1.7999e+05,9.0639e+07,2,5977,5900,14.97,3.35,30,22,0,0
1.8044e+05,9.0752e+07,2,5917,6071,14.95,3.21,30,22,0,0
1.8084e+05,9.0849e+07,2,6066,5885,14.92,3.18,30,22,0,0
1.813e+05,9.0964e+07,2,5885,5900,14.97,3.24,30,22,0,0
1.8175e+05,9.1074e+07,2,5900,5914,14.92,3.35,30,22,0,0
1.8223e+05,9.1193e+07,2,5918,5971,14.93,2.95,30,22,0,0
1.8264e+05,9.1297e+07,2,5971,6000,14.92,3.18,30,22,0,0
1.8313e+05,9.1408e+07,2,6000,6000,14.95,3.25,30,22,0,0
1.8353e+05,9.1508e+07,2,5989,5785,14.89,3.17,30,22,0,0
1.8395e+05,9.1613e+07,2,5789,5871,14.88,3.58,30,22,0,0
1.8436e+05,9.1719e+07,2,5877,6000,14.91,3.7,30,22,0,0
1.8481e+05,9.1827e+07,2,6003,6100,14.88,3.7,30,23,0,0
1.8525e+05,9.1937e+07,2,6098,6057,14.83,3.41,30,23,0,0
1.857e+05,9.2044e+07,2,6043,5828,14.88,3.6,30,23,0,0
1.8616e+05,9.2161e+07,2,5841,5985,14.91,3.8,30,23,0,0
1.8664e+05,9.2268e+07,2,5987,6014,14.94,3.55,30,23,0,0
1.8704e+05,9.2368e+07,2,6016,6128,14.93,3.27,30,23,0,0
1.8749e+05,9.2484e+07,2,6095,5828,14.96,2.75,30,23,0,0
1.8794e+05,9.259e+07,2,5829,5857,14.97,2.84,30,23,0,0
1.8838e+05,9.2695e+07,2,5857,5857,14.89,3.18,30,23,0,0
1.8924e+05,9.2911e+07,2,5848,5628,14.91,3.11,30,24,0,0
1.8969e+05,9.302e+07,2,5629,5728,14.97,2.6,30,24,0,0
1.9014e+05,9.3132e+07,2,5730,5757,14.97,2.88,30,24,0,0
1.9058e+05,9.3238e+07,2,5772,5971,14.89,2.94,30,24,0,0
1.9103e+05,9.3351e+07,2,5947,5700,14.89,2.72,30,24,0,0
1.9147e+05,9.3453e+07,2,5701,5785,14.91,2.79,30,24,0,0
1.9192e+05,9.3564e+07,2,5779,5671,14.94,2.69,30,24,0,0
1.9237e+05,9.3678e+07,2,5698,5914,14.92,3.04,30,24,0,0
1.9282e+05,9.3786e+07,2,5913,5900,14.92,3.23,30,24,0,0
1.9323e+05,9.3891e+07,2,5907,6000,14.92,3.23,30,24,0,0
1.9368e+05,9.4e+07,2,5995,5942,14.93,3.11,30,25,0,0
1.9413e+05,9.4113e+07,2,5947,6000,14.88,3.08,30,25,0,0
1.9454e+05,9.4213e+07,2,5987,5742,14.91,2.96,30,25,0,0
1.9498e+05,9.4321e+07,2,5744,5785,14.88,3.08,30,25,0,0
1.9543e+05,9.4433e+07,2,5787,5814,14.91,3.07,30,25,0,0
1.9588e+05,9.4543e+07,2,5816,5857,14.91,3.21,30,25,0,0
1.9629e+05,9.4644e+07,2,5858,6014,14.95,2.98,30,25,0,0
1.9674e+05,9.476e+07,2,5989,5742,14.91,3.08,30,25,0,0
1.9719e+05,9.4871e+07,2,5758,5900,14.85,3.6,30,25,0,0
1.9759e+05,9.4971e+07,2,5900,5914,14.85,3.86,30,25,0,0
1.9805e+05,9.5084e+07,2,5916,6085,14.86,3.75,30,26,0,0
1.9849e+05,9.519e+07,2,6077,5985,14.88,3.17,30,26,0,0
1.9939e+05,9.5411e+07,2,5976,5785,14.92,2.92,30,26,0,0
1.9984e+05,9.5526e+07,2,5792,5900,14.92,2.78,30,26,0,0
2.0029e+05,9.5631e+07,2,5890,5771,14.95,2.94,30,26,0,0
2.007e+05,9.5736e+07,2,5776,5857,14.97,2.7,30,26,0,0
2.0115e+05,9.5846e+07,2,5857,5857,14.86,2.94,30,26,0,0
2.0202e+05,9.6063e+07,2,5859,5971,14.84,3.32,30,26,0,0
2.0247e+05,9.6172e+07,2,5964,5800,14.86,3.22,30,26,0,0
2.034e+05,9.6395e+07,2,5798,5757,14.88,3.19,30,27,0,0
2.0381e+05,9.6504e+07,2,5762,5814,14.88,3.05,30,27,0,0
2.0421e+05,9.6603e+07,2,5815,5914,14.91,3.13,30,27,0,0
2.0466e+05,9.6713e+07,2,5912,5871,14.89,3.19,30,27,0,0
2.0515e+05,9.6828e+07,2,5871,5885,14.93,3.23,30,27,0,0
2.056e+05,9.6939e+07,2,5888,5928,14.94,3.43,30,27,0,0
2.0605e+05,9.7046e+07,2,5928,5942,14.86,3.43,30,27,0,0
2.0694e+05,9.7262e+07,2,5942,5957,14.89,3.35,30,27,0,0
2.0738e+05,9.7381e+07,2,5944,5857,14.88,3.09,30,28,0,0
2.0782e+05,9.7483e+07,2,5864,5942,14.91,3.49,30,28,0,0
2.0827e+05,9.7594e+07,2,5944,5971,14.86,3.51,30,28,0,0
2.0868e+05,9.7694e+07,2,5970,5942,14.86,3.44,30,28,0,0
2.0954e+05,9.7909e+07,2,5945,6100,14.87,3.41,30,28,0,0
2.1003e+05,9.8034e+07,2,6108,6200,14.92,3.45,30,28,0,0
2.1044e+05,9.8136e+07,2,6196,5942,14.84,3.23,30,28,0,0
2.1089e+05,9.8245e+07,2,5937,5885,14.88,3.37,30,28,0,0
2.1133e+05,9.8357e+07,2,5886,5900,14.91,3.45,30,28,0,0
2.1178e+05,9.8468e+07,2,5910,6142,14.91,3.62,30,29,0,0
2.1222e+05,9.8574e+07,2,6138,6100,14.85,3.72,30,29,0,0
2.1262e+05,9.8678e+07,2,6095,6014,14.9,3.75,30,29,0,0
2.1307e+05,9.8786e+07,2,6019,6157,14.87,3.88,30,29,0,0
2.1352e+05,9.8896e+07,2,6156,6128,14.91,3.82,30,29,0,0
2.14e+05,9.9015e+07,2,6125,6100,14.86,3.75,30,29,0,0
2.1489e+05,9.923e+07,2,6100,6100,14.94,3.52,30,29,0,0
2.153e+05,9.9333e+07,2,6098,5971,14.88,3.56,30,29,0,0
2.1574e+05,9.9438e+07,2,5973,6071,14.88,3.78,30,30,0,0
2.1619e+05,9.9549e+07,2,6061,5871,14.91,3.51,30,30,0,0
2.1664e+05,9.9661e+07,2,5873,5900,14.91,3.45,30,30,0,0
2.1708e+05,9.977e+07,2,5915,6071,14.94,3.52,31,30,0,0
2.1753e+05,9.9881e+07,2,6054,5857,14.93,3.44,30,30,0,0
2.1798e+05,9.9991e+07,2,5870,6014,14.91,3.7,30,30,0,0
2.1839e+05,1.0009e+08,2,6008,5885,14.89,3.23,30,30,0,0
2.1931e+05,1.0031e+08,2,5882,5828,14.95,3.47,30,30,0,0
2.1975e+05,1.0042e+08,2,5847,6100,14.95,3.65,31,30,0,0
2.202e+05,1.0053e+08,2,6088,5857,14.95,3.17,31,31,0,0
2.2065e+05,1.0064e+08,2,5873,6100,14.95,4.27,31,31,0,0
2.2109e+05,1.0074e+08,2,6103,6357,14.95,4.33,31,31,0,0
2.2158e+05,1.0086e+08,2,6365,6457,14.92,4.33,31,31,0,0
2.2198e+05,1.0096e+08,2,6449,6171,14.89,3.58,31,31,0,0
2.2244e+05,1.0108e+08,2,6158,6057,14.92,3.21,30,31,0,0
2.2289e+05,1.0118e+08,2,6039,5857,14.91,2.83,31,31,0,0
2.2329e+05,1.0129e+08,2,5868,6085,14.89,3.79,31,31,0,0
2.2374e+05,1.0139e+08,2,6085,6100,14.89,3.53,30,31,0,0
2.2418e+05,1.0151e+08,2,6107,6185,14.92,3.06,31,32,0,0
2.2463e+05,1.0162e+08,2,6163,5957,14.92,3.03,31,32,0,0
2.2507e+05,1.0172e+08,2,5949,5857,14.94,2.91,31,32,0,0
2.2553e+05,1.0183e+08,2,5862,5942,14.86,3.38,31,32,0,0
2.2597e+05,1.0194e+08,2,5946,6028,14.9,3.59,31,32,0,0
2.2642e+05,1.0205e+08,2,6029,6128,14.91,3.27,31,32,0,0
2.2687e+05,1.0216e+08,2,6123,6057,14.88,3.63,31,32,0,0
2.2731e+05,1.0227e+08,2,6072,6300,14.92,3.92,30,32,0,0
2.2776e+05,1.0239e+08,2,6313,6457,14.92,4.17,31,32,0,0
2.2821e+05,1.0249e+08,2,6450,6357,14.91,3.58,31,33,0,0
2.2866e+05,1.026e+08,2,6348,6242,14.91,3.83,31,33,0,0
2.2907e+05,1.0271e+08,2,6239,6185,14.82,3.66,31,33,0,0
2.2951e+05,1.0282e+08,2,6181,6100,14.9,3.55,31,33,0,0
2.2996e+05,1.0293e+08,2,6087,5928,14.89,3.31,31,33,0,0
2.3041e+05,1.0303e+08,2,5944,6257,14.92,3.44,31,33,0,0
2.3086e+05,1.0315e+08,2,6244,6100,14.87,3.09,31,33,0,0
2.3127e+05,1.0325e+08,2,6104,6185,14.88,3.39,31,33,0,0
2.3171e+05,1.0336e+08,2,6171,5900,14.86,2.89,31,33,0,0
2.3216e+05,1.0347e+08,2,5898,5885,14.94,3.19,31,33,0,0
2.3257e+05,1.0358e+08,2,5894,6114,14.87,3.33,31,34,0,0
2.3302e+05,1.0369e+08,2,6094,5885,14.88,3.3,31,34,0,0
2.3346e+05,1.038e+08,2,5893,6000,14.83,3.45,31,34,0,0
2.3391e+05,1.0391e+08,2,5987,5857,14.88,3.21,31,34,0,0
2.3432e+05,1.0401e+08,2,5858,5885,14.88,3.49,31,34,0,0
2.3476e+05,1.0412e+08,2,5887,5942,14.89,3.09,31,34,0,0
2.3521e+05,1.0423e+08,2,5939,5885,14.85,3.13,31,34,0,0
2.3566e+05,1.0434e+08,2,5871,5728,14.91,2.94,31,34,0,0
2.361e+05,1.0445e+08,2,5735,5814,14.86,3.31,31,34,0,0
2.3651e+05,1.0456e+08,2,5818,5928,14.86,3.39,31,34,0,0
2.3696e+05,1.0466e+08,2,5925,5757,14.88,3.24,31,35,0,0
2.374e+05,1.0477e+08,2,5757,5757,14.91,2.97,31,35,0,0
2.3788e+05,1.0489e+08,2,5756,5742,14.94,2.99,31,35,0,0
2.3833e+05,1.0499e+08,2,5748,5885,14.9,3.05,31,35,0,0
2.3874e+05,1.051e+08,2,5887,5928,14.91,2.65,31,35,0,0
2.3922e+05,1.0522e+08,2,5916,5785,14.92,2.54,31,35,0,0
2.3964e+05,1.0533e+08,2,5755,5500,14.88,2.64,31,35,0,0
2.4009e+05,1.0544e+08,2,5509,5571,14.91,2.53,31,35,0,0
2.4049e+05,1.0553e+08,2,5571,5600,14.87,2.88,31,35,0,0
2.4098e+05,1.0565e+08,2,5592,5542,14.91,2.62,31,35,0,0
2.4138e+05,1.0575e+08,2,5540,5514,14.89,2.32,31,35,0,0
2.4183e+05,1.0586e+08,2,5512,5471,14.88,2.45,31,35,0,0
2.4228e+05,1.0597e+08,2,5474,5528,14.86,2.93,31,36,0,0
2.4272e+05,1.0608e+08,2,5528,5528,14.92,2.96,31,36,0,0
2.4317e+05,1.062e+08,2,5533,5585,14.88,2.89,31,36,0,0
2.4402e+05,1.0641e+08,2,5587,5842,14.88,2.81,31,36,0,0
2.4447e+05,1.0651e+08,2,5840,5714,14.85,3.33,31,36,0,0
2.4491e+05,1.0662e+08,2,5720,6000,14.85,3.44,31,36,0,0
2.458e+05,1.0684e+08,2,5987,5742,14.77,3.44,31,36,0,0
2.4621e+05,1.0694e+08,2,5745,5814,14.84,3.31,31,36,0,0
2.4666e+05,1.0705e+08,2,5813,5771,14.8,3.05,31,37,0,0
2.4711e+05,1.0717e+08,2,5772,5785,14.91,3.03,31,37,0,0
2.4751e+05,1.0726e+08,2,5785,5814,14.88,3.07,31,37,0,0
2.4884e+05,1.0759e+08,2,5812,5528,14.91,2.68,31,37,0,0
2.4929e+05,1.077e+08,2,5535,5742,14.86,3.06,31,37,0,0
2.4978e+05,1.0782e+08,2,5720,5485,14.91,2.47,31,37,0,0
2.5017e+05,1.0792e+08,2,5485,5514,14.85,2.78,31,37,0,0
2.5062e+05,1.0802e+08,2,5515,5628,14.83,2.98,31,37,0,0
2.5106e+05,1.0814e+08,2,5639,5800,14.86,2.83,31,37,0,0
2.5152e+05,1.0825e+08,2,5794,5714,14.86,2.89,31,37,0,0
2.5196e+05,1.0836e+08,2,5704,5500,14.9,2.21,31,38,0,0
2.5241e+05,1.0847e+08,2,5490,5328,14.87,1.98,31,38,0,0
2.5285e+05,1.0858e+08,2,5326,5300,14.86,2.73,31,38,0,0
2.533e+05,1.0869e+08,2,5333,5685,14.9,3.35,31,38,0,0
2.5375e+05,1.088e+08,2,5698,5842,14.91,3.01,31,38,0,0
2.5415e+05,1.089e+08,2,5843,5914,14.8,3.3,31,38,0,0
2.5464e+05,1.0901e+08,2,5910,5871,14.91,3.46,31,38,0,0
2.5556e+05,1.0923e+08,2,5876,6028,14.84,3.58,31,38,0,0
2.5601e+05,1.0934e+08,2,6029,6042,14.86,3.31,31,38,0,0
2.5646e+05,1.0945e+08,2,6045,6085,14.82,3.41,31,38,0,0
2.5687e+05,1.0956e+08,2,6062,5771,14.87,3.1,31,39,0,0
2.5732e+05,1.0967e+08,2,5780,5871,14.88,3.25,31,39,0,0
2.5772e+05,1.0977e+08,2,5861,5728,14.85,3.03,31,39,0,0
2.5817e+05,1.0988e+08,2,5728,5728,14.88,2.87,31,39,0,0
2.5862e+05,1.0999e+08,2,5726,5714,14.92,2.76,31,39,0,0
2.5906e+05,1.101e+08,2,5720,5800,14.84,3.21,31,39,0,0
2.5947e+05,1.1021e+08,2,5797,5657,14.89,2.55,31,39,0,0
2.5992e+05,1.1032e+08,2,5653,5500,14.86,2.63,31,39,0,0
2.608e+05,1.1053e+08,2,5501,5642,14.82,2.89,31,39,0,0
2.6126e+05,1.1065e+08,2,5642,5657,14.91,2.87,31,39,0,0
2.6216e+05,1.1087e+08,2,5660,5728,14.89,2.82,31,40,0,0
2.6304e+05,1.1109e+08,2,5725,5671,14.85,2.76,31,40,0,0
2.6345e+05,1.1119e+08,2,5678,5814,14.93,3.02,31,40,0,0
2.6389e+05,1.113e+08,2,5801,5628,14.87,2.46,31,40,0,0
2.6434e+05,1.114e+08,2,5615,5357,14.87,2.37,31,40,0,0
2.6479e+05,1.1152e+08,2,5343,5214,14.94,1.8,31,40,0,0
2.6524e+05,1.1163e+08,2,5214,5214,14.93,2.03,31,40,0,0
2.6564e+05,1.1173e+08,2,5221,5371,14.89,2.35,31,40,0,0
2.6609e+05,1.1184e+08,2,5376,5514,14.86,2.63,31,40,0,0
2.6654e+05,1.1195e+08,2,5512,5485,14.88,2.59,31,40,0,0
2.6699e+05,1.1207e+08,2,5489,5542,14.83,2.8,31,40,0,0
2.6739e+05,1.1217e+08,2,5544,5728,14.88,2.71,31,41,0,0
2.6784e+05,1.1227e+08,2,5726,5628,14.9,2.8,31,41,0,0
2.6832e+05,1.1239e+08,2,5630,5657,14.84,3.18,31,41,0,0
2.6872e+05,1.1249e+08,2,5657,5671,14.83,2.95,31,41,0,0
2.6917e+05,1.126e+08,2,5684,5885,14.85,3.09,31,41,0,0
2.6958e+05,1.1271e+08,2,5884,5871,14.82,3.28,31,41,0,0
2.7002e+05,1.1282e+08,2,5884,6071,14.85,3.56,31,41,0,0
2.7047e+05,1.1293e+08,2,6068,6042,14.86,3.41,31,41,0,0
2.7092e+05,1.1304e+08,2,6047,6100,14.82,3.29,31,41,0,0
2.7133e+05,1.1314e+08,2,6088,5971,14.86,3.01,31,41,0,0
2.7177e+05,1.1325e+08,2,5973,6014,14.87,3.35,31,41,0,0
2.7222e+05,1.1336e+08,2,5999,5857,14.84,3.13,31,42,0,0
2.7263e+05,1.1346e+08,2,5860,5957,14.84,3.31,31,42,0,0
2.7311e+05,1.1358e+08,2,5956,5942,14.86,3.34,31,42,0,0
2.7348e+05,1.1368e+08,2,5942,5957,14.84,3.36,31,42,0,0
2.7397e+05,1.1379e+08,2,5953,5914,14.83,3.84,31,42,0,0
2.7441e+05,1.139e+08,2,5933,6128,14.83,4.04,31,42,0,0
2.7486e+05,1.1401e+08,2,6129,6142,14.79,4.16,31,42,0,0
2.7531e+05,1.1412e+08,2,6142,6142,14.76,3.94,31,42,0,0
2.7571e+05,1.1422e+08,2,6145,6214,14.8,4.2,31,42,0,0
2.7615e+05,1.1433e+08,2,6208,6142,14.83,4.13,31,43,0,0
2.766e+05,1.1444e+08,2,6144,6171,14.81,4.38,31,43,0,0
2.7705e+05,1.1455e+08,2,6172,6185,14.83,4.2,31,43,0,0
2.7749e+05,1.1466e+08,2,6169,6028,14.82,4.01,31,43,0,0
2.779e+05,1.1477e+08,2,6029,6042,14.8,3.91,31,43,0,0
2.7838e+05,1.1488e+08,2,6043,6057,14.79,3.81,31,43,0,0
2.7879e+05,1.1498e+08,2,6055,6042,14.89,3.83,31,43,0,0
2.792e+05,1.1509e+08,2,6037,5971,14.76,3.86,31,43,0,0
2.7965e+05,1.152e+08,2,5969,5942,14.83,3.57,31,44,0,0
2.801e+05,1.1531e+08,2,5936,5857,14.76,3.82,31,44,0,0
2.8055e+05,1.1542e+08,2,5868,6014,14.82,3.8,31,44,0,0
2.8095e+05,1.1552e+08,2,6010,5928,14.76,3.46,31,44,0,0
2.814e+05,1.1563e+08,2,5921,5785,14.79,3.6,31,44,0,0
2.8184e+05,1.1574e+08,2,5794,5914,14.85,3.57,31,44,0,0
2.823e+05,1.1586e+08,2,5941,6128,14.79,3.99,31,44,0,0
2.827e+05,1.1596e+08,2,6116,5871,14.79,3.95,31,44,0,0
2.8315e+05,1.1607e+08,2,5888,6071,14.74,4.1,31,45,0,0
2.8359e+05,1.1617e+08,2,6060,5900,14.82,3.92,31,45,0,0
2.8403e+05,1.1628e+08,2,5910,6042,14.79,4.04,31,45,0,0
2.8448e+05,1.1639e+08,2,6046,6114,14.77,4.26,31,45,0,0
2.8496e+05,1.1651e+08,2,6123,6200,14.79,4.19,31,45,0,0
2.8541e+05,1.1662e+08,2,6191,6128,14.77,4.25,31,45,0,0
2.8581e+05,1.1672e+08,2,6144,6357,14.85,3.96,31,45,0,0
2.8626e+05,1.1683e+08,2,6345,6085,14.82,3.76,31,45,0,0
2.8671e+05,1.1694e+08,2,6065,5900,14.88,3.43,31,45,0,0
2.8712e+05,1.1705e+08,2,5888,5785,14.89,3.05,31,46,0,0
2.8798e+05,1.1727e+08,2,5770,5514,14.98,2.6,31,46,0,0
2.8842e+05,1.1738e+08,2,5507,5457,14.93,2.46,31,46,0,0
2.8886e+05,1.1748e+08,2,5449,5357,14.91,2.74,31,46,0,0
2.8927e+05,1.1758e+08,2,5361,5614,14.92,2.73,31,46,0,0
2.8979e+05,1.1771e+08,2,5617,5642,14.92,2.51,31,46,0,0
2.9064e+05,1.1792e+08,2,5643,5685,14.91,2.3,31,46,0,0
2.9109e+05,1.1803e+08,2,5695,5785,14.88,2.51,31,46,0,0
2.915e+05,1.1814e+08,2,5773,5628,14.88,2.63,31,46,0,0
2.9194e+05,1.1824e+08,2,5629,5785,14.83,3.04,31,47,0,0
2.9239e+05,1.1836e+08,2,5809,5957,14.86,2.8,31,47,0,0
2.9284e+05,1.1846e+08,2,5934,5728,14.9,2.76,31,47,0,0
2.9372e+05,1.1868e+08,2,5736,5942,14.88,3.18,31,47,0,0
2.9417e+05,1.1879e+08,2,5955,6085,14.88,3.26,31,47,0,0
2.9503e+05,1.19e+08,2,6080,5885,14.86,3.28,31,47,0,0
2.9547e+05,1.1911e+08,2,5890,5971,14.86,3.05,31,47,0,0
2.9593e+05,1.1922e+08,2,5967,5885,14.89,3.18,31,47,0,0
2.9633e+05,1.1932e+08,2,5886,5914,14.85,3,31,47,0,0
2.9678e+05,1.1943e+08,2,5914,5914,14.85,2.99,31,48,0,0
2.9734e+05,1.1965e+08,2,5899,5885,14.85,2.95,31,48,0,0
2.9774e+05,1.1975e+08,2,5882,5828,14.88,2.73,31,48,0,0
2.9819e+05,1.1986e+08,2,5830,5971,14.88,3.19,31,48,0,0
2.9864e+05,1.1997e+08,2,5970,5942,14.92,3.09,31,48,0,0
2.9913e+05,1.2009e+08,2,5947,6014,14.91,3.22,31,48,0,0
2.9953e+05,1.2019e+08,2,6013,5971,14.85,3.4,31,48,0,0
3.0002e+05,1.2031e+08,2,5966,5914,14.82,3.14,31,48,0,0
3.0046e+05,1.2041e+08,2,5925,6085,14.94,3.16,31,48,0,0
3.0087e+05,1.2052e+08,2,6084,6057,14.89,3.09,31,48,0,0
3.0135e+05,1.2063e+08,2,6048,5942,14.83,3.28,31,49,0,0
3.018e+05,1.2074e+08,2,5943,5957,14.87,3.37,31,49,0,0
3.0264e+05,1.2095e+08,2,5958,6071,14.8,3.84,31,49,0,0
3.0309e+05,1.2106e+08,2,6073,6128,14.72,4.07,31,49,0,0
3.035e+05,1.2116e+08,2,6141,6414,14.71,4.58,31,49,0,0
3.0394e+05,1.2127e+08,2,6418,6514,14.67,4.98,31,49,0,0
3.0439e+05,1.2138e+08,2,6516,6557,14.75,4.97,31,49,0,0
3.0528e+05,1.216e+08,2,6552,6442,14.8,4.59,31,50,0,0
3.0572e+05,1.2171e+08,2,6426,6214,14.73,4.42,31,50,0,0
3.0617e+05,1.2182e+08,2,6222,6400,14.79,4.4,31,50,0,0
3.0662e+05,1.2193e+08,2,6387,6228,14.85,4.02,31,50,0,0
3.0707e+05,1.2204e+08,2,6211,5985,14.82,3.75,31,50,0,0
3.0752e+05,1.2215e+08,2,5982,5957,14.83,3.59,31,50,0,0
3.08e+05,1.2226e+08,2,5956,5942,14.83,3.55,31,50,0,0
3.084e+05,1.2236e+08,2,5938,5871,14.84,3.95,31,51,0,0
3.0886e+05,1.2247e+08,2,5889,6100,14.82,4.36,31,51,0,0
3.0974e+05,1.2269e+08,2,6100,6100,14.8,3.79,31,51,0,0
3.1015e+05,1.228e+08,2,6077,5885,14.83,3.9,31,51,0,0
3.11e+05,1.2301e+08,2,5887,6014,14.86,3.83,31,51,0,0
3.1145e+05,1.2312e+08,2,6044,6342,14.84,4.11,31,51,0,0
3.1193e+05,1.2323e+08,2,6325,6157,14.83,4.06,31,52,0,0
3.1234e+05,1.2333e+08,2,6153,5985,14.85,3.92,31,52,0,0
3.1279e+05,1.2344e+08,2,5990,6057,14.84,3.63,31,52,0,0
3.132e+05,1.2355e+08,2,6051,6000,14.75,3.95,31,52,0,0
3.1365e+05,1.2366e+08,2,6010,6157,14.8,4.1,31,52,0,0
3.1409e+05,1.2377e+08,2,6155,6114,14.8,3.91,31,52,0,0
3.1454e+05,1.2389e+08,2,6112,6100,14.88,3.95,31,52,0,0
3.1499e+05,1.2399e+08,2,6087,5957,14.85,3.93,31,52,0,0
3.154e+05,1.241e+08,2,5957,5957,14.83,3.83,31,52,0,0
3.1585e+05,1.2421e+08,2,5952,5900,14.86,3.38,31,53,0,0
3.1629e+05,1.2432e+08,2,5886,5757,14.86,3.39,31,53,0,0
3.1674e+05,1.2443e+08,2,5752,5714,14.83,3.18,31,53,0,0
3.1718e+05,1.2453e+08,2,5718,5785,14.85,3.7,31,53,0,0
3.1764e+05,1.2465e+08,2,5795,5900,14.83,3.63,31,53,0,0
3.1803e+05,1.2475e+08,2,5895,5800,14.85,3.36,31,53,0,0
3.1852e+05,1.2486e+08,2,5807,5914,14.83,3.96,31,53,0,0
3.1893e+05,1.2497e+08,2,5914,5928,14.89,3.41,31,53,0,0
3.1938e+05,1.2508e+08,2,5924,5871,14.86,3.44,31,53,0,0
3.1983e+05,1.2519e+08,2,5868,5828,14.88,3.51,32,54,0,0
3.2023e+05,1.2529e+08,2,5827,5814,14.91,3.29,31,54,0,0
3.2068e+05,1.254e+08,2,5764,5057,15.36,0.79,31,54,0,0
3.2113e+05,1.2551e+08,2,4997,4328,15.16,1.12,31,54,0,0
3.2157e+05,1.2562e+08,2,4289,3457,15.34,0.11,31,54,0,0
3.2203e+05,1.2574e+08,2,3406,2885,15.26,0.3,32,54,0,0
3.2244e+05,1.2584e+08,2,2874,2742,15.26,0.34,31,54,0,0
3.2284e+05,1.2594e+08,2,2740,2628,15.26,0.33,31,54,0,0
3.2332e+05,1.2605e+08,2,2637,2771,15.26,0.47,31,54,0,0
3.2377e+05,1.2617e+08,2,2769,2757,15.26,0.42,31,54,0,0
3.2422e+05,1.2628e+08,2,2760,2785,15.26,0.46,31,54,0,0
3.2462e+05,1.2638e+08,2,2781,2742,15.26,0.36,32,54,0,0
3.2507e+05,1.2649e+08,2,2741,2728,15.27,0.39,32,54,0,0
3.2552e+05,1.266e+08,2,2726,2700,15.27,0.41,31,54,0,0
3.2592e+05,1.267e+08,2,2700,2714,15.26,0.38,31,54,0,0
3.2637e+05,1.2681e+08,2,2715,2742,15.27,0.44,32,54,0,0
3.2682e+05,1.2693e+08,2,2740,2728,15.26,0.45,31,54,0,0
3.2727e+05,1.2703e+08,2,2728,2785,15.27,0.43,31,54,0,0
3.2775e+05,1.2715e+08,2,2786,2800,15.27,0.45,31,54,0,0
3.282e+05,1.2725e+08,2,2798,2785,15.26,0.43,31,54,0,0
3.2868e+05,1.2737e+08,2,2750,2485,15.35,0.14,31,54,0,0
3.2909e+05,1.2746e+08,2,2473,1814,15.35,0,31,54,0,0
3.2953e+05,1.2757e+08,2,1808,1400,15.33,0.01,31,54,0,0
3.3005e+05,1.2769e+08,2,1392,1285,15.33,0.06,31,54,0,0
3.3046e+05,1.2779e+08,2,1284,1271,15.33,0.08,31,54,0,0
3.309e+05,1.279e+08,2,1271,1271,15.33,0.08,31,54,0,0
3.314e+05,1.2802e+08,2,1271,1271,15.32,0.08,31,54,0,0
3.3184e+05,1.2812e+08,2,1271,1271,15.33,0.08,31,54,0,0
3.3229e+05,1.2823e+08,2,1271,1271,15.34,0.08,31,54,0,0
3.3273e+05,1.2834e+08,2,1271,1271,15.34,0.08,31,54,0,0
3.3322e+05,1.2845e+08,2,1271,1271,15.34,0.08,31,54,0,0
3.3363e+05,1.2855e+08,2,1270,1257,15.35,0.08,31,54,0,0
3.3411e+05,1.2867e+08,2,1257,1271,15.35,0.08,31,54,0,0
3.3456e+05,1.2878e+08,2,1271,1271,15.35,0.08,31,54,0,0
3.3502e+05,1.2889e+08,2,1272,1285,15.35,0.08,31,54,0,0
3.3547e+05,1.29e+08,2,1227,457,15.36,0,31,54,0,0
3.3593e+05,1.2911e+08,2,443,185,15.37,0.01,31,54,0,0
3.3642e+05,1.2922e+08,2,168,0,15.37,0.01,31,54,0,0
3.3683e+05,1.2932e+08,2,0,0,15.37,0.01,31,54,0,0
3.3732e+05,1.2944e+08,2,0,0,15.37,0.02,31,54,0,0
3.3773e+05,1.2954e+08,2,0,0,15.37,0.01,31,54,0,0
3.3823e+05,1.2965e+08,2,0,0,15.37,0.02,31,54,0,0
3.3868e+05,1.2976e+08,2,0,0,15.38,0.01,31,54,0,0
3.3913e+05,1.2987e+08,2,0,0,15.38,0.02,31,54,0,0
3.3958e+05,1.2997e+08,2,0,0,15.38,0.02,31,54,0,0
3.4006e+05,1.3008e+08,2,0,0,15.38,0.01,31,54,0,0
3.4053e+05,1.302e+08,2,0,0,15.38,0.01,31,54,0,0
3.4101e+05,1.3031e+08,2,0,0,15.39,0.02,31,54,0,0
3.4151e+05,1.3043e+08,2,0,0,15.39,0.01,31,54,0,0
3.4196e+05,1.3054e+08,2,0,0,15.39,0.02,31,54,0,0
3.4241e+05,1.3064e+08,2,0,0,15.39,0.01,31,54,0,0
3.4287e+05,1.3075e+08,2,0,0,15.39,0.01,31,54,0,0
3.4332e+05,1.3086e+08,2,0,0,15.39,0.01,31,54,0,0
3.4377e+05,1.3097e+08,2,0,0,15.39,0.01,31,54,0,0
3.4426e+05,1.3108e+08,2,0,0,15.39,0.02,31,54,0,0
3.4476e+05,1.3119e+08,2,0,0,15.4,0.02,31,54,0,0
3.4521e+05,1.313e+08,2,0,0,15.39,0.02,31,54,0,0
3.4566e+05,1.3141e+08,2,0,0,15.4,0.02,31,54,0,0
3.4611e+05,1.3152e+08,2,0,0,15.4,0.02,30,54,0,0
3.4656e+05,1.3162e+08,2,0,0,15.4,0.02,30,54,0,0
3.4701e+05,1.3173e+08,2,0,0,15.4,0.02,30,54,0,0
3.4796e+05,1.3195e+08,2,0,0,15.41,0.02,31,54,0,0
