LineNo,TimeUS,Instance,RPM,RawRPM,Volt,Curr,Temp,CTot,MotTemp,Err
1670,1.3372e+07,5,0,0,15.98,0.03,25,0,0,0
2087,1.3479e+07,5,0,0,15.98,0.03,25,0,0,0
2502,1.3583e+07,5,0,0,15.98,0.04,25,0,0,0
2955,1.3701e+07,5,0,0,15.98,0.04,25,0,0,0
3369,1.3806e+07,5,0,0,15.99,0.04,25,0,0,0
3780,1.3907e+07,5,0,0,15.99,0.04,25,0,0,0
4196,1.4018e+07,5,0,0,15.99,0.03,25,0,0,0
4610,1.412e+07,5,0,0,15.99,0.04,25,0,0,0
5055,1.4231e+07,5,0,0,15.99,0.03,25,0,0,0
5469,1.4335e+07,5,0,0,15.98,0.03,25,0,0,0
5890,1.4444e+07,5,0,0,15.98,0.03,25,0,0,0
6344,1.4558e+07,5,0,0,15.98,0.03,25,0,0,0
6756,1.4663e+07,5,0,0,15.98,0.03,25,0,0,0
7166,1.4765e+07,5,0,0,15.98,0.03,25,0,0,0
7624,1.4884e+07,5,0,0,15.98,0.03,25,0,0,0
8037,1.499e+07,5,0,0,15.99,0.03,25,0,0,0
8454,1.5094e+07,5,0,0,15.98,0.03,25,0,0,0
8862,1.5195e+07,5,0,0,15.98,0.03,25,0,0,0
9276,1.5307e+07,5,0,0,15.98,0.03,25,0,0,0
10140,1.5521e+07,5,0,0,15.98,0.03,25,0,0,0
10576,1.5628e+07,5,0,0,15.98,0.04,25,0,0,0
10869,1.5742e+07,5,0,0,15.99,0.03,25,0,0,0
11285,1.5846e+07,5,0,0,15.98,0.04,25,0,0,0
11700,1.5951e+07,5,0,0,15.99,0.04,25,0,0,0
12155,1.6064e+07,5,0,0,15.98,0.03,25,0,0,0
12574,1.6169e+07,5,0,0,15.99,0.04,25,0,0,0
13025,1.6284e+07,5,0,0,15.98,0.04,25,0,0,0
13435,1.6386e+07,5,0,0,15.98,0.04,25,0,0,0
13849,1.649e+07,5,0,0,15.98,0.04,25,0,0,0
14307,1.6603e+07,5,0,0,15.98,0.03,25,0,0,0
14721,1.6707e+07,5,0,0,15.98,0.04,25,0,0,0
15132,1.6813e+07,5,0,0,15.98,0.04,25,0,0,0
15590,1.6928e+07,5,0,0,15.99,0.04,25,0,0,0
16004,1.7034e+07,5,0,0,15.98,0.03,25,0,0,0
16416,1.7136e+07,5,0,0,15.98,0.03,25,0,0,0
16868,1.7253e+07,5,0,0,15.99,0.03,25,0,0,0
17276,1.7355e+07,5,0,0,15.98,0.03,25,0,0,0
17685,1.746e+07,5,0,0,15.98,0.03,25,0,0,0
18070,1.7563e+07,5,0,0,15.98,0.03,25,0,0,0
18553,1.7679e+07,5,0,0,15.98,0.03,25,0,0,0
18965,1.7784e+07,5,0,0,15.99,0.03,25,0,0,0
19385,1.7893e+07,5,0,0,15.98,0.03,25,0,0,0
19801,1.7997e+07,5,0,0,15.98,0.03,25,0,0,0
20252,1.8111e+07,5,0,0,15.98,0.03,25,0,0,0
20672,1.8219e+07,5,0,0,15.98,0.03,25,0,0,0
21088,1.8325e+07,5,0,0,15.98,0.03,25,0,0,0
21537,1.8438e+07,5,0,0,15.98,0.03,25,0,0,0
21955,1.8543e+07,5,0,0,15.98,0.03,25,0,0,0
22370,1.8649e+07,5,0,0,15.99,0.04,25,0,0,0
22788,1.8758e+07,5,0,0,15.99,0.04,25,0,0,0
23239,1.8872e+07,5,0,0,15.98,0.03,25,0,0,0
23647,1.8974e+07,5,0,0,15.98,0.03,25,0,0,0
24058,1.9077e+07,5,0,0,15.98,0.03,25,0,0,0
24511,1.919e+07,5,0,0,15.98,0.03,25,0,0,0
24924,1.9295e+07,5,0,0,15.98,0.03,25,0,0,0
25375,1.941e+07,5,0,0,15.98,0.03,25,0,0,0
25788,1.9519e+07,5,0,0,15.98,0.03,25,0,0,0
26201,1.9623e+07,5,0,0,15.98,0.03,25,0,0,0
26616,1.973e+07,5,0,0,15.99,0.03,25,0,0,0
27068,1.9843e+07,5,0,0,15.98,0.03,25,0,0,0
27484,1.9946e+07,5,0,0,15.98,0.03,25,0,0,0
27940,2.0061e+07,5,0,0,15.99,0.04,25,0,0,0
28356,2.0168e+07,5,0,0,15.98,0.03,25,0,0,0
28774,2.0274e+07,5,0,0,15.98,0.03,25,0,0,0
29226,2.0387e+07,5,0,0,15.98,0.03,25,0,0,0
29675,2.0498e+07,5,0,0,15.99,0.04,25,0,0,0
30086,2.0603e+07,5,0,0,15.98,0.03,25,0,0,0
30500,2.0708e+07,5,0,0,15.99,0.04,25,0,0,0
30912,2.0813e+07,5,0,0,15.98,0.03,26,0,0,0
31369,2.0926e+07,5,0,0,15.98,0.04,25,0,0,0
31787,2.1035e+07,5,0,0,15.98,0.03,26,0,0,0
32205,2.1141e+07,5,0,0,15.97,0.03,26,0,0,0
32623,2.1245e+07,5,0,0,15.98,0.03,26,0,0,0
33077,2.1358e+07,5,0,0,15.98,0.03,25,0,0,0
33493,2.1464e+07,5,0,0,15.98,0.03,25,0,0,0
33914,2.1575e+07,5,0,0,15.98,0.04,25,0,0,0
34329,2.1681e+07,5,0,0,15.98,0.03,26,0,0,0
34744,2.1788e+07,5,0,0,15.98,0.03,26,0,0,0
35172,2.19e+07,5,0,0,15.98,0.03,26,0,0,0
35582,2.2003e+07,5,0,0,15.98,0.03,25,0,0,0
36040,2.2118e+07,5,0,0,15.98,0.03,25,0,0,0
36458,2.2225e+07,5,0,0,15.98,0.03,25,0,0,0
36873,2.2328e+07,5,0,0,15.99,0.03,26,0,0,0
37285,2.2433e+07,5,0,0,15.98,0.03,25,0,0,0
37736,2.2548e+07,5,0,0,15.98,0.04,25,0,0,0
38148,2.265e+07,5,0,0,15.99,0.04,25,0,0,0
38604,2.2764e+07,5,0,0,15.98,0.04,25,0,0,0
39024,2.2873e+07,5,0,0,15.99,0.04,26,0,0,0
39438,2.298e+07,5,0,0,15.98,0.04,26,0,0,0
39847,2.3082e+07,5,0,0,15.98,0.04,25,0,0,0
40297,2.3196e+07,5,0,0,15.98,0.03,25,0,0,0
40716,2.3301e+07,5,0,0,15.98,0.04,25,0,0,0
41170,2.3415e+07,5,0,0,15.99,0.03,25,0,0,0
41584,2.3518e+07,5,0,0,15.98,0.03,25,0,0,0
41997,2.3624e+07,5,0,0,15.98,0.03,25,0,0,0
42454,2.3744e+07,5,0,0,15.99,0.03,26,0,0,0
42865,2.3848e+07,5,0,0,15.99,0.04,25,0,0,0
43279,2.3955e+07,5,0,0,15.99,0.04,26,0,0,0
43726,2.4064e+07,5,0,0,15.98,0.04,25,0,0,0
44173,2.4176e+07,5,0,0,15.98,0.04,26,0,0,0
44587,2.4281e+07,5,0,0,15.98,0.04,26,0,0,0
45041,2.4397e+07,5,0,0,15.98,0.04,25,0,0,0
45454,2.45e+07,5,0,0,15.98,0.04,26,0,0,0
45861,2.4603e+07,5,0,0,15.98,0.04,25,0,0,0
46317,2.4716e+07,5,0,0,15.98,0.03,25,0,0,0
46694,2.4813e+07,5,0,0,15.98,0.03,26,0,0,0
47145,2.4926e+07,5,0,0,15.98,0.03,26,0,0,0
47555,2.5031e+07,5,0,0,15.98,0.03,26,0,0,0
47969,2.5137e+07,5,0,0,15.98,0.04,26,0,0,0
48425,2.525e+07,5,0,0,15.99,0.04,26,0,0,0
48844,2.5356e+07,5,0,0,15.98,0.04,25,0,0,0
49292,2.5469e+07,5,0,0,15.97,0.03,26,0,0,0
49708,2.5575e+07,5,0,0,15.98,0.03,26,0,0,0
50126,2.5682e+07,5,0,0,15.99,0.03,26,0,0,0
50934,2.5904e+07,5,0,0,15.99,0.03,25,0,0,0
51351,2.6008e+07,5,0,0,15.99,0.03,25,0,0,0
51763,2.6114e+07,5,0,0,15.98,0.03,26,0,0,0
52216,2.623e+07,5,0,0,15.98,0.04,25,0,0,0
52630,2.6336e+07,5,0,0,15.99,0.04,25,0,0,0
53043,2.6438e+07,5,0,0,15.99,0.03,25,0,0,0
53458,2.6545e+07,5,0,0,15.98,0.03,25,0,0,0
53910,2.6658e+07,5,0,0,15.99,0.03,25,0,0,0
54328,2.6766e+07,5,0,0,15.98,0.03,26,0,0,0
54746,2.6871e+07,5,0,0,15.98,0.03,25,0,0,0
55163,2.6977e+07,5,0,0,15.98,0.03,26,0,0,0
55616,2.7089e+07,5,0,0,15.98,0.03,26,0,0,0
56030,2.7194e+07,5,0,0,15.98,0.03,26,0,0,0
56173,6.0586e+07,5,0,0,15.99,0.03,25,0,0,0
56419,6.0648e+07,5,0,0,15.98,0.03,25,0,0,0
56822,6.0752e+07,5,0,0,15.98,0.04,25,0,0,0
57320,6.0864e+07,5,0,0,15.99,0.04,25,0,0,0
57772,6.0967e+07,5,0,0,15.99,0.04,26,0,0,0
58229,6.1071e+07,5,0,0,15.98,0.04,25,0,0,0
58676,6.1175e+07,5,0,0,15.98,0.04,26,0,0,0
59128,6.128e+07,5,0,0,15.98,0.04,26,0,0,0
59631,6.139e+07,5,0,0,15.98,0.04,26,0,0,0
60121,6.1498e+07,5,0,0,15.98,0.04,25,0,0,0
61029,6.171e+07,5,0,0,15.99,0.04,26,0,0,0
61530,6.1824e+07,5,0,0,15.99,0.04,25,0,0,0
61950,6.1926e+07,5,0,0,15.98,0.04,25,0,0,0
62449,6.2037e+07,5,0,0,15.98,0.04,25,0,0,0
62858,6.2134e+07,5,0,0,15.99,0.04,25,0,0,0
63358,6.2248e+07,5,0,0,15.99,0.04,25,0,0,0
63811,6.2352e+07,5,0,0,15.99,0.04,26,0,0,0
64761,6.257e+07,5,0,0,15.98,0.04,25,0,0,0
65254,6.2683e+07,5,10,128,15.98,0.03,25,0,0,0
65707,6.2785e+07,5,159,471,15.97,0.08,25,0,0,0
66161,6.289e+07,5,495,842,15.96,0.13,26,0,0,0
66615,6.2991e+07,5,847,1171,15.97,0.13,26,0,0,0
67109,6.3106e+07,5,1175,1228,15.97,0.11,26,0,0,0
67935,6.3319e+07,5,1271,1285,15.97,0.11,26,0,0,0
68396,6.3426e+07,5,1285,1285,15.97,0.11,26,0,0,0
68858,6.3532e+07,5,1286,1300,15.97,0.11,26,0,0,0
69312,6.3634e+07,5,1300,1300,15.97,0.11,26,0,0,0
69762,6.374e+07,5,1299,1285,15.97,0.11,26,0,0,0
70259,6.3851e+07,5,1285,1285,15.97,0.11,26,0,0,0
70717,6.3959e+07,5,1286,1300,15.96,0.1,26,0,0,0
71170,6.406e+07,5,1300,1300,15.97,0.11,26,0,0,0
71619,6.4162e+07,5,1300,1300,15.96,0.11,26,0,0,0
72114,6.4276e+07,5,1300,1300,15.97,0.11,26,0,0,0
72570,6.4377e+07,5,1299,1285,15.97,0.11,26,0,0,0
73025,6.4486e+07,5,1285,1285,15.97,0.11,26,0,0,0
73525,6.4596e+07,5,1285,1285,15.96,0.11,26,0,0,0
73977,6.4702e+07,5,1285,1285,15.97,0.11,26,0,0,0
74435,6.4807e+07,5,1285,1285,15.97,0.11,26,0,0,0
74856,6.4912e+07,5,1285,1285,15.97,0.11,26,0,0,0
75351,6.5024e+07,5,1285,1285,15.97,0.11,26,0,0,0
75800,6.5131e+07,5,1285,1285,15.97,0.11,26,0,0,0
76295,6.5244e+07,5,1285,1285,15.96,0.11,26,0,0,0
76752,6.5352e+07,5,1285,1285,15.96,0.11,26,0,0,0
77204,6.5455e+07,5,1285,1285,15.96,0.1,26,0,0,0
77700,6.5573e+07,5,1285,1285,15.97,0.11,26,0,0,0
78155,6.568e+07,5,1285,1285,15.97,0.11,26,0,0,0
78610,6.5783e+07,5,1285,1285,15.97,0.11,26,0,0,0
79022,6.5883e+07,5,1285,1285,15.97,0.11,26,0,0,0
79522,6.5996e+07,5,1285,1285,15.97,0.11,26,0,0,0
80473,6.6215e+07,5,1285,1285,15.96,0.11,26,0,0,0
80925,6.6322e+07,5,1285,1285,15.97,0.11,26,0,0,0
81347,6.6426e+07,5,1285,1285,15.96,0.11,26,0,0,0
81795,6.6531e+07,5,1285,1285,15.96,0.11,26,0,0,0
82296,6.6645e+07,5,1285,1285,15.97,0.11,26,0,0,0
82745,6.6749e+07,5,1285,1285,15.96,0.11,26,0,0,0
83247,6.6869e+07,5,1285,1285,15.96,0.11,26,0,0,0
83660,6.6961e+07,5,1285,1285,15.97,0.11,26,0,0,0
84156,6.7078e+07,5,1285,1285,15.97,0.11,26,0,0,0
84611,6.7184e+07,5,1297,1471,15.94,0.21,26,0,0,0
85063,6.7292e+07,5,1515,1928,15.91,0.42,26,0,0,0
85486,6.7398e+07,5,1951,2457,15.74,0.96,26,0,0,0
85978,6.7512e+07,5,2495,2871,15.73,1.17,26,0,0,0
86433,6.7619e+07,5,2932,3571,15.61,1.6,26,0,0,0
86886,6.7725e+07,5,3609,4157,15.55,1.96,26,0,0,0
87388,6.7843e+07,5,4223,4771,15.35,2.79,26,0,0,0
88295,6.806e+07,5,4818,5785,15.26,4.35,26,1,0,0
88749,6.8171e+07,5,5805,6028,15.29,3.97,26,1,0,0
89203,6.8285e+07,5,6018,5914,15.33,3.45,26,1,0,0
89616,6.8382e+07,5,5912,5871,15.44,3.14,26,1,0,0
90066,6.849e+07,5,5873,5971,15.39,3.47,26,1,0,0
90489,6.8597e+07,5,5971,6014,15.31,3.82,26,1,0,0
90983,6.8714e+07,5,6021,6185,15.38,4.19,26,1,0,0
91445,6.8821e+07,5,6180,6100,15.31,4.08,26,1,0,0
91892,6.8929e+07,5,6108,6271,15.35,3.8,26,1,0,0
92346,6.9034e+07,5,6270,6257,15.3,4.54,26,2,0,0
92796,6.9145e+07,5,6259,6300,15.27,4.5,26,2,0,0
93294,6.9262e+07,5,6290,6200,15.36,3.68,26,2,0,0
93741,6.937e+07,5,6179,5971,15.39,2.95,26,2,0,0
95099,6.9694e+07,5,5964,5757,15.26,3.18,26,2,0,0
95555,6.9798e+07,5,5751,5642,15.42,3.14,26,2,0,0
96012,6.9914e+07,5,5650,5771,15.38,3.32,26,2,0,0
96465,7.002e+07,5,5780,5957,15.36,3.31,26,3,0,0
96919,7.0132e+07,5,5948,5842,15.29,3.41,26,3,0,0
97374,7.0239e+07,5,5849,5942,15.26,3.77,27,3,0,0
97833,7.0353e+07,5,5955,6128,15.26,3.86,26,3,0,0
98288,7.0466e+07,5,6141,6257,15.21,3.99,26,3,0,0
98734,7.0578e+07,5,6257,6257,15.2,4.3,26,3,0,0
99178,7.0686e+07,5,6276,6442,15.29,4.4,26,3,0,0
99622,7.0798e+07,5,6445,6500,15.22,4.72,27,3,0,0
1.0048e+05,7.101e+07,5,6478,6100,15.35,3.56,26,4,0,0
1.0092e+05,7.1123e+07,5,6088,5985,15.45,3.28,27,4,0,0
1.0138e+05,7.123e+07,5,5973,5814,15.31,3.18,27,4,0,0
1.0178e+05,7.1336e+07,5,5808,5771,15.32,3.39,27,4,0,0
1.026e+05,7.1546e+07,5,5769,5657,15.33,3.5,27,4,0,0
1.035e+05,7.1768e+07,5,5658,5742,15.3,3.49,27,4,0,0
1.0437e+05,7.1987e+07,5,5728,5728,15.29,3.07,27,5,0,0
1.0481e+05,7.2096e+07,5,5722,5642,15.29,3.04,27,5,0,0
1.0566e+05,7.231e+07,5,5642,5757,15.3,3.4,27,5,0,0
1.0616e+05,7.2426e+07,5,5772,5942,15.27,3.59,27,5,0,0
1.0656e+05,7.2527e+07,5,5936,5714,15.32,3.01,27,5,0,0
1.0701e+05,7.2638e+07,5,5714,5714,15.32,3.27,27,5,0,0
1.0741e+05,7.2738e+07,5,5720,5885,15.34,3.36,27,5,0,0
1.079e+05,7.2855e+07,5,5880,5828,15.27,3.57,27,5,0,0
1.0831e+05,7.2957e+07,5,5830,5985,15.2,3.65,27,5,0,0
1.0875e+05,7.3065e+07,5,5983,5957,15.26,3.52,27,5,0,0
1.092e+05,7.3177e+07,5,5958,5985,15.3,3.3,27,6,0,0
1.0969e+05,7.3297e+07,5,5998,6142,15.26,3.73,27,6,0,0
1.1014e+05,7.3403e+07,5,6114,5828,15.26,3.35,27,6,0,0
1.1058e+05,7.3512e+07,5,5836,5942,15.32,3.38,27,6,0,0
1.1099e+05,7.3615e+07,5,5941,5928,15.24,3.14,27,6,0,0
1.1144e+05,7.3733e+07,5,5926,5914,15.37,3.05,27,6,0,0
1.1189e+05,7.3841e+07,5,5898,5742,15.29,3.07,27,6,0,0
1.123e+05,7.3947e+07,5,5738,5700,15.29,3.11,27,6,0,0
1.1275e+05,7.4056e+07,5,5708,5800,15.24,3.13,27,6,0,0
1.1319e+05,7.4164e+07,5,5798,5785,15.3,3.21,27,6,0,0
1.136e+05,7.4264e+07,5,5791,5942,15.25,3.23,27,7,0,0
1.1404e+05,7.4372e+07,5,5940,5814,15.22,3.22,27,7,0,0
1.1449e+05,7.4484e+07,5,5800,5614,15.26,3.2,27,7,0,0
1.1494e+05,7.4591e+07,5,5618,5914,15.24,3.38,27,7,0,0
1.1538e+05,7.4699e+07,5,5913,5900,15.31,3.09,27,7,0,0
1.1587e+05,7.4818e+07,5,5900,5900,15.25,3.59,27,7,0,0
1.1627e+05,7.4917e+07,5,5899,5885,15.22,3.33,27,7,0,0
1.1673e+05,7.5026e+07,5,5885,5900,15.22,3.21,27,7,0,0
1.1717e+05,7.5132e+07,5,5897,5842,15.25,3.5,27,7,0,0
1.1762e+05,7.5242e+07,5,5846,5914,15.19,3.64,27,7,0,0
1.1803e+05,7.5346e+07,5,5914,5928,15.19,3.54,27,8,0,0
1.1852e+05,7.5463e+07,5,5933,6014,15.2,3.42,27,8,0,0
1.1896e+05,7.5571e+07,5,6020,6157,15.22,3.5,27,8,0,0
1.1945e+05,7.5691e+07,5,6160,6200,15.08,4.57,27,8,0,0
1.1982e+05,7.5786e+07,5,6203,6400,15.11,4.73,27,8,0,0
1.2026e+05,7.5898e+07,5,6406,6542,15.05,5.13,27,8,0,0
1.2068e+05,7.6001e+07,5,6534,6371,15.12,3.84,27,8,0,0
1.2112e+05,7.6115e+07,5,6329,5914,15.2,3.11,27,8,0,0
1.2158e+05,7.6224e+07,5,5906,5700,15.16,2.97,27,9,0,0
1.2202e+05,7.6334e+07,5,5701,5742,15.22,3.14,27,9,0,0
1.2246e+05,7.6443e+07,5,5741,5728,15.16,3.71,27,9,0,0
1.2291e+05,7.6551e+07,5,5747,6185,15.2,4.1,27,9,0,0
1.2336e+05,7.667e+07,5,6180,5928,15.16,3.37,27,9,0,0
1.2381e+05,7.6778e+07,5,5932,5971,15.19,3.27,27,9,0,0
1.2426e+05,7.6888e+07,5,5960,5857,15.22,3.34,27,9,0,0
1.247e+05,7.6996e+07,5,5859,5885,15.23,3.03,27,9,0,0
1.256e+05,7.7215e+07,5,5883,5857,15.2,3.33,27,9,0,0
1.2601e+05,7.7318e+07,5,5854,5800,15.19,3.43,27,10,0,0
1.2646e+05,7.7427e+07,5,5796,5742,15.29,2.74,27,10,0,0
1.2686e+05,7.753e+07,5,5740,5657,15.3,2.97,27,10,0,0
1.278e+05,7.7754e+07,5,5658,5700,15.29,3,27,10,0,0
1.2825e+05,7.7868e+07,5,5689,5600,15.27,2.64,27,10,0,0
1.287e+05,7.7976e+07,5,5600,5600,15.22,2.76,27,10,0,0
1.291e+05,7.8078e+07,5,5600,5600,15.26,3.18,27,10,0,0
1.2955e+05,7.8188e+07,5,5611,5757,15.14,3.21,27,10,0,0
1.3e+05,7.8297e+07,5,5774,5957,15.15,3.89,27,10,0,0
1.3041e+05,7.84e+07,5,5954,5842,15.13,3.64,27,10,0,0
1.3089e+05,7.8514e+07,5,5853,6028,15.14,4.44,27,11,0,0
1.3133e+05,7.862e+07,5,6027,6014,15.23,3.05,27,11,0,0
1.3178e+05,7.8733e+07,5,5995,5742,15.23,3.35,27,11,0,0
1.3223e+05,7.8843e+07,5,5743,5757,15.18,3.07,27,11,0,0
1.3264e+05,7.8945e+07,5,5744,5571,15.25,2.47,27,11,0,0
1.3312e+05,7.9061e+07,5,5553,5371,15.27,2.39,27,11,0,0
1.3353e+05,7.9164e+07,5,5364,5228,15.27,2.39,27,11,0,0
1.3398e+05,7.9278e+07,5,5216,5100,15.3,2.09,27,11,0,0
1.3443e+05,7.9384e+07,5,5093,5000,15.25,2.2,27,11,0,0
1.3483e+05,7.9487e+07,5,5006,5157,15.24,2.61,27,11,0,0
1.3528e+05,7.9592e+07,5,5157,5200,15.26,2.49,27,11,0,0
1.3573e+05,7.9703e+07,5,5208,5328,15.17,2.79,27,11,0,0
1.3617e+05,7.9812e+07,5,5332,5400,15.2,3.13,27,12,0,0
1.3662e+05,7.9922e+07,5,5409,5542,15.17,2.68,27,12,0,0
1.3707e+05,8.0031e+07,5,5536,5485,15.17,2.94,27,12,0,0
1.3747e+05,8.0135e+07,5,5488,5571,15.25,2.98,27,12,0,0
1.3796e+05,8.025e+07,5,5571,5571,15.2,3.19,27,12,0,0
1.3837e+05,8.0353e+07,5,5578,5714,15.22,3.17,27,12,0,0
1.3886e+05,8.0473e+07,5,5710,5685,15.18,3.39,27,12,0,0
1.3931e+05,8.0581e+07,5,5692,5771,15.11,3.51,27,12,0,0
1.3971e+05,8.0683e+07,5,5769,5657,15.2,3.23,27,12,0,0
1.4016e+05,8.0794e+07,5,5666,5828,15.2,3.26,27,12,0,0
1.4105e+05,8.1008e+07,5,5824,5700,15.23,3.29,27,13,0,0
1.4149e+05,8.112e+07,5,5706,5771,15.22,3.14,27,13,0,0
1.428e+05,8.1438e+07,5,5770,5728,15.13,3.71,27,13,0,0
1.4324e+05,8.155e+07,5,5736,5857,15.08,3.38,27,13,0,0
1.4369e+05,8.1661e+07,5,5844,5728,15.2,3.17,27,13,0,0
1.441e+05,8.1763e+07,5,5729,5857,15.1,3.91,27,13,0,0
1.4458e+05,8.1885e+07,5,5858,5871,15.17,3.11,27,13,0,0
1.4499e+05,8.198e+07,5,5872,5942,15.18,3.23,27,14,0,0
1.4548e+05,8.2102e+07,5,5955,6100,15.14,3.82,27,14,0,0
1.4589e+05,8.2201e+07,5,6087,5957,15.13,3.39,27,14,0,0
1.4629e+05,8.2303e+07,5,5955,5885,15.19,3.11,27,14,0,0
1.4678e+05,8.2421e+07,5,5875,5757,15.18,3.31,27,14,0,0
1.4723e+05,8.2534e+07,5,5759,5785,15.07,3.74,27,14,0,0
1.4768e+05,8.2641e+07,5,5806,5985,15.13,3.87,27,14,0,0
1.4812e+05,8.2751e+07,5,5998,6200,15.07,4.37,27,14,0,0
1.4854e+05,8.2853e+07,5,6201,6285,15.12,4.14,27,14,0,0
1.4898e+05,8.2962e+07,5,6284,6271,15.11,4.38,27,15,0,0
1.4943e+05,8.3078e+07,5,6251,6085,15.16,3.69,27,15,0,0
1.4988e+05,8.3195e+07,5,6085,6085,15.16,3.7,27,15,0,0
1.5029e+05,8.3296e+07,5,6084,6042,15.16,3.64,28,15,0,0
1.507e+05,8.3401e+07,5,6037,5928,15.2,3.28,27,15,0,0
1.5116e+05,8.3515e+07,5,5926,5914,15.11,3.39,27,15,0,0
1.516e+05,8.3624e+07,5,5902,5785,15.18,3.37,27,15,0,0
1.5202e+05,8.3727e+07,5,5786,5842,15.17,3.63,28,15,0,0
1.5291e+05,8.3953e+07,5,5841,5828,15.18,3.4,28,15,0,0
1.5336e+05,8.406e+07,5,5835,5942,15.14,3.42,28,16,0,0
1.538e+05,8.4171e+07,5,5926,5757,15.17,2.98,27,16,0,0
1.5425e+05,8.4282e+07,5,5756,5742,15.12,4.23,28,16,0,0
1.5469e+05,8.439e+07,5,5783,6171,15.11,4.03,27,16,0,0
1.5513e+05,8.4493e+07,5,6167,6085,15.1,3.83,28,16,0,0
1.5558e+05,8.4599e+07,5,6082,5985,15.1,3.45,27,16,0,0
1.5607e+05,8.4721e+07,5,5975,5871,15.12,3.38,28,16,0,0
1.5652e+05,8.4832e+07,5,5896,6157,15.12,3.6,28,16,0,0
1.5692e+05,8.4936e+07,5,6160,6214,15.05,4.04,28,16,0,0
1.5736e+05,8.5043e+07,5,6211,6157,15.06,3.65,28,17,0,0
1.5778e+05,8.5153e+07,5,6155,6128,15.03,4,28,17,0,0
1.5823e+05,8.527e+07,5,6134,6271,15.05,4.38,28,17,0,0
1.5864e+05,8.5372e+07,5,6268,6171,15.07,4.08,28,17,0,0
1.5913e+05,8.5491e+07,5,6172,6200,15.07,3.97,28,17,0,0
1.5957e+05,8.5597e+07,5,6190,6014,15,4,28,17,0,0
1.6002e+05,8.5708e+07,5,6031,6271,15.05,4.29,28,17,0,0
1.6047e+05,8.5819e+07,5,6277,6342,15.02,4.12,28,17,0,0
1.6088e+05,8.5924e+07,5,6330,6185,15.09,3.71,27,18,0,0
1.6128e+05,8.6023e+07,5,6182,6071,15.05,3.87,28,18,0,0
1.6174e+05,8.6139e+07,5,6079,6200,15.1,4.07,28,18,0,0
1.6219e+05,8.6252e+07,5,6196,6157,15.07,3.81,28,18,0,0
1.6259e+05,8.6354e+07,5,6151,6042,15.17,3.28,28,18,0,0
1.6309e+05,8.6477e+07,5,6010,5842,15.14,3.05,28,18,0,0
1.6349e+05,8.6576e+07,5,5840,5814,15.16,3.22,28,18,0,0
1.6391e+05,8.6684e+07,5,5817,5857,15.22,3.14,28,18,0,0
1.6436e+05,8.6794e+07,5,5855,5828,15.13,3.25,28,18,0,0
1.648e+05,8.6903e+07,5,5831,5914,15.14,3.36,28,19,0,0
1.6522e+05,8.7007e+07,5,5914,5942,15.13,3.28,28,19,0,0
1.6566e+05,8.7117e+07,5,5939,5885,15.13,3.49,28,19,0,0
1.6611e+05,8.7224e+07,5,5887,5985,15.04,3.34,28,19,0,0
1.6657e+05,8.7339e+07,5,5970,5828,15.14,3.41,28,19,0,0
1.6701e+05,8.7447e+07,5,5839,5985,15.15,3.76,28,19,0,0
1.6746e+05,8.7556e+07,5,5985,5985,15.07,3.72,28,19,0,0
1.6791e+05,8.7667e+07,5,5989,6057,15.14,3.64,28,19,0,0
1.6835e+05,8.7774e+07,5,6059,6100,15.04,3.93,28,19,0,0
1.6876e+05,8.7882e+07,5,6114,6228,15.04,4.25,28,20,0,0
1.6916e+05,8.7982e+07,5,6230,6271,15.1,4.12,28,20,0,0
1.6957e+05,8.8088e+07,5,6265,6185,15.07,3.81,28,20,0,0
1.7006e+05,8.8203e+07,5,6171,6042,15.1,3.69,28,20,0,0
1.7046e+05,8.8304e+07,5,6035,5971,15.12,3.65,28,20,0,0
1.7094e+05,8.8413e+07,5,5961,5828,15.06,3.41,28,20,0,0
1.7135e+05,8.8517e+07,5,5831,5985,15.11,3.7,28,20,0,0
1.718e+05,8.8624e+07,5,5985,6000,15.1,3.87,28,20,0,0
1.7224e+05,8.8736e+07,5,6003,6085,15.08,3.62,28,20,0,0
1.7273e+05,8.8851e+07,5,6070,5928,15.06,3.41,28,21,0,0
1.7313e+05,8.8955e+07,5,5924,5842,15.08,3.35,28,21,0,0
1.7362e+05,8.9072e+07,5,5834,5771,15.13,3.14,28,21,0,0
1.7402e+05,8.9172e+07,5,5771,5771,15.07,3.47,28,21,0,0
1.7447e+05,8.9281e+07,5,5774,5842,15.13,3.53,28,21,0,0
1.7492e+05,8.9391e+07,5,5847,5971,15.05,3.76,28,21,0,0
1.7537e+05,8.9502e+07,5,5971,5971,15.14,3.26,28,21,0,0
1.7582e+05,8.9613e+07,5,5968,5942,15.07,3.67,28,21,0,0
1.7623e+05,8.9715e+07,5,5939,5900,15.07,3.61,28,21,0,0
1.7668e+05,8.9823e+07,5,5899,5885,15.11,3.6,28,21,0,0
1.7713e+05,8.994e+07,5,5894,5985,15.02,3.75,28,22,0,0
1.7758e+05,9.0045e+07,5,5982,5942,15.11,3.44,28,22,0,0
1.7803e+05,9.0159e+07,5,5930,5814,15.1,3.76,28,22,0,0
1.7843e+05,9.0259e+07,5,5816,5928,15.12,3.56,28,22,0,0
1.7888e+05,9.037e+07,5,5930,5957,15.06,3.55,28,22,0,0
1.7928e+05,9.0475e+07,5,5957,6000,15.11,3.59,28,22,0,0
1.7977e+05,9.0586e+07,5,5989,5857,15.14,3.4,28,22,0,0
1.8018e+05,9.0691e+07,5,5856,5842,15.1,3.31,28,22,0,0
1.8062e+05,9.0794e+07,5,5843,5914,15.08,3.56,28,22,0,0
1.8108e+05,9.091e+07,5,5914,5928,15.13,3.45,28,23,0,0
1.8152e+05,9.1018e+07,5,5927,5914,15.05,3.4,28,23,0,0
1.8197e+05,9.1129e+07,5,5913,5885,15.13,3.51,28,23,0,0
1.8246e+05,9.1244e+07,5,5885,5885,15.11,3.16,28,23,0,0
1.8287e+05,9.1349e+07,5,5881,5785,15.05,3.32,28,23,0,0
1.8336e+05,9.1464e+07,5,5785,5785,15.08,3.33,28,23,0,0
1.8376e+05,9.1563e+07,5,5806,6100,15.04,3.94,28,23,0,0
1.8418e+05,9.1666e+07,5,6104,6200,15.03,4.02,28,23,0,0
1.8459e+05,9.1774e+07,5,6200,6214,14.97,4.18,28,23,0,0
1.8503e+05,9.1883e+07,5,6210,6114,15.04,3.97,28,24,0,0
1.8552e+05,9.1999e+07,5,6123,6228,15.02,4.13,28,24,0,0
1.8593e+05,9.2102e+07,5,6216,6071,14.99,3.65,28,24,0,0
1.8638e+05,9.2211e+07,5,6079,6157,15.11,3.39,28,24,0,0
1.8686e+05,9.2323e+07,5,6140,5957,15.13,3.38,28,24,0,0
1.8731e+05,9.243e+07,5,5947,5828,15.13,3.21,28,24,0,0
1.8772e+05,9.2536e+07,5,5833,5885,15.05,3.42,28,24,0,0
1.8817e+05,9.2642e+07,5,5883,5857,15.05,3.4,28,24,0,0
1.8861e+05,9.2747e+07,5,5856,5828,15.03,3.9,28,24,0,0
1.8906e+05,9.2858e+07,5,5830,5857,15.1,3.34,28,25,0,0
1.8946e+05,9.2963e+07,5,5857,5871,15.06,3.08,28,25,0,0
1.8991e+05,9.3074e+07,5,5869,5757,15.11,2.95,28,25,0,0
1.9036e+05,9.3183e+07,5,5745,5600,15.04,3.03,28,25,0,0
1.908e+05,9.3293e+07,5,5607,5757,15.08,3.47,28,25,0,0
1.9126e+05,9.3403e+07,5,5769,6042,15.04,3.67,28,25,0,0
1.917e+05,9.3509e+07,5,6040,6000,15.05,3.7,28,25,0,0
1.9215e+05,9.3616e+07,5,5999,5985,15.04,3.47,28,25,0,0
1.926e+05,9.3731e+07,5,5976,5885,15.06,3.08,28,25,0,0
1.9305e+05,9.3839e+07,5,5887,5914,15.08,3.49,28,25,0,0
1.9346e+05,9.3943e+07,5,5916,5971,15.07,3.65,28,26,0,0
1.9391e+05,9.4051e+07,5,5974,6028,15.1,3.64,28,26,0,0
1.9436e+05,9.4167e+07,5,6023,5971,15.08,3.89,28,26,0,0
1.9477e+05,9.4274e+07,5,5994,6185,15.05,3.77,28,26,0,0
1.9521e+05,9.438e+07,5,6172,6028,14.99,3.82,28,26,0,0
1.9566e+05,9.4486e+07,5,6042,6185,15.01,3.65,28,26,0,0
1.9611e+05,9.46e+07,5,6172,6042,15.02,3.78,28,26,0,0
1.9652e+05,9.4708e+07,5,6043,6057,15.07,3.66,28,26,0,0
1.9697e+05,9.4813e+07,5,6058,6185,14.98,3.88,28,26,0,0
1.9742e+05,9.4926e+07,5,6192,6285,15.03,4.15,28,26,0,0
1.9786e+05,9.5038e+07,5,6290,6342,15.02,4.08,28,27,0,0
1.9827e+05,9.5136e+07,5,6336,6214,15.1,3.9,28,27,0,0
1.9872e+05,9.5247e+07,5,6203,6071,15.07,3.63,28,27,0,0
1.9917e+05,9.536e+07,5,6052,5857,15.08,3.3,28,27,0,0
1.9958e+05,9.5457e+07,5,5857,5914,15.13,3.27,28,27,0,0
2.0007e+05,9.558e+07,5,5911,5871,15.14,3.42,28,27,0,0
2.0047e+05,9.5679e+07,5,5867,5742,15.05,3.15,28,27,0,0
2.0092e+05,9.5792e+07,5,5748,5842,15.05,3.59,28,27,0,0
2.0138e+05,9.5907e+07,5,5857,6014,15,3.8,28,27,0,0
2.0313e+05,9.6333e+07,5,6011,5742,15.01,3.38,28,28,0,0
2.0358e+05,9.6441e+07,5,5744,5800,15.04,3.53,28,28,0,0
2.0492e+05,9.6777e+07,5,5804,5942,15.01,3.61,28,28,0,0
2.0532e+05,9.6875e+07,5,5939,5842,15.04,3.34,28,28,0,0
2.0582e+05,9.6995e+07,5,5845,5885,15.1,3.23,28,29,0,0
2.0627e+05,9.7103e+07,5,5877,5800,15.08,3.33,28,29,0,0
2.0671e+05,9.721e+07,5,5793,5700,15.14,2.96,28,29,0,0
2.0716e+05,9.7321e+07,5,5715,5871,15.06,3.35,28,29,0,0
2.0756e+05,9.7423e+07,5,5869,5757,14.99,3.35,28,29,0,0
2.0804e+05,9.7536e+07,5,5773,6100,15.04,3.56,28,29,0,0
2.0845e+05,9.764e+07,5,6093,5871,15.02,3.63,28,29,0,0
2.089e+05,9.7753e+07,5,5862,5757,15.08,3.18,29,29,0,0
2.0931e+05,9.7855e+07,5,5762,5871,15,3.39,28,29,0,0
2.0976e+05,9.7969e+07,5,5872,5914,15.08,3.4,28,29,0,0
2.1021e+05,9.8083e+07,5,5913,5900,15.04,3.36,28,30,0,0
2.1066e+05,9.8189e+07,5,5898,5885,14.98,3.64,28,30,0,0
2.1111e+05,9.83e+07,5,5886,5900,14.96,3.34,28,30,0,0
2.1156e+05,9.8414e+07,5,5891,5800,15.01,3.31,28,30,0,0
2.1196e+05,9.8518e+07,5,5805,5928,15.02,3.49,28,30,0,0
2.1245e+05,9.863e+07,5,5918,5828,14.98,3.45,28,30,0,0
2.1285e+05,9.8732e+07,5,5828,5842,15.04,3.68,28,30,0,0
2.133e+05,9.8842e+07,5,5843,5928,15.01,3.53,28,30,0,0
2.1374e+05,9.895e+07,5,5928,5942,15,3.66,29,30,0,0
2.1419e+05,9.9059e+07,5,5940,5914,15.07,3.56,28,31,0,0
2.1512e+05,9.9285e+07,5,5909,5828,15.06,3.4,28,31,0,0
2.1552e+05,9.9384e+07,5,5832,5928,15.07,3.36,29,31,0,0
2.1597e+05,9.9498e+07,5,5912,5742,15.1,3.15,28,31,0,0
2.1642e+05,9.9603e+07,5,5728,5528,15.04,2.83,29,31,0,0
2.1686e+05,9.9716e+07,5,5535,5614,15.08,2.89,28,31,0,0
2.1731e+05,9.9821e+07,5,5599,5400,15.02,2.89,28,31,0,0
2.1776e+05,9.9933e+07,5,5405,5528,15.05,2.87,28,31,0,0
2.1821e+05,1.0004e+08,5,5519,5400,15.06,2.46,28,31,0,0
2.1861e+05,1.0015e+08,5,5397,5328,15.12,2.54,28,31,0,0
2.1909e+05,1.0025e+08,5,5323,5242,15.08,2.55,29,32,0,0
2.1954e+05,1.0037e+08,5,5254,5442,15.06,2.91,28,32,0,0
2.1998e+05,1.0047e+08,5,5440,5371,15.11,2.53,28,32,0,0
2.2043e+05,1.0058e+08,5,5375,5471,15.1,2.83,28,32,0,0
2.2088e+05,1.0069e+08,5,5473,5628,15,3.27,28,32,0,0
2.2136e+05,1.0081e+08,5,5651,5885,15.1,3.64,28,32,0,0
2.2176e+05,1.0091e+08,5,5881,5814,15.14,3.25,28,32,0,0
2.2225e+05,1.0103e+08,5,5780,5500,15.07,2.64,29,32,0,0
2.2266e+05,1.0113e+08,5,5498,5485,15.05,2.94,29,32,0,0
2.2311e+05,1.0124e+08,5,5498,5614,15.07,3.03,29,32,0,0
2.2356e+05,1.0135e+08,5,5579,5271,15.13,2.38,29,32,0,0
2.2441e+05,1.0156e+08,5,5272,5342,15.08,2.67,29,33,0,0
2.2486e+05,1.0167e+08,5,5350,5557,15.06,3.03,29,33,0,0
2.2534e+05,1.0179e+08,5,5567,5685,15.02,3.21,28,33,0,0
2.2574e+05,1.0189e+08,5,5686,5800,15.07,3.23,28,33,0,0
2.2664e+05,1.021e+08,5,5801,5942,15.12,3.55,29,33,0,0
2.2754e+05,1.0233e+08,5,5940,5914,15.1,3.41,28,33,0,0
2.2798e+05,1.0244e+08,5,5900,5728,15.11,3.06,28,33,0,0
2.2843e+05,1.0255e+08,5,5741,5857,15.07,3.4,29,33,0,0
2.2888e+05,1.0266e+08,5,5864,5942,15.07,3.52,29,34,0,0
2.2929e+05,1.0276e+08,5,5942,6014,15.02,3.83,28,34,0,0
2.2977e+05,1.0288e+08,5,6019,6071,15.05,3.89,29,34,0,0
2.3018e+05,1.0298e+08,5,6061,5871,15,3.44,29,34,0,0
2.3063e+05,1.031e+08,5,5884,6028,14.98,3.68,29,34,0,0
2.3104e+05,1.032e+08,5,6022,5900,15,3.61,29,34,0,0
2.3193e+05,1.0342e+08,5,5907,6100,15.06,3.51,28,34,0,0
2.3234e+05,1.0352e+08,5,6100,6100,15.05,3.66,28,35,0,0
2.3279e+05,1.0364e+08,5,6094,6014,15.08,3.52,29,35,0,0
2.3319e+05,1.0374e+08,5,6013,5957,15.05,3.66,28,35,0,0
2.3368e+05,1.0385e+08,5,5966,6057,15,3.53,28,35,0,0
2.3408e+05,1.0396e+08,5,6057,6071,14.97,3.78,28,35,0,0
2.3454e+05,1.0407e+08,5,6068,6014,15.01,3.31,28,35,0,0
2.3498e+05,1.0418e+08,5,6014,6028,15.01,4.2,28,35,0,0
2.3543e+05,1.0429e+08,5,6041,6171,15.07,3.7,28,35,0,0
2.3588e+05,1.044e+08,5,6178,6257,14.96,3.99,28,35,0,0
2.3628e+05,1.045e+08,5,6251,6200,14.97,3.85,28,35,0,0
2.3673e+05,1.0461e+08,5,6191,5985,15.04,3.22,28,36,0,0
2.3717e+05,1.0472e+08,5,5981,5900,15.02,3.47,29,36,0,0
2.3766e+05,1.0483e+08,5,5907,6028,14.97,4.01,29,36,0,0
2.381e+05,1.0494e+08,5,6029,6057,14.98,3.59,28,36,0,0
2.3856e+05,1.0505e+08,5,6051,6000,15.03,3.33,29,36,0,0
2.3895e+05,1.0515e+08,5,5996,5914,15.07,3.21,29,36,0,0
2.394e+05,1.0526e+08,5,5911,5814,14.98,3.41,29,36,0,0
2.3982e+05,1.0537e+08,5,5808,5700,15.02,3.2,29,36,0,0
2.4031e+05,1.0549e+08,5,5721,5971,15.02,3.31,29,36,0,0
2.4071e+05,1.0559e+08,5,5955,5657,15,3.11,29,36,0,0
2.4115e+05,1.057e+08,5,5664,5814,15.03,3.28,29,37,0,0
2.416e+05,1.0581e+08,5,5820,5900,15.03,3.53,28,37,0,0
2.4205e+05,1.0592e+08,5,5901,5928,15,3.5,29,37,0,0
2.425e+05,1.0603e+08,5,5932,6028,15,3.39,29,37,0,0
2.4294e+05,1.0614e+08,5,6034,6171,14.97,3.66,29,37,0,0
2.434e+05,1.0625e+08,5,6167,6085,15.01,3.57,29,37,0,0
2.4425e+05,1.0646e+08,5,6082,5771,15.09,3.33,29,37,0,0
2.4469e+05,1.0657e+08,5,5778,5942,14.94,3.91,29,37,0,0
2.4514e+05,1.0668e+08,5,5958,6100,14.97,3.88,29,38,0,0
2.4558e+05,1.0678e+08,5,6102,6157,14.91,4.03,29,38,0,0
2.4603e+05,1.069e+08,5,6153,6100,14.98,3.87,28,38,0,0
2.4643e+05,1.0699e+08,5,6098,6071,15.01,3.67,29,38,0,0
2.4688e+05,1.0711e+08,5,6071,6071,15.02,3.25,29,38,0,0
2.4733e+05,1.0722e+08,5,6063,5985,15.06,3.66,29,38,0,0
2.4773e+05,1.0732e+08,5,5982,5928,15.04,3.8,28,38,0,0
2.4818e+05,1.0742e+08,5,5935,6042,14.99,3.56,29,38,0,0
2.4862e+05,1.0754e+08,5,6025,5814,15.08,2.92,29,38,0,0
2.4907e+05,1.0765e+08,5,5810,5557,15.13,2.75,28,39,0,0
2.4952e+05,1.0776e+08,5,5558,5600,15.06,3.07,28,39,0,0
2.4996e+05,1.0787e+08,5,5605,5714,15.02,3.29,29,39,0,0
2.5044e+05,1.0798e+08,5,5729,5885,14.94,3.49,28,39,0,0
2.5129e+05,1.0819e+08,5,5884,5871,15,3.43,29,39,0,0
2.5174e+05,1.083e+08,5,5870,5857,14.98,3.09,28,39,0,0
2.5219e+05,1.0841e+08,5,5844,5571,14.99,2.51,29,39,0,0
2.5264e+05,1.0852e+08,5,5576,5657,15.01,3.05,29,39,0,0
2.5308e+05,1.0863e+08,5,5660,5714,15,3.31,29,39,0,0
2.5353e+05,1.0874e+08,5,5720,5814,15.05,3.61,29,40,0,0
2.5398e+05,1.0885e+08,5,5823,5928,15.05,3.72,29,40,0,0
2.5442e+05,1.0896e+08,5,5949,6157,14.95,4.12,28,40,0,0
2.5487e+05,1.0906e+08,5,6151,6071,14.9,3.72,29,40,0,0
2.5531e+05,1.0917e+08,5,6072,6114,14.99,3.78,29,40,0,0
2.5575e+05,1.0928e+08,5,6115,6185,14.98,4.08,28,40,0,0
2.5623e+05,1.094e+08,5,6182,6157,14.98,3.84,29,40,0,0
2.571e+05,1.0961e+08,5,6156,6142,15.01,3.4,29,40,0,0
2.575e+05,1.0972e+08,5,6139,6114,15.02,3.56,29,40,0,0
2.5795e+05,1.0983e+08,5,6113,6100,14.98,3.64,29,41,0,0
2.5839e+05,1.0993e+08,5,6091,5914,15.01,3.66,29,41,0,0
2.5885e+05,1.1005e+08,5,5916,5957,14.99,3.49,28,41,0,0
2.5929e+05,1.1016e+08,5,5938,5728,15.02,2.91,29,41,0,0
2.597e+05,1.1026e+08,5,5729,5828,15.05,3.3,29,41,0,0
2.6022e+05,1.1039e+08,5,5831,5857,15,3.59,29,41,0,0
2.6063e+05,1.1049e+08,5,5876,6057,15.01,3.49,29,41,0,0
2.6108e+05,1.1061e+08,5,6051,6000,15.01,3.28,29,41,0,0
2.6148e+05,1.107e+08,5,5983,5814,15.02,3.25,28,41,0,0
2.6192e+05,1.1081e+08,5,5820,5942,15.05,3.34,29,42,0,0
2.6237e+05,1.1092e+08,5,5932,5800,15.05,2.97,29,42,0,0
2.6281e+05,1.1103e+08,5,5796,5757,14.98,3.37,29,42,0,0
2.6322e+05,1.1113e+08,5,5763,6042,14.98,3.73,29,42,0,0
2.6371e+05,1.1125e+08,5,6014,5742,15.11,2.82,29,42,0,0
2.6411e+05,1.1135e+08,5,5735,5657,15.05,3.11,29,42,0,0
2.6456e+05,1.1146e+08,5,5648,5485,15.1,3.09,29,42,0,0
2.6501e+05,1.1157e+08,5,5480,5442,15.01,2.56,29,42,0,0
2.6546e+05,1.1169e+08,5,5442,5457,15,2.84,29,42,0,0
2.6586e+05,1.1179e+08,5,5457,5457,15.07,3.04,29,42,0,0
2.6631e+05,1.119e+08,5,5462,5542,14.98,2.93,29,42,0,0
2.6676e+05,1.1201e+08,5,5542,5557,15.03,2.77,29,43,0,0
2.6765e+05,1.1223e+08,5,5559,5614,15.07,3.06,29,43,0,0
2.6804e+05,1.1232e+08,5,5616,5714,15.01,3.22,29,43,0,0
2.6854e+05,1.1245e+08,5,5704,5600,14.93,3.37,29,43,0,0
2.6894e+05,1.1255e+08,5,5613,5800,15,3.51,29,43,0,0
2.694e+05,1.1267e+08,5,5816,5928,14.97,3.48,29,43,0,0
2.698e+05,1.1276e+08,5,5935,6128,14.94,3.73,29,43,0,0
2.7024e+05,1.1287e+08,5,6124,6057,14.9,3.64,29,43,0,0
2.7065e+05,1.1297e+08,5,6048,5842,15.08,3.25,29,43,0,0
2.711e+05,1.1309e+08,5,5844,5871,14.96,3.63,29,44,0,0
2.715e+05,1.1319e+08,5,5872,5957,15,3.5,29,44,0,0
2.7199e+05,1.1331e+08,5,5951,5714,15.01,3.11,29,44,0,0
2.724e+05,1.1341e+08,5,5716,5828,14.98,3.71,29,44,0,0
2.7288e+05,1.1352e+08,5,5835,5928,14.93,3.82,29,44,0,0
2.7333e+05,1.1363e+08,5,5935,6028,14.97,3.89,29,44,0,0
2.7374e+05,1.1374e+08,5,6044,6214,15.04,3.85,29,44,0,0
2.7419e+05,1.1385e+08,5,6201,6085,15,3.87,29,44,0,0
2.7508e+05,1.1407e+08,5,6082,6042,14.98,3.95,29,45,0,0
2.7548e+05,1.1417e+08,5,6042,6042,14.95,4.08,29,45,0,0
2.7633e+05,1.1438e+08,5,6042,6085,14.99,3.97,29,45,0,0
2.7682e+05,1.145e+08,5,6079,6028,14.95,3.86,29,45,0,0
2.7727e+05,1.1461e+08,5,6033,6085,14.98,4.08,29,45,0,0
2.7767e+05,1.1471e+08,5,6083,6057,14.91,3.75,29,45,0,0
2.7812e+05,1.1482e+08,5,6050,5971,14.94,3.57,29,45,0,0
2.7856e+05,1.1493e+08,5,5965,5914,14.99,3.42,29,46,0,0
2.7897e+05,1.1503e+08,5,5910,5757,15.02,3.36,29,46,0,0
2.7942e+05,1.1515e+08,5,5757,5757,14.91,3.37,29,46,0,0
2.7987e+05,1.1526e+08,5,5767,5857,14.91,3.63,29,46,0,0
2.8032e+05,1.1537e+08,5,5859,5885,14.97,3.58,29,46,0,0
2.8117e+05,1.1558e+08,5,5885,5885,14.95,3.57,29,46,0,0
2.8157e+05,1.1568e+08,5,5886,5928,14.94,3.27,29,46,0,0
2.8207e+05,1.158e+08,5,5930,5957,14.97,3.58,29,46,0,0
2.8246e+05,1.159e+08,5,5958,6000,14.91,3.88,29,46,0,0
2.8292e+05,1.1601e+08,5,5994,5885,14.94,3.83,29,47,0,0
2.8336e+05,1.1612e+08,5,5891,5971,14.97,3.87,29,47,0,0
2.838e+05,1.1623e+08,5,5978,6071,14.91,3.96,29,47,0,0
2.8425e+05,1.1634e+08,5,6071,6071,14.94,3.84,29,47,0,0
2.847e+05,1.1645e+08,5,6069,6057,14.97,3.74,29,47,0,0
2.8514e+05,1.1655e+08,5,6054,6000,14.92,4.01,29,47,0,0
2.8558e+05,1.1666e+08,5,6002,6057,14.94,3.67,29,47,0,0
2.8603e+05,1.1678e+08,5,6046,5900,14.99,3.51,29,47,0,0
2.8648e+05,1.1689e+08,5,5900,5900,15.07,3.18,29,47,0,0
2.8685e+05,1.1699e+08,5,5893,5628,15.11,2.82,29,48,0,0
2.873e+05,1.171e+08,5,5625,5585,15.07,2.77,29,48,0,0
2.8775e+05,1.1721e+08,5,5561,5242,15.17,2.13,29,48,0,0
2.8815e+05,1.1731e+08,5,5235,5100,15.13,2.55,29,48,0,0
2.886e+05,1.1743e+08,5,5098,5071,15.08,2.49,29,48,0,0
2.8904e+05,1.1753e+08,5,5068,4971,15.08,2.39,29,48,0,0
2.8954e+05,1.1765e+08,5,4971,4971,15.12,2.13,29,48,0,0
2.8998e+05,1.1776e+08,5,4973,5014,15.05,2.52,29,48,0,0
2.9042e+05,1.1787e+08,5,5016,5071,14.98,2.57,29,48,0,0
2.9087e+05,1.1797e+08,5,5072,5085,15.01,2.36,29,48,0,0
2.9127e+05,1.1808e+08,5,5101,5385,14.99,3.16,29,48,0,0
2.9172e+05,1.1819e+08,5,5388,5442,14.98,2.95,29,48,0,0
2.9217e+05,1.183e+08,5,5428,5285,15.06,2.46,29,48,0,0
2.9306e+05,1.1852e+08,5,5285,5314,15.04,2.44,29,49,0,0
2.9351e+05,1.1863e+08,5,5307,5214,15.02,2.72,29,49,0,0
2.9395e+05,1.1874e+08,5,5215,5242,15.03,2.43,29,49,0,0
2.944e+05,1.1885e+08,5,5239,5200,15.07,2.54,29,49,0,0
2.9481e+05,1.1895e+08,5,5207,5357,15,2.76,29,49,0,0
2.9526e+05,1.1906e+08,5,5362,5471,15,3.1,29,49,0,0
2.957e+05,1.1917e+08,5,5472,5500,15.03,2.81,29,49,0,0
2.9611e+05,1.1927e+08,5,5498,5400,15.01,2.86,29,49,0,0
2.9656e+05,1.1938e+08,5,5400,5457,15.01,2.97,29,49,0,0
2.9704e+05,1.195e+08,5,5468,5585,15.01,3.01,29,49,0,0
2.9757e+05,1.1971e+08,5,5758,5585,15,2.96,29,50,0,0
2.9802e+05,1.1982e+08,5,5579,5514,15.07,2.84,29,50,0,0
2.9842e+05,1.1991e+08,5,5505,5328,15.03,2.79,29,50,0,0
2.9936e+05,1.2014e+08,5,5335,5500,15.01,2.99,29,50,0,0
2.998e+05,1.2025e+08,5,5511,5628,15.07,2.97,29,50,0,0
3.0025e+05,1.2036e+08,5,5620,5514,15.03,3.16,29,50,0,0
3.0069e+05,1.2047e+08,5,5505,5400,14.91,3.17,29,50,0,0
3.0114e+05,1.2058e+08,5,5409,5500,15.09,2.7,29,50,0,0
3.0161e+05,1.2069e+08,5,5489,5414,15.01,2.73,29,50,0,0
3.0202e+05,1.2079e+08,5,5414,5414,15.04,2.88,29,50,0,0
3.0247e+05,1.209e+08,5,5414,5414,14.97,2.87,29,51,0,0
3.0287e+05,1.21e+08,5,5421,5571,14.89,3.51,29,51,0,0
3.0332e+05,1.2111e+08,5,5595,5900,14.84,4.05,29,51,0,0
3.0372e+05,1.2121e+08,5,5906,6142,14.82,4.4,29,51,0,0
3.0417e+05,1.2133e+08,5,6148,6242,14.82,4.4,29,51,0,0
3.0462e+05,1.2143e+08,5,6234,6042,14.89,4.08,29,51,0,0
3.0506e+05,1.2155e+08,5,6049,6171,14.85,4.16,29,51,0,0
3.0555e+05,1.2166e+08,5,6179,6242,14.93,3.93,29,51,0,0
3.0595e+05,1.2176e+08,5,6236,6171,14.96,3.59,29,51,0,0
3.064e+05,1.2188e+08,5,6155,5985,15.04,3.61,29,52,0,0
3.0685e+05,1.2198e+08,5,5981,5914,15.01,3.16,29,52,0,0
3.073e+05,1.2209e+08,5,5917,5971,14.95,3.29,29,52,0,0
3.0778e+05,1.2221e+08,5,5962,5871,14.97,3.16,29,52,0,0
3.0822e+05,1.2232e+08,5,5871,5871,15,3.19,29,52,0,0
3.0867e+05,1.2243e+08,5,5855,5757,14.97,3.57,29,52,0,0
3.0952e+05,1.2263e+08,5,5762,5871,14.95,3.46,29,52,0,0
3.0993e+05,1.2274e+08,5,5874,5914,15.02,3.51,29,52,0,0
3.1038e+05,1.2285e+08,5,5915,5942,15.02,3.17,29,53,0,0
3.1083e+05,1.2296e+08,5,5931,5828,14.94,3.28,29,53,0,0
3.1123e+05,1.2306e+08,5,5828,5857,15,3.6,29,53,0,0
3.1168e+05,1.2317e+08,5,5855,5828,14.98,3.48,29,53,0,0
3.1216e+05,1.2329e+08,5,5849,6042,14.96,3.45,29,53,0,0
3.1256e+05,1.2339e+08,5,6039,5985,15.04,3.44,29,53,0,0
3.1302e+05,1.2351e+08,5,5990,6071,14.99,3.45,29,53,0,0
3.1342e+05,1.2361e+08,5,6049,5828,15,3.38,29,53,0,0
3.1387e+05,1.2372e+08,5,5834,5914,15,3.19,29,53,0,0
3.1436e+05,1.2384e+08,5,5917,5957,14.99,3.4,29,53,0,0
3.1472e+05,1.2393e+08,5,5955,5885,15.05,3.42,29,54,0,0
3.1521e+05,1.2405e+08,5,5887,5914,15,3.14,29,54,0,0
3.1562e+05,1.2415e+08,5,5906,5814,15.01,3.3,29,54,0,0
3.1651e+05,1.2437e+08,5,5811,5742,15.07,3.09,29,54,0,0
3.1695e+05,1.2448e+08,5,5746,5828,15.04,2.91,29,54,0,0
3.174e+05,1.2459e+08,5,5814,5628,15.05,3.01,29,54,0,0
3.178e+05,1.2469e+08,5,5630,5742,14.98,3.08,29,54,0,0
3.1826e+05,1.248e+08,5,5742,5771,15.04,3.2,29,54,0,0
3.187e+05,1.2492e+08,5,5766,5714,14.98,3.46,29,54,0,0
3.1915e+05,1.2502e+08,5,5719,5828,15.1,3.25,29,55,0,0
3.196e+05,1.2513e+08,5,5831,5914,14.98,3.28,29,55,0,0
3.2005e+05,1.2524e+08,5,5898,5742,15.05,2.77,29,55,0,0
3.2045e+05,1.2535e+08,5,5696,5114,15.36,1.08,29,55,0,0
3.2086e+05,1.2545e+08,5,5089,3714,15.25,0.72,29,55,0,0
3.2135e+05,1.2557e+08,5,3696,3457,15.48,0.42,29,55,0,0
3.218e+05,1.2568e+08,5,3404,2814,15.5,0.18,29,55,0,0
3.222e+05,1.2578e+08,5,2810,2742,15.47,0.39,29,55,0,0
3.231e+05,1.26e+08,5,2739,2657,15.44,0.43,29,55,0,0
3.2354e+05,1.2611e+08,5,2659,2685,15.47,0.4,29,55,0,0
3.2394e+05,1.2621e+08,5,2684,2657,15.45,0.38,29,55,0,0
3.2439e+05,1.2633e+08,5,2656,2642,15.46,0.38,29,55,0,0
3.248e+05,1.2643e+08,5,2642,2657,15.46,0.38,29,55,0,0
3.2529e+05,1.2655e+08,5,2656,2642,15.47,0.38,29,55,0,0
3.2574e+05,1.2666e+08,5,2643,2657,15.47,0.4,29,55,0,0
3.2614e+05,1.2676e+08,5,2655,2642,15.48,0.35,29,55,0,0
3.2659e+05,1.2687e+08,5,2644,2671,15.48,0.38,29,55,0,0
3.2704e+05,1.2698e+08,5,2673,2742,15.47,0.46,29,55,0,0
3.2752e+05,1.2709e+08,5,2744,2785,15.48,0.44,29,55,0,0
3.2797e+05,1.272e+08,5,2786,2814,15.48,0.43,28,55,0,0
3.2841e+05,1.273e+08,5,2812,2785,15.5,0.42,29,55,0,0
3.2886e+05,1.2741e+08,5,2774,2057,15.56,0.02,29,55,0,0
3.2935e+05,1.2753e+08,5,2020,1500,15.55,0,28,55,0,0
3.2975e+05,1.2763e+08,5,1496,1300,15.54,0.06,28,55,0,0
3.3028e+05,1.2774e+08,5,1298,1271,15.55,0.09,29,55,0,0
3.3069e+05,1.2785e+08,5,1270,1257,15.54,0.09,28,55,0,0
3.3118e+05,1.2796e+08,5,1257,1257,15.54,0.09,28,55,0,0
3.3162e+05,1.2807e+08,5,1257,1257,15.54,0.09,28,55,0,0
3.3207e+05,1.2817e+08,5,1257,1257,15.54,0.09,28,55,0,0
3.3252e+05,1.2828e+08,5,1257,1257,15.55,0.09,28,55,0,0
3.3301e+05,1.284e+08,5,1257,1257,15.55,0.09,28,55,0,0
3.3345e+05,1.2851e+08,5,1257,1257,15.55,0.09,28,55,0,0
3.339e+05,1.2861e+08,5,1257,1257,15.55,0.09,28,55,0,0
3.3434e+05,1.2872e+08,5,1257,1257,15.55,0.09,28,55,0,0
3.3483e+05,1.2884e+08,5,1257,1257,15.57,0.09,28,55,0,0
3.3525e+05,1.2895e+08,5,1214,828,15.58,0.02,28,55,0,0
3.3664e+05,1.2928e+08,5,799,0,15.58,0.02,28,55,0,0
3.371e+05,1.2939e+08,5,0,0,15.58,0.02,28,55,0,0
3.3751e+05,1.2949e+08,5,0,0,15.58,0.02,28,55,0,0
3.3796e+05,1.2959e+08,5,0,0,15.59,0.02,28,55,0,0
3.3845e+05,1.2971e+08,5,0,0,15.59,0.02,28,55,0,0
3.389e+05,1.2981e+08,5,0,0,15.6,0.03,28,55,0,0
3.3935e+05,1.2992e+08,5,0,0,15.6,0.02,28,55,0,0
3.3985e+05,1.3004e+08,5,0,0,15.59,0.02,28,55,0,0
3.403e+05,1.3015e+08,5,0,0,15.59,0.02,28,55,0,0
3.4075e+05,1.3025e+08,5,0,0,15.6,0.02,28,55,0,0
3.4169e+05,1.3048e+08,5,0,0,15.6,0.02,28,55,0,0
3.4219e+05,1.3059e+08,5,0,0,15.6,0.02,28,55,0,0
3.4264e+05,1.307e+08,5,0,0,15.6,0.02,28,55,0,0
3.4309e+05,1.308e+08,5,0,0,15.61,0.02,28,55,0,0
3.4355e+05,1.3091e+08,5,0,0,15.61,0.02,28,55,0,0
3.4404e+05,1.3103e+08,5,0,0,15.61,0.02,28,55,0,0
3.4449e+05,1.3113e+08,5,0,0,15.61,0.02,28,55,0,0
3.4543e+05,1.3136e+08,5,0,0,15.61,0.02,28,55,0,0
3.4589e+05,1.3146e+08,5,0,0,15.62,0.02,28,55,0,0
3.4634e+05,1.3157e+08,5,0,0,15.61,0.02,28,55,0,0
3.4679e+05,1.3168e+08,5,0,0,15.62,0.02,28,55,0,0
3.4724e+05,1.3178e+08,5,0,0,15.61,0.02,28,55,0,0
3.4769e+05,1.3189e+08,5,0,0,15.62,0.02,28,55,0,0
3.4815e+05,1.32e+08,5,0,0,15.62,0.02,28,55,0,0
