LineNo,TimeUS,Instance,RPM,RawRPM,Volt,Curr,Temp,CTot,MotTemp,Err
1589,1.3351e+07,4,0,0,15.75,0.03,29,0,0,0
2461,1.3573e+07,4,0,0,15.75,0.03,29,0,0,0
2873,1.368e+07,4,0,0,15.75,0.03,29,0,0,0
3288,1.3786e+07,4,0,0,15.75,0.03,29,0,0,0
3699,1.3888e+07,4,0,0,15.75,0.03,29,0,0,0
4115,1.3998e+07,4,0,0,15.75,0.03,29,0,0,0
4568,1.411e+07,4,0,0,15.75,0.03,29,0,0,0
4974,1.4212e+07,4,0,0,15.75,0.03,29,0,0,0
5428,1.4325e+07,4,0,0,15.75,0.03,29,0,0,0
5845,1.4434e+07,4,0,0,15.75,0.03,29,0,0,0
6259,1.4538e+07,4,0,0,15.74,0.03,29,0,0,0
6669,1.4642e+07,4,0,0,15.75,0.03,29,0,0,0
7125,1.4754e+07,4,0,0,15.75,0.03,29,0,0,0
7540,1.4861e+07,4,0,0,15.75,0.03,29,0,0,0
7956,1.4968e+07,4,0,0,15.75,0.03,29,0,0,0
8373,1.5074e+07,4,0,0,15.74,0.04,29,0,0,0
8820,1.5185e+07,4,0,0,15.75,0.03,29,0,0,0
9235,1.5291e+07,4,0,0,15.75,0.03,29,0,0,0
9648,1.54e+07,4,0,0,15.75,0.03,29,0,0,0
10059,1.55e+07,4,0,0,15.75,0.03,29,0,0,0
10532,1.5616e+07,4,0,0,15.75,0.03,29,0,0,0
10787,1.5721e+07,4,0,0,15.75,0.03,29,0,0,0
11203,1.5826e+07,4,0,0,15.75,0.03,29,0,0,0
11658,1.5941e+07,4,0,0,15.75,0.03,29,0,0,0
12071,1.6043e+07,4,0,0,15.74,0.03,29,0,0,0
12493,1.615e+07,4,0,0,15.75,0.03,29,0,0,0
12944,1.6263e+07,4,0,0,15.75,0.03,29,0,0,0
13353,1.6366e+07,4,0,0,15.75,0.03,29,0,0,0
13808,1.6481e+07,4,0,0,15.75,0.03,29,0,0,0
14222,1.6583e+07,4,0,0,15.75,0.03,29,0,0,0
14636,1.6687e+07,4,0,0,15.75,0.03,29,0,0,0
15091,1.6803e+07,4,0,0,15.75,0.03,29,0,0,0
15509,1.6907e+07,4,0,0,15.75,0.03,29,0,0,0
15923,1.7013e+07,4,0,0,15.75,0.03,29,0,0,0
16374,1.7126e+07,4,0,0,15.75,0.03,29,0,0,0
16785,1.7231e+07,4,0,0,15.74,0.03,29,0,0,0
17608,1.744e+07,4,0,0,15.75,0.03,29,0,0,0
18029,1.7553e+07,4,0,0,15.75,0.03,29,0,0,0
18442,1.7655e+07,4,0,0,15.75,0.03,29,0,0,0
18890,1.7763e+07,4,0,0,15.75,0.03,29,0,0,0
19343,1.7882e+07,4,0,0,15.75,0.03,29,0,0,0
19760,1.7987e+07,4,0,0,15.75,0.03,29,0,0,0
20169,1.809e+07,4,0,0,15.75,0.03,29,0,0,0
20590,1.8198e+07,4,0,0,15.75,0.03,29,0,0,0
21007,1.8304e+07,4,0,0,15.75,0.03,29,0,0,0
21874,1.8524e+07,4,0,0,15.75,0.03,29,0,0,0
22285,1.8628e+07,4,0,0,15.75,0.03,29,0,0,0
22701,1.8737e+07,4,0,0,15.75,0.03,29,0,0,0
23153,1.8851e+07,4,0,0,15.75,0.03,29,0,0,0
23561,1.8954e+07,4,0,0,15.75,0.03,29,0,0,0
24017,1.9067e+07,4,0,0,15.75,0.03,29,0,0,0
24429,1.917e+07,4,0,0,15.75,0.03,29,0,0,0
24883,1.9286e+07,4,0,0,15.75,0.03,29,0,0,0
25293,1.939e+07,4,0,0,15.75,0.03,29,0,0,0
26120,1.9601e+07,4,0,0,15.75,0.03,29,0,0,0
26575,1.9715e+07,4,0,0,15.75,0.03,29,0,0,0
26990,1.9821e+07,4,0,0,15.75,0.03,29,0,0,0
27403,1.9925e+07,4,0,0,15.75,0.02,29,0,0,0
27856,2.0042e+07,4,0,0,15.75,0.03,29,0,0,0
28275,2.0147e+07,4,0,0,15.75,0.03,29,0,0,0
28733,2.0264e+07,4,0,0,15.75,0.03,29,0,0,0
29145,2.0367e+07,4,0,0,15.75,0.03,29,0,0,0
29594,2.0477e+07,4,0,0,15.75,0.03,29,0,0,0
30005,2.0583e+07,4,0,0,15.75,0.03,29,0,0,0
30459,2.0697e+07,4,0,0,15.75,0.03,29,0,0,0
30829,2.0793e+07,4,0,0,15.75,0.03,29,0,0,0
31282,2.0905e+07,4,0,0,15.75,0.03,29,0,0,0
31702,2.1014e+07,4,0,0,15.75,0.03,29,0,0,0
32120,2.112e+07,4,0,0,15.75,0.03,29,0,0,0
32582,2.1234e+07,4,0,0,15.75,0.03,29,0,0,0
32996,2.1337e+07,4,0,0,15.75,0.03,29,0,0,0
33412,2.1443e+07,4,0,0,15.75,0.03,29,0,0,0
33832,2.1554e+07,4,0,0,15.75,0.03,29,0,0,0
34287,2.167e+07,4,0,0,15.75,0.03,29,0,0,0
34703,2.1775e+07,4,0,0,15.75,0.03,29,0,0,0
35094,2.1878e+07,4,0,0,15.75,0.03,29,0,0,0
35541,2.1992e+07,4,0,0,15.75,0.03,29,0,0,0
35955,2.2095e+07,4,0,0,15.74,0.03,29,0,0,0
36375,2.2205e+07,4,0,0,15.75,0.03,29,0,0,0
36832,2.2317e+07,4,0,0,15.75,0.03,29,0,0,0
37244,2.2423e+07,4,0,0,15.75,0.03,29,0,0,0
37655,2.2527e+07,4,0,0,15.75,0.03,29,0,0,0
38065,2.2629e+07,4,0,0,15.75,0.03,29,0,0,0
38523,2.2744e+07,4,0,0,15.75,0.03,29,0,0,0
38936,2.2852e+07,4,0,0,15.75,0.03,29,0,0,0
39351,2.2959e+07,4,0,0,15.75,0.03,29,0,0,0
39759,2.3062e+07,4,0,0,15.75,0.03,29,0,0,0
40212,2.3176e+07,4,0,0,15.75,0.03,29,0,0,0
40629,2.3281e+07,4,0,0,15.75,0.03,29,0,0,0
41088,2.3394e+07,4,0,0,15.75,0.03,29,0,0,0
41503,2.3498e+07,4,0,0,15.75,0.03,29,0,0,0
41956,2.3615e+07,4,0,0,15.75,0.03,29,0,0,0
42370,2.3721e+07,4,0,0,15.75,0.03,29,0,0,0
42787,2.3827e+07,4,0,0,15.75,0.03,29,0,0,0
43197,2.3931e+07,4,0,0,15.75,0.03,29,0,0,0
44095,2.4156e+07,4,0,0,15.75,0.03,29,0,0,0
44919,2.4366e+07,4,0,0,15.75,0.03,29,0,0,0
45373,2.4481e+07,4,0,0,15.75,0.03,29,0,0,0
46236,2.4694e+07,4,0,0,15.75,0.03,29,0,0,0
46653,2.4803e+07,4,0,0,15.75,0.03,29,0,0,0
47064,2.4907e+07,4,0,0,15.75,0.03,29,0,0,0
47514,2.5021e+07,4,0,0,15.75,0.03,29,0,0,0
47927,2.5126e+07,4,0,0,15.75,0.03,29,0,0,0
48340,2.523e+07,4,0,0,15.75,0.03,29,0,0,0
48797,2.5346e+07,4,0,0,15.75,0.03,29,0,0,0
49205,2.5449e+07,4,0,0,15.75,0.03,29,0,0,0
49627,2.5555e+07,4,0,0,15.75,0.03,29,0,0,0
50044,2.5662e+07,4,0,0,15.75,0.03,29,0,0,0
50495,2.5777e+07,4,0,0,15.75,0.03,29,0,0,0
50855,2.5879e+07,4,0,0,15.75,0.03,29,0,0,0
51270,2.5987e+07,4,0,0,15.75,0.03,29,0,0,0
51682,2.6093e+07,4,0,0,15.75,0.03,29,0,0,0
52138,2.6206e+07,4,0,0,15.75,0.03,29,0,0,0
52549,2.6313e+07,4,0,0,15.75,0.03,29,0,0,0
52965,2.6418e+07,4,0,0,15.75,0.03,29,0,0,0
53417,2.6534e+07,4,0,0,15.75,0.03,29,0,0,0
53827,2.6637e+07,4,0,0,15.75,0.03,29,0,0,0
54246,2.6745e+07,4,0,0,15.75,0.03,29,0,0,0
54659,2.6851e+07,4,0,0,15.75,0.03,29,0,0,0
55122,2.6967e+07,4,0,0,15.75,0.03,29,0,0,0
55534,2.707e+07,4,0,0,15.75,0.03,29,0,0,0
55948,2.7175e+07,4,0,0,15.75,0.03,29,0,0,0
56172,6.0586e+07,4,0,0,15.75,0.04,29,0,0,0
56378,6.0638e+07,4,0,0,15.75,0.04,29,0,0,0
56733,6.0732e+07,4,0,0,15.75,0.04,29,0,0,0
57230,6.0844e+07,4,0,0,15.75,0.04,29,0,0,0
57683,6.0947e+07,4,0,0,15.75,0.04,29,0,0,0
58138,6.1051e+07,4,0,0,15.75,0.04,29,0,0,0
58586,6.1155e+07,4,0,0,15.75,0.04,29,0,0,0
59083,6.1269e+07,4,0,0,15.75,0.04,29,0,0,0
59536,6.1369e+07,4,0,0,15.75,0.04,29,0,0,0
60066,6.1487e+07,4,0,0,15.75,0.04,29,0,0,0
60527,6.1593e+07,4,0,0,15.75,0.04,29,0,0,0
60984,6.17e+07,4,0,0,15.75,0.04,29,0,0,0
61441,6.1804e+07,4,0,0,15.75,0.04,29,0,0,0
61902,6.1914e+07,4,0,0,15.75,0.04,29,0,0,0
62359,6.2017e+07,4,0,0,15.75,0.04,29,0,0,0
62813,6.2124e+07,4,0,0,15.75,0.04,29,0,0,0
63269,6.2228e+07,4,0,0,15.75,0.04,29,0,0,0
63721,6.2333e+07,4,0,0,15.75,0.04,29,0,0,0
64223,6.2447e+07,4,0,0,15.75,0.04,29,0,0,0
64671,6.255e+07,4,0,0,15.75,0.04,29,0,0,0
65171,6.2662e+07,4,0,0,15.75,0.02,29,0,0,0
65618,6.2765e+07,4,9,128,15.74,0.06,29,0,0,0
66113,6.2877e+07,4,189,757,15.73,0.12,29,0,0,0
66570,6.2981e+07,4,781,1128,15.73,0.15,29,0,0,0
67020,6.3085e+07,4,1129,1228,15.73,0.11,29,0,0,0
67514,6.3198e+07,4,1232,1271,15.73,0.11,29,0,0,0
67846,6.33e+07,4,1272,1285,15.73,0.11,29,0,0,0
68304,6.3403e+07,4,1285,1300,15.73,0.11,29,0,0,0
68762,6.3512e+07,4,1300,1300,15.73,0.1,29,0,0,0
69262,6.3624e+07,4,1300,1300,15.73,0.1,29,0,0,0
69713,6.373e+07,4,1300,1300,15.73,0.1,29,0,0,0
70166,6.3831e+07,4,1299,1285,15.73,0.1,29,0,0,0
70627,6.3939e+07,4,1285,1300,15.73,0.1,29,0,0,0
71081,6.4041e+07,4,1300,1300,15.73,0.1,29,0,0,0
71574,6.4153e+07,4,1298,1285,15.73,0.1,29,0,0,0
72031,6.4255e+07,4,1285,1300,15.73,0.1,29,0,0,0
72525,6.4367e+07,4,1300,1300,15.74,0.1,29,0,0,0
72937,6.4465e+07,4,1300,1300,15.73,0.1,29,0,0,0
73435,6.4576e+07,4,1300,1300,15.73,0.1,29,0,0,0
73883,6.4679e+07,4,1300,1300,15.73,0.1,29,0,0,0
74389,6.4797e+07,4,1300,1300,15.74,0.1,29,0,0,0
74811,6.4902e+07,4,1300,1300,15.74,0.1,29,0,0,0
75261,6.5003e+07,4,1300,1300,15.74,0.1,29,0,0,0
75714,6.511e+07,4,1300,1300,15.73,0.1,29,0,0,0
76660,6.5332e+07,4,1300,1300,15.73,0.1,29,0,0,0
77159,6.5445e+07,4,1300,1300,15.73,0.1,29,0,0,0
77610,6.5552e+07,4,1300,1300,15.73,0.1,29,0,0,0
78068,6.5655e+07,4,1300,1300,15.73,0.1,29,0,0,0
78520,6.5764e+07,4,1300,1300,15.73,0.1,29,0,0,0
79021,6.5883e+07,4,1298,1285,15.73,0.11,29,0,0,0
79433,6.5975e+07,4,1285,1300,15.73,0.11,29,0,0,0
79927,6.6093e+07,4,1300,1300,15.74,0.11,29,0,0,0
80379,6.6194e+07,4,1300,1300,15.74,0.11,29,0,0,0
80830,6.6302e+07,4,1300,1300,15.74,0.11,29,0,0,0
81254,6.6405e+07,4,1300,1300,15.73,0.11,29,0,0,0
81750,6.6521e+07,4,1300,1300,15.73,0.11,29,0,0,0
82205,6.6624e+07,4,1300,1300,15.73,0.11,29,0,0,0
82699,6.6739e+07,4,1300,1300,15.74,0.11,29,0,0,0
83121,6.6839e+07,4,1300,1300,15.73,0.11,29,0,0,0
83615,6.695e+07,4,1298,1285,15.74,0.11,29,0,0,0
84068,6.7054e+07,4,1285,1285,15.74,0.11,29,0,0,0
84522,6.7163e+07,4,1294,1414,15.72,0.19,29,0,0,0
85018,6.7276e+07,4,1451,1985,15.58,0.73,29,0,0,0
85396,6.7377e+07,4,1998,2671,15.48,1.13,29,0,0,0
85889,6.7491e+07,4,2712,3285,15.55,1.47,30,0,0,0
86344,6.7598e+07,4,3315,3757,15.4,1.7,29,0,0,0
86797,6.7705e+07,4,3795,4528,15.34,2.67,29,0,0,0
87749,6.793e+07,4,4559,5528,15.19,3.54,29,0,0,0
88206,6.8038e+07,4,5556,5942,15.06,3.94,29,1,0,0
88660,6.8151e+07,4,5943,5971,15.15,3.41,29,1,0,0
89111,6.8258e+07,4,5967,5914,15.2,3.06,29,1,0,0
89571,6.8372e+07,4,5895,5742,15.2,2.76,29,1,0,0
90444,6.8587e+07,4,5736,5471,15.19,2.29,29,1,0,0
90892,6.8694e+07,4,5464,5328,15.15,2.11,29,1,0,0
91393,6.8808e+07,4,5309,5071,15.13,2.32,29,1,0,0
91843,6.8918e+07,4,5078,5157,15.19,2.09,30,1,0,0
92297,6.9024e+07,4,5130,4857,15.16,1.65,30,1,0,0
92747,6.9134e+07,4,4841,4685,15.13,1.8,30,1,0,0
93202,6.924e+07,4,4698,4885,15.17,2.38,30,1,0,0
93648,6.9349e+07,4,4907,5214,15.19,2.78,30,2,0,0
94098,6.9454e+07,4,5228,5428,15.17,2.68,30,2,0,0
94514,6.9558e+07,4,5428,5442,15.16,3.03,30,2,0,0
95010,6.9673e+07,4,5444,5657,15.17,2.87,30,2,0,0
95508,6.9788e+07,4,5658,5671,15.23,2.76,30,2,0,0
95922,6.9893e+07,4,5656,5314,15.21,2.39,30,2,0,0
96419,7.0009e+07,4,5319,5371,15.14,2.82,30,2,0,0
96830,7.011e+07,4,5378,5542,15.13,2.78,30,2,0,0
97328,7.0228e+07,4,5553,5671,15.16,3.05,30,2,0,0
97740,7.0329e+07,4,5672,5714,15.06,2.93,30,2,0,0
98240,7.0448e+07,4,5706,5628,15.06,3.03,30,2,0,0
98645,7.0554e+07,4,5634,5714,14.99,2.79,30,2,0,0
99534,7.0776e+07,4,5700,5371,15.07,2.36,30,3,0,0
99982,7.0889e+07,4,5371,5371,15.14,2.51,30,3,0,0
1.0039e+05,7.0986e+07,4,5359,5128,15.19,1.77,30,3,0,0
1.0084e+05,7.1097e+07,4,5123,5071,15.2,1.96,30,3,0,0
1.0129e+05,7.1207e+07,4,5067,5028,15.11,2.17,30,3,0,0
1.017e+05,7.131e+07,4,5022,4942,15.19,1.83,30,3,0,0
1.0215e+05,7.1421e+07,4,4939,4885,15.09,2.21,30,3,0,0
1.0259e+05,7.1534e+07,4,4895,5071,15.13,2.4,30,3,0,0
1.0345e+05,7.1757e+07,4,5076,5171,15.12,2.23,30,3,0,0
1.0393e+05,7.187e+07,4,5177,5242,15.11,2.68,30,3,0,0
1.0428e+05,7.1965e+07,4,5247,5385,15.14,2.78,30,3,0,0
1.0472e+05,7.2075e+07,4,5385,5400,15.19,2.66,30,3,0,0
1.0522e+05,7.2194e+07,4,5403,5457,15.16,2.64,30,4,0,0
1.0558e+05,7.2287e+07,4,5455,5357,15.13,2.37,30,4,0,0
1.0607e+05,7.2405e+07,4,5355,5257,15.11,2.37,30,4,0,0
1.0651e+05,7.2516e+07,4,5281,5514,15.12,2.83,30,4,0,0
1.0696e+05,7.2627e+07,4,5508,5442,15.15,2.67,30,4,0,0
1.0736e+05,7.2727e+07,4,5416,5228,15.14,2.41,30,4,0,0
1.0781e+05,7.2833e+07,4,5225,5200,15.11,2.36,30,4,0,0
1.0826e+05,7.2947e+07,4,5210,5357,15.05,2.63,30,4,0,0
1.0871e+05,7.3055e+07,4,5345,5242,15.11,2.29,30,4,0,0
1.0912e+05,7.3157e+07,4,5242,5242,15.08,2.16,30,4,0,0
1.096e+05,7.3275e+07,4,5233,5157,15.08,2.14,30,4,0,0
1.1005e+05,7.3382e+07,4,5159,5314,15.07,2.55,30,4,0,0
1.1049e+05,7.3491e+07,4,5301,5114,15.11,2.08,30,4,0,0
1.109e+05,7.3592e+07,4,5114,5114,15.14,2.38,30,4,0,0
1.1135e+05,7.371e+07,4,5122,5228,15.11,2.5,30,5,0,0
1.118e+05,7.3818e+07,4,5232,5328,15.14,2.44,30,5,0,0
1.1266e+05,7.4034e+07,4,5323,5200,15.09,2.33,30,5,0,0
1.1351e+05,7.4243e+07,4,5200,5300,15.05,2.62,30,5,0,0
1.14e+05,7.4362e+07,4,5297,5257,15.16,2.43,30,5,0,0
1.1444e+05,7.4473e+07,4,5250,5200,15.17,2.46,30,5,0,0
1.1484e+05,7.457e+07,4,5198,5071,15.12,2.17,30,5,0,0
1.1534e+05,7.4688e+07,4,5072,5171,15.07,2.36,30,5,0,0
1.1578e+05,7.4794e+07,4,5162,5028,15.1,2.24,30,5,0,0
1.1623e+05,7.4907e+07,4,5047,5242,15.02,2.49,30,5,0,0
1.1668e+05,7.5016e+07,4,5247,5300,15.11,2.36,30,5,0,0
1.1708e+05,7.5112e+07,4,5297,5200,15.08,2.28,30,5,0,0
1.1753e+05,7.5219e+07,4,5200,5214,15,2.64,30,6,0,0
1.1798e+05,7.5335e+07,4,5228,5385,15.07,2.82,30,6,0,0
1.1843e+05,7.5442e+07,4,5386,5457,15.05,3.02,30,6,0,0
1.1892e+05,7.556e+07,4,5457,5457,15,2.74,30,6,0,0
1.1973e+05,7.5764e+07,4,5457,5471,14.91,2.75,30,6,0,0
1.2017e+05,7.5877e+07,4,5458,5200,14.92,2.12,30,6,0,0
1.2063e+05,7.5991e+07,4,5237,5585,14.89,3.58,30,6,0,0
1.2103e+05,7.6094e+07,4,5595,5742,14.98,3.59,30,6,0,0
1.2149e+05,7.6202e+07,4,5742,5800,14.98,3.39,30,6,0,0
1.2242e+05,7.6432e+07,4,5792,5628,14.98,2.76,30,7,0,0
1.2286e+05,7.6541e+07,4,5624,5585,14.98,2.63,30,7,0,0
1.2331e+05,7.6652e+07,4,5583,5557,15.02,2.89,30,7,0,0
1.2372e+05,7.6755e+07,4,5555,5428,14.99,2.81,30,7,0,0
1.2421e+05,7.6876e+07,4,5422,5357,15.04,2.49,30,7,0,0
1.2551e+05,7.7195e+07,4,5354,5257,15.04,2.3,30,7,0,0
1.2596e+05,7.7305e+07,4,5257,5257,15.02,2.42,30,7,0,0
1.2637e+05,7.7406e+07,4,5255,5214,15.11,2.42,30,7,0,0
1.2681e+05,7.752e+07,4,5199,4971,15.13,1.6,30,7,0,0
1.2726e+05,7.7625e+07,4,4977,5128,15.08,2.68,30,7,0,0
1.277e+05,7.7733e+07,4,5127,5114,15.03,2.12,30,7,0,0
1.2815e+05,7.7842e+07,4,5117,5185,15.06,2.42,30,8,0,0
1.2861e+05,7.7955e+07,4,5187,5214,15.03,2.26,30,8,0,0
1.2906e+05,7.8067e+07,4,5200,5114,15.08,2.18,30,8,0,0
1.2946e+05,7.8166e+07,4,5109,5028,15.08,2.36,30,8,0,0
1.3036e+05,7.8388e+07,4,5045,5400,14.98,2.92,30,8,0,0
1.3079e+05,7.8492e+07,4,5396,5300,14.95,2.14,30,8,0,0
1.3124e+05,7.86e+07,4,5292,5142,15.01,2.67,30,8,0,0
1.3169e+05,7.8712e+07,4,5163,5585,15,2.6,30,8,0,0
1.3214e+05,7.8823e+07,4,5569,5371,15.02,2.45,30,8,0,0
1.3254e+05,7.8924e+07,4,5379,5557,15.07,3.15,30,8,0,0
1.3304e+05,7.904e+07,4,5562,5628,15.07,2.94,30,8,0,0
1.3348e+05,7.9154e+07,4,5639,5757,15.03,2.87,30,8,0,0
1.3393e+05,7.9267e+07,4,5740,5571,15.1,2.78,30,9,0,0
1.3434e+05,7.9363e+07,4,5568,5528,15.02,3.15,30,9,0,0
1.3479e+05,7.9477e+07,4,5542,5657,15,2.91,30,9,0,0
1.3518e+05,7.9571e+07,4,5655,5585,15.01,3.05,30,9,0,0
1.3563e+05,7.9683e+07,4,5587,5628,14.98,3.06,30,9,0,0
1.3608e+05,7.9791e+07,4,5627,5614,14.97,2.74,30,9,0,0
1.3653e+05,7.9901e+07,4,5612,5585,15.03,2.97,30,9,0,0
1.3698e+05,8.001e+07,4,5585,5614,15,2.62,30,9,0,0
1.3743e+05,8.0124e+07,4,5594,5414,14.97,2.68,30,9,0,0
1.3787e+05,8.0229e+07,4,5420,5514,15.04,2.68,30,9,0,0
1.3828e+05,8.0331e+07,4,5513,5471,15.03,2.47,30,9,0,0
1.3877e+05,8.0449e+07,4,5469,5442,15,2.72,30,10,0,0
1.3922e+05,8.0561e+07,4,5435,5357,15.02,2.37,30,10,0,0
1.3967e+05,8.0668e+07,4,5349,5271,14.96,2.68,30,10,0,0
1.4012e+05,8.0779e+07,4,5273,5300,14.95,2.52,30,10,0,0
1.4052e+05,8.0881e+07,4,5296,5200,15.02,2.12,30,10,0,0
1.4101e+05,8.0996e+07,4,5196,5157,15.04,2.27,30,10,0,0
1.4137e+05,8.1095e+07,4,5157,5157,15.05,2.4,30,10,0,0
1.4186e+05,8.1207e+07,4,5157,5171,15.04,2.3,30,10,0,0
1.423e+05,8.1321e+07,4,5171,5171,14.94,2.82,30,10,0,0
1.4275e+05,8.1428e+07,4,5169,5157,15,2.06,30,10,0,0
1.4315e+05,8.1529e+07,4,5152,5042,14.95,2.46,30,10,0,0
1.436e+05,8.1639e+07,4,5047,5128,14.96,2.53,30,10,0,0
1.4406e+05,8.1752e+07,4,5124,5085,14.98,1.87,30,10,0,0
1.445e+05,8.186e+07,4,5082,5014,14.98,2.41,30,10,0,0
1.4495e+05,8.1969e+07,4,5017,5057,14.99,2.29,30,11,0,0
1.4539e+05,8.208e+07,4,5043,4900,15,1.78,30,11,0,0
1.458e+05,8.2181e+07,4,4916,5114,14.94,2.65,30,11,0,0
1.467e+05,8.2399e+07,4,5118,5314,15.04,2.18,30,11,0,0
1.4714e+05,8.2511e+07,4,5299,5157,14.95,2.53,30,11,0,0
1.4759e+05,8.2618e+07,4,5150,5085,14.95,2.2,30,11,0,0
1.4804e+05,8.2729e+07,4,5079,5000,14.89,2.25,30,11,0,0
1.4849e+05,8.2841e+07,4,5000,5014,14.94,1.94,30,11,0,0
1.4894e+05,8.2951e+07,4,5011,4971,14.95,2,30,11,0,0
1.4939e+05,8.3067e+07,4,4983,5071,14.94,2.33,30,11,0,0
1.4979e+05,8.3166e+07,4,5068,5028,14.98,1.95,30,11,0,0
1.5025e+05,8.3283e+07,4,5035,5100,15,2.14,30,11,0,0
1.5065e+05,8.3391e+07,4,5087,4985,15.03,2,30,11,0,0
1.5156e+05,8.3614e+07,4,5148,5071,15.04,2.26,30,12,0,0
1.5197e+05,8.3716e+07,4,5072,5100,15.02,2.15,30,12,0,0
1.5242e+05,8.3824e+07,4,5093,5028,15,2.28,30,12,0,0
1.5287e+05,8.3939e+07,4,5048,5214,14.99,2.12,30,12,0,0
1.5327e+05,8.4039e+07,4,5205,5028,14.95,2.27,30,12,0,0
1.5376e+05,8.4161e+07,4,5071,5385,14.95,2.57,30,12,0,0
1.5416e+05,8.426e+07,4,5412,5728,14.96,2.77,30,12,0,0
1.5513e+05,8.4493e+07,4,5698,5042,14.99,2.24,30,12,0,0
1.5553e+05,8.4589e+07,4,5046,5100,14.89,2.68,30,12,0,0
1.5598e+05,8.47e+07,4,5114,5314,14.9,2.53,30,12,0,0
1.5643e+05,8.4811e+07,4,5317,5357,14.83,2.67,30,12,0,0
1.5683e+05,8.4913e+07,4,5355,5271,14.92,2.31,30,12,0,0
1.5769e+05,8.5132e+07,4,5270,5214,14.94,2.42,30,13,0,0
1.5819e+05,8.5259e+07,4,5215,5228,14.86,2.38,30,13,0,0
1.5859e+05,8.5361e+07,4,5239,5385,14.84,2.47,30,13,0,0
1.5904e+05,8.5468e+07,4,5378,5242,14.92,2.51,30,13,0,0
1.5948e+05,8.5576e+07,4,5244,5357,14.92,2.61,30,13,0,0
1.5993e+05,8.5687e+07,4,5367,5571,14.82,2.96,30,13,0,0
1.6038e+05,8.5798e+07,4,5572,5600,14.85,2.9,30,13,0,0
1.6079e+05,8.5903e+07,4,5591,5428,14.94,2.5,30,13,0,0
1.6124e+05,8.6013e+07,4,5421,5328,14.94,2.7,30,13,0,0
1.6165e+05,8.6118e+07,4,5328,5342,14.9,2.47,30,13,0,0
1.621e+05,8.6231e+07,4,5347,5400,14.87,2.37,30,13,0,0
1.6255e+05,8.6344e+07,4,5392,5314,14.97,2.47,30,13,0,0
1.6296e+05,8.6448e+07,4,5301,5171,14.94,2.25,30,13,0,0
1.634e+05,8.6555e+07,4,5172,5200,14.97,2.26,30,14,0,0
1.6382e+05,8.6663e+07,4,5194,5100,14.95,2.17,30,14,0,0
1.6471e+05,8.6883e+07,4,5100,5157,14.95,2.22,30,14,0,0
1.6517e+05,8.6997e+07,4,5151,5100,14.92,2.22,30,14,0,0
1.6562e+05,8.7106e+07,4,5103,5142,14.99,2.18,30,14,0,0
1.6607e+05,8.7213e+07,4,5144,5171,14.95,2.39,30,14,0,0
1.6647e+05,8.7318e+07,4,5174,5257,14.95,2.49,30,14,0,0
1.6692e+05,8.7426e+07,4,5247,5128,14.92,2.11,30,14,0,0
1.6736e+05,8.7534e+07,4,5129,5157,14.89,2.41,30,14,0,0
1.6782e+05,8.7646e+07,4,5158,5185,14.94,2.5,30,14,0,0
1.6825e+05,8.7752e+07,4,5180,5128,14.96,2.17,30,14,0,0
1.687e+05,8.7863e+07,4,5128,5128,14.91,2.17,30,14,0,0
1.6911e+05,8.7969e+07,4,5120,5028,14.93,2.24,30,14,0,0
1.6952e+05,8.8077e+07,4,5046,5171,14.83,2.39,30,14,0,0
1.6997e+05,8.8181e+07,4,5179,5257,14.92,2.57,30,15,0,0
1.7037e+05,8.8284e+07,4,5257,5257,14.85,2.48,30,15,0,0
1.7085e+05,8.8393e+07,4,5252,5171,14.88,2.5,30,15,0,0
1.7126e+05,8.8497e+07,4,5171,5214,14.93,2.43,30,15,0,0
1.7175e+05,8.8614e+07,4,5215,5228,14.92,2.31,30,15,0,0
1.7264e+05,8.8829e+07,4,5228,5228,14.92,2.53,30,15,0,0
1.7304e+05,8.8934e+07,4,5228,5242,14.89,2.49,30,15,0,0
1.7349e+05,8.9041e+07,4,5242,5285,14.94,2.57,30,15,0,0
1.7393e+05,8.9151e+07,4,5280,5185,14.86,2.54,30,15,0,0
1.7438e+05,8.9259e+07,4,5186,5271,14.91,2.51,30,15,0,0
1.7487e+05,8.9381e+07,4,5260,5157,14.89,2.36,30,15,0,0
1.7527e+05,8.9481e+07,4,5159,5271,14.86,2.64,30,15,0,0
1.7573e+05,8.9592e+07,4,5281,5385,14.92,2.58,30,16,0,0
1.7618e+05,8.9704e+07,4,5378,5314,14.86,2.7,30,16,0,0
1.7658e+05,8.9802e+07,4,5316,5428,14.89,2.63,30,16,0,0
1.7703e+05,8.9919e+07,4,5423,5357,14.92,2.4,30,16,0,0
1.7748e+05,9.0025e+07,4,5354,5300,14.93,2.6,30,16,0,0
1.7793e+05,9.0138e+07,4,5289,5185,14.88,2.3,30,16,0,0
1.7879e+05,9.0349e+07,4,5186,5242,14.89,2.39,30,16,0,0
1.7923e+05,9.0458e+07,4,5237,5185,14.9,2.34,30,16,0,0
1.7968e+05,9.0564e+07,4,5185,5200,14.92,2.35,30,16,0,0
1.8012e+05,9.0673e+07,4,5198,5171,14.91,2.41,30,16,0,0
1.8057e+05,9.0784e+07,4,5173,5200,14.94,2.31,30,16,0,0
1.8098e+05,9.089e+07,4,5201,5271,14.88,2.52,30,16,0,0
1.8148e+05,9.1006e+07,4,5271,5271,14.9,2.61,30,16,0,0
1.8192e+05,9.1118e+07,4,5277,5357,14.86,2.58,30,17,0,0
1.8237e+05,9.1224e+07,4,5356,5328,14.92,2.66,30,17,0,0
1.8278e+05,9.1328e+07,4,5329,5385,14.91,2.68,30,17,0,0
1.8327e+05,9.1439e+07,4,5387,5428,14.89,2.68,30,17,0,0
1.8367e+05,9.1542e+07,4,5430,5471,14.83,2.39,30,17,0,0
1.8413e+05,9.1655e+07,4,5455,5285,14.82,2.45,30,17,0,0
1.8454e+05,9.1763e+07,4,5283,5271,14.88,2.59,30,17,0,0
1.8499e+05,9.1872e+07,4,5272,5285,14.88,2.47,30,17,0,0
1.8544e+05,9.1979e+07,4,5268,5100,14.9,2.19,30,17,0,0
1.8583e+05,9.2079e+07,4,5101,5157,14.88,2.4,30,17,0,0
1.8629e+05,9.2191e+07,4,5158,5185,14.86,2.46,30,17,0,0
1.8677e+05,9.2301e+07,4,5188,5271,14.88,2.41,30,17,0,0
1.8722e+05,9.2409e+07,4,5267,5214,14.94,2.18,30,17,0,0
1.8763e+05,9.2515e+07,4,5210,5128,14.94,2.12,30,18,0,0
1.8856e+05,9.2736e+07,4,5126,5071,14.88,2.4,30,18,0,0
1.8897e+05,9.2837e+07,4,5073,5128,14.92,2.17,30,18,0,0
1.8942e+05,9.2953e+07,4,5145,5328,14.92,2.78,30,18,0,0
1.8987e+05,9.3062e+07,4,5328,5328,14.97,2.29,30,18,0,0
1.9028e+05,9.3163e+07,4,5328,5385,14.94,2.41,30,18,0,0
1.9076e+05,9.3282e+07,4,5378,5314,14.88,2.67,30,18,0,0
1.9117e+05,9.3382e+07,4,5312,5214,14.86,2.36,30,18,0,0
1.9161e+05,9.3488e+07,4,5216,5314,14.86,2.3,30,18,0,0
1.921e+05,9.3606e+07,4,5312,5300,14.91,2.4,30,18,0,0
1.9251e+05,9.3709e+07,4,5304,5400,14.86,3.03,30,18,0,0
1.9337e+05,9.3922e+07,4,5397,5242,14.94,2.24,30,18,0,0
1.9382e+05,9.4031e+07,4,5233,5057,14.87,2.28,30,19,0,0
1.9427e+05,9.4146e+07,4,5058,5085,14.89,2.2,30,19,0,0
1.9472e+05,9.4257e+07,4,5091,5157,14.83,2.33,30,19,0,0
1.9516e+05,9.4366e+07,4,5158,5171,14.85,2.37,30,19,0,0
1.9557e+05,9.4464e+07,4,5170,5142,14.91,2.41,31,19,0,0
1.9602e+05,9.4575e+07,4,5144,5200,14.88,2.21,30,19,0,0
1.9648e+05,9.4693e+07,4,5189,5071,14.93,2.1,31,19,0,0
1.9688e+05,9.4791e+07,4,5069,5000,14.89,2.2,31,19,0,0
1.9733e+05,9.4904e+07,4,5011,5171,14.86,2.3,31,19,0,0
1.9778e+05,9.5013e+07,4,5172,5200,14.85,2.27,30,19,0,0
1.9818e+05,9.5116e+07,4,5195,5100,14.89,2.43,31,19,0,0
1.9863e+05,9.5222e+07,4,5100,5142,14.91,2.26,30,19,0,0
1.9907e+05,9.533e+07,4,5143,5171,14.89,2.27,31,19,0,0
1.9953e+05,9.5442e+07,4,5175,5242,14.94,2.23,31,19,0,0
1.9998e+05,9.5556e+07,4,5242,5257,14.9,2.46,31,20,0,0
2.0043e+05,9.5663e+07,4,5256,5242,14.91,2.43,31,20,0,0
2.0088e+05,9.5783e+07,4,5239,5214,14.92,2.14,31,20,0,0
2.017e+05,9.5987e+07,4,5214,5314,14.89,2.94,31,20,0,0
2.0264e+05,9.6211e+07,4,5315,5342,14.88,2.31,30,20,0,0
2.0308e+05,9.6322e+07,4,5323,5185,14.86,2.24,30,20,0,0
2.0353e+05,9.6428e+07,4,5189,5257,14.89,2.19,30,20,0,0
2.0389e+05,9.6529e+07,4,5256,5185,14.88,2.22,31,20,0,0
2.0435e+05,9.6635e+07,4,5185,5185,14.92,2.32,30,20,0,0
2.0484e+05,9.6754e+07,4,5186,5214,14.87,2.51,30,20,0,0
2.0528e+05,9.6864e+07,4,5218,5271,14.85,2.69,31,20,0,0
2.0617e+05,9.708e+07,4,5272,5442,14.89,2.5,31,21,0,0
2.0706e+05,9.7298e+07,4,5438,5300,14.83,2.29,30,21,0,0
2.0752e+05,9.7412e+07,4,5289,5185,14.89,2.22,31,21,0,0
2.0795e+05,9.7516e+07,4,5185,5200,14.85,2.38,30,21,0,0
2.0841e+05,9.7629e+07,4,5195,5157,14.85,2.41,30,21,0,0
2.0882e+05,9.7732e+07,4,5162,5271,14.78,2.68,31,21,0,0
2.0927e+05,9.7845e+07,4,5271,5271,14.89,2.54,31,21,0,0
2.0967e+05,9.7948e+07,4,5268,5214,14.86,2.52,31,21,0,0
2.1013e+05,9.8058e+07,4,5216,5342,14.86,2.51,31,21,0,0
2.1057e+05,9.8168e+07,4,5339,5271,14.91,2.42,31,21,0,0
2.1101e+05,9.8279e+07,4,5278,5371,14.83,2.99,31,21,0,0
2.1146e+05,9.8392e+07,4,5372,5400,14.83,2.89,31,21,0,0
2.1187e+05,9.8497e+07,4,5399,5342,14.89,2.58,30,22,0,0
2.1236e+05,9.8608e+07,4,5346,5414,14.85,2.66,31,22,0,0
2.128e+05,9.8721e+07,4,5406,5328,14.82,2.57,31,22,0,0
2.1321e+05,9.8821e+07,4,5329,5400,14.89,2.66,31,22,0,0
2.1369e+05,9.894e+07,4,5388,5271,14.88,2.22,31,22,0,0
2.141e+05,9.9038e+07,4,5264,5128,14.86,2.15,31,22,0,0
2.1459e+05,9.916e+07,4,5132,5185,14.92,2.41,31,22,0,0
2.1503e+05,9.9264e+07,4,5188,5228,14.83,2.35,31,22,0,0
2.1548e+05,9.9374e+07,4,5231,5271,14.85,2.46,31,22,0,0
2.1593e+05,9.9489e+07,4,5273,5300,14.83,2.68,31,22,0,0
2.1678e+05,9.9695e+07,4,5301,5342,14.92,2.6,31,22,0,0
2.1722e+05,9.9801e+07,4,5344,5400,14.86,2.78,31,23,0,0
2.1767e+05,9.9913e+07,4,5400,5400,14.93,2.7,31,23,0,0
2.1812e+05,1.0002e+08,4,5402,5442,14.94,2.93,31,23,0,0
2.1852e+05,1.0012e+08,4,5440,5328,14.88,2.47,31,23,0,0
2.19e+05,1.0023e+08,4,5330,5428,14.92,2.69,31,23,0,0
2.1989e+05,1.0045e+08,4,5429,5542,14.91,2.83,31,23,0,0
2.2038e+05,1.0057e+08,4,5530,5414,14.88,2.6,31,23,0,0
2.2127e+05,1.0079e+08,4,5401,5042,14.89,1.87,31,23,0,0
2.2167e+05,1.0088e+08,4,5039,4871,14.8,2.12,31,23,0,0
2.2216e+05,1.01e+08,4,4891,5171,14.89,2.79,31,23,0,0
2.2258e+05,1.0111e+08,4,5184,5442,14.88,3.17,31,23,0,0
2.2302e+05,1.0122e+08,4,5441,5428,14.88,2.74,31,24,0,0
2.2347e+05,1.0133e+08,4,5451,5700,14.95,3.22,31,24,0,0
2.2392e+05,1.0144e+08,4,5688,5571,14.9,3.06,31,24,0,0
2.2433e+05,1.0154e+08,4,5579,5657,14.88,2.72,31,24,0,0
2.2477e+05,1.0165e+08,4,5652,5371,14.92,2.4,31,24,0,0
2.2526e+05,1.0177e+08,4,5368,5342,14.84,2.52,31,24,0,0
2.257e+05,1.0187e+08,4,5342,5342,14.82,2.57,31,24,0,0
2.2615e+05,1.0198e+08,4,5331,5228,14.8,2.28,31,24,0,0
2.2655e+05,1.0208e+08,4,5224,4985,14.82,1.99,31,24,0,0
2.2704e+05,1.022e+08,4,4971,4857,14.91,1.94,31,24,0,0
2.2745e+05,1.0231e+08,4,4865,4971,14.85,2.1,31,24,0,0
2.2794e+05,1.0243e+08,4,4972,4985,14.91,1.99,31,24,0,0
2.2834e+05,1.0253e+08,4,4982,4900,14.97,1.78,31,24,0,0
2.2879e+05,1.0264e+08,4,4896,4842,14.9,2.11,31,24,0,0
2.292e+05,1.0274e+08,4,4843,4914,14.86,2.19,31,25,0,0
2.2969e+05,1.0286e+08,4,4916,4942,14.88,1.98,31,25,0,0
2.3013e+05,1.0297e+08,4,4930,4828,14.8,2.25,31,25,0,0
2.3059e+05,1.0308e+08,4,4851,5057,14.9,2.6,31,25,0,0
2.31e+05,1.0319e+08,4,5049,5000,14.77,2.3,31,25,0,0
2.314e+05,1.0329e+08,4,5002,5100,14.85,2.19,31,25,0,0
2.3189e+05,1.0341e+08,4,5084,4957,14.87,2.28,31,25,0,0
2.3229e+05,1.0351e+08,4,4965,5042,14.89,2.09,31,25,0,0
2.3275e+05,1.0363e+08,4,5067,5257,14.82,2.62,31,25,0,0
2.3315e+05,1.0373e+08,4,5259,5300,14.83,2.44,31,25,0,0
2.3359e+05,1.0383e+08,4,5300,5342,14.83,2.47,31,25,0,0
2.3404e+05,1.0394e+08,4,5334,5271,14.77,2.33,31,25,0,0
2.3445e+05,1.0404e+08,4,5270,5214,14.89,2.6,31,25,0,0
2.3494e+05,1.0417e+08,4,5212,5157,14.83,1.88,31,25,0,0
2.3579e+05,1.0438e+08,4,5149,4971,14.74,1.98,31,26,0,0
2.3624e+05,1.0449e+08,4,4969,4957,14.75,2.39,31,26,0,0
2.3664e+05,1.0459e+08,4,4961,5200,14.81,2.53,31,26,0,0
2.3709e+05,1.047e+08,4,5200,5214,14.88,2.28,31,26,0,0
2.3757e+05,1.0481e+08,4,5204,5042,14.89,1.83,31,26,0,0
2.3801e+05,1.0492e+08,4,5037,4942,14.79,2.09,31,26,0,0
2.3846e+05,1.0503e+08,4,4948,5042,14.91,2.42,31,26,0,0
2.3891e+05,1.0514e+08,4,5051,5157,14.83,2.28,31,26,0,0
2.3936e+05,1.0525e+08,4,5154,5114,14.88,2.12,31,26,0,0
2.3977e+05,1.0536e+08,4,5109,5071,14.89,2.31,31,26,0,0
2.4022e+05,1.0547e+08,4,5080,5185,14.86,2.12,31,26,0,0
2.4066e+05,1.0558e+08,4,5193,5285,14.82,2.72,31,26,0,0
2.4106e+05,1.0568e+08,4,5285,5300,14.89,2.31,31,26,0,0
2.4152e+05,1.0579e+08,4,5297,5142,14.86,2.28,31,27,0,0
2.4196e+05,1.059e+08,4,5150,5271,14.82,2.65,31,27,0,0
2.4241e+05,1.0601e+08,4,5279,5485,14.88,2.64,31,27,0,0
2.4285e+05,1.0612e+08,4,5479,5357,14.85,2.31,31,27,0,0
2.4331e+05,1.0623e+08,4,5357,5371,14.85,2.47,31,27,0,0
2.4375e+05,1.0634e+08,4,5366,5271,14.92,2.35,31,27,0,0
2.442e+05,1.0645e+08,4,5261,5171,14.87,1.86,31,27,0,0
2.4464e+05,1.0656e+08,4,5171,5171,14.85,2.26,31,27,0,0
2.4509e+05,1.0667e+08,4,5168,5142,14.83,2.36,31,27,0,0
2.4553e+05,1.0677e+08,4,5142,5157,14.75,2.44,31,27,0,0
2.4594e+05,1.0688e+08,4,5165,5242,14.8,2.6,31,27,0,0
2.4638e+05,1.0698e+08,4,5251,5342,14.76,2.54,31,27,0,0
2.4684e+05,1.071e+08,4,5353,5471,14.86,2.68,31,27,0,0
2.4724e+05,1.072e+08,4,5453,5300,14.85,2.47,31,27,0,0
2.4768e+05,1.0731e+08,4,5294,5242,14.88,2.45,31,28,0,0
2.4809e+05,1.074e+08,4,5240,5171,14.87,2.27,31,28,0,0
2.4853e+05,1.0752e+08,4,5172,5242,14.84,2.3,31,28,0,0
2.4902e+05,1.0764e+08,4,5238,5200,14.91,2.12,31,28,0,0
2.4942e+05,1.0774e+08,4,5200,5200,14.89,2.28,31,28,0,0
2.4987e+05,1.0784e+08,4,5198,5085,14.92,2.31,31,28,0,0
2.5035e+05,1.0796e+08,4,5082,5042,14.82,2.26,31,28,0,0
2.508e+05,1.0807e+08,4,5047,5142,14.83,2.45,31,28,0,0
2.5125e+05,1.0818e+08,4,5151,5242,14.86,2.59,31,28,0,0
2.5165e+05,1.0828e+08,4,5244,5357,14.86,2.77,31,28,0,0
2.5214e+05,1.084e+08,4,5378,5614,14.81,3.31,31,28,0,0
2.5255e+05,1.085e+08,4,5618,5714,14.84,2.89,31,28,0,0
2.5299e+05,1.0861e+08,4,5707,5571,14.85,2.31,31,28,0,0
2.5344e+05,1.0872e+08,4,5553,5300,14.88,2.05,31,28,0,0
2.5389e+05,1.0883e+08,4,5297,5100,14.91,1.91,31,29,0,0
2.5433e+05,1.0894e+08,4,5091,4971,14.81,1.81,31,29,0,0
2.5478e+05,1.0904e+08,4,4971,5028,14.77,2.45,31,29,0,0
2.5522e+05,1.0915e+08,4,5029,5100,14.86,2.21,31,29,0,0
2.5571e+05,1.0927e+08,4,5096,5042,14.79,2.12,31,29,0,0
2.5615e+05,1.0938e+08,4,5041,5028,14.79,2.22,31,29,0,0
2.566e+05,1.0949e+08,4,5030,5071,14.81,2.09,31,29,0,0
2.5701e+05,1.0959e+08,4,5066,5000,14.86,2.32,31,29,0,0
2.5742e+05,1.097e+08,4,5003,5085,14.8,2.13,31,29,0,0
2.5786e+05,1.0981e+08,4,5083,5042,14.75,2.39,31,29,0,0
2.583e+05,1.0991e+08,4,5042,5057,14.84,2.1,31,29,0,0
2.5876e+05,1.1002e+08,4,5057,5071,14.89,2.19,31,29,0,0
2.5965e+05,1.1025e+08,4,5082,5328,14.82,2.48,31,29,0,0
2.601e+05,1.1036e+08,4,5323,5271,14.82,2.22,31,29,0,0
2.6058e+05,1.1047e+08,4,5261,5171,14.85,2.47,31,30,0,0
2.6099e+05,1.1058e+08,4,5175,5228,14.82,2.34,31,30,0,0
2.6139e+05,1.1068e+08,4,5226,5157,14.82,2.21,31,30,0,0
2.6184e+05,1.1079e+08,4,5158,5200,14.81,2.45,31,30,0,0
2.6232e+05,1.1091e+08,4,5223,5342,14.89,2.36,31,30,0,0
2.6317e+05,1.1112e+08,4,5334,5157,14.83,2.11,31,30,0,0
2.6362e+05,1.1123e+08,4,5154,5128,14.86,2.22,31,30,0,0
2.6407e+05,1.1134e+08,4,5118,5042,14.85,1.94,31,30,0,0
2.6451e+05,1.1145e+08,4,5059,5200,14.89,2.14,31,30,0,0
2.6492e+05,1.1155e+08,4,5198,5171,14.89,2.38,31,30,0,0
2.6537e+05,1.1166e+08,4,5173,5200,14.89,2.23,31,30,0,0
2.6582e+05,1.1178e+08,4,5208,5285,14.84,2.69,31,30,0,0
2.6626e+05,1.1189e+08,4,5307,5485,14.89,2.62,31,30,0,0
2.6672e+05,1.12e+08,4,5482,5428,14.84,2.91,31,31,0,0
2.6757e+05,1.1221e+08,4,5432,5514,14.89,2.68,31,31,0,0
2.6844e+05,1.1242e+08,4,5509,5414,14.77,2.72,31,31,0,0
2.689e+05,1.1254e+08,4,5400,5257,14.83,2.19,31,31,0,0
2.693e+05,1.1264e+08,4,5260,5314,14.85,2.58,31,31,0,0
2.6971e+05,1.1274e+08,4,5311,5185,14.77,2.39,31,31,0,0
2.702e+05,1.1286e+08,4,5184,5142,14.88,2.25,31,31,0,0
2.7061e+05,1.1296e+08,4,5153,5228,14.8,2.41,31,31,0,0
2.7106e+05,1.1307e+08,4,5223,5185,14.8,2.41,31,31,0,0
2.7146e+05,1.1318e+08,4,5195,5300,14.86,2.52,31,31,0,0
2.7191e+05,1.1328e+08,4,5300,5300,14.76,2.59,31,31,0,0
2.7231e+05,1.1339e+08,4,5300,5314,14.8,2.23,31,32,0,0
2.7279e+05,1.135e+08,4,5311,5200,14.84,2.29,31,32,0,0
2.7324e+05,1.1361e+08,4,5198,5142,14.84,2.13,31,32,0,0
2.7365e+05,1.1372e+08,4,5143,5157,14.75,2.24,31,32,0,0
2.741e+05,1.1383e+08,4,5154,5128,14.86,2.27,31,32,0,0
2.7499e+05,1.1405e+08,4,5126,5085,14.83,2.28,31,32,0,0
2.7544e+05,1.1416e+08,4,5083,5071,14.79,2.34,31,32,0,0
2.7588e+05,1.1427e+08,4,5079,5157,14.77,2.56,31,32,0,0
2.7673e+05,1.1448e+08,4,5157,5185,14.74,2.39,31,32,0,0
2.7718e+05,1.1459e+08,4,5190,5257,14.79,2.41,31,32,0,0
2.7762e+05,1.147e+08,4,5258,5271,14.74,2.54,31,32,0,0
2.7807e+05,1.1481e+08,4,5285,5414,14.77,2.78,31,32,0,0
2.7847e+05,1.1491e+08,4,5415,5442,14.77,2.64,31,33,0,0
2.7892e+05,1.1502e+08,4,5450,5542,14.77,2.79,31,33,0,0
2.7934e+05,1.1512e+08,4,5540,5471,14.76,3.02,31,33,0,0
2.7982e+05,1.1524e+08,4,5481,5585,14.79,2.64,31,33,0,0
2.8068e+05,1.1546e+08,4,5583,5557,14.77,2.79,31,33,0,0
2.8113e+05,1.1557e+08,4,5549,5471,14.8,2.62,31,33,0,0
2.8153e+05,1.1567e+08,4,5463,5385,14.76,2.68,31,33,0,0
2.8193e+05,1.1577e+08,4,5385,5385,14.82,2.77,31,33,0,0
2.8242e+05,1.1589e+08,4,5383,5371,14.76,2.49,31,33,0,0
2.8287e+05,1.16e+08,4,5365,5300,14.76,2.46,31,33,0,0
2.8331e+05,1.1611e+08,4,5293,5228,14.79,2.49,31,33,0,0
2.8372e+05,1.1621e+08,4,5225,5200,14.8,2.26,31,34,0,0
2.8416e+05,1.1632e+08,4,5197,5171,14.83,2.54,31,34,0,0
2.8461e+05,1.1643e+08,4,5169,5128,14.73,2.66,31,34,0,0
2.8505e+05,1.1653e+08,4,5130,5214,14.72,2.47,31,34,0,0
2.855e+05,1.1664e+08,4,5216,5300,14.77,2.34,31,34,0,0
2.8599e+05,1.1677e+08,4,5293,5242,14.8,2.38,31,34,0,0
2.8681e+05,1.1698e+08,4,5232,4985,14.83,2.08,31,34,0,0
2.8726e+05,1.1709e+08,4,4975,4885,14.95,1.87,31,34,0,0
2.8766e+05,1.1719e+08,4,4883,4814,14.97,1.89,31,34,0,0
2.8811e+05,1.173e+08,4,4811,4771,14.94,1.95,31,34,0,0
2.8852e+05,1.174e+08,4,4776,4914,14.85,2.5,31,34,0,0
2.89e+05,1.1752e+08,4,4929,5128,14.88,2.7,31,34,0,0
2.8944e+05,1.1763e+08,4,5134,5228,14.85,2.92,31,34,0,0
2.8988e+05,1.1774e+08,4,5235,5414,14.84,2.86,31,35,0,0
2.9033e+05,1.1785e+08,4,5413,5400,14.87,2.92,31,35,0,0
2.9077e+05,1.1795e+08,4,5407,5557,14.82,3.05,31,35,0,0
2.9123e+05,1.1807e+08,4,5533,5314,14.8,2.52,31,35,0,0
2.9163e+05,1.1817e+08,4,5316,5428,14.8,2.9,31,35,0,0
2.9208e+05,1.1828e+08,4,5446,5657,14.79,3.4,31,35,0,0
2.9253e+05,1.1839e+08,4,5659,5685,14.8,3.06,31,35,0,0
2.9297e+05,1.185e+08,4,5683,5657,14.73,3.14,31,35,0,0
2.9341e+05,1.186e+08,4,5657,5700,14.79,3.1,31,35,0,0
2.9386e+05,1.1872e+08,4,5693,5600,14.79,3.1,31,35,0,0
2.9431e+05,1.1882e+08,4,5597,5542,14.84,2.88,31,35,0,0
2.9471e+05,1.1893e+08,4,5539,5457,14.85,2.58,31,35,0,0
2.952e+05,1.1905e+08,4,5459,5485,14.8,2.6,31,36,0,0
2.9561e+05,1.1915e+08,4,5487,5542,14.77,3.11,31,36,0,0
2.9606e+05,1.1926e+08,4,5539,5485,14.86,2.63,31,36,0,0
2.9651e+05,1.1937e+08,4,5482,5414,14.86,2.62,31,36,0,0
2.9696e+05,1.1948e+08,4,5418,5457,14.83,2.64,31,36,0,0
2.9747e+05,1.1968e+08,4,5423,5328,14.88,2.78,31,36,0,0
2.9793e+05,1.198e+08,4,5323,5257,14.82,2.68,31,36,0,0
2.9837e+05,1.199e+08,4,5265,5385,14.82,2.59,31,36,0,0
2.9882e+05,1.2001e+08,4,5382,5357,14.89,2.64,31,36,0,0
2.9926e+05,1.2012e+08,4,5358,5385,14.85,2.5,31,36,0,0
2.9971e+05,1.2023e+08,4,5377,5271,14.85,2.49,31,36,0,0
3.0016e+05,1.2034e+08,4,5266,5157,14.86,2.61,31,37,0,0
3.0065e+05,1.2046e+08,4,5160,5185,14.8,2.86,31,37,0,0
3.0105e+05,1.2056e+08,4,5191,5285,14.79,2.49,31,37,0,0
3.0154e+05,1.2068e+08,4,5272,5185,14.88,2.6,31,37,0,0
3.0193e+05,1.2077e+08,4,5192,5357,14.88,2.52,31,37,0,0
3.0242e+05,1.2089e+08,4,5363,5442,14.79,3.1,31,37,0,0
3.0283e+05,1.2099e+08,4,5462,5657,14.73,3.16,31,37,0,0
3.0368e+05,1.212e+08,4,5659,5728,14.64,3.46,31,37,0,0
3.0408e+05,1.2131e+08,4,5729,5800,14.65,3.41,31,37,0,0
3.0458e+05,1.2142e+08,4,5801,5814,14.67,3.07,31,37,0,0
3.0498e+05,1.2153e+08,4,5804,5671,14.75,2.73,31,38,0,0
3.0546e+05,1.2164e+08,4,5643,5342,14.78,2.25,31,38,0,0
3.0586e+05,1.2174e+08,4,5343,5371,14.83,2.47,31,38,0,0
3.0635e+05,1.2186e+08,4,5355,5185,14.8,2.36,31,38,0,0
3.0676e+05,1.2196e+08,4,5188,5257,14.86,2.35,31,38,0,0
3.072e+05,1.2207e+08,4,5254,5057,14.77,2.41,31,38,0,0
3.0765e+05,1.2218e+08,4,5059,5228,14.76,2.49,31,38,0,0
3.0813e+05,1.2229e+08,4,5229,5257,14.77,2.53,31,38,0,0
3.0858e+05,1.224e+08,4,5257,5271,14.8,2.6,31,38,0,0
3.0899e+05,1.225e+08,4,5272,5300,14.79,2.59,31,38,0,0
3.0944e+05,1.2261e+08,4,5295,5228,14.77,2.42,31,38,0,0
3.0988e+05,1.2273e+08,4,5229,5242,14.77,2.25,31,38,0,0
3.1029e+05,1.2283e+08,4,5240,5185,14.8,2.26,31,38,0,0
3.1074e+05,1.2294e+08,4,5182,5157,14.81,2.29,31,38,0,0
3.1119e+05,1.2305e+08,4,5150,5085,14.78,2.12,31,39,0,0
3.1159e+05,1.2315e+08,4,5085,5128,14.73,2.48,31,39,0,0
3.1252e+05,1.2338e+08,4,5120,4957,14.8,1.94,31,39,0,0
3.1292e+05,1.2348e+08,4,4950,4871,14.83,2.18,31,39,0,0
3.1333e+05,1.2358e+08,4,4882,5128,14.8,2.19,31,39,0,0
3.1378e+05,1.2369e+08,4,5125,5071,14.77,2.45,31,39,0,0
3.1427e+05,1.2381e+08,4,5074,5114,14.85,2.17,31,39,0,0
3.1468e+05,1.2392e+08,4,5110,5028,14.85,1.92,31,39,0,0
3.1512e+05,1.2402e+08,4,5026,5014,14.86,2.18,31,39,0,0
3.1558e+05,1.2414e+08,4,5019,5071,14.85,2.21,31,39,0,0
3.1598e+05,1.2424e+08,4,5069,5042,14.89,2.2,31,39,0,0
3.1643e+05,1.2435e+08,4,5036,4971,14.85,2.04,31,39,0,0
3.1688e+05,1.2446e+08,4,4968,4785,14.83,2.08,31,39,0,0
3.1732e+05,1.2457e+08,4,4802,5014,14.84,2.22,31,39,0,0
3.1777e+05,1.2468e+08,4,5024,5142,14.82,2.62,31,40,0,0
3.1821e+05,1.2479e+08,4,5131,5000,14.83,1.96,31,40,0,0
3.191e+05,1.2501e+08,4,4991,4814,14.86,1.69,31,40,0,0
3.1955e+05,1.2512e+08,4,4801,4614,14.88,1.43,31,40,0,0
3.1996e+05,1.2522e+08,4,4631,4814,14.83,2.06,31,40,0,0
3.2041e+05,1.2534e+08,4,4846,5171,15.05,2.8,31,40,0,0
3.2086e+05,1.2545e+08,4,5075,4014,14.93,1,31,40,0,0
3.213e+05,1.2555e+08,4,4011,3985,15.22,0.99,31,40,0,0
3.2176e+05,1.2567e+08,4,3848,2871,15.28,0.05,31,40,0,0
3.2216e+05,1.2577e+08,4,2832,2314,15.25,0.11,31,40,0,0
3.23e+05,1.2598e+08,4,2313,2228,15.24,0.21,31,40,0,0
3.2435e+05,1.2632e+08,4,2226,2200,15.24,0.25,31,40,0,0
3.2476e+05,1.2642e+08,4,2198,2185,15.26,0.24,31,40,0,0
3.252e+05,1.2653e+08,4,2185,2200,15.25,0.24,31,40,0,0
3.2565e+05,1.2664e+08,4,2199,2185,15.26,0.23,31,40,0,0
3.2605e+05,1.2674e+08,4,2185,2185,15.26,0.26,31,40,0,0
3.265e+05,1.2685e+08,4,2183,2157,15.26,0.23,31,40,0,0
3.2695e+05,1.2696e+08,4,2156,2100,15.26,0.18,31,40,0,0
3.2747e+05,1.2708e+08,4,2090,2028,15.25,0.22,31,40,0,0
3.2788e+05,1.2718e+08,4,2025,1985,15.27,0.18,31,40,0,0
3.2836e+05,1.2729e+08,4,1990,2042,15.27,0.24,31,40,0,0
3.2882e+05,1.274e+08,4,2025,1857,15.33,0.04,31,40,0,0
3.2926e+05,1.275e+08,4,1833,1514,15.33,0,31,40,0,0
3.2971e+05,1.2762e+08,4,1494,1300,15.31,0.06,31,40,0,0
3.3018e+05,1.2772e+08,4,1299,1285,15.32,0.09,31,40,0,0
3.3064e+05,1.2784e+08,4,1283,1271,15.32,0.09,31,40,0,0
3.3108e+05,1.2794e+08,4,1271,1271,15.32,0.09,31,40,0,0
3.3154e+05,1.2805e+08,4,1270,1257,15.32,0.09,31,40,0,0
3.3198e+05,1.2815e+08,4,1257,1271,15.32,0.09,31,40,0,0
3.3243e+05,1.2826e+08,4,1270,1257,15.33,0.09,31,40,0,0
3.3292e+05,1.2838e+08,4,1257,1257,15.33,0.09,31,40,0,0
3.3336e+05,1.2848e+08,4,1257,1271,15.33,0.09,31,40,0,0
3.3381e+05,1.2859e+08,4,1271,1271,15.33,0.09,31,40,0,0
3.3429e+05,1.2871e+08,4,1271,1271,15.33,0.09,31,40,0,0
3.3474e+05,1.2882e+08,4,1271,1271,15.33,0.09,31,40,0,0
3.3516e+05,1.2892e+08,4,1261,1114,15.36,0.05,31,40,0,0
3.3566e+05,1.2904e+08,4,1042,328,15.35,0,31,40,0,0
3.361e+05,1.2915e+08,4,297,0,15.35,0.01,31,40,0,0
3.3655e+05,1.2925e+08,4,0,0,15.36,0.03,31,40,0,0
3.3701e+05,1.2937e+08,4,0,0,15.36,0.03,31,40,0,0
3.3742e+05,1.2947e+08,4,0,0,15.36,0.03,31,40,0,0
3.3791e+05,1.2958e+08,4,0,0,15.36,0.03,31,40,0,0
3.3836e+05,1.2969e+08,4,0,0,15.36,0.03,31,40,0,0
3.3881e+05,1.2979e+08,4,0,0,15.36,0.03,31,40,0,0
3.3976e+05,1.3002e+08,4,0,0,15.36,0.02,31,40,0,0
3.4021e+05,1.3013e+08,4,0,0,15.37,0.03,31,40,0,0
3.4066e+05,1.3023e+08,4,0,0,15.37,0.03,31,40,0,0
3.4119e+05,1.3036e+08,4,0,0,15.37,0.03,31,40,0,0
3.4165e+05,1.3046e+08,4,0,0,15.37,0.03,31,40,0,0
3.421e+05,1.3057e+08,4,0,0,15.37,0.03,31,40,0,0
3.4255e+05,1.3067e+08,4,0,0,15.38,0.03,31,40,0,0
3.43e+05,1.3078e+08,4,0,0,15.37,0.03,31,40,0,0
3.435e+05,1.309e+08,4,0,0,15.38,0.03,31,40,0,0
3.4396e+05,1.3101e+08,4,0,0,15.38,0.03,31,40,0,0
3.4444e+05,1.3112e+08,4,0,0,15.38,0.03,31,40,0,0
3.449e+05,1.3122e+08,4,0,0,15.38,0.03,31,40,0,0
3.458e+05,1.3144e+08,4,0,0,15.38,0.03,31,40,0,0
3.4625e+05,1.3155e+08,4,0,0,15.38,0.03,30,40,0,0
3.4674e+05,1.3166e+08,4,0,0,15.39,0.03,31,40,0,0
3.4715e+05,1.3176e+08,4,0,0,15.39,0.03,30,40,0,0
3.476e+05,1.3187e+08,4,0,0,15.39,0.02,30,40,0,0
3.481e+05,1.3199e+08,4,0,0,15.39,0.03,30,40,0,0
