LineNo,TimeUS,I,GyrX,GyrY,GyrZ,AccX,AccY,AccZ,EG,EA,T,GH,AH,GHz,AHz
184,12924263,2,-0.0008739542,-0.005969445,-0.002393682,-0.2076738,-0.07860195,-9.878029,0,0,39.23975,1,1,7778,3889
215,12927131,2,-0.0006502771,-0.004901295,-0.002714293,-0.2129843,-0.08046556000000001,-9.882171,0,0,39.23971,1,1,7778,3889
291,12956538,2,0.0007739646,0.001045481,-0.001686267,-0.2231585,-0.06736412999999999,-9.866619999999999,0,0,39.23919,1,1,7772,3886
407,12985344,2,-0.0001346266,0.00185162,-0.0004560536,-0.207146,-0.07559299,-9.842344000000001,0,0,39.23945,1,1,7772,3886
522,13013946,2,-0.0003838282,-0.001344151,0.003886248,-0.2087666,-0.08324752000000001,-9.850241,0,0,39.24022,1,1,7772,3886
525,13015333,2,-0.0007628150999999999,-0.0008645589,0.00381813,-0.2075863,-0.08345105999999999,-9.848826000000001,0,0,39.24028,1,1,7772,3886
636,13035237,2,-0.002945349,-0.0007296698,0.0009450376,-0.1892363,-0.09864429,-9.849819999999999,0,0,39.24074,1,1,7772,3886
753,13057329,2,-0.001352304,-0.002478552,0.002150492,-0.1838254,-0.08816765,-9.856113000000001,0,0,39.24146,1,1,7772,3886
865,13089340,2,-0.002008012,0.0005559628,-0.001697895,-0.1876869,-0.07901762,-9.868848,0,0,39.24356,1,1,7772,3886
980,13119334,2,0.0009952318999999999,0.001128932,-0.002888751,-0.1738625,-0.07751259000000001,-9.847467999999999,0,0,39.24551,1,1,7772,3886
1011,13121997,2,0.002020267,-0.0002758725,-0.003404105,-0.1789118,-0.07756162,-9.845794,0,0,39.24579,1,1,7772,3886
1092,13167693,2,-0.001378092,-0.002965273,-0.0002333308,-0.1923491,-0.08713327999999999,-9.872790999999999,0,0,39.24876,1,1,7772,3886
1123,13170370,2,-0.0006258036,-0.002925705,-0.0006224029,-0.1964448,-0.08493319000000001,-9.87494,0,0,39.24904,1,1,7772,3886
1203,13249127,2,-0.0001014556,0.0004467437,-0.003025854,-0.21062,-0.08970676,-9.844378000000001,0,0,39.2546,1,1,7772,3886
1299,13304111,2,0.0009994466,-0.0004068472,5.827394e-05,-0.199698,-0.08663306,-9.856361,0,0,39.25876,1,1,7772,3886
1386,13318454,2,-0.0001857145,-0.000702851,0.001053678,-0.1921965,-0.09491765000000001,-9.840223999999999,0,0,39.25977,1,1,7772,3886
1478,13334425,2,-0.0001933375,0.0008374118,-0.0002767737,-0.1760843,-0.08091115,-9.849093999999999,0,0,39.26068,1,1,7772,3886
1509,13336947,2,-0.0007691811,0.0009285496,-0.0007755362,-0.1782268,-0.07544202,-9.854305999999999,0,0,39.26087,1,1,7772,3886
1548,13340446,2,0.0009808092000000001,0.001034147,-0.0007563625,-0.180872,-0.07609994,-9.859427,0,0,39.26103,1,1,7772,3886
1551,13342544,2,0.002116103,0.001068977,0.0009955342,-0.1847585,-0.08045061000000001,-9.862695,0,0,39.26115,1,1,7772,3886
1554,13345557,2,0.001581299,0.001040799,0.00153466,-0.187206,-0.08354184000000001,-9.861468,0,0,39.26122,1,1,7772,3886
1585,13347945,2,0.0004381404,0.00145496,0.001950629,-0.1907413,-0.08794122,-9.859560999999999,0,0,39.26138,1,1,7772,3886
1588,13350581,2,-0.0009810273000000001,0.0007169277,0.00161476,-0.1914906,-0.09071527,-9.858722999999999,0,0,39.26149,1,1,7772,3886
1592,13353455,2,-0.002264918,2.199878e-05,0.001344085,-0.1891399,-0.0918011,-9.859007,0,0,39.26156,1,1,7772,3886
1595,13355753,2,-0.002380417,-0.0001675581,0.0004433142,-0.1871885,-0.09226599000000001,-9.859128999999999,0,0,39.26171,1,1,7772,3886
1626,13358477,2,-0.001614353,0.000167452,2.476576e-06,-0.1860083,-0.09285177999999999,-9.859726999999999,0,0,39.26179,1,1,7772,3886
1629,13360750,2,-0.0007684585,0.001337976,-0.0003866253,-0.1844976,-0.09225806,-9.862276,0,0,39.2619,1,1,7772,3886
1632,13363124,2,-0.0004638232,0.001559853,0.0003565874,-0.1836336,-0.08996116,-9.863253,0,0,39.26201,1,1,7772,3886
1635,13366015,2,0.000527926,0.001357983,0.0004133679,-0.1826799,-0.08512575,-9.863181000000001,0,0,39.26215,1,1,7772,3886
1666,13368247,2,0.0002356839,0.0009022372,-0.0009294327,-0.1820017,-0.08176181,-9.858173000000001,0,0,39.26228,1,1,7772,3886
1669,13372298,2,-0.0003432367,0.0004088142,-0.001247029,-0.1828108,-0.08023225,-9.854350999999999,0,0,39.26237,1,1,7772,3886
1673,13373507,2,-0.0004961093,0.000181093,-0.00040889,-0.1851104,-0.08010231,-9.850821,0,0,39.26257,1,1,7772,3886
1679,13377053,2,-0.0005937,0.000204059,0.0004740747,-0.1852281,-0.08080672999999999,-9.850803000000001,0,0,39.26266,1,1,7772,3886
1710,13380716,2,-0.0007518331,4.596643e-05,0.001171104,-0.182428,-0.08052681,-9.850408,0,0,39.2629,1,1,7772,3886
1713,13382891,2,-0.0008771226999999999,-0.0003216503,0.001264487,-0.1804355,-0.08129329,-9.848591000000001,0,0,39.26297,1,1,7772,3886
1717,13384475,2,-0.0008271939,-0.0007389109,0.000473724,-0.1795062,-0.0828286,-9.849356999999999,0,0,39.26309,1,1,7772,3886
1720,13386987,2,-0.001332135,-0.001089298,-0.0001102737,-0.1800498,-0.08410958,-9.852485,0,0,39.26317,1,1,7772,3886
1751,13389488,2,-0.001283758,-0.001529752,0.0001699392,-0.1794495,-0.0853864,-9.853172000000001,0,0,39.26328,1,1,7772,3886
1754,13392250,2,-0.001365343,-0.00190896,3.951842e-05,-0.1783596,-0.08693165,-9.854372,0,0,39.26336,1,1,7772,3886
1757,13394982,2,-0.002671373,-0.002001798,-8.522795e-05,-0.1776968,-0.08828088000000001,-9.85877,0,0,39.26351,1,1,7772,3886
1760,13397892,2,-0.003151222,-0.001964525,0.0004835703,-0.1780819,-0.08780789,-9.860861,0,0,39.26358,1,1,7772,3886
1791,13400313,2,-0.002842773,-0.001985095,0.001211832,-0.1808082,-0.08651171000000001,-9.858971,0,0,39.26369,1,1,7772,3886
1794,13402568,2,-0.001751182,-0.002413727,0.0001249983,-0.1861062,-0.08396749000000001,-9.853745,0,0,39.26379,1,1,7772,3886
1800,13405774,2,-0.001079321,-0.002349732,-0.0009073012,-0.1896061,-0.08258827000000001,-9.847083,0,0,39.26385,1,1,7772,3886
1803,13407907,2,-0.0008798591,-0.002410873,-0.001211285,-0.1914244,-0.07984731,-9.837763000000001,0,0,39.26395,1,1,7772,3886
1834,13410366,2,-0.0004391328,-0.00190712,-0.001961709,-0.1899801,-0.07752331,-9.834028999999999,0,0,39.26402,1,1,7772,3886
1841,13413478,2,-0.0006140535,-0.001720326,-0.002336057,-0.1888455,-0.07590574999999999,-9.835516999999999,0,0,39.26406,1,1,7772,3886
1844,13415585,2,-0.0007417183,-0.002344906,-0.002719549,-0.1888449,-0.07571235,-9.840316,0,0,39.26411,1,1,7772,3886
1847,13418341,2,-0.0009525146,-0.003916421,-0.002763876,-0.1900232,-0.07694528,-9.846015,0,0,39.26415,1,1,7772,3886
1878,13420969,2,-0.001831905,-0.004066628,-0.002631214,-0.1919715,-0.07857849,-9.852009000000001,0,0,39.2642,1,1,7772,3886
1881,13423453,2,-0.00221134,-0.003019305,-0.002652637,-0.1927751,-0.08073749,-9.855691,0,0,39.26424,1,1,7772,3886
1885,13426090,2,-0.001715809,-0.002453355,-0.002721209,-0.1943565,-0.08237153,-9.856731999999999,0,0,39.26427,1,1,7772,3886
1888,13429079,2,-0.0005607,-0.001879604,-0.002216532,-0.1992113,-0.08447406,-9.85506,0,0,39.26435,1,1,7772,3886
1919,13432032,2,-0.000963822,-0.001895429,-0.000165406,-0.205309,-0.08555165000000001,-9.851718,0,0,39.26441,1,1,7772,3886
1922,13434103,2,-0.001204167,-0.002654782,0.0004347164,-0.2079548,-0.08516756,-9.850305000000001,0,0,39.26445,1,1,7772,3886
1925,13436974,2,-0.0005934793,-0.003351837,0.0007552428,-0.2107085,-0.08501744,-9.846994,0,0,39.26452,1,1,7772,3886
1928,13439626,2,-0.0001585044,-0.002927542,-0.0004883534,-0.2130864,-0.08573142,-9.846935,0,0,39.26458,1,1,7772,3886
1959,13442344,2,0.0001601416,-0.001425035,-0.001588253,-0.2162976,-0.08424832,-9.848385,0,0,39.26466,1,1,7772,3886
1962,13444376,2,0.002003982,-0.001601683,-0.002043817,-0.2183574,-0.08276208,-9.850163,0,0,39.26471,1,1,7772,3886
1966,13446955,2,0.002437288,-0.001978377,-0.001215201,-0.2194602,-0.08139732,-9.853265,0,0,39.26473,1,1,7772,3886
1969,13449564,2,0.001590148,-0.002798858,0.0006803859999999999,-0.2206246,-0.07966334999999999,-9.856605999999999,0,0,39.26477,1,1,7772,3886
2000,13452441,2,0.00132432,-0.003100711,0.001187542,-0.2213323,-0.07800896,-9.859579999999999,0,0,39.26478,1,1,7772,3886
2005,13457932,2,-0.0004609633,-0.001060369,1.028901e-05,-0.2195862,-0.07188578,-9.865320000000001,0,0,39.26483,1,1,7772,3886
2008,13460252,2,-0.001102566,0.0001463391,-0.0005494261,-0.2196515,-0.07138749,-9.865335,0,0,39.26485,1,1,7772,3886
2039,13463734,2,-0.0005710432,0.0007505824,-0.0009728948,-0.2214313,-0.07303920999999999,-9.867105,0,0,39.26491,1,1,7772,3886
2042,13465879,2,-0.0009049367,0.0006974925,-0.0006448721,-0.2209361,-0.07562861999999999,-9.869596,0,0,39.26495,1,1,7772,3886
2045,13467778,2,-0.0004162834,-0.0007022122,-0.001094432,-0.2180424,-0.07999717000000001,-9.872228,0,0,39.26501,1,1,7772,3886
2049,13470471,2,0.0005130667,-0.001269901,-0.001173542,-0.214922,-0.0811756,-9.873403,0,0,39.26505,1,1,7772,3886
2080,13472743,2,0.001512177,-0.0005849506,-0.000480267,-0.2101807,-0.08288392,-9.871311,0,0,39.2651,1,1,7772,3886
2083,13475428,2,0.001443729,-0.0003194285,0.0002339293,-0.2084402,-0.08487175,-9.867595,0,0,39.26515,1,1,7772,3886
2086,13478315,2,0.0006862464,0.0005050536,0.0009215131,-0.2059916,-0.0862409,-9.862492,0,0,39.26522,1,1,7772,3886
2090,13480874,2,2.007431e-05,0.0006805665,0.0008120528,-0.2050419,-0.08566472999999999,-9.860353,0,0,39.26529,1,1,7772,3886
2121,13483942,2,-0.0007264782,0.0005135753,0.001427916,-0.2024874,-0.08320571,-9.854336999999999,0,0,39.26535,1,1,7772,3886
2124,13486011,2,-0.0008383992,0.0008689566,0.002192511,-0.2003194,-0.0813503,-9.851044999999999,0,0,39.2654,1,1,7772,3886
2127,13488286,2,-0.000710121,0.000973929,0.002833257,-0.1994151,-0.0808441,-9.850552,0,0,39.26545,1,1,7772,3886
2130,13491315,2,-2.278952e-05,0.0004076808,0.002503692,-0.2004706,-0.08063011,-9.850844,0,0,39.26553,1,1,7772,3886
2161,13493462,2,0.0004494189,0.0004302797,-0.0004796851,-0.2006709,-0.08238405,-9.852667,0,0,39.26564,1,1,7772,3886
2164,13496734,2,0.001312666,0.0009496343,-0.001382009,-0.2005233,-0.08443723,-9.854946999999999,0,0,39.26568,1,1,7772,3886
2167,13498854,2,0.0006559117,0.001779652,-0.001605581,-0.1997813,-0.09013417999999999,-9.858342,0,0,39.26575,1,1,7772,3886
2172,13501551,2,-6.73027e-05,0.002566146,-0.0008692988,-0.1998605,-0.09439235,-9.858826000000001,0,0,39.2658,1,1,7772,3886
2203,13503973,2,-0.0005648315,0.002965561,2.932156e-05,-0.2020984,-0.1005266,-9.856204999999999,0,0,39.2659,1,1,7772,3886
2206,13506559,2,-0.001889104,0.001459182,8.055037000000001e-05,-0.205287,-0.1036309,-9.849678000000001,0,0,39.26598,1,1,7772,3886
2209,13509729,2,-0.002473293,0.001279736,0.0004945227,-0.2081889,-0.1021022,-9.847509000000001,0,0,39.26604,1,1,7772,3886
2213,13511331,2,-0.002314791,0.000930608,0.0007885862,-0.2101772,-0.09939890999999999,-9.847526999999999,0,0,39.26615,1,1,7772,3886
2244,13514350,2,-0.001694713,0.0002350398,0.001190436,-0.2108682,-0.09674616,-9.847348,0,0,39.2662,1,1,7772,3886
2252,13516923,2,-0.002027519,3.72133e-06,0.001726856,-0.2090987,-0.09327409,-9.849059,0,0,39.26632,1,1,7772,3886
2255,13519903,2,-0.002166781,-3.465393e-05,0.002020677,-0.2063462,-0.09144106,-9.85102,0,0,39.2664,1,1,7772,3886
2258,13521309,2,-0.001729975,-3.36236e-05,0.001729076,-0.2036024,-0.09007795,-9.857339,0,0,39.26651,1,1,7772,3886
2289,13524127,2,-0.001384078,0.0005383738,0.0007136061,-0.2024301,-0.09017915,-9.860443,0,0,39.26657,1,1,7772,3886
2292,13527202,2,-0.0007018793,0.001395806,-0.0004636433,-0.2007146,-0.08968555,-9.861687999999999,0,0,39.26662,1,1,7772,3886
2295,13529256,2,-0.0005102056,0.001156206,-0.0005823583,-0.1998662,-0.0892792,-9.861036,0,0,39.26664,1,1,7772,3886
2299,13532127,2,-0.0009829948999999999,0.0007132062,0.0004131184,-0.1974015,-0.08966300000000001,-9.86088,0,0,39.26672,1,1,7772,3886
2330,13534599,2,-0.001240908,0.0005969108,0.001875106,-0.1934012,-0.09163843000000001,-9.860628999999999,0,0,39.26678,1,1,7772,3886
2333,13537559,2,-0.001661849,0.0007317499000000001,0.002638143,-0.1903474,-0.09279801999999999,-9.860559,0,0,39.26682,1,1,7772,3886
2336,13539927,2,-0.001623757,0.0003401115,0.001887,-0.1870515,-0.09269913,-9.861632,0,0,39.2669,1,1,7772,3886
2339,13542224,2,-0.001844451,2.571116e-05,0.002000729,-0.1851346,-0.09099562,-9.865062999999999,0,0,39.26698,1,1,7772,3886
2370,13544996,2,-0.001797164,-0.0008107521,0.001441816,-0.1835187,-0.08611367,-9.868625,0,0,39.26705,1,1,7772,3886
2373,13547228,2,-0.002088287,-0.001601305,0.0008658557,-0.183712,-0.08303629999999999,-9.86839,0,0,39.26708,1,1,7772,3886
2376,13550951,2,-0.002416696,-0.002255901,-0.0001484714,-0.1842472,-0.07776441000000001,-9.868023000000001,0,0,39.26716,1,1,7772,3886
2379,13552163,2,-0.001381273,-0.00161267,-0.0002219961,-0.1860115,-0.07448558,-9.870157000000001,0,0,39.26721,1,1,7772,3886
2411,13555013,2,-0.0001195754,-0.001338058,0.0006187538,-0.1863337,-0.07250582,-9.871702000000001,0,0,39.26723,1,1,7772,3886
2414,13557455,2,0.0005744963,-0.0008501996,0.0003270195,-0.1858624,-0.07192469,-9.872615,0,0,39.26725,1,1,7772,3886
2417,13560934,2,-0.0001179094,-7.768735e-05,0.0004350598,-0.1859457,-0.07167649,-9.870182,0,0,39.26726,1,1,7772,3886
2420,13563603,2,-0.0007770496999999999,0.0006706298,0.0005139071,-0.1880866,-0.06846172,-9.865746,0,0,39.26725,1,1,7772,3886
2423,13565210,2,3.173108e-05,6.073717e-05,0.0005907539,-0.189631,-0.06695245,-9.865926999999999,0,0,39.26725,1,1,7772,3886
2454,13567506,2,5.507687e-05,-0.0004168797,5.747265e-05,-0.1906665,-0.06772918999999999,-9.86702,0,0,39.26723,1,1,7772,3886
2457,13570437,2,-8.033037e-05,-0.0003495936,-0.0003675761,-0.1905774,-0.06918524,-9.866574999999999,0,0,39.26722,1,1,7772,3886
2460,13573239,2,0.0008443097,-2.739949e-05,-0.001312817,-0.1909228,-0.0716383,-9.865543000000001,0,0,39.26719,1,1,7772,3886
2464,13576287,2,0.0009565562,-0.0007144673,-0.00134612,-0.1909338,-0.07492433,-9.863374,0,0,39.26718,1,1,7772,3886
2467,13577846,2,0.0009865430000000001,-0.001241894,-0.001354681,-0.1901825,-0.08040592000000001,-9.858809000000001,0,0,39.26716,1,1,7772,3886
2498,13580363,2,0.001216182,-0.0014624,-0.001801636,-0.1889259,-0.08255288,-9.854575000000001,0,0,39.26715,1,1,7772,3886
2501,13582727,2,0.0002226535,-0.001195144,-0.001597552,-0.1868832,-0.08399238000000001,-9.849254999999999,0,0,39.26714,1,1,7772,3886
2505,13585967,2,-0.00119203,-0.0006017956,-0.002073441,-0.1860913,-0.08463179,-9.847692,0,0,39.26713,1,1,7772,3886
2508,13588336,2,-0.0009596552,0.0001824821,-0.001751218,-0.1842579,-0.08453397999999999,-9.845345,0,0,39.26714,1,1,7772,3886
2539,13590860,2,-0.0004262854,0.0005397639000000001,-0.00181572,-0.1831135,-0.08395547,-9.844749999999999,0,0,39.26716,1,1,7772,3886
2542,13593312,2,0.0001337666,0.0006000009,-0.001083834,-0.1837436,-0.08198669,-9.842627999999999,0,0,39.26719,1,1,7772,3886
2545,13597008,2,0.0003537847,0.000956284,-0.001302184,-0.1832131,-0.08086421000000001,-9.842177,0,0,39.2672,1,1,7772,3886
2548,13598760,2,0.0009169983,0.001724042,-0.001403909,-0.1833391,-0.08151797,-9.844500999999999,0,0,39.26723,1,1,7772,3886
2579,13601340,2,0.0018045,0.00136488,-0.001230921,-0.1853598,-0.08203892,-9.847287,0,0,39.26722,1,1,7772,3886
2584,13603982,2,0.001698955,0.0007978346,-6.773836000000001e-05,-0.1860135,-0.08239172,-9.849325,0,0,39.26721,1,1,7772,3886
2588,13606328,2,0.001271975,0.0002903551,0.0003160404,-0.1879167,-0.08515352,-9.855613999999999,0,0,39.26718,1,1,7772,3886
2591,13609717,2,0.0003605886,-0.0002394065,-0.0004312636,-0.1878462,-0.08744173,-9.857545999999999,0,0,39.26714,1,1,7772,3886
2622,13612362,2,-0.0007468826,-0.0006789443,-0.0004131326,-0.1861277,-0.0904865,-9.860174000000001,0,0,39.26708,1,1,7772,3886
2625,13614444,2,-0.0001640048,-0.0004215936,0.0001147979,-0.1838579,-0.09198966,-9.863144,0,0,39.26704,1,1,7772,3886
2628,13617277,2,4.336471e-05,-0.0006120129,0.0007779414,-0.1826762,-0.09198903,-9.862750999999999,0,0,39.26702,1,1,7772,3886
2636,13620128,2,0.000588953,-0.0007127019,0.001137013,-0.1820279,-0.08958401000000001,-9.862197999999999,0,0,39.26697,1,1,7772,3886
2667,13622923,2,0.0006623409,-0.0005791766,0.001065698,-0.1798815,-0.08708923,-9.862614000000001,0,0,39.26691,1,1,7772,3886
2670,13625498,2,0.001063061,-0.0008589051,0.001088896,-0.1784234,-0.08586748,-9.864148999999999,0,0,39.26688,1,1,7772,3886
2674,13627513,2,0.001756152,-0.0007479901,0.0004735204,-0.1752334,-0.08451652,-9.864061,0,0,39.26682,1,1,7772,3886
2677,13630333,2,0.001672051,-0.0003117509,-0.000468605,-0.1725192,-0.08360653999999999,-9.862081,0,0,39.2668,1,1,7772,3886
2708,13632490,2,0.001930089,4.165604e-05,-0.001240333,-0.1714838,-0.08222189000000001,-9.858783000000001,0,0,39.26675,1,1,7772,3886
2711,13635441,2,0.001686962,-0.0001866921,-0.001446173,-0.1737082,-0.08249989000000001,-9.857101,0,0,39.26672,1,1,7772,3886
2714,13638260,2,0.001014024,-0.001253844,-0.0007115894,-0.1762579,-0.08405032,-9.854754,0,0,39.26666,1,1,7772,3886
2717,13640521,2,0.0008064269,-0.001581564,-0.0003273897,-0.1789205,-0.0869178,-9.853676999999999,0,0,39.26662,1,1,7772,3886
2748,13642994,2,0.0006369529,-0.001727931,0.0001924317,-0.182474,-0.09090637999999999,-9.853944,0,0,39.26653,1,1,7772,3886
2751,13645766,2,0.001425211,-0.001810643,-0.0001409566,-0.1853462,-0.09539781999999999,-9.854127999999999,0,0,39.26645,1,1,7772,3886
2755,13648471,2,0.001017925,-0.001824572,0.000710336,-0.1865712,-0.09725060000000001,-9.854775,0,0,39.26641,1,1,7772,3886
2758,13651047,2,-4.919887e-05,-0.00119198,0.00118817,-0.188499,-0.09713677,-9.85807,0,0,39.26632,1,1,7772,3886
2789,13653295,2,-0.0005942389,-0.0004078691,0.001589974,-0.1896907,-0.0954043,-9.864538,0,0,39.26625,1,1,7772,3886
2792,13656248,2,-0.0009508067,0.0005016383,0.001960604,-0.1905162,-0.09384895,-9.86913,0,0,39.26621,1,1,7772,3886
2796,13658333,2,-0.001966299,0.0006374503,0.001354807,-0.194494,-0.09061271999999999,-9.874362,0,0,39.26615,1,1,7772,3886
2801,13667119,2,-0.001696719,-0.002714026,0.0005526096,-0.2030825,-0.08449771,-9.869685,0,0,39.26598,1,1,7772,3886
2832,13669739,2,-0.0006724708,-0.002817088,0.00143646,-0.203648,-0.0823778,-9.863246,0,0,39.26593,1,1,7772,3886
2835,13672453,2,-0.0007339077,-0.002511322,0.001565365,-0.20491,-0.0810409,-9.858561999999999,0,0,39.2659,1,1,7772,3886
2838,13675121,2,-0.0003741924,-0.001529766,0.00177992,-0.2060516,-0.08064013,-9.854376,0,0,39.26587,1,1,7772,3886
2841,13677263,2,-0.0003617122,-0.000905029,0.0009328875,-0.2074753,-0.08078533,-9.853445000000001,0,0,39.26585,1,1,7772,3886
2872,13679728,2,-0.0006356418,0.0002174067,-0.0003550102,-0.2101457,-0.08171324000000001,-9.853460999999999,0,0,39.26582,1,1,7772,3886
2877,13682243,2,-0.001226039,0.0006952949,-0.001273658,-0.2116464,-0.08346567000000001,-9.856133,0,0,39.26581,1,1,7772,3886
2880,13685014,2,-0.001170797,-0.0006662593,-0.001241759,-0.2124914,-0.08569626,-9.860696000000001,0,0,39.26577,1,1,7772,3886
2883,13687537,2,-0.0003865648,-0.002415624,-0.0008644749,-0.2114943,-0.08622188,-9.860588,0,0,39.26574,1,1,7772,3886
2914,13690341,2,-0.0003894645,-0.003700451,-0.0002648905,-0.2094704,-0.08604865,-9.862638,0,0,39.26574,1,1,7772,3886
2917,13692582,2,-0.0006829463,-0.002675968,0.001426885,-0.2082236,-0.08353569,-9.867837,0,0,39.26573,1,1,7772,3886
2920,13695442,2,-0.0007529547,-0.002063817,0.001539009,-0.2065105,-0.08266033,-9.870507,0,0,39.26573,1,1,7772,3886
2923,13697499,2,-0.0007001988999999999,-0.001346563,0.001345012,-0.2050753,-0.08342949,-9.870882,0,0,39.26574,1,1,7772,3886
2954,13700484,2,-0.0008154553,-0.001180931,0.001120264,-0.203956,-0.0841653,-9.869638,0,0,39.26574,1,1,7772,3886
2958,13702308,2,-0.001283974,-0.001216631,-5.28255e-05,-0.2017111,-0.084553,-9.866680000000001,0,0,39.26573,1,1,7772,3886
2961,13705250,2,-0.001030723,-0.0009905876,-0.0008462191,-0.1998013,-0.08448114,-9.864414999999999,0,0,39.26573,1,1,7772,3886
2964,13708253,2,-0.0001776597,-0.00117149,-0.0002371668,-0.1984513,-0.08297781999999999,-9.860659,0,0,39.26572,1,1,7772,3886
2995,13710506,2,-0.0001078179,-0.001933322,-0.0002338181,-0.1962189,-0.07986548,-9.852942000000001,0,0,39.26573,1,1,7772,3886
3000,13713348,2,-0.0006458764,-0.001467492,0.0004588186,-0.1954276,-0.07882018,-9.848981,0,0,39.26574,1,1,7772,3886
3003,13715532,2,-0.002229978,-0.00119595,-0.000219142,-0.1944701,-0.07761981,-9.844620000000001,0,0,39.26576,1,1,7772,3886
3006,13718493,2,-0.003097013,-0.001010702,-0.0007134944,-0.1945095,-0.07684887,-9.842796999999999,0,0,39.26578,1,1,7772,3886
3037,13720874,2,-0.003018225,-0.001032525,-0.001559168,-0.1967319,-0.07723352999999999,-9.842043,0,0,39.2658,1,1,7772,3886
3044,13723879,2,-0.002223557,-0.001491668,-0.002092045,-0.2001414,-0.07551005,-9.842430999999999,0,0,39.26582,1,1,7772,3886
3047,13726352,2,-0.001419044,-0.001651324,-0.002094517,-0.2012383,-0.07374098,-9.842767,0,0,39.26583,1,1,7772,3886
3051,13729281,2,-0.0007557892000000001,-0.002225539,-0.001087284,-0.2003942,-0.07239494,-9.842898,0,0,39.26584,1,1,7772,3886
3082,13732220,2,-0.0005562936,-0.002179551,-0.0003285939,-0.1971823,-0.07140605999999999,-9.845962999999999,0,0,39.26583,1,1,7772,3886
3086,13734244,2,-0.001107519,-0.001831314,-0.0004365843,-0.1948968,-0.07154430000000001,-9.848027,0,0,39.2658,1,1,7772,3886
3089,13736894,2,-0.001457272,-0.001315991,-0.0009310588,-0.1927987,-0.07337212999999999,-9.852157,0,0,39.26577,1,1,7772,3886
3092,13739112,2,-0.001388889,-0.0008883269,-0.002112118,-0.191247,-0.0755902,-9.855176,0,0,39.26575,1,1,7772,3886
3123,13742286,2,-0.00140898,-0.0006593093,-0.001719706,-0.1900935,-0.0798229,-9.861777,0,0,39.26573,1,1,7772,3886
3126,13744331,2,-0.001718667,-0.0007795553999999999,-0.001266389,-0.1901592,-0.08227389,-9.86605,0,0,39.26571,1,1,7772,3886
3129,13747099,2,-0.001150578,-0.001116858,-0.0009568157,-0.1921718,-0.08373074,-9.872476000000001,0,0,39.26571,1,1,7772,3886
3132,13749536,2,-0.0003541002,-0.001006775,-0.0008385075,-0.1930383,-0.08363348,-9.875818000000001,0,0,39.2657,1,1,7772,3886
3163,13751872,2,0.0006640187,0.0001621072,-0.0009125675,-0.1936076,-0.08300042000000001,-9.875851000000001,0,0,39.26571,1,1,7772,3886
3167,13755486,2,0.0009346726,0.0002594144,-0.001413504,-0.1942592,-0.08330812,-9.874719000000001,0,0,39.26571,1,1,7772,3886
3170,13756938,2,0.0007580137,-0.0005926365,-0.002569871,-0.1955089,-0.08270443,-9.873125,0,0,39.26574,1,1,7772,3886
3173,13759861,2,0.001253511,-0.001079426,-0.002154144,-0.1966064,-0.08205129999999999,-9.872979000000001,0,0,39.26575,1,1,7772,3886
3204,13762206,2,0.001086269,-0.001130479,-0.001446205,-0.1986637,-0.08057445000000001,-9.872047999999999,0,0,39.26578,1,1,7772,3886
3207,13765837,2,-0.0001718463,-0.001049917,-0.001081693,-0.2029153,-0.07801804,-9.868466,0,0,39.26579,1,1,7772,3886
3210,13767116,2,-0.0002884129,-0.0008315054,-0.0003193701,-0.2046657,-0.07746105,-9.865565999999999,0,0,39.26581,1,1,7772,3886
3213,13772907,2,0.001620439,-0.0005461356,0.0004484785,-0.2040192,-0.08114749,-9.855752000000001,0,0,39.26579,1,1,7772,3886
3245,13775291,2,0.002591779,-0.0003556451,0.0005955586,-0.2032495,-0.08267643,-9.848269999999999,0,0,39.26577,1,1,7772,3886
3248,13778356,2,0.002513533,6.163501e-05,0.0004187841,-0.2038943,-0.08387619,-9.843869,0,0,39.26575,1,1,7772,3886
3251,13780273,2,0.001694593,-0.0001104142,0.0009304512,-0.2047268,-0.08601364,-9.841041000000001,0,0,39.26574,1,1,7772,3886
3254,13782990,2,-0.0001748392,-0.0007991569,0.001572451,-0.2047084,-0.08982037,-9.837607,0,0,39.26572,1,1,7772,3886
3287,13785432,2,-0.000746467,-0.0007276391,0.001161493,-0.2048445,-0.09292534,-9.835735,0,0,39.26572,1,1,7772,3886
3291,13788512,2,1.152521e-05,-0.0006842845,0.0005013741,-0.2053648,-0.09483823,-9.836148,0,0,39.26572,1,1,7772,3886
3294,13790761,2,-0.0001100395,4.664946e-05,-0.0007218037,-0.2060337,-0.09687575,-9.837457000000001,0,0,39.26574,1,1,7772,3886
3297,13793320,2,-0.0006396892,0.0003778649,-0.0005579474,-0.2058791,-0.09710079000000001,-9.837915000000001,0,0,39.26576,1,1,7772,3886
3328,13796484,2,-0.0005600278,0.0005555334,0.0001992884,-0.20636,-0.09597050999999999,-9.841836000000001,0,0,39.2658,1,1,7772,3886
3331,13798366,2,-5.349402e-05,0.0008674917,0.0008988423,-0.2081087,-0.09429093,-9.845969999999999,0,0,39.26583,1,1,7772,3886
3334,13801114,2,0.001373137,0.001449343,0.001225917,-0.209189,-0.0912704,-9.850133,0,0,39.26587,1,1,7772,3886
3337,13802921,2,0.0009125631,0.0009564498,0.001590593,-0.2089034,-0.09029034,-9.849741,0,0,39.26593,1,1,7772,3886
3368,13805473,2,-0.0005806412,-0.0001671743,0.001707152,-0.2074155,-0.08946986,-9.850493,0,0,39.266,1,1,7772,3886
3372,13808431,2,-0.001383122,-0.000713935,0.001752551,-0.2058264,-0.08772146,-9.851649999999999,0,0,39.26606,1,1,7772,3886
3376,13810536,2,-0.001174565,-2.293375e-05,0.001894187,-0.2038723,-0.08526839,-9.853992,0,0,39.26619,1,1,7772,3886
3379,13813477,2,-0.001131328,0.0002732851,0.001341597,-0.2023347,-0.08640749,-9.856339,0,0,39.26625,1,1,7772,3886
3410,13815869,2,-0.001126052,6.155137000000001e-05,0.0002326696,-0.2001698,-0.09113722,-9.860708000000001,0,0,39.26639,1,1,7772,3886
3413,13818427,2,-0.001555969,0.0001665908,0.000207553,-0.1993337,-0.09192790000000001,-9.863184,0,0,39.26649,1,1,7772,3886
3416,13821075,2,-0.002305522,-0.000127625,0.0005272717,-0.1970919,-0.09019873,-9.863556000000001,0,0,39.26659,1,1,7772,3886
3420,13822888,2,-0.002684477,-0.0003281704,0.001225026,-0.1954025,-0.08957932,-9.859012,0,0,39.26662,1,1,7772,3886
3455,13826260,2,-0.002717254,-0.0008017495,0.001527585,-0.193484,-0.08921076,-9.853560999999999,0,0,39.26666,1,1,7772,3886
3459,13828131,2,-0.002431913,-0.0008946873,0.001731613,-0.192769,-0.08801819,-9.847390000000001,0,0,39.26667,1,1,7772,3886
3462,13830566,2,-0.001296773,-0.0005223213,0.001986448,-0.1946918,-0.08673142,-9.838488999999999,0,0,39.26671,1,1,7772,3886
3465,13833464,2,-0.0009976577999999999,-0.0001386878,0.002280696,-0.1953989,-0.08652318000000001,-9.835051,0,0,39.26672,1,1,7772,3886
3496,13836281,2,-0.001090091,0.000403101,0.001312388,-0.1944854,-0.08501093,-9.836062999999999,0,0,39.26673,1,1,7772,3886
3500,13838272,2,-0.0007556926,0.0007428162000000001,0.001002378,-0.1923995,-0.08288947000000001,-9.839183,0,0,39.26672,1,1,7772,3886
3503,13840884,2,-0.001162943,0.0008805455,0.0006381118,-0.1914978,-0.08220279,-9.841984,0,0,39.2667,1,1,7772,3886
3507,13843572,2,-0.001944133,0.001219722,0.000631625,-0.1903044,-0.08200178,-9.846640000000001,0,0,39.26669,1,1,7772,3886
3538,13846120,2,-0.002766176,0.00128258,0.001639351,-0.1877008,-0.08221935,-9.857981000000001,0,0,39.26667,1,1,7772,3886
3541,13849238,2,-0.003261792,0.0006216957,0.002180253,-0.1853161,-0.08301528,-9.866174000000001,0,0,39.26665,1,1,7772,3886
3544,13851306,2,-0.003439551,-1.128263e-05,0.002335674,-0.184397,-0.08252701,-9.868078000000001,0,0,39.26664,1,1,7772,3886
3549,13853860,2,-0.003025423,-0.001208541,0.002211394,-0.183594,-0.08034640999999999,-9.870889,0,0,39.26662,1,1,7772,3886
3580,13856562,2,-0.002769809,-0.001173345,0.001472727,-0.1834888,-0.07986507,-9.872239,0,0,39.26661,1,1,7772,3886
3584,13858426,2,-0.002559342,-0.0003606566,0.0003273361,-0.1842465,-0.07832989999999999,-9.875443000000001,0,0,39.26661,1,1,7772,3886
3587,13862212,2,-0.001998315,0.0003640413,-0.00117832,-0.1848799,-0.07682841,-9.875207,0,0,39.26661,1,1,7772,3886
3590,13863756,2,-0.0005576165,8.610436e-06,-0.002479917,-0.1853678,-0.07375742,-9.870645,0,0,39.26662,1,1,7772,3886
3621,13866326,2,-0.0001987888,-0.001037723,-0.001535468,-0.1847241,-0.06970853,-9.869194999999999,0,0,39.26663,1,1,7772,3886
3624,13871110,2,-0.001583434,-0.001299902,0.0007802998,-0.1833,-0.06133777,-9.873697999999999,0,0,39.26665,1,1,7772,3886
3627,13874537,2,-0.0008107582,-0.00171196,0.001585372,-0.1829766,-0.06003659,-9.873563000000001,0,0,39.26667,1,1,7772,3886
3630,13876372,2,-0.000202451,-0.002109752,0.00151645,-0.1832139,-0.05999326,-9.874408000000001,0,0,39.2667,1,1,7772,3886
3661,13878749,2,-0.0003963743,-0.002491299,-0.0005306185,-0.183927,-0.06238902,-9.877057000000001,0,0,39.26672,1,1,7772,3886
3664,13881759,2,-0.001318631,-0.002338812,-0.002128682,-0.1851123,-0.06562243,-9.876707,0,0,39.26674,1,1,7772,3886
3667,13884094,2,-0.001222026,-0.002527203,-0.003157181,-0.1875836,-0.06874096,-9.876683,0,0,39.26674,1,1,7772,3886
3670,13886482,2,-0.0001270691,-0.002302006,-0.003507977,-0.1913259,-0.07286105,-9.877046,0,0,39.26671,1,1,7772,3886
3702,13889494,2,0.0006944721,-0.002029827,-0.003092434,-0.1925598,-0.07593369,-9.875992999999999,0,0,39.26666,1,1,7772,3886
3705,13891534,2,0.0005640202,-0.001538109,-0.002035159,-0.1940214,-0.08051456999999999,-9.874084,0,0,39.26661,1,1,7772,3886
3708,13894301,2,-7.21286e-06,-0.001594434,-0.001627517,-0.1947164,-0.08253552,-9.870760000000001,0,0,39.26656,1,1,7772,3886
3711,13896513,2,-8.249367e-05,-0.001348588,-0.001799574,-0.1945028,-0.08397871,-9.866222,0,0,39.26651,1,1,7772,3886
3742,13898984,2,0.0001273449,-0.001383755,-0.002381992,-0.1938354,-0.08612796,-9.861264,0,0,39.26648,1,1,7772,3886
3745,13901942,2,-0.0004460234,-0.001231643,-0.003268551,-0.1928673,-0.08710701,-9.859102,0,0,39.26648,1,1,7772,3886
3748,13903956,2,-0.0007061999,-0.001054508,-0.003709699,-0.1922683,-0.08684812,-9.856889000000001,0,0,39.26649,1,1,7772,3886
3751,13906297,2,-5.696564e-05,-0.0005490011,-0.004025592,-0.1918611,-0.08643017,-9.855219999999999,0,0,39.26653,1,1,7772,3886
3783,13909102,2,0.001061281,0.0004483686,-0.003918767,-0.1921931,-0.08591417,-9.851967999999999,0,0,39.26658,1,1,7772,3886
3786,13911848,2,0.001263007,0.0008258156999999999,-0.002840611,-0.1928718,-0.08421379,-9.847735999999999,0,0,39.26665,1,1,7772,3886
3789,13914264,2,-3.931196e-06,0.0003032492,-0.0008618826,-0.1933737,-0.07961072,-9.84465,0,0,39.26672,1,1,7772,3886
3792,13916537,2,-0.001103948,0.0003290555,-0.0002443416,-0.1934128,-0.07793538,-9.846919,0,0,39.26679,1,1,7772,3886
3823,13918992,2,-0.00190784,0.0001094611,-0.0009071845,-0.1931689,-0.07683927,-9.849690000000001,0,0,39.26687,1,1,7772,3886
3826,13921423,2,-0.001400384,-0.0005597441,-0.001881001,-0.1924831,-0.07616178999999999,-9.850555999999999,0,0,39.26692,1,1,7772,3886
3831,13924316,2,-0.0006549987,-0.0009781498,-0.002198218,-0.1911697,-0.07749461000000001,-9.852535,0,0,39.267,1,1,7772,3886
3838,13927276,2,1.351816e-05,0.0001939856,-0.001778561,-0.1906353,-0.07925566000000001,-9.852708,0,0,39.26708,1,1,7772,3886
3869,13929752,2,0.0005918248,0.001605689,-0.002155728,-0.1866728,-0.07968847,-9.850683999999999,0,0,39.26719,1,1,7772,3886
3873,13932224,2,0.0001866027,0.001559077,-0.002199353,-0.1847833,-0.07915112000000001,-9.852655,0,0,39.26724,1,1,7772,3886
3876,13935113,2,0.0006946611,0.0002292936,-0.001328213,-0.1843939,-0.07975135999999999,-9.857096,0,0,39.26733,1,1,7766,3883
3879,13937838,2,0.0004233016,-0.0001269561,-0.001257006,-0.1858245,-0.08008777,-9.858522000000001,0,0,39.26738,1,1,7766,3883
3910,13940322,2,0.0002894224,0.0002972959,-0.0006084498,-0.1876148,-0.07857637000000001,-9.858865,0,0,39.26749,1,1,7766,3883
3913,13942537,2,0.0009524323,0.0002494342,-2.673911e-05,-0.1895489,-0.07502929,-9.857027,0,0,39.26759,1,1,7766,3883
3916,13945700,2,0.001140859,0.000577114,-0.0005948666,-0.19211,-0.07308503,-9.855847000000001,0,0,39.26766,1,1,7766,3883
3919,13948255,2,0.001090294,0.001348529,-6.732037e-05,-0.1949291,-0.07175344,-9.854545,0,0,39.26776,1,1,7766,3883
3950,13950925,2,0.0001855475,0.001291138,-0.0003446939,-0.1979215,-0.0716036,-9.853507,0,0,39.26788,1,1,7766,3883
3954,13953738,2,0.000243126,0.0009816232999999999,0.000145795,-0.2013258,-0.07234556,-9.850899,0,0,39.268,1,1,7766,3883
3957,13956115,2,0.0003684955,0.0004705483,0.0002791279,-0.2040714,-0.0736295,-9.847490000000001,0,0,39.26808,1,1,7766,3883
3960,13958800,2,-0.001081837,-0.0001825006,-0.0003022691,-0.2062561,-0.07646759,-9.844951999999999,0,0,39.2682,1,1,7766,3883
3991,13961767,2,-0.002162724,-0.0008957071,8.036805e-05,-0.2055829,-0.07837406,-9.845492999999999,0,0,39.2683,1,1,7766,3883
3996,13963959,2,-0.002206214,-0.0007270606,0.0007808235,-0.2028647,-0.08111894,-9.849387999999999,0,0,39.26836,1,1,7766,3883
3999,13966313,2,-0.001729806,7.736956e-05,0.0001367933,-0.2000297,-0.08391630999999999,-9.854574,0,0,39.26847,1,1,7766,3883
4002,13969129,2,-0.001675758,4.332588e-05,-9.981425999999999e-05,-0.1976184,-0.08532183,-9.85773,0,0,39.26858,1,1,7766,3883
4033,13977454,2,-0.001887638,0.0008644122,0.0005036727,-0.1914487,-0.08094276,-9.85962,0,0,39.26901,1,1,7766,3883
4036,13979917,2,-0.001578197,0.0002293368,0.0007538435,-0.1900102,-0.07724882,-9.857873,0,0,39.2691,1,1,7766,3883
4067,13982746,2,-0.0008334839,-0.0005551006,0.001115741,-0.1883077,-0.07471807,-9.854676,0,0,39.26918,1,1,7766,3883
4070,13985317,2,-0.0001614445,-0.001084961,0.001548471,-0.1858587,-0.07120286000000001,-9.849859,0,0,39.26932,1,1,7766,3883
4073,13987484,2,-5.951532e-06,-0.001400674,0.001659956,-0.1850019,-0.06898572,-9.848285000000001,0,0,39.26941,1,1,7766,3883
4077,13989928,2,-0.0006099836,-0.001744543,0.002244865,-0.183508,-0.06887362,-9.847453,0,0,39.26959,1,1,7766,3883
4108,13992229,2,-0.001039749,-0.001921188,0.001751515,-0.1824319,-0.07039898999999999,-9.846278,0,0,39.26975,1,1,7766,3883
4111,13995205,2,-0.001101673,-0.0022148,-0.0003444216,-0.1816648,-0.0713995,-9.841616,0,0,39.26985,1,1,7766,3883
4114,13998022,2,-0.001265112,-0.001906432,-0.0005336157,-0.1821456,-0.07273106,-9.838727,0,0,39.26995,1,1,7766,3883
4118,13999969,2,-0.001657861,-0.002686486,0.0008940912,-0.1853494,-0.07569600999999999,-9.838737,0,0,39.27011,1,1,7766,3883
4149,14002448,2,-0.0002976668,-0.002355852,0.001706992,-0.1883577,-0.07747621,-9.838794,0,0,39.27026,1,1,7766,3883
4152,14004806,2,0.000848618,-0.002095654,0.001773733,-0.1901052,-0.07978162,-9.839171,0,0,39.27037,1,1,7766,3883
4155,14007364,2,0.001594102,-0.001813605,0.0008125473,-0.1919556,-0.08185601000000001,-9.839442,0,0,39.27048,1,1,7766,3883
4158,14010486,2,0.0006329323,-0.001552502,0.0002917202,-0.1955734,-0.08286417,-9.839407,0,0,39.27065,1,1,7766,3883
4189,14013179,2,-0.0003468147,-0.002216275,0.001559217,-0.1982402,-0.08278634,-9.84023,0,0,39.27086,1,1,7766,3883
4192,14015523,2,-0.0003607972,-0.002795512,0.002150225,-0.2008033,-0.08279117,-9.840964,0,0,39.27097,1,1,7766,3883
4195,14018103,2,-0.0002725729,-0.002699692,0.001913757,-0.2036353,-0.0814327,-9.841262,0,0,39.27115,1,1,7766,3883
4199,14020707,2,0.0001295124,-0.001605123,0.001916502,-0.2049673,-0.07783142,-9.840628000000001,0,0,39.27126,1,1,7766,3883
4230,14023451,2,-5.656792e-05,-0.001060417,0.0027979,-0.2058844,-0.07490355999999999,-9.840555,0,0,39.27145,1,1,7766,3883
4233,14026076,2,0.0004903291,-0.001194629,0.003313269,-0.2065831,-0.07164221,-9.841331,0,0,39.27158,1,1,7766,3883
4237,14027760,2,0.0007779136,-0.0009808003999999999,0.002342682,-0.2059142,-0.06884957,-9.842649,0,0,39.27179,1,1,7766,3883
4244,14030846,2,0.0005175141,-0.0007535279,0.002012186,-0.205536,-0.06936136,-9.843595000000001,0,0,39.27191,1,1,7766,3883
4277,14033201,2,0.0002078276,-0.001042366,0.001478504,-0.2041859,-0.07174943,-9.847265999999999,0,0,39.27217,1,1,7766,3883
4280,14036261,2,8.962753e-05,-0.001314222,0.0009027367,-0.2017739,-0.07376648,-9.850346,0,0,39.2723,1,1,7766,3883
4283,14038885,2,0.0001108025,-0.001639317,0.0002551701,-0.1985983,-0.07687563,-9.854336,0,0,39.27244,1,1,7766,3883
4286,14040926,2,-0.0008942536,-0.00156177,-0.0006271943,-0.1961741,-0.08060306,-9.858478,0,0,39.27272,1,1,7766,3883
4317,14043441,2,-0.0009405686,-0.0008967773,-0.0009451028999999999,-0.1944291,-0.08448422999999999,-9.862022,0,0,39.273,1,1,7766,3883
4320,14046056,2,-0.0007229501,-0.0003201636,-0.00189893,-0.194406,-0.08504539,-9.864943999999999,0,0,39.27314,1,1,7766,3883
4323,14048842,2,-0.0004104598,-0.0003273357,-0.00224742,-0.1955685,-0.08505952999999999,-9.865836,0,0,39.27327,1,1,7766,3883
4327,14051248,2,2.536133e-05,0.000233683,-0.002342108,-0.1992418,-0.08558343,-9.866033,0,0,39.27348,1,1,7766,3883
4358,14053505,2,-0.0004327377,0.0002233825,-0.002375774,-0.2024388,-0.08357687,-9.867718999999999,0,0,39.27367,1,1,7766,3883
4362,14055936,2,-0.0004846165,0.0002242675,-0.001217146,-0.2035355,-0.08222481,-9.866315,0,0,39.2738,1,1,7766,3883
4367,14058933,2,-0.0002447991,0.0002453906,-0.0003211181,-0.2044335,-0.08197024999999999,-9.863530000000001,0,0,39.27393,1,1,7766,3883
4370,14061313,2,0.0001315647,0.0006938006,-3.508135e-05,-0.2051885,-0.08223613,-9.858708999999999,0,0,39.27415,1,1,7766,3883
4401,14064115,2,0.000737166,0.0004488258,-0.0002444789,-0.2057318,-0.08335975,-9.85042,0,0,39.27444,1,1,7766,3883
4404,14066427,2,0.001092093,0.0008490703,-0.0006009032,-0.2048919,-0.08438659,-9.844327,0,0,39.27459,1,1,7766,3883
4407,14068806,2,0.001506285,0.002071566,-0.001069977,-0.202574,-0.08805312,-9.837099,0,0,39.27488,1,1,7766,3883
4411,14071126,2,0.001086454,0.001671911,-0.001269889,-0.2004281,-0.08952541999999999,-9.832511999999999,0,0,39.27504,1,1,7766,3883
4442,14077885,2,-0.001826099,-0.001028416,-0.00111243,-0.1971999,-0.09072842,-9.825303999999999,0,0,39.27553,1,1,7766,3883
4445,14079084,2,-0.00185533,-0.001160031,-0.0002326279,-0.1959452,-0.08988395,-9.828777000000001,0,0,39.27575,1,1,7766,3883
4448,14081962,2,-0.001366973,-0.0005262012,-0.0005293635,-0.1958699,-0.08889983999999999,-9.831908,0,0,39.2759,1,1,7766,3883
4479,14084918,2,-0.001002219,8.713414000000001e-05,-0.000726598,-0.1968369,-0.08836797,-9.836748999999999,0,0,39.27612,1,1,7766,3883
4482,14086577,2,-0.001018203,0.0005982474999999999,-0.0007360528,-0.199068,-0.08856938,-9.844137999999999,0,0,39.27634,1,1,7766,3883
4485,14090060,2,-0.0008636648,0.0007546688,-0.001130801,-0.2002621,-0.08938202000000001,-9.847262000000001,0,0,39.27649,1,1,7766,3883
4490,14091937,2,-0.001110972,0.0008436696,-0.00207382,-0.2018075,-0.08923068000000001,-9.850872000000001,0,0,39.27671,1,1,7766,3883
4521,14094090,2,-0.0007500643,0.0009660556,-0.003642347,-0.201347,-0.08743904,-9.852558,0,0,39.27692,1,1,7766,3883
4524,14097303,2,-0.0004443113,0.000993949,-0.003949626,-0.1992642,-0.08608093999999999,-9.854298,0,0,39.27706,1,1,7766,3883
4527,14099119,2,-0.001148857,0.0009492906,-0.003535677,-0.1967684,-0.08525268,-9.856014999999999,0,0,39.27728,1,1,7766,3883
4530,14101738,2,-0.002545717,0.001066394,-0.002244082,-0.1934145,-0.08297749,-9.856752,0,0,39.27748,1,1,7766,3883
4561,14104728,2,-0.001928659,0.000848046,-0.002642105,-0.1922921,-0.08168697,-9.857257000000001,0,0,39.27768,1,1,7766,3883
4564,14106723,2,-0.0009295423,0.0001091323,-0.002465688,-0.1916979,-0.08128854000000001,-9.857877,0,0,39.2779,1,1,7766,3883
4567,14109541,2,-0.0008507501,-3.060352e-06,-0.002603689,-0.1911867,-0.08099442,-9.85866,0,0,39.27804,1,1,7766,3883
4572,14111957,2,-0.001039756,0.0002207041,-0.003262949,-0.1880928,-0.0800821,-9.858521,0,0,39.27826,1,1,7766,3883
4603,14114279,2,0.0007945779,0.0005734544,-0.0016061,-0.1834831,-0.07792098,-9.852634,0,0,39.27845,1,1,7766,3883
4606,14117117,2,0.001430595,3.478291e-05,0.0002195194,-0.1814659,-0.07727017,-9.847170999999999,0,0,39.27858,1,1,7766,3883
4609,14119772,2,0.00172593,-0.0003953323,0.001471602,-0.1807354,-0.07832878,-9.842115,0,0,39.27876,1,1,7766,3883
4613,14121987,2,0.001130996,-0.0005637259,0.001283351,-0.1808864,-0.08047794,-9.836264999999999,0,0,39.27893,1,1,7766,3883
4644,14124250,2,0.0002351533,-0.0006403698,0.002137773,-0.1845363,-0.0834498,-9.834621,0,0,39.2791,1,1,7766,3883
4647,14126716,2,0.0006552833,-0.001036947,0.003045741,-0.1885394,-0.08417582999999999,-9.834751000000001,0,0,39.27921,1,1,7766,3883
4650,14129747,2,0.001259907,-0.001233103,0.002837754,-0.1931935,-0.08295698,-9.834083,0,0,39.27932,1,1,7766,3883
4657,14131937,2,0.0008454884,-0.002124273,0.001072774,-0.1989643,-0.0779292,-9.83315,0,0,39.27947,1,1,7766,3883
4688,14134934,2,-0.0002263138,-0.002563844,-8.281504e-05,-0.2014518,-0.07301588000000001,-9.836066000000001,0,0,39.27961,1,1,7766,3883
4691,14136993,2,-0.0004271706,-0.002315438,0.0004574447,-0.2017296,-0.07204711,-9.837426000000001,0,0,39.2797,1,1,7766,3883
4694,14138960,2,-0.0004012155,-0.002097331,0.0007822904,-0.2022019,-0.0711804,-9.840915000000001,0,0,39.27979,1,1,7766,3883
4698,14142120,2,-0.0007298201,-0.001573748,0.001178386,-0.2032084,-0.07069868999999999,-9.846648,0,0,39.27991,1,1,7766,3883
4729,14144305,2,-0.0002546455,-0.0007902636,0.001673761,-0.2017221,-0.07069726,-9.849739,0,0,39.28004,1,1,7766,3883
4732,14147534,2,-0.0003651032,-0.0007080984999999999,0.00111964,-0.1998684,-0.07146295,-9.850830999999999,0,0,39.28014,1,1,7766,3883
4736,14149582,2,-0.001113122,-0.001902643,0.001174398,-0.1970718,-0.07280648000000001,-9.851614,0,0,39.28027,1,1,7766,3883
4739,14152095,2,-0.001841894,-0.001933638,0.00139309,-0.1958103,-0.07333315999999999,-9.853284,0,0,39.28036,1,1,7766,3883
4770,14154893,2,-0.00225703,-0.001802751,0.002293714,-0.1936648,-0.07405005000000001,-9.853579999999999,0,0,39.28053,1,1,7766,3883
4773,14157332,2,-0.0024624,-0.001102901,0.001409422,-0.1930969,-0.07351745,-9.851762000000001,0,0,39.28062,1,1,7766,3883
4776,14160235,2,-0.001421375,-0.001196384,0.0007883128000000001,-0.1925464,-0.07105098999999999,-9.848796999999999,0,0,39.2808,1,1,7766,3883
4780,14161962,2,-0.0002770541,-0.001273226,0.0009220054,-0.192407,-0.0694652,-9.849330999999999,0,0,39.28089,1,1,7766,3883
4811,14164466,2,-0.0004006826,-0.001578979,0.001496459,-0.1925069,-0.06921168,-9.853092,0,0,39.28107,1,1,7766,3883
4814,14167321,2,-0.0002682702,-0.001264404,0.001209613,-0.1928997,-0.06917494,-9.856847999999999,0,0,39.28115,1,1,7766,3883
4817,14169899,2,0.0002059697,-0.0006039887,0.001265177,-0.192974,-0.06838718000000001,-9.859513,0,0,39.28124,1,1,7766,3883
4820,14174581,2,-0.0008041486,0.0002231989,0.0008008243,-0.1930917,-0.06730317,-9.861585,0,0,39.28142,1,1,7766,3883
4851,14177328,2,-0.001035108,0.0004672332,0.0009665699,-0.1912272,-0.06840715,-9.861953,0,0,39.28148,1,1,7766,3883
4854,14180000,2,-0.00115302,0.0002877449,0.001065458,-0.1878758,-0.06786795,-9.861048,0,0,39.28158,1,1,7766,3883
4858,14185347,2,-0.001278173,0.0002058463,0.002960607,-0.1832959,-0.06724606,-9.854378000000001,0,0,39.28187,1,1,7766,3883
4889,14187737,2,-0.0002956275,0.0009180733,0.001663623,-0.1854215,-0.06871316,-9.849712,0,0,39.282,1,1,7766,3883
4892,14190641,2,0.0005088519,0.001434057,0.001033567,-0.187971,-0.07012953,-9.846723000000001,0,0,39.28208,1,1,7766,3883
4896,14192947,2,0.0006777487,0.001115782,7.08001e-06,-0.1929866,-0.07306728999999999,-9.845762000000001,0,0,39.2822,1,1,7766,3883
4899,14195842,2,0.0006101415,0.000909068,-4.876867e-05,-0.1965707,-0.07451869999999999,-9.846901000000001,0,0,39.28231,1,1,7766,3883
4930,14198509,2,0.0009655424,0.0002100014,0.0004071901,-0.2015408,-0.07790792000000001,-9.851896999999999,0,0,39.28241,1,1,7766,3883
4933,14200919,2,0.0004325704,-0.0007599315,0.0005317237,-0.2032533,-0.08067806,-9.854729000000001,0,0,39.28251,1,1,7766,3883
4936,14203392,2,0.0001285941,-0.0004813978,0.0005884159,-0.2043881,-0.08326142,-9.856952,0,0,39.28257,1,1,7766,3883
4939,14206061,2,0.000546784,-9.893233e-05,0.00141004,-0.205155,-0.08498563000000001,-9.858366999999999,0,0,39.28265,1,1,7766,3883
4970,14208742,2,0.001168601,-0.0004072048,0.0009333885,-0.2036582,-0.08671841,-9.857376,0,0,39.28274,1,1,7766,3883
4973,14211404,2,0.001406101,-0.0002314652,0.00102013,-0.2014755,-0.08725131999999999,-9.856794000000001,0,0,39.2828,1,1,7766,3883
4977,14213385,2,0.001188335,-5.839453e-05,7.226368e-05,-0.1988099,-0.0872964,-9.856795,0,0,39.28288,1,1,7766,3883
4980,14216003,2,0.0004350001,-0.0009309192,-0.0004805606,-0.1964427,-0.08876581,-9.858328999999999,0,0,39.28294,1,1,7766,3883
5011,14218488,2,1.406489e-05,-0.001171979,-0.001237684,-0.1958573,-0.09033138,-9.860326000000001,0,0,39.28304,1,1,7766,3883
5014,14221305,2,0.0001798836,-0.001600585,-0.001412187,-0.1952206,-0.08977226000000001,-9.8606,0,0,39.28312,1,1,7766,3883
5017,14223776,2,0.0003751611,-0.001806194,-0.001139809,-0.1940053,-0.0877988,-9.860329999999999,0,0,39.28322,1,1,7766,3883
5020,14226012,2,0.0008786838,-0.001470672,-0.0008981458,-0.1918557,-0.08443969,-9.860972,0,0,39.28333,1,1,7766,3883
5051,14228235,2,-0.0003992283,-0.0009821045000000001,-0.0001135105,-0.1909039,-0.08230663000000001,-9.860548,0,0,39.28342,1,1,7766,3883
5054,14231050,2,-0.001352996,-0.0006726797000000001,-0.000883685,-0.1900778,-0.08036894999999999,-9.858636000000001,0,0,39.28348,1,1,7766,3883
5063,14233900,2,-0.00123294,-0.0008066848,-0.001452836,-0.1882696,-0.07910208000000001,-9.856778,0,0,39.28357,1,1,7766,3883
5066,14236331,2,-0.0004924212,-0.001078141,-0.002103585,-0.1848047,-0.07659999000000001,-9.852155,0,0,39.28365,1,1,7766,3883
5097,14238772,2,0.0006044331,-0.001323789,-0.002016466,-0.1808534,-0.07483919999999999,-9.847656000000001,0,0,39.28373,1,1,7766,3883
5100,14241348,2,0.0009179115,-0.002616113,-0.001317294,-0.1775905,-0.07492733,-9.844982999999999,0,0,39.28377,1,1,7766,3883
5104,14243978,2,0.0004454363,-0.003029936,-0.00128878,-0.1754461,-0.07671321,-9.846857999999999,0,0,39.28384,1,1,7766,3883
5107,14246476,2,0.0001757273,-0.002904825,-0.001071483,-0.1727366,-0.08063016000000001,-9.851312999999999,0,0,39.28393,1,1,7766,3883
5138,14249897,2,-0.0009216755,-0.002808396,-0.003644019,-0.1698423,-0.08647501,-9.855461999999999,0,0,39.28407,1,1,7766,3883
5141,14252296,2,-0.001510084,-0.002900973,-0.003702956,-0.1669674,-0.09000575,-9.854570000000001,0,0,39.28413,1,1,7766,3883
5145,14254290,2,-0.001575453,-0.002991532,-0.003209321,-0.166728,-0.09110704999999999,-9.851485,0,0,39.28423,1,1,7766,3883
5148,14257028,2,-0.00104606,-0.002801148,-0.003148294,-0.1706549,-0.09151856999999999,-9.84745,0,0,39.28433,1,1,7766,3883
5179,14259540,2,-0.0009267402,-0.002893915,-0.002766201,-0.1743876,-0.09205646000000001,-9.847239,0,0,39.28445,1,1,7766,3883
5184,14262480,2,-0.000728595,-0.003649468,-0.002174721,-0.1782255,-0.09226099,-9.849484,0,0,39.28452,1,1,7766,3883
5187,14265001,2,-0.0002372677,-0.004108963,-0.001972594,-0.1817763,-0.09174590000000001,-9.854554,0,0,39.28458,1,1,7766,3883
5190,14266503,2,-0.0002397732,-0.004529831,-0.002435184,-0.1853634,-0.09047998,-9.860027000000001,0,0,39.28466,1,1,7766,3883
5221,14269141,2,-0.0002752435,-0.004110864,-0.00266919,-0.1861906,-0.09011009,-9.859733,0,0,39.28473,1,1,7766,3883
5224,14272218,2,-0.0004008433,-0.002323376,-0.002194508,-0.1868756,-0.08800651,-9.858387,0,0,39.28482,1,1,7766,3883
5228,14277550,2,-0.001196777,-0.001606827,-0.001637994,-0.1890209,-0.08048179,-9.857236,0,0,39.28504,1,1,7766,3883
5261,14280085,2,-0.001934331,-0.001307039,-0.0002672434,-0.1902315,-0.08029465,-9.859056000000001,0,0,39.28515,1,1,7766,3883
5264,14282757,2,-0.001114597,-0.002133043,-0.000856769,-0.1902771,-0.08364099999999999,-9.862453,0,0,39.28529,1,1,7766,3883
5269,14285583,2,-0.0004791319,-0.001957577,-0.00208055,-0.1909212,-0.08568572000000001,-9.86736,0,0,39.28536,1,1,7766,3883
5272,14287911,2,-0.000481425,-0.001510197,-0.002429608,-0.1912847,-0.08740956,-9.872197999999999,0,0,39.28547,1,1,7766,3883
5303,14290358,2,-0.0003449674,-0.0009613833,-0.001853591,-0.1916741,-0.08864982,-9.878887000000001,0,0,39.28561,1,1,7766,3883
5306,14292980,2,0.0001916353,-0.0006999772,-0.001382997,-0.1918565,-0.08848805,-9.878696,0,0,39.2857,1,1,7766,3883
5309,14296519,2,0.0004315102,5.092583e-05,-0.0002707302,-0.1916706,-0.08782160999999999,-9.878415,0,0,39.28578,1,1,7766,3883
5312,14298324,2,0.0008344312999999999,0.0002927892,0.0004850885,-0.1905939,-0.08655255000000001,-9.877772999999999,0,0,39.28593,1,1,7766,3883
5343,14300984,2,0.0009011824,-0.0005453573,0.0004139021,-0.1907025,-0.08565462,-9.877642,0,0,39.28611,1,1,7766,3883
5346,14303458,2,0.0002581599,-0.0002288157,0.001326875,-0.1907953,-0.08501026,-9.879289999999999,0,0,39.28623,1,1,7766,3883
5350,14306164,2,-6.787098e-06,-0.0003861811,0.002006914,-0.1906455,-0.08414032,-9.881696,0,0,39.28635,1,1,7766,3883
5353,14309114,2,0.0006105718,0.0001986511,0.001966425,-0.1919226,-0.08223039,-9.885781,0,0,39.28646,1,1,7766,3883
5384,14312064,2,0.001304583,0.001920937,0.001737458,-0.195059,-0.07729324999999999,-9.888432999999999,0,0,39.28663,1,1,7766,3883
5387,14314331,2,0.001635187,0.002564849,0.001746545,-0.1983063,-0.07311086999999999,-9.887865,0,0,39.28674,1,1,7766,3883
5390,14317045,2,0.002292558,0.002540411,0.001690168,-0.2034386,-0.06797659,-9.886291,0,0,39.28692,1,1,7766,3883
5393,14319613,2,0.002171787,0.002087663,0.002149957,-0.2075893,-0.06644332999999999,-9.885159,0,0,39.28703,1,1,7766,3883
5424,14322320,2,0.001953413,0.002102736,0.002334337,-0.2131832,-0.06808134,-9.882028999999999,0,0,39.28712,1,1,7766,3883
5427,14324983,2,0.002251901,0.002716274,0.002158285,-0.2158859,-0.07058775,-9.880461,0,0,39.28722,1,1,7766,3883
5431,14326985,2,0.00239557,0.00212072,0.002321421,-0.2186032,-0.07411541000000001,-9.879827000000001,0,0,39.28727,1,1,7766,3883
5434,14330081,2,0.002110457,0.001437608,0.002651756,-0.2201202,-0.08029504,-9.880649999999999,0,0,39.28733,1,1,7766,3883
5465,14332845,2,0.001041221,0.00158799,0.002884804,-0.217164,-0.08560684,-9.877625,0,0,39.2874,1,1,7766,3883
5468,14334961,2,0.0004339599,0.001915099,0.003564061,-0.2144052,-0.08785287999999999,-9.872953000000001,0,0,39.28743,1,1,7766,3883
5476,14338106,2,0.0004659418,0.001857572,0.003002805,-0.2106792,-0.08944567,-9.869451,0,0,39.28745,1,1,7766,3883
5479,14340007,2,-0.0002190525,0.001458791,0.002881559,-0.203248,-0.09160195,-9.865080000000001,0,0,39.28749,1,1,7766,3883
5510,14342756,2,-0.0008427959,0.001166557,0.002539992,-0.1972964,-0.09146566,-9.861644,0,0,39.28756,1,1,7766,3883
5513,14344615,2,-0.0005233014999999999,0.001083423,0.003101037,-0.194085,-0.09134326,-9.862807999999999,0,0,39.2876,1,1,7766,3883
5516,14347130,2,-0.0001691913,0.001288059,0.003254105,-0.1922653,-0.09201431,-9.865129,0,0,39.28761,1,1,7766,3883
5519,14350433,2,-0.0003511152,0.0009203866999999999,0.003543165,-0.1926452,-0.09155872,-9.864966000000001,0,0,39.28762,1,1,7766,3883
5550,14352530,2,-0.0001512455,0.0004893697,0.002721554,-0.194464,-0.08588266999999999,-9.857742,0,0,39.28765,1,1,7766,3883
5553,14355883,2,0.0007243811,0.0005429071,0.002248579,-0.1961138,-0.08161568,-9.851322,0,0,39.28767,1,1,7766,3883
5557,14357915,2,0.0009715044,0.0004482115,0.001264634,-0.1982315,-0.07925785,-9.845027,0,0,39.28771,1,1,7766,3883
5560,14360989,2,0.0009930729999999999,0.000573153,0.001141199,-0.2001732,-0.07774079,-9.838782,0,0,39.28773,1,1,7766,3883
5591,14363341,2,0.001634131,0.0007550682,0.0005242921999999999,-0.2058219,-0.07795898,-9.825955,0,0,39.28783,1,1,7766,3883
5596,14366268,2,0.00115763,-0.0002624167,-0.0005382829,-0.2090545,-0.07839734,-9.821358,0,0,39.28789,1,1,7766,3883
5599,14368559,2,0.00124054,-0.002261259,-0.0003332136,-0.2129203,-0.07959202,-9.820435,0,0,39.28796,1,1,7766,3883
5602,14372068,2,0.001538831,-0.002441978,0.0005269398,-0.2145887,-0.08197532,-9.823639,0,0,39.28801,1,1,7766,3883
5605,14373875,2,0.001411528,-0.001492226,0.0004850102,-0.2151196,-0.08683115,-9.829575999999999,0,0,39.28806,1,1,7766,3883
5636,14376428,2,0.001024283,-0.001705104,-0.0006698692,-0.2124703,-0.08800611999999999,-9.833144000000001,0,0,39.28813,1,1,7766,3883
5640,14378999,2,0.0004064603,-0.001890963,-0.001615969,-0.2090611,-0.08684485,-9.832196,0,0,39.28815,1,1,7766,3883
5643,14381495,2,-0.0009291219,-0.002329869,-0.001290778,-0.2041571,-0.08398285,-9.830626000000001,0,0,39.28818,1,1,7766,3883
5646,14384990,2,-0.001073131,-0.002212565,-0.001380789,-0.2029318,-0.08326712999999999,-9.830652000000001,0,0,39.28819,1,1,7766,3883
5649,14389512,2,0.0003866613,-0.0003092442,-0.001092079,-0.1997008,-0.0772171,-9.828334,0,0,39.28815,1,1,7766,3883
5680,14391900,2,0.0002067785,0.0001947844,-0.0005235452,-0.1999583,-0.07614285,-9.826976,0,0,39.28814,1,1,7766,3883
5683,14394338,2,-0.0005741086,0.0002575706,3.595416e-05,-0.2008752,-0.07743814,-9.827337,0,0,39.28811,1,1,7766,3883
5686,14397422,2,-0.001216057,-3.971488e-05,-0.0001759959,-0.2029157,-0.08032468,-9.828011,0,0,39.28807,1,1,7766,3883
5689,14399960,2,-0.0005885118,-0.0003082963,-0.0005021013,-0.2038894,-0.08109088,-9.828531,0,0,39.28802,1,1,7766,3883
5720,14402261,2,0.000611376,0.0004085377,-0.0021865,-0.2009102,-0.07898102999999999,-9.833570999999999,0,0,39.28794,1,1,7766,3883
5724,14404918,2,-0.0003327975,0.001248877,-0.002566417,-0.1977209,-0.07637935999999999,-9.838063,0,0,39.28791,1,1,7766,3883
5727,14407519,2,-0.001760426,0.002347844,-0.002266823,-0.1943634,-0.07459728,-9.841924000000001,0,0,39.28788,1,1,7766,3883
5730,14410464,2,-0.001251254,0.002215627,-0.002128782,-0.1914183,-0.07454002,-9.846881,0,0,39.28786,1,1,7766,3883
5761,14413396,2,-0.0007949024,0.001896139,-0.00239826,-0.19101,-0.07775881,-9.849779,0,0,39.28786,1,1,7766,3883
5765,14415566,2,-0.001507333,0.002120818,-0.002446715,-0.1908471,-0.07982776,-9.852148,0,0,39.28788,1,1,7766,3883
5768,14418097,2,-0.001654082,0.001578727,-0.002672104,-0.1909511,-0.08050752,-9.854233000000001,0,0,39.2879,1,1,7766,3883
5773,14420950,2,-0.001222298,0.001166783,-0.002750902,-0.19026,-0.08068681,-9.856081,0,0,39.28798,1,1,7766,3883
5804,14423734,2,-0.001476659,0.0004076197,-0.002480997,-0.1905017,-0.07947012000000001,-9.856854,0,0,39.28806,1,1,7766,3883
5807,14426115,2,-0.001519755,0.0006445835,-0.002945362,-0.1912344,-0.07823626,-9.856541999999999,0,0,39.2881,1,1,7766,3883
5810,14428948,2,-0.001456006,0.00122526,-0.002991048,-0.1903221,-0.07954264,-9.854774000000001,0,0,39.28815,1,1,7766,3883
5813,14431029,2,-0.0009726956,0.001487699,-0.002843389,-0.1895946,-0.08137944,-9.854412,0,0,39.28819,1,1,7766,3883
5844,14433527,2,-0.0005081885,0.0007941364,-0.003030725,-0.1875871,-0.08295742,-9.857206,0,0,39.28823,1,1,7766,3883
5848,14436839,2,-0.0004254643,0.0002116345,-0.002943362,-0.1855436,-0.08386832,-9.861098999999999,0,0,39.28826,1,1,7766,3883
5851,14438455,2,-0.0006210342,-2.109021e-05,-0.002175085,-0.1843841,-0.08352939,-9.867272,0,0,39.28831,1,1,7766,3883
5858,14441254,2,-0.0008788956,0.0001033129,-0.0009205103,-0.1855547,-0.08323617,-9.870430000000001,0,0,39.28835,1,1,7766,3883
5889,14444060,2,-0.0007760058999999999,0.0003156782,8.821032999999999e-05,-0.1868942,-0.08170689,-9.873571,0,0,39.28842,1,1,7766,3883
5893,14445977,2,-0.0004897722,0.0007571599,-0.0008172454,-0.1888157,-0.0801753,-9.8727,0,0,39.28845,1,1,7766,3883
5896,14448913,2,-0.0004439065,0.0008330117,-0.001207683,-0.1911574,-0.07836092,-9.867578999999999,0,0,39.28849,1,1,7766,3883
5901,14451118,2,-0.001511884,0.0002546738,-0.0006576136999999999,-0.1935114,-0.07578398,-9.859946000000001,0,0,39.28855,1,1,7766,3883
5932,14454087,2,-0.0018345,-0.0002688,3.840955e-05,-0.1954259,-0.07342234,-9.84915,0,0,39.28859,1,1,7766,3883
5935,14456354,2,-0.001684231,-0.0003814252,0.0001737723,-0.1956473,-0.07322983,-9.846045,0,0,39.28861,1,1,7766,3883
5938,14458259,2,-0.001359827,-7.045684e-05,0.001243317,-0.194641,-0.07172486,-9.846484999999999,0,0,39.28865,1,1,7766,3883
5942,14461360,2,-0.0007844759,0.0008857943,0.0009960391,-0.1925268,-0.06993765,-9.848998999999999,0,0,39.28866,1,1,7766,3883
5973,14463529,2,-0.0006396509000000001,0.001783303,0.0004886573,-0.1878206,-0.06810557,-9.851549,0,0,39.28865,1,1,7766,3883
5977,14466315,2,-0.00125024,0.001949683,-0.0007842679,-0.1844175,-0.06794465,-9.850386,0,0,39.28864,1,1,7766,3883
5980,14468919,2,-0.0001617623,0.002231557,-0.001998385,-0.1800021,-0.07012744999999999,-9.846792000000001,0,0,39.28862,1,1,7766,3883
5983,14471687,2,0.0001385286,0.002326083,-0.00122232,-0.1783275,-0.07274849,-9.844768,0,0,39.28857,1,1,7766,3883
6014,14474503,2,-0.0005366315,0.001821729,0.0008794084,-0.1763633,-0.07805809,-9.841849,0,0,39.28851,1,1,7766,3883
6017,14476968,2,-0.001713115,0.0006881499,0.001837673,-0.1726975,-0.08354187,-9.842414,0,0,39.28844,1,1,7766,3883
6020,14479270,2,-0.002031755,0.000428479,0.002387032,-0.1697883,-0.08651238,-9.843957,0,0,39.2884,1,1,7766,3883
6023,14481574,2,-0.002298366,-0.0003722787,0.002282089,-0.1682587,-0.08807477,-9.845056,0,0,39.2883,1,1,7766,3883
6054,14484444,2,-0.002448994,-0.0005385142,0.002403636,-0.1674208,-0.08938633999999999,-9.846536,0,0,39.28825,1,1,7766,3883
6059,14489329,2,-0.003945349,-0.001489392,0.002662418,-0.1641886,-0.09109965,-9.847279,0,0,39.28805,1,1,7766,3883
6062,14491517,2,-0.003928786,-0.002347295,0.002231773,-0.1623319,-0.09027404,-9.847481999999999,0,0,39.28798,1,1,7766,3883
6093,14495529,2,-0.003454384,-0.002779596,0.001399325,-0.1610958,-0.08933453,-9.848333999999999,0,0,39.28791,1,1,7766,3883
6096,14497543,2,-0.001839497,-0.001436905,0.000871747,-0.1594052,-0.08767663000000001,-9.85162,0,0,39.28782,1,1,7766,3883
6100,14499954,2,-0.0008452724999999999,-0.0008805183,0.0008100793,-0.1611121,-0.08640137000000001,-9.858257,0,0,39.28772,1,1,7766,3883
6103,14502255,2,-0.0005524742,-0.0008366334,0.000668727,-0.163518,-0.08573732000000001,-9.861501000000001,0,0,39.28766,1,1,7766,3883
6134,14504443,2,-4.958535e-05,-0.001419419,0.001003103,-0.1690018,-0.082681,-9.863605,0,0,39.28752,1,1,7766,3883
6137,14507334,2,-0.0003881017,-0.001689122,0.001861597,-0.173417,-0.08004,-9.862409,0,0,39.28745,1,1,7766,3883
6140,14510319,2,-0.00206801,-0.0009912460000000001,0.002974191,-0.1797708,-0.07621656,-9.857901999999999,0,0,39.28736,1,1,7766,3883
6143,14512132,2,-0.002337239,-0.0004491159,0.002298708,-0.1813342,-0.07545619000000001,-9.856211,0,0,39.28731,1,1,7766,3883
6174,14514438,2,-0.00203229,3.622782e-05,0.001347852,-0.183922,-0.07572634,-9.852326,0,0,39.28724,1,1,7766,3883
6177,14517233,2,-0.002218675,0.0003688224,0.001336473,-0.1849962,-0.07758656,-9.852911000000001,0,0,39.2872,1,1,7766,3883
6181,14520218,2,-0.002577354,0.001119733,0.001588612,-0.1867153,-0.0815058,-9.856636,0,0,39.28712,1,1,7766,3883
6184,14522472,2,-0.003108683,0.0007608959999999999,0.001369902,-0.1876274,-0.08410159,-9.858131999999999,0,0,39.28709,1,1,7766,3883
6215,14525484,2,-0.002982355,-0.0006046579,0.0003881815,-0.1888999,-0.08628508,-9.861814000000001,0,0,39.28703,1,1,7766,3883
6218,14526945,2,-0.00245866,-0.001584696,-0.0001709121,-0.1888233,-0.087857,-9.863174000000001,0,0,39.287,1,1,7766,3883
6221,14529801,2,-0.00176776,-0.002943914,-0.0009888962,-0.186696,-0.08853253,-9.864623,0,0,39.28696,1,1,7766,3883
6224,14532504,2,-0.001250052,-0.002548837,-0.0009428792000000001,-0.1863043,-0.08735643,-9.865634,0,0,39.28692,1,1,7766,3883
6255,14535243,2,-0.0009907498,-0.001944841,-0.000464682,-0.1885482,-0.08518302,-9.862916999999999,0,0,39.28684,1,1,7766,3883
6258,14538123,2,1.083601e-05,-0.002492612,-0.0006881458,-0.1899977,-0.08252269,-9.856113000000001,0,0,39.28678,1,1,7766,3883
6262,14540284,2,0.000305406,-0.002472357,-0.001333536,-0.1908681,-0.08019403999999999,-9.853146000000001,0,0,39.28669,1,1,7766,3883
6269,14542674,2,0.0001089122,-0.001977481,-0.001544383,-0.192336,-0.07748462,-9.852078000000001,0,0,39.28659,1,1,7766,3883
6300,14545910,2,0.0001365844,-0.001496749,-0.000641253,-0.1926064,-0.07714888,-9.85225,0,0,39.28654,1,1,7766,3883
6303,14547535,2,0.0003971126,-0.00105055,0.000515411,-0.1927123,-0.07813505,-9.854478,0,0,39.28646,1,1,7766,3883
6306,14550573,2,0.000589166,-0.0007008467,0.0007863863,-0.1924325,-0.07979985000000001,-9.857142,0,0,39.28642,1,1,7766,3883
6309,14552337,2,0.0002642088,-0.0004667243,0.0007127647,-0.1913765,-0.08188204,-9.861617000000001,0,0,39.28633,1,1,7766,3883
6340,14555628,2,-0.0001762878,0.000433784,-0.0005035872,-0.1916985,-0.08318610999999999,-9.865977000000001,0,0,39.28628,1,1,7766,3883
6343,14557558,2,-0.0008593435,0.0008612352,-0.002390517,-0.1945587,-0.08590323,-9.873343,0,0,39.28622,1,1,7766,3883
6348,14560109,2,-0.001236324,0.0002781332,-0.002642296,-0.1971023,-0.08739748999999999,-9.876984999999999,0,0,39.28618,1,1,7766,3883
6351,14562917,2,-0.00105724,-0.0001783791,-0.003098802,-0.201912,-0.08799586,-9.877058,0,0,39.28612,1,1,7766,3883
6382,14565327,2,-0.0008942737,0.0002933461,-0.002076994,-0.2067986,-0.08706701999999999,-9.872508,0,0,39.28604,1,1,7766,3883
6385,14568264,2,-0.00191406,-0.0004349464,-0.002048478,-0.2089768,-0.08600461,-9.867972999999999,0,0,39.28599,1,1,7766,3883
6389,14570357,2,-0.001940805,-0.0008178547,-0.001938836,-0.2110994,-0.08427484,-9.864758999999999,0,0,39.28592,1,1,7766,3883
6392,14572511,2,-0.0005115502,-0.0003684321,-0.001303803,-0.213194,-0.08157929,-9.862686,0,0,39.28584,1,1,7766,3883
6423,14575376,2,0.0001965936,-0.0001540075,-0.0008304023,-0.2146485,-0.07851363,-9.861763,0,0,39.28578,1,1,7766,3883
6427,14577762,2,0.0002767105,0.0001307383,5.644118e-05,-0.2153514,-0.07339304000000001,-9.862375,0,0,39.28573,1,1,7766,3883
6430,14580361,2,6.600098000000001e-05,0.000195728,0.0001286107,-0.21559,-0.06887467,-9.862569000000001,0,0,39.28569,1,1,7766,3883
6433,14585120,2,-0.0002189231,0.0008513934,-0.000459607,-0.2096692,-0.06091385,-9.860484,0,0,39.28561,1,1,7766,3883
6464,14590899,2,0.00021996,0.001270781,0.001590035,-0.2060935,-0.05954988,-9.853662999999999,0,0,39.2855,1,1,7766,3883
6468,14593503,2,0.001074811,0.0009933354000000001,0.001166071,-0.2062109,-0.06105521,-9.853871,0,0,39.28544,1,1,7766,3883
