LineNo,TimeUS,I,GyrX,GyrY,GyrZ,AccX,AccY,AccZ,EG,EA,T,GH,AH,GHz,AHz
182,12924263,0,-0.002897464,-0.003958018,-0.003023824,-0.2783267,-0.01511082,-9.758346,0,0,44.73008,1,1,8006,4003
213,12927131,0,-0.002271315,-0.004572405,-0.003618106,-0.284325,-0.01762199,-9.750677,0,0,44.72999,1,1,8008,4003
289,12956538,0,0.0004524655,-0.0005475609,-0.002658791,-0.3057618,-0.0114002,-9.767144,0,0,44.72879,1,1,8008,4003
405,12985344,0,0.001031246,0.001282141,-0.0005819406,-0.2788582,-0.02899029,-9.745950000000001,0,0,44.72801,1,1,8008,4003
520,13013946,0,0.0008087254,0.0004896072,0.001906625,-0.2863891,-0.02203377,-9.739570000000001,0,0,44.72787,1,1,8008,4003
523,13015333,0,-6.135966e-05,0.0004354151,0.002206656,-0.2859215,-0.0206938,-9.739330000000001,0,0,44.72786,1,1,8008,4003
634,13035237,0,-0.001431268,-0.0002212709,0.002148853,-0.2630754,-0.03057237,-9.738441,0,0,44.72775,1,1,8008,4003
751,13057329,0,-0.001200587,-0.001776801,0.0004910977,-0.273516,-0.04166621,-9.754902,0,0,44.72775,1,1,8008,4003
863,13089340,0,-0.0007745373,0.001521987,-0.002381213,-0.2665769,-0.0224517,-9.750104,0,0,44.72855,1,1,8008,4003
978,13119334,0,0.0007603163999999999,0.0005930588,-0.002449458,-0.2455633,-0.01357822,-9.730836999999999,0,0,44.72973,1,1,8008,4003
1009,13121997,0,0.000665085,-5.152726e-05,-0.003313418,-0.2490433,-0.01074397,-9.731194,0,0,44.72992,1,1,8008,4003
1090,13167693,0,0.0002377056,-0.00211995,0.00176053,-0.2577178,-0.009953978,-9.747349,0,0,44.73245,1,1,8008,4003
1121,13170370,0,-0.0006492459,-0.00360533,0.001605963,-0.262933,-0.008955421,-9.743045,0,0,44.73255,1,1,8008,4003
1201,13249127,0,-0.002084777,0.0005620807,-0.002506306,-0.2816846,-0.0174346,-9.769173,0,0,44.74016,1,1,8008,4003
1297,13304111,0,0.001195384,-0.00151632,-0.001940261,-0.2672799,-0.01750434,-9.742573999999999,0,0,44.74734,1,1,8008,4003
1384,13318454,0,0.001810881,0.001718722,0.001477523,-0.2743388,-0.02370568,-9.75292,0,0,44.74901,1,1,8008,4003
1476,13334425,0,-0.0002634396,0.0006737557,0.0003234778,-0.2672926,-0.02851942,-9.771915,0,0,44.75085,1,1,8008,4003
1507,13336947,0,-0.0003044545,-0.0002709813,-0.0001232559,-0.2637157,-0.02581584,-9.772264,0,0,44.75113,1,1,8008,4003
1546,13340446,0,-0.0007016145,-0.0006707239,0.0005393373,-0.2622941,-0.02556579,-9.769269,0,0,44.75141,1,1,8008,4003
1549,13342544,0,-0.0007848628000000001,-7.842477999999999e-05,0.001379112,-0.2614593,-0.02749144,-9.767942,0,0,44.75161,1,1,8008,4003
1552,13345557,0,-0.0004236599,-0.001113357,0.001854983,-0.2580653,-0.03284445,-9.767357000000001,0,0,44.7519,1,1,8008,4003
1583,13347945,0,-0.0002788848,-0.001960527,0.001630506,-0.2563535,-0.03663019,-9.770580000000001,0,0,44.75219,1,1,8008,4003
1586,13350581,0,4.302729e-05,-0.001717425,0.0008096528,-0.2569585,-0.03718748,-9.774857000000001,0,0,44.75237,1,1,8008,4003
1590,13353455,0,-0.0006576214,-0.002082646,0.0007341699,-0.2592959,-0.03385683,-9.777041000000001,0,0,44.75266,1,1,8008,4003
1593,13355753,0,-0.001869249,-0.001563674,0.0009205203,-0.2608052,-0.03059272,-9.775046,0,0,44.75285,1,1,8008,4003
1624,13358477,0,-0.003135701,-0.0007487449,0.001579116,-0.2624131,-0.02656563,-9.768136999999999,0,0,44.75317,1,1,8008,4003
1627,13360750,0,-0.00366539,-0.0004886703,0.001539552,-0.2621545,-0.02559952,-9.764566,0,0,44.75339,1,1,8008,4003
1630,13363124,0,-0.003837428,-0.0002838249,0.00090158,-0.2625092,-0.02178567,-9.759988,0,0,44.75371,1,1,8008,4003
1633,13366015,0,-0.003561541,-0.000434727,0.0007100888000000001,-0.2636269,-0.01933858,-9.758037,0,0,44.75394,1,1,8008,4003
1664,13368247,0,-0.001656745,-0.0002362108,0.0004929386,-0.2656682,-0.01630166,-9.757781,0,0,44.7543,1,1,8008,4003
1667,13372298,0,0.0004489034,-4.305191e-05,0.0002516124,-0.2658532,-0.0120277,-9.758464,0,0,44.75463,1,1,8008,4003
1671,13373507,0,0.0007403054,-0.001310185,-4.662889e-05,-0.2653106,-0.009036611,-9.758368000000001,0,0,44.75498,1,1,8008,4003
1677,13377053,0,-8.947923e-05,-0.002285179,-4.371505e-05,-0.2643122,-0.007969412,-9.757147,0,0,44.75522,1,1,8008,4003
1708,13380716,0,-0.001038986,-0.0005438187,-4.68923e-05,-0.2610041,-0.008447397000000001,-9.751815000000001,0,0,44.75568,1,1,8008,4003
1711,13382891,0,-0.001139552,0.001374242,3.562514e-05,-0.258379,-0.009109045,-9.746218000000001,0,0,44.75603,1,1,8008,4003
1715,13384475,0,-0.00176188,0.001959763,-0.0003212497,-0.2588531,-0.009912993,-9.745620000000001,0,0,44.75626,1,1,8008,4003
1718,13386987,0,-0.003074551,0.001037819,-1.968825e-05,-0.2624678,-0.01452171,-9.748548,0,0,44.75659,1,1,8008,4003
1749,13389488,0,-0.004040136,0.0004838912,0.0003738781,-0.2646106,-0.01827367,-9.752217,0,0,44.75681,1,1,8008,4003
1752,13392250,0,-0.003316646,0.0006499253,1.814358e-05,-0.2662704,-0.02129216,-9.760028,0,0,44.75713,1,1,8008,4003
1755,13394982,0,-0.002498906,0.0001295886,-0.0002498558,-0.2677,-0.02203813,-9.764571,0,0,44.75743,1,1,8008,4003
1758,13397892,0,-0.002138268,5.552053e-05,-0.0003613638,-0.2682491,-0.02072557,-9.767842999999999,0,0,44.75776,1,1,8008,4003
1789,13400313,0,-0.0008020644,-0.0006410838,-0.000394157,-0.2671424,-0.01748015,-9.767595999999999,0,0,44.75801,1,1,8008,4003
1792,13402568,0,0.0001373484,-0.002352091,-0.0007447279999999999,-0.2635712,-0.0144343,-9.765686000000001,0,0,44.75826,1,1,8008,4003
1798,13405774,0,0.0004763461,-0.003017104,-0.0007328702,-0.2617263,-0.01197101,-9.763481000000001,0,0,44.75842,1,1,8008,4003
1801,13407907,0,-8.089736999999999e-05,-0.002418948,-0.0007441535,-0.2591112,-0.008508692,-9.761639000000001,0,0,44.75871,1,1,8008,4003
1832,13410366,0,-0.0009631845,-0.002142081,-0.0010171,-0.2583104,-0.007619708,-9.760327999999999,0,0,44.75885,1,1,8008,4003
1839,13413478,0,-0.001824535,-0.001920439,-0.0006839936999999999,-0.2581786,-0.009052269,-9.755243,0,0,44.75905,1,1,8008,4003
1842,13415585,0,-0.001813495,-0.001166112,-0.0006030019,-0.2581535,-0.009914439000000001,-9.752369,0,0,44.75925,1,1,8008,4003
1845,13418341,0,-0.002005318,-0.002048718,-0.0005606681,-0.2598145,-0.01205275,-9.749649,0,0,44.75959,1,1,8008,4003
1876,13420969,0,-0.001840914,-0.001617992,-0.001225922,-0.2631292,-0.01512647,-9.748847,0,0,44.7599,1,1,8008,4003
1879,13423453,0,-0.0007949722,-0.001245995,-0.001441286,-0.264125,-0.01641431,-9.750401,0,0,44.76004,1,1,8008,4003
1883,13426090,0,0.0008753894,-0.002521227,-0.001430064,-0.2658385,-0.018526,-9.752039,0,0,44.76024,1,1,8008,4003
1886,13429079,0,0.001191046,-0.003591738,-0.001482645,-0.2677942,-0.02095621,-9.752286,0,0,44.76038,1,1,8008,4003
1917,13432032,0,0.0001960156,-0.004349472,-0.0009856185999999999,-0.2720025,-0.02502991,-9.755086,0,0,44.7606,1,1,8008,4003
1920,13434103,0,-0.0004529547,-0.003654805,-0.00146727,-0.2736883,-0.02449801,-9.759491000000001,0,0,44.76081,1,1,8008,4003
1923,13436974,0,-0.0002086253,-0.003665985,-0.001644343,-0.2731293,-0.02315284,-9.762029,0,0,44.76095,1,1,8008,4003
1926,13439626,0,-0.0008313205,-0.00329581,-0.0009191418,-0.2731495,-0.02180067,-9.765412,0,0,44.76116,1,1,8008,4003
1957,13442344,0,-0.000769902,-0.002630225,0.0006033659,-0.2752601,-0.01994515,-9.768093,0,0,44.76136,1,1,8008,4003
1960,13444376,0,-0.0001116863,-0.002345052,0.00109084,-0.2769638,-0.01636121,-9.768996,0,0,44.7615,1,1,8008,4003
1964,13446955,0,0.00207717,-0.001603058,0.000419215,-0.2775582,-0.01136098,-9.768865999999999,0,0,44.76173,1,1,8008,4003
1967,13449564,0,0.003257135,-0.001656893,0.0004679955,-0.2776518,-0.01010955,-9.767343,0,0,44.76189,1,1,8008,4003
1998,13452441,0,0.00295351,-0.002046858,0.0004053468,-0.2797072,-0.008518635,-9.761976000000001,0,0,44.76214,1,1,8008,4003
2003,13457932,0,0.001774387,-0.0006435472999999999,0.0002146938,-0.2860711,-0.004653122,-9.759857,0,0,44.76256,1,1,8008,4003
2006,13460252,0,0.00292007,-0.0007967763,-0.001180396,-0.2877646,-0.006481968,-9.754376000000001,0,0,44.76281,1,1,8008,4003
2037,13463734,0,0.001792948,-0.0006384081,-0.0007274639,-0.2877758,-0.00793164,-9.750406,0,0,44.76298,1,1,8008,4003
2040,13465879,0,0.000246415,-0.001172447,0.0003260551,-0.2867443,-0.01127417,-9.744923,0,0,44.76323,1,1,8008,4003
2043,13467778,0,0.0007092112999999999,-0.0009956073,0.002128606,-0.2860176,-0.01499509,-9.742838000000001,0,0,44.76348,1,1,8008,4003
2047,13470471,0,0.00046236,-0.000435843,0.002953659,-0.2858927,-0.01638847,-9.744119,0,0,44.76365,1,1,8008,4003
2078,13472743,0,0.0002853937,-0.0009840916999999999,0.002255801,-0.2841853,-0.01721279,-9.747877000000001,0,0,44.76402,1,1,8008,4003
2081,13475428,0,0.0002591678,-0.001707018,0.001663412,-0.282264,-0.01727905,-9.751015000000001,0,0,44.76421,1,1,8008,4003
2084,13478315,0,0.0003611628,-0.001641057,0.0006897839,-0.2816172,-0.01606299,-9.753731,0,0,44.76459,1,1,8008,4003
2088,13480874,0,0.0003802974,-0.0005847081,0.0001855268,-0.2817469,-0.01364691,-9.754711,0,0,44.76477,1,1,8008,4003
2119,13483942,0,0.0001826236,0.00108026,-0.0001155809,-0.2813784,-0.009330478999999999,-9.756608999999999,0,0,44.76513,1,1,8008,4003
2122,13486011,0,-0.000352061,0.002472595,0.0005590319,-0.2794963,-0.007692578,-9.75719,0,0,44.76527,1,1,8008,4003
2125,13488286,0,-0.0001529789,0.003030071,0.001347484,-0.2757371,-0.009311298000000001,-9.756019,0,0,44.76553,1,1,8008,4003
2128,13491315,0,0.0004244341,0.002526241,0.001743867,-0.2748433,-0.01145968,-9.755058999999999,0,0,44.76572,1,1,8008,4003
2159,13493462,0,0.0004097934,0.001819015,0.001557693,-0.2746505,-0.01368918,-9.752307,0,0,44.7659,1,1,8008,4003
2162,13496734,0,0.0005625211,0.001970265,0.001159382,-0.2761568,-0.0152219,-9.748206,0,0,44.76609,1,1,8008,4003
2165,13498854,0,0.0008687277,0.002588025,0.0008510074,-0.2781928,-0.01600993,-9.743793,0,0,44.76632,1,1,8008,4003
2170,13501551,0,0.0007508324,0.002049788,0.001048752,-0.2827483,-0.01844767,-9.735455999999999,0,0,44.76651,1,1,8008,4003
2201,13503973,0,0.0002107901,0.0003002304,0.001003865,-0.2874396,-0.02035222,-9.733931999999999,0,0,44.76671,1,1,8008,4003
2204,13506559,0,0.0002274856,-0.0004341837,0.0007103083,-0.2899378,-0.02108232,-9.73573,0,0,44.76683,1,1,8008,4003
2207,13509729,0,0.001082517,-0.0007655191999999999,-0.0005424318,-0.2925837,-0.02147481,-9.739144,0,0,44.76703,1,1,8008,4003
2211,13511331,0,0.002124412,-0.000536273,-0.0006355547,-0.291958,-0.02214774,-9.740187000000001,0,0,44.76715,1,1,8008,4003
2242,13514350,0,0.002796282,0.0009469378,0.000865826,-0.2880688,-0.02424454,-9.741557,0,0,44.76735,1,1,8008,4003
2250,13516923,0,0.002134084,0.001970443,0.001196462,-0.2852187,-0.02592154,-9.74273,0,0,44.76749,1,1,8008,4003
2253,13519903,0,0.001209575,0.001955739,0.001294117,-0.2813252,-0.02788491,-9.746274,0,0,44.76768,1,1,8008,4003
2256,13521309,0,0.000453531,0.001662028,0.001431226,-0.2808876,-0.02830954,-9.748158999999999,0,0,44.76788,1,1,8008,4003
2287,13524127,0,-0.001012911,0.00217589,0.001235064,-0.2815336,-0.02974214,-9.75061,0,0,44.76807,1,1,8008,4003
2290,13527202,0,-0.001489748,0.002559639,0.001188023,-0.2809595,-0.02942774,-9.753284000000001,0,0,44.76817,1,1,8008,4003
2293,13529256,0,-0.001497833,0.002382688,2.094892e-05,-0.279258,-0.02913914,-9.756182000000001,0,0,44.76838,1,1,8008,4003
2297,13532127,0,-0.001364794,0.001667736,-0.00128429,-0.2779097,-0.02937281,-9.757785,0,0,44.76851,1,1,8008,4003
2328,13534599,0,-0.001120698,0.0002211216,-0.001731573,-0.2740828,-0.03061792,-9.758851999999999,0,0,44.76863,1,1,8008,4003
2331,13537559,0,-0.0003026797,-0.0002468637,-0.0008003524,-0.2681387,-0.03224785,-9.756708,0,0,44.76874,1,1,8008,4003
2334,13539927,0,-0.0004483825,0.0004907008,-0.0004238119,-0.2648393,-0.03351171,-9.75609,0,0,44.76881,1,1,8008,4003
2337,13542224,0,-0.001423417,0.0001119668,-0.001014662,-0.2621386,-0.0362447,-9.75506,0,0,44.76891,1,1,8008,4003
2368,13544996,0,-0.001802095,-0.001553854,-0.001402969,-0.2615308,-0.03640372,-9.755445,0,0,44.76898,1,1,8008,4003
2371,13547228,0,-0.002106795,-0.002438475,-0.001681015,-0.2625526,-0.03400064,-9.757614999999999,0,0,44.76908,1,1,8008,4003
2374,13550951,0,-0.002398607,-0.001394526,-0.001496242,-0.2643638,-0.03235241,-9.760206,0,0,44.76915,1,1,8008,4003
2377,13552163,0,-0.002104911,-0.001300779,-2.37092e-05,-0.2659007,-0.02963319,-9.764495,0,0,44.76927,1,1,8008,4003
2409,13555013,0,-0.0008479053,-0.001548228,5.367179e-06,-0.2672547,-0.02713622,-9.766783999999999,0,0,44.76944,1,1,8008,4003
2412,13557455,0,-0.0003672336,-0.00152212,-0.0003374315,-0.268416,-0.02601591,-9.767222,0,0,44.76956,1,1,8008,4003
2415,13560934,0,-0.0004638534,-0.002100163,-0.0001818393,-0.2695053,-0.02431275,-9.766295,0,0,44.76974,1,1,8008,4003
2418,13563603,0,-0.001084431,-0.001957485,-1.40142e-05,-0.2696575,-0.02300698,-9.766973999999999,0,0,44.76982,1,1,8008,4003
2421,13565210,0,-0.0009976850999999999,-0.001999566,-0.0003650303,-0.2684869,-0.02042022,-9.770391999999999,0,0,44.76994,1,1,8008,4003
2452,13567506,0,-0.0001833859,-0.002875224,-3.939578e-05,-0.2688296,-0.01920625,-9.772197999999999,0,0,44.77006,1,1,8008,4003
2455,13570437,0,-0.0001945351,-0.002489321,-0.0002489589,-0.2687533,-0.01951834,-9.771305999999999,0,0,44.77014,1,1,8008,4003
2458,13573239,0,0.0007445842,-0.001778054,9.485139e-05,-0.2688748,-0.02058933,-9.767673,0,0,44.77029,1,1,8008,4003
2462,13576287,0,0.0009320801,-0.001399493,2.671106e-05,-0.2691719,-0.02120079,-9.76482,0,0,44.77039,1,1,8008,4003
2465,13577846,0,0.0007990719,-0.001298495,-2.293351e-05,-0.2704974,-0.02103421,-9.758879,0,0,44.77055,1,1,8008,4003
2496,13580363,0,0.0002064783,-0.001406462,-8.813283999999999e-05,-0.2708476,-0.0214893,-9.755139,0,0,44.77068,1,1,8008,4003
2499,13582727,0,-0.0006325907,-0.001634178,-0.0004359167,-0.2695376,-0.02136837,-9.752413000000001,0,0,44.77077,1,1,8008,4003
2503,13585967,0,-0.0008176962,-0.001399983,-0.000348381,-0.2679638,-0.02110914,-9.750522999999999,0,0,44.77081,1,1,8008,4003
2506,13588336,0,-0.00040439,-0.0007083199,-0.0004101985,-0.2659272,-0.02011543,-9.746071000000001,0,0,44.77085,1,1,8008,4003
2537,13590860,0,-0.0006053602,-0.0004519712,-0.001339901,-0.2629555,-0.01894855,-9.744092,0,0,44.7709,1,1,8008,4003
2540,13593312,0,-0.0006759983,-0.0001503987,-0.001766436,-0.2629039,-0.0180603,-9.744675000000001,0,0,44.77094,1,1,8008,4003
2543,13597008,0,-0.000294305,-0.0005611262,-0.00143689,-0.2623871,-0.01673301,-9.747472,0,0,44.771,1,1,8008,4003
2546,13598760,0,0.0004683303,-0.0005898539,-0.001390728,-0.2613282,-0.01523229,-9.750852999999999,0,0,44.77103,1,1,8008,4003
2577,13601340,0,0.001589822,8.50331e-05,-0.001138567,-0.2605187,-0.01194688,-9.754106,0,0,44.7711,1,1,8008,4003
2582,13603982,0,0.000958801,0.0004925672,-0.0003268784,-0.2610013,-0.01117401,-9.752755000000001,0,0,44.77115,1,1,8008,4003
2586,13606328,0,0.0002681123,0.0004337689,-0.0006483254,-0.2615894,-0.01207847,-9.749371999999999,0,0,44.77119,1,1,8008,4003
2589,13609717,0,-0.0004829299,0.0005033129,-0.001003886,-0.2624836,-0.01644842,-9.742319,0,0,44.77127,1,1,8008,4003
2620,13612362,0,-0.0005289994,-0.0002323614,-0.001468564,-0.2644424,-0.02062502,-9.738208999999999,0,0,44.77133,1,1,8008,4003
2623,13614444,0,-0.0004199888,-0.0004844138,-0.001414706,-0.2657844,-0.02203926,-9.736371,0,0,44.77135,1,1,8008,4003
2626,13617277,0,-0.001079848,-0.000345742,-0.001235432,-0.2660119,-0.02407195,-9.738076,0,0,44.77138,1,1,8008,4003
2634,13620128,0,-0.001870648,-5.081277e-05,-0.001036762,-0.2653297,-0.02388241,-9.739461,0,0,44.77141,1,1,8008,4003
2665,13622923,0,-0.001991147,0.0002960079,-5.02086e-05,-0.26589,-0.01918653,-9.739141,0,0,44.7715,1,1,8008,4003
2668,13625498,0,-0.002178609,0.001032033,-8.673943e-05,-0.266969,-0.01230536,-9.738296,0,0,44.77161,1,1,8008,4003
2672,13627513,0,-0.001154865,0.0008227684,-0.000136938,-0.2680213,-0.009338318999999999,-9.738984,0,0,44.7717,1,1,8008,4003
2675,13630333,0,0.0009488579,-0.0006123692,-0.0008318786,-0.2693143,-0.007679665,-9.741319000000001,0,0,44.77184,1,1,8008,4003
2706,13632490,0,0.0009664234,-0.001107921,-0.001917392,-0.2692745,-0.006929277,-9.744458,0,0,44.77195,1,1,8008,4003
2709,13635441,0,0.001090132,-3.781056e-05,-0.002012003,-0.2670161,-0.006786086,-9.749907,0,0,44.77205,1,1,8008,4003
2712,13638260,0,0.001805344,0.0006819873,-0.002367281,-0.2652428,-0.00789112,-9.751149,0,0,44.77212,1,1,8008,4003
2715,13640521,0,0.001557468,0.001017281,-0.001737653,-0.2643052,-0.0122459,-9.749129999999999,0,0,44.77227,1,1,8008,4003
2746,13642994,0,0.001427944,0.001125409,-0.0008963246,-0.2631727,-0.01796421,-9.747643,0,0,44.77245,1,1,8008,4003
2749,13645766,0,0.001184495,0.001136353,-0.0004996677,-0.2616004,-0.02232961,-9.748747,0,0,44.77253,1,1,8008,4003
2753,13648471,0,0.001220961,-4.931771e-05,5.291135e-06,-0.2586173,-0.02681302,-9.752006,0,0,44.7727,1,1,8008,4003
2756,13651047,0,0.00129572,-0.0005676941,-0.0001369638,-0.2560129,-0.02881714,-9.753987,0,0,44.77289,1,1,8008,4003
2787,13653295,0,0.0009492707,-0.0007040849,-0.0008360554,-0.2522162,-0.03282173,-9.758084999999999,0,0,44.77306,1,1,8008,4003
2790,13656248,0,-0.000576214,-0.0007956136,0.0003074837,-0.2473822,-0.03701369,-9.764222999999999,0,0,44.77319,1,1,8008,4003
2794,13658333,0,-0.002088159,-0.001032937,0.0009079881,-0.2453184,-0.0380112,-9.768146,0,0,44.77332,1,1,8008,4003
2799,13667119,0,-0.003245494,-0.001613958,0.001685002,-0.2486552,-0.03483379,-9.769617,0,0,44.77374,1,1,8008,4003
2830,13669739,0,-0.003224871,-0.001663131,0.001365638,-0.2507634,-0.03314682,-9.77134,0,0,44.77385,1,1,8008,4003
2833,13672453,0,-0.003081141,-0.001453308,0.002044117,-0.2539999,-0.03080103,-9.773286000000001,0,0,44.77404,1,1,8008,4003
2836,13675121,0,-0.002165341,-0.001541389,0.001955467,-0.2557108,-0.02922996,-9.772760999999999,0,0,44.77415,1,1,8008,4003
2839,13677263,0,-0.0006297588,-0.001615109,0.001652225,-0.2573475,-0.02658534,-9.77097,0,0,44.77428,1,1,8008,4003
2870,13679728,0,-0.0006003408,-0.002104616,0.001243473,-0.2597986,-0.02425646,-9.768087,0,0,44.77437,1,1,8008,4003
2875,13682243,0,-0.001181316,-0.002046559,0.0005466633,-0.2646714,-0.02077836,-9.760109,0,0,44.7745,1,1,8008,4003
2878,13685014,0,-0.001047708,-0.001699425,0.0003683275,-0.2669342,-0.01892466,-9.752737,0,0,44.77459,1,1,8008,4003
2881,13687537,0,6.667001e-05,-0.0007767867,0.0006109554,-0.2694131,-0.01564885,-9.742079,0,0,44.77472,1,1,8008,4003
2912,13690341,0,-0.0004466983,-0.0004418089,0.001811515,-0.2716768,-0.01302733,-9.735442000000001,0,0,44.77487,1,1,8008,4003
2915,13692582,0,-0.001039286,-0.0007162194,0.002331527,-0.2735716,-0.01208448,-9.731133,0,0,44.77499,1,1,8008,4003
2918,13695442,0,-0.0019756,-0.001615455,0.001072505,-0.277953,-0.01047308,-9.727785000000001,0,0,44.77515,1,1,8008,4003
2921,13697499,0,-0.001687347,-0.001411559,0.0004130844,-0.2808762,-0.009473601999999999,-9.727871,0,0,44.77523,1,1,8008,4003
2952,13700484,0,-0.0009501128,-0.0006993438,-0.000299068,-0.2846958,-0.01039133,-9.732276000000001,0,0,44.77533,1,1,8008,4003
2956,13702308,0,-0.0008096545,-0.0003390477,-0.0006980012,-0.2858079,-0.01401867,-9.736108,0,0,44.77538,1,1,8008,4003
2959,13705250,0,-0.001195851,-9.176262e-05,-0.0008656449,-0.2869915,-0.018734,-9.743747000000001,0,0,44.77547,1,1,8008,4003
2962,13708253,0,-0.001657717,-0.0001057479,-0.0005929864,-0.2869238,-0.01934818,-9.749064000000001,0,0,44.77553,1,1,8008,4003
2993,13710506,0,-0.001481444,-0.0008882168,0.0002543706,-0.2851775,-0.01798338,-9.756524000000001,0,0,44.77562,1,1,8008,4003
2998,13713348,0,-0.0003193751,-0.001471682,-0.0003893289,-0.283003,-0.01834098,-9.757814,0,0,44.77571,1,1,8008,4003
3001,13715532,0,-0.0003050252,-0.001770106,-9.838416e-05,-0.2818305,-0.01906198,-9.756755,0,0,44.77577,1,1,8008,4003
3004,13718493,0,-0.001073442,-0.001882038,0.000477747,-0.2783381,-0.02097546,-9.75224,0,0,44.77586,1,1,8008,4003
3035,13720874,0,-0.0004380071,-0.001472662,1.85553e-05,-0.2742285,-0.02156834,-9.745692999999999,0,0,44.77597,1,1,8008,4003
3042,13723879,0,-0.000447864,-0.0006530384,-0.001618065,-0.2722008,-0.02098421,-9.74227,0,0,44.77607,1,1,8008,4003
3045,13726352,0,-0.0007161115999999999,-0.0004767806,-0.002582127,-0.2711084,-0.01986312,-9.736694999999999,0,0,44.77624,1,1,8008,4003
3049,13729281,0,-0.001063263,-0.0009964815,-0.002215001,-0.2714501,-0.01875098,-9.734431000000001,0,0,44.77634,1,1,8008,4003
3080,13732220,0,-0.001504491,-0.001695379,-0.001636445,-0.2742517,-0.01739339,-9.733415000000001,0,0,44.77649,1,1,8008,4003
3084,13734244,0,-0.0009848902000000001,-0.002019288,-0.00221153,-0.279245,-0.0131887,-9.734016,0,0,44.77664,1,1,8008,4003
3087,13736894,0,-9.795165e-05,-0.001977083,-0.002355977,-0.281965,-0.009384919,-9.736758,0,0,44.77679,1,1,8008,4003
3090,13739112,0,-3.677639e-05,-0.002575601,-0.003199219,-0.2856808,-0.00631887,-9.742374999999999,0,0,44.77693,1,1,8008,4003
3121,13742286,0,-0.001891555,-0.002382628,-0.002364674,-0.2877842,-0.005090203,-9.747705,0,0,44.7771,1,1,8008,4003
3124,13744331,0,-0.002077691,-0.001965827,-0.002240097,-0.2881211,-0.00431575,-9.750107,0,0,44.77721,1,1,8008,4003
3127,13747099,0,-0.00223581,-0.001346452,-0.00232313,-0.2874124,-0.003575539,-9.751403,0,0,44.77733,1,1,8008,4003
3130,13749536,0,-0.001563819,-0.0012656,-0.002061251,-0.2853981,-0.002675966,-9.752549,0,0,44.77751,1,1,8008,4003
3161,13751872,0,-0.0007382124000000001,-0.001437661,-0.001504261,-0.2846715,-0.003093514,-9.752034999999999,0,0,44.77773,1,1,8008,4003
3165,13755486,0,0.0001651303,-0.001405313,-0.002106588,-0.2832703,-0.003200616,-9.752018,0,0,44.77789,1,1,8008,4003
3168,13756938,0,0.0004072078,-0.001553574,-0.001950433,-0.2791258,-0.003115961,-9.752062,0,0,44.77805,1,1,8008,4003
3171,13759861,0,0.0005207351,-0.001405902,-0.002116024,-0.2770588,-0.002515285,-9.752635,0,0,44.77823,1,1,8008,4003
3202,13762206,0,0.001172586,-0.0005479372,-0.003275004,-0.2775357,-0.002902301,-9.755716,0,0,44.77843,1,1,8008,4003
3205,13765837,0,0.001270321,0.0004573183,-0.002994187,-0.2800829,-0.005912808,-9.758361000000001,0,0,44.77854,1,1,8008,4003
3208,13767116,0,0.00131224,0.0003523181,-0.002157535,-0.2810769,-0.008176146,-9.761243,0,0,44.77856,1,1,8008,4003
3211,13772907,0,0.001513701,0.001527455,-0.001171643,-0.2863117,-0.01754061,-9.766832000000001,0,0,44.77857,1,1,8008,4003
3243,13775291,0,0.00152855,0.002022587,-0.001818224,-0.2883796,-0.0216104,-9.766885,0,0,44.77851,1,1,8008,4003
3246,13778356,0,0.0012589,0.001768899,-0.001816071,-0.28749,-0.02282667,-9.766394,0,0,44.77844,1,1,8008,4003
3249,13780273,0,-2.736543e-05,0.001444149,-0.001312257,-0.2844938,-0.02432653,-9.762568,0,0,44.77832,1,1,8008,4003
3252,13782990,0,-0.0005124625,0.00113944,-0.001174701,-0.2826734,-0.02571818,-9.760001000000001,0,0,44.77826,1,1,8008,4003
3285,13785432,0,0.0004349243,0.001233546,0.0001453403,-0.2812867,-0.02448833,-9.757626,0,0,44.7782,1,1,8008,4003
3289,13788512,0,0.001649642,0.001267405,-0.0006914181,-0.2804192,-0.02179366,-9.752437,0,0,44.77818,1,1,8008,4003
3292,13790761,0,0.00189703,0.0005294011,-0.001495404,-0.2793824,-0.02036862,-9.749701,0,0,44.77818,1,1,8008,4003
3295,13793320,0,0.000365167,-0.0001078945,-0.002000416,-0.2776132,-0.01829927,-9.746865,0,0,44.77821,1,1,8008,4003
3326,13796484,0,-0.0002759843,-0.0006435271,-0.002172348,-0.2764075,-0.01685879,-9.745115999999999,0,0,44.77824,1,1,8008,4003
3329,13798366,0,0.0008082148,-2.505728e-05,-0.001519791,-0.2730407,-0.01490432,-9.742068,0,0,44.7783,1,1,8008,4003
3332,13801114,0,0.00198039,0.0003450176,-0.0004441219,-0.2723918,-0.01450382,-9.739461,0,0,44.77835,1,1,8008,4003
3335,13802921,0,0.001870469,-0.0002102236,0.0002430672,-0.272617,-0.01304109,-9.735827,0,0,44.77846,1,1,8008,4003
3366,13805473,0,0.0001846421,-0.0009438098,0.0001398339,-0.2734038,-0.0126009,-9.733506999999999,0,0,44.77851,1,1,8008,4003
3370,13808431,0,-0.001578699,-0.001030401,-0.0008748294,-0.2731469,-0.01321623,-9.731101000000001,0,0,44.77857,1,1,8008,4003
3374,13810536,0,-0.001344745,0.0004615823,-0.0008987937,-0.2718585,-0.01498875,-9.732163,0,0,44.7786,1,1,8008,4003
3377,13813477,0,-0.002046495,0.001528391,-0.0002196107,-0.2690367,-0.01934532,-9.736293,0,0,44.77863,1,1,8008,4003
3408,13815869,0,-0.001555163,0.002059958,9.883539e-05,-0.2664378,-0.0235185,-9.739831000000001,0,0,44.77866,1,1,8008,4003
3411,13818427,0,-0.001694787,0.002132989,-0.0003630013,-0.2668324,-0.02551574,-9.742089999999999,0,0,44.77868,1,1,8008,4003
3414,13821075,0,-0.001875531,0.002479397,-0.0006919036,-0.2672645,-0.02607331,-9.74633,0,0,44.77871,1,1,8008,4003
3418,13822888,0,-0.001540554,0.002581287,-0.0006998709,-0.2662696,-0.02608083,-9.747596,0,0,44.77874,1,1,8008,4003
3453,13826260,0,-0.001447762,0.001140545,-0.0001310481,-0.2643366,-0.02625523,-9.747112,0,0,44.77877,1,1,8008,4003
3457,13828131,0,-0.00183341,-0.0001057982,0.000518792,-0.2623803,-0.02535599,-9.743919,0,0,44.77883,1,1,8008,4003
3460,13830566,0,-0.001205027,0.0003220254,0.001124206,-0.2625523,-0.02423527,-9.742761,0,0,44.77887,1,1,8008,4003
3463,13833464,0,-0.0004820176,0.0006418048,0.002674457,-0.263543,-0.02381135,-9.743002000000001,0,0,44.77892,1,1,8008,4003
3494,13836281,0,-0.001507119,0.0006078314,0.00156299,-0.2638968,-0.02395423,-9.743199000000001,0,0,44.77898,1,1,8008,4003
3498,13838272,0,-0.001893644,0.0002869124,0.0008938389,-0.2630526,-0.02283404,-9.742607,0,0,44.77902,1,1,8008,4003
3501,13840884,0,-0.001767463,0.0005021777,0.001176203,-0.2632208,-0.02074401,-9.740783,0,0,44.77906,1,1,8008,4003
3505,13843572,0,-0.001290667,0.0009633187,0.001574288,-0.266075,-0.01751308,-9.736689999999999,0,0,44.77912,1,1,8008,4003
3536,13846120,0,-0.0008048618,0.001334138,0.001763481,-0.2671664,-0.01518508,-9.734071999999999,0,0,44.77922,1,1,8008,4003
3539,13849238,0,-0.0002534908,0.001281765,0.002253668,-0.2661904,-0.01431604,-9.735009,0,0,44.77928,1,1,8008,4003
3542,13851306,0,0.0001310648,0.001594317,0.001828186,-0.2641177,-0.01634583,-9.739464,0,0,44.77937,1,1,8008,4003
3547,13853860,0,-0.0001674395,0.001248081,0.001756523,-0.2628886,-0.01944328,-9.740945999999999,0,0,44.77945,1,1,8008,4003
3578,13856562,0,-0.001268858,0.0003772459,0.0008783628,-0.2635318,-0.02316247,-9.740914,0,0,44.77952,1,1,8008,4003
3582,13858426,0,-0.001300292,0.0001833095,-0.0005324582,-0.2646675,-0.02423685,-9.741804,0,0,44.77956,1,1,8008,4003
3585,13862212,0,-0.0003363089,7.532399e-05,-0.002154293,-0.2657754,-0.02348087,-9.744631,0,0,44.77959,1,1,8008,4003
3588,13863756,0,-4.702789e-05,-0.001396847,-0.002717869,-0.2673184,-0.02190309,-9.745412,0,0,44.77958,1,1,8008,4003
3619,13866326,0,-0.0002282869,-0.002862245,-0.001478568,-0.2670323,-0.01884428,-9.744415,0,0,44.77953,1,1,8008,4003
3622,13871110,0,-0.000481157,-0.003410802,0.0004797856,-0.264423,-0.007709091,-9.744522,0,0,44.77945,1,1,8008,4003
3625,13874537,0,0.000760071,-0.003257244,0.0007437756,-0.2617951,-0.004221285,-9.741612999999999,0,0,44.77941,1,1,8008,4003
3628,13876372,0,0.001533868,-0.003232814,0.0001482591,-0.2595624,-0.001545293,-9.738189999999999,0,0,44.77938,1,1,8008,4003
3659,13878749,0,0.001785825,-0.002433279,-0.001169722,-0.2608677,-0.002821851,-9.738780999999999,0,0,44.77932,1,1,8008,4003
3662,13881759,0,0.001258829,-0.002019004,-0.001424237,-0.261947,-0.003912069,-9.738688,0,0,44.77929,1,1,8008,4003
3665,13884094,0,0.001638269,-0.001942812,-0.001170241,-0.2634883,-0.005951097,-9.736938,0,0,44.77928,1,1,8008,4003
3668,13886482,0,0.002439245,-0.002063642,-0.00126737,-0.2656387,-0.009635127,-9.736516999999999,0,0,44.77932,1,1,8008,4003
3700,13889494,0,0.002537705,-0.001278655,-0.001552439,-0.2689153,-0.01670773,-9.737408,0,0,44.77939,1,1,8008,4003
3703,13891534,0,0.00220966,-0.0004654152,-0.001957871,-0.2697079,-0.02049715,-9.737214,0,0,44.77944,1,1,8008,4003
3706,13894301,0,0.001101911,0.0001644331,-0.001926357,-0.2707764,-0.02289764,-9.736171000000001,0,0,44.77955,1,1,8008,4003
3709,13896513,0,0.000896194,0.0004872636,-0.002050572,-0.2713349,-0.02313757,-9.737113000000001,0,0,44.7796,1,1,8008,4003
3740,13898984,0,0.001141041,0.0007142337,-0.00276801,-0.2688717,-0.02297108,-9.739477000000001,0,0,44.77964,1,1,8008,4003
3743,13901942,0,0.0005207500000000001,0.0002831435,-0.003447809,-0.2670684,-0.02275896,-9.738821,0,0,44.77965,1,1,8008,4003
3746,13903956,0,-0.0005861694,0.000418988,-0.003777172,-0.2647633,-0.02149482,-9.734166,0,0,44.77965,1,1,8008,4003
3749,13906297,0,-0.0007255673,0.0008961723,-0.003907799,-0.2628175,-0.01981289,-9.729507999999999,0,0,44.77963,1,1,8008,4003
3781,13909102,0,0.0001329807,2.551115e-05,-0.004496112,-0.2599412,-0.01488503,-9.726099,0,0,44.77957,1,1,8008,4003
3784,13911848,0,0.0006547559,-0.001070476,-0.004071363,-0.2591119,-0.01046836,-9.724622,0,0,44.77954,1,1,8008,4003
3787,13914264,0,0.0002667915,-0.0008989708,-0.002064283,-0.2605055,-0.003509618,-9.724895,0,0,44.7795,1,1,8008,4003
3790,13916537,0,-6.06838e-05,-0.0008219596,-0.001835217,-0.2616754,-0.0001593238,-9.725576999999999,0,0,44.77946,1,1,8008,4003
3821,13918992,0,-0.0002054658,-0.001646384,-0.002317918,-0.2629808,0.000922188,-9.723959000000001,0,0,44.7794,1,1,8008,4003
3824,13921423,0,0.000183379,-0.001831612,-0.002680243,-0.2638683,-0.0008790426,-9.721730000000001,0,0,44.77937,1,1,8008,4003
3829,13924316,0,8.716609e-05,-0.0007083534,-0.002131077,-0.262559,-0.005858559,-9.718728,0,0,44.77938,1,1,8008,4003
3836,13927276,0,-0.0004366716,0.0002474445,-0.001320833,-0.2598825,-0.0102666,-9.718648,0,0,44.7794,1,1,8008,4003
3867,13929752,0,-0.0003029044,0.0003612306,-0.0009583333,-0.2565629,-0.01609206,-9.721904,0,0,44.77943,1,1,8008,4004
3871,13932224,0,0.001166254,0.000578227,-0.002130746,-0.2565309,-0.02008371,-9.726798,0,0,44.77945,1,1,8008,4004
3874,13935113,0,0.001553019,0.001092955,-0.002801978,-0.2576104,-0.02117556,-9.729849,0,0,44.77946,1,1,8008,4004
3877,13937838,0,0.0004013028,0.002117855,-0.003651884,-0.2598641,-0.02193399,-9.734188,0,0,44.77951,1,1,8008,4004
3908,13940322,0,-0.000349389,0.00197679,-0.00387567,-0.2636188,-0.02252158,-9.738708000000001,0,0,44.77956,1,1,8008,4004
3911,13942537,0,-0.000265434,4.597201e-05,-0.003095665,-0.266248,-0.02120597,-9.743512000000001,0,0,44.7796,1,1,8008,4004
3914,13945700,0,0.0001725218,-0.0005602437,-0.002568973,-0.2658425,-0.02012636,-9.748523,0,0,44.77962,1,1,8008,4004
3917,13948255,0,0.0003580702,0.0002702739,-0.001087864,-0.2640431,-0.01742447,-9.757097,0,0,44.77965,1,1,8008,4004
3948,13950925,0,-0.0008783141,0.0002064318,-0.0008792495,-0.262677,-0.01672388,-9.762646,0,0,44.77962,1,1,8008,4004
3952,13953738,0,-0.0007598529,0.0007347000999999999,-0.001309681,-0.2623627,-0.01764303,-9.764571999999999,0,0,44.77958,1,1,8008,4004
3955,13956115,0,-0.0007399964,0.001474788,-0.001564673,-0.265402,-0.01828546,-9.766006000000001,0,0,44.77946,1,1,8008,4004
3958,13958800,0,-0.001019588,0.0008039768,-0.001423899,-0.2683984,-0.01860153,-9.765903,0,0,44.77939,1,1,8008,4004
3989,13961767,0,-0.002188976,-1.623377e-05,-0.0009487679,-0.2699238,-0.01872861,-9.763845999999999,0,0,44.77928,1,1,8008,4004
3994,13963959,0,-0.002794974,7.336356e-06,-0.0008594108,-0.2667602,-0.01789281,-9.762084,0,0,44.77922,1,1,8008,4004
3997,13966313,0,-0.002791119,0.0005393806,-0.00057056,-0.2654859,-0.01830642,-9.761532000000001,0,0,44.77919,1,1,8008,4004
4000,13969129,0,-0.002353902,0.0003421137,0.0004735126,-0.2654202,-0.02076627,-9.764172,0,0,44.7792,1,1,8008,4004
4031,13977454,0,-0.0007885812,-0.002042166,0.001535005,-0.264079,-0.03102359,-9.764896,0,0,44.77955,1,1,8008,4004
4034,13979917,0,-0.001176588,-0.002352774,0.001062131,-0.2630524,-0.03187257,-9.762060999999999,0,0,44.77971,1,1,8008,4004
4065,13982746,0,-0.0006396075,-0.001618922,0.0003619257,-0.2616521,-0.03158704,-9.759872,0,0,44.7798,1,1,8008,4004
4068,13985317,0,0.0008847624,-0.0009064011,-0.0002001648,-0.2581988,-0.03003899,-9.756354999999999,0,0,44.77995,1,1,8008,4004
4071,13987484,0,0.0004943680999999999,-0.0009830263,0.0002886274,-0.2574787,-0.02889217,-9.75577,0,0,44.78009,1,1,8008,4004
4075,13989928,0,-0.0004471193,-0.0005302206,0.001323681,-0.2585292,-0.02691942,-9.755846999999999,0,0,44.78025,1,1,8008,4004
4106,13992229,0,-0.0005515713,-0.0005757302,0.001490033,-0.2580877,-0.02472291,-9.755537,0,0,44.78033,1,1,8008,4004
4109,13995205,0,-3.774264e-05,-0.001412605,0.002261567,-0.258861,-0.02349959,-9.754586,0,0,44.78048,1,1,8008,4004
4112,13998022,0,0.0001303294,-0.001444016,0.002670074,-0.2600133,-0.02518454,-9.753173,0,0,44.78059,1,1,8008,4004
4116,13999969,0,-0.0004715992,-0.0009310579,0.002283093,-0.2613414,-0.029028,-9.753078,0,0,44.78078,1,1,8008,4004
4147,14002448,0,-0.0008560087,-0.0007291829,0.002600436,-0.2638555,-0.03006961,-9.753754000000001,0,0,44.78088,1,1,8008,4004
4150,14004806,0,-0.0005841751,-0.0005461026,0.002782529,-0.2704142,-0.02957491,-9.754073999999999,0,0,44.78103,1,1,8008,4004
4153,14007364,0,0.0008014663,-0.0009889349,0.001663773,-0.2747484,-0.03062429,-9.752189,0,0,44.78113,1,1,8008,4004
4156,14010486,0,0.001639264,-0.001503537,8.995595e-05,-0.279119,-0.03257042,-9.750127000000001,0,0,44.78127,1,1,8008,4004
4187,14013179,0,0.0005238255,-0.001603074,0.0002961494,-0.2823896,-0.0327439,-9.750524,0,0,44.78142,1,1,8008,4004
4190,14015523,0,0.0004514241,-0.0007467611,0.001254513,-0.2840953,-0.03193529,-9.749936999999999,0,0,44.78154,1,1,8008,4004
4193,14018103,0,0.0001167282,0.0006772749,0.001695667,-0.2852695,-0.03037231,-9.746604,0,0,44.78179,1,1,8008,4004
4197,14020707,0,0.0003860054,0.0006309001,0.0008945888,-0.283931,-0.02861189,-9.742642,0,0,44.78191,1,1,8008,4004
4228,14023451,0,0.0003161535,0.0004507369,-3.616698e-06,-0.2783398,-0.02391883,-9.735942,0,0,44.78211,1,1,8008,4004
4231,14026076,0,-1.254519e-06,7.505915e-05,-0.0002008469,-0.2748933,-0.02059927,-9.734211999999999,0,0,44.78221,1,1,8008,4004
4235,14027760,0,-0.0004687271,5.209204e-05,1.12527e-05,-0.2726012,-0.01552149,-9.737133999999999,0,0,44.78241,1,1,8008,4004
4242,14030846,0,-0.0008308712999999999,0.000433056,0.0007322172,-0.2721646,-0.01425676,-9.740988,0,0,44.78251,1,1,8008,4004
4275,14033201,0,-0.001841436,0.001057744,0.00148433,-0.2701282,-0.0140082,-9.746492,0,0,44.7827,1,1,8008,4004
4278,14036261,0,-0.001417074,0.00230083,0.0009624813000000001,-0.2675427,-0.01417208,-9.748393999999999,0,0,44.78283,1,1,8008,4004
4281,14038885,0,-0.000141495,0.00217273,9.184724000000001e-05,-0.2663708,-0.01389721,-9.749567000000001,0,0,44.78289,1,1,8008,4004
4284,14040926,0,0.001853424,0.0004480868,-0.0005324922,-0.2650436,-0.01510805,-9.750451,0,0,44.78299,1,1,8008,4004
4315,14043441,0,0.002070704,-0.000476429,-0.0004693216,-0.2640503,-0.0161184,-9.751670000000001,0,0,44.78302,1,1,8008,4004
4318,14046056,0,0.0008614477,-0.0003678122,-0.0006724175,-0.2618302,-0.016844,-9.757536,0,0,44.78306,1,1,8008,4004
4321,14048842,0,0.0003023959,1.060312e-05,-0.0006344658,-0.2601353,-0.01556599,-9.761805000000001,0,0,44.78308,1,1,8008,4004
4325,14051248,0,0.0001301586,-0.0001953994,-0.0002827752,-0.2586418,-0.01202036,-9.763757999999999,0,0,44.78312,1,1,8008,4004
4356,14053505,0,0.0004007713,-0.0001383829,-0.0002657248,-0.2597855,-0.008665361,-9.761937,0,0,44.78313,1,1,8008,4004
4360,14055936,0,0.0007683052,-0.0008914674,0.0001756676,-0.2623582,-0.006331407,-9.758689,0,0,44.78316,1,1,8008,4004
4365,14058933,0,0.0008658742000000001,-0.001031876,0.0001154451,-0.2625774,-0.005688948,-9.757894,0,0,44.78318,1,1,8008,4004
4368,14061313,0,0.0009741334,-0.0005096221,-0.0009579994,-0.2596685,-0.00564751,-9.759186,0,0,44.7832,1,1,8008,4004
4399,14064115,0,0.0009517149,0.0001616367,-0.001623833,-0.2567872,-0.007139185,-9.759161000000001,0,0,44.7832,1,1,8008,4004
4402,14066427,0,0.0009994428,0.0007220908,-0.001664202,-0.2561778,-0.008075344,-9.757828999999999,0,0,44.7832,1,1,8008,4004
4405,14068806,0,0.001172794,0.0001656703,-0.001227313,-0.2564972,-0.009294919,-9.757087,0,0,44.7832,1,1,8008,4004
4409,14071126,0,0.0005549079,-0.0001659133,-0.001798414,-0.2560891,-0.01076867,-9.757298,0,0,44.7832,1,1,8008,4004
4440,14077885,0,0.0008613621,-0.0004231336,-0.001317819,-0.253195,-0.01441951,-9.758476999999999,0,0,44.78323,1,1,8008,4004
4443,14079084,0,0.0007211808,3.173089e-05,-0.001285127,-0.2534385,-0.01608494,-9.760135999999999,0,0,44.78325,1,1,8008,4004
4446,14081962,0,0.00106558,0.0001132364,-0.001045181,-0.2541793,-0.01773756,-9.760138,0,0,44.78326,1,1,8008,4004
4477,14084918,0,0.0009045067,0.0008250083,-0.002226499,-0.2559288,-0.02210113,-9.757771,0,0,44.78329,1,1,8008,4004
4480,14086577,0,0.0003426904,0.001286002,-0.002412672,-0.2596259,-0.02473626,-9.755115999999999,0,0,44.78331,1,1,8008,4004
4483,14090060,0,0.0003241394,0.001033679,-0.002271845,-0.2666273,-0.02675881,-9.750916,0,0,44.78331,1,1,8008,4004
4488,14091937,0,-0.0001130275,0.002104927,-0.002487225,-0.2700448,-0.02709266,-9.750563,0,0,44.78332,1,1,8008,4004
4519,14094090,0,4.398475e-05,0.002863059,-0.003064386,-0.2728752,-0.02627921,-9.751087,0,0,44.78335,1,1,8008,4004
4522,14097303,0,3.488477e-05,0.002065384,-0.003088486,-0.2732117,-0.02419121,-9.750914,0,0,44.78337,1,1,8008,4004
4525,14099119,0,0.0001183858,0.001353321,-0.002948642,-0.2715074,-0.01895172,-9.753024999999999,0,0,44.78341,1,1,8008,4004
4528,14101738,0,0.000112067,0.001492486,-0.003064693,-0.2709252,-0.01546162,-9.754883,0,0,44.78343,1,1,8008,4004
4559,14104728,0,-0.0003218638,0.002185801,-0.002880167,-0.271344,-0.01399242,-9.757220999999999,0,0,44.78347,1,1,8008,4004
4562,14106723,0,-0.0006475462,0.001805116,-0.00209979,-0.2713335,-0.01346035,-9.759707000000001,0,0,44.78347,1,1,8008,4004
4565,14109541,0,-0.001334714,0.0005883294,-0.00109074,-0.2715074,-0.01178196,-9.767609,0,0,44.78347,1,1,8008,4004
4570,14111957,0,-0.001640928,0.0004921978,-0.0006606941,-0.2713362,-0.009513041999999999,-9.773914,0,0,44.78347,1,1,8008,4004
4601,14114279,0,-0.0007059568,0.001051896,-0.0006511837,-0.2703873,-0.007071656,-9.779591999999999,0,0,44.78347,1,1,8008,4004
4604,14117117,0,-1.796549e-05,0.0009504107,-0.0003514171,-0.2692373,-0.007834298999999999,-9.778527,0,0,44.78347,1,1,8008,4004
4607,14119772,0,0.0003408806,-0.0004659147,0.0005956127000000001,-0.2680151,-0.01273721,-9.771196,0,0,44.78347,1,1,8008,4004
4611,14121987,0,-0.0002496786,-0.00143683,0.0006599327,-0.2679559,-0.01559901,-9.767150000000001,0,0,44.78347,1,1,8008,4004
4642,14124250,0,-0.0006475726,-0.001720262,0.0007499942,-0.2700827,-0.01832321,-9.763358,0,0,44.78347,1,1,8008,4004
4645,14126716,0,-0.0001424204,-0.001679241,0.001657238,-0.2712845,-0.01884444,-9.762319,0,0,44.78347,1,1,8008,4004
4648,14129747,0,0.0006028393,-0.001023261,0.001754647,-0.2722679,-0.02023312,-9.760184000000001,0,0,44.78347,1,1,8008,4004
4655,14131937,0,0.0004678912,-0.0007935517,0.0009159061,-0.2728782,-0.02239529,-9.757338000000001,0,0,44.78347,1,1,8008,4004
4686,14134934,0,-0.0008736539,-0.0008605444,0.0006391308,-0.2738793,-0.02574928,-9.754702999999999,0,0,44.78347,1,1,8008,4004
4689,14136993,0,-0.001613998,-0.0006630349,0.0009358943,-0.2740358,-0.02683652,-9.754469,0,0,44.78347,1,1,8008,4004
4692,14138960,0,-0.002024227,0.0001925905,0.0009323981,-0.274727,-0.02610441,-9.752580999999999,0,0,44.78347,1,1,8008,4004
4696,14142120,0,-0.0003293445,0.0007237458,0.0004930823,-0.275158,-0.02506075,-9.751863999999999,0,0,44.78347,1,1,8008,4004
4727,14144305,0,0.0009182466,0.0007721233,0.0007474781999999999,-0.2739149,-0.02590558,-9.752606,0,0,44.78347,1,1,8008,4004
4730,14147534,0,0.001268961,-0.0002000023,0.001712256,-0.270567,-0.02517186,-9.754894999999999,0,0,44.78347,1,1,8008,4004
4734,14149582,0,0.0005235947,-0.0003977023,0.002233756,-0.2681963,-0.02198048,-9.756838999999999,0,0,44.78346,1,1,8008,4004
4737,14152095,0,-0.0008993273,-0.000358673,0.001782884,-0.265357,-0.01620542,-9.757396,0,0,44.78343,1,1,8008,4004
4768,14154893,0,-0.0007750622,-0.0004006675,0.001828336,-0.265231,-0.01329497,-9.755338999999999,0,0,44.78341,1,1,8008,4004
4771,14157332,0,-0.000690136,-0.0007258283,0.002287094,-0.2671391,-0.01075472,-9.750901000000001,0,0,44.78338,1,1,8008,4004
4774,14160235,0,-0.0009157822,-0.001090217,0.002405501,-0.2686054,-0.009236843,-9.748201,0,0,44.78336,1,1,8008,4004
4778,14161962,0,-0.001478191,-0.001599872,0.002644633,-0.2710556,-0.006474047,-9.749993999999999,0,0,44.78333,1,1,8008,4004
4809,14164466,0,-0.001760306,-0.001435667,0.003015138,-0.2719657,-0.004895165,-9.752943,0,0,44.78331,1,1,8008,4004
4812,14167321,0,-0.0006447953,-0.001449977,0.002346997,-0.2709947,-0.004909363,-9.756755,0,0,44.78328,1,1,8008,4004
4815,14169899,0,-4.292818e-05,-0.001410748,0.001334002,-0.268482,-0.004820283,-9.756824,0,0,44.78326,1,1,8008,4004
4818,14174581,0,-0.001513408,-0.0005011323,0.001177168,-0.2655202,6.414107e-05,-9.752655000000001,0,0,44.7832,1,1,8008,4004
4849,14177328,0,-0.001744375,3.43404e-05,0.001794019,-0.2649834,0.0002443065,-9.748595,0,0,44.78318,1,1,8008,4004
4852,14180000,0,-0.002032514,0.0005913728,0.001964758,-0.2645478,-0.001001741,-9.743402,0,0,44.78316,1,1,8008,4004
4856,14185347,0,-0.001482613,0.0007067352,0.0009200634,-0.2706254,-0.006953525,-9.733587999999999,0,0,44.7831,1,1,8008,4004
4887,14187737,0,-1.676973e-05,-0.0001452522,0.0008059678,-0.2757423,-0.005403295,-9.732661,0,0,44.7831,1,1,8008,4004
4890,14190641,0,0.0004583116,4.568093e-05,0.0006491783,-0.2791859,-0.004443486,-9.731544,0,0,44.7831,1,1,8008,4004
4894,14192947,0,0.0001225814,0.00065634,0.0009953004000000001,-0.2852359,-0.005503936,-9.729907000000001,0,0,44.7831,1,1,8008,4004
4897,14195842,0,3.132746e-05,0.0009052212,0.0007084285,-0.2879953,-0.006801375,-9.730788,0,0,44.7831,1,1,8008,4004
4928,14198509,0,-0.0002607826,0.001335743,0.0004792423,-0.2884719,-0.007896291999999999,-9.736291,0,0,44.78312,1,1,8008,4004
4931,14200919,0,0.0003237317,0.0009303883,0.0003473299,-0.2875504,-0.01095884,-9.744305000000001,0,0,44.78313,1,1,8008,4004
4934,14203392,0,-0.0005495247,0.0007253214,0.0008285619,-0.2854573,-0.01356886,-9.749568999999999,0,0,44.78318,1,1,8008,4004
4937,14206061,0,-0.0005402312,-0.0001291225,0.0006203936,-0.2814403,-0.01684945,-9.758632,0,0,44.78321,1,1,8008,4004
4968,14208742,0,0.0002488101,0.0001707196,-0.0002006379,-0.2782711,-0.01955478,-9.764654999999999,0,0,44.78323,1,1,8008,4004
4971,14211404,0,0.0003860971,0.0008542186,-0.0009256788,-0.2727506,-0.02399768,-9.770777000000001,0,0,44.78326,1,1,8008,4004
4975,14213385,0,0.0002402162,0.001327012,-0.002252011,-0.268209,-0.02657657,-9.772046,0,0,44.7833,1,1,8008,4004
4978,14216003,0,-0.0004327807,0.002407777,-0.004204696,-0.2613938,-0.03131671,-9.767344,0,0,44.78338,1,1,8008,4004
5009,14218488,0,-0.001502617,0.002181724,-0.003871184,-0.2566659,-0.03360573,-9.761763999999999,0,0,44.78343,1,1,8008,4004
5012,14221305,0,-0.003315351,0.0008387706,-0.002018326,-0.2527096,-0.03218479,-9.751559,0,0,44.78345,1,1,8008,4004
5015,14223776,0,-0.003133935,0.000197845,-0.001706367,-0.2523759,-0.03070782,-9.746041,0,0,44.78348,1,1,8008,4004
5018,14226012,0,-0.002378473,0.0001165014,-0.002206483,-0.2538241,-0.03110366,-9.742506000000001,0,0,44.78351,1,1,8008,4004
5049,14228235,0,-0.002724949,0.0007022051000000001,-0.001723806,-0.2546547,-0.03187073,-9.742632,0,0,44.78353,1,1,8008,4004
5052,14231050,0,-0.003538599,-0.0001174654,-0.001109966,-0.2550094,-0.03029784,-9.744344999999999,0,0,44.78355,1,1,8008,4004
5061,14233900,0,-0.002686009,-0.0008005192,-0.001405424,-0.2555448,-0.02902607,-9.747678000000001,0,0,44.78358,1,1,8008,4004
5064,14236331,0,-5.261311e-05,-0.001580201,-0.002310194,-0.2551165,-0.02802668,-9.752077,0,0,44.78363,1,1,8008,4004
5095,14238772,0,0.0006820372,-0.00104335,-0.002560548,-0.2521355,-0.0282997,-9.750367000000001,0,0,44.78372,1,1,8008,4004
5098,14241348,0,-0.0004893947,-0.001096107,-0.002834988,-0.2493277,-0.02650017,-9.749281999999999,0,0,44.78379,1,1,8008,4004
5102,14243978,0,-0.0008566906,-0.001113016,-0.00389705,-0.246924,-0.02403233,-9.749136999999999,0,0,44.78397,1,1,8008,4004
5105,14246476,0,-0.0005006312,-0.0009107909,-0.004538745,-0.2470352,-0.02306146,-9.750603999999999,0,0,44.78407,1,1,8008,4004
5136,14249897,0,-0.000282619,-0.001157128,-0.004360439,-0.2480026,-0.02190107,-9.757925999999999,0,0,44.78429,1,1,8008,4004
5139,14252296,0,-0.001120002,-0.00240073,-0.003902606,-0.2511953,-0.02358635,-9.763989,0,0,44.78447,1,1,8008,4004
5143,14254290,0,-0.001911016,-0.003059842,-0.003931159,-0.2552534,-0.02449594,-9.766082000000001,0,0,44.78459,1,1,8008,4004
5146,14257028,0,-0.002410858,-0.002977092,-0.003742307,-0.2629568,-0.02351927,-9.765492999999999,0,0,44.78483,1,1,8008,4004
5177,14259540,0,-0.001676928,-0.002088979,-0.00312856,-0.2684015,-0.02324346,-9.763517,0,0,44.78496,1,1,8008,4004
5182,14262480,0,-0.001104997,-0.002019366,-0.002103417,-0.2745323,-0.02657648,-9.761415,0,0,44.78515,1,1,8008,4004
5185,14265001,0,-0.002162504,-0.002345763,-0.001478013,-0.2782007,-0.029697,-9.762703,0,0,44.78526,1,1,8008,4004
5188,14266503,0,-0.003867879,-0.002484041,-0.0009149589,-0.2830881,-0.0299581,-9.767282,0,0,44.78543,1,1,8008,4004
5219,14269141,0,-0.004078945,-0.002531701,-0.0007228622,-0.2849587,-0.02819678,-9.769242999999999,0,0,44.78552,1,1,8008,4004
5222,14272218,0,-0.002288667,-0.002373781,-0.001254257,-0.2847269,-0.02524644,-9.768303,0,0,44.78566,1,1,8008,4004
5226,14277550,0,0.0006804039,-0.001942315,-0.00166369,-0.2779444,-0.02103924,-9.763505,0,0,44.78592,1,1,8008,4004
5259,14280085,0,0.0005588834,-0.00121634,-0.001402591,-0.2716512,-0.01974871,-9.761324,0,0,44.78604,1,1,8008,4004
5262,14282757,0,0.0001556283,-0.0004373087,-0.001133895,-0.2680859,-0.01860036,-9.760757999999999,0,0,44.78617,1,1,8008,4004
5267,14285583,0,-0.0005281205,0.0003024484,-0.0006996591,-0.264704,-0.0183088,-9.758476,0,0,44.78629,1,1,8008,4004
5270,14287911,0,-0.001318254,0.0004182146,-0.000576834,-0.2636389,-0.01904924,-9.75582,0,0,44.78636,1,1,8008,4004
5301,14290358,0,-0.002150333,-0.0002387575,0.0001118144,-0.2639648,-0.02068402,-9.754170999999999,0,0,44.7864,1,1,8008,4004
5304,14292980,0,-0.001974926,-0.00118233,0.0008002229,-0.26476,-0.02219844,-9.7529,0,0,44.78643,1,1,8008,4004
5307,14296519,0,-0.001715848,-0.002055001,0.001799993,-0.2652996,-0.02403716,-9.751241,0,0,44.78648,1,1,8008,4004
5310,14298324,0,-0.001662708,-0.0009096598,0.00130137,-0.2659488,-0.02670926,-9.748763,0,0,44.78654,1,1,8008,4004
5341,14300984,0,-0.002316973,0.0002528115,0.0006945182,-0.2671092,-0.02929645,-9.747667,0,0,44.78661,1,1,8008,4004
5344,14303458,0,-0.002294552,6.693514000000001e-05,0.001380281,-0.2695497,-0.02913557,-9.747515999999999,0,0,44.78669,1,1,8008,4004
5348,14306164,0,-0.001003387,4.680308e-05,0.001756426,-0.2761095,-0.02575415,-9.750926,0,0,44.78679,1,1,8008,4004
5351,14309114,0,-0.0006735037,-0.0001624351,0.002062073,-0.2813719,-0.02101951,-9.754274000000001,0,0,44.78686,1,1,8008,4004
5382,14312064,0,0.0001720245,0.0004529656,0.002094588,-0.2868795,-0.0136981,-9.759411,0,0,44.78693,1,1,8008,4004
5385,14314331,0,0.002211788,0.001158569,0.001884658,-0.291515,-0.0110866,-9.767204,0,0,44.78698,1,1,8008,4004
5388,14317045,0,0.002575872,0.001217992,0.00239661,-0.2945649,-0.009683594,-9.77009,0,0,44.78706,1,1,8008,4004
5391,14319613,0,0.002052021,0.0007415182,0.002811225,-0.2969145,-0.006721113,-9.771858999999999,0,0,44.78717,1,1,8008,4004
5422,14322320,0,0.001646116,0.0006789593999999999,0.002403026,-0.2963019,-0.002953693,-9.769531000000001,0,0,44.78728,1,1,8008,4004
5425,14324983,0,0.001867481,0.001526504,0.002318381,-0.2961097,-0.002855669,-9.766498,0,0,44.78735,1,1,8008,4004
5429,14326985,0,0.001797853,0.001258168,0.001237701,-0.2962855,-0.006388141,-9.76239,0,0,44.78745,1,1,8008,4004
5432,14330081,0,0.00142663,0.0006099844,0.0003811895,-0.2954417,-0.008541015000000001,-9.76084,0,0,44.78748,1,1,8008,4004
5463,14332845,0,0.001211833,-0.0002103063,0.0004643971,-0.2945535,-0.01034895,-9.762657000000001,0,0,44.78756,1,1,8008,4004
5466,14334961,0,0.000925826,-7.557318e-05,0.001431062,-0.2940793,-0.01135689,-9.764419,0,0,44.78761,1,1,8008,4004
5474,14338106,0,0.0003263454,0.0007792224,0.001788138,-0.2931189,-0.01322012,-9.761649,0,0,44.78769,1,1,8008,4004
5477,14340007,0,-0.0004765262,0.001525074,0.001260244,-0.2920035,-0.01400512,-9.758877,0,0,44.78773,1,1,8008,4004
5508,14342756,0,-0.001251108,0.0007861339,0.00134618,-0.292049,-0.01400778,-9.755207,0,0,44.78781,1,1,8008,4004
5511,14344615,0,-0.0008800367,0.0004658561,0.001271891,-0.2913538,-0.01248704,-9.752606,0,0,44.78786,1,1,8008,4004
5514,14347130,0,0.0008798323,0.0003255737,0.0009894808999999999,-0.2897863,-0.01100941,-9.747551,0,0,44.78793,1,1,8008,4004
5517,14350433,0,0.002011118,0.0003336707,0.001965966,-0.2907038,-0.01072573,-9.744577,0,0,44.78798,1,1,8008,4004
5548,14352530,0,0.002059475,-0.000873828,0.003616838,-0.2912729,-0.009162158,-9.741496,0,0,44.78807,1,1,8008,4004
5551,14355883,0,0.002005702,-0.001447472,0.002992059,-0.2908878,-0.007359353,-9.740694,0,0,44.78813,1,1,8008,4004
5555,14357915,0,0.002326813,-0.001416163,0.002026195,-0.2905927,-0.007874147,-9.741493999999999,0,0,44.78828,1,1,8008,4004
5558,14360989,0,0.002012895,-0.001031604,0.001103733,-0.2900926,-0.009456320000000001,-9.741218999999999,0,0,44.78838,1,1,8008,4004
5589,14363341,0,0.0007634214,-0.0007146887,0.0001914638,-0.2878515,-0.0121521,-9.74212,0,0,44.78852,1,1,8008,4004
5594,14366268,0,0.0002836285,-0.0007711037,-0.001386228,-0.2846846,-0.01399894,-9.743187000000001,0,0,44.78859,1,1,8008,4004
5597,14368559,0,-9.419857999999999e-06,-0.0004713956,-0.001283086,-0.2837323,-0.01466051,-9.746131,0,0,44.78865,1,1,8008,4004
5600,14372068,0,-0.0004512288,0.0006162077,-0.0001495076,-0.2847309,-0.01479246,-9.750636,0,0,44.78875,1,1,8008,4004
5603,14373875,0,-0.0001074065,0.001015628,0.0002071274,-0.2845137,-0.01399235,-9.751333000000001,0,0,44.78881,1,1,8008,4004
5634,14376428,0,0.0007009173,0.000973594,0.0007907813000000001,-0.2819093,-0.01283026,-9.748504000000001,0,0,44.7889,1,1,8008,4004
5638,14378999,0,0.0002442212,0.0001503982,-0.0005706193,-0.2794063,-0.01188612,-9.747638,0,0,44.78899,1,1,8008,4004
5641,14381495,0,-0.0004002498,-0.0003894343,-0.001620442,-0.2780227,-0.01183278,-9.750349999999999,0,0,44.78907,1,1,8008,4004
5644,14384990,0,-0.001672961,-0.001344672,-0.002244508,-0.2759915,-0.01076296,-9.757789000000001,0,0,44.78912,1,1,8008,4004
5647,14389512,0,0.000839623,-0.0007715669,-0.00290824,-0.2766721,-0.005974837,-9.765191,0,0,44.78916,1,1,8008,4004
5678,14391900,0,0.0009965231000000001,9.791658e-05,-0.002616044,-0.2786981,-0.003948659,-9.767185,0,0,44.78919,1,1,8008,4004
5681,14394338,0,0.0004042696,0.000264257,-0.002334044,-0.28056,-0.003754397,-9.76778,0,0,44.78924,1,1,8008,4004
5684,14397422,0,0.001320442,-0.0001818152,-0.002229184,-0.2830677,-0.00332282,-9.765575999999999,0,0,44.78935,1,1,8008,4004
5687,14399960,0,0.002844251,-0.000110076,-0.001975017,-0.2839668,-0.003805491,-9.763631999999999,0,0,44.78943,1,1,8008,4004
5718,14402261,0,0.004158481,2.540561e-05,-0.001999815,-0.2839381,-0.008963729,-9.761651000000001,0,0,44.78962,1,1,8008,4004
5722,14404918,0,0.001875373,0.001776195,-0.003086681,-0.2827435,-0.01413561,-9.760638,0,0,44.78972,1,1,8008,4004
5725,14407519,0,0.0001217382,0.003041836,-0.003385263,-0.2822217,-0.01536817,-9.760262000000001,0,0,44.78978,1,1,8008,4004
5728,14410464,0,4.965145e-05,0.003100203,-0.002813713,-0.2813008,-0.01695767,-9.758849,0,0,44.7899,1,1,8008,4004
5759,14413396,0,-0.0003544184,0.00233641,-0.002501969,-0.2794502,-0.02158453,-9.758407,0,0,44.78999,1,1,8008,4004
5763,14415566,0,-0.000894099,0.001853132,-0.002169795,-0.2789014,-0.02358635,-9.757818,0,0,44.79008,1,1,8008,4004
5766,14418097,0,-0.001624127,0.002110509,-0.002371273,-0.2786309,-0.02062581,-9.759482,0,0,44.79016,1,1,8008,4004
5771,14420950,0,-0.00138587,0.002163148,-0.002151119,-0.2772455,-0.01657565,-9.759513,0,0,44.79023,1,1,8008,4004
5802,14423734,0,-0.0009982318999999999,0.0009085655999999999,-0.001529072,-0.2744802,-0.01405279,-9.758991999999999,0,0,44.79033,1,1,8008,4004
5805,14426115,0,-0.001295798,0.0009879807000000001,-0.001784663,-0.2720413,-0.01339423,-9.760301,0,0,44.79045,1,1,8008,4004
5808,14428948,0,-0.00161095,0.001143304,-0.001931407,-0.2701413,-0.01335989,-9.76296,0,0,44.79058,1,1,8008,4004
5811,14431029,0,-0.0006506102,0.001511781,-0.001325681,-0.2675263,-0.01418855,-9.766667999999999,0,0,44.79078,1,1,8008,4004
5842,14433527,0,0.0007881417,0.001683535,-0.001113055,-0.2679195,-0.01579015,-9.767512999999999,0,0,44.79086,1,1,8008,4004
5846,14436839,0,0.001873367,0.001384518,-0.001010419,-0.2692854,-0.02040064,-9.765677999999999,0,0,44.791,1,1,8008,4004
5849,14438455,0,0.001792716,0.0008241605,-0.001325074,-0.2681217,-0.02346468,-9.764082,0,0,44.79108,1,1,8008,4004
5856,14441254,0,0.0008275001,1.927731e-05,-0.001859389,-0.2664801,-0.02596366,-9.766132000000001,0,0,44.79123,1,1,8008,4004
5887,14444060,0,0.0003855731,-0.0002722355,-0.001584956,-0.2671398,-0.02753069,-9.768642,0,0,44.79129,1,1,8008,4004
5891,14445977,0,-6.574348e-05,0.0003806499,-0.002088265,-0.2685409,-0.02874535,-9.770504000000001,0,0,44.79135,1,1,8008,4004
5894,14448913,0,0.0004514807,0.001460318,-0.001447871,-0.2684724,-0.0286926,-9.770841000000001,0,0,44.79139,1,1,8008,4004
5899,14451118,0,0.0001539674,0.001441148,-0.001064358,-0.2697821,-0.029597,-9.767822000000001,0,0,44.7915,1,1,8008,4004
5930,14454087,0,-0.0003575392,0.0009216851,-0.001338269,-0.270632,-0.03097187,-9.763577,0,0,44.79155,1,1,8008,4004
5933,14456354,0,-0.000513491,0.0004378339,-0.001156378,-0.268786,-0.02927147,-9.753598,0,0,44.79163,1,1,8008,4004
5936,14458259,0,-0.0004836524,0.0002515842,-0.001139951,-0.2661021,-0.02630466,-9.746707000000001,0,0,44.79169,1,1,8008,4004
5940,14461360,0,0.000492798,0.0009127403,-0.0002247113,-0.2608726,-0.02207125,-9.73935,0,0,44.79175,1,1,8008,4004
5971,14463529,0,6.817784e-06,0.001766117,-0.0001686247,-0.2559577,-0.02019311,-9.737484,0,0,44.79181,1,1,8008,4004
5975,14466315,0,-0.0005845943,0.001502717,0.0001668554,-0.253733,-0.02031417,-9.738493,0,0,44.79184,1,1,8008,4004
5978,14468919,0,-0.000670958,0.001427026,0.001520111,-0.2518825,-0.01787339,-9.742114000000001,0,0,44.79184,1,1,8008,4004
5981,14471687,0,-0.0006280743000000001,0.001685826,0.001747329,-0.2506413,-0.01620997,-9.744465999999999,0,0,44.79181,1,1,8008,4004
6012,14474503,0,-0.0009551611,0.001474762,0.001961645,-0.2502884,-0.01626147,-9.745125,0,0,44.79174,1,1,8008,4004
6015,14476968,0,-0.001228736,0.0008212937,0.001775713,-0.2512231,-0.0177337,-9.744895,0,0,44.79166,1,1,8008,4004
6018,14479270,0,-0.001095277,-0.0007796776,0.001736257,-0.2528734,-0.02119863,-9.747479,0,0,44.79152,1,1,8008,4004
6021,14481574,0,-0.000806385,-0.001295161,0.001534352,-0.2547494,-0.02426155,-9.750584999999999,0,0,44.79143,1,1,8008,4004
6052,14484444,0,-0.0008899277,-0.0003048638,0.001074065,-0.2568604,-0.02836667,-9.751993000000001,0,0,44.79132,1,1,8008,4004
6057,14489329,0,-0.001958368,-0.001589686,0.001743449,-0.2550134,-0.03283238,-9.749002000000001,0,0,44.79118,1,1,8008,4004
6060,14491517,0,-0.002281087,-0.002560006,0.001773453,-0.2550006,-0.03286676,-9.747429,0,0,44.79112,1,1,8008,4004
6091,14495529,0,-0.0009997261000000001,-0.002776335,0.001613078,-0.2544337,-0.02979586,-9.747063000000001,0,0,44.79103,1,1,8008,4004
6094,14497543,0,-0.000174112,-0.002404311,0.001638462,-0.2525299,-0.02411984,-9.746746999999999,0,0,44.79094,1,1,8008,4004
6098,14499954,0,-0.0001276756,-0.002354902,0.001421826,-0.2517556,-0.01986208,-9.746665999999999,0,0,44.79088,1,1,8008,4004
6101,14502255,0,-0.001027032,-0.003282378,0.0008448267,-0.2554097,-0.0158492,-9.748309000000001,0,0,44.79079,1,1,8008,4004
6132,14504443,0,-0.0009096592,-0.003325958,0.0007239347,-0.2595502,-0.01421139,-9.749529000000001,0,0,44.79075,1,1,8008,4004
6135,14507334,0,-0.0002411254,-0.003042763,0.0004370322,-0.2648663,-0.01200505,-9.749506999999999,0,0,44.79065,1,1,8008,4004
6138,14510319,0,-0.000509626,-0.002510601,0.0001864233,-0.2661411,-0.01162969,-9.751367,0,0,44.79057,1,1,8008,4004
6141,14512132,0,-0.001930523,-0.002056889,0.0003515043,-0.2662428,-0.01267468,-9.757754,0,0,44.79044,1,1,8008,4004
6172,14514438,0,-0.002840464,-0.002036697,0.0007722506,-0.2657456,-0.0149509,-9.76361,0,0,44.79036,1,1,8008,4004
6175,14517233,0,-0.002383487,-0.002056593,0.0003515775,-0.2642004,-0.01863573,-9.770241,0,0,44.79029,1,1,8008,4004
6179,14520218,0,-0.001426194,-0.002357536,0.0001584431,-0.2636207,-0.02209096,-9.771701999999999,0,0,44.79026,1,1,8008,4004
6182,14522472,0,-0.0007215492,-0.001422927,-0.0003551749,-0.2636181,-0.02617082,-9.770511000000001,0,0,44.79026,1,1,8008,4004
6213,14525484,0,-0.001909341,-0.001059874,-0.0007411828,-0.2630298,-0.02717206,-9.763347,0,0,44.79034,1,1,8008,4004
6216,14526945,0,-0.002869693,-0.001143559,-0.0008778654000000001,-0.2627107,-0.02643518,-9.756320000000001,0,0,44.79044,1,1,8008,4004
6219,14529801,0,-0.003610476,-0.001421348,-0.0004498957,-0.2630292,-0.0256724,-9.749998,0,0,44.79049,1,1,8008,4004
6222,14532504,0,-0.004084437,-0.0009600974,-0.0005313026,-0.263774,-0.02550725,-9.74437,0,0,44.7906,1,1,8008,4004
6253,14535243,0,-0.003214743,-0.0001672837,-0.0002721009,-0.2636872,-0.02605434,-9.739444000000001,0,0,44.79071,1,1,8008,4004
6256,14538123,0,-0.002445541,-9.160082999999999e-05,-0.0006214712,-0.2635782,-0.02552154,-9.737918000000001,0,0,44.79076,1,1,8008,4004
6260,14540284,0,-0.0008392544,-0.000141438,-0.0008557001,-0.2658944,-0.02321367,-9.738609,0,0,44.79079,1,1,8008,4004
6267,14542674,0,-0.0007859626,-0.0004871567,6.987576e-05,-0.2671777,-0.02008198,-9.739165,0,0,44.79079,1,1,8008,4004
6298,14545910,0,-0.00156667,-0.0001478977,0.0008698185999999999,-0.2657073,-0.01311351,-9.739044,0,0,44.79073,1,1,8008,4004
6301,14547535,0,-0.001469906,0.0002563683,0.000188326,-0.264504,-0.009671389000000001,-9.737412000000001,0,0,44.79068,1,1,8008,4004
6304,14550573,0,-0.001456825,0.0007290374,-0.0006323475,-0.2650339,-0.008190347000000001,-9.734105,0,0,44.79058,1,1,8008,4004
6307,14552337,0,-0.001992497,0.000851594,-0.0007066813,-0.2678934,-0.008762321,-9.733052000000001,0,0,44.79052,1,1,8008,4004
6338,14555628,0,-0.002287694,0.0004857529,0.0001878369,-0.272987,-0.008444864999999999,-9.736435999999999,0,0,44.79044,1,1,8008,4004
6341,14557558,0,-0.001601654,0.0007473358,0.0006775832,-0.2752332,-0.007701989,-9.741301,0,0,44.79041,1,1,8008,4004
6346,14560109,0,0.0008353973,0.001119396,0.0001723696,-0.2758445,-0.007203704,-9.746902,0,0,44.79039,1,1,8008,4004
6349,14562917,0,0.00209779,0.0005530672,0.0003667062,-0.2769877,-0.007407393,-9.750095999999999,0,0,44.79041,1,1,8008,4004
6380,14565327,0,0.002062879,-0.0003448428,0.0009065475,-0.2820086,-0.008092726,-9.756629999999999,0,0,44.79047,1,1,8008,4004
6383,14568264,0,0.0007383836,-0.000371896,0.0004073663,-0.2848111,-0.008287719000000001,-9.757462,0,0,44.79053,1,1,8008,4004
6387,14570357,0,-0.0008438008,-0.000828525,-0.0007906575,-0.2863978,-0.009794083,-9.755005000000001,0,0,44.79061,1,1,8008,4004
6390,14572511,0,-0.001096151,-0.0008421868,-0.002056776,-0.2869261,-0.0109877,-9.754828,0,0,44.79066,1,1,8008,4004
6421,14575376,0,-0.001039163,-0.0001470608,-0.003055143,-0.2919673,-0.01227097,-9.755406000000001,0,0,44.79071,1,1,8008,4004
6425,14577762,0,-0.001062842,0.0004107608,-0.00314708,-0.296192,-0.01333602,-9.756443000000001,0,0,44.79073,1,1,8008,4004
6428,14580361,0,-0.0007757402,0.0010741,-0.003533844,-0.2989974,-0.01348074,-9.756679999999999,0,0,44.79072,1,1,8008,4004
6431,14585120,0,0.000425517,-0.0006162905,-0.002262178,-0.2961301,-0.01666926,-9.755223000000001,0,0,44.79066,1,1,8008,4004
6462,14590899,0,0.001303022,0.0002896124,-0.0006648312,-0.2907225,-0.01970109,-9.755542,0,0,44.79055,1,1,8008,4004
6466,14593503,0,0.001976349,0.0007770394,-0.0003973836,-0.2875879,-0.02153704,-9.756489,0,0,44.79052,1,1,8008,4004
6469,14595858,0,0.001909968,4.636665e-08,-0.0008831829999999999,-0.2862851,-0.02398342,-9.756513999999999,0,0,44.79052,1,1,8008,4004
6500,14598253,0,0.001621367,-0.0006090073000000001,-0.001542097,-0.2867146,-0.02745491,-9.756793999999999,0,0,44.79053,1,1,8008,4004
6503,14601263,0,0.001545147,-0.0004428487,-0.001611569,-0.2869493,-0.0287653,-9.756999,0,0,44.79054,1,1,8008,4004
6506,14603237,0,0.0008749285,-0.00100048,-0.001699774,-0.286129,-0.02893032,-9.756042000000001,0,0,44.79056,1,1,8008,4004
6509,14606074,0,0.000368022,-0.0006488619,-0.001620372,-0.2849801,-0.02844089,-9.755679000000001,0,0,44.79056,1,1,8008,4004
6540,14608252,0,-0.000491514,-6.304354e-05,-0.001532106,-0.2838162,-0.02634254,-9.756174,0,0,44.79056,1,1,8008,4004
6543,14611259,0,-0.0001338376,0.0008263348999999999,-0.0004404726,-0.2830075,-0.02333086,-9.756563999999999,0,0,44.79059,1,1,8008,4004
6547,14613583,0,0.000111561,0.001287466,-0.000559326,-0.281791,-0.02229784,-9.757377999999999,0,0,44.79062,1,1,8008,4004
6550,14616259,0,-0.0001776795,0.001524474,-0.0007393703,-0.2817605,-0.02022237,-9.758888000000001,0,0,44.79063,1,1,8008,4004
