LineNo,TimeUS,I,GyrX,GyrY,GyrZ,AccX,AccY,AccZ,EG,EA,T,GH,AH,GHz,AHz
184,1.2924e+07,2,-0.00087395,-0.0059694,-0.0023937,-0.20767,-0.078602,-9.878,0,0,39.24,1,1,7778,3889
215,1.2927e+07,2,-0.00065028,-0.0049013,-0.0027143,-0.21298,-0.080466,-9.8822,0,0,39.24,1,1,7778,3889
291,1.2957e+07,2,0.00077396,0.0010455,-0.0016863,-0.22316,-0.067364,-9.8666,0,0,39.239,1,1,7772,3886
407,1.2985e+07,2,-0.00013463,0.0018516,-0.00045605,-0.20715,-0.075593,-9.8423,0,0,39.239,1,1,7772,3886
522,1.3014e+07,2,-0.00038383,-0.0013442,0.0038862,-0.20877,-0.083248,-9.8502,0,0,39.24,1,1,7772,3886
525,1.3015e+07,2,-0.00076282,-0.00086456,0.0038181,-0.20759,-0.083451,-9.8488,0,0,39.24,1,1,7772,3886
636,1.3035e+07,2,-0.0029453,-0.00072967,0.00094504,-0.18924,-0.098644,-9.8498,0,0,39.241,1,1,7772,3886
753,1.3057e+07,2,-0.0013523,-0.0024786,0.0021505,-0.18383,-0.088168,-9.8561,0,0,39.241,1,1,7772,3886
865,1.3089e+07,2,-0.002008,0.00055596,-0.0016979,-0.18769,-0.079018,-9.8688,0,0,39.244,1,1,7772,3886
980,1.3119e+07,2,0.00099523,0.0011289,-0.0028888,-0.17386,-0.077513,-9.8475,0,0,39.246,1,1,7772,3886
1011,1.3122e+07,2,0.0020203,-0.00027587,-0.0034041,-0.17891,-0.077562,-9.8458,0,0,39.246,1,1,7772,3886
1092,1.3168e+07,2,-0.0013781,-0.0029653,-0.00023333,-0.19235,-0.087133,-9.8728,0,0,39.249,1,1,7772,3886
1123,1.317e+07,2,-0.0006258,-0.0029257,-0.0006224,-0.19644,-0.084933,-9.8749,0,0,39.249,1,1,7772,3886
1203,1.3249e+07,2,-0.00010146,0.00044674,-0.0030259,-0.21062,-0.089707,-9.8444,0,0,39.255,1,1,7772,3886
1299,1.3304e+07,2,0.00099945,-0.00040685,5.8274e-05,-0.1997,-0.086633,-9.8564,0,0,39.259,1,1,7772,3886
1386,1.3318e+07,2,-0.00018571,-0.00070285,0.0010537,-0.1922,-0.094918,-9.8402,0,0,39.26,1,1,7772,3886
1478,1.3334e+07,2,-0.00019334,0.00083741,-0.00027677,-0.17608,-0.080911,-9.8491,0,0,39.261,1,1,7772,3886
1509,1.3337e+07,2,-0.00076918,0.00092855,-0.00077554,-0.17823,-0.075442,-9.8543,0,0,39.261,1,1,7772,3886
1548,1.334e+07,2,0.00098081,0.0010341,-0.00075636,-0.18087,-0.0761,-9.8594,0,0,39.261,1,1,7772,3886
1551,1.3343e+07,2,0.0021161,0.001069,0.00099553,-0.18476,-0.080451,-9.8627,0,0,39.261,1,1,7772,3886
1554,1.3346e+07,2,0.0015813,0.0010408,0.0015347,-0.18721,-0.083542,-9.8615,0,0,39.261,1,1,7772,3886
1585,1.3348e+07,2,0.00043814,0.001455,0.0019506,-0.19074,-0.087941,-9.8596,0,0,39.261,1,1,7772,3886
1588,1.3351e+07,2,-0.00098103,0.00071693,0.0016148,-0.19149,-0.090715,-9.8587,0,0,39.261,1,1,7772,3886
1592,1.3353e+07,2,-0.0022649,2.1999e-05,0.0013441,-0.18914,-0.091801,-9.859,0,0,39.262,1,1,7772,3886
1595,1.3356e+07,2,-0.0023804,-0.00016756,0.00044331,-0.18719,-0.092266,-9.8591,0,0,39.262,1,1,7772,3886
1626,1.3358e+07,2,-0.0016144,0.00016745,2.4766e-06,-0.18601,-0.092852,-9.8597,0,0,39.262,1,1,7772,3886
1629,1.3361e+07,2,-0.00076846,0.001338,-0.00038663,-0.1845,-0.092258,-9.8623,0,0,39.262,1,1,7772,3886
1632,1.3363e+07,2,-0.00046382,0.0015599,0.00035659,-0.18363,-0.089961,-9.8633,0,0,39.262,1,1,7772,3886
1635,1.3366e+07,2,0.00052793,0.001358,0.00041337,-0.18268,-0.085126,-9.8632,0,0,39.262,1,1,7772,3886
1666,1.3368e+07,2,0.00023568,0.00090224,-0.00092943,-0.182,-0.081762,-9.8582,0,0,39.262,1,1,7772,3886
1669,1.3372e+07,2,-0.00034324,0.00040881,-0.001247,-0.18281,-0.080232,-9.8544,0,0,39.262,1,1,7772,3886
1673,1.3374e+07,2,-0.00049611,0.00018109,-0.00040889,-0.18511,-0.080102,-9.8508,0,0,39.263,1,1,7772,3886
1679,1.3377e+07,2,-0.0005937,0.00020406,0.00047407,-0.18523,-0.080807,-9.8508,0,0,39.263,1,1,7772,3886
1710,1.3381e+07,2,-0.00075183,4.5966e-05,0.0011711,-0.18243,-0.080527,-9.8504,0,0,39.263,1,1,7772,3886
1713,1.3383e+07,2,-0.00087712,-0.00032165,0.0012645,-0.18044,-0.081293,-9.8486,0,0,39.263,1,1,7772,3886
1717,1.3384e+07,2,-0.00082719,-0.00073891,0.00047372,-0.17951,-0.082829,-9.8494,0,0,39.263,1,1,7772,3886
1720,1.3387e+07,2,-0.0013321,-0.0010893,-0.00011027,-0.18005,-0.08411,-9.8525,0,0,39.263,1,1,7772,3886
1751,1.3389e+07,2,-0.0012838,-0.0015298,0.00016994,-0.17945,-0.085386,-9.8532,0,0,39.263,1,1,7772,3886
1754,1.3392e+07,2,-0.0013653,-0.001909,3.9518e-05,-0.17836,-0.086932,-9.8544,0,0,39.263,1,1,7772,3886
1757,1.3395e+07,2,-0.0026714,-0.0020018,-8.5228e-05,-0.1777,-0.088281,-9.8588,0,0,39.264,1,1,7772,3886
1760,1.3398e+07,2,-0.0031512,-0.0019645,0.00048357,-0.17808,-0.087808,-9.8609,0,0,39.264,1,1,7772,3886
1791,1.34e+07,2,-0.0028428,-0.0019851,0.0012118,-0.18081,-0.086512,-9.859,0,0,39.264,1,1,7772,3886
1794,1.3403e+07,2,-0.0017512,-0.0024137,0.000125,-0.18611,-0.083967,-9.8537,0,0,39.264,1,1,7772,3886
1800,1.3406e+07,2,-0.0010793,-0.0023497,-0.0009073,-0.18961,-0.082588,-9.8471,0,0,39.264,1,1,7772,3886
1803,1.3408e+07,2,-0.00087986,-0.0024109,-0.0012113,-0.19142,-0.079847,-9.8378,0,0,39.264,1,1,7772,3886
1834,1.341e+07,2,-0.00043913,-0.0019071,-0.0019617,-0.18998,-0.077523,-9.834,0,0,39.264,1,1,7772,3886
1841,1.3413e+07,2,-0.00061405,-0.0017203,-0.0023361,-0.18885,-0.075906,-9.8355,0,0,39.264,1,1,7772,3886
1844,1.3416e+07,2,-0.00074172,-0.0023449,-0.0027195,-0.18884,-0.075712,-9.8403,0,0,39.264,1,1,7772,3886
1847,1.3418e+07,2,-0.00095251,-0.0039164,-0.0027639,-0.19002,-0.076945,-9.846,0,0,39.264,1,1,7772,3886
1878,1.3421e+07,2,-0.0018319,-0.0040666,-0.0026312,-0.19197,-0.078578,-9.852,0,0,39.264,1,1,7772,3886
1881,1.3423e+07,2,-0.0022113,-0.0030193,-0.0026526,-0.19278,-0.080737,-9.8557,0,0,39.264,1,1,7772,3886
1885,1.3426e+07,2,-0.0017158,-0.0024534,-0.0027212,-0.19436,-0.082372,-9.8567,0,0,39.264,1,1,7772,3886
1888,1.3429e+07,2,-0.0005607,-0.0018796,-0.0022165,-0.19921,-0.084474,-9.8551,0,0,39.264,1,1,7772,3886
1919,1.3432e+07,2,-0.00096382,-0.0018954,-0.00016541,-0.20531,-0.085552,-9.8517,0,0,39.264,1,1,7772,3886
1922,1.3434e+07,2,-0.0012042,-0.0026548,0.00043472,-0.20795,-0.085168,-9.8503,0,0,39.264,1,1,7772,3886
1925,1.3437e+07,2,-0.00059348,-0.0033518,0.00075524,-0.21071,-0.085017,-9.847,0,0,39.265,1,1,7772,3886
1928,1.344e+07,2,-0.0001585,-0.0029275,-0.00048835,-0.21309,-0.085731,-9.8469,0,0,39.265,1,1,7772,3886
1959,1.3442e+07,2,0.00016014,-0.001425,-0.0015883,-0.2163,-0.084248,-9.8484,0,0,39.265,1,1,7772,3886
1962,1.3444e+07,2,0.002004,-0.0016017,-0.0020438,-0.21836,-0.082762,-9.8502,0,0,39.265,1,1,7772,3886
1966,1.3447e+07,2,0.0024373,-0.0019784,-0.0012152,-0.21946,-0.081397,-9.8533,0,0,39.265,1,1,7772,3886
1969,1.345e+07,2,0.0015901,-0.0027989,0.00068039,-0.22062,-0.079663,-9.8566,0,0,39.265,1,1,7772,3886
2000,1.3452e+07,2,0.0013243,-0.0031007,0.0011875,-0.22133,-0.078009,-9.8596,0,0,39.265,1,1,7772,3886
2005,1.3458e+07,2,-0.00046096,-0.0010604,1.0289e-05,-0.21959,-0.071886,-9.8653,0,0,39.265,1,1,7772,3886
2008,1.346e+07,2,-0.0011026,0.00014634,-0.00054943,-0.21965,-0.071387,-9.8653,0,0,39.265,1,1,7772,3886
2039,1.3464e+07,2,-0.00057104,0.00075058,-0.00097289,-0.22143,-0.073039,-9.8671,0,0,39.265,1,1,7772,3886
2042,1.3466e+07,2,-0.00090494,0.00069749,-0.00064487,-0.22094,-0.075629,-9.8696,0,0,39.265,1,1,7772,3886
2045,1.3468e+07,2,-0.00041628,-0.00070221,-0.0010944,-0.21804,-0.079997,-9.8722,0,0,39.265,1,1,7772,3886
2049,1.347e+07,2,0.00051307,-0.0012699,-0.0011735,-0.21492,-0.081176,-9.8734,0,0,39.265,1,1,7772,3886
2080,1.3473e+07,2,0.0015122,-0.00058495,-0.00048027,-0.21018,-0.082884,-9.8713,0,0,39.265,1,1,7772,3886
2083,1.3475e+07,2,0.0014437,-0.00031943,0.00023393,-0.20844,-0.084872,-9.8676,0,0,39.265,1,1,7772,3886
2086,1.3478e+07,2,0.00068625,0.00050505,0.00092151,-0.20599,-0.086241,-9.8625,0,0,39.265,1,1,7772,3886
2090,1.3481e+07,2,2.0074e-05,0.00068057,0.00081205,-0.20504,-0.085665,-9.8604,0,0,39.265,1,1,7772,3886
2121,1.3484e+07,2,-0.00072648,0.00051358,0.0014279,-0.20249,-0.083206,-9.8543,0,0,39.265,1,1,7772,3886
2124,1.3486e+07,2,-0.0008384,0.00086896,0.0021925,-0.20032,-0.08135,-9.851,0,0,39.265,1,1,7772,3886
2127,1.3488e+07,2,-0.00071012,0.00097393,0.0028333,-0.19942,-0.080844,-9.8506,0,0,39.265,1,1,7772,3886
2130,1.3491e+07,2,-2.279e-05,0.00040768,0.0025037,-0.20047,-0.08063,-9.8508,0,0,39.266,1,1,7772,3886
2161,1.3493e+07,2,0.00044942,0.00043028,-0.00047969,-0.20067,-0.082384,-9.8527,0,0,39.266,1,1,7772,3886
2164,1.3497e+07,2,0.0013127,0.00094963,-0.001382,-0.20052,-0.084437,-9.8549,0,0,39.266,1,1,7772,3886
2167,1.3499e+07,2,0.00065591,0.0017797,-0.0016056,-0.19978,-0.090134,-9.8583,0,0,39.266,1,1,7772,3886
2172,1.3502e+07,2,-6.7303e-05,0.0025661,-0.0008693,-0.19986,-0.094392,-9.8588,0,0,39.266,1,1,7772,3886
2203,1.3504e+07,2,-0.00056483,0.0029656,2.9322e-05,-0.2021,-0.10053,-9.8562,0,0,39.266,1,1,7772,3886
2206,1.3507e+07,2,-0.0018891,0.0014592,8.055e-05,-0.20529,-0.10363,-9.8497,0,0,39.266,1,1,7772,3886
2209,1.351e+07,2,-0.0024733,0.0012797,0.00049452,-0.20819,-0.1021,-9.8475,0,0,39.266,1,1,7772,3886
2213,1.3511e+07,2,-0.0023148,0.00093061,0.00078859,-0.21018,-0.099399,-9.8475,0,0,39.266,1,1,7772,3886
2244,1.3514e+07,2,-0.0016947,0.00023504,0.0011904,-0.21087,-0.096746,-9.8473,0,0,39.266,1,1,7772,3886
2252,1.3517e+07,2,-0.0020275,3.7213e-06,0.0017269,-0.2091,-0.093274,-9.8491,0,0,39.266,1,1,7772,3886
2255,1.352e+07,2,-0.0021668,-3.4654e-05,0.0020207,-0.20635,-0.091441,-9.851,0,0,39.266,1,1,7772,3886
2258,1.3521e+07,2,-0.00173,-3.3624e-05,0.0017291,-0.2036,-0.090078,-9.8573,0,0,39.267,1,1,7772,3886
2289,1.3524e+07,2,-0.0013841,0.00053837,0.00071361,-0.20243,-0.090179,-9.8604,0,0,39.267,1,1,7772,3886
2292,1.3527e+07,2,-0.00070188,0.0013958,-0.00046364,-0.20071,-0.089686,-9.8617,0,0,39.267,1,1,7772,3886
2295,1.3529e+07,2,-0.00051021,0.0011562,-0.00058236,-0.19987,-0.089279,-9.861,0,0,39.267,1,1,7772,3886
2299,1.3532e+07,2,-0.00098299,0.00071321,0.00041312,-0.1974,-0.089663,-9.8609,0,0,39.267,1,1,7772,3886
2330,1.3535e+07,2,-0.0012409,0.00059691,0.0018751,-0.1934,-0.091638,-9.8606,0,0,39.267,1,1,7772,3886
2333,1.3538e+07,2,-0.0016618,0.00073175,0.0026381,-0.19035,-0.092798,-9.8606,0,0,39.267,1,1,7772,3886
2336,1.354e+07,2,-0.0016238,0.00034011,0.001887,-0.18705,-0.092699,-9.8616,0,0,39.267,1,1,7772,3886
2339,1.3542e+07,2,-0.0018445,2.5711e-05,0.0020007,-0.18513,-0.090996,-9.8651,0,0,39.267,1,1,7772,3886
2370,1.3545e+07,2,-0.0017972,-0.00081075,0.0014418,-0.18352,-0.086114,-9.8686,0,0,39.267,1,1,7772,3886
2373,1.3547e+07,2,-0.0020883,-0.0016013,0.00086586,-0.18371,-0.083036,-9.8684,0,0,39.267,1,1,7772,3886
2376,1.3551e+07,2,-0.0024167,-0.0022559,-0.00014847,-0.18425,-0.077764,-9.868,0,0,39.267,1,1,7772,3886
2379,1.3552e+07,2,-0.0013813,-0.0016127,-0.000222,-0.18601,-0.074486,-9.8702,0,0,39.267,1,1,7772,3886
2411,1.3555e+07,2,-0.00011958,-0.0013381,0.00061875,-0.18633,-0.072506,-9.8717,0,0,39.267,1,1,7772,3886
2414,1.3557e+07,2,0.0005745,-0.0008502,0.00032702,-0.18586,-0.071925,-9.8726,0,0,39.267,1,1,7772,3886
2417,1.3561e+07,2,-0.00011791,-7.7687e-05,0.00043506,-0.18595,-0.071676,-9.8702,0,0,39.267,1,1,7772,3886
2420,1.3564e+07,2,-0.00077705,0.00067063,0.00051391,-0.18809,-0.068462,-9.8657,0,0,39.267,1,1,7772,3886
2423,1.3565e+07,2,3.1731e-05,6.0737e-05,0.00059075,-0.18963,-0.066952,-9.8659,0,0,39.267,1,1,7772,3886
2454,1.3568e+07,2,5.5077e-05,-0.00041688,5.7473e-05,-0.19067,-0.067729,-9.867,0,0,39.267,1,1,7772,3886
2457,1.357e+07,2,-8.033e-05,-0.00034959,-0.00036758,-0.19058,-0.069185,-9.8666,0,0,39.267,1,1,7772,3886
2460,1.3573e+07,2,0.00084431,-2.7399e-05,-0.0013128,-0.19092,-0.071638,-9.8655,0,0,39.267,1,1,7772,3886
2464,1.3576e+07,2,0.00095656,-0.00071447,-0.0013461,-0.19093,-0.074924,-9.8634,0,0,39.267,1,1,7772,3886
2467,1.3578e+07,2,0.00098654,-0.0012419,-0.0013547,-0.19018,-0.080406,-9.8588,0,0,39.267,1,1,7772,3886
2498,1.358e+07,2,0.0012162,-0.0014624,-0.0018016,-0.18893,-0.082553,-9.8546,0,0,39.267,1,1,7772,3886
2501,1.3583e+07,2,0.00022265,-0.0011951,-0.0015976,-0.18688,-0.083992,-9.8493,0,0,39.267,1,1,7772,3886
2505,1.3586e+07,2,-0.001192,-0.0006018,-0.0020734,-0.18609,-0.084632,-9.8477,0,0,39.267,1,1,7772,3886
2508,1.3588e+07,2,-0.00095966,0.00018248,-0.0017512,-0.18426,-0.084534,-9.8453,0,0,39.267,1,1,7772,3886
2539,1.3591e+07,2,-0.00042629,0.00053976,-0.0018157,-0.18311,-0.083955,-9.8447,0,0,39.267,1,1,7772,3886
2542,1.3593e+07,2,0.00013377,0.0006,-0.0010838,-0.18374,-0.081987,-9.8426,0,0,39.267,1,1,7772,3886
2545,1.3597e+07,2,0.00035378,0.00095628,-0.0013022,-0.18321,-0.080864,-9.8422,0,0,39.267,1,1,7772,3886
2548,1.3599e+07,2,0.000917,0.001724,-0.0014039,-0.18334,-0.081518,-9.8445,0,0,39.267,1,1,7772,3886
2579,1.3601e+07,2,0.0018045,0.0013649,-0.0012309,-0.18536,-0.082039,-9.8473,0,0,39.267,1,1,7772,3886
2584,1.3604e+07,2,0.001699,0.00079783,-6.7738e-05,-0.18601,-0.082392,-9.8493,0,0,39.267,1,1,7772,3886
2588,1.3606e+07,2,0.001272,0.00029036,0.00031604,-0.18792,-0.085154,-9.8556,0,0,39.267,1,1,7772,3886
2591,1.361e+07,2,0.00036059,-0.00023941,-0.00043126,-0.18785,-0.087442,-9.8575,0,0,39.267,1,1,7772,3886
2622,1.3612e+07,2,-0.00074688,-0.00067894,-0.00041313,-0.18613,-0.090486,-9.8602,0,0,39.267,1,1,7772,3886
2625,1.3614e+07,2,-0.000164,-0.00042159,0.0001148,-0.18386,-0.09199,-9.8631,0,0,39.267,1,1,7772,3886
2628,1.3617e+07,2,4.3365e-05,-0.00061201,0.00077794,-0.18268,-0.091989,-9.8628,0,0,39.267,1,1,7772,3886
2636,1.362e+07,2,0.00058895,-0.0007127,0.001137,-0.18203,-0.089584,-9.8622,0,0,39.267,1,1,7772,3886
2667,1.3623e+07,2,0.00066234,-0.00057918,0.0010657,-0.17988,-0.087089,-9.8626,0,0,39.267,1,1,7772,3886
2670,1.3625e+07,2,0.0010631,-0.00085891,0.0010889,-0.17842,-0.085867,-9.8641,0,0,39.267,1,1,7772,3886
2674,1.3628e+07,2,0.0017562,-0.00074799,0.00047352,-0.17523,-0.084517,-9.8641,0,0,39.267,1,1,7772,3886
2677,1.363e+07,2,0.0016721,-0.00031175,-0.0004686,-0.17252,-0.083607,-9.8621,0,0,39.267,1,1,7772,3886
2708,1.3632e+07,2,0.0019301,4.1656e-05,-0.0012403,-0.17148,-0.082222,-9.8588,0,0,39.267,1,1,7772,3886
2711,1.3635e+07,2,0.001687,-0.00018669,-0.0014462,-0.17371,-0.0825,-9.8571,0,0,39.267,1,1,7772,3886
2714,1.3638e+07,2,0.001014,-0.0012538,-0.00071159,-0.17626,-0.08405,-9.8548,0,0,39.267,1,1,7772,3886
2717,1.3641e+07,2,0.00080643,-0.0015816,-0.00032739,-0.17892,-0.086918,-9.8537,0,0,39.267,1,1,7772,3886
2748,1.3643e+07,2,0.00063695,-0.0017279,0.00019243,-0.18247,-0.090906,-9.8539,0,0,39.267,1,1,7772,3886
2751,1.3646e+07,2,0.0014252,-0.0018106,-0.00014096,-0.18535,-0.095398,-9.8541,0,0,39.266,1,1,7772,3886
2755,1.3648e+07,2,0.0010179,-0.0018246,0.00071034,-0.18657,-0.097251,-9.8548,0,0,39.266,1,1,7772,3886
2758,1.3651e+07,2,-4.9199e-05,-0.001192,0.0011882,-0.1885,-0.097137,-9.8581,0,0,39.266,1,1,7772,3886
2789,1.3653e+07,2,-0.00059424,-0.00040787,0.00159,-0.18969,-0.095404,-9.8645,0,0,39.266,1,1,7772,3886
2792,1.3656e+07,2,-0.00095081,0.00050164,0.0019606,-0.19052,-0.093849,-9.8691,0,0,39.266,1,1,7772,3886
2796,1.3658e+07,2,-0.0019663,0.00063745,0.0013548,-0.19449,-0.090613,-9.8744,0,0,39.266,1,1,7772,3886
2801,1.3667e+07,2,-0.0016967,-0.002714,0.00055261,-0.20308,-0.084498,-9.8697,0,0,39.266,1,1,7772,3886
2832,1.367e+07,2,-0.00067247,-0.0028171,0.0014365,-0.20365,-0.082378,-9.8632,0,0,39.266,1,1,7772,3886
2835,1.3672e+07,2,-0.00073391,-0.0025113,0.0015654,-0.20491,-0.081041,-9.8586,0,0,39.266,1,1,7772,3886
2838,1.3675e+07,2,-0.00037419,-0.0015298,0.0017799,-0.20605,-0.08064,-9.8544,0,0,39.266,1,1,7772,3886
2841,1.3677e+07,2,-0.00036171,-0.00090503,0.00093289,-0.20748,-0.080785,-9.8534,0,0,39.266,1,1,7772,3886
2872,1.368e+07,2,-0.00063564,0.00021741,-0.00035501,-0.21015,-0.081713,-9.8535,0,0,39.266,1,1,7772,3886
2877,1.3682e+07,2,-0.001226,0.00069529,-0.0012737,-0.21165,-0.083466,-9.8561,0,0,39.266,1,1,7772,3886
2880,1.3685e+07,2,-0.0011708,-0.00066626,-0.0012418,-0.21249,-0.085696,-9.8607,0,0,39.266,1,1,7772,3886
2883,1.3688e+07,2,-0.00038656,-0.0024156,-0.00086447,-0.21149,-0.086222,-9.8606,0,0,39.266,1,1,7772,3886
2914,1.369e+07,2,-0.00038946,-0.0037005,-0.00026489,-0.20947,-0.086049,-9.8626,0,0,39.266,1,1,7772,3886
2917,1.3693e+07,2,-0.00068295,-0.002676,0.0014269,-0.20822,-0.083536,-9.8678,0,0,39.266,1,1,7772,3886
2920,1.3695e+07,2,-0.00075295,-0.0020638,0.001539,-0.20651,-0.08266,-9.8705,0,0,39.266,1,1,7772,3886
2923,1.3697e+07,2,-0.0007002,-0.0013466,0.001345,-0.20508,-0.083429,-9.8709,0,0,39.266,1,1,7772,3886
2954,1.37e+07,2,-0.00081546,-0.0011809,0.0011203,-0.20396,-0.084165,-9.8696,0,0,39.266,1,1,7772,3886
2958,1.3702e+07,2,-0.001284,-0.0012166,-5.2825e-05,-0.20171,-0.084553,-9.8667,0,0,39.266,1,1,7772,3886
2961,1.3705e+07,2,-0.0010307,-0.00099059,-0.00084622,-0.1998,-0.084481,-9.8644,0,0,39.266,1,1,7772,3886
2964,1.3708e+07,2,-0.00017766,-0.0011715,-0.00023717,-0.19845,-0.082978,-9.8607,0,0,39.266,1,1,7772,3886
2995,1.3711e+07,2,-0.00010782,-0.0019333,-0.00023382,-0.19622,-0.079865,-9.8529,0,0,39.266,1,1,7772,3886
3000,1.3713e+07,2,-0.00064588,-0.0014675,0.00045882,-0.19543,-0.07882,-9.849,0,0,39.266,1,1,7772,3886
3003,1.3716e+07,2,-0.00223,-0.001196,-0.00021914,-0.19447,-0.07762,-9.8446,0,0,39.266,1,1,7772,3886
3006,1.3718e+07,2,-0.003097,-0.0010107,-0.00071349,-0.19451,-0.076849,-9.8428,0,0,39.266,1,1,7772,3886
3037,1.3721e+07,2,-0.0030182,-0.0010325,-0.0015592,-0.19673,-0.077234,-9.842,0,0,39.266,1,1,7772,3886
3044,1.3724e+07,2,-0.0022236,-0.0014917,-0.002092,-0.20014,-0.07551,-9.8424,0,0,39.266,1,1,7772,3886
3047,1.3726e+07,2,-0.001419,-0.0016513,-0.0020945,-0.20124,-0.073741,-9.8428,0,0,39.266,1,1,7772,3886
3051,1.3729e+07,2,-0.00075579,-0.0022255,-0.0010873,-0.20039,-0.072395,-9.8429,0,0,39.266,1,1,7772,3886
3082,1.3732e+07,2,-0.00055629,-0.0021796,-0.00032859,-0.19718,-0.071406,-9.846,0,0,39.266,1,1,7772,3886
3086,1.3734e+07,2,-0.0011075,-0.0018313,-0.00043658,-0.1949,-0.071544,-9.848,0,0,39.266,1,1,7772,3886
3089,1.3737e+07,2,-0.0014573,-0.001316,-0.00093106,-0.1928,-0.073372,-9.8522,0,0,39.266,1,1,7772,3886
3092,1.3739e+07,2,-0.0013889,-0.00088833,-0.0021121,-0.19125,-0.07559,-9.8552,0,0,39.266,1,1,7772,3886
3123,1.3742e+07,2,-0.001409,-0.00065931,-0.0017197,-0.19009,-0.079823,-9.8618,0,0,39.266,1,1,7772,3886
3126,1.3744e+07,2,-0.0017187,-0.00077956,-0.0012664,-0.19016,-0.082274,-9.866,0,0,39.266,1,1,7772,3886
3129,1.3747e+07,2,-0.0011506,-0.0011169,-0.00095682,-0.19217,-0.083731,-9.8725,0,0,39.266,1,1,7772,3886
3132,1.375e+07,2,-0.0003541,-0.0010068,-0.00083851,-0.19304,-0.083633,-9.8758,0,0,39.266,1,1,7772,3886
3163,1.3752e+07,2,0.00066402,0.00016211,-0.00091257,-0.19361,-0.083,-9.8759,0,0,39.266,1,1,7772,3886
3167,1.3755e+07,2,0.00093467,0.00025941,-0.0014135,-0.19426,-0.083308,-9.8747,0,0,39.266,1,1,7772,3886
3170,1.3757e+07,2,0.00075801,-0.00059264,-0.0025699,-0.19551,-0.082704,-9.8731,0,0,39.266,1,1,7772,3886
3173,1.376e+07,2,0.0012535,-0.0010794,-0.0021541,-0.19661,-0.082051,-9.873,0,0,39.266,1,1,7772,3886
3204,1.3762e+07,2,0.0010863,-0.0011305,-0.0014462,-0.19866,-0.080574,-9.872,0,0,39.266,1,1,7772,3886
3207,1.3766e+07,2,-0.00017185,-0.0010499,-0.0010817,-0.20292,-0.078018,-9.8685,0,0,39.266,1,1,7772,3886
3210,1.3767e+07,2,-0.00028841,-0.00083151,-0.00031937,-0.20467,-0.077461,-9.8656,0,0,39.266,1,1,7772,3886
3213,1.3773e+07,2,0.0016204,-0.00054614,0.00044848,-0.20402,-0.081147,-9.8558,0,0,39.266,1,1,7772,3886
3245,1.3775e+07,2,0.0025918,-0.00035565,0.00059556,-0.20325,-0.082676,-9.8483,0,0,39.266,1,1,7772,3886
3248,1.3778e+07,2,0.0025135,6.1635e-05,0.00041878,-0.20389,-0.083876,-9.8439,0,0,39.266,1,1,7772,3886
3251,1.378e+07,2,0.0016946,-0.00011041,0.00093045,-0.20473,-0.086014,-9.841,0,0,39.266,1,1,7772,3886
3254,1.3783e+07,2,-0.00017484,-0.00079916,0.0015725,-0.20471,-0.08982,-9.8376,0,0,39.266,1,1,7772,3886
3287,1.3785e+07,2,-0.00074647,-0.00072764,0.0011615,-0.20484,-0.092925,-9.8357,0,0,39.266,1,1,7772,3886
3291,1.3789e+07,2,1.1525e-05,-0.00068428,0.00050137,-0.20536,-0.094838,-9.8361,0,0,39.266,1,1,7772,3886
3294,1.3791e+07,2,-0.00011004,4.6649e-05,-0.0007218,-0.20603,-0.096876,-9.8375,0,0,39.266,1,1,7772,3886
3297,1.3793e+07,2,-0.00063969,0.00037786,-0.00055795,-0.20588,-0.097101,-9.8379,0,0,39.266,1,1,7772,3886
3328,1.3796e+07,2,-0.00056003,0.00055553,0.00019929,-0.20636,-0.095971,-9.8418,0,0,39.266,1,1,7772,3886
3331,1.3798e+07,2,-5.3494e-05,0.00086749,0.00089884,-0.20811,-0.094291,-9.846,0,0,39.266,1,1,7772,3886
3334,1.3801e+07,2,0.0013731,0.0014493,0.0012259,-0.20919,-0.09127,-9.8501,0,0,39.266,1,1,7772,3886
3337,1.3803e+07,2,0.00091256,0.00095645,0.0015906,-0.2089,-0.09029,-9.8497,0,0,39.266,1,1,7772,3886
3368,1.3805e+07,2,-0.00058064,-0.00016717,0.0017072,-0.20742,-0.08947,-9.8505,0,0,39.266,1,1,7772,3886
3372,1.3808e+07,2,-0.0013831,-0.00071393,0.0017526,-0.20583,-0.087721,-9.8516,0,0,39.266,1,1,7772,3886
3376,1.3811e+07,2,-0.0011746,-2.2934e-05,0.0018942,-0.20387,-0.085268,-9.854,0,0,39.266,1,1,7772,3886
3379,1.3813e+07,2,-0.0011313,0.00027329,0.0013416,-0.20233,-0.086407,-9.8563,0,0,39.266,1,1,7772,3886
3410,1.3816e+07,2,-0.0011261,6.1551e-05,0.00023267,-0.20017,-0.091137,-9.8607,0,0,39.266,1,1,7772,3886
3413,1.3818e+07,2,-0.001556,0.00016659,0.00020755,-0.19933,-0.091928,-9.8632,0,0,39.266,1,1,7772,3886
3416,1.3821e+07,2,-0.0023055,-0.00012762,0.00052727,-0.19709,-0.090199,-9.8636,0,0,39.267,1,1,7772,3886
3420,1.3823e+07,2,-0.0026845,-0.00032817,0.001225,-0.1954,-0.089579,-9.859,0,0,39.267,1,1,7772,3886
3455,1.3826e+07,2,-0.0027173,-0.00080175,0.0015276,-0.19348,-0.089211,-9.8536,0,0,39.267,1,1,7772,3886
3459,1.3828e+07,2,-0.0024319,-0.00089469,0.0017316,-0.19277,-0.088018,-9.8474,0,0,39.267,1,1,7772,3886
3462,1.3831e+07,2,-0.0012968,-0.00052232,0.0019864,-0.19469,-0.086731,-9.8385,0,0,39.267,1,1,7772,3886
3465,1.3833e+07,2,-0.00099766,-0.00013869,0.0022807,-0.1954,-0.086523,-9.8351,0,0,39.267,1,1,7772,3886
3496,1.3836e+07,2,-0.0010901,0.0004031,0.0013124,-0.19449,-0.085011,-9.8361,0,0,39.267,1,1,7772,3886
3500,1.3838e+07,2,-0.00075569,0.00074282,0.0010024,-0.1924,-0.082889,-9.8392,0,0,39.267,1,1,7772,3886
3503,1.3841e+07,2,-0.0011629,0.00088055,0.00063811,-0.1915,-0.082203,-9.842,0,0,39.267,1,1,7772,3886
3507,1.3844e+07,2,-0.0019441,0.0012197,0.00063163,-0.1903,-0.082002,-9.8466,0,0,39.267,1,1,7772,3886
3538,1.3846e+07,2,-0.0027662,0.0012826,0.0016394,-0.1877,-0.082219,-9.858,0,0,39.267,1,1,7772,3886
3541,1.3849e+07,2,-0.0032618,0.0006217,0.0021803,-0.18532,-0.083015,-9.8662,0,0,39.267,1,1,7772,3886
3544,1.3851e+07,2,-0.0034396,-1.1283e-05,0.0023357,-0.1844,-0.082527,-9.8681,0,0,39.267,1,1,7772,3886
3549,1.3854e+07,2,-0.0030254,-0.0012085,0.0022114,-0.18359,-0.080346,-9.8709,0,0,39.267,1,1,7772,3886
3580,1.3857e+07,2,-0.0027698,-0.0011733,0.0014727,-0.18349,-0.079865,-9.8722,0,0,39.267,1,1,7772,3886
3584,1.3858e+07,2,-0.0025593,-0.00036066,0.00032734,-0.18425,-0.07833,-9.8754,0,0,39.267,1,1,7772,3886
3587,1.3862e+07,2,-0.0019983,0.00036404,-0.0011783,-0.18488,-0.076828,-9.8752,0,0,39.267,1,1,7772,3886
3590,1.3864e+07,2,-0.00055762,8.6104e-06,-0.0024799,-0.18537,-0.073757,-9.8706,0,0,39.267,1,1,7772,3886
3621,1.3866e+07,2,-0.00019879,-0.0010377,-0.0015355,-0.18472,-0.069709,-9.8692,0,0,39.267,1,1,7772,3886
3624,1.3871e+07,2,-0.0015834,-0.0012999,0.0007803,-0.1833,-0.061338,-9.8737,0,0,39.267,1,1,7772,3886
3627,1.3875e+07,2,-0.00081076,-0.001712,0.0015854,-0.18298,-0.060037,-9.8736,0,0,39.267,1,1,7772,3886
3630,1.3876e+07,2,-0.00020245,-0.0021098,0.0015164,-0.18321,-0.059993,-9.8744,0,0,39.267,1,1,7772,3886
3661,1.3879e+07,2,-0.00039637,-0.0024913,-0.00053062,-0.18393,-0.062389,-9.8771,0,0,39.267,1,1,7772,3886
3664,1.3882e+07,2,-0.0013186,-0.0023388,-0.0021287,-0.18511,-0.065622,-9.8767,0,0,39.267,1,1,7772,3886
3667,1.3884e+07,2,-0.001222,-0.0025272,-0.0031572,-0.18758,-0.068741,-9.8767,0,0,39.267,1,1,7772,3886
3670,1.3886e+07,2,-0.00012707,-0.002302,-0.003508,-0.19133,-0.072861,-9.877,0,0,39.267,1,1,7772,3886
3702,1.3889e+07,2,0.00069447,-0.0020298,-0.0030924,-0.19256,-0.075934,-9.876,0,0,39.267,1,1,7772,3886
3705,1.3892e+07,2,0.00056402,-0.0015381,-0.0020352,-0.19402,-0.080515,-9.8741,0,0,39.267,1,1,7772,3886
3708,1.3894e+07,2,-7.2129e-06,-0.0015944,-0.0016275,-0.19472,-0.082536,-9.8708,0,0,39.267,1,1,7772,3886
3711,1.3897e+07,2,-8.2494e-05,-0.0013486,-0.0017996,-0.1945,-0.083979,-9.8662,0,0,39.267,1,1,7772,3886
3742,1.3899e+07,2,0.00012734,-0.0013838,-0.002382,-0.19384,-0.086128,-9.8613,0,0,39.266,1,1,7772,3886
3745,1.3902e+07,2,-0.00044602,-0.0012316,-0.0032686,-0.19287,-0.087107,-9.8591,0,0,39.266,1,1,7772,3886
3748,1.3904e+07,2,-0.0007062,-0.0010545,-0.0037097,-0.19227,-0.086848,-9.8569,0,0,39.266,1,1,7772,3886
3751,1.3906e+07,2,-5.6966e-05,-0.000549,-0.0040256,-0.19186,-0.08643,-9.8552,0,0,39.267,1,1,7772,3886
3783,1.3909e+07,2,0.0010613,0.00044837,-0.0039188,-0.19219,-0.085914,-9.852,0,0,39.267,1,1,7772,3886
3786,1.3912e+07,2,0.001263,0.00082582,-0.0028406,-0.19287,-0.084214,-9.8477,0,0,39.267,1,1,7772,3886
3789,1.3914e+07,2,-3.9312e-06,0.00030325,-0.00086188,-0.19337,-0.079611,-9.8446,0,0,39.267,1,1,7772,3886
3792,1.3917e+07,2,-0.0011039,0.00032906,-0.00024434,-0.19341,-0.077935,-9.8469,0,0,39.267,1,1,7772,3886
3823,1.3919e+07,2,-0.0019078,0.00010946,-0.00090718,-0.19317,-0.076839,-9.8497,0,0,39.267,1,1,7772,3886
3826,1.3921e+07,2,-0.0014004,-0.00055974,-0.001881,-0.19248,-0.076162,-9.8506,0,0,39.267,1,1,7772,3886
3831,1.3924e+07,2,-0.000655,-0.00097815,-0.0021982,-0.19117,-0.077495,-9.8525,0,0,39.267,1,1,7772,3886
3838,1.3927e+07,2,1.3518e-05,0.00019399,-0.0017786,-0.19064,-0.079256,-9.8527,0,0,39.267,1,1,7772,3886
3869,1.393e+07,2,0.00059182,0.0016057,-0.0021557,-0.18667,-0.079688,-9.8507,0,0,39.267,1,1,7772,3886
3873,1.3932e+07,2,0.0001866,0.0015591,-0.0021994,-0.18478,-0.079151,-9.8527,0,0,39.267,1,1,7772,3886
3876,1.3935e+07,2,0.00069466,0.00022929,-0.0013282,-0.18439,-0.079751,-9.8571,0,0,39.267,1,1,7766,3883
3879,1.3938e+07,2,0.0004233,-0.00012696,-0.001257,-0.18582,-0.080088,-9.8585,0,0,39.267,1,1,7766,3883
3910,1.394e+07,2,0.00028942,0.0002973,-0.00060845,-0.18761,-0.078576,-9.8589,0,0,39.267,1,1,7766,3883
3913,1.3943e+07,2,0.00095243,0.00024943,-2.6739e-05,-0.18955,-0.075029,-9.857,0,0,39.268,1,1,7766,3883
3916,1.3946e+07,2,0.0011409,0.00057711,-0.00059487,-0.19211,-0.073085,-9.8558,0,0,39.268,1,1,7766,3883
3919,1.3948e+07,2,0.0010903,0.0013485,-6.732e-05,-0.19493,-0.071753,-9.8545,0,0,39.268,1,1,7766,3883
3950,1.3951e+07,2,0.00018555,0.0012911,-0.00034469,-0.19792,-0.071604,-9.8535,0,0,39.268,1,1,7766,3883
3954,1.3954e+07,2,0.00024313,0.00098162,0.00014579,-0.20133,-0.072346,-9.8509,0,0,39.268,1,1,7766,3883
3957,1.3956e+07,2,0.0003685,0.00047055,0.00027913,-0.20407,-0.07363,-9.8475,0,0,39.268,1,1,7766,3883
3960,1.3959e+07,2,-0.0010818,-0.0001825,-0.00030227,-0.20626,-0.076468,-9.845,0,0,39.268,1,1,7766,3883
3991,1.3962e+07,2,-0.0021627,-0.00089571,8.0368e-05,-0.20558,-0.078374,-9.8455,0,0,39.268,1,1,7766,3883
3996,1.3964e+07,2,-0.0022062,-0.00072706,0.00078082,-0.20286,-0.081119,-9.8494,0,0,39.268,1,1,7766,3883
3999,1.3966e+07,2,-0.0017298,7.737e-05,0.00013679,-0.20003,-0.083916,-9.8546,0,0,39.268,1,1,7766,3883
4002,1.3969e+07,2,-0.0016758,4.3326e-05,-9.9814e-05,-0.19762,-0.085322,-9.8577,0,0,39.269,1,1,7766,3883
4033,1.3977e+07,2,-0.0018876,0.00086441,0.00050367,-0.19145,-0.080943,-9.8596,0,0,39.269,1,1,7766,3883
4036,1.398e+07,2,-0.0015782,0.00022934,0.00075384,-0.19001,-0.077249,-9.8579,0,0,39.269,1,1,7766,3883
4067,1.3983e+07,2,-0.00083348,-0.0005551,0.0011157,-0.18831,-0.074718,-9.8547,0,0,39.269,1,1,7766,3883
4070,1.3985e+07,2,-0.00016144,-0.001085,0.0015485,-0.18586,-0.071203,-9.8499,0,0,39.269,1,1,7766,3883
4073,1.3987e+07,2,-5.9515e-06,-0.0014007,0.00166,-0.185,-0.068986,-9.8483,0,0,39.269,1,1,7766,3883
4077,1.399e+07,2,-0.00060998,-0.0017445,0.0022449,-0.18351,-0.068874,-9.8475,0,0,39.27,1,1,7766,3883
4108,1.3992e+07,2,-0.0010397,-0.0019212,0.0017515,-0.18243,-0.070399,-9.8463,0,0,39.27,1,1,7766,3883
4111,1.3995e+07,2,-0.0011017,-0.0022148,-0.00034442,-0.18166,-0.0714,-9.8416,0,0,39.27,1,1,7766,3883
4114,1.3998e+07,2,-0.0012651,-0.0019064,-0.00053362,-0.18215,-0.072731,-9.8387,0,0,39.27,1,1,7766,3883
4118,1.4e+07,2,-0.0016579,-0.0026865,0.00089409,-0.18535,-0.075696,-9.8387,0,0,39.27,1,1,7766,3883
4149,1.4002e+07,2,-0.00029767,-0.0023559,0.001707,-0.18836,-0.077476,-9.8388,0,0,39.27,1,1,7766,3883
4152,1.4005e+07,2,0.00084862,-0.0020957,0.0017737,-0.19011,-0.079782,-9.8392,0,0,39.27,1,1,7766,3883
4155,1.4007e+07,2,0.0015941,-0.0018136,0.00081255,-0.19196,-0.081856,-9.8394,0,0,39.27,1,1,7766,3883
4158,1.401e+07,2,0.00063293,-0.0015525,0.00029172,-0.19557,-0.082864,-9.8394,0,0,39.271,1,1,7766,3883
4189,1.4013e+07,2,-0.00034681,-0.0022163,0.0015592,-0.19824,-0.082786,-9.8402,0,0,39.271,1,1,7766,3883
4192,1.4016e+07,2,-0.0003608,-0.0027955,0.0021502,-0.2008,-0.082791,-9.841,0,0,39.271,1,1,7766,3883
4195,1.4018e+07,2,-0.00027257,-0.0026997,0.0019138,-0.20364,-0.081433,-9.8413,0,0,39.271,1,1,7766,3883
4199,1.4021e+07,2,0.00012951,-0.0016051,0.0019165,-0.20497,-0.077831,-9.8406,0,0,39.271,1,1,7766,3883
4230,1.4023e+07,2,-5.6568e-05,-0.0010604,0.0027979,-0.20588,-0.074904,-9.8406,0,0,39.271,1,1,7766,3883
4233,1.4026e+07,2,0.00049033,-0.0011946,0.0033133,-0.20658,-0.071642,-9.8413,0,0,39.272,1,1,7766,3883
4237,1.4028e+07,2,0.00077791,-0.0009808,0.0023427,-0.20591,-0.06885,-9.8426,0,0,39.272,1,1,7766,3883
4244,1.4031e+07,2,0.00051751,-0.00075353,0.0020122,-0.20554,-0.069361,-9.8436,0,0,39.272,1,1,7766,3883
4277,1.4033e+07,2,0.00020783,-0.0010424,0.0014785,-0.20419,-0.071749,-9.8473,0,0,39.272,1,1,7766,3883
4280,1.4036e+07,2,8.9628e-05,-0.0013142,0.00090274,-0.20177,-0.073766,-9.8503,0,0,39.272,1,1,7766,3883
4283,1.4039e+07,2,0.0001108,-0.0016393,0.00025517,-0.1986,-0.076876,-9.8543,0,0,39.272,1,1,7766,3883
4286,1.4041e+07,2,-0.00089425,-0.0015618,-0.00062719,-0.19617,-0.080603,-9.8585,0,0,39.273,1,1,7766,3883
4317,1.4043e+07,2,-0.00094057,-0.00089678,-0.0009451,-0.19443,-0.084484,-9.862,0,0,39.273,1,1,7766,3883
4320,1.4046e+07,2,-0.00072295,-0.00032016,-0.0018989,-0.19441,-0.085045,-9.8649,0,0,39.273,1,1,7766,3883
4323,1.4049e+07,2,-0.00041046,-0.00032734,-0.0022474,-0.19557,-0.08506,-9.8658,0,0,39.273,1,1,7766,3883
4327,1.4051e+07,2,2.5361e-05,0.00023368,-0.0023421,-0.19924,-0.085583,-9.866,0,0,39.273,1,1,7766,3883
4358,1.4054e+07,2,-0.00043274,0.00022338,-0.0023758,-0.20244,-0.083577,-9.8677,0,0,39.274,1,1,7766,3883
4362,1.4056e+07,2,-0.00048462,0.00022427,-0.0012171,-0.20354,-0.082225,-9.8663,0,0,39.274,1,1,7766,3883
4367,1.4059e+07,2,-0.0002448,0.00024539,-0.00032112,-0.20443,-0.08197,-9.8635,0,0,39.274,1,1,7766,3883
4370,1.4061e+07,2,0.00013156,0.0006938,-3.5081e-05,-0.20519,-0.082236,-9.8587,0,0,39.274,1,1,7766,3883
4401,1.4064e+07,2,0.00073717,0.00044883,-0.00024448,-0.20573,-0.08336,-9.8504,0,0,39.274,1,1,7766,3883
4404,1.4066e+07,2,0.0010921,0.00084907,-0.0006009,-0.20489,-0.084387,-9.8443,0,0,39.275,1,1,7766,3883
4407,1.4069e+07,2,0.0015063,0.0020716,-0.00107,-0.20257,-0.088053,-9.8371,0,0,39.275,1,1,7766,3883
4411,1.4071e+07,2,0.0010865,0.0016719,-0.0012699,-0.20043,-0.089525,-9.8325,0,0,39.275,1,1,7766,3883
4442,1.4078e+07,2,-0.0018261,-0.0010284,-0.0011124,-0.1972,-0.090728,-9.8253,0,0,39.276,1,1,7766,3883
4445,1.4079e+07,2,-0.0018553,-0.00116,-0.00023263,-0.19595,-0.089884,-9.8288,0,0,39.276,1,1,7766,3883
4448,1.4082e+07,2,-0.001367,-0.0005262,-0.00052936,-0.19587,-0.0889,-9.8319,0,0,39.276,1,1,7766,3883
4479,1.4085e+07,2,-0.0010022,8.7134e-05,-0.0007266,-0.19684,-0.088368,-9.8367,0,0,39.276,1,1,7766,3883
4482,1.4087e+07,2,-0.0010182,0.00059825,-0.00073605,-0.19907,-0.088569,-9.8441,0,0,39.276,1,1,7766,3883
4485,1.409e+07,2,-0.00086366,0.00075467,-0.0011308,-0.20026,-0.089382,-9.8473,0,0,39.276,1,1,7766,3883
4490,1.4092e+07,2,-0.001111,0.00084367,-0.0020738,-0.20181,-0.089231,-9.8509,0,0,39.277,1,1,7766,3883
4521,1.4094e+07,2,-0.00075006,0.00096606,-0.0036423,-0.20135,-0.087439,-9.8526,0,0,39.277,1,1,7766,3883
4524,1.4097e+07,2,-0.00044431,0.00099395,-0.0039496,-0.19926,-0.086081,-9.8543,0,0,39.277,1,1,7766,3883
4527,1.4099e+07,2,-0.0011489,0.00094929,-0.0035357,-0.19677,-0.085253,-9.856,0,0,39.277,1,1,7766,3883
4530,1.4102e+07,2,-0.0025457,0.0010664,-0.0022441,-0.19341,-0.082977,-9.8568,0,0,39.277,1,1,7766,3883
4561,1.4105e+07,2,-0.0019287,0.00084805,-0.0026421,-0.19229,-0.081687,-9.8573,0,0,39.278,1,1,7766,3883
4564,1.4107e+07,2,-0.00092954,0.00010913,-0.0024657,-0.1917,-0.081289,-9.8579,0,0,39.278,1,1,7766,3883
4567,1.411e+07,2,-0.00085075,-3.0604e-06,-0.0026037,-0.19119,-0.080994,-9.8587,0,0,39.278,1,1,7766,3883
4572,1.4112e+07,2,-0.0010398,0.0002207,-0.0032629,-0.18809,-0.080082,-9.8585,0,0,39.278,1,1,7766,3883
4603,1.4114e+07,2,0.00079458,0.00057345,-0.0016061,-0.18348,-0.077921,-9.8526,0,0,39.278,1,1,7766,3883
4606,1.4117e+07,2,0.0014306,3.4783e-05,0.00021952,-0.18147,-0.07727,-9.8472,0,0,39.279,1,1,7766,3883
4609,1.412e+07,2,0.0017259,-0.00039533,0.0014716,-0.18074,-0.078329,-9.8421,0,0,39.279,1,1,7766,3883
4613,1.4122e+07,2,0.001131,-0.00056373,0.0012834,-0.18089,-0.080478,-9.8363,0,0,39.279,1,1,7766,3883
4644,1.4124e+07,2,0.00023515,-0.00064037,0.0021378,-0.18454,-0.08345,-9.8346,0,0,39.279,1,1,7766,3883
4647,1.4127e+07,2,0.00065528,-0.0010369,0.0030457,-0.18854,-0.084176,-9.8348,0,0,39.279,1,1,7766,3883
4650,1.413e+07,2,0.0012599,-0.0012331,0.0028378,-0.19319,-0.082957,-9.8341,0,0,39.279,1,1,7766,3883
4657,1.4132e+07,2,0.00084549,-0.0021243,0.0010728,-0.19896,-0.077929,-9.8331,0,0,39.279,1,1,7766,3883
4688,1.4135e+07,2,-0.00022631,-0.0025638,-8.2815e-05,-0.20145,-0.073016,-9.8361,0,0,39.28,1,1,7766,3883
4691,1.4137e+07,2,-0.00042717,-0.0023154,0.00045744,-0.20173,-0.072047,-9.8374,0,0,39.28,1,1,7766,3883
4694,1.4139e+07,2,-0.00040122,-0.0020973,0.00078229,-0.2022,-0.07118,-9.8409,0,0,39.28,1,1,7766,3883
4698,1.4142e+07,2,-0.00072982,-0.0015737,0.0011784,-0.20321,-0.070699,-9.8466,0,0,39.28,1,1,7766,3883
4729,1.4144e+07,2,-0.00025465,-0.00079026,0.0016738,-0.20172,-0.070697,-9.8497,0,0,39.28,1,1,7766,3883
4732,1.4148e+07,2,-0.0003651,-0.0007081,0.0011196,-0.19987,-0.071463,-9.8508,0,0,39.28,1,1,7766,3883
4736,1.415e+07,2,-0.0011131,-0.0019026,0.0011744,-0.19707,-0.072806,-9.8516,0,0,39.28,1,1,7766,3883
4739,1.4152e+07,2,-0.0018419,-0.0019336,0.0013931,-0.19581,-0.073333,-9.8533,0,0,39.28,1,1,7766,3883
4770,1.4155e+07,2,-0.002257,-0.0018028,0.0022937,-0.19366,-0.07405,-9.8536,0,0,39.281,1,1,7766,3883
4773,1.4157e+07,2,-0.0024624,-0.0011029,0.0014094,-0.1931,-0.073517,-9.8518,0,0,39.281,1,1,7766,3883
4776,1.416e+07,2,-0.0014214,-0.0011964,0.00078831,-0.19255,-0.071051,-9.8488,0,0,39.281,1,1,7766,3883
4780,1.4162e+07,2,-0.00027705,-0.0012732,0.00092201,-0.19241,-0.069465,-9.8493,0,0,39.281,1,1,7766,3883
4811,1.4164e+07,2,-0.00040068,-0.001579,0.0014965,-0.19251,-0.069212,-9.8531,0,0,39.281,1,1,7766,3883
4814,1.4167e+07,2,-0.00026827,-0.0012644,0.0012096,-0.1929,-0.069175,-9.8568,0,0,39.281,1,1,7766,3883
4817,1.417e+07,2,0.00020597,-0.00060399,0.0012652,-0.19297,-0.068387,-9.8595,0,0,39.281,1,1,7766,3883
4820,1.4175e+07,2,-0.00080415,0.0002232,0.00080082,-0.19309,-0.067303,-9.8616,0,0,39.281,1,1,7766,3883
4851,1.4177e+07,2,-0.0010351,0.00046723,0.00096657,-0.19123,-0.068407,-9.862,0,0,39.281,1,1,7766,3883
4854,1.418e+07,2,-0.001153,0.00028774,0.0010655,-0.18788,-0.067868,-9.861,0,0,39.282,1,1,7766,3883
4858,1.4185e+07,2,-0.0012782,0.00020585,0.0029606,-0.1833,-0.067246,-9.8544,0,0,39.282,1,1,7766,3883
4889,1.4188e+07,2,-0.00029563,0.00091807,0.0016636,-0.18542,-0.068713,-9.8497,0,0,39.282,1,1,7766,3883
4892,1.4191e+07,2,0.00050885,0.0014341,0.0010336,-0.18797,-0.07013,-9.8467,0,0,39.282,1,1,7766,3883
4896,1.4193e+07,2,0.00067775,0.0011158,7.08e-06,-0.19299,-0.073067,-9.8458,0,0,39.282,1,1,7766,3883
4899,1.4196e+07,2,0.00061014,0.00090907,-4.8769e-05,-0.19657,-0.074519,-9.8469,0,0,39.282,1,1,7766,3883
4930,1.4199e+07,2,0.00096554,0.00021,0.00040719,-0.20154,-0.077908,-9.8519,0,0,39.282,1,1,7766,3883
4933,1.4201e+07,2,0.00043257,-0.00075993,0.00053172,-0.20325,-0.080678,-9.8547,0,0,39.283,1,1,7766,3883
4936,1.4203e+07,2,0.00012859,-0.0004814,0.00058842,-0.20439,-0.083261,-9.857,0,0,39.283,1,1,7766,3883
4939,1.4206e+07,2,0.00054678,-9.8932e-05,0.00141,-0.20516,-0.084986,-9.8584,0,0,39.283,1,1,7766,3883
4970,1.4209e+07,2,0.0011686,-0.0004072,0.00093339,-0.20366,-0.086718,-9.8574,0,0,39.283,1,1,7766,3883
4973,1.4211e+07,2,0.0014061,-0.00023147,0.0010201,-0.20148,-0.087251,-9.8568,0,0,39.283,1,1,7766,3883
4977,1.4213e+07,2,0.0011883,-5.8395e-05,7.2264e-05,-0.19881,-0.087296,-9.8568,0,0,39.283,1,1,7766,3883
4980,1.4216e+07,2,0.000435,-0.00093092,-0.00048056,-0.19644,-0.088766,-9.8583,0,0,39.283,1,1,7766,3883
5011,1.4218e+07,2,1.4065e-05,-0.001172,-0.0012377,-0.19586,-0.090331,-9.8603,0,0,39.283,1,1,7766,3883
5014,1.4221e+07,2,0.00017988,-0.0016006,-0.0014122,-0.19522,-0.089772,-9.8606,0,0,39.283,1,1,7766,3883
5017,1.4224e+07,2,0.00037516,-0.0018062,-0.0011398,-0.19401,-0.087799,-9.8603,0,0,39.283,1,1,7766,3883
5020,1.4226e+07,2,0.00087868,-0.0014707,-0.00089815,-0.19186,-0.08444,-9.861,0,0,39.283,1,1,7766,3883
5051,1.4228e+07,2,-0.00039923,-0.0009821,-0.00011351,-0.1909,-0.082307,-9.8605,0,0,39.283,1,1,7766,3883
5054,1.4231e+07,2,-0.001353,-0.00067268,-0.00088369,-0.19008,-0.080369,-9.8586,0,0,39.283,1,1,7766,3883
5063,1.4234e+07,2,-0.0012329,-0.00080668,-0.0014528,-0.18827,-0.079102,-9.8568,0,0,39.284,1,1,7766,3883
5066,1.4236e+07,2,-0.00049242,-0.0010781,-0.0021036,-0.1848,-0.0766,-9.8522,0,0,39.284,1,1,7766,3883
5097,1.4239e+07,2,0.00060443,-0.0013238,-0.0020165,-0.18085,-0.074839,-9.8477,0,0,39.284,1,1,7766,3883
5100,1.4241e+07,2,0.00091791,-0.0026161,-0.0013173,-0.17759,-0.074927,-9.845,0,0,39.284,1,1,7766,3883
5104,1.4244e+07,2,0.00044544,-0.0030299,-0.0012888,-0.17545,-0.076713,-9.8469,0,0,39.284,1,1,7766,3883
5107,1.4246e+07,2,0.00017573,-0.0029048,-0.0010715,-0.17274,-0.08063,-9.8513,0,0,39.284,1,1,7766,3883
5138,1.425e+07,2,-0.00092168,-0.0028084,-0.003644,-0.16984,-0.086475,-9.8555,0,0,39.284,1,1,7766,3883
5141,1.4252e+07,2,-0.0015101,-0.002901,-0.003703,-0.16697,-0.090006,-9.8546,0,0,39.284,1,1,7766,3883
5145,1.4254e+07,2,-0.0015755,-0.0029915,-0.0032093,-0.16673,-0.091107,-9.8515,0,0,39.284,1,1,7766,3883
5148,1.4257e+07,2,-0.0010461,-0.0028011,-0.0031483,-0.17065,-0.091519,-9.8475,0,0,39.284,1,1,7766,3883
5179,1.426e+07,2,-0.00092674,-0.0028939,-0.0027662,-0.17439,-0.092056,-9.8472,0,0,39.284,1,1,7766,3883
5184,1.4262e+07,2,-0.00072859,-0.0036495,-0.0021747,-0.17823,-0.092261,-9.8495,0,0,39.285,1,1,7766,3883
5187,1.4265e+07,2,-0.00023727,-0.004109,-0.0019726,-0.18178,-0.091746,-9.8546,0,0,39.285,1,1,7766,3883
5190,1.4267e+07,2,-0.00023977,-0.0045298,-0.0024352,-0.18536,-0.09048,-9.86,0,0,39.285,1,1,7766,3883
5221,1.4269e+07,2,-0.00027524,-0.0041109,-0.0026692,-0.18619,-0.09011,-9.8597,0,0,39.285,1,1,7766,3883
5224,1.4272e+07,2,-0.00040084,-0.0023234,-0.0021945,-0.18688,-0.088007,-9.8584,0,0,39.285,1,1,7766,3883
5228,1.4278e+07,2,-0.0011968,-0.0016068,-0.001638,-0.18902,-0.080482,-9.8572,0,0,39.285,1,1,7766,3883
5261,1.428e+07,2,-0.0019343,-0.001307,-0.00026724,-0.19023,-0.080295,-9.8591,0,0,39.285,1,1,7766,3883
5264,1.4283e+07,2,-0.0011146,-0.002133,-0.00085677,-0.19028,-0.083641,-9.8625,0,0,39.285,1,1,7766,3883
5269,1.4286e+07,2,-0.00047913,-0.0019576,-0.0020806,-0.19092,-0.085686,-9.8674,0,0,39.285,1,1,7766,3883
5272,1.4288e+07,2,-0.00048143,-0.0015102,-0.0024296,-0.19128,-0.08741,-9.8722,0,0,39.285,1,1,7766,3883
5303,1.429e+07,2,-0.00034497,-0.00096138,-0.0018536,-0.19167,-0.08865,-9.8789,0,0,39.286,1,1,7766,3883
5306,1.4293e+07,2,0.00019164,-0.00069998,-0.001383,-0.19186,-0.088488,-9.8787,0,0,39.286,1,1,7766,3883
5309,1.4297e+07,2,0.00043151,5.0926e-05,-0.00027073,-0.19167,-0.087822,-9.8784,0,0,39.286,1,1,7766,3883
5312,1.4298e+07,2,0.00083443,0.00029279,0.00048509,-0.19059,-0.086553,-9.8778,0,0,39.286,1,1,7766,3883
5343,1.4301e+07,2,0.00090118,-0.00054536,0.0004139,-0.1907,-0.085655,-9.8776,0,0,39.286,1,1,7766,3883
5346,1.4303e+07,2,0.00025816,-0.00022882,0.0013269,-0.1908,-0.08501,-9.8793,0,0,39.286,1,1,7766,3883
5350,1.4306e+07,2,-6.7871e-06,-0.00038618,0.0020069,-0.19065,-0.08414,-9.8817,0,0,39.286,1,1,7766,3883
5353,1.4309e+07,2,0.00061057,0.00019865,0.0019664,-0.19192,-0.08223,-9.8858,0,0,39.286,1,1,7766,3883
5384,1.4312e+07,2,0.0013046,0.0019209,0.0017375,-0.19506,-0.077293,-9.8884,0,0,39.287,1,1,7766,3883
5387,1.4314e+07,2,0.0016352,0.0025648,0.0017465,-0.19831,-0.073111,-9.8879,0,0,39.287,1,1,7766,3883
5390,1.4317e+07,2,0.0022926,0.0025404,0.0016902,-0.20344,-0.067977,-9.8863,0,0,39.287,1,1,7766,3883
5393,1.432e+07,2,0.0021718,0.0020877,0.00215,-0.20759,-0.066443,-9.8852,0,0,39.287,1,1,7766,3883
5424,1.4322e+07,2,0.0019534,0.0021027,0.0023343,-0.21318,-0.068081,-9.882,0,0,39.287,1,1,7766,3883
5427,1.4325e+07,2,0.0022519,0.0027163,0.0021583,-0.21589,-0.070588,-9.8805,0,0,39.287,1,1,7766,3883
5431,1.4327e+07,2,0.0023956,0.0021207,0.0023214,-0.2186,-0.074115,-9.8798,0,0,39.287,1,1,7766,3883
5434,1.433e+07,2,0.0021105,0.0014376,0.0026518,-0.22012,-0.080295,-9.8806,0,0,39.287,1,1,7766,3883
5465,1.4333e+07,2,0.0010412,0.001588,0.0028848,-0.21716,-0.085607,-9.8776,0,0,39.287,1,1,7766,3883
5468,1.4335e+07,2,0.00043396,0.0019151,0.0035641,-0.21441,-0.087853,-9.873,0,0,39.287,1,1,7766,3883
5476,1.4338e+07,2,0.00046594,0.0018576,0.0030028,-0.21068,-0.089446,-9.8695,0,0,39.287,1,1,7766,3883
5479,1.434e+07,2,-0.00021905,0.0014588,0.0028816,-0.20325,-0.091602,-9.8651,0,0,39.287,1,1,7766,3883
5510,1.4343e+07,2,-0.0008428,0.0011666,0.00254,-0.1973,-0.091466,-9.8616,0,0,39.288,1,1,7766,3883
5513,1.4345e+07,2,-0.0005233,0.0010834,0.003101,-0.19409,-0.091343,-9.8628,0,0,39.288,1,1,7766,3883
5516,1.4347e+07,2,-0.00016919,0.0012881,0.0032541,-0.19227,-0.092014,-9.8651,0,0,39.288,1,1,7766,3883
5519,1.435e+07,2,-0.00035112,0.00092039,0.0035432,-0.19265,-0.091559,-9.865,0,0,39.288,1,1,7766,3883
5550,1.4353e+07,2,-0.00015125,0.00048937,0.0027216,-0.19446,-0.085883,-9.8577,0,0,39.288,1,1,7766,3883
5553,1.4356e+07,2,0.00072438,0.00054291,0.0022486,-0.19611,-0.081616,-9.8513,0,0,39.288,1,1,7766,3883
5557,1.4358e+07,2,0.0009715,0.00044821,0.0012646,-0.19823,-0.079258,-9.845,0,0,39.288,1,1,7766,3883
5560,1.4361e+07,2,0.00099307,0.00057315,0.0011412,-0.20017,-0.077741,-9.8388,0,0,39.288,1,1,7766,3883
5591,1.4363e+07,2,0.0016341,0.00075507,0.00052429,-0.20582,-0.077959,-9.826,0,0,39.288,1,1,7766,3883
5596,1.4366e+07,2,0.0011576,-0.00026242,-0.00053828,-0.20905,-0.078397,-9.8214,0,0,39.288,1,1,7766,3883
5599,1.4369e+07,2,0.0012405,-0.0022613,-0.00033321,-0.21292,-0.079592,-9.8204,0,0,39.288,1,1,7766,3883
5602,1.4372e+07,2,0.0015388,-0.002442,0.00052694,-0.21459,-0.081975,-9.8236,0,0,39.288,1,1,7766,3883
5605,1.4374e+07,2,0.0014115,-0.0014922,0.00048501,-0.21512,-0.086831,-9.8296,0,0,39.288,1,1,7766,3883
5636,1.4376e+07,2,0.0010243,-0.0017051,-0.00066987,-0.21247,-0.088006,-9.8331,0,0,39.288,1,1,7766,3883
5640,1.4379e+07,2,0.00040646,-0.001891,-0.001616,-0.20906,-0.086845,-9.8322,0,0,39.288,1,1,7766,3883
5643,1.4381e+07,2,-0.00092912,-0.0023299,-0.0012908,-0.20416,-0.083983,-9.8306,0,0,39.288,1,1,7766,3883
5646,1.4385e+07,2,-0.0010731,-0.0022126,-0.0013808,-0.20293,-0.083267,-9.8307,0,0,39.288,1,1,7766,3883
5649,1.439e+07,2,0.00038666,-0.00030924,-0.0010921,-0.1997,-0.077217,-9.8283,0,0,39.288,1,1,7766,3883
5680,1.4392e+07,2,0.00020678,0.00019478,-0.00052355,-0.19996,-0.076143,-9.827,0,0,39.288,1,1,7766,3883
5683,1.4394e+07,2,-0.00057411,0.00025757,3.5954e-05,-0.20088,-0.077438,-9.8273,0,0,39.288,1,1,7766,3883
5686,1.4397e+07,2,-0.0012161,-3.9715e-05,-0.000176,-0.20292,-0.080325,-9.828,0,0,39.288,1,1,7766,3883
5689,1.44e+07,2,-0.00058851,-0.0003083,-0.0005021,-0.20389,-0.081091,-9.8285,0,0,39.288,1,1,7766,3883
5720,1.4402e+07,2,0.00061138,0.00040854,-0.0021865,-0.20091,-0.078981,-9.8336,0,0,39.288,1,1,7766,3883
5724,1.4405e+07,2,-0.0003328,0.0012489,-0.0025664,-0.19772,-0.076379,-9.8381,0,0,39.288,1,1,7766,3883
5727,1.4408e+07,2,-0.0017604,0.0023478,-0.0022668,-0.19436,-0.074597,-9.8419,0,0,39.288,1,1,7766,3883
5730,1.441e+07,2,-0.0012513,0.0022156,-0.0021288,-0.19142,-0.07454,-9.8469,0,0,39.288,1,1,7766,3883
5761,1.4413e+07,2,-0.0007949,0.0018961,-0.0023983,-0.19101,-0.077759,-9.8498,0,0,39.288,1,1,7766,3883
5765,1.4416e+07,2,-0.0015073,0.0021208,-0.0024467,-0.19085,-0.079828,-9.8521,0,0,39.288,1,1,7766,3883
5768,1.4418e+07,2,-0.0016541,0.0015787,-0.0026721,-0.19095,-0.080508,-9.8542,0,0,39.288,1,1,7766,3883
5773,1.4421e+07,2,-0.0012223,0.0011668,-0.0027509,-0.19026,-0.080687,-9.8561,0,0,39.288,1,1,7766,3883
5804,1.4424e+07,2,-0.0014767,0.00040762,-0.002481,-0.1905,-0.07947,-9.8569,0,0,39.288,1,1,7766,3883
5807,1.4426e+07,2,-0.0015198,0.00064458,-0.0029454,-0.19123,-0.078236,-9.8565,0,0,39.288,1,1,7766,3883
5810,1.4429e+07,2,-0.001456,0.0012253,-0.002991,-0.19032,-0.079543,-9.8548,0,0,39.288,1,1,7766,3883
5813,1.4431e+07,2,-0.0009727,0.0014877,-0.0028434,-0.18959,-0.081379,-9.8544,0,0,39.288,1,1,7766,3883
5844,1.4434e+07,2,-0.00050819,0.00079414,-0.0030307,-0.18759,-0.082957,-9.8572,0,0,39.288,1,1,7766,3883
5848,1.4437e+07,2,-0.00042546,0.00021163,-0.0029434,-0.18554,-0.083868,-9.8611,0,0,39.288,1,1,7766,3883
5851,1.4438e+07,2,-0.00062103,-2.109e-05,-0.0021751,-0.18438,-0.083529,-9.8673,0,0,39.288,1,1,7766,3883
5858,1.4441e+07,2,-0.0008789,0.00010331,-0.00092051,-0.18555,-0.083236,-9.8704,0,0,39.288,1,1,7766,3883
5889,1.4444e+07,2,-0.00077601,0.00031568,8.821e-05,-0.18689,-0.081707,-9.8736,0,0,39.288,1,1,7766,3883
5893,1.4446e+07,2,-0.00048977,0.00075716,-0.00081725,-0.18882,-0.080175,-9.8727,0,0,39.288,1,1,7766,3883
5896,1.4449e+07,2,-0.00044391,0.00083301,-0.0012077,-0.19116,-0.078361,-9.8676,0,0,39.288,1,1,7766,3883
5901,1.4451e+07,2,-0.0015119,0.00025467,-0.00065761,-0.19351,-0.075784,-9.8599,0,0,39.289,1,1,7766,3883
5932,1.4454e+07,2,-0.0018345,-0.0002688,3.841e-05,-0.19543,-0.073422,-9.8491,0,0,39.289,1,1,7766,3883
5935,1.4456e+07,2,-0.0016842,-0.00038143,0.00017377,-0.19565,-0.07323,-9.846,0,0,39.289,1,1,7766,3883
5938,1.4458e+07,2,-0.0013598,-7.0457e-05,0.0012433,-0.19464,-0.071725,-9.8465,0,0,39.289,1,1,7766,3883
5942,1.4461e+07,2,-0.00078448,0.00088579,0.00099604,-0.19253,-0.069938,-9.849,0,0,39.289,1,1,7766,3883
5973,1.4464e+07,2,-0.00063965,0.0017833,0.00048866,-0.18782,-0.068106,-9.8515,0,0,39.289,1,1,7766,3883
5977,1.4466e+07,2,-0.0012502,0.0019497,-0.00078427,-0.18442,-0.067945,-9.8504,0,0,39.289,1,1,7766,3883
5980,1.4469e+07,2,-0.00016176,0.0022316,-0.0019984,-0.18,-0.070127,-9.8468,0,0,39.289,1,1,7766,3883
5983,1.4472e+07,2,0.00013853,0.0023261,-0.0012223,-0.17833,-0.072748,-9.8448,0,0,39.289,1,1,7766,3883
6014,1.4475e+07,2,-0.00053663,0.0018217,0.00087941,-0.17636,-0.078058,-9.8418,0,0,39.289,1,1,7766,3883
6017,1.4477e+07,2,-0.0017131,0.00068815,0.0018377,-0.1727,-0.083542,-9.8424,0,0,39.288,1,1,7766,3883
6020,1.4479e+07,2,-0.0020318,0.00042848,0.002387,-0.16979,-0.086512,-9.844,0,0,39.288,1,1,7766,3883
6023,1.4482e+07,2,-0.0022984,-0.00037228,0.0022821,-0.16826,-0.088075,-9.8451,0,0,39.288,1,1,7766,3883
6054,1.4484e+07,2,-0.002449,-0.00053851,0.0024036,-0.16742,-0.089386,-9.8465,0,0,39.288,1,1,7766,3883
6059,1.4489e+07,2,-0.0039453,-0.0014894,0.0026624,-0.16419,-0.0911,-9.8473,0,0,39.288,1,1,7766,3883
6062,1.4492e+07,2,-0.0039288,-0.0023473,0.0022318,-0.16233,-0.090274,-9.8475,0,0,39.288,1,1,7766,3883
6093,1.4496e+07,2,-0.0034544,-0.0027796,0.0013993,-0.1611,-0.089335,-9.8483,0,0,39.288,1,1,7766,3883
6096,1.4498e+07,2,-0.0018395,-0.0014369,0.00087175,-0.15941,-0.087677,-9.8516,0,0,39.288,1,1,7766,3883
6100,1.45e+07,2,-0.00084527,-0.00088052,0.00081008,-0.16111,-0.086401,-9.8583,0,0,39.288,1,1,7766,3883
6103,1.4502e+07,2,-0.00055247,-0.00083663,0.00066873,-0.16352,-0.085737,-9.8615,0,0,39.288,1,1,7766,3883
6134,1.4504e+07,2,-4.9585e-05,-0.0014194,0.0010031,-0.169,-0.082681,-9.8636,0,0,39.288,1,1,7766,3883
6137,1.4507e+07,2,-0.0003881,-0.0016891,0.0018616,-0.17342,-0.08004,-9.8624,0,0,39.287,1,1,7766,3883
6140,1.451e+07,2,-0.002068,-0.00099125,0.0029742,-0.17977,-0.076217,-9.8579,0,0,39.287,1,1,7766,3883
6143,1.4512e+07,2,-0.0023372,-0.00044912,0.0022987,-0.18133,-0.075456,-9.8562,0,0,39.287,1,1,7766,3883
6174,1.4514e+07,2,-0.0020323,3.6228e-05,0.0013479,-0.18392,-0.075726,-9.8523,0,0,39.287,1,1,7766,3883
6177,1.4517e+07,2,-0.0022187,0.00036882,0.0013365,-0.185,-0.077587,-9.8529,0,0,39.287,1,1,7766,3883
6181,1.452e+07,2,-0.0025774,0.0011197,0.0015886,-0.18672,-0.081506,-9.8566,0,0,39.287,1,1,7766,3883
6184,1.4522e+07,2,-0.0031087,0.0007609,0.0013699,-0.18763,-0.084102,-9.8581,0,0,39.287,1,1,7766,3883
6215,1.4525e+07,2,-0.0029824,-0.00060466,0.00038818,-0.1889,-0.086285,-9.8618,0,0,39.287,1,1,7766,3883
6218,1.4527e+07,2,-0.0024587,-0.0015847,-0.00017091,-0.18882,-0.087857,-9.8632,0,0,39.287,1,1,7766,3883
6221,1.453e+07,2,-0.0017678,-0.0029439,-0.0009889,-0.1867,-0.088533,-9.8646,0,0,39.287,1,1,7766,3883
6224,1.4533e+07,2,-0.0012501,-0.0025488,-0.00094288,-0.1863,-0.087356,-9.8656,0,0,39.287,1,1,7766,3883
6255,1.4535e+07,2,-0.00099075,-0.0019448,-0.00046468,-0.18855,-0.085183,-9.8629,0,0,39.287,1,1,7766,3883
6258,1.4538e+07,2,1.0836e-05,-0.0024926,-0.00068815,-0.19,-0.082523,-9.8561,0,0,39.287,1,1,7766,3883
6262,1.454e+07,2,0.00030541,-0.0024724,-0.0013335,-0.19087,-0.080194,-9.8531,0,0,39.287,1,1,7766,3883
6269,1.4543e+07,2,0.00010891,-0.0019775,-0.0015444,-0.19234,-0.077485,-9.8521,0,0,39.287,1,1,7766,3883
6300,1.4546e+07,2,0.00013658,-0.0014967,-0.00064125,-0.19261,-0.077149,-9.8522,0,0,39.287,1,1,7766,3883
6303,1.4548e+07,2,0.00039711,-0.0010505,0.00051541,-0.19271,-0.078135,-9.8545,0,0,39.286,1,1,7766,3883
6306,1.4551e+07,2,0.00058917,-0.00070085,0.00078639,-0.19243,-0.0798,-9.8571,0,0,39.286,1,1,7766,3883
6309,1.4552e+07,2,0.00026421,-0.00046672,0.00071276,-0.19138,-0.081882,-9.8616,0,0,39.286,1,1,7766,3883
6340,1.4556e+07,2,-0.00017629,0.00043378,-0.00050359,-0.1917,-0.083186,-9.866,0,0,39.286,1,1,7766,3883
6343,1.4558e+07,2,-0.00085934,0.00086124,-0.0023905,-0.19456,-0.085903,-9.8733,0,0,39.286,1,1,7766,3883
6348,1.456e+07,2,-0.0012363,0.00027813,-0.0026423,-0.1971,-0.087397,-9.877,0,0,39.286,1,1,7766,3883
6351,1.4563e+07,2,-0.0010572,-0.00017838,-0.0030988,-0.20191,-0.087996,-9.8771,0,0,39.286,1,1,7766,3883
6382,1.4565e+07,2,-0.00089427,0.00029335,-0.002077,-0.2068,-0.087067,-9.8725,0,0,39.286,1,1,7766,3883
6385,1.4568e+07,2,-0.0019141,-0.00043495,-0.0020485,-0.20898,-0.086005,-9.868,0,0,39.286,1,1,7766,3883
6389,1.457e+07,2,-0.0019408,-0.00081785,-0.0019388,-0.2111,-0.084275,-9.8648,0,0,39.286,1,1,7766,3883
6392,1.4573e+07,2,-0.00051155,-0.00036843,-0.0013038,-0.21319,-0.081579,-9.8627,0,0,39.286,1,1,7766,3883
6423,1.4575e+07,2,0.00019659,-0.00015401,-0.0008304,-0.21465,-0.078514,-9.8618,0,0,39.286,1,1,7766,3883
6427,1.4578e+07,2,0.00027671,0.00013074,5.6441e-05,-0.21535,-0.073393,-9.8624,0,0,39.286,1,1,7766,3883
6430,1.458e+07,2,6.6001e-05,0.00019573,0.00012861,-0.21559,-0.068875,-9.8626,0,0,39.286,1,1,7766,3883
6433,1.4585e+07,2,-0.00021892,0.00085139,-0.00045961,-0.20967,-0.060914,-9.8605,0,0,39.286,1,1,7766,3883
6464,1.4591e+07,2,0.00021996,0.0012708,0.00159,-0.20609,-0.05955,-9.8537,0,0,39.285,1,1,7766,3883
6468,1.4594e+07,2,0.0010748,0.00099334,0.0011661,-0.20621,-0.061055,-9.8539,0,0,39.285,1,1,7766,3883
6471,1.4596e+07,2,0.00093869,0.00012174,3.5141e-05,-0.20435,-0.06254,-9.8558,0,0,39.285,1,1,7766,3883
6502,1.4598e+07,2,5.5898e-05,-0.00023798,-0.00011344,-0.20163,-0.062473,-9.8561,0,0,39.285,1,1,7766,3883
6505,1.4601e+07,2,0.0007541,-0.00019982,-0.00036759,-0.19756,-0.063389,-9.8566,0,0,39.285,1,1,7766,3883
6508,1.4603e+07,2,0.00091634,-0.00021441,0.00043695,-0.19543,-0.064334,-9.8561,0,0,39.285,1,1,7766,3883
6511,1.4606e+07,2,0.0007014,-4.7854e-05,-1.3051e-05,-0.19413,-0.065427,-9.8536,0,0,39.285,1,1,7766,3883
6542,1.4608e+07,2,0.00026434,0.00027026,-0.00052062,-0.19347,-0.065099,-9.8494,0,0,39.285,1,1,7766,3883
6545,1.4611e+07,2,-0.00057877,0.00057947,-0.00082906,-0.19406,-0.064193,-9.8449,0,0,39.285,1,1,7766,3883
6549,1.4614e+07,2,-0.0014781,-0.00056235,-0.00065991,-0.19632,-0.06392,-9.8405,0,0,39.285,1,1,7766,3883
6552,1.4616e+07,2,-0.0017318,-0.0018235,0.00044622,-0.19842,-0.065302,-9.8406,0,0,39.285,1,1,7766,3883
6583,1.4619e+07,2,-0.0019706,-0.0030825,0.0011869,-0.20069,-0.069992,-9.8411,0,0,39.285,1,1,7766,3883
6586,1.4621e+07,2,-0.0026081,-0.00269,0.0017351,-0.20083,-0.073654,-9.8429,0,0,39.285,1,1,7766,3883
6590,1.4624e+07,2,-0.0012372,-0.0010434,0.0015781,-0.19937,-0.079819,-9.8471,0,0,39.285,1,1,7766,3883
6593,1.4626e+07,2,0.0002746,-0.00013985,0.0014606,-0.19982,-0.082984,-9.8498,0,0,39.285,1,1,7766,3883
6624,1.4628e+07,2,0.0016753,-0.00013553,0.0014221,-0.20077,-0.086683,-9.8511,0,0,39.285,1,1,7766,3883
6627,1.4631e+07,2,0.0021611,-0.00046817,0.001017,-0.19999,-0.087249,-9.8511,0,0,39.285,1,1,7766,3883
6631,1.4634e+07,2,0.0010845,-0.00047487,-0.00025185,-0.19608,-0.087587,-9.8503,0,0,39.285,1,1,7766,3883
6634,1.4637e+07,2,0.00055504,-0.00029929,-4.9157e-05,-0.19368,-0.086607,-9.8485,0,0,39.285,1,1,7766,3883
6665,1.4639e+07,2,-0.00045939,-0.00045436,0.00026618,-0.19175,-0.08503,-9.8468,0,0,39.285,1,1,7766,3883
6668,1.4642e+07,2,-0.00072773,-0.00085391,0.00027487,-0.18835,-0.083642,-9.8506,0,0,39.285,1,1,7766,3883
6676,1.4645e+07,2,-0.00076194,-0.0010379,0.00070303,-0.18621,-0.082589,-9.8543,0,0,39.285,1,1,7766,3883
6679,1.4647e+07,2,-0.001062,-0.0014217,0.00061806,-0.18343,-0.080906,-9.8553,0,0,39.285,1,1,7766,3883
6710,1.465e+07,2,-0.0016698,-0.0014663,0.00020939,-0.18278,-0.080574,-9.8525,0,0,39.285,1,1,7766,3883
6713,1.4652e+07,2,-0.0017992,-0.00099622,0.00042127,-0.18469,-0.081137,-9.8518,0,0,39.285,1,1,7766,3883
6718,1.4655e+07,2,-0.0014562,-0.00048318,0.00063916,-0.18679,-0.081374,-9.8519,0,0,39.285,1,1,7766,3883
6721,1.4657e+07,2,0.0004707,-0.00011644,0.00013159,-0.1888,-0.082036,-9.853,0,0,39.285,1,1,7766,3883
6752,1.466e+07,2,0.0012484,-0.00035889,0.0001395,-0.1882,-0.08408,-9.8531,0,0,39.286,1,1,7766,3883
6755,1.4662e+07,2,0.00044102,-0.00050891,0.00085583,-0.18663,-0.085,-9.8529,0,0,39.286,1,1,7766,3883
6759,1.4664e+07,2,-0.00069283,-0.00097393,0.001578,-0.18555,-0.085631,-9.8522,0,0,39.286,1,1,7766,3883
6762,1.4667e+07,2,-0.0017247,-0.0014156,0.00092878,-0.18539,-0.088333,-9.8501,0,0,39.286,1,1,7766,3883
6793,1.4669e+07,2,-0.0021554,-0.0016947,0.00098215,-0.18559,-0.08955,-9.8489,0,0,39.286,1,1,7766,3883
6796,1.4672e+07,2,-0.0014862,-0.0010795,0.00076118,-0.18573,-0.093544,-9.8463,0,0,39.286,1,1,7766,3883
6802,1.4675e+07,2,-0.0011431,-0.00094914,0.00040197,-0.18553,-0.095346,-9.8465,0,0,39.286,1,1,7766,3883
6805,1.4677e+07,2,9.9995e-05,-0.0010363,-0.00042492,-0.18646,-0.097854,-9.8471,0,0,39.286,1,1,7766,3883
6836,1.4679e+07,2,0.00059668,-0.0023342,4.1513e-05,-0.18715,-0.09848,-9.849,0,0,39.286,1,1,7766,3883
6839,1.4682e+07,2,-0.00063832,-0.0030218,0.00097701,-0.18706,-0.097311,-9.8523,0,0,39.286,1,1,7766,3883
6842,1.4688e+07,2,-0.0016294,-0.0014725,0.0023089,-0.1873,-0.090547,-9.854,0,0,39.286,1,1,7766,3883
6845,1.469e+07,2,-0.0017323,-0.00050688,0.0019657,-0.18576,-0.085175,-9.8541,0,0,39.286,1,1,7766,3883
6876,1.4692e+07,2,-0.0018348,-0.00012973,0.00064647,-0.18592,-0.0823,-9.8563,0,0,39.286,1,1,7766,3883
6880,1.4695e+07,2,-0.0018324,-7.0475e-05,0.00014532,-0.18786,-0.080908,-9.8577,0,0,39.286,1,1,7766,3883
6883,1.4698e+07,2,-0.0015108,-0.0003372,0.00023284,-0.1896,-0.079987,-9.8586,0,0,39.286,1,1,7766,3883
6886,1.47e+07,2,-0.001264,-7.0507e-05,-0.00023252,-0.19226,-0.08151,-9.86,0,0,39.286,1,1,7766,3883
6917,1.4703e+07,2,-0.0015868,-0.00025323,-0.00093475,-0.1934,-0.083355,-9.8621,0,0,39.287,1,1,7766,3883
6920,1.4705e+07,2,-0.0014892,-0.00028287,-0.0006441,-0.1932,-0.085889,-9.8626,0,0,39.287,1,1,7766,3883
6923,1.4707e+07,2,-0.0010541,-0.00010704,-1.3025e-05,-0.19126,-0.088,-9.8628,0,0,39.287,1,1,7766,3883
6926,1.471e+07,2,-0.0012453,-4.9908e-05,0.00098159,-0.18682,-0.088468,-9.8629,0,0,39.287,1,1,7766,3883
6957,1.4712e+07,2,-0.0013537,-0.0010717,0.00037419,-0.18255,-0.085517,-9.8641,0,0,39.287,1,1,7766,3883
6961,1.4716e+07,2,-0.0013569,-0.0013633,-0.00048534,-0.1803,-0.082819,-9.8645,0,0,39.287,1,1,7766,3883
6964,1.4718e+07,2,-0.0025726,-0.00059913,-0.0017461,-0.17788,-0.079753,-9.8629,0,0,39.287,1,1,7766,3883
6967,1.4721e+07,2,-0.0027611,-0.00025875,-0.0026143,-0.17623,-0.079458,-9.8603,0,0,39.287,1,1,7766,3883
6998,1.4723e+07,2,-0.0019517,-6.6248e-05,-0.0029596,-0.17471,-0.080814,-9.8569,0,0,39.287,1,1,7766,3883
7001,1.4725e+07,2,-0.00077354,2.8171e-05,-0.0038487,-0.17376,-0.082804,-9.8562,0,0,39.288,1,1,7766,3883
7004,1.4729e+07,2,-0.0010681,-4.8293e-05,-0.0033724,-0.17382,-0.084828,-9.8544,0,0,39.288,1,1,7766,3883
7007,1.4731e+07,2,-0.0019776,0.00029295,-0.0021771,-0.17431,-0.087488,-9.8549,0,0,39.288,1,1,7766,3883
7038,1.4733e+07,2,-0.0016252,0.00080216,-0.0014114,-0.17385,-0.087764,-9.8563,0,0,39.288,1,1,7766,3883
7042,1.4736e+07,2,-0.00066444,0.00043198,-0.0002465,-0.17287,-0.087938,-9.8608,0,0,39.288,1,1,7766,3883
7045,1.4738e+07,2,-0.00056196,0.00028954,-2.0179e-06,-0.17386,-0.08834,-9.8623,0,0,39.288,1,1,7766,3883
7049,1.4741e+07,2,-0.00081131,0.00020707,0.00055241,-0.1758,-0.088014,-9.8635,0,0,39.288,1,1,7766,3883
7080,1.4744e+07,2,-0.0027279,-0.00074374,-0.0021172,-0.17531,-0.087637,-9.8639,0,0,39.288,1,1,7766,3883
7087,1.4746e+07,2,-0.0037868,-0.0017312,-0.0024945,-0.17502,-0.086427,-9.8631,0,0,39.288,1,1,7766,3883
7090,1.4749e+07,2,-0.0035719,-0.0019429,-0.0017267,-0.17556,-0.083623,-9.8639,0,0,39.288,1,1,7766,3883
7093,1.4752e+07,2,-0.0021862,-0.0021368,-0.00095613,-0.17661,-0.081796,-9.8622,0,0,39.288,1,1,7766,3883
7124,1.4754e+07,2,-0.00052056,-0.0018448,0.00033317,-0.17965,-0.077521,-9.8558,0,0,39.288,1,1,7766,3883
7128,1.4757e+07,2,-0.00010625,-0.0018605,0.0010841,-0.18215,-0.072598,-9.8474,0,0,39.289,1,1,7766,3883
7131,1.476e+07,2,0.00022215,-0.0014985,0.001399,-0.18427,-0.0698,-9.842,0,0,39.289,1,1,7766,3883
7134,1.4761e+07,2,-0.00033673,-0.0015476,0.0013242,-0.18695,-0.067301,-9.8394,0,0,39.289,1,1,7766,3883
7165,1.4765e+07,2,-0.00080053,-0.0026279,0.0014325,-0.19167,-0.062938,-9.8386,0,0,39.289,1,1,7766,3883
7169,1.4767e+07,2,-0.0010148,-0.0030794,0.0014663,-0.19552,-0.060537,-9.8383,0,0,39.289,1,1,7766,3883
7172,1.4769e+07,2,-0.00067922,-0.0033489,0.0003678,-0.20035,-0.057513,-9.841,0,0,39.289,1,1,7766,3883
7175,1.4773e+07,2,-0.00015688,-0.0025292,-8.8922e-05,-0.20115,-0.057939,-9.8394,0,0,39.289,1,1,7766,3883
7208,1.4775e+07,2,-0.00020205,-0.00086719,-0.00078717,-0.1982,-0.062296,-9.8353,0,0,39.289,1,1,7766,3883
7212,1.4778e+07,2,0.00022833,-0.0005662,-0.00086416,-0.19563,-0.067248,-9.8291,0,0,39.289,1,1,7766,3883
7215,1.478e+07,2,0.00063905,-0.0014726,-0.00081554,-0.19572,-0.068237,-9.8269,0,0,39.29,1,1,7766,3883
7218,1.4783e+07,2,0.00051787,-0.0022078,0.0004684,-0.19818,-0.068934,-9.8263,0,0,39.29,1,1,7766,3883
7249,1.4788e+07,2,0.00041362,-0.0026537,0.0025137,-0.20472,-0.074737,-9.8316,0,0,39.29,1,1,7766,3883
7253,1.4791e+07,2,0.00050362,-0.0021742,0.0019861,-0.20749,-0.077726,-9.8337,0,0,39.29,1,1,7766,3883
7256,1.4797e+07,2,0.0016773,0.0007592,0.0011292,-0.21071,-0.075866,-9.8394,0,0,39.29,1,1,7766,3883
7287,1.48e+07,2,0.00252,0.0010287,0.00033122,-0.21324,-0.071741,-9.8457,0,0,39.29,1,1,7766,3883
7290,1.4802e+07,2,0.003278,4.9328e-05,-0.00020267,-0.21302,-0.068066,-9.8509,0,0,39.29,1,1,7766,3883
7294,1.4805e+07,2,0.0028973,-0.00039713,-0.0008452,-0.21154,-0.067784,-9.8544,0,0,39.29,1,1,7766,3883
7297,1.4807e+07,2,0.0022281,-0.00077528,-0.0017995,-0.20947,-0.067262,-9.8615,0,0,39.291,1,1,7766,3883
7328,1.481e+07,2,0.0022875,-0.0011918,-0.00028691,-0.20794,-0.06737,-9.8668,0,0,39.291,1,1,7766,3883
7332,1.4812e+07,2,0.0022603,-0.0012208,0.00027693,-0.2071,-0.068291,-9.87,0,0,39.291,1,1,7766,3883
7335,1.4815e+07,2,0.0014873,-0.00027663,0.00076591,-0.20595,-0.070792,-9.8712,0,0,39.291,1,1,7766,3883
7338,1.4817e+07,2,0.0016359,-0.00037218,0.00070248,-0.20504,-0.073099,-9.8701,0,0,39.291,1,1,7766,3883
7369,1.482e+07,2,0.002232,-0.00096622,0.00064578,-0.203,-0.076326,-9.8652,0,0,39.291,1,1,7766,3883
7373,1.4823e+07,2,0.0024479,-0.0011738,0.0010946,-0.20114,-0.078473,-9.8612,0,0,39.291,1,1,7766,3883
7376,1.4824e+07,2,0.0020508,-0.0008723,0.00069138,-0.19992,-0.078691,-9.8581,0,0,39.291,1,1,7766,3883
7379,1.4827e+07,2,0.0018706,-0.001112,-3.9962e-05,-0.19942,-0.077718,-9.8565,0,0,39.291,1,1,7766,3883
7410,1.483e+07,2,0.0014598,-0.0013897,-0.00014814,-0.19909,-0.076504,-9.8549,0,0,39.291,1,1,7766,3883
7413,1.4833e+07,2,0.0016618,-0.0015145,0.00011963,-0.19986,-0.075869,-9.8542,0,0,39.291,1,1,7766,3883
7416,1.4835e+07,2,0.0035528,-0.00097064,-0.00031191,-0.20112,-0.076057,-9.85,0,0,39.292,1,1,7766,3883
7419,1.4837e+07,2,0.0049886,-0.0010723,-0.00032713,-0.1995,-0.076544,-9.8406,0,0,39.292,1,1,7766,3883
7450,1.484e+07,2,0.009645,-0.0020376,-0.0011926,-0.18839,-0.07824,-9.8094,0,0,39.292,1,1,7766,3883
