LineNo,TimeUS,I,GyrX,GyrY,GyrZ,AccX,AccY,AccZ,EG,EA,T,GH,AH,GHz,AHz
182,1.2924e+07,0,-0.0028975,-0.003958,-0.0030238,-0.27833,-0.015111,-9.7583,0,0,44.73,1,1,8006,4003
213,1.2927e+07,0,-0.0022713,-0.0045724,-0.0036181,-0.28432,-0.017622,-9.7507,0,0,44.73,1,1,8008,4003
289,1.2957e+07,0,0.00045247,-0.00054756,-0.0026588,-0.30576,-0.0114,-9.7671,0,0,44.729,1,1,8008,4003
405,1.2985e+07,0,0.0010312,0.0012821,-0.00058194,-0.27886,-0.02899,-9.746,0,0,44.728,1,1,8008,4003
520,1.3014e+07,0,0.00080873,0.00048961,0.0019066,-0.28639,-0.022034,-9.7396,0,0,44.728,1,1,8008,4003
523,1.3015e+07,0,-6.136e-05,0.00043542,0.0022067,-0.28592,-0.020694,-9.7393,0,0,44.728,1,1,8008,4003
634,1.3035e+07,0,-0.0014313,-0.00022127,0.0021489,-0.26308,-0.030572,-9.7384,0,0,44.728,1,1,8008,4003
751,1.3057e+07,0,-0.0012006,-0.0017768,0.0004911,-0.27352,-0.041666,-9.7549,0,0,44.728,1,1,8008,4003
863,1.3089e+07,0,-0.00077454,0.001522,-0.0023812,-0.26658,-0.022452,-9.7501,0,0,44.729,1,1,8008,4003
978,1.3119e+07,0,0.00076032,0.00059306,-0.0024495,-0.24556,-0.013578,-9.7308,0,0,44.73,1,1,8008,4003
1009,1.3122e+07,0,0.00066509,-5.1527e-05,-0.0033134,-0.24904,-0.010744,-9.7312,0,0,44.73,1,1,8008,4003
1090,1.3168e+07,0,0.00023771,-0.0021199,0.0017605,-0.25772,-0.009954,-9.7473,0,0,44.732,1,1,8008,4003
1121,1.317e+07,0,-0.00064925,-0.0036053,0.001606,-0.26293,-0.0089554,-9.743,0,0,44.733,1,1,8008,4003
1201,1.3249e+07,0,-0.0020848,0.00056208,-0.0025063,-0.28168,-0.017435,-9.7692,0,0,44.74,1,1,8008,4003
1297,1.3304e+07,0,0.0011954,-0.0015163,-0.0019403,-0.26728,-0.017504,-9.7426,0,0,44.747,1,1,8008,4003
1384,1.3318e+07,0,0.0018109,0.0017187,0.0014775,-0.27434,-0.023706,-9.7529,0,0,44.749,1,1,8008,4003
1476,1.3334e+07,0,-0.00026344,0.00067376,0.00032348,-0.26729,-0.028519,-9.7719,0,0,44.751,1,1,8008,4003
1507,1.3337e+07,0,-0.00030445,-0.00027098,-0.00012326,-0.26372,-0.025816,-9.7723,0,0,44.751,1,1,8008,4003
1546,1.334e+07,0,-0.00070161,-0.00067072,0.00053934,-0.26229,-0.025566,-9.7693,0,0,44.751,1,1,8008,4003
1549,1.3343e+07,0,-0.00078486,-7.8425e-05,0.0013791,-0.26146,-0.027491,-9.7679,0,0,44.752,1,1,8008,4003
1552,1.3346e+07,0,-0.00042366,-0.0011134,0.001855,-0.25807,-0.032844,-9.7674,0,0,44.752,1,1,8008,4003
1583,1.3348e+07,0,-0.00027888,-0.0019605,0.0016305,-0.25635,-0.03663,-9.7706,0,0,44.752,1,1,8008,4003
1586,1.3351e+07,0,4.3027e-05,-0.0017174,0.00080965,-0.25696,-0.037187,-9.7749,0,0,44.752,1,1,8008,4003
1590,1.3353e+07,0,-0.00065762,-0.0020826,0.00073417,-0.2593,-0.033857,-9.777,0,0,44.753,1,1,8008,4003
1593,1.3356e+07,0,-0.0018692,-0.0015637,0.00092052,-0.26081,-0.030593,-9.775,0,0,44.753,1,1,8008,4003
1624,1.3358e+07,0,-0.0031357,-0.00074874,0.0015791,-0.26241,-0.026566,-9.7681,0,0,44.753,1,1,8008,4003
1627,1.3361e+07,0,-0.0036654,-0.00048867,0.0015396,-0.26215,-0.0256,-9.7646,0,0,44.753,1,1,8008,4003
1630,1.3363e+07,0,-0.0038374,-0.00028382,0.00090158,-0.26251,-0.021786,-9.76,0,0,44.754,1,1,8008,4003
1633,1.3366e+07,0,-0.0035615,-0.00043473,0.00071009,-0.26363,-0.019339,-9.758,0,0,44.754,1,1,8008,4003
1664,1.3368e+07,0,-0.0016567,-0.00023621,0.00049294,-0.26567,-0.016302,-9.7578,0,0,44.754,1,1,8008,4003
1667,1.3372e+07,0,0.0004489,-4.3052e-05,0.00025161,-0.26585,-0.012028,-9.7585,0,0,44.755,1,1,8008,4003
1671,1.3374e+07,0,0.00074031,-0.0013102,-4.6629e-05,-0.26531,-0.0090366,-9.7584,0,0,44.755,1,1,8008,4003
1677,1.3377e+07,0,-8.9479e-05,-0.0022852,-4.3715e-05,-0.26431,-0.0079694,-9.7571,0,0,44.755,1,1,8008,4003
1708,1.3381e+07,0,-0.001039,-0.00054382,-4.6892e-05,-0.261,-0.0084474,-9.7518,0,0,44.756,1,1,8008,4003
1711,1.3383e+07,0,-0.0011396,0.0013742,3.5625e-05,-0.25838,-0.009109,-9.7462,0,0,44.756,1,1,8008,4003
1715,1.3384e+07,0,-0.0017619,0.0019598,-0.00032125,-0.25885,-0.009913,-9.7456,0,0,44.756,1,1,8008,4003
1718,1.3387e+07,0,-0.0030746,0.0010378,-1.9688e-05,-0.26247,-0.014522,-9.7485,0,0,44.757,1,1,8008,4003
1749,1.3389e+07,0,-0.0040401,0.00048389,0.00037388,-0.26461,-0.018274,-9.7522,0,0,44.757,1,1,8008,4003
1752,1.3392e+07,0,-0.0033166,0.00064993,1.8144e-05,-0.26627,-0.021292,-9.76,0,0,44.757,1,1,8008,4003
1755,1.3395e+07,0,-0.0024989,0.00012959,-0.00024986,-0.2677,-0.022038,-9.7646,0,0,44.757,1,1,8008,4003
1758,1.3398e+07,0,-0.0021383,5.5521e-05,-0.00036136,-0.26825,-0.020726,-9.7678,0,0,44.758,1,1,8008,4003
1789,1.34e+07,0,-0.00080206,-0.00064108,-0.00039416,-0.26714,-0.01748,-9.7676,0,0,44.758,1,1,8008,4003
1792,1.3403e+07,0,0.00013735,-0.0023521,-0.00074473,-0.26357,-0.014434,-9.7657,0,0,44.758,1,1,8008,4003
1798,1.3406e+07,0,0.00047635,-0.0030171,-0.00073287,-0.26173,-0.011971,-9.7635,0,0,44.758,1,1,8008,4003
1801,1.3408e+07,0,-8.0897e-05,-0.0024189,-0.00074415,-0.25911,-0.0085087,-9.7616,0,0,44.759,1,1,8008,4003
1832,1.341e+07,0,-0.00096318,-0.0021421,-0.0010171,-0.25831,-0.0076197,-9.7603,0,0,44.759,1,1,8008,4003
1839,1.3413e+07,0,-0.0018245,-0.0019204,-0.00068399,-0.25818,-0.0090523,-9.7552,0,0,44.759,1,1,8008,4003
1842,1.3416e+07,0,-0.0018135,-0.0011661,-0.000603,-0.25815,-0.0099144,-9.7524,0,0,44.759,1,1,8008,4003
1845,1.3418e+07,0,-0.0020053,-0.0020487,-0.00056067,-0.25981,-0.012053,-9.7496,0,0,44.76,1,1,8008,4003
1876,1.3421e+07,0,-0.0018409,-0.001618,-0.0012259,-0.26313,-0.015126,-9.7488,0,0,44.76,1,1,8008,4003
1879,1.3423e+07,0,-0.00079497,-0.001246,-0.0014413,-0.26412,-0.016414,-9.7504,0,0,44.76,1,1,8008,4003
1883,1.3426e+07,0,0.00087539,-0.0025212,-0.0014301,-0.26584,-0.018526,-9.752,0,0,44.76,1,1,8008,4003
1886,1.3429e+07,0,0.001191,-0.0035917,-0.0014826,-0.26779,-0.020956,-9.7523,0,0,44.76,1,1,8008,4003
1917,1.3432e+07,0,0.00019602,-0.0043495,-0.00098562,-0.272,-0.02503,-9.7551,0,0,44.761,1,1,8008,4003
1920,1.3434e+07,0,-0.00045295,-0.0036548,-0.0014673,-0.27369,-0.024498,-9.7595,0,0,44.761,1,1,8008,4003
1923,1.3437e+07,0,-0.00020863,-0.003666,-0.0016443,-0.27313,-0.023153,-9.762,0,0,44.761,1,1,8008,4003
1926,1.344e+07,0,-0.00083132,-0.0032958,-0.00091914,-0.27315,-0.021801,-9.7654,0,0,44.761,1,1,8008,4003
1957,1.3442e+07,0,-0.0007699,-0.0026302,0.00060337,-0.27526,-0.019945,-9.7681,0,0,44.761,1,1,8008,4003
1960,1.3444e+07,0,-0.00011169,-0.0023451,0.0010908,-0.27696,-0.016361,-9.769,0,0,44.761,1,1,8008,4003
1964,1.3447e+07,0,0.0020772,-0.0016031,0.00041922,-0.27756,-0.011361,-9.7689,0,0,44.762,1,1,8008,4003
1967,1.345e+07,0,0.0032571,-0.0016569,0.000468,-0.27765,-0.01011,-9.7673,0,0,44.762,1,1,8008,4003
1998,1.3452e+07,0,0.0029535,-0.0020469,0.00040535,-0.27971,-0.0085186,-9.762,0,0,44.762,1,1,8008,4003
2003,1.3458e+07,0,0.0017744,-0.00064355,0.00021469,-0.28607,-0.0046531,-9.7599,0,0,44.763,1,1,8008,4003
2006,1.346e+07,0,0.0029201,-0.00079678,-0.0011804,-0.28776,-0.006482,-9.7544,0,0,44.763,1,1,8008,4003
2037,1.3464e+07,0,0.0017929,-0.00063841,-0.00072746,-0.28778,-0.0079316,-9.7504,0,0,44.763,1,1,8008,4003
2040,1.3466e+07,0,0.00024641,-0.0011724,0.00032606,-0.28674,-0.011274,-9.7449,0,0,44.763,1,1,8008,4003
2043,1.3468e+07,0,0.00070921,-0.00099561,0.0021286,-0.28602,-0.014995,-9.7428,0,0,44.763,1,1,8008,4003
2047,1.347e+07,0,0.00046236,-0.00043584,0.0029537,-0.28589,-0.016388,-9.7441,0,0,44.764,1,1,8008,4003
2078,1.3473e+07,0,0.00028539,-0.00098409,0.0022558,-0.28419,-0.017213,-9.7479,0,0,44.764,1,1,8008,4003
2081,1.3475e+07,0,0.00025917,-0.001707,0.0016634,-0.28226,-0.017279,-9.751,0,0,44.764,1,1,8008,4003
2084,1.3478e+07,0,0.00036116,-0.0016411,0.00068978,-0.28162,-0.016063,-9.7537,0,0,44.765,1,1,8008,4003
2088,1.3481e+07,0,0.0003803,-0.00058471,0.00018553,-0.28175,-0.013647,-9.7547,0,0,44.765,1,1,8008,4003
2119,1.3484e+07,0,0.00018262,0.0010803,-0.00011558,-0.28138,-0.0093305,-9.7566,0,0,44.765,1,1,8008,4003
2122,1.3486e+07,0,-0.00035206,0.0024726,0.00055903,-0.2795,-0.0076926,-9.7572,0,0,44.765,1,1,8008,4003
2125,1.3488e+07,0,-0.00015298,0.0030301,0.0013475,-0.27574,-0.0093113,-9.756,0,0,44.766,1,1,8008,4003
2128,1.3491e+07,0,0.00042443,0.0025262,0.0017439,-0.27484,-0.01146,-9.7551,0,0,44.766,1,1,8008,4003
2159,1.3493e+07,0,0.00040979,0.001819,0.0015577,-0.27465,-0.013689,-9.7523,0,0,44.766,1,1,8008,4003
2162,1.3497e+07,0,0.00056252,0.0019703,0.0011594,-0.27616,-0.015222,-9.7482,0,0,44.766,1,1,8008,4003
2165,1.3499e+07,0,0.00086873,0.002588,0.00085101,-0.27819,-0.01601,-9.7438,0,0,44.766,1,1,8008,4003
2170,1.3502e+07,0,0.00075083,0.0020498,0.0010488,-0.28275,-0.018448,-9.7355,0,0,44.767,1,1,8008,4003
2201,1.3504e+07,0,0.00021079,0.00030023,0.0010039,-0.28744,-0.020352,-9.7339,0,0,44.767,1,1,8008,4003
2204,1.3507e+07,0,0.00022749,-0.00043418,0.00071031,-0.28994,-0.021082,-9.7357,0,0,44.767,1,1,8008,4003
2207,1.351e+07,0,0.0010825,-0.00076552,-0.00054243,-0.29258,-0.021475,-9.7391,0,0,44.767,1,1,8008,4003
2211,1.3511e+07,0,0.0021244,-0.00053627,-0.00063555,-0.29196,-0.022148,-9.7402,0,0,44.767,1,1,8008,4003
2242,1.3514e+07,0,0.0027963,0.00094694,0.00086583,-0.28807,-0.024245,-9.7416,0,0,44.767,1,1,8008,4003
2250,1.3517e+07,0,0.0021341,0.0019704,0.0011965,-0.28522,-0.025922,-9.7427,0,0,44.767,1,1,8008,4003
2253,1.352e+07,0,0.0012096,0.0019557,0.0012941,-0.28133,-0.027885,-9.7463,0,0,44.768,1,1,8008,4003
2256,1.3521e+07,0,0.00045353,0.001662,0.0014312,-0.28089,-0.02831,-9.7482,0,0,44.768,1,1,8008,4003
2287,1.3524e+07,0,-0.0010129,0.0021759,0.0012351,-0.28153,-0.029742,-9.7506,0,0,44.768,1,1,8008,4003
2290,1.3527e+07,0,-0.0014897,0.0025596,0.001188,-0.28096,-0.029428,-9.7533,0,0,44.768,1,1,8008,4003
2293,1.3529e+07,0,-0.0014978,0.0023827,2.0949e-05,-0.27926,-0.029139,-9.7562,0,0,44.768,1,1,8008,4003
2297,1.3532e+07,0,-0.0013648,0.0016677,-0.0012843,-0.27791,-0.029373,-9.7578,0,0,44.769,1,1,8008,4003
2328,1.3535e+07,0,-0.0011207,0.00022112,-0.0017316,-0.27408,-0.030618,-9.7589,0,0,44.769,1,1,8008,4003
2331,1.3538e+07,0,-0.00030268,-0.00024686,-0.00080035,-0.26814,-0.032248,-9.7567,0,0,44.769,1,1,8008,4003
2334,1.354e+07,0,-0.00044838,0.0004907,-0.00042381,-0.26484,-0.033512,-9.7561,0,0,44.769,1,1,8008,4003
2337,1.3542e+07,0,-0.0014234,0.00011197,-0.0010147,-0.26214,-0.036245,-9.7551,0,0,44.769,1,1,8008,4003
2368,1.3545e+07,0,-0.0018021,-0.0015539,-0.001403,-0.26153,-0.036404,-9.7554,0,0,44.769,1,1,8008,4003
2371,1.3547e+07,0,-0.0021068,-0.0024385,-0.001681,-0.26255,-0.034001,-9.7576,0,0,44.769,1,1,8008,4003
2374,1.3551e+07,0,-0.0023986,-0.0013945,-0.0014962,-0.26436,-0.032352,-9.7602,0,0,44.769,1,1,8008,4003
2377,1.3552e+07,0,-0.0021049,-0.0013008,-2.3709e-05,-0.2659,-0.029633,-9.7645,0,0,44.769,1,1,8008,4003
2409,1.3555e+07,0,-0.00084791,-0.0015482,5.3672e-06,-0.26725,-0.027136,-9.7668,0,0,44.769,1,1,8008,4003
2412,1.3557e+07,0,-0.00036723,-0.0015221,-0.00033743,-0.26842,-0.026016,-9.7672,0,0,44.77,1,1,8008,4003
2415,1.3561e+07,0,-0.00046385,-0.0021002,-0.00018184,-0.26951,-0.024313,-9.7663,0,0,44.77,1,1,8008,4003
2418,1.3564e+07,0,-0.0010844,-0.0019575,-1.4014e-05,-0.26966,-0.023007,-9.767,0,0,44.77,1,1,8008,4003
2421,1.3565e+07,0,-0.00099769,-0.0019996,-0.00036503,-0.26849,-0.02042,-9.7704,0,0,44.77,1,1,8008,4003
2452,1.3568e+07,0,-0.00018339,-0.0028752,-3.9396e-05,-0.26883,-0.019206,-9.7722,0,0,44.77,1,1,8008,4003
2455,1.357e+07,0,-0.00019454,-0.0024893,-0.00024896,-0.26875,-0.019518,-9.7713,0,0,44.77,1,1,8008,4003
2458,1.3573e+07,0,0.00074458,-0.0017781,9.4851e-05,-0.26887,-0.020589,-9.7677,0,0,44.77,1,1,8008,4003
2462,1.3576e+07,0,0.00093208,-0.0013995,2.6711e-05,-0.26917,-0.021201,-9.7648,0,0,44.77,1,1,8008,4003
2465,1.3578e+07,0,0.00079907,-0.0012985,-2.2934e-05,-0.2705,-0.021034,-9.7589,0,0,44.771,1,1,8008,4003
2496,1.358e+07,0,0.00020648,-0.0014065,-8.8133e-05,-0.27085,-0.021489,-9.7551,0,0,44.771,1,1,8008,4003
2499,1.3583e+07,0,-0.00063259,-0.0016342,-0.00043592,-0.26954,-0.021368,-9.7524,0,0,44.771,1,1,8008,4003
2503,1.3586e+07,0,-0.0008177,-0.0014,-0.00034838,-0.26796,-0.021109,-9.7505,0,0,44.771,1,1,8008,4003
2506,1.3588e+07,0,-0.00040439,-0.00070832,-0.0004102,-0.26593,-0.020115,-9.7461,0,0,44.771,1,1,8008,4003
2537,1.3591e+07,0,-0.00060536,-0.00045197,-0.0013399,-0.26296,-0.018949,-9.7441,0,0,44.771,1,1,8008,4003
2540,1.3593e+07,0,-0.000676,-0.0001504,-0.0017664,-0.2629,-0.01806,-9.7447,0,0,44.771,1,1,8008,4003
2543,1.3597e+07,0,-0.00029431,-0.00056113,-0.0014369,-0.26239,-0.016733,-9.7475,0,0,44.771,1,1,8008,4003
2546,1.3599e+07,0,0.00046833,-0.00058985,-0.0013907,-0.26133,-0.015232,-9.7509,0,0,44.771,1,1,8008,4003
2577,1.3601e+07,0,0.0015898,8.5033e-05,-0.0011386,-0.26052,-0.011947,-9.7541,0,0,44.771,1,1,8008,4003
2582,1.3604e+07,0,0.0009588,0.00049257,-0.00032688,-0.261,-0.011174,-9.7528,0,0,44.771,1,1,8008,4003
2586,1.3606e+07,0,0.00026811,0.00043377,-0.00064833,-0.26159,-0.012078,-9.7494,0,0,44.771,1,1,8008,4003
2589,1.361e+07,0,-0.00048293,0.00050331,-0.0010039,-0.26248,-0.016448,-9.7423,0,0,44.771,1,1,8008,4003
2620,1.3612e+07,0,-0.000529,-0.00023236,-0.0014686,-0.26444,-0.020625,-9.7382,0,0,44.771,1,1,8008,4003
2623,1.3614e+07,0,-0.00041999,-0.00048441,-0.0014147,-0.26578,-0.022039,-9.7364,0,0,44.771,1,1,8008,4003
2626,1.3617e+07,0,-0.0010798,-0.00034574,-0.0012354,-0.26601,-0.024072,-9.7381,0,0,44.771,1,1,8008,4003
2634,1.362e+07,0,-0.0018706,-5.0813e-05,-0.0010368,-0.26533,-0.023882,-9.7395,0,0,44.771,1,1,8008,4003
2665,1.3623e+07,0,-0.0019911,0.00029601,-5.0209e-05,-0.26589,-0.019187,-9.7391,0,0,44.772,1,1,8008,4003
2668,1.3625e+07,0,-0.0021786,0.001032,-8.6739e-05,-0.26697,-0.012305,-9.7383,0,0,44.772,1,1,8008,4003
2672,1.3628e+07,0,-0.0011549,0.00082277,-0.00013694,-0.26802,-0.0093383,-9.739,0,0,44.772,1,1,8008,4003
2675,1.363e+07,0,0.00094886,-0.00061237,-0.00083188,-0.26931,-0.0076797,-9.7413,0,0,44.772,1,1,8008,4003
2706,1.3632e+07,0,0.00096642,-0.0011079,-0.0019174,-0.26927,-0.0069293,-9.7445,0,0,44.772,1,1,8008,4003
2709,1.3635e+07,0,0.0010901,-3.7811e-05,-0.002012,-0.26702,-0.0067861,-9.7499,0,0,44.772,1,1,8008,4003
2712,1.3638e+07,0,0.0018053,0.00068199,-0.0023673,-0.26524,-0.0078911,-9.7511,0,0,44.772,1,1,8008,4003
2715,1.3641e+07,0,0.0015575,0.0010173,-0.0017377,-0.26431,-0.012246,-9.7491,0,0,44.772,1,1,8008,4003
2746,1.3643e+07,0,0.0014279,0.0011254,-0.00089632,-0.26317,-0.017964,-9.7476,0,0,44.772,1,1,8008,4003
2749,1.3646e+07,0,0.0011845,0.0011364,-0.00049967,-0.2616,-0.02233,-9.7487,0,0,44.773,1,1,8008,4003
2753,1.3648e+07,0,0.001221,-4.9318e-05,5.2911e-06,-0.25862,-0.026813,-9.752,0,0,44.773,1,1,8008,4003
2756,1.3651e+07,0,0.0012957,-0.00056769,-0.00013696,-0.25601,-0.028817,-9.754,0,0,44.773,1,1,8008,4003
2787,1.3653e+07,0,0.00094927,-0.00070408,-0.00083606,-0.25222,-0.032822,-9.7581,0,0,44.773,1,1,8008,4003
2790,1.3656e+07,0,-0.00057621,-0.00079561,0.00030748,-0.24738,-0.037014,-9.7642,0,0,44.773,1,1,8008,4003
2794,1.3658e+07,0,-0.0020882,-0.0010329,0.00090799,-0.24532,-0.038011,-9.7681,0,0,44.773,1,1,8008,4003
2799,1.3667e+07,0,-0.0032455,-0.001614,0.001685,-0.24866,-0.034834,-9.7696,0,0,44.774,1,1,8008,4003
2830,1.367e+07,0,-0.0032249,-0.0016631,0.0013656,-0.25076,-0.033147,-9.7713,0,0,44.774,1,1,8008,4003
2833,1.3672e+07,0,-0.0030811,-0.0014533,0.0020441,-0.254,-0.030801,-9.7733,0,0,44.774,1,1,8008,4003
2836,1.3675e+07,0,-0.0021653,-0.0015414,0.0019555,-0.25571,-0.02923,-9.7728,0,0,44.774,1,1,8008,4003
2839,1.3677e+07,0,-0.00062976,-0.0016151,0.0016522,-0.25735,-0.026585,-9.771,0,0,44.774,1,1,8008,4003
2870,1.368e+07,0,-0.00060034,-0.0021046,0.0012435,-0.2598,-0.024256,-9.7681,0,0,44.774,1,1,8008,4003
2875,1.3682e+07,0,-0.0011813,-0.0020466,0.00054666,-0.26467,-0.020778,-9.7601,0,0,44.775,1,1,8008,4003
2878,1.3685e+07,0,-0.0010477,-0.0016994,0.00036833,-0.26693,-0.018925,-9.7527,0,0,44.775,1,1,8008,4003
2881,1.3688e+07,0,6.667e-05,-0.00077679,0.00061096,-0.26941,-0.015649,-9.7421,0,0,44.775,1,1,8008,4003
2912,1.369e+07,0,-0.0004467,-0.00044181,0.0018115,-0.27168,-0.013027,-9.7354,0,0,44.775,1,1,8008,4003
2915,1.3693e+07,0,-0.0010393,-0.00071622,0.0023315,-0.27357,-0.012084,-9.7311,0,0,44.775,1,1,8008,4003
2918,1.3695e+07,0,-0.0019756,-0.0016155,0.0010725,-0.27795,-0.010473,-9.7278,0,0,44.775,1,1,8008,4003
2921,1.3697e+07,0,-0.0016873,-0.0014116,0.00041308,-0.28088,-0.0094736,-9.7279,0,0,44.775,1,1,8008,4003
2952,1.37e+07,0,-0.00095011,-0.00069934,-0.00029907,-0.2847,-0.010391,-9.7323,0,0,44.775,1,1,8008,4003
2956,1.3702e+07,0,-0.00080965,-0.00033905,-0.000698,-0.28581,-0.014019,-9.7361,0,0,44.775,1,1,8008,4003
2959,1.3705e+07,0,-0.0011959,-9.1763e-05,-0.00086564,-0.28699,-0.018734,-9.7437,0,0,44.775,1,1,8008,4003
2962,1.3708e+07,0,-0.0016577,-0.00010575,-0.00059299,-0.28692,-0.019348,-9.7491,0,0,44.776,1,1,8008,4003
2993,1.3711e+07,0,-0.0014814,-0.00088822,0.00025437,-0.28518,-0.017983,-9.7565,0,0,44.776,1,1,8008,4003
2998,1.3713e+07,0,-0.00031938,-0.0014717,-0.00038933,-0.283,-0.018341,-9.7578,0,0,44.776,1,1,8008,4003
3001,1.3716e+07,0,-0.00030503,-0.0017701,-9.8384e-05,-0.28183,-0.019062,-9.7568,0,0,44.776,1,1,8008,4003
3004,1.3718e+07,0,-0.0010734,-0.001882,0.00047775,-0.27834,-0.020975,-9.7522,0,0,44.776,1,1,8008,4003
3035,1.3721e+07,0,-0.00043801,-0.0014727,1.8555e-05,-0.27423,-0.021568,-9.7457,0,0,44.776,1,1,8008,4003
3042,1.3724e+07,0,-0.00044786,-0.00065304,-0.0016181,-0.2722,-0.020984,-9.7423,0,0,44.776,1,1,8008,4003
3045,1.3726e+07,0,-0.00071611,-0.00047678,-0.0025821,-0.27111,-0.019863,-9.7367,0,0,44.776,1,1,8008,4003
3049,1.3729e+07,0,-0.0010633,-0.00099648,-0.002215,-0.27145,-0.018751,-9.7344,0,0,44.776,1,1,8008,4003
3080,1.3732e+07,0,-0.0015045,-0.0016954,-0.0016364,-0.27425,-0.017393,-9.7334,0,0,44.776,1,1,8008,4003
3084,1.3734e+07,0,-0.00098489,-0.0020193,-0.0022115,-0.27925,-0.013189,-9.734,0,0,44.777,1,1,8008,4003
3087,1.3737e+07,0,-9.7952e-05,-0.0019771,-0.002356,-0.28197,-0.0093849,-9.7368,0,0,44.777,1,1,8008,4003
3090,1.3739e+07,0,-3.6776e-05,-0.0025756,-0.0031992,-0.28568,-0.0063189,-9.7424,0,0,44.777,1,1,8008,4003
3121,1.3742e+07,0,-0.0018916,-0.0023826,-0.0023647,-0.28778,-0.0050902,-9.7477,0,0,44.777,1,1,8008,4003
3124,1.3744e+07,0,-0.0020777,-0.0019658,-0.0022401,-0.28812,-0.0043158,-9.7501,0,0,44.777,1,1,8008,4003
3127,1.3747e+07,0,-0.0022358,-0.0013465,-0.0023231,-0.28741,-0.0035755,-9.7514,0,0,44.777,1,1,8008,4003
3130,1.375e+07,0,-0.0015638,-0.0012656,-0.0020613,-0.2854,-0.002676,-9.7525,0,0,44.778,1,1,8008,4003
3161,1.3752e+07,0,-0.00073821,-0.0014377,-0.0015043,-0.28467,-0.0030935,-9.752,0,0,44.778,1,1,8008,4003
3165,1.3755e+07,0,0.00016513,-0.0014053,-0.0021066,-0.28327,-0.0032006,-9.752,0,0,44.778,1,1,8008,4003
3168,1.3757e+07,0,0.00040721,-0.0015536,-0.0019504,-0.27913,-0.003116,-9.7521,0,0,44.778,1,1,8008,4003
3171,1.376e+07,0,0.00052074,-0.0014059,-0.002116,-0.27706,-0.0025153,-9.7526,0,0,44.778,1,1,8008,4003
3202,1.3762e+07,0,0.0011726,-0.00054794,-0.003275,-0.27754,-0.0029023,-9.7557,0,0,44.778,1,1,8008,4003
3205,1.3766e+07,0,0.0012703,0.00045732,-0.0029942,-0.28008,-0.0059128,-9.7584,0,0,44.779,1,1,8008,4003
3208,1.3767e+07,0,0.0013122,0.00035232,-0.0021575,-0.28108,-0.0081761,-9.7612,0,0,44.779,1,1,8008,4003
3211,1.3773e+07,0,0.0015137,0.0015275,-0.0011716,-0.28631,-0.017541,-9.7668,0,0,44.779,1,1,8008,4003
3243,1.3775e+07,0,0.0015286,0.0020226,-0.0018182,-0.28838,-0.02161,-9.7669,0,0,44.779,1,1,8008,4003
3246,1.3778e+07,0,0.0012589,0.0017689,-0.0018161,-0.28749,-0.022827,-9.7664,0,0,44.778,1,1,8008,4003
3249,1.378e+07,0,-2.7365e-05,0.0014441,-0.0013123,-0.28449,-0.024327,-9.7626,0,0,44.778,1,1,8008,4003
3252,1.3783e+07,0,-0.00051246,0.0011394,-0.0011747,-0.28267,-0.025718,-9.76,0,0,44.778,1,1,8008,4003
3285,1.3785e+07,0,0.00043492,0.0012335,0.00014534,-0.28129,-0.024488,-9.7576,0,0,44.778,1,1,8008,4003
3289,1.3789e+07,0,0.0016496,0.0012674,-0.00069142,-0.28042,-0.021794,-9.7524,0,0,44.778,1,1,8008,4003
3292,1.3791e+07,0,0.001897,0.0005294,-0.0014954,-0.27938,-0.020369,-9.7497,0,0,44.778,1,1,8008,4003
3295,1.3793e+07,0,0.00036517,-0.00010789,-0.0020004,-0.27761,-0.018299,-9.7469,0,0,44.778,1,1,8008,4003
3326,1.3796e+07,0,-0.00027598,-0.00064353,-0.0021723,-0.27641,-0.016859,-9.7451,0,0,44.778,1,1,8008,4003
3329,1.3798e+07,0,0.00080821,-2.5057e-05,-0.0015198,-0.27304,-0.014904,-9.7421,0,0,44.778,1,1,8008,4003
3332,1.3801e+07,0,0.0019804,0.00034502,-0.00044412,-0.27239,-0.014504,-9.7395,0,0,44.778,1,1,8008,4003
3335,1.3803e+07,0,0.0018705,-0.00021022,0.00024307,-0.27262,-0.013041,-9.7358,0,0,44.778,1,1,8008,4003
3366,1.3805e+07,0,0.00018464,-0.00094381,0.00013983,-0.2734,-0.012601,-9.7335,0,0,44.779,1,1,8008,4003
3370,1.3808e+07,0,-0.0015787,-0.0010304,-0.00087483,-0.27315,-0.013216,-9.7311,0,0,44.779,1,1,8008,4003
3374,1.3811e+07,0,-0.0013447,0.00046158,-0.00089879,-0.27186,-0.014989,-9.7322,0,0,44.779,1,1,8008,4003
3377,1.3813e+07,0,-0.0020465,0.0015284,-0.00021961,-0.26904,-0.019345,-9.7363,0,0,44.779,1,1,8008,4003
3408,1.3816e+07,0,-0.0015552,0.00206,9.8835e-05,-0.26644,-0.023519,-9.7398,0,0,44.779,1,1,8008,4003
3411,1.3818e+07,0,-0.0016948,0.002133,-0.000363,-0.26683,-0.025516,-9.7421,0,0,44.779,1,1,8008,4003
3414,1.3821e+07,0,-0.0018755,0.0024794,-0.0006919,-0.26726,-0.026073,-9.7463,0,0,44.779,1,1,8008,4003
3418,1.3823e+07,0,-0.0015406,0.0025813,-0.00069987,-0.26627,-0.026081,-9.7476,0,0,44.779,1,1,8008,4003
3453,1.3826e+07,0,-0.0014478,0.0011405,-0.00013105,-0.26434,-0.026255,-9.7471,0,0,44.779,1,1,8008,4003
3457,1.3828e+07,0,-0.0018334,-0.0001058,0.00051879,-0.26238,-0.025356,-9.7439,0,0,44.779,1,1,8008,4003
3460,1.3831e+07,0,-0.001205,0.00032203,0.0011242,-0.26255,-0.024235,-9.7428,0,0,44.779,1,1,8008,4003
3463,1.3833e+07,0,-0.00048202,0.0006418,0.0026745,-0.26354,-0.023811,-9.743,0,0,44.779,1,1,8008,4003
3494,1.3836e+07,0,-0.0015071,0.00060783,0.001563,-0.2639,-0.023954,-9.7432,0,0,44.779,1,1,8008,4003
3498,1.3838e+07,0,-0.0018936,0.00028691,0.00089384,-0.26305,-0.022834,-9.7426,0,0,44.779,1,1,8008,4003
3501,1.3841e+07,0,-0.0017675,0.00050218,0.0011762,-0.26322,-0.020744,-9.7408,0,0,44.779,1,1,8008,4003
3505,1.3844e+07,0,-0.0012907,0.00096332,0.0015743,-0.26608,-0.017513,-9.7367,0,0,44.779,1,1,8008,4003
3536,1.3846e+07,0,-0.00080486,0.0013341,0.0017635,-0.26717,-0.015185,-9.7341,0,0,44.779,1,1,8008,4003
3539,1.3849e+07,0,-0.00025349,0.0012818,0.0022537,-0.26619,-0.014316,-9.735,0,0,44.779,1,1,8008,4003
3542,1.3851e+07,0,0.00013106,0.0015943,0.0018282,-0.26412,-0.016346,-9.7395,0,0,44.779,1,1,8008,4003
3547,1.3854e+07,0,-0.00016744,0.0012481,0.0017565,-0.26289,-0.019443,-9.7409,0,0,44.779,1,1,8008,4003
3578,1.3857e+07,0,-0.0012689,0.00037725,0.00087836,-0.26353,-0.023162,-9.7409,0,0,44.78,1,1,8008,4003
3582,1.3858e+07,0,-0.0013003,0.00018331,-0.00053246,-0.26467,-0.024237,-9.7418,0,0,44.78,1,1,8008,4003
3585,1.3862e+07,0,-0.00033631,7.5324e-05,-0.0021543,-0.26578,-0.023481,-9.7446,0,0,44.78,1,1,8008,4003
3588,1.3864e+07,0,-4.7028e-05,-0.0013968,-0.0027179,-0.26732,-0.021903,-9.7454,0,0,44.78,1,1,8008,4003
3619,1.3866e+07,0,-0.00022829,-0.0028622,-0.0014786,-0.26703,-0.018844,-9.7444,0,0,44.78,1,1,8008,4003
3622,1.3871e+07,0,-0.00048116,-0.0034108,0.00047979,-0.26442,-0.0077091,-9.7445,0,0,44.779,1,1,8008,4003
3625,1.3875e+07,0,0.00076007,-0.0032572,0.00074378,-0.2618,-0.0042213,-9.7416,0,0,44.779,1,1,8008,4003
3628,1.3876e+07,0,0.0015339,-0.0032328,0.00014826,-0.25956,-0.0015453,-9.7382,0,0,44.779,1,1,8008,4003
3659,1.3879e+07,0,0.0017858,-0.0024333,-0.0011697,-0.26087,-0.0028219,-9.7388,0,0,44.779,1,1,8008,4003
3662,1.3882e+07,0,0.0012588,-0.002019,-0.0014242,-0.26195,-0.0039121,-9.7387,0,0,44.779,1,1,8008,4003
3665,1.3884e+07,0,0.0016383,-0.0019428,-0.0011702,-0.26349,-0.0059511,-9.7369,0,0,44.779,1,1,8008,4003
3668,1.3886e+07,0,0.0024392,-0.0020636,-0.0012674,-0.26564,-0.0096351,-9.7365,0,0,44.779,1,1,8008,4003
3700,1.3889e+07,0,0.0025377,-0.0012787,-0.0015524,-0.26892,-0.016708,-9.7374,0,0,44.779,1,1,8008,4003
3703,1.3892e+07,0,0.0022097,-0.00046542,-0.0019579,-0.26971,-0.020497,-9.7372,0,0,44.779,1,1,8008,4003
3706,1.3894e+07,0,0.0011019,0.00016443,-0.0019264,-0.27078,-0.022898,-9.7362,0,0,44.78,1,1,8008,4003
3709,1.3897e+07,0,0.00089619,0.00048726,-0.0020506,-0.27133,-0.023138,-9.7371,0,0,44.78,1,1,8008,4003
3740,1.3899e+07,0,0.001141,0.00071423,-0.002768,-0.26887,-0.022971,-9.7395,0,0,44.78,1,1,8008,4003
3743,1.3902e+07,0,0.00052075,0.00028314,-0.0034478,-0.26707,-0.022759,-9.7388,0,0,44.78,1,1,8008,4003
3746,1.3904e+07,0,-0.00058617,0.00041899,-0.0037772,-0.26476,-0.021495,-9.7342,0,0,44.78,1,1,8008,4003
3749,1.3906e+07,0,-0.00072557,0.00089617,-0.0039078,-0.26282,-0.019813,-9.7295,0,0,44.78,1,1,8008,4003
3781,1.3909e+07,0,0.00013298,2.5511e-05,-0.0044961,-0.25994,-0.014885,-9.7261,0,0,44.78,1,1,8008,4003
3784,1.3912e+07,0,0.00065476,-0.0010705,-0.0040714,-0.25911,-0.010468,-9.7246,0,0,44.78,1,1,8008,4003
3787,1.3914e+07,0,0.00026679,-0.00089897,-0.0020643,-0.26051,-0.0035096,-9.7249,0,0,44.779,1,1,8008,4003
3790,1.3917e+07,0,-6.0684e-05,-0.00082196,-0.0018352,-0.26168,-0.00015932,-9.7256,0,0,44.779,1,1,8008,4003
3821,1.3919e+07,0,-0.00020547,-0.0016464,-0.0023179,-0.26298,0.00092219,-9.724,0,0,44.779,1,1,8008,4003
3824,1.3921e+07,0,0.00018338,-0.0018316,-0.0026802,-0.26387,-0.00087904,-9.7217,0,0,44.779,1,1,8008,4003
3829,1.3924e+07,0,8.7166e-05,-0.00070835,-0.0021311,-0.26256,-0.0058586,-9.7187,0,0,44.779,1,1,8008,4003
3836,1.3927e+07,0,-0.00043667,0.00024744,-0.0013208,-0.25988,-0.010267,-9.7186,0,0,44.779,1,1,8008,4003
3867,1.393e+07,0,-0.0003029,0.00036123,-0.00095833,-0.25656,-0.016092,-9.7219,0,0,44.779,1,1,8008,4004
3871,1.3932e+07,0,0.0011663,0.00057823,-0.0021307,-0.25653,-0.020084,-9.7268,0,0,44.779,1,1,8008,4004
3874,1.3935e+07,0,0.001553,0.001093,-0.002802,-0.25761,-0.021176,-9.7298,0,0,44.779,1,1,8008,4004
3877,1.3938e+07,0,0.0004013,0.0021179,-0.0036519,-0.25986,-0.021934,-9.7342,0,0,44.78,1,1,8008,4004
3908,1.394e+07,0,-0.00034939,0.0019768,-0.0038757,-0.26362,-0.022522,-9.7387,0,0,44.78,1,1,8008,4004
3911,1.3943e+07,0,-0.00026543,4.5972e-05,-0.0030957,-0.26625,-0.021206,-9.7435,0,0,44.78,1,1,8008,4004
3914,1.3946e+07,0,0.00017252,-0.00056024,-0.002569,-0.26584,-0.020126,-9.7485,0,0,44.78,1,1,8008,4004
3917,1.3948e+07,0,0.00035807,0.00027027,-0.0010879,-0.26404,-0.017424,-9.7571,0,0,44.78,1,1,8008,4004
3948,1.3951e+07,0,-0.00087831,0.00020643,-0.00087925,-0.26268,-0.016724,-9.7626,0,0,44.78,1,1,8008,4004
3952,1.3954e+07,0,-0.00075985,0.0007347,-0.0013097,-0.26236,-0.017643,-9.7646,0,0,44.78,1,1,8008,4004
3955,1.3956e+07,0,-0.00074,0.0014748,-0.0015647,-0.2654,-0.018285,-9.766,0,0,44.779,1,1,8008,4004
3958,1.3959e+07,0,-0.0010196,0.00080398,-0.0014239,-0.2684,-0.018602,-9.7659,0,0,44.779,1,1,8008,4004
3989,1.3962e+07,0,-0.002189,-1.6234e-05,-0.00094877,-0.26992,-0.018729,-9.7638,0,0,44.779,1,1,8008,4004
3994,1.3964e+07,0,-0.002795,7.3364e-06,-0.00085941,-0.26676,-0.017893,-9.7621,0,0,44.779,1,1,8008,4004
3997,1.3966e+07,0,-0.0027911,0.00053938,-0.00057056,-0.26549,-0.018306,-9.7615,0,0,44.779,1,1,8008,4004
4000,1.3969e+07,0,-0.0023539,0.00034211,0.00047351,-0.26542,-0.020766,-9.7642,0,0,44.779,1,1,8008,4004
4031,1.3977e+07,0,-0.00078858,-0.0020422,0.001535,-0.26408,-0.031024,-9.7649,0,0,44.78,1,1,8008,4004
4034,1.398e+07,0,-0.0011766,-0.0023528,0.0010621,-0.26305,-0.031873,-9.7621,0,0,44.78,1,1,8008,4004
4065,1.3983e+07,0,-0.00063961,-0.0016189,0.00036193,-0.26165,-0.031587,-9.7599,0,0,44.78,1,1,8008,4004
4068,1.3985e+07,0,0.00088476,-0.0009064,-0.00020016,-0.2582,-0.030039,-9.7564,0,0,44.78,1,1,8008,4004
4071,1.3987e+07,0,0.00049437,-0.00098303,0.00028863,-0.25748,-0.028892,-9.7558,0,0,44.78,1,1,8008,4004
4075,1.399e+07,0,-0.00044712,-0.00053022,0.0013237,-0.25853,-0.026919,-9.7558,0,0,44.78,1,1,8008,4004
4106,1.3992e+07,0,-0.00055157,-0.00057573,0.00149,-0.25809,-0.024723,-9.7555,0,0,44.78,1,1,8008,4004
4109,1.3995e+07,0,-3.7743e-05,-0.0014126,0.0022616,-0.25886,-0.0235,-9.7546,0,0,44.78,1,1,8008,4004
4112,1.3998e+07,0,0.00013033,-0.001444,0.0026701,-0.26001,-0.025185,-9.7532,0,0,44.781,1,1,8008,4004
4116,1.4e+07,0,-0.0004716,-0.00093106,0.0022831,-0.26134,-0.029028,-9.7531,0,0,44.781,1,1,8008,4004
4147,1.4002e+07,0,-0.00085601,-0.00072918,0.0026004,-0.26386,-0.03007,-9.7538,0,0,44.781,1,1,8008,4004
4150,1.4005e+07,0,-0.00058418,-0.0005461,0.0027825,-0.27041,-0.029575,-9.7541,0,0,44.781,1,1,8008,4004
4153,1.4007e+07,0,0.00080147,-0.00098893,0.0016638,-0.27475,-0.030624,-9.7522,0,0,44.781,1,1,8008,4004
4156,1.401e+07,0,0.0016393,-0.0015035,8.9956e-05,-0.27912,-0.03257,-9.7501,0,0,44.781,1,1,8008,4004
4187,1.4013e+07,0,0.00052383,-0.0016031,0.00029615,-0.28239,-0.032744,-9.7505,0,0,44.781,1,1,8008,4004
4190,1.4016e+07,0,0.00045142,-0.00074676,0.0012545,-0.2841,-0.031935,-9.7499,0,0,44.782,1,1,8008,4004
4193,1.4018e+07,0,0.00011673,0.00067727,0.0016957,-0.28527,-0.030372,-9.7466,0,0,44.782,1,1,8008,4004
4197,1.4021e+07,0,0.00038601,0.0006309,0.00089459,-0.28393,-0.028612,-9.7426,0,0,44.782,1,1,8008,4004
4228,1.4023e+07,0,0.00031615,0.00045074,-3.6167e-06,-0.27834,-0.023919,-9.7359,0,0,44.782,1,1,8008,4004
4231,1.4026e+07,0,-1.2545e-06,7.5059e-05,-0.00020085,-0.27489,-0.020599,-9.7342,0,0,44.782,1,1,8008,4004
4235,1.4028e+07,0,-0.00046873,5.2092e-05,1.1253e-05,-0.2726,-0.015521,-9.7371,0,0,44.782,1,1,8008,4004
4242,1.4031e+07,0,-0.00083087,0.00043306,0.00073222,-0.27216,-0.014257,-9.741,0,0,44.783,1,1,8008,4004
4275,1.4033e+07,0,-0.0018414,0.0010577,0.0014843,-0.27013,-0.014008,-9.7465,0,0,44.783,1,1,8008,4004
4278,1.4036e+07,0,-0.0014171,0.0023008,0.00096248,-0.26754,-0.014172,-9.7484,0,0,44.783,1,1,8008,4004
4281,1.4039e+07,0,-0.00014149,0.0021727,9.1847e-05,-0.26637,-0.013897,-9.7496,0,0,44.783,1,1,8008,4004
4284,1.4041e+07,0,0.0018534,0.00044809,-0.00053249,-0.26504,-0.015108,-9.7505,0,0,44.783,1,1,8008,4004
4315,1.4043e+07,0,0.0020707,-0.00047643,-0.00046932,-0.26405,-0.016118,-9.7517,0,0,44.783,1,1,8008,4004
4318,1.4046e+07,0,0.00086145,-0.00036781,-0.00067242,-0.26183,-0.016844,-9.7575,0,0,44.783,1,1,8008,4004
4321,1.4049e+07,0,0.0003024,1.0603e-05,-0.00063447,-0.26014,-0.015566,-9.7618,0,0,44.783,1,1,8008,4004
4325,1.4051e+07,0,0.00013016,-0.0001954,-0.00028278,-0.25864,-0.01202,-9.7638,0,0,44.783,1,1,8008,4004
4356,1.4054e+07,0,0.00040077,-0.00013838,-0.00026572,-0.25979,-0.0086654,-9.7619,0,0,44.783,1,1,8008,4004
4360,1.4056e+07,0,0.00076831,-0.00089147,0.00017567,-0.26236,-0.0063314,-9.7587,0,0,44.783,1,1,8008,4004
4365,1.4059e+07,0,0.00086587,-0.0010319,0.00011545,-0.26258,-0.0056889,-9.7579,0,0,44.783,1,1,8008,4004
4368,1.4061e+07,0,0.00097413,-0.00050962,-0.000958,-0.25967,-0.0056475,-9.7592,0,0,44.783,1,1,8008,4004
4399,1.4064e+07,0,0.00095171,0.00016164,-0.0016238,-0.25679,-0.0071392,-9.7592,0,0,44.783,1,1,8008,4004
4402,1.4066e+07,0,0.00099944,0.00072209,-0.0016642,-0.25618,-0.0080753,-9.7578,0,0,44.783,1,1,8008,4004
4405,1.4069e+07,0,0.0011728,0.00016567,-0.0012273,-0.2565,-0.0092949,-9.7571,0,0,44.783,1,1,8008,4004
4409,1.4071e+07,0,0.00055491,-0.00016591,-0.0017984,-0.25609,-0.010769,-9.7573,0,0,44.783,1,1,8008,4004
4440,1.4078e+07,0,0.00086136,-0.00042313,-0.0013178,-0.2532,-0.01442,-9.7585,0,0,44.783,1,1,8008,4004
4443,1.4079e+07,0,0.00072118,3.1731e-05,-0.0012851,-0.25344,-0.016085,-9.7601,0,0,44.783,1,1,8008,4004
4446,1.4082e+07,0,0.0010656,0.00011324,-0.0010452,-0.25418,-0.017738,-9.7601,0,0,44.783,1,1,8008,4004
4477,1.4085e+07,0,0.00090451,0.00082501,-0.0022265,-0.25593,-0.022101,-9.7578,0,0,44.783,1,1,8008,4004
4480,1.4087e+07,0,0.00034269,0.001286,-0.0024127,-0.25963,-0.024736,-9.7551,0,0,44.783,1,1,8008,4004
4483,1.409e+07,0,0.00032414,0.0010337,-0.0022718,-0.26663,-0.026759,-9.7509,0,0,44.783,1,1,8008,4004
4488,1.4092e+07,0,-0.00011303,0.0021049,-0.0024872,-0.27004,-0.027093,-9.7506,0,0,44.783,1,1,8008,4004
4519,1.4094e+07,0,4.3985e-05,0.0028631,-0.0030644,-0.27288,-0.026279,-9.7511,0,0,44.783,1,1,8008,4004
4522,1.4097e+07,0,3.4885e-05,0.0020654,-0.0030885,-0.27321,-0.024191,-9.7509,0,0,44.783,1,1,8008,4004
4525,1.4099e+07,0,0.00011839,0.0013533,-0.0029486,-0.27151,-0.018952,-9.753,0,0,44.783,1,1,8008,4004
4528,1.4102e+07,0,0.00011207,0.0014925,-0.0030647,-0.27093,-0.015462,-9.7549,0,0,44.783,1,1,8008,4004
4559,1.4105e+07,0,-0.00032186,0.0021858,-0.0028802,-0.27134,-0.013992,-9.7572,0,0,44.783,1,1,8008,4004
4562,1.4107e+07,0,-0.00064755,0.0018051,-0.0020998,-0.27133,-0.01346,-9.7597,0,0,44.783,1,1,8008,4004
4565,1.411e+07,0,-0.0013347,0.00058833,-0.0010907,-0.27151,-0.011782,-9.7676,0,0,44.783,1,1,8008,4004
4570,1.4112e+07,0,-0.0016409,0.0004922,-0.00066069,-0.27134,-0.009513,-9.7739,0,0,44.783,1,1,8008,4004
4601,1.4114e+07,0,-0.00070596,0.0010519,-0.00065118,-0.27039,-0.0070717,-9.7796,0,0,44.783,1,1,8008,4004
4604,1.4117e+07,0,-1.7965e-05,0.00095041,-0.00035142,-0.26924,-0.0078343,-9.7785,0,0,44.783,1,1,8008,4004
4607,1.412e+07,0,0.00034088,-0.00046591,0.00059561,-0.26802,-0.012737,-9.7712,0,0,44.783,1,1,8008,4004
4611,1.4122e+07,0,-0.00024968,-0.0014368,0.00065993,-0.26796,-0.015599,-9.7672,0,0,44.783,1,1,8008,4004
4642,1.4124e+07,0,-0.00064757,-0.0017203,0.00074999,-0.27008,-0.018323,-9.7634,0,0,44.783,1,1,8008,4004
4645,1.4127e+07,0,-0.00014242,-0.0016792,0.0016572,-0.27128,-0.018844,-9.7623,0,0,44.783,1,1,8008,4004
4648,1.413e+07,0,0.00060284,-0.0010233,0.0017546,-0.27227,-0.020233,-9.7602,0,0,44.783,1,1,8008,4004
4655,1.4132e+07,0,0.00046789,-0.00079355,0.00091591,-0.27288,-0.022395,-9.7573,0,0,44.783,1,1,8008,4004
4686,1.4135e+07,0,-0.00087365,-0.00086054,0.00063913,-0.27388,-0.025749,-9.7547,0,0,44.783,1,1,8008,4004
4689,1.4137e+07,0,-0.001614,-0.00066303,0.00093589,-0.27404,-0.026837,-9.7545,0,0,44.783,1,1,8008,4004
4692,1.4139e+07,0,-0.0020242,0.00019259,0.0009324,-0.27473,-0.026104,-9.7526,0,0,44.783,1,1,8008,4004
4696,1.4142e+07,0,-0.00032934,0.00072375,0.00049308,-0.27516,-0.025061,-9.7519,0,0,44.783,1,1,8008,4004
4727,1.4144e+07,0,0.00091825,0.00077212,0.00074748,-0.27391,-0.025906,-9.7526,0,0,44.783,1,1,8008,4004
4730,1.4148e+07,0,0.001269,-0.0002,0.0017123,-0.27057,-0.025172,-9.7549,0,0,44.783,1,1,8008,4004
4734,1.415e+07,0,0.00052359,-0.0003977,0.0022338,-0.2682,-0.02198,-9.7568,0,0,44.783,1,1,8008,4004
4737,1.4152e+07,0,-0.00089933,-0.00035867,0.0017829,-0.26536,-0.016205,-9.7574,0,0,44.783,1,1,8008,4004
4768,1.4155e+07,0,-0.00077506,-0.00040067,0.0018283,-0.26523,-0.013295,-9.7553,0,0,44.783,1,1,8008,4004
4771,1.4157e+07,0,-0.00069014,-0.00072583,0.0022871,-0.26714,-0.010755,-9.7509,0,0,44.783,1,1,8008,4004
4774,1.416e+07,0,-0.00091578,-0.0010902,0.0024055,-0.26861,-0.0092368,-9.7482,0,0,44.783,1,1,8008,4004
4778,1.4162e+07,0,-0.0014782,-0.0015999,0.0026446,-0.27106,-0.006474,-9.75,0,0,44.783,1,1,8008,4004
4809,1.4164e+07,0,-0.0017603,-0.0014357,0.0030151,-0.27197,-0.0048952,-9.7529,0,0,44.783,1,1,8008,4004
4812,1.4167e+07,0,-0.0006448,-0.00145,0.002347,-0.27099,-0.0049094,-9.7568,0,0,44.783,1,1,8008,4004
4815,1.417e+07,0,-4.2928e-05,-0.0014107,0.001334,-0.26848,-0.0048203,-9.7568,0,0,44.783,1,1,8008,4004
4818,1.4175e+07,0,-0.0015134,-0.00050113,0.0011772,-0.26552,6.4141e-05,-9.7527,0,0,44.783,1,1,8008,4004
4849,1.4177e+07,0,-0.0017444,3.434e-05,0.001794,-0.26498,0.00024431,-9.7486,0,0,44.783,1,1,8008,4004
4852,1.418e+07,0,-0.0020325,0.00059137,0.0019648,-0.26455,-0.0010017,-9.7434,0,0,44.783,1,1,8008,4004
4856,1.4185e+07,0,-0.0014826,0.00070674,0.00092006,-0.27063,-0.0069535,-9.7336,0,0,44.783,1,1,8008,4004
4887,1.4188e+07,0,-1.677e-05,-0.00014525,0.00080597,-0.27574,-0.0054033,-9.7327,0,0,44.783,1,1,8008,4004
4890,1.4191e+07,0,0.00045831,4.5681e-05,0.00064918,-0.27919,-0.0044435,-9.7315,0,0,44.783,1,1,8008,4004
4894,1.4193e+07,0,0.00012258,0.00065634,0.0009953,-0.28524,-0.0055039,-9.7299,0,0,44.783,1,1,8008,4004
4897,1.4196e+07,0,3.1327e-05,0.00090522,0.00070843,-0.288,-0.0068014,-9.7308,0,0,44.783,1,1,8008,4004
4928,1.4199e+07,0,-0.00026078,0.0013357,0.00047924,-0.28847,-0.0078963,-9.7363,0,0,44.783,1,1,8008,4004
4931,1.4201e+07,0,0.00032373,0.00093039,0.00034733,-0.28755,-0.010959,-9.7443,0,0,44.783,1,1,8008,4004
4934,1.4203e+07,0,-0.00054952,0.00072532,0.00082856,-0.28546,-0.013569,-9.7496,0,0,44.783,1,1,8008,4004
4937,1.4206e+07,0,-0.00054023,-0.00012912,0.00062039,-0.28144,-0.016849,-9.7586,0,0,44.783,1,1,8008,4004
4968,1.4209e+07,0,0.00024881,0.00017072,-0.00020064,-0.27827,-0.019555,-9.7647,0,0,44.783,1,1,8008,4004
4971,1.4211e+07,0,0.0003861,0.00085422,-0.00092568,-0.27275,-0.023998,-9.7708,0,0,44.783,1,1,8008,4004
4975,1.4213e+07,0,0.00024022,0.001327,-0.002252,-0.26821,-0.026577,-9.772,0,0,44.783,1,1,8008,4004
4978,1.4216e+07,0,-0.00043278,0.0024078,-0.0042047,-0.26139,-0.031317,-9.7673,0,0,44.783,1,1,8008,4004
5009,1.4218e+07,0,-0.0015026,0.0021817,-0.0038712,-0.25667,-0.033606,-9.7618,0,0,44.783,1,1,8008,4004
5012,1.4221e+07,0,-0.0033154,0.00083877,-0.0020183,-0.25271,-0.032185,-9.7516,0,0,44.783,1,1,8008,4004
5015,1.4224e+07,0,-0.0031339,0.00019784,-0.0017064,-0.25238,-0.030708,-9.746,0,0,44.783,1,1,8008,4004
5018,1.4226e+07,0,-0.0023785,0.0001165,-0.0022065,-0.25382,-0.031104,-9.7425,0,0,44.784,1,1,8008,4004
5049,1.4228e+07,0,-0.0027249,0.00070221,-0.0017238,-0.25465,-0.031871,-9.7426,0,0,44.784,1,1,8008,4004
5052,1.4231e+07,0,-0.0035386,-0.00011747,-0.00111,-0.25501,-0.030298,-9.7443,0,0,44.784,1,1,8008,4004
5061,1.4234e+07,0,-0.002686,-0.00080052,-0.0014054,-0.25554,-0.029026,-9.7477,0,0,44.784,1,1,8008,4004
5064,1.4236e+07,0,-5.2613e-05,-0.0015802,-0.0023102,-0.25512,-0.028027,-9.7521,0,0,44.784,1,1,8008,4004
5095,1.4239e+07,0,0.00068204,-0.0010433,-0.0025605,-0.25214,-0.0283,-9.7504,0,0,44.784,1,1,8008,4004
5098,1.4241e+07,0,-0.00048939,-0.0010961,-0.002835,-0.24933,-0.0265,-9.7493,0,0,44.784,1,1,8008,4004
5102,1.4244e+07,0,-0.00085669,-0.001113,-0.003897,-0.24692,-0.024032,-9.7491,0,0,44.784,1,1,8008,4004
5105,1.4246e+07,0,-0.00050063,-0.00091079,-0.0045387,-0.24704,-0.023061,-9.7506,0,0,44.784,1,1,8008,4004
5136,1.425e+07,0,-0.00028262,-0.0011571,-0.0043604,-0.248,-0.021901,-9.7579,0,0,44.784,1,1,8008,4004
5139,1.4252e+07,0,-0.00112,-0.0024007,-0.0039026,-0.2512,-0.023586,-9.764,0,0,44.784,1,1,8008,4004
5143,1.4254e+07,0,-0.001911,-0.0030598,-0.0039312,-0.25525,-0.024496,-9.7661,0,0,44.785,1,1,8008,4004
5146,1.4257e+07,0,-0.0024109,-0.0029771,-0.0037423,-0.26296,-0.023519,-9.7655,0,0,44.785,1,1,8008,4004
5177,1.426e+07,0,-0.0016769,-0.002089,-0.0031286,-0.2684,-0.023243,-9.7635,0,0,44.785,1,1,8008,4004
5182,1.4262e+07,0,-0.001105,-0.0020194,-0.0021034,-0.27453,-0.026576,-9.7614,0,0,44.785,1,1,8008,4004
5185,1.4265e+07,0,-0.0021625,-0.0023458,-0.001478,-0.2782,-0.029697,-9.7627,0,0,44.785,1,1,8008,4004
5188,1.4267e+07,0,-0.0038679,-0.002484,-0.00091496,-0.28309,-0.029958,-9.7673,0,0,44.785,1,1,8008,4004
5219,1.4269e+07,0,-0.0040789,-0.0025317,-0.00072286,-0.28496,-0.028197,-9.7692,0,0,44.786,1,1,8008,4004
5222,1.4272e+07,0,-0.0022887,-0.0023738,-0.0012543,-0.28473,-0.025246,-9.7683,0,0,44.786,1,1,8008,4004
5226,1.4278e+07,0,0.0006804,-0.0019423,-0.0016637,-0.27794,-0.021039,-9.7635,0,0,44.786,1,1,8008,4004
5259,1.428e+07,0,0.00055888,-0.0012163,-0.0014026,-0.27165,-0.019749,-9.7613,0,0,44.786,1,1,8008,4004
5262,1.4283e+07,0,0.00015563,-0.00043731,-0.0011339,-0.26809,-0.0186,-9.7608,0,0,44.786,1,1,8008,4004
5267,1.4286e+07,0,-0.00052812,0.00030245,-0.00069966,-0.2647,-0.018309,-9.7585,0,0,44.786,1,1,8008,4004
5270,1.4288e+07,0,-0.0013183,0.00041821,-0.00057683,-0.26364,-0.019049,-9.7558,0,0,44.786,1,1,8008,4004
5301,1.429e+07,0,-0.0021503,-0.00023876,0.00011181,-0.26396,-0.020684,-9.7542,0,0,44.786,1,1,8008,4004
5304,1.4293e+07,0,-0.0019749,-0.0011823,0.00080022,-0.26476,-0.022198,-9.7529,0,0,44.786,1,1,8008,4004
5307,1.4297e+07,0,-0.0017158,-0.002055,0.0018,-0.2653,-0.024037,-9.7512,0,0,44.786,1,1,8008,4004
5310,1.4298e+07,0,-0.0016627,-0.00090966,0.0013014,-0.26595,-0.026709,-9.7488,0,0,44.787,1,1,8008,4004
5341,1.4301e+07,0,-0.002317,0.00025281,0.00069452,-0.26711,-0.029296,-9.7477,0,0,44.787,1,1,8008,4004
5344,1.4303e+07,0,-0.0022946,6.6935e-05,0.0013803,-0.26955,-0.029136,-9.7475,0,0,44.787,1,1,8008,4004
5348,1.4306e+07,0,-0.0010034,4.6803e-05,0.0017564,-0.27611,-0.025754,-9.7509,0,0,44.787,1,1,8008,4004
5351,1.4309e+07,0,-0.0006735,-0.00016244,0.0020621,-0.28137,-0.02102,-9.7543,0,0,44.787,1,1,8008,4004
5382,1.4312e+07,0,0.00017202,0.00045297,0.0020946,-0.28688,-0.013698,-9.7594,0,0,44.787,1,1,8008,4004
5385,1.4314e+07,0,0.0022118,0.0011586,0.0018847,-0.29152,-0.011087,-9.7672,0,0,44.787,1,1,8008,4004
5388,1.4317e+07,0,0.0025759,0.001218,0.0023966,-0.29456,-0.0096836,-9.7701,0,0,44.787,1,1,8008,4004
5391,1.432e+07,0,0.002052,0.00074152,0.0028112,-0.29691,-0.0067211,-9.7719,0,0,44.787,1,1,8008,4004
5422,1.4322e+07,0,0.0016461,0.00067896,0.002403,-0.2963,-0.0029537,-9.7695,0,0,44.787,1,1,8008,4004
5425,1.4325e+07,0,0.0018675,0.0015265,0.0023184,-0.29611,-0.0028557,-9.7665,0,0,44.787,1,1,8008,4004
5429,1.4327e+07,0,0.0017979,0.0012582,0.0012377,-0.29629,-0.0063881,-9.7624,0,0,44.787,1,1,8008,4004
5432,1.433e+07,0,0.0014266,0.00060998,0.00038119,-0.29544,-0.008541,-9.7608,0,0,44.787,1,1,8008,4004
5463,1.4333e+07,0,0.0012118,-0.00021031,0.0004644,-0.29455,-0.010349,-9.7627,0,0,44.788,1,1,8008,4004
5466,1.4335e+07,0,0.00092583,-7.5573e-05,0.0014311,-0.29408,-0.011357,-9.7644,0,0,44.788,1,1,8008,4004
5474,1.4338e+07,0,0.00032635,0.00077922,0.0017881,-0.29312,-0.01322,-9.7616,0,0,44.788,1,1,8008,4004
5477,1.434e+07,0,-0.00047653,0.0015251,0.0012602,-0.292,-0.014005,-9.7589,0,0,44.788,1,1,8008,4004
5508,1.4343e+07,0,-0.0012511,0.00078613,0.0013462,-0.29205,-0.014008,-9.7552,0,0,44.788,1,1,8008,4004
5511,1.4345e+07,0,-0.00088004,0.00046586,0.0012719,-0.29135,-0.012487,-9.7526,0,0,44.788,1,1,8008,4004
5514,1.4347e+07,0,0.00087983,0.00032557,0.00098948,-0.28979,-0.011009,-9.7476,0,0,44.788,1,1,8008,4004
5517,1.435e+07,0,0.0020111,0.00033367,0.001966,-0.2907,-0.010726,-9.7446,0,0,44.788,1,1,8008,4004
5548,1.4353e+07,0,0.0020595,-0.00087383,0.0036168,-0.29127,-0.0091622,-9.7415,0,0,44.788,1,1,8008,4004
5551,1.4356e+07,0,0.0020057,-0.0014475,0.0029921,-0.29089,-0.0073594,-9.7407,0,0,44.788,1,1,8008,4004
5555,1.4358e+07,0,0.0023268,-0.0014162,0.0020262,-0.29059,-0.0078741,-9.7415,0,0,44.788,1,1,8008,4004
5558,1.4361e+07,0,0.0020129,-0.0010316,0.0011037,-0.29009,-0.0094563,-9.7412,0,0,44.788,1,1,8008,4004
5589,1.4363e+07,0,0.00076342,-0.00071469,0.00019146,-0.28785,-0.012152,-9.7421,0,0,44.789,1,1,8008,4004
5594,1.4366e+07,0,0.00028363,-0.0007711,-0.0013862,-0.28468,-0.013999,-9.7432,0,0,44.789,1,1,8008,4004
5597,1.4369e+07,0,-9.4199e-06,-0.0004714,-0.0012831,-0.28373,-0.014661,-9.7461,0,0,44.789,1,1,8008,4004
5600,1.4372e+07,0,-0.00045123,0.00061621,-0.00014951,-0.28473,-0.014792,-9.7506,0,0,44.789,1,1,8008,4004
5603,1.4374e+07,0,-0.00010741,0.0010156,0.00020713,-0.28451,-0.013992,-9.7513,0,0,44.789,1,1,8008,4004
5634,1.4376e+07,0,0.00070092,0.00097359,0.00079078,-0.28191,-0.01283,-9.7485,0,0,44.789,1,1,8008,4004
5638,1.4379e+07,0,0.00024422,0.0001504,-0.00057062,-0.27941,-0.011886,-9.7476,0,0,44.789,1,1,8008,4004
5641,1.4381e+07,0,-0.00040025,-0.00038943,-0.0016204,-0.27802,-0.011833,-9.7503,0,0,44.789,1,1,8008,4004
5644,1.4385e+07,0,-0.001673,-0.0013447,-0.0022445,-0.27599,-0.010763,-9.7578,0,0,44.789,1,1,8008,4004
5647,1.439e+07,0,0.00083962,-0.00077157,-0.0029082,-0.27667,-0.0059748,-9.7652,0,0,44.789,1,1,8008,4004
5678,1.4392e+07,0,0.00099652,9.7917e-05,-0.002616,-0.2787,-0.0039487,-9.7672,0,0,44.789,1,1,8008,4004
5681,1.4394e+07,0,0.00040427,0.00026426,-0.002334,-0.28056,-0.0037544,-9.7678,0,0,44.789,1,1,8008,4004
5684,1.4397e+07,0,0.0013204,-0.00018182,-0.0022292,-0.28307,-0.0033228,-9.7656,0,0,44.789,1,1,8008,4004
5687,1.44e+07,0,0.0028443,-0.00011008,-0.001975,-0.28397,-0.0038055,-9.7636,0,0,44.789,1,1,8008,4004
5718,1.4402e+07,0,0.0041585,2.5406e-05,-0.0019998,-0.28394,-0.0089637,-9.7617,0,0,44.79,1,1,8008,4004
5722,1.4405e+07,0,0.0018754,0.0017762,-0.0030867,-0.28274,-0.014136,-9.7606,0,0,44.79,1,1,8008,4004
5725,1.4408e+07,0,0.00012174,0.0030418,-0.0033853,-0.28222,-0.015368,-9.7603,0,0,44.79,1,1,8008,4004
5728,1.441e+07,0,4.9651e-05,0.0031002,-0.0028137,-0.2813,-0.016958,-9.7588,0,0,44.79,1,1,8008,4004
5759,1.4413e+07,0,-0.00035442,0.0023364,-0.002502,-0.27945,-0.021585,-9.7584,0,0,44.79,1,1,8008,4004
5763,1.4416e+07,0,-0.0008941,0.0018531,-0.0021698,-0.2789,-0.023586,-9.7578,0,0,44.79,1,1,8008,4004
5766,1.4418e+07,0,-0.0016241,0.0021105,-0.0023713,-0.27863,-0.020626,-9.7595,0,0,44.79,1,1,8008,4004
5771,1.4421e+07,0,-0.0013859,0.0021631,-0.0021511,-0.27725,-0.016576,-9.7595,0,0,44.79,1,1,8008,4004
5802,1.4424e+07,0,-0.00099823,0.00090857,-0.0015291,-0.27448,-0.014053,-9.759,0,0,44.79,1,1,8008,4004
5805,1.4426e+07,0,-0.0012958,0.00098798,-0.0017847,-0.27204,-0.013394,-9.7603,0,0,44.79,1,1,8008,4004
5808,1.4429e+07,0,-0.001611,0.0011433,-0.0019314,-0.27014,-0.01336,-9.763,0,0,44.791,1,1,8008,4004
5811,1.4431e+07,0,-0.00065061,0.0015118,-0.0013257,-0.26753,-0.014189,-9.7667,0,0,44.791,1,1,8008,4004
5842,1.4434e+07,0,0.00078814,0.0016835,-0.0011131,-0.26792,-0.01579,-9.7675,0,0,44.791,1,1,8008,4004
5846,1.4437e+07,0,0.0018734,0.0013845,-0.0010104,-0.26929,-0.020401,-9.7657,0,0,44.791,1,1,8008,4004
5849,1.4438e+07,0,0.0017927,0.00082416,-0.0013251,-0.26812,-0.023465,-9.7641,0,0,44.791,1,1,8008,4004
5856,1.4441e+07,0,0.0008275,1.9277e-05,-0.0018594,-0.26648,-0.025964,-9.7661,0,0,44.791,1,1,8008,4004
5887,1.4444e+07,0,0.00038557,-0.00027224,-0.001585,-0.26714,-0.027531,-9.7686,0,0,44.791,1,1,8008,4004
5891,1.4446e+07,0,-6.5743e-05,0.00038065,-0.0020883,-0.26854,-0.028745,-9.7705,0,0,44.791,1,1,8008,4004
5894,1.4449e+07,0,0.00045148,0.0014603,-0.0014479,-0.26847,-0.028693,-9.7708,0,0,44.791,1,1,8008,4004
5899,1.4451e+07,0,0.00015397,0.0014411,-0.0010644,-0.26978,-0.029597,-9.7678,0,0,44.791,1,1,8008,4004
5930,1.4454e+07,0,-0.00035754,0.00092169,-0.0013383,-0.27063,-0.030972,-9.7636,0,0,44.792,1,1,8008,4004
5933,1.4456e+07,0,-0.00051349,0.00043783,-0.0011564,-0.26879,-0.029271,-9.7536,0,0,44.792,1,1,8008,4004
5936,1.4458e+07,0,-0.00048365,0.00025158,-0.00114,-0.2661,-0.026305,-9.7467,0,0,44.792,1,1,8008,4004
5940,1.4461e+07,0,0.0004928,0.00091274,-0.00022471,-0.26087,-0.022071,-9.7393,0,0,44.792,1,1,8008,4004
5971,1.4464e+07,0,6.8178e-06,0.0017661,-0.00016862,-0.25596,-0.020193,-9.7375,0,0,44.792,1,1,8008,4004
5975,1.4466e+07,0,-0.00058459,0.0015027,0.00016686,-0.25373,-0.020314,-9.7385,0,0,44.792,1,1,8008,4004
5978,1.4469e+07,0,-0.00067096,0.001427,0.0015201,-0.25188,-0.017873,-9.7421,0,0,44.792,1,1,8008,4004
5981,1.4472e+07,0,-0.00062807,0.0016858,0.0017473,-0.25064,-0.01621,-9.7445,0,0,44.792,1,1,8008,4004
6012,1.4475e+07,0,-0.00095516,0.0014748,0.0019616,-0.25029,-0.016261,-9.7451,0,0,44.792,1,1,8008,4004
6015,1.4477e+07,0,-0.0012287,0.00082129,0.0017757,-0.25122,-0.017734,-9.7449,0,0,44.792,1,1,8008,4004
6018,1.4479e+07,0,-0.0010953,-0.00077968,0.0017363,-0.25287,-0.021199,-9.7475,0,0,44.792,1,1,8008,4004
6021,1.4482e+07,0,-0.00080638,-0.0012952,0.0015344,-0.25475,-0.024262,-9.7506,0,0,44.791,1,1,8008,4004
6052,1.4484e+07,0,-0.00088993,-0.00030486,0.0010741,-0.25686,-0.028367,-9.752,0,0,44.791,1,1,8008,4004
6057,1.4489e+07,0,-0.0019584,-0.0015897,0.0017434,-0.25501,-0.032832,-9.749,0,0,44.791,1,1,8008,4004
6060,1.4492e+07,0,-0.0022811,-0.00256,0.0017735,-0.255,-0.032867,-9.7474,0,0,44.791,1,1,8008,4004
6091,1.4496e+07,0,-0.00099973,-0.0027763,0.0016131,-0.25443,-0.029796,-9.7471,0,0,44.791,1,1,8008,4004
6094,1.4498e+07,0,-0.00017411,-0.0024043,0.0016385,-0.25253,-0.02412,-9.7467,0,0,44.791,1,1,8008,4004
6098,1.45e+07,0,-0.00012768,-0.0023549,0.0014218,-0.25176,-0.019862,-9.7467,0,0,44.791,1,1,8008,4004
6101,1.4502e+07,0,-0.001027,-0.0032824,0.00084483,-0.25541,-0.015849,-9.7483,0,0,44.791,1,1,8008,4004
6132,1.4504e+07,0,-0.00090966,-0.003326,0.00072393,-0.25955,-0.014211,-9.7495,0,0,44.791,1,1,8008,4004
6135,1.4507e+07,0,-0.00024113,-0.0030428,0.00043703,-0.26487,-0.012005,-9.7495,0,0,44.791,1,1,8008,4004
6138,1.451e+07,0,-0.00050963,-0.0025106,0.00018642,-0.26614,-0.01163,-9.7514,0,0,44.791,1,1,8008,4004
6141,1.4512e+07,0,-0.0019305,-0.0020569,0.0003515,-0.26624,-0.012675,-9.7578,0,0,44.79,1,1,8008,4004
6172,1.4514e+07,0,-0.0028405,-0.0020367,0.00077225,-0.26575,-0.014951,-9.7636,0,0,44.79,1,1,8008,4004
6175,1.4517e+07,0,-0.0023835,-0.0020566,0.00035158,-0.2642,-0.018636,-9.7702,0,0,44.79,1,1,8008,4004
6179,1.452e+07,0,-0.0014262,-0.0023575,0.00015844,-0.26362,-0.022091,-9.7717,0,0,44.79,1,1,8008,4004
6182,1.4522e+07,0,-0.00072155,-0.0014229,-0.00035517,-0.26362,-0.026171,-9.7705,0,0,44.79,1,1,8008,4004
6213,1.4525e+07,0,-0.0019093,-0.0010599,-0.00074118,-0.26303,-0.027172,-9.7633,0,0,44.79,1,1,8008,4004
6216,1.4527e+07,0,-0.0028697,-0.0011436,-0.00087787,-0.26271,-0.026435,-9.7563,0,0,44.79,1,1,8008,4004
6219,1.453e+07,0,-0.0036105,-0.0014213,-0.0004499,-0.26303,-0.025672,-9.75,0,0,44.79,1,1,8008,4004
6222,1.4533e+07,0,-0.0040844,-0.0009601,-0.0005313,-0.26377,-0.025507,-9.7444,0,0,44.791,1,1,8008,4004
6253,1.4535e+07,0,-0.0032147,-0.00016728,-0.0002721,-0.26369,-0.026054,-9.7394,0,0,44.791,1,1,8008,4004
6256,1.4538e+07,0,-0.0024455,-9.1601e-05,-0.00062147,-0.26358,-0.025522,-9.7379,0,0,44.791,1,1,8008,4004
6260,1.454e+07,0,-0.00083925,-0.00014144,-0.0008557,-0.26589,-0.023214,-9.7386,0,0,44.791,1,1,8008,4004
6267,1.4543e+07,0,-0.00078596,-0.00048716,6.9876e-05,-0.26718,-0.020082,-9.7392,0,0,44.791,1,1,8008,4004
6298,1.4546e+07,0,-0.0015667,-0.0001479,0.00086982,-0.26571,-0.013114,-9.739,0,0,44.791,1,1,8008,4004
6301,1.4548e+07,0,-0.0014699,0.00025637,0.00018833,-0.2645,-0.0096714,-9.7374,0,0,44.791,1,1,8008,4004
6304,1.4551e+07,0,-0.0014568,0.00072904,-0.00063235,-0.26503,-0.0081903,-9.7341,0,0,44.791,1,1,8008,4004
6307,1.4552e+07,0,-0.0019925,0.00085159,-0.00070668,-0.26789,-0.0087623,-9.7331,0,0,44.791,1,1,8008,4004
6338,1.4556e+07,0,-0.0022877,0.00048575,0.00018784,-0.27299,-0.0084449,-9.7364,0,0,44.79,1,1,8008,4004
6341,1.4558e+07,0,-0.0016017,0.00074734,0.00067758,-0.27523,-0.007702,-9.7413,0,0,44.79,1,1,8008,4004
6346,1.456e+07,0,0.0008354,0.0011194,0.00017237,-0.27584,-0.0072037,-9.7469,0,0,44.79,1,1,8008,4004
6349,1.4563e+07,0,0.0020978,0.00055307,0.00036671,-0.27699,-0.0074074,-9.7501,0,0,44.79,1,1,8008,4004
6380,1.4565e+07,0,0.0020629,-0.00034484,0.00090655,-0.28201,-0.0080927,-9.7566,0,0,44.79,1,1,8008,4004
6383,1.4568e+07,0,0.00073838,-0.0003719,0.00040737,-0.28481,-0.0082877,-9.7575,0,0,44.791,1,1,8008,4004
6387,1.457e+07,0,-0.0008438,-0.00082852,-0.00079066,-0.2864,-0.0097941,-9.755,0,0,44.791,1,1,8008,4004
6390,1.4573e+07,0,-0.0010962,-0.00084219,-0.0020568,-0.28693,-0.010988,-9.7548,0,0,44.791,1,1,8008,4004
6421,1.4575e+07,0,-0.0010392,-0.00014706,-0.0030551,-0.29197,-0.012271,-9.7554,0,0,44.791,1,1,8008,4004
6425,1.4578e+07,0,-0.0010628,0.00041076,-0.0031471,-0.29619,-0.013336,-9.7564,0,0,44.791,1,1,8008,4004
6428,1.458e+07,0,-0.00077574,0.0010741,-0.0035338,-0.299,-0.013481,-9.7567,0,0,44.791,1,1,8008,4004
6431,1.4585e+07,0,0.00042552,-0.00061629,-0.0022622,-0.29613,-0.016669,-9.7552,0,0,44.791,1,1,8008,4004
6462,1.4591e+07,0,0.001303,0.00028961,-0.00066483,-0.29072,-0.019701,-9.7555,0,0,44.791,1,1,8008,4004
6466,1.4594e+07,0,0.0019763,0.00077704,-0.00039738,-0.28759,-0.021537,-9.7565,0,0,44.791,1,1,8008,4004
6469,1.4596e+07,0,0.00191,4.6367e-08,-0.00088318,-0.28629,-0.023983,-9.7565,0,0,44.791,1,1,8008,4004
6500,1.4598e+07,0,0.0016214,-0.00060901,-0.0015421,-0.28671,-0.027455,-9.7568,0,0,44.791,1,1,8008,4004
6503,1.4601e+07,0,0.0015451,-0.00044285,-0.0016116,-0.28695,-0.028765,-9.757,0,0,44.791,1,1,8008,4004
6506,1.4603e+07,0,0.00087493,-0.0010005,-0.0016998,-0.28613,-0.02893,-9.756,0,0,44.791,1,1,8008,4004
6509,1.4606e+07,0,0.00036802,-0.00064886,-0.0016204,-0.28498,-0.028441,-9.7557,0,0,44.791,1,1,8008,4004
6540,1.4608e+07,0,-0.00049151,-6.3044e-05,-0.0015321,-0.28382,-0.026343,-9.7562,0,0,44.791,1,1,8008,4004
6543,1.4611e+07,0,-0.00013384,0.00082633,-0.00044047,-0.28301,-0.023331,-9.7566,0,0,44.791,1,1,8008,4004
6547,1.4614e+07,0,0.00011156,0.0012875,-0.00055933,-0.28179,-0.022298,-9.7574,0,0,44.791,1,1,8008,4004
6550,1.4616e+07,0,-0.00017768,0.0015245,-0.00073937,-0.28176,-0.020222,-9.7589,0,0,44.791,1,1,8008,4004
6581,1.4619e+07,0,-0.001007,0.00070267,-2.9401e-05,-0.28284,-0.018638,-9.7597,0,0,44.791,1,1,8008,4004
6584,1.4621e+07,0,-0.00063992,2.1365e-05,0.00056918,-0.28289,-0.017157,-9.7587,0,0,44.791,1,1,8008,4004
6588,1.4624e+07,0,-0.00063841,-6.3915e-05,0.00025635,-0.28124,-0.01579,-9.7558,0,0,44.791,1,1,8008,4004
6591,1.4626e+07,0,-0.0001798,0.00050884,-0.00031946,-0.27858,-0.015974,-9.7498,0,0,44.79,1,1,8008,4004
6622,1.4628e+07,0,0.00013988,0.00054969,-0.00055401,-0.27907,-0.017766,-9.7479,0,0,44.79,1,1,8008,4004
6625,1.4631e+07,0,-0.00030536,0.00077443,-0.00091151,-0.28078,-0.01984,-9.7476,0,0,44.79,1,1,8008,4004
6629,1.4634e+07,0,-0.0010874,0.001326,-0.0010137,-0.28065,-0.021211,-9.7487,0,0,44.79,1,1,8008,4004
6632,1.4637e+07,0,-0.0012484,0.0014223,-0.0012436,-0.27771,-0.023058,-9.7491,0,0,44.79,1,1,8008,4004
6663,1.4639e+07,0,-0.00061475,0.0014252,-0.0013981,-0.27437,-0.023717,-9.7506,0,0,44.79,1,1,8008,4004
6666,1.4642e+07,0,-0.00092235,0.0013505,-0.00071627,-0.27198,-0.02505,-9.7508,0,0,44.79,1,1,8008,4004
6674,1.4645e+07,0,-0.001567,-0.00029052,0.0001173,-0.26945,-0.025537,-9.7484,0,0,44.791,1,1,8008,4004
6677,1.4647e+07,0,-0.001219,-0.00071393,0.00048013,-0.26888,-0.02309,-9.7438,0,0,44.791,1,1,8008,4004
6708,1.465e+07,0,-0.00066037,-0.0007926,0.00065921,-0.27004,-0.021375,-9.7416,0,0,44.791,1,1,8008,4004
6711,1.4652e+07,0,0.00038209,-0.0012764,0.0011317,-0.2702,-0.020587,-9.7409,0,0,44.791,1,1,8008,4004
6716,1.4655e+07,0,0.00031102,-5.7486e-05,0.0012147,-0.26952,-0.019211,-9.7419,0,0,44.791,1,1,8008,4004
6719,1.4657e+07,0,0.0001408,8.2152e-05,0.0012926,-0.269,-0.016713,-9.7416,0,0,44.791,1,1,8008,4004
6750,1.466e+07,0,9.2379e-05,-0.0001476,0.0012749,-0.27065,-0.015203,-9.7403,0,0,44.791,1,1,8008,4004
6753,1.4662e+07,0,-0.00012599,-0.0012392,-0.00025652,-0.27366,-0.018269,-9.7405,0,0,44.791,1,1,8008,4004
6757,1.4664e+07,0,-0.00046004,-0.0016431,-0.0010908,-0.2747,-0.021039,-9.7413,0,0,44.79,1,1,8008,4004
6760,1.4667e+07,0,-0.00013163,-0.0014842,-0.0014574,-0.27409,-0.024831,-9.7411,0,0,44.79,1,1,8008,4004
6791,1.4669e+07,0,2.7649e-05,-0.0016863,-0.0013732,-0.27208,-0.028389,-9.7395,0,0,44.79,1,1,8008,4004
6794,1.4672e+07,0,-0.001101,-0.0011073,-0.00076091,-0.27027,-0.031871,-9.7393,0,0,44.79,1,1,8008,4004
6800,1.4675e+07,0,-0.001734,-2.0035e-05,-0.00016571,-0.2686,-0.034427,-9.7437,0,0,44.79,1,1,8008,4004
6803,1.4677e+07,0,-0.0016197,-9.6879e-05,0.0002408,-0.26648,-0.035577,-9.744,0,0,44.79,1,1,8008,4004
6834,1.4679e+07,0,-0.0017196,-0.00045318,0.0015588,-0.26777,-0.036365,-9.7417,0,0,44.79,1,1,8008,4004
6837,1.4682e+07,0,-0.002129,-0.00017418,0.0011081,-0.27096,-0.03509,-9.7367,0,0,44.79,1,1,8008,4004
6840,1.4688e+07,0,-0.0018347,-0.0010613,-0.0010388,-0.27459,-0.030957,-9.7333,0,0,44.791,1,1,8008,4004
6843,1.469e+07,0,-0.0019041,-0.00064612,-0.0011563,-0.27569,-0.030119,-9.7362,0,0,44.791,1,1,8008,4004
6874,1.4692e+07,0,-0.0019616,0.00040919,-0.0010961,-0.27679,-0.027893,-9.7401,0,0,44.791,1,1,8008,4004
6878,1.4695e+07,0,-0.0021758,0.0013145,-0.0015548,-0.2757,-0.025872,-9.74,0,0,44.791,1,1,8008,4004
6881,1.4698e+07,0,-0.0023508,0.0019925,-0.0020309,-0.27303,-0.025313,-9.7385,0,0,44.791,1,1,8008,4004
6884,1.47e+07,0,-0.0016384,0.0017386,-0.0021772,-0.27055,-0.026179,-9.7389,0,0,44.791,1,1,8008,4004
6915,1.4703e+07,0,-0.00080925,0.0010465,-0.0019105,-0.26828,-0.025893,-9.7419,0,0,44.791,1,1,8008,4004
6918,1.4705e+07,0,-0.00074421,0.00087504,-0.0010728,-0.27005,-0.024678,-9.7452,0,0,44.791,1,1,8008,4004
6921,1.4707e+07,0,-0.0012302,0.00079901,-0.00077859,-0.27041,-0.02382,-9.7489,0,0,44.791,1,1,8008,4004
6924,1.471e+07,0,-0.0011777,0.00038578,-0.00075566,-0.2694,-0.023984,-9.753,0,0,44.79,1,1,8008,4004
6955,1.4712e+07,0,-0.0011552,-0.00047961,-0.0015539,-0.268,-0.024824,-9.7586,0,0,44.79,1,1,8008,4004
6959,1.4716e+07,0,-0.0016776,0.0001516,-0.0013729,-0.26781,-0.025677,-9.7616,0,0,44.79,1,1,8008,4004
6962,1.4718e+07,0,-0.0018136,0.00011819,-0.0015632,-0.26805,-0.027058,-9.7622,0,0,44.79,1,1,8008,4004
6965,1.4721e+07,0,-0.0012005,0.00089164,-0.0015174,-0.26733,-0.028528,-9.7609,0,0,44.79,1,1,8008,4004
6996,1.4723e+07,0,-0.00014376,0.0010133,-0.0015482,-0.26779,-0.028863,-9.7593,0,0,44.79,1,1,8008,4004
6999,1.4725e+07,0,-0.00066616,0.00055265,-0.0018866,-0.26763,-0.029291,-9.7587,0,0,44.79,1,1,8008,4004
7002,1.4729e+07,0,-0.0024146,-0.00062258,-0.0021449,-0.26526,-0.028421,-9.7592,0,0,44.79,1,1,8008,4004
7005,1.4731e+07,0,-0.003358,-0.0010901,-0.0026472,-0.26367,-0.027507,-9.7599,0,0,44.79,1,1,8008,4004
7036,1.4733e+07,0,-0.0026863,-0.0013893,-0.001813,-0.26023,-0.026691,-9.7599,0,0,44.79,1,1,8008,4004
7040,1.4736e+07,0,-0.001907,-0.0011792,-0.0011961,-0.25767,-0.026243,-9.7596,0,0,44.79,1,1,8008,4004
7043,1.4738e+07,0,-0.0012538,-0.00055604,-0.0016397,-0.25465,-0.024924,-9.758,0,0,44.79,1,1,8008,4004
7047,1.4741e+07,0,-0.0012052,-0.00029414,-0.0015301,-0.25316,-0.024354,-9.7566,0,0,44.79,1,1,8008,4004
7078,1.4744e+07,0,-0.00098327,0.00026351,-0.0012973,-0.25225,-0.0221,-9.7537,0,0,44.79,1,1,8008,4004
7085,1.4746e+07,0,-0.00076092,0.00015927,-0.00069453,-0.25197,-0.019207,-9.751,0,0,44.79,1,1,8008,4004
7088,1.4749e+07,0,-0.00039117,-0.0003846,-0.00031442,-0.25099,-0.018307,-9.7496,0,0,44.79,1,1,8008,4004
7091,1.4752e+07,0,-0.00074457,-0.0015392,-0.00028303,-0.25148,-0.01754,-9.7468,0,0,44.79,1,1,8008,4004
7122,1.4754e+07,0,-0.0013938,-0.0028034,-0.00097836,-0.2535,-0.016606,-9.7458,0,0,44.79,1,1,8008,4004
7126,1.4757e+07,0,-0.0012436,-0.0027263,-0.0013241,-0.25593,-0.014908,-9.745,0,0,44.79,1,1,8008,4004
7129,1.476e+07,0,-0.00098874,-0.0022021,-0.001313,-0.25901,-0.013785,-9.7427,0,0,44.789,1,1,8008,4004
7132,1.4761e+07,0,-0.00067643,-0.0023785,-0.001726,-0.26265,-0.013173,-9.741,0,0,44.789,1,1,8008,4004
7163,1.4765e+07,0,-0.00053425,-0.0025027,-0.0020608,-0.26555,-0.013304,-9.7399,0,0,44.789,1,1,8008,4004
7167,1.4767e+07,0,0.00022123,-0.0029593,-0.0014849,-0.26548,-0.014617,-9.7423,0,0,44.789,1,1,8008,4004
7170,1.4769e+07,0,0.00053567,-0.0034475,-0.00042971,-0.26468,-0.015706,-9.7423,0,0,44.789,1,1,8008,4004
7173,1.4773e+07,0,0.0005947,-0.0036906,0.00030281,-0.26269,-0.016698,-9.7402,0,0,44.789,1,1,8008,4004
7206,1.4775e+07,0,0.0011879,-0.0029088,0.00077645,-0.26248,-0.016686,-9.7388,0,0,44.789,1,1,8008,4004
7210,1.4778e+07,0,0.0014727,-0.001894,0.00082401,-0.26233,-0.016507,-9.738,0,0,44.789,1,1,8008,4004
7213,1.478e+07,0,0.0020254,-0.0015973,0.00046065,-0.26336,-0.015103,-9.7385,0,0,44.789,1,1,8008,4004
7216,1.4783e+07,0,0.0018824,-0.002187,0.00022406,-0.26526,-0.014143,-9.7379,0,0,44.789,1,1,8008,4004
7247,1.4788e+07,0,0.00052019,-0.00039913,0.00056656,-0.27759,-0.016764,-9.7386,0,0,44.789,1,1,8008,4004
7251,1.4791e+07,0,0.00060433,-2.0759e-05,0.00054275,-0.28244,-0.020051,-9.7421,0,0,44.789,1,1,8008,4004
7254,1.4797e+07,0,0.0018124,0.0022829,-0.00036016,-0.28717,-0.019862,-9.7547,0,0,44.789,1,1,8008,4004
7285,1.48e+07,0,0.0026155,0.0016703,-0.00030379,-0.28777,-0.019671,-9.7588,0,0,44.789,1,1,8008,4004
7288,1.4802e+07,0,0.0012038,0.00039732,-0.00071823,-0.28772,-0.020304,-9.7584,0,0,44.789,1,1,8008,4004
7292,1.4805e+07,0,0.0006295,-0.00053029,7.4841e-05,-0.28662,-0.019628,-9.7578,0,0,44.788,1,1,8008,4004
7295,1.4807e+07,0,0.00016756,-0.00060892,0.00023255,-0.28308,-0.01708,-9.7575,0,0,44.788,1,1,8008,4004
7326,1.481e+07,0,0.00034372,-0.00022159,-0.00042811,-0.27992,-0.015137,-9.7575,0,0,44.788,1,1,8008,4004
7330,1.4812e+07,0,0.0009889,-0.00021956,0.00020366,-0.27452,-0.013597,-9.7543,0,0,44.788,1,1,8008,4004
7333,1.4815e+07,0,0.0010948,-0.00095561,9.8986e-05,-0.27224,-0.015048,-9.7507,0,0,44.788,1,1,8008,4004
7336,1.4817e+07,0,0.0005167,-0.00078819,0.00011949,-0.2709,-0.016376,-9.747,0,0,44.788,1,1,8008,4004
7367,1.482e+07,0,0.00048601,0.00093313,0.00059423,-0.27156,-0.016826,-9.7453,0,0,44.788,1,1,8008,4004
7371,1.4823e+07,0,0.00098619,0.00097826,0.0011728,-0.27226,-0.017546,-9.7442,0,0,44.788,1,1,8008,4004
7374,1.4824e+07,0,0.0015234,0.00060438,0.0012919,-0.27286,-0.018452,-9.7463,0,0,44.788,1,1,8008,4004
7377,1.4827e+07,0,0.0021471,-2.9121e-05,0.0011302,-0.27395,-0.018923,-9.7548,0,0,44.788,1,1,8008,4004
7408,1.483e+07,0,0.0029203,-0.00032556,0.0004045,-0.2752,-0.017734,-9.7617,0,0,44.788,1,1,8008,4004
7411,1.4833e+07,0,0.0037848,0.0004723,-0.00081336,-0.2771,-0.016043,-9.7715,0,0,44.789,1,1,8008,4004
7414,1.4835e+07,0,0.0037793,0.00063793,-0.0013396,-0.27605,-0.014872,-9.7742,0,0,44.789,1,1,8008,4004
7417,1.4837e+07,0,0.0053027,-0.00022679,-0.0019307,-0.2694,-0.011815,-9.7645,0,0,44.789,1,1,8008,4004
7448,1.484e+07,0,0.010937,-0.0015738,-0.0027826,-0.25485,-0.0053448,-9.7318,0,0,44.789,1,1,8008,4004
