LineNo,TimeUS,I,GyrX,GyrY,GyrZ,AccX,AccY,AccZ,EG,EA,T,GH,AH,GHz,AHz
183,12924263,1,-0.00024782,0.004379479,0.005534157,-0.2857103,-0.1043771,-9.834160000000001,0,0,45.58935,1,1,756,999
214,12927131,1,-0.002169148,0.005402904,0.004596442,-0.2851987,-0.09437921000000001,-9.825424999999999,0,0,45.58935,1,1,755,999
290,12956538,1,0.005708816,0.006647274,0.001392634,-0.3864201,-0.1065737,-9.848119000000001,0,0,45.58985,1,1,755,999
406,12985344,1,-0.005308436,0.01765281,0.001428389,-0.30981,-0.113554,-9.725018,0,0,45.59022,1,1,755,999
521,13013946,1,0.001589215,0.004437172,0.01353031,-0.2687115,-0.189018,-9.805913,0,0,45.59034,1,1,755,999
524,13015333,1,-0.0005613854,0.002359528,0.01145387,-0.2764023,-0.19132,-9.774742,0,0,45.59034,1,1,755,999
635,13035237,1,-0.0008118985,0.004003984,0.004214799,-0.2814693,-0.1830224,-9.810843999999999,0,0,45.59039,1,1,755,999
752,13057329,1,-0.004786472,0.006037837,0.004374382,-0.26897,-0.1311623,-9.830228999999999,0,0,45.59053,1,1,755,999
864,13089340,1,0.0007980907,0.00243684,0.0006001461,-0.2685672,-0.1453489,-9.755891,0,0,45.59083,1,1,755,999
979,13119334,1,0.00492029,0.003320968,-5.54047e-05,-0.3426613,-0.2730312,-9.833921,0,0,45.59096,1,1,755,999
1010,13121997,1,0.003672186,0.009379309000000001,-0.0002895138,-0.3269229,-0.2487921,-9.868529000000001,0,0,45.59096,1,1,755,999
1091,13167693,1,0.001780213,0.001821572,0.003633542,-0.2796301,-0.07647778,-9.760944,0,0,45.59129,1,1,755,999
1122,13170370,1,0.0009038241,0.001618607,0.00732215,-0.2841957,-0.07048371,-9.783357000000001,0,0,45.59129,1,1,755,999
1202,13249127,1,-0.008337429,0.007704589,-0.002398976,-0.3418592,-0.1386767,-9.902424,0,0,45.59226,1,1,755,999
1298,13304111,1,0.004975069,0.001734889,0.006589715,-0.2721661,-0.09478573,-9.818580000000001,0,0,45.59288,1,1,755,999
1385,13318454,1,0.001931212,0.003683694,0.002447042,-0.2671206,-0.1033867,-9.9079,0,0,45.59321,1,1,755,999
1477,13334425,1,0.003052839,0.003395007,0.007782326,-0.312175,-0.09187154,-9.828073,0,0,45.59339,1,1,755,999
1508,13336947,1,0.002671863,-0.002238373,0.007156024,-0.2912636,-0.07841316,-9.805971,0,0,45.59357,1,1,755,999
1547,13340446,1,0.002156247,-0.001893061,0.00467098,-0.2803962,-0.08550436,-9.793281,0,0,45.59357,1,1,755,999
1550,13342544,1,0.002859324,-0.001634792,0.00410883,-0.272921,-0.09494052,-9.773313,0,0,45.59357,1,1,755,999
1553,13345557,1,0.00476302,0.001727134,0.00296823,-0.2694836,-0.09913288000000001,-9.762788,0,0,45.59357,1,1,755,999
1584,13347945,1,0.001203878,0.004369184,0.004382504,-0.2659484,-0.109787,-9.739646,0,0,45.59377,1,1,755,999
1587,13350581,1,-7.683355e-06,0.005158257,0.005617771,-0.2582987,-0.1175422,-9.724138999999999,0,0,45.59377,1,1,755,999
1591,13353455,1,-0.003578451,0.005908709,0.006900339,-0.2519341,-0.1303113,-9.709502000000001,0,0,45.59377,1,1,755,999
1594,13355753,1,-0.005259518,0.005824999,0.007180112,-0.2491828,-0.1352704,-9.707852000000001,0,0,45.59377,1,1,755,999
1625,13358477,1,-0.006918401,0.007481872,0.007805197,-0.2629916,-0.1378086,-9.725311,0,0,45.59377,1,1,755,999
1628,13360750,1,-0.003558545,0.009329176,0.007658664,-0.2827123,-0.1398202,-9.726711,0,0,45.594,1,1,755,999
1631,13363124,1,0.001155099,0.008702102999999999,0.008250166,-0.3129794,-0.1252541,-9.746955,0,0,45.594,1,1,755,999
1634,13366015,1,0.004880852,0.008741461000000001,0.008347976,-0.3353148,-0.1121358,-9.772618,0,0,45.594,1,1,755,999
1665,13368247,1,0.0048308,0.01017014,0.008157090000000001,-0.3611754,-0.1064864,-9.797681000000001,0,0,45.594,1,1,755,999
1668,13372298,1,0.003222759,0.01053956,0.007980361,-0.3772341,-0.1166514,-9.801442,0,0,45.59426,1,1,755,999
1672,13373507,1,-0.004852675,0.01142986,0.003041808,-0.3954715,-0.1295326,-9.824346,0,0,45.59426,1,1,755,999
1678,13377053,1,-0.006767246,0.009918926,-0.00244614,-0.4023671,-0.1438617,-9.850111999999999,0,0,45.59426,1,1,755,999
1709,13380716,1,-0.006471941,0.006763217,-0.005409004,-0.40615,-0.1581477,-9.846655,0,0,45.59426,1,1,755,999
1712,13382891,1,-0.006772201,0.002388543,-0.003519497,-0.3944052,-0.1628912,-9.802251999999999,0,0,45.59456,1,1,755,999
1716,13384475,1,-0.006796337,0.000667434,-0.000459363,-0.3777476,-0.1630956,-9.779712999999999,0,0,45.59456,1,1,755,999
1719,13386987,1,-0.006827596,0.001199474,0.0004872089,-0.3619778,-0.1606078,-9.772276,0,0,45.59456,1,1,755,999
1750,13389488,1,-0.005220907,0.003416672,0.001067213,-0.3391282,-0.1623568,-9.773251999999999,0,0,45.59456,1,1,755,999
1753,13392250,1,-0.00399111,0.003332382,0.00153319,-0.3210649,-0.1592872,-9.771209000000001,0,0,45.59456,1,1,755,999
1756,13394982,1,-0.00489748,0.004428577,0.00259514,-0.3036829,-0.156373,-9.767474,0,0,45.59487,1,1,755,999
1759,13397892,1,-0.005320786,0.005193209,0.001476254,-0.294097,-0.1490036,-9.771341,0,0,45.59487,1,1,755,999
1790,13400313,1,-0.002710004,0.005674057,-0.002987257,-0.2884675,-0.1057553,-9.787871000000001,0,0,45.59487,1,1,755,999
1793,13402568,1,0.001275839,0.004632453,-0.00285655,-0.2914819,-0.08624606999999999,-9.807444,0,0,45.59487,1,1,755,999
1799,13405774,1,0.002816599,0.003988373,-0.002107758,-0.3021969,-0.07286049,-9.830684,0,0,45.59517,1,1,755,999
1802,13407907,1,0.003389272,0.003904826,-0.001535875,-0.3104665,-0.0695413,-9.828034000000001,0,0,45.59517,1,1,755,999
1833,13410366,1,0.00348478,0.005317857,0.001134762,-0.3322211,-0.07741047,-9.823404,0,0,45.59517,1,1,755,999
1840,13413478,1,0.002757084,0.006003196,0.001484895,-0.3482229,-0.08564598,-9.831479,0,0,45.59517,1,1,755,999
1843,13415585,1,0.0004660709,0.005928707,0.002560672,-0.3716656,-0.09256196999999999,-9.846748,0,0,45.59545,1,1,755,999
1846,13418341,1,-0.002022772,0.00363922,0.004861069,-0.3856834,-0.08612166,-9.855309,0,0,45.59545,1,1,755,999
1877,13420969,1,-0.001894016,0.002725679,0.005360457,-0.4023248,-0.08498189,-9.851552999999999,0,0,45.59545,1,1,755,999
1880,13423453,1,0.001330658,0.0009384479,0.003728944,-0.4061009,-0.08183855,-9.827864,0,0,45.59545,1,1,755,999
1884,13426090,1,0.00586913,0.001591156,0.005057047,-0.4058795,-0.07405196999999999,-9.810794,0,0,45.59569,1,1,755,999
1887,13429079,1,0.006121463,0.002076325,0.004201584,-0.4161358,-0.07216383,-9.798560999999999,0,0,45.59569,1,1,755,999
1918,13432032,1,0.005100263,0.002271941,0.001829406,-0.4151226,-0.07523386999999999,-9.808973,0,0,45.59569,1,1,755,999
1921,13434103,1,0.004610797,0.0005134728,0.002607191,-0.4035221,-0.06997214,-9.82436,0,0,45.59569,1,1,755,999
1924,13436974,1,0.004349536,0.0009637626,0.003511139,-0.38662,-0.06529393,-9.819478,0,0,45.59591,1,1,755,999
1927,13439626,1,0.005514673,0.002660277,0.00557941,-0.3708178,-0.07925306,-9.795577,0,0,45.59591,1,1,755,999
1958,13442344,1,0.007129319,0.002839761,0.005235534,-0.3533288,-0.09975462,-9.798639,0,0,45.59591,1,1,755,999
1961,13444376,1,0.007364256,0.002941523,0.004389109,-0.3412145,-0.1152012,-9.804154,0,0,45.59591,1,1,755,999
1965,13446955,1,0.006672643,-0.0003171705,7.348211999999999e-05,-0.3317048,-0.1390931,-9.801064,0,0,45.5961,1,1,755,999
1968,13449564,1,0.005998909,-0.001175816,-0.0003454665,-0.3351671,-0.1526639,-9.790820999999999,0,0,45.5961,1,1,755,999
1999,13452441,1,0.004220189,-0.002504472,0.0003629537,-0.3423988,-0.1680969,-9.786671,0,0,45.5961,1,1,755,999
2004,13457932,1,0.006294113,-0.002504124,0.00862046,-0.3163896,-0.1996204,-9.786344,0,0,45.5961,1,1,755,999
2007,13460252,1,0.005040848,-0.0004152452,0.01052282,-0.2982114,-0.2148868,-9.783322,0,0,45.59628,1,1,755,999
2038,13463734,1,0.002531389,0.001931629,0.009082395,-0.2759502,-0.2270393,-9.775191,0,0,45.59628,1,1,755,999
2041,13465879,1,0.001788102,0.004461478,0.006215775,-0.2594541,-0.2272513,-9.783911,0,0,45.59628,1,1,755,999
2044,13467778,1,0.002143578,0.008000907,0.005084421,-0.244764,-0.220779,-9.797897000000001,0,0,45.59628,1,1,755,999
2048,13470471,1,0.0005610456999999999,0.009238905,0.00551815,-0.2254985,-0.2086876,-9.816903999999999,0,0,45.59645,1,1,755,999
2079,13472743,1,-0.0002024336,0.008926366999999999,0.004749825,-0.2268778,-0.2044905,-9.837362000000001,0,0,45.59645,1,1,755,999
2082,13475428,1,0.00126865,0.009648451000000001,0.0005172874,-0.2355468,-0.1881663,-9.869020000000001,0,0,45.59645,1,1,755,999
2085,13478315,1,0.002695149,0.01084913,-0.0004390453,-0.2353626,-0.1814965,-9.885044000000001,0,0,45.59645,1,1,755,999
2089,13480874,1,0.004121952,0.01064482,0.0009558656,-0.2413486,-0.1739537,-9.907372000000001,0,0,45.59661,1,1,755,999
2120,13483942,1,0.002811668,0.0106224,0.00375434,-0.2502351,-0.1628336,-9.931281999999999,0,0,45.59661,1,1,755,999
2123,13486011,1,0.002311549,0.01158733,0.004317709,-0.2569901,-0.1611853,-9.951248,0,0,45.59661,1,1,755,999
2126,13488286,1,0.0005555642,0.009625721,0.006411233,-0.2706195,-0.1559157,-9.957241,0,0,45.59661,1,1,755,999
2129,13491315,1,0.0002788969,0.008683641000000001,0.007311699,-0.2811221,-0.14597,-9.952101000000001,0,0,45.59661,1,1,755,999
2160,13493462,1,0.0007090549,0.007657462,0.008588705,-0.29501,-0.1424779,-9.919581000000001,0,0,45.59678,1,1,755,999
2163,13496734,1,0.001234008,0.006316699,0.01035734,-0.295337,-0.1597705,-9.888007,0,0,45.59678,1,1,755,999
2166,13498854,1,0.001803469,0.004986846,0.01026449,-0.290799,-0.1676916,-9.874727999999999,0,0,45.59678,1,1,755,999
2171,13501551,1,0.001626741,0.002801772,0.007768999,-0.2705017,-0.1849806,-9.88339,0,0,45.59678,1,1,755,999
2202,13503973,1,-0.003264478,0.003816222,0.002473752,-0.2575608,-0.2024132,-9.909438,0,0,45.59693,1,1,755,999
2205,13506559,1,-0.004019326,0.0040745,0.00143401,-0.2466331,-0.2025596,-9.915441,0,0,45.59693,1,1,755,999
2208,13509729,1,-0.002178681,0.0045528,0.0003997946,-0.2291361,-0.1771654,-9.911902,0,0,45.59693,1,1,755,999
2212,13511331,1,-4.688303e-05,0.005485518,0.001865739,-0.2278372,-0.1513682,-9.911325,0,0,45.59693,1,1,755,999
2243,13514350,1,-0.001397533,0.00558784,0.007657181,-0.2333762,-0.1227428,-9.894958000000001,0,0,45.59708,1,1,755,999
2251,13516923,1,-0.003403248,0.005692485,0.01091604,-0.2396045,-0.09933092,-9.868840000000001,0,0,45.59708,1,1,755,999
2254,13519903,1,-0.00320006,0.005036147,0.01081259,-0.2414763,-0.07069775,-9.837647,0,0,45.59708,1,1,755,999
2257,13521309,1,-0.002849825,0.005259375,0.008603296999999999,-0.2506715,-0.04435702,-9.778392,0,0,45.59708,1,1,755,999
2288,13524127,1,-0.002630644,0.007189303,0.005008038,-0.2674721,-0.04811101,-9.716549000000001,0,0,45.59708,1,1,755,999
2291,13527202,1,-0.002790227,0.008297043,0.002519823,-0.2784492,-0.06557649,-9.691393,0,0,45.59721,1,1,755,999
2294,13529256,1,-0.003810829,0.009791011000000001,-0.003523949,-0.2900225,-0.09581058000000001,-9.662433,0,0,45.59721,1,1,755,999
2298,13532127,1,-0.003137955,0.009257959,-0.004156731,-0.3030368,-0.1129999,-9.65253,0,0,45.59721,1,1,755,999
2329,13534599,1,-0.0009669625,0.006955399,-0.003506092,-0.3082304,-0.1553778,-9.651721999999999,0,0,45.59721,1,1,755,999
2332,13537559,1,0.0001263321,0.004934405,-0.0007226379,-0.2961904,-0.1929606,-9.665566999999999,0,0,45.59734,1,1,755,999
2335,13539927,1,-0.0008838788,0.004668645,-0.0004732181,-0.2835116,-0.2308503,-9.687478,0,0,45.59734,1,1,755,999
2338,13542224,1,-0.002932605,0.00470344,-0.002467287,-0.2717165,-0.2800721,-9.740665999999999,0,0,45.59734,1,1,755,999
2369,13544996,1,-0.002898313,0.005869579,-0.003556897,-0.2661602,-0.2998654,-9.766054,0,0,45.59734,1,1,755,999
2372,13547228,1,-0.001472017,0.00442074,-0.002334947,-0.267723,-0.2989028,-9.784915,0,0,45.59747,1,1,755,999
2375,13550951,1,-0.002641715,0.00156181,-0.0007010584,-0.2811738,-0.28333,-9.781827,0,0,45.59747,1,1,755,999
2378,13552163,1,-0.003013622,0.002395633,-0.0004999763,-0.3005074,-0.248996,-9.774228000000001,0,0,45.59747,1,1,755,999
2410,13555013,1,-0.0002462462,0.005436008,0.0007251777,-0.2977929,-0.2218855,-9.781783000000001,0,0,45.59747,1,1,755,999
2413,13557455,1,0.002258399,0.006755922,0.004037146,-0.2964779,-0.1874516,-9.809744,0,0,45.59761,1,1,755,999
2416,13560934,1,0.00250815,0.00599392,0.006477314,-0.3022414,-0.1636377,-9.833189000000001,0,0,45.59761,1,1,755,999
2419,13563603,1,0.001574802,0.002022828,0.01100846,-0.2965887,-0.1378725,-9.845230000000001,0,0,45.59761,1,1,755,999
2422,13565210,1,0.002202526,-0.001159008,0.01071648,-0.293734,-0.1241855,-9.823148,0,0,45.59761,1,1,755,999
2453,13567506,1,0.002530252,-0.001424399,0.009305315999999999,-0.2939853,-0.1149336,-9.795149,0,0,45.59761,1,1,755,999
2456,13570437,1,0.001660853,0.0002482627,0.004492716,-0.2905515,-0.1072975,-9.742616999999999,0,0,45.59774,1,1,755,999
2459,13573239,1,0.001170587,0.001322228,0.003893473,-0.2951334,-0.106409,-9.711888999999999,0,0,45.59774,1,1,755,999
2463,13576287,1,0.001808847,0.002613543,0.004870262,-0.3040817,-0.1353373,-9.698607000000001,0,0,45.59774,1,1,755,999
2466,13577846,1,0.002735524,0.003506763,0.006538864,-0.3056222,-0.1632291,-9.702223999999999,0,0,45.59774,1,1,755,999
2497,13580363,1,0.003441393,0.00324294,0.006073812,-0.3199979,-0.1950764,-9.703753000000001,0,0,45.59789,1,1,755,999
2500,13582727,1,0.004938602,0.002774541,0.004698575,-0.3241969,-0.2054422,-9.721272000000001,0,0,45.59789,1,1,755,999
2504,13585967,1,0.006523582,0.004718336,0.004391056,-0.329598,-0.2191031,-9.757974000000001,0,0,45.59789,1,1,755,999
2507,13588336,1,0.005453615,0.00443896,0.003610229,-0.3251347,-0.2201889,-9.775629,0,0,45.59789,1,1,755,999
2538,13590860,1,-0.0009456607,0.00382957,-0.002529753,-0.2931305,-0.2045464,-9.754203,0,0,45.59803,1,1,755,999
2541,13593312,1,-0.0007543272,0.003428441,-0.002458328,-0.2858314,-0.1870327,-9.732592,0,0,45.59803,1,1,755,999
2544,13597008,1,0.001579361,0.002858988,-0.001222489,-0.2937379,-0.1582098,-9.706758000000001,0,0,45.59803,1,1,755,999
2547,13598760,1,-0.0001303748,0.0006265865,1.550135e-05,-0.3066417,-0.1502204,-9.704793,0,0,45.59803,1,1,755,999
2578,13601340,1,-0.001622318,-0.0001395389,0.001940833,-0.3130061,-0.1505682,-9.706511000000001,0,0,45.59817,1,1,755,999
2583,13603982,1,-0.00159275,0.0003304427,0.002974361,-0.3132128,-0.1510145,-9.716386999999999,0,0,45.59817,1,1,755,999
2587,13606328,1,0.00171272,0.0008265917,0.008507162,-0.3158551,-0.1556995,-9.735897,0,0,45.59817,1,1,755,999
2590,13609717,1,0.003536586,0.001250334,0.009632735999999999,-0.3238901,-0.1553559,-9.75238,0,0,45.59817,1,1,755,999
2621,13612362,1,0.004231564,0.002890983,0.005842145,-0.3352135,-0.1457802,-9.772434000000001,0,0,45.59832,1,1,755,999
2624,13614444,1,0.002608621,0.005294006,0.00165375,-0.3446025,-0.1395374,-9.793818,0,0,45.59832,1,1,755,999
2627,13617277,1,0.00222632,0.007439245,-0.001917586,-0.3515584,-0.1430653,-9.819283,0,0,45.59832,1,1,755,999
2635,13620128,1,0.003173478,0.007855579999999999,-0.002786902,-0.3437153,-0.1539194,-9.827812,0,0,45.59832,1,1,755,999
2666,13622923,1,0.004094183,0.007652721,-0.001500579,-0.3347349,-0.1670544,-9.840508,0,0,45.59832,1,1,755,999
2669,13625498,1,0.004182259,0.00539558,0.001356065,-0.3191099,-0.170029,-9.846113000000001,0,0,45.59848,1,1,755,999
2673,13627513,1,0.004803415,0.000678753,0.004602505,-0.3039823,-0.1759871,-9.846541,0,0,45.59848,1,1,755,999
2676,13630333,1,0.004005999,0.0002188571,0.006866919,-0.2885498,-0.1793462,-9.849182000000001,0,0,45.59848,1,1,755,999
2707,13632490,1,0.003270224,0.0007018521,0.007254158,-0.2809097,-0.18346,-9.841583999999999,0,0,45.59848,1,1,755,999
2710,13635441,1,0.001408272,0.001006433,0.004594588,-0.2839092,-0.1991122,-9.825355999999999,0,0,45.59864,1,1,755,999
2713,13638260,1,0.001563312,0.0007636664,0.004206316,-0.2793787,-0.2061619,-9.826677,0,0,45.59864,1,1,755,999
2716,13640521,1,0.003057091,0.0006808011,0.004122911,-0.2662046,-0.2047818,-9.833841,0,0,45.59864,1,1,755,999
2747,13642994,1,0.006163315,0.004531764,0.006810899,-0.2621745,-0.1901982,-9.841820999999999,0,0,45.59864,1,1,755,999
2750,13645766,1,0.006799516,0.005669672,0.008157627000000001,-0.2687195,-0.1732011,-9.85385,0,0,45.5988,1,1,755,999
2754,13648471,1,0.006122595,0.006870087,0.01007159,-0.2927326,-0.1552458,-9.850728,0,0,45.5988,1,1,755,999
2757,13651047,1,0.005292303,0.00466001,0.009579548,-0.3099932,-0.1539069,-9.836848,0,0,45.5988,1,1,755,999
2788,13653295,1,0.004289092,0.0007623742,0.006768357,-0.3271193,-0.1559574,-9.815006,0,0,45.5988,1,1,755,999
2791,13656248,1,0.001549858,0.002185678,-0.0004417874,-0.3457471,-0.1673965,-9.805251,0,0,45.5988,1,1,755,999
2795,13658333,1,0.002473689,0.00528225,-0.0004430167,-0.3549153,-0.17435,-9.811242999999999,0,0,45.59896,1,1,755,999
2800,13667119,1,0.007646086,0.006558965,0.001371309,-0.3377883,-0.1584681,-9.830263,0,0,45.59896,1,1,755,999
2831,13669739,1,0.003233624,0.009151998,-0.0004157475,-0.3337291,-0.1480416,-9.789889000000001,0,0,45.59912,1,1,755,999
2834,13672453,1,-0.002973862,0.009282097,-0.0004095755,-0.3381609,-0.1438584,-9.735671999999999,0,0,45.59912,1,1,755,999
2837,13675121,1,-0.002729674,0.007855052,-0.0003806219,-0.3352422,-0.150643,-9.714057,0,0,45.59912,1,1,755,999
2840,13677263,1,-0.0006283686,0.005411401,0.0002693749,-0.3192766,-0.1719133,-9.701456,0,0,45.59912,1,1,755,999
2871,13679728,1,-0.0007225083,0.002633982,0.0003654826,-0.3112086,-0.186332,-9.696477,0,0,45.59927,1,1,755,999
2876,13682243,1,-0.00312455,-0.0004262769,-0.000774138,-0.3002331,-0.1972858,-9.686123,0,0,45.59927,1,1,755,999
2879,13685014,1,-0.00339954,-0.001707841,-0.0004843922,-0.2998722,-0.198526,-9.678675999999999,0,0,45.59927,1,1,755,999
2882,13687537,1,-0.001027538,-0.001322887,0.0005230219,-0.3011324,-0.2068169,-9.686121999999999,0,0,45.59927,1,1,755,999
2913,13690341,1,0.002080832,0.00043871,0.002765175,-0.2974413,-0.2080708,-9.692005,0,0,45.59937,1,1,755,999
2916,13692582,1,0.003007461,0.003876972,0.005282854,-0.294943,-0.1998151,-9.697889999999999,0,0,45.59937,1,1,755,999
2919,13695442,1,0.001954963,0.006815699,0.005004324,-0.2939055,-0.1761332,-9.703251,0,0,45.59937,1,1,755,999
2922,13697499,1,0.001477172,0.007561001,0.003011684,-0.2917974,-0.161026,-9.710488,0,0,45.59937,1,1,755,999
2953,13700484,1,0.0002558313,0.00640447,-0.001292327,-0.2835807,-0.1536471,-9.697381,0,0,45.59937,1,1,755,999
2957,13702308,1,-0.000926597,0.006423438,-0.002685748,-0.2816446,-0.1665315,-9.676838999999999,0,0,45.59946,1,1,755,999
2960,13705250,1,-0.003141032,0.005446411,-0.0005316129,-0.2743897,-0.2023562,-9.657118000000001,0,0,45.59946,1,1,755,999
2963,13708253,1,-0.002545156,0.005632888,0.0008490637,-0.2715238,-0.213525,-9.660216999999999,0,0,45.59946,1,1,755,999
2994,13710506,1,5.140625e-05,0.007377569,0.004673366,-0.2648382,-0.2305091,-9.664993000000001,0,0,45.59946,1,1,755,999
2999,13713348,1,0.005709822,0.007927594,0.009465064,-0.2735416,-0.2412263,-9.660237,0,0,45.59954,1,1,755,999
3002,13715532,1,0.006862656,0.007672959,0.01028066,-0.2817205,-0.2425919,-9.664526,0,0,45.59954,1,1,755,999
3005,13718493,1,0.006430907,0.005238773,0.009954325999999999,-0.2886012,-0.2358893,-9.665823,0,0,45.59954,1,1,755,999
3036,13720874,1,0.0006046251000000001,0.004835089,0.002154868,-0.2821456,-0.2263809,-9.665010000000001,0,0,45.59954,1,1,755,999
3043,13723879,1,-0.0005658482,0.00685532,-0.0007642459,-0.270224,-0.2095096,-9.673657,0,0,45.5996,1,1,755,999
3046,13726352,1,-0.0006411879,0.009335167,-0.00350554,-0.2534944,-0.1786947,-9.690417999999999,0,0,45.5996,1,1,755,999
3050,13729281,1,-0.001894836,0.008637001,-0.002896433,-0.25298,-0.1618331,-9.692223,0,0,45.5996,1,1,755,999
3081,13732220,1,-0.004931571,0.006560422,-0.001242507,-0.2617375,-0.1505677,-9.695005,0,0,45.5996,1,1,755,999
3085,13734244,1,-0.004154693,0.004680634,0.001368425,-0.2683631,-0.138612,-9.702711000000001,0,0,45.59963,1,1,755,999
3088,13736894,1,-0.003072918,0.00496025,0.005058545,-0.2798406,-0.1362637,-9.722742,0,0,45.59963,1,1,755,999
3091,13739112,1,-0.002367379,0.003080523,0.007938763,-0.3106746,-0.1295495,-9.762378999999999,0,0,45.59963,1,1,755,999
3122,13742286,1,-0.0008775939,0.0005265718,0.009319760999999999,-0.3327897,-0.1234561,-9.800333,0,0,45.59963,1,1,755,999
3125,13744331,1,0.0007133206,-0.0001024959,0.01102076,-0.3587659,-0.1281445,-9.837721,0,0,45.59964,1,1,755,999
3128,13747099,1,0.001832653,0.001276583,0.01008157,-0.3718777,-0.1395815,-9.84633,0,0,45.59964,1,1,755,999
3131,13749536,1,0.002975601,0.003763394,0.006784125,-0.3880858,-0.1401722,-9.840916,0,0,45.59964,1,1,755,999
3162,13751872,1,0.003430392,0.004487521,0.005622245,-0.387744,-0.1370483,-9.829349000000001,0,0,45.59964,1,1,755,999
3166,13755486,1,0.002240804,0.003843076,0.006283189,-0.3795715,-0.1267098,-9.802981000000001,0,0,45.59964,1,1,755,999
3169,13756938,1,0.0008252786,0.003035109,0.00580972,-0.3751289,-0.1288167,-9.796427,0,0,45.59964,1,1,755,999
3172,13759861,1,-0.001590975,0.0003202361,0.002926909,-0.363851,-0.13054,-9.802349,0,0,45.59964,1,1,755,999
3203,13762206,1,-0.0008604806,-0.002180856,0.001869602,-0.3389124,-0.122416,-9.805353,0,0,45.59964,1,1,755,999
3206,13765837,1,0.0004074791,-0.001391465,0.002463898,-0.3222543,-0.1252231,-9.798643999999999,0,0,45.59964,1,1,755,999
3209,13767116,1,0.001263403,-0.0004603811,0.0043947,-0.2995145,-0.1350237,-9.784974999999999,0,0,45.59964,1,1,755,999
3212,13772907,1,0.003382622,-0.002369846,0.004115272,-0.2832655,-0.151021,-9.789253,0,0,45.59964,1,1,755,999
3244,13775291,1,0.006184534,0.002991953,0.000574614,-0.2927719,-0.1629696,-9.786777000000001,0,0,45.59964,1,1,755,999
3247,13778356,1,0.007345269,0.0057229,-0.0002566158,-0.2996213,-0.1632216,-9.785716000000001,0,0,45.59963,1,1,755,999
3250,13780273,1,0.007028452,0.009169307999999999,-0.001080516,-0.3032461,-0.1690034,-9.771587,0,0,45.59963,1,1,755,999
3253,13782990,1,0.006030203,0.009932587999999999,-0.0007137142,-0.3003878,-0.1828565,-9.767760000000001,0,0,45.59963,1,1,755,999
3286,13785432,1,0.005560941,0.01030959,-0.001527053,-0.2917247,-0.1989174,-9.754839,0,0,45.59963,1,1,755,999
3290,13788512,1,0.003974805,0.0121075,-0.004104704,-0.2988679,-0.1976385,-9.751168,0,0,45.59961,1,1,755,999
3293,13790761,1,0.002861483,0.01318377,-0.003558244,-0.3055596,-0.1949286,-9.757291,0,0,45.59961,1,1,755,999
3296,13793320,1,0.002416863,0.01127266,-0.002517789,-0.3247475,-0.1824728,-9.740836,0,0,45.59961,1,1,755,999
3327,13796484,1,0.002827676,0.008650735999999999,0.001105457,-0.3364615,-0.1675868,-9.727969999999999,0,0,45.59961,1,1,755,999
3330,13798366,1,0.003436877,0.005705409,0.00580472,-0.3381043,-0.1581925,-9.724527999999999,0,0,45.59961,1,1,755,999
3333,13801114,1,0.003221134,0.003965784,0.006589079,-0.3339934,-0.1622866,-9.717314,0,0,45.59956,1,1,755,999
3336,13802921,1,0.003143366,-0.001229777,0.005320877,-0.3238839,-0.16905,-9.728121,0,0,45.59956,1,1,755,999
3367,13805473,1,0.002611679,-0.002543212,0.005513978,-0.3162115,-0.1735937,-9.796113999999999,0,0,45.59956,1,1,755,999
3371,13808431,1,-0.001433197,-0.004623037,0.005431393,-0.3152186,-0.1740203,-9.86026,0,0,45.59956,1,1,755,999
3375,13810536,1,-0.003139362,-0.002556063,0.00531501,-0.3173045,-0.1718609,-9.88697,0,0,45.59948,1,1,755,999
3378,13813477,1,-0.002161281,-0.001782337,0.007322013,-0.3152369,-0.1762755,-9.905448,0,0,45.59948,1,1,755,999
3409,13815869,1,-0.001651768,-0.003432225,0.006595569,-0.3071542,-0.1835922,-9.913198,0,0,45.59948,1,1,755,999
3412,13818427,1,-0.001544293,-0.004541948,0.004838315,-0.2988984,-0.1941156,-9.917768000000001,0,0,45.59948,1,1,755,999
3415,13821075,1,0.0006151106,-0.00685433,0.00317035,-0.2815898,-0.1994397,-9.916658,0,0,45.59948,1,1,755,999
3419,13822888,1,0.001317132,-0.006547408,0.004611213,-0.270112,-0.1908297,-9.899508000000001,0,0,45.5994,1,1,755,999
3454,13826260,1,0.0003846017,-0.006127416,0.004685784,-0.26187,-0.1906815,-9.895472,0,0,45.5994,1,1,755,999
3458,13828131,1,-0.001247634,-0.002365695,0.004566056,-0.2541785,-0.1742079,-9.881587,0,0,45.5994,1,1,755,999
3461,13830566,1,-0.002524962,-2.176232e-05,0.004791627,-0.2507788,-0.1713514,-9.871560000000001,0,0,45.5994,1,1,755,999
3464,13833464,1,-0.005707801,0.003114222,0.005447624,-0.2489836,-0.179759,-9.853319000000001,0,0,45.5993,1,1,755,999
3495,13836281,1,-0.006472049,0.004453641,0.0070309,-0.2498806,-0.1811308,-9.846092000000001,0,0,45.5993,1,1,755,999
3499,13838272,1,-0.002924802,0.004447557,0.008390709,-0.2442465,-0.1826691,-9.819054,0,0,45.5993,1,1,755,999
3502,13840884,1,0.0003195961,0.005985742,0.009270062000000001,-0.2311078,-0.1762822,-9.803364,0,0,45.5993,1,1,755,999
3506,13843572,1,5.36697e-05,0.008900416,0.006511434,-0.2186065,-0.1635161,-9.793694,0,0,45.5993,1,1,755,999
3537,13846120,1,-0.001040234,0.008741294,0.003064684,-0.2084883,-0.1310011,-9.798684,0,0,45.59921,1,1,755,999
3540,13849238,1,0.001078282,0.007205285,0.003722237,-0.2135657,-0.1250652,-9.798368,0,0,45.59921,1,1,755,999
3543,13851306,1,0.002604108,0.00628371,0.005222529,-0.2209274,-0.1239097,-9.794351000000001,0,0,45.59921,1,1,755,999
3548,13853860,1,0.003780665,0.00495537,0.006787211,-0.2387814,-0.1409098,-9.770765000000001,0,0,45.59921,1,1,755,999
3579,13856562,1,0.001107068,0.003613592,0.006022329,-0.2724694,-0.1644689,-9.756671000000001,0,0,45.59911,1,1,755,999
3583,13858426,1,-0.000985786,0.002839712,0.005002975,-0.2912533,-0.1732666,-9.746373999999999,0,0,45.59911,1,1,755,999
3586,13862212,1,-0.00521714,0.002406188,0.002651537,-0.3027362,-0.181133,-9.724482999999999,0,0,45.59911,1,1,755,999
3589,13863756,1,-0.002937699,0.003562573,0.001659819,-0.3071349,-0.182987,-9.708251000000001,0,0,45.59911,1,1,755,999
3620,13866326,1,0.001186375,0.004330185,0.002648095,-0.3106091,-0.1769562,-9.688463,0,0,45.59903,1,1,755,999
3623,13871110,1,0.003882642,0.009574988,0.005492749,-0.3304898,-0.1886175,-9.702451999999999,0,0,45.59903,1,1,755,999
3626,13874537,1,0.003699464,0.01035429,0.005521588,-0.3256546,-0.1978322,-9.705584999999999,0,0,45.59903,1,1,755,999
3629,13876372,1,0.002300907,0.009734497999999999,0.002309784,-0.3122504,-0.2089163,-9.706965,0,0,45.59894,1,1,755,999
3660,13878749,1,0.0004575845,0.009533295000000001,0.0007047225,-0.303073,-0.2215015,-9.718353,0,0,45.59894,1,1,755,999
3663,13881759,1,-0.00433374,0.01009152,0.0009651408999999999,-0.3050604,-0.2216516,-9.734885999999999,0,0,45.59894,1,1,755,999
3666,13884094,1,-0.003697053,0.01025929,0.002462703,-0.3130969,-0.2142638,-9.754530000000001,0,0,45.59894,1,1,755,999
3669,13886482,1,-0.0002261565,0.008585623000000001,0.004389007,-0.3180408,-0.201334,-9.775021000000001,0,0,45.59894,1,1,755,999
3701,13889494,1,0.001702932,0.007573382,0.004062548,-0.300421,-0.1710977,-9.774265,0,0,45.59885,1,1,755,999
3704,13891534,1,0.002416527,0.006604284,0.004309056,-0.2813177,-0.1561962,-9.768051,0,0,45.59885,1,1,755,999
3707,13894301,1,0.006175319,0.004765463,0.004802769,-0.2665161,-0.1412696,-9.763612,0,0,45.59885,1,1,755,999
3710,13896513,1,0.007602526,0.002720983,0.005022021,-0.2590099,-0.1176896,-9.765515000000001,0,0,45.59885,1,1,755,999
3741,13898984,1,0.007046404,0.0008452456,0.004785509,-0.2606648,-0.1003371,-9.770683,0,0,45.59876,1,1,755,999
3744,13901942,1,0.00720162,0.001690008,0.002651967,-0.2729811,-0.1009616,-9.782804,0,0,45.59876,1,1,755,999
3747,13903956,1,0.007122618,0.0019678,0.001728913,-0.286876,-0.1083822,-9.787585,0,0,45.59876,1,1,755,999
3750,13906297,1,0.006093586,0.002045869,0.0005902997,-0.2949855,-0.125678,-9.794995999999999,0,0,45.59876,1,1,755,999
3782,13909102,1,0.005767238,0.002811873,0.0006515068,-0.3003599,-0.1321698,-9.802541,0,0,45.59876,1,1,755,999
3785,13911848,1,0.005207883,0.004220093,0.002350797,-0.3025011,-0.1439986,-9.799208,0,0,45.59869,1,1,755,999
3788,13914264,1,0.003204031,0.007458116,0.003845831,-0.3108659,-0.154886,-9.785638000000001,0,0,45.59869,1,1,755,999
3791,13916537,1,-8.24415e-05,0.008784804,0.00467168,-0.3157501,-0.182901,-9.755345,0,0,45.59869,1,1,755,999
3822,13918992,1,-0.003673837,0.007020061,0.003677846,-0.3154761,-0.2128437,-9.765867999999999,0,0,45.59869,1,1,755,999
3825,13921423,1,-0.004107956,0.006119041,0.0005362782,-0.3143776,-0.2186603,-9.775407,0,0,45.59862,1,1,755,999
3830,13924316,1,-0.003779005,0.005425585,-0.000916325,-0.3096791,-0.207548,-9.782463999999999,0,0,45.59862,1,1,755,999
3837,13927276,1,-0.001605795,0.0009284036000000001,-0.003319891,-0.3029927,-0.186113,-9.798213000000001,0,0,45.59862,1,1,755,999
3868,13929752,1,0.0002886133,0.002598674,-0.002255452,-0.3057705,-0.1593357,-9.820093999999999,0,0,45.59862,1,1,755,999
3872,13932224,1,0.004063475,0.006558988,-0.001742129,-0.2946144,-0.1260245,-9.862363,0,0,45.59856,1,1,755,999
3875,13935113,1,0.007159578,0.008094657999999999,-0.002513191,-0.2878063,-0.1098852,-9.893508000000001,0,0,45.59856,1,1,755,999
3878,13937838,1,0.007212445,0.007317187,-0.004212732,-0.291954,-0.07879704,-9.913876,0,0,45.59856,1,1,755,999
3909,13940322,1,0.00407667,0.005054314,-0.006220677,-0.293912,-0.05885158,-9.847215,0,0,45.59856,1,1,755,999
3912,13942537,1,0.00133709,0.00182462,-0.006622657,-0.2964162,-0.04801365,-9.780170999999999,0,0,45.59851,1,1,755,999
3915,13945700,1,0.001306605,-0.0008672777,-0.004168309,-0.3166637,-0.04829138,-9.704527000000001,0,0,45.59851,1,1,755,999
3918,13948255,1,0.001456934,-0.0009956812000000001,-0.001842161,-0.3337554,-0.05888148,-9.665570000000001,0,0,45.59851,1,1,755,999
3949,13950925,1,0.001249413,0.0008510142,0.006886872,-0.3634538,-0.05296033,-9.642232999999999,0,0,45.59851,1,1,755,999
3953,13953738,1,0.001992131,0.001968737,0.01042415,-0.3727477,-0.06071779,-9.651629,0,0,45.59848,1,1,755,999
3956,13956115,1,0.003154243,0.003495886,0.01146232,-0.3782069,-0.07267369,-9.662426,0,0,45.59848,1,1,755,999
3959,13958800,1,0.003763163,0.003084389,0.01287209,-0.3820092,-0.09629942,-9.679171999999999,0,0,45.59848,1,1,755,999
3990,13961767,1,0.00245918,0.002899036,0.01142793,-0.3709122,-0.1186396,-9.680634,0,0,45.59848,1,1,755,999
3995,13963959,1,0.002448027,0.003693799,0.008235701,-0.3626932,-0.1266762,-9.687184,0,0,45.59848,1,1,755,999
3998,13966313,1,0.001392226,0.004954903,0.006448015,-0.3389549,-0.1265509,-9.710929,0,0,45.59847,1,1,755,999
4001,13969129,1,0.000582231,0.005895928,0.006636087,-0.318093,-0.125764,-9.723034999999999,0,0,45.59847,1,1,755,999
4032,13977454,1,0.00196378,0.007344529,0.009009062,-0.2448468,-0.1064228,-9.750342,0,0,45.5985,1,1,755,999
4035,13979917,1,0.003631859,0.0066542,0.007699401,-0.2337107,-0.107622,-9.751313,0,0,45.5985,1,1,755,999
4066,13982746,1,0.004411638,0.006323587,0.006315908,-0.238894,-0.1054745,-9.776311,0,0,45.5985,1,1,755,999
4069,13985317,1,0.004093425,0.006176319,0.005328024,-0.2568091,-0.1022575,-9.792795,0,0,45.5985,1,1,755,999
4072,13987484,1,0.001040873,0.007734753,0.002483727,-0.2814898,-0.110274,-9.821365,0,0,45.59857,1,1,755,999
4076,13989928,1,-0.0005123393,0.007866895,0.002601136,-0.2996584,-0.1132778,-9.848079,0,0,45.59857,1,1,755,999
4107,13992229,1,-0.003134862,0.006282995,0.003915629,-0.3137411,-0.1168169,-9.867234,0,0,45.59857,1,1,755,999
4110,13995205,1,-0.003050759,0.005001803,0.004864976,-0.3142168,-0.1212543,-9.868626000000001,0,0,45.59857,1,1,755,999
4113,13998022,1,-5.706303e-06,0.00499077,0.005773824,-0.2983432,-0.1446252,-9.859119,0,0,45.59867,1,1,755,999
4117,13999969,1,0.002511305,0.005550157,0.004470273,-0.2812035,-0.161332,-9.843703,0,0,45.59867,1,1,755,999
4148,14002448,1,0.001189567,0.004902677,0.003598228,-0.2691195,-0.1691042,-9.794931,0,0,45.59867,1,1,755,999
4151,14004806,1,0.001282746,0.001693356,0.002604459,-0.2669519,-0.1728759,-9.761782,0,0,45.59867,1,1,755,999
4154,14007364,1,0.001978283,0.001701643,-0.0004246479,-0.2596528,-0.191734,-9.736496000000001,0,0,45.59867,1,1,755,999
4157,14010486,1,0.001820168,0.003178874,-0.0009438816,-0.2531723,-0.1932167,-9.719640999999999,0,0,45.5988,1,1,755,999
4188,14013179,1,0.002224931,0.006530576,0.001270318,-0.2626761,-0.1826904,-9.699645,0,0,45.5988,1,1,755,999
4191,14015523,1,0.002748547,0.008087509999999999,0.003006628,-0.2890449,-0.1741571,-9.692327000000001,0,0,45.5988,1,1,755,999
4194,14018103,1,0.003048304,0.008310931000000001,0.00415999,-0.3048159,-0.1748082,-9.679373999999999,0,0,45.5988,1,1,755,999
4198,14020707,1,0.004426357,0.007401995,0.004799307,-0.3162334,-0.1742195,-9.687283000000001,0,0,45.59892,1,1,755,999
4229,14023451,1,0.003900752,0.002851018,0.007439501,-0.3356541,-0.1708152,-9.731866,0,0,45.59892,1,1,755,999
4232,14026076,1,0.001940142,0.0005004511,0.008608233,-0.3438738,-0.1694269,-9.755815999999999,0,0,45.59892,1,1,755,999
4236,14027760,1,-0.002095472,-0.001450247,0.007834883000000001,-0.3466376,-0.1744809,-9.769258000000001,0,0,45.59892,1,1,755,999
4243,14030846,1,-0.003018431,-0.001288958,0.005554719,-0.3372002,-0.2043833,-9.766341000000001,0,0,45.59906,1,1,755,999
4276,14033201,1,-0.001682398,-0.0001068594,0.002343264,-0.3192598,-0.2139905,-9.752504999999999,0,0,45.59906,1,1,755,999
4279,14036261,1,0.002680513,0.003562047,0.001556606,-0.304811,-0.2021739,-9.738204,0,0,45.59906,1,1,755,999
4282,14038885,1,0.006237823,0.008445980000000001,0.0003811165,-0.2788402,-0.1682647,-9.716150000000001,0,0,45.59906,1,1,755,999
4285,14040926,1,0.006409334,0.01106679,0.0009785988000000001,-0.2630187,-0.1389784,-9.704138,0,0,45.59906,1,1,755,999
4316,14043441,1,0.004565414,0.009974317,0.001573996,-0.2417156,-0.1096554,-9.703962000000001,0,0,45.59917,1,1,755,999
4319,14046056,1,0.003663262,0.006920727,0.001659206,-0.2328336,-0.101199,-9.730195999999999,0,0,45.59917,1,1,755,999
4322,14048842,1,0.003085082,0.004540782,0.004192796,-0.2322332,-0.1010094,-9.789686,0,0,45.59917,1,1,755,999
4326,14051248,1,0.002685885,0.003514162,0.005438561,-0.2329568,-0.10812,-9.811752,0,0,45.59917,1,1,755,999
4357,14053505,1,0.0007931244,0.001544592,0.008064247,-0.2412005,-0.1239631,-9.812032,0,0,45.59928,1,1,755,999
4361,14055936,1,0.0004642789,0.001470562,0.007068047,-0.2580924,-0.132359,-9.799476,0,0,45.59928,1,1,755,999
4366,14058933,1,0.0008883495,0.001763473,0.004090436,-0.2751326,-0.1477789,-9.789020000000001,0,0,45.59928,1,1,755,999
4369,14061313,1,0.002472969,0.003282981,0.002331733,-0.2708871,-0.1574874,-9.794582,0,0,45.59928,1,1,755,999
4400,14064115,1,0.00244389,0.004868696,0.001693444,-0.2669643,-0.154574,-9.814622,0,0,45.59937,1,1,755,999
4403,14066427,1,0.002693441,0.005598383,0.0007904825,-0.2579134,-0.1486889,-9.822639000000001,0,0,45.59937,1,1,755,999
4406,14068806,1,0.004410504,0.006612993,0.001158784,-0.255249,-0.1471891,-9.815939999999999,0,0,45.59937,1,1,755,999
4410,14071126,1,0.005445778,0.005928827,0.003567463,-0.2753011,-0.1369423,-9.787069000000001,0,0,45.59937,1,1,755,999
4441,14077885,1,0.002838951,0.01201873,0.007541727,-0.336462,-0.126264,-9.798902999999999,0,0,45.59945,1,1,755,999
4444,14079084,1,0.001882569,0.01273547,0.00758742,-0.3551131,-0.1427696,-9.815884,0,0,45.59945,1,1,755,999
4447,14081962,1,0.001134474,0.01167747,0.00782863,-0.3572768,-0.1592143,-9.813631000000001,0,0,45.59945,1,1,755,999
4478,14084918,1,0.001667751,0.009724932,0.00740347,-0.3507786,-0.1808259,-9.815731,0,0,45.59945,1,1,755,999
4481,14086577,1,0.002391173,0.007575971,0.006362699,-0.3337935,-0.1801795,-9.830824,0,0,45.59953,1,1,755,999
4484,14090060,1,0.002174365,0.005278116,0.006406891,-0.3002783,-0.1582382,-9.860998,0,0,45.59953,1,1,755,999
4489,14091937,1,0.00238804,0.004453655,0.006389296,-0.2778824,-0.1523398,-9.878905,0,0,45.59953,1,1,755,999
4520,14094090,1,0.002242333,0.00310564,0.003966137,-0.2505737,-0.1346506,-9.899801,0,0,45.59953,1,1,755,999
4523,14097303,1,0.001133091,0.00293079,0.001746755,-0.2387653,-0.1338643,-9.910223999999999,0,0,45.59959,1,1,755,999
4526,14099119,1,-0.001645952,0.003166042,-0.001944915,-0.2353312,-0.1488615,-9.902979,0,0,45.59959,1,1,755,999
4529,14101738,1,-0.004615497,0.002990151,-0.003690835,-0.2428708,-0.1552573,-9.87143,0,0,45.59959,1,1,755,999
4560,14104728,1,-0.004151935,0.002223969,-0.006350666,-0.2494242,-0.1616156,-9.824869,0,0,45.59959,1,1,755,999
4563,14106723,1,0.0003155722,0.003858441,-0.006462815,-0.2487363,-0.1656054,-9.801226,0,0,45.59959,1,1,755,999
4566,14109541,1,0.005093903,0.00601126,-0.002952176,-0.2397402,-0.1682396,-9.771948,0,0,45.59964,1,1,755,999
4571,14111957,1,0.005965846,0.006473884,-0.000673582,-0.2371012,-0.1703271,-9.756565,0,0,45.59964,1,1,755,999
4602,14114279,1,0.003153483,0.006925591,0.005155907,-0.258541,-0.1545858,-9.749029999999999,0,0,45.59964,1,1,755,999
4605,14117117,1,0.001836346,0.006274624,0.006858237,-0.2794862,-0.1334243,-9.745604999999999,0,0,45.59964,1,1,755,999
4608,14119772,1,6.412005000000001e-05,0.004441943,0.01005264,-0.3094004,-0.1178844,-9.738184,0,0,45.59967,1,1,755,999
4612,14121987,1,-0.001324527,0.004567956,0.01211725,-0.3196132,-0.1095384,-9.734933,0,0,45.59967,1,1,755,999
4643,14124250,1,-0.003960026,0.005613351,0.01138775,-0.3164345,-0.1088253,-9.718665,0,0,45.59967,1,1,755,999
4646,14126716,1,-0.004420714,0.006184659,0.01125206,-0.3091149,-0.117485,-9.711771000000001,0,0,45.59967,1,1,755,999
4649,14129747,1,-0.002698285,0.007933981999999999,0.01256137,-0.3077591,-0.1329141,-9.734512,0,0,45.59969,1,1,755,999
4656,14131937,1,-0.002046886,0.008080899000000001,0.01176411,-0.3171311,-0.1523733,-9.760195,0,0,45.59969,1,1,755,999
4687,14134934,1,-0.003321698,0.004371047,0.00986367,-0.3247575,-0.1760984,-9.805209,0,0,45.59969,1,1,755,999
4690,14136993,1,-0.004523518,0.00268364,0.00880998,-0.3201596,-0.176113,-9.835079,0,0,45.59969,1,1,755,999
4693,14138960,1,-0.005560617,0.006037928,0.004505567,-0.3009153,-0.1647163,-9.858428999999999,0,0,45.59969,1,1,755,999
4697,14142120,1,-0.005237774,0.008565829,0.003603551,-0.28948,-0.1543715,-9.845803,0,0,45.59969,1,1,755,999
4728,14144305,1,-0.00276676,0.01213584,0.001541923,-0.2794647,-0.144062,-9.813738000000001,0,0,45.59969,1,1,755,999
4731,14147534,1,-0.0002999588,0.0107087,0.001817414,-0.2725274,-0.1316217,-9.794221,0,0,45.59969,1,1,755,999
4735,14149582,1,6.753417000000001e-05,0.01009643,0.001741219,-0.2693875,-0.1259761,-9.782624,0,0,45.59969,1,1,755,999
4738,14152095,1,-0.0006704564,0.007985299,0.0002731372,-0.2713653,-0.1300239,-9.784699,0,0,45.59966,1,1,755,999
4769,14154893,1,-0.002409255,0.005202252,4.061791e-05,-0.2798547,-0.1431565,-9.799484,0,0,45.59966,1,1,755,999
4772,14157332,1,-0.001879731,0.00339618,0.002831022,-0.2914637,-0.1585023,-9.830517,0,0,45.59966,1,1,755,999
4775,14160235,1,-0.0003047333,0.001771878,0.006196956,-0.2974147,-0.1582612,-9.843745,0,0,45.59966,1,1,755,999
4779,14161962,1,0.001312206,-0.0002125035,0.006259528,-0.2951889,-0.1623912,-9.869020000000001,0,0,45.59966,1,1,755,999
4810,14164466,1,0.002016874,-0.0004919506,0.004339352,-0.2880812,-0.1662403,-9.861670999999999,0,0,45.59961,1,1,755,999
4813,14167321,1,0.001497001,0.00371866,-0.002325397,-0.2933869,-0.1777261,-9.832420000000001,0,0,45.59961,1,1,755,999
4816,14169899,1,0.0006702598,0.006464623,-0.003639714,-0.304588,-0.1856254,-9.816808999999999,0,0,45.59961,1,1,755,999
4819,14174581,1,-0.0003122065,0.01254757,-0.003254262,-0.3362603,-0.1797211,-9.811109,0,0,45.59953,1,1,755,999
4850,14177328,1,-0.0003516467,0.009630655,0.0006582264,-0.3505537,-0.1828083,-9.772161000000001,0,0,45.59953,1,1,755,999
4853,14180000,1,-0.00352695,0.007268231,0.003660498,-0.3559734,-0.1887308,-9.771119000000001,0,0,45.59953,1,1,755,999
4857,14185347,1,-0.003655701,0.009978605,7.778822e-05,-0.3858308,-0.1947901,-9.805877000000001,0,0,45.59944,1,1,755,999
4888,14187737,1,-0.002098089,0.009749631999999999,0.0002559221,-0.3904101,-0.180868,-9.821365,0,0,45.59944,1,1,755,999
4891,14190641,1,0.0007325151,0.008088059,0.001709035,-0.394996,-0.1569764,-9.848487,0,0,45.59944,1,1,755,999
4895,14192947,1,0.00115767,0.006449494,0.002563597,-0.3959335,-0.1531516,-9.867851,0,0,45.59944,1,1,755,999
4898,14195842,1,-0.002120265,0.004183334,0.002371871,-0.4015442,-0.148977,-9.879987,0,0,45.59933,1,1,755,999
4929,14198509,1,-0.002879208,0.003907333,0.001352029,-0.4021709,-0.155464,-9.862605,0,0,45.59933,1,1,755,999
4932,14200919,1,-0.0008374809,0.004633077,-0.0001715988,-0.4055676,-0.1611219,-9.845133000000001,0,0,45.59933,1,1,755,999
4935,14203392,1,0.0005650988,0.00183482,-0.000804735,-0.4094268,-0.1651923,-9.82856,0,0,45.59933,1,1,755,999
4938,14206061,1,0.001291307,0.001683811,7.598267e-05,-0.411317,-0.1723836,-9.820594,0,0,45.59933,1,1,755,999
4969,14208742,1,0.002145701,0.006686097,0.001063979,-0.3981723,-0.1761861,-9.808149,0,0,45.59922,1,1,755,999
4972,14211404,1,0.00136272,0.007752687,0.0007373638000000001,-0.3763644,-0.1748361,-9.796189999999999,0,0,45.59922,1,1,755,999
4976,14213385,1,0.001249459,0.01062683,0.0001160512,-0.3403826,-0.1748539,-9.769743999999999,0,0,45.59922,1,1,755,999
4979,14216003,1,0.001049902,0.01036894,0.0007757337,-0.3207657,-0.1867218,-9.752746999999999,0,0,45.59922,1,1,755,999
5010,14218488,1,0.0003690909,0.009647855,0.002847543,-0.3125295,-0.2048596,-9.752697,0,0,45.59912,1,1,755,999
5013,14221305,1,0.0007652484,0.009625809000000001,0.003163856,-0.3154009,-0.2166995,-9.742027999999999,0,0,45.59912,1,1,755,999
5016,14223776,1,0.002921056,0.009162859000000001,0.001762729,-0.3278156,-0.233508,-9.698422000000001,0,0,45.59912,1,1,755,999
5019,14226012,1,0.003556543,0.008760762,0.001669458,-0.3424689,-0.2354556,-9.67365,0,0,45.59912,1,1,755,999
5050,14228235,1,0.0003054446,0.007527106,0.004188856,-0.3632775,-0.2144896,-9.663066000000001,0,0,45.59903,1,1,755,999
5053,14231050,1,-0.001193511,0.006882097,0.005668543,-0.3747582,-0.201731,-9.671227,0,0,45.59903,1,1,755,999
5062,14233900,1,-0.004357849,0.004403519,0.005404016,-0.3794244,-0.1932699,-9.709177,0,0,45.59903,1,1,755,999
5065,14236331,1,-0.00351142,0.00347369,0.003867198,-0.3825796,-0.1840146,-9.725111,0,0,45.59903,1,1,755,999
5096,14238772,1,-0.001349216,0.003101041,5.192325e-05,-0.3733596,-0.1695629,-9.731211,0,0,45.59903,1,1,755,999
5099,14241348,1,-0.0006460390000000001,0.002452847,-0.003833075,-0.3423426,-0.1562417,-9.750622999999999,0,0,45.59895,1,1,755,999
5103,14243978,1,0.0004710311,0.002187055,-0.003464438,-0.3187499,-0.1549395,-9.770360999999999,0,0,45.59895,1,1,755,999
5106,14246476,1,0.003608531,0.002710309,-0.000911125,-0.2895018,-0.1581339,-9.81683,0,0,45.59895,1,1,755,999
5137,14249897,1,0.005594536,-0.002242204,0.0005498875000000001,-0.2646166,-0.1522307,-9.857497,0,0,45.59895,1,1,755,999
5140,14252296,1,0.005118914,-0.004623371,0.0003764998,-0.2581326,-0.1446536,-9.889391,0,0,45.59886,1,1,755,999
5144,14254290,1,0.002295116,-0.005013019,0.001331553,-0.2547042,-0.1421972,-9.923598,0,0,45.59886,1,1,755,999
5147,14257028,1,0.001247556,-0.001801178,0.004199378,-0.2576489,-0.1566285,-9.933748,0,0,45.59886,1,1,755,999
5178,14259540,1,0.002483398,0.0005896816,0.006060704,-0.2820983,-0.1833917,-9.931694999999999,0,0,45.59886,1,1,755,999
5183,14262480,1,0.002844862,-0.0005512009,0.007003461,-0.297507,-0.1971056,-9.911702999999999,0,0,45.59878,1,1,755,999
5186,14265001,1,0.001138147,-0.001303226,0.003968619,-0.3213097,-0.1998223,-9.873754,0,0,45.59878,1,1,755,999
5189,14266503,1,-0.0004989486999999999,-0.0006420589,-0.001074411,-0.3313839,-0.1909491,-9.851647,0,0,45.59878,1,1,755,999
5220,14269141,1,-0.0011091,0.0004112138,-0.002643895,-0.343234,-0.1723943,-9.820311,0,0,45.59878,1,1,755,999
5223,14272218,1,-0.001048397,0.0009707305,-0.002438945,-0.3475704,-0.1705022,-9.796701000000001,0,0,45.59878,1,1,755,999
5227,14277550,1,-0.001952209,0.00319418,-0.001694368,-0.3620177,-0.1604793,-9.756608999999999,0,0,45.59871,1,1,755,999
5260,14280085,1,-6.134513e-05,0.004330766,-0.0002906203,-0.3520772,-0.145892,-9.747455,0,0,45.59871,1,1,755,999
5263,14282757,1,0.003551758,0.00399277,0.003825256,-0.3447236,-0.1363094,-9.739044,0,0,45.59871,1,1,755,999
5268,14285583,1,0.00448387,0.0008199426,0.006847104,-0.3312283,-0.1153338,-9.721636999999999,0,0,45.59863,1,1,755,999
5271,14287911,1,0.002690577,-0.0009023508,0.007266148,-0.3135496,-0.1003974,-9.717663,0,0,45.59863,1,1,755,999
5302,14290358,1,-0.001901369,-0.004836887,0.00288464,-0.2818593,-0.08803757,-9.724378,0,0,45.59863,1,1,755,999
5305,14292980,1,-0.001951298,-0.004548416,0.001301888,-0.2605521,-0.09141804000000001,-9.728160000000001,0,0,45.59863,1,1,755,999
5308,14296519,1,-0.0009660563,-0.001006492,0.0007163885,-0.2384678,-0.09916155,-9.744126,0,0,45.59856,1,1,755,999
5311,14298324,1,0.002312479,0.00570911,-0.001086705,-0.2284544,-0.1084788,-9.779574,0,0,45.59856,1,1,755,999
5342,14300984,1,0.003594843,0.006847274,0.001551035,-0.2327568,-0.1200432,-9.809886000000001,0,0,45.59856,1,1,755,999
5345,14303458,1,0.004370205,0.005307155,0.005926055,-0.2457581,-0.1336608,-9.816328,0,0,45.59856,1,1,755,999
5349,14306164,1,0.004091923,0.004590554,0.008212703999999999,-0.2538835,-0.1430515,-9.821128,0,0,45.5985,1,1,755,999
5352,14309114,1,0.001847652,0.004206263,0.01145046,-0.260885,-0.1519902,-9.866493999999999,0,0,45.5985,1,1,755,999
5383,14312064,1,0.001455404,0.003699593,0.009828675,-0.2748598,-0.151796,-9.935974999999999,0,0,45.5985,1,1,755,999
5386,14314331,1,0.0008956393,0.002871383,0.008861081,-0.302608,-0.1552058,-9.987265000000001,0,0,45.5985,1,1,755,999
5389,14317045,1,0.0006906539,0.002227191,0.009207464,-0.3284208,-0.1694268,-9.983532,0,0,45.59845,1,1,755,999
5392,14319613,1,0.001209932,0.00215874,0.01034352,-0.3523252,-0.1921781,-9.936268999999999,0,0,45.59845,1,1,755,999
5423,14322320,1,-0.0005107599,-0.0008083708,0.01189515,-0.3609861,-0.2088545,-9.885351,0,0,45.59845,1,1,755,999
5426,14324983,1,-0.00229981,-0.002250323,0.01262411,-0.3618497,-0.2076612,-9.858358000000001,0,0,45.59845,1,1,755,999
5430,14326985,1,-0.004812636,0.001959188,0.006917672,-0.3628605,-0.2097908,-9.837641,0,0,45.59841,1,1,755,999
5433,14330081,1,-0.004178961,0.00569844,0.003047382,-0.3610832,-0.2012947,-9.826857,0,0,45.59841,1,1,755,999
5464,14332845,1,-0.002641748,0.01191166,-0.00048149,-0.3582074,-0.1792754,-9.818111999999999,0,0,45.59841,1,1,755,999
5467,14334961,1,2.766436e-05,0.01396694,0.003573931,-0.3577141,-0.1712913,-9.816281999999999,0,0,45.59841,1,1,755,999
5475,14338106,1,0.00310681,0.01307874,0.007350489,-0.350047,-0.180686,-9.802447000000001,0,0,45.59841,1,1,755,999
5478,14340007,1,0.004522753,0.01339622,0.008006945999999999,-0.3393353,-0.1861824,-9.80034,0,0,45.59838,1,1,755,999
5509,14342756,1,0.006551796,0.01386596,0.004162711,-0.3369355,-0.150616,-9.812666999999999,0,0,45.59838,1,1,755,999
5512,14344615,1,0.01020199,0.01350282,0.001404668,-0.3410703,-0.1219697,-9.835395,0,0,45.59838,1,1,755,999
5515,14347130,1,0.01151062,0.01136036,0.00370437,-0.3479808,-0.09255843,-9.860922,0,0,45.59838,1,1,755,999
5518,14350433,1,0.01080082,0.009146523,0.005133604,-0.3547798,-0.08048893999999999,-9.849576000000001,0,0,45.59834,1,1,755,999
5549,14352530,1,0.005558237,-9.021916e-05,0.005287727,-0.3685502,-0.06969562,-9.813616,0,0,45.59834,1,1,755,999
5552,14355883,1,0.002773034,-0.004162071,0.005163443,-0.3822511,-0.07491267,-9.772978,0,0,45.59834,1,1,755,999
5556,14357915,1,0.001676496,-0.004041289,0.004664361,-0.3988295,-0.07756153,-9.752515000000001,0,0,45.59834,1,1,755,999
5559,14360989,1,0.002247152,0.002813312,0.004868225,-0.415194,-0.08044638,-9.725835,0,0,45.59828,1,1,755,999
5590,14363341,1,0.00343221,0.009600479,0.005935926,-0.4129141,-0.07893121,-9.706505999999999,0,0,45.59828,1,1,755,999
5595,14366268,1,0.003879264,0.01203648,0.005665436,-0.4071361,-0.07905272000000001,-9.704058,0,0,45.59828,1,1,755,999
5598,14368559,1,0.002167447,0.009001678000000001,0.003245895,-0.3955059,-0.08432259,-9.72132,0,0,45.59828,1,1,755,999
5601,14372068,1,0.0008632103,0.007532154,0.002193987,-0.3875142,-0.08753590999999999,-9.732797,0,0,45.59828,1,1,755,999
5604,14373875,1,-0.0008492644,0.003644305,0.00152408,-0.375401,-0.09506547,-9.737304999999999,0,0,45.59821,1,1,755,999
5635,14376428,1,0.0007350206,-0.005532196,0.0005618862,-0.3537844,-0.1088573,-9.744001000000001,0,0,45.59821,1,1,755,999
5639,14378999,1,0.001497023,-0.006600627,0.0004708764,-0.3332371,-0.1249806,-9.751198,0,0,45.59821,1,1,755,999
5642,14381495,1,0.000818675,-0.005123455,0.002242962,-0.298618,-0.1352334,-9.761611,0,0,45.59821,1,1,755,999
5645,14384990,1,-0.0007624783,-0.0007099853,0.003480937,-0.2771782,-0.1242936,-9.756283,0,0,45.59815,1,1,755,999
5648,14389512,1,0.001299481,0.003270997,-0.002213124,-0.244808,-0.1088501,-9.74428,0,0,45.59815,1,1,755,999
5679,14391900,1,0.002879856,0.0008390105,-0.003037732,-0.2566727,-0.100469,-9.751961,0,0,45.59815,1,1,755,999
5682,14394338,1,0.001645328,-0.001293572,-0.003469907,-0.2639639,-0.1056994,-9.753695,0,0,45.59808,1,1,755,999
5685,14397422,1,-0.001632722,-0.00368597,-0.005696158,-0.2731178,-0.1194184,-9.759478,0,0,45.59808,1,1,755,999
5688,14399960,1,-0.001446814,-0.00230038,-0.005429889,-0.2916084,-0.1587727,-9.759346000000001,0,0,45.59808,1,1,755,999
5719,14402261,1,0.001053242,0.000443367,-0.004249821,-0.2994659,-0.1930244,-9.753431000000001,0,0,45.59808,1,1,755,999
5723,14404918,1,0.00286941,0.002906476,-0.004244422,-0.3048721,-0.2014494,-9.746233999999999,0,0,45.59799,1,1,755,999
5726,14407519,1,0.002209313,0.005271894,-0.005591745,-0.2990959,-0.2055573,-9.728372999999999,0,0,45.59799,1,1,755,999
5729,14410464,1,0.002982669,0.006569615,-0.007417828,-0.293379,-0.2035167,-9.710886,0,0,45.59799,1,1,755,999
5760,14413396,1,0.005341882,0.01078112,-0.008200924,-0.2842611,-0.183093,-9.716882,0,0,45.59799,1,1,755,999
5764,14415566,1,0.004591236,0.01157998,-0.007379856,-0.2824001,-0.173198,-9.734605,0,0,45.59789,1,1,755,999
5767,14418097,1,0.001713782,0.01125834,-0.005218737,-0.2774594,-0.1511481,-9.78093,0,0,45.59789,1,1,755,999
5772,14420950,1,-0.001299344,0.008710175000000001,-0.004471564,-0.2761683,-0.1299194,-9.801536,0,0,45.59789,1,1,755,999
5803,14423734,1,-0.00308132,0.007611656,-0.004463323,-0.2850256,-0.102744,-9.81494,0,0,45.59789,1,1,755,999
5806,14426115,1,-0.004654036,0.00870393,-0.00280956,-0.288193,-0.09172539,-9.826478,0,0,45.59789,1,1,755,999
5809,14428948,1,-0.005518675,0.01022942,-0.0006389063,-0.2945119,-0.09933415,-9.830352,0,0,45.59781,1,1,755,999
5812,14431029,1,-0.003082223,0.01059273,-0.0001725124,-0.3007679,-0.09944765,-9.829226,0,0,45.59781,1,1,755,999
5843,14433527,1,0.0005081596,0.008608012999999999,0.0009135349,-0.317776,-0.1124357,-9.804292,0,0,45.59781,1,1,755,999
5847,14436839,1,0.001546217,0.007087211,0.0005641872,-0.3255885,-0.1327131,-9.788650000000001,0,0,45.59781,1,1,755,999
5850,14438455,1,-0.0003951807,0.004761267,-0.003817336,-0.3249372,-0.1639943,-9.773377,0,0,45.59772,1,1,755,999
5857,14441254,1,-0.002605394,0.004817661,-0.0059726,-0.3237726,-0.1788437,-9.781466999999999,0,0,45.59772,1,1,755,999
5888,14444060,1,-0.005492728,0.007898821,-0.009313273,-0.3251951,-0.1938594,-9.788049000000001,0,0,45.59772,1,1,755,999
5892,14445977,1,-0.007346916,0.01088712,-0.00917978,-0.3306783,-0.2010516,-9.786296999999999,0,0,45.59772,1,1,755,999
5895,14448913,1,-0.007711952,0.009510510999999999,-0.005883268,-0.3306243,-0.1991479,-9.775475,0,0,45.59764,1,1,755,999
5900,14451118,1,-0.005079208,0.005158649,-0.001285187,-0.3219437,-0.194926,-9.774231,0,0,45.59764,1,1,755,999
5931,14454087,1,-0.001392772,0.0007061421999999999,0.002895022,-0.3022378,-0.2002987,-9.785919,0,0,45.59764,1,1,755,999
5934,14456354,1,-0.0004546006,-0.0001994213,0.004178287,-0.2862769,-0.2021932,-9.790331999999999,0,0,45.59764,1,1,755,999
5937,14458259,1,-0.0007069401,-4.487804e-05,0.003614233,-0.2659102,-0.1928131,-9.78867,0,0,45.59764,1,1,755,999
5941,14461360,1,-0.0006595727,0.001071109,0.00291532,-0.2514002,-0.1874091,-9.774800000000001,0,0,45.59756,1,1,755,999
5972,14463529,1,-0.002286235,0.004075698,0.002684001,-0.2367508,-0.1873323,-9.768075,0,0,45.59756,1,1,755,999
5976,14466315,1,-0.0007064540999999999,0.0070198,0.003546009,-0.2347921,-0.179564,-9.787704,0,0,45.59756,1,1,755,999
5979,14468919,1,0.0007715519,0.00714505,0.004835328,-0.2419643,-0.1816486,-9.796851999999999,0,0,45.59756,1,1,755,999
5982,14471687,1,0.002373124,0.00672138,0.009354337000000001,-0.2563418,-0.2035427,-9.790604,0,0,45.59747,1,1,755,999
6013,14474503,1,0.001119389,0.005831144,0.009653293,-0.2761984,-0.2241193,-9.774577000000001,0,0,45.59747,1,1,755,999
6016,14476968,1,-0.0002368975,0.005536222,0.00905834,-0.2829599,-0.2289879,-9.764825999999999,0,0,45.59747,1,1,755,999
6019,14479270,1,-0.003672081,0.007067788,0.005459502,-0.2847217,-0.229046,-9.764825,0,0,45.59747,1,1,755,999
6022,14481574,1,-0.003351436,0.006995343,0.004281776,-0.2816933,-0.2102275,-9.758172,0,0,45.59735,1,1,755,999
6053,14484444,1,-0.001297791,0.005659098,0.003415944,-0.2848576,-0.1789157,-9.749952,0,0,45.59735,1,1,755,999
6058,14489329,1,-0.0005272614,-0.0001655453,0.006054971,-0.2942711,-0.1414575,-9.771191,0,0,45.59735,1,1,755,999
6061,14491517,1,-0.003275861,0.0008546467000000001,0.005713829,-0.3009333,-0.1383484,-9.791086999999999,0,0,45.59735,1,1,755,999
6092,14495529,1,-0.00459846,0.002581261,0.002346153,-0.3130918,-0.1384401,-9.819374,0,0,45.59722,1,1,755,999
6095,14497543,1,-0.003081799,0.004359044,0.0007379194,-0.3130673,-0.1363739,-9.846612,0,0,45.59722,1,1,755,999
6099,14499954,1,-0.003121116,0.007638952,0.001565384,-0.3172974,-0.1333954,-9.861753999999999,0,0,45.59722,1,1,755,999
6102,14502255,1,-0.002860896,0.009985872999999999,0.0005871311,-0.3276669,-0.1292109,-9.873058,0,0,45.59722,1,1,755,999
6133,14504443,1,-0.001600778,0.01034587,0.0008889323,-0.3297332,-0.1280419,-9.8752,0,0,45.59706,1,1,755,999
6136,14507334,1,0.001374621,0.007085424,0.005276507,-0.3157002,-0.1217339,-9.880485999999999,0,0,45.59706,1,1,755,999
6139,14510319,1,0.001049475,0.005956166,0.005437758,-0.3038897,-0.1223233,-9.881245,0,0,45.59706,1,1,755,999
6142,14512132,1,0.002280164,0.003863005,0.005116079,-0.2888181,-0.1370752,-9.852503,0,0,45.59706,1,1,755,999
6173,14514438,1,0.003336044,0.0001638077,0.005252116,-0.2879443,-0.1501375,-9.823410000000001,0,0,45.59689,1,1,755,999
6176,14517233,1,0.003203026,-0.001064335,0.004039227,-0.3009029,-0.1713227,-9.779153000000001,0,0,45.59689,1,1,755,999
6180,14520218,1,0.003934775,0.002550197,0.0007434937,-0.3088948,-0.173406,-9.749369,0,0,45.59689,1,1,755,999
6183,14522472,1,0.003617838,0.004550781,-0.0003036587,-0.3079468,-0.1695113,-9.721166999999999,0,0,45.59689,1,1,755,999
6214,14525484,1,0.0007314582,0.007004471,-0.0004429312,-0.2969911,-0.1580753,-9.682873000000001,0,0,45.59672,1,1,755,999
6217,14526945,1,-0.002050093,0.004062161,0.002666173,-0.2971033,-0.1426159,-9.690365,0,0,45.59672,1,1,755,999
6220,14529801,1,-0.002345882,0.002767617,0.004295838,-0.2958015,-0.1371104,-9.716478,0,0,45.59672,1,1,755,999
6223,14532504,1,0.001032464,-0.0008010785000000001,0.008557689,-0.2928975,-0.1276666,-9.755478999999999,0,0,45.59672,1,1,755,999
6254,14535243,1,0.0006767887,-0.003601822,0.007059334,-0.2912391,-0.1185595,-9.783239999999999,0,0,45.59672,1,1,755,999
6257,14538123,1,-0.0004849813,-0.004609303,0.00599719,-0.2920263,-0.1029232,-9.797046999999999,0,0,45.59653,1,1,755,999
6261,14540284,1,-0.002120013,-0.005504168,0.003650602,-0.2926174,-0.08072240999999999,-9.817981,0,0,45.59653,1,1,755,999
6268,14542674,1,-0.001674439,-0.005579077,0.002498794,-0.2827036,-0.07306187,-9.829071000000001,0,0,45.59653,1,1,755,999
6299,14545910,1,0.0008299823,-0.004003915,0.001417562,-0.2688146,-0.06244767,-9.818484,0,0,45.59653,1,1,755,999
6302,14547535,1,0.003945909,-0.0003509506,0.002672872,-0.2634395,-0.06440888,-9.797439000000001,0,0,45.59632,1,1,755,999
6305,14550573,1,0.005362803,0.002084289,0.003654988,-0.2673623,-0.06931817999999999,-9.779966,0,0,45.59632,1,1,755,999
6308,14552337,1,0.006106447,0.001956433,0.002111513,-0.2888201,-0.07996362,-9.76211,0,0,45.59632,1,1,755,999
6339,14555628,1,0.006224126,0.003156266,-0.0001502002,-0.3207275,-0.09959427,-9.739134999999999,0,0,45.59632,1,1,755,999
6342,14557558,1,0.007632686,0.002702196,-0.0008251441,-0.3593374,-0.1425521,-9.721966999999999,0,0,45.59632,1,1,755,999
6347,14560109,1,0.008022270999999999,0.0008563082,-0.0009326833,-0.3800903,-0.1876679,-9.732756999999999,0,0,45.59612,1,1,755,999
6350,14562917,1,0.007134461,0.0004171897,-0.001254784,-0.3791546,-0.2161865,-9.742084999999999,0,0,45.59612,1,1,755,999
6381,14565327,1,0.0003495936,0.003806772,-0.003192085,-0.362473,-0.2347679,-9.735366000000001,0,0,45.59612,1,1,755,999
6384,14568264,1,-0.001541562,0.006484463,-0.004175424,-0.354813,-0.2310785,-9.712792,0,0,45.59612,1,1,755,999
6388,14570357,1,-0.001729523,0.01011534,-0.004799292,-0.3455177,-0.2270179,-9.676193,0,0,45.59593,1,1,755,999
6391,14572511,1,7.68568e-05,0.01006094,-0.003472151,-0.3346798,-0.2265096,-9.661941000000001,0,0,45.59593,1,1,755,999
6422,14575376,1,0.0008085844,0.01045193,-0.0005870482,-0.3197859,-0.2138633,-9.671256,0,0,45.59593,1,1,755,999
6426,14577762,1,0.001011573,0.01124536,0.002510103,-0.3123063,-0.2080908,-9.696213,0,0,45.59593,1,1,755,999
6429,14580361,1,0.002578931,0.00994257,0.004325821,-0.2981651,-0.1983102,-9.737226,0,0,45.59593,1,1,755,999
6432,14585120,1,0.004598705,0.003720634,0.005068206,-0.2804007,-0.1390202,-9.756544,0,0,45.59576,1,1,755,999
6463,14590899,1,0.003677629,0.005180316,0.006701748,-0.3014798,-0.08052187,-9.788747000000001,0,0,45.59576,1,1,755,999
6467,14593503,1,0.002868831,0.003414453,0.005728083,-0.304583,-0.0760672,-9.798686999999999,0,0,45.59559,1,1,755,999
6470,14595858,1,0.002513276,0.003992103,0.004195006,-0.3001116,-0.08163405999999999,-9.806713,0,0,45.59559,1,1,755,999
6501,14598253,1,0.002038492,0.007261542,-0.0003194256,-0.3036223,-0.08186762,-9.814075000000001,0,0,45.59559,1,1,755,999
6504,14601263,1,0.002592917,0.006753703,-0.001093577,-0.316106,-0.0818885,-9.823375,0,0,45.59559,1,1,755,999
6507,14603237,1,0.004755421,0.005544078,-0.0007010725999999999,-0.3437899,-0.09153188,-9.82654,0,0,45.59543,1,1,755,999
6510,14606074,1,0.005925449,0.004408995,0.0009984712,-0.362863,-0.1102765,-9.834989,0,0,45.59543,1,1,755,999
6541,14608252,1,0.006595077,0.005403081,0.001935179,-0.3814341,-0.1439567,-9.862011000000001,0,0,45.59543,1,1,755,999
6544,14611259,1,0.007228675,0.007450907,0.004125446,-0.3794361,-0.1600048,-9.874162,0,0,45.59543,1,1,755,999
6548,14613583,1,0.005527259,0.007967781,0.00610958,-0.3632138,-0.1873516,-9.880604,0,0,45.59527,1,1,755,999
6551,14616259,1,0.004165622,0.007209783,0.006287986,-0.3530101,-0.2063464,-9.883069000000001,0,0,45.59527,1,1,755,999
6582,14619048,1,0.002160746,0.004729145,0.004587093,-0.3245191,-0.2141145,-9.874668,0,0,45.59527,1,1,755,999
6585,14620950,1,0.002159134,0.005123563,0.004536596,-0.3074005,-0.2006349,-9.855007000000001,0,0,45.59527,1,1,755,999
6589,14624001,1,0.002003185,0.005276115,0.005175652,-0.2879197,-0.1720675,-9.847787,0,0,45.59527,1,1,755,999
6592,14626238,1,0.00164978,0.004759739,0.004027117,-0.2804615,-0.1580499,-9.853852,0,0,45.59509,1,1,755,999
6623,14628333,1,0.0003792159,0.005042173,0.002391396,-0.2780925,-0.1314074,-9.861185000000001,0,0,45.59509,1,1,755,999
6626,14631274,1,-3.450766e-05,0.002516909,0.0003830682,-0.267993,-0.1146602,-9.852802000000001,0,0,45.59509,1,1,755,999
6630,14633917,1,-0.0001073246,-0.002806516,-0.001663525,-0.2552282,-0.08326989,-9.832851,0,0,45.59509,1,1,755,999
6633,14636914,1,-8.179656e-05,-0.004725001,-0.002052774,-0.2550272,-0.07175854,-9.824420999999999,0,0,45.5949,1,1,755,999
6664,14639283,1,0.001543465,-0.008731516999999999,-0.001438458,-0.2668745,-0.06869248,-9.812951999999999,0,0,45.5949,1,1,755,999
6667,14641924,1,0.002197003,-0.006327651,0.0001359063,-0.2763827,-0.07814161,-9.807271999999999,0,0,45.5949,1,1,755,999
6675,14644509,1,0.001587179,-0.0005917489,0.002117376,-0.2942359,-0.09435149,-9.794839,0,0,45.5949,1,1,755,999
6678,14647077,1,0.0004489233,0.003176317,0.003014129,-0.2969332,-0.09636947999999999,-9.791413,0,0,45.59471,1,1,755,999
6709,14650055,1,-0.0001134498,0.004644341,0.002666806,-0.2968634,-0.1039093,-9.792165000000001,0,0,45.59471,1,1,755,999
6712,14651875,1,-0.001897536,0.003590089,0.003311355,-0.3003001,-0.1074754,-9.778536000000001,0,0,45.59471,1,1,755,999
6717,14654570,1,-0.004075064,0.001923834,0.003832248,-0.2937083,-0.1082088,-9.759789,0,0,45.59471,1,1,755,999
6720,14657018,1,-0.004444917,0.000651591,0.003569547,-0.2846654,-0.1189055,-9.730641,0,0,45.59471,1,1,755,999
6751,14660020,1,0.0003348565,-0.0009763109,0.002132102,-0.2733461,-0.1237366,-9.669001,0,0,45.59453,1,1,755,999
6754,14662362,1,0.004714084,-2.210795e-05,0.00206354,-0.260187,-0.138368,-9.620091,0,0,45.59453,1,1,755,999
6758,14664465,1,0.006105747,-2.359408e-05,0.002394129,-0.259723,-0.1528115,-9.608142000000001,0,0,45.59453,1,1,755,999
6761,14666756,1,0.007131722,0.0006384349,0.0034814,-0.2606714,-0.1713914,-9.613955000000001,0,0,45.59453,1,1,755,999
6792,14669118,1,0.006867966,0.003779627,0.00390983,-0.2615029,-0.1784118,-9.641627,0,0,45.59436,1,1,755,999
6795,14672019,1,0.00618434,0.00543535,0.004522521,-0.2629361,-0.1705978,-9.675773,0,0,45.59436,1,1,755,999
