LineNo,TimeUS,I,GyrX,GyrY,GyrZ,AccX,AccY,AccZ,EG,EA,T,GH,AH,GHz,AHz
183,1.2924e+07,1,-0.00024782,0.0043795,0.0055342,-0.28571,-0.10438,-9.8342,0,0,45.589,1,1,756,999
214,1.2927e+07,1,-0.0021691,0.0054029,0.0045964,-0.2852,-0.094379,-9.8254,0,0,45.589,1,1,755,999
290,1.2957e+07,1,0.0057088,0.0066473,0.0013926,-0.38642,-0.10657,-9.8481,0,0,45.59,1,1,755,999
406,1.2985e+07,1,-0.0053084,0.017653,0.0014284,-0.30981,-0.11355,-9.725,0,0,45.59,1,1,755,999
521,1.3014e+07,1,0.0015892,0.0044372,0.01353,-0.26871,-0.18902,-9.8059,0,0,45.59,1,1,755,999
524,1.3015e+07,1,-0.00056139,0.0023595,0.011454,-0.2764,-0.19132,-9.7747,0,0,45.59,1,1,755,999
635,1.3035e+07,1,-0.0008119,0.004004,0.0042148,-0.28147,-0.18302,-9.8108,0,0,45.59,1,1,755,999
752,1.3057e+07,1,-0.0047865,0.0060378,0.0043744,-0.26897,-0.13116,-9.8302,0,0,45.591,1,1,755,999
864,1.3089e+07,1,0.00079809,0.0024368,0.00060015,-0.26857,-0.14535,-9.7559,0,0,45.591,1,1,755,999
979,1.3119e+07,1,0.0049203,0.003321,-5.5405e-05,-0.34266,-0.27303,-9.8339,0,0,45.591,1,1,755,999
1010,1.3122e+07,1,0.0036722,0.0093793,-0.00028951,-0.32692,-0.24879,-9.8685,0,0,45.591,1,1,755,999
1091,1.3168e+07,1,0.0017802,0.0018216,0.0036335,-0.27963,-0.076478,-9.7609,0,0,45.591,1,1,755,999
1122,1.317e+07,1,0.00090382,0.0016186,0.0073222,-0.2842,-0.070484,-9.7834,0,0,45.591,1,1,755,999
1202,1.3249e+07,1,-0.0083374,0.0077046,-0.002399,-0.34186,-0.13868,-9.9024,0,0,45.592,1,1,755,999
1298,1.3304e+07,1,0.0049751,0.0017349,0.0065897,-0.27217,-0.094786,-9.8186,0,0,45.593,1,1,755,999
1385,1.3318e+07,1,0.0019312,0.0036837,0.002447,-0.26712,-0.10339,-9.9079,0,0,45.593,1,1,755,999
1477,1.3334e+07,1,0.0030528,0.003395,0.0077823,-0.31217,-0.091872,-9.8281,0,0,45.593,1,1,755,999
1508,1.3337e+07,1,0.0026719,-0.0022384,0.007156,-0.29126,-0.078413,-9.806,0,0,45.594,1,1,755,999
1547,1.334e+07,1,0.0021562,-0.0018931,0.004671,-0.2804,-0.085504,-9.7933,0,0,45.594,1,1,755,999
1550,1.3343e+07,1,0.0028593,-0.0016348,0.0041088,-0.27292,-0.094941,-9.7733,0,0,45.594,1,1,755,999
1553,1.3346e+07,1,0.004763,0.0017271,0.0029682,-0.26948,-0.099133,-9.7628,0,0,45.594,1,1,755,999
1584,1.3348e+07,1,0.0012039,0.0043692,0.0043825,-0.26595,-0.10979,-9.7396,0,0,45.594,1,1,755,999
1587,1.3351e+07,1,-7.6834e-06,0.0051583,0.0056178,-0.2583,-0.11754,-9.7241,0,0,45.594,1,1,755,999
1591,1.3353e+07,1,-0.0035785,0.0059087,0.0069003,-0.25193,-0.13031,-9.7095,0,0,45.594,1,1,755,999
1594,1.3356e+07,1,-0.0052595,0.005825,0.0071801,-0.24918,-0.13527,-9.7079,0,0,45.594,1,1,755,999
1625,1.3358e+07,1,-0.0069184,0.0074819,0.0078052,-0.26299,-0.13781,-9.7253,0,0,45.594,1,1,755,999
1628,1.3361e+07,1,-0.0035585,0.0093292,0.0076587,-0.28271,-0.13982,-9.7267,0,0,45.594,1,1,755,999
1631,1.3363e+07,1,0.0011551,0.0087021,0.0082502,-0.31298,-0.12525,-9.747,0,0,45.594,1,1,755,999
1634,1.3366e+07,1,0.0048809,0.0087415,0.008348,-0.33531,-0.11214,-9.7726,0,0,45.594,1,1,755,999
1665,1.3368e+07,1,0.0048308,0.01017,0.0081571,-0.36118,-0.10649,-9.7977,0,0,45.594,1,1,755,999
1668,1.3372e+07,1,0.0032228,0.01054,0.0079804,-0.37723,-0.11665,-9.8014,0,0,45.594,1,1,755,999
1672,1.3374e+07,1,-0.0048527,0.01143,0.0030418,-0.39547,-0.12953,-9.8243,0,0,45.594,1,1,755,999
1678,1.3377e+07,1,-0.0067672,0.0099189,-0.0024461,-0.40237,-0.14386,-9.8501,0,0,45.594,1,1,755,999
1709,1.3381e+07,1,-0.0064719,0.0067632,-0.005409,-0.40615,-0.15815,-9.8467,0,0,45.594,1,1,755,999
1712,1.3383e+07,1,-0.0067722,0.0023885,-0.0035195,-0.39441,-0.16289,-9.8023,0,0,45.595,1,1,755,999
1716,1.3384e+07,1,-0.0067963,0.00066743,-0.00045936,-0.37775,-0.1631,-9.7797,0,0,45.595,1,1,755,999
1719,1.3387e+07,1,-0.0068276,0.0011995,0.00048721,-0.36198,-0.16061,-9.7723,0,0,45.595,1,1,755,999
1750,1.3389e+07,1,-0.0052209,0.0034167,0.0010672,-0.33913,-0.16236,-9.7733,0,0,45.595,1,1,755,999
1753,1.3392e+07,1,-0.0039911,0.0033324,0.0015332,-0.32106,-0.15929,-9.7712,0,0,45.595,1,1,755,999
1756,1.3395e+07,1,-0.0048975,0.0044286,0.0025951,-0.30368,-0.15637,-9.7675,0,0,45.595,1,1,755,999
1759,1.3398e+07,1,-0.0053208,0.0051932,0.0014763,-0.2941,-0.149,-9.7713,0,0,45.595,1,1,755,999
1790,1.34e+07,1,-0.00271,0.0056741,-0.0029873,-0.28847,-0.10576,-9.7879,0,0,45.595,1,1,755,999
1793,1.3403e+07,1,0.0012758,0.0046325,-0.0028565,-0.29148,-0.086246,-9.8074,0,0,45.595,1,1,755,999
1799,1.3406e+07,1,0.0028166,0.0039884,-0.0021078,-0.3022,-0.07286,-9.8307,0,0,45.595,1,1,755,999
1802,1.3408e+07,1,0.0033893,0.0039048,-0.0015359,-0.31047,-0.069541,-9.828,0,0,45.595,1,1,755,999
1833,1.341e+07,1,0.0034848,0.0053179,0.0011348,-0.33222,-0.07741,-9.8234,0,0,45.595,1,1,755,999
1840,1.3413e+07,1,0.0027571,0.0060032,0.0014849,-0.34822,-0.085646,-9.8315,0,0,45.595,1,1,755,999
1843,1.3416e+07,1,0.00046607,0.0059287,0.0025607,-0.37167,-0.092562,-9.8467,0,0,45.595,1,1,755,999
1846,1.3418e+07,1,-0.0020228,0.0036392,0.0048611,-0.38568,-0.086122,-9.8553,0,0,45.595,1,1,755,999
1877,1.3421e+07,1,-0.001894,0.0027257,0.0053605,-0.40232,-0.084982,-9.8516,0,0,45.595,1,1,755,999
1880,1.3423e+07,1,0.0013307,0.00093845,0.0037289,-0.4061,-0.081839,-9.8279,0,0,45.595,1,1,755,999
1884,1.3426e+07,1,0.0058691,0.0015912,0.005057,-0.40588,-0.074052,-9.8108,0,0,45.596,1,1,755,999
1887,1.3429e+07,1,0.0061215,0.0020763,0.0042016,-0.41614,-0.072164,-9.7986,0,0,45.596,1,1,755,999
1918,1.3432e+07,1,0.0051003,0.0022719,0.0018294,-0.41512,-0.075234,-9.809,0,0,45.596,1,1,755,999
1921,1.3434e+07,1,0.0046108,0.00051347,0.0026072,-0.40352,-0.069972,-9.8244,0,0,45.596,1,1,755,999
1924,1.3437e+07,1,0.0043495,0.00096376,0.0035111,-0.38662,-0.065294,-9.8195,0,0,45.596,1,1,755,999
1927,1.344e+07,1,0.0055147,0.0026603,0.0055794,-0.37082,-0.079253,-9.7956,0,0,45.596,1,1,755,999
1958,1.3442e+07,1,0.0071293,0.0028398,0.0052355,-0.35333,-0.099755,-9.7986,0,0,45.596,1,1,755,999
1961,1.3444e+07,1,0.0073643,0.0029415,0.0043891,-0.34121,-0.1152,-9.8042,0,0,45.596,1,1,755,999
1965,1.3447e+07,1,0.0066726,-0.00031717,7.3482e-05,-0.3317,-0.13909,-9.8011,0,0,45.596,1,1,755,999
1968,1.345e+07,1,0.0059989,-0.0011758,-0.00034547,-0.33517,-0.15266,-9.7908,0,0,45.596,1,1,755,999
1999,1.3452e+07,1,0.0042202,-0.0025045,0.00036295,-0.3424,-0.1681,-9.7867,0,0,45.596,1,1,755,999
2004,1.3458e+07,1,0.0062941,-0.0025041,0.0086205,-0.31639,-0.19962,-9.7863,0,0,45.596,1,1,755,999
2007,1.346e+07,1,0.0050408,-0.00041525,0.010523,-0.29821,-0.21489,-9.7833,0,0,45.596,1,1,755,999
2038,1.3464e+07,1,0.0025314,0.0019316,0.0090824,-0.27595,-0.22704,-9.7752,0,0,45.596,1,1,755,999
2041,1.3466e+07,1,0.0017881,0.0044615,0.0062158,-0.25945,-0.22725,-9.7839,0,0,45.596,1,1,755,999
2044,1.3468e+07,1,0.0021436,0.0080009,0.0050844,-0.24476,-0.22078,-9.7979,0,0,45.596,1,1,755,999
2048,1.347e+07,1,0.00056105,0.0092389,0.0055182,-0.2255,-0.20869,-9.8169,0,0,45.596,1,1,755,999
2079,1.3473e+07,1,-0.00020243,0.0089264,0.0047498,-0.22688,-0.20449,-9.8374,0,0,45.596,1,1,755,999
2082,1.3475e+07,1,0.0012687,0.0096485,0.00051729,-0.23555,-0.18817,-9.869,0,0,45.596,1,1,755,999
2085,1.3478e+07,1,0.0026951,0.010849,-0.00043905,-0.23536,-0.1815,-9.885,0,0,45.596,1,1,755,999
2089,1.3481e+07,1,0.004122,0.010645,0.00095587,-0.24135,-0.17395,-9.9074,0,0,45.597,1,1,755,999
2120,1.3484e+07,1,0.0028117,0.010622,0.0037543,-0.25024,-0.16283,-9.9313,0,0,45.597,1,1,755,999
2123,1.3486e+07,1,0.0023115,0.011587,0.0043177,-0.25699,-0.16119,-9.9512,0,0,45.597,1,1,755,999
2126,1.3488e+07,1,0.00055556,0.0096257,0.0064112,-0.27062,-0.15592,-9.9572,0,0,45.597,1,1,755,999
2129,1.3491e+07,1,0.0002789,0.0086836,0.0073117,-0.28112,-0.14597,-9.9521,0,0,45.597,1,1,755,999
2160,1.3493e+07,1,0.00070905,0.0076575,0.0085887,-0.29501,-0.14248,-9.9196,0,0,45.597,1,1,755,999
2163,1.3497e+07,1,0.001234,0.0063167,0.010357,-0.29534,-0.15977,-9.888,0,0,45.597,1,1,755,999
2166,1.3499e+07,1,0.0018035,0.0049868,0.010264,-0.2908,-0.16769,-9.8747,0,0,45.597,1,1,755,999
2171,1.3502e+07,1,0.0016267,0.0028018,0.007769,-0.2705,-0.18498,-9.8834,0,0,45.597,1,1,755,999
2202,1.3504e+07,1,-0.0032645,0.0038162,0.0024738,-0.25756,-0.20241,-9.9094,0,0,45.597,1,1,755,999
2205,1.3507e+07,1,-0.0040193,0.0040745,0.001434,-0.24663,-0.20256,-9.9154,0,0,45.597,1,1,755,999
2208,1.351e+07,1,-0.0021787,0.0045528,0.00039979,-0.22914,-0.17717,-9.9119,0,0,45.597,1,1,755,999
2212,1.3511e+07,1,-4.6883e-05,0.0054855,0.0018657,-0.22784,-0.15137,-9.9113,0,0,45.597,1,1,755,999
2243,1.3514e+07,1,-0.0013975,0.0055878,0.0076572,-0.23338,-0.12274,-9.895,0,0,45.597,1,1,755,999
2251,1.3517e+07,1,-0.0034032,0.0056925,0.010916,-0.2396,-0.099331,-9.8688,0,0,45.597,1,1,755,999
2254,1.352e+07,1,-0.0032001,0.0050361,0.010813,-0.24148,-0.070698,-9.8376,0,0,45.597,1,1,755,999
2257,1.3521e+07,1,-0.0028498,0.0052594,0.0086033,-0.25067,-0.044357,-9.7784,0,0,45.597,1,1,755,999
2288,1.3524e+07,1,-0.0026306,0.0071893,0.005008,-0.26747,-0.048111,-9.7165,0,0,45.597,1,1,755,999
2291,1.3527e+07,1,-0.0027902,0.008297,0.0025198,-0.27845,-0.065576,-9.6914,0,0,45.597,1,1,755,999
2294,1.3529e+07,1,-0.0038108,0.009791,-0.0035239,-0.29002,-0.095811,-9.6624,0,0,45.597,1,1,755,999
2298,1.3532e+07,1,-0.003138,0.009258,-0.0041567,-0.30304,-0.113,-9.6525,0,0,45.597,1,1,755,999
2329,1.3535e+07,1,-0.00096696,0.0069554,-0.0035061,-0.30823,-0.15538,-9.6517,0,0,45.597,1,1,755,999
2332,1.3538e+07,1,0.00012633,0.0049344,-0.00072264,-0.29619,-0.19296,-9.6656,0,0,45.597,1,1,755,999
2335,1.354e+07,1,-0.00088388,0.0046686,-0.00047322,-0.28351,-0.23085,-9.6875,0,0,45.597,1,1,755,999
2338,1.3542e+07,1,-0.0029326,0.0047034,-0.0024673,-0.27172,-0.28007,-9.7407,0,0,45.597,1,1,755,999
2369,1.3545e+07,1,-0.0028983,0.0058696,-0.0035569,-0.26616,-0.29987,-9.7661,0,0,45.597,1,1,755,999
2372,1.3547e+07,1,-0.001472,0.0044207,-0.0023349,-0.26772,-0.2989,-9.7849,0,0,45.597,1,1,755,999
2375,1.3551e+07,1,-0.0026417,0.0015618,-0.00070106,-0.28117,-0.28333,-9.7818,0,0,45.597,1,1,755,999
2378,1.3552e+07,1,-0.0030136,0.0023956,-0.00049998,-0.30051,-0.249,-9.7742,0,0,45.597,1,1,755,999
2410,1.3555e+07,1,-0.00024625,0.005436,0.00072518,-0.29779,-0.22189,-9.7818,0,0,45.597,1,1,755,999
2413,1.3557e+07,1,0.0022584,0.0067559,0.0040371,-0.29648,-0.18745,-9.8097,0,0,45.598,1,1,755,999
2416,1.3561e+07,1,0.0025081,0.0059939,0.0064773,-0.30224,-0.16364,-9.8332,0,0,45.598,1,1,755,999
2419,1.3564e+07,1,0.0015748,0.0020228,0.011008,-0.29659,-0.13787,-9.8452,0,0,45.598,1,1,755,999
2422,1.3565e+07,1,0.0022025,-0.001159,0.010716,-0.29373,-0.12419,-9.8231,0,0,45.598,1,1,755,999
2453,1.3568e+07,1,0.0025303,-0.0014244,0.0093053,-0.29399,-0.11493,-9.7951,0,0,45.598,1,1,755,999
2456,1.357e+07,1,0.0016609,0.00024826,0.0044927,-0.29055,-0.1073,-9.7426,0,0,45.598,1,1,755,999
2459,1.3573e+07,1,0.0011706,0.0013222,0.0038935,-0.29513,-0.10641,-9.7119,0,0,45.598,1,1,755,999
2463,1.3576e+07,1,0.0018088,0.0026135,0.0048703,-0.30408,-0.13534,-9.6986,0,0,45.598,1,1,755,999
2466,1.3578e+07,1,0.0027355,0.0035068,0.0065389,-0.30562,-0.16323,-9.7022,0,0,45.598,1,1,755,999
2497,1.358e+07,1,0.0034414,0.0032429,0.0060738,-0.32,-0.19508,-9.7038,0,0,45.598,1,1,755,999
2500,1.3583e+07,1,0.0049386,0.0027745,0.0046986,-0.3242,-0.20544,-9.7213,0,0,45.598,1,1,755,999
2504,1.3586e+07,1,0.0065236,0.0047183,0.0043911,-0.3296,-0.2191,-9.758,0,0,45.598,1,1,755,999
2507,1.3588e+07,1,0.0054536,0.004439,0.0036102,-0.32513,-0.22019,-9.7756,0,0,45.598,1,1,755,999
2538,1.3591e+07,1,-0.00094566,0.0038296,-0.0025298,-0.29313,-0.20455,-9.7542,0,0,45.598,1,1,755,999
2541,1.3593e+07,1,-0.00075433,0.0034284,-0.0024583,-0.28583,-0.18703,-9.7326,0,0,45.598,1,1,755,999
2544,1.3597e+07,1,0.0015794,0.002859,-0.0012225,-0.29374,-0.15821,-9.7068,0,0,45.598,1,1,755,999
2547,1.3599e+07,1,-0.00013037,0.00062659,1.5501e-05,-0.30664,-0.15022,-9.7048,0,0,45.598,1,1,755,999
2578,1.3601e+07,1,-0.0016223,-0.00013954,0.0019408,-0.31301,-0.15057,-9.7065,0,0,45.598,1,1,755,999
2583,1.3604e+07,1,-0.0015927,0.00033044,0.0029744,-0.31321,-0.15101,-9.7164,0,0,45.598,1,1,755,999
2587,1.3606e+07,1,0.0017127,0.00082659,0.0085072,-0.31586,-0.1557,-9.7359,0,0,45.598,1,1,755,999
2590,1.361e+07,1,0.0035366,0.0012503,0.0096327,-0.32389,-0.15536,-9.7524,0,0,45.598,1,1,755,999
2621,1.3612e+07,1,0.0042316,0.002891,0.0058421,-0.33521,-0.14578,-9.7724,0,0,45.598,1,1,755,999
2624,1.3614e+07,1,0.0026086,0.005294,0.0016538,-0.3446,-0.13954,-9.7938,0,0,45.598,1,1,755,999
2627,1.3617e+07,1,0.0022263,0.0074392,-0.0019176,-0.35156,-0.14307,-9.8193,0,0,45.598,1,1,755,999
2635,1.362e+07,1,0.0031735,0.0078556,-0.0027869,-0.34372,-0.15392,-9.8278,0,0,45.598,1,1,755,999
2666,1.3623e+07,1,0.0040942,0.0076527,-0.0015006,-0.33473,-0.16705,-9.8405,0,0,45.598,1,1,755,999
2669,1.3625e+07,1,0.0041823,0.0053956,0.0013561,-0.31911,-0.17003,-9.8461,0,0,45.598,1,1,755,999
2673,1.3628e+07,1,0.0048034,0.00067875,0.0046025,-0.30398,-0.17599,-9.8465,0,0,45.598,1,1,755,999
2676,1.363e+07,1,0.004006,0.00021886,0.0068669,-0.28855,-0.17935,-9.8492,0,0,45.598,1,1,755,999
2707,1.3632e+07,1,0.0032702,0.00070185,0.0072542,-0.28091,-0.18346,-9.8416,0,0,45.598,1,1,755,999
2710,1.3635e+07,1,0.0014083,0.0010064,0.0045946,-0.28391,-0.19911,-9.8254,0,0,45.599,1,1,755,999
2713,1.3638e+07,1,0.0015633,0.00076367,0.0042063,-0.27938,-0.20616,-9.8267,0,0,45.599,1,1,755,999
2716,1.3641e+07,1,0.0030571,0.0006808,0.0041229,-0.2662,-0.20478,-9.8338,0,0,45.599,1,1,755,999
2747,1.3643e+07,1,0.0061633,0.0045318,0.0068109,-0.26217,-0.1902,-9.8418,0,0,45.599,1,1,755,999
2750,1.3646e+07,1,0.0067995,0.0056697,0.0081576,-0.26872,-0.1732,-9.8538,0,0,45.599,1,1,755,999
2754,1.3648e+07,1,0.0061226,0.0068701,0.010072,-0.29273,-0.15525,-9.8507,0,0,45.599,1,1,755,999
2757,1.3651e+07,1,0.0052923,0.00466,0.0095795,-0.30999,-0.15391,-9.8368,0,0,45.599,1,1,755,999
2788,1.3653e+07,1,0.0042891,0.00076237,0.0067684,-0.32712,-0.15596,-9.815,0,0,45.599,1,1,755,999
2791,1.3656e+07,1,0.0015499,0.0021857,-0.00044179,-0.34575,-0.1674,-9.8053,0,0,45.599,1,1,755,999
2795,1.3658e+07,1,0.0024737,0.0052822,-0.00044302,-0.35492,-0.17435,-9.8112,0,0,45.599,1,1,755,999
2800,1.3667e+07,1,0.0076461,0.006559,0.0013713,-0.33779,-0.15847,-9.8303,0,0,45.599,1,1,755,999
2831,1.367e+07,1,0.0032336,0.009152,-0.00041575,-0.33373,-0.14804,-9.7899,0,0,45.599,1,1,755,999
2834,1.3672e+07,1,-0.0029739,0.0092821,-0.00040958,-0.33816,-0.14386,-9.7357,0,0,45.599,1,1,755,999
2837,1.3675e+07,1,-0.0027297,0.0078551,-0.00038062,-0.33524,-0.15064,-9.7141,0,0,45.599,1,1,755,999
2840,1.3677e+07,1,-0.00062837,0.0054114,0.00026937,-0.31928,-0.17191,-9.7015,0,0,45.599,1,1,755,999
2871,1.368e+07,1,-0.00072251,0.002634,0.00036548,-0.31121,-0.18633,-9.6965,0,0,45.599,1,1,755,999
2876,1.3682e+07,1,-0.0031245,-0.00042628,-0.00077414,-0.30023,-0.19729,-9.6861,0,0,45.599,1,1,755,999
2879,1.3685e+07,1,-0.0033995,-0.0017078,-0.00048439,-0.29987,-0.19853,-9.6787,0,0,45.599,1,1,755,999
2882,1.3688e+07,1,-0.0010275,-0.0013229,0.00052302,-0.30113,-0.20682,-9.6861,0,0,45.599,1,1,755,999
2913,1.369e+07,1,0.0020808,0.00043871,0.0027652,-0.29744,-0.20807,-9.692,0,0,45.599,1,1,755,999
2916,1.3693e+07,1,0.0030075,0.003877,0.0052829,-0.29494,-0.19982,-9.6979,0,0,45.599,1,1,755,999
2919,1.3695e+07,1,0.001955,0.0068157,0.0050043,-0.29391,-0.17613,-9.7033,0,0,45.599,1,1,755,999
2922,1.3697e+07,1,0.0014772,0.007561,0.0030117,-0.2918,-0.16103,-9.7105,0,0,45.599,1,1,755,999
2953,1.37e+07,1,0.00025583,0.0064045,-0.0012923,-0.28358,-0.15365,-9.6974,0,0,45.599,1,1,755,999
2957,1.3702e+07,1,-0.0009266,0.0064234,-0.0026857,-0.28164,-0.16653,-9.6768,0,0,45.599,1,1,755,999
2960,1.3705e+07,1,-0.003141,0.0054464,-0.00053161,-0.27439,-0.20236,-9.6571,0,0,45.599,1,1,755,999
2963,1.3708e+07,1,-0.0025452,0.0056329,0.00084906,-0.27152,-0.21352,-9.6602,0,0,45.599,1,1,755,999
2994,1.3711e+07,1,5.1406e-05,0.0073776,0.0046734,-0.26484,-0.23051,-9.665,0,0,45.599,1,1,755,999
2999,1.3713e+07,1,0.0057098,0.0079276,0.0094651,-0.27354,-0.24123,-9.6602,0,0,45.6,1,1,755,999
3002,1.3716e+07,1,0.0068627,0.007673,0.010281,-0.28172,-0.24259,-9.6645,0,0,45.6,1,1,755,999
3005,1.3718e+07,1,0.0064309,0.0052388,0.0099543,-0.2886,-0.23589,-9.6658,0,0,45.6,1,1,755,999
3036,1.3721e+07,1,0.00060463,0.0048351,0.0021549,-0.28215,-0.22638,-9.665,0,0,45.6,1,1,755,999
3043,1.3724e+07,1,-0.00056585,0.0068553,-0.00076425,-0.27022,-0.20951,-9.6737,0,0,45.6,1,1,755,999
3046,1.3726e+07,1,-0.00064119,0.0093352,-0.0035055,-0.25349,-0.17869,-9.6904,0,0,45.6,1,1,755,999
3050,1.3729e+07,1,-0.0018948,0.008637,-0.0028964,-0.25298,-0.16183,-9.6922,0,0,45.6,1,1,755,999
3081,1.3732e+07,1,-0.0049316,0.0065604,-0.0012425,-0.26174,-0.15057,-9.695,0,0,45.6,1,1,755,999
3085,1.3734e+07,1,-0.0041547,0.0046806,0.0013684,-0.26836,-0.13861,-9.7027,0,0,45.6,1,1,755,999
3088,1.3737e+07,1,-0.0030729,0.0049603,0.0050585,-0.27984,-0.13626,-9.7227,0,0,45.6,1,1,755,999
3091,1.3739e+07,1,-0.0023674,0.0030805,0.0079388,-0.31067,-0.12955,-9.7624,0,0,45.6,1,1,755,999
3122,1.3742e+07,1,-0.00087759,0.00052657,0.0093198,-0.33279,-0.12346,-9.8003,0,0,45.6,1,1,755,999
3125,1.3744e+07,1,0.00071332,-0.0001025,0.011021,-0.35877,-0.12814,-9.8377,0,0,45.6,1,1,755,999
3128,1.3747e+07,1,0.0018327,0.0012766,0.010082,-0.37188,-0.13958,-9.8463,0,0,45.6,1,1,755,999
3131,1.375e+07,1,0.0029756,0.0037634,0.0067841,-0.38809,-0.14017,-9.8409,0,0,45.6,1,1,755,999
3162,1.3752e+07,1,0.0034304,0.0044875,0.0056222,-0.38774,-0.13705,-9.8293,0,0,45.6,1,1,755,999
3166,1.3755e+07,1,0.0022408,0.0038431,0.0062832,-0.37957,-0.12671,-9.803,0,0,45.6,1,1,755,999
3169,1.3757e+07,1,0.00082528,0.0030351,0.0058097,-0.37513,-0.12882,-9.7964,0,0,45.6,1,1,755,999
3172,1.376e+07,1,-0.001591,0.00032024,0.0029269,-0.36385,-0.13054,-9.8023,0,0,45.6,1,1,755,999
3203,1.3762e+07,1,-0.00086048,-0.0021809,0.0018696,-0.33891,-0.12242,-9.8054,0,0,45.6,1,1,755,999
3206,1.3766e+07,1,0.00040748,-0.0013915,0.0024639,-0.32225,-0.12522,-9.7986,0,0,45.6,1,1,755,999
3209,1.3767e+07,1,0.0012634,-0.00046038,0.0043947,-0.29951,-0.13502,-9.785,0,0,45.6,1,1,755,999
3212,1.3773e+07,1,0.0033826,-0.0023698,0.0041153,-0.28327,-0.15102,-9.7893,0,0,45.6,1,1,755,999
3244,1.3775e+07,1,0.0061845,0.002992,0.00057461,-0.29277,-0.16297,-9.7868,0,0,45.6,1,1,755,999
3247,1.3778e+07,1,0.0073453,0.0057229,-0.00025662,-0.29962,-0.16322,-9.7857,0,0,45.6,1,1,755,999
3250,1.378e+07,1,0.0070285,0.0091693,-0.0010805,-0.30325,-0.169,-9.7716,0,0,45.6,1,1,755,999
3253,1.3783e+07,1,0.0060302,0.0099326,-0.00071371,-0.30039,-0.18286,-9.7678,0,0,45.6,1,1,755,999
3286,1.3785e+07,1,0.0055609,0.01031,-0.0015271,-0.29172,-0.19892,-9.7548,0,0,45.6,1,1,755,999
3290,1.3789e+07,1,0.0039748,0.012108,-0.0041047,-0.29887,-0.19764,-9.7512,0,0,45.6,1,1,755,999
3293,1.3791e+07,1,0.0028615,0.013184,-0.0035582,-0.30556,-0.19493,-9.7573,0,0,45.6,1,1,755,999
3296,1.3793e+07,1,0.0024169,0.011273,-0.0025178,-0.32475,-0.18247,-9.7408,0,0,45.6,1,1,755,999
3327,1.3796e+07,1,0.0028277,0.0086507,0.0011055,-0.33646,-0.16759,-9.728,0,0,45.6,1,1,755,999
3330,1.3798e+07,1,0.0034369,0.0057054,0.0058047,-0.3381,-0.15819,-9.7245,0,0,45.6,1,1,755,999
3333,1.3801e+07,1,0.0032211,0.0039658,0.0065891,-0.33399,-0.16229,-9.7173,0,0,45.6,1,1,755,999
3336,1.3803e+07,1,0.0031434,-0.0012298,0.0053209,-0.32388,-0.16905,-9.7281,0,0,45.6,1,1,755,999
3367,1.3805e+07,1,0.0026117,-0.0025432,0.005514,-0.31621,-0.17359,-9.7961,0,0,45.6,1,1,755,999
3371,1.3808e+07,1,-0.0014332,-0.004623,0.0054314,-0.31522,-0.17402,-9.8603,0,0,45.6,1,1,755,999
3375,1.3811e+07,1,-0.0031394,-0.0025561,0.005315,-0.3173,-0.17186,-9.887,0,0,45.599,1,1,755,999
3378,1.3813e+07,1,-0.0021613,-0.0017823,0.007322,-0.31524,-0.17628,-9.9054,0,0,45.599,1,1,755,999
3409,1.3816e+07,1,-0.0016518,-0.0034322,0.0065956,-0.30715,-0.18359,-9.9132,0,0,45.599,1,1,755,999
3412,1.3818e+07,1,-0.0015443,-0.0045419,0.0048383,-0.2989,-0.19412,-9.9178,0,0,45.599,1,1,755,999
3415,1.3821e+07,1,0.00061511,-0.0068543,0.0031704,-0.28159,-0.19944,-9.9167,0,0,45.599,1,1,755,999
3419,1.3823e+07,1,0.0013171,-0.0065474,0.0046112,-0.27011,-0.19083,-9.8995,0,0,45.599,1,1,755,999
3454,1.3826e+07,1,0.0003846,-0.0061274,0.0046858,-0.26187,-0.19068,-9.8955,0,0,45.599,1,1,755,999
3458,1.3828e+07,1,-0.0012476,-0.0023657,0.0045661,-0.25418,-0.17421,-9.8816,0,0,45.599,1,1,755,999
3461,1.3831e+07,1,-0.002525,-2.1762e-05,0.0047916,-0.25078,-0.17135,-9.8716,0,0,45.599,1,1,755,999
3464,1.3833e+07,1,-0.0057078,0.0031142,0.0054476,-0.24898,-0.17976,-9.8533,0,0,45.599,1,1,755,999
3495,1.3836e+07,1,-0.006472,0.0044536,0.0070309,-0.24988,-0.18113,-9.8461,0,0,45.599,1,1,755,999
3499,1.3838e+07,1,-0.0029248,0.0044476,0.0083907,-0.24425,-0.18267,-9.8191,0,0,45.599,1,1,755,999
3502,1.3841e+07,1,0.0003196,0.0059857,0.0092701,-0.23111,-0.17628,-9.8034,0,0,45.599,1,1,755,999
3506,1.3844e+07,1,5.367e-05,0.0089004,0.0065114,-0.21861,-0.16352,-9.7937,0,0,45.599,1,1,755,999
3537,1.3846e+07,1,-0.0010402,0.0087413,0.0030647,-0.20849,-0.131,-9.7987,0,0,45.599,1,1,755,999
3540,1.3849e+07,1,0.0010783,0.0072053,0.0037222,-0.21357,-0.12507,-9.7984,0,0,45.599,1,1,755,999
3543,1.3851e+07,1,0.0026041,0.0062837,0.0052225,-0.22093,-0.12391,-9.7944,0,0,45.599,1,1,755,999
3548,1.3854e+07,1,0.0037807,0.0049554,0.0067872,-0.23878,-0.14091,-9.7708,0,0,45.599,1,1,755,999
3579,1.3857e+07,1,0.0011071,0.0036136,0.0060223,-0.27247,-0.16447,-9.7567,0,0,45.599,1,1,755,999
3583,1.3858e+07,1,-0.00098579,0.0028397,0.005003,-0.29125,-0.17327,-9.7464,0,0,45.599,1,1,755,999
3586,1.3862e+07,1,-0.0052171,0.0024062,0.0026515,-0.30274,-0.18113,-9.7245,0,0,45.599,1,1,755,999
3589,1.3864e+07,1,-0.0029377,0.0035626,0.0016598,-0.30713,-0.18299,-9.7083,0,0,45.599,1,1,755,999
3620,1.3866e+07,1,0.0011864,0.0043302,0.0026481,-0.31061,-0.17696,-9.6885,0,0,45.599,1,1,755,999
3623,1.3871e+07,1,0.0038826,0.009575,0.0054927,-0.33049,-0.18862,-9.7025,0,0,45.599,1,1,755,999
3626,1.3875e+07,1,0.0036995,0.010354,0.0055216,-0.32565,-0.19783,-9.7056,0,0,45.599,1,1,755,999
3629,1.3876e+07,1,0.0023009,0.0097345,0.0023098,-0.31225,-0.20892,-9.707,0,0,45.599,1,1,755,999
3660,1.3879e+07,1,0.00045758,0.0095333,0.00070472,-0.30307,-0.2215,-9.7184,0,0,45.599,1,1,755,999
3663,1.3882e+07,1,-0.0043337,0.010092,0.00096514,-0.30506,-0.22165,-9.7349,0,0,45.599,1,1,755,999
3666,1.3884e+07,1,-0.0036971,0.010259,0.0024627,-0.3131,-0.21426,-9.7545,0,0,45.599,1,1,755,999
3669,1.3886e+07,1,-0.00022616,0.0085856,0.004389,-0.31804,-0.20133,-9.775,0,0,45.599,1,1,755,999
3701,1.3889e+07,1,0.0017029,0.0075734,0.0040625,-0.30042,-0.1711,-9.7743,0,0,45.599,1,1,755,999
3704,1.3892e+07,1,0.0024165,0.0066043,0.0043091,-0.28132,-0.1562,-9.7681,0,0,45.599,1,1,755,999
3707,1.3894e+07,1,0.0061753,0.0047655,0.0048028,-0.26652,-0.14127,-9.7636,0,0,45.599,1,1,755,999
3710,1.3897e+07,1,0.0076025,0.002721,0.005022,-0.25901,-0.11769,-9.7655,0,0,45.599,1,1,755,999
3741,1.3899e+07,1,0.0070464,0.00084525,0.0047855,-0.26066,-0.10034,-9.7707,0,0,45.599,1,1,755,999
3744,1.3902e+07,1,0.0072016,0.00169,0.002652,-0.27298,-0.10096,-9.7828,0,0,45.599,1,1,755,999
3747,1.3904e+07,1,0.0071226,0.0019678,0.0017289,-0.28688,-0.10838,-9.7876,0,0,45.599,1,1,755,999
3750,1.3906e+07,1,0.0060936,0.0020459,0.0005903,-0.29499,-0.12568,-9.795,0,0,45.599,1,1,755,999
3782,1.3909e+07,1,0.0057672,0.0028119,0.00065151,-0.30036,-0.13217,-9.8025,0,0,45.599,1,1,755,999
3785,1.3912e+07,1,0.0052079,0.0042201,0.0023508,-0.3025,-0.144,-9.7992,0,0,45.599,1,1,755,999
3788,1.3914e+07,1,0.003204,0.0074581,0.0038458,-0.31087,-0.15489,-9.7856,0,0,45.599,1,1,755,999
3791,1.3917e+07,1,-8.2442e-05,0.0087848,0.0046717,-0.31575,-0.1829,-9.7553,0,0,45.599,1,1,755,999
3822,1.3919e+07,1,-0.0036738,0.0070201,0.0036778,-0.31548,-0.21284,-9.7659,0,0,45.599,1,1,755,999
3825,1.3921e+07,1,-0.004108,0.006119,0.00053628,-0.31438,-0.21866,-9.7754,0,0,45.599,1,1,755,999
3830,1.3924e+07,1,-0.003779,0.0054256,-0.00091632,-0.30968,-0.20755,-9.7825,0,0,45.599,1,1,755,999
3837,1.3927e+07,1,-0.0016058,0.0009284,-0.0033199,-0.30299,-0.18611,-9.7982,0,0,45.599,1,1,755,999
3868,1.393e+07,1,0.00028861,0.0025987,-0.0022555,-0.30577,-0.15934,-9.8201,0,0,45.599,1,1,755,999
3872,1.3932e+07,1,0.0040635,0.006559,-0.0017421,-0.29461,-0.12602,-9.8624,0,0,45.599,1,1,755,999
3875,1.3935e+07,1,0.0071596,0.0080947,-0.0025132,-0.28781,-0.10989,-9.8935,0,0,45.599,1,1,755,999
3878,1.3938e+07,1,0.0072124,0.0073172,-0.0042127,-0.29195,-0.078797,-9.9139,0,0,45.599,1,1,755,999
3909,1.394e+07,1,0.0040767,0.0050543,-0.0062207,-0.29391,-0.058852,-9.8472,0,0,45.599,1,1,755,999
3912,1.3943e+07,1,0.0013371,0.0018246,-0.0066227,-0.29642,-0.048014,-9.7802,0,0,45.599,1,1,755,999
3915,1.3946e+07,1,0.0013066,-0.00086728,-0.0041683,-0.31666,-0.048291,-9.7045,0,0,45.599,1,1,755,999
3918,1.3948e+07,1,0.0014569,-0.00099568,-0.0018422,-0.33376,-0.058881,-9.6656,0,0,45.599,1,1,755,999
3949,1.3951e+07,1,0.0012494,0.00085101,0.0068869,-0.36345,-0.05296,-9.6422,0,0,45.599,1,1,755,999
3953,1.3954e+07,1,0.0019921,0.0019687,0.010424,-0.37275,-0.060718,-9.6516,0,0,45.598,1,1,755,999
3956,1.3956e+07,1,0.0031542,0.0034959,0.011462,-0.37821,-0.072674,-9.6624,0,0,45.598,1,1,755,999
3959,1.3959e+07,1,0.0037632,0.0030844,0.012872,-0.38201,-0.096299,-9.6792,0,0,45.598,1,1,755,999
3990,1.3962e+07,1,0.0024592,0.002899,0.011428,-0.37091,-0.11864,-9.6806,0,0,45.598,1,1,755,999
3995,1.3964e+07,1,0.002448,0.0036938,0.0082357,-0.36269,-0.12668,-9.6872,0,0,45.598,1,1,755,999
3998,1.3966e+07,1,0.0013922,0.0049549,0.006448,-0.33895,-0.12655,-9.7109,0,0,45.598,1,1,755,999
4001,1.3969e+07,1,0.00058223,0.0058959,0.0066361,-0.31809,-0.12576,-9.723,0,0,45.598,1,1,755,999
4032,1.3977e+07,1,0.0019638,0.0073445,0.0090091,-0.24485,-0.10642,-9.7503,0,0,45.599,1,1,755,999
4035,1.398e+07,1,0.0036319,0.0066542,0.0076994,-0.23371,-0.10762,-9.7513,0,0,45.599,1,1,755,999
4066,1.3983e+07,1,0.0044116,0.0063236,0.0063159,-0.23889,-0.10547,-9.7763,0,0,45.599,1,1,755,999
4069,1.3985e+07,1,0.0040934,0.0061763,0.005328,-0.25681,-0.10226,-9.7928,0,0,45.599,1,1,755,999
4072,1.3987e+07,1,0.0010409,0.0077348,0.0024837,-0.28149,-0.11027,-9.8214,0,0,45.599,1,1,755,999
4076,1.399e+07,1,-0.00051234,0.0078669,0.0026011,-0.29966,-0.11328,-9.8481,0,0,45.599,1,1,755,999
4107,1.3992e+07,1,-0.0031349,0.006283,0.0039156,-0.31374,-0.11682,-9.8672,0,0,45.599,1,1,755,999
4110,1.3995e+07,1,-0.0030508,0.0050018,0.004865,-0.31422,-0.12125,-9.8686,0,0,45.599,1,1,755,999
4113,1.3998e+07,1,-5.7063e-06,0.0049908,0.0057738,-0.29834,-0.14463,-9.8591,0,0,45.599,1,1,755,999
4117,1.4e+07,1,0.0025113,0.0055502,0.0044703,-0.2812,-0.16133,-9.8437,0,0,45.599,1,1,755,999
4148,1.4002e+07,1,0.0011896,0.0049027,0.0035982,-0.26912,-0.1691,-9.7949,0,0,45.599,1,1,755,999
4151,1.4005e+07,1,0.0012827,0.0016934,0.0026045,-0.26695,-0.17288,-9.7618,0,0,45.599,1,1,755,999
4154,1.4007e+07,1,0.0019783,0.0017016,-0.00042465,-0.25965,-0.19173,-9.7365,0,0,45.599,1,1,755,999
4157,1.401e+07,1,0.0018202,0.0031789,-0.00094388,-0.25317,-0.19322,-9.7196,0,0,45.599,1,1,755,999
4188,1.4013e+07,1,0.0022249,0.0065306,0.0012703,-0.26268,-0.18269,-9.6996,0,0,45.599,1,1,755,999
4191,1.4016e+07,1,0.0027485,0.0080875,0.0030066,-0.28904,-0.17416,-9.6923,0,0,45.599,1,1,755,999
4194,1.4018e+07,1,0.0030483,0.0083109,0.00416,-0.30482,-0.17481,-9.6794,0,0,45.599,1,1,755,999
4198,1.4021e+07,1,0.0044264,0.007402,0.0047993,-0.31623,-0.17422,-9.6873,0,0,45.599,1,1,755,999
4229,1.4023e+07,1,0.0039008,0.002851,0.0074395,-0.33565,-0.17082,-9.7319,0,0,45.599,1,1,755,999
4232,1.4026e+07,1,0.0019401,0.00050045,0.0086082,-0.34387,-0.16943,-9.7558,0,0,45.599,1,1,755,999
4236,1.4028e+07,1,-0.0020955,-0.0014502,0.0078349,-0.34664,-0.17448,-9.7693,0,0,45.599,1,1,755,999
4243,1.4031e+07,1,-0.0030184,-0.001289,0.0055547,-0.3372,-0.20438,-9.7663,0,0,45.599,1,1,755,999
4276,1.4033e+07,1,-0.0016824,-0.00010686,0.0023433,-0.31926,-0.21399,-9.7525,0,0,45.599,1,1,755,999
4279,1.4036e+07,1,0.0026805,0.003562,0.0015566,-0.30481,-0.20217,-9.7382,0,0,45.599,1,1,755,999
4282,1.4039e+07,1,0.0062378,0.008446,0.00038112,-0.27884,-0.16826,-9.7162,0,0,45.599,1,1,755,999
4285,1.4041e+07,1,0.0064093,0.011067,0.0009786,-0.26302,-0.13898,-9.7041,0,0,45.599,1,1,755,999
4316,1.4043e+07,1,0.0045654,0.0099743,0.001574,-0.24172,-0.10966,-9.704,0,0,45.599,1,1,755,999
4319,1.4046e+07,1,0.0036633,0.0069207,0.0016592,-0.23283,-0.1012,-9.7302,0,0,45.599,1,1,755,999
4322,1.4049e+07,1,0.0030851,0.0045408,0.0041928,-0.23223,-0.10101,-9.7897,0,0,45.599,1,1,755,999
4326,1.4051e+07,1,0.0026859,0.0035142,0.0054386,-0.23296,-0.10812,-9.8118,0,0,45.599,1,1,755,999
4357,1.4054e+07,1,0.00079312,0.0015446,0.0080642,-0.2412,-0.12396,-9.812,0,0,45.599,1,1,755,999
4361,1.4056e+07,1,0.00046428,0.0014706,0.007068,-0.25809,-0.13236,-9.7995,0,0,45.599,1,1,755,999
4366,1.4059e+07,1,0.00088835,0.0017635,0.0040904,-0.27513,-0.14778,-9.789,0,0,45.599,1,1,755,999
4369,1.4061e+07,1,0.002473,0.003283,0.0023317,-0.27089,-0.15749,-9.7946,0,0,45.599,1,1,755,999
4400,1.4064e+07,1,0.0024439,0.0048687,0.0016934,-0.26696,-0.15457,-9.8146,0,0,45.599,1,1,755,999
4403,1.4066e+07,1,0.0026934,0.0055984,0.00079048,-0.25791,-0.14869,-9.8226,0,0,45.599,1,1,755,999
4406,1.4069e+07,1,0.0044105,0.006613,0.0011588,-0.25525,-0.14719,-9.8159,0,0,45.599,1,1,755,999
4410,1.4071e+07,1,0.0054458,0.0059288,0.0035675,-0.2753,-0.13694,-9.7871,0,0,45.599,1,1,755,999
4441,1.4078e+07,1,0.002839,0.012019,0.0075417,-0.33646,-0.12626,-9.7989,0,0,45.599,1,1,755,999
4444,1.4079e+07,1,0.0018826,0.012735,0.0075874,-0.35511,-0.14277,-9.8159,0,0,45.599,1,1,755,999
4447,1.4082e+07,1,0.0011345,0.011677,0.0078286,-0.35728,-0.15921,-9.8136,0,0,45.599,1,1,755,999
4478,1.4085e+07,1,0.0016678,0.0097249,0.0074035,-0.35078,-0.18083,-9.8157,0,0,45.599,1,1,755,999
4481,1.4087e+07,1,0.0023912,0.007576,0.0063627,-0.33379,-0.18018,-9.8308,0,0,45.6,1,1,755,999
4484,1.409e+07,1,0.0021744,0.0052781,0.0064069,-0.30028,-0.15824,-9.861,0,0,45.6,1,1,755,999
4489,1.4092e+07,1,0.002388,0.0044537,0.0063893,-0.27788,-0.15234,-9.8789,0,0,45.6,1,1,755,999
4520,1.4094e+07,1,0.0022423,0.0031056,0.0039661,-0.25057,-0.13465,-9.8998,0,0,45.6,1,1,755,999
4523,1.4097e+07,1,0.0011331,0.0029308,0.0017468,-0.23877,-0.13386,-9.9102,0,0,45.6,1,1,755,999
4526,1.4099e+07,1,-0.001646,0.003166,-0.0019449,-0.23533,-0.14886,-9.903,0,0,45.6,1,1,755,999
4529,1.4102e+07,1,-0.0046155,0.0029902,-0.0036908,-0.24287,-0.15526,-9.8714,0,0,45.6,1,1,755,999
4560,1.4105e+07,1,-0.0041519,0.002224,-0.0063507,-0.24942,-0.16162,-9.8249,0,0,45.6,1,1,755,999
4563,1.4107e+07,1,0.00031557,0.0038584,-0.0064628,-0.24874,-0.16561,-9.8012,0,0,45.6,1,1,755,999
4566,1.411e+07,1,0.0050939,0.0060113,-0.0029522,-0.23974,-0.16824,-9.7719,0,0,45.6,1,1,755,999
4571,1.4112e+07,1,0.0059658,0.0064739,-0.00067358,-0.2371,-0.17033,-9.7566,0,0,45.6,1,1,755,999
4602,1.4114e+07,1,0.0031535,0.0069256,0.0051559,-0.25854,-0.15459,-9.749,0,0,45.6,1,1,755,999
4605,1.4117e+07,1,0.0018363,0.0062746,0.0068582,-0.27949,-0.13342,-9.7456,0,0,45.6,1,1,755,999
4608,1.412e+07,1,6.412e-05,0.0044419,0.010053,-0.3094,-0.11788,-9.7382,0,0,45.6,1,1,755,999
4612,1.4122e+07,1,-0.0013245,0.004568,0.012117,-0.31961,-0.10954,-9.7349,0,0,45.6,1,1,755,999
4643,1.4124e+07,1,-0.00396,0.0056134,0.011388,-0.31643,-0.10883,-9.7187,0,0,45.6,1,1,755,999
4646,1.4127e+07,1,-0.0044207,0.0061847,0.011252,-0.30911,-0.11749,-9.7118,0,0,45.6,1,1,755,999
4649,1.413e+07,1,-0.0026983,0.007934,0.012561,-0.30776,-0.13291,-9.7345,0,0,45.6,1,1,755,999
4656,1.4132e+07,1,-0.0020469,0.0080809,0.011764,-0.31713,-0.15237,-9.7602,0,0,45.6,1,1,755,999
4687,1.4135e+07,1,-0.0033217,0.004371,0.0098637,-0.32476,-0.1761,-9.8052,0,0,45.6,1,1,755,999
4690,1.4137e+07,1,-0.0045235,0.0026836,0.00881,-0.32016,-0.17611,-9.8351,0,0,45.6,1,1,755,999
4693,1.4139e+07,1,-0.0055606,0.0060379,0.0045056,-0.30092,-0.16472,-9.8584,0,0,45.6,1,1,755,999
4697,1.4142e+07,1,-0.0052378,0.0085658,0.0036036,-0.28948,-0.15437,-9.8458,0,0,45.6,1,1,755,999
4728,1.4144e+07,1,-0.0027668,0.012136,0.0015419,-0.27946,-0.14406,-9.8137,0,0,45.6,1,1,755,999
4731,1.4148e+07,1,-0.00029996,0.010709,0.0018174,-0.27253,-0.13162,-9.7942,0,0,45.6,1,1,755,999
4735,1.415e+07,1,6.7534e-05,0.010096,0.0017412,-0.26939,-0.12598,-9.7826,0,0,45.6,1,1,755,999
4738,1.4152e+07,1,-0.00067046,0.0079853,0.00027314,-0.27137,-0.13002,-9.7847,0,0,45.6,1,1,755,999
4769,1.4155e+07,1,-0.0024093,0.0052023,4.0618e-05,-0.27985,-0.14316,-9.7995,0,0,45.6,1,1,755,999
4772,1.4157e+07,1,-0.0018797,0.0033962,0.002831,-0.29146,-0.1585,-9.8305,0,0,45.6,1,1,755,999
4775,1.416e+07,1,-0.00030473,0.0017719,0.006197,-0.29741,-0.15826,-9.8437,0,0,45.6,1,1,755,999
4779,1.4162e+07,1,0.0013122,-0.0002125,0.0062595,-0.29519,-0.16239,-9.869,0,0,45.6,1,1,755,999
4810,1.4164e+07,1,0.0020169,-0.00049195,0.0043394,-0.28808,-0.16624,-9.8617,0,0,45.6,1,1,755,999
4813,1.4167e+07,1,0.001497,0.0037187,-0.0023254,-0.29339,-0.17773,-9.8324,0,0,45.6,1,1,755,999
4816,1.417e+07,1,0.00067026,0.0064646,-0.0036397,-0.30459,-0.18563,-9.8168,0,0,45.6,1,1,755,999
4819,1.4175e+07,1,-0.00031221,0.012548,-0.0032543,-0.33626,-0.17972,-9.8111,0,0,45.6,1,1,755,999
4850,1.4177e+07,1,-0.00035165,0.0096307,0.00065823,-0.35055,-0.18281,-9.7722,0,0,45.6,1,1,755,999
4853,1.418e+07,1,-0.003527,0.0072682,0.0036605,-0.35597,-0.18873,-9.7711,0,0,45.6,1,1,755,999
4857,1.4185e+07,1,-0.0036557,0.0099786,7.7788e-05,-0.38583,-0.19479,-9.8059,0,0,45.599,1,1,755,999
4888,1.4188e+07,1,-0.0020981,0.0097496,0.00025592,-0.39041,-0.18087,-9.8214,0,0,45.599,1,1,755,999
4891,1.4191e+07,1,0.00073252,0.0080881,0.001709,-0.395,-0.15698,-9.8485,0,0,45.599,1,1,755,999
4895,1.4193e+07,1,0.0011577,0.0064495,0.0025636,-0.39593,-0.15315,-9.8679,0,0,45.599,1,1,755,999
4898,1.4196e+07,1,-0.0021203,0.0041833,0.0023719,-0.40154,-0.14898,-9.88,0,0,45.599,1,1,755,999
4929,1.4199e+07,1,-0.0028792,0.0039073,0.001352,-0.40217,-0.15546,-9.8626,0,0,45.599,1,1,755,999
4932,1.4201e+07,1,-0.00083748,0.0046331,-0.0001716,-0.40557,-0.16112,-9.8451,0,0,45.599,1,1,755,999
4935,1.4203e+07,1,0.0005651,0.0018348,-0.00080473,-0.40943,-0.16519,-9.8286,0,0,45.599,1,1,755,999
4938,1.4206e+07,1,0.0012913,0.0016838,7.5983e-05,-0.41132,-0.17238,-9.8206,0,0,45.599,1,1,755,999
4969,1.4209e+07,1,0.0021457,0.0066861,0.001064,-0.39817,-0.17619,-9.8081,0,0,45.599,1,1,755,999
4972,1.4211e+07,1,0.0013627,0.0077527,0.00073736,-0.37636,-0.17484,-9.7962,0,0,45.599,1,1,755,999
4976,1.4213e+07,1,0.0012495,0.010627,0.00011605,-0.34038,-0.17485,-9.7697,0,0,45.599,1,1,755,999
4979,1.4216e+07,1,0.0010499,0.010369,0.00077573,-0.32077,-0.18672,-9.7527,0,0,45.599,1,1,755,999
5010,1.4218e+07,1,0.00036909,0.0096479,0.0028475,-0.31253,-0.20486,-9.7527,0,0,45.599,1,1,755,999
5013,1.4221e+07,1,0.00076525,0.0096258,0.0031639,-0.3154,-0.2167,-9.742,0,0,45.599,1,1,755,999
5016,1.4224e+07,1,0.0029211,0.0091629,0.0017627,-0.32782,-0.23351,-9.6984,0,0,45.599,1,1,755,999
5019,1.4226e+07,1,0.0035565,0.0087608,0.0016695,-0.34247,-0.23546,-9.6737,0,0,45.599,1,1,755,999
5050,1.4228e+07,1,0.00030544,0.0075271,0.0041889,-0.36328,-0.21449,-9.6631,0,0,45.599,1,1,755,999
5053,1.4231e+07,1,-0.0011935,0.0068821,0.0056685,-0.37476,-0.20173,-9.6712,0,0,45.599,1,1,755,999
5062,1.4234e+07,1,-0.0043578,0.0044035,0.005404,-0.37942,-0.19327,-9.7092,0,0,45.599,1,1,755,999
5065,1.4236e+07,1,-0.0035114,0.0034737,0.0038672,-0.38258,-0.18401,-9.7251,0,0,45.599,1,1,755,999
5096,1.4239e+07,1,-0.0013492,0.003101,5.1923e-05,-0.37336,-0.16956,-9.7312,0,0,45.599,1,1,755,999
5099,1.4241e+07,1,-0.00064604,0.0024528,-0.0038331,-0.34234,-0.15624,-9.7506,0,0,45.599,1,1,755,999
5103,1.4244e+07,1,0.00047103,0.0021871,-0.0034644,-0.31875,-0.15494,-9.7704,0,0,45.599,1,1,755,999
5106,1.4246e+07,1,0.0036085,0.0027103,-0.00091113,-0.2895,-0.15813,-9.8168,0,0,45.599,1,1,755,999
5137,1.425e+07,1,0.0055945,-0.0022422,0.00054989,-0.26462,-0.15223,-9.8575,0,0,45.599,1,1,755,999
5140,1.4252e+07,1,0.0051189,-0.0046234,0.0003765,-0.25813,-0.14465,-9.8894,0,0,45.599,1,1,755,999
5144,1.4254e+07,1,0.0022951,-0.005013,0.0013316,-0.2547,-0.1422,-9.9236,0,0,45.599,1,1,755,999
5147,1.4257e+07,1,0.0012476,-0.0018012,0.0041994,-0.25765,-0.15663,-9.9337,0,0,45.599,1,1,755,999
5178,1.426e+07,1,0.0024834,0.00058968,0.0060607,-0.2821,-0.18339,-9.9317,0,0,45.599,1,1,755,999
5183,1.4262e+07,1,0.0028449,-0.0005512,0.0070035,-0.29751,-0.19711,-9.9117,0,0,45.599,1,1,755,999
5186,1.4265e+07,1,0.0011381,-0.0013032,0.0039686,-0.32131,-0.19982,-9.8738,0,0,45.599,1,1,755,999
5189,1.4267e+07,1,-0.00049895,-0.00064206,-0.0010744,-0.33138,-0.19095,-9.8516,0,0,45.599,1,1,755,999
5220,1.4269e+07,1,-0.0011091,0.00041121,-0.0026439,-0.34323,-0.17239,-9.8203,0,0,45.599,1,1,755,999
5223,1.4272e+07,1,-0.0010484,0.00097073,-0.0024389,-0.34757,-0.1705,-9.7967,0,0,45.599,1,1,755,999
5227,1.4278e+07,1,-0.0019522,0.0031942,-0.0016944,-0.36202,-0.16048,-9.7566,0,0,45.599,1,1,755,999
5260,1.428e+07,1,-6.1345e-05,0.0043308,-0.00029062,-0.35208,-0.14589,-9.7475,0,0,45.599,1,1,755,999
5263,1.4283e+07,1,0.0035518,0.0039928,0.0038253,-0.34472,-0.13631,-9.739,0,0,45.599,1,1,755,999
5268,1.4286e+07,1,0.0044839,0.00081994,0.0068471,-0.33123,-0.11533,-9.7216,0,0,45.599,1,1,755,999
5271,1.4288e+07,1,0.0026906,-0.00090235,0.0072661,-0.31355,-0.1004,-9.7177,0,0,45.599,1,1,755,999
5302,1.429e+07,1,-0.0019014,-0.0048369,0.0028846,-0.28186,-0.088038,-9.7244,0,0,45.599,1,1,755,999
5305,1.4293e+07,1,-0.0019513,-0.0045484,0.0013019,-0.26055,-0.091418,-9.7282,0,0,45.599,1,1,755,999
5308,1.4297e+07,1,-0.00096606,-0.0010065,0.00071639,-0.23847,-0.099162,-9.7441,0,0,45.599,1,1,755,999
5311,1.4298e+07,1,0.0023125,0.0057091,-0.0010867,-0.22845,-0.10848,-9.7796,0,0,45.599,1,1,755,999
5342,1.4301e+07,1,0.0035948,0.0068473,0.001551,-0.23276,-0.12004,-9.8099,0,0,45.599,1,1,755,999
5345,1.4303e+07,1,0.0043702,0.0053072,0.0059261,-0.24576,-0.13366,-9.8163,0,0,45.599,1,1,755,999
5349,1.4306e+07,1,0.0040919,0.0045906,0.0082127,-0.25388,-0.14305,-9.8211,0,0,45.599,1,1,755,999
5352,1.4309e+07,1,0.0018477,0.0042063,0.01145,-0.26088,-0.15199,-9.8665,0,0,45.599,1,1,755,999
5383,1.4312e+07,1,0.0014554,0.0036996,0.0098287,-0.27486,-0.1518,-9.936,0,0,45.599,1,1,755,999
5386,1.4314e+07,1,0.00089564,0.0028714,0.0088611,-0.30261,-0.15521,-9.9873,0,0,45.599,1,1,755,999
5389,1.4317e+07,1,0.00069065,0.0022272,0.0092075,-0.32842,-0.16943,-9.9835,0,0,45.598,1,1,755,999
5392,1.432e+07,1,0.0012099,0.0021587,0.010344,-0.35233,-0.19218,-9.9363,0,0,45.598,1,1,755,999
5423,1.4322e+07,1,-0.00051076,-0.00080837,0.011895,-0.36099,-0.20885,-9.8854,0,0,45.598,1,1,755,999
5426,1.4325e+07,1,-0.0022998,-0.0022503,0.012624,-0.36185,-0.20766,-9.8584,0,0,45.598,1,1,755,999
5430,1.4327e+07,1,-0.0048126,0.0019592,0.0069177,-0.36286,-0.20979,-9.8376,0,0,45.598,1,1,755,999
5433,1.433e+07,1,-0.004179,0.0056984,0.0030474,-0.36108,-0.20129,-9.8269,0,0,45.598,1,1,755,999
5464,1.4333e+07,1,-0.0026417,0.011912,-0.00048149,-0.35821,-0.17928,-9.8181,0,0,45.598,1,1,755,999
5467,1.4335e+07,1,2.7664e-05,0.013967,0.0035739,-0.35771,-0.17129,-9.8163,0,0,45.598,1,1,755,999
5475,1.4338e+07,1,0.0031068,0.013079,0.0073505,-0.35005,-0.18069,-9.8024,0,0,45.598,1,1,755,999
5478,1.434e+07,1,0.0045228,0.013396,0.0080069,-0.33934,-0.18618,-9.8003,0,0,45.598,1,1,755,999
5509,1.4343e+07,1,0.0065518,0.013866,0.0041627,-0.33694,-0.15062,-9.8127,0,0,45.598,1,1,755,999
5512,1.4345e+07,1,0.010202,0.013503,0.0014047,-0.34107,-0.12197,-9.8354,0,0,45.598,1,1,755,999
5515,1.4347e+07,1,0.011511,0.01136,0.0037044,-0.34798,-0.092558,-9.8609,0,0,45.598,1,1,755,999
5518,1.435e+07,1,0.010801,0.0091465,0.0051336,-0.35478,-0.080489,-9.8496,0,0,45.598,1,1,755,999
5549,1.4353e+07,1,0.0055582,-9.0219e-05,0.0052877,-0.36855,-0.069696,-9.8136,0,0,45.598,1,1,755,999
5552,1.4356e+07,1,0.002773,-0.0041621,0.0051634,-0.38225,-0.074913,-9.773,0,0,45.598,1,1,755,999
5556,1.4358e+07,1,0.0016765,-0.0040413,0.0046644,-0.39883,-0.077562,-9.7525,0,0,45.598,1,1,755,999
5559,1.4361e+07,1,0.0022472,0.0028133,0.0048682,-0.41519,-0.080446,-9.7258,0,0,45.598,1,1,755,999
5590,1.4363e+07,1,0.0034322,0.0096005,0.0059359,-0.41291,-0.078931,-9.7065,0,0,45.598,1,1,755,999
5595,1.4366e+07,1,0.0038793,0.012036,0.0056654,-0.40714,-0.079053,-9.7041,0,0,45.598,1,1,755,999
5598,1.4369e+07,1,0.0021674,0.0090017,0.0032459,-0.39551,-0.084323,-9.7213,0,0,45.598,1,1,755,999
5601,1.4372e+07,1,0.00086321,0.0075322,0.002194,-0.38751,-0.087536,-9.7328,0,0,45.598,1,1,755,999
5604,1.4374e+07,1,-0.00084926,0.0036443,0.0015241,-0.3754,-0.095065,-9.7373,0,0,45.598,1,1,755,999
5635,1.4376e+07,1,0.00073502,-0.0055322,0.00056189,-0.35378,-0.10886,-9.744,0,0,45.598,1,1,755,999
5639,1.4379e+07,1,0.001497,-0.0066006,0.00047088,-0.33324,-0.12498,-9.7512,0,0,45.598,1,1,755,999
5642,1.4381e+07,1,0.00081868,-0.0051235,0.002243,-0.29862,-0.13523,-9.7616,0,0,45.598,1,1,755,999
5645,1.4385e+07,1,-0.00076248,-0.00070999,0.0034809,-0.27718,-0.12429,-9.7563,0,0,45.598,1,1,755,999
5648,1.439e+07,1,0.0012995,0.003271,-0.0022131,-0.24481,-0.10885,-9.7443,0,0,45.598,1,1,755,999
5679,1.4392e+07,1,0.0028799,0.00083901,-0.0030377,-0.25667,-0.10047,-9.752,0,0,45.598,1,1,755,999
5682,1.4394e+07,1,0.0016453,-0.0012936,-0.0034699,-0.26396,-0.1057,-9.7537,0,0,45.598,1,1,755,999
5685,1.4397e+07,1,-0.0016327,-0.003686,-0.0056962,-0.27312,-0.11942,-9.7595,0,0,45.598,1,1,755,999
5688,1.44e+07,1,-0.0014468,-0.0023004,-0.0054299,-0.29161,-0.15877,-9.7593,0,0,45.598,1,1,755,999
5719,1.4402e+07,1,0.0010532,0.00044337,-0.0042498,-0.29947,-0.19302,-9.7534,0,0,45.598,1,1,755,999
5723,1.4405e+07,1,0.0028694,0.0029065,-0.0042444,-0.30487,-0.20145,-9.7462,0,0,45.598,1,1,755,999
5726,1.4408e+07,1,0.0022093,0.0052719,-0.0055917,-0.2991,-0.20556,-9.7284,0,0,45.598,1,1,755,999
5729,1.441e+07,1,0.0029827,0.0065696,-0.0074178,-0.29338,-0.20352,-9.7109,0,0,45.598,1,1,755,999
5760,1.4413e+07,1,0.0053419,0.010781,-0.0082009,-0.28426,-0.18309,-9.7169,0,0,45.598,1,1,755,999
5764,1.4416e+07,1,0.0045912,0.01158,-0.0073799,-0.2824,-0.1732,-9.7346,0,0,45.598,1,1,755,999
5767,1.4418e+07,1,0.0017138,0.011258,-0.0052187,-0.27746,-0.15115,-9.7809,0,0,45.598,1,1,755,999
5772,1.4421e+07,1,-0.0012993,0.0087102,-0.0044716,-0.27617,-0.12992,-9.8015,0,0,45.598,1,1,755,999
5803,1.4424e+07,1,-0.0030813,0.0076117,-0.0044633,-0.28503,-0.10274,-9.8149,0,0,45.598,1,1,755,999
5806,1.4426e+07,1,-0.004654,0.0087039,-0.0028096,-0.28819,-0.091725,-9.8265,0,0,45.598,1,1,755,999
5809,1.4429e+07,1,-0.0055187,0.010229,-0.00063891,-0.29451,-0.099334,-9.8304,0,0,45.598,1,1,755,999
5812,1.4431e+07,1,-0.0030822,0.010593,-0.00017251,-0.30077,-0.099448,-9.8292,0,0,45.598,1,1,755,999
5843,1.4434e+07,1,0.00050816,0.008608,0.00091353,-0.31778,-0.11244,-9.8043,0,0,45.598,1,1,755,999
5847,1.4437e+07,1,0.0015462,0.0070872,0.00056419,-0.32559,-0.13271,-9.7887,0,0,45.598,1,1,755,999
5850,1.4438e+07,1,-0.00039518,0.0047613,-0.0038173,-0.32494,-0.16399,-9.7734,0,0,45.598,1,1,755,999
5857,1.4441e+07,1,-0.0026054,0.0048177,-0.0059726,-0.32377,-0.17884,-9.7815,0,0,45.598,1,1,755,999
5888,1.4444e+07,1,-0.0054927,0.0078988,-0.0093133,-0.3252,-0.19386,-9.788,0,0,45.598,1,1,755,999
5892,1.4446e+07,1,-0.0073469,0.010887,-0.0091798,-0.33068,-0.20105,-9.7863,0,0,45.598,1,1,755,999
5895,1.4449e+07,1,-0.007712,0.0095105,-0.0058833,-0.33062,-0.19915,-9.7755,0,0,45.598,1,1,755,999
5900,1.4451e+07,1,-0.0050792,0.0051586,-0.0012852,-0.32194,-0.19493,-9.7742,0,0,45.598,1,1,755,999
5931,1.4454e+07,1,-0.0013928,0.00070614,0.002895,-0.30224,-0.2003,-9.7859,0,0,45.598,1,1,755,999
5934,1.4456e+07,1,-0.0004546,-0.00019942,0.0041783,-0.28628,-0.20219,-9.7903,0,0,45.598,1,1,755,999
5937,1.4458e+07,1,-0.00070694,-4.4878e-05,0.0036142,-0.26591,-0.19281,-9.7887,0,0,45.598,1,1,755,999
5941,1.4461e+07,1,-0.00065957,0.0010711,0.0029153,-0.2514,-0.18741,-9.7748,0,0,45.598,1,1,755,999
5972,1.4464e+07,1,-0.0022862,0.0040757,0.002684,-0.23675,-0.18733,-9.7681,0,0,45.598,1,1,755,999
5976,1.4466e+07,1,-0.00070645,0.0070198,0.003546,-0.23479,-0.17956,-9.7877,0,0,45.598,1,1,755,999
5979,1.4469e+07,1,0.00077155,0.0071451,0.0048353,-0.24196,-0.18165,-9.7969,0,0,45.598,1,1,755,999
5982,1.4472e+07,1,0.0023731,0.0067214,0.0093543,-0.25634,-0.20354,-9.7906,0,0,45.597,1,1,755,999
6013,1.4475e+07,1,0.0011194,0.0058311,0.0096533,-0.2762,-0.22412,-9.7746,0,0,45.597,1,1,755,999
6016,1.4477e+07,1,-0.0002369,0.0055362,0.0090583,-0.28296,-0.22899,-9.7648,0,0,45.597,1,1,755,999
6019,1.4479e+07,1,-0.0036721,0.0070678,0.0054595,-0.28472,-0.22905,-9.7648,0,0,45.597,1,1,755,999
6022,1.4482e+07,1,-0.0033514,0.0069953,0.0042818,-0.28169,-0.21023,-9.7582,0,0,45.597,1,1,755,999
6053,1.4484e+07,1,-0.0012978,0.0056591,0.0034159,-0.28486,-0.17892,-9.75,0,0,45.597,1,1,755,999
6058,1.4489e+07,1,-0.00052726,-0.00016555,0.006055,-0.29427,-0.14146,-9.7712,0,0,45.597,1,1,755,999
6061,1.4492e+07,1,-0.0032759,0.00085465,0.0057138,-0.30093,-0.13835,-9.7911,0,0,45.597,1,1,755,999
6092,1.4496e+07,1,-0.0045985,0.0025813,0.0023462,-0.31309,-0.13844,-9.8194,0,0,45.597,1,1,755,999
6095,1.4498e+07,1,-0.0030818,0.004359,0.00073792,-0.31307,-0.13637,-9.8466,0,0,45.597,1,1,755,999
6099,1.45e+07,1,-0.0031211,0.007639,0.0015654,-0.3173,-0.1334,-9.8618,0,0,45.597,1,1,755,999
6102,1.4502e+07,1,-0.0028609,0.0099859,0.00058713,-0.32767,-0.12921,-9.8731,0,0,45.597,1,1,755,999
6133,1.4504e+07,1,-0.0016008,0.010346,0.00088893,-0.32973,-0.12804,-9.8752,0,0,45.597,1,1,755,999
6136,1.4507e+07,1,0.0013746,0.0070854,0.0052765,-0.3157,-0.12173,-9.8805,0,0,45.597,1,1,755,999
6139,1.451e+07,1,0.0010495,0.0059562,0.0054378,-0.30389,-0.12232,-9.8812,0,0,45.597,1,1,755,999
6142,1.4512e+07,1,0.0022802,0.003863,0.0051161,-0.28882,-0.13708,-9.8525,0,0,45.597,1,1,755,999
6173,1.4514e+07,1,0.003336,0.00016381,0.0052521,-0.28794,-0.15014,-9.8234,0,0,45.597,1,1,755,999
6176,1.4517e+07,1,0.003203,-0.0010643,0.0040392,-0.3009,-0.17132,-9.7792,0,0,45.597,1,1,755,999
6180,1.452e+07,1,0.0039348,0.0025502,0.00074349,-0.30889,-0.17341,-9.7494,0,0,45.597,1,1,755,999
6183,1.4522e+07,1,0.0036178,0.0045508,-0.00030366,-0.30795,-0.16951,-9.7212,0,0,45.597,1,1,755,999
6214,1.4525e+07,1,0.00073146,0.0070045,-0.00044293,-0.29699,-0.15808,-9.6829,0,0,45.597,1,1,755,999
6217,1.4527e+07,1,-0.0020501,0.0040622,0.0026662,-0.2971,-0.14262,-9.6904,0,0,45.597,1,1,755,999
6220,1.453e+07,1,-0.0023459,0.0027676,0.0042958,-0.2958,-0.13711,-9.7165,0,0,45.597,1,1,755,999
6223,1.4533e+07,1,0.0010325,-0.00080108,0.0085577,-0.2929,-0.12767,-9.7555,0,0,45.597,1,1,755,999
6254,1.4535e+07,1,0.00067679,-0.0036018,0.0070593,-0.29124,-0.11856,-9.7832,0,0,45.597,1,1,755,999
6257,1.4538e+07,1,-0.00048498,-0.0046093,0.0059972,-0.29203,-0.10292,-9.797,0,0,45.597,1,1,755,999
6261,1.454e+07,1,-0.00212,-0.0055042,0.0036506,-0.29262,-0.080722,-9.818,0,0,45.597,1,1,755,999
6268,1.4543e+07,1,-0.0016744,-0.0055791,0.0024988,-0.2827,-0.073062,-9.8291,0,0,45.597,1,1,755,999
6299,1.4546e+07,1,0.00082998,-0.0040039,0.0014176,-0.26881,-0.062448,-9.8185,0,0,45.597,1,1,755,999
6302,1.4548e+07,1,0.0039459,-0.00035095,0.0026729,-0.26344,-0.064409,-9.7974,0,0,45.596,1,1,755,999
6305,1.4551e+07,1,0.0053628,0.0020843,0.003655,-0.26736,-0.069318,-9.78,0,0,45.596,1,1,755,999
6308,1.4552e+07,1,0.0061064,0.0019564,0.0021115,-0.28882,-0.079964,-9.7621,0,0,45.596,1,1,755,999
6339,1.4556e+07,1,0.0062241,0.0031563,-0.0001502,-0.32073,-0.099594,-9.7391,0,0,45.596,1,1,755,999
6342,1.4558e+07,1,0.0076327,0.0027022,-0.00082514,-0.35934,-0.14255,-9.722,0,0,45.596,1,1,755,999
6347,1.456e+07,1,0.0080223,0.00085631,-0.00093268,-0.38009,-0.18767,-9.7328,0,0,45.596,1,1,755,999
6350,1.4563e+07,1,0.0071345,0.00041719,-0.0012548,-0.37915,-0.21619,-9.7421,0,0,45.596,1,1,755,999
6381,1.4565e+07,1,0.00034959,0.0038068,-0.0031921,-0.36247,-0.23477,-9.7354,0,0,45.596,1,1,755,999
6384,1.4568e+07,1,-0.0015416,0.0064845,-0.0041754,-0.35481,-0.23108,-9.7128,0,0,45.596,1,1,755,999
6388,1.457e+07,1,-0.0017295,0.010115,-0.0047993,-0.34552,-0.22702,-9.6762,0,0,45.596,1,1,755,999
6391,1.4573e+07,1,7.6857e-05,0.010061,-0.0034722,-0.33468,-0.22651,-9.6619,0,0,45.596,1,1,755,999
6422,1.4575e+07,1,0.00080858,0.010452,-0.00058705,-0.31979,-0.21386,-9.6713,0,0,45.596,1,1,755,999
6426,1.4578e+07,1,0.0010116,0.011245,0.0025101,-0.31231,-0.20809,-9.6962,0,0,45.596,1,1,755,999
6429,1.458e+07,1,0.0025789,0.0099426,0.0043258,-0.29817,-0.19831,-9.7372,0,0,45.596,1,1,755,999
6432,1.4585e+07,1,0.0045987,0.0037206,0.0050682,-0.2804,-0.13902,-9.7565,0,0,45.596,1,1,755,999
6463,1.4591e+07,1,0.0036776,0.0051803,0.0067017,-0.30148,-0.080522,-9.7887,0,0,45.596,1,1,755,999
6467,1.4594e+07,1,0.0028688,0.0034145,0.0057281,-0.30458,-0.076067,-9.7987,0,0,45.596,1,1,755,999
6470,1.4596e+07,1,0.0025133,0.0039921,0.004195,-0.30011,-0.081634,-9.8067,0,0,45.596,1,1,755,999
6501,1.4598e+07,1,0.0020385,0.0072615,-0.00031943,-0.30362,-0.081868,-9.8141,0,0,45.596,1,1,755,999
6504,1.4601e+07,1,0.0025929,0.0067537,-0.0010936,-0.31611,-0.081889,-9.8234,0,0,45.596,1,1,755,999
6507,1.4603e+07,1,0.0047554,0.0055441,-0.00070107,-0.34379,-0.091532,-9.8265,0,0,45.595,1,1,755,999
6510,1.4606e+07,1,0.0059254,0.004409,0.00099847,-0.36286,-0.11028,-9.835,0,0,45.595,1,1,755,999
6541,1.4608e+07,1,0.0065951,0.0054031,0.0019352,-0.38143,-0.14396,-9.862,0,0,45.595,1,1,755,999
6544,1.4611e+07,1,0.0072287,0.0074509,0.0041254,-0.37944,-0.16,-9.8742,0,0,45.595,1,1,755,999
6548,1.4614e+07,1,0.0055273,0.0079678,0.0061096,-0.36321,-0.18735,-9.8806,0,0,45.595,1,1,755,999
6551,1.4616e+07,1,0.0041656,0.0072098,0.006288,-0.35301,-0.20635,-9.8831,0,0,45.595,1,1,755,999
6582,1.4619e+07,1,0.0021607,0.0047291,0.0045871,-0.32452,-0.21411,-9.8747,0,0,45.595,1,1,755,999
6585,1.4621e+07,1,0.0021591,0.0051236,0.0045366,-0.3074,-0.20063,-9.855,0,0,45.595,1,1,755,999
6589,1.4624e+07,1,0.0020032,0.0052761,0.0051757,-0.28792,-0.17207,-9.8478,0,0,45.595,1,1,755,999
6592,1.4626e+07,1,0.0016498,0.0047597,0.0040271,-0.28046,-0.15805,-9.8539,0,0,45.595,1,1,755,999
6623,1.4628e+07,1,0.00037922,0.0050422,0.0023914,-0.27809,-0.13141,-9.8612,0,0,45.595,1,1,755,999
6626,1.4631e+07,1,-3.4508e-05,0.0025169,0.00038307,-0.26799,-0.11466,-9.8528,0,0,45.595,1,1,755,999
6630,1.4634e+07,1,-0.00010732,-0.0028065,-0.0016635,-0.25523,-0.08327,-9.8329,0,0,45.595,1,1,755,999
6633,1.4637e+07,1,-8.1797e-05,-0.004725,-0.0020528,-0.25503,-0.071759,-9.8244,0,0,45.595,1,1,755,999
6664,1.4639e+07,1,0.0015435,-0.0087315,-0.0014385,-0.26687,-0.068692,-9.813,0,0,45.595,1,1,755,999
6667,1.4642e+07,1,0.002197,-0.0063277,0.00013591,-0.27638,-0.078142,-9.8073,0,0,45.595,1,1,755,999
6675,1.4645e+07,1,0.0015872,-0.00059175,0.0021174,-0.29424,-0.094351,-9.7948,0,0,45.595,1,1,755,999
6678,1.4647e+07,1,0.00044892,0.0031763,0.0030141,-0.29693,-0.096369,-9.7914,0,0,45.595,1,1,755,999
6709,1.465e+07,1,-0.00011345,0.0046443,0.0026668,-0.29686,-0.10391,-9.7922,0,0,45.595,1,1,755,999
6712,1.4652e+07,1,-0.0018975,0.0035901,0.0033114,-0.3003,-0.10748,-9.7785,0,0,45.595,1,1,755,999
6717,1.4655e+07,1,-0.0040751,0.0019238,0.0038322,-0.29371,-0.10821,-9.7598,0,0,45.595,1,1,755,999
6720,1.4657e+07,1,-0.0044449,0.00065159,0.0035695,-0.28467,-0.11891,-9.7306,0,0,45.595,1,1,755,999
6751,1.466e+07,1,0.00033486,-0.00097631,0.0021321,-0.27335,-0.12374,-9.669,0,0,45.595,1,1,755,999
6754,1.4662e+07,1,0.0047141,-2.2108e-05,0.0020635,-0.26019,-0.13837,-9.6201,0,0,45.595,1,1,755,999
6758,1.4664e+07,1,0.0061057,-2.3594e-05,0.0023941,-0.25972,-0.15281,-9.6081,0,0,45.595,1,1,755,999
6761,1.4667e+07,1,0.0071317,0.00063843,0.0034814,-0.26067,-0.17139,-9.614,0,0,45.595,1,1,755,999
6792,1.4669e+07,1,0.006868,0.0037796,0.0039098,-0.2615,-0.17841,-9.6416,0,0,45.594,1,1,755,999
6795,1.4672e+07,1,0.0061843,0.0054354,0.0045225,-0.26294,-0.1706,-9.6758,0,0,45.594,1,1,755,999
6801,1.4675e+07,1,0.003785,0.0060769,0.0049205,-0.26776,-0.1566,-9.7271,0,0,45.594,1,1,755,999
6804,1.4677e+07,1,0.0023236,0.0072957,0.0052297,-0.27624,-0.15338,-9.7709,0,0,45.594,1,1,755,999
6835,1.4679e+07,1,-0.0038005,0.010416,0.003666,-0.29779,-0.14603,-9.8372,0,0,45.594,1,1,755,999
6838,1.4682e+07,1,-0.0058707,0.010477,0.0025524,-0.31172,-0.1439,-9.8549,0,0,45.594,1,1,755,999
6841,1.4688e+07,1,-0.0049683,0.0046409,0.0020627,-0.32825,-0.17941,-9.8485,0,0,45.594,1,1,755,999
6844,1.469e+07,1,-0.0043767,0.0020153,0.00057939,-0.3106,-0.21183,-9.822,0,0,45.594,1,1,755,999
6875,1.4692e+07,1,-0.0071147,0.001211,-0.0037354,-0.30208,-0.23397,-9.8126,0,0,45.594,1,1,755,999
6879,1.4695e+07,1,-0.0076372,0.0020469,-0.0045716,-0.30523,-0.24131,-9.8166,0,0,45.594,1,1,755,999
6882,1.4698e+07,1,-0.0052101,0.004085,-0.004031,-0.31916,-0.23495,-9.813,0,0,45.594,1,1,755,999
6885,1.47e+07,1,-0.0020351,0.0062838,-0.0032464,-0.34311,-0.21795,-9.8106,0,0,45.594,1,1,755,999
6916,1.4703e+07,1,-0.00065021,0.010238,-0.0015295,-0.37018,-0.19156,-9.7928,0,0,45.594,1,1,755,999
6919,1.4705e+07,1,0.00048978,0.012511,0.0012436,-0.37168,-0.18307,-9.7915,0,0,45.594,1,1,755,999
6922,1.4707e+07,1,-0.00043833,0.014596,0.0025165,-0.35357,-0.16796,-9.7972,0,0,45.594,1,1,755,999
6925,1.471e+07,1,-0.00096342,0.015292,0.0037172,-0.33194,-0.15428,-9.8089,0,0,45.594,1,1,755,999
6956,1.4712e+07,1,0.00025683,0.012876,0.0054924,-0.30224,-0.14535,-9.8119,0,0,45.594,1,1,755,999
6960,1.4716e+07,1,0.00035756,0.010793,0.0050095,-0.28281,-0.15093,-9.7905,0,0,45.594,1,1,755,999
6963,1.4718e+07,1,-0.001429,0.0097631,0.0035258,-0.27811,-0.15813,-9.7792,0,0,45.594,1,1,755,999
6966,1.4721e+07,1,-0.0037235,0.0047011,-0.0011064,-0.28652,-0.16596,-9.7759,0,0,45.594,1,1,755,999
6997,1.4723e+07,1,-0.0022015,0.0020907,-0.0018228,-0.30905,-0.17947,-9.7903,0,0,45.594,1,1,755,999
7000,1.4725e+07,1,-0.0020316,0.0015566,-0.0012443,-0.31757,-0.19566,-9.7999,0,0,45.594,1,1,755,999
7003,1.4729e+07,1,-0.0016962,0.0034294,0.0011464,-0.30968,-0.20556,-9.8074,0,0,45.594,1,1,755,999
7006,1.4731e+07,1,-0.00059583,0.004258,0.0020036,-0.29885,-0.20896,-9.8113,0,0,45.594,1,1,755,999
7037,1.4733e+07,1,0.0010179,0.0035923,0.002058,-0.2917,-0.2054,-9.8163,0,0,45.594,1,1,755,999
7041,1.4736e+07,1,0.00090592,0.0029656,0.0021127,-0.29242,-0.19532,-9.8219,0,0,45.594,1,1,755,999
7044,1.4738e+07,1,0.0011205,0.00056444,0.003218,-0.29897,-0.18515,-9.8121,0,0,45.594,1,1,755,999
7048,1.4741e+07,1,0.003652,-0.001278,0.0030803,-0.30154,-0.18817,-9.809,0,0,45.594,1,1,755,999
7079,1.4744e+07,1,0.0053483,-0.00011062,0.00172,-0.29901,-0.17383,-9.8063,0,0,45.594,1,1,755,999
7086,1.4746e+07,1,0.0053902,0.00025094,0.00084598,-0.30773,-0.15794,-9.8152,0,0,45.594,1,1,755,999
7089,1.4749e+07,1,0.0035922,-0.0022686,-0.00010795,-0.31306,-0.14649,-9.831,0,0,45.594,1,1,755,999
7092,1.4752e+07,1,0.0019177,-0.0017668,0.0010737,-0.32114,-0.13111,-9.8646,0,0,45.594,1,1,755,999
7123,1.4754e+07,1,0.00024692,-0.00028658,0.0015023,-0.33648,-0.12971,-9.8916,0,0,45.594,1,1,755,999
7127,1.4757e+07,1,-0.00075354,0.00027064,0.00056041,-0.34828,-0.13521,-9.8932,0,0,45.594,1,1,755,999
7130,1.476e+07,1,-0.00094047,0.00064871,-0.0012546,-0.36376,-0.13915,-9.8806,0,0,45.594,1,1,755,999
7133,1.4761e+07,1,-0.00070177,0.0022279,-0.0015459,-0.36826,-0.12783,-9.8697,0,0,45.594,1,1,755,999
7164,1.4765e+07,1,-0.0025083,0.0025743,-0.000166,-0.37041,-0.11135,-9.851,0,0,45.594,1,1,755,999
7168,1.4767e+07,1,-0.0022743,0.00057672,9.5735e-06,-0.37512,-0.1089,-9.834,0,0,45.594,1,1,755,999
7171,1.4769e+07,1,0.00096133,-0.0023654,0.00047257,-0.37048,-0.10065,-9.8381,0,0,45.594,1,1,755,999
7174,1.4773e+07,1,0.0027835,-0.003575,0.0013799,-0.35125,-0.099782,-9.8561,0,0,45.594,1,1,755,999
7207,1.4775e+07,1,0.004513,-0.0016425,0.0034056,-0.31094,-0.12079,-9.8502,0,0,45.594,1,1,755,999
7211,1.4778e+07,1,0.003042,0.00080777,0.0051846,-0.28683,-0.13881,-9.8246,0,0,45.594,1,1,755,999
7214,1.478e+07,1,-0.0019163,0.0019391,0.0044046,-0.27907,-0.15353,-9.7683,0,0,45.594,1,1,755,999
7217,1.4783e+07,1,-0.0029007,0.0026192,0.0043327,-0.27403,-0.15719,-9.7311,0,0,45.594,1,1,755,999
7248,1.4788e+07,1,-0.0047672,0.0011603,0.004038,-0.24139,-0.1488,-9.6983,0,0,45.594,1,1,755,999
7252,1.4791e+07,1,-0.0054688,-0.0006746,0.0054763,-0.23546,-0.14128,-9.6923,0,0,45.594,1,1,755,999
7255,1.4797e+07,1,0.0030339,8.6218e-05,0.0045334,-0.25419,-0.10712,-9.6676,0,0,45.594,1,1,755,999
7286,1.48e+07,1,0.0055614,0.0020312,0.0034621,-0.2643,-0.10399,-9.6715,0,0,45.594,1,1,755,999
7289,1.4802e+07,1,0.0064412,0.0031368,0.0030085,-0.26717,-0.10515,-9.6892,0,0,45.594,1,1,755,999
7293,1.4805e+07,1,0.0042442,0.0010628,0.0025236,-0.29088,-0.11287,-9.7384,0,0,45.594,1,1,755,999
7296,1.4807e+07,1,0.0028839,-0.0015878,0.0013267,-0.31135,-0.11793,-9.7791,0,0,45.594,1,1,755,999
7327,1.481e+07,1,0.0036986,-0.00031709,0.00083434,-0.33566,-0.1307,-9.8362,0,0,45.594,1,1,755,999
7331,1.4812e+07,1,0.0031325,0.0025516,0.00085792,-0.33649,-0.14713,-9.8742,0,0,45.594,1,1,755,999
7334,1.4815e+07,1,0.0015224,0.0047945,0.0021892,-0.32615,-0.16089,-9.8801,0,0,45.594,1,1,755,999
7337,1.4817e+07,1,0.0028223,0.0058361,0.0034355,-0.30227,-0.17768,-9.8748,0,0,45.594,1,1,755,999
7368,1.482e+07,1,0.0043617,0.0080857,0.0045458,-0.28897,-0.18312,-9.8676,0,0,45.594,1,1,755,999
7372,1.4823e+07,1,0.0028935,0.010558,0.0045456,-0.27537,-0.18653,-9.8594,0,0,45.594,1,1,755,999
7375,1.4824e+07,1,0.0015258,0.010423,0.0052903,-0.26529,-0.18851,-9.855,0,0,45.594,1,1,755,999
7378,1.4827e+07,1,-5.6862e-05,0.0062189,0.0076069,-0.26485,-0.17888,-9.8566,0,0,45.594,1,1,755,999
7409,1.483e+07,1,0.00024652,0.0048631,0.0076781,-0.26977,-0.15904,-9.855,0,0,45.594,1,1,755,999
7412,1.4833e+07,1,0.0016708,0.0022858,0.0066407,-0.27452,-0.12221,-9.8586,0,0,45.594,1,1,755,999
7415,1.4835e+07,1,0.0056249,0.00053993,0.005116,-0.26669,-0.10875,-9.8571,0,0,45.594,1,1,755,999
7418,1.4837e+07,1,0.0098343,0.00057518,0.0035338,-0.25156,-0.09627,-9.8325,0,0,45.594,1,1,755,999
7449,1.484e+07,1,0.012923,0.0029177,0.0030059,-0.24083,-0.084425,-9.8111,0,0,45.594,1,1,755,999
7453,1.4842e+07,1,0.01715,0.0017544,0.0051687,-0.22448,-0.079319,-9.7472,0,0,45.594,1,1,755,999
7457,1.4845e+07,1,0.020312,0.00035508,0.0054748,-0.20289,-0.085594,-9.6897,0,0,45.594,1,1,755,999
7460,1.4848e+07,1,0.031254,0.0020478,0.0017658,-0.14109,-0.10919,-9.618,0,0,45.594,1,1,755,999
7495,1.4851e+07,1,0.038257,0.0052335,1.611e-05,-0.073669,-0.15877,-9.565,0,0,45.594,1,1,755,999
7498,1.4852e+07,1,0.047338,0.010078,-0.0032834,-0.026357,-0.20852,-9.5227,0,0,45.594,1,1,755,999
7502,1.4855e+07,1,0.059497,0.014081,-0.010062,0.054606,-0.31024,-9.4555,0,0,45.594,1,1,755,999
7505,1.4858e+07,1,0.064487,0.014072,-0.014894,0.11677,-0.399,-9.4187,0,0,45.594,1,1,755,999
7538,1.4861e+07,1,0.064711,0.01207,-0.031812,0.17414,-0.52304,-9.3954,0,0,45.594,1,1,755,999
7542,1.4863e+07,1,0.061061,0.012548,-0.036816,0.18193,-0.58879,-9.4096,0,0,45.594,1,1,755,999
7545,1.4865e+07,1,0.054325,0.015041,-0.042643,0.14758,-0.65972,-9.4635,0,0,45.594,1,1,755,999
7548,1.4868e+07,1,0.054072,0.015715,-0.044334,0.092423,-0.68023,-9.5179,0,0,45.594,1,1,755,999
7579,1.4871e+07,1,0.055743,0.014211,-0.045628,-0.028692,-0.66692,-9.6053,0,0,45.594,1,1,755,999
7582,1.4873e+07,1,0.050464,0.01177,-0.044927,-0.11108,-0.61932,-9.6571,0,0,45.594,1,1,755,999
7585,1.4875e+07,1,0.042925,0.0075989,-0.043984,-0.23639,-0.48301,-9.7326,0,0,45.594,1,1,755,999
7588,1.4878e+07,1,0.042892,0.0059224,-0.043383,-0.31185,-0.37138,-9.7711,0,0,45.594,1,1,755,999
7619,1.4882e+07,1,0.054246,0.0025909,-0.035211,-0.36634,-0.21984,-9.8504,0,0,45.594,1,1,755,999
7622,1.4884e+07,1,0.060364,-0.0035637,-0.027942,-0.35283,-0.078098,-9.9485,0,0,45.594,1,1,755,999
7626,1.4886e+07,1,0.062696,-0.0099714,-0.024376,-0.33144,0.011965,-10.001,0,0,45.594,1,1,755,999
7630,1.4888e+07,1,0.070411,-0.011753,-0.021724,-0.2756,0.094817,-10.059,0,0,45.594,1,1,755,999
7661,1.4891e+07,1,0.075174,-0.011635,-0.019573,-0.21518,0.099371,-10.093,0,0,45.594,1,1,755,999
7664,1.4894e+07,1,0.077044,-0.0093087,-0.016747,-0.1394,0.034469,-10.145,0,0,45.594,1,1,755,999
7668,1.4898e+07,1,0.050868,-0.00025439,-0.017675,-0.11503,-0.11845,-10.158,0,0,45.594,1,1,755,999
7699,1.4901e+07,1,0.042379,-0.0075546,-0.017491,-0.13505,-0.21412,-10.111,0,0,45.594,1,1,755,999
7703,1.4904e+07,1,0.038281,-0.013492,-0.016011,-0.17655,-0.28155,-10.06,0,0,45.594,1,1,755,999
7706,1.4907e+07,1,0.0216,-0.021656,-0.012449,-0.27097,-0.35166,-9.9918,0,0,45.594,1,1,755,999
7709,1.491e+07,1,-0.0003805,-0.025568,-0.0079416,-0.31519,-0.3616,-9.9501,0,0,45.594,1,1,755,999
7712,1.4911e+07,1,-0.012812,-0.030713,-0.0022253,-0.35861,-0.32212,-9.9003,0,0,45.594,1,1,755,999
7743,1.4913e+07,1,-0.013549,-0.033537,0.002567,-0.37821,-0.27269,-9.8834,0,0,45.594,1,1,755,999
7747,1.4916e+07,1,-0.0096554,-0.030519,0.0070263,-0.36851,-0.19315,-9.8728,0,0,45.594,1,1,755,999
7750,1.4919e+07,1,-0.0090725,-0.028853,0.0089617,-0.33982,-0.14328,-9.8618,0,0,45.594,1,1,755,999
7753,1.4922e+07,1,-0.018276,-0.02987,0.009787,-0.31931,-0.064398,-9.8374,0,0,45.594,1,1,755,999
