LineNo,TimeUS,C,Roll,Pitch,Yaw,VN,VE,VD,dPD,PN,PE,PD,GX,GY,GZ,OH
192,1.2923e+07,0,1.45,-0.89,6.25,0.0049475,-0.01425,0.075703,-0.34252,0,0,0.64448,0,-0.01,-0.19,0
988,1.3118e+07,0,1.45,-0.89,6.37,0.0038241,-0.014226,0.047303,-0.21577,0,0,0.59658,0,-0.01,-0.2,0
1100,1.3166e+07,0,1.46,-0.89,6.39,0.0043657,-0.013816,-0.0048061,-0.21684,0,0,0.58893,-0.01,-0.01,-0.21,0
1486,1.3333e+07,0,1.46,-0.89,6.45,0.0031151,-0.013899,-0.3226,-0.48871,0,0,0.52429,-0.01,-0.01,-0.2,0
1562,1.3344e+07,0,1.46,-0.89,6.46,0.003312,-0.014124,-0.32431,-0.50224,0,0,0.51737,-0.01,-0.01,-0.2,0
1603,1.3355e+07,0,1.45,-0.89,6.47,0.0033145,-0.0141,-0.32449,-0.51633,0,0,0.51413,-0.01,-0.01,-0.2,0
1643,1.3365e+07,0,1.45,-0.89,6.48,0.0033283,-0.014001,-0.32602,-0.52764,0,0,0.50767,-0.01,-0.01,-0.2,0
1687,1.3375e+07,0,1.45,-0.89,6.48,0.003455,-0.013714,-0.3285,-0.54178,0,0,0.49904,-0.01,-0.01,-0.2,0
1728,1.3386e+07,0,1.45,-0.89,6.49,0.0033914,-0.013682,-0.33099,-0.56327,0,0,0.49057,-0.01,-0.01,-0.23,0
1768,1.3396e+07,0,1.45,-0.89,6.51,0.0034017,-0.013407,-0.33346,-0.58353,0,0,0.48266,-0.01,-0.01,-0.23,0
1811,1.3407e+07,0,1.45,-0.89,6.52,0.0035649,-0.013073,-0.33567,-0.60753,0,0,0.47462,-0.01,-0.01,-0.23,0
1855,1.3417e+07,0,1.45,-0.89,6.53,0.0034952,-0.013031,-0.33757,-0.62358,0,0,0.4671,-0.01,-0.01,-0.23,0
1896,1.3428e+07,0,1.45,-0.89,6.55,0.0035273,-0.013207,-0.33779,-0.64136,0,0,0.46373,-0.01,-0.01,-0.23,0
1936,1.3438e+07,0,1.45,-0.9,6.56,0.0034811,-0.013034,-0.33999,-0.65561,0,0,0.45604,-0.01,-0.01,-0.23,0
1977,1.3449e+07,0,1.46,-0.9,6.57,0.0033395,-0.012765,-0.34184,-0.66716,0,0,0.44887,-0.01,-0.01,-0.23,0
2016,1.3459e+07,0,1.46,-0.9,6.59,0.0030495,-0.012503,-0.34279,-0.67224,0,0,0.44297,-0.01,-0.01,-0.24,0
2057,1.3469e+07,0,1.46,-0.9,6.6,0.0029098,-0.01237,-0.34373,-0.67046,0,0,0.43753,-0.01,-0.01,-0.24,0
2098,1.348e+07,0,1.46,-0.9,6.62,0.002764,-0.012028,-0.3447,-0.66247,0,0,0.43218,-0.01,-0.01,-0.24,0
2138,1.349e+07,0,1.46,-0.9,6.64,0.0027712,-0.01191,-0.34547,-0.65066,0,0,0.42693,-0.01,-0.01,-0.25,0
2180,1.35e+07,0,1.46,-0.89,6.65,0.0024334,-0.011813,-0.34591,-0.63601,0,0,0.42143,-0.01,-0.01,-0.25,0
2221,1.3511e+07,0,1.47,-0.89,6.66,0.0023627,-0.011952,-0.34603,-0.62209,0,0,0.41798,-0.01,-0.01,-0.25,0
2266,1.3521e+07,0,1.47,-0.89,6.68,0.0022407,-0.011949,-0.3468,-0.60617,0,0,0.41291,-0.01,-0.01,-0.25,0
2307,1.3531e+07,0,1.47,-0.89,6.69,0.0022565,-0.011894,-0.34765,-0.58977,0,0,0.40793,-0.01,-0.01,-0.25,0
2347,1.3541e+07,0,1.47,-0.89,6.7,0.0024021,-0.011951,-0.34827,-0.57204,0,0,0.40268,-0.01,-0.01,-0.25,0
2387,1.3551e+07,0,1.47,-0.89,6.71,0.0023489,-0.011778,-0.34932,-0.55658,0,0,0.3975,-0.01,-0.01,-0.25,0
2431,1.3564e+07,0,1.47,-0.89,6.73,0.0023482,-0.011578,-0.35038,-0.5397,0,0,0.39136,-0.01,-0.01,-0.26,0
2475,1.3577e+07,0,1.47,-0.89,6.75,0.0023157,-0.011515,-0.35102,-0.52325,0,0,0.38529,-0.01,-0.01,-0.26,0
2516,1.3587e+07,0,1.47,-0.89,6.76,0.0024495,-0.011306,-0.35164,-0.51143,0,0,0.38036,-0.01,-0.01,-0.26,0
2556,1.3598e+07,0,1.47,-0.89,6.77,0.0024666,-0.011003,-0.35251,-0.50108,0,0,0.37551,-0.01,-0.01,-0.26,0
2599,1.3608e+07,0,1.47,-0.89,6.78,0.0024883,-0.011018,-0.35286,-0.48935,0,0,0.37037,-0.01,-0.01,-0.26,0
2644,1.3619e+07,0,1.47,-0.89,6.79,0.0025751,-0.010984,-0.35288,-0.4803,0,0,0.36685,-0.01,-0.01,-0.26,0
2685,1.3629e+07,0,1.47,-0.89,6.8,0.0025034,-0.010644,-0.35348,-0.4703,0,0,0.36178,-0.01,-0.01,-0.26,0
2725,1.3639e+07,0,1.47,-0.89,6.81,0.0025973,-0.010603,-0.35395,-0.46133,0,0,0.35712,-0.01,-0.01,-0.26,0
2766,1.365e+07,0,1.47,-0.89,6.82,0.0028734,-0.010605,-0.35467,-0.45272,0,0,0.35253,-0.01,-0.01,-0.26,0
2809,1.3666e+07,0,1.47,-0.89,6.83,0.0031942,-0.010632,-0.35609,-0.4425,0,0,0.34473,-0.02,-0.01,-0.28,0
2849,1.3676e+07,0,1.47,-0.89,6.85,0.0032427,-0.01046,-0.35708,-0.44034,0,0,0.33951,-0.02,-0.01,-0.29,0
2891,1.3686e+07,0,1.47,-0.89,6.86,0.003143,-0.010197,-0.3576,-0.43908,0,0,0.33437,-0.02,-0.01,-0.29,0
2931,1.3697e+07,0,1.47,-0.89,6.88,0.0028906,-0.010007,-0.35831,-0.43942,0,0,0.32933,-0.02,-0.01,-0.29,0
2972,1.3707e+07,0,1.47,-0.89,6.89,0.0027975,-0.0099289,-0.3593,-0.44015,0,0,0.32435,-0.02,-0.01,-0.29,0
3014,1.3717e+07,0,1.47,-0.9,6.9,0.0028127,-0.0098783,-0.35981,-0.44147,0,0,0.3191,-0.02,-0.01,-0.29,0
3059,1.3728e+07,0,1.47,-0.9,6.91,0.0027519,-0.0098503,-0.35975,-0.44301,0,0,0.3155,-0.02,-0.01,-0.29,0
3100,1.3738e+07,0,1.47,-0.9,6.92,0.0024459,-0.0095582,-0.36057,-0.44363,0,0,0.31031,-0.02,-0.01,-0.29,0
3140,1.3748e+07,0,1.47,-0.9,6.93,0.0023609,-0.0093116,-0.36121,-0.44406,0,0,0.30554,-0.02,-0.01,-0.29,0
3181,1.3758e+07,0,1.47,-0.9,6.94,0.0022985,-0.0089643,-0.36177,-0.44306,0,0,0.30121,-0.02,-0.01,-0.29,0
3221,1.3772e+07,0,1.48,-0.9,6.95,0.0019909,-0.0090052,-0.36244,-0.43989,0,0,0.29585,-0.02,-0.01,-0.32,0
3262,1.3782e+07,0,1.48,-0.9,6.97,0.0019693,-0.0088832,-0.36284,-0.43602,0,0,0.29161,-0.02,-0.01,-0.32,0
3305,1.3792e+07,0,1.48,-0.9,6.98,0.0018844,-0.0086538,-0.36308,-0.43102,0,0,0.28705,-0.02,-0.01,-0.32,0
3345,1.3802e+07,0,1.48,-0.9,7,0.001821,-0.0084618,-0.36323,-0.42577,0,0,0.2829,-0.02,-0.01,-0.32,0
3387,1.3812e+07,0,1.48,-0.89,7.01,0.0019606,-0.0084819,-0.36355,-0.42009,0,0,0.27879,-0.02,-0.01,-0.32,0
3428,1.3822e+07,0,1.48,-0.89,7.02,0.002041,-0.0085387,-0.36362,-0.4148,0,0,0.27515,-0.02,-0.01,-0.32,0
3473,1.3832e+07,0,1.48,-0.89,7.04,0.0020639,-0.0084744,-0.36384,-0.40942,0,0,0.27107,-0.02,-0.01,-0.32,0
3515,1.3842e+07,0,1.48,-0.89,7.05,0.0020318,-0.008244,-0.36389,-0.40411,0,0,0.26703,-0.02,-0.01,-0.32,0
3557,1.3853e+07,0,1.48,-0.89,7.06,0.0021842,-0.0082687,-0.36418,-0.39915,0,0,0.26303,-0.02,-0.01,-0.32,0
3598,1.3863e+07,0,1.48,-0.89,7.08,0.0021311,-0.0080355,-0.36416,-0.39368,0,0,0.25952,-0.02,-0.01,-0.32,0
3638,1.3875e+07,0,1.48,-0.89,7.09,0.0022836,-0.0075954,-0.36405,-0.38483,0,0,0.25494,-0.02,-0.01,-0.33,0
3678,1.3885e+07,0,1.48,-0.89,7.1,0.0022404,-0.0077615,-0.36404,-0.37682,0,0,0.25094,-0.02,-0.01,-0.33,0
3719,1.3895e+07,0,1.48,-0.89,7.12,0.002303,-0.007618,-0.36402,-0.36959,0,0,0.24745,-0.02,-0.01,-0.33,0
3759,1.3905e+07,0,1.48,-0.89,7.13,0.0024287,-0.0073793,-0.36361,-0.36215,0,0,0.24398,-0.02,-0.01,-0.33,0
3800,1.3915e+07,0,1.48,-0.89,7.14,0.002404,-0.0069726,-0.36343,-0.35537,0,0,0.24052,-0.02,-0.01,-0.33,0
3846,1.3925e+07,0,1.48,-0.89,7.15,0.0026235,-0.0069966,-0.36312,-0.34893,0,0,0.23708,-0.02,-0.01,-0.33,0
3887,1.3936e+07,0,1.48,-0.89,7.16,0.0025958,-0.0068664,-0.36316,-0.34266,0,0,0.23329,-0.02,-0.01,-0.33,0
3927,1.3947e+07,0,1.48,-0.89,7.17,0.0027011,-0.0066772,-0.36343,-0.33719,0,0,0.22952,-0.02,-0.01,-0.33,0
3968,1.3957e+07,0,1.48,-0.89,7.18,0.0026166,-0.0067743,-0.36357,-0.33254,0,0,0.22589,-0.02,-0.01,-0.33,0
4010,1.3968e+07,0,1.48,-0.89,7.19,0.0027884,-0.0067517,-0.36384,-0.3284,0,0,0.22212,-0.02,-0.01,-0.33,0
4044,1.3979e+07,0,1.48,-0.89,7.2,0.0029357,-0.0067541,-0.36381,-0.32457,0,0,0.21842,-0.02,-0.01,-0.35,0
4085,1.3989e+07,0,1.48,-0.89,7.21,0.0030647,-0.0065979,-0.36383,-0.32139,0,0,0.21509,-0.02,-0.01,-0.35,0
4126,1.3999e+07,0,1.48,-0.89,7.22,0.0030929,-0.0066877,-0.36387,-0.31863,0,0,0.21177,-0.02,-0.01,-0.35,0
4166,1.4009e+07,0,1.48,-0.89,7.24,0.0028657,-0.006728,-0.36384,-0.31641,0,0,0.20845,-0.02,-0.01,-0.35,0
4207,1.4019e+07,0,1.48,-0.89,7.25,0.0028941,-0.0067108,-0.36366,-0.31399,0,0,0.20482,-0.02,-0.01,-0.35,0
4254,1.403e+07,0,1.48,-0.89,7.26,0.0028763,-0.0065477,-0.36383,-0.31253,0,0,0.20151,-0.02,-0.01,-0.35,0
4294,1.404e+07,0,1.48,-0.89,7.27,0.0029911,-0.0064241,-0.36377,-0.31119,0,0,0.19784,-0.02,-0.01,-0.35,0
4335,1.405e+07,0,1.49,-0.89,7.28,0.003075,-0.006093,-0.36393,-0.31049,0,0,0.19454,-0.02,-0.01,-0.35,0
4378,1.406e+07,0,1.49,-0.89,7.29,0.0032451,-0.0059242,-0.36402,-0.3102,0,0,0.19124,-0.02,-0.01,-0.35,0
4419,1.407e+07,0,1.49,-0.89,7.3,0.003405,-0.0058938,-0.36416,-0.30974,0,0,0.1876,-0.02,-0.01,-0.35,0
4456,1.4081e+07,0,1.49,-0.89,7.31,0.0035256,-0.0058345,-0.36403,-0.30824,0,0,0.18467,-0.02,-0.01,-0.36,0
4498,1.4091e+07,0,1.49,-0.89,7.32,0.0033812,-0.0058134,-0.36381,-0.30577,0,0,0.18174,-0.02,-0.01,-0.36,0
4538,1.4101e+07,0,1.49,-0.89,7.33,0.0034008,-0.0055242,-0.36375,-0.30324,0,0,0.17879,-0.02,-0.01,-0.36,0
4580,1.4111e+07,0,1.49,-0.89,7.34,0.003412,-0.0052728,-0.36402,-0.30141,0,0,0.17584,-0.02,-0.01,-0.36,0
4621,1.4121e+07,0,1.49,-0.89,7.35,0.0033819,-0.005311,-0.36372,-0.29913,0,0,0.17287,-0.02,-0.01,-0.36,0
4665,1.4131e+07,0,1.49,-0.89,7.36,0.0033608,-0.0054074,-0.36383,-0.29658,0,0,0.16924,-0.02,-0.01,-0.36,0
4706,1.4141e+07,0,1.49,-0.89,7.37,0.003352,-0.005369,-0.36378,-0.29453,0,0,0.1659,-0.02,-0.01,-0.36,0
4747,1.4151e+07,0,1.49,-0.89,7.38,0.0034261,-0.0050595,-0.36365,-0.29314,0,0,0.16292,-0.02,-0.01,-0.36,0
4788,1.4161e+07,0,1.49,-0.89,7.39,0.0033034,-0.0048434,-0.36358,-0.29209,0,0,0.15993,-0.02,-0.01,-0.36,0
4828,1.4174e+07,0,1.49,-0.89,7.41,0.0034004,-0.0044964,-0.36282,-0.28948,0,0,0.15684,-0.02,-0.01,-0.37,0
4866,1.4184e+07,0,1.49,-0.89,7.42,0.0032123,-0.0043397,-0.36198,-0.28553,0,0,0.1548,-0.02,-0.01,-0.37,0
4907,1.4194e+07,0,1.49,-0.89,7.43,0.0030176,-0.0042753,-0.36195,-0.27849,0,0,0.15118,-0.02,-0.01,-0.37,0
4947,1.4205e+07,0,1.49,-0.89,7.44,0.0030631,-0.0042761,-0.36169,-0.27113,0,0,0.14874,-0.02,-0.01,-0.37,0
4988,1.4215e+07,0,1.49,-0.89,7.44,0.0033708,-0.0043723,-0.361,-0.26422,0,0,0.14663,-0.02,-0.01,-0.37,0
5028,1.4225e+07,0,1.49,-0.89,7.45,0.0033936,-0.0043396,-0.36032,-0.25742,0,0,0.14447,-0.02,-0.01,-0.37,0
5074,1.4235e+07,0,1.49,-0.89,7.46,0.0035988,-0.0042676,-0.35982,-0.252,0,0,0.14228,-0.02,-0.01,-0.37,0
5115,1.4245e+07,0,1.49,-0.89,7.47,0.0038546,-0.0042226,-0.36002,-0.24583,0,0,0.13869,-0.02,-0.01,-0.37,0
5156,1.4256e+07,0,1.49,-0.89,7.47,0.0036921,-0.0042395,-0.35961,-0.24051,0,0,0.13611,-0.02,-0.01,-0.37,0
5198,1.4266e+07,0,1.49,-0.89,7.48,0.0035502,-0.0043038,-0.35941,-0.23708,0,0,0.13385,-0.02,-0.01,-0.37,0
5236,1.4276e+07,0,1.49,-0.89,7.49,0.0036944,-0.0041626,-0.35841,-0.23263,0,0,0.1325,-0.02,-0.01,-0.38,0
5280,1.4287e+07,0,1.49,-0.89,7.49,0.0037541,-0.004115,-0.3575,-0.22541,0,0,0.13109,-0.02,-0.01,-0.38,0
5320,1.4297e+07,0,1.48,-0.89,7.5,0.0037737,-0.0042064,-0.35655,-0.21716,0,0,0.12926,-0.02,-0.01,-0.38,0
5361,1.4307e+07,0,1.48,-0.89,7.52,0.0034366,-0.0040235,-0.35682,-0.20837,0,0,0.1257,-0.02,-0.01,-0.38,0
5401,1.4318e+07,0,1.49,-0.89,7.53,0.0031703,-0.0038205,-0.35617,-0.20021,0,0,0.12382,-0.02,-0.01,-0.38,0
5442,1.4329e+07,0,1.49,-0.89,7.53,0.0029465,-0.0038153,-0.35545,-0.19248,0,0,0.12223,-0.02,-0.01,-0.38,0
5487,1.4339e+07,0,1.49,-0.89,7.54,0.0027554,-0.0037281,-0.35467,-0.18843,0,0,0.1206,-0.02,-0.01,-0.38,0
5527,1.4349e+07,0,1.49,-0.89,7.55,0.0024691,-0.0035597,-0.3538,-0.18487,0,0,0.11891,-0.02,-0.01,-0.38,0
5568,1.4359e+07,0,1.49,-0.89,7.56,0.0022922,-0.0034641,-0.35301,-0.18019,0,0,0.11682,-0.02,-0.01,-0.38,0
5613,1.4373e+07,0,1.49,-0.89,7.57,0.0021589,-0.0032626,-0.35169,-0.17351,0,0,0.11527,-0.02,-0.01,-0.38,0
5657,1.4388e+07,0,1.49,-0.89,7.58,0.0020043,-0.0029636,-0.3507,-0.16015,0,0,0.11259,-0.02,-0.01,-0.4,0
5697,1.4398e+07,0,1.49,-0.89,7.59,0.0018328,-0.0028768,-0.3495,-0.15266,0,0,0.11193,-0.02,-0.01,-0.4,0
5738,1.4409e+07,0,1.49,-0.89,7.6,0.001769,-0.0028829,-0.34839,-0.14472,0,0,0.11084,-0.02,-0.01,-0.4,0
5781,1.442e+07,0,1.49,-0.89,7.61,0.0017411,-0.0027344,-0.3485,-0.13574,0,0,0.10736,-0.02,-0.01,-0.4,0
5821,1.443e+07,0,1.49,-0.88,7.62,0.0017683,-0.0027145,-0.34759,-0.1282,0,0,0.10619,-0.02,-0.01,-0.4,0
5866,1.444e+07,0,1.49,-0.88,7.62,0.0018101,-0.0027845,-0.34669,-0.12307,0,0,0.10529,-0.02,-0.01,-0.4,0
5909,1.445e+07,0,1.49,-0.88,7.63,0.0017461,-0.0028543,-0.3456,-0.1186,0,0,0.10432,-0.02,-0.01,-0.4,0
5950,1.446e+07,0,1.49,-0.88,7.64,0.0020119,-0.0026378,-0.34433,-0.11632,0,0,0.10327,-0.02,-0.01,-0.4,0
5991,1.447e+07,0,1.49,-0.88,7.65,0.0022022,-0.0026133,-0.34441,-0.11297,0,0,0.099826,-0.02,-0.01,-0.4,0
6031,1.4481e+07,0,1.49,-0.88,7.66,0.0022568,-0.0027436,-0.3435,-0.11168,0,0,0.098712,-0.02,-0.01,-0.4,0
6070,1.4491e+07,0,1.49,-0.88,7.67,0.0024099,-0.002712,-0.34194,-0.10885,0,0,0.098522,-0.02,-0.01,-0.42,0
6111,1.4501e+07,0,1.49,-0.88,7.68,0.002433,-0.0024817,-0.3406,-0.10243,0,0,0.097889,-0.02,-0.01,-0.42,0
6151,1.4511e+07,0,1.49,-0.89,7.7,0.0025108,-0.0024292,-0.3395,-0.096769,0,0,0.0975,-0.02,-0.01,-0.42,0
6192,1.4521e+07,0,1.49,-0.89,7.71,0.0026332,-0.0025594,-0.33951,-0.093046,0,0,0.094108,-0.02,-0.01,-0.42,0
6232,1.4531e+07,0,1.49,-0.89,7.72,0.0026584,-0.002515,-0.33799,-0.090065,0,0,0.093645,-0.02,-0.01,-0.42,0
6277,1.4542e+07,0,1.49,-0.89,7.73,0.0026647,-0.0022804,-0.33673,-0.087345,0,0,0.093091,-0.02,-0.01,-0.42,0
6317,1.4552e+07,0,1.49,-0.89,7.74,0.0025344,-0.0021944,-0.33535,-0.086332,0,0,0.092452,-0.02,-0.01,-0.42,0
6359,1.4562e+07,0,1.49,-0.89,7.75,0.0023902,-0.0020556,-0.33446,-0.086273,0,0,0.091728,-0.02,-0.01,-0.42,0
6400,1.4572e+07,0,1.49,-0.89,7.76,0.0021778,-0.0020399,-0.33444,-0.084185,0,0,0.088387,-0.02,-0.01,-0.42,0
6441,1.4584e+07,0,1.49,-0.89,7.78,0.0018573,-0.0020665,-0.33344,-0.085113,0,0,0.086594,-0.02,-0.01,-0.42,0
6479,1.4595e+07,0,1.49,-0.88,7.79,0.0017071,-0.0021446,-0.33174,-0.082055,0,0,0.087131,-0.03,-0.01,-0.41,0
6519,1.4605e+07,0,1.49,-0.88,7.79,0.0015913,-0.0021224,-0.33011,-0.076387,0,0,0.087536,-0.03,-0.01,-0.42,0
6560,1.4615e+07,0,1.49,-0.88,7.8,0.0014115,-0.0020489,-0.32865,-0.066983,0,0,0.087486,-0.03,-0.01,-0.42,0
6601,1.4625e+07,0,1.49,-0.88,7.81,0.0013196,-0.0020418,-0.32695,-0.058672,0,0,0.087659,-0.03,-0.01,-0.42,0
6642,1.4635e+07,0,1.49,-0.88,7.82,0.0012875,-0.0020144,-0.32553,-0.053404,0,0,0.087721,-0.03,-0.01,-0.42,0
6687,1.4646e+07,0,1.49,-0.88,7.83,0.0012493,-0.0019467,-0.32392,-0.045502,0,0,0.08735,-0.03,-0.01,-0.42,0
6729,1.4656e+07,0,1.49,-0.88,7.84,0.0012807,-0.0018909,-0.32382,-0.038365,0,0,0.084438,-0.03,-0.01,-0.42,0
6770,1.4666e+07,0,1.49,-0.88,7.85,0.0012849,-0.0021334,-0.32237,-0.032699,0,0,0.083981,-0.03,-0.01,-0.42,0
6813,1.4676e+07,0,1.49,-0.88,7.85,0.0012901,-0.0022639,-0.321,-0.029302,0,0,0.083752,-0.03,-0.01,-0.42,0
6853,1.4689e+07,0,1.49,-0.88,7.86,0.00112,-0.0022724,-0.31946,-0.027827,0,0,0.083244,-0.03,-0.01,-0.43,0
6894,1.4699e+07,0,1.49,-0.88,7.87,0.0012439,-0.0022938,-0.31788,-0.028154,0,0,0.083272,-0.03,-0.01,-0.43,0
6934,1.4709e+07,0,1.49,-0.88,7.88,0.0012108,-0.0022876,-0.31673,-0.029152,0,0,0.083191,-0.03,-0.01,-0.43,0
6975,1.4719e+07,0,1.49,-0.88,7.88,0.001213,-0.002359,-0.31544,-0.028051,0,0,0.082689,-0.03,-0.01,-0.43,0
7015,1.473e+07,0,1.49,-0.88,7.89,0.0013662,-0.0023959,-0.31551,-0.026501,0,0,0.079538,-0.03,-0.01,-0.43,0
7057,1.474e+07,0,1.49,-0.88,7.9,0.0015554,-0.0023667,-0.31428,-0.027447,0,0,0.079271,-0.03,-0.01,-0.43,0
7101,1.475e+07,0,1.49,-0.88,7.9,0.0016605,-0.002286,-0.31294,-0.032955,0,0,0.078602,-0.03,-0.01,-0.42,0
7142,1.4761e+07,0,1.49,-0.88,7.91,0.0016017,-0.0021704,-0.31171,-0.037193,0,0,0.078154,-0.03,-0.01,-0.43,0
7183,1.4771e+07,0,1.49,-0.89,7.92,0.0017387,-0.0021318,-0.31049,-0.043034,0,0,0.077311,-0.03,-0.01,-0.43,0
7226,1.4782e+07,0,1.49,-0.89,7.92,0.0017098,-0.0020781,-0.31031,-0.046839,0,0,0.07421,-0.03,-0.01,-0.43,0
7264,1.4795e+07,0,1.49,-0.88,7.94,0.0013646,-0.0020669,-0.30758,-0.053239,0,0,0.076386,-0.03,-0.01,-0.43,0
7305,1.4806e+07,0,1.49,-0.88,7.94,0.0013027,-0.0019572,-0.30611,-0.05145,0,0,0.076218,-0.03,-0.01,-0.43,0
7346,1.4816e+07,0,1.49,-0.88,7.95,0.0012991,-0.0019894,-0.30591,-0.047481,0,0,0.073161,-0.03,-0.01,-0.43,0
7387,1.4826e+07,0,1.49,-0.88,7.96,0.001208,-0.0019439,-0.30488,-0.045812,0,0,0.073207,-0.03,-0.01,-0.43,0
7427,1.4836e+07,0,1.5,-0.88,7.97,0.0014348,-0.0016649,-0.30312,-0.043937,0,0,0.073148,-0.03,-0.01,-0.43,0
7469,1.4846e+07,0,1.52,-0.89,7.97,0.004724,-0.0023388,-0.29762,-0.039151,0,0,0.07302,-0.03,-0.01,-0.43,0
7514,1.4857e+07,0,1.55,-0.88,7.96,0.011576,-0.0073043,-0.29312,-0.035176,0,0,0.072831,-0.03,-0.01,-0.43,0
7557,1.4867e+07,0,1.58,-0.89,7.95,0.012803,-0.012637,-0.29329,-0.037335,0,0,0.07256,-0.03,-0.01,-0.44,0
7597,1.4877e+07,0,1.61,-0.89,7.93,0.0096196,-0.010514,-0.29411,-0.037895,0,0,0.069628,-0.03,-0.01,-0.44,0
7639,1.4887e+07,0,1.65,-0.9,7.93,0.012597,-0.00719,-0.2973,-0.042416,0,0,0.069673,-0.03,-0.01,-0.43,0
7677,1.4897e+07,0,1.68,-0.91,7.92,0.014923,-0.0099883,-0.3001,-0.046733,0,0,0.06986,-0.03,-0.01,-0.44,0
7721,1.491e+07,0,1.68,-0.94,7.93,0.011974,-0.012017,-0.30036,-0.048583,0,0,0.06902,-0.03,-0.01,-0.44,0
7762,1.492e+07,0,1.67,-0.95,7.95,0.012861,-0.0079887,-0.29944,-0.049118,0,0,0.068966,-0.03,-0.01,-0.44,0
7802,1.4931e+07,0,1.65,-0.97,7.97,0.007901,-0.0057725,-0.29722,-0.047491,0,0,0.068807,-0.03,-0.01,-0.45,0
7843,1.4941e+07,0,1.63,-0.98,7.99,0.00091458,-0.004566,-0.29187,-0.043787,0,0,0.068586,-0.03,-0.01,-0.45,0
7892,1.4954e+07,0,1.6,-0.98,8.03,0.001266,0.00019641,-0.28715,-0.038545,0,0,0.067445,-0.03,-0.01,-0.45,0
7932,1.4964e+07,0,1.57,-0.97,8.05,-0.00092686,0.002616,-0.28396,-0.038043,0,0,0.067108,-0.03,-0.01,-0.45,0
7973,1.4974e+07,0,1.55,-0.96,8.07,-0.0048513,0.0023943,-0.28612,-0.042353,0,0,0.066402,-0.03,-0.01,-0.45,0
8013,1.4984e+07,0,1.53,-0.95,8.07,-0.005199,0.00037041,-0.29267,-0.049956,0,0,0.063519,-0.03,-0.01,-0.45,0
8055,1.4995e+07,0,1.52,-0.94,8.07,-0.0094195,-0.0051006,-0.29347,-0.047168,0,0,0.065414,-0.03,-0.01,-0.45,0
8094,1.5005e+07,0,1.53,-0.92,8.08,-0.014642,-0.012804,-0.29192,-0.038301,0,0,0.067416,-0.03,-0.01,-0.46,0
8134,1.5015e+07,0,1.54,-0.9,8.08,-0.01204,-0.023236,-0.28795,-0.025979,0,0,0.06927,-0.03,-0.01,-0.46,0
8175,1.5026e+07,0,1.55,-0.89,8.08,-0.01044,-0.035011,-0.28611,-0.013871,0,0,0.07096,-0.03,-0.01,-0.46,0
8215,1.5036e+07,0,1.54,-0.88,8.08,-0.015562,-0.044819,-0.28904,-0.00085072,0,0,0.07218,-0.03,-0.01,-0.46,0
8257,1.5046e+07,0,1.5,-0.86,8.09,-0.016901,-0.047677,-0.29899,0.0068409,0,0,0.069241,-0.03,-0.01,-0.46,0
8304,1.5057e+07,0,1.41,-0.83,8.13,-0.017533,-0.04558,-0.30104,0.01777,0,0,0.070174,-0.03,-0.01,-0.46,0
8346,1.5068e+07,0,1.3,-0.81,8.18,-0.020707,-0.043138,-0.29896,0.031194,0,0,0.071227,-0.03,-0.01,-0.46,0
8387,1.5078e+07,0,1.17,-0.78,8.25,-0.015345,-0.041506,-0.29519,0.043371,0,0,0.072165,-0.03,-0.01,-0.46,0
8427,1.5088e+07,0,1.02,-0.75,8.32,-0.0070898,-0.036002,-0.29229,0.049934,0,0,0.072992,-0.03,-0.01,-0.46,0
8466,1.5101e+07,0,0.8,-0.71,8.4,-0.0041646,-0.02129,-0.29705,0.0496,0,0,0.073234,-0.03,-0.01,-0.48,0
8508,1.5111e+07,0,0.64,-0.67,8.45,0.0048081,-0.0099588,-0.30428,0.041433,0,0,0.074413,-0.03,-0.01,-0.47,0
8548,1.5121e+07,0,0.48,-0.62,8.5,0.010452,-0.007585,-0.31668,0.034038,0,0,0.071315,-0.03,-0.01,-0.47,0
8590,1.5131e+07,0,0.29,-0.58,8.54,0.0099597,-0.0093638,-0.32591,0.025728,0,0,0.072144,-0.03,-0.01,-0.47,0
8630,1.5141e+07,0,0.07,-0.53,8.6,0.012399,-0.006944,-0.33584,0.016038,0,0,0.072726,-0.03,-0.01,-0.47,0
8671,1.5151e+07,0,-0.15,-0.5,8.67,0.012905,-0.0045199,-0.34687,0.0041201,0,0,0.073045,-0.03,-0.01,-0.47,0
8715,1.5161e+07,0,-0.4,-0.47,8.75,0.0072919,-0.0061805,-0.35465,-0.0077875,0,0,0.073134,-0.03,-0.01,-0.47,0
8756,1.5172e+07,0,-0.67,-0.44,8.84,0.0015048,-0.0071793,-0.36105,-0.014361,0,0,0.069561,-0.03,-0.01,-0.47,0
8796,1.5182e+07,0,-0.93,-0.42,8.93,-0.00097045,-0.0026295,-0.36493,-0.02253,0,0,0.069399,-0.03,-0.01,-0.47,0
8838,1.5192e+07,0,-1.19,-0.37,9.03,-0.0040206,-0.00017909,-0.37415,-0.036917,0,0,0.069051,-0.03,-0.01,-0.47,0
8877,1.5205e+07,0,-1.53,-0.32,9.18,-0.006505,-0.0034629,-0.3799,-0.048623,0,0,0.068711,-0.03,-0.01,-0.46,0
8918,1.5214e+07,0,-1.81,-0.27,9.33,-0.0032238,-0.00036509,-0.38958,-0.062118,0,0,0.069225,-0.03,-0.01,-0.46,0
8959,1.5225e+07,0,-2.08,-0.2,9.51,0.0010431,0.0072728,-0.40392,-0.078998,0,0,0.069066,-0.03,-0.01,-0.46,0
8999,1.5236e+07,0,-2.33,-0.13,9.72,0.0036907,0.0090731,-0.42059,-0.094098,0,0,0.06856,-0.03,-0.01,-0.46,0
9040,1.5246e+07,0,-2.57,-0.05,9.96,0.00794,0.010301,-0.43949,-0.10764,0,0,0.064264,-0.03,-0.01,-0.46,0
9083,1.5256e+07,0,-2.8,0.04,10.22,0.012307,0.016703,-0.45718,-0.12427,0,0,0.063681,-0.03,-0.01,-0.46,0
9128,1.5266e+07,0,-3.02,0.15,10.53,0.015917,0.024211,-0.47417,-0.14111,0,0,0.062768,-0.03,-0.01,-0.46,0
9171,1.5276e+07,0,-3.22,0.28,10.86,0.023554,0.029686,-0.4935,-0.16324,0,0,0.061535,-0.03,-0.01,-0.46,0
9211,1.5287e+07,0,-3.47,0.43,11.28,0.03519,0.037488,-0.51758,-0.19188,0,0,0.059445,-0.03,-0.01,-0.46,0
9252,1.5297e+07,0,-3.7,0.59,11.68,0.041856,0.050496,-0.5458,-0.22114,0,0,0.054128,-0.03,-0.01,-0.46,0
9287,1.5308e+07,0,-3.93,0.81,12.17,0.050044,0.065029,-0.57571,-0.25138,0,0,0.052904,-0.03,-0.01,-0.46,0
9329,1.5318e+07,0,-4.14,1.05,12.65,0.061397,0.076908,-0.6047,-0.27906,0,0,0.051753,-0.03,-0.01,-0.46,0
9370,1.5328e+07,0,-4.35,1.33,13.17,0.076683,0.090615,-0.63477,-0.30597,0,0,0.050119,-0.03,-0.01,-0.46,0
9412,1.5339e+07,0,-4.52,1.65,13.72,0.0914,0.10548,-0.66823,-0.3339,0,0,0.047969,-0.03,-0.01,-0.46,0
9452,1.5349e+07,0,-4.65,2,14.28,0.10113,0.12011,-0.70798,-0.36919,0,0,0.045284,-0.03,-0.01,-0.46,0
9493,1.5359e+07,0,-4.76,2.42,14.92,0.1149,0.13793,-0.75019,-0.40434,0,0,0.041291,-0.03,-0.01,-0.46,0
9537,1.537e+07,0,-4.79,2.83,15.54,0.12958,0.15263,-0.79507,-0.44113,0,0,0.033573,-0.03,-0.01,-0.46,0
9578,1.538e+07,0,-4.76,3.27,16.19,0.14248,0.16305,-0.83529,-0.47903,0,0,0.029308,-0.03,-0.01,-0.46,0
9618,1.539e+07,0,-4.68,3.73,16.87,0.15127,0.17243,-0.87783,-0.52129,0,0,0.024476,-0.03,-0.01,-0.46,0
9659,1.54e+07,0,-4.51,4.28,17.64,0.16191,0.18594,-0.92293,-0.56729,0,0,0.02025,-0.03,-0.01,-0.46,0
9696,1.5411e+07,0,-4.28,4.79,18.39,0.172,0.19673,-0.96734,-0.60611,0,0,0.016234,-0.03,-0.01,-0.47,0
9736,1.542e+07,0,-3.99,5.32,19.18,0.18274,0.2067,-1.0112,-0.64301,0,0,0.011568,-0.03,-0.01,-0.47,0
9777,1.543e+07,0,-3.63,5.86,20.01,0.19225,0.21795,-1.0596,-0.67727,0,0,0.0012251,-0.03,-0.01,-0.47,0
9818,1.544e+07,0,-3.19,6.4,20.87,0.20106,0.23512,-1.1012,-0.71027,0,0,-0.0045363,-0.03,-0.01,-0.47,0
9859,1.545e+07,0,-2.63,6.94,21.76,0.20977,0.25168,-1.1416,-0.74343,0,0,-0.01092,-0.03,-0.01,-0.47,0
9902,1.546e+07,0,-1.99,7.47,22.7,0.22326,0.26709,-1.1764,-0.77518,0,0,-0.017862,-0.03,-0.01,-0.47,0
9947,1.547e+07,0,-1.32,7.98,23.67,0.24134,0.28217,-1.2115,-0.80903,0,0,-0.025335,-0.03,-0.01,-0.47,0
9989,1.5481e+07,0,-0.55,8.51,24.78,0.26381,0.29551,-1.246,-0.8401,0,0,-0.034572,-0.03,-0.01,-0.47,0
10029,1.5491e+07,0,0.14,8.96,25.81,0.28458,0.30189,-1.2779,-0.86739,0,0,-0.047181,-0.03,-0.01,-0.47,0
10070,1.5501e+07,0,0.84,9.37,26.87,0.30294,0.30875,-1.3056,-0.89597,0,0,-0.056293,-0.03,-0.02,-0.47,0
10110,1.5511e+07,0,1.55,9.76,27.98,0.32133,0.31658,-1.3306,-0.92668,0,0,-0.065814,-0.03,-0.02,-0.48,0
10151,1.5522e+07,0,2.33,10.14,29.24,0.3441,0.32369,-1.3553,-0.9662,0,0,-0.07706,-0.03,-0.02,-0.48,0
10188,1.5533e+07,0,3.04,10.46,30.43,0.36332,0.33176,-1.3717,-0.99239,0,0,-0.090687,-0.03,-0.02,-0.48,0
10229,1.5543e+07,0,3.73,10.76,31.65,0.38051,0.34094,-1.3848,-1.0182,0,0,-0.10106,-0.03,-0.02,-0.48,0
10271,1.5553e+07,0,4.41,11.04,32.92,0.40124,0.35006,-1.395,-1.0412,0,0,-0.11168,-0.03,-0.02,-0.48,0
10311,1.5563e+07,0,5.05,11.28,34.22,0.42024,0.36031,-1.4071,-1.0677,0,0,-0.12255,-0.03,-0.02,-0.48,0
10356,1.5573e+07,0,5.75,11.51,35.69,0.43473,0.37539,-1.417,-1.0936,0,0,-0.13506,-0.03,-0.02,-0.48,0
10396,1.5583e+07,0,6.46,11.71,37.23,0.44254,0.39107,-1.4231,-1.1116,0,0,-0.14638,-0.03,-0.02,-0.48,0
10437,1.5594e+07,0,7.12,11.88,38.67,0.45074,0.40626,-1.4316,-1.1287,0,0,-0.16064,-0.03,-0.02,-0.48,0
10477,1.5604e+07,0,7.8,12.01,40.17,0.4597,0.42243,-1.4388,-1.1475,0,0,-0.17221,-0.03,-0.02,-0.48,0
10511,1.5614e+07,0,8.54,12.13,41.86,0.4661,0.44055,-1.4461,-1.1662,0,0,-0.18493,-0.03,-0.02,-0.48,0
10552,1.5624e+07,0,9.24,12.2,43.45,0.47063,0.46055,-1.4505,-1.1826,0,0,-0.19638,-0.03,-0.02,-0.5,0
10593,1.5635e+07,0,9.96,12.23,45.07,0.47568,0.48518,-1.4562,-1.199,0,0,-0.208,-0.03,-0.02,-0.5,0
10633,1.5645e+07,0,10.78,12.21,46.86,0.47753,0.51582,-1.4626,-1.2134,0,0,-0.22128,-0.03,-0.02,-0.5,0
10674,1.5656e+07,0,11.56,12.14,48.49,0.4758,0.5489,-1.4683,-1.2246,0,0,-0.23738,-0.03,-0.02,-0.5,0
10716,1.5666e+07,0,12.47,12.01,50.29,0.4732,0.57943,-1.472,-1.2356,0,0,-0.25087,-0.03,-0.02,-0.5,0
10763,1.5717e+07,0,17.11,10.81,58.5,0.44136,0.71496,-1.4821,-1.2839,0,0,-0.31502,-0.02,-0.03,-0.52,0
10805,1.5728e+07,0,18.1,10.47,60.06,0.43291,0.7362,-1.4814,-1.2832,0,0,-0.32623,-0.02,-0.03,-0.53,0
10845,1.5738e+07,0,19.09,10.11,61.59,0.42433,0.75665,-1.4814,-1.2826,0,0,-0.33757,-0.02,-0.03,-0.52,0
10886,1.5748e+07,0,20.08,9.72,63.1,0.41601,0.77837,-1.4828,-1.282,0,0,-0.34908,-0.02,-0.03,-0.53,0
10927,1.5758e+07,0,21.15,9.27,64.72,0.40398,0.80124,-1.4864,-1.2795,0,0,-0.36224,-0.02,-0.03,-0.53,0
10969,1.5769e+07,0,22.22,8.79,66.32,0.38485,0.82385,-1.4863,-1.2727,0,0,-0.37556,-0.02,-0.03,-0.53,0
11014,1.578e+07,0,23.22,8.35,67.74,0.36172,0.84703,-1.4836,-1.2624,0,0,-0.39039,-0.02,-0.03,-0.53,0
11054,1.579e+07,0,24.37,7.86,69.27,0.3361,0.87267,-1.4797,-1.2548,0,0,-0.40376,-0.02,-0.03,-0.53,0
11095,1.5801e+07,0,25.44,7.41,70.63,0.31777,0.89354,-1.4774,-1.2494,0,0,-0.41575,-0.02,-0.03,-0.53,0
11138,1.5811e+07,0,26.57,6.92,72.07,0.29976,0.91402,-1.4806,-1.2448,0,0,-0.42659,-0.01,-0.04,-0.53,0
11179,1.5822e+07,0,27.57,6.48,73.34,0.28456,0.93351,-1.485,-1.2345,0,0,-0.43624,-0.01,-0.04,-0.55,0
11220,1.5832e+07,0,28.52,6.04,74.56,0.26454,0.95258,-1.49,-1.2256,0,0,-0.44614,-0.01,-0.04,-0.55,0
11260,1.5842e+07,0,29.47,5.62,75.74,0.23778,0.97201,-1.4948,-1.2158,0,0,-0.45629,-0.01,-0.04,-0.55,0
11302,1.5852e+07,0,30.51,5.17,77,0.20305,0.99444,-1.4965,-1.1979,0,0,-0.46818,-0.01,-0.04,-0.55,0
11342,1.5863e+07,0,31.48,4.76,78.12,0.16783,1.0171,-1.4985,-1.18,0,0,-0.48314,-0.01,-0.04,-0.55,0
11385,1.5873e+07,0,32.48,4.38,79.2,0.12923,1.0387,-1.4951,-1.1635,0,0,-0.49371,-0.01,-0.04,-0.55,0
11430,1.5883e+07,0,33.52,4,80.25,0.090835,1.0579,-1.4911,-1.1489,0,0,-0.50443,-0.01,-0.04,-0.55,0
11471,1.5893e+07,0,34.57,3.65,81.27,0.055958,1.0766,-1.4872,-1.1395,0,0,-0.51527,-0.01,-0.04,-0.55,0
11512,1.5903e+07,0,35.72,3.27,82.37,0.020432,1.0978,-1.4849,-1.1343,0,0,-0.52772,-0.01,-0.04,-0.55,0
11553,1.5914e+07,0,36.75,2.95,83.34,-0.012752,1.1159,-1.4838,-1.1284,0,0,-0.54255,-0.01,-0.04,-0.55,0
11591,1.5924e+07,0,37.89,2.62,84.4,-0.058131,1.1341,-1.4775,-1.1184,0,0,-0.55376,0,-0.06,-0.58,0
11631,1.5934e+07,0,38.95,2.33,85.34,-0.1026,1.1516,-1.4709,-1.1049,0,0,-0.56363,0,-0.06,-0.58,0
11672,1.5944e+07,0,40.03,2.06,86.27,-0.14769,1.1686,-1.4629,-1.0905,0,0,-0.57363,0,-0.06,-0.58,0
11714,1.5955e+07,0,41.24,1.78,87.27,-0.19377,1.1846,-1.4507,-1.0755,0,0,-0.58372,0,-0.06,-0.58,0
11754,1.5965e+07,0,42.37,1.54,88.16,-0.23935,1.1992,-1.4368,-1.0601,0,0,-0.59386,0,-0.06,-0.58,0
11795,1.5975e+07,0,43.5,1.34,89.04,-0.27955,1.2188,-1.4263,-1.0442,0,0,-0.60959,0,-0.06,-0.58,0
11839,1.5985e+07,0,44.6,1.16,89.89,-0.31246,1.2363,-1.417,-1.0361,0,0,-0.61966,0,-0.06,-0.58,0
11880,1.5995e+07,0,45.64,1.01,90.73,-0.34611,1.2524,-1.4101,-1.0314,0,0,-0.62983,0,-0.06,-0.58,0
11922,1.6005e+07,0,46.63,0.89,91.54,-0.37973,1.2678,-1.4004,-1.0272,0,0,-0.64007,0,-0.06,-0.58,0
11965,1.6019e+07,0,47.88,0.76,92.59,-0.42884,1.2836,-1.3834,-1.0153,0,0,-0.65416,0.02,-0.07,-0.58,0
12006,1.6029e+07,0,48.94,0.68,93.47,-0.47285,1.2932,-1.3617,-0.99697,0,0,-0.66543,0.02,-0.07,-0.59,0
12047,1.6039e+07,0,49.92,0.63,94.27,-0.51259,1.2979,-1.3341,-0.97622,0,0,-0.67524,0.02,-0.07,-0.59,0
12090,1.605e+07,0,50.93,0.6,95.09,-0.54998,1.3036,-1.3056,-0.95056,0,0,-0.68842,0.02,-0.07,-0.59,0
12131,1.606e+07,0,52.04,0.58,96,-0.58696,1.3057,-1.2759,-0.9282,0,0,-0.69908,0.02,-0.07,-0.59,0
12172,1.607e+07,0,53,0.58,96.85,-0.61853,1.3058,-1.2496,-0.9106,0,0,-0.70832,0.02,-0.07,-0.59,0
12218,1.608e+07,0,53.94,0.58,97.72,-0.65143,1.3059,-1.2128,-0.88294,0,0,-0.7174,0.02,-0.07,-0.59,0
12260,1.609e+07,0,54.91,0.58,98.61,-0.68643,1.3072,-1.1675,-0.84597,0,0,-0.7262,0.02,-0.07,-0.59,0
12301,1.61e+07,0,55.93,0.59,99.52,-0.71453,1.3085,-1.13,-0.81807,0,0,-0.73471,0.02,-0.07,-0.59,0
12345,1.6114e+07,0,57.22,0.6,100.71,-0.74025,1.3069,-1.089,-0.78538,0,0,-0.74476,0.05,-0.07,-0.6,0
12386,1.6124e+07,0,58.3,0.63,101.75,-0.76274,1.3054,-1.0457,-0.74752,0,0,-0.75232,0.05,-0.07,-0.6,0
12427,1.6134e+07,0,59.29,0.66,102.71,-0.77956,1.3084,-1.0065,-0.70671,0,0,-0.76257,0.05,-0.07,-0.6,0
12469,1.6145e+07,0,60.35,0.68,103.79,-0.79297,1.3059,-0.96781,-0.66857,0,0,-0.76938,0.05,-0.07,-0.6,0
12510,1.6156e+07,0,61.28,0.71,104.8,-0.8042,1.3025,-0.93204,-0.63115,0,0,-0.77503,0.05,-0.07,-0.6,0
12550,1.6166e+07,0,62.19,0.72,105.84,-0.81825,1.2998,-0.88967,-0.58794,0,0,-0.78045,0.05,-0.07,-0.6,0
12591,1.6176e+07,0,63.09,0.73,106.9,-0.83045,1.2961,-0.84727,-0.54763,0,0,-0.7856,0.05,-0.07,-0.6,0
12635,1.6186e+07,0,64.07,0.74,108.09,-0.84126,1.291,-0.80329,-0.50745,0,0,-0.79129,0.05,-0.07,-0.6,0
12677,1.6197e+07,0,65.01,0.73,109.32,-0.85174,1.2912,-0.75909,-0.46467,0,0,-0.79987,0.05,-0.07,-0.6,0
12717,1.6207e+07,0,65.85,0.72,110.46,-0.86442,1.2892,-0.71626,-0.42575,0,0,-0.80399,0.05,-0.07,-0.6,0
12758,1.6217e+07,0,66.69,0.71,111.62,-0.87502,1.2881,-0.67751,-0.39164,0,0,-0.80784,0.05,-0.07,-0.6,0
12796,1.6227e+07,0,67.48,0.7,112.8,-0.88435,1.2855,-0.64284,-0.35846,0,0,-0.81003,0.08,-0.07,-0.61,0
12837,1.6237e+07,0,68.23,0.68,113.99,-0.89443,1.2833,-0.61123,-0.32591,0,0,-0.81208,0.08,-0.07,-0.61,0
12876,1.6248e+07,0,68.99,0.65,115.33,-0.90403,1.2805,-0.57785,-0.28744,0,0,-0.81459,0.08,-0.07,-0.61,0
12918,1.6258e+07,0,69.63,0.61,116.57,-0.91463,1.2775,-0.54991,-0.25813,0,0,-0.81637,0.08,-0.07,-0.61,0
12961,1.6269e+07,0,70.27,0.57,117.95,-0.92756,1.2757,-0.51858,-0.22242,0,0,-0.81857,0.08,-0.07,-0.61,0
13001,1.628e+07,0,70.8,0.52,119.21,-0.93996,1.2773,-0.48923,-0.18728,0,0,-0.8236,0.08,-0.07,-0.61,0
13046,1.629e+07,0,71.3,0.45,120.49,-0.95365,1.2708,-0.46238,-0.15922,0,0,-0.82481,0.08,-0.07,-0.61,0
13087,1.63e+07,0,71.79,0.35,121.92,-0.96479,1.2676,-0.43359,-0.13484,0,0,-0.82633,0.08,-0.07,-0.61,0
13127,1.631e+07,0,72.18,0.25,123.22,-0.97706,1.2641,-0.40727,-0.115,0,0,-0.82727,0.08,-0.07,-0.61,0
13168,1.632e+07,0,72.54,0.13,124.54,-0.987,1.2657,-0.38014,-0.090285,0,0,-0.8312,0.08,-0.07,-0.61,0
13208,1.633e+07,0,72.88,0,125.86,-0.99787,1.262,-0.35151,-0.065702,0,0,-0.83173,0.08,-0.07,-0.61,0
13248,1.6341e+07,0,73.21,-0.13,127.3,-1.0127,1.256,-0.31991,-0.038894,0,0,-0.83181,0.12,-0.07,-0.61,0
13289,1.6351e+07,0,73.47,-0.25,128.48,-1.0255,1.2508,-0.29361,-0.017817,0,0,-0.83111,0.12,-0.07,-0.61,0
13329,1.6361e+07,0,73.77,-0.4,129.9,-1.0394,1.2429,-0.26159,0.012056,0,0,-0.83086,0.12,-0.07,-0.61,0
13370,1.6371e+07,0,74.02,-0.54,131.18,-1.0549,1.2337,-0.23477,0.035718,0,0,-0.8302,0.12,-0.07,-0.61,0
13411,1.6382e+07,0,74.28,-0.7,132.57,-1.074,1.2251,-0.20369,0.065385,0,0,-0.82962,0.12,-0.07,-0.62,0
13456,1.6392e+07,0,74.5,-0.85,133.82,-1.0902,1.216,-0.17075,0.098318,0,0,-0.83149,0.12,-0.07,-0.62,0
13496,1.6402e+07,0,74.73,-1,135.06,-1.1059,1.1969,-0.13595,0.13077,0,0,-0.83015,0.12,-0.07,-0.62,0
13537,1.6412e+07,0,74.96,-1.16,136.29,-1.1235,1.1818,-0.10401,0.15987,0,0,-0.82862,0.12,-0.07,-0.62,0
13577,1.6423e+07,0,75.19,-1.32,137.52,-1.1416,1.1631,-0.077213,0.18217,0,0,-0.82691,0.12,-0.07,-0.62,0
13619,1.6436e+07,0,75.48,-1.55,139.22,-1.1606,1.1342,-0.036508,0.22086,0,0,-0.82375,0.16,-0.07,-0.62,0
13662,1.6446e+07,0,75.69,-1.71,140.43,-1.1755,1.1107,-0.0066248,0.25397,0,0,-0.82018,0.16,-0.07,-0.62,0
13703,1.6456e+07,0,75.92,-1.87,141.63,-1.1915,1.0873,0.020225,0.28417,0,0,-0.81649,0.16,-0.07,-0.62,0
13744,1.6466e+07,0,76.14,-2.03,142.83,-1.2042,1.065,0.042834,0.30953,0,0,-0.81272,0.16,-0.07,-0.62,0
13784,1.6477e+07,0,76.35,-2.2,144.02,-1.216,1.0412,0.061827,0.33162,0,0,-0.8089,0.17,-0.07,-0.62,0
13825,1.6487e+07,0,76.57,-2.38,145.33,-1.2278,1.0185,0.076316,0.35038,0,0,-0.80508,0.17,-0.07,-0.63,0
13870,1.6497e+07,0,76.75,-2.56,146.52,-1.2371,0.99617,0.087087,0.36265,0,0,-0.80127,0.17,-0.07,-0.63,0
13912,1.6507e+07,0,76.92,-2.76,147.84,-1.2453,0.97008,0.097418,0.37453,0,0,-0.79741,0.17,-0.07,-0.63,0
13953,1.6518e+07,0,77.07,-2.94,149.04,-1.2557,0.95397,0.10829,0.3866,0,0,-0.79638,0.17,-0.07,-0.63,0
13993,1.6528e+07,0,77.21,-3.11,150.24,-1.2647,0.92875,0.11986,0.39848,0,0,-0.79135,0.21,-0.07,-0.62,0
14034,1.6538e+07,0,77.36,-3.27,151.44,-1.2712,0.90402,0.12985,0.40975,0,0,-0.78639,0.21,-0.07,-0.62,0
14074,1.6548e+07,0,77.53,-3.43,152.75,-1.2761,0.88313,0.1347,0.41808,0,0,-0.78139,0.21,-0.07,-0.63,0
14115,1.6558e+07,0,77.68,-3.57,153.94,-1.2828,0.86442,0.13465,0.41991,0,0,-0.77666,0.21,-0.07,-0.63,0
14158,1.6568e+07,0,77.81,-3.69,155.13,-1.2878,0.84708,0.13638,0.41989,0,0,-0.77193,0.21,-0.07,-0.62,0
14198,1.6579e+07,0,77.94,-3.8,156.32,-1.2905,0.83768,0.13851,0.42299,0,0,-0.7707,0.21,-0.07,-0.62,0
14239,1.6589e+07,0,78.08,-3.9,157.51,-1.2927,0.81978,0.13734,0.42041,0,0,-0.76621,0.21,-0.07,-0.62,0
14283,1.6599e+07,0,78.23,-4,158.82,-1.2976,0.80446,0.13386,0.41308,0,0,-0.76175,0.21,-0.07,-0.62,0
14324,1.6609e+07,0,78.36,-4.07,160.01,-1.3014,0.78713,0.13526,0.40748,0,0,-0.75743,0.21,-0.07,-0.62,0
14364,1.662e+07,0,78.51,-4.13,161.2,-1.3054,0.77518,0.13017,0.39587,0,0,-0.7561,0.21,-0.07,-0.62,0
14406,1.6629e+07,0,78.65,-4.17,162.37,-1.3083,0.76561,0.11894,0.37676,0,0,-0.75211,0.21,-0.07,-0.62,0
14443,1.6639e+07,0,78.76,-4.19,163.56,-1.3105,0.74564,0.10752,0.36026,0,0,-0.74722,0.25,-0.07,-0.62,0
14488,1.6652e+07,0,78.89,-4.19,165.09,-1.3091,0.72778,0.10567,0.35565,0,0,-0.74225,0.25,-0.07,-0.61,0
14529,1.6662e+07,0,79.01,-4.19,166.27,-1.3065,0.70891,0.09975,0.34766,0,0,-0.73778,0.24,-0.07,-0.61,0
14570,1.6673e+07,0,79.12,-4.17,167.58,-1.3074,0.6947,0.088329,0.3347,0,0,-0.73346,0.24,-0.07,-0.61,0
14612,1.6683e+07,0,79.2,-4.13,168.78,-1.311,0.68784,0.08089,0.32951,0,0,-0.73262,0.24,-0.07,-0.61,0
14653,1.6693e+07,0,79.29,-4.08,169.98,-1.3109,0.66991,0.073048,0.32295,0,0,-0.72871,0.24,-0.07,-0.61,0
14697,1.6703e+07,0,79.35,-3.99,171.18,-1.3154,0.65392,0.058379,0.30761,0,0,-0.72504,0.24,-0.07,-0.61,0
14738,1.6713e+07,0,79.36,-3.88,172.39,-1.3197,0.63777,0.038178,0.28618,0,0,-0.7217,0.24,-0.07,-0.61,0
14778,1.6724e+07,0,79.33,-3.75,173.61,-1.3191,0.61923,0.01566,0.26278,0,0,-0.71871,0.25,-0.07,-0.61,0
14819,1.6737e+07,0,79.21,-3.55,175.2,-1.3153,0.59543,-0.015651,0.23073,0,0,-0.71599,0.28,-0.07,-0.6,0
14856,1.6747e+07,0,79.06,-3.37,176.57,-1.3091,0.56892,-0.039158,0.20613,0,0,-0.71372,0.28,-0.07,-0.6,0
14897,1.6757e+07,0,78.88,-3.19,177.83,-1.3069,0.55101,-0.055958,0.18547,0,0,-0.7142,0.28,-0.07,-0.6,0
14940,1.6767e+07,0,78.69,-2.99,179.09,-1.3011,0.52189,-0.068511,0.16827,0,0,-0.71235,0.28,-0.07,-0.6,0
14982,1.6777e+07,0,78.48,-2.78,180.37,-1.2971,0.48977,-0.077545,0.15299,0,0,-0.71072,0.28,-0.07,-0.6,0
15023,1.6787e+07,0,78.27,-2.56,181.65,-1.292,0.45841,-0.084231,0.13971,0,0,-0.70928,0.28,-0.07,-0.6,0
15067,1.6798e+07,0,78.06,-2.31,182.94,-1.2858,0.42761,-0.092021,0.12579,0,0,-0.70803,0.28,-0.07,-0.6,0
15108,1.6808e+07,0,77.82,-2.02,184.36,-1.2796,0.39287,-0.10059,0.11127,0,0,-0.70708,0.28,-0.07,-0.6,0
15150,1.6819e+07,0,77.6,-1.74,185.65,-1.2719,0.35983,-0.107,0.097881,0,0,-0.7062,0.28,-0.07,-0.6,0
15193,1.6832e+07,0,77.32,-1.34,187.47,-1.2568,0.31117,-0.1146,0.082972,0,0,-0.70572,0.32,-0.07,-0.59,0
15231,1.6842e+07,0,77.15,-1.04,188.75,-1.2463,0.27085,-0.11756,0.074255,0,0,-0.70496,0.32,-0.07,-0.59,0
15276,1.6852e+07,0,77,-0.72,190.03,-1.2349,0.23071,-0.11855,0.066782,0,0,-0.70432,0.32,-0.07,-0.59,0
15317,1.6863e+07,0,76.86,-0.36,191.42,-1.2261,0.19891,-0.11855,0.060703,0,0,-0.70562,0.32,-0.07,-0.59,0
15358,1.6873e+07,0,76.76,-0.03,192.67,-1.2129,0.16594,-0.11483,0.057186,0,0,-0.70505,0.32,-0.07,-0.59,0
15398,1.6883e+07,0,76.69,0.29,193.91,-1.2004,0.13465,-0.1098,0.054845,0,0,-0.70452,0.32,-0.07,-0.59,0
15440,1.6893e+07,0,76.65,0.63,195.13,-1.1881,0.10708,-0.10385,0.053253,0,0,-0.70402,0.32,-0.07,-0.59,0
15485,1.6904e+07,0,76.64,0.96,196.34,-1.1749,0.080832,-0.094208,0.055822,0,0,-0.70354,0.32,-0.07,-0.59,0
15526,1.6914e+07,0,76.68,1.29,197.54,-1.1624,0.055311,-0.081407,0.061155,0,0,-0.70302,0.32,-0.07,-0.59,0
15566,1.6924e+07,0,76.77,1.65,198.84,-1.1517,0.030773,-0.068324,0.066929,0,0,-0.70252,0.32,-0.07,-0.59,0
15607,1.6934e+07,0,76.89,1.96,200,-1.1453,0.014978,-0.05844,0.070753,0,0,-0.70315,0.32,-0.07,-0.59,0
15648,1.6945e+07,0,77.05,2.3,201.26,-1.131,-0.0090771,-0.048178,0.074247,0,0,-0.70222,0.35,-0.07,-0.58,0
15685,1.6956e+07,0,77.22,2.59,202.38,-1.119,-0.032715,-0.042267,0.074123,0,0,-0.70122,0.35,-0.07,-0.56,0
15728,1.6965e+07,0,77.39,2.86,203.48,-1.109,-0.057577,-0.038765,0.071427,0,0,-0.70026,0.35,-0.07,-0.56,0
15770,1.6976e+07,0,77.56,3.11,204.56,-1.0986,-0.081869,-0.034196,0.070297,0,0,-0.69932,0.35,-0.07,-0.56,0
15811,1.6986e+07,0,77.76,3.36,205.73,-1.0889,-0.10923,-0.031304,0.068413,0,0,-0.69846,0.35,-0.07,-0.57,0
15852,1.6997e+07,0,77.94,3.58,206.76,-1.0891,-0.12889,-0.031835,0.064415,0,0,-0.69877,0.35,-0.07,-0.57,0
15896,1.7007e+07,0,78.1,3.79,207.75,-1.0849,-0.15551,-0.031539,0.060577,0,0,-0.69793,0.35,-0.07,-0.56,0
15937,1.7017e+07,0,78.29,4,208.8,-1.0812,-0.18523,-0.033286,0.055166,0,0,-0.6972,0.35,-0.07,-0.57,0
15977,1.7028e+07,0,78.46,4.2,209.81,-1.0796,-0.21291,-0.038931,0.045532,0,0,-0.69653,0.35,-0.07,-0.57,0
16019,1.7038e+07,0,78.6,4.37,210.68,-1.0777,-0.24288,-0.046113,0.033766,0,0,-0.69599,0.35,-0.07,-0.57,0
16054,1.7049e+07,0,78.72,4.53,211.51,-1.0727,-0.27772,-0.0534,0.022702,0,0,-0.695,0.38,-0.07,-0.54,0
16099,1.7061e+07,0,78.89,4.71,212.53,-1.0693,-0.31529,-0.064032,0.010361,0,0,-0.69429,0.38,-0.07,-0.54,0
16140,1.7071e+07,0,79.01,4.83,213.26,-1.0721,-0.33854,-0.073482,0.00040096,0,0,-0.69498,0.38,-0.07,-0.54,0
16180,1.7081e+07,0,79.14,4.93,213.97,-1.0676,-0.37173,-0.078657,-0.0050997,0,0,-0.69434,0.38,-0.07,-0.54,0
16221,1.7091e+07,0,79.28,5,214.63,-1.0623,-0.40586,-0.084854,-0.012806,0,0,-0.69381,0.38,-0.07,-0.53,0
16261,1.7101e+07,0,79.43,5.05,215.25,-1.0569,-0.43734,-0.095082,-0.023759,0,0,-0.69344,0.38,-0.07,-0.53,0
16309,1.7112e+07,0,79.58,5.07,215.85,-1.059,-0.4611,-0.10782,-0.035479,0,0,-0.69446,0.38,-0.07,-0.53,0
16350,1.7122e+07,0,79.72,5.06,216.41,-1.0545,-0.49368,-0.12009,-0.047354,0,0,-0.69439,0.38,-0.07,-0.53,0
16392,1.7132e+07,0,79.87,5.01,216.93,-1.0512,-0.52665,-0.13277,-0.059706,0,0,-0.69451,0.38,-0.07,-0.53,0
16433,1.7142e+07,0,80.03,4.92,217.46,-1.0459,-0.56235,-0.15247,-0.078692,0,0,-0.69501,0.38,-0.07,-0.53,0
16470,1.7153e+07,0,80.15,4.8,217.9,-1.0385,-0.59541,-0.17277,-0.099641,0,0,-0.6963,0.4,-0.07,-0.52,0
16514,1.7165e+07,0,80.31,4.59,218.42,-1.0322,-0.63903,-0.195,-0.12602,0,0,-0.69838,0.4,-0.07,-0.49,0
16554,1.7175e+07,0,80.43,4.39,218.77,-1.025,-0.67498,-0.20606,-0.14187,0,0,-0.70012,0.4,-0.07,-0.49,0
16593,1.7185e+07,0,80.58,4.15,219.08,-1.0171,-0.70948,-0.21723,-0.15904,0,0,-0.70199,0.4,-0.07,-0.49,0
16634,1.7196e+07,0,80.73,3.87,219.36,-1.017,-0.73657,-0.23051,-0.17885,0,0,-0.70423,0.4,-0.07,-0.49,0
16675,1.7206e+07,0,80.88,3.55,219.61,-1.0088,-0.7697,-0.24288,-0.19796,0,0,-0.70638,0.4,-0.07,-0.49,0
16720,1.7216e+07,0,81.03,3.19,219.83,-1.0001,-0.80134,-0.25164,-0.21357,0,0,-0.70866,0.4,-0.07,-0.49,0
16761,1.7226e+07,0,81.2,2.78,220.03,-0.98893,-0.82956,-0.2572,-0.22599,0,0,-0.71103,0.4,-0.07,-0.49,0
16802,1.7236e+07,0,81.41,2.27,220.24,-0.97778,-0.85651,-0.26273,-0.23854,0,0,-0.71374,0.4,-0.07,-0.49,0
16844,1.7247e+07,0,81.62,1.75,220.41,-0.97611,-0.87605,-0.26673,-0.24855,0,0,-0.71638,0.4,-0.07,-0.49,0
16882,1.7257e+07,0,81.86,1.19,220.56,-0.96479,-0.89973,-0.27103,-0.26059,0,0,-0.71979,0.41,-0.07,-0.46,0
16925,1.7267e+07,0,82.12,0.59,220.69,-0.95525,-0.92049,-0.27525,-0.27411,0,0,-0.72323,0.41,-0.07,-0.46,0
16962,1.7277e+07,0,82.4,-0.04,220.81,-0.94816,-0.93999,-0.27814,-0.28729,0,0,-0.72669,0.41,-0.07,-0.46,0
17003,1.7287e+07,0,82.69,-0.7,220.91,-0.94339,-0.96028,-0.28081,-0.30028,0,0,-0.73017,0.41,-0.07,-0.46,0
17044,1.7297e+07,0,83.02,-1.44,221.01,-0.94476,-0.98225,-0.28316,-0.31411,0,0,-0.73396,0.41,-0.07,-0.46,0
17086,1.7308e+07,0,83.36,-2.17,221.07,-0.9554,-1.0004,-0.28222,-0.32385,0,0,-0.73707,0.41,-0.07,-0.46,0
17131,1.7318e+07,0,83.69,-2.8,221.11,-0.95774,-1.0204,-0.27962,-0.32958,0,0,-0.74055,0.41,-0.07,-0.46,0
17171,1.7328e+07,0,84.03,-3.41,221.12,-0.96072,-1.0396,-0.27654,-0.33427,0,0,-0.74398,0.41,-0.07,-0.46,0
17212,1.7338e+07,0,84.37,-3.98,221.12,-0.96336,-1.0571,-0.27344,-0.33795,0,0,-0.74738,0.41,-0.07,-0.46,0
17249,1.7348e+07,0,84.71,-4.52,221.11,-0.96307,-1.0724,-0.2699,-0.34049,0,0,-0.75204,0.42,-0.07,-0.44,0
17290,1.7359e+07,0,85.07,-5.06,221.08,-0.97249,-1.0832,-0.26464,-0.34597,0,0,-0.75497,0.42,-0.07,-0.44,0
17328,1.7369e+07,0,85.39,-5.52,221.05,-0.96981,-1.0971,-0.25982,-0.35097,0,0,-0.75947,0.42,-0.07,-0.42,0
17368,1.7379e+07,0,85.7,-5.94,221.01,-0.96621,-1.109,-0.25279,-0.35482,0,0,-0.76385,0.42,-0.07,-0.42,0
17410,1.7389e+07,0,85.99,-6.33,220.99,-0.96164,-1.1189,-0.24515,-0.35734,0,0,-0.7681,0.42,-0.07,-0.42,0
17450,1.74e+07,0,86.31,-6.76,220.98,-0.95596,-1.1275,-0.23512,-0.36039,0,0,-0.77244,0.42,-0.07,-0.42,0
17491,1.741e+07,0,86.53,-7.06,220.98,-0.94944,-1.1306,-0.22313,-0.35779,0,0,-0.77639,0.42,-0.07,-0.42,0
17537,1.742e+07,0,86.8,-7.42,221.01,-0.94218,-1.1311,-0.20941,-0.35383,0,0,-0.78016,0.42,-0.07,-0.42,0
17578,1.7431e+07,0,87,-7.72,221.07,-0.94178,-1.1291,-0.19965,-0.35423,0,0,-0.7822,0.42,-0.07,-0.42,0
17619,1.7441e+07,0,87.17,-8.02,221.15,-0.9371,-1.1299,-0.19154,-0.35302,0,0,-0.78571,0.42,-0.07,-0.42,0
17661,1.7453e+07,0,87.33,-8.39,221.27,-0.93194,-1.1314,-0.17515,-0.34332,0,0,-0.78961,0.42,-0.07,-0.42,0
17699,1.7464e+07,0,87.43,-8.68,221.39,-0.9219,-1.1277,-0.15973,-0.33331,0,0,-0.79324,0.43,-0.07,-0.4,0
17739,1.7474e+07,0,87.51,-8.95,221.54,-0.91138,-1.1241,-0.14347,-0.32203,0,0,-0.79665,0.43,-0.07,-0.4,0
17780,1.7484e+07,0,87.59,-9.26,221.72,-0.9042,-1.1238,-0.12598,-0.31024,0,0,-0.79998,0.43,-0.07,-0.4,0
17821,1.7495e+07,0,87.62,-9.52,221.9,-0.90095,-1.1239,-0.10902,-0.29623,0,0,-0.80293,0.43,-0.07,-0.4,0
17861,1.7504e+07,0,87.64,-9.77,222.1,-0.89556,-1.1217,-0.08869,-0.2777,0,0,-0.80575,0.43,-0.07,-0.4,0
17909,1.7517e+07,0,87.63,-10.08,222.38,-0.89226,-1.1172,-0.063808,-0.25573,0,0,-0.80841,0.43,-0.07,-0.4,0
17951,1.7527e+07,0,87.6,-10.29,222.62,-0.89014,-1.1169,-0.047973,-0.2399,0,0,-0.81059,0.43,-0.07,-0.4,0
17992,1.7538e+07,0,87.52,-10.5,222.9,-0.88778,-1.118,-0.033164,-0.22555,0,0,-0.81257,0.43,-0.07,-0.4,0
18040,1.7554e+07,0,87.39,-10.73,223.3,-0.8851,-1.1173,0.00093806,-0.19052,0,0,-0.81408,0.43,-0.07,-0.39,0
18081,1.7564e+07,0,87.31,-10.85,223.57,-0.8802,-1.1177,0.021451,-0.16573,0,0,-0.81516,0.43,-0.07,-0.38,0
18122,1.7574e+07,0,87.23,-10.93,223.87,-0.87746,-1.1166,0.041209,-0.14099,0,0,-0.81598,0.43,-0.07,-0.38,0
18163,1.7585e+07,0,87.17,-10.96,224.16,-0.88034,-1.1137,0.061212,-0.11674,0,0,-0.81547,0.43,-0.07,-0.38,0
18203,1.7595e+07,0,87.13,-10.96,224.47,-0.87556,-1.1103,0.0803,-0.091504,0,0,-0.81591,0.43,-0.07,-0.38,0
18244,1.7605e+07,0,87.11,-10.92,224.79,-0.87232,-1.1074,0.094069,-0.071159,0,0,-0.81614,0.43,-0.07,-0.38,0
18285,1.7615e+07,0,87.08,-10.84,225.16,-0.87055,-1.1039,0.10534,-0.052971,0,0,-0.81613,0.43,-0.07,-0.38,0
18330,1.7625e+07,0,87.06,-10.73,225.5,-0.86808,-1.1005,0.11645,-0.0352,0,0,-0.81608,0.43,-0.07,-0.38,0
18371,1.7635e+07,0,87.06,-10.58,225.85,-0.86496,-1.0961,0.12608,-0.018186,0,0,-0.81588,0.43,-0.07,-0.38,0
18412,1.7646e+07,0,87.08,-10.38,226.26,-0.86098,-1.0889,0.1316,-0.0055832,0,0,-0.81546,0.43,-0.07,-0.38,0
18453,1.7656e+07,0,87.1,-10.16,226.65,-0.86182,-1.0822,0.13305,0.0011867,0,0,-0.81414,0.43,-0.07,-0.38,0
18492,1.7667e+07,0,87.14,-9.9,227.09,-0.85339,-1.0722,0.13147,0.0049273,0,0,-0.81421,0.42,-0.07,-0.35,0
18532,1.7677e+07,0,87.18,-9.65,227.52,-0.84481,-1.0602,0.12894,0.0062523,0,0,-0.81438,0.42,-0.07,-0.35,0
18573,1.7687e+07,0,87.24,-9.42,227.96,-0.83629,-1.0464,0.12472,0.0055443,0,0,-0.81455,0.42,-0.07,-0.35,0
18615,1.7698e+07,0,87.33,-9.18,228.49,-0.83522,-1.0305,0.11889,0.0020181,0,0,-0.81321,0.42,-0.07,-0.35,0
18655,1.7709e+07,0,87.43,-8.99,229,-0.82441,-1.0139,0.11103,-0.0030153,0,0,-0.81346,0.42,-0.07,-0.35,0
18696,1.7719e+07,0,87.54,-8.82,229.55,-0.81298,-0.99738,0.10288,-0.0090798,0,0,-0.81375,0.42,-0.07,-0.35,0
18740,1.7729e+07,0,87.66,-8.69,230.12,-0.80094,-0.98309,0.09482,-0.014821,0,0,-0.81407,0.42,-0.07,-0.35,0
18782,1.7739e+07,0,87.83,-8.59,230.77,-0.78574,-0.9696,0.083675,-0.023634,0,0,-0.81436,0.42,-0.07,-0.35,0
18823,1.775e+07,0,88,-8.53,231.39,-0.77624,-0.96065,0.071452,-0.035549,0,0,-0.81359,0.42,-0.07,-0.35,0
18866,1.776e+07,0,88.18,-8.51,232.02,-0.75995,-0.95304,0.05787,-0.047678,0,0,-0.81418,0.42,-0.07,-0.35,0
18901,1.777e+07,0,88.39,-8.53,232.74,-0.73882,-0.94468,0.040395,-0.06051,0,0,-0.81353,0.41,-0.07,-0.34,0
18941,1.778e+07,0,88.6,-8.57,233.41,-0.7222,-0.94025,0.02002,-0.073021,0,0,-0.81313,0.41,-0.07,-0.33,0
18982,1.779e+07,0,88.81,-8.63,234.07,-0.70896,-0.93975,-0.002788,-0.085956,0,0,-0.81297,0.41,-0.07,-0.33,0
19022,1.7801e+07,0,89.02,-8.71,234.8,-0.69679,-0.93887,-0.027189,-0.098276,0,0,-0.81307,0.41,-0.07,-0.33,0
19064,1.7811e+07,0,89.2,-8.8,235.46,-0.69513,-0.94068,-0.047819,-0.10774,0,0,-0.81345,0.41,-0.07,-0.33,0
19104,1.7821e+07,0,89.38,-8.89,236.12,-0.68787,-0.94484,-0.06951,-0.11822,0,0,-0.81399,0.41,-0.07,-0.33,0
19149,1.7831e+07,0,89.53,-8.98,236.76,-0.6822,-0.95032,-0.091712,-0.12972,0,0,-0.81477,0.41,-0.07,-0.33,0
19191,1.7841e+07,0,89.65,-9.07,237.39,-0.67699,-0.95605,-0.11116,-0.13922,0,0,-0.81578,0.41,-0.07,-0.33,0
19234,1.7852e+07,0,89.75,-9.15,238.02,-0.6724,-0.96612,-0.12569,-0.14472,0,0,-0.81697,0.41,-0.07,-0.33,0
19279,1.7868e+07,0,89.88,-9.27,239.03,-0.66334,-0.98444,-0.14663,-0.15211,0,0,-0.8191,0.4,-0.07,-0.31,0
19319,1.7878e+07,0,89.92,-9.32,239.61,-0.65321,-0.99189,-0.15836,-0.15644,0,0,-0.82048,0.4,-0.07,-0.31,0
19361,1.7889e+07,0,89.91,-9.38,240.23,-0.64502,-1.0048,-0.16658,-0.15734,0,0,-0.82214,0.4,-0.07,-0.31,0
19402,1.7899e+07,0,89.86,-9.42,240.78,-0.6387,-1.0171,-0.16954,-0.15456,0,0,-0.82371,0.4,-0.07,-0.31,0
19442,1.7909e+07,0,89.77,-9.45,241.32,-0.63041,-1.0291,-0.17019,-0.15043,0,0,-0.82532,0.4,-0.07,-0.31,0
19484,1.792e+07,0,89.64,-9.46,241.85,-0.63054,-1.0456,-0.1705,-0.14698,0,0,-0.82702,0.4,-0.07,-0.31,0
19528,1.793e+07,0,89.45,-9.46,242.35,-0.62523,-1.0636,-0.16722,-0.14054,0,0,-0.82863,0.4,-0.07,-0.31,0
19569,1.794e+07,0,89.22,-9.42,242.84,-0.61953,-1.0829,-0.15969,-0.13065,0,0,-0.8302,0.4,-0.07,-0.31,0
19611,1.795e+07,0,88.96,-9.36,243.31,-0.61262,-1.098,-0.15228,-0.1216,0,0,-0.83171,0.4,-0.07,-0.31,0
19655,1.7963e+07,0,88.55,-9.24,243.9,-0.60222,-1.1149,-0.14338,-0.11063,0,0,-0.83291,0.39,-0.07,-0.31,0
19696,1.7972e+07,0,88.19,-9.14,244.33,-0.59255,-1.1282,-0.13199,-0.095844,0,0,-0.83359,0.39,-0.07,-0.28,0
19736,1.7983e+07,0,87.8,-9.02,244.75,-0.58258,-1.1359,-0.11846,-0.078282,0,0,-0.83419,0.39,-0.07,-0.28,0
19777,1.7993e+07,0,87.36,-8.89,245.2,-0.57332,-1.1402,-0.10415,-0.058814,0,0,-0.83479,0.39,-0.07,-0.28,0
19818,1.8003e+07,0,86.93,-8.77,245.61,-0.57415,-1.1491,-0.092066,-0.042018,0,0,-0.83577,0.39,-0.07,-0.28,0
19859,1.8013e+07,0,86.49,-8.66,246.02,-0.56749,-1.1523,-0.079611,-0.025581,0,0,-0.83605,0.39,-0.07,-0.28,0
19900,1.8024e+07,0,86.04,-8.55,246.43,-0.56,-1.1518,-0.064663,-0.0079811,0,0,-0.83622,0.39,-0.07,-0.28,0
19944,1.8034e+07,0,85.54,-8.45,246.88,-0.55247,-1.1526,-0.04673,0.012259,0,0,-0.83631,0.39,-0.07,-0.28,0
19987,1.8045e+07,0,85.09,-8.37,247.3,-0.55177,-1.1538,-0.030522,0.030382,0,0,-0.8367,0.39,-0.07,-0.28,0
20027,1.8055e+07,0,84.66,-8.31,247.72,-0.54399,-1.1481,-0.01319,0.048942,0,0,-0.83642,0.39,-0.07,-0.28,0
20068,1.8065e+07,0,84.25,-8.28,248.15,-0.53681,-1.1442,0.0065912,0.069434,0,0,-0.836,0.39,-0.07,-0.28,0
20108,1.8078e+07,0,83.74,-8.27,248.76,-0.52691,-1.1405,0.036638,0.1011,0,0,-0.83453,0.38,-0.07,-0.26,0
20148,1.8088e+07,0,83.42,-8.28,249.2,-0.51164,-1.1347,0.05814,0.12662,0,0,-0.83287,0.38,-0.07,-0.26,0
20190,1.8098e+07,0,83.12,-8.31,249.64,-0.50313,-1.1324,0.072372,0.14505,0,0,-0.83115,0.38,-0.07,-0.26,0
20231,1.8108e+07,0,82.82,-8.36,250.09,-0.48975,-1.1364,0.090318,0.16763,0,0,-0.82933,0.38,-0.07,-0.26,0
20272,1.8119e+07,0,82.55,-8.42,250.52,-0.47671,-1.1378,0.11678,0.19818,0,0,-0.82733,0.38,-0.07,-0.26,0
20313,1.8129e+07,0,82.32,-8.48,251,-0.46019,-1.1416,0.13999,0.22591,0,0,-0.825,0.38,-0.07,-0.26,0
20359,1.814e+07,0,82.08,-8.55,251.47,-0.44832,-1.1521,0.15252,0.24229,0,0,-0.82253,0.38,-0.07,-0.26,0
20400,1.8151e+07,0,81.88,-8.62,251.88,-0.44217,-1.1616,0.16861,0.26138,0,0,-0.82093,0.38,-0.07,-0.26,0
20440,1.816e+07,0,81.7,-8.68,252.28,-0.42362,-1.1663,0.18943,0.28372,0,0,-0.81831,0.38,-0.07,-0.26,0
20481,1.817e+07,0,81.56,-8.74,252.66,-0.40762,-1.1748,0.20555,0.30248,0,0,-0.81455,0.36,-0.07,-0.26,0
20525,1.8183e+07,0,81.39,-8.81,253.13,-0.3928,-1.1887,0.22118,0.32387,0,0,-0.81006,0.36,-0.07,-0.24,0
20566,1.8193e+07,0,81.28,-8.84,253.46,-0.37976,-1.1973,0.23377,0.34099,0,0,-0.80615,0.36,-0.07,-0.24,0
20608,1.8204e+07,0,81.18,-8.86,253.8,-0.36904,-1.2103,0.24345,0.35576,0,0,-0.80195,0.36,-0.07,-0.24,0
20648,1.8214e+07,0,81.07,-8.85,254.09,-0.36258,-1.2251,0.24546,0.36376,0,0,-0.7995,0.36,-0.07,-0.24,0
20689,1.8225e+07,0,80.96,-8.81,254.36,-0.35283,-1.2355,0.24803,0.37092,0,0,-0.79554,0.36,-0.07,-0.24,0
20733,1.8234e+07,0,80.85,-8.76,254.61,-0.34271,-1.2457,0.25113,0.37607,0,0,-0.79161,0.36,-0.07,-0.24,0
20776,1.8245e+07,0,80.75,-8.66,254.87,-0.33126,-1.2559,0.25173,0.37847,0,0,-0.78747,0.36,-0.07,-0.23,0
20819,1.8256e+07,0,80.67,-8.55,255.07,-0.32707,-1.2702,0.25121,0.38047,0,0,-0.78495,0.36,-0.07,-0.23,0
20859,1.8266e+07,0,80.59,-8.4,255.26,-0.31827,-1.2799,0.24905,0.37943,0,0,-0.78112,0.36,-0.07,-0.23,0
20901,1.8276e+07,0,80.45,-8.22,255.46,-0.30451,-1.2856,0.24963,0.38021,0,0,-0.77712,0.36,-0.07,-0.23,0
20941,1.8287e+07,0,80.3,-8.02,255.63,-0.28908,-1.2852,0.24705,0.37658,0,0,-0.77364,0.35,-0.07,-0.23,0
20979,1.8298e+07,0,80.18,-7.82,255.78,-0.28761,-1.2858,0.23749,0.36446,0,0,-0.77049,0.35,-0.07,-0.21,0
21021,1.8308e+07,0,80.03,-7.62,255.92,-0.27809,-1.2853,0.22932,0.35239,0,0,-0.76748,0.35,-0.07,-0.21,0
21061,1.8318e+07,0,79.85,-7.41,256.08,-0.27013,-1.2776,0.23337,0.35158,0,0,-0.7643,0.35,-0.07,-0.21,0
21103,1.8329e+07,0,79.73,-7.24,256.23,-0.2621,-1.2774,0.23212,0.34535,0,0,-0.76196,0.35,-0.07,-0.21,0
21147,1.8339e+07,0,79.57,-7.1,256.37,-0.25621,-1.2732,0.2171,0.32461,0,0,-0.75911,0.35,-0.07,-0.21,0
21188,1.835e+07,0,79.35,-6.98,256.54,-0.24956,-1.2606,0.20178,0.30297,0,0,-0.75626,0.35,-0.07,-0.21,0
21228,1.836e+07,0,79.17,-6.9,256.71,-0.23635,-1.2475,0.19653,0.29174,0,0,-0.75374,0.35,-0.07,-0.21,0
21269,1.837e+07,0,79,-6.86,256.87,-0.2226,-1.2405,0.19082,0.27965,0,0,-0.7513,0.35,-0.07,-0.21,0
21311,1.8383e+07,0,78.77,-6.85,257.08,-0.20689,-1.2319,0.17917,0.26077,0,0,-0.7479,0.33,-0.07,-0.18,0
21352,1.8393e+07,0,78.58,-6.87,257.24,-0.19043,-1.223,0.1749,0.25291,0,0,-0.74502,0.33,-0.07,-0.18,0
21393,1.8403e+07,0,78.46,-6.92,257.38,-0.18424,-1.2227,0.17023,0.24536,0,0,-0.74329,0.33,-0.07,-0.18,0
21433,1.8413e+07,0,78.33,-6.97,257.51,-0.17258,-1.2183,0.1589,0.23166,0,0,-0.74073,0.33,-0.07,-0.18,0
21473,1.8424e+07,0,78.21,-7.05,257.62,-0.16159,-1.2171,0.14549,0.21537,0,0,-0.7382,0.33,-0.07,-0.18,0
21513,1.8433e+07,0,78.11,-7.13,257.71,-0.15298,-1.2182,0.13398,0.20146,0,0,-0.73599,0.33,-0.07,-0.18,0
21558,1.8444e+07,0,78.02,-7.23,257.78,-0.14914,-1.2222,0.11796,0.18436,0,0,-0.73472,0.33,-0.07,-0.18,0
21602,1.8454e+07,0,77.93,-7.34,257.84,-0.14119,-1.2208,0.097691,0.16278,0,0,-0.73276,0.33,-0.07,-0.18,0
21642,1.8464e+07,0,77.85,-7.43,257.87,-0.13357,-1.2223,0.079972,0.14319,0,0,-0.73114,0.33,-0.07,-0.18,0
21683,1.8474e+07,0,77.78,-7.54,257.88,-0.12343,-1.2222,0.061796,0.12373,0,0,-0.72973,0.33,-0.07,-0.18,0
21726,1.8488e+07,0,77.65,-7.68,257.87,-0.1094,-1.2198,0.038593,0.099433,0,0,-0.72814,0.31,-0.07,-0.18,0
21769,1.8498e+07,0,77.55,-7.78,257.84,-0.097125,-1.2205,0.027084,0.087101,0,0,-0.72694,0.31,-0.07,-0.16,0
21810,1.8509e+07,0,77.44,-7.89,257.77,-0.084743,-1.2199,0.015645,0.076051,0,0,-0.72588,0.31,-0.07,-0.16,0
21850,1.852e+07,0,77.32,-7.99,257.7,-0.080227,-1.222,0.0044939,0.065848,0,0,-0.72578,0.31,-0.07,-0.16,0
21891,1.853e+07,0,77.17,-8.09,257.62,-0.069547,-1.2176,-0.0026631,0.059095,0,0,-0.725,0.31,-0.07,-0.16,0
21931,1.854e+07,0,77.02,-8.2,257.53,-0.059619,-1.2114,-0.0043819,0.057537,0,0,-0.7243,0.31,-0.07,-0.16,0
21977,1.855e+07,0,76.86,-8.33,257.45,-0.051143,-1.2036,-0.0044148,0.05699,0,0,-0.72365,0.31,-0.07,-0.16,0
22017,1.856e+07,0,76.71,-8.47,257.37,-0.043626,-1.1942,-0.0018838,0.058732,0,0,-0.72303,0.31,-0.07,-0.16,0
22058,1.8571e+07,0,76.54,-8.66,257.28,-0.038993,-1.1897,0.0047385,0.064741,0,0,-0.72302,0.31,-0.07,-0.16,0
22100,1.858e+07,0,76.39,-8.84,257.2,-0.034465,-1.1836,0.017896,0.076566,0,0,-0.72228,0.31,-0.07,-0.16,0
22137,1.8591e+07,0,76.26,-9.05,257.13,-0.02461,-1.172,0.03194,0.08974,0,0,-0.72113,0.3,-0.07,-0.15,0
22180,1.8604e+07,0,76.08,-9.33,257.05,-0.020531,-1.1526,0.04697,0.105,0,0,-0.71977,0.3,-0.07,-0.15,0
22220,1.8614e+07,0,75.93,-9.57,257,-0.015885,-1.1447,0.067035,0.12547,0,0,-0.7184,0.3,-0.07,-0.15,0
22261,1.8624e+07,0,75.8,-9.85,256.95,-0.012045,-1.1354,0.085418,0.14454,0,0,-0.71679,0.3,-0.07,-0.15,0
22302,1.8635e+07,0,75.7,-10.11,256.92,-0.01254,-1.1251,0.096082,0.1551,0,0,-0.71516,0.3,-0.07,-0.15,0
22342,1.8645e+07,0,75.57,-10.37,256.88,-0.0066229,-1.1248,0.11249,0.17111,0,0,-0.71345,0.3,-0.07,-0.15,0
22392,1.8658e+07,0,75.45,-10.7,256.83,-0.009046,-1.1293,0.14992,0.20856,0,0,-0.71097,0.3,-0.07,-0.15,0
22433,1.8668e+07,0,75.38,-10.92,256.78,-0.0066119,-1.1218,0.15904,0.2165,0,0,-0.70881,0.3,-0.07,-0.15,0
22474,1.8679e+07,0,75.26,-11.13,256.73,-0.014349,-1.1205,0.16665,0.2233,0,0,-0.7072,0.3,-0.07,-0.15,0
22515,1.869e+07,0,75.15,-11.3,256.68,-0.0098591,-1.1256,0.18986,0.23981,0,0,-0.70645,0.28,-0.07,-0.15,0
22552,1.87e+07,0,75.08,-11.46,256.61,-0.0072511,-1.1206,0.21112,0.24865,0,0,-0.70537,0.28,-0.07,-0.13,0
22593,1.871e+07,0,75.04,-11.58,256.54,-0.011682,-1.1075,0.22026,0.24459,0,0,-0.70431,0.28,-0.07,-0.13,0
22634,1.872e+07,0,75.02,-11.67,256.48,-0.014273,-1.1043,0.23035,0.24044,0,0,-0.70313,0.28,-0.07,-0.13,0
22674,1.8731e+07,0,75.04,-11.73,256.43,-0.017871,-1.1017,0.24544,0.24166,0,0,-0.70179,0.28,-0.07,-0.13,0
22715,1.8741e+07,0,75.11,-11.76,256.37,-0.026076,-1.0895,0.25192,0.2322,0,0,-0.70005,0.28,-0.07,-0.13,0
22761,1.8751e+07,0,75.18,-11.75,256.33,-0.035246,-1.0872,0.24868,0.21417,0,0,-0.69755,0.28,-0.07,-0.13,0
22802,1.8761e+07,0,75.25,-11.71,256.28,-0.045408,-1.0854,0.25031,0.20347,0,0,-0.69605,0.28,-0.07,-0.13,0
22842,1.8772e+07,0,75.37,-11.67,256.25,-0.044462,-1.0661,0.25529,0.19664,0,0,-0.69423,0.28,-0.07,-0.13,0
22884,1.8782e+07,0,75.53,-11.62,256.26,-0.04176,-1.038,0.25365,0.18705,0,0,-0.69262,0.28,-0.07,-0.13,0
22924,1.8792e+07,0,75.74,-11.55,256.31,-0.051411,-1.0382,0.25064,0.17551,0,0,-0.6901,0.28,-0.07,-0.13,0
22962,1.8803e+07,0,75.98,-11.48,256.37,-0.047744,-1.027,0.23635,0.15303,0,0,-0.68876,0.26,-0.07,-0.11,0
23001,1.8814e+07,0,76.21,-11.41,256.46,-0.04559,-0.99553,0.22251,0.13075,0,0,-0.68778,0.27,-0.07,-0.11,0
23041,1.8824e+07,0,76.47,-11.34,256.58,-0.04281,-0.97958,0.20949,0.11061,0,0,-0.68688,0.27,-0.07,-0.11,0
23082,1.8834e+07,0,76.76,-11.28,256.73,-0.035705,-0.97583,0.18419,0.077666,0,0,-0.68594,0.27,-0.07,-0.11,0
23125,1.8844e+07,0,76.99,-11.24,256.89,-0.035229,-0.95622,0.15636,0.044257,0,0,-0.68543,0.27,-0.07,-0.11,0
23172,1.8855e+07,0,77.2,-11.2,257.08,-0.029354,-0.93942,0.12942,0.012466,0,0,-0.68516,0.27,-0.07,-0.11,0
23212,1.8865e+07,0,77.43,-11.17,257.3,-0.023893,-0.93328,0.10406,-0.016586,0,0,-0.685,0.27,-0.07,-0.11,0
23253,1.8876e+07,0,77.63,-11.17,257.52,-0.026742,-0.92436,0.078878,-0.045448,0,0,-0.68408,0.27,-0.07,-0.11,0
23294,1.8886e+07,0,77.84,-11.18,257.78,-0.022828,-0.90863,0.048681,-0.077237,0,0,-0.68448,0.27,-0.07,-0.11,0
23334,1.8896e+07,0,78.03,-11.2,258.02,-0.02179,-0.90191,0.021499,-0.10362,0,0,-0.68469,0.25,-0.07,-0.11,0
23375,1.8909e+07,0,78.25,-11.26,258.34,-0.021523,-0.89492,-0.023038,-0.14452,0,0,-0.68523,0.25,-0.07,-0.1,0
23415,1.8919e+07,0,78.37,-11.31,258.57,-0.020705,-0.89099,-0.057848,-0.17509,0,0,-0.68617,0.25,-0.07,-0.1,0
23456,1.8929e+07,0,78.45,-11.36,258.8,-0.022414,-0.89342,-0.090123,-0.20217,0,0,-0.68742,0.25,-0.07,-0.1,0
23496,1.8939e+07,0,78.5,-11.41,259.01,-0.020877,-0.89281,-0.12505,-0.23103,0,0,-0.689,0.25,-0.07,-0.1,0
23537,1.895e+07,0,78.52,-11.47,259.22,-0.021792,-0.89588,-0.15745,-0.25797,0,0,-0.69042,0.25,-0.07,-0.1,0
23583,1.896e+07,0,78.51,-11.52,259.42,-0.018466,-0.89811,-0.18295,-0.27732,0,0,-0.69262,0.25,-0.07,-0.1,0
23623,1.897e+07,0,78.48,-11.56,259.61,-0.011486,-0.90334,-0.20511,-0.29344,0,0,-0.69505,0.25,-0.07,-0.1,0
23664,1.898e+07,0,78.41,-11.59,259.77,-0.0065605,-0.90771,-0.22526,-0.30755,0,0,-0.69768,0.25,-0.07,-0.1,0
23704,1.899e+07,0,78.32,-11.59,259.92,-0.0039955,-0.9189,-0.2391,-0.316,0,0,-0.7,0.25,-0.07,-0.1,0
23745,1.9e+07,0,78.19,-11.56,260.07,0.003386,-0.9274,-0.24616,-0.31709,0,0,-0.70314,0.25,-0.07,-0.1,0
23782,1.9011e+07,0,78.08,-11.51,260.18,0.0087801,-0.92757,-0.24731,-0.31061,0,0,-0.70462,0.23,-0.07,-0.08,0
23823,1.9021e+07,0,77.98,-11.42,260.27,0.014918,-0.92596,-0.24613,-0.29902,0,0,-0.70614,0.23,-0.07,-0.08,0
23864,1.903e+07,0,77.88,-11.3,260.36,0.020943,-0.92776,-0.24068,-0.28124,0,0,-0.70767,0.23,-0.07,-0.08,0
23905,1.9041e+07,0,77.8,-11.14,260.45,0.027906,-0.92997,-0.23052,-0.2558,0,0,-0.70941,0.23,-0.07,-0.08,0
23949,1.9052e+07,0,77.74,-10.96,260.53,0.033121,-0.93492,-0.21972,-0.23045,0,0,-0.71166,0.23,-0.07,-0.08,0
23993,1.9062e+07,0,77.68,-10.73,260.6,0.042689,-0.93441,-0.20522,-0.2015,0,0,-0.71318,0.23,-0.07,-0.08,0
24034,1.9073e+07,0,77.64,-10.49,260.67,0.053167,-0.93102,-0.18999,-0.17387,0,0,-0.71437,0.23,-0.07,-0.08,0
24075,1.9083e+07,0,77.6,-10.24,260.74,0.065059,-0.9245,-0.17457,-0.14738,0,0,-0.71545,0.23,-0.07,-0.08,0
24115,1.9093e+07,0,77.58,-9.98,260.83,0.075679,-0.91685,-0.15995,-0.12342,0,0,-0.71641,0.23,-0.07,-0.08,0
24154,1.9105e+07,0,77.55,-9.66,260.94,0.091064,-0.9049,-0.13834,-0.08957,0,0,-0.71608,0.22,-0.07,-0.06,0
24194,1.9115e+07,0,77.55,-9.42,261.04,0.099165,-0.90027,-0.11926,-0.058107,0,0,-0.71737,0.22,-0.07,-0.06,0
24235,1.9125e+07,0,77.57,-9.19,261.15,0.11082,-0.8895,-0.098276,-0.024287,0,0,-0.71625,0.21,-0.07,-0.06,0
24276,1.9135e+07,0,77.61,-8.98,261.27,0.12148,-0.87717,-0.077413,0.010595,0,0,-0.71502,0.21,-0.07,-0.06,0
24318,1.9145e+07,0,77.67,-8.78,261.41,0.13109,-0.86406,-0.055262,0.046789,0,0,-0.71366,0.21,-0.07,-0.06,0
24359,1.9155e+07,0,77.75,-8.61,261.55,0.13953,-0.85321,-0.032156,0.082135,0,0,-0.71216,0.21,-0.07,-0.06,0
24405,1.9166e+07,0,77.87,-8.43,261.71,0.14887,-0.8443,-0.0069733,0.12143,0,0,-0.71053,0.21,-0.07,-0.06,0
24447,1.9176e+07,0,78,-8.28,261.86,0.15339,-0.84223,0.013124,0.15458,0,0,-0.71049,0.21,-0.07,-0.06,0
24487,1.9186e+07,0,78.15,-8.14,262,0.16126,-0.83746,0.03194,0.18292,0,0,-0.70848,0.21,-0.07,-0.06,0
24528,1.9196e+07,0,78.32,-8.01,262.14,0.16854,-0.8334,0.049052,0.2078,0,0,-0.70636,0.21,-0.07,-0.06,0
24565,1.9207e+07,0,78.52,-7.87,262.28,0.17623,-0.82684,0.065894,0.23119,0,0,-0.70362,0.2,-0.08,-0.03,0
24606,1.9217e+07,0,78.71,-7.73,262.38,0.18351,-0.82367,0.078691,0.2503,0,0,-0.70088,0.2,-0.08,-0.03,0
24647,1.9228e+07,0,78.93,-7.57,262.49,0.19029,-0.82374,0.088387,0.26752,0,0,-0.69802,0.2,-0.08,-0.03,0
24687,1.9239e+07,0,79.09,-7.42,262.56,0.19665,-0.82235,0.092848,0.27674,0,0,-0.69526,0.2,-0.08,-0.03,0
24732,1.925e+07,0,79.23,-7.25,262.62,0.20297,-0.82301,0.095993,0.2852,0,0,-0.69244,0.2,-0.08,-0.03,0
24774,1.926e+07,0,79.34,-7.08,262.66,0.20903,-0.82458,0.099964,0.29322,0,0,-0.68967,0.2,-0.08,-0.03,0
24819,1.927e+07,0,79.43,-6.9,262.68,0.21173,-0.82872,0.10294,0.29969,0,0,-0.68866,0.2,-0.08,-0.03,0
24859,1.9281e+07,0,79.52,-6.72,262.69,0.21696,-0.82728,0.10551,0.30254,0,0,-0.68598,0.2,-0.08,-0.03,0
24900,1.9291e+07,0,79.6,-6.51,262.68,0.22178,-0.82657,0.10701,0.30355,0,0,-0.68324,0.2,-0.08,-0.03,0
24939,1.9301e+07,0,79.67,-6.31,262.67,0.22686,-0.82238,0.10722,0.3032,0,0,-0.67989,0.19,-0.08,-0.02,0
24976,1.9312e+07,0,79.74,-6.09,262.64,0.23256,-0.81853,0.10381,0.30141,0,0,-0.67654,0.19,-0.08,-0.01,0
25017,1.9322e+07,0,79.78,-5.88,262.6,0.23904,-0.81389,0.09844,0.29422,0,0,-0.67342,0.19,-0.08,-0.01,0
25057,1.9332e+07,0,79.82,-5.69,262.57,0.24446,-0.81284,0.091885,0.28904,0,0,-0.67238,0.19,-0.08,-0.01,0
25098,1.9342e+07,0,79.85,-5.51,262.53,0.25423,-0.80681,0.086568,0.28353,0,0,-0.66945,0.19,-0.08,-0.01,0
25141,1.9352e+07,0,79.88,-5.34,262.49,0.26471,-0.80174,0.08031,0.27597,0,0,-0.66667,0.19,-0.08,-0.01,0
25181,1.9363e+07,0,79.9,-5.19,262.45,0.27639,-0.79434,0.074105,0.26731,0,0,-0.66403,0.19,-0.08,-0.01,0
25226,1.9373e+07,0,79.93,-5.04,262.4,0.28898,-0.78671,0.066998,0.25701,0,0,-0.66145,0.19,-0.08,-0.01,0
25266,1.9384e+07,0,79.96,-4.92,262.35,0.2985,-0.78692,0.05973,0.24867,0,0,-0.66082,0.19,-0.08,-0.01,0
25308,1.9394e+07,0,79.99,-4.81,262.29,0.31102,-0.78154,0.054258,0.24021,0,0,-0.65852,0.19,-0.08,-0.01,0
