LineNo,TimeUS,C,Roll,Pitch,Yaw,VN,VE,VD,dPD,PN,PE,PD,GX,GY,GZ,OH
192,12923301,0,1.45,-0.89,6.25,0.004947485,-0.01424959,0.07570291,-0.3425176,0,0,0.6444784,0,-0.01,-0.19,0
988,13118095,0,1.45,-0.89,6.37,0.003824136,-0.01422599,0.04730309,-0.215772,0,0,0.5965766,0,-0.01,-0.2,0
1100,13166495,0,1.46,-0.89,6.39,0.004365728,-0.01381616,-0.004806135,-0.2168381,0,0,0.5889348,-0.01,-0.01,-0.21,0
1486,13333120,0,1.46,-0.89,6.45,0.003115122,-0.01389945,-0.3226014,-0.4887121,0,0,0.5242942,-0.01,-0.01,-0.2,0
1562,13344185,0,1.46,-0.89,6.46,0.003311962,-0.01412417,-0.3243115,-0.5022369,0,0,0.51737,-0.01,-0.01,-0.2,0
1603,13354564,0,1.45,-0.89,6.47,0.003314517,-0.01409967,-0.3244939,-0.5163316,0,0,0.5141279,-0.01,-0.01,-0.2,0
1643,13364565,0,1.45,-0.89,6.48,0.00332832,-0.01400108,-0.3260213,-0.5276369,0,0,0.507666,-0.01,-0.01,-0.2,0
1687,13375491,0,1.45,-0.89,6.48,0.003455016,-0.01371351,-0.3285041,-0.5417794,0,0,0.4990416,-0.01,-0.01,-0.2,0
1728,13386106,0,1.45,-0.89,6.49,0.00339138,-0.01368158,-0.3309886,-0.5632687,0,0,0.4905748,-0.01,-0.01,-0.23,0
1768,13396015,0,1.45,-0.89,6.51,0.003401671,-0.01340718,-0.3334601,-0.5835283,0,0,0.4826566,-0.01,-0.01,-0.23,0
1811,13406910,0,1.45,-0.89,6.52,0.003564887,-0.01307324,-0.3356738,-0.6075281,0,0,0.4746205,-0.01,-0.01,-0.23,0
1855,13416958,0,1.45,-0.89,6.53,0.003495226,-0.01303096,-0.3375739,-0.6235837,0,0,0.4671043,-0.01,-0.01,-0.23,0
1896,13427513,0,1.45,-0.89,6.55,0.00352735,-0.0132066,-0.3377929,-0.6413586999999999,0,0,0.4637305,-0.01,-0.01,-0.23,0
1936,13438076,0,1.45,-0.9,6.56,0.003481147,-0.013034,-0.3399861,-0.6556068,0,0,0.4560374,-0.01,-0.01,-0.23,0
1977,13448906,0,1.46,-0.9,6.57,0.003339537,-0.01276508,-0.3418355,-0.6671624,0,0,0.4488713,-0.01,-0.01,-0.23,0
2016,13459073,0,1.46,-0.9,6.59,0.003049539,-0.01250297,-0.3427933,-0.6722445,0,0,0.4429716,-0.01,-0.01,-0.24,0
2057,13469456,0,1.46,-0.9,6.6,0.002909848,-0.01237019,-0.3437323,-0.6704634,0,0,0.4375266,-0.01,-0.01,-0.24,0
2098,13479720,0,1.46,-0.9,6.62,0.002763972,-0.01202818,-0.3446971,-0.662469,0,0,0.4321781,-0.01,-0.01,-0.24,0
2138,13490052,0,1.46,-0.9,6.64,0.00277117,-0.01191003,-0.3454691,-0.6506608,0,0,0.4269282,-0.01,-0.01,-0.25,0
2180,13500321,0,1.46,-0.89,6.65,0.002433394,-0.01181276,-0.3459082,-0.6360096,0,0,0.4214347,-0.01,-0.01,-0.25,0
2221,13510584,0,1.47,-0.89,6.66,0.00236271,-0.01195238,-0.3460286,-0.6220922,0,0,0.4179776,-0.01,-0.01,-0.25,0
2266,13520518,0,1.47,-0.89,6.68,0.002240654,-0.01194885,-0.3468004,-0.6061744999999999,0,0,0.4129083,-0.01,-0.01,-0.25,0
2307,13530650,0,1.47,-0.89,6.69,0.002256528,-0.01189425,-0.3476524,-0.5897737,0,0,0.4079257,-0.01,-0.01,-0.25,0
2347,13541099,0,1.47,-0.89,6.7,0.002402136,-0.01195079,-0.3482652,-0.5720355,0,0,0.4026839,-0.01,-0.01,-0.25,0
2387,13551465,0,1.47,-0.89,6.71,0.00234894,-0.01177764,-0.3493215,-0.5565808,0,0,0.3974982,-0.01,-0.01,-0.25,0
2431,13564447,0,1.47,-0.89,6.73,0.002348209,-0.01157833,-0.3503821,-0.5396986,0,0,0.3913563,-0.01,-0.01,-0.26,0
2475,13576777,0,1.47,-0.89,6.75,0.002315694,-0.0115148,-0.3510238,-0.5232537,0,0,0.3852894,-0.01,-0.01,-0.26,0
2516,13586918,0,1.47,-0.89,6.76,0.002449491,-0.01130599,-0.3516382,-0.5114262000000001,0,0,0.3803562,-0.01,-0.01,-0.26,0
2556,13597578,0,1.47,-0.89,6.77,0.002466639,-0.01100286,-0.3525055,-0.501082,0,0,0.3755058,-0.01,-0.01,-0.26,0
2599,13608177,0,1.47,-0.89,6.78,0.002488338,-0.01101754,-0.352857,-0.4893457,0,0,0.3703735,-0.01,-0.01,-0.26,0
2644,13618928,0,1.47,-0.89,6.79,0.002575076,-0.01098447,-0.3528804,-0.4803007,0,0,0.3668481,-0.01,-0.01,-0.26,0
2685,13629078,0,1.47,-0.89,6.8,0.002503363,-0.01064406,-0.3534775,-0.4703029,0,0,0.3617781,-0.01,-0.01,-0.26,0
2725,13639081,0,1.47,-0.89,6.81,0.002597279,-0.01060266,-0.353952,-0.461331,0,0,0.3571244,-0.01,-0.01,-0.26,0
2766,13649632,0,1.47,-0.89,6.82,0.00287344,-0.0106051,-0.3546749,-0.4527161,0,0,0.3525322,-0.01,-0.01,-0.26,0
2809,13665881,0,1.47,-0.89,6.83,0.003194194,-0.01063233,-0.3560897,-0.4424955,0,0,0.3447344,-0.02,-0.01,-0.28,0
2849,13676058,0,1.47,-0.89,6.85,0.003242677,-0.01046042,-0.357077,-0.4403359,0,0,0.339511,-0.02,-0.01,-0.29,0
2891,13686063,0,1.47,-0.89,6.86,0.003142954,-0.01019728,-0.3575972,-0.439084,0,0,0.3343745,-0.02,-0.01,-0.29,0
2931,13696521,0,1.47,-0.89,6.88,0.002890645,-0.01000669,-0.3583065,-0.4394248,0,0,0.3293264,-0.02,-0.01,-0.29,0
2972,13706506,0,1.47,-0.89,6.89,0.002797511,-0.009928945999999999,-0.3593032,-0.4401509,0,0,0.3243538,-0.02,-0.01,-0.29,0
3014,13717120,0,1.47,-0.9,6.9,0.002812718,-0.009878295,-0.3598087,-0.4414745,0,0,0.3190985,-0.02,-0.01,-0.29,0
3059,13727767,0,1.47,-0.9,6.91,0.002751856,-0.009850275,-0.3597542,-0.4430115,0,0,0.3155042,-0.02,-0.01,-0.29,0
3100,13738101,0,1.47,-0.9,6.92,0.002445925,-0.009558184000000001,-0.3605747,-0.4436321,0,0,0.3103085,-0.02,-0.01,-0.29,0
3140,13748498,0,1.47,-0.9,6.93,0.002360931,-0.00931163,-0.3612128,-0.4440584,0,0,0.3055398,-0.02,-0.01,-0.29,0
3181,13758107,0,1.47,-0.9,6.94,0.00229846,-0.008964255000000001,-0.3617704,-0.4430622,0,0,0.3012118,-0.02,-0.01,-0.29,0
3221,13771896,0,1.48,-0.9,6.95,0.001990928,-0.009005197,-0.3624436,-0.4398911,0,0,0.2958454,-0.02,-0.01,-0.32,0
3262,13781952,0,1.48,-0.9,6.97,0.001969265,-0.008883185,-0.3628376,-0.4360156,0,0,0.2916068,-0.02,-0.01,-0.32,0
3305,13792096,0,1.48,-0.9,6.98,0.001884416,-0.008653842,-0.3630822,-0.4310205,0,0,0.2870515,-0.02,-0.01,-0.32,0
3345,13802110,0,1.48,-0.9,7,0.00182104,-0.008461831,-0.3632343,-0.4257651,0,0,0.2829004,-0.02,-0.01,-0.32,0
3387,13812106,0,1.48,-0.89,7.01,0.001960644,-0.008481858,-0.3635466,-0.4200876,0,0,0.2787855,-0.02,-0.01,-0.32,0
3428,13822080,0,1.48,-0.89,7.02,0.002040959,-0.008538677999999999,-0.3636217,-0.4147985,0,0,0.2751527,-0.02,-0.01,-0.32,0
3473,13832121,0,1.48,-0.89,7.04,0.002063885,-0.008474354,-0.3638377,-0.4094187,0,0,0.2710733,-0.02,-0.01,-0.32,0
3515,13842163,0,1.48,-0.89,7.05,0.002031827,-0.008243985000000001,-0.3638901,-0.4041147,0,0,0.2670335,-0.02,-0.01,-0.32,0
3557,13852525,0,1.48,-0.89,7.06,0.002184236,-0.008268708,-0.3641763,-0.3991477,0,0,0.2630287,-0.02,-0.01,-0.32,0
3598,13862907,0,1.48,-0.89,7.08,0.002131095,-0.008035474000000001,-0.3641582,-0.3936776,0,0,0.2595223,-0.02,-0.01,-0.32,0
3638,13875374,0,1.48,-0.89,7.09,0.002283586,-0.007595387,-0.364049,-0.3848325,0,0,0.2549371,-0.02,-0.01,-0.33,0
3678,13885355,0,1.48,-0.89,7.1,0.002240402,-0.007761478,-0.364037,-0.3768176,0,0,0.2509363,-0.02,-0.01,-0.33,0
3719,13895344,0,1.48,-0.89,7.12,0.002302967,-0.007618001,-0.3640157,-0.3695935,0,0,0.2474489,-0.02,-0.01,-0.33,0
3759,13905457,0,1.48,-0.89,7.13,0.002428659,-0.00737934,-0.3636101,-0.362151,0,0,0.2439777,-0.02,-0.01,-0.33,0
3800,13915324,0,1.48,-0.89,7.14,0.002404028,-0.006972638,-0.3634258,-0.3553672,0,0,0.240521,-0.02,-0.01,-0.33,0
3846,13925346,0,1.48,-0.89,7.15,0.002623524,-0.006996639,-0.3631224,-0.3489316,0,0,0.2370805,-0.02,-0.01,-0.33,0
3887,13936053,0,1.48,-0.89,7.16,0.002595778,-0.006866387,-0.3631638,-0.3426565,0,0,0.2332929,-0.02,-0.01,-0.33,0
3927,13946891,0,1.48,-0.89,7.17,0.002701116,-0.006677243,-0.3634313,-0.3371937,0,0,0.2295184,-0.02,-0.01,-0.33,0
3968,13957466,0,1.48,-0.89,7.18,0.00261662,-0.006774287,-0.3635669,-0.3325355,0,0,0.2258875,-0.02,-0.01,-0.33,0
4010,13968163,0,1.48,-0.89,7.19,0.002788381,-0.006751731,-0.3638405,-0.3284009,0,0,0.2221191,-0.02,-0.01,-0.33,0
4044,13978948,0,1.48,-0.89,7.2,0.002935656,-0.006754098,-0.3638096,-0.32457,0,0,0.2184156,-0.02,-0.01,-0.35,0
4085,13988992,0,1.48,-0.89,7.21,0.003064651,-0.006597884,-0.3638341,-0.321392,0,0,0.2150892,-0.02,-0.01,-0.35,0
4126,13998972,0,1.48,-0.89,7.22,0.003092918,-0.00668774,-0.3638669,-0.3186331,0,0,0.2117693,-0.02,-0.01,-0.35,0
4166,14009090,0,1.48,-0.89,7.24,0.002865748,-0.006727988,-0.363843,-0.3164116,0,0,0.2084543,-0.02,-0.01,-0.35,0
4207,14019486,0,1.48,-0.89,7.25,0.002894121,-0.006710839,-0.3636605,-0.3139903,0,0,0.2048204,-0.02,-0.01,-0.35,0
4254,14029528,0,1.48,-0.89,7.26,0.00287626,-0.006547658,-0.3638305,-0.3125344,0,0,0.2015115,-0.02,-0.01,-0.35,0
4294,14040048,0,1.48,-0.89,7.27,0.002991098,-0.006424126,-0.3637732,-0.3111853,0,0,0.1978411,-0.02,-0.01,-0.35,0
4335,14050029,0,1.49,-0.89,7.28,0.003075014,-0.006093035,-0.3639286,-0.3104905,0,0,0.1945371,-0.02,-0.01,-0.35,0
4378,14060045,0,1.49,-0.89,7.29,0.003245056,-0.00592417,-0.3640189,-0.3101955,0,0,0.191237,-0.02,-0.01,-0.35,0
4419,14070290,0,1.49,-0.89,7.3,0.003405044,-0.00589382,-0.3641554,-0.3097381,0,0,0.1876006,-0.02,-0.01,-0.35,0
4456,14081081,0,1.49,-0.89,7.31,0.003525575,-0.005834549,-0.3640325,-0.308238,0,0,0.1846729,-0.02,-0.01,-0.36,0
4498,14090983,0,1.49,-0.89,7.32,0.003381202,-0.005813402,-0.3638149,-0.305768,0,0,0.1817372,-0.02,-0.01,-0.36,0
4538,14101033,0,1.49,-0.89,7.33,0.003400823,-0.005524243,-0.3637484,-0.3032426,0,0,0.1787921,-0.02,-0.01,-0.36,0
4580,14110970,0,1.49,-0.89,7.34,0.003411967,-0.005272785,-0.3640182,-0.3014117,0,0,0.1758353,-0.02,-0.01,-0.36,0
4621,14120915,0,1.49,-0.89,7.35,0.003381872,-0.005310968,-0.3637234,-0.2991325,0,0,0.1728698,-0.02,-0.01,-0.36,0
4665,14130877,0,1.49,-0.89,7.36,0.003360788,-0.005407386,-0.363829,-0.2965765,0,0,0.1692358,-0.02,-0.01,-0.36,0
4706,14140968,0,1.49,-0.89,7.37,0.003351961,-0.005369027,-0.3637761,-0.2945321,0,0,0.1658997,-0.02,-0.01,-0.36,0
4747,14151034,0,1.49,-0.89,7.38,0.003426131,-0.005059483,-0.3636511,-0.2931437,0,0,0.1629168,-0.02,-0.01,-0.36,0
4788,14161091,0,1.49,-0.89,7.39,0.003303393,-0.004843391,-0.3635764,-0.2920893,0,0,0.1599283,-0.02,-0.01,-0.36,0
4828,14173968,0,1.49,-0.89,7.41,0.003400398,-0.004496396,-0.362818,-0.2894769,0,0,0.1568391,-0.02,-0.01,-0.37,0
4866,14183958,0,1.49,-0.89,7.42,0.003212294,-0.004339658,-0.3619817,-0.285528,0,0,0.1547971,-0.02,-0.01,-0.37,0
4907,14194452,0,1.49,-0.89,7.43,0.003017646,-0.00427526,-0.3619451,-0.2784909,0,0,0.1511822,-0.02,-0.01,-0.37,0
4947,14204945,0,1.49,-0.89,7.44,0.003063067,-0.004276057,-0.3616943,-0.2711268,0,0,0.1487436,-0.02,-0.01,-0.37,0
4988,14214983,0,1.49,-0.89,7.44,0.003370783,-0.00437231,-0.3610018,-0.2642212,0,0,0.1466257,-0.02,-0.01,-0.37,0
5028,14224966,0,1.49,-0.89,7.45,0.00339356,-0.004339583,-0.3603242,-0.2574215,0,0,0.1444724,-0.02,-0.01,-0.37,0
5074,14234970,0,1.49,-0.89,7.46,0.003598843,-0.004267638,-0.3598212,-0.2520038,0,0,0.1422827,-0.02,-0.01,-0.37,0
5115,14245457,0,1.49,-0.89,7.47,0.003854565,-0.004222556,-0.3600163,-0.2458335,0,0,0.1386883,-0.02,-0.01,-0.37,0
5156,14256035,0,1.49,-0.89,7.47,0.003692068,-0.004239539,-0.3596054,-0.2405143,0,0,0.1361084,-0.02,-0.01,-0.37,0
5198,14265898,0,1.49,-0.89,7.48,0.003550225,-0.004303822,-0.3594135,-0.2370792,0,0,0.1338526,-0.02,-0.01,-0.37,0
5236,14276258,0,1.49,-0.89,7.49,0.003694401,-0.004162551,-0.3584124,-0.2326264,0,0,0.1325037,-0.02,-0.01,-0.38,0
5280,14286647,0,1.49,-0.89,7.49,0.003754119,-0.004114957,-0.3574965,-0.2254072,0,0,0.1310907,-0.02,-0.01,-0.38,0
5320,14297224,0,1.48,-0.89,7.5,0.00377367,-0.004206353,-0.3565516,-0.2171632,0,0,0.1292613,-0.02,-0.01,-0.38,0
5361,14307461,0,1.48,-0.89,7.52,0.003436642,-0.004023493,-0.3568154,-0.2083651,0,0,0.1256988,-0.02,-0.01,-0.38,0
5401,14318097,0,1.49,-0.89,7.53,0.003170341,-0.003820493,-0.356167,-0.2002072,0,0,0.1238177,-0.02,-0.01,-0.38,0
5442,14329055,0,1.49,-0.89,7.53,0.002946528,-0.003815332,-0.35545,-0.1924812,0,0,0.1222343,-0.02,-0.01,-0.38,0
5487,14338994,0,1.49,-0.89,7.54,0.002755434,-0.003728105,-0.3546712,-0.1884251,0,0,0.1205959,-0.02,-0.01,-0.38,0
5527,14349021,0,1.49,-0.89,7.55,0.002469088,-0.003559653,-0.3538041,-0.1848652,0,0,0.1189064,-0.02,-0.01,-0.38,0
5568,14359447,0,1.49,-0.89,7.56,0.002292242,-0.003464136,-0.3530103,-0.1801922,0,0,0.116815,-0.02,-0.01,-0.38,0
5613,14372581,0,1.49,-0.89,7.57,0.002158931,-0.003262633,-0.3516945,-0.1735108,0,0,0.1152741,-0.02,-0.01,-0.38,0
5657,14388308,0,1.49,-0.89,7.58,0.002004324,-0.002963638,-0.3507013,-0.1601475,0,0,0.112594,-0.02,-0.01,-0.4,0
5697,14398370,0,1.49,-0.89,7.59,0.001832751,-0.002876823,-0.3495028,-0.1526575,0,0,0.1119329,-0.02,-0.01,-0.4,0
5738,14409020,0,1.49,-0.89,7.6,0.001768988,-0.002882891,-0.3483932,-0.1447179,0,0,0.1108387,-0.02,-0.01,-0.4,0
5781,14419708,0,1.49,-0.89,7.61,0.001741101,-0.002734432,-0.3485011,-0.1357408,0,0,0.1073583,-0.02,-0.01,-0.4,0
5821,14430028,0,1.49,-0.88,7.62,0.001768289,-0.002714455,-0.3475907,-0.128201,0,0,0.1061897,-0.02,-0.01,-0.4,0
5866,14440107,0,1.49,-0.88,7.62,0.00181015,-0.00278455,-0.3466876,-0.1230652,0,0,0.1052938,-0.02,-0.01,-0.4,0
5909,14450075,0,1.49,-0.88,7.63,0.001746115,-0.002854318,-0.3455958,-0.1185958,0,0,0.1043169,-0.02,-0.01,-0.4,0
5950,14460114,0,1.49,-0.88,7.64,0.002011945,-0.002637816,-0.3443273,-0.116321,0,0,0.1032661,-0.02,-0.01,-0.4,0
5991,14470312,0,1.49,-0.88,7.65,0.002202236,-0.002613285,-0.3444099,-0.1129661,0,0,0.09982605,-0.02,-0.01,-0.4,0
6031,14480895,0,1.49,-0.88,7.66,0.002256773,-0.002743639,-0.3434991,-0.111676,0,0,0.09871168,-0.02,-0.01,-0.4,0
6070,14490807,0,1.49,-0.88,7.67,0.002409924,-0.002712047,-0.3419355,-0.1088481,0,0,0.09852178,-0.02,-0.01,-0.42,0
6111,14501120,0,1.49,-0.88,7.68,0.002433002,-0.002481663,-0.3405966,-0.1024305,0,0,0.09788887,-0.02,-0.01,-0.42,0
6151,14511116,0,1.49,-0.89,7.7,0.00251079,-0.002429238,-0.3394953,-0.09676869,0,0,0.09749959,-0.02,-0.01,-0.42,0
6192,14521379,0,1.49,-0.89,7.71,0.002633176,-0.002559413,-0.3395063,-0.09304555,0,0,0.09410779,-0.02,-0.01,-0.42,0
6232,14531128,0,1.49,-0.89,7.72,0.002658427,-0.002514965,-0.3379936,-0.09006479000000001,0,0,0.09364472,-0.02,-0.01,-0.42,0
6277,14541580,0,1.49,-0.89,7.73,0.00266471,-0.002280408,-0.3367295,-0.08734546999999999,0,0,0.09309145000000001,-0.02,-0.01,-0.42,0
6317,14551576,0,1.49,-0.89,7.74,0.002534357,-0.002194395,-0.3353488,-0.08633225,0,0,0.09245194,-0.02,-0.01,-0.42,0
6359,14561583,0,1.49,-0.89,7.75,0.002390171,-0.002055599,-0.3344575,-0.08627276,0,0,0.09172751,-0.02,-0.01,-0.42,0
6400,14571523,0,1.49,-0.89,7.76,0.002177845,-0.002039911,-0.3344387,-0.08418518,0,0,0.08838714,-0.02,-0.01,-0.42,0
6441,14584428,0,1.49,-0.89,7.78,0.001857349,-0.002066463,-0.3334416,-0.08511312,0,0,0.08659384000000001,-0.02,-0.01,-0.42,0
6479,14594617,0,1.49,-0.88,7.79,0.001707083,-0.002144561,-0.3317366,-0.08205469,0,0,0.087131,-0.03,-0.01,-0.41,0
6519,14604611,0,1.49,-0.88,7.79,0.001591297,-0.002122371,-0.3301123,-0.07638665,0,0,0.08753627999999999,-0.03,-0.01,-0.42,0
6560,14615019,0,1.49,-0.88,7.8,0.001411542,-0.002048854,-0.3286463,-0.06698320000000001,0,0,0.08748649,-0.03,-0.01,-0.42,0
6601,14625003,0,1.49,-0.88,7.81,0.001319576,-0.002041761,-0.3269534,-0.05867156,0,0,0.0876589,-0.03,-0.01,-0.42,0
6642,14635016,0,1.49,-0.88,7.82,0.001287489,-0.002014359,-0.3255329,-0.05340393,0,0,0.08772075999999999,-0.03,-0.01,-0.42,0
6687,14645772,0,1.49,-0.88,7.83,0.001249309,-0.001946711,-0.323916,-0.04550219,0,0,0.08735045,-0.03,-0.01,-0.42,0
6729,14655667,0,1.49,-0.88,7.84,0.00128068,-0.001890939,-0.3238238,-0.03836458,0,0,0.08443841000000001,-0.03,-0.01,-0.42,0
6770,14665767,0,1.49,-0.88,7.85,0.001284872,-0.00213341,-0.3223661,-0.03269914,0,0,0.08398108999999999,-0.03,-0.01,-0.42,0
6813,14675647,0,1.49,-0.88,7.85,0.001290115,-0.002263863,-0.3209957,-0.02930185,0,0,0.08375152,-0.03,-0.01,-0.42,0
6853,14688877,0,1.49,-0.88,7.86,0.001120044,-0.002272436,-0.319463,-0.02782728,0,0,0.08324447,-0.03,-0.01,-0.43,0
6894,14699005,0,1.49,-0.88,7.87,0.001243916,-0.002293781,-0.3178841,-0.02815377,0,0,0.08327198,-0.03,-0.01,-0.43,0
6934,14708961,0,1.49,-0.88,7.88,0.001210753,-0.002287563,-0.3167308,-0.02915221,0,0,0.08319087,-0.03,-0.01,-0.43,0
6975,14719367,0,1.49,-0.88,7.88,0.001213037,-0.002358959,-0.3154387,-0.02805116,0,0,0.08268917000000001,-0.03,-0.01,-0.43,0
7015,14729972,0,1.49,-0.88,7.89,0.001366211,-0.002395947,-0.3155096,-0.02650142,0,0,0.07953794,-0.03,-0.01,-0.43,0
7057,14739865,0,1.49,-0.88,7.9,0.001555449,-0.002366711,-0.314279,-0.02744712,0,0,0.07927083,-0.03,-0.01,-0.43,0
7101,14750060,0,1.49,-0.88,7.9,0.001660543,-0.002285999,-0.3129414,-0.0329555,0,0,0.07860209,-0.03,-0.01,-0.42,0
7142,14760724,0,1.49,-0.88,7.91,0.00160166,-0.00217042,-0.3117127,-0.03719258,0,0,0.07815395999999999,-0.03,-0.01,-0.43,0
7183,14771072,0,1.49,-0.89,7.92,0.001738721,-0.002131755,-0.3104943,-0.04303444,0,0,0.07731079,-0.03,-0.01,-0.43,0
7226,14781664,0,1.49,-0.89,7.92,0.001709782,-0.002078071,-0.3103075,-0.0468393,0,0,0.07421013999999999,-0.03,-0.01,-0.43,0
7264,14795263,0,1.49,-0.88,7.94,0.001364603,-0.002066936,-0.3075788,-0.05323863,0,0,0.0763863,-0.03,-0.01,-0.43,0
7305,14805742,0,1.49,-0.88,7.94,0.001302701,-0.001957203,-0.3061092,-0.05145006,0,0,0.07621767,-0.03,-0.01,-0.43,0
7346,14816079,0,1.49,-0.88,7.95,0.001299074,-0.001989396,-0.3059125,-0.04748096,0,0,0.07316138,-0.03,-0.01,-0.43,0
7387,14826174,0,1.49,-0.88,7.96,0.001208031,-0.001943877,-0.3048753,-0.04581172,0,0,0.07320683,-0.03,-0.01,-0.43,0
7427,14836057,0,1.5,-0.88,7.97,0.001434825,-0.001664917,-0.3031164,-0.0439373,0,0,0.07314757,-0.03,-0.01,-0.43,0
7469,14846052,0,1.52,-0.89,7.97,0.004724003,-0.002338819,-0.2976183,-0.0391511,0,0,0.07302032999999999,-0.03,-0.01,-0.43,0
7514,14856641,0,1.55,-0.88,7.96,0.01157602,-0.007304323,-0.2931159,-0.03517558,0,0,0.07283129000000001,-0.03,-0.01,-0.43,0
7557,14866625,0,1.58,-0.89,7.95,0.01280319,-0.01263738,-0.2932866,-0.03733538,0,0,0.07256027,-0.03,-0.01,-0.44,0
7597,14877081,0,1.61,-0.89,7.93,0.009619645,-0.01051416,-0.2941141,-0.03789463,0,0,0.06962802999999999,-0.03,-0.01,-0.44,0
7639,14887108,0,1.65,-0.9,7.93,0.01259742,-0.007189967,-0.2973031,-0.04241631,0,0,0.06967253,-0.03,-0.01,-0.43,0
7677,14897493,0,1.68,-0.91,7.92,0.01492336,-0.009988285,-0.3001001,-0.04673258,0,0,0.06985985,-0.03,-0.01,-0.44,0
7721,14910358,0,1.68,-0.9399999999999999,7.93,0.01197434,-0.01201718,-0.300361,-0.0485826,0,0,0.06902025000000001,-0.03,-0.01,-0.44,0
7762,14920288,0,1.67,-0.95,7.95,0.01286084,-0.007988716,-0.2994404,-0.04911756,0,0,0.06896611,-0.03,-0.01,-0.44,0
7802,14930716,0,1.65,-0.97,7.97,0.007901016,-0.005772535,-0.2972213,-0.04749101,0,0,0.06880696,-0.03,-0.01,-0.45,0
7843,14940614,0,1.63,-0.98,7.99,0.0009145753,-0.004566018,-0.2918696,-0.04378666,0,0,0.06858589,-0.03,-0.01,-0.45,0
7892,14953579,0,1.6,-0.98,8.029999999999999,0.001266021,0.0001964133,-0.2871505,-0.03854454,0,0,0.06744471,-0.03,-0.01,-0.45,0
7932,14963518,0,1.57,-0.97,8.050000000000001,-0.0009268624,0.00261597,-0.2839614,-0.0380426,0,0,0.06710842,-0.03,-0.01,-0.45,0
7973,14974140,0,1.55,-0.96,8.07,-0.004851258,0.002394287,-0.2861204,-0.04235277,0,0,0.06640167,-0.03,-0.01,-0.45,0
8013,14984481,0,1.53,-0.95,8.07,-0.005199038,0.0003704121,-0.2926749,-0.04995554,0,0,0.06351851,-0.03,-0.01,-0.45,0
8055,14994926,0,1.52,-0.9399999999999999,8.07,-0.009419527,-0.005100593,-0.2934665,-0.04716805,0,0,0.06541403,-0.03,-0.01,-0.45,0
8094,15005470,0,1.53,-0.92,8.08,-0.014642,-0.01280415,-0.2919245,-0.03830066,0,0,0.06741630999999999,-0.03,-0.01,-0.46,0
8134,15015483,0,1.54,-0.9,8.08,-0.01204003,-0.02323643,-0.2879479,-0.02597856,0,0,0.06926967000000001,-0.03,-0.01,-0.46,0
8175,15025892,0,1.55,-0.89,8.08,-0.01044004,-0.03501051,-0.2861134,-0.01387139,0,0,0.07096028,-0.03,-0.01,-0.46,0
8215,15035953,0,1.54,-0.88,8.08,-0.01556192,-0.04481914,-0.2890388,-0.0008507246,0,0,0.07217969,-0.03,-0.01,-0.46,0
8257,15046372,0,1.5,-0.86,8.09,-0.01690057,-0.04767674,-0.2989874,0.006840892,0,0,0.06924139999999999,-0.03,-0.01,-0.46,0
8304,15057161,0,1.41,-0.83,8.130000000000001,-0.01753313,-0.04558047,-0.3010361,0.01776951,0,0,0.07017379,-0.03,-0.01,-0.46,0
8346,15067626,0,1.3,-0.8100000000000001,8.18,-0.02070651,-0.04313838,-0.2989579,0.03119377,0,0,0.07122739,-0.03,-0.01,-0.46,0
8387,15077884,0,1.17,-0.78,8.25,-0.01534478,-0.04150575,-0.2951903,0.04337091,0,0,0.07216487000000001,-0.03,-0.01,-0.46,0
8427,15087751,0,1.02,-0.75,8.32,-0.007089753,-0.03600202,-0.2922875,0.04993381,0,0,0.07299177,-0.03,-0.01,-0.46,0
8466,15100880,0,0.8,-0.71,8.4,-0.004164579,-0.02129016,-0.29705,0.04960047,0,0,0.07323433,-0.03,-0.01,-0.48,0
8508,15110971,0,0.64,-0.67,8.449999999999999,0.004808121,-0.009958783000000001,-0.304284,0.04143309,0,0,0.07441343,-0.03,-0.01,-0.47,0
8548,15121287,0,0.48,-0.62,8.5,0.01045175,-0.007585033,-0.3166757,0.03403832,0,0,0.071315,-0.03,-0.01,-0.47,0
8590,15131118,0,0.29,-0.58,8.539999999999999,0.009959658999999999,-0.009363803,-0.3259145,0.02572766,0,0,0.07214432,-0.03,-0.01,-0.47,0
8630,15141112,0,0.07000000000000001,-0.53,8.6,0.01239854,-0.006944042,-0.3358355,0.01603789,0,0,0.07272618,-0.03,-0.01,-0.47,0
8671,15151242,0,-0.15,-0.5,8.67,0.01290507,-0.004519867,-0.3468746,0.004120072,0,0,0.07304476,-0.03,-0.01,-0.47,0
8715,15161091,0,-0.4,-0.47,8.75,0.007291881,-0.006180531,-0.3546462,-0.007787526,0,0,0.07313361,-0.03,-0.01,-0.47,0
8756,15171856,0,-0.67,-0.44,8.84,0.001504792,-0.007179256,-0.3610488,-0.01436091,0,0,0.06956062,-0.03,-0.01,-0.47,0
8796,15181849,0,-0.93,-0.42,8.93,-0.000970452,-0.002629511,-0.3649343,-0.02252997,0,0,0.06939948,-0.03,-0.01,-0.47,0
8838,15191857,0,-1.19,-0.37,9.029999999999999,-0.00402064,-0.0001790875,-0.3741526,-0.03691709,0,0,0.06905124999999999,-0.03,-0.01,-0.47,0
8877,15204542,0,-1.53,-0.32,9.18,-0.006505003,-0.003462876,-0.379902,-0.04862261,0,0,0.06871109,-0.03,-0.01,-0.46,0
8918,15214447,0,-1.81,-0.27,9.33,-0.00322381,-0.0003650903,-0.3895826,-0.06211765,0,0,0.06922522,-0.03,-0.01,-0.46,0
8959,15225134,0,-2.08,-0.2,9.51,0.001043109,0.007272839,-0.4039237,-0.07899784999999999,0,0,0.06906594000000001,-0.03,-0.01,-0.46,0
8999,15236084,0,-2.33,-0.13,9.720000000000001,0.003690744,0.009073114,-0.4205916,-0.09409799000000001,0,0,0.06856033,-0.03,-0.01,-0.46,0
9040,15246456,0,-2.57,-0.05,9.960000000000001,0.007939982,0.01030105,-0.4394853,-0.1076434,0,0,0.06426359,-0.03,-0.01,-0.46,0
9083,15256339,0,-2.8,0.04,10.22,0.01230732,0.01670323,-0.4571767,-0.1242707,0,0,0.06368076,-0.03,-0.01,-0.46,0
9128,15266351,0,-3.02,0.15,10.53,0.01591732,0.02421131,-0.4741698,-0.1411059,0,0,0.06276829,-0.03,-0.01,-0.46,0
9171,15276372,0,-3.22,0.28,10.86,0.02355388,0.02968604,-0.4934993,-0.1632448,0,0,0.0615347,-0.03,-0.01,-0.46,0
9211,15287009,0,-3.47,0.43,11.28,0.0351898,0.03748813,-0.51758,-0.1918802,0,0,0.05944492,-0.03,-0.01,-0.46,0
9252,15297189,0,-3.7,0.59,11.68,0.04185613,0.05049612,-0.5458001,-0.2211434,0,0,0.05412846,-0.03,-0.01,-0.46,0
9287,15308103,0,-3.93,0.8100000000000001,12.17,0.05004362,0.06502943,-0.5757149,-0.2513812,0,0,0.05290373,-0.03,-0.01,-0.46,0
9329,15318098,0,-4.14,1.05,12.65,0.06139749,0.07690837,-0.6047007,-0.2790569,0,0,0.05175285,-0.03,-0.01,-0.46,0
9370,15328269,0,-4.35,1.33,13.17,0.07668307000000001,0.09061535,-0.6347674,-0.305972,0,0,0.05011884,-0.03,-0.01,-0.46,0
9412,15338840,0,-4.52,1.65,13.72,0.0914,0.1054759,-0.668226,-0.3338953,0,0,0.04796919,-0.03,-0.01,-0.46,0
9452,15348920,0,-4.65,2,14.28,0.1011278,0.120107,-0.7079792,-0.3691922,0,0,0.04528369,-0.03,-0.01,-0.46,0
9493,15359060,0,-4.76,2.42,14.92,0.1149028,0.137933,-0.7501917,-0.4043384,0,0,0.041291,-0.03,-0.01,-0.46,0
9537,15369919,0,-4.79,2.83,15.54,0.1295781,0.152634,-0.7950749,-0.4411274,0,0,0.0335728,-0.03,-0.01,-0.46,0
9578,15379871,0,-4.76,3.27,16.19,0.1424841,0.1630499,-0.8352906,-0.4790336,0,0,0.02930809,-0.03,-0.01,-0.46,0
9618,15390095,0,-4.68,3.73,16.87,0.1512728,0.1724269,-0.8778254,-0.5212914,0,0,0.02447616,-0.03,-0.01,-0.46,0
9659,15399969,0,-4.51,4.28,17.64,0.1619115,0.1859363,-0.9229325,-0.5672933,0,0,0.02024952,-0.03,-0.01,-0.46,0
9696,15410541,0,-4.28,4.79,18.39,0.1720013,0.1967307,-0.9673391,-0.6061054,0,0,0.01623422,-0.03,-0.01,-0.47,0
9736,15420413,0,-3.99,5.32,19.18,0.1827431,0.2066971,-1.011232,-0.6430085,0,0,0.01156756,-0.03,-0.01,-0.47,0
9777,15430420,0,-3.63,5.86,20.01,0.1922469,0.2179476,-1.059594,-0.6772651,0,0,0.001225082,-0.03,-0.01,-0.47,0
9818,15440415,0,-3.19,6.4,20.87,0.2010629,0.2351218,-1.101212,-0.7102661,0,0,-0.004536263,-0.03,-0.01,-0.47,0
9859,15450297,0,-2.63,6.94,21.76,0.2097657,0.2516775,-1.141611,-0.7434250999999999,0,0,-0.01092001,-0.03,-0.01,-0.47,0
9902,15460397,0,-1.99,7.47,22.7,0.2232643,0.2670944,-1.176376,-0.7751824,0,0,-0.01786187,-0.03,-0.01,-0.47,0
9947,15470408,0,-1.32,7.98,23.67,0.2413421,0.2821716,-1.211535,-0.8090301,0,0,-0.02533493,-0.03,-0.01,-0.47,0
9989,15480978,0,-0.55,8.51,24.78,0.2638133,0.2955124,-1.245968,-0.8400972,0,0,-0.03457224,-0.03,-0.01,-0.47,0
10029,15491171,0,0.14,8.960000000000001,25.81,0.2845821,0.3018888,-1.277916,-0.867391,0,0,-0.04718136,-0.03,-0.01,-0.47,0
10070,15501071,0,0.84,9.369999999999999,26.87,0.3029423,0.3087502,-1.305647,-0.8959728,0,0,-0.05629295,-0.03,-0.02,-0.47,0
10110,15511385,0,1.55,9.76,27.98,0.3213312,0.3165829,-1.330622,-0.9266753,0,0,-0.06581447,-0.03,-0.02,-0.48,0
10151,15522030,0,2.33,10.14,29.24,0.3440975,0.3236918,-1.355292,-0.9661965,0,0,-0.07706006,-0.03,-0.02,-0.48,0
10188,15532885,0,3.04,10.46,30.43,0.3633202,0.3317645,-1.371734,-0.9923859,0,0,-0.09068724,-0.03,-0.02,-0.48,0
10229,15542738,0,3.73,10.76,31.65,0.3805051,0.3409358,-1.384766,-1.018206,0,0,-0.1010582,-0.03,-0.02,-0.48,0
10271,15552583,0,4.41,11.04,32.92,0.4012368,0.350058,-1.395042,-1.041248,0,0,-0.1116844,-0.03,-0.02,-0.48,0
10311,15562603,0,5.05,11.28,34.22,0.4202424,0.3603138,-1.407085,-1.067697,0,0,-0.1225489,-0.03,-0.02,-0.48,0
10356,15573105,0,5.75,11.51,35.69,0.4347315,0.3753926,-1.416978,-1.093559,0,0,-0.1350645,-0.03,-0.02,-0.48,0
10396,15583289,0,6.46,11.71,37.23,0.4425402,0.3910674,-1.423065,-1.111596,0,0,-0.1463806,-0.03,-0.02,-0.48,0
10437,15593768,0,7.12,11.88,38.67,0.450738,0.406265,-1.431551,-1.128743,0,0,-0.1606358,-0.03,-0.02,-0.48,0
10477,15603646,0,7.8,12.01,40.17,0.4596982,0.422433,-1.438818,-1.147458,0,0,-0.1722067,-0.03,-0.02,-0.48,0
10511,15614267,0,8.539999999999999,12.13,41.86,0.4661031,0.4405511,-1.446124,-1.166166,0,0,-0.1849284,-0.03,-0.02,-0.48,0
10552,15624444,0,9.24,12.2,43.45,0.4706338,0.46055,-1.450482,-1.182607,0,0,-0.1963793,-0.03,-0.02,-0.5,0
10593,15634708,0,9.960000000000001,12.23,45.07,0.4756788,0.48518,-1.456206,-1.199038,0,0,-0.2080042,-0.03,-0.02,-0.5,0
10633,15645368,0,10.78,12.21,46.86,0.4775284,0.5158215,-1.462613,-1.213448,0,0,-0.2212777,-0.03,-0.02,-0.5,0
10674,15655682,0,11.56,12.14,48.49,0.4757997,0.5488977,-1.46826,-1.22457,0,0,-0.2373817,-0.03,-0.02,-0.5,0
10716,15666099,0,12.47,12.01,50.29,0.4732007,0.5794272,-1.471987,-1.235639,0,0,-0.2508736,-0.03,-0.02,-0.5,0
10763,15717349,0,17.11,10.81,58.5,0.4413591,0.7149569,-1.482079,-1.283892,0,0,-0.3150189,-0.02,-0.03,-0.52,0
10805,15727911,0,18.1,10.47,60.06,0.4329117,0.7362022,-1.481426,-1.283232,0,0,-0.3262254,-0.02,-0.03,-0.53,0
10845,15738008,0,19.09,10.11,61.59,0.4243309,0.7566532,-1.481403,-1.282629,0,0,-0.3375748,-0.02,-0.03,-0.52,0
10886,15748027,0,20.08,9.720000000000001,63.1,0.4160067,0.7783697000000001,-1.482788,-1.281956,0,0,-0.3490786,-0.02,-0.03,-0.53,0
10927,15758442,0,21.15,9.27,64.72,0.4039776,0.8012424,-1.486381,-1.279536,0,0,-0.3622378,-0.02,-0.03,-0.53,0
10969,15769038,0,22.22,8.789999999999999,66.31999999999999,0.3848463,0.8238491999999999,-1.486292,-1.272668,0,0,-0.3755561,-0.02,-0.03,-0.53,0
11014,15779891,0,23.22,8.35,67.73999999999999,0.36172,0.8470293,-1.483573,-1.262375,0,0,-0.3903911,-0.02,-0.03,-0.53,0
11054,15790041,0,24.37,7.86,69.27,0.3361003,0.872669,-1.479746,-1.254823,0,0,-0.4037618,-0.02,-0.03,-0.53,0
11095,15800653,0,25.44,7.41,70.63,0.3177729,0.8935418000000001,-1.477392,-1.249389,0,0,-0.4157468,-0.02,-0.03,-0.53,0
11138,15811045,0,26.57,6.92,72.06999999999999,0.2997625,0.9140173,-1.480637,-1.244778,0,0,-0.4265945,-0.01,-0.04,-0.53,0
11179,15821566,0,27.57,6.48,73.34,0.2845641,0.9335068,-1.484958,-1.23448,0,0,-0.4362394,-0.01,-0.04,-0.55,0
11220,15831582,0,28.52,6.04,74.56,0.2645436,0.9525777,-1.489993,-1.225581,0,0,-0.4461356,-0.01,-0.04,-0.55,0
11260,15841528,0,29.47,5.62,75.73999999999999,0.2377784,0.9720054,-1.494771,-1.215799,0,0,-0.4562931,-0.01,-0.04,-0.55,0
11302,15852188,0,30.51,5.17,77,0.2030504,0.9944393,-1.496453,-1.197922,0,0,-0.4681809,-0.01,-0.04,-0.55,0
11342,15862557,0,31.48,4.76,78.12,0.16783,1.017111,-1.49845,-1.180017,0,0,-0.4831403,-0.01,-0.04,-0.55,0
11385,15872768,0,32.48,4.38,79.2,0.129227,1.038698,-1.495137,-1.163464,0,0,-0.4937127,-0.01,-0.04,-0.55,0
11430,15882559,0,33.52,4,80.25,0.09083476,1.057881,-1.491053,-1.1489,0,0,-0.5044256,-0.01,-0.04,-0.55,0
11471,15892526,0,34.57,3.65,81.27,0.05595758,1.076567,-1.487216,-1.139477,0,0,-0.5152678000000001,-0.01,-0.04,-0.55,0
11512,15903104,0,35.72,3.27,82.37,0.02043156,1.097806,-1.484913,-1.134269,0,0,-0.5277243,-0.01,-0.04,-0.55,0
11553,15913534,0,36.75,2.95,83.34,-0.01275249,1.115894,-1.48379,-1.128428,0,0,-0.5425536,-0.01,-0.04,-0.55,0
11591,15924099,0,37.89,2.62,84.40000000000001,-0.05813063,1.134076,-1.477464,-1.118446,0,0,-0.5537553,0,-0.06,-0.58,0
11631,15934064,0,38.95,2.33,85.34,-0.1026006,1.151632,-1.470944,-1.104947,0,0,-0.5636267,0,-0.06,-0.58,0
11672,15944155,0,40.03,2.06,86.27,-0.147692,1.168628,-1.462896,-1.090513,0,0,-0.5736316,0,-0.06,-0.58,0
11714,15954646,0,41.24,1.78,87.27,-0.193771,1.184559,-1.450674,-1.075465,0,0,-0.5837244,0,-0.06,-0.58,0
11754,15964686,0,42.37,1.54,88.16,-0.239349,1.199225,-1.436817,-1.06008,0,0,-0.5938645,0,-0.06,-0.58,0
11795,15975146,0,43.5,1.34,89.04000000000001,-0.2795458,1.218762,-1.4263,-1.04421,0,0,-0.6095909,0,-0.06,-0.58,0
11839,15985207,0,44.6,1.16,89.89,-0.3124622,1.236346,-1.417049,-1.036089,0,0,-0.6196612,0,-0.06,-0.58,0
11880,15995205,0,45.64,1.01,90.73,-0.3461143,1.252382,-1.410105,-1.031423,0,0,-0.6298276,0,-0.06,-0.58,0
11922,16005432,0,46.63,0.89,91.54000000000001,-0.3797278,1.26777,-1.40041,-1.027238,0,0,-0.6400734,0,-0.06,-0.58,0
11965,16018543,0,47.88,0.76,92.59,-0.4288384,1.283558,-1.383382,-1.015297,0,0,-0.6541583,0.02,-0.07000000000000001,-0.58,0
12006,16029046,0,48.94,0.68,93.47,-0.4728534,1.293185,-1.361728,-0.9969725,0,0,-0.6654319,0.02,-0.07000000000000001,-0.59,0
12047,16039134,0,49.92,0.63,94.27,-0.512593,1.297937,-1.334134,-0.9762206,0,0,-0.6752374,0.02,-0.07000000000000001,-0.59,0
12090,16049548,0,50.93,0.6,95.09,-0.5499832,1.303627,-1.305612,-0.9505576,0,0,-0.6884212,0.02,-0.07000000000000001,-0.59,0
12131,16060113,0,52.04,0.58,96,-0.5869581,1.305734,-1.275854,-0.9281983,0,0,-0.6990819,0.02,-0.07000000000000001,-0.59,0
12172,16070118,0,53,0.58,96.84999999999999,-0.6185288,1.305777,-1.249609,-0.9106024,0,0,-0.7083163,0.02,-0.07000000000000001,-0.59,0
12218,16080067,0,53.94,0.58,97.72,-0.6514348,1.305942,-1.212849,-0.882937,0,0,-0.717396,0.02,-0.07000000000000001,-0.59,0
12260,16090428,0,54.91,0.58,98.61,-0.6864252,1.307236,-1.167462,-0.8459699000000001,0,0,-0.7261995999999999,0.02,-0.07000000000000001,-0.59,0
12301,16100453,0,55.93,0.59,99.52,-0.7145253,1.308493,-1.129984,-0.8180686,0,0,-0.7347102,0.02,-0.07000000000000001,-0.59,0
12345,16113751,0,57.22,0.6,100.71,-0.7402534,1.306911,-1.088968,-0.7853801,0,0,-0.7447649,0.05,-0.07000000000000001,-0.6,0
12386,16123987,0,58.3,0.63,101.75,-0.7627397,1.305356,-1.045659,-0.7475196,0,0,-0.7523164,0.05,-0.07000000000000001,-0.6,0
12427,16134471,0,59.29,0.66,102.71,-0.7795557,1.308372,-1.00652,-0.7067136000000001,0,0,-0.7625653999999999,0.05,-0.07000000000000001,-0.6,0
12469,16145126,0,60.35,0.68,103.79,-0.7929735999999999,1.30587,-0.9678068,-0.6685727,0,0,-0.7693825,0.05,-0.07000000000000001,-0.6,0
12510,16155940,0,61.28,0.71,104.8,-0.8042049,1.302534,-0.9320441,-0.631147,0,0,-0.7750316,0.05,-0.07000000000000001,-0.6,0
12550,16165550,0,62.19,0.72,105.84,-0.8182483,1.299762,-0.8896676,-0.5879357,0,0,-0.7804524,0.05,-0.07000000000000001,-0.6,0
12591,16175573,0,63.09,0.73,106.9,-0.8304517,1.296073,-0.8472704,-0.5476303,0,0,-0.7855979,0.05,-0.07000000000000001,-0.6,0
12635,16186056,0,64.06999999999999,0.74,108.09,-0.8412589,1.290969,-0.8032861,-0.5074495999999999,0,0,-0.7912853,0.05,-0.07000000000000001,-0.6,0
12677,16197119,0,65.01000000000001,0.73,109.32,-0.8517447,1.291179,-0.7590898,-0.4646665,0,0,-0.7998722,0.05,-0.07000000000000001,-0.6,0
12717,16206888,0,65.84999999999999,0.72,110.46,-0.864421,1.28917,-0.7162557000000001,-0.4257512,0,0,-0.8039892,0.05,-0.07000000000000001,-0.6,0
12758,16216965,0,66.69,0.71,111.62,-0.8750247,1.288072,-0.677508,-0.391644,0,0,-0.8078408,0.05,-0.07000000000000001,-0.6,0
12796,16227206,0,67.48,0.7,112.8,-0.8843533,1.285549,-0.6428382,-0.3584639,0,0,-0.8100332,0.08,-0.07000000000000001,-0.61,0
12837,16237217,0,68.23,0.68,113.99,-0.8944303,1.283317,-0.6112255,-0.3259144,0,0,-0.8120849,0.08,-0.07000000000000001,-0.61,0
12876,16248085,0,68.98999999999999,0.65,115.33,-0.9040303,1.280536,-0.5778511,-0.2874436,0,0,-0.814594,0.08,-0.07000000000000001,-0.61,0
12918,16258132,0,69.63,0.61,116.57,-0.9146253,1.277455,-0.5499136,-0.2581314,0,0,-0.8163724,0.08,-0.07000000000000001,-0.61,0
12961,16269257,0,70.27,0.57,117.95,-0.9275569,1.275745,-0.5185835,-0.2224244,0,0,-0.8185673,0.08,-0.07000000000000001,-0.61,0
13001,16279948,0,70.8,0.52,119.21,-0.9399604,1.277329,-0.4892262,-0.1872786,0,0,-0.8236012,0.08,-0.07000000000000001,-0.61,0
13046,16290019,0,71.3,0.45,120.49,-0.9536473,1.270794,-0.4623847,-0.1592158,0,0,-0.8248134,0.08,-0.07000000000000001,-0.61,0
13087,16300046,0,71.79000000000001,0.35,121.92,-0.9647884,1.267589,-0.433591,-0.1348423,0,0,-0.8263296999999999,0.08,-0.07000000000000001,-0.61,0
13127,16310075,0,72.18000000000001,0.25,123.22,-0.9770576,1.264144,-0.4072715,-0.1150009,0,0,-0.8272688,0.08,-0.07000000000000001,-0.61,0
13168,16320076,0,72.54000000000001,0.13,124.54,-0.9869976,1.265671,-0.3801351,-0.09028532,0,0,-0.8312016,0.08,-0.07000000000000001,-0.61,0
13208,16330028,0,72.88,0,125.86,-0.9978747,1.262047,-0.3515059,-0.06570186,0,0,-0.8317319,0.08,-0.07000000000000001,-0.61,0
13248,16340924,0,73.20999999999999,-0.13,127.3,-1.012702,1.256004,-0.3199136,-0.03889395,0,0,-0.8318081000000001,0.12,-0.07000000000000001,-0.61,0
13289,16350932,0,73.47,-0.25,128.48,-1.025453,1.250835,-0.293606,-0.01781744,0,0,-0.8311099,0.12,-0.07000000000000001,-0.61,0
13329,16361495,0,73.77,-0.4,129.9,-1.039413,1.242885,-0.2615857,0.01205624,0,0,-0.8308643,0.12,-0.07000000000000001,-0.61,0
13370,16371411,0,74.02,-0.54,131.18,-1.054865,1.233698,-0.2347713,0.03571796,0,0,-0.8301972,0.12,-0.07000000000000001,-0.61,0
13411,16381993,0,74.28,-0.7,132.57,-1.07402,1.22513,-0.2036918,0.06538475000000001,0,0,-0.8296186,0.12,-0.07000000000000001,-0.62,0
13456,16392098,0,74.5,-0.85,133.82,-1.090215,1.216001,-0.170755,0.09831815000000001,0,0,-0.8314914,0.12,-0.07000000000000001,-0.62,0
13496,16402310,0,74.73,-1,135.06,-1.105886,1.19686,-0.1359506,0.1307682,0,0,-0.830155,0.12,-0.07000000000000001,-0.62,0
13537,16412301,0,74.95999999999999,-1.16,136.29,-1.123482,1.181814,-0.1040107,0.1598671,0,0,-0.8286165,0.12,-0.07000000000000001,-0.62,0
13577,16422746,0,75.19,-1.32,137.52,-1.14164,1.163079,-0.07721314999999999,0.1821654,0,0,-0.826914,0.12,-0.07000000000000001,-0.62,0
13619,16436257,0,75.48,-1.55,139.22,-1.160613,1.134164,-0.03650825,0.2208591,0,0,-0.823748,0.16,-0.07000000000000001,-0.62,0
13662,16446255,0,75.69,-1.71,140.43,-1.175511,1.110743,-0.006624788,0.2539734,0,0,-0.8201768,0.16,-0.07000000000000001,-0.62,0
13703,16456145,0,75.92,-1.87,141.63,-1.191546,1.087303,0.02022515,0.2841743,0,0,-0.8164911,0.16,-0.07000000000000001,-0.62,0
13744,16466139,0,76.14,-2.03,142.83,-1.20421,1.064994,0.04283394,0.3095307,0,0,-0.8127198,0.16,-0.07000000000000001,-0.62,0
13784,16476575,0,76.34999999999999,-2.2,144.02,-1.216035,1.041232,0.06182732,0.3316216,0,0,-0.8089035,0.17,-0.07000000000000001,-0.62,0
13825,16486556,0,76.56999999999999,-2.38,145.33,-1.227825,1.018475,0.07631585,0.3503793,0,0,-0.8050772,0.17,-0.07000000000000001,-0.63,0
13870,16497007,0,76.75,-2.56,146.52,-1.237087,0.9961680000000001,0.08708689999999999,0.3626479,0,0,-0.8012676,0.17,-0.07000000000000001,-0.63,0
13912,16507103,0,76.92,-2.76,147.84,-1.245272,0.9700809,0.09741791,0.3745313,0,0,-0.7974064,0.17,-0.07000000000000001,-0.63,0
13953,16517967,0,77.06999999999999,-2.94,149.04,-1.255741,0.9539654,0.1082937,0.3866008,0,0,-0.7963813,0.17,-0.07000000000000001,-0.63,0
13993,16528042,0,77.20999999999999,-3.11,150.24,-1.264663,0.9287514,0.1198587,0.3984835,0,0,-0.7913515,0.21,-0.07000000000000001,-0.62,0
14034,16538017,0,77.36,-3.27,151.44,-1.271184,0.9040177,0.1298523,0.4097493,0,0,-0.7863856,0.21,-0.07000000000000001,-0.62,0
14074,16548208,0,77.53,-3.43,152.75,-1.276095,0.8831268,0.1346959,0.4180773,0,0,-0.7813854,0.21,-0.07000000000000001,-0.63,0
14115,16558061,0,77.68000000000001,-3.57,153.94,-1.282836,0.8644211000000001,0.1346532,0.4199097,0,0,-0.7766562,0.21,-0.07000000000000001,-0.63,0
14158,16568263,0,77.81,-3.69,155.13,-1.287818,0.8470768,0.1363752,0.4198894,0,0,-0.77193,0.21,-0.07000000000000001,-0.62,0
14198,16578761,0,77.94,-3.8,156.32,-1.290469,0.8376794,0.1385073,0.4229926,0,0,-0.7706957,0.21,-0.07000000000000001,-0.62,0
14239,16588979,0,78.08,-3.9,157.51,-1.292678,0.8197793,0.1373406,0.4204108,0,0,-0.7662092,0.21,-0.07000000000000001,-0.62,0
14283,16599067,0,78.23,-4,158.82,-1.29762,0.8044585,0.1338619,0.4130835,0,0,-0.7617486,0.21,-0.07000000000000001,-0.62,0
14324,16609437,0,78.36,-4.07,160.01,-1.301386,0.7871275,0.1352561,0.4074825,0,0,-0.7574269,0.21,-0.07000000000000001,-0.62,0
14364,16619532,0,78.51000000000001,-4.13,161.2,-1.305351,0.7751776,0.1301653,0.3958706,0,0,-0.7560952,0.21,-0.07000000000000001,-0.62,0
14406,16629445,0,78.65000000000001,-4.17,162.37,-1.308268,0.7656055,0.1189358,0.3767554,0,0,-0.7521054,0.21,-0.07000000000000001,-0.62,0
14443,16639371,0,78.76000000000001,-4.19,163.56,-1.310549,0.7456368,0.1075164,0.3602617,0,0,-0.7472216,0.25,-0.07000000000000001,-0.62,0
14488,16652451,0,78.89,-4.19,165.09,-1.309091,0.7277763,0.1056662,0.3556483,0,0,-0.7422528,0.25,-0.07000000000000001,-0.61,0
14529,16662428,0,79.01000000000001,-4.19,166.27,-1.306483,0.7089114,0.09975011,0.3476625,0,0,-0.7377826,0.24,-0.07000000000000001,-0.61,0
14570,16673240,0,79.12,-4.17,167.58,-1.30737,0.6946966999999999,0.08832891,0.3346971,0,0,-0.7334647,0.24,-0.07000000000000001,-0.61,0
14612,16683127,0,79.2,-4.13,168.78,-1.311037,0.6878355,0.08089039000000001,0.329511,0,0,-0.7326219,0.24,-0.07000000000000001,-0.61,0
14653,16693236,0,79.29000000000001,-4.08,169.98,-1.310925,0.6699088,0.07304827999999999,0.3229542,0,0,-0.7287077,0.24,-0.07000000000000001,-0.61,0
14697,16703116,0,79.34999999999999,-3.99,171.18,-1.315447,0.6539169,0.05837854,0.3076083,0,0,-0.7250437,0.24,-0.07000000000000001,-0.61,0
14738,16713281,0,79.36,-3.88,172.39,-1.319656,0.6377691,0.03817787,0.2861751,0,0,-0.7216972,0.24,-0.07000000000000001,-0.61,0
14778,16723961,0,79.33,-3.75,173.61,-1.319068,0.6192348,0.01566025,0.2627767,0,0,-0.718705,0.25,-0.07000000000000001,-0.61,0
14819,16736559,0,79.20999999999999,-3.55,175.2,-1.315337,0.595428,-0.0156505,0.2307309,0,0,-0.7159916,0.28,-0.07000000000000001,-0.6,0
14856,16746929,0,79.06,-3.37,176.57,-1.309149,0.5689217,-0.03915757,0.20613,0,0,-0.7137181,0.28,-0.07000000000000001,-0.6,0
14897,16757095,0,78.88,-3.19,177.83,-1.306855,0.5510109,-0.05595821,0.1854724,0,0,-0.7141967,0.28,-0.07000000000000001,-0.6,0
14940,16767311,0,78.69,-2.99,179.09,-1.301066,0.5218857,-0.06851082999999999,0.1682677,0,0,-0.7123477,0.28,-0.07000000000000001,-0.6,0
14982,16777310,0,78.48,-2.78,180.37,-1.297079,0.4897698,-0.07754493,0.1529946,0,0,-0.7107175999999999,0.28,-0.07000000000000001,-0.6,0
15023,16787148,0,78.27,-2.56,181.65,-1.292018,0.4584148,-0.08423137999999999,0.1397147,0,0,-0.7092813,0.28,-0.07000000000000001,-0.6,0
15067,16798089,0,78.06,-2.31,182.94,-1.285798,0.427614,-0.09202114,0.1257944,0,0,-0.7080318,0.28,-0.07000000000000001,-0.6,0
15108,16808469,0,77.81999999999999,-2.02,184.36,-1.279629,0.3928687,-0.1005941,0.1112652,0,0,-0.7070754,0.28,-0.07000000000000001,-0.6,0
15150,16818555,0,77.59999999999999,-1.74,185.65,-1.271936,0.3598267,-0.1070003,0.0978815,0,0,-0.7061982,0.28,-0.07000000000000001,-0.6,0
15193,16831947,0,77.31999999999999,-1.34,187.47,-1.256825,0.3111698,-0.1146024,0.08297247000000001,0,0,-0.7057219,0.32,-0.07000000000000001,-0.59,0
15231,16842436,0,77.15000000000001,-1.04,188.75,-1.246277,0.2708543,-0.1175563,0.07425485,0,0,-0.7049628,0.32,-0.07000000000000001,-0.59,0
15276,16852429,0,77,-0.72,190.03,-1.234851,0.2307084,-0.1185544,0.06678183,0,0,-0.7043198000000001,0.32,-0.07000000000000001,-0.59,0
15317,16863311,0,76.86,-0.36,191.42,-1.226133,0.198908,-0.1185545,0.06070291,0,0,-0.7056243,0.32,-0.07000000000000001,-0.59,0
15358,16873106,0,76.76000000000001,-0.03,192.67,-1.212922,0.1659443,-0.1148311,0.05718617,0,0,-0.7050499,0.32,-0.07000000000000001,-0.59,0
15398,16883027,0,76.69,0.29,193.91,-1.200395,0.1346492,-0.1097966,0.05484482,0,0,-0.70452,0.32,-0.07000000000000001,-0.59,0
15440,16893141,0,76.65000000000001,0.63,195.13,-1.188117,0.1070818,-0.1038491,0.05325313,0,0,-0.704024,0.32,-0.07000000000000001,-0.59,0
15485,16903593,0,76.64,0.96,196.34,-1.174868,0.08083234,-0.09420768,0.05582219,0,0,-0.703538,0.32,-0.07000000000000001,-0.59,0
15526,16913625,0,76.68000000000001,1.29,197.54,-1.162379,0.05531086,-0.08140724000000001,0.06115509,0,0,-0.7030168999999999,0.32,-0.07000000000000001,-0.59,0
15566,16924045,0,76.77,1.65,198.84,-1.15168,0.03077263,-0.06832399,0.06692915000000001,0,0,-0.7025174,0.32,-0.07000000000000001,-0.59,0
15607,16934489,0,76.89,1.96,200,-1.145277,0.01497775,-0.05843978,0.07075344,0,0,-0.7031504,0.32,-0.07000000000000001,-0.59,0
15648,16945110,0,77.05,2.3,201.26,-1.130991,-0.009077128,-0.04817794,0.07424736999999999,0,0,-0.7022154,0.35,-0.07000000000000001,-0.58,0
15685,16955503,0,77.22,2.59,202.38,-1.119025,-0.03271457,-0.04226652,0.07412294,0,0,-0.7012204,0.35,-0.07000000000000001,-0.5600000000000001,0
15728,16965456,0,77.39,2.86,203.48,-1.108994,-0.05757698,-0.03876549,0.07142722999999999,0,0,-0.7002556,0.35,-0.07000000000000001,-0.5600000000000001,0
15770,16975900,0,77.56,3.11,204.56,-1.098632,-0.0818687,-0.03419561,0.07029742999999999,0,0,-0.6993243,0.35,-0.07000000000000001,-0.5600000000000001,0
15811,16986074,0,77.76000000000001,3.36,205.73,-1.088916,-0.1092268,-0.03130418,0.068413,0,0,-0.6984590000000001,0.35,-0.07000000000000001,-0.57,0
15852,16996622,0,77.94,3.58,206.76,-1.089137,-0.1288864,-0.03183471,0.06441537,0,0,-0.6987732,0.35,-0.07000000000000001,-0.57,0
15896,17006636,0,78.09999999999999,3.79,207.75,-1.084908,-0.1555066,-0.03153941,0.06057684,0,0,-0.6979327,0.35,-0.07000000000000001,-0.5600000000000001,0
15937,17017226,0,78.29000000000001,4,208.8,-1.081218,-0.1852255,-0.03328562,0.05516621,0,0,-0.697199,0.35,-0.07000000000000001,-0.57,0
15977,17027944,0,78.45999999999999,4.2,209.81,-1.079608,-0.2129061,-0.03893082,0.0455321,0,0,-0.6965318,0.35,-0.07000000000000001,-0.57,0
16019,17038026,0,78.59999999999999,4.37,210.68,-1.077665,-0.2428752,-0.04611265,0.03376627,0,0,-0.6959867,0.35,-0.07000000000000001,-0.57,0
16054,17048879,0,78.72,4.53,211.51,-1.072664,-0.2777168,-0.05340045,0.02270168,0,0,-0.6949978,0.38,-0.07000000000000001,-0.54,0
16099,17061496,0,78.89,4.71,212.53,-1.069346,-0.315287,-0.06403195,0.01036066,0,0,-0.694292,0.38,-0.07000000000000001,-0.54,0
16140,17071427,0,79.01000000000001,4.83,213.26,-1.072085,-0.3385442,-0.07348233,0.000400957,0,0,-0.6949816,0.38,-0.07000000000000001,-0.54,0
16180,17081454,0,79.14,4.93,213.97,-1.067628,-0.3717339,-0.07865711,-0.005099667,0,0,-0.694341,0.38,-0.07000000000000001,-0.54,0
16221,17091458,0,79.28,5,214.63,-1.062291,-0.4058601,-0.0848539,-0.01280552,0,0,-0.6938141,0.38,-0.07000000000000001,-0.53,0
16261,17101449,0,79.43000000000001,5.05,215.25,-1.056854,-0.4373384,-0.09508194,-0.02375947,0,0,-0.6934426,0.38,-0.07000000000000001,-0.53,0
16309,17112018,0,79.58,5.07,215.85,-1.058954,-0.461097,-0.1078201,-0.03547854,0,0,-0.6944553,0.38,-0.07000000000000001,-0.53,0
16350,17121993,0,79.72,5.06,216.41,-1.054456,-0.4936838,-0.1200885,-0.04735395,0,0,-0.69439,0.38,-0.07000000000000001,-0.53,0
16392,17131953,0,79.87,5.01,216.93,-1.051199,-0.5266504,-0.1327729,-0.05970633,0,0,-0.6945132000000001,0.38,-0.07000000000000001,-0.53,0
16433,17142100,0,80.03,4.92,217.46,-1.04591,-0.5623484,-0.1524718,-0.07869180000000001,0,0,-0.6950075,0.38,-0.07000000000000001,-0.53,0
16470,17152723,0,80.15000000000001,4.8,217.9,-1.038541,-0.5954067,-0.1727698,-0.09964073,0,0,-0.696296,0.4,-0.07000000000000001,-0.52,0
16514,17165379,0,80.31,4.59,218.42,-1.032189,-0.6390342,-0.1950011,-0.1260207,0,0,-0.6983847,0.4,-0.07000000000000001,-0.49,0
16554,17175178,0,80.43000000000001,4.39,218.77,-1.025029,-0.6749791000000001,-0.2060609,-0.1418657,0,0,-0.7001191,0.4,-0.07000000000000001,-0.49,0
16593,17185295,0,80.58,4.15,219.08,-1.017075,-0.7094812,-0.2172337,-0.1590363,0,0,-0.7019901,0.4,-0.07000000000000001,-0.49,0
16634,17195647,0,80.73,3.87,219.36,-1.016996,-0.7365742,-0.230513,-0.1788492,0,0,-0.7042263,0.4,-0.07000000000000001,-0.49,0
16675,17206077,0,80.88,3.55,219.61,-1.008821,-0.7697009,-0.2428839,-0.197962,0,0,-0.7063766,0.4,-0.07000000000000001,-0.49,0
16720,17216090,0,81.03,3.19,219.83,-1.000072,-0.8013432,-0.2516367,-0.2135668,0,0,-0.7086574,0.4,-0.07000000000000001,-0.49,0
16761,17225650,0,81.2,2.78,220.03,-0.9889289,-0.8295566,-0.2572042,-0.2259923,0,0,-0.711026,0.4,-0.07000000000000001,-0.49,0
16802,17236119,0,81.41,2.27,220.24,-0.9777778,-0.8565131,-0.2627302,-0.2385352,0,0,-0.7137365,0.4,-0.07000000000000001,-0.49,0
16844,17246539,0,81.62,1.75,220.41,-0.9761055,-0.8760517,-0.2667299,-0.2485488,0,0,-0.716382,0.4,-0.07000000000000001,-0.49,0
16882,17256585,0,81.86,1.19,220.56,-0.9647918,-0.8997292,-0.2710333,-0.260592,0,0,-0.7197905,0.41,-0.07000000000000001,-0.46,0
16925,17266928,0,82.12,0.59,220.69,-0.9552451,-0.9204944,-0.2752482,-0.2741079,0,0,-0.7232307,0.41,-0.07000000000000001,-0.46,0
16962,17276562,0,82.40000000000001,-0.04,220.81,-0.948163,-0.939994,-0.2781376,-0.2872914,0,0,-0.7266937999999999,0.41,-0.07000000000000001,-0.46,0
17003,17286540,0,82.69,-0.7,220.91,-0.9433911,-0.9602847,-0.2808135,-0.3002824,0,0,-0.7301744999999999,0.41,-0.07000000000000001,-0.46,0
17044,17297380,0,83.02,-1.44,221.01,-0.9447573,-0.9822466,-0.2831613,-0.314111,0,0,-0.7339573,0.41,-0.07000000000000001,-0.46,0
17086,17308284,0,83.36,-2.17,221.07,-0.9553965,-1.000394,-0.2822231,-0.3238468,0,0,-0.7370679999999999,0.41,-0.07000000000000001,-0.46,0
17131,17318219,0,83.69,-2.8,221.11,-0.9577364,-1.020438,-0.2796187,-0.3295842,0,0,-0.740545,0.41,-0.07000000000000001,-0.46,0
17171,17328365,0,84.03,-3.41,221.12,-0.9607177,-1.039562,-0.2765388,-0.3342658,0,0,-0.7439847000000001,0.41,-0.07000000000000001,-0.46,0
17212,17338367,0,84.37,-3.98,221.12,-0.9633583999999999,-1.057105,-0.2734431,-0.3379501,0,0,-0.7473835,0.41,-0.07000000000000001,-0.46,0
17249,17348489,0,84.70999999999999,-4.52,221.11,-0.9630746,-1.072371,-0.2698976,-0.3404947,0,0,-0.7520367,0.42,-0.07000000000000001,-0.44,0
17290,17359211,0,85.06999999999999,-5.06,221.08,-0.9724905,-1.083162,-0.2646355,-0.3459738,0,0,-0.7549742,0.42,-0.07000000000000001,-0.44,0
17328,17369349,0,85.39,-5.52,221.05,-0.9698143,-1.097142,-0.2598245,-0.3509672,0,0,-0.759474,0.42,-0.07000000000000001,-0.42,0
17368,17379430,0,85.7,-5.94,221.01,-0.9662113,-1.108976,-0.2527911,-0.3548199,0,0,-0.7638528999999999,0.42,-0.07000000000000001,-0.42,0
17410,17389398,0,85.98999999999999,-6.33,220.99,-0.9616427,-1.118939,-0.245145,-0.3573415,0,0,-0.7681,0.42,-0.07000000000000001,-0.42,0
17450,17400026,0,86.31,-6.76,220.98,-0.9559571,-1.127491,-0.2351218,-0.3603926,0,0,-0.7724441,0.42,-0.07000000000000001,-0.42,0
17491,17410024,0,86.53,-7.06,220.98,-0.9494435,-1.130606,-0.2231309,-0.3577897,0,0,-0.7763929000000001,0.42,-0.07000000000000001,-0.42,0
17537,17420353,0,86.8,-7.42,221.01,-0.9421771,-1.131073,-0.2094118,-0.3538298,0,0,-0.7801638,0.42,-0.07000000000000001,-0.42,0
17578,17430603,0,87,-7.72,221.07,-0.9417769,-1.12914,-0.1996451,-0.3542288,0,0,-0.7822039,0.42,-0.07000000000000001,-0.42,0
17619,17440584,0,87.17,-8.02,221.15,-0.937095,-1.12985,-0.1915388,-0.3530221,0,0,-0.7857129,0.42,-0.07000000000000001,-0.42,0
17661,17453302,0,87.33,-8.390000000000001,221.27,-0.9319401,-1.131374,-0.1751526,-0.3433219,0,0,-0.7896094,0.42,-0.07000000000000001,-0.42,0
17699,17463627,0,87.43000000000001,-8.68,221.39,-0.9219032,-1.127665,-0.1597329,-0.3333114,0,0,-0.7932431,0.43,-0.07000000000000001,-0.4,0
17739,17473891,0,87.51000000000001,-8.949999999999999,221.54,-0.9113804,-1.124107,-0.1434731,-0.3220282,0,0,-0.7966541,0.43,-0.07000000000000001,-0.4,0
17780,17484300,0,87.59,-9.26,221.72,-0.9041977,-1.123772,-0.1259773,-0.3102436,0,0,-0.7999759,0.43,-0.07000000000000001,-0.4,0
17821,17494514,0,87.62,-9.52,221.9,-0.9009532,-1.123922,-0.1090224,-0.2962255,0,0,-0.802932,0.43,-0.07000000000000001,-0.4,0
17861,17504493,0,87.64,-9.77,222.1,-0.8955625,-1.121684,-0.08868956,-0.2777024,0,0,-0.8057492000000001,0.43,-0.07000000000000001,-0.4,0
17909,17517428,0,87.63,-10.08,222.38,-0.8922606,-1.117193,-0.0638079,-0.2557335,0,0,-0.8084086,0.43,-0.07000000000000001,-0.4,0
17951,17527448,0,87.59999999999999,-10.29,222.62,-0.8901368,-1.116883,-0.0479725,-0.2399002,0,0,-0.8105868000000001,0.43,-0.07000000000000001,-0.4,0
17992,17537950,0,87.52,-10.5,222.9,-0.8877836,-1.117974,-0.03316351,-0.225546,0,0,-0.8125673,0.43,-0.07000000000000001,-0.4,0
18040,17553605,0,87.39,-10.73,223.3,-0.8851045,-1.117274,0.00093806,-0.1905153,0,0,-0.8140786,0.43,-0.07000000000000001,-0.39,0
18081,17563760,0,87.31,-10.85,223.57,-0.8801974,-1.117733,0.02145062,-0.1657298,0,0,-0.8151621,0.43,-0.07000000000000001,-0.38,0
18122,17574311,0,87.23,-10.93,223.87,-0.8774623,-1.116583,0.04120903,-0.1409855,0,0,-0.815984,0.43,-0.07000000000000001,-0.38,0
18163,17584666,0,87.17,-10.96,224.16,-0.8803409,-1.1137,0.06121247,-0.1167425,0,0,-0.815474,0.43,-0.07000000000000001,-0.38,0
18203,17594653,0,87.13,-10.96,224.47,-0.8755568,-1.11035,0.08030038,-0.09150413,0,0,-0.8159076,0.43,-0.07000000000000001,-0.38,0
18244,17604677,0,87.11,-10.92,224.79,-0.8723249,-1.107423,0.09406916999999999,-0.07115944,0,0,-0.8161446999999999,0.43,-0.07000000000000001,-0.38,0
18285,17615135,0,87.08,-10.84,225.16,-0.8705546,-1.103907,0.1053435,-0.05297114,0,0,-0.8161307,0.43,-0.07000000000000001,-0.38,0
18330,17625141,0,87.06,-10.73,225.5,-0.8680807,-1.10054,0.1164475,-0.03520025,0,0,-0.8160768,0.43,-0.07000000000000001,-0.38,0
18371,17635106,0,87.06,-10.58,225.85,-0.8649619,-1.096139,0.1260778,-0.01818631,0,0,-0.8158848,0.43,-0.07000000000000001,-0.38,0
18412,17645901,0,87.08,-10.38,226.26,-0.8609787,-1.088938,0.1315955,-0.005583229,0,0,-0.815461,0.43,-0.07000000000000001,-0.38,0
18453,17656378,0,87.09999999999999,-10.16,226.65,-0.8618179,-1.082206,0.1330475,0.001186706,0,0,-0.8141370999999999,0.43,-0.07000000000000001,-0.38,0
18492,17666989,0,87.14,-9.9,227.09,-0.8533862,-1.072162,0.131471,0.00492729,0,0,-0.8142068,0.42,-0.07000000000000001,-0.35,0
18532,17677164,0,87.18000000000001,-9.65,227.52,-0.8448092,-1.060209,0.1289364,0.006252319,0,0,-0.8143848,0.42,-0.07000000000000001,-0.35,0
18573,17687429,0,87.23999999999999,-9.42,227.96,-0.8362927,-1.046416,0.1247239,0.005544273,0,0,-0.8145517,0.42,-0.07000000000000001,-0.35,0
18615,17698374,0,87.33,-9.18,228.49,-0.8352209,-1.030463,0.1188874,0.002018139,0,0,-0.8132137,0.42,-0.07000000000000001,-0.35,0
18655,17708877,0,87.43000000000001,-8.99,229,-0.8244117,-1.013861,0.1110316,-0.003015251,0,0,-0.8134626,0.42,-0.07000000000000001,-0.35,0
18696,17718764,0,87.54000000000001,-8.82,229.55,-0.8129841,-0.9973786,0.1028816,-0.009079846000000001,0,0,-0.8137485,0.42,-0.07000000000000001,-0.35,0
18740,17728855,0,87.66,-8.69,230.12,-0.8009412,-0.9830934,0.0948201,-0.01482076,0,0,-0.8140721,0.42,-0.07000000000000001,-0.35,0
18782,17739227,0,87.83,-8.59,230.77,-0.7857375,-0.9696044,0.08367512000000001,-0.02363382,0,0,-0.8143622,0.42,-0.07000000000000001,-0.35,0
18823,17749727,0,88,-8.529999999999999,231.39,-0.7762353,-0.9606541,0.0714523,-0.03554932,0,0,-0.8135858,0.42,-0.07000000000000001,-0.35,0
18866,17759612,0,88.18000000000001,-8.51,232.02,-0.7599481,-0.9530435,0.05787037,-0.0476778,0,0,-0.8141819,0.42,-0.07000000000000001,-0.35,0
18901,17770353,0,88.39,-8.529999999999999,232.74,-0.738818,-0.944679,0.0403946,-0.06051039,0,0,-0.8135285,0.41,-0.07000000000000001,-0.34,0
18941,17780452,0,88.59999999999999,-8.57,233.41,-0.7221969,-0.9402506,0.02001992,-0.07302114,0,0,-0.8131291,0.41,-0.07000000000000001,-0.33,0
18982,17790425,0,88.81,-8.630000000000001,234.07,-0.7089602,-0.9397534,-0.002788048,-0.08595642000000001,0,0,-0.8129652000000001,0.41,-0.07000000000000001,-0.33,0
19022,17800722,0,89.02,-8.710000000000001,234.8,-0.6967854,-0.9388672,-0.02718876,-0.09827626,0,0,-0.8130729,0.41,-0.07000000000000001,-0.33,0
19064,17811293,0,89.2,-8.800000000000001,235.46,-0.6951347,-0.9406804,-0.0478193,-0.1077402,0,0,-0.8134476,0.41,-0.07000000000000001,-0.33,0
19104,17821368,0,89.38,-8.890000000000001,236.12,-0.6878725999999999,-0.9448414000000001,-0.0695096,-0.1182153,0,0,-0.8139907,0.41,-0.07000000000000001,-0.33,0
19149,17831103,0,89.53,-8.98,236.76,-0.6822045,-0.9503168,-0.09171203999999999,-0.1297184,0,0,-0.8147706,0.41,-0.07000000000000001,-0.33,0
19191,17841109,0,89.65000000000001,-9.07,237.39,-0.6769944,-0.9560524,-0.1111637,-0.1392229,0,0,-0.8157761,0.41,-0.07000000000000001,-0.33,0
19234,17851675,0,89.75,-9.15,238.02,-0.6724036,-0.966119,-0.1256879,-0.1447151,0,0,-0.8169663,0.41,-0.07000000000000001,-0.33,0
19279,17868247,0,89.88,-9.27,239.03,-0.6633356,-0.9844381,-0.1466321,-0.1521138,0,0,-0.819105,0.4,-0.07000000000000001,-0.31,0
19319,17878325,0,89.92,-9.32,239.61,-0.6532052,-0.9918935,-0.158359,-0.1564374,0,0,-0.8204803000000001,0.4,-0.07000000000000001,-0.31,0
19361,17888964,0,89.91,-9.380000000000001,240.23,-0.645015,-1.004835,-0.1665778,-0.1573356,0,0,-0.8221422,0.4,-0.07000000000000001,-0.31,0
19402,17899030,0,89.86,-9.42,240.78,-0.6386953,-1.01713,-0.1695361,-0.1545576,0,0,-0.8237143,0.4,-0.07000000000000001,-0.31,0
19442,17909335,0,89.77,-9.449999999999999,241.32,-0.630412,-1.029129,-0.1701857,-0.1504293,0,0,-0.8253171,0.4,-0.07000000000000001,-0.31,0
19484,17920065,0,89.64,-9.460000000000001,241.85,-0.6305366999999999,-1.045616,-0.170504,-0.146978,0,0,-0.8270199,0.4,-0.07000000000000001,-0.31,0
19528,17929779,0,89.45,-9.460000000000001,242.35,-0.6252266,-1.063595,-0.16722,-0.1405449,0,0,-0.8286324,0.4,-0.07000000000000001,-0.31,0
19569,17939961,0,89.22,-9.42,242.84,-0.619533,-1.082853,-0.1596911,-0.1306451,0,0,-0.8302037,0.4,-0.07000000000000001,-0.31,0
19611,17949931,0,88.95999999999999,-9.359999999999999,243.31,-0.612618,-1.098013,-0.1522775,-0.1215999,0,0,-0.8317079000000001,0.4,-0.07000000000000001,-0.31,0
19655,17962505,0,88.55,-9.24,243.9,-0.602221,-1.114932,-0.143376,-0.1106305,0,0,-0.8329108,0.39,-0.07000000000000001,-0.31,0
19696,17972496,0,88.19,-9.140000000000001,244.33,-0.5925503,-1.128203,-0.1319886,-0.09584367000000001,0,0,-0.8335924,0.39,-0.07000000000000001,-0.28,0
19736,17982543,0,87.8,-9.02,244.75,-0.5825825,-1.135888,-0.1184625,-0.07828195,0,0,-0.8341869,0.39,-0.07000000000000001,-0.28,0
19777,17993069,0,87.36,-8.890000000000001,245.2,-0.5733165,-1.140177,-0.1041539,-0.05881374,0,0,-0.8347935,0.39,-0.07000000000000001,-0.28,0
19818,18003464,0,86.93000000000001,-8.77,245.61,-0.5741525,-1.149071,-0.09206573999999999,-0.04201847,0,0,-0.8357738,0.39,-0.07000000000000001,-0.28,0
19859,18013481,0,86.48999999999999,-8.66,246.02,-0.5674882999999999,-1.15235,-0.07961118,-0.02558067,0,0,-0.8360513000000001,0.39,-0.07000000000000001,-0.28,0
19900,18023949,0,86.04000000000001,-8.550000000000001,246.43,-0.5599991,-1.151849,-0.06466326999999999,-0.007981139,0,0,-0.8362201,0.39,-0.07000000000000001,-0.28,0
19944,18034255,0,85.54000000000001,-8.449999999999999,246.88,-0.5524728,-1.152575,-0.04673022,0.012259,0,0,-0.8363093,0.39,-0.07000000000000001,-0.28,0
19987,18044631,0,85.09,-8.369999999999999,247.3,-0.5517733,-1.15384,-0.03052221,0.03038177,0,0,-0.8366954,0.39,-0.07000000000000001,-0.28,0
20027,18054578,0,84.66,-8.31,247.72,-0.5439924,-1.148084,-0.01319028,0.04894184,0,0,-0.8364244,0.39,-0.07000000000000001,-0.28,0
20068,18064564,0,84.25,-8.279999999999999,248.15,-0.5368116000000001,-1.144216,0.006591247,0.06943378,0,0,-0.8359993,0.39,-0.07000000000000001,-0.28,0
20108,18077841,0,83.73999999999999,-8.27,248.76,-0.5269079,-1.140478,0.03663785,0.1011003,0,0,-0.8345268,0.38,-0.07000000000000001,-0.26,0
20148,18088110,0,83.42,-8.279999999999999,249.2,-0.5116352,-1.134743,0.05813974,0.1266156,0,0,-0.8328692,0.38,-0.07000000000000001,-0.26,0
20190,18098166,0,83.12,-8.31,249.64,-0.5031343,-1.132371,0.07237212,0.1450467,0,0,-0.8311456,0.38,-0.07000000000000001,-0.26,0
20231,18108466,0,82.81999999999999,-8.359999999999999,250.09,-0.4897543,-1.136355,0.09031794999999999,0.1676265,0,0,-0.8293258999999999,0.38,-0.07000000000000001,-0.26,0
20272,18119032,0,82.55,-8.42,250.52,-0.4767084,-1.137848,0.1167796,0.1981772,0,0,-0.8273314000000001,0.38,-0.07000000000000001,-0.26,0
20313,18129485,0,82.31999999999999,-8.48,251,-0.4601879,-1.14161,0.1399862,0.225911,0,0,-0.8249976,0.38,-0.07000000000000001,-0.26,0
20359,18140073,0,82.08,-8.550000000000001,251.47,-0.4483164,-1.152105,0.1525216,0.2422881,0,0,-0.8225279,0.38,-0.07000000000000001,-0.26,0
20400,18150575,0,81.88,-8.619999999999999,251.88,-0.4421673,-1.161571,0.1686053,0.2613808,0,0,-0.8209273,0.38,-0.07000000000000001,-0.26,0
20440,18160434,0,81.7,-8.68,252.28,-0.423623,-1.166275,0.1894313,0.2837219,0,0,-0.8183098,0.38,-0.07000000000000001,-0.26,0
20481,18170432,0,81.56,-8.74,252.66,-0.4076199,-1.174768,0.2055487,0.3024823,0,0,-0.8145487,0.36,-0.07000000000000001,-0.26,0
20525,18183307,0,81.39,-8.81,253.13,-0.3927955,-1.18875,0.2211836,0.3238736,0,0,-0.8100591,0.36,-0.07000000000000001,-0.24,0
20566,18193483,0,81.28,-8.84,253.46,-0.3797618,-1.197319,0.2337717,0.3409882,0,0,-0.8061464,0.36,-0.07000000000000001,-0.24,0
20608,18204103,0,81.18000000000001,-8.859999999999999,253.8,-0.3690358,-1.210347,0.2434514,0.3557555,0,0,-0.801948,0.36,-0.07000000000000001,-0.24,0
20648,18214464,0,81.06999999999999,-8.85,254.09,-0.3625846,-1.225054,0.2454559,0.3637594,0,0,-0.7995042999999999,0.36,-0.07000000000000001,-0.24,0
20689,18224530,0,80.95999999999999,-8.81,254.36,-0.352827,-1.235524,0.2480322,0.3709152,0,0,-0.7955404,0.36,-0.07000000000000001,-0.24,0
20733,18234465,0,80.84999999999999,-8.76,254.61,-0.3427131,-1.245732,0.2511286,0.3760716,0,0,-0.7916063,0.36,-0.07000000000000001,-0.24,0
20776,18245075,0,80.75,-8.66,254.87,-0.3312588,-1.255906,0.2517313,0.3784669,0,0,-0.7874662,0.36,-0.07000000000000001,-0.23,0
20819,18256034,0,80.67,-8.550000000000001,255.07,-0.3270745,-1.270239,0.2512112,0.38047,0,0,-0.7849475,0.36,-0.07000000000000001,-0.23,0
20859,18265668,0,80.59,-8.4,255.26,-0.3182674,-1.279905,0.2490452,0.3794326,0,0,-0.7811201,0.36,-0.07000000000000001,-0.23,0
20901,18276127,0,80.45,-8.220000000000001,255.46,-0.3045062,-1.285609,0.24963,0.3802097,0,0,-0.7771219,0.36,-0.07000000000000001,-0.23,0
20941,18286917,0,80.3,-8.02,255.63,-0.2890795,-1.285172,0.2470473,0.376579,0,0,-0.7736378,0.35,-0.07000000000000001,-0.23,0
20979,18297580,0,80.18000000000001,-7.82,255.78,-0.2876146,-1.285758,0.237487,0.3644552,0,0,-0.7704929,0.35,-0.07000000000000001,-0.21,0
21021,18307564,0,80.03,-7.62,255.92,-0.2780949,-1.285254,0.2293156,0.3523927,0,0,-0.7674808,0.35,-0.07000000000000001,-0.21,0
21061,18318137,0,79.84999999999999,-7.41,256.08,-0.270126,-1.277643,0.2333661,0.3515765,0,0,-0.7642998,0.35,-0.07000000000000001,-0.21,0
21103,18328998,0,79.73,-7.24,256.23,-0.2620962,-1.277358,0.2321241,0.3453465,0,0,-0.761961,0.35,-0.07000000000000001,-0.21,0
21147,18338771,0,79.56999999999999,-7.1,256.37,-0.2562121,-1.273206,0.2170989,0.3246117,0,0,-0.7591103,0.35,-0.07000000000000001,-0.21,0
21188,18349590,0,79.34999999999999,-6.98,256.54,-0.2495572,-1.260634,0.2017817,0.3029679,0,0,-0.7562565,0.35,-0.07000000000000001,-0.21,0
21228,18359718,0,79.17,-6.9,256.71,-0.2363459,-1.247494,0.196528,0.2917385,0,0,-0.753741,0.35,-0.07000000000000001,-0.21,0
21269,18369572,0,79,-6.86,256.87,-0.2226005,-1.24048,0.1908175,0.2796522,0,0,-0.7513019,0.35,-0.07000000000000001,-0.21,0
21311,18382703,0,78.77,-6.85,257.08,-0.2068899,-1.231908,0.1791728,0.2607734,0,0,-0.7479024,0.33,-0.07000000000000001,-0.18,0
21352,18393140,0,78.58,-6.87,257.24,-0.1904319,-1.223005,0.1748978,0.252913,0,0,-0.745018,0.33,-0.07000000000000001,-0.18,0
21393,18403205,0,78.45999999999999,-6.92,257.38,-0.1842399,-1.222656,0.1702347,0.2453587,0,0,-0.7432871,0.33,-0.07000000000000001,-0.18,0
