LineNo,TimeUS,C,Roll,Pitch,Yaw,VN,VE,VD,dPD,PN,PE,PD,GX,GY,GZ,OH
199,12923301,1,2.38,-1.21,7.91,0.02970287,0.01153732,0.01558058,-0.3116431,0,0,0.5736274,-0.05,0.29,-0.22,0
995,13118095,1,2.39,-1.2,8.06,0.03564445,0.01274938,-0.008805179999999999,-0.2012226,0,0,0.5334079,-0.05,0.26,-0.22,0
1107,13166495,1,2.4,-1.2,8.09,0.03549959,0.01759313,-0.07443952,-0.2100755,0,0,0.5248287,-0.05,0.26,-0.21,0
1493,13333120,1,2.4,-1.18,8.18,0.03800202,0.02281937,-0.4017923,-0.540813,0,0,0.4570827,-0.05,0.25,-0.22,0
1569,13344185,1,2.4,-1.19,8.19,0.0381115,0.02327218,-0.4032387,-0.553941,0,0,0.4493016,-0.05,0.25,-0.22,0
1610,13354564,1,2.4,-1.18,8.210000000000001,0.03866109,0.02356969,-0.404046,-0.5663766,0,0,0.4417096,-0.05,0.25,-0.22,0
1650,13364565,1,2.4,-1.18,8.220000000000001,0.03725076,0.02457857,-0.4062552,-0.5787414,0,0,0.4346539,-0.05,0.25,-0.22,0
1694,13375491,1,2.4,-1.18,8.23,0.03648057,0.02374787,-0.4074097,-0.5942776,0,0,0.4301715,-0.05,0.25,-0.22,0
1735,13386106,1,2.39,-1.18,8.23,0.03652484,0.02394703,-0.4088659,-0.6083596999999999,0,0,0.4216427,-0.04,0.25,-0.22,0
1775,13396015,1,2.39,-1.18,8.24,0.03688398,0.02477636,-0.4113396,-0.6164054,0,0,0.4131989,-0.04,0.24,-0.24,0
1818,13406910,1,2.39,-1.18,8.25,0.03630455,0.02586588,-0.4118949,-0.6334708,0,0,0.4086497,-0.04,0.24,-0.24,0
1862,13416958,1,2.39,-1.18,8.27,0.0347799,0.02670545,-0.4151536,-0.6455261,0,0,0.400308,-0.04,0.24,-0.24,0
1903,13427513,1,2.4,-1.18,8.279999999999999,0.0333952,0.0271554,-0.4170965,-0.6519931,0,0,0.3918535,-0.04,0.24,-0.24,0
1943,13438076,1,2.4,-1.18,8.300000000000001,0.03342887,0.02798063,-0.4190302,-0.6638889,0,0,0.3835192,-0.04,0.24,-0.24,0
1984,13448906,1,2.4,-1.18,8.31,0.03308237,0.02760245,-0.4192207,-0.6771745,0,0,0.3793262,-0.04,0.24,-0.24,0
2023,13459073,1,2.4,-1.18,8.33,0.03417134,0.02675495,-0.4209055,-0.6876984,0,0,0.3715721,-0.05,0.25,-0.24,0
2064,13469456,1,2.4,-1.18,8.35,0.03489548,0.02693322,-0.4227966,-0.6946616,0,0,0.3655823,-0.04,0.25,-0.24,0
2105,13479720,1,2.41,-1.18,8.359999999999999,0.03536442,0.02756867,-0.4243542,-0.6902212,0,0,0.3613597,-0.04,0.25,-0.24,0
2145,13490052,1,2.41,-1.17,8.380000000000001,0.0351293,0.02774356,-0.4264624,-0.6814814,0,0,0.3557523,-0.04,0.24,-0.25,0
2187,13500321,1,2.41,-1.17,8.4,0.03640614,0.02698254,-0.4286891,-0.6687965,0,0,0.3498691,-0.04,0.24,-0.25,0
2228,13510584,1,2.41,-1.17,8.41,0.03670304,0.0283783,-0.4298699,-0.6542286,0,0,0.3444171,-0.04,0.24,-0.25,0
2273,13520518,1,2.4,-1.17,8.43,0.03646298,0.02953285,-0.4280712,-0.6375238,0,0,0.3390268,-0.04,0.25,-0.26,0
2314,13530650,1,2.4,-1.16,8.44,0.03616472,0.02856562,-0.4276241,-0.621143,0,0,0.3337756,-0.05,0.25,-0.26,0
2354,13541099,1,2.4,-1.16,8.449999999999999,0.03766023,0.02671208,-0.4288585,-0.6058854,0,0,0.3290825,-0.05,0.25,-0.26,0
2394,13551465,1,2.4,-1.16,8.470000000000001,0.03725915,0.02753334,-0.4286803,-0.5903074,0,0,0.3238386,-0.05,0.25,-0.26,0
2438,13564447,1,2.4,-1.16,8.49,0.03704526,0.02816223,-0.4290975,-0.5690699,0,0,0.3173614,-0.04,0.24,-0.26,0
2482,13576777,1,2.4,-1.16,8.51,0.0368124,0.02688491,-0.4284731,-0.5501749,0,0,0.3114842,-0.04,0.24,-0.27,0
2523,13586918,1,2.41,-1.16,8.52,0.03703021,0.02686116,-0.4291408,-0.5366077,0,0,0.3064782,-0.04,0.24,-0.27,0
2563,13597578,1,2.4,-1.17,8.539999999999999,0.03620363,0.02711511,-0.4282371,-0.5218416,0,0,0.3010627,-0.04,0.25,-0.27,0
2606,13608177,1,2.41,-1.17,8.550000000000001,0.03637506,0.02716113,-0.4286312,-0.5114911,0,0,0.2968425,-0.04,0.25,-0.27,0
2651,13618928,1,2.41,-1.16,8.56,0.03597075,0.02687818,-0.4299205,-0.5010558000000001,0,0,0.2915224,-0.04,0.25,-0.27,0
2692,13629078,1,2.41,-1.16,8.58,0.03663944,0.0269693,-0.4306541,-0.4909762,0,0,0.2862163,-0.04,0.25,-0.27,0
2732,13639081,1,2.41,-1.17,8.59,0.0369398,0.02678034,-0.4316346,-0.4831285,0,0,0.2814061,-0.04,0.25,-0.27,0
2773,13649632,1,2.42,-1.16,8.609999999999999,0.03593658,0.02677771,-0.4320767,-0.475245,0,0,0.2765953,-0.04,0.25,-0.27,0
2816,13665881,1,2.42,-1.16,8.630000000000001,0.0353925,0.02708554,-0.4328953,-0.4654061,0,0,0.2688665,-0.04,0.24,-0.29,0
2856,13676058,1,2.42,-1.16,8.640000000000001,0.0353779,0.02616245,-0.4323867,-0.4601613,0,0,0.2633774,-0.04,0.25,-0.29,0
2898,13686063,1,2.42,-1.16,8.66,0.03504404,0.02567519,-0.4319163,-0.4560898,0,0,0.2583447,-0.04,0.25,-0.29,0
2938,13696521,1,2.42,-1.16,8.67,0.03539937,0.0265755,-0.4312492,-0.4535958,0,0,0.2539792,-0.04,0.25,-0.29,0
2979,13706506,1,2.42,-1.16,8.69,0.03579116,0.02524903,-0.4303104,-0.4509002,0,0,0.2490725,-0.04,0.25,-0.29,0
3021,13717120,1,2.42,-1.16,8.699999999999999,0.03562834,0.02460904,-0.429134,-0.4480327,0,0,0.2437492,-0.04,0.25,-0.29,0
3066,13727767,1,2.42,-1.15,8.710000000000001,0.03592017,0.02529402,-0.4288795,-0.4457323,0,0,0.2388612,-0.04,0.25,-0.29,0
3107,13738101,1,2.42,-1.15,8.73,0.03498049,0.02563909,-0.430426,-0.446281,0,0,0.2341858,-0.04,0.25,-0.29,0
3147,13748498,1,2.42,-1.15,8.75,0.03401661,0.02543112,-0.4303763,-0.4441801,0,0,0.2293292,-0.04,0.25,-0.29,0
3188,13758107,1,2.42,-1.15,8.76,0.03408627,0.02591836,-0.431103,-0.4431711,0,0,0.2245482,-0.04,0.25,-0.29,0
3228,13771896,1,2.42,-1.16,8.779999999999999,0.03402092,0.0255527,-0.4307033,-0.4412908,0,0,0.2193415,-0.04,0.24,-0.31,0
3271,13781952,1,2.42,-1.15,8.789999999999999,0.03410494,0.02502584,-0.4301781,-0.4371174,0,0,0.2154358,-0.04,0.25,-0.32,0
3312,13792096,1,2.42,-1.15,8.800000000000001,0.03304556,0.02589962,-0.4292395,-0.4298113,0,0,0.2107108,-0.04,0.25,-0.32,0
3352,13802110,1,2.43,-1.15,8.82,0.033461,0.02516144,-0.4302854,-0.4251227,0,0,0.207222,-0.04,0.25,-0.32,0
3394,13812106,1,2.42,-1.16,8.84,0.03336755,0.02500916,-0.4317978,-0.4194603,0,0,0.2028929,-0.04,0.25,-0.32,0
3435,13822080,1,2.43,-1.16,8.85,0.03393174,0.02481437,-0.4328878,-0.4140081,0,0,0.1989785,-0.04,0.25,-0.32,0
3480,13832121,1,2.42,-1.16,8.869999999999999,0.03408205,0.02479806,-0.4331688,-0.4082336,0,0,0.195067,-0.04,0.25,-0.32,0
3522,13842163,1,2.42,-1.16,8.890000000000001,0.03513623,0.02561954,-0.4327985,-0.4022664,0,0,0.1915292,-0.04,0.25,-0.32,0
3564,13852525,1,2.42,-1.16,8.9,0.03517101,0.02506535,-0.4323065,-0.3950308,0,0,0.1868227,-0.04,0.25,-0.32,0
3605,13862907,1,2.42,-1.16,8.92,0.03498466,0.02524083,-0.4310313,-0.3887365,0,0,0.1828952,-0.04,0.25,-0.32,0
3645,13875374,1,2.42,-1.15,8.93,0.03503124,0.0239134,-0.430417,-0.3797271,0,0,0.1786397,-0.04,0.25,-0.33,0
3685,13885355,1,2.42,-1.15,8.949999999999999,0.0345448,0.02440627,-0.4298431,-0.3712223,0,0,0.1756553,-0.04,0.25,-0.33,0
3726,13895344,1,2.43,-1.15,8.970000000000001,0.03489932,0.02519405,-0.4287715,-0.3614463,0,0,0.1726047,-0.04,0.25,-0.33,0
3766,13905457,1,2.43,-1.15,8.98,0.03475543,0.02510322,-0.4297385,-0.3536778,0,0,0.1682454,-0.04,0.25,-0.33,0
3807,13915324,1,2.43,-1.15,8.99,0.03472463,0.02397437,-0.4282035,-0.3456651,0,0,0.1652434,-0.04,0.25,-0.33,0
3853,13925346,1,2.43,-1.15,9,0.03434132,0.02475945,-0.4286187,-0.3395129,0,0,0.1621341,-0.04,0.25,-0.33,0
3894,13936053,1,2.43,-1.15,9.01,0.03402971,0.02659223,-0.4292005,-0.3325233,0,0,0.1585492,-0.04,0.25,-0.33,0
3934,13946891,1,2.43,-1.15,9.02,0.03271136,0.02684319,-0.4258249,-0.3229741,0,0,0.1554074,-0.04,0.25,-0.33,0
3975,13957466,1,2.43,-1.15,9.039999999999999,0.03206646,0.02701285,-0.4250369,-0.3166417,0,0,0.1517615,-0.04,0.25,-0.33,0
4017,13968163,1,2.43,-1.15,9.050000000000001,0.03266374,0.02799673,-0.4247404,-0.3112909,0,0,0.147516,-0.04,0.25,-0.33,0
4051,13978948,1,2.44,-1.15,9.07,0.0332294,0.02869852,-0.4242848,-0.3060813,0,0,0.1443557,-0.04,0.25,-0.35,0
4092,13988992,1,2.44,-1.15,9.09,0.0318534,0.02892928,-0.4255055,-0.3021869,0,0,0.141569,-0.04,0.25,-0.35,0
4133,13998972,1,2.44,-1.14,9.1,0.03295364,0.02855238,-0.4239794,-0.2960785,0,0,0.1386965,-0.04,0.25,-0.35,0
4173,14009090,1,2.44,-1.14,9.109999999999999,0.03320266,0.02868422,-0.4225948,-0.2920507,0,0,0.134479,-0.04,0.25,-0.35,0
4214,14019486,1,2.44,-1.14,9.130000000000001,0.03212895,0.02871744,-0.4225385,-0.2903179,0,0,0.131179,-0.04,0.25,-0.35,0
4261,14029528,1,2.44,-1.15,9.140000000000001,0.03215318,0.02730677,-0.4213142,-0.2881305,0,0,0.128274,-0.04,0.25,-0.35,0
4301,14040048,1,2.44,-1.14,9.15,0.03264636,0.02931761,-0.4195196,-0.2862571,0,0,0.125337,-0.04,0.25,-0.35,0
4342,14050029,1,2.44,-1.14,9.17,0.03293089,0.02889481,-0.4204961,-0.2873445,0,0,0.1223662,-0.04,0.25,-0.35,0
4385,14060045,1,2.44,-1.14,9.18,0.03344618,0.0294593,-0.4205965,-0.2862514,0,0,0.1181011,-0.04,0.25,-0.35,0
4426,14070290,1,2.44,-1.14,9.19,0.0323039,0.03036504,-0.4196225,-0.2856549,0,0,0.1146248,-0.04,0.25,-0.35,0
4463,14081081,1,2.45,-1.14,9.199999999999999,0.03182104,0.02900282,-0.4195241,-0.2853673,0,0,0.1124082,-0.04,0.25,-0.35,0
4505,14090983,1,2.45,-1.14,9.210000000000001,0.0327053,0.03035508,-0.4206557,-0.2855518,0,0,0.1100865,-0.04,0.25,-0.36,0
4545,14101033,1,2.44,-1.14,9.220000000000001,0.03298375,0.0303515,-0.4203137,-0.2823688,0,0,0.1058635,-0.04,0.25,-0.36,0
4587,14110970,1,2.45,-1.14,9.23,0.03320913,0.03015079,-0.4192417,-0.2793978,0,0,0.1034792,-0.04,0.25,-0.36,0
4628,14120915,1,2.45,-1.13,9.25,0.03232417,0.03122465,-0.418106,-0.2779662,0,0,0.1010039,-0.04,0.25,-0.36,0
4672,14130877,1,2.44,-1.13,9.26,0.03197458,0.03016337,-0.4186135,-0.2760531,0,0,0.09848918,-0.04,0.25,-0.36,0
4713,14140968,1,2.44,-1.13,9.27,0.03246879,0.03107467,-0.4174365,-0.2728029,0,0,0.09590509999999999,-0.04,0.25,-0.36,0
4754,14151034,1,2.44,-1.13,9.279999999999999,0.03251337,0.03116458,-0.418328,-0.2699363,0,0,0.09130268,-0.04,0.25,-0.36,0
4795,14161091,1,2.44,-1.13,9.300000000000001,0.03272954,0.03119753,-0.4186869,-0.2686194,0,0,0.08867055,-0.04,0.25,-0.36,0
4835,14173968,1,2.44,-1.13,9.300000000000001,0.0314256,0.03066246,-0.4173389,-0.2668501,0,0,0.08515193,-0.04,0.25,-0.36,0
4873,14183958,1,2.44,-1.12,9.31,0.03010152,0.0305708,-0.4174844,-0.2675082,0,0,0.08347010000000001,-0.04,0.25,-0.37,0
4914,14194452,1,2.44,-1.12,9.32,0.02889868,0.03031647,-0.4173851,-0.265352,0,0,0.08205556,-0.04,0.25,-0.37,0
4954,14204945,1,2.44,-1.12,9.33,0.02794551,0.03011594,-0.4171897,-0.2565333,0,0,0.07788441,-0.04,0.25,-0.37,0
4995,14214983,1,2.44,-1.12,9.34,0.02837046,0.02950252,-0.415397,-0.2473086,0,0,0.07639402000000001,-0.04,0.25,-0.37,0
5035,14224966,1,2.44,-1.11,9.35,0.02664815,0.02887684,-0.412654,-0.2366938,0,0,0.07484419,-0.04,0.25,-0.37,0
5081,14234970,1,2.44,-1.11,9.359999999999999,0.02587538,0.0289709,-0.4119646,-0.2297241,0,0,0.07319094,-0.04,0.25,-0.37,0
5122,14245457,1,2.44,-1.11,9.369999999999999,0.02738327,0.02942477,-0.413719,-0.224358,0,0,0.06866764,-0.04,0.25,-0.37,0
5163,14256035,1,2.44,-1.12,9.380000000000001,0.02705504,0.02884417,-0.4140328,-0.2228483,0,0,0.06690333,-0.04,0.25,-0.37,0
5205,14265898,1,2.44,-1.12,9.390000000000001,0.02590716,0.02898323,-0.4125887,-0.2204013,0,0,0.0650738,-0.04,0.25,-0.37,0
5245,14276258,1,2.44,-1.12,9.390000000000001,0.02510786,0.0290776,-0.4112451,-0.2181363,0,0,0.0627543,-0.04,0.25,-0.37,0
5287,14286647,1,2.44,-1.12,9.4,0.02576074,0.03050205,-0.4108056,-0.2145528,0,0,0.0586611,-0.04,0.25,-0.37,0
5327,14297224,1,2.44,-1.12,9.41,0.02634668,0.03065238,-0.4100488,-0.216019,0,0,0.0576796,-0.04,0.24,-0.37,0
5368,14307461,1,2.44,-1.12,9.42,0.02595497,0.03043246,-0.4105622,-0.2156035,0,0,0.05699813,-0.04,0.24,-0.38,0
5408,14318097,1,2.44,-1.12,9.44,0.02487608,0.02927541,-0.4089789,-0.2061182,0,0,0.05572472,-0.04,0.24,-0.38,0
5449,14329055,1,2.44,-1.12,9.449999999999999,0.02449301,0.03001673,-0.4096921,-0.1951081,0,0,0.05160658,-0.04,0.24,-0.38,0
5494,14338994,1,2.44,-1.12,9.460000000000001,0.02414438,0.02987199,-0.4086474,-0.1853308,0,0,0.05066988,-0.04,0.24,-0.38,0
5534,14349021,1,2.45,-1.12,9.470000000000001,0.02249649,0.03098644,-0.4077918,-0.1740402,0,0,0.04960316,-0.04,0.24,-0.38,0
5575,14359447,1,2.45,-1.12,9.48,0.02083454,0.03154308,-0.4051973,-0.1629719,0,0,0.04801267,-0.04,0.25,-0.38,0
5620,14372581,1,2.45,-1.12,9.49,0.02031968,0.03213668,-0.4043271,-0.1614484,0,0,0.0455519,-0.04,0.24,-0.38,0
5664,14388308,1,2.45,-1.12,9.5,0.02093443,0.03330261,-0.4018354,-0.1550495,0,0,0.04350989,-0.04,0.24,-0.39,0
5704,14398370,1,2.45,-1.12,9.51,0.02070482,0.03180072,-0.3995456,-0.1495236,0,0,0.04376868,-0.04,0.24,-0.39,0
5745,14409020,1,2.45,-1.12,9.51,0.02093456,0.03247189,-0.3983945,-0.135961,0,0,0.03977755,-0.04,0.24,-0.39,0
5788,14419708,1,2.45,-1.12,9.52,0.02059703,0.03364254,-0.3977846,-0.1257849,0,0,0.03950492,-0.04,0.24,-0.39,0
5828,14430028,1,2.45,-1.11,9.529999999999999,0.01990521,0.03351165,-0.3962961,-0.1200544,0,0,0.03946903,-0.04,0.24,-0.39,0
5873,14440107,1,2.45,-1.11,9.529999999999999,0.02017774,0.03289962,-0.3967054,-0.1135051,0,0,0.03552624,-0.04,0.24,-0.39,0
5916,14450075,1,2.44,-1.11,9.539999999999999,0.02013549,0.03278077,-0.3946283,-0.1067766,0,0,0.03535377,-0.04,0.24,-0.39,0
5957,14460114,1,2.44,-1.11,9.550000000000001,0.02076423,0.0325884,-0.3927042,-0.09707171000000001,0,0,0.0350314,-0.04,0.24,-0.39,0
5998,14470312,1,2.44,-1.11,9.57,0.02030198,0.03137685,-0.3912835,-0.09791916000000001,0,0,0.03420982,-0.04,0.24,-0.39,0
6038,14480895,1,2.44,-1.11,9.57,0.02064952,0.03227904,-0.3906971,-0.09448867,0,0,0.03029517,-0.04,0.24,-0.39,0
6077,14490807,1,2.44,-1.11,9.59,0.0201055,0.03228913,-0.3906252,-0.09440171999999999,0,0,0.02975703,-0.04,0.24,-0.39,0
6118,14501120,1,2.44,-1.11,9.6,0.01950598,0.03248332,-0.3895362,-0.08656029,0,0,0.03009108,-0.04,0.24,-0.4,0
6158,14511116,1,2.44,-1.11,9.609999999999999,0.01988984,0.03217861,-0.3868832,-0.07730843,0,0,0.03063508,-0.04,0.24,-0.4,0
6199,14521379,1,2.44,-1.11,9.619999999999999,0.01950973,0.03224766,-0.3839207,-0.06904882,0,0,0.03143122,-0.04,0.24,-0.41,0
6239,14531128,1,2.44,-1.11,9.640000000000001,0.01925376,0.03279179,-0.3827808,-0.06110889,0,0,0.03126401,-0.04,0.24,-0.41,0
6284,14541580,1,2.44,-1.11,9.65,0.01966546,0.03425934,-0.3832281,-0.0518816,0,0,0.02743346,-0.04,0.24,-0.41,0
6324,14551576,1,2.44,-1.11,9.66,0.01810377,0.03393612,-0.3800663,-0.04373648,0,0,0.02754158,-0.04,0.24,-0.41,0
6366,14561583,1,2.45,-1.12,9.67,0.01788866,0.03224926,-0.378589,-0.03419875,0,0,0.02749707,-0.04,0.24,-0.41,0
6407,14571523,1,2.45,-1.11,9.68,0.01775094,0.03236313,-0.3750138,-0.02723332,0,0,0.02731084,-0.04,0.24,-0.41,0
6448,14584428,1,2.45,-1.11,9.699999999999999,0.01737744,0.03367738,-0.373477,-0.02633143,0,0,0.0276831,-0.04,0.24,-0.41,0
6486,14594617,1,2.45,-1.11,9.710000000000001,0.01696481,0.03405274,-0.371691,-0.01754404,0,0,0.02896135,-0.04,0.24,-0.41,0
6526,14604611,1,2.45,-1.11,9.720000000000001,0.01529835,0.03318844,-0.3707693,-0.01140923,0,0,0.03004326,-0.04,0.24,-0.41,0
6567,14615019,1,2.45,-1.11,9.73,0.01608145,0.03268637,-0.3716896,-0.000497074,0,0,0.02634568,-0.04,0.24,-0.41,0
6608,14625003,1,2.45,-1.1,9.74,0.01559103,0.03430392,-0.3700109,0.007849474,0,0,0.02723045,-0.04,0.24,-0.41,0
6649,14635016,1,2.45,-1.11,9.75,0.01582646,0.03508932,-0.368074,0.009280366,0,0,0.02798043,-0.04,0.24,-0.41,0
6694,14645772,1,2.45,-1.11,9.76,0.01568363,0.0359969,-0.3681085,0.01018784,0,0,0.02391941,-0.04,0.24,-0.41,0
6736,14655667,1,2.45,-1.11,9.77,0.01555798,0.03615461,-0.3643013,0.0107507,0,0,0.02454454,-0.04,0.24,-0.41,0
6777,14665767,1,2.45,-1.11,9.779999999999999,0.01599701,0.03529454,-0.3607514,0.009731896,0,0,0.02499285,-0.04,0.24,-0.41,0
6820,14675647,1,2.46,-1.11,9.779999999999999,0.01544157,0.03609527,-0.3610886,0.004962259,0,0,0.02530126,-0.04,0.24,-0.41,0
6860,14688877,1,2.45,-1.11,9.789999999999999,0.01564498,0.03461532,-0.3584138,0.005461504,0,0,0.02514106,-0.04,0.24,-0.41,0
6901,14699005,1,2.45,-1.11,9.800000000000001,0.01389715,0.03519588,-0.3588296,0.002927405,0,0,0.02153818,-0.04,0.24,-0.41,0
6941,14708961,1,2.45,-1.1,9.81,0.01486684,0.03552284,-0.3576468,5.816802e-05,0,0,0.02223666,-0.04,0.24,-0.41,0
6982,14719367,1,2.45,-1.1,9.82,0.01404193,0.03471013,-0.3556035,-0.002040619,0,0,0.02252148,-0.04,0.24,-0.41,0
7022,14729972,1,2.45,-1.1,9.82,0.01464695,0.0339232,-0.3541904,-0.005795091,0,0,0.02302017,-0.04,0.24,-0.41,0
7064,14739865,1,2.45,-1.1,9.83,0.01411534,0.033919,-0.3525793,-0.008772083,0,0,0.02329586,-0.04,0.24,-0.41,0
7108,14750060,1,2.45,-1.11,9.84,0.01333954,0.03439984,-0.3530623,-0.01103217,0,0,0.02307517,-0.04,0.24,-0.41,0
7149,14760724,1,2.45,-1.11,9.84,0.01252375,0.03554578,-0.3528367,-0.009817543,0,0,0.01954939,-0.04,0.24,-0.41,0
7192,14771072,1,2.45,-1.11,9.85,0.01258721,0.03540529,-0.3524042,-0.01347267,0,0,0.01919178,-0.04,0.24,-0.41,0
7233,14781664,1,2.45,-1.11,9.859999999999999,0.01301476,0.03526196,-0.3489043,-0.02345121,0,0,0.01907273,-0.04,0.24,-0.41,0
7271,14795263,1,2.45,-1.12,9.869999999999999,0.01278025,0.03637138,-0.3454785,-0.02882111,0,0,0.0187908,-0.03,0.24,-0.42,0
7312,14805742,1,2.45,-1.12,9.880000000000001,0.01188469,0.03604356,-0.3455501,-0.03071422,0,0,0.01971492,-0.04,0.24,-0.42,0
7353,14816079,1,2.45,-1.12,9.890000000000001,0.01273638,0.03607012,-0.345752,-0.02975756,0,0,0.01590686,-0.04,0.24,-0.42,0
7394,14826174,1,2.45,-1.11,9.9,0.01263473,0.03636758,-0.3444162,-0.03330497,0,0,0.0166925,-0.03,0.24,-0.42,0
7434,14836057,1,2.45,-1.12,9.91,0.01324567,0.03757494,-0.3425478,-0.03403308,0,0,0.01730172,-0.03,0.24,-0.42,0
7476,14846052,1,2.47,-1.12,9.92,0.01650984,0.03743524,-0.3370632,-0.03218976,0,0,0.01777402,-0.03,0.24,-0.42,0
7521,14856641,1,2.51,-1.11,9.91,0.02332103,0.03243025,-0.3320642,-0.02486595,0,0,0.01442871,-0.03,0.24,-0.42,0
7564,14866625,1,2.54,-1.1,9.890000000000001,0.02394246,0.02795979,-0.3312941,-0.02512005,0,0,0.01482618,-0.03,0.24,-0.42,0
7604,14877081,1,2.56,-1.1,9.880000000000001,0.02093459,0.03093054,-0.3307992,-0.02602839,0,0,0.01507621,-0.03,0.24,-0.42,0
7646,14887108,1,2.61,-1.11,9.869999999999999,0.02429556,0.03484173,-0.3338067,-0.02925795,0,0,0.01479673,-0.04,0.24,-0.42,0
7684,14897493,1,2.64,-1.11,9.859999999999999,0.02580007,0.03200651,-0.3348199,-0.03111792,0,0,0.01575381,-0.03,0.24,-0.42,0
7728,14910358,1,2.64,-1.14,9.869999999999999,0.02284955,0.03147309,-0.3332483,-0.02776659,0,0,0.01554465,-0.03,0.24,-0.43,0
7769,14920288,1,2.63,-1.16,9.880000000000001,0.02268546,0.03476346,-0.3317074,-0.02769189,0,0,0.01617068,-0.03,0.24,-0.43,0
7809,14930716,1,2.62,-1.17,9.890000000000001,0.01677763,0.03658418,-0.329309,-0.02098654,0,0,0.01287905,-0.03,0.24,-0.43,0
7850,14940614,1,2.59,-1.18,9.92,0.01004778,0.03710143,-0.3255742,-0.01661224,0,0,0.01339141,-0.03,0.24,-0.43,0
7899,14953579,1,2.54,-1.18,9.960000000000001,0.008490124999999999,0.04276783,-0.3205778,-0.008952573,0,0,0.0128166,-0.03,0.24,-0.43,0
7939,14963518,1,2.52,-1.17,9.98,0.00536527,0.0441868,-0.3160757,-0.004491868,0,0,0.01310983,-0.03,0.24,-0.43,0
7980,14974140,1,2.49,-1.16,10,0.0009692908,0.04247432,-0.3175985,-0.01198884,0,0,0.01327388,-0.03,0.24,-0.43,0
8020,14984481,1,2.46,-1.15,10.01,0.0008035034,0.03936801,-0.3235773,-0.0250623,0,0,0.01294478,-0.03,0.24,-0.43,0
8062,14994926,1,2.45,-1.13,10.01,-0.003270924,0.03601893,-0.3270407,-0.03187234,0,0,0.009661375999999999,-0.03,0.24,-0.43,0
8101,15005470,1,2.46,-1.12,10.02,-0.008975965000000001,0.02821139,-0.3254429,-0.02733572,0,0,0.01230946,-0.03,0.24,-0.44,0
8141,15015483,1,2.47,-1.1,10.02,-0.006393353,0.01728031,-0.3216588,-0.01108956,0,0,0.01513178,-0.03,0.24,-0.44,0
8182,15025892,1,2.49,-1.08,10.02,-0.004940882,0.006580469,-0.320098,0.005853435,0,0,0.01763906,-0.03,0.24,-0.45,0
8222,15035953,1,2.48,-1.07,10.02,-0.008750689000000001,-0.002952895,-0.3230791,0.01625609,0,0,0.01990699,-0.03,0.24,-0.45,0
8264,15046372,1,2.44,-1.04,10.04,-0.009397294,-0.006574959,-0.3321354,0.02125465,0,0,0.02153492,-0.03,0.24,-0.45,0
8311,15057161,1,2.35,-1.01,10.07,-0.01211417,-0.004798753,-0.3372522,0.03212134,0,0,0.02284367,-0.03,0.24,-0.45,0
8353,15067626,1,2.24,-0.99,10.12,-0.01661045,-0.00292798,-0.3381783,0.04819422,0,0,0.01947855,-0.03,0.24,-0.45,0
8394,15077884,1,2.12,-0.95,10.19,-0.01205756,-0.001625165,-0.3347505,0.06149419,0,0,0.02094758,-0.03,0.24,-0.45,0
8434,15087751,1,1.95,-0.92,10.27,-0.004294209,0.004651494,-0.3314865,0.07158884,0,0,0.02220603,-0.03,0.24,-0.45,0
8473,15100880,1,1.73,-0.88,10.36,-0.003318306,0.0190978,-0.3363869,0.07332503999999999,0,0,0.02331886,-0.03,0.24,-0.46,0
8515,15110971,1,1.59,-0.84,10.42,0.004956394,0.03041459,-0.3420688,0.07003926000000001,0,0,0.02511251,-0.03,0.24,-0.46,0
8555,15121287,1,1.4,-0.79,10.47,0.01046132,0.03322535,-0.3539364,0.05981263,0,0,0.02624287,-0.03,0.24,-0.46,0
8597,15131118,1,1.2,-0.74,10.53,0.009784576,0.03221799,-0.3670259,0.05314445,0,0,0.02263515,-0.03,0.24,-0.46,0
8637,15141112,1,0.99,-0.6899999999999999,10.59,0.01215334,0.03473864,-0.376524,0.04676691,0,0,0.02371124,-0.03,0.24,-0.46,0
8678,15151242,1,0.75,-0.65,10.66,0.01153622,0.03595443,-0.3900437,0.02397356,0,0,0.01987805,-0.03,0.24,-0.46,0
8722,15161091,1,0.51,-0.62,10.75,0.005290611,0.03309043,-0.3989233,0.006767113,0,0,0.02054938,-0.03,0.24,-0.45,0
8763,15171856,1,0.26,-0.6,10.84,-0.001475208,0.0316876,-0.4023496,-0.001769116,0,0,0.02099033,-0.03,0.24,-0.45,0
8803,15181849,1,-0.03,-0.5600000000000001,10.95,-0.003898893,0.03511613,-0.4062531,-0.01086428,0,0,0.02111787,-0.03,0.24,-0.45,0
8845,15191857,1,-0.29,-0.53,11.05,-0.006771178,0.03613807,-0.4162743,-0.02855092,0,0,0.02105368,-0.03,0.24,-0.45,0
8884,15204542,1,-0.61,-0.48,11.21,-0.008911995000000001,0.03057681,-0.4237691,-0.0417953,0,0,0.02113676,-0.03,0.24,-0.46,0
8925,15214447,1,-0.91,-0.42,11.36,-0.005753861,0.03263717,-0.4325736,-0.0551124,0,0,0.02209235,-0.03,0.24,-0.44,0
8966,15225134,1,-1.19,-0.37,11.56,-0.002325278,0.0390903,-0.4480239,-0.06519436000000001,0,0,0.01771725,-0.03,0.24,-0.44,0
9006,15236084,1,-1.42,-0.3,11.75,-0.0007865301000000001,0.0408977,-0.4648387,-0.08142394999999999,0,0,0.01775441,-0.03,0.24,-0.44,0
9047,15246456,1,-1.69,-0.22,12,0.002813211,0.04140547,-0.4835543,-0.09442569000000001,0,0,0.01736428,-0.03,0.24,-0.44,0
9090,15256339,1,-1.93,-0.13,12.27,0.00478373,0.04759903,-0.4998888,-0.1087169,0,0,0.01707464,-0.03,0.24,-0.44,0
9137,15266351,1,-2.15,-0.02,12.58,0.007353873,0.05455264,-0.5142606,-0.1225247,0,0,0.0164297,-0.03,0.24,-0.44,0
9178,15276372,1,-2.36,0.1,12.91,0.01450429,0.05878389,-0.5362784,-0.1477969,0,0,0.01540678,-0.03,0.24,-0.44,0
9218,15287009,1,-2.57,0.22,13.25,0.02449339,0.06364973,-0.5595558,-0.1697737,0,0,0.009951397000000001,-0.03,0.24,-0.44,0
9259,15297189,1,-2.85,0.41,13.73,0.03092881,0.07702902,-0.5889388,-0.2033068,0,0,0.007626501,-0.03,0.24,-0.44,0
9294,15308103,1,-3.09,0.62,14.22,0.03684827,0.09015136,-0.6171063,-0.2341639,0,0,0.006821018,-0.03,0.24,-0.44,0
9336,15318098,1,-3.29,0.83,14.67,0.04636076,0.1006666,-0.6453947,-0.2628272,0,0,0.006025172,-0.03,0.24,-0.44,0
9377,15328269,1,-3.52,1.14,15.23,0.05925854,0.1150189,-0.6757444,-0.2940578,0,0,0.004745824,-0.03,0.24,-0.44,0
9419,15338840,1,-3.7,1.44,15.78,0.07182089999999999,0.1295113,-0.7112761,-0.3215534,0,0,-0.002186695,-0.03,0.24,-0.44,0
9459,15348920,1,-3.83,1.77,16.3,0.0806548,0.143639,-0.7499112999999999,-0.3565963,0,0,-0.004399909,-0.03,0.24,-0.44,0
9500,15359060,1,-3.95,2.18,16.94,0.09272532,0.1603549,-0.7899875,-0.3945037,0,0,-0.007979994000000001,-0.03,0.24,-0.44,0
9544,15369919,1,-4.01,2.62,17.61,0.1052681,0.1753522,-0.8324547,-0.4379582,0,0,-0.01146653,-0.03,0.24,-0.44,0
9585,15379871,1,-4,3.06,18.26,0.1158495,0.1854222,-0.8711793,-0.4740579,0,0,-0.01567856,-0.03,0.24,-0.44,0
9625,15390095,1,-3.93,3.51,18.94,0.1238064,0.1936621,-0.9137788999999999,-0.5150315,0,0,-0.02446744,-0.03,0.24,-0.44,0
9666,15399969,1,-3.8,4,19.65,0.1329809,0.2046924,-0.9540303,-0.5582822,0,0,-0.02952818,-0.03,0.24,-0.44,0
9703,15410541,1,-3.57,4.56,20.47,0.1432945,0.2152655,-1.000681,-0.5986645,0,0,-0.03386543,-0.03,0.24,-0.45,0
9743,15420413,1,-3.29,5.09,21.25,0.1530039,0.2247993,-1.044762,-0.6474771,0,0,-0.04402965,-0.03,0.24,-0.45,0
9784,15430420,1,-2.96,5.63,22.08,0.1632777,0.235916,-1.088132,-0.6935737,0,0,-0.04840205,-0.03,0.24,-0.44,0
9825,15440415,1,-2.54,6.18,22.93,0.1710939,0.2526419,-1.129175,-0.7316328,0,0,-0.05353061,-0.03,0.24,-0.45,0
9866,15450297,1,-2.01,6.72,23.83,0.1793252,0.2676408,-1.168494,-0.7712216,0,0,-0.06501431000000001,-0.03,0.24,-0.45,0
9909,15460397,1,-1.4,7.25,24.75,0.1934975,0.2816748,-1.202997,-0.8038172,0,0,-0.0710713,-0.03,0.24,-0.44,0
9954,15470408,1,-0.8100000000000001,7.72,25.61,0.2104744,0.2939424,-1.236614,-0.8358016,0,0,-0.07759795,-0.03,0.24,-0.44,0
9996,15480978,1,-0.07000000000000001,8.26,26.71,0.2312938,0.3040962,-1.269706,-0.8712449,0,0,-0.09017496999999999,-0.03,0.24,-0.44,0
10036,15491171,1,0.68,8.77,27.84,0.2542356,0.3113726,-1.303317,-0.9084079,0,0,-0.09898448999999999,-0.03,0.24,-0.44,0
10077,15501071,1,1.35,9.19,28.89,0.2718675,0.3171729,-1.330231,-0.9376829,0,0,-0.1070086,-0.03,0.24,-0.44,0
10117,15511385,1,1.97,9.539999999999999,29.87,0.2902128,0.3226652,-1.352665,-0.967154,0,0,-0.1142576,-0.03,0.24,-0.44,0
10158,15522030,1,2.73,9.93,31.11,0.3131293,0.3279921,-1.379124,-0.9920854,0,0,-0.1291874,-0.03,0.24,-0.44,0
10195,15532885,1,3.48,10.29,32.4,0.3349513,0.3350069,-1.395002,-1.016854,0,0,-0.1397922,-0.02,0.23,-0.45,0
10236,15542738,1,4.16,10.59,33.61,0.3534151,0.3416493,-1.406916,-1.031256,0,0,-0.1493593,-0.02,0.24,-0.45,0
10278,15552583,1,4.75,10.84,34.74,0.3751343,0.3481059,-1.415003,-1.042491,0,0,-0.1591687,-0.02,0.24,-0.45,0
10318,15562603,1,5.44,11.12,36.15,0.3942811,0.3574243,-1.425233,-1.058625,0,0,-0.1693708,-0.02,0.24,-0.45,0
10363,15573105,1,6.12,11.36,37.62,0.4083868,0.370032,-1.435518,-1.07088,0,0,-0.1851874,-0.02,0.24,-0.45,0
10403,15583289,1,6.74,11.54,38.99,0.4160431,0.3841439,-1.441268,-1.083125,0,0,-0.1956075,-0.02,0.24,-0.45,0
10444,15593768,1,7.33,11.7,40.31,0.4246501,0.3968832,-1.448756,-1.094674,0,0,-0.2062891,-0.02,0.24,-0.45,0
10484,15603646,1,8.029999999999999,11.86,41.89,0.4332895,0.4107927,-1.456672,-1.108266,0,0,-0.2173577,-0.02,0.24,-0.45,0
10518,15614267,1,8.74,11.99,43.56,0.4390656,0.4253841,-1.463104,-1.122921,0,0,-0.2292782,-0.02,0.23,-0.46,0
10559,15624444,1,9.41,12.07,45.13,0.4425214,0.4453884,-1.466596,-1.135122,0,0,-0.2399846,-0.02,0.23,-0.46,0
10600,15634708,1,10.03,12.11,46.55,0.4484242,0.4691378,-1.473547,-1.144404,0,0,-0.2546321,-0.02,0.23,-0.46,0
10640,15645368,1,10.89,12.11,48.48,0.4483734,0.4986632,-1.478962,-1.157096,0,0,-0.2671345,-0.02,0.23,-0.46,0
10681,15655682,1,11.58,12.07,49.96,0.4466361,0.5250108999999999,-1.482334,-1.163819,0,0,-0.2782928,-0.02,0.23,-0.47,0
10723,15666099,1,12.53,11.96,51.88,0.4447956,0.5515481,-1.484475,-1.171828,0,0,-0.2900819,-0.02,0.23,-0.47,0
10770,15717349,1,17.02,10.86,59.97,0.4176098,0.6759441,-1.497098,-1.224109,0,0,-0.3532975,-0.01,0.23,-0.48,0
10812,15727911,1,17.99,10.54,61.5,0.4092663,0.6954038,-1.495475,-1.225088,0,0,-0.3638693,-0.01,0.23,-0.48,0
10852,15738008,1,18.89,10.23,62.9,0.402446,0.7148076,-1.496645,-1.224413,0,0,-0.3787845,-0.01,0.23,-0.48,0
10893,15748027,1,19.93,9.83,64.51000000000001,0.3951332,0.7341756,-1.49834,-1.225349,0,0,-0.3896519,-0.01,0.23,-0.48,0
10936,15758442,1,20.98,9.41,66.09999999999999,0.384908,0.7547227,-1.502279,-1.223391,0,0,-0.402026,-0.01,0.23,-0.48,0
10976,15769038,1,21.93,9,67.53,0.3699664,0.7734609,-1.50224,-1.225267,0,0,-0.4132047,-0.01,0.23,-0.48,0
11021,15779891,1,23,8.539999999999999,69.08,0.3451808,0.7970347,-1.497989,-1.222648,0,0,-0.426039,-0.01,0.23,-0.48,0
11061,15790041,1,24.13,8.07,70.59,0.3233927,0.8185641,-1.495207,-1.21861,0,0,-0.4374147,-0.01,0.23,-0.48,0
11102,15800653,1,25.17,7.64,71.93000000000001,0.3064102,0.840368,-1.494179,-1.212996,0,0,-0.4539116,-0.01,0.23,-0.48,0
11145,15811045,1,26.1,7.25,73.12,0.293486,0.8570766,-1.498924,-1.217336,0,0,-0.4654683,-0.01,0.23,-0.48,0
11186,15821566,1,27.28,6.75,74.62,0.278993,0.8764033,-1.502485,-1.211651,0,0,-0.4757903,0,0.22,-0.49,0
11227,15831582,1,28.16,6.38,75.73,0.2606316,0.8935354,-1.508496,-1.200977,0,0,-0.4848371,0,0.22,-0.49,0
11267,15841528,1,29.18,5.94,77.01000000000001,0.2346797,0.9098423,-1.512752,-1.194136,0,0,-0.4945758,0,0.22,-0.49,0
11309,15852188,1,30.05,5.57,78.06,0.2081077,0.929135,-1.515196,-1.182538,0,0,-0.5094926,0,0.22,-0.49,0
11349,15862557,1,31.16,5.13,79.34999999999999,0.1703027,0.9516647,-1.515955,-1.172635,0,0,-0.5206265,0,0.22,-0.49,0
11392,15872768,1,32.15,4.77,80.42,0.1340092,0.9705589,-1.513173,-1.159038,0,0,-0.5305399,0,0.22,-0.49,0
11437,15882559,1,33.17,4.42,81.47,0.09928627,0.9863536000000001,-1.50917,-1.147382,0,0,-0.5406535,0,0.22,-0.49,0
11478,15892526,1,34.1,4.12,82.38,0.06720898,1.002674,-1.506445,-1.137885,0,0,-0.5508961999999999,0,0.22,-0.49,0
11519,15903104,1,35.24,3.77,83.45999999999999,0.03752491,1.021044,-1.507302,-1.127155,0,0,-0.5660275,0,0.22,-0.49,0
11560,15913534,1,36.37,3.45,84.52,0.001778089,1.038433,-1.505762,-1.119719,0,0,-0.5780315,0,0.22,-0.49,0
11598,15924099,1,37.4,3.17,85.47,-0.04147904,1.055106,-1.4982,-1.108916,0,0,-0.5885742,0,0.2,-0.49,0
11638,15934064,1,38.54,2.88,86.5,-0.08332357999999999,1.070173,-1.491687,-1.096594,0,0,-0.5979299,0,0.2,-0.51,0
11679,15944155,1,39.62,2.64,87.42,-0.1225647,1.083291,-1.486205,-1.087424,0,0,-0.6060061,0,0.2,-0.51,0
11721,15954646,1,40.69,2.41,88.31,-0.1683839,1.101538,-1.475703,-1.063933,0,0,-0.622201,0,0.2,-0.51,0
11761,15964686,1,41.8,2.2,89.19,-0.2116769,1.115078,-1.463218,-1.04632,0,0,-0.6316969,0,0.2,-0.51,0
11802,15975146,1,43.03,2.01,90.15000000000001,-0.2503036,1.129483,-1.453149,-1.027784,0,0,-0.6428199,0,0.2,-0.51,0
11846,15985207,1,44.12,1.86,90.98999999999999,-0.2807155,1.14487,-1.443843,-1.01556,0,0,-0.652599,0,0.2,-0.51,0
11887,15995205,1,45.19,1.74,91.83,-0.3085359,1.157896,-1.438925,-1.01138,0,0,-0.6610646999999999,0,0.2,-0.51,0
11929,16005432,1,46.16,1.65,92.63,-0.3410984,1.174063,-1.430953,-1.004856,0,0,-0.6768584,0,0.2,-0.51,0
11972,16018543,1,47.41,1.55,93.66,-0.3895493,1.187403,-1.413653,-0.9975654,0,0,-0.6909999999999999,0,0.2,-0.51,0
12013,16029046,1,48.38,1.51,94.45,-0.4278258,1.192658,-1.394718,-0.9852885,0,0,-0.7004591,0.02,0.19,-0.5,0
12054,16039134,1,49.34,1.49,95.23999999999999,-0.4647366,1.19584,-1.366311,-0.9686847,0,0,-0.709632,0.02,0.19,-0.5,0
12097,16049548,1,50.44,1.48,96.12,-0.5040133999999999,1.201138,-1.334328,-0.9466812999999999,0,0,-0.7244777999999999,0.02,0.19,-0.5,0
12138,16060113,1,51.37,1.5,96.89,-0.5332633,1.201067,-1.306748,-0.9394130000000001,0,0,-0.7332559,0.02,0.19,-0.49,0
12179,16070118,1,52.41,1.53,97.78,-0.5589889,1.202774,-1.2825,-0.9291734,0,0,-0.7462518,0.02,0.19,-0.49,0
12225,16080067,1,53.34,1.57,98.65000000000001,-0.5883372,1.201859,-1.245231,-0.905156,0,0,-0.7546824,0.02,0.19,-0.49,0
12267,16090428,1,54.41,1.61,99.62,-0.6261649,1.200866,-1.194834,-0.867112,0,0,-0.7641023,0.02,0.19,-0.49,0
12308,16100453,1,55.32,1.65,100.43,-0.6484442,1.203996,-1.159069,-0.8444479,0,0,-0.7758134,0.02,0.19,-0.49,0
12352,16113751,1,56.62,1.71,101.62,-0.6700965,1.202807,-1.118711,-0.8202852,0,0,-0.7867515,0.02,0.19,-0.49,0
12393,16123987,1,57.7,1.77,102.65,-0.6854171999999999,1.20287,-1.079779,-0.7908683,0,0,-0.7941279,0.02,0.19,-0.49,0
12434,16134471,1,58.78,1.83,103.7,-0.7028682000000001,1.201066,-1.035843,-0.7642037,0,0,-0.8021879,0.02,0.18,-0.48,0
12476,16145126,1,59.76,1.88,104.69,-0.712031,1.202142,-1.000615,-0.7382493999999999,0,0,-0.8133638,0.02,0.18,-0.48,0
12517,16155940,1,60.79,1.94,105.8,-0.7222463,1.195777,-0.9644126,-0.7103412,0,0,-0.8179269,0.05,0.18,-0.48,0
12557,16165550,1,61.69,2,106.83,-0.7329269,1.191569,-0.9227707000000001,-0.6716604,0,0,-0.8223161,0.05,0.18,-0.48,0
12598,16175573,1,62.6,2.04,107.9,-0.741209,1.186443,-0.8805845,-0.6270443,0,0,-0.8265313,0.05,0.18,-0.48,0
12642,16186056,1,63.5,2.08,108.99,-0.7490346,1.183035,-0.8386205,-0.5731876,0,0,-0.8359547000000001,0.05,0.18,-0.48,0
12684,16197119,1,64.45,2.12,110.23,-0.7586991,1.177361,-0.7968349,-0.5275329,0,0,-0.8395669,0.05,0.18,-0.47,0
12724,16206888,1,65.31,2.14,111.36,-0.7690036,1.173887,-0.754959,-0.478544,0,0,-0.8429499,0.05,0.18,-0.48,0
12765,16216965,1,66.16,2.17,112.52,-0.7760814,1.171762,-0.7166892,-0.4334677,0,0,-0.8461519,0.05,0.18,-0.48,0
12803,16227206,1,66.98999999999999,2.19,113.72,-0.7817262,1.17487,-0.6822347,-0.3919911,0,0,-0.8538207,0.05,0.18,-0.48,0
12844,16237217,1,67.81999999999999,2.2,115.03,-0.7886142,1.173162,-0.6514904,-0.3575771,0,0,-0.8565526999999999,0.05,0.18,-0.48,0
12883,16248085,1,68.53,2.2,116.25,-0.7959091,1.167434,-0.6196592,-0.31981,0,0,-0.8579227,0.08,0.18,-0.46,0
12927,16258132,1,69.26000000000001,2.2,117.61,-0.802987,1.162515,-0.5926383,-0.2813826,0,0,-0.8587225000000001,0.08,0.19,-0.46,0
12968,16269257,1,69.81999999999999,2.19,118.77,-0.8115594,1.165605,-0.5664233,-0.2487846,0,0,-0.8645296,0.08,0.19,-0.46,0
13008,16279948,1,70.48,2.17,120.27,-0.8235174,1.158942,-0.5336967,-0.2120183,0,0,-0.8654761,0.08,0.18,-0.46,0
13053,16290019,1,70.95,2.13,121.43,-0.8344108,1.149526,-0.5080485,-0.1805972,0,0,-0.8658226999999999,0.08,0.18,-0.46,0
13094,16300046,1,71.52,2.06,122.99,-0.8431724,1.14404,-0.4820855,-0.1551063,0,0,-0.8661649,0.08,0.18,-0.46,0
13134,16310075,1,71.94,1.98,124.31,-0.8515605000000001,1.144268,-0.4569865,-0.1233328,0,0,-0.8708402,0.08,0.18,-0.46,0
13175,16320076,1,72.33,1.89,125.63,-0.8600950000000001,1.138259,-0.4290064,-0.09225617999999999,0,0,-0.8708841,0.08,0.18,-0.46,0
13215,16330028,1,72.66,1.8,126.82,-0.8687117,1.132972,-0.3981611,-0.06365854,0,0,-0.87122,0.08,0.18,-0.46,0
13255,16340924,1,73.03,1.67,128.28,-0.8814659,1.123671,-0.3683361,-0.0314837,0,0,-0.8702664,0.11,0.18,-0.46,0
13296,16350932,1,73.31999999999999,1.57,129.48,-0.8928006000000001,1.116231,-0.3386014,-0.000692375,0,0,-0.8692463,0.11,0.19,-0.43,0
13336,16361495,1,73.68000000000001,1.43,131.02,-0.9039628,1.113788,-0.3091811,0.03559452,0,0,-0.8728064,0.11,0.19,-0.43,0
13377,16371411,1,73.94,1.32,132.2,-0.9176189,1.101913,-0.2825731,0.06377190000000001,0,0,-0.8713973,0.11,0.19,-0.43,0
13418,16381993,1,74.23,1.19,133.56,-0.9313974,1.09852,-0.2557012,0.0834824,0,0,-0.874104,0.11,0.19,-0.43,0
13463,16392098,1,74.5,1.04,134.95,-0.9459090999999999,1.080156,-0.2179511,0.1132021,0,0,-0.872519,0.11,0.18,-0.43,0
13503,16402310,1,74.73,0.91,136.07,-0.9578119,1.060293,-0.1866287,0.138159,0,0,-0.8703412,0.11,0.18,-0.43,0
13544,16412301,1,75,0.77,137.3,-0.9723114,1.042677,-0.152069,0.162104,0,0,-0.868379,0.11,0.18,-0.43,0
13584,16422746,1,75.27,0.6,138.66,-0.9855663,1.022675,-0.1264057,0.1827896,0,0,-0.8661897,0.11,0.18,-0.43,0
13626,16436257,1,75.59,0.4,140.25,-1.001434,0.9908041,-0.08522272,0.2252167,0,0,-0.8625144,0.15,0.18,-0.43,0
13669,16446255,1,75.84999999999999,0.22,141.59,-1.015173,0.9745708,-0.05638929,0.2559017,0,0,-0.8632315,0.15,0.18,-0.43,0
13710,16456145,1,76.09999999999999,0.07000000000000001,142.77,-1.026887,0.9506184,-0.03127131,0.2848611,0,0,-0.8587282000000001,0.15,0.18,-0.4,0
13751,16466139,1,76.34999999999999,-0.08,143.97,-1.036046,0.9262667,-0.009573933999999999,0.2992969,0,0,-0.8541993,0.15,0.18,-0.4,0
13791,16476575,1,76.59,-0.23,145.15,-1.046146,0.9080197,0.007790327,0.3194599,0,0,-0.8542064,0.15,0.18,-0.4,0
13832,16486556,1,76.79000000000001,-0.37,146.23,-1.054511,0.8834948,0.02152884,0.334545,0,0,-0.8495576,0.15,0.18,-0.4,0
13877,16497007,1,77.02,-0.5600000000000001,147.53,-1.060819,0.8596223,0.03098559,0.3466012,0,0,-0.8450234,0.15,0.18,-0.4,0
13919,16507103,1,77.23,-0.76,148.85,-1.066298,0.831188,0.04104222,0.3583465,0,0,-0.84058,0.15,0.18,-0.4,0
13960,16517967,1,77.41,-0.93,150.05,-1.072493,0.8075262,0.05237952,0.3716964,0,0,-0.8362967,0.15,0.18,-0.4,0
14000,16528042,1,77.56,-1.09,151.15,-1.08079,0.7906746,0.0612424,0.3820782,0,0,-0.8357286,0.15,0.18,-0.4,0
14041,16538017,1,77.75,-1.28,152.45,-1.086094,0.7682933,0.07015038,0.3889996,0,0,-0.8314246,0.15,0.18,-0.4,0
14081,16548208,1,77.95,-1.44,153.76,-1.08697,0.7481207,0.07195026,0.3947744,0,0,-0.8258175,0.19,0.19,-0.41,0
14122,16558061,1,78.13,-1.58,154.96,-1.091877,0.7367098,0.07190488,0.3907308,0,0,-0.8251011,0.19,0.19,-0.41,0
14165,16568263,1,78.26000000000001,-1.68,155.93,-1.091985,0.7179245,0.07276339,0.3889142,0,0,-0.8196576,0.18,0.18,-0.37,0
14205,16578761,1,78.45,-1.82,157.34,-1.08902,0.6974925,0.07415679999999999,0.3894126,0,0,-0.8143498,0.18,0.18,-0.37,0
14246,16588979,1,78.59999999999999,-1.91,158.39,-1.088057,0.6792153,0.07275485,0.3864738,0,0,-0.8093796,0.18,0.18,-0.37,0
14290,16599067,1,78.79000000000001,-2.01,159.7,-1.091367,0.6711448,0.06953732999999999,0.3840815,0,0,-0.80867,0.18,0.18,-0.37,0
14331,16609437,1,78.95999999999999,-2.09,161.01,-1.090352,0.6521187000000001,0.07188628,0.3852413,0,0,-0.8038366,0.18,0.18,-0.37,0
14371,16619532,1,79.14,-2.16,162.19,-1.091387,0.6404435000000001,0.06625938000000001,0.3699596,0,0,-0.8031368,0.18,0.18,-0.37,0
14413,16629445,1,79.3,-2.2,163.26,-1.090663,0.6286241,0.05489811,0.347088,0,0,-0.7985854,0.18,0.18,-0.37,0
14450,16639371,1,79.45,-2.24,164.56,-1.091918,0.6098214,0.04421289,0.326962,0,0,-0.7943748,0.18,0.18,-0.37,0
14495,16652451,1,79.62,-2.26,166.09,-1.085187,0.5905729,0.04331281,0.3223651,0,0,-0.7888238,0.22,0.18,-0.37,0
14536,16662428,1,79.76000000000001,-2.27,167.27,-1.080716,0.5689191,0.03781895,0.3159678,0,0,-0.7836843,0.22,0.18,-0.34,0
14577,16673240,1,79.91,-2.26,168.59,-1.081341,0.5635656,0.02683364,0.3133475,0,0,-0.783361,0.22,0.18,-0.34,0
14619,16683127,1,80.02,-2.24,169.78,-1.07754,0.5465358,0.01971545,0.3116817,0,0,-0.7786047,0.22,0.18,-0.34,0
14660,16693236,1,80.13,-2.19,170.98,-1.074064,0.5279618,0.01098636,0.3053531,0,0,-0.7741761,0.22,0.18,-0.34,0
14704,16703116,1,80.22,-2.13,172.19,-1.07666,0.5094489,-0.005217805,0.2959539,0,0,-0.7701207,0.22,0.18,-0.34,0
14745,16713281,1,80.27,-2.03,173.4,-1.077293,0.4926131,-0.02420528,0.2801732,0,0,-0.7664497,0.22,0.18,-0.35,0
14785,16723961,1,80.28,-1.93,174.5,-1.076164,0.4775855,-0.0501043,0.2618975,0,0,-0.7668477,0.22,0.18,-0.35,0
14826,16736559,1,80.2,-1.74,176.22,-1.070045,0.4540075,-0.08236844,0.2305871,0,0,-0.7640951,0.22,0.18,-0.35,0
14863,16746929,1,80.09,-1.6,177.47,-1.060072,0.4279964,-0.1041589,0.209185,0,0,-0.7612512,0.25,0.18,-0.32,0
14906,16757095,1,79.95999999999999,-1.45,178.63,-1.047982,0.4004518,-0.1213138,0.1945113,0,0,-0.7588254,0.25,0.18,-0.32,0
14947,16767311,1,79.76000000000001,-1.25,180.13,-1.038815,0.3665353,-0.1355902,0.1793699,0,0,-0.7568906,0.25,0.18,-0.32,0
14989,16777310,1,79.56999999999999,-1.07,181.42,-1.031131,0.3327181,-0.1444871,0.1677228,0,0,-0.7551269,0.25,0.19,-0.32,0
15030,16787148,1,79.39,-0.86,182.72,-1.021485,0.3012491,-0.1508741,0.1550337,0,0,-0.7536271,0.25,0.19,-0.32,0
15074,16798089,1,79.22,-0.66,183.89,-1.016409,0.2780595,-0.1592377,0.1428493,0,0,-0.7551416,0.25,0.19,-0.32,0
15115,16808469,1,79,-0.38,185.42,-1.007052,0.2421308,-0.1687606,0.1254871,0,0,-0.7541125,0.25,0.19,-0.32,0
15157,16818555,1,78.81999999999999,-0.13,186.72,-0.9958102,0.2082886,-0.1759263,0.1113392,0,0,-0.7531651,0.25,0.19,-0.32,0
15200,16831947,1,78.59,0.19,188.42,-0.9790669,0.1637314,-0.1825492,0.0935786,0,0,-0.7530126,0.25,0.19,-0.32,0
15239,16842436,1,78.43000000000001,0.47,189.7,-0.9641528,0.1201637,-0.1856383,0.08276148,0,0,-0.7522167,0.29,0.19,-0.3,0
15283,16852429,1,78.29000000000001,0.78,191.11,-0.9487029,0.07974104,-0.1864243,0.07595918,0,0,-0.7513938999999999,0.29,0.19,-0.3,0
15324,16863311,1,78.17,1.11,192.52,-0.9315397,0.04074279,-0.1864994,0.06776707999999999,0,0,-0.7507568999999999,0.29,0.19,-0.3,0
15365,16873106,1,78.09,1.41,193.79,-0.9153462,0.007504965,-0.1821373,0.06509782,0,0,-0.750432,0.29,0.19,-0.3,0
15405,16883027,1,78.04000000000001,1.69,194.91,-0.9013058,-0.02142268,-0.1765765,0.06272561,0,0,-0.7500014,0.29,0.19,-0.3,0
15447,16893141,1,78,2.03,196.29,-0.8857744,-0.04927274,-0.1719116,0.05728735,0,0,-0.7496648,0.29,0.19,-0.3,0
15492,16903593,1,78.01000000000001,2.3,197.4,-0.8765722,-0.06588447,-0.1621702,0.05882503,0,0,-0.751335,0.29,0.19,-0.3,0
15533,16913625,1,78.06999999999999,2.64,198.74,-0.8622061,-0.09124227,-0.1490618,0.06171541,0,0,-0.7509172,0.29,0.19,-0.3,0
15573,16924045,1,78.17,2.94,199.94,-0.8496807,-0.1135856,-0.1349486,0.0621175,0,0,-0.7505973,0.29,0.19,-0.3,0
15614,16934489,1,78.31,3.26,201.24,-0.8370409,-0.1351839,-0.1255994,0.05841646,0,0,-0.7501394,0.29,0.19,-0.3,0
15655,16945110,1,78.48,3.57,202.52,-0.827157,-0.1509389,-0.1170278,0.05546626,0,0,-0.7514755,0.29,0.19,-0.3,0
15692,16955503,1,78.66,3.84,203.66,-0.8128161,-0.1737555,-0.110487,0.05308328,0,0,-0.7504079,0.32,0.19,-0.27,0
15735,16965456,1,78.83,4.07,204.69,-0.8005146,-0.1975428,-0.106868,0.05033201,0,0,-0.749423,0.32,0.19,-0.27,0
15777,16975900,1,79.04000000000001,4.32,205.88,-0.7865841,-0.221561,-0.1021737,0.04935635,0,0,-0.7485287,0.32,0.19,-0.27,0
15818,16986074,1,79.23,4.54,206.98,-0.7738391999999999,-0.249819,-0.09986209,0.04536835,0,0,-0.7477999,0.32,0.19,-0.27,0
15859,16996622,1,79.44,4.75,208.13,-0.7658778000000001,-0.2777399,-0.09898195,0.0413008,0,0,-0.7470975,0.32,0.19,-0.27,0
15903,17006636,1,79.62,4.93,209.12,-0.7599602,-0.3037321,-0.09955143,0.03568843,0,0,-0.7464628,0.32,0.19,-0.27,0
15944,17017226,1,79.81999999999999,5.12,210.2,-0.7532209,-0.333503,-0.1023061,0.02848708,0,0,-0.746067,0.32,0.19,-0.27,0
15984,17027944,1,79.98999999999999,5.28,211.13,-0.7537505,-0.355369,-0.1092736,0.01824332,0,0,-0.7471166,0.32,0.19,-0.27,0
16026,17038026,1,80.14,5.43,212.02,-0.7491128,-0.3862701,-0.1172818,0.005401319,0,0,-0.7468346,0.32,0.19,-0.27,0
16061,17048879,1,80.29000000000001,5.59,212.95,-0.7425257,-0.4207203,-0.1255825,-0.00469297,0,0,-0.7459391,0.34,0.19,-0.24,0
16106,17061496,1,80.47,5.76,213.99,-0.7348993,-0.4580917,-0.137021,-0.01667873,0,0,-0.745526,0.34,0.19,-0.24,0
16147,17071427,1,80.59,5.85,214.68,-0.7327424,-0.4827883,-0.1462907,-0.02991682,0,0,-0.7469422,0.34,0.19,-0.24,0
16187,17081454,1,80.73,5.95,215.46,-0.726035,-0.5146447,-0.1510443,-0.03929409,0,0,-0.7463624,0.34,0.19,-0.23,0
16228,17091458,1,80.87,6.01,216.07,-0.7252539,-0.5407761,-0.1581665,-0.05101996,0,0,-0.7478979,0.34,0.19,-0.23,0
16268,17101449,1,81.04000000000001,6.05,216.78,-0.715601,-0.5735976,-0.1689666,-0.0650893,0,0,-0.7475513,0.34,0.19,-0.23,0
16316,17112018,1,81.19,6.05,217.38,-0.7134421,-0.5971056,-0.1829727,-0.08420867999999999,0,0,-0.7493207,0.34,0.19,-0.23,0
16357,17121993,1,81.33,6.03,217.94,-0.7042788,-0.6309928,-0.1951929,-0.1012209,0,0,-0.7492663000000001,0.33,0.19,-0.23,0
16399,17131953,1,81.48,5.97,218.47,-0.696728,-0.6650074,-0.2091024,-0.120022,0,0,-0.7494534,0.33,0.19,-0.23,0
16440,17142100,1,81.65000000000001,5.86,219.01,-0.687364,-0.7007660999999999,-0.2305362,-0.1423697,0,0,-0.7501575,0.33,0.19,-0.23,0
16477,17152723,1,81.77,5.74,219.46,-0.6850014,-0.7264062,-0.2512808,-0.1611426,0,0,-0.7525663,0.33,0.19,-0.23,0
16521,17165379,1,81.91,5.53,219.95,-0.677026,-0.7677647,-0.2703835,-0.1790163,0,0,-0.7543425,0.33,0.19,-0.23,0
16561,17175178,1,82.04000000000001,5.31,220.34,-0.6694065,-0.8019137,-0.2820244,-0.1890343,0,0,-0.7556083,0.33,0.19,-0.23,0
16600,17185295,1,82.19,5.06,220.66,-0.6574322,-0.8342289000000001,-0.2933889,-0.2006058,0,0,-0.7575212,0.35,0.19,-0.18,0
16641,17195647,1,82.34,4.78,220.94,-0.6447431,-0.8655201,-0.3055379,-0.21497,0,0,-0.7596186,0.35,0.19,-0.18,0
16682,17206077,1,82.48,4.45,221.19,-0.6403364,-0.892689,-0.3185292,-0.2311069,0,0,-0.7628057,0.35,0.19,-0.18,0
16727,17216090,1,82.63,4.09,221.4,-0.6272457,-0.9226846,-0.3276646,-0.244379,0,0,-0.7651402,0.35,0.19,-0.18,0
16768,17225650,1,82.8,3.68,221.6,-0.6200708,-0.9426217,-0.3338848,-0.2567967,0,0,-0.7684464,0.35,0.19,-0.18,0
16809,17236119,1,83,3.18,221.8,-0.603151,-0.9687538999999999,-0.3411064,-0.2708343,0,0,-0.7713706,0.34,0.19,-0.18,0
16851,17246539,1,83.2,2.67,221.95,-0.591794,-0.9902281000000001,-0.3460837,-0.2816779,0,0,-0.7740574,0.35,0.19,-0.18,0
16891,17256585,1,83.44,2.11,222.09,-0.587359,-1.004977,-0.3508915,-0.2927112,0,0,-0.777545,0.35,0.19,-0.18,0
16932,17266928,1,83.69,1.52,222.22,-0.5768827,-1.024319,-0.3557022,-0.3033457,0,0,-0.7803839,0.34,0.18,-0.17,0
16969,17276562,1,83.93000000000001,0.9399999999999999,222.31,-0.5676225,-1.042478,-0.358347,-0.3122521,0,0,-0.7839432,0.35,0.19,-0.16,0
17010,17286540,1,84.23,0.24,222.42,-0.5612876999999999,-1.062212,-0.361723,-0.3230828,0,0,-0.7875667,0.35,0.18,-0.13,0
17051,17297380,1,84.56,-0.49,222.49,-0.5582259000000001,-1.085275,-0.3652565,-0.3354129,0,0,-0.7916293,0.35,0.19,-0.13,0
17093,17308284,1,84.86,-1.14,222.54,-0.5647224,-1.100807,-0.3651385,-0.343486,0,0,-0.7952683,0.35,0.19,-0.13,0
17138,17318219,1,85.17,-1.73,222.56,-0.5656089,-1.119502,-0.3623928,-0.3487202,0,0,-0.7989652,0.35,0.18,-0.13,0
17178,17328365,1,85.56,-2.43,222.56,-0.5675753,-1.138703,-0.3608271,-0.3557055,0,0,-0.8030496,0.36,0.19,-0.13,0
17219,17338367,1,85.90000000000001,-3,222.54,-0.5675313,-1.156258,-0.3595251,-0.361692,0,0,-0.80677,0.36,0.19,-0.13,0
17256,17348489,1,86.23999999999999,-3.53,222.52,-0.5675933,-1.171973,-0.3545184,-0.3635134,0,0,-0.8105456,0.36,0.19,-0.13,0
17297,17359211,1,86.55,-3.98,222.48,-0.5738963,-1.181901,-0.3512309,-0.3665151,0,0,-0.8140239,0.36,0.19,-0.13,0
17335,17369349,1,86.91,-4.51,222.43,-0.5711169,-1.195777,-0.3453556,-0.36875,0,0,-0.8191205,0.36,0.19,-0.09,0
17375,17379430,1,87.22,-4.92,222.37,-0.5649826999999999,-1.208532,-0.3377755,-0.3710724,0,0,-0.8237751,0.36,0.19,-0.09,0
17417,17389398,1,87.51000000000001,-5.3,222.33,-0.5586603,-1.2178,-0.3299285,-0.3736161,0,0,-0.8283224,0.36,0.19,-0.09,0
17457,17400026,1,87.76000000000001,-5.63,222.3,-0.5579223,-1.222952,-0.3213481,-0.3774514,0,0,-0.8315658,0.36,0.19,-0.09,0
17498,17410024,1,88.03,-5.99,222.28,-0.5504083,-1.225977,-0.3090057,-0.3764576,0,0,-0.8359195,0.36,0.19,-0.09,0
17544,17420353,1,88.3,-6.34,222.3,-0.5402612,-1.226529,-0.2949069,-0.3738104,0,0,-0.840408,0.36,0.19,-0.09,0
17585,17430603,1,88.52,-6.64,222.34,-0.5308642,-1.228408,-0.2877949,-0.3771066,0,0,-0.8444542,0.36,0.19,-0.09,0
17626,17440584,1,88.69,-6.91,222.38,-0.5262893,-1.22785,-0.2796248,-0.3765175,0,0,-0.8483832,0.36,0.19,-0.09,0
17668,17453302,1,88.86,-7.31,222.49,-0.517299,-1.228113,-0.2632945,-0.3710726,0,0,-0.8532509,0.36,0.19,-0.09,0
17706,17463627,1,88.97,-7.59,222.59,-0.5077271,-1.224225,-0.2483188,-0.3638341,0,0,-0.8571028000000001,0.37,0.19,-0.06,0
17746,17473891,1,89.06,-7.87,222.71,-0.4966504,-1.219221,-0.2329502,-0.3551458,0,0,-0.8607726,0.37,0.19,-0.06,0
17787,17484300,1,89.14,-8.17,222.88,-0.4889731,-1.219257,-0.2171816,-0.3461241,0,0,-0.8642727,0.37,0.19,-0.06,0
17828,17494514,1,89.18000000000001,-8.44,223.05,-0.4920166,-1.216037,-0.1980473,-0.3342527,0,0,-0.8665405,0.37,0.19,-0.06,0
17868,17504493,1,89.2,-8.699999999999999,223.22,-0.4857191,-1.213658,-0.1803915,-0.3205439,0,0,-0.8696494,0.37,0.19,-0.06,0
17916,17517428,1,89.2,-8.99,223.46,-0.478327,-1.210408,-0.1567782,-0.3013344,0,0,-0.8730194999999999,0.37,0.19,-0.06,0
17958,17527448,1,89.17,-9.24,223.72,-0.476564,-1.209408,-0.142137,-0.2890911,0,0,-0.8756699,0.37,0.19,-0.06,0
17999,17537950,1,89.09999999999999,-9.449999999999999,223.96,-0.4734045,-1.210602,-0.1282782,-0.275988,0,0,-0.8781667,0.37,0.19,-0.06,0
18047,17553605,1,88.95999999999999,-9.720000000000001,224.37,-0.46928,-1.210414,-0.09554703000000001,-0.2399579,0,0,-0.8804582,0.36,0.19,-0.06,0
18088,17563760,1,88.87,-9.84,224.64,-0.4655451,-1.209855,-0.07481419,-0.2141426,0,0,-0.8817933,0.36,0.19,-0.04,0
18129,17574311,1,88.79000000000001,-9.94,224.94,-0.4702896,-1.207255,-0.05442982,-0.1870152,0,0,-0.8824967,0.36,0.19,-0.04,0
18170,17584666,1,88.73,-9.99,225.22,-0.4648253,-1.204835,-0.03522535,-0.1605234,0,0,-0.8834341999999999,0.36,0.19,-0.04,0
18210,17594653,1,88.69,-10,225.53,-0.4609453,-1.200246,-0.01518927,-0.1323531,0,0,-0.8841615,0.36,0.19,-0.04,0
18251,17604677,1,88.66,-9.98,225.81,-0.4562782,-1.196652,-0.002692436,-0.1119414,0,0,-0.8847297,0.36,0.19,-0.04,0
18292,17615135,1,88.64,-9.91,226.21,-0.4606631,-1.193107,0.008226883000000001,-0.09324924,0,0,-0.8846979,0.36,0.19,-0.04,0
18337,17625141,1,88.62,-9.81,226.56,-0.4574465,-1.191028,0.02043598,-0.07406231000000001,0,0,-0.8850392,0.36,0.19,-0.04,0
18378,17635106,1,88.63,-9.67,226.91,-0.4529597,-1.186435,0.02933958,-0.05867541,0,0,-0.8852719999999999,0.36,0.19,-0.04,0
18419,17645901,1,88.65000000000001,-9.5,227.28,-0.4466243,-1.180459,0.03456656,-0.04693653,0,0,-0.8854333,0.36,0.19,-0.04,0
18460,17656378,1,88.67,-9.27,227.72,-0.4442043,-1.174447,0.03565735,-0.04008758,0,0,-0.8850789999999999,0.36,0.19,-0.04,0
18499,17666989,1,88.70999999999999,-9.039999999999999,228.14,-0.4372289,-1.164243,0.03256769,-0.03653797,0,0,-0.885182,0.36,0.19,-0.04,0
18539,17677164,1,88.75,-8.81,228.58,-0.4267953,-1.149784,0.02689904,-0.03639728,0,0,-0.8856154000000001,0.35,0.19,-0.04,0
18580,17687429,1,88.81999999999999,-8.56,229.09,-0.4167242,-1.13489,0.02149794,-0.03766298,0,0,-0.886107,0.35,0.19,-0.01,0
18622,17698374,1,88.90000000000001,-8.34,229.57,-0.4107808,-1.120674,0.01516587,-0.04184484,0,0,-0.8859091,0.35,0.19,-0.01,0
18662,17708877,1,89,-8.15,230.14,-0.3986667,-1.103197,0.006356452,-0.04812353,0,0,-0.886526,0.35,0.19,-0.01,0
18703,17718764,1,89.09999999999999,-8,230.63,-0.387309,-1.086074,-0.002479967,-0.05493771,0,0,-0.8872188,0.35,0.19,-0.01,0
18747,17728855,1,89.23999999999999,-7.86,231.27,-0.373903,-1.070638,-0.01066778,-0.06174061,0,0,-0.8879876,0.35,0.19,-0.01,0
18789,17739227,1,89.38,-7.77,231.87,-0.364027,-1.057037,-0.0204851,-0.07165468,0,0,-0.8881401,0.35,0.19,-0.01,0
18832,17749727,1,89.56999999999999,-7.7,232.56,-0.3465475,-1.044572,-0.03555707,-0.0861736,0,0,-0.8891423000000001,0.35,0.19,-0.01,0
18873,17759612,1,89.72,-7.69,233.14,-0.3292545,-1.036216,-0.05021911,-0.1006151,0,0,-0.8902646,0.35,0.19,-0.01,0
18908,17770353,1,89.95,-7.72,233.93,-0.310558,-1.025536,-0.06780319,-0.1159703,0,0,-0.8898791,0.34,0.19,-0.01,0
18948,17780452,1,90.15000000000001,-7.76,234.61,-0.2940084,-1.019822,-0.08993798,-0.1302064,0,0,-0.8896925,0.34,0.19,0,0
18989,17790425,1,90.34999999999999,-7.83,235.28,-0.2794044,-1.017233,-0.1125453,-0.1427192,0,0,-0.8898001,0.34,0.19,0,0
19029,17800722,1,90.52,-7.91,235.88,-0.2701791,-1.018993,-0.1369888,-0.1546078,0,0,-0.8910434,0.34,0.19,0,0
19071,17811293,1,90.73999999999999,-8.02,236.68,-0.259614,-1.018663,-0.1623007,-0.1661253,0,0,-0.8918594,0.34,0.19,0,0
19111,17821368,1,90.87,-8.09,237.21,-0.2537492,-1.019538,-0.18163,-0.174823,0,0,-0.8926134999999999,0.34,0.19,0,0
19156,17831103,1,91.05,-8.220000000000001,237.99,-0.2466161,-1.025178,-0.2068166,-0.1873287,0,0,-0.8940341000000001,0.34,0.19,0,0
19198,17841109,1,91.17,-8.31,238.57,-0.2402804,-1.031251,-0.2259024,-0.1965316,0,0,-0.8955108000000001,0.34,0.19,0,0
19241,17851675,1,91.28,-8.41,239.27,-0.2342605,-1.042554,-0.2407995,-0.2019348,0,0,-0.8972365,0.34,0.19,0,0
19286,17868247,1,91.41,-8.539999999999999,240.3,-0.2220846,-1.060331,-0.263351,-0.2104842,0,0,-0.9004057,0.33,0.19,0.02,0
19326,17878325,1,91.45,-8.6,240.82,-0.2120254,-1.066341,-0.2748152,-0.2147286,0,0,-0.9020566,0.33,0.19,0.02,0
19368,17888964,1,91.45,-8.67,241.44,-0.2044399,-1.077421,-0.2829931,-0.2149309,0,0,-0.9038615,0.33,0.19,0.02,0
19409,17899030,1,91.40000000000001,-8.73,242.01,-0.2015504,-1.094769,-0.2857448,-0.2089434,0,0,-0.9069877,0.33,0.19,0.02,0
19449,17909335,1,91.31,-8.779999999999999,242.6,-0.1931099,-1.105018,-0.2856286,-0.2030685,0,0,-0.908644,0.33,0.19,0.02,0
19491,17920065,1,91.19,-8.81,243.07,-0.1846216,-1.121013,-0.2865396,-0.1979663,0,0,-0.9109312000000001,0.33,0.19,0.02,0
19535,17929779,1,90.98999999999999,-8.82,243.64,-0.1788025,-1.138348,-0.2836455,-0.1910358,0,0,-0.913,0.33,0.19,0.02,0
19576,17939961,1,90.79000000000001,-8.81,244.09,-0.1714111,-1.15736,-0.2777478,-0.1828228,0,0,-0.9150588,0.33,0.19,0.02,0
19618,17949931,1,90.51000000000001,-8.76,244.61,-0.1676274,-1.175329,-0.2717249,-0.1754378,0,0,-0.9178137,0.33,0.19,0.02,0
19662,17962505,1,90.11,-8.67,245.22,-0.1580499,-1.192494,-0.2638634,-0.1678125,0,0,-0.9205917,0.33,0.19,0.02,0
19703,17972496,1,89.78,-8.58,245.62,-0.1487624,-1.203332,-0.2524721,-0.1543383,0,0,-0.9214413,0.32,0.19,0.01,0
19743,17982543,1,89.36,-8.48,246.09,-0.1400553,-1.207721,-0.2411827,-0.1390919,0,0,-0.9222661,0.32,0.19,0.05,0
19784,17993069,1,88.95999999999999,-8.369999999999999,246.52,-0.1371133,-1.216323,-0.2289546,-0.1238265,0,0,-0.9246219,0.32,0.19,0.05,0
19825,18003464,1,88.48999999999999,-8.26,246.98,-0.1277785,-1.222367,-0.2158169,-0.1070504,0,0,-0.9254823,0.32,0.19,0.05,0
19866,18013481,1,88.09999999999999,-8.17,247.35,-0.1200418,-1.225206,-0.2038949,-0.09183044,0,0,-0.9260551,0.32,0.19,0.05,0
19907,18023949,1,87.59999999999999,-8.07,247.81,-0.1128909,-1.223877,-0.1897807,-0.07614659,0,0,-0.9266027,0.32,0.19,0.05,0
19951,18034255,1,87.11,-7.98,248.27,-0.1103662,-1.226531,-0.1722759,-0.0549712,0,0,-0.9285955,0.32,0.19,0.05,0
19994,18044631,1,86.66,-7.92,248.7,-0.1037943,-1.22332,-0.1569569,-0.03766385,0,0,-0.9288863000000001,0.32,0.19,0.05,0
20034,18054578,1,86.26000000000001,-7.88,249.08,-0.09717033,-1.214597,-0.1397506,-0.01877181,0,0,-0.929085,0.32,0.19,0.05,0
20075,18064564,1,85.81,-7.86,249.55,-0.09068964,-1.20875,-0.1189996,0.002573502,0,0,-0.9291868,0.32,0.19,0.05,0
20115,18077841,1,85.31999999999999,-7.87,250.13,-0.08178011,-1.202374,-0.08830876999999999,0.0343711,0,0,-0.9282585,0.3,0.19,0.04,0
20155,18088110,1,85.01000000000001,-7.89,250.54,-0.06927757,-1.195214,-0.06958751000000001,0.05818866,0,0,-0.9268697,0.3,0.19,0.06,0
20197,18098166,1,84.68000000000001,-7.94,251.03,-0.06414541,-1.197419,-0.05583261,0.07872107,0,0,-0.927509,0.3,0.19,0.06,0
20238,18108466,1,84.37,-8,251.49,-0.04958427,-1.200007,-0.03573551,0.1052421,0,0,-0.9259496,0.3,0.19,0.06,0
20279,18119032,1,84.06999999999999,-8.08,251.97,-0.038304,-1.198196,-0.00730913,0.1389669,0,0,-0.9242026,0.3,0.19,0.06,0
20320,18129485,1,83.81999999999999,-8.16,252.46,-0.02100134,-1.202101,0.01385251,0.1664295,0,0,-0.9223008,0.3,0.19,0.06,0
20366,18140073,1,83.61,-8.24,252.88,-0.008749302,-1.210154,0.02318503,0.179283,0,0,-0.9203665,0.3,0.19,0.06,0
20407,18150575,1,83.37,-8.33,253.34,0.0001018099,-1.219105,0.04082965,0.2000862,0,0,-0.9200237,0.3,0.19,0.06,0
20447,18160434,1,83.2,-8.4,253.72,0.01628614,-1.222032,0.06212511,0.2207718,0,0,-0.9178075,0.3,0.19,0.06,0
20488,18170432,1,83.02,-8.470000000000001,254.15,0.03067593,-1.230968,0.07718377,0.2343822,0,0,-0.9154994,0.3,0.19,0.06,0
20532,18183307,1,82.84,-8.56,254.63,0.04531801,-1.243858,0.09177425,0.2496872,0,0,-0.9114174,0.28,0.19,0.08,0
20573,18193483,1,82.73,-8.6,254.94,0.05874744,-1.25099,0.1055535,0.2661465,0,0,-0.9076013000000001,0.28,0.19,0.08,0
20615,18204103,1,82.59999999999999,-8.630000000000001,255.33,0.06520216,-1.267533,0.1121031,0.2813159,0,0,-0.9064986,0.28,0.19,0.08,0
20655,18214464,1,82.5,-8.630000000000001,255.61,0.07732213,-1.27872,0.1143341,0.2907192,0,0,-0.9025481,0.28,0.19,0.08,0
20696,18224530,1,82.37,-8.609999999999999,255.92,0.08585387999999999,-1.288393,0.1162033,0.2997222,0,0,-0.8988208,0.28,0.19,0.08,0
20740,18234465,1,82.27,-8.56,256.15,0.09370252,-1.302505,0.1181864,0.3056292,0,0,-0.8976542,0.28,0.19,0.08,0
20785,18245075,1,82.16,-8.48,256.42,0.1037062,-1.311427,0.1199715,0.3102736,0,0,-0.8939831,0.28,0.19,0.08,0
20826,18256034,1,82.06999999999999,-8.369999999999999,256.64,0.1168267,-1.322613,0.1194597,0.3143213,0,0,-0.8903238999999999,0.28,0.19,0.08,0
20866,18265668,1,81.97,-8.220000000000001,256.86,0.1260949,-1.33191,0.1147846,0.3080548,0,0,-0.8868856000000001,0.28,0.19,0.08,0
20908,18276127,1,81.83,-8.039999999999999,257.07,0.1381778,-1.335474,0.1153157,0.3095085,0,0,-0.8834877,0.28,0.19,0.08,0
20948,18286917,1,81.69,-7.86,257.24,0.1479174,-1.338956,0.111598,0.3081919,0,0,-0.8823407,0.28,0.19,0.08,0
20986,18297580,1,81.56,-7.65,257.42,0.1521596,-1.340031,0.1001725,0.2969351,0,0,-0.8791808,0.27,0.19,0.09,0
21028,18307564,1,81.42,-7.46,257.57,0.1610709,-1.337438,0.09222731000000001,0.287686,0,0,-0.8763358,0.27,0.19,0.09,0
21068,18318137,1,81.27,-7.28,257.7,0.1637963,-1.33284,0.09505094,0.2861282,0,0,-0.8753791,0.27,0.19,0.09,0
21110,18328998,1,81.12,-7.1,257.88,0.1773687,-1.327308,0.09008887,0.2752173,0,0,-0.872544,0.26,0.19,0.09,0
21154,18338771,1,80.95999999999999,-6.94,258.04,0.1843761,-1.320535,0.07417791,0.2502926,0,0,-0.8699646,0.26,0.19,0.09,0
21195,18349590,1,80.77,-6.83,258.2,0.1886163,-1.310229,0.06040724,0.2304905,0,0,-0.8692433000000001,0.26,0.19,0.09,0
21235,18359718,1,80.55,-6.74,258.4,0.2020555,-1.295299,0.05681648,0.2209628,0,0,-0.8670149,0.26,0.19,0.09,0
21276,18369572,1,80.39,-6.7,258.55,0.2134213,-1.285253,0.05026864,0.2091254,0,0,-0.8649237,0.26,0.19,0.09,0
21318,18382703,1,80.15000000000001,-6.69,258.78,0.2305982,-1.275677,0.03930124,0.1914803,0,0,-0.862882,0.26,0.19,0.09,0
21359,18393140,1,79.95999999999999,-6.71,258.96,0.2439726,-1.264512,0.03523274,0.1855548,0,0,-0.8601776,0.25,0.19,0.07000000000000001,0
21400,18403205,1,79.83,-6.75,259.1,0.2507682,-1.263987,0.03000284,0.1778558,0,0,-0.8598465,0.25,0.19,0.07000000000000001,0
21440,18413448,1,79.67,-6.83,259.28,0.2625458,-1.25934,0.01560878,0.1594497,0,0,-0.8572945,0.24,0.19,0.1,0
21480,18423580,1,79.54000000000001,-6.9,259.4,0.2678821,-1.263271,0.003193895,0.1436093,0,0,-0.8571979,0.24,0.19,0.1,0
21520,18433422,1,79.43000000000001,-6.99,259.49,0.2754377,-1.260384,-0.008718345000000001,0.1306459,0,0,-0.8550238,0.24,0.19,0.1,0
21565,18444026,1,79.34,-7.07,259.57,0.2837781,-1.257523,-0.02630862,0.1144843,0,0,-0.853125,0.24,0.19,0.1,0
21609,18454076,1,79.23999999999999,-7.19,259.64,0.2911294,-1.253826,-0.04494274,0.09764563,0,0,-0.8515294,0.24,0.19,0.1,0
21649,18464132,1,79.15000000000001,-7.3,259.67,0.2979061,-1.25471,-0.06284446,0.07901865,0,0,-0.8502122,0.24,0.19,0.1,0
21690,18474470,1,79.06999999999999,-7.4,259.7,0.3048245,-1.259633,-0.08436034000000001,0.05935654,0,0,-0.8510191,0.24,0.19,0.1,0
21733,18487953,1,78.95,-7.53,259.69,0.3154494,-1.255672,-0.1066786,0.03653172,0,0,-0.8505054,0.24,0.19,0.1,0
21776,18498340,1,78.83,-7.65,259.67,0.3270303,-1.255154,-0.1197847,0.02526131,0,0,-0.8493857,0.22,0.19,0.08,0
21817,18509126,1,78.73,-7.74,259.62,0.3386439,-1.253252,-0.1295995,0.01949156,0,0,-0.8483495,0.23,0.19,0.11,0
21857,18519726,1,78.59,-7.86,259.54,0.3442395,-1.254416,-0.1411393,0.007494852,0,0,-0.8498451,0.23,0.19,0.11,0
21898,18529583,1,78.45,-7.95,259.47,0.3526969,-1.248634,-0.1470613,-0.0006277523,0,0,-0.8490802,0.22,0.19,0.11,0
21938,18539592,1,78.28,-8.08,259.38,0.3599027,-1.241501,-0.1498686,-0.003975087,0,0,-0.8485066,0.22,0.19,0.11,0
21984,18549721,1,78.14,-8.19,259.3,0.3634732,-1.238307,-0.1489412,-0.003121315,0,0,-0.8499894,0.22,0.19,0.11,0
22024,18560089,1,77.97,-8.35,259.21,0.370842,-1.226454,-0.1461788,-0.0008112694,0,0,-0.8494918,0.22,0.19,0.11,0
22065,18570593,1,77.81,-8.52,259.13,0.3798049,-1.215019,-0.1405661,0.004270274,0,0,-0.849195,0.22,0.19,0.11,0
22107,18580477,1,77.63,-8.720000000000001,259.04,0.3844155,-1.206853,-0.1266916,0.01788273,0,0,-0.8488019999999999,0.22,0.19,0.11,0
22144,18591068,1,77.5,-8.890000000000001,258.98,0.3902928,-1.194461,-0.1140341,0.03049543,0,0,-0.8483172,0.22,0.19,0.11,0
22187,18603885,1,77.31999999999999,-9.18,258.89,0.3937702,-1.173237,-0.1001506,0.04560944,0,0,-0.847338,0.21,0.19,0.11,0
22227,18613932,1,77.16,-9.44,258.83,0.3974658,-1.164959,-0.07961661,0.06680033,0,0,-0.8459917,0.21,0.19,0.11,0
22268,18624408,1,77.02,-9.73,258.78,0.396617,-1.16166,-0.06361849999999999,0.08699563,0,0,-0.8466855,0.21,0.19,0.11,0
22309,18634642,1,76.92,-9.99,258.75,0.3962274,-1.149695,-0.05197712,0.1010325,0,0,-0.8451735,0.21,0.19,0.11,0
22349,18644553,1,76.8,-10.22,258.72,0.4017428,-1.14826,-0.03485848,0.1219109,0,0,-0.8435985,0.21,0.19,0.11,0
22399,18658013,1,76.66,-10.57,258.66,0.397145,-1.150705,0.002772257,0.1621945,0,0,-0.8418919,0.21,0.19,0.11,0
22440,18668211,1,76.59,-10.78,258.62,0.397477,-1.143429,0.01132835,0.1710121,0,0,-0.8400078,0.21,0.19,0.11,0
22481,18679110,1,76.47,-11,258.57,0.3910907,-1.144156,0.01978537,0.1774818,0,0,-0.8398496,0.21,0.19,0.11,0
22522,18689921,1,76.34999999999999,-11.17,258.52,0.3934803,-1.150552,0.04367629,0.1957884,0,0,-0.8377591,0.2,0.19,0.11,0
22559,18700138,1,76.26000000000001,-11.36,258.45,0.3919114,-1.143315,0.06406381999999999,0.2099242,0,0,-0.8368361,0.19,0.19,0.11,0
22600,18710128,1,76.22,-11.48,258.39,0.3858874,-1.129894,0.07208096999999999,0.2099295,0,0,-0.8359448,0.19,0.19,0.11,0
22641,18720051,1,76.18000000000001,-11.57,258.34,0.3818664,-1.127966,0.08165738,0.2073229,0,0,-0.8348718000000001,0.19,0.19,0.11,0
22681,18730507,1,76.19,-11.63,258.29,0.3755158,-1.131338,0.09825087,0.2113988,0,0,-0.8339718,0.19,0.19,0.11,0
22724,18741207,1,76.25,-11.66,258.24,0.3651639,-1.119049,0.1042661,0.2043185,0,0,-0.8327359,0.19,0.19,0.11,0
22768,18751457,1,76.31999999999999,-11.65,258.19,0.3566594,-1.111051,0.0994915,0.1848846,0,0,-0.8314300999999999,0.19,0.19,0.11,0
