LineNo,TimeUS,C,Roll,Pitch,Yaw,VN,VE,VD,dPD,PN,PE,PD,GX,GY,GZ,OH
199,1.2923e+07,1,2.38,-1.21,7.91,0.029703,0.011537,0.015581,-0.31164,0,0,0.57363,-0.05,0.29,-0.22,0
995,1.3118e+07,1,2.39,-1.2,8.06,0.035644,0.012749,-0.0088052,-0.20122,0,0,0.53341,-0.05,0.26,-0.22,0
1107,1.3166e+07,1,2.4,-1.2,8.09,0.0355,0.017593,-0.07444,-0.21008,0,0,0.52483,-0.05,0.26,-0.21,0
1493,1.3333e+07,1,2.4,-1.18,8.18,0.038002,0.022819,-0.40179,-0.54081,0,0,0.45708,-0.05,0.25,-0.22,0
1569,1.3344e+07,1,2.4,-1.19,8.19,0.038111,0.023272,-0.40324,-0.55394,0,0,0.4493,-0.05,0.25,-0.22,0
1610,1.3355e+07,1,2.4,-1.18,8.21,0.038661,0.02357,-0.40405,-0.56638,0,0,0.44171,-0.05,0.25,-0.22,0
1650,1.3365e+07,1,2.4,-1.18,8.22,0.037251,0.024579,-0.40626,-0.57874,0,0,0.43465,-0.05,0.25,-0.22,0
1694,1.3375e+07,1,2.4,-1.18,8.23,0.036481,0.023748,-0.40741,-0.59428,0,0,0.43017,-0.05,0.25,-0.22,0
1735,1.3386e+07,1,2.39,-1.18,8.23,0.036525,0.023947,-0.40887,-0.60836,0,0,0.42164,-0.04,0.25,-0.22,0
1775,1.3396e+07,1,2.39,-1.18,8.24,0.036884,0.024776,-0.41134,-0.61641,0,0,0.4132,-0.04,0.24,-0.24,0
1818,1.3407e+07,1,2.39,-1.18,8.25,0.036305,0.025866,-0.41189,-0.63347,0,0,0.40865,-0.04,0.24,-0.24,0
1862,1.3417e+07,1,2.39,-1.18,8.27,0.03478,0.026705,-0.41515,-0.64553,0,0,0.40031,-0.04,0.24,-0.24,0
1903,1.3428e+07,1,2.4,-1.18,8.28,0.033395,0.027155,-0.4171,-0.65199,0,0,0.39185,-0.04,0.24,-0.24,0
1943,1.3438e+07,1,2.4,-1.18,8.3,0.033429,0.027981,-0.41903,-0.66389,0,0,0.38352,-0.04,0.24,-0.24,0
1984,1.3449e+07,1,2.4,-1.18,8.31,0.033082,0.027602,-0.41922,-0.67717,0,0,0.37933,-0.04,0.24,-0.24,0
2023,1.3459e+07,1,2.4,-1.18,8.33,0.034171,0.026755,-0.42091,-0.6877,0,0,0.37157,-0.05,0.25,-0.24,0
2064,1.3469e+07,1,2.4,-1.18,8.35,0.034895,0.026933,-0.4228,-0.69466,0,0,0.36558,-0.04,0.25,-0.24,0
2105,1.348e+07,1,2.41,-1.18,8.36,0.035364,0.027569,-0.42435,-0.69022,0,0,0.36136,-0.04,0.25,-0.24,0
2145,1.349e+07,1,2.41,-1.17,8.38,0.035129,0.027744,-0.42646,-0.68148,0,0,0.35575,-0.04,0.24,-0.25,0
2187,1.35e+07,1,2.41,-1.17,8.4,0.036406,0.026983,-0.42869,-0.6688,0,0,0.34987,-0.04,0.24,-0.25,0
2228,1.3511e+07,1,2.41,-1.17,8.41,0.036703,0.028378,-0.42987,-0.65423,0,0,0.34442,-0.04,0.24,-0.25,0
2273,1.3521e+07,1,2.4,-1.17,8.43,0.036463,0.029533,-0.42807,-0.63752,0,0,0.33903,-0.04,0.25,-0.26,0
2314,1.3531e+07,1,2.4,-1.16,8.44,0.036165,0.028566,-0.42762,-0.62114,0,0,0.33378,-0.05,0.25,-0.26,0
2354,1.3541e+07,1,2.4,-1.16,8.45,0.03766,0.026712,-0.42886,-0.60589,0,0,0.32908,-0.05,0.25,-0.26,0
2394,1.3551e+07,1,2.4,-1.16,8.47,0.037259,0.027533,-0.42868,-0.59031,0,0,0.32384,-0.05,0.25,-0.26,0
2438,1.3564e+07,1,2.4,-1.16,8.49,0.037045,0.028162,-0.4291,-0.56907,0,0,0.31736,-0.04,0.24,-0.26,0
2482,1.3577e+07,1,2.4,-1.16,8.51,0.036812,0.026885,-0.42847,-0.55017,0,0,0.31148,-0.04,0.24,-0.27,0
2523,1.3587e+07,1,2.41,-1.16,8.52,0.03703,0.026861,-0.42914,-0.53661,0,0,0.30648,-0.04,0.24,-0.27,0
2563,1.3598e+07,1,2.4,-1.17,8.54,0.036204,0.027115,-0.42824,-0.52184,0,0,0.30106,-0.04,0.25,-0.27,0
2606,1.3608e+07,1,2.41,-1.17,8.55,0.036375,0.027161,-0.42863,-0.51149,0,0,0.29684,-0.04,0.25,-0.27,0
2651,1.3619e+07,1,2.41,-1.16,8.56,0.035971,0.026878,-0.42992,-0.50106,0,0,0.29152,-0.04,0.25,-0.27,0
2692,1.3629e+07,1,2.41,-1.16,8.58,0.036639,0.026969,-0.43065,-0.49098,0,0,0.28622,-0.04,0.25,-0.27,0
2732,1.3639e+07,1,2.41,-1.17,8.59,0.03694,0.02678,-0.43163,-0.48313,0,0,0.28141,-0.04,0.25,-0.27,0
2773,1.365e+07,1,2.42,-1.16,8.61,0.035937,0.026778,-0.43208,-0.47524,0,0,0.2766,-0.04,0.25,-0.27,0
2816,1.3666e+07,1,2.42,-1.16,8.63,0.035393,0.027086,-0.4329,-0.46541,0,0,0.26887,-0.04,0.24,-0.29,0
2856,1.3676e+07,1,2.42,-1.16,8.64,0.035378,0.026162,-0.43239,-0.46016,0,0,0.26338,-0.04,0.25,-0.29,0
2898,1.3686e+07,1,2.42,-1.16,8.66,0.035044,0.025675,-0.43192,-0.45609,0,0,0.25834,-0.04,0.25,-0.29,0
2938,1.3697e+07,1,2.42,-1.16,8.67,0.035399,0.026575,-0.43125,-0.4536,0,0,0.25398,-0.04,0.25,-0.29,0
2979,1.3707e+07,1,2.42,-1.16,8.69,0.035791,0.025249,-0.43031,-0.4509,0,0,0.24907,-0.04,0.25,-0.29,0
3021,1.3717e+07,1,2.42,-1.16,8.7,0.035628,0.024609,-0.42913,-0.44803,0,0,0.24375,-0.04,0.25,-0.29,0
3066,1.3728e+07,1,2.42,-1.15,8.71,0.03592,0.025294,-0.42888,-0.44573,0,0,0.23886,-0.04,0.25,-0.29,0
3107,1.3738e+07,1,2.42,-1.15,8.73,0.03498,0.025639,-0.43043,-0.44628,0,0,0.23419,-0.04,0.25,-0.29,0
3147,1.3748e+07,1,2.42,-1.15,8.75,0.034017,0.025431,-0.43038,-0.44418,0,0,0.22933,-0.04,0.25,-0.29,0
3188,1.3758e+07,1,2.42,-1.15,8.76,0.034086,0.025918,-0.4311,-0.44317,0,0,0.22455,-0.04,0.25,-0.29,0
3228,1.3772e+07,1,2.42,-1.16,8.78,0.034021,0.025553,-0.4307,-0.44129,0,0,0.21934,-0.04,0.24,-0.31,0
3271,1.3782e+07,1,2.42,-1.15,8.79,0.034105,0.025026,-0.43018,-0.43712,0,0,0.21544,-0.04,0.25,-0.32,0
3312,1.3792e+07,1,2.42,-1.15,8.8,0.033046,0.0259,-0.42924,-0.42981,0,0,0.21071,-0.04,0.25,-0.32,0
3352,1.3802e+07,1,2.43,-1.15,8.82,0.033461,0.025161,-0.43029,-0.42512,0,0,0.20722,-0.04,0.25,-0.32,0
3394,1.3812e+07,1,2.42,-1.16,8.84,0.033368,0.025009,-0.4318,-0.41946,0,0,0.20289,-0.04,0.25,-0.32,0
3435,1.3822e+07,1,2.43,-1.16,8.85,0.033932,0.024814,-0.43289,-0.41401,0,0,0.19898,-0.04,0.25,-0.32,0
3480,1.3832e+07,1,2.42,-1.16,8.87,0.034082,0.024798,-0.43317,-0.40823,0,0,0.19507,-0.04,0.25,-0.32,0
3522,1.3842e+07,1,2.42,-1.16,8.89,0.035136,0.02562,-0.4328,-0.40227,0,0,0.19153,-0.04,0.25,-0.32,0
3564,1.3853e+07,1,2.42,-1.16,8.9,0.035171,0.025065,-0.43231,-0.39503,0,0,0.18682,-0.04,0.25,-0.32,0
3605,1.3863e+07,1,2.42,-1.16,8.92,0.034985,0.025241,-0.43103,-0.38874,0,0,0.1829,-0.04,0.25,-0.32,0
3645,1.3875e+07,1,2.42,-1.15,8.93,0.035031,0.023913,-0.43042,-0.37973,0,0,0.17864,-0.04,0.25,-0.33,0
3685,1.3885e+07,1,2.42,-1.15,8.95,0.034545,0.024406,-0.42984,-0.37122,0,0,0.17566,-0.04,0.25,-0.33,0
3726,1.3895e+07,1,2.43,-1.15,8.97,0.034899,0.025194,-0.42877,-0.36145,0,0,0.1726,-0.04,0.25,-0.33,0
3766,1.3905e+07,1,2.43,-1.15,8.98,0.034755,0.025103,-0.42974,-0.35368,0,0,0.16825,-0.04,0.25,-0.33,0
3807,1.3915e+07,1,2.43,-1.15,8.99,0.034725,0.023974,-0.4282,-0.34567,0,0,0.16524,-0.04,0.25,-0.33,0
3853,1.3925e+07,1,2.43,-1.15,9,0.034341,0.024759,-0.42862,-0.33951,0,0,0.16213,-0.04,0.25,-0.33,0
3894,1.3936e+07,1,2.43,-1.15,9.01,0.03403,0.026592,-0.4292,-0.33252,0,0,0.15855,-0.04,0.25,-0.33,0
3934,1.3947e+07,1,2.43,-1.15,9.02,0.032711,0.026843,-0.42582,-0.32297,0,0,0.15541,-0.04,0.25,-0.33,0
3975,1.3957e+07,1,2.43,-1.15,9.04,0.032066,0.027013,-0.42504,-0.31664,0,0,0.15176,-0.04,0.25,-0.33,0
4017,1.3968e+07,1,2.43,-1.15,9.05,0.032664,0.027997,-0.42474,-0.31129,0,0,0.14752,-0.04,0.25,-0.33,0
4051,1.3979e+07,1,2.44,-1.15,9.07,0.033229,0.028699,-0.42428,-0.30608,0,0,0.14436,-0.04,0.25,-0.35,0
4092,1.3989e+07,1,2.44,-1.15,9.09,0.031853,0.028929,-0.42551,-0.30219,0,0,0.14157,-0.04,0.25,-0.35,0
4133,1.3999e+07,1,2.44,-1.14,9.1,0.032954,0.028552,-0.42398,-0.29608,0,0,0.1387,-0.04,0.25,-0.35,0
4173,1.4009e+07,1,2.44,-1.14,9.11,0.033203,0.028684,-0.42259,-0.29205,0,0,0.13448,-0.04,0.25,-0.35,0
4214,1.4019e+07,1,2.44,-1.14,9.13,0.032129,0.028717,-0.42254,-0.29032,0,0,0.13118,-0.04,0.25,-0.35,0
4261,1.403e+07,1,2.44,-1.15,9.14,0.032153,0.027307,-0.42131,-0.28813,0,0,0.12827,-0.04,0.25,-0.35,0
4301,1.404e+07,1,2.44,-1.14,9.15,0.032646,0.029318,-0.41952,-0.28626,0,0,0.12534,-0.04,0.25,-0.35,0
4342,1.405e+07,1,2.44,-1.14,9.17,0.032931,0.028895,-0.4205,-0.28734,0,0,0.12237,-0.04,0.25,-0.35,0
4385,1.406e+07,1,2.44,-1.14,9.18,0.033446,0.029459,-0.4206,-0.28625,0,0,0.1181,-0.04,0.25,-0.35,0
4426,1.407e+07,1,2.44,-1.14,9.19,0.032304,0.030365,-0.41962,-0.28565,0,0,0.11462,-0.04,0.25,-0.35,0
4463,1.4081e+07,1,2.45,-1.14,9.2,0.031821,0.029003,-0.41952,-0.28537,0,0,0.11241,-0.04,0.25,-0.35,0
4505,1.4091e+07,1,2.45,-1.14,9.21,0.032705,0.030355,-0.42066,-0.28555,0,0,0.11009,-0.04,0.25,-0.36,0
4545,1.4101e+07,1,2.44,-1.14,9.22,0.032984,0.030352,-0.42031,-0.28237,0,0,0.10586,-0.04,0.25,-0.36,0
4587,1.4111e+07,1,2.45,-1.14,9.23,0.033209,0.030151,-0.41924,-0.2794,0,0,0.10348,-0.04,0.25,-0.36,0
4628,1.4121e+07,1,2.45,-1.13,9.25,0.032324,0.031225,-0.41811,-0.27797,0,0,0.101,-0.04,0.25,-0.36,0
4672,1.4131e+07,1,2.44,-1.13,9.26,0.031975,0.030163,-0.41861,-0.27605,0,0,0.098489,-0.04,0.25,-0.36,0
4713,1.4141e+07,1,2.44,-1.13,9.27,0.032469,0.031075,-0.41744,-0.2728,0,0,0.095905,-0.04,0.25,-0.36,0
4754,1.4151e+07,1,2.44,-1.13,9.28,0.032513,0.031165,-0.41833,-0.26994,0,0,0.091303,-0.04,0.25,-0.36,0
4795,1.4161e+07,1,2.44,-1.13,9.3,0.03273,0.031198,-0.41869,-0.26862,0,0,0.088671,-0.04,0.25,-0.36,0
4835,1.4174e+07,1,2.44,-1.13,9.3,0.031426,0.030662,-0.41734,-0.26685,0,0,0.085152,-0.04,0.25,-0.36,0
4873,1.4184e+07,1,2.44,-1.12,9.31,0.030102,0.030571,-0.41748,-0.26751,0,0,0.08347,-0.04,0.25,-0.37,0
4914,1.4194e+07,1,2.44,-1.12,9.32,0.028899,0.030316,-0.41739,-0.26535,0,0,0.082056,-0.04,0.25,-0.37,0
4954,1.4205e+07,1,2.44,-1.12,9.33,0.027946,0.030116,-0.41719,-0.25653,0,0,0.077884,-0.04,0.25,-0.37,0
4995,1.4215e+07,1,2.44,-1.12,9.34,0.02837,0.029503,-0.4154,-0.24731,0,0,0.076394,-0.04,0.25,-0.37,0
5035,1.4225e+07,1,2.44,-1.11,9.35,0.026648,0.028877,-0.41265,-0.23669,0,0,0.074844,-0.04,0.25,-0.37,0
5081,1.4235e+07,1,2.44,-1.11,9.36,0.025875,0.028971,-0.41196,-0.22972,0,0,0.073191,-0.04,0.25,-0.37,0
5122,1.4245e+07,1,2.44,-1.11,9.37,0.027383,0.029425,-0.41372,-0.22436,0,0,0.068668,-0.04,0.25,-0.37,0
5163,1.4256e+07,1,2.44,-1.12,9.38,0.027055,0.028844,-0.41403,-0.22285,0,0,0.066903,-0.04,0.25,-0.37,0
5205,1.4266e+07,1,2.44,-1.12,9.39,0.025907,0.028983,-0.41259,-0.2204,0,0,0.065074,-0.04,0.25,-0.37,0
5245,1.4276e+07,1,2.44,-1.12,9.39,0.025108,0.029078,-0.41125,-0.21814,0,0,0.062754,-0.04,0.25,-0.37,0
5287,1.4287e+07,1,2.44,-1.12,9.4,0.025761,0.030502,-0.41081,-0.21455,0,0,0.058661,-0.04,0.25,-0.37,0
5327,1.4297e+07,1,2.44,-1.12,9.41,0.026347,0.030652,-0.41005,-0.21602,0,0,0.05768,-0.04,0.24,-0.37,0
5368,1.4307e+07,1,2.44,-1.12,9.42,0.025955,0.030432,-0.41056,-0.2156,0,0,0.056998,-0.04,0.24,-0.38,0
5408,1.4318e+07,1,2.44,-1.12,9.44,0.024876,0.029275,-0.40898,-0.20612,0,0,0.055725,-0.04,0.24,-0.38,0
5449,1.4329e+07,1,2.44,-1.12,9.45,0.024493,0.030017,-0.40969,-0.19511,0,0,0.051607,-0.04,0.24,-0.38,0
5494,1.4339e+07,1,2.44,-1.12,9.46,0.024144,0.029872,-0.40865,-0.18533,0,0,0.05067,-0.04,0.24,-0.38,0
5534,1.4349e+07,1,2.45,-1.12,9.47,0.022496,0.030986,-0.40779,-0.17404,0,0,0.049603,-0.04,0.24,-0.38,0
5575,1.4359e+07,1,2.45,-1.12,9.48,0.020835,0.031543,-0.4052,-0.16297,0,0,0.048013,-0.04,0.25,-0.38,0
5620,1.4373e+07,1,2.45,-1.12,9.49,0.02032,0.032137,-0.40433,-0.16145,0,0,0.045552,-0.04,0.24,-0.38,0
5664,1.4388e+07,1,2.45,-1.12,9.5,0.020934,0.033303,-0.40184,-0.15505,0,0,0.04351,-0.04,0.24,-0.39,0
5704,1.4398e+07,1,2.45,-1.12,9.51,0.020705,0.031801,-0.39955,-0.14952,0,0,0.043769,-0.04,0.24,-0.39,0
5745,1.4409e+07,1,2.45,-1.12,9.51,0.020935,0.032472,-0.39839,-0.13596,0,0,0.039778,-0.04,0.24,-0.39,0
5788,1.442e+07,1,2.45,-1.12,9.52,0.020597,0.033643,-0.39778,-0.12578,0,0,0.039505,-0.04,0.24,-0.39,0
5828,1.443e+07,1,2.45,-1.11,9.53,0.019905,0.033512,-0.3963,-0.12005,0,0,0.039469,-0.04,0.24,-0.39,0
5873,1.444e+07,1,2.45,-1.11,9.53,0.020178,0.0329,-0.39671,-0.11351,0,0,0.035526,-0.04,0.24,-0.39,0
5916,1.445e+07,1,2.44,-1.11,9.54,0.020135,0.032781,-0.39463,-0.10678,0,0,0.035354,-0.04,0.24,-0.39,0
5957,1.446e+07,1,2.44,-1.11,9.55,0.020764,0.032588,-0.3927,-0.097072,0,0,0.035031,-0.04,0.24,-0.39,0
5998,1.447e+07,1,2.44,-1.11,9.57,0.020302,0.031377,-0.39128,-0.097919,0,0,0.03421,-0.04,0.24,-0.39,0
6038,1.4481e+07,1,2.44,-1.11,9.57,0.02065,0.032279,-0.3907,-0.094489,0,0,0.030295,-0.04,0.24,-0.39,0
6077,1.4491e+07,1,2.44,-1.11,9.59,0.020105,0.032289,-0.39063,-0.094402,0,0,0.029757,-0.04,0.24,-0.39,0
6118,1.4501e+07,1,2.44,-1.11,9.6,0.019506,0.032483,-0.38954,-0.08656,0,0,0.030091,-0.04,0.24,-0.4,0
6158,1.4511e+07,1,2.44,-1.11,9.61,0.01989,0.032179,-0.38688,-0.077308,0,0,0.030635,-0.04,0.24,-0.4,0
6199,1.4521e+07,1,2.44,-1.11,9.62,0.01951,0.032248,-0.38392,-0.069049,0,0,0.031431,-0.04,0.24,-0.41,0
6239,1.4531e+07,1,2.44,-1.11,9.64,0.019254,0.032792,-0.38278,-0.061109,0,0,0.031264,-0.04,0.24,-0.41,0
6284,1.4542e+07,1,2.44,-1.11,9.65,0.019665,0.034259,-0.38323,-0.051882,0,0,0.027433,-0.04,0.24,-0.41,0
6324,1.4552e+07,1,2.44,-1.11,9.66,0.018104,0.033936,-0.38007,-0.043736,0,0,0.027542,-0.04,0.24,-0.41,0
6366,1.4562e+07,1,2.45,-1.12,9.67,0.017889,0.032249,-0.37859,-0.034199,0,0,0.027497,-0.04,0.24,-0.41,0
6407,1.4572e+07,1,2.45,-1.11,9.68,0.017751,0.032363,-0.37501,-0.027233,0,0,0.027311,-0.04,0.24,-0.41,0
6448,1.4584e+07,1,2.45,-1.11,9.7,0.017377,0.033677,-0.37348,-0.026331,0,0,0.027683,-0.04,0.24,-0.41,0
6486,1.4595e+07,1,2.45,-1.11,9.71,0.016965,0.034053,-0.37169,-0.017544,0,0,0.028961,-0.04,0.24,-0.41,0
6526,1.4605e+07,1,2.45,-1.11,9.72,0.015298,0.033188,-0.37077,-0.011409,0,0,0.030043,-0.04,0.24,-0.41,0
6567,1.4615e+07,1,2.45,-1.11,9.73,0.016081,0.032686,-0.37169,-0.00049707,0,0,0.026346,-0.04,0.24,-0.41,0
6608,1.4625e+07,1,2.45,-1.1,9.74,0.015591,0.034304,-0.37001,0.0078495,0,0,0.02723,-0.04,0.24,-0.41,0
6649,1.4635e+07,1,2.45,-1.11,9.75,0.015826,0.035089,-0.36807,0.0092804,0,0,0.02798,-0.04,0.24,-0.41,0
6694,1.4646e+07,1,2.45,-1.11,9.76,0.015684,0.035997,-0.36811,0.010188,0,0,0.023919,-0.04,0.24,-0.41,0
6736,1.4656e+07,1,2.45,-1.11,9.77,0.015558,0.036155,-0.3643,0.010751,0,0,0.024545,-0.04,0.24,-0.41,0
6777,1.4666e+07,1,2.45,-1.11,9.78,0.015997,0.035295,-0.36075,0.0097319,0,0,0.024993,-0.04,0.24,-0.41,0
6820,1.4676e+07,1,2.46,-1.11,9.78,0.015442,0.036095,-0.36109,0.0049623,0,0,0.025301,-0.04,0.24,-0.41,0
6860,1.4689e+07,1,2.45,-1.11,9.79,0.015645,0.034615,-0.35841,0.0054615,0,0,0.025141,-0.04,0.24,-0.41,0
6901,1.4699e+07,1,2.45,-1.11,9.8,0.013897,0.035196,-0.35883,0.0029274,0,0,0.021538,-0.04,0.24,-0.41,0
6941,1.4709e+07,1,2.45,-1.1,9.81,0.014867,0.035523,-0.35765,5.8168e-05,0,0,0.022237,-0.04,0.24,-0.41,0
6982,1.4719e+07,1,2.45,-1.1,9.82,0.014042,0.03471,-0.3556,-0.0020406,0,0,0.022521,-0.04,0.24,-0.41,0
7022,1.473e+07,1,2.45,-1.1,9.82,0.014647,0.033923,-0.35419,-0.0057951,0,0,0.02302,-0.04,0.24,-0.41,0
7064,1.474e+07,1,2.45,-1.1,9.83,0.014115,0.033919,-0.35258,-0.0087721,0,0,0.023296,-0.04,0.24,-0.41,0
7108,1.475e+07,1,2.45,-1.11,9.84,0.01334,0.0344,-0.35306,-0.011032,0,0,0.023075,-0.04,0.24,-0.41,0
7149,1.4761e+07,1,2.45,-1.11,9.84,0.012524,0.035546,-0.35284,-0.0098175,0,0,0.019549,-0.04,0.24,-0.41,0
7192,1.4771e+07,1,2.45,-1.11,9.85,0.012587,0.035405,-0.3524,-0.013473,0,0,0.019192,-0.04,0.24,-0.41,0
7233,1.4782e+07,1,2.45,-1.11,9.86,0.013015,0.035262,-0.3489,-0.023451,0,0,0.019073,-0.04,0.24,-0.41,0
7271,1.4795e+07,1,2.45,-1.12,9.87,0.01278,0.036371,-0.34548,-0.028821,0,0,0.018791,-0.03,0.24,-0.42,0
7312,1.4806e+07,1,2.45,-1.12,9.88,0.011885,0.036044,-0.34555,-0.030714,0,0,0.019715,-0.04,0.24,-0.42,0
7353,1.4816e+07,1,2.45,-1.12,9.89,0.012736,0.03607,-0.34575,-0.029758,0,0,0.015907,-0.04,0.24,-0.42,0
7394,1.4826e+07,1,2.45,-1.11,9.9,0.012635,0.036368,-0.34442,-0.033305,0,0,0.016692,-0.03,0.24,-0.42,0
7434,1.4836e+07,1,2.45,-1.12,9.91,0.013246,0.037575,-0.34255,-0.034033,0,0,0.017302,-0.03,0.24,-0.42,0
7476,1.4846e+07,1,2.47,-1.12,9.92,0.01651,0.037435,-0.33706,-0.03219,0,0,0.017774,-0.03,0.24,-0.42,0
7521,1.4857e+07,1,2.51,-1.11,9.91,0.023321,0.03243,-0.33206,-0.024866,0,0,0.014429,-0.03,0.24,-0.42,0
7564,1.4867e+07,1,2.54,-1.1,9.89,0.023942,0.02796,-0.33129,-0.02512,0,0,0.014826,-0.03,0.24,-0.42,0
7604,1.4877e+07,1,2.56,-1.1,9.88,0.020935,0.030931,-0.3308,-0.026028,0,0,0.015076,-0.03,0.24,-0.42,0
7646,1.4887e+07,1,2.61,-1.11,9.87,0.024296,0.034842,-0.33381,-0.029258,0,0,0.014797,-0.04,0.24,-0.42,0
7684,1.4897e+07,1,2.64,-1.11,9.86,0.0258,0.032007,-0.33482,-0.031118,0,0,0.015754,-0.03,0.24,-0.42,0
7728,1.491e+07,1,2.64,-1.14,9.87,0.02285,0.031473,-0.33325,-0.027767,0,0,0.015545,-0.03,0.24,-0.43,0
7769,1.492e+07,1,2.63,-1.16,9.88,0.022685,0.034763,-0.33171,-0.027692,0,0,0.016171,-0.03,0.24,-0.43,0
7809,1.4931e+07,1,2.62,-1.17,9.89,0.016778,0.036584,-0.32931,-0.020987,0,0,0.012879,-0.03,0.24,-0.43,0
7850,1.4941e+07,1,2.59,-1.18,9.92,0.010048,0.037101,-0.32557,-0.016612,0,0,0.013391,-0.03,0.24,-0.43,0
7899,1.4954e+07,1,2.54,-1.18,9.96,0.0084901,0.042768,-0.32058,-0.0089526,0,0,0.012817,-0.03,0.24,-0.43,0
7939,1.4964e+07,1,2.52,-1.17,9.98,0.0053653,0.044187,-0.31608,-0.0044919,0,0,0.01311,-0.03,0.24,-0.43,0
7980,1.4974e+07,1,2.49,-1.16,10,0.00096929,0.042474,-0.3176,-0.011989,0,0,0.013274,-0.03,0.24,-0.43,0
8020,1.4984e+07,1,2.46,-1.15,10.01,0.0008035,0.039368,-0.32358,-0.025062,0,0,0.012945,-0.03,0.24,-0.43,0
8062,1.4995e+07,1,2.45,-1.13,10.01,-0.0032709,0.036019,-0.32704,-0.031872,0,0,0.0096614,-0.03,0.24,-0.43,0
8101,1.5005e+07,1,2.46,-1.12,10.02,-0.008976,0.028211,-0.32544,-0.027336,0,0,0.012309,-0.03,0.24,-0.44,0
8141,1.5015e+07,1,2.47,-1.1,10.02,-0.0063934,0.01728,-0.32166,-0.01109,0,0,0.015132,-0.03,0.24,-0.44,0
8182,1.5026e+07,1,2.49,-1.08,10.02,-0.0049409,0.0065805,-0.3201,0.0058534,0,0,0.017639,-0.03,0.24,-0.45,0
8222,1.5036e+07,1,2.48,-1.07,10.02,-0.0087507,-0.0029529,-0.32308,0.016256,0,0,0.019907,-0.03,0.24,-0.45,0
8264,1.5046e+07,1,2.44,-1.04,10.04,-0.0093973,-0.006575,-0.33214,0.021255,0,0,0.021535,-0.03,0.24,-0.45,0
8311,1.5057e+07,1,2.35,-1.01,10.07,-0.012114,-0.0047988,-0.33725,0.032121,0,0,0.022844,-0.03,0.24,-0.45,0
8353,1.5068e+07,1,2.24,-0.99,10.12,-0.01661,-0.002928,-0.33818,0.048194,0,0,0.019479,-0.03,0.24,-0.45,0
8394,1.5078e+07,1,2.12,-0.95,10.19,-0.012058,-0.0016252,-0.33475,0.061494,0,0,0.020948,-0.03,0.24,-0.45,0
8434,1.5088e+07,1,1.95,-0.92,10.27,-0.0042942,0.0046515,-0.33149,0.071589,0,0,0.022206,-0.03,0.24,-0.45,0
8473,1.5101e+07,1,1.73,-0.88,10.36,-0.0033183,0.019098,-0.33639,0.073325,0,0,0.023319,-0.03,0.24,-0.46,0
8515,1.5111e+07,1,1.59,-0.84,10.42,0.0049564,0.030415,-0.34207,0.070039,0,0,0.025113,-0.03,0.24,-0.46,0
8555,1.5121e+07,1,1.4,-0.79,10.47,0.010461,0.033225,-0.35394,0.059813,0,0,0.026243,-0.03,0.24,-0.46,0
8597,1.5131e+07,1,1.2,-0.74,10.53,0.0097846,0.032218,-0.36703,0.053144,0,0,0.022635,-0.03,0.24,-0.46,0
8637,1.5141e+07,1,0.99,-0.69,10.59,0.012153,0.034739,-0.37652,0.046767,0,0,0.023711,-0.03,0.24,-0.46,0
8678,1.5151e+07,1,0.75,-0.65,10.66,0.011536,0.035954,-0.39004,0.023974,0,0,0.019878,-0.03,0.24,-0.46,0
8722,1.5161e+07,1,0.51,-0.62,10.75,0.0052906,0.03309,-0.39892,0.0067671,0,0,0.020549,-0.03,0.24,-0.45,0
8763,1.5172e+07,1,0.26,-0.6,10.84,-0.0014752,0.031688,-0.40235,-0.0017691,0,0,0.02099,-0.03,0.24,-0.45,0
8803,1.5182e+07,1,-0.03,-0.56,10.95,-0.0038989,0.035116,-0.40625,-0.010864,0,0,0.021118,-0.03,0.24,-0.45,0
8845,1.5192e+07,1,-0.29,-0.53,11.05,-0.0067712,0.036138,-0.41627,-0.028551,0,0,0.021054,-0.03,0.24,-0.45,0
8884,1.5205e+07,1,-0.61,-0.48,11.21,-0.008912,0.030577,-0.42377,-0.041795,0,0,0.021137,-0.03,0.24,-0.46,0
8925,1.5214e+07,1,-0.91,-0.42,11.36,-0.0057539,0.032637,-0.43257,-0.055112,0,0,0.022092,-0.03,0.24,-0.44,0
8966,1.5225e+07,1,-1.19,-0.37,11.56,-0.0023253,0.03909,-0.44802,-0.065194,0,0,0.017717,-0.03,0.24,-0.44,0
9006,1.5236e+07,1,-1.42,-0.3,11.75,-0.00078653,0.040898,-0.46484,-0.081424,0,0,0.017754,-0.03,0.24,-0.44,0
9047,1.5246e+07,1,-1.69,-0.22,12,0.0028132,0.041405,-0.48355,-0.094426,0,0,0.017364,-0.03,0.24,-0.44,0
9090,1.5256e+07,1,-1.93,-0.13,12.27,0.0047837,0.047599,-0.49989,-0.10872,0,0,0.017075,-0.03,0.24,-0.44,0
9137,1.5266e+07,1,-2.15,-0.02,12.58,0.0073539,0.054553,-0.51426,-0.12252,0,0,0.01643,-0.03,0.24,-0.44,0
9178,1.5276e+07,1,-2.36,0.1,12.91,0.014504,0.058784,-0.53628,-0.1478,0,0,0.015407,-0.03,0.24,-0.44,0
9218,1.5287e+07,1,-2.57,0.22,13.25,0.024493,0.06365,-0.55956,-0.16977,0,0,0.0099514,-0.03,0.24,-0.44,0
9259,1.5297e+07,1,-2.85,0.41,13.73,0.030929,0.077029,-0.58894,-0.20331,0,0,0.0076265,-0.03,0.24,-0.44,0
9294,1.5308e+07,1,-3.09,0.62,14.22,0.036848,0.090151,-0.61711,-0.23416,0,0,0.006821,-0.03,0.24,-0.44,0
9336,1.5318e+07,1,-3.29,0.83,14.67,0.046361,0.10067,-0.64539,-0.26283,0,0,0.0060252,-0.03,0.24,-0.44,0
9377,1.5328e+07,1,-3.52,1.14,15.23,0.059259,0.11502,-0.67574,-0.29406,0,0,0.0047458,-0.03,0.24,-0.44,0
9419,1.5339e+07,1,-3.7,1.44,15.78,0.071821,0.12951,-0.71128,-0.32155,0,0,-0.0021867,-0.03,0.24,-0.44,0
9459,1.5349e+07,1,-3.83,1.77,16.3,0.080655,0.14364,-0.74991,-0.3566,0,0,-0.0043999,-0.03,0.24,-0.44,0
9500,1.5359e+07,1,-3.95,2.18,16.94,0.092725,0.16035,-0.78999,-0.3945,0,0,-0.00798,-0.03,0.24,-0.44,0
9544,1.537e+07,1,-4.01,2.62,17.61,0.10527,0.17535,-0.83245,-0.43796,0,0,-0.011467,-0.03,0.24,-0.44,0
9585,1.538e+07,1,-4,3.06,18.26,0.11585,0.18542,-0.87118,-0.47406,0,0,-0.015679,-0.03,0.24,-0.44,0
9625,1.539e+07,1,-3.93,3.51,18.94,0.12381,0.19366,-0.91378,-0.51503,0,0,-0.024467,-0.03,0.24,-0.44,0
9666,1.54e+07,1,-3.8,4,19.65,0.13298,0.20469,-0.95403,-0.55828,0,0,-0.029528,-0.03,0.24,-0.44,0
9703,1.5411e+07,1,-3.57,4.56,20.47,0.14329,0.21527,-1.0007,-0.59866,0,0,-0.033865,-0.03,0.24,-0.45,0
9743,1.542e+07,1,-3.29,5.09,21.25,0.153,0.2248,-1.0448,-0.64748,0,0,-0.04403,-0.03,0.24,-0.45,0
9784,1.543e+07,1,-2.96,5.63,22.08,0.16328,0.23592,-1.0881,-0.69357,0,0,-0.048402,-0.03,0.24,-0.44,0
9825,1.544e+07,1,-2.54,6.18,22.93,0.17109,0.25264,-1.1292,-0.73163,0,0,-0.053531,-0.03,0.24,-0.45,0
9866,1.545e+07,1,-2.01,6.72,23.83,0.17933,0.26764,-1.1685,-0.77122,0,0,-0.065014,-0.03,0.24,-0.45,0
9909,1.546e+07,1,-1.4,7.25,24.75,0.1935,0.28167,-1.203,-0.80382,0,0,-0.071071,-0.03,0.24,-0.44,0
9954,1.547e+07,1,-0.81,7.72,25.61,0.21047,0.29394,-1.2366,-0.8358,0,0,-0.077598,-0.03,0.24,-0.44,0
9996,1.5481e+07,1,-0.07,8.26,26.71,0.23129,0.3041,-1.2697,-0.87124,0,0,-0.090175,-0.03,0.24,-0.44,0
10036,1.5491e+07,1,0.68,8.77,27.84,0.25424,0.31137,-1.3033,-0.90841,0,0,-0.098984,-0.03,0.24,-0.44,0
10077,1.5501e+07,1,1.35,9.19,28.89,0.27187,0.31717,-1.3302,-0.93768,0,0,-0.10701,-0.03,0.24,-0.44,0
10117,1.5511e+07,1,1.97,9.54,29.87,0.29021,0.32267,-1.3527,-0.96715,0,0,-0.11426,-0.03,0.24,-0.44,0
10158,1.5522e+07,1,2.73,9.93,31.11,0.31313,0.32799,-1.3791,-0.99209,0,0,-0.12919,-0.03,0.24,-0.44,0
10195,1.5533e+07,1,3.48,10.29,32.4,0.33495,0.33501,-1.395,-1.0169,0,0,-0.13979,-0.02,0.23,-0.45,0
10236,1.5543e+07,1,4.16,10.59,33.61,0.35342,0.34165,-1.4069,-1.0313,0,0,-0.14936,-0.02,0.24,-0.45,0
10278,1.5553e+07,1,4.75,10.84,34.74,0.37513,0.34811,-1.415,-1.0425,0,0,-0.15917,-0.02,0.24,-0.45,0
10318,1.5563e+07,1,5.44,11.12,36.15,0.39428,0.35742,-1.4252,-1.0586,0,0,-0.16937,-0.02,0.24,-0.45,0
10363,1.5573e+07,1,6.12,11.36,37.62,0.40839,0.37003,-1.4355,-1.0709,0,0,-0.18519,-0.02,0.24,-0.45,0
10403,1.5583e+07,1,6.74,11.54,38.99,0.41604,0.38414,-1.4413,-1.0831,0,0,-0.19561,-0.02,0.24,-0.45,0
10444,1.5594e+07,1,7.33,11.7,40.31,0.42465,0.39688,-1.4488,-1.0947,0,0,-0.20629,-0.02,0.24,-0.45,0
10484,1.5604e+07,1,8.03,11.86,41.89,0.43329,0.41079,-1.4567,-1.1083,0,0,-0.21736,-0.02,0.24,-0.45,0
10518,1.5614e+07,1,8.74,11.99,43.56,0.43907,0.42538,-1.4631,-1.1229,0,0,-0.22928,-0.02,0.23,-0.46,0
10559,1.5624e+07,1,9.41,12.07,45.13,0.44252,0.44539,-1.4666,-1.1351,0,0,-0.23998,-0.02,0.23,-0.46,0
10600,1.5635e+07,1,10.03,12.11,46.55,0.44842,0.46914,-1.4735,-1.1444,0,0,-0.25463,-0.02,0.23,-0.46,0
10640,1.5645e+07,1,10.89,12.11,48.48,0.44837,0.49866,-1.479,-1.1571,0,0,-0.26713,-0.02,0.23,-0.46,0
10681,1.5656e+07,1,11.58,12.07,49.96,0.44664,0.52501,-1.4823,-1.1638,0,0,-0.27829,-0.02,0.23,-0.47,0
10723,1.5666e+07,1,12.53,11.96,51.88,0.4448,0.55155,-1.4845,-1.1718,0,0,-0.29008,-0.02,0.23,-0.47,0
10770,1.5717e+07,1,17.02,10.86,59.97,0.41761,0.67594,-1.4971,-1.2241,0,0,-0.3533,-0.01,0.23,-0.48,0
10812,1.5728e+07,1,17.99,10.54,61.5,0.40927,0.6954,-1.4955,-1.2251,0,0,-0.36387,-0.01,0.23,-0.48,0
10852,1.5738e+07,1,18.89,10.23,62.9,0.40245,0.71481,-1.4966,-1.2244,0,0,-0.37878,-0.01,0.23,-0.48,0
10893,1.5748e+07,1,19.93,9.83,64.51,0.39513,0.73418,-1.4983,-1.2253,0,0,-0.38965,-0.01,0.23,-0.48,0
10936,1.5758e+07,1,20.98,9.41,66.1,0.38491,0.75472,-1.5023,-1.2234,0,0,-0.40203,-0.01,0.23,-0.48,0
10976,1.5769e+07,1,21.93,9,67.53,0.36997,0.77346,-1.5022,-1.2253,0,0,-0.4132,-0.01,0.23,-0.48,0
11021,1.578e+07,1,23,8.54,69.08,0.34518,0.79703,-1.498,-1.2226,0,0,-0.42604,-0.01,0.23,-0.48,0
11061,1.579e+07,1,24.13,8.07,70.59,0.32339,0.81856,-1.4952,-1.2186,0,0,-0.43741,-0.01,0.23,-0.48,0
11102,1.5801e+07,1,25.17,7.64,71.93,0.30641,0.84037,-1.4942,-1.213,0,0,-0.45391,-0.01,0.23,-0.48,0
11145,1.5811e+07,1,26.1,7.25,73.12,0.29349,0.85708,-1.4989,-1.2173,0,0,-0.46547,-0.01,0.23,-0.48,0
11186,1.5822e+07,1,27.28,6.75,74.62,0.27899,0.8764,-1.5025,-1.2117,0,0,-0.47579,0,0.22,-0.49,0
11227,1.5832e+07,1,28.16,6.38,75.73,0.26063,0.89354,-1.5085,-1.201,0,0,-0.48484,0,0.22,-0.49,0
11267,1.5842e+07,1,29.18,5.94,77.01,0.23468,0.90984,-1.5128,-1.1941,0,0,-0.49458,0,0.22,-0.49,0
11309,1.5852e+07,1,30.05,5.57,78.06,0.20811,0.92914,-1.5152,-1.1825,0,0,-0.50949,0,0.22,-0.49,0
11349,1.5863e+07,1,31.16,5.13,79.35,0.1703,0.95166,-1.516,-1.1726,0,0,-0.52063,0,0.22,-0.49,0
11392,1.5873e+07,1,32.15,4.77,80.42,0.13401,0.97056,-1.5132,-1.159,0,0,-0.53054,0,0.22,-0.49,0
11437,1.5883e+07,1,33.17,4.42,81.47,0.099286,0.98635,-1.5092,-1.1474,0,0,-0.54065,0,0.22,-0.49,0
11478,1.5893e+07,1,34.1,4.12,82.38,0.067209,1.0027,-1.5064,-1.1379,0,0,-0.5509,0,0.22,-0.49,0
11519,1.5903e+07,1,35.24,3.77,83.46,0.037525,1.021,-1.5073,-1.1272,0,0,-0.56603,0,0.22,-0.49,0
11560,1.5914e+07,1,36.37,3.45,84.52,0.0017781,1.0384,-1.5058,-1.1197,0,0,-0.57803,0,0.22,-0.49,0
11598,1.5924e+07,1,37.4,3.17,85.47,-0.041479,1.0551,-1.4982,-1.1089,0,0,-0.58857,0,0.2,-0.49,0
11638,1.5934e+07,1,38.54,2.88,86.5,-0.083324,1.0702,-1.4917,-1.0966,0,0,-0.59793,0,0.2,-0.51,0
11679,1.5944e+07,1,39.62,2.64,87.42,-0.12256,1.0833,-1.4862,-1.0874,0,0,-0.60601,0,0.2,-0.51,0
11721,1.5955e+07,1,40.69,2.41,88.31,-0.16838,1.1015,-1.4757,-1.0639,0,0,-0.6222,0,0.2,-0.51,0
11761,1.5965e+07,1,41.8,2.2,89.19,-0.21168,1.1151,-1.4632,-1.0463,0,0,-0.6317,0,0.2,-0.51,0
11802,1.5975e+07,1,43.03,2.01,90.15,-0.2503,1.1295,-1.4531,-1.0278,0,0,-0.64282,0,0.2,-0.51,0
11846,1.5985e+07,1,44.12,1.86,90.99,-0.28072,1.1449,-1.4438,-1.0156,0,0,-0.6526,0,0.2,-0.51,0
11887,1.5995e+07,1,45.19,1.74,91.83,-0.30854,1.1579,-1.4389,-1.0114,0,0,-0.66106,0,0.2,-0.51,0
11929,1.6005e+07,1,46.16,1.65,92.63,-0.3411,1.1741,-1.431,-1.0049,0,0,-0.67686,0,0.2,-0.51,0
11972,1.6019e+07,1,47.41,1.55,93.66,-0.38955,1.1874,-1.4137,-0.99757,0,0,-0.691,0,0.2,-0.51,0
12013,1.6029e+07,1,48.38,1.51,94.45,-0.42783,1.1927,-1.3947,-0.98529,0,0,-0.70046,0.02,0.19,-0.5,0
12054,1.6039e+07,1,49.34,1.49,95.24,-0.46474,1.1958,-1.3663,-0.96868,0,0,-0.70963,0.02,0.19,-0.5,0
12097,1.605e+07,1,50.44,1.48,96.12,-0.50401,1.2011,-1.3343,-0.94668,0,0,-0.72448,0.02,0.19,-0.5,0
12138,1.606e+07,1,51.37,1.5,96.89,-0.53326,1.2011,-1.3067,-0.93941,0,0,-0.73326,0.02,0.19,-0.49,0
12179,1.607e+07,1,52.41,1.53,97.78,-0.55899,1.2028,-1.2825,-0.92917,0,0,-0.74625,0.02,0.19,-0.49,0
12225,1.608e+07,1,53.34,1.57,98.65,-0.58834,1.2019,-1.2452,-0.90516,0,0,-0.75468,0.02,0.19,-0.49,0
12267,1.609e+07,1,54.41,1.61,99.62,-0.62616,1.2009,-1.1948,-0.86711,0,0,-0.7641,0.02,0.19,-0.49,0
12308,1.61e+07,1,55.32,1.65,100.43,-0.64844,1.204,-1.1591,-0.84445,0,0,-0.77581,0.02,0.19,-0.49,0
12352,1.6114e+07,1,56.62,1.71,101.62,-0.6701,1.2028,-1.1187,-0.82029,0,0,-0.78675,0.02,0.19,-0.49,0
12393,1.6124e+07,1,57.7,1.77,102.65,-0.68542,1.2029,-1.0798,-0.79087,0,0,-0.79413,0.02,0.19,-0.49,0
12434,1.6134e+07,1,58.78,1.83,103.7,-0.70287,1.2011,-1.0358,-0.7642,0,0,-0.80219,0.02,0.18,-0.48,0
12476,1.6145e+07,1,59.76,1.88,104.69,-0.71203,1.2021,-1.0006,-0.73825,0,0,-0.81336,0.02,0.18,-0.48,0
12517,1.6156e+07,1,60.79,1.94,105.8,-0.72225,1.1958,-0.96441,-0.71034,0,0,-0.81793,0.05,0.18,-0.48,0
12557,1.6166e+07,1,61.69,2,106.83,-0.73293,1.1916,-0.92277,-0.67166,0,0,-0.82232,0.05,0.18,-0.48,0
12598,1.6176e+07,1,62.6,2.04,107.9,-0.74121,1.1864,-0.88058,-0.62704,0,0,-0.82653,0.05,0.18,-0.48,0
12642,1.6186e+07,1,63.5,2.08,108.99,-0.74903,1.183,-0.83862,-0.57319,0,0,-0.83595,0.05,0.18,-0.48,0
12684,1.6197e+07,1,64.45,2.12,110.23,-0.7587,1.1774,-0.79683,-0.52753,0,0,-0.83957,0.05,0.18,-0.47,0
12724,1.6207e+07,1,65.31,2.14,111.36,-0.769,1.1739,-0.75496,-0.47854,0,0,-0.84295,0.05,0.18,-0.48,0
12765,1.6217e+07,1,66.16,2.17,112.52,-0.77608,1.1718,-0.71669,-0.43347,0,0,-0.84615,0.05,0.18,-0.48,0
12803,1.6227e+07,1,66.99,2.19,113.72,-0.78173,1.1749,-0.68223,-0.39199,0,0,-0.85382,0.05,0.18,-0.48,0
12844,1.6237e+07,1,67.82,2.2,115.03,-0.78861,1.1732,-0.65149,-0.35758,0,0,-0.85655,0.05,0.18,-0.48,0
12883,1.6248e+07,1,68.53,2.2,116.25,-0.79591,1.1674,-0.61966,-0.31981,0,0,-0.85792,0.08,0.18,-0.46,0
12927,1.6258e+07,1,69.26,2.2,117.61,-0.80299,1.1625,-0.59264,-0.28138,0,0,-0.85872,0.08,0.19,-0.46,0
12968,1.6269e+07,1,69.82,2.19,118.77,-0.81156,1.1656,-0.56642,-0.24878,0,0,-0.86453,0.08,0.19,-0.46,0
13008,1.628e+07,1,70.48,2.17,120.27,-0.82352,1.1589,-0.5337,-0.21202,0,0,-0.86548,0.08,0.18,-0.46,0
13053,1.629e+07,1,70.95,2.13,121.43,-0.83441,1.1495,-0.50805,-0.1806,0,0,-0.86582,0.08,0.18,-0.46,0
13094,1.63e+07,1,71.52,2.06,122.99,-0.84317,1.144,-0.48209,-0.15511,0,0,-0.86616,0.08,0.18,-0.46,0
13134,1.631e+07,1,71.94,1.98,124.31,-0.85156,1.1443,-0.45699,-0.12333,0,0,-0.87084,0.08,0.18,-0.46,0
13175,1.632e+07,1,72.33,1.89,125.63,-0.8601,1.1383,-0.42901,-0.092256,0,0,-0.87088,0.08,0.18,-0.46,0
13215,1.633e+07,1,72.66,1.8,126.82,-0.86871,1.133,-0.39816,-0.063659,0,0,-0.87122,0.08,0.18,-0.46,0
13255,1.6341e+07,1,73.03,1.67,128.28,-0.88147,1.1237,-0.36834,-0.031484,0,0,-0.87027,0.11,0.18,-0.46,0
13296,1.6351e+07,1,73.32,1.57,129.48,-0.8928,1.1162,-0.3386,-0.00069237,0,0,-0.86925,0.11,0.19,-0.43,0
13336,1.6361e+07,1,73.68,1.43,131.02,-0.90396,1.1138,-0.30918,0.035595,0,0,-0.87281,0.11,0.19,-0.43,0
13377,1.6371e+07,1,73.94,1.32,132.2,-0.91762,1.1019,-0.28257,0.063772,0,0,-0.8714,0.11,0.19,-0.43,0
13418,1.6382e+07,1,74.23,1.19,133.56,-0.9314,1.0985,-0.2557,0.083482,0,0,-0.8741,0.11,0.19,-0.43,0
13463,1.6392e+07,1,74.5,1.04,134.95,-0.94591,1.0802,-0.21795,0.1132,0,0,-0.87252,0.11,0.18,-0.43,0
13503,1.6402e+07,1,74.73,0.91,136.07,-0.95781,1.0603,-0.18663,0.13816,0,0,-0.87034,0.11,0.18,-0.43,0
13544,1.6412e+07,1,75,0.77,137.3,-0.97231,1.0427,-0.15207,0.1621,0,0,-0.86838,0.11,0.18,-0.43,0
13584,1.6423e+07,1,75.27,0.6,138.66,-0.98557,1.0227,-0.12641,0.18279,0,0,-0.86619,0.11,0.18,-0.43,0
13626,1.6436e+07,1,75.59,0.4,140.25,-1.0014,0.9908,-0.085223,0.22522,0,0,-0.86251,0.15,0.18,-0.43,0
13669,1.6446e+07,1,75.85,0.22,141.59,-1.0152,0.97457,-0.056389,0.2559,0,0,-0.86323,0.15,0.18,-0.43,0
13710,1.6456e+07,1,76.1,0.07,142.77,-1.0269,0.95062,-0.031271,0.28486,0,0,-0.85873,0.15,0.18,-0.4,0
13751,1.6466e+07,1,76.35,-0.08,143.97,-1.036,0.92627,-0.0095739,0.2993,0,0,-0.8542,0.15,0.18,-0.4,0
13791,1.6477e+07,1,76.59,-0.23,145.15,-1.0461,0.90802,0.0077903,0.31946,0,0,-0.85421,0.15,0.18,-0.4,0
13832,1.6487e+07,1,76.79,-0.37,146.23,-1.0545,0.88349,0.021529,0.33454,0,0,-0.84956,0.15,0.18,-0.4,0
13877,1.6497e+07,1,77.02,-0.56,147.53,-1.0608,0.85962,0.030986,0.3466,0,0,-0.84502,0.15,0.18,-0.4,0
13919,1.6507e+07,1,77.23,-0.76,148.85,-1.0663,0.83119,0.041042,0.35835,0,0,-0.84058,0.15,0.18,-0.4,0
13960,1.6518e+07,1,77.41,-0.93,150.05,-1.0725,0.80753,0.05238,0.3717,0,0,-0.8363,0.15,0.18,-0.4,0
14000,1.6528e+07,1,77.56,-1.09,151.15,-1.0808,0.79067,0.061242,0.38208,0,0,-0.83573,0.15,0.18,-0.4,0
14041,1.6538e+07,1,77.75,-1.28,152.45,-1.0861,0.76829,0.07015,0.389,0,0,-0.83142,0.15,0.18,-0.4,0
14081,1.6548e+07,1,77.95,-1.44,153.76,-1.087,0.74812,0.07195,0.39477,0,0,-0.82582,0.19,0.19,-0.41,0
14122,1.6558e+07,1,78.13,-1.58,154.96,-1.0919,0.73671,0.071905,0.39073,0,0,-0.8251,0.19,0.19,-0.41,0
14165,1.6568e+07,1,78.26,-1.68,155.93,-1.092,0.71792,0.072763,0.38891,0,0,-0.81966,0.18,0.18,-0.37,0
14205,1.6579e+07,1,78.45,-1.82,157.34,-1.089,0.69749,0.074157,0.38941,0,0,-0.81435,0.18,0.18,-0.37,0
14246,1.6589e+07,1,78.6,-1.91,158.39,-1.0881,0.67922,0.072755,0.38647,0,0,-0.80938,0.18,0.18,-0.37,0
14290,1.6599e+07,1,78.79,-2.01,159.7,-1.0914,0.67114,0.069537,0.38408,0,0,-0.80867,0.18,0.18,-0.37,0
14331,1.6609e+07,1,78.96,-2.09,161.01,-1.0904,0.65212,0.071886,0.38524,0,0,-0.80384,0.18,0.18,-0.37,0
14371,1.662e+07,1,79.14,-2.16,162.19,-1.0914,0.64044,0.066259,0.36996,0,0,-0.80314,0.18,0.18,-0.37,0
14413,1.6629e+07,1,79.3,-2.2,163.26,-1.0907,0.62862,0.054898,0.34709,0,0,-0.79859,0.18,0.18,-0.37,0
14450,1.6639e+07,1,79.45,-2.24,164.56,-1.0919,0.60982,0.044213,0.32696,0,0,-0.79437,0.18,0.18,-0.37,0
14495,1.6652e+07,1,79.62,-2.26,166.09,-1.0852,0.59057,0.043313,0.32237,0,0,-0.78882,0.22,0.18,-0.37,0
14536,1.6662e+07,1,79.76,-2.27,167.27,-1.0807,0.56892,0.037819,0.31597,0,0,-0.78368,0.22,0.18,-0.34,0
14577,1.6673e+07,1,79.91,-2.26,168.59,-1.0813,0.56357,0.026834,0.31335,0,0,-0.78336,0.22,0.18,-0.34,0
14619,1.6683e+07,1,80.02,-2.24,169.78,-1.0775,0.54654,0.019715,0.31168,0,0,-0.7786,0.22,0.18,-0.34,0
14660,1.6693e+07,1,80.13,-2.19,170.98,-1.0741,0.52796,0.010986,0.30535,0,0,-0.77418,0.22,0.18,-0.34,0
14704,1.6703e+07,1,80.22,-2.13,172.19,-1.0767,0.50945,-0.0052178,0.29595,0,0,-0.77012,0.22,0.18,-0.34,0
14745,1.6713e+07,1,80.27,-2.03,173.4,-1.0773,0.49261,-0.024205,0.28017,0,0,-0.76645,0.22,0.18,-0.35,0
14785,1.6724e+07,1,80.28,-1.93,174.5,-1.0762,0.47759,-0.050104,0.2619,0,0,-0.76685,0.22,0.18,-0.35,0
14826,1.6737e+07,1,80.2,-1.74,176.22,-1.07,0.45401,-0.082368,0.23059,0,0,-0.7641,0.22,0.18,-0.35,0
14863,1.6747e+07,1,80.09,-1.6,177.47,-1.0601,0.428,-0.10416,0.20919,0,0,-0.76125,0.25,0.18,-0.32,0
14906,1.6757e+07,1,79.96,-1.45,178.63,-1.048,0.40045,-0.12131,0.19451,0,0,-0.75883,0.25,0.18,-0.32,0
14947,1.6767e+07,1,79.76,-1.25,180.13,-1.0388,0.36654,-0.13559,0.17937,0,0,-0.75689,0.25,0.18,-0.32,0
14989,1.6777e+07,1,79.57,-1.07,181.42,-1.0311,0.33272,-0.14449,0.16772,0,0,-0.75513,0.25,0.19,-0.32,0
15030,1.6787e+07,1,79.39,-0.86,182.72,-1.0215,0.30125,-0.15087,0.15503,0,0,-0.75363,0.25,0.19,-0.32,0
15074,1.6798e+07,1,79.22,-0.66,183.89,-1.0164,0.27806,-0.15924,0.14285,0,0,-0.75514,0.25,0.19,-0.32,0
15115,1.6808e+07,1,79,-0.38,185.42,-1.0071,0.24213,-0.16876,0.12549,0,0,-0.75411,0.25,0.19,-0.32,0
15157,1.6819e+07,1,78.82,-0.13,186.72,-0.99581,0.20829,-0.17593,0.11134,0,0,-0.75317,0.25,0.19,-0.32,0
15200,1.6832e+07,1,78.59,0.19,188.42,-0.97907,0.16373,-0.18255,0.093579,0,0,-0.75301,0.25,0.19,-0.32,0
15239,1.6842e+07,1,78.43,0.47,189.7,-0.96415,0.12016,-0.18564,0.082761,0,0,-0.75222,0.29,0.19,-0.3,0
15283,1.6852e+07,1,78.29,0.78,191.11,-0.9487,0.079741,-0.18642,0.075959,0,0,-0.75139,0.29,0.19,-0.3,0
15324,1.6863e+07,1,78.17,1.11,192.52,-0.93154,0.040743,-0.1865,0.067767,0,0,-0.75076,0.29,0.19,-0.3,0
15365,1.6873e+07,1,78.09,1.41,193.79,-0.91535,0.007505,-0.18214,0.065098,0,0,-0.75043,0.29,0.19,-0.3,0
15405,1.6883e+07,1,78.04,1.69,194.91,-0.90131,-0.021423,-0.17658,0.062726,0,0,-0.75,0.29,0.19,-0.3,0
15447,1.6893e+07,1,78,2.03,196.29,-0.88577,-0.049273,-0.17191,0.057287,0,0,-0.74966,0.29,0.19,-0.3,0
15492,1.6904e+07,1,78.01,2.3,197.4,-0.87657,-0.065884,-0.16217,0.058825,0,0,-0.75133,0.29,0.19,-0.3,0
15533,1.6914e+07,1,78.07,2.64,198.74,-0.86221,-0.091242,-0.14906,0.061715,0,0,-0.75092,0.29,0.19,-0.3,0
15573,1.6924e+07,1,78.17,2.94,199.94,-0.84968,-0.11359,-0.13495,0.062117,0,0,-0.7506,0.29,0.19,-0.3,0
15614,1.6934e+07,1,78.31,3.26,201.24,-0.83704,-0.13518,-0.1256,0.058416,0,0,-0.75014,0.29,0.19,-0.3,0
15655,1.6945e+07,1,78.48,3.57,202.52,-0.82716,-0.15094,-0.11703,0.055466,0,0,-0.75148,0.29,0.19,-0.3,0
15692,1.6956e+07,1,78.66,3.84,203.66,-0.81282,-0.17376,-0.11049,0.053083,0,0,-0.75041,0.32,0.19,-0.27,0
15735,1.6965e+07,1,78.83,4.07,204.69,-0.80051,-0.19754,-0.10687,0.050332,0,0,-0.74942,0.32,0.19,-0.27,0
15777,1.6976e+07,1,79.04,4.32,205.88,-0.78658,-0.22156,-0.10217,0.049356,0,0,-0.74853,0.32,0.19,-0.27,0
15818,1.6986e+07,1,79.23,4.54,206.98,-0.77384,-0.24982,-0.099862,0.045368,0,0,-0.7478,0.32,0.19,-0.27,0
15859,1.6997e+07,1,79.44,4.75,208.13,-0.76588,-0.27774,-0.098982,0.041301,0,0,-0.7471,0.32,0.19,-0.27,0
15903,1.7007e+07,1,79.62,4.93,209.12,-0.75996,-0.30373,-0.099551,0.035688,0,0,-0.74646,0.32,0.19,-0.27,0
15944,1.7017e+07,1,79.82,5.12,210.2,-0.75322,-0.3335,-0.10231,0.028487,0,0,-0.74607,0.32,0.19,-0.27,0
15984,1.7028e+07,1,79.99,5.28,211.13,-0.75375,-0.35537,-0.10927,0.018243,0,0,-0.74712,0.32,0.19,-0.27,0
16026,1.7038e+07,1,80.14,5.43,212.02,-0.74911,-0.38627,-0.11728,0.0054013,0,0,-0.74683,0.32,0.19,-0.27,0
16061,1.7049e+07,1,80.29,5.59,212.95,-0.74253,-0.42072,-0.12558,-0.004693,0,0,-0.74594,0.34,0.19,-0.24,0
16106,1.7061e+07,1,80.47,5.76,213.99,-0.7349,-0.45809,-0.13702,-0.016679,0,0,-0.74553,0.34,0.19,-0.24,0
16147,1.7071e+07,1,80.59,5.85,214.68,-0.73274,-0.48279,-0.14629,-0.029917,0,0,-0.74694,0.34,0.19,-0.24,0
16187,1.7081e+07,1,80.73,5.95,215.46,-0.72603,-0.51464,-0.15104,-0.039294,0,0,-0.74636,0.34,0.19,-0.23,0
16228,1.7091e+07,1,80.87,6.01,216.07,-0.72525,-0.54078,-0.15817,-0.05102,0,0,-0.7479,0.34,0.19,-0.23,0
16268,1.7101e+07,1,81.04,6.05,216.78,-0.7156,-0.5736,-0.16897,-0.065089,0,0,-0.74755,0.34,0.19,-0.23,0
16316,1.7112e+07,1,81.19,6.05,217.38,-0.71344,-0.59711,-0.18297,-0.084209,0,0,-0.74932,0.34,0.19,-0.23,0
16357,1.7122e+07,1,81.33,6.03,217.94,-0.70428,-0.63099,-0.19519,-0.10122,0,0,-0.74927,0.33,0.19,-0.23,0
16399,1.7132e+07,1,81.48,5.97,218.47,-0.69673,-0.66501,-0.2091,-0.12002,0,0,-0.74945,0.33,0.19,-0.23,0
16440,1.7142e+07,1,81.65,5.86,219.01,-0.68736,-0.70077,-0.23054,-0.14237,0,0,-0.75016,0.33,0.19,-0.23,0
16477,1.7153e+07,1,81.77,5.74,219.46,-0.685,-0.72641,-0.25128,-0.16114,0,0,-0.75257,0.33,0.19,-0.23,0
16521,1.7165e+07,1,81.91,5.53,219.95,-0.67703,-0.76776,-0.27038,-0.17902,0,0,-0.75434,0.33,0.19,-0.23,0
16561,1.7175e+07,1,82.04,5.31,220.34,-0.66941,-0.80191,-0.28202,-0.18903,0,0,-0.75561,0.33,0.19,-0.23,0
16600,1.7185e+07,1,82.19,5.06,220.66,-0.65743,-0.83423,-0.29339,-0.20061,0,0,-0.75752,0.35,0.19,-0.18,0
16641,1.7196e+07,1,82.34,4.78,220.94,-0.64474,-0.86552,-0.30554,-0.21497,0,0,-0.75962,0.35,0.19,-0.18,0
16682,1.7206e+07,1,82.48,4.45,221.19,-0.64034,-0.89269,-0.31853,-0.23111,0,0,-0.76281,0.35,0.19,-0.18,0
16727,1.7216e+07,1,82.63,4.09,221.4,-0.62725,-0.92268,-0.32766,-0.24438,0,0,-0.76514,0.35,0.19,-0.18,0
16768,1.7226e+07,1,82.8,3.68,221.6,-0.62007,-0.94262,-0.33388,-0.2568,0,0,-0.76845,0.35,0.19,-0.18,0
16809,1.7236e+07,1,83,3.18,221.8,-0.60315,-0.96875,-0.34111,-0.27083,0,0,-0.77137,0.34,0.19,-0.18,0
16851,1.7247e+07,1,83.2,2.67,221.95,-0.59179,-0.99023,-0.34608,-0.28168,0,0,-0.77406,0.35,0.19,-0.18,0
16891,1.7257e+07,1,83.44,2.11,222.09,-0.58736,-1.005,-0.35089,-0.29271,0,0,-0.77755,0.35,0.19,-0.18,0
16932,1.7267e+07,1,83.69,1.52,222.22,-0.57688,-1.0243,-0.3557,-0.30335,0,0,-0.78038,0.34,0.18,-0.17,0
16969,1.7277e+07,1,83.93,0.94,222.31,-0.56762,-1.0425,-0.35835,-0.31225,0,0,-0.78394,0.35,0.19,-0.16,0
17010,1.7287e+07,1,84.23,0.24,222.42,-0.56129,-1.0622,-0.36172,-0.32308,0,0,-0.78757,0.35,0.18,-0.13,0
17051,1.7297e+07,1,84.56,-0.49,222.49,-0.55823,-1.0853,-0.36526,-0.33541,0,0,-0.79163,0.35,0.19,-0.13,0
17093,1.7308e+07,1,84.86,-1.14,222.54,-0.56472,-1.1008,-0.36514,-0.34349,0,0,-0.79527,0.35,0.19,-0.13,0
17138,1.7318e+07,1,85.17,-1.73,222.56,-0.56561,-1.1195,-0.36239,-0.34872,0,0,-0.79897,0.35,0.18,-0.13,0
17178,1.7328e+07,1,85.56,-2.43,222.56,-0.56758,-1.1387,-0.36083,-0.35571,0,0,-0.80305,0.36,0.19,-0.13,0
17219,1.7338e+07,1,85.9,-3,222.54,-0.56753,-1.1563,-0.35953,-0.36169,0,0,-0.80677,0.36,0.19,-0.13,0
17256,1.7348e+07,1,86.24,-3.53,222.52,-0.56759,-1.172,-0.35452,-0.36351,0,0,-0.81055,0.36,0.19,-0.13,0
17297,1.7359e+07,1,86.55,-3.98,222.48,-0.5739,-1.1819,-0.35123,-0.36652,0,0,-0.81402,0.36,0.19,-0.13,0
17335,1.7369e+07,1,86.91,-4.51,222.43,-0.57112,-1.1958,-0.34536,-0.36875,0,0,-0.81912,0.36,0.19,-0.09,0
17375,1.7379e+07,1,87.22,-4.92,222.37,-0.56498,-1.2085,-0.33778,-0.37107,0,0,-0.82378,0.36,0.19,-0.09,0
17417,1.7389e+07,1,87.51,-5.3,222.33,-0.55866,-1.2178,-0.32993,-0.37362,0,0,-0.82832,0.36,0.19,-0.09,0
17457,1.74e+07,1,87.76,-5.63,222.3,-0.55792,-1.223,-0.32135,-0.37745,0,0,-0.83157,0.36,0.19,-0.09,0
17498,1.741e+07,1,88.03,-5.99,222.28,-0.55041,-1.226,-0.30901,-0.37646,0,0,-0.83592,0.36,0.19,-0.09,0
17544,1.742e+07,1,88.3,-6.34,222.3,-0.54026,-1.2265,-0.29491,-0.37381,0,0,-0.84041,0.36,0.19,-0.09,0
17585,1.7431e+07,1,88.52,-6.64,222.34,-0.53086,-1.2284,-0.28779,-0.37711,0,0,-0.84445,0.36,0.19,-0.09,0
17626,1.7441e+07,1,88.69,-6.91,222.38,-0.52629,-1.2279,-0.27962,-0.37652,0,0,-0.84838,0.36,0.19,-0.09,0
17668,1.7453e+07,1,88.86,-7.31,222.49,-0.5173,-1.2281,-0.26329,-0.37107,0,0,-0.85325,0.36,0.19,-0.09,0
17706,1.7464e+07,1,88.97,-7.59,222.59,-0.50773,-1.2242,-0.24832,-0.36383,0,0,-0.8571,0.37,0.19,-0.06,0
17746,1.7474e+07,1,89.06,-7.87,222.71,-0.49665,-1.2192,-0.23295,-0.35515,0,0,-0.86077,0.37,0.19,-0.06,0
17787,1.7484e+07,1,89.14,-8.17,222.88,-0.48897,-1.2193,-0.21718,-0.34612,0,0,-0.86427,0.37,0.19,-0.06,0
17828,1.7495e+07,1,89.18,-8.44,223.05,-0.49202,-1.216,-0.19805,-0.33425,0,0,-0.86654,0.37,0.19,-0.06,0
17868,1.7504e+07,1,89.2,-8.7,223.22,-0.48572,-1.2137,-0.18039,-0.32054,0,0,-0.86965,0.37,0.19,-0.06,0
17916,1.7517e+07,1,89.2,-8.99,223.46,-0.47833,-1.2104,-0.15678,-0.30133,0,0,-0.87302,0.37,0.19,-0.06,0
17958,1.7527e+07,1,89.17,-9.24,223.72,-0.47656,-1.2094,-0.14214,-0.28909,0,0,-0.87567,0.37,0.19,-0.06,0
17999,1.7538e+07,1,89.1,-9.45,223.96,-0.4734,-1.2106,-0.12828,-0.27599,0,0,-0.87817,0.37,0.19,-0.06,0
18047,1.7554e+07,1,88.96,-9.72,224.37,-0.46928,-1.2104,-0.095547,-0.23996,0,0,-0.88046,0.36,0.19,-0.06,0
18088,1.7564e+07,1,88.87,-9.84,224.64,-0.46555,-1.2099,-0.074814,-0.21414,0,0,-0.88179,0.36,0.19,-0.04,0
18129,1.7574e+07,1,88.79,-9.94,224.94,-0.47029,-1.2073,-0.05443,-0.18702,0,0,-0.8825,0.36,0.19,-0.04,0
18170,1.7585e+07,1,88.73,-9.99,225.22,-0.46483,-1.2048,-0.035225,-0.16052,0,0,-0.88343,0.36,0.19,-0.04,0
18210,1.7595e+07,1,88.69,-10,225.53,-0.46095,-1.2002,-0.015189,-0.13235,0,0,-0.88416,0.36,0.19,-0.04,0
18251,1.7605e+07,1,88.66,-9.98,225.81,-0.45628,-1.1967,-0.0026924,-0.11194,0,0,-0.88473,0.36,0.19,-0.04,0
18292,1.7615e+07,1,88.64,-9.91,226.21,-0.46066,-1.1931,0.0082269,-0.093249,0,0,-0.8847,0.36,0.19,-0.04,0
18337,1.7625e+07,1,88.62,-9.81,226.56,-0.45745,-1.191,0.020436,-0.074062,0,0,-0.88504,0.36,0.19,-0.04,0
18378,1.7635e+07,1,88.63,-9.67,226.91,-0.45296,-1.1864,0.02934,-0.058675,0,0,-0.88527,0.36,0.19,-0.04,0
18419,1.7646e+07,1,88.65,-9.5,227.28,-0.44662,-1.1805,0.034567,-0.046937,0,0,-0.88543,0.36,0.19,-0.04,0
18460,1.7656e+07,1,88.67,-9.27,227.72,-0.4442,-1.1744,0.035657,-0.040088,0,0,-0.88508,0.36,0.19,-0.04,0
18499,1.7667e+07,1,88.71,-9.04,228.14,-0.43723,-1.1642,0.032568,-0.036538,0,0,-0.88518,0.36,0.19,-0.04,0
18539,1.7677e+07,1,88.75,-8.81,228.58,-0.4268,-1.1498,0.026899,-0.036397,0,0,-0.88562,0.35,0.19,-0.04,0
18580,1.7687e+07,1,88.82,-8.56,229.09,-0.41672,-1.1349,0.021498,-0.037663,0,0,-0.88611,0.35,0.19,-0.01,0
18622,1.7698e+07,1,88.9,-8.34,229.57,-0.41078,-1.1207,0.015166,-0.041845,0,0,-0.88591,0.35,0.19,-0.01,0
18662,1.7709e+07,1,89,-8.15,230.14,-0.39867,-1.1032,0.0063565,-0.048124,0,0,-0.88653,0.35,0.19,-0.01,0
18703,1.7719e+07,1,89.1,-8,230.63,-0.38731,-1.0861,-0.00248,-0.054938,0,0,-0.88722,0.35,0.19,-0.01,0
18747,1.7729e+07,1,89.24,-7.86,231.27,-0.3739,-1.0706,-0.010668,-0.061741,0,0,-0.88799,0.35,0.19,-0.01,0
18789,1.7739e+07,1,89.38,-7.77,231.87,-0.36403,-1.057,-0.020485,-0.071655,0,0,-0.88814,0.35,0.19,-0.01,0
18832,1.775e+07,1,89.57,-7.7,232.56,-0.34655,-1.0446,-0.035557,-0.086174,0,0,-0.88914,0.35,0.19,-0.01,0
18873,1.776e+07,1,89.72,-7.69,233.14,-0.32925,-1.0362,-0.050219,-0.10062,0,0,-0.89026,0.35,0.19,-0.01,0
18908,1.777e+07,1,89.95,-7.72,233.93,-0.31056,-1.0255,-0.067803,-0.11597,0,0,-0.88988,0.34,0.19,-0.01,0
18948,1.778e+07,1,90.15,-7.76,234.61,-0.29401,-1.0198,-0.089938,-0.13021,0,0,-0.88969,0.34,0.19,0,0
18989,1.779e+07,1,90.35,-7.83,235.28,-0.2794,-1.0172,-0.11255,-0.14272,0,0,-0.8898,0.34,0.19,0,0
19029,1.7801e+07,1,90.52,-7.91,235.88,-0.27018,-1.019,-0.13699,-0.15461,0,0,-0.89104,0.34,0.19,0,0
19071,1.7811e+07,1,90.74,-8.02,236.68,-0.25961,-1.0187,-0.1623,-0.16613,0,0,-0.89186,0.34,0.19,0,0
19111,1.7821e+07,1,90.87,-8.09,237.21,-0.25375,-1.0195,-0.18163,-0.17482,0,0,-0.89261,0.34,0.19,0,0
19156,1.7831e+07,1,91.05,-8.22,237.99,-0.24662,-1.0252,-0.20682,-0.18733,0,0,-0.89403,0.34,0.19,0,0
19198,1.7841e+07,1,91.17,-8.31,238.57,-0.24028,-1.0313,-0.2259,-0.19653,0,0,-0.89551,0.34,0.19,0,0
19241,1.7852e+07,1,91.28,-8.41,239.27,-0.23426,-1.0426,-0.2408,-0.20193,0,0,-0.89724,0.34,0.19,0,0
19286,1.7868e+07,1,91.41,-8.54,240.3,-0.22208,-1.0603,-0.26335,-0.21048,0,0,-0.90041,0.33,0.19,0.02,0
19326,1.7878e+07,1,91.45,-8.6,240.82,-0.21203,-1.0663,-0.27482,-0.21473,0,0,-0.90206,0.33,0.19,0.02,0
19368,1.7889e+07,1,91.45,-8.67,241.44,-0.20444,-1.0774,-0.28299,-0.21493,0,0,-0.90386,0.33,0.19,0.02,0
19409,1.7899e+07,1,91.4,-8.73,242.01,-0.20155,-1.0948,-0.28574,-0.20894,0,0,-0.90699,0.33,0.19,0.02,0
19449,1.7909e+07,1,91.31,-8.78,242.6,-0.19311,-1.105,-0.28563,-0.20307,0,0,-0.90864,0.33,0.19,0.02,0
19491,1.792e+07,1,91.19,-8.81,243.07,-0.18462,-1.121,-0.28654,-0.19797,0,0,-0.91093,0.33,0.19,0.02,0
19535,1.793e+07,1,90.99,-8.82,243.64,-0.1788,-1.1383,-0.28365,-0.19104,0,0,-0.913,0.33,0.19,0.02,0
19576,1.794e+07,1,90.79,-8.81,244.09,-0.17141,-1.1574,-0.27775,-0.18282,0,0,-0.91506,0.33,0.19,0.02,0
19618,1.795e+07,1,90.51,-8.76,244.61,-0.16763,-1.1753,-0.27172,-0.17544,0,0,-0.91781,0.33,0.19,0.02,0
19662,1.7963e+07,1,90.11,-8.67,245.22,-0.15805,-1.1925,-0.26386,-0.16781,0,0,-0.92059,0.33,0.19,0.02,0
19703,1.7972e+07,1,89.78,-8.58,245.62,-0.14876,-1.2033,-0.25247,-0.15434,0,0,-0.92144,0.32,0.19,0.01,0
19743,1.7983e+07,1,89.36,-8.48,246.09,-0.14006,-1.2077,-0.24118,-0.13909,0,0,-0.92227,0.32,0.19,0.05,0
19784,1.7993e+07,1,88.96,-8.37,246.52,-0.13711,-1.2163,-0.22895,-0.12383,0,0,-0.92462,0.32,0.19,0.05,0
19825,1.8003e+07,1,88.49,-8.26,246.98,-0.12778,-1.2224,-0.21582,-0.10705,0,0,-0.92548,0.32,0.19,0.05,0
19866,1.8013e+07,1,88.1,-8.17,247.35,-0.12004,-1.2252,-0.20389,-0.09183,0,0,-0.92606,0.32,0.19,0.05,0
19907,1.8024e+07,1,87.6,-8.07,247.81,-0.11289,-1.2239,-0.18978,-0.076147,0,0,-0.9266,0.32,0.19,0.05,0
19951,1.8034e+07,1,87.11,-7.98,248.27,-0.11037,-1.2265,-0.17228,-0.054971,0,0,-0.9286,0.32,0.19,0.05,0
19994,1.8045e+07,1,86.66,-7.92,248.7,-0.10379,-1.2233,-0.15696,-0.037664,0,0,-0.92889,0.32,0.19,0.05,0
20034,1.8055e+07,1,86.26,-7.88,249.08,-0.09717,-1.2146,-0.13975,-0.018772,0,0,-0.92909,0.32,0.19,0.05,0
20075,1.8065e+07,1,85.81,-7.86,249.55,-0.09069,-1.2087,-0.119,0.0025735,0,0,-0.92919,0.32,0.19,0.05,0
20115,1.8078e+07,1,85.32,-7.87,250.13,-0.08178,-1.2024,-0.088309,0.034371,0,0,-0.92826,0.3,0.19,0.04,0
20155,1.8088e+07,1,85.01,-7.89,250.54,-0.069278,-1.1952,-0.069588,0.058189,0,0,-0.92687,0.3,0.19,0.06,0
20197,1.8098e+07,1,84.68,-7.94,251.03,-0.064145,-1.1974,-0.055833,0.078721,0,0,-0.92751,0.3,0.19,0.06,0
20238,1.8108e+07,1,84.37,-8,251.49,-0.049584,-1.2,-0.035736,0.10524,0,0,-0.92595,0.3,0.19,0.06,0
20279,1.8119e+07,1,84.07,-8.08,251.97,-0.038304,-1.1982,-0.0073091,0.13897,0,0,-0.9242,0.3,0.19,0.06,0
20320,1.8129e+07,1,83.82,-8.16,252.46,-0.021001,-1.2021,0.013853,0.16643,0,0,-0.9223,0.3,0.19,0.06,0
20366,1.814e+07,1,83.61,-8.24,252.88,-0.0087493,-1.2102,0.023185,0.17928,0,0,-0.92037,0.3,0.19,0.06,0
20407,1.8151e+07,1,83.37,-8.33,253.34,0.00010181,-1.2191,0.04083,0.20009,0,0,-0.92002,0.3,0.19,0.06,0
20447,1.816e+07,1,83.2,-8.4,253.72,0.016286,-1.222,0.062125,0.22077,0,0,-0.91781,0.3,0.19,0.06,0
20488,1.817e+07,1,83.02,-8.47,254.15,0.030676,-1.231,0.077184,0.23438,0,0,-0.9155,0.3,0.19,0.06,0
20532,1.8183e+07,1,82.84,-8.56,254.63,0.045318,-1.2439,0.091774,0.24969,0,0,-0.91142,0.28,0.19,0.08,0
20573,1.8193e+07,1,82.73,-8.6,254.94,0.058747,-1.251,0.10555,0.26615,0,0,-0.9076,0.28,0.19,0.08,0
20615,1.8204e+07,1,82.6,-8.63,255.33,0.065202,-1.2675,0.1121,0.28132,0,0,-0.9065,0.28,0.19,0.08,0
20655,1.8214e+07,1,82.5,-8.63,255.61,0.077322,-1.2787,0.11433,0.29072,0,0,-0.90255,0.28,0.19,0.08,0
20696,1.8225e+07,1,82.37,-8.61,255.92,0.085854,-1.2884,0.1162,0.29972,0,0,-0.89882,0.28,0.19,0.08,0
20740,1.8234e+07,1,82.27,-8.56,256.15,0.093703,-1.3025,0.11819,0.30563,0,0,-0.89765,0.28,0.19,0.08,0
20785,1.8245e+07,1,82.16,-8.48,256.42,0.10371,-1.3114,0.11997,0.31027,0,0,-0.89398,0.28,0.19,0.08,0
20826,1.8256e+07,1,82.07,-8.37,256.64,0.11683,-1.3226,0.11946,0.31432,0,0,-0.89032,0.28,0.19,0.08,0
20866,1.8266e+07,1,81.97,-8.22,256.86,0.12609,-1.3319,0.11478,0.30805,0,0,-0.88689,0.28,0.19,0.08,0
20908,1.8276e+07,1,81.83,-8.04,257.07,0.13818,-1.3355,0.11532,0.30951,0,0,-0.88349,0.28,0.19,0.08,0
20948,1.8287e+07,1,81.69,-7.86,257.24,0.14792,-1.339,0.1116,0.30819,0,0,-0.88234,0.28,0.19,0.08,0
20986,1.8298e+07,1,81.56,-7.65,257.42,0.15216,-1.34,0.10017,0.29694,0,0,-0.87918,0.27,0.19,0.09,0
21028,1.8308e+07,1,81.42,-7.46,257.57,0.16107,-1.3374,0.092227,0.28769,0,0,-0.87634,0.27,0.19,0.09,0
21068,1.8318e+07,1,81.27,-7.28,257.7,0.1638,-1.3328,0.095051,0.28613,0,0,-0.87538,0.27,0.19,0.09,0
21110,1.8329e+07,1,81.12,-7.1,257.88,0.17737,-1.3273,0.090089,0.27522,0,0,-0.87254,0.26,0.19,0.09,0
21154,1.8339e+07,1,80.96,-6.94,258.04,0.18438,-1.3205,0.074178,0.25029,0,0,-0.86996,0.26,0.19,0.09,0
21195,1.835e+07,1,80.77,-6.83,258.2,0.18862,-1.3102,0.060407,0.23049,0,0,-0.86924,0.26,0.19,0.09,0
21235,1.836e+07,1,80.55,-6.74,258.4,0.20206,-1.2953,0.056816,0.22096,0,0,-0.86701,0.26,0.19,0.09,0
21276,1.837e+07,1,80.39,-6.7,258.55,0.21342,-1.2853,0.050269,0.20913,0,0,-0.86492,0.26,0.19,0.09,0
21318,1.8383e+07,1,80.15,-6.69,258.78,0.2306,-1.2757,0.039301,0.19148,0,0,-0.86288,0.26,0.19,0.09,0
21359,1.8393e+07,1,79.96,-6.71,258.96,0.24397,-1.2645,0.035233,0.18555,0,0,-0.86018,0.25,0.19,0.07,0
21400,1.8403e+07,1,79.83,-6.75,259.1,0.25077,-1.264,0.030003,0.17786,0,0,-0.85985,0.25,0.19,0.07,0
21440,1.8413e+07,1,79.67,-6.83,259.28,0.26255,-1.2593,0.015609,0.15945,0,0,-0.85729,0.24,0.19,0.1,0
21480,1.8424e+07,1,79.54,-6.9,259.4,0.26788,-1.2633,0.0031939,0.14361,0,0,-0.8572,0.24,0.19,0.1,0
21520,1.8433e+07,1,79.43,-6.99,259.49,0.27544,-1.2604,-0.0087183,0.13065,0,0,-0.85502,0.24,0.19,0.1,0
21565,1.8444e+07,1,79.34,-7.07,259.57,0.28378,-1.2575,-0.026309,0.11448,0,0,-0.85313,0.24,0.19,0.1,0
21609,1.8454e+07,1,79.24,-7.19,259.64,0.29113,-1.2538,-0.044943,0.097646,0,0,-0.85153,0.24,0.19,0.1,0
21649,1.8464e+07,1,79.15,-7.3,259.67,0.29791,-1.2547,-0.062844,0.079019,0,0,-0.85021,0.24,0.19,0.1,0
21690,1.8474e+07,1,79.07,-7.4,259.7,0.30482,-1.2596,-0.08436,0.059357,0,0,-0.85102,0.24,0.19,0.1,0
21733,1.8488e+07,1,78.95,-7.53,259.69,0.31545,-1.2557,-0.10668,0.036532,0,0,-0.85051,0.24,0.19,0.1,0
21776,1.8498e+07,1,78.83,-7.65,259.67,0.32703,-1.2552,-0.11978,0.025261,0,0,-0.84939,0.22,0.19,0.08,0
21817,1.8509e+07,1,78.73,-7.74,259.62,0.33864,-1.2533,-0.1296,0.019492,0,0,-0.84835,0.23,0.19,0.11,0
21857,1.852e+07,1,78.59,-7.86,259.54,0.34424,-1.2544,-0.14114,0.0074949,0,0,-0.84985,0.23,0.19,0.11,0
21898,1.853e+07,1,78.45,-7.95,259.47,0.3527,-1.2486,-0.14706,-0.00062775,0,0,-0.84908,0.22,0.19,0.11,0
21938,1.854e+07,1,78.28,-8.08,259.38,0.3599,-1.2415,-0.14987,-0.0039751,0,0,-0.84851,0.22,0.19,0.11,0
21984,1.855e+07,1,78.14,-8.19,259.3,0.36347,-1.2383,-0.14894,-0.0031213,0,0,-0.84999,0.22,0.19,0.11,0
22024,1.856e+07,1,77.97,-8.35,259.21,0.37084,-1.2265,-0.14618,-0.00081127,0,0,-0.84949,0.22,0.19,0.11,0
22065,1.8571e+07,1,77.81,-8.52,259.13,0.3798,-1.215,-0.14057,0.0042703,0,0,-0.8492,0.22,0.19,0.11,0
22107,1.858e+07,1,77.63,-8.72,259.04,0.38442,-1.2069,-0.12669,0.017883,0,0,-0.8488,0.22,0.19,0.11,0
22144,1.8591e+07,1,77.5,-8.89,258.98,0.39029,-1.1945,-0.11403,0.030495,0,0,-0.84832,0.22,0.19,0.11,0
22187,1.8604e+07,1,77.32,-9.18,258.89,0.39377,-1.1732,-0.10015,0.045609,0,0,-0.84734,0.21,0.19,0.11,0
22227,1.8614e+07,1,77.16,-9.44,258.83,0.39747,-1.165,-0.079617,0.0668,0,0,-0.84599,0.21,0.19,0.11,0
22268,1.8624e+07,1,77.02,-9.73,258.78,0.39662,-1.1617,-0.063618,0.086996,0,0,-0.84669,0.21,0.19,0.11,0
22309,1.8635e+07,1,76.92,-9.99,258.75,0.39623,-1.1497,-0.051977,0.10103,0,0,-0.84517,0.21,0.19,0.11,0
22349,1.8645e+07,1,76.8,-10.22,258.72,0.40174,-1.1483,-0.034858,0.12191,0,0,-0.8436,0.21,0.19,0.11,0
22399,1.8658e+07,1,76.66,-10.57,258.66,0.39715,-1.1507,0.0027723,0.16219,0,0,-0.84189,0.21,0.19,0.11,0
22440,1.8668e+07,1,76.59,-10.78,258.62,0.39748,-1.1434,0.011328,0.17101,0,0,-0.84001,0.21,0.19,0.11,0
22481,1.8679e+07,1,76.47,-11,258.57,0.39109,-1.1442,0.019785,0.17748,0,0,-0.83985,0.21,0.19,0.11,0
22522,1.869e+07,1,76.35,-11.17,258.52,0.39348,-1.1506,0.043676,0.19579,0,0,-0.83776,0.2,0.19,0.11,0
22559,1.87e+07,1,76.26,-11.36,258.45,0.39191,-1.1433,0.064064,0.20992,0,0,-0.83684,0.19,0.19,0.11,0
22600,1.871e+07,1,76.22,-11.48,258.39,0.38589,-1.1299,0.072081,0.20993,0,0,-0.83594,0.19,0.19,0.11,0
22641,1.872e+07,1,76.18,-11.57,258.34,0.38187,-1.128,0.081657,0.20732,0,0,-0.83487,0.19,0.19,0.11,0
22681,1.8731e+07,1,76.19,-11.63,258.29,0.37552,-1.1313,0.098251,0.2114,0,0,-0.83397,0.19,0.19,0.11,0
22724,1.8741e+07,1,76.25,-11.66,258.24,0.36516,-1.119,0.10427,0.20432,0,0,-0.83274,0.19,0.19,0.11,0
22768,1.8751e+07,1,76.32,-11.65,258.19,0.35666,-1.1111,0.099491,0.18488,0,0,-0.83143,0.19,0.19,0.11,0
22809,1.8761e+07,1,76.39,-11.61,258.15,0.34421,-1.109,0.10169,0.17414,0,0,-0.83028,0.19,0.19,0.11,0
22849,1.8772e+07,1,76.48,-11.57,258.12,0.34174,-1.094,0.10747,0.16757,0,0,-0.82923,0.19,0.19,0.11,0
22891,1.8782e+07,1,76.64,-11.51,258.12,0.34004,-1.065,0.10546,0.15406,0,0,-0.82805,0.19,0.19,0.11,0
22931,1.8792e+07,1,76.86,-11.43,258.17,0.33016,-1.0592,0.10043,0.1371,0,0,-0.82681,0.19,0.19,0.11,0
22969,1.8803e+07,1,77.08,-11.36,258.24,0.33043,-1.0533,0.086505,0.11235,0,0,-0.82577,0.19,0.19,0.11,0
23008,1.8814e+07,1,77.33,-11.28,258.34,0.32738,-1.0197,0.074057,0.091411,0,0,-0.82481,0.17,0.19,0.1,0
23048,1.8824e+07,1,77.58,-11.21,258.47,0.32805,-1.0036,0.061551,0.071616,0,0,-0.82399,0.17,0.19,0.1,0
23089,1.8834e+07,1,77.82,-11.15,258.6,0.33219,-1.0054,0.03616,0.039833,0,0,-0.82349,0.17,0.19,0.1,0
23132,1.8844e+07,1,78.07,-11.1,258.78,0.32895,-0.98498,0.0081721,0.0067683,0,0,-0.82317,0.17,0.19,0.1,0
23179,1.8855e+07,1,78.29,-11.05,258.99,0.33195,-0.97322,-0.021005,-0.027637,0,0,-0.82324,0.17,0.19,0.1,0
23219,1.8865e+07,1,78.49,-11.03,259.2,0.33591,-0.96437,-0.045133,-0.055379,0,0,-0.82347,0.16,0.19,0.1,0
23260,1.8876e+07,1,78.69,-11.02,259.45,0.33343,-0.94728,-0.073878,-0.087337,0,0,-0.82407,0.17,0.19,0.1,0
23301,1.8886e+07,1,78.9,-11.03,259.72,0.33536,-0.931,-0.10557,-0.12162,0,0,-0.82503,0.17,0.19,0.1,0
23341,1.8896e+07,1,79.09,-11.06,259.97,0.33552,-0.92713,-0.13247,-0.15045,0,0,-0.82621,0.17,0.19,0.1,0
23382,1.8909e+07,1,79.28,-11.11,260.27,0.33624,-0.91717,-0.17507,-0.19437,0,0,-0.82698,0.15,0.19,0.1,0
23422,1.8919e+07,1,79.41,-11.17,260.54,0.33442,-0.9132,-0.21235,-0.22739,0,0,-0.82812,0.15,0.19,0.1,0
23463,1.8929e+07,1,79.49,-11.23,260.78,0.33287,-0.92252,-0.24555,-0.25524,0,0,-0.83042,0.15,0.19,0.1,0
23503,1.8939e+07,1,79.53,-11.28,260.98,0.33351,-0.92006,-0.2794,-0.28271,0,0,-0.8321,0.15,0.19,0.1,0
23544,1.895e+07,1,79.55,-11.35,261.22,0.33474,-0.91596,-0.31251,-0.30855,0,0,-0.83421,0.15,0.19,0.1,0
23590,1.896e+07,1,79.54,-11.4,261.4,0.3394,-0.91768,-0.33926,-0.32824,0,0,-0.83667,0.15,0.19,0.1,0
23630,1.897e+07,1,79.5,-11.46,261.61,0.34448,-0.92188,-0.36167,-0.34436,0,0,-0.83945,0.15,0.19,0.1,0
23671,1.898e+07,1,79.44,-11.49,261.77,0.34911,-0.93176,-0.38036,-0.35728,0,0,-0.84315,0.15,0.19,0.1,0
23711,1.899e+07,1,79.33,-11.5,261.95,0.353,-0.93767,-0.39311,-0.36527,0,0,-0.84634,0.15,0.19,0.1,0
23752,1.9e+07,1,79.21,-11.49,262.1,0.35824,-0.94298,-0.39716,-0.36138,0,0,-0.84798,0.13,0.19,0.07,0
23789,1.9011e+07,1,79.08,-11.44,262.23,0.36045,-0.94264,-0.39741,-0.34939,0,0,-0.84941,0.13,0.19,0.09,0
23830,1.9021e+07,1,78.97,-11.36,262.35,0.36519,-0.94834,-0.39697,-0.3344,0,0,-0.85345,0.13,0.19,0.09,0
23871,1.903e+07,1,78.88,-11.25,262.45,0.37093,-0.94925,-0.3898,-0.31745,0,0,-0.85484,0.13,0.19,0.09,0
23912,1.9041e+07,1,78.79,-11.11,262.54,0.37596,-0.95056,-0.38029,-0.29469,0,0,-0.85638,0.13,0.19,0.09,0
23956,1.9052e+07,1,78.72,-10.92,262.64,0.38421,-0.94831,-0.36711,-0.2672,0,0,-0.85825,0.13,0.19,0.09,0
24000,1.9062e+07,1,78.65,-10.69,262.73,0.39002,-0.94683,-0.35189,-0.23688,0,0,-0.86012,0.13,0.19,0.09,0
24041,1.9073e+07,1,78.6,-10.46,262.82,0.39873,-0.94783,-0.3372,-0.20786,0,0,-0.86357,0.13,0.19,0.09,0
24082,1.9083e+07,1,78.57,-10.23,262.89,0.40724,-0.94038,-0.32303,-0.18219,0,0,-0.86488,0.13,0.19,0.09,0
24122,1.9093e+07,1,78.54,-9.94,262.99,0.41548,-0.93177,-0.30975,-0.15881,0,0,-0.86617,0.13,0.19,0.09,0
24161,1.9105e+07,1,78.51,-9.61,263.13,0.42834,-0.91733,-0.28935,-0.12201,0,0,-0.86609,0.12,0.19,0.07,0
24201,1.9115e+07,1,78.5,-9.4,263.23,0.43473,-0.90593,-0.26887,-0.086319,0,0,-0.86508,0.12,0.19,0.09,0
24242,1.9125e+07,1,78.52,-9.15,263.36,0.44175,-0.89422,-0.24772,-0.045699,0,0,-0.86405,0.12,0.19,0.09,0
24283,1.9135e+07,1,78.55,-8.96,263.48,0.45003,-0.88233,-0.2252,-0.0050476,0,0,-0.86298,0.12,0.19,0.09,0
24325,1.9145e+07,1,78.61,-8.75,263.65,0.4562,-0.87493,-0.20443,0.031501,0,0,-0.86513,0.12,0.19,0.09,0
24366,1.9155e+07,1,78.67,-8.59,263.78,0.46111,-0.86266,-0.18126,0.067511,0,0,-0.86375,0.12,0.19,0.09,0
24412,1.9166e+07,1,78.79,-8.41,263.95,0.46687,-0.85262,-0.15859,0.10236,0,0,-0.86233,0.12,0.19,0.09,0
24454,1.9176e+07,1,78.91,-8.26,264.11,0.47039,-0.84453,-0.13684,0.13346,0,0,-0.86096,0.12,0.19,0.09,0
24494,1.9186e+07,1,79.07,-8.1,264.28,0.47517,-0.83967,-0.11817,0.15806,0,0,-0.85941,0.12,0.19,0.09,0
24535,1.9196e+07,1,79.24,-7.97,264.43,0.47908,-0.84052,-0.10474,0.17486,0,0,-0.86042,0.12,0.19,0.09,0
24572,1.9207e+07,1,79.44,-7.82,264.58,0.48185,-0.8341,-0.086253,0.19352,0,0,-0.85777,0.1,0.19,0.07,0
24613,1.9217e+07,1,79.6,-7.7,264.69,0.48465,-0.83069,-0.072854,0.20243,0,0,-0.8549,0.1,0.19,0.09,0
24654,1.9228e+07,1,79.82,-7.53,264.82,0.49012,-0.83716,-0.064651,0.21407,0,0,-0.85566,0.1,0.19,0.09,0
24696,1.9239e+07,1,79.96,-7.4,264.9,0.49494,-0.83507,-0.060912,0.21872,0,0,-0.85278,0.1,0.19,0.09,0
24739,1.925e+07,1,80.12,-7.22,264.99,0.4986,-0.83512,-0.05843,0.21943,0,0,-0.8501,0.1,0.19,0.09,0
24781,1.926e+07,1,80.21,-7.07,265.04,0.50176,-0.83591,-0.055247,0.22306,0,0,-0.84749,0.1,0.19,0.09,0
24826,1.927e+07,1,80.31,-6.89,265.08,0.50437,-0.83491,-0.051628,0.22666,0,0,-0.84506,0.1,0.19,0.09,0
24866,1.9281e+07,1,80.41,-6.69,265.1,0.508,-0.83346,-0.04886,0.23097,0,0,-0.8427,0.1,0.19,0.09,0
24907,1.9291e+07,1,80.49,-6.5,265.11,0.51131,-0.83701,-0.048744,0.23464,0,0,-0.84324,0.1,0.19,0.09,0
24946,1.9301e+07,1,80.56,-6.29,265.1,0.51413,-0.83444,-0.048629,0.23434,0,0,-0.841,0.1,0.19,0.09,0
24983,1.9312e+07,1,80.62,-6.1,265.09,0.51629,-0.8294,-0.052357,0.23332,0,0,-0.83746,0.08,0.19,0.07,0
25024,1.9322e+07,1,80.67,-5.88,265.08,0.51976,-0.82973,-0.059876,0.22306,0,0,-0.83803,0.08,0.19,0.07,0
25064,1.9332e+07,1,80.7,-5.69,265.06,0.52647,-0.8226,-0.065066,0.21576,0,0,-0.83479,0.08,0.19,0.09,0
25105,1.9342e+07,1,80.74,-5.49,265.03,0.53432,-0.81559,-0.071714,0.20868,0,0,-0.83174,0.08,0.19,0.09,0
25148,1.9352e+07,1,80.77,-5.34,265,0.54172,-0.80814,-0.076854,0.19953,0,0,-0.82892,0.08,0.19,0.09,0
25188,1.9363e+07,1,80.8,-5.17,264.96,0.55131,-0.7998,-0.081444,0.19633,0,0,-0.82633,0.08,0.19,0.09,0
25233,1.9373e+07,1,80.83,-5.03,264.91,0.561,-0.79746,-0.089892,0.19366,0,0,-0.8272,0.08,0.19,0.09,0
25273,1.9384e+07,1,80.86,-4.89,264.87,0.57042,-0.79075,-0.095399,0.18906,0,0,-0.82498,0.08,0.19,0.09,0
25315,1.9394e+07,1,80.89,-4.79,264.82,0.58043,-0.78522,-0.099864,0.18467,0,0,-0.82287,0.08,0.19,0.09,0
25355,1.9404e+07,1,80.93,-4.69,264.75,0.58957,-0.77758,-0.10545,0.17689,0,0,-0.82097,0.08,0.19,0.09,0
25399,1.9417e+07,1,80.99,-4.58,264.67,0.60069,-0.76948,-0.11491,0.16783,0,0,-0.81759,0.07,0.19,0.07,0
25440,1.9427e+07,1,81.03,-4.52,264.59,0.60926,-0.76326,-0.12025,0.16376,0,0,-0.81412,0.07,0.19,0.09,0
25480,1.9438e+07,1,81.08,-4.45,264.47,0.61734,-0.76109,-0.12743,0.16842,0,0,-0.81549,0.07,0.19,0.09,0
25523,1.9448e+07,1,81.14,-4.4,264.34,0.62464,-0.75452,-0.13162,0.17197,0,0,-0.81246,0.07,0.19,0.09,0
25564,1.9459e+07,1,81.19,-4.35,264.2,0.62974,-0.74999,-0.13702,0.17614,0,0,-0.80957,0.07,0.19,0.09,0
25605,1.9469e+07,1,81.24,-4.31,264.04,0.63448,-0.7443,-0.14468,0.17156,0,0,-0.80693,0.07,0.19,0.09,0
25649,1.9479e+07,1,81.27,-4.27,263.87,0.63729,-0.73914,-0.15332,0.16571,0,0,-0.80457,0.07,0.19,0.09,0
25691,1.9489e+07,1,81.28,-4.22,263.66,0.63983,-0.74395,-0.16383,0.16262,0,0,-0.80631,0.07,0.19,0.09,0
25731,1.9499e+07,1,81.26,-4.19,263.48,0.64288,-0.74072,-0.16923,0.16002,0,0,-0.80428,0.07,0.19,0.09,0
25771,1.9512e+07,1,81.2,-4.14,263.19,0.6476,-0.7337,-0.17685,0.15591,0,0,-0.80303,0.07,0.19,0.09,0
25809,1.9523e+07,1,81.13,-4.11,262.94,0.65064,-0.72717,-0.18166,0.15237,0,0,-0.80117,0.05,0.19,0.09,0
