LineNo,TimeUS,Roll,Pitch,Yaw,Alt,Lat,Lng,Q1,Q2,Q3,Q4
317,1.6419e+09,-0.97,2.39,19.59,85.55,43.601,13.482,0.98514,-0.011981,0.019164,0.17024
545,1.6419e+09,-0.97,2.4,19.59,85.68,43.601,13.482,0.98514,-0.011969,0.019239,0.17024
999,1.642e+09,-0.96,2.42,19.58,85.68,43.601,13.482,0.98515,-0.011916,0.019391,0.17017
1113,1.6421e+09,-0.97,2.43,19.58,85.68,43.601,13.482,0.98515,-0.011955,0.019457,0.17015
1220,1.6422e+09,-0.96,2.43,19.59,85.64,43.601,13.482,0.98515,-0.011951,0.019495,0.17019
1331,1.6422e+09,-0.97,2.43,19.59,85.64,43.601,13.482,0.98514,-0.012004,0.019527,0.17024
1510,1.6423e+09,-0.98,2.43,19.59,85.64,43.601,13.482,0.98513,-0.012058,0.019463,0.17026
1692,1.6423e+09,-0.98,2.43,19.59,85.59,43.601,13.482,0.98513,-0.012081,0.019452,0.17025
1736,1.6423e+09,-0.98,2.43,19.59,85.59,43.601,13.482,0.98514,-0.012085,0.019447,0.17025
1781,1.6423e+09,-0.98,2.43,19.59,85.59,43.601,13.482,0.98514,-0.012092,0.01945,0.17025
1825,1.6423e+09,-0.98,2.43,19.59,85.59,43.601,13.482,0.98514,-0.012096,0.019445,0.17024
1870,1.6423e+09,-0.98,2.43,19.59,85.59,43.601,13.482,0.98514,-0.012095,0.01943,0.17023
1917,1.6424e+09,-0.98,2.42,19.59,85.59,43.601,13.482,0.98514,-0.01209,0.019425,0.17023
1960,1.6424e+09,-0.98,2.43,19.59,85.59,43.601,13.482,0.98514,-0.01209,0.019438,0.17022
2002,1.6424e+09,-0.98,2.43,19.59,85.59,43.601,13.482,0.98514,-0.012098,0.019452,0.17022
2050,1.6424e+09,-0.98,2.43,19.59,85.26,43.601,13.482,0.98514,-0.012102,0.01947,0.17022
2093,1.6424e+09,-0.98,2.43,19.59,85.26,43.601,13.482,0.98514,-0.012106,0.019489,0.17019
2135,1.6424e+09,-0.98,2.43,19.58,85.26,43.601,13.482,0.98515,-0.012111,0.019508,0.17017
2181,1.6424e+09,-0.98,2.44,19.58,85.26,43.601,13.482,0.98515,-0.012117,0.019529,0.17014
2225,1.6424e+09,-0.98,2.44,19.58,85.26,43.601,13.482,0.98515,-0.012126,0.019549,0.17012
2267,1.6425e+09,-0.98,2.44,19.58,85.26,43.601,13.482,0.98516,-0.012127,0.019583,0.17011
2311,1.6425e+09,-0.98,2.45,19.57,85.26,43.601,13.482,0.98516,-0.012115,0.019609,0.17009
2353,1.6425e+09,-0.98,2.45,19.57,85.26,43.601,13.482,0.98516,-0.012103,0.019628,0.17007
2396,1.6425e+09,-0.98,2.45,19.57,85.26,43.601,13.482,0.98516,-0.012093,0.019642,0.17006
2439,1.6425e+09,-0.98,2.45,19.57,85.26,43.601,13.482,0.98517,-0.012088,0.019658,0.17004
2485,1.6425e+09,-0.98,2.45,19.57,85.47,43.601,13.482,0.98517,-0.012079,0.019673,0.17004
2529,1.6425e+09,-0.97,2.45,19.57,85.47,43.601,13.482,0.98517,-0.012069,0.019695,0.17005
2571,1.6425e+09,-0.97,2.46,19.57,85.47,43.601,13.482,0.98516,-0.012062,0.019718,0.17005
2614,1.6425e+09,-0.97,2.46,19.57,85.47,43.601,13.482,0.98516,-0.012046,0.019729,0.17006
2659,1.6425e+09,-0.97,2.46,19.57,85.47,43.601,13.482,0.98516,-0.012036,0.019751,0.17006
2707,1.6426e+09,-0.97,2.46,19.57,85.47,43.601,13.482,0.98516,-0.012046,0.01975,0.17006
2752,1.6426e+09,-0.97,2.46,19.57,85.47,43.601,13.482,0.98516,-0.01206,0.019759,0.17006
2797,1.6426e+09,-0.97,2.46,19.57,85.47,43.601,13.482,0.98516,-0.012074,0.019757,0.17005
2842,1.6426e+09,-0.98,2.46,19.57,85.47,43.601,13.482,0.98516,-0.012092,0.019754,0.17006
2891,1.6426e+09,-0.98,2.46,19.57,85.54,43.601,13.482,0.98516,-0.012103,0.019753,0.17005
2935,1.6426e+09,-0.98,2.46,19.57,85.54,43.601,13.482,0.98516,-0.012112,0.019737,0.17005
2982,1.6426e+09,-0.98,2.46,19.57,85.54,43.601,13.482,0.98516,-0.012118,0.01973,0.17005
3026,1.6426e+09,-0.98,2.46,19.57,85.54,43.601,13.482,0.98516,-0.012116,0.019725,0.17006
3071,1.6426e+09,-0.98,2.46,19.57,85.54,43.601,13.482,0.98516,-0.012108,0.019722,0.17006
3115,1.6427e+09,-0.98,2.46,19.57,85.54,43.601,13.482,0.98516,-0.012104,0.019724,0.17006
3160,1.6427e+09,-0.98,2.46,19.57,85.54,43.601,13.482,0.98516,-0.012098,0.019721,0.17006
3205,1.6427e+09,-0.98,2.46,19.57,85.54,43.601,13.482,0.98516,-0.012092,0.01972,0.17006
3249,1.6427e+09,-0.98,2.46,19.57,85.54,43.601,13.482,0.98516,-0.01209,0.019719,0.17006
3296,1.6427e+09,-0.98,2.46,19.57,85.54,43.601,13.482,0.98516,-0.012088,0.019724,0.17006
3346,1.6427e+09,-0.98,2.46,19.57,85.73,43.601,13.482,0.98516,-0.012101,0.019716,0.17006
3392,1.6427e+09,-0.98,2.46,19.57,85.73,43.601,13.482,0.98516,-0.012104,0.019715,0.17005
3436,1.6427e+09,-0.98,2.46,19.57,85.73,43.601,13.482,0.98517,-0.012114,0.019706,0.17004
3481,1.6427e+09,-0.98,2.46,19.57,85.73,43.601,13.482,0.98517,-0.012131,0.019693,0.17003
3526,1.6427e+09,-0.98,2.45,19.57,85.73,43.601,13.482,0.98517,-0.01214,0.019681,0.17003
3573,1.6428e+09,-0.98,2.45,19.57,85.73,43.601,13.482,0.98517,-0.012155,0.019667,0.17002
3615,1.6428e+09,-0.99,2.45,19.56,85.73,43.601,13.482,0.98517,-0.01217,0.019656,0.17001
3659,1.6428e+09,-0.99,2.45,19.56,85.73,43.601,13.482,0.98517,-0.012181,0.019651,0.17001
3705,1.6428e+09,-0.99,2.45,19.56,85.73,43.601,13.482,0.98517,-0.012193,0.019655,0.17
3750,1.6428e+09,-0.99,2.45,19.56,85.73,43.601,13.482,0.98517,-0.012203,0.019655,0.17002
3798,1.6428e+09,-0.99,2.45,19.56,85.5,43.601,13.482,0.98517,-0.012219,0.019664,0.16999
3843,1.6428e+09,-0.99,2.45,19.56,85.5,43.601,13.482,0.98517,-0.012227,0.019664,0.16999
3887,1.6428e+09,-0.99,2.45,19.56,85.5,43.601,13.482,0.98517,-0.012233,0.01967,0.16998
3932,1.6428e+09,-0.99,2.45,19.56,85.5,43.601,13.482,0.98518,-0.012234,0.019667,0.16997
3977,1.6429e+09,-0.99,2.45,19.56,85.5,43.601,13.482,0.98518,-0.01223,0.019657,0.16997
4021,1.6429e+09,-0.99,2.45,19.56,85.5,43.601,13.482,0.98518,-0.012231,0.019645,0.16996
4066,1.6429e+09,-0.99,2.45,19.56,85.5,43.601,13.482,0.98518,-0.012233,0.019627,0.16996
4110,1.6429e+09,-1,2.45,19.56,85.5,43.601,13.482,0.98518,-0.012244,0.019623,0.16995
4155,1.6429e+09,-1,2.45,19.56,85.5,43.601,13.482,0.98518,-0.012258,0.019622,0.16995
4200,1.6429e+09,-1,2.45,19.56,85.5,43.601,13.482,0.98518,-0.01227,0.019605,0.16994
4249,1.6429e+09,-1,2.45,19.56,85.6,43.601,13.482,0.98518,-0.012278,0.019607,0.16994
4294,1.6429e+09,-1,2.45,19.56,85.6,43.601,13.482,0.98518,-0.012296,0.019613,0.16994
4338,1.6429e+09,-1,2.45,19.55,85.6,43.601,13.482,0.98518,-0.012295,0.019617,0.16993
4381,1.6429e+09,-1,2.45,19.55,85.6,43.601,13.482,0.98519,-0.012299,0.019611,0.16992
4423,1.643e+09,-1,2.45,19.55,85.6,43.601,13.482,0.98519,-0.012296,0.019603,0.16991
4466,1.643e+09,-1,2.45,19.55,85.6,43.601,13.482,0.98519,-0.012288,0.019575,0.16992
4510,1.643e+09,-1,2.44,19.55,85.6,43.601,13.482,0.98519,-0.01228,0.019561,0.16992
4552,1.643e+09,-1,2.44,19.55,85.6,43.601,13.482,0.98519,-0.012278,0.019555,0.16991
4595,1.643e+09,-1,2.44,19.55,85.6,43.601,13.482,0.98519,-0.012267,0.019538,0.16992
4637,1.643e+09,-1,2.44,19.55,85.6,43.601,13.482,0.98519,-0.01226,0.019532,0.16993
4686,1.643e+09,-1,2.44,19.55,85.62,43.601,13.482,0.98519,-0.012258,0.019531,0.16992
4729,1.643e+09,-1,2.44,19.55,85.62,43.601,13.482,0.98519,-0.012253,0.019523,0.16992
4772,1.643e+09,-1,2.44,19.55,85.62,43.601,13.482,0.98519,-0.012263,0.019525,0.16991
4815,1.6431e+09,-1,2.44,19.55,85.62,43.601,13.482,0.98519,-0.012274,0.019523,0.1699
4857,1.6431e+09,-1,2.44,19.55,85.62,43.601,13.482,0.98519,-0.012273,0.019513,0.1699
4900,1.6431e+09,-1,2.44,19.55,85.62,43.601,13.482,0.98519,-0.012278,0.019509,0.16989
4943,1.6431e+09,-1,2.44,19.55,85.62,43.601,13.482,0.98519,-0.012277,0.019502,0.16989
4986,1.6431e+09,-1,2.44,19.55,85.62,43.601,13.482,0.98519,-0.012272,0.019495,0.16989
5029,1.6431e+09,-1,2.43,19.55,85.62,43.601,13.482,0.9852,-0.012268,0.019482,0.16988
5072,1.6431e+09,-1,2.43,19.55,85.62,43.601,13.482,0.9852,-0.01226,0.019477,0.16988
5119,1.6431e+09,-1,2.43,19.55,85.68,43.601,13.482,0.9852,-0.012243,0.01947,0.16986
5162,1.6431e+09,-1,2.43,19.54,85.68,43.601,13.482,0.9852,-0.012236,0.019459,0.16984
5205,1.6431e+09,-1,2.43,19.54,85.68,43.601,13.482,0.98521,-0.012229,0.019445,0.16982
5245,1.6432e+09,-1,2.43,19.54,85.68,43.601,13.482,0.98521,-0.012218,0.019446,0.16981
5289,1.6432e+09,-1,2.43,19.54,85.68,43.601,13.482,0.98521,-0.01222,0.019455,0.1698
5334,1.6432e+09,-1,2.43,19.54,85.68,43.601,13.482,0.98521,-0.012222,0.019471,0.1698
5378,1.6432e+09,-1,2.43,19.54,85.68,43.601,13.482,0.98521,-0.012227,0.01949,0.16979
5423,1.6432e+09,-1,2.44,19.54,85.68,43.601,13.482,0.98521,-0.01224,0.019505,0.16978
5467,1.6432e+09,-1,2.44,19.54,85.68,43.601,13.482,0.98521,-0.01226,0.019513,0.16978
5512,1.6432e+09,-1,2.44,19.54,85.68,43.601,13.482,0.98521,-0.012268,0.019529,0.16977
5561,1.6432e+09,-1,2.44,19.54,85.7,43.601,13.482,0.98521,-0.012273,0.019531,0.16976
5606,1.6432e+09,-1,2.44,19.53,85.7,43.601,13.482,0.98522,-0.012279,0.019547,0.16975
5650,1.6432e+09,-1,2.44,19.53,85.7,43.601,13.482,0.98522,-0.01229,0.019553,0.16974
5695,1.6433e+09,-1,2.44,19.53,85.7,43.601,13.482,0.98522,-0.0123,0.019561,0.16974
5740,1.6433e+09,-1,2.44,19.53,85.7,43.601,13.482,0.98522,-0.012307,0.019569,0.16973
5784,1.6433e+09,-1,2.45,19.53,85.7,43.601,13.482,0.98522,-0.012312,0.019583,0.16971
5832,1.6433e+09,-1,2.45,19.53,85.7,43.601,13.482,0.98522,-0.012316,0.019607,0.16971
5877,1.6433e+09,-1.01,2.45,19.53,85.7,43.601,13.482,0.98522,-0.012324,0.019631,0.16971
5922,1.6433e+09,-1.01,2.45,19.53,85.7,43.601,13.482,0.98522,-0.012325,0.019641,0.16971
5966,1.6433e+09,-1,2.46,19.53,85.7,43.601,13.482,0.98522,-0.01232,0.019668,0.16974
6016,1.6433e+09,-1,2.46,19.54,85.59,43.601,13.482,0.98521,-0.012288,0.019683,0.1698
6060,1.6433e+09,-1,2.46,19.55,85.59,43.601,13.482,0.9852,-0.012293,0.019702,0.16985
6103,1.6434e+09,-1,2.46,19.55,85.59,43.601,13.482,0.98519,-0.012251,0.01969,0.16991
6147,1.6434e+09,-0.99,2.46,19.55,85.59,43.601,13.482,0.98519,-0.012188,0.019694,0.16992
6192,1.6434e+09,-1,2.46,19.55,85.59,43.601,13.482,0.98519,-0.012271,0.0197,0.16992
6239,1.6434e+09,-1.01,2.46,19.55,85.59,43.601,13.482,0.98519,-0.012367,0.019732,0.16987
6284,1.6434e+09,-1,2.47,19.54,85.59,43.601,13.482,0.98521,-0.012334,0.01975,0.16977
6328,1.6434e+09,-1,2.47,19.53,85.59,43.601,13.482,0.98522,-0.012298,0.01976,0.1697
6373,1.6434e+09,-1,2.46,19.52,85.59,43.601,13.482,0.98523,-0.012292,0.019709,0.16963
6420,1.6434e+09,-1,2.46,19.51,85.59,43.601,13.482,0.98525,-0.012247,0.019717,0.16952
6467,1.6434e+09,-1,2.46,19.5,85.42,43.601,13.482,0.98526,-0.012254,0.019681,0.16947
6511,1.6434e+09,-1.01,2.46,19.5,85.42,43.601,13.482,0.98527,-0.012411,0.019673,0.16943
6555,1.6435e+09,-1.01,2.46,19.5,85.42,43.601,13.482,0.98526,-0.012414,0.019724,0.16945
6603,1.6435e+09,-1.01,2.46,19.51,85.42,43.601,13.482,0.98525,-0.012392,0.019725,0.16951
6647,1.6435e+09,-1,2.46,19.51,85.42,43.601,13.482,0.98524,-0.012321,0.019724,0.16958
6692,1.6435e+09,-1,2.45,19.52,85.42,43.601,13.482,0.98523,-0.012273,0.01966,0.16964
6737,1.6435e+09,-1,2.46,19.53,85.42,43.601,13.482,0.98522,-0.012267,0.019706,0.16973
6782,1.6435e+09,-1,2.46,19.54,85.42,43.601,13.482,0.98521,-0.01227,0.01975,0.16977
6827,1.6435e+09,-1,2.47,19.54,85.42,43.601,13.482,0.9852,-0.012294,0.019804,0.16979
6875,1.6435e+09,-1,2.47,19.53,85.59,43.601,13.482,0.98521,-0.012283,0.019787,0.16974
6922,1.6435e+09,-0.99,2.46,19.53,85.59,43.601,13.482,0.98523,-0.012192,0.019717,0.16968
6965,1.6436e+09,-0.99,2.46,19.51,85.59,43.601,13.482,0.98525,-0.0122,0.01973,0.16956
7007,1.6436e+09,-0.98,2.46,19.5,85.59,43.601,13.482,0.98526,-0.012131,0.019768,0.1695
7055,1.6436e+09,-0.99,2.47,19.5,85.59,43.601,13.482,0.98526,-0.012169,0.019782,0.16947
7098,1.6436e+09,-1,2.47,19.49,85.59,43.601,13.482,0.98527,-0.012269,0.019797,0.16941
7140,1.6436e+09,-1,2.47,19.49,85.59,43.601,13.482,0.98528,-0.012299,0.019769,0.16936
7184,1.6436e+09,-0.99,2.46,19.49,85.59,43.601,13.482,0.98529,-0.012172,0.019751,0.16933
7227,1.6436e+09,-0.99,2.48,19.49,85.59,43.601,13.482,0.98528,-0.012231,0.019869,0.16938
7273,1.6436e+09,-1,2.48,19.5,85.59,43.601,13.482,0.98526,-0.012319,0.019844,0.16949
7316,1.6436e+09,-1,2.47,19.51,85.4,43.601,13.482,0.98525,-0.012299,0.019827,0.16953
7359,1.6437e+09,-1,2.47,19.51,85.4,43.601,13.482,0.98524,-0.012302,0.019823,0.16957
7404,1.6437e+09,-0.99,2.46,19.52,85.4,43.601,13.482,0.98524,-0.012198,0.019739,0.16961
7446,1.6437e+09,-0.97,2.48,19.52,85.4,43.601,13.482,0.98523,-0.012087,0.019883,0.16964
7486,1.6437e+09,-0.99,2.47,19.52,85.4,43.601,13.482,0.98523,-0.012237,0.019822,0.16963
7528,1.6437e+09,-1,2.48,19.53,85.4,43.601,13.482,0.98521,-0.012353,0.019865,0.16973
7572,1.6437e+09,-1,2.47,19.52,85.4,43.601,13.482,0.98524,-0.012296,0.019781,0.16959
7615,1.6437e+09,-0.97,2.48,19.51,85.4,43.601,13.482,0.98524,-0.012034,0.019907,0.16958
7658,1.6437e+09,-0.98,2.48,19.49,85.4,43.601,13.482,0.98528,-0.012125,0.019918,0.16937
7710,1.6437e+09,-0.99,2.48,19.5,85.56,43.601,13.482,0.98526,-0.01222,0.019875,0.16946
7756,1.6438e+09,-0.98,2.46,19.47,85.56,43.601,13.482,0.98531,-0.012115,0.019715,0.16919
7798,1.6438e+09,-0.97,2.48,19.47,85.56,43.601,13.482,0.9853,-0.01204,0.019949,0.16924
7844,1.6438e+09,-0.97,2.46,19.45,85.56,43.601,13.482,0.98535,-0.012024,0.019764,0.16899
7891,1.6438e+09,-1,2.48,19.47,85.56,43.601,13.482,0.9853,-0.012318,0.01986,0.16924
7936,1.6438e+09,-1,2.45,19.47,85.56,43.601,13.482,0.98532,-0.012276,0.019602,0.16917
7980,1.6438e+09,-0.99,2.48,19.48,85.56,43.601,13.482,0.98529,-0.012185,0.019901,0.16929
8025,1.6438e+09,-0.98,2.46,19.46,85.56,43.601,13.482,0.98532,-0.012135,0.019707,0.16914
8069,1.6438e+09,-1.01,2.49,19.49,85.56,43.601,13.482,0.98527,-0.012381,0.019918,0.1694
8114,1.6438e+09,-1.01,2.44,19.49,85.56,43.601,13.482,0.98528,-0.012301,0.019528,0.16938
8164,1.6438e+09,-0.98,2.5,19.5,85.54,43.601,13.482,0.98525,-0.012203,0.020048,0.16948
8208,1.6439e+09,-0.96,2.46,19.48,85.54,43.601,13.482,0.9853,-0.011959,0.019744,0.16928
8254,1.6439e+09,-1,2.48,19.5,85.54,43.601,13.482,0.98526,-0.012301,0.019869,0.16944
8298,1.6439e+09,-0.95,2.45,19.49,85.54,43.601,13.482,0.98528,-0.011874,0.0197,0.16938
8344,1.6439e+09,-0.96,2.47,19.49,85.54,43.601,13.482,0.98528,-0.011968,0.019857,0.16938
8388,1.6439e+09,-0.93,2.47,19.47,85.54,43.601,13.482,0.98531,-0.011689,0.019863,0.16919
8433,1.6439e+09,-0.98,2.46,19.48,85.54,43.601,13.482,0.9853,-0.012146,0.019708,0.16926
8478,1.6439e+09,-0.95,2.47,19.47,85.54,43.601,13.482,0.98531,-0.011861,0.019836,0.16921
8523,1.6439e+09,-0.97,2.45,19.47,85.54,43.601,13.482,0.98532,-0.011999,0.019653,0.16918
8568,1.6439e+09,-0.95,2.47,19.46,85.54,43.601,13.482,0.98532,-0.011871,0.019903,0.16915
8616,1.6439e+09,-0.99,2.43,19.47,85.5,43.601,13.482,0.98532,-0.012153,0.019484,0.16918
8660,1.644e+09,-0.97,2.48,19.48,85.5,43.601,13.482,0.9853,-0.012029,0.019923,0.16925
8701,1.644e+09,-0.98,2.44,19.47,85.5,43.601,13.482,0.98531,-0.012042,0.019582,0.1692
8746,1.644e+09,-0.99,2.48,19.49,85.5,43.601,13.482,0.98528,-0.012205,0.019892,0.16934
8792,1.644e+09,-0.98,2.43,19.48,85.5,43.601,13.482,0.9853,-0.012027,0.019495,0.16929
8833,1.644e+09,-0.98,2.47,19.49,85.5,43.601,13.482,0.98527,-0.012136,0.019844,0.16939
8879,1.644e+09,-0.98,2.46,19.48,85.5,43.601,13.482,0.98529,-0.012079,0.019715,0.16931
8923,1.644e+09,-1.01,2.45,19.49,85.5,43.601,13.482,0.98527,-0.012377,0.019627,0.16942
8967,1.644e+09,-0.96,2.46,19.48,85.5,43.601,13.482,0.98529,-0.011977,0.019765,0.16931
9013,1.644e+09,-0.99,2.44,19.49,85.5,43.601,13.482,0.98529,-0.012144,0.019575,0.16933
9061,1.644e+09,-0.97,2.47,19.47,85.37,43.601,13.482,0.98531,-0.012042,0.019867,0.16918
9107,1.6441e+09,-1.01,2.44,19.48,85.37,43.601,13.482,0.98529,-0.012353,0.01948,0.16933
9151,1.6441e+09,-0.98,2.47,19.47,85.37,43.601,13.482,0.98531,-0.012103,0.019796,0.16922
9196,1.6441e+09,-1,2.46,19.47,85.37,43.601,13.482,0.9853,-0.012315,0.019725,0.16923
9240,1.6441e+09,-0.99,2.46,19.47,85.37,43.601,13.482,0.98531,-0.012193,0.019726,0.16919
9285,1.6441e+09,-1.01,2.46,19.48,85.37,43.601,13.482,0.98529,-0.012385,0.01974,0.16929
9330,1.6441e+09,-1.01,2.46,19.48,85.37,43.601,13.482,0.98529,-0.012376,0.019669,0.16933
9374,1.6441e+09,-1.01,2.47,19.47,85.37,43.601,13.482,0.9853,-0.012343,0.019765,0.16922
9419,1.6441e+09,-1.04,2.44,19.49,85.37,43.601,13.482,0.98528,-0.012571,0.019517,0.16934
9464,1.6441e+09,-1.01,2.45,19.48,85.37,43.601,13.482,0.98529,-0.012335,0.019601,0.16931
9513,1.6442e+09,-1.05,2.44,19.49,85.43,43.601,13.482,0.98528,-0.012676,0.019507,0.16939
9557,1.6442e+09,-1.05,2.45,19.49,85.43,43.601,13.482,0.98528,-0.012661,0.019544,0.16938
9600,1.6442e+09,-1.01,2.45,19.48,85.43,43.601,13.482,0.98529,-0.01238,0.019582,0.16932
9643,1.6442e+09,-1.04,2.44,19.48,85.43,43.601,13.482,0.98529,-0.012582,0.019464,0.16932
9685,1.6442e+09,-1.02,2.47,19.46,85.43,43.601,13.482,0.98532,-0.012455,0.019785,0.16914
9730,1.6442e+09,-1.04,2.44,19.47,85.43,43.601,13.482,0.98531,-0.012631,0.019444,0.16921
9772,1.6442e+09,-0.99,2.48,19.46,85.43,43.601,13.482,0.98532,-0.012213,0.019918,0.16913
9815,1.6442e+09,-1,2.44,19.46,85.43,43.601,13.482,0.98533,-0.012289,0.019572,0.16909
9858,1.6442e+09,-0.98,2.48,19.45,85.43,43.601,13.482,0.98534,-0.01212,0.019885,0.16903
9903,1.6442e+09,-0.98,2.43,19.45,85.43,43.601,13.482,0.98534,-0.012048,0.019525,0.16904
9947,1.6443e+09,-0.98,2.47,19.46,85.32,43.601,13.482,0.98533,-0.012104,0.019806,0.1691
9990,1.6443e+09,-0.97,2.46,19.45,85.32,43.601,13.482,0.98534,-0.012047,0.019742,0.16902
10035,1.6443e+09,-1,2.43,19.45,85.32,43.601,13.482,0.98533,-0.012268,0.019487,0.16907
10077,1.6443e+09,-0.97,2.46,19.45,85.32,43.601,13.482,0.98533,-0.012032,0.019716,0.16906
10120,1.6443e+09,-1.02,2.43,19.46,85.32,43.601,13.482,0.98533,-0.012372,0.01943,0.16908
10163,1.6443e+09,-1,2.48,19.46,85.32,43.601,13.482,0.98532,-0.012348,0.019877,0.16909
10207,1.6443e+09,-1.05,2.43,19.46,85.32,43.601,13.482,0.98532,-0.012648,0.019417,0.16914
10250,1.6443e+09,-1,2.5,19.47,85.32,43.601,13.482,0.9853,-0.012338,0.02006,0.16921
10294,1.6443e+09,-1.02,2.46,19.46,85.32,43.601,13.482,0.98532,-0.012471,0.019693,0.16913
10340,1.6444e+09,-1.05,2.42,19.47,85.47,43.601,13.482,0.98532,-0.012633,0.019318,0.16917
10384,1.6444e+09,-1,2.48,19.45,85.47,43.601,13.482,0.98533,-0.012346,0.01986,0.16906
10429,1.6444e+09,-1.05,2.44,19.44,85.47,43.601,13.482,0.98534,-0.012654,0.019467,0.16899
10475,1.6444e+09,-1.02,2.48,19.43,85.47,43.601,13.482,0.98535,-0.012458,0.019907,0.1689
10519,1.6444e+09,-1.03,2.45,19.43,85.47,43.601,13.482,0.98537,-0.012493,0.019589,0.16887
10564,1.6444e+09,-0.98,2.48,19.43,85.47,43.601,13.482,0.98536,-0.012167,0.019948,0.16885
10608,1.6444e+09,-0.98,2.47,19.42,85.47,43.601,13.482,0.98539,-0.012094,0.019818,0.16873
10653,1.6444e+09,-0.99,2.47,19.42,85.47,43.601,13.482,0.98538,-0.012159,0.019791,0.16877
10698,1.6444e+09,-0.97,2.45,19.42,85.47,43.601,13.482,0.98539,-0.012004,0.019718,0.16874
10743,1.6444e+09,-0.99,2.45,19.42,85.47,43.601,13.482,0.98539,-0.012204,0.019624,0.16876
10792,1.6445e+09,-0.99,2.46,19.41,85.28,43.601,13.482,0.98539,-0.012221,0.019737,0.16871
10837,1.6445e+09,-1.06,2.44,19.42,85.28,43.601,13.482,0.98538,-0.012733,0.019459,0.16876
10882,1.6445e+09,-1,2.48,19.42,85.28,43.601,13.482,0.98537,-0.012335,0.01985,0.1688
10926,1.6445e+09,-1.05,2.44,19.41,85.28,43.601,13.482,0.98539,-0.012689,0.019434,0.16872
10971,1.6445e+09,-1.02,2.47,19.42,85.28,43.601,13.482,0.98538,-0.012496,0.019795,0.16877
11016,1.6445e+09,-1.06,2.43,19.42,85.28,43.601,13.482,0.98539,-0.012716,0.019346,0.16875
11060,1.6445e+09,-1,2.48,19.43,85.28,43.601,13.482,0.98537,-0.012301,0.019918,0.16882
11106,1.6445e+09,-1.03,2.45,19.41,85.28,43.601,13.482,0.9854,-0.012481,0.019555,0.16869
11151,1.6445e+09,-1,2.46,19.42,85.28,43.601,13.482,0.98538,-0.012273,0.019732,0.16876
11198,1.6446e+09,-1,2.5,19.41,85.28,43.601,13.482,0.98538,-0.012294,0.020072,0.16871
11243,1.6446e+09,-1.05,2.45,19.4,85.34,43.601,13.482,0.98541,-0.01264,0.019534,0.16862
11288,1.6446e+09,-1.01,2.5,19.4,85.34,43.601,13.482,0.9854,-0.012432,0.020066,0.1686
11334,1.6446e+09,-1.04,2.44,19.4,85.34,43.601,13.482,0.98541,-0.012606,0.019512,0.16862
11378,1.6446e+09,-1,2.49,19.41,85.34,43.601,13.482,0.9854,-0.012289,0.019986,0.16866
11426,1.6446e+09,-1.02,2.46,19.4,85.34,43.601,13.482,0.98541,-0.012426,0.019721,0.1686
11472,1.6446e+09,-1.09,2.4,19.4,85.34,43.601,13.482,0.98541,-0.012907,0.01905,0.16862
11517,1.6446e+09,-1.04,2.47,19.41,85.34,43.601,13.482,0.98539,-0.012659,0.019737,0.16867
11562,1.6446e+09,-1.08,2.42,19.4,85.34,43.601,13.482,0.98541,-0.012926,0.019222,0.16859
11607,1.6447e+09,-1.06,2.47,19.41,85.34,43.601,13.482,0.98539,-0.012799,0.019728,0.16866
11652,1.6447e+09,-1.08,2.43,19.4,85.34,43.601,13.482,0.9854,-0.012926,0.019323,0.16864
11701,1.6447e+09,-1.03,2.48,19.41,85.54,43.601,13.482,0.98539,-0.012547,0.01984,0.16867
11746,1.6447e+09,-1.04,2.47,19.4,85.54,43.601,13.482,0.9854,-0.012633,0.019733,0.16863
11791,1.6447e+09,-1.04,2.45,19.4,85.54,43.601,13.482,0.98541,-0.012567,0.019599,0.1686
11835,1.6447e+09,-1.01,2.47,19.41,85.54,43.601,13.482,0.9854,-0.012355,0.019817,0.16867
11877,1.6447e+09,-1.02,2.42,19.4,85.54,43.601,13.482,0.98542,-0.012373,0.01939,0.16856
11922,1.6447e+09,-1,2.48,19.4,85.54,43.601,13.482,0.98541,-0.012332,0.019919,0.16859
11968,1.6447e+09,-1.06,2.39,19.39,85.54,43.601,13.482,0.98543,-0.012653,0.019072,0.16854
12012,1.6447e+09,-0.99,2.49,19.4,85.54,43.601,13.482,0.9854,-0.012233,0.019991,0.16862
12058,1.6448e+09,-1.05,2.39,19.39,85.54,43.601,13.482,0.98544,-0.012551,0.019037,0.16848
12099,1.6448e+09,-1.02,2.47,19.4,85.54,43.601,13.482,0.98541,-0.012429,0.019786,0.16857
12146,1.6448e+09,-1.05,2.43,19.4,85.35,43.601,13.482,0.98542,-0.012622,0.019376,0.16858
12188,1.6448e+09,-1.05,2.46,19.4,85.35,43.601,13.482,0.98541,-0.012698,0.01965,0.1686
12232,1.6448e+09,-1.06,2.5,19.4,85.35,43.601,13.482,0.98539,-0.012888,0.019985,0.16862
12275,1.6448e+09,-1.09,2.44,19.4,85.35,43.601,13.482,0.98541,-0.013025,0.019429,0.16859
12317,1.6448e+09,-1.04,2.53,19.4,85.35,43.601,13.482,0.98539,-0.01271,0.020266,0.16864
12360,1.6448e+09,-1.09,2.43,19.39,85.35,43.601,13.482,0.98542,-0.012959,0.019343,0.16854
12406,1.6448e+09,-1.06,2.52,19.4,85.35,43.601,13.482,0.9854,-0.01284,0.020119,0.1686
12448,1.6448e+09,-1.07,2.48,19.4,85.35,43.601,13.482,0.9854,-0.012883,0.019805,0.16861
12493,1.6449e+09,-1.04,2.51,19.4,85.35,43.601,13.482,0.9854,-0.012705,0.020078,0.1686
12535,1.6449e+09,-1.05,2.52,19.4,85.35,43.601,13.482,0.9854,-0.012753,0.02014,0.16858
12582,1.6449e+09,-1.06,2.44,19.39,85.13,43.601,13.482,0.98542,-0.012751,0.01949,0.16855
12624,1.6449e+09,-1.01,2.52,19.4,85.13,43.601,13.482,0.9854,-0.012454,0.020225,0.16861
12666,1.6449e+09,-1.04,2.44,19.39,85.13,43.601,13.482,0.98543,-0.012557,0.019524,0.16851
12710,1.6449e+09,-1.01,2.52,19.39,85.13,43.601,13.482,0.98541,-0.012456,0.020197,0.16855
12755,1.6449e+09,-1.06,2.5,19.4,85.13,43.601,13.482,0.9854,-0.012842,0.01995,0.16858
12798,1.6449e+09,-1.04,2.53,19.4,85.13,43.601,13.482,0.9854,-0.012743,0.020231,0.16857
12846,1.6449e+09,-1.04,2.55,19.4,85.13,43.601,13.482,0.98539,-0.012735,0.020429,0.16863
12888,1.645e+09,-1.08,2.51,19.4,85.13,43.601,13.482,0.98539,-0.013064,0.020015,0.16864
12932,1.645e+09,-1.05,2.53,19.4,85.13,43.601,13.482,0.98539,-0.012756,0.020227,0.16861
12981,1.645e+09,-1.07,2.54,19.41,85.53,43.601,13.482,0.98538,-0.013,0.02027,0.16867
13026,1.645e+09,-1.07,2.48,19.4,85.53,43.601,13.482,0.9854,-0.012858,0.019786,0.16859
13071,1.645e+09,-1.02,2.53,19.41,85.53,43.601,13.482,0.98539,-0.012554,0.020315,0.16865
13116,1.645e+09,-1.03,2.46,19.39,85.53,43.601,13.482,0.98542,-0.012546,0.01971,0.16852
13160,1.645e+09,-0.99,2.54,19.39,85.53,43.601,13.482,0.98541,-0.012314,0.020384,0.16851
13204,1.645e+09,-1.03,2.46,19.38,85.53,43.601,13.482,0.98543,-0.012557,0.01971,0.16845
13248,1.645e+09,-0.97,2.55,19.38,85.53,43.601,13.482,0.98542,-0.012176,0.020554,0.16846
13293,1.6451e+09,-1.02,2.5,19.38,85.53,43.601,13.482,0.98544,-0.012478,0.020041,0.1684
13338,1.6451e+09,-0.99,2.57,19.38,85.53,43.601,13.482,0.98542,-0.012372,0.020642,0.16842
13382,1.6451e+09,-1.04,2.53,19.38,85.53,43.601,13.482,0.98543,-0.012685,0.02024,0.16841
13431,1.6451e+09,-1.02,2.58,19.38,85.28,43.601,13.482,0.98541,-0.012595,0.020714,0.16846
13475,1.6451e+09,-1.04,2.56,19.38,85.28,43.601,13.482,0.98541,-0.012772,0.020539,0.16845
13520,1.6451e+09,-1.05,2.56,19.38,85.28,43.601,13.482,0.98541,-0.012836,0.020519,0.16848
13577,1.6452e+09,-1.02,2.58,19.39,85.28,43.601,13.482,0.9854,-0.012631,0.020726,0.16851
13622,1.6452e+09,-1.04,2.49,19.38,85.28,43.601,13.482,0.98543,-0.012668,0.019888,0.16841
13670,1.6452e+09,-0.98,2.57,19.38,85.31,43.601,13.482,0.98541,-0.012282,0.020717,0.16846
13718,1.6452e+09,-1,2.54,19.37,85.31,43.601,13.482,0.98544,-0.012413,0.02038,0.16835
13763,1.6452e+09,-1.02,2.54,19.38,85.31,43.601,13.482,0.98542,-0.012566,0.02035,0.16846
13810,1.6452e+09,-1.01,2.55,19.38,85.31,43.601,13.482,0.98542,-0.012446,0.020453,0.16843
13855,1.6452e+09,-0.99,2.48,19.37,85.31,43.601,13.482,0.98545,-0.012223,0.019913,0.16835
13901,1.6452e+09,-0.99,2.56,19.39,85.31,43.601,13.482,0.98541,-0.012345,0.020596,0.16852
13946,1.6453e+09,-1.03,2.48,19.38,85.31,43.601,13.482,0.98544,-0.012589,0.019843,0.16842
13993,1.6453e+09,-1.03,2.54,19.4,85.31,43.601,13.482,0.98539,-0.012659,0.020333,0.16861
14037,1.6453e+09,-1.05,2.51,19.39,85.31,43.601,13.482,0.98541,-0.012818,0.020111,0.16851
14086,1.6453e+09,-1.08,2.51,19.4,85.51,43.601,13.482,0.98539,-0.013077,0.020061,0.16862
14131,1.6453e+09,-1.09,2.54,19.39,85.51,43.601,13.482,0.9854,-0.013168,0.02024,0.16854
14176,1.6453e+09,-1.08,2.49,19.39,85.51,43.601,13.482,0.98542,-0.013017,0.019825,0.16849
14221,1.6453e+09,-1.08,2.56,19.39,85.51,43.601,13.482,0.9854,-0.013097,0.020436,0.16854
14265,1.6453e+09,-1.08,2.47,19.38,85.51,43.601,13.482,0.98544,-0.012953,0.019668,0.16841
14310,1.6453e+09,-1.05,2.55,19.39,85.51,43.601,13.482,0.9854,-0.01286,0.020401,0.16852
14354,1.6453e+09,-1.02,2.47,19.37,85.51,43.601,13.482,0.98546,-0.012491,0.019785,0.16832
14401,1.6454e+09,-1.05,2.51,19.39,85.51,43.601,13.482,0.98542,-0.012754,0.020053,0.16849
14441,1.6454e+09,-1.05,2.51,19.37,85.51,43.601,13.482,0.98544,-0.012734,0.020118,0.16837
14483,1.6454e+09,-1.04,2.49,19.38,85.51,43.601,13.482,0.98543,-0.012618,0.019926,0.16845
14532,1.6454e+09,-1.04,2.53,19.38,85.25,43.601,13.482,0.98543,-0.012687,0.020284,0.1684
14576,1.6454e+09,-1.05,2.46,19.38,85.25,43.601,13.482,0.98544,-0.01268,0.019653,0.16841
14619,1.6454e+09,-1.05,2.54,19.39,85.25,43.601,13.482,0.9854,-0.012785,0.020327,0.16854
14661,1.6454e+09,-1.05,2.48,19.38,85.25,43.601,13.482,0.98543,-0.012705,0.019798,0.16843
14702,1.6454e+09,-1.08,2.55,19.4,85.25,43.601,13.482,0.98539,-0.013069,0.020418,0.1686
14744,1.6454e+09,-1.08,2.46,19.38,85.25,43.601,13.482,0.98543,-0.012981,0.019643,0.16842
14786,1.6455e+09,-1.09,2.53,19.4,85.25,43.601,13.482,0.98538,-0.013142,0.020234,0.16863
14829,1.6455e+09,-1.09,2.48,19.38,85.25,43.601,13.482,0.98542,-0.013067,0.019784,0.16845
14871,1.6455e+09,-1.1,2.52,19.4,85.25,43.601,13.482,0.98539,-0.013231,0.020104,0.16862
14914,1.6455e+09,-1.1,2.49,19.38,85.25,43.601,13.482,0.98543,-0.013148,0.019837,0.16842
14962,1.6455e+09,-1.08,2.5,19.39,85.21,43.601,13.482,0.9854,-0.012993,0.019953,0.16857
15005,1.6455e+09,-1.07,2.51,19.38,85.21,43.601,13.482,0.98543,-0.012937,0.020052,0.1684
15048,1.6455e+09,-1.06,2.47,19.38,85.21,43.601,13.482,0.98543,-0.012796,0.019692,0.16845
15090,1.6455e+09,-1.05,2.52,19.37,85.21,43.601,13.482,0.98544,-0.012776,0.020132,0.16834
15133,1.6455e+09,-1.03,2.48,19.37,85.21,43.601,13.482,0.98544,-0.012527,0.019882,0.16837
15175,1.6455e+09,-1.03,2.54,19.38,85.21,43.601,13.482,0.98542,-0.012682,0.020379,0.16841
15218,1.6456e+09,-1.03,2.48,19.37,85.21,43.601,13.482,0.98545,-0.012587,0.019837,0.16834
15262,1.6456e+09,-1.03,2.51,19.39,85.21,43.601,13.482,0.98542,-0.01262,0.020136,0.16849
15307,1.6456e+09,-1.03,2.53,19.37,85.21,43.601,13.482,0.98544,-0.012665,0.02027,0.16833
15352,1.6456e+09,-1.06,2.52,19.39,85.21,43.601,13.482,0.98541,-0.012889,0.020133,0.16852
15400,1.6456e+09,-1.09,2.53,19.37,85.38,43.601,13.482,0.98543,-0.013101,0.02022,0.16834
15446,1.6456e+09,-1.08,2.52,19.38,85.38,43.601,13.482,0.98542,-0.013072,0.020112,0.16841
15490,1.6456e+09,-1.11,2.56,19.37,85.38,43.601,13.482,0.98543,-0.013313,0.020387,0.16832
15536,1.6456e+09,-1.12,2.51,19.36,85.38,43.601,13.482,0.98544,-0.013395,0.019981,0.16831
15583,1.6456e+09,-1.12,2.56,19.38,85.38,43.601,13.482,0.98541,-0.013449,0.020415,0.16841
15628,1.6457e+09,-1.09,2.55,19.34,85.38,43.601,13.482,0.98547,-0.013206,0.020357,0.16813
15673,1.6457e+09,-1.1,2.55,19.36,85.38,43.601,13.482,0.98544,-0.013222,0.020337,0.1683
15717,1.6457e+09,-1.06,2.55,19.33,85.38,43.601,13.482,0.98549,-0.012934,0.020393,0.168
15762,1.6457e+09,-1.04,2.56,19.35,85.38,43.601,13.482,0.98546,-0.012734,0.020555,0.16816
15812,1.6457e+09,-1.06,2.59,19.34,85.48,43.601,13.482,0.98547,-0.012939,0.020763,0.16808
15856,1.6457e+09,-1.05,2.56,19.34,85.48,43.601,13.482,0.98547,-0.012829,0.020514,0.16809
15901,1.6457e+09,-1.05,2.61,19.35,85.48,43.601,13.482,0.98545,-0.012907,0.020916,0.16815
15946,1.6457e+09,-1.04,2.57,19.34,85.48,43.601,13.482,0.98548,-0.012737,0.020613,0.16806
15992,1.6457e+09,-1.08,2.6,19.36,85.48,43.601,13.482,0.98543,-0.013173,0.020846,0.16829
16038,1.6457e+09,-1.06,2.55,19.34,85.48,43.601,13.482,0.98548,-0.012899,0.020427,0.16808
16077,1.6458e+09,-1.07,2.57,19.36,85.48,43.601,13.482,0.98545,-0.013043,0.02055,0.16824
16124,1.6458e+09,-1.09,2.57,19.34,85.48,43.601,13.482,0.98546,-0.013194,0.020516,0.16812
16169,1.6458e+09,-1.11,2.54,19.35,85.48,43.601,13.482,0.98546,-0.013349,0.020257,0.16819
16214,1.6458e+09,-1.12,2.58,19.34,85.48,43.601,13.482,0.98545,-0.013434,0.02058,0.16815
16264,1.6458e+09,-1.1,2.55,19.34,85.64,43.601,13.482,0.98547,-0.013271,0.020387,0.16811
16309,1.6458e+09,-1.14,2.6,19.35,85.64,43.601,13.482,0.98545,-0.013679,0.0207,0.16817
16353,1.6458e+09,-1.13,2.56,19.33,85.64,43.601,13.482,0.98548,-0.0135,0.020435,0.16803
16400,1.6458e+09,-1.13,2.58,19.34,85.64,43.601,13.482,0.98545,-0.013537,0.020591,0.16815
16450,1.6458e+09,-1.1,2.59,19.35,85.64,43.601,13.482,0.98545,-0.013291,0.020737,0.16818
16494,1.6459e+09,-1.08,2.54,19.34,85.64,43.601,13.482,0.98548,-0.013068,0.020313,0.16808
16539,1.6459e+09,-1.09,2.58,19.35,85.64,43.601,13.482,0.98545,-0.013175,0.020655,0.16818
16584,1.6459e+09,-1.04,2.55,19.34,85.64,43.601,13.482,0.98547,-0.01274,0.0204,0.16812
16628,1.6459e+09,-1.08,2.59,19.36,85.64,43.601,13.482,0.98543,-0.013175,0.020719,0.16827
16674,1.6459e+09,-1.05,2.57,19.34,85.64,43.601,13.482,0.98547,-0.012866,0.020577,0.16811
16722,1.6459e+09,-1.06,2.57,19.35,85.54,43.601,13.482,0.98545,-0.012964,0.020603,0.16821
16767,1.6459e+09,-1.04,2.59,19.34,85.54,43.601,13.482,0.98546,-0.012838,0.020808,0.16814
16811,1.6459e+09,-1.06,2.56,19.35,85.54,43.601,13.482,0.98545,-0.012946,0.02049,0.16821
16857,1.6459e+09,-1.07,2.6,19.35,85.54,43.601,13.482,0.98545,-0.01305,0.0208,0.16817
16903,1.6459e+09,-1.06,2.55,19.34,85.54,43.601,13.482,0.98547,-0.012928,0.020422,0.16813
16946,1.646e+09,-1.12,2.59,19.35,85.54,43.601,13.482,0.98544,-0.013447,0.020715,0.16821
16986,1.646e+09,-1.11,2.55,19.34,85.54,43.601,13.482,0.98548,-0.013345,0.020321,0.16807
17029,1.646e+09,-1.14,2.57,19.34,85.54,43.601,13.482,0.98546,-0.013588,0.020444,0.16815
17072,1.646e+09,-1.1,2.56,19.34,85.54,43.601,13.482,0.98547,-0.013259,0.020483,0.16808
17114,1.646e+09,-1.13,2.56,19.35,85.54,43.601,13.482,0.98545,-0.013489,0.020359,0.16817
17161,1.646e+09,-1.11,2.58,19.34,85.59,43.601,13.482,0.98546,-0.013343,0.02057,0.16811
17203,1.646e+09,-1.1,2.54,19.34,85.59,43.601,13.482,0.98547,-0.013232,0.020288,0.16812
17245,1.646e+09,-1.07,2.59,19.34,85.59,43.601,13.482,0.98546,-0.013074,0.020773,0.1681
17290,1.646e+09,-1.07,2.52,19.34,85.59,43.601,13.482,0.98548,-0.012976,0.020094,0.16812
17332,1.6461e+09,-1.08,2.56,19.34,85.59,43.601,13.482,0.98547,-0.013128,0.020475,0.16812
17379,1.6461e+09,-1.08,2.55,19.33,85.59,43.601,13.482,0.98549,-0.01308,0.020427,0.16801
17421,1.6461e+09,-1.11,2.53,19.33,85.59,43.601,13.482,0.98549,-0.01328,0.020177,0.168
17464,1.6461e+09,-1.08,2.59,19.33,85.59,43.601,13.482,0.98548,-0.01314,0.020737,0.16799
17507,1.6461e+09,-1.08,2.52,19.32,85.59,43.601,13.482,0.98551,-0.012998,0.020122,0.1679
17549,1.6461e+09,-1.06,2.6,19.32,85.59,43.601,13.482,0.98549,-0.012952,0.020876,0.16796
17597,1.6461e+09,-1.07,2.49,19.31,85.55,43.601,13.482,0.98553,-0.012931,0.019922,0.16785
17639,1.6461e+09,-1.05,2.58,19.32,85.55,43.601,13.482,0.98551,-0.012852,0.020661,0.16789
17682,1.6461e+09,-1.05,2.51,19.31,85.55,43.601,13.482,0.98553,-0.012742,0.020099,0.1678
17726,1.6461e+09,-1.09,2.52,19.31,85.55,43.601,13.482,0.98552,-0.013127,0.020151,0.16782
17772,1.6462e+09,-1.06,2.58,19.31,85.55,43.601,13.482,0.98552,-0.012925,0.020699,0.16781
17817,1.6462e+09,-1.06,2.52,19.3,85.55,43.601,13.482,0.98553,-0.012874,0.020155,0.16778
17861,1.6462e+09,-1.06,2.59,19.31,85.55,43.601,13.482,0.98551,-0.012915,0.020752,0.16787
17905,1.6462e+09,-1.08,2.5,19.31,85.55,43.601,13.482,0.98553,-0.012971,0.020005,0.16782
17950,1.6462e+09,-1.07,2.56,19.32,85.55,43.601,13.482,0.98551,-0.013047,0.020521,0.16789
17998,1.6462e+09,-1.07,2.52,19.31,85.44,43.601,13.482,0.98553,-0.012905,0.020127,0.16783
18047,1.6462e+09,-1.12,2.55,19.31,85.44,43.601,13.482,0.98551,-0.013446,0.020295,0.16788
18092,1.6462e+09,-1.08,2.57,19.31,85.44,43.601,13.482,0.98551,-0.013129,0.020576,0.16783
18139,1.6462e+09,-1.07,2.53,19.31,85.44,43.601,13.482,0.98553,-0.01296,0.020263,0.16781
18189,1.6463e+09,-1.12,2.55,19.31,85.44,43.601,13.482,0.98551,-0.013412,0.02036,0.16784
18238,1.6463e+09,-1.09,2.59,19.31,85.44,43.601,13.482,0.98551,-0.0132,0.0207,0.16782
18283,1.6463e+09,-1.09,2.54,19.3,85.44,43.601,13.482,0.98554,-0.013176,0.02031,0.16773
18327,1.6463e+09,-1.1,2.59,19.31,85.44,43.601,13.482,0.98551,-0.013288,0.020726,0.16783
18372,1.6463e+09,-1.08,2.51,19.29,85.44,43.601,13.482,0.98555,-0.013053,0.020049,0.16769
18421,1.6463e+09,-1.1,2.56,19.3,85.2,43.601,13.482,0.98553,-0.013291,0.020423,0.16777
18466,1.6463e+09,-1.08,2.5,19.29,85.2,43.601,13.482,0.98555,-0.012963,0.019923,0.16769
18514,1.6463e+09,-1.13,2.54,19.3,85.2,43.601,13.482,0.98553,-0.013485,0.020218,0.16773
18560,1.6463e+09,-1.12,2.56,19.3,85.2,43.601,13.482,0.98552,-0.013452,0.020418,0.1678
18603,1.6464e+09,-1.1,2.51,19.29,85.2,43.601,13.482,0.98555,-0.013156,0.020053,0.1677
18647,1.6464e+09,-1.13,2.57,19.31,85.2,43.601,13.482,0.98551,-0.013558,0.020445,0.16785
18693,1.6464e+09,-1.1,2.51,19.29,85.2,43.601,13.482,0.98555,-0.013198,0.019991,0.1677
18738,1.6464e+09,-1.11,2.56,19.3,85.2,43.601,13.482,0.98553,-0.013335,0.020449,0.16775
18782,1.6464e+09,-1.09,2.53,19.3,85.2,43.601,13.482,0.98554,-0.013177,0.020238,0.16774
18827,1.6464e+09,-1.1,2.56,19.29,85.2,43.601,13.482,0.98553,-0.013267,0.020428,0.16771
18875,1.6464e+09,-1.11,2.54,19.29,85.57,43.601,13.482,0.98554,-0.013301,0.02025,0.16771
18920,1.6464e+09,-1.09,2.55,19.28,85.57,43.601,13.482,0.98555,-0.013177,0.020391,0.16761
18965,1.6464e+09,-1.12,2.57,19.3,85.57,43.601,13.482,0.98553,-0.013477,0.020514,0.16774
19010,1.6465e+09,-1.11,2.52,19.28,85.57,43.601,13.482,0.98557,-0.013237,0.020086,0.16757
19058,1.6465e+09,-1.1,2.55,19.28,85.57,43.601,13.482,0.98557,-0.013215,0.020352,0.16755
19103,1.6465e+09,-1.09,2.54,19.28,85.57,43.601,13.482,0.98556,-0.013186,0.020312,0.16757
19148,1.6465e+09,-1.12,2.55,19.28,85.57,43.601,13.482,0.98556,-0.013381,0.020331,0.16758
19193,1.6465e+09,-1.12,2.56,19.28,85.57,43.601,13.482,0.98556,-0.01342,0.020384,0.16758
19238,1.6465e+09,-1.12,2.55,19.28,85.57,43.601,13.482,0.98556,-0.013424,0.020328,0.16756
19282,1.6465e+09,-1.12,2.57,19.29,85.57,43.601,13.482,0.98554,-0.013471,0.020532,0.16766
19331,1.6465e+09,-1.13,2.5,19.28,85.68,43.601,13.482,0.98556,-0.013425,0.019902,0.1676
19376,1.6465e+09,-1.12,2.55,19.28,85.68,43.601,13.482,0.98555,-0.013401,0.020348,0.16761
19420,1.6465e+09,-1.09,2.49,19.27,85.68,43.601,13.482,0.98558,-0.01308,0.019851,0.16753
19468,1.6466e+09,-1.1,2.56,19.28,85.68,43.601,13.482,0.98555,-0.013264,0.020421,0.1676
19505,1.6466e+09,-1.1,2.54,19.28,85.68,43.601,13.482,0.98556,-0.013213,0.020251,0.16757
19548,1.6466e+09,-1.1,2.54,19.26,85.68,43.601,13.482,0.98558,-0.01323,0.020296,0.16744
19591,1.6466e+09,-1.11,2.59,19.28,85.68,43.601,13.482,0.98555,-0.013353,0.020668,0.16759
19634,1.6466e+09,-1.11,2.51,19.26,85.68,43.601,13.482,0.9856,-0.013264,0.019975,0.16741
19677,1.6466e+09,-1.11,2.57,19.27,85.68,43.601,13.482,0.98557,-0.013307,0.020486,0.16748
19720,1.6466e+09,-1.08,2.51,19.25,85.68,43.601,13.482,0.98561,-0.013008,0.020067,0.16732
19767,1.6466e+09,-1.11,2.57,19.27,85.61,43.601,13.482,0.98557,-0.013316,0.020492,0.1675
19810,1.6466e+09,-1.1,2.51,19.26,85.61,43.601,13.482,0.9856,-0.013188,0.019989,0.16739
19852,1.6467e+09,-1.1,2.54,19.26,85.61,43.601,13.482,0.98559,-0.013267,0.020304,0.16743
19896,1.6467e+09,-1.09,2.53,19.26,85.61,43.601,13.482,0.98559,-0.013132,0.020225,0.16745
19942,1.6467e+09,-1.13,2.53,19.26,85.61,43.601,13.482,0.98558,-0.013491,0.020166,0.16745
19984,1.6467e+09,-1.14,2.57,19.28,85.61,43.601,13.482,0.98555,-0.013607,0.020509,0.16756
20028,1.6467e+09,-1.1,2.53,19.26,85.61,43.601,13.482,0.98559,-0.013187,0.020195,0.16742
20071,1.6467e+09,-1.11,2.57,19.27,85.61,43.601,13.482,0.98556,-0.013371,0.02054,0.16753
20115,1.6467e+09,-1.09,2.53,19.27,85.61,43.601,13.482,0.98558,-0.013113,0.020173,0.16749
20162,1.6467e+09,-1.07,2.56,19.26,85.23,43.601,13.482,0.98559,-0.012976,0.020472,0.16742
20205,1.6467e+09,-1.06,2.56,19.27,85.23,43.601,13.482,0.98557,-0.012939,0.020486,0.16753
20247,1.6467e+09,-1.08,2.57,19.26,85.23,43.601,13.482,0.98558,-0.013111,0.020585,0.16744
20295,1.6468e+09,-1.1,2.58,19.27,85.23,43.601,13.482,0.98556,-0.013271,0.020599,0.16752
20337,1.6468e+09,-1.06,2.52,19.25,85.23,43.601,13.482,0.98561,-0.012805,0.020174,0.16734
20381,1.6468e+09,-1.07,2.55,19.26,85.23,43.601,13.482,0.9856,-0.01294,0.020389,0.16738
20426,1.6468e+09,-1.1,2.54,19.26,85.23,43.601,13.482,0.98558,-0.01324,0.020298,0.16745
20470,1.6468e+09,-1.11,2.54,19.24,85.23,43.601,13.482,0.98561,-0.013283,0.020302,0.16727
20516,1.6468e+09,-1.14,2.57,19.26,85.23,43.601,13.482,0.98557,-0.013607,0.020504,0.16746
20561,1.6468e+09,-1.13,2.54,19.25,85.23,43.601,13.482,0.9856,-0.013471,0.020213,0.16733
20611,1.6468e+09,-1.16,2.56,19.26,85.13,43.601,13.482,0.98558,-0.013792,0.020348,0.16743
20656,1.6468e+09,-1.13,2.54,19.24,85.13,43.601,13.482,0.98562,-0.013485,0.020239,0.16721
20701,1.6469e+09,-1.15,2.56,19.25,85.13,43.601,13.482,0.9856,-0.013641,0.020377,0.16731
20746,1.6469e+09,-1.14,2.54,19.24,85.13,43.601,13.482,0.98562,-0.013544,0.020222,0.16722
20795,1.6469e+09,-1.1,2.55,19.23,85.13,43.601,13.482,0.98562,-0.013252,0.020358,0.1672
20840,1.6469e+09,-1.14,2.57,19.24,85.13,43.601,13.482,0.98561,-0.013565,0.020472,0.16726
20885,1.6469e+09,-1.12,2.55,19.23,85.13,43.601,13.482,0.98563,-0.013386,0.020358,0.16717
20931,1.6469e+09,-1.15,2.55,19.24,85.13,43.601,13.482,0.98561,-0.013655,0.020331,0.16725
20976,1.6469e+09,-1.11,2.55,19.22,85.13,43.601,13.482,0.98564,-0.013345,0.020329,0.1671
21020,1.6469e+09,-1.13,2.55,19.23,85.13,43.601,13.482,0.98563,-0.013494,0.020336,0.16717
21069,1.6469e+09,-1.11,2.53,19.22,85.43,43.601,13.482,0.98565,-0.013271,0.020226,0.16708
21116,1.647e+09,-1.07,2.55,19.22,85.43,43.601,13.482,0.98565,-0.012986,0.020377,0.16705
21157,1.647e+09,-1.1,2.57,19.23,85.43,43.601,13.482,0.98563,-0.01328,0.020559,0.16714
21206,1.647e+09,-1.12,2.54,19.22,85.43,43.601,13.482,0.98565,-0.013387,0.020252,0.16708
21251,1.647e+09,-1.13,2.55,19.22,85.43,43.601,13.482,0.98564,-0.013525,0.020304,0.1671
21296,1.647e+09,-1.11,2.54,19.22,85.43,43.601,13.482,0.98564,-0.013304,0.020269,0.16708
21340,1.647e+09,-1.12,2.53,19.22,85.43,43.601,13.482,0.98565,-0.013354,0.020209,0.16705
21385,1.647e+09,-1.13,2.53,19.22,85.43,43.601,13.482,0.98564,-0.013465,0.020134,0.16712
21430,1.647e+09,-1.1,2.52,19.22,85.43,43.601,13.482,0.98566,-0.013197,0.020094,0.16704
21479,1.647e+09,-1.12,2.55,19.23,85.64,43.601,13.482,0.98563,-0.013424,0.020368,0.16716
21524,1.647e+09,-1.12,2.53,19.22,85.64,43.601,13.482,0.98565,-0.013343,0.020185,0.16708
21569,1.6471e+09,-1.15,2.55,19.23,85.64,43.601,13.482,0.98562,-0.013702,0.020307,0.16718
21615,1.6471e+09,-1.12,2.54,19.22,85.64,43.601,13.482,0.98565,-0.013365,0.020276,0.16704
21659,1.6471e+09,-1.13,2.56,19.22,85.64,43.601,13.482,0.98563,-0.013547,0.020423,0.16712
21705,1.6471e+09,-1.09,2.53,19.21,85.64,43.601,13.482,0.98566,-0.013128,0.020199,0.167
21749,1.6471e+09,-1.1,2.54,19.21,85.64,43.601,13.482,0.98566,-0.013236,0.020258,0.167
21795,1.6471e+09,-1.07,2.54,19.21,85.64,43.601,13.482,0.98567,-0.012947,0.020305,0.16697
21839,1.6471e+09,-1.07,2.53,19.21,85.64,43.601,13.482,0.98567,-0.012926,0.020251,0.16696
21884,1.6471e+09,-1.09,2.53,19.21,85.64,43.601,13.482,0.98566,-0.013098,0.020248,0.16703
21933,1.6471e+09,-1.05,2.52,19.2,85.45,43.601,13.482,0.98568,-0.012754,0.020167,0.1669
21979,1.6472e+09,-1.11,2.55,19.22,85.45,43.601,13.482,0.98565,-0.013321,0.020322,0.16704
22019,1.6472e+09,-1.1,2.52,19.21,85.45,43.601,13.482,0.98567,-0.013167,0.020107,0.16696
22065,1.6472e+09,-1.1,2.53,19.2,85.45,43.601,13.482,0.98568,-0.013173,0.02024,0.16688
22108,1.6472e+09,-1.15,2.57,19.21,85.45,43.601,13.482,0.98565,-0.013723,0.020496,0.16701
22150,1.6472e+09,-1.12,2.55,19.2,85.45,43.601,13.482,0.98567,-0.013422,0.020324,0.16691
22193,1.6472e+09,-1.15,2.56,19.2,85.45,43.601,13.482,0.98566,-0.013685,0.020353,0.16694
22237,1.6472e+09,-1.11,2.56,19.19,85.45,43.601,13.482,0.98568,-0.013329,0.020461,0.16685
22280,1.6472e+09,-1.13,2.56,19.2,85.45,43.601,13.482,0.98567,-0.013489,0.020415,0.16688
22323,1.6472e+09,-1.09,2.56,19.2,85.45,43.601,13.482,0.98568,-0.013186,0.020473,0.16687
22371,1.6473e+09,-1.09,2.54,19.19,85.52,43.601,13.482,0.9857,-0.013116,0.020297,0.16679
22414,1.6473e+09,-1.07,2.58,19.2,85.52,43.601,13.482,0.98568,-0.01302,0.020634,0.16688
22456,1.6473e+09,-1.08,2.55,19.19,85.52,43.601,13.482,0.98569,-0.013035,0.020364,0.16681
22500,1.6473e+09,-1.09,2.58,19.2,85.52,43.601,13.482,0.98566,-0.013165,0.020631,0.16694
22546,1.6473e+09,-1.08,2.57,19.19,85.52,43.601,13.482,0.98568,-0.013045,0.020586,0.16684
22588,1.6473e+09,-1.11,2.6,19.2,85.52,43.601,13.482,0.98566,-0.013422,0.02078,0.16695
22631,1.6473e+09,-1.08,2.57,19.2,85.52,43.601,13.482,0.98567,-0.013127,0.020609,0.16692
22673,1.6473e+09,-1.11,2.59,19.2,85.52,43.601,13.482,0.98567,-0.013387,0.020671,0.16689
22717,1.6473e+09,-1.1,2.6,19.2,85.52,43.601,13.482,0.98566,-0.013261,0.020788,0.16691
22760,1.6473e+09,-1.13,2.58,19.19,85.52,43.601,13.482,0.98567,-0.013502,0.02062,0.16685
22806,1.6474e+09,-1.13,2.6,19.2,85.53,43.601,13.482,0.98566,-0.013556,0.020784,0.16692
22851,1.6474e+09,-1.11,2.57,19.18,85.53,43.601,13.482,0.98569,-0.013375,0.020551,0.16675
22896,1.6474e+09,-1.14,2.62,19.2,85.53,43.601,13.482,0.98566,-0.013662,0.020918,0.1669
22944,1.6474e+09,-1.1,2.59,19.19,85.53,43.601,13.482,0.98567,-0.013306,0.020706,0.16686
22988,1.6474e+09,-1.12,2.58,19.19,85.53,43.601,13.482,0.98568,-0.01347,0.020599,0.16681
23033,1.6474e+09,-1.08,2.58,19.19,85.53,43.601,13.482,0.98568,-0.013092,0.020686,0.16685
23079,1.6474e+09,-1.1,2.57,19.19,85.53,43.601,13.482,0.98568,-0.013274,0.02058,0.16684
23124,1.6474e+09,-1.11,2.57,19.2,85.53,43.601,13.482,0.98567,-0.013302,0.020518,0.1669
23169,1.6474e+09,-1.09,2.59,19.18,85.53,43.601,13.482,0.98569,-0.013215,0.02077,0.16676
23217,1.6475e+09,-1.12,2.6,19.19,85.26,43.601,13.482,0.98567,-0.013422,0.020743,0.16686
23262,1.6475e+09,-1.09,2.61,19.19,85.26,43.601,13.482,0.98568,-0.01322,0.020874,0.16679
23307,1.6475e+09,-1.15,2.61,19.19,85.26,43.601,13.482,0.98567,-0.013739,0.020782,0.16684
23352,1.6475e+09,-1.09,2.59,19.18,85.26,43.601,13.482,0.9857,-0.01318,0.020757,0.16671
23400,1.6475e+09,-1.11,2.6,19.18,85.26,43.601,13.482,0.98569,-0.013402,0.020802,0.16674
23441,1.6475e+09,-1.16,2.58,19.18,85.26,43.601,13.482,0.98569,-0.013797,0.020562,0.16675
23486,1.6475e+09,-1.11,2.58,19.16,85.26,43.601,13.482,0.98572,-0.013375,0.020589,0.16657
23530,1.6475e+09,-1.15,2.61,19.17,85.26,43.601,13.482,0.9857,-0.013734,0.020803,0.16666
23577,1.6475e+09,-1.12,2.58,19.16,85.26,43.601,13.482,0.98572,-0.013396,0.020575,0.16659
23624,1.6475e+09,-1.17,2.6,19.17,85.26,43.601,13.482,0.9857,-0.013908,0.020681,0.16663
23666,1.6476e+09,-1.11,2.57,19.15,85.79,43.601,13.482,0.98574,-0.013317,0.020537,0.16651
23711,1.6476e+09,-1.14,2.59,19.16,85.79,43.601,13.482,0.98572,-0.013581,0.020642,0.16656
23755,1.6476e+09,-1.12,2.57,19.16,85.79,43.601,13.482,0.98573,-0.013432,0.020536,0.16654
23800,1.6476e+09,-1.11,2.57,19.14,85.79,43.601,13.482,0.98575,-0.013352,0.020539,0.16643
23845,1.6476e+09,-1.13,2.59,19.15,85.79,43.601,13.482,0.98573,-0.013526,0.020685,0.16651
23890,1.6476e+09,-1.13,2.6,19.15,85.79,43.601,13.482,0.98573,-0.01351,0.020775,0.16647
23934,1.6476e+09,-1.18,2.61,19.16,85.79,43.601,13.482,0.98572,-0.014012,0.02079,0.16655
23980,1.6476e+09,-1.11,2.59,19.14,85.79,43.601,13.482,0.98575,-0.013342,0.02071,0.16641
24026,1.6476e+09,-1.15,2.62,19.15,85.79,43.601,13.482,0.98572,-0.013785,0.020887,0.16652
24070,1.6477e+09,-1.13,2.56,19.15,85.79,43.601,13.482,0.98574,-0.013467,0.020418,0.1665
24119,1.6477e+09,-1.1,2.61,19.14,85.61,43.601,13.482,0.98575,-0.013336,0.020888,0.1664
24163,1.6477e+09,-1.16,2.59,19.14,85.61,43.601,13.482,0.98574,-0.013787,0.020633,0.16644
24209,1.6477e+09,-1.11,2.59,19.14,85.61,43.601,13.482,0.98575,-0.013357,0.020747,0.1664
24254,1.6477e+09,-1.1,2.59,19.14,85.61,43.601,13.482,0.98575,-0.013302,0.020737,0.16643
24298,1.6477e+09,-1.16,2.57,19.13,85.61,43.601,13.482,0.98576,-0.01375,0.020444,0.16632
24346,1.6477e+09,-1.14,2.61,19.14,85.61,43.601,13.482,0.98574,-0.01368,0.020795,0.16641
24391,1.6477e+09,-1.04,2.57,19.13,85.61,43.601,13.482,0.98578,-0.012721,0.020674,0.1663
24437,1.6477e+09,-1.07,2.56,19.14,85.61,43.601,13.482,0.98577,-0.013003,0.020543,0.16636
24486,1.6477e+09,-1.17,2.59,19.14,85.61,43.601,13.482,0.98575,-0.01385,0.020621,0.16638
24532,1.6478e+09,-1.15,2.6,19.13,85.61,43.601,13.482,0.98575,-0.01372,0.020721,0.16635
24576,1.6478e+09,-1.19,2.6,19.15,85.78,43.601,13.482,0.98573,-0.014035,0.020662,0.16647
24618,1.6478e+09,-1.14,2.57,19.15,85.78,43.601,13.482,0.98574,-0.013607,0.020456,0.16644
24662,1.6478e+09,-1.03,2.53,19.14,85.78,43.601,13.482,0.98577,-0.012594,0.020328,0.16638
24705,1.6478e+09,-0.99,2.55,19.14,85.78,43.601,13.482,0.98577,-0.012255,0.020568,0.16637
24747,1.6478e+09,-1.07,2.57,19.14,85.78,43.601,13.482,0.98575,-0.012998,0.020557,0.16642
24791,1.6478e+09,-1.1,2.57,19.14,85.78,43.601,13.482,0.98576,-0.013231,0.020582,0.16638
24833,1.6478e+09,-1.03,2.58,19.13,85.78,43.601,13.482,0.98577,-0.012613,0.020748,0.16631
24876,1.6478e+09,-0.96,2.54,19.13,85.78,43.601,13.482,0.98579,-0.011976,0.020521,0.16629
24918,1.6479e+09,-1.02,2.57,19.12,85.78,43.601,13.482,0.98579,-0.012513,0.020646,0.16623
24964,1.6479e+09,-1.05,2.6,19.13,85.78,43.601,13.482,0.98577,-0.012891,0.020868,0.16633
25011,1.6479e+09,-1.08,2.62,19.13,85.9,43.601,13.482,0.98577,-0.013136,0.021014,0.16628
25054,1.6479e+09,-1.04,2.57,19.14,85.9,43.601,13.482,0.98576,-0.012709,0.020627,0.16639
25097,1.6479e+09,-1.01,2.59,19.14,85.9,43.601,13.482,0.98577,-0.012533,0.020849,0.16635
25139,1.6479e+09,-1.04,2.61,19.14,85.9,43.601,13.482,0.98575,-0.012805,0.020967,0.16641
25182,1.6479e+09,-1.11,2.62,19.14,85.9,43.601,13.482,0.98574,-0.013417,0.020983,0.16643
25224,1.6479e+09,-1.05,2.56,19.16,85.9,43.601,13.482,0.98574,-0.012821,0.020563,0.16652
25268,1.6479e+09,-1,2.58,19.15,85.9,43.601,13.482,0.98576,-0.012381,0.020741,0.16644
25311,1.6479e+09,-1.01,2.55,19.16,85.9,43.601,13.482,0.98575,-0.012447,0.020512,0.16651
25354,1.648e+09,-1.05,2.58,19.15,85.9,43.601,13.482,0.98575,-0.012792,0.020703,0.16646
25399,1.648e+09,-1.06,2.53,19.16,85.9,43.601,13.482,0.98575,-0.012881,0.020247,0.16652
25442,1.648e+09,-1.02,2.55,19.15,85.73,43.601,13.482,0.98575,-0.012515,0.020501,0.16647
25486,1.648e+09,-0.93,2.51,19.15,85.73,43.601,13.482,0.98578,-0.011698,0.020265,0.16641
25531,1.648e+09,-0.96,2.55,19.14,85.73,43.601,13.482,0.98577,-0.012035,0.020546,0.1664
25575,1.648e+09,-1.05,2.52,19.14,85.73,43.601,13.482,0.98578,-0.012742,0.020158,0.16635
25621,1.648e+09,-1.04,2.54,19.14,85.73,43.601,13.482,0.98576,-0.012689,0.020391,0.16641
25666,1.648e+09,-0.98,2.53,19.14,85.73,43.601,13.482,0.98578,-0.01213,0.020351,0.16636
25710,1.648e+09,-0.92,2.52,19.14,85.73,43.601,13.482,0.98579,-0.011636,0.020416,0.16635
25755,1.648e+09,-0.98,2.55,19.14,85.73,43.601,13.482,0.98578,-0.012209,0.020525,0.16633
25800,1.6481e+09,-1.06,2.57,19.15,85.73,43.601,13.482,0.98575,-0.012885,0.020592,0.16643
25845,1.6481e+09,-1.04,2.52,19.14,85.73,43.601,13.482,0.98577,-0.01262,0.02021,0.16639
25894,1.6481e+09,-0.96,2.53,19.15,85.89,43.601,13.482,0.98577,-0.011988,0.020387,0.16642
25939,1.6481e+09,-0.99,2.53,19.14,85.89,43.601,13.482,0.98578,-0.012261,0.020378,0.16635
25984,1.6481e+09,-1.06,2.57,19.15,85.89,43.601,13.482,0.98575,-0.012887,0.020645,0.16645
26029,1.6481e+09,-1.12,2.54,19.15,85.89,43.601,13.482,0.98575,-0.013338,0.020292,0.16644
26074,1.6481e+09,-1.05,2.53,19.15,85.89,43.601,13.482,0.98576,-0.012715,0.020278,0.16646
26118,1.6481e+09,-0.96,2.52,19.14,85.89,43.601,13.482,0.98578,-0.011953,0.020294,0.16638
26163,1.6481e+09,-0.91,2.53,19.15,85.89,43.601,13.482,0.98578,-0.011539,0.020492,0.1664
26206,1.6482e+09,-0.86,2.5,19.14,85.89,43.601,13.482,0.9858,-0.011099,0.020294,0.16633
26251,1.6482e+09,-0.99,2.55,19.14,85.89,43.601,13.482,0.98577,-0.012265,0.02054,0.16639
26297,1.6482e+09,-1.04,2.54,19.16,85.89,43.601,13.482,0.98575,-0.012676,0.02034,0.16651
26346,1.6482e+09,-0.94,2.51,19.15,85.68,43.601,13.482,0.98577,-0.011742,0.020282,0.16648
26390,1.6482e+09,-0.76,2.48,19.15,85.68,43.601,13.482,0.9858,-0.010174,0.020251,0.16637
26435,1.6482e+09,-0.87,2.52,19.14,85.68,43.601,13.482,0.9858,-0.011169,0.020469,0.16632
26480,1.6482e+09,-1.01,2.58,19.15,85.68,43.601,13.482,0.98575,-0.012485,0.020779,0.16644
26524,1.6482e+09,-0.99,2.49,19.15,85.68,43.601,13.482,0.98577,-0.012181,0.020044,0.16647
26571,1.6482e+09,-0.98,2.46,19.17,85.68,43.601,13.482,0.98574,-0.012032,0.019815,0.16665
26615,1.6483e+09,-0.87,2.47,19.15,85.68,43.601,13.482,0.98579,-0.011109,0.020051,0.16642
26660,1.6483e+09,-0.95,2.53,19.16,85.68,43.601,13.482,0.98576,-0.011888,0.020388,0.16649
26704,1.6483e+09,-1.11,2.52,19.18,85.68,43.601,13.482,0.98572,-0.013223,0.020104,0.16669
26751,1.6483e+09,-0.99,2.47,19.16,85.68,43.601,13.482,0.98576,-0.012121,0.019811,0.16658
26799,1.6483e+09,-0.83,2.47,19.15,85.89,43.601,13.482,0.98579,-0.010781,0.020114,0.16641
26845,1.6483e+09,-0.87,2.5,19.16,85.89,43.601,13.482,0.98577,-0.011194,0.020314,0.16648
26890,1.6483e+09,-0.9,2.52,19.14,85.89,43.601,13.482,0.9858,-0.011433,0.02042,0.16631
26934,1.6483e+09,-0.96,2.49,19.14,85.89,43.601,13.482,0.98579,-0.011893,0.020093,0.16638
26979,1.6483e+09,-0.9,2.48,19.16,85.89,43.601,13.482,0.98577,-0.011405,0.020022,0.16651
27023,1.6483e+09,-0.75,2.44,19.13,85.89,43.601,13.482,0.98583,-0.010084,0.019979,0.16624
27070,1.6484e+09,-0.81,2.52,19.14,85.89,43.601,13.482,0.98579,-0.010701,0.020569,0.16635
27110,1.6484e+09,-0.8,2.51,19.15,85.89,43.601,13.482,0.98578,-0.010609,0.020504,0.16643
27152,1.6484e+09,-0.92,2.54,19.17,85.89,43.601,13.482,0.98574,-0.011621,0.020571,0.16662
27195,1.6484e+09,-0.85,2.4,19.17,85.89,43.601,13.482,0.98577,-0.010888,0.019463,0.16659
27242,1.6484e+09,-0.89,2.39,19.17,85.96,43.601,13.482,0.98578,-0.011185,0.019272,0.16658
27285,1.6484e+09,-0.88,2.53,19.2,85.96,43.601,13.482,0.98571,-0.01135,0.020546,0.16682
27328,1.6484e+09,-0.89,2.52,19.18,85.96,43.601,13.482,0.98574,-0.011356,0.020455,0.16665
27374,1.6484e+09,-0.92,2.53,19.16,85.96,43.601,13.482,0.98575,-0.011675,0.020483,0.16654
27417,1.6484e+09,-1.03,2.41,19.16,85.96,43.601,13.482,0.98576,-0.012441,0.019244,0.16657
27459,1.6485e+09,-0.84,2.36,19.16,85.96,43.601,13.482,0.9858,-0.010681,0.019123,0.16651
27502,1.6485e+09,-0.68,2.53,19.17,85.96,43.601,13.482,0.98576,-0.0095485,0.02086,0.1666
27545,1.6485e+09,-0.92,2.52,19.17,85.96,43.601,13.482,0.98574,-0.011663,0.020402,0.16664
27587,1.6485e+09,-0.99,2.45,19.17,85.96,43.601,13.482,0.98575,-0.012165,0.019673,0.16664
27634,1.6485e+09,-0.82,2.38,19.16,86.02,43.601,13.482,0.9858,-0.010602,0.019347,0.16649
27678,1.6485e+09,-0.65,2.44,19.17,86.02,43.601,13.482,0.98579,-0.0091834,0.020066,0.16652
27721,1.6485e+09,-0.59,2.55,19.18,86.02,43.601,13.482,0.98575,-0.0087977,0.021155,0.16664
27767,1.6485e+09,-0.68,2.54,19.19,86.02,43.601,13.482,0.98574,-0.0095664,0.020863,0.16673
27815,1.6485e+09,-0.82,2.52,19.21,86.02,43.601,13.482,0.98569,-0.010812,0.020558,0.16695
27853,1.6486e+09,-0.94,2.49,19.22,86.02,43.601,13.482,0.98568,-0.011733,0.020079,0.167
27897,1.6486e+09,-1.05,2.47,19.21,86.02,43.601,13.482,0.98569,-0.012649,0.019786,0.16695
27941,1.6486e+09,-0.96,2.47,19.2,86.02,43.601,13.482,0.98571,-0.011886,0.01992,0.16685
27985,1.6486e+09,-0.84,2.49,19.19,86.02,43.601,13.482,0.98573,-0.010909,0.020223,0.16676
28029,1.6486e+09,-0.74,2.53,19.19,86.02,43.601,13.482,0.98574,-0.010138,0.02075,0.16671
28079,1.6486e+09,-0.8,2.58,19.18,85.74,43.601,13.482,0.98572,-0.010711,0.021108,0.1667
28123,1.6486e+09,-0.81,2.6,19.18,85.74,43.601,13.482,0.98573,-0.010759,0.021237,0.16666
28169,1.6486e+09,-0.78,2.61,19.17,85.74,43.601,13.482,0.98575,-0.010529,0.021393,0.16655
28214,1.6486e+09,-0.74,2.68,19.17,85.74,43.601,13.482,0.98573,-0.010345,0.021992,0.16658
28258,1.6487e+09,-0.76,2.74,19.17,85.74,43.601,13.482,0.98571,-0.010559,0.022492,0.16661
28303,1.6487e+09,-0.81,2.77,19.2,85.74,43.601,13.482,0.98566,-0.011054,0.02265,0.16685
28347,1.6487e+09,-0.82,2.75,19.21,85.74,43.601,13.482,0.98565,-0.011077,0.022489,0.16693
28392,1.6487e+09,-0.75,2.71,19.23,85.74,43.601,13.482,0.98564,-0.010432,0.022286,0.16707
28438,1.6487e+09,-0.65,2.69,19.25,85.74,43.601,13.482,0.98562,-0.0095809,0.022241,0.16723
28484,1.6487e+09,-0.64,2.71,19.24,85.74,43.601,13.482,0.98562,-0.009488,0.022429,0.16719
28532,1.6487e+09,-0.62,2.69,19.26,85.47,43.601,13.482,0.98561,-0.0093219,0.022247,0.16733
28578,1.6487e+09,-0.59,2.67,19.27,85.47,43.601,13.482,0.9856,-0.0090085,0.022143,0.1674
28629,1.6487e+09,-0.55,2.69,19.29,85.47,43.601,13.482,0.98557,-0.0087577,0.022406,0.16756
28671,1.6488e+09,-0.4,2.59,19.27,85.47,43.601,13.482,0.98562,-0.0072784,0.021703,0.16741
28715,1.6488e+09,-0.25,2.52,19.28,85.47,43.601,13.482,0.98563,-0.0058797,0.021335,0.16745
28761,1.6488e+09,-0.12,2.5,19.27,85.47,43.601,13.482,0.98566,-0.0047701,0.021374,0.16729
28807,1.6488e+09,-0.08,2.4,19.24,85.47,43.601,13.482,0.98572,-0.0042114,0.020573,0.16706
28851,1.6488e+09,-0.01,2.28,19.24,85.47,43.601,13.482,0.98575,-0.0034806,0.019635,0.16702
28897,1.6488e+09,0.08,2.21,19.23,85.47,43.601,13.482,0.98578,-0.0024566,0.019182,0.16694
28949,1.6488e+09,0.14,2.13,19.25,85.35,43.601,13.482,0.98577,-0.0018781,0.018545,0.16708
28994,1.6488e+09,0.19,1.97,19.27,85.35,43.601,13.482,0.98576,-0.0012258,0.017254,0.16725
29039,1.6488e+09,0.27,1.8,19.29,85.35,43.601,13.482,0.98575,-0.00030395,0.015927,0.16747
29083,1.6489e+09,0.32,1.63,19.3,85.35,43.601,13.482,0.98575,0.00040075,0.014508,0.16758
29128,1.6489e+09,0.36,1.54,19.34,85.35,43.601,13.482,0.9857,0.00091153,0.013788,0.16792
29172,1.6489e+09,0.31,1.36,19.4,85.35,43.601,13.482,0.98564,0.0007053,0.012238,0.16842
29217,1.6489e+09,0.36,1.19,19.47,85.35,43.601,13.482,0.98556,0.0014048,0.010838,0.169
29262,1.6489e+09,0.5,1.02,19.52,85.35,43.601,13.482,0.98549,0.0028158,0.0095804,0.16942
29307,1.6489e+09,0.54,0.88,19.57,85.35,43.601,13.482,0.98542,0.0034129,0.0083988,0.16992
29354,1.6489e+09,0.56,0.69,19.66,85.35,43.601,13.482,0.9853,0.0038542,0.0068532,0.17063
29402,1.6489e+09,0.59,0.5,19.74,85.37,43.601,13.482,0.98518,0.0043544,0.0051979,0.17137
29448,1.6489e+09,0.67,0.34,19.86,85.37,43.601,13.482,0.985,0.0053209,0.0039525,0.17241
29493,1.6489e+09,0.68,0.2,19.95,85.37,43.601,13.482,0.98487,0.0055859,0.0027985,0.17319
29535,1.649e+09,0.79,-0.13,20.06,85.37,43.601,13.482,0.9847,0.0070508,4.761e-05,0.1741
29577,1.649e+09,0.76,-0.29,20.18,85.37,43.601,13.482,0.98452,0.0069897,-0.0013545,0.17514
29619,1.649e+09,0.71,-0.52,20.33,85.37,43.601,13.482,0.98428,0.0069685,-0.0033732,0.17645
29662,1.649e+09,0.68,-0.76,20.43,85.37,43.601,13.482,0.98411,0.0070375,-0.0054963,0.17736
29704,1.649e+09,0.66,-0.96,20.53,85.37,43.601,13.482,0.98393,0.0072008,-0.0072566,0.17824
29748,1.649e+09,0.63,-1.14,20.67,85.37,43.601,13.482,0.98371,0.0072412,-0.0088246,0.17942
29791,1.649e+09,0.63,-1.38,20.79,85.37,43.601,13.482,0.98349,0.007656,-0.010914,0.18048
29838,1.649e+09,0.68,-1.56,20.93,85.59,43.601,13.482,0.98325,0.0083615,-0.012349,0.18164
29881,1.649e+09,0.64,-1.67,21.07,85.59,43.601,13.482,0.98301,0.0081788,-0.013373,0.18286
29923,1.6491e+09,0.56,-1.78,21.21,85.59,43.601,13.482,0.98277,0.0077313,-0.014439,0.18409
29966,1.6491e+09,0.52,-1.93,21.37,85.59,43.601,13.482,0.98251,0.0076084,-0.01571,0.18539
30010,1.6491e+09,0.52,-2.05,21.52,85.59,43.601,13.482,0.98224,0.0078802,-0.016722,0.18671
30053,1.6491e+09,0.51,-2.09,21.66,85.59,43.601,13.482,0.98201,0.0078206,-0.017132,0.18788
30095,1.6491e+09,0.36,-2.15,21.83,85.59,43.601,13.482,0.98172,0.006659,-0.017843,0.18937
30138,1.6491e+09,0.26,-2.25,22.04,85.59,43.601,13.482,0.98137,0.0060126,-0.018863,0.1911
30181,1.6491e+09,0.23,-2.36,22.19,85.59,43.601,13.482,0.9811,0.0059587,-0.019839,0.1924
30223,1.6491e+09,0.18,-2.4,22.35,85.59,43.601,13.482,0.98082,0.0056577,-0.020255,0.19377
30270,1.6491e+09,0.16,-2.45,22.52,85.32,43.601,13.482,0.98053,0.0055624,-0.020697,0.19518
30314,1.6492e+09,0.04,-2.54,22.73,85.32,43.601,13.482,0.98016,0.0047433,-0.021665,0.19698
30361,1.6492e+09,0.09,-2.64,22.95,85.32,43.601,13.482,0.97975,0.0054324,-0.022449,0.19887
30400,1.6492e+09,-0.02,-2.66,23.18,85.32,43.601,13.482,0.97935,0.0044533,-0.022797,0.20084
30444,1.6492e+09,0.01,-2.69,23.37,85.32,43.601,13.482,0.97902,0.00493,-0.022995,0.20242
30490,1.6492e+09,0,-2.64,23.56,85.32,43.601,13.482,0.97868,0.004716,-0.022569,0.2041
30535,1.6492e+09,-0.15,-2.63,23.78,85.32,43.601,13.482,0.97829,0.0033841,-0.022777,0.20595
30579,1.6492e+09,-0.18,-2.62,23.97,85.32,43.601,13.482,0.97797,0.0031875,-0.022742,0.2075
30624,1.6492e+09,-0.1,-2.64,24.13,85.32,43.601,13.482,0.97767,0.003972,-0.022752,0.20889
30670,1.6492e+09,-0.1,-2.64,24.31,85.32,43.601,13.482,0.97734,0.0039975,-0.022732,0.21043
30719,1.6493e+09,-0.19,-2.62,24.51,85.67,43.601,13.482,0.97697,0.0032353,-0.022746,0.21212
30765,1.6493e+09,-0.21,-2.61,24.68,85.67,43.601,13.482,0.97666,0.0030531,-0.022708,0.21357
30810,1.6493e+09,-0.2,-2.54,24.86,85.67,43.601,13.482,0.97633,0.0030446,-0.022082,0.21512
30855,1.6493e+09,-0.31,-2.51,25.03,85.67,43.601,13.482,0.97603,0.0020918,-0.021981,0.21652
30899,1.6493e+09,-0.31,-2.45,25.18,85.67,43.601,13.482,0.97574,0.0020055,-0.021491,0.21785
30944,1.6493e+09,-0.34,-2.35,25.36,85.67,43.601,13.482,0.97542,0.001578,-0.020726,0.21939
30988,1.6493e+09,-0.52,-2.26,25.52,85.67,43.601,13.482,0.97513,-0.00012796,-0.020313,0.22069
31033,1.6493e+09,-0.55,-2.17,25.67,85.67,43.601,13.482,0.97485,-0.00047428,-0.0196,0.22202
31077,1.6493e+09,-0.54,-2.04,25.82,85.67,43.601,13.482,0.97458,-0.00061467,-0.018436,0.22328
31122,1.6493e+09,-0.72,-1.95,25.98,85.67,43.601,13.482,0.97427,-0.0023169,-0.018085,0.22462
31173,1.6494e+09,-0.78,-1.85,26.16,85.83,43.601,13.482,0.97393,-0.0029863,-0.017323,0.22615
31216,1.6494e+09,-0.91,-1.78,26.31,85.83,43.601,13.482,0.97364,-0.0042477,-0.017027,0.22743
31261,1.6494e+09,-0.97,-1.62,26.45,85.83,43.601,13.482,0.97337,-0.0050771,-0.015726,0.22863
31309,1.6494e+09,-1.12,-1.45,26.6,85.83,43.601,13.482,0.97309,-0.0066579,-0.014621,0.22986
31353,1.6494e+09,-1.13,-1.36,26.7,85.83,43.601,13.482,0.9729,-0.0068847,-0.013904,0.23072
31398,1.6494e+09,-1.25,-1.22,26.83,85.83,43.601,13.482,0.97264,-0.0081314,-0.01294,0.2318
31442,1.6494e+09,-1.36,-1.13,26.94,85.83,43.601,13.482,0.97241,-0.0092633,-0.012407,0.23276
31487,1.6494e+09,-1.55,-1.01,27.04,85.83,43.601,13.482,0.9722,-0.011142,-0.011817,0.23358
31532,1.6494e+09,-1.65,-0.96,27.13,85.83,43.601,13.482,0.972,-0.012109,-0.011552,0.23439
31581,1.6495e+09,-1.71,-0.89,27.22,86.25,43.601,13.482,0.97183,-0.012668,-0.011091,0.2351
31626,1.6495e+09,-1.76,-0.77,27.32,86.25,43.601,13.482,0.97161,-0.013354,-0.010221,0.23598
31670,1.6495e+09,-1.97,-0.65,27.39,86.25,43.601,13.482,0.97145,-0.015347,-0.0096553,0.23655
31715,1.6495e+09,-2.17,-0.63,27.45,86.25,43.601,13.482,0.97129,-0.017094,-0.0099081,0.23708
31759,1.6495e+09,-2.25,-0.55,27.52,86.25,43.601,13.482,0.97114,-0.017965,-0.009401,0.23764
31804,1.6495e+09,-2.28,-0.42,27.58,86.25,43.601,13.482,0.97101,-0.018512,-0.0083653,0.23819
31850,1.6495e+09,-2.33,-0.37,27.62,86.25,43.601,13.482,0.9709,-0.01904,-0.0080177,0.23859
31894,1.6495e+09,-2.45,-0.3,27.67,86.25,43.601,13.482,0.97079,-0.020184,-0.0077101,0.23897
