LineNo,TimeUS,ThI,ABst,ThO,ThH,DAlt,Alt,BAlt,DSAlt,SAlt,TAlt,DCRt,CRt
2022,1642394050,0,0,0,0.2585996,-0.5060658,-0.5060658,-0.84,NaN,0,0.04238544,32,32
2454,1642498366,0,0,0,0.2585996,-0.4808903,-0.4808903,-0.63,NaN,0,0.06742359000000001,32,32
2864,1642602527,0,0,0,0.2585996,-0.4618208,-0.4618208,-0.5600000000000001,NaN,0,0.08649311,31,31
3319,1642705353,0,0,0,0.2585996,-0.4420802,-0.4420802,-0.37,NaN,0,0.1058141,31,31
3768,1642809916,0,0,0,0.2585996,-0.4240614,-0.4240614,-0.6,NaN,0,0.1236956,30,30
4219,1642912123,0,0,0,0.2585996,-0.4099,-0.4099,-0.5,NaN,0,0.1375822,29,29
4653,1643015183,0,0,0,0.2585996,-0.3934305,-0.3934305,-0.48,NaN,0,0.1539069,29,29
5088,1643118314,0,0,0,0.2585996,-0.3750447,-0.3750447,-0.42,NaN,0,0.1721552,29,29
5527,1643222386,0,0,0,0.2585996,-0.3630828,-0.3630828,-0.4,NaN,0,0.1839798,28,28
5982,1643325171,0,0,0,0.2585996,-0.347205,-0.347205,-0.51,NaN,0,0.1998577,27,27
6429,1643430351,0,0,0,0.2585996,-0.3359625,-0.3359625,-0.68,NaN,0,0.2106042,27,27
6848,1643532537,0,0,0,0.2585996,-0.321051,-0.321051,-0.51,NaN,0,0.2253784,26,26
7282,1643635486,0,0,0,0.2585996,-0.3117487,-0.3117487,-0.7,NaN,0,0.2344137,25,25
7685,1643736875,0,0,0,0.2585996,-0.3002588,-0.3002588,-0.54,NaN,0,0.2457586,25,25
8133,1643840101,0,0,0,0.2585996,-0.2979576,-0.2979576,-0.5600000000000001,NaN,0,0.2480598,24,24
8586,1643941488,0,0,0,0.2585996,-0.289067,-0.289067,-0.6,NaN,0,0.2566758,23,23
9031,1644044135,0,0,0,0.2585996,-0.285503,-0.285503,-0.73,NaN,0,0.2599575,23,23
9483,1644146485,0,0,0,0.2585996,-0.2777383,-0.2777383,-0.67,NaN,0,0.2677222,22,22
9912,1644251063,0,0,0,0.2585996,-0.2761633,-0.2761633,-0.78,NaN,0,0.2691599,22,22
10313,1644355074,0,0,0,0.2585996,-0.26995,-0.26995,-0.63,NaN,0,0.2753731,21,21
10765,1644458506,0,0,0,0.2585996,-0.2654066,-0.2654066,-0.82,NaN,0,0.2795656,20,20
11213,1644562279,0,0,0,0.2585996,-0.2612342,-0.2612342,-0.76,NaN,0,0.283738,20,20
11668,1644666182,0,0,0,0.2585996,-0.2578621,-0.2578621,-0.5600000000000001,NaN,0,0.2869651,20,20
12116,1644771076,0,0,0,0.2585996,-0.252405,-0.252405,-0.75,NaN,0,0.2924223,19,19
12551,1644873612,0,0,0,0.2585996,-0.2473533,-0.2473533,-0.97,NaN,0,0.2973366,19,19
12951,1644976926,0,0,0,0.2585996,-0.2415883,-0.2415883,-0.57,NaN,0,0.3028803,18,18
13401,1645078765,0,0,0,0.2585996,-0.2394388,-0.2394388,-0.82,NaN,0,0.3047552,18,18
13634,1645182109,0,0,0,0.2585996,-0.2342124,-0.2342124,-0.79,NaN,0,0.3098366,17,17
14056,1645284527,0,0,0,0.2585996,-0.2322093,-0.2322093,-0.59,NaN,0,0.3118398,17,17
14499,1645387162,0,0,0,0.2585996,-0.2293587,-0.2293587,-0.85,NaN,0,0.3144005,17,17
14930,1645489165,0,0,0,0.2585996,-0.2307191,-0.2307191,-0.89,NaN,0,0.31304,16,16
15364,1645591750,0,0,0,0.2585996,-0.2301109,-0.2301109,-0.72,NaN,0,0.3132287,16,16
15785,1645693109,0,0,0,0.2585996,-0.2325218,-0.2325218,-0.62,NaN,0,0.3108177,15,15
16237,1645797221,0,0,0,0.2585996,-0.2312402,-0.2312402,-0.46,NaN,0,0.3118094,15,15
16689,1645900209,0,0,0,0.2585996,-0.2301807,-0.2301807,-0.5600000000000001,NaN,0,0.3128689,14,14
17130,1646003638,0,0,0,0.2585996,-0.2286002,-0.2286002,-0.51,NaN,0,0.3141671,14,14
17561,1646106587,0,0,0,0.2585996,-0.2243684,-0.2243684,-0.55,NaN,0,0.3179793,13,13
17971,1646210079,0,0,0,0.2585996,-0.2221702,-0.2221702,-0.66,NaN,0,0.3201775,13,13
18394,1646312562,0,0,0,0.2585996,-0.2183464,-0.2183464,-0.9,NaN,0,0.3238563,13,13
18842,1646416928,0,0,0,0.2585996,-0.2177466,-0.2177466,-0.53,NaN,0,0.3243112,12,12
19294,1646519171,0,0,0,0.2585996,-0.2150135,-0.2150135,-0.42,NaN,0,0.3268993,12,12
19732,1646624080,0,0,0,0.2585996,-0.2163382,-0.2163382,-0.49,NaN,0,0.3253,12,12
20137,1646726758,0,0,0,0.2585996,-0.2154281,-0.2154281,-0.87,NaN,0,0.3262101,12,12
20581,1646832717,0,0,0,0.2585996,-0.216694,-0.216694,-0.97,NaN,0,0.3245856,11,11
21036,1646934078,0,0,0,0.2585996,-0.2177997,-0.2177997,-0.67,NaN,0,0.3234799,11,11
21452,1647037728,0,0,0,0.2585996,-0.2238059,-0.2238059,-0.46,NaN,0,0.3173287,10,10
21906,1647141265,0,0,0,0.2585996,-0.2250706,-0.2250706,-0.65,NaN,0,0.316064,10,10
22338,1647245647,0,0,0,0.2585996,-0.2283193,-0.2283193,-0.58,NaN,0,0.312533,9,9
22772,1647348139,0,0,0,0.2585996,-0.2284422,-0.2284422,-0.57,NaN,0,0.3123415,9,9
23190,1647451917,0,0,0,0.2585996,-0.2312036,-0.2312036,-0.84,NaN,0,0.3094428,9,9
23639,1647558364,0,0,0,0.2585996,-0.2322969,-0.2322969,-0.31,NaN,0,0.3081968,9,9
24092,1647662087,0,0,0,0.2585996,-0.2329208,-0.2329208,-0.49,NaN,0,0.3074433,8,8
24545,1647765790,0,0,0,0.2585996,-0.2320293,-0.2320293,-0.32,NaN,0,0.3081135,8,8
24980,1647869266,0,0,0,0.2585996,-0.2360929,-0.2360929,-0.2,NaN,0,0.3037676,8,8
25411,1647974542,0,0,0,0.2585996,-0.2355778,-0.2355778,-0.37,NaN,0,0.3041377,7,7
25864,1648077075,0.006249994,3.954861e-06,0.0003695639,0.2585996,-0.2350574,-0.2350574,-0.21,NaN,0,0.3045208,7,7
26313,1648183251,0.05499949,3.185868e-05,0.02504104,0.2585996,-0.2329952,-0.2329952,-0.42,NaN,0,0.3063008,7,7
26766,1648288556,0.1049991,6.897002e-05,0.0672131,0.2585996,-0.2307169,-0.2307169,-0.21,NaN,0,0.3082968,6,6
27207,1648395182,0.1537489,9.341538e-05,0.1146268,0.2585996,-0.2265593,-0.2265593,-0.14,NaN,0,0.3124543,9,9
27609,1648498982,0.2037488,0.0001082122,0.1633412,0.2585996,-0.220851,-0.220851,-0.08,NaN,0,0.3180254,6,6
28046,1648605745,0.2524988,0.0001520514,0.2123936,0.2585996,-0.2142184,-0.2142184,-0.36,NaN,0,0.3243833,7,7
28499,1648713191,0.3024987,0.0002001226,0.2618553,0.2585996,-0.2060084,-0.2060084,-0.63,NaN,0,0.3324483,12,12
28919,1648819378,0.3091506,6.288289999999999e-05,0.3044583,0.2585996,-0.1917817,-0.1943234,-0.75,NaN,0,0.3437213,23,25
29372,1648924699,0.2497679,1.005828e-05,0.2856973,0.2585996,-0.1614328,-0.1628122,-0.73,NaN,0,0.3752401,37,48
29806,1649032407,0.2548616,0.0002176762,0.2584055,0.2585996,-0.120067,-0.1141233,-0.51,NaN,0,0.423807,47,65
30239,1649135701,0.2535311,0.0004128218,0.2545907,0.2585996,-0.06771240000000001,-0.0522516,-0.78,NaN,0,0.4856939,55,74
30682,1649241905,0.2549364,0.0004840195,0.2542653,0.2585996,-0.01034576,0.01585607,-0.43,NaN,0,0.5540381,61,80
31134,1649348473,0.2507619,0.0003685653,0.2542834,0.2585996,0.05658194,0.0884216,-0.27,NaN,0,0.6269165,66,83
31551,1649453541,0.2582642,0.0003184378,0.2598801,0.2585996,0.1270602,0.1669404,0.14,NaN,0,0.7060456000000001,70,82
31998,1649560490,0.2594908,0.0004856288,0.2604631,0.2585996,0.201762,0.2472141,0.06,NaN,0,0.7867847,73,85
32450,1649665287,0.2614669,0.0007038713,0.2582983,0.2585996,0.2819389,0.3248034,0.26,NaN,0,0.8647860000000001,77,85
32900,1649772283,0.26215,0.001008272,0.2613251,0.2585996,0.3608281,0.4084666,-0.03,NaN,0,0.949052,79,86
33333,1649875228,0.2738527,0.001253903,0.2643016,0.2585996,0.4462247,0.4916962,0.19,NaN,0,1.032739,81,86
33769,1649982523,0.2659257,0.001404345,0.2678427,0.2585996,0.531315,0.5729698,0.37,NaN,0,1.114417,83,85
34221,1650087603,0.2464914,0.00124909,0.2566815,0.2585996,0.6201379,0.65434,0.21,NaN,0,1.196085,86,89
34670,1650194226,0.2471275,0.001162872,0.2523414,0.2585996,0.7079682,0.7419996,0.08,NaN,0,1.284042,87,91
35122,1650298808,0.2580006,0.001241803,0.2529433,0.2585996,0.7990823,0.8247491,0.31,NaN,0,1.366944,89,91
35562,1650406511,0.2604496,0.001401365,0.2603757,0.2585996,0.8887777,0.9058098999999999,0,NaN,0,1.448234,90,90
35996,1650509948,0.2599972,0.001581252,0.2604345,0.2585996,0.981495,0.9784037,0,NaN,0,1.521049,93,91
36402,1650617568,0.2744119,0.001971602,0.2656946,0.2585996,1.074888,1.04856,0.31,NaN,0,1.591305,96,91
36854,1650722379,0.283089,0.002363741,0.2766091,0.2585996,1.168876,1.111705,0.31,NaN,0,1.654465,99,93
37305,1650829331,0.2687421,0.002121359,0.2770905,0.2585996,1.260865,1.177518,0.49,NaN,0,1.720155,102,94
37756,1650935183,0.2530076,0.001661718,0.2631741,0.2585996,1.355484,1.249311,0.91,NaN,0,1.792094,105,99
38207,1651043282,0.2648611,0.001720339,0.2626702,0.2585996,1.450374,1.336468,0.9,NaN,0,1.879396,106,103
38627,1651146400,0.2720454,0.002197295,0.2705249,0.2585996,1.545455,1.420844,0.79,NaN,0,1.963924,107,103
39059,1651251198,0.2682067,0.002882689,0.2719314,0.2585996,1.640808,1.50918,0.77,NaN,0,2.051978,108,104
39486,1651356196,0.2922456,0.003730088,0.2807253,0.2585996,1.736286,1.598548,0.6899999999999999,NaN,0,2.141056,109,103
39939,1651461754,0.2971919,0.004369259,0.2959252,0.2585996,1.831965,1.685188,0.86,NaN,0,2.227139,110,102
40385,1651566306,0.2630638,0.003253669,0.2819895,0.2585996,1.922973,1.766518,1.16,NaN,0,2.308325,111,106
40838,1651672120,0.268012,0.002746701,0.2704538,0.2585996,2.018801,1.856235,1.19,NaN,0,2.397515,112,110
41255,1651778312,0.2679991,0.002453923,0.2731884,0.2585996,2.112292,1.947988,1.16,NaN,0,2.489046,112,110
41708,1651885526,0.2572432,0.00225091,0.2655424,0.2585996,2.208245,2.047435,1.37,NaN,0,2.5877,111,112
42152,1651994769,0.2498379,0.002486259,0.2555718,0.2585996,2.300617,2.146677,1.13,NaN,0,2.686499,108,112
42578,1652101363,0.2548633,0.002844512,0.249411,0.2585996,2.385604,2.239513,1.49,NaN,0,2.778886,100,105
43010,1652209485,0.2662952,0.00325039,0.2569571,0.2585996,2.463685,2.323408,2.12,NaN,0,2.862193,92,95
43424,1652315625,0.2455918,0.003125414,0.2612126,0.2585996,2.53587,2.399461,2.32,NaN,0,2.93717,86,88
43866,1652426555,0.2669604,0.003960907,0.2616252,0.2585996,2.60321,2.47923,2.27,NaN,0,3.016077,81,82
44312,1652534387,0.2719187,0.00454846,0.2684375,0.2585996,2.666624,2.553153,2.23,NaN,0,3.089702,76,75
44755,1652643900,0.2672977,0.003979027,0.2709287,0.2585996,2.726633,2.624665,2.73,NaN,0,3.16081,71,71
45198,1652754390,0.2581302,0.003107458,0.2695187,0.2585996,2.783863,2.695439,3.05,NaN,0,3.231142,67,68
45645,1652861369,0.2390921,0.001771823,0.2537765,0.2585996,2.838819,2.765026,2.49,NaN,0,3.300126,64,69
46089,1652972375,0.2469058,0.001092926,0.2510633,0.2585996,2.893209,2.83927,2.82,NaN,0,3.37411,60,66
46515,1653077952,0.2235526,0.0007624179,0.2377698,0.2585996,2.944703,2.910739,2.91,NaN,0,3.445343,56,66
46912,1653187484,0.2246834,0.001043499,0.2253295,0.2585996,2.994929,2.985858,2.53,NaN,0,3.520217,53,66
47360,1653294112,0.2357146,0.001496017,0.223917,0.2585996,3.044111,3.053915,2.73,NaN,0,3.588122,50,63
47802,1653402476,0.2411147,0.002127141,0.2379866,0.2585996,3.0924,3.11214,2.99,NaN,0,3.646607,48,56
48245,1653508857,0.2359247,0.002339497,0.242743,0.2585996,3.139902,3.162408,3.25,NaN,0,3.69715,47,51
48685,1653616535,0.2464529,0.002221972,0.2443618,0.2585996,3.186801,3.214404,3.49,NaN,0,3.749115,46,48
49102,1653724491,0.2486137,0.001663506,0.2479219,0.2585996,3.233202,3.268153,3.03,NaN,0,3.803024,45,45
49545,1653833907,0.2394285,0.000880897,0.2459624,0.2585996,3.279206,3.316854,3.58,NaN,0,3.852053,44,44
49991,1653941079,0.2363922,0.0006591677999999999,0.2412324,0.2585996,3.32484,3.363775,3.26,NaN,0,3.899012,44,45
50400,1654049504,0.2366614,0.0007711202,0.2420762,0.2585996,3.370229,3.410443,3.56,NaN,0,3.945948,43,45
50843,1654159262,0.2608361,0.001265258,0.2492131,0.2585996,3.415351,3.457254,3.4,NaN,0,3.993041,43,41
51293,1654267336,0.254086,0.001760513,0.251964,0.2585996,3.460229,3.50205,3.69,NaN,0,4.038249,43,41
51702,1654376933,0.2469267,0.001788974,0.2540387,0.2585996,3.505027,3.547757,3.77,NaN,0,4.084589,42,40
52148,1654483793,0.2576246,0.001921326,0.2560143,0.2585996,3.549645,3.589605,3.71,NaN,0,4.126589,42,39
52555,1654593047,0.2660216,0.002000153,0.26133,0.2585996,3.594134,3.632393,3.78,NaN,0,4.16966,42,38
52983,1654698335,0.2540439,0.001863748,0.2622783,0.2585996,3.638601,3.673294,3.93,NaN,0,4.211133,43,38
53415,1654806531,0.2694965,0.002049774,0.2623638,0.2585996,3.681834,3.71668,4.15,NaN,0,4.254954,43,39
53829,1654912635,0.2704964,0.002231508,0.2684672,0.2585996,3.726214,3.76221,3.83,NaN,0,4.300628,43,37
54272,1655022863,0.2452062,0.0018958,0.2633193,0.2585996,3.770515,3.808051,4.04,NaN,0,4.34676,42,41
54720,1655130589,0.2547062,0.001996458,0.2540595,0.2585996,3.814757,3.856748,3.85,NaN,0,4.395601,42,43
55167,1655238620,0.2774675,0.002351165,0.2627425,0.2585996,3.858965,3.902925,4.09,NaN,0,4.441939,42,40
55616,1655344934,0.2617904,0.002391577,0.2676631,0.2585996,3.903138,3.948093,4.57,NaN,0,4.487123,42,41
56058,1655452983,0.2576012,0.002496034,0.2629401,0.2585996,3.947328,3.994188,4.64,NaN,0,4.532934,41,40
56470,1655562334,0.2554346,0.002447218,0.2606499,0.2585996,3.992632,4.046598,4.45,NaN,0,4.585498,41,41
56898,1655669346,0.26513,0.002959579,0.2662587,0.2585996,4.036721,4.096876,4.64,NaN,0,4.635645,40,39
57329,1655776605,0.2636853,0.003967643,0.2682145,0.2585996,4.080901,4.147687,4.22,NaN,0,4.68603,39,38
57774,1655884065,0.2712536,0.005481601,0.2738864,0.2585996,4.125049,4.194339,4.42,NaN,0,4.732124,39,38
58185,1655992971,0.2603549,0.005915105,0.2736105,0.2585996,4.169147,4.238996,4.04,NaN,0,4.776347,39,38
58633,1656100523,0.261833,0.005516499,0.266962,0.2585996,4.213162,4.280138,4.16,NaN,0,4.816634,39,39
59077,1656208163,0.2605828,0.004855573,0.2674671,0.2585996,4.257103,4.318504,4.46,NaN,0,4.854115,40,39
59523,1656314314,0.2524056,0.004082948,0.2635977,0.2585996,4.300993,4.355938,4.11,NaN,0,4.890459,40,40
59968,1656425055,0.2510598,0.003321111,0.2601803,0.2585996,4.344893,4.395602,4.55,NaN,0,4.928749,41,41
60413,1656530517,0.2482666,0.002497226,0.2536869,0.2585996,4.388855,4.435326,4.68,NaN,0,4.967443,41,42
60838,1656639492,0.250356,0.002311766,0.2520888,0.2585996,4.431724,4.479465,4.3,NaN,0,5.01027,41,43
61269,1656745539,0.2470738,0.002079561,0.2533642,0.2585996,4.47572,4.523527,4.16,NaN,0,5.05295,41,44
61707,1656852661,0.2483239,0.002056837,0.2520955,0.2585996,4.518663,4.56285,4.32,NaN,0,5.090672,42,44
62117,1656962095,0.256949,0.002028555,0.2529329,0.2585996,4.56163,4.601734,4.49,NaN,0,5.128014,42,43
62564,1657070576,0.2605583,0.001938462,0.257791,0.2585996,4.605717,4.635725,4.12,NaN,0,5.160404,43,42
62977,1657177762,0.2555857,0.002007127,0.2598483,0.2585996,4.649904,4.670124,4.5,NaN,0,5.192842,44,42
63422,1657286409,0.2479149,0.002015322,0.254774,0.2585996,4.694123,4.702754,4.79,NaN,0,5.223511,45,43
63864,1657395103,0.2506044,0.002125502,0.2543851,0.2585996,4.738303,4.739818,4.46,NaN,0,5.258332,46,45
64311,1657503473,0.2448108,0.002095684,0.2550616,0.2585996,4.782409,4.776526,4.55,NaN,0,5.292592,46,46
64753,1657612561,0.2524817,0.002368361,0.2528201,0.2585996,4.826451,4.815074,4.87,NaN,0,5.328331,47,46
65202,1657718602,0.2590672,0.00258106,0.2529975,0.2585996,4.870406,4.853687,4.88,NaN,0,5.364213,47,46
65635,1657825373,0.2523855,0.002596229,0.2553934,0.2585996,4.913171,4.892624,4.31,NaN,0,5.400037,48,47
66028,1657930983,0.2475339,0.002190843,0.2525144,0.2585996,4.957225,4.928347,5.1,NaN,0,5.432746,49,47
66464,1658038770,0.25126,0.002176911,0.2544237,0.2585996,5.00126,4.968985,5.51,NaN,0,5.470005,49,48
66908,1658146475,0.2428858,0.002239779,0.251053,0.2585996,5.045381,5.018894,6.25,NaN,0,5.516603,49,50
67354,1658255817,0.2315836,0.002084732,0.2416304,0.2585996,5.089514,5.081023,5.5,NaN,0,5.574978,47,51
67767,1658365777,0.2211691,0.00183405,0.2333951,0.2585996,5.134842,5.148459,4.83,NaN,0,5.638958,45,53
68212,1658474058,0.232436,0.002111778,0.2292742,0.2585996,5.180242,5.210909,5.1,NaN,0,5.69744,43,53
68635,1658581696,0.2513683,0.003202409,0.2388224,0.2585996,5.22558,5.267541,5.34,NaN,0,5.750235,42,47
69084,1658688739,0.2460459,0.003645077,0.2488587,0.2585996,5.269712,5.321098,5.74,NaN,0,5.799672,41,44
69493,1658797175,0.2623953,0.003656566,0.2556649,0.2585996,5.313814,5.371927,5.35,NaN,0,5.846366,40,41
69939,1658904400,0.2409593,0.002357662,0.2527529,0.2585996,5.357893,5.416258,4.88,NaN,0,5.886272,40,40
70380,1659013297,0.2455133,0.001440316,0.2481886,0.2585996,5.400751,5.454059,4.81,NaN,0,5.919366,40,40
70826,1659119530,0.263203,0.001227468,0.2512077,0.2585996,5.444735,5.486001,4.87,NaN,0,5.946737,42,39
71270,1659227275,0.2576253,0.00129205,0.2587073,0.2585996,5.488706,5.51136,4.88,NaN,0,5.967595,43,38
71684,1659334125,0.2613329,0.001436383,0.261359,0.2585996,5.532665,5.534873,5.03,NaN,0,5.986821,46,37
72094,1659441933,0.2745995,0.001553625,0.2690078,0.2585996,5.576623,5.559451,5.21,NaN,0,6.006661,47,39
72535,1659550057,0.2395387,0.001223192,0.2583097,0.2585996,5.620654,5.586607,5.46,NaN,0,6.029293,49,42
72952,1659656262,0.2525536,0.001266599,0.2539369,0.2585996,5.664707,5.620288,5.61,NaN,0,6.058747,50,45
73400,1659768365,0.2425066,0.001199439,0.2530205,0.2585996,5.709998,5.66405,5.69,NaN,0,6.097984,51,48
73846,1659873803,0.2467915,0.001310602,0.2532331,0.2585996,5.754127,5.709837,5.29,NaN,0,6.139606,50,50
74288,1659981169,0.2469818,0.001427367,0.2505415,0.2585996,5.798273,5.755566,5.24,NaN,0,6.181161,50,50
74702,1660085948,0.2615871,0.001688629,0.2558627,0.2585996,5.842352,5.796442,5.05,NaN,0,6.218154,50,50
75146,1660196072,0.2330997,0.001421362,0.2524016,0.2585996,5.886355,5.833477,5.35,NaN,0,6.251451,51,50
75593,1660301360,0.2216467,0.001329437,0.2344573,0.2585996,5.930373,5.870771,5.68,NaN,0,6.285166,52,55
76026,1660409317,0.2714496,0.002284676,0.2481012,0.2585996,5.973204,5.910914,5.37,NaN,0,6.321571,52,52
76424,1660514492,0.2559184,0.003054827,0.2650304,0.2585996,6.017193,5.945353,5.68,NaN,0,6.352561,53,48
76856,1660622791,0.2203527,0.003546372,0.2474674,0.2585996,6.060115,5.985248,5.68,NaN,0,6.389366,53,55
77307,1660728530,0.2511178,0.004511356,0.2391454,0.2585996,6.104196,6.031563,5.46,NaN,0,6.432889,53,56
77749,1660838543,0.2493533,0.003941134,0.2492502,0.2585996,6.147181,6.072617,5.61,NaN,0,6.471517,53,54
78197,1660945352,0.2667519,0.003571689,0.2575346,0.2585996,6.191358,6.110025,5.62,NaN,0,6.507308,54,50
78637,1661054284,0.2615439,0.003126383,0.2631948,0.2585996,6.235489,6.143512,5.92,NaN,0,6.539177,55,50
79048,1661164060,0.2529906,0.002687275,0.2611876,0.2585996,6.279578,6.179841,5.9,NaN,0,6.573966,56,51
79495,1661270514,0.2553331,0.002206802,0.2598273,0.2585996,6.3236,6.213966,6.14,NaN,0,6.606923,57,52
79938,1661380117,0.2548143,0.002044052,0.2582982,0.2585996,6.367575,6.256506,6.45,NaN,0,6.648418,57,53
80383,1661487635,0.2513149,0.001936972,0.2520501,0.2585996,6.411493,6.304613,6.38,NaN,0,6.695647,56,55
80793,1661595053,0.2509194,0.002015412,0.2476324,0.2585996,6.455375,6.35802,6.08,NaN,0,6.748101,55,57
81242,1661701713,0.2534507,0.002368629,0.2496165,0.2585996,6.499332,6.408713,6.19,NaN,0,6.798283,55,56
81687,1661810315,0.2608676,0.003670424,0.2571399,0.2585996,6.543258,6.459599,6.22,NaN,0,6.848352,54,55
82134,1661916553,0.2609962,0.005033582,0.2602499,0.2585996,6.587145,6.510111,6.11,NaN,0,6.898399,53,53
82575,1662025378,0.2488085,0.00539653,0.2624918,0.2585996,6.629916,6.551436,6.07,NaN,0,6.938671,54,51
83023,1662132398,0.2457592,0.005110055,0.2617601,0.2585996,6.67384,6.593701,5.86,NaN,0,6.979731,54,51
83463,1662240613,0.2560969,0.004581749,0.2572884,0.2585996,6.717784,6.630289,6.38,NaN,0,7.015166,55,54
83910,1662347616,0.2649274,0.004194587,0.2600445,0.2585996,6.761711,6.667698,6.41,NaN,0,7.051202,55,53
84351,1662456325,0.2682473,0.003927231,0.2648734,0.2585996,6.805685,6.70446,6.02,NaN,0,7.0865,56,51
84766,1662561982,0.2864221,0.004378945,0.2753836,0.2585996,6.84968,6.741384,6.32,NaN,0,7.121943,57,51
85209,1662670706,0.261538,0.003619492,0.2742328,0.2585996,6.893717,6.77094,6.18,NaN,0,7.149653,58,51
85650,1662780497,0.2583968,0.002676129,0.2648898,0.2585996,6.937781,6.807339,6.58,NaN,0,7.18419,59,53
86068,1662886842,0.2627892,0.002200782,0.2625315,0.2585996,6.981819,6.847671,6.53,NaN,0,7.222966,59,57
86505,1662993181,0.2665534,0.002247214,0.2651088,0.2585996,7.024686,6.88951,6.55,NaN,0,7.262867,59,57
86932,1663100548,0.2619671,0.002986401,0.2650662,0.2585996,7.068634,6.93424,6.68,NaN,0,7.305652,59,58
87366,1663209089,0.2556594,0.002808601,0.2596281,0.2585996,7.111363,6.98138,6.76,NaN,0,7.350709,59,59
87813,1663315258,0.2463495,0.002300188,0.2551243,0.2585996,7.155156,7.030355,6.23,NaN,0,7.397296,58,59
88257,1663424632,0.2424142,0.001626894,0.2489331,0.2585996,7.198253,7.081941,6.55,NaN,0,7.446867,56,60
88700,1663531594,0.2395998,0.001110822,0.2451155,0.2585996,7.239935,7.129497,6.43,NaN,0,7.492188,53,58
89146,1663640754,0.2522902,0.001109779,0.2458385,0.2585996,7.279669,7.168928,6.55,NaN,0,7.529238,51,54
89593,1663748068,0.2519417,0.001158297,0.2509783,0.2585996,7.317146,7.202598,6.48,NaN,0,7.560536,49,50
90002,1663855182,0.2538809,0.001326174,0.2523745,0.2585996,7.352208,7.227197,6.91,NaN,0,7.582472,48,47
90449,1663968590,0.2473524,0.001467824,0.2523896,0.2585996,7.385656,7.257706,6.59,NaN,0,7.610471,45,45
90896,1664075388,0.2507072,0.001589,0.2528522,0.2585996,7.415755,7.280553,6.6,NaN,0,7.630449,43,41
91340,1664183541,0.2542722,0.001670331,0.2569756,0.2585996,7.443414,7.303446,7.01,NaN,0,7.650375,41,39
91785,1664289110,0.2469283,0.001587734,0.2511427,0.2585996,7.468707,7.322685,6.63,NaN,0,7.666684,40,38
92195,1664398184,0.248639,0.001681447,0.2491339,0.2585996,7.49114,7.340688,6.44,NaN,0,7.676738,38,36
92642,1664505052,0.2518472,0.001754016,0.2544098,0.2585996,7.512025,7.348493,6.79,NaN,0,7.672106,37,34
93086,1664615243,0.2579895,0.001855403,0.2535961,0.2585996,7.530936,7.358665,6.37,NaN,0,7.669522,36,33
93531,1664721159,0.2505353,0.001900166,0.2540816,0.2585996,7.54807,7.3654,6.63,NaN,0,7.663112,35,33
93974,1664828519,0.2612118,0.002008379,0.254798,0.2585996,7.563216,7.372904,7.21,NaN,0,7.65731,34,30
94390,1664936355,0.2425365,0.001837477,0.25413,0.2585996,7.577361,7.383215,8.119999999999999,NaN,0,7.652538,33,31
94833,1665043348,0.2504827,0.001881927,0.2530866,0.2585996,7.59015,7.399979,8.119999999999999,NaN,0,7.654378,31,30
95244,1665149787,0.2419295,0.001829773,0.2501331,0.2585996,7.601521,7.430604,8.380000000000001,NaN,0,7.671918,28,30
95685,1665257165,0.2350426,0.001903653,0.2441808,0.2585996,7.611228,7.466837,8.42,NaN,0,7.693221,23,27
96097,1665364324,0.2404583,0.002255931,0.2428216,0.2585996,7.618967,7.507578,7.1,NaN,0,7.720031,18,24
96544,1665473354,0.2532523,0.002695739,0.2460477,0.2585996,7.624443,7.535107,7.19,NaN,0,7.732865,13,19
96991,1665581745,0.2382779,0.002497226,0.2495176,0.2585996,7.627581,7.549876,6.9,NaN,0,7.731987,9,13
97440,1665688288,0.2528469,0.002709448,0.2476461,0.2585996,7.628546,7.551349,6.89,NaN,0,7.718835,7,8
97849,1665796498,0.2640691,0.003053278,0.2569019,0.2585996,7.627679,7.541576,7.17,NaN,0,7.693428,6,3
98295,1665903382,0.2575223,0.003161132,0.2608758,0.2585996,7.625454,7.527696,7.07,NaN,0,7.664748,6,1
98735,1666011085,0.25522,0.002938539,0.2584017,0.2585996,7.62242,7.51309,7.51,NaN,0,7.637125,7,2
99185,1666117390,0.2577583,0.002829671,0.2606951,0.2585996,7.618791,7.503088,7.48,NaN,0,7.613009,7,2
99628,1666226966,0.2624777,0.002989054,0.263066,0.2585996,7.614921,7.495176,7.83,NaN,0,7.592929,7,4
100075,1666335384,0.2692145,0.002900422,0.2670465,0.2585996,7.61098,7.490106,7.82,NaN,0,7.575521,7,3
100515,1666444290,0.2535386,0.002318054,0.2655156,0.2585996,7.607063,7.485982,7.21,NaN,0,7.559146,8,4
100932,1666550344,0.2588232,0.001909435,0.2595795,0.2585996,7.603225,7.486063,7.45,NaN,0,7.54936,7,7
101374,1666659495,0.2489456,0.001569748,0.2537341,0.2585996,7.599468,7.484599,7.22,NaN,0,7.538261,7,7
101821,1666766222,0.2363397,0.001392469,0.2526928,0.2585996,7.595795,7.486011,6.97,NaN,0,7.528954,7,8
102261,1666874095,0.2310844,0.0009572506,0.2454309,0.2585996,7.592184,7.48313,6.82,NaN,0,7.516612,7,10
102707,1666983335,0.2146421,0.0002650619,0.229894,0.2585996,7.588655,7.483667,6.71,NaN,0,7.50588,6,15
103121,1667089614,0.2202399,6.695092e-05,0.2199361,0.2585996,7.585173,7.488122,6.63,NaN,0,7.501028,6,13
103567,1667198170,0.2297661,0.0001125783,0.2298929,0.2585996,7.581657,7.49238,6.96,NaN,0,7.495596,5,12
104015,1667304946,0.2152282,0.0003530681,0.2214082,0.2585996,7.578043,7.496756,7.35,NaN,0,7.490451,4,12
104456,1667414141,0.20652,0.0004431456,0.2176984,0.2585996,7.574293,7.499501,6.61,NaN,0,7.482531,3,12
104901,1667520628,0.2520358,0.000361681,0.2356883,0.2585996,7.570386,7.498682,7.14,NaN,0,7.471983,2,5
105343,1667628959,0.2441817,0.0007444322,0.2493808,0.2585996,7.56637,7.490821,7.25,NaN,0,7.455403,3,1
105790,1667736138,0.2473492,0.001987115,0.2479235,0.2585996,7.562385,7.4831,6.69,NaN,0,7.440372,3,0
106204,1667842718,0.2503963,0.002979398,0.2485396,0.2585996,7.558574,7.466344,7.46,NaN,0,7.416933,5,1
106650,1667949518,0.2493945,0.003512293,0.2496698,0.2585996,7.555138,7.455718,7.08,NaN,0,7.400875,6,2
107093,1668059296,0.2464468,0.003566101,0.2530386,0.2585996,7.552216,7.441643,6.92,NaN,0,7.382138,8,3
107505,1668169102,0.2539553,0.003468603,0.252423,0.2585996,7.549927,7.432543,6.85,NaN,0,7.370483,9,4
107954,1668275527,0.2484534,0.003131881,0.2513399,0.2585996,7.548339,7.421878,7.02,NaN,0,7.358025,11,7
108363,1668383294,0.2637548,0.003899693,0.260965,0.2585996,7.547487,7.411902,6.78,NaN,0,7.34914,13,6
108808,1668490050,0.2648517,0.005634785,0.2655922,0.2585996,7.547399,7.401035,7.01,NaN,0,7.338357,14,7
109254,1668598899,0.2535941,0.007166058,0.263918,0.2585996,7.548114,7.393213,6.91,NaN,0,7.334174,16,11
109701,1668705937,0.2566348,0.008687198,0.2639933,0.2585996,7.549713,7.378711,6.69,NaN,0,7.322297,19,12
110113,1668814165,0.2545733,0.01011577,0.2691593,0.2585996,7.552197,7.361499,6.87,NaN,0,7.311806,22,15
110559,1668921342,0.26814,0.01068658,0.2737457,0.2585996,7.555692,7.347638,6.71,NaN,0,7.305429,25,17
110969,1669029711,0.2587833,0.009354562,0.2729167,0.2585996,7.560245,7.335943,6.82,NaN,0,7.303615,27,21
111417,1669137599,0.2585392,0.008869201,0.272362,0.2585996,7.565847,7.333232,6.53,NaN,0,7.313309,29,22
111857,1669246607,0.2618949,0.008613944,0.2690124,0.2585996,7.572416,7.328222,6.41,NaN,0,7.321322,31,27
112308,1669359539,0.2481398,0.007261276,0.2634009,0.2585996,7.580277,7.323951,6.62,NaN,0,7.331693,33,31
112756,1669468055,0.2366773,0.005724415,0.2530739,0.2585996,7.588552,7.320997,6.91,NaN,0,7.344134,35,34
113164,1669577059,0.2494455,0.004803255,0.2516218,0.2585996,7.597485,7.328765,7.46,NaN,0,7.367306,36,36
113613,1669684485,0.2471951,0.004062504,0.2552074,0.2585996,7.606835,7.347474,8.279999999999999,NaN,0,7.403799,35,37
114055,1669791790,0.2370982,0.003751382,0.2532046,0.2585996,7.616244,7.379105,7.86,NaN,0,7.453374,33,36
114501,1669899384,0.2421499,0.004022405,0.2485855,0.2585996,7.625181,7.419373,7.72,NaN,0,7.511426,29,35
114943,1670008305,0.2302725,0.003943607,0.2416848,0.2585996,7.633074,7.459502,7.76,NaN,0,7.570094,24,33
115360,1670114371,0.2271865,0.003957555,0.2388375,0.2585996,7.639446,7.496406,8.57,NaN,0,7.627172,20,28
115802,1670224190,0.2293577,0.004149035,0.2393737,0.2585996,7.643941,7.534131,8.380000000000001,NaN,0,7.684976,14,23
116248,1670331481,0.2326582,0.004377753,0.2387396,0.2585996,7.646271,7.571858,8.550000000000001,NaN,0,7.743714,8,17
116699,1670439542,0.2328643,0.004336268,0.235696,0.2585996,7.646204,7.603471,7.92,NaN,0,7.796171,2,11
117143,1670546507,0.2394344,0.004324213,0.2356526,0.2585996,7.643631,7.628741,7.88,NaN,0,7.843909,-2,5
117557,1670653803,0.24022,0.004070982,0.2395962,0.2585996,7.63858,7.640739,8.1,NaN,0,7.877522,-6,0
118003,1670760119,0.2471514,0.003559783,0.2390446,0.2585996,7.631272,7.647937,8.23,NaN,0,7.907249,-10,-5
118447,1670868051,0.2298048,0.002027199,0.2391433,0.2585996,7.621977,7.651642,8.300000000000001,NaN,0,7.933255,-13,-8
118889,1670975806,0.2280065,0.0008867681000000001,0.2361197,0.2585996,7.610977,7.653317,8.359999999999999,NaN,0,7.958161,-16,-12
119337,1671083285,0.2391575,0.0005866736,0.2333796,0.2585996,7.598542,7.652702,8.470000000000001,NaN,0,7.980855,-19,-15
119748,1671189070,0.2619678,0.0007922053,0.2476498,0.2585996,7.58567,7.649897,8.609999999999999,NaN,0,7.996276,-21,-21
120194,1671293411,0.2807162,0.001854777,0.2743662,0.2585996,7.571192,7.638883,7.11,NaN,0,7.989229,-22,-29
120636,1671400574,0.2923669,0.002444208,0.2828516,0.2585996,7.556524,7.617278,6.98,NaN,0,7.971432,-22,-33
121085,1671507376,0.2781273,0.00195533,0.2844688,0.2585996,7.541332,7.58307,7.03,NaN,0,7.940809,-20,-31
121527,1671615479,0.2775425,0.001480848,0.2768652,0.2585996,7.526588,7.54397,8,NaN,0,7.905378,-16,-27
121942,1671721755,0.2651941,0.001100093,0.2706281,0.2585996,7.512847,7.512818,8.48,NaN,0,7.877736,-13,-22
122386,1671831983,0.2601877,0.001241565,0.2626911,0.2585996,7.500434,7.4979,8.33,NaN,0,7.866336,-12,-16
122832,1671938494,0.2693305,0.001486152,0.2636804,0.2585996,7.489375,7.493721,8.18,NaN,0,7.865681,-11,-11
123273,1672045595,0.2342917,0.001127556,0.2506051,0.2585996,7.479517,7.495641,7.9,NaN,0,7.870974,-11,-6
123721,1672153286,0.2390176,0.0009942353000000001,0.2436429,0.2585996,7.470608,7.502649,7.7,NaN,0,7.881437,-12,-5
124131,1672259872,0.2596274,0.001423329,0.2487289,0.2585996,7.4624,7.50193,7.88,NaN,0,7.883946,-12,-6
124576,1672369491,0.250505,0.002384901,0.2510765,0.2585996,7.454764,7.497736,7.52,NaN,0,7.882697,-12,-8
125023,1672476112,0.2464045,0.002606973,0.2577203,0.2585996,7.447678,7.48724,7.28,NaN,0,7.874772,-11,-9
125440,1672583903,0.2693581,0.002304822,0.2546432,0.2585996,7.441206,7.4741,7.04,NaN,0,7.863692,-9,-9
125888,1672689748,0.263704,0.001661956,0.2597577,0.2585996,7.435475,7.455057,6.85,NaN,0,7.846571,-7,-9
126331,1672797591,0.2750921,0.001632601,0.2668712,0.2585996,7.430655,7.434786,5.61,NaN,0,7.827842,-4,-9
126776,1672903125,0.2697612,0.001984835,0.2731462,0.2585996,7.42692,7.41239,5.92,NaN,0,7.806995,-1,-8
127188,1673012398,0.2728412,0.002334625,0.2747421,0.2585996,7.424444,7.389449,6.06,NaN,0,7.785382,1,-7
127635,1673120139,0.2632607,0.002087712,0.2760583,0.2585996,7.423377,7.369981,5.54,NaN,0,7.767081,5,-2
128077,1673226377,0.2641062,0.002150804,0.2651802,0.2585996,7.423805,7.355358,5.74,NaN,0,7.75364,8,3
128524,1673334187,0.2731411,0.003363699,0.2713474,0.2585996,7.425725,7.335334,5.13,NaN,0,7.735081,11,6
128964,1673441542,0.2830244,0.004708499,0.2789307,0.2585996,7.42923,7.294645,4.83,NaN,0,7.695643,18,7
129377,1673552161,0.2741885,0.004599184,0.2798174,0.2585996,7.434859,7.244049,5.09,NaN,0,7.646588,26,13
129829,1673661338,0.2707644,0.003896922,0.2812552,0.2585996,7.442815,7.189136,5.05,NaN,0,7.593209,35,20
130274,1673770961,0.2901263,0.003336132,0.282344,0.2585996,7.453637,7.144294,4.77,NaN,0,7.54997,43,28
130722,1673878546,0.2876031,0.002993941,0.2925732,0.2585996,7.467643,7.094,5.13,NaN,0,7.501422,53,35
131167,1673986130,0.2720204,0.002585679,0.2876657,0.2585996,7.485059,7.063142,4.87,NaN,0,7.472617,62,47
131583,1674094486,0.2729472,0.002627522,0.2810138,0.2585996,7.505858,7.038383,5.03,NaN,0,7.449972,70,57
132025,1674203146,0.2648013,0.002454042,0.2745816,0.2585996,7.529812,7.028172,5.19,NaN,0,7.441865,76,68
132440,1674311187,0.2753465,0.002497077,0.2703874,0.2585996,7.556561,7.031859,5.42,NaN,0,7.447964,81,76
132882,1674420617,0.276778,0.002768576,0.2757273,0.2585996,7.585542,7.048255,5.2,NaN,0,7.466541,85,79
133327,1674527485,0.3037891,0.004856408,0.2871214,0.2585996,7.616086,7.071999,5.01,NaN,0,7.49246,87,79
133770,1674635855,0.2988509,0.007859737,0.3047842,0.2585996,7.647564,7.091529,5.4,NaN,0,7.514164,89,79
134218,1674742593,0.2902722,0.009436160000000001,0.3029178,0.2585996,7.679474,7.109576,5.52,NaN,0,7.53408,90,81
134663,1674851348,0.2943467,0.01112598,0.303132,0.2585996,7.711432,7.138584,5.35,NaN,0,7.56466,90,83
135073,1674958977,0.2807518,0.01080585,0.2965225,0.2585996,7.743,7.169596,5.55,NaN,0,7.596664,90,86
135521,1675066089,0.2697299,0.009198546,0.2879025,0.2585996,7.773719,7.203357,5.56,NaN,0,7.631028,88,86
135933,1675173692,0.2573007,0.007260501,0.2751402,0.2585996,7.803143,7.245938,5.81,NaN,0,7.674143,85,88
136378,1675279095,0.2614451,0.006685048,0.2668865,0.2585996,7.83086,7.283328,5.66,NaN,0,7.711838,82,87
136822,1675387764,0.2627834,0.006734133,0.2707302,0.2585996,7.856526,7.319869,5.92,NaN,0,7.748241,79,83
137237,1675495088,0.2464883,0.006043285,0.2629183,0.2585996,7.879881,7.356087,5.69,NaN,0,7.784475,75,81
137683,1675604617,0.2601181,0.005170971,0.2645468,0.2585996,7.90068,7.397486,6.28,NaN,0,7.825828,70,75
138130,1675712517,0.2460737,0.002874762,0.2585003,0.2585996,7.918726,7.434149,6.37,NaN,0,7.862445,65,73
138574,1675819610,0.2305303,0.001584381,0.2391395,0.2585996,7.933889,7.474784,7.96,NaN,0,7.903034,60,71
139020,1675925581,0.2445682,0.001574129,0.2372499,0.2585996,7.946,7.526141,8.41,NaN,0,7.954422,53,65
139435,1676032821,0.2378757,0.001888409,0.2365042,0.2585996,7.954737,7.587471,8.27,NaN,0,8.015644,44,57
139882,1676140363,0.2300545,0.002279833,0.2362117,0.2585996,7.959691,7.650063,8.619999999999999,NaN,0,8.078053000000001,34,49
140324,1676250301,0.2336715,0.002654463,0.2358201,0.2585996,7.960488,7.708641,7.88,NaN,0,8.136532000000001,23,38
140771,1676361261,0.2265052,0.002735153,0.2354915,0.2585996,7.956886,7.757223,6.83,NaN,0,8.185161000000001,13,27
141217,1676468092,0.2344266,0.002606288,0.234112,0.2585996,7.948875,7.786248,7.2,NaN,0,8.213941999999999,5,18
141631,1676575706,0.2355592,0.002376392,0.2360833,0.2585996,7.936727,7.802965,8.300000000000001,NaN,0,8.230636000000001,-1,7
142077,1676683541,0.2404073,0.001972273,0.2432307,0.2585996,7.920883,7.810533,8.43,NaN,0,8.238401,-7,0
142520,1676791201,0.2908782,0.002050966,0.2647077,0.2585996,7.902394,7.808178,7.67,NaN,0,8.236245,-12,-13
142968,1676898362,0.2559716,0.001196563,0.2772157,0.2585996,7.880845,7.794121,7.18,NaN,0,8.222173,-15,-20
143410,1677007570,0.2561782,0.0006296337,0.2595456,0.2585996,7.857368,7.775318,7.43,NaN,0,8.203721,-17,-19
143859,1677114625,0.2552864,0.0008632243,0.2553413,0.2585996,7.832604,7.754714,7.22,NaN,0,8.183697,-18,-19
144268,1677225298,0.2777053,0.001027137,0.2640935,0.2585996,7.807124,7.730607,8.18,NaN,0,8.16046,-19,-21
144714,1677333131,0.2751732,0.0006245971,0.2721949,0.2585996,7.781441,7.705316,7.67,NaN,0,8.136274,-19,-22
145157,1677441488,0.2602247,0.00026384,0.2691025,0.2585996,7.75601,7.681345,7.87,NaN,0,8.113471000000001,-19,-22
145573,1677548407,0.2727969,0.0002406836,0.2700195,0.2585996,7.731178,7.659557,7.71,NaN,0,8.093368999999999,-18,-21
146014,1677657128,0.2764179,0.0002645552,0.2741702,0.2585996,7.707202,7.63925,7.19,NaN,0,8.074534,-17,-20
146457,1677765362,0.2870938,0.0005263387999999999,0.2805845,0.2585996,7.684264,7.617749,6.97,NaN,0,8.054353000000001,-16,-21
146871,1677872280,0.2841998,0.0009305179,0.2898629,0.2585996,7.662546,7.59243,6.81,NaN,0,8.030652,-15,-21
147314,1677980204,0.2672109,0.0008251369,0.2791168,0.2585996,7.642246,7.569888,7.05,NaN,0,8.009644,-13,-16
147761,1678087091,0.2727281,0.000467509,0.2761206,0.2585996,7.623484,7.552577,7.04,NaN,0,7.994034,-11,-14
148171,1678195318,0.2731791,0.0005602241,0.2789308,0.2585996,7.606285,7.536508,6.83,NaN,0,7.979429,-10,-11
148616,1678301494,0.2598035,0.001206905,0.268611,0.2585996,7.590638,7.524324,6.9,NaN,0,7.969375,-9,-7
149059,1678411785,0.2680496,0.001552016,0.2664617,0.2585996,7.576477,7.515299,7.41,NaN,0,7.962546,-8,-4
149505,1678517715,0.2794755,0.001685172,0.2731012,0.2585996,7.563693,7.508264,6.78,NaN,0,7.957937,-7,-5
149948,1678627576,0.2746813,0.001547128,0.2739715,0.2585996,7.552166,7.500696,6.68,NaN,0,7.953231,-6,-4
150362,1678732830,0.279637,0.00109902,0.2749415,0.2585996,7.541803,7.492925,6.85,NaN,0,7.948397,-5,-4
150805,1678841881,0.2777507,0.0007655919,0.2755357,0.2585996,7.532772,7.480925,6.81,NaN,0,7.939548,-4,-3
151251,1678947050,0.2920969,0.0006612241,0.2793235,0.2585996,7.524594,7.464365,6.95,NaN,0,7.926146,-1,-3
151698,1679053766,0.2974029,0.001171798,0.2909728,0.2585996,7.517779,7.445261,6.81,NaN,0,7.910849,0,-4
152109,1679163126,0.2914858,0.002225399,0.295476,0.2585996,7.512065,7.422944,6.92,NaN,0,7.891974,3,-3
152553,1679269828,0.2755328,0.002227217,0.2875881,0.2585996,7.507775,7.404895,7.16,NaN,0,7.877152,6,1
152996,1679377537,0.2739465,0.001439095,0.2792182,0.2585996,7.504969,7.391661,7.19,NaN,0,7.867069,9,6
153410,1679482282,0.2701598,0.0006270707,0.2753578,0.2585996,7.503599,7.386666,6.96,NaN,0,7.865362,10,10
153854,1679591718,0.2795793,0.0003058016,0.2761962,0.2585996,7.50349,7.387238,6.93,NaN,0,7.868932,12,11
154268,1679699072,0.2817235,0.0002384484,0.2802774,0.2585996,7.504435,7.387859,6.82,NaN,0,7.87262,13,12
154704,1679807732,0.2877129,0.0002044439,0.2817506,0.2585996,7.506169,7.388441,6.96,NaN,0,7.876353,14,12
155129,1679913359,0.2869459,0.0002511442,0.2843957,0.2585996,7.508648,7.389069,7.26,NaN,0,7.880193,14,13
155564,1680022082,0.2808643,0.0003299713,0.2834948,0.2585996,7.511698,7.393686,7.03,NaN,0,7.887664,15,13
156008,1680128325,0.2868741,0.0004459918,0.2855419,0.2585996,7.515143,7.399639,7.14,NaN,0,7.89647,15,13
156418,1680236435,0.2837884,0.0007326901,0.2852708,0.2585996,7.518807,7.407115,7.17,NaN,0,7.907021,15,14
156866,1680343302,0.2838278,0.001016378,0.2850808,0.2585996,7.522536,7.415201,6.96,NaN,0,7.91767,14,14
157277,1680451286,0.2814237,0.001100957,0.2841269,0.2585996,7.526179,7.425784,7.18,NaN,0,7.931098,13,13
157731,1680560637,0.2779817,0.000821799,0.2781086,0.2585996,7.529674,7.435959,6.98,NaN,0,7.943838,12,15
158173,1680666338,0.27626,0.0004811585,0.2773134,0.2585996,7.532708,7.446528,7.22,NaN,0,7.956902,11,14
158616,1680774058,0.2830415,0.00036183,0.2798763,0.2585996,7.535269,7.455273,6.9,NaN,0,7.968492,10,11
159032,1680879410,0.2874142,0.0003516972,0.2849689,0.2585996,7.537303,7.459396,7.01,NaN,0,7.974751,9,9
159473,1680989080,0.2878501,0.0004530251,0.2860862,0.2585996,7.538836,7.4604,7.03,NaN,0,7.978326,9,8
159920,1681096976,0.281166,0.0005218089,0.2845223,0.2585996,7.539928,7.46222,7.2,NaN,0,7.982855,8,8
160332,1681206175,0.2842449,0.0006125866999999999,0.2821573,0.2585996,7.540607,7.465529,7.1,NaN,0,7.988659,8,8
160777,1681311479,0.2722867,0.0006077588,0.279546,0.2585996,7.540931,7.469328,7.09,NaN,0,7.995028,7,8
161219,1681419383,0.2737031,0.0005904138,0.2750612,0.2585996,7.540879,7.474626,7.27,NaN,0,8.002981999999999,6,9
161667,1681525773,0.2807926,0.0007876456,0.2762205,0.2585996,7.540428,7.480497,7.34,NaN,0,8.011278000000001,5,8
162108,1681634370,0.2796032,0.0008248389,0.2823465,0.2585996,7.53955,7.486781,7.1,NaN,0,8.020134000000001,4,5
162554,1681739603,0.2845376,0.0007615685,0.2856931,0.2585996,7.538224,7.48901,7.16,NaN,0,8.025155,3,3
162994,1681846486,0.2790798,0.0005731285,0.282671,0.2585996,7.536482,7.490229,7.39,NaN,0,8.028945999999999,2,2
163438,1681952848,0.2789456,0.0004245937,0.2786962,0.2585996,7.534381,7.49105,7.13,NaN,0,8.032627,1,3
163851,1682060598,0.2820546,0.0004626215,0.2801766,0.2585996,7.531953,7.495149,7.38,NaN,0,8.039662999999999,0,2
164292,1682170447,0.2840513,0.0006297827,0.2806557,0.2585996,7.529206,7.496509,7.29,NaN,0,8.043761999999999,0,1
164708,1682276619,0.2822612,0.0008266568,0.2834721,0.2585996,7.526159,7.500463,7.29,NaN,0,8.050943,0,0
165144,1682385560,0.2815668,0.0008088052,0.2802405,0.2585996,7.52281,7.502976,7.49,NaN,0,8.056317,-1,0
165570,1682492157,0.281313,0.0007561743,0.2813976,0.2585996,7.519166,7.506518,7.36,NaN,0,8.062943000000001,-2,-1
165996,1682600135,0.2715734,0.0007039309000000001,0.2782108,0.2585996,7.51523,7.508607,7.49,NaN,0,8.0679,-3,0
166440,1682707733,0.276815,0.0008870959000000001,0.2753238,0.2585996,7.511012,7.51236,7.42,NaN,0,8.074315,-4,-2
166850,1682817174,0.2754383,0.001098722,0.2775928,0.2585996,7.506504,7.514798,7.77,NaN,0,8.079622000000001,-5,-3
167294,1682923577,0.2819278,0.001216918,0.2793381,0.2585996,7.501716,7.51725,7.52,NaN,0,8.084735999999999,-6,-4
167742,1683031962,0.2782211,0.001144469,0.2810248,0.2585996,7.496658,7.518322,7.52,NaN,0,8.088533,-7,-7
168187,1683137576,0.2827993,0.001014203,0.280696,0.2585996,7.491357,7.516401,7.47,NaN,0,8.089052000000001,-8,-8
168600,1683245269,0.2805822,0.0009233952,0.2807142,0.2585996,7.485878,7.514564,7.66,NaN,0,8.090014999999999,-8,-8
169048,1683349763,0.2854902,0.001167893,0.2844549,0.2585996,7.480292,7.510746,7.79,NaN,0,8.088777,-8,-9
169457,1683459111,0.2887725,0.001369387,0.2862952,0.2585996,7.474664,7.509153,7.62,NaN,0,8.089708,-9,-9
169868,1683569123,0.277932,0.001337737,0.2865577,0.2585996,7.469048,7.505978,7.64,NaN,0,8.08896,-9,-9
170313,1683676054,0.2709545,0.001388669,0.2807382,0.2585996,7.46348,7.504876,7.45,NaN,0,8.090170000000001,-9,-8
170754,1683785371,0.2735736,0.001421005,0.2751199,0.2585996,7.457971,7.503737,7.32,NaN,0,8.091457,-10,-6
171169,1683890772,0.27463,0.001199514,0.277592,0.2585996,7.452533,7.50161,7.48,NaN,0,8.091832,-10,-8
171615,1683999103,0.2604103,0.0008668602,0.2714826,0.2585996,7.447189,7.500011,7.34,NaN,0,8.092651999999999,-10,-6
172059,1684106175,0.2623342,0.0006720424,0.2638376,0.2585996,7.441952,7.49942,7.4,NaN,0,8.094341999999999,-11,-5
172499,1684214546,0.2723162,0.0004783571,0.2685643,0.2585996,7.436802,7.50139,7.56,NaN,0,8.098731000000001,-11,-6
172943,1684320617,0.2735016,0.0004240274,0.2705714,0.2585996,7.431713,7.499676,7.49,NaN,0,8.099297999999999,-12,-7
173389,1684429066,0.2682411,0.0004549623,0.2691949,0.2585996,7.426682,7.498399,7.73,NaN,0,8.100035,-12,-9
173835,1684537344,0.2648612,0.0005050898,0.267547,0.2585996,7.421736,7.494604,7.55,NaN,0,8.098598000000001,-12,-8
174229,1684645083,0.2532349,0.0007357895,0.2627187,0.2585996,7.416904,7.494015,7.39,NaN,0,8.100358999999999,-12,-8
174654,1684750521,0.2646059,0.001126677,0.2591316,0.2585996,7.412191,7.490915,7.63,NaN,0,8.099479000000001,-12,-7
175064,1684859097,0.2626728,0.001235932,0.2621564,0.2585996,7.407621,7.48741,7.46,NaN,0,8.097987,-12,-9
175510,1684967581,0.2605469,0.00127545,0.2619389,0.2585996,7.403228,7.481503,7.8,NaN,0,8.094499000000001,-12,-9
175956,1685075555,0.2721892,0.001368999,0.2654442,0.2585996,7.399072,7.476251,7.61,NaN,0,8.091246,-11,-11
176397,1685185557,0.2586943,0.001202941,0.2646258,0.2585996,7.395206,7.469185,7.58,NaN,0,8.086461,-11,-10
176842,1685291550,0.2604247,0.001146734,0.2621426,0.2585996,7.391694,7.463252,7.56,NaN,0,8.082245,-10,-9
177288,1685398551,0.2565524,0.001115143,0.2583829,0.2585996,7.388574,7.456769,7.43,NaN,0,8.077889000000001,-9,-7
177739,1685504411,0.2602037,0.001033694,0.2571755,0.2585996,7.385884,7.451129,7.31,NaN,0,8.073959,-9,-7
178178,1685611185,0.2765491,0.001355112,0.2647382,0.2585996,7.383639,7.444948,7.39,NaN,0,8.069495,-8,-7
178592,1685716235,0.2739131,0.002397329,0.2696154,0.2585996,7.38187,7.437732,7.27,NaN,0,8.063995,-7,-8
179034,1685824305,0.2621343,0.004415184,0.2699656,0.2585996,7.38061,7.431546,7.36,NaN,0,8.059366000000001,-6,-7
179478,1685930885,0.2621003,0.005787194,0.268823,0.2585996,7.379873,7.426283,7.21,NaN,0,8.055164,-5,-6
179887,1686040362,0.2581317,0.005607605,0.2661312,0.2585996,7.37965,7.423736,7.11,NaN,0,8.053737999999999,-4,-4
180333,1686147409,0.2599718,0.004261971,0.2601715,0.2585996,7.379896,7.420203,7.11,NaN,0,8.051083,-3,-2
180773,1686256958,0.2650095,0.003243834,0.2628849,0.2585996,7.380591,7.414505,7.31,NaN,0,8.046476,-2,-2
181189,1686363949,0.2790179,0.002870351,0.2739907,0.2585996,7.381749,7.405987,7.36,NaN,0,8.038538000000001,0,-5
181614,1686472304,0.2779642,0.002762437,0.2815134,0.2585996,7.383422,7.399652,7.26,NaN,0,8.033064,0,-4
182040,1686580201,0.2762922,0.002556235,0.2793452,0.2585996,7.385569,7.392899,7.7,NaN,0,8.026678,1,-3
182453,1686687371,0.2823941,0.002183795,0.2790575,0.2585996,7.38832,7.390633,7.56,NaN,0,8.024557,2,-1
182895,1686796043,0.2768119,0.001872271,0.2786424,0.2585996,7.391565,7.394087,7.38,NaN,0,8.028155999999999,3,0
183342,1686901546,0.2776866,0.00170657,0.2798744,0.2585996,7.395166,7.3994,7.41,NaN,0,8.033467999999999,3,0
183753,1687008269,0.2860917,0.00177595,0.2833704,0.2585996,7.398878,7.404575,7.24,NaN,0,8.038499,3,0
184198,1687113483,0.2889504,0.001684099,0.2862012,0.2585996,7.402784,7.406868,7.5,NaN,0,8.040379,3,0
184638,1687222375,0.2644943,0.001249731,0.2812461,0.2585996,7.406725,7.411617,7.51,NaN,0,8.045128999999999,3,1
185083,1687331834,0.2637672,0.0008426607,0.2709514,0.2585996,7.410604,7.421678,6.9,NaN,0,8.054968000000001,2,5
185496,1687438324,0.2561701,0.0007759929,0.263628,0.2585996,7.414283,7.429142,7.36,NaN,0,8.062433,2,5
185941,1687544402,0.2606555,0.0009785295000000001,0.2608742,0.2585996,7.417668,7.435314,7.27,NaN,0,8.068604000000001,1,5
186352,1687651151,0.2633289,0.001124561,0.265236,0.2585996,7.420703,7.441394,7.3,NaN,0,8.074685000000001,0,4
186797,1687758872,0.2621245,0.001180828,0.2653742,0.2585996,7.423357,7.444875,7.37,NaN,0,8.078165,0,2
187210,1687864961,0.2636428,0.001231402,0.2645507,0.2585996,7.425625,7.451029,7.4,NaN,0,8.08432,0,2
187656,1687978204,0.256665,0.001203716,0.2626824,0.2585996,7.427528,7.455091,7.49,NaN,0,8.088602,-1,2
188082,1688083342,0.2618892,0.00123179,0.2612139,0.2585996,7.428967,7.460496,7.43,NaN,0,8.094007,-1,1
188477,1688190358,0.2495081,0.001138791,0.25784,0.2585996,7.429985,7.465099,7.46,NaN,0,8.098755000000001,-2,0
188920,1688297110,0.2576646,0.001215696,0.2564804,0.2585996,7.43058,7.469187,7.43,NaN,0,8.103109999999999,-3,0
189329,1688405387,0.2557243,0.001223356,0.2566485,0.2585996,7.430755,7.472816,7.37,NaN,0,8.106884000000001,-4,0
189776,1688511564,0.2553514,0.001117885,0.2544296,0.2585996,7.430525,7.475837,7.52,NaN,0,8.110035,-4,-1
190185,1688619740,0.2577371,0.001038134,0.2575297,0.2585996,7.42993,7.47856,7.64,NaN,0,8.112888,-5,-2
190632,1688726289,0.2547985,0.001033604,0.2587676,0.2585996,7.428961,7.480048,7.66,NaN,0,8.114376,-6,-4
191077,1688833506,0.2689099,0.00120011,0.2645412,0.2585996,7.427668,7.481324,7.62,NaN,0,8.115919,-6,-7
191524,1688939290,0.2752198,0.001311779,0.2740138,0.2585996,7.426096,7.477854,7.64,NaN,0,8.112449,-6,-9
191966,1689047947,0.2708977,0.001064658,0.273435,0.2585996,7.424341,7.473684,7.77,NaN,0,8.107866,-6,-9
192410,1689155379,0.2618534,0.0009065866,0.2718196,0.2585996,7.422495,7.469776,7.42,NaN,0,8.103585000000001,-6,-8
192818,1689265375,0.2828537,0.0009762645,0.2716573,0.2585996,7.420646,7.46654,7.83,NaN,0,8.100204,-6,-8
193263,1689377116,0.2589376,0.0008937418,0.2686892,0.2585996,7.418801,7.46318,7.82,NaN,0,8.096569000000001,-6,-7
193690,1689482604,0.2660024,0.001081496,0.2627726,0.2585996,7.417092,7.46361,7.47,NaN,0,8.096869,-6,-4
194121,1689590144,0.2708859,0.001298428,0.2669367,0.2585996,7.415454,7.463709,7.74,NaN,0,8.096702000000001,-6,-5
194565,1689697769,0.2677342,0.001338899,0.2699944,0.2585996,7.41388,7.461426,7.77,NaN,0,8.094296,-6,-6
194977,1689805740,0.2679973,0.001338303,0.2704113,0.2585996,7.412428,7.46046,7.83,NaN,0,8.093063000000001,-6,-6
195427,1689913202,0.2609587,0.00132525,0.2678458,0.2585996,7.411027,7.460068,7.91,NaN,0,8.092549,-6,-6
195867,1690022293,0.2517765,0.001182854,0.2638855,0.2585996,7.40973,7.463225,8.050000000000001,NaN,0,8.095707000000001,-6,-6
196312,1690128205,0.263681,0.0009086728,0.2603669,0.2585996,7.408418,7.466793,8.09,NaN,0,8.099007,-7,-3
196720,1690236283,0.2663703,0.0008614063,0.2660922,0.2585996,7.407125,7.471028,8.130000000000001,NaN,0,8.103127000000001,-7,-5
197135,1690342163,0.2641102,0.001140058,0.2682012,0.2585996,7.405658,7.472906,8.26,NaN,0,8.105112999999999,-8,-7
197577,1690451368,0.2723025,0.001665026,0.2737023,0.2585996,7.404107,7.475617,8.08,NaN,0,8.108282000000001,-8,-9
198028,1690563647,0.2683462,0.001596361,0.2720318,0.2585996,7.402333,7.475478,7.97,NaN,0,8.108561999999999,-9,-8
198472,1690671502,0.2606797,0.00132513,0.2670865,0.2585996,7.400476,7.478008,7.79,NaN,0,8.111993,-9,-8
198910,1690781512,0.2570011,0.00117588,0.2648301,0.2585996,7.398542,7.47798,8.08,NaN,0,8.11275,-10,-9
199340,1690887513,0.27881,0.001258701,0.2686314,0.2585996,7.396433,7.478447,7.52,NaN,0,8.114362,-10,-9
199741,1690994600,0.2809606,0.001305431,0.275912,0.2585996,7.394229,7.475963,7.76,NaN,0,8.113213,-10,-11
200186,1691102560,0.2766453,0.001232982,0.2789836,0.2585996,7.391988,7.47057,7.76,NaN,0,8.1092,-10,-12
200627,1691209476,0.2740673,0.001049221,0.2792666,0.2585996,7.389794,7.465383,7.77,NaN,0,8.105646,-9,-11
201071,1691318183,0.2664898,0.0009196401,0.2739769,0.2585996,7.387723,7.461777,7.62,NaN,0,8.104253,-9,-9
201481,1691426149,0.275785,0.0008375645,0.2721905,0.2585996,7.385822,7.459014,7.83,NaN,0,8.103443,-9,-8
201928,1691531834,0.2658983,0.000738591,0.2695523,0.2585996,7.384099,7.458291,7.76,NaN,0,8.105154000000001,-9,-7
202368,1691639110,0.2701178,0.0006822646,0.2693516,0.2585996,7.382525,7.461954,7.49,NaN,0,8.111319999999999,-9,-8
202782,1691745145,0.2674448,0.0005824268,0.2682685,0.2585996,7.381028,7.463553,7.95,NaN,0,8.115429000000001,-9,-8
203191,1691853758,0.2628406,0.0005002022,0.2639849,0.2585996,7.379559,7.46935,7.64,NaN,0,8.124248,-10,-6
203636,1691962549,0.26042,0.0003823042,0.26427,0.2585996,7.378081,7.472765,7.67,NaN,0,8.130407999999999,-11,-6
204081,1692068285,0.2607704,0.0003810525,0.2620924,0.2585996,7.376457,7.479191,7.54,NaN,0,8.139710000000001,-12,-8
204518,1692175683,0.2636632,0.0003660023,0.260719,0.2585996,7.37465,7.481154,7.8,NaN,0,8.144512000000001,-12,-9
204911,1692281676,0.2580346,0.0003578961,0.2609611,0.2585996,7.372648,7.481125,7.55,NaN,0,8.147382,-13,-9
205337,1692390131,0.2686989,0.0005456209,0.2626951,0.2585996,7.37048,7.480303,7.55,NaN,0,8.149694999999999,-13,-10
205751,1692494903,0.2766381,0.001559436,0.2689758,0.2585996,7.368194,7.477385,7.54,NaN,0,8.149813999999999,-13,-13
206192,1692602586,0.2745785,0.002794534,0.2729309,0.2585996,7.365867,7.47046,7.85,NaN,0,8.146008999999999,-12,-13
206637,1692708259,0.2741245,0.003302455,0.273125,0.2585996,7.363603,7.467336,7.59,NaN,0,8.145379999999999,-12,-13
207078,1692817127,0.2780886,0.003225297,0.2771579,0.2585996,7.36146,7.462839,7.7,NaN,0,8.143583,-12,-14
207529,1692924817,0.2751329,0.002835661,0.2788952,0.2585996,7.359473,7.458685,7.38,NaN,0,8.141627,-11,-13
207971,1693034191,0.2617292,0.002011031,0.270588,0.2585996,7.35773,7.453964,7.73,NaN,0,8.139249,-11,-11
208413,1693141349,0.2583771,0.001621962,0.2619714,0.2585996,7.356182,7.450669,7.74,NaN,0,8.138006000000001,-10,-9
208852,1693249365,0.270818,0.001573145,0.2658586,0.2585996,7.354898,7.445276,7.76,NaN,0,8.134529000000001,-10,-9
209262,1693355598,0.264006,0.001761466,0.2724108,0.2585996,7.353917,7.438649,7.83,NaN,0,8.129763000000001,-9,-11
209687,1693462738,0.2935881,0.00256744,0.2801572,0.2585996,7.353297,7.433707,7.53,NaN,0,8.126666999999999,-8,-11
210082,1693569308,0.2887543,0.003756553,0.2880349,0.2585996,7.35304,7.426267,7.44,NaN,0,8.120844,-7,-12
210529,1693674706,0.2974417,0.00580284,0.2980583,0.2585996,7.353226,7.416135,7.69,NaN,0,8.112261,-5,-13
210937,1693781584,0.2902549,0.006488979,0.2992032,0.2585996,7.353935,7.408731,7.6,NaN,0,8.1061,-4,-12
211384,1693887391,0.2864045,0.005416363,0.2964731,0.2585996,7.355201,7.40588,7.42,NaN,0,8.104433,-3,-8
211826,1693995132,0.2777454,0.003795683,0.2891245,0.2585996,7.356968,7.406936,7.59,NaN,0,8.106426000000001,-2,-5
212272,1694101247,0.2759296,0.00297156,0.283655,0.2585996,7.359135,7.411322,7.38,NaN,0,8.111546000000001,-2,-3
212713,1694208773,0.2655293,0.00239563,0.2757658,0.2585996,7.361568,7.41609,7.61,NaN,0,8.117198,-2,0
213125,1694314519,0.2624311,0.00182429,0.2654225,0.2585996,7.36413,7.423733,7.73,NaN,0,8.125505,-3,1
213568,1694423390,0.2597213,0.001863986,0.2619431,0.2585996,7.366676,7.435948,7.86,NaN,0,8.13846,-4,3
214013,1694530174,0.2602136,0.002040505,0.2635398,0.2585996,7.369017,7.449057,7.7,NaN,0,8.152706,-5,0
214437,1694638379,0.2563182,0.002094209,0.2626375,0.2585996,7.370953,7.465126,7.49,NaN,0,8.169438,-7,-1
214832,1694742560,0.2564443,0.002195299,0.2593783,0.2585996,7.372305,7.476423,8.050000000000001,NaN,0,8.181673,-9,-2
215269,1694851783,0.2564756,0.002347648,0.2638447,0.2585996,7.372982,7.488472,7.54,NaN,0,8.194982,-11,-4
215680,1694961097,0.255558,0.002195597,0.2597239,0.2585996,7.372917,7.49386,7.59,NaN,0,8.201506,-12,-7
216125,1695068390,0.2544401,0.002134949,0.2575787,0.2585996,7.372148,7.492251,8.56,NaN,0,8.200806,-13,-9
216569,1695176588,0.2637632,0.003225386,0.2630997,0.2585996,7.370821,7.488444,8.300000000000001,NaN,0,8.198112,-13,-11
216982,1695283571,0.2504165,0.004715651,0.2657162,0.2585996,7.369099,7.481978,8.5,NaN,0,8.192538000000001,-13,-13
217426,1695392127,0.265507,0.00698033,0.2689761,0.2585996,7.367145,7.476151,7.57,NaN,0,8.187207000000001,-13,-13
217873,1695499172,0.2672247,0.007214278,0.2739772,0.2585996,7.365111,7.466688,7.91,NaN,0,8.178262999999999,-12,-13
218315,1695608233,0.2740817,0.005757749,0.2775635,0.2585996,7.363162,7.455929,7.37,NaN,0,8.167726999999999,-11,-14
218761,1695715491,0.2665012,0.003349334,0.2784216,0.2585996,7.361459,7.443261,7.15,NaN,0,8.155523000000001,-9,-13
219200,1695823711,0.2628612,0.001990944,0.2664968,0.2585996,7.36016,7.431465,7.3,NaN,0,8.143483,-8,-9
219616,1695929330,0.2758097,0.001535356,0.272064,0.2585996,7.359392,7.420065,6.67,NaN,0,8.132472999999999,-6,-10
220059,1696038977,0.2749871,0.001333654,0.2773013,0.2585996,7.35925,7.40726,6.89,NaN,0,8.119949999999999,-4,-8
220504,1696145556,0.283335,0.001470447,0.2790121,0.2585996,7.359834,7.391249,6.75,NaN,0,8.104595,-2,-7
220950,1696256070,0.281314,0.001752585,0.2804409,0.2585996,7.361288,7.373871,7.03,NaN,0,8.087567,0,-5
221397,1696361936,0.2741166,0.001998276,0.2817264,0.2585996,7.363737,7.358178,7.28,NaN,0,8.072195000000001,3,-2
221806,1696469827,0.2787631,0.002014101,0.2791709,0.2585996,7.367282,7.345649,6.95,NaN,0,8.059789,6,0
222244,1696577602,0.2725967,0.001667857,0.2770632,0.2585996,7.371933,7.338258,7.03,NaN,0,8.052640999999999,8,5
222669,1696682841,0.2644574,0.001548439,0.2746381,0.2585996,7.377616,7.335829,7.13,NaN,0,8.050364999999999,10,8
223096,1696787297,0.2683271,0.00159511,0.2693206,0.2585996,7.384189,7.33797,7.29,NaN,0,8.052474999999999,11,10
223536,1696894557,0.2713684,0.001401395,0.2709104,0.2585996,7.391256,7.34585,7.06,NaN,0,8.060499,12,12
223977,1697002741,0.255539,0.00120914,0.266418,0.2585996,7.398757,7.356568,7.07,NaN,0,8.071218,12,15
224390,1697109154,0.2590975,0.001229525,0.2651151,0.2585996,7.40666,7.367888,7.17,NaN,0,8.082272,12,15
224831,1697217806,0.2644667,0.001278192,0.2651438,0.2585996,7.414126,7.379571,7.11,NaN,0,8.093634,11,15
225277,1697323913,0.2562566,0.001227736,0.2634628,0.2585996,7.421808,7.389832,7.15,NaN,0,8.103399,11,14
225719,1697433348,0.2544206,0.001096785,0.2590933,0.2585996,7.429141,7.4022,7.31,NaN,0,8.114713999999999,10,14
226164,1697540371,0.2560351,0.001010716,0.2553306,0.2585996,7.435986,7.414772,7.3,NaN,0,8.126492000000001,9,14
226606,1697650045,0.2661517,0.00112462,0.2603369,0.2585996,7.442217,7.427754,7.9,NaN,0,8.138315,7,10
227020,1697760808,0.2648519,0.001149774,0.2663607,0.2585996,7.447865,7.441488,7.57,NaN,0,8.150667,6,7
227449,1697866076,0.2751721,0.001202136,0.2694359,0.2585996,7.452554,7.452267,7.28,NaN,0,8.160142,4,4
227869,1697973481,0.2741062,0.001068622,0.2720171,0.2585996,7.456396,7.458577,7.68,NaN,0,8.165292000000001,3,2
228314,1698081046,0.2749837,0.001013905,0.2736192,0.2585996,7.459431,7.462919,7.56,NaN,0,8.168077,2,1
228754,1698189127,0.2799291,0.001001418,0.2783768,0.2585996,7.461728,7.46762,7.7,NaN,0,8.171336999999999,1,-1
229201,1698297908,0.276225,0.000828445,0.2803757,0.2585996,7.463337,7.47305,7.82,NaN,0,8.175172,0,-2
229645,1698404694,0.274972,0.0004408062,0.2754734,0.2585996,7.464285,7.481575,8.08,NaN,0,8.181858,-1,-2
230090,1698510754,0.2566476,0.0002625287,0.2701393,0.2585996,7.464543,7.494468,7.83,NaN,0,8.193073,-3,0
230531,1698619399,0.2425259,0.000190869,0.2520694,0.2585996,7.464032,7.506856,7.7,NaN,0,8.203531999999999,-5,0
230943,1698725112,0.2570834,0.0002361834,0.2510531,0.2585996,7.46268,7.516755,7.55,NaN,0,8.211698999999999,-7,0
231388,1698836143,0.2559099,0.0003820658,0.2554431,0.2585996,7.460542,7.523948,7.93,NaN,0,8.216984,-9,-3
231835,1698944700,0.2458727,0.00055933,0.2552232,0.2585996,7.457527,7.52707,7.85,NaN,0,8.218275,-10,-6
232259,1699052542,0.2449408,0.0006671101,0.2527135,0.2585996,7.453772,7.526263,7.84,NaN,0,8.215714,-11,-6
232680,1699159814,0.2473829,0.0007237792,0.2525255,0.2585996,7.449418,7.522398,7.52,NaN,0,8.209819,-12,-8
233125,1699266356,0.2485578,0.0008101612,0.2538721,0.2585996,7.444628,7.516523,7.67,NaN,0,8.201961000000001,-12,-9
233539,1699377534,0.2520895,0.0009633303,0.2549669,0.2585996,7.439443,7.507957,7.67,NaN,0,8.191311000000001,-12,-10
233986,1699486175,0.2546932,0.001142919,0.2613556,0.2585996,7.434312,7.498195,7.81,NaN,0,8.179314,-11,-12
234430,1699593561,0.2725163,0.001374394,0.2669089,0.2585996,7.429278,7.489764,7.58,NaN,0,8.168732,-11,-12
234874,1699700272,0.2569368,0.001332045,0.2653775,0.2585996,7.424467,7.483229,7.69,NaN,0,8.159641000000001,-10,-12
235285,1699808078,0.2489886,0.001052558,0.2573696,0.2585996,7.419945,7.478512,7.8,NaN,0,8.152238000000001,-10,-9
235734,1699913843,0.2554782,0.001025736,0.2526225,0.2585996,7.415731,7.477894,7.63,NaN,0,8.148934000000001,-10,-7
236142,1700020152,0.2748264,0.001305223,0.2585286,0.2585996,7.411894,7.477139,7.44,NaN,0,8.145448,-10,-9
236587,1700127086,0.2700837,0.001288563,0.273287,0.2585996,7.408201,7.469409,7.57,NaN,0,8.134658999999999,-9,-11
237015,1700234168,0.2486048,0.0008873641,0.2625704,0.2585996,7.404994,7.463382,7.89,NaN,0,8.125855,-9,-10
237442,1700339354,0.2565446,0.0007566512,0.2546846,0.2585996,7.401963,7.461972,7.74,NaN,0,8.121385,-9,-6
237851,1700447346,0.2499872,0.0007747710000000001,0.2550745,0.2585996,7.399246,7.466168,7.55,NaN,0,8.122149,-9,-7
238264,1700555541,0.2573241,0.001011938,0.254338,0.2585996,7.396735,7.468367,7.48,NaN,0,8.120958999999999,-9,-7
238709,1700664500,0.2643962,0.001211375,0.2576592,0.2585996,7.39436,7.466833,7.5,NaN,0,8.116220999999999,-9,-7
239157,1700777811,0.2649378,0.001308948,0.2626712,0.2585996,7.392067,7.461267,7.46,NaN,0,8.106961999999999,-9,-9
239606,1700886165,0.2678568,0.001340121,0.2675636,0.2585996,7.390037,7.45445,7.48,NaN,0,8.096475999999999,-8,-10
240045,1700994154,0.2540491,0.0009887814999999999,0.2630792,0.2585996,7.388286,7.446815,7.48,NaN,0,8.085065,-7,-9
240489,1701101343,0.2522894,0.0007494092,0.2561855,0.2585996,7.386891,7.440916,7.62,NaN,0,8.075327,-6,-6
240890,1701212079,0.2509485,0.0007040203,0.2560612,0.2585996,7.385885,7.438099,7.88,NaN,0,8.06846,-6,-5
241314,1701318127,0.2629957,0.0008929968,0.257895,0.2585996,7.385237,7.439103,7.84,NaN,0,8.065733,-5,-6
241748,1701427589,0.257922,0.000890404,0.2590185,0.2585996,7.384898,7.442415,7.59,NaN,0,8.065063,-5,-5
242192,1701535206,0.2587199,0.0009215474,0.2616593,0.2585996,7.384745,7.445333,7.57,NaN,0,8.063867999999999,-6,-5
242638,1701643799,0.2635975,0.0009779036,0.265583,0.2585996,7.384702,7.445367,7.69,NaN,0,8.059843000000001,-6,-7
243054,1701757591,0.2572946,0.000908494,0.2634421,0.2585996,7.384744,7.445468,7.65,NaN,0,8.042671,-5,-5
243501,1701864321,0.2369421,0.0006091446,0.2471915,0.2585996,7.384853,7.447709,8.289999999999999,NaN,0,8.021940000000001,-6,-2
243944,1701972358,0.2492962,0.0007381588,0.2454585,0.2585996,7.38498,7.456365,7.78,NaN,0,8.007541,-7,0
244357,1702076541,0.2460717,0.001075476,0.2473921,0.2585996,7.384978,7.465655,7.82,NaN,0,7.995742,-8,-2
244788,1702183814,0.2413013,0.001299813,0.2447805,0.2585996,7.384726,7.471126,7.94,NaN,0,7.978897,-9,-3
245183,1702290696,0.2355109,0.00114423,0.2409013,0.2585996,7.384167,7.477893,8,NaN,0,7.962608,-10,-4
245610,1702398179,0.232506,0.0009368061999999999,0.2374405,0.2585996,7.383245,7.485445,8.050000000000001,NaN,0,7.947013,-11,-4
246053,1702505329,0.2327669,0.0007160306,0.2324626,0.2585996,7.3819,7.494021,7.77,NaN,0,7.933265,-12,-6
246463,1702613395,0.2296082,0.0006522089,0.2316231,0.2585996,7.380075,7.499009,7.84,NaN,0,7.916082,-14,-6
246911,1702720130,0.2328507,0.0006133467,0.2313861,0.2585996,7.377762,7.50006,7.4,NaN,0,7.895556,-14,-7
247356,1702829404,0.2292348,0.0005761385,0.2312558,0.2585996,7.375038,7.49543,7.57,NaN,0,7.868756,-15,-11
247801,1702935586,0.2398867,0.0007283539,0.2373114,0.2585996,7.372044,7.486732,7.71,NaN,0,7.838871,-14,-12
248245,1703043535,0.2552994,0.001034111,0.245953,0.2585996,7.368974,7.474669,7.28,NaN,0,7.805462,-13,-15
248656,1703150807,0.249571,0.001406536,0.2480803,0.2585996,7.366042,7.458998,8.19,NaN,0,7.769343,-12,-15
249077,1703255604,0.2435061,0.001419649,0.2481783,0.2585996,7.363474,7.445675,8.01,NaN,0,7.735749,-10,-13
249506,1703362772,0.2394363,0.001363754,0.2462778,0.2585996,7.361366,7.439868,7.48,NaN,0,7.710404,-9,-12
249946,1703471757,0.2645677,0.001520663,0.2482537,0.2585996,7.359844,7.433887,7.24,NaN,0,7.684884,-8,-10
250387,1703580122,0.2698415,0.001697004,0.260181,0.2585996,7.358878,7.422132,7.08,NaN,0,7.65375,-7,-10
250834,1703686551,0.2648736,0.001865178,0.2664565,0.2585996,7.358519,7.404032,7.11,NaN,0,7.617844,-4,-12
251246,1703794397,0.2839645,0.002038598,0.2714084,0.2585996,7.358981,7.383674,7.07,NaN,0,7.579602,-1,-11
251694,1703900299,0.2790473,0.002032757,0.2785079,0.2585996,7.360456,7.363377,6.99,NaN,0,7.542245,1,-10
252136,1704008342,0.2840356,0.002130747,0.2849472,0.2585996,7.363095,7.344177,7.25,NaN,0,7.504323,5,-7
252582,1704114584,0.2886503,0.002050787,0.2904635,0.2585996,7.36702,7.328226,7.46,NaN,0,7.471396,8,-3
253021,1704222547,0.2887507,0.002500176,0.2901075,0.2585996,7.372115,7.318529,6.87,NaN,0,7.44448,11,0
