LineNo,TimeUS,ThI,ABst,ThO,ThH,DAlt,Alt,BAlt,DSAlt,SAlt,TAlt,DCRt,CRt
2022,1.6424e+09,0,0,0,0.2586,-0.50607,-0.50607,-0.84,NaN,0,0.042385,32,32
2454,1.6425e+09,0,0,0,0.2586,-0.48089,-0.48089,-0.63,NaN,0,0.067424,32,32
2864,1.6426e+09,0,0,0,0.2586,-0.46182,-0.46182,-0.56,NaN,0,0.086493,31,31
3319,1.6427e+09,0,0,0,0.2586,-0.44208,-0.44208,-0.37,NaN,0,0.10581,31,31
3768,1.6428e+09,0,0,0,0.2586,-0.42406,-0.42406,-0.6,NaN,0,0.1237,30,30
4219,1.6429e+09,0,0,0,0.2586,-0.4099,-0.4099,-0.5,NaN,0,0.13758,29,29
4653,1.643e+09,0,0,0,0.2586,-0.39343,-0.39343,-0.48,NaN,0,0.15391,29,29
5088,1.6431e+09,0,0,0,0.2586,-0.37504,-0.37504,-0.42,NaN,0,0.17216,29,29
5527,1.6432e+09,0,0,0,0.2586,-0.36308,-0.36308,-0.4,NaN,0,0.18398,28,28
5982,1.6433e+09,0,0,0,0.2586,-0.3472,-0.3472,-0.51,NaN,0,0.19986,27,27
6429,1.6434e+09,0,0,0,0.2586,-0.33596,-0.33596,-0.68,NaN,0,0.2106,27,27
6848,1.6435e+09,0,0,0,0.2586,-0.32105,-0.32105,-0.51,NaN,0,0.22538,26,26
7282,1.6436e+09,0,0,0,0.2586,-0.31175,-0.31175,-0.7,NaN,0,0.23441,25,25
7685,1.6437e+09,0,0,0,0.2586,-0.30026,-0.30026,-0.54,NaN,0,0.24576,25,25
8133,1.6438e+09,0,0,0,0.2586,-0.29796,-0.29796,-0.56,NaN,0,0.24806,24,24
8586,1.6439e+09,0,0,0,0.2586,-0.28907,-0.28907,-0.6,NaN,0,0.25668,23,23
9031,1.644e+09,0,0,0,0.2586,-0.2855,-0.2855,-0.73,NaN,0,0.25996,23,23
9483,1.6441e+09,0,0,0,0.2586,-0.27774,-0.27774,-0.67,NaN,0,0.26772,22,22
9912,1.6443e+09,0,0,0,0.2586,-0.27616,-0.27616,-0.78,NaN,0,0.26916,22,22
10313,1.6444e+09,0,0,0,0.2586,-0.26995,-0.26995,-0.63,NaN,0,0.27537,21,21
10765,1.6445e+09,0,0,0,0.2586,-0.26541,-0.26541,-0.82,NaN,0,0.27957,20,20
11213,1.6446e+09,0,0,0,0.2586,-0.26123,-0.26123,-0.76,NaN,0,0.28374,20,20
11668,1.6447e+09,0,0,0,0.2586,-0.25786,-0.25786,-0.56,NaN,0,0.28697,20,20
12116,1.6448e+09,0,0,0,0.2586,-0.2524,-0.2524,-0.75,NaN,0,0.29242,19,19
12551,1.6449e+09,0,0,0,0.2586,-0.24735,-0.24735,-0.97,NaN,0,0.29734,19,19
12951,1.645e+09,0,0,0,0.2586,-0.24159,-0.24159,-0.57,NaN,0,0.30288,18,18
13401,1.6451e+09,0,0,0,0.2586,-0.23944,-0.23944,-0.82,NaN,0,0.30476,18,18
13634,1.6452e+09,0,0,0,0.2586,-0.23421,-0.23421,-0.79,NaN,0,0.30984,17,17
14056,1.6453e+09,0,0,0,0.2586,-0.23221,-0.23221,-0.59,NaN,0,0.31184,17,17
14499,1.6454e+09,0,0,0,0.2586,-0.22936,-0.22936,-0.85,NaN,0,0.3144,17,17
14930,1.6455e+09,0,0,0,0.2586,-0.23072,-0.23072,-0.89,NaN,0,0.31304,16,16
15364,1.6456e+09,0,0,0,0.2586,-0.23011,-0.23011,-0.72,NaN,0,0.31323,16,16
15785,1.6457e+09,0,0,0,0.2586,-0.23252,-0.23252,-0.62,NaN,0,0.31082,15,15
16237,1.6458e+09,0,0,0,0.2586,-0.23124,-0.23124,-0.46,NaN,0,0.31181,15,15
16689,1.6459e+09,0,0,0,0.2586,-0.23018,-0.23018,-0.56,NaN,0,0.31287,14,14
17130,1.646e+09,0,0,0,0.2586,-0.2286,-0.2286,-0.51,NaN,0,0.31417,14,14
17561,1.6461e+09,0,0,0,0.2586,-0.22437,-0.22437,-0.55,NaN,0,0.31798,13,13
17971,1.6462e+09,0,0,0,0.2586,-0.22217,-0.22217,-0.66,NaN,0,0.32018,13,13
18394,1.6463e+09,0,0,0,0.2586,-0.21835,-0.21835,-0.9,NaN,0,0.32386,13,13
18842,1.6464e+09,0,0,0,0.2586,-0.21775,-0.21775,-0.53,NaN,0,0.32431,12,12
19294,1.6465e+09,0,0,0,0.2586,-0.21501,-0.21501,-0.42,NaN,0,0.3269,12,12
19732,1.6466e+09,0,0,0,0.2586,-0.21634,-0.21634,-0.49,NaN,0,0.3253,12,12
20137,1.6467e+09,0,0,0,0.2586,-0.21543,-0.21543,-0.87,NaN,0,0.32621,12,12
20581,1.6468e+09,0,0,0,0.2586,-0.21669,-0.21669,-0.97,NaN,0,0.32459,11,11
21036,1.6469e+09,0,0,0,0.2586,-0.2178,-0.2178,-0.67,NaN,0,0.32348,11,11
21452,1.647e+09,0,0,0,0.2586,-0.22381,-0.22381,-0.46,NaN,0,0.31733,10,10
21906,1.6471e+09,0,0,0,0.2586,-0.22507,-0.22507,-0.65,NaN,0,0.31606,10,10
22338,1.6472e+09,0,0,0,0.2586,-0.22832,-0.22832,-0.58,NaN,0,0.31253,9,9
22772,1.6473e+09,0,0,0,0.2586,-0.22844,-0.22844,-0.57,NaN,0,0.31234,9,9
23190,1.6475e+09,0,0,0,0.2586,-0.2312,-0.2312,-0.84,NaN,0,0.30944,9,9
23639,1.6476e+09,0,0,0,0.2586,-0.2323,-0.2323,-0.31,NaN,0,0.3082,9,9
24092,1.6477e+09,0,0,0,0.2586,-0.23292,-0.23292,-0.49,NaN,0,0.30744,8,8
24545,1.6478e+09,0,0,0,0.2586,-0.23203,-0.23203,-0.32,NaN,0,0.30811,8,8
24980,1.6479e+09,0,0,0,0.2586,-0.23609,-0.23609,-0.2,NaN,0,0.30377,8,8
25411,1.648e+09,0,0,0,0.2586,-0.23558,-0.23558,-0.37,NaN,0,0.30414,7,7
25864,1.6481e+09,0.00625,3.9549e-06,0.00036956,0.2586,-0.23506,-0.23506,-0.21,NaN,0,0.30452,7,7
26313,1.6482e+09,0.054999,3.1859e-05,0.025041,0.2586,-0.233,-0.233,-0.42,NaN,0,0.3063,7,7
26766,1.6483e+09,0.105,6.897e-05,0.067213,0.2586,-0.23072,-0.23072,-0.21,NaN,0,0.3083,6,6
27207,1.6484e+09,0.15375,9.3415e-05,0.11463,0.2586,-0.22656,-0.22656,-0.14,NaN,0,0.31245,9,9
27609,1.6485e+09,0.20375,0.00010821,0.16334,0.2586,-0.22085,-0.22085,-0.08,NaN,0,0.31803,6,6
28046,1.6486e+09,0.2525,0.00015205,0.21239,0.2586,-0.21422,-0.21422,-0.36,NaN,0,0.32438,7,7
28499,1.6487e+09,0.3025,0.00020012,0.26186,0.2586,-0.20601,-0.20601,-0.63,NaN,0,0.33245,12,12
28919,1.6488e+09,0.30915,6.2883e-05,0.30446,0.2586,-0.19178,-0.19432,-0.75,NaN,0,0.34372,23,25
29372,1.6489e+09,0.24977,1.0058e-05,0.2857,0.2586,-0.16143,-0.16281,-0.73,NaN,0,0.37524,37,48
29806,1.649e+09,0.25486,0.00021768,0.25841,0.2586,-0.12007,-0.11412,-0.51,NaN,0,0.42381,47,65
30239,1.6491e+09,0.25353,0.00041282,0.25459,0.2586,-0.067712,-0.052252,-0.78,NaN,0,0.48569,55,74
30682,1.6492e+09,0.25494,0.00048402,0.25427,0.2586,-0.010346,0.015856,-0.43,NaN,0,0.55404,61,80
31134,1.6493e+09,0.25076,0.00036857,0.25428,0.2586,0.056582,0.088422,-0.27,NaN,0,0.62692,66,83
31551,1.6495e+09,0.25826,0.00031844,0.25988,0.2586,0.12706,0.16694,0.14,NaN,0,0.70605,70,82
31998,1.6496e+09,0.25949,0.00048563,0.26046,0.2586,0.20176,0.24721,0.06,NaN,0,0.78678,73,85
32450,1.6497e+09,0.26147,0.00070387,0.2583,0.2586,0.28194,0.3248,0.26,NaN,0,0.86479,77,85
32900,1.6498e+09,0.26215,0.0010083,0.26133,0.2586,0.36083,0.40847,-0.03,NaN,0,0.94905,79,86
33333,1.6499e+09,0.27385,0.0012539,0.2643,0.2586,0.44622,0.4917,0.19,NaN,0,1.0327,81,86
33769,1.65e+09,0.26593,0.0014043,0.26784,0.2586,0.53131,0.57297,0.37,NaN,0,1.1144,83,85
34221,1.6501e+09,0.24649,0.0012491,0.25668,0.2586,0.62014,0.65434,0.21,NaN,0,1.1961,86,89
34670,1.6502e+09,0.24713,0.0011629,0.25234,0.2586,0.70797,0.742,0.08,NaN,0,1.284,87,91
35122,1.6503e+09,0.258,0.0012418,0.25294,0.2586,0.79908,0.82475,0.31,NaN,0,1.3669,89,91
35562,1.6504e+09,0.26045,0.0014014,0.26038,0.2586,0.88878,0.90581,0,NaN,0,1.4482,90,90
35996,1.6505e+09,0.26,0.0015813,0.26043,0.2586,0.9815,0.9784,0,NaN,0,1.521,93,91
36402,1.6506e+09,0.27441,0.0019716,0.26569,0.2586,1.0749,1.0486,0.31,NaN,0,1.5913,96,91
36854,1.6507e+09,0.28309,0.0023637,0.27661,0.2586,1.1689,1.1117,0.31,NaN,0,1.6545,99,93
37305,1.6508e+09,0.26874,0.0021214,0.27709,0.2586,1.2609,1.1775,0.49,NaN,0,1.7202,102,94
37756,1.6509e+09,0.25301,0.0016617,0.26317,0.2586,1.3555,1.2493,0.91,NaN,0,1.7921,105,99
38207,1.651e+09,0.26486,0.0017203,0.26267,0.2586,1.4504,1.3365,0.9,NaN,0,1.8794,106,103
38627,1.6511e+09,0.27205,0.0021973,0.27052,0.2586,1.5455,1.4208,0.79,NaN,0,1.9639,107,103
39059,1.6513e+09,0.26821,0.0028827,0.27193,0.2586,1.6408,1.5092,0.77,NaN,0,2.052,108,104
39486,1.6514e+09,0.29225,0.0037301,0.28073,0.2586,1.7363,1.5985,0.69,NaN,0,2.1411,109,103
39939,1.6515e+09,0.29719,0.0043693,0.29593,0.2586,1.832,1.6852,0.86,NaN,0,2.2271,110,102
40385,1.6516e+09,0.26306,0.0032537,0.28199,0.2586,1.923,1.7665,1.16,NaN,0,2.3083,111,106
40838,1.6517e+09,0.26801,0.0027467,0.27045,0.2586,2.0188,1.8562,1.19,NaN,0,2.3975,112,110
41255,1.6518e+09,0.268,0.0024539,0.27319,0.2586,2.1123,1.948,1.16,NaN,0,2.489,112,110
41708,1.6519e+09,0.25724,0.0022509,0.26554,0.2586,2.2082,2.0474,1.37,NaN,0,2.5877,111,112
42152,1.652e+09,0.24984,0.0024863,0.25557,0.2586,2.3006,2.1467,1.13,NaN,0,2.6865,108,112
42578,1.6521e+09,0.25486,0.0028445,0.24941,0.2586,2.3856,2.2395,1.49,NaN,0,2.7789,100,105
43010,1.6522e+09,0.2663,0.0032504,0.25696,0.2586,2.4637,2.3234,2.12,NaN,0,2.8622,92,95
43424,1.6523e+09,0.24559,0.0031254,0.26121,0.2586,2.5359,2.3995,2.32,NaN,0,2.9372,86,88
43866,1.6524e+09,0.26696,0.0039609,0.26163,0.2586,2.6032,2.4792,2.27,NaN,0,3.0161,81,82
44312,1.6525e+09,0.27192,0.0045485,0.26844,0.2586,2.6666,2.5532,2.23,NaN,0,3.0897,76,75
44755,1.6526e+09,0.2673,0.003979,0.27093,0.2586,2.7266,2.6247,2.73,NaN,0,3.1608,71,71
45198,1.6528e+09,0.25813,0.0031075,0.26952,0.2586,2.7839,2.6954,3.05,NaN,0,3.2311,67,68
45645,1.6529e+09,0.23909,0.0017718,0.25378,0.2586,2.8388,2.765,2.49,NaN,0,3.3001,64,69
46089,1.653e+09,0.24691,0.0010929,0.25106,0.2586,2.8932,2.8393,2.82,NaN,0,3.3741,60,66
46515,1.6531e+09,0.22355,0.00076242,0.23777,0.2586,2.9447,2.9107,2.91,NaN,0,3.4453,56,66
46912,1.6532e+09,0.22468,0.0010435,0.22533,0.2586,2.9949,2.9859,2.53,NaN,0,3.5202,53,66
47360,1.6533e+09,0.23571,0.001496,0.22392,0.2586,3.0441,3.0539,2.73,NaN,0,3.5881,50,63
47802,1.6534e+09,0.24111,0.0021271,0.23799,0.2586,3.0924,3.1121,2.99,NaN,0,3.6466,48,56
48245,1.6535e+09,0.23592,0.0023395,0.24274,0.2586,3.1399,3.1624,3.25,NaN,0,3.6972,47,51
48685,1.6536e+09,0.24645,0.002222,0.24436,0.2586,3.1868,3.2144,3.49,NaN,0,3.7491,46,48
49102,1.6537e+09,0.24861,0.0016635,0.24792,0.2586,3.2332,3.2682,3.03,NaN,0,3.803,45,45
49545,1.6538e+09,0.23943,0.0008809,0.24596,0.2586,3.2792,3.3169,3.58,NaN,0,3.8521,44,44
49991,1.6539e+09,0.23639,0.00065917,0.24123,0.2586,3.3248,3.3638,3.26,NaN,0,3.899,44,45
50400,1.654e+09,0.23666,0.00077112,0.24208,0.2586,3.3702,3.4104,3.56,NaN,0,3.9459,43,45
50843,1.6542e+09,0.26084,0.0012653,0.24921,0.2586,3.4154,3.4573,3.4,NaN,0,3.993,43,41
51293,1.6543e+09,0.25409,0.0017605,0.25196,0.2586,3.4602,3.5021,3.69,NaN,0,4.0382,43,41
51702,1.6544e+09,0.24693,0.001789,0.25404,0.2586,3.505,3.5478,3.77,NaN,0,4.0846,42,40
52148,1.6545e+09,0.25762,0.0019213,0.25601,0.2586,3.5496,3.5896,3.71,NaN,0,4.1266,42,39
52555,1.6546e+09,0.26602,0.0020002,0.26133,0.2586,3.5941,3.6324,3.78,NaN,0,4.1697,42,38
52983,1.6547e+09,0.25404,0.0018637,0.26228,0.2586,3.6386,3.6733,3.93,NaN,0,4.2111,43,38
53415,1.6548e+09,0.2695,0.0020498,0.26236,0.2586,3.6818,3.7167,4.15,NaN,0,4.255,43,39
53829,1.6549e+09,0.2705,0.0022315,0.26847,0.2586,3.7262,3.7622,3.83,NaN,0,4.3006,43,37
54272,1.655e+09,0.24521,0.0018958,0.26332,0.2586,3.7705,3.8081,4.04,NaN,0,4.3468,42,41
54720,1.6551e+09,0.25471,0.0019965,0.25406,0.2586,3.8148,3.8567,3.85,NaN,0,4.3956,42,43
55167,1.6552e+09,0.27747,0.0023512,0.26274,0.2586,3.859,3.9029,4.09,NaN,0,4.4419,42,40
55616,1.6553e+09,0.26179,0.0023916,0.26766,0.2586,3.9031,3.9481,4.57,NaN,0,4.4871,42,41
56058,1.6555e+09,0.2576,0.002496,0.26294,0.2586,3.9473,3.9942,4.64,NaN,0,4.5329,41,40
56470,1.6556e+09,0.25543,0.0024472,0.26065,0.2586,3.9926,4.0466,4.45,NaN,0,4.5855,41,41
56898,1.6557e+09,0.26513,0.0029596,0.26626,0.2586,4.0367,4.0969,4.64,NaN,0,4.6356,40,39
57329,1.6558e+09,0.26369,0.0039676,0.26821,0.2586,4.0809,4.1477,4.22,NaN,0,4.686,39,38
57774,1.6559e+09,0.27125,0.0054816,0.27389,0.2586,4.125,4.1943,4.42,NaN,0,4.7321,39,38
58185,1.656e+09,0.26035,0.0059151,0.27361,0.2586,4.1691,4.239,4.04,NaN,0,4.7763,39,38
58633,1.6561e+09,0.26183,0.0055165,0.26696,0.2586,4.2132,4.2801,4.16,NaN,0,4.8166,39,39
59077,1.6562e+09,0.26058,0.0048556,0.26747,0.2586,4.2571,4.3185,4.46,NaN,0,4.8541,40,39
59523,1.6563e+09,0.25241,0.0040829,0.2636,0.2586,4.301,4.3559,4.11,NaN,0,4.8905,40,40
59968,1.6564e+09,0.25106,0.0033211,0.26018,0.2586,4.3449,4.3956,4.55,NaN,0,4.9287,41,41
60413,1.6565e+09,0.24827,0.0024972,0.25369,0.2586,4.3889,4.4353,4.68,NaN,0,4.9674,41,42
60838,1.6566e+09,0.25036,0.0023118,0.25209,0.2586,4.4317,4.4795,4.3,NaN,0,5.0103,41,43
61269,1.6567e+09,0.24707,0.0020796,0.25336,0.2586,4.4757,4.5235,4.16,NaN,0,5.053,41,44
61707,1.6569e+09,0.24832,0.0020568,0.2521,0.2586,4.5187,4.5629,4.32,NaN,0,5.0907,42,44
62117,1.657e+09,0.25695,0.0020286,0.25293,0.2586,4.5616,4.6017,4.49,NaN,0,5.128,42,43
62564,1.6571e+09,0.26056,0.0019385,0.25779,0.2586,4.6057,4.6357,4.12,NaN,0,5.1604,43,42
62977,1.6572e+09,0.25559,0.0020071,0.25985,0.2586,4.6499,4.6701,4.5,NaN,0,5.1928,44,42
63422,1.6573e+09,0.24791,0.0020153,0.25477,0.2586,4.6941,4.7028,4.79,NaN,0,5.2235,45,43
63864,1.6574e+09,0.2506,0.0021255,0.25439,0.2586,4.7383,4.7398,4.46,NaN,0,5.2583,46,45
64311,1.6575e+09,0.24481,0.0020957,0.25506,0.2586,4.7824,4.7765,4.55,NaN,0,5.2926,46,46
64753,1.6576e+09,0.25248,0.0023684,0.25282,0.2586,4.8265,4.8151,4.87,NaN,0,5.3283,47,46
65202,1.6577e+09,0.25907,0.0025811,0.253,0.2586,4.8704,4.8537,4.88,NaN,0,5.3642,47,46
65635,1.6578e+09,0.25239,0.0025962,0.25539,0.2586,4.9132,4.8926,4.31,NaN,0,5.4,48,47
66028,1.6579e+09,0.24753,0.0021908,0.25251,0.2586,4.9572,4.9283,5.1,NaN,0,5.4327,49,47
66464,1.658e+09,0.25126,0.0021769,0.25442,0.2586,5.0013,4.969,5.51,NaN,0,5.47,49,48
66908,1.6581e+09,0.24289,0.0022398,0.25105,0.2586,5.0454,5.0189,6.25,NaN,0,5.5166,49,50
67354,1.6583e+09,0.23158,0.0020847,0.24163,0.2586,5.0895,5.081,5.5,NaN,0,5.575,47,51
67767,1.6584e+09,0.22117,0.0018341,0.2334,0.2586,5.1348,5.1485,4.83,NaN,0,5.639,45,53
68212,1.6585e+09,0.23244,0.0021118,0.22927,0.2586,5.1802,5.2109,5.1,NaN,0,5.6974,43,53
68635,1.6586e+09,0.25137,0.0032024,0.23882,0.2586,5.2256,5.2675,5.34,NaN,0,5.7502,42,47
69084,1.6587e+09,0.24605,0.0036451,0.24886,0.2586,5.2697,5.3211,5.74,NaN,0,5.7997,41,44
69493,1.6588e+09,0.2624,0.0036566,0.25566,0.2586,5.3138,5.3719,5.35,NaN,0,5.8464,40,41
69939,1.6589e+09,0.24096,0.0023577,0.25275,0.2586,5.3579,5.4163,4.88,NaN,0,5.8863,40,40
70380,1.659e+09,0.24551,0.0014403,0.24819,0.2586,5.4008,5.4541,4.81,NaN,0,5.9194,40,40
70826,1.6591e+09,0.2632,0.0012275,0.25121,0.2586,5.4447,5.486,4.87,NaN,0,5.9467,42,39
71270,1.6592e+09,0.25763,0.0012921,0.25871,0.2586,5.4887,5.5114,4.88,NaN,0,5.9676,43,38
71684,1.6593e+09,0.26133,0.0014364,0.26136,0.2586,5.5327,5.5349,5.03,NaN,0,5.9868,46,37
72094,1.6594e+09,0.2746,0.0015536,0.26901,0.2586,5.5766,5.5595,5.21,NaN,0,6.0067,47,39
72535,1.6596e+09,0.23954,0.0012232,0.25831,0.2586,5.6207,5.5866,5.46,NaN,0,6.0293,49,42
72952,1.6597e+09,0.25255,0.0012666,0.25394,0.2586,5.6647,5.6203,5.61,NaN,0,6.0587,50,45
73400,1.6598e+09,0.24251,0.0011994,0.25302,0.2586,5.71,5.664,5.69,NaN,0,6.098,51,48
73846,1.6599e+09,0.24679,0.0013106,0.25323,0.2586,5.7541,5.7098,5.29,NaN,0,6.1396,50,50
74288,1.66e+09,0.24698,0.0014274,0.25054,0.2586,5.7983,5.7556,5.24,NaN,0,6.1812,50,50
74702,1.6601e+09,0.26159,0.0016886,0.25586,0.2586,5.8424,5.7964,5.05,NaN,0,6.2182,50,50
75146,1.6602e+09,0.2331,0.0014214,0.2524,0.2586,5.8864,5.8335,5.35,NaN,0,6.2515,51,50
75593,1.6603e+09,0.22165,0.0013294,0.23446,0.2586,5.9304,5.8708,5.68,NaN,0,6.2852,52,55
76026,1.6604e+09,0.27145,0.0022847,0.2481,0.2586,5.9732,5.9109,5.37,NaN,0,6.3216,52,52
76424,1.6605e+09,0.25592,0.0030548,0.26503,0.2586,6.0172,5.9454,5.68,NaN,0,6.3526,53,48
76856,1.6606e+09,0.22035,0.0035464,0.24747,0.2586,6.0601,5.9852,5.68,NaN,0,6.3894,53,55
77307,1.6607e+09,0.25112,0.0045114,0.23915,0.2586,6.1042,6.0316,5.46,NaN,0,6.4329,53,56
77749,1.6608e+09,0.24935,0.0039411,0.24925,0.2586,6.1472,6.0726,5.61,NaN,0,6.4715,53,54
78197,1.6609e+09,0.26675,0.0035717,0.25753,0.2586,6.1914,6.11,5.62,NaN,0,6.5073,54,50
78637,1.6611e+09,0.26154,0.0031264,0.26319,0.2586,6.2355,6.1435,5.92,NaN,0,6.5392,55,50
79048,1.6612e+09,0.25299,0.0026873,0.26119,0.2586,6.2796,6.1798,5.9,NaN,0,6.574,56,51
79495,1.6613e+09,0.25533,0.0022068,0.25983,0.2586,6.3236,6.214,6.14,NaN,0,6.6069,57,52
79938,1.6614e+09,0.25481,0.0020441,0.2583,0.2586,6.3676,6.2565,6.45,NaN,0,6.6484,57,53
80383,1.6615e+09,0.25131,0.001937,0.25205,0.2586,6.4115,6.3046,6.38,NaN,0,6.6956,56,55
80793,1.6616e+09,0.25092,0.0020154,0.24763,0.2586,6.4554,6.358,6.08,NaN,0,6.7481,55,57
81242,1.6617e+09,0.25345,0.0023686,0.24962,0.2586,6.4993,6.4087,6.19,NaN,0,6.7983,55,56
81687,1.6618e+09,0.26087,0.0036704,0.25714,0.2586,6.5433,6.4596,6.22,NaN,0,6.8484,54,55
82134,1.6619e+09,0.261,0.0050336,0.26025,0.2586,6.5871,6.5101,6.11,NaN,0,6.8984,53,53
82575,1.662e+09,0.24881,0.0053965,0.26249,0.2586,6.6299,6.5514,6.07,NaN,0,6.9387,54,51
83023,1.6621e+09,0.24576,0.0051101,0.26176,0.2586,6.6738,6.5937,5.86,NaN,0,6.9797,54,51
83463,1.6622e+09,0.2561,0.0045817,0.25729,0.2586,6.7178,6.6303,6.38,NaN,0,7.0152,55,54
83910,1.6623e+09,0.26493,0.0041946,0.26004,0.2586,6.7617,6.6677,6.41,NaN,0,7.0512,55,53
84351,1.6625e+09,0.26825,0.0039272,0.26487,0.2586,6.8057,6.7045,6.02,NaN,0,7.0865,56,51
84766,1.6626e+09,0.28642,0.0043789,0.27538,0.2586,6.8497,6.7414,6.32,NaN,0,7.1219,57,51
85209,1.6627e+09,0.26154,0.0036195,0.27423,0.2586,6.8937,6.7709,6.18,NaN,0,7.1497,58,51
85650,1.6628e+09,0.2584,0.0026761,0.26489,0.2586,6.9378,6.8073,6.58,NaN,0,7.1842,59,53
86068,1.6629e+09,0.26279,0.0022008,0.26253,0.2586,6.9818,6.8477,6.53,NaN,0,7.223,59,57
86505,1.663e+09,0.26655,0.0022472,0.26511,0.2586,7.0247,6.8895,6.55,NaN,0,7.2629,59,57
86932,1.6631e+09,0.26197,0.0029864,0.26507,0.2586,7.0686,6.9342,6.68,NaN,0,7.3057,59,58
87366,1.6632e+09,0.25566,0.0028086,0.25963,0.2586,7.1114,6.9814,6.76,NaN,0,7.3507,59,59
87813,1.6633e+09,0.24635,0.0023002,0.25512,0.2586,7.1552,7.0304,6.23,NaN,0,7.3973,58,59
88257,1.6634e+09,0.24241,0.0016269,0.24893,0.2586,7.1983,7.0819,6.55,NaN,0,7.4469,56,60
88700,1.6635e+09,0.2396,0.0011108,0.24512,0.2586,7.2399,7.1295,6.43,NaN,0,7.4922,53,58
89146,1.6636e+09,0.25229,0.0011098,0.24584,0.2586,7.2797,7.1689,6.55,NaN,0,7.5292,51,54
89593,1.6637e+09,0.25194,0.0011583,0.25098,0.2586,7.3171,7.2026,6.48,NaN,0,7.5605,49,50
90002,1.6639e+09,0.25388,0.0013262,0.25237,0.2586,7.3522,7.2272,6.91,NaN,0,7.5825,48,47
90449,1.664e+09,0.24735,0.0014678,0.25239,0.2586,7.3857,7.2577,6.59,NaN,0,7.6105,45,45
90896,1.6641e+09,0.25071,0.001589,0.25285,0.2586,7.4158,7.2806,6.6,NaN,0,7.6304,43,41
91340,1.6642e+09,0.25427,0.0016703,0.25698,0.2586,7.4434,7.3034,7.01,NaN,0,7.6504,41,39
91785,1.6643e+09,0.24693,0.0015877,0.25114,0.2586,7.4687,7.3227,6.63,NaN,0,7.6667,40,38
92195,1.6644e+09,0.24864,0.0016814,0.24913,0.2586,7.4911,7.3407,6.44,NaN,0,7.6767,38,36
92642,1.6645e+09,0.25185,0.001754,0.25441,0.2586,7.512,7.3485,6.79,NaN,0,7.6721,37,34
93086,1.6646e+09,0.25799,0.0018554,0.2536,0.2586,7.5309,7.3587,6.37,NaN,0,7.6695,36,33
93531,1.6647e+09,0.25054,0.0019002,0.25408,0.2586,7.5481,7.3654,6.63,NaN,0,7.6631,35,33
93974,1.6648e+09,0.26121,0.0020084,0.2548,0.2586,7.5632,7.3729,7.21,NaN,0,7.6573,34,30
94390,1.6649e+09,0.24254,0.0018375,0.25413,0.2586,7.5774,7.3832,8.12,NaN,0,7.6525,33,31
94833,1.665e+09,0.25048,0.0018819,0.25309,0.2586,7.5902,7.4,8.12,NaN,0,7.6544,31,30
95244,1.6651e+09,0.24193,0.0018298,0.25013,0.2586,7.6015,7.4306,8.38,NaN,0,7.6719,28,30
95685,1.6653e+09,0.23504,0.0019037,0.24418,0.2586,7.6112,7.4668,8.42,NaN,0,7.6932,23,27
96097,1.6654e+09,0.24046,0.0022559,0.24282,0.2586,7.619,7.5076,7.1,NaN,0,7.72,18,24
96544,1.6655e+09,0.25325,0.0026957,0.24605,0.2586,7.6244,7.5351,7.19,NaN,0,7.7329,13,19
96991,1.6656e+09,0.23828,0.0024972,0.24952,0.2586,7.6276,7.5499,6.9,NaN,0,7.732,9,13
97440,1.6657e+09,0.25285,0.0027094,0.24765,0.2586,7.6285,7.5513,6.89,NaN,0,7.7188,7,8
97849,1.6658e+09,0.26407,0.0030533,0.2569,0.2586,7.6277,7.5416,7.17,NaN,0,7.6934,6,3
98295,1.6659e+09,0.25752,0.0031611,0.26088,0.2586,7.6255,7.5277,7.07,NaN,0,7.6647,6,1
98735,1.666e+09,0.25522,0.0029385,0.2584,0.2586,7.6224,7.5131,7.51,NaN,0,7.6371,7,2
99185,1.6661e+09,0.25776,0.0028297,0.2607,0.2586,7.6188,7.5031,7.48,NaN,0,7.613,7,2
99628,1.6662e+09,0.26248,0.0029891,0.26307,0.2586,7.6149,7.4952,7.83,NaN,0,7.5929,7,4
1.0008e+05,1.6663e+09,0.26921,0.0029004,0.26705,0.2586,7.611,7.4901,7.82,NaN,0,7.5755,7,3
1.0052e+05,1.6664e+09,0.25354,0.0023181,0.26552,0.2586,7.6071,7.486,7.21,NaN,0,7.5591,8,4
1.0093e+05,1.6666e+09,0.25882,0.0019094,0.25958,0.2586,7.6032,7.4861,7.45,NaN,0,7.5494,7,7
1.0137e+05,1.6667e+09,0.24895,0.0015697,0.25373,0.2586,7.5995,7.4846,7.22,NaN,0,7.5383,7,7
1.0182e+05,1.6668e+09,0.23634,0.0013925,0.25269,0.2586,7.5958,7.486,6.97,NaN,0,7.529,7,8
1.0226e+05,1.6669e+09,0.23108,0.00095725,0.24543,0.2586,7.5922,7.4831,6.82,NaN,0,7.5166,7,10
1.0271e+05,1.667e+09,0.21464,0.00026506,0.22989,0.2586,7.5887,7.4837,6.71,NaN,0,7.5059,6,15
1.0312e+05,1.6671e+09,0.22024,6.6951e-05,0.21994,0.2586,7.5852,7.4881,6.63,NaN,0,7.501,6,13
1.0357e+05,1.6672e+09,0.22977,0.00011258,0.22989,0.2586,7.5817,7.4924,6.96,NaN,0,7.4956,5,12
1.0402e+05,1.6673e+09,0.21523,0.00035307,0.22141,0.2586,7.578,7.4968,7.35,NaN,0,7.4905,4,12
1.0446e+05,1.6674e+09,0.20652,0.00044315,0.2177,0.2586,7.5743,7.4995,6.61,NaN,0,7.4825,3,12
1.049e+05,1.6675e+09,0.25204,0.00036168,0.23569,0.2586,7.5704,7.4987,7.14,NaN,0,7.472,2,5
1.0534e+05,1.6676e+09,0.24418,0.00074443,0.24938,0.2586,7.5664,7.4908,7.25,NaN,0,7.4554,3,1
1.0579e+05,1.6677e+09,0.24735,0.0019871,0.24792,0.2586,7.5624,7.4831,6.69,NaN,0,7.4404,3,0
1.062e+05,1.6678e+09,0.2504,0.0029794,0.24854,0.2586,7.5586,7.4663,7.46,NaN,0,7.4169,5,1
1.0665e+05,1.6679e+09,0.24939,0.0035123,0.24967,0.2586,7.5551,7.4557,7.08,NaN,0,7.4009,6,2
1.0709e+05,1.6681e+09,0.24645,0.0035661,0.25304,0.2586,7.5522,7.4416,6.92,NaN,0,7.3821,8,3
1.075e+05,1.6682e+09,0.25396,0.0034686,0.25242,0.2586,7.5499,7.4325,6.85,NaN,0,7.3705,9,4
1.0795e+05,1.6683e+09,0.24845,0.0031319,0.25134,0.2586,7.5483,7.4219,7.02,NaN,0,7.358,11,7
1.0836e+05,1.6684e+09,0.26375,0.0038997,0.26097,0.2586,7.5475,7.4119,6.78,NaN,0,7.3491,13,6
1.0881e+05,1.6685e+09,0.26485,0.0056348,0.26559,0.2586,7.5474,7.401,7.01,NaN,0,7.3384,14,7
1.0925e+05,1.6686e+09,0.25359,0.0071661,0.26392,0.2586,7.5481,7.3932,6.91,NaN,0,7.3342,16,11
1.097e+05,1.6687e+09,0.25663,0.0086872,0.26399,0.2586,7.5497,7.3787,6.69,NaN,0,7.3223,19,12
1.1011e+05,1.6688e+09,0.25457,0.010116,0.26916,0.2586,7.5522,7.3615,6.87,NaN,0,7.3118,22,15
1.1056e+05,1.6689e+09,0.26814,0.010687,0.27375,0.2586,7.5557,7.3476,6.71,NaN,0,7.3054,25,17
1.1097e+05,1.669e+09,0.25878,0.0093546,0.27292,0.2586,7.5602,7.3359,6.82,NaN,0,7.3036,27,21
1.1142e+05,1.6691e+09,0.25854,0.0088692,0.27236,0.2586,7.5658,7.3332,6.53,NaN,0,7.3133,29,22
1.1186e+05,1.6692e+09,0.26189,0.0086139,0.26901,0.2586,7.5724,7.3282,6.41,NaN,0,7.3213,31,27
1.1231e+05,1.6694e+09,0.24814,0.0072613,0.2634,0.2586,7.5803,7.324,6.62,NaN,0,7.3317,33,31
1.1276e+05,1.6695e+09,0.23668,0.0057244,0.25307,0.2586,7.5886,7.321,6.91,NaN,0,7.3441,35,34
1.1316e+05,1.6696e+09,0.24945,0.0048033,0.25162,0.2586,7.5975,7.3288,7.46,NaN,0,7.3673,36,36
1.1361e+05,1.6697e+09,0.2472,0.0040625,0.25521,0.2586,7.6068,7.3475,8.28,NaN,0,7.4038,35,37
1.1406e+05,1.6698e+09,0.2371,0.0037514,0.2532,0.2586,7.6162,7.3791,7.86,NaN,0,7.4534,33,36
1.145e+05,1.6699e+09,0.24215,0.0040224,0.24859,0.2586,7.6252,7.4194,7.72,NaN,0,7.5114,29,35
1.1494e+05,1.67e+09,0.23027,0.0039436,0.24168,0.2586,7.6331,7.4595,7.76,NaN,0,7.5701,24,33
1.1536e+05,1.6701e+09,0.22719,0.0039576,0.23884,0.2586,7.6394,7.4964,8.57,NaN,0,7.6272,20,28
1.158e+05,1.6702e+09,0.22936,0.004149,0.23937,0.2586,7.6439,7.5341,8.38,NaN,0,7.685,14,23
1.1625e+05,1.6703e+09,0.23266,0.0043778,0.23874,0.2586,7.6463,7.5719,8.55,NaN,0,7.7437,8,17
1.167e+05,1.6704e+09,0.23286,0.0043363,0.2357,0.2586,7.6462,7.6035,7.92,NaN,0,7.7962,2,11
1.1714e+05,1.6705e+09,0.23943,0.0043242,0.23565,0.2586,7.6436,7.6287,7.88,NaN,0,7.8439,-2,5
1.1756e+05,1.6707e+09,0.24022,0.004071,0.2396,0.2586,7.6386,7.6407,8.1,NaN,0,7.8775,-6,0
1.18e+05,1.6708e+09,0.24715,0.0035598,0.23904,0.2586,7.6313,7.6479,8.23,NaN,0,7.9072,-10,-5
1.1845e+05,1.6709e+09,0.2298,0.0020272,0.23914,0.2586,7.622,7.6516,8.3,NaN,0,7.9333,-13,-8
1.1889e+05,1.671e+09,0.22801,0.00088677,0.23612,0.2586,7.611,7.6533,8.36,NaN,0,7.9582,-16,-12
1.1934e+05,1.6711e+09,0.23916,0.00058667,0.23338,0.2586,7.5985,7.6527,8.47,NaN,0,7.9809,-19,-15
1.1975e+05,1.6712e+09,0.26197,0.00079221,0.24765,0.2586,7.5857,7.6499,8.61,NaN,0,7.9963,-21,-21
1.2019e+05,1.6713e+09,0.28072,0.0018548,0.27437,0.2586,7.5712,7.6389,7.11,NaN,0,7.9892,-22,-29
1.2064e+05,1.6714e+09,0.29237,0.0024442,0.28285,0.2586,7.5565,7.6173,6.98,NaN,0,7.9714,-22,-33
1.2108e+05,1.6715e+09,0.27813,0.0019553,0.28447,0.2586,7.5413,7.5831,7.03,NaN,0,7.9408,-20,-31
1.2153e+05,1.6716e+09,0.27754,0.0014808,0.27687,0.2586,7.5266,7.544,8,NaN,0,7.9054,-16,-27
1.2194e+05,1.6717e+09,0.26519,0.0011001,0.27063,0.2586,7.5128,7.5128,8.48,NaN,0,7.8777,-13,-22
1.2239e+05,1.6718e+09,0.26019,0.0012416,0.26269,0.2586,7.5004,7.4979,8.33,NaN,0,7.8663,-12,-16
1.2283e+05,1.6719e+09,0.26933,0.0014862,0.26368,0.2586,7.4894,7.4937,8.18,NaN,0,7.8657,-11,-11
1.2327e+05,1.672e+09,0.23429,0.0011276,0.25061,0.2586,7.4795,7.4956,7.9,NaN,0,7.871,-11,-6
1.2372e+05,1.6722e+09,0.23902,0.00099424,0.24364,0.2586,7.4706,7.5026,7.7,NaN,0,7.8814,-12,-5
1.2413e+05,1.6723e+09,0.25963,0.0014233,0.24873,0.2586,7.4624,7.5019,7.88,NaN,0,7.8839,-12,-6
1.2458e+05,1.6724e+09,0.2505,0.0023849,0.25108,0.2586,7.4548,7.4977,7.52,NaN,0,7.8827,-12,-8
1.2502e+05,1.6725e+09,0.2464,0.002607,0.25772,0.2586,7.4477,7.4872,7.28,NaN,0,7.8748,-11,-9
1.2544e+05,1.6726e+09,0.26936,0.0023048,0.25464,0.2586,7.4412,7.4741,7.04,NaN,0,7.8637,-9,-9
1.2589e+05,1.6727e+09,0.2637,0.001662,0.25976,0.2586,7.4355,7.4551,6.85,NaN,0,7.8466,-7,-9
1.2633e+05,1.6728e+09,0.27509,0.0016326,0.26687,0.2586,7.4307,7.4348,5.61,NaN,0,7.8278,-4,-9
1.2678e+05,1.6729e+09,0.26976,0.0019848,0.27315,0.2586,7.4269,7.4124,5.92,NaN,0,7.807,-1,-8
1.2719e+05,1.673e+09,0.27284,0.0023346,0.27474,0.2586,7.4244,7.3894,6.06,NaN,0,7.7854,1,-7
1.2764e+05,1.6731e+09,0.26326,0.0020877,0.27606,0.2586,7.4234,7.37,5.54,NaN,0,7.7671,5,-2
1.2808e+05,1.6732e+09,0.26411,0.0021508,0.26518,0.2586,7.4238,7.3554,5.74,NaN,0,7.7536,8,3
1.2852e+05,1.6733e+09,0.27314,0.0033637,0.27135,0.2586,7.4257,7.3353,5.13,NaN,0,7.7351,11,6
1.2896e+05,1.6734e+09,0.28302,0.0047085,0.27893,0.2586,7.4292,7.2946,4.83,NaN,0,7.6956,18,7
1.2938e+05,1.6736e+09,0.27419,0.0045992,0.27982,0.2586,7.4349,7.244,5.09,NaN,0,7.6466,26,13
1.2983e+05,1.6737e+09,0.27076,0.0038969,0.28126,0.2586,7.4428,7.1891,5.05,NaN,0,7.5932,35,20
1.3027e+05,1.6738e+09,0.29013,0.0033361,0.28234,0.2586,7.4536,7.1443,4.77,NaN,0,7.55,43,28
1.3072e+05,1.6739e+09,0.2876,0.0029939,0.29257,0.2586,7.4676,7.094,5.13,NaN,0,7.5014,53,35
1.3117e+05,1.674e+09,0.27202,0.0025857,0.28767,0.2586,7.4851,7.0631,4.87,NaN,0,7.4726,62,47
1.3158e+05,1.6741e+09,0.27295,0.0026275,0.28101,0.2586,7.5059,7.0384,5.03,NaN,0,7.45,70,57
1.3202e+05,1.6742e+09,0.2648,0.002454,0.27458,0.2586,7.5298,7.0282,5.19,NaN,0,7.4419,76,68
1.3244e+05,1.6743e+09,0.27535,0.0024971,0.27039,0.2586,7.5566,7.0319,5.42,NaN,0,7.448,81,76
1.3288e+05,1.6744e+09,0.27678,0.0027686,0.27573,0.2586,7.5855,7.0483,5.2,NaN,0,7.4665,85,79
1.3333e+05,1.6745e+09,0.30379,0.0048564,0.28712,0.2586,7.6161,7.072,5.01,NaN,0,7.4925,87,79
1.3377e+05,1.6746e+09,0.29885,0.0078597,0.30478,0.2586,7.6476,7.0915,5.4,NaN,0,7.5142,89,79
1.3422e+05,1.6747e+09,0.29027,0.0094362,0.30292,0.2586,7.6795,7.1096,5.52,NaN,0,7.5341,90,81
1.3466e+05,1.6749e+09,0.29435,0.011126,0.30313,0.2586,7.7114,7.1386,5.35,NaN,0,7.5647,90,83
1.3507e+05,1.675e+09,0.28075,0.010806,0.29652,0.2586,7.743,7.1696,5.55,NaN,0,7.5967,90,86
1.3552e+05,1.6751e+09,0.26973,0.0091985,0.2879,0.2586,7.7737,7.2034,5.56,NaN,0,7.631,88,86
1.3593e+05,1.6752e+09,0.2573,0.0072605,0.27514,0.2586,7.8031,7.2459,5.81,NaN,0,7.6741,85,88
1.3638e+05,1.6753e+09,0.26145,0.006685,0.26689,0.2586,7.8309,7.2833,5.66,NaN,0,7.7118,82,87
1.3682e+05,1.6754e+09,0.26278,0.0067341,0.27073,0.2586,7.8565,7.3199,5.92,NaN,0,7.7482,79,83
1.3724e+05,1.6755e+09,0.24649,0.0060433,0.26292,0.2586,7.8799,7.3561,5.69,NaN,0,7.7845,75,81
1.3768e+05,1.6756e+09,0.26012,0.005171,0.26455,0.2586,7.9007,7.3975,6.28,NaN,0,7.8258,70,75
1.3813e+05,1.6757e+09,0.24607,0.0028748,0.2585,0.2586,7.9187,7.4341,6.37,NaN,0,7.8624,65,73
1.3857e+05,1.6758e+09,0.23053,0.0015844,0.23914,0.2586,7.9339,7.4748,7.96,NaN,0,7.903,60,71
1.3902e+05,1.6759e+09,0.24457,0.0015741,0.23725,0.2586,7.946,7.5261,8.41,NaN,0,7.9544,53,65
1.3944e+05,1.676e+09,0.23788,0.0018884,0.2365,0.2586,7.9547,7.5875,8.27,NaN,0,8.0156,44,57
1.3988e+05,1.6761e+09,0.23005,0.0022798,0.23621,0.2586,7.9597,7.6501,8.62,NaN,0,8.0781,34,49
1.4032e+05,1.6763e+09,0.23367,0.0026545,0.23582,0.2586,7.9605,7.7086,7.88,NaN,0,8.1365,23,38
1.4077e+05,1.6764e+09,0.22651,0.0027352,0.23549,0.2586,7.9569,7.7572,6.83,NaN,0,8.1852,13,27
1.4122e+05,1.6765e+09,0.23443,0.0026063,0.23411,0.2586,7.9489,7.7862,7.2,NaN,0,8.2139,5,18
1.4163e+05,1.6766e+09,0.23556,0.0023764,0.23608,0.2586,7.9367,7.803,8.3,NaN,0,8.2306,-1,7
1.4208e+05,1.6767e+09,0.24041,0.0019723,0.24323,0.2586,7.9209,7.8105,8.43,NaN,0,8.2384,-7,0
1.4252e+05,1.6768e+09,0.29088,0.002051,0.26471,0.2586,7.9024,7.8082,7.67,NaN,0,8.2362,-12,-13
1.4297e+05,1.6769e+09,0.25597,0.0011966,0.27722,0.2586,7.8808,7.7941,7.18,NaN,0,8.2222,-15,-20
1.4341e+05,1.677e+09,0.25618,0.00062963,0.25955,0.2586,7.8574,7.7753,7.43,NaN,0,8.2037,-17,-19
1.4386e+05,1.6771e+09,0.25529,0.00086322,0.25534,0.2586,7.8326,7.7547,7.22,NaN,0,8.1837,-18,-19
1.4427e+05,1.6772e+09,0.27771,0.0010271,0.26409,0.2586,7.8071,7.7306,8.18,NaN,0,8.1605,-19,-21
1.4471e+05,1.6773e+09,0.27517,0.0006246,0.27219,0.2586,7.7814,7.7053,7.67,NaN,0,8.1363,-19,-22
1.4516e+05,1.6774e+09,0.26022,0.00026384,0.2691,0.2586,7.756,7.6813,7.87,NaN,0,8.1135,-19,-22
1.4557e+05,1.6775e+09,0.2728,0.00024068,0.27002,0.2586,7.7312,7.6596,7.71,NaN,0,8.0934,-18,-21
1.4601e+05,1.6777e+09,0.27642,0.00026456,0.27417,0.2586,7.7072,7.6392,7.19,NaN,0,8.0745,-17,-20
1.4646e+05,1.6778e+09,0.28709,0.00052634,0.28058,0.2586,7.6843,7.6177,6.97,NaN,0,8.0544,-16,-21
1.4687e+05,1.6779e+09,0.2842,0.00093052,0.28986,0.2586,7.6625,7.5924,6.81,NaN,0,8.0307,-15,-21
1.4731e+05,1.678e+09,0.26721,0.00082514,0.27912,0.2586,7.6422,7.5699,7.05,NaN,0,8.0096,-13,-16
1.4776e+05,1.6781e+09,0.27273,0.00046751,0.27612,0.2586,7.6235,7.5526,7.04,NaN,0,7.994,-11,-14
1.4817e+05,1.6782e+09,0.27318,0.00056022,0.27893,0.2586,7.6063,7.5365,6.83,NaN,0,7.9794,-10,-11
1.4862e+05,1.6783e+09,0.2598,0.0012069,0.26861,0.2586,7.5906,7.5243,6.9,NaN,0,7.9694,-9,-7
1.4906e+05,1.6784e+09,0.26805,0.001552,0.26646,0.2586,7.5765,7.5153,7.41,NaN,0,7.9625,-8,-4
1.495e+05,1.6785e+09,0.27948,0.0016852,0.2731,0.2586,7.5637,7.5083,6.78,NaN,0,7.9579,-7,-5
1.4995e+05,1.6786e+09,0.27468,0.0015471,0.27397,0.2586,7.5522,7.5007,6.68,NaN,0,7.9532,-6,-4
1.5036e+05,1.6787e+09,0.27964,0.001099,0.27494,0.2586,7.5418,7.4929,6.85,NaN,0,7.9484,-5,-4
1.508e+05,1.6788e+09,0.27775,0.00076559,0.27554,0.2586,7.5328,7.4809,6.81,NaN,0,7.9395,-4,-3
1.5125e+05,1.6789e+09,0.2921,0.00066122,0.27932,0.2586,7.5246,7.4644,6.95,NaN,0,7.9261,-1,-3
1.517e+05,1.6791e+09,0.2974,0.0011718,0.29097,0.2586,7.5178,7.4453,6.81,NaN,0,7.9108,0,-4
1.5211e+05,1.6792e+09,0.29149,0.0022254,0.29548,0.2586,7.5121,7.4229,6.92,NaN,0,7.892,3,-3
1.5255e+05,1.6793e+09,0.27553,0.0022272,0.28759,0.2586,7.5078,7.4049,7.16,NaN,0,7.8772,6,1
1.53e+05,1.6794e+09,0.27395,0.0014391,0.27922,0.2586,7.505,7.3917,7.19,NaN,0,7.8671,9,6
1.5341e+05,1.6795e+09,0.27016,0.00062707,0.27536,0.2586,7.5036,7.3867,6.96,NaN,0,7.8654,10,10
1.5385e+05,1.6796e+09,0.27958,0.0003058,0.2762,0.2586,7.5035,7.3872,6.93,NaN,0,7.8689,12,11
1.5427e+05,1.6797e+09,0.28172,0.00023845,0.28028,0.2586,7.5044,7.3879,6.82,NaN,0,7.8726,13,12
1.547e+05,1.6798e+09,0.28771,0.00020444,0.28175,0.2586,7.5062,7.3884,6.96,NaN,0,7.8764,14,12
1.5513e+05,1.6799e+09,0.28695,0.00025114,0.2844,0.2586,7.5086,7.3891,7.26,NaN,0,7.8802,14,13
1.5556e+05,1.68e+09,0.28086,0.00032997,0.28349,0.2586,7.5117,7.3937,7.03,NaN,0,7.8877,15,13
1.5601e+05,1.6801e+09,0.28687,0.00044599,0.28554,0.2586,7.5151,7.3996,7.14,NaN,0,7.8965,15,13
1.5642e+05,1.6802e+09,0.28379,0.00073269,0.28527,0.2586,7.5188,7.4071,7.17,NaN,0,7.907,15,14
1.5687e+05,1.6803e+09,0.28383,0.0010164,0.28508,0.2586,7.5225,7.4152,6.96,NaN,0,7.9177,14,14
1.5728e+05,1.6805e+09,0.28142,0.001101,0.28413,0.2586,7.5262,7.4258,7.18,NaN,0,7.9311,13,13
1.5773e+05,1.6806e+09,0.27798,0.0008218,0.27811,0.2586,7.5297,7.436,6.98,NaN,0,7.9438,12,15
1.5817e+05,1.6807e+09,0.27626,0.00048116,0.27731,0.2586,7.5327,7.4465,7.22,NaN,0,7.9569,11,14
1.5862e+05,1.6808e+09,0.28304,0.00036183,0.27988,0.2586,7.5353,7.4553,6.9,NaN,0,7.9685,10,11
1.5903e+05,1.6809e+09,0.28741,0.0003517,0.28497,0.2586,7.5373,7.4594,7.01,NaN,0,7.9748,9,9
1.5947e+05,1.681e+09,0.28785,0.00045303,0.28609,0.2586,7.5388,7.4604,7.03,NaN,0,7.9783,9,8
1.5992e+05,1.6811e+09,0.28117,0.00052181,0.28452,0.2586,7.5399,7.4622,7.2,NaN,0,7.9829,8,8
1.6033e+05,1.6812e+09,0.28424,0.00061259,0.28216,0.2586,7.5406,7.4655,7.1,NaN,0,7.9887,8,8
1.6078e+05,1.6813e+09,0.27229,0.00060776,0.27955,0.2586,7.5409,7.4693,7.09,NaN,0,7.995,7,8
1.6122e+05,1.6814e+09,0.2737,0.00059041,0.27506,0.2586,7.5409,7.4746,7.27,NaN,0,8.003,6,9
1.6167e+05,1.6815e+09,0.28079,0.00078765,0.27622,0.2586,7.5404,7.4805,7.34,NaN,0,8.0113,5,8
1.6211e+05,1.6816e+09,0.2796,0.00082484,0.28235,0.2586,7.5396,7.4868,7.1,NaN,0,8.0201,4,5
1.6255e+05,1.6817e+09,0.28454,0.00076157,0.28569,0.2586,7.5382,7.489,7.16,NaN,0,8.0252,3,3
1.6299e+05,1.6818e+09,0.27908,0.00057313,0.28267,0.2586,7.5365,7.4902,7.39,NaN,0,8.0289,2,2
1.6344e+05,1.682e+09,0.27895,0.00042459,0.2787,0.2586,7.5344,7.4911,7.13,NaN,0,8.0326,1,3
1.6385e+05,1.6821e+09,0.28205,0.00046262,0.28018,0.2586,7.532,7.4951,7.38,NaN,0,8.0397,0,2
1.6429e+05,1.6822e+09,0.28405,0.00062978,0.28066,0.2586,7.5292,7.4965,7.29,NaN,0,8.0438,0,1
1.6471e+05,1.6823e+09,0.28226,0.00082666,0.28347,0.2586,7.5262,7.5005,7.29,NaN,0,8.0509,0,0
1.6514e+05,1.6824e+09,0.28157,0.00080881,0.28024,0.2586,7.5228,7.503,7.49,NaN,0,8.0563,-1,0
1.6557e+05,1.6825e+09,0.28131,0.00075617,0.2814,0.2586,7.5192,7.5065,7.36,NaN,0,8.0629,-2,-1
1.66e+05,1.6826e+09,0.27157,0.00070393,0.27821,0.2586,7.5152,7.5086,7.49,NaN,0,8.0679,-3,0
1.6644e+05,1.6827e+09,0.27681,0.0008871,0.27532,0.2586,7.511,7.5124,7.42,NaN,0,8.0743,-4,-2
1.6685e+05,1.6828e+09,0.27544,0.0010987,0.27759,0.2586,7.5065,7.5148,7.77,NaN,0,8.0796,-5,-3
1.6729e+05,1.6829e+09,0.28193,0.0012169,0.27934,0.2586,7.5017,7.5172,7.52,NaN,0,8.0847,-6,-4
1.6774e+05,1.683e+09,0.27822,0.0011445,0.28102,0.2586,7.4967,7.5183,7.52,NaN,0,8.0885,-7,-7
1.6819e+05,1.6831e+09,0.2828,0.0010142,0.2807,0.2586,7.4914,7.5164,7.47,NaN,0,8.0891,-8,-8
1.686e+05,1.6832e+09,0.28058,0.0009234,0.28071,0.2586,7.4859,7.5146,7.66,NaN,0,8.09,-8,-8
1.6905e+05,1.6833e+09,0.28549,0.0011679,0.28445,0.2586,7.4803,7.5107,7.79,NaN,0,8.0888,-8,-9
1.6946e+05,1.6835e+09,0.28877,0.0013694,0.2863,0.2586,7.4747,7.5092,7.62,NaN,0,8.0897,-9,-9
1.6987e+05,1.6836e+09,0.27793,0.0013377,0.28656,0.2586,7.469,7.506,7.64,NaN,0,8.089,-9,-9
1.7031e+05,1.6837e+09,0.27095,0.0013887,0.28074,0.2586,7.4635,7.5049,7.45,NaN,0,8.0902,-9,-8
1.7075e+05,1.6838e+09,0.27357,0.001421,0.27512,0.2586,7.458,7.5037,7.32,NaN,0,8.0915,-10,-6
1.7117e+05,1.6839e+09,0.27463,0.0011995,0.27759,0.2586,7.4525,7.5016,7.48,NaN,0,8.0918,-10,-8
1.7162e+05,1.684e+09,0.26041,0.00086686,0.27148,0.2586,7.4472,7.5,7.34,NaN,0,8.0927,-10,-6
1.7206e+05,1.6841e+09,0.26233,0.00067204,0.26384,0.2586,7.442,7.4994,7.4,NaN,0,8.0943,-11,-5
1.725e+05,1.6842e+09,0.27232,0.00047836,0.26856,0.2586,7.4368,7.5014,7.56,NaN,0,8.0987,-11,-6
1.7294e+05,1.6843e+09,0.2735,0.00042403,0.27057,0.2586,7.4317,7.4997,7.49,NaN,0,8.0993,-12,-7
1.7339e+05,1.6844e+09,0.26824,0.00045496,0.26919,0.2586,7.4267,7.4984,7.73,NaN,0,8.1,-12,-9
1.7384e+05,1.6845e+09,0.26486,0.00050509,0.26755,0.2586,7.4217,7.4946,7.55,NaN,0,8.0986,-12,-8
1.7423e+05,1.6846e+09,0.25323,0.00073579,0.26272,0.2586,7.4169,7.494,7.39,NaN,0,8.1004,-12,-8
1.7465e+05,1.6848e+09,0.26461,0.0011267,0.25913,0.2586,7.4122,7.4909,7.63,NaN,0,8.0995,-12,-7
1.7506e+05,1.6849e+09,0.26267,0.0012359,0.26216,0.2586,7.4076,7.4874,7.46,NaN,0,8.098,-12,-9
1.7551e+05,1.685e+09,0.26055,0.0012755,0.26194,0.2586,7.4032,7.4815,7.8,NaN,0,8.0945,-12,-9
1.7596e+05,1.6851e+09,0.27219,0.001369,0.26544,0.2586,7.3991,7.4763,7.61,NaN,0,8.0912,-11,-11
1.764e+05,1.6852e+09,0.25869,0.0012029,0.26463,0.2586,7.3952,7.4692,7.58,NaN,0,8.0865,-11,-10
1.7684e+05,1.6853e+09,0.26042,0.0011467,0.26214,0.2586,7.3917,7.4633,7.56,NaN,0,8.0822,-10,-9
1.7729e+05,1.6854e+09,0.25655,0.0011151,0.25838,0.2586,7.3886,7.4568,7.43,NaN,0,8.0779,-9,-7
1.7774e+05,1.6855e+09,0.2602,0.0010337,0.25718,0.2586,7.3859,7.4511,7.31,NaN,0,8.074,-9,-7
1.7818e+05,1.6856e+09,0.27655,0.0013551,0.26474,0.2586,7.3836,7.4449,7.39,NaN,0,8.0695,-8,-7
1.7859e+05,1.6857e+09,0.27391,0.0023973,0.26962,0.2586,7.3819,7.4377,7.27,NaN,0,8.064,-7,-8
1.7903e+05,1.6858e+09,0.26213,0.0044152,0.26997,0.2586,7.3806,7.4315,7.36,NaN,0,8.0594,-6,-7
1.7948e+05,1.6859e+09,0.2621,0.0057872,0.26882,0.2586,7.3799,7.4263,7.21,NaN,0,8.0552,-5,-6
1.7989e+05,1.686e+09,0.25813,0.0056076,0.26613,0.2586,7.3796,7.4237,7.11,NaN,0,8.0537,-4,-4
1.8033e+05,1.6861e+09,0.25997,0.004262,0.26017,0.2586,7.3799,7.4202,7.11,NaN,0,8.0511,-3,-2
1.8077e+05,1.6863e+09,0.26501,0.0032438,0.26288,0.2586,7.3806,7.4145,7.31,NaN,0,8.0465,-2,-2
1.8119e+05,1.6864e+09,0.27902,0.0028704,0.27399,0.2586,7.3817,7.406,7.36,NaN,0,8.0385,0,-5
1.8161e+05,1.6865e+09,0.27796,0.0027624,0.28151,0.2586,7.3834,7.3997,7.26,NaN,0,8.0331,0,-4
1.8204e+05,1.6866e+09,0.27629,0.0025562,0.27935,0.2586,7.3856,7.3929,7.7,NaN,0,8.0267,1,-3
1.8245e+05,1.6867e+09,0.28239,0.0021838,0.27906,0.2586,7.3883,7.3906,7.56,NaN,0,8.0246,2,-1
1.829e+05,1.6868e+09,0.27681,0.0018723,0.27864,0.2586,7.3916,7.3941,7.38,NaN,0,8.0282,3,0
1.8334e+05,1.6869e+09,0.27769,0.0017066,0.27987,0.2586,7.3952,7.3994,7.41,NaN,0,8.0335,3,0
1.8375e+05,1.687e+09,0.28609,0.001776,0.28337,0.2586,7.3989,7.4046,7.24,NaN,0,8.0385,3,0
1.842e+05,1.6871e+09,0.28895,0.0016841,0.2862,0.2586,7.4028,7.4069,7.5,NaN,0,8.0404,3,0
1.8464e+05,1.6872e+09,0.26449,0.0012497,0.28125,0.2586,7.4067,7.4116,7.51,NaN,0,8.0451,3,1
1.8508e+05,1.6873e+09,0.26377,0.00084266,0.27095,0.2586,7.4106,7.4217,6.9,NaN,0,8.055,2,5
1.855e+05,1.6874e+09,0.25617,0.00077599,0.26363,0.2586,7.4143,7.4291,7.36,NaN,0,8.0624,2,5
1.8594e+05,1.6875e+09,0.26066,0.00097853,0.26087,0.2586,7.4177,7.4353,7.27,NaN,0,8.0686,1,5
1.8635e+05,1.6877e+09,0.26333,0.0011246,0.26524,0.2586,7.4207,7.4414,7.3,NaN,0,8.0747,0,4
1.868e+05,1.6878e+09,0.26212,0.0011808,0.26537,0.2586,7.4234,7.4449,7.37,NaN,0,8.0782,0,2
1.8721e+05,1.6879e+09,0.26364,0.0012314,0.26455,0.2586,7.4256,7.451,7.4,NaN,0,8.0843,0,2
1.8766e+05,1.688e+09,0.25666,0.0012037,0.26268,0.2586,7.4275,7.4551,7.49,NaN,0,8.0886,-1,2
1.8808e+05,1.6881e+09,0.26189,0.0012318,0.26121,0.2586,7.429,7.4605,7.43,NaN,0,8.094,-1,1
1.8848e+05,1.6882e+09,0.24951,0.0011388,0.25784,0.2586,7.43,7.4651,7.46,NaN,0,8.0988,-2,0
1.8892e+05,1.6883e+09,0.25766,0.0012157,0.25648,0.2586,7.4306,7.4692,7.43,NaN,0,8.1031,-3,0
1.8933e+05,1.6884e+09,0.25572,0.0012234,0.25665,0.2586,7.4308,7.4728,7.37,NaN,0,8.1069,-4,0
1.8978e+05,1.6885e+09,0.25535,0.0011179,0.25443,0.2586,7.4305,7.4758,7.52,NaN,0,8.11,-4,-1
1.9018e+05,1.6886e+09,0.25774,0.0010381,0.25753,0.2586,7.4299,7.4786,7.64,NaN,0,8.1129,-5,-2
1.9063e+05,1.6887e+09,0.2548,0.0010336,0.25877,0.2586,7.429,7.48,7.66,NaN,0,8.1144,-6,-4
1.9108e+05,1.6888e+09,0.26891,0.0012001,0.26454,0.2586,7.4277,7.4813,7.62,NaN,0,8.1159,-6,-7
1.9152e+05,1.6889e+09,0.27522,0.0013118,0.27401,0.2586,7.4261,7.4779,7.64,NaN,0,8.1124,-6,-9
1.9197e+05,1.689e+09,0.2709,0.0010647,0.27343,0.2586,7.4243,7.4737,7.77,NaN,0,8.1079,-6,-9
1.9241e+05,1.6892e+09,0.26185,0.00090659,0.27182,0.2586,7.4225,7.4698,7.42,NaN,0,8.1036,-6,-8
1.9282e+05,1.6893e+09,0.28285,0.00097626,0.27166,0.2586,7.4206,7.4665,7.83,NaN,0,8.1002,-6,-8
1.9326e+05,1.6894e+09,0.25894,0.00089374,0.26869,0.2586,7.4188,7.4632,7.82,NaN,0,8.0966,-6,-7
1.9369e+05,1.6895e+09,0.266,0.0010815,0.26277,0.2586,7.4171,7.4636,7.47,NaN,0,8.0969,-6,-4
1.9412e+05,1.6896e+09,0.27089,0.0012984,0.26694,0.2586,7.4155,7.4637,7.74,NaN,0,8.0967,-6,-5
1.9456e+05,1.6897e+09,0.26773,0.0013389,0.26999,0.2586,7.4139,7.4614,7.77,NaN,0,8.0943,-6,-6
1.9498e+05,1.6898e+09,0.268,0.0013383,0.27041,0.2586,7.4124,7.4605,7.83,NaN,0,8.0931,-6,-6
1.9543e+05,1.6899e+09,0.26096,0.0013253,0.26785,0.2586,7.411,7.4601,7.91,NaN,0,8.0925,-6,-6
1.9587e+05,1.69e+09,0.25178,0.0011829,0.26389,0.2586,7.4097,7.4632,8.05,NaN,0,8.0957,-6,-6
1.9631e+05,1.6901e+09,0.26368,0.00090867,0.26037,0.2586,7.4084,7.4668,8.09,NaN,0,8.099,-7,-3
1.9672e+05,1.6902e+09,0.26637,0.00086141,0.26609,0.2586,7.4071,7.471,8.13,NaN,0,8.1031,-7,-5
1.9714e+05,1.6903e+09,0.26411,0.0011401,0.2682,0.2586,7.4057,7.4729,8.26,NaN,0,8.1051,-8,-7
1.9758e+05,1.6905e+09,0.2723,0.001665,0.2737,0.2586,7.4041,7.4756,8.08,NaN,0,8.1083,-8,-9
1.9803e+05,1.6906e+09,0.26835,0.0015964,0.27203,0.2586,7.4023,7.4755,7.97,NaN,0,8.1086,-9,-8
1.9847e+05,1.6907e+09,0.26068,0.0013251,0.26709,0.2586,7.4005,7.478,7.79,NaN,0,8.112,-9,-8
1.9891e+05,1.6908e+09,0.257,0.0011759,0.26483,0.2586,7.3985,7.478,8.08,NaN,0,8.1128,-10,-9
1.9934e+05,1.6909e+09,0.27881,0.0012587,0.26863,0.2586,7.3964,7.4784,7.52,NaN,0,8.1144,-10,-9
1.9974e+05,1.691e+09,0.28096,0.0013054,0.27591,0.2586,7.3942,7.476,7.76,NaN,0,8.1132,-10,-11
2.0019e+05,1.6911e+09,0.27665,0.001233,0.27898,0.2586,7.392,7.4706,7.76,NaN,0,8.1092,-10,-12
2.0063e+05,1.6912e+09,0.27407,0.0010492,0.27927,0.2586,7.3898,7.4654,7.77,NaN,0,8.1056,-9,-11
2.0107e+05,1.6913e+09,0.26649,0.00091964,0.27398,0.2586,7.3877,7.4618,7.62,NaN,0,8.1043,-9,-9
2.0148e+05,1.6914e+09,0.27579,0.00083756,0.27219,0.2586,7.3858,7.459,7.83,NaN,0,8.1034,-9,-8
2.0193e+05,1.6915e+09,0.2659,0.00073859,0.26955,0.2586,7.3841,7.4583,7.76,NaN,0,8.1052,-9,-7
2.0237e+05,1.6916e+09,0.27012,0.00068226,0.26935,0.2586,7.3825,7.462,7.49,NaN,0,8.1113,-9,-8
2.0278e+05,1.6917e+09,0.26744,0.00058243,0.26827,0.2586,7.381,7.4636,7.95,NaN,0,8.1154,-9,-8
2.0319e+05,1.6919e+09,0.26284,0.0005002,0.26398,0.2586,7.3796,7.4694,7.64,NaN,0,8.1242,-10,-6
2.0364e+05,1.692e+09,0.26042,0.0003823,0.26427,0.2586,7.3781,7.4728,7.67,NaN,0,8.1304,-11,-6
2.0408e+05,1.6921e+09,0.26077,0.00038105,0.26209,0.2586,7.3765,7.4792,7.54,NaN,0,8.1397,-12,-8
2.0452e+05,1.6922e+09,0.26366,0.000366,0.26072,0.2586,7.3746,7.4812,7.8,NaN,0,8.1445,-12,-9
2.0491e+05,1.6923e+09,0.25803,0.0003579,0.26096,0.2586,7.3726,7.4811,7.55,NaN,0,8.1474,-13,-9
2.0534e+05,1.6924e+09,0.2687,0.00054562,0.2627,0.2586,7.3705,7.4803,7.55,NaN,0,8.1497,-13,-10
2.0575e+05,1.6925e+09,0.27664,0.0015594,0.26898,0.2586,7.3682,7.4774,7.54,NaN,0,8.1498,-13,-13
2.0619e+05,1.6926e+09,0.27458,0.0027945,0.27293,0.2586,7.3659,7.4705,7.85,NaN,0,8.146,-12,-13
2.0664e+05,1.6927e+09,0.27412,0.0033025,0.27313,0.2586,7.3636,7.4673,7.59,NaN,0,8.1454,-12,-13
2.0708e+05,1.6928e+09,0.27809,0.0032253,0.27716,0.2586,7.3615,7.4628,7.7,NaN,0,8.1436,-12,-14
2.0753e+05,1.6929e+09,0.27513,0.0028357,0.2789,0.2586,7.3595,7.4587,7.38,NaN,0,8.1416,-11,-13
2.0797e+05,1.693e+09,0.26173,0.002011,0.27059,0.2586,7.3577,7.454,7.73,NaN,0,8.1392,-11,-11
2.0841e+05,1.6931e+09,0.25838,0.001622,0.26197,0.2586,7.3562,7.4507,7.74,NaN,0,8.138,-10,-9
2.0885e+05,1.6932e+09,0.27082,0.0015731,0.26586,0.2586,7.3549,7.4453,7.76,NaN,0,8.1345,-10,-9
2.0926e+05,1.6934e+09,0.26401,0.0017615,0.27241,0.2586,7.3539,7.4386,7.83,NaN,0,8.1298,-9,-11
2.0969e+05,1.6935e+09,0.29359,0.0025674,0.28016,0.2586,7.3533,7.4337,7.53,NaN,0,8.1267,-8,-11
2.1008e+05,1.6936e+09,0.28875,0.0037566,0.28803,0.2586,7.353,7.4263,7.44,NaN,0,8.1208,-7,-12
2.1053e+05,1.6937e+09,0.29744,0.0058028,0.29806,0.2586,7.3532,7.4161,7.69,NaN,0,8.1123,-5,-13
2.1094e+05,1.6938e+09,0.29025,0.006489,0.2992,0.2586,7.3539,7.4087,7.6,NaN,0,8.1061,-4,-12
2.1138e+05,1.6939e+09,0.2864,0.0054164,0.29647,0.2586,7.3552,7.4059,7.42,NaN,0,8.1044,-3,-8
2.1183e+05,1.694e+09,0.27775,0.0037957,0.28912,0.2586,7.357,7.4069,7.59,NaN,0,8.1064,-2,-5
2.1227e+05,1.6941e+09,0.27593,0.0029716,0.28365,0.2586,7.3591,7.4113,7.38,NaN,0,8.1115,-2,-3
2.1271e+05,1.6942e+09,0.26553,0.0023956,0.27577,0.2586,7.3616,7.4161,7.61,NaN,0,8.1172,-2,0
2.1312e+05,1.6943e+09,0.26243,0.0018243,0.26542,0.2586,7.3641,7.4237,7.73,NaN,0,8.1255,-3,1
2.1357e+05,1.6944e+09,0.25972,0.001864,0.26194,0.2586,7.3667,7.4359,7.86,NaN,0,8.1385,-4,3
2.1401e+05,1.6945e+09,0.26021,0.0020405,0.26354,0.2586,7.369,7.4491,7.7,NaN,0,8.1527,-5,0
2.1444e+05,1.6946e+09,0.25632,0.0020942,0.26264,0.2586,7.371,7.4651,7.49,NaN,0,8.1694,-7,-1
2.1483e+05,1.6947e+09,0.25644,0.0021953,0.25938,0.2586,7.3723,7.4764,8.05,NaN,0,8.1817,-9,-2
2.1527e+05,1.6949e+09,0.25648,0.0023476,0.26384,0.2586,7.373,7.4885,7.54,NaN,0,8.195,-11,-4
2.1568e+05,1.695e+09,0.25556,0.0021956,0.25972,0.2586,7.3729,7.4939,7.59,NaN,0,8.2015,-12,-7
2.1612e+05,1.6951e+09,0.25444,0.0021349,0.25758,0.2586,7.3721,7.4923,8.56,NaN,0,8.2008,-13,-9
2.1657e+05,1.6952e+09,0.26376,0.0032254,0.2631,0.2586,7.3708,7.4884,8.3,NaN,0,8.1981,-13,-11
2.1698e+05,1.6953e+09,0.25042,0.0047157,0.26572,0.2586,7.3691,7.482,8.5,NaN,0,8.1925,-13,-13
2.1743e+05,1.6954e+09,0.26551,0.0069803,0.26898,0.2586,7.3671,7.4762,7.57,NaN,0,8.1872,-13,-13
2.1787e+05,1.6955e+09,0.26722,0.0072143,0.27398,0.2586,7.3651,7.4667,7.91,NaN,0,8.1783,-12,-13
2.1832e+05,1.6956e+09,0.27408,0.0057577,0.27756,0.2586,7.3632,7.4559,7.37,NaN,0,8.1677,-11,-14
2.1876e+05,1.6957e+09,0.2665,0.0033493,0.27842,0.2586,7.3615,7.4433,7.15,NaN,0,8.1555,-9,-13
2.192e+05,1.6958e+09,0.26286,0.0019909,0.2665,0.2586,7.3602,7.4315,7.3,NaN,0,8.1435,-8,-9
2.1962e+05,1.6959e+09,0.27581,0.0015354,0.27206,0.2586,7.3594,7.4201,6.67,NaN,0,8.1325,-6,-10
2.2006e+05,1.696e+09,0.27499,0.0013337,0.2773,0.2586,7.3593,7.4073,6.89,NaN,0,8.1199,-4,-8
2.205e+05,1.6961e+09,0.28334,0.0014704,0.27901,0.2586,7.3598,7.3912,6.75,NaN,0,8.1046,-2,-7
2.2095e+05,1.6963e+09,0.28131,0.0017526,0.28044,0.2586,7.3613,7.3739,7.03,NaN,0,8.0876,0,-5
2.214e+05,1.6964e+09,0.27412,0.0019983,0.28173,0.2586,7.3637,7.3582,7.28,NaN,0,8.0722,3,-2
2.2181e+05,1.6965e+09,0.27876,0.0020141,0.27917,0.2586,7.3673,7.3456,6.95,NaN,0,8.0598,6,0
2.2224e+05,1.6966e+09,0.2726,0.0016679,0.27706,0.2586,7.3719,7.3383,7.03,NaN,0,8.0526,8,5
2.2267e+05,1.6967e+09,0.26446,0.0015484,0.27464,0.2586,7.3776,7.3358,7.13,NaN,0,8.0504,10,8
2.231e+05,1.6968e+09,0.26833,0.0015951,0.26932,0.2586,7.3842,7.338,7.29,NaN,0,8.0525,11,10
2.2354e+05,1.6969e+09,0.27137,0.0014014,0.27091,0.2586,7.3913,7.3459,7.06,NaN,0,8.0605,12,12
2.2398e+05,1.697e+09,0.25554,0.0012091,0.26642,0.2586,7.3988,7.3566,7.07,NaN,0,8.0712,12,15
2.2439e+05,1.6971e+09,0.2591,0.0012295,0.26512,0.2586,7.4067,7.3679,7.17,NaN,0,8.0823,12,15
2.2483e+05,1.6972e+09,0.26447,0.0012782,0.26514,0.2586,7.4141,7.3796,7.11,NaN,0,8.0936,11,15
2.2528e+05,1.6973e+09,0.25626,0.0012277,0.26346,0.2586,7.4218,7.3898,7.15,NaN,0,8.1034,11,14
2.2572e+05,1.6974e+09,0.25442,0.0010968,0.25909,0.2586,7.4291,7.4022,7.31,NaN,0,8.1147,10,14
2.2616e+05,1.6975e+09,0.25604,0.0010107,0.25533,0.2586,7.436,7.4148,7.3,NaN,0,8.1265,9,14
2.2661e+05,1.6977e+09,0.26615,0.0011246,0.26034,0.2586,7.4422,7.4278,7.9,NaN,0,8.1383,7,10
2.2702e+05,1.6978e+09,0.26485,0.0011498,0.26636,0.2586,7.4479,7.4415,7.57,NaN,0,8.1507,6,7
2.2745e+05,1.6979e+09,0.27517,0.0012021,0.26944,0.2586,7.4526,7.4523,7.28,NaN,0,8.1601,4,4
2.2787e+05,1.698e+09,0.27411,0.0010686,0.27202,0.2586,7.4564,7.4586,7.68,NaN,0,8.1653,3,2
2.2831e+05,1.6981e+09,0.27498,0.0010139,0.27362,0.2586,7.4594,7.4629,7.56,NaN,0,8.1681,2,1
2.2875e+05,1.6982e+09,0.27993,0.0010014,0.27838,0.2586,7.4617,7.4676,7.7,NaN,0,8.1713,1,-1
2.292e+05,1.6983e+09,0.27622,0.00082845,0.28038,0.2586,7.4633,7.473,7.82,NaN,0,8.1752,0,-2
2.2964e+05,1.6984e+09,0.27497,0.00044081,0.27547,0.2586,7.4643,7.4816,8.08,NaN,0,8.1819,-1,-2
2.3009e+05,1.6985e+09,0.25665,0.00026253,0.27014,0.2586,7.4645,7.4945,7.83,NaN,0,8.1931,-3,0
2.3053e+05,1.6986e+09,0.24253,0.00019087,0.25207,0.2586,7.464,7.5069,7.7,NaN,0,8.2035,-5,0
2.3094e+05,1.6987e+09,0.25708,0.00023618,0.25105,0.2586,7.4627,7.5168,7.55,NaN,0,8.2117,-7,0
2.3139e+05,1.6988e+09,0.25591,0.00038207,0.25544,0.2586,7.4605,7.5239,7.93,NaN,0,8.217,-9,-3
2.3184e+05,1.6989e+09,0.24587,0.00055933,0.25522,0.2586,7.4575,7.5271,7.85,NaN,0,8.2183,-10,-6
2.3226e+05,1.6991e+09,0.24494,0.00066711,0.25271,0.2586,7.4538,7.5263,7.84,NaN,0,8.2157,-11,-6
2.3268e+05,1.6992e+09,0.24738,0.00072378,0.25253,0.2586,7.4494,7.5224,7.52,NaN,0,8.2098,-12,-8
2.3312e+05,1.6993e+09,0.24856,0.00081016,0.25387,0.2586,7.4446,7.5165,7.67,NaN,0,8.202,-12,-9
2.3354e+05,1.6994e+09,0.25209,0.00096333,0.25497,0.2586,7.4394,7.508,7.67,NaN,0,8.1913,-12,-10
2.3399e+05,1.6995e+09,0.25469,0.0011429,0.26136,0.2586,7.4343,7.4982,7.81,NaN,0,8.1793,-11,-12
2.3443e+05,1.6996e+09,0.27252,0.0013744,0.26691,0.2586,7.4293,7.4898,7.58,NaN,0,8.1687,-11,-12
2.3487e+05,1.6997e+09,0.25694,0.001332,0.26538,0.2586,7.4245,7.4832,7.69,NaN,0,8.1596,-10,-12
2.3528e+05,1.6998e+09,0.24899,0.0010526,0.25737,0.2586,7.4199,7.4785,7.8,NaN,0,8.1522,-10,-9
2.3573e+05,1.6999e+09,0.25548,0.0010257,0.25262,0.2586,7.4157,7.4779,7.63,NaN,0,8.1489,-10,-7
2.3614e+05,1.7e+09,0.27483,0.0013052,0.25853,0.2586,7.4119,7.4771,7.44,NaN,0,8.1454,-10,-9
2.3659e+05,1.7001e+09,0.27008,0.0012886,0.27329,0.2586,7.4082,7.4694,7.57,NaN,0,8.1347,-9,-11
2.3702e+05,1.7002e+09,0.2486,0.00088736,0.26257,0.2586,7.405,7.4634,7.89,NaN,0,8.1259,-9,-10
2.3744e+05,1.7003e+09,0.25654,0.00075665,0.25468,0.2586,7.402,7.462,7.74,NaN,0,8.1214,-9,-6
2.3785e+05,1.7004e+09,0.24999,0.00077477,0.25507,0.2586,7.3992,7.4662,7.55,NaN,0,8.1221,-9,-7
2.3826e+05,1.7006e+09,0.25732,0.0010119,0.25434,0.2586,7.3967,7.4684,7.48,NaN,0,8.121,-9,-7
2.3871e+05,1.7007e+09,0.2644,0.0012114,0.25766,0.2586,7.3944,7.4668,7.5,NaN,0,8.1162,-9,-7
2.3916e+05,1.7008e+09,0.26494,0.0013089,0.26267,0.2586,7.3921,7.4613,7.46,NaN,0,8.107,-9,-9
2.3961e+05,1.7009e+09,0.26786,0.0013401,0.26756,0.2586,7.39,7.4544,7.48,NaN,0,8.0965,-8,-10
2.4004e+05,1.701e+09,0.25405,0.00098878,0.26308,0.2586,7.3883,7.4468,7.48,NaN,0,8.0851,-7,-9
2.4049e+05,1.7011e+09,0.25229,0.00074941,0.25619,0.2586,7.3869,7.4409,7.62,NaN,0,8.0753,-6,-6
2.4089e+05,1.7012e+09,0.25095,0.00070402,0.25606,0.2586,7.3859,7.4381,7.88,NaN,0,8.0685,-6,-5
2.4131e+05,1.7013e+09,0.263,0.000893,0.25789,0.2586,7.3852,7.4391,7.84,NaN,0,8.0657,-5,-6
2.4175e+05,1.7014e+09,0.25792,0.0008904,0.25902,0.2586,7.3849,7.4424,7.59,NaN,0,8.0651,-5,-5
2.4219e+05,1.7015e+09,0.25872,0.00092155,0.26166,0.2586,7.3847,7.4453,7.57,NaN,0,8.0639,-6,-5
2.4264e+05,1.7016e+09,0.2636,0.0009779,0.26558,0.2586,7.3847,7.4454,7.69,NaN,0,8.0598,-6,-7
2.4305e+05,1.7018e+09,0.25729,0.00090849,0.26344,0.2586,7.3847,7.4455,7.65,NaN,0,8.0427,-5,-5
2.435e+05,1.7019e+09,0.23694,0.00060914,0.24719,0.2586,7.3849,7.4477,8.29,NaN,0,8.0219,-6,-2
2.4394e+05,1.702e+09,0.2493,0.00073816,0.24546,0.2586,7.385,7.4564,7.78,NaN,0,8.0075,-7,0
2.4436e+05,1.7021e+09,0.24607,0.0010755,0.24739,0.2586,7.385,7.4657,7.82,NaN,0,7.9957,-8,-2
2.4479e+05,1.7022e+09,0.2413,0.0012998,0.24478,0.2586,7.3847,7.4711,7.94,NaN,0,7.9789,-9,-3
2.4518e+05,1.7023e+09,0.23551,0.0011442,0.2409,0.2586,7.3842,7.4779,8,NaN,0,7.9626,-10,-4
2.4561e+05,1.7024e+09,0.23251,0.00093681,0.23744,0.2586,7.3832,7.4854,8.05,NaN,0,7.947,-11,-4
2.4605e+05,1.7025e+09,0.23277,0.00071603,0.23246,0.2586,7.3819,7.494,7.77,NaN,0,7.9333,-12,-6
2.4646e+05,1.7026e+09,0.22961,0.00065221,0.23162,0.2586,7.3801,7.499,7.84,NaN,0,7.9161,-14,-6
2.4691e+05,1.7027e+09,0.23285,0.00061335,0.23139,0.2586,7.3778,7.5001,7.4,NaN,0,7.8956,-14,-7
2.4736e+05,1.7028e+09,0.22923,0.00057614,0.23126,0.2586,7.375,7.4954,7.57,NaN,0,7.8688,-15,-11
2.478e+05,1.7029e+09,0.23989,0.00072835,0.23731,0.2586,7.372,7.4867,7.71,NaN,0,7.8389,-14,-12
2.4824e+05,1.703e+09,0.2553,0.0010341,0.24595,0.2586,7.369,7.4747,7.28,NaN,0,7.8055,-13,-15
2.4866e+05,1.7032e+09,0.24957,0.0014065,0.24808,0.2586,7.366,7.459,8.19,NaN,0,7.7693,-12,-15
2.4908e+05,1.7033e+09,0.24351,0.0014196,0.24818,0.2586,7.3635,7.4457,8.01,NaN,0,7.7357,-10,-13
2.4951e+05,1.7034e+09,0.23944,0.0013638,0.24628,0.2586,7.3614,7.4399,7.48,NaN,0,7.7104,-9,-12
2.4995e+05,1.7035e+09,0.26457,0.0015207,0.24825,0.2586,7.3598,7.4339,7.24,NaN,0,7.6849,-8,-10
2.5039e+05,1.7036e+09,0.26984,0.001697,0.26018,0.2586,7.3589,7.4221,7.08,NaN,0,7.6537,-7,-10
2.5083e+05,1.7037e+09,0.26487,0.0018652,0.26646,0.2586,7.3585,7.404,7.11,NaN,0,7.6178,-4,-12
2.5125e+05,1.7038e+09,0.28396,0.0020386,0.27141,0.2586,7.359,7.3837,7.07,NaN,0,7.5796,-1,-11
2.5169e+05,1.7039e+09,0.27905,0.0020328,0.27851,0.2586,7.3605,7.3634,6.99,NaN,0,7.5422,1,-10
2.5214e+05,1.704e+09,0.28404,0.0021307,0.28495,0.2586,7.3631,7.3442,7.25,NaN,0,7.5043,5,-7
2.5258e+05,1.7041e+09,0.28865,0.0020508,0.29046,0.2586,7.367,7.3282,7.46,NaN,0,7.4714,8,-3
2.5302e+05,1.7042e+09,0.28875,0.0025002,0.29011,0.2586,7.3721,7.3185,6.87,NaN,0,7.4445,11,0
2.5347e+05,1.7043e+09,0.29578,0.0046548,0.29402,0.2586,7.3786,7.3132,7.3,NaN,0,7.4238,13,2
2.5388e+05,1.7044e+09,0.30373,0.0079064,0.30401,0.2586,7.386,7.3082,7.31,NaN,0,7.4042,16,4
2.5432e+05,1.7045e+09,0.27267,0.0089117,0.29662,0.2586,7.3948,7.3097,7.54,NaN,0,7.3918,18,11
2.5476e+05,1.7047e+09,0.24714,0.0071557,0.2737,0.2586,7.4042,7.3221,7.72,NaN,0,7.3947,18,19
2.5521e+05,1.7048e+09,0.2283,0.0050125,0.24939,0.2586,7.4141,7.3477,7.78,NaN,0,7.4116,17,26
2.5565e+05,1.7049e+09,0.20303,0.0031088,0.22165,0.2586,7.4239,7.3843,7.11,NaN,0,7.4421,14,31
2.5609e+05,1.705e+09,0.21452,0.0017388,0.21701,0.2586,7.4332,7.42,7.18,NaN,0,7.4726,10,27
2.5654e+05,1.7051e+09,0.23667,0.0015371,0.22875,0.2586,7.4413,7.4455,7.32,NaN,0,7.4944,7,21
2.5695e+05,1.7052e+09,0.23739,0.0017154,0.23318,0.2586,7.4481,7.4618,7.43,NaN,0,7.5065,5,15
2.5739e+05,1.7053e+09,0.23125,0.0018478,0.23614,0.2586,7.4535,7.4716,7.37,NaN,0,7.5128,3,8
2.578e+05,1.7054e+09,0.24835,0.0019037,0.24273,0.2586,7.4576,7.4759,7.53,NaN,0,7.5144,1,5
2.5823e+05,1.7055e+09,0.24762,0.0018296,0.24518,0.2586,7.4606,7.4774,7.25,NaN,0,7.5124,0,2
2.5866e+05,1.7056e+09,0.25571,0.0016184,0.24879,0.2586,7.4627,7.4742,7.51,NaN,0,7.5059,0,-2
2.591e+05,1.7057e+09,0.24931,0.0014453,0.25337,0.2586,7.464,7.4686,7.66,NaN,0,7.4974,0,-2
2.5955e+05,1.7058e+09,0.24631,0.0015154,0.25413,0.2586,7.4647,7.4654,7.65,NaN,0,7.4908,0,-2
2.5997e+05,1.7059e+09,0.26334,0.0016493,0.25414,0.2586,7.4651,7.4646,7.52,NaN,0,7.4856,0,-2
2.6041e+05,1.7061e+09,0.24383,0.0015446,0.25198,0.2586,7.4651,7.4629,7.59,NaN,0,7.4822,0,-1
2.6085e+05,1.7062e+09,0.23684,0.0015906,0.2451,0.2586,7.465,7.4631,7.49,NaN,0,7.4795,0,0
2.6124e+05,1.7063e+09,0.24202,0.0017392,0.24315,0.2586,7.4646,7.4617,7.45,NaN,0,7.4754,0,0
2.6166e+05,1.7064e+09,0.24446,0.0015653,0.24383,0.2586,7.4642,7.4607,7.48,NaN,0,7.4727,0,1
2.6211e+05,1.7065e+09,0.21977,0.0013386,0.23966,0.2586,7.4636,7.4601,7.36,NaN,0,7.4711,0,2
2.6252e+05,1.7066e+09,0.24326,0.0012656,0.2372,0.2586,7.463,7.4608,7.4,NaN,0,7.472,0,3
2.6296e+05,1.7067e+09,0.24883,0.0013677,0.242,0.2586,7.4623,7.4606,7.63,NaN,0,7.471,0,0
2.6341e+05,1.7068e+09,0.2524,0.0017261,0.25191,0.2586,7.4615,7.4576,7.33,NaN,0,7.4679,0,-3
2.6385e+05,1.7069e+09,0.26065,0.0017341,0.2608,0.2586,7.4608,7.45,7.93,NaN,0,7.4604,0,-4
2.6426e+05,1.707e+09,0.27188,0.0016837,0.26618,0.2586,7.4602,7.4419,7.75,NaN,0,7.4504,1,-5
2.6471e+05,1.7071e+09,0.30024,0.0017232,0.28075,0.2586,7.4598,7.433,7.63,NaN,0,7.4415,2,-7
2.6515e+05,1.7072e+09,0.29777,0.0025194,0.29546,0.2586,7.4598,7.4209,7.16,NaN,0,7.4284,4,-9
2.656e+05,1.7073e+09,0.28753,0.0042327,0.29464,0.2586,7.4602,7.4079,7.51,NaN,0,7.4131,6,-6
2.6601e+05,1.7074e+09,0.29172,0.0059441,0.29455,0.2586,7.4613,7.3954,7.12,NaN,0,7.3977,8,-2
2.6645e+05,1.7076e+09,0.28717,0.0062996,0.2939,0.2586,7.4631,7.3868,7.03,NaN,0,7.3874,9,0
2.6689e+05,1.7077e+09,0.28391,0.0057696,0.28875,0.2586,7.4656,7.3791,7.23,NaN,0,7.3778,11,4
2.6734e+05,1.7078e+09,0.27336,0.0050483,0.28381,0.2586,7.4689,7.376,7.03,NaN,0,7.3718,13,7
2.6778e+05,1.7079e+09,0.29552,0.0055717,0.28486,0.2586,7.4729,7.3748,6.51,NaN,0,7.3685,14,10
2.6822e+05,1.708e+09,0.28517,0.0064129,0.29533,0.2586,7.4773,7.3694,6.54,NaN,0,7.3597,15,8
2.6865e+05,1.7081e+09,0.28251,0.0065569,0.29102,0.2586,7.4823,7.3608,6.56,NaN,0,7.3494,17,12
2.6905e+05,1.7082e+09,0.29104,0.006344,0.29009,0.2586,7.488,7.3506,6.68,NaN,0,7.3371,19,14
2.6949e+05,1.7083e+09,0.28826,0.0058793,0.29269,0.2586,7.4942,7.3385,6.56,NaN,0,7.323,22,16
2.699e+05,1.7084e+09,0.28851,0.005671,0.29228,0.2586,7.5012,7.3303,6.66,NaN,0,7.3121,24,19
2.7034e+05,1.7085e+09,0.28893,0.005734,0.29241,0.2586,7.5089,7.3261,6.47,NaN,0,7.3071,26,20
2.7079e+05,1.7086e+09,0.28944,0.0058964,0.29347,0.2586,7.5173,7.3244,6.39,NaN,0,7.3027,28,23
2.712e+05,1.7087e+09,0.28391,0.0057531,0.29383,0.2586,7.5263,7.3256,6.4,NaN,0,7.3018,29,25
2.7164e+05,1.7088e+09,0.28723,0.0056959,0.29109,0.2586,7.5358,7.3255,6.27,NaN,0,7.3011,31,27
2.7209e+05,1.709e+09,0.27924,0.005693,0.28822,0.2586,7.5457,7.3249,6.39,NaN,0,7.2978,32,30
2.7253e+05,1.7091e+09,0.27479,0.0054801,0.28244,0.2586,7.556,7.3284,6.39,NaN,0,7.3022,33,32
2.7297e+05,1.7092e+09,0.27571,0.0053695,0.2823,0.2586,7.5664,7.3379,6.37,NaN,0,7.3105,33,33
2.7337e+05,1.7093e+09,0.27831,0.0053873,0.28392,0.2586,7.5769,7.3422,6.35,NaN,0,7.3129,34,33
2.7379e+05,1.7094e+09,0.28487,0.0058074,0.28641,0.2586,7.5873,7.3503,6.44,NaN,0,7.3214,34,33
2.742e+05,1.7095e+09,0.2789,0.0059507,0.28733,0.2586,7.5976,7.3512,6.41,NaN,0,7.3216,35,33
2.7464e+05,1.7096e+09,0.28164,0.0061342,0.28598,0.2586,7.6075,7.3556,6.3,NaN,0,7.3245,35,33
2.7509e+05,1.7097e+09,0.2823,0.0059146,0.28597,0.2586,7.6174,7.3584,6.52,NaN,0,7.3263,36,34
2.7553e+05,1.7098e+09,0.28364,0.0056408,0.28742,0.2586,7.6268,7.3667,6.18,NaN,0,7.3336,36,34
2.7598e+05,1.7099e+09,0.28501,0.0053903,0.28939,0.2586,7.6361,7.3722,6.3,NaN,0,7.3388,36,33
2.7642e+05,1.71e+09,0.30006,0.0062315,0.29693,0.2586,7.6451,7.3763,6.35,NaN,0,7.3418,36,31
2.7686e+05,1.7101e+09,0.29002,0.0066466,0.30235,0.2586,7.6538,7.3778,6.08,NaN,0,7.3412,36,30
2.773e+05,1.7102e+09,0.26921,0.0062519,0.29164,0.2586,7.662,7.3807,6.44,NaN,0,7.3427,36,34
2.7775e+05,1.7104e+09,0.28014,0.0063807,0.28381,0.2586,7.67,7.387,6.47,NaN,0,7.3468,36,37
2.782e+05,1.7105e+09,0.27932,0.0066972,0.2878,0.2586,7.6777,7.3935,6.69,NaN,0,7.351,36,35
2.7861e+05,1.7106e+09,0.29466,0.0077486,0.29551,0.2586,7.685,7.4013,6.02,NaN,0,7.3562,35,33
2.7903e+05,1.7107e+09,0.29341,0.0081949,0.30093,0.2586,7.6918,7.4051,6.35,NaN,0,7.3566,35,33
2.7946e+05,1.7108e+09,0.26825,0.0072888,0.291,0.2586,7.6984,7.4069,6.28,NaN,0,7.3572,35,35
2.799e+05,1.7109e+09,0.27584,0.007019,0.28134,0.2586,7.7044,7.4124,6.5,NaN,0,7.3598,35,36
2.8034e+05,1.711e+09,0.28218,0.0071243,0.28789,0.2586,7.7099,7.4232,6.37,NaN,0,7.3668,34,34
2.8076e+05,1.7111e+09,0.27343,0.0068488,0.282,0.2586,7.7149,7.4296,6.74,NaN,0,7.3719,33,35
2.812e+05,1.7112e+09,0.30127,0.0080905,0.28729,0.2586,7.7193,7.4399,6.35,NaN,0,7.3799,32,33
2.8162e+05,1.7113e+09,0.28211,0.0075426,0.29246,0.2586,7.7232,7.4459,6.34,NaN,0,7.3829,31,31
2.8202e+05,1.7114e+09,0.25217,0.0062776,0.27758,0.2586,7.7263,7.4476,6.47,NaN,0,7.3811,31,34
2.8247e+05,1.7115e+09,0.27448,0.0067106,0.27588,0.2586,7.729,7.4544,6.66,NaN,0,7.3854,30,32
2.8291e+05,1.7116e+09,0.30149,0.0077332,0.29425,0.2586,7.7312,7.4585,7.24,NaN,0,7.3867,29,27
2.8336e+05,1.7117e+09,0.30002,0.0081622,0.30556,0.2586,7.7328,7.4627,7.17,NaN,0,7.3873,28,23
2.8377e+05,1.7119e+09,0.28348,0.0072031,0.2995,0.2586,7.734,7.4749,7.6,NaN,0,7.3966,26,25
2.8421e+05,1.712e+09,0.26992,0.0057577,0.28258,0.2586,7.7345,7.4943,7.48,NaN,0,7.4121,24,26
2.8464e+05,1.7121e+09,0.28433,0.0057754,0.27776,0.2586,7.7342,7.5157,7.34,NaN,0,7.4304,20,25
2.8503e+05,1.7122e+09,0.2775,0.0058485,0.28216,0.2586,7.7328,7.5359,7.2,NaN,0,7.4465,17,21
2.8548e+05,1.7123e+09,0.25034,0.0048374,0.26925,0.2586,7.7303,7.5524,7.12,NaN,0,7.4606,14,21
2.8589e+05,1.7124e+09,0.25423,0.0048852,0.25736,0.2586,7.7265,7.5681,6.89,NaN,0,7.4712,11,21
2.8633e+05,1.7125e+09,0.27,0.0057777,0.26822,0.2586,7.7214,7.5769,6.98,NaN,0,7.4757,8,13
2.8678e+05,1.7126e+09,0.25695,0.005644,0.26964,0.2586,7.7153,7.5769,7.29,NaN,0,7.473,6,13
2.8722e+05,1.7127e+09,0.22989,0.0037819,0.25216,0.2586,7.7081,7.5766,7.35,NaN,0,7.4675,5,12
2.8766e+05,1.7128e+09,0.24218,0.0016902,0.24496,0.2586,7.7002,7.5791,7.38,NaN,0,7.4674,3,12
2.8811e+05,1.7129e+09,0.23093,0.00073195,0.24144,0.2586,7.6914,7.5807,8.08,NaN,0,7.4648,1,11
2.8852e+05,1.713e+09,0.22509,0.00055675,0.23295,0.2586,7.682,7.5895,9.16,NaN,0,7.4704,-1,9
2.8896e+05,1.7131e+09,0.21691,0.0021662,0.23307,0.2586,7.6718,7.6126,9.14,NaN,0,7.4901,-5,9
2.8941e+05,1.7133e+09,0.19537,0.0048142,0.21708,0.2586,7.6608,7.6463,9.11,NaN,0,7.5217,-10,9
2.8985e+05,1.7134e+09,0.22964,0.0072498,0.22018,0.2586,7.6484,7.6844,8.07,NaN,0,7.5584,-17,2
2.9026e+05,1.7135e+09,0.22367,0.0059877,0.22775,0.2586,7.6343,7.7077,8.48,NaN,0,7.5801,-23,-6
2.907e+05,1.7136e+09,0.21944,0.004197,0.23107,0.2586,7.6184,7.7189,8.73,NaN,0,7.5889,-27,-15
2.9112e+05,1.7137e+09,0.22465,0.002941,0.23356,0.2586,7.6009,7.7243,8.14,NaN,0,7.5942,-31,-22
2.9155e+05,1.7138e+09,0.22226,0.0017341,0.23172,0.2586,7.5819,7.7206,8.26,NaN,0,7.591,-34,-27
2.9199e+05,1.7139e+09,0.25886,0.00062525,0.23841,0.2586,7.5617,7.7041,7.9,NaN,0,7.5745,-35,-32
2.9241e+05,1.714e+09,0.25268,0.00057489,0.25016,0.2586,7.5409,7.6789,8.15,NaN,0,7.5488,-35,-37
