LineNo,TimeUS,Instance,RPM,RawRPM,Volt,Curr,Temp,CTot,MotTemp,Err
2147,1642421312,4,0,0,16.61,0.03,29,0,0,0
2583,1642526618,4,0,0,16.61,0.03,29,0,0,0
3038,1642637407,4,0,0,16.61,0.04,29,0,0,0
3493,1642738606,4,0,0,16.61,0.04,29,0,0,0
3944,1642845403,4,0,0,16.61,0.04,29,0,0,0
4435,1642962007,4,0,0,16.61,0.03,29,0,0,0
4869,1643064800,4,0,0,16.61,0.03,29,0,0,0
5301,1643168256,4,0,0,16.61,0.04,29,0,0,0
5796,1643282637,4,0,0,16.61,0.03,29,0,0,0
6251,1643388168,4,12,200,16.6,0.03,29,0,0,0
6704,1643494329,4,210,457,16.6,0.07000000000000001,29,0,0,0
7152,1643605360,4,485,885,16.6,0.13,29,0,0,0
7627,1643717327,4,911,1214,16.6,0.14,29,0,0,0
8081,1643824671,4,1220,1285,16.6,0.12,29,0,0,0
8535,1643926803,4,1286,1328,16.6,0.11,29,0,0,0
8982,1644031717,4,1328,1342,16.6,0.11,29,0,0,0
9482,1644144290,4,1343,1357,16.6,0.11,29,0,0,0
9916,1644251297,4,1357,1357,16.61,0.11,29,0,0,0
10396,1644368617,4,1357,1357,16.6,0.11,29,0,0,0
10849,1644471837,4,1357,1357,16.6,0.11,29,0,0,0
11300,1644577147,4,1357,1371,16.59,0.11,29,0,0,0
11758,1644683700,4,1371,1371,16.6,0.11,29,0,0,0
12244,1644797268,4,1371,1371,16.6,0.11,29,0,0,0
12678,1644902484,4,1370,1357,16.59,0.11,29,0,0,0
13086,1645005921,4,1357,1357,16.6,0.11,29,0,0,0
13819,1645226059,4,1357,1357,16.6,0.11,29,0,0,0
14277,1645331658,4,1357,1371,16.61,0.11,29,0,0,0
15190,1645550279,4,1371,1371,16.6,0.11,29,0,0,0
16089,1645758201,4,1370,1357,16.6,0.11,29,0,0,0
16551,1645865962,4,1357,1357,16.59,0.11,29,0,0,0
17041,1645980562,4,1357,1357,16.6,0.11,29,0,0,0
17476,1646087103,4,1357,1357,16.6,0.11,29,0,0,0
17917,1646192558,4,1357,1357,16.6,0.11,29,0,0,0
18345,1646299654,4,1357,1357,16.6,0.11,29,0,0,0
18797,1646406956,4,1357,1357,16.58,0.11,29,0,0,0
19298,1646519526,4,1358,1371,16.6,0.11,29,0,0,0
19695,1646618120,4,1371,1371,16.6,0.11,29,0,0,0
20177,1646731961,4,1371,1371,16.6,0.11,29,0,0,0
20623,1646837288,4,1370,1357,16.59,0.11,29,0,0,0
21081,1646942244,4,1357,1371,16.6,0.11,29,0,0,0
21542,1647055391,4,1369,1357,16.59,0.11,29,0,0,0
21994,1647160569,4,1357,1357,16.58,0.11,29,0,0,0
22471,1647276571,4,1357,1357,16.6,0.11,29,0,0,0
22908,1647380201,4,1357,1357,16.6,0.11,29,0,0,0
23364,1647486175,4,1357,1371,16.6,0.11,29,0,0,0
23857,1647601713,4,1373,1400,16.58,0.14,29,0,0,0
24310,1647707162,4,1421,1685,16.56,0.28,29,0,0,0
24759,1647815264,4,1712,2300,16.52,0.52,30,0,0,0
25239,1647930603,4,2302,2342,16.52,0.45,29,0,0,0
25639,1648025905,4,2342,2342,16.54,0.34,29,0,0,0
26136,1648140520,4,2345,2442,16.53,0.5600000000000001,29,0,0,0
26627,1648254726,4,2464,2785,16.52,0.93,30,0,0,0
27082,1648363640,4,2818,3214,16.36,1.34,30,0,0,0
27514,1648470943,4,3234,3742,16.1,2.28,30,0,0,0
28407,1648691702,4,3792,4828,16.08,2.48,30,0,0,0
28863,1648801327,4,4873,5500,15.95,3.74,30,0,0,0
29319,1648909107,4,5519,5914,15.98,3.46,30,1,0,0
29760,1649019382,4,5911,5857,16.13,3.09,30,1,0,0
30235,1649133127,4,5846,5728,16.14,2.67,30,1,0,0
30686,1649242161,4,5719,5600,16.17,2.75,30,1,0,0
31138,1649348707,4,5591,5428,16.1,2.17,30,1,0,0
31593,1649459489,4,5411,5200,16.1,2.12,30,1,0,0
32087,1649578136,4,5182,4985,16.03,1.77,30,1,0,0
32539,1649683784,4,4973,4828,16.1,1.57,30,1,0,0
32989,1649793337,4,4821,4757,16.05,1.86,30,1,0,0
33423,1649897235,4,4757,4757,16.04,2.13,30,1,0,0
33900,1650009909,4,4780,5100,16.1,2.61,30,1,0,0
34354,1650113787,4,5116,5471,16.14,2.72,30,1,0,0
34847,1650231095,4,5467,5414,16.11,2.74,30,1,0,0
35299,1650335334,4,5419,5542,16.03,2.63,30,1,0,0
35736,1650445078,4,5535,5442,16.07,2.83,30,2,0,0
36211,1650564303,4,5470,5671,16.05,2.95,30,2,0,0
36620,1650662559,4,5657,5500,16.09,2.63,30,2,0,0
37118,1650782548,4,5518,5714,15.98,3.03,30,2,0,0
37529,1650878553,4,5717,5785,15.98,2.86,30,2,0,0
37982,1650991372,4,5757,5500,16.03,2.41,30,2,0,0
38437,1651098152,4,5497,5457,15.95,2.67,30,2,0,0
38841,1651197407,4,5457,5471,16.03,2.54,30,2,0,0
39316,1651312330,4,5464,5314,16.02,2.43,30,2,0,0
39797,1651424625,4,5321,5400,15.94,2.84,30,2,0,0
40703,1651639786,4,5403,5500,16.01,2.53,30,2,0,0
41158,1651747324,4,5508,5671,16.02,2.59,30,3,0,0
41611,1651858483,4,5660,5514,16.01,2.7,30,3,0,0
42103,1651978787,4,5505,5414,16.07,2.38,30,3,0,0
42962,1652198533,4,5408,5285,16.06,2.49,30,3,0,0
43414,1652307971,4,5309,5571,16.04,2.99,30,3,0,0
43813,1652409971,4,5571,5571,16.08,2.75,30,3,0,0
44264,1652521568,4,5572,5671,15.98,2.83,30,3,0,0
44703,1652628491,4,5671,5671,15.96,2.81,30,3,0,0
45151,1652737163,4,5664,5571,15.97,2.86,30,3,0,0
45589,1652844108,4,5572,5628,16.09,2.57,30,3,0,0
46042,1652955120,4,5620,5442,16.04,2.25,30,3,0,0
46471,1653067740,4,5442,5457,16.04,2.69,30,3,0,0
46908,1653184631,4,5454,5428,16.1,2.27,30,4,0,0
47750,1653387260,4,5424,5171,16.07,2.08,30,4,0,0
48241,1653506756,4,5166,5114,15.94,2.13,30,4,0,0
48643,1653609372,4,5116,5257,15.98,2.48,30,4,0,0
49095,1653718971,4,5256,5242,16.04,2.48,30,4,0,0
49541,1653831703,4,5243,5285,16.08,2.67,30,4,0,0
49987,1653938628,4,5286,5371,16.08,2.49,30,4,0,0
50439,1654053070,4,5363,5271,16.05,2.29,30,4,0,0
50888,1654167715,4,5269,5242,16.02,2.43,30,4,0,0
51300,1654270574,4,5244,5271,16.06,2.36,30,4,0,0
51747,1654385178,4,5278,5357,15.97,2.36,30,4,0,0
52197,1654494568,4,5355,5342,16.03,2.53,30,4,0,0
52562,1654595565,4,5342,5342,16,2.45,30,5,0,0
52987,1654698730,4,5340,5314,16,2.66,30,5,0,0
53422,1654809263,4,5317,5371,16.02,2.58,30,5,0,0
53871,1654918481,4,5363,5285,15.99,2.25,30,5,0,0
54276,1655023198,4,5286,5371,16.02,2.52,30,5,0,0
54766,1655139309,4,5361,5271,16.02,2.26,30,5,0,0
55623,1655347244,4,5271,5357,15.95,2.55,30,5,0,0
56107,1655463577,4,5362,5471,16,2.44,30,5,0,0
56550,1655575921,4,5469,5442,15.97,2.62,30,5,0,0
56982,1655685548,4,5440,5414,15.91,2.62,30,5,0,0
57418,1655795533,4,5414,5414,16,2.63,30,5,0,0
57868,1655905311,4,5418,5457,15.94,2.3,30,5,0,0
58316,1656019006,4,5453,5414,15.89,2.78,30,6,0,0
58722,1656117613,4,5415,5442,15.94,2.45,30,6,0,0
59130,1656221084,4,5441,5414,15.89,2.54,30,6,0,0
59614,1656333398,4,5419,5542,15.95,2.5,30,6,0,0
60058,1656443486,4,5531,5314,16.05,2.56,30,6,0,0
60509,1656555575,4,5315,5328,15.99,2.23,30,6,0,0
60932,1656662569,4,5324,5285,16.02,2.34,30,6,0,0
61396,1656776094,4,5293,5400,15.95,2.73,30,6,0,0
61848,1656887335,4,5393,5300,15.96,2.4,30,6,0,0
62292,1656997947,4,5308,5385,15.95,2.43,30,6,0,0
62699,1657097796,4,5389,5457,15.92,2.72,30,6,0,0
63109,1657205163,4,5452,5371,15.94,2.32,30,6,0,0
63599,1657322635,4,5372,5400,15.97,2.46,30,6,0,0
63998,1657425096,4,5397,5271,15.95,2.24,30,6,0,0
64451,1657534728,4,5272,5371,16.01,2.62,30,7,0,0
64892,1657644112,4,5371,5428,16.04,2.58,30,7,0,0
65384,1657763546,4,5422,5385,15.95,2.42,30,7,0,0
65809,1657873743,4,5394,5457,15.94,2.7,30,7,0,0
66230,1657975741,4,5454,5428,15.99,2.61,30,7,0,0
66682,1658083729,4,5425,5400,16.01,2.57,30,7,0,0
67087,1658187848,4,5400,5414,16,2.37,30,7,0,0
67537,1658298391,4,5411,5385,16.04,2.78,30,7,0,0
67938,1658398329,4,5384,5371,16.01,2.24,30,7,0,0
68386,1658507338,4,5362,5142,15.99,2.42,30,7,0,0
68854,1658629402,4,5149,5214,15.98,2.26,30,7,0,0
69263,1658726139,4,5214,5242,15.94,2.21,30,7,0,0
69709,1658844387,4,5239,5214,15.89,2.39,30,7,0,0
70116,1658941774,4,5214,5285,15.94,2.62,30,7,0,0
70561,1659051926,4,5286,5385,15.91,2.75,30,8,0,0
71014,1659161564,4,5383,5328,15.91,2.36,30,8,0,0
71490,1659281483,4,5336,5414,15.94,2.79,30,8,0,0
71902,1659390614,4,5434,5600,15.95,2.7,30,8,0,0
72310,1659492089,4,5595,5557,15.94,3.06,30,8,0,0
72760,1659603158,4,5552,5514,15.93,2.59,30,8,0,0
73171,1659702539,4,5512,5428,15.92,2.58,30,8,0,0
74062,1659923077,4,5424,5357,15.99,2.63,30,8,0,0
74508,1660035793,4,5363,5457,16,2.67,30,8,0,0
74962,1660147747,4,5454,5442,15.82,2.71,30,8,0,0
75408,1660253759,4,5434,5371,15.97,2.28,30,8,0,0
75851,1660365384,4,5361,5257,16.01,2.04,30,9,0,0
76282,1660473593,4,5251,5200,15.87,2.56,30,9,0,0
76670,1660576179,4,5235,5585,15.92,3.21,30,9,0,0
77082,1660678154,4,5585,5600,15.92,2.7,30,9,0,0
77563,1660791550,4,5597,5485,15.97,2.52,30,9,0,0
78013,1660901163,4,5480,5414,15.95,2.31,30,9,0,0
78420,1661006160,4,5412,5328,15.88,2.35,30,9,0,0
78865,1661114555,4,5330,5442,15.95,2.7,30,9,0,0
79350,1661231594,4,5437,5400,15.89,2.46,30,9,0,0
80160,1661435100,4,5399,5385,15.89,2.51,30,9,0,0
80650,1661552357,4,5384,5371,15.95,2.43,30,9,0,0
81104,1661667511,4,5366,5300,16.01,2.64,30,9,0,0
81500,1661760755,4,5298,5257,15.89,2.01,30,10,0,0
81989,1661878528,4,5252,5200,15.91,2.43,30,10,0,0
82397,1661983670,4,5204,5300,15.81,2.55,30,10,0,0
82922,1662105676,4,5312,5414,15.93,2.52,30,10,0,0
83321,1662204504,4,5410,5371,15.94,2.87,30,10,0,0
83773,1662313293,4,5374,5414,15.88,2.46,30,10,0,0
84216,1662424522,4,5407,5357,15.88,2.59,30,10,0,0
84619,1662520725,4,5361,5528,15.85,2.37,30,10,0,0
85069,1662636801,4,5534,5600,15.9,2.89,30,10,0,0
85516,1662744178,4,5600,5600,15.87,2.77,30,10,0,0
85922,1662847188,4,5594,5528,15.92,2.4,30,10,0,0
86799,1663065681,4,5525,5442,15.87,2.87,30,10,0,0
87228,1663175392,4,5434,5328,15.9,2.56,30,11,0,0
87678,1663284338,4,5331,5428,15.94,2.42,30,11,0,0
88162,1663401166,4,5423,5357,15.94,2.34,30,11,0,0
88611,1663509857,4,5366,5471,15.96,2.39,30,11,0,0
89057,1663622061,4,5454,5271,15.91,2.4,30,11,0,0
89507,1663731594,4,5278,5357,15.93,2.55,30,11,0,0
89948,1663836516,4,5362,5442,15.88,2.65,30,11,0,0
90356,1663940505,4,5442,5457,15.9,2.65,30,11,0,0
90844,1664060608,4,5454,5428,15.92,2.67,30,11,0,0
91288,1664168609,4,5433,5471,15.88,2.74,30,11,0,0
91693,1664266099,4,5479,5657,15.85,2.9,30,11,0,0
92590,1664489070,4,5649,5485,15.88,2.85,30,12,0,0
93032,1664599362,4,5496,5585,15.97,2.92,30,12,0,0
93442,1664699952,4,5589,5657,15.92,2.78,30,12,0,0
93887,1664810565,4,5654,5628,15.92,2.86,30,12,0,0
94338,1664920613,4,5643,5800,15.92,2.86,30,12,0,0
94784,1665030517,4,5796,5728,15.94,2.86,30,12,0,0
95231,1665139622,4,5726,5714,15.85,2.91,30,12,0,0
95636,1665244712,4,5703,5571,15.94,2.66,30,12,0,0
96531,1665463273,4,5567,5485,15.87,2.35,30,12,0,0
96940,1665565712,4,5482,5442,15.86,2.74,30,12,0,0
97391,1665674930,4,5438,5385,15.88,2.61,30,12,0,0
97836,1665786789,4,5394,5528,15.93,2.84,30,12,0,0
98285,1665896368,4,5530,5557,15.91,2.9,30,13,0,0
99140,1666106148,4,5556,5514,15.89,3.02,30,13,0,0
99583,1666216268,4,5516,5642,15.86,2.91,30,13,0,0
100079,1666335713,4,5643,5657,15.86,2.61,30,13,0,0
100473,1666435511,4,5657,5685,15.82,2.89,30,13,0,0
100923,1666544810,4,5682,5500,15.87,2.59,30,13,0,0
101370,1666657081,4,5511,5657,15.88,2.7,30,13,0,0
101825,1666766787,4,5634,5400,15.84,2.39,30,13,0,0
102265,1666874316,4,5403,5442,15.95,2.59,30,13,0,0
102717,1666988386,4,5440,5428,15.85,2.72,30,13,0,0
103165,1667095387,4,5420,5314,15.97,2.11,30,13,0,0
103609,1667204342,4,5307,5228,15.92,2.52,30,14,0,0
104011,1667302505,4,5232,5528,15.97,2.73,30,14,0,0
104460,1667414370,4,5525,5400,15.94,2.67,30,14,0,0
104943,1667526613,4,5387,5228,15.89,2,30,14,0,0
105347,1667629238,4,5232,5428,15.94,2.71,30,14,0,0
105846,1667753717,4,5417,5357,15.92,2.83,30,14,0,0
106249,1667851645,4,5363,5514,15.96,2.71,30,14,0,0
106694,1667955189,4,5517,5585,15.87,2.67,30,14,0,0
107100,1668062122,4,5583,5571,15.83,2.69,30,14,0,0
107547,1668175100,4,5562,5442,15.91,2.66,30,14,0,0
107947,1668271190,4,5446,5628,15.94,2.62,30,14,0,0
108402,1668386172,4,5599,5200,15.88,2.28,30,14,0,0
108850,1668494937,4,5213,5357,15.91,2.58,30,14,0,0
109262,1668602299,4,5371,5500,15.9,2.87,30,15,0,0
109711,1668711537,4,5510,5614,15.87,2.69,30,15,0,0
110155,1668819409,4,5594,5300,15.88,2.45,30,15,0,0
110604,1668928944,4,5305,5428,15.87,2.56,30,15,0,0
111052,1669043612,4,5433,5485,15.8,2.79,30,15,0,0
111537,1669161982,4,5485,5485,15.85,2.78,30,15,0,0
111945,1669263306,4,5490,5557,15.85,2.36,30,15,0,0
112392,1669374046,4,5560,5600,15.81,2.6,30,15,0,0
113250,1669590681,4,5593,5414,15.9,2.15,30,15,0,0
113697,1669697539,4,5411,5342,15.88,2.6,30,15,0,0
114145,1669811355,4,5334,5242,15.93,2.28,30,15,0,0
114592,1669917610,4,5238,5171,15.93,2.18,30,15,0,0
115488,1670138156,4,5178,5400,15.92,2.35,30,16,0,0
115889,1670240220,4,5393,5271,15.97,2.27,30,16,0,0
116386,1670364371,4,5260,5142,15.88,1.92,30,16,0,0
116795,1670463085,4,5136,5085,15.89,1.97,30,16,0,0
117236,1670568323,4,5091,5214,15.95,2.18,30,16,0,0
117691,1670680567,4,5204,5114,15.87,2.1,30,16,0,0
118136,1670789774,4,5118,5242,15.84,2.31,30,16,0,0
118585,1670898371,4,5240,5214,15.94,2.09,30,16,0,0
119031,1671009632,4,5208,5128,15.97,1.83,30,16,0,0
119520,1671124539,4,5116,5000,15.92,1.67,30,16,0,0
119931,1671230277,4,4999,4971,15.86,1.85,30,16,0,0
120418,1671347335,4,4997,5257,15.78,2.65,30,16,0,0
120860,1671454158,4,5267,5371,15.79,2.76,30,16,0,0
121754,1671671244,4,5373,5442,15.84,2.68,30,17,0,0
122153,1671770329,4,5450,5571,15.88,2.52,30,17,0,0
122606,1671879818,4,5559,5428,15.83,2.26,30,17,0,0
123050,1671990542,4,5437,5542,15.92,2.4,30,17,0,0
123458,1672095580,4,5540,5414,15.83,2.15,30,17,0,0
123906,1672201136,4,5410,5228,15.89,2.01,30,17,0,0
124394,1672322726,4,5216,5100,15.89,1.5,30,17,0,0
124798,1672423951,4,5095,5014,15.86,1.86,30,17,0,0
125247,1672529183,4,5020,5128,15.8,2.33,30,17,0,0
125659,1672633210,4,5134,5400,15.84,2.58,30,17,0,0
126147,1672749409,4,5412,5571,15.91,2.88,30,17,0,0
126597,1672858512,4,5575,5671,15.84,2.66,30,17,0,0
127042,1672970248,4,5674,5714,15.82,2.75,30,17,0,0
127450,1673073375,4,5710,5571,15.83,2.85,30,17,0,0
128346,1673294095,4,5570,5528,15.77,2.75,30,18,0,0
128792,1673402120,4,5528,5542,15.79,2.8,30,18,0,0
129237,1673511716,4,5548,5728,15.8,2.84,30,18,0,0
129688,1673626159,4,5714,5571,15.79,2.48,30,18,0,0
130137,1673734573,4,5566,5428,15.83,2.37,30,18,0,0
130625,1673852531,4,5428,5428,15.76,2.74,30,18,0,0
131077,1673961796,4,5445,5671,15.8,2.83,30,18,0,0
131486,1674068644,4,5663,5571,15.83,2.66,30,18,0,0
131932,1674180796,4,5567,5514,15.8,2.8,30,18,0,0
132343,1674284770,4,5516,5542,15.83,2.56,30,18,0,0
132744,1674385726,4,5541,5500,15.78,2.31,30,18,0,0
133193,1674496496,4,5493,5328,15.8,2.38,30,18,0,0
133677,1674613400,4,5342,5485,15.68,2.89,30,19,0,0
134079,1674708192,4,5488,5700,15.66,3.19,30,19,0,0
134571,1674831130,4,5698,5685,15.74,2.71,30,19,0,0
134980,1674931521,4,5681,5628,15.73,2.78,30,19,0,0
135426,1675042813,4,5633,5714,15.77,2.73,30,19,0,0
135879,1675154391,4,5698,5557,15.79,2.63,30,19,0,0
136773,1675375187,4,5554,5500,15.79,2.62,30,19,0,0
137178,1675474378,4,5502,5542,15.83,2.61,30,19,0,0
138081,1675699109,4,5535,5400,15.8,2.62,30,19,0,0
138488,1675801262,4,5394,5271,15.89,2.29,30,19,0,0
138975,1675914823,4,5282,5400,15.86,2.18,30,20,0,0
139386,1676020491,4,5393,5328,15.91,2.26,30,20,0,0
139834,1676127296,4,5318,5228,15.83,2.27,30,20,0,0
140273,1676235066,4,5219,5100,15.79,2.28,30,20,0,0
140721,1676343507,4,5107,5285,15.91,2.51,30,20,0,0
141165,1676453138,4,5283,5242,15.84,1.99,30,20,0,0
141618,1676566079,4,5245,5314,15.86,2.12,30,20,0,0
142066,1676676550,4,5304,5114,15.88,2.14,30,20,0,0
142516,1676789228,4,5117,5157,15.85,2.48,30,20,0,0
142972,1676898607,4,5170,5342,15.72,2.59,30,20,0,0
143417,1677010202,4,5351,5585,15.86,2.82,30,20,0,0
143866,1677117720,4,5573,5428,15.83,2.38,30,20,0,0
144310,1677230542,4,5428,5428,15.73,2.59,30,20,0,0
144759,1677338728,4,5432,5485,15.79,2.39,30,20,0,0
145202,1677449796,4,5473,5314,15.86,2.26,30,21,0,0
146098,1677671206,4,5315,5357,15.79,2.34,30,21,0,0
146957,1677888664,4,5357,5371,15.78,2.4,30,21,0,0
147401,1677996379,4,5371,5385,15.8,2.47,30,21,0,0
147892,1678113540,4,5389,5457,15.72,2.46,30,21,0,0
148296,1678217374,4,5458,5514,15.81,2.7,30,21,0,0
148745,1678326070,4,5514,5542,15.79,2.53,30,21,0,0
149190,1678438330,4,5533,5414,15.82,2.34,30,21,0,0
149638,1678544781,4,5414,5414,15.74,2.84,30,21,0,0
150085,1678659629,4,5430,5600,15.74,2.51,30,21,0,0
150493,1678761152,4,5593,5528,15.76,2.72,30,21,0,0
150937,1678867181,4,5533,5657,15.72,2.79,30,22,0,0
151341,1678969149,4,5654,5471,15.77,2.59,30,22,0,0
151840,1679088195,4,5493,5728,15.68,2.83,30,22,0,0
152244,1679192119,4,5729,5771,15.7,2.93,30,22,0,0
152688,1679299112,4,5773,5814,15.74,2.85,30,22,0,0
153131,1679406079,4,5804,5600,15.7,2.83,30,22,0,0
153585,1679516498,4,5604,5671,15.76,3.11,30,22,0,0
154402,1679728301,4,5672,5757,15.69,2.81,30,22,0,0
154833,1679837153,4,5746,5542,15.73,2.56,30,22,0,0
155261,1679944610,4,5542,5571,15.75,2.81,30,22,0,0
155747,1680070799,4,5588,5714,15.72,2.8,30,23,0,0
156188,1680172077,4,5699,5557,15.73,2.54,30,23,0,0
156639,1680290634,4,5550,5514,15.69,2.72,30,23,0,0
157046,1680386781,4,5516,5571,15.74,2.7,30,23,0,0
157496,1680500599,4,5567,5542,15.7,2.54,30,23,0,0
157908,1680603637,4,5546,5585,15.77,2.57,30,23,0,0
158358,1680708098,4,5583,5514,15.75,2.54,30,23,0,0
158807,1680820214,4,5508,5371,15.73,2.52,30,23,0,0
159250,1680928544,4,5377,5528,15.71,2.48,30,23,0,0
159653,1681028532,4,5525,5428,15.76,2.54,30,23,0,0
160101,1681136437,4,5414,5242,15.7,2.64,30,23,0,0
160548,1681255554,4,5247,5300,15.76,2.32,30,23,0,0
160993,1681360602,4,5293,5242,15.72,2.31,30,23,0,0
161437,1681471271,4,5243,5257,15.68,2.47,30,23,0,0
161877,1681573649,4,5265,5357,15.76,2.59,30,24,0,0
162287,1681673584,4,5359,5400,15.68,2.65,30,24,0,0
162766,1681792398,4,5400,5400,15.76,2.45,30,24,0,0
163173,1681892785,4,5403,5485,15.73,2.47,30,24,0,0
163620,1682004317,4,5480,5442,15.76,2.49,30,24,0,0
164074,1682110779,4,5445,5500,15.78,2.58,30,24,0,0
164516,1682227713,4,5492,5428,15.73,2.79,30,24,0,0
164922,1682326788,4,5430,5557,15.74,2.65,30,24,0,0
165354,1682436325,4,5566,5671,15.7,2.63,30,24,0,0
166669,1682767503,4,5669,5342,15.76,2.6,30,24,0,0
167115,1682878552,4,5352,5471,15.69,2.64,30,25,0,0
167562,1682990189,4,5472,5485,15.72,2.69,30,25,0,0
168010,1683094897,4,5480,5414,15.74,2.54,30,25,0,0
168455,1683206562,4,5416,5442,15.75,2.64,30,25,0,0
168899,1683311485,4,5438,5400,15.79,2.62,30,25,0,0
169310,1683417373,4,5401,5428,15.66,2.5,30,25,0,0
169722,1683522602,4,5427,5414,15.7,2.35,30,25,0,0
170169,1683637485,4,5415,5442,15.67,2.45,30,25,0,0
170576,1683738533,4,5439,5271,15.77,2.35,30,25,0,0
171028,1683854560,4,5269,5257,15.73,2.48,30,25,0,0
171475,1683965933,4,5260,5314,15.72,2.45,30,25,0,0
171912,1684065163,4,5312,5257,15.71,2.38,30,25,0,0
172357,1684179076,4,5253,5214,15.76,2.27,30,25,0,0
172806,1684287325,4,5232,5414,15.78,2.55,30,25,0,0
173255,1684397783,4,5427,5571,15.73,2.66,30,26,0,0
173702,1684505208,4,5565,5514,15.75,2.39,30,26,0,0
174094,1684608564,4,5512,5385,15.77,2.46,30,26,0,0
174523,1684718134,4,5376,5271,15.81,1.94,30,26,0,0
174918,1684818775,4,5266,5128,15.75,2.22,30,26,0,0
175413,1684940130,4,5132,5185,15.77,2.19,30,26,0,0
175857,1685046089,4,5178,5114,15.79,1.91,30,26,0,0
176303,1685158245,4,5118,5157,15.75,2.27,30,26,0,0
176746,1685266129,4,5139,4900,15.74,1.67,30,26,0,0
177191,1685373568,4,4898,4871,15.79,1.85,30,26,0,0
177651,1685486119,4,4886,5042,15.75,2.08,30,26,0,0
178086,1685589325,4,5048,5114,15.69,2.34,30,26,0,0
178536,1685698732,4,5129,5285,15.76,2.43,30,26,0,0
178940,1685801960,4,5285,5285,15.73,2.43,30,26,0,0
179386,1685907113,4,5290,5485,15.76,2.77,30,26,0,0
180240,1686124967,4,5485,5514,15.74,2.74,30,27,0,0
180684,1686236080,4,5513,5500,15.7,2.55,30,27,0,0
181136,1686348929,4,5497,5457,15.68,2.54,30,27,0,0
181567,1686459760,4,5452,5400,15.73,2.45,30,27,0,0
181957,1686565110,4,5397,5242,15.71,2.33,30,27,0,0
182405,1686674376,4,5244,5414,15.72,2.51,30,27,0,0
182847,1686783052,4,5421,5514,15.66,2.52,30,27,0,0
183294,1686888483,4,5505,5342,15.73,2.52,30,27,0,0
183746,1687002788,4,5343,5357,15.72,2.57,30,27,0,0
184150,1687100787,4,5357,5428,15.69,2.48,30,27,0,0
184596,1687214064,4,5428,5442,15.73,2.65,30,27,0,0
185041,1687324156,4,5446,5514,15.72,2.67,30,27,0,0
185485,1687430832,4,5511,5385,15.75,2.37,30,28,0,0
185937,1687542732,4,5384,5371,15.73,2.39,30,28,0,0
186345,1687646780,4,5367,5200,15.73,2.04,30,28,0,0
186793,1687757108,4,5200,5200,15.7,2.26,30,28,0,0
187249,1687868113,4,5210,5314,15.77,2.36,30,28,0,0
187660,1687978489,4,5300,5185,15.71,2.39,30,28,0,0
188089,1688085937,4,5192,5271,15.75,2.38,30,28,0,0
188513,1688191543,4,5272,5314,15.79,2.25,30,28,0,0
188959,1688300561,4,5313,5300,15.78,2.36,30,28,0,0
189414,1688418561,4,5296,5257,15.8,2.51,30,28,0,0
189860,1688525149,4,5253,5214,15.79,2.28,30,28,0,0
190269,1688633336,4,5216,5271,15.8,2.58,30,28,0,0
190717,1688739767,4,5271,5271,15.69,2.33,30,28,0,0
191161,1688847053,4,5266,5100,15.71,2.02,30,29,0,0
191653,1688967411,4,5119,5300,15.64,2.41,30,29,0,0
192464,1689172316,4,5301,5414,15.78,2.67,30,29,0,0
192903,1689279489,4,5411,5371,15.73,2.47,30,29,0,0
193770,1689495713,4,5373,5442,15.75,2.35,30,29,0,0
194211,1689609295,4,5432,5300,15.71,2.25,30,29,0,0
194660,1689719119,4,5293,5200,15.74,2.1,30,29,0,0
195107,1689829573,4,5200,5200,15.75,2.2,30,29,0,0
195558,1689939815,4,5201,5214,15.73,2.26,30,29,0,0
196408,1690151574,4,5212,5157,15.75,2.08,30,29,0,0
196855,1690264513,4,5149,5071,15.75,2.36,30,29,0,0
197676,1690474447,4,5078,5314,15.65,2.57,30,30,0,0
198121,1690584294,4,5313,5300,15.73,2.04,30,30,0,0
198562,1690690516,4,5299,5271,15.76,2.4,30,30,0,0
199003,1690805150,4,5266,5142,15.73,2.39,30,30,0,0
199434,1690910776,4,5154,5314,15.69,2.4,30,30,0,0
199869,1691019785,4,5322,5428,15.72,2.63,30,30,0,0
200317,1691128055,4,5430,5471,15.71,2.51,30,30,0,0
200760,1691238562,4,5464,5400,15.72,2.58,30,30,0,0
201164,1691338520,4,5402,5457,15.75,2.48,30,30,0,0
201615,1691454297,4,5456,5442,15.73,2.57,30,30,0,0
202063,1691566396,4,5427,5328,15.73,2.3,30,30,0,0
202508,1691672929,4,5335,5414,15.64,2.19,30,30,0,0
202912,1691776112,4,5410,5328,15.72,2.24,30,30,0,0
203365,1691887088,4,5331,5371,15.7,2.26,30,30,0,0
203770,1691990410,4,5363,5257,15.66,2.2,30,31,0,0
204217,1692099804,4,5257,5285,15.74,2.34,30,31,0,0
204684,1692213282,4,5284,5271,15.67,2.34,30,31,0,0
205076,1692316247,4,5265,5157,15.7,2.34,30,31,0,0
205519,1692430564,4,5165,5257,15.64,2.2,30,31,0,0
205970,1692539095,4,5254,5228,15.68,2.4,30,31,0,0
206414,1692649589,4,5238,5342,15.7,2.22,30,31,0,0
206898,1692768359,4,5330,5271,15.74,2.4,30,31,0,0
207298,1692869731,4,5264,5200,15.66,2.33,30,31,0,0
207748,1692980585,4,5202,5228,15.7,2.26,30,31,0,0
208193,1693086528,4,5225,5200,15.77,2.3,30,31,0,0
208592,1693184961,4,5200,5200,15.73,2.22,30,31,0,0
209034,1693294508,4,5200,5242,15.61,2.3,30,31,0,0
209466,1693402555,4,5243,5385,15.72,2.85,30,31,0,0
209937,1693525137,4,5390,5457,15.66,2.78,30,32,0,0
210345,1693631614,4,5466,5557,15.63,2.76,30,32,0,0
210756,1693733759,4,5563,5628,15.67,2.62,30,32,0,0
211194,1693839088,4,5617,5514,15.59,2.6,30,32,0,0
211649,1693949486,4,5525,5628,15.69,2.74,30,32,0,0
212539,1694165383,4,5621,5442,15.63,2.59,30,32,0,0
213429,1694388782,4,5443,5485,15.77,2.4,30,32,0,0
213836,1694490602,4,5477,5400,15.73,2.44,30,32,0,0
214268,1694599543,4,5397,5357,15.71,2.59,30,32,0,0
215130,1694818163,4,5356,5328,15.69,2.26,30,32,0,0
215583,1694929568,4,5322,5242,15.65,2.3,30,33,0,0
216035,1695047166,4,5231,5128,15.73,2.28,30,33,0,0
216441,1695146116,4,5131,5357,15.7,2.29,30,33,0,0
216882,1695255113,4,5361,5457,15.69,2.24,30,33,0,0
217371,1695373349,4,5441,5271,15.67,2.28,30,33,0,0
217818,1695481404,4,5267,5228,15.73,2.53,30,33,0,0
218260,1695590386,4,5258,5571,15.66,2.99,30,33,0,0
218671,1695693895,4,5559,5442,15.63,2.58,30,33,0,0
219111,1695802126,4,5447,5528,15.75,2.85,30,33,0,0
219562,1695911326,4,5524,5442,15.7,2.42,30,33,0,0
220005,1696020940,4,5431,5300,15.69,2.5,30,33,0,0
220456,1696132584,4,5305,5442,15.61,2.28,30,33,0,0
220898,1696240575,4,5434,5285,15.67,2.22,30,33,0,0
221347,1696351695,4,5279,5157,15.7,2.29,30,34,0,0
221793,1696460624,4,5154,5100,15.7,2.18,30,34,0,0
222237,1696572757,4,5105,5185,15.66,2.25,30,34,0,0
222665,1696681087,4,5177,5071,15.69,2.06,30,34,0,0
223100,1696787616,4,5072,5114,15.69,2.28,30,34,0,0
223584,1696905571,4,5121,5200,15.7,2.27,30,34,0,0
223987,1697008258,4,5191,5000,15.76,2.35,30,34,0,0
224435,1697117326,4,5002,5057,15.64,2.31,30,34,0,0
224914,1697231716,4,5053,5000,15.64,1.98,30,34,0,0
225325,1697334600,4,5001,5028,15.69,2.15,30,34,0,0
225767,1697444295,4,5026,5014,15.72,2.09,30,34,0,0
226212,1697551585,4,5014,5028,15.61,2.4,30,34,0,0
226610,1697650345,4,5033,5285,15.7,2.5,30,34,0,0
227057,1697764273,4,5288,5314,15.67,2.44,30,34,0,0
227445,1697863692,4,5314,5342,15.67,2.31,30,34,0,0
227873,1697973715,4,5342,5385,15.69,2.81,30,35,0,0
228318,1698081268,4,5381,5314,15.68,2.49,30,35,0,0
228758,1698189355,4,5322,5528,15.7,2.49,30,35,0,0
229197,1698295090,4,5520,5371,15.66,2.48,30,35,0,0
229603,1698397358,4,5375,5614,15.6,3.01,30,35,0,0
230086,1698508095,4,5610,5528,15.7,2.68,30,35,0,0
230535,1698619704,4,5525,5471,15.76,2.09,30,35,0,0
230982,1698728959,4,5462,5314,15.76,2.23,30,35,0,0
231384,1698833202,4,5311,5128,15.69,2.27,30,35,0,0
231839,1698944974,4,5129,5214,15.72,2.39,30,35,0,0
232299,1699058061,4,5214,5228,15.76,2.29,30,35,0,0
232728,1699170530,4,5225,5200,15.73,2.17,30,35,0,0
233173,1699277501,4,5205,5271,15.74,2.55,30,35,0,0
233578,1699381112,4,5270,5242,15.76,2.38,30,35,0,0
234028,1699491721,4,5244,5271,15.68,2.48,30,36,0,0
234434,1699594271,4,5271,5300,15.7,2.45,30,36,0,0
234922,1699711063,4,5310,5457,15.63,2.79,30,36,0,0
235330,1699816367,4,5461,5557,15.66,2.74,30,36,0,0
235785,1699926184,4,5541,5371,15.75,2.29,30,36,0,0
236184,1700026095,4,5373,5400,15.72,2.27,30,36,0,0
236632,1700134919,4,5394,5342,15.63,2.72,30,36,0,0
237058,1700242093,4,5345,5400,15.75,2.56,30,36,0,0
237485,1700347321,4,5400,5400,15.76,2.39,30,36,0,0
237893,1700453138,4,5393,5271,15.68,2.38,30,36,0,0
238347,1700569731,4,5273,5300,15.7,2.63,30,36,0,0
238795,1700680347,4,5298,5271,15.72,2.46,30,36,0,0
239196,1700781516,4,5276,5385,15.76,2.44,30,36,0,0
239648,1700891969,4,5386,5400,15.71,2.71,30,37,0,0
240128,1701008397,4,5404,5457,15.74,2.64,30,37,0,0
240970,1701226095,4,5455,5414,15.67,2.53,30,37,0,0
241398,1701334359,4,5407,5342,15.62,2.59,30,37,0,0
241793,1701435006,4,5343,5485,15.72,2.51,30,37,0,0
242242,1701546331,4,5480,5400,15.66,2.68,30,37,0,0
242686,1701654394,4,5402,5442,15.65,2.76,30,37,0,0
243137,1701771341,4,5443,5457,15.67,2.8,30,37,0,0
243543,1701870530,4,5457,5457,15.7,2.48,30,37,0,0
243989,1701980753,4,5454,5357,15.7,2.2,30,37,0,0
244877,1702204931,4,5354,5271,15.78,2.3,30,38,0,0
245266,1702306383,4,5269,5200,15.67,2.4,30,38,0,0
245703,1702419368,4,5210,5314,15.77,2.71,30,38,0,0
246143,1702524578,4,5319,5400,15.73,2.49,30,38,0,0
246589,1702634805,4,5396,5314,15.79,2.48,30,38,0,0
247039,1702744346,4,5326,5571,15.76,2.84,30,38,0,0
247487,1702856099,4,5556,5357,15.76,2.65,30,38,0,0
247934,1702966351,4,5362,5442,15.75,2.55,30,38,0,0
248382,1703074645,4,5439,5414,15.73,2.86,30,38,0,0
248779,1703178625,4,5414,5457,15.7,2.69,30,38,0,0
249245,1703296503,4,5457,5457,15.72,2.78,30,38,0,0
250085,1703503590,4,5456,5442,15.73,2.39,30,38,0,0
250529,1703614492,4,5439,5300,15.6,2.21,30,39,0,0
251014,1703733317,4,5310,5414,15.66,2.56,30,39,0,0
251468,1703844226,4,5414,5414,15.65,2.6,30,39,0,0
251919,1703958070,4,5421,5471,15.69,2.9,30,39,0,0
252319,1704053406,4,5469,5385,15.69,2.54,30,39,0,0
252834,1704175952,4,5386,5400,15.61,2.6,30,39,0,0
253244,1704279591,4,5426,5628,15.6,3,30,39,0,0
253690,1704387823,4,5624,5585,15.55,3.45,30,39,0,0
254134,1704497530,4,5611,5957,15.52,4.14,30,39,0,0
255023,1704713605,4,5945,5728,15.7,2.71,30,39,0,0
255471,1704824980,4,5712,5542,15.75,2.47,30,40,0,0
255874,1704924084,4,5524,5214,15.8,1.88,30,40,0,0
256364,1705048404,4,5182,4942,15.75,1.78,30,40,0,0
256767,1705144927,4,4942,4957,15.72,2.27,30,40,0,0
257209,1705255147,4,4961,5014,15.76,2.5,30,40,0,0
258044,1705465374,4,5015,5185,15.5,2.94,30,40,0,0
258514,1705582742,4,5185,5185,15.73,2.3,30,40,0,0
258922,1705684358,4,5179,5128,15.66,2.41,30,40,0,0
259369,1705795166,4,5136,5357,15.67,2.49,30,40,0,0
259818,1705902742,4,5356,5342,15.71,2.2,30,40,0,0
260224,1706009500,4,5332,5142,15.74,2.7,30,40,0,0
260678,1706123176,4,5162,5385,15.75,2.55,30,40,0,0
261107,1706230101,4,5381,5342,15.73,2.56,30,40,0,0
261534,1706334753,4,5342,5342,15.75,2.29,30,40,0,0
261966,1706440474,4,5337,5285,15.76,2.53,30,41,0,0
262422,1706557393,4,5274,5200,15.76,1.98,30,41,0,0
263271,1706769672,4,5201,5242,15.69,2.2,30,41,0,0
263719,1706875760,4,5245,5314,15.61,2.27,30,41,0,0
264172,1706989946,4,5306,5228,15.68,2.41,30,41,0,0
264617,1707097108,4,5233,5285,15.68,2.56,30,41,0,0
265092,1707209314,4,5306,5600,15.6,2.84,30,41,0,0
265504,1707313593,4,5598,5514,15.65,2.77,30,41,0,0
265948,1707424514,4,5516,5571,15.55,2.82,30,41,0,0
266399,1707537380,4,5571,5585,15.55,2.8,30,41,0,0
266879,1707650126,4,5583,5557,15.64,2.86,30,41,0,0
267285,1707751166,4,5557,5600,15.6,2.84,30,41,0,0
267735,1707866337,4,5604,5642,15.66,2.81,30,42,0,0
268137,1707966128,4,5632,5428,15.58,2.77,30,42,0,0
268606,1708082053,4,5447,5657,15.58,3.05,30,42,0,0
269032,1708190345,4,5664,5771,15.61,2.75,30,42,0,0
269439,1708293088,4,5765,5671,15.57,2.95,30,42,0,0
269888,1708408792,4,5671,5671,15.58,2.8,30,42,0,0
270336,1708518086,4,5665,5614,15.62,2.8,30,42,0,0
270782,1708630768,4,5612,5600,15.61,2.86,30,42,0,0
271187,1708731953,4,5600,5614,15.61,2.77,30,42,0,0
271636,1708843910,4,5615,5657,15.57,2.78,30,42,0,0
272084,1708953766,4,5642,5514,15.61,2.75,30,42,0,0
272538,1709065595,4,5531,5714,15.66,2.78,30,43,0,0
273014,1709179563,4,5706,5585,15.61,2.69,30,43,0,0
273408,1709281579,4,5588,5642,15.62,2.87,30,43,0,0
273839,1709394297,4,5645,5685,15.6,2.75,30,43,0,0
274287,1709502953,4,5682,5657,15.66,3.02,30,43,0,0
274686,1709604086,4,5660,5728,15.61,2.92,30,43,0,0
275180,1709723792,4,5724,5671,15.58,3.2,30,43,0,0
275584,1709826595,4,5673,5742,15.6,3.03,30,43,0,0
276473,1710042314,4,5742,5814,15.55,3.16,30,43,0,0
276999,1710165377,4,5821,5900,15.5,3.47,30,43,0,0
277442,1710273791,4,5887,5700,15.66,2.99,30,44,0,0
277888,1710383889,4,5701,5714,15.58,2.84,30,44,0,0
278339,1710491281,4,5714,5714,15.51,3.08,30,44,0,0
278736,1710592499,4,5714,5728,15.52,3.35,30,44,0,0
279198,1710704593,4,5737,5828,15.62,3.33,30,44,0,0
279631,1710815642,4,5838,5942,15.6,3.15,30,44,0,0
280481,1711029758,4,5936,5785,15.62,3.18,30,44,0,0
280929,1711139490,4,5785,5785,15.63,3.01,30,44,0,0
281334,1711245606,4,5793,5914,15.54,3.29,30,44,0,0
281789,1711361603,4,5928,6028,15.55,3.24,30,44,0,0
282196,1711463572,4,6009,5771,15.59,3.11,30,45,0,0
282603,1711569374,4,5777,5928,15.61,3.04,30,45,0,0
283086,1711679536,4,5926,5914,15.54,3.23,30,45,0,0
283494,1711785600,4,5907,5842,15.54,3.46,30,45,0,0
283902,1711886310,4,5844,5928,15.54,3.43,30,45,0,0
284340,1711996386,4,5925,5785,15.64,3.08,30,45,0,0
285206,1712221765,4,5774,5542,15.52,3.08,30,45,0,0
285657,1712324763,4,5540,5500,15.67,2.75,30,45,0,0
286545,1712547186,4,5497,5442,15.64,2.48,30,45,0,0
286954,1712647491,4,5445,5514,15.7,2.88,30,46,0,0
287407,1712764067,4,5506,5442,15.75,2.54,30,46,0,0
287881,1712874785,4,5444,5457,15.74,2.37,30,46,0,0
288286,1712978479,4,5448,5357,15.7,2.29,30,46,0,0
288736,1713086205,4,5354,5328,15.75,2.49,30,46,0,0
289179,1713196765,4,5342,5471,15.75,2.53,30,46,0,0
290026,1713408168,4,5470,5400,15.74,2.46,30,46,0,0
290515,1713526158,4,5393,5328,15.67,2.31,30,46,0,0
290938,1713632480,4,5323,5285,15.7,2.51,30,46,0,0
291375,1713741544,4,5286,5300,15.69,2.79,30,46,0,0
291815,1713851639,4,5315,5471,15.74,2.43,30,46,0,0
292263,1713963264,4,5455,5328,15.61,2.25,30,46,0,0
292711,1714074160,4,5324,5285,15.6,2.53,30,47,0,0
294000,1714396904,4,5290,5485,15.55,2.62,30,47,0,0
294449,1714506092,4,5486,5514,15.63,2.79,30,47,0,0
294888,1714616311,4,5514,5514,15.61,2.66,30,47,0,0
295340,1714726510,4,5506,5428,15.68,2.29,30,47,0,0
295771,1714834486,4,5418,5300,15.57,2.4,30,47,0,0
296207,1714944290,4,5301,5314,15.7,2.11,30,47,0,0
296601,1715045545,4,5314,5328,15.67,2.36,30,47,0,0
297054,1715155606,4,5333,5442,15.55,2.72,30,47,0,0
297500,1715269173,4,5448,5514,15.67,2.59,30,47,0,0
298384,1715483893,4,5516,5600,15.7,2.98,30,48,0,0
299676,1715801721,4,5597,5328,15.63,2.25,30,48,0,0
300131,1715914171,4,5326,5285,15.66,2.33,30,48,0,0
300574,1716025562,4,5280,5185,15.66,2.38,30,48,0,0
300978,1716124399,4,5185,5242,15.68,2.63,30,48,0,0
301413,1716238323,4,5242,5257,15.69,2.42,30,48,0,0
302273,1716452054,4,5260,5428,15.69,2.09,30,48,0,0
302724,1716561350,4,5424,5200,15.73,2.25,30,48,0,0
303167,1716673950,4,5195,5142,15.7,2.29,30,48,0,0
303572,1716773239,4,5141,5114,15.69,1.91,30,48,0,0
304465,1716996347,4,5123,5385,15.68,2.66,30,49,0,0
304910,1717102520,4,5385,5385,15.73,2.51,30,49,0,0
305353,1717215174,4,5389,5485,15.73,2.64,30,49,0,0
305796,1717323545,4,5488,5542,15.66,2.9,30,49,0,0
306236,1717431298,4,5542,5542,15.66,2.44,30,49,0,0
306687,1717542577,4,5542,5557,15.6,2.76,30,49,0,0
307137,1717653535,4,5562,5614,15.59,2.95,30,49,0,0
307551,1717761092,4,5614,5685,15.66,2.94,30,49,0,0
307998,1717869315,4,5678,5600,15.59,2.8,30,49,0,0
308400,1717971601,4,5600,5600,15.64,2.6,30,49,0,0
308828,1718079193,4,5598,5528,15.67,2.55,30,49,0,0
309261,1718192818,4,5509,5328,15.62,2.2,30,49,0,0
309667,1718293184,4,5326,5242,15.69,2.21,30,50,0,0
310158,1718413934,4,5243,5257,15.61,2.21,30,50,0,0
310562,1718513310,4,5254,5142,15.67,2.25,30,50,0,0
311004,1718621731,4,5142,5157,15.72,2.31,30,50,0,0
311457,1718733118,4,5158,5185,15.64,2.21,30,50,0,0
311895,1718838006,4,5181,5100,15.65,2.29,30,50,0,0
312346,1718951570,4,5104,5171,15.58,2.4,30,50,0,0
312747,1719055239,4,5170,5157,15.69,2.01,30,50,0,0
313111,1719170746,4,5143,4985,15.63,1.75,30,50,0,0
313564,1719282256,4,4993,5100,15.7,2.37,30,50,0,0
313997,1719391077,4,5113,5285,15.66,2.18,30,50,0,0
314428,1719503349,4,5281,5242,15.66,2.42,30,50,0,0
314857,1719612089,4,5247,5357,15.65,2.38,30,50,0,0
315308,1719721246,4,5357,5357,15.6,2.37,30,50,0,0
315712,1719825319,4,5358,5457,15.66,2.58,30,50,0,0
316161,1719931390,4,5456,5400,15.69,2.63,30,51,0,0
316640,1720045705,4,5401,5428,15.63,2.79,30,51,0,0
317097,1720164408,4,5439,5542,15.67,2.8,30,51,0,0
317540,1720269552,4,5554,5671,15.69,2.63,30,51,0,0
317986,1720375553,4,5663,5528,15.63,2.47,30,51,0,0
318437,1720486409,4,5524,5471,15.67,2.34,30,51,0,0
319335,1720710324,4,5461,5257,15.69,2.2,30,51,0,0
319775,1720817109,4,5255,5242,15.72,2.15,30,51,0,0
320224,1720925622,4,5234,5157,15.72,2.14,30,51,0,0
321117,1721145261,4,5151,5028,15.7,2.07,30,51,0,0
321507,1721246475,4,5026,4985,15.67,2.14,30,51,0,0
321978,1721361354,4,4988,5028,15.69,1.82,30,51,0,0
322416,1721468347,4,5028,5028,15.64,2.24,30,51,0,0
322857,1721575924,4,5030,5071,15.67,2.49,30,52,0,0
323303,1721683301,4,5074,5128,15.58,2.54,30,52,0,0
323753,1721797143,4,5137,5242,15.61,2.4,30,52,0,0
324201,1721907074,4,5253,5371,15.65,2.37,30,52,0,0
324643,1722013268,4,5363,5257,15.68,2.23,30,52,0,0
325096,1722128950,4,5258,5271,15.65,2.47,30,52,0,0
325498,1722226150,4,5270,5228,15.63,2.33,30,52,0,0
325983,1722344722,4,5228,5228,15.58,2.48,30,52,0,0
326433,1722460756,4,5218,5128,15.64,2.11,30,52,0,0
326874,1722568733,4,5128,5128,15.6,2.66,30,52,0,0
327327,1722678976,4,5133,5200,15.63,2.24,30,52,0,0
327729,1722775388,4,5192,4857,15.63,2.02,30,52,0,0
328175,1722888545,4,4887,5185,15.57,2.67,30,52,0,0
328627,1723000540,4,5200,5342,15.67,2.55,30,53,0,0
329032,1723101552,4,5341,5314,15.64,2.7,30,53,0,0
329500,1723214741,4,5318,5357,15.64,2.57,30,53,0,0
329931,1723321144,4,5357,5357,15.64,2.31,30,53,0,0
330325,1723422557,4,5356,5314,15.57,2.41,30,53,0,0
330849,1723544344,4,5307,5242,15.67,2.22,30,53,0,0
331257,1723649173,4,5244,5271,15.65,2.35,30,53,0,0
331661,1723747618,4,5271,5285,15.65,2.37,30,53,0,0
332150,1723866531,4,5277,5157,15.63,2,30,53,0,0
332632,1723981201,4,5151,5100,15.66,2.37,30,53,0,0
333078,1724089497,4,5106,5200,15.61,2.5,30,53,0,0
333934,1724303060,4,5198,5157,15.67,2.27,30,53,0,0
334340,1724409734,4,5161,5242,15.69,2.33,30,53,0,0
334788,1724519350,4,5237,5142,15.69,2.14,30,54,0,0
335194,1724626485,4,5146,5228,15.73,2.2,30,54,0,0
335644,1724735966,4,5213,5071,15.7,1.88,30,54,0,0
336052,1724840338,4,5072,5157,15.73,2.16,30,54,0,0
336539,1724958490,4,5154,5128,15.66,2.08,30,54,0,0
337434,1725179482,4,5128,5128,15.67,2.22,30,54,0,0
337840,1725276970,4,5129,5200,15.67,2.13,30,54,0,0
338326,1725395173,4,5187,5057,15.69,2.24,30,54,0,0
338776,1725504065,4,5062,5128,15.72,2.11,30,54,0,0
339219,1725615201,4,5135,5242,15.64,2.33,30,54,0,0
339669,1725723597,4,5251,5385,15.57,2.36,30,54,0,0
340107,1725834590,4,5393,5514,15.69,2.71,30,54,0,0
340538,1725943510,4,5520,5614,15.64,2.46,30,54,0,0
341012,1726058982,4,5587,5300,15.66,1.91,30,54,0,0
341452,1726166753,4,5307,5442,15.63,2.52,30,55,0,0
341906,1726280155,4,5438,5400,15.65,2.32,30,55,0,0
342346,1726386072,4,5397,5371,15.63,2.43,30,55,0,0
342797,1726496520,4,5364,5300,15.7,2.5,30,55,0,0
343200,1726599850,4,5305,5414,15.62,2.41,30,55,0,0
343650,1726710601,4,5411,5257,15.57,2.3,30,55,0,0
344094,1726821048,4,5256,5228,15.61,2.48,30,55,0,0
344544,1726929318,4,5228,5228,15.69,2.4,30,55,0,0
344993,1727041366,4,5237,5385,15.66,2.6,30,55,0,0
345442,1727150111,4,5387,5428,15.65,2.76,30,55,0,0
345882,1727257704,4,5430,5471,15.69,2.58,30,55,0,0
346329,1727370955,4,5466,5428,15.61,2.38,30,55,0,0
346814,1727482378,4,5416,5300,15.67,2.04,30,55,0,0
347172,1727582728,4,5298,5228,15.61,2.35,30,56,0,0
347641,1727698585,4,5245,5428,15.63,2.49,30,56,0,0
348034,1727800698,4,5418,5300,15.59,2.2,30,56,0,0
348487,1727913624,4,5300,5300,15.61,2.25,30,56,0,0
348892,1728016567,4,5300,5300,15.62,2.09,30,56,0,0
349338,1728122548,4,5298,5228,15.64,2.25,30,56,0,0
349820,1728245140,4,5253,5428,15.64,2.49,30,56,0,0
350270,1728353569,4,5421,5357,15.67,2.39,30,56,0,0
350670,1728450777,4,5355,5228,15.67,2.63,30,56,0,0
351117,1728564717,4,5238,5342,15.6,2.42,30,56,0,0
351565,1728675076,4,5337,5285,15.56,2.44,30,56,0,0
352458,1728897568,4,5288,5400,15.66,2.37,30,56,0,0
352859,1728999541,4,5389,5271,15.57,2.61,30,56,0,0
353310,1729111057,4,5285,5414,15.61,2.28,30,57,0,0
353716,1729217551,4,5402,5300,15.58,2.38,30,57,0,0
354126,1729317506,4,5298,5257,15.6,2.33,30,57,0,0
354555,1729422488,4,5252,5085,15.67,1.81,30,57,0,0
354982,1729535027,4,5083,4971,15.67,1.83,30,57,0,0
355432,1729647559,4,4979,5071,15.64,2.03,30,57,0,0
355881,1729758318,4,5074,5100,15.6,2.2,30,57,0,0
356323,1729870177,4,5106,5157,15.58,2.31,30,57,0,0
356767,1729976808,4,5148,5071,15.64,2.03,30,57,0,0
357216,1730085322,4,5064,4985,15.58,1.91,30,57,0,0
357621,1730187480,4,4986,5000,15.64,1.91,30,57,0,0
358067,1730295761,4,4994,4928,15.58,2,30,57,0,0
358513,1730410155,4,4937,5000,15.64,2.22,30,57,0,0
358966,1730521944,4,4991,4900,15.65,1.82,30,57,0,0
359370,1730617527,4,4903,4971,15.64,2.16,30,57,0,0
359856,1730735498,4,4978,5057,15.64,1.92,30,57,0,0
360264,1730843593,4,5059,5085,15.6,2.07,30,58,0,0
360718,1730956733,4,5069,4928,15.61,1.98,30,58,0,0
361101,1731058166,4,4935,5071,15.6,2.13,30,58,0,0
361536,1731173086,4,5077,5128,15.65,2.29,30,58,0,0
361987,1731283166,4,5134,5185,15.61,2.15,30,58,0,0
362875,1731501694,4,5183,5142,15.67,2.18,30,58,0,0
363276,1731601481,4,5150,5257,15.6,2.34,30,58,0,0
363723,1731708636,4,5252,5185,15.58,2.39,30,58,0,0
364131,1731816600,4,5187,5214,15.68,2.24,30,58,0,0
364984,1732029114,4,5212,5171,15.67,2.02,30,58,0,0
365431,1732136273,4,5169,5114,15.6,2.22,30,58,0,0
365875,1732250295,4,5116,5142,15.66,2.26,30,58,0,0
366322,1732359550,4,5151,5285,15.61,2.35,30,58,0,0
366749,1732469256,4,5279,5200,15.64,2.39,30,58,0,0
367140,1732570762,4,5201,5242,15.67,2.18,30,59,0,0
367585,1732681125,4,5246,5300,15.61,2.16,30,59,0,0
368478,1732898510,4,5295,5071,15.74,1.82,30,59,0,0
369372,1733118254,4,5062,4885,15.8,1.77,30,59,0,0
369807,1733222670,4,4886,4957,15.76,2.01,30,59,0,0
370302,1733343868,4,4961,5014,15.75,1.95,30,59,0,0
370701,1733447197,4,5018,5285,15.77,2.58,30,59,0,0
371152,1733560133,4,5295,5385,15.68,2.51,30,59,0,0
371601,1733669402,4,5380,5328,15.66,2.48,30,59,0,0
372001,1733770575,4,5321,5200,15.73,2.22,30,59,0,0
372895,1733993156,4,5211,5457,15.71,2.58,30,59,0,0
373288,1734092633,4,5455,5400,15.58,2.86,30,60,0,0
373755,1734205331,4,5404,5457,15.74,2.6,30,60,0,0
374204,1734313556,4,5468,5585,15.68,2.77,30,60,0,0
375091,1734531410,4,5590,5742,15.63,2.67,30,60,0,0
375539,1734639322,4,5720,5442,15.69,2.42,30,60,0,0
375992,1734753090,4,5448,5514,15.73,2.69,30,60,0,0
376397,1734854959,4,5510,5428,15.63,2.42,30,60,0,0
377295,1735075803,4,5429,5471,15.72,2.82,30,60,0,0
377730,1735184756,4,5477,5614,15.71,2.83,30,60,0,0
378167,1735295945,4,5590,5371,15.66,2.64,30,60,0,0
378596,1735404516,4,5365,5285,15.71,2.12,30,60,0,0
379040,1735509601,4,5286,5371,15.65,2.38,30,61,0,0
379486,1735617121,4,5374,5442,15.7,2.39,30,61,0,0
379933,1735725590,4,5439,5257,15.68,2.21,30,61,0,0
380378,1735836991,4,5257,5271,15.61,2.5,30,61,0,0
380827,1735943780,4,5276,5385,15.64,2.87,30,61,0,0
382164,1736272227,4,5390,5600,15.72,2.6,30,61,0,0
382601,1736383098,4,5593,5528,15.66,2.59,30,61,0,0
382970,1736491059,4,5546,5742,15.61,3.13,30,61,0,0
383366,1736594389,4,5744,5885,15.52,3.41,30,61,0,0
383855,1736710193,4,5866,5571,15.6,2.64,30,61,0,0
385150,1737032392,4,5567,5357,15.57,2.47,30,62,0,0
385606,1737145561,4,5358,5371,15.67,2.41,30,62,0,0
386048,1737256117,4,5374,5428,15.63,2.68,30,62,0,0
386493,1737364953,4,5422,5357,15.69,2.45,30,62,0,0
386936,1737478514,4,5363,5414,15.66,2.53,30,62,0,0
387345,1737582058,4,5422,5514,15.58,3.02,30,62,0,0
387770,1737686335,4,5520,5614,15.63,2.86,30,62,0,0
388166,1737792597,4,5616,5642,15.63,2.83,30,62,0,0
388619,1737904200,4,5636,5585,15.53,3.28,30,62,0,0
389024,1738007967,4,5596,5828,15.58,3.45,30,62,0,0
389477,1738120391,4,5824,5728,15.57,2.77,30,62,0,0
389920,1738227505,4,5721,5571,15.61,2.55,30,63,0,0
390808,1738450078,4,5564,5442,15.55,2.28,30,63,0,0
391258,1738554271,4,5442,5457,15.61,2.53,30,63,0,0
391734,1738668323,4,5454,5428,15.59,2.42,30,63,0,0
392184,1738784120,4,5413,5314,15.67,2.38,30,63,0,0
392593,1738884178,4,5314,5314,15.6,2.22,30,63,0,0
393037,1738999798,4,5311,5271,15.64,2.55,30,63,0,0
393860,1739212793,4,5271,5271,15.64,2.44,30,63,0,0
394343,1739324381,4,5271,5271,15.54,2.51,30,63,0,0
394752,1739430509,4,5273,5328,15.57,2.55,30,63,0,0
395200,1739534969,4,5316,5214,15.56,2.33,30,63,0,0
395638,1739636491,4,5223,5342,15.64,2.26,30,64,0,0
396566,1739860172,4,5337,5200,15.6,2.35,30,64,0,0
396974,1739961701,4,5199,5157,15.66,1.97,30,64,0,0
397418,1740069982,4,5159,5242,15.67,2.26,30,64,0,0
397861,1740178939,4,5243,5314,15.61,2.18,30,64,0,0
398759,1740402555,4,5311,5257,15.54,2.24,30,64,0,0
399207,1740511527,4,5257,5257,15.63,2.46,30,64,0,0
399652,1740618650,4,5258,5285,15.62,2.65,30,64,0,0
400062,1740722357,4,5290,5557,15.57,2.79,30,64,0,0
400546,1740841535,4,5540,5371,15.6,3.02,30,64,0,0
400948,1740939591,4,5370,5357,15.58,2.35,30,64,0,0
401436,1741059395,4,5363,5428,15.61,2.87,30,65,0,0
401877,1741166189,4,5424,5385,15.61,2.69,30,65,0,0
402769,1741384533,4,5386,5414,15.63,2.5,30,65,0,0
403217,1741491488,4,5417,5457,15.61,2.64,30,65,0,0
403662,1741604087,4,5457,5457,15.6,2.48,30,65,0,0
404069,1741704786,4,5455,5414,15.57,2.63,30,65,0,0
404513,1741816079,4,5417,5571,15.63,2.73,30,65,0,0
404967,1741929055,4,5561,5442,15.6,2.54,30,65,0,0
405418,1742042344,4,5438,5400,15.63,2.63,30,65,0,0
406312,1742263385,4,5394,5271,15.58,2.31,30,65,0,0
406756,1742373505,4,5269,5257,15.66,2.12,30,65,0,0
407182,1742479308,4,5264,5342,15.58,2.55,30,66,0,0
407608,1742584045,4,5340,5300,15.55,2.52,30,66,0,0
408059,1742694314,4,5298,5257,15.57,2.21,30,66,0,0
408504,1742804395,4,5258,5300,15.63,2.01,30,66,0,0
408987,1742916892,4,5284,5142,15.64,2.11,30,66,0,0
409433,1743025805,4,5142,5142,15.6,2.26,30,66,0,0
409838,1743127296,4,5149,5314,15.58,2.5,30,66,0,0
410285,1743239328,4,5307,5242,15.59,2.14,30,66,0,0
410735,1743348751,4,5241,5228,15.6,2.42,30,66,0,0
411138,1743454624,4,5227,5214,15.61,2.46,30,66,0,0
411591,1743565291,4,5225,5371,15.55,2.68,30,66,0,0
411995,1743667559,4,5371,5400,15.62,2.5,30,66,0,0
412433,1743774407,4,5400,5414,15.63,2.5,30,66,0,0
412885,1743884399,4,5412,5385,15.63,2.41,30,66,0,0
413330,1743992302,4,5382,5285,15.61,2.38,30,67,0,0
413781,1744104747,4,5289,5357,15.69,2.67,30,67,0,0
414225,1744217472,4,5358,5371,15.63,2.14,30,67,0,0
415070,1744425249,4,5368,5085,15.55,2.25,30,67,0,0
415520,1744533636,4,5090,5428,15.65,2.47,30,67,0,0
415989,1744650340,4,5414,5271,15.61,2.56,30,67,0,0
416415,1744761768,4,5271,5271,15.63,2.34,30,67,0,0
416860,1744870810,4,5279,5357,15.65,2.5,30,67,0,0
417265,1744971746,4,5357,5357,15.61,2.56,30,67,0,0
417757,1745092359,4,5351,5314,15.63,2.44,30,67,0,0
418198,1745199125,4,5316,5342,15.55,2.44,30,67,0,0
418646,1745308102,4,5347,5400,15.55,2.67,30,67,0,0
419051,1745406620,4,5399,5385,15.56,2.5,30,67,0,0
419504,1745517404,4,5384,5371,15.58,2.45,30,68,0,0
419947,1745630612,4,5369,5357,15.61,2.44,30,68,0,0
420397,1745738159,4,5361,5442,15.5,2.53,30,68,0,0
420801,1745840661,4,5440,5342,15.57,2.31,30,68,0,0
421297,1745961061,4,5321,5171,15.6,2.31,30,68,0,0
421646,1746054748,4,5172,5271,15.64,2.55,30,68,0,0
422557,1746281710,4,5271,5300,15.61,2.58,30,68,0,0
422998,1746393941,4,5310,5385,15.59,2.54,30,68,0,0
423407,1746496117,4,5385,5400,15.61,2.6,30,68,0,0
423893,1746611179,4,5412,5528,15.56,2.64,30,68,0,0
424340,1746723487,4,5510,5342,15.65,2.58,30,68,0,0
425235,1746945320,4,5340,5300,15.66,2.53,30,69,0,0
425646,1747049565,4,5310,5400,15.6,2.54,30,69,0,0
426098,1747160663,4,5400,5400,15.63,2.65,30,69,0,0
426492,1747258371,4,5401,5428,15.58,2.61,30,69,0,0
426975,1747381334,4,5417,5271,15.64,2.52,30,69,0,0
427366,1747482044,4,5273,5400,15.63,2.67,30,69,0,0
428233,1747692923,4,5399,5371,15.6,2.19,30,69,0,0
428685,1747809571,4,5367,5314,15.62,2.18,30,69,0,0
429138,1747922537,4,5312,5300,15.58,2.35,30,69,0,0
430031,1748141300,4,5296,5200,15.6,2.21,30,69,0,0
430467,1748251066,4,5187,5028,15.53,1.82,30,69,0,0
430879,1748355087,4,5025,4914,15.56,2.32,30,70,0,0
431325,1748461134,4,4916,5042,15.62,1.81,30,70,0,0
431769,1748574720,4,5030,4914,15.58,1.91,30,70,0,0
432207,1748675084,4,4914,4914,15.64,1.8,30,70,0,0
432685,1748792393,4,4917,4957,15.61,2.09,30,70,0,0
433118,1748902161,4,4957,4957,15.7,1.85,30,70,0,0
433509,1749002954,4,4958,5014,15.63,2.25,30,70,0,0
433961,1749113137,4,5017,5257,15.61,2.45,30,70,0,0
434404,1749223234,4,5255,5157,15.7,1.94,30,70,0,0
434884,1749333112,4,5140,4828,15.61,2.18,30,70,0,0
435779,1749551902,4,4842,5214,15.78,2.99,30,70,0,0
436180,1749654055,4,5175,4414,15.92,0.47,30,70,0,0
436671,1749776916,4,4367,4028,15.94,0.88,30,70,0,0
437108,1749878604,4,3989,3042,16.08,0.06,30,70,0,0
437560,1749992753,4,2977,2371,16,0.05,30,70,0,0
438009,1750103080,4,2374,2414,16.01,0.35,30,70,0,0
438458,1750215434,4,2411,2385,16,0.19,30,70,0,0
438901,1750323379,4,2376,2271,16,0.24,30,70,0,0
439789,1750543526,4,2272,2300,16,0.23,30,70,0,0
440639,1750761753,4,2301,2328,16.02,0.28,30,70,0,0
441078,1750864326,4,2327,2314,16.01,0.24,30,70,0,0
441530,1750976303,4,2314,2328,16,0.31,30,70,0,0
441983,1751084722,4,2327,2314,16,0.26,30,70,0,0
442385,1751185388,4,2310,2257,16.03,0.25,30,70,0,0
442838,1751293139,4,2256,2242,16.03,0.26,30,70,0,0
443284,1751405253,4,2241,2228,16.03,0.24,30,70,0,0
443768,1751514374,4,2227,2214,16.04,0.24,30,70,0,0
444197,1751621708,4,2211,2171,16.12,0.13,30,70,0,0
444632,1751732712,4,2134,1757,16.08,0,30,70,0,0
445062,1751836945,4,1736,1428,16.08,0.03,30,70,0,0
445516,1751948054,4,1420,1342,16.07,0.09,30,70,0,0
445961,1752053884,4,1341,1328,16.08,0.09999999,30,70,0,0
446444,1752167657,4,1328,1328,16.08,0.09999999,30,70,0,0
446848,1752265098,4,1328,1328,16.07,0.09999999,30,70,0,0
447298,1752377494,4,1328,1328,16.08,0.09999999,30,70,0,0
447748,1752485289,4,1328,1328,16.08,0.09999999,30,70,0,0
448196,1752595776,4,1328,1328,16.08,0.09999999,30,70,0,0
448684,1752713223,4,1328,1328,16.08,0.09999999,30,70,0,0
449128,1752824529,4,1328,1328,16.09,0.09999999,30,70,0,0
449579,1752931378,4,1328,1328,16.1,0.09999999,30,70,0,0
450050,1753045079,4,1328,1328,16.1,0.09999999,30,70,0,0
450445,1753145290,4,1328,1328,16.09,0.09999999,30,70,0,0
450847,1753245354,4,1328,1328,16.1,0.09999999,30,70,0,0
451294,1753356153,4,1328,1328,16.1,0.09999999,30,70,0,0
451779,1753466170,4,1328,1328,16.1,0.09999999,30,70,0,0
452181,1753568172,4,1328,1328,16.1,0.09999999,30,70,0,0
452670,1753682765,4,1328,1328,16.1,0.09999999,30,70,0,0
453114,1753790252,4,1328,1328,16.1,0.09999999,30,70,0,0
453561,1753893542,4,1328,1328,16.11,0.09999999,30,70,0,0
454004,1753998554,4,1328,1328,16.11,0.09999999,30,70,0,0
454496,1754112374,4,1328,1328,16.11,0.09999999,30,70,0,0
454942,1754220143,4,1328,1328,16.11,0.09999999,30,70,0,0
455386,1754325550,4,1328,1328,16.11,0.09999999,30,70,0,0
455815,1754430853,4,1328,1328,16.11,0.09999999,30,70,0,0
456246,1754539354,4,1328,1328,16.11,0.09999999,30,70,0,0
456689,1754649302,4,1328,1328,16.11,0.09999999,30,70,0,0
457136,1754754790,4,1328,1328,16.11,0.09999999,30,70,0,0
457585,1754866170,4,1328,1328,16.11,0.09999999,30,70,0,0
458034,1754975587,4,1328,1328,16.11,0.09999999,30,71,0,0
458484,1755080229,4,1328,1328,16.13,0.09999999,30,71,0,0
458934,1755193157,4,1328,1328,16.11,0.09999999,30,71,0,0
459384,1755299353,4,1328,1328,16.13,0.09999999,30,71,0,0
459793,1755402364,4,1328,1328,16.13,0.09999999,30,71,0,0
460244,1755512091,4,1328,1328,16.13,0.09999999,30,71,0,0
460688,1755617776,4,1328,1328,16.13,0.09999999,30,71,0,0
461177,1755733763,4,1328,1328,16.13,0.09999999,30,71,0,0
461580,1755834511,4,1328,1328,16.13,0.09999999,30,71,0,0
462031,1755941529,4,1328,1328,16.13,0.09999999,30,71,0,0
462478,1756049137,4,1327,1314,16.13,0.09999999,30,71,0,0
462921,1756157395,4,1314,1328,16.14,0.09999999,30,71,0,0
463410,1756271327,4,1328,1328,16.14,0.09999999,30,71,0,0
463864,1756383134,4,1328,1328,16.14,0.09999999,30,71,0,0
464288,1756493169,4,1328,1328,16.14,0.09999999,30,71,0,0
464679,1756593061,4,1328,1342,16.14,0.09999999,30,71,0,0
465130,1756702953,4,1340,1328,16.14,0.09999999,30,71,0,0
465617,1756819640,4,1328,1328,16.14,0.09999999,30,71,0,0
466022,1756914781,4,1328,1328,16.14,0.09999999,30,71,0,0
466473,1757028240,4,1328,1328,16.15,0.09999999,30,71,0,0
466919,1757132315,4,1328,1328,16.14,0.09999999,30,71,0,0
467852,1757350400,4,1328,1328,16.14,0.09999999,30,71,0,0
468258,1757454386,4,1328,1328,16.15,0.09999999,30,71,0,0
468732,1757564617,4,1328,1328,16.14,0.09999999,30,71,0,0
469161,1757671059,4,1328,1328,16.16,0.09999999,30,71,0,0
469592,1757781377,4,1328,1328,16.15,0.09999999,30,71,0,0
470004,1757882061,4,1328,1328,16.15,0.09999999,30,71,0,0
470446,1757988096,4,1328,1328,16.15,0.09999999,30,71,0,0
470937,1758102308,4,1328,1328,16.16,0.09999999,30,71,0,0
471378,1758207520,4,1328,1328,16.16,0.09999999,30,71,0,0
471830,1758316604,4,1328,1328,16.15,0.09999999,30,71,0,0
472723,1758531505,4,1328,1328,16.16,0.09999999,30,71,0,0
473150,1758635613,4,1328,1328,16.15,0.09999999,30,71,0,0
473579,1758742114,4,1328,1328,16.16,0.09999999,30,71,0,0
474059,1758855201,4,1328,1328,16.16,0.09999999,30,71,0,0
474511,1758963614,4,1328,1328,16.16,0.09999999,30,71,0,0
474959,1759073165,4,1328,1328,16.16,0.09999999,30,71,0,0
475406,1759182771,4,1328,1328,16.16,0.09999999,30,71,0,0
475851,1759286929,4,1328,1328,16.16,0.09999999,30,71,0,0
476295,1759394282,4,1328,1328,16.16,0.09999999,30,71,0,0
476741,1759499746,4,1328,1328,16.16,0.09999999,30,71,0,0
477179,1759612570,4,1328,1328,16.16,0.09999999,30,71,0,0
477645,1759726234,4,1328,1328,16.17,0.09999999,30,71,0,0
478040,1759827518,4,1328,1328,16.17,0.09999999,30,71,0,0
478533,1759943576,4,1328,1328,16.17,0.09999999,30,71,0,0
478936,1760042793,4,1328,1328,16.16,0.09999999,30,71,0,0
479428,1760160256,4,1328,1328,16.16,0.09999999,30,71,0,0
479864,1760261084,4,1328,1328,16.17,0.09999999,30,71,0,0
480312,1760368521,4,1328,1328,16.16,0.09999999,30,71,0,0
480761,1760475720,4,1328,1328,16.17,0.11,30,71,0,0
481212,1760585955,4,1328,1328,16.17,0.09999999,30,71,0,0
481654,1760691757,4,1328,1328,16.17,0.09999999,30,71,0,0
482559,1760912293,4,1328,1328,16.18,0.09999999,30,71,0,0
482962,1761014937,4,1328,1328,16.17,0.09999999,30,71,0,0
483450,1761131155,4,1328,1328,16.17,0.09999999,30,71,0,0
483851,1761231536,4,1328,1328,16.17,0.11,30,71,0,0
484345,1761348831,4,1328,1328,16.17,0.09999999,30,71,0,0
484752,1761453735,4,1328,1328,16.17,0.09999999,30,71,0,0
485198,1761559339,4,1328,1328,16.18,0.09999999,30,71,0,0
485642,1761667634,4,1328,1328,16.18,0.09999999,30,71,0,0
486123,1761781585,4,1253,457,16.19,0,30,71,0,0
486572,1761886494,4,452,200,16.19,0.02,30,71,0,0
487023,1761994203,4,197,0,16.2,0.03,30,71,0,0
487520,1762109948,4,0,0,16.19,0.03,30,71,0,0
487963,1762212737,4,0,0,16.19,0.03,30,71,0,0
488462,1762328749,4,0,0,16.19,0.03,30,71,0,0
489368,1762543721,4,0,0,16.2,0.03,30,71,0,0
489763,1762644594,4,0,0,16.2,0.03,30,71,0,0
490236,1762759130,4,0,0,16.2,0.03,30,71,0,0
490686,1762866590,4,0,0,16.2,0.03,30,71,0,0
491135,1762973073,4,0,0,16.2,0.03,30,71,0,0
491587,1763079123,4,0,0,16.2,0.03,30,71,0,0
492041,1763193111,4,0,0,16.2,0.03,30,71,0,0
492492,1763297770,4,0,0,16.2,0.03,30,71,0,0
492944,1763407552,4,0,0,16.2,0.03,30,71,0,0
493395,1763510408,4,0,0,16.2,0.03,30,71,0,0
493877,1763626154,4,0,0,16.2,0.03,30,71,0,0
494310,1763730101,4,0,0,16.21,0.03,30,71,0,0
494755,1763837583,4,0,0,16.2,0.03,30,71,0,0
495253,1763953138,4,0,0,16.2,0.03,30,71,0,0
495704,1764060630,4,0,0,16.2,0.03,30,71,0,0
496152,1764166538,4,0,0,16.21,0.03,30,71,0,0
496647,1764281049,4,0,0,16.21,0.03,30,71,0,0
497548,1764492097,4,0,0,16.2,0.03,30,71,0,0
497989,1764599178,4,0,0,16.21,0.03,30,71,0,0
498460,1764711962,4,0,0,16.21,0.03,30,71,0,0
498902,1764818516,4,0,0,16.21,0.02,30,71,0,0
499360,1764926169,4,0,0,16.21,0.03,30,71,0,0
499813,1765038167,4,0,0,16.22,0.03,30,71,0,0
500710,1765249046,4,0,0,16.22,0.03,30,71,0,0
501211,1765363330,4,0,0,16.22,0.03,30,71,0,0
501636,1765468799,4,0,0,16.21,0.03,30,71,0,0
502071,1765576517,4,0,0,16.22,0.03,30,71,0,0
502522,1765681518,4,0,0,16.22,0.03,30,71,0,0
502932,1765782618,4,0,0,16.22,0.03,30,71,0,0
503436,1765900524,4,0,0,16.22,0.03,30,71,0,0
503888,1766007716,4,0,0,16.22,0.03,30,71,0,0
504384,1766121772,4,0,0,16.22,0.03,30,71,0,0
504790,1766220771,4,0,0,16.22,0.03,30,71,0,0
505287,1766333182,4,0,0,16.22,0.03,30,71,0,0
505723,1766441116,4,0,0,16.22,0.03,30,71,0,0
506155,1766546577,4,0,0,16.22,0.03,30,71,0,0
507094,1766765493,4,0,0,16.22,0.03,30,71,0,0
507503,1766863088,4,0,0,16.22,0.03,30,71,0,0
507954,1766971401,4,0,0,16.22,0.03,30,71,0,0
