LineNo,TimeUS,Instance,RPM,RawRPM,Volt,Curr,Temp,CTot,MotTemp,Err
1885,1642354265,1,0,0,16.82,0.02,30,0,0,0
2365,1642474973,1,0,0,16.82,0.01,30,0,0,0
2809,1642584566,1,0,0,16.82,0.02,30,0,0,0
3261,1642687534,1,0,0,16.82,0.02,30,0,0,0
4212,1642907132,1,0,0,16.82,0.02,30,0,0,0
4652,1643012815,1,0,0,16.82,0.02,30,0,0,0
5087,1643116328,1,0,0,16.82,0.01,30,0,0,0
5573,1643229789,1,0,0,16.82,0.02,30,0,0,0
6030,1643333950,1,0,0,16.82,0.01,30,0,0,0
6934,1643545495,1,3,614,16.8,0.08,30,0,0,0
7371,1643656972,1,632,1071,16.79,0.15,30,0,0,0
7810,1643763592,1,1078,1257,16.8,0.11,30,0,0,0
8310,1643876550,1,1260,1314,16.8,0.09999999,30,0,0,0
8761,1643980495,1,1315,1342,16.8,0.09999999,30,0,0,0
9697,1644200062,1,1342,1357,16.8,0.09,30,0,0,0
10132,1644302573,1,1357,1357,16.8,0.09,30,0,0,0
10620,1644420149,1,1355,1342,16.8,0.09,30,0,0,0
11072,1644521716,1,1342,1357,16.8,0.09,30,0,0,0
11529,1644632974,1,1357,1357,16.8,0.09,30,0,0,0
12024,1644744953,1,1357,1357,16.8,0.09,30,0,0,0
12460,1644850846,1,1357,1357,16.8,0.09,30,0,0,0
12861,1644953186,1,1357,1357,16.8,0.09,30,0,0,0
13308,1645056152,1,1357,1357,16.8,0.09,30,0,0,0
13589,1645171967,1,1357,1357,16.8,0.09999999,30,0,0,0
14049,1645280097,1,1357,1357,16.8,0.09999999,30,0,0,0
14495,1645384952,1,1357,1357,16.8,0.09999999,30,0,0,0
14974,1645497151,1,1357,1357,16.79,0.09,30,0,0,0
15412,1645601545,1,1357,1357,16.79,0.09,30,0,0,0
15868,1645706581,1,1357,1357,16.8,0.09,30,0,0,0
16365,1645820567,1,1357,1357,16.8,0.09,30,0,0,0
16823,1645927853,1,1357,1357,16.8,0.09,30,0,0,0
17257,1646030937,1,1357,1357,16.8,0.09,30,0,0,0
17696,1646137377,1,1357,1357,16.8,0.09,30,0,0,0
18151,1646248636,1,1357,1357,16.8,0.09,30,0,0,0
18572,1646354844,1,1357,1357,16.79,0.09,30,0,0,0
19070,1646468748,1,1357,1357,16.79,0.09999999,30,0,0,0
19480,1646567951,1,1357,1357,16.8,0.09,30,0,0,0
19914,1646670062,1,1357,1357,16.8,0.09,30,0,0,0
20393,1646786149,1,1357,1357,16.79,0.09,30,0,0,0
20852,1646892382,1,1357,1357,16.8,0.09,30,0,0,0
21269,1646993840,1,1357,1357,16.8,0.09,30,0,0,0
21767,1647108046,1,1357,1357,16.79,0.09,30,0,0,0
22208,1647215571,1,1357,1357,16.8,0.09,30,0,0,0
22685,1647328067,1,1357,1357,16.79,0.09,30,0,0,0
23136,1647434783,1,1357,1357,16.8,0.09,30,0,0,0
23589,1647540332,1,1356,1342,16.8,0.09999999,30,0,0,0
24082,1647654750,1,1353,1528,16.77,0.2,30,0,0,0
24541,1647761060,1,1569,2085,16.75,0.77,30,0,0,0
24976,1647867189,1,2101,2471,16.73,0.51,30,0,0,0
25415,1647974780,1,2472,2585,16.73,0.48,30,0,0,0
25912,1648087774,1,2580,2542,16.7,0.57,30,0,0,0
26402,1648201149,1,2583,3028,16.54,1.26,30,0,0,0
26857,1648307143,1,3048,3328,16.57,1.63,30,0,0,0
27297,1648416982,1,3359,3785,16.44,1.91,30,0,0,0
27733,1648523341,1,3801,4142,16.19,3.06,30,0,0,0
28181,1648635063,1,4197,4985,16.23,2.77,30,0,0,0
28641,1648744007,1,5019,5528,16.22,3.02,30,0,0,0
29095,1648856125,1,5538,5685,16.13,3.21,30,0,0,0
29978,1649071297,1,5675,5242,16.35,1.96,30,0,0,0
30456,1649190332,1,5223,5071,16.32,1.53,30,1,0,0
30911,1649295382,1,5057,4742,16.3,1.42,30,1,0,0
31365,1649407148,1,4726,4571,16.27,1.35,30,1,0,0
31816,1649511827,1,4564,4428,16.27,1.48,30,1,0,0
32767,1649737435,1,4417,3871,16.27,0.83,30,1,0,0
33203,1649844744,1,3871,3871,16.26,1.19,30,1,0,0
34125,1650061364,1,3890,4514,16.27,1.71,30,1,0,0
34573,1650168048,1,4517,4585,16.32,1.5,30,1,0,0
35071,1650283498,1,4579,4500,16.32,1.41,30,1,0,0
35516,1650393352,1,4513,4700,16.29,1.8,30,1,0,0
35950,1650497402,1,4697,4657,16.19,1.73,30,1,0,0
36391,1650610309,1,4657,4671,16.2,1.7,30,1,0,0
36847,1650717278,1,4677,4828,16.07,2.04,30,1,0,0
38164,1651035320,1,4825,4485,16.26,1.24,30,1,0,0
38666,1651149961,1,4486,4500,16.23,1.75,30,1,0,0
39102,1651259608,1,4522,4728,16.24,1.57,30,1,0,0
39526,1651359339,1,4728,4728,16.23,2.05,30,1,0,0
40025,1651476969,1,4736,4871,16.14,1.88,30,2,0,0
40478,1651587738,1,4859,4742,16.16,1.55,30,2,0,0
40931,1651693515,1,4735,4657,16.19,1.58,30,2,0,0
41384,1651803127,1,4660,4728,16.17,1.53,30,2,0,0
42319,1652031641,1,4726,4671,16.17,1.79,30,2,0,0
42749,1652139379,1,4670,4657,16.23,1.77,30,2,0,0
43192,1652251059,1,4676,4871,16.17,2.13,30,2,0,0
43637,1652364143,1,4873,4914,16.24,1.89,30,2,0,0
44042,1652467781,1,4924,5028,16.2,2.15,30,2,0,0
44519,1652584295,1,5046,5157,16.19,2.34,30,2,0,0
44932,1652681516,1,5163,5300,16.22,2.25,30,2,0,0
45337,1652785761,1,5295,5071,16.11,1.83,30,2,0,0
45860,1652910831,1,5037,4757,16.26,1.35,30,2,0,0
46688,1653125404,1,4725,4200,16.3,1.04,30,2,0,0
47093,1653231120,1,4182,3971,16.15,1.5,30,2,0,0
47586,1653351574,1,3965,3914,16.27,1.83,30,2,0,0
48017,1653452295,1,3954,4328,16.22,1.51,30,2,0,0
48461,1653561561,1,4332,4385,16.26,1.42,30,3,0,0
48868,1653662585,1,4387,4542,16.23,1.51,30,3,0,0
49324,1653776776,1,4534,4371,16.25,1.09,30,3,0,0
50253,1654008126,1,4362,4214,16.27,1.06,30,3,0,0
50660,1654106791,1,4214,4228,16.22,1.34,30,3,0,0
51070,1654217185,1,4233,4357,16.17,1.61,30,3,0,0
51969,1654439107,1,4357,4385,16.2,1.36,30,3,0,0
52374,1654542108,1,4384,4328,16.22,1.43,30,3,0,0
52769,1654643362,1,4329,4457,16.14,1.35,30,3,0,0
53199,1654755295,1,4457,4457,16.22,1.27,30,3,0,0
53641,1654864299,1,4460,4500,16.19,1.46,30,3,0,0
54049,1654970524,1,4504,4600,16.16,1.44,30,3,0,0
54537,1655086089,1,4588,4471,16.25,1.28,30,3,0,0
54944,1655189377,1,4469,4442,16.22,1.57,30,3,0,0
55435,1655305749,1,4449,4528,16.15,1.67,30,3,0,0
55877,1655407350,1,4530,4642,16.18,1.54,30,3,0,0
56330,1655522375,1,4647,4700,16.17,1.51,30,3,0,0
56761,1655633282,1,4684,4528,16.13,1.55,30,3,0,0
57193,1655741178,1,4531,4571,16.18,1.59,30,3,0,0
57591,1655839569,1,4575,4728,16.16,1.97,30,3,0,0
58091,1655962357,1,4738,4842,16.17,1.8,30,4,0,0
58494,1656066393,1,4840,4814,16.17,1.55,30,4,0,0
58943,1656179386,1,4797,4642,16.18,1.52,30,4,0,0
59382,1656278170,1,4634,4500,16.15,1.35,30,4,0,0
59827,1656389743,1,4503,4557,16.14,1.63,30,4,0,0
60282,1656502601,1,4542,4385,16.19,1.03,30,4,0,0
60670,1656600671,1,4384,4357,16.19,1.38,30,4,0,0
61178,1656721745,1,4357,4357,16.21,1.1,30,4,0,0
61576,1656824389,1,4356,4300,16.14,1.35,30,4,0,0
62061,1656938320,1,4307,4414,16.16,1.24,30,4,0,0
62471,1657046073,1,4404,4314,16.15,1.25,30,4,0,0
62923,1657159320,1,4318,4371,16.14,1.4,30,4,0,0
63370,1657270486,1,4369,4357,16.21,1.31,30,4,0,0
63815,1657382347,1,4366,4457,16.18,1.38,30,4,0,0
64220,1657482953,1,4455,4371,16.2,1.27,30,4,0,0
64664,1657592166,1,4370,4357,16.22,1.3,30,4,0,0
65157,1657707972,1,4354,4328,16.2,1.38,30,4,0,0
65553,1657807771,1,4329,4414,16.17,1.37,30,4,0,0
65979,1657915526,1,4414,4428,16.19,1.21,30,4,0,0
66898,1658138934,1,4424,4285,16.18,1.34,30,4,0,0
67309,1658245432,1,4273,4171,16.19,1.02,30,4,0,0
67755,1658352309,1,4144,3814,16.12,1.34,30,4,0,0
68155,1658453712,1,3813,3800,16.24,1.13,30,4,0,0
68625,1658574485,1,3805,3928,16.19,1.49,30,4,0,0
69036,1658675626,1,3945,4142,16.16,1.69,30,5,0,0
69483,1658788645,1,4155,4257,16.16,1.39,30,5,0,0
69884,1658887325,1,4255,4200,16.17,1.15,30,5,0,0
70332,1659001083,1,4197,4171,16.14,1.16,30,5,0,0
70781,1659109622,1,4169,4157,16.16,1.54,30,5,0,0
71224,1659217149,1,4168,4414,16.16,1.51,30,5,0,0
71674,1659326369,1,4417,4457,16.12,1.54,30,5,0,0
72081,1659432562,1,4460,4585,16.13,1.65,30,5,0,0
72992,1659659557,1,4581,4500,16.2,1.3,30,5,0,0
73393,1659759402,1,4491,4400,16.13,1.32,30,5,0,0
73836,1659866737,1,4401,4428,16.17,1.73,30,5,0,0
74284,1659979117,1,4429,4442,16.11,1.4,30,5,0,0
74688,1660076127,1,4440,4371,16.13,2.04,30,5,0,0
75589,1660299100,1,4366,4242,16.23,1.35,30,5,0,0
76022,1660407284,1,4248,4371,16.14,1.95,30,5,0,0
76458,1660515541,1,4386,4685,16.04,1.69,30,5,0,0
76901,1660630753,1,4658,4385,16.17,1.02,30,5,0,0
77794,1660846547,1,4379,4214,16.13,1.43,30,5,0,0
78647,1661059311,1,4216,4542,16.13,1.52,30,5,0,0
79087,1661167337,1,4539,4485,16.14,1.33,30,6,0,0
79537,1661276116,1,4483,4414,16.16,1.3,30,6,0,0
80432,1661498307,1,4406,4242,16.13,1.33,30,6,0,0
80835,1661600652,1,4238,4171,16.19,1.16,30,6,0,0
81287,1661709548,1,4167,4071,16.11,1.2,30,6,0,0
81771,1661824366,1,4085,4271,16.14,1.53,30,6,0,0
82220,1661933254,1,4283,4414,16.06,1.7,30,6,0,0
82623,1662036159,1,4415,4457,16.13,1.53,30,6,0,0
83109,1662148562,1,4457,4471,16.07,1.46,30,6,0,0
83549,1662256392,1,4468,4428,16.14,1.32,30,6,0,0
83996,1662367706,1,4428,4428,16.08,1.63,30,6,0,0
84445,1662476485,1,4430,4457,16.05,1.54,30,6,0,0
85298,1662688886,1,4468,4700,16.08,1.48,30,6,0,0
85703,1662792704,1,4698,4600,16.12,1.36,30,6,0,0
86152,1662900299,1,4593,4457,16.1,1.44,30,6,0,0
86627,1663016948,1,4458,4471,16.08,1.38,30,6,0,0
87020,1663119189,1,4484,4657,16.13,1.81,30,6,0,0
87458,1663227183,1,4651,4514,16.13,1.57,30,6,0,0
87907,1663336560,1,4512,4428,16.1,1.44,30,6,0,0
88391,1663453504,1,4420,4314,16.1,1.32,30,6,0,0
88841,1663562784,1,4305,4185,16.16,1.23,30,6,0,0
89287,1663675371,1,4194,4285,16.13,1.59,30,7,0,0
89733,1663785445,1,4294,4400,16.12,1.46,30,7,0,0
90176,1663890911,1,4404,4471,16.15,1.5,30,7,0,0
90624,1664003577,1,4471,4471,16.14,1.47,30,7,0,0
91075,1664112956,1,4474,4514,16.12,1.83,30,7,0,0
91472,1664210211,1,4515,4571,16.13,1.45,30,7,0,0
91924,1664321044,1,4571,4585,16.16,1.44,30,7,0,0
92369,1664431405,1,4586,4614,16.11,1.61,30,7,0,0
92818,1664542625,1,4611,4585,16.12,1.45,30,7,0,0
93217,1664641157,1,4588,4671,16.13,1.65,30,7,0,0
93670,1664752110,1,4670,4657,16.05,1.66,30,7,0,0
94115,1664862933,1,4659,4700,16.11,1.79,30,7,0,0
94562,1664974105,1,4700,4700,16.11,1.64,30,7,0,0
95014,1665084412,1,4694,4642,16.16,1.35,30,7,0,0
95864,1665297400,1,4634,4428,16.14,1.33,30,7,0,0
96265,1665397515,1,4428,4442,16.1,1.5,30,7,0,0
96762,1665517134,1,4446,4500,16.12,1.52,30,7,0,0
97170,1665617389,1,4500,4500,16.14,1.25,30,7,0,0
97618,1665728372,1,4499,4485,16.1,1.72,30,7,0,0
98061,1665844544,1,4485,4485,16.08,1.46,30,7,0,0
98516,1665953957,1,4486,4500,16.08,1.44,30,7,0,0
98957,1666064819,1,4506,4571,16.14,1.47,30,8,0,0
99407,1666173214,1,4558,4457,16.05,1.36,30,8,0,0
99809,1666270283,1,4460,4685,16.08,1.6,30,8,0,0
100296,1666393795,1,4668,4557,16.1,1.62,30,8,0,0
100747,1666503098,1,4554,4528,16.08,1.38,30,8,0,0
101147,1666605055,1,4527,4457,16.08,1.2,30,8,0,0
101597,1666714173,1,4451,4414,16.1,1.44,30,8,0,0
102443,1666920758,1,4413,4300,16.16,1.31,30,8,0,0
102938,1667041389,1,4261,3885,16.2,1.06,30,8,0,0
103390,1667154756,1,3887,3914,16.08,1.8,30,8,0,0
103831,1667260730,1,3912,3900,16.16,1.29,30,8,0,0
104275,1667373087,1,3898,3885,16.2,1.23,29,8,0,0
104715,1667474407,1,3869,3685,16.19,1.62,30,8,0,0
105121,1667576388,1,3692,4200,15.99,2.39,30,8,0,0
105569,1667681979,1,4203,4485,16.11,1.39,30,8,0,0
106508,1667913379,1,4484,4471,16.06,1.41,30,8,0,0
106912,1668013389,1,4462,4357,16.09,1.34,30,8,0,0
107320,1668117538,1,4357,4357,16.1,1.28,30,8,0,0
107723,1668217574,1,4351,4242,16.11,1,30,8,0,0
108219,1668341528,1,4238,4171,16.07,1.65,30,8,0,0
108623,1668439319,1,4189,4542,16.05,1.47,30,8,0,0
109031,1668544271,1,4535,4385,16.07,1.4,30,9,0,0
109482,1668658581,1,4362,4200,16.04,0.8100000000000001,30,9,0,0
109928,1668766139,1,4205,4328,16.05,1.73,30,9,0,0
110373,1668874245,1,4339,4571,16.03,1.42,30,9,0,0
110820,1668987805,1,4565,4485,16.04,1.28,30,9,0,0
111274,1669099873,1,4489,4542,16.04,1.41,30,9,0,0
111714,1669208502,1,4543,4585,16.02,1.4,29,9,0,0
112166,1669319528,1,4583,4500,16.06,1.61,30,9,0,0
112613,1669432128,1,4506,4600,16.09,1.37,30,9,0,0
113061,1669541494,1,4567,4257,16.07,1.18,30,9,0,0
113468,1669644509,1,4266,4400,16.08,1.43,29,9,0,0
114363,1669865369,1,4401,4428,16.07,1.65,29,9,0,0
114770,1669967961,1,4429,4514,16.13,1.35,29,9,0,0
115215,1670076485,1,4512,4428,16.13,1.1,29,9,0,0
115657,1670185233,1,4426,4385,16.14,1.3,30,9,0,0
116108,1670295641,1,4389,4471,16.13,1.54,29,9,0,0
116565,1670411533,1,4467,4428,16.13,1.42,29,9,0,0
117006,1670512137,1,4430,4528,16.13,1.57,29,9,0,0
117460,1670628769,1,4522,4471,16.12,1.34,29,9,0,0
117908,1670734080,1,4477,4571,16.17,1.47,29,9,0,0
118357,1670847076,1,4561,4414,16.12,1.31,29,9,0,0
118847,1670968125,1,4394,4242,16.15,1.08,29,9,0,0
119248,1671062489,1,4241,4214,16.14,1.09,29,10,0,0
119735,1671179245,1,4220,4314,16.03,1.96,29,10,0,0
120148,1671282980,1,4323,4928,16.01,2.47,29,10,0,0
120591,1671390845,1,4931,5000,15.94,1.94,29,10,0,0
121039,1671496612,1,5001,5142,15.91,2.22,29,10,0,0
121523,1671613286,1,5138,5100,16.01,1.74,29,10,0,0
121932,1671714050,1,5091,4900,16.07,1.78,29,10,0,0
122379,1671827142,1,4898,4885,16.07,1.6,29,10,0,0
122836,1671938782,1,4877,4800,16.08,1.5,29,10,0,0
123277,1672045978,1,4790,4700,16.09,1.3,29,10,0,0
123682,1672147744,1,4697,4557,16.12,1.19,29,10,0,0
124124,1672255377,1,4548,4357,16.07,1.37,29,10,0,0
124572,1672367253,1,4357,4400,16.05,1.48,29,10,0,0
125027,1672476400,1,4400,4400,16.08,1.25,29,10,0,0
125433,1672579398,1,4407,4557,16.09,1.46,29,10,0,0
125930,1672695946,1,4569,4700,16.09,1.62,29,10,0,0
126376,1672805935,1,4704,4771,16.03,1.65,29,10,0,0
126822,1672911390,1,4778,5071,16.04,2.04,29,10,0,0
127271,1673026047,1,5061,4928,16.04,2.01,29,10,0,0
127724,1673136134,1,4924,4885,16.02,1.55,29,10,0,0
128167,1673245163,1,4868,4700,16.03,1.46,29,10,0,0
128578,1673347370,1,4699,4671,15.92,1.64,29,11,0,0
129061,1673464802,1,4667,4628,15.98,1.49,29,11,0,0
129463,1673565510,1,4626,4600,16,1.51,29,11,0,0
129919,1673680856,1,4598,4571,16.01,1.32,29,11,0,0
130400,1673793122,1,4567,4528,15.98,1.53,29,11,0,0
130854,1673905092,1,4528,4528,15.97,1.27,29,11,0,0
131304,1674017964,1,4525,4500,15.97,1.36,29,11,0,0
131715,1674120953,1,4503,4557,15.97,1.3,29,11,0,0
132162,1674235331,1,4540,4371,16.01,1.19,29,11,0,0
132572,1674337166,1,4368,4342,16.02,1.18,29,11,0,0
132971,1674439722,1,4342,4371,15.92,1.41,29,11,0,0
133904,1674664584,1,4399,4985,15.88,2.2,29,11,0,0
134310,1674768247,1,4985,5000,15.92,2.21,29,11,0,0
134800,1674882771,1,5027,5300,15.94,2.41,29,11,0,0
135207,1674988510,1,5294,5242,15.97,2.08,29,11,0,0
136067,1675202163,1,5228,4928,15.99,1.72,29,11,0,0
136512,1675308723,1,4917,4771,15.99,1.64,29,11,0,0
136959,1675419391,1,4775,4842,15.93,1.81,29,11,0,0
137410,1675537806,1,4840,4828,16,1.96,29,12,0,0
137818,1675634343,1,4828,4842,16.01,1.8,29,12,0,0
138311,1675758539,1,4807,4628,16.05,1.31,29,12,0,0
139202,1675972740,1,4623,4528,16.08,2.01,29,12,0,0
139616,1676072165,1,4533,4600,16.07,1.66,29,12,0,0
140017,1676174133,1,4600,4628,16.11,1.57,29,12,0,0
140501,1676287631,1,4629,4657,16.07,1.66,29,12,0,0
140986,1676407353,1,4647,4528,16.09,1.27,29,12,0,0
141435,1676521135,1,4526,4514,15.99,1.35,29,12,0,0
141848,1676621175,1,4513,4500,16.09,1.44,29,12,0,0
142293,1676729628,1,4503,4685,16.01,1.98,29,12,0,0
142745,1676844520,1,4697,4985,15.94,2.26,29,12,0,0
143194,1676955118,1,4982,4785,16.05,1.39,29,12,0,0
143638,1677064955,1,4764,4528,16.04,1.26,29,12,0,0
144532,1677284339,1,4523,4400,15.96,1.83,29,12,0,0
144974,1677397285,1,4409,4542,15.97,1.88,29,12,0,0
145426,1677509900,1,4539,4514,16,1.43,29,12,0,0
146320,1677728199,1,4519,4657,16,1.91,29,13,0,0
146729,1677835350,1,4659,4842,15.9,2.19,29,13,0,0
147176,1677942504,1,4847,5085,15.97,2.12,29,13,0,0
148112,1678175106,1,5084,5071,15.94,1.95,29,13,0,0
148516,1678274165,1,5066,4900,16.03,1.57,29,13,0,0
148959,1678383118,1,4896,4842,15.96,1.73,29,13,0,0
149408,1678491966,1,4846,4900,15.95,1.74,29,13,0,0
149858,1678607237,1,4889,4785,15.94,1.64,29,13,0,0
150259,1678703507,1,4787,4871,15.91,1.99,29,13,0,0
150708,1678815528,1,4866,4814,15.97,1.34,29,13,0,0
151160,1678927157,1,4815,4828,15.96,1.95,29,13,0,0
151567,1679026549,1,4830,4942,15.86,1.94,29,13,0,0
152058,1679143601,1,4971,5271,15.91,2.61,29,13,0,0
152460,1679246393,1,5271,5300,15.9,2.45,29,13,0,0
152903,1679354635,1,5301,5400,15.92,2.24,29,13,0,0
153352,1679462153,1,5398,5385,15.87,2.29,29,13,0,0
153760,1679568164,1,5373,5214,15.95,2.19,29,14,0,0
154174,1679675524,1,5216,5314,15.95,2.19,29,14,0,0
154610,1679782607,1,5314,5314,15.92,2.54,29,14,0,0
155044,1679893255,1,5314,5357,15.89,2.43,29,14,0,0
155515,1680009289,1,5358,5371,15.89,2.5,29,14,0,0
156819,1680332575,1,5372,5485,15.97,2.5,29,14,0,0
157264,1680441971,1,5481,5442,15.9,2.59,29,14,0,0
157678,1680544755,1,5441,5428,15.91,2.35,29,14,0,0
158128,1680656171,1,5412,5257,15.94,2,29,14,0,0
158577,1680768372,1,5247,5142,15.88,2.14,29,14,0,0
159025,1680874590,1,5138,5100,15.86,2.24,29,14,0,0
159469,1680985922,1,5102,5128,15.86,2.27,29,14,0,0
159872,1681084160,1,5130,5157,15.91,2.17,29,15,0,0
160322,1681198158,1,5160,5200,15.95,2.27,29,15,0,0
160726,1681295736,1,5199,5185,15.95,2,29,15,0,0
161171,1681406480,1,5178,5085,15.94,1.95,29,15,0,0
161619,1681512601,1,5085,5114,15.88,2.17,29,15,0,0
162056,1681619128,1,5116,5157,15.87,2.22,29,15,0,0
162512,1681731239,1,5155,5128,15.91,2.32,29,15,0,0
162949,1681836516,1,5129,5157,15.87,2.33,29,15,0,0
163396,1681945488,1,5154,5128,15.95,2.05,29,15,0,0
163844,1682056271,1,5130,5171,15.92,2.21,29,15,0,0
164288,1682168583,1,5179,5271,15.94,2.48,29,15,0,0
164701,1682271700,1,5272,5300,15.92,2.47,29,15,0,0
165140,1682383387,1,5298,5285,15.92,2.23,29,15,0,0
165574,1682492542,1,5294,5414,15.89,2.48,29,15,0,0
166000,1682600354,1,5414,5428,15.91,2.6,29,16,0,0
166447,1682710325,1,5434,5528,15.95,2.77,29,16,0,0
166892,1682821765,1,5533,5614,15.95,2.67,29,16,0,0
167341,1682932189,1,5596,5428,15.92,2.47,29,16,0,0
167746,1683032295,1,5427,5414,15.88,2.43,29,16,0,0
168235,1683147473,1,5407,5314,15.94,2.17,29,16,0,0
168683,1683258582,1,5310,5228,15.89,2.11,29,16,0,0
169128,1683368124,1,5229,5257,15.89,2.4,29,16,0,0
169543,1683473373,1,5261,5300,15.86,2.6,29,16,0,0
169952,1683583059,1,5301,5328,15.85,2.41,29,16,0,0
170400,1683691748,1,5321,5257,15.87,2.24,29,16,0,0
170800,1683793764,1,5256,5228,15.91,2.19,29,16,0,0
171256,1683906929,1,5224,5042,15.85,1.79,29,16,0,0
171705,1684018089,1,5048,5114,15.94,2.17,29,16,0,0
172187,1684130947,1,5107,5042,15.95,1.86,29,16,0,0
172586,1684230572,1,5037,4985,15.95,2,29,17,0,0
173033,1684339370,1,4993,5114,15.88,2.4,29,17,0,0
173483,1684449842,1,5114,5114,15.89,2.29,29,17,0,0
173886,1684554387,1,5112,4985,15.92,1.92,29,17,0,0
174311,1684661610,1,4991,5071,15.93,2,29,17,0,0
174784,1684781968,1,5067,5028,15.94,1.56,29,17,0,0
175192,1684883398,1,5001,4742,15.93,1.37,29,17,0,0
175635,1684989568,1,4732,4600,15.95,1.51,29,17,0,0
176084,1685100077,1,4594,4542,15.89,1.36,29,17,0,0
176528,1685211758,1,4535,4471,15.95,1.37,29,17,0,0
176973,1685318132,1,4475,4542,15.95,1.4,29,17,0,0
177423,1685426885,1,4543,4571,16,1.26,29,17,0,0
177879,1685538082,1,4561,4457,15.97,1.5,29,17,0,0
178313,1685640628,1,4464,4614,15.96,1.56,29,17,0,0
178767,1685750787,1,4625,4771,15.94,1.81,29,17,0,0
179212,1685862629,1,4796,5057,15.88,2.02,29,17,0,0
179617,1685966537,1,5055,4942,15.95,1.89,29,17,0,0
180063,1686076625,1,4943,4971,15.92,1.61,29,17,0,0
180502,1686183610,1,4964,4842,15.95,1.65,29,18,0,0
180957,1686298565,1,4840,4828,16,1.75,29,18,0,0
181353,1686402287,1,4836,4942,15.85,2.13,29,18,0,0
181787,1686514051,1,4948,5042,15.82,2.3,29,18,0,0
182184,1686617508,1,5044,5171,15.88,2.01,29,18,0,0
182633,1686726588,1,5168,5000,15.92,1.77,29,18,0,0
183076,1686835165,1,5000,5000,15.88,1.8,29,18,0,0
183527,1686942391,1,5000,5014,15.91,2.09,29,18,0,0
183970,1687059165,1,5018,5057,15.87,2.2,29,18,0,0
184423,1687166923,1,5064,5114,15.89,1.94,29,18,0,0
184821,1687269355,1,5105,4871,15.93,1.73,29,18,0,0
185262,1687378380,1,4858,4657,15.91,1.34,29,18,0,0
185713,1687491308,1,4639,4457,15.94,1.31,29,18,0,0
186122,1687593860,1,4457,4471,15.88,1.41,29,18,0,0
186572,1687697982,1,4471,4471,15.92,1.39,29,18,0,0
187017,1687814327,1,4472,4485,15.89,1.74,29,18,0,0
187471,1687927372,1,4490,4542,15.94,1.59,29,18,0,0
187871,1688034736,1,4556,4657,15.98,1.51,29,18,0,0
188290,1688134725,1,4656,4642,15.95,1.56,29,18,0,0
189635,1688472072,1,4640,4585,15.99,1.39,29,19,0,0
190038,1688578541,1,4591,4700,15.95,1.7,29,19,0,0
190486,1688688056,1,4697,4642,15.94,1.76,29,19,0,0
190933,1688795708,1,4646,4857,15.97,2.03,29,19,0,0
191381,1688900724,1,4859,4957,15.94,2.13,29,19,0,0
191832,1689017409,1,4970,5100,15.86,2.01,29,19,0,0
192238,1689117780,1,5098,5014,15.95,1.77,29,19,0,0
192719,1689235626,1,5005,4914,15.82,1.73,29,19,0,0
193120,1689335197,1,4915,4942,15.84,1.79,29,19,0,0
193554,1689443635,1,4924,4671,15.99,1.5,29,19,0,0
193980,1689555100,1,4666,4628,15.95,1.45,29,19,0,0
194431,1689667711,1,4638,4742,15.93,1.55,29,19,0,0
194875,1689775611,1,4739,4714,15.93,1.67,29,19,0,0
195281,1689874559,1,4712,4657,15.94,1.57,29,19,0,0
195733,1689986734,1,4661,4771,15.88,1.73,29,19,0,0
196180,1690099408,1,4769,4757,15.99,1.63,29,19,0,0
196580,1690200122,1,4754,4642,15.9,1.59,29,19,0,0
197031,1690311784,1,4652,4871,15.95,1.88,29,19,0,0
197446,1690422007,1,4867,4814,15.86,1.65,29,20,0,0
197898,1690530264,1,4821,4942,15.91,2.01,29,20,0,0
198336,1690637252,1,4942,4985,15.92,1.96,29,20,0,0
198781,1690747403,1,4985,4985,15.88,1.9,29,20,0,0
199215,1690858587,1,4985,5028,15.85,2.11,29,20,0,0
199642,1690966132,1,5029,5042,15.87,1.97,29,20,0,0
200087,1691074569,1,5043,5071,15.92,2.29,29,20,0,0
200531,1691184611,1,5072,5085,15.86,2.09,29,20,0,0
200937,1691286595,1,5082,5057,15.9,1.83,29,20,0,0
201389,1691402077,1,5046,4957,15.89,1.87,29,20,0,0
201794,1691500314,1,4958,5028,15.93,2.03,29,20,0,0
202237,1691610531,1,5025,4842,15.89,1.63,29,20,0,0
202727,1691727345,1,4845,4885,15.95,1.77,29,20,0,0
203136,1691835343,1,4883,4871,15.91,1.8,29,20,0,0
203544,1691934265,1,4871,4885,15.94,1.82,29,20,0,0
203991,1692047058,1,4883,4871,15.95,1.87,29,20,0,0
204475,1692159078,1,4878,4957,15.89,1.75,29,20,0,0
204856,1692261357,1,4953,4800,15.95,1.69,29,20,0,0
205246,1692369737,1,4783,4457,15.93,1.26,29,21,0,0
205693,1692474504,1,4471,4971,15.87,2.2,29,21,0,0
206141,1692588232,1,4972,5000,15.91,1.94,29,21,0,0
206633,1692705174,1,5010,5128,15.9,1.97,29,21,0,0
207071,1692812348,1,5118,5028,15.88,2.07,29,21,0,0
207525,1692922523,1,5029,5042,15.91,2.18,29,21,0,0
207926,1693023956,1,5042,5085,15.94,1.86,29,21,0,0
208417,1693141585,1,5064,4785,15.95,1.4,29,21,0,0
208859,1693252384,1,4786,4800,15.91,1.73,29,21,0,0
209677,1693456111,1,4801,4971,15.79,2.1,29,21,0,0
210122,1693573050,1,4987,5157,15.81,2.36,29,21,0,0
210525,1693672769,1,5164,5500,15.79,3.05,29,21,0,0
211426,1693892389,1,5502,5571,15.79,2.32,29,21,0,0
211871,1694003112,1,5550,5342,15.82,2.09,29,22,0,0
212317,1694108950,1,5335,5185,15.78,2.17,29,22,0,0
212761,1694219312,1,5172,5000,15.9,1.61,29,22,0,0
213208,1694327606,1,4990,4742,15.93,1.42,29,22,0,0
214064,1694543349,1,4742,4742,15.91,1.85,29,22,0,0
214487,1694650543,1,4743,4814,15.91,1.77,29,22,0,0
214955,1694771302,1,4827,4942,15.94,1.73,29,22,0,0
215364,1694872496,1,4940,4900,15.92,1.97,29,22,0,0
215811,1694986858,1,4897,4857,15.92,1.62,29,22,0,0
216262,1695098803,1,4830,4542,15.91,1.27,29,22,0,0
216668,1695202572,1,4549,4742,15.92,1.71,29,22,0,0
217154,1695317572,1,4760,4957,15.88,2.06,29,22,0,0
217599,1695427347,1,4970,5157,15.93,2.26,29,22,0,0
218047,1695534118,1,5150,5085,15.86,1.75,29,22,0,0
218447,1695635061,1,5081,5000,15.9,1.92,29,22,0,0
218900,1695746605,1,4990,4742,15.82,1.31,28,22,0,0
219339,1695854383,1,4738,4514,15.96,1.27,29,22,0,0
219833,1695976499,1,4508,4457,15.86,1.5,29,22,0,0
220233,1696074298,1,4452,4371,15.86,1.67,29,23,0,0
220717,1696194302,1,4382,4485,15.87,1.55,29,23,0,0
221168,1696307104,1,4490,4528,15.82,1.71,29,23,0,0
221573,1696407086,1,4529,4571,15.84,1.42,29,23,0,0
222022,1696516838,1,4554,4357,15.89,1.25,29,23,0,0
222452,1696625505,1,4356,4285,15.87,1.29,29,23,0,0
222924,1696746793,1,4275,4171,15.83,1.75,29,23,0,0
223357,1696853195,1,4183,4285,15.9,1.31,29,23,0,0
223764,1696950346,1,4284,4228,15.9,1.43,29,23,0,0
224208,1697065134,1,4236,4357,15.85,1.55,29,23,0,0
224687,1697179110,1,4353,4314,15.86,1.46,29,23,0,0
225985,1697499247,1,4319,4485,15.9,1.31,29,23,0,0
226426,1697607534,1,4489,4528,15.92,1.43,29,23,0,0
226871,1697715147,1,4525,4485,15.77,1.57,29,23,0,0
227228,1697812637,1,4487,4657,15.86,1.7,29,23,0,0
227659,1697917106,1,4658,4700,15.92,1.93,29,23,0,0
228093,1698027827,1,4700,4700,15.79,1.98,29,23,0,0
228579,1698145622,1,4705,4757,15.91,2,29,23,0,0
229017,1698252841,1,4771,4914,15.79,2.06,29,23,0,0
229425,1698348356,1,4911,4742,15.88,1.78,28,23,0,0
229906,1698467315,1,4746,4785,15.89,1.67,29,24,0,0
230351,1698574476,1,4766,4542,15.87,1.57,29,24,0,0
230796,1698684578,1,4528,4228,15.9,1.36,29,24,0,0
231204,1698790805,1,4215,4114,15.91,1.07,29,24,0,0
232082,1699006958,1,4116,4157,15.92,1.12,28,24,0,0
232513,1699117140,1,4153,4114,15.94,0.95,28,24,0,0
232902,1699214166,1,4114,4142,15.94,1.25,29,24,0,0
233393,1699331769,1,4142,4142,15.92,1.24,29,24,0,0
233799,1699435773,1,4152,4385,15.91,1.58,29,24,0,0
234250,1699548564,1,4386,4485,15.91,1.39,29,24,0,0
235146,1699771492,1,4481,4428,15.87,1.33,29,24,0,0
235561,1699874512,1,4428,4428,15.86,1.44,28,24,0,0
235958,1699974070,1,4428,4457,15.92,1.54,29,24,0,0
236405,1700078784,1,4458,4542,15.91,1.6,28,24,0,0
237266,1700297058,1,4535,4371,15.88,1.2,28,24,0,0
237710,1700411244,1,4354,4185,15.92,1.25,29,24,0,0
238115,1700506729,1,4194,4300,15.89,1.35,29,24,0,0
238523,1700616482,1,4297,4271,15.84,1.45,28,24,0,0
239016,1700733316,1,4276,4357,15.91,1.27,29,24,0,0
239418,1700835510,1,4359,4414,15.88,1.55,29,24,0,0
239870,1700950631,1,4418,4471,15.9,1.47,28,25,0,0
240308,1701058365,1,4468,4442,15.94,1.38,29,25,0,0
240752,1701168976,1,4439,4400,15.91,1.09,29,25,0,0
241176,1701279587,1,4410,4557,15.9,1.62,28,25,0,0
241610,1701392607,1,4560,4600,15.94,1.51,28,25,0,0
242011,1701489640,1,4596,4471,15.89,1.5,28,25,0,0
242455,1701599714,1,4479,4614,15.92,1.52,29,25,0,0
242904,1701709972,1,4612,4585,15.86,1.52,28,25,0,0
243359,1701828805,1,4562,4357,15.94,1.17,28,25,0,0
243806,1701935105,1,4350,4214,15.98,1.04,28,25,0,0
244212,1702039479,1,4222,4300,15.96,1.4,28,25,0,0
245048,1702254629,1,4299,4242,15.93,1.14,28,25,0,0
245480,1702363540,1,4243,4271,15.98,1.13,28,25,0,0
246360,1702583387,1,4266,4157,16,1.18,28,25,0,0
246811,1702691784,1,4161,4214,15.97,1.24,28,25,0,0
247212,1702793765,1,4211,4100,15.95,1.39,28,25,0,0
247707,1702912695,1,4107,4214,15.97,1.49,28,25,0,0
248155,1703023407,1,4218,4257,15.9,1.83,28,25,0,0
248602,1703132591,1,4259,4285,15.93,1.7,28,25,0,0
248988,1703233101,1,4284,4257,15.91,1.32,28,25,0,0
249457,1703349221,1,4249,4171,15.98,1.1,28,25,0,0
249857,1703450094,1,4161,3971,15.94,1.25,28,25,0,0
250301,1703562088,1,3977,4128,15.9,1.44,28,25,0,0
250792,1703678577,1,4139,4271,15.89,1.56,28,26,0,0
251198,1703781332,1,4271,4285,15.89,1.48,28,26,0,0
251690,1703897368,1,4289,4357,15.88,1.49,28,26,0,0
252094,1704001160,1,4364,4514,15.86,1.7,28,26,0,0
252540,1704107134,1,4517,4585,15.78,1.86,28,26,0,0
253017,1704220158,1,4591,4685,15.83,1.73,28,26,0,0
253474,1704332124,1,4703,4900,15.82,2.07,28,26,0,0
253915,1704441322,1,4905,4985,15.76,2.33,28,26,0,0
254318,1704541798,1,4983,4957,15.85,1.82,28,26,0,0
254755,1704647116,1,4957,4985,15.84,1.87,28,26,0,0
255251,1704771547,1,4943,4400,15.92,1.25,28,26,0,0
255650,1704867378,1,4392,3971,15.97,1.12,28,26,0,0
256547,1705089780,1,3963,3800,15.96,1.36,28,26,0,0
256989,1705198338,1,3807,3971,15.95,1.33,28,26,0,0
257442,1705309407,1,3966,3914,15.92,1.59,28,26,0,0
257837,1705410349,1,3921,4085,15.95,1.9,28,26,0,0
258306,1705527159,1,4077,4000,15.93,1.54,28,26,0,0
258702,1705627327,1,4010,4200,15.92,1.28,28,26,0,0
259153,1705739095,1,4201,4228,15.92,1.33,28,26,0,0
259598,1705848379,1,4236,4400,15.9,1.57,28,26,0,0
260045,1705960238,1,4407,4485,15.92,1.68,28,27,0,0
260455,1706064304,1,4479,4400,15.94,1.29,28,27,0,0
260864,1706165121,1,4393,4114,15.92,1.04,28,27,0,0
261327,1706281177,1,4115,4128,15.9,1.03,28,27,0,0
261714,1706382510,1,4127,4100,15.92,1.27,28,27,0,0
262197,1706494181,1,4090,3971,15.94,1.54,28,27,0,0
262603,1706600109,1,3971,3985,15.95,1.27,29,27,0,0
263054,1706711539,1,3998,4185,15.94,1.76,28,27,0,0
263545,1706832336,1,4203,4414,15.92,1.67,28,27,0,0
263991,1706937116,1,4421,4500,15.86,1.62,28,27,0,0
264400,1707042576,1,4510,4614,15.87,1.8,28,27,0,0
264846,1707149564,1,4615,4671,15.86,1.35,28,27,0,0
265323,1707264753,1,4678,4785,15.73,2.25,28,27,0,0
265731,1707369897,1,4793,4914,15.8,1.82,28,27,0,0
266179,1707479311,1,4914,4928,15.79,2.23,28,27,0,0
266582,1707583614,1,4927,4885,15.81,1.48,28,27,0,0
267110,1707708216,1,4885,4885,15.86,1.79,28,27,0,0
267512,1707804952,1,4880,4785,15.83,1.71,28,27,0,0
267921,1707908291,1,4783,4714,15.8,2,28,27,0,0
268355,1708017081,1,4717,4900,15.78,2.08,28,27,0,0
268824,1708134317,1,4900,4900,15.76,1.86,28,27,0,0
269258,1708251107,1,4892,4842,15.81,1.88,28,28,0,0
269669,1708347564,1,4836,4742,15.83,1.66,28,28,0,0
270112,1708465957,1,4752,4828,15.82,1.74,28,28,0,0
270557,1708574370,1,4831,4871,15.8,1.77,28,28,0,0
271005,1708687984,1,4863,4800,15.82,1.87,28,28,0,0
271456,1708803106,1,4794,4742,15.81,1.77,28,28,0,0
271862,1708898978,1,4742,4757,15.79,1.8,28,28,0,0
272309,1709014198,1,4750,4685,15.84,1.54,28,28,0,0
272757,1709120196,1,4685,4685,15.85,1.65,28,28,0,0
273619,1709337726,1,4683,4642,15.79,1.73,28,28,0,0
274013,1709438547,1,4645,4771,15.78,1.78,28,28,0,0
274464,1709546044,1,4771,4842,15.73,1.97,28,28,0,0
274905,1709659494,1,4844,4900,15.83,2.01,28,28,0,0
275838,1709883965,1,4898,4871,15.68,2.09,28,28,0,0
277212,1710221183,1,4878,5128,15.83,2.18,28,29,0,0
277662,1710330309,1,5121,5057,15.85,1.76,28,29,0,0
278065,1710429597,1,5055,4957,15.81,2,28,29,0,0
278557,1710544630,1,4959,4985,15.77,2.11,28,29,0,0
278939,1710642363,1,4988,5128,15.75,2.24,28,29,0,0
279411,1710760326,1,5121,5057,15.79,2.07,28,29,0,0
279807,1710862067,1,5052,4971,15.83,1.77,28,29,0,0
280256,1710976006,1,4955,4828,15.83,1.63,28,29,0,0
280657,1711076802,1,4828,4842,15.79,1.98,28,29,0,0
281106,1711192064,1,4855,5000,15.78,2.02,28,29,0,0
281558,1711301620,1,4998,4985,15.76,1.85,28,29,0,0
281965,1711408272,1,4985,5000,15.82,1.93,28,29,0,0
282416,1711519526,1,4988,4900,15.81,1.87,28,29,0,0
282814,1711617800,1,4902,4957,15.77,2.33,28,29,0,0
283265,1711728174,1,4972,5200,15.75,2.52,28,29,0,0
283675,1711834381,1,5205,5328,15.79,2.45,28,30,0,0
284120,1711940742,1,5319,5000,15.76,1.96,28,30,0,0
284551,1712053305,1,5000,5014,15.86,1.79,28,30,0,0
284979,1712166331,1,5008,4942,15.75,2.1,28,30,0,0
285430,1712273270,1,4926,4685,15.82,1.48,28,30,0,0
285876,1712383704,1,4674,4571,15.89,1.64,28,30,0,0
286324,1712491961,1,4578,4685,15.86,1.85,28,30,0,0
286774,1712606409,1,4694,4785,15.85,2.56,28,30,0,0
287176,1712705294,1,4787,4814,15.87,1.72,28,30,0,0
287580,1712807436,1,4807,4500,15.9,1.47,28,30,0,0
288064,1712919114,1,4495,4414,15.94,1.5,28,30,0,0
288512,1713032787,1,4458,4900,15.94,1.86,28,30,0,0
288963,1713141566,1,4845,4314,15.91,0.76,28,30,0,0
289361,1713241736,1,4305,3800,15.98,1.07,28,30,0,0
289852,1713362140,1,3794,3757,15.96,2.33,28,30,0,0
290695,1713575099,1,3772,4114,15.76,2.65,28,30,0,0
291159,1713687318,1,4097,3928,15.79,2.1,28,30,0,0
291546,1713787599,1,3928,3942,15.85,1.6,28,30,0,0
292039,1713903957,1,3913,3500,15.81,1.53,28,31,0,0
292446,1714009957,1,3545,4142,15.86,2.55,28,31,0,0
292895,1714120594,1,4157,4357,15.9,1.74,28,31,0,0
293339,1714229142,1,4364,4514,15.86,1.82,28,31,0,0
293784,1714337594,1,4515,4542,15.79,1.83,28,31,0,0
294228,1714450126,1,4549,4657,15.87,1.69,28,31,0,0
294678,1714566337,1,4646,4528,15.83,1.06,28,31,0,0
295116,1714667939,1,4498,4214,15.93,1,28,31,0,0
295563,1714779289,1,4208,4157,15.78,1.62,28,31,0,0
295989,1714886105,1,4154,4100,15.89,1.8,28,31,0,0
296425,1714998341,1,4116,4357,15.85,1.27,28,31,0,0
296876,1715109862,1,4346,4242,15.86,1.57,28,31,0,0
297282,1715214396,1,4257,4485,15.86,1.72,28,31,0,0
297731,1715323290,1,4489,4528,15.88,1.6,28,31,0,0
298130,1715425649,1,4531,4614,15.86,1.39,28,31,0,0
298615,1715537539,1,4608,4528,15.76,1.57,28,31,0,0
299016,1715638788,1,4525,4371,15.76,1.64,28,31,0,0
299503,1715752740,1,4376,4457,15.86,1.76,28,31,0,0
299951,1715865974,1,4455,4442,15.83,1.49,28,31,0,0
300397,1715978558,1,4444,4471,15.87,1.23,28,31,0,0
300801,1716077399,1,4464,4385,15.89,1.2,28,31,0,0
301239,1716190112,1,4364,4171,15.93,0.98,28,31,0,0
301630,1716290046,1,4173,4328,15.87,1.22,28,32,0,0
302096,1716406099,1,4327,4314,15.89,1.3,28,32,0,0
302545,1716514335,1,4315,4328,15.88,1.32,28,32,0,0
302945,1716616342,1,4328,4342,15.93,1.09,28,32,0,0
303397,1716725566,1,4339,4285,15.78,1.36,28,32,0,0
303798,1716826006,1,4286,4357,15.81,1.57,28,32,0,0
304290,1716945292,1,4347,4242,15.89,1.1,28,32,0,0
304692,1717047672,1,4240,4185,15.95,1.21,28,32,0,0
305137,1717155244,1,4183,4085,15.94,1.2,28,32,0,0
305579,1717269109,1,4092,4300,15.89,1.61,28,32,0,0
306020,1717377139,1,4311,4600,15.92,1.66,28,32,0,0
306508,1717493784,1,4616,4800,15.89,1.48,28,32,0,0
306917,1717597350,1,4800,4800,15.84,1.6,28,32,0,0
307367,1717706157,1,4797,4757,15.89,1.39,28,32,0,0
307780,1717813149,1,4759,4814,15.86,1.66,28,32,0,0
308227,1717922460,1,4811,4714,15.85,1.34,28,32,0,0
308660,1718032645,1,4700,4528,15.87,1.23,28,32,0,0
309090,1718145357,1,4525,4500,15.89,1.22,28,32,0,0
309491,1718246390,1,4483,4271,15.88,0.98,28,32,0,0
309939,1718356316,1,4267,4214,15.83,1.06,28,32,0,0
310386,1718470193,1,4219,4271,15.85,1.16,28,32,0,0
310792,1718565967,1,4273,4328,15.91,1.27,28,32,0,0
311276,1718692383,1,4322,4285,15.89,1.21,28,32,0,0
311672,1718780838,1,4285,4300,15.83,1.13,28,32,0,0
312165,1718907096,1,4279,4142,15.91,1.31,28,32,0,0
312933,1719125048,1,4150,4285,15.87,1.59,28,33,0,0
313344,1719229094,1,4306,4500,15.86,1.57,28,33,0,0
313792,1719333970,1,4479,4185,15.91,0.79,28,33,0,0
314215,1719442950,1,4175,3971,15.83,1.44,28,33,0,0
314646,1719555639,1,3992,4342,15.9,1.61,28,33,0,0
315080,1719665580,1,4345,4528,15.9,1.64,28,33,0,0
315533,1719783146,1,4532,4571,15.87,1.87,28,33,0,0
315980,1719889600,1,4588,4742,15.88,1.87,28,33,0,0
316420,1719993070,1,4748,4857,15.89,1.69,28,33,0,0
316868,1720102530,1,4848,4685,15.88,1.53,28,33,0,0
317313,1720216600,1,4686,4700,15.88,1.41,28,33,0,0
317796,1720329207,1,4695,4642,15.88,1.57,28,33,0,0
318210,1720435385,1,4651,4785,15.87,1.72,28,33,0,0
318657,1720541948,1,4784,4771,15.87,1.78,28,33,0,0
319105,1720658050,1,4769,4757,15.87,1.55,28,33,0,0
319588,1720771942,1,4767,4871,15.83,1.69,28,33,0,0
319994,1720871311,1,4857,4742,15.83,1.45,28,33,0,0
320439,1720982475,1,4733,4557,15.85,1.34,28,33,0,0
320843,1721080749,1,4554,4471,15.86,1.44,28,33,0,0
321286,1721191495,1,4466,4300,15.86,1.05,28,33,0,0
322188,1721417279,1,4294,4142,15.89,1.22,28,34,0,0
322636,1721524080,1,4145,4200,15.88,1.36,28,34,0,0
323525,1721740952,1,4203,4285,15.84,1.21,28,34,0,0
323929,1721843531,1,4285,4328,15.82,1.49,28,34,0,0
324824,1722063610,1,4330,4657,15.86,1.46,28,34,0,0
325271,1722174622,1,4654,4500,15.92,1.2,28,34,0,0
325760,1722291570,1,4485,4271,15.88,0.96,28,34,0,0
326161,1722394103,1,4257,3971,15.88,1.18,28,34,0,0
326654,1722513562,1,3968,3942,15.83,1.64,28,34,0,0
327101,1722623511,1,3954,4071,15.86,1.89,28,34,0,0
327503,1722721388,1,4076,4371,15.88,1.84,28,34,0,0
327953,1722834761,1,4376,4428,15.88,1.08,28,34,0,0
328408,1722943603,1,4420,4328,15.9,1.35,28,34,0,0
328850,1723053171,1,4330,4357,15.91,1.12,28,34,0,0
329290,1723158751,1,4351,4285,15.83,1.12,28,34,0,0
330148,1723379119,1,4292,4457,15.86,1.42,28,34,0,0
330549,1723475271,1,4460,4628,15.82,1.7,28,34,0,0
331034,1723591600,1,4634,4700,15.84,1.56,28,34,0,0
331484,1723700904,1,4698,4685,15.89,1.43,28,34,0,0
331927,1723809519,1,4679,4600,15.8,1.33,28,34,0,0
332377,1723919527,1,4610,4757,15.87,1.8,28,34,0,0
332861,1724036105,1,4747,4642,15.88,1.43,28,35,0,0
333310,1724143322,1,4644,4671,15.88,1.56,28,35,0,0
333714,1724247355,1,4667,4585,15.89,1.42,28,35,0,0
334161,1724360483,1,4577,4514,15.88,1.21,28,35,0,0
334570,1724464378,1,4513,4500,15.86,1.29,28,35,0,0
334973,1724568270,1,4499,4485,15.87,1.54,28,35,0,0
335467,1724688135,1,4478,4414,15.88,1.11,28,35,0,0
335869,1724789803,1,4417,4471,15.86,1.28,28,35,0,0
336281,1724892120,1,4470,4428,15.88,1.26,28,35,0,0
336767,1725010295,1,4417,4271,15.85,1.01,28,35,0,0
337213,1725120101,1,4265,4214,15.86,1.29,28,35,0,0
337658,1725232344,1,4221,4285,15.88,1.61,28,35,0,0
338112,1725338390,1,4286,4300,15.84,1.26,28,35,0,0
338554,1725448055,1,4304,4371,15.86,1.42,28,35,0,0
339446,1725668567,1,4380,4600,15.83,1.76,28,35,0,0
339890,1725779061,1,4605,4700,15.89,1.64,28,35,0,0
340321,1725890134,1,4684,4457,15.87,1.06,28,35,0,0
341192,1726108298,1,4459,4614,15.82,1.5,28,35,0,0
341679,1726224551,1,4610,4571,15.88,1.34,28,35,0,0
342128,1726336813,1,4562,4471,15.83,1.53,28,35,0,0
342570,1726444938,1,4467,4428,15.85,1.54,28,35,0,0
342974,1726544322,1,4428,4457,15.88,1.36,28,35,0,0
343467,1726668329,1,4463,4528,15.83,1.55,28,36,0,0
343914,1726778108,1,4526,4514,15.85,1.48,28,36,0,0
344316,1726877282,1,4518,4571,15.82,1.53,28,36,0,0
344806,1726997614,1,4571,4571,15.89,1.28,28,36,0,0
345213,1727097744,1,4569,4457,15.86,1.42,28,36,0,0
345652,1727203713,1,4453,4414,15.86,1.4,28,36,0,0
346103,1727314353,1,4423,4528,15.91,1.23,28,36,0,0
346543,1727419824,1,4524,4457,15.86,1.61,28,36,0,0
346954,1727528399,1,4458,4585,15.83,1.71,28,36,0,0
347381,1727636910,1,4584,4571,15.75,1.39,28,36,0,0
347809,1727744061,1,4569,4514,15.78,1.55,28,36,0,0
348259,1727860771,1,4534,4742,15.76,2.02,28,36,0,0
348706,1727974812,1,4763,5000,15.83,2.38,28,36,0,0
349108,1728070401,1,5002,5185,15.8,1.96,28,36,0,0
349548,1728175981,1,5184,5171,15.83,1.88,28,36,0,0
349997,1728287149,1,5171,5214,15.84,1.89,28,36,0,0
350442,1728398393,1,5207,5114,15.81,2.17,28,36,0,0
350892,1728508172,1,5117,5171,15.78,1.8,28,36,0,0
351340,1728622282,1,5169,5157,15.83,2.12,28,36,0,0
351788,1728731149,1,5148,5057,15.85,1.95,28,37,0,0
352187,1728832588,1,5059,5114,15.76,2.06,28,37,0,0
353084,1729057385,1,5113,5100,15.76,2.11,28,37,0,0
353489,1729161368,1,5112,5242,15.82,2.15,28,37,0,0
353899,1729264567,1,5233,5114,15.82,1.86,28,37,0,0
354768,1729481207,1,5116,5200,15.88,2.13,28,37,0,0
355206,1729592127,1,5192,5114,15.79,2.04,28,37,0,0
355655,1729704149,1,5110,5071,15.87,1.74,28,37,0,0
356099,1729815975,1,5056,4914,15.84,1.59,28,37,0,0
356547,1729922654,1,4919,4971,15.83,1.82,28,37,0,0
356947,1730021627,1,4968,4914,15.82,1.8,28,37,0,0
357398,1730130263,1,4914,4914,15.82,1.74,28,37,0,0
357840,1730240128,1,4900,4714,15.83,1.61,28,37,0,0
358285,1730350830,1,4711,4685,15.83,1.56,28,37,0,0
358695,1730453577,1,4683,4657,15.85,1.24,28,37,0,0
359141,1730564139,1,4656,4600,15.81,1.49,28,37,0,0
359597,1730673502,1,4600,4628,15.82,1.62,28,37,0,0
360041,1730784484,1,4639,4800,15.83,2.08,28,38,0,0
360932,1731012110,1,4812,5157,15.85,2.05,28,38,0,0
361323,1731111411,1,5158,5200,15.83,1.97,28,38,0,0
361722,1731217344,1,5195,5100,15.85,1.96,28,38,0,0
362170,1731325324,1,5101,5142,15.85,2.14,28,38,0,0
362616,1731438306,1,5147,5285,15.83,1.61,28,38,0,0
363058,1731543520,1,5281,5142,15.82,1.96,28,38,0,0
363504,1731653627,1,5143,5157,15.79,1.91,28,38,0,0
363953,1731767822,1,5162,5242,15.88,2.05,28,38,0,0
364361,1731869587,1,5234,5128,15.83,1.73,28,38,0,0
364802,1731977166,1,5126,5085,15.87,1.7,28,38,0,0
365214,1732082064,1,5080,4857,15.86,1.45,28,38,0,0
366102,1732302233,1,4844,4500,15.88,1.38,28,38,0,0
366538,1732412794,1,4498,4485,15.86,1.43,28,38,0,0
366966,1732520976,1,4481,4442,15.82,1.28,28,38,0,0
367368,1732627281,1,4448,4528,15.86,1.5,28,38,0,0
367813,1732732719,1,4537,4757,15.9,1.59,28,38,0,0
368298,1732849837,1,4754,4714,15.96,1.4,28,39,0,0
368750,1732963788,1,4699,4557,15.97,1.31,28,39,0,0
369153,1733063610,1,4537,4357,16,1.12,28,39,0,0
370082,1733288076,1,4355,4314,15.97,0.96,28,39,0,0
370525,1733398782,1,4308,4257,15.92,1.43,28,39,0,0
370929,1733500339,1,4258,4342,15.95,0.98,28,39,0,0
371380,1733612615,1,4335,4271,15.94,0.96,28,39,0,0
371828,1733721501,1,4271,4271,15.93,1.17,28,39,0,0
372230,1733823795,1,4275,4342,15.95,1.13,28,39,0,0
372679,1733932386,1,4354,4528,15.89,1.33,28,39,0,0
373114,1734044250,1,4529,4557,15.87,1.39,28,39,0,0
373506,1734143283,1,4557,4600,15.89,1.39,28,39,0,0
373984,1734257037,1,4602,4642,15.91,1.33,28,39,0,0
374390,1734363144,1,4640,4585,15.88,1.33,28,39,0,0
374870,1734474124,1,4582,4528,15.83,1.23,28,39,0,0
375284,1734580230,1,4523,4428,15.91,1.25,28,39,0,0
375769,1734697537,1,4423,4385,15.89,1.1,28,39,0,0
376176,1734798938,1,4385,4385,15.9,1.24,28,39,0,0
376625,1734906750,1,4382,4271,15.93,1.14,28,39,0,0
377072,1735023383,1,4264,4185,15.91,1.03,28,39,0,0
377516,1735131560,1,4185,4185,15.91,1.23,28,39,0,0
377949,1735241639,1,4199,4371,15.88,1.25,28,39,0,0
378377,1735349979,1,4371,4371,15.91,1.23,28,39,0,0
379302,1735574409,1,4363,4228,15.91,1.29,28,39,0,0
379706,1735670150,1,4229,4314,15.93,1.32,28,39,0,0
380150,1735783978,1,4313,4300,15.89,0.97,28,40,0,0
380599,1735891713,1,4307,4428,15.8,1.59,28,40,0,0
381046,1736000976,1,4429,4442,15.85,1.51,28,40,0,0
381493,1736109551,1,4453,4614,15.88,1.54,28,40,0,0
381936,1736219322,1,4612,4585,15.86,1.33,28,40,0,0
382380,1736327136,1,4575,4457,15.88,1.16,28,40,0,0
383187,1736552415,1,4468,4642,15.79,1.57,28,40,0,0
383627,1736659157,1,4655,4785,15.82,1.56,28,40,0,0
384069,1736769638,1,4771,4657,15.82,1.41,28,40,0,0
384477,1736870581,1,4655,4600,15.87,1.25,28,40,0,0
384922,1736980088,1,4591,4485,15.78,1.5,28,40,0,0
385377,1737092307,1,4478,4371,15.82,1.14,28,40,0,0
385821,1737202702,1,4380,4471,15.79,1.51,28,40,0,0
386265,1737310548,1,4462,4342,15.89,1.75,28,40,0,0
386671,1737414361,1,4345,4428,15.86,1.42,28,40,0,0
387117,1737522063,1,4431,4514,15.84,1.49,28,40,0,0
387511,1737625086,1,4516,4685,15.86,1.44,28,40,0,0
387942,1737734379,1,4679,4542,15.83,1.35,28,40,0,0
388391,1737852108,1,4566,4814,15.81,1.94,28,40,0,0
388800,1737953905,1,4821,4971,15.75,2.16,28,40,0,0
389250,1738067708,1,4977,5142,15.76,2.24,28,40,0,0
389737,1738185566,1,5132,5028,15.81,1.64,28,41,0,0
390141,1738284329,1,5015,4900,15.77,1.49,28,41,0,0
390541,1738387077,1,4898,4814,15.8,1.47,28,41,0,0
391032,1738501546,1,4817,4857,15.81,1.58,28,41,0,0
391517,1738614586,1,4847,4757,15.84,1.67,28,41,0,0
391965,1738722403,1,4753,4700,15.83,1.51,28,41,0,0
392364,1738825163,1,4699,4671,15.8,1.55,28,41,0,0
392825,1738937836,1,4669,4657,15.82,1.53,28,41,0,0
393218,1739043952,1,4661,4742,15.86,1.77,28,41,0,0
393644,1739152790,1,4742,4742,15.8,1.66,28,41,0,0
394088,1739264380,1,4742,4742,15.85,1.63,28,41,0,0
394532,1739374544,1,4738,4700,15.85,1.36,28,41,0,0
394981,1739481370,1,4692,4614,15.86,1.54,28,41,0,0
395382,1739580222,1,4615,4700,15.82,1.57,28,41,0,0
395865,1739691504,1,4700,4714,15.83,1.55,28,41,0,0
396312,1739803581,1,4711,4685,15.82,1.51,28,41,0,0
396798,1739915105,1,4681,4642,15.88,1.55,28,41,0,0
397198,1740015500,1,4642,4657,15.82,1.51,28,41,0,0
397689,1740133318,1,4668,4785,15.83,1.37,28,41,0,0
398088,1740232311,1,4785,4785,15.83,1.64,28,41,0,0
398540,1740344363,1,4783,4757,15.88,1.73,28,41,0,0
398986,1740454308,1,4762,4814,15.82,1.66,28,42,0,0
399396,1740560643,1,4812,4757,15.85,1.61,28,42,0,0
399882,1740673163,1,4754,4728,15.73,2,28,42,0,0
400362,1740796827,1,4740,4814,15.79,1.63,28,42,0,0
401211,1740999556,1,4813,4800,15.82,1.45,28,42,0,0
401664,1741111071,1,4800,4800,15.78,1.53,28,42,0,0
402107,1741224353,1,4794,4757,15.83,1.76,28,42,0,0
402554,1741328136,1,4759,4785,15.83,1.61,28,42,0,0
402996,1741436204,1,4792,4871,15.82,1.96,28,42,0,0
403887,1741660592,1,4882,5085,15.73,2.02,28,42,0,0
404334,1741774516,1,5079,5028,15.78,1.88,28,42,0,0
404742,1741875574,1,5026,4885,15.82,1.67,28,42,0,0
405188,1741989767,1,4883,4871,15.8,2.21,28,42,0,0
405641,1742093596,1,4857,4671,15.82,1.24,28,42,0,0
406084,1742211586,1,4673,4700,15.84,1.46,28,42,0,0
406532,1742319949,1,4682,4557,15.83,1.4,28,42,0,0
406964,1742428090,1,4563,4628,15.84,1.4,28,42,0,0
407385,1742528531,1,4628,4628,15.74,1.5,28,43,0,0
408320,1742759241,1,4624,4542,15.77,1.54,28,43,0,0
408760,1742863967,1,4542,4542,15.83,1.42,28,43,0,0
409202,1742972725,1,4552,4642,15.82,1.47,28,43,0,0
410054,1743184751,1,4638,4571,15.85,1.18,28,43,0,0
410505,1743297301,1,4586,4742,15.81,1.67,28,43,0,0
410911,1743402570,1,4742,4742,15.83,1.59,28,43,0,0
411359,1743510093,1,4741,4728,15.79,1.48,28,43,0,0
411767,1743615182,1,4729,4785,15.85,1.66,28,43,0,0
412254,1743730171,1,4795,4900,15.81,1.63,28,43,0,0
412653,1743830150,1,4902,4942,15.84,1.75,28,43,0,0
413105,1743939098,1,4938,4800,15.82,1.43,28,43,0,0
413995,1744163353,1,4791,4642,15.83,1.56,28,43,0,0
414402,1744263543,1,4642,4657,15.82,1.44,28,43,0,0
415290,1744481714,1,4657,4671,15.83,1.42,28,43,0,0
415729,1744588083,1,4671,4671,15.83,1.51,28,43,0,0
416196,1744703736,1,4664,4600,15.83,1.44,28,43,0,0
416588,1744806985,1,4601,4671,15.8,1.78,28,43,0,0
417038,1744918291,1,4672,4742,15.83,1.82,28,44,0,0
417486,1745025860,1,4740,4642,15.86,1.9,28,44,0,0
417977,1745143621,1,4657,4828,15.78,1.81,28,44,0,0
418377,1745243577,1,4826,4785,15.83,1.85,28,44,0,0
418822,1745350573,1,4783,4742,15.82,1.64,28,44,0,0
419274,1745465929,1,4743,4771,15.77,1.71,28,44,0,0
419719,1745574120,1,4772,4785,15.82,1.62,28,44,0,0
420128,1745675556,1,4784,4757,15.85,1.67,28,44,0,0
421022,1745894968,1,4756,4742,15.79,1.8,28,44,0,0
421468,1746007574,1,4738,4685,15.88,1.43,28,44,0,0
421903,1746119140,1,4675,4585,15.83,1.42,27,44,0,0
422337,1746228272,1,4587,4614,15.79,1.77,28,44,0,0
422782,1746335117,1,4622,4742,15.82,2.04,28,44,0,0
423225,1746446946,1,4745,4785,15.79,1.85,28,44,0,0
423679,1746560093,1,4783,4771,15.78,1.9,28,44,0,0
424121,1746668125,1,4778,4857,15.79,1.62,28,44,0,0
424570,1746779493,1,4848,4757,15.88,1.61,28,44,0,0
424974,1746881319,1,4758,4771,15.86,1.5,28,44,0,0
425376,1746982786,1,4768,4685,15.77,1.56,28,44,0,0
425876,1747103583,1,4707,4971,15.81,2.1,28,45,0,0
426275,1747204264,1,4968,4785,15.83,1.4,28,45,0,0
426763,1747321350,1,4789,4842,15.84,1.9,28,45,0,0
427153,1747425340,1,4842,4842,15.8,1.47,28,45,0,0
427583,1747534336,1,4829,4657,15.8,1.39,28,45,0,0
428026,1747644736,1,4662,4828,15.84,2.05,28,45,0,0
428506,1747762363,1,4830,4857,15.74,2.14,28,45,0,0
428913,1747862289,1,4868,5028,15.7,2.11,28,45,0,0
429325,1747971503,1,5026,5000,15.84,2.11,28,45,0,0
429808,1748084126,1,4992,4885,15.75,2.05,28,45,0,0
430212,1748190738,1,4885,4928,15.77,1.91,28,45,0,0
430694,1748303333,1,4920,4785,15.78,1.6,28,45,0,0
431102,1748407216,1,4784,4742,15.79,1.61,28,45,0,0
431549,1748513739,1,4738,4657,15.83,1.74,28,45,0,0
431997,1748626403,1,4649,4571,15.84,1.52,28,45,0,0
432479,1748737559,1,4571,4571,15.83,1.74,28,45,0,0
432903,1748844965,1,4557,4371,15.91,1.34,28,45,0,0
433339,1748954718,1,4382,4542,15.82,1.71,28,45,0,0
433784,1749066741,1,4544,4571,15.79,1.74,28,46,0,0
434184,1749167317,1,4574,4771,15.86,2.15,28,46,0,0
434631,1749275350,1,4774,4957,15.87,1.9,28,46,0,0
435107,1749385976,1,4961,5042,15.83,2,28,46,0,0
435556,1749493114,1,5039,5000,15.87,1.79,28,46,0,0
436000,1749609095,1,4850,3500,16.1,0.24,28,46,0,0
436407,1749704573,1,3496,3200,15.98,0.63,28,46,0,0
438237,1750155739,1,3185,2257,16.23,0.32,28,46,0,0
439560,1750490101,1,2248,2000,16.22,0.17,28,46,0,0
440003,1750599174,1,1996,1957,16.24,0.15,28,46,0,0
440451,1750710186,1,1961,2000,16.24,0.21,28,46,0,0
440895,1750820609,1,1997,1971,16.23,0.18,28,46,0,0
441348,1750928083,1,1972,1985,16.23,0.18,28,46,0,0
441755,1751033192,1,1983,1971,16.23,0.17,28,46,0,0
442207,1751143188,1,1969,1957,16.25,0.18,28,46,0,0
442610,1751238114,1,1957,1957,16.22,0.2,28,46,0,0
443101,1751363594,1,1958,1971,16.25,0.19,28,46,0,0
443538,1751461609,1,1973,2014,16.25,0.2,28,46,0,0
443980,1751570253,1,2014,2014,16.25,0.19,28,46,0,0
444414,1751681892,1,2003,1900,16.3,0.04,28,46,0,0
444834,1751784733,1,1896,1557,16.3,0,28,46,0,0
445243,1751885926,1,1554,1357,16.29,0.06,28,46,0,0
445730,1752004295,1,1354,1328,16.29,0.08,28,46,0,0
446183,1752109624,1,1326,1314,16.3,0.09,28,46,0,0
446621,1752212971,1,1314,1314,16.29,0.09,28,46,0,0
447075,1752325063,1,1314,1328,16.29,0.09,27,46,0,0
447521,1752434324,1,1327,1314,16.3,0.09,28,46,0,0
447969,1752541611,1,1314,1314,16.3,0.09,27,46,0,0
448416,1752650764,1,1314,1314,16.3,0.09,28,46,0,0
448911,1752772127,1,1314,1314,16.3,0.09,27,46,0,0
449356,1752875102,1,1315,1328,16.31,0.09,27,46,0,0
449796,1752979302,1,1327,1314,16.3,0.09,28,46,0,0
450230,1753088056,1,1314,1314,16.32,0.09,27,46,0,0
450672,1753200920,1,1314,1314,16.3,0.09,27,46,0,0
451119,1753307081,1,1314,1314,16.32,0.09,27,46,0,0
451522,1753407317,1,1314,1328,16.32,0.09,27,46,0,0
452007,1753518178,1,1327,1314,16.32,0.09,27,46,0,0
452409,1753618534,1,1314,1314,16.31,0.09,27,46,0,0
452898,1753733204,1,1315,1328,16.32,0.09,27,46,0,0
453342,1753841326,1,1326,1314,16.32,0.09,27,46,0,0
453791,1753944481,1,1314,1314,16.32,0.09,27,46,0,0
454234,1754048385,1,1314,1314,16.33,0.09,27,46,0,0
454720,1754163974,1,1314,1314,16.32,0.09,27,46,0,0
455170,1754271577,1,1314,1314,16.32,0.09,27,46,0,0
455609,1754380198,1,1314,1328,16.33,0.09,27,46,0,0
456036,1754483281,1,1328,1328,16.33,0.09,27,46,0,0
456955,1754713178,1,1327,1314,16.33,0.09,27,46,0,0
457812,1754919514,1,1314,1314,16.33,0.09999999,27,46,0,0
458256,1755030134,1,1314,1314,16.33,0.09,27,46,0,0
458707,1755137386,1,1314,1328,16.34,0.09,27,46,0,0
459157,1755248482,1,1328,1328,16.34,0.09,27,46,0,0
459561,1755345535,1,1328,1328,16.35,0.09,27,46,0,0
460017,1755461167,1,1326,1314,16.34,0.09,27,46,0,0
460461,1755567177,1,1314,1328,16.33,0.09,27,46,0,0
460906,1755672594,1,1327,1314,16.35,0.09,27,46,0,0
461350,1755781179,1,1314,1328,16.35,0.09,27,46,0,0
461804,1755890577,1,1328,1328,16.34,0.09,27,46,0,0
462249,1755998518,1,1328,1328,16.35,0.09,27,46,0,0
462696,1756103087,1,1328,1328,16.35,0.09,27,46,0,0
463184,1756220802,1,1328,1328,16.35,0.09,27,46,0,0
463592,1756319814,1,1328,1328,16.35,0.09,27,46,0,0
464035,1756429182,1,1328,1328,16.35,0.09,27,46,0,0
464460,1756533943,1,1328,1328,16.35,0.09,27,46,0,0
464906,1756645548,1,1328,1328,16.35,0.09,27,46,0,0
465361,1756756154,1,1328,1328,16.36,0.09,27,46,0,0
465801,1756861525,1,1328,1328,16.35,0.09,27,46,0,0
466252,1756972133,1,1328,1328,16.35,0.09,27,46,0,0
466702,1757079734,1,1328,1328,16.35,0.09,27,46,0,0
467137,1757181154,1,1328,1328,16.36,0.09999999,27,46,0,0
467592,1757291695,1,1328,1328,16.36,0.09,27,46,0,0
468034,1757395589,1,1328,1328,16.36,0.09,27,46,0,0
468485,1757506083,1,1328,1328,16.36,0.09,27,46,0,0
468950,1757615639,1,1328,1328,16.36,0.09,27,46,0,0
469381,1757724489,1,1328,1328,16.36,0.09,27,46,0,0
469820,1757832545,1,1328,1328,16.36,0.09,27,46,0,0
470233,1757933544,1,1328,1328,16.36,0.09,27,46,0,0
470675,1758039817,1,1328,1328,16.37,0.09,27,46,0,0
471167,1758153339,1,1328,1328,16.37,0.09,27,46,0,0
471609,1758260751,1,1328,1328,16.37,0.09,27,46,0,0
472062,1758370177,1,1328,1328,16.38,0.09,27,46,0,0
472503,1758476111,1,1328,1328,16.38,0.09,27,46,0,0
472979,1758594732,1,1328,1328,16.38,0.09,27,46,0,0
473404,1758699746,1,1328,1328,16.38,0.09,27,46,0,0
473831,1758804777,1,1328,1328,16.38,0.09,27,46,0,0
474282,1758910160,1,1327,1314,16.38,0.09,27,46,0,0
474732,1759019262,1,1315,1328,16.38,0.09,27,46,0,0
475179,1759128390,1,1328,1328,16.37,0.09,27,46,0,0
475623,1759236867,1,1328,1328,16.37,0.09,27,46,0,0
476069,1759341343,1,1328,1328,16.38,0.09,27,46,0,0
476513,1759447852,1,1328,1328,16.38,0.09,27,46,0,0
476958,1759559319,1,1328,1328,16.39,0.09,27,46,0,0
478260,1759880784,1,1328,1328,16.38,0.09,27,46,0,0
478707,1759992092,1,1328,1328,16.39,0.09,27,46,0,0
479155,1760095174,1,1328,1328,16.38,0.09,27,46,0,0
479637,1760209171,1,1328,1328,16.38,0.09,27,46,0,0
480082,1760315218,1,1328,1328,16.38,0.09,27,46,0,0
480531,1760422367,1,1328,1328,16.39,0.09,27,46,0,0
480983,1760532272,1,1328,1328,16.39,0.09,27,46,0,0
481432,1760638559,1,1328,1328,16.39,0.09,27,46,0,0
481877,1760744115,1,1328,1328,16.39,0.09,27,46,0,0
482347,1760860578,1,1328,1328,16.39,0.09,27,46,0,0
482780,1760968701,1,1328,1328,16.39,0.09,27,46,0,0
483231,1761078566,1,1328,1328,16.39,0.09,27,46,0,0
484122,1761292077,1,1327,1314,16.39,0.09,27,46,0,0
484572,1761405361,1,1315,1328,16.4,0.09,27,46,0,0
484980,1761506293,1,1328,1328,16.39,0.09,27,46,0,0
485466,1761621558,1,1328,1328,16.4,0.09,27,46,0,0
485909,1761728685,1,1296,971,16.42,0.03,27,46,0,0
486350,1761834316,1,925,314,16.41,0,27,46,0,0
486844,1761948401,1,285,0,16.41,0.01,27,46,0,0
487252,1762047898,1,0,0,16.41,0.02,27,46,0,0
488235,1762275593,1,0,0,16.42,0.02,27,46,0,0
488643,1762374666,1,0,0,16.41,0.02,27,46,0,0
489141,1762491529,1,0,0,16.42,0.02,27,46,0,0
489544,1762592525,1,0,0,16.42,0.02,27,46,0,0
490019,1762706411,1,0,0,16.42,0.02,27,46,0,0
490454,1762812631,1,0,0,16.42,0.02,27,46,0,0
490912,1762920166,1,0,0,16.42,0.02,27,46,0,0
491359,1763026733,1,0,0,16.42,0.02,27,46,0,0
491812,1763134081,1,0,0,16.42,0.02,27,46,0,0
492264,1763245506,1,0,0,16.42,0.02,27,46,0,0
492717,1763350790,1,0,0,16.42,0.02,27,46,0,0
493167,1763458560,1,0,0,16.42,0.02,27,46,0,0
493665,1763573263,1,0,0,16.42,0.02,27,46,0,0
494092,1763678051,1,0,0,16.42,0.02,27,46,0,0
494526,1763786081,1,0,0,16.42,0.02,27,46,0,0
494980,1763889611,1,0,0,16.42,0.02,27,46,0,0
495428,1763996188,1,0,0,16.42,0.02,27,46,0,0
495927,1764112777,1,0,0,16.42,0.02,27,46,0,0
496375,1764217757,1,0,0,16.43,0.02,27,46,0,0
496874,1764332092,1,0,0,16.43,0.02,27,46,0,0
497325,1764441136,1,0,0,16.43,0.02,27,46,0,0
497776,1764544058,1,0,0,16.43,0.02,27,46,0,0
498207,1764650169,1,0,0,16.43,0.02,27,46,0,0
498679,1764764796,1,0,0,16.42,0.02,27,46,0,0
499132,1764871524,1,0,0,16.43,0.02,27,46,0,0
499588,1764985532,1,0,0,16.43,0.02,27,46,0,0
500041,1765089371,1,0,0,16.43,0.02,27,46,0,0
500487,1765197339,1,0,0,16.44,0.02,27,46,0,0
500937,1765301090,1,0,0,16.43,0.02,27,46,0,0
501422,1765418137,1,0,0,16.44,0.02,27,46,0,0
502751,1765735624,1,0,0,16.44,0.02,27,46,0,0
503208,1765846945,1,0,0,16.44,0.02,27,46,0,0
503663,1765953152,1,0,0,16.44,0.02,27,46,0,0
504112,1766060216,1,0,0,16.44,0.02,27,46,0,0
504604,1766175793,1,0,0,16.44,0.02,27,46,0,0
505013,1766272591,1,0,0,16.44,0.02,27,46,0,0
505503,1766386484,1,0,0,16.44,0.02,27,46,0,0
506371,1766600774,1,0,0,16.43,0.02,27,46,0,0
506821,1766702660,1,0,0,16.44,0.02,27,46,0,0
507272,1766811486,1,0,0,16.44,0.02,27,46,0,0
507772,1766925465,1,0,0,16.44,0.02,27,46,0,0
508225,1767038152,1,0,0,16.44,0.02,27,46,0,0
