LineNo,TimeUS,Instance,RPM,RawRPM,Volt,Curr,Temp,CTot,MotTemp,Err
1885,1.6424e+09,1,0,0,16.82,0.02,30,0,0,0
2365,1.6425e+09,1,0,0,16.82,0.01,30,0,0,0
2809,1.6426e+09,1,0,0,16.82,0.02,30,0,0,0
3261,1.6427e+09,1,0,0,16.82,0.02,30,0,0,0
4212,1.6429e+09,1,0,0,16.82,0.02,30,0,0,0
4652,1.643e+09,1,0,0,16.82,0.02,30,0,0,0
5087,1.6431e+09,1,0,0,16.82,0.01,30,0,0,0
5573,1.6432e+09,1,0,0,16.82,0.02,30,0,0,0
6030,1.6433e+09,1,0,0,16.82,0.01,30,0,0,0
6934,1.6435e+09,1,3,614,16.8,0.08,30,0,0,0
7371,1.6437e+09,1,632,1071,16.79,0.15,30,0,0,0
7810,1.6438e+09,1,1078,1257,16.8,0.11,30,0,0,0
8310,1.6439e+09,1,1260,1314,16.8,0.1,30,0,0,0
8761,1.644e+09,1,1315,1342,16.8,0.1,30,0,0,0
9697,1.6442e+09,1,1342,1357,16.8,0.09,30,0,0,0
10132,1.6443e+09,1,1357,1357,16.8,0.09,30,0,0,0
10620,1.6444e+09,1,1355,1342,16.8,0.09,30,0,0,0
11072,1.6445e+09,1,1342,1357,16.8,0.09,30,0,0,0
11529,1.6446e+09,1,1357,1357,16.8,0.09,30,0,0,0
12024,1.6447e+09,1,1357,1357,16.8,0.09,30,0,0,0
12460,1.6449e+09,1,1357,1357,16.8,0.09,30,0,0,0
12861,1.645e+09,1,1357,1357,16.8,0.09,30,0,0,0
13308,1.6451e+09,1,1357,1357,16.8,0.09,30,0,0,0
13589,1.6452e+09,1,1357,1357,16.8,0.1,30,0,0,0
14049,1.6453e+09,1,1357,1357,16.8,0.1,30,0,0,0
14495,1.6454e+09,1,1357,1357,16.8,0.1,30,0,0,0
14974,1.6455e+09,1,1357,1357,16.79,0.09,30,0,0,0
15412,1.6456e+09,1,1357,1357,16.79,0.09,30,0,0,0
15868,1.6457e+09,1,1357,1357,16.8,0.09,30,0,0,0
16365,1.6458e+09,1,1357,1357,16.8,0.09,30,0,0,0
16823,1.6459e+09,1,1357,1357,16.8,0.09,30,0,0,0
17257,1.646e+09,1,1357,1357,16.8,0.09,30,0,0,0
17696,1.6461e+09,1,1357,1357,16.8,0.09,30,0,0,0
18151,1.6462e+09,1,1357,1357,16.8,0.09,30,0,0,0
18572,1.6464e+09,1,1357,1357,16.79,0.09,30,0,0,0
19070,1.6465e+09,1,1357,1357,16.79,0.1,30,0,0,0
19480,1.6466e+09,1,1357,1357,16.8,0.09,30,0,0,0
19914,1.6467e+09,1,1357,1357,16.8,0.09,30,0,0,0
20393,1.6468e+09,1,1357,1357,16.79,0.09,30,0,0,0
20852,1.6469e+09,1,1357,1357,16.8,0.09,30,0,0,0
21269,1.647e+09,1,1357,1357,16.8,0.09,30,0,0,0
21767,1.6471e+09,1,1357,1357,16.79,0.09,30,0,0,0
22208,1.6472e+09,1,1357,1357,16.8,0.09,30,0,0,0
22685,1.6473e+09,1,1357,1357,16.79,0.09,30,0,0,0
23136,1.6474e+09,1,1357,1357,16.8,0.09,30,0,0,0
23589,1.6475e+09,1,1356,1342,16.8,0.1,30,0,0,0
24082,1.6477e+09,1,1353,1528,16.77,0.2,30,0,0,0
24541,1.6478e+09,1,1569,2085,16.75,0.77,30,0,0,0
24976,1.6479e+09,1,2101,2471,16.73,0.51,30,0,0,0
25415,1.648e+09,1,2472,2585,16.73,0.48,30,0,0,0
25912,1.6481e+09,1,2580,2542,16.7,0.57,30,0,0,0
26402,1.6482e+09,1,2583,3028,16.54,1.26,30,0,0,0
26857,1.6483e+09,1,3048,3328,16.57,1.63,30,0,0,0
27297,1.6484e+09,1,3359,3785,16.44,1.91,30,0,0,0
27733,1.6485e+09,1,3801,4142,16.19,3.06,30,0,0,0
28181,1.6486e+09,1,4197,4985,16.23,2.77,30,0,0,0
28641,1.6487e+09,1,5019,5528,16.22,3.02,30,0,0,0
29095,1.6489e+09,1,5538,5685,16.13,3.21,30,0,0,0
29978,1.6491e+09,1,5675,5242,16.35,1.96,30,0,0,0
30456,1.6492e+09,1,5223,5071,16.32,1.53,30,1,0,0
30911,1.6493e+09,1,5057,4742,16.3,1.42,30,1,0,0
31365,1.6494e+09,1,4726,4571,16.27,1.35,30,1,0,0
31816,1.6495e+09,1,4564,4428,16.27,1.48,30,1,0,0
32767,1.6497e+09,1,4417,3871,16.27,0.83,30,1,0,0
33203,1.6498e+09,1,3871,3871,16.26,1.19,30,1,0,0
34125,1.6501e+09,1,3890,4514,16.27,1.71,30,1,0,0
34573,1.6502e+09,1,4517,4585,16.32,1.5,30,1,0,0
35071,1.6503e+09,1,4579,4500,16.32,1.41,30,1,0,0
35516,1.6504e+09,1,4513,4700,16.29,1.8,30,1,0,0
35950,1.6505e+09,1,4697,4657,16.19,1.73,30,1,0,0
36391,1.6506e+09,1,4657,4671,16.2,1.7,30,1,0,0
36847,1.6507e+09,1,4677,4828,16.07,2.04,30,1,0,0
38164,1.651e+09,1,4825,4485,16.26,1.24,30,1,0,0
38666,1.6511e+09,1,4486,4500,16.23,1.75,30,1,0,0
39102,1.6513e+09,1,4522,4728,16.24,1.57,30,1,0,0
39526,1.6514e+09,1,4728,4728,16.23,2.05,30,1,0,0
40025,1.6515e+09,1,4736,4871,16.14,1.88,30,2,0,0
40478,1.6516e+09,1,4859,4742,16.16,1.55,30,2,0,0
40931,1.6517e+09,1,4735,4657,16.19,1.58,30,2,0,0
41384,1.6518e+09,1,4660,4728,16.17,1.53,30,2,0,0
42319,1.652e+09,1,4726,4671,16.17,1.79,30,2,0,0
42749,1.6521e+09,1,4670,4657,16.23,1.77,30,2,0,0
43192,1.6523e+09,1,4676,4871,16.17,2.13,30,2,0,0
43637,1.6524e+09,1,4873,4914,16.24,1.89,30,2,0,0
44042,1.6525e+09,1,4924,5028,16.2,2.15,30,2,0,0
44519,1.6526e+09,1,5046,5157,16.19,2.34,30,2,0,0
44932,1.6527e+09,1,5163,5300,16.22,2.25,30,2,0,0
45337,1.6528e+09,1,5295,5071,16.11,1.83,30,2,0,0
45860,1.6529e+09,1,5037,4757,16.26,1.35,30,2,0,0
46688,1.6531e+09,1,4725,4200,16.3,1.04,30,2,0,0
47093,1.6532e+09,1,4182,3971,16.15,1.5,30,2,0,0
47586,1.6534e+09,1,3965,3914,16.27,1.83,30,2,0,0
48017,1.6535e+09,1,3954,4328,16.22,1.51,30,2,0,0
48461,1.6536e+09,1,4332,4385,16.26,1.42,30,3,0,0
48868,1.6537e+09,1,4387,4542,16.23,1.51,30,3,0,0
49324,1.6538e+09,1,4534,4371,16.25,1.09,30,3,0,0
50253,1.654e+09,1,4362,4214,16.27,1.06,30,3,0,0
50660,1.6541e+09,1,4214,4228,16.22,1.34,30,3,0,0
51070,1.6542e+09,1,4233,4357,16.17,1.61,30,3,0,0
51969,1.6544e+09,1,4357,4385,16.2,1.36,30,3,0,0
52374,1.6545e+09,1,4384,4328,16.22,1.43,30,3,0,0
52769,1.6546e+09,1,4329,4457,16.14,1.35,30,3,0,0
53199,1.6548e+09,1,4457,4457,16.22,1.27,30,3,0,0
53641,1.6549e+09,1,4460,4500,16.19,1.46,30,3,0,0
54049,1.655e+09,1,4504,4600,16.16,1.44,30,3,0,0
54537,1.6551e+09,1,4588,4471,16.25,1.28,30,3,0,0
54944,1.6552e+09,1,4469,4442,16.22,1.57,30,3,0,0
55435,1.6553e+09,1,4449,4528,16.15,1.67,30,3,0,0
55877,1.6554e+09,1,4530,4642,16.18,1.54,30,3,0,0
56330,1.6555e+09,1,4647,4700,16.17,1.51,30,3,0,0
56761,1.6556e+09,1,4684,4528,16.13,1.55,30,3,0,0
57193,1.6557e+09,1,4531,4571,16.18,1.59,30,3,0,0
57591,1.6558e+09,1,4575,4728,16.16,1.97,30,3,0,0
58091,1.656e+09,1,4738,4842,16.17,1.8,30,4,0,0
58494,1.6561e+09,1,4840,4814,16.17,1.55,30,4,0,0
58943,1.6562e+09,1,4797,4642,16.18,1.52,30,4,0,0
59382,1.6563e+09,1,4634,4500,16.15,1.35,30,4,0,0
59827,1.6564e+09,1,4503,4557,16.14,1.63,30,4,0,0
60282,1.6565e+09,1,4542,4385,16.19,1.03,30,4,0,0
60670,1.6566e+09,1,4384,4357,16.19,1.38,30,4,0,0
61178,1.6567e+09,1,4357,4357,16.21,1.1,30,4,0,0
61576,1.6568e+09,1,4356,4300,16.14,1.35,30,4,0,0
62061,1.6569e+09,1,4307,4414,16.16,1.24,30,4,0,0
62471,1.657e+09,1,4404,4314,16.15,1.25,30,4,0,0
62923,1.6572e+09,1,4318,4371,16.14,1.4,30,4,0,0
63370,1.6573e+09,1,4369,4357,16.21,1.31,30,4,0,0
63815,1.6574e+09,1,4366,4457,16.18,1.38,30,4,0,0
64220,1.6575e+09,1,4455,4371,16.2,1.27,30,4,0,0
64664,1.6576e+09,1,4370,4357,16.22,1.3,30,4,0,0
65157,1.6577e+09,1,4354,4328,16.2,1.38,30,4,0,0
65553,1.6578e+09,1,4329,4414,16.17,1.37,30,4,0,0
65979,1.6579e+09,1,4414,4428,16.19,1.21,30,4,0,0
66898,1.6581e+09,1,4424,4285,16.18,1.34,30,4,0,0
67309,1.6582e+09,1,4273,4171,16.19,1.02,30,4,0,0
67755,1.6584e+09,1,4144,3814,16.12,1.34,30,4,0,0
68155,1.6585e+09,1,3813,3800,16.24,1.13,30,4,0,0
68625,1.6586e+09,1,3805,3928,16.19,1.49,30,4,0,0
69036,1.6587e+09,1,3945,4142,16.16,1.69,30,5,0,0
69483,1.6588e+09,1,4155,4257,16.16,1.39,30,5,0,0
69884,1.6589e+09,1,4255,4200,16.17,1.15,30,5,0,0
70332,1.659e+09,1,4197,4171,16.14,1.16,30,5,0,0
70781,1.6591e+09,1,4169,4157,16.16,1.54,30,5,0,0
71224,1.6592e+09,1,4168,4414,16.16,1.51,30,5,0,0
71674,1.6593e+09,1,4417,4457,16.12,1.54,30,5,0,0
72081,1.6594e+09,1,4460,4585,16.13,1.65,30,5,0,0
72992,1.6597e+09,1,4581,4500,16.2,1.3,30,5,0,0
73393,1.6598e+09,1,4491,4400,16.13,1.32,30,5,0,0
73836,1.6599e+09,1,4401,4428,16.17,1.73,30,5,0,0
74284,1.66e+09,1,4429,4442,16.11,1.4,30,5,0,0
74688,1.6601e+09,1,4440,4371,16.13,2.04,30,5,0,0
75589,1.6603e+09,1,4366,4242,16.23,1.35,30,5,0,0
76022,1.6604e+09,1,4248,4371,16.14,1.95,30,5,0,0
76458,1.6605e+09,1,4386,4685,16.04,1.69,30,5,0,0
76901,1.6606e+09,1,4658,4385,16.17,1.02,30,5,0,0
77794,1.6608e+09,1,4379,4214,16.13,1.43,30,5,0,0
78647,1.6611e+09,1,4216,4542,16.13,1.52,30,5,0,0
79087,1.6612e+09,1,4539,4485,16.14,1.33,30,6,0,0
79537,1.6613e+09,1,4483,4414,16.16,1.3,30,6,0,0
80432,1.6615e+09,1,4406,4242,16.13,1.33,30,6,0,0
80835,1.6616e+09,1,4238,4171,16.19,1.16,30,6,0,0
81287,1.6617e+09,1,4167,4071,16.11,1.2,30,6,0,0
81771,1.6618e+09,1,4085,4271,16.14,1.53,30,6,0,0
82220,1.6619e+09,1,4283,4414,16.06,1.7,30,6,0,0
82623,1.662e+09,1,4415,4457,16.13,1.53,30,6,0,0
83109,1.6621e+09,1,4457,4471,16.07,1.46,30,6,0,0
83549,1.6623e+09,1,4468,4428,16.14,1.32,30,6,0,0
83996,1.6624e+09,1,4428,4428,16.08,1.63,30,6,0,0
84445,1.6625e+09,1,4430,4457,16.05,1.54,30,6,0,0
85298,1.6627e+09,1,4468,4700,16.08,1.48,30,6,0,0
85703,1.6628e+09,1,4698,4600,16.12,1.36,30,6,0,0
86152,1.6629e+09,1,4593,4457,16.1,1.44,30,6,0,0
86627,1.663e+09,1,4458,4471,16.08,1.38,30,6,0,0
87020,1.6631e+09,1,4484,4657,16.13,1.81,30,6,0,0
87458,1.6632e+09,1,4651,4514,16.13,1.57,30,6,0,0
87907,1.6633e+09,1,4512,4428,16.1,1.44,30,6,0,0
88391,1.6635e+09,1,4420,4314,16.1,1.32,30,6,0,0
88841,1.6636e+09,1,4305,4185,16.16,1.23,30,6,0,0
89287,1.6637e+09,1,4194,4285,16.13,1.59,30,7,0,0
89733,1.6638e+09,1,4294,4400,16.12,1.46,30,7,0,0
90176,1.6639e+09,1,4404,4471,16.15,1.5,30,7,0,0
90624,1.664e+09,1,4471,4471,16.14,1.47,30,7,0,0
91075,1.6641e+09,1,4474,4514,16.12,1.83,30,7,0,0
91472,1.6642e+09,1,4515,4571,16.13,1.45,30,7,0,0
91924,1.6643e+09,1,4571,4585,16.16,1.44,30,7,0,0
92369,1.6644e+09,1,4586,4614,16.11,1.61,30,7,0,0
92818,1.6645e+09,1,4611,4585,16.12,1.45,30,7,0,0
93217,1.6646e+09,1,4588,4671,16.13,1.65,30,7,0,0
93670,1.6648e+09,1,4670,4657,16.05,1.66,30,7,0,0
94115,1.6649e+09,1,4659,4700,16.11,1.79,30,7,0,0
94562,1.665e+09,1,4700,4700,16.11,1.64,30,7,0,0
95014,1.6651e+09,1,4694,4642,16.16,1.35,30,7,0,0
95864,1.6653e+09,1,4634,4428,16.14,1.33,30,7,0,0
96265,1.6654e+09,1,4428,4442,16.1,1.5,30,7,0,0
96762,1.6655e+09,1,4446,4500,16.12,1.52,30,7,0,0
97170,1.6656e+09,1,4500,4500,16.14,1.25,30,7,0,0
97618,1.6657e+09,1,4499,4485,16.1,1.72,30,7,0,0
98061,1.6658e+09,1,4485,4485,16.08,1.46,30,7,0,0
98516,1.666e+09,1,4486,4500,16.08,1.44,30,7,0,0
98957,1.6661e+09,1,4506,4571,16.14,1.47,30,8,0,0
99407,1.6662e+09,1,4558,4457,16.05,1.36,30,8,0,0
99809,1.6663e+09,1,4460,4685,16.08,1.6,30,8,0,0
1.003e+05,1.6664e+09,1,4668,4557,16.1,1.62,30,8,0,0
1.0075e+05,1.6665e+09,1,4554,4528,16.08,1.38,30,8,0,0
1.0115e+05,1.6666e+09,1,4527,4457,16.08,1.2,30,8,0,0
1.016e+05,1.6667e+09,1,4451,4414,16.1,1.44,30,8,0,0
1.0244e+05,1.6669e+09,1,4413,4300,16.16,1.31,30,8,0,0
1.0294e+05,1.667e+09,1,4261,3885,16.2,1.06,30,8,0,0
1.0339e+05,1.6672e+09,1,3887,3914,16.08,1.8,30,8,0,0
1.0383e+05,1.6673e+09,1,3912,3900,16.16,1.29,30,8,0,0
1.0428e+05,1.6674e+09,1,3898,3885,16.2,1.23,29,8,0,0
1.0472e+05,1.6675e+09,1,3869,3685,16.19,1.62,30,8,0,0
1.0512e+05,1.6676e+09,1,3692,4200,15.99,2.39,30,8,0,0
1.0557e+05,1.6677e+09,1,4203,4485,16.11,1.39,30,8,0,0
1.0651e+05,1.6679e+09,1,4484,4471,16.06,1.41,30,8,0,0
1.0691e+05,1.668e+09,1,4462,4357,16.09,1.34,30,8,0,0
1.0732e+05,1.6681e+09,1,4357,4357,16.1,1.28,30,8,0,0
1.0772e+05,1.6682e+09,1,4351,4242,16.11,1,30,8,0,0
1.0822e+05,1.6683e+09,1,4238,4171,16.07,1.65,30,8,0,0
1.0862e+05,1.6684e+09,1,4189,4542,16.05,1.47,30,8,0,0
1.0903e+05,1.6685e+09,1,4535,4385,16.07,1.4,30,9,0,0
1.0948e+05,1.6687e+09,1,4362,4200,16.04,0.81,30,9,0,0
1.0993e+05,1.6688e+09,1,4205,4328,16.05,1.73,30,9,0,0
1.1037e+05,1.6689e+09,1,4339,4571,16.03,1.42,30,9,0,0
1.1082e+05,1.669e+09,1,4565,4485,16.04,1.28,30,9,0,0
1.1127e+05,1.6691e+09,1,4489,4542,16.04,1.41,30,9,0,0
1.1171e+05,1.6692e+09,1,4543,4585,16.02,1.4,29,9,0,0
1.1217e+05,1.6693e+09,1,4583,4500,16.06,1.61,30,9,0,0
1.1261e+05,1.6694e+09,1,4506,4600,16.09,1.37,30,9,0,0
1.1306e+05,1.6695e+09,1,4567,4257,16.07,1.18,30,9,0,0
1.1347e+05,1.6696e+09,1,4266,4400,16.08,1.43,29,9,0,0
1.1436e+05,1.6699e+09,1,4401,4428,16.07,1.65,29,9,0,0
1.1477e+05,1.67e+09,1,4429,4514,16.13,1.35,29,9,0,0
1.1522e+05,1.6701e+09,1,4512,4428,16.13,1.1,29,9,0,0
1.1566e+05,1.6702e+09,1,4426,4385,16.14,1.3,30,9,0,0
1.1611e+05,1.6703e+09,1,4389,4471,16.13,1.54,29,9,0,0
1.1656e+05,1.6704e+09,1,4467,4428,16.13,1.42,29,9,0,0
1.1701e+05,1.6705e+09,1,4430,4528,16.13,1.57,29,9,0,0
1.1746e+05,1.6706e+09,1,4522,4471,16.12,1.34,29,9,0,0
1.1791e+05,1.6707e+09,1,4477,4571,16.17,1.47,29,9,0,0
1.1836e+05,1.6708e+09,1,4561,4414,16.12,1.31,29,9,0,0
1.1885e+05,1.671e+09,1,4394,4242,16.15,1.08,29,9,0,0
1.1925e+05,1.6711e+09,1,4241,4214,16.14,1.09,29,10,0,0
1.1974e+05,1.6712e+09,1,4220,4314,16.03,1.96,29,10,0,0
1.2015e+05,1.6713e+09,1,4323,4928,16.01,2.47,29,10,0,0
1.2059e+05,1.6714e+09,1,4931,5000,15.94,1.94,29,10,0,0
1.2104e+05,1.6715e+09,1,5001,5142,15.91,2.22,29,10,0,0
1.2152e+05,1.6716e+09,1,5138,5100,16.01,1.74,29,10,0,0
1.2193e+05,1.6717e+09,1,5091,4900,16.07,1.78,29,10,0,0
1.2238e+05,1.6718e+09,1,4898,4885,16.07,1.6,29,10,0,0
1.2284e+05,1.6719e+09,1,4877,4800,16.08,1.5,29,10,0,0
1.2328e+05,1.672e+09,1,4790,4700,16.09,1.3,29,10,0,0
1.2368e+05,1.6721e+09,1,4697,4557,16.12,1.19,29,10,0,0
1.2412e+05,1.6723e+09,1,4548,4357,16.07,1.37,29,10,0,0
1.2457e+05,1.6724e+09,1,4357,4400,16.05,1.48,29,10,0,0
1.2503e+05,1.6725e+09,1,4400,4400,16.08,1.25,29,10,0,0
1.2543e+05,1.6726e+09,1,4407,4557,16.09,1.46,29,10,0,0
1.2593e+05,1.6727e+09,1,4569,4700,16.09,1.62,29,10,0,0
1.2638e+05,1.6728e+09,1,4704,4771,16.03,1.65,29,10,0,0
1.2682e+05,1.6729e+09,1,4778,5071,16.04,2.04,29,10,0,0
1.2727e+05,1.673e+09,1,5061,4928,16.04,2.01,29,10,0,0
1.2772e+05,1.6731e+09,1,4924,4885,16.02,1.55,29,10,0,0
1.2817e+05,1.6732e+09,1,4868,4700,16.03,1.46,29,10,0,0
1.2858e+05,1.6733e+09,1,4699,4671,15.92,1.64,29,11,0,0
1.2906e+05,1.6735e+09,1,4667,4628,15.98,1.49,29,11,0,0
1.2946e+05,1.6736e+09,1,4626,4600,16,1.51,29,11,0,0
1.2992e+05,1.6737e+09,1,4598,4571,16.01,1.32,29,11,0,0
1.304e+05,1.6738e+09,1,4567,4528,15.98,1.53,29,11,0,0
1.3085e+05,1.6739e+09,1,4528,4528,15.97,1.27,29,11,0,0
1.313e+05,1.674e+09,1,4525,4500,15.97,1.36,29,11,0,0
1.3172e+05,1.6741e+09,1,4503,4557,15.97,1.3,29,11,0,0
1.3216e+05,1.6742e+09,1,4540,4371,16.01,1.19,29,11,0,0
1.3257e+05,1.6743e+09,1,4368,4342,16.02,1.18,29,11,0,0
1.3297e+05,1.6744e+09,1,4342,4371,15.92,1.41,29,11,0,0
1.339e+05,1.6747e+09,1,4399,4985,15.88,2.2,29,11,0,0
1.3431e+05,1.6748e+09,1,4985,5000,15.92,2.21,29,11,0,0
1.348e+05,1.6749e+09,1,5027,5300,15.94,2.41,29,11,0,0
1.3521e+05,1.675e+09,1,5294,5242,15.97,2.08,29,11,0,0
1.3607e+05,1.6752e+09,1,5228,4928,15.99,1.72,29,11,0,0
1.3651e+05,1.6753e+09,1,4917,4771,15.99,1.64,29,11,0,0
1.3696e+05,1.6754e+09,1,4775,4842,15.93,1.81,29,11,0,0
1.3741e+05,1.6755e+09,1,4840,4828,16,1.96,29,12,0,0
1.3782e+05,1.6756e+09,1,4828,4842,16.01,1.8,29,12,0,0
1.3831e+05,1.6758e+09,1,4807,4628,16.05,1.31,29,12,0,0
1.392e+05,1.676e+09,1,4623,4528,16.08,2.01,29,12,0,0
1.3962e+05,1.6761e+09,1,4533,4600,16.07,1.66,29,12,0,0
1.4002e+05,1.6762e+09,1,4600,4628,16.11,1.57,29,12,0,0
1.405e+05,1.6763e+09,1,4629,4657,16.07,1.66,29,12,0,0
1.4099e+05,1.6764e+09,1,4647,4528,16.09,1.27,29,12,0,0
1.4144e+05,1.6765e+09,1,4526,4514,15.99,1.35,29,12,0,0
1.4185e+05,1.6766e+09,1,4513,4500,16.09,1.44,29,12,0,0
1.4229e+05,1.6767e+09,1,4503,4685,16.01,1.98,29,12,0,0
1.4274e+05,1.6768e+09,1,4697,4985,15.94,2.26,29,12,0,0
1.4319e+05,1.677e+09,1,4982,4785,16.05,1.39,29,12,0,0
1.4364e+05,1.6771e+09,1,4764,4528,16.04,1.26,29,12,0,0
1.4453e+05,1.6773e+09,1,4523,4400,15.96,1.83,29,12,0,0
1.4497e+05,1.6774e+09,1,4409,4542,15.97,1.88,29,12,0,0
1.4543e+05,1.6775e+09,1,4539,4514,16,1.43,29,12,0,0
1.4632e+05,1.6777e+09,1,4519,4657,16,1.91,29,13,0,0
1.4673e+05,1.6778e+09,1,4659,4842,15.9,2.19,29,13,0,0
1.4718e+05,1.6779e+09,1,4847,5085,15.97,2.12,29,13,0,0
1.4811e+05,1.6782e+09,1,5084,5071,15.94,1.95,29,13,0,0
1.4852e+05,1.6783e+09,1,5066,4900,16.03,1.57,29,13,0,0
1.4896e+05,1.6784e+09,1,4896,4842,15.96,1.73,29,13,0,0
1.4941e+05,1.6785e+09,1,4846,4900,15.95,1.74,29,13,0,0
1.4986e+05,1.6786e+09,1,4889,4785,15.94,1.64,29,13,0,0
1.5026e+05,1.6787e+09,1,4787,4871,15.91,1.99,29,13,0,0
1.5071e+05,1.6788e+09,1,4866,4814,15.97,1.34,29,13,0,0
1.5116e+05,1.6789e+09,1,4815,4828,15.96,1.95,29,13,0,0
1.5157e+05,1.679e+09,1,4830,4942,15.86,1.94,29,13,0,0
1.5206e+05,1.6791e+09,1,4971,5271,15.91,2.61,29,13,0,0
1.5246e+05,1.6792e+09,1,5271,5300,15.9,2.45,29,13,0,0
1.529e+05,1.6794e+09,1,5301,5400,15.92,2.24,29,13,0,0
1.5335e+05,1.6795e+09,1,5398,5385,15.87,2.29,29,13,0,0
1.5376e+05,1.6796e+09,1,5373,5214,15.95,2.19,29,14,0,0
1.5417e+05,1.6797e+09,1,5216,5314,15.95,2.19,29,14,0,0
1.5461e+05,1.6798e+09,1,5314,5314,15.92,2.54,29,14,0,0
1.5504e+05,1.6799e+09,1,5314,5357,15.89,2.43,29,14,0,0
1.5552e+05,1.68e+09,1,5358,5371,15.89,2.5,29,14,0,0
1.5682e+05,1.6803e+09,1,5372,5485,15.97,2.5,29,14,0,0
1.5726e+05,1.6804e+09,1,5481,5442,15.9,2.59,29,14,0,0
1.5768e+05,1.6805e+09,1,5441,5428,15.91,2.35,29,14,0,0
1.5813e+05,1.6807e+09,1,5412,5257,15.94,2,29,14,0,0
1.5858e+05,1.6808e+09,1,5247,5142,15.88,2.14,29,14,0,0
1.5902e+05,1.6809e+09,1,5138,5100,15.86,2.24,29,14,0,0
1.5947e+05,1.681e+09,1,5102,5128,15.86,2.27,29,14,0,0
1.5987e+05,1.6811e+09,1,5130,5157,15.91,2.17,29,15,0,0
1.6032e+05,1.6812e+09,1,5160,5200,15.95,2.27,29,15,0,0
1.6073e+05,1.6813e+09,1,5199,5185,15.95,2,29,15,0,0
1.6117e+05,1.6814e+09,1,5178,5085,15.94,1.95,29,15,0,0
1.6162e+05,1.6815e+09,1,5085,5114,15.88,2.17,29,15,0,0
1.6206e+05,1.6816e+09,1,5116,5157,15.87,2.22,29,15,0,0
1.6251e+05,1.6817e+09,1,5155,5128,15.91,2.32,29,15,0,0
1.6295e+05,1.6818e+09,1,5129,5157,15.87,2.33,29,15,0,0
1.634e+05,1.6819e+09,1,5154,5128,15.95,2.05,29,15,0,0
1.6384e+05,1.6821e+09,1,5130,5171,15.92,2.21,29,15,0,0
1.6429e+05,1.6822e+09,1,5179,5271,15.94,2.48,29,15,0,0
1.647e+05,1.6823e+09,1,5272,5300,15.92,2.47,29,15,0,0
1.6514e+05,1.6824e+09,1,5298,5285,15.92,2.23,29,15,0,0
1.6557e+05,1.6825e+09,1,5294,5414,15.89,2.48,29,15,0,0
1.66e+05,1.6826e+09,1,5414,5428,15.91,2.6,29,16,0,0
1.6645e+05,1.6827e+09,1,5434,5528,15.95,2.77,29,16,0,0
1.6689e+05,1.6828e+09,1,5533,5614,15.95,2.67,29,16,0,0
1.6734e+05,1.6829e+09,1,5596,5428,15.92,2.47,29,16,0,0
1.6775e+05,1.683e+09,1,5427,5414,15.88,2.43,29,16,0,0
1.6824e+05,1.6831e+09,1,5407,5314,15.94,2.17,29,16,0,0
1.6868e+05,1.6833e+09,1,5310,5228,15.89,2.11,29,16,0,0
1.6913e+05,1.6834e+09,1,5229,5257,15.89,2.4,29,16,0,0
1.6954e+05,1.6835e+09,1,5261,5300,15.86,2.6,29,16,0,0
1.6995e+05,1.6836e+09,1,5301,5328,15.85,2.41,29,16,0,0
1.704e+05,1.6837e+09,1,5321,5257,15.87,2.24,29,16,0,0
1.708e+05,1.6838e+09,1,5256,5228,15.91,2.19,29,16,0,0
1.7126e+05,1.6839e+09,1,5224,5042,15.85,1.79,29,16,0,0
1.717e+05,1.684e+09,1,5048,5114,15.94,2.17,29,16,0,0
1.7219e+05,1.6841e+09,1,5107,5042,15.95,1.86,29,16,0,0
1.7259e+05,1.6842e+09,1,5037,4985,15.95,2,29,17,0,0
1.7303e+05,1.6843e+09,1,4993,5114,15.88,2.4,29,17,0,0
1.7348e+05,1.6844e+09,1,5114,5114,15.89,2.29,29,17,0,0
1.7389e+05,1.6846e+09,1,5112,4985,15.92,1.92,29,17,0,0
1.7431e+05,1.6847e+09,1,4991,5071,15.93,2,29,17,0,0
1.7478e+05,1.6848e+09,1,5067,5028,15.94,1.56,29,17,0,0
1.7519e+05,1.6849e+09,1,5001,4742,15.93,1.37,29,17,0,0
1.7564e+05,1.685e+09,1,4732,4600,15.95,1.51,29,17,0,0
1.7608e+05,1.6851e+09,1,4594,4542,15.89,1.36,29,17,0,0
1.7653e+05,1.6852e+09,1,4535,4471,15.95,1.37,29,17,0,0
1.7697e+05,1.6853e+09,1,4475,4542,15.95,1.4,29,17,0,0
1.7742e+05,1.6854e+09,1,4543,4571,16,1.26,29,17,0,0
1.7788e+05,1.6855e+09,1,4561,4457,15.97,1.5,29,17,0,0
1.7831e+05,1.6856e+09,1,4464,4614,15.96,1.56,29,17,0,0
1.7877e+05,1.6858e+09,1,4625,4771,15.94,1.81,29,17,0,0
1.7921e+05,1.6859e+09,1,4796,5057,15.88,2.02,29,17,0,0
1.7962e+05,1.686e+09,1,5055,4942,15.95,1.89,29,17,0,0
1.8006e+05,1.6861e+09,1,4943,4971,15.92,1.61,29,17,0,0
1.805e+05,1.6862e+09,1,4964,4842,15.95,1.65,29,18,0,0
1.8096e+05,1.6863e+09,1,4840,4828,16,1.75,29,18,0,0
1.8135e+05,1.6864e+09,1,4836,4942,15.85,2.13,29,18,0,0
1.8179e+05,1.6865e+09,1,4948,5042,15.82,2.3,29,18,0,0
1.8218e+05,1.6866e+09,1,5044,5171,15.88,2.01,29,18,0,0
1.8263e+05,1.6867e+09,1,5168,5000,15.92,1.77,29,18,0,0
1.8308e+05,1.6868e+09,1,5000,5000,15.88,1.8,29,18,0,0
1.8353e+05,1.6869e+09,1,5000,5014,15.91,2.09,29,18,0,0
1.8397e+05,1.6871e+09,1,5018,5057,15.87,2.2,29,18,0,0
1.8442e+05,1.6872e+09,1,5064,5114,15.89,1.94,29,18,0,0
1.8482e+05,1.6873e+09,1,5105,4871,15.93,1.73,29,18,0,0
1.8526e+05,1.6874e+09,1,4858,4657,15.91,1.34,29,18,0,0
1.8571e+05,1.6875e+09,1,4639,4457,15.94,1.31,29,18,0,0
1.8612e+05,1.6876e+09,1,4457,4471,15.88,1.41,29,18,0,0
1.8657e+05,1.6877e+09,1,4471,4471,15.92,1.39,29,18,0,0
1.8702e+05,1.6878e+09,1,4472,4485,15.89,1.74,29,18,0,0
1.8747e+05,1.6879e+09,1,4490,4542,15.94,1.59,29,18,0,0
1.8787e+05,1.688e+09,1,4556,4657,15.98,1.51,29,18,0,0
1.8829e+05,1.6881e+09,1,4656,4642,15.95,1.56,29,18,0,0
1.8964e+05,1.6885e+09,1,4640,4585,15.99,1.39,29,19,0,0
1.9004e+05,1.6886e+09,1,4591,4700,15.95,1.7,29,19,0,0
1.9049e+05,1.6887e+09,1,4697,4642,15.94,1.76,29,19,0,0
1.9093e+05,1.6888e+09,1,4646,4857,15.97,2.03,29,19,0,0
1.9138e+05,1.6889e+09,1,4859,4957,15.94,2.13,29,19,0,0
1.9183e+05,1.689e+09,1,4970,5100,15.86,2.01,29,19,0,0
1.9224e+05,1.6891e+09,1,5098,5014,15.95,1.77,29,19,0,0
1.9272e+05,1.6892e+09,1,5005,4914,15.82,1.73,29,19,0,0
1.9312e+05,1.6893e+09,1,4915,4942,15.84,1.79,29,19,0,0
1.9355e+05,1.6894e+09,1,4924,4671,15.99,1.5,29,19,0,0
1.9398e+05,1.6896e+09,1,4666,4628,15.95,1.45,29,19,0,0
1.9443e+05,1.6897e+09,1,4638,4742,15.93,1.55,29,19,0,0
1.9488e+05,1.6898e+09,1,4739,4714,15.93,1.67,29,19,0,0
1.9528e+05,1.6899e+09,1,4712,4657,15.94,1.57,29,19,0,0
1.9573e+05,1.69e+09,1,4661,4771,15.88,1.73,29,19,0,0
1.9618e+05,1.6901e+09,1,4769,4757,15.99,1.63,29,19,0,0
1.9658e+05,1.6902e+09,1,4754,4642,15.9,1.59,29,19,0,0
1.9703e+05,1.6903e+09,1,4652,4871,15.95,1.88,29,19,0,0
1.9745e+05,1.6904e+09,1,4867,4814,15.86,1.65,29,20,0,0
1.979e+05,1.6905e+09,1,4821,4942,15.91,2.01,29,20,0,0
1.9834e+05,1.6906e+09,1,4942,4985,15.92,1.96,29,20,0,0
1.9878e+05,1.6907e+09,1,4985,4985,15.88,1.9,29,20,0,0
1.9922e+05,1.6909e+09,1,4985,5028,15.85,2.11,29,20,0,0
1.9964e+05,1.691e+09,1,5029,5042,15.87,1.97,29,20,0,0
2.0009e+05,1.6911e+09,1,5043,5071,15.92,2.29,29,20,0,0
2.0053e+05,1.6912e+09,1,5072,5085,15.86,2.09,29,20,0,0
2.0094e+05,1.6913e+09,1,5082,5057,15.9,1.83,29,20,0,0
2.0139e+05,1.6914e+09,1,5046,4957,15.89,1.87,29,20,0,0
2.0179e+05,1.6915e+09,1,4958,5028,15.93,2.03,29,20,0,0
2.0224e+05,1.6916e+09,1,5025,4842,15.89,1.63,29,20,0,0
2.0273e+05,1.6917e+09,1,4845,4885,15.95,1.77,29,20,0,0
2.0314e+05,1.6918e+09,1,4883,4871,15.91,1.8,29,20,0,0
2.0354e+05,1.6919e+09,1,4871,4885,15.94,1.82,29,20,0,0
2.0399e+05,1.692e+09,1,4883,4871,15.95,1.87,29,20,0,0
2.0448e+05,1.6922e+09,1,4878,4957,15.89,1.75,29,20,0,0
2.0486e+05,1.6923e+09,1,4953,4800,15.95,1.69,29,20,0,0
2.0525e+05,1.6924e+09,1,4783,4457,15.93,1.26,29,21,0,0
2.0569e+05,1.6925e+09,1,4471,4971,15.87,2.2,29,21,0,0
2.0614e+05,1.6926e+09,1,4972,5000,15.91,1.94,29,21,0,0
2.0663e+05,1.6927e+09,1,5010,5128,15.9,1.97,29,21,0,0
2.0707e+05,1.6928e+09,1,5118,5028,15.88,2.07,29,21,0,0
2.0752e+05,1.6929e+09,1,5029,5042,15.91,2.18,29,21,0,0
2.0793e+05,1.693e+09,1,5042,5085,15.94,1.86,29,21,0,0
2.0842e+05,1.6931e+09,1,5064,4785,15.95,1.4,29,21,0,0
2.0886e+05,1.6933e+09,1,4786,4800,15.91,1.73,29,21,0,0
2.0968e+05,1.6935e+09,1,4801,4971,15.79,2.1,29,21,0,0
2.1012e+05,1.6936e+09,1,4987,5157,15.81,2.36,29,21,0,0
2.1052e+05,1.6937e+09,1,5164,5500,15.79,3.05,29,21,0,0
2.1143e+05,1.6939e+09,1,5502,5571,15.79,2.32,29,21,0,0
2.1187e+05,1.694e+09,1,5550,5342,15.82,2.09,29,22,0,0
2.1232e+05,1.6941e+09,1,5335,5185,15.78,2.17,29,22,0,0
2.1276e+05,1.6942e+09,1,5172,5000,15.9,1.61,29,22,0,0
2.1321e+05,1.6943e+09,1,4990,4742,15.93,1.42,29,22,0,0
2.1406e+05,1.6945e+09,1,4742,4742,15.91,1.85,29,22,0,0
2.1449e+05,1.6947e+09,1,4743,4814,15.91,1.77,29,22,0,0
2.1496e+05,1.6948e+09,1,4827,4942,15.94,1.73,29,22,0,0
2.1536e+05,1.6949e+09,1,4940,4900,15.92,1.97,29,22,0,0
2.1581e+05,1.695e+09,1,4897,4857,15.92,1.62,29,22,0,0
2.1626e+05,1.6951e+09,1,4830,4542,15.91,1.27,29,22,0,0
2.1667e+05,1.6952e+09,1,4549,4742,15.92,1.71,29,22,0,0
2.1715e+05,1.6953e+09,1,4760,4957,15.88,2.06,29,22,0,0
2.176e+05,1.6954e+09,1,4970,5157,15.93,2.26,29,22,0,0
2.1805e+05,1.6955e+09,1,5150,5085,15.86,1.75,29,22,0,0
2.1845e+05,1.6956e+09,1,5081,5000,15.9,1.92,29,22,0,0
2.189e+05,1.6957e+09,1,4990,4742,15.82,1.31,28,22,0,0
2.1934e+05,1.6959e+09,1,4738,4514,15.96,1.27,29,22,0,0
2.1983e+05,1.696e+09,1,4508,4457,15.86,1.5,29,22,0,0
2.2023e+05,1.6961e+09,1,4452,4371,15.86,1.67,29,23,0,0
2.2072e+05,1.6962e+09,1,4382,4485,15.87,1.55,29,23,0,0
2.2117e+05,1.6963e+09,1,4490,4528,15.82,1.71,29,23,0,0
2.2157e+05,1.6964e+09,1,4529,4571,15.84,1.42,29,23,0,0
2.2202e+05,1.6965e+09,1,4554,4357,15.89,1.25,29,23,0,0
2.2245e+05,1.6966e+09,1,4356,4285,15.87,1.29,29,23,0,0
2.2292e+05,1.6967e+09,1,4275,4171,15.83,1.75,29,23,0,0
2.2336e+05,1.6969e+09,1,4183,4285,15.9,1.31,29,23,0,0
2.2376e+05,1.697e+09,1,4284,4228,15.9,1.43,29,23,0,0
2.2421e+05,1.6971e+09,1,4236,4357,15.85,1.55,29,23,0,0
2.2469e+05,1.6972e+09,1,4353,4314,15.86,1.46,29,23,0,0
2.2598e+05,1.6975e+09,1,4319,4485,15.9,1.31,29,23,0,0
2.2643e+05,1.6976e+09,1,4489,4528,15.92,1.43,29,23,0,0
2.2687e+05,1.6977e+09,1,4525,4485,15.77,1.57,29,23,0,0
2.2723e+05,1.6978e+09,1,4487,4657,15.86,1.7,29,23,0,0
2.2766e+05,1.6979e+09,1,4658,4700,15.92,1.93,29,23,0,0
2.2809e+05,1.698e+09,1,4700,4700,15.79,1.98,29,23,0,0
2.2858e+05,1.6981e+09,1,4705,4757,15.91,2,29,23,0,0
2.2902e+05,1.6983e+09,1,4771,4914,15.79,2.06,29,23,0,0
2.2942e+05,1.6983e+09,1,4911,4742,15.88,1.78,28,23,0,0
2.2991e+05,1.6985e+09,1,4746,4785,15.89,1.67,29,24,0,0
2.3035e+05,1.6986e+09,1,4766,4542,15.87,1.57,29,24,0,0
2.308e+05,1.6987e+09,1,4528,4228,15.9,1.36,29,24,0,0
2.312e+05,1.6988e+09,1,4215,4114,15.91,1.07,29,24,0,0
2.3208e+05,1.699e+09,1,4116,4157,15.92,1.12,28,24,0,0
2.3251e+05,1.6991e+09,1,4153,4114,15.94,0.95,28,24,0,0
2.329e+05,1.6992e+09,1,4114,4142,15.94,1.25,29,24,0,0
2.3339e+05,1.6993e+09,1,4142,4142,15.92,1.24,29,24,0,0
2.338e+05,1.6994e+09,1,4152,4385,15.91,1.58,29,24,0,0
2.3425e+05,1.6995e+09,1,4386,4485,15.91,1.39,29,24,0,0
2.3515e+05,1.6998e+09,1,4481,4428,15.87,1.33,29,24,0,0
2.3556e+05,1.6999e+09,1,4428,4428,15.86,1.44,28,24,0,0
2.3596e+05,1.7e+09,1,4428,4457,15.92,1.54,29,24,0,0
2.364e+05,1.7001e+09,1,4458,4542,15.91,1.6,28,24,0,0
2.3727e+05,1.7003e+09,1,4535,4371,15.88,1.2,28,24,0,0
2.3771e+05,1.7004e+09,1,4354,4185,15.92,1.25,29,24,0,0
2.3812e+05,1.7005e+09,1,4194,4300,15.89,1.35,29,24,0,0
2.3852e+05,1.7006e+09,1,4297,4271,15.84,1.45,28,24,0,0
2.3902e+05,1.7007e+09,1,4276,4357,15.91,1.27,29,24,0,0
2.3942e+05,1.7008e+09,1,4359,4414,15.88,1.55,29,24,0,0
2.3987e+05,1.701e+09,1,4418,4471,15.9,1.47,28,25,0,0
2.4031e+05,1.7011e+09,1,4468,4442,15.94,1.38,29,25,0,0
2.4075e+05,1.7012e+09,1,4439,4400,15.91,1.09,29,25,0,0
2.4118e+05,1.7013e+09,1,4410,4557,15.9,1.62,28,25,0,0
2.4161e+05,1.7014e+09,1,4560,4600,15.94,1.51,28,25,0,0
2.4201e+05,1.7015e+09,1,4596,4471,15.89,1.5,28,25,0,0
2.4246e+05,1.7016e+09,1,4479,4614,15.92,1.52,29,25,0,0
2.429e+05,1.7017e+09,1,4612,4585,15.86,1.52,28,25,0,0
2.4336e+05,1.7018e+09,1,4562,4357,15.94,1.17,28,25,0,0
2.4381e+05,1.7019e+09,1,4350,4214,15.98,1.04,28,25,0,0
2.4421e+05,1.702e+09,1,4222,4300,15.96,1.4,28,25,0,0
2.4505e+05,1.7023e+09,1,4299,4242,15.93,1.14,28,25,0,0
2.4548e+05,1.7024e+09,1,4243,4271,15.98,1.13,28,25,0,0
2.4636e+05,1.7026e+09,1,4266,4157,16,1.18,28,25,0,0
2.4681e+05,1.7027e+09,1,4161,4214,15.97,1.24,28,25,0,0
2.4721e+05,1.7028e+09,1,4211,4100,15.95,1.39,28,25,0,0
2.4771e+05,1.7029e+09,1,4107,4214,15.97,1.49,28,25,0,0
2.4816e+05,1.703e+09,1,4218,4257,15.9,1.83,28,25,0,0
2.486e+05,1.7031e+09,1,4259,4285,15.93,1.7,28,25,0,0
2.4899e+05,1.7032e+09,1,4284,4257,15.91,1.32,28,25,0,0
2.4946e+05,1.7033e+09,1,4249,4171,15.98,1.1,28,25,0,0
2.4986e+05,1.7035e+09,1,4161,3971,15.94,1.25,28,25,0,0
2.503e+05,1.7036e+09,1,3977,4128,15.9,1.44,28,25,0,0
2.5079e+05,1.7037e+09,1,4139,4271,15.89,1.56,28,26,0,0
2.512e+05,1.7038e+09,1,4271,4285,15.89,1.48,28,26,0,0
2.5169e+05,1.7039e+09,1,4289,4357,15.88,1.49,28,26,0,0
2.5209e+05,1.704e+09,1,4364,4514,15.86,1.7,28,26,0,0
2.5254e+05,1.7041e+09,1,4517,4585,15.78,1.86,28,26,0,0
2.5302e+05,1.7042e+09,1,4591,4685,15.83,1.73,28,26,0,0
2.5347e+05,1.7043e+09,1,4703,4900,15.82,2.07,28,26,0,0
2.5392e+05,1.7044e+09,1,4905,4985,15.76,2.33,28,26,0,0
2.5432e+05,1.7045e+09,1,4983,4957,15.85,1.82,28,26,0,0
2.5476e+05,1.7046e+09,1,4957,4985,15.84,1.87,28,26,0,0
2.5525e+05,1.7048e+09,1,4943,4400,15.92,1.25,28,26,0,0
2.5565e+05,1.7049e+09,1,4392,3971,15.97,1.12,28,26,0,0
2.5655e+05,1.7051e+09,1,3963,3800,15.96,1.36,28,26,0,0
2.5699e+05,1.7052e+09,1,3807,3971,15.95,1.33,28,26,0,0
2.5744e+05,1.7053e+09,1,3966,3914,15.92,1.59,28,26,0,0
2.5784e+05,1.7054e+09,1,3921,4085,15.95,1.9,28,26,0,0
2.5831e+05,1.7055e+09,1,4077,4000,15.93,1.54,28,26,0,0
2.587e+05,1.7056e+09,1,4010,4200,15.92,1.28,28,26,0,0
2.5915e+05,1.7057e+09,1,4201,4228,15.92,1.33,28,26,0,0
2.596e+05,1.7058e+09,1,4236,4400,15.9,1.57,28,26,0,0
2.6004e+05,1.706e+09,1,4407,4485,15.92,1.68,28,27,0,0
2.6046e+05,1.7061e+09,1,4479,4400,15.94,1.29,28,27,0,0
2.6086e+05,1.7062e+09,1,4393,4114,15.92,1.04,28,27,0,0
2.6133e+05,1.7063e+09,1,4115,4128,15.9,1.03,28,27,0,0
2.6171e+05,1.7064e+09,1,4127,4100,15.92,1.27,28,27,0,0
2.622e+05,1.7065e+09,1,4090,3971,15.94,1.54,28,27,0,0
2.626e+05,1.7066e+09,1,3971,3985,15.95,1.27,29,27,0,0
2.6305e+05,1.7067e+09,1,3998,4185,15.94,1.76,28,27,0,0
2.6354e+05,1.7068e+09,1,4203,4414,15.92,1.67,28,27,0,0
2.6399e+05,1.7069e+09,1,4421,4500,15.86,1.62,28,27,0,0
2.644e+05,1.707e+09,1,4510,4614,15.87,1.8,28,27,0,0
2.6485e+05,1.7071e+09,1,4615,4671,15.86,1.35,28,27,0,0
2.6532e+05,1.7073e+09,1,4678,4785,15.73,2.25,28,27,0,0
2.6573e+05,1.7074e+09,1,4793,4914,15.8,1.82,28,27,0,0
2.6618e+05,1.7075e+09,1,4914,4928,15.79,2.23,28,27,0,0
2.6658e+05,1.7076e+09,1,4927,4885,15.81,1.48,28,27,0,0
2.6711e+05,1.7077e+09,1,4885,4885,15.86,1.79,28,27,0,0
2.6751e+05,1.7078e+09,1,4880,4785,15.83,1.71,28,27,0,0
2.6792e+05,1.7079e+09,1,4783,4714,15.8,2,28,27,0,0
2.6836e+05,1.708e+09,1,4717,4900,15.78,2.08,28,27,0,0
2.6882e+05,1.7081e+09,1,4900,4900,15.76,1.86,28,27,0,0
2.6926e+05,1.7083e+09,1,4892,4842,15.81,1.88,28,28,0,0
2.6967e+05,1.7083e+09,1,4836,4742,15.83,1.66,28,28,0,0
2.7011e+05,1.7085e+09,1,4752,4828,15.82,1.74,28,28,0,0
2.7056e+05,1.7086e+09,1,4831,4871,15.8,1.77,28,28,0,0
2.71e+05,1.7087e+09,1,4863,4800,15.82,1.87,28,28,0,0
2.7146e+05,1.7088e+09,1,4794,4742,15.81,1.77,28,28,0,0
2.7186e+05,1.7089e+09,1,4742,4757,15.79,1.8,28,28,0,0
2.7231e+05,1.709e+09,1,4750,4685,15.84,1.54,28,28,0,0
2.7276e+05,1.7091e+09,1,4685,4685,15.85,1.65,28,28,0,0
2.7362e+05,1.7093e+09,1,4683,4642,15.79,1.73,28,28,0,0
2.7401e+05,1.7094e+09,1,4645,4771,15.78,1.78,28,28,0,0
2.7446e+05,1.7095e+09,1,4771,4842,15.73,1.97,28,28,0,0
2.749e+05,1.7097e+09,1,4844,4900,15.83,2.01,28,28,0,0
2.7584e+05,1.7099e+09,1,4898,4871,15.68,2.09,28,28,0,0
2.7721e+05,1.7102e+09,1,4878,5128,15.83,2.18,28,29,0,0
2.7766e+05,1.7103e+09,1,5121,5057,15.85,1.76,28,29,0,0
2.7806e+05,1.7104e+09,1,5055,4957,15.81,2,28,29,0,0
2.7856e+05,1.7105e+09,1,4959,4985,15.77,2.11,28,29,0,0
2.7894e+05,1.7106e+09,1,4988,5128,15.75,2.24,28,29,0,0
2.7941e+05,1.7108e+09,1,5121,5057,15.79,2.07,28,29,0,0
2.7981e+05,1.7109e+09,1,5052,4971,15.83,1.77,28,29,0,0
2.8026e+05,1.711e+09,1,4955,4828,15.83,1.63,28,29,0,0
2.8066e+05,1.7111e+09,1,4828,4842,15.79,1.98,28,29,0,0
2.8111e+05,1.7112e+09,1,4855,5000,15.78,2.02,28,29,0,0
2.8156e+05,1.7113e+09,1,4998,4985,15.76,1.85,28,29,0,0
2.8196e+05,1.7114e+09,1,4985,5000,15.82,1.93,28,29,0,0
2.8242e+05,1.7115e+09,1,4988,4900,15.81,1.87,28,29,0,0
2.8281e+05,1.7116e+09,1,4902,4957,15.77,2.33,28,29,0,0
2.8326e+05,1.7117e+09,1,4972,5200,15.75,2.52,28,29,0,0
2.8368e+05,1.7118e+09,1,5205,5328,15.79,2.45,28,30,0,0
2.8412e+05,1.7119e+09,1,5319,5000,15.76,1.96,28,30,0,0
2.8455e+05,1.7121e+09,1,5000,5014,15.86,1.79,28,30,0,0
2.8498e+05,1.7122e+09,1,5008,4942,15.75,2.1,28,30,0,0
2.8543e+05,1.7123e+09,1,4926,4685,15.82,1.48,28,30,0,0
2.8588e+05,1.7124e+09,1,4674,4571,15.89,1.64,28,30,0,0
2.8632e+05,1.7125e+09,1,4578,4685,15.86,1.85,28,30,0,0
2.8677e+05,1.7126e+09,1,4694,4785,15.85,2.56,28,30,0,0
2.8718e+05,1.7127e+09,1,4787,4814,15.87,1.72,28,30,0,0
2.8758e+05,1.7128e+09,1,4807,4500,15.9,1.47,28,30,0,0
2.8806e+05,1.7129e+09,1,4495,4414,15.94,1.5,28,30,0,0
2.8851e+05,1.713e+09,1,4458,4900,15.94,1.86,28,30,0,0
2.8896e+05,1.7131e+09,1,4845,4314,15.91,0.76,28,30,0,0
2.8936e+05,1.7132e+09,1,4305,3800,15.98,1.07,28,30,0,0
2.8985e+05,1.7134e+09,1,3794,3757,15.96,2.33,28,30,0,0
2.907e+05,1.7136e+09,1,3772,4114,15.76,2.65,28,30,0,0
2.9116e+05,1.7137e+09,1,4097,3928,15.79,2.1,28,30,0,0
2.9155e+05,1.7138e+09,1,3928,3942,15.85,1.6,28,30,0,0
2.9204e+05,1.7139e+09,1,3913,3500,15.81,1.53,28,31,0,0
2.9245e+05,1.714e+09,1,3545,4142,15.86,2.55,28,31,0,0
2.929e+05,1.7141e+09,1,4157,4357,15.9,1.74,28,31,0,0
2.9334e+05,1.7142e+09,1,4364,4514,15.86,1.82,28,31,0,0
2.9378e+05,1.7143e+09,1,4515,4542,15.79,1.83,28,31,0,0
2.9423e+05,1.7145e+09,1,4549,4657,15.87,1.69,28,31,0,0
2.9468e+05,1.7146e+09,1,4646,4528,15.83,1.06,28,31,0,0
2.9512e+05,1.7147e+09,1,4498,4214,15.93,1,28,31,0,0
2.9556e+05,1.7148e+09,1,4208,4157,15.78,1.62,28,31,0,0
2.9599e+05,1.7149e+09,1,4154,4100,15.89,1.8,28,31,0,0
2.9642e+05,1.715e+09,1,4116,4357,15.85,1.27,28,31,0,0
2.9688e+05,1.7151e+09,1,4346,4242,15.86,1.57,28,31,0,0
2.9728e+05,1.7152e+09,1,4257,4485,15.86,1.72,28,31,0,0
2.9773e+05,1.7153e+09,1,4489,4528,15.88,1.6,28,31,0,0
2.9813e+05,1.7154e+09,1,4531,4614,15.86,1.39,28,31,0,0
2.9862e+05,1.7155e+09,1,4608,4528,15.76,1.57,28,31,0,0
2.9902e+05,1.7156e+09,1,4525,4371,15.76,1.64,28,31,0,0
2.995e+05,1.7158e+09,1,4376,4457,15.86,1.76,28,31,0,0
2.9995e+05,1.7159e+09,1,4455,4442,15.83,1.49,28,31,0,0
3.004e+05,1.716e+09,1,4444,4471,15.87,1.23,28,31,0,0
3.008e+05,1.7161e+09,1,4464,4385,15.89,1.2,28,31,0,0
3.0124e+05,1.7162e+09,1,4364,4171,15.93,0.98,28,31,0,0
3.0163e+05,1.7163e+09,1,4173,4328,15.87,1.22,28,32,0,0
3.021e+05,1.7164e+09,1,4327,4314,15.89,1.3,28,32,0,0
3.0254e+05,1.7165e+09,1,4315,4328,15.88,1.32,28,32,0,0
3.0294e+05,1.7166e+09,1,4328,4342,15.93,1.09,28,32,0,0
3.034e+05,1.7167e+09,1,4339,4285,15.78,1.36,28,32,0,0
3.038e+05,1.7168e+09,1,4286,4357,15.81,1.57,28,32,0,0
3.0429e+05,1.7169e+09,1,4347,4242,15.89,1.1,28,32,0,0
3.0469e+05,1.717e+09,1,4240,4185,15.95,1.21,28,32,0,0
3.0514e+05,1.7172e+09,1,4183,4085,15.94,1.2,28,32,0,0
3.0558e+05,1.7173e+09,1,4092,4300,15.89,1.61,28,32,0,0
3.0602e+05,1.7174e+09,1,4311,4600,15.92,1.66,28,32,0,0
3.0651e+05,1.7175e+09,1,4616,4800,15.89,1.48,28,32,0,0
3.0692e+05,1.7176e+09,1,4800,4800,15.84,1.6,28,32,0,0
3.0737e+05,1.7177e+09,1,4797,4757,15.89,1.39,28,32,0,0
3.0778e+05,1.7178e+09,1,4759,4814,15.86,1.66,28,32,0,0
3.0823e+05,1.7179e+09,1,4811,4714,15.85,1.34,28,32,0,0
3.0866e+05,1.718e+09,1,4700,4528,15.87,1.23,28,32,0,0
3.0909e+05,1.7181e+09,1,4525,4500,15.89,1.22,28,32,0,0
3.0949e+05,1.7182e+09,1,4483,4271,15.88,0.98,28,32,0,0
3.0994e+05,1.7184e+09,1,4267,4214,15.83,1.06,28,32,0,0
3.1039e+05,1.7185e+09,1,4219,4271,15.85,1.16,28,32,0,0
3.1079e+05,1.7186e+09,1,4273,4328,15.91,1.27,28,32,0,0
3.1128e+05,1.7187e+09,1,4322,4285,15.89,1.21,28,32,0,0
3.1167e+05,1.7188e+09,1,4285,4300,15.83,1.13,28,32,0,0
3.1216e+05,1.7189e+09,1,4279,4142,15.91,1.31,28,32,0,0
3.1293e+05,1.7191e+09,1,4150,4285,15.87,1.59,28,33,0,0
3.1334e+05,1.7192e+09,1,4306,4500,15.86,1.57,28,33,0,0
3.1379e+05,1.7193e+09,1,4479,4185,15.91,0.79,28,33,0,0
3.1422e+05,1.7194e+09,1,4175,3971,15.83,1.44,28,33,0,0
3.1465e+05,1.7196e+09,1,3992,4342,15.9,1.61,28,33,0,0
3.1508e+05,1.7197e+09,1,4345,4528,15.9,1.64,28,33,0,0
3.1553e+05,1.7198e+09,1,4532,4571,15.87,1.87,28,33,0,0
3.1598e+05,1.7199e+09,1,4588,4742,15.88,1.87,28,33,0,0
3.1642e+05,1.72e+09,1,4748,4857,15.89,1.69,28,33,0,0
3.1687e+05,1.7201e+09,1,4848,4685,15.88,1.53,28,33,0,0
3.1731e+05,1.7202e+09,1,4686,4700,15.88,1.41,28,33,0,0
3.178e+05,1.7203e+09,1,4695,4642,15.88,1.57,28,33,0,0
3.1821e+05,1.7204e+09,1,4651,4785,15.87,1.72,28,33,0,0
3.1866e+05,1.7205e+09,1,4784,4771,15.87,1.78,28,33,0,0
3.191e+05,1.7207e+09,1,4769,4757,15.87,1.55,28,33,0,0
3.1959e+05,1.7208e+09,1,4767,4871,15.83,1.69,28,33,0,0
3.1999e+05,1.7209e+09,1,4857,4742,15.83,1.45,28,33,0,0
3.2044e+05,1.721e+09,1,4733,4557,15.85,1.34,28,33,0,0
3.2084e+05,1.7211e+09,1,4554,4471,15.86,1.44,28,33,0,0
3.2129e+05,1.7212e+09,1,4466,4300,15.86,1.05,28,33,0,0
3.2219e+05,1.7214e+09,1,4294,4142,15.89,1.22,28,34,0,0
3.2264e+05,1.7215e+09,1,4145,4200,15.88,1.36,28,34,0,0
3.2352e+05,1.7217e+09,1,4203,4285,15.84,1.21,28,34,0,0
3.2393e+05,1.7218e+09,1,4285,4328,15.82,1.49,28,34,0,0
3.2482e+05,1.7221e+09,1,4330,4657,15.86,1.46,28,34,0,0
3.2527e+05,1.7222e+09,1,4654,4500,15.92,1.2,28,34,0,0
3.2576e+05,1.7223e+09,1,4485,4271,15.88,0.96,28,34,0,0
3.2616e+05,1.7224e+09,1,4257,3971,15.88,1.18,28,34,0,0
3.2665e+05,1.7225e+09,1,3968,3942,15.83,1.64,28,34,0,0
3.271e+05,1.7226e+09,1,3954,4071,15.86,1.89,28,34,0,0
3.275e+05,1.7227e+09,1,4076,4371,15.88,1.84,28,34,0,0
3.2795e+05,1.7228e+09,1,4376,4428,15.88,1.08,28,34,0,0
3.2841e+05,1.7229e+09,1,4420,4328,15.9,1.35,28,34,0,0
3.2885e+05,1.7231e+09,1,4330,4357,15.91,1.12,28,34,0,0
3.2929e+05,1.7232e+09,1,4351,4285,15.83,1.12,28,34,0,0
3.3015e+05,1.7234e+09,1,4292,4457,15.86,1.42,28,34,0,0
3.3055e+05,1.7235e+09,1,4460,4628,15.82,1.7,28,34,0,0
3.3103e+05,1.7236e+09,1,4634,4700,15.84,1.56,28,34,0,0
3.3148e+05,1.7237e+09,1,4698,4685,15.89,1.43,28,34,0,0
3.3193e+05,1.7238e+09,1,4679,4600,15.8,1.33,28,34,0,0
3.3238e+05,1.7239e+09,1,4610,4757,15.87,1.8,28,34,0,0
3.3286e+05,1.724e+09,1,4747,4642,15.88,1.43,28,35,0,0
3.3331e+05,1.7241e+09,1,4644,4671,15.88,1.56,28,35,0,0
3.3371e+05,1.7242e+09,1,4667,4585,15.89,1.42,28,35,0,0
3.3416e+05,1.7244e+09,1,4577,4514,15.88,1.21,28,35,0,0
3.3457e+05,1.7245e+09,1,4513,4500,15.86,1.29,28,35,0,0
3.3497e+05,1.7246e+09,1,4499,4485,15.87,1.54,28,35,0,0
3.3547e+05,1.7247e+09,1,4478,4414,15.88,1.11,28,35,0,0
3.3587e+05,1.7248e+09,1,4417,4471,15.86,1.28,28,35,0,0
3.3628e+05,1.7249e+09,1,4470,4428,15.88,1.26,28,35,0,0
3.3677e+05,1.725e+09,1,4417,4271,15.85,1.01,28,35,0,0
3.3721e+05,1.7251e+09,1,4265,4214,15.86,1.29,28,35,0,0
3.3766e+05,1.7252e+09,1,4221,4285,15.88,1.61,28,35,0,0
3.3811e+05,1.7253e+09,1,4286,4300,15.84,1.26,28,35,0,0
3.3855e+05,1.7254e+09,1,4304,4371,15.86,1.42,28,35,0,0
3.3945e+05,1.7257e+09,1,4380,4600,15.83,1.76,28,35,0,0
3.3989e+05,1.7258e+09,1,4605,4700,15.89,1.64,28,35,0,0
3.4032e+05,1.7259e+09,1,4684,4457,15.87,1.06,28,35,0,0
3.4119e+05,1.7261e+09,1,4459,4614,15.82,1.5,28,35,0,0
3.4168e+05,1.7262e+09,1,4610,4571,15.88,1.34,28,35,0,0
3.4213e+05,1.7263e+09,1,4562,4471,15.83,1.53,28,35,0,0
3.4257e+05,1.7264e+09,1,4467,4428,15.85,1.54,28,35,0,0
3.4297e+05,1.7265e+09,1,4428,4457,15.88,1.36,28,35,0,0
3.4347e+05,1.7267e+09,1,4463,4528,15.83,1.55,28,36,0,0
3.4391e+05,1.7268e+09,1,4526,4514,15.85,1.48,28,36,0,0
3.4432e+05,1.7269e+09,1,4518,4571,15.82,1.53,28,36,0,0
3.4481e+05,1.727e+09,1,4571,4571,15.89,1.28,28,36,0,0
3.4521e+05,1.7271e+09,1,4569,4457,15.86,1.42,28,36,0,0
3.4565e+05,1.7272e+09,1,4453,4414,15.86,1.4,28,36,0,0
3.461e+05,1.7273e+09,1,4423,4528,15.91,1.23,28,36,0,0
3.4654e+05,1.7274e+09,1,4524,4457,15.86,1.61,28,36,0,0
3.4695e+05,1.7275e+09,1,4458,4585,15.83,1.71,28,36,0,0
3.4738e+05,1.7276e+09,1,4584,4571,15.75,1.39,28,36,0,0
3.4781e+05,1.7277e+09,1,4569,4514,15.78,1.55,28,36,0,0
3.4826e+05,1.7279e+09,1,4534,4742,15.76,2.02,28,36,0,0
3.4871e+05,1.728e+09,1,4763,5000,15.83,2.38,28,36,0,0
3.4911e+05,1.7281e+09,1,5002,5185,15.8,1.96,28,36,0,0
3.4955e+05,1.7282e+09,1,5184,5171,15.83,1.88,28,36,0,0
3.5e+05,1.7283e+09,1,5171,5214,15.84,1.89,28,36,0,0
3.5044e+05,1.7284e+09,1,5207,5114,15.81,2.17,28,36,0,0
3.5089e+05,1.7285e+09,1,5117,5171,15.78,1.8,28,36,0,0
3.5134e+05,1.7286e+09,1,5169,5157,15.83,2.12,28,36,0,0
3.5179e+05,1.7287e+09,1,5148,5057,15.85,1.95,28,37,0,0
3.5219e+05,1.7288e+09,1,5059,5114,15.76,2.06,28,37,0,0
3.5308e+05,1.7291e+09,1,5113,5100,15.76,2.11,28,37,0,0
3.5349e+05,1.7292e+09,1,5112,5242,15.82,2.15,28,37,0,0
3.539e+05,1.7293e+09,1,5233,5114,15.82,1.86,28,37,0,0
3.5477e+05,1.7295e+09,1,5116,5200,15.88,2.13,28,37,0,0
3.5521e+05,1.7296e+09,1,5192,5114,15.79,2.04,28,37,0,0
3.5566e+05,1.7297e+09,1,5110,5071,15.87,1.74,28,37,0,0
3.561e+05,1.7298e+09,1,5056,4914,15.84,1.59,28,37,0,0
3.5655e+05,1.7299e+09,1,4919,4971,15.83,1.82,28,37,0,0
3.5695e+05,1.73e+09,1,4968,4914,15.82,1.8,28,37,0,0
3.574e+05,1.7301e+09,1,4914,4914,15.82,1.74,28,37,0,0
3.5784e+05,1.7302e+09,1,4900,4714,15.83,1.61,28,37,0,0
3.5828e+05,1.7304e+09,1,4711,4685,15.83,1.56,28,37,0,0
3.587e+05,1.7305e+09,1,4683,4657,15.85,1.24,28,37,0,0
3.5914e+05,1.7306e+09,1,4656,4600,15.81,1.49,28,37,0,0
3.596e+05,1.7307e+09,1,4600,4628,15.82,1.62,28,37,0,0
3.6004e+05,1.7308e+09,1,4639,4800,15.83,2.08,28,38,0,0
3.6093e+05,1.731e+09,1,4812,5157,15.85,2.05,28,38,0,0
3.6132e+05,1.7311e+09,1,5158,5200,15.83,1.97,28,38,0,0
3.6172e+05,1.7312e+09,1,5195,5100,15.85,1.96,28,38,0,0
3.6217e+05,1.7313e+09,1,5101,5142,15.85,2.14,28,38,0,0
3.6262e+05,1.7314e+09,1,5147,5285,15.83,1.61,28,38,0,0
3.6306e+05,1.7315e+09,1,5281,5142,15.82,1.96,28,38,0,0
3.635e+05,1.7317e+09,1,5143,5157,15.79,1.91,28,38,0,0
3.6395e+05,1.7318e+09,1,5162,5242,15.88,2.05,28,38,0,0
3.6436e+05,1.7319e+09,1,5234,5128,15.83,1.73,28,38,0,0
3.648e+05,1.732e+09,1,5126,5085,15.87,1.7,28,38,0,0
3.6521e+05,1.7321e+09,1,5080,4857,15.86,1.45,28,38,0,0
3.661e+05,1.7323e+09,1,4844,4500,15.88,1.38,28,38,0,0
3.6654e+05,1.7324e+09,1,4498,4485,15.86,1.43,28,38,0,0
3.6697e+05,1.7325e+09,1,4481,4442,15.82,1.28,28,38,0,0
3.6737e+05,1.7326e+09,1,4448,4528,15.86,1.5,28,38,0,0
3.6781e+05,1.7327e+09,1,4537,4757,15.9,1.59,28,38,0,0
3.683e+05,1.7328e+09,1,4754,4714,15.96,1.4,28,39,0,0
3.6875e+05,1.733e+09,1,4699,4557,15.97,1.31,28,39,0,0
3.6915e+05,1.7331e+09,1,4537,4357,16,1.12,28,39,0,0
3.7008e+05,1.7333e+09,1,4355,4314,15.97,0.96,28,39,0,0
3.7052e+05,1.7334e+09,1,4308,4257,15.92,1.43,28,39,0,0
3.7093e+05,1.7335e+09,1,4258,4342,15.95,0.98,28,39,0,0
3.7138e+05,1.7336e+09,1,4335,4271,15.94,0.96,28,39,0,0
3.7183e+05,1.7337e+09,1,4271,4271,15.93,1.17,28,39,0,0
3.7223e+05,1.7338e+09,1,4275,4342,15.95,1.13,28,39,0,0
3.7268e+05,1.7339e+09,1,4354,4528,15.89,1.33,28,39,0,0
3.7311e+05,1.734e+09,1,4529,4557,15.87,1.39,28,39,0,0
3.7351e+05,1.7341e+09,1,4557,4600,15.89,1.39,28,39,0,0
3.7398e+05,1.7343e+09,1,4602,4642,15.91,1.33,28,39,0,0
3.7439e+05,1.7344e+09,1,4640,4585,15.88,1.33,28,39,0,0
3.7487e+05,1.7345e+09,1,4582,4528,15.83,1.23,28,39,0,0
3.7528e+05,1.7346e+09,1,4523,4428,15.91,1.25,28,39,0,0
3.7577e+05,1.7347e+09,1,4423,4385,15.89,1.1,28,39,0,0
3.7618e+05,1.7348e+09,1,4385,4385,15.9,1.24,28,39,0,0
3.7662e+05,1.7349e+09,1,4382,4271,15.93,1.14,28,39,0,0
3.7707e+05,1.735e+09,1,4264,4185,15.91,1.03,28,39,0,0
3.7752e+05,1.7351e+09,1,4185,4185,15.91,1.23,28,39,0,0
3.7795e+05,1.7352e+09,1,4199,4371,15.88,1.25,28,39,0,0
3.7838e+05,1.7353e+09,1,4371,4371,15.91,1.23,28,39,0,0
3.793e+05,1.7356e+09,1,4363,4228,15.91,1.29,28,39,0,0
3.7971e+05,1.7357e+09,1,4229,4314,15.93,1.32,28,39,0,0
3.8015e+05,1.7358e+09,1,4313,4300,15.89,0.97,28,40,0,0
3.806e+05,1.7359e+09,1,4307,4428,15.8,1.59,28,40,0,0
3.8105e+05,1.736e+09,1,4429,4442,15.85,1.51,28,40,0,0
3.8149e+05,1.7361e+09,1,4453,4614,15.88,1.54,28,40,0,0
3.8194e+05,1.7362e+09,1,4612,4585,15.86,1.33,28,40,0,0
3.8238e+05,1.7363e+09,1,4575,4457,15.88,1.16,28,40,0,0
3.8319e+05,1.7366e+09,1,4468,4642,15.79,1.57,28,40,0,0
3.8363e+05,1.7367e+09,1,4655,4785,15.82,1.56,28,40,0,0
3.8407e+05,1.7368e+09,1,4771,4657,15.82,1.41,28,40,0,0
3.8448e+05,1.7369e+09,1,4655,4600,15.87,1.25,28,40,0,0
3.8492e+05,1.737e+09,1,4591,4485,15.78,1.5,28,40,0,0
3.8538e+05,1.7371e+09,1,4478,4371,15.82,1.14,28,40,0,0
3.8582e+05,1.7372e+09,1,4380,4471,15.79,1.51,28,40,0,0
3.8626e+05,1.7373e+09,1,4462,4342,15.89,1.75,28,40,0,0
3.8667e+05,1.7374e+09,1,4345,4428,15.86,1.42,28,40,0,0
3.8712e+05,1.7375e+09,1,4431,4514,15.84,1.49,28,40,0,0
3.8751e+05,1.7376e+09,1,4516,4685,15.86,1.44,28,40,0,0
3.8794e+05,1.7377e+09,1,4679,4542,15.83,1.35,28,40,0,0
3.8839e+05,1.7379e+09,1,4566,4814,15.81,1.94,28,40,0,0
3.888e+05,1.738e+09,1,4821,4971,15.75,2.16,28,40,0,0
3.8925e+05,1.7381e+09,1,4977,5142,15.76,2.24,28,40,0,0
3.8974e+05,1.7382e+09,1,5132,5028,15.81,1.64,28,41,0,0
3.9014e+05,1.7383e+09,1,5015,4900,15.77,1.49,28,41,0,0
3.9054e+05,1.7384e+09,1,4898,4814,15.8,1.47,28,41,0,0
3.9103e+05,1.7385e+09,1,4817,4857,15.81,1.58,28,41,0,0
3.9152e+05,1.7386e+09,1,4847,4757,15.84,1.67,28,41,0,0
3.9196e+05,1.7387e+09,1,4753,4700,15.83,1.51,28,41,0,0
3.9236e+05,1.7388e+09,1,4699,4671,15.8,1.55,28,41,0,0
3.9282e+05,1.7389e+09,1,4669,4657,15.82,1.53,28,41,0,0
3.9322e+05,1.739e+09,1,4661,4742,15.86,1.77,28,41,0,0
3.9364e+05,1.7392e+09,1,4742,4742,15.8,1.66,28,41,0,0
3.9409e+05,1.7393e+09,1,4742,4742,15.85,1.63,28,41,0,0
3.9453e+05,1.7394e+09,1,4738,4700,15.85,1.36,28,41,0,0
3.9498e+05,1.7395e+09,1,4692,4614,15.86,1.54,28,41,0,0
3.9538e+05,1.7396e+09,1,4615,4700,15.82,1.57,28,41,0,0
3.9586e+05,1.7397e+09,1,4700,4714,15.83,1.55,28,41,0,0
3.9631e+05,1.7398e+09,1,4711,4685,15.82,1.51,28,41,0,0
3.968e+05,1.7399e+09,1,4681,4642,15.88,1.55,28,41,0,0
3.972e+05,1.74e+09,1,4642,4657,15.82,1.51,28,41,0,0
3.9769e+05,1.7401e+09,1,4668,4785,15.83,1.37,28,41,0,0
3.9809e+05,1.7402e+09,1,4785,4785,15.83,1.64,28,41,0,0
3.9854e+05,1.7403e+09,1,4783,4757,15.88,1.73,28,41,0,0
3.9899e+05,1.7405e+09,1,4762,4814,15.82,1.66,28,42,0,0
3.994e+05,1.7406e+09,1,4812,4757,15.85,1.61,28,42,0,0
3.9988e+05,1.7407e+09,1,4754,4728,15.73,2,28,42,0,0
4.0036e+05,1.7408e+09,1,4740,4814,15.79,1.63,28,42,0,0
4.0121e+05,1.741e+09,1,4813,4800,15.82,1.45,28,42,0,0
4.0166e+05,1.7411e+09,1,4800,4800,15.78,1.53,28,42,0,0
4.0211e+05,1.7412e+09,1,4794,4757,15.83,1.76,28,42,0,0
4.0255e+05,1.7413e+09,1,4759,4785,15.83,1.61,28,42,0,0
4.03e+05,1.7414e+09,1,4792,4871,15.82,1.96,28,42,0,0
4.0389e+05,1.7417e+09,1,4882,5085,15.73,2.02,28,42,0,0
4.0433e+05,1.7418e+09,1,5079,5028,15.78,1.88,28,42,0,0
4.0474e+05,1.7419e+09,1,5026,4885,15.82,1.67,28,42,0,0
4.0519e+05,1.742e+09,1,4883,4871,15.8,2.21,28,42,0,0
4.0564e+05,1.7421e+09,1,4857,4671,15.82,1.24,28,42,0,0
4.0608e+05,1.7422e+09,1,4673,4700,15.84,1.46,28,42,0,0
4.0653e+05,1.7423e+09,1,4682,4557,15.83,1.4,28,42,0,0
4.0696e+05,1.7424e+09,1,4563,4628,15.84,1.4,28,42,0,0
4.0738e+05,1.7425e+09,1,4628,4628,15.74,1.5,28,43,0,0
4.0832e+05,1.7428e+09,1,4624,4542,15.77,1.54,28,43,0,0
4.0876e+05,1.7429e+09,1,4542,4542,15.83,1.42,28,43,0,0
4.092e+05,1.743e+09,1,4552,4642,15.82,1.47,28,43,0,0
4.1005e+05,1.7432e+09,1,4638,4571,15.85,1.18,28,43,0,0
4.105e+05,1.7433e+09,1,4586,4742,15.81,1.67,28,43,0,0
4.1091e+05,1.7434e+09,1,4742,4742,15.83,1.59,28,43,0,0
4.1136e+05,1.7435e+09,1,4741,4728,15.79,1.48,28,43,0,0
4.1177e+05,1.7436e+09,1,4729,4785,15.85,1.66,28,43,0,0
4.1225e+05,1.7437e+09,1,4795,4900,15.81,1.63,28,43,0,0
4.1265e+05,1.7438e+09,1,4902,4942,15.84,1.75,28,43,0,0
4.131e+05,1.7439e+09,1,4938,4800,15.82,1.43,28,43,0,0
4.14e+05,1.7442e+09,1,4791,4642,15.83,1.56,28,43,0,0
4.144e+05,1.7443e+09,1,4642,4657,15.82,1.44,28,43,0,0
4.1529e+05,1.7445e+09,1,4657,4671,15.83,1.42,28,43,0,0
4.1573e+05,1.7446e+09,1,4671,4671,15.83,1.51,28,43,0,0
4.162e+05,1.7447e+09,1,4664,4600,15.83,1.44,28,43,0,0
4.1659e+05,1.7448e+09,1,4601,4671,15.8,1.78,28,43,0,0
4.1704e+05,1.7449e+09,1,4672,4742,15.83,1.82,28,44,0,0
4.1749e+05,1.745e+09,1,4740,4642,15.86,1.9,28,44,0,0
4.1798e+05,1.7451e+09,1,4657,4828,15.78,1.81,28,44,0,0
4.1838e+05,1.7452e+09,1,4826,4785,15.83,1.85,28,44,0,0
4.1882e+05,1.7454e+09,1,4783,4742,15.82,1.64,28,44,0,0
4.1927e+05,1.7455e+09,1,4743,4771,15.77,1.71,28,44,0,0
4.1972e+05,1.7456e+09,1,4772,4785,15.82,1.62,28,44,0,0
4.2013e+05,1.7457e+09,1,4784,4757,15.85,1.67,28,44,0,0
4.2102e+05,1.7459e+09,1,4756,4742,15.79,1.8,28,44,0,0
4.2147e+05,1.746e+09,1,4738,4685,15.88,1.43,28,44,0,0
4.219e+05,1.7461e+09,1,4675,4585,15.83,1.42,27,44,0,0
4.2234e+05,1.7462e+09,1,4587,4614,15.79,1.77,28,44,0,0
4.2278e+05,1.7463e+09,1,4622,4742,15.82,2.04,28,44,0,0
4.2322e+05,1.7464e+09,1,4745,4785,15.79,1.85,28,44,0,0
4.2368e+05,1.7466e+09,1,4783,4771,15.78,1.9,28,44,0,0
4.2412e+05,1.7467e+09,1,4778,4857,15.79,1.62,28,44,0,0
4.2457e+05,1.7468e+09,1,4848,4757,15.88,1.61,28,44,0,0
4.2497e+05,1.7469e+09,1,4758,4771,15.86,1.5,28,44,0,0
4.2538e+05,1.747e+09,1,4768,4685,15.77,1.56,28,44,0,0
4.2588e+05,1.7471e+09,1,4707,4971,15.81,2.1,28,45,0,0
4.2628e+05,1.7472e+09,1,4968,4785,15.83,1.4,28,45,0,0
4.2676e+05,1.7473e+09,1,4789,4842,15.84,1.9,28,45,0,0
4.2715e+05,1.7474e+09,1,4842,4842,15.8,1.47,28,45,0,0
4.2758e+05,1.7475e+09,1,4829,4657,15.8,1.39,28,45,0,0
4.2803e+05,1.7476e+09,1,4662,4828,15.84,2.05,28,45,0,0
4.2851e+05,1.7478e+09,1,4830,4857,15.74,2.14,28,45,0,0
4.2891e+05,1.7479e+09,1,4868,5028,15.7,2.11,28,45,0,0
4.2932e+05,1.748e+09,1,5026,5000,15.84,2.11,28,45,0,0
4.2981e+05,1.7481e+09,1,4992,4885,15.75,2.05,28,45,0,0
4.3021e+05,1.7482e+09,1,4885,4928,15.77,1.91,28,45,0,0
4.3069e+05,1.7483e+09,1,4920,4785,15.78,1.6,28,45,0,0
4.311e+05,1.7484e+09,1,4784,4742,15.79,1.61,28,45,0,0
4.3155e+05,1.7485e+09,1,4738,4657,15.83,1.74,28,45,0,0
4.32e+05,1.7486e+09,1,4649,4571,15.84,1.52,28,45,0,0
4.3248e+05,1.7487e+09,1,4571,4571,15.83,1.74,28,45,0,0
4.329e+05,1.7488e+09,1,4557,4371,15.91,1.34,28,45,0,0
4.3334e+05,1.749e+09,1,4382,4542,15.82,1.71,28,45,0,0
4.3378e+05,1.7491e+09,1,4544,4571,15.79,1.74,28,46,0,0
4.3418e+05,1.7492e+09,1,4574,4771,15.86,2.15,28,46,0,0
4.3463e+05,1.7493e+09,1,4774,4957,15.87,1.9,28,46,0,0
4.3511e+05,1.7494e+09,1,4961,5042,15.83,2,28,46,0,0
4.3556e+05,1.7495e+09,1,5039,5000,15.87,1.79,28,46,0,0
4.36e+05,1.7496e+09,1,4850,3500,16.1,0.24,28,46,0,0
4.3641e+05,1.7497e+09,1,3496,3200,15.98,0.63,28,46,0,0
4.3824e+05,1.7502e+09,1,3185,2257,16.23,0.32,28,46,0,0
4.3956e+05,1.7505e+09,1,2248,2000,16.22,0.17,28,46,0,0
4.4e+05,1.7506e+09,1,1996,1957,16.24,0.15,28,46,0,0
4.4045e+05,1.7507e+09,1,1961,2000,16.24,0.21,28,46,0,0
4.409e+05,1.7508e+09,1,1997,1971,16.23,0.18,28,46,0,0
4.4135e+05,1.7509e+09,1,1972,1985,16.23,0.18,28,46,0,0
4.4176e+05,1.751e+09,1,1983,1971,16.23,0.17,28,46,0,0
4.4221e+05,1.7511e+09,1,1969,1957,16.25,0.18,28,46,0,0
4.4261e+05,1.7512e+09,1,1957,1957,16.22,0.2,28,46,0,0
4.431e+05,1.7514e+09,1,1958,1971,16.25,0.19,28,46,0,0
4.4354e+05,1.7515e+09,1,1973,2014,16.25,0.2,28,46,0,0
4.4398e+05,1.7516e+09,1,2014,2014,16.25,0.19,28,46,0,0
4.4441e+05,1.7517e+09,1,2003,1900,16.3,0.04,28,46,0,0
4.4483e+05,1.7518e+09,1,1896,1557,16.3,0,28,46,0,0
4.4524e+05,1.7519e+09,1,1554,1357,16.29,0.06,28,46,0,0
4.4573e+05,1.752e+09,1,1354,1328,16.29,0.08,28,46,0,0
4.4618e+05,1.7521e+09,1,1326,1314,16.3,0.09,28,46,0,0
4.4662e+05,1.7522e+09,1,1314,1314,16.29,0.09,28,46,0,0
4.4708e+05,1.7523e+09,1,1314,1328,16.29,0.09,27,46,0,0
4.4752e+05,1.7524e+09,1,1327,1314,16.3,0.09,28,46,0,0
4.4797e+05,1.7525e+09,1,1314,1314,16.3,0.09,27,46,0,0
4.4842e+05,1.7527e+09,1,1314,1314,16.3,0.09,28,46,0,0
4.4891e+05,1.7528e+09,1,1314,1314,16.3,0.09,27,46,0,0
4.4936e+05,1.7529e+09,1,1315,1328,16.31,0.09,27,46,0,0
4.498e+05,1.753e+09,1,1327,1314,16.3,0.09,28,46,0,0
4.5023e+05,1.7531e+09,1,1314,1314,16.32,0.09,27,46,0,0
4.5067e+05,1.7532e+09,1,1314,1314,16.3,0.09,27,46,0,0
4.5112e+05,1.7533e+09,1,1314,1314,16.32,0.09,27,46,0,0
4.5152e+05,1.7534e+09,1,1314,1328,16.32,0.09,27,46,0,0
4.5201e+05,1.7535e+09,1,1327,1314,16.32,0.09,27,46,0,0
4.5241e+05,1.7536e+09,1,1314,1314,16.31,0.09,27,46,0,0
4.529e+05,1.7537e+09,1,1315,1328,16.32,0.09,27,46,0,0
4.5334e+05,1.7538e+09,1,1326,1314,16.32,0.09,27,46,0,0
4.5379e+05,1.7539e+09,1,1314,1314,16.32,0.09,27,46,0,0
4.5423e+05,1.754e+09,1,1314,1314,16.33,0.09,27,46,0,0
4.5472e+05,1.7542e+09,1,1314,1314,16.32,0.09,27,46,0,0
4.5517e+05,1.7543e+09,1,1314,1314,16.32,0.09,27,46,0,0
4.5561e+05,1.7544e+09,1,1314,1328,16.33,0.09,27,46,0,0
4.5604e+05,1.7545e+09,1,1328,1328,16.33,0.09,27,46,0,0
4.5696e+05,1.7547e+09,1,1327,1314,16.33,0.09,27,46,0,0
4.5781e+05,1.7549e+09,1,1314,1314,16.33,0.1,27,46,0,0
4.5826e+05,1.755e+09,1,1314,1314,16.33,0.09,27,46,0,0
4.5871e+05,1.7551e+09,1,1314,1328,16.34,0.09,27,46,0,0
4.5916e+05,1.7552e+09,1,1328,1328,16.34,0.09,27,46,0,0
4.5956e+05,1.7553e+09,1,1328,1328,16.35,0.09,27,46,0,0
4.6002e+05,1.7555e+09,1,1326,1314,16.34,0.09,27,46,0,0
4.6046e+05,1.7556e+09,1,1314,1328,16.33,0.09,27,46,0,0
4.6091e+05,1.7557e+09,1,1327,1314,16.35,0.09,27,46,0,0
4.6135e+05,1.7558e+09,1,1314,1328,16.35,0.09,27,46,0,0
4.618e+05,1.7559e+09,1,1328,1328,16.34,0.09,27,46,0,0
4.6225e+05,1.756e+09,1,1328,1328,16.35,0.09,27,46,0,0
4.627e+05,1.7561e+09,1,1328,1328,16.35,0.09,27,46,0,0
4.6318e+05,1.7562e+09,1,1328,1328,16.35,0.09,27,46,0,0
4.6359e+05,1.7563e+09,1,1328,1328,16.35,0.09,27,46,0,0
4.6404e+05,1.7564e+09,1,1328,1328,16.35,0.09,27,46,0,0
4.6446e+05,1.7565e+09,1,1328,1328,16.35,0.09,27,46,0,0
4.6491e+05,1.7566e+09,1,1328,1328,16.35,0.09,27,46,0,0
4.6536e+05,1.7568e+09,1,1328,1328,16.36,0.09,27,46,0,0
4.658e+05,1.7569e+09,1,1328,1328,16.35,0.09,27,46,0,0
4.6625e+05,1.757e+09,1,1328,1328,16.35,0.09,27,46,0,0
4.667e+05,1.7571e+09,1,1328,1328,16.35,0.09,27,46,0,0
4.6714e+05,1.7572e+09,1,1328,1328,16.36,0.1,27,46,0,0
4.6759e+05,1.7573e+09,1,1328,1328,16.36,0.09,27,46,0,0
4.6803e+05,1.7574e+09,1,1328,1328,16.36,0.09,27,46,0,0
4.6848e+05,1.7575e+09,1,1328,1328,16.36,0.09,27,46,0,0
4.6895e+05,1.7576e+09,1,1328,1328,16.36,0.09,27,46,0,0
4.6938e+05,1.7577e+09,1,1328,1328,16.36,0.09,27,46,0,0
4.6982e+05,1.7578e+09,1,1328,1328,16.36,0.09,27,46,0,0
4.7023e+05,1.7579e+09,1,1328,1328,16.36,0.09,27,46,0,0
4.7068e+05,1.758e+09,1,1328,1328,16.37,0.09,27,46,0,0
4.7117e+05,1.7582e+09,1,1328,1328,16.37,0.09,27,46,0,0
4.7161e+05,1.7583e+09,1,1328,1328,16.37,0.09,27,46,0,0
4.7206e+05,1.7584e+09,1,1328,1328,16.38,0.09,27,46,0,0
4.725e+05,1.7585e+09,1,1328,1328,16.38,0.09,27,46,0,0
4.7298e+05,1.7586e+09,1,1328,1328,16.38,0.09,27,46,0,0
4.734e+05,1.7587e+09,1,1328,1328,16.38,0.09,27,46,0,0
4.7383e+05,1.7588e+09,1,1328,1328,16.38,0.09,27,46,0,0
4.7428e+05,1.7589e+09,1,1327,1314,16.38,0.09,27,46,0,0
4.7473e+05,1.759e+09,1,1315,1328,16.38,0.09,27,46,0,0
4.7518e+05,1.7591e+09,1,1328,1328,16.37,0.09,27,46,0,0
4.7562e+05,1.7592e+09,1,1328,1328,16.37,0.09,27,46,0,0
4.7607e+05,1.7593e+09,1,1328,1328,16.38,0.09,27,46,0,0
4.7651e+05,1.7594e+09,1,1328,1328,16.38,0.09,27,46,0,0
4.7696e+05,1.7596e+09,1,1328,1328,16.39,0.09,27,46,0,0
4.7826e+05,1.7599e+09,1,1328,1328,16.38,0.09,27,46,0,0
4.7871e+05,1.76e+09,1,1328,1328,16.39,0.09,27,46,0,0
4.7916e+05,1.7601e+09,1,1328,1328,16.38,0.09,27,46,0,0
4.7964e+05,1.7602e+09,1,1328,1328,16.38,0.09,27,46,0,0
4.8008e+05,1.7603e+09,1,1328,1328,16.38,0.09,27,46,0,0
4.8053e+05,1.7604e+09,1,1328,1328,16.39,0.09,27,46,0,0
4.8098e+05,1.7605e+09,1,1328,1328,16.39,0.09,27,46,0,0
4.8143e+05,1.7606e+09,1,1328,1328,16.39,0.09,27,46,0,0
4.8188e+05,1.7607e+09,1,1328,1328,16.39,0.09,27,46,0,0
4.8235e+05,1.7609e+09,1,1328,1328,16.39,0.09,27,46,0,0
4.8278e+05,1.761e+09,1,1328,1328,16.39,0.09,27,46,0,0
4.8323e+05,1.7611e+09,1,1328,1328,16.39,0.09,27,46,0,0
4.8412e+05,1.7613e+09,1,1327,1314,16.39,0.09,27,46,0,0
4.8457e+05,1.7614e+09,1,1315,1328,16.4,0.09,27,46,0,0
4.8498e+05,1.7615e+09,1,1328,1328,16.39,0.09,27,46,0,0
4.8547e+05,1.7616e+09,1,1328,1328,16.4,0.09,27,46,0,0
4.8591e+05,1.7617e+09,1,1296,971,16.42,0.03,27,46,0,0
4.8635e+05,1.7618e+09,1,925,314,16.41,0,27,46,0,0
4.8684e+05,1.7619e+09,1,285,0,16.41,0.01,27,46,0,0
4.8725e+05,1.762e+09,1,0,0,16.41,0.02,27,46,0,0
4.8824e+05,1.7623e+09,1,0,0,16.42,0.02,27,46,0,0
4.8864e+05,1.7624e+09,1,0,0,16.41,0.02,27,46,0,0
4.8914e+05,1.7625e+09,1,0,0,16.42,0.02,27,46,0,0
4.8954e+05,1.7626e+09,1,0,0,16.42,0.02,27,46,0,0
4.9002e+05,1.7627e+09,1,0,0,16.42,0.02,27,46,0,0
4.9045e+05,1.7628e+09,1,0,0,16.42,0.02,27,46,0,0
4.9091e+05,1.7629e+09,1,0,0,16.42,0.02,27,46,0,0
4.9136e+05,1.763e+09,1,0,0,16.42,0.02,27,46,0,0
4.9181e+05,1.7631e+09,1,0,0,16.42,0.02,27,46,0,0
4.9226e+05,1.7632e+09,1,0,0,16.42,0.02,27,46,0,0
4.9272e+05,1.7634e+09,1,0,0,16.42,0.02,27,46,0,0
4.9317e+05,1.7635e+09,1,0,0,16.42,0.02,27,46,0,0
4.9366e+05,1.7636e+09,1,0,0,16.42,0.02,27,46,0,0
4.9409e+05,1.7637e+09,1,0,0,16.42,0.02,27,46,0,0
4.9453e+05,1.7638e+09,1,0,0,16.42,0.02,27,46,0,0
4.9498e+05,1.7639e+09,1,0,0,16.42,0.02,27,46,0,0
4.9543e+05,1.764e+09,1,0,0,16.42,0.02,27,46,0,0
4.9593e+05,1.7641e+09,1,0,0,16.42,0.02,27,46,0,0
4.9638e+05,1.7642e+09,1,0,0,16.43,0.02,27,46,0,0
4.9687e+05,1.7643e+09,1,0,0,16.43,0.02,27,46,0,0
4.9732e+05,1.7644e+09,1,0,0,16.43,0.02,27,46,0,0
4.9778e+05,1.7645e+09,1,0,0,16.43,0.02,27,46,0,0
4.9821e+05,1.7647e+09,1,0,0,16.43,0.02,27,46,0,0
4.9868e+05,1.7648e+09,1,0,0,16.42,0.02,27,46,0,0
4.9913e+05,1.7649e+09,1,0,0,16.43,0.02,27,46,0,0
4.9959e+05,1.765e+09,1,0,0,16.43,0.02,27,46,0,0
5.0004e+05,1.7651e+09,1,0,0,16.43,0.02,27,46,0,0
5.0049e+05,1.7652e+09,1,0,0,16.44,0.02,27,46,0,0
5.0094e+05,1.7653e+09,1,0,0,16.43,0.02,27,46,0,0
5.0142e+05,1.7654e+09,1,0,0,16.44,0.02,27,46,0,0
5.0275e+05,1.7657e+09,1,0,0,16.44,0.02,27,46,0,0
5.0321e+05,1.7658e+09,1,0,0,16.44,0.02,27,46,0,0
5.0366e+05,1.766e+09,1,0,0,16.44,0.02,27,46,0,0
5.0411e+05,1.7661e+09,1,0,0,16.44,0.02,27,46,0,0
5.046e+05,1.7662e+09,1,0,0,16.44,0.02,27,46,0,0
5.0501e+05,1.7663e+09,1,0,0,16.44,0.02,27,46,0,0
5.055e+05,1.7664e+09,1,0,0,16.44,0.02,27,46,0,0
5.0637e+05,1.7666e+09,1,0,0,16.43,0.02,27,46,0,0
5.0682e+05,1.7667e+09,1,0,0,16.44,0.02,27,46,0,0
5.0727e+05,1.7668e+09,1,0,0,16.44,0.02,27,46,0,0
5.0777e+05,1.7669e+09,1,0,0,16.44,0.02,27,46,0,0
5.0822e+05,1.767e+09,1,0,0,16.44,0.02,27,46,0,0
