LineNo,TimeUS,Instance,RPM,RawRPM,Volt,Curr,Temp,CTot,MotTemp,Err
2062,1.6424e+09,3,0,0,16.73,0.03,28,0,0,0
2497,1.6425e+09,3,0,0,16.73,0.03,28,0,0,0
2947,1.6426e+09,3,0,0,16.73,0.03,28,0,0,0
3448,1.6427e+09,3,0,0,16.73,0.03,28,0,0,0
3899,1.6428e+09,3,0,0,16.73,0.03,28,0,0,0
4351,1.6429e+09,3,0,0,16.73,0.03,28,0,0,0
4784,1.643e+09,3,0,0,16.73,0.03,28,0,0,0
5707,1.6433e+09,3,0,0,16.73,0.03,28,0,0,0
6162,1.6434e+09,3,0,0,16.72,0.02,29,0,0,0
6659,1.6435e+09,3,36,414,16.71,0.05,28,0,0,0
7073,1.6436e+09,3,434,771,16.69,0.11,29,0,0,0
7540,1.6437e+09,3,799,1171,16.7,0.15,28,0,0,0
7992,1.6438e+09,3,1178,1285,16.7,0.11,29,0,0,0
8445,1.6439e+09,3,1287,1328,16.72,0.11,28,0,0,0
9389,1.6441e+09,3,1328,1357,16.71,0.1,29,0,0,0
9827,1.6442e+09,3,1357,1357,16.72,0.1,29,0,0,0
10306,1.6443e+09,3,1357,1357,16.71,0.1,29,0,0,0
10755,1.6445e+09,3,1357,1357,16.71,0.1,29,0,0,0
11252,1.6446e+09,3,1357,1357,16.71,0.1,29,0,0,0
11713,1.6447e+09,3,1357,1357,16.72,0.1,29,0,0,0
12201,1.6448e+09,3,1357,1357,16.71,0.1,29,0,0,0
12996,1.645e+09,3,1357,1357,16.71,0.1,29,0,0,0
13490,1.6451e+09,3,1357,1357,16.71,0.1,29,0,0,0
13730,1.6452e+09,3,1357,1357,16.72,0.1,29,0,0,0
14188,1.6453e+09,3,1357,1357,16.71,0.1,29,0,0,0
14673,1.6454e+09,3,1357,1357,16.71,0.1,29,0,0,0
15105,1.6455e+09,3,1357,1357,16.7,0.1,29,0,0,0
16050,1.6457e+09,3,1357,1357,16.71,0.1,29,0,0,0
16506,1.6459e+09,3,1357,1357,16.72,0.1,29,0,0,0
16958,1.646e+09,3,1357,1357,16.72,0.1,29,0,0,0
17433,1.6461e+09,3,1357,1357,16.71,0.1,29,0,0,0
18256,1.6463e+09,3,1357,1357,16.7,0.1,29,0,0,0
18708,1.6464e+09,3,1357,1357,16.72,0.1,29,0,0,0
19205,1.6465e+09,3,1357,1357,16.7,0.1,29,0,0,0
19609,1.6466e+09,3,1357,1357,16.71,0.1,29,0,0,0
20086,1.6467e+09,3,1357,1357,16.71,0.1,29,0,0,0
20528,1.6468e+09,3,1357,1357,16.71,0.1,29,0,0,0
21032,1.6469e+09,3,1357,1357,16.7,0.1,29,0,0,0
21448,1.647e+09,3,1356,1342,16.7,0.1,29,0,0,0
21902,1.6471e+09,3,1342,1357,16.71,0.1,29,0,0,0
22386,1.6473e+09,3,1357,1357,16.71,0.1,29,0,0,0
22818,1.6474e+09,3,1357,1357,16.7,0.1,29,0,0,0
23319,1.6475e+09,3,1357,1357,16.71,0.1,29,0,0,0
23767,1.6476e+09,3,1357,1371,16.7,0.12,29,0,0,0
24221,1.6477e+09,3,1379,1614,16.66,0.26,29,0,0,0
24674,1.6478e+09,3,1643,2328,16.6,0.56,29,0,0,0
25151,1.6479e+09,3,2341,2528,16.64,0.5,29,0,0,0
25593,1.648e+09,3,2531,2571,16.61,0.45,29,0,0,0
26047,1.6481e+09,3,2578,2771,16.57,0.65,29,0,0,0
26536,1.6482e+09,3,2790,3185,16.48,1.17,29,0,0,0
27035,1.6483e+09,3,3207,3514,16.48,1.14,29,0,0,0
27471,1.6485e+09,3,3568,4128,16.28,2.73,29,0,0,0
28362,1.6487e+09,3,4177,5228,16.15,3.05,29,0,0,0
28773,1.6488e+09,3,5253,5757,16.04,3.72,29,0,0,0
29274,1.6489e+09,3,5779,6114,16.11,3.48,29,0,0,0
29716,1.649e+09,3,6088,5828,16.25,2.39,29,1,0,0
30150,1.6491e+09,3,5806,5528,16.25,2.09,29,1,0,0
30591,1.6492e+09,3,5507,5214,16.2,1.98,29,1,0,0
31089,1.6493e+09,3,5201,5071,16.19,1.94,29,1,0,0
31544,1.6494e+09,3,5064,5000,16.12,1.95,29,1,0,0
31994,1.6496e+09,3,4984,4800,16.17,1.55,29,1,0,0
32446,1.6497e+09,3,4789,4657,16.18,1.41,29,1,0,0
32904,1.6498e+09,3,4649,4485,16.09,1.36,29,1,0,0
33337,1.6499e+09,3,4490,4614,16.14,1.74,29,1,0,0
33811,1.65e+09,3,4629,4842,16.08,2.38,29,1,0,0
34264,1.6501e+09,3,4846,5114,16.16,2.42,29,1,0,0
34756,1.6502e+09,3,5122,5200,16.1,2.52,29,1,0,0
35209,1.6503e+09,3,5206,5342,16.12,2.47,29,1,0,0
35650,1.6504e+09,3,5344,5414,16.2,2.68,29,1,0,0
36124,1.6505e+09,3,5410,5371,16.17,2.41,29,1,0,0
36575,1.6507e+09,3,5372,5385,16.17,2.76,29,2,0,0
37029,1.6508e+09,3,5403,5557,16.09,2.86,29,2,0,0
37483,1.6509e+09,3,5566,5657,16.09,2.92,29,2,0,0
37893,1.651e+09,3,5657,5657,16.11,2.56,29,2,0,0
38347,1.6511e+09,3,5638,5371,16.1,2.68,29,2,0,0
39705,1.6514e+09,3,5370,5357,16.02,2.7,29,2,0,0
40160,1.6515e+09,3,5366,5542,15.99,2.89,29,2,0,0
40613,1.6516e+09,3,5545,5642,16.13,2.78,29,2,0,0
41112,1.6517e+09,3,5634,5557,16.05,2.84,29,2,0,0
41522,1.6518e+09,3,5557,5557,16.04,2.78,29,2,0,0
42872,1.6522e+09,3,5560,5685,16.11,2.66,29,3,0,0
43325,1.6523e+09,3,5685,5685,16.07,3.2,29,3,0,0
43768,1.6524e+09,3,5688,5714,16.13,2.79,29,3,0,0
44174,1.6525e+09,3,5710,5542,16.04,2.78,29,3,0,0
44612,1.6526e+09,3,5560,5914,16.06,3.21,29,3,0,0
45105,1.6527e+09,3,5910,5871,16.08,3.01,29,3,0,0
45544,1.6528e+09,3,5869,5857,16.1,3.09,29,3,0,0
45996,1.6529e+09,3,5850,5785,16.13,2.63,29,3,0,0
46386,1.653e+09,3,5771,5528,16.08,2.66,29,3,0,0
47224,1.6533e+09,3,5521,5142,16.2,1.92,29,4,0,0
47705,1.6534e+09,3,5129,5000,16.17,2.35,29,4,0,0
48598,1.6536e+09,3,5014,5342,16.11,2.37,29,4,0,0
49050,1.6537e+09,3,5347,5400,16.05,2.63,29,4,0,0
49451,1.6538e+09,3,5400,5400,16.04,2.43,29,4,0,0
49941,1.6539e+09,3,5401,5414,16.12,2.34,29,4,0,0
50387,1.654e+09,3,5410,5357,16.17,2.29,29,4,0,0
50798,1.6541e+09,3,5351,5285,16.08,2.53,29,4,0,0
51205,1.6542e+09,3,5286,5371,16.13,2.28,30,4,0,0
51657,1.6544e+09,3,5369,5357,16.1,2.48,30,4,0,0
52103,1.6545e+09,3,5357,5357,16.12,2.59,29,4,0,0
52473,1.6546e+09,3,5359,5528,16.06,2.77,30,4,0,0
52938,1.6547e+09,3,5507,5357,16.09,2.48,30,5,0,0
53329,1.6548e+09,3,5361,5614,16.04,2.69,30,5,0,0
53778,1.6549e+09,3,5606,5514,16.08,2.84,29,5,0,0
54183,1.655e+09,3,5514,5542,16.05,2.8,30,5,0,0
54672,1.6551e+09,3,5536,5428,16.07,2.44,29,5,0,0
55081,1.6552e+09,3,5428,5471,16.1,2.72,30,5,0,0
55574,1.6553e+09,3,5486,5628,16.04,2.97,30,5,0,0
56062,1.6555e+09,3,5625,5600,16.03,2.79,30,5,0,0
56466,1.6556e+09,3,5601,5671,15.97,2.87,29,5,0,0
56891,1.6557e+09,3,5671,5685,16.04,3.14,30,5,0,0
57325,1.6558e+09,3,5683,5671,16.04,2.7,29,5,0,0
57779,1.6559e+09,3,5674,5714,16.02,2.83,30,5,0,0
58224,1.656e+09,3,5714,5714,15.94,3.09,30,6,0,0
58629,1.6561e+09,3,5715,5757,16,2.85,30,6,0,0
59084,1.6562e+09,3,5753,5671,16.01,2.74,30,6,0,0
59568,1.6563e+09,3,5657,5528,16.02,2.28,29,6,0,0
60013,1.6564e+09,3,5533,5585,16,2.66,30,6,0,0
60420,1.6565e+09,3,5581,5485,16.1,2.45,30,6,0,0
60845,1.6566e+09,3,5483,5442,15.95,2.29,30,6,0,0
61312,1.6568e+09,3,5437,5342,16.1,2.4,30,6,0,0
61758,1.6569e+09,3,5344,5385,16.08,2.26,30,6,0,0
62201,1.657e+09,3,5378,5285,16.11,2.22,30,6,0,0
62609,1.6571e+09,3,5290,5414,16.02,2.48,30,6,0,0
63063,1.6572e+09,3,5420,5485,16.01,2.85,30,6,0,0
63509,1.6573e+09,3,5482,5442,16.04,2.5,30,6,0,0
63953,1.6574e+09,3,5440,5428,16.07,2.56,30,7,0,0
64404,1.6575e+09,3,5426,5414,16.04,2.29,30,7,0,0
64846,1.6576e+09,3,5404,5300,16.04,2.36,30,7,0,0
65296,1.6577e+09,3,5298,5271,16.03,2.42,30,7,0,0
65726,1.6578e+09,3,5271,5271,16.04,2.07,30,7,0,0
66152,1.658e+09,3,5273,5300,16.07,2.42,30,7,0,0
66592,1.6581e+09,3,5299,5285,16.04,2.18,30,7,0,0
67448,1.6583e+09,3,5278,5085,16.05,1.95,30,7,0,0
67848,1.6584e+09,3,5078,4814,16.16,1.44,30,7,0,0
68341,1.6585e+09,3,4809,4757,16.1,1.7,30,7,0,0
68765,1.6586e+09,3,4755,4742,16.06,2.12,30,7,0,0
69217,1.6587e+09,3,4752,4871,16.08,2,30,7,0,0
69622,1.6588e+09,3,4885,5085,16.04,2.3,30,7,0,0
70071,1.6589e+09,3,5085,5100,16.1,2.16,30,7,0,0
70471,1.659e+09,3,5100,5142,16.04,2.21,30,7,0,0
70920,1.6591e+09,3,5142,5157,15.97,2.63,30,8,0,0
71407,1.6593e+09,3,5173,5357,16.04,2.44,30,8,0,0
71811,1.6594e+09,3,5355,5285,16.03,2.37,30,8,0,0
72268,1.6595e+09,3,5312,5585,16.01,2.61,30,8,0,0
72673,1.6596e+09,3,5568,5357,16.05,2.33,30,8,0,0
73129,1.6597e+09,3,5363,5428,16.05,2.42,30,8,0,0
73528,1.6598e+09,3,5425,5371,16.07,2.3,30,8,0,0
74019,1.6599e+09,3,5364,5300,16.01,2.4,30,8,0,0
74422,1.66e+09,3,5300,5300,16.07,2.44,30,8,0,0
74875,1.6601e+09,3,5295,5242,15.99,2.44,30,8,0,0
75322,1.6602e+09,3,5244,5271,16.01,2.47,30,8,0,0
75772,1.6603e+09,3,5274,5314,16.07,2.09,30,8,0,0
76200,1.6604e+09,3,5312,5285,15.92,2.34,30,8,0,0
76630,1.6606e+09,3,5323,5571,15.98,2.71,30,9,0,0
77040,1.6607e+09,3,5561,5414,16.1,2.12,30,9,0,0
77524,1.6608e+09,3,5396,5214,16.09,2.14,30,9,0,0
77971,1.6609e+09,3,5215,5228,16.05,2.19,30,9,0,0
78375,1.661e+09,3,5234,5285,16.02,2.44,30,9,0,0
78820,1.6611e+09,3,5289,5328,16,2.39,30,9,0,0
79717,1.6613e+09,3,5330,5414,16,2.75,30,9,0,0
80117,1.6614e+09,3,5417,5457,16.04,2.35,30,9,0,0
80566,1.6615e+09,3,5453,5371,16.05,2.22,30,9,0,0
81014,1.6616e+09,3,5357,5242,16.01,2.35,30,9,0,0
81499,1.6618e+09,3,5250,5328,16.05,2.36,30,9,0,0
82309,1.662e+09,3,5328,5400,16.01,2.5,30,9,0,0
82798,1.6621e+09,3,5400,5400,15.94,2.4,30,10,0,0
83232,1.6622e+09,3,5397,5228,16,2.34,30,10,0,0
83728,1.6623e+09,3,5231,5271,15.98,2.38,30,10,0,0
84127,1.6624e+09,3,5282,5400,15.84,2.61,30,10,0,0
84576,1.6625e+09,3,5407,5500,15.99,2.61,30,10,0,0
85024,1.6626e+09,3,5511,5628,15.93,2.69,30,10,0,0
85471,1.6627e+09,3,5623,5585,15.95,2.8,30,10,0,0
85876,1.6628e+09,3,5586,5600,15.98,2.71,30,10,0,0
86287,1.6629e+09,3,5598,5528,15.92,2.75,30,10,0,0
86713,1.663e+09,3,5528,5557,15.98,2.26,30,10,0,0
87186,1.6632e+09,3,5541,5414,15.92,2.53,30,10,0,0
87636,1.6633e+09,3,5404,5300,15.98,2.24,30,10,0,0
88117,1.6634e+09,3,5304,5357,15.97,2.3,30,10,0,0
88522,1.6635e+09,3,5357,5357,16.05,2.39,30,11,0,0
88966,1.6636e+09,3,5353,5328,16.04,2.45,30,11,0,0
89418,1.6637e+09,3,5339,5457,15.9,2.78,30,11,0,0
89858,1.6638e+09,3,5445,5300,15.97,2.62,30,11,0,0
90310,1.6639e+09,3,5322,5557,15.95,2.62,30,11,0,0
90755,1.664e+09,3,5547,5414,15.95,2.84,30,11,0,0
91604,1.6642e+09,3,5415,5557,16.02,2.53,30,11,0,0
92096,1.6644e+09,3,5547,5471,15.98,2.67,30,11,0,0
92501,1.6645e+09,3,5472,5485,15.94,2.46,30,11,0,0
92939,1.6646e+09,3,5487,5585,16.02,2.92,30,11,0,0
93397,1.6647e+09,3,5583,5571,16,2.53,30,11,0,0
93798,1.6648e+09,3,5571,5571,15.98,2.67,30,11,0,0
94244,1.6649e+09,3,5571,5571,15.99,2.66,30,12,0,0
94693,1.665e+09,3,5561,5414,15.94,2.45,30,12,0,0
95546,1.6652e+09,3,5411,5314,15.89,2.48,30,12,0,0
95994,1.6653e+09,3,5311,5285,16.01,2.45,30,12,0,0
96440,1.6654e+09,3,5289,5385,16.03,2.48,30,12,0,0
96895,1.6656e+09,3,5389,5428,15.91,2.38,30,12,0,0
98196,1.6659e+09,3,5427,5414,15.98,2.59,30,12,0,0
99093,1.6661e+09,3,5415,5442,15.95,2.53,30,12,0,0
99494,1.6662e+09,3,5441,5414,15.94,2.44,30,12,0,0
99985,1.6663e+09,3,5408,5357,15.97,2.27,30,13,0,0
1.0088e+05,1.6665e+09,3,5359,5414,15.91,2.6,30,13,0,0
1.0128e+05,1.6666e+09,3,5413,5385,15.97,2.47,30,13,0,0
1.0173e+05,1.6667e+09,3,5385,5385,15.91,2.68,29,13,0,0
1.0217e+05,1.6669e+09,3,5378,5242,15.98,2.24,30,13,0,0
1.0262e+05,1.667e+09,3,5254,5414,16.09,2.28,30,13,0,0
1.0307e+05,1.6671e+09,3,5406,5242,16.1,1.92,29,13,0,0
1.0352e+05,1.6672e+09,3,5244,5285,16.05,2.44,30,13,0,0
1.0397e+05,1.6673e+09,3,5278,5214,16.07,2.2,30,13,0,0
1.0441e+05,1.6674e+09,3,5215,5228,16.05,2.28,30,13,0,0
1.0485e+05,1.6675e+09,3,5225,5171,16,2.55,30,13,0,0
1.0574e+05,1.6677e+09,3,5176,5342,15.97,2.19,30,13,0,0
1.0664e+05,1.6679e+09,3,5342,5342,15.97,2.21,30,14,0,0
1.0701e+05,1.668e+09,3,5343,5414,15.99,2.56,30,14,0,0
1.0746e+05,1.6682e+09,3,5417,5457,16.02,2.59,30,14,0,0
1.079e+05,1.6683e+09,3,5465,5571,16,2.36,30,14,0,0
1.083e+05,1.6684e+09,3,5568,5471,15.92,2.5,30,14,0,0
1.0875e+05,1.6685e+09,3,5474,5542,15.98,2.56,30,14,0,0
1.0917e+05,1.6686e+09,3,5537,5428,15.91,2.43,29,14,0,0
1.0962e+05,1.6687e+09,3,5430,5500,15.95,2.54,30,14,0,0
1.1006e+05,1.6688e+09,3,5495,5400,15.91,2.4,29,14,0,0
1.1051e+05,1.6689e+09,3,5406,5542,15.94,2.81,30,14,0,0
1.1096e+05,1.669e+09,3,5546,5628,15.92,2.71,30,14,0,0
1.1141e+05,1.6691e+09,3,5631,5671,15.93,2.71,30,15,0,0
1.119e+05,1.6693e+09,3,5661,5557,15.95,2.88,30,15,0,0
1.1235e+05,1.6694e+09,3,5570,5685,15.91,2.73,30,15,0,0
1.1275e+05,1.6695e+09,3,5676,5500,15.97,2.64,29,15,0,0
1.132e+05,1.6696e+09,3,5502,5528,15.97,2.5,30,15,0,0
1.1365e+05,1.6697e+09,3,5537,5628,15.94,2.9,30,15,0,0
1.1405e+05,1.6698e+09,3,5629,5657,16.01,2.88,30,15,0,0
1.145e+05,1.6699e+09,3,5653,5585,15.95,2.66,30,15,0,0
1.1495e+05,1.67e+09,3,5585,5600,15.97,2.58,30,15,0,0
1.154e+05,1.6701e+09,3,5587,5414,15.98,2.46,30,15,0,0
1.1584e+05,1.6702e+09,3,5415,5428,16.03,2.46,30,15,0,0
1.1629e+05,1.6703e+09,3,5435,5514,16,2.62,30,15,0,0
1.1719e+05,1.6706e+09,3,5507,5371,16.02,2.31,30,16,0,0
1.176e+05,1.6707e+09,3,5379,5485,15.97,2.56,29,16,0,0
1.185e+05,1.6709e+09,3,5482,5385,15.93,2.6,30,16,0,0
1.1894e+05,1.671e+09,3,5389,5657,15.97,2.82,30,16,0,0
1.1943e+05,1.6711e+09,3,5651,5600,15.97,2.82,30,16,0,0
1.1984e+05,1.6712e+09,3,5602,5771,15.85,2.83,29,16,0,0
1.2033e+05,1.6713e+09,3,5774,5814,15.85,3.03,30,16,0,0
1.2077e+05,1.6714e+09,3,5827,5971,15.88,3.31,30,16,0,0
1.2122e+05,1.6715e+09,3,5977,6057,15.84,3.67,30,16,0,0
1.2166e+05,1.6716e+09,3,6061,6114,15.87,3.26,30,16,0,0
1.2252e+05,1.6719e+09,3,6109,5942,15.91,3.06,30,17,0,0
1.2293e+05,1.672e+09,3,5940,5828,15.88,2.75,30,17,0,0
1.2341e+05,1.6721e+09,3,5819,5642,15.99,2.31,30,17,0,0
1.2382e+05,1.6722e+09,3,5641,5600,15.97,2.28,30,17,0,0
1.2431e+05,1.6723e+09,3,5600,5600,15.88,3.17,30,17,0,0
1.2476e+05,1.6724e+09,3,5606,5700,16.01,3.21,30,17,0,0
1.2516e+05,1.6725e+09,3,5702,5800,15.98,2.93,30,17,0,0
1.2562e+05,1.6726e+09,3,5792,5700,15.88,2.99,30,17,0,0
1.2606e+05,1.6727e+09,3,5697,5600,15.9,2.98,30,17,0,0
1.2651e+05,1.6728e+09,3,5609,5800,15.88,3,30,17,0,0
1.27e+05,1.673e+09,3,5814,5942,15.85,3.23,30,17,0,0
1.274e+05,1.6731e+09,3,5946,5985,15.93,3.17,30,18,0,0
1.283e+05,1.6733e+09,3,5968,5714,15.93,2.48,30,18,0,0
1.287e+05,1.6734e+09,3,5714,5714,15.83,2.81,30,18,0,0
1.2919e+05,1.6735e+09,3,5699,5542,15.82,2.86,30,18,0,0
1.296e+05,1.6736e+09,3,5542,5571,15.83,2.8,30,18,0,0
1.3009e+05,1.6737e+09,3,5574,5614,15.83,3.18,30,18,0,0
1.3054e+05,1.6738e+09,3,5622,5714,15.77,2.86,30,18,0,0
1.3099e+05,1.6739e+09,3,5713,5700,15.79,3.11,30,18,0,0
1.314e+05,1.674e+09,3,5698,5585,15.85,2.71,30,18,0,0
1.3185e+05,1.6742e+09,3,5585,5628,15.83,2.68,30,18,0,0
1.3225e+05,1.6743e+09,3,5624,5385,15.86,2.57,30,19,0,0
1.327e+05,1.6744e+09,3,5388,5414,15.82,3.04,30,19,0,0
1.3315e+05,1.6745e+09,3,5429,5728,15.88,2.87,30,19,0,0
1.3359e+05,1.6746e+09,3,5723,5671,15.75,3.05,30,19,0,0
1.3448e+05,1.6748e+09,3,5694,6085,15.75,3.59,30,19,0,0
1.3489e+05,1.6749e+09,3,6078,5942,15.8,3.42,30,19,0,0
1.3534e+05,1.675e+09,3,5949,6114,15.73,3.47,30,19,0,0
1.3578e+05,1.6751e+09,3,6112,6071,15.88,3.49,30,19,0,0
1.362e+05,1.6752e+09,3,6067,5971,15.88,2.88,30,19,0,0
1.3669e+05,1.6754e+09,3,5942,5657,15.88,2.9,30,19,0,0
1.3754e+05,1.6756e+09,3,5653,5585,15.92,2.62,30,20,0,0
1.3799e+05,1.6757e+09,3,5599,5814,15.86,3.43,30,20,0,0
1.384e+05,1.6758e+09,3,5816,5871,15.95,3.01,30,20,0,0
1.3888e+05,1.6759e+09,3,5859,5742,15.95,2.66,30,20,0,0
1.393e+05,1.676e+09,3,5728,5571,15.92,2.71,30,20,0,0
1.3974e+05,1.6761e+09,3,5572,5585,15.98,2.54,30,20,0,0
1.4023e+05,1.6762e+09,3,5583,5571,15.89,2.61,30,20,0,0
1.4068e+05,1.6763e+09,3,5565,5514,15.95,2.59,30,20,0,0
1.4112e+05,1.6764e+09,3,5522,5600,15.9,2.76,30,20,0,0
1.4198e+05,1.6767e+09,3,5597,5428,15.95,2.55,30,21,0,0
1.4247e+05,1.6768e+09,3,5449,5671,15.88,2.35,30,21,0,0
1.4288e+05,1.6769e+09,3,5672,5771,15.8,3.38,30,21,0,0
1.4377e+05,1.6771e+09,3,5768,5528,15.87,2.59,30,21,0,0
1.4422e+05,1.6772e+09,3,5530,5571,15.86,2.65,30,21,0,0
1.4466e+05,1.6773e+09,3,5578,5714,15.85,2.93,30,21,0,0
1.4511e+05,1.6774e+09,3,5710,5642,15.85,2.74,30,21,0,0
1.4556e+05,1.6775e+09,3,5636,5557,15.85,2.61,30,21,0,0
1.46e+05,1.6777e+09,3,5568,5714,15.88,3.18,30,21,0,0
1.4645e+05,1.6778e+09,3,5715,5728,15.82,2.97,30,21,0,0
1.4686e+05,1.6779e+09,3,5729,5828,15.8,3.04,30,22,0,0
1.4736e+05,1.678e+09,3,5817,5714,15.75,2.9,30,22,0,0
1.4825e+05,1.6782e+09,3,5714,5728,15.82,3.4,30,22,0,0
1.487e+05,1.6783e+09,3,5728,5728,15.82,3.17,30,22,0,0
1.4914e+05,1.6784e+09,3,5729,5742,15.82,2.91,30,22,0,0
1.4959e+05,1.6785e+09,3,5730,5614,15.88,2.8,30,22,0,0
1.5045e+05,1.6787e+09,3,5613,5600,15.8,2.7,30,22,0,0
1.5085e+05,1.6788e+09,3,5602,5657,15.82,3.11,30,22,0,0
1.513e+05,1.679e+09,3,5657,5657,15.85,2.8,30,22,0,0
1.5175e+05,1.6791e+09,3,5660,5700,15.72,2.9,30,22,0,0
1.5215e+05,1.6792e+09,3,5697,5628,15.77,3.36,30,23,0,0
1.526e+05,1.6793e+09,3,5633,5971,15.82,3.23,30,23,0,0
1.5304e+05,1.6794e+09,3,5967,5814,15.83,3.1,30,23,0,0
1.5349e+05,1.6795e+09,3,5820,5914,15.79,3.25,30,23,0,0
1.5394e+05,1.6796e+09,3,5907,5842,15.76,3.11,30,23,0,0
1.5431e+05,1.6797e+09,3,5840,5785,15.78,3.21,30,23,0,0
1.5479e+05,1.6798e+09,3,5788,5828,15.79,3.38,30,23,0,0
1.5522e+05,1.6799e+09,3,5835,5914,15.78,3.08,30,23,0,0
1.5566e+05,1.68e+09,3,5896,5671,15.8,3.18,30,23,0,0
1.5614e+05,1.6802e+09,3,5714,5942,15.76,3.36,30,23,0,0
1.5655e+05,1.6803e+09,3,5937,5885,15.8,3.02,30,24,0,0
1.57e+05,1.6804e+09,3,5880,5842,15.77,2.93,30,24,0,0
1.574e+05,1.6805e+09,3,5841,5814,15.82,2.9,30,24,0,0
1.5786e+05,1.6806e+09,3,5800,5657,15.83,3,30,24,0,0
1.5827e+05,1.6807e+09,3,5657,5657,15.86,2.75,30,24,0,0
1.5872e+05,1.6808e+09,3,5657,5657,15.77,2.95,30,24,0,0
1.6001e+05,1.6811e+09,3,5657,5728,15.8,2.89,30,24,0,0
1.6046e+05,1.6812e+09,3,5728,5728,15.82,2.9,30,24,0,0
1.6091e+05,1.6813e+09,3,5723,5671,15.82,2.96,30,24,0,0
1.6131e+05,1.6814e+09,3,5672,5757,15.83,2.66,30,25,0,0
1.6184e+05,1.6816e+09,3,5713,5414,15.86,2.56,30,25,0,0
1.6224e+05,1.6817e+09,3,5429,5614,15.73,3.02,30,25,0,0
1.6269e+05,1.6818e+09,3,5625,5728,15.75,3,30,25,0,0
1.6313e+05,1.6819e+09,3,5723,5685,15.81,3.01,30,25,0,0
1.6353e+05,1.682e+09,3,5691,5828,15.79,2.94,30,25,0,0
1.6398e+05,1.6821e+09,3,5821,5728,15.76,3.04,30,25,0,0
1.6443e+05,1.6822e+09,3,5730,5771,15.7,2.93,30,25,0,0
1.6488e+05,1.6823e+09,3,5772,5785,15.82,3.14,30,25,0,0
1.6527e+05,1.6824e+09,3,5790,5900,15.76,3.1,30,25,0,0
1.657e+05,1.6825e+09,3,5897,5842,15.81,3.27,30,25,0,0
1.6662e+05,1.6828e+09,3,5843,5871,15.78,3.19,30,26,0,0
1.6707e+05,1.6829e+09,3,5866,5814,15.75,3.1,30,26,0,0
1.6748e+05,1.683e+09,3,5814,5842,15.75,3.03,30,26,0,0
1.6792e+05,1.6831e+09,3,5841,5814,15.75,3.08,30,26,0,0
1.6837e+05,1.6832e+09,3,5821,5971,15.79,2.97,30,26,0,0
1.6885e+05,1.6833e+09,3,5947,5728,15.77,2.81,30,26,0,0
1.6926e+05,1.6834e+09,3,5718,5657,15.72,2.77,30,26,0,0
1.6967e+05,1.6835e+09,3,5655,5642,15.73,2.98,30,26,0,0
1.7008e+05,1.6836e+09,3,5643,5757,15.73,2.71,30,26,0,0
1.7098e+05,1.6838e+09,3,5744,5514,15.74,2.73,30,26,0,0
1.7139e+05,1.6839e+09,3,5515,5585,15.75,3,30,27,0,0
1.7272e+05,1.6843e+09,3,5584,5557,15.8,2.91,30,27,0,0
1.7316e+05,1.6844e+09,3,5557,5600,15.8,2.95,30,27,0,0
1.7361e+05,1.6845e+09,3,5600,5657,15.85,3.07,30,27,0,0
1.7405e+05,1.6846e+09,3,5666,5757,15.77,2.65,30,27,0,0
1.7444e+05,1.6847e+09,3,5754,5585,15.81,2.6,30,27,0,0
1.7487e+05,1.6848e+09,3,5570,5414,15.77,2.43,30,27,0,0
1.7532e+05,1.6849e+09,3,5400,5271,15.79,2.25,30,27,0,0
1.7581e+05,1.685e+09,3,5262,5171,15.86,2.24,30,27,0,0
1.7622e+05,1.6851e+09,3,5176,5228,15.8,2.04,30,27,0,0
1.7666e+05,1.6852e+09,3,5232,5342,15.84,2.67,30,28,0,0
1.7715e+05,1.6854e+09,3,5347,5400,15.82,2.49,30,28,0,0
1.7804e+05,1.6856e+09,3,5403,5471,15.82,2.64,30,28,0,0
1.7844e+05,1.6857e+09,3,5479,5642,15.74,3.03,30,28,0,0
1.789e+05,1.6858e+09,3,5636,5585,15.83,2.6,30,28,0,0
1.7934e+05,1.6859e+09,3,5587,5628,15.82,2.65,30,28,0,0
1.802e+05,1.6861e+09,3,5625,5557,15.82,2.74,30,28,0,0
1.8064e+05,1.6862e+09,3,5550,5485,15.85,2.73,30,28,0,0
1.8109e+05,1.6863e+09,3,5495,5614,15.82,2.87,30,28,0,0
1.8148e+05,1.6864e+09,3,5620,5742,15.8,3.14,30,28,0,0
1.8192e+05,1.6866e+09,3,5757,5928,15.75,3.35,30,29,0,0
1.8232e+05,1.6867e+09,3,5924,5757,15.77,2.91,30,29,0,0
1.8276e+05,1.6868e+09,3,5755,5685,15.79,2.8,30,29,0,0
1.832e+05,1.6869e+09,3,5685,5700,15.75,2.88,30,29,0,0
1.8365e+05,1.687e+09,3,5696,5628,15.77,2.75,30,29,0,0
1.841e+05,1.6871e+09,3,5634,5728,15.67,3.26,30,29,0,0
1.8495e+05,1.6873e+09,3,5728,5728,15.7,2.9,30,29,0,0
1.8539e+05,1.6874e+09,3,5722,5514,15.79,2.65,30,29,0,0
1.8585e+05,1.6875e+09,3,5509,5414,15.85,2.35,30,29,0,0
1.863e+05,1.6876e+09,3,5412,5400,15.85,2.59,30,29,0,0
1.8675e+05,1.6877e+09,3,5394,5328,15.81,2.48,30,29,0,0
1.8716e+05,1.6878e+09,3,5336,5457,15.86,2.4,30,30,0,0
1.8761e+05,1.688e+09,3,5450,5385,15.79,2.73,30,30,0,0
1.88e+05,1.6881e+09,3,5388,5471,15.83,2.55,30,30,0,0
1.8846e+05,1.6882e+09,3,5471,5471,15.78,2.57,30,30,0,0
1.8891e+05,1.6883e+09,3,5466,5385,15.85,2.5,30,30,0,0
1.8932e+05,1.6884e+09,3,5374,5271,15.88,2.5,30,30,0,0
1.8977e+05,1.6885e+09,3,5274,5342,15.79,2.51,30,30,0,0
1.9017e+05,1.6886e+09,3,5343,5414,15.84,2.54,30,30,0,0
1.9067e+05,1.6887e+09,3,5419,5500,15.83,2.63,30,30,0,0
1.9112e+05,1.6888e+09,3,5501,5528,15.83,2.92,30,30,0,0
1.9156e+05,1.6889e+09,3,5537,5728,15.7,3.19,30,30,0,0
1.9197e+05,1.689e+09,3,5727,5714,15.78,3.21,30,30,0,0
1.9242e+05,1.6892e+09,3,5705,5628,15.77,2.88,30,30,0,0
1.9286e+05,1.6893e+09,3,5634,5700,15.79,2.89,30,31,0,0
1.9368e+05,1.6895e+09,3,5694,5442,15.81,2.52,30,31,0,0
1.9411e+05,1.6896e+09,3,5449,5600,15.83,2.62,30,31,0,0
1.9457e+05,1.6897e+09,3,5598,5571,15.75,2.87,30,31,0,0
1.9502e+05,1.6898e+09,3,5568,5542,15.75,2.77,30,31,0,0
1.9547e+05,1.6899e+09,3,5545,5614,15.77,2.63,30,31,0,0
1.9591e+05,1.69e+09,3,5609,5557,15.81,2.56,30,31,0,0
1.9632e+05,1.6901e+09,3,5557,5571,15.8,2.66,30,31,0,0
1.9677e+05,1.6902e+09,3,5572,5600,15.77,2.86,30,31,0,0
1.9718e+05,1.6904e+09,3,5613,5742,15.77,3.05,30,31,0,0
1.9758e+05,1.6905e+09,3,5738,5500,15.77,2.91,30,31,0,0
1.9808e+05,1.6906e+09,3,5515,5685,15.77,2.96,30,32,0,0
1.9852e+05,1.6907e+09,3,5675,5585,15.79,2.89,30,32,0,0
1.9892e+05,1.6908e+09,3,5586,5642,15.76,2.92,30,32,0,0
1.9939e+05,1.6909e+09,3,5642,5642,15.72,2.96,30,32,0,0
1.9978e+05,1.691e+09,3,5646,5742,15.76,3.02,30,32,0,0
2.0023e+05,1.6911e+09,3,5742,5742,15.77,3.21,30,32,0,0
2.0112e+05,1.6913e+09,3,5743,5771,15.75,3.03,30,32,0,0
2.0153e+05,1.6914e+09,3,5775,5885,15.76,2.91,30,32,0,0
2.0242e+05,1.6917e+09,3,5875,5685,15.76,2.69,30,32,0,0
2.0286e+05,1.6918e+09,3,5674,5557,15.8,2.83,30,33,0,0
2.0327e+05,1.6919e+09,3,5557,5571,15.8,2.88,30,33,0,0
2.0368e+05,1.692e+09,3,5571,5571,15.76,2.85,30,33,0,0
2.0503e+05,1.6923e+09,3,5570,5557,15.83,2.78,30,33,0,0
2.0543e+05,1.6924e+09,3,5559,5585,15.77,2.63,30,33,0,0
2.0588e+05,1.6925e+09,3,5567,5385,15.74,2.62,30,33,0,0
2.0632e+05,1.6926e+09,3,5393,5514,15.76,2.69,30,33,0,0
2.0677e+05,1.6927e+09,3,5507,5414,15.77,2.61,30,33,0,0
2.0721e+05,1.6928e+09,3,5417,5500,15.7,2.72,30,33,0,0
2.0766e+05,1.693e+09,3,5512,5685,15.73,3.11,30,33,0,0
2.0811e+05,1.6931e+09,3,5692,5771,15.74,2.84,30,34,0,0
2.0899e+05,1.6933e+09,3,5764,5628,15.78,3.01,30,34,0,0
2.0943e+05,1.6934e+09,3,5632,5700,15.75,2.89,30,34,0,0
2.0986e+05,1.6935e+09,3,5701,5728,15.64,3.33,30,34,0,0
2.1026e+05,1.6936e+09,3,5753,6000,15.69,3.28,30,34,0,0
2.1071e+05,1.6937e+09,3,5995,5971,15.69,3.23,30,34,0,0
2.1112e+05,1.6938e+09,3,5969,5957,15.7,3.46,30,34,0,0
2.1156e+05,1.6939e+09,3,5955,5914,15.7,3.38,30,34,0,0
2.12e+05,1.694e+09,3,5915,6000,15.66,3.07,30,34,0,0
2.1249e+05,1.6942e+09,3,5985,5885,15.79,2.83,30,34,0,0
2.1293e+05,1.6943e+09,3,5878,5828,15.77,3.14,30,35,0,0
2.1338e+05,1.6944e+09,3,5815,5714,15.75,2.54,30,35,0,0
2.1379e+05,1.6945e+09,3,5710,5685,15.75,2.79,30,35,0,0
2.1418e+05,1.6946e+09,3,5683,5571,15.69,3,30,35,0,0
2.1465e+05,1.6947e+09,3,5576,5628,15.75,2.82,30,35,0,0
2.1504e+05,1.6948e+09,3,5629,5728,15.75,2.86,30,35,0,0
2.1594e+05,1.695e+09,3,5726,5685,15.74,3.1,30,35,0,0
2.164e+05,1.6951e+09,3,5681,5642,15.82,2.82,30,35,0,0
2.1684e+05,1.6952e+09,3,5654,5771,15.72,3.04,30,35,0,0
2.1729e+05,1.6954e+09,3,5768,5714,15.76,2.82,30,35,0,0
2.1773e+05,1.6955e+09,3,5714,5714,15.77,3.03,30,36,0,0
2.1818e+05,1.6956e+09,3,5711,5685,15.79,2.81,30,36,0,0
2.1858e+05,1.6957e+09,3,5678,5500,15.72,3.09,30,36,0,0
2.1902e+05,1.6958e+09,3,5502,5685,15.73,2.68,30,36,0,0
2.1947e+05,1.6959e+09,3,5682,5571,15.72,2.67,30,36,0,0
2.1992e+05,1.696e+09,3,5573,5628,15.73,2.82,30,36,0,0
2.2037e+05,1.6961e+09,3,5628,5642,15.8,2.72,30,36,0,0
2.2085e+05,1.6962e+09,3,5620,5400,15.75,2.62,30,36,0,0
2.2126e+05,1.6963e+09,3,5396,5328,15.75,2.5,30,36,0,0
2.217e+05,1.6964e+09,3,5332,5485,15.72,2.4,30,36,0,0
2.2216e+05,1.6966e+09,3,5483,5400,15.75,2.57,30,36,0,0
2.2258e+05,1.6967e+09,3,5398,5314,15.7,2.44,30,37,0,0
2.2301e+05,1.6968e+09,3,5315,5342,15.8,2.24,30,37,0,0
2.2349e+05,1.6969e+09,3,5332,5228,15.73,2.6,30,37,0,0
2.2389e+05,1.697e+09,3,5236,5414,15.75,2.59,30,37,0,0
2.2434e+05,1.6971e+09,3,5411,5271,15.85,2.4,30,37,0,0
2.2482e+05,1.6972e+09,3,5277,5357,15.77,2.67,30,37,0,0
2.2523e+05,1.6973e+09,3,5360,5585,15.73,2.77,30,37,0,0
2.2567e+05,1.6974e+09,3,5582,5528,15.81,2.7,30,37,0,0
2.2617e+05,1.6975e+09,3,5520,5442,15.84,2.2,30,37,0,0
2.2656e+05,1.6976e+09,3,5421,5114,15.83,2.3,30,37,0,0
2.2701e+05,1.6977e+09,3,5130,5285,15.76,2.7,30,37,0,0
2.2736e+05,1.6978e+09,3,5285,5314,15.67,2.54,30,37,0,0
2.2779e+05,1.698e+09,3,5315,5442,15.76,2.69,30,37,0,0
2.2822e+05,1.6981e+09,3,5440,5414,15.7,2.72,30,37,0,0
2.2866e+05,1.6982e+09,3,5413,5400,15.76,2.71,30,38,0,0
2.2915e+05,1.6983e+09,3,5417,5600,15.73,3.15,30,38,0,0
2.3004e+05,1.6985e+09,3,5595,5500,15.73,2.63,30,38,0,0
2.3049e+05,1.6986e+09,3,5498,5485,15.83,2.41,30,38,0,0
2.3093e+05,1.6987e+09,3,5456,5185,15.84,1.82,30,38,0,0
2.3134e+05,1.6988e+09,3,5178,5014,15.8,2.08,30,38,0,0
2.3179e+05,1.6989e+09,3,5003,4900,15.81,1.86,30,38,0,0
2.3221e+05,1.699e+09,3,4901,4928,15.8,1.9,30,38,0,0
2.3264e+05,1.6991e+09,3,4926,4900,15.81,2.09,30,38,0,0
2.3308e+05,1.6993e+09,3,4900,4900,15.8,2.02,30,38,0,0
2.3353e+05,1.6994e+09,3,4907,5014,15.77,2.28,30,38,0,0
2.3393e+05,1.6995e+09,3,5014,5028,15.81,2.07,30,38,0,0
2.3483e+05,1.6997e+09,3,5036,5271,15.75,2.63,30,39,0,0
2.3524e+05,1.6998e+09,3,5275,5371,15.8,2.28,30,39,0,0
2.3569e+05,1.6999e+09,3,5362,5271,15.76,2.17,30,39,0,0
2.3609e+05,1.7e+09,3,5270,5257,15.79,2.19,30,39,0,0
2.3654e+05,1.7001e+09,3,5259,5314,15.72,2.53,30,39,0,0
2.3697e+05,1.7002e+09,3,5313,5300,15.77,2.26,30,39,0,0
2.374e+05,1.7003e+09,3,5296,5200,15.81,2.22,30,39,0,0
2.3784e+05,1.7004e+09,3,5181,5000,15.72,2.11,30,39,0,0
2.3825e+05,1.7005e+09,3,5001,5042,15.82,2.1,30,39,0,0
2.387e+05,1.7007e+09,3,5053,5171,15.78,2.19,30,39,0,0
2.3915e+05,1.7008e+09,3,5168,5142,15.79,2.46,30,39,0,0
2.3955e+05,1.7009e+09,3,5149,5328,15.73,2.34,30,39,0,0
2.4004e+05,1.701e+09,3,5317,5185,15.76,2.45,30,39,0,0
2.4088e+05,1.7012e+09,3,5187,5300,15.81,2.3,30,39,0,0
2.413e+05,1.7013e+09,3,5296,5228,15.75,2.43,30,40,0,0
2.417e+05,1.7014e+09,3,5228,5271,15.77,2.61,30,40,0,0
2.422e+05,1.7015e+09,3,5277,5342,15.77,2.46,30,40,0,0
2.4259e+05,1.7016e+09,3,5342,5371,15.72,2.46,30,40,0,0
2.4304e+05,1.7017e+09,3,5362,5200,15.66,2.56,30,40,0,0
2.4349e+05,1.7019e+09,3,5198,5185,15.84,1.97,30,40,0,0
2.4394e+05,1.702e+09,3,5181,5157,15.83,2.13,30,40,0,0
2.4435e+05,1.7021e+09,3,5143,4942,15.82,1.81,30,40,0,0
2.4479e+05,1.7022e+09,3,4943,4971,15.85,1.96,30,40,0,0
2.4522e+05,1.7023e+09,3,4965,4914,15.88,1.86,30,40,0,0
2.4561e+05,1.7024e+09,3,4920,5000,15.83,1.86,30,40,0,0
2.461e+05,1.7025e+09,3,4998,4985,15.85,1.86,30,40,0,0
2.465e+05,1.7026e+09,3,4984,4971,15.73,2.27,30,40,0,0
2.4695e+05,1.7027e+09,3,4976,5100,15.8,2.02,30,40,0,0
2.474e+05,1.7028e+09,3,5091,4914,15.82,1.96,30,40,0,0
2.4785e+05,1.7029e+09,3,4919,5042,15.81,2.11,30,40,0,0
2.4874e+05,1.7032e+09,3,5048,5185,15.82,2.09,30,41,0,0
2.4916e+05,1.7033e+09,3,5186,5214,15.84,2.11,30,41,0,0
2.4959e+05,1.7034e+09,3,5202,5085,15.83,1.78,30,41,0,0
2.5004e+05,1.7035e+09,3,5064,4857,15.8,2.07,30,41,0,0
2.5048e+05,1.7036e+09,3,4878,5100,15.73,2.48,30,41,0,0
2.5093e+05,1.7037e+09,3,5100,5142,15.77,2.21,30,41,0,0
2.5138e+05,1.7038e+09,3,5143,5157,15.71,2.09,30,41,0,0
2.5183e+05,1.7039e+09,3,5165,5342,15.75,2.54,30,41,0,0
2.5223e+05,1.704e+09,3,5343,5428,15.71,2.79,30,41,0,0
2.5272e+05,1.7041e+09,3,5435,5514,15.66,3.01,30,41,0,0
2.532e+05,1.7043e+09,3,5519,5571,15.63,2.98,30,41,0,0
2.5364e+05,1.7044e+09,3,5577,5642,15.66,2.73,30,41,0,0
2.5405e+05,1.7045e+09,3,5650,5757,15.64,2.82,30,41,0,0
2.5445e+05,1.7046e+09,3,5757,5757,15.67,3.47,30,42,0,0
2.5494e+05,1.7047e+09,3,5760,5814,15.77,3.07,30,42,0,0
2.5623e+05,1.705e+09,3,5808,4914,15.86,1.81,30,42,0,0
2.5668e+05,1.7051e+09,3,4914,4914,15.83,1.91,30,42,0,0
2.5716e+05,1.7052e+09,3,4908,4871,15.83,1.91,30,42,0,0
2.58e+05,1.7055e+09,3,4877,5042,15.77,2.16,30,42,0,0
2.5888e+05,1.7057e+09,3,5054,5257,15.77,2.31,30,42,0,0
2.5929e+05,1.7058e+09,3,5256,5228,15.8,2.26,30,42,0,0
2.5977e+05,1.7059e+09,3,5228,5228,15.79,2.46,30,42,0,0
2.6018e+05,1.706e+09,3,5253,5442,15.79,2.41,30,42,0,0
2.6102e+05,1.7062e+09,3,5429,5128,15.81,2.04,30,43,0,0
2.6145e+05,1.7063e+09,3,5128,5157,15.86,2.12,30,43,0,0
2.6189e+05,1.7064e+09,3,5151,5100,15.88,1.96,30,43,0,0
2.6238e+05,1.7065e+09,3,5101,5114,15.84,2.36,30,43,0,0
2.6278e+05,1.7066e+09,3,5102,5028,15.84,2.04,30,43,0,0
2.6319e+05,1.7067e+09,3,5028,5042,15.77,2.27,30,43,0,0
2.6363e+05,1.7069e+09,3,5042,5100,15.8,2.5,30,43,0,0
2.6408e+05,1.707e+09,3,5125,5442,15.73,2.67,30,43,0,0
2.6453e+05,1.7071e+09,3,5442,5442,15.73,2.91,30,43,0,0
2.65e+05,1.7072e+09,3,5455,5728,15.68,3.28,30,43,0,0
2.6546e+05,1.7073e+09,3,5731,5771,15.69,2.86,30,43,0,0
2.6586e+05,1.7074e+09,3,5770,5742,15.63,3.06,30,44,0,0
2.6635e+05,1.7075e+09,3,5744,5771,15.73,2.96,30,44,0,0
2.6679e+05,1.7076e+09,3,5766,5700,15.66,2.94,30,44,0,0
2.6724e+05,1.7077e+09,3,5702,5728,15.67,3.1,30,44,0,0
2.6765e+05,1.7078e+09,3,5732,5785,15.73,2.93,30,44,0,0
2.6805e+05,1.7079e+09,3,5783,5714,15.7,2.91,30,44,0,0
2.6852e+05,1.7081e+09,3,5715,5742,15.63,2.96,30,44,0,0
2.6895e+05,1.7082e+09,3,5740,5728,15.69,2.94,30,44,0,0
2.6935e+05,1.7083e+09,3,5731,5857,15.72,3.15,30,44,0,0
2.698e+05,1.7084e+09,3,5857,5857,15.66,2.95,30,44,0,0
2.7025e+05,1.7085e+09,3,5848,5728,15.64,3.02,30,44,0,0
2.7069e+05,1.7086e+09,3,5733,5814,15.66,2.96,30,45,0,0
2.7114e+05,1.7087e+09,3,5812,5800,15.61,3.06,30,45,0,0
2.7155e+05,1.7088e+09,3,5800,5800,15.69,3.1,30,45,0,0
2.7199e+05,1.7089e+09,3,5800,5814,15.67,2.81,30,45,0,0
2.7244e+05,1.709e+09,3,5814,5814,15.69,3.02,30,45,0,0
2.7297e+05,1.7092e+09,3,5772,5485,15.67,2.75,30,45,0,0
2.7332e+05,1.7093e+09,3,5498,5771,15.69,3,30,45,0,0
2.7375e+05,1.7094e+09,3,5770,5742,15.66,2.93,30,45,0,0
2.7419e+05,1.7095e+09,3,5757,5914,15.6,3.13,30,45,0,0
2.7464e+05,1.7096e+09,3,5906,5828,15.65,3.09,30,45,0,0
2.7509e+05,1.7097e+09,3,5830,5857,15.61,3.1,30,45,0,0
2.7549e+05,1.7098e+09,3,5857,5871,15.69,3.11,30,46,0,0
2.7598e+05,1.7099e+09,3,5871,5885,15.67,3.29,30,46,0,0
2.7643e+05,1.71e+09,3,5887,5942,15.62,3.09,30,46,0,0
2.7735e+05,1.7103e+09,3,5947,6085,15.67,3.47,30,46,0,0
2.778e+05,1.7104e+09,3,6068,5857,15.72,3.15,30,46,0,0
2.7825e+05,1.7105e+09,3,5858,5971,15.7,3.09,30,46,0,0
2.7865e+05,1.7106e+09,3,5971,6028,15.63,3.36,30,46,0,0
2.7911e+05,1.7107e+09,3,6024,5957,15.63,3.57,30,46,0,0
2.8039e+05,1.711e+09,3,5957,5971,15.67,3.23,30,47,0,0
2.8084e+05,1.7111e+09,3,5969,5942,15.68,3.1,30,47,0,0
2.8124e+05,1.7112e+09,3,5932,5742,15.65,2.87,30,47,0,0
2.817e+05,1.7113e+09,3,5750,5842,15.64,3.29,30,47,0,0
2.8211e+05,1.7114e+09,3,5847,5928,15.72,3.06,30,47,0,0
2.8256e+05,1.7116e+09,3,5897,5728,15.7,2.84,30,47,0,0
2.83e+05,1.7117e+09,3,5734,5800,15.6,3.39,30,47,0,0
2.8345e+05,1.7118e+09,3,5845,6157,15.63,3.8,30,47,0,0
2.8386e+05,1.7119e+09,3,6152,6100,15.57,3.53,30,47,0,0
2.843e+05,1.712e+09,3,6094,6042,15.71,3.05,30,48,0,0
2.8472e+05,1.7121e+09,3,6034,5957,15.68,3.21,30,48,0,0
2.8512e+05,1.7122e+09,3,5956,5942,15.63,3.04,30,48,0,0
2.8561e+05,1.7123e+09,3,5932,5828,15.77,2.89,30,48,0,0
2.8602e+05,1.7124e+09,3,5810,5571,15.73,2.44,30,48,0,0
2.8646e+05,1.7125e+09,3,5575,5671,15.7,3.39,30,48,0,0
2.8691e+05,1.7126e+09,3,5679,5771,15.72,2.66,30,48,0,0
2.8736e+05,1.7127e+09,3,5751,5571,15.66,3,30,48,0,0
2.8776e+05,1.7128e+09,3,5573,5642,15.76,2.83,30,48,0,0
2.8824e+05,1.713e+09,3,5630,5528,15.83,2.15,30,48,0,0
2.8865e+05,1.7131e+09,3,5511,5300,15.83,2.52,30,48,0,0
2.8909e+05,1.7132e+09,3,5306,5457,15.83,2.85,30,48,0,0
2.8954e+05,1.7133e+09,3,5460,5500,15.7,2.59,30,49,0,0
2.9129e+05,1.7137e+09,3,5498,5314,15.74,2.82,30,49,0,0
2.9173e+05,1.7138e+09,3,5324,5457,15.62,3.09,30,49,0,0
2.9218e+05,1.7139e+09,3,5449,5314,15.75,2.6,30,49,0,0
2.9262e+05,1.7141e+09,3,5327,5471,15.63,2.79,30,49,0,0
2.9307e+05,1.7142e+09,3,5463,5400,15.65,2.7,30,49,0,0
2.9351e+05,1.7143e+09,3,5415,5557,15.71,2.71,30,49,0,0
2.9391e+05,1.7144e+09,3,5563,5700,15.66,2.97,30,49,0,0
2.944e+05,1.7145e+09,3,5700,5700,15.74,2.91,30,49,0,0
2.948e+05,1.7146e+09,3,5697,5671,15.79,2.67,30,50,0,0
2.9525e+05,1.7147e+09,3,5652,5428,15.77,2.41,30,50,0,0
2.9569e+05,1.7148e+09,3,5426,5414,15.68,2.52,30,50,0,0
2.9612e+05,1.7149e+09,3,5405,5300,15.71,2.3,30,50,0,0
2.9656e+05,1.715e+09,3,5297,5271,15.75,2.76,30,50,0,0
2.97e+05,1.7151e+09,3,5280,5414,15.72,2.51,30,50,0,0
2.9741e+05,1.7152e+09,3,5420,5528,15.71,2.55,30,50,0,0
2.9829e+05,1.7155e+09,3,5526,5414,15.73,2.58,30,50,0,0
2.9874e+05,1.7156e+09,3,5413,5371,15.7,2.6,30,50,0,0
2.9963e+05,1.7158e+09,3,5369,5328,15.69,2.75,30,50,0,0
3.0009e+05,1.7159e+09,3,5346,5542,15.76,2.66,30,50,0,0
3.0049e+05,1.716e+09,3,5538,5457,15.7,2.53,30,51,0,0
3.0093e+05,1.7161e+09,3,5437,5200,15.7,2.49,30,51,0,0
3.0132e+05,1.7162e+09,3,5203,5285,15.75,2.22,30,51,0,0
3.0223e+05,1.7164e+09,3,5282,5228,15.81,2.54,30,51,0,0
3.0268e+05,1.7166e+09,3,5222,5171,15.78,2.25,30,51,0,0
3.0353e+05,1.7168e+09,3,5171,5171,15.83,1.99,30,51,0,0
3.0438e+05,1.717e+09,3,5171,5200,15.75,2.37,30,51,0,0
3.0486e+05,1.7171e+09,3,5209,5300,15.81,2.69,30,51,0,0
3.0571e+05,1.7173e+09,3,5299,5185,15.79,2.32,30,51,0,0
3.0619e+05,1.7174e+09,3,5209,5457,15.69,2.86,30,51,0,0
3.0705e+05,1.7176e+09,3,5464,5614,15.66,3.07,30,52,0,0
3.075e+05,1.7177e+09,3,5614,5628,15.77,2.46,30,52,0,0
3.0791e+05,1.7178e+09,3,5622,5485,15.75,2.63,30,52,0,0
3.0836e+05,1.718e+09,3,5485,5485,15.71,2.6,30,52,0,0
3.0878e+05,1.7181e+09,3,5475,5357,15.74,2.43,30,52,0,0
3.0922e+05,1.7182e+09,3,5343,5214,15.73,2.22,30,52,0,0
3.0962e+05,1.7183e+09,3,5211,5100,15.72,2.18,30,52,0,0
3.1007e+05,1.7184e+09,3,5102,5128,15.79,2.15,30,52,0,0
3.1052e+05,1.7185e+09,3,5130,5157,15.77,2.44,30,52,0,0
3.1096e+05,1.7186e+09,3,5159,5200,15.68,2.62,30,52,0,0
3.1185e+05,1.7188e+09,3,5200,5200,15.76,2.46,30,52,0,0
3.1302e+05,1.7191e+09,3,5198,5014,15.67,2.19,30,53,0,0
3.1352e+05,1.7193e+09,3,5040,5357,15.79,2.79,30,53,0,0
3.1391e+05,1.7194e+09,3,5357,5371,15.77,2.44,30,53,0,0
3.1434e+05,1.7195e+09,3,5371,5371,15.79,2.65,30,53,0,0
3.1477e+05,1.7196e+09,3,5374,5457,15.77,2.59,30,53,0,0
3.1526e+05,1.7197e+09,3,5444,5314,15.72,2.68,30,53,0,0
3.1562e+05,1.7198e+09,3,5319,5600,15.71,2.72,30,53,0,0
3.1612e+05,1.7199e+09,3,5590,5500,15.76,2.47,30,53,0,0
3.1655e+05,1.72e+09,3,5499,5485,15.69,2.76,30,53,0,0
3.17e+05,1.7201e+09,3,5481,5414,15.75,2.46,30,53,0,0
3.1745e+05,1.7202e+09,3,5415,5442,15.75,2.51,30,53,0,0
3.1794e+05,1.7204e+09,3,5444,5471,15.72,2.56,30,54,0,0
3.1834e+05,1.7205e+09,3,5469,5314,15.76,2.55,30,54,0,0
3.1879e+05,1.7206e+09,3,5314,5357,15.76,2.64,30,54,0,0
3.1924e+05,1.7207e+09,3,5359,5428,15.7,2.57,30,54,0,0
3.1968e+05,1.7208e+09,3,5422,5300,15.72,2.45,30,54,0,0
3.2058e+05,1.721e+09,3,5294,5185,15.79,2,30,54,0,0
3.2103e+05,1.7211e+09,3,5166,4928,15.77,1.95,30,54,0,0
3.2146e+05,1.7212e+09,3,4940,5057,15.77,2.07,30,54,0,0
3.2189e+05,1.7213e+09,3,5037,4842,15.79,1.75,30,54,0,0
3.2233e+05,1.7214e+09,3,4839,4771,15.75,1.72,30,54,0,0
3.2281e+05,1.7216e+09,3,4780,4871,15.7,1.93,30,54,0,0
3.2326e+05,1.7217e+09,3,4881,5000,15.76,2.23,30,54,0,0
3.2366e+05,1.7218e+09,3,5001,5071,15.73,2.43,30,54,0,0
3.2411e+05,1.7219e+09,3,5079,5157,15.73,2.42,30,54,0,0
3.2455e+05,1.722e+09,3,5162,5242,15.68,2.44,30,55,0,0
3.2501e+05,1.7221e+09,3,5222,5014,15.78,1.85,30,55,0,0
3.2545e+05,1.7222e+09,3,5009,4942,15.75,1.98,30,55,0,0
3.259e+05,1.7223e+09,3,4937,4871,15.7,1.75,30,55,0,0
3.2634e+05,1.7224e+09,3,4864,4771,15.66,2.01,29,55,0,0
3.2679e+05,1.7225e+09,3,4772,4785,15.76,1.58,30,55,0,0
3.2724e+05,1.7227e+09,3,4793,4871,15.7,2.08,30,55,0,0
3.2769e+05,1.7228e+09,3,4881,4985,15.77,2.21,29,55,0,0
3.2809e+05,1.7229e+09,3,4989,5085,15.77,2.54,30,55,0,0
3.2854e+05,1.723e+09,3,5105,5328,15.73,2.49,30,55,0,0
3.2898e+05,1.7231e+09,3,5331,5400,15.75,2.84,29,55,0,0
3.2942e+05,1.7232e+09,3,5395,5228,15.68,2.41,30,55,0,0
3.2984e+05,1.7233e+09,3,5228,5257,15.78,2.36,29,55,0,0
3.3028e+05,1.7234e+09,3,5268,5414,15.73,2.42,30,55,0,0
3.3073e+05,1.7235e+09,3,5404,5314,15.74,2.27,30,56,0,0
3.3121e+05,1.7236e+09,3,5314,5314,15.76,2.37,30,56,0,0
3.3162e+05,1.7237e+09,3,5309,5228,15.72,2.34,30,56,0,0
3.321e+05,1.7239e+09,3,5237,5300,15.71,2.64,30,56,0,0
3.3344e+05,1.7242e+09,3,5299,5285,15.75,2.51,29,56,0,0
3.3388e+05,1.7243e+09,3,5285,5285,15.79,2.42,29,56,0,0
3.343e+05,1.7244e+09,3,5281,5257,15.74,2.37,30,56,0,0
3.347e+05,1.7245e+09,3,5257,5271,15.74,2.71,30,56,0,0
3.3515e+05,1.7246e+09,3,5267,5228,15.74,2.32,29,56,0,0
3.356e+05,1.7247e+09,3,5220,5157,15.73,2.34,29,56,0,0
3.3601e+05,1.7248e+09,3,5167,5271,15.77,2.35,30,56,0,0
3.3646e+05,1.7249e+09,3,5271,5300,15.7,2.52,30,56,0,0
3.378e+05,1.7253e+09,3,5291,5014,15.8,2.27,30,57,0,0
3.3868e+05,1.7255e+09,3,5021,5300,15.72,2.31,29,57,0,0
3.3913e+05,1.7256e+09,3,5300,5300,15.73,2.79,29,57,0,0
3.3958e+05,1.7257e+09,3,5303,5428,15.7,2.79,29,57,0,0
3.4002e+05,1.7258e+09,3,5439,5628,15.74,2.74,30,57,0,0
3.4045e+05,1.7259e+09,3,5625,5442,15.75,2.56,30,57,0,0
3.4092e+05,1.726e+09,3,5440,5428,15.72,2.79,29,57,0,0
3.4133e+05,1.7261e+09,3,5428,5471,15.74,2.6,29,57,0,0
3.4177e+05,1.7262e+09,3,5469,5414,15.69,2.58,29,57,0,0
3.423e+05,1.7264e+09,3,5416,5442,15.73,2.44,30,57,0,0
3.427e+05,1.7265e+09,3,5434,5328,15.7,2.42,29,57,0,0
3.4316e+05,1.7266e+09,3,5319,5228,15.7,2.51,30,58,0,0
3.4356e+05,1.7267e+09,3,5231,5500,15.7,2.6,29,58,0,0
3.4445e+05,1.7269e+09,3,5499,5414,15.72,2.63,29,58,0,0
3.449e+05,1.727e+09,3,5414,5428,15.78,2.46,30,58,0,0
3.4535e+05,1.7271e+09,3,5427,5414,15.73,2.54,30,58,0,0
3.4584e+05,1.7272e+09,3,5410,5371,15.76,2.55,29,58,0,0
3.4624e+05,1.7273e+09,3,5370,5328,15.72,2.47,30,58,0,0
3.4672e+05,1.7275e+09,3,5347,5557,15.63,3.14,30,58,0,0
3.4709e+05,1.7276e+09,3,5556,5528,15.64,2.86,30,58,0,0
3.4756e+05,1.7277e+09,3,5544,5714,15.67,2.84,29,58,0,0
3.4799e+05,1.7278e+09,3,5696,5557,15.7,2.89,29,58,0,0
3.484e+05,1.7279e+09,3,5557,5557,15.67,2.9,30,59,0,0
3.488e+05,1.728e+09,3,5560,5828,15.65,3.26,29,59,0,0
3.4925e+05,1.7281e+09,3,5826,5728,15.64,3.01,29,59,0,0
3.4973e+05,1.7282e+09,3,5725,5685,15.7,2.85,29,59,0,0
3.5018e+05,1.7283e+09,3,5695,5800,15.66,2.95,29,59,0,0
3.5062e+05,1.7284e+09,3,5780,5585,15.66,2.96,30,59,0,0
3.5107e+05,1.7285e+09,3,5592,5671,15.72,2.98,29,59,0,0
3.5148e+05,1.7287e+09,3,5674,5728,15.64,2.94,30,59,0,0
3.5237e+05,1.7289e+09,3,5728,5742,15.62,3.07,29,59,0,0
3.5281e+05,1.729e+09,3,5740,5728,15.72,2.97,29,59,0,0
3.5322e+05,1.7291e+09,3,5723,5657,15.73,2.75,30,60,0,0
3.5363e+05,1.7292e+09,3,5644,5457,15.66,2.7,30,60,0,0
3.5408e+05,1.7293e+09,3,5457,5457,15.66,2.79,29,60,0,0
3.5451e+05,1.7294e+09,3,5459,5500,15.71,3,30,60,0,0
3.5494e+05,1.7295e+09,3,5500,5500,15.69,2.73,29,60,0,0
3.5535e+05,1.7296e+09,3,5501,5514,15.72,2.71,29,60,0,0
3.5579e+05,1.7297e+09,3,5512,5471,15.65,2.61,30,60,0,0
3.5624e+05,1.7298e+09,3,5466,5414,15.69,2.37,29,60,0,0
3.5669e+05,1.73e+09,3,5410,5371,15.7,2.58,30,60,0,0
3.5713e+05,1.7301e+09,3,5367,5314,15.67,2.58,30,60,0,0
3.5754e+05,1.7302e+09,3,5313,5300,15.66,2.64,30,60,0,0
3.5802e+05,1.7303e+09,3,5303,5342,15.73,2.2,29,60,0,0
3.5843e+05,1.7304e+09,3,5329,5057,15.7,2.08,29,61,0,0
3.5888e+05,1.7305e+09,3,5072,5214,15.63,2.4,30,61,0,0
3.5933e+05,1.7306e+09,3,5212,5200,15.69,2.6,30,61,0,0
3.5981e+05,1.7307e+09,3,5222,5342,15.7,2.74,30,61,0,0
3.6022e+05,1.7308e+09,3,5337,5300,15.67,2.8,30,61,0,0
3.6067e+05,1.7309e+09,3,5321,5471,15.64,2.7,30,61,0,0
3.6106e+05,1.731e+09,3,5482,5557,15.7,2.98,30,61,0,0
3.615e+05,1.7312e+09,3,5547,5485,15.66,3.15,29,61,0,0
3.619e+05,1.7313e+09,3,5507,5714,15.64,2.98,30,61,0,0
3.6231e+05,1.7314e+09,3,5715,5742,15.64,3,29,61,0,0
3.6279e+05,1.7315e+09,3,5739,5714,15.67,3.19,30,61,0,0
3.6319e+05,1.7316e+09,3,5716,5757,15.66,3.12,30,61,0,0
3.6368e+05,1.7317e+09,3,5772,5914,15.69,3.23,30,62,0,0
3.6409e+05,1.7318e+09,3,5897,5742,15.66,2.94,29,62,0,0
3.6494e+05,1.732e+09,3,5731,5500,15.77,2.61,30,62,0,0
3.6539e+05,1.7321e+09,3,5483,5342,15.77,2.37,29,62,0,0
3.6583e+05,1.7322e+09,3,5339,5314,15.76,2.56,29,62,0,0
3.6628e+05,1.7323e+09,3,5311,5285,15.77,2.41,29,62,0,0
3.6666e+05,1.7324e+09,3,5282,5242,15.76,2.28,29,62,0,0
3.671e+05,1.7326e+09,3,5256,5414,15.72,2.91,30,62,0,0
3.6754e+05,1.7327e+09,3,5419,5471,15.75,2.5,30,62,0,0
3.6799e+05,1.7328e+09,3,5474,5500,15.78,2.58,30,62,0,0
3.6843e+05,1.7329e+09,3,5497,5471,15.77,2.59,30,62,0,0
3.6928e+05,1.7331e+09,3,5468,5171,15.86,2.09,30,63,0,0
3.6976e+05,1.7332e+09,3,5161,5071,15.86,2.07,29,63,0,0
3.7021e+05,1.7333e+09,3,5076,5128,15.79,2.38,30,63,0,0
3.7066e+05,1.7334e+09,3,5134,5185,15.82,2.18,30,63,0,0
3.7106e+05,1.7335e+09,3,5184,5171,15.82,2.41,30,63,0,0
3.7151e+05,1.7336e+09,3,5172,5214,15.83,2.06,30,63,0,0
3.7192e+05,1.7337e+09,3,5214,5271,15.72,2.7,29,63,0,0
3.7281e+05,1.734e+09,3,5272,5342,15.81,2.59,30,63,0,0
3.732e+05,1.7341e+09,3,5344,5500,15.73,2.68,30,63,0,0
3.7367e+05,1.7342e+09,3,5500,5514,15.76,2.86,30,63,0,0
3.7411e+05,1.7343e+09,3,5511,5400,15.67,2.49,30,63,0,0
3.75e+05,1.7345e+09,3,5401,5457,15.78,2.69,29,63,0,0
3.7545e+05,1.7346e+09,3,5447,5328,15.77,2.29,30,64,0,0
3.759e+05,1.7347e+09,3,5318,5185,15.8,2.06,29,64,0,0
3.768e+05,1.735e+09,3,5184,5157,15.73,2.03,30,64,0,0
3.7725e+05,1.7351e+09,3,5146,5042,15.75,2.11,30,64,0,0
3.7764e+05,1.7352e+09,3,5040,4985,15.75,2.03,30,64,0,0
3.7808e+05,1.7353e+09,3,4982,4928,15.72,2.19,29,64,0,0
3.785e+05,1.7354e+09,3,4931,5028,15.75,2.39,29,64,0,0
3.7899e+05,1.7355e+09,3,5029,5042,15.79,1.93,30,64,0,0
3.7944e+05,1.7356e+09,3,5033,4957,15.82,2.18,29,64,0,0
3.7988e+05,1.7357e+09,3,4962,5028,15.78,2.16,30,64,0,0
3.8028e+05,1.7358e+09,3,5039,5300,15.77,2.43,29,64,0,0
3.8073e+05,1.7359e+09,3,5294,5171,15.72,2.17,30,64,0,0
3.8163e+05,1.7361e+09,3,5173,5257,15.67,2.69,30,65,0,0
3.8207e+05,1.7363e+09,3,5265,5471,15.7,2.92,29,65,0,0
3.8251e+05,1.7364e+09,3,5471,5500,15.74,2.57,29,65,0,0
3.8288e+05,1.7365e+09,3,5492,5400,15.59,2.91,30,65,0,0
3.8332e+05,1.7366e+09,3,5403,5442,15.73,2.47,30,65,0,0
3.8377e+05,1.7367e+09,3,5448,5542,15.63,2.73,30,65,0,0
3.8421e+05,1.7368e+09,3,5512,5100,15.76,2.13,30,65,0,0
3.8466e+05,1.7369e+09,3,5105,5157,15.75,2.46,30,65,0,0
3.851e+05,1.737e+09,3,5167,5271,15.7,2.42,30,65,0,0
3.8552e+05,1.7371e+09,3,5272,5342,15.69,2.53,30,65,0,0
3.8596e+05,1.7372e+09,3,5332,5214,15.7,2.22,30,65,0,0
3.864e+05,1.7373e+09,3,5219,5300,15.63,2.38,30,65,0,0
3.8685e+05,1.7375e+09,3,5299,5285,15.72,2.57,29,65,0,0
3.8726e+05,1.7376e+09,3,5283,5242,15.73,2.33,30,65,0,0
3.8768e+05,1.7377e+09,3,5245,5300,15.71,2.47,29,66,0,0
3.8812e+05,1.7378e+09,3,5309,5442,15.65,2.74,29,66,0,0
3.8853e+05,1.7379e+09,3,5450,5628,15.57,3.08,29,66,0,0
3.8898e+05,1.738e+09,3,5623,5571,15.61,2.7,29,66,0,0
3.8939e+05,1.7381e+09,3,5571,5614,15.66,2.92,29,66,0,0
3.8983e+05,1.7382e+09,3,5615,5642,15.7,2.79,29,66,0,0
3.9072e+05,1.7384e+09,3,5638,5485,15.69,2.59,29,66,0,0
3.9117e+05,1.7385e+09,3,5484,5442,15.6,2.74,30,66,0,0
3.9165e+05,1.7386e+09,3,5441,5428,15.66,2.81,30,66,0,0
3.921e+05,1.7388e+09,3,5433,5514,15.76,2.57,30,66,0,0
3.9255e+05,1.7389e+09,3,5496,5314,15.72,2.24,29,66,0,0
3.9295e+05,1.739e+09,3,5311,5285,15.71,2.37,29,67,0,0
3.9339e+05,1.7391e+09,3,5288,5328,15.66,2.53,29,67,0,0
3.9381e+05,1.7392e+09,3,5336,5414,15.66,2.6,29,67,0,0
3.9422e+05,1.7393e+09,3,5406,5285,15.73,2.26,30,67,0,0
3.9467e+05,1.7394e+09,3,5281,5200,15.73,2.25,30,67,0,0
3.9515e+05,1.7395e+09,3,5202,5228,15.67,2.43,29,67,0,0
3.9559e+05,1.7396e+09,3,5221,5185,15.75,2.3,29,67,0,0
3.9604e+05,1.7397e+09,3,5186,5200,15.7,2.3,29,67,0,0
3.9648e+05,1.7398e+09,3,5202,5242,15.71,2.36,30,67,0,0
3.9693e+05,1.74e+09,3,5247,5314,15.67,2.45,29,67,0,0
3.9738e+05,1.7401e+09,3,5314,5314,15.75,2.43,29,67,0,0
3.9827e+05,1.7403e+09,3,5311,5271,15.69,2.41,29,67,0,0
3.9867e+05,1.7404e+09,3,5269,5228,15.68,2.3,30,67,0,0
3.9916e+05,1.7405e+09,3,5226,5214,15.69,2.18,29,68,0,0
3.9956e+05,1.7406e+09,3,5214,5214,15.61,2.47,30,68,0,0
4.0002e+05,1.7407e+09,3,5234,5400,15.63,2.71,30,68,0,0
4.0046e+05,1.7408e+09,3,5395,5328,15.69,2.37,30,68,0,0
4.009e+05,1.7409e+09,3,5339,5457,15.69,2.76,30,68,0,0
4.0135e+05,1.741e+09,3,5445,5300,15.72,2.25,29,68,0,0
4.0179e+05,1.7411e+09,3,5298,5285,15.7,2.46,30,68,0,0
4.0224e+05,1.7413e+09,3,5283,5271,15.67,2.5,30,68,0,0
4.0313e+05,1.7415e+09,3,5278,5485,15.58,2.79,30,68,0,0
4.0357e+05,1.7416e+09,3,5479,5371,15.66,2.83,30,68,0,0
4.0402e+05,1.7417e+09,3,5373,5400,15.67,2.62,29,68,0,0
4.0442e+05,1.7418e+09,3,5402,5500,15.69,2.49,30,69,0,0
4.0488e+05,1.7419e+09,3,5498,5385,15.67,2.36,30,69,0,0
4.0532e+05,1.742e+09,3,5382,5357,15.67,2.4,30,69,0,0
4.0577e+05,1.7421e+09,3,5354,5314,15.67,2.51,29,69,0,0
4.0622e+05,1.7422e+09,3,5316,5342,15.72,2.53,29,69,0,0
4.0667e+05,1.7424e+09,3,5336,5285,15.66,2.24,29,69,0,0
4.0709e+05,1.7425e+09,3,5280,5171,15.69,2.16,29,69,0,0
4.0756e+05,1.7426e+09,3,5174,5214,15.67,2.16,30,69,0,0
4.0797e+05,1.7427e+09,3,5212,5128,15.7,2.07,30,69,0,0
4.0841e+05,1.7428e+09,3,5130,5200,15.66,2.27,30,69,0,0
4.089e+05,1.7429e+09,3,5200,5214,15.69,2.32,29,69,0,0
4.0934e+05,1.743e+09,3,5208,5142,15.65,2.34,29,69,0,0
4.0974e+05,1.7431e+09,3,5145,5228,15.72,2.33,30,69,0,0
4.1019e+05,1.7432e+09,3,5228,5257,15.67,2.37,29,69,0,0
4.1064e+05,1.7433e+09,3,5258,5271,15.72,2.71,29,69,0,0
4.1105e+05,1.7434e+09,3,5271,5285,15.7,2.49,30,70,0,0
4.115e+05,1.7435e+09,3,5290,5400,15.7,2.21,29,70,0,0
4.1195e+05,1.7437e+09,3,5393,5328,15.64,2.5,29,70,0,0
4.1239e+05,1.7438e+09,3,5326,5300,15.64,2.51,29,70,0,0
4.1284e+05,1.7439e+09,3,5309,5400,15.7,2.45,30,70,0,0
4.1328e+05,1.744e+09,3,5389,5257,15.69,2.38,29,70,0,0
4.1369e+05,1.7441e+09,3,5251,5128,15.7,2.33,29,70,0,0
4.1414e+05,1.7442e+09,3,5134,5228,15.69,2.49,30,70,0,0
4.1498e+05,1.7444e+09,3,5227,5185,15.69,2.35,29,70,0,0
4.1547e+05,1.7445e+09,3,5186,5200,15.6,2.27,29,70,0,0
4.159e+05,1.7446e+09,3,5200,5200,15.7,2.23,29,70,0,0
4.1633e+05,1.7447e+09,3,5199,5171,15.67,2.34,29,70,0,0
4.1677e+05,1.7448e+09,3,5176,5314,15.63,2.47,30,70,0,0
4.1722e+05,1.745e+09,3,5320,5371,15.64,2.44,29,71,0,0
4.1767e+05,1.7451e+09,3,5372,5385,15.64,2.49,29,71,0,0
4.1811e+05,1.7452e+09,3,5386,5428,15.65,2.65,29,71,0,0
4.1856e+05,1.7453e+09,3,5420,5314,15.68,2.57,30,71,0,0
4.1901e+05,1.7454e+09,3,5323,5414,15.62,2.56,29,71,0,0
4.1942e+05,1.7455e+09,3,5413,5385,15.73,2.56,30,71,0,0
4.1986e+05,1.7456e+09,3,5382,5285,15.73,2.57,29,71,0,0
4.2031e+05,1.7457e+09,3,5284,5271,15.72,2.42,29,71,0,0
4.2075e+05,1.7458e+09,3,5273,5314,15.7,2.37,29,71,0,0
4.212e+05,1.7459e+09,3,5310,5271,15.7,2.04,29,71,0,0
4.216e+05,1.746e+09,3,5255,5042,15.72,1.81,29,71,0,0
4.2203e+05,1.7462e+09,3,5042,5071,15.69,2.09,29,71,0,0
4.2247e+05,1.7463e+09,3,5072,5128,15.69,2.36,29,71,0,0
4.2291e+05,1.7464e+09,3,5127,5114,15.7,2.4,29,71,0,0
4.2336e+05,1.7465e+09,3,5121,5285,15.64,2.45,29,72,0,0
4.2377e+05,1.7466e+09,3,5285,5314,15.7,2.28,29,72,0,0
4.2426e+05,1.7467e+09,3,5305,5228,15.74,2.25,29,72,0,0
4.247e+05,1.7468e+09,3,5223,5157,15.75,1.97,29,72,0,0
4.2515e+05,1.7469e+09,3,5154,5128,15.71,2.38,29,72,0,0
4.2556e+05,1.747e+09,3,5131,5171,15.74,2.14,29,72,0,0
4.2645e+05,1.7472e+09,3,5174,5228,15.74,2.2,29,72,0,0
4.269e+05,1.7474e+09,3,5213,5100,15.71,2.03,29,72,0,0
4.2728e+05,1.7475e+09,3,5099,5071,15.73,2.4,29,72,0,0
4.2771e+05,1.7476e+09,3,5072,5200,15.73,2.26,29,72,0,0
4.2859e+05,1.7478e+09,3,5198,5028,15.63,2.07,29,72,0,0
4.2909e+05,1.7479e+09,3,5049,5242,15.6,2.59,29,72,0,0
4.2998e+05,1.7481e+09,3,5239,5128,15.51,2.21,29,73,0,0
4.3038e+05,1.7482e+09,3,5125,5028,15.68,1.97,29,73,0,0
4.3083e+05,1.7483e+09,3,5027,5014,15.65,2,30,73,0,0
4.3128e+05,1.7485e+09,3,5003,4900,15.7,1.9,29,73,0,0
4.3168e+05,1.7486e+09,3,4898,4828,15.69,1.87,29,73,0,0
4.326e+05,1.7488e+09,3,4834,4957,15.7,2.14,29,73,0,0
4.3303e+05,1.7489e+09,3,4953,4871,15.73,2.04,29,73,0,0
4.3346e+05,1.749e+09,3,4871,4871,15.7,2.02,29,73,0,0
4.3392e+05,1.7491e+09,3,4878,4928,15.67,2.04,29,73,0,0
4.3436e+05,1.7492e+09,3,4917,4800,15.71,1.98,29,73,0,0
4.3484e+05,1.7493e+09,3,4802,4828,15.8,1.85,29,73,0,0
4.3524e+05,1.7494e+09,3,4831,4971,15.64,2.53,29,73,0,0
4.3569e+05,1.7495e+09,3,4970,4957,15.77,1.89,29,73,0,0
4.3613e+05,1.7496e+09,3,4818,3357,16.12,0.18,29,73,0,0
4.3658e+05,1.7498e+09,3,3274,2100,16.02,0.01,29,73,0,0
4.3702e+05,1.7499e+09,3,2092,1914,16.2,0.18,29,73,0,0
4.3747e+05,1.75e+09,3,1929,2114,16.13,0.27,29,73,0,0
4.3792e+05,1.7501e+09,3,2099,1971,16.12,0.12,29,73,0,0
4.3836e+05,1.7502e+09,3,1966,1900,16.12,0.17,29,73,0,0
4.3881e+05,1.7503e+09,3,1901,2000,16.13,0.23,29,73,0,0
4.3925e+05,1.7504e+09,3,1998,1971,16.12,0.15,29,73,0,0
4.3969e+05,1.7505e+09,3,1970,1957,16.13,0.2,29,73,0,0
4.4054e+05,1.7507e+09,3,1957,1957,16.13,0.18,29,73,0,0
4.4098e+05,1.7508e+09,3,1958,2014,16.11,0.25,29,73,0,0
4.4148e+05,1.751e+09,3,2013,2000,16.13,0.17,29,73,0,0
4.4189e+05,1.7511e+09,3,1999,1985,16.13,0.18,29,73,0,0
4.4234e+05,1.7512e+09,3,1986,2014,16.14,0.19,29,73,0,0
4.4278e+05,1.7513e+09,3,2014,2014,16.14,0.21,29,74,0,0
4.4319e+05,1.7514e+09,3,2014,2028,16.13,0.21,29,74,0,0
4.4367e+05,1.7515e+09,3,2027,2014,16.14,0.18,29,74,0,0
4.4411e+05,1.7516e+09,3,2013,2000,16.19,0.21,29,74,0,0
4.4454e+05,1.7517e+09,3,1991,1771,16.2,0.02,29,74,0,0
4.4497e+05,1.7518e+09,3,1754,1428,16.2,0.01,29,74,0,0
4.4543e+05,1.7519e+09,3,1424,1342,16.19,0.07,29,74,0,0
4.4587e+05,1.752e+09,3,1341,1328,16.19,0.08,29,74,0,0
4.4632e+05,1.7521e+09,3,1327,1314,16.19,0.09,29,74,0,0
4.468e+05,1.7523e+09,3,1314,1328,16.2,0.09,29,74,0,0
4.4721e+05,1.7524e+09,3,1327,1314,16.19,0.09,29,74,0,0
4.4766e+05,1.7525e+09,3,1314,1314,16.2,0.09,29,74,0,0
4.4811e+05,1.7526e+09,3,1314,1328,16.2,0.09,29,74,0,0
4.486e+05,1.7527e+09,3,1327,1314,16.2,0.09,29,74,0,0
4.4904e+05,1.7528e+09,3,1315,1328,16.21,0.09,29,74,0,0
4.4949e+05,1.7529e+09,3,1327,1314,16.21,0.09,29,74,0,0
4.4997e+05,1.753e+09,3,1314,1314,16.2,0.09,29,74,0,0
4.504e+05,1.7531e+09,3,1314,1314,16.22,0.09,29,74,0,0
4.508e+05,1.7532e+09,3,1314,1314,16.22,0.09,29,74,0,0
4.5126e+05,1.7533e+09,3,1314,1314,16.22,0.09,29,74,0,0
4.5173e+05,1.7535e+09,3,1314,1314,16.22,0.09,29,74,0,0
4.5258e+05,1.7537e+09,3,1314,1314,16.22,0.09,29,74,0,0
4.5303e+05,1.7538e+09,3,1314,1314,16.22,0.09,29,74,0,0
4.5348e+05,1.7539e+09,3,1314,1314,16.22,0.09,29,74,0,0
4.5392e+05,1.754e+09,3,1314,1314,16.23,0.09,29,74,0,0
4.5441e+05,1.7541e+09,3,1314,1314,16.22,0.09,29,74,0,0
4.5485e+05,1.7542e+09,3,1314,1314,16.23,0.09,29,74,0,0
4.5577e+05,1.7544e+09,3,1314,1314,16.23,0.1,29,74,0,0
4.5616e+05,1.7545e+09,3,1314,1314,16.23,0.09,29,74,0,0
4.566e+05,1.7546e+09,3,1314,1314,16.24,0.09,29,74,0,0
4.5704e+05,1.7547e+09,3,1314,1314,16.23,0.09,29,74,0,0
4.5749e+05,1.7548e+09,3,1314,1314,16.24,0.09,29,74,0,0
4.5794e+05,1.755e+09,3,1314,1328,16.23,0.09,29,74,0,0
4.5839e+05,1.7551e+09,3,1328,1328,16.24,0.09,29,74,0,0
4.5884e+05,1.7552e+09,3,1327,1314,16.23,0.09,29,74,0,0
4.5929e+05,1.7553e+09,3,1314,1314,16.24,0.09,29,74,0,0
4.5975e+05,1.7554e+09,3,1314,1314,16.24,0.09,29,74,0,0
4.6016e+05,1.7555e+09,3,1314,1314,16.24,0.09,29,74,0,0
4.606e+05,1.7556e+09,3,1314,1314,16.25,0.09,29,74,0,0
4.6109e+05,1.7557e+09,3,1315,1328,16.25,0.09,29,74,0,0
4.6154e+05,1.7558e+09,3,1328,1328,16.25,0.09,29,74,0,0
4.6199e+05,1.7559e+09,3,1328,1328,16.25,0.09,29,74,0,0
4.6243e+05,1.756e+09,3,1326,1314,16.25,0.09,29,74,0,0
4.6332e+05,1.7563e+09,3,1314,1314,16.25,0.09,29,74,0,0
4.6377e+05,1.7564e+09,3,1314,1314,16.25,0.09,29,74,0,0
4.6421e+05,1.7565e+09,3,1315,1328,16.26,0.09,29,74,0,0
4.6464e+05,1.7566e+09,3,1328,1328,16.26,0.09,29,74,0,0
4.6509e+05,1.7567e+09,3,1328,1328,16.26,0.09,29,74,0,0
4.6598e+05,1.7569e+09,3,1328,1328,16.25,0.09,29,74,0,0
4.6639e+05,1.757e+09,3,1328,1328,16.26,0.09,29,74,0,0
4.6684e+05,1.7571e+09,3,1327,1314,16.26,0.09,29,74,0,0
4.6728e+05,1.7572e+09,3,1314,1328,16.26,0.09,29,74,0,0
4.6773e+05,1.7573e+09,3,1328,1328,16.26,0.09,29,74,0,0
4.6821e+05,1.7574e+09,3,1328,1328,16.26,0.09,29,74,0,0
4.6869e+05,1.7576e+09,3,1328,1328,16.27,0.09,28,74,0,0
4.6908e+05,1.7577e+09,3,1328,1328,16.26,0.09,28,74,0,0
4.6951e+05,1.7578e+09,3,1328,1328,16.27,0.09,28,74,0,0
4.6996e+05,1.7579e+09,3,1328,1328,16.27,0.09,29,74,0,0
4.7036e+05,1.758e+09,3,1327,1314,16.27,0.09,28,74,0,0
4.7085e+05,1.7581e+09,3,1315,1328,16.27,0.09,28,74,0,0
4.7129e+05,1.7582e+09,3,1328,1328,16.27,0.09,28,74,0,0
4.7174e+05,1.7583e+09,3,1328,1328,16.27,0.09,28,74,0,0
4.7263e+05,1.7585e+09,3,1328,1328,16.27,0.09,29,74,0,0
4.7311e+05,1.7586e+09,3,1328,1328,16.27,0.09,28,74,0,0
4.7354e+05,1.7587e+09,3,1328,1328,16.27,0.09,28,74,0,0
4.7396e+05,1.7588e+09,3,1328,1328,16.27,0.09,28,74,0,0
4.7442e+05,1.7589e+09,3,1328,1328,16.27,0.09,29,74,0,0
4.7486e+05,1.7591e+09,3,1328,1328,16.28,0.09,28,74,0,0
4.7531e+05,1.7592e+09,3,1328,1342,16.28,0.09,28,74,0,0
4.7576e+05,1.7593e+09,3,1341,1328,16.28,0.09,28,74,0,0
4.7625e+05,1.7594e+09,3,1328,1328,16.27,0.09,28,74,0,0
4.767e+05,1.7595e+09,3,1328,1328,16.28,0.09,28,74,0,0
4.7709e+05,1.7596e+09,3,1328,1328,16.28,0.09,28,74,0,0
4.7756e+05,1.7597e+09,3,1328,1328,16.29,0.09,28,74,0,0
4.7795e+05,1.7598e+09,3,1328,1328,16.29,0.09,28,74,0,0
4.7844e+05,1.7599e+09,3,1328,1328,16.28,0.09,28,74,0,0
4.7885e+05,1.76e+09,3,1328,1328,16.29,0.09,28,74,0,0
4.7934e+05,1.7601e+09,3,1328,1328,16.29,0.09,28,74,0,0
4.7978e+05,1.7602e+09,3,1328,1328,16.29,0.09,28,74,0,0
4.8027e+05,1.7604e+09,3,1328,1328,16.29,0.09,28,74,0,0
4.8072e+05,1.7605e+09,3,1326,1314,16.29,0.09,28,74,0,0
4.8113e+05,1.7606e+09,3,1314,1328,16.29,0.09,28,74,0,0
4.8162e+05,1.7607e+09,3,1328,1328,16.29,0.09,28,74,0,0
4.8205e+05,1.7608e+09,3,1328,1328,16.29,0.09,28,74,0,0
4.8248e+05,1.7609e+09,3,1328,1328,16.29,0.09,28,74,0,0
4.8292e+05,1.761e+09,3,1328,1328,16.29,0.09,28,74,0,0
4.8337e+05,1.7611e+09,3,1328,1328,16.29,0.09,28,74,0,0
4.8381e+05,1.7612e+09,3,1328,1328,16.3,0.09,28,74,0,0
4.8426e+05,1.7613e+09,3,1328,1328,16.29,0.1,28,74,0,0
4.8471e+05,1.7614e+09,3,1328,1328,16.3,0.09,28,74,0,0
4.852e+05,1.7616e+09,3,1328,1328,16.29,0.09,28,74,0,0
4.8608e+05,1.7618e+09,3,1293,600,16.31,0.01,28,74,0,0
4.8653e+05,1.7619e+09,3,560,185,16.31,0.01,28,74,0,0
4.8698e+05,1.762e+09,3,168,0,16.32,0.02,28,74,0,0
4.8743e+05,1.7621e+09,3,0,0,16.32,0.02,28,74,0,0
4.8792e+05,1.7622e+09,3,0,0,16.32,0.02,28,74,0,0
4.8837e+05,1.7623e+09,3,0,0,16.31,0.02,28,74,0,0
4.8882e+05,1.7624e+09,3,0,0,16.32,0.02,28,74,0,0
4.8928e+05,1.7625e+09,3,0,0,16.32,0.02,28,74,0,0
4.8972e+05,1.7626e+09,3,0,0,16.32,0.02,28,74,0,0
4.9015e+05,1.7627e+09,3,0,0,16.32,0.02,28,74,0,0
4.9059e+05,1.7628e+09,3,0,0,16.32,0.02,28,74,0,0
4.9105e+05,1.763e+09,3,0,0,16.32,0.02,28,74,0,0
4.9154e+05,1.7631e+09,3,0,0,16.32,0.02,28,74,0,0
4.9194e+05,1.7632e+09,3,0,0,16.32,0.02,28,74,0,0
4.924e+05,1.7633e+09,3,0,0,16.32,0.02,28,74,0,0
4.9285e+05,1.7634e+09,3,0,0,16.32,0.02,28,74,0,0
4.933e+05,1.7635e+09,3,0,0,16.32,0.02,28,74,0,0
4.9379e+05,1.7636e+09,3,0,0,16.32,0.02,28,74,0,0
4.9422e+05,1.7637e+09,3,0,0,16.32,0.02,28,74,0,0
4.9466e+05,1.7638e+09,3,0,0,16.32,0.02,28,74,0,0
4.9516e+05,1.7639e+09,3,0,0,16.32,0.02,28,74,0,0
4.9562e+05,1.764e+09,3,0,0,16.33,0.02,28,74,0,0
4.9607e+05,1.7641e+09,3,0,0,16.32,0.02,28,74,0,0
4.9656e+05,1.7643e+09,3,0,0,16.33,0.02,28,74,0,0
4.9701e+05,1.7644e+09,3,0,0,16.32,0.02,28,74,0,0
4.9746e+05,1.7645e+09,3,0,0,16.32,0.02,28,74,0,0
4.979e+05,1.7646e+09,3,0,0,16.33,0.02,28,74,0,0
4.9881e+05,1.7648e+09,3,0,0,16.33,0.02,28,74,0,0
4.9927e+05,1.7649e+09,3,0,0,16.33,0.02,28,74,0,0
4.9972e+05,1.765e+09,3,0,0,16.33,0.01,28,74,0,0
5.0112e+05,1.7653e+09,3,0,0,16.33,0.02,28,74,0,0
5.0155e+05,1.7654e+09,3,0,0,16.33,0.02,28,74,0,0
5.0198e+05,1.7656e+09,3,0,0,16.33,0.02,28,74,0,0
5.0243e+05,1.7657e+09,3,0,0,16.33,0.02,28,74,0,0
5.0289e+05,1.7658e+09,3,0,0,16.33,0.02,28,74,0,0
5.0334e+05,1.7659e+09,3,0,0,16.33,0.02,28,74,0,0
5.0379e+05,1.766e+09,3,0,0,16.33,0.02,28,74,0,0
5.0429e+05,1.7661e+09,3,0,0,16.33,0.02,28,74,0,0
5.0474e+05,1.7662e+09,3,0,0,16.34,0.02,28,74,0,0
5.0519e+05,1.7663e+09,3,0,0,16.34,0.02,28,74,0,0
5.0564e+05,1.7664e+09,3,0,0,16.34,0.02,28,74,0,0
5.0607e+05,1.7665e+09,3,0,0,16.34,0.02,28,74,0,0
5.0651e+05,1.7666e+09,3,0,0,16.34,0.02,28,74,0,0
5.07e+05,1.7667e+09,3,0,0,16.34,0.02,28,74,0,0
5.0746e+05,1.7669e+09,3,0,0,16.34,0.02,28,74,0,0
5.0791e+05,1.767e+09,3,0,0,16.34,0.02,28,74,0,0
5.0836e+05,1.7671e+09,3,0,0,16.34,0.02,28,74,0,0
