LineNo,TimeUS,Instance,RPM,RawRPM,Volt,Curr,Temp,CTot,MotTemp,Err
1751,1642323894,5,0,0,16.86,0.03,26,0,0,0
2190,1642432089,5,0,0,16.86,0.03,26,0,0,0
2673,1642547770,5,0,0,16.86,0.03,26,0,0,0
3127,1642657407,5,0,0,16.86,0.03,26,0,0,0
3582,1642760657,5,0,0,16.86,0.03,26,0,0,0
4033,1642865961,5,0,0,16.86,0.03,26,0,0,0
4478,1642972949,5,0,0,16.87,0.03,26,0,0,0
4955,1643085542,5,0,0,16.86,0.03,26,0,0,0
5390,1643189504,5,0,0,16.86,0.03,26,0,0,0
5889,1643302786,5,0,0,16.86,0.03,26,0,0,0
6340,1643409075,5,11,128,16.86,0.02,26,0,0,0
6794,1643515291,5,153,514,16.85,0.08,26,0,0,0
7239,1643625483,5,538,928,16.82,0.14,26,0,0,0
7670,1643727549,5,940,1242,16.84,0.13,26,0,0,0
8126,1643835391,5,1244,1300,16.85,0.11,26,0,0,0
8628,1643947087,5,1301,1328,16.85,0.11,26,0,0,0
9077,1644051976,5,1328,1357,16.85,0.11,26,0,0,0
9566,1644166115,5,1357,1357,16.85,0.09999999,26,0,0,0
10002,1644271256,5,1357,1357,16.85,0.09999999,26,0,0,0
10441,1644378930,5,1357,1357,16.85,0.09999999,26,0,0,0
10938,1644492106,5,1357,1357,16.85,0.11,26,0,0,0
11390,1644598722,5,1357,1357,16.84,0.11,26,0,0,0
11847,1644704056,5,1357,1357,16.85,0.11,26,0,0,0
12329,1644817964,5,1357,1357,16.85,0.11,26,0,0,0
12764,1644922972,5,1357,1357,16.85,0.09999999,26,0,0,0
13867,1645238270,5,1357,1357,16.84,0.09999999,26,0,0,0
14366,1645351116,5,1357,1357,16.85,0.09999999,26,0,0,0
14798,1645456164,5,1357,1357,16.85,0.09999999,26,0,0,0
15235,1645560496,5,1357,1357,16.85,0.09999999,26,0,0,0
15729,1645674628,5,1357,1357,16.84,0.09999999,26,0,0,0
16181,1645779588,5,1357,1357,16.85,0.09999999,26,0,0,0
16640,1645887402,5,1357,1357,16.85,0.11,26,0,0,0
17126,1646000916,5,1357,1357,16.85,0.11,26,0,0,0
17565,1646107084,5,1357,1371,16.84,0.11,26,0,0,0
18010,1646213324,5,1370,1357,16.84,0.11,26,0,0,0
18439,1646320710,5,1357,1357,16.85,0.09999999,26,0,0,0
18890,1646427313,5,1357,1357,16.84,0.09999999,26,0,0,0
19343,1646529627,5,1357,1357,16.85,0.11,26,0,0,0
19785,1646638561,5,1357,1357,16.85,0.11,26,0,0,0
20262,1646752862,5,1357,1357,16.85,0.11,26,0,0,0
20713,1646858093,5,1357,1357,16.85,0.11,26,0,0,0
21166,1646964160,5,1357,1357,16.85,0.11,26,0,0,0
21588,1647066220,5,1357,1357,16.84,0.09999999,26,0,0,0
22077,1647181948,5,1357,1357,16.84,0.11,26,0,0,0
22515,1647286141,5,1357,1357,16.85,0.11,26,0,0,0
23000,1647403244,5,1357,1357,16.84,0.11,26,0,0,0
23450,1647507198,5,1357,1357,16.84,0.11,26,0,0,0
23946,1647623479,5,1361,1414,16.83,0.16,26,0,0,0
24403,1647729108,5,1442,1857,16.69,0.71,26,0,0,0
24845,1647835944,5,1901,2557,16.76,0.6899999999999999,26,0,0,0
25283,1647940372,5,2559,2600,16.8,0.5600000000000001,26,0,0,0
25728,1648046163,5,2600,2642,16.77,0.5,26,0,0,0
26215,1648157834,5,2646,2871,16.6,0.85,26,0,0,0
26716,1648275963,5,2917,3400,16.49,1.56,26,0,0,0
27164,1648385211,5,3438,3842,16.59,1.9,26,0,0,0
27599,1648491260,5,3874,4357,16.22,2.51,26,0,0,0
28041,1648602640,5,4410,4985,16.41,3.01,26,0,0,0
28453,1648702543,5,4995,5614,16.27,3.6,26,0,0,0
28958,1648822434,5,5621,5728,16.17,3.74,26,0,0,0
29414,1648931066,5,5745,5900,16.29,3.26,26,1,0,0
29850,1649041096,5,5883,5657,16.35,2.44,26,1,0,0
30282,1649143197,5,5650,5500,16.32,2.76,26,1,0,0
30777,1649263136,5,5513,5657,16.32,2.99,26,1,0,0
31185,1649365074,5,5657,5714,16.34,3.58,26,1,0,0
31682,1649480302,5,5737,6042,16.33,3.98,26,1,0,0
32132,1649588808,5,6060,6314,16.29,4.17,26,1,0,0
32628,1649703904,5,6322,6414,16.26,4.39,26,1,0,0
33032,1649803183,5,6414,6428,16.23,4.6,26,1,0,0
33509,1649917960,5,6428,6428,16.21,4.38,26,1,0,0
33990,1650030957,5,6411,6171,16.23,3.62,26,2,0,0
34445,1650134939,5,6164,6014,16.22,3.22,26,2,0,0
35384,1650359371,5,6005,5814,16.25,3.41,26,2,0,0
35821,1650466045,5,5816,5885,16.27,2.98,26,2,0,0
36256,1650577971,5,5859,5642,16.3,3.01,26,2,0,0
36712,1650686604,5,5659,5828,16.19,3.51,27,2,0,0
37166,1650795285,5,5830,5857,16.22,3.5,27,2,0,0
37621,1650903560,5,5868,5971,16.17,3.32,26,2,0,0
38027,1651002390,5,5971,5971,16.25,3.28,26,3,0,0
38527,1651118332,5,5978,6085,16.16,3.85,27,3,0,0
38926,1651218103,5,6086,6185,16.16,3.86,27,3,0,0
39401,1651332088,5,6182,6157,16.22,3.86,27,3,0,0
39842,1651435617,5,6165,6357,16.16,4.05,27,3,0,0
40343,1651555275,5,6346,6242,16.22,3.73,27,3,0,0
40792,1651661076,5,6218,5985,16.23,3.5,27,3,0,0
41295,1651781527,5,5998,6100,16.2,3.64,27,3,0,0
41700,1651880267,5,6095,6028,16.17,3.72,27,3,0,0
42574,1652098758,5,6027,5914,16.22,3.36,27,4,0,0
43014,1652209625,5,5913,5900,16.25,3.35,27,4,0,0
43463,1652318710,5,5889,5685,16.26,3.13,27,4,0,0
43908,1652431705,5,5687,5728,16.26,3.03,27,4,0,0
44357,1652542585,5,5738,5842,16.17,3.22,27,4,0,0
44797,1652649727,5,5843,5857,16.19,3.52,27,4,0,0
45246,1652764747,5,5867,5985,16.11,3.31,27,4,0,0
45684,1652865142,5,5981,5871,16.22,3.12,27,4,0,0
46129,1652978150,5,5860,5714,16.25,3.05,27,4,0,0
46561,1653088514,5,5704,5614,16.25,2.54,27,5,0,0
47408,1653304368,5,5608,5485,16.35,2.8,27,5,0,0
47844,1653408548,5,5499,5771,16.26,3.13,27,5,0,0
48736,1653630306,5,5773,5828,16.3,2.97,27,5,0,0
49191,1653740691,5,5825,5785,16.24,3.09,27,5,0,0
49634,1653852379,5,5788,5828,16.26,2.89,27,5,0,0
50083,1653959166,5,5811,5585,16.26,2.87,27,5,0,0
50529,1654073811,5,5598,5800,16.28,2.81,27,5,0,0
50937,1654180157,5,5790,5671,16.22,3.49,27,5,0,0
51390,1654291063,5,5699,5985,16.25,3.17,27,6,0,0
51792,1654395049,5,5985,5985,16.19,3.23,27,6,0,0
52242,1654505044,5,5982,5928,16.13,3.39,27,6,0,0
52647,1654615900,5,5932,5985,16.2,3.37,27,6,0,0
53073,1654718585,5,5979,5900,16.26,3.33,27,6,0,0
53511,1654830164,5,5919,6100,16.19,3.51,27,6,0,0
53960,1654939768,5,6102,6128,16.14,3.82,27,6,0,0
54366,1655044264,5,6125,6071,16.19,3.45,27,6,0,0
54854,1655161593,5,6066,5957,16.15,3.3,27,6,0,0
55262,1655261789,5,5960,6057,16.19,3.4,27,6,0,0
55711,1655372549,5,6058,6085,16.17,3.52,27,7,0,0
56196,1655483474,5,6077,5971,16.14,3.48,27,7,0,0
56636,1655596954,5,5971,5971,16.11,3.29,27,7,0,0
57026,1655695632,5,5972,6028,16.18,3.29,27,7,0,0
57463,1655806289,5,6025,5985,16.14,3.64,27,7,0,0
57914,1655915930,5,5988,6057,16.1,4.06,27,7,0,0
58361,1656029507,5,6054,6014,16.13,3.56,27,7,0,0
58812,1656138745,5,6011,5971,16.15,3.38,27,7,0,0
59219,1656241671,5,5973,6128,16.17,3.51,27,7,0,0
59705,1656354412,5,6117,5900,16.16,3.34,27,8,0,0
60147,1656468499,5,5911,6042,16.17,3.22,27,8,0,0
60549,1656566612,5,6039,5857,16.24,3.35,27,8,0,0
60975,1656672337,5,5860,6057,16.16,3.26,27,8,0,0
61482,1656797581,5,6046,5942,16.2,3.04,27,8,0,0
62334,1657012812,5,5937,5842,16.19,3.13,27,8,0,0
62785,1657124177,5,5845,5871,16.19,3.3,27,8,0,0
63196,1657227122,5,5880,6085,16.17,3.46,27,8,0,0
63687,1657345284,5,6069,5914,16.17,3.18,27,8,0,0
64086,1657451314,5,5914,5957,16.17,3.3,27,9,0,0
64534,1657558305,5,5956,5885,16.13,2.95,27,9,0,0
64980,1657666348,5,5885,5914,16.17,3,27,9,0,0
65465,1657786561,5,5914,5914,16.19,3.19,27,9,0,0
66275,1657989328,5,5910,5785,16.13,3.34,27,9,0,0
66765,1658108089,5,5786,5800,16.19,3.06,27,9,0,0
67126,1658201071,5,5801,5842,16.22,2.88,27,9,0,0
67582,1658308078,5,5839,5628,16.27,2.45,27,9,0,0
68021,1658421975,5,5624,5557,16.21,2.64,27,9,0,0
68899,1658640393,5,5559,5671,16.18,3.34,27,10,0,0
70201,1658965143,5,5673,5857,16.16,3.13,27,10,0,0
70647,1659077600,5,5837,5657,16.19,2.53,27,10,0,0
71090,1659185892,5,5660,5771,16.17,3.3,27,10,0,0
71536,1659292148,5,5780,5900,16.13,3,27,10,0,0
71947,1659400799,5,5897,5871,16.07,3.3,27,10,0,0
72355,1659502394,5,5868,5785,16.17,2.97,27,10,0,0
72802,1659615072,5,5790,5885,16.19,2.89,27,10,0,0
73701,1659834763,5,5879,5757,16.13,3.05,27,11,0,0
74151,1659944082,5,5757,5757,16.1,2.95,27,11,0,0
74554,1660045681,5,5754,5728,16.12,2.91,27,11,0,0
75004,1660159319,5,5735,5828,16.15,3,27,11,0,0
75454,1660267829,5,5819,5742,16.21,3.07,27,11,0,0
75894,1660375719,5,5741,5728,16.17,2.7,27,11,0,0
76325,1660484102,5,5735,5828,16.11,3.47,27,11,0,0
76715,1660586383,5,5830,5942,16.13,2.57,27,11,0,0
77171,1660697697,5,5936,5542,16.16,2.38,27,11,0,0
77652,1660812592,5,5540,5528,16.17,3.01,27,11,0,0
78102,1660921970,5,5545,5771,16.13,3.19,27,12,0,0
78509,1661027393,5,5778,5957,16.11,3.46,27,12,0,0
78957,1661135724,5,5958,5985,16.06,3.39,27,12,0,0
79399,1661244343,5,5987,6028,16.17,3.27,27,12,0,0
80249,1661456135,5,6026,5957,16.11,3.22,27,12,0,0
80697,1661566473,5,5949,5828,16.19,2.95,27,12,0,0
81149,1661678292,5,5823,5771,16.11,2.78,27,12,0,0
81586,1661782757,5,5776,5885,16.16,3.79,27,12,0,0
82037,1661891135,5,5889,5957,16.13,3.65,27,12,0,0
82486,1662004616,5,5959,5985,16.11,3.68,27,12,0,0
82969,1662116390,5,5991,6057,16.08,3.12,27,13,0,0
83411,1662225358,5,6036,5828,16.12,3.12,27,13,0,0
83860,1662334402,5,5830,5857,16.11,3.3,27,13,0,0
84261,1662435122,5,5858,5885,16.08,3.45,27,13,0,0
84712,1662543835,5,5896,6142,16.08,3.84,27,13,0,0
85115,1662647476,5,6140,6057,16.04,3.51,27,13,0,0
85608,1662771779,5,6044,5971,16.13,3.24,27,13,0,0
86014,1662868697,5,5968,5942,16.11,3.4,28,13,0,0
86491,1662983605,5,5942,5957,16.03,3.25,27,13,0,0
86885,1663087139,5,5954,5928,16.06,3.37,27,13,0,0
87318,1663196102,5,5928,5942,16.07,3.26,27,14,0,0
87767,1663305194,5,5936,5857,16.17,3.16,27,14,0,0
88253,1663422699,5,5853,5814,16.13,3.09,27,14,0,0
89103,1663632579,5,5814,5928,16.14,2.93,28,14,0,0
89554,1663742539,5,5924,5714,16.01,3.14,27,14,0,0
90041,1663858163,5,5711,5685,16.11,3.01,27,14,0,0
90485,1663969753,5,5675,5600,16.1,2.78,28,14,0,0
90889,1664070280,5,5608,5728,16.18,3.25,27,14,0,0
91333,1664179007,5,5731,5800,16.07,2.91,27,14,0,0
92234,1664401481,5,5795,5671,16.13,2.92,27,15,0,0
92635,1664500113,5,5668,5542,16.09,2.83,27,15,0,0
93079,1664610729,5,5557,5742,16.14,2.94,27,15,0,0
93535,1664721477,5,5724,5557,16.08,2.75,27,15,0,0
93981,1664831336,5,5553,5514,16.1,2.83,27,15,0,0
94383,1664931554,5,5516,5571,16.14,2.71,27,15,0,0
94829,1665041059,5,5576,5685,16.15,2.92,28,15,0,0
95730,1665266118,5,5679,5542,16.14,2.95,27,15,0,0
96175,1665376594,5,5542,5542,16.11,2.97,27,15,0,0
96583,1665476407,5,5549,5685,16.16,3.05,27,15,0,0
97033,1665587483,5,5685,5685,16.07,2.89,27,16,0,0
97885,1665797714,5,5684,5628,16.06,2.89,27,16,0,0
98378,1665916586,5,5631,5671,16.08,2.97,28,16,0,0
98780,1666018722,5,5676,5800,16.05,3.45,27,16,0,0
99234,1666128153,5,5801,5842,16.09,2.8,27,16,0,0
99677,1666237400,5,5837,5728,16.07,2.82,27,16,0,0
100124,1666346575,5,5729,5785,16.09,3.4,27,16,0,0
100566,1666457406,5,5790,5871,16.11,2.96,27,16,0,0
101013,1666568317,5,5871,5871,16.09,3.23,27,16,0,0
101464,1666679084,5,5865,5814,16.05,2.96,27,16,0,0
102355,1666894842,5,5814,5828,16.13,2.83,27,17,0,0
102762,1666998478,5,5822,5428,16.14,2.16,27,17,0,0
103255,1667116277,5,5423,5357,16.1,2.51,27,17,0,0
103698,1667224378,5,5357,5357,16.13,2.32,27,17,0,0
104104,1667323550,5,5355,5228,16.15,2.01,27,17,0,0
104549,1667435342,5,5224,5128,16.22,2.06,27,17,0,0
105035,1667554361,5,5166,5371,16.17,3.1,27,17,0,0
105437,1667649707,5,5383,5557,16.1,3,27,17,0,0
105892,1667764130,5,5559,5628,16.09,2.63,27,17,0,0
106294,1667861762,5,5628,5657,16.14,2.69,27,17,0,0
106778,1667978367,5,5650,5557,16.09,2.81,27,17,0,0
107192,1668083400,5,5573,5728,16.08,3.04,27,17,0,0
108043,1668294276,5,5727,5714,16.02,3.38,27,18,0,0
108492,1668407278,5,5739,6128,16,3.51,27,18,0,0
108896,1668505717,5,6122,6028,16.12,3.37,27,18,0,0
109351,1668622114,5,6006,5771,16.08,2.83,27,18,0,0
109801,1668732013,5,5777,5842,16.01,3.49,27,18,0,0
110245,1668839808,5,5862,6171,16.02,3.56,27,18,0,0
110693,1668950074,5,6170,6157,16.05,3.83,27,18,0,0
111141,1669064271,5,6158,6171,15.98,3.39,27,18,0,0
111582,1669172534,5,6153,5985,16,3.38,27,18,0,0
112035,1669288093,5,5992,6057,16.04,3.56,27,19,0,0
112482,1669395715,5,6060,6100,16.08,3.36,27,19,0,0
112933,1669508058,5,6076,5871,16.1,3.02,27,19,0,0
113339,1669612006,5,5870,5857,16.11,3.16,27,19,0,0
113787,1669718502,5,5849,5742,15.96,3.32,27,19,0,0
114235,1669831303,5,5766,6042,16.05,3.45,27,19,0,0
114681,1669937817,5,6035,5942,16.07,3.26,27,19,0,0
115085,1670041749,5,5940,5871,16.08,2.95,27,19,0,0
115535,1670149367,5,5865,5757,16.13,2.97,27,19,0,0
115978,1670261365,5,5753,5671,16.14,3.26,27,19,0,0
116432,1670378271,5,5688,5814,16.12,3.22,27,20,0,0
116916,1670491496,5,5809,5785,16.06,3.1,27,20,0,0
117325,1670593125,5,5783,5771,16.13,2.84,27,20,0,0
117777,1670701734,5,5782,5885,16.16,3.15,27,20,0,0
118222,1670812476,5,5865,5685,16.02,2.9,27,20,0,0
118672,1670920797,5,5689,5728,16.17,3.05,27,20,0,0
119111,1671027141,5,5729,5828,16.13,3.21,27,20,0,0
119560,1671136613,5,5831,5914,16.14,3.41,27,20,0,0
120500,1671370345,5,5919,6028,15.96,3.77,27,20,0,0
120903,1671466045,5,6040,6342,15.95,4.01,27,21,0,0
121389,1671582544,5,6332,6271,15.98,4.08,27,21,0,0
121798,1671683123,5,6257,6100,16.07,3.52,27,21,0,0
122243,1671794521,5,6114,6257,16.07,3.54,27,21,0,0
122698,1671903103,5,6228,6000,16.08,3.37,27,21,0,0
123136,1672013108,5,5994,5942,16.08,3.25,27,21,0,0
123547,1672116205,5,5940,5914,16.13,3.04,27,21,0,0
123989,1672224059,5,5911,5885,16.04,3.28,27,21,0,0
124439,1672333507,5,5893,5971,16.04,3.81,27,21,0,0
124887,1672444938,5,5983,6114,16.04,3.71,27,22,0,0
125342,1672557266,5,6100,5985,16.02,3.26,27,22,0,0
125745,1672655111,5,5979,5914,16.04,3.12,27,22,0,0
126192,1672760074,5,5912,5842,16.01,3.07,27,22,0,0
126683,1672880066,5,5842,5842,16,3.55,27,22,0,0
127132,1672993630,5,5868,6085,15.95,3.55,27,22,0,0
127539,1673094278,5,6085,6100,15.92,3.32,27,22,0,0
127981,1673201179,5,6100,6100,16.01,3.56,27,22,0,0
128437,1673315148,5,6098,6057,15.96,3.27,27,22,0,0
128878,1673422869,5,6055,5971,16,3.48,27,22,0,0
129327,1673532283,5,5969,5928,15.94,3.74,27,23,0,0
129735,1673637308,5,5931,6085,15.95,3.82,27,23,0,0
130227,1673756245,5,6090,6242,15.98,4.06,27,23,0,0
130670,1673863271,5,6246,6328,15.97,3.93,27,23,0,0
131119,1673974166,5,6328,6342,15.95,3.88,27,23,0,0
131576,1674089890,5,6337,6285,16.01,3.61,27,23,0,0
131977,1674191131,5,6277,6128,16,3.57,27,23,0,0
132388,1674295234,5,6126,6028,16.04,3.22,27,23,0,0
132833,1674407634,5,6042,6228,16.04,3.98,27,23,0,0
133282,1674516301,5,6228,6228,15.92,3.95,27,24,0,0
133722,1674623485,5,6232,6300,15.86,4.38,28,24,0,0
134170,1674729791,5,6302,6357,15.86,4.06,28,24,0,0
134617,1674841700,5,6357,6371,15.88,4.54,28,24,0,0
135069,1674953937,5,6372,6385,15.92,4.07,28,24,0,0
135517,1675063387,5,6373,6257,15.94,3.98,27,24,0,0
135929,1675170852,5,6250,6200,16.03,3.79,28,24,0,0
136374,1675276563,5,6185,6028,15.98,3.42,27,24,0,0
136818,1675385605,5,6038,6185,15.94,3.74,28,24,0,0
137276,1675498401,5,6172,6014,15.98,3.43,28,25,0,0
137679,1675602281,5,6019,6142,15.98,3.59,28,25,0,0
138126,1675709610,5,6131,5914,16.02,3.32,28,25,0,0
138581,1675822489,5,5907,5842,16.07,2.83,27,25,0,0
139024,1675925893,5,5835,5700,16.07,2.6,28,25,0,0
139431,1676030538,5,5699,5685,16.04,2.94,27,25,0,0
139927,1676148484,5,5679,5628,16.05,2.77,27,25,0,0
140367,1676256244,5,5622,5542,16.1,2.82,27,25,0,0
140819,1676371504,5,5539,5514,16.08,2.57,27,25,0,0
141259,1676473574,5,5520,5600,16.05,2.96,27,25,0,0
141714,1676589549,5,5604,5657,16.05,2.81,28,26,0,0
142161,1676697373,5,5662,5785,16.03,3.56,28,26,0,0
142609,1676809503,5,5789,5842,15.92,3.55,27,26,0,0
143062,1676919824,5,5870,6142,15.98,3.76,27,26,0,0
143508,1677031314,5,6119,5900,16.07,2.96,27,26,0,0
143955,1677138705,5,5905,5957,16.07,2.99,27,26,0,0
144399,1677251064,5,5950,5885,15.96,3.62,28,26,0,0
144842,1677361344,5,5921,6300,16.01,4.15,28,26,0,0
145247,1677460541,5,6300,6300,16,3.68,28,26,0,0
146143,1677681621,5,6298,6142,15.94,3.84,28,27,0,0
147048,1677908620,5,6152,6400,15.94,4.43,28,27,0,0
147492,1678016319,5,6395,6285,15.99,3.93,27,27,0,0
147938,1678124161,5,6286,6342,15.92,3.83,28,27,0,0
148385,1678238199,5,6334,6000,15.92,3.72,28,27,0,0
148832,1678348150,5,6002,6085,15.97,3.31,27,27,0,0
149277,1678459206,5,6078,6014,15.95,3.8,28,27,0,0
149685,1678558913,5,6012,5900,15.92,3.4,28,28,0,0
150124,1678672752,5,5910,6014,16,3.79,28,28,0,0
150576,1678784785,5,6018,6057,15.96,3.74,28,28,0,0
151023,1678893217,5,6057,6057,15.89,3.6,28,28,0,0
151427,1678994193,5,6056,6028,15.94,3.95,28,28,0,0
151923,1679111826,5,6043,6185,15.85,4.07,28,28,0,0
152772,1679321052,5,6180,6100,15.96,3.78,28,28,0,0
153218,1679430875,5,6098,6085,15.92,3.58,28,28,0,0
153676,1679545347,5,6042,5814,15.92,3.28,28,29,0,0
154071,1679644117,5,5821,5900,15.98,3.31,28,29,0,0
154525,1679757101,5,5896,5871,15.96,3.88,28,29,0,0
154918,1679861630,5,5880,6000,15.87,4.04,28,29,0,0
155380,1679978164,5,6021,6200,15.88,3.98,28,29,0,0
156274,1680197514,5,6195,6100,15.95,4.08,28,29,0,0
156684,1680301100,5,6116,6285,15.86,4.06,28,29,0,0
157085,1680400151,5,6280,6100,15.91,4.15,28,30,0,0
157950,1680615294,5,6099,6071,15.92,3.82,27,30,0,0
158441,1680730295,5,6082,6200,15.88,4.12,28,30,0,0
158849,1680831898,5,6197,6128,15.91,4.04,28,30,0,0
159336,1680950518,5,6133,6214,15.93,4.22,28,30,0,0
159737,1681051303,5,6220,6285,15.87,4.53,28,30,0,0
160186,1681163491,5,6293,6371,15.88,4.24,28,30,0,0
161482,1681481353,5,6370,6357,15.96,3.87,28,31,0,0
161922,1681587815,5,6339,6157,15.88,4.14,28,31,0,0
162332,1681690373,5,6156,6085,15.85,4,28,31,0,0
163262,1681914132,5,6096,6328,15.85,4.02,28,31,0,0
163665,1682014742,5,6326,6285,15.86,3.9,28,31,0,0
164113,1682124126,5,6284,6228,15.93,3.91,28,31,0,0
164564,1682240187,5,6216,6057,15.85,3.81,28,32,0,0
165013,1682347349,5,6066,6185,15.91,3.68,28,32,0,0
165436,1682458065,5,6179,6100,15.93,3.83,28,32,0,0
165907,1682578609,5,6105,6128,15.92,3.78,28,32,0,0
166752,1682790721,5,6128,6142,15.9,3.77,28,32,0,0
167204,1682899328,5,6132,6042,15.95,3.81,28,32,0,0
167607,1683000388,5,6044,6200,15.85,3.93,28,32,0,0
168096,1683117198,5,6201,6214,15.93,3.97,28,33,0,0
168500,1683216967,5,6211,6157,15.89,3.93,28,33,0,0
168946,1683322135,5,6157,6185,15.89,4,28,33,0,0
169402,1683440328,5,6192,6271,15.86,4.19,28,33,0,0
169813,1683545051,5,6280,6385,15.85,4.25,28,33,0,0
170217,1683649763,5,6383,6342,15.88,4.05,28,33,0,0
170705,1683772763,5,6337,6271,15.9,4.14,28,33,0,0
171073,1683864767,5,6270,6228,15.92,4,28,33,0,0
171522,1683975731,5,6229,6285,15.93,3.96,28,34,0,0
172001,1684085950,5,6285,6285,15.92,3.63,28,34,0,0
172402,1684188602,5,6282,6114,15.94,3.74,28,34,0,0
174137,1684619188,5,6113,6071,15.91,3.63,28,34,0,0
175007,1684839504,5,6072,6142,15.94,3.93,28,34,0,0
175458,1684950406,5,6132,5985,15.94,3.86,28,34,0,0
175902,1685057333,5,5989,6071,15.92,4.16,28,35,0,0
176390,1685180634,5,6078,6157,15.86,4.19,28,35,0,0
176835,1685286397,5,6167,6271,15.94,4.36,28,35,0,0
177284,1685396754,5,6289,6485,15.94,3.94,28,35,0,0
177697,1685495623,5,6483,6400,15.97,3.65,28,35,0,0
178582,1685708316,5,6395,6200,15.89,3.84,28,35,0,0
179030,1685821727,5,6197,6157,15.86,3.59,28,35,0,0
179482,1685931155,5,6146,6014,15.93,3.13,28,36,0,0
179929,1686046162,5,6007,5942,15.96,3.07,28,36,0,0
180329,1686144840,5,5942,5942,15.97,3.13,28,36,0,0
180777,1686257312,5,5939,5914,15.89,3.34,28,36,0,0
181231,1686369309,5,5906,5828,15.89,3.78,28,36,0,0
181610,1686470133,5,5836,6171,15.86,4.31,28,36,0,0
182050,1686585533,5,6175,6285,15.88,4.07,28,36,0,0
182498,1686695319,5,6282,6228,15.88,3.77,28,36,0,0
182940,1686804110,5,6226,6214,15.84,3.8,28,36,0,0
183390,1686911488,5,6217,6271,15.88,3.88,28,37,0,0
183795,1687013534,5,6272,6357,15.85,4.08,28,37,0,0
184243,1687121519,5,6357,6357,15.9,4.13,28,37,0,0
184645,1687224756,5,6355,6228,15.89,3.96,28,37,0,0
185135,1687344602,5,6221,6128,15.94,3.55,28,37,0,0
185579,1687451955,5,6128,6142,15.96,3.56,28,37,0,0
185991,1687561739,5,6124,5985,15.86,3.78,28,37,0,0
186438,1687667481,5,5994,6128,15.98,3.89,28,37,0,0
186889,1687779609,5,6135,6214,15.89,3.54,28,38,0,0
187294,1687878760,5,6208,6100,15.86,3.48,28,38,0,0
187703,1687988377,5,6099,6057,15.95,3.51,28,38,0,0
188132,1688095827,5,6055,5971,15.91,3.47,28,38,0,0
188602,1688212473,5,5974,6042,15.95,3.39,28,38,0,0
189052,1688323181,5,6031,5885,15.89,3.47,28,38,0,0
189459,1688429181,5,5889,5985,15.97,3.29,28,38,0,0
189905,1688535353,5,5986,6057,16,3.27,28,38,0,0
190358,1688654561,5,6045,5885,15.97,3.33,28,38,0,0
190808,1688761726,5,5889,5971,15.92,3.65,28,38,0,0
191251,1688867599,5,5978,6128,15.86,3.91,28,38,0,0
191698,1688978206,5,6139,6285,15.87,3.91,28,39,0,0
192149,1689096622,5,6261,6128,15.91,4.02,29,39,0,0
192992,1689301311,5,6128,6128,15.83,3.85,28,39,0,0
193428,1689411542,5,6119,6028,15.88,3.53,28,39,0,0
193855,1689516516,5,6030,6071,15.92,3.65,28,39,0,0
194300,1689630068,5,6066,6014,15.85,3.89,28,39,0,0
194749,1689739486,5,6010,5971,15.85,4.29,28,39,0,0
195193,1689851821,5,6004,6328,15.85,4.14,28,40,0,0
195602,1689952388,5,6326,6242,15.85,4.08,28,40,0,0
196046,1690060741,5,6235,6157,15.91,3.9,28,40,0,0
196493,1690174740,5,6157,6157,15.89,4,28,40,0,0
196944,1690289616,5,6150,6100,15.94,3.95,28,40,0,0
197309,1690389815,5,6095,6057,15.88,3.59,28,40,0,0
197767,1690495306,5,6068,6185,15.93,3.8,28,40,0,0
198246,1690612719,5,6200,6285,15.9,4.11,28,40,0,0
198651,1690712547,5,6284,6242,15.92,3.79,28,41,0,0
199088,1690827049,5,6243,6257,15.86,3.99,28,41,0,0
199519,1690930556,5,6249,6171,15.91,3.76,28,41,0,0
199956,1691042584,5,6168,6142,15.9,3.79,28,41,0,0
200404,1691150567,5,6148,6200,15.82,4.01,28,41,0,0
200806,1691253094,5,6201,6214,15.87,3.98,29,41,0,0
201256,1691363955,5,6196,6042,15.88,3.8,28,41,0,0
201703,1691479570,5,6043,6057,15.88,3.85,28,41,0,0
202102,1691579082,5,6059,6114,15.87,3.9,28,41,0,0
202592,1691696967,5,6122,6200,15.94,3.84,28,42,0,0
202999,1691802277,5,6191,6128,15.92,3.89,28,42,0,0
203449,1691910961,5,6140,6242,15.89,3.87,28,42,0,0
203857,1692015432,5,6240,6228,15.89,3.82,28,42,0,0
204304,1692122111,5,6210,6057,15.92,3.75,28,42,0,0
204728,1692230370,5,6060,6100,15.88,3.62,28,42,0,0
205162,1692343919,5,6093,6028,15.95,3.34,28,42,0,0
205603,1692453772,5,6035,6100,15.9,4.01,28,42,0,0
206899,1692768373,5,6100,6200,15.81,4.1,28,43,0,0
207343,1692880406,5,6204,6314,15.86,4.29,28,43,0,0
207792,1692991566,5,6312,6285,15.81,4.3,28,43,0,0
208238,1693097755,5,6284,6271,15.92,3.63,28,43,0,0
209120,1693316593,5,6266,6085,15.85,3.9,29,43,0,0
209548,1693425136,5,6085,6100,15.83,3.53,28,43,0,0
209980,1693535531,5,6100,6100,15.8,3.97,29,44,0,0
210391,1693642076,5,6109,6228,15.77,4.42,29,44,0,0
211283,1693859120,5,6237,6442,15.75,4.49,29,44,0,0
211688,1693961632,5,6437,6342,15.82,4.15,29,44,0,0
212178,1694077278,5,6329,6200,15.84,3.86,28,44,0,0
212578,1694177108,5,6201,6285,15.86,3.9,28,44,0,0
213069,1694296354,5,6276,6185,15.92,3.8,29,44,0,0
213475,1694399368,5,6175,6042,15.95,3.48,29,45,0,0
213926,1694512084,5,6026,5871,15.87,3.59,29,45,0,0
214354,1694620239,5,5890,6100,15.8,3.76,29,45,0,0
214780,1694725111,5,6094,5971,15.85,3.66,28,45,0,0
215223,1694841270,5,5976,6057,15.92,3.66,28,45,0,0
215630,1694943777,5,6055,5957,15.94,3.6,29,45,0,0
216080,1695058150,5,5960,6000,15.89,3.35,29,45,0,0
216530,1695171364,5,5983,5842,15.9,3.53,29,45,0,0
216972,1695275893,5,5857,6071,15.87,3.75,29,45,0,0
217416,1695384087,5,6069,6042,15.85,3.77,29,46,0,0
217863,1695491170,5,6046,6157,15.82,3.9,29,46,0,0
218305,1695601047,5,6146,5942,15.83,3.34,29,46,0,0
218765,1695715716,5,5951,6042,15.79,3.69,29,46,0,0
219204,1695824188,5,6031,5900,15.88,3.26,29,46,0,0
219655,1695932633,5,5896,5842,15.76,3.92,29,46,0,0
220098,1696042141,5,5880,6257,15.83,4.04,29,46,0,0
221442,1696373833,5,6263,6457,15.81,4.57,29,47,0,0
221886,1696481843,5,6458,6485,15.83,4.4,29,47,0,0
222326,1696594309,5,6486,6500,15.83,4.45,29,47,0,0
222755,1696700386,5,6501,6528,15.85,4.5,29,47,0,0
223182,1696809548,5,6521,6428,15.86,4.24,29,47,0,0
223629,1696916129,5,6419,6300,15.83,4.19,29,47,0,0
224077,1697028623,5,6310,6414,15.83,4.13,29,47,0,0
224525,1697138410,5,6404,6300,15.94,3.76,29,47,0,0
224959,1697242322,5,6300,6328,15.92,3.95,29,48,0,0
225415,1697357209,5,6323,6285,15.91,3.81,29,48,0,0
225812,1697454767,5,6285,6328,15.87,3.79,29,48,0,0
226254,1697562629,5,6325,6128,15.86,3.45,29,48,0,0
226699,1697670606,5,6125,5971,15.83,3.61,29,48,0,0
227142,1697784739,5,5975,6014,15.89,3.74,29,48,0,0
227534,1697885058,5,6016,6071,15.85,3.91,29,48,0,0
227962,1697994006,5,6065,6014,15.86,3.59,29,48,0,0
228407,1698101559,5,6012,6000,15.94,3.64,29,49,0,0
228848,1698209583,5,6003,6114,15.82,4.02,29,49,0,0
229290,1698316348,5,6116,6157,15.82,3.85,29,49,0,0
229696,1698417854,5,6148,5928,15.85,3.28,29,49,0,0
230179,1698529093,5,5943,6157,15.91,3.88,29,49,0,0
230624,1698641078,5,6144,5971,15.9,3.35,29,49,0,0
231073,1698749561,5,5961,5828,15.83,3.31,29,49,0,0
231480,1698855165,5,5830,5985,15.93,3.43,29,49,0,0
231957,1698971046,5,5978,5914,15.85,3.34,29,49,0,0
232385,1699078437,5,5908,5857,15.88,3.36,29,50,0,0
232774,1699181133,5,5858,5914,15.95,3.32,29,50,0,0
233262,1699298540,5,5919,5971,15.89,3.14,29,50,0,0
233668,1699402079,5,5969,5942,15.92,3.32,29,50,0,0
234117,1699513345,5,5936,5857,15.89,3.38,29,50,0,0
234523,1699614157,5,5857,5871,15.86,3.63,29,50,0,0
235011,1699731520,5,5876,5928,15.88,3.46,29,50,0,0
235377,1699826562,5,5925,5828,15.94,3.02,29,50,0,0
235830,1699936955,5,5827,5814,15.94,3.23,29,50,0,0
236273,1700047169,5,5824,5928,15.88,3.58,29,50,0,0
236677,1700145725,5,5932,6028,15.81,3.49,29,50,0,0
237143,1700263510,5,6026,6014,15.86,3.49,29,51,0,0
237531,1700362951,5,6010,5871,15.88,3.23,29,51,0,0
238392,1700579582,5,5869,5814,15.88,3.22,29,51,0,0
238840,1700690304,5,5816,5857,15.85,3.24,29,51,0,0
239285,1700802482,5,5868,6028,15.85,3.65,29,51,0,0
240174,1701019212,5,6022,5800,15.92,3.19,29,51,0,0
241055,1701246010,5,5798,5757,15.91,3,29,51,0,0
241486,1701358769,5,5762,5800,15.91,3.27,29,52,0,0
241883,1701455814,5,5804,5871,15.89,3.18,29,52,0,0
242290,1701563328,5,5870,5842,15.88,3.36,29,52,0,0
242775,1701676483,5,5842,5842,15.9,3.24,29,52,0,0
243633,1701891495,5,5838,5685,15.94,2.8,29,52,0,0
244081,1702004183,5,5685,5685,15.96,2.94,29,52,0,0
244531,1702113532,5,5685,5685,15.85,3.04,29,52,0,0
244959,1702227733,5,5689,5728,15.89,2.91,29,52,0,0
245353,1702327979,5,5717,5585,15.9,2.87,29,52,0,0
245824,1702447710,5,5587,5600,15.97,2.55,29,52,0,0
246232,1702544788,5,5587,5414,15.84,2.72,29,53,0,0
246675,1702660555,5,5418,5457,15.95,2.53,29,53,0,0
247129,1702769498,5,5439,5285,15.96,2.1,29,53,0,0
247977,1702982328,5,5286,5428,15.9,2.76,29,53,0,0
248465,1703098511,5,5447,5614,15.86,2.85,29,53,0,0
249290,1703307056,5,5613,5514,15.88,2.65,29,53,0,0
249723,1703415957,5,5518,5614,15.93,2.88,29,53,0,0
250171,1703524617,5,5622,5728,15.9,3.45,29,53,0,0
250616,1703635708,5,5730,5914,15.84,3.73,29,53,0,0
251067,1703749783,5,5925,6057,15.83,3.59,29,53,0,0
251510,1703855780,5,6057,6071,15.8,3.73,29,54,0,0
251959,1703969789,5,6072,6114,15.77,3.87,29,54,0,0
252409,1704074594,5,6124,6385,15.76,4.29,29,54,0,0
252882,1704188326,5,6379,6328,15.86,4.02,28,54,0,0
253289,1704290190,5,6326,6228,15.73,4.47,29,54,0,0
253732,1704399855,5,6227,6214,15.68,4.16,29,54,0,0
254179,1704508135,5,6204,6028,15.76,3.12,28,54,0,0
254620,1704616134,5,6018,5814,15.84,3.67,29,54,0,0
255068,1704724557,5,5818,5914,15.93,3.01,28,55,0,0
255516,1704836079,5,5892,5614,16.01,2.21,29,55,0,0
255963,1704946156,5,5612,5600,16.02,2.98,29,55,0,0
256806,1705157127,5,5601,5800,15.88,3.45,29,55,0,0
257254,1705265359,5,5796,5642,15.91,3.42,28,55,0,0
257743,1705386977,5,5649,5757,15.9,3.08,29,55,0,0
258131,1705485787,5,5755,5728,15.88,3.23,29,55,0,0
258559,1705593235,5,5737,5928,15.86,3.27,29,55,0,0
258970,1705696572,5,5927,5914,15.92,3.33,29,55,0,0
259459,1705816577,5,5916,5942,15.88,3.36,29,55,0,0
259907,1705923482,5,5944,5985,15.88,3.57,29,56,0,0
260313,1706030542,5,5968,5757,15.86,3.02,29,56,0,0
260723,1706133399,5,5752,5642,15.83,2.92,29,56,0,0
261150,1706240327,5,5643,5671,15.94,3.09,29,56,0,0
261577,1706345384,5,5674,5757,15.89,3.23,29,56,0,0
262058,1706463098,5,5750,5685,16,2.83,29,56,0,0
262464,1706568601,5,5692,5757,15.99,2.96,28,56,0,0
262915,1706680327,5,5751,5628,15.84,2.98,29,56,0,0
263362,1706790752,5,5637,5728,15.94,3.44,29,56,0,0
263808,1706896166,5,5734,5828,15.86,3.63,29,56,0,0
264217,1707000813,5,5831,5971,15.88,3.55,29,57,0,0
264706,1707117405,5,5986,6142,15.77,3.67,29,57,0,0
265137,1707219819,5,6144,6242,15.72,4.09,29,57,0,0
265593,1707334325,5,6246,6314,15.77,4.39,29,57,0,0
266045,1707448292,5,6311,6285,15.77,4.32,29,57,0,0
266493,1707558122,5,6290,6342,15.82,4.15,29,57,0,0
266928,1707660633,5,6335,6214,15.8,3.92,29,57,0,0
267421,1707784173,5,6210,6171,15.84,3.87,29,57,0,0
267780,1707875559,5,6169,6057,15.76,3.96,29,58,0,0
268226,1707987097,5,6067,6271,15.69,4.25,28,58,0,0
268653,1708092749,5,6271,6314,15.8,3.91,29,58,0,0
269937,1708420068,5,6313,6300,15.79,3.97,29,58,0,0
270386,1708528923,5,6299,6285,15.77,3.92,29,58,0,0
271686,1708855401,5,6284,6228,15.75,3.95,29,59,0,0
272175,1708975592,5,6226,6214,15.76,3.94,29,59,0,0
272583,1709075513,5,6212,6100,15.86,3.71,29,59,0,0
273060,1709191954,5,6109,6242,15.79,3.85,29,59,0,0
273493,1709302291,5,6236,6157,15.83,3.63,28,59,0,0
273884,1709405316,5,6148,5971,15.77,3.75,29,59,0,0
274333,1709514397,5,5976,6085,15.8,3.73,29,59,0,0
274776,1709624977,5,6082,6057,15.8,3.85,29,59,0,0
275225,1709734529,5,6053,6014,15.76,3.5,29,59,0,0
275674,1709848044,5,6022,6114,15.77,3.56,29,60,0,0
276156,1709965350,5,6106,6042,15.74,3.56,29,60,0,0
277038,1710177258,5,6043,6142,15.68,3.97,29,60,0,0
277487,1710287656,5,6147,6271,15.76,3.56,29,60,0,0
277975,1710409303,5,6262,6157,15.75,3.72,29,60,0,0
278381,1710503107,5,6154,6014,15.71,3.75,29,60,0,0
278809,1710611129,5,6015,6071,15.69,3.7,29,60,0,0
279241,1710714891,5,6068,5971,15.73,3.56,29,61,0,0
279676,1710829501,5,5971,5971,15.82,3.46,29,61,0,0
280570,1711054759,5,5967,5885,15.79,3.62,29,61,0,0
280971,1711154972,5,5890,5942,15.75,3.53,29,61,0,0
281424,1711271327,5,5932,5871,15.75,3.51,29,61,0,0
281834,1711376125,5,5891,6057,15.77,3.44,29,61,0,0
282241,1711473063,5,6048,5842,15.8,3.15,29,61,0,0
282677,1711584554,5,5844,5957,15.81,3.12,29,61,0,0
283128,1711695092,5,5970,6100,15.7,3.95,29,61,0,0
283539,1711803052,5,6103,6142,15.7,3.82,28,62,0,0
283985,1711909149,5,6138,5971,15.72,3.64,29,62,0,0
284422,1712018163,5,5971,5971,15.76,3.3,29,62,0,0
284846,1712128412,5,5984,6142,15.76,3.94,29,62,0,0
285294,1712243149,5,6137,6100,15.8,3.53,29,62,0,0
285701,1712340500,5,6097,5885,15.81,3.23,29,62,0,0
286189,1712460135,5,5888,5928,15.8,3.1,29,62,0,0
286633,1712572513,5,5943,6085,15.84,3.49,28,62,0,0
287041,1712673149,5,6071,5942,15.85,3.37,28,62,0,0
287447,1712776363,5,5935,5814,15.91,2.63,28,63,0,0
287930,1712887508,5,5804,5671,15.82,2.86,28,63,0,0
288778,1713097716,5,5668,5485,15.88,2.36,28,63,0,0
289224,1713210648,5,5478,5400,15.94,2.23,28,63,0,0
289708,1713323921,5,5376,5057,15.94,2.2,29,63,0,0
290115,1713430648,5,5073,5300,15.95,2.54,28,63,0,0
290560,1713537092,5,5302,5342,15.85,2.63,28,63,0,0
290984,1713645130,5,5347,5457,15.88,2.79,28,63,0,0
291418,1713751587,5,5457,5457,15.88,2.6,28,63,0,0
292305,1713975803,5,5460,5542,15.89,3.19,28,63,0,0
292756,1714088904,5,5556,5685,15.8,3.14,28,64,0,0
293196,1714195690,5,5700,5914,15.82,3.42,28,64,0,0
294046,1714408115,5,5914,5928,15.77,3.48,28,64,0,0
294538,1714527365,5,5926,5914,15.84,3.43,28,64,0,0
294934,1714626088,5,5915,5942,15.93,2.86,28,64,0,0
295385,1714737369,5,5938,5871,15.85,3.14,28,64,0,0
295814,1714845150,5,5872,5914,15.88,3.27,28,64,0,0
296247,1714955085,5,5914,5957,15.84,3.35,28,64,0,0
296694,1715067666,5,5948,5828,15.88,3.43,28,64,0,0
297143,1715183361,5,5843,5971,15.85,3.25,28,65,0,0
297548,1715281268,5,5977,6114,15.83,3.48,28,65,0,0
297947,1715384381,5,6112,6014,15.83,3.43,28,65,0,0
298473,1715504111,5,6002,5842,15.82,3.26,28,65,0,0
298877,1715607210,5,5841,5814,15.89,2.94,28,65,0,0
299364,1715722958,5,5808,5757,15.83,3.31,28,65,0,0
299768,1715824724,5,5780,6100,15.81,3.73,28,65,0,0
300663,1716047207,5,6103,6171,15.89,3.66,28,65,0,0
301067,1716145281,5,6166,5842,15.91,2.95,28,65,0,0
301498,1716258731,5,5847,5900,15.81,3.1,28,66,0,0
301962,1716375534,5,5883,5771,15.85,3.04,28,66,0,0
302362,1716473277,5,5771,5771,15.89,3.48,28,66,0,0
302807,1716583538,5,5767,5714,15.86,3.17,28,66,0,0
303256,1716695078,5,5718,5771,15.91,3,28,66,0,0
303660,1716794560,5,5768,5728,15.92,2.97,28,66,0,0
304104,1716900483,5,5726,5700,15.86,2.75,28,66,0,0
304554,1717015962,5,5695,5642,15.82,2.85,28,66,0,0
304999,1717123197,5,5630,5471,15.92,2.53,28,66,0,0
305890,1717345169,5,5471,5485,15.88,2.65,28,66,0,0
306330,1717453045,5,5490,5557,15.91,3.34,28,67,0,0
306783,1717564944,5,5567,5771,15.78,3.19,28,67,0,0
307183,1717664947,5,5770,5742,15.82,3.08,28,67,0,0
307644,1717782496,5,5723,5542,15.78,2.92,28,67,0,0
308092,1717890324,5,5560,5814,15.83,3.24,28,67,0,0
308485,1717992354,5,5818,5900,15.79,3.35,28,67,0,0
308920,1718102718,5,5890,5771,15.89,3.37,28,67,0,0
309308,1718203573,5,5774,5971,15.82,3.47,28,67,0,0
309756,1718314557,5,5970,5942,15.8,3.39,28,67,0,0
310207,1718425188,5,5942,5957,15.9,3.54,28,67,0,0
310655,1718534304,5,5959,6028,15.79,3.76,28,68,0,0
311098,1718643534,5,6031,6071,15.77,3.45,28,68,0,0
311550,1718754612,5,6050,5857,15.88,3.27,28,68,0,0
311988,1718858368,5,5863,5942,15.86,3.35,28,68,0,0
312435,1718974193,5,5939,5914,15.91,3.21,28,68,0,0
313206,1719191552,5,5956,6142,15.86,4.01,28,68,0,0
313613,1719292291,5,6140,6042,15.83,3.09,28,68,0,0
314086,1719411759,5,6011,5685,15.83,2.96,28,68,0,0
314518,1719524927,5,5696,5814,15.9,3.26,28,68,0,0
314951,1719633153,5,5814,5828,15.84,3.27,28,69,0,0
315403,1719742090,5,5830,5857,15.9,3.06,28,69,0,0
315805,1719845877,5,5853,5757,15.85,3.14,28,69,0,0
316255,1719953297,5,5757,5785,15.86,3.04,28,69,0,0
316734,1720066822,5,5777,5628,15.89,2.86,28,69,0,0
317142,1720174801,5,5626,5585,15.86,2.84,28,69,0,0
317629,1720290908,5,5588,5628,15.82,3.07,28,69,0,0
318078,1720398615,5,5636,5757,15.84,3.26,28,69,0,0
318528,1720508275,5,5759,5785,15.82,3.32,28,69,0,0
319425,1720730520,5,5792,5957,15.82,3.76,28,69,0,0
319865,1720837193,5,5950,5885,15.88,3.5,28,70,0,0
320315,1720947337,5,5883,5871,15.82,3.27,28,70,0,0
320714,1721047713,5,5881,6028,15.88,3.32,28,70,0,0
321162,1721155630,5,6023,5914,15.79,3.62,28,70,0,0
321592,1721266265,5,5914,5914,15.89,3.53,28,70,0,0
322017,1721372847,5,5921,6114,15.77,3.74,28,70,0,0
322505,1721492293,5,6112,6100,15.83,3.77,28,70,0,0
322943,1721598307,5,6093,6014,15.8,3.51,28,70,0,0
323389,1721706058,5,6012,6000,15.86,3.66,28,70,0,0
323798,1721811306,5,6004,6085,15.78,3.51,28,71,0,0
324288,1721929718,5,6075,5985,15.76,3.84,28,71,0,0
324690,1722027844,5,5986,6057,15.82,3.69,28,71,0,0
325137,1722141618,5,6047,5828,15.82,3.07,28,71,0,0
325581,1722249554,5,5832,5914,15.83,3.49,28,71,0,0
326068,1722367671,5,5902,5800,15.85,3.31,28,71,0,0
326478,1722470318,5,5807,5914,15.8,3.16,28,71,0,0
326916,1722580089,5,5910,5842,15.71,3.49,28,71,0,0
327369,1722691060,5,5856,6028,15.88,3.91,28,71,0,0
327816,1722801124,5,6035,6128,15.81,3.73,28,72,0,0
328220,1722899097,5,6124,5985,15.83,3.24,28,72,0,0
328713,1723021982,5,5976,5885,15.81,3.19,28,72,0,0
329121,1723122616,5,5869,5728,15.8,3.11,28,72,0,0
329586,1723235835,5,5737,5871,15.75,3.23,28,72,0,0
330016,1723345026,5,5869,5857,15.83,3.5,28,72,0,0
330455,1723455159,5,5864,5942,15.78,3.56,28,72,0,0
330896,1723557922,5,5951,6057,15.83,3.47,28,72,0,0
331302,1723659124,5,6055,6000,15.88,3.63,28,72,0,0
332239,1723888310,5,6004,6100,15.83,3.64,28,73,0,0
333123,1724100209,5,6094,5885,15.83,3.36,28,73,0,0
333576,1724215583,5,5892,5971,15.85,3.33,28,73,0,0
334023,1724324161,5,5967,5928,15.86,3.18,28,73,0,0
334432,1724433265,5,5926,5914,15.85,3.28,28,73,0,0
334880,1724542471,5,5910,5871,15.87,3.44,28,73,0,0
335285,1724647477,5,5878,5971,15.85,3.16,28,73,0,0
335689,1724746610,5,5972,6028,15.85,3.42,28,73,0,0
336142,1724861186,5,6026,5942,15.86,3.35,28,74,0,0
337030,1725077942,5,5942,5985,15.8,3.38,28,74,0,0
337479,1725189638,5,5974,5714,15.85,3.24,28,74,0,0
337933,1725298274,5,5718,5814,15.79,3.3,28,74,0,0
338375,1725406032,5,5820,5957,15.79,3.28,28,74,0,0
338869,1725525410,5,5962,6014,15.81,3.43,28,74,0,0
339314,1725635959,5,5998,5842,15.79,3.3,28,74,0,0
339762,1725745108,5,5845,5885,15.8,3.28,28,74,0,0
340192,1725855097,5,5871,5728,15.8,2.9,28,74,0,0
340622,1725965074,5,5719,5642,15.83,3.08,28,75,0,0
341057,1726069584,5,5653,5914,15.86,3.6,28,75,0,0
341497,1726176802,5,5913,5900,15.86,3.12,28,75,0,0
341951,1726291103,5,5896,5857,15.81,3.23,28,75,0,0
342394,1726398402,5,5855,5828,15.86,3.38,28,75,0,0
342842,1726507609,5,5831,5900,15.81,3.22,28,75,0,0
343290,1726621142,5,5888,5728,15.86,3.43,28,75,0,0
343739,1726731517,5,5748,6014,15.73,3.41,28,75,0,0
344184,1726842224,5,6010,5971,15.85,3.53,28,75,0,0
344635,1726950128,5,5960,5857,15.78,3.45,28,75,0,0
345082,1727066162,5,5845,5742,15.87,2.97,28,76,0,0
345521,1727168170,5,5742,5771,15.87,3.03,28,76,0,0
345969,1727283045,5,5763,5714,15.8,3.1,28,76,0,0
346372,1727382306,5,5713,5700,15.85,3.27,28,76,0,0
347254,1727604130,5,5702,6014,15.85,3.41,28,76,0,0
347723,1727723521,5,6011,5985,15.85,3.3,28,76,0,0
348081,1727814630,5,5985,6071,15.81,3.43,28,76,0,0
349461,1728154492,5,6073,6157,15.82,3.81,28,77,0,0
350317,1728363805,5,6154,6057,15.8,3.54,28,77,0,0
350755,1728474604,5,6060,6100,15.82,3.57,28,77,0,0
351204,1728589527,5,6100,6100,15.75,3.72,28,77,0,0
351607,1728687392,5,6098,6028,15.77,3.67,28,77,0,0
352500,1728908827,5,6029,6057,15.77,3.66,28,77,0,0
352904,1729014407,5,6057,6100,15.74,3.79,28,77,0,0
353399,1729136139,5,6098,6085,15.79,3.89,28,78,0,0
353761,1729231607,5,6094,6185,15.79,3.76,28,78,0,0
354212,1729338826,5,6176,6057,15.73,3.71,28,78,0,0
355066,1729557325,5,6058,6100,15.78,3.8,28,78,0,0
355961,1729782409,5,6090,5914,15.85,3.73,28,78,0,0
356368,1729880128,5,5911,5885,15.82,3.8,28,78,0,0
356856,1730000608,5,5898,6014,15.79,4.07,28,78,0,0
357263,1730098977,5,6019,6142,15.82,4.09,28,79,0,0
357710,1730208378,5,6143,6157,15.75,4.06,28,79,0,0
358112,1730306316,5,6157,6185,15.88,4.07,28,79,0,0
358558,1730420623,5,6181,6100,15.85,4.13,28,79,0,0
359011,1730532704,5,6119,6385,15.81,4.27,28,79,0,0
359459,1730642498,5,6357,6100,15.8,3.86,28,79,0,0
359903,1730747368,5,6104,6185,15.77,4.31,28,79,0,0
360309,1730853984,5,6186,6228,15.79,4.22,28,79,0,0
360799,1730980242,5,6223,6185,15.77,3.95,28,80,0,0
361189,1731081164,5,6171,6042,15.86,3.86,28,80,0,0
361581,1731183473,5,6042,6057,15.8,3.7,28,80,0,0
362032,1731294128,5,6062,6142,15.79,3.73,28,80,0,0
362434,1731396577,5,6140,6071,15.84,3.58,28,80,0,0
362920,1731512594,5,6062,5985,15.79,3.37,29,80,0,0
363366,1731621623,5,5993,6085,15.78,3.66,28,80,0,0
363813,1731729285,5,6078,5985,15.8,3.5,28,80,0,0
364223,1731838404,5,5990,6042,15.84,3.3,28,81,0,0
364660,1731939144,5,6036,5800,15.83,3.22,28,81,0,0
365074,1732050387,5,5813,5942,15.81,3.49,28,81,0,0
365965,1732271396,5,5937,5828,15.86,3.21,29,81,0,0
366367,1732370671,5,5828,5828,15.88,3.31,28,81,0,0
366792,1732479490,5,5828,5842,15.82,3.26,28,81,0,0
367226,1732593087,5,5828,5657,15.83,3.36,28,81,0,0
367674,1732701336,5,5666,5800,15.85,3.44,29,81,0,0
368113,1732808189,5,5804,5900,15.83,3.13,29,81,0,0
368568,1732919056,5,5880,5685,15.88,2.72,28,81,0,0
369462,1733139307,5,5665,5242,16.02,2.17,28,82,0,0
369896,1733243582,5,5242,5271,16,2.06,28,82,0,0
370350,1733354633,5,5266,5171,15.9,2.13,28,82,0,0
370791,1733468733,5,5162,5085,15.94,2.23,28,82,0,0
371199,1733570254,5,5085,5128,15.95,2.29,28,82,0,0
371646,1733680443,5,5120,4971,15.95,2.45,29,82,0,0
372093,1733793260,5,4985,5128,15.9,2.72,29,82,0,0
372545,1733901963,5,5142,5285,15.92,2.83,28,82,0,0
372938,1734003519,5,5287,5342,15.83,2.78,28,82,0,0
373378,1734113137,5,5346,5442,15.89,2.59,29,82,0,0
373801,1734215162,5,5441,5414,15.86,2.91,29,82,0,0
374298,1734335323,5,5415,5428,15.88,2.92,28,82,0,0
375184,1734552858,5,5432,5528,15.95,3.1,29,83,0,0
376491,1734875564,5,5524,5371,15.86,3.07,28,83,0,0
376938,1734987199,5,5377,5442,15.84,2.85,28,83,0,0
377388,1735097616,5,5428,5285,15.89,2.76,28,83,0,0
378253,1735316585,5,5289,5385,15.89,3.16,29,83,0,0
378685,1735424774,5,5389,5442,15.86,3.11,28,83,0,0
379132,1735529719,5,5427,5214,15.89,2.63,28,83,0,0
379575,1735638382,5,5219,5300,15.91,2.83,28,83,0,0
380025,1735747520,5,5318,5542,15.81,3.38,28,84,0,0
380423,1735848228,5,5540,5485,15.88,2.94,28,84,0,0
380919,1735963696,5,5484,5471,15.79,2.66,28,84,0,0
381365,1736075794,5,5462,5371,15.86,2.71,29,84,0,0
381764,1736175290,5,5371,5457,15.81,3.09,29,84,0,0
382253,1736293270,5,5465,5585,15.84,2.78,28,84,0,0
382644,1736393386,5,5583,5557,15.76,3.07,28,84,0,0
383013,1736501536,5,5561,5657,15.72,3.31,28,84,0,0
383455,1736615596,5,5658,5685,15.73,2.98,28,84,0,0
384346,1736833768,5,5686,5742,15.79,3.1,28,85,0,0
384834,1736954559,5,5758,5914,15.86,3.6,29,85,0,0
385238,1737055409,5,5904,5757,15.86,2.99,28,85,0,0
385689,1737167345,5,5764,5828,15.87,3.3,28,85,0,0
386538,1737381694,5,5819,5600,15.86,2.84,28,85,0,0
387385,1737593401,5,5599,5528,15.82,2.88,28,85,0,0
387813,1737704357,5,5529,5557,15.85,2.63,28,85,0,0
388252,1737818641,5,5559,5585,15.76,3.25,28,85,0,0
388664,1737921748,5,5599,5757,15.77,3.26,28,85,0,0
389113,1738035797,5,5753,5714,15.76,3.31,28,86,0,0
389562,1738143069,5,5734,5957,15.7,3.52,28,86,0,0
390003,1738250182,5,5962,6028,15.76,3.59,28,86,0,0
390411,1738350139,5,6025,5857,15.8,3.18,28,86,0,0
390897,1738471047,5,5866,5971,15.77,3.79,28,86,0,0
391375,1738580291,5,5980,6100,15.73,3.56,28,86,0,0
391779,1738678786,5,6090,5914,15.8,3.48,28,86,0,0
392229,1738794435,5,5916,5942,15.83,3.11,28,86,0,0
392638,1738894524,5,5942,5957,15.79,3.38,28,86,0,0
393080,1739010072,5,5953,5900,15.76,3.35,28,86,0,0
393511,1739122017,5,5905,5957,15.75,3.6,28,87,0,0
393949,1739233259,5,5954,5928,15.85,3.27,28,87,0,0
394391,1739336807,5,5921,5828,15.79,3.05,28,87,0,0
394797,1739441489,5,5830,5885,15.83,3.22,28,87,0,0
395245,1739545217,5,5887,6000,15.82,3.57,28,87,0,0
395727,1739660629,5,5993,5928,15.8,3.34,28,87,0,0
396129,1739761789,5,5927,5900,15.81,3.45,28,87,0,0
396614,1739872161,5,5902,5942,15.86,3.49,28,87,0,0
397104,1739994232,5,5951,6071,15.83,3.46,28,87,0,0
397507,1740090473,5,6053,5828,15.75,3.26,28,87,0,0
397950,1740202105,5,5828,5842,15.81,3.55,28,88,0,0
398402,1740313146,5,5843,5857,15.79,3.25,28,88,0,0
398804,1740413571,5,5857,5885,15.77,3.36,28,88,0,0
399697,1740628967,5,5884,5828,15.79,3.4,29,88,0,0
400151,1740742733,5,5831,5914,15.67,3.75,29,88,0,0
401076,1740967779,5,5917,5985,15.77,3.66,28,88,0,0
401482,1741069596,5,5981,5900,15.76,3.21,28,88,0,0
401922,1741176491,5,5899,5885,15.75,3.36,28,88,0,0
402376,1741287102,5,5885,5885,15.79,3.35,28,89,0,0
402818,1741395138,5,5889,5985,15.83,3.44,28,89,0,0
403312,1741513125,5,5974,5871,15.8,3.33,28,89,0,0
403711,1741614384,5,5871,5885,15.82,3.4,29,89,0,0
404163,1741724667,5,5886,5914,15.78,3.27,28,89,0,0
405059,1741950886,5,5903,5714,15.75,3.29,28,89,0,0
405463,1742052480,5,5718,5814,15.77,3.1,28,89,0,0
405953,1742172556,5,5818,5857,15.86,3.27,28,89,0,0
406357,1742274397,5,5863,5942,15.78,3.47,29,89,0,0
406799,1742383746,5,5941,5928,15.77,3.48,28,90,0,0
407225,1742489314,5,5926,5814,15.77,3.44,29,90,0,0
407697,1742604813,5,5815,5857,15.79,3.21,28,90,0,0
408148,1742715211,5,5859,5885,15.78,3.27,28,90,0,0
408593,1742824821,5,5892,5971,15.79,3.65,29,90,0,0
409078,1742937304,5,5972,6000,15.75,3.44,29,90,0,0
409478,1743037079,5,5993,5885,15.87,3.42,28,90,0,0
410374,1743264251,5,5890,5971,15.76,3.66,29,90,0,0
410821,1743377592,5,5966,5928,15.76,3.5,28,91,0,0
411224,1743477505,5,5924,5885,15.77,3.37,28,91,0,0
411677,1743594820,5,5876,5800,15.77,3.19,29,91,0,0
412119,1743694783,5,5794,5728,15.81,3.18,29,91,0,0
412522,1743798282,5,5732,5800,15.84,3.24,29,91,0,0
412974,1743904775,5,5798,5757,15.79,3.08,28,91,0,0
413423,1744019803,5,5764,5828,15.82,3.36,28,91,0,0
414271,1744227715,5,5829,5914,15.78,3.91,29,91,0,0
414716,1744335741,5,5912,5885,15.73,3.71,28,91,0,0
415159,1744449637,5,5907,6128,15.77,3.52,28,92,0,0
415648,1744565567,5,6089,5814,15.76,3.37,28,92,0,0
416071,1744672105,5,5807,5714,15.82,3.04,28,92,0,0
416457,1744773872,5,5718,5814,15.77,3.36,28,92,0,0
416903,1744882640,5,5814,5885,15.72,3.6,29,92,0,0
417353,1744993401,5,5883,5814,15.76,3.45,28,92,0,0
417802,1745102373,5,5817,5914,15.72,3.62,28,92,0,0
418240,1745210564,5,5912,5885,15.79,3.49,28,92,0,0
418688,1745319391,5,5883,5857,15.82,3.24,28,92,0,0
419096,1745424308,5,5856,5842,15.77,3.23,29,92,0,0
419589,1745541209,5,5845,5885,15.77,3.33,28,93,0,0
420038,1745655338,5,5890,5971,15.76,3.22,29,93,0,0
420888,1745863541,5,5971,5971,15.74,3.41,28,93,0,0
421338,1745973285,5,5928,5585,15.85,3.07,28,93,0,0
421728,1746077187,5,5588,5785,15.86,3.03,29,93,0,0
422154,1746186078,5,5783,5714,15.79,3.33,29,93,0,0
422643,1746303083,5,5716,5742,15.76,3.17,29,93,0,0
423043,1746404262,5,5740,5714,15.82,2.88,28,93,0,0
423496,1746517784,5,5714,5728,15.77,3.26,28,93,0,0
423941,1746623747,5,5731,5800,15.82,3.02,29,94,0,0
424385,1746734062,5,5793,5671,15.78,3.01,29,94,0,0
424834,1746849134,5,5668,5642,15.82,2.95,29,94,0,0
425280,1746955475,5,5637,5585,15.79,2.94,28,94,0,0
425694,1747061959,5,5585,5600,15.83,3.11,29,94,0,0
426137,1747172948,5,5599,5542,15.84,2.83,29,94,0,0
426581,1747279793,5,5539,5514,15.77,2.95,29,94,0,0
427018,1747391616,5,5524,5671,15.81,3.15,29,94,0,0
427451,1747503110,5,5662,5585,15.79,2.89,29,94,0,0
427887,1747613111,5,5592,5671,15.85,2.96,29,94,0,0
428322,1747714124,5,5671,5671,15.72,3.53,29,94,0,0
428774,1747830523,5,5693,5928,15.68,4.18,28,95,0,0
429183,1747933361,5,5941,6242,15.71,3.99,29,95,0,0
429669,1748053320,5,6233,6142,15.75,3.64,29,95,0,0
430512,1748261404,5,6141,6128,15.85,3.87,28,95,0,0
430965,1748376354,5,6122,6028,15.73,3.5,29,95,0,0
431411,1748482395,5,6032,6100,15.72,4.16,28,95,0,0
431814,1748585337,5,6098,6071,15.77,3.67,29,95,0,0
432296,1748695718,5,6072,6100,15.8,3.86,29,96,0,0
432728,1748803490,5,6095,6014,15.77,3.26,29,96,0,0
433161,1748912698,5,6001,5742,15.91,2.97,29,96,0,0
433602,1749025378,5,5734,5628,15.89,2.81,28,96,0,0
434054,1749135099,5,5620,5528,15.89,2.71,29,96,0,0
434497,1749244553,5,5525,5471,15.88,2.77,29,96,0,0
434973,1749355356,5,5481,5600,15.84,2.64,29,96,0,0
435422,1749462278,5,5600,5600,15.8,3.06,29,96,0,0
435866,1749573971,5,5571,5157,16.04,1.03,28,96,0,0
436273,1749674301,5,5097,4328,16.16,1.18,29,96,0,0
437201,1749900504,5,4293,3257,16.29,0.09999999,29,96,0,0
437610,1750003687,5,3251,2885,16.23,0.33,29,96,0,0
438058,1750113516,5,2881,2628,16.22,0.24,29,96,0,0
438503,1750226377,5,2629,2685,16.21,0.46,29,96,0,0
438992,1750344065,5,2687,2714,16.23,0.38,29,96,0,0
439881,1750564508,5,2714,2714,16.24,0.41,28,96,0,0
440320,1750673720,5,2714,2714,16.24,0.36,29,96,0,0
440684,1750771497,5,2713,2700,16.23,0.38,28,96,0,0
441172,1750886057,5,2701,2714,16.25,0.39,28,96,0,0
441579,1750989280,5,2711,2671,16.26,0.36,28,96,0,0
442028,1751095137,5,2671,2700,16.25,0.39,28,96,0,0
442479,1751206474,5,2702,2742,16.25,0.39,28,96,0,0
442927,1751313560,5,2740,2714,16.24,0.37,29,96,0,0
443858,1751534825,5,2716,2785,16.25,0.4,28,96,0,0
444286,1751644194,5,2750,2414,16.32,0.09999999,28,96,0,0
444675,1751742940,5,2402,1757,16.32,0,28,96,0,0
445152,1751858072,5,1734,1428,16.31,0.01,28,96,0,0
445562,1751958569,5,1426,1342,16.31,0.07000000000000001,28,96,0,0
446050,1752074524,5,1340,1328,16.3,0.08,28,96,0,0
446489,1752177488,5,1328,1328,16.3,0.09,28,96,0,0
446941,1752290668,5,1326,1314,16.32,0.09,28,96,0,0
447385,1752403318,5,1314,1314,16.31,0.09,28,96,0,0
447838,1752510116,5,1314,1314,16.32,0.09,28,96,0,0
448285,1752619631,5,1314,1314,16.32,0.09,28,96,0,0
448726,1752725622,5,1314,1314,16.32,0.09,28,96,0,0
449174,1752834845,5,1314,1314,16.32,0.09,28,96,0,0
449625,1752942406,5,1314,1314,16.32,0.09,28,96,0,0
450094,1753055225,5,1314,1314,16.33,0.09,28,96,0,0
450489,1753156622,5,1314,1314,16.33,0.09,28,96,0,0
450936,1753266354,5,1314,1314,16.33,0.09,28,96,0,0
451384,1753376506,5,1314,1314,16.33,0.09,28,96,0,0
451868,1753486965,5,1314,1314,16.33,0.09,28,96,0,0
452270,1753588343,5,1314,1314,16.33,0.09,28,96,0,0
452715,1753693174,5,1314,1314,16.33,0.09,28,97,0,0
453159,1753800076,5,1314,1314,16.33,0.09,28,97,0,0
453652,1753913753,5,1314,1314,16.33,0.09,28,97,0,0
454095,1754019056,5,1314,1314,16.33,0.09,28,97,0,0
454542,1754122240,5,1314,1314,16.35,0.08,28,97,0,0
454988,1754230957,5,1314,1314,16.35,0.09,28,97,0,0
455479,1754346089,5,1315,1328,16.35,0.09,28,97,0,0
455908,1754453185,5,1327,1314,16.35,0.09,28,97,0,0
456739,1754659367,5,1314,1314,16.35,0.09,28,97,0,0
457182,1754769574,5,1314,1314,16.35,0.09,28,97,0,0
457630,1754875806,5,1314,1314,16.35,0.09,28,97,0,0
458124,1754995752,5,1314,1314,16.35,0.09999999,28,97,0,0
458576,1755102628,5,1314,1314,16.35,0.09999999,28,97,0,0
459024,1755213064,5,1314,1314,16.35,0.09,28,97,0,0
459474,1755320587,5,1314,1314,16.36,0.09,28,97,0,0
459883,1755424108,5,1314,1314,16.35,0.09,28,97,0,0
460334,1755532359,5,1314,1314,16.35,0.09999999,28,97,0,0
460778,1755637740,5,1314,1314,16.36,0.09,28,97,0,0
461266,1755758955,5,1314,1314,16.36,0.09999999,28,97,0,0
461664,1755858140,5,1314,1314,16.36,0.09999999,28,97,0,0
462159,1755973626,5,1314,1314,16.37,0.09,28,97,0,0
462565,1756070363,5,1314,1314,16.38,0.09,28,97,0,0
463007,1756177763,5,1314,1328,16.36,0.09,28,97,0,0
463498,1756297375,5,1328,1328,16.37,0.09,28,97,0,0
463906,1756398188,5,1328,1328,16.36,0.09,28,97,0,0
464331,1756503121,5,1328,1328,16.37,0.09,28,97,0,0
464769,1756613514,5,1328,1328,16.38,0.09,28,97,0,0
465175,1756713160,5,1327,1314,16.38,0.09,27,97,0,0
465663,1756830825,5,1314,1328,16.37,0.09,27,97,0,0
466115,1756937586,5,1328,1328,16.38,0.09,28,97,0,0
466518,1757038504,5,1328,1328,16.38,0.09,28,97,0,0
467009,1757153709,5,1328,1328,16.37,0.09,28,97,0,0
467409,1757251489,5,1328,1328,16.38,0.09,28,97,0,0
467894,1757364781,5,1328,1328,16.39,0.09,27,97,0,0
468303,1757464700,5,1328,1328,16.38,0.09,27,97,0,0
468776,1757575204,5,1328,1328,16.38,0.09,27,97,0,0
469204,1757681218,5,1328,1328,16.38,0.09,27,97,0,0
469637,1757791400,5,1328,1328,16.39,0.09,27,97,0,0
470095,1757902977,5,1328,1328,16.39,0.09,27,97,0,0
470536,1758008701,5,1328,1328,16.39,0.09,27,97,0,0
470983,1758113111,5,1328,1328,16.39,0.09,27,97,0,0
471427,1758220098,5,1328,1328,16.39,0.09,27,97,0,0
471876,1758326337,5,1328,1328,16.39,0.09,27,97,0,0
472817,1758551511,5,1328,1328,16.39,0.09,27,97,0,0
473240,1758656956,5,1328,1328,16.39,0.09,27,97,0,0
473670,1758763343,5,1328,1328,16.39,0.09,27,97,0,0
474109,1758867595,5,1328,1328,16.39,0.09,27,97,0,0
474556,1758977128,5,1328,1328,16.39,0.09,27,97,0,0
475048,1759093195,5,1328,1328,16.39,0.09,27,97,0,0
475451,1759193201,5,1328,1328,16.4,0.09,27,97,0,0
475940,1759308046,5,1328,1328,16.4,0.09,27,97,0,0
476384,1759415282,5,1328,1328,16.4,0.09,27,97,0,0
476830,1759520094,5,1328,1328,16.41,0.09,27,97,0,0
477264,1759633108,5,1328,1328,16.41,0.09,27,97,0,0
477688,1759740221,5,1328,1328,16.41,0.09,27,97,0,0
478129,1759847505,5,1328,1328,16.39,0.09,27,97,0,0
479064,1760074963,5,1328,1328,16.39,0.09,27,97,0,0
479502,1760175325,5,1328,1328,16.4,0.09,27,97,0,0
479947,1760284331,5,1328,1328,16.39,0.09,27,97,0,0
480396,1760391393,5,1328,1328,16.41,0.09,27,97,0,0
480849,1760501316,5,1328,1328,16.41,0.09,27,97,0,0
481298,1760607581,5,1328,1328,16.4,0.09,27,97,0,0
481743,1760713481,5,1328,1328,16.41,0.09,27,97,0,0
482641,1760933563,5,1328,1328,16.41,0.09,27,97,0,0
483049,1761037163,5,1328,1328,16.41,0.09,27,97,0,0
483539,1761151294,5,1328,1328,16.42,0.09,27,97,0,0
483940,1761250853,5,1328,1328,16.41,0.09,27,97,0,0
484433,1761373143,5,1328,1328,16.41,0.09,27,97,0,0
484841,1761475170,5,1328,1328,16.41,0.09,27,97,0,0
485284,1761580641,5,1328,1328,16.41,0.09,27,97,0,0
485734,1761688183,5,1328,1328,16.41,0.09,27,97,0,0
486216,1761804148,5,1231,371,16.44,0,27,97,0,0
486666,1761907395,5,343,0,16.43,0.01,27,97,0,0
487117,1762015974,5,0,0,16.43,0.02,27,97,0,0
487614,1762129604,5,0,0,16.44,0.02,27,97,0,0
488057,1762233410,5,0,0,16.44,0.02,27,97,0,0
488507,1762338143,5,0,0,16.44,0.02,27,97,0,0
488962,1762450581,5,0,0,16.44,0.02,27,97,0,0
489416,1762561122,5,0,0,16.44,0.02,27,97,0,0
489849,1762664828,5,0,0,16.44,0.02,27,97,0,0
490281,1762769723,5,0,0,16.44,0.02,27,97,0,0
490731,1762877330,5,0,0,16.44,0.02,27,97,0,0
491224,1762994065,5,0,0,16.44,0.02,27,97,0,0
491676,1763100954,5,0,0,16.44,0.02,27,97,0,0
492130,1763213158,5,0,0,16.44,0.02,27,97,0,0
492581,1763318567,5,0,0,16.44,0.02,27,97,0,0
492989,1763417608,5,0,0,16.44,0.02,27,97,0,0
493485,1763531591,5,0,0,16.44,0.02,27,97,0,0
493920,1763635632,5,0,0,16.44,0.02,27,97,0,0
494395,1763751269,5,0,0,16.45,0.02,27,97,0,0
494846,1763858773,5,0,0,16.45,0.02,27,97,0,0
495300,1763963287,5,0,0,16.44,0.02,27,97,0,0
495749,1764070729,5,0,0,16.45,0.02,27,97,0,0
496241,1764187151,5,0,0,16.44,0.02,27,97,0,0
496692,1764292051,5,0,0,16.45,0.02,27,97,0,0
497143,1764397754,5,0,0,16.44,0.01,27,97,0,0
497638,1764512807,5,0,0,16.45,0.02,27,97,0,0
498075,1764619576,5,0,0,16.45,0.02,27,97,0,0
498504,1764722316,5,0,0,16.45,0.02,27,97,0,0
498993,1764839793,5,0,0,16.45,0.02,27,97,0,0
499458,1764953265,5,0,0,16.45,0.02,27,97,0,0
499907,1765058269,5,0,0,16.45,0.02,27,97,0,0
500353,1765165632,5,0,0,16.45,0.02,27,97,0,0
500803,1765270135,5,0,0,16.45,0.02,27,97,0,0
501252,1765374801,5,0,0,16.45,0.02,27,97,0,0
501683,1765479630,5,0,0,16.45,0.02,27,97,0,0
502120,1765587977,5,0,0,16.46,0.02,27,97,0,0
502615,1765701152,5,0,0,16.45,0.02,27,97,0,0
503028,1765806048,5,0,0,16.46,0.02,27,97,0,0
503527,1765922305,5,0,0,16.45,0.02,27,97,0,0
503977,1766029183,5,0,0,16.46,0.02,27,97,0,0
504429,1766132705,5,0,0,16.46,0.02,27,97,0,0
504879,1766241560,5,0,0,16.46,0.02,27,97,0,0
505332,1766343720,5,0,0,16.45,0.02,27,97,0,0
505808,1766460737,5,0,0,16.46,0.02,27,97,0,0
506239,1766568165,5,0,0,16.46,0.02,27,97,0,0
507136,1766779616,5,0,0,16.47,0.02,27,97,0,0
507636,1766894971,5,0,0,16.46,0.02,27,97,0,0
508046,1766995478,5,0,0,16.46,0.02,27,97,0,0
