LineNo,TimeUS,Instance,RPM,RawRPM,Volt,Curr,Temp,CTot,MotTemp,Err
2147,1.6424e+09,4,0,0,16.61,0.03,29,0,0,0
2583,1.6425e+09,4,0,0,16.61,0.03,29,0,0,0
3038,1.6426e+09,4,0,0,16.61,0.04,29,0,0,0
3493,1.6427e+09,4,0,0,16.61,0.04,29,0,0,0
3944,1.6428e+09,4,0,0,16.61,0.04,29,0,0,0
4435,1.643e+09,4,0,0,16.61,0.03,29,0,0,0
4869,1.6431e+09,4,0,0,16.61,0.03,29,0,0,0
5301,1.6432e+09,4,0,0,16.61,0.04,29,0,0,0
5796,1.6433e+09,4,0,0,16.61,0.03,29,0,0,0
6251,1.6434e+09,4,12,200,16.6,0.03,29,0,0,0
6704,1.6435e+09,4,210,457,16.6,0.07,29,0,0,0
7152,1.6436e+09,4,485,885,16.6,0.13,29,0,0,0
7627,1.6437e+09,4,911,1214,16.6,0.14,29,0,0,0
8081,1.6438e+09,4,1220,1285,16.6,0.12,29,0,0,0
8535,1.6439e+09,4,1286,1328,16.6,0.11,29,0,0,0
8982,1.644e+09,4,1328,1342,16.6,0.11,29,0,0,0
9482,1.6441e+09,4,1343,1357,16.6,0.11,29,0,0,0
9916,1.6443e+09,4,1357,1357,16.61,0.11,29,0,0,0
10396,1.6444e+09,4,1357,1357,16.6,0.11,29,0,0,0
10849,1.6445e+09,4,1357,1357,16.6,0.11,29,0,0,0
11300,1.6446e+09,4,1357,1371,16.59,0.11,29,0,0,0
11758,1.6447e+09,4,1371,1371,16.6,0.11,29,0,0,0
12244,1.6448e+09,4,1371,1371,16.6,0.11,29,0,0,0
12678,1.6449e+09,4,1370,1357,16.59,0.11,29,0,0,0
13086,1.645e+09,4,1357,1357,16.6,0.11,29,0,0,0
13819,1.6452e+09,4,1357,1357,16.6,0.11,29,0,0,0
14277,1.6453e+09,4,1357,1371,16.61,0.11,29,0,0,0
15190,1.6456e+09,4,1371,1371,16.6,0.11,29,0,0,0
16089,1.6458e+09,4,1370,1357,16.6,0.11,29,0,0,0
16551,1.6459e+09,4,1357,1357,16.59,0.11,29,0,0,0
17041,1.646e+09,4,1357,1357,16.6,0.11,29,0,0,0
17476,1.6461e+09,4,1357,1357,16.6,0.11,29,0,0,0
17917,1.6462e+09,4,1357,1357,16.6,0.11,29,0,0,0
18345,1.6463e+09,4,1357,1357,16.6,0.11,29,0,0,0
18797,1.6464e+09,4,1357,1357,16.58,0.11,29,0,0,0
19298,1.6465e+09,4,1358,1371,16.6,0.11,29,0,0,0
19695,1.6466e+09,4,1371,1371,16.6,0.11,29,0,0,0
20177,1.6467e+09,4,1371,1371,16.6,0.11,29,0,0,0
20623,1.6468e+09,4,1370,1357,16.59,0.11,29,0,0,0
21081,1.6469e+09,4,1357,1371,16.6,0.11,29,0,0,0
21542,1.6471e+09,4,1369,1357,16.59,0.11,29,0,0,0
21994,1.6472e+09,4,1357,1357,16.58,0.11,29,0,0,0
22471,1.6473e+09,4,1357,1357,16.6,0.11,29,0,0,0
22908,1.6474e+09,4,1357,1357,16.6,0.11,29,0,0,0
23364,1.6475e+09,4,1357,1371,16.6,0.11,29,0,0,0
23857,1.6476e+09,4,1373,1400,16.58,0.14,29,0,0,0
24310,1.6477e+09,4,1421,1685,16.56,0.28,29,0,0,0
24759,1.6478e+09,4,1712,2300,16.52,0.52,30,0,0,0
25239,1.6479e+09,4,2302,2342,16.52,0.45,29,0,0,0
25639,1.648e+09,4,2342,2342,16.54,0.34,29,0,0,0
26136,1.6481e+09,4,2345,2442,16.53,0.56,29,0,0,0
26627,1.6483e+09,4,2464,2785,16.52,0.93,30,0,0,0
27082,1.6484e+09,4,2818,3214,16.36,1.34,30,0,0,0
27514,1.6485e+09,4,3234,3742,16.1,2.28,30,0,0,0
28407,1.6487e+09,4,3792,4828,16.08,2.48,30,0,0,0
28863,1.6488e+09,4,4873,5500,15.95,3.74,30,0,0,0
29319,1.6489e+09,4,5519,5914,15.98,3.46,30,1,0,0
29760,1.649e+09,4,5911,5857,16.13,3.09,30,1,0,0
30235,1.6491e+09,4,5846,5728,16.14,2.67,30,1,0,0
30686,1.6492e+09,4,5719,5600,16.17,2.75,30,1,0,0
31138,1.6493e+09,4,5591,5428,16.1,2.17,30,1,0,0
31593,1.6495e+09,4,5411,5200,16.1,2.12,30,1,0,0
32087,1.6496e+09,4,5182,4985,16.03,1.77,30,1,0,0
32539,1.6497e+09,4,4973,4828,16.1,1.57,30,1,0,0
32989,1.6498e+09,4,4821,4757,16.05,1.86,30,1,0,0
33423,1.6499e+09,4,4757,4757,16.04,2.13,30,1,0,0
33900,1.65e+09,4,4780,5100,16.1,2.61,30,1,0,0
34354,1.6501e+09,4,5116,5471,16.14,2.72,30,1,0,0
34847,1.6502e+09,4,5467,5414,16.11,2.74,30,1,0,0
35299,1.6503e+09,4,5419,5542,16.03,2.63,30,1,0,0
35736,1.6504e+09,4,5535,5442,16.07,2.83,30,2,0,0
36211,1.6506e+09,4,5470,5671,16.05,2.95,30,2,0,0
36620,1.6507e+09,4,5657,5500,16.09,2.63,30,2,0,0
37118,1.6508e+09,4,5518,5714,15.98,3.03,30,2,0,0
37529,1.6509e+09,4,5717,5785,15.98,2.86,30,2,0,0
37982,1.651e+09,4,5757,5500,16.03,2.41,30,2,0,0
38437,1.6511e+09,4,5497,5457,15.95,2.67,30,2,0,0
38841,1.6512e+09,4,5457,5471,16.03,2.54,30,2,0,0
39316,1.6513e+09,4,5464,5314,16.02,2.43,30,2,0,0
39797,1.6514e+09,4,5321,5400,15.94,2.84,30,2,0,0
40703,1.6516e+09,4,5403,5500,16.01,2.53,30,2,0,0
41158,1.6517e+09,4,5508,5671,16.02,2.59,30,3,0,0
41611,1.6519e+09,4,5660,5514,16.01,2.7,30,3,0,0
42103,1.652e+09,4,5505,5414,16.07,2.38,30,3,0,0
42962,1.6522e+09,4,5408,5285,16.06,2.49,30,3,0,0
43414,1.6523e+09,4,5309,5571,16.04,2.99,30,3,0,0
43813,1.6524e+09,4,5571,5571,16.08,2.75,30,3,0,0
44264,1.6525e+09,4,5572,5671,15.98,2.83,30,3,0,0
44703,1.6526e+09,4,5671,5671,15.96,2.81,30,3,0,0
45151,1.6527e+09,4,5664,5571,15.97,2.86,30,3,0,0
45589,1.6528e+09,4,5572,5628,16.09,2.57,30,3,0,0
46042,1.653e+09,4,5620,5442,16.04,2.25,30,3,0,0
46471,1.6531e+09,4,5442,5457,16.04,2.69,30,3,0,0
46908,1.6532e+09,4,5454,5428,16.1,2.27,30,4,0,0
47750,1.6534e+09,4,5424,5171,16.07,2.08,30,4,0,0
48241,1.6535e+09,4,5166,5114,15.94,2.13,30,4,0,0
48643,1.6536e+09,4,5116,5257,15.98,2.48,30,4,0,0
49095,1.6537e+09,4,5256,5242,16.04,2.48,30,4,0,0
49541,1.6538e+09,4,5243,5285,16.08,2.67,30,4,0,0
49987,1.6539e+09,4,5286,5371,16.08,2.49,30,4,0,0
50439,1.6541e+09,4,5363,5271,16.05,2.29,30,4,0,0
50888,1.6542e+09,4,5269,5242,16.02,2.43,30,4,0,0
51300,1.6543e+09,4,5244,5271,16.06,2.36,30,4,0,0
51747,1.6544e+09,4,5278,5357,15.97,2.36,30,4,0,0
52197,1.6545e+09,4,5355,5342,16.03,2.53,30,4,0,0
52562,1.6546e+09,4,5342,5342,16,2.45,30,5,0,0
52987,1.6547e+09,4,5340,5314,16,2.66,30,5,0,0
53422,1.6548e+09,4,5317,5371,16.02,2.58,30,5,0,0
53871,1.6549e+09,4,5363,5285,15.99,2.25,30,5,0,0
54276,1.655e+09,4,5286,5371,16.02,2.52,30,5,0,0
54766,1.6551e+09,4,5361,5271,16.02,2.26,30,5,0,0
55623,1.6553e+09,4,5271,5357,15.95,2.55,30,5,0,0
56107,1.6555e+09,4,5362,5471,16,2.44,30,5,0,0
56550,1.6556e+09,4,5469,5442,15.97,2.62,30,5,0,0
56982,1.6557e+09,4,5440,5414,15.91,2.62,30,5,0,0
57418,1.6558e+09,4,5414,5414,16,2.63,30,5,0,0
57868,1.6559e+09,4,5418,5457,15.94,2.3,30,5,0,0
58316,1.656e+09,4,5453,5414,15.89,2.78,30,6,0,0
58722,1.6561e+09,4,5415,5442,15.94,2.45,30,6,0,0
59130,1.6562e+09,4,5441,5414,15.89,2.54,30,6,0,0
59614,1.6563e+09,4,5419,5542,15.95,2.5,30,6,0,0
60058,1.6564e+09,4,5531,5314,16.05,2.56,30,6,0,0
60509,1.6566e+09,4,5315,5328,15.99,2.23,30,6,0,0
60932,1.6567e+09,4,5324,5285,16.02,2.34,30,6,0,0
61396,1.6568e+09,4,5293,5400,15.95,2.73,30,6,0,0
61848,1.6569e+09,4,5393,5300,15.96,2.4,30,6,0,0
62292,1.657e+09,4,5308,5385,15.95,2.43,30,6,0,0
62699,1.6571e+09,4,5389,5457,15.92,2.72,30,6,0,0
63109,1.6572e+09,4,5452,5371,15.94,2.32,30,6,0,0
63599,1.6573e+09,4,5372,5400,15.97,2.46,30,6,0,0
63998,1.6574e+09,4,5397,5271,15.95,2.24,30,6,0,0
64451,1.6575e+09,4,5272,5371,16.01,2.62,30,7,0,0
64892,1.6576e+09,4,5371,5428,16.04,2.58,30,7,0,0
65384,1.6578e+09,4,5422,5385,15.95,2.42,30,7,0,0
65809,1.6579e+09,4,5394,5457,15.94,2.7,30,7,0,0
66230,1.658e+09,4,5454,5428,15.99,2.61,30,7,0,0
66682,1.6581e+09,4,5425,5400,16.01,2.57,30,7,0,0
67087,1.6582e+09,4,5400,5414,16,2.37,30,7,0,0
67537,1.6583e+09,4,5411,5385,16.04,2.78,30,7,0,0
67938,1.6584e+09,4,5384,5371,16.01,2.24,30,7,0,0
68386,1.6585e+09,4,5362,5142,15.99,2.42,30,7,0,0
68854,1.6586e+09,4,5149,5214,15.98,2.26,30,7,0,0
69263,1.6587e+09,4,5214,5242,15.94,2.21,30,7,0,0
69709,1.6588e+09,4,5239,5214,15.89,2.39,30,7,0,0
70116,1.6589e+09,4,5214,5285,15.94,2.62,30,7,0,0
70561,1.6591e+09,4,5286,5385,15.91,2.75,30,8,0,0
71014,1.6592e+09,4,5383,5328,15.91,2.36,30,8,0,0
71490,1.6593e+09,4,5336,5414,15.94,2.79,30,8,0,0
71902,1.6594e+09,4,5434,5600,15.95,2.7,30,8,0,0
72310,1.6595e+09,4,5595,5557,15.94,3.06,30,8,0,0
72760,1.6596e+09,4,5552,5514,15.93,2.59,30,8,0,0
73171,1.6597e+09,4,5512,5428,15.92,2.58,30,8,0,0
74062,1.6599e+09,4,5424,5357,15.99,2.63,30,8,0,0
74508,1.66e+09,4,5363,5457,16,2.67,30,8,0,0
74962,1.6601e+09,4,5454,5442,15.82,2.71,30,8,0,0
75408,1.6603e+09,4,5434,5371,15.97,2.28,30,8,0,0
75851,1.6604e+09,4,5361,5257,16.01,2.04,30,9,0,0
76282,1.6605e+09,4,5251,5200,15.87,2.56,30,9,0,0
76670,1.6606e+09,4,5235,5585,15.92,3.21,30,9,0,0
77082,1.6607e+09,4,5585,5600,15.92,2.7,30,9,0,0
77563,1.6608e+09,4,5597,5485,15.97,2.52,30,9,0,0
78013,1.6609e+09,4,5480,5414,15.95,2.31,30,9,0,0
78420,1.661e+09,4,5412,5328,15.88,2.35,30,9,0,0
78865,1.6611e+09,4,5330,5442,15.95,2.7,30,9,0,0
79350,1.6612e+09,4,5437,5400,15.89,2.46,30,9,0,0
80160,1.6614e+09,4,5399,5385,15.89,2.51,30,9,0,0
80650,1.6616e+09,4,5384,5371,15.95,2.43,30,9,0,0
81104,1.6617e+09,4,5366,5300,16.01,2.64,30,9,0,0
81500,1.6618e+09,4,5298,5257,15.89,2.01,30,10,0,0
81989,1.6619e+09,4,5252,5200,15.91,2.43,30,10,0,0
82397,1.662e+09,4,5204,5300,15.81,2.55,30,10,0,0
82922,1.6621e+09,4,5312,5414,15.93,2.52,30,10,0,0
83321,1.6622e+09,4,5410,5371,15.94,2.87,30,10,0,0
83773,1.6623e+09,4,5374,5414,15.88,2.46,30,10,0,0
84216,1.6624e+09,4,5407,5357,15.88,2.59,30,10,0,0
84619,1.6625e+09,4,5361,5528,15.85,2.37,30,10,0,0
85069,1.6626e+09,4,5534,5600,15.9,2.89,30,10,0,0
85516,1.6627e+09,4,5600,5600,15.87,2.77,30,10,0,0
85922,1.6628e+09,4,5594,5528,15.92,2.4,30,10,0,0
86799,1.6631e+09,4,5525,5442,15.87,2.87,30,10,0,0
87228,1.6632e+09,4,5434,5328,15.9,2.56,30,11,0,0
87678,1.6633e+09,4,5331,5428,15.94,2.42,30,11,0,0
88162,1.6634e+09,4,5423,5357,15.94,2.34,30,11,0,0
88611,1.6635e+09,4,5366,5471,15.96,2.39,30,11,0,0
89057,1.6636e+09,4,5454,5271,15.91,2.4,30,11,0,0
89507,1.6637e+09,4,5278,5357,15.93,2.55,30,11,0,0
89948,1.6638e+09,4,5362,5442,15.88,2.65,30,11,0,0
90356,1.6639e+09,4,5442,5457,15.9,2.65,30,11,0,0
90844,1.6641e+09,4,5454,5428,15.92,2.67,30,11,0,0
91288,1.6642e+09,4,5433,5471,15.88,2.74,30,11,0,0
91693,1.6643e+09,4,5479,5657,15.85,2.9,30,11,0,0
92590,1.6645e+09,4,5649,5485,15.88,2.85,30,12,0,0
93032,1.6646e+09,4,5496,5585,15.97,2.92,30,12,0,0
93442,1.6647e+09,4,5589,5657,15.92,2.78,30,12,0,0
93887,1.6648e+09,4,5654,5628,15.92,2.86,30,12,0,0
94338,1.6649e+09,4,5643,5800,15.92,2.86,30,12,0,0
94784,1.665e+09,4,5796,5728,15.94,2.86,30,12,0,0
95231,1.6651e+09,4,5726,5714,15.85,2.91,30,12,0,0
95636,1.6652e+09,4,5703,5571,15.94,2.66,30,12,0,0
96531,1.6655e+09,4,5567,5485,15.87,2.35,30,12,0,0
96940,1.6656e+09,4,5482,5442,15.86,2.74,30,12,0,0
97391,1.6657e+09,4,5438,5385,15.88,2.61,30,12,0,0
97836,1.6658e+09,4,5394,5528,15.93,2.84,30,12,0,0
98285,1.6659e+09,4,5530,5557,15.91,2.9,30,13,0,0
99140,1.6661e+09,4,5556,5514,15.89,3.02,30,13,0,0
99583,1.6662e+09,4,5516,5642,15.86,2.91,30,13,0,0
1.0008e+05,1.6663e+09,4,5643,5657,15.86,2.61,30,13,0,0
1.0047e+05,1.6664e+09,4,5657,5685,15.82,2.89,30,13,0,0
1.0092e+05,1.6665e+09,4,5682,5500,15.87,2.59,30,13,0,0
1.0137e+05,1.6667e+09,4,5511,5657,15.88,2.7,30,13,0,0
1.0182e+05,1.6668e+09,4,5634,5400,15.84,2.39,30,13,0,0
1.0226e+05,1.6669e+09,4,5403,5442,15.95,2.59,30,13,0,0
1.0272e+05,1.667e+09,4,5440,5428,15.85,2.72,30,13,0,0
1.0316e+05,1.6671e+09,4,5420,5314,15.97,2.11,30,13,0,0
1.0361e+05,1.6672e+09,4,5307,5228,15.92,2.52,30,14,0,0
1.0401e+05,1.6673e+09,4,5232,5528,15.97,2.73,30,14,0,0
1.0446e+05,1.6674e+09,4,5525,5400,15.94,2.67,30,14,0,0
1.0494e+05,1.6675e+09,4,5387,5228,15.89,2,30,14,0,0
1.0535e+05,1.6676e+09,4,5232,5428,15.94,2.71,30,14,0,0
1.0585e+05,1.6678e+09,4,5417,5357,15.92,2.83,30,14,0,0
1.0625e+05,1.6679e+09,4,5363,5514,15.96,2.71,30,14,0,0
1.0669e+05,1.668e+09,4,5517,5585,15.87,2.67,30,14,0,0
1.071e+05,1.6681e+09,4,5583,5571,15.83,2.69,30,14,0,0
1.0755e+05,1.6682e+09,4,5562,5442,15.91,2.66,30,14,0,0
1.0795e+05,1.6683e+09,4,5446,5628,15.94,2.62,30,14,0,0
1.084e+05,1.6684e+09,4,5599,5200,15.88,2.28,30,14,0,0
1.0885e+05,1.6685e+09,4,5213,5357,15.91,2.58,30,14,0,0
1.0926e+05,1.6686e+09,4,5371,5500,15.9,2.87,30,15,0,0
1.0971e+05,1.6687e+09,4,5510,5614,15.87,2.69,30,15,0,0
1.1016e+05,1.6688e+09,4,5594,5300,15.88,2.45,30,15,0,0
1.106e+05,1.6689e+09,4,5305,5428,15.87,2.56,30,15,0,0
1.1105e+05,1.669e+09,4,5433,5485,15.8,2.79,30,15,0,0
1.1154e+05,1.6692e+09,4,5485,5485,15.85,2.78,30,15,0,0
1.1194e+05,1.6693e+09,4,5490,5557,15.85,2.36,30,15,0,0
1.1239e+05,1.6694e+09,4,5560,5600,15.81,2.6,30,15,0,0
1.1325e+05,1.6696e+09,4,5593,5414,15.9,2.15,30,15,0,0
1.137e+05,1.6697e+09,4,5411,5342,15.88,2.6,30,15,0,0
1.1414e+05,1.6698e+09,4,5334,5242,15.93,2.28,30,15,0,0
1.1459e+05,1.6699e+09,4,5238,5171,15.93,2.18,30,15,0,0
1.1549e+05,1.6701e+09,4,5178,5400,15.92,2.35,30,16,0,0
1.1589e+05,1.6702e+09,4,5393,5271,15.97,2.27,30,16,0,0
1.1639e+05,1.6704e+09,4,5260,5142,15.88,1.92,30,16,0,0
1.168e+05,1.6705e+09,4,5136,5085,15.89,1.97,30,16,0,0
1.1724e+05,1.6706e+09,4,5091,5214,15.95,2.18,30,16,0,0
1.1769e+05,1.6707e+09,4,5204,5114,15.87,2.1,30,16,0,0
1.1814e+05,1.6708e+09,4,5118,5242,15.84,2.31,30,16,0,0
1.1858e+05,1.6709e+09,4,5240,5214,15.94,2.09,30,16,0,0
1.1903e+05,1.671e+09,4,5208,5128,15.97,1.83,30,16,0,0
1.1952e+05,1.6711e+09,4,5116,5000,15.92,1.67,30,16,0,0
1.1993e+05,1.6712e+09,4,4999,4971,15.86,1.85,30,16,0,0
1.2042e+05,1.6713e+09,4,4997,5257,15.78,2.65,30,16,0,0
1.2086e+05,1.6715e+09,4,5267,5371,15.79,2.76,30,16,0,0
1.2175e+05,1.6717e+09,4,5373,5442,15.84,2.68,30,17,0,0
1.2215e+05,1.6718e+09,4,5450,5571,15.88,2.52,30,17,0,0
1.2261e+05,1.6719e+09,4,5559,5428,15.83,2.26,30,17,0,0
1.2305e+05,1.672e+09,4,5437,5542,15.92,2.4,30,17,0,0
1.2346e+05,1.6721e+09,4,5540,5414,15.83,2.15,30,17,0,0
1.2391e+05,1.6722e+09,4,5410,5228,15.89,2.01,30,17,0,0
1.2439e+05,1.6723e+09,4,5216,5100,15.89,1.5,30,17,0,0
1.248e+05,1.6724e+09,4,5095,5014,15.86,1.86,30,17,0,0
1.2525e+05,1.6725e+09,4,5020,5128,15.8,2.33,30,17,0,0
1.2566e+05,1.6726e+09,4,5134,5400,15.84,2.58,30,17,0,0
1.2615e+05,1.6727e+09,4,5412,5571,15.91,2.88,30,17,0,0
1.266e+05,1.6729e+09,4,5575,5671,15.84,2.66,30,17,0,0
1.2704e+05,1.673e+09,4,5674,5714,15.82,2.75,30,17,0,0
1.2745e+05,1.6731e+09,4,5710,5571,15.83,2.85,30,17,0,0
1.2835e+05,1.6733e+09,4,5570,5528,15.77,2.75,30,18,0,0
1.2879e+05,1.6734e+09,4,5528,5542,15.79,2.8,30,18,0,0
1.2924e+05,1.6735e+09,4,5548,5728,15.8,2.84,30,18,0,0
1.2969e+05,1.6736e+09,4,5714,5571,15.79,2.48,30,18,0,0
1.3014e+05,1.6737e+09,4,5566,5428,15.83,2.37,30,18,0,0
1.3062e+05,1.6739e+09,4,5428,5428,15.76,2.74,30,18,0,0
1.3108e+05,1.674e+09,4,5445,5671,15.8,2.83,30,18,0,0
1.3149e+05,1.6741e+09,4,5663,5571,15.83,2.66,30,18,0,0
1.3193e+05,1.6742e+09,4,5567,5514,15.8,2.8,30,18,0,0
1.3234e+05,1.6743e+09,4,5516,5542,15.83,2.56,30,18,0,0
1.3274e+05,1.6744e+09,4,5541,5500,15.78,2.31,30,18,0,0
1.3319e+05,1.6745e+09,4,5493,5328,15.8,2.38,30,18,0,0
1.3368e+05,1.6746e+09,4,5342,5485,15.68,2.89,30,19,0,0
1.3408e+05,1.6747e+09,4,5488,5700,15.66,3.19,30,19,0,0
1.3457e+05,1.6748e+09,4,5698,5685,15.74,2.71,30,19,0,0
1.3498e+05,1.6749e+09,4,5681,5628,15.73,2.78,30,19,0,0
1.3543e+05,1.675e+09,4,5633,5714,15.77,2.73,30,19,0,0
1.3588e+05,1.6752e+09,4,5698,5557,15.79,2.63,30,19,0,0
1.3677e+05,1.6754e+09,4,5554,5500,15.79,2.62,30,19,0,0
1.3718e+05,1.6755e+09,4,5502,5542,15.83,2.61,30,19,0,0
1.3808e+05,1.6757e+09,4,5535,5400,15.8,2.62,30,19,0,0
1.3849e+05,1.6758e+09,4,5394,5271,15.89,2.29,30,19,0,0
1.3898e+05,1.6759e+09,4,5282,5400,15.86,2.18,30,20,0,0
1.3939e+05,1.676e+09,4,5393,5328,15.91,2.26,30,20,0,0
1.3983e+05,1.6761e+09,4,5318,5228,15.83,2.27,30,20,0,0
1.4027e+05,1.6762e+09,4,5219,5100,15.79,2.28,30,20,0,0
1.4072e+05,1.6763e+09,4,5107,5285,15.91,2.51,30,20,0,0
1.4116e+05,1.6765e+09,4,5283,5242,15.84,1.99,30,20,0,0
1.4162e+05,1.6766e+09,4,5245,5314,15.86,2.12,30,20,0,0
1.4207e+05,1.6767e+09,4,5304,5114,15.88,2.14,30,20,0,0
1.4252e+05,1.6768e+09,4,5117,5157,15.85,2.48,30,20,0,0
1.4297e+05,1.6769e+09,4,5170,5342,15.72,2.59,30,20,0,0
1.4342e+05,1.677e+09,4,5351,5585,15.86,2.82,30,20,0,0
1.4387e+05,1.6771e+09,4,5573,5428,15.83,2.38,30,20,0,0
1.4431e+05,1.6772e+09,4,5428,5428,15.73,2.59,30,20,0,0
1.4476e+05,1.6773e+09,4,5432,5485,15.79,2.39,30,20,0,0
1.452e+05,1.6774e+09,4,5473,5314,15.86,2.26,30,21,0,0
1.461e+05,1.6777e+09,4,5315,5357,15.79,2.34,30,21,0,0
1.4696e+05,1.6779e+09,4,5357,5371,15.78,2.4,30,21,0,0
1.474e+05,1.678e+09,4,5371,5385,15.8,2.47,30,21,0,0
1.4789e+05,1.6781e+09,4,5389,5457,15.72,2.46,30,21,0,0
1.483e+05,1.6782e+09,4,5458,5514,15.81,2.7,30,21,0,0
1.4874e+05,1.6783e+09,4,5514,5542,15.79,2.53,30,21,0,0
1.4919e+05,1.6784e+09,4,5533,5414,15.82,2.34,30,21,0,0
1.4964e+05,1.6785e+09,4,5414,5414,15.74,2.84,30,21,0,0
1.5008e+05,1.6787e+09,4,5430,5600,15.74,2.51,30,21,0,0
1.5049e+05,1.6788e+09,4,5593,5528,15.76,2.72,30,21,0,0
1.5094e+05,1.6789e+09,4,5533,5657,15.72,2.79,30,22,0,0
1.5134e+05,1.679e+09,4,5654,5471,15.77,2.59,30,22,0,0
1.5184e+05,1.6791e+09,4,5493,5728,15.68,2.83,30,22,0,0
1.5224e+05,1.6792e+09,4,5729,5771,15.7,2.93,30,22,0,0
1.5269e+05,1.6793e+09,4,5773,5814,15.74,2.85,30,22,0,0
1.5313e+05,1.6794e+09,4,5804,5600,15.7,2.83,30,22,0,0
1.5358e+05,1.6795e+09,4,5604,5671,15.76,3.11,30,22,0,0
1.544e+05,1.6797e+09,4,5672,5757,15.69,2.81,30,22,0,0
1.5483e+05,1.6798e+09,4,5746,5542,15.73,2.56,30,22,0,0
1.5526e+05,1.6799e+09,4,5542,5571,15.75,2.81,30,22,0,0
1.5575e+05,1.6801e+09,4,5588,5714,15.72,2.8,30,23,0,0
1.5619e+05,1.6802e+09,4,5699,5557,15.73,2.54,30,23,0,0
1.5664e+05,1.6803e+09,4,5550,5514,15.69,2.72,30,23,0,0
1.5705e+05,1.6804e+09,4,5516,5571,15.74,2.7,30,23,0,0
1.575e+05,1.6805e+09,4,5567,5542,15.7,2.54,30,23,0,0
1.5791e+05,1.6806e+09,4,5546,5585,15.77,2.57,30,23,0,0
1.5836e+05,1.6807e+09,4,5583,5514,15.75,2.54,30,23,0,0
1.5881e+05,1.6808e+09,4,5508,5371,15.73,2.52,30,23,0,0
1.5925e+05,1.6809e+09,4,5377,5528,15.71,2.48,30,23,0,0
1.5965e+05,1.681e+09,4,5525,5428,15.76,2.54,30,23,0,0
1.601e+05,1.6811e+09,4,5414,5242,15.7,2.64,30,23,0,0
1.6055e+05,1.6813e+09,4,5247,5300,15.76,2.32,30,23,0,0
1.6099e+05,1.6814e+09,4,5293,5242,15.72,2.31,30,23,0,0
1.6144e+05,1.6815e+09,4,5243,5257,15.68,2.47,30,23,0,0
1.6188e+05,1.6816e+09,4,5265,5357,15.76,2.59,30,24,0,0
1.6229e+05,1.6817e+09,4,5359,5400,15.68,2.65,30,24,0,0
1.6277e+05,1.6818e+09,4,5400,5400,15.76,2.45,30,24,0,0
1.6317e+05,1.6819e+09,4,5403,5485,15.73,2.47,30,24,0,0
1.6362e+05,1.682e+09,4,5480,5442,15.76,2.49,30,24,0,0
1.6407e+05,1.6821e+09,4,5445,5500,15.78,2.58,30,24,0,0
1.6452e+05,1.6822e+09,4,5492,5428,15.73,2.79,30,24,0,0
1.6492e+05,1.6823e+09,4,5430,5557,15.74,2.65,30,24,0,0
1.6535e+05,1.6824e+09,4,5566,5671,15.7,2.63,30,24,0,0
1.6667e+05,1.6828e+09,4,5669,5342,15.76,2.6,30,24,0,0
1.6712e+05,1.6829e+09,4,5352,5471,15.69,2.64,30,25,0,0
1.6756e+05,1.683e+09,4,5472,5485,15.72,2.69,30,25,0,0
1.6801e+05,1.6831e+09,4,5480,5414,15.74,2.54,30,25,0,0
1.6846e+05,1.6832e+09,4,5416,5442,15.75,2.64,30,25,0,0
1.689e+05,1.6833e+09,4,5438,5400,15.79,2.62,30,25,0,0
1.6931e+05,1.6834e+09,4,5401,5428,15.66,2.5,30,25,0,0
1.6972e+05,1.6835e+09,4,5427,5414,15.7,2.35,30,25,0,0
1.7017e+05,1.6836e+09,4,5415,5442,15.67,2.45,30,25,0,0
1.7058e+05,1.6837e+09,4,5439,5271,15.77,2.35,30,25,0,0
1.7103e+05,1.6839e+09,4,5269,5257,15.73,2.48,30,25,0,0
1.7148e+05,1.684e+09,4,5260,5314,15.72,2.45,30,25,0,0
1.7191e+05,1.6841e+09,4,5312,5257,15.71,2.38,30,25,0,0
1.7236e+05,1.6842e+09,4,5253,5214,15.76,2.27,30,25,0,0
1.7281e+05,1.6843e+09,4,5232,5414,15.78,2.55,30,25,0,0
1.7326e+05,1.6844e+09,4,5427,5571,15.73,2.66,30,26,0,0
1.737e+05,1.6845e+09,4,5565,5514,15.75,2.39,30,26,0,0
1.7409e+05,1.6846e+09,4,5512,5385,15.77,2.46,30,26,0,0
1.7452e+05,1.6847e+09,4,5376,5271,15.81,1.94,30,26,0,0
1.7492e+05,1.6848e+09,4,5266,5128,15.75,2.22,30,26,0,0
1.7541e+05,1.6849e+09,4,5132,5185,15.77,2.19,30,26,0,0
1.7586e+05,1.685e+09,4,5178,5114,15.79,1.91,30,26,0,0
1.763e+05,1.6852e+09,4,5118,5157,15.75,2.27,30,26,0,0
1.7675e+05,1.6853e+09,4,5139,4900,15.74,1.67,30,26,0,0
1.7719e+05,1.6854e+09,4,4898,4871,15.79,1.85,30,26,0,0
1.7765e+05,1.6855e+09,4,4886,5042,15.75,2.08,30,26,0,0
1.7809e+05,1.6856e+09,4,5048,5114,15.69,2.34,30,26,0,0
1.7854e+05,1.6857e+09,4,5129,5285,15.76,2.43,30,26,0,0
1.7894e+05,1.6858e+09,4,5285,5285,15.73,2.43,30,26,0,0
1.7939e+05,1.6859e+09,4,5290,5485,15.76,2.77,30,26,0,0
1.8024e+05,1.6861e+09,4,5485,5514,15.74,2.74,30,27,0,0
1.8068e+05,1.6862e+09,4,5513,5500,15.7,2.55,30,27,0,0
1.8114e+05,1.6863e+09,4,5497,5457,15.68,2.54,30,27,0,0
1.8157e+05,1.6865e+09,4,5452,5400,15.73,2.45,30,27,0,0
1.8196e+05,1.6866e+09,4,5397,5242,15.71,2.33,30,27,0,0
1.824e+05,1.6867e+09,4,5244,5414,15.72,2.51,30,27,0,0
1.8285e+05,1.6868e+09,4,5421,5514,15.66,2.52,30,27,0,0
1.8329e+05,1.6869e+09,4,5505,5342,15.73,2.52,30,27,0,0
1.8375e+05,1.687e+09,4,5343,5357,15.72,2.57,30,27,0,0
1.8415e+05,1.6871e+09,4,5357,5428,15.69,2.48,30,27,0,0
1.846e+05,1.6872e+09,4,5428,5442,15.73,2.65,30,27,0,0
1.8504e+05,1.6873e+09,4,5446,5514,15.72,2.67,30,27,0,0
1.8548e+05,1.6874e+09,4,5511,5385,15.75,2.37,30,28,0,0
1.8594e+05,1.6875e+09,4,5384,5371,15.73,2.39,30,28,0,0
1.8634e+05,1.6876e+09,4,5367,5200,15.73,2.04,30,28,0,0
1.8679e+05,1.6878e+09,4,5200,5200,15.7,2.26,30,28,0,0
1.8725e+05,1.6879e+09,4,5210,5314,15.77,2.36,30,28,0,0
1.8766e+05,1.688e+09,4,5300,5185,15.71,2.39,30,28,0,0
1.8809e+05,1.6881e+09,4,5192,5271,15.75,2.38,30,28,0,0
1.8851e+05,1.6882e+09,4,5272,5314,15.79,2.25,30,28,0,0
1.8896e+05,1.6883e+09,4,5313,5300,15.78,2.36,30,28,0,0
1.8941e+05,1.6884e+09,4,5296,5257,15.8,2.51,30,28,0,0
1.8986e+05,1.6885e+09,4,5253,5214,15.79,2.28,30,28,0,0
1.9027e+05,1.6886e+09,4,5216,5271,15.8,2.58,30,28,0,0
1.9072e+05,1.6887e+09,4,5271,5271,15.69,2.33,30,28,0,0
1.9116e+05,1.6888e+09,4,5266,5100,15.71,2.02,30,29,0,0
1.9165e+05,1.689e+09,4,5119,5300,15.64,2.41,30,29,0,0
1.9246e+05,1.6892e+09,4,5301,5414,15.78,2.67,30,29,0,0
1.929e+05,1.6893e+09,4,5411,5371,15.73,2.47,30,29,0,0
1.9377e+05,1.6895e+09,4,5373,5442,15.75,2.35,30,29,0,0
1.9421e+05,1.6896e+09,4,5432,5300,15.71,2.25,30,29,0,0
1.9466e+05,1.6897e+09,4,5293,5200,15.74,2.1,30,29,0,0
1.9511e+05,1.6898e+09,4,5200,5200,15.75,2.2,30,29,0,0
1.9556e+05,1.6899e+09,4,5201,5214,15.73,2.26,30,29,0,0
1.9641e+05,1.6902e+09,4,5212,5157,15.75,2.08,30,29,0,0
1.9686e+05,1.6903e+09,4,5149,5071,15.75,2.36,30,29,0,0
1.9768e+05,1.6905e+09,4,5078,5314,15.65,2.57,30,30,0,0
1.9812e+05,1.6906e+09,4,5313,5300,15.73,2.04,30,30,0,0
1.9856e+05,1.6907e+09,4,5299,5271,15.76,2.4,30,30,0,0
1.99e+05,1.6908e+09,4,5266,5142,15.73,2.39,30,30,0,0
1.9943e+05,1.6909e+09,4,5154,5314,15.69,2.4,30,30,0,0
1.9987e+05,1.691e+09,4,5322,5428,15.72,2.63,30,30,0,0
2.0032e+05,1.6911e+09,4,5430,5471,15.71,2.51,30,30,0,0
2.0076e+05,1.6912e+09,4,5464,5400,15.72,2.58,30,30,0,0
2.0116e+05,1.6913e+09,4,5402,5457,15.75,2.48,30,30,0,0
2.0162e+05,1.6915e+09,4,5456,5442,15.73,2.57,30,30,0,0
2.0206e+05,1.6916e+09,4,5427,5328,15.73,2.3,30,30,0,0
2.0251e+05,1.6917e+09,4,5335,5414,15.64,2.19,30,30,0,0
2.0291e+05,1.6918e+09,4,5410,5328,15.72,2.24,30,30,0,0
2.0336e+05,1.6919e+09,4,5331,5371,15.7,2.26,30,30,0,0
2.0377e+05,1.692e+09,4,5363,5257,15.66,2.2,30,31,0,0
2.0422e+05,1.6921e+09,4,5257,5285,15.74,2.34,30,31,0,0
2.0468e+05,1.6922e+09,4,5284,5271,15.67,2.34,30,31,0,0
2.0508e+05,1.6923e+09,4,5265,5157,15.7,2.34,30,31,0,0
2.0552e+05,1.6924e+09,4,5165,5257,15.64,2.2,30,31,0,0
2.0597e+05,1.6925e+09,4,5254,5228,15.68,2.4,30,31,0,0
2.0641e+05,1.6926e+09,4,5238,5342,15.7,2.22,30,31,0,0
2.069e+05,1.6928e+09,4,5330,5271,15.74,2.4,30,31,0,0
2.073e+05,1.6929e+09,4,5264,5200,15.66,2.33,30,31,0,0
2.0775e+05,1.693e+09,4,5202,5228,15.7,2.26,30,31,0,0
2.0819e+05,1.6931e+09,4,5225,5200,15.77,2.3,30,31,0,0
2.0859e+05,1.6932e+09,4,5200,5200,15.73,2.22,30,31,0,0
2.0903e+05,1.6933e+09,4,5200,5242,15.61,2.3,30,31,0,0
2.0947e+05,1.6934e+09,4,5243,5385,15.72,2.85,30,31,0,0
2.0994e+05,1.6935e+09,4,5390,5457,15.66,2.78,30,32,0,0
2.1034e+05,1.6936e+09,4,5466,5557,15.63,2.76,30,32,0,0
2.1076e+05,1.6937e+09,4,5563,5628,15.67,2.62,30,32,0,0
2.1119e+05,1.6938e+09,4,5617,5514,15.59,2.6,30,32,0,0
2.1165e+05,1.6939e+09,4,5525,5628,15.69,2.74,30,32,0,0
2.1254e+05,1.6942e+09,4,5621,5442,15.63,2.59,30,32,0,0
2.1343e+05,1.6944e+09,4,5443,5485,15.77,2.4,30,32,0,0
2.1384e+05,1.6945e+09,4,5477,5400,15.73,2.44,30,32,0,0
2.1427e+05,1.6946e+09,4,5397,5357,15.71,2.59,30,32,0,0
2.1513e+05,1.6948e+09,4,5356,5328,15.69,2.26,30,32,0,0
2.1558e+05,1.6949e+09,4,5322,5242,15.65,2.3,30,33,0,0
2.1604e+05,1.695e+09,4,5231,5128,15.73,2.28,30,33,0,0
2.1644e+05,1.6951e+09,4,5131,5357,15.7,2.29,30,33,0,0
2.1688e+05,1.6953e+09,4,5361,5457,15.69,2.24,30,33,0,0
2.1737e+05,1.6954e+09,4,5441,5271,15.67,2.28,30,33,0,0
2.1782e+05,1.6955e+09,4,5267,5228,15.73,2.53,30,33,0,0
2.1826e+05,1.6956e+09,4,5258,5571,15.66,2.99,30,33,0,0
2.1867e+05,1.6957e+09,4,5559,5442,15.63,2.58,30,33,0,0
2.1911e+05,1.6958e+09,4,5447,5528,15.75,2.85,30,33,0,0
2.1956e+05,1.6959e+09,4,5524,5442,15.7,2.42,30,33,0,0
2.2e+05,1.696e+09,4,5431,5300,15.69,2.5,30,33,0,0
2.2046e+05,1.6961e+09,4,5305,5442,15.61,2.28,30,33,0,0
2.209e+05,1.6962e+09,4,5434,5285,15.67,2.22,30,33,0,0
2.2135e+05,1.6964e+09,4,5279,5157,15.7,2.29,30,34,0,0
2.2179e+05,1.6965e+09,4,5154,5100,15.7,2.18,30,34,0,0
2.2224e+05,1.6966e+09,4,5105,5185,15.66,2.25,30,34,0,0
2.2266e+05,1.6967e+09,4,5177,5071,15.69,2.06,30,34,0,0
2.231e+05,1.6968e+09,4,5072,5114,15.69,2.28,30,34,0,0
2.2358e+05,1.6969e+09,4,5121,5200,15.7,2.27,30,34,0,0
2.2399e+05,1.697e+09,4,5191,5000,15.76,2.35,30,34,0,0
2.2444e+05,1.6971e+09,4,5002,5057,15.64,2.31,30,34,0,0
2.2491e+05,1.6972e+09,4,5053,5000,15.64,1.98,30,34,0,0
2.2532e+05,1.6973e+09,4,5001,5028,15.69,2.15,30,34,0,0
2.2577e+05,1.6974e+09,4,5026,5014,15.72,2.09,30,34,0,0
2.2621e+05,1.6976e+09,4,5014,5028,15.61,2.4,30,34,0,0
2.2661e+05,1.6977e+09,4,5033,5285,15.7,2.5,30,34,0,0
2.2706e+05,1.6978e+09,4,5288,5314,15.67,2.44,30,34,0,0
2.2744e+05,1.6979e+09,4,5314,5342,15.67,2.31,30,34,0,0
2.2787e+05,1.698e+09,4,5342,5385,15.69,2.81,30,35,0,0
2.2832e+05,1.6981e+09,4,5381,5314,15.68,2.49,30,35,0,0
2.2876e+05,1.6982e+09,4,5322,5528,15.7,2.49,30,35,0,0
2.292e+05,1.6983e+09,4,5520,5371,15.66,2.48,30,35,0,0
2.296e+05,1.6984e+09,4,5375,5614,15.6,3.01,30,35,0,0
2.3009e+05,1.6985e+09,4,5610,5528,15.7,2.68,30,35,0,0
2.3054e+05,1.6986e+09,4,5525,5471,15.76,2.09,30,35,0,0
2.3098e+05,1.6987e+09,4,5462,5314,15.76,2.23,30,35,0,0
2.3138e+05,1.6988e+09,4,5311,5128,15.69,2.27,30,35,0,0
2.3184e+05,1.6989e+09,4,5129,5214,15.72,2.39,30,35,0,0
2.323e+05,1.6991e+09,4,5214,5228,15.76,2.29,30,35,0,0
2.3273e+05,1.6992e+09,4,5225,5200,15.73,2.17,30,35,0,0
2.3317e+05,1.6993e+09,4,5205,5271,15.74,2.55,30,35,0,0
2.3358e+05,1.6994e+09,4,5270,5242,15.76,2.38,30,35,0,0
2.3403e+05,1.6995e+09,4,5244,5271,15.68,2.48,30,36,0,0
2.3443e+05,1.6996e+09,4,5271,5300,15.7,2.45,30,36,0,0
2.3492e+05,1.6997e+09,4,5310,5457,15.63,2.79,30,36,0,0
2.3533e+05,1.6998e+09,4,5461,5557,15.66,2.74,30,36,0,0
2.3578e+05,1.6999e+09,4,5541,5371,15.75,2.29,30,36,0,0
2.3618e+05,1.7e+09,4,5373,5400,15.72,2.27,30,36,0,0
2.3663e+05,1.7001e+09,4,5394,5342,15.63,2.72,30,36,0,0
2.3706e+05,1.7002e+09,4,5345,5400,15.75,2.56,30,36,0,0
2.3748e+05,1.7003e+09,4,5400,5400,15.76,2.39,30,36,0,0
2.3789e+05,1.7005e+09,4,5393,5271,15.68,2.38,30,36,0,0
2.3835e+05,1.7006e+09,4,5273,5300,15.7,2.63,30,36,0,0
2.388e+05,1.7007e+09,4,5298,5271,15.72,2.46,30,36,0,0
2.392e+05,1.7008e+09,4,5276,5385,15.76,2.44,30,36,0,0
2.3965e+05,1.7009e+09,4,5386,5400,15.71,2.71,30,37,0,0
2.4013e+05,1.701e+09,4,5404,5457,15.74,2.64,30,37,0,0
2.4097e+05,1.7012e+09,4,5455,5414,15.67,2.53,30,37,0,0
2.414e+05,1.7013e+09,4,5407,5342,15.62,2.59,30,37,0,0
2.4179e+05,1.7014e+09,4,5343,5485,15.72,2.51,30,37,0,0
2.4224e+05,1.7015e+09,4,5480,5400,15.66,2.68,30,37,0,0
2.4269e+05,1.7017e+09,4,5402,5442,15.65,2.76,30,37,0,0
2.4314e+05,1.7018e+09,4,5443,5457,15.67,2.8,30,37,0,0
2.4354e+05,1.7019e+09,4,5457,5457,15.7,2.48,30,37,0,0
2.4399e+05,1.702e+09,4,5454,5357,15.7,2.2,30,37,0,0
2.4488e+05,1.7022e+09,4,5354,5271,15.78,2.3,30,38,0,0
2.4527e+05,1.7023e+09,4,5269,5200,15.67,2.4,30,38,0,0
2.457e+05,1.7024e+09,4,5210,5314,15.77,2.71,30,38,0,0
2.4614e+05,1.7025e+09,4,5319,5400,15.73,2.49,30,38,0,0
2.4659e+05,1.7026e+09,4,5396,5314,15.79,2.48,30,38,0,0
2.4704e+05,1.7027e+09,4,5326,5571,15.76,2.84,30,38,0,0
2.4749e+05,1.7029e+09,4,5556,5357,15.76,2.65,30,38,0,0
2.4793e+05,1.703e+09,4,5362,5442,15.75,2.55,30,38,0,0
2.4838e+05,1.7031e+09,4,5439,5414,15.73,2.86,30,38,0,0
2.4878e+05,1.7032e+09,4,5414,5457,15.7,2.69,30,38,0,0
2.4924e+05,1.7033e+09,4,5457,5457,15.72,2.78,30,38,0,0
2.5008e+05,1.7035e+09,4,5456,5442,15.73,2.39,30,38,0,0
2.5053e+05,1.7036e+09,4,5439,5300,15.6,2.21,30,39,0,0
2.5101e+05,1.7037e+09,4,5310,5414,15.66,2.56,30,39,0,0
2.5147e+05,1.7038e+09,4,5414,5414,15.65,2.6,30,39,0,0
2.5192e+05,1.704e+09,4,5421,5471,15.69,2.9,30,39,0,0
2.5232e+05,1.7041e+09,4,5469,5385,15.69,2.54,30,39,0,0
2.5283e+05,1.7042e+09,4,5386,5400,15.61,2.6,30,39,0,0
2.5324e+05,1.7043e+09,4,5426,5628,15.6,3,30,39,0,0
2.5369e+05,1.7044e+09,4,5624,5585,15.55,3.45,30,39,0,0
2.5413e+05,1.7045e+09,4,5611,5957,15.52,4.14,30,39,0,0
2.5502e+05,1.7047e+09,4,5945,5728,15.7,2.71,30,39,0,0
2.5547e+05,1.7048e+09,4,5712,5542,15.75,2.47,30,40,0,0
2.5587e+05,1.7049e+09,4,5524,5214,15.8,1.88,30,40,0,0
2.5636e+05,1.705e+09,4,5182,4942,15.75,1.78,30,40,0,0
2.5677e+05,1.7051e+09,4,4942,4957,15.72,2.27,30,40,0,0
2.5721e+05,1.7053e+09,4,4961,5014,15.76,2.5,30,40,0,0
2.5804e+05,1.7055e+09,4,5015,5185,15.5,2.94,30,40,0,0
2.5851e+05,1.7056e+09,4,5185,5185,15.73,2.3,30,40,0,0
2.5892e+05,1.7057e+09,4,5179,5128,15.66,2.41,30,40,0,0
2.5937e+05,1.7058e+09,4,5136,5357,15.67,2.49,30,40,0,0
2.5982e+05,1.7059e+09,4,5356,5342,15.71,2.2,30,40,0,0
2.6022e+05,1.706e+09,4,5332,5142,15.74,2.7,30,40,0,0
2.6068e+05,1.7061e+09,4,5162,5385,15.75,2.55,30,40,0,0
2.6111e+05,1.7062e+09,4,5381,5342,15.73,2.56,30,40,0,0
2.6153e+05,1.7063e+09,4,5342,5342,15.75,2.29,30,40,0,0
2.6197e+05,1.7064e+09,4,5337,5285,15.76,2.53,30,41,0,0
2.6242e+05,1.7066e+09,4,5274,5200,15.76,1.98,30,41,0,0
2.6327e+05,1.7068e+09,4,5201,5242,15.69,2.2,30,41,0,0
2.6372e+05,1.7069e+09,4,5245,5314,15.61,2.27,30,41,0,0
2.6417e+05,1.707e+09,4,5306,5228,15.68,2.41,30,41,0,0
2.6462e+05,1.7071e+09,4,5233,5285,15.68,2.56,30,41,0,0
2.6509e+05,1.7072e+09,4,5306,5600,15.6,2.84,30,41,0,0
2.655e+05,1.7073e+09,4,5598,5514,15.65,2.77,30,41,0,0
2.6595e+05,1.7074e+09,4,5516,5571,15.55,2.82,30,41,0,0
2.664e+05,1.7075e+09,4,5571,5585,15.55,2.8,30,41,0,0
2.6688e+05,1.7077e+09,4,5583,5557,15.64,2.86,30,41,0,0
2.6728e+05,1.7078e+09,4,5557,5600,15.6,2.84,30,41,0,0
2.6774e+05,1.7079e+09,4,5604,5642,15.66,2.81,30,42,0,0
2.6814e+05,1.708e+09,4,5632,5428,15.58,2.77,30,42,0,0
2.6861e+05,1.7081e+09,4,5447,5657,15.58,3.05,30,42,0,0
2.6903e+05,1.7082e+09,4,5664,5771,15.61,2.75,30,42,0,0
2.6944e+05,1.7083e+09,4,5765,5671,15.57,2.95,30,42,0,0
2.6989e+05,1.7084e+09,4,5671,5671,15.58,2.8,30,42,0,0
2.7034e+05,1.7085e+09,4,5665,5614,15.62,2.8,30,42,0,0
2.7078e+05,1.7086e+09,4,5612,5600,15.61,2.86,30,42,0,0
2.7119e+05,1.7087e+09,4,5600,5614,15.61,2.77,30,42,0,0
2.7164e+05,1.7088e+09,4,5615,5657,15.57,2.78,30,42,0,0
2.7208e+05,1.709e+09,4,5642,5514,15.61,2.75,30,42,0,0
2.7254e+05,1.7091e+09,4,5531,5714,15.66,2.78,30,43,0,0
2.7301e+05,1.7092e+09,4,5706,5585,15.61,2.69,30,43,0,0
2.7341e+05,1.7093e+09,4,5588,5642,15.62,2.87,30,43,0,0
2.7384e+05,1.7094e+09,4,5645,5685,15.6,2.75,30,43,0,0
2.7429e+05,1.7095e+09,4,5682,5657,15.66,3.02,30,43,0,0
2.7469e+05,1.7096e+09,4,5660,5728,15.61,2.92,30,43,0,0
2.7518e+05,1.7097e+09,4,5724,5671,15.58,3.2,30,43,0,0
2.7558e+05,1.7098e+09,4,5673,5742,15.6,3.03,30,43,0,0
2.7647e+05,1.71e+09,4,5742,5814,15.55,3.16,30,43,0,0
2.77e+05,1.7102e+09,4,5821,5900,15.5,3.47,30,43,0,0
2.7744e+05,1.7103e+09,4,5887,5700,15.66,2.99,30,44,0,0
2.7789e+05,1.7104e+09,4,5701,5714,15.58,2.84,30,44,0,0
2.7834e+05,1.7105e+09,4,5714,5714,15.51,3.08,30,44,0,0
2.7874e+05,1.7106e+09,4,5714,5728,15.52,3.35,30,44,0,0
2.792e+05,1.7107e+09,4,5737,5828,15.62,3.33,30,44,0,0
2.7963e+05,1.7108e+09,4,5838,5942,15.6,3.15,30,44,0,0
2.8048e+05,1.711e+09,4,5936,5785,15.62,3.18,30,44,0,0
2.8093e+05,1.7111e+09,4,5785,5785,15.63,3.01,30,44,0,0
2.8133e+05,1.7112e+09,4,5793,5914,15.54,3.29,30,44,0,0
2.8179e+05,1.7114e+09,4,5928,6028,15.55,3.24,30,44,0,0
2.822e+05,1.7115e+09,4,6009,5771,15.59,3.11,30,45,0,0
2.826e+05,1.7116e+09,4,5777,5928,15.61,3.04,30,45,0,0
2.8309e+05,1.7117e+09,4,5926,5914,15.54,3.23,30,45,0,0
2.8349e+05,1.7118e+09,4,5907,5842,15.54,3.46,30,45,0,0
2.839e+05,1.7119e+09,4,5844,5928,15.54,3.43,30,45,0,0
2.8434e+05,1.712e+09,4,5925,5785,15.64,3.08,30,45,0,0
2.8521e+05,1.7122e+09,4,5774,5542,15.52,3.08,30,45,0,0
2.8566e+05,1.7123e+09,4,5540,5500,15.67,2.75,30,45,0,0
2.8654e+05,1.7125e+09,4,5497,5442,15.64,2.48,30,45,0,0
2.8695e+05,1.7126e+09,4,5445,5514,15.7,2.88,30,46,0,0
2.8741e+05,1.7128e+09,4,5506,5442,15.75,2.54,30,46,0,0
2.8788e+05,1.7129e+09,4,5444,5457,15.74,2.37,30,46,0,0
2.8829e+05,1.713e+09,4,5448,5357,15.7,2.29,30,46,0,0
2.8874e+05,1.7131e+09,4,5354,5328,15.75,2.49,30,46,0,0
2.8918e+05,1.7132e+09,4,5342,5471,15.75,2.53,30,46,0,0
2.9003e+05,1.7134e+09,4,5470,5400,15.74,2.46,30,46,0,0
2.9052e+05,1.7135e+09,4,5393,5328,15.67,2.31,30,46,0,0
2.9094e+05,1.7136e+09,4,5323,5285,15.7,2.51,30,46,0,0
2.9138e+05,1.7137e+09,4,5286,5300,15.69,2.79,30,46,0,0
2.9182e+05,1.7139e+09,4,5315,5471,15.74,2.43,30,46,0,0
2.9226e+05,1.714e+09,4,5455,5328,15.61,2.25,30,46,0,0
2.9271e+05,1.7141e+09,4,5324,5285,15.6,2.53,30,47,0,0
2.94e+05,1.7144e+09,4,5290,5485,15.55,2.62,30,47,0,0
2.9445e+05,1.7145e+09,4,5486,5514,15.63,2.79,30,47,0,0
2.9489e+05,1.7146e+09,4,5514,5514,15.61,2.66,30,47,0,0
2.9534e+05,1.7147e+09,4,5506,5428,15.68,2.29,30,47,0,0
2.9577e+05,1.7148e+09,4,5418,5300,15.57,2.4,30,47,0,0
2.9621e+05,1.7149e+09,4,5301,5314,15.7,2.11,30,47,0,0
2.966e+05,1.715e+09,4,5314,5328,15.67,2.36,30,47,0,0
2.9705e+05,1.7152e+09,4,5333,5442,15.55,2.72,30,47,0,0
2.975e+05,1.7153e+09,4,5448,5514,15.67,2.59,30,47,0,0
2.9838e+05,1.7155e+09,4,5516,5600,15.7,2.98,30,48,0,0
2.9968e+05,1.7158e+09,4,5597,5328,15.63,2.25,30,48,0,0
3.0013e+05,1.7159e+09,4,5326,5285,15.66,2.33,30,48,0,0
3.0057e+05,1.716e+09,4,5280,5185,15.66,2.38,30,48,0,0
3.0098e+05,1.7161e+09,4,5185,5242,15.68,2.63,30,48,0,0
3.0141e+05,1.7162e+09,4,5242,5257,15.69,2.42,30,48,0,0
3.0227e+05,1.7165e+09,4,5260,5428,15.69,2.09,30,48,0,0
3.0272e+05,1.7166e+09,4,5424,5200,15.73,2.25,30,48,0,0
3.0317e+05,1.7167e+09,4,5195,5142,15.7,2.29,30,48,0,0
3.0357e+05,1.7168e+09,4,5141,5114,15.69,1.91,30,48,0,0
3.0446e+05,1.717e+09,4,5123,5385,15.68,2.66,30,49,0,0
3.0491e+05,1.7171e+09,4,5385,5385,15.73,2.51,30,49,0,0
3.0535e+05,1.7172e+09,4,5389,5485,15.73,2.64,30,49,0,0
3.058e+05,1.7173e+09,4,5488,5542,15.66,2.9,30,49,0,0
3.0624e+05,1.7174e+09,4,5542,5542,15.66,2.44,30,49,0,0
3.0669e+05,1.7175e+09,4,5542,5557,15.6,2.76,30,49,0,0
3.0714e+05,1.7177e+09,4,5562,5614,15.59,2.95,30,49,0,0
3.0755e+05,1.7178e+09,4,5614,5685,15.66,2.94,30,49,0,0
3.08e+05,1.7179e+09,4,5678,5600,15.59,2.8,30,49,0,0
3.084e+05,1.718e+09,4,5600,5600,15.64,2.6,30,49,0,0
3.0883e+05,1.7181e+09,4,5598,5528,15.67,2.55,30,49,0,0
3.0926e+05,1.7182e+09,4,5509,5328,15.62,2.2,30,49,0,0
3.0967e+05,1.7183e+09,4,5326,5242,15.69,2.21,30,50,0,0
3.1016e+05,1.7184e+09,4,5243,5257,15.61,2.21,30,50,0,0
3.1056e+05,1.7185e+09,4,5254,5142,15.67,2.25,30,50,0,0
3.11e+05,1.7186e+09,4,5142,5157,15.72,2.31,30,50,0,0
3.1146e+05,1.7187e+09,4,5158,5185,15.64,2.21,30,50,0,0
3.119e+05,1.7188e+09,4,5181,5100,15.65,2.29,30,50,0,0
3.1235e+05,1.719e+09,4,5104,5171,15.58,2.4,30,50,0,0
3.1275e+05,1.7191e+09,4,5170,5157,15.69,2.01,30,50,0,0
3.1311e+05,1.7192e+09,4,5143,4985,15.63,1.75,30,50,0,0
3.1356e+05,1.7193e+09,4,4993,5100,15.7,2.37,30,50,0,0
3.14e+05,1.7194e+09,4,5113,5285,15.66,2.18,30,50,0,0
3.1443e+05,1.7195e+09,4,5281,5242,15.66,2.42,30,50,0,0
3.1486e+05,1.7196e+09,4,5247,5357,15.65,2.38,30,50,0,0
3.1531e+05,1.7197e+09,4,5357,5357,15.6,2.37,30,50,0,0
3.1571e+05,1.7198e+09,4,5358,5457,15.66,2.58,30,50,0,0
3.1616e+05,1.7199e+09,4,5456,5400,15.69,2.63,30,51,0,0
3.1664e+05,1.72e+09,4,5401,5428,15.63,2.79,30,51,0,0
3.171e+05,1.7202e+09,4,5439,5542,15.67,2.8,30,51,0,0
3.1754e+05,1.7203e+09,4,5554,5671,15.69,2.63,30,51,0,0
3.1799e+05,1.7204e+09,4,5663,5528,15.63,2.47,30,51,0,0
3.1844e+05,1.7205e+09,4,5524,5471,15.67,2.34,30,51,0,0
3.1934e+05,1.7207e+09,4,5461,5257,15.69,2.2,30,51,0,0
3.1978e+05,1.7208e+09,4,5255,5242,15.72,2.15,30,51,0,0
3.2022e+05,1.7209e+09,4,5234,5157,15.72,2.14,30,51,0,0
3.2112e+05,1.7211e+09,4,5151,5028,15.7,2.07,30,51,0,0
3.2151e+05,1.7212e+09,4,5026,4985,15.67,2.14,30,51,0,0
3.2198e+05,1.7214e+09,4,4988,5028,15.69,1.82,30,51,0,0
3.2242e+05,1.7215e+09,4,5028,5028,15.64,2.24,30,51,0,0
3.2286e+05,1.7216e+09,4,5030,5071,15.67,2.49,30,52,0,0
3.233e+05,1.7217e+09,4,5074,5128,15.58,2.54,30,52,0,0
3.2375e+05,1.7218e+09,4,5137,5242,15.61,2.4,30,52,0,0
3.242e+05,1.7219e+09,4,5253,5371,15.65,2.37,30,52,0,0
3.2464e+05,1.722e+09,4,5363,5257,15.68,2.23,30,52,0,0
3.251e+05,1.7221e+09,4,5258,5271,15.65,2.47,30,52,0,0
3.255e+05,1.7222e+09,4,5270,5228,15.63,2.33,30,52,0,0
3.2598e+05,1.7223e+09,4,5228,5228,15.58,2.48,30,52,0,0
3.2643e+05,1.7225e+09,4,5218,5128,15.64,2.11,30,52,0,0
3.2687e+05,1.7226e+09,4,5128,5128,15.6,2.66,30,52,0,0
3.2733e+05,1.7227e+09,4,5133,5200,15.63,2.24,30,52,0,0
3.2773e+05,1.7228e+09,4,5192,4857,15.63,2.02,30,52,0,0
3.2818e+05,1.7229e+09,4,4887,5185,15.57,2.67,30,52,0,0
3.2863e+05,1.723e+09,4,5200,5342,15.67,2.55,30,53,0,0
3.2903e+05,1.7231e+09,4,5341,5314,15.64,2.7,30,53,0,0
3.295e+05,1.7232e+09,4,5318,5357,15.64,2.57,30,53,0,0
3.2993e+05,1.7233e+09,4,5357,5357,15.64,2.31,30,53,0,0
3.3032e+05,1.7234e+09,4,5356,5314,15.57,2.41,30,53,0,0
3.3085e+05,1.7235e+09,4,5307,5242,15.67,2.22,30,53,0,0
3.3126e+05,1.7236e+09,4,5244,5271,15.65,2.35,30,53,0,0
3.3166e+05,1.7237e+09,4,5271,5285,15.65,2.37,30,53,0,0
3.3215e+05,1.7239e+09,4,5277,5157,15.63,2,30,53,0,0
3.3263e+05,1.724e+09,4,5151,5100,15.66,2.37,30,53,0,0
3.3308e+05,1.7241e+09,4,5106,5200,15.61,2.5,30,53,0,0
3.3393e+05,1.7243e+09,4,5198,5157,15.67,2.27,30,53,0,0
3.3434e+05,1.7244e+09,4,5161,5242,15.69,2.33,30,53,0,0
3.3479e+05,1.7245e+09,4,5237,5142,15.69,2.14,30,54,0,0
3.3519e+05,1.7246e+09,4,5146,5228,15.73,2.2,30,54,0,0
3.3564e+05,1.7247e+09,4,5213,5071,15.7,1.88,30,54,0,0
3.3605e+05,1.7248e+09,4,5072,5157,15.73,2.16,30,54,0,0
3.3654e+05,1.725e+09,4,5154,5128,15.66,2.08,30,54,0,0
3.3743e+05,1.7252e+09,4,5128,5128,15.67,2.22,30,54,0,0
3.3784e+05,1.7253e+09,4,5129,5200,15.67,2.13,30,54,0,0
3.3833e+05,1.7254e+09,4,5187,5057,15.69,2.24,30,54,0,0
3.3878e+05,1.7255e+09,4,5062,5128,15.72,2.11,30,54,0,0
3.3922e+05,1.7256e+09,4,5135,5242,15.64,2.33,30,54,0,0
3.3967e+05,1.7257e+09,4,5251,5385,15.57,2.36,30,54,0,0
3.4011e+05,1.7258e+09,4,5393,5514,15.69,2.71,30,54,0,0
3.4054e+05,1.7259e+09,4,5520,5614,15.64,2.46,30,54,0,0
3.4101e+05,1.7261e+09,4,5587,5300,15.66,1.91,30,54,0,0
3.4145e+05,1.7262e+09,4,5307,5442,15.63,2.52,30,55,0,0
3.4191e+05,1.7263e+09,4,5438,5400,15.65,2.32,30,55,0,0
3.4235e+05,1.7264e+09,4,5397,5371,15.63,2.43,30,55,0,0
3.428e+05,1.7265e+09,4,5364,5300,15.7,2.5,30,55,0,0
3.432e+05,1.7266e+09,4,5305,5414,15.62,2.41,30,55,0,0
3.4365e+05,1.7267e+09,4,5411,5257,15.57,2.3,30,55,0,0
3.4409e+05,1.7268e+09,4,5256,5228,15.61,2.48,30,55,0,0
3.4454e+05,1.7269e+09,4,5228,5228,15.69,2.4,30,55,0,0
3.4499e+05,1.727e+09,4,5237,5385,15.66,2.6,30,55,0,0
3.4544e+05,1.7272e+09,4,5387,5428,15.65,2.76,30,55,0,0
3.4588e+05,1.7273e+09,4,5430,5471,15.69,2.58,30,55,0,0
3.4633e+05,1.7274e+09,4,5466,5428,15.61,2.38,30,55,0,0
3.4681e+05,1.7275e+09,4,5416,5300,15.67,2.04,30,55,0,0
3.4717e+05,1.7276e+09,4,5298,5228,15.61,2.35,30,56,0,0
3.4764e+05,1.7277e+09,4,5245,5428,15.63,2.49,30,56,0,0
3.4803e+05,1.7278e+09,4,5418,5300,15.59,2.2,30,56,0,0
3.4849e+05,1.7279e+09,4,5300,5300,15.61,2.25,30,56,0,0
3.4889e+05,1.728e+09,4,5300,5300,15.62,2.09,30,56,0,0
3.4934e+05,1.7281e+09,4,5298,5228,15.64,2.25,30,56,0,0
3.4982e+05,1.7282e+09,4,5253,5428,15.64,2.49,30,56,0,0
3.5027e+05,1.7284e+09,4,5421,5357,15.67,2.39,30,56,0,0
3.5067e+05,1.7285e+09,4,5355,5228,15.67,2.63,30,56,0,0
3.5112e+05,1.7286e+09,4,5238,5342,15.6,2.42,30,56,0,0
3.5156e+05,1.7287e+09,4,5337,5285,15.56,2.44,30,56,0,0
3.5246e+05,1.7289e+09,4,5288,5400,15.66,2.37,30,56,0,0
3.5286e+05,1.729e+09,4,5389,5271,15.57,2.61,30,56,0,0
3.5331e+05,1.7291e+09,4,5285,5414,15.61,2.28,30,57,0,0
3.5372e+05,1.7292e+09,4,5402,5300,15.58,2.38,30,57,0,0
3.5413e+05,1.7293e+09,4,5298,5257,15.6,2.33,30,57,0,0
3.5456e+05,1.7294e+09,4,5252,5085,15.67,1.81,30,57,0,0
3.5498e+05,1.7295e+09,4,5083,4971,15.67,1.83,30,57,0,0
3.5543e+05,1.7296e+09,4,4979,5071,15.64,2.03,30,57,0,0
3.5588e+05,1.7298e+09,4,5074,5100,15.6,2.2,30,57,0,0
3.5632e+05,1.7299e+09,4,5106,5157,15.58,2.31,30,57,0,0
3.5677e+05,1.73e+09,4,5148,5071,15.64,2.03,30,57,0,0
3.5722e+05,1.7301e+09,4,5064,4985,15.58,1.91,30,57,0,0
3.5762e+05,1.7302e+09,4,4986,5000,15.64,1.91,30,57,0,0
3.5807e+05,1.7303e+09,4,4994,4928,15.58,2,30,57,0,0
3.5851e+05,1.7304e+09,4,4937,5000,15.64,2.22,30,57,0,0
3.5897e+05,1.7305e+09,4,4991,4900,15.65,1.82,30,57,0,0
3.5937e+05,1.7306e+09,4,4903,4971,15.64,2.16,30,57,0,0
3.5986e+05,1.7307e+09,4,4978,5057,15.64,1.92,30,57,0,0
3.6026e+05,1.7308e+09,4,5059,5085,15.6,2.07,30,58,0,0
3.6072e+05,1.731e+09,4,5069,4928,15.61,1.98,30,58,0,0
3.611e+05,1.7311e+09,4,4935,5071,15.6,2.13,30,58,0,0
3.6154e+05,1.7312e+09,4,5077,5128,15.65,2.29,30,58,0,0
3.6199e+05,1.7313e+09,4,5134,5185,15.61,2.15,30,58,0,0
3.6288e+05,1.7315e+09,4,5183,5142,15.67,2.18,30,58,0,0
3.6328e+05,1.7316e+09,4,5150,5257,15.6,2.34,30,58,0,0
3.6372e+05,1.7317e+09,4,5252,5185,15.58,2.39,30,58,0,0
3.6413e+05,1.7318e+09,4,5187,5214,15.68,2.24,30,58,0,0
3.6498e+05,1.732e+09,4,5212,5171,15.67,2.02,30,58,0,0
3.6543e+05,1.7321e+09,4,5169,5114,15.6,2.22,30,58,0,0
3.6588e+05,1.7323e+09,4,5116,5142,15.66,2.26,30,58,0,0
3.6632e+05,1.7324e+09,4,5151,5285,15.61,2.35,30,58,0,0
3.6675e+05,1.7325e+09,4,5279,5200,15.64,2.39,30,58,0,0
3.6714e+05,1.7326e+09,4,5201,5242,15.67,2.18,30,59,0,0
3.6758e+05,1.7327e+09,4,5246,5300,15.61,2.16,30,59,0,0
3.6848e+05,1.7329e+09,4,5295,5071,15.74,1.82,30,59,0,0
3.6937e+05,1.7331e+09,4,5062,4885,15.8,1.77,30,59,0,0
3.6981e+05,1.7332e+09,4,4886,4957,15.76,2.01,30,59,0,0
3.703e+05,1.7333e+09,4,4961,5014,15.75,1.95,30,59,0,0
3.707e+05,1.7334e+09,4,5018,5285,15.77,2.58,30,59,0,0
3.7115e+05,1.7336e+09,4,5295,5385,15.68,2.51,30,59,0,0
3.716e+05,1.7337e+09,4,5380,5328,15.66,2.48,30,59,0,0
3.72e+05,1.7338e+09,4,5321,5200,15.73,2.22,30,59,0,0
3.729e+05,1.734e+09,4,5211,5457,15.71,2.58,30,59,0,0
3.7329e+05,1.7341e+09,4,5455,5400,15.58,2.86,30,60,0,0
3.7376e+05,1.7342e+09,4,5404,5457,15.74,2.6,30,60,0,0
3.742e+05,1.7343e+09,4,5468,5585,15.68,2.77,30,60,0,0
3.7509e+05,1.7345e+09,4,5590,5742,15.63,2.67,30,60,0,0
3.7554e+05,1.7346e+09,4,5720,5442,15.69,2.42,30,60,0,0
3.7599e+05,1.7348e+09,4,5448,5514,15.73,2.69,30,60,0,0
3.764e+05,1.7349e+09,4,5510,5428,15.63,2.42,30,60,0,0
3.773e+05,1.7351e+09,4,5429,5471,15.72,2.82,30,60,0,0
3.7773e+05,1.7352e+09,4,5477,5614,15.71,2.83,30,60,0,0
3.7817e+05,1.7353e+09,4,5590,5371,15.66,2.64,30,60,0,0
3.786e+05,1.7354e+09,4,5365,5285,15.71,2.12,30,60,0,0
3.7904e+05,1.7355e+09,4,5286,5371,15.65,2.38,30,61,0,0
3.7949e+05,1.7356e+09,4,5374,5442,15.7,2.39,30,61,0,0
3.7993e+05,1.7357e+09,4,5439,5257,15.68,2.21,30,61,0,0
3.8038e+05,1.7358e+09,4,5257,5271,15.61,2.5,30,61,0,0
3.8083e+05,1.7359e+09,4,5276,5385,15.64,2.87,30,61,0,0
3.8216e+05,1.7363e+09,4,5390,5600,15.72,2.6,30,61,0,0
3.826e+05,1.7364e+09,4,5593,5528,15.66,2.59,30,61,0,0
3.8297e+05,1.7365e+09,4,5546,5742,15.61,3.13,30,61,0,0
3.8337e+05,1.7366e+09,4,5744,5885,15.52,3.41,30,61,0,0
3.8386e+05,1.7367e+09,4,5866,5571,15.6,2.64,30,61,0,0
3.8515e+05,1.737e+09,4,5567,5357,15.57,2.47,30,62,0,0
3.8561e+05,1.7371e+09,4,5358,5371,15.67,2.41,30,62,0,0
3.8605e+05,1.7373e+09,4,5374,5428,15.63,2.68,30,62,0,0
3.8649e+05,1.7374e+09,4,5422,5357,15.69,2.45,30,62,0,0
3.8694e+05,1.7375e+09,4,5363,5414,15.66,2.53,30,62,0,0
3.8734e+05,1.7376e+09,4,5422,5514,15.58,3.02,30,62,0,0
3.8777e+05,1.7377e+09,4,5520,5614,15.63,2.86,30,62,0,0
3.8817e+05,1.7378e+09,4,5616,5642,15.63,2.83,30,62,0,0
3.8862e+05,1.7379e+09,4,5636,5585,15.53,3.28,30,62,0,0
3.8902e+05,1.738e+09,4,5596,5828,15.58,3.45,30,62,0,0
3.8948e+05,1.7381e+09,4,5824,5728,15.57,2.77,30,62,0,0
3.8992e+05,1.7382e+09,4,5721,5571,15.61,2.55,30,63,0,0
3.9081e+05,1.7385e+09,4,5564,5442,15.55,2.28,30,63,0,0
3.9126e+05,1.7386e+09,4,5442,5457,15.61,2.53,30,63,0,0
3.9173e+05,1.7387e+09,4,5454,5428,15.59,2.42,30,63,0,0
3.9218e+05,1.7388e+09,4,5413,5314,15.67,2.38,30,63,0,0
3.9259e+05,1.7389e+09,4,5314,5314,15.6,2.22,30,63,0,0
3.9304e+05,1.739e+09,4,5311,5271,15.64,2.55,30,63,0,0
3.9386e+05,1.7392e+09,4,5271,5271,15.64,2.44,30,63,0,0
3.9434e+05,1.7393e+09,4,5271,5271,15.54,2.51,30,63,0,0
3.9475e+05,1.7394e+09,4,5273,5328,15.57,2.55,30,63,0,0
3.952e+05,1.7395e+09,4,5316,5214,15.56,2.33,30,63,0,0
3.9564e+05,1.7396e+09,4,5223,5342,15.64,2.26,30,64,0,0
3.9657e+05,1.7399e+09,4,5337,5200,15.6,2.35,30,64,0,0
3.9697e+05,1.74e+09,4,5199,5157,15.66,1.97,30,64,0,0
3.9742e+05,1.7401e+09,4,5159,5242,15.67,2.26,30,64,0,0
3.9786e+05,1.7402e+09,4,5243,5314,15.61,2.18,30,64,0,0
3.9876e+05,1.7404e+09,4,5311,5257,15.54,2.24,30,64,0,0
3.9921e+05,1.7405e+09,4,5257,5257,15.63,2.46,30,64,0,0
3.9965e+05,1.7406e+09,4,5258,5285,15.62,2.65,30,64,0,0
4.0006e+05,1.7407e+09,4,5290,5557,15.57,2.79,30,64,0,0
4.0055e+05,1.7408e+09,4,5540,5371,15.6,3.02,30,64,0,0
4.0095e+05,1.7409e+09,4,5370,5357,15.58,2.35,30,64,0,0
4.0144e+05,1.7411e+09,4,5363,5428,15.61,2.87,30,65,0,0
4.0188e+05,1.7412e+09,4,5424,5385,15.61,2.69,30,65,0,0
4.0277e+05,1.7414e+09,4,5386,5414,15.63,2.5,30,65,0,0
4.0322e+05,1.7415e+09,4,5417,5457,15.61,2.64,30,65,0,0
4.0366e+05,1.7416e+09,4,5457,5457,15.6,2.48,30,65,0,0
4.0407e+05,1.7417e+09,4,5455,5414,15.57,2.63,30,65,0,0
4.0451e+05,1.7418e+09,4,5417,5571,15.63,2.73,30,65,0,0
4.0497e+05,1.7419e+09,4,5561,5442,15.6,2.54,30,65,0,0
4.0542e+05,1.742e+09,4,5438,5400,15.63,2.63,30,65,0,0
4.0631e+05,1.7423e+09,4,5394,5271,15.58,2.31,30,65,0,0
4.0676e+05,1.7424e+09,4,5269,5257,15.66,2.12,30,65,0,0
4.0718e+05,1.7425e+09,4,5264,5342,15.58,2.55,30,66,0,0
4.0761e+05,1.7426e+09,4,5340,5300,15.55,2.52,30,66,0,0
4.0806e+05,1.7427e+09,4,5298,5257,15.57,2.21,30,66,0,0
4.085e+05,1.7428e+09,4,5258,5300,15.63,2.01,30,66,0,0
4.0899e+05,1.7429e+09,4,5284,5142,15.64,2.11,30,66,0,0
4.0943e+05,1.743e+09,4,5142,5142,15.6,2.26,30,66,0,0
4.0984e+05,1.7431e+09,4,5149,5314,15.58,2.5,30,66,0,0
4.1028e+05,1.7432e+09,4,5307,5242,15.59,2.14,30,66,0,0
4.1074e+05,1.7433e+09,4,5241,5228,15.6,2.42,30,66,0,0
4.1114e+05,1.7435e+09,4,5227,5214,15.61,2.46,30,66,0,0
4.1159e+05,1.7436e+09,4,5225,5371,15.55,2.68,30,66,0,0
4.12e+05,1.7437e+09,4,5371,5400,15.62,2.5,30,66,0,0
4.1243e+05,1.7438e+09,4,5400,5414,15.63,2.5,30,66,0,0
4.1288e+05,1.7439e+09,4,5412,5385,15.63,2.41,30,66,0,0
4.1333e+05,1.744e+09,4,5382,5285,15.61,2.38,30,67,0,0
4.1378e+05,1.7441e+09,4,5289,5357,15.69,2.67,30,67,0,0
4.1422e+05,1.7442e+09,4,5358,5371,15.63,2.14,30,67,0,0
4.1507e+05,1.7444e+09,4,5368,5085,15.55,2.25,30,67,0,0
4.1552e+05,1.7445e+09,4,5090,5428,15.65,2.47,30,67,0,0
4.1599e+05,1.7447e+09,4,5414,5271,15.61,2.56,30,67,0,0
4.1642e+05,1.7448e+09,4,5271,5271,15.63,2.34,30,67,0,0
4.1686e+05,1.7449e+09,4,5279,5357,15.65,2.5,30,67,0,0
4.1726e+05,1.745e+09,4,5357,5357,15.61,2.56,30,67,0,0
4.1776e+05,1.7451e+09,4,5351,5314,15.63,2.44,30,67,0,0
4.182e+05,1.7452e+09,4,5316,5342,15.55,2.44,30,67,0,0
4.1865e+05,1.7453e+09,4,5347,5400,15.55,2.67,30,67,0,0
4.1905e+05,1.7454e+09,4,5399,5385,15.56,2.5,30,67,0,0
4.195e+05,1.7455e+09,4,5384,5371,15.58,2.45,30,68,0,0
4.1995e+05,1.7456e+09,4,5369,5357,15.61,2.44,30,68,0,0
4.204e+05,1.7457e+09,4,5361,5442,15.5,2.53,30,68,0,0
4.208e+05,1.7458e+09,4,5440,5342,15.57,2.31,30,68,0,0
4.213e+05,1.746e+09,4,5321,5171,15.6,2.31,30,68,0,0
4.2165e+05,1.7461e+09,4,5172,5271,15.64,2.55,30,68,0,0
4.2256e+05,1.7463e+09,4,5271,5300,15.61,2.58,30,68,0,0
4.23e+05,1.7464e+09,4,5310,5385,15.59,2.54,30,68,0,0
4.2341e+05,1.7465e+09,4,5385,5400,15.61,2.6,30,68,0,0
4.2389e+05,1.7466e+09,4,5412,5528,15.56,2.64,30,68,0,0
4.2434e+05,1.7467e+09,4,5510,5342,15.65,2.58,30,68,0,0
4.2524e+05,1.7469e+09,4,5340,5300,15.66,2.53,30,69,0,0
4.2565e+05,1.747e+09,4,5310,5400,15.6,2.54,30,69,0,0
4.261e+05,1.7472e+09,4,5400,5400,15.63,2.65,30,69,0,0
4.2649e+05,1.7473e+09,4,5401,5428,15.58,2.61,30,69,0,0
4.2698e+05,1.7474e+09,4,5417,5271,15.64,2.52,30,69,0,0
4.2737e+05,1.7475e+09,4,5273,5400,15.63,2.67,30,69,0,0
4.2823e+05,1.7477e+09,4,5399,5371,15.6,2.19,30,69,0,0
4.2868e+05,1.7478e+09,4,5367,5314,15.62,2.18,30,69,0,0
4.2914e+05,1.7479e+09,4,5312,5300,15.58,2.35,30,69,0,0
4.3003e+05,1.7481e+09,4,5296,5200,15.6,2.21,30,69,0,0
4.3047e+05,1.7483e+09,4,5187,5028,15.53,1.82,30,69,0,0
4.3088e+05,1.7484e+09,4,5025,4914,15.56,2.32,30,70,0,0
4.3132e+05,1.7485e+09,4,4916,5042,15.62,1.81,30,70,0,0
4.3177e+05,1.7486e+09,4,5030,4914,15.58,1.91,30,70,0,0
4.3221e+05,1.7487e+09,4,4914,4914,15.64,1.8,30,70,0,0
4.3268e+05,1.7488e+09,4,4917,4957,15.61,2.09,30,70,0,0
4.3312e+05,1.7489e+09,4,4957,4957,15.7,1.85,30,70,0,0
4.3351e+05,1.749e+09,4,4958,5014,15.63,2.25,30,70,0,0
4.3396e+05,1.7491e+09,4,5017,5257,15.61,2.45,30,70,0,0
4.344e+05,1.7492e+09,4,5255,5157,15.7,1.94,30,70,0,0
4.3488e+05,1.7493e+09,4,5140,4828,15.61,2.18,30,70,0,0
4.3578e+05,1.7496e+09,4,4842,5214,15.78,2.99,30,70,0,0
4.3618e+05,1.7497e+09,4,5175,4414,15.92,0.47,30,70,0,0
4.3667e+05,1.7498e+09,4,4367,4028,15.94,0.88,30,70,0,0
4.3711e+05,1.7499e+09,4,3989,3042,16.08,0.06,30,70,0,0
4.3756e+05,1.75e+09,4,2977,2371,16,0.05,30,70,0,0
4.3801e+05,1.7501e+09,4,2374,2414,16.01,0.35,30,70,0,0
4.3846e+05,1.7502e+09,4,2411,2385,16,0.19,30,70,0,0
4.389e+05,1.7503e+09,4,2376,2271,16,0.24,30,70,0,0
4.3979e+05,1.7505e+09,4,2272,2300,16,0.23,30,70,0,0
4.4064e+05,1.7508e+09,4,2301,2328,16.02,0.28,30,70,0,0
4.4108e+05,1.7509e+09,4,2327,2314,16.01,0.24,30,70,0,0
4.4153e+05,1.751e+09,4,2314,2328,16,0.31,30,70,0,0
4.4198e+05,1.7511e+09,4,2327,2314,16,0.26,30,70,0,0
4.4238e+05,1.7512e+09,4,2310,2257,16.03,0.25,30,70,0,0
4.4284e+05,1.7513e+09,4,2256,2242,16.03,0.26,30,70,0,0
4.4328e+05,1.7514e+09,4,2241,2228,16.03,0.24,30,70,0,0
4.4377e+05,1.7515e+09,4,2227,2214,16.04,0.24,30,70,0,0
4.442e+05,1.7516e+09,4,2211,2171,16.12,0.13,30,70,0,0
4.4463e+05,1.7517e+09,4,2134,1757,16.08,0,30,70,0,0
4.4506e+05,1.7518e+09,4,1736,1428,16.08,0.03,30,70,0,0
4.4552e+05,1.7519e+09,4,1420,1342,16.07,0.09,30,70,0,0
4.4596e+05,1.7521e+09,4,1341,1328,16.08,0.1,30,70,0,0
4.4644e+05,1.7522e+09,4,1328,1328,16.08,0.1,30,70,0,0
4.4685e+05,1.7523e+09,4,1328,1328,16.07,0.1,30,70,0,0
4.473e+05,1.7524e+09,4,1328,1328,16.08,0.1,30,70,0,0
4.4775e+05,1.7525e+09,4,1328,1328,16.08,0.1,30,70,0,0
4.482e+05,1.7526e+09,4,1328,1328,16.08,0.1,30,70,0,0
4.4868e+05,1.7527e+09,4,1328,1328,16.08,0.1,30,70,0,0
4.4913e+05,1.7528e+09,4,1328,1328,16.09,0.1,30,70,0,0
4.4958e+05,1.7529e+09,4,1328,1328,16.1,0.1,30,70,0,0
4.5005e+05,1.753e+09,4,1328,1328,16.1,0.1,30,70,0,0
4.5044e+05,1.7531e+09,4,1328,1328,16.09,0.1,30,70,0,0
4.5085e+05,1.7532e+09,4,1328,1328,16.1,0.1,30,70,0,0
4.5129e+05,1.7534e+09,4,1328,1328,16.1,0.1,30,70,0,0
4.5178e+05,1.7535e+09,4,1328,1328,16.1,0.1,30,70,0,0
4.5218e+05,1.7536e+09,4,1328,1328,16.1,0.1,30,70,0,0
4.5267e+05,1.7537e+09,4,1328,1328,16.1,0.1,30,70,0,0
4.5311e+05,1.7538e+09,4,1328,1328,16.1,0.1,30,70,0,0
4.5356e+05,1.7539e+09,4,1328,1328,16.11,0.1,30,70,0,0
4.54e+05,1.754e+09,4,1328,1328,16.11,0.1,30,70,0,0
4.545e+05,1.7541e+09,4,1328,1328,16.11,0.1,30,70,0,0
4.5494e+05,1.7542e+09,4,1328,1328,16.11,0.1,30,70,0,0
4.5539e+05,1.7543e+09,4,1328,1328,16.11,0.1,30,70,0,0
4.5582e+05,1.7544e+09,4,1328,1328,16.11,0.1,30,70,0,0
4.5625e+05,1.7545e+09,4,1328,1328,16.11,0.1,30,70,0,0
4.5669e+05,1.7546e+09,4,1328,1328,16.11,0.1,30,70,0,0
4.5714e+05,1.7548e+09,4,1328,1328,16.11,0.1,30,70,0,0
4.5758e+05,1.7549e+09,4,1328,1328,16.11,0.1,30,70,0,0
4.5803e+05,1.755e+09,4,1328,1328,16.11,0.1,30,71,0,0
4.5848e+05,1.7551e+09,4,1328,1328,16.13,0.1,30,71,0,0
4.5893e+05,1.7552e+09,4,1328,1328,16.11,0.1,30,71,0,0
4.5938e+05,1.7553e+09,4,1328,1328,16.13,0.1,30,71,0,0
4.5979e+05,1.7554e+09,4,1328,1328,16.13,0.1,30,71,0,0
4.6024e+05,1.7555e+09,4,1328,1328,16.13,0.1,30,71,0,0
4.6069e+05,1.7556e+09,4,1328,1328,16.13,0.1,30,71,0,0
4.6118e+05,1.7557e+09,4,1328,1328,16.13,0.1,30,71,0,0
4.6158e+05,1.7558e+09,4,1328,1328,16.13,0.1,30,71,0,0
4.6203e+05,1.7559e+09,4,1328,1328,16.13,0.1,30,71,0,0
4.6248e+05,1.756e+09,4,1327,1314,16.13,0.1,30,71,0,0
4.6292e+05,1.7562e+09,4,1314,1328,16.14,0.1,30,71,0,0
4.6341e+05,1.7563e+09,4,1328,1328,16.14,0.1,30,71,0,0
4.6386e+05,1.7564e+09,4,1328,1328,16.14,0.1,30,71,0,0
4.6429e+05,1.7565e+09,4,1328,1328,16.14,0.1,30,71,0,0
4.6468e+05,1.7566e+09,4,1328,1342,16.14,0.1,30,71,0,0
4.6513e+05,1.7567e+09,4,1340,1328,16.14,0.1,30,71,0,0
4.6562e+05,1.7568e+09,4,1328,1328,16.14,0.1,30,71,0,0
4.6602e+05,1.7569e+09,4,1328,1328,16.14,0.1,30,71,0,0
4.6647e+05,1.757e+09,4,1328,1328,16.15,0.1,30,71,0,0
4.6692e+05,1.7571e+09,4,1328,1328,16.14,0.1,30,71,0,0
4.6785e+05,1.7574e+09,4,1328,1328,16.14,0.1,30,71,0,0
4.6826e+05,1.7575e+09,4,1328,1328,16.15,0.1,30,71,0,0
4.6873e+05,1.7576e+09,4,1328,1328,16.14,0.1,30,71,0,0
4.6916e+05,1.7577e+09,4,1328,1328,16.16,0.1,30,71,0,0
4.6959e+05,1.7578e+09,4,1328,1328,16.15,0.1,30,71,0,0
4.7e+05,1.7579e+09,4,1328,1328,16.15,0.1,30,71,0,0
4.7045e+05,1.758e+09,4,1328,1328,16.15,0.1,30,71,0,0
4.7094e+05,1.7581e+09,4,1328,1328,16.16,0.1,30,71,0,0
4.7138e+05,1.7582e+09,4,1328,1328,16.16,0.1,30,71,0,0
4.7183e+05,1.7583e+09,4,1328,1328,16.15,0.1,30,71,0,0
4.7272e+05,1.7585e+09,4,1328,1328,16.16,0.1,30,71,0,0
4.7315e+05,1.7586e+09,4,1328,1328,16.15,0.1,30,71,0,0
4.7358e+05,1.7587e+09,4,1328,1328,16.16,0.1,30,71,0,0
4.7406e+05,1.7589e+09,4,1328,1328,16.16,0.1,30,71,0,0
4.7451e+05,1.759e+09,4,1328,1328,16.16,0.1,30,71,0,0
4.7496e+05,1.7591e+09,4,1328,1328,16.16,0.1,30,71,0,0
4.7541e+05,1.7592e+09,4,1328,1328,16.16,0.1,30,71,0,0
4.7585e+05,1.7593e+09,4,1328,1328,16.16,0.1,30,71,0,0
4.763e+05,1.7594e+09,4,1328,1328,16.16,0.1,30,71,0,0
4.7674e+05,1.7595e+09,4,1328,1328,16.16,0.1,30,71,0,0
4.7718e+05,1.7596e+09,4,1328,1328,16.16,0.1,30,71,0,0
4.7764e+05,1.7597e+09,4,1328,1328,16.17,0.1,30,71,0,0
4.7804e+05,1.7598e+09,4,1328,1328,16.17,0.1,30,71,0,0
4.7853e+05,1.7599e+09,4,1328,1328,16.17,0.1,30,71,0,0
4.7894e+05,1.76e+09,4,1328,1328,16.16,0.1,30,71,0,0
4.7943e+05,1.7602e+09,4,1328,1328,16.16,0.1,30,71,0,0
4.7986e+05,1.7603e+09,4,1328,1328,16.17,0.1,30,71,0,0
4.8031e+05,1.7604e+09,4,1328,1328,16.16,0.1,30,71,0,0
4.8076e+05,1.7605e+09,4,1328,1328,16.17,0.11,30,71,0,0
4.8121e+05,1.7606e+09,4,1328,1328,16.17,0.1,30,71,0,0
4.8165e+05,1.7607e+09,4,1328,1328,16.17,0.1,30,71,0,0
4.8256e+05,1.7609e+09,4,1328,1328,16.18,0.1,30,71,0,0
4.8296e+05,1.761e+09,4,1328,1328,16.17,0.1,30,71,0,0
4.8345e+05,1.7611e+09,4,1328,1328,16.17,0.1,30,71,0,0
4.8385e+05,1.7612e+09,4,1328,1328,16.17,0.11,30,71,0,0
4.8434e+05,1.7613e+09,4,1328,1328,16.17,0.1,30,71,0,0
4.8475e+05,1.7615e+09,4,1328,1328,16.17,0.1,30,71,0,0
4.852e+05,1.7616e+09,4,1328,1328,16.18,0.1,30,71,0,0
4.8564e+05,1.7617e+09,4,1328,1328,16.18,0.1,30,71,0,0
4.8612e+05,1.7618e+09,4,1253,457,16.19,0,30,71,0,0
4.8657e+05,1.7619e+09,4,452,200,16.19,0.02,30,71,0,0
4.8702e+05,1.762e+09,4,197,0,16.2,0.03,30,71,0,0
4.8752e+05,1.7621e+09,4,0,0,16.19,0.03,30,71,0,0
4.8796e+05,1.7622e+09,4,0,0,16.19,0.03,30,71,0,0
4.8846e+05,1.7623e+09,4,0,0,16.19,0.03,30,71,0,0
4.8937e+05,1.7625e+09,4,0,0,16.2,0.03,30,71,0,0
4.8976e+05,1.7626e+09,4,0,0,16.2,0.03,30,71,0,0
4.9024e+05,1.7628e+09,4,0,0,16.2,0.03,30,71,0,0
4.9069e+05,1.7629e+09,4,0,0,16.2,0.03,30,71,0,0
4.9114e+05,1.763e+09,4,0,0,16.2,0.03,30,71,0,0
4.9159e+05,1.7631e+09,4,0,0,16.2,0.03,30,71,0,0
4.9204e+05,1.7632e+09,4,0,0,16.2,0.03,30,71,0,0
4.9249e+05,1.7633e+09,4,0,0,16.2,0.03,30,71,0,0
4.9294e+05,1.7634e+09,4,0,0,16.2,0.03,30,71,0,0
4.934e+05,1.7635e+09,4,0,0,16.2,0.03,30,71,0,0
4.9388e+05,1.7636e+09,4,0,0,16.2,0.03,30,71,0,0
4.9431e+05,1.7637e+09,4,0,0,16.21,0.03,30,71,0,0
4.9476e+05,1.7638e+09,4,0,0,16.2,0.03,30,71,0,0
4.9525e+05,1.764e+09,4,0,0,16.2,0.03,30,71,0,0
4.957e+05,1.7641e+09,4,0,0,16.2,0.03,30,71,0,0
4.9615e+05,1.7642e+09,4,0,0,16.21,0.03,30,71,0,0
4.9665e+05,1.7643e+09,4,0,0,16.21,0.03,30,71,0,0
4.9755e+05,1.7645e+09,4,0,0,16.2,0.03,30,71,0,0
4.9799e+05,1.7646e+09,4,0,0,16.21,0.03,30,71,0,0
4.9846e+05,1.7647e+09,4,0,0,16.21,0.03,30,71,0,0
4.989e+05,1.7648e+09,4,0,0,16.21,0.02,30,71,0,0
4.9936e+05,1.7649e+09,4,0,0,16.21,0.03,30,71,0,0
4.9981e+05,1.765e+09,4,0,0,16.22,0.03,30,71,0,0
5.0071e+05,1.7652e+09,4,0,0,16.22,0.03,30,71,0,0
5.0121e+05,1.7654e+09,4,0,0,16.22,0.03,30,71,0,0
5.0164e+05,1.7655e+09,4,0,0,16.21,0.03,30,71,0,0
5.0207e+05,1.7656e+09,4,0,0,16.22,0.03,30,71,0,0
5.0252e+05,1.7657e+09,4,0,0,16.22,0.03,30,71,0,0
5.0293e+05,1.7658e+09,4,0,0,16.22,0.03,30,71,0,0
5.0344e+05,1.7659e+09,4,0,0,16.22,0.03,30,71,0,0
5.0389e+05,1.766e+09,4,0,0,16.22,0.03,30,71,0,0
5.0438e+05,1.7661e+09,4,0,0,16.22,0.03,30,71,0,0
5.0479e+05,1.7662e+09,4,0,0,16.22,0.03,30,71,0,0
5.0529e+05,1.7663e+09,4,0,0,16.22,0.03,30,71,0,0
5.0572e+05,1.7664e+09,4,0,0,16.22,0.03,30,71,0,0
5.0616e+05,1.7665e+09,4,0,0,16.22,0.03,30,71,0,0
5.0709e+05,1.7668e+09,4,0,0,16.22,0.03,30,71,0,0
5.075e+05,1.7669e+09,4,0,0,16.22,0.03,30,71,0,0
5.0795e+05,1.767e+09,4,0,0,16.22,0.03,30,71,0,0
