LineNo,TimeUS,Instance,RPM,RawRPM,Volt,Curr,Temp,CTot,MotTemp,Err
2062,1642399153,3,0,0,16.73,0.03,28,0,0,0
2497,1642507133,3,0,0,16.73,0.03,28,0,0,0
2947,1642615959,3,0,0,16.73,0.03,28,0,0,0
3448,1642729545,3,0,0,16.73,0.03,28,0,0,0
3899,1642835272,3,0,0,16.73,0.03,28,0,0,0
4351,1642937916,3,0,0,16.73,0.03,28,0,0,0
4784,1643044136,3,0,0,16.73,0.03,28,0,0,0
5707,1643261383,3,0,0,16.73,0.03,28,0,0,0
6162,1643367603,3,0,0,16.72,0.02,29,0,0,0
6659,1643484725,3,36,414,16.71,0.05,28,0,0,0
7073,1643589190,3,434,771,16.69,0.11,29,0,0,0
7540,1643698210,3,799,1171,16.7,0.15,28,0,0,0
7992,1643804293,3,1178,1285,16.7,0.11,29,0,0,0
8445,1643906753,3,1287,1328,16.72,0.11,28,0,0,0
9389,1644123268,3,1328,1357,16.71,0.09999999,29,0,0,0
9827,1644229509,3,1357,1357,16.72,0.09999999,29,0,0,0
10306,1644344164,3,1357,1357,16.71,0.09999999,29,0,0,0
10755,1644450508,3,1357,1357,16.71,0.09999999,29,0,0,0
11252,1644565106,3,1357,1357,16.71,0.09999999,29,0,0,0
11713,1644673543,3,1357,1357,16.72,0.09999999,29,0,0,0
12201,1644786553,3,1357,1357,16.71,0.09999999,29,0,0,0
12996,1644985152,3,1357,1357,16.71,0.09999999,29,0,0,0
13490,1645096400,3,1357,1357,16.71,0.09999999,29,0,0,0
13730,1645205142,3,1357,1357,16.72,0.09999999,29,0,0,0
14188,1645310311,3,1357,1357,16.71,0.09999999,29,0,0,0
14673,1645425941,3,1357,1357,16.71,0.09999999,29,0,0,0
15105,1645530345,3,1357,1357,16.7,0.09999999,29,0,0,0
16050,1645747173,3,1357,1357,16.71,0.09999999,29,0,0,0
16506,1645856512,3,1357,1357,16.72,0.09999999,29,0,0,0
16958,1645959316,3,1357,1357,16.72,0.09999999,29,0,0,0
17433,1646076347,3,1357,1357,16.71,0.09999999,29,0,0,0
18256,1646279544,3,1357,1357,16.7,0.09999999,29,0,0,0
18708,1646385919,3,1357,1357,16.72,0.09999999,29,0,0,0
19205,1646498601,3,1357,1357,16.7,0.09999999,29,0,0,0
19609,1646598589,3,1357,1357,16.71,0.09999999,29,0,0,0
20086,1646711484,3,1357,1357,16.71,0.09999999,29,0,0,0
20528,1646817566,3,1357,1357,16.71,0.09999999,29,0,0,0
21032,1646931926,3,1357,1357,16.7,0.09999999,29,0,0,0
21448,1647035007,3,1356,1342,16.7,0.09999999,29,0,0,0
21902,1647139178,3,1342,1357,16.71,0.09999999,29,0,0,0
22386,1647256141,3,1357,1357,16.71,0.09999999,29,0,0,0
22818,1647358375,3,1357,1357,16.7,0.09999999,29,0,0,0
23319,1647475144,3,1357,1357,16.71,0.09999999,29,0,0,0
23767,1647582068,3,1357,1371,16.7,0.12,29,0,0,0
24221,1647684765,3,1379,1614,16.66,0.26,29,0,0,0
24674,1647794336,3,1643,2328,16.6,0.5600000000000001,29,0,0,0
25151,1647908172,3,2341,2528,16.64,0.5,29,0,0,0
25593,1648014953,3,2531,2571,16.61,0.45,29,0,0,0
26047,1648119348,3,2578,2771,16.57,0.65,29,0,0,0
26536,1648233591,3,2790,3185,16.48,1.17,29,0,0,0
27035,1648349586,3,3207,3514,16.48,1.14,29,0,0,0
27471,1648461392,3,3568,4128,16.28,2.73,29,0,0,0
28362,1648681150,3,4177,5228,16.15,3.05,29,0,0,0
28773,1648780147,3,5253,5757,16.04,3.72,29,0,0,0
29274,1648898198,3,5779,6114,16.11,3.48,29,0,0,0
29716,1649008244,3,6088,5828,16.25,2.39,29,1,0,0
30150,1649113074,3,5806,5528,16.25,2.09,29,1,0,0
30591,1649221599,3,5507,5214,16.2,1.98,29,1,0,0
31089,1649337640,3,5201,5071,16.19,1.94,29,1,0,0
31544,1649448377,3,5064,5000,16.12,1.95,29,1,0,0
31994,1649558524,3,4984,4800,16.17,1.55,29,1,0,0
32446,1649662510,3,4789,4657,16.18,1.41,29,1,0,0
32904,1649772585,3,4649,4485,16.09,1.36,29,1,0,0
33337,1649875601,3,4490,4614,16.14,1.74,29,1,0,0
33811,1649988277,3,4629,4842,16.08,2.38,29,1,0,0
34264,1650093504,3,4846,5114,16.16,2.42,29,1,0,0
34756,1650210548,3,5122,5200,16.1,2.52,29,1,0,0
35209,1650315110,3,5206,5342,16.12,2.47,29,1,0,0
35650,1650424801,3,5344,5414,16.2,2.68,29,1,0,0
36124,1650538138,3,5410,5371,16.17,2.41,29,1,0,0
36575,1650651249,3,5372,5385,16.17,2.76,29,2,0,0
37029,1650761105,3,5403,5557,16.09,2.86,29,2,0,0
37483,1650867712,3,5566,5657,16.09,2.92,29,2,0,0
37893,1650969840,3,5657,5657,16.11,2.56,29,2,0,0
38347,1651075771,3,5638,5371,16.1,2.68,29,2,0,0
39705,1651402361,3,5370,5357,16.02,2.7,29,2,0,0
40160,1651508144,3,5366,5542,15.99,2.89,29,2,0,0
40613,1651618171,3,5545,5642,16.13,2.78,29,2,0,0
41112,1651736492,3,5634,5557,16.05,2.84,29,2,0,0
41522,1651838498,3,5557,5557,16.04,2.78,29,2,0,0
42872,1652177408,3,5560,5685,16.11,2.66,29,3,0,0
43325,1652287139,3,5685,5685,16.07,3.2,29,3,0,0
43768,1652398950,3,5688,5714,16.13,2.79,29,3,0,0
44174,1652500259,3,5710,5542,16.04,2.78,29,3,0,0
44612,1652607504,3,5560,5914,16.06,3.21,29,3,0,0
45105,1652726497,3,5910,5871,16.08,3.01,29,3,0,0
45544,1652833336,3,5869,5857,16.1,3.09,29,3,0,0
45996,1652945134,3,5850,5785,16.13,2.63,29,3,0,0
46386,1653047189,3,5771,5528,16.08,2.66,29,3,0,0
47224,1653262476,3,5521,5142,16.2,1.92,29,4,0,0
47705,1653376754,3,5129,5000,16.17,2.35,29,4,0,0
48598,1653598378,3,5014,5342,16.11,2.37,29,4,0,0
49050,1653708546,3,5347,5400,16.05,2.63,29,4,0,0
49451,1653810325,3,5400,5400,16.04,2.43,29,4,0,0
49941,1653928324,3,5401,5414,16.12,2.34,29,4,0,0
50387,1654039766,3,5410,5357,16.17,2.29,29,4,0,0
50798,1654142823,3,5351,5285,16.08,2.53,29,4,0,0
51205,1654249269,3,5286,5371,16.13,2.28,30,4,0,0
51657,1654363280,3,5369,5357,16.1,2.48,30,4,0,0
52103,1654473761,3,5357,5357,16.12,2.59,29,4,0,0
52473,1654575098,3,5359,5528,16.06,2.77,30,4,0,0
52938,1654688178,3,5507,5357,16.09,2.48,30,5,0,0
53329,1654787780,3,5361,5614,16.04,2.69,30,5,0,0
53778,1654897789,3,5606,5514,16.08,2.84,29,5,0,0
54183,1655002628,3,5514,5542,16.05,2.8,30,5,0,0
54672,1655118007,3,5536,5428,16.07,2.44,29,5,0,0
55081,1655220332,3,5428,5471,16.1,2.72,30,5,0,0
55574,1655337374,3,5486,5628,16.04,2.97,30,5,0,0
56062,1655453318,3,5625,5600,16.03,2.79,30,5,0,0
56466,1655553396,3,5601,5671,15.97,2.87,29,5,0,0
56891,1655664778,3,5671,5685,16.04,3.14,30,5,0,0
57325,1655775046,3,5683,5671,16.04,2.7,29,5,0,0
57779,1655884403,3,5674,5714,16.02,2.83,30,5,0,0
58224,1655996072,3,5714,5714,15.94,3.09,30,6,0,0
58629,1656097639,3,5715,5757,16,2.85,30,6,0,0
59084,1656211054,3,5753,5671,16.01,2.74,30,6,0,0
59568,1656322606,3,5657,5528,16.02,2.28,29,6,0,0
60013,1656432752,3,5533,5585,16,2.66,30,6,0,0
60420,1656532963,3,5581,5485,16.1,2.45,30,6,0,0
60845,1656641934,3,5483,5442,15.95,2.29,30,6,0,0
61312,1656753126,3,5437,5342,16.1,2.4,30,6,0,0
61758,1656865640,3,5344,5385,16.08,2.26,30,6,0,0
62201,1656976144,3,5378,5285,16.11,2.22,30,6,0,0
62609,1657077565,3,5290,5414,16.02,2.48,30,6,0,0
63063,1657194047,3,5420,5485,16.01,2.85,30,6,0,0
63509,1657302524,3,5482,5442,16.04,2.5,30,6,0,0
63953,1657414381,3,5440,5428,16.07,2.56,30,7,0,0
64404,1657523942,3,5426,5414,16.04,2.29,30,7,0,0
64846,1657633183,3,5404,5300,16.04,2.36,30,7,0,0
65296,1657739063,3,5298,5271,16.03,2.42,30,7,0,0
65726,1657848524,3,5271,5271,16.04,2.07,30,7,0,0
66152,1657961751,3,5273,5300,16.07,2.42,30,7,0,0
66592,1658063285,3,5299,5285,16.04,2.18,30,7,0,0
67448,1658276848,3,5278,5085,16.05,1.95,30,7,0,0
67848,1658377562,3,5078,4814,16.16,1.44,30,7,0,0
68341,1658497135,3,4809,4757,16.1,1.7,30,7,0,0
68765,1658605597,3,4755,4742,16.06,2.12,30,7,0,0
69217,1658715977,3,4752,4871,16.08,2,30,7,0,0
69622,1658821563,3,4885,5085,16.04,2.3,30,7,0,0
70071,1658930633,3,5085,5100,16.1,2.16,30,7,0,0
70471,1659031515,3,5100,5142,16.04,2.21,30,7,0,0
70920,1659140626,3,5142,5157,15.97,2.63,30,8,0,0
71407,1659258100,3,5173,5357,16.04,2.44,30,8,0,0
71811,1659363513,3,5355,5285,16.03,2.37,30,8,0,0
72268,1659476592,3,5312,5585,16.01,2.61,30,8,0,0
72673,1659581600,3,5568,5357,16.05,2.33,30,8,0,0
73129,1659691060,3,5363,5428,16.05,2.42,30,8,0,0
73528,1659792547,3,5425,5371,16.07,2.3,30,8,0,0
74019,1659907589,3,5364,5300,16.01,2.4,30,8,0,0
74422,1660010356,3,5300,5300,16.07,2.44,30,8,0,0
74875,1660120972,3,5295,5242,15.99,2.44,30,8,0,0
75322,1660232716,3,5244,5271,16.01,2.47,30,8,0,0
75772,1660340101,3,5274,5314,16.07,2.09,30,8,0,0
76200,1660448584,3,5312,5285,15.92,2.34,30,8,0,0
76630,1660563954,3,5323,5571,15.98,2.71,30,9,0,0
77040,1660661709,3,5561,5414,16.1,2.12,30,9,0,0
77524,1660779382,3,5396,5214,16.09,2.14,30,9,0,0
77971,1660888775,3,5215,5228,16.05,2.19,30,9,0,0
78375,1660995631,3,5234,5285,16.02,2.44,30,9,0,0
78820,1661103737,3,5289,5328,16,2.39,30,9,0,0
79717,1661318055,3,5330,5414,16,2.75,30,9,0,0
80117,1661422638,3,5417,5457,16.04,2.35,30,9,0,0
80566,1661528976,3,5453,5371,16.05,2.22,30,9,0,0
81014,1661643175,3,5357,5242,16.01,2.35,30,9,0,0
81499,1661760741,3,5250,5328,16.05,2.36,30,9,0,0
82309,1661961638,3,5328,5400,16.01,2.5,30,9,0,0
82798,1662079062,3,5400,5400,15.94,2.4,30,10,0,0
83232,1662183133,3,5397,5228,16,2.34,30,10,0,0
83728,1662302078,3,5231,5271,15.98,2.38,30,10,0,0
84127,1662400616,3,5282,5400,15.84,2.61,30,10,0,0
84576,1662509270,3,5407,5500,15.99,2.61,30,10,0,0
85024,1662626744,3,5511,5628,15.93,2.69,30,10,0,0
85471,1662733626,3,5623,5585,15.95,2.8,30,10,0,0
85876,1662836127,3,5586,5600,15.98,2.71,30,10,0,0
86287,1662935144,3,5598,5528,15.92,2.75,30,10,0,0
86713,1663042077,3,5528,5557,15.98,2.26,30,10,0,0
87186,1663164556,3,5541,5414,15.92,2.53,30,10,0,0
87636,1663272666,3,5404,5300,15.98,2.24,30,10,0,0
88117,1663390640,3,5304,5357,15.97,2.3,30,10,0,0
88522,1663489147,3,5357,5357,16.05,2.39,30,11,0,0
88966,1663602103,3,5353,5328,16.04,2.45,30,11,0,0
89418,1663711374,3,5339,5457,15.9,2.78,30,11,0,0
89858,1663816226,3,5445,5300,15.97,2.62,30,11,0,0
90310,1663929594,3,5322,5557,15.95,2.62,30,11,0,0
90755,1664039047,3,5547,5414,15.95,2.84,30,11,0,0
91604,1664245617,3,5415,5557,16.02,2.53,30,11,0,0
92096,1664369488,3,5547,5471,15.98,2.67,30,11,0,0
92501,1664467405,3,5472,5485,15.94,2.46,30,11,0,0
92939,1664572550,3,5487,5585,16.02,2.92,30,11,0,0
93397,1664689501,3,5583,5571,16,2.53,30,11,0,0
93798,1664789525,3,5571,5571,15.98,2.67,30,11,0,0
94244,1664897342,3,5571,5571,15.99,2.66,30,12,0,0
94693,1665009844,3,5561,5414,15.94,2.45,30,12,0,0
95546,1665224311,3,5411,5314,15.89,2.48,30,12,0,0
95994,1665333362,3,5311,5285,16.01,2.45,30,12,0,0
96440,1665442157,3,5289,5385,16.03,2.48,30,12,0,0
96895,1665554610,3,5389,5428,15.91,2.38,30,12,0,0
98196,1665875911,3,5427,5414,15.98,2.59,30,12,0,0
99093,1666095957,3,5415,5442,15.95,2.53,30,12,0,0
99494,1666195358,3,5441,5414,15.94,2.44,30,12,0,0
99985,1666313726,3,5408,5357,15.97,2.27,30,13,0,0
100878,1666534158,3,5359,5414,15.91,2.6,30,13,0,0
101281,1666636201,3,5413,5385,15.97,2.47,30,13,0,0
101731,1666745500,3,5385,5385,15.91,2.68,29,13,0,0
102172,1666853895,3,5378,5242,15.98,2.24,30,13,0,0
102623,1666963517,3,5254,5414,16.09,2.28,30,13,0,0
103070,1667074136,3,5406,5242,16.1,1.92,29,13,0,0
103516,1667183061,3,5244,5285,16.05,2.44,30,13,0,0
103966,1667292323,3,5278,5214,16.07,2.2,30,13,0,0
104410,1667403484,3,5215,5228,16.05,2.28,30,13,0,0
104850,1667504553,3,5225,5171,16,2.55,30,13,0,0
105745,1667725806,3,5176,5342,15.97,2.19,30,13,0,0
106643,1667945062,3,5342,5342,15.97,2.21,30,14,0,0
107006,1668040635,3,5343,5414,15.99,2.56,30,14,0,0
107456,1668150097,3,5417,5457,16.02,2.59,30,14,0,0
107901,1668260750,3,5465,5571,16,2.36,30,14,0,0
108305,1668363821,3,5568,5471,15.92,2.5,30,14,0,0
108754,1668472560,3,5474,5542,15.98,2.56,30,14,0,0
109166,1668579605,3,5537,5428,15.91,2.43,29,14,0,0
109617,1668689648,3,5430,5500,15.95,2.54,30,14,0,0
110061,1668799134,3,5495,5400,15.91,2.4,29,14,0,0
110510,1668908397,3,5406,5542,15.94,2.81,30,14,0,0
110956,1669020111,3,5546,5628,15.92,2.71,30,14,0,0
111410,1669132753,3,5631,5671,15.93,2.71,30,15,0,0
111899,1669252062,3,5661,5557,15.95,2.88,30,15,0,0
112347,1669362810,3,5570,5685,15.91,2.73,30,15,0,0
112749,1669463285,3,5676,5500,15.97,2.64,29,15,0,0
113205,1669579813,3,5502,5528,15.97,2.5,30,15,0,0
113652,1669687764,3,5537,5628,15.94,2.9,30,15,0,0
114048,1669787372,3,5629,5657,16.01,2.88,30,15,0,0
114497,1669897358,3,5653,5585,15.95,2.66,30,15,0,0
114950,1670010775,3,5585,5600,15.97,2.58,30,15,0,0
115399,1670117484,3,5587,5414,15.98,2.46,30,15,0,0
115844,1670229389,3,5415,5428,16.03,2.46,30,15,0,0
116293,1670339768,3,5435,5514,16,2.62,30,15,0,0
117188,1670557335,3,5507,5371,16.02,2.31,30,16,0,0
117599,1670659352,3,5379,5485,15.97,2.56,29,16,0,0
118495,1670877840,3,5482,5385,15.93,2.6,30,16,0,0
118941,1670988615,3,5389,5657,15.97,2.82,30,16,0,0
119430,1671103629,3,5651,5600,15.97,2.82,30,16,0,0
119842,1671209334,3,5602,5771,15.85,2.83,29,16,0,0
120331,1671324737,3,5774,5814,15.85,3.03,30,16,0,0
120774,1671431611,3,5827,5971,15.88,3.31,30,16,0,0
121222,1671539225,3,5977,6057,15.84,3.67,30,16,0,0
121665,1671647556,3,6061,6114,15.87,3.26,30,16,0,0
122518,1671858157,3,6109,5942,15.91,3.06,30,17,0,0
122926,1671963550,3,5940,5828,15.88,2.75,30,17,0,0
123413,1672078188,3,5819,5642,15.99,2.31,30,17,0,0
123817,1672180510,3,5641,5600,15.97,2.28,30,17,0,0
124308,1672297007,3,5600,5600,15.88,3.17,30,17,0,0
124756,1672408586,3,5606,5700,16.01,3.21,30,17,0,0
125161,1672507563,3,5702,5800,15.98,2.93,30,17,0,0
125617,1672621784,3,5792,5700,15.88,2.99,30,17,0,0
126064,1672726541,3,5697,5600,15.9,2.98,30,17,0,0
126511,1672837365,3,5609,5800,15.88,3,30,17,0,0
127001,1672957403,3,5814,5942,15.85,3.23,30,17,0,0
127405,1673063051,3,5946,5985,15.93,3.17,30,18,0,0
128301,1673283777,3,5968,5714,15.93,2.48,30,18,0,0
128702,1673381087,3,5714,5714,15.83,2.81,30,18,0,0
129192,1673501579,3,5699,5542,15.82,2.86,30,18,0,0
129599,1673604809,3,5542,5571,15.83,2.8,30,18,0,0
130092,1673724587,3,5574,5614,15.83,3.18,30,18,0,0
130536,1673831971,3,5622,5714,15.77,2.86,30,18,0,0
130986,1673940801,3,5713,5700,15.79,3.11,30,18,0,0
131395,1674047185,3,5698,5585,15.85,2.71,30,18,0,0
131846,1674155605,3,5585,5628,15.83,2.68,30,18,0,0
132253,1674264103,3,5624,5385,15.86,2.57,30,19,0,0
132699,1674375149,3,5388,5414,15.82,3.04,30,19,0,0
133148,1674486564,3,5429,5728,15.88,2.87,30,19,0,0
133586,1674588783,3,5723,5671,15.75,3.05,30,19,0,0
134481,1674810089,3,5694,6085,15.75,3.59,30,19,0,0
134890,1674910207,3,6078,5942,15.8,3.42,30,19,0,0
135336,1675021530,3,5949,6114,15.73,3.47,30,19,0,0
135785,1675130480,3,6112,6071,15.88,3.49,30,19,0,0
136195,1675235554,3,6067,5971,15.88,2.88,30,19,0,0
136686,1675352570,3,5942,5657,15.88,2.9,30,19,0,0
137545,1675570883,3,5653,5585,15.92,2.62,30,20,0,0
137990,1675677749,3,5599,5814,15.86,3.43,30,20,0,0
138395,1675781133,3,5816,5871,15.95,3.01,30,20,0,0
138885,1675894059,3,5859,5742,15.95,2.66,30,20,0,0
139296,1675999487,3,5728,5571,15.92,2.71,30,20,0,0
139744,1676106315,3,5572,5585,15.98,2.54,30,20,0,0
140228,1676224190,3,5583,5571,15.89,2.61,30,20,0,0
140675,1676333292,3,5565,5514,15.95,2.59,30,20,0,0
141120,1676442601,3,5522,5600,15.9,2.76,30,20,0,0
141977,1676655973,3,5597,5428,15.95,2.55,30,21,0,0
142470,1676778727,3,5449,5671,15.88,2.35,30,21,0,0
142878,1676877389,3,5672,5771,15.8,3.38,30,21,0,0
143773,1677097082,3,5768,5528,15.87,2.59,30,21,0,0
144216,1677209193,3,5530,5571,15.86,2.65,30,21,0,0
144663,1677317748,3,5578,5714,15.85,2.93,30,21,0,0
145109,1677428961,3,5710,5642,15.85,2.74,30,21,0,0
145563,1677541121,3,5636,5557,15.85,2.61,30,21,0,0
146004,1677650156,3,5568,5714,15.88,3.18,30,21,0,0
146453,1677763577,3,5715,5728,15.82,2.97,30,21,0,0
146864,1677867137,3,5729,5828,15.8,3.04,30,22,0,0
147356,1677986076,3,5817,5714,15.75,2.9,30,22,0,0
148251,1678207120,3,5714,5728,15.82,3.4,30,22,0,0
148699,1678315943,3,5728,5728,15.82,3.17,30,22,0,0
149145,1678428322,3,5729,5742,15.82,2.91,30,22,0,0
149593,1678533816,3,5730,5614,15.88,2.8,30,22,0,0
150446,1678746597,3,5613,5600,15.8,2.7,30,22,0,0
150847,1678847393,3,5602,5657,15.82,3.11,30,22,0,0
151302,1678957362,3,5657,5657,15.85,2.8,30,22,0,0
151750,1679066912,3,5660,5700,15.72,2.9,30,22,0,0
152154,1679171133,3,5697,5628,15.77,3.36,30,23,0,0
152598,1679278613,3,5633,5971,15.82,3.23,30,23,0,0
153041,1679385951,3,5967,5814,15.83,3.1,30,23,0,0
153493,1679495728,3,5820,5914,15.79,3.25,30,23,0,0
153943,1679611068,3,5907,5842,15.76,3.11,30,23,0,0
154313,1679707570,3,5840,5785,15.78,3.21,30,23,0,0
154789,1679826299,3,5788,5828,15.79,3.38,30,23,0,0
155218,1679934248,3,5835,5914,15.78,3.08,30,23,0,0
155657,1680043165,3,5896,5671,15.8,3.18,30,23,0,0
156143,1680161502,3,5714,5942,15.76,3.36,30,23,0,0
156547,1680260349,3,5937,5885,15.8,3.02,30,24,0,0
157001,1680376332,3,5880,5842,15.77,2.93,30,24,0,0
157404,1680473170,3,5841,5814,15.82,2.9,30,24,0,0
157863,1680589924,3,5800,5657,15.83,3,30,24,0,0
158266,1680687513,3,5657,5657,15.86,2.75,30,24,0,0
158717,1680799257,3,5657,5657,15.77,2.95,30,24,0,0
160010,1681114599,3,5657,5728,15.8,2.89,30,24,0,0
160461,1681230649,3,5728,5728,15.82,2.9,30,24,0,0
160908,1681337621,3,5723,5671,15.82,2.96,30,24,0,0
161309,1681437380,3,5672,5757,15.83,2.66,30,25,0,0
161835,1681561947,3,5713,5414,15.86,2.56,30,25,0,0
162239,1681660195,3,5429,5614,15.73,3.02,30,25,0,0
162689,1681774308,3,5625,5728,15.75,3,30,25,0,0
163131,1681877970,3,5723,5685,15.81,3.01,30,25,0,0
163531,1681978067,3,5691,5828,15.79,2.94,30,25,0,0
163984,1682089793,3,5821,5728,15.76,3.04,30,25,0,0
164430,1682201925,3,5730,5771,15.7,2.93,30,25,0,0
164883,1682313486,3,5772,5785,15.82,3.14,30,25,0,0
165272,1682414060,3,5790,5900,15.76,3.1,30,25,0,0
165702,1682522851,3,5897,5842,15.81,3.27,30,25,0,0
166625,1682751753,3,5843,5871,15.78,3.19,30,26,0,0
167070,1682863832,3,5866,5814,15.75,3.1,30,26,0,0
167477,1682962812,3,5814,5842,15.75,3.03,30,26,0,0
167924,1683073954,3,5841,5814,15.75,3.08,30,26,0,0
168372,1683183162,3,5821,5971,15.79,2.97,30,26,0,0
168854,1683301064,3,5947,5728,15.77,2.81,30,26,0,0
169264,1683407128,3,5718,5657,15.72,2.77,30,26,0,0
169674,1683509911,3,5655,5642,15.73,2.98,30,26,0,0
170083,1683615061,3,5643,5757,15.73,2.71,30,26,0,0
170982,1683840662,3,5744,5514,15.74,2.73,30,26,0,0
171387,1683943123,3,5515,5585,15.75,3,30,27,0,0
172717,1684266060,3,5584,5557,15.8,2.91,30,27,0,0
173163,1684377545,3,5557,5600,15.8,2.95,30,27,0,0
173613,1684484062,3,5600,5657,15.85,3.07,30,27,0,0
174054,1684597320,3,5666,5757,15.77,2.65,30,27,0,0
174436,1684696522,3,5754,5585,15.81,2.6,30,27,0,0
174872,1684808062,3,5570,5414,15.77,2.43,30,27,0,0
175324,1684918964,3,5400,5271,15.79,2.25,30,27,0,0
175809,1685033292,3,5262,5171,15.86,2.24,30,27,0,0
176218,1685134593,3,5176,5228,15.8,2.04,30,27,0,0
176656,1685244807,3,5232,5342,15.84,2.67,30,28,0,0
177146,1685362095,3,5347,5400,15.82,2.49,30,28,0,0
178041,1685575365,3,5403,5471,15.82,2.64,30,28,0,0
178444,1685675706,3,5479,5642,15.74,3.03,30,28,0,0
178895,1685790820,3,5636,5585,15.83,2.6,30,28,0,0
179341,1685896603,3,5587,5628,15.82,2.65,30,28,0,0
180195,1686113530,3,5625,5557,15.82,2.74,30,28,0,0
180636,1686222742,3,5550,5485,15.85,2.73,30,28,0,0
181091,1686338148,3,5495,5614,15.82,2.87,30,28,0,0
181482,1686438619,3,5620,5742,15.8,3.14,30,28,0,0
181918,1686552360,3,5757,5928,15.75,3.35,30,29,0,0
182316,1686653352,3,5924,5757,15.77,2.91,30,29,0,0
182761,1686761167,3,5755,5685,15.79,2.8,30,29,0,0
183205,1686868158,3,5685,5700,15.75,2.88,30,29,0,0
183654,1686979643,3,5696,5628,15.77,2.75,30,29,0,0
184105,1687090485,3,5634,5728,15.67,3.26,30,29,0,0
184952,1687302612,3,5728,5728,15.7,2.9,30,29,0,0
185394,1687410046,3,5722,5514,15.79,2.65,30,29,0,0
185848,1687522507,3,5509,5414,15.85,2.35,30,29,0,0
186300,1687636580,3,5412,5400,15.85,2.59,30,29,0,0
186746,1687742611,3,5394,5328,15.81,2.48,30,29,0,0
187156,1687847562,3,5336,5457,15.86,2.4,30,30,0,0
187609,1687962019,3,5450,5385,15.79,2.73,30,30,0,0
188000,1688064977,3,5388,5471,15.83,2.55,30,30,0,0
188464,1688181056,3,5471,5471,15.78,2.57,30,30,0,0
188910,1688290083,3,5466,5385,15.85,2.5,30,30,0,0
189318,1688398367,3,5374,5271,15.88,2.5,30,30,0,0
189766,1688504635,3,5274,5342,15.79,2.51,30,30,0,0
190172,1688610262,3,5343,5414,15.84,2.54,30,30,0,0
190671,1688729209,3,5419,5500,15.83,2.63,30,30,0,0
191116,1688836384,3,5501,5528,15.83,2.92,30,30,0,0
191564,1688942510,3,5537,5728,15.7,3.19,30,30,0,0
191970,1689048176,3,5727,5714,15.78,3.21,30,30,0,0
192420,1689160204,3,5705,5628,15.77,2.88,30,30,0,0
192857,1689268902,3,5634,5700,15.79,2.89,30,31,0,0
193680,1689475511,3,5694,5442,15.81,2.52,30,31,0,0
194114,1689586165,3,5449,5600,15.83,2.62,30,31,0,0
194569,1689698095,3,5598,5571,15.75,2.87,30,31,0,0
195016,1689809115,3,5568,5542,15.75,2.77,30,31,0,0
195466,1689916602,3,5545,5614,15.77,2.63,30,31,0,0
195913,1690029566,3,5609,5557,15.81,2.56,30,31,0,0
196319,1690131325,3,5557,5571,15.8,2.66,30,31,0,0
196766,1690244433,3,5572,5600,15.77,2.86,30,31,0,0
197183,1690352903,3,5613,5742,15.77,3.05,30,31,0,0
197584,1690453563,3,5738,5500,15.77,2.91,30,31,0,0
198076,1690574323,3,5515,5685,15.77,2.96,30,32,0,0
198517,1690679342,3,5675,5585,15.79,2.89,30,32,0,0
198917,1690784411,3,5586,5642,15.76,2.92,30,32,0,0
199391,1690900237,3,5642,5642,15.72,2.96,30,32,0,0
199780,1690997722,3,5646,5742,15.76,3.02,30,32,0,0
200228,1691108112,3,5742,5742,15.77,3.21,30,32,0,0
201119,1691328594,3,5743,5771,15.75,3.03,30,32,0,0
201526,1691433771,3,5775,5885,15.76,2.91,30,32,0,0
202419,1691652528,3,5875,5685,15.76,2.69,30,32,0,0
202864,1691763393,3,5674,5557,15.8,2.83,30,33,0,0
203274,1691867185,3,5557,5571,15.8,2.88,30,33,0,0
203681,1691969585,3,5571,5571,15.76,2.85,30,33,0,0
205033,1692305505,3,5570,5557,15.83,2.78,30,33,0,0
205430,1692411109,3,5559,5585,15.77,2.63,30,33,0,0
205879,1692517867,3,5567,5385,15.74,2.62,30,33,0,0
206324,1692628388,3,5393,5514,15.76,2.69,30,33,0,0
206772,1692737366,3,5507,5414,15.77,2.61,30,33,0,0
207211,1692844587,3,5417,5500,15.7,2.72,30,33,0,0
207663,1692954086,3,5512,5685,15.73,3.11,30,33,0,0
208107,1693064393,3,5692,5771,15.74,2.84,30,34,0,0
208992,1693283187,3,5764,5628,15.78,3.01,30,34,0,0
209426,1693390576,3,5632,5700,15.75,2.89,30,34,0,0
209855,1693499325,3,5701,5728,15.64,3.33,30,34,0,0
210259,1693606582,3,5753,6000,15.69,3.28,30,34,0,0
210711,1693723097,3,5995,5971,15.69,3.23,30,34,0,0
211116,1693820971,3,5969,5957,15.7,3.46,30,34,0,0
211561,1693923562,3,5955,5914,15.7,3.38,30,34,0,0
212005,1694034050,3,5915,6000,15.66,3.07,30,34,0,0
212492,1694154604,3,5985,5885,15.79,2.83,30,34,0,0
212933,1694263104,3,5878,5828,15.77,3.14,30,35,0,0
213381,1694376386,3,5815,5714,15.75,2.54,30,35,0,0
213790,1694476111,3,5710,5685,15.75,2.79,30,35,0,0
214183,1694578538,3,5683,5571,15.69,3,30,35,0,0
214654,1694693704,3,5576,5628,15.75,2.82,30,35,0,0
215044,1694795177,3,5629,5728,15.75,2.86,30,35,0,0
215945,1695021732,3,5726,5685,15.74,3.1,30,35,0,0
216396,1695135365,3,5681,5642,15.82,2.82,30,35,0,0
216837,1695244622,3,5654,5771,15.72,3.04,30,35,0,0
217286,1695350722,3,5768,5714,15.76,2.82,30,35,0,0
217727,1695460569,3,5714,5714,15.77,3.03,30,36,0,0
218177,1695568350,3,5711,5685,15.79,2.81,30,36,0,0
218582,1695673821,3,5678,5500,15.72,3.09,30,36,0,0
219025,1695780541,3,5502,5685,15.73,2.68,30,36,0,0
219470,1695888501,3,5682,5571,15.72,2.67,30,36,0,0
219916,1695999191,3,5573,5628,15.73,2.82,30,36,0,0
220367,1696112078,3,5628,5642,15.8,2.72,30,36,0,0
220853,1696229347,3,5620,5400,15.75,2.62,30,36,0,0
221258,1696330752,3,5396,5328,15.75,2.5,30,36,0,0
221704,1696439576,3,5332,5485,15.72,2.4,30,36,0,0
222158,1696551268,3,5483,5400,15.75,2.57,30,36,0,0
222580,1696660076,3,5398,5314,15.7,2.44,30,37,0,0
223009,1696767363,3,5315,5342,15.8,2.24,30,37,0,0
223491,1696884727,3,5332,5228,15.73,2.6,30,37,0,0
223894,1696987053,3,5236,5414,15.75,2.59,30,37,0,0
224342,1697096602,3,5411,5271,15.85,2.4,30,37,0,0
224821,1697210772,3,5277,5357,15.77,2.67,30,37,0,0
225232,1697313602,3,5360,5585,15.73,2.77,30,37,0,0
225674,1697423540,3,5582,5528,15.81,2.7,30,37,0,0
226168,1697540688,3,5520,5442,15.84,2.2,30,37,0,0
226561,1697638691,3,5421,5114,15.83,2.3,30,37,0,0
227013,1697749124,3,5130,5285,15.76,2.7,30,37,0,0
227357,1697843181,3,5285,5314,15.67,2.54,30,37,0,0
227787,1697951188,3,5315,5442,15.76,2.69,30,37,0,0
228224,1698059726,3,5440,5414,15.7,2.72,30,37,0,0
228665,1698168704,3,5413,5400,15.76,2.71,30,38,0,0
229151,1698284401,3,5417,5600,15.73,3.15,30,38,0,0
230040,1698498350,3,5595,5500,15.73,2.63,30,38,0,0
230486,1698608732,3,5498,5485,15.83,2.41,30,38,0,0
230933,1698718057,3,5456,5185,15.84,1.82,30,38,0,0
231338,1698822324,3,5178,5014,15.8,2.08,30,38,0,0
231789,1698934098,3,5003,4900,15.81,1.86,30,38,0,0
232210,1699037435,3,4901,4928,15.8,1.9,30,38,0,0
232643,1699148564,3,4926,4900,15.81,2.09,30,38,0,0
233080,1699255791,3,4900,4900,15.8,2.02,30,38,0,0
233532,1699365588,3,4907,5014,15.77,2.28,30,38,0,0
233932,1699468185,3,5014,5028,15.81,2.07,30,38,0,0
234829,1699689733,3,5036,5271,15.75,2.63,30,39,0,0
235236,1699795560,3,5275,5371,15.8,2.28,30,39,0,0
235692,1699905554,3,5362,5271,15.76,2.17,30,39,0,0
236091,1700004773,3,5270,5257,15.79,2.19,30,39,0,0
236539,1700113053,3,5259,5314,15.72,2.53,30,39,0,0
236966,1700219303,3,5313,5300,15.77,2.26,30,39,0,0
237396,1700327080,3,5296,5200,15.81,2.22,30,39,0,0
237844,1700442501,3,5181,5000,15.72,2.11,30,39,0,0
238248,1700539505,3,5001,5042,15.82,2.1,30,39,0,0
238702,1700659308,3,5053,5171,15.78,2.19,30,39,0,0
239150,1700766368,3,5168,5142,15.79,2.46,30,39,0,0
239554,1700869934,3,5149,5328,15.73,2.34,30,39,0,0
240035,1700987254,3,5317,5185,15.76,2.45,30,39,0,0
240880,1701204112,3,5187,5300,15.81,2.3,30,39,0,0
241304,1701311311,3,5296,5228,15.75,2.43,30,40,0,0
241700,1701414554,3,5228,5271,15.77,2.61,30,40,0,0
242196,1701535614,3,5277,5342,15.77,2.46,30,40,0,0
242590,1701631098,3,5342,5371,15.72,2.46,30,40,0,0
243043,1701744079,3,5362,5200,15.66,2.56,30,40,0,0
243493,1701860096,3,5198,5185,15.84,1.97,30,40,0,0
243943,1701970216,3,5181,5157,15.83,2.13,30,40,0,0
244350,1702071799,3,5143,4942,15.82,1.81,30,40,0,0
244792,1702184185,3,4943,4971,15.85,1.96,30,40,0,0
245223,1702296555,3,4965,4914,15.88,1.86,30,40,0,0
245614,1702398551,3,4920,5000,15.83,1.86,30,40,0,0
246098,1702514192,3,4998,4985,15.85,1.86,30,40,0,0
246499,1702614593,3,4984,4971,15.73,2.27,30,40,0,0
246950,1702723146,3,4976,5100,15.8,2.02,30,40,0,0
247398,1702835496,3,5091,4914,15.82,1.96,30,40,0,0
247846,1702943624,3,4919,5042,15.81,2.11,30,40,0,0
248735,1703167755,3,5048,5185,15.82,2.09,30,41,0,0
249162,1703274626,3,5186,5214,15.84,2.11,30,41,0,0
249592,1703383355,3,5202,5085,15.83,1.78,30,41,0,0
250039,1703493127,3,5064,4857,15.8,2.07,30,41,0,0
250484,1703603591,3,4878,5100,15.73,2.48,30,41,0,0
250930,1703710488,3,5100,5142,15.77,2.21,30,41,0,0
251382,1703823384,3,5143,5157,15.71,2.09,30,41,0,0
251828,1703929369,3,5165,5342,15.75,2.54,30,41,0,0
252232,1704032560,3,5343,5428,15.71,2.79,30,41,0,0
252724,1704148236,3,5435,5514,15.66,3.01,30,41,0,0
253199,1704262610,3,5519,5571,15.63,2.98,30,41,0,0
253645,1704377627,3,5577,5642,15.66,2.73,30,41,0,0
254051,1704473795,3,5650,5757,15.64,2.82,30,41,0,0
254454,1704576919,3,5757,5757,15.67,3.47,30,42,0,0
254940,1704691084,3,5760,5814,15.77,3.07,30,42,0,0
256234,1705013136,3,5808,4914,15.86,1.81,30,42,0,0
256682,1705121485,3,4914,4914,15.83,1.91,30,42,0,0
257164,1705244941,3,4908,4871,15.83,1.91,30,42,0,0
258004,1705454159,3,4877,5042,15.77,2.16,30,42,0,0
258877,1705674096,3,5054,5257,15.77,2.31,30,42,0,0
259287,1705771185,3,5256,5228,15.8,2.26,30,42,0,0
259773,1705892392,3,5228,5228,15.79,2.46,30,42,0,0
260179,1705999047,3,5253,5442,15.79,2.41,30,42,0,0
261022,1706205807,3,5429,5128,15.81,2.04,30,43,0,0
261452,1706313515,3,5128,5157,15.86,2.12,30,43,0,0
261889,1706425601,3,5151,5100,15.88,1.96,30,43,0,0
262375,1706543072,3,5101,5114,15.84,2.36,30,43,0,0
262782,1706649593,3,5102,5028,15.84,2.04,30,43,0,0
263190,1706747316,3,5028,5042,15.77,2.27,30,43,0,0
263629,1706854156,3,5042,5100,15.8,2.5,30,43,0,0
264083,1706969523,3,5125,5442,15.73,2.67,30,43,0,0
264528,1707076238,3,5442,5442,15.73,2.91,30,43,0,0
265003,1707188535,3,5455,5728,15.68,3.28,30,43,0,0
265459,1707303093,3,5731,5771,15.69,2.86,30,43,0,0
265859,1707403397,3,5770,5742,15.63,3.06,30,44,0,0
266354,1707526315,3,5744,5771,15.73,2.96,30,44,0,0
266790,1707629604,3,5766,5700,15.66,2.94,30,44,0,0
267240,1707740111,3,5702,5728,15.67,3.1,30,44,0,0
267646,1707844123,3,5732,5785,15.73,2.93,30,44,0,0
268052,1707943442,3,5783,5714,15.7,2.91,30,44,0,0
268521,1708061362,3,5715,5742,15.63,2.96,30,44,0,0
268948,1708167640,3,5740,5728,15.69,2.94,30,44,0,0
269350,1708271976,3,5731,5857,15.72,3.15,30,44,0,0
269799,1708387619,3,5857,5857,15.66,2.95,30,44,0,0
270247,1708498083,3,5848,5728,15.64,3.02,30,44,0,0
270691,1708609114,3,5733,5814,15.66,2.96,30,45,0,0
271142,1708721403,3,5812,5800,15.61,3.06,30,45,0,0
271547,1708823298,3,5800,5800,15.69,3.1,30,45,0,0
271993,1708931395,3,5800,5814,15.67,2.81,30,45,0,0
272444,1709044951,3,5814,5814,15.69,3.02,30,45,0,0
272967,1709169501,3,5772,5485,15.67,2.75,30,45,0,0
273317,1709261720,3,5498,5771,15.69,3,30,45,0,0
273749,1709368599,3,5770,5742,15.66,2.93,30,45,0,0
274194,1709481518,3,5757,5914,15.6,3.13,30,45,0,0
274637,1709593065,3,5906,5828,15.65,3.09,30,45,0,0
275086,1709702475,3,5830,5857,15.61,3.1,30,45,0,0
275491,1709806015,3,5857,5871,15.69,3.11,30,46,0,0
275975,1709917318,3,5871,5885,15.67,3.29,30,46,0,0
276428,1710031761,3,5887,5942,15.62,3.09,30,46,0,0
277350,1710253229,3,5947,6085,15.67,3.47,30,46,0,0
277805,1710361727,3,6068,5857,15.72,3.15,30,46,0,0
278247,1710470316,3,5858,5971,15.7,3.09,30,46,0,0
278651,1710572053,3,5971,6028,15.63,3.36,30,46,0,0
279113,1710683630,3,6024,5957,15.63,3.57,30,46,0,0
280392,1711008082,3,5957,5971,15.67,3.23,30,47,0,0
280840,1711118173,3,5969,5942,15.68,3.1,30,47,0,0
281245,1711224079,3,5932,5742,15.65,2.87,30,47,0,0
281701,1711335785,3,5750,5842,15.64,3.29,30,47,0,0
282106,1711442130,3,5847,5928,15.72,3.06,30,47,0,0
282558,1711558296,3,5897,5728,15.7,2.84,30,47,0,0
282996,1711658951,3,5734,5800,15.6,3.39,30,47,0,0
283449,1711775301,3,5845,6157,15.63,3.8,30,47,0,0
283856,1711875968,3,6152,6100,15.57,3.53,30,47,0,0
284297,1711985607,3,6094,6042,15.71,3.05,30,48,0,0
284725,1712095097,3,6034,5957,15.68,3.21,30,48,0,0
285117,1712197978,3,5956,5942,15.63,3.04,30,48,0,0
285612,1712314561,3,5932,5828,15.77,2.89,30,48,0,0
286018,1712416305,3,5810,5571,15.73,2.44,30,48,0,0
286462,1712523939,3,5575,5671,15.7,3.39,30,48,0,0
286909,1712637182,3,5679,5771,15.72,2.66,30,48,0,0
287362,1712747676,3,5751,5571,15.66,3,30,48,0,0
287763,1712849192,3,5573,5642,15.76,2.83,30,48,0,0
288243,1712963637,3,5630,5528,15.83,2.15,30,48,0,0
288650,1713063325,3,5511,5300,15.83,2.52,30,48,0,0
289093,1713174525,3,5306,5457,15.83,2.85,30,48,0,0
289543,1713284535,3,5460,5500,15.7,2.59,30,49,0,0
291288,1713717503,3,5498,5314,15.74,2.82,30,49,0,0
291729,1713829173,3,5324,5457,15.62,3.09,30,49,0,0
292175,1713936538,3,5449,5314,15.75,2.6,30,49,0,0
292625,1714051632,3,5327,5471,15.63,2.79,30,49,0,0
293069,1714163752,3,5463,5400,15.65,2.7,30,49,0,0
293514,1714271509,3,5415,5557,15.71,2.71,30,49,0,0
293913,1714370963,3,5563,5700,15.66,2.97,30,49,0,0
294404,1714494793,3,5700,5700,15.74,2.91,30,49,0,0
294802,1714594136,3,5697,5671,15.79,2.67,30,50,0,0
295251,1714703637,3,5652,5428,15.77,2.41,30,50,0,0
295688,1714811976,3,5426,5414,15.68,2.52,30,50,0,0
296121,1714923358,3,5405,5300,15.71,2.3,30,50,0,0
296556,1715035500,3,5297,5271,15.75,2.76,30,50,0,0
297004,1715143184,3,5280,5414,15.72,2.51,30,50,0,0
297411,1715248738,3,5420,5528,15.71,2.55,30,50,0,0
298293,1715462701,3,5526,5414,15.73,2.58,30,50,0,0
298744,1715575184,3,5413,5371,15.7,2.6,30,50,0,0
299631,1715791260,3,5369,5328,15.69,2.75,30,50,0,0
300086,1715904709,3,5346,5542,15.76,2.66,30,50,0,0
300488,1716003973,3,5538,5457,15.7,2.53,30,51,0,0
300933,1716113776,3,5437,5200,15.7,2.49,30,51,0,0
301325,1716217584,3,5203,5285,15.75,2.22,30,51,0,0
302228,1716441356,3,5282,5228,15.81,2.54,30,51,0,0
302677,1716550614,3,5222,5171,15.78,2.25,30,51,0,0
303527,1716762585,3,5171,5171,15.83,1.99,30,51,0,0
304378,1716974523,3,5171,5200,15.75,2.37,30,51,0,0
304864,1717091760,3,5209,5300,15.81,2.69,30,51,0,0
305707,1717303307,3,5299,5185,15.79,2.32,30,51,0,0
306191,1717421202,3,5209,5457,15.69,2.86,30,51,0,0
307048,1717633039,3,5464,5614,15.66,3.07,30,52,0,0
307498,1717741349,3,5614,5628,15.77,2.46,30,52,0,0
307909,1717847966,3,5622,5485,15.75,2.63,30,52,0,0
308357,1717959737,3,5485,5485,15.71,2.6,30,52,0,0
308785,1718068913,3,5475,5357,15.74,2.43,30,52,0,0
309216,1718182334,3,5343,5214,15.73,2.22,30,52,0,0
309622,1718282315,3,5211,5100,15.72,2.18,30,52,0,0
310069,1718393827,3,5102,5128,15.79,2.15,30,52,0,0
310517,1718503136,3,5130,5157,15.77,2.44,30,52,0,0
310956,1718609280,3,5159,5200,15.68,2.62,30,52,0,0
311850,1718827530,3,5200,5200,15.76,2.46,30,52,0,0
313023,1719145692,3,5198,5014,15.67,2.19,30,53,0,0
313519,1719271066,3,5040,5357,15.79,2.79,30,53,0,0
313912,1719369543,3,5357,5371,15.77,2.44,30,53,0,0
314340,1719479632,3,5371,5371,15.79,2.65,30,53,0,0
314768,1719591627,3,5374,5457,15.77,2.59,30,53,0,0
315263,1719710318,3,5444,5314,15.72,2.68,30,53,0,0
315623,1719803589,3,5319,5600,15.71,2.72,30,53,0,0
316116,1719921401,3,5590,5500,15.76,2.47,30,53,0,0
316551,1720025270,3,5499,5485,15.69,2.76,30,53,0,0
317002,1720137089,3,5481,5414,15.75,2.46,30,53,0,0
317447,1720248072,3,5415,5442,15.75,2.51,30,53,0,0
317937,1720364780,3,5444,5471,15.72,2.56,30,54,0,0
318344,1720465626,3,5469,5314,15.76,2.55,30,54,0,0
318787,1720575525,3,5314,5357,15.76,2.64,30,54,0,0
319242,1720689218,3,5359,5428,15.7,2.57,30,54,0,0
319682,1720795135,3,5422,5300,15.72,2.45,30,54,0,0
320577,1721016943,3,5294,5185,15.79,2,30,54,0,0
321028,1721125095,3,5166,4928,15.77,1.95,30,54,0,0
321464,1721236101,3,4940,5057,15.77,2.07,30,54,0,0
321891,1721342060,3,5037,4842,15.79,1.75,30,54,0,0
322327,1721447149,3,4839,4771,15.75,1.72,30,54,0,0
322812,1721565107,3,4780,4871,15.7,1.93,30,54,0,0
323258,1721673056,3,4881,5000,15.76,2.23,30,54,0,0
323663,1721776550,3,5001,5071,15.73,2.43,30,54,0,0
324112,1721886482,3,5079,5157,15.73,2.42,30,54,0,0
324553,1721992522,3,5162,5242,15.68,2.44,30,55,0,0
325007,1722104342,3,5222,5014,15.78,1.85,30,55,0,0
325453,1722216092,3,5009,4942,15.75,1.98,30,55,0,0
325897,1722322045,3,4937,4871,15.7,1.75,30,55,0,0
326344,1722435741,3,4864,4771,15.66,2.01,29,55,0,0
326794,1722544935,3,4772,4785,15.76,1.58,30,55,0,0
327238,1722655279,3,4793,4871,15.7,2.08,30,55,0,0
327689,1722762980,3,4881,4985,15.77,2.21,29,55,0,0
328092,1722865411,3,4989,5085,15.77,2.54,30,55,0,0
328541,1722977601,3,5105,5328,15.73,2.49,30,55,0,0
328985,1723084326,3,5331,5400,15.75,2.84,29,55,0,0
329418,1723189566,3,5395,5228,15.68,2.41,30,55,0,0
329845,1723297277,3,5228,5257,15.78,2.36,29,55,0,0
330280,1723411659,3,5268,5414,15.73,2.42,30,55,0,0
330728,1723519825,3,5404,5314,15.74,2.27,30,56,0,0
331210,1723638816,3,5314,5314,15.76,2.37,30,56,0,0
331619,1723735503,3,5309,5228,15.72,2.34,30,56,0,0
332105,1723856342,3,5237,5300,15.71,2.64,30,56,0,0
333440,1724181966,3,5299,5285,15.75,2.51,29,56,0,0
333885,1724290519,3,5285,5285,15.79,2.42,29,56,0,0
334295,1724399124,3,5281,5257,15.74,2.37,30,56,0,0
334699,1724498508,3,5257,5271,15.74,2.71,30,56,0,0
335149,1724614967,3,5267,5228,15.74,2.32,29,56,0,0
335599,1724725510,3,5220,5157,15.73,2.34,29,56,0,0
336007,1724829832,3,5167,5271,15.77,2.35,30,56,0,0
336457,1724935247,3,5271,5300,15.7,2.52,30,56,0,0
337795,1725267107,3,5291,5014,15.8,2.27,30,57,0,0
338682,1725480591,3,5021,5300,15.72,2.31,29,57,0,0
339130,1725594179,3,5300,5300,15.73,2.79,29,57,0,0
339577,1725700892,3,5303,5428,15.7,2.79,29,57,0,0
340015,1725811537,3,5439,5628,15.74,2.74,30,57,0,0
340447,1725922615,3,5625,5442,15.75,2.56,30,57,0,0
340919,1726038506,3,5440,5428,15.72,2.79,29,57,0,0
341328,1726140346,3,5428,5471,15.74,2.6,29,57,0,0
341769,1726249535,3,5469,5414,15.69,2.58,29,57,0,0
342301,1726375768,3,5416,5442,15.73,2.44,30,57,0,0
342704,1726476528,3,5434,5328,15.7,2.42,29,57,0,0
343155,1726589933,3,5319,5228,15.7,2.51,30,58,0,0
343557,1726689661,3,5231,5500,15.7,2.6,29,58,0,0
344450,1726909211,3,5499,5414,15.72,2.63,29,58,0,0
344903,1727021312,3,5414,5428,15.78,2.46,30,58,0,0
345352,1727128874,3,5427,5414,15.73,2.54,30,58,0,0
345837,1727247521,3,5410,5371,15.76,2.55,29,58,0,0
346241,1727346265,3,5370,5328,15.72,2.47,30,58,0,0
346725,1727461758,3,5347,5557,15.63,3.14,30,58,0,0
347087,1727561598,3,5556,5528,15.64,2.86,30,58,0,0
347556,1727678225,3,5544,5714,15.67,2.84,29,58,0,0
347989,1727789565,3,5696,5557,15.7,2.89,29,58,0,0
348398,1727892482,3,5557,5557,15.67,2.9,30,59,0,0
348802,1727995309,3,5560,5828,15.65,3.26,29,59,0,0
349247,1728101310,3,5826,5728,15.64,3.01,29,59,0,0
349733,1728219515,3,5725,5685,15.7,2.85,29,59,0,0
350179,1728329305,3,5695,5800,15.66,2.95,29,59,0,0
350625,1728440569,3,5780,5585,15.66,2.96,30,59,0,0
351073,1728549512,3,5592,5671,15.72,2.98,29,59,0,0
351478,1728653506,3,5674,5728,15.64,2.94,30,59,0,0
352369,1728874173,3,5728,5742,15.62,3.07,29,59,0,0
352814,1728985371,3,5740,5728,15.72,2.97,29,59,0,0
353222,1729088965,3,5723,5657,15.73,2.75,30,60,0,0
353630,1729194975,3,5644,5457,15.66,2.7,30,60,0,0
354081,1729307311,3,5457,5457,15.66,2.79,29,60,0,0
354512,1729412166,3,5459,5500,15.71,3,30,60,0,0
354942,1729523614,3,5500,5500,15.69,2.73,29,60,0,0
355346,1729625050,3,5501,5514,15.72,2.71,29,60,0,0
355793,1729734874,3,5512,5471,15.65,2.61,30,60,0,0
356239,1729847387,3,5466,5414,15.69,2.37,29,60,0,0
356687,1729953159,3,5410,5371,15.7,2.58,30,60,0,0
357129,1730063049,3,5367,5314,15.67,2.58,30,60,0,0
357535,1730165540,3,5313,5300,15.66,2.64,30,60,0,0
358022,1730281706,3,5303,5342,15.73,2.2,29,60,0,0
358427,1730384071,3,5329,5057,15.7,2.08,29,61,0,0
358878,1730499741,3,5072,5214,15.63,2.4,30,61,0,0
359326,1730605844,3,5212,5200,15.69,2.6,30,61,0,0
359808,1730722760,3,5222,5342,15.7,2.74,30,61,0,0
360222,1730831393,3,5337,5300,15.67,2.8,30,61,0,0
360673,1730942771,3,5321,5471,15.64,2.7,30,61,0,0
361058,1731047763,3,5482,5557,15.7,2.98,30,61,0,0
361497,1731160748,3,5547,5485,15.66,3.15,29,61,0,0
361895,1731260404,3,5507,5714,15.64,2.98,30,61,0,0
362307,1731363946,3,5715,5742,15.64,3,29,61,0,0
362786,1731476533,3,5739,5714,15.67,3.19,30,61,0,0
363188,1731579565,3,5716,5757,15.66,3.12,30,61,0,0
363678,1731698384,3,5772,5914,15.69,3.23,30,62,0,0
364086,1731802479,3,5897,5742,15.66,2.94,29,62,0,0
364939,1732015055,3,5731,5500,15.77,2.61,30,62,0,0
365389,1732124122,3,5483,5342,15.77,2.37,29,62,0,0
365830,1732240171,3,5339,5314,15.76,2.56,29,62,0,0
366277,1732349123,3,5311,5285,15.77,2.41,29,62,0,0
366663,1732445056,3,5282,5242,15.76,2.28,29,62,0,0
367096,1732556170,3,5256,5414,15.72,2.91,30,62,0,0
367540,1732670587,3,5419,5471,15.75,2.5,30,62,0,0
367992,1732783171,3,5474,5500,15.78,2.58,30,62,0,0
368433,1732888104,3,5497,5471,15.77,2.59,30,62,0,0
369283,1733097269,3,5468,5171,15.86,2.09,30,63,0,0
369761,1733212131,3,5161,5071,15.86,2.07,29,63,0,0
370213,1733323125,3,5076,5128,15.79,2.38,30,63,0,0
370656,1733435509,3,5134,5185,15.82,2.18,30,63,0,0
371063,1733535062,3,5184,5171,15.82,2.41,30,63,0,0
371508,1733646585,3,5172,5214,15.83,2.06,30,63,0,0
371917,1733748265,3,5214,5271,15.72,2.7,29,63,0,0
372810,1733968960,3,5272,5342,15.81,2.59,30,63,0,0
373203,1734072473,3,5344,5500,15.73,2.68,30,63,0,0
373666,1734184623,3,5500,5514,15.76,2.86,30,63,0,0
374112,1734290198,3,5511,5400,15.67,2.49,30,63,0,0
375001,1734509762,3,5401,5457,15.78,2.69,29,63,0,0
375450,1734618789,3,5447,5328,15.77,2.29,30,64,0,0
375900,1734731505,3,5318,5185,15.8,2.06,29,64,0,0
376803,1734951529,3,5184,5157,15.73,2.03,30,64,0,0
377250,1735065405,3,5146,5042,15.75,2.11,30,64,0,0
377644,1735164118,3,5040,4985,15.75,2.03,30,64,0,0
378077,1735275128,3,4982,4928,15.72,2.19,29,64,0,0
378502,1735383089,3,4931,5028,15.75,2.39,29,64,0,0
378991,1735498760,3,5029,5042,15.79,1.93,30,64,0,0
379437,1735606382,3,5033,4957,15.82,2.18,29,64,0,0
379884,1735714504,3,4962,5028,15.78,2.16,30,64,0,0
380284,1735815925,3,5039,5300,15.77,2.43,29,64,0,0
380733,1735923292,3,5294,5171,15.72,2.17,30,64,0,0
381630,1736143255,3,5173,5257,15.67,2.69,30,65,0,0
382070,1736250123,3,5265,5471,15.7,2.92,29,65,0,0
382512,1736362130,3,5471,5500,15.74,2.57,29,65,0,0
382885,1736471125,3,5492,5400,15.59,2.91,30,65,0,0
383321,1736584434,3,5403,5442,15.73,2.47,30,65,0,0
383766,1736689731,3,5448,5542,15.63,2.73,30,65,0,0
384211,1736803745,3,5512,5100,15.76,2.13,30,65,0,0
384660,1736910597,3,5105,5157,15.75,2.46,30,65,0,0
385104,1737021738,3,5167,5271,15.7,2.42,30,65,0,0
385515,1737123935,3,5272,5342,15.69,2.53,30,65,0,0
385959,1737234983,3,5332,5214,15.7,2.22,30,65,0,0
386405,1737343499,3,5219,5300,15.63,2.38,30,65,0,0
386853,1737454785,3,5299,5285,15.72,2.57,29,65,0,0
387263,1737560640,3,5283,5242,15.73,2.33,30,65,0,0
387685,1737666251,3,5245,5300,15.71,2.47,29,66,0,0
388118,1737779569,3,5309,5442,15.65,2.74,29,66,0,0
388529,1737882974,3,5450,5628,15.57,3.08,29,66,0,0
388979,1737997560,3,5623,5571,15.61,2.7,29,66,0,0
389388,1738100134,3,5571,5614,15.66,2.92,29,66,0,0
389831,1738207289,3,5615,5642,15.7,2.79,29,66,0,0
390724,1738427406,3,5638,5485,15.69,2.59,29,66,0,0
391170,1738532377,3,5484,5442,15.6,2.74,30,66,0,0
391651,1738645516,3,5441,5428,15.66,2.81,30,66,0,0
392099,1738753623,3,5433,5514,15.76,2.57,30,66,0,0
392547,1738866411,3,5496,5314,15.72,2.24,29,66,0,0
392951,1738975631,3,5311,5285,15.71,2.37,29,67,0,0
393387,1739086575,3,5288,5328,15.66,2.53,29,67,0,0
393813,1739198139,3,5336,5414,15.66,2.6,29,67,0,0
394222,1739299723,3,5406,5285,15.73,2.26,30,67,0,0
394666,1739405285,3,5281,5200,15.73,2.25,30,67,0,0
395153,1739524123,3,5202,5228,15.67,2.43,29,67,0,0
395593,1739625885,3,5221,5185,15.75,2.3,29,67,0,0
396044,1739736228,3,5186,5200,15.7,2.3,29,67,0,0
396479,1739838609,3,5202,5242,15.71,2.36,30,67,0,0
396929,1739951539,3,5247,5314,15.67,2.45,29,67,0,0
397376,1740058532,3,5314,5314,15.75,2.43,29,67,0,0
398266,1740279539,3,5311,5271,15.69,2.41,29,67,0,0
398670,1740381713,3,5269,5228,15.68,2.3,30,67,0,0
399159,1740499103,3,5226,5214,15.69,2.18,29,68,0,0
399563,1740598736,3,5214,5214,15.61,2.47,30,68,0,0
400016,1740711499,3,5234,5400,15.63,2.71,30,68,0,0
400456,1740820397,3,5395,5328,15.69,2.37,30,68,0,0
400903,1740929327,3,5339,5457,15.69,2.76,30,68,0,0
401347,1741038714,3,5445,5300,15.72,2.25,29,68,0,0
401792,1741144315,3,5298,5285,15.7,2.46,30,68,0,0
402238,1741255272,3,5283,5271,15.67,2.5,30,68,0,0
403127,1741471313,3,5278,5485,15.58,2.79,30,68,0,0
403570,1741580959,3,5479,5371,15.66,2.83,30,68,0,0
404024,1741694365,3,5373,5400,15.67,2.62,29,68,0,0
404424,1741795751,3,5402,5500,15.69,2.49,30,69,0,0
404876,1741907922,3,5498,5385,15.67,2.36,30,69,0,0
405324,1742021050,3,5382,5357,15.67,2.4,30,69,0,0
405770,1742126572,3,5354,5314,15.67,2.51,29,69,0,0
406219,1742242700,3,5316,5342,15.72,2.53,29,69,0,0
406667,1742351155,3,5336,5285,15.66,2.24,29,69,0,0
407093,1742458569,3,5280,5171,15.69,2.16,29,69,0,0
407559,1742573488,3,5174,5214,15.67,2.16,30,69,0,0
407966,1742672961,3,5212,5128,15.7,2.07,30,69,0,0
408410,1742783697,3,5130,5200,15.66,2.27,30,69,0,0
408898,1742895319,3,5200,5214,15.69,2.32,29,69,0,0
409343,1743005201,3,5208,5142,15.65,2.34,29,69,0,0
409745,1743106386,3,5145,5228,15.72,2.33,30,69,0,0
410188,1743216291,3,5228,5257,15.67,2.37,29,69,0,0
410643,1743327507,3,5258,5271,15.72,2.71,29,69,0,0
411049,1743435073,3,5271,5285,15.7,2.49,30,70,0,0
411501,1743543383,3,5290,5400,15.7,2.21,29,70,0,0
411949,1743657338,3,5393,5328,15.64,2.5,29,70,0,0
412392,1743761605,3,5326,5300,15.64,2.51,29,70,0,0
412840,1743874342,3,5309,5400,15.7,2.45,30,70,0,0
413283,1743981856,3,5389,5257,15.69,2.38,29,70,0,0
413692,1744084375,3,5251,5128,15.7,2.33,29,70,0,0
414136,1744197548,3,5134,5228,15.69,2.49,30,70,0,0
414980,1744404612,3,5227,5185,15.69,2.35,29,70,0,0
415474,1744523708,3,5186,5200,15.6,2.27,29,70,0,0
415903,1744629503,3,5200,5200,15.7,2.23,29,70,0,0
416328,1744735635,3,5199,5171,15.67,2.34,29,70,0,0
416771,1744849232,3,5176,5314,15.63,2.47,30,70,0,0
417220,1744961555,3,5320,5371,15.64,2.44,29,71,0,0
417668,1745068239,3,5372,5385,15.64,2.49,29,71,0,0
418111,1745176193,3,5386,5428,15.65,2.65,29,71,0,0
418560,1745285391,3,5420,5314,15.68,2.57,30,71,0,0
419006,1745395737,3,5323,5414,15.62,2.56,29,71,0,0
419415,1745496962,3,5413,5385,15.73,2.56,30,71,0,0
419858,1745605603,3,5382,5285,15.73,2.57,29,71,0,0
420311,1745716333,3,5284,5271,15.72,2.42,29,71,0,0
420753,1745824006,3,5273,5314,15.7,2.37,29,71,0,0
421205,1745935303,3,5310,5271,15.7,2.04,29,71,0,0
421603,1746040774,3,5255,5042,15.72,1.81,29,71,0,0
422033,1746150590,3,5042,5071,15.69,2.09,29,71,0,0
422471,1746258895,3,5072,5128,15.69,2.36,29,71,0,0
422912,1746367227,3,5127,5114,15.7,2.4,29,71,0,0
423362,1746478790,3,5121,5285,15.64,2.45,29,72,0,0
423771,1746586130,3,5285,5314,15.7,2.28,29,72,0,0
424255,1746699264,3,5305,5228,15.74,2.25,29,72,0,0
424704,1746813694,3,5223,5157,15.75,1.97,29,72,0,0
425152,1746922095,3,5154,5128,15.71,2.38,29,72,0,0
425560,1747028282,3,5131,5171,15.74,2.14,29,72,0,0
426447,1747247968,3,5174,5228,15.74,2.2,29,72,0,0
426896,1747358065,3,5213,5100,15.71,2.03,29,72,0,0
427282,1747460618,3,5099,5071,15.73,2.4,29,72,0,0
427713,1747570779,3,5072,5200,15.73,2.26,29,72,0,0
428591,1747786584,3,5198,5028,15.63,2.07,29,72,0,0
429090,1747909592,3,5049,5242,15.6,2.59,29,72,0,0
429983,1748128266,3,5239,5128,15.51,2.21,29,73,0,0
430378,1748230257,3,5125,5028,15.68,1.97,29,73,0,0
430832,1748344484,3,5027,5014,15.65,2,30,73,0,0
431278,1748450787,3,5003,4900,15.7,1.9,29,73,0,0
431683,1748553147,3,4898,4828,15.69,1.87,29,73,0,0
432600,1748771128,3,4834,4957,15.7,2.14,29,73,0,0
433029,1748879091,3,4953,4871,15.73,2.04,29,73,0,0
433464,1748992567,3,4871,4871,15.7,2.02,29,73,0,0
433916,1749103149,3,4878,4928,15.67,2.04,29,73,0,0
434359,1749212702,3,4917,4800,15.71,1.98,29,73,0,0
434839,1749322538,3,4802,4828,15.8,1.85,29,73,0,0
435235,1749419255,3,4831,4971,15.64,2.53,29,73,0,0
435688,1749529704,3,4970,4957,15.77,1.89,29,73,0,0
436134,1749642814,3,4818,3357,16.12,0.18,29,73,0,0
436583,1749751586,3,3274,2100,16.02,0.01,29,73,0,0
437017,1749858544,3,2092,1914,16.2,0.18,29,73,0,0
437473,1749971092,3,1929,2114,16.13,0.27,29,73,0,0
437920,1750082166,3,2099,1971,16.12,0.12,29,73,0,0
438365,1750190750,3,1966,1900,16.12,0.17,29,73,0,0
438808,1750301494,3,1901,2000,16.13,0.23,29,73,0,0
439249,1750413161,3,1998,1971,16.12,0.15,29,73,0,0
439694,1750521916,3,1970,1957,16.13,0.2,29,73,0,0
440544,1750733588,3,1957,1957,16.13,0.18,29,73,0,0
440985,1750841625,3,1958,2014,16.11,0.25,29,73,0,0
441480,1750965623,3,2013,2000,16.13,0.17,29,73,0,0
441890,1751064351,3,1999,1985,16.13,0.18,29,73,0,0
442340,1751175738,3,1986,2014,16.14,0.19,29,73,0,0
442785,1751280261,3,2014,2014,16.14,0.21,29,74,0,0
443191,1751384400,3,2014,2028,16.13,0.21,29,74,0,0
443672,1751492055,3,2027,2014,16.14,0.18,29,74,0,0
444108,1751601142,3,2013,2000,16.19,0.21,29,74,0,0
444542,1751711596,3,1991,1771,16.2,0.02,29,74,0,0
444969,1751816340,3,1754,1428,16.2,0.01,29,74,0,0
445427,1751927499,3,1424,1342,16.19,0.07000000000000001,29,74,0,0
445871,1752034535,3,1341,1328,16.19,0.08,29,74,0,0
446321,1752140380,3,1327,1314,16.19,0.09,29,74,0,0
446803,1752254932,3,1314,1328,16.2,0.09,29,74,0,0
447213,1752355591,3,1327,1314,16.19,0.09,29,74,0,0
447659,1752465057,3,1314,1314,16.2,0.09,29,74,0,0
448106,1752575577,3,1314,1328,16.2,0.09,29,74,0,0
448598,1752691978,3,1327,1314,16.2,0.09,29,74,0,0
449045,1752802882,3,1315,1328,16.21,0.09,29,74,0,0
449491,1752906266,3,1327,1314,16.21,0.09,29,74,0,0
449967,1753019203,3,1314,1314,16.2,0.09,29,74,0,0
450397,1753129625,3,1314,1314,16.22,0.09,29,74,0,0
450805,1753234521,3,1314,1314,16.22,0.09,29,74,0,0
451255,1753345268,3,1314,1314,16.22,0.09,29,74,0,0
451731,1753453725,3,1314,1314,16.22,0.09,29,74,0,0
452584,1753661577,3,1314,1314,16.22,0.09,29,74,0,0
453031,1753768703,3,1314,1314,16.22,0.09,29,74,0,0
453476,1753871619,3,1314,1314,16.22,0.09,29,74,0,0
453918,1753977133,3,1314,1314,16.23,0.09,29,74,0,0
454409,1754091046,3,1314,1314,16.22,0.09,29,74,0,0
454853,1754199627,3,1314,1314,16.23,0.09,29,74,0,0
455772,1754420775,3,1314,1314,16.23,0.09999999,29,74,0,0
456158,1754516535,3,1314,1314,16.23,0.09,29,74,0,0
456600,1754628610,3,1314,1314,16.24,0.09,29,74,0,0
457045,1754734091,3,1314,1314,16.23,0.09,29,74,0,0
457492,1754845494,3,1314,1314,16.24,0.09,29,74,0,0
457941,1754955189,3,1314,1328,16.23,0.09,29,74,0,0
458391,1755060113,3,1328,1328,16.24,0.09,29,74,0,0
458838,1755170077,3,1327,1314,16.23,0.09,29,74,0,0
459291,1755279339,3,1314,1314,16.24,0.09,29,74,0,0
459748,1755392325,3,1314,1314,16.24,0.09,29,74,0,0
460155,1755492488,3,1314,1314,16.24,0.09,29,74,0,0
460599,1755597967,3,1314,1314,16.25,0.09,29,74,0,0
461088,1755713282,3,1315,1328,16.25,0.09,29,74,0,0
461535,1755824099,3,1328,1328,16.25,0.09,29,74,0,0
461986,1755930605,3,1328,1328,16.25,0.09,29,74,0,0
462432,1756038913,3,1326,1314,16.25,0.09,29,74,0,0
463321,1756251517,3,1314,1314,16.25,0.09,29,74,0,0
463774,1756361931,3,1314,1314,16.25,0.09,29,74,0,0
464209,1756469689,3,1315,1328,16.26,0.09,29,74,0,0
464637,1756578055,3,1328,1328,16.26,0.09,29,74,0,0
465088,1756686934,3,1328,1328,16.26,0.09,29,74,0,0
465977,1756905155,3,1328,1328,16.25,0.09,29,74,0,0
466386,1757003157,3,1328,1328,16.26,0.09,29,74,0,0
466836,1757109527,3,1327,1314,16.26,0.09,29,74,0,0
467275,1757214289,3,1314,1328,16.26,0.09,29,74,0,0
467726,1757322598,3,1328,1328,16.26,0.09,29,74,0,0
468212,1757444271,3,1328,1328,16.26,0.09,29,74,0,0
468692,1757552904,3,1328,1328,16.27,0.09,28,74,0,0
469075,1757650746,3,1328,1328,16.26,0.09,28,74,0,0
469508,1757759207,3,1328,1328,16.27,0.09,28,74,0,0
469959,1757871933,3,1328,1328,16.27,0.09,29,74,0,0
470363,1757966175,3,1327,1314,16.27,0.09,28,74,0,0
470848,1758082161,3,1315,1328,16.27,0.09,28,74,0,0
471289,1758187225,3,1328,1328,16.27,0.09,28,74,0,0
471741,1758295873,3,1328,1328,16.27,0.09,28,74,0,0
472634,1758511159,3,1328,1328,16.27,0.09,29,74,0,0
473107,1758625722,3,1328,1328,16.27,0.09,28,74,0,0
473535,1758732300,3,1328,1328,16.27,0.09,28,74,0,0
473965,1758835177,3,1328,1328,16.27,0.09,28,74,0,0
474418,1758942338,3,1328,1328,16.27,0.09,29,74,0,0
474865,1759051847,3,1328,1328,16.28,0.09,28,74,0,0
475313,1759162405,3,1328,1342,16.28,0.09,28,74,0,0
475758,1759266613,3,1341,1328,16.28,0.09,28,74,0,0
476250,1759383411,3,1328,1328,16.27,0.09,28,74,0,0
476696,1759489112,3,1328,1328,16.28,0.09,28,74,0,0
477094,1759591348,3,1328,1328,16.28,0.09,28,74,0,0
477560,1759706316,3,1328,1328,16.29,0.09,28,74,0,0
477951,1759806395,3,1328,1328,16.29,0.09,28,74,0,0
478444,1759922625,3,1328,1328,16.28,0.09,28,74,0,0
478846,1760022510,3,1328,1328,16.29,0.09,28,74,0,0
479337,1760135777,3,1328,1328,16.29,0.09,28,74,0,0
479775,1760239875,3,1328,1328,16.29,0.09,28,74,0,0
480268,1760356325,3,1328,1328,16.29,0.09,28,74,0,0
480716,1760465576,3,1326,1314,16.29,0.09,28,74,0,0
481126,1760565268,3,1314,1328,16.29,0.09,28,74,0,0
481615,1760679569,3,1328,1328,16.29,0.09,28,74,0,0
482050,1760786435,3,1328,1328,16.29,0.09,28,74,0,0
482476,1760890641,3,1328,1328,16.29,0.09,28,74,0,0
482917,1761005060,3,1328,1328,16.29,0.09,28,74,0,0
483367,1761108613,3,1328,1328,16.29,0.09,28,74,0,0
483806,1761220936,3,1328,1328,16.3,0.09,28,74,0,0
484257,1761326576,3,1328,1328,16.29,0.09999999,28,74,0,0
484707,1761444179,3,1328,1328,16.3,0.09,28,74,0,0
485197,1761559322,3,1328,1328,16.29,0.09,28,74,0,0
486078,1761771615,3,1293,600,16.31,0.01,28,74,0,0
486527,1761875784,3,560,185,16.31,0.01,28,74,0,0
486978,1761984555,3,168,0,16.32,0.02,28,74,0,0
487430,1762089317,3,0,0,16.32,0.02,28,74,0,0
487918,1762201931,3,0,0,16.32,0.02,28,74,0,0
488369,1762308153,3,0,0,16.31,0.02,28,74,0,0
488824,1762418309,3,0,0,16.32,0.02,28,74,0,0
489275,1762523302,3,0,0,16.32,0.02,28,74,0,0
489716,1762633078,3,0,0,16.32,0.02,28,74,0,0
490147,1762737526,3,0,0,16.32,0.02,28,74,0,0
490591,1762846322,3,0,0,16.32,0.02,28,74,0,0
491048,1762950984,3,0,0,16.32,0.02,28,74,0,0
491542,1763068966,3,0,0,16.32,0.02,28,74,0,0
491945,1763170115,3,0,0,16.32,0.02,28,74,0,0
492399,1763278258,3,0,0,16.32,0.02,28,74,0,0
492854,1763386351,3,0,0,16.32,0.02,28,74,0,0
493305,1763489729,3,0,0,16.32,0.02,28,74,0,0
493791,1763605127,3,0,0,16.32,0.02,28,74,0,0
494225,1763710313,3,0,0,16.32,0.02,28,74,0,0
494664,1763817359,3,0,0,16.32,0.02,28,74,0,0
495164,1763930620,3,0,0,16.32,0.02,28,74,0,0
495615,1764038773,3,0,0,16.33,0.02,28,74,0,0
496067,1764144187,3,0,0,16.32,0.02,28,74,0,0
496558,1764258755,3,0,0,16.33,0.02,28,74,0,0
497010,1764367791,3,0,0,16.32,0.02,28,74,0,0
497459,1764471186,3,0,0,16.32,0.02,28,74,0,0
497904,1764579166,3,0,0,16.33,0.02,28,74,0,0
498813,1764797954,3,0,0,16.33,0.02,28,74,0,0
499270,1764905593,3,0,0,16.33,0.02,28,74,0,0
499723,1765015984,3,0,0,16.33,0.01,28,74,0,0
501120,1765343512,3,0,0,16.33,0.02,28,74,0,0
501551,1765447971,3,0,0,16.33,0.02,28,74,0,0
501985,1765552741,3,0,0,16.33,0.02,28,74,0,0
502432,1765659597,3,0,0,16.33,0.02,28,74,0,0
502886,1765771977,3,0,0,16.33,0.02,28,74,0,0
503342,1765878058,3,0,0,16.33,0.02,28,74,0,0
503794,1765987388,3,0,0,16.33,0.02,28,74,0,0
504291,1766101634,3,0,0,16.33,0.02,28,74,0,0
504741,1766209483,3,0,0,16.34,0.02,28,74,0,0
505192,1766312520,3,0,0,16.34,0.02,28,74,0,0
505638,1766419559,3,0,0,16.34,0.02,28,74,0,0
506070,1766525587,3,0,0,16.34,0.02,28,74,0,0
506509,1766631711,3,0,0,16.34,0.02,28,74,0,0
507003,1766744530,3,0,0,16.34,0.02,28,74,0,0
507458,1766853191,3,0,0,16.34,0.02,28,74,0,0
507912,1766960594,3,0,0,16.34,0.02,28,74,0,0
508364,1767068592,3,0,0,16.34,0.02,28,74,0,0
