LineNo,TimeUS,Instance,RPM,RawRPM,Volt,Curr,Temp,CTot,MotTemp,Err
1751,1.6423e+09,5,0,0,16.86,0.03,26,0,0,0
2190,1.6424e+09,5,0,0,16.86,0.03,26,0,0,0
2673,1.6425e+09,5,0,0,16.86,0.03,26,0,0,0
3127,1.6427e+09,5,0,0,16.86,0.03,26,0,0,0
3582,1.6428e+09,5,0,0,16.86,0.03,26,0,0,0
4033,1.6429e+09,5,0,0,16.86,0.03,26,0,0,0
4478,1.643e+09,5,0,0,16.87,0.03,26,0,0,0
4955,1.6431e+09,5,0,0,16.86,0.03,26,0,0,0
5390,1.6432e+09,5,0,0,16.86,0.03,26,0,0,0
5889,1.6433e+09,5,0,0,16.86,0.03,26,0,0,0
6340,1.6434e+09,5,11,128,16.86,0.02,26,0,0,0
6794,1.6435e+09,5,153,514,16.85,0.08,26,0,0,0
7239,1.6436e+09,5,538,928,16.82,0.14,26,0,0,0
7670,1.6437e+09,5,940,1242,16.84,0.13,26,0,0,0
8126,1.6438e+09,5,1244,1300,16.85,0.11,26,0,0,0
8628,1.6439e+09,5,1301,1328,16.85,0.11,26,0,0,0
9077,1.6441e+09,5,1328,1357,16.85,0.11,26,0,0,0
9566,1.6442e+09,5,1357,1357,16.85,0.1,26,0,0,0
10002,1.6443e+09,5,1357,1357,16.85,0.1,26,0,0,0
10441,1.6444e+09,5,1357,1357,16.85,0.1,26,0,0,0
10938,1.6445e+09,5,1357,1357,16.85,0.11,26,0,0,0
11390,1.6446e+09,5,1357,1357,16.84,0.11,26,0,0,0
11847,1.6447e+09,5,1357,1357,16.85,0.11,26,0,0,0
12329,1.6448e+09,5,1357,1357,16.85,0.11,26,0,0,0
12764,1.6449e+09,5,1357,1357,16.85,0.1,26,0,0,0
13867,1.6452e+09,5,1357,1357,16.84,0.1,26,0,0,0
14366,1.6454e+09,5,1357,1357,16.85,0.1,26,0,0,0
14798,1.6455e+09,5,1357,1357,16.85,0.1,26,0,0,0
15235,1.6456e+09,5,1357,1357,16.85,0.1,26,0,0,0
15729,1.6457e+09,5,1357,1357,16.84,0.1,26,0,0,0
16181,1.6458e+09,5,1357,1357,16.85,0.1,26,0,0,0
16640,1.6459e+09,5,1357,1357,16.85,0.11,26,0,0,0
17126,1.646e+09,5,1357,1357,16.85,0.11,26,0,0,0
17565,1.6461e+09,5,1357,1371,16.84,0.11,26,0,0,0
18010,1.6462e+09,5,1370,1357,16.84,0.11,26,0,0,0
18439,1.6463e+09,5,1357,1357,16.85,0.1,26,0,0,0
18890,1.6464e+09,5,1357,1357,16.84,0.1,26,0,0,0
19343,1.6465e+09,5,1357,1357,16.85,0.11,26,0,0,0
19785,1.6466e+09,5,1357,1357,16.85,0.11,26,0,0,0
20262,1.6468e+09,5,1357,1357,16.85,0.11,26,0,0,0
20713,1.6469e+09,5,1357,1357,16.85,0.11,26,0,0,0
21166,1.647e+09,5,1357,1357,16.85,0.11,26,0,0,0
21588,1.6471e+09,5,1357,1357,16.84,0.1,26,0,0,0
22077,1.6472e+09,5,1357,1357,16.84,0.11,26,0,0,0
22515,1.6473e+09,5,1357,1357,16.85,0.11,26,0,0,0
23000,1.6474e+09,5,1357,1357,16.84,0.11,26,0,0,0
23450,1.6475e+09,5,1357,1357,16.84,0.11,26,0,0,0
23946,1.6476e+09,5,1361,1414,16.83,0.16,26,0,0,0
24403,1.6477e+09,5,1442,1857,16.69,0.71,26,0,0,0
24845,1.6478e+09,5,1901,2557,16.76,0.69,26,0,0,0
25283,1.6479e+09,5,2559,2600,16.8,0.56,26,0,0,0
25728,1.648e+09,5,2600,2642,16.77,0.5,26,0,0,0
26215,1.6482e+09,5,2646,2871,16.6,0.85,26,0,0,0
26716,1.6483e+09,5,2917,3400,16.49,1.56,26,0,0,0
27164,1.6484e+09,5,3438,3842,16.59,1.9,26,0,0,0
27599,1.6485e+09,5,3874,4357,16.22,2.51,26,0,0,0
28041,1.6486e+09,5,4410,4985,16.41,3.01,26,0,0,0
28453,1.6487e+09,5,4995,5614,16.27,3.6,26,0,0,0
28958,1.6488e+09,5,5621,5728,16.17,3.74,26,0,0,0
29414,1.6489e+09,5,5745,5900,16.29,3.26,26,1,0,0
29850,1.649e+09,5,5883,5657,16.35,2.44,26,1,0,0
30282,1.6491e+09,5,5650,5500,16.32,2.76,26,1,0,0
30777,1.6493e+09,5,5513,5657,16.32,2.99,26,1,0,0
31185,1.6494e+09,5,5657,5714,16.34,3.58,26,1,0,0
31682,1.6495e+09,5,5737,6042,16.33,3.98,26,1,0,0
32132,1.6496e+09,5,6060,6314,16.29,4.17,26,1,0,0
32628,1.6497e+09,5,6322,6414,16.26,4.39,26,1,0,0
33032,1.6498e+09,5,6414,6428,16.23,4.6,26,1,0,0
33509,1.6499e+09,5,6428,6428,16.21,4.38,26,1,0,0
33990,1.65e+09,5,6411,6171,16.23,3.62,26,2,0,0
34445,1.6501e+09,5,6164,6014,16.22,3.22,26,2,0,0
35384,1.6504e+09,5,6005,5814,16.25,3.41,26,2,0,0
35821,1.6505e+09,5,5816,5885,16.27,2.98,26,2,0,0
36256,1.6506e+09,5,5859,5642,16.3,3.01,26,2,0,0
36712,1.6507e+09,5,5659,5828,16.19,3.51,27,2,0,0
37166,1.6508e+09,5,5830,5857,16.22,3.5,27,2,0,0
37621,1.6509e+09,5,5868,5971,16.17,3.32,26,2,0,0
38027,1.651e+09,5,5971,5971,16.25,3.28,26,3,0,0
38527,1.6511e+09,5,5978,6085,16.16,3.85,27,3,0,0
38926,1.6512e+09,5,6086,6185,16.16,3.86,27,3,0,0
39401,1.6513e+09,5,6182,6157,16.22,3.86,27,3,0,0
39842,1.6514e+09,5,6165,6357,16.16,4.05,27,3,0,0
40343,1.6516e+09,5,6346,6242,16.22,3.73,27,3,0,0
40792,1.6517e+09,5,6218,5985,16.23,3.5,27,3,0,0
41295,1.6518e+09,5,5998,6100,16.2,3.64,27,3,0,0
41700,1.6519e+09,5,6095,6028,16.17,3.72,27,3,0,0
42574,1.6521e+09,5,6027,5914,16.22,3.36,27,4,0,0
43014,1.6522e+09,5,5913,5900,16.25,3.35,27,4,0,0
43463,1.6523e+09,5,5889,5685,16.26,3.13,27,4,0,0
43908,1.6524e+09,5,5687,5728,16.26,3.03,27,4,0,0
44357,1.6525e+09,5,5738,5842,16.17,3.22,27,4,0,0
44797,1.6526e+09,5,5843,5857,16.19,3.52,27,4,0,0
45246,1.6528e+09,5,5867,5985,16.11,3.31,27,4,0,0
45684,1.6529e+09,5,5981,5871,16.22,3.12,27,4,0,0
46129,1.653e+09,5,5860,5714,16.25,3.05,27,4,0,0
46561,1.6531e+09,5,5704,5614,16.25,2.54,27,5,0,0
47408,1.6533e+09,5,5608,5485,16.35,2.8,27,5,0,0
47844,1.6534e+09,5,5499,5771,16.26,3.13,27,5,0,0
48736,1.6536e+09,5,5773,5828,16.3,2.97,27,5,0,0
49191,1.6537e+09,5,5825,5785,16.24,3.09,27,5,0,0
49634,1.6539e+09,5,5788,5828,16.26,2.89,27,5,0,0
50083,1.654e+09,5,5811,5585,16.26,2.87,27,5,0,0
50529,1.6541e+09,5,5598,5800,16.28,2.81,27,5,0,0
50937,1.6542e+09,5,5790,5671,16.22,3.49,27,5,0,0
51390,1.6543e+09,5,5699,5985,16.25,3.17,27,6,0,0
51792,1.6544e+09,5,5985,5985,16.19,3.23,27,6,0,0
52242,1.6545e+09,5,5982,5928,16.13,3.39,27,6,0,0
52647,1.6546e+09,5,5932,5985,16.2,3.37,27,6,0,0
53073,1.6547e+09,5,5979,5900,16.26,3.33,27,6,0,0
53511,1.6548e+09,5,5919,6100,16.19,3.51,27,6,0,0
53960,1.6549e+09,5,6102,6128,16.14,3.82,27,6,0,0
54366,1.655e+09,5,6125,6071,16.19,3.45,27,6,0,0
54854,1.6552e+09,5,6066,5957,16.15,3.3,27,6,0,0
55262,1.6553e+09,5,5960,6057,16.19,3.4,27,6,0,0
55711,1.6554e+09,5,6058,6085,16.17,3.52,27,7,0,0
56196,1.6555e+09,5,6077,5971,16.14,3.48,27,7,0,0
56636,1.6556e+09,5,5971,5971,16.11,3.29,27,7,0,0
57026,1.6557e+09,5,5972,6028,16.18,3.29,27,7,0,0
57463,1.6558e+09,5,6025,5985,16.14,3.64,27,7,0,0
57914,1.6559e+09,5,5988,6057,16.1,4.06,27,7,0,0
58361,1.656e+09,5,6054,6014,16.13,3.56,27,7,0,0
58812,1.6561e+09,5,6011,5971,16.15,3.38,27,7,0,0
59219,1.6562e+09,5,5973,6128,16.17,3.51,27,7,0,0
59705,1.6564e+09,5,6117,5900,16.16,3.34,27,8,0,0
60147,1.6565e+09,5,5911,6042,16.17,3.22,27,8,0,0
60549,1.6566e+09,5,6039,5857,16.24,3.35,27,8,0,0
60975,1.6567e+09,5,5860,6057,16.16,3.26,27,8,0,0
61482,1.6568e+09,5,6046,5942,16.2,3.04,27,8,0,0
62334,1.657e+09,5,5937,5842,16.19,3.13,27,8,0,0
62785,1.6571e+09,5,5845,5871,16.19,3.3,27,8,0,0
63196,1.6572e+09,5,5880,6085,16.17,3.46,27,8,0,0
63687,1.6573e+09,5,6069,5914,16.17,3.18,27,8,0,0
64086,1.6575e+09,5,5914,5957,16.17,3.3,27,9,0,0
64534,1.6576e+09,5,5956,5885,16.13,2.95,27,9,0,0
64980,1.6577e+09,5,5885,5914,16.17,3,27,9,0,0
65465,1.6578e+09,5,5914,5914,16.19,3.19,27,9,0,0
66275,1.658e+09,5,5910,5785,16.13,3.34,27,9,0,0
66765,1.6581e+09,5,5786,5800,16.19,3.06,27,9,0,0
67126,1.6582e+09,5,5801,5842,16.22,2.88,27,9,0,0
67582,1.6583e+09,5,5839,5628,16.27,2.45,27,9,0,0
68021,1.6584e+09,5,5624,5557,16.21,2.64,27,9,0,0
68899,1.6586e+09,5,5559,5671,16.18,3.34,27,10,0,0
70201,1.659e+09,5,5673,5857,16.16,3.13,27,10,0,0
70647,1.6591e+09,5,5837,5657,16.19,2.53,27,10,0,0
71090,1.6592e+09,5,5660,5771,16.17,3.3,27,10,0,0
71536,1.6593e+09,5,5780,5900,16.13,3,27,10,0,0
71947,1.6594e+09,5,5897,5871,16.07,3.3,27,10,0,0
72355,1.6595e+09,5,5868,5785,16.17,2.97,27,10,0,0
72802,1.6596e+09,5,5790,5885,16.19,2.89,27,10,0,0
73701,1.6598e+09,5,5879,5757,16.13,3.05,27,11,0,0
74151,1.6599e+09,5,5757,5757,16.1,2.95,27,11,0,0
74554,1.66e+09,5,5754,5728,16.12,2.91,27,11,0,0
75004,1.6602e+09,5,5735,5828,16.15,3,27,11,0,0
75454,1.6603e+09,5,5819,5742,16.21,3.07,27,11,0,0
75894,1.6604e+09,5,5741,5728,16.17,2.7,27,11,0,0
76325,1.6605e+09,5,5735,5828,16.11,3.47,27,11,0,0
76715,1.6606e+09,5,5830,5942,16.13,2.57,27,11,0,0
77171,1.6607e+09,5,5936,5542,16.16,2.38,27,11,0,0
77652,1.6608e+09,5,5540,5528,16.17,3.01,27,11,0,0
78102,1.6609e+09,5,5545,5771,16.13,3.19,27,12,0,0
78509,1.661e+09,5,5778,5957,16.11,3.46,27,12,0,0
78957,1.6611e+09,5,5958,5985,16.06,3.39,27,12,0,0
79399,1.6612e+09,5,5987,6028,16.17,3.27,27,12,0,0
80249,1.6615e+09,5,6026,5957,16.11,3.22,27,12,0,0
80697,1.6616e+09,5,5949,5828,16.19,2.95,27,12,0,0
81149,1.6617e+09,5,5823,5771,16.11,2.78,27,12,0,0
81586,1.6618e+09,5,5776,5885,16.16,3.79,27,12,0,0
82037,1.6619e+09,5,5889,5957,16.13,3.65,27,12,0,0
82486,1.662e+09,5,5959,5985,16.11,3.68,27,12,0,0
82969,1.6621e+09,5,5991,6057,16.08,3.12,27,13,0,0
83411,1.6622e+09,5,6036,5828,16.12,3.12,27,13,0,0
83860,1.6623e+09,5,5830,5857,16.11,3.3,27,13,0,0
84261,1.6624e+09,5,5858,5885,16.08,3.45,27,13,0,0
84712,1.6625e+09,5,5896,6142,16.08,3.84,27,13,0,0
85115,1.6626e+09,5,6140,6057,16.04,3.51,27,13,0,0
85608,1.6628e+09,5,6044,5971,16.13,3.24,27,13,0,0
86014,1.6629e+09,5,5968,5942,16.11,3.4,28,13,0,0
86491,1.663e+09,5,5942,5957,16.03,3.25,27,13,0,0
86885,1.6631e+09,5,5954,5928,16.06,3.37,27,13,0,0
87318,1.6632e+09,5,5928,5942,16.07,3.26,27,14,0,0
87767,1.6633e+09,5,5936,5857,16.17,3.16,27,14,0,0
88253,1.6634e+09,5,5853,5814,16.13,3.09,27,14,0,0
89103,1.6636e+09,5,5814,5928,16.14,2.93,28,14,0,0
89554,1.6637e+09,5,5924,5714,16.01,3.14,27,14,0,0
90041,1.6639e+09,5,5711,5685,16.11,3.01,27,14,0,0
90485,1.664e+09,5,5675,5600,16.1,2.78,28,14,0,0
90889,1.6641e+09,5,5608,5728,16.18,3.25,27,14,0,0
91333,1.6642e+09,5,5731,5800,16.07,2.91,27,14,0,0
92234,1.6644e+09,5,5795,5671,16.13,2.92,27,15,0,0
92635,1.6645e+09,5,5668,5542,16.09,2.83,27,15,0,0
93079,1.6646e+09,5,5557,5742,16.14,2.94,27,15,0,0
93535,1.6647e+09,5,5724,5557,16.08,2.75,27,15,0,0
93981,1.6648e+09,5,5553,5514,16.1,2.83,27,15,0,0
94383,1.6649e+09,5,5516,5571,16.14,2.71,27,15,0,0
94829,1.665e+09,5,5576,5685,16.15,2.92,28,15,0,0
95730,1.6653e+09,5,5679,5542,16.14,2.95,27,15,0,0
96175,1.6654e+09,5,5542,5542,16.11,2.97,27,15,0,0
96583,1.6655e+09,5,5549,5685,16.16,3.05,27,15,0,0
97033,1.6656e+09,5,5685,5685,16.07,2.89,27,16,0,0
97885,1.6658e+09,5,5684,5628,16.06,2.89,27,16,0,0
98378,1.6659e+09,5,5631,5671,16.08,2.97,28,16,0,0
98780,1.666e+09,5,5676,5800,16.05,3.45,27,16,0,0
99234,1.6661e+09,5,5801,5842,16.09,2.8,27,16,0,0
99677,1.6662e+09,5,5837,5728,16.07,2.82,27,16,0,0
1.0012e+05,1.6663e+09,5,5729,5785,16.09,3.4,27,16,0,0
1.0057e+05,1.6665e+09,5,5790,5871,16.11,2.96,27,16,0,0
1.0101e+05,1.6666e+09,5,5871,5871,16.09,3.23,27,16,0,0
1.0146e+05,1.6667e+09,5,5865,5814,16.05,2.96,27,16,0,0
1.0236e+05,1.6669e+09,5,5814,5828,16.13,2.83,27,17,0,0
1.0276e+05,1.667e+09,5,5822,5428,16.14,2.16,27,17,0,0
1.0326e+05,1.6671e+09,5,5423,5357,16.1,2.51,27,17,0,0
1.037e+05,1.6672e+09,5,5357,5357,16.13,2.32,27,17,0,0
1.041e+05,1.6673e+09,5,5355,5228,16.15,2.01,27,17,0,0
1.0455e+05,1.6674e+09,5,5224,5128,16.22,2.06,27,17,0,0
1.0504e+05,1.6676e+09,5,5166,5371,16.17,3.1,27,17,0,0
1.0544e+05,1.6676e+09,5,5383,5557,16.1,3,27,17,0,0
1.0589e+05,1.6678e+09,5,5559,5628,16.09,2.63,27,17,0,0
1.0629e+05,1.6679e+09,5,5628,5657,16.14,2.69,27,17,0,0
1.0678e+05,1.668e+09,5,5650,5557,16.09,2.81,27,17,0,0
1.0719e+05,1.6681e+09,5,5573,5728,16.08,3.04,27,17,0,0
1.0804e+05,1.6683e+09,5,5727,5714,16.02,3.38,27,18,0,0
1.0849e+05,1.6684e+09,5,5739,6128,16,3.51,27,18,0,0
1.089e+05,1.6685e+09,5,6122,6028,16.12,3.37,27,18,0,0
1.0935e+05,1.6686e+09,5,6006,5771,16.08,2.83,27,18,0,0
1.098e+05,1.6687e+09,5,5777,5842,16.01,3.49,27,18,0,0
1.1024e+05,1.6688e+09,5,5862,6171,16.02,3.56,27,18,0,0
1.1069e+05,1.669e+09,5,6170,6157,16.05,3.83,27,18,0,0
1.1114e+05,1.6691e+09,5,6158,6171,15.98,3.39,27,18,0,0
1.1158e+05,1.6692e+09,5,6153,5985,16,3.38,27,18,0,0
1.1204e+05,1.6693e+09,5,5992,6057,16.04,3.56,27,19,0,0
1.1248e+05,1.6694e+09,5,6060,6100,16.08,3.36,27,19,0,0
1.1293e+05,1.6695e+09,5,6076,5871,16.1,3.02,27,19,0,0
1.1334e+05,1.6696e+09,5,5870,5857,16.11,3.16,27,19,0,0
1.1379e+05,1.6697e+09,5,5849,5742,15.96,3.32,27,19,0,0
1.1424e+05,1.6698e+09,5,5766,6042,16.05,3.45,27,19,0,0
1.1468e+05,1.6699e+09,5,6035,5942,16.07,3.26,27,19,0,0
1.1508e+05,1.67e+09,5,5940,5871,16.08,2.95,27,19,0,0
1.1554e+05,1.6701e+09,5,5865,5757,16.13,2.97,27,19,0,0
1.1598e+05,1.6703e+09,5,5753,5671,16.14,3.26,27,19,0,0
1.1643e+05,1.6704e+09,5,5688,5814,16.12,3.22,27,20,0,0
1.1692e+05,1.6705e+09,5,5809,5785,16.06,3.1,27,20,0,0
1.1732e+05,1.6706e+09,5,5783,5771,16.13,2.84,27,20,0,0
1.1778e+05,1.6707e+09,5,5782,5885,16.16,3.15,27,20,0,0
1.1822e+05,1.6708e+09,5,5865,5685,16.02,2.9,27,20,0,0
1.1867e+05,1.6709e+09,5,5689,5728,16.17,3.05,27,20,0,0
1.1911e+05,1.671e+09,5,5729,5828,16.13,3.21,27,20,0,0
1.1956e+05,1.6711e+09,5,5831,5914,16.14,3.41,27,20,0,0
1.205e+05,1.6714e+09,5,5919,6028,15.96,3.77,27,20,0,0
1.209e+05,1.6715e+09,5,6040,6342,15.95,4.01,27,21,0,0
1.2139e+05,1.6716e+09,5,6332,6271,15.98,4.08,27,21,0,0
1.218e+05,1.6717e+09,5,6257,6100,16.07,3.52,27,21,0,0
1.2224e+05,1.6718e+09,5,6114,6257,16.07,3.54,27,21,0,0
1.227e+05,1.6719e+09,5,6228,6000,16.08,3.37,27,21,0,0
1.2314e+05,1.672e+09,5,5994,5942,16.08,3.25,27,21,0,0
1.2355e+05,1.6721e+09,5,5940,5914,16.13,3.04,27,21,0,0
1.2399e+05,1.6722e+09,5,5911,5885,16.04,3.28,27,21,0,0
1.2444e+05,1.6723e+09,5,5893,5971,16.04,3.81,27,21,0,0
1.2489e+05,1.6724e+09,5,5983,6114,16.04,3.71,27,22,0,0
1.2534e+05,1.6726e+09,5,6100,5985,16.02,3.26,27,22,0,0
1.2574e+05,1.6727e+09,5,5979,5914,16.04,3.12,27,22,0,0
1.2619e+05,1.6728e+09,5,5912,5842,16.01,3.07,27,22,0,0
1.2668e+05,1.6729e+09,5,5842,5842,16,3.55,27,22,0,0
1.2713e+05,1.673e+09,5,5868,6085,15.95,3.55,27,22,0,0
1.2754e+05,1.6731e+09,5,6085,6100,15.92,3.32,27,22,0,0
1.2798e+05,1.6732e+09,5,6100,6100,16.01,3.56,27,22,0,0
1.2844e+05,1.6733e+09,5,6098,6057,15.96,3.27,27,22,0,0
1.2888e+05,1.6734e+09,5,6055,5971,16,3.48,27,22,0,0
1.2933e+05,1.6735e+09,5,5969,5928,15.94,3.74,27,23,0,0
1.2974e+05,1.6736e+09,5,5931,6085,15.95,3.82,27,23,0,0
1.3023e+05,1.6738e+09,5,6090,6242,15.98,4.06,27,23,0,0
1.3067e+05,1.6739e+09,5,6246,6328,15.97,3.93,27,23,0,0
1.3112e+05,1.674e+09,5,6328,6342,15.95,3.88,27,23,0,0
1.3158e+05,1.6741e+09,5,6337,6285,16.01,3.61,27,23,0,0
1.3198e+05,1.6742e+09,5,6277,6128,16,3.57,27,23,0,0
1.3239e+05,1.6743e+09,5,6126,6028,16.04,3.22,27,23,0,0
1.3283e+05,1.6744e+09,5,6042,6228,16.04,3.98,27,23,0,0
1.3328e+05,1.6745e+09,5,6228,6228,15.92,3.95,27,24,0,0
1.3372e+05,1.6746e+09,5,6232,6300,15.86,4.38,28,24,0,0
1.3417e+05,1.6747e+09,5,6302,6357,15.86,4.06,28,24,0,0
1.3462e+05,1.6748e+09,5,6357,6371,15.88,4.54,28,24,0,0
1.3507e+05,1.675e+09,5,6372,6385,15.92,4.07,28,24,0,0
1.3552e+05,1.6751e+09,5,6373,6257,15.94,3.98,27,24,0,0
1.3593e+05,1.6752e+09,5,6250,6200,16.03,3.79,28,24,0,0
1.3637e+05,1.6753e+09,5,6185,6028,15.98,3.42,27,24,0,0
1.3682e+05,1.6754e+09,5,6038,6185,15.94,3.74,28,24,0,0
1.3728e+05,1.6755e+09,5,6172,6014,15.98,3.43,28,25,0,0
1.3768e+05,1.6756e+09,5,6019,6142,15.98,3.59,28,25,0,0
1.3813e+05,1.6757e+09,5,6131,5914,16.02,3.32,28,25,0,0
1.3858e+05,1.6758e+09,5,5907,5842,16.07,2.83,27,25,0,0
1.3902e+05,1.6759e+09,5,5835,5700,16.07,2.6,28,25,0,0
1.3943e+05,1.676e+09,5,5699,5685,16.04,2.94,27,25,0,0
1.3993e+05,1.6761e+09,5,5679,5628,16.05,2.77,27,25,0,0
1.4037e+05,1.6763e+09,5,5622,5542,16.1,2.82,27,25,0,0
1.4082e+05,1.6764e+09,5,5539,5514,16.08,2.57,27,25,0,0
1.4126e+05,1.6765e+09,5,5520,5600,16.05,2.96,27,25,0,0
1.4171e+05,1.6766e+09,5,5604,5657,16.05,2.81,28,26,0,0
1.4216e+05,1.6767e+09,5,5662,5785,16.03,3.56,28,26,0,0
1.4261e+05,1.6768e+09,5,5789,5842,15.92,3.55,27,26,0,0
1.4306e+05,1.6769e+09,5,5870,6142,15.98,3.76,27,26,0,0
1.4351e+05,1.677e+09,5,6119,5900,16.07,2.96,27,26,0,0
1.4396e+05,1.6771e+09,5,5905,5957,16.07,2.99,27,26,0,0
1.444e+05,1.6773e+09,5,5950,5885,15.96,3.62,28,26,0,0
1.4484e+05,1.6774e+09,5,5921,6300,16.01,4.15,28,26,0,0
1.4525e+05,1.6775e+09,5,6300,6300,16,3.68,28,26,0,0
1.4614e+05,1.6777e+09,5,6298,6142,15.94,3.84,28,27,0,0
1.4705e+05,1.6779e+09,5,6152,6400,15.94,4.43,28,27,0,0
1.4749e+05,1.678e+09,5,6395,6285,15.99,3.93,27,27,0,0
1.4794e+05,1.6781e+09,5,6286,6342,15.92,3.83,28,27,0,0
1.4838e+05,1.6782e+09,5,6334,6000,15.92,3.72,28,27,0,0
1.4883e+05,1.6783e+09,5,6002,6085,15.97,3.31,27,27,0,0
1.4928e+05,1.6785e+09,5,6078,6014,15.95,3.8,28,27,0,0
1.4968e+05,1.6786e+09,5,6012,5900,15.92,3.4,28,28,0,0
1.5012e+05,1.6787e+09,5,5910,6014,16,3.79,28,28,0,0
1.5058e+05,1.6788e+09,5,6018,6057,15.96,3.74,28,28,0,0
1.5102e+05,1.6789e+09,5,6057,6057,15.89,3.6,28,28,0,0
1.5143e+05,1.679e+09,5,6056,6028,15.94,3.95,28,28,0,0
1.5192e+05,1.6791e+09,5,6043,6185,15.85,4.07,28,28,0,0
1.5277e+05,1.6793e+09,5,6180,6100,15.96,3.78,28,28,0,0
1.5322e+05,1.6794e+09,5,6098,6085,15.92,3.58,28,28,0,0
1.5368e+05,1.6795e+09,5,6042,5814,15.92,3.28,28,29,0,0
1.5407e+05,1.6796e+09,5,5821,5900,15.98,3.31,28,29,0,0
1.5452e+05,1.6798e+09,5,5896,5871,15.96,3.88,28,29,0,0
1.5492e+05,1.6799e+09,5,5880,6000,15.87,4.04,28,29,0,0
1.5538e+05,1.68e+09,5,6021,6200,15.88,3.98,28,29,0,0
1.5627e+05,1.6802e+09,5,6195,6100,15.95,4.08,28,29,0,0
1.5668e+05,1.6803e+09,5,6116,6285,15.86,4.06,28,29,0,0
1.5708e+05,1.6804e+09,5,6280,6100,15.91,4.15,28,30,0,0
1.5795e+05,1.6806e+09,5,6099,6071,15.92,3.82,27,30,0,0
1.5844e+05,1.6807e+09,5,6082,6200,15.88,4.12,28,30,0,0
1.5885e+05,1.6808e+09,5,6197,6128,15.91,4.04,28,30,0,0
1.5934e+05,1.681e+09,5,6133,6214,15.93,4.22,28,30,0,0
1.5974e+05,1.6811e+09,5,6220,6285,15.87,4.53,28,30,0,0
1.6019e+05,1.6812e+09,5,6293,6371,15.88,4.24,28,30,0,0
1.6148e+05,1.6815e+09,5,6370,6357,15.96,3.87,28,31,0,0
1.6192e+05,1.6816e+09,5,6339,6157,15.88,4.14,28,31,0,0
1.6233e+05,1.6817e+09,5,6156,6085,15.85,4,28,31,0,0
1.6326e+05,1.6819e+09,5,6096,6328,15.85,4.02,28,31,0,0
1.6366e+05,1.682e+09,5,6326,6285,15.86,3.9,28,31,0,0
1.6411e+05,1.6821e+09,5,6284,6228,15.93,3.91,28,31,0,0
1.6456e+05,1.6822e+09,5,6216,6057,15.85,3.81,28,32,0,0
1.6501e+05,1.6823e+09,5,6066,6185,15.91,3.68,28,32,0,0
1.6544e+05,1.6825e+09,5,6179,6100,15.93,3.83,28,32,0,0
1.6591e+05,1.6826e+09,5,6105,6128,15.92,3.78,28,32,0,0
1.6675e+05,1.6828e+09,5,6128,6142,15.9,3.77,28,32,0,0
1.672e+05,1.6829e+09,5,6132,6042,15.95,3.81,28,32,0,0
1.6761e+05,1.683e+09,5,6044,6200,15.85,3.93,28,32,0,0
1.681e+05,1.6831e+09,5,6201,6214,15.93,3.97,28,33,0,0
1.685e+05,1.6832e+09,5,6211,6157,15.89,3.93,28,33,0,0
1.6895e+05,1.6833e+09,5,6157,6185,15.89,4,28,33,0,0
1.694e+05,1.6834e+09,5,6192,6271,15.86,4.19,28,33,0,0
1.6981e+05,1.6835e+09,5,6280,6385,15.85,4.25,28,33,0,0
1.7022e+05,1.6836e+09,5,6383,6342,15.88,4.05,28,33,0,0
1.707e+05,1.6838e+09,5,6337,6271,15.9,4.14,28,33,0,0
1.7107e+05,1.6839e+09,5,6270,6228,15.92,4,28,33,0,0
1.7152e+05,1.684e+09,5,6229,6285,15.93,3.96,28,34,0,0
1.72e+05,1.6841e+09,5,6285,6285,15.92,3.63,28,34,0,0
1.724e+05,1.6842e+09,5,6282,6114,15.94,3.74,28,34,0,0
1.7414e+05,1.6846e+09,5,6113,6071,15.91,3.63,28,34,0,0
1.7501e+05,1.6848e+09,5,6072,6142,15.94,3.93,28,34,0,0
1.7546e+05,1.685e+09,5,6132,5985,15.94,3.86,28,34,0,0
1.759e+05,1.6851e+09,5,5989,6071,15.92,4.16,28,35,0,0
1.7639e+05,1.6852e+09,5,6078,6157,15.86,4.19,28,35,0,0
1.7684e+05,1.6853e+09,5,6167,6271,15.94,4.36,28,35,0,0
1.7728e+05,1.6854e+09,5,6289,6485,15.94,3.94,28,35,0,0
1.777e+05,1.6855e+09,5,6483,6400,15.97,3.65,28,35,0,0
1.7858e+05,1.6857e+09,5,6395,6200,15.89,3.84,28,35,0,0
1.7903e+05,1.6858e+09,5,6197,6157,15.86,3.59,28,35,0,0
1.7948e+05,1.6859e+09,5,6146,6014,15.93,3.13,28,36,0,0
1.7993e+05,1.686e+09,5,6007,5942,15.96,3.07,28,36,0,0
1.8033e+05,1.6861e+09,5,5942,5942,15.97,3.13,28,36,0,0
1.8078e+05,1.6863e+09,5,5939,5914,15.89,3.34,28,36,0,0
1.8123e+05,1.6864e+09,5,5906,5828,15.89,3.78,28,36,0,0
1.8161e+05,1.6865e+09,5,5836,6171,15.86,4.31,28,36,0,0
1.8205e+05,1.6866e+09,5,6175,6285,15.88,4.07,28,36,0,0
1.825e+05,1.6867e+09,5,6282,6228,15.88,3.77,28,36,0,0
1.8294e+05,1.6868e+09,5,6226,6214,15.84,3.8,28,36,0,0
1.8339e+05,1.6869e+09,5,6217,6271,15.88,3.88,28,37,0,0
1.838e+05,1.687e+09,5,6272,6357,15.85,4.08,28,37,0,0
1.8424e+05,1.6871e+09,5,6357,6357,15.9,4.13,28,37,0,0
1.8464e+05,1.6872e+09,5,6355,6228,15.89,3.96,28,37,0,0
1.8514e+05,1.6873e+09,5,6221,6128,15.94,3.55,28,37,0,0
1.8558e+05,1.6875e+09,5,6128,6142,15.96,3.56,28,37,0,0
1.8599e+05,1.6876e+09,5,6124,5985,15.86,3.78,28,37,0,0
1.8644e+05,1.6877e+09,5,5994,6128,15.98,3.89,28,37,0,0
1.8689e+05,1.6878e+09,5,6135,6214,15.89,3.54,28,38,0,0
1.8729e+05,1.6879e+09,5,6208,6100,15.86,3.48,28,38,0,0
1.877e+05,1.688e+09,5,6099,6057,15.95,3.51,28,38,0,0
1.8813e+05,1.6881e+09,5,6055,5971,15.91,3.47,28,38,0,0
1.886e+05,1.6882e+09,5,5974,6042,15.95,3.39,28,38,0,0
1.8905e+05,1.6883e+09,5,6031,5885,15.89,3.47,28,38,0,0
1.8946e+05,1.6884e+09,5,5889,5985,15.97,3.29,28,38,0,0
1.899e+05,1.6885e+09,5,5986,6057,16,3.27,28,38,0,0
1.9036e+05,1.6887e+09,5,6045,5885,15.97,3.33,28,38,0,0
1.9081e+05,1.6888e+09,5,5889,5971,15.92,3.65,28,38,0,0
1.9125e+05,1.6889e+09,5,5978,6128,15.86,3.91,28,38,0,0
1.917e+05,1.689e+09,5,6139,6285,15.87,3.91,28,39,0,0
1.9215e+05,1.6891e+09,5,6261,6128,15.91,4.02,29,39,0,0
1.9299e+05,1.6893e+09,5,6128,6128,15.83,3.85,28,39,0,0
1.9343e+05,1.6894e+09,5,6119,6028,15.88,3.53,28,39,0,0
1.9386e+05,1.6895e+09,5,6030,6071,15.92,3.65,28,39,0,0
1.943e+05,1.6896e+09,5,6066,6014,15.85,3.89,28,39,0,0
1.9475e+05,1.6897e+09,5,6010,5971,15.85,4.29,28,39,0,0
1.9519e+05,1.6899e+09,5,6004,6328,15.85,4.14,28,40,0,0
1.956e+05,1.69e+09,5,6326,6242,15.85,4.08,28,40,0,0
1.9605e+05,1.6901e+09,5,6235,6157,15.91,3.9,28,40,0,0
1.9649e+05,1.6902e+09,5,6157,6157,15.89,4,28,40,0,0
1.9694e+05,1.6903e+09,5,6150,6100,15.94,3.95,28,40,0,0
1.9731e+05,1.6904e+09,5,6095,6057,15.88,3.59,28,40,0,0
1.9777e+05,1.6905e+09,5,6068,6185,15.93,3.8,28,40,0,0
1.9825e+05,1.6906e+09,5,6200,6285,15.9,4.11,28,40,0,0
1.9865e+05,1.6907e+09,5,6284,6242,15.92,3.79,28,41,0,0
1.9909e+05,1.6908e+09,5,6243,6257,15.86,3.99,28,41,0,0
1.9952e+05,1.6909e+09,5,6249,6171,15.91,3.76,28,41,0,0
1.9996e+05,1.691e+09,5,6168,6142,15.9,3.79,28,41,0,0
2.004e+05,1.6912e+09,5,6148,6200,15.82,4.01,28,41,0,0
2.0081e+05,1.6913e+09,5,6201,6214,15.87,3.98,29,41,0,0
2.0126e+05,1.6914e+09,5,6196,6042,15.88,3.8,28,41,0,0
2.017e+05,1.6915e+09,5,6043,6057,15.88,3.85,28,41,0,0
2.021e+05,1.6916e+09,5,6059,6114,15.87,3.9,28,41,0,0
2.0259e+05,1.6917e+09,5,6122,6200,15.94,3.84,28,42,0,0
2.03e+05,1.6918e+09,5,6191,6128,15.92,3.89,28,42,0,0
2.0345e+05,1.6919e+09,5,6140,6242,15.89,3.87,28,42,0,0
2.0386e+05,1.692e+09,5,6240,6228,15.89,3.82,28,42,0,0
2.043e+05,1.6921e+09,5,6210,6057,15.92,3.75,28,42,0,0
2.0473e+05,1.6922e+09,5,6060,6100,15.88,3.62,28,42,0,0
2.0516e+05,1.6923e+09,5,6093,6028,15.95,3.34,28,42,0,0
2.056e+05,1.6925e+09,5,6035,6100,15.9,4.01,28,42,0,0
2.069e+05,1.6928e+09,5,6100,6200,15.81,4.1,28,43,0,0
2.0734e+05,1.6929e+09,5,6204,6314,15.86,4.29,28,43,0,0
2.0779e+05,1.693e+09,5,6312,6285,15.81,4.3,28,43,0,0
2.0824e+05,1.6931e+09,5,6284,6271,15.92,3.63,28,43,0,0
2.0912e+05,1.6933e+09,5,6266,6085,15.85,3.9,29,43,0,0
2.0955e+05,1.6934e+09,5,6085,6100,15.83,3.53,28,43,0,0
2.0998e+05,1.6935e+09,5,6100,6100,15.8,3.97,29,44,0,0
2.1039e+05,1.6936e+09,5,6109,6228,15.77,4.42,29,44,0,0
2.1128e+05,1.6939e+09,5,6237,6442,15.75,4.49,29,44,0,0
2.1169e+05,1.694e+09,5,6437,6342,15.82,4.15,29,44,0,0
2.1218e+05,1.6941e+09,5,6329,6200,15.84,3.86,28,44,0,0
2.1258e+05,1.6942e+09,5,6201,6285,15.86,3.9,28,44,0,0
2.1307e+05,1.6943e+09,5,6276,6185,15.92,3.8,29,44,0,0
2.1348e+05,1.6944e+09,5,6175,6042,15.95,3.48,29,45,0,0
2.1393e+05,1.6945e+09,5,6026,5871,15.87,3.59,29,45,0,0
2.1435e+05,1.6946e+09,5,5890,6100,15.8,3.76,29,45,0,0
2.1478e+05,1.6947e+09,5,6094,5971,15.85,3.66,28,45,0,0
2.1522e+05,1.6948e+09,5,5976,6057,15.92,3.66,28,45,0,0
2.1563e+05,1.6949e+09,5,6055,5957,15.94,3.6,29,45,0,0
2.1608e+05,1.6951e+09,5,5960,6000,15.89,3.35,29,45,0,0
2.1653e+05,1.6952e+09,5,5983,5842,15.9,3.53,29,45,0,0
2.1697e+05,1.6953e+09,5,5857,6071,15.87,3.75,29,45,0,0
2.1742e+05,1.6954e+09,5,6069,6042,15.85,3.77,29,46,0,0
2.1786e+05,1.6955e+09,5,6046,6157,15.82,3.9,29,46,0,0
2.183e+05,1.6956e+09,5,6146,5942,15.83,3.34,29,46,0,0
2.1876e+05,1.6957e+09,5,5951,6042,15.79,3.69,29,46,0,0
2.192e+05,1.6958e+09,5,6031,5900,15.88,3.26,29,46,0,0
2.1966e+05,1.6959e+09,5,5896,5842,15.76,3.92,29,46,0,0
2.201e+05,1.696e+09,5,5880,6257,15.83,4.04,29,46,0,0
2.2144e+05,1.6964e+09,5,6263,6457,15.81,4.57,29,47,0,0
2.2189e+05,1.6965e+09,5,6458,6485,15.83,4.4,29,47,0,0
2.2233e+05,1.6966e+09,5,6486,6500,15.83,4.45,29,47,0,0
2.2276e+05,1.6967e+09,5,6501,6528,15.85,4.5,29,47,0,0
2.2318e+05,1.6968e+09,5,6521,6428,15.86,4.24,29,47,0,0
2.2363e+05,1.6969e+09,5,6419,6300,15.83,4.19,29,47,0,0
2.2408e+05,1.697e+09,5,6310,6414,15.83,4.13,29,47,0,0
2.2452e+05,1.6971e+09,5,6404,6300,15.94,3.76,29,47,0,0
2.2496e+05,1.6972e+09,5,6300,6328,15.92,3.95,29,48,0,0
2.2542e+05,1.6974e+09,5,6323,6285,15.91,3.81,29,48,0,0
2.2581e+05,1.6975e+09,5,6285,6328,15.87,3.79,29,48,0,0
2.2625e+05,1.6976e+09,5,6325,6128,15.86,3.45,29,48,0,0
2.267e+05,1.6977e+09,5,6125,5971,15.83,3.61,29,48,0,0
2.2714e+05,1.6978e+09,5,5975,6014,15.89,3.74,29,48,0,0
2.2753e+05,1.6979e+09,5,6016,6071,15.85,3.91,29,48,0,0
2.2796e+05,1.698e+09,5,6065,6014,15.86,3.59,29,48,0,0
2.2841e+05,1.6981e+09,5,6012,6000,15.94,3.64,29,49,0,0
2.2885e+05,1.6982e+09,5,6003,6114,15.82,4.02,29,49,0,0
2.2929e+05,1.6983e+09,5,6116,6157,15.82,3.85,29,49,0,0
2.297e+05,1.6984e+09,5,6148,5928,15.85,3.28,29,49,0,0
2.3018e+05,1.6985e+09,5,5943,6157,15.91,3.88,29,49,0,0
2.3062e+05,1.6986e+09,5,6144,5971,15.9,3.35,29,49,0,0
2.3107e+05,1.6987e+09,5,5961,5828,15.83,3.31,29,49,0,0
2.3148e+05,1.6989e+09,5,5830,5985,15.93,3.43,29,49,0,0
2.3196e+05,1.699e+09,5,5978,5914,15.85,3.34,29,49,0,0
2.3238e+05,1.6991e+09,5,5908,5857,15.88,3.36,29,50,0,0
2.3277e+05,1.6992e+09,5,5858,5914,15.95,3.32,29,50,0,0
2.3326e+05,1.6993e+09,5,5919,5971,15.89,3.14,29,50,0,0
2.3367e+05,1.6994e+09,5,5969,5942,15.92,3.32,29,50,0,0
2.3412e+05,1.6995e+09,5,5936,5857,15.89,3.38,29,50,0,0
2.3452e+05,1.6996e+09,5,5857,5871,15.86,3.63,29,50,0,0
2.3501e+05,1.6997e+09,5,5876,5928,15.88,3.46,29,50,0,0
2.3538e+05,1.6998e+09,5,5925,5828,15.94,3.02,29,50,0,0
2.3583e+05,1.6999e+09,5,5827,5814,15.94,3.23,29,50,0,0
2.3627e+05,1.7e+09,5,5824,5928,15.88,3.58,29,50,0,0
2.3668e+05,1.7001e+09,5,5932,6028,15.81,3.49,29,50,0,0
2.3714e+05,1.7003e+09,5,6026,6014,15.86,3.49,29,51,0,0
2.3753e+05,1.7004e+09,5,6010,5871,15.88,3.23,29,51,0,0
2.3839e+05,1.7006e+09,5,5869,5814,15.88,3.22,29,51,0,0
2.3884e+05,1.7007e+09,5,5816,5857,15.85,3.24,29,51,0,0
2.3928e+05,1.7008e+09,5,5868,6028,15.85,3.65,29,51,0,0
2.4017e+05,1.701e+09,5,6022,5800,15.92,3.19,29,51,0,0
2.4106e+05,1.7012e+09,5,5798,5757,15.91,3,29,51,0,0
2.4149e+05,1.7014e+09,5,5762,5800,15.91,3.27,29,52,0,0
2.4188e+05,1.7015e+09,5,5804,5871,15.89,3.18,29,52,0,0
2.4229e+05,1.7016e+09,5,5870,5842,15.88,3.36,29,52,0,0
2.4278e+05,1.7017e+09,5,5842,5842,15.9,3.24,29,52,0,0
2.4363e+05,1.7019e+09,5,5838,5685,15.94,2.8,29,52,0,0
2.4408e+05,1.702e+09,5,5685,5685,15.96,2.94,29,52,0,0
2.4453e+05,1.7021e+09,5,5685,5685,15.85,3.04,29,52,0,0
2.4496e+05,1.7022e+09,5,5689,5728,15.89,2.91,29,52,0,0
2.4535e+05,1.7023e+09,5,5717,5585,15.9,2.87,29,52,0,0
2.4582e+05,1.7024e+09,5,5587,5600,15.97,2.55,29,52,0,0
2.4623e+05,1.7025e+09,5,5587,5414,15.84,2.72,29,53,0,0
2.4668e+05,1.7027e+09,5,5418,5457,15.95,2.53,29,53,0,0
2.4713e+05,1.7028e+09,5,5439,5285,15.96,2.1,29,53,0,0
2.4798e+05,1.703e+09,5,5286,5428,15.9,2.76,29,53,0,0
2.4846e+05,1.7031e+09,5,5447,5614,15.86,2.85,29,53,0,0
2.4929e+05,1.7033e+09,5,5613,5514,15.88,2.65,29,53,0,0
2.4972e+05,1.7034e+09,5,5518,5614,15.93,2.88,29,53,0,0
2.5017e+05,1.7035e+09,5,5622,5728,15.9,3.45,29,53,0,0
2.5062e+05,1.7036e+09,5,5730,5914,15.84,3.73,29,53,0,0
2.5107e+05,1.7037e+09,5,5925,6057,15.83,3.59,29,53,0,0
2.5151e+05,1.7039e+09,5,6057,6071,15.8,3.73,29,54,0,0
2.5196e+05,1.704e+09,5,6072,6114,15.77,3.87,29,54,0,0
2.5241e+05,1.7041e+09,5,6124,6385,15.76,4.29,29,54,0,0
2.5288e+05,1.7042e+09,5,6379,6328,15.86,4.02,28,54,0,0
2.5329e+05,1.7043e+09,5,6326,6228,15.73,4.47,29,54,0,0
2.5373e+05,1.7044e+09,5,6227,6214,15.68,4.16,29,54,0,0
2.5418e+05,1.7045e+09,5,6204,6028,15.76,3.12,28,54,0,0
2.5462e+05,1.7046e+09,5,6018,5814,15.84,3.67,29,54,0,0
2.5507e+05,1.7047e+09,5,5818,5914,15.93,3.01,28,55,0,0
2.5552e+05,1.7048e+09,5,5892,5614,16.01,2.21,29,55,0,0
2.5596e+05,1.7049e+09,5,5612,5600,16.02,2.98,29,55,0,0
2.5681e+05,1.7052e+09,5,5601,5800,15.88,3.45,29,55,0,0
2.5725e+05,1.7053e+09,5,5796,5642,15.91,3.42,28,55,0,0
2.5774e+05,1.7054e+09,5,5649,5757,15.9,3.08,29,55,0,0
2.5813e+05,1.7055e+09,5,5755,5728,15.88,3.23,29,55,0,0
2.5856e+05,1.7056e+09,5,5737,5928,15.86,3.27,29,55,0,0
2.5897e+05,1.7057e+09,5,5927,5914,15.92,3.33,29,55,0,0
2.5946e+05,1.7058e+09,5,5916,5942,15.88,3.36,29,55,0,0
2.5991e+05,1.7059e+09,5,5944,5985,15.88,3.57,29,56,0,0
2.6031e+05,1.706e+09,5,5968,5757,15.86,3.02,29,56,0,0
2.6072e+05,1.7061e+09,5,5752,5642,15.83,2.92,29,56,0,0
2.6115e+05,1.7062e+09,5,5643,5671,15.94,3.09,29,56,0,0
2.6158e+05,1.7063e+09,5,5674,5757,15.89,3.23,29,56,0,0
2.6206e+05,1.7065e+09,5,5750,5685,16,2.83,29,56,0,0
2.6246e+05,1.7066e+09,5,5692,5757,15.99,2.96,28,56,0,0
2.6292e+05,1.7067e+09,5,5751,5628,15.84,2.98,29,56,0,0
2.6336e+05,1.7068e+09,5,5637,5728,15.94,3.44,29,56,0,0
2.6381e+05,1.7069e+09,5,5734,5828,15.86,3.63,29,56,0,0
2.6422e+05,1.707e+09,5,5831,5971,15.88,3.55,29,57,0,0
2.6471e+05,1.7071e+09,5,5986,6142,15.77,3.67,29,57,0,0
2.6514e+05,1.7072e+09,5,6144,6242,15.72,4.09,29,57,0,0
2.6559e+05,1.7073e+09,5,6246,6314,15.77,4.39,29,57,0,0
2.6604e+05,1.7074e+09,5,6311,6285,15.77,4.32,29,57,0,0
2.6649e+05,1.7076e+09,5,6290,6342,15.82,4.15,29,57,0,0
2.6693e+05,1.7077e+09,5,6335,6214,15.8,3.92,29,57,0,0
2.6742e+05,1.7078e+09,5,6210,6171,15.84,3.87,29,57,0,0
2.6778e+05,1.7079e+09,5,6169,6057,15.76,3.96,29,58,0,0
2.6823e+05,1.708e+09,5,6067,6271,15.69,4.25,28,58,0,0
2.6865e+05,1.7081e+09,5,6271,6314,15.8,3.91,29,58,0,0
2.6994e+05,1.7084e+09,5,6313,6300,15.79,3.97,29,58,0,0
2.7039e+05,1.7085e+09,5,6299,6285,15.77,3.92,29,58,0,0
2.7169e+05,1.7089e+09,5,6284,6228,15.75,3.95,29,59,0,0
2.7218e+05,1.709e+09,5,6226,6214,15.76,3.94,29,59,0,0
2.7258e+05,1.7091e+09,5,6212,6100,15.86,3.71,29,59,0,0
2.7306e+05,1.7092e+09,5,6109,6242,15.79,3.85,29,59,0,0
2.7349e+05,1.7093e+09,5,6236,6157,15.83,3.63,28,59,0,0
2.7388e+05,1.7094e+09,5,6148,5971,15.77,3.75,29,59,0,0
2.7433e+05,1.7095e+09,5,5976,6085,15.8,3.73,29,59,0,0
2.7478e+05,1.7096e+09,5,6082,6057,15.8,3.85,29,59,0,0
2.7522e+05,1.7097e+09,5,6053,6014,15.76,3.5,29,59,0,0
2.7567e+05,1.7098e+09,5,6022,6114,15.77,3.56,29,60,0,0
2.7616e+05,1.71e+09,5,6106,6042,15.74,3.56,29,60,0,0
2.7704e+05,1.7102e+09,5,6043,6142,15.68,3.97,29,60,0,0
2.7749e+05,1.7103e+09,5,6147,6271,15.76,3.56,29,60,0,0
2.7798e+05,1.7104e+09,5,6262,6157,15.75,3.72,29,60,0,0
2.7838e+05,1.7105e+09,5,6154,6014,15.71,3.75,29,60,0,0
2.7881e+05,1.7106e+09,5,6015,6071,15.69,3.7,29,60,0,0
2.7924e+05,1.7107e+09,5,6068,5971,15.73,3.56,29,61,0,0
2.7968e+05,1.7108e+09,5,5971,5971,15.82,3.46,29,61,0,0
2.8057e+05,1.7111e+09,5,5967,5885,15.79,3.62,29,61,0,0
2.8097e+05,1.7112e+09,5,5890,5942,15.75,3.53,29,61,0,0
2.8142e+05,1.7113e+09,5,5932,5871,15.75,3.51,29,61,0,0
2.8183e+05,1.7114e+09,5,5891,6057,15.77,3.44,29,61,0,0
2.8224e+05,1.7115e+09,5,6048,5842,15.8,3.15,29,61,0,0
2.8268e+05,1.7116e+09,5,5844,5957,15.81,3.12,29,61,0,0
2.8313e+05,1.7117e+09,5,5970,6100,15.7,3.95,29,61,0,0
2.8354e+05,1.7118e+09,5,6103,6142,15.7,3.82,28,62,0,0
2.8398e+05,1.7119e+09,5,6138,5971,15.72,3.64,29,62,0,0
2.8442e+05,1.712e+09,5,5971,5971,15.76,3.3,29,62,0,0
2.8485e+05,1.7121e+09,5,5984,6142,15.76,3.94,29,62,0,0
2.8529e+05,1.7122e+09,5,6137,6100,15.8,3.53,29,62,0,0
2.857e+05,1.7123e+09,5,6097,5885,15.81,3.23,29,62,0,0
2.8619e+05,1.7125e+09,5,5888,5928,15.8,3.1,29,62,0,0
2.8663e+05,1.7126e+09,5,5943,6085,15.84,3.49,28,62,0,0
2.8704e+05,1.7127e+09,5,6071,5942,15.85,3.37,28,62,0,0
2.8745e+05,1.7128e+09,5,5935,5814,15.91,2.63,28,63,0,0
2.8793e+05,1.7129e+09,5,5804,5671,15.82,2.86,28,63,0,0
2.8878e+05,1.7131e+09,5,5668,5485,15.88,2.36,28,63,0,0
2.8922e+05,1.7132e+09,5,5478,5400,15.94,2.23,28,63,0,0
2.8971e+05,1.7133e+09,5,5376,5057,15.94,2.2,29,63,0,0
2.9012e+05,1.7134e+09,5,5073,5300,15.95,2.54,28,63,0,0
2.9056e+05,1.7135e+09,5,5302,5342,15.85,2.63,28,63,0,0
2.9098e+05,1.7136e+09,5,5347,5457,15.88,2.79,28,63,0,0
2.9142e+05,1.7138e+09,5,5457,5457,15.88,2.6,28,63,0,0
2.923e+05,1.714e+09,5,5460,5542,15.89,3.19,28,63,0,0
2.9276e+05,1.7141e+09,5,5556,5685,15.8,3.14,28,64,0,0
2.932e+05,1.7142e+09,5,5700,5914,15.82,3.42,28,64,0,0
2.9405e+05,1.7144e+09,5,5914,5928,15.77,3.48,28,64,0,0
2.9454e+05,1.7145e+09,5,5926,5914,15.84,3.43,28,64,0,0
2.9493e+05,1.7146e+09,5,5915,5942,15.93,2.86,28,64,0,0
2.9538e+05,1.7147e+09,5,5938,5871,15.85,3.14,28,64,0,0
2.9581e+05,1.7148e+09,5,5872,5914,15.88,3.27,28,64,0,0
2.9625e+05,1.715e+09,5,5914,5957,15.84,3.35,28,64,0,0
2.9669e+05,1.7151e+09,5,5948,5828,15.88,3.43,28,64,0,0
2.9714e+05,1.7152e+09,5,5843,5971,15.85,3.25,28,65,0,0
2.9755e+05,1.7153e+09,5,5977,6114,15.83,3.48,28,65,0,0
2.9795e+05,1.7154e+09,5,6112,6014,15.83,3.43,28,65,0,0
2.9847e+05,1.7155e+09,5,6002,5842,15.82,3.26,28,65,0,0
2.9888e+05,1.7156e+09,5,5841,5814,15.89,2.94,28,65,0,0
2.9936e+05,1.7157e+09,5,5808,5757,15.83,3.31,28,65,0,0
2.9977e+05,1.7158e+09,5,5780,6100,15.81,3.73,28,65,0,0
3.0066e+05,1.716e+09,5,6103,6171,15.89,3.66,28,65,0,0
3.0107e+05,1.7161e+09,5,6166,5842,15.91,2.95,28,65,0,0
3.015e+05,1.7163e+09,5,5847,5900,15.81,3.1,28,66,0,0
3.0196e+05,1.7164e+09,5,5883,5771,15.85,3.04,28,66,0,0
3.0236e+05,1.7165e+09,5,5771,5771,15.89,3.48,28,66,0,0
3.0281e+05,1.7166e+09,5,5767,5714,15.86,3.17,28,66,0,0
3.0326e+05,1.7167e+09,5,5718,5771,15.91,3,28,66,0,0
3.0366e+05,1.7168e+09,5,5768,5728,15.92,2.97,28,66,0,0
3.041e+05,1.7169e+09,5,5726,5700,15.86,2.75,28,66,0,0
3.0455e+05,1.717e+09,5,5695,5642,15.82,2.85,28,66,0,0
3.05e+05,1.7171e+09,5,5630,5471,15.92,2.53,28,66,0,0
3.0589e+05,1.7173e+09,5,5471,5485,15.88,2.65,28,66,0,0
3.0633e+05,1.7175e+09,5,5490,5557,15.91,3.34,28,67,0,0
3.0678e+05,1.7176e+09,5,5567,5771,15.78,3.19,28,67,0,0
3.0718e+05,1.7177e+09,5,5770,5742,15.82,3.08,28,67,0,0
3.0764e+05,1.7178e+09,5,5723,5542,15.78,2.92,28,67,0,0
3.0809e+05,1.7179e+09,5,5560,5814,15.83,3.24,28,67,0,0
3.0848e+05,1.718e+09,5,5818,5900,15.79,3.35,28,67,0,0
3.0892e+05,1.7181e+09,5,5890,5771,15.89,3.37,28,67,0,0
3.0931e+05,1.7182e+09,5,5774,5971,15.82,3.47,28,67,0,0
3.0976e+05,1.7183e+09,5,5970,5942,15.8,3.39,28,67,0,0
3.1021e+05,1.7184e+09,5,5942,5957,15.9,3.54,28,67,0,0
3.1066e+05,1.7185e+09,5,5959,6028,15.79,3.76,28,68,0,0
3.111e+05,1.7186e+09,5,6031,6071,15.77,3.45,28,68,0,0
3.1155e+05,1.7188e+09,5,6050,5857,15.88,3.27,28,68,0,0
3.1199e+05,1.7189e+09,5,5863,5942,15.86,3.35,28,68,0,0
3.1244e+05,1.719e+09,5,5939,5914,15.91,3.21,28,68,0,0
3.1321e+05,1.7192e+09,5,5956,6142,15.86,4.01,28,68,0,0
3.1361e+05,1.7193e+09,5,6140,6042,15.83,3.09,28,68,0,0
3.1409e+05,1.7194e+09,5,6011,5685,15.83,2.96,28,68,0,0
3.1452e+05,1.7195e+09,5,5696,5814,15.9,3.26,28,68,0,0
3.1495e+05,1.7196e+09,5,5814,5828,15.84,3.27,28,69,0,0
3.154e+05,1.7197e+09,5,5830,5857,15.9,3.06,28,69,0,0
3.158e+05,1.7198e+09,5,5853,5757,15.85,3.14,28,69,0,0
3.1626e+05,1.72e+09,5,5757,5785,15.86,3.04,28,69,0,0
3.1673e+05,1.7201e+09,5,5777,5628,15.89,2.86,28,69,0,0
3.1714e+05,1.7202e+09,5,5626,5585,15.86,2.84,28,69,0,0
3.1763e+05,1.7203e+09,5,5588,5628,15.82,3.07,28,69,0,0
3.1808e+05,1.7204e+09,5,5636,5757,15.84,3.26,28,69,0,0
3.1853e+05,1.7205e+09,5,5759,5785,15.82,3.32,28,69,0,0
3.1942e+05,1.7207e+09,5,5792,5957,15.82,3.76,28,69,0,0
3.1986e+05,1.7208e+09,5,5950,5885,15.88,3.5,28,70,0,0
3.2032e+05,1.7209e+09,5,5883,5871,15.82,3.27,28,70,0,0
3.2071e+05,1.721e+09,5,5881,6028,15.88,3.32,28,70,0,0
3.2116e+05,1.7212e+09,5,6023,5914,15.79,3.62,28,70,0,0
3.2159e+05,1.7213e+09,5,5914,5914,15.89,3.53,28,70,0,0
3.2202e+05,1.7214e+09,5,5921,6114,15.77,3.74,28,70,0,0
3.225e+05,1.7215e+09,5,6112,6100,15.83,3.77,28,70,0,0
3.2294e+05,1.7216e+09,5,6093,6014,15.8,3.51,28,70,0,0
3.2339e+05,1.7217e+09,5,6012,6000,15.86,3.66,28,70,0,0
3.238e+05,1.7218e+09,5,6004,6085,15.78,3.51,28,71,0,0
3.2429e+05,1.7219e+09,5,6075,5985,15.76,3.84,28,71,0,0
3.2469e+05,1.722e+09,5,5986,6057,15.82,3.69,28,71,0,0
3.2514e+05,1.7221e+09,5,6047,5828,15.82,3.07,28,71,0,0
3.2558e+05,1.7222e+09,5,5832,5914,15.83,3.49,28,71,0,0
3.2607e+05,1.7224e+09,5,5902,5800,15.85,3.31,28,71,0,0
3.2648e+05,1.7225e+09,5,5807,5914,15.8,3.16,28,71,0,0
3.2692e+05,1.7226e+09,5,5910,5842,15.71,3.49,28,71,0,0
3.2737e+05,1.7227e+09,5,5856,6028,15.88,3.91,28,71,0,0
3.2782e+05,1.7228e+09,5,6035,6128,15.81,3.73,28,72,0,0
3.2822e+05,1.7229e+09,5,6124,5985,15.83,3.24,28,72,0,0
3.2871e+05,1.723e+09,5,5976,5885,15.81,3.19,28,72,0,0
3.2912e+05,1.7231e+09,5,5869,5728,15.8,3.11,28,72,0,0
3.2959e+05,1.7232e+09,5,5737,5871,15.75,3.23,28,72,0,0
3.3002e+05,1.7233e+09,5,5869,5857,15.83,3.5,28,72,0,0
3.3046e+05,1.7235e+09,5,5864,5942,15.78,3.56,28,72,0,0
3.309e+05,1.7236e+09,5,5951,6057,15.83,3.47,28,72,0,0
3.313e+05,1.7237e+09,5,6055,6000,15.88,3.63,28,72,0,0
3.3224e+05,1.7239e+09,5,6004,6100,15.83,3.64,28,73,0,0
3.3312e+05,1.7241e+09,5,6094,5885,15.83,3.36,28,73,0,0
3.3358e+05,1.7242e+09,5,5892,5971,15.85,3.33,28,73,0,0
3.3402e+05,1.7243e+09,5,5967,5928,15.86,3.18,28,73,0,0
3.3443e+05,1.7244e+09,5,5926,5914,15.85,3.28,28,73,0,0
3.3488e+05,1.7245e+09,5,5910,5871,15.87,3.44,28,73,0,0
3.3528e+05,1.7246e+09,5,5878,5971,15.85,3.16,28,73,0,0
3.3569e+05,1.7247e+09,5,5972,6028,15.85,3.42,28,73,0,0
3.3614e+05,1.7249e+09,5,6026,5942,15.86,3.35,28,74,0,0
3.3703e+05,1.7251e+09,5,5942,5985,15.8,3.38,28,74,0,0
3.3748e+05,1.7252e+09,5,5974,5714,15.85,3.24,28,74,0,0
3.3793e+05,1.7253e+09,5,5718,5814,15.79,3.3,28,74,0,0
3.3838e+05,1.7254e+09,5,5820,5957,15.79,3.28,28,74,0,0
3.3887e+05,1.7255e+09,5,5962,6014,15.81,3.43,28,74,0,0
3.3931e+05,1.7256e+09,5,5998,5842,15.79,3.3,28,74,0,0
3.3976e+05,1.7257e+09,5,5845,5885,15.8,3.28,28,74,0,0
3.4019e+05,1.7259e+09,5,5871,5728,15.8,2.9,28,74,0,0
3.4062e+05,1.726e+09,5,5719,5642,15.83,3.08,28,75,0,0
3.4106e+05,1.7261e+09,5,5653,5914,15.86,3.6,28,75,0,0
3.415e+05,1.7262e+09,5,5913,5900,15.86,3.12,28,75,0,0
3.4195e+05,1.7263e+09,5,5896,5857,15.81,3.23,28,75,0,0
3.4239e+05,1.7264e+09,5,5855,5828,15.86,3.38,28,75,0,0
3.4284e+05,1.7265e+09,5,5831,5900,15.81,3.22,28,75,0,0
3.4329e+05,1.7266e+09,5,5888,5728,15.86,3.43,28,75,0,0
3.4374e+05,1.7267e+09,5,5748,6014,15.73,3.41,28,75,0,0
3.4418e+05,1.7268e+09,5,6010,5971,15.85,3.53,28,75,0,0
3.4464e+05,1.727e+09,5,5960,5857,15.78,3.45,28,75,0,0
3.4508e+05,1.7271e+09,5,5845,5742,15.87,2.97,28,76,0,0
3.4552e+05,1.7272e+09,5,5742,5771,15.87,3.03,28,76,0,0
3.4597e+05,1.7273e+09,5,5763,5714,15.8,3.1,28,76,0,0
3.4637e+05,1.7274e+09,5,5713,5700,15.85,3.27,28,76,0,0
3.4725e+05,1.7276e+09,5,5702,6014,15.85,3.41,28,76,0,0
3.4772e+05,1.7277e+09,5,6011,5985,15.85,3.3,28,76,0,0
3.4808e+05,1.7278e+09,5,5985,6071,15.81,3.43,28,76,0,0
3.4946e+05,1.7282e+09,5,6073,6157,15.82,3.81,28,77,0,0
3.5032e+05,1.7284e+09,5,6154,6057,15.8,3.54,28,77,0,0
3.5076e+05,1.7285e+09,5,6060,6100,15.82,3.57,28,77,0,0
3.512e+05,1.7286e+09,5,6100,6100,15.75,3.72,28,77,0,0
3.5161e+05,1.7287e+09,5,6098,6028,15.77,3.67,28,77,0,0
3.525e+05,1.7289e+09,5,6029,6057,15.77,3.66,28,77,0,0
3.529e+05,1.729e+09,5,6057,6100,15.74,3.79,28,77,0,0
3.534e+05,1.7291e+09,5,6098,6085,15.79,3.89,28,78,0,0
3.5376e+05,1.7292e+09,5,6094,6185,15.79,3.76,28,78,0,0
3.5421e+05,1.7293e+09,5,6176,6057,15.73,3.71,28,78,0,0
3.5507e+05,1.7296e+09,5,6058,6100,15.78,3.8,28,78,0,0
3.5596e+05,1.7298e+09,5,6090,5914,15.85,3.73,28,78,0,0
3.5637e+05,1.7299e+09,5,5911,5885,15.82,3.8,28,78,0,0
3.5686e+05,1.73e+09,5,5898,6014,15.79,4.07,28,78,0,0
3.5726e+05,1.7301e+09,5,6019,6142,15.82,4.09,28,79,0,0
3.5771e+05,1.7302e+09,5,6143,6157,15.75,4.06,28,79,0,0
3.5811e+05,1.7303e+09,5,6157,6185,15.88,4.07,28,79,0,0
3.5856e+05,1.7304e+09,5,6181,6100,15.85,4.13,28,79,0,0
3.5901e+05,1.7305e+09,5,6119,6385,15.81,4.27,28,79,0,0
3.5946e+05,1.7306e+09,5,6357,6100,15.8,3.86,28,79,0,0
3.599e+05,1.7307e+09,5,6104,6185,15.77,4.31,28,79,0,0
3.6031e+05,1.7309e+09,5,6186,6228,15.79,4.22,28,79,0,0
3.608e+05,1.731e+09,5,6223,6185,15.77,3.95,28,80,0,0
3.6119e+05,1.7311e+09,5,6171,6042,15.86,3.86,28,80,0,0
3.6158e+05,1.7312e+09,5,6042,6057,15.8,3.7,28,80,0,0
3.6203e+05,1.7313e+09,5,6062,6142,15.79,3.73,28,80,0,0
3.6243e+05,1.7314e+09,5,6140,6071,15.84,3.58,28,80,0,0
3.6292e+05,1.7315e+09,5,6062,5985,15.79,3.37,29,80,0,0
3.6337e+05,1.7316e+09,5,5993,6085,15.78,3.66,28,80,0,0
3.6381e+05,1.7317e+09,5,6078,5985,15.8,3.5,28,80,0,0
3.6422e+05,1.7318e+09,5,5990,6042,15.84,3.3,28,81,0,0
3.6466e+05,1.7319e+09,5,6036,5800,15.83,3.22,28,81,0,0
3.6507e+05,1.7321e+09,5,5813,5942,15.81,3.49,28,81,0,0
3.6596e+05,1.7323e+09,5,5937,5828,15.86,3.21,29,81,0,0
3.6637e+05,1.7324e+09,5,5828,5828,15.88,3.31,28,81,0,0
3.6679e+05,1.7325e+09,5,5828,5842,15.82,3.26,28,81,0,0
3.6723e+05,1.7326e+09,5,5828,5657,15.83,3.36,28,81,0,0
3.6767e+05,1.7327e+09,5,5666,5800,15.85,3.44,29,81,0,0
3.6811e+05,1.7328e+09,5,5804,5900,15.83,3.13,29,81,0,0
3.6857e+05,1.7329e+09,5,5880,5685,15.88,2.72,28,81,0,0
3.6946e+05,1.7331e+09,5,5665,5242,16.02,2.17,28,82,0,0
3.699e+05,1.7332e+09,5,5242,5271,16,2.06,28,82,0,0
3.7035e+05,1.7334e+09,5,5266,5171,15.9,2.13,28,82,0,0
3.7079e+05,1.7335e+09,5,5162,5085,15.94,2.23,28,82,0,0
3.712e+05,1.7336e+09,5,5085,5128,15.95,2.29,28,82,0,0
3.7165e+05,1.7337e+09,5,5120,4971,15.95,2.45,29,82,0,0
3.7209e+05,1.7338e+09,5,4985,5128,15.9,2.72,29,82,0,0
3.7254e+05,1.7339e+09,5,5142,5285,15.92,2.83,28,82,0,0
3.7294e+05,1.734e+09,5,5287,5342,15.83,2.78,28,82,0,0
3.7338e+05,1.7341e+09,5,5346,5442,15.89,2.59,29,82,0,0
3.738e+05,1.7342e+09,5,5441,5414,15.86,2.91,29,82,0,0
3.743e+05,1.7343e+09,5,5415,5428,15.88,2.92,28,82,0,0
3.7518e+05,1.7346e+09,5,5432,5528,15.95,3.1,29,83,0,0
3.7649e+05,1.7349e+09,5,5524,5371,15.86,3.07,28,83,0,0
3.7694e+05,1.735e+09,5,5377,5442,15.84,2.85,28,83,0,0
3.7739e+05,1.7351e+09,5,5428,5285,15.89,2.76,28,83,0,0
3.7825e+05,1.7353e+09,5,5289,5385,15.89,3.16,29,83,0,0
3.7868e+05,1.7354e+09,5,5389,5442,15.86,3.11,28,83,0,0
3.7913e+05,1.7355e+09,5,5427,5214,15.89,2.63,28,83,0,0
3.7958e+05,1.7356e+09,5,5219,5300,15.91,2.83,28,83,0,0
3.8002e+05,1.7357e+09,5,5318,5542,15.81,3.38,28,84,0,0
3.8042e+05,1.7358e+09,5,5540,5485,15.88,2.94,28,84,0,0
3.8092e+05,1.736e+09,5,5484,5471,15.79,2.66,28,84,0,0
3.8136e+05,1.7361e+09,5,5462,5371,15.86,2.71,29,84,0,0
3.8176e+05,1.7362e+09,5,5371,5457,15.81,3.09,29,84,0,0
3.8225e+05,1.7363e+09,5,5465,5585,15.84,2.78,28,84,0,0
3.8264e+05,1.7364e+09,5,5583,5557,15.76,3.07,28,84,0,0
3.8301e+05,1.7365e+09,5,5561,5657,15.72,3.31,28,84,0,0
3.8346e+05,1.7366e+09,5,5658,5685,15.73,2.98,28,84,0,0
3.8435e+05,1.7368e+09,5,5686,5742,15.79,3.1,28,85,0,0
3.8483e+05,1.737e+09,5,5758,5914,15.86,3.6,29,85,0,0
3.8524e+05,1.7371e+09,5,5904,5757,15.86,2.99,28,85,0,0
3.8569e+05,1.7372e+09,5,5764,5828,15.87,3.3,28,85,0,0
3.8654e+05,1.7374e+09,5,5819,5600,15.86,2.84,28,85,0,0
3.8738e+05,1.7376e+09,5,5599,5528,15.82,2.88,28,85,0,0
3.8781e+05,1.7377e+09,5,5529,5557,15.85,2.63,28,85,0,0
3.8825e+05,1.7378e+09,5,5559,5585,15.76,3.25,28,85,0,0
3.8866e+05,1.7379e+09,5,5599,5757,15.77,3.26,28,85,0,0
3.8911e+05,1.738e+09,5,5753,5714,15.76,3.31,28,86,0,0
3.8956e+05,1.7381e+09,5,5734,5957,15.7,3.52,28,86,0,0
3.9e+05,1.7383e+09,5,5962,6028,15.76,3.59,28,86,0,0
3.9041e+05,1.7384e+09,5,6025,5857,15.8,3.18,28,86,0,0
3.909e+05,1.7385e+09,5,5866,5971,15.77,3.79,28,86,0,0
3.9138e+05,1.7386e+09,5,5980,6100,15.73,3.56,28,86,0,0
3.9178e+05,1.7387e+09,5,6090,5914,15.8,3.48,28,86,0,0
3.9223e+05,1.7388e+09,5,5916,5942,15.83,3.11,28,86,0,0
3.9264e+05,1.7389e+09,5,5942,5957,15.79,3.38,28,86,0,0
3.9308e+05,1.739e+09,5,5953,5900,15.76,3.35,28,86,0,0
3.9351e+05,1.7391e+09,5,5905,5957,15.75,3.6,28,87,0,0
3.9395e+05,1.7392e+09,5,5954,5928,15.85,3.27,28,87,0,0
3.9439e+05,1.7393e+09,5,5921,5828,15.79,3.05,28,87,0,0
3.948e+05,1.7394e+09,5,5830,5885,15.83,3.22,28,87,0,0
3.9524e+05,1.7395e+09,5,5887,6000,15.82,3.57,28,87,0,0
3.9573e+05,1.7397e+09,5,5993,5928,15.8,3.34,28,87,0,0
3.9613e+05,1.7398e+09,5,5927,5900,15.81,3.45,28,87,0,0
3.9661e+05,1.7399e+09,5,5902,5942,15.86,3.49,28,87,0,0
3.971e+05,1.74e+09,5,5951,6071,15.83,3.46,28,87,0,0
3.9751e+05,1.7401e+09,5,6053,5828,15.75,3.26,28,87,0,0
3.9795e+05,1.7402e+09,5,5828,5842,15.81,3.55,28,88,0,0
3.984e+05,1.7403e+09,5,5843,5857,15.79,3.25,28,88,0,0
3.988e+05,1.7404e+09,5,5857,5885,15.77,3.36,28,88,0,0
3.997e+05,1.7406e+09,5,5884,5828,15.79,3.4,29,88,0,0
4.0015e+05,1.7407e+09,5,5831,5914,15.67,3.75,29,88,0,0
4.0108e+05,1.741e+09,5,5917,5985,15.77,3.66,28,88,0,0
4.0148e+05,1.7411e+09,5,5981,5900,15.76,3.21,28,88,0,0
4.0192e+05,1.7412e+09,5,5899,5885,15.75,3.36,28,88,0,0
4.0238e+05,1.7413e+09,5,5885,5885,15.79,3.35,28,89,0,0
4.0282e+05,1.7414e+09,5,5889,5985,15.83,3.44,28,89,0,0
4.0331e+05,1.7415e+09,5,5974,5871,15.8,3.33,28,89,0,0
4.0371e+05,1.7416e+09,5,5871,5885,15.82,3.4,29,89,0,0
4.0416e+05,1.7417e+09,5,5886,5914,15.78,3.27,28,89,0,0
4.0506e+05,1.742e+09,5,5903,5714,15.75,3.29,28,89,0,0
4.0546e+05,1.7421e+09,5,5718,5814,15.77,3.1,28,89,0,0
4.0595e+05,1.7422e+09,5,5818,5857,15.86,3.27,28,89,0,0
4.0636e+05,1.7423e+09,5,5863,5942,15.78,3.47,29,89,0,0
4.068e+05,1.7424e+09,5,5941,5928,15.77,3.48,28,90,0,0
4.0722e+05,1.7425e+09,5,5926,5814,15.77,3.44,29,90,0,0
4.077e+05,1.7426e+09,5,5815,5857,15.79,3.21,28,90,0,0
4.0815e+05,1.7427e+09,5,5859,5885,15.78,3.27,28,90,0,0
4.0859e+05,1.7428e+09,5,5892,5971,15.79,3.65,29,90,0,0
4.0908e+05,1.7429e+09,5,5972,6000,15.75,3.44,29,90,0,0
4.0948e+05,1.743e+09,5,5993,5885,15.87,3.42,28,90,0,0
4.1037e+05,1.7433e+09,5,5890,5971,15.76,3.66,29,90,0,0
4.1082e+05,1.7434e+09,5,5966,5928,15.76,3.5,28,91,0,0
4.1122e+05,1.7435e+09,5,5924,5885,15.77,3.37,28,91,0,0
4.1168e+05,1.7436e+09,5,5876,5800,15.77,3.19,29,91,0,0
4.1212e+05,1.7437e+09,5,5794,5728,15.81,3.18,29,91,0,0
4.1252e+05,1.7438e+09,5,5732,5800,15.84,3.24,29,91,0,0
4.1297e+05,1.7439e+09,5,5798,5757,15.79,3.08,28,91,0,0
4.1342e+05,1.744e+09,5,5764,5828,15.82,3.36,28,91,0,0
4.1427e+05,1.7442e+09,5,5829,5914,15.78,3.91,29,91,0,0
4.1472e+05,1.7443e+09,5,5912,5885,15.73,3.71,28,91,0,0
4.1516e+05,1.7444e+09,5,5907,6128,15.77,3.52,28,92,0,0
4.1565e+05,1.7446e+09,5,6089,5814,15.76,3.37,28,92,0,0
4.1607e+05,1.7447e+09,5,5807,5714,15.82,3.04,28,92,0,0
4.1646e+05,1.7448e+09,5,5718,5814,15.77,3.36,28,92,0,0
4.169e+05,1.7449e+09,5,5814,5885,15.72,3.6,29,92,0,0
4.1735e+05,1.745e+09,5,5883,5814,15.76,3.45,28,92,0,0
4.178e+05,1.7451e+09,5,5817,5914,15.72,3.62,28,92,0,0
4.1824e+05,1.7452e+09,5,5912,5885,15.79,3.49,28,92,0,0
4.1869e+05,1.7453e+09,5,5883,5857,15.82,3.24,28,92,0,0
4.191e+05,1.7454e+09,5,5856,5842,15.77,3.23,29,92,0,0
4.1959e+05,1.7455e+09,5,5845,5885,15.77,3.33,28,93,0,0
4.2004e+05,1.7457e+09,5,5890,5971,15.76,3.22,29,93,0,0
4.2089e+05,1.7459e+09,5,5971,5971,15.74,3.41,28,93,0,0
4.2134e+05,1.746e+09,5,5928,5585,15.85,3.07,28,93,0,0
4.2173e+05,1.7461e+09,5,5588,5785,15.86,3.03,29,93,0,0
4.2215e+05,1.7462e+09,5,5783,5714,15.79,3.33,29,93,0,0
4.2264e+05,1.7463e+09,5,5716,5742,15.76,3.17,29,93,0,0
4.2304e+05,1.7464e+09,5,5740,5714,15.82,2.88,28,93,0,0
4.235e+05,1.7465e+09,5,5714,5728,15.77,3.26,28,93,0,0
4.2394e+05,1.7466e+09,5,5731,5800,15.82,3.02,29,94,0,0
4.2438e+05,1.7467e+09,5,5793,5671,15.78,3.01,29,94,0,0
4.2483e+05,1.7468e+09,5,5668,5642,15.82,2.95,29,94,0,0
4.2528e+05,1.747e+09,5,5637,5585,15.79,2.94,28,94,0,0
4.2569e+05,1.7471e+09,5,5585,5600,15.83,3.11,29,94,0,0
4.2614e+05,1.7472e+09,5,5599,5542,15.84,2.83,29,94,0,0
4.2658e+05,1.7473e+09,5,5539,5514,15.77,2.95,29,94,0,0
4.2702e+05,1.7474e+09,5,5524,5671,15.81,3.15,29,94,0,0
4.2745e+05,1.7475e+09,5,5662,5585,15.79,2.89,29,94,0,0
4.2789e+05,1.7476e+09,5,5592,5671,15.85,2.96,29,94,0,0
4.2832e+05,1.7477e+09,5,5671,5671,15.72,3.53,29,94,0,0
4.2877e+05,1.7478e+09,5,5693,5928,15.68,4.18,28,95,0,0
4.2918e+05,1.7479e+09,5,5941,6242,15.71,3.99,29,95,0,0
4.2967e+05,1.7481e+09,5,6233,6142,15.75,3.64,29,95,0,0
4.3051e+05,1.7483e+09,5,6141,6128,15.85,3.87,28,95,0,0
4.3096e+05,1.7484e+09,5,6122,6028,15.73,3.5,29,95,0,0
4.3141e+05,1.7485e+09,5,6032,6100,15.72,4.16,28,95,0,0
4.3181e+05,1.7486e+09,5,6098,6071,15.77,3.67,29,95,0,0
4.323e+05,1.7487e+09,5,6072,6100,15.8,3.86,29,96,0,0
4.3273e+05,1.7488e+09,5,6095,6014,15.77,3.26,29,96,0,0
4.3316e+05,1.7489e+09,5,6001,5742,15.91,2.97,29,96,0,0
4.336e+05,1.749e+09,5,5734,5628,15.89,2.81,28,96,0,0
4.3405e+05,1.7491e+09,5,5620,5528,15.89,2.71,29,96,0,0
4.345e+05,1.7492e+09,5,5525,5471,15.88,2.77,29,96,0,0
4.3497e+05,1.7494e+09,5,5481,5600,15.84,2.64,29,96,0,0
4.3542e+05,1.7495e+09,5,5600,5600,15.8,3.06,29,96,0,0
4.3587e+05,1.7496e+09,5,5571,5157,16.04,1.03,28,96,0,0
4.3627e+05,1.7497e+09,5,5097,4328,16.16,1.18,29,96,0,0
4.372e+05,1.7499e+09,5,4293,3257,16.29,0.1,29,96,0,0
4.3761e+05,1.75e+09,5,3251,2885,16.23,0.33,29,96,0,0
4.3806e+05,1.7501e+09,5,2881,2628,16.22,0.24,29,96,0,0
4.385e+05,1.7502e+09,5,2629,2685,16.21,0.46,29,96,0,0
4.3899e+05,1.7503e+09,5,2687,2714,16.23,0.38,29,96,0,0
4.3988e+05,1.7506e+09,5,2714,2714,16.24,0.41,28,96,0,0
4.4032e+05,1.7507e+09,5,2714,2714,16.24,0.36,29,96,0,0
4.4068e+05,1.7508e+09,5,2713,2700,16.23,0.38,28,96,0,0
4.4117e+05,1.7509e+09,5,2701,2714,16.25,0.39,28,96,0,0
4.4158e+05,1.751e+09,5,2711,2671,16.26,0.36,28,96,0,0
4.4203e+05,1.7511e+09,5,2671,2700,16.25,0.39,28,96,0,0
4.4248e+05,1.7512e+09,5,2702,2742,16.25,0.39,28,96,0,0
4.4293e+05,1.7513e+09,5,2740,2714,16.24,0.37,29,96,0,0
4.4386e+05,1.7515e+09,5,2716,2785,16.25,0.4,28,96,0,0
4.4429e+05,1.7516e+09,5,2750,2414,16.32,0.1,28,96,0,0
4.4468e+05,1.7517e+09,5,2402,1757,16.32,0,28,96,0,0
4.4515e+05,1.7519e+09,5,1734,1428,16.31,0.01,28,96,0,0
4.4556e+05,1.752e+09,5,1426,1342,16.31,0.07,28,96,0,0
4.4605e+05,1.7521e+09,5,1340,1328,16.3,0.08,28,96,0,0
4.4649e+05,1.7522e+09,5,1328,1328,16.3,0.09,28,96,0,0
4.4694e+05,1.7523e+09,5,1326,1314,16.32,0.09,28,96,0,0
4.4738e+05,1.7524e+09,5,1314,1314,16.31,0.09,28,96,0,0
4.4784e+05,1.7525e+09,5,1314,1314,16.32,0.09,28,96,0,0
4.4828e+05,1.7526e+09,5,1314,1314,16.32,0.09,28,96,0,0
4.4873e+05,1.7527e+09,5,1314,1314,16.32,0.09,28,96,0,0
4.4917e+05,1.7528e+09,5,1314,1314,16.32,0.09,28,96,0,0
4.4962e+05,1.7529e+09,5,1314,1314,16.32,0.09,28,96,0,0
4.5009e+05,1.7531e+09,5,1314,1314,16.33,0.09,28,96,0,0
4.5049e+05,1.7532e+09,5,1314,1314,16.33,0.09,28,96,0,0
4.5094e+05,1.7533e+09,5,1314,1314,16.33,0.09,28,96,0,0
4.5138e+05,1.7534e+09,5,1314,1314,16.33,0.09,28,96,0,0
4.5187e+05,1.7535e+09,5,1314,1314,16.33,0.09,28,96,0,0
4.5227e+05,1.7536e+09,5,1314,1314,16.33,0.09,28,96,0,0
4.5272e+05,1.7537e+09,5,1314,1314,16.33,0.09,28,97,0,0
4.5316e+05,1.7538e+09,5,1314,1314,16.33,0.09,28,97,0,0
4.5365e+05,1.7539e+09,5,1314,1314,16.33,0.09,28,97,0,0
4.541e+05,1.754e+09,5,1314,1314,16.33,0.09,28,97,0,0
4.5454e+05,1.7541e+09,5,1314,1314,16.35,0.08,28,97,0,0
4.5499e+05,1.7542e+09,5,1314,1314,16.35,0.09,28,97,0,0
4.5548e+05,1.7543e+09,5,1315,1328,16.35,0.09,28,97,0,0
4.5591e+05,1.7545e+09,5,1327,1314,16.35,0.09,28,97,0,0
4.5674e+05,1.7547e+09,5,1314,1314,16.35,0.09,28,97,0,0
4.5718e+05,1.7548e+09,5,1314,1314,16.35,0.09,28,97,0,0
4.5763e+05,1.7549e+09,5,1314,1314,16.35,0.09,28,97,0,0
4.5812e+05,1.755e+09,5,1314,1314,16.35,0.1,28,97,0,0
4.5858e+05,1.7551e+09,5,1314,1314,16.35,0.1,28,97,0,0
4.5902e+05,1.7552e+09,5,1314,1314,16.35,0.09,28,97,0,0
4.5947e+05,1.7553e+09,5,1314,1314,16.36,0.09,28,97,0,0
4.5988e+05,1.7554e+09,5,1314,1314,16.35,0.09,28,97,0,0
4.6033e+05,1.7555e+09,5,1314,1314,16.35,0.1,28,97,0,0
4.6078e+05,1.7556e+09,5,1314,1314,16.36,0.09,28,97,0,0
4.6127e+05,1.7558e+09,5,1314,1314,16.36,0.1,28,97,0,0
4.6166e+05,1.7559e+09,5,1314,1314,16.36,0.1,28,97,0,0
4.6216e+05,1.756e+09,5,1314,1314,16.37,0.09,28,97,0,0
4.6256e+05,1.7561e+09,5,1314,1314,16.38,0.09,28,97,0,0
4.6301e+05,1.7562e+09,5,1314,1328,16.36,0.09,28,97,0,0
4.635e+05,1.7563e+09,5,1328,1328,16.37,0.09,28,97,0,0
4.6391e+05,1.7564e+09,5,1328,1328,16.36,0.09,28,97,0,0
4.6433e+05,1.7565e+09,5,1328,1328,16.37,0.09,28,97,0,0
4.6477e+05,1.7566e+09,5,1328,1328,16.38,0.09,28,97,0,0
4.6518e+05,1.7567e+09,5,1327,1314,16.38,0.09,27,97,0,0
4.6566e+05,1.7568e+09,5,1314,1328,16.37,0.09,27,97,0,0
4.6612e+05,1.7569e+09,5,1328,1328,16.38,0.09,28,97,0,0
4.6652e+05,1.757e+09,5,1328,1328,16.38,0.09,28,97,0,0
4.6701e+05,1.7572e+09,5,1328,1328,16.37,0.09,28,97,0,0
4.6741e+05,1.7573e+09,5,1328,1328,16.38,0.09,28,97,0,0
4.6789e+05,1.7574e+09,5,1328,1328,16.39,0.09,27,97,0,0
4.683e+05,1.7575e+09,5,1328,1328,16.38,0.09,27,97,0,0
4.6878e+05,1.7576e+09,5,1328,1328,16.38,0.09,27,97,0,0
4.692e+05,1.7577e+09,5,1328,1328,16.38,0.09,27,97,0,0
4.6964e+05,1.7578e+09,5,1328,1328,16.39,0.09,27,97,0,0
4.701e+05,1.7579e+09,5,1328,1328,16.39,0.09,27,97,0,0
4.7054e+05,1.758e+09,5,1328,1328,16.39,0.09,27,97,0,0
4.7098e+05,1.7581e+09,5,1328,1328,16.39,0.09,27,97,0,0
4.7143e+05,1.7582e+09,5,1328,1328,16.39,0.09,27,97,0,0
4.7188e+05,1.7583e+09,5,1328,1328,16.39,0.09,27,97,0,0
4.7282e+05,1.7586e+09,5,1328,1328,16.39,0.09,27,97,0,0
4.7324e+05,1.7587e+09,5,1328,1328,16.39,0.09,27,97,0,0
4.7367e+05,1.7588e+09,5,1328,1328,16.39,0.09,27,97,0,0
4.7411e+05,1.7589e+09,5,1328,1328,16.39,0.09,27,97,0,0
4.7456e+05,1.759e+09,5,1328,1328,16.39,0.09,27,97,0,0
4.7505e+05,1.7591e+09,5,1328,1328,16.39,0.09,27,97,0,0
4.7545e+05,1.7592e+09,5,1328,1328,16.4,0.09,27,97,0,0
4.7594e+05,1.7593e+09,5,1328,1328,16.4,0.09,27,97,0,0
4.7638e+05,1.7594e+09,5,1328,1328,16.4,0.09,27,97,0,0
4.7683e+05,1.7595e+09,5,1328,1328,16.41,0.09,27,97,0,0
4.7726e+05,1.7596e+09,5,1328,1328,16.41,0.09,27,97,0,0
4.7769e+05,1.7597e+09,5,1328,1328,16.41,0.09,27,97,0,0
4.7813e+05,1.7598e+09,5,1328,1328,16.39,0.09,27,97,0,0
4.7906e+05,1.7601e+09,5,1328,1328,16.39,0.09,27,97,0,0
4.795e+05,1.7602e+09,5,1328,1328,16.4,0.09,27,97,0,0
4.7995e+05,1.7603e+09,5,1328,1328,16.39,0.09,27,97,0,0
4.804e+05,1.7604e+09,5,1328,1328,16.41,0.09,27,97,0,0
4.8085e+05,1.7605e+09,5,1328,1328,16.41,0.09,27,97,0,0
4.813e+05,1.7606e+09,5,1328,1328,16.4,0.09,27,97,0,0
4.8174e+05,1.7607e+09,5,1328,1328,16.41,0.09,27,97,0,0
4.8264e+05,1.7609e+09,5,1328,1328,16.41,0.09,27,97,0,0
4.8305e+05,1.761e+09,5,1328,1328,16.41,0.09,27,97,0,0
4.8354e+05,1.7612e+09,5,1328,1328,16.42,0.09,27,97,0,0
4.8394e+05,1.7613e+09,5,1328,1328,16.41,0.09,27,97,0,0
4.8443e+05,1.7614e+09,5,1328,1328,16.41,0.09,27,97,0,0
4.8484e+05,1.7615e+09,5,1328,1328,16.41,0.09,27,97,0,0
4.8528e+05,1.7616e+09,5,1328,1328,16.41,0.09,27,97,0,0
4.8573e+05,1.7617e+09,5,1328,1328,16.41,0.09,27,97,0,0
4.8622e+05,1.7618e+09,5,1231,371,16.44,0,27,97,0,0
4.8667e+05,1.7619e+09,5,343,0,16.43,0.01,27,97,0,0
4.8712e+05,1.762e+09,5,0,0,16.43,0.02,27,97,0,0
4.8761e+05,1.7621e+09,5,0,0,16.44,0.02,27,97,0,0
4.8806e+05,1.7622e+09,5,0,0,16.44,0.02,27,97,0,0
4.8851e+05,1.7623e+09,5,0,0,16.44,0.02,27,97,0,0
4.8896e+05,1.7625e+09,5,0,0,16.44,0.02,27,97,0,0
4.8942e+05,1.7626e+09,5,0,0,16.44,0.02,27,97,0,0
4.8985e+05,1.7627e+09,5,0,0,16.44,0.02,27,97,0,0
4.9028e+05,1.7628e+09,5,0,0,16.44,0.02,27,97,0,0
4.9073e+05,1.7629e+09,5,0,0,16.44,0.02,27,97,0,0
4.9122e+05,1.763e+09,5,0,0,16.44,0.02,27,97,0,0
4.9168e+05,1.7631e+09,5,0,0,16.44,0.02,27,97,0,0
4.9213e+05,1.7632e+09,5,0,0,16.44,0.02,27,97,0,0
4.9258e+05,1.7633e+09,5,0,0,16.44,0.02,27,97,0,0
4.9299e+05,1.7634e+09,5,0,0,16.44,0.02,27,97,0,0
4.9348e+05,1.7635e+09,5,0,0,16.44,0.02,27,97,0,0
4.9392e+05,1.7636e+09,5,0,0,16.44,0.02,27,97,0,0
4.944e+05,1.7638e+09,5,0,0,16.45,0.02,27,97,0,0
4.9485e+05,1.7639e+09,5,0,0,16.45,0.02,27,97,0,0
4.953e+05,1.764e+09,5,0,0,16.44,0.02,27,97,0,0
4.9575e+05,1.7641e+09,5,0,0,16.45,0.02,27,97,0,0
4.9624e+05,1.7642e+09,5,0,0,16.44,0.02,27,97,0,0
4.9669e+05,1.7643e+09,5,0,0,16.45,0.02,27,97,0,0
4.9714e+05,1.7644e+09,5,0,0,16.44,0.01,27,97,0,0
4.9764e+05,1.7645e+09,5,0,0,16.45,0.02,27,97,0,0
4.9808e+05,1.7646e+09,5,0,0,16.45,0.02,27,97,0,0
4.985e+05,1.7647e+09,5,0,0,16.45,0.02,27,97,0,0
4.9899e+05,1.7648e+09,5,0,0,16.45,0.02,27,97,0,0
4.9946e+05,1.765e+09,5,0,0,16.45,0.02,27,97,0,0
4.9991e+05,1.7651e+09,5,0,0,16.45,0.02,27,97,0,0
5.0035e+05,1.7652e+09,5,0,0,16.45,0.02,27,97,0,0
5.008e+05,1.7653e+09,5,0,0,16.45,0.02,27,97,0,0
5.0125e+05,1.7654e+09,5,0,0,16.45,0.02,27,97,0,0
5.0168e+05,1.7655e+09,5,0,0,16.45,0.02,27,97,0,0
5.0212e+05,1.7656e+09,5,0,0,16.46,0.02,27,97,0,0
5.0262e+05,1.7657e+09,5,0,0,16.45,0.02,27,97,0,0
5.0303e+05,1.7658e+09,5,0,0,16.46,0.02,27,97,0,0
5.0353e+05,1.7659e+09,5,0,0,16.45,0.02,27,97,0,0
5.0398e+05,1.766e+09,5,0,0,16.46,0.02,27,97,0,0
5.0443e+05,1.7661e+09,5,0,0,16.46,0.02,27,97,0,0
5.0488e+05,1.7662e+09,5,0,0,16.46,0.02,27,97,0,0
5.0533e+05,1.7663e+09,5,0,0,16.45,0.02,27,97,0,0
5.0581e+05,1.7665e+09,5,0,0,16.46,0.02,27,97,0,0
5.0624e+05,1.7666e+09,5,0,0,16.46,0.02,27,97,0,0
5.0714e+05,1.7668e+09,5,0,0,16.47,0.02,27,97,0,0
5.0764e+05,1.7669e+09,5,0,0,16.46,0.02,27,97,0,0
5.0805e+05,1.767e+09,5,0,0,16.46,0.02,27,97,0,0
