LineNo,TimeUS,I,VDop,HAcc,VAcc,SAcc,YAcc,VV,SMS,Delta,Und
520,1.6419e+09,0,1.01,0.89,1.16,0.19,0,1,1.6419e+06,200,-43.043
1890,1.6424e+09,0,1.02,0.89,1.16,0.2,0,1,1.6423e+06,200,-43.043
2669,1.6425e+09,0,1.02,0.89,1.16,0.24,0,1,1.6425e+06,200,-43.043
3543,1.6428e+09,0,1.01,0.89,1.15,0.16,0,1,1.6427e+06,200,-43.043
4353,1.6429e+09,0,1.02,0.89,1.15,0.22,0,1,1.6429e+06,200,-43.043
5215,1.6431e+09,0,1.02,0.89,1.15,0.2,0,1,1.6431e+06,200,-43.043
6026,1.6433e+09,0,1.02,0.89,1.15,0.23,0,1,1.6433e+06,200,-43.043
6892,1.6435e+09,0,1.02,0.89,1.15,0.21,0,1,1.6435e+06,200,-43.043
7726,1.6437e+09,0,1.02,0.89,1.15,0.21,0,1,1.6437e+06,200,-43.043
8630,1.6439e+09,0,1.02,0.89,1.15,0.25,0,1,1.6439e+06,200,-43.043
9526,1.6442e+09,0,1.02,0.89,1.15,0.21,0,1,1.6441e+06,200,-43.043
10269,1.6443e+09,0,1.02,0.89,1.15,0.2,0,1,1.6443e+06,200,-43.043
11168,1.6445e+09,0,1.02,0.89,1.15,0.23,0,1,1.6445e+06,200,-43.043
12068,1.6448e+09,0,1.02,0.89,1.15,0.21,0,1,1.6447e+06,200,-43.043
12818,1.6449e+09,0,1.02,0.89,1.15,0.25,0,1,1.6449e+06,200,-43.044
14370,1.6454e+09,0,1.02,0.89,1.15,0.24,0,1,1.6453e+06,200,-43.043
15228,1.6456e+09,0,1.01,0.89,1.15,0.18,0,1,1.6455e+06,200,-43.044
16011,1.6457e+09,0,1.02,0.89,1.15,0.22,0,1,1.6457e+06,200,-43.043
16916,1.646e+09,0,1.02,0.89,1.15,0.21,0,1,1.6459e+06,200,-43.043
17692,1.6461e+09,0,1.02,0.89,1.15,0.2,0,1,1.6461e+06,200,-43.043
18530,1.6463e+09,0,1.02,0.89,1.15,0.21,0,1,1.6463e+06,200,-43.043
19430,1.6466e+09,0,1.01,0.89,1.15,0.21,0,1,1.6465e+06,200,-43.044
20268,1.6468e+09,0,1.01,0.89,1.15,0.24,0,1,1.6467e+06,200,-43.044
21083,1.6469e+09,0,1.01,0.89,1.15,0.23,0,1,1.6469e+06,200,-43.043
21952,1.6472e+09,0,1.01,0.89,1.15,0.26,0,1,1.6471e+06,200,-43.043
22727,1.6473e+09,0,1.02,0.89,1.15,0.17,0,1,1.6473e+06,200,-43.043
23594,1.6475e+09,0,1.02,0.88,1.14,0.12,0,1,1.6475e+06,200,-43.043
24499,1.6478e+09,0,1.02,0.88,1.14,0.2,0,1,1.6477e+06,200,-43.043
25364,1.648e+09,0,1.02,0.88,1.14,0.26,0,1,1.6479e+06,200,-43.043
26173,1.6481e+09,0,1.02,0.88,1.14,0.26,0,1,1.6481e+06,200,-43.043
27043,1.6484e+09,0,1.02,0.88,1.14,0.18,0,1,1.6483e+06,200,-43.044
27790,1.6485e+09,0,1.02,0.88,1.14,0.22,0,1,1.6485e+06,200,-43.043
28597,1.6487e+09,0,1.02,0.88,1.14,0.23,0,1,1.6487e+06,200,-43.044
29503,1.649e+09,0,1.01,0.88,1.14,0.18,0,1,1.6489e+06,200,-43.043
30333,1.6492e+09,0,1.01,0.88,1.14,0.2,0,1,1.6491e+06,200,-43.043
31143,1.6494e+09,0,1.01,0.88,1.14,0.19,0,1,1.6493e+06,200,-43.043
31949,1.6495e+09,0,1.01,0.88,1.14,0.21,0,1,1.6495e+06,200,-43.044
32852,1.6498e+09,0,1.01,0.88,1.14,0.19,0,1,1.6497e+06,200,-43.043
33629,1.6499e+09,0,1.01,0.88,1.14,0.21,0,1,1.6499e+06,200,-43.043
34441,1.6501e+09,0,1.04,0.88,1.13,0.2,0,1,1.6501e+06,200,-43.043
35344,1.6503e+09,0,1.04,0.88,1.13,0.21,0,1,1.6503e+06,200,-43.044
36175,1.6506e+09,0,1.04,0.88,1.13,0.22,0,1,1.6505e+06,200,-43.044
36987,1.6507e+09,0,1.04,0.87,1.13,0.22,0,1,1.6507e+06,200,-43.043
37764,1.6509e+09,0,1.04,0.87,1.13,0.21,0,1,1.6509e+06,200,-43.043
38668,1.6512e+09,0,1.04,0.87,1.13,0.22,0,1,1.6511e+06,200,-43.043
39439,1.6513e+09,0,1.01,0.87,1.12,0.22,0,1,1.6513e+06,200,-43.043
40304,1.6515e+09,0,1.01,0.87,1.12,0.23,0,1,1.6515e+06,200,-43.043
41207,1.6518e+09,0,1.01,0.87,1.12,0.21,0,1,1.6517e+06,200,-43.043
42020,1.652e+09,0,1.01,0.87,1.12,0.23,0,1,1.6519e+06,200,-43.044
42784,1.6522e+09,0,1.01,0.86,1.12,0.22,0,1,1.6521e+06,200,-43.043
43560,1.6523e+09,0,1.01,0.86,1.12,0.24,0,1,1.6523e+06,200,-43.043
44362,1.6525e+09,0,1.01,0.86,1.11,0.22,0,1,1.6525e+06,200,-43.043
45159,1.6527e+09,0,1.01,0.86,1.11,0.2,0,1,1.6527e+06,200,-43.043
46047,1.653e+09,0,1.04,0.86,1.11,0.22,0,1,1.6529e+06,200,-43.043
46783,1.6532e+09,0,1.04,0.86,1.11,0.22,0,1,1.6531e+06,200,-43.043
47582,1.6534e+09,0,1.04,0.85,1.11,0.22,0,1,1.6533e+06,200,-43.043
48382,1.6535e+09,0,1.04,0.85,1.11,0.21,0,1,1.6535e+06,200,-43.044
49279,1.6538e+09,0,1.04,0.85,1.11,0.19,0,1,1.6537e+06,200,-43.043
50079,1.654e+09,0,1.04,0.85,1.1,0.21,0,1,1.6539e+06,200,-43.044
50759,1.6541e+09,0,1.01,0.85,1.1,0.21,0,1,1.6541e+06,200,-43.043
51618,1.6544e+09,0,1.01,0.85,1.1,0.19,0,1,1.6543e+06,200,-43.043
52417,1.6546e+09,0,1.01,0.84,1.1,0.18,0,1,1.6545e+06,200,-43.043
53162,1.6547e+09,0,1.04,0.84,1.1,0.19,0,1,1.6547e+06,200,-43.044
53970,1.6549e+09,0,1.04,0.84,1.1,0.21,0,1,1.6549e+06,200,-43.043
54771,1.6551e+09,0,1.04,0.84,1.1,0.21,0,1,1.6551e+06,200,-43.043
55666,1.6554e+09,0,1.04,0.84,1.1,0.23,0,1,1.6553e+06,200,-43.043
56462,1.6556e+09,0,1.01,0.84,1.09,0.23,0,1,1.6555e+06,200,-43.043
57198,1.6557e+09,0,1.01,0.83,1.09,0.22,0,1,1.6557e+06,200,-43.044
58087,1.656e+09,0,1.01,0.83,1.09,0.18,0,1,1.6559e+06,200,-43.043
58859,1.6562e+09,0,1.01,0.83,1.09,0.15,0,1,1.6561e+06,200,-43.043
59666,1.6564e+09,0,1.01,0.83,1.09,0.15,0,1,1.6563e+06,200,-43.043
60467,1.6565e+09,0,1.01,0.83,1.09,0.14,0,1,1.6565e+06,200,-43.044
61320,1.6568e+09,0,1.04,0.83,1.09,0.13,0,1,1.6567e+06,200,-43.043
62110,1.657e+09,0,0.99,0.83,1.09,0.13,0,1,1.6569e+06,200,-43.044
62877,1.6571e+09,0,1.01,0.82,1.08,0.14,0,1,1.6571e+06,200,-43.043
63648,1.6573e+09,0,1.01,0.82,1.08,0.14,0,1,1.6573e+06,200,-43.043
64536,1.6576e+09,0,0.99,0.82,1.08,0.12,0,1,1.6575e+06,200,-43.044
65342,1.6578e+09,0,1.01,0.82,1.08,0.12,0,1,1.6577e+06,200,-43.043
66106,1.6579e+09,0,1.04,0.82,1.08,0.14,0,1,1.6579e+06,200,-43.044
66957,1.6582e+09,0,1.04,0.82,1.08,0.12,0,1,1.6581e+06,200,-43.043
67757,1.6584e+09,0,1.01,0.82,1.08,0.15,0,1,1.6583e+06,200,-43.043
68520,1.6585e+09,0,0.99,0.81,1.07,0.16,0,1,1.6585e+06,200,-43.044
69392,1.6588e+09,0,1.01,0.81,1.07,0.12,0,1,1.6587e+06,200,-43.043
70159,1.659e+09,0,1.01,0.81,1.07,0.12,0,1,1.6589e+06,200,-43.043
70966,1.6592e+09,0,0.99,0.81,1.07,0.12,0,1,1.6591e+06,200,-43.043
71730,1.6593e+09,0,0.99,0.81,1.07,0.13,0,1,1.6593e+06,200,-43.043
72493,1.6595e+09,0,0.99,0.81,1.07,0.13,0,1,1.6595e+06,200,-43.043
73354,1.6598e+09,0,0.99,0.81,1.07,0.13,0,1,1.6597e+06,200,-43.043
74156,1.6599e+09,0,1.01,0.81,1.07,0.14,0,1,1.6599e+06,200,-43.043
74921,1.6601e+09,0,1.01,0.81,1.07,0.15,0,1,1.6601e+06,200,-43.043
75814,1.6604e+09,0,0.99,0.8,1.06,0.15,0,1,1.6603e+06,200,-43.044
76554,1.6605e+09,0,0.99,0.8,1.06,0.14,0,1,1.6605e+06,200,-43.043
77450,1.6608e+09,0,1.01,0.8,1.06,0.14,0,1,1.6607e+06,200,-43.043
78158,1.6609e+09,0,1.01,0.8,1.06,0.14,0,1,1.6609e+06,200,-43.043
78962,1.6611e+09,0,1.04,0.8,1.06,0.15,0,1,1.6611e+06,200,-43.044
79851,1.6614e+09,0,1.04,0.8,1.06,0.2,0,1,1.6613e+06,200,-43.043
80652,1.6616e+09,0,0.99,0.8,1.06,0.18,0,1,1.6615e+06,200,-43.043
81421,1.6617e+09,0,0.99,0.8,1.06,0.2,0,1,1.6617e+06,200,-43.043
82228,1.6619e+09,0,1.01,0.8,1.06,0.16,0,1,1.6619e+06,200,-43.043
83117,1.6622e+09,0,1.01,0.8,1.06,0.15,0,1,1.6621e+06,200,-43.043
83915,1.6624e+09,0,1.01,0.8,1.06,0.15,0,1,1.6623e+06,200,-43.043
84803,1.6626e+09,0,1.01,0.8,1.05,0.12,0,1,1.6625e+06,200,-43.044
85566,1.6628e+09,0,1.01,0.79,1.05,0.13,0,1,1.6627e+06,200,-43.043
86371,1.663e+09,0,1.01,0.79,1.05,0.14,0,1,1.6629e+06,200,-43.044
87110,1.6631e+09,0,1.01,0.79,1.05,0.12,0,1,1.6631e+06,200,-43.043
87912,1.6633e+09,0,1.01,0.79,1.05,0.16,0,1,1.6633e+06,200,-43.043
88799,1.6636e+09,0,1.01,0.79,1.05,0.13,0,1,1.6635e+06,200,-43.043
89601,1.6638e+09,0,1.01,0.79,1.05,0.12,0,1,1.6637e+06,200,-43.043
90404,1.664e+09,0,1.01,0.79,1.05,0.12,0,1,1.6639e+06,200,-43.043
91207,1.6642e+09,0,0.99,0.79,1.05,0.12,0,1,1.6641e+06,200,-43.043
91974,1.6643e+09,0,0.99,0.79,1.05,0.13,0,1,1.6643e+06,200,-43.043
92865,1.6646e+09,0,0.99,0.79,1.05,0.13,0,1,1.6645e+06,200,-43.043
93672,1.6648e+09,0,0.99,0.79,1.04,0.15,0,1,1.6647e+06,200,-43.043
94440,1.6649e+09,0,0.99,0.79,1.04,0.14,0,1,1.6649e+06,200,-43.043
95325,1.6652e+09,0,0.99,0.79,1.04,0.14,0,1,1.6651e+06,200,-43.043
96090,1.6654e+09,0,0.99,0.78,1.04,0.14,0,1,1.6653e+06,200,-43.043
96891,1.6656e+09,0,0.99,0.78,1.04,0.16,0,1,1.6655e+06,200,-43.043
97664,1.6657e+09,0,0.99,0.78,1.04,0.13,0,1,1.6657e+06,200,-43.043
98556,1.666e+09,0,0.99,0.78,1.04,0.15,0,1,1.6659e+06,200,-43.043
99362,1.6662e+09,0,0.99,0.78,1.04,0.13,0,1,1.6661e+06,200,-43.044
1.0017e+05,1.6664e+09,0,0.99,0.78,1.04,0.13,0,1,1.6663e+06,200,-43.043
1.0093e+05,1.6666e+09,0,0.99,0.78,1.04,0.12,0,1,1.6665e+06,200,-43.043
1.0183e+05,1.6668e+09,0,0.99,0.78,1.04,0.12,0,1,1.6667e+06,200,-43.043
1.0262e+05,1.667e+09,0,0.99,0.78,1.03,0.13,0,1,1.6669e+06,200,-43.043
1.0339e+05,1.6672e+09,0,1.01,0.78,1.03,0.14,0,1,1.6671e+06,200,-43.043
1.042e+05,1.6674e+09,0,1.01,0.78,1.03,0.15,0,1,1.6673e+06,200,-43.044
1.05e+05,1.6675e+09,0,1.01,0.78,1.03,0.16,0,1,1.6675e+06,200,-43.043
1.058e+05,1.6677e+09,0,1.01,0.78,1.03,0.17,0,1,1.6677e+06,200,-43.043
1.0666e+05,1.668e+09,0,1.01,0.78,1.03,0.15,0,1,1.6679e+06,200,-43.043
1.0745e+05,1.6681e+09,0,1.01,0.78,1.03,0.13,0,1,1.6681e+06,200,-43.043
1.0822e+05,1.6683e+09,0,1.01,0.78,1.03,0.13,0,1,1.6683e+06,200,-43.044
1.0908e+05,1.6686e+09,0,1.01,0.77,1.03,0.13,0,1,1.6685e+06,200,-43.043
1.0989e+05,1.6688e+09,0,1.01,0.77,1.03,0.11,0,1,1.6687e+06,200,-43.043
1.107e+05,1.669e+09,0,1.01,0.77,1.03,0.12,0,1,1.6689e+06,200,-43.044
1.1146e+05,1.6691e+09,0,1.01,0.77,1.03,0.13,0,1,1.6691e+06,200,-43.043
1.1226e+05,1.6693e+09,0,1.01,0.77,1.03,0.13,0,1,1.6693e+06,200,-43.043
1.1312e+05,1.6696e+09,0,1.01,0.77,1.03,0.16,0,1,1.6695e+06,200,-43.044
1.1392e+05,1.6698e+09,0,1.01,0.77,1.03,0.18,0,1,1.6697e+06,200,-43.043
1.1472e+05,1.67e+09,0,1.01,0.77,1.03,0.17,0,1,1.6699e+06,200,-43.044
1.1553e+05,1.6701e+09,0,1.01,0.77,1.03,0.15,0,1,1.6701e+06,200,-43.044
1.163e+05,1.6703e+09,0,1.01,0.77,1.03,0.14,0,1,1.6703e+06,200,-43.043
1.171e+05,1.6705e+09,0,1.01,0.77,1.03,0.14,0,1,1.6705e+06,200,-43.043
1.18e+05,1.6708e+09,0,1.01,0.77,1.03,0.15,0,1,1.6707e+06,200,-43.043
1.1876e+05,1.6709e+09,0,1.01,0.77,1.02,0.14,0,1,1.6709e+06,200,-43.043
1.1956e+05,1.6711e+09,0,1.01,0.77,1.02,0.15,0,1,1.6711e+06,200,-43.044
1.2046e+05,1.6714e+09,0,1.01,0.77,1.02,0.15,0,1,1.6713e+06,200,-43.043
1.2127e+05,1.6716e+09,0,1.01,0.77,1.02,0.15,0,1,1.6715e+06,200,-43.044
1.2207e+05,1.6717e+09,0,1.01,0.77,1.02,0.16,0,1,1.6717e+06,200,-43.043
1.2284e+05,1.6719e+09,0,1.01,0.77,1.02,0.16,0,1,1.6719e+06,200,-43.043
1.2373e+05,1.6722e+09,0,1.01,0.77,1.02,0.15,0,1,1.6721e+06,200,-43.043
1.245e+05,1.6724e+09,0,1.01,0.77,1.02,0.14,0,1,1.6723e+06,200,-43.043
1.253e+05,1.6726e+09,0,1.01,0.77,1.02,0.15,0,1,1.6725e+06,200,-43.043
1.262e+05,1.6728e+09,0,1.01,0.76,1.02,0.14,0,1,1.6727e+06,200,-43.043
1.27e+05,1.673e+09,0,1.01,0.76,1.02,0.15,0,1,1.6729e+06,200,-43.043
1.2768e+05,1.6731e+09,0,1.01,0.76,1.02,0.17,0,1,1.6731e+06,200,-43.043
1.2857e+05,1.6733e+09,0,1.01,0.76,1.02,0.14,0,1,1.6733e+06,200,-43.043
1.2937e+05,1.6735e+09,0,1.01,0.76,1.02,0.14,0,1,1.6735e+06,200,-43.043
1.3023e+05,1.6738e+09,0,1.01,0.76,1.02,0.14,0,1,1.6737e+06,200,-43.043
1.3104e+05,1.674e+09,0,1.01,0.76,1.02,0.14,0,1,1.6739e+06,200,-43.043
1.3181e+05,1.6742e+09,0,1.01,0.76,1.02,0.15,0,1,1.6741e+06,200,-43.043
1.3262e+05,1.6743e+09,0,1.01,0.76,1.01,0.16,0,1,1.6743e+06,200,-43.043
1.3342e+05,1.6745e+09,0,1.01,0.76,1.01,0.16,0,1,1.6745e+06,200,-43.043
1.3423e+05,1.6747e+09,0,1.01,0.76,1.01,0.16,0,1,1.6747e+06,200,-43.044
1.3503e+05,1.6749e+09,0,1.01,0.76,1.01,0.17,0,1,1.6749e+06,200,-43.043
1.3589e+05,1.6752e+09,0,0.99,0.76,1.01,0.16,0,1,1.6751e+06,200,-43.043
1.3669e+05,1.6754e+09,0,0.99,0.76,1.01,0.16,0,1,1.6753e+06,200,-43.044
1.3746e+05,1.6756e+09,0,0.99,0.76,1.01,0.18,0,1,1.6755e+06,200,-43.043
1.3827e+05,1.6757e+09,0,1.01,0.76,1.01,0.17,0,1,1.6757e+06,200,-43.043
1.3907e+05,1.6759e+09,0,1.01,0.76,1.01,0.16,0,1,1.6759e+06,200,-43.043
1.3993e+05,1.6762e+09,0,1.01,0.75,1.01,0.15,0,1,1.6761e+06,200,-43.043
1.4073e+05,1.6764e+09,0,1.01,0.75,1.01,0.14,0,1,1.6763e+06,200,-43.043
1.4153e+05,1.6765e+09,0,1.01,0.75,1.01,0.16,0,1,1.6765e+06,200,-43.043
1.4239e+05,1.6768e+09,0,1.01,0.75,1.01,0.14,0,1,1.6767e+06,200,-43.043
1.432e+05,1.677e+09,0,1.01,0.75,1.01,0.15,0,1,1.6769e+06,200,-43.044
1.44e+05,1.6772e+09,0,1.01,0.75,1.01,0.15,0,1,1.6771e+06,200,-43.043
1.4472e+05,1.6773e+09,0,1.01,0.75,1,0.15,0,1,1.6773e+06,200,-43.044
1.4561e+05,1.6776e+09,0,0.99,0.75,1,0.15,0,1,1.6775e+06,200,-43.044
1.4641e+05,1.6778e+09,0,0.99,0.75,1,0.14,0,1,1.6777e+06,200,-43.044
1.4718e+05,1.6779e+09,0,1.01,0.75,1,0.13,0,1,1.6779e+06,200,-43.043
1.4807e+05,1.6782e+09,0,0.99,0.75,1,0.12,0,1,1.6781e+06,200,-43.043
1.4884e+05,1.6784e+09,0,0.99,0.75,1,0.12,0,1,1.6783e+06,200,-43.043
1.4965e+05,1.6786e+09,0,0.99,0.75,1,0.11,0,1,1.6785e+06,200,-43.043
1.5045e+05,1.6788e+09,0,0.99,0.75,1,0.11,0,1,1.6787e+06,200,-43.043
1.5126e+05,1.679e+09,0,0.99,0.75,1,0.1,0,1,1.6789e+06,200,-43.043
1.5207e+05,1.6792e+09,0,0.99,0.75,1,0.11,0,1,1.6791e+06,200,-43.043
1.5286e+05,1.6793e+09,0,0.99,0.75,1,0.11,0,1,1.6793e+06,200,-43.043
1.5364e+05,1.6795e+09,0,0.99,0.75,1,0.11,0,1,1.6795e+06,200,-43.043
1.5453e+05,1.6798e+09,0,1.01,0.75,1,0.12,0,1,1.6797e+06,200,-43.044
1.5527e+05,1.6799e+09,0,1.01,0.74,1,0.12,0,1,1.6799e+06,200,-43.043
1.5606e+05,1.6801e+09,0,1.01,0.74,1,0.11,0,1,1.6801e+06,200,-43.044
1.5696e+05,1.6804e+09,0,0.99,0.74,1,0.12,0,1,1.6803e+06,200,-43.043
1.5772e+05,1.6806e+09,0,0.99,0.74,0.99,0.12,0,1,1.6805e+06,200,-43.043
1.5849e+05,1.6807e+09,0,0.99,0.74,0.99,0.11,0,1,1.6807e+06,200,-43.044
1.5938e+05,1.681e+09,0,0.99,0.74,0.99,0.11,0,1,1.6809e+06,200,-43.043
1.6015e+05,1.6812e+09,0,0.99,0.74,0.99,0.12,0,1,1.6811e+06,200,-43.043
1.6095e+05,1.6813e+09,0,0.99,0.74,0.99,0.12,0,1,1.6813e+06,200,-43.043
1.6176e+05,1.6815e+09,0,0.99,0.74,0.99,0.12,0,1,1.6815e+06,200,-43.043
1.6264e+05,1.6818e+09,0,0.99,0.74,0.99,0.12,0,1,1.6817e+06,200,-43.043
1.6344e+05,1.682e+09,0,0.99,0.74,0.99,0.14,0,1,1.6819e+06,200,-43.043
1.6421e+05,1.6822e+09,0,0.99,0.73,0.99,0.13,0,1,1.6821e+06,200,-43.044
1.6501e+05,1.6823e+09,0,0.99,0.73,0.99,0.12,0,1,1.6823e+06,200,-43.043
1.6583e+05,1.6826e+09,0,0.99,0.73,0.99,0.11,0,1,1.6825e+06,200,-43.043
1.6663e+05,1.6828e+09,0,0.99,0.73,0.99,0.11,0,1,1.6827e+06,200,-43.043
1.6744e+05,1.683e+09,0,0.99,0.73,0.99,0.11,0,1,1.6829e+06,200,-43.043
1.6824e+05,1.6832e+09,0,0.99,0.73,0.98,0.11,0,1,1.6831e+06,200,-43.043
1.6904e+05,1.6833e+09,0,0.99,0.73,0.98,0.11,0,1,1.6833e+06,200,-43.043
1.6981e+05,1.6835e+09,0,0.99,0.73,0.98,0.11,0,1,1.6835e+06,200,-43.044
1.7058e+05,1.6837e+09,0,0.99,0.73,0.98,0.1,0,1,1.6837e+06,200,-43.043
1.7143e+05,1.684e+09,0,0.99,0.73,0.98,0.11,0,1,1.6839e+06,200,-43.043
1.7224e+05,1.6841e+09,0,0.99,0.73,0.98,0.11,0,1,1.6841e+06,200,-43.043
1.7304e+05,1.6843e+09,0,0.99,0.72,0.98,0.11,0,1,1.6843e+06,200,-43.044
1.7385e+05,1.6845e+09,0,0.99,0.72,0.98,0.1,0,1,1.6845e+06,200,-43.043
1.747e+05,1.6848e+09,0,0.99,0.72,0.98,0.1,0,1,1.6847e+06,200,-43.043
1.7546e+05,1.685e+09,0,0.99,0.72,0.98,0.11,0,1,1.6849e+06,200,-43.044
1.7626e+05,1.6852e+09,0,0.99,0.72,0.97,0.1,0,1,1.6851e+06,200,-43.043
1.7707e+05,1.6853e+09,0,0.99,0.72,0.97,0.1,0,1,1.6853e+06,200,-43.043
1.7796e+05,1.6856e+09,0,0.99,0.72,0.97,0.1,0,1,1.6855e+06,200,-43.044
1.7876e+05,1.6858e+09,0,0.99,0.72,0.97,0.1,0,1,1.6857e+06,200,-43.043
1.7953e+05,1.6859e+09,0,0.99,0.72,0.97,0.1,0,1,1.6859e+06,200,-43.043
1.8038e+05,1.6862e+09,0,0.99,0.71,0.97,0.1,0,1,1.6861e+06,200,-43.043
1.8118e+05,1.6864e+09,0,0.99,0.71,0.97,0.11,0,1,1.6863e+06,200,-43.043
1.8192e+05,1.6866e+09,0,0.99,0.71,0.97,0.12,0,1,1.6865e+06,200,-43.043
1.8272e+05,1.6868e+09,0,0.99,0.71,0.97,0.12,0,1,1.6867e+06,200,-43.043
1.8353e+05,1.6869e+09,0,0.99,0.71,0.97,0.19,0,1,1.6869e+06,200,-43.044
1.8438e+05,1.6872e+09,0,0.99,0.71,0.96,0.17,0,1,1.6871e+06,200,-43.043
1.8518e+05,1.6874e+09,0,0.99,0.71,0.96,0.18,0,1,1.6873e+06,200,-43.043
1.8595e+05,1.6876e+09,0,0.99,0.71,0.96,0.17,0,1,1.6875e+06,200,-43.043
1.8675e+05,1.6877e+09,0,0.99,0.71,0.96,0.19,0,1,1.6877e+06,200,-43.043
1.8761e+05,1.688e+09,0,0.99,0.71,0.96,0.18,0,1,1.6879e+06,200,-43.044
1.8834e+05,1.6882e+09,0,0.99,0.71,0.96,0.16,0,1,1.6881e+06,200,-43.043
1.8914e+05,1.6883e+09,0,0.99,0.71,0.96,0.17,0,1,1.6883e+06,200,-43.043
1.8996e+05,1.6886e+09,0,0.99,0.7,0.96,0.16,0,1,1.6885e+06,200,-43.043
1.9077e+05,1.6888e+09,0,0.99,0.7,0.96,0.16,0,1,1.6887e+06,200,-43.043
1.9157e+05,1.6889e+09,0,0.99,0.7,0.96,0.11,0,1,1.6889e+06,200,-43.043
1.9242e+05,1.6892e+09,0,0.99,0.7,0.96,0.11,0,1,1.6891e+06,200,-43.043
1.9322e+05,1.6894e+09,0,0.99,0.7,0.96,0.1,0,1,1.6893e+06,200,-43.043
1.939e+05,1.6895e+09,0,0.99,0.7,0.96,0.11,0,1,1.6895e+06,200,-43.043
1.9479e+05,1.6898e+09,0,0.99,0.7,0.96,0.13,0,1,1.6897e+06,200,-43.043
1.9556e+05,1.6899e+09,0,0.99,0.7,0.95,0.17,0,1,1.6899e+06,200,-43.043
1.9645e+05,1.6902e+09,0,0.99,0.7,0.95,0.14,0,1,1.6901e+06,200,-43.043
1.9722e+05,1.6904e+09,0,0.99,0.7,0.95,0.12,0,1,1.6903e+06,200,-43.043
1.9799e+05,1.6906e+09,0,0.99,0.7,0.95,0.12,0,1,1.6905e+06,200,-43.043
1.9879e+05,1.6908e+09,0,0.99,0.7,0.95,0.12,0,1,1.6907e+06,200,-43.043
1.9956e+05,1.6909e+09,0,0.99,0.7,0.95,0.12,0,1,1.6909e+06,200,-43.044
2.0041e+05,1.6912e+09,0,0.99,0.69,0.95,0.12,0,1,1.6911e+06,200,-43.043
2.0122e+05,1.6914e+09,0,0.99,0.69,0.95,0.13,0,1,1.6913e+06,200,-43.043
2.0202e+05,1.6916e+09,0,0.99,0.69,0.95,0.12,0,1,1.6915e+06,200,-43.043
2.0282e+05,1.6917e+09,0,0.99,0.69,0.95,0.12,0,1,1.6917e+06,200,-43.043
2.0355e+05,1.6919e+09,0,0.99,0.69,0.95,0.12,0,1,1.6919e+06,200,-43.043
2.0444e+05,1.6922e+09,0,0.99,0.69,0.95,0.12,0,1,1.6921e+06,200,-43.043
2.0517e+05,1.6924e+09,0,0.99,0.69,0.95,0.12,0,1,1.6923e+06,200,-43.043
2.0597e+05,1.6925e+09,0,0.99,0.69,0.95,0.12,0,1,1.6925e+06,200,-43.043
2.0686e+05,1.6928e+09,0,0.99,0.69,0.95,0.11,0,1,1.6927e+06,200,-43.043
2.0767e+05,1.693e+09,0,0.99,0.69,0.95,0.11,0,1,1.6929e+06,200,-43.043
2.0847e+05,1.6932e+09,0,0.99,0.69,0.95,0.11,0,1,1.6931e+06,200,-43.043
2.0926e+05,1.6934e+09,0,0.99,0.69,0.95,0.11,0,1,1.6933e+06,200,-43.043
2.0999e+05,1.6935e+09,0,0.99,0.69,0.95,0.12,0,1,1.6935e+06,200,-43.043
2.1084e+05,1.6938e+09,0,0.99,0.69,0.95,0.12,0,1,1.6937e+06,200,-43.043
2.1164e+05,1.6939e+09,0,0.99,0.69,0.95,0.11,0,1,1.6939e+06,200,-43.043
2.1253e+05,1.6942e+09,0,0.99,0.69,0.95,0.12,0,1,1.6941e+06,200,-43.043
2.133e+05,1.6944e+09,0,0.99,0.69,0.94,0.13,0,1,1.6943e+06,200,-43.043
2.1407e+05,1.6945e+09,0,0.99,0.69,0.94,0.12,0,1,1.6945e+06,200,-43.044
2.1492e+05,1.6948e+09,0,0.99,0.68,0.94,0.11,0,1,1.6947e+06,200,-43.043
2.1559e+05,1.6949e+09,0,0.99,0.68,0.94,0.11,0,1,1.6949e+06,200,-43.043
2.1648e+05,1.6952e+09,0,0.99,0.68,0.94,0.11,0,1,1.6951e+06,200,-43.043
2.1725e+05,1.6953e+09,0,0.99,0.68,0.94,0.12,0,1,1.6953e+06,201,-43.043
2.1814e+05,1.6956e+09,0,0.99,0.68,0.94,0.14,0,1,1.6955e+06,200,-43.043
2.1894e+05,1.6958e+09,0,0.99,0.68,0.94,0.16,0,1,1.6957e+06,200,-43.043
2.1975e+05,1.696e+09,0,0.99,0.68,0.94,0.15,0,1,1.6959e+06,200,-43.043
2.2055e+05,1.6962e+09,0,0.99,0.68,0.94,0.12,0,1,1.6961e+06,200,-43.043
2.2135e+05,1.6964e+09,0,0.99,0.68,0.94,0.14,0,1,1.6963e+06,200,-43.043
2.2215e+05,1.6966e+09,0,0.99,0.68,0.94,0.15,0,1,1.6965e+06,200,-43.043
2.2309e+05,1.6968e+09,0,0.99,0.68,0.94,0.16,0,1,1.6967e+06,200,-43.043
2.2377e+05,1.697e+09,0,0.99,0.68,0.94,0.18,0,1,1.6969e+06,200,-43.043
2.2457e+05,1.6972e+09,0,0.99,0.68,0.94,0.17,0,1,1.6971e+06,200,-43.043
2.2537e+05,1.6973e+09,0,0.99,0.68,0.94,0.17,0,1,1.6973e+06,200,-43.043
2.2617e+05,1.6975e+09,0,0.99,0.68,0.94,0.15,0,1,1.6975e+06,200,-43.043
2.2697e+05,1.6977e+09,0,0.99,0.68,0.93,0.12,0,1,1.6977e+06,200,-43.043
2.2783e+05,1.698e+09,0,0.99,0.68,0.93,0.11,0,1,1.6979e+06,200,-43.043
2.2862e+05,1.6982e+09,0,0.99,0.68,0.93,0.12,0,1,1.6981e+06,200,-43.043
2.2942e+05,1.6983e+09,0,0.99,0.68,0.93,0.12,0,1,1.6983e+06,200,-43.043
2.3027e+05,1.6986e+09,0,0.99,0.67,0.93,0.11,0,1,1.6985e+06,200,-43.043
2.3108e+05,1.6988e+09,0,0.99,0.67,0.93,0.12,0,1,1.6987e+06,200,-43.043
2.3188e+05,1.699e+09,0,0.99,0.67,0.93,0.11,0,1,1.6989e+06,200,-43.043
2.3264e+05,1.6991e+09,0,0.99,0.67,0.93,0.11,0,1,1.6991e+06,200,-43.043
2.3349e+05,1.6994e+09,0,0.99,0.67,0.93,0.11,0,1,1.6993e+06,200,-43.043
2.3429e+05,1.6996e+09,0,0.99,0.67,0.93,0.1,0,1,1.6995e+06,200,-43.043
2.3507e+05,1.6998e+09,0,0.99,0.67,0.93,0.1,0,1,1.6997e+06,200,-43.043
2.3587e+05,1.6999e+09,0,0.99,0.67,0.93,0.1,0,1,1.6999e+06,200,-43.043
2.3672e+05,1.7002e+09,0,0.99,0.67,0.93,0.1,0,1,1.7001e+06,200,-43.043
2.3749e+05,1.7004e+09,0,0.99,0.67,0.93,0.11,0,1,1.7003e+06,200,-43.043
2.3826e+05,1.7005e+09,0,0.99,0.67,0.93,0.11,0,1,1.7005e+06,200,-43.043
2.3911e+05,1.7008e+09,0,0.99,0.67,0.93,0.11,0,1,1.7007e+06,200,-43.043
2.3991e+05,1.701e+09,0,0.99,0.67,0.93,0.12,0,1,1.7009e+06,200,-43.043
2.4068e+05,1.7012e+09,0,0.99,0.67,0.93,0.12,0,1,1.7011e+06,200,-43.043
2.4145e+05,1.7014e+09,0,0.99,0.67,0.93,0.14,0,1,1.7013e+06,200,-43.043
2.4224e+05,1.7015e+09,0,0.99,0.67,0.93,0.14,0,1,1.7015e+06,200,-43.043
2.4304e+05,1.7017e+09,0,0.99,0.67,0.93,0.13,0,1,1.7017e+06,200,-43.043
2.439e+05,1.702e+09,0,0.99,0.67,0.93,0.13,0,1,1.7019e+06,200,-43.043
2.4466e+05,1.7021e+09,0,0.99,0.67,0.93,0.12,0,1,1.7021e+06,200,-43.043
2.4548e+05,1.7024e+09,0,0.99,0.67,0.93,0.12,0,1,1.7023e+06,200,-43.043
2.4627e+05,1.7026e+09,0,0.99,0.67,0.93,0.12,0,1,1.7025e+06,200,-43.043
2.4713e+05,1.7028e+09,0,0.99,0.67,0.93,0.12,0,1,1.7027e+06,200,-43.043
2.4785e+05,1.7029e+09,0,0.99,0.67,0.93,0.12,0,1,1.7029e+06,200,-43.043
2.4864e+05,1.7031e+09,0,0.99,0.66,0.93,0.12,0,1,1.7031e+06,200,-43.043
2.4946e+05,1.7034e+09,0,0.99,0.66,0.93,0.13,0,1,1.7033e+06,200,-43.043
2.5026e+05,1.7035e+09,0,0.99,0.66,0.93,0.15,0,1,1.7035e+06,200,-43.043
2.5103e+05,1.7037e+09,0,0.99,0.66,0.93,0.14,0,1,1.7037e+06,200,-43.044
2.5192e+05,1.704e+09,0,0.99,0.67,0.93,0.14,0,1,1.7039e+06,200,-43.043
2.5272e+05,1.7041e+09,0,0.99,0.67,0.93,0.14,0,1,1.7041e+06,200,-43.043
2.5352e+05,1.7043e+09,0,0.99,0.67,0.93,0.13,0,1,1.7043e+06,200,-43.044
2.5431e+05,1.7045e+09,0,0.99,0.67,0.93,0.13,0,1,1.7045e+06,200,-43.043
2.552e+05,1.7048e+09,0,0.99,0.67,0.93,0.13,0,1,1.7047e+06,200,-43.043
2.5597e+05,1.705e+09,0,0.99,0.67,0.93,0.15,0,1,1.7049e+06,200,-43.043
2.5676e+05,1.7051e+09,0,0.99,0.67,0.93,0.16,0,1,1.7051e+06,200,-43.043
2.5762e+05,1.7054e+09,0,0.99,0.67,0.93,0.16,0,1,1.7053e+06,200,-43.043
2.5839e+05,1.7055e+09,0,0.99,0.67,0.93,0.15,0,1,1.7055e+06,200,-43.043
2.5925e+05,1.7058e+09,0,0.99,0.67,0.93,0.13,0,1,1.7057e+06,200,-43.043
2.5996e+05,1.7059e+09,0,0.99,0.67,0.93,0.15,0,1,1.7059e+06,200,-43.043
2.6086e+05,1.7062e+09,0,0.99,0.67,0.93,0.15,0,1,1.7061e+06,200,-43.043
2.6162e+05,1.7064e+09,0,0.99,0.67,0.93,0.14,0,1,1.7063e+06,200,-43.043
2.6238e+05,1.7066e+09,0,0.99,0.67,0.93,0.15,0,1,1.7065e+06,200,-43.043
2.6319e+05,1.7067e+09,0,0.99,0.67,0.93,0.19,0,1,1.7067e+06,200,-43.043
2.6404e+05,1.707e+09,0,0.99,0.67,0.93,0.18,0,1,1.7069e+06,200,-43.043
2.6485e+05,1.7072e+09,0,0.99,0.67,0.93,0.18,0,1,1.7071e+06,200,-43.043
2.6564e+05,1.7073e+09,0,0.99,0.67,0.93,0.16,0,1,1.7073e+06,200,-43.043
2.665e+05,1.7076e+09,0,0.99,0.67,0.93,0.12,0,1,1.7075e+06,200,-43.043
2.6729e+05,1.7078e+09,0,1.02,0.67,0.93,0.11,0,1,1.7077e+06,200,-43.043
2.681e+05,1.708e+09,0,1.02,0.67,0.93,0.11,0,1,1.7079e+06,200,-43.043
2.6894e+05,1.7082e+09,0,1.02,0.67,0.93,0.11,0,1,1.7081e+06,200,-43.043
2.6968e+05,1.7084e+09,0,1.02,0.67,0.93,0.12,0,1,1.7083e+06,200,-43.043
2.7048e+05,1.7086e+09,0,1.02,0.67,0.93,0.11,0,1,1.7085e+06,200,-43.043
2.7137e+05,1.7088e+09,0,0.99,0.67,0.93,0.11,0,1,1.7087e+06,200,-43.043
2.7208e+05,1.709e+09,0,0.99,0.67,0.93,0.11,0,1,1.7089e+06,200,-43.043
2.7289e+05,1.7092e+09,0,0.99,0.67,0.93,0.11,0,1,1.7091e+06,200,-43.043
2.7371e+05,1.7094e+09,0,0.99,0.67,0.93,0.11,0,1,1.7093e+06,200,-43.043
2.7447e+05,1.7096e+09,0,0.99,0.67,0.93,0.13,0,1,1.7095e+06,200,-43.043
2.7527e+05,1.7098e+09,0,0.99,0.67,0.93,0.12,0,1,1.7097e+06,200,-43.043
2.7608e+05,1.7099e+09,0,0.99,0.67,0.93,0.11,0,1,1.7099e+06,200,-43.043
2.7696e+05,1.7102e+09,0,0.99,0.67,0.93,0.11,0,1,1.7101e+06,200,-43.043
2.7776e+05,1.7104e+09,0,0.99,0.67,0.93,0.11,0,1,1.7103e+06,200,-43.043
2.7856e+05,1.7105e+09,0,0.99,0.67,0.93,0.12,0,1,1.7105e+06,200,-43.043
2.7941e+05,1.7108e+09,0,0.99,0.67,0.93,0.13,0,1,1.7107e+06,200,-43.043
2.8018e+05,1.711e+09,0,1.01,0.67,0.93,0.11,0,1,1.7109e+06,200,-43.043
2.8097e+05,1.7112e+09,0,1.01,0.67,0.93,0.12,0,1,1.7111e+06,200,-43.043
2.8175e+05,1.7114e+09,0,1.01,0.67,0.93,0.11,0,1,1.7113e+06,200,-43.043
2.8252e+05,1.7115e+09,0,1.01,0.67,0.93,0.11,0,1,1.7115e+06,200,-43.044
2.834e+05,1.7118e+09,0,1.01,0.67,0.93,0.12,0,1,1.7117e+06,200,-43.043
2.8417e+05,1.712e+09,0,1.05,0.67,0.93,0.12,0,1,1.7119e+06,200,-43.043
2.849e+05,1.7121e+09,0,1.05,0.67,0.93,0.11,0,1,1.7121e+06,200,-43.043
2.8579e+05,1.7124e+09,0,1.01,0.67,0.93,0.11,0,1,1.7123e+06,200,-43.044
2.8655e+05,1.7126e+09,0,1.01,0.67,0.93,0.11,0,1,1.7125e+06,200,-43.043
2.8736e+05,1.7127e+09,0,1.02,0.67,0.93,0.11,0,1,1.7127e+06,200,-43.044
2.8816e+05,1.7129e+09,0,1.05,0.67,0.93,0.11,0,1,1.7129e+06,200,-43.043
2.8902e+05,1.7132e+09,0,1.05,0.67,0.93,0.11,0,1,1.7131e+06,200,-43.043
2.8981e+05,1.7134e+09,0,1.05,0.67,0.93,0.11,0,1,1.7133e+06,200,-43.043
2.9061e+05,1.7136e+09,0,1.05,0.67,0.94,0.12,0,1,1.7135e+06,200,-43.043
2.9146e+05,1.7138e+09,0,1.05,0.67,0.94,0.13,0,1,1.7137e+06,200,-43.043
2.9222e+05,1.714e+09,0,1.05,0.67,0.94,0.15,0,1,1.7139e+06,200,-43.043
2.9303e+05,1.7142e+09,0,1.05,0.67,0.94,0.16,0,1,1.7141e+06,200,-43.043
2.9379e+05,1.7143e+09,0,1.05,0.67,0.94,0.16,0,1,1.7143e+06,200,-43.043
2.9459e+05,1.7145e+09,0,1.05,0.68,0.94,0.16,0,1,1.7145e+06,200,-43.043
2.9548e+05,1.7148e+09,0,1.05,0.68,0.94,0.14,0,1,1.7147e+06,200,-43.043
2.9625e+05,1.715e+09,0,1.05,0.68,0.94,0.14,0,1,1.7149e+06,200,-43.044
2.9702e+05,1.7152e+09,0,1.05,0.68,0.94,0.15,0,1,1.7151e+06,200,-43.043
2.9782e+05,1.7153e+09,0,1.05,0.68,0.94,0.14,0,1,1.7153e+06,200,-43.043
2.9862e+05,1.7155e+09,0,1.02,0.68,0.94,0.15,0,1,1.7155e+06,200,-43.044
2.9951e+05,1.7158e+09,0,1.05,0.68,0.94,0.15,0,1,1.7157e+06,200,-43.043
3.0031e+05,1.716e+09,0,1.05,0.68,0.94,0.12,0,1,1.7159e+06,200,-43.044
3.0107e+05,1.7162e+09,0,1.05,0.68,0.94,0.12,0,1,1.7161e+06,200,-43.044
3.0192e+05,1.7164e+09,0,1.02,0.68,0.94,0.12,0,1,1.7163e+06,200,-43.043
3.0272e+05,1.7166e+09,0,1.05,0.68,0.94,0.13,0,1,1.7165e+06,200,-43.043
3.0349e+05,1.7168e+09,0,1.05,0.68,0.94,0.16,0,1,1.7167e+06,200,-43.043
3.0437e+05,1.717e+09,0,1.05,0.68,0.94,0.16,0,1,1.7169e+06,200,-43.043
3.0514e+05,1.7172e+09,0,1.01,0.68,0.94,0.18,0,1,1.7171e+06,200,-43.043
3.0594e+05,1.7174e+09,0,1.01,0.68,0.94,0.2,0,1,1.7173e+06,200,-43.043
3.0673e+05,1.7176e+09,0,1.01,0.68,0.94,0.19,0,1,1.7175e+06,200,-43.043
3.0751e+05,1.7178e+09,0,1.01,0.68,0.94,0.17,0,1,1.7177e+06,200,-43.044
3.0832e+05,1.718e+09,0,1.01,0.68,0.94,0.15,0,1,1.7179e+06,200,-43.043
3.0909e+05,1.7181e+09,0,1.01,0.68,0.95,0.16,0,1,1.7181e+06,200,-43.043
3.0998e+05,1.7184e+09,0,1.01,0.69,0.95,0.16,0,1,1.7183e+06,200,-43.043
3.1078e+05,1.7186e+09,0,1.01,0.69,0.95,0.16,0,1,1.7185e+06,200,-43.043
3.1155e+05,1.7188e+09,0,1.02,0.69,0.95,0.16,0,1,1.7187e+06,200,-43.043
3.1235e+05,1.719e+09,0,1.02,0.69,0.95,0.15,0,1,1.7189e+06,200,-43.043
3.1303e+05,1.7192e+09,0,1.02,0.69,0.95,0.14,0,1,1.7191e+06,200,-43.043
3.1383e+05,1.7193e+09,0,1.02,0.69,0.95,0.12,0,1,1.7193e+06,200,-43.043
3.1465e+05,1.7196e+09,0,1.02,0.69,0.95,0.12,0,1,1.7195e+06,200,-43.043
3.1546e+05,1.7198e+09,0,1.07,0.69,0.95,0.13,0,1,1.7197e+06,200,-43.043
3.1626e+05,1.72e+09,0,1.07,0.69,0.95,0.11,0,1,1.7199e+06,200,-43.043
3.1705e+05,1.7202e+09,0,1.05,0.69,0.95,0.11,0,1,1.7201e+06,200,-43.043
3.1785e+05,1.7203e+09,0,1.05,0.69,0.95,0.11,0,1,1.7203e+06,200,-43.043
3.1871e+05,1.7206e+09,0,1.05,0.69,0.95,0.11,0,1,1.7205e+06,200,-43.043
3.1951e+05,1.7208e+09,0,1.05,0.69,0.95,0.11,0,1,1.7207e+06,200,-43.043
3.2031e+05,1.7209e+09,0,1.05,0.69,0.95,0.11,0,1,1.7209e+06,200,-43.044
3.2117e+05,1.7212e+09,0,1.05,0.69,0.95,0.11,0,1,1.7211e+06,200,-43.043
3.2194e+05,1.7214e+09,0,1.05,0.69,0.95,0.11,0,1,1.7213e+06,200,-43.043
3.2274e+05,1.7216e+09,0,1.05,0.69,0.95,0.11,0,1,1.7215e+06,200,-43.043
3.2353e+05,1.7217e+09,0,1.05,0.69,0.95,0.11,0,1,1.7217e+06,200,-43.044
3.2442e+05,1.722e+09,0,1.05,0.69,0.95,0.11,0,1,1.7219e+06,200,-43.043
3.251e+05,1.7221e+09,0,1.02,0.69,0.95,0.12,0,1,1.7221e+06,200,-43.043
3.2599e+05,1.7224e+09,0,1.02,0.69,0.95,0.12,0,1,1.7223e+06,200,-43.044
3.2679e+05,1.7225e+09,0,1.02,0.69,0.95,0.11,0,1,1.7225e+06,200,-43.044
3.2765e+05,1.7228e+09,0,1.02,0.69,0.95,0.12,0,1,1.7227e+06,200,-43.044
3.2845e+05,1.723e+09,0,1.02,0.69,0.95,0.13,0,1,1.7229e+06,200,-43.043
3.2921e+05,1.7231e+09,0,1.05,0.69,0.95,0.16,0,1,1.7231e+06,200,-43.043
3.3006e+05,1.7234e+09,0,1.05,0.69,0.95,0.14,0,1,1.7233e+06,200,-43.043
3.3085e+05,1.7235e+09,0,1.02,0.69,0.95,0.14,0,1,1.7235e+06,200,-43.043
3.3175e+05,1.7238e+09,0,1.02,0.69,0.95,0.13,0,1,1.7237e+06,200,-43.043
3.3255e+05,1.724e+09,0,1.05,0.69,0.95,0.14,0,1,1.7239e+06,200,-43.043
3.3335e+05,1.7242e+09,0,1.05,0.69,0.95,0.15,0,1,1.7241e+06,200,-43.043
3.3412e+05,1.7244e+09,0,1.05,0.69,0.95,0.13,0,1,1.7243e+06,200,-43.043
3.3489e+05,1.7246e+09,0,1.05,0.69,0.95,0.13,0,1,1.7245e+06,200,-43.043
3.3569e+05,1.7248e+09,0,1.05,0.69,0.95,0.12,0,1,1.7247e+06,200,-43.043
3.365e+05,1.7249e+09,0,1.05,0.69,0.96,0.13,0,1,1.7249e+06,200,-43.043
3.3739e+05,1.7252e+09,0,1.05,0.69,0.96,0.11,0,1,1.7251e+06,200,-43.044
3.3816e+05,1.7254e+09,0,1.05,0.69,0.96,0.12,0,1,1.7253e+06,200,-43.044
3.3896e+05,1.7255e+09,0,1.05,0.69,0.96,0.11,0,1,1.7255e+06,200,-43.043
3.3982e+05,1.7258e+09,0,1.05,0.7,0.96,0.11,0,1,1.7257e+06,200,-43.043
3.4058e+05,1.726e+09,0,1.05,0.7,0.96,0.11,0,1,1.7259e+06,200,-43.043
3.4137e+05,1.7262e+09,0,1.05,0.7,0.96,0.13,0,1,1.7261e+06,200,-43.043
3.4218e+05,1.7263e+09,0,1.05,0.7,0.96,0.12,0,1,1.7263e+06,200,-43.043
3.4298e+05,1.7266e+09,0,1.05,0.7,0.96,0.12,0,1,1.7265e+06,200,-43.043
3.4387e+05,1.7268e+09,0,1.05,0.7,0.96,0.12,0,1,1.7267e+06,200,-43.043
3.4468e+05,1.727e+09,0,1.05,0.7,0.96,0.12,0,1,1.7269e+06,200,-43.043
3.4545e+05,1.7272e+09,0,1.05,0.7,0.96,0.12,0,1,1.7271e+06,200,-43.043
3.4624e+05,1.7273e+09,0,1.05,0.7,0.96,0.13,0,1,1.7273e+06,200,-43.044
3.47e+05,1.7275e+09,0,1.05,0.7,0.96,0.12,0,1,1.7275e+06,200,-43.043
3.4785e+05,1.7278e+09,0,1.05,0.7,0.96,0.11,0,1,1.7277e+06,200,-43.043
3.4862e+05,1.728e+09,0,1.05,0.7,0.96,0.11,0,1,1.7279e+06,200,-43.043
3.4942e+05,1.7281e+09,0,1.05,0.7,0.96,0.11,0,1,1.7281e+06,200,-43.043
3.5031e+05,1.7284e+09,0,1.05,0.7,0.96,0.13,0,1,1.7283e+06,200,-43.043
3.5108e+05,1.7286e+09,0,1.02,0.7,0.96,0.14,0,1,1.7285e+06,200,-43.043
3.5184e+05,1.7288e+09,0,1.02,0.7,0.96,0.15,0,1,1.7287e+06,200,-43.043
3.5264e+05,1.7289e+09,0,0.99,0.7,0.96,0.14,0,1,1.7289e+06,200,-43.043
3.5345e+05,1.7292e+09,0,0.99,0.7,0.96,0.12,0,1,1.7291e+06,200,-43.043
3.543e+05,1.7294e+09,0,1.02,0.7,0.96,0.12,0,1,1.7293e+06,200,-43.043
3.5507e+05,1.7296e+09,0,1.02,0.7,0.96,0.13,0,1,1.7295e+06,200,-43.043
3.5584e+05,1.7298e+09,0,0.99,0.7,0.96,0.13,0,1,1.7297e+06,200,-43.044
3.5665e+05,1.7299e+09,0,1.02,0.7,0.96,0.11,0,1,1.7299e+06,200,-43.043
3.5745e+05,1.7301e+09,0,1.02,0.7,0.96,0.11,0,1,1.7301e+06,200,-43.043
3.5824e+05,1.7303e+09,0,1.05,0.7,0.96,0.11,0,1,1.7303e+06,200,-43.043
3.591e+05,1.7306e+09,0,1.05,0.7,0.96,0.11,0,1,1.7305e+06,200,-43.043
3.599e+05,1.7307e+09,0,1.05,0.7,0.96,0.12,0,1,1.7307e+06,200,-43.043
3.6072e+05,1.731e+09,0,1.02,0.7,0.96,0.11,0,1,1.7309e+06,200,-43.043
3.6146e+05,1.7312e+09,0,1.02,0.7,0.96,0.1,0,1,1.7311e+06,200,-43.043
3.6226e+05,1.7313e+09,0,1.05,0.7,0.96,0.14,0,1,1.7313e+06,200,-43.043
3.6306e+05,1.7315e+09,0,1.05,0.69,0.96,0.13,0,1,1.7315e+06,200,-43.043
3.6382e+05,1.7317e+09,0,1.05,0.69,0.96,0.14,0,1,1.7317e+06,200,-43.043
3.6471e+05,1.732e+09,0,1.05,0.69,0.96,0.13,0,1,1.7319e+06,200,-43.043
3.6548e+05,1.7321e+09,0,1.05,0.69,0.96,0.16,0,1,1.7321e+06,200,-43.043
3.6633e+05,1.7324e+09,0,1.05,0.69,0.96,0.12,0,1,1.7323e+06,200,-43.043
3.6706e+05,1.7326e+09,0,1.05,0.69,0.96,0.13,0,1,1.7325e+06,200,-43.043
3.6795e+05,1.7328e+09,0,1.02,0.69,0.95,0.12,0,1,1.7327e+06,200,-43.043
3.6867e+05,1.7329e+09,0,1.05,0.69,0.95,0.13,0,1,1.7329e+06,200,-43.043
3.6955e+05,1.7332e+09,0,1.01,0.69,0.95,0.18,0,1,1.7331e+06,200,-43.043
3.7031e+05,1.7334e+09,0,0.99,0.69,0.95,0.19,0,1,1.7333e+06,200,-43.043
3.7111e+05,1.7335e+09,0,1.01,0.69,0.95,0.2,0,1,1.7335e+06,200,-43.043
3.7188e+05,1.7337e+09,0,1.01,0.69,0.95,0.2,0,1,1.7337e+06,200,-43.043
3.7276e+05,1.734e+09,0,0.99,0.69,0.95,0.2,0,1,1.7339e+06,200,-43.043
3.7351e+05,1.7341e+09,0,1.01,0.69,0.95,0.2,0,1,1.7341e+06,200,-43.043
3.7431e+05,1.7343e+09,0,1.01,0.69,0.95,0.2,0,1,1.7343e+06,200,-43.043
3.7519e+05,1.7346e+09,0,1.01,0.69,0.95,0.19,0,1,1.7345e+06,200,-43.043
3.7599e+05,1.7348e+09,0,1.01,0.69,0.95,0.2,0,1,1.7347e+06,200,-43.043
3.7676e+05,1.7349e+09,0,1.01,0.69,0.95,0.2,0,1,1.7349e+06,200,-43.043
3.7756e+05,1.7351e+09,0,1.01,0.69,0.95,0.2,0,1,1.7351e+06,200,-43.044
3.7842e+05,1.7354e+09,0,0.99,0.69,0.95,0.2,0,1,1.7353e+06,202,-43.043
3.7922e+05,1.7356e+09,0,0.99,0.69,0.95,0.2,0,1,1.7355e+06,200,-43.043
3.8002e+05,1.7357e+09,0,0.99,0.69,0.95,0.21,0,1,1.7357e+06,200,-43.043
3.8092e+05,1.736e+09,0,0.99,0.69,0.95,0.2,0,1,1.7359e+06,200,-43.043
3.8168e+05,1.7362e+09,0,1.01,0.69,0.95,0.22,0,1,1.7361e+06,200,-43.043
3.8247e+05,1.7364e+09,0,1.01,0.69,0.95,0.22,0,1,1.7363e+06,200,-43.044
3.8314e+05,1.7365e+09,0,1.01,0.69,0.95,0.22,0,1,1.7365e+06,200,-43.043
3.8403e+05,1.7368e+09,0,1.05,0.69,0.95,0.23,0,1,1.7367e+06,200,-43.043
3.8483e+05,1.737e+09,0,1.05,0.69,0.95,0.21,0,1,1.7369e+06,200,-43.043
3.856e+05,1.7371e+09,0,1.05,0.69,0.96,0.23,0,1,1.7371e+06,200,-43.043
3.8645e+05,1.7374e+09,0,1.05,0.69,0.96,0.24,0,1,1.7373e+06,200,-43.043
3.8722e+05,1.7376e+09,0,1.05,0.69,0.96,0.24,0,1,1.7375e+06,200,-43.043
3.8795e+05,1.7377e+09,0,1.05,0.7,0.96,0.25,0,1,1.7377e+06,200,-43.044
3.8881e+05,1.738e+09,0,1.05,0.7,0.96,0.24,0,1,1.7379e+06,200,-43.043
3.8961e+05,1.7382e+09,0,1.02,0.7,0.96,0.23,0,1,1.7381e+06,200,-43.043
3.9049e+05,1.7384e+09,0,1.02,0.7,0.96,0.23,0,1,1.7383e+06,200,-43.044
3.913e+05,1.7386e+09,0,1.02,0.7,0.96,0.21,0,1,1.7385e+06,200,-43.043
3.9214e+05,1.7388e+09,0,1.02,0.7,0.96,0.22,0,1,1.7387e+06,200,-43.043
3.9283e+05,1.7389e+09,0,1.02,0.7,0.96,0.23,0,1,1.7389e+06,200,-43.043
3.9368e+05,1.7392e+09,0,1.02,0.7,0.96,0.23,0,1,1.7391e+06,200,-43.043
3.9449e+05,1.7394e+09,0,1.02,0.7,0.96,0.23,0,1,1.7393e+06,200,-43.043
3.9529e+05,1.7396e+09,0,1.02,0.7,0.96,0.23,0,1,1.7395e+06,200,-43.044
3.9609e+05,1.7397e+09,0,1.02,0.7,0.96,0.23,0,1,1.7397e+06,200,-43.043
3.9698e+05,1.74e+09,0,1.02,0.7,0.96,0.22,0,1,1.7399e+06,200,-43.043
3.9778e+05,1.7402e+09,0,1.02,0.7,0.96,0.23,0,1,1.7401e+06,200,-43.043
3.9855e+05,1.7404e+09,0,1.02,0.7,0.96,0.23,0,1,1.7403e+06,200,-43.043
3.9936e+05,1.7406e+09,0,1.05,0.7,0.96,0.23,0,1,1.7405e+06,200,-43.043
4.0024e+05,1.7408e+09,0,1.05,0.7,0.96,0.2,0,1,1.7407e+06,200,-43.043
4.0103e+05,1.741e+09,0,1.05,0.71,0.96,0.2,0,1,1.7409e+06,200,-43.043
4.018e+05,1.7412e+09,0,1.05,0.71,0.96,0.17,0,1,1.7411e+06,200,-43.043
4.026e+05,1.7413e+09,0,1.05,0.71,0.96,0.12,0,1,1.7413e+06,200,-43.044
4.0345e+05,1.7416e+09,0,1.05,0.71,0.96,0.18,0,1,1.7415e+06,200,-43.043
4.0425e+05,1.7417e+09,0,1.05,0.71,0.96,0.17,0,1,1.7417e+06,200,-43.043
4.0502e+05,1.7419e+09,0,1.05,0.71,0.96,0.15,0,1,1.7419e+06,200,-43.043
4.0591e+05,1.7422e+09,0,1.05,0.71,0.96,0.13,0,1,1.7421e+06,200,-43.043
4.067e+05,1.7424e+09,0,1.05,0.71,0.96,0.14,0,1,1.7423e+06,200,-43.043
4.0744e+05,1.7425e+09,0,1.05,0.71,0.96,0.13,0,1,1.7425e+06,200,-43.044
4.0832e+05,1.7428e+09,0,1.05,0.71,0.96,0.12,0,1,1.7427e+06,200,-43.043
4.0912e+05,1.743e+09,0,1.05,0.71,0.96,0.12,0,1,1.7429e+06,200,-43.043
4.0993e+05,1.7432e+09,0,1.05,0.71,0.96,0.11,0,1,1.7431e+06,200,-43.043
4.1073e+05,1.7433e+09,0,1.05,0.71,0.96,0.13,0,1,1.7433e+06,200,-43.043
4.1159e+05,1.7436e+09,0,1.05,0.71,0.96,0.13,0,1,1.7435e+06,200,-43.043
4.1239e+05,1.7438e+09,0,1.05,0.72,0.96,0.16,0,1,1.7437e+06,200,-43.043
4.1306e+05,1.7439e+09,0,1.05,0.72,0.96,0.18,0,1,1.7439e+06,200,-43.044
4.1396e+05,1.7442e+09,0,1.02,0.72,0.96,0.18,0,1,1.7441e+06,200,-43.043
4.1472e+05,1.7443e+09,0,1.02,0.72,0.96,0.19,0,1,1.7443e+06,200,-43.043
4.1561e+05,1.7446e+09,0,1.02,0.72,0.96,0.2,0,1,1.7445e+06,200,-43.043
4.1638e+05,1.7448e+09,0,1.02,0.72,0.96,0.21,0,1,1.7447e+06,200,-43.044
4.1718e+05,1.7449e+09,0,1.02,0.72,0.96,0.2,0,1,1.7449e+06,200,-43.043
4.1807e+05,1.7452e+09,0,1.02,0.72,0.96,0.2,0,1,1.7451e+06,200,-43.043
4.1883e+05,1.7454e+09,0,1.02,0.72,0.96,0.21,0,1,1.7453e+06,200,-43.043
4.1963e+05,1.7456e+09,0,1.02,0.72,0.97,0.21,0,1,1.7455e+06,200,-43.043
4.2049e+05,1.7458e+09,0,1.05,0.72,0.97,0.22,0,1,1.7457e+06,200,-43.043
4.2126e+05,1.746e+09,0,1.05,0.73,0.97,0.22,0,1,1.7459e+06,200,-43.044
4.2203e+05,1.7462e+09,0,1.05,0.73,0.97,0.22,0,1,1.7461e+06,200,-43.043
4.2282e+05,1.7463e+09,0,1.05,0.73,0.97,0.21,0,1,1.7463e+06,200,-43.044
4.2368e+05,1.7466e+09,0,1.05,0.73,0.97,0.19,0,1,1.7465e+06,200,-43.043
4.2448e+05,1.7468e+09,0,1.02,0.73,0.97,0.19,0,1,1.7467e+06,200,-43.043
4.2528e+05,1.747e+09,0,1.02,0.73,0.97,0.18,0,1,1.7469e+06,200,-43.043
4.2606e+05,1.7472e+09,0,1.02,0.73,0.97,0.17,0,1,1.7471e+06,200,-43.043
4.2686e+05,1.7474e+09,0,1.02,0.73,0.97,0.19,0,1,1.7473e+06,200,-43.044
4.2763e+05,1.7475e+09,0,1.02,0.73,0.97,0.16,0,1,1.7475e+06,200,-43.044
4.2843e+05,1.7477e+09,0,1.02,0.73,0.97,0.2,0,1,1.7477e+06,200,-43.043
4.2919e+05,1.7479e+09,0,1.02,0.73,0.97,0.18,0,1,1.7479e+06,200,-43.044
4.3008e+05,1.7482e+09,0,1.02,0.73,0.97,0.19,0,1,1.7481e+06,200,-43.043
4.3088e+05,1.7484e+09,0,1.02,0.73,0.97,0.18,0,1,1.7483e+06,200,-43.043
4.3168e+05,1.7485e+09,0,1.02,0.74,0.97,0.14,0,1,1.7485e+06,200,-43.043
4.3256e+05,1.7488e+09,0,1.02,0.74,0.98,0.16,0,1,1.7487e+06,200,-43.043
4.333e+05,1.749e+09,0,1.02,0.74,0.98,0.13,0,1,1.7489e+06,200,-43.043
4.341e+05,1.7491e+09,0,1.02,0.74,0.98,0.18,0,1,1.7491e+06,200,-43.043
4.3489e+05,1.7493e+09,0,1.02,0.74,0.98,0.14,0,1,1.7493e+06,200,-43.043
4.3578e+05,1.7496e+09,0,1.02,0.74,0.98,0.19,0,1,1.7495e+06,200,-43.043
4.3663e+05,1.7498e+09,0,1.02,0.74,0.98,0.15,0,1,1.7497e+06,200,-43.043
4.3743e+05,1.75e+09,0,1.02,0.74,0.98,0.18,0,1,1.7499e+06,200,-43.043
4.3824e+05,1.7502e+09,0,1.02,0.74,0.98,0.18,0,1,1.7501e+06,200,-43.043
4.3904e+05,1.7504e+09,0,1.02,0.74,0.98,0.23,0,1,1.7503e+06,200,-43.043
4.3984e+05,1.7506e+09,0,1.02,0.75,0.98,0.2,0,1,1.7505e+06,200,-43.043
4.406e+05,1.7508e+09,0,1.02,0.75,0.99,0.23,0,1,1.7507e+06,200,-43.043
4.414e+05,1.7509e+09,0,1.02,0.75,0.99,0.14,0,1,1.7509e+06,200,-43.043
4.4226e+05,1.7512e+09,0,1.02,0.75,0.99,0.24,0,1,1.7511e+06,200,-43.043
4.4306e+05,1.7513e+09,0,1.02,0.75,0.99,0.25,0,1,1.7513e+06,200,-43.043
4.4394e+05,1.7516e+09,0,1.02,0.75,0.99,0.22,0,1,1.7515e+06,200,-43.043
4.4476e+05,1.7518e+09,0,1.05,0.75,0.99,0.23,0,1,1.7517e+06,200,-43.043
4.4556e+05,1.752e+09,0,1.05,0.76,1,0.18,0,1,1.7519e+06,200,-43.044
4.4637e+05,1.7522e+09,0,1.05,0.76,1,0.23,0,1,1.7521e+06,200,-43.044
4.4726e+05,1.7524e+09,0,1.05,0.76,1,0.18,0,1,1.7523e+06,200,-43.043
4.4802e+05,1.7526e+09,0,1.05,0.76,1,0.21,0,1,1.7525e+06,200,-43.043
4.4882e+05,1.7528e+09,0,1.05,0.76,1,0.21,0,1,1.7527e+06,200,-43.044
4.4971e+05,1.753e+09,0,1.05,0.76,1.01,0.22,0,1,1.7529e+06,200,-43.043
4.5045e+05,1.7532e+09,0,1.05,0.76,1.01,0.17,0,1,1.7531e+06,200,-43.044
4.5125e+05,1.7533e+09,0,1.05,0.76,1.01,0.24,0,1,1.7533e+06,200,-43.043
4.5214e+05,1.7536e+09,0,1.05,0.77,1.01,0.21,0,1,1.7535e+06,200,-43.043
4.5303e+05,1.7538e+09,0,1.05,0.77,1.01,0.25,0,1,1.7537e+06,200,-43.044
4.5383e+05,1.754e+09,0,1.05,0.77,1.01,0.24,0,1,1.7539e+06,200,-43.043
4.5463e+05,1.7541e+09,0,1.05,0.77,1.02,0.21,0,1,1.7541e+06,200,-43.043
4.5549e+05,1.7544e+09,0,1.05,0.77,1.02,0.22,0,1,1.7543e+06,200,-43.043
4.5625e+05,1.7545e+09,0,1.05,0.77,1.02,0.2,0,1,1.7545e+06,200,-43.043
4.571e+05,1.7548e+09,0,1.05,0.77,1.02,0.25,0,1,1.7547e+06,200,-43.043
4.5786e+05,1.7549e+09,0,1.05,0.77,1.02,0.22,0,1,1.7549e+06,200,-43.043
4.5875e+05,1.7551e+09,0,1.05,0.78,1.02,0.26,0,1,1.7551e+06,200,-43.043
4.5961e+05,1.7554e+09,0,1.05,0.78,1.03,0.24,0,1,1.7553e+06,200,-43.043
4.6038e+05,1.7555e+09,0,1.05,0.78,1.03,0.25,0,1,1.7555e+06,200,-43.043
4.6126e+05,1.7558e+09,0,1.05,0.78,1.03,0.16,0,1,1.7557e+06,200,-43.043
4.6204e+05,1.7559e+09,0,1.05,0.78,1.03,0.21,0,1,1.7559e+06,200,-43.043
4.6284e+05,1.7561e+09,0,1.05,0.78,1.03,0.26,0,1,1.7561e+06,200,-43.043
4.6378e+05,1.7564e+09,0,1.05,0.79,1.04,0.22,0,1,1.7563e+06,200,-43.043
4.6455e+05,1.7566e+09,0,1.05,0.79,1.04,0.25,0,1,1.7565e+06,200,-43.043
4.6541e+05,1.7568e+09,0,1.05,0.79,1.04,0.19,0,1,1.7567e+06,200,-43.043
4.6612e+05,1.7569e+09,0,1.05,0.79,1.04,0.22,0,1,1.7569e+06,200,-43.043
4.6701e+05,1.7572e+09,0,1.05,0.79,1.04,0.24,0,1,1.7571e+06,200,-43.043
4.6781e+05,1.7573e+09,0,1.05,0.79,1.04,0.24,0,1,1.7573e+06,200,-43.043
4.6862e+05,1.7575e+09,0,1.05,0.79,1.04,0.25,0,1,1.7575e+06,200,-43.044
4.6947e+05,1.7577e+09,0,1.05,0.8,1.05,0.16,0,1,1.7577e+06,200,-43.043
4.7036e+05,1.758e+09,0,1.05,0.8,1.05,0.2,0,1,1.7579e+06,200,-43.043
4.7116e+05,1.7582e+09,0,1.07,0.8,1.05,0.25,0,1,1.7581e+06,200,-43.043
4.7202e+05,1.7584e+09,0,1.07,0.8,1.05,0.26,0,1,1.7583e+06,200,-43.043
4.7282e+05,1.7586e+09,0,1.07,0.8,1.05,0.18,0,1,1.7585e+06,200,-43.043
4.7367e+05,1.7588e+09,0,1.07,0.8,1.05,0.21,0,1,1.7587e+06,200,-43.044
4.7443e+05,1.759e+09,0,1.07,0.8,1.05,0.23,0,1,1.7589e+06,200,-43.043
4.7523e+05,1.7591e+09,0,1.07,0.81,1.06,0.25,0,1,1.7591e+06,200,-43.043
4.7612e+05,1.7594e+09,0,1.07,0.81,1.06,0.21,0,1,1.7593e+06,200,-43.044
4.7688e+05,1.7595e+09,0,1.07,0.81,1.06,0.27,0,1,1.7595e+06,200,-43.043
4.7773e+05,1.7598e+09,0,1.07,0.81,1.06,0.24,0,1,1.7597e+06,200,-43.043
4.7854e+05,1.7599e+09,0,1.07,0.81,1.06,0.25,0,1,1.7599e+06,200,-43.043
4.7942e+05,1.7602e+09,0,1.07,0.82,1.06,0.27,0,1,1.7601e+06,200,-43.043
4.8023e+05,1.7604e+09,0,1.07,0.82,1.07,0.27,0,1,1.7603e+06,200,-43.043
4.8104e+05,1.7605e+09,0,1.07,0.82,1.07,0.23,0,1,1.7605e+06,200,-43.043
4.8193e+05,1.7608e+09,0,1.07,0.82,1.07,0.21,0,1,1.7607e+06,200,-43.043
4.8269e+05,1.7609e+09,0,1.07,0.82,1.07,0.22,0,1,1.7609e+06,200,-43.043
4.8355e+05,1.7612e+09,0,1.07,0.82,1.07,0.18,0,1,1.7611e+06,200,-43.043
4.8434e+05,1.7613e+09,0,1.07,0.82,1.07,0.25,0,1,1.7613e+06,200,-43.043
4.8511e+05,1.7615e+09,0,1.07,0.82,1.07,0.19,0,1,1.7615e+06,200,-43.043
4.86e+05,1.7618e+09,0,1.02,0.83,1.07,0.24,0,1,1.7617e+06,200,-43.043
4.8689e+05,1.762e+09,0,1.02,0.83,1.07,0.23,0,1,1.7619e+06,200,-43.043
4.877e+05,1.7622e+09,0,1.02,0.83,1.07,0.21,0,1,1.7621e+06,200,-43.043
4.886e+05,1.7624e+09,0,1.02,0.83,1.07,0.17,0,1,1.7623e+06,200,-43.043
4.8938e+05,1.7626e+09,0,1.02,0.83,1.08,0.23,0,1,1.7625e+06,200,-43.043
4.9024e+05,1.7628e+09,0,1.02,0.83,1.08,0.2,0,1,1.7627e+06,200,-43.043
4.9104e+05,1.763e+09,0,1.02,0.83,1.08,0.22,0,1,1.7629e+06,200,-43.043
4.9186e+05,1.7631e+09,0,1.02,0.83,1.08,0.16,0,1,1.7631e+06,200,-43.043
4.9272e+05,1.7634e+09,0,1.02,0.83,1.08,0.25,0,1,1.7633e+06,200,-43.043
4.9362e+05,1.7636e+09,0,1.02,0.83,1.08,0.27,0,1,1.7635e+06,200,-43.043
4.944e+05,1.7638e+09,0,1.02,0.83,1.08,0.21,0,1,1.7637e+06,200,-43.043
4.953e+05,1.764e+09,0,1.02,0.83,1.08,0.23,0,1,1.7639e+06,200,-43.043
4.9608e+05,1.7642e+09,0,1.02,0.84,1.08,0.26,0,1,1.7641e+06,200,-43.043
4.9688e+05,1.7643e+09,0,1.02,0.84,1.08,0.24,0,1,1.7643e+06,200,-43.043
4.9778e+05,1.7645e+09,0,1.02,0.84,1.09,0.23,0,1,1.7645e+06,200,-43.043
4.9864e+05,1.7648e+09,0,1.02,0.84,1.09,0.19,0,1,1.7647e+06,200,-43.043
4.9941e+05,1.7649e+09,0,1.02,0.84,1.09,0.26,0,1,1.7649e+06,200,-43.043
5.0031e+05,1.7652e+09,0,1.02,0.84,1.09,0.31,0,1,1.7651e+06,200,-43.044
5.0121e+05,1.7654e+09,0,1.02,0.85,1.09,0.2,0,1,1.7653e+06,200,-43.043
5.0198e+05,1.7656e+09,0,1.02,0.85,1.1,0.3,0,1,1.7655e+06,200,-43.043
5.0285e+05,1.7658e+09,0,1.02,0.86,1.1,0.32,0,1,1.7657e+06,200,-43.044
5.0366e+05,1.766e+09,0,1.07,0.87,1.11,0.48,0,1,1.7659e+06,200,-43.044
5.0453e+05,1.7662e+09,0,1.07,0.89,1.12,0.6,0,1,1.7661e+06,200,-43.043
5.0543e+05,1.7664e+09,0,1.07,0.91,1.13,0.41,0,1,1.7663e+06,200,-43.043
5.062e+05,1.7666e+09,0,1.07,0.92,1.15,0.46,0,1,1.7665e+06,200,-43.043
5.0709e+05,1.7668e+09,0,1.07,0.94,1.16,0.46,0,1,1.7667e+06,200,-43.043
5.0787e+05,1.767e+09,0,1.07,0.95,1.17,0.43,0,1,1.7669e+06,200,-43.043
5.0877e+05,1.7672e+09,0,1.02,0.97,1.18,0.54,0,1,1.7671e+06,200,-43.043
5.0953e+05,1.7674e+09,0,1.02,0.98,1.19,0.42,0,1,1.7673e+06,200,-43.044
5.1034e+05,1.7676e+09,0,1.02,1,1.2,0.46,0,1,1.7675e+06,200,-43.043
5.1123e+05,1.7678e+09,0,1.02,1.02,1.21,0.59,0,1,1.7677e+06,200,-43.043
5.12e+05,1.768e+09,0,1.02,1.02,1.21,0.16,0,1,1.7679e+06,200,-43.043
5.1289e+05,1.7682e+09,0,1.01,1.03,1.21,0.17,0,1,1.7681e+06,200,-43.044
5.1365e+05,1.7683e+09,0,1.01,1.02,1.21,0.25,0,1,1.7683e+06,200,-43.043
5.145e+05,1.7686e+09,0,1.01,1.02,1.21,0.24,0,1,1.7685e+06,200,-43.043
5.1539e+05,1.7688e+09,0,1.01,1.02,1.21,0.22,0,1,1.7687e+06,200,-43.043
5.1625e+05,1.769e+09,0,1.01,1.02,1.21,0.22,0,1,1.7689e+06,200,-43.043
5.1701e+05,1.7692e+09,0,1.01,1.02,1.21,0.22,0,1,1.7691e+06,200,-43.043
5.179e+05,1.7694e+09,0,0.99,1.02,1.2,0.23,0,1,1.7693e+06,200,-43.044
5.1867e+05,1.7695e+09,0,0.99,1.02,1.2,0.25,0,1,1.7695e+06,200,-43.043
5.1955e+05,1.7698e+09,0,0.99,1.02,1.21,0.31,0,1,1.7697e+06,200,-43.044
5.2032e+05,1.7699e+09,0,1.01,1.02,1.21,0.28,0,1,1.7699e+06,200,-43.044
5.2121e+05,1.7702e+09,0,1.01,1.02,1.21,0.27,0,1,1.7701e+06,200,-43.043
5.2198e+05,1.7703e+09,0,1.05,1.02,1.21,0.28,0,1,1.7703e+06,200,-43.044
5.2286e+05,1.7706e+09,0,1.05,1.02,1.22,0.37,0,1,1.7705e+06,200,-43.043
5.2375e+05,1.7708e+09,0,1.05,1.03,1.22,0.25,0,1,1.7707e+06,200,-43.043
5.2452e+05,1.771e+09,0,1.05,1.03,1.23,0.32,0,1,1.7709e+06,200,-43.043
5.2531e+05,1.7711e+09,0,1.14,1.03,1.23,0.3,0,1,1.7711e+06,200,-43.043
5.2613e+05,1.7713e+09,0,1.05,1.03,1.24,0.25,0,1,1.7713e+06,200,-43.043
5.2699e+05,1.7716e+09,0,1.15,1.03,1.24,0.27,0,1,1.7715e+06,200,-43.043
5.2787e+05,1.7718e+09,0,1.15,1.04,1.25,0.31,0,1,1.7717e+06,200,-43.043
5.2868e+05,1.772e+09,0,1.07,1.04,1.25,0.24,0,1,1.7719e+06,200,-43.043
5.2953e+05,1.7722e+09,0,1.08,1.04,1.25,0.26,0,1,1.7721e+06,200,-43.043
5.303e+05,1.7724e+09,0,1.16,1.04,1.26,0.26,0,1,1.7723e+06,200,-43.043
5.3118e+05,1.7726e+09,0,1.07,1.04,1.26,0.25,0,1,1.7725e+06,200,-43.043
5.3194e+05,1.7728e+09,0,1.15,1.04,1.26,0.33,0,1,1.7727e+06,200,-43.043
5.3284e+05,1.773e+09,0,1.02,1.04,1.27,0.26,0,1,1.7729e+06,200,-43.043
5.3364e+05,1.7731e+09,0,1.02,1.04,1.27,0.29,0,1,1.7731e+06,200,-43.044
5.3448e+05,1.7734e+09,0,1.02,1.05,1.27,0.31,0,1,1.7733e+06,200,-43.043
5.3534e+05,1.7736e+09,0,1.02,1.05,1.27,0.27,0,1,1.7735e+06,200,-43.043
5.3614e+05,1.7738e+09,0,1.02,1.05,1.28,0.31,0,1,1.7737e+06,200,-43.043
5.3703e+05,1.774e+09,0,1.02,1.05,1.28,0.29,0,1,1.7739e+06,200,-43.043
5.3783e+05,1.7742e+09,0,1.07,1.05,1.28,0.31,0,1,1.7741e+06,200,-43.043
5.3868e+05,1.7744e+09,0,1.07,1.05,1.29,0.28,0,1,1.7743e+06,200,-43.043
5.3944e+05,1.7745e+09,0,1.07,1.06,1.29,0.28,0,1,1.7745e+06,200,-43.043
5.4033e+05,1.7748e+09,0,1.07,1.06,1.3,0.29,0,1,1.7747e+06,200,-43.043
5.4113e+05,1.7749e+09,0,1.07,1.06,1.31,0.31,0,1,1.7749e+06,200,-43.043
5.4199e+05,1.7752e+09,0,1.07,1.06,1.31,0.3,0,1,1.7751e+06,200,-43.044
5.4288e+05,1.7754e+09,0,1.07,1.07,1.31,0.28,0,1,1.7753e+06,200,-43.044
5.4361e+05,1.7756e+09,0,1.06,1.07,1.32,0.31,0,1,1.7755e+06,200,-43.044
5.445e+05,1.7758e+09,0,1.08,1.08,1.32,0.38,0,1,1.7757e+06,200,-43.043
5.453e+05,1.7759e+09,0,1.02,1.08,1.32,0.27,0,1,1.7759e+06,200,-43.043
5.4615e+05,1.7762e+09,0,1.02,1.08,1.32,0.23,0,1,1.7761e+06,200,-43.043
5.4692e+05,1.7763e+09,0,1.02,1.08,1.32,0.22,0,1,1.7763e+06,200,-43.044
5.4781e+05,1.7766e+09,0,1.02,1.08,1.32,0.27,0,1,1.7765e+06,200,-43.044
