LineNo,TimeUS,I,Status,GMS,GWk,NSats,HDop,Lat,Lng,Alt,Spd,GCrs,VZ,Yaw,U
519,1.6419e+09,0,3,4.7008e+08,2231,17,0.62,43.601,13.482,99.61,0.024,234.31,0.027,0,1
1889,1.6424e+09,0,3,4.7008e+08,2231,16,0.64,43.601,13.482,99.65,0.03,234.31,0.022,0,1
2668,1.6425e+09,0,3,4.7008e+08,2231,16,0.64,43.601,13.482,99.67,0.025,234.31,-0.018,0,1
3542,1.6428e+09,0,3,4.7008e+08,2231,17,0.62,43.601,13.482,99.71,0.021,234.31,0.015,0,1
4352,1.6429e+09,0,3,4.7008e+08,2231,16,0.64,43.601,13.482,99.72,0.011,234.31,-0.126,0,1
5214,1.6431e+09,0,3,4.7008e+08,2231,16,0.64,43.601,13.482,99.77,0.021,234.31,0.007,0,1
6025,1.6433e+09,0,3,4.7008e+08,2231,16,0.64,43.601,13.482,99.78,0.029,234.31,-0.047,0,1
6891,1.6435e+09,0,3,4.7008e+08,2231,16,0.64,43.601,13.482,99.8,0.027,234.31,0.009,0,1
7725,1.6437e+09,0,3,4.7008e+08,2231,16,0.64,43.601,13.482,99.82,0.006,234.31,0.056,0,1
8629,1.6439e+09,0,3,4.7008e+08,2231,16,0.64,43.601,13.482,99.84,0.017,234.31,0.012,0,1
9525,1.6442e+09,0,3,4.7008e+08,2231,16,0.64,43.601,13.482,99.87,0.008,234.31,-0.004,0,1
10268,1.6443e+09,0,3,4.7008e+08,2231,16,0.64,43.601,13.482,99.91,0.036,234.31,-0.057,0,1
11167,1.6445e+09,0,3,4.7008e+08,2231,16,0.64,43.601,13.482,99.95,0.066,234.31,-0.003,0,1
12067,1.6448e+09,0,3,4.7008e+08,2231,16,0.64,43.601,13.482,99.98,0.009,234.31,-0.063,0,1
12817,1.6449e+09,0,3,4.7008e+08,2231,16,0.64,43.601,13.482,100.01,0.038,234.31,-0.038,0,1
14369,1.6454e+09,0,3,4.7008e+08,2231,16,0.64,43.601,13.482,100.06,0.024,234.31,0.006,0,1
15227,1.6456e+09,0,3,4.7008e+08,2231,17,0.62,43.601,13.482,100.09,0.031,234.31,0.017,0,1
16010,1.6457e+09,0,3,4.7008e+08,2231,16,0.64,43.601,13.482,100.12,0.031,234.31,-0.036,0,1
16915,1.646e+09,0,3,4.7008e+08,2231,16,0.64,43.601,13.482,100.14,0.008,234.31,-0.039,0,1
17691,1.6461e+09,0,3,4.7008e+08,2231,16,0.64,43.601,13.482,100.17,0.03,234.31,-0.044,0,1
18529,1.6463e+09,0,3,4.7008e+08,2231,16,0.64,43.601,13.482,100.19,0.023,234.31,-0.014,0,1
19429,1.6466e+09,0,3,4.7008e+08,2231,17,0.62,43.601,13.482,100.22,0.014,234.31,0.051,0,1
20267,1.6468e+09,0,3,4.7008e+08,2231,17,0.62,43.601,13.482,100.24,0.03,234.31,0.007,0,1
21082,1.6469e+09,0,3,4.7008e+08,2231,17,0.62,43.601,13.482,100.26,0.032,234.31,0.033,0,1
21951,1.6472e+09,0,3,4.7008e+08,2231,17,0.62,43.601,13.482,100.29,0.032,234.31,-0.018,0,1
22726,1.6473e+09,0,3,4.7008e+08,2231,16,0.64,43.601,13.482,100.31,0.019,234.31,-0.017,0,1
23593,1.6475e+09,0,3,4.7008e+08,2231,16,0.64,43.601,13.482,100.33,0.028,234.31,-0.004,0,1
24498,1.6478e+09,0,3,4.7008e+08,2231,16,0.64,43.601,13.482,100.35,0.024,234.31,0.066,0,1
25363,1.648e+09,0,3,4.7008e+08,2231,16,0.64,43.601,13.482,100.37,0.039,234.31,-0.029,0,1
26172,1.6481e+09,0,3,4.7008e+08,2231,16,0.64,43.601,13.482,100.4,0.03,234.31,-0.022,0,1
27042,1.6484e+09,0,3,4.7008e+08,2231,16,0.64,43.601,13.482,100.43,0.035,234.31,-0.045,0,1
27789,1.6485e+09,0,3,4.7008e+08,2231,16,0.64,43.601,13.482,100.43,0.041,234.31,-0.029,0,1
28596,1.6487e+09,0,3,4.7008e+08,2231,16,0.64,43.601,13.482,100.44,0.055,234.31,0.008,0,1
29502,1.649e+09,0,3,4.7008e+08,2231,17,0.62,43.601,13.482,100.47,0.156,234.31,-0.176,0,1
30332,1.6492e+09,0,3,4.7008e+08,2231,17,0.62,43.601,13.482,100.55,0.197,195.49,-0.566,0,1
31142,1.6494e+09,0,3,4.7008e+08,2231,17,0.62,43.601,13.482,100.73,0.52,128.33,-0.826,0,1
31948,1.6495e+09,0,3,4.7008e+08,2231,17,0.62,43.601,13.482,100.83,0.366,124.15,-0.633,0,1
32851,1.6498e+09,0,3,4.7008e+08,2231,17,0.62,43.601,13.482,101.08,0.376,107.83,-0.996,0,1
33628,1.6499e+09,0,3,4.7008e+08,2231,17,0.62,43.601,13.482,101.25,0.228,107.83,-0.83,0,1
34440,1.6501e+09,0,3,4.7008e+08,2231,16,0.64,43.601,13.482,101.48,0.247,116.99,-1.021,0,1
35343,1.6503e+09,0,3,4.7008e+08,2231,16,0.64,43.601,13.482,101.64,0.215,116.99,-0.955,0,1
36174,1.6506e+09,0,3,4.7008e+08,2231,16,0.64,43.601,13.482,101.82,0.233,125.79,-0.86,0,1
36986,1.6507e+09,0,3,4.7008e+08,2231,16,0.64,43.601,13.482,101.97,0.19,125.79,-0.925,0,1
37763,1.6509e+09,0,3,4.7008e+08,2231,16,0.64,43.601,13.482,102.18,0.225,125.79,-0.954,0,1
38667,1.6512e+09,0,3,4.7008e+08,2231,16,0.64,43.601,13.482,102.33,0.063,125.79,-1.049,0,1
39438,1.6513e+09,0,3,4.7008e+08,2231,17,0.62,43.601,13.482,102.58,0.174,155.48,-1.146,0,1
40303,1.6515e+09,0,3,4.7008e+08,2231,17,0.62,43.601,13.482,102.79,0.232,261.49,-0.915,0,1
41206,1.6518e+09,0,3,4.7008e+08,2231,17,0.62,43.601,13.482,103.04,0.292,223.3,-1.338,0,1
42019,1.652e+09,0,3,4.7009e+08,2231,17,0.62,43.601,13.482,103.23,0.383,257.57,-1.025,0,1
42783,1.6522e+09,0,3,4.7009e+08,2231,17,0.62,43.601,13.482,103.43,0.375,220.62,-1.109,0,1
43559,1.6523e+09,0,3,4.7009e+08,2231,17,0.62,43.601,13.482,103.62,0.168,220.62,-0.829,0,1
44361,1.6525e+09,0,3,4.7009e+08,2231,17,0.62,43.601,13.482,103.78,0.25,234.57,-0.853,0,1
45158,1.6527e+09,0,3,4.7009e+08,2231,17,0.62,43.601,13.482,103.9,0.428,273.74,-0.608,0,1
46046,1.653e+09,0,3,4.7009e+08,2231,16,0.64,43.601,13.482,104.05,0.256,278.45,-0.807,0,1
46782,1.6532e+09,0,3,4.7009e+08,2231,16,0.64,43.601,13.482,104.15,0.189,284.98,-0.671,0,1
47581,1.6534e+09,0,3,4.7009e+08,2231,16,0.64,43.601,13.482,104.24,0.369,324.1,-0.549,0,1
48381,1.6535e+09,0,3,4.7009e+08,2231,16,0.64,43.601,13.482,104.37,0.441,322,-0.638,0,1
49278,1.6538e+09,0,3,4.7009e+08,2231,16,0.64,43.601,13.482,104.41,0.265,327.54,-0.295,0,1
50078,1.654e+09,0,3,4.7009e+08,2231,16,0.64,43.601,13.482,104.46,0.229,341.78,-0.359,0,1
50758,1.6541e+09,0,3,4.7009e+08,2231,17,0.62,43.601,13.482,104.51,0.31,353.26,-0.437,0,1
51617,1.6544e+09,0,3,4.7009e+08,2231,17,0.62,43.601,13.482,104.56,0.181,353.26,-0.221,0,1
52416,1.6546e+09,0,3,4.7009e+08,2231,17,0.62,43.601,13.482,104.6,0.274,11.842,-0.294,0,1
53161,1.6547e+09,0,3,4.7009e+08,2231,16,0.64,43.601,13.482,104.65,0.238,22.102,-0.251,0,1
53969,1.6549e+09,0,3,4.7009e+08,2231,16,0.64,43.601,13.482,104.67,0.133,22.102,-0.305,0,1
54770,1.6551e+09,0,3,4.7009e+08,2231,16,0.64,43.601,13.482,104.71,0.188,22.102,-0.342,0,1
55665,1.6554e+09,0,3,4.7009e+08,2231,16,0.64,43.601,13.482,104.72,0.037,22.102,-0.189,0,1
56461,1.6556e+09,0,3,4.7009e+08,2231,17,0.62,43.601,13.482,104.74,0.074,22.102,-0.283,0,1
57197,1.6557e+09,0,3,4.7009e+08,2231,17,0.62,43.601,13.482,104.77,0.089,22.102,-0.235,0,1
58086,1.656e+09,0,3,4.7009e+08,2231,17,0.62,43.601,13.482,104.8,0.221,317.57,-0.226,0,1
58858,1.6562e+09,0,3,4.7009e+08,2231,17,0.62,43.601,13.482,104.81,0.257,282.26,-0.193,0,1
59665,1.6564e+09,0,3,4.7009e+08,2231,17,0.62,43.601,13.482,104.83,0.351,258.55,-0.263,0,1
60466,1.6565e+09,0,3,4.7009e+08,2231,17,0.62,43.601,13.482,104.85,0.482,262.84,-0.298,0,1
61319,1.6568e+09,0,3,4.7009e+08,2231,16,0.64,43.601,13.482,104.88,0.651,266.66,-0.328,0,1
62109,1.657e+09,0,3,4.7009e+08,2231,18,0.6,43.601,13.482,104.91,0.543,263.84,-0.22,0,1
62876,1.6571e+09,0,3,4.7009e+08,2231,17,0.62,43.601,13.482,104.95,0.554,261.53,-0.292,0,1
63647,1.6573e+09,0,3,4.7009e+08,2231,17,0.62,43.601,13.482,104.95,0.722,245.7,-0.249,0,1
64535,1.6576e+09,0,3,4.7009e+08,2231,18,0.6,43.601,13.482,104.97,0.872,239.43,-0.227,0,1
65341,1.6578e+09,0,3,4.7009e+08,2231,17,0.62,43.601,13.482,105,0.96,234.61,-0.203,0,1
66105,1.6579e+09,0,3,4.7009e+08,2231,16,0.64,43.601,13.482,105.02,0.972,228.36,-0.411,0,1
66956,1.6582e+09,0,3,4.7009e+08,2231,16,0.64,43.601,13.482,105.07,1.086,226.93,-0.287,0,1
67756,1.6584e+09,0,3,4.7009e+08,2231,17,0.62,43.601,13.482,105.14,1.221,223.54,-0.458,0,1
68519,1.6585e+09,0,3,4.7009e+08,2231,18,0.6,43.601,13.482,105.24,1.226,225.61,-0.646,0,1
69391,1.6588e+09,0,3,4.7009e+08,2231,17,0.62,43.601,13.482,105.27,1.461,222.88,-0.233,0,1
70158,1.659e+09,0,3,4.7009e+08,2231,17,0.62,43.601,13.482,105.28,1.443,222.34,-0.233,0,1
70965,1.6592e+09,0,3,4.7009e+08,2231,18,0.6,43.601,13.482,105.34,1.511,221.97,-0.315,0,1
71729,1.6593e+09,0,3,4.7009e+08,2231,18,0.6,43.601,13.482,105.41,1.55,220.56,-0.272,0,1
72492,1.6595e+09,0,3,4.7009e+08,2231,18,0.6,43.601,13.482,105.46,1.59,218.14,-0.321,0,1
73353,1.6598e+09,0,3,4.7009e+08,2231,18,0.6,43.601,13.482,105.53,1.519,217.69,-0.386,0,1
74155,1.6599e+09,0,3,4.7009e+08,2231,17,0.62,43.601,13.482,105.56,1.334,217.65,-0.379,0,1
74920,1.6601e+09,0,3,4.7009e+08,2231,17,0.62,43.601,13.482,105.59,1.379,214.93,-0.298,0,1
75813,1.6604e+09,0,3,4.7009e+08,2231,18,0.6,43.601,13.482,105.66,1.427,213.48,-0.347,0,1
76553,1.6605e+09,0,3,4.7009e+08,2231,18,0.6,43.601,13.482,105.75,1.053,214.74,-0.473,0,1
77449,1.6608e+09,0,3,4.7009e+08,2231,17,0.62,43.601,13.482,105.79,0.996,211.51,-0.282,0,1
78157,1.6609e+09,0,3,4.7009e+08,2231,17,0.62,43.601,13.482,105.84,0.749,212.6,-0.371,0,1
78961,1.6611e+09,0,3,4.7009e+08,2231,16,0.64,43.601,13.482,105.86,0.558,207.73,-0.226,0,1
79850,1.6614e+09,0,3,4.7009e+08,2231,16,0.64,43.601,13.482,105.88,0.355,211.24,-0.366,0,1
80651,1.6616e+09,0,3,4.7009e+08,2231,18,0.6,43.601,13.482,105.97,0.35,202.24,-0.374,0,1
81420,1.6617e+09,0,3,4.701e+08,2231,18,0.6,43.601,13.482,106.05,0.254,221.51,-0.516,0,1
82227,1.6619e+09,0,3,4.701e+08,2231,16,0.66,43.601,13.482,106.09,0.386,213.84,-0.3,0,1
83116,1.6622e+09,0,3,4.701e+08,2231,17,0.62,43.601,13.482,106.12,0.341,234.53,-0.272,0,1
83914,1.6624e+09,0,3,4.701e+08,2231,17,0.62,43.601,13.482,106.17,0.496,255.12,-0.35,0,1
84802,1.6626e+09,0,3,4.701e+08,2231,17,0.62,43.601,13.482,106.21,0.741,262.32,-0.265,0,1
85565,1.6628e+09,0,3,4.701e+08,2231,17,0.62,43.601,13.482,106.23,0.705,266.54,-0.304,0,1
86370,1.663e+09,0,3,4.701e+08,2231,17,0.62,43.601,13.482,106.29,0.784,265.72,-0.441,0,1
87109,1.6631e+09,0,3,4.701e+08,2231,17,0.62,43.601,13.482,106.33,0.929,264.34,-0.333,0,1
87911,1.6633e+09,0,3,4.701e+08,2231,17,0.62,43.601,13.482,106.42,0.802,268.06,-0.661,0,1
88798,1.6636e+09,0,3,4.701e+08,2231,17,0.62,43.601,13.482,106.47,0.877,264.39,-0.34,0,1
89600,1.6638e+09,0,3,4.701e+08,2231,17,0.62,43.601,13.482,106.5,0.933,259.63,-0.316,0,1
90403,1.664e+09,0,3,4.701e+08,2231,17,0.62,43.601,13.482,106.54,0.892,252.74,-0.334,0,1
91206,1.6642e+09,0,3,4.701e+08,2231,18,0.6,43.601,13.482,106.56,0.898,246.68,-0.255,0,1
91973,1.6643e+09,0,3,4.701e+08,2231,18,0.6,43.601,13.482,106.56,1.047,235.58,-0.088,0,1
92864,1.6646e+09,0,3,4.701e+08,2231,18,0.6,43.601,13.482,106.57,1.072,227.53,-0.225,0,1
93671,1.6648e+09,0,3,4.701e+08,2231,18,0.6,43.601,13.482,106.55,1.203,220.78,-0.171,0,1
94439,1.6649e+09,0,3,4.701e+08,2231,18,0.6,43.601,13.482,106.56,1.157,215.96,-0.072,0,1
95324,1.6652e+09,0,3,4.701e+08,2231,18,0.6,43.601,13.482,106.54,1.181,211.26,-0.147,0,1
96089,1.6654e+09,0,3,4.701e+08,2231,18,0.6,43.601,13.482,106.52,1.251,208.26,-0.099,0,1
96890,1.6656e+09,0,3,4.701e+08,2231,18,0.6,43.601,13.482,106.49,1.283,205.87,0.038,0,1
97663,1.6657e+09,0,3,4.701e+08,2231,18,0.6,43.601,13.482,106.46,1.148,206.57,0.041,0,1
98555,1.666e+09,0,3,4.701e+08,2231,18,0.6,43.601,13.482,106.4,1.315,207,0.115,0,1
99361,1.6662e+09,0,3,4.701e+08,2231,18,0.6,43.601,13.482,106.35,1.095,208.69,0.093,0,1
1.0017e+05,1.6664e+09,0,3,4.701e+08,2231,18,0.6,43.601,13.482,106.28,1.005,212.07,0.155,0,1
1.0093e+05,1.6666e+09,0,3,4.701e+08,2231,18,0.6,43.601,13.482,106.19,0.908,214.52,0.18,0,1
1.0183e+05,1.6668e+09,0,3,4.701e+08,2231,18,0.6,43.601,13.482,106.12,0.93,217.61,0.194,0,1
1.0262e+05,1.667e+09,0,3,4.701e+08,2231,18,0.6,43.601,13.482,106.08,0.93,215.94,0.027,0,1
1.0339e+05,1.6672e+09,0,3,4.701e+08,2231,17,0.62,43.601,13.482,106.04,0.772,208.19,-0.047,0,1
1.0419e+05,1.6674e+09,0,3,4.701e+08,2231,17,0.62,43.601,13.482,106.02,0.793,191.04,0.048,0,1
1.0499e+05,1.6675e+09,0,3,4.701e+08,2231,17,0.62,43.601,13.482,105.96,0.76,178.29,0.024,0,1
1.0579e+05,1.6677e+09,0,3,4.701e+08,2231,17,0.62,43.601,13.482,105.88,0.744,167.47,0.349,0,1
1.0665e+05,1.668e+09,0,3,4.701e+08,2231,17,0.62,43.601,13.482,105.79,0.862,150.29,0.18,0,1
1.0745e+05,1.6681e+09,0,3,4.701e+08,2231,17,0.62,43.601,13.482,105.73,0.752,138.29,0.203,0,1
1.0822e+05,1.6683e+09,0,3,4.701e+08,2231,17,0.62,43.601,13.482,105.64,0.79,123.21,0.211,0,1
1.0908e+05,1.6686e+09,0,3,4.701e+08,2231,17,0.62,43.601,13.482,105.57,0.818,102.43,0.253,0,1
1.0989e+05,1.6688e+09,0,3,4.701e+08,2231,17,0.62,43.601,13.482,105.49,0.862,83.575,0.08,0,1
1.1069e+05,1.669e+09,0,3,4.701e+08,2231,17,0.62,43.601,13.482,105.48,0.944,63.508,-0.013,0,1
1.1146e+05,1.6691e+09,0,3,4.701e+08,2231,17,0.62,43.601,13.482,105.43,1.008,46.971,-0.04,0,1
1.1226e+05,1.6693e+09,0,3,4.701e+08,2231,17,0.62,43.601,13.482,105.4,1.105,35.438,-0.039,0,1
1.1312e+05,1.6696e+09,0,3,4.701e+08,2231,17,0.62,43.601,13.482,105.41,1.383,25.356,-0.237,0,1
1.1392e+05,1.6698e+09,0,3,4.701e+08,2231,17,0.62,43.601,13.482,105.42,1.501,19.462,-0.255,0,1
1.1472e+05,1.67e+09,0,3,4.701e+08,2231,17,0.62,43.601,13.482,105.41,1.568,14.16,-0.157,0,1
1.1553e+05,1.6701e+09,0,3,4.701e+08,2231,17,0.62,43.601,13.482,105.41,1.775,13.007,-0.096,0,1
1.163e+05,1.6703e+09,0,3,4.701e+08,2231,17,0.62,43.601,13.482,105.38,1.756,11.213,0.025,0,1
1.171e+05,1.6705e+09,0,3,4.701e+08,2231,17,0.62,43.601,13.482,105.34,1.757,10.317,0.07,0,1
1.1799e+05,1.6708e+09,0,3,4.701e+08,2231,17,0.62,43.601,13.482,105.29,1.961,7.2842,0.12,0,1
1.1876e+05,1.6709e+09,0,3,4.701e+08,2231,16,0.66,43.601,13.482,105.24,2.069,4.8468,0.267,0,1
1.1956e+05,1.6711e+09,0,3,4.701e+08,2231,17,0.62,43.601,13.482,105.13,2.009,4.642,0.329,0,1
1.2045e+05,1.6714e+09,0,3,4.701e+08,2231,17,0.62,43.601,13.482,105.04,1.875,5.1091,0.285,0,1
1.2126e+05,1.6716e+09,0,3,4.701e+08,2231,17,0.62,43.601,13.482,104.94,1.761,7.5396,0.388,0,1
1.2207e+05,1.6717e+09,0,3,4.701e+08,2231,17,0.62,43.601,13.482,104.85,1.678,6.9889,0.363,0,1
1.2284e+05,1.6719e+09,0,3,4.7011e+08,2231,17,0.62,43.601,13.482,104.72,1.388,10.282,0.302,0,1
1.2373e+05,1.6722e+09,0,3,4.7011e+08,2231,17,0.62,43.601,13.482,104.6,1.451,11.311,0.279,0,1
1.2449e+05,1.6724e+09,0,3,4.7011e+08,2231,17,0.62,43.601,13.482,104.52,1.119,13.05,0.269,0,1
1.253e+05,1.6726e+09,0,3,4.7011e+08,2231,17,0.62,43.601,13.482,104.43,0.971,14.967,0.383,0,1
1.262e+05,1.6728e+09,0,3,4.7011e+08,2231,17,0.62,43.601,13.482,104.34,0.833,16.534,0.294,0,1
1.27e+05,1.673e+09,0,3,4.7011e+08,2231,17,0.62,43.601,13.482,104.22,0.62,20.041,0.35,0,1
1.2768e+05,1.6731e+09,0,3,4.7011e+08,2231,17,0.62,43.601,13.482,104.13,0.558,21.086,0.246,0,1
1.2857e+05,1.6733e+09,0,3,4.7011e+08,2231,17,0.62,43.601,13.482,104.08,0.463,20.978,0.182,0,1
1.2937e+05,1.6735e+09,0,3,4.7011e+08,2231,17,0.62,43.601,13.482,104.02,0.462,16.574,0.089,0,1
1.3023e+05,1.6738e+09,0,3,4.7011e+08,2231,17,0.62,43.601,13.482,103.98,0.676,13.403,-0.063,0,1
1.3104e+05,1.674e+09,0,3,4.7011e+08,2231,17,0.62,43.601,13.482,103.99,0.852,13.916,-0.181,0,1
1.3181e+05,1.6742e+09,0,3,4.7011e+08,2231,17,0.62,43.601,13.482,104.01,0.907,14.08,-0.447,0,1
1.3262e+05,1.6743e+09,0,3,4.7011e+08,2231,17,0.62,43.601,13.482,104.09,1.011,8.8739,-0.648,0,1
1.3342e+05,1.6745e+09,0,3,4.7011e+08,2231,17,0.62,43.601,13.482,104.23,1.078,8.4036,-0.845,0,1
1.3422e+05,1.6747e+09,0,3,4.7011e+08,2231,17,0.62,43.601,13.482,104.33,0.957,1.0273,-0.626,0,1
1.3502e+05,1.6749e+09,0,3,4.7011e+08,2231,17,0.62,43.601,13.482,104.47,1,350.09,-0.835,0,1
1.3589e+05,1.6752e+09,0,3,4.7011e+08,2231,18,0.6,43.601,13.482,104.61,1.066,341.29,-0.765,0,1
1.3669e+05,1.6754e+09,0,3,4.7011e+08,2231,18,0.6,43.601,13.482,104.76,1.137,329.67,-0.866,0,1
1.3746e+05,1.6756e+09,0,3,4.7011e+08,2231,18,0.6,43.601,13.482,104.92,0.959,328.28,-0.921,0,1
1.3826e+05,1.6757e+09,0,3,4.7011e+08,2231,17,0.62,43.601,13.482,105.04,1.017,323.27,-0.749,0,1
1.3907e+05,1.6759e+09,0,3,4.7011e+08,2231,17,0.62,43.601,13.482,105.15,0.97,317.96,-0.68,0,1
1.3993e+05,1.6762e+09,0,3,4.7011e+08,2231,17,0.62,43.601,13.482,105.23,0.968,313.98,-0.45,0,1
1.4073e+05,1.6764e+09,0,3,4.7011e+08,2231,17,0.62,43.601,13.482,105.27,0.99,312.44,-0.207,0,1
1.4153e+05,1.6765e+09,0,3,4.7011e+08,2231,17,0.62,43.601,13.482,105.29,1.043,317.68,-0.213,0,1
1.4239e+05,1.6768e+09,0,3,4.7011e+08,2231,17,0.62,43.601,13.482,105.28,1,317.41,-0.013,0,1
1.432e+05,1.677e+09,0,3,4.7011e+08,2231,17,0.62,43.601,13.482,105.21,1.006,319.59,0.277,0,1
1.44e+05,1.6772e+09,0,3,4.7011e+08,2231,17,0.62,43.601,13.482,105.12,0.868,325.08,0.252,0,1
1.4472e+05,1.6773e+09,0,3,4.7011e+08,2231,17,0.62,43.601,13.482,105.05,0.739,332.85,0.218,0,1
1.4561e+05,1.6776e+09,0,3,4.7011e+08,2231,18,0.6,43.601,13.482,104.98,0.66,346.51,0.191,0,1
1.4641e+05,1.6778e+09,0,3,4.7011e+08,2231,18,0.6,43.601,13.482,104.9,0.576,359.88,0.27,0,1
1.4718e+05,1.6779e+09,0,3,4.7011e+08,2231,17,0.62,43.601,13.482,104.84,0.618,14.286,0.184,0,1
1.4807e+05,1.6782e+09,0,3,4.7011e+08,2231,18,0.6,43.601,13.482,104.78,0.648,28.875,0.126,0,1
1.4884e+05,1.6784e+09,0,3,4.7011e+08,2231,18,0.6,43.601,13.482,104.72,0.766,46.353,0.076,0,1
1.4964e+05,1.6786e+09,0,3,4.7011e+08,2231,18,0.6,43.601,13.482,104.68,0.917,64.256,0.053,0,1
1.5045e+05,1.6788e+09,0,3,4.7011e+08,2231,18,0.6,43.601,13.482,104.64,1.23,72.355,-0.054,0,1
1.5126e+05,1.679e+09,0,3,4.7011e+08,2231,18,0.6,43.601,13.482,104.63,1.453,74.206,-0.025,0,1
1.5206e+05,1.6792e+09,0,3,4.7011e+08,2231,18,0.6,43.601,13.482,104.6,1.426,78.537,0.032,0,1
1.5286e+05,1.6793e+09,0,3,4.7011e+08,2231,18,0.6,43.601,13.482,104.55,1.403,76.231,-0.013,0,1
1.5364e+05,1.6795e+09,0,3,4.7011e+08,2231,18,0.6,43.601,13.482,104.55,1.32,78.508,-0.167,0,1
1.5453e+05,1.6798e+09,0,3,4.7011e+08,2231,17,0.62,43.601,13.482,104.57,1.408,79.354,-0.232,0,1
1.5526e+05,1.6799e+09,0,3,4.7011e+08,2231,17,0.62,43.601,13.482,104.58,1.352,79.631,-0.192,0,1
1.5606e+05,1.6801e+09,0,3,4.7011e+08,2231,17,0.62,43.601,13.482,104.59,1.366,79.645,-0.217,0,1
1.5695e+05,1.6804e+09,0,3,4.7011e+08,2231,18,0.6,43.601,13.482,104.61,1.339,82.572,-0.305,0,1
1.5772e+05,1.6806e+09,0,3,4.7011e+08,2231,18,0.6,43.601,13.482,104.64,1.28,84.934,-0.265,0,1
1.5849e+05,1.6807e+09,0,3,4.7011e+08,2231,18,0.6,43.601,13.482,104.67,1.33,88.586,-0.243,0,1
1.5938e+05,1.681e+09,0,3,4.7011e+08,2231,18,0.6,43.601,13.482,104.7,1.26,89.695,-0.296,0,1
1.6015e+05,1.6812e+09,0,3,4.7011e+08,2231,18,0.6,43.601,13.482,104.72,1.316,89.552,-0.209,0,1
1.6095e+05,1.6813e+09,0,3,4.7011e+08,2231,18,0.6,43.601,13.482,104.75,1.29,90.087,-0.261,0,1
1.6175e+05,1.6815e+09,0,3,4.7011e+08,2231,18,0.6,43.601,13.482,104.79,1.326,91.522,-0.238,0,1
1.6264e+05,1.6818e+09,0,3,4.7012e+08,2231,18,0.6,43.601,13.482,104.81,1.422,90.533,-0.186,0,1
1.6344e+05,1.682e+09,0,3,4.7012e+08,2231,18,0.6,43.601,13.482,104.83,1.449,91.423,-0.237,0,1
1.6421e+05,1.6822e+09,0,3,4.7012e+08,2231,18,0.6,43.601,13.482,104.86,1.439,90.281,-0.252,0,1
1.6501e+05,1.6823e+09,0,3,4.7012e+08,2231,18,0.6,43.601,13.482,104.88,1.482,90.71,-0.211,0,1
1.6583e+05,1.6826e+09,0,3,4.7012e+08,2231,18,0.6,43.601,13.482,104.86,1.49,91.693,-0.173,0,1
1.6663e+05,1.6828e+09,0,3,4.7012e+08,2231,18,0.6,43.601,13.482,104.86,1.455,91.939,-0.139,0,1
1.6743e+05,1.683e+09,0,3,4.7012e+08,2231,18,0.6,43.601,13.482,104.85,1.518,92.675,-0.056,0,1
1.6824e+05,1.6832e+09,0,3,4.7012e+08,2231,18,0.6,43.601,13.482,104.83,1.382,92.87,-0.052,0,1
1.6904e+05,1.6833e+09,0,3,4.7012e+08,2231,18,0.6,43.601,13.482,104.81,1.339,92.997,0.013,0,1
1.6981e+05,1.6835e+09,0,3,4.7012e+08,2231,18,0.6,43.601,13.482,104.77,1.315,92.85,-0.027,0,1
1.7058e+05,1.6837e+09,0,3,4.7012e+08,2231,18,0.6,43.601,13.482,104.75,1.242,92.162,-0.035,0,1
1.7143e+05,1.684e+09,0,3,4.7012e+08,2231,18,0.6,43.601,13.482,104.73,1.154,89.37,-0.077,0,1
1.7224e+05,1.6841e+09,0,3,4.7012e+08,2231,18,0.6,43.601,13.482,104.72,1.105,89.935,-0.151,0,1
1.7304e+05,1.6843e+09,0,3,4.7012e+08,2231,18,0.6,43.601,13.482,104.7,1.154,90.778,-0.02,0,1
1.7385e+05,1.6845e+09,0,3,4.7012e+08,2231,18,0.6,43.601,13.482,104.68,1.144,89.856,-0.064,0,1
1.7469e+05,1.6848e+09,0,3,4.7012e+08,2231,18,0.6,43.601,13.482,104.64,1.165,88.883,0.023,0,1
1.7546e+05,1.685e+09,0,3,4.7012e+08,2231,18,0.6,43.601,13.482,104.6,1.116,89.447,0.029,0,1
1.7626e+05,1.6852e+09,0,3,4.7012e+08,2231,18,0.6,43.601,13.482,104.56,1.02,91.453,0.065,0,1
1.7706e+05,1.6853e+09,0,3,4.7012e+08,2231,18,0.6,43.601,13.482,104.52,0.974,90.8,0.096,0,1
1.7796e+05,1.6856e+09,0,3,4.7012e+08,2231,18,0.6,43.601,13.482,104.51,0.964,90.146,0.01,0,1
1.7876e+05,1.6858e+09,0,3,4.7012e+08,2231,18,0.6,43.601,13.482,104.48,0.844,92.101,0.013,0,1
1.7953e+05,1.6859e+09,0,3,4.7012e+08,2231,18,0.6,43.601,13.482,104.44,0.622,93.041,-0.013,0,1
1.8038e+05,1.6862e+09,0,3,4.7012e+08,2231,18,0.6,43.601,13.482,104.43,0.604,91.169,-0.008,0,1
1.8118e+05,1.6864e+09,0,3,4.7012e+08,2231,18,0.6,43.601,13.482,104.42,0.368,88.85,-0.093,0,1
1.8192e+05,1.6866e+09,0,3,4.7012e+08,2231,18,0.6,43.601,13.482,104.41,0.169,85.426,0.06,0,1
1.8272e+05,1.6868e+09,0,3,4.7012e+08,2231,18,0.6,43.601,13.482,104.4,0.093,85.426,-0.043,0,1
1.8353e+05,1.6869e+09,0,3,4.7012e+08,2231,18,0.6,43.601,13.482,104.39,0.011,85.426,-0.09,0,1
1.8438e+05,1.6872e+09,0,3,4.7012e+08,2231,18,0.6,43.601,13.482,104.38,0.085,85.426,-0.128,0,1
1.8518e+05,1.6874e+09,0,3,4.7012e+08,2231,18,0.6,43.601,13.482,104.39,0.075,85.426,-0.149,0,1
1.8595e+05,1.6876e+09,0,3,4.7012e+08,2231,18,0.6,43.601,13.482,104.4,0.083,85.426,-0.161,0,1
1.8675e+05,1.6877e+09,0,3,4.7012e+08,2231,18,0.6,43.601,13.482,104.4,0.025,85.426,-0.216,0,1
1.8761e+05,1.688e+09,0,3,4.7012e+08,2231,18,0.6,43.601,13.482,104.41,0.053,85.426,-0.124,0,1
1.8834e+05,1.6882e+09,0,3,4.7012e+08,2231,18,0.6,43.601,13.482,104.42,0.07,85.426,-0.091,0,1
1.8914e+05,1.6883e+09,0,3,4.7012e+08,2231,18,0.6,43.601,13.482,104.41,0.101,85.426,-0.143,0,1
1.8996e+05,1.6886e+09,0,3,4.7012e+08,2231,18,0.6,43.601,13.482,104.41,0.098,85.426,-0.131,0,1
1.9076e+05,1.6888e+09,0,3,4.7012e+08,2231,18,0.6,43.601,13.482,104.39,0.056,85.426,-0.083,0,1
1.9157e+05,1.6889e+09,0,3,4.7012e+08,2231,18,0.6,43.601,13.482,104.37,0.115,85.426,-0.024,0,1
1.9242e+05,1.6892e+09,0,3,4.7012e+08,2231,18,0.6,43.601,13.482,104.33,0.08,85.426,0.015,0,1
1.9322e+05,1.6894e+09,0,3,4.7012e+08,2231,18,0.6,43.601,13.482,104.29,0.088,85.426,-0.002,0,1
1.939e+05,1.6895e+09,0,3,4.7012e+08,2231,18,0.6,43.601,13.482,104.27,0.095,85.426,0.026,0,1
1.9479e+05,1.6898e+09,0,3,4.7012e+08,2231,18,0.6,43.601,13.482,104.25,0.086,85.426,-0.034,0,1
1.9556e+05,1.6899e+09,0,3,4.7012e+08,2231,18,0.6,43.601,13.482,104.23,0.05,85.426,-0.053,0,1
1.9645e+05,1.6902e+09,0,3,4.7012e+08,2231,18,0.6,43.601,13.482,104.2,0.092,85.426,-0.043,0,1
1.9722e+05,1.6904e+09,0,3,4.7012e+08,2231,18,0.6,43.601,13.482,104.18,0.19,110.16,0.047,0,1
1.9799e+05,1.6906e+09,0,3,4.7012e+08,2231,18,0.6,43.601,13.482,104.15,0.358,114.33,-0.026,0,1
1.9879e+05,1.6908e+09,0,3,4.7012e+08,2231,18,0.6,43.601,13.482,104.13,0.443,108.63,0.042,0,1
1.9956e+05,1.6909e+09,0,3,4.7012e+08,2231,18,0.6,43.601,13.482,104.11,0.594,104.9,0.006,0,1
2.0041e+05,1.6912e+09,0,3,4.7012e+08,2231,18,0.6,43.601,13.482,104.09,0.881,99.004,0.05,0,1
2.0122e+05,1.6914e+09,0,3,4.7012e+08,2231,18,0.6,43.601,13.482,104.07,0.981,94.426,-0.027,0,1
2.0202e+05,1.6916e+09,0,3,4.7012e+08,2231,18,0.6,43.601,13.482,104.06,1.177,89.861,-0.058,0,1
2.0282e+05,1.6917e+09,0,3,4.7012e+08,2231,18,0.6,43.601,13.482,104.04,1.272,89.242,-0.069,0,1
2.0355e+05,1.6919e+09,0,3,4.7013e+08,2231,18,0.6,43.601,13.482,104.03,1.337,91.322,-0.087,0,1
2.0444e+05,1.6922e+09,0,3,4.7013e+08,2231,18,0.6,43.601,13.482,103.98,1.507,89.598,0.101,0,1
2.0517e+05,1.6924e+09,0,3,4.7013e+08,2231,18,0.6,43.601,13.482,103.95,1.636,91.262,-0.013,0,1
2.0597e+05,1.6925e+09,0,3,4.7013e+08,2231,18,0.6,43.601,13.482,103.91,1.492,93.338,0.055,0,1
2.0686e+05,1.6928e+09,0,3,4.7013e+08,2231,18,0.6,43.601,13.482,103.88,1.495,95.221,0.066,0,1
2.0767e+05,1.693e+09,0,3,4.7013e+08,2231,18,0.6,43.601,13.482,103.84,1.293,95.163,0.091,0,1
2.0847e+05,1.6932e+09,0,3,4.7013e+08,2231,18,0.6,43.601,13.482,103.79,1.197,95.907,0.117,0,1
2.0925e+05,1.6934e+09,0,3,4.7013e+08,2231,18,0.6,43.601,13.482,103.75,1.116,98.49,0.004,0,1
2.0999e+05,1.6935e+09,0,3,4.7013e+08,2231,18,0.6,43.601,13.482,103.72,1.016,98.936,0.087,0,1
2.1084e+05,1.6938e+09,0,3,4.7013e+08,2231,18,0.6,43.601,13.482,103.69,0.86,99.518,0.062,0,1
2.1164e+05,1.6939e+09,0,3,4.7013e+08,2231,18,0.6,43.601,13.482,103.66,0.752,104.29,-0.016,0,1
2.1253e+05,1.6942e+09,0,3,4.7013e+08,2231,18,0.6,43.601,13.482,103.66,0.599,107.3,-0.022,0,1
2.133e+05,1.6944e+09,0,3,4.7013e+08,2231,18,0.6,43.601,13.482,103.65,0.538,107.55,-0.109,0,1
2.1407e+05,1.6945e+09,0,3,4.7013e+08,2231,18,0.6,43.601,13.482,103.65,0.454,105.36,-0.15,0,1
2.1492e+05,1.6948e+09,0,3,4.7013e+08,2231,18,0.6,43.601,13.482,103.64,0.601,102.07,-0.07,0,1
2.1559e+05,1.6949e+09,0,3,4.7013e+08,2231,18,0.6,43.601,13.482,103.61,0.579,97.992,0.103,0,1
2.1648e+05,1.6952e+09,0,3,4.7013e+08,2231,18,0.6,43.601,13.482,103.59,0.568,95.379,0.107,0,1
2.1725e+05,1.6953e+09,0,3,4.7013e+08,2231,18,0.6,43.601,13.482,103.54,0.313,94.493,0.13,0,1
2.1814e+05,1.6956e+09,0,3,4.7013e+08,2231,18,0.6,43.601,13.482,103.5,0.175,93.909,0.139,0,1
2.1894e+05,1.6958e+09,0,3,4.7013e+08,2231,18,0.6,43.601,13.482,103.45,0.131,93.909,0.161,0,1
2.1975e+05,1.696e+09,0,3,4.7013e+08,2231,18,0.6,43.601,13.482,103.42,0.119,93.909,0.091,0,1
2.2055e+05,1.6962e+09,0,3,4.7013e+08,2231,18,0.6,43.601,13.482,103.38,0.152,93.909,0.015,0,1
2.2135e+05,1.6964e+09,0,3,4.7013e+08,2231,18,0.6,43.601,13.482,103.36,0.133,93.909,0.068,0,1
2.2215e+05,1.6966e+09,0,3,4.7013e+08,2231,18,0.6,43.601,13.482,103.35,0.099,93.909,-0.094,0,1
2.2308e+05,1.6968e+09,0,3,4.7013e+08,2231,18,0.6,43.601,13.482,103.36,0.104,93.909,-0.163,0,1
2.2376e+05,1.697e+09,0,3,4.7013e+08,2231,18,0.6,43.601,13.482,103.38,0.08,93.909,-0.236,0,1
2.2457e+05,1.6972e+09,0,3,4.7013e+08,2231,18,0.6,43.601,13.482,103.41,0.157,93.909,-0.224,0,1
2.2537e+05,1.6973e+09,0,3,4.7013e+08,2231,18,0.6,43.601,13.482,103.44,0.267,185.42,-0.304,0,1
2.2617e+05,1.6975e+09,0,3,4.7013e+08,2231,18,0.6,43.601,13.482,103.46,0.299,195.05,-0.228,0,1
2.2697e+05,1.6977e+09,0,3,4.7013e+08,2231,18,0.6,43.601,13.482,103.47,0.49,200.87,-0.094,0,1
2.2782e+05,1.698e+09,0,3,4.7013e+08,2231,18,0.6,43.601,13.482,103.48,0.636,198.87,-0.056,0,1
2.2862e+05,1.6982e+09,0,3,4.7013e+08,2231,18,0.6,43.601,13.482,103.5,0.644,199.71,-0.128,0,1
2.2942e+05,1.6983e+09,0,3,4.7013e+08,2231,18,0.6,43.601,13.482,103.48,0.753,202.15,-0.109,0,1
2.3027e+05,1.6986e+09,0,3,4.7013e+08,2231,18,0.6,43.601,13.482,103.46,0.753,200.67,0.023,0,1
2.3108e+05,1.6988e+09,0,3,4.7013e+08,2231,18,0.6,43.601,13.482,103.48,0.836,195.16,-0.153,0,1
2.3188e+05,1.699e+09,0,3,4.7013e+08,2231,18,0.6,43.601,13.482,103.45,0.888,193.06,0.059,0,1
2.3264e+05,1.6991e+09,0,3,4.7013e+08,2231,18,0.6,43.601,13.482,103.4,0.938,191.73,0.063,0,1
2.3349e+05,1.6994e+09,0,3,4.7013e+08,2231,18,0.6,43.601,13.482,103.37,0.98,190.08,0.129,0,1
2.3429e+05,1.6996e+09,0,3,4.7013e+08,2231,18,0.6,43.601,13.482,103.35,1.132,190.87,0.028,0,1
2.3506e+05,1.6998e+09,0,3,4.7013e+08,2231,18,0.6,43.601,13.482,103.31,1.198,190.37,0.111,0,1
2.3587e+05,1.6999e+09,0,3,4.7013e+08,2231,18,0.6,43.601,13.482,103.28,1.358,188.22,0.099,0,1
2.3672e+05,1.7002e+09,0,3,4.7013e+08,2231,18,0.6,43.601,13.482,103.24,1.455,189.19,0.033,0,1
2.3749e+05,1.7004e+09,0,3,4.7013e+08,2231,18,0.6,43.601,13.482,103.22,1.604,187.57,0.02,0,1
2.3826e+05,1.7005e+09,0,3,4.7013e+08,2231,18,0.6,43.601,13.482,103.19,1.673,187.25,0.069,0,1
2.3911e+05,1.7008e+09,0,3,4.7013e+08,2231,18,0.6,43.601,13.482,103.16,1.764,189.44,0.036,0,1
2.3991e+05,1.701e+09,0,3,4.7013e+08,2231,18,0.6,43.601,13.482,103.13,1.792,189.72,0.097,0,1
2.4068e+05,1.7012e+09,0,3,4.7013e+08,2231,18,0.6,43.601,13.482,103.09,1.89,189.09,0.032,0,1
2.4145e+05,1.7014e+09,0,3,4.7013e+08,2231,18,0.6,43.601,13.482,103.05,1.9,189.5,0.039,0,1
2.4224e+05,1.7015e+09,0,3,4.7013e+08,2231,18,0.6,43.601,13.482,103.03,1.914,189.17,0.066,0,1
2.4304e+05,1.7017e+09,0,3,4.7014e+08,2231,18,0.6,43.601,13.482,103,1.949,188.72,0.052,0,1
2.439e+05,1.702e+09,0,3,4.7014e+08,2231,18,0.6,43.601,13.482,102.97,1.955,188.6,0.069,0,1
2.4466e+05,1.7021e+09,0,3,4.7014e+08,2231,18,0.6,43.601,13.482,102.94,1.984,190.49,0.072,0,1
2.4548e+05,1.7024e+09,0,3,4.7014e+08,2231,18,0.6,43.601,13.482,102.92,1.959,189.86,0.043,0,1
2.4627e+05,1.7026e+09,0,3,4.7014e+08,2231,18,0.6,43.601,13.482,102.86,1.881,191.1,0.159,0,1
2.4713e+05,1.7028e+09,0,3,4.7014e+08,2231,18,0.6,43.601,13.482,102.82,1.892,190.59,0.091,0,1
2.4785e+05,1.7029e+09,0,3,4.7014e+08,2231,18,0.6,43.601,13.482,102.77,1.872,190.96,0.159,0,1
2.4864e+05,1.7031e+09,0,3,4.7014e+08,2231,18,0.6,43.601,13.482,102.69,1.781,190.33,0.246,0,1
2.4946e+05,1.7034e+09,0,3,4.7014e+08,2231,18,0.6,43.601,13.482,102.63,1.708,188.34,0.206,0,1
2.5026e+05,1.7035e+09,0,3,4.7014e+08,2231,18,0.6,43.601,13.482,102.59,1.63,188.25,0.214,0,1
2.5103e+05,1.7037e+09,0,3,4.7014e+08,2231,18,0.6,43.601,13.482,102.52,1.535,188.98,0.234,0,1
2.5191e+05,1.704e+09,0,3,4.7014e+08,2231,18,0.6,43.601,13.482,102.46,1.48,188.8,0.142,0,1
2.5272e+05,1.7041e+09,0,3,4.7014e+08,2231,18,0.6,43.601,13.482,102.4,1.519,187.76,0.149,0,1
2.5352e+05,1.7043e+09,0,3,4.7014e+08,2231,18,0.6,43.601,13.482,102.39,1.335,189.15,0.071,0,1
2.5431e+05,1.7045e+09,0,3,4.7014e+08,2231,18,0.6,43.601,13.482,102.36,1.019,191.31,0,0,1
2.552e+05,1.7048e+09,0,3,4.7014e+08,2231,18,0.6,43.601,13.482,102.37,0.941,194.32,-0.179,0,1
2.5597e+05,1.705e+09,0,3,4.7014e+08,2231,18,0.6,43.601,13.482,102.4,0.397,196.85,-0.267,0,1
2.5676e+05,1.7051e+09,0,3,4.7014e+08,2231,18,0.6,43.601,13.482,102.44,0.381,196.72,-0.178,0,1
2.5762e+05,1.7054e+09,0,3,4.7014e+08,2231,18,0.6,43.601,13.482,102.46,0.302,191.33,-0.078,0,1
2.5839e+05,1.7055e+09,0,3,4.7014e+08,2231,18,0.6,43.601,13.482,102.44,0.256,188.34,0.024,0,1
2.5925e+05,1.7058e+09,0,3,4.7014e+08,2231,18,0.6,43.601,13.482,102.43,0.26,195.55,0.028,0,1
2.5996e+05,1.7059e+09,0,3,4.7014e+08,2231,18,0.6,43.601,13.482,102.39,0.247,196.38,0.079,0,1
2.6086e+05,1.7062e+09,0,3,4.7014e+08,2231,18,0.6,43.601,13.482,102.36,0.26,199.65,0.114,0,1
2.6162e+05,1.7064e+09,0,3,4.7014e+08,2231,18,0.6,43.601,13.482,102.33,0.156,199.65,0.028,0,1
2.6238e+05,1.7066e+09,0,3,4.7014e+08,2231,18,0.6,43.601,13.482,102.3,0.118,199.65,0.011,0,1
2.6318e+05,1.7067e+09,0,3,4.7014e+08,2231,18,0.6,43.601,13.482,102.27,0.058,199.65,0.095,0,1
2.6404e+05,1.707e+09,0,3,4.7014e+08,2231,18,0.6,43.601,13.482,102.24,0.066,199.65,0.116,0,1
2.6485e+05,1.7072e+09,0,3,4.7014e+08,2231,18,0.6,43.601,13.482,102.2,0.066,199.65,0.129,0,1
2.6564e+05,1.7073e+09,0,3,4.7014e+08,2231,18,0.6,43.601,13.482,102.15,0.234,212.03,0.246,0,1
2.665e+05,1.7076e+09,0,3,4.7014e+08,2231,18,0.6,43.601,13.482,102.1,0.373,239.49,0.109,0,1
2.6729e+05,1.7078e+09,0,3,4.7014e+08,2231,17,0.62,43.601,13.482,102.09,0.464,250.23,0.021,0,1
2.6809e+05,1.708e+09,0,3,4.7014e+08,2231,17,0.62,43.601,13.482,102.09,0.695,258.5,-0.068,0,1
2.6894e+05,1.7082e+09,0,3,4.7014e+08,2231,17,0.62,43.601,13.482,102.08,0.825,260.87,0.024,0,1
2.6968e+05,1.7084e+09,0,3,4.7014e+08,2231,17,0.62,43.601,13.482,102.09,1.025,267.86,-0.136,0,1
2.7048e+05,1.7086e+09,0,3,4.7014e+08,2231,17,0.62,43.601,13.482,102.12,1.188,270.9,-0.167,0,1
2.7137e+05,1.7088e+09,0,3,4.7014e+08,2231,18,0.6,43.601,13.482,102.15,1.297,274.17,-0.184,0,1
2.7208e+05,1.709e+09,0,3,4.7014e+08,2231,18,0.6,43.601,13.482,102.18,1.459,276.46,-0.258,0,1
2.7289e+05,1.7092e+09,0,3,4.7014e+08,2231,18,0.6,43.601,13.482,102.22,1.523,276.87,-0.334,0,1
2.7371e+05,1.7094e+09,0,3,4.7014e+08,2231,18,0.6,43.601,13.482,102.27,1.722,277.74,-0.242,0,1
2.7447e+05,1.7096e+09,0,3,4.7014e+08,2231,18,0.6,43.601,13.482,102.3,1.843,278.33,-0.326,0,1
2.7527e+05,1.7098e+09,0,3,4.7014e+08,2231,18,0.6,43.601,13.482,102.35,1.801,278.92,-0.342,0,1
2.7607e+05,1.7099e+09,0,3,4.7014e+08,2231,18,0.6,43.601,13.482,102.42,1.951,279,-0.334,0,1
2.7696e+05,1.7102e+09,0,3,4.7014e+08,2231,18,0.6,43.601,13.482,102.47,2.069,278.15,-0.337,0,1
2.7776e+05,1.7104e+09,0,3,4.7014e+08,2231,18,0.6,43.601,13.482,102.52,2.098,276.64,-0.293,0,1
2.7856e+05,1.7105e+09,0,3,4.7014e+08,2231,18,0.6,43.601,13.482,102.57,2.314,277.42,-0.35,0,1
2.7941e+05,1.7108e+09,0,3,4.7014e+08,2231,18,0.6,43.601,13.482,102.63,2.29,276.2,-0.338,0,1
2.8018e+05,1.711e+09,0,3,4.7014e+08,2231,17,0.62,43.601,13.482,102.7,2.323,276.65,-0.384,0,1
2.8097e+05,1.7112e+09,0,3,4.7014e+08,2231,17,0.62,43.601,13.482,102.75,2.47,275.45,-0.325,0,1
2.8175e+05,1.7114e+09,0,3,4.7014e+08,2231,17,0.62,43.601,13.482,102.79,2.588,275.88,-0.221,0,1
2.8251e+05,1.7115e+09,0,3,4.7014e+08,2231,17,0.62,43.601,13.482,102.84,2.638,275.91,-0.367,0,1
2.834e+05,1.7118e+09,0,3,4.7014e+08,2231,17,0.62,43.601,13.482,102.88,2.655,276.07,-0.367,0,1
2.8416e+05,1.712e+09,0,3,4.7015e+08,2231,16,0.64,43.601,13.482,102.91,2.835,275.94,-0.15,0,1
2.849e+05,1.7121e+09,0,3,4.7015e+08,2231,16,0.64,43.601,13.482,102.93,3.029,275.63,-0.209,0,1
2.8579e+05,1.7124e+09,0,3,4.7015e+08,2231,17,0.62,43.601,13.482,102.96,2.934,275.03,-0.192,0,1
2.8655e+05,1.7126e+09,0,3,4.7015e+08,2231,17,0.62,43.601,13.482,102.98,3.136,275.02,-0.142,0,1
2.8736e+05,1.7127e+09,0,3,4.7015e+08,2231,17,0.62,43.601,13.482,103.01,3.082,275.41,-0.073,0,1
2.8816e+05,1.7129e+09,0,3,4.7015e+08,2231,16,0.64,43.601,13.482,102.99,2.967,275.18,-0.115,0,1
2.8902e+05,1.7132e+09,0,3,4.7015e+08,2231,16,0.64,43.601,13.482,103.02,2.709,276.23,-0.08,0,1
2.8981e+05,1.7134e+09,0,3,4.7015e+08,2231,16,0.64,43.601,13.482,102.99,2.294,276.04,-0.068,0,1
2.906e+05,1.7136e+09,0,3,4.7015e+08,2231,16,0.64,43.601,13.482,102.98,1.742,276.98,0.069,0,1
2.9146e+05,1.7138e+09,0,3,4.7015e+08,2231,16,0.64,43.601,13.482,102.94,1.203,277.52,0.21,0,1
2.9222e+05,1.714e+09,0,3,4.7015e+08,2231,16,0.64,43.601,13.482,102.89,0.741,280.53,0.31,0,1
2.9303e+05,1.7142e+09,0,3,4.7015e+08,2231,16,0.64,43.601,13.482,102.78,0.573,279.64,0.42,0,1
2.9379e+05,1.7143e+09,0,3,4.7015e+08,2231,16,0.64,43.601,13.482,102.66,0.631,279.74,0.431,0,1
2.9459e+05,1.7145e+09,0,3,4.7015e+08,2231,16,0.64,43.601,13.482,102.58,0.45,281.93,0.363,0,1
2.9548e+05,1.7148e+09,0,3,4.7015e+08,2231,16,0.64,43.601,13.482,102.5,0.452,278.46,0.238,0,1
2.9625e+05,1.715e+09,0,3,4.7015e+08,2231,16,0.64,43.601,13.482,102.41,0.651,274.65,0.255,0,1
2.9701e+05,1.7152e+09,0,3,4.7015e+08,2231,16,0.64,43.601,13.482,102.35,0.455,277.67,0.292,0,1
2.9782e+05,1.7153e+09,0,3,4.7015e+08,2231,16,0.64,43.601,13.482,102.28,0.522,278.04,0.192,0,1
2.9862e+05,1.7155e+09,0,3,4.7015e+08,2231,17,0.62,43.601,13.482,102.23,0.544,284.04,0.26,0,1
2.9951e+05,1.7158e+09,0,3,4.7015e+08,2231,16,0.64,43.601,13.482,102.19,0.58,285.09,0.209,0,1
3.0031e+05,1.716e+09,0,3,4.7015e+08,2231,16,0.64,43.601,13.482,102.15,0.547,283.06,0.099,0,1
3.0107e+05,1.7162e+09,0,3,4.7015e+08,2231,16,0.64,43.601,13.482,102.1,0.583,283.64,0.11,0,1
3.0192e+05,1.7164e+09,0,3,4.7015e+08,2231,17,0.62,43.601,13.482,102.07,0.436,283.44,0.101,0,1
3.0272e+05,1.7166e+09,0,3,4.7015e+08,2231,16,0.64,43.601,13.482,102.05,0.509,285.36,0.066,0,1
3.0349e+05,1.7168e+09,0,3,4.7015e+08,2231,16,0.64,43.601,13.482,102.01,0.538,294.31,0.198,0,1
3.0437e+05,1.717e+09,0,3,4.7015e+08,2231,16,0.64,43.601,13.482,101.97,0.336,294.98,0.135,0,1
3.0514e+05,1.7172e+09,0,3,4.7015e+08,2231,17,0.62,43.601,13.482,101.91,0.297,313.02,0.229,0,1
3.0594e+05,1.7174e+09,0,3,4.7015e+08,2231,17,0.62,43.601,13.482,101.83,0.139,313.02,0.328,0,1
3.0673e+05,1.7176e+09,0,3,4.7015e+08,2231,17,0.62,43.601,13.482,101.75,0.115,313.02,0.301,0,1
3.0751e+05,1.7178e+09,0,3,4.7015e+08,2231,17,0.62,43.601,13.482,101.69,0.282,351.42,0.365,0,1
3.0832e+05,1.718e+09,0,3,4.7015e+08,2231,17,0.62,43.601,13.482,101.61,0.357,23.413,0.217,0,1
3.0908e+05,1.7181e+09,0,3,4.7015e+08,2231,17,0.62,43.601,13.482,101.56,0.654,34.209,0.168,0,1
3.0998e+05,1.7184e+09,0,3,4.7015e+08,2231,17,0.62,43.601,13.482,101.54,0.709,35.848,0.101,0,1
3.1078e+05,1.7186e+09,0,3,4.7015e+08,2231,17,0.62,43.601,13.482,101.5,0.82,33.367,0.086,0,1
3.1155e+05,1.7188e+09,0,3,4.7015e+08,2231,16,0.66,43.601,13.482,101.47,0.831,34.479,0.106,0,1
3.1235e+05,1.719e+09,0,3,4.7015e+08,2231,16,0.66,43.601,13.482,101.42,0.836,31.209,0.063,0,1
3.1303e+05,1.7192e+09,0,3,4.7015e+08,2231,16,0.66,43.601,13.482,101.38,0.918,29.793,0.061,0,1
3.1383e+05,1.7193e+09,0,3,4.7015e+08,2231,16,0.66,43.601,13.482,101.36,0.849,34.497,0.051,0,1
3.1465e+05,1.7196e+09,0,3,4.7015e+08,2231,16,0.66,43.601,13.482,101.34,0.861,40.801,0.055,0,1
3.1546e+05,1.7198e+09,0,3,4.7015e+08,2231,15,0.69,43.601,13.482,101.3,0.947,46.359,0.065,0,1
3.1626e+05,1.72e+09,0,3,4.7015e+08,2231,15,0.69,43.601,13.482,101.25,0.999,57.927,0.133,0,1
3.1705e+05,1.7202e+09,0,3,4.7015e+08,2231,16,0.64,43.601,13.482,101.24,1.196,72.103,0.029,0,1
3.1785e+05,1.7203e+09,0,3,4.7015e+08,2231,16,0.64,43.601,13.482,101.23,1.183,73.27,-0.062,0,1
3.1871e+05,1.7206e+09,0,3,4.7015e+08,2231,16,0.64,43.601,13.482,101.21,1.322,74.793,0.016,0,1
3.1951e+05,1.7208e+09,0,3,4.7015e+08,2231,16,0.64,43.601,13.482,101.22,1.307,75.461,-0.023,0,1
3.2031e+05,1.7209e+09,0,3,4.7015e+08,2231,16,0.64,43.601,13.482,101.21,1.209,76.568,-0.038,0,1
3.2117e+05,1.7212e+09,0,3,4.7015e+08,2231,16,0.64,43.601,13.482,101.22,1.243,74.997,-0.143,0,1
3.2194e+05,1.7214e+09,0,3,4.7015e+08,2231,16,0.64,43.601,13.482,101.2,1.182,70.659,-0.015,0,1
3.2273e+05,1.7216e+09,0,3,4.7015e+08,2231,16,0.64,43.601,13.482,101.19,1.089,70.881,-0.087,0,1
3.2353e+05,1.7217e+09,0,3,4.7016e+08,2231,16,0.64,43.601,13.482,101.18,1.101,70.017,0.054,0,1
3.2442e+05,1.722e+09,0,3,4.7016e+08,2231,16,0.64,43.601,13.482,101.17,0.963,70.109,-0.056,0,1
3.251e+05,1.7221e+09,0,3,4.7016e+08,2231,17,0.62,43.601,13.482,101.2,0.81,70.902,-0.121,0,1
3.2599e+05,1.7224e+09,0,3,4.7016e+08,2231,17,0.62,43.601,13.482,101.22,0.591,73.196,-0.148,0,1
3.2679e+05,1.7225e+09,0,3,4.7016e+08,2231,17,0.62,43.601,13.482,101.22,0.581,66.506,-0.057,0,1
3.2765e+05,1.7228e+09,0,3,4.7016e+08,2231,17,0.62,43.601,13.482,101.26,0.324,66.768,-0.117,0,1
3.2845e+05,1.723e+09,0,3,4.7016e+08,2231,17,0.62,43.601,13.482,101.31,0.47,78.481,-0.162,0,1
3.2921e+05,1.7231e+09,0,3,4.7016e+08,2231,16,0.64,43.601,13.482,101.33,0.449,89.67,-0.267,0,1
3.3006e+05,1.7234e+09,0,3,4.7016e+08,2231,16,0.64,43.601,13.482,101.34,0.529,94.424,-0.223,0,1
3.3085e+05,1.7235e+09,0,3,4.7016e+08,2231,17,0.62,43.601,13.482,101.4,0.651,104.9,-0.264,0,1
3.3175e+05,1.7238e+09,0,3,4.7016e+08,2231,17,0.62,43.601,13.482,101.43,0.686,108.41,-0.174,0,1
3.3255e+05,1.724e+09,0,3,4.7016e+08,2231,16,0.64,43.601,13.482,101.48,0.524,104.7,-0.246,0,1
3.3335e+05,1.7242e+09,0,3,4.7016e+08,2231,16,0.64,43.601,13.482,101.51,0.464,104.84,-0.297,0,1
3.3412e+05,1.7244e+09,0,3,4.7016e+08,2231,16,0.64,43.601,13.482,101.55,0.48,100.5,-0.194,0,1
3.3489e+05,1.7246e+09,0,3,4.7016e+08,2231,16,0.64,43.601,13.482,101.57,0.388,90.708,-0.165,0,1
3.3569e+05,1.7248e+09,0,3,4.7016e+08,2231,16,0.64,43.601,13.482,101.58,0.481,78.891,-0.114,0,1
3.365e+05,1.7249e+09,0,3,4.7016e+08,2231,16,0.64,43.601,13.482,101.6,0.464,71.529,-0.14,0,1
3.3738e+05,1.7252e+09,0,3,4.7016e+08,2231,16,0.64,43.601,13.482,101.58,0.544,71.872,0.022,0,1
3.3815e+05,1.7254e+09,0,3,4.7016e+08,2231,16,0.64,43.601,13.482,101.54,0.453,65.826,0.134,0,1
3.3896e+05,1.7255e+09,0,3,4.7016e+08,2231,16,0.64,43.601,13.482,101.54,0.561,59.596,0.025,0,1
3.3981e+05,1.7258e+09,0,3,4.7016e+08,2231,16,0.64,43.601,13.482,101.52,0.487,55.48,0.004,0,1
3.4058e+05,1.726e+09,0,3,4.7016e+08,2231,16,0.64,43.601,13.482,101.5,0.423,57.27,0.013,0,1
3.4137e+05,1.7262e+09,0,3,4.7016e+08,2231,16,0.64,43.601,13.482,101.48,0.467,45.886,0.061,0,1
3.4218e+05,1.7263e+09,0,3,4.7016e+08,2231,16,0.64,43.601,13.482,101.45,0.484,42.041,0.054,0,1
3.4298e+05,1.7266e+09,0,3,4.7016e+08,2231,16,0.64,43.601,13.482,101.43,0.419,43.628,-0.083,0,1
3.4387e+05,1.7268e+09,0,3,4.7016e+08,2231,16,0.64,43.601,13.482,101.41,0.502,41.52,0.078,0,1
3.4467e+05,1.727e+09,0,3,4.7016e+08,2231,16,0.64,43.601,13.482,101.41,0.534,37.614,-0.055,0,1
3.4545e+05,1.7272e+09,0,3,4.7016e+08,2231,16,0.64,43.601,13.482,101.42,0.489,37.475,-0.049,0,1
3.4624e+05,1.7273e+09,0,3,4.7016e+08,2231,16,0.64,43.601,13.482,101.41,0.452,36.705,-0.084,0,1
3.47e+05,1.7275e+09,0,3,4.7016e+08,2231,16,0.64,43.601,13.482,101.4,0.524,50.884,-0.107,0,1
3.4785e+05,1.7278e+09,0,3,4.7016e+08,2231,16,0.64,43.601,13.482,101.42,0.521,58.182,-0.043,0,1
3.4862e+05,1.728e+09,0,3,4.7016e+08,2231,16,0.64,43.601,13.482,101.38,0.417,62.654,0.022,0,1
3.4942e+05,1.7281e+09,0,3,4.7016e+08,2231,16,0.64,43.601,13.482,101.39,0.412,64.198,0.018,0,1
3.5031e+05,1.7284e+09,0,3,4.7016e+08,2231,16,0.64,43.601,13.482,101.39,0.329,73.707,-0.073,0,1
3.5108e+05,1.7286e+09,0,3,4.7016e+08,2231,17,0.62,43.601,13.482,101.41,0.224,68.355,-0.118,0,1
3.5184e+05,1.7288e+09,0,3,4.7016e+08,2231,17,0.62,43.601,13.482,101.43,0.171,68.355,-0.097,0,1
3.5264e+05,1.7289e+09,0,3,4.7016e+08,2231,18,0.6,43.601,13.482,101.45,0.259,65.606,-0.097,0,1
3.5345e+05,1.7292e+09,0,3,4.7016e+08,2231,18,0.6,43.601,13.482,101.48,0.282,58.083,-0.073,0,1
3.543e+05,1.7294e+09,0,3,4.7016e+08,2231,17,0.62,43.601,13.482,101.5,0.414,62.578,-0.105,0,1
3.5507e+05,1.7296e+09,0,3,4.7016e+08,2231,17,0.62,43.601,13.482,101.54,0.342,58.204,-0.158,0,1
3.5584e+05,1.7298e+09,0,3,4.7016e+08,2231,18,0.6,43.601,13.482,101.57,0.421,61.138,-0.142,0,1
3.5665e+05,1.7299e+09,0,3,4.7016e+08,2231,17,0.62,43.601,13.482,101.6,0.453,61.497,0.027,0,1
3.5745e+05,1.7301e+09,0,3,4.7016e+08,2231,17,0.62,43.601,13.482,101.6,0.517,55.625,-0.026,0,1
3.5824e+05,1.7303e+09,0,3,4.7016e+08,2231,16,0.64,43.601,13.482,101.6,0.569,56.851,-0.001,0,1
3.591e+05,1.7306e+09,0,3,4.7016e+08,2231,16,0.64,43.601,13.482,101.6,0.706,51.87,-0.016,0,1
3.599e+05,1.7307e+09,0,3,4.7016e+08,2231,16,0.64,43.601,13.482,101.58,0.736,51.309,0,0,1
3.6072e+05,1.731e+09,0,3,4.7016e+08,2231,17,0.62,43.601,13.482,101.57,0.511,56.303,0.045,0,1
3.6146e+05,1.7312e+09,0,3,4.7016e+08,2231,17,0.62,43.601,13.482,101.58,0.39,57.617,0.001,0,1
3.6226e+05,1.7313e+09,0,3,4.7016e+08,2231,16,0.64,43.601,13.482,101.59,0.381,39.902,-0.083,0,1
3.6306e+05,1.7315e+09,0,3,4.7016e+08,2231,16,0.64,43.601,13.482,101.59,0.261,42.934,-0.119,0,1
3.6382e+05,1.7317e+09,0,3,4.7016e+08,2231,16,0.64,43.601,13.482,101.58,0.205,24.342,-0.065,0,1
3.6471e+05,1.732e+09,0,3,4.7017e+08,2231,16,0.64,43.601,13.482,101.59,0.18,23.644,-0.013,0,1
3.6548e+05,1.7321e+09,0,3,4.7017e+08,2231,16,0.64,43.601,13.482,101.59,0.125,23.644,-0.095,0,1
3.6633e+05,1.7324e+09,0,3,4.7017e+08,2231,16,0.64,43.601,13.482,101.6,0.255,30.164,-0.056,0,1
3.6706e+05,1.7326e+09,0,3,4.7017e+08,2231,16,0.64,43.601,13.482,101.6,0.257,24.624,-0.064,0,1
3.6795e+05,1.7328e+09,0,3,4.7017e+08,2231,17,0.62,43.601,13.482,101.63,0.299,29.209,-0.034,0,1
3.6866e+05,1.7329e+09,0,3,4.7017e+08,2231,16,0.64,43.601,13.482,101.62,0.183,31.139,-0.065,0,1
3.6955e+05,1.7332e+09,0,3,4.7017e+08,2231,17,0.62,43.601,13.482,101.6,0.145,31.139,0.241,0,1
3.7031e+05,1.7334e+09,0,3,4.7017e+08,2231,18,0.6,43.601,13.482,101.51,0.197,21.893,0.738,0,1
3.711e+05,1.7335e+09,0,3,4.7017e+08,2231,17,0.62,43.601,13.482,101.33,0.088,21.893,0.976,0,1
3.7188e+05,1.7337e+09,0,3,4.7017e+08,2231,17,0.62,43.601,13.482,101.12,0.06,21.893,1.131,0,1
3.7276e+05,1.734e+09,0,3,4.7017e+08,2231,18,0.6,43.601,13.482,100.9,0.122,21.893,1.165,0,1
3.7351e+05,1.7341e+09,0,3,4.7017e+08,2231,17,0.62,43.601,13.482,100.66,0.254,25.526,1.203,0,1
3.743e+05,1.7343e+09,0,3,4.7017e+08,2231,17,0.62,43.601,13.482,100.41,0.064,25.526,1.109,0,1
3.7519e+05,1.7346e+09,0,3,4.7017e+08,2231,17,0.62,43.601,13.482,100.14,0.287,348.33,1.349,0,1
3.7599e+05,1.7348e+09,0,3,4.7017e+08,2231,17,0.62,43.601,13.482,99.86,0.143,348.33,1.315,0,1
3.7676e+05,1.7349e+09,0,3,4.7017e+08,2231,17,0.62,43.601,13.482,99.59,0.108,348.33,1.237,0,1
3.7756e+05,1.7351e+09,0,3,4.7017e+08,2231,17,0.62,43.601,13.482,99.34,0.26,326.25,1.214,0,1
3.7842e+05,1.7354e+09,0,3,4.7017e+08,2231,18,0.6,43.601,13.482,99.06,0.182,311.85,1.339,0,1
3.7922e+05,1.7356e+09,0,3,4.7017e+08,2231,18,0.6,43.601,13.482,98.87,0.239,238.21,1.119,0,1
3.8002e+05,1.7357e+09,0,3,4.7017e+08,2231,18,0.6,43.601,13.482,98.63,0.254,234.31,1.252,0,1
3.8091e+05,1.736e+09,0,3,4.7017e+08,2231,18,0.6,43.601,13.482,98.35,0.233,278.25,1.366,0,1
3.8168e+05,1.7362e+09,0,3,4.7017e+08,2231,17,0.62,43.601,13.482,98.14,0.264,243.52,1.182,0,1
3.8247e+05,1.7364e+09,0,3,4.7017e+08,2231,17,0.62,43.601,13.482,97.88,0.177,205.39,1.221,0,1
3.8314e+05,1.7365e+09,0,3,4.7017e+08,2231,17,0.62,43.601,13.482,97.55,0.215,132.27,1.493,0,1
3.8403e+05,1.7368e+09,0,3,4.7017e+08,2231,16,0.64,43.601,13.482,97.31,0.247,132.31,1.165,0,1
3.8483e+05,1.737e+09,0,3,4.7017e+08,2231,16,0.64,43.601,13.482,97.11,0.51,112.79,0.79,0,1
3.856e+05,1.7371e+09,0,3,4.7017e+08,2231,16,0.64,43.601,13.482,96.84,0.259,118.58,1.214,0,1
3.8645e+05,1.7374e+09,0,3,4.7017e+08,2231,16,0.64,43.601,13.482,96.62,0.462,131.8,1.045,0,1
3.8722e+05,1.7376e+09,0,3,4.7017e+08,2231,16,0.64,43.601,13.482,96.38,0.149,131.8,1.22,0,1
3.8795e+05,1.7377e+09,0,3,4.7017e+08,2231,16,0.64,43.601,13.482,96.16,0.443,140.65,0.965,0,1
3.8881e+05,1.738e+09,0,3,4.7017e+08,2231,16,0.64,43.601,13.482,95.95,0.025,140.65,1.052,0,1
3.8961e+05,1.7382e+09,0,3,4.7017e+08,2231,17,0.62,43.601,13.482,95.84,0.16,140.65,0.805,0,1
3.9049e+05,1.7384e+09,0,3,4.7017e+08,2231,17,0.62,43.601,13.482,95.73,0.065,140.65,0.56,0,1
3.9129e+05,1.7386e+09,0,3,4.7017e+08,2231,17,0.62,43.601,13.482,95.66,0.218,140.65,0.367,0,1
3.9214e+05,1.7388e+09,0,3,4.7017e+08,2231,17,0.62,43.601,13.482,95.62,0.17,140.65,0.401,0,1
3.9283e+05,1.7389e+09,0,3,4.7017e+08,2231,17,0.62,43.601,13.482,95.54,0.041,140.65,0.441,0,1
3.9368e+05,1.7392e+09,0,3,4.7017e+08,2231,17,0.62,43.601,13.482,95.49,0.046,140.65,0.311,0,1
3.9448e+05,1.7394e+09,0,3,4.7017e+08,2231,17,0.62,43.601,13.482,95.46,0.096,140.65,0.293,0,1
3.9529e+05,1.7396e+09,0,3,4.7017e+08,2231,17,0.62,43.601,13.482,95.39,0.135,140.65,0.402,0,1
3.9609e+05,1.7397e+09,0,3,4.7017e+08,2231,17,0.62,43.601,13.482,95.32,0.09,140.65,0.413,0,1
3.9698e+05,1.74e+09,0,3,4.7017e+08,2231,17,0.62,43.601,13.482,95.28,0.116,140.65,0.26,0,1
3.9778e+05,1.7402e+09,0,3,4.7017e+08,2231,17,0.62,43.601,13.482,95.22,0.052,140.65,0.414,0,1
3.9855e+05,1.7404e+09,0,3,4.7017e+08,2231,17,0.62,43.601,13.482,95.16,0.054,140.65,0.401,0,1
3.9936e+05,1.7406e+09,0,3,4.7017e+08,2231,16,0.64,43.601,13.482,95.07,0.16,140.65,0.388,0,1
4.0024e+05,1.7408e+09,0,3,4.7017e+08,2231,16,0.64,43.601,13.482,95.02,0.232,112.91,0.334,0,1
4.0103e+05,1.741e+09,0,3,4.7017e+08,2231,16,0.64,43.601,13.482,94.93,0.187,112.91,0.26,0,1
4.018e+05,1.7412e+09,0,3,4.7017e+08,2231,16,0.64,43.601,13.482,94.88,0.207,112.91,0.194,0,1
4.026e+05,1.7413e+09,0,3,4.7017e+08,2231,16,0.64,43.601,13.482,94.86,0.21,112.91,0.066,0,1
4.0345e+05,1.7416e+09,0,3,4.7017e+08,2231,16,0.64,43.601,13.482,94.85,0.144,112.91,0.082,0,1
4.0425e+05,1.7417e+09,0,3,4.7018e+08,2231,16,0.64,43.601,13.482,94.83,0.119,112.91,0.023,0,1
4.0502e+05,1.7419e+09,0,3,4.7018e+08,2231,16,0.64,43.601,13.482,94.83,0.193,112.91,0.002,0,1
4.0591e+05,1.7422e+09,0,3,4.7018e+08,2231,16,0.64,43.601,13.482,94.83,0.234,180.48,0.028,0,1
4.067e+05,1.7424e+09,0,3,4.7018e+08,2231,16,0.64,43.601,13.482,94.83,0.373,252.93,-0.098,0,1
4.0744e+05,1.7425e+09,0,3,4.7018e+08,2231,16,0.64,43.601,13.482,94.84,0.284,260.2,-0.081,0,1
4.0832e+05,1.7428e+09,0,3,4.7018e+08,2231,16,0.64,43.601,13.482,94.84,0.254,273.12,0.031,0,1
4.0912e+05,1.743e+09,0,3,4.7018e+08,2231,16,0.64,43.601,13.482,94.83,0.311,272.34,-0.096,0,1
4.0993e+05,1.7432e+09,0,3,4.7018e+08,2231,16,0.64,43.601,13.482,94.82,0.272,274.06,-0.003,0,1
4.1073e+05,1.7433e+09,0,3,4.7018e+08,2231,16,0.64,43.601,13.482,94.81,0.232,279.66,-0.039,0,1
4.1159e+05,1.7436e+09,0,3,4.7018e+08,2231,16,0.64,43.601,13.482,94.78,0.217,279.66,0.026,0,1
4.1239e+05,1.7438e+09,0,3,4.7018e+08,2231,16,0.64,43.601,13.482,94.75,0.187,279.66,0.039,0,1
4.1306e+05,1.7439e+09,0,3,4.7018e+08,2231,16,0.64,43.601,13.482,94.73,0.172,310.21,0.013,0,1
4.1396e+05,1.7442e+09,0,3,4.7018e+08,2231,17,0.62,43.601,13.482,94.73,0.166,328.21,0.024,0,1
4.1472e+05,1.7443e+09,0,3,4.7018e+08,2231,17,0.62,43.601,13.482,94.73,0.235,346.77,-0.034,0,1
4.1561e+05,1.7446e+09,0,3,4.7018e+08,2231,17,0.62,43.601,13.482,94.73,0.296,359.17,0.073,0,1
4.1637e+05,1.7448e+09,0,3,4.7018e+08,2231,17,0.62,43.601,13.482,94.71,0.27,358.54,0.064,0,1
4.1717e+05,1.7449e+09,0,3,4.7018e+08,2231,17,0.62,43.601,13.482,94.7,0.311,358.69,0.026,0,1
4.1806e+05,1.7452e+09,0,3,4.7018e+08,2231,17,0.62,43.601,13.482,94.69,0.288,4.0607,0.015,0,1
4.1883e+05,1.7454e+09,0,3,4.7018e+08,2231,17,0.62,43.601,13.482,94.69,0.347,2.5242,0.013,0,1
4.1963e+05,1.7456e+09,0,3,4.7018e+08,2231,17,0.62,43.601,13.482,94.68,0.23,2.7094,0.022,0,1
4.2049e+05,1.7458e+09,0,3,4.7018e+08,2231,16,0.64,43.601,13.482,94.66,0.243,3.8199,0.05,0,1
4.2126e+05,1.746e+09,0,3,4.7018e+08,2231,16,0.64,43.601,13.482,94.65,0.246,0.49599,-0.008,0,1
4.2203e+05,1.7462e+09,0,3,4.7018e+08,2231,16,0.64,43.601,13.482,94.63,0.265,5.9271,0.106,0,1
4.2282e+05,1.7463e+09,0,3,4.7018e+08,2231,16,0.64,43.601,13.482,94.6,0.261,357.64,0.061,0,1
4.2368e+05,1.7466e+09,0,3,4.7018e+08,2231,16,0.64,43.601,13.482,94.58,0.242,357.79,0.099,0,1
4.2448e+05,1.7468e+09,0,3,4.7018e+08,2231,16,0.65,43.601,13.482,94.55,0.243,359.19,0.172,0,1
4.2528e+05,1.747e+09,0,3,4.7018e+08,2231,17,0.62,43.601,13.482,94.53,0.156,359.19,0.173,0,1
4.2606e+05,1.7472e+09,0,3,4.7018e+08,2231,17,0.62,43.601,13.482,94.5,0.21,9.9917,0.201,0,1
4.2686e+05,1.7474e+09,0,3,4.7018e+08,2231,17,0.62,43.601,13.482,94.4,0.198,9.9917,0.523,0,1
4.2763e+05,1.7475e+09,0,3,4.7018e+08,2231,17,0.62,43.601,13.482,94.34,0.296,43.666,0.307,0,1
4.2842e+05,1.7477e+09,0,3,4.7018e+08,2231,17,0.62,43.601,13.482,94.32,0.188,43.666,0.382,0,1
4.2919e+05,1.7479e+09,0,3,4.7018e+08,2231,17,0.62,43.601,13.482,94.23,0.295,66.011,0.378,0,1
4.3008e+05,1.7482e+09,0,3,4.7018e+08,2231,17,0.62,43.601,13.482,94.2,0.135,66.011,0.298,0,1
4.3087e+05,1.7484e+09,0,3,4.7018e+08,2231,17,0.62,43.601,13.482,94.17,0.135,66.011,0.126,0,1
4.3168e+05,1.7485e+09,0,3,4.7018e+08,2231,17,0.62,43.601,13.482,94.17,0.132,66.011,0.058,0,1
4.3256e+05,1.7488e+09,0,3,4.7018e+08,2231,16,0.64,43.601,13.482,94.19,0.087,66.011,-0.064,0,1
4.333e+05,1.749e+09,0,3,4.7018e+08,2231,16,0.64,43.601,13.482,94.19,0.153,66.011,-0.027,0,1
4.341e+05,1.7491e+09,0,3,4.7018e+08,2231,16,0.64,43.601,13.482,94.17,0.142,66.011,0.149,0,1
4.3489e+05,1.7493e+09,0,3,4.7018e+08,2231,16,0.64,43.601,13.482,94.14,0.203,66.011,0.079,0,1
4.3577e+05,1.7496e+09,0,3,4.7018e+08,2231,16,0.64,43.601,13.482,94.09,0.169,66.011,0.299,0,1
4.3663e+05,1.7498e+09,0,3,4.7018e+08,2231,17,0.62,43.601,13.482,94.08,0.333,60.925,-0.137,0,1
4.3743e+05,1.75e+09,0,3,4.7018e+08,2231,17,0.62,43.601,13.482,94.09,0.222,60.925,0.035,0,1
4.3824e+05,1.7502e+09,0,3,4.7018e+08,2231,17,0.62,43.601,13.482,94.1,0.124,60.925,0.044,0,1
4.3904e+05,1.7504e+09,0,3,4.7018e+08,2231,17,0.62,43.601,13.482,94.09,0.073,60.925,-0.108,0,1
4.3984e+05,1.7506e+09,0,3,4.7018e+08,2231,17,0.62,43.601,13.482,94.1,0.08,60.925,-0.007,0,1
4.406e+05,1.7508e+09,0,3,4.7018e+08,2231,17,0.62,43.601,13.482,94.09,0.003,60.925,-0.09,0,1
4.414e+05,1.7509e+09,0,3,4.7018e+08,2231,17,0.62,43.601,13.482,94.09,0.031,60.925,0.01,0,1
4.4226e+05,1.7512e+09,0,3,4.7018e+08,2231,17,0.62,43.601,13.482,94.08,0.027,60.925,0.012,0,1
4.4306e+05,1.7513e+09,0,3,4.7018e+08,2231,17,0.62,43.601,13.482,94.05,0.019,60.925,0.029,0,1
4.4394e+05,1.7516e+09,0,3,4.7018e+08,2231,17,0.62,43.601,13.482,94.04,0.019,60.925,0.054,0,1
4.4476e+05,1.7518e+09,0,3,4.7018e+08,2231,16,0.64,43.601,13.482,94.02,0.045,60.925,0.019,0,1
4.4556e+05,1.752e+09,0,3,4.7019e+08,2231,16,0.64,43.601,13.482,93.98,0.023,60.925,-0.004,0,1
4.4637e+05,1.7522e+09,0,3,4.7019e+08,2231,16,0.64,43.601,13.482,93.95,0.047,60.925,0.022,0,1
4.4726e+05,1.7524e+09,0,3,4.7019e+08,2231,16,0.64,43.601,13.482,93.94,0.02,60.925,-0.019,0,1
4.4802e+05,1.7526e+09,0,3,4.7019e+08,2231,16,0.64,43.601,13.482,93.94,0.067,60.925,-0.064,0,1
4.4882e+05,1.7528e+09,0,3,4.7019e+08,2231,16,0.64,43.601,13.482,93.9,0.017,60.925,0.007,0,1
4.4971e+05,1.753e+09,0,3,4.7019e+08,2231,16,0.64,43.601,13.482,93.87,0.075,60.925,-0.012,0,1
4.5045e+05,1.7532e+09,0,3,4.7019e+08,2231,16,0.64,43.601,13.482,93.87,0.045,60.925,-0.033,0,1
4.5125e+05,1.7533e+09,0,3,4.7019e+08,2231,16,0.64,43.601,13.482,93.86,0.081,60.925,-0.003,0,1
4.5214e+05,1.7536e+09,0,3,4.7019e+08,2231,16,0.64,43.601,13.482,93.84,0.04,60.925,-0.074,0,1
4.5303e+05,1.7538e+09,0,3,4.7019e+08,2231,16,0.64,43.601,13.482,93.81,0.052,60.925,-0.075,0,1
4.5383e+05,1.754e+09,0,3,4.7019e+08,2231,16,0.64,43.601,13.482,93.79,0.019,60.925,-0.024,0,1
4.5463e+05,1.7541e+09,0,3,4.7019e+08,2231,16,0.64,43.601,13.482,93.77,0.027,60.925,-0.042,0,1
4.5549e+05,1.7544e+09,0,3,4.7019e+08,2231,16,0.64,43.601,13.482,93.74,0.041,60.925,-0.016,0,1
4.5625e+05,1.7545e+09,0,3,4.7019e+08,2231,16,0.64,43.601,13.482,93.73,0.029,60.925,0.033,0,1
4.571e+05,1.7548e+09,0,3,4.7019e+08,2231,16,0.64,43.601,13.482,93.7,0.031,60.925,-0.079,0,1
4.5786e+05,1.7549e+09,0,3,4.7019e+08,2231,16,0.64,43.601,13.482,93.7,0.036,60.925,0.023,0,1
4.5875e+05,1.7551e+09,0,3,4.7019e+08,2231,16,0.64,43.601,13.482,93.69,0.109,60.925,-0.079,0,1
4.5961e+05,1.7554e+09,0,3,4.7019e+08,2231,16,0.64,43.601,13.482,93.67,0.046,60.925,-0.143,0,1
4.6038e+05,1.7555e+09,0,3,4.7019e+08,2231,16,0.64,43.601,13.482,93.64,0.075,60.925,0.143,0,1
4.6126e+05,1.7558e+09,0,3,4.7019e+08,2231,16,0.64,43.601,13.482,93.61,0.022,60.925,-0.003,0,1
4.6204e+05,1.7559e+09,0,3,4.7019e+08,2231,16,0.64,43.601,13.482,93.59,0.03,60.925,-0.001,0,1
4.6283e+05,1.7561e+09,0,3,4.7019e+08,2231,16,0.64,43.601,13.482,93.56,0.065,60.925,-0.026,0,1
4.6378e+05,1.7564e+09,0,3,4.7019e+08,2231,16,0.64,43.601,13.482,93.53,0.016,60.925,-0.046,0,1
4.6455e+05,1.7566e+09,0,3,4.7019e+08,2231,16,0.64,43.601,13.482,93.52,0.036,60.925,-0.005,0,1
4.6541e+05,1.7568e+09,0,3,4.7019e+08,2231,16,0.64,43.601,13.482,93.51,0.05,60.925,-0.001,0,1
4.6612e+05,1.7569e+09,0,3,4.7019e+08,2231,16,0.64,43.601,13.482,93.5,0.012,60.925,-0.041,0,1
4.6701e+05,1.7572e+09,0,3,4.7019e+08,2231,16,0.64,43.601,13.482,93.48,0.043,60.925,-0.001,0,1
4.6781e+05,1.7573e+09,0,3,4.7019e+08,2231,16,0.64,43.601,13.482,93.46,0.041,60.925,-0.004,0,1
4.6862e+05,1.7575e+09,0,3,4.7019e+08,2231,16,0.64,43.601,13.482,93.44,0.019,60.925,-0.05,0,1
4.6947e+05,1.7577e+09,0,3,4.7019e+08,2231,16,0.64,43.601,13.482,93.42,0.042,60.925,-0.021,0,1
4.7036e+05,1.758e+09,0,3,4.7019e+08,2231,16,0.64,43.601,13.482,93.39,0.054,60.925,0.007,0,1
4.7116e+05,1.7582e+09,0,3,4.7019e+08,2231,15,0.69,43.601,13.482,93.37,0.05,60.925,0.029,0,1
4.7202e+05,1.7584e+09,0,3,4.7019e+08,2231,15,0.69,43.601,13.482,93.36,0.049,60.925,0.03,0,1
4.7282e+05,1.7586e+09,0,3,4.7019e+08,2231,15,0.69,43.601,13.482,93.36,0.024,60.925,-0.027,0,1
4.7366e+05,1.7588e+09,0,3,4.7019e+08,2231,15,0.69,43.601,13.482,93.37,0.011,60.925,-0.031,0,1
4.7442e+05,1.759e+09,0,3,4.7019e+08,2231,15,0.69,43.601,13.482,93.34,0.033,60.925,-0.032,0,1
4.7523e+05,1.7591e+09,0,3,4.7019e+08,2231,15,0.69,43.601,13.482,93.34,0.047,60.925,0.01,0,1
4.7612e+05,1.7594e+09,0,3,4.7019e+08,2231,15,0.69,43.601,13.482,93.34,0.04,60.925,-0.099,0,1
4.7688e+05,1.7595e+09,0,3,4.7019e+08,2231,15,0.69,43.601,13.482,93.34,0.038,60.925,-0.002,0,1
4.7773e+05,1.7598e+09,0,3,4.7019e+08,2231,15,0.69,43.601,13.482,93.34,0.013,60.925,0.001,0,1
4.7853e+05,1.7599e+09,0,3,4.7019e+08,2231,15,0.69,43.601,13.482,93.33,0.056,60.925,-0.02,0,1
4.7942e+05,1.7602e+09,0,3,4.7019e+08,2231,15,0.69,43.601,13.482,93.35,0.043,60.925,-0.002,0,1
4.8023e+05,1.7604e+09,0,3,4.7019e+08,2231,15,0.69,43.601,13.482,93.39,0.106,60.925,-0.155,0,1
4.8104e+05,1.7605e+09,0,3,4.7019e+08,2231,15,0.69,43.601,13.482,93.39,0.017,60.925,-0.073,0,1
4.8193e+05,1.7608e+09,0,3,4.7019e+08,2231,15,0.69,43.601,13.482,93.41,0.027,60.925,-0.055,0,1
4.8269e+05,1.7609e+09,0,3,4.7019e+08,2231,15,0.69,43.601,13.482,93.41,0.019,60.925,-0.079,0,1
4.8355e+05,1.7612e+09,0,3,4.7019e+08,2231,15,0.69,43.601,13.482,93.42,0.017,60.925,-0.009,0,1
4.8434e+05,1.7613e+09,0,3,4.7019e+08,2231,15,0.69,43.601,13.482,93.44,0.04,60.925,0.003,0,1
4.8511e+05,1.7615e+09,0,3,4.7019e+08,2231,15,0.69,43.601,13.482,93.46,0.033,60.925,0.026,0,1
4.86e+05,1.7618e+09,0,3,4.702e+08,2231,16,0.65,43.601,13.482,93.49,0.018,60.925,-0.025,0,1
4.8689e+05,1.762e+09,0,3,4.702e+08,2231,16,0.65,43.601,13.482,93.52,0.023,60.925,-0.073,0,1
4.877e+05,1.7622e+09,0,3,4.702e+08,2231,16,0.65,43.601,13.482,93.56,0.012,60.925,-0.036,0,1
4.886e+05,1.7624e+09,0,3,4.702e+08,2231,16,0.65,43.601,13.482,93.59,0.013,60.925,-0.008,0,1
4.8938e+05,1.7626e+09,0,3,4.702e+08,2231,16,0.65,43.601,13.482,93.61,0.049,60.925,-0.006,0,1
4.9024e+05,1.7628e+09,0,3,4.702e+08,2231,16,0.65,43.601,13.482,93.64,0.015,60.925,0.028,0,1
4.9104e+05,1.763e+09,0,3,4.702e+08,2231,16,0.65,43.601,13.482,93.66,0.026,60.925,0.01,0,1
4.9185e+05,1.7631e+09,0,3,4.702e+08,2231,16,0.65,43.601,13.482,93.7,0.022,60.925,-0.01,0,1
4.9272e+05,1.7634e+09,0,3,4.702e+08,2231,16,0.65,43.601,13.482,93.73,0.026,60.925,-0.017,0,1
4.9362e+05,1.7636e+09,0,3,4.702e+08,2231,16,0.65,43.601,13.482,93.75,0.054,60.925,-0.025,0,1
4.944e+05,1.7638e+09,0,3,4.702e+08,2231,16,0.65,43.601,13.482,93.77,0.024,60.925,-0.042,0,1
4.953e+05,1.764e+09,0,3,4.702e+08,2231,16,0.65,43.601,13.482,93.81,0.068,60.925,0.018,0,1
4.9607e+05,1.7642e+09,0,3,4.702e+08,2231,16,0.65,43.601,13.482,93.85,0.063,60.925,0.004,0,1
4.9688e+05,1.7643e+09,0,3,4.702e+08,2231,16,0.65,43.601,13.482,93.84,0.013,60.925,-0.075,0,1
4.9778e+05,1.7645e+09,0,3,4.702e+08,2231,16,0.65,43.601,13.482,93.86,0.018,60.925,0.084,0,1
4.9864e+05,1.7648e+09,0,3,4.702e+08,2231,16,0.65,43.601,13.482,93.89,0.043,60.925,-0.051,0,1
4.9941e+05,1.7649e+09,0,3,4.702e+08,2231,16,0.65,43.601,13.482,93.91,0.079,60.925,0.007,0,1
5.0031e+05,1.7652e+09,0,3,4.702e+08,2231,16,0.65,43.601,13.482,93.92,0.077,60.925,-0.058,0,1
5.0121e+05,1.7654e+09,0,3,4.702e+08,2231,16,0.65,43.601,13.482,93.93,0.113,60.925,0.111,0,1
5.0198e+05,1.7656e+09,0,3,4.702e+08,2231,16,0.65,43.601,13.482,93.94,0.081,60.925,-0.097,0,1
5.0285e+05,1.7658e+09,0,3,4.702e+08,2231,16,0.65,43.601,13.482,93.98,0.034,60.925,0.013,0,1
5.0366e+05,1.766e+09,0,3,4.702e+08,2231,15,0.69,43.601,13.482,93.99,0.081,60.925,-0.137,0,1
5.0453e+05,1.7662e+09,0,3,4.702e+08,2231,15,0.69,43.601,13.482,94,0.241,60.925,-0.064,0,1
5.0543e+05,1.7664e+09,0,3,4.702e+08,2231,15,0.69,43.601,13.482,94.01,0.078,60.925,-0.146,0,1
5.062e+05,1.7666e+09,0,3,4.702e+08,2231,15,0.69,43.601,13.482,94.03,0.134,60.925,-0.054,0,1
5.0709e+05,1.7668e+09,0,3,4.702e+08,2231,15,0.69,43.601,13.482,94.06,0.099,60.925,-0.09,0,1
5.0787e+05,1.767e+09,0,3,4.702e+08,2231,15,0.69,43.601,13.482,94.06,0.17,60.925,-0.114,0,1
5.0877e+05,1.7672e+09,0,3,4.702e+08,2231,16,0.66,43.601,13.482,94.07,0.197,60.925,-0.067,0,1
5.0953e+05,1.7674e+09,0,3,4.702e+08,2231,16,0.66,43.601,13.482,94.07,0.145,60.925,-0.151,0,1
5.1034e+05,1.7676e+09,0,3,4.702e+08,2231,16,0.66,43.601,13.482,94.09,0.062,60.925,-0.165,0,1
5.1123e+05,1.7678e+09,0,3,4.702e+08,2231,16,0.66,43.601,13.482,94.07,0.143,60.925,0.035,0,1
5.12e+05,1.768e+09,0,3,4.702e+08,2231,16,0.65,43.601,13.482,94.05,0.134,60.925,-0.01,0,1
5.1289e+05,1.7682e+09,0,3,4.702e+08,2231,17,0.62,43.601,13.482,94.14,0.05,60.925,-0.037,0,1
5.1365e+05,1.7683e+09,0,3,4.702e+08,2231,17,0.62,43.601,13.482,94.17,0.121,60.925,-0.082,0,1
5.145e+05,1.7686e+09,0,3,4.702e+08,2231,17,0.62,43.601,13.482,94.14,0.083,60.925,-0.058,0,1
5.1539e+05,1.7688e+09,0,3,4.702e+08,2231,17,0.62,43.601,13.482,94.15,0.068,60.925,-0.056,0,1
5.1625e+05,1.769e+09,0,3,4.702e+08,2231,17,0.62,43.601,13.482,94.18,0.211,27.489,-0.175,0,1
5.1701e+05,1.7692e+09,0,3,4.702e+08,2231,17,0.62,43.601,13.482,94.25,0.238,112.86,-0.831,0,1
5.179e+05,1.7694e+09,0,3,4.702e+08,2231,17,0.62,43.601,13.482,94.59,0.638,196.43,-1.845,0,1
5.1866e+05,1.7695e+09,0,3,4.702e+08,2231,18,0.6,43.601,13.482,95.05,0.655,192.68,-1.832,0,1
5.1955e+05,1.7698e+09,0,3,4.702e+08,2231,17,0.62,43.601,13.482,95.33,0.553,189.94,-0.911,0,1
5.2032e+05,1.7699e+09,0,3,4.702e+08,2231,17,0.62,43.601,13.482,95.39,0.902,195.72,-0.059,0,1
5.2121e+05,1.7702e+09,0,3,4.702e+08,2231,17,0.62,43.601,13.482,95.41,0.879,199.29,-0.11,0,1
5.2198e+05,1.7703e+09,0,3,4.702e+08,2231,16,0.64,43.601,13.482,95.48,0.647,204.01,-0.168,0,1
5.2286e+05,1.7706e+09,0,3,4.702e+08,2231,16,0.64,43.601,13.482,95.49,0.67,192.51,0.039,0,1
5.2375e+05,1.7708e+09,0,3,4.702e+08,2231,16,0.64,43.601,13.482,95.46,0.792,204.48,0.228,0,1
5.2451e+05,1.771e+09,0,3,4.702e+08,2231,16,0.64,43.601,13.482,95.47,1.066,211.1,-0.187,0,1
5.2531e+05,1.7711e+09,0,3,4.702e+08,2231,15,0.68,43.601,13.482,95.48,0.884,214.26,-0.091,0,1
5.2613e+05,1.7713e+09,0,3,4.702e+08,2231,16,0.64,43.601,13.482,95.51,1.175,222.16,-0.076,0,1
5.2699e+05,1.7716e+09,0,3,4.702e+08,2231,14,0.74,43.601,13.482,95.64,0.835,222.88,-0.232,0,1
5.2787e+05,1.7718e+09,0,3,4.702e+08,2231,14,0.74,43.601,13.482,95.67,0.769,212.28,-0.101,0,1
5.2867e+05,1.772e+09,0,3,4.7021e+08,2231,15,0.69,43.601,13.482,95.63,1.031,203.53,0.212,0,1
