LineNo,TimeUS,I,MagX,MagY,MagZ,OfsX,OfsY,OfsZ,MOX,MOY,MOZ,Health,S
1084,1.6421e+09,0,168,-69,365,43,-7,144,0,0,0,1,1.6421e+09
2015,1.6424e+09,0,171,-62,361,43,-7,144,0,0,0,1,1.6424e+09
2448,1.6425e+09,0,164,-66,361,43,-7,144,0,0,0,1,1.6425e+09
2858,1.6426e+09,0,170,-68,363,43,-7,144,0,0,0,1,1.6426e+09
3311,1.6427e+09,0,170,-66,366,43,-7,144,0,0,0,1,1.6427e+09
3762,1.6428e+09,0,169,-65,364,43,-7,144,0,0,0,1,1.6428e+09
4213,1.6429e+09,0,169,-67,361,43,-7,144,0,0,0,1,1.6429e+09
4646,1.643e+09,0,172,-65,362,43,-7,144,0,0,0,1,1.643e+09
5081,1.6431e+09,0,169,-64,368,43,-7,144,0,0,0,1,1.6431e+09
5521,1.6432e+09,0,167,-65,364,43,-7,144,0,0,0,1,1.6432e+09
5975,1.6433e+09,0,164,-67,358,43,-7,144,0,0,0,1,1.6433e+09
6391,1.6434e+09,0,168,-59,368,43,-7,144,0,0,0,1,1.6434e+09
6842,1.6435e+09,0,165,-67,365,43,-7,144,0,0,0,1,1.6435e+09
7246,1.6436e+09,0,166,-59,361,43,-7,144,0,0,0,1,1.6436e+09
7677,1.6437e+09,0,172,-64,361,43,-7,144,0,0,0,1,1.6437e+09
8127,1.6438e+09,0,171,-69,355,43,-7,144,0,0,0,1,1.6438e+09
8580,1.6439e+09,0,170,-65,361,43,-7,144,0,0,0,1,1.6439e+09
9025,1.644e+09,0,166,-66,358,43,-7,144,0,0,0,1,1.644e+09
9476,1.6441e+09,0,171,-64,364,43,-7,144,0,0,0,1,1.6441e+09
9876,1.6442e+09,0,170,-64,358,43,-7,144,0,0,0,1,1.6442e+09
10310,1.6444e+09,0,170,-60,364,43,-7,144,0,0,0,1,1.6444e+09
10762,1.6445e+09,0,165,-64,363,43,-7,144,0,0,0,1,1.6445e+09
11210,1.6446e+09,0,169,-65,363,43,-7,144,0,0,0,1,1.6446e+09
11665,1.6447e+09,0,169,-67,365,43,-7,144,0,0,0,1,1.6447e+09
12113,1.6448e+09,0,168,-67,364,43,-7,144,0,0,0,1,1.6448e+09
12548,1.6449e+09,0,166,-69,358,43,-7,144,0,0,0,1,1.6449e+09
12948,1.645e+09,0,167,-66,361,43,-7,144,0,0,0,1,1.645e+09
13398,1.6451e+09,0,169,-66,361,43,-7,144,0,0,0,1,1.6451e+09
13631,1.6452e+09,0,167,-68,361,43,-7,144,0,0,0,1,1.6452e+09
14053,1.6453e+09,0,170,-67,363,43,-7,144,0,0,0,1,1.6453e+09
14496,1.6454e+09,0,167,-67,360,43,-7,144,0,0,0,1,1.6454e+09
14927,1.6455e+09,0,170,-64,364,43,-7,144,0,0,0,1,1.6455e+09
15361,1.6456e+09,0,172,-63,365,43,-7,144,0,0,0,1,1.6456e+09
15782,1.6457e+09,0,171,-63,366,43,-7,144,0,0,0,1,1.6457e+09
16234,1.6458e+09,0,167,-70,358,43,-7,144,0,0,0,1,1.6458e+09
16686,1.6459e+09,0,174,-66,364,43,-7,144,0,0,0,1,1.6459e+09
17127,1.646e+09,0,168,-62,364,43,-7,144,0,0,0,1,1.646e+09
17558,1.6461e+09,0,172,-65,361,43,-7,144,0,0,0,1,1.6461e+09
17968,1.6462e+09,0,168,-66,365,43,-7,144,0,0,0,1,1.6462e+09
18391,1.6463e+09,0,170,-66,363,43,-7,144,0,0,0,1,1.6463e+09
18839,1.6464e+09,0,167,-65,364,43,-7,144,0,0,0,1,1.6464e+09
19291,1.6465e+09,0,170,-61,362,43,-7,144,0,0,0,1,1.6465e+09
19729,1.6466e+09,0,167,-69,364,43,-7,144,0,0,0,1,1.6466e+09
20134,1.6467e+09,0,166,-62,362,43,-7,144,0,0,0,1,1.6467e+09
20578,1.6468e+09,0,172,-60,367,43,-7,144,0,0,0,1,1.6468e+09
21033,1.6469e+09,0,169,-66,361,43,-7,144,0,0,0,1,1.6469e+09
21449,1.647e+09,0,168,-64,366,43,-7,144,0,0,0,1,1.647e+09
21903,1.6471e+09,0,169,-63,361,43,-7,144,0,0,0,1,1.6471e+09
22335,1.6472e+09,0,163,-67,363,43,-7,144,0,0,0,1,1.6472e+09
22769,1.6473e+09,0,169,-65,365,43,-7,144,0,0,0,1,1.6473e+09
23187,1.6475e+09,0,167,-61,370,43,-7,144,0,0,0,1,1.6475e+09
23636,1.6476e+09,0,167,-64,364,43,-7,144,0,0,0,1,1.6476e+09
24089,1.6477e+09,0,160,-61,368,43,-7,144,0,0,0,1,1.6477e+09
24542,1.6478e+09,0,168,-62,366,43,-7,144,0,0,0,1,1.6478e+09
24977,1.6479e+09,0,168,-72,356,43,-7,144,0,0,0,1,1.6479e+09
25408,1.648e+09,0,163,-63,362,43,-7,144,0,0,0,1,1.648e+09
25861,1.6481e+09,0,167,-62,363,43,-7,144,0,0,0,1,1.6481e+09
26310,1.6482e+09,0,167,-63,363,43,-7,144,0,0,0,1,1.6482e+09
26763,1.6483e+09,0,170,-63,364,43,-7,144,0,0,0,1,1.6483e+09
27204,1.6484e+09,0,165,-62,369,43,-7,144,0,0,0,1,1.6484e+09
27606,1.6485e+09,0,163,-64,361,43,-7,144,0,0,0,1,1.6485e+09
28043,1.6486e+09,0,163,-62,362,43,-7,144,0,0,0,1,1.6486e+09
28496,1.6487e+09,0,161,-64,364,43,-7,144,0,0,0,1,1.6487e+09
28916,1.6488e+09,0,163,-61,362,43,-7,144,0,0,0,1,1.6488e+09
29369,1.6489e+09,0,169,-60,366,43,-7,144,0,0,0,1,1.6489e+09
29803,1.649e+09,0,181,-58,359,43,-7,144,0,0,0,1,1.649e+09
30236,1.6491e+09,0,184,-68,351,43,-7,144,0,0,0,1,1.6491e+09
30679,1.6492e+09,0,187,-74,347,43,-7,144,0,0,0,1,1.6492e+09
31131,1.6493e+09,0,184,-84,348,43,-7,144,0,0,0,1,1.6493e+09
31548,1.6495e+09,0,180,-91,348,43,-7,144,0,0,0,1,1.6495e+09
31995,1.6496e+09,0,171,-106,353,43,-7,144,0,0,0,1,1.6496e+09
32447,1.6497e+09,0,167,-118,349,43,-7,144,0,0,0,1,1.6497e+09
32897,1.6498e+09,0,166,-112,355,43,-7,144,0,0,0,1,1.6498e+09
33330,1.6499e+09,0,162,-118,355,43,-7,144,0,0,0,1,1.6499e+09
33766,1.65e+09,0,166,-111,349,43,-7,144,0,0,0,1,1.65e+09
34218,1.6501e+09,0,172,-95,351,43,-7,144,0,0,0,1,1.6501e+09
34667,1.6502e+09,0,176,-88,347,43,-7,144,0,0,0,1,1.6502e+09
35119,1.6503e+09,0,182,-81,349,43,-7,144,0,0,0,1,1.6503e+09
35559,1.6504e+09,0,178,-78,352,43,-7,144,0,0,0,1,1.6504e+09
35993,1.6505e+09,0,187,-74,354,43,-7,144,0,0,0,1,1.6505e+09
36399,1.6506e+09,0,185,-79,353,43,-7,144,0,0,0,1,1.6506e+09
36851,1.6507e+09,0,181,-80,351,43,-7,144,0,0,0,1,1.6507e+09
37302,1.6508e+09,0,181,-82,352,43,-7,144,0,0,0,1,1.6508e+09
37753,1.6509e+09,0,182,-78,350,43,-7,144,0,0,0,1,1.6509e+09
38204,1.651e+09,0,180,-74,354,43,-7,144,0,0,0,1,1.651e+09
38624,1.6511e+09,0,179,-78,352,43,-7,144,0,0,0,1,1.6511e+09
39056,1.6513e+09,0,183,-89,352,43,-7,144,0,0,0,1,1.6513e+09
39483,1.6514e+09,0,172,-92,351,43,-7,144,0,0,0,1,1.6514e+09
39936,1.6515e+09,0,180,-96,344,43,-7,144,0,0,0,1,1.6515e+09
40382,1.6516e+09,0,185,-97,347,43,-7,144,0,0,0,1,1.6516e+09
40835,1.6517e+09,0,194,-89,346,43,-7,144,0,0,0,1,1.6517e+09
41252,1.6518e+09,0,190,-82,346,43,-7,144,0,0,0,1,1.6518e+09
41705,1.6519e+09,0,187,-81,345,43,-7,144,0,0,0,1,1.6519e+09
42149,1.652e+09,0,192,-73,349,43,-7,144,0,0,0,1,1.652e+09
42575,1.6521e+09,0,191,-77,346,43,-7,144,0,0,0,1,1.6521e+09
43007,1.6522e+09,0,189,-76,345,43,-7,144,0,0,0,1,1.6522e+09
43421,1.6523e+09,0,198,-80,342,43,-7,144,0,0,0,1,1.6523e+09
43863,1.6524e+09,0,206,-77,337,43,-7,144,0,0,0,1,1.6524e+09
44309,1.6525e+09,0,211,-75,329,43,-7,144,0,0,0,1,1.6525e+09
44752,1.6526e+09,0,211,-77,331,43,-7,144,0,0,0,1,1.6526e+09
45195,1.6528e+09,0,204,-77,338,43,-7,144,0,0,0,1,1.6528e+09
45642,1.6529e+09,0,199,-71,343,43,-7,144,0,0,0,1,1.6529e+09
46086,1.653e+09,0,194,-55,347,43,-7,144,0,0,0,1,1.653e+09
46512,1.6531e+09,0,200,-53,345,43,-7,144,0,0,0,1,1.6531e+09
46909,1.6532e+09,0,199,-48,347,43,-7,144,0,0,0,1,1.6532e+09
47357,1.6533e+09,0,208,-62,345,43,-7,144,0,0,0,1,1.6533e+09
47799,1.6534e+09,0,207,-67,337,43,-7,144,0,0,0,1,1.6534e+09
48242,1.6535e+09,0,202,-73,342,43,-7,144,0,0,0,1,1.6535e+09
48682,1.6536e+09,0,190,-80,347,43,-7,144,0,0,0,1,1.6536e+09
49099,1.6537e+09,0,188,-72,354,43,-7,144,0,0,0,1,1.6537e+09
49542,1.6538e+09,0,185,-68,350,43,-7,144,0,0,0,1,1.6538e+09
49988,1.6539e+09,0,189,-57,353,43,-7,144,0,0,0,1,1.6539e+09
50397,1.654e+09,0,187,-55,357,43,-7,144,0,0,0,1,1.654e+09
50840,1.6542e+09,0,189,-59,351,43,-7,144,0,0,0,1,1.6542e+09
51290,1.6543e+09,0,183,-63,351,43,-7,144,0,0,0,1,1.6543e+09
51699,1.6544e+09,0,186,-76,351,43,-7,144,0,0,0,1,1.6544e+09
52145,1.6545e+09,0,179,-80,359,43,-7,144,0,0,0,1,1.6545e+09
52552,1.6546e+09,0,183,-80,358,43,-7,144,0,0,0,1,1.6546e+09
52980,1.6547e+09,0,172,-79,352,43,-7,144,0,0,0,1,1.6547e+09
53412,1.6548e+09,0,181,-82,354,43,-7,144,0,0,0,1,1.6548e+09
53826,1.6549e+09,0,177,-79,351,43,-7,144,0,0,0,1,1.6549e+09
54269,1.655e+09,0,173,-82,351,43,-7,144,0,0,0,1,1.655e+09
54717,1.6551e+09,0,178,-83,358,43,-7,144,0,0,0,1,1.6551e+09
55164,1.6552e+09,0,181,-80,353,43,-7,144,0,0,0,1,1.6552e+09
55613,1.6553e+09,0,182,-78,351,43,-7,144,0,0,0,1,1.6553e+09
56055,1.6555e+09,0,183,-79,354,43,-7,144,0,0,0,1,1.6555e+09
56467,1.6556e+09,0,192,-81,346,43,-7,144,0,0,0,1,1.6556e+09
56895,1.6557e+09,0,183,-86,346,43,-7,144,0,0,0,1,1.6557e+09
57326,1.6558e+09,0,190,-86,344,43,-7,144,0,0,0,1,1.6558e+09
57771,1.6559e+09,0,188,-99,343,43,-7,144,0,0,0,1,1.6559e+09
58182,1.656e+09,0,181,-104,349,43,-7,144,0,0,0,1,1.656e+09
58630,1.6561e+09,0,185,-107,340,43,-7,144,0,0,0,1,1.6561e+09
59074,1.6562e+09,0,192,-105,334,43,-7,144,0,0,0,1,1.6562e+09
59520,1.6563e+09,0,191,-101,339,43,-7,144,0,0,0,1,1.6563e+09
59965,1.6564e+09,0,195,-97,339,43,-7,144,0,0,0,1,1.6564e+09
60410,1.6565e+09,0,188,-88,343,43,-7,144,0,0,0,1,1.6565e+09
60835,1.6566e+09,0,182,-82,344,43,-7,144,0,0,0,1,1.6566e+09
61266,1.6567e+09,0,180,-87,356,43,-7,144,0,0,0,1,1.6567e+09
61704,1.6569e+09,0,168,-82,355,43,-7,144,0,0,0,1,1.6569e+09
62114,1.657e+09,0,172,-83,358,43,-7,144,0,0,0,1,1.657e+09
62561,1.6571e+09,0,165,-80,362,43,-7,144,0,0,0,1,1.6571e+09
62974,1.6572e+09,0,167,-81,364,43,-7,144,0,0,0,1,1.6572e+09
63419,1.6573e+09,0,160,-78,363,43,-7,144,0,0,0,1,1.6573e+09
63861,1.6574e+09,0,153,-78,370,43,-7,144,0,0,0,1,1.6574e+09
64308,1.6575e+09,0,156,-79,370,43,-7,144,0,0,0,1,1.6575e+09
64750,1.6576e+09,0,160,-84,369,43,-7,144,0,0,0,1,1.6576e+09
65199,1.6577e+09,0,159,-88,363,43,-7,144,0,0,0,1,1.6577e+09
65632,1.6578e+09,0,157,-87,369,43,-7,144,0,0,0,1,1.6578e+09
66025,1.6579e+09,0,163,-84,361,43,-7,144,0,0,0,1,1.6579e+09
66461,1.658e+09,0,155,-86,362,43,-7,144,0,0,0,1,1.658e+09
66905,1.6581e+09,0,155,-88,367,43,-7,144,0,0,0,1,1.6581e+09
67351,1.6583e+09,0,155,-89,372,43,-7,144,0,0,0,1,1.6583e+09
67764,1.6584e+09,0,151,-93,366,43,-7,144,0,0,0,1,1.6584e+09
68209,1.6585e+09,0,157,-92,361,43,-7,144,0,0,0,1,1.6585e+09
68632,1.6586e+09,0,154,-96,366,43,-7,144,0,0,0,1,1.6586e+09
69081,1.6587e+09,0,144,-108,369,43,-7,144,0,0,0,1,1.6587e+09
69490,1.6588e+09,0,142,-109,377,43,-7,144,0,0,0,1,1.6588e+09
69936,1.6589e+09,0,142,-100,372,43,-7,144,0,0,0,1,1.6589e+09
70377,1.659e+09,0,148,-91,372,43,-7,144,0,0,0,1,1.659e+09
70823,1.6591e+09,0,158,-81,360,43,-7,144,0,0,0,1,1.6591e+09
71267,1.6592e+09,0,167,-82,364,43,-7,144,0,0,0,1,1.6592e+09
71681,1.6593e+09,0,173,-81,358,43,-7,144,0,0,0,1,1.6593e+09
72091,1.6594e+09,0,183,-81,356,43,-7,144,0,0,0,1,1.6594e+09
72532,1.6595e+09,0,182,-78,350,43,-7,144,0,0,0,1,1.6595e+09
72949,1.6597e+09,0,181,-78,348,43,-7,144,0,0,0,1,1.6597e+09
73397,1.6598e+09,0,188,-79,347,43,-7,144,0,0,0,1,1.6598e+09
73843,1.6599e+09,0,186,-81,350,43,-7,144,0,0,0,1,1.6599e+09
74285,1.66e+09,0,184,-80,350,43,-7,144,0,0,0,1,1.66e+09
74699,1.6601e+09,0,189,-83,349,43,-7,144,0,0,0,1,1.6601e+09
75143,1.6602e+09,0,186,-82,354,43,-7,144,0,0,0,1,1.6602e+09
75590,1.6603e+09,0,184,-85,352,43,-7,144,0,0,0,1,1.6603e+09
76023,1.6604e+09,0,186,-79,350,43,-7,144,0,0,0,1,1.6604e+09
76421,1.6605e+09,0,199,-85,343,43,-7,144,0,0,0,1,1.6605e+09
76853,1.6606e+09,0,219,-73,327,43,-7,144,0,0,0,1,1.6606e+09
77304,1.6607e+09,0,230,-63,319,43,-7,144,0,0,0,1,1.6607e+09
77746,1.6608e+09,0,230,-68,325,43,-7,144,0,0,0,1,1.6608e+09
78194,1.6609e+09,0,219,-73,329,43,-7,144,0,0,0,1,1.6609e+09
78634,1.6611e+09,0,209,-83,329,43,-7,144,0,0,0,1,1.6611e+09
79045,1.6612e+09,0,205,-89,334,43,-7,144,0,0,0,1,1.6612e+09
79492,1.6613e+09,0,198,-85,341,43,-7,144,0,0,0,1,1.6613e+09
79935,1.6614e+09,0,196,-83,340,43,-7,144,0,0,0,1,1.6614e+09
80380,1.6615e+09,0,197,-80,344,43,-7,144,0,0,0,1,1.6615e+09
80790,1.6616e+09,0,199,-78,341,43,-7,144,0,0,0,1,1.6616e+09
81239,1.6617e+09,0,203,-79,339,43,-7,144,0,0,0,1,1.6617e+09
81684,1.6618e+09,0,190,-91,343,43,-7,144,0,0,0,1,1.6618e+09
82131,1.6619e+09,0,185,-108,349,43,-7,144,0,0,0,1,1.6619e+09
82572,1.662e+09,0,174,-119,347,43,-7,144,0,0,0,1,1.662e+09
83020,1.6621e+09,0,176,-117,348,43,-7,144,0,0,0,1,1.6621e+09
83460,1.6622e+09,0,178,-111,347,43,-7,144,0,0,0,1,1.6622e+09
83907,1.6623e+09,0,182,-109,342,43,-7,144,0,0,0,1,1.6623e+09
84348,1.6625e+09,0,183,-102,349,43,-7,144,0,0,0,1,1.6625e+09
84763,1.6626e+09,0,183,-102,349,43,-7,144,0,0,0,1,1.6626e+09
85206,1.6627e+09,0,184,-101,346,43,-7,144,0,0,0,1,1.6627e+09
85647,1.6628e+09,0,186,-100,348,43,-7,144,0,0,0,1,1.6628e+09
86065,1.6629e+09,0,184,-85,349,43,-7,144,0,0,0,1,1.6629e+09
86502,1.663e+09,0,184,-85,354,43,-7,144,0,0,0,1,1.663e+09
86929,1.6631e+09,0,177,-86,350,43,-7,144,0,0,0,1,1.6631e+09
87363,1.6632e+09,0,177,-92,350,43,-7,144,0,0,0,1,1.6632e+09
87810,1.6633e+09,0,176,-94,353,43,-7,144,0,0,0,1,1.6633e+09
88254,1.6634e+09,0,171,-89,359,43,-7,144,0,0,0,1,1.6634e+09
88697,1.6635e+09,0,169,-76,359,43,-7,144,0,0,0,1,1.6635e+09
89143,1.6636e+09,0,165,-72,364,43,-7,144,0,0,0,1,1.6636e+09
89590,1.6637e+09,0,162,-68,368,43,-7,144,0,0,0,1,1.6637e+09
89999,1.6639e+09,0,160,-69,367,43,-7,144,0,0,0,1,1.6639e+09
90446,1.664e+09,0,158,-65,379,43,-7,144,0,0,0,1,1.664e+09
90893,1.6641e+09,0,154,-62,375,43,-7,144,0,0,0,1,1.6641e+09
91337,1.6642e+09,0,147,-65,375,43,-7,144,0,0,0,1,1.6642e+09
91782,1.6643e+09,0,151,-62,373,43,-7,144,0,0,0,1,1.6643e+09
92192,1.6644e+09,0,151,-68,377,43,-7,144,0,0,0,1,1.6644e+09
92639,1.6645e+09,0,156,-63,372,43,-7,144,0,0,0,1,1.6645e+09
93083,1.6646e+09,0,151,-62,368,43,-7,144,0,0,0,1,1.6646e+09
93528,1.6647e+09,0,161,-65,372,43,-7,144,0,0,0,1,1.6647e+09
93971,1.6648e+09,0,162,-65,372,43,-7,144,0,0,0,1,1.6648e+09
94387,1.6649e+09,0,163,-67,364,43,-7,144,0,0,0,1,1.6649e+09
94830,1.665e+09,0,168,-66,358,43,-7,144,0,0,0,1,1.665e+09
95241,1.6651e+09,0,175,-73,363,43,-7,144,0,0,0,1,1.6651e+09
95682,1.6653e+09,0,176,-76,357,43,-7,144,0,0,0,1,1.6653e+09
96094,1.6654e+09,0,174,-79,357,43,-7,144,0,0,0,1,1.6654e+09
96541,1.6655e+09,0,168,-83,360,43,-7,144,0,0,0,1,1.6655e+09
96988,1.6656e+09,0,167,-82,358,43,-7,144,0,0,0,1,1.6656e+09
97437,1.6657e+09,0,173,-89,357,43,-7,144,0,0,0,1,1.6657e+09
97846,1.6658e+09,0,179,-90,352,43,-7,144,0,0,0,1,1.6658e+09
98292,1.6659e+09,0,189,-89,351,43,-7,144,0,0,0,1,1.6659e+09
98732,1.666e+09,0,190,-90,350,43,-7,144,0,0,0,1,1.666e+09
99182,1.6661e+09,0,191,-86,345,43,-7,144,0,0,0,1,1.6661e+09
99625,1.6662e+09,0,198,-89,346,43,-7,144,0,0,0,1,1.6662e+09
1.0007e+05,1.6663e+09,0,198,-94,341,43,-7,144,0,0,0,1,1.6663e+09
1.0051e+05,1.6664e+09,0,189,-85,351,43,-7,144,0,0,0,1,1.6664e+09
1.0093e+05,1.6666e+09,0,189,-83,350,43,-7,144,0,0,0,1,1.6666e+09
1.0137e+05,1.6667e+09,0,178,-78,351,43,-7,144,0,0,0,1,1.6667e+09
1.0182e+05,1.6668e+09,0,176,-79,359,43,-7,144,0,0,0,1,1.6668e+09
1.0226e+05,1.6669e+09,0,177,-75,358,43,-7,144,0,0,0,1,1.6669e+09
1.027e+05,1.667e+09,0,177,-69,359,43,-7,144,0,0,0,1,1.667e+09
1.0312e+05,1.6671e+09,0,184,-50,358,43,-7,144,0,0,0,1,1.6671e+09
1.0356e+05,1.6672e+09,0,187,-29,364,43,-7,144,0,0,0,1,1.6672e+09
1.0401e+05,1.6673e+09,0,188,-23,358,43,-7,144,0,0,0,1,1.6673e+09
1.0445e+05,1.6674e+09,0,191,-15,358,43,-7,144,0,0,0,1,1.6674e+09
1.049e+05,1.6675e+09,0,192,-20,353,43,-7,144,0,0,0,1,1.6675e+09
1.0534e+05,1.6676e+09,0,190,-37,356,43,-7,144,0,0,0,1,1.6676e+09
1.0579e+05,1.6677e+09,0,203,-53,344,43,-7,144,0,0,0,1,1.6677e+09
1.062e+05,1.6678e+09,0,218,-60,333,43,-7,144,0,0,0,1,1.6678e+09
1.0665e+05,1.6679e+09,0,225,-66,323,43,-7,144,0,0,0,1,1.6679e+09
1.0709e+05,1.6681e+09,0,225,-63,322,43,-7,144,0,0,0,1,1.6681e+09
1.075e+05,1.6682e+09,0,225,-62,327,43,-7,144,0,0,0,1,1.6682e+09
1.0795e+05,1.6683e+09,0,222,-67,324,43,-7,144,0,0,0,1,1.6683e+09
1.0836e+05,1.6684e+09,0,216,-78,333,43,-7,144,0,0,0,1,1.6684e+09
1.088e+05,1.6685e+09,0,212,-98,330,43,-7,144,0,0,0,1,1.6685e+09
1.0925e+05,1.6686e+09,0,219,-101,318,43,-7,144,0,0,0,1,1.6686e+09
1.097e+05,1.6687e+09,0,225,-100,312,43,-7,144,0,0,0,1,1.6687e+09
1.1011e+05,1.6688e+09,0,229,-119,312,43,-7,144,0,0,0,1,1.6688e+09
1.1056e+05,1.6689e+09,0,223,-124,312,43,-7,144,0,0,0,1,1.6689e+09
1.1097e+05,1.669e+09,0,219,-122,311,43,-7,144,0,0,0,1,1.669e+09
1.1141e+05,1.6691e+09,0,219,-119,320,43,-7,144,0,0,0,1,1.6691e+09
1.1185e+05,1.6692e+09,0,220,-115,314,43,-7,144,0,0,0,1,1.6692e+09
1.123e+05,1.6694e+09,0,221,-110,316,43,-7,144,0,0,0,1,1.6694e+09
1.1275e+05,1.6695e+09,0,217,-105,316,43,-7,144,0,0,0,1,1.6695e+09
1.1316e+05,1.6696e+09,0,218,-97,324,43,-7,144,0,0,0,1,1.6696e+09
1.1361e+05,1.6697e+09,0,216,-88,333,43,-7,144,0,0,0,1,1.6697e+09
1.1405e+05,1.6698e+09,0,211,-88,332,43,-7,144,0,0,0,1,1.6698e+09
1.145e+05,1.6699e+09,0,210,-88,332,43,-7,144,0,0,0,1,1.6699e+09
1.1494e+05,1.67e+09,0,209,-90,337,43,-7,144,0,0,0,1,1.67e+09
1.1536e+05,1.6701e+09,0,209,-92,332,43,-7,144,0,0,0,1,1.6701e+09
1.158e+05,1.6702e+09,0,218,-91,330,43,-7,144,0,0,0,1,1.6702e+09
1.1624e+05,1.6703e+09,0,213,-90,326,43,-7,144,0,0,0,1,1.6703e+09
1.167e+05,1.6704e+09,0,214,-88,334,43,-7,144,0,0,0,1,1.6704e+09
1.1714e+05,1.6705e+09,0,212,-91,328,43,-7,144,0,0,0,1,1.6705e+09
1.1755e+05,1.6707e+09,0,215,-85,329,43,-7,144,0,0,0,1,1.6707e+09
1.18e+05,1.6708e+09,0,216,-82,328,43,-7,144,0,0,0,1,1.6708e+09
1.1844e+05,1.6709e+09,0,216,-75,336,43,-7,144,0,0,0,1,1.6709e+09
1.1889e+05,1.671e+09,0,202,-62,352,43,-7,144,0,0,0,1,1.671e+09
1.1933e+05,1.6711e+09,0,193,-54,360,43,-7,144,0,0,0,1,1.6711e+09
1.1974e+05,1.6712e+09,0,177,-57,362,43,-7,144,0,0,0,1,1.6712e+09
1.2019e+05,1.6713e+09,0,172,-70,363,43,-7,144,0,0,0,1,1.6713e+09
1.2063e+05,1.6714e+09,0,178,-79,354,43,-7,144,0,0,0,1,1.6714e+09
1.2108e+05,1.6715e+09,0,185,-81,354,43,-7,144,0,0,0,1,1.6715e+09
1.2152e+05,1.6716e+09,0,189,-71,357,43,-7,144,0,0,0,1,1.6716e+09
1.2194e+05,1.6717e+09,0,189,-66,352,43,-7,144,0,0,0,1,1.6717e+09
1.2238e+05,1.6718e+09,0,195,-55,352,43,-7,144,0,0,0,1,1.6718e+09
1.2283e+05,1.6719e+09,0,199,-56,345,43,-7,144,0,0,0,1,1.6719e+09
1.2327e+05,1.672e+09,0,199,-63,351,43,-7,144,0,0,0,1,1.672e+09
1.2372e+05,1.6722e+09,0,189,-71,353,43,-7,144,0,0,0,1,1.6722e+09
1.2413e+05,1.6723e+09,0,171,-72,360,43,-7,144,0,0,0,1,1.6723e+09
1.2457e+05,1.6724e+09,0,151,-71,375,43,-7,144,0,0,0,1,1.6724e+09
1.2502e+05,1.6725e+09,0,138,-72,383,43,-7,144,0,0,0,1,1.6725e+09
1.2544e+05,1.6726e+09,0,143,-73,385,43,-7,144,0,0,0,1,1.6726e+09
1.2588e+05,1.6727e+09,0,153,-72,375,43,-7,144,0,0,0,1,1.6727e+09
1.2633e+05,1.6728e+09,0,164,-73,363,43,-7,144,0,0,0,1,1.6728e+09
1.2677e+05,1.6729e+09,0,174,-74,359,43,-7,144,0,0,0,1,1.6729e+09
1.2718e+05,1.673e+09,0,179,-79,357,43,-7,144,0,0,0,1,1.673e+09
1.2763e+05,1.6731e+09,0,176,-81,358,43,-7,144,0,0,0,1,1.6731e+09
1.2807e+05,1.6732e+09,0,188,-80,356,43,-7,144,0,0,0,1,1.6732e+09
1.2852e+05,1.6733e+09,0,198,-77,338,43,-7,144,0,0,0,1,1.6733e+09
1.2896e+05,1.6734e+09,0,208,-85,329,43,-7,144,0,0,0,1,1.6734e+09
1.2937e+05,1.6736e+09,0,219,-91,332,43,-7,144,0,0,0,1,1.6736e+09
1.2983e+05,1.6737e+09,0,215,-91,332,43,-7,144,0,0,0,1,1.6737e+09
1.3027e+05,1.6738e+09,0,207,-87,334,43,-7,144,0,0,0,1,1.6738e+09
1.3072e+05,1.6739e+09,0,200,-95,337,43,-7,144,0,0,0,1,1.6739e+09
1.3116e+05,1.674e+09,0,203,-89,338,43,-7,144,0,0,0,1,1.674e+09
1.3158e+05,1.6741e+09,0,201,-90,342,43,-7,144,0,0,0,1,1.6741e+09
1.3202e+05,1.6742e+09,0,193,-94,342,43,-7,144,0,0,0,1,1.6742e+09
1.3244e+05,1.6743e+09,0,197,-88,344,43,-7,144,0,0,0,1,1.6743e+09
1.3288e+05,1.6744e+09,0,197,-96,342,43,-7,144,0,0,0,1,1.6744e+09
1.3332e+05,1.6745e+09,0,181,-102,348,43,-7,144,0,0,0,1,1.6745e+09
1.3377e+05,1.6746e+09,0,176,-113,349,43,-7,144,0,0,0,1,1.6746e+09
1.3422e+05,1.6747e+09,0,180,-133,341,43,-7,144,0,0,0,1,1.6747e+09
1.3466e+05,1.6749e+09,0,176,-129,336,43,-7,144,0,0,0,1,1.6749e+09
1.3507e+05,1.675e+09,0,178,-139,340,43,-7,144,0,0,0,1,1.675e+09
1.3552e+05,1.6751e+09,0,181,-135,342,43,-7,144,0,0,0,1,1.6751e+09
1.3593e+05,1.6752e+09,0,185,-126,342,43,-7,144,0,0,0,1,1.6752e+09
1.3638e+05,1.6753e+09,0,189,-118,343,43,-7,144,0,0,0,1,1.6753e+09
1.3682e+05,1.6754e+09,0,191,-113,335,43,-7,144,0,0,0,1,1.6754e+09
1.3723e+05,1.6755e+09,0,195,-114,335,43,-7,144,0,0,0,1,1.6755e+09
1.3768e+05,1.6756e+09,0,194,-109,335,43,-7,144,0,0,0,1,1.6756e+09
1.3813e+05,1.6757e+09,0,191,-101,341,43,-7,144,0,0,0,1,1.6757e+09
1.3857e+05,1.6758e+09,0,194,-81,346,43,-7,144,0,0,0,1,1.6758e+09
1.3902e+05,1.6759e+09,0,196,-70,349,43,-7,144,0,0,0,1,1.6759e+09
1.3943e+05,1.676e+09,0,196,-67,344,43,-7,144,0,0,0,1,1.676e+09
1.3988e+05,1.6761e+09,0,200,-72,348,43,-7,144,0,0,0,1,1.6761e+09
1.4032e+05,1.6763e+09,0,206,-73,347,43,-7,144,0,0,0,1,1.6763e+09
1.4077e+05,1.6764e+09,0,206,-80,339,43,-7,144,0,0,0,1,1.6764e+09
1.4121e+05,1.6765e+09,0,205,-77,340,43,-7,144,0,0,0,1,1.6765e+09
1.4163e+05,1.6766e+09,0,205,-73,344,43,-7,144,0,0,0,1,1.6766e+09
1.4207e+05,1.6767e+09,0,205,-73,347,43,-7,144,0,0,0,1,1.6767e+09
1.4252e+05,1.6768e+09,0,197,-79,347,43,-7,144,0,0,0,1,1.6768e+09
1.4296e+05,1.6769e+09,0,197,-72,345,43,-7,144,0,0,0,1,1.6769e+09
1.4341e+05,1.677e+09,0,200,-56,345,43,-7,144,0,0,0,1,1.677e+09
1.4386e+05,1.6771e+09,0,206,-37,347,43,-7,144,0,0,0,1,1.6771e+09
1.4426e+05,1.6772e+09,0,199,-27,348,43,-7,144,0,0,0,1,1.6772e+09
1.4471e+05,1.6773e+09,0,195,-33,353,43,-7,144,0,0,0,1,1.6773e+09
1.4515e+05,1.6774e+09,0,189,-36,360,43,-7,144,0,0,0,1,1.6774e+09
1.4557e+05,1.6775e+09,0,186,-40,357,43,-7,144,0,0,0,1,1.6775e+09
1.4601e+05,1.6777e+09,0,183,-51,354,43,-7,144,0,0,0,1,1.6777e+09
1.4645e+05,1.6778e+09,0,186,-55,354,43,-7,144,0,0,0,1,1.6778e+09
1.4687e+05,1.6779e+09,0,186,-62,353,43,-7,144,0,0,0,1,1.6779e+09
1.4731e+05,1.678e+09,0,185,-67,358,43,-7,144,0,0,0,1,1.678e+09
1.4776e+05,1.6781e+09,0,192,-59,352,43,-7,144,0,0,0,1,1.6781e+09
1.4817e+05,1.6782e+09,0,195,-43,349,43,-7,144,0,0,0,1,1.6782e+09
1.4861e+05,1.6783e+09,0,195,-23,356,43,-7,144,0,0,0,1,1.6783e+09
1.4906e+05,1.6784e+09,0,199,-10,354,43,-7,144,0,0,0,1,1.6784e+09
1.495e+05,1.6785e+09,0,195,-6,357,43,-7,144,0,0,0,1,1.6785e+09
1.4994e+05,1.6786e+09,0,200,-13,355,43,-7,144,0,0,0,1,1.6786e+09
1.5036e+05,1.6787e+09,0,202,-18,350,43,-7,144,0,0,0,1,1.6787e+09
1.508e+05,1.6788e+09,0,198,-30,352,43,-7,144,0,0,0,1,1.6788e+09
1.5125e+05,1.6789e+09,0,200,-43,352,43,-7,144,0,0,0,1,1.6789e+09
1.517e+05,1.6791e+09,0,198,-59,350,43,-7,144,0,0,0,1,1.6791e+09
1.5211e+05,1.6792e+09,0,195,-74,351,43,-7,144,0,0,0,1,1.6792e+09
1.5255e+05,1.6793e+09,0,190,-79,353,43,-7,144,0,0,0,1,1.6793e+09
1.5299e+05,1.6794e+09,0,183,-73,358,43,-7,144,0,0,0,1,1.6794e+09
1.5341e+05,1.6795e+09,0,182,-60,359,43,-7,144,0,0,0,1,1.6795e+09
1.5385e+05,1.6796e+09,0,184,-50,359,43,-7,144,0,0,0,1,1.6796e+09
1.5426e+05,1.6797e+09,0,191,-40,358,43,-7,144,0,0,0,1,1.6797e+09
1.547e+05,1.6798e+09,0,189,-36,357,43,-7,144,0,0,0,1,1.6798e+09
1.5513e+05,1.6799e+09,0,184,-44,363,43,-7,144,0,0,0,1,1.6799e+09
1.5556e+05,1.68e+09,0,181,-46,363,43,-7,144,0,0,0,1,1.68e+09
1.56e+05,1.6801e+09,0,182,-47,363,43,-7,144,0,0,0,1,1.6801e+09
1.5642e+05,1.6802e+09,0,186,-52,360,43,-7,144,0,0,0,1,1.6802e+09
1.5686e+05,1.6803e+09,0,187,-60,357,43,-7,144,0,0,0,1,1.6803e+09
1.5727e+05,1.6805e+09,0,188,-64,356,43,-7,144,0,0,0,1,1.6805e+09
1.5773e+05,1.6806e+09,0,187,-70,355,43,-7,144,0,0,0,1,1.6806e+09
1.5817e+05,1.6807e+09,0,189,-54,357,43,-7,144,0,0,0,1,1.6807e+09
1.5861e+05,1.6808e+09,0,184,-49,355,43,-7,144,0,0,0,1,1.6808e+09
1.5903e+05,1.6809e+09,0,194,-48,360,43,-7,144,0,0,0,1,1.6809e+09
1.5947e+05,1.681e+09,0,194,-45,352,43,-7,144,0,0,0,1,1.681e+09
1.5992e+05,1.6811e+09,0,192,-53,357,43,-7,144,0,0,0,1,1.6811e+09
1.6033e+05,1.6812e+09,0,194,-58,355,43,-7,144,0,0,0,1,1.6812e+09
1.6077e+05,1.6813e+09,0,193,-60,355,43,-7,144,0,0,0,1,1.6813e+09
1.6122e+05,1.6814e+09,0,190,-62,355,43,-7,144,0,0,0,1,1.6814e+09
1.6166e+05,1.6815e+09,0,197,-59,355,43,-7,144,0,0,0,1,1.6815e+09
1.621e+05,1.6816e+09,0,196,-60,351,43,-7,144,0,0,0,1,1.6816e+09
1.6255e+05,1.6817e+09,0,195,-55,351,43,-7,144,0,0,0,1,1.6817e+09
1.6299e+05,1.6818e+09,0,194,-48,348,43,-7,144,0,0,0,1,1.6818e+09
1.6344e+05,1.682e+09,0,194,-52,357,43,-7,144,0,0,0,1,1.682e+09
1.6385e+05,1.6821e+09,0,183,-50,357,43,-7,144,0,0,0,1,1.6821e+09
1.6429e+05,1.6822e+09,0,199,-50,352,43,-7,144,0,0,0,1,1.6822e+09
1.647e+05,1.6823e+09,0,194,-46,353,43,-7,144,0,0,0,1,1.6823e+09
1.6514e+05,1.6824e+09,0,197,-48,352,43,-7,144,0,0,0,1,1.6824e+09
1.6557e+05,1.6825e+09,0,192,-48,350,43,-7,144,0,0,0,1,1.6825e+09
1.6599e+05,1.6826e+09,0,196,-50,352,43,-7,144,0,0,0,1,1.6826e+09
1.6644e+05,1.6827e+09,0,191,-48,356,43,-7,144,0,0,0,1,1.6827e+09
1.6685e+05,1.6828e+09,0,194,-53,352,43,-7,144,0,0,0,1,1.6828e+09
1.6729e+05,1.6829e+09,0,190,-54,353,43,-7,144,0,0,0,1,1.6829e+09
1.6774e+05,1.683e+09,0,191,-57,350,43,-7,144,0,0,0,1,1.683e+09
1.6818e+05,1.6831e+09,0,197,-56,351,43,-7,144,0,0,0,1,1.6831e+09
1.686e+05,1.6832e+09,0,198,-54,352,43,-7,144,0,0,0,1,1.6832e+09
1.6904e+05,1.6833e+09,0,199,-57,347,43,-7,144,0,0,0,1,1.6833e+09
1.6945e+05,1.6835e+09,0,197,-60,344,43,-7,144,0,0,0,1,1.6835e+09
1.6986e+05,1.6836e+09,0,195,-69,353,43,-7,144,0,0,0,1,1.6836e+09
1.7031e+05,1.6837e+09,0,194,-70,350,43,-7,144,0,0,0,1,1.6837e+09
1.7075e+05,1.6838e+09,0,191,-69,355,43,-7,144,0,0,0,1,1.6838e+09
1.7117e+05,1.6839e+09,0,201,-70,353,43,-7,144,0,0,0,1,1.6839e+09
1.7161e+05,1.684e+09,0,194,-69,352,43,-7,144,0,0,0,1,1.684e+09
1.7206e+05,1.6841e+09,0,191,-65,348,43,-7,144,0,0,0,1,1.6841e+09
1.725e+05,1.6842e+09,0,192,-50,355,43,-7,144,0,0,0,1,1.6842e+09
1.7294e+05,1.6843e+09,0,190,-52,354,43,-7,144,0,0,0,1,1.6843e+09
1.7339e+05,1.6844e+09,0,189,-45,357,43,-7,144,0,0,0,1,1.6844e+09
1.7383e+05,1.6845e+09,0,191,-45,355,43,-7,144,0,0,0,1,1.6845e+09
1.7423e+05,1.6846e+09,0,191,-58,354,43,-7,144,0,0,0,1,1.6846e+09
1.7465e+05,1.6848e+09,0,192,-67,360,43,-7,144,0,0,0,1,1.6848e+09
1.7506e+05,1.6849e+09,0,187,-73,352,43,-7,144,0,0,0,1,1.6849e+09
1.7551e+05,1.685e+09,0,190,-72,349,43,-7,144,0,0,0,1,1.685e+09
1.7595e+05,1.6851e+09,0,192,-77,351,43,-7,144,0,0,0,1,1.6851e+09
1.7639e+05,1.6852e+09,0,188,-84,350,43,-7,144,0,0,0,1,1.6852e+09
1.7684e+05,1.6853e+09,0,193,-83,351,43,-7,144,0,0,0,1,1.6853e+09
1.7728e+05,1.6854e+09,0,182,-83,355,43,-7,144,0,0,0,1,1.6854e+09
1.7774e+05,1.6855e+09,0,177,-80,355,43,-7,144,0,0,0,1,1.6855e+09
1.7818e+05,1.6856e+09,0,191,-81,348,43,-7,144,0,0,0,1,1.6856e+09
1.7859e+05,1.6857e+09,0,190,-83,350,43,-7,144,0,0,0,1,1.6857e+09
1.7903e+05,1.6858e+09,0,187,-97,347,43,-7,144,0,0,0,1,1.6858e+09
1.7948e+05,1.6859e+09,0,184,-106,345,43,-7,144,0,0,0,1,1.6859e+09
1.7988e+05,1.686e+09,0,196,-111,338,43,-7,144,0,0,0,1,1.686e+09
1.8033e+05,1.6861e+09,0,197,-104,340,43,-7,144,0,0,0,1,1.6861e+09
1.8077e+05,1.6863e+09,0,196,-95,341,43,-7,144,0,0,0,1,1.6863e+09
1.8119e+05,1.6864e+09,0,191,-86,349,43,-7,144,0,0,0,1,1.6864e+09
1.8161e+05,1.6865e+09,0,182,-89,352,43,-7,144,0,0,0,1,1.6865e+09
1.8204e+05,1.6866e+09,0,182,-86,353,43,-7,144,0,0,0,1,1.6866e+09
1.8245e+05,1.6867e+09,0,179,-81,355,43,-7,144,0,0,0,1,1.6867e+09
1.8289e+05,1.6868e+09,0,183,-77,358,43,-7,144,0,0,0,1,1.6868e+09
1.8334e+05,1.6869e+09,0,186,-77,354,43,-7,144,0,0,0,1,1.6869e+09
1.8375e+05,1.687e+09,0,192,-76,349,43,-7,144,0,0,0,1,1.687e+09
1.842e+05,1.6871e+09,0,192,-74,349,43,-7,144,0,0,0,1,1.6871e+09
1.8464e+05,1.6872e+09,0,196,-74,352,43,-7,144,0,0,0,1,1.6872e+09
1.8508e+05,1.6873e+09,0,191,-68,353,43,-7,144,0,0,0,1,1.6873e+09
1.8549e+05,1.6874e+09,0,195,-62,348,43,-7,144,0,0,0,1,1.6874e+09
1.8594e+05,1.6875e+09,0,193,-58,353,43,-7,144,0,0,0,1,1.6875e+09
1.8635e+05,1.6877e+09,0,199,-69,348,43,-7,144,0,0,0,1,1.6877e+09
1.8679e+05,1.6878e+09,0,199,-70,347,43,-7,144,0,0,0,1,1.6878e+09
1.8721e+05,1.6879e+09,0,195,-73,347,43,-7,144,0,0,0,1,1.6879e+09
1.8765e+05,1.688e+09,0,191,-74,352,43,-7,144,0,0,0,1,1.688e+09
1.8808e+05,1.6881e+09,0,190,-76,349,43,-7,144,0,0,0,1,1.6881e+09
1.8847e+05,1.6882e+09,0,187,-67,354,43,-7,144,0,0,0,1,1.6882e+09
1.8892e+05,1.6883e+09,0,191,-76,350,43,-7,144,0,0,0,1,1.6883e+09
1.8933e+05,1.6884e+09,0,186,-73,353,43,-7,144,0,0,0,1,1.6884e+09
1.8977e+05,1.6885e+09,0,189,-69,353,43,-7,144,0,0,0,1,1.6885e+09
1.9018e+05,1.6886e+09,0,190,-68,350,43,-7,144,0,0,0,1,1.6886e+09
1.9063e+05,1.6887e+09,0,186,-72,351,43,-7,144,0,0,0,1,1.6887e+09
1.9107e+05,1.6888e+09,0,185,-62,356,43,-7,144,0,0,0,1,1.6888e+09
1.9152e+05,1.6889e+09,0,184,-70,358,43,-7,144,0,0,0,1,1.6889e+09
1.9196e+05,1.689e+09,0,178,-65,354,43,-7,144,0,0,0,1,1.689e+09
1.9241e+05,1.6892e+09,0,185,-66,358,43,-7,144,0,0,0,1,1.6892e+09
1.9282e+05,1.6893e+09,0,193,-59,354,43,-7,144,0,0,0,1,1.6893e+09
1.9326e+05,1.6894e+09,0,197,-59,350,43,-7,144,0,0,0,1,1.6894e+09
1.9369e+05,1.6895e+09,0,197,-53,352,43,-7,144,0,0,0,1,1.6895e+09
1.9412e+05,1.6896e+09,0,202,-62,351,43,-7,144,0,0,0,1,1.6896e+09
1.9456e+05,1.6897e+09,0,200,-65,345,43,-7,144,0,0,0,1,1.6897e+09
1.9497e+05,1.6898e+09,0,195,-69,350,43,-7,144,0,0,0,1,1.6898e+09
1.9542e+05,1.6899e+09,0,195,-74,349,43,-7,144,0,0,0,1,1.6899e+09
1.9586e+05,1.69e+09,0,197,-76,349,43,-7,144,0,0,0,1,1.69e+09
1.9631e+05,1.6901e+09,0,195,-67,346,43,-7,144,0,0,0,1,1.6901e+09
1.9672e+05,1.6902e+09,0,205,-48,347,43,-7,144,0,0,0,1,1.6902e+09
1.9713e+05,1.6903e+09,0,204,-40,347,43,-7,144,0,0,0,1,1.6903e+09
1.9757e+05,1.6905e+09,0,205,-28,346,43,-7,144,0,0,0,1,1.6905e+09
1.9802e+05,1.6906e+09,0,211,-25,347,43,-7,144,0,0,0,1,1.6906e+09
1.9847e+05,1.6907e+09,0,208,-24,350,43,-7,144,0,0,0,1,1.6907e+09
1.9891e+05,1.6908e+09,0,208,-31,344,43,-7,144,0,0,0,1,1.6908e+09
1.9934e+05,1.6909e+09,0,210,-38,352,43,-7,144,0,0,0,1,1.6909e+09
1.9974e+05,1.691e+09,0,208,-40,340,43,-7,144,0,0,0,1,1.691e+09
2.0018e+05,1.6911e+09,0,204,-36,344,43,-7,144,0,0,0,1,1.6911e+09
2.0062e+05,1.6912e+09,0,204,-33,343,43,-7,144,0,0,0,1,1.6912e+09
2.0107e+05,1.6913e+09,0,201,-28,352,43,-7,144,0,0,0,1,1.6913e+09
2.0148e+05,1.6914e+09,0,202,-42,349,43,-7,144,0,0,0,1,1.6914e+09
2.0192e+05,1.6915e+09,0,198,-36,348,43,-7,144,0,0,0,1,1.6915e+09
2.0236e+05,1.6916e+09,0,200,-40,347,43,-7,144,0,0,0,1,1.6916e+09
2.0278e+05,1.6917e+09,0,195,-44,348,43,-7,144,0,0,0,1,1.6917e+09
2.0319e+05,1.6919e+09,0,197,-51,348,43,-7,144,0,0,0,1,1.6919e+09
2.0363e+05,1.692e+09,0,191,-50,354,43,-7,144,0,0,0,1,1.692e+09
2.0408e+05,1.6921e+09,0,194,-46,355,43,-7,144,0,0,0,1,1.6921e+09
2.0452e+05,1.6922e+09,0,188,-51,356,43,-7,144,0,0,0,1,1.6922e+09
2.0491e+05,1.6923e+09,0,191,-42,357,43,-7,144,0,0,0,1,1.6923e+09
2.0533e+05,1.6924e+09,0,195,-47,361,43,-7,144,0,0,0,1,1.6924e+09
2.0575e+05,1.6925e+09,0,190,-67,354,43,-7,144,0,0,0,1,1.6925e+09
2.0619e+05,1.6926e+09,0,187,-79,351,43,-7,144,0,0,0,1,1.6926e+09
2.0663e+05,1.6927e+09,0,187,-93,346,43,-7,144,0,0,0,1,1.6927e+09
2.0708e+05,1.6928e+09,0,190,-98,345,43,-7,144,0,0,0,1,1.6928e+09
2.0753e+05,1.6929e+09,0,191,-90,347,43,-7,144,0,0,0,1,1.6929e+09
2.0797e+05,1.693e+09,0,189,-84,348,43,-7,144,0,0,0,1,1.693e+09
2.0841e+05,1.6931e+09,0,191,-83,349,43,-7,144,0,0,0,1,1.6931e+09
2.0885e+05,1.6932e+09,0,197,-74,353,43,-7,144,0,0,0,1,1.6932e+09
2.0926e+05,1.6934e+09,0,195,-73,351,43,-7,144,0,0,0,1,1.6934e+09
2.0968e+05,1.6935e+09,0,204,-66,344,43,-7,144,0,0,0,1,1.6935e+09
2.1008e+05,1.6936e+09,0,201,-79,341,43,-7,144,0,0,0,1,1.6936e+09
2.1053e+05,1.6937e+09,0,204,-92,341,43,-7,144,0,0,0,1,1.6937e+09
2.1093e+05,1.6938e+09,0,201,-99,335,43,-7,144,0,0,0,1,1.6938e+09
2.1138e+05,1.6939e+09,0,197,-102,342,43,-7,144,0,0,0,1,1.6939e+09
2.1182e+05,1.694e+09,0,195,-95,342,43,-7,144,0,0,0,1,1.694e+09
2.1227e+05,1.6941e+09,0,200,-79,344,43,-7,144,0,0,0,1,1.6941e+09
2.1271e+05,1.6942e+09,0,207,-72,336,43,-7,144,0,0,0,1,1.6942e+09
2.1312e+05,1.6943e+09,0,213,-66,342,43,-7,144,0,0,0,1,1.6943e+09
2.1356e+05,1.6944e+09,0,212,-58,339,43,-7,144,0,0,0,1,1.6944e+09
2.1401e+05,1.6945e+09,0,207,-64,341,43,-7,144,0,0,0,1,1.6945e+09
2.1443e+05,1.6946e+09,0,206,-65,341,43,-7,144,0,0,0,1,1.6946e+09
2.1483e+05,1.6947e+09,0,213,-64,340,43,-7,144,0,0,0,1,1.6947e+09
2.1527e+05,1.6949e+09,0,204,-76,346,43,-7,144,0,0,0,1,1.6949e+09
2.1568e+05,1.695e+09,0,204,-74,342,43,-7,144,0,0,0,1,1.695e+09
2.1612e+05,1.6951e+09,0,205,-74,341,43,-7,144,0,0,0,1,1.6951e+09
2.1657e+05,1.6952e+09,0,202,-80,347,43,-7,144,0,0,0,1,1.6952e+09
2.1698e+05,1.6953e+09,0,197,-88,342,43,-7,144,0,0,0,1,1.6953e+09
2.1742e+05,1.6954e+09,0,196,-108,342,43,-7,144,0,0,0,1,1.6954e+09
2.1787e+05,1.6955e+09,0,195,-113,337,43,-7,144,0,0,0,1,1.6955e+09
2.1831e+05,1.6956e+09,0,202,-114,340,43,-7,144,0,0,0,1,1.6956e+09
2.1876e+05,1.6957e+09,0,201,-94,336,43,-7,144,0,0,0,1,1.6957e+09
2.192e+05,1.6958e+09,0,204,-81,338,43,-7,144,0,0,0,1,1.6958e+09
2.1961e+05,1.6959e+09,0,202,-72,344,43,-7,144,0,0,0,1,1.6959e+09
2.2006e+05,1.696e+09,0,200,-71,351,43,-7,144,0,0,0,1,1.696e+09
2.205e+05,1.6961e+09,0,194,-79,353,43,-7,144,0,0,0,1,1.6961e+09
2.2095e+05,1.6963e+09,0,182,-85,351,43,-7,144,0,0,0,1,1.6963e+09
2.2139e+05,1.6964e+09,0,179,-94,352,43,-7,144,0,0,0,1,1.6964e+09
2.218e+05,1.6965e+09,0,181,-102,349,43,-7,144,0,0,0,1,1.6965e+09
2.2224e+05,1.6966e+09,0,184,-105,352,43,-7,144,0,0,0,1,1.6966e+09
2.2267e+05,1.6967e+09,0,182,-94,353,43,-7,144,0,0,0,1,1.6967e+09
2.2309e+05,1.6968e+09,0,180,-97,351,43,-7,144,0,0,0,1,1.6968e+09
2.2353e+05,1.6969e+09,0,179,-93,348,43,-7,144,0,0,0,1,1.6969e+09
2.2397e+05,1.697e+09,0,174,-88,359,43,-7,144,0,0,0,1,1.697e+09
2.2439e+05,1.6971e+09,0,169,-93,359,43,-7,144,0,0,0,1,1.6971e+09
2.2483e+05,1.6972e+09,0,157,-87,367,43,-7,144,0,0,0,1,1.6972e+09
2.2527e+05,1.6973e+09,0,157,-79,373,43,-7,144,0,0,0,1,1.6973e+09
2.2572e+05,1.6974e+09,0,160,-80,374,43,-7,144,0,0,0,1,1.6974e+09
2.2616e+05,1.6975e+09,0,163,-73,367,43,-7,144,0,0,0,1,1.6975e+09
2.266e+05,1.6976e+09,0,169,-70,362,43,-7,144,0,0,0,1,1.6976e+09
2.2702e+05,1.6978e+09,0,183,-74,357,43,-7,144,0,0,0,1,1.6978e+09
2.2745e+05,1.6979e+09,0,184,-79,352,43,-7,144,0,0,0,1,1.6979e+09
2.2787e+05,1.698e+09,0,183,-71,357,43,-7,144,0,0,0,1,1.698e+09
2.2831e+05,1.6981e+09,0,181,-73,362,43,-7,144,0,0,0,1,1.6981e+09
2.2875e+05,1.6982e+09,0,179,-74,360,43,-7,144,0,0,0,1,1.6982e+09
2.292e+05,1.6983e+09,0,176,-66,364,43,-7,144,0,0,0,1,1.6983e+09
2.2964e+05,1.6984e+09,0,171,-64,362,43,-7,144,0,0,0,1,1.6984e+09
2.3009e+05,1.6985e+09,0,172,-57,363,43,-7,144,0,0,0,1,1.6985e+09
2.3053e+05,1.6986e+09,0,167,-54,371,43,-7,144,0,0,0,1,1.6986e+09
2.3094e+05,1.6987e+09,0,163,-58,373,43,-7,144,0,0,0,1,1.6987e+09
2.3138e+05,1.6988e+09,0,167,-64,368,43,-7,144,0,0,0,1,1.6988e+09
2.3183e+05,1.6989e+09,0,171,-68,364,43,-7,144,0,0,0,1,1.6989e+09
2.3226e+05,1.6991e+09,0,171,-77,366,43,-7,144,0,0,0,1,1.6991e+09
2.3268e+05,1.6992e+09,0,170,-74,374,43,-7,144,0,0,0,1,1.6992e+09
2.3312e+05,1.6993e+09,0,166,-79,367,43,-7,144,0,0,0,1,1.6993e+09
2.3354e+05,1.6994e+09,0,164,-77,371,43,-7,144,0,0,0,1,1.6994e+09
2.3398e+05,1.6995e+09,0,164,-77,373,43,-7,144,0,0,0,1,1.6995e+09
2.3443e+05,1.6996e+09,0,155,-73,375,43,-7,144,0,0,0,1,1.6996e+09
2.3487e+05,1.6997e+09,0,149,-71,376,43,-7,144,0,0,0,1,1.6997e+09
2.3528e+05,1.6998e+09,0,146,-62,383,43,-7,144,0,0,0,1,1.6998e+09
2.3573e+05,1.6999e+09,0,149,-59,376,43,-7,144,0,0,0,1,1.6999e+09
2.3614e+05,1.7e+09,0,149,-64,375,43,-7,144,0,0,0,1,1.7e+09
2.3658e+05,1.7001e+09,0,156,-70,373,43,-7,144,0,0,0,1,1.7001e+09
2.3701e+05,1.7002e+09,0,157,-69,373,43,-7,144,0,0,0,1,1.7002e+09
2.3744e+05,1.7003e+09,0,157,-71,373,43,-7,144,0,0,0,1,1.7003e+09
2.3785e+05,1.7004e+09,0,165,-72,371,43,-7,144,0,0,0,1,1.7004e+09
2.3826e+05,1.7006e+09,0,165,-77,363,43,-7,144,0,0,0,1,1.7006e+09
2.3871e+05,1.7007e+09,0,158,-76,366,43,-7,144,0,0,0,1,1.7007e+09
2.3915e+05,1.7008e+09,0,162,-76,371,43,-7,144,0,0,0,1,1.7008e+09
2.396e+05,1.7009e+09,0,164,-76,369,43,-7,144,0,0,0,1,1.7009e+09
2.4004e+05,1.701e+09,0,167,-78,367,43,-7,144,0,0,0,1,1.701e+09
2.4049e+05,1.7011e+09,0,167,-71,363,43,-7,144,0,0,0,1,1.7011e+09
2.4089e+05,1.7012e+09,0,171,-64,364,43,-7,144,0,0,0,1,1.7012e+09
2.4131e+05,1.7013e+09,0,174,-70,362,43,-7,144,0,0,0,1,1.7013e+09
2.4174e+05,1.7014e+09,0,169,-65,362,43,-7,144,0,0,0,1,1.7014e+09
2.4219e+05,1.7015e+09,0,175,-70,369,43,-7,144,0,0,0,1,1.7015e+09
2.4264e+05,1.7016e+09,0,177,-74,361,43,-7,144,0,0,0,1,1.7016e+09
2.4305e+05,1.7018e+09,0,176,-70,362,43,-7,144,0,0,0,1,1.7018e+09
2.4349e+05,1.7019e+09,0,174,-66,362,43,-7,144,0,0,0,1,1.7019e+09
2.439e+05,1.702e+09,0,177,-66,363,43,-7,144,0,0,0,1,1.702e+09
2.4435e+05,1.7021e+09,0,176,-74,360,43,-7,144,0,0,0,1,1.7021e+09
2.4475e+05,1.7022e+09,0,180,-74,361,43,-7,144,0,0,0,1,1.7022e+09
2.4518e+05,1.7023e+09,0,181,-76,362,43,-7,144,0,0,0,1,1.7023e+09
2.456e+05,1.7024e+09,0,178,-78,364,43,-7,144,0,0,0,1,1.7024e+09
2.4605e+05,1.7025e+09,0,176,-78,360,43,-7,144,0,0,0,1,1.7025e+09
2.4646e+05,1.7026e+09,0,178,-71,355,43,-7,144,0,0,0,1,1.7026e+09
2.469e+05,1.7027e+09,0,189,-63,357,43,-7,144,0,0,0,1,1.7027e+09
2.4735e+05,1.7028e+09,0,180,-62,356,43,-7,144,0,0,0,1,1.7028e+09
2.4779e+05,1.7029e+09,0,186,-58,362,43,-7,144,0,0,0,1,1.7029e+09
2.4824e+05,1.703e+09,0,182,-66,359,43,-7,144,0,0,0,1,1.703e+09
2.4865e+05,1.7032e+09,0,185,-67,357,43,-7,144,0,0,0,1,1.7032e+09
2.4907e+05,1.7033e+09,0,187,-71,356,43,-7,144,0,0,0,1,1.7033e+09
2.495e+05,1.7034e+09,0,189,-75,351,43,-7,144,0,0,0,1,1.7034e+09
2.4994e+05,1.7035e+09,0,184,-76,353,43,-7,144,0,0,0,1,1.7035e+09
2.5038e+05,1.7036e+09,0,189,-82,352,43,-7,144,0,0,0,1,1.7036e+09
2.5083e+05,1.7037e+09,0,177,-88,354,43,-7,144,0,0,0,1,1.7037e+09
2.5124e+05,1.7038e+09,0,173,-90,357,43,-7,144,0,0,0,1,1.7038e+09
2.5169e+05,1.7039e+09,0,177,-86,358,43,-7,144,0,0,0,1,1.7039e+09
2.5213e+05,1.704e+09,0,175,-92,359,43,-7,144,0,0,0,1,1.704e+09
2.5258e+05,1.7041e+09,0,178,-89,357,43,-7,144,0,0,0,1,1.7041e+09
2.5302e+05,1.7042e+09,0,190,-85,351,43,-7,144,0,0,0,1,1.7042e+09
2.5346e+05,1.7043e+09,0,207,-83,340,43,-7,144,0,0,0,1,1.7043e+09
2.5387e+05,1.7044e+09,0,228,-82,322,43,-7,144,0,0,0,1,1.7044e+09
2.5432e+05,1.7045e+09,0,240,-79,311,43,-7,144,0,0,0,1,1.7045e+09
2.5476e+05,1.7047e+09,0,245,-67,306,43,-7,144,0,0,0,1,1.7047e+09
2.5521e+05,1.7048e+09,0,239,-69,313,43,-7,144,0,0,0,1,1.7048e+09
2.5565e+05,1.7049e+09,0,233,-69,320,43,-7,144,0,0,0,1,1.7049e+09
2.5609e+05,1.705e+09,0,214,-68,335,43,-7,144,0,0,0,1,1.705e+09
2.5653e+05,1.7051e+09,0,197,-73,345,43,-7,144,0,0,0,1,1.7051e+09
2.5694e+05,1.7052e+09,0,186,-80,351,43,-7,144,0,0,0,1,1.7052e+09
2.5739e+05,1.7053e+09,0,179,-92,356,43,-7,144,0,0,0,1,1.7053e+09
2.578e+05,1.7054e+09,0,178,-92,353,43,-7,144,0,0,0,1,1.7054e+09
2.5822e+05,1.7055e+09,0,183,-82,350,43,-7,144,0,0,0,1,1.7055e+09
2.5866e+05,1.7056e+09,0,184,-85,353,43,-7,144,0,0,0,1,1.7056e+09
2.591e+05,1.7057e+09,0,182,-85,354,43,-7,144,0,0,0,1,1.7057e+09
2.5955e+05,1.7058e+09,0,190,-81,357,43,-7,144,0,0,0,1,1.7058e+09
2.5996e+05,1.7059e+09,0,189,-82,354,43,-7,144,0,0,0,1,1.7059e+09
2.604e+05,1.7061e+09,0,189,-78,352,43,-7,144,0,0,0,1,1.7061e+09
2.6085e+05,1.7062e+09,0,197,-70,348,43,-7,144,0,0,0,1,1.7062e+09
2.6124e+05,1.7063e+09,0,201,-67,342,43,-7,144,0,0,0,1,1.7063e+09
2.6166e+05,1.7064e+09,0,201,-69,345,43,-7,144,0,0,0,1,1.7064e+09
2.6211e+05,1.7065e+09,0,192,-75,349,43,-7,144,0,0,0,1,1.7065e+09
2.6252e+05,1.7066e+09,0,193,-82,346,43,-7,144,0,0,0,1,1.7066e+09
2.6296e+05,1.7067e+09,0,188,-79,351,43,-7,144,0,0,0,1,1.7067e+09
2.634e+05,1.7068e+09,0,185,-75,355,43,-7,144,0,0,0,1,1.7068e+09
2.6385e+05,1.7069e+09,0,183,-85,353,43,-7,144,0,0,0,1,1.7069e+09
2.6426e+05,1.707e+09,0,178,-80,354,43,-7,144,0,0,0,1,1.707e+09
2.6471e+05,1.7071e+09,0,173,-79,359,43,-7,144,0,0,0,1,1.7071e+09
2.6515e+05,1.7072e+09,0,176,-82,362,43,-7,144,0,0,0,1,1.7072e+09
2.6559e+05,1.7073e+09,0,177,-90,357,43,-7,144,0,0,0,1,1.7073e+09
2.66e+05,1.7074e+09,0,177,-106,350,43,-7,144,0,0,0,1,1.7074e+09
2.6645e+05,1.7076e+09,0,178,-108,347,43,-7,144,0,0,0,1,1.7076e+09
2.6689e+05,1.7077e+09,0,186,-112,346,43,-7,144,0,0,0,1,1.7077e+09
2.6733e+05,1.7078e+09,0,185,-105,347,43,-7,144,0,0,0,1,1.7078e+09
2.6778e+05,1.7079e+09,0,191,-102,345,43,-7,144,0,0,0,1,1.7079e+09
2.6822e+05,1.708e+09,0,187,-105,340,43,-7,144,0,0,0,1,1.708e+09
2.6865e+05,1.7081e+09,0,188,-115,345,43,-7,144,0,0,0,1,1.7081e+09
2.6904e+05,1.7082e+09,0,192,-111,344,43,-7,144,0,0,0,1,1.7082e+09
2.6949e+05,1.7083e+09,0,188,-112,343,43,-7,144,0,0,0,1,1.7083e+09
2.699e+05,1.7084e+09,0,195,-109,343,43,-7,144,0,0,0,1,1.7084e+09
2.7034e+05,1.7085e+09,0,189,-109,344,43,-7,144,0,0,0,1,1.7085e+09
2.7078e+05,1.7086e+09,0,184,-113,343,43,-7,144,0,0,0,1,1.7086e+09
2.712e+05,1.7087e+09,0,187,-109,345,43,-7,144,0,0,0,1,1.7087e+09
2.7164e+05,1.7088e+09,0,194,-109,343,43,-7,144,0,0,0,1,1.7088e+09
2.7208e+05,1.709e+09,0,184,-113,346,43,-7,144,0,0,0,1,1.709e+09
2.7253e+05,1.7091e+09,0,191,-111,340,43,-7,144,0,0,0,1,1.7091e+09
2.7297e+05,1.7092e+09,0,185,-112,345,43,-7,144,0,0,0,1,1.7092e+09
2.7336e+05,1.7093e+09,0,185,-109,343,43,-7,144,0,0,0,1,1.7093e+09
2.7379e+05,1.7094e+09,0,182,-108,353,43,-7,144,0,0,0,1,1.7094e+09
2.742e+05,1.7095e+09,0,179,-109,346,43,-7,144,0,0,0,1,1.7095e+09
2.7464e+05,1.7096e+09,0,183,-106,350,43,-7,144,0,0,0,1,1.7096e+09
2.7509e+05,1.7097e+09,0,185,-102,346,43,-7,144,0,0,0,1,1.7097e+09
2.7553e+05,1.7098e+09,0,183,-103,349,43,-7,144,0,0,0,1,1.7098e+09
2.7598e+05,1.7099e+09,0,179,-98,353,43,-7,144,0,0,0,1,1.7099e+09
2.7642e+05,1.71e+09,0,185,-97,348,43,-7,144,0,0,0,1,1.71e+09
2.7686e+05,1.7101e+09,0,182,-103,350,43,-7,144,0,0,0,1,1.7101e+09
2.773e+05,1.7102e+09,0,180,-110,350,43,-7,144,0,0,0,1,1.7102e+09
2.7775e+05,1.7104e+09,0,182,-104,356,43,-7,144,0,0,0,1,1.7104e+09
2.7819e+05,1.7105e+09,0,180,-107,351,43,-7,144,0,0,0,1,1.7105e+09
2.786e+05,1.7106e+09,0,183,-107,348,43,-7,144,0,0,0,1,1.7106e+09
2.7903e+05,1.7107e+09,0,186,-113,343,43,-7,144,0,0,0,1,1.7107e+09
2.7946e+05,1.7108e+09,0,184,-108,344,43,-7,144,0,0,0,1,1.7108e+09
2.799e+05,1.7109e+09,0,191,-113,346,43,-7,144,0,0,0,1,1.7109e+09
2.8034e+05,1.711e+09,0,186,-113,343,43,-7,144,0,0,0,1,1.711e+09
2.8075e+05,1.7111e+09,0,187,-111,346,43,-7,144,0,0,0,1,1.7111e+09
2.8119e+05,1.7112e+09,0,185,-111,346,43,-7,144,0,0,0,1,1.7112e+09
2.8161e+05,1.7113e+09,0,185,-109,351,43,-7,144,0,0,0,1,1.7113e+09
2.8202e+05,1.7114e+09,0,187,-109,347,43,-7,144,0,0,0,1,1.7114e+09
2.8246e+05,1.7115e+09,0,186,-105,343,43,-7,144,0,0,0,1,1.7115e+09
2.8291e+05,1.7116e+09,0,188,-109,344,43,-7,144,0,0,0,1,1.7116e+09
2.8335e+05,1.7117e+09,0,186,-112,351,43,-7,144,0,0,0,1,1.7117e+09
2.8376e+05,1.7119e+09,0,187,-111,350,43,-7,144,0,0,0,1,1.7119e+09
2.8421e+05,1.712e+09,0,183,-104,346,43,-7,144,0,0,0,1,1.712e+09
2.846e+05,1.7121e+09,0,188,-103,346,43,-7,144,0,0,0,1,1.7121e+09
2.8502e+05,1.7122e+09,0,182,-106,347,43,-7,144,0,0,0,1,1.7122e+09
2.8547e+05,1.7123e+09,0,183,-107,350,43,-7,144,0,0,0,1,1.7123e+09
2.8588e+05,1.7124e+09,0,186,-103,351,43,-7,144,0,0,0,1,1.7124e+09
2.8633e+05,1.7125e+09,0,191,-109,348,43,-7,144,0,0,0,1,1.7125e+09
2.8677e+05,1.7126e+09,0,191,-109,350,43,-7,144,0,0,0,1,1.7126e+09
2.8718e+05,1.7127e+09,0,191,-109,346,43,-7,144,0,0,0,1,1.7127e+09
2.8763e+05,1.7128e+09,0,193,-89,345,43,-7,144,0,0,0,1,1.7128e+09
2.8807e+05,1.7129e+09,0,197,-67,352,43,-7,144,0,0,0,1,1.7129e+09
2.8851e+05,1.713e+09,0,198,-47,355,43,-7,144,0,0,0,1,1.713e+09
2.8896e+05,1.7131e+09,0,201,-17,356,43,-7,144,0,0,0,1,1.7131e+09
2.894e+05,1.7132e+09,0,200,16,354,43,-7,144,0,0,0,1,1.7132e+09
2.8984e+05,1.7134e+09,0,203,40,345,43,-7,144,0,0,0,1,1.7134e+09
2.9026e+05,1.7135e+09,0,204,42,343,43,-7,144,0,0,0,1,1.7135e+09
2.907e+05,1.7136e+09,0,202,33,349,43,-7,144,0,0,0,1,1.7136e+09
2.9112e+05,1.7137e+09,0,200,18,353,43,-7,144,0,0,0,1,1.7137e+09
2.9155e+05,1.7138e+09,0,199,5,359,43,-7,144,0,0,0,1,1.7138e+09
2.9199e+05,1.7139e+09,0,192,-3,361,43,-7,144,0,0,0,1,1.7139e+09
2.924e+05,1.714e+09,0,189,-34,359,43,-7,144,0,0,0,1,1.714e+09
2.9285e+05,1.7141e+09,0,182,-75,356,43,-7,144,0,0,0,1,1.7141e+09
2.9329e+05,1.7142e+09,0,180,-92,359,43,-7,144,0,0,0,1,1.7142e+09
2.9373e+05,1.7143e+09,0,183,-100,352,43,-7,144,0,0,0,1,1.7143e+09
2.9417e+05,1.7144e+09,0,175,-102,355,43,-7,144,0,0,0,1,1.7144e+09
2.9459e+05,1.7145e+09,0,180,-96,352,43,-7,144,0,0,0,1,1.7145e+09
2.9503e+05,1.7147e+09,0,180,-88,358,43,-7,144,0,0,0,1,1.7147e+09
2.9548e+05,1.7148e+09,0,189,-85,352,43,-7,144,0,0,0,1,1.7148e+09
2.959e+05,1.7149e+09,0,189,-82,354,43,-7,144,0,0,0,1,1.7149e+09
2.9633e+05,1.715e+09,0,186,-90,357,43,-7,144,0,0,0,1,1.715e+09
2.9674e+05,1.7151e+09,0,189,-86,351,43,-7,144,0,0,0,1,1.7151e+09
2.9715e+05,1.7152e+09,0,191,-81,354,43,-7,144,0,0,0,1,1.7152e+09
2.976e+05,1.7153e+09,0,192,-87,355,43,-7,144,0,0,0,1,1.7153e+09
2.9803e+05,1.7154e+09,0,188,-94,354,43,-7,144,0,0,0,1,1.7154e+09
2.9848e+05,1.7155e+09,0,184,-89,353,43,-7,144,0,0,0,1,1.7155e+09
2.9892e+05,1.7156e+09,0,183,-86,349,43,-7,144,0,0,0,1,1.7156e+09
2.9937e+05,1.7157e+09,0,185,-81,355,43,-7,144,0,0,0,1,1.7157e+09
2.9981e+05,1.7158e+09,0,177,-87,359,43,-7,144,0,0,0,1,1.7158e+09
3.0026e+05,1.7159e+09,0,174,-88,361,43,-7,144,0,0,0,1,1.7159e+09
3.0066e+05,1.716e+09,0,175,-86,366,43,-7,144,0,0,0,1,1.716e+09
3.0111e+05,1.7162e+09,0,176,-80,357,43,-7,144,0,0,0,1,1.7162e+09
3.0153e+05,1.7163e+09,0,197,-76,352,43,-7,144,0,0,0,1,1.7163e+09
3.0192e+05,1.7164e+09,0,206,-77,342,43,-7,144,0,0,0,1,1.7164e+09
3.0237e+05,1.7165e+09,0,202,-79,345,43,-7,144,0,0,0,1,1.7165e+09
3.0281e+05,1.7166e+09,0,196,-76,354,43,-7,144,0,0,0,1,1.7166e+09
3.0326e+05,1.7167e+09,0,184,-76,356,43,-7,144,0,0,0,1,1.7167e+09
3.0367e+05,1.7168e+09,0,180,-67,360,43,-7,144,0,0,0,1,1.7168e+09
3.0411e+05,1.7169e+09,0,180,-63,358,43,-7,144,0,0,0,1,1.7169e+09
3.0456e+05,1.717e+09,0,181,-53,361,43,-7,144,0,0,0,1,1.717e+09
3.05e+05,1.7171e+09,0,181,-35,361,43,-7,144,0,0,0,1,1.7171e+09
3.0544e+05,1.7172e+09,0,188,-26,363,43,-7,144,0,0,0,1,1.7172e+09
3.0588e+05,1.7173e+09,0,189,-28,362,43,-7,144,0,0,0,1,1.7173e+09
3.0632e+05,1.7175e+09,0,192,-44,363,43,-7,144,0,0,0,1,1.7175e+09
3.0677e+05,1.7176e+09,0,191,-52,357,43,-7,144,0,0,0,1,1.7176e+09
3.0718e+05,1.7177e+09,0,201,-52,349,43,-7,144,0,0,0,1,1.7177e+09
3.0763e+05,1.7178e+09,0,205,-54,349,43,-7,144,0,0,0,1,1.7178e+09
3.0805e+05,1.7179e+09,0,209,-61,345,43,-7,144,0,0,0,1,1.7179e+09
3.0849e+05,1.718e+09,0,211,-68,340,43,-7,144,0,0,0,1,1.718e+09
3.0888e+05,1.7181e+09,0,207,-71,340,43,-7,144,0,0,0,1,1.7181e+09
3.0931e+05,1.7182e+09,0,206,-73,343,43,-7,144,0,0,0,1,1.7182e+09
3.0976e+05,1.7183e+09,0,205,-81,346,43,-7,144,0,0,0,1,1.7183e+09
3.102e+05,1.7184e+09,0,197,-79,345,43,-7,144,0,0,0,1,1.7184e+09
3.1064e+05,1.7185e+09,0,199,-81,349,43,-7,144,0,0,0,1,1.7185e+09
3.1106e+05,1.7186e+09,0,196,-87,351,43,-7,144,0,0,0,1,1.7186e+09
3.115e+05,1.7187e+09,0,189,-84,351,43,-7,144,0,0,0,1,1.7187e+09
3.1195e+05,1.7189e+09,0,191,-82,351,43,-7,144,0,0,0,1,1.7189e+09
3.1239e+05,1.719e+09,0,193,-79,347,43,-7,144,0,0,0,1,1.719e+09
3.1316e+05,1.7192e+09,0,184,-89,356,43,-7,144,0,0,0,1,1.7192e+09
3.1361e+05,1.7193e+09,0,180,-82,365,43,-7,144,0,0,0,1,1.7193e+09
3.1404e+05,1.7194e+09,0,177,-55,372,43,-7,144,0,0,0,1,1.7194e+09
3.1443e+05,1.7195e+09,0,178,-34,371,43,-7,144,0,0,0,1,1.7195e+09
3.1486e+05,1.7196e+09,0,175,-22,371,43,-7,144,0,0,0,1,1.7196e+09
3.1531e+05,1.7197e+09,0,179,-31,373,43,-7,144,0,0,0,1,1.7197e+09
3.1575e+05,1.7198e+09,0,174,-36,367,43,-7,144,0,0,0,1,1.7198e+09
3.162e+05,1.7199e+09,0,175,-36,363,43,-7,144,0,0,0,1,1.7199e+09
3.1664e+05,1.72e+09,0,181,-37,362,43,-7,144,0,0,0,1,1.72e+09
3.1706e+05,1.7202e+09,0,189,-34,360,43,-7,144,0,0,0,1,1.7202e+09
3.175e+05,1.7203e+09,0,197,-35,355,43,-7,144,0,0,0,1,1.7203e+09
3.1794e+05,1.7204e+09,0,197,-43,358,43,-7,144,0,0,0,1,1.7204e+09
3.1839e+05,1.7205e+09,0,194,-50,352,43,-7,144,0,0,0,1,1.7205e+09
3.1883e+05,1.7206e+09,0,191,-57,358,43,-7,144,0,0,0,1,1.7206e+09
3.1928e+05,1.7207e+09,0,186,-64,358,43,-7,144,0,0,0,1,1.7207e+09
3.1969e+05,1.7208e+09,0,181,-77,365,43,-7,144,0,0,0,1,1.7208e+09
3.2013e+05,1.7209e+09,0,183,-82,358,43,-7,144,0,0,0,1,1.7209e+09
3.2058e+05,1.721e+09,0,184,-82,357,43,-7,144,0,0,0,1,1.721e+09
3.2102e+05,1.7211e+09,0,188,-84,352,43,-7,144,0,0,0,1,1.7211e+09
3.2142e+05,1.7212e+09,0,185,-84,352,43,-7,144,0,0,0,1,1.7212e+09
3.2185e+05,1.7213e+09,0,182,-82,355,43,-7,144,0,0,0,1,1.7213e+09
3.2228e+05,1.7214e+09,0,186,-74,357,43,-7,144,0,0,0,1,1.7214e+09
3.2273e+05,1.7215e+09,0,181,-79,359,43,-7,144,0,0,0,1,1.7215e+09
3.2317e+05,1.7217e+09,0,178,-82,354,43,-7,144,0,0,0,1,1.7217e+09
3.2361e+05,1.7218e+09,0,176,-80,361,43,-7,144,0,0,0,1,1.7218e+09
3.2406e+05,1.7219e+09,0,173,-90,361,43,-7,144,0,0,0,1,1.7219e+09
3.2447e+05,1.722e+09,0,158,-101,363,43,-7,144,0,0,0,1,1.722e+09
3.2492e+05,1.7221e+09,0,158,-111,366,43,-7,144,0,0,0,1,1.7221e+09
3.2536e+05,1.7222e+09,0,161,-120,358,43,-7,144,0,0,0,1,1.7222e+09
3.258e+05,1.7223e+09,0,163,-111,359,43,-7,144,0,0,0,1,1.7223e+09
3.2621e+05,1.7224e+09,0,162,-101,362,43,-7,144,0,0,0,1,1.7224e+09
3.2666e+05,1.7225e+09,0,162,-100,364,43,-7,144,0,0,0,1,1.7225e+09
3.2709e+05,1.7226e+09,0,164,-98,366,43,-7,144,0,0,0,1,1.7226e+09
3.2754e+05,1.7227e+09,0,162,-93,368,43,-7,144,0,0,0,1,1.7227e+09
3.2795e+05,1.7228e+09,0,159,-88,370,43,-7,144,0,0,0,1,1.7228e+09
3.284e+05,1.7229e+09,0,163,-64,368,43,-7,144,0,0,0,1,1.7229e+09
3.2881e+05,1.723e+09,0,170,-45,369,43,-7,144,0,0,0,1,1.723e+09
3.2925e+05,1.7232e+09,0,176,-35,374,43,-7,144,0,0,0,1,1.7232e+09
3.2968e+05,1.7233e+09,0,183,-38,369,43,-7,144,0,0,0,1,1.7233e+09
3.301e+05,1.7234e+09,0,185,-43,365,43,-7,144,0,0,0,1,1.7234e+09
3.3054e+05,1.7235e+09,0,186,-63,359,43,-7,144,0,0,0,1,1.7235e+09
3.3098e+05,1.7236e+09,0,181,-79,358,43,-7,144,0,0,0,1,1.7236e+09
3.3143e+05,1.7237e+09,0,183,-88,352,43,-7,144,0,0,0,1,1.7237e+09
3.3184e+05,1.7238e+09,0,181,-87,354,43,-7,144,0,0,0,1,1.7238e+09
3.3229e+05,1.7239e+09,0,187,-88,353,43,-7,144,0,0,0,1,1.7239e+09
3.3273e+05,1.724e+09,0,194,-85,349,43,-7,144,0,0,0,1,1.724e+09
3.3317e+05,1.7241e+09,0,198,-82,344,43,-7,144,0,0,0,1,1.7241e+09
3.3362e+05,1.7242e+09,0,202,-74,343,43,-7,144,0,0,0,1,1.7242e+09
3.3403e+05,1.7243e+09,0,206,-69,346,43,-7,144,0,0,0,1,1.7243e+09
3.3444e+05,1.7244e+09,0,200,-67,341,43,-7,144,0,0,0,1,1.7244e+09
3.3488e+05,1.7245e+09,0,203,-67,344,43,-7,144,0,0,0,1,1.7245e+09
3.3533e+05,1.7247e+09,0,201,-74,343,43,-7,144,0,0,0,1,1.7247e+09
3.3574e+05,1.7248e+09,0,200,-71,352,43,-7,144,0,0,0,1,1.7248e+09
3.3618e+05,1.7249e+09,0,198,-75,350,43,-7,144,0,0,0,1,1.7249e+09
3.3662e+05,1.725e+09,0,193,-70,355,43,-7,144,0,0,0,1,1.725e+09
3.3707e+05,1.7251e+09,0,195,-67,357,43,-7,144,0,0,0,1,1.7251e+09
3.3748e+05,1.7252e+09,0,197,-69,352,43,-7,144,0,0,0,1,1.7252e+09
3.3793e+05,1.7253e+09,0,196,-72,352,43,-7,144,0,0,0,1,1.7253e+09
3.3837e+05,1.7254e+09,0,192,-78,352,43,-7,144,0,0,0,1,1.7254e+09
3.3878e+05,1.7255e+09,0,193,-74,352,43,-7,144,0,0,0,1,1.7255e+09
3.3922e+05,1.7256e+09,0,188,-70,357,43,-7,144,0,0,0,1,1.7256e+09
3.3967e+05,1.7257e+09,0,183,-74,365,43,-7,144,0,0,0,1,1.7257e+09
3.401e+05,1.7258e+09,0,188,-69,361,43,-7,144,0,0,0,1,1.7258e+09
3.4053e+05,1.7259e+09,0,186,-65,357,43,-7,144,0,0,0,1,1.7259e+09
3.4096e+05,1.726e+09,0,187,-71,358,43,-7,144,0,0,0,1,1.726e+09
3.4141e+05,1.7262e+09,0,182,-78,354,43,-7,144,0,0,0,1,1.7262e+09
3.4185e+05,1.7263e+09,0,200,-82,349,43,-7,144,0,0,0,1,1.7263e+09
3.4226e+05,1.7264e+09,0,202,-78,343,43,-7,144,0,0,0,1,1.7264e+09
3.4271e+05,1.7265e+09,0,204,-72,339,43,-7,144,0,0,0,1,1.7265e+09
3.4315e+05,1.7266e+09,0,203,-68,348,43,-7,144,0,0,0,1,1.7266e+09
3.436e+05,1.7267e+09,0,200,-72,350,43,-7,144,0,0,0,1,1.7267e+09
3.44e+05,1.7268e+09,0,189,-68,357,43,-7,144,0,0,0,1,1.7268e+09
3.4445e+05,1.7269e+09,0,184,-70,357,43,-7,144,0,0,0,1,1.7269e+09
3.4486e+05,1.727e+09,0,185,-65,359,43,-7,144,0,0,0,1,1.727e+09
3.453e+05,1.7271e+09,0,187,-65,362,43,-7,144,0,0,0,1,1.7271e+09
3.4575e+05,1.7272e+09,0,184,-58,359,43,-7,144,0,0,0,1,1.7272e+09
3.4619e+05,1.7273e+09,0,188,-47,359,43,-7,144,0,0,0,1,1.7273e+09
3.4664e+05,1.7274e+09,0,185,-44,360,43,-7,144,0,0,0,1,1.7274e+09
3.4704e+05,1.7276e+09,0,183,-52,363,43,-7,144,0,0,0,1,1.7276e+09
3.4747e+05,1.7277e+09,0,185,-52,357,43,-7,144,0,0,0,1,1.7277e+09
3.4789e+05,1.7278e+09,0,183,-52,358,43,-7,144,0,0,0,1,1.7278e+09
3.4831e+05,1.7279e+09,0,192,-57,356,43,-7,144,0,0,0,1,1.7279e+09
3.4875e+05,1.728e+09,0,183,-73,358,43,-7,144,0,0,0,1,1.728e+09
3.492e+05,1.7281e+09,0,179,-80,357,43,-7,144,0,0,0,1,1.7281e+09
3.4964e+05,1.7282e+09,0,184,-81,353,43,-7,144,0,0,0,1,1.7282e+09
3.5008e+05,1.7283e+09,0,194,-77,351,43,-7,144,0,0,0,1,1.7283e+09
3.5049e+05,1.7284e+09,0,198,-67,353,43,-7,144,0,0,0,1,1.7284e+09
3.5094e+05,1.7285e+09,0,196,-64,353,43,-7,144,0,0,0,1,1.7285e+09
3.5135e+05,1.7286e+09,0,201,-57,349,43,-7,144,0,0,0,1,1.7286e+09
3.5179e+05,1.7287e+09,0,206,-58,352,43,-7,144,0,0,0,1,1.7287e+09
3.5223e+05,1.7288e+09,0,203,-49,350,43,-7,144,0,0,0,1,1.7288e+09
3.5268e+05,1.729e+09,0,205,-36,351,43,-7,144,0,0,0,1,1.729e+09
3.5309e+05,1.7291e+09,0,203,-36,351,43,-7,144,0,0,0,1,1.7291e+09
3.535e+05,1.7292e+09,0,203,-31,353,43,-7,144,0,0,0,1,1.7292e+09
3.5394e+05,1.7293e+09,0,205,-37,353,43,-7,144,0,0,0,1,1.7293e+09
3.5438e+05,1.7294e+09,0,205,-35,354,43,-7,144,0,0,0,1,1.7294e+09
3.5481e+05,1.7295e+09,0,200,-40,357,43,-7,144,0,0,0,1,1.7295e+09
3.5521e+05,1.7296e+09,0,195,-43,351,43,-7,144,0,0,0,1,1.7296e+09
3.5566e+05,1.7297e+09,0,195,-45,357,43,-7,144,0,0,0,1,1.7297e+09
3.561e+05,1.7298e+09,0,202,-49,352,43,-7,144,0,0,0,1,1.7298e+09
3.5655e+05,1.7299e+09,0,207,-45,341,43,-7,144,0,0,0,1,1.7299e+09
3.5699e+05,1.73e+09,0,205,-41,348,43,-7,144,0,0,0,1,1.73e+09
3.574e+05,1.7301e+09,0,207,-44,347,43,-7,144,0,0,0,1,1.7301e+09
3.5784e+05,1.7302e+09,0,211,-47,347,43,-7,144,0,0,0,1,1.7302e+09
3.5829e+05,1.7304e+09,0,203,-50,348,43,-7,144,0,0,0,1,1.7304e+09
3.587e+05,1.7305e+09,0,204,-53,350,43,-7,144,0,0,0,1,1.7305e+09
3.5914e+05,1.7306e+09,0,196,-55,354,43,-7,144,0,0,0,1,1.7306e+09
3.5959e+05,1.7307e+09,0,192,-55,351,43,-7,144,0,0,0,1,1.7307e+09
3.6e+05,1.7308e+09,0,184,-63,360,43,-7,144,0,0,0,1,1.7308e+09
3.6045e+05,1.7309e+09,0,183,-71,359,43,-7,144,0,0,0,1,1.7309e+09
3.6085e+05,1.731e+09,0,183,-87,358,43,-7,144,0,0,0,1,1.731e+09
3.6128e+05,1.7311e+09,0,177,-95,356,43,-7,144,0,0,0,1,1.7311e+09
3.6168e+05,1.7312e+09,0,188,-89,353,43,-7,144,0,0,0,1,1.7312e+09
3.6212e+05,1.7313e+09,0,187,-80,351,43,-7,144,0,0,0,1,1.7313e+09
3.6256e+05,1.7314e+09,0,183,-77,351,43,-7,144,0,0,0,1,1.7314e+09
3.6301e+05,1.7315e+09,0,193,-59,355,43,-7,144,0,0,0,1,1.7315e+09
3.6345e+05,1.7316e+09,0,193,-46,354,43,-7,144,0,0,0,1,1.7316e+09
3.6387e+05,1.7317e+09,0,192,-40,355,43,-7,144,0,0,0,1,1.7317e+09
3.6431e+05,1.7319e+09,0,193,-43,351,43,-7,144,0,0,0,1,1.7319e+09
3.6472e+05,1.732e+09,0,197,-47,353,43,-7,144,0,0,0,1,1.732e+09
3.6516e+05,1.7321e+09,0,202,-54,345,43,-7,144,0,0,0,1,1.7321e+09
3.6561e+05,1.7322e+09,0,199,-56,349,43,-7,144,0,0,0,1,1.7322e+09
3.6602e+05,1.7323e+09,0,202,-64,347,43,-7,144,0,0,0,1,1.7323e+09
3.6645e+05,1.7324e+09,0,199,-58,353,43,-7,144,0,0,0,1,1.7324e+09
3.6688e+05,1.7325e+09,0,201,-56,349,43,-7,144,0,0,0,1,1.7325e+09
3.6728e+05,1.7326e+09,0,195,-48,357,43,-7,144,0,0,0,1,1.7326e+09
3.6772e+05,1.7327e+09,0,189,-58,357,43,-7,144,0,0,0,1,1.7327e+09
3.6816e+05,1.7328e+09,0,186,-63,365,43,-7,144,0,0,0,1,1.7328e+09
3.6861e+05,1.7329e+09,0,185,-63,360,43,-7,144,0,0,0,1,1.7329e+09
3.6905e+05,1.733e+09,0,186,-69,363,43,-7,144,0,0,0,1,1.733e+09
3.6947e+05,1.7331e+09,0,183,-67,354,43,-7,144,0,0,0,1,1.7331e+09
3.6991e+05,1.7333e+09,0,194,-70,354,43,-7,144,0,0,0,1,1.7333e+09
3.7035e+05,1.7334e+09,0,192,-61,357,43,-7,144,0,0,0,1,1.7334e+09
3.708e+05,1.7335e+09,0,192,-55,351,43,-7,144,0,0,0,1,1.7335e+09
3.7124e+05,1.7336e+09,0,193,-52,357,43,-7,144,0,0,0,1,1.7336e+09
3.7165e+05,1.7337e+09,0,197,-58,351,43,-7,144,0,0,0,1,1.7337e+09
3.7209e+05,1.7338e+09,0,198,-55,356,43,-7,144,0,0,0,1,1.7338e+09
3.7254e+05,1.7339e+09,0,195,-65,352,43,-7,144,0,0,0,1,1.7339e+09
3.7294e+05,1.734e+09,0,187,-61,359,43,-7,144,0,0,0,1,1.734e+09
3.7337e+05,1.7341e+09,0,185,-60,360,43,-7,144,0,0,0,1,1.7341e+09
3.738e+05,1.7342e+09,0,190,-62,360,43,-7,144,0,0,0,1,1.7342e+09
3.7425e+05,1.7343e+09,0,186,-58,356,43,-7,144,0,0,0,1,1.7343e+09
3.7469e+05,1.7344e+09,0,188,-63,360,43,-7,144,0,0,0,1,1.7344e+09
3.7513e+05,1.7345e+09,0,184,-62,360,43,-7,144,0,0,0,1,1.7345e+09
3.7555e+05,1.7346e+09,0,181,-61,362,43,-7,144,0,0,0,1,1.7346e+09
3.76e+05,1.7348e+09,0,180,-70,358,43,-7,144,0,0,0,1,1.7348e+09
3.7644e+05,1.7349e+09,0,183,-72,356,43,-7,144,0,0,0,1,1.7349e+09
3.7685e+05,1.735e+09,0,177,-71,360,43,-7,144,0,0,0,1,1.735e+09
3.773e+05,1.7351e+09,0,182,-71,359,43,-7,144,0,0,0,1,1.7351e+09
3.7773e+05,1.7352e+09,0,181,-73,362,43,-7,144,0,0,0,1,1.7352e+09
3.7816e+05,1.7353e+09,0,180,-75,356,43,-7,144,0,0,0,1,1.7353e+09
3.7859e+05,1.7354e+09,0,182,-76,355,43,-7,144,0,0,0,1,1.7354e+09
3.7903e+05,1.7355e+09,0,185,-75,359,43,-7,144,0,0,0,1,1.7355e+09
3.7944e+05,1.7356e+09,0,177,-72,356,43,-7,144,0,0,0,1,1.7356e+09
3.7989e+05,1.7357e+09,0,179,-69,361,43,-7,144,0,0,0,1,1.7357e+09
3.8033e+05,1.7358e+09,0,174,-68,365,43,-7,144,0,0,0,1,1.7358e+09
3.8078e+05,1.7359e+09,0,178,-74,358,43,-7,144,0,0,0,1,1.7359e+09
3.8119e+05,1.736e+09,0,185,-72,358,43,-7,144,0,0,0,1,1.736e+09
3.8164e+05,1.7361e+09,0,190,-63,355,43,-7,144,0,0,0,1,1.7361e+09
3.8207e+05,1.7363e+09,0,187,-54,357,43,-7,144,0,0,0,1,1.7363e+09
3.8251e+05,1.7364e+09,0,188,-41,366,43,-7,144,0,0,0,1,1.7364e+09
3.8288e+05,1.7365e+09,0,186,-32,368,43,-7,144,0,0,0,1,1.7365e+09
3.8328e+05,1.7366e+09,0,187,-39,360,43,-7,144,0,0,0,1,1.7366e+09
3.8372e+05,1.7367e+09,0,184,-46,360,43,-7,144,0,0,0,1,1.7367e+09
3.8416e+05,1.7368e+09,0,182,-65,354,43,-7,144,0,0,0,1,1.7368e+09
3.8461e+05,1.7369e+09,0,185,-81,359,43,-7,144,0,0,0,1,1.7369e+09
3.8502e+05,1.737e+09,0,175,-85,354,43,-7,144,0,0,0,1,1.737e+09
3.8546e+05,1.7371e+09,0,174,-84,358,43,-7,144,0,0,0,1,1.7371e+09
3.8587e+05,1.7372e+09,0,174,-76,363,43,-7,144,0,0,0,1,1.7372e+09
3.8632e+05,1.7373e+09,0,184,-83,358,43,-7,144,0,0,0,1,1.7373e+09
3.8676e+05,1.7374e+09,0,186,-75,358,43,-7,144,0,0,0,1,1.7374e+09
3.8717e+05,1.7375e+09,0,184,-74,354,43,-7,144,0,0,0,1,1.7375e+09
3.876e+05,1.7376e+09,0,196,-75,344,43,-7,144,0,0,0,1,1.7376e+09
3.8799e+05,1.7378e+09,0,204,-69,345,43,-7,144,0,0,0,1,1.7378e+09
3.8844e+05,1.7379e+09,0,202,-68,346,43,-7,144,0,0,0,1,1.7379e+09
3.8885e+05,1.738e+09,0,196,-59,354,43,-7,144,0,0,0,1,1.738e+09
3.893e+05,1.7381e+09,0,190,-60,350,43,-7,144,0,0,0,1,1.7381e+09
3.8974e+05,1.7382e+09,0,190,-68,354,43,-7,144,0,0,0,1,1.7382e+09
3.9018e+05,1.7383e+09,0,186,-69,351,43,-7,144,0,0,0,1,1.7383e+09
3.9062e+05,1.7384e+09,0,189,-73,351,43,-7,144,0,0,0,1,1.7384e+09
3.9107e+05,1.7385e+09,0,187,-68,357,43,-7,144,0,0,0,1,1.7385e+09
3.9151e+05,1.7386e+09,0,182,-70,363,43,-7,144,0,0,0,1,1.7386e+09
3.9192e+05,1.7387e+09,0,178,-71,361,43,-7,144,0,0,0,1,1.7387e+09
3.9236e+05,1.7388e+09,0,183,-63,356,43,-7,144,0,0,0,1,1.7388e+09
3.9278e+05,1.7389e+09,0,189,-57,355,43,-7,144,0,0,0,1,1.7389e+09
3.9318e+05,1.739e+09,0,188,-70,355,43,-7,144,0,0,0,1,1.739e+09
3.936e+05,1.7391e+09,0,188,-72,354,43,-7,144,0,0,0,1,1.7391e+09
3.9404e+05,1.7393e+09,0,187,-70,352,43,-7,144,0,0,0,1,1.7393e+09
3.9449e+05,1.7394e+09,0,192,-67,356,43,-7,144,0,0,0,1,1.7394e+09
3.9493e+05,1.7395e+09,0,194,-62,357,43,-7,144,0,0,0,1,1.7395e+09
3.9537e+05,1.7396e+09,0,190,-65,351,43,-7,144,0,0,0,1,1.7396e+09
3.9581e+05,1.7397e+09,0,186,-72,358,43,-7,144,0,0,0,1,1.7397e+09
3.9625e+05,1.7398e+09,0,185,-71,351,43,-7,144,0,0,0,1,1.7398e+09
3.967e+05,1.7399e+09,0,184,-70,359,43,-7,144,0,0,0,1,1.7399e+09
3.9714e+05,1.74e+09,0,178,-67,360,43,-7,144,0,0,0,1,1.74e+09
3.9759e+05,1.7401e+09,0,181,-60,364,43,-7,144,0,0,0,1,1.7401e+09
3.98e+05,1.7402e+09,0,180,-56,364,43,-7,144,0,0,0,1,1.7402e+09
3.9844e+05,1.7403e+09,0,187,-56,363,43,-7,144,0,0,0,1,1.7403e+09
3.9889e+05,1.7404e+09,0,184,-58,360,43,-7,144,0,0,0,1,1.7404e+09
3.993e+05,1.7405e+09,0,187,-62,359,43,-7,144,0,0,0,1,1.7405e+09
3.9974e+05,1.7406e+09,0,187,-60,360,43,-7,144,0,0,0,1,1.7406e+09
4.0019e+05,1.7408e+09,0,182,-57,361,43,-7,144,0,0,0,1,1.7408e+09
4.006e+05,1.7409e+09,0,187,-61,356,43,-7,144,0,0,0,1,1.7409e+09
4.0104e+05,1.741e+09,0,183,-56,355,43,-7,144,0,0,0,1,1.741e+09
4.0149e+05,1.7411e+09,0,184,-56,359,43,-7,144,0,0,0,1,1.7411e+09
4.0193e+05,1.7412e+09,0,193,-55,357,43,-7,144,0,0,0,1,1.7412e+09
4.0237e+05,1.7413e+09,0,189,-64,353,43,-7,144,0,0,0,1,1.7413e+09
4.0281e+05,1.7414e+09,0,183,-66,358,43,-7,144,0,0,0,1,1.7414e+09
4.0326e+05,1.7415e+09,0,175,-79,358,43,-7,144,0,0,0,1,1.7415e+09
4.0367e+05,1.7416e+09,0,176,-89,361,43,-7,144,0,0,0,1,1.7416e+09
4.0411e+05,1.7417e+09,0,169,-94,356,43,-7,144,0,0,0,1,1.7417e+09
4.0452e+05,1.7418e+09,0,180,-97,354,43,-7,144,0,0,0,1,1.7418e+09
4.0497e+05,1.7419e+09,0,174,-91,353,43,-7,144,0,0,0,1,1.7419e+09
4.0541e+05,1.742e+09,0,174,-87,354,43,-7,144,0,0,0,1,1.742e+09
4.0582e+05,1.7421e+09,0,182,-75,355,43,-7,144,0,0,0,1,1.7421e+09
4.0626e+05,1.7423e+09,0,177,-59,360,43,-7,144,0,0,0,1,1.7423e+09
4.0671e+05,1.7424e+09,0,175,-60,363,43,-7,144,0,0,0,1,1.7424e+09
4.0713e+05,1.7425e+09,0,176,-60,364,43,-7,144,0,0,0,1,1.7425e+09
4.0756e+05,1.7426e+09,0,174,-58,358,43,-7,144,0,0,0,1,1.7426e+09
4.08e+05,1.7427e+09,0,185,-73,354,43,-7,144,0,0,0,1,1.7427e+09
4.0845e+05,1.7428e+09,0,184,-69,353,43,-7,144,0,0,0,1,1.7428e+09
4.0889e+05,1.7429e+09,0,182,-74,359,43,-7,144,0,0,0,1,1.7429e+09
4.0934e+05,1.743e+09,0,179,-72,360,43,-7,144,0,0,0,1,1.743e+09
4.0975e+05,1.7431e+09,0,182,-72,362,43,-7,144,0,0,0,1,1.7431e+09
4.1019e+05,1.7432e+09,0,180,-69,356,43,-7,144,0,0,0,1,1.7432e+09
4.106e+05,1.7433e+09,0,182,-54,360,43,-7,144,0,0,0,1,1.7433e+09
