LineNo,TimeUS,I,MagX,MagY,MagZ,OfsX,OfsY,OfsZ,MOX,MOY,MOZ,Health,S
1085,1.6421e+09,1,127,-10,298,47,-57,-99,0,0,0,1,1.6421e+09
2016,1.6424e+09,1,127,-9,300,47,-57,-99,0,0,0,1,1.6424e+09
2449,1.6425e+09,1,127,-10,299,47,-57,-99,0,0,0,1,1.6425e+09
2859,1.6426e+09,1,127,-11,298,47,-57,-99,0,0,0,1,1.6426e+09
3312,1.6427e+09,1,128,-9,301,47,-57,-99,0,0,0,1,1.6427e+09
3763,1.6428e+09,1,127,-9,298,47,-57,-99,0,0,0,1,1.6428e+09
4214,1.6429e+09,1,127,-10,299,47,-57,-99,0,0,0,1,1.6429e+09
4647,1.643e+09,1,127,-9,298,47,-57,-99,0,0,0,1,1.643e+09
5082,1.6431e+09,1,127,-9,297,47,-57,-99,0,0,0,1,1.6431e+09
5522,1.6432e+09,1,128,-8,300,47,-57,-99,0,0,0,1,1.6432e+09
5976,1.6433e+09,1,127,-9,300,47,-57,-99,0,0,0,1,1.6433e+09
6392,1.6434e+09,1,126,-12,301,47,-57,-99,0,0,0,1,1.6434e+09
6843,1.6435e+09,1,126,-13,301,47,-57,-99,0,0,0,1,1.6435e+09
7247,1.6436e+09,1,126,-17,305,47,-57,-99,0,0,0,1,1.6436e+09
7678,1.6437e+09,1,125,-18,304,47,-57,-99,0,0,0,1,1.6437e+09
8128,1.6438e+09,1,125,-14,301,47,-57,-99,0,0,0,1,1.6438e+09
8581,1.6439e+09,1,126,-12,302,47,-57,-99,0,0,0,1,1.6439e+09
9026,1.644e+09,1,126,-12,301,47,-57,-99,0,0,0,1,1.644e+09
9477,1.6441e+09,1,127,-13,301,47,-57,-99,0,0,0,1,1.6441e+09
9877,1.6442e+09,1,126,-13,303,47,-57,-99,0,0,0,1,1.6442e+09
10311,1.6444e+09,1,126,-13,304,47,-57,-99,0,0,0,1,1.6444e+09
10763,1.6445e+09,1,126,-13,300,47,-57,-99,0,0,0,1,1.6445e+09
11211,1.6446e+09,1,126,-12,302,47,-57,-99,0,0,0,1,1.6446e+09
11666,1.6447e+09,1,126,-15,302,47,-57,-99,0,0,0,1,1.6447e+09
12114,1.6448e+09,1,127,-16,302,47,-57,-99,0,0,0,1,1.6448e+09
12549,1.6449e+09,1,126,-16,301,47,-57,-99,0,0,0,1,1.6449e+09
12949,1.645e+09,1,126,-13,302,47,-57,-99,0,0,0,1,1.645e+09
13399,1.6451e+09,1,126,-15,301,47,-57,-99,0,0,0,1,1.6451e+09
13632,1.6452e+09,1,126,-15,304,47,-57,-99,0,0,0,1,1.6452e+09
14054,1.6453e+09,1,126,-16,303,47,-57,-99,0,0,0,1,1.6453e+09
14497,1.6454e+09,1,127,-16,298,47,-57,-99,0,0,0,1,1.6454e+09
14928,1.6455e+09,1,126,-12,298,47,-57,-99,0,0,0,1,1.6455e+09
15362,1.6456e+09,1,126,-16,300,47,-57,-99,0,0,0,1,1.6456e+09
15783,1.6457e+09,1,126,-17,299,47,-57,-99,0,0,0,1,1.6457e+09
16235,1.6458e+09,1,126,-15,300,47,-57,-99,0,0,0,1,1.6458e+09
16687,1.6459e+09,1,126,-18,297,47,-57,-99,0,0,0,1,1.6459e+09
17128,1.646e+09,1,127,-15,303,47,-57,-99,0,0,0,1,1.646e+09
17559,1.6461e+09,1,127,-17,299,47,-57,-99,0,0,0,1,1.6461e+09
17969,1.6462e+09,1,127,-16,300,47,-57,-99,0,0,0,1,1.6462e+09
18392,1.6463e+09,1,127,-14,298,47,-57,-99,0,0,0,1,1.6463e+09
18840,1.6464e+09,1,127,-19,296,47,-57,-99,0,0,0,1,1.6464e+09
19292,1.6465e+09,1,126,-16,297,47,-57,-99,0,0,0,1,1.6465e+09
19730,1.6466e+09,1,127,-17,297,47,-57,-99,0,0,0,1,1.6466e+09
20135,1.6467e+09,1,126,-14,297,47,-57,-99,0,0,0,1,1.6467e+09
20579,1.6468e+09,1,126,-19,298,47,-57,-99,0,0,0,1,1.6468e+09
21034,1.6469e+09,1,128,-16,298,47,-57,-99,0,0,0,1,1.6469e+09
21450,1.647e+09,1,126,-15,298,47,-57,-99,0,0,0,1,1.647e+09
21904,1.6471e+09,1,126,-18,301,47,-57,-99,0,0,0,1,1.6471e+09
22336,1.6472e+09,1,126,-18,297,47,-57,-99,0,0,0,1,1.6472e+09
22770,1.6473e+09,1,127,-16,296,47,-57,-99,0,0,0,1,1.6473e+09
23188,1.6475e+09,1,127,-18,293,47,-57,-99,0,0,0,1,1.6475e+09
23637,1.6476e+09,1,127,-15,297,47,-57,-99,0,0,0,1,1.6476e+09
24090,1.6477e+09,1,125,-22,303,47,-57,-99,0,0,0,1,1.6477e+09
24543,1.6478e+09,1,123,-35,309,47,-57,-99,0,0,0,1,1.6478e+09
24978,1.6479e+09,1,122,-35,313,47,-57,-99,0,0,0,1,1.6479e+09
25409,1.648e+09,1,126,-24,303,47,-57,-99,0,0,0,1,1.648e+09
25862,1.6481e+09,1,123,-32,308,47,-57,-99,0,0,0,1,1.6481e+09
26311,1.6482e+09,1,117,-51,326,47,-57,-99,0,0,0,1,1.6482e+09
26764,1.6483e+09,1,117,-58,337,47,-57,-99,0,0,0,1,1.6483e+09
27205,1.6484e+09,1,108,-78,358,47,-57,-99,0,0,0,1,1.6484e+09
27607,1.6485e+09,1,102,-101,380,47,-57,-99,0,0,0,1,1.6485e+09
28044,1.6486e+09,1,95,-129,404,47,-57,-99,0,0,0,1,1.6486e+09
28497,1.6487e+09,1,89,-134,415,47,-57,-99,0,0,0,1,1.6487e+09
28917,1.6488e+09,1,80,-159,443,47,-57,-99,0,0,0,1,1.6488e+09
29370,1.6489e+09,1,90,-148,437,47,-57,-99,0,0,0,1,1.6489e+09
29804,1.649e+09,1,111,-118,396,47,-57,-99,0,0,0,1,1.649e+09
30237,1.6491e+09,1,119,-115,392,47,-57,-99,0,0,0,1,1.6491e+09
30680,1.6492e+09,1,115,-130,396,47,-57,-99,0,0,0,1,1.6492e+09
31132,1.6493e+09,1,116,-148,396,47,-57,-99,0,0,0,1,1.6493e+09
31549,1.6495e+09,1,102,-161,408,47,-57,-99,0,0,0,1,1.6495e+09
31996,1.6496e+09,1,98,-178,412,47,-57,-99,0,0,0,1,1.6496e+09
32448,1.6497e+09,1,93,-192,408,47,-57,-99,0,0,0,1,1.6497e+09
32898,1.6498e+09,1,89,-187,415,47,-57,-99,0,0,0,1,1.6498e+09
33331,1.6499e+09,1,82,-188,420,47,-57,-99,0,0,0,1,1.6499e+09
33767,1.65e+09,1,89,-187,423,47,-57,-99,0,0,0,1,1.65e+09
34219,1.6501e+09,1,97,-169,411,47,-57,-99,0,0,0,1,1.6501e+09
34668,1.6502e+09,1,104,-147,403,47,-57,-99,0,0,0,1,1.6502e+09
35120,1.6503e+09,1,103,-147,406,47,-57,-99,0,0,0,1,1.6503e+09
35560,1.6504e+09,1,105,-145,413,47,-57,-99,0,0,0,1,1.6504e+09
35994,1.6505e+09,1,102,-148,407,47,-57,-99,0,0,0,1,1.6505e+09
36400,1.6506e+09,1,106,-143,406,47,-57,-99,0,0,0,1,1.6506e+09
36852,1.6507e+09,1,104,-164,418,47,-57,-99,0,0,0,1,1.6507e+09
37303,1.6508e+09,1,101,-161,417,47,-57,-99,0,0,0,1,1.6508e+09
37754,1.6509e+09,1,100,-158,412,47,-57,-99,0,0,0,1,1.6509e+09
38205,1.651e+09,1,105,-145,406,47,-57,-99,0,0,0,1,1.651e+09
38625,1.6511e+09,1,95,-167,421,47,-57,-99,0,0,0,1,1.6511e+09
39057,1.6513e+09,1,100,-166,414,47,-57,-99,0,0,0,1,1.6513e+09
39484,1.6514e+09,1,100,-174,412,47,-57,-99,0,0,0,1,1.6514e+09
39937,1.6515e+09,1,104,-196,421,47,-57,-99,0,0,0,1,1.6515e+09
40383,1.6516e+09,1,106,-188,415,47,-57,-99,0,0,0,1,1.6516e+09
40836,1.6517e+09,1,113,-168,401,47,-57,-99,0,0,0,1,1.6517e+09
41253,1.6518e+09,1,111,-161,401,47,-57,-99,0,0,0,1,1.6518e+09
41706,1.6519e+09,1,110,-164,400,47,-57,-99,0,0,0,1,1.6519e+09
42150,1.652e+09,1,116,-151,392,47,-57,-99,0,0,0,1,1.652e+09
42576,1.6521e+09,1,115,-152,386,47,-57,-99,0,0,0,1,1.6521e+09
43008,1.6522e+09,1,119,-156,386,47,-57,-99,0,0,0,1,1.6522e+09
43422,1.6523e+09,1,115,-161,395,47,-57,-99,0,0,0,1,1.6523e+09
43864,1.6524e+09,1,131,-153,379,47,-57,-99,0,0,0,1,1.6524e+09
44310,1.6525e+09,1,137,-154,377,47,-57,-99,0,0,0,1,1.6525e+09
44753,1.6526e+09,1,135,-161,383,47,-57,-99,0,0,0,1,1.6526e+09
45196,1.6528e+09,1,126,-156,389,47,-57,-99,0,0,0,1,1.6528e+09
45643,1.6529e+09,1,121,-146,386,47,-57,-99,0,0,0,1,1.6529e+09
46087,1.653e+09,1,116,-124,391,47,-57,-99,0,0,0,1,1.653e+09
46513,1.6531e+09,1,121,-110,384,47,-57,-99,0,0,0,1,1.6531e+09
46910,1.6532e+09,1,127,-99,374,47,-57,-99,0,0,0,1,1.6532e+09
47358,1.6533e+09,1,139,-105,361,47,-57,-99,0,0,0,1,1.6533e+09
47800,1.6534e+09,1,132,-121,373,47,-57,-99,0,0,0,1,1.6534e+09
48243,1.6535e+09,1,126,-139,382,47,-57,-99,0,0,0,1,1.6535e+09
48683,1.6536e+09,1,117,-139,388,47,-57,-99,0,0,0,1,1.6536e+09
49100,1.6537e+09,1,115,-144,387,47,-57,-99,0,0,0,1,1.6537e+09
49543,1.6538e+09,1,105,-133,402,47,-57,-99,0,0,0,1,1.6538e+09
49989,1.6539e+09,1,112,-120,387,47,-57,-99,0,0,0,1,1.6539e+09
50398,1.654e+09,1,111,-117,388,47,-57,-99,0,0,0,1,1.654e+09
50841,1.6542e+09,1,110,-132,393,47,-57,-99,0,0,0,1,1.6542e+09
51291,1.6543e+09,1,109,-143,394,47,-57,-99,0,0,0,1,1.6543e+09
51700,1.6544e+09,1,106,-149,394,47,-57,-99,0,0,0,1,1.6544e+09
52146,1.6545e+09,1,101,-153,398,47,-57,-99,0,0,0,1,1.6545e+09
52553,1.6546e+09,1,100,-159,400,47,-57,-99,0,0,0,1,1.6546e+09
52981,1.6547e+09,1,103,-155,398,47,-57,-99,0,0,0,1,1.6547e+09
53413,1.6548e+09,1,102,-160,402,47,-57,-99,0,0,0,1,1.6548e+09
53827,1.6549e+09,1,101,-165,402,47,-57,-99,0,0,0,1,1.6549e+09
54270,1.655e+09,1,97,-169,408,47,-57,-99,0,0,0,1,1.655e+09
54718,1.6551e+09,1,102,-154,395,47,-57,-99,0,0,0,1,1.6551e+09
55165,1.6552e+09,1,102,-159,399,47,-57,-99,0,0,0,1,1.6552e+09
55614,1.6553e+09,1,100,-169,405,47,-57,-99,0,0,0,1,1.6553e+09
56056,1.6555e+09,1,110,-166,394,47,-57,-99,0,0,0,1,1.6555e+09
56468,1.6556e+09,1,110,-160,392,47,-57,-99,0,0,0,1,1.6556e+09
56896,1.6557e+09,1,109,-162,398,47,-57,-99,0,0,0,1,1.6557e+09
57327,1.6558e+09,1,110,-170,395,47,-57,-99,0,0,0,1,1.6558e+09
57772,1.6559e+09,1,107,-184,399,47,-57,-99,0,0,0,1,1.6559e+09
58183,1.656e+09,1,101,-199,404,47,-57,-99,0,0,0,1,1.656e+09
58631,1.6561e+09,1,111,-187,393,47,-57,-99,0,0,0,1,1.6561e+09
59075,1.6562e+09,1,116,-180,388,47,-57,-99,0,0,0,1,1.6562e+09
59521,1.6563e+09,1,120,-173,387,47,-57,-99,0,0,0,1,1.6563e+09
59966,1.6564e+09,1,119,-169,386,47,-57,-99,0,0,0,1,1.6564e+09
60411,1.6565e+09,1,111,-158,395,47,-57,-99,0,0,0,1,1.6565e+09
60836,1.6566e+09,1,109,-154,396,47,-57,-99,0,0,0,1,1.6566e+09
61267,1.6567e+09,1,97,-155,404,47,-57,-99,0,0,0,1,1.6567e+09
61705,1.6569e+09,1,98,-152,404,47,-57,-99,0,0,0,1,1.6569e+09
62115,1.657e+09,1,96,-156,404,47,-57,-99,0,0,0,1,1.657e+09
62562,1.6571e+09,1,90,-161,410,47,-57,-99,0,0,0,1,1.6571e+09
62975,1.6572e+09,1,83,-162,418,47,-57,-99,0,0,0,1,1.6572e+09
63420,1.6573e+09,1,79,-156,417,47,-57,-99,0,0,0,1,1.6573e+09
63862,1.6574e+09,1,79,-153,414,47,-57,-99,0,0,0,1,1.6574e+09
64309,1.6575e+09,1,78,-159,415,47,-57,-99,0,0,0,1,1.6575e+09
64751,1.6576e+09,1,84,-155,407,47,-57,-99,0,0,0,1,1.6576e+09
65200,1.6577e+09,1,85,-161,404,47,-57,-99,0,0,0,1,1.6577e+09
65633,1.6578e+09,1,85,-164,408,47,-57,-99,0,0,0,1,1.6578e+09
66026,1.6579e+09,1,86,-160,405,47,-57,-99,0,0,0,1,1.6579e+09
66462,1.658e+09,1,81,-161,410,47,-57,-99,0,0,0,1,1.658e+09
66906,1.6581e+09,1,83,-160,406,47,-57,-99,0,0,0,1,1.6581e+09
67352,1.6583e+09,1,79,-157,406,47,-57,-99,0,0,0,1,1.6583e+09
67765,1.6584e+09,1,83,-143,395,47,-57,-99,0,0,0,1,1.6584e+09
68210,1.6585e+09,1,83,-151,393,47,-57,-99,0,0,0,1,1.6585e+09
68633,1.6586e+09,1,88,-164,390,47,-57,-99,0,0,0,1,1.6586e+09
69082,1.6587e+09,1,72,-180,414,47,-57,-99,0,0,0,1,1.6587e+09
69491,1.6588e+09,1,65,-189,418,47,-57,-99,0,0,0,1,1.6588e+09
69937,1.6589e+09,1,63,-171,420,47,-57,-99,0,0,0,1,1.6589e+09
70378,1.659e+09,1,72,-156,414,47,-57,-99,0,0,0,1,1.659e+09
70824,1.6591e+09,1,83,-150,409,47,-57,-99,0,0,0,1,1.6591e+09
71268,1.6592e+09,1,90,-159,411,47,-57,-99,0,0,0,1,1.6592e+09
71682,1.6593e+09,1,98,-161,405,47,-57,-99,0,0,0,1,1.6593e+09
72092,1.6594e+09,1,102,-163,405,47,-57,-99,0,0,0,1,1.6594e+09
72533,1.6595e+09,1,104,-157,406,47,-57,-99,0,0,0,1,1.6595e+09
72950,1.6597e+09,1,112,-148,388,47,-57,-99,0,0,0,1,1.6597e+09
73398,1.6598e+09,1,107,-150,393,47,-57,-99,0,0,0,1,1.6598e+09
73844,1.6599e+09,1,109,-146,390,47,-57,-99,0,0,0,1,1.6599e+09
74286,1.66e+09,1,109,-148,387,47,-57,-99,0,0,0,1,1.66e+09
74700,1.6601e+09,1,108,-159,393,47,-57,-99,0,0,0,1,1.6601e+09
75144,1.6602e+09,1,106,-163,395,47,-57,-99,0,0,0,1,1.6602e+09
75591,1.6603e+09,1,109,-148,383,47,-57,-99,0,0,0,1,1.6603e+09
76024,1.6604e+09,1,115,-144,379,47,-57,-99,0,0,0,1,1.6604e+09
76422,1.6605e+09,1,126,-166,387,47,-57,-99,0,0,0,1,1.6605e+09
76854,1.6606e+09,1,142,-140,366,47,-57,-99,0,0,0,1,1.6606e+09
77305,1.6607e+09,1,163,-117,337,47,-57,-99,0,0,0,1,1.6607e+09
77747,1.6608e+09,1,153,-122,356,47,-57,-99,0,0,0,1,1.6608e+09
78195,1.6609e+09,1,148,-146,363,47,-57,-99,0,0,0,1,1.6609e+09
78635,1.6611e+09,1,134,-158,379,47,-57,-99,0,0,0,1,1.6611e+09
79046,1.6612e+09,1,130,-163,378,47,-57,-99,0,0,0,1,1.6612e+09
79493,1.6613e+09,1,124,-159,382,47,-57,-99,0,0,0,1,1.6613e+09
79936,1.6614e+09,1,119,-157,387,47,-57,-99,0,0,0,1,1.6614e+09
80381,1.6615e+09,1,124,-149,379,47,-57,-99,0,0,0,1,1.6615e+09
80791,1.6616e+09,1,128,-153,373,47,-57,-99,0,0,0,1,1.6616e+09
81240,1.6617e+09,1,121,-153,379,47,-57,-99,0,0,0,1,1.6617e+09
81685,1.6618e+09,1,114,-173,386,47,-57,-99,0,0,0,1,1.6618e+09
82132,1.6619e+09,1,103,-190,396,47,-57,-99,0,0,0,1,1.6619e+09
82573,1.662e+09,1,98,-202,396,47,-57,-99,0,0,0,1,1.662e+09
83021,1.6621e+09,1,100,-195,391,47,-57,-99,0,0,0,1,1.6621e+09
83461,1.6622e+09,1,105,-191,389,47,-57,-99,0,0,0,1,1.6622e+09
83908,1.6623e+09,1,107,-189,391,47,-57,-99,0,0,0,1,1.6623e+09
84349,1.6625e+09,1,107,-184,395,47,-57,-99,0,0,0,1,1.6625e+09
84764,1.6626e+09,1,104,-193,400,47,-57,-99,0,0,0,1,1.6626e+09
85207,1.6627e+09,1,100,-194,406,47,-57,-99,0,0,0,1,1.6627e+09
85648,1.6628e+09,1,103,-179,399,47,-57,-99,0,0,0,1,1.6628e+09
86066,1.6629e+09,1,108,-165,397,47,-57,-99,0,0,0,1,1.6629e+09
86503,1.663e+09,1,100,-168,404,47,-57,-99,0,0,0,1,1.663e+09
86930,1.6631e+09,1,108,-170,395,47,-57,-99,0,0,0,1,1.6631e+09
87364,1.6632e+09,1,101,-176,398,47,-57,-99,0,0,0,1,1.6632e+09
87811,1.6633e+09,1,100,-165,396,47,-57,-99,0,0,0,1,1.6633e+09
88255,1.6634e+09,1,98,-160,396,47,-57,-99,0,0,0,1,1.6634e+09
88698,1.6635e+09,1,95,-153,398,47,-57,-99,0,0,0,1,1.6635e+09
89144,1.6636e+09,1,88,-149,405,47,-57,-99,0,0,0,1,1.6636e+09
89591,1.6637e+09,1,88,-148,409,47,-57,-99,0,0,0,1,1.6637e+09
90000,1.6639e+09,1,81,-144,412,47,-57,-99,0,0,0,1,1.6639e+09
90447,1.664e+09,1,76,-143,416,47,-57,-99,0,0,0,1,1.664e+09
90894,1.6641e+09,1,69,-147,425,47,-57,-99,0,0,0,1,1.6641e+09
91338,1.6642e+09,1,70,-142,424,47,-57,-99,0,0,0,1,1.6642e+09
91783,1.6643e+09,1,73,-139,418,47,-57,-99,0,0,0,1,1.6643e+09
92193,1.6644e+09,1,75,-142,416,47,-57,-99,0,0,0,1,1.6644e+09
92640,1.6645e+09,1,81,-137,413,47,-57,-99,0,0,0,1,1.6645e+09
93084,1.6646e+09,1,82,-143,412,47,-57,-99,0,0,0,1,1.6646e+09
93529,1.6647e+09,1,82,-148,413,47,-57,-99,0,0,0,1,1.6647e+09
93972,1.6648e+09,1,87,-145,406,47,-57,-99,0,0,0,1,1.6648e+09
94388,1.6649e+09,1,89,-145,409,47,-57,-99,0,0,0,1,1.6649e+09
94831,1.665e+09,1,94,-139,402,47,-57,-99,0,0,0,1,1.665e+09
95242,1.6651e+09,1,99,-144,397,47,-57,-99,0,0,0,1,1.6651e+09
95683,1.6653e+09,1,102,-147,392,47,-57,-99,0,0,0,1,1.6653e+09
96095,1.6654e+09,1,100,-148,397,47,-57,-99,0,0,0,1,1.6654e+09
96542,1.6655e+09,1,91,-156,399,47,-57,-99,0,0,0,1,1.6655e+09
96989,1.6656e+09,1,92,-162,404,47,-57,-99,0,0,0,1,1.6656e+09
97438,1.6657e+09,1,99,-158,397,47,-57,-99,0,0,0,1,1.6657e+09
97847,1.6658e+09,1,103,-162,399,47,-57,-99,0,0,0,1,1.6658e+09
98293,1.6659e+09,1,111,-165,395,47,-57,-99,0,0,0,1,1.6659e+09
98733,1.666e+09,1,113,-165,390,47,-57,-99,0,0,0,1,1.666e+09
99183,1.6661e+09,1,118,-165,386,47,-57,-99,0,0,0,1,1.6661e+09
99626,1.6662e+09,1,114,-159,390,47,-57,-99,0,0,0,1,1.6662e+09
1.0007e+05,1.6663e+09,1,122,-165,386,47,-57,-99,0,0,0,1,1.6663e+09
1.0051e+05,1.6664e+09,1,113,-165,393,47,-57,-99,0,0,0,1,1.6664e+09
1.0093e+05,1.6666e+09,1,107,-162,397,47,-57,-99,0,0,0,1,1.6666e+09
1.0137e+05,1.6667e+09,1,100,-154,398,47,-57,-99,0,0,0,1,1.6667e+09
1.0182e+05,1.6668e+09,1,97,-156,404,47,-57,-99,0,0,0,1,1.6668e+09
1.0226e+05,1.6669e+09,1,102,-144,394,47,-57,-99,0,0,0,1,1.6669e+09
1.027e+05,1.667e+09,1,97,-129,399,47,-57,-99,0,0,0,1,1.667e+09
1.0312e+05,1.6671e+09,1,112,-96,376,47,-57,-99,0,0,0,1,1.6671e+09
1.0356e+05,1.6672e+09,1,108,-94,388,47,-57,-99,0,0,0,1,1.6672e+09
1.0401e+05,1.6673e+09,1,113,-77,386,47,-57,-99,0,0,0,1,1.6673e+09
1.0445e+05,1.6674e+09,1,119,-71,376,47,-57,-99,0,0,0,1,1.6674e+09
1.049e+05,1.6675e+09,1,123,-83,382,47,-57,-99,0,0,0,1,1.6675e+09
1.0534e+05,1.6676e+09,1,116,-111,392,47,-57,-99,0,0,0,1,1.6676e+09
1.0579e+05,1.6677e+09,1,128,-117,380,47,-57,-99,0,0,0,1,1.6677e+09
1.062e+05,1.6678e+09,1,140,-126,368,47,-57,-99,0,0,0,1,1.6678e+09
1.0665e+05,1.6679e+09,1,150,-123,361,47,-57,-99,0,0,0,1,1.6679e+09
1.0709e+05,1.6681e+09,1,146,-126,365,47,-57,-99,0,0,0,1,1.6681e+09
1.075e+05,1.6682e+09,1,151,-126,362,47,-57,-99,0,0,0,1,1.6682e+09
1.0795e+05,1.6683e+09,1,141,-129,371,47,-57,-99,0,0,0,1,1.6683e+09
1.0836e+05,1.6684e+09,1,142,-156,368,47,-57,-99,0,0,0,1,1.6684e+09
1.0881e+05,1.6685e+09,1,135,-168,375,47,-57,-99,0,0,0,1,1.6685e+09
1.0925e+05,1.6686e+09,1,144,-173,365,47,-57,-99,0,0,0,1,1.6686e+09
1.097e+05,1.6687e+09,1,147,-172,357,47,-57,-99,0,0,0,1,1.6687e+09
1.1011e+05,1.6688e+09,1,158,-194,349,47,-57,-99,0,0,0,1,1.6688e+09
1.1056e+05,1.6689e+09,1,151,-201,356,47,-57,-99,0,0,0,1,1.6689e+09
1.1097e+05,1.669e+09,1,146,-203,360,47,-57,-99,0,0,0,1,1.669e+09
1.1142e+05,1.6691e+09,1,146,-200,362,47,-57,-99,0,0,0,1,1.6691e+09
1.1186e+05,1.6692e+09,1,144,-198,361,47,-57,-99,0,0,0,1,1.6692e+09
1.1231e+05,1.6694e+09,1,145,-187,358,47,-57,-99,0,0,0,1,1.6694e+09
1.1275e+05,1.6695e+09,1,145,-177,357,47,-57,-99,0,0,0,1,1.6695e+09
1.1316e+05,1.6696e+09,1,146,-162,358,47,-57,-99,0,0,0,1,1.6696e+09
1.1361e+05,1.6697e+09,1,136,-163,368,47,-57,-99,0,0,0,1,1.6697e+09
1.1405e+05,1.6698e+09,1,138,-162,369,47,-57,-99,0,0,0,1,1.6698e+09
1.145e+05,1.6699e+09,1,132,-159,369,47,-57,-99,0,0,0,1,1.6699e+09
1.1494e+05,1.67e+09,1,136,-159,365,47,-57,-99,0,0,0,1,1.67e+09
1.1536e+05,1.6701e+09,1,138,-150,356,47,-57,-99,0,0,0,1,1.6701e+09
1.158e+05,1.6702e+09,1,139,-155,361,47,-57,-99,0,0,0,1,1.6702e+09
1.1625e+05,1.6703e+09,1,140,-150,361,47,-57,-99,0,0,0,1,1.6703e+09
1.167e+05,1.6704e+09,1,144,-147,354,47,-57,-99,0,0,0,1,1.6704e+09
1.1714e+05,1.6705e+09,1,146,-148,357,47,-57,-99,0,0,0,1,1.6705e+09
1.1756e+05,1.6707e+09,1,140,-144,361,47,-57,-99,0,0,0,1,1.6707e+09
1.18e+05,1.6708e+09,1,143,-132,357,47,-57,-99,0,0,0,1,1.6708e+09
1.1844e+05,1.6709e+09,1,132,-134,374,47,-57,-99,0,0,0,1,1.6709e+09
1.1889e+05,1.671e+09,1,128,-122,378,47,-57,-99,0,0,0,1,1.671e+09
1.1934e+05,1.6711e+09,1,111,-117,386,47,-57,-99,0,0,0,1,1.6711e+09
1.1975e+05,1.6712e+09,1,102,-129,403,47,-57,-99,0,0,0,1,1.6712e+09
1.2019e+05,1.6713e+09,1,96,-152,422,47,-57,-99,0,0,0,1,1.6713e+09
1.2063e+05,1.6714e+09,1,99,-176,422,47,-57,-99,0,0,0,1,1.6714e+09
1.2108e+05,1.6715e+09,1,100,-173,425,47,-57,-99,0,0,0,1,1.6715e+09
1.2152e+05,1.6716e+09,1,103,-157,422,47,-57,-99,0,0,0,1,1.6716e+09
1.2194e+05,1.6717e+09,1,103,-139,420,47,-57,-99,0,0,0,1,1.6717e+09
1.2238e+05,1.6718e+09,1,114,-125,406,47,-57,-99,0,0,0,1,1.6718e+09
1.2283e+05,1.6719e+09,1,117,-127,403,47,-57,-99,0,0,0,1,1.6719e+09
1.2327e+05,1.672e+09,1,116,-125,404,47,-57,-99,0,0,0,1,1.672e+09
1.2372e+05,1.6722e+09,1,114,-120,400,47,-57,-99,0,0,0,1,1.6722e+09
1.2413e+05,1.6723e+09,1,97,-129,411,47,-57,-99,0,0,0,1,1.6723e+09
1.2457e+05,1.6724e+09,1,74,-147,431,47,-57,-99,0,0,0,1,1.6724e+09
1.2502e+05,1.6725e+09,1,57,-149,441,47,-57,-99,0,0,0,1,1.6725e+09
1.2544e+05,1.6726e+09,1,66,-140,435,47,-57,-99,0,0,0,1,1.6726e+09
1.2589e+05,1.6727e+09,1,73,-140,433,47,-57,-99,0,0,0,1,1.6727e+09
1.2633e+05,1.6728e+09,1,83,-136,431,47,-57,-99,0,0,0,1,1.6728e+09
1.2677e+05,1.6729e+09,1,96,-149,426,47,-57,-99,0,0,0,1,1.6729e+09
1.2719e+05,1.673e+09,1,101,-153,426,47,-57,-99,0,0,0,1,1.673e+09
1.2763e+05,1.6731e+09,1,96,-157,427,47,-57,-99,0,0,0,1,1.6731e+09
1.2808e+05,1.6732e+09,1,101,-148,421,47,-57,-99,0,0,0,1,1.6732e+09
1.2852e+05,1.6733e+09,1,117,-142,407,47,-57,-99,0,0,0,1,1.6733e+09
1.2896e+05,1.6734e+09,1,130,-156,401,47,-57,-99,0,0,0,1,1.6734e+09
1.2938e+05,1.6736e+09,1,132,-162,402,47,-57,-99,0,0,0,1,1.6736e+09
1.2983e+05,1.6737e+09,1,133,-167,398,47,-57,-99,0,0,0,1,1.6737e+09
1.3027e+05,1.6738e+09,1,123,-171,403,47,-57,-99,0,0,0,1,1.6738e+09
1.3072e+05,1.6739e+09,1,115,-178,413,47,-57,-99,0,0,0,1,1.6739e+09
1.3116e+05,1.674e+09,1,114,-176,420,47,-57,-99,0,0,0,1,1.674e+09
1.3158e+05,1.6741e+09,1,117,-168,409,47,-57,-99,0,0,0,1,1.6741e+09
1.3202e+05,1.6742e+09,1,114,-167,407,47,-57,-99,0,0,0,1,1.6742e+09
1.3244e+05,1.6743e+09,1,116,-160,403,47,-57,-99,0,0,0,1,1.6743e+09
1.3288e+05,1.6744e+09,1,107,-179,412,47,-57,-99,0,0,0,1,1.6744e+09
1.3332e+05,1.6745e+09,1,100,-191,416,47,-57,-99,0,0,0,1,1.6745e+09
1.3377e+05,1.6746e+09,1,94,-224,430,47,-57,-99,0,0,0,1,1.6746e+09
1.3422e+05,1.6747e+09,1,93,-234,426,47,-57,-99,0,0,0,1,1.6747e+09
1.3466e+05,1.6749e+09,1,101,-239,414,47,-57,-99,0,0,0,1,1.6749e+09
1.3507e+05,1.675e+09,1,98,-239,413,47,-57,-99,0,0,0,1,1.675e+09
1.3552e+05,1.6751e+09,1,100,-229,407,47,-57,-99,0,0,0,1,1.6751e+09
1.3593e+05,1.6752e+09,1,106,-213,400,47,-57,-99,0,0,0,1,1.6752e+09
1.3638e+05,1.6753e+09,1,110,-197,396,47,-57,-99,0,0,0,1,1.6753e+09
1.3682e+05,1.6754e+09,1,116,-201,400,47,-57,-99,0,0,0,1,1.6754e+09
1.3724e+05,1.6755e+09,1,119,-194,394,47,-57,-99,0,0,0,1,1.6755e+09
1.3768e+05,1.6756e+09,1,121,-179,391,47,-57,-99,0,0,0,1,1.6756e+09
1.3813e+05,1.6757e+09,1,112,-168,406,47,-57,-99,0,0,0,1,1.6757e+09
1.3857e+05,1.6758e+09,1,115,-137,395,47,-57,-99,0,0,0,1,1.6758e+09
1.3902e+05,1.6759e+09,1,121,-122,389,47,-57,-99,0,0,0,1,1.6759e+09
1.3943e+05,1.676e+09,1,118,-125,395,47,-57,-99,0,0,0,1,1.676e+09
1.3988e+05,1.6761e+09,1,125,-123,387,47,-57,-99,0,0,0,1,1.6761e+09
1.4032e+05,1.6763e+09,1,132,-127,382,47,-57,-99,0,0,0,1,1.6763e+09
1.4077e+05,1.6764e+09,1,130,-130,379,47,-57,-99,0,0,0,1,1.6764e+09
1.4122e+05,1.6765e+09,1,130,-130,383,47,-57,-99,0,0,0,1,1.6765e+09
1.4163e+05,1.6766e+09,1,130,-122,379,47,-57,-99,0,0,0,1,1.6766e+09
1.4208e+05,1.6767e+09,1,129,-127,386,47,-57,-99,0,0,0,1,1.6767e+09
1.4252e+05,1.6768e+09,1,124,-134,399,47,-57,-99,0,0,0,1,1.6768e+09
1.4297e+05,1.6769e+09,1,114,-153,421,47,-57,-99,0,0,0,1,1.6769e+09
1.4341e+05,1.677e+09,1,120,-121,405,47,-57,-99,0,0,0,1,1.677e+09
1.4386e+05,1.6771e+09,1,117,-93,406,47,-57,-99,0,0,0,1,1.6771e+09
1.4427e+05,1.6772e+09,1,122,-89,409,47,-57,-99,0,0,0,1,1.6772e+09
1.4471e+05,1.6773e+09,1,120,-105,415,47,-57,-99,0,0,0,1,1.6773e+09
1.4516e+05,1.6774e+09,1,109,-114,424,47,-57,-99,0,0,0,1,1.6774e+09
1.4557e+05,1.6775e+09,1,105,-114,423,47,-57,-99,0,0,0,1,1.6775e+09
1.4601e+05,1.6777e+09,1,106,-126,425,47,-57,-99,0,0,0,1,1.6777e+09
1.4646e+05,1.6778e+09,1,103,-138,424,47,-57,-99,0,0,0,1,1.6778e+09
1.4687e+05,1.6779e+09,1,105,-162,432,47,-57,-99,0,0,0,1,1.6779e+09
1.4731e+05,1.678e+09,1,109,-155,422,47,-57,-99,0,0,0,1,1.678e+09
1.4776e+05,1.6781e+09,1,110,-134,422,47,-57,-99,0,0,0,1,1.6781e+09
1.4817e+05,1.6782e+09,1,111,-119,422,47,-57,-99,0,0,0,1,1.6782e+09
1.4861e+05,1.6783e+09,1,108,-93,424,47,-57,-99,0,0,0,1,1.6783e+09
1.4906e+05,1.6784e+09,1,117,-78,413,47,-57,-99,0,0,0,1,1.6784e+09
1.495e+05,1.6785e+09,1,118,-84,417,47,-57,-99,0,0,0,1,1.6785e+09
1.4995e+05,1.6786e+09,1,112,-82,425,47,-57,-99,0,0,0,1,1.6786e+09
1.5036e+05,1.6787e+09,1,120,-85,415,47,-57,-99,0,0,0,1,1.6787e+09
1.508e+05,1.6788e+09,1,114,-102,423,47,-57,-99,0,0,0,1,1.6788e+09
1.5125e+05,1.6789e+09,1,117,-114,418,47,-57,-99,0,0,0,1,1.6789e+09
1.517e+05,1.6791e+09,1,112,-139,428,47,-57,-99,0,0,0,1,1.6791e+09
1.5211e+05,1.6792e+09,1,109,-164,429,47,-57,-99,0,0,0,1,1.6792e+09
1.5255e+05,1.6793e+09,1,104,-176,429,47,-57,-99,0,0,0,1,1.6793e+09
1.5299e+05,1.6794e+09,1,104,-157,421,47,-57,-99,0,0,0,1,1.6794e+09
1.5341e+05,1.6795e+09,1,105,-138,423,47,-57,-99,0,0,0,1,1.6795e+09
1.5385e+05,1.6796e+09,1,101,-120,430,47,-57,-99,0,0,0,1,1.6796e+09
1.5427e+05,1.6797e+09,1,107,-114,429,47,-57,-99,0,0,0,1,1.6797e+09
1.547e+05,1.6798e+09,1,101,-124,433,47,-57,-99,0,0,0,1,1.6798e+09
1.5513e+05,1.6799e+09,1,101,-127,434,47,-57,-99,0,0,0,1,1.6799e+09
1.5556e+05,1.68e+09,1,99,-132,434,47,-57,-99,0,0,0,1,1.68e+09
1.5601e+05,1.6801e+09,1,100,-133,434,47,-57,-99,0,0,0,1,1.6801e+09
1.5642e+05,1.6802e+09,1,100,-140,432,47,-57,-99,0,0,0,1,1.6802e+09
1.5686e+05,1.6803e+09,1,103,-141,427,47,-57,-99,0,0,0,1,1.6803e+09
1.5728e+05,1.6805e+09,1,104,-144,430,47,-57,-99,0,0,0,1,1.6805e+09
1.5773e+05,1.6806e+09,1,106,-142,427,47,-57,-99,0,0,0,1,1.6806e+09
1.5817e+05,1.6807e+09,1,107,-133,422,47,-57,-99,0,0,0,1,1.6807e+09
1.5861e+05,1.6808e+09,1,110,-128,422,47,-57,-99,0,0,0,1,1.6808e+09
1.5903e+05,1.6809e+09,1,109,-130,428,47,-57,-99,0,0,0,1,1.6809e+09
1.5947e+05,1.681e+09,1,107,-135,430,47,-57,-99,0,0,0,1,1.681e+09
1.5992e+05,1.6811e+09,1,106,-135,430,47,-57,-99,0,0,0,1,1.6811e+09
1.6033e+05,1.6812e+09,1,110,-137,425,47,-57,-99,0,0,0,1,1.6812e+09
1.6078e+05,1.6813e+09,1,107,-137,426,47,-57,-99,0,0,0,1,1.6813e+09
1.6122e+05,1.6814e+09,1,108,-137,423,47,-57,-99,0,0,0,1,1.6814e+09
1.6166e+05,1.6815e+09,1,116,-132,416,47,-57,-99,0,0,0,1,1.6815e+09
1.6211e+05,1.6816e+09,1,115,-136,421,47,-57,-99,0,0,0,1,1.6816e+09
1.6255e+05,1.6817e+09,1,115,-135,423,47,-57,-99,0,0,0,1,1.6817e+09
1.6299e+05,1.6818e+09,1,117,-137,422,47,-57,-99,0,0,0,1,1.6818e+09
1.6344e+05,1.682e+09,1,109,-130,424,47,-57,-99,0,0,0,1,1.682e+09
1.6385e+05,1.6821e+09,1,110,-124,427,47,-57,-99,0,0,0,1,1.6821e+09
1.6429e+05,1.6822e+09,1,112,-134,422,47,-57,-99,0,0,0,1,1.6822e+09
1.6471e+05,1.6823e+09,1,116,-130,420,47,-57,-99,0,0,0,1,1.6823e+09
1.6514e+05,1.6824e+09,1,114,-132,422,47,-57,-99,0,0,0,1,1.6824e+09
1.6557e+05,1.6825e+09,1,114,-130,423,47,-57,-99,0,0,0,1,1.6825e+09
1.6599e+05,1.6826e+09,1,114,-128,424,47,-57,-99,0,0,0,1,1.6826e+09
1.6644e+05,1.6827e+09,1,116,-128,418,47,-57,-99,0,0,0,1,1.6827e+09
1.6685e+05,1.6828e+09,1,115,-134,419,47,-57,-99,0,0,0,1,1.6828e+09
1.6729e+05,1.6829e+09,1,113,-134,422,47,-57,-99,0,0,0,1,1.6829e+09
1.6774e+05,1.683e+09,1,119,-139,420,47,-57,-99,0,0,0,1,1.683e+09
1.6818e+05,1.6831e+09,1,115,-138,420,47,-57,-99,0,0,0,1,1.6831e+09
1.686e+05,1.6832e+09,1,115,-136,421,47,-57,-99,0,0,0,1,1.6832e+09
1.6905e+05,1.6833e+09,1,117,-134,419,47,-57,-99,0,0,0,1,1.6833e+09
1.6946e+05,1.6835e+09,1,118,-143,420,47,-57,-99,0,0,0,1,1.6835e+09
1.6987e+05,1.6836e+09,1,114,-149,425,47,-57,-99,0,0,0,1,1.6836e+09
1.7031e+05,1.6837e+09,1,112,-150,422,47,-57,-99,0,0,0,1,1.6837e+09
1.7075e+05,1.6838e+09,1,117,-145,414,47,-57,-99,0,0,0,1,1.6838e+09
1.7117e+05,1.6839e+09,1,112,-149,420,47,-57,-99,0,0,0,1,1.6839e+09
1.7161e+05,1.684e+09,1,114,-147,416,47,-57,-99,0,0,0,1,1.684e+09
1.7206e+05,1.6841e+09,1,114,-130,412,47,-57,-99,0,0,0,1,1.6841e+09
1.725e+05,1.6842e+09,1,114,-127,414,47,-57,-99,0,0,0,1,1.6842e+09
1.7294e+05,1.6843e+09,1,114,-124,420,47,-57,-99,0,0,0,1,1.6843e+09
1.7339e+05,1.6844e+09,1,110,-123,422,47,-57,-99,0,0,0,1,1.6844e+09
1.7383e+05,1.6845e+09,1,108,-124,422,47,-57,-99,0,0,0,1,1.6845e+09
1.7423e+05,1.6846e+09,1,113,-124,415,47,-57,-99,0,0,0,1,1.6846e+09
1.7465e+05,1.6848e+09,1,114,-130,409,47,-57,-99,0,0,0,1,1.6848e+09
1.7506e+05,1.6849e+09,1,113,-138,412,47,-57,-99,0,0,0,1,1.6849e+09
1.7551e+05,1.685e+09,1,113,-146,412,47,-57,-99,0,0,0,1,1.685e+09
1.7595e+05,1.6851e+09,1,113,-152,411,47,-57,-99,0,0,0,1,1.6851e+09
1.764e+05,1.6852e+09,1,111,-155,413,47,-57,-99,0,0,0,1,1.6852e+09
1.7684e+05,1.6853e+09,1,110,-159,412,47,-57,-99,0,0,0,1,1.6853e+09
1.7729e+05,1.6854e+09,1,106,-158,412,47,-57,-99,0,0,0,1,1.6854e+09
1.7774e+05,1.6855e+09,1,105,-146,411,47,-57,-99,0,0,0,1,1.6855e+09
1.7818e+05,1.6856e+09,1,107,-148,411,47,-57,-99,0,0,0,1,1.6856e+09
1.7859e+05,1.6857e+09,1,106,-164,419,47,-57,-99,0,0,0,1,1.6857e+09
1.7903e+05,1.6858e+09,1,115,-169,405,47,-57,-99,0,0,0,1,1.6858e+09
1.7948e+05,1.6859e+09,1,114,-181,399,47,-57,-99,0,0,0,1,1.6859e+09
1.7988e+05,1.686e+09,1,121,-176,396,47,-57,-99,0,0,0,1,1.686e+09
1.8033e+05,1.6861e+09,1,122,-170,394,47,-57,-99,0,0,0,1,1.6861e+09
1.8077e+05,1.6863e+09,1,118,-157,399,47,-57,-99,0,0,0,1,1.6863e+09
1.8119e+05,1.6864e+09,1,113,-165,411,47,-57,-99,0,0,0,1,1.6864e+09
1.8161e+05,1.6865e+09,1,103,-174,424,47,-57,-99,0,0,0,1,1.6865e+09
1.8204e+05,1.6866e+09,1,100,-176,423,47,-57,-99,0,0,0,1,1.6866e+09
1.8245e+05,1.6867e+09,1,96,-164,427,47,-57,-99,0,0,0,1,1.6867e+09
1.8289e+05,1.6868e+09,1,103,-161,421,47,-57,-99,0,0,0,1,1.6868e+09
1.8334e+05,1.6869e+09,1,107,-156,424,47,-57,-99,0,0,0,1,1.6869e+09
1.8375e+05,1.687e+09,1,112,-161,417,47,-57,-99,0,0,0,1,1.687e+09
1.842e+05,1.6871e+09,1,108,-158,426,47,-57,-99,0,0,0,1,1.6871e+09
1.8464e+05,1.6872e+09,1,112,-154,420,47,-57,-99,0,0,0,1,1.6872e+09
1.8508e+05,1.6873e+09,1,108,-143,418,47,-57,-99,0,0,0,1,1.6873e+09
1.8549e+05,1.6874e+09,1,112,-128,413,47,-57,-99,0,0,0,1,1.6874e+09
1.8594e+05,1.6875e+09,1,118,-128,403,47,-57,-99,0,0,0,1,1.6875e+09
1.8635e+05,1.6877e+09,1,120,-139,405,47,-57,-99,0,0,0,1,1.6877e+09
1.868e+05,1.6878e+09,1,117,-142,406,47,-57,-99,0,0,0,1,1.6878e+09
1.8721e+05,1.6879e+09,1,117,-147,407,47,-57,-99,0,0,0,1,1.6879e+09
1.8765e+05,1.688e+09,1,113,-142,407,47,-57,-99,0,0,0,1,1.688e+09
1.8808e+05,1.6881e+09,1,115,-137,408,47,-57,-99,0,0,0,1,1.6881e+09
1.8848e+05,1.6882e+09,1,112,-139,408,47,-57,-99,0,0,0,1,1.6882e+09
1.8892e+05,1.6883e+09,1,112,-137,402,47,-57,-99,0,0,0,1,1.6883e+09
1.8933e+05,1.6884e+09,1,110,-140,406,47,-57,-99,0,0,0,1,1.6884e+09
1.8977e+05,1.6885e+09,1,112,-138,406,47,-57,-99,0,0,0,1,1.6885e+09
1.9018e+05,1.6886e+09,1,109,-140,410,47,-57,-99,0,0,0,1,1.6886e+09
1.9063e+05,1.6887e+09,1,110,-138,409,47,-57,-99,0,0,0,1,1.6887e+09
1.9108e+05,1.6888e+09,1,110,-140,408,47,-57,-99,0,0,0,1,1.6888e+09
1.9152e+05,1.6889e+09,1,108,-149,421,47,-57,-99,0,0,0,1,1.6889e+09
1.9196e+05,1.689e+09,1,106,-148,420,47,-57,-99,0,0,0,1,1.689e+09
1.9241e+05,1.6892e+09,1,106,-144,420,47,-57,-99,0,0,0,1,1.6892e+09
1.9282e+05,1.6893e+09,1,112,-140,413,47,-57,-99,0,0,0,1,1.6893e+09
1.9326e+05,1.6894e+09,1,115,-133,411,47,-57,-99,0,0,0,1,1.6894e+09
1.9369e+05,1.6895e+09,1,117,-118,405,47,-57,-99,0,0,0,1,1.6895e+09
1.9412e+05,1.6896e+09,1,121,-130,405,47,-57,-99,0,0,0,1,1.6896e+09
1.9456e+05,1.6897e+09,1,124,-139,405,47,-57,-99,0,0,0,1,1.6897e+09
1.9498e+05,1.6898e+09,1,114,-146,414,47,-57,-99,0,0,0,1,1.6898e+09
1.9542e+05,1.6899e+09,1,118,-149,408,47,-57,-99,0,0,0,1,1.6899e+09
1.9586e+05,1.69e+09,1,117,-139,409,47,-57,-99,0,0,0,1,1.69e+09
1.9631e+05,1.6901e+09,1,120,-139,399,47,-57,-99,0,0,0,1,1.6901e+09
1.9672e+05,1.6902e+09,1,121,-122,406,47,-57,-99,0,0,0,1,1.6902e+09
1.9713e+05,1.6903e+09,1,127,-112,404,47,-57,-99,0,0,0,1,1.6903e+09
1.9758e+05,1.6905e+09,1,124,-98,409,47,-57,-99,0,0,0,1,1.6905e+09
1.9803e+05,1.6906e+09,1,131,-98,408,47,-57,-99,0,0,0,1,1.6906e+09
1.9847e+05,1.6907e+09,1,128,-104,405,47,-57,-99,0,0,0,1,1.6907e+09
1.9891e+05,1.6908e+09,1,130,-100,401,47,-57,-99,0,0,0,1,1.6908e+09
1.9934e+05,1.6909e+09,1,127,-108,404,47,-57,-99,0,0,0,1,1.6909e+09
1.9974e+05,1.691e+09,1,128,-111,408,47,-57,-99,0,0,0,1,1.691e+09
2.0018e+05,1.6911e+09,1,126,-111,412,47,-57,-99,0,0,0,1,1.6911e+09
2.0062e+05,1.6912e+09,1,121,-111,418,47,-57,-99,0,0,0,1,1.6912e+09
2.0107e+05,1.6913e+09,1,123,-105,412,47,-57,-99,0,0,0,1,1.6913e+09
2.0148e+05,1.6914e+09,1,120,-108,412,47,-57,-99,0,0,0,1,1.6914e+09
2.0193e+05,1.6915e+09,1,124,-109,411,47,-57,-99,0,0,0,1,1.6915e+09
2.0237e+05,1.6916e+09,1,117,-115,411,47,-57,-99,0,0,0,1,1.6916e+09
2.0278e+05,1.6917e+09,1,117,-116,415,47,-57,-99,0,0,0,1,1.6917e+09
2.0319e+05,1.6919e+09,1,117,-122,408,47,-57,-99,0,0,0,1,1.6919e+09
2.0363e+05,1.692e+09,1,118,-119,412,47,-57,-99,0,0,0,1,1.692e+09
2.0408e+05,1.6921e+09,1,111,-118,411,47,-57,-99,0,0,0,1,1.6921e+09
2.0452e+05,1.6922e+09,1,113,-115,410,47,-57,-99,0,0,0,1,1.6922e+09
2.0491e+05,1.6923e+09,1,110,-114,412,47,-57,-99,0,0,0,1,1.6923e+09
2.0534e+05,1.6924e+09,1,109,-113,413,47,-57,-99,0,0,0,1,1.6924e+09
2.0575e+05,1.6925e+09,1,115,-136,411,47,-57,-99,0,0,0,1,1.6925e+09
2.0619e+05,1.6926e+09,1,109,-159,414,47,-57,-99,0,0,0,1,1.6926e+09
2.0664e+05,1.6927e+09,1,110,-169,413,47,-57,-99,0,0,0,1,1.6927e+09
2.0708e+05,1.6928e+09,1,110,-169,412,47,-57,-99,0,0,0,1,1.6928e+09
2.0753e+05,1.6929e+09,1,111,-177,415,47,-57,-99,0,0,0,1,1.6929e+09
2.0797e+05,1.693e+09,1,107,-167,418,47,-57,-99,0,0,0,1,1.693e+09
2.0841e+05,1.6931e+09,1,114,-147,405,47,-57,-99,0,0,0,1,1.6931e+09
2.0885e+05,1.6932e+09,1,113,-152,410,47,-57,-99,0,0,0,1,1.6932e+09
2.0926e+05,1.6934e+09,1,113,-145,416,47,-57,-99,0,0,0,1,1.6934e+09
2.0968e+05,1.6935e+09,1,118,-150,413,47,-57,-99,0,0,0,1,1.6935e+09
2.1008e+05,1.6936e+09,1,119,-163,418,47,-57,-99,0,0,0,1,1.6936e+09
2.1053e+05,1.6937e+09,1,120,-182,416,47,-57,-99,0,0,0,1,1.6937e+09
2.1094e+05,1.6938e+09,1,118,-200,416,47,-57,-99,0,0,0,1,1.6938e+09
2.1138e+05,1.6939e+09,1,115,-198,421,47,-57,-99,0,0,0,1,1.6939e+09
2.1182e+05,1.694e+09,1,116,-183,415,47,-57,-99,0,0,0,1,1.694e+09
2.1227e+05,1.6941e+09,1,119,-169,411,47,-57,-99,0,0,0,1,1.6941e+09
2.1271e+05,1.6942e+09,1,126,-154,404,47,-57,-99,0,0,0,1,1.6942e+09
2.1312e+05,1.6943e+09,1,128,-134,399,47,-57,-99,0,0,0,1,1.6943e+09
2.1357e+05,1.6944e+09,1,130,-121,395,47,-57,-99,0,0,0,1,1.6944e+09
2.1401e+05,1.6945e+09,1,133,-130,398,47,-57,-99,0,0,0,1,1.6945e+09
2.1444e+05,1.6946e+09,1,129,-134,399,47,-57,-99,0,0,0,1,1.6946e+09
2.1483e+05,1.6947e+09,1,131,-137,394,47,-57,-99,0,0,0,1,1.6947e+09
2.1527e+05,1.6949e+09,1,128,-143,394,47,-57,-99,0,0,0,1,1.6949e+09
2.1568e+05,1.695e+09,1,123,-145,400,47,-57,-99,0,0,0,1,1.695e+09
2.1612e+05,1.6951e+09,1,120,-140,396,47,-57,-99,0,0,0,1,1.6951e+09
2.1657e+05,1.6952e+09,1,120,-146,401,47,-57,-99,0,0,0,1,1.6952e+09
2.1698e+05,1.6953e+09,1,120,-169,403,47,-57,-99,0,0,0,1,1.6953e+09
2.1742e+05,1.6954e+09,1,123,-182,391,47,-57,-99,0,0,0,1,1.6954e+09
2.1787e+05,1.6955e+09,1,119,-196,398,47,-57,-99,0,0,0,1,1.6955e+09
2.1831e+05,1.6956e+09,1,119,-186,401,47,-57,-99,0,0,0,1,1.6956e+09
2.1876e+05,1.6957e+09,1,125,-175,405,47,-57,-99,0,0,0,1,1.6957e+09
2.192e+05,1.6958e+09,1,120,-148,406,47,-57,-99,0,0,0,1,1.6958e+09
2.1961e+05,1.6959e+09,1,119,-140,410,47,-57,-99,0,0,0,1,1.6959e+09
2.2006e+05,1.696e+09,1,116,-154,414,47,-57,-99,0,0,0,1,1.696e+09
2.205e+05,1.6961e+09,1,107,-156,422,47,-57,-99,0,0,0,1,1.6961e+09
2.2095e+05,1.6963e+09,1,103,-171,421,47,-57,-99,0,0,0,1,1.6963e+09
2.214e+05,1.6964e+09,1,98,-180,424,47,-57,-99,0,0,0,1,1.6964e+09
2.218e+05,1.6965e+09,1,96,-184,425,47,-57,-99,0,0,0,1,1.6965e+09
2.2224e+05,1.6966e+09,1,95,-182,426,47,-57,-99,0,0,0,1,1.6966e+09
2.2267e+05,1.6967e+09,1,99,-175,420,47,-57,-99,0,0,0,1,1.6967e+09
2.2309e+05,1.6968e+09,1,108,-173,409,47,-57,-99,0,0,0,1,1.6968e+09
2.2353e+05,1.6969e+09,1,100,-174,417,47,-57,-99,0,0,0,1,1.6969e+09
2.2398e+05,1.697e+09,1,90,-180,423,47,-57,-99,0,0,0,1,1.697e+09
2.2439e+05,1.6971e+09,1,83,-159,430,47,-57,-99,0,0,0,1,1.6971e+09
2.2483e+05,1.6972e+09,1,80,-164,426,47,-57,-99,0,0,0,1,1.6972e+09
2.2528e+05,1.6973e+09,1,75,-156,431,47,-57,-99,0,0,0,1,1.6973e+09
2.2572e+05,1.6974e+09,1,79,-156,427,47,-57,-99,0,0,0,1,1.6974e+09
2.2616e+05,1.6975e+09,1,81,-147,424,47,-57,-99,0,0,0,1,1.6975e+09
2.266e+05,1.6976e+09,1,98,-150,411,47,-57,-99,0,0,0,1,1.6976e+09
2.2702e+05,1.6978e+09,1,105,-155,411,47,-57,-99,0,0,0,1,1.6978e+09
2.2745e+05,1.6979e+09,1,102,-152,412,47,-57,-99,0,0,0,1,1.6979e+09
2.2787e+05,1.698e+09,1,102,-156,422,47,-57,-99,0,0,0,1,1.698e+09
2.2831e+05,1.6981e+09,1,103,-155,414,47,-57,-99,0,0,0,1,1.6981e+09
2.2875e+05,1.6982e+09,1,105,-150,417,47,-57,-99,0,0,0,1,1.6982e+09
2.292e+05,1.6983e+09,1,95,-157,427,47,-57,-99,0,0,0,1,1.6983e+09
2.2964e+05,1.6984e+09,1,89,-147,430,47,-57,-99,0,0,0,1,1.6984e+09
2.3009e+05,1.6985e+09,1,92,-138,426,47,-57,-99,0,0,0,1,1.6985e+09
2.3053e+05,1.6986e+09,1,89,-131,421,47,-57,-99,0,0,0,1,1.6986e+09
2.3094e+05,1.6987e+09,1,91,-116,416,47,-57,-99,0,0,0,1,1.6987e+09
2.3139e+05,1.6988e+09,1,94,-135,415,47,-57,-99,0,0,0,1,1.6988e+09
2.3183e+05,1.6989e+09,1,94,-144,413,47,-57,-99,0,0,0,1,1.6989e+09
2.3226e+05,1.6991e+09,1,91,-147,413,47,-57,-99,0,0,0,1,1.6991e+09
2.3268e+05,1.6992e+09,1,91,-150,415,47,-57,-99,0,0,0,1,1.6992e+09
2.3312e+05,1.6993e+09,1,88,-150,414,47,-57,-99,0,0,0,1,1.6993e+09
2.3354e+05,1.6994e+09,1,87,-142,418,47,-57,-99,0,0,0,1,1.6994e+09
2.3398e+05,1.6995e+09,1,81,-150,420,47,-57,-99,0,0,0,1,1.6995e+09
2.3443e+05,1.6996e+09,1,75,-159,430,47,-57,-99,0,0,0,1,1.6996e+09
2.3487e+05,1.6997e+09,1,71,-162,434,47,-57,-99,0,0,0,1,1.6997e+09
2.3528e+05,1.6998e+09,1,69,-137,428,47,-57,-99,0,0,0,1,1.6998e+09
2.3573e+05,1.6999e+09,1,75,-128,419,47,-57,-99,0,0,0,1,1.6999e+09
2.3614e+05,1.7e+09,1,76,-142,421,47,-57,-99,0,0,0,1,1.7e+09
2.3658e+05,1.7001e+09,1,69,-149,434,47,-57,-99,0,0,0,1,1.7001e+09
2.3701e+05,1.7002e+09,1,76,-146,425,47,-57,-99,0,0,0,1,1.7002e+09
2.3744e+05,1.7003e+09,1,85,-142,418,47,-57,-99,0,0,0,1,1.7003e+09
2.3785e+05,1.7004e+09,1,84,-134,415,47,-57,-99,0,0,0,1,1.7004e+09
2.3826e+05,1.7006e+09,1,86,-137,416,47,-57,-99,0,0,0,1,1.7006e+09
2.3871e+05,1.7007e+09,1,85,-147,415,47,-57,-99,0,0,0,1,1.7007e+09
2.3916e+05,1.7008e+09,1,86,-158,420,47,-57,-99,0,0,0,1,1.7008e+09
2.396e+05,1.7009e+09,1,81,-165,423,47,-57,-99,0,0,0,1,1.7009e+09
2.4004e+05,1.701e+09,1,85,-154,424,47,-57,-99,0,0,0,1,1.701e+09
2.4049e+05,1.7011e+09,1,87,-145,416,47,-57,-99,0,0,0,1,1.7011e+09
2.4089e+05,1.7012e+09,1,98,-142,406,47,-57,-99,0,0,0,1,1.7012e+09
2.4131e+05,1.7013e+09,1,99,-138,406,47,-57,-99,0,0,0,1,1.7013e+09
2.4175e+05,1.7014e+09,1,96,-143,407,47,-57,-99,0,0,0,1,1.7014e+09
2.4219e+05,1.7015e+09,1,94,-143,412,47,-57,-99,0,0,0,1,1.7015e+09
2.4264e+05,1.7016e+09,1,95,-146,409,47,-57,-99,0,0,0,1,1.7016e+09
2.4305e+05,1.7018e+09,1,97,-148,410,47,-57,-99,0,0,0,1,1.7018e+09
2.435e+05,1.7019e+09,1,99,-137,401,47,-57,-99,0,0,0,1,1.7019e+09
2.4391e+05,1.702e+09,1,103,-132,395,47,-57,-99,0,0,0,1,1.702e+09
2.4435e+05,1.7021e+09,1,106,-133,391,47,-57,-99,0,0,0,1,1.7021e+09
2.4475e+05,1.7022e+09,1,101,-138,394,47,-57,-99,0,0,0,1,1.7022e+09
2.4518e+05,1.7023e+09,1,101,-137,395,47,-57,-99,0,0,0,1,1.7023e+09
2.456e+05,1.7024e+09,1,102,-133,394,47,-57,-99,0,0,0,1,1.7024e+09
2.4605e+05,1.7025e+09,1,106,-126,385,47,-57,-99,0,0,0,1,1.7025e+09
2.4646e+05,1.7026e+09,1,108,-123,388,47,-57,-99,0,0,0,1,1.7026e+09
2.4691e+05,1.7027e+09,1,108,-118,385,47,-57,-99,0,0,0,1,1.7027e+09
2.4735e+05,1.7028e+09,1,113,-107,384,47,-57,-99,0,0,0,1,1.7028e+09
2.478e+05,1.7029e+09,1,111,-120,386,47,-57,-99,0,0,0,1,1.7029e+09
2.4824e+05,1.703e+09,1,106,-127,398,47,-57,-99,0,0,0,1,1.703e+09
2.4865e+05,1.7032e+09,1,110,-133,396,47,-57,-99,0,0,0,1,1.7032e+09
2.4908e+05,1.7033e+09,1,113,-139,389,47,-57,-99,0,0,0,1,1.7033e+09
2.495e+05,1.7034e+09,1,111,-132,394,47,-57,-99,0,0,0,1,1.7034e+09
2.4994e+05,1.7035e+09,1,114,-134,390,47,-57,-99,0,0,0,1,1.7035e+09
2.5038e+05,1.7036e+09,1,106,-150,399,47,-57,-99,0,0,0,1,1.7036e+09
2.5083e+05,1.7037e+09,1,100,-158,410,47,-57,-99,0,0,0,1,1.7037e+09
2.5124e+05,1.7038e+09,1,99,-172,409,47,-57,-99,0,0,0,1,1.7038e+09
2.5169e+05,1.7039e+09,1,98,-172,416,47,-57,-99,0,0,0,1,1.7039e+09
2.5213e+05,1.704e+09,1,98,-177,416,47,-57,-99,0,0,0,1,1.704e+09
2.5258e+05,1.7041e+09,1,95,-188,424,47,-57,-99,0,0,0,1,1.7041e+09
2.5302e+05,1.7042e+09,1,103,-182,418,47,-57,-99,0,0,0,1,1.7042e+09
2.5346e+05,1.7043e+09,1,126,-180,399,47,-57,-99,0,0,0,1,1.7043e+09
2.5387e+05,1.7044e+09,1,141,-185,389,47,-57,-99,0,0,0,1,1.7044e+09
2.5432e+05,1.7045e+09,1,155,-167,377,47,-57,-99,0,0,0,1,1.7045e+09
2.5476e+05,1.7047e+09,1,164,-160,359,47,-57,-99,0,0,0,1,1.7047e+09
2.5521e+05,1.7048e+09,1,163,-136,350,47,-57,-99,0,0,0,1,1.7048e+09
2.5565e+05,1.7049e+09,1,161,-104,336,47,-57,-99,0,0,0,1,1.7049e+09
2.5609e+05,1.705e+09,1,145,-122,352,47,-57,-99,0,0,0,1,1.705e+09
2.5654e+05,1.7051e+09,1,128,-132,366,47,-57,-99,0,0,0,1,1.7051e+09
2.5694e+05,1.7052e+09,1,117,-157,382,47,-57,-99,0,0,0,1,1.7052e+09
2.5739e+05,1.7053e+09,1,106,-161,389,47,-57,-99,0,0,0,1,1.7053e+09
2.578e+05,1.7054e+09,1,111,-162,389,47,-57,-99,0,0,0,1,1.7054e+09
2.5822e+05,1.7055e+09,1,113,-168,390,47,-57,-99,0,0,0,1,1.7055e+09
2.5866e+05,1.7056e+09,1,113,-161,387,47,-57,-99,0,0,0,1,1.7056e+09
2.591e+05,1.7057e+09,1,107,-149,393,47,-57,-99,0,0,0,1,1.7057e+09
2.5955e+05,1.7058e+09,1,109,-155,394,47,-57,-99,0,0,0,1,1.7058e+09
2.5997e+05,1.7059e+09,1,109,-152,392,47,-57,-99,0,0,0,1,1.7059e+09
2.604e+05,1.7061e+09,1,114,-148,389,47,-57,-99,0,0,0,1,1.7061e+09
2.6085e+05,1.7062e+09,1,121,-140,378,47,-57,-99,0,0,0,1,1.7062e+09
2.6124e+05,1.7063e+09,1,125,-129,376,47,-57,-99,0,0,0,1,1.7063e+09
2.6166e+05,1.7064e+09,1,128,-141,376,47,-57,-99,0,0,0,1,1.7064e+09
2.6211e+05,1.7065e+09,1,119,-138,381,47,-57,-99,0,0,0,1,1.7065e+09
2.6252e+05,1.7066e+09,1,119,-133,379,47,-57,-99,0,0,0,1,1.7066e+09
2.6296e+05,1.7067e+09,1,118,-141,382,47,-57,-99,0,0,0,1,1.7067e+09
2.634e+05,1.7068e+09,1,112,-151,389,47,-57,-99,0,0,0,1,1.7068e+09
2.6385e+05,1.7069e+09,1,108,-162,399,47,-57,-99,0,0,0,1,1.7069e+09
2.6426e+05,1.707e+09,1,104,-160,402,47,-57,-99,0,0,0,1,1.707e+09
2.6471e+05,1.7071e+09,1,97,-171,412,47,-57,-99,0,0,0,1,1.7071e+09
2.6515e+05,1.7072e+09,1,89,-182,432,47,-57,-99,0,0,0,1,1.7072e+09
2.656e+05,1.7073e+09,1,93,-196,423,47,-57,-99,0,0,0,1,1.7073e+09
2.66e+05,1.7074e+09,1,93,-207,421,47,-57,-99,0,0,0,1,1.7074e+09
2.6645e+05,1.7076e+09,1,102,-217,416,47,-57,-99,0,0,0,1,1.7076e+09
2.6689e+05,1.7077e+09,1,104,-206,407,47,-57,-99,0,0,0,1,1.7077e+09
2.6733e+05,1.7078e+09,1,108,-198,406,47,-57,-99,0,0,0,1,1.7078e+09
2.6778e+05,1.7079e+09,1,105,-194,410,47,-57,-99,0,0,0,1,1.7079e+09
2.6822e+05,1.708e+09,1,108,-206,415,47,-57,-99,0,0,0,1,1.708e+09
2.6865e+05,1.7081e+09,1,105,-212,413,47,-57,-99,0,0,0,1,1.7081e+09
2.6904e+05,1.7082e+09,1,109,-205,407,47,-57,-99,0,0,0,1,1.7082e+09
2.6949e+05,1.7083e+09,1,106,-208,411,47,-57,-99,0,0,0,1,1.7083e+09
2.699e+05,1.7084e+09,1,104,-198,416,47,-57,-99,0,0,0,1,1.7084e+09
2.7034e+05,1.7085e+09,1,111,-203,408,47,-57,-99,0,0,0,1,1.7085e+09
2.7078e+05,1.7086e+09,1,104,-204,415,47,-57,-99,0,0,0,1,1.7086e+09
2.712e+05,1.7087e+09,1,105,-206,413,47,-57,-99,0,0,0,1,1.7087e+09
2.7164e+05,1.7088e+09,1,107,-206,416,47,-57,-99,0,0,0,1,1.7088e+09
2.7209e+05,1.709e+09,1,102,-200,412,47,-57,-99,0,0,0,1,1.709e+09
2.7253e+05,1.7091e+09,1,105,-201,409,47,-57,-99,0,0,0,1,1.7091e+09
2.7297e+05,1.7092e+09,1,108,-198,402,47,-57,-99,0,0,0,1,1.7092e+09
2.7337e+05,1.7093e+09,1,102,-202,413,47,-57,-99,0,0,0,1,1.7093e+09
2.7379e+05,1.7094e+09,1,103,-198,411,47,-57,-99,0,0,0,1,1.7094e+09
2.742e+05,1.7095e+09,1,102,-207,411,47,-57,-99,0,0,0,1,1.7095e+09
2.7464e+05,1.7096e+09,1,100,-200,413,47,-57,-99,0,0,0,1,1.7096e+09
2.7509e+05,1.7097e+09,1,98,-199,415,47,-57,-99,0,0,0,1,1.7097e+09
2.7553e+05,1.7098e+09,1,102,-202,411,47,-57,-99,0,0,0,1,1.7098e+09
2.7598e+05,1.7099e+09,1,99,-204,417,47,-57,-99,0,0,0,1,1.7099e+09
2.7642e+05,1.71e+09,1,101,-194,415,47,-57,-99,0,0,0,1,1.71e+09
2.7686e+05,1.7101e+09,1,97,-213,423,47,-57,-99,0,0,0,1,1.7101e+09
2.773e+05,1.7102e+09,1,95,-210,418,47,-57,-99,0,0,0,1,1.7102e+09
2.7775e+05,1.7104e+09,1,97,-198,411,47,-57,-99,0,0,0,1,1.7104e+09
2.7819e+05,1.7105e+09,1,104,-202,406,47,-57,-99,0,0,0,1,1.7105e+09
2.7861e+05,1.7106e+09,1,97,-215,414,47,-57,-99,0,0,0,1,1.7106e+09
2.7903e+05,1.7107e+09,1,104,-221,412,47,-57,-99,0,0,0,1,1.7107e+09
2.7946e+05,1.7108e+09,1,101,-215,412,47,-57,-99,0,0,0,1,1.7108e+09
2.799e+05,1.7109e+09,1,113,-199,393,47,-57,-99,0,0,0,1,1.7109e+09
2.8034e+05,1.711e+09,1,106,-200,406,47,-57,-99,0,0,0,1,1.711e+09
2.8076e+05,1.7111e+09,1,103,-201,405,47,-57,-99,0,0,0,1,1.7111e+09
2.8119e+05,1.7112e+09,1,105,-205,402,47,-57,-99,0,0,0,1,1.7112e+09
2.8161e+05,1.7113e+09,1,103,-218,411,47,-57,-99,0,0,0,1,1.7113e+09
2.8202e+05,1.7114e+09,1,103,-212,410,47,-57,-99,0,0,0,1,1.7114e+09
2.8247e+05,1.7115e+09,1,113,-193,390,47,-57,-99,0,0,0,1,1.7115e+09
2.8291e+05,1.7116e+09,1,112,-208,402,47,-57,-99,0,0,0,1,1.7116e+09
2.8335e+05,1.7117e+09,1,108,-222,414,47,-57,-99,0,0,0,1,1.7117e+09
2.8376e+05,1.7119e+09,1,101,-216,419,47,-57,-99,0,0,0,1,1.7119e+09
2.8421e+05,1.712e+09,1,103,-200,406,47,-57,-99,0,0,0,1,1.712e+09
2.846e+05,1.7121e+09,1,105,-195,402,47,-57,-99,0,0,0,1,1.7121e+09
2.8502e+05,1.7122e+09,1,101,-201,409,47,-57,-99,0,0,0,1,1.7122e+09
2.8547e+05,1.7123e+09,1,101,-198,405,47,-57,-99,0,0,0,1,1.7123e+09
2.8588e+05,1.7124e+09,1,108,-183,391,47,-57,-99,0,0,0,1,1.7124e+09
2.8633e+05,1.7125e+09,1,118,-188,384,47,-57,-99,0,0,0,1,1.7125e+09
2.8677e+05,1.7126e+09,1,114,-204,396,47,-57,-99,0,0,0,1,1.7126e+09
2.8718e+05,1.7127e+09,1,119,-177,382,47,-57,-99,0,0,0,1,1.7127e+09
2.8763e+05,1.7128e+09,1,116,-154,384,47,-57,-99,0,0,0,1,1.7128e+09
2.8807e+05,1.7129e+09,1,120,-125,380,47,-57,-99,0,0,0,1,1.7129e+09
2.8851e+05,1.713e+09,1,134,-96,369,47,-57,-99,0,0,0,1,1.713e+09
2.8896e+05,1.7131e+09,1,124,-70,377,47,-57,-99,0,0,0,1,1.7131e+09
2.894e+05,1.7132e+09,1,125,-30,372,47,-57,-99,0,0,0,1,1.7132e+09
2.8985e+05,1.7134e+09,1,129,-2,371,47,-57,-99,0,0,0,1,1.7134e+09
2.9026e+05,1.7135e+09,1,130,-8,371,47,-57,-99,0,0,0,1,1.7135e+09
2.907e+05,1.7136e+09,1,130,-28,376,47,-57,-99,0,0,0,1,1.7136e+09
2.9112e+05,1.7137e+09,1,121,-46,391,47,-57,-99,0,0,0,1,1.7137e+09
2.9155e+05,1.7138e+09,1,118,-50,388,47,-57,-99,0,0,0,1,1.7138e+09
2.9199e+05,1.7139e+09,1,108,-77,399,47,-57,-99,0,0,0,1,1.7139e+09
2.924e+05,1.714e+09,1,116,-116,400,47,-57,-99,0,0,0,1,1.714e+09
2.9285e+05,1.7141e+09,1,107,-150,398,47,-57,-99,0,0,0,1,1.7141e+09
2.9329e+05,1.7142e+09,1,100,-177,402,47,-57,-99,0,0,0,1,1.7142e+09
2.9373e+05,1.7143e+09,1,102,-186,402,47,-57,-99,0,0,0,1,1.7143e+09
2.9418e+05,1.7144e+09,1,99,-193,407,47,-57,-99,0,0,0,1,1.7144e+09
2.9459e+05,1.7145e+09,1,103,-177,401,47,-57,-99,0,0,0,1,1.7145e+09
2.9503e+05,1.7147e+09,1,110,-152,389,47,-57,-99,0,0,0,1,1.7147e+09
2.9548e+05,1.7148e+09,1,110,-155,391,47,-57,-99,0,0,0,1,1.7148e+09
2.959e+05,1.7149e+09,1,113,-161,394,47,-57,-99,0,0,0,1,1.7149e+09
2.9633e+05,1.715e+09,1,110,-161,393,47,-57,-99,0,0,0,1,1.715e+09
2.9674e+05,1.7151e+09,1,110,-162,397,47,-57,-99,0,0,0,1,1.7151e+09
2.9715e+05,1.7152e+09,1,111,-170,402,47,-57,-99,0,0,0,1,1.7152e+09
2.976e+05,1.7153e+09,1,109,-165,399,47,-57,-99,0,0,0,1,1.7153e+09
2.9804e+05,1.7154e+09,1,107,-171,401,47,-57,-99,0,0,0,1,1.7154e+09
2.9848e+05,1.7155e+09,1,107,-162,399,47,-57,-99,0,0,0,1,1.7155e+09
2.9892e+05,1.7156e+09,1,108,-160,398,47,-57,-99,0,0,0,1,1.7156e+09
2.9937e+05,1.7157e+09,1,108,-157,396,47,-57,-99,0,0,0,1,1.7157e+09
2.9981e+05,1.7158e+09,1,100,-168,406,47,-57,-99,0,0,0,1,1.7158e+09
3.0026e+05,1.7159e+09,1,94,-177,410,47,-57,-99,0,0,0,1,1.7159e+09
3.0066e+05,1.716e+09,1,93,-159,409,47,-57,-99,0,0,0,1,1.716e+09
3.0111e+05,1.7162e+09,1,107,-151,394,47,-57,-99,0,0,0,1,1.7162e+09
3.0153e+05,1.7163e+09,1,123,-140,379,47,-57,-99,0,0,0,1,1.7163e+09
3.0192e+05,1.7164e+09,1,130,-142,378,47,-57,-99,0,0,0,1,1.7164e+09
3.0237e+05,1.7165e+09,1,129,-149,377,47,-57,-99,0,0,0,1,1.7165e+09
3.0281e+05,1.7166e+09,1,115,-146,386,47,-57,-99,0,0,0,1,1.7166e+09
3.0326e+05,1.7167e+09,1,112,-139,387,47,-57,-99,0,0,0,1,1.7167e+09
3.0367e+05,1.7168e+09,1,115,-131,381,47,-57,-99,0,0,0,1,1.7168e+09
3.0412e+05,1.7169e+09,1,109,-124,391,47,-57,-99,0,0,0,1,1.7169e+09
3.0456e+05,1.717e+09,1,107,-116,394,47,-57,-99,0,0,0,1,1.717e+09
3.05e+05,1.7171e+09,1,104,-97,396,47,-57,-99,0,0,0,1,1.7171e+09
3.0544e+05,1.7172e+09,1,110,-82,390,47,-57,-99,0,0,0,1,1.7172e+09
3.0588e+05,1.7173e+09,1,114,-97,391,47,-57,-99,0,0,0,1,1.7173e+09
3.0632e+05,1.7175e+09,1,115,-110,394,47,-57,-99,0,0,0,1,1.7175e+09
3.0677e+05,1.7176e+09,1,116,-128,396,47,-57,-99,0,0,0,1,1.7176e+09
3.0718e+05,1.7177e+09,1,118,-124,397,47,-57,-99,0,0,0,1,1.7177e+09
3.0763e+05,1.7178e+09,1,130,-125,384,47,-57,-99,0,0,0,1,1.7178e+09
3.0805e+05,1.7179e+09,1,131,-132,384,47,-57,-99,0,0,0,1,1.7179e+09
3.0849e+05,1.718e+09,1,133,-141,381,47,-57,-99,0,0,0,1,1.718e+09
3.0888e+05,1.7181e+09,1,133,-137,381,47,-57,-99,0,0,0,1,1.7181e+09
3.0931e+05,1.7182e+09,1,128,-142,382,47,-57,-99,0,0,0,1,1.7182e+09
3.0976e+05,1.7183e+09,1,125,-148,387,47,-57,-99,0,0,0,1,1.7183e+09
3.102e+05,1.7184e+09,1,123,-144,385,47,-57,-99,0,0,0,1,1.7184e+09
3.1065e+05,1.7185e+09,1,123,-154,386,47,-57,-99,0,0,0,1,1.7185e+09
3.1106e+05,1.7186e+09,1,113,-168,396,47,-57,-99,0,0,0,1,1.7186e+09
3.115e+05,1.7187e+09,1,115,-153,394,47,-57,-99,0,0,0,1,1.7187e+09
3.1195e+05,1.7189e+09,1,116,-153,391,47,-57,-99,0,0,0,1,1.7189e+09
3.1239e+05,1.719e+09,1,115,-157,389,47,-57,-99,0,0,0,1,1.719e+09
3.1316e+05,1.7192e+09,1,110,-177,394,47,-57,-99,0,0,0,1,1.7192e+09
3.1361e+05,1.7193e+09,1,98,-162,409,47,-57,-99,0,0,0,1,1.7193e+09
3.1404e+05,1.7194e+09,1,98,-119,405,47,-57,-99,0,0,0,1,1.7194e+09
3.1443e+05,1.7195e+09,1,94,-100,415,47,-57,-99,0,0,0,1,1.7195e+09
3.1486e+05,1.7196e+09,1,98,-97,410,47,-57,-99,0,0,0,1,1.7196e+09
3.1531e+05,1.7197e+09,1,101,-94,403,47,-57,-99,0,0,0,1,1.7197e+09
3.1575e+05,1.7198e+09,1,99,-106,412,47,-57,-99,0,0,0,1,1.7198e+09
3.162e+05,1.7199e+09,1,105,-101,405,47,-57,-99,0,0,0,1,1.7199e+09
3.1664e+05,1.72e+09,1,113,-97,398,47,-57,-99,0,0,0,1,1.72e+09
3.1706e+05,1.7202e+09,1,111,-98,404,47,-57,-99,0,0,0,1,1.7202e+09
3.175e+05,1.7203e+09,1,115,-100,400,47,-57,-99,0,0,0,1,1.7203e+09
3.1794e+05,1.7204e+09,1,119,-108,398,47,-57,-99,0,0,0,1,1.7204e+09
3.1839e+05,1.7205e+09,1,120,-115,397,47,-57,-99,0,0,0,1,1.7205e+09
3.1883e+05,1.7206e+09,1,120,-128,398,47,-57,-99,0,0,0,1,1.7206e+09
3.1928e+05,1.7207e+09,1,112,-138,402,47,-57,-99,0,0,0,1,1.7207e+09
3.1969e+05,1.7208e+09,1,107,-143,404,47,-57,-99,0,0,0,1,1.7208e+09
3.2014e+05,1.7209e+09,1,111,-140,401,47,-57,-99,0,0,0,1,1.7209e+09
3.2058e+05,1.721e+09,1,109,-138,397,47,-57,-99,0,0,0,1,1.721e+09
3.2102e+05,1.7211e+09,1,112,-148,397,47,-57,-99,0,0,0,1,1.7211e+09
3.2142e+05,1.7212e+09,1,109,-147,401,47,-57,-99,0,0,0,1,1.7212e+09
3.2185e+05,1.7213e+09,1,116,-145,401,47,-57,-99,0,0,0,1,1.7213e+09
3.2228e+05,1.7214e+09,1,109,-143,403,47,-57,-99,0,0,0,1,1.7214e+09
3.2273e+05,1.7215e+09,1,106,-138,408,47,-57,-99,0,0,0,1,1.7215e+09
3.2317e+05,1.7217e+09,1,98,-140,415,47,-57,-99,0,0,0,1,1.7217e+09
3.2361e+05,1.7218e+09,1,98,-146,420,47,-57,-99,0,0,0,1,1.7218e+09
3.2406e+05,1.7219e+09,1,85,-153,425,47,-57,-99,0,0,0,1,1.7219e+09
3.2447e+05,1.722e+09,1,81,-185,426,47,-57,-99,0,0,0,1,1.722e+09
3.2492e+05,1.7221e+09,1,82,-179,416,47,-57,-99,0,0,0,1,1.7221e+09
3.2536e+05,1.7222e+09,1,83,-174,410,47,-57,-99,0,0,0,1,1.7222e+09
3.258e+05,1.7223e+09,1,88,-167,408,47,-57,-99,0,0,0,1,1.7223e+09
3.2621e+05,1.7224e+09,1,86,-157,410,47,-57,-99,0,0,0,1,1.7224e+09
3.2666e+05,1.7225e+09,1,88,-165,417,47,-57,-99,0,0,0,1,1.7225e+09
3.271e+05,1.7226e+09,1,90,-169,411,47,-57,-99,0,0,0,1,1.7226e+09
3.2754e+05,1.7227e+09,1,90,-156,413,47,-57,-99,0,0,0,1,1.7227e+09
3.2796e+05,1.7228e+09,1,83,-153,419,47,-57,-99,0,0,0,1,1.7228e+09
3.284e+05,1.7229e+09,1,86,-131,426,47,-57,-99,0,0,0,1,1.7229e+09
3.2881e+05,1.723e+09,1,92,-114,421,47,-57,-99,0,0,0,1,1.723e+09
3.2925e+05,1.7232e+09,1,91,-100,426,47,-57,-99,0,0,0,1,1.7232e+09
3.2968e+05,1.7233e+09,1,99,-106,414,47,-57,-99,0,0,0,1,1.7233e+09
3.301e+05,1.7234e+09,1,104,-122,413,47,-57,-99,0,0,0,1,1.7234e+09
3.3054e+05,1.7235e+09,1,105,-141,410,47,-57,-99,0,0,0,1,1.7235e+09
3.3098e+05,1.7236e+09,1,105,-152,409,47,-57,-99,0,0,0,1,1.7236e+09
3.3143e+05,1.7237e+09,1,107,-161,404,47,-57,-99,0,0,0,1,1.7237e+09
3.3184e+05,1.7238e+09,1,106,-158,403,47,-57,-99,0,0,0,1,1.7238e+09
3.3229e+05,1.7239e+09,1,113,-154,399,47,-57,-99,0,0,0,1,1.7239e+09
3.3273e+05,1.724e+09,1,120,-147,392,47,-57,-99,0,0,0,1,1.724e+09
3.3318e+05,1.7241e+09,1,124,-139,392,47,-57,-99,0,0,0,1,1.7241e+09
3.3362e+05,1.7242e+09,1,130,-141,383,47,-57,-99,0,0,0,1,1.7242e+09
3.3403e+05,1.7243e+09,1,131,-127,383,47,-57,-99,0,0,0,1,1.7243e+09
3.3444e+05,1.7244e+09,1,131,-127,381,47,-57,-99,0,0,0,1,1.7244e+09
3.3488e+05,1.7245e+09,1,128,-129,387,47,-57,-99,0,0,0,1,1.7245e+09
3.3533e+05,1.7247e+09,1,131,-127,381,47,-57,-99,0,0,0,1,1.7247e+09
3.3574e+05,1.7248e+09,1,126,-132,385,47,-57,-99,0,0,0,1,1.7248e+09
3.3618e+05,1.7249e+09,1,123,-132,393,47,-57,-99,0,0,0,1,1.7249e+09
3.3663e+05,1.725e+09,1,117,-136,397,47,-57,-99,0,0,0,1,1.725e+09
3.3707e+05,1.7251e+09,1,119,-126,395,47,-57,-99,0,0,0,1,1.7251e+09
3.3748e+05,1.7252e+09,1,121,-121,392,47,-57,-99,0,0,0,1,1.7252e+09
3.3793e+05,1.7253e+09,1,124,-127,393,47,-57,-99,0,0,0,1,1.7253e+09
3.3837e+05,1.7254e+09,1,119,-139,397,47,-57,-99,0,0,0,1,1.7254e+09
3.3878e+05,1.7255e+09,1,114,-140,400,47,-57,-99,0,0,0,1,1.7255e+09
3.3922e+05,1.7256e+09,1,110,-130,401,47,-57,-99,0,0,0,1,1.7256e+09
3.3967e+05,1.7257e+09,1,110,-136,408,47,-57,-99,0,0,0,1,1.7257e+09
3.401e+05,1.7258e+09,1,103,-131,416,47,-57,-99,0,0,0,1,1.7258e+09
3.4053e+05,1.7259e+09,1,110,-125,407,47,-57,-99,0,0,0,1,1.7259e+09
3.4096e+05,1.726e+09,1,111,-138,404,47,-57,-99,0,0,0,1,1.726e+09
3.4141e+05,1.7262e+09,1,112,-137,405,47,-57,-99,0,0,0,1,1.7262e+09
3.4185e+05,1.7263e+09,1,119,-140,399,47,-57,-99,0,0,0,1,1.7263e+09
3.4226e+05,1.7264e+09,1,122,-134,397,47,-57,-99,0,0,0,1,1.7264e+09
3.4271e+05,1.7265e+09,1,126,-130,393,47,-57,-99,0,0,0,1,1.7265e+09
3.4315e+05,1.7266e+09,1,123,-131,398,47,-57,-99,0,0,0,1,1.7266e+09
3.436e+05,1.7267e+09,1,121,-134,396,47,-57,-99,0,0,0,1,1.7267e+09
3.44e+05,1.7268e+09,1,109,-137,407,47,-57,-99,0,0,0,1,1.7268e+09
3.4445e+05,1.7269e+09,1,104,-136,413,47,-57,-99,0,0,0,1,1.7269e+09
3.4486e+05,1.727e+09,1,105,-130,407,47,-57,-99,0,0,0,1,1.727e+09
3.4531e+05,1.7271e+09,1,102,-119,413,47,-57,-99,0,0,0,1,1.7271e+09
3.4575e+05,1.7272e+09,1,107,-112,411,47,-57,-99,0,0,0,1,1.7272e+09
3.4619e+05,1.7273e+09,1,112,-108,403,47,-57,-99,0,0,0,1,1.7273e+09
3.4664e+05,1.7274e+09,1,110,-111,409,47,-57,-99,0,0,0,1,1.7274e+09
3.4704e+05,1.7276e+09,1,104,-118,414,47,-57,-99,0,0,0,1,1.7276e+09
3.4747e+05,1.7277e+09,1,102,-122,418,47,-57,-99,0,0,0,1,1.7277e+09
3.4789e+05,1.7278e+09,1,105,-117,415,47,-57,-99,0,0,0,1,1.7278e+09
3.4831e+05,1.7279e+09,1,104,-134,418,47,-57,-99,0,0,0,1,1.7279e+09
3.4875e+05,1.728e+09,1,106,-153,422,47,-57,-99,0,0,0,1,1.728e+09
3.492e+05,1.7281e+09,1,107,-148,416,47,-57,-99,0,0,0,1,1.7281e+09
3.4964e+05,1.7282e+09,1,109,-152,410,47,-57,-99,0,0,0,1,1.7282e+09
3.5008e+05,1.7283e+09,1,114,-138,408,47,-57,-99,0,0,0,1,1.7283e+09
3.5049e+05,1.7284e+09,1,115,-139,410,47,-57,-99,0,0,0,1,1.7284e+09
3.5094e+05,1.7285e+09,1,123,-131,402,47,-57,-99,0,0,0,1,1.7285e+09
3.5135e+05,1.7286e+09,1,122,-129,405,47,-57,-99,0,0,0,1,1.7286e+09
3.5179e+05,1.7287e+09,1,123,-124,407,47,-57,-99,0,0,0,1,1.7287e+09
3.5223e+05,1.7288e+09,1,125,-114,407,47,-57,-99,0,0,0,1,1.7288e+09
3.5268e+05,1.729e+09,1,126,-105,408,47,-57,-99,0,0,0,1,1.729e+09
3.5309e+05,1.7291e+09,1,125,-101,407,47,-57,-99,0,0,0,1,1.7291e+09
3.535e+05,1.7292e+09,1,126,-105,403,47,-57,-99,0,0,0,1,1.7292e+09
3.5394e+05,1.7293e+09,1,125,-103,403,47,-57,-99,0,0,0,1,1.7293e+09
3.5439e+05,1.7294e+09,1,127,-99,399,47,-57,-99,0,0,0,1,1.7294e+09
3.5481e+05,1.7295e+09,1,127,-106,399,47,-57,-99,0,0,0,1,1.7295e+09
3.5521e+05,1.7296e+09,1,122,-109,398,47,-57,-99,0,0,0,1,1.7296e+09
3.5566e+05,1.7297e+09,1,121,-113,403,47,-57,-99,0,0,0,1,1.7297e+09
3.561e+05,1.7298e+09,1,125,-110,405,47,-57,-99,0,0,0,1,1.7298e+09
3.5655e+05,1.7299e+09,1,132,-102,394,47,-57,-99,0,0,0,1,1.7299e+09
3.5699e+05,1.73e+09,1,134,-114,397,47,-57,-99,0,0,0,1,1.73e+09
3.5741e+05,1.7301e+09,1,135,-115,393,47,-57,-99,0,0,0,1,1.7301e+09
3.5784e+05,1.7302e+09,1,129,-114,395,47,-57,-99,0,0,0,1,1.7302e+09
3.5829e+05,1.7304e+09,1,133,-114,394,47,-57,-99,0,0,0,1,1.7304e+09
3.587e+05,1.7305e+09,1,121,-116,407,47,-57,-99,0,0,0,1,1.7305e+09
3.5914e+05,1.7306e+09,1,125,-128,406,47,-57,-99,0,0,0,1,1.7306e+09
3.5959e+05,1.7307e+09,1,112,-126,415,47,-57,-99,0,0,0,1,1.7307e+09
3.6e+05,1.7308e+09,1,112,-142,410,47,-57,-99,0,0,0,1,1.7308e+09
3.6045e+05,1.7309e+09,1,105,-150,415,47,-57,-99,0,0,0,1,1.7309e+09
3.6085e+05,1.731e+09,1,104,-156,411,47,-57,-99,0,0,0,1,1.731e+09
3.6128e+05,1.7311e+09,1,107,-165,409,47,-57,-99,0,0,0,1,1.7311e+09
3.6168e+05,1.7312e+09,1,104,-165,410,47,-57,-99,0,0,0,1,1.7312e+09
3.6212e+05,1.7313e+09,1,108,-151,408,47,-57,-99,0,0,0,1,1.7313e+09
3.6256e+05,1.7314e+09,1,115,-141,402,47,-57,-99,0,0,0,1,1.7314e+09
3.6301e+05,1.7315e+09,1,113,-127,406,47,-57,-99,0,0,0,1,1.7315e+09
3.6345e+05,1.7316e+09,1,116,-116,407,47,-57,-99,0,0,0,1,1.7316e+09
3.6387e+05,1.7317e+09,1,117,-114,409,47,-57,-99,0,0,0,1,1.7317e+09
3.6431e+05,1.7319e+09,1,119,-105,400,47,-57,-99,0,0,0,1,1.7319e+09
3.6472e+05,1.732e+09,1,128,-104,394,47,-57,-99,0,0,0,1,1.732e+09
3.6516e+05,1.7321e+09,1,122,-114,395,47,-57,-99,0,0,0,1,1.7321e+09
3.6561e+05,1.7322e+09,1,125,-113,395,47,-57,-99,0,0,0,1,1.7322e+09
3.6602e+05,1.7323e+09,1,121,-111,399,47,-57,-99,0,0,0,1,1.7323e+09
3.6645e+05,1.7324e+09,1,130,-115,388,47,-57,-99,0,0,0,1,1.7324e+09
3.6688e+05,1.7325e+09,1,122,-111,397,47,-57,-99,0,0,0,1,1.7325e+09
3.6728e+05,1.7326e+09,1,119,-117,400,47,-57,-99,0,0,0,1,1.7326e+09
3.6772e+05,1.7327e+09,1,112,-112,401,47,-57,-99,0,0,0,1,1.7327e+09
3.6817e+05,1.7328e+09,1,112,-108,391,47,-57,-99,0,0,0,1,1.7328e+09
3.6861e+05,1.7329e+09,1,118,-107,385,47,-57,-99,0,0,0,1,1.7329e+09
3.6905e+05,1.733e+09,1,121,-104,372,47,-57,-99,0,0,0,1,1.733e+09
3.6947e+05,1.7331e+09,1,125,-86,366,47,-57,-99,0,0,0,1,1.7331e+09
3.6991e+05,1.7333e+09,1,124,-91,373,47,-57,-99,0,0,0,1,1.7333e+09
3.7035e+05,1.7334e+09,1,130,-97,368,47,-57,-99,0,0,0,1,1.7334e+09
3.708e+05,1.7335e+09,1,125,-96,377,47,-57,-99,0,0,0,1,1.7335e+09
3.7124e+05,1.7336e+09,1,124,-94,379,47,-57,-99,0,0,0,1,1.7336e+09
3.7165e+05,1.7337e+09,1,125,-88,377,47,-57,-99,0,0,0,1,1.7337e+09
3.721e+05,1.7338e+09,1,119,-101,389,47,-57,-99,0,0,0,1,1.7338e+09
3.7254e+05,1.7339e+09,1,116,-106,389,47,-57,-99,0,0,0,1,1.7339e+09
3.7294e+05,1.734e+09,1,112,-115,396,47,-57,-99,0,0,0,1,1.734e+09
3.7337e+05,1.7341e+09,1,110,-110,404,47,-57,-99,0,0,0,1,1.7341e+09
3.7381e+05,1.7342e+09,1,113,-114,397,47,-57,-99,0,0,0,1,1.7342e+09
3.7425e+05,1.7343e+09,1,111,-122,402,47,-57,-99,0,0,0,1,1.7343e+09
3.7469e+05,1.7344e+09,1,108,-125,407,47,-57,-99,0,0,0,1,1.7344e+09
3.7513e+05,1.7345e+09,1,109,-124,403,47,-57,-99,0,0,0,1,1.7345e+09
3.7555e+05,1.7346e+09,1,104,-120,402,47,-57,-99,0,0,0,1,1.7346e+09
3.76e+05,1.7348e+09,1,109,-124,394,47,-57,-99,0,0,0,1,1.7348e+09
3.7644e+05,1.7349e+09,1,103,-129,397,47,-57,-99,0,0,0,1,1.7349e+09
3.7685e+05,1.735e+09,1,109,-125,396,47,-57,-99,0,0,0,1,1.735e+09
3.773e+05,1.7351e+09,1,104,-125,399,47,-57,-99,0,0,0,1,1.7351e+09
3.7774e+05,1.7352e+09,1,113,-124,387,47,-57,-99,0,0,0,1,1.7352e+09
3.7816e+05,1.7353e+09,1,109,-128,396,47,-57,-99,0,0,0,1,1.7353e+09
3.7859e+05,1.7354e+09,1,111,-136,390,47,-57,-99,0,0,0,1,1.7354e+09
3.7903e+05,1.7355e+09,1,108,-132,390,47,-57,-99,0,0,0,1,1.7355e+09
3.7944e+05,1.7356e+09,1,102,-122,392,47,-57,-99,0,0,0,1,1.7356e+09
3.7989e+05,1.7357e+09,1,110,-122,384,47,-57,-99,0,0,0,1,1.7357e+09
3.8033e+05,1.7358e+09,1,103,-123,395,47,-57,-99,0,0,0,1,1.7358e+09
3.8078e+05,1.7359e+09,1,106,-127,396,47,-57,-99,0,0,0,1,1.7359e+09
3.8119e+05,1.736e+09,1,108,-129,399,47,-57,-99,0,0,0,1,1.736e+09
3.8164e+05,1.7361e+09,1,116,-126,394,47,-57,-99,0,0,0,1,1.7361e+09
3.8208e+05,1.7363e+09,1,108,-112,395,47,-57,-99,0,0,0,1,1.7363e+09
3.8251e+05,1.7364e+09,1,103,-100,402,47,-57,-99,0,0,0,1,1.7364e+09
3.8288e+05,1.7365e+09,1,106,-112,413,47,-57,-99,0,0,0,1,1.7365e+09
3.8328e+05,1.7366e+09,1,103,-116,421,47,-57,-99,0,0,0,1,1.7366e+09
3.8372e+05,1.7367e+09,1,109,-128,409,47,-57,-99,0,0,0,1,1.7367e+09
3.8416e+05,1.7368e+09,1,111,-136,399,47,-57,-99,0,0,0,1,1.7368e+09
3.8461e+05,1.7369e+09,1,112,-145,392,47,-57,-99,0,0,0,1,1.7369e+09
3.8502e+05,1.737e+09,1,102,-153,400,47,-57,-99,0,0,0,1,1.737e+09
3.8546e+05,1.7371e+09,1,97,-154,405,47,-57,-99,0,0,0,1,1.7371e+09
3.8587e+05,1.7372e+09,1,101,-150,398,47,-57,-99,0,0,0,1,1.7372e+09
3.8632e+05,1.7373e+09,1,111,-135,387,47,-57,-99,0,0,0,1,1.7373e+09
3.8676e+05,1.7374e+09,1,108,-137,389,47,-57,-99,0,0,0,1,1.7374e+09
3.8717e+05,1.7375e+09,1,117,-136,386,47,-57,-99,0,0,0,1,1.7375e+09
3.876e+05,1.7376e+09,1,119,-137,388,47,-57,-99,0,0,0,1,1.7376e+09
3.8799e+05,1.7378e+09,1,124,-134,383,47,-57,-99,0,0,0,1,1.7378e+09
3.8844e+05,1.7379e+09,1,116,-147,401,47,-57,-99,0,0,0,1,1.7379e+09
3.8885e+05,1.738e+09,1,116,-150,409,47,-57,-99,0,0,0,1,1.738e+09
3.893e+05,1.7381e+09,1,111,-148,409,47,-57,-99,0,0,0,1,1.7381e+09
3.8974e+05,1.7382e+09,1,111,-148,401,47,-57,-99,0,0,0,1,1.7382e+09
3.9018e+05,1.7383e+09,1,111,-149,403,47,-57,-99,0,0,0,1,1.7383e+09
3.9062e+05,1.7384e+09,1,112,-143,401,47,-57,-99,0,0,0,1,1.7384e+09
3.9107e+05,1.7385e+09,1,109,-151,401,47,-57,-99,0,0,0,1,1.7385e+09
3.9151e+05,1.7386e+09,1,106,-150,403,47,-57,-99,0,0,0,1,1.7386e+09
3.9192e+05,1.7387e+09,1,103,-140,407,47,-57,-99,0,0,0,1,1.7387e+09
3.9237e+05,1.7388e+09,1,109,-126,394,47,-57,-99,0,0,0,1,1.7388e+09
3.9278e+05,1.7389e+09,1,113,-131,399,47,-57,-99,0,0,0,1,1.7389e+09
3.9318e+05,1.739e+09,1,112,-136,396,47,-57,-99,0,0,0,1,1.739e+09
3.936e+05,1.7391e+09,1,114,-141,397,47,-57,-99,0,0,0,1,1.7391e+09
3.9404e+05,1.7393e+09,1,108,-131,401,47,-57,-99,0,0,0,1,1.7393e+09
3.9449e+05,1.7394e+09,1,114,-128,395,47,-57,-99,0,0,0,1,1.7394e+09
3.9493e+05,1.7395e+09,1,115,-129,399,47,-57,-99,0,0,0,1,1.7395e+09
3.9537e+05,1.7396e+09,1,114,-129,400,47,-57,-99,0,0,0,1,1.7396e+09
3.9581e+05,1.7397e+09,1,113,-133,398,47,-57,-99,0,0,0,1,1.7397e+09
3.9626e+05,1.7398e+09,1,108,-127,400,47,-57,-99,0,0,0,1,1.7398e+09
3.967e+05,1.7399e+09,1,111,-135,402,47,-57,-99,0,0,0,1,1.7399e+09
3.9714e+05,1.74e+09,1,106,-125,404,47,-57,-99,0,0,0,1,1.74e+09
3.9759e+05,1.7401e+09,1,103,-121,408,47,-57,-99,0,0,0,1,1.7401e+09
3.98e+05,1.7402e+09,1,108,-118,404,47,-57,-99,0,0,0,1,1.7402e+09
3.9844e+05,1.7403e+09,1,106,-117,408,47,-57,-99,0,0,0,1,1.7403e+09
3.9889e+05,1.7404e+09,1,113,-124,397,47,-57,-99,0,0,0,1,1.7404e+09
3.993e+05,1.7405e+09,1,110,-120,402,47,-57,-99,0,0,0,1,1.7405e+09
3.9975e+05,1.7406e+09,1,110,-132,415,47,-57,-99,0,0,0,1,1.7406e+09
4.0019e+05,1.7408e+09,1,107,-139,423,47,-57,-99,0,0,0,1,1.7408e+09
4.006e+05,1.7409e+09,1,105,-130,420,47,-57,-99,0,0,0,1,1.7409e+09
4.0104e+05,1.741e+09,1,106,-134,418,47,-57,-99,0,0,0,1,1.741e+09
