LineNo,TimeUS,Tar,Act,Err,P,I,D,FF,Dmod,SRate,Limit
301,1.6419e+09,-1.3238,-1.3238,0,0,-258.6,0,0,1,0,1
529,1.6419e+09,-0.33197,-0.33197,0,0,-258.6,0,0,1,0,1
981,1.642e+09,-1.9012,-1.9012,0,0,-258.6,0,0,1,0,1
1095,1.6421e+09,-1.7051,-1.7051,0,0,-258.6,0,0,1,0,1
1202,1.6422e+09,-2.6722,-2.6722,0,0,-258.6,0,0,1,0,1
1313,1.6422e+09,-1.8616,-1.8616,0,0,-258.6,0,0,1,0,1
1492,1.6423e+09,-1.8686,-1.8686,0,0,-258.6,0,0,1,0,1
1674,1.6423e+09,-0.14,-0.14,0,0,-258.6,0,0,1,0,1
1718,1.6423e+09,-0.87509,-0.87509,0,0,-258.6,0,0,1,0,1
1763,1.6423e+09,-0.56877,-0.56877,0,0,-258.6,0,0,1,0,1
1807,1.6423e+09,-1.156,-1.156,0,0,-258.6,0,0,1,0,1
1852,1.6423e+09,-2.5741,-2.5741,0,0,-258.6,0,0,1,0,1
1899,1.6424e+09,-1.6242,-1.6242,0,0,-258.6,0,0,1,0,1
1944,1.6424e+09,-3.26,-3.26,0,0,-258.6,0,0,1,0,1
1986,1.6424e+09,-3.8783,-3.8783,0,0,-258.6,0,0,1,0,1
2034,1.6424e+09,-1.4422,-1.4422,0,0,-258.6,0,0,1,0,1
2077,1.6424e+09,-0.39988,-0.39988,0,0,-258.6,0,0,1,0,1
2119,1.6424e+09,0.78278,0.78278,0,0,-258.6,0,0,1,0,1
2165,1.6424e+09,-0.60167,-0.60167,0,0,-258.6,0,0,1,0,1
2209,1.6424e+09,-1.2359,-1.2359,0,0,-258.6,0,0,1,0,1
2251,1.6425e+09,-0.27094,-0.27094,0,0,-258.6,0,0,1,0,1
2295,1.6425e+09,-1.1065,-1.1065,0,0,-258.6,0,0,1,0,1
2337,1.6425e+09,-2.3897,-2.3897,0,0,-258.6,0,0,1,0,1
2380,1.6425e+09,-1.996,-1.996,0,0,-258.6,0,0,1,0,1
2423,1.6425e+09,-0.70086,-0.70086,0,0,-258.6,0,0,1,0,1
2469,1.6425e+09,-0.45958,-0.45958,0,0,-258.6,0,0,1,0,1
2513,1.6425e+09,-0.37155,-0.37155,0,0,-258.6,0,0,1,0,1
2555,1.6425e+09,-0.52223,-0.52223,0,0,-258.6,0,0,1,0,1
2598,1.6425e+09,-1.8164,-1.8164,0,0,-258.6,0,0,1,0,1
2643,1.6425e+09,-1.09,-1.09,0,0,-258.6,0,0,1,0,1
2689,1.6426e+09,-2.1104,-2.1104,0,0,-258.6,0,0,1,0,1
2734,1.6426e+09,-1.2921,-1.2921,0,0,-258.6,0,0,1,0,1
2779,1.6426e+09,-1.136,-1.136,0,0,-258.6,0,0,1,0,1
2824,1.6426e+09,-2.7205,-2.7205,0,0,-258.6,0,0,1,0,1
2873,1.6426e+09,-2.384,-2.384,0,0,-258.6,0,0,1,0,1
2917,1.6426e+09,-1.425,-1.425,0,0,-258.6,0,0,1,0,1
2964,1.6426e+09,0.041389,0.041389,0,0,-258.6,0,0,1,0,1
3008,1.6426e+09,-0.6959,-0.6959,0,0,-258.6,0,0,1,0,1
3053,1.6426e+09,-1.9125,-1.9125,0,0,-258.6,0,0,1,0,1
3097,1.6427e+09,-3.4042,-3.4042,0,0,-258.6,0,0,1,0,1
3142,1.6427e+09,-4.3691,-4.3691,0,0,-258.6,0,0,1,0,1
3187,1.6427e+09,-3.12,-3.12,0,0,-258.6,0,0,1,0,1
3231,1.6427e+09,-1.3384,-1.3384,0,0,-258.6,0,0,1,0,1
3278,1.6427e+09,-0.80996,-0.80996,0,0,-258.6,0,0,1,0,1
3328,1.6427e+09,-0.66366,-0.66366,0,0,-258.6,0,0,1,0,1
3374,1.6427e+09,0.024986,0.024986,0,0,-258.6,0,0,1,0,1
3418,1.6427e+09,-0.27876,-0.27876,0,0,-258.6,0,0,1,0,1
3463,1.6427e+09,-0.37603,-0.37603,0,0,-258.6,0,0,1,0,1
3508,1.6427e+09,-2.1199,-2.1199,0,0,-258.6,0,0,1,0,1
3555,1.6428e+09,-1.4164,-1.4164,0,0,-258.6,0,0,1,0,1
3597,1.6428e+09,-0.77028,-0.77028,0,0,-258.6,0,0,1,0,1
3641,1.6428e+09,-0.43144,-0.43144,0,0,-258.6,0,0,1,0,1
3685,1.6428e+09,-2.6381,-2.6381,0,0,-258.6,0,0,1,0,1
3732,1.6428e+09,-2.6383,-2.6383,0,0,-258.6,0,0,1,0,1
3780,1.6428e+09,-1.8423,-1.8423,0,0,-258.6,0,0,1,0,1
3825,1.6428e+09,-2.0196,-2.0196,0,0,-258.6,0,0,1,0,1
3869,1.6428e+09,-1.4734,-1.4734,0,0,-258.6,0,0,1,0,1
3914,1.6428e+09,-0.89769,-0.89769,0,0,-258.6,0,0,1,0,1
3959,1.6429e+09,-1.1421,-1.1421,0,0,-258.6,0,0,1,0,1
4003,1.6429e+09,-2.0765,-2.0765,0,0,-258.6,0,0,1,0,1
4048,1.6429e+09,-2.4705,-2.4705,0,0,-258.6,0,0,1,0,1
4092,1.6429e+09,-0.73862,-0.73862,0,0,-258.6,0,0,1,0,1
4137,1.6429e+09,-0.57058,-0.57058,0,0,-258.6,0,0,1,0,1
4182,1.6429e+09,-1.3556,-1.3556,0,0,-258.6,0,0,1,0,1
4231,1.6429e+09,-1.2966,-1.2966,0,0,-258.6,0,0,1,0,1
4276,1.6429e+09,0.1359,0.1359,0,0,-258.6,0,0,1,0,1
4320,1.6429e+09,0.5105,0.5105,0,0,-258.6,0,0,1,0,1
4365,1.6429e+09,-0.93479,-0.93479,0,0,-258.6,0,0,1,0,1
4407,1.643e+09,-1.8472,-1.8472,0,0,-258.6,0,0,1,0,1
4450,1.643e+09,-2.1197,-2.1197,0,0,-258.6,0,0,1,0,1
4494,1.643e+09,-0.71516,-0.71516,0,0,-258.6,0,0,1,0,1
4536,1.643e+09,0.492,0.492,0,0,-258.6,0,0,1,0,1
4579,1.643e+09,0.83647,0.83647,0,0,-258.6,0,0,1,0,1
4621,1.643e+09,0.57592,0.57592,0,0,-258.6,0,0,1,0,1
4670,1.643e+09,-0.077057,-0.077057,0,0,-258.6,0,0,1,0,1
4713,1.643e+09,-1.3385,-1.3385,0,0,-258.6,0,0,1,0,1
4756,1.643e+09,0.39845,0.39845,0,0,-258.6,0,0,1,0,1
4799,1.6431e+09,0.36755,0.36755,0,0,-258.6,0,0,1,0,1
4841,1.6431e+09,-0.27695,-0.27695,0,0,-258.6,0,0,1,0,1
4884,1.6431e+09,-0.68111,-0.68111,0,0,-258.6,0,0,1,0,1
4927,1.6431e+09,-0.08707,-0.08707,0,0,-258.6,0,0,1,0,1
4970,1.6431e+09,-1.3327,-1.3327,0,0,-258.6,0,0,1,0,1
5013,1.6431e+09,-1.7953,-1.7953,0,0,-258.6,0,0,1,0,1
5056,1.6431e+09,-1.4181,-1.4181,0,0,-258.6,0,0,1,0,1
5103,1.6431e+09,-1.9678,-1.9678,0,0,-258.6,0,0,1,0,1
5146,1.6431e+09,-2.5122,-2.5122,0,0,-258.6,0,0,1,0,1
5189,1.6431e+09,-1.3262,-1.3262,0,0,-258.6,0,0,1,0,1
5227,1.6432e+09,0.7164,0.7164,0,0,-258.6,0,0,1,0,1
5271,1.6432e+09,-0.21935,-0.21935,0,0,-258.6,0,0,1,0,1
5316,1.6432e+09,-1.897,-1.897,0,0,-258.6,0,0,1,0,1
5360,1.6432e+09,-0.9038,-0.9038,0,0,-258.6,0,0,1,0,1
5405,1.6432e+09,-0.66338,-0.66338,0,0,-258.6,0,0,1,0,1
5449,1.6432e+09,-1.3361,-1.3361,0,0,-258.6,0,0,1,0,1
5494,1.6432e+09,-3.2177,-3.2177,0,0,-258.6,0,0,1,0,1
5543,1.6432e+09,-2.6769,-2.6769,0,0,-258.6,0,0,1,0,1
5588,1.6432e+09,-1.1887,-1.1887,0,0,-258.6,0,0,1,0,1
5632,1.6432e+09,-0.10948,-0.10948,0,0,-258.6,0,0,1,0,1
5677,1.6433e+09,-0.64249,-0.64249,0,0,-258.6,0,0,1,0,1
5722,1.6433e+09,-1.8935,-1.8935,0,0,-258.6,0,0,1,0,1
5766,1.6433e+09,-1.5707,-1.5707,0,0,-258.6,0,0,1,0,1
5812,1.6433e+09,-1.0283,-1.0283,0,0,-258.6,0,0,1,0,1
5859,1.6433e+09,-0.51355,-0.51355,0,0,-258.6,0,0,1,0,1
5904,1.6433e+09,-1.2016,-1.2016,0,0,-258.6,0,0,1,0,1
5948,1.6433e+09,-2.2008,-2.2008,0,0,-258.6,0,0,1,0,1
5998,1.6433e+09,-0.82674,-0.82674,0,0,-258.6,0,0,1,0,1
6042,1.6433e+09,-0.47636,-0.47636,0,0,-258.6,0,0,1,0,1
6085,1.6434e+09,0.49658,0.49658,0,0,-258.6,0,0,1,0,1
6129,1.6434e+09,1.5695,1.5695,0,0,-258.6,0,0,1,0,1
6174,1.6434e+09,-0.0026703,-0.0026703,0,0,-258.6,0,0,1,0,1
6221,1.6434e+09,-1.3038,-1.3038,0,0,-258.6,0,0,1,0,1
6266,1.6434e+09,-3.1439,-3.1439,0,0,-258.6,0,0,1,0,1
6310,1.6434e+09,-4.7889,-4.7889,0,0,-258.6,0,0,1,0,1
6355,1.6434e+09,-5.0258,-5.0258,0,0,-258.6,0,0,1,0,1
6402,1.6434e+09,1.3307,1.3307,0,0,-258.6,0,0,1,0,1
6449,1.6434e+09,3.3985,3.3985,0,0,-258.6,0,0,1,0,1
6493,1.6434e+09,-0.1977,-0.1977,0,0,-258.6,0,0,1,0,1
6537,1.6435e+09,4.1737,4.1737,0,0,-258.6,0,0,1,0,1
6585,1.6435e+09,1.841,1.841,0,0,-258.6,0,0,1,0,1
6629,1.6435e+09,1.19,1.19,0,0,-258.6,0,0,1,0,1
6674,1.6435e+09,-4.2935,-4.2935,0,0,-258.6,0,0,1,0,1
6719,1.6435e+09,-7.2148,-7.2148,0,0,-258.6,0,0,1,0,1
6764,1.6435e+09,-2.1938,-2.1938,0,0,-258.6,0,0,1,0,1
6809,1.6435e+09,0.18826,0.18826,0,0,-258.6,0,0,1,0,1
6857,1.6435e+09,-6.1693,-6.1693,0,0,-258.6,0,0,1,0,1
6904,1.6435e+09,-7.7236,-7.7236,0,0,-258.6,0,0,1,0,1
6949,1.6436e+09,4.7505,4.7505,0,0,-258.6,0,0,1,0,1
6991,1.6436e+09,2.3863,2.3863,0,0,-258.6,0,0,1,0,1
7039,1.6436e+09,-7.6796,-7.6796,0,0,-258.6,0,0,1,0,1
7082,1.6436e+09,9.2803,9.2803,0,0,-258.6,0,0,1,0,1
7124,1.6436e+09,1.1336,1.1336,0,0,-258.6,0,0,1,0,1
7168,1.6436e+09,-25.064,-25.064,0,0,-258.6,0,0,1,0,1
7211,1.6436e+09,1.6952,1.6952,0,0,-258.6,0,0,1,0,1
7257,1.6436e+09,5.4476,5.4476,0,0,-258.6,0,0,1,0,1
7300,1.6436e+09,-18.63,-18.63,0,0,-258.6,0,0,1,0,1
7343,1.6437e+09,8.1273,8.1273,0,0,-258.6,0,0,1,0,1
7388,1.6437e+09,1.0603,1.0603,0,0,-258.6,0,0,1,0,1
7430,1.6437e+09,-8.503,-8.503,0,0,-258.6,0,0,1,0,1
7470,1.6437e+09,5.9029,5.9029,0,0,-258.6,0,0,1,0,1
7512,1.6437e+09,0.23403,0.23403,0,0,-258.6,0,0,1,0,1
7556,1.6437e+09,-15.824,-15.824,0,0,-258.6,0,0,1,0,1
7599,1.6437e+09,-1.4216,-1.4216,0,0,-258.6,0,0,1,0,1
7642,1.6437e+09,-5.1159,-5.1159,0,0,-258.6,0,0,1,0,1
7694,1.6437e+09,7.5674,7.5674,0,0,-258.6,0,0,1,0,1
7738,1.6438e+09,-16.146,-16.146,0,0,-258.6,0,0,1,0,1
7780,1.6438e+09,10.414,10.414,0,0,-258.6,0,0,1,0,1
7826,1.6438e+09,-11.64,-11.64,0,0,-258.6,0,0,1,0,1
7871,1.6438e+09,16.8,16.8,0,0,-258.6,0,0,1,0,1
7918,1.6438e+09,-22.246,-22.246,0,0,-258.6,0,0,1,0,1
7962,1.6438e+09,9.461,9.461,0,0,-258.6,0,0,1,0,1
8007,1.6438e+09,-15.07,-15.07,0,0,-258.6,0,0,1,0,1
8051,1.6438e+09,5.518,5.518,0,0,-258.6,0,0,1,0,1
8096,1.6438e+09,-23.971,-23.971,0,0,-258.6,0,0,1,0,1
8146,1.6438e+09,16.351,16.351,0,0,-258.6,0,0,1,0,1
8190,1.6439e+09,-16.784,-16.784,0,0,-258.6,0,0,1,0,1
8236,1.6439e+09,9.368,9.368,0,0,-258.6,0,0,1,0,1
8280,1.6439e+09,-8.6413,-8.6413,0,0,-258.6,0,0,1,0,1
8326,1.6439e+09,17.731,17.731,0,0,-258.6,0,0,1,0,1
8370,1.6439e+09,-8.1703,-8.1703,0,0,-258.6,0,0,1,0,1
8415,1.6439e+09,1.0795,1.0795,0,0,-258.6,0,0,1,0,1
8460,1.6439e+09,-2.5006,-2.5006,0,0,-258.6,0,0,1,0,1
8505,1.6439e+09,0.79947,0.79947,0,0,-258.6,0,0,1,0,1
8550,1.6439e+09,-1.5693,-1.5693,0,0,-258.6,0,0,1,0,1
8598,1.6439e+09,-11.78,-11.78,0,0,-258.6,0,0,1,0,1
8642,1.644e+09,18.595,18.595,0,0,-258.6,0,0,1,0,1
8683,1.644e+09,-15.09,-15.09,0,0,-258.6,0,0,1,0,1
8728,1.644e+09,7.5638,7.5638,0,0,-258.6,0,0,1,0,1
8774,1.644e+09,-22.534,-22.534,0,0,-258.6,0,0,1,0,1
8815,1.644e+09,18.206,18.206,0,0,-258.6,0,0,1,0,1
8861,1.644e+09,-13.644,-13.644,0,0,-258.6,0,0,1,0,1
8905,1.644e+09,-2.8504,-2.8504,0,0,-258.6,0,0,1,0,1
8949,1.644e+09,-0.70381,-0.70381,0,0,-258.6,0,0,1,0,1
8995,1.644e+09,4.3072,4.3072,0,0,-258.6,0,0,1,0,1
9043,1.644e+09,-6.4479,-6.4479,0,0,-258.6,0,0,1,0,1
9089,1.6441e+09,-12.409,-12.409,0,0,-258.6,0,0,1,0,1
9133,1.6441e+09,8.4495,8.4495,0,0,-258.6,0,0,1,0,1
9178,1.6441e+09,-5.0645,-5.0645,0,0,-258.6,0,0,1,0,1
9222,1.6441e+09,-2.3107,-2.3107,0,0,-258.6,0,0,1,0,1
9267,1.6441e+09,-8.6447,-8.6447,0,0,-258.6,0,0,1,0,1
9312,1.6441e+09,9.2351,9.2351,0,0,-258.6,0,0,1,0,1
9356,1.6441e+09,-10.411,-10.411,0,0,-258.6,0,0,1,0,1
9401,1.6441e+09,-0.24328,-0.24328,0,0,-258.6,0,0,1,0,1
9446,1.6441e+09,3.068,3.068,0,0,-258.6,0,0,1,0,1
9495,1.6441e+09,3.8635,3.8635,0,0,-258.6,0,0,1,0,1
9541,1.6442e+09,5.7367,5.7367,0,0,-258.6,0,0,1,0,1
9584,1.6442e+09,-10.503,-10.503,0,0,-258.6,0,0,1,0,1
9627,1.6442e+09,-2.5263,-2.5263,0,0,-258.6,0,0,1,0,1
9669,1.6442e+09,-2.4925,-2.4925,0,0,-258.6,0,0,1,0,1
9714,1.6442e+09,-18.347,-18.347,0,0,-258.6,0,0,1,0,1
9756,1.6442e+09,16.101,16.101,0,0,-258.6,0,0,1,0,1
9799,1.6442e+09,-8.197,-8.197,0,0,-258.6,0,0,1,0,1
9842,1.6442e+09,13.532,13.532,0,0,-258.6,0,0,1,0,1
9887,1.6442e+09,-12.324,-12.324,0,0,-258.6,0,0,1,0,1
9931,1.6443e+09,23.148,23.148,0,0,-258.6,0,0,1,0,1
9974,1.6443e+09,-13.56,-13.56,0,0,-258.6,0,0,1,0,1
10017,1.6443e+09,-7.8356,-7.8356,0,0,-258.6,0,0,1,0,1
10061,1.6443e+09,-0.51041,-0.51041,0,0,-258.6,0,0,1,0,1
10104,1.6443e+09,-6.0255,-6.0255,0,0,-258.6,0,0,1,0,1
10147,1.6443e+09,-6.9464,-6.9464,0,0,-258.6,0,0,1,0,1
10191,1.6443e+09,-15.976,-15.976,0,0,-258.6,0,0,1,0,1
10234,1.6443e+09,18.937,18.937,0,0,-258.6,0,0,1,0,1
10278,1.6443e+09,-7.4238,-7.4238,0,0,-258.6,0,0,1,0,1
10322,1.6444e+09,-8.6636,-8.6636,0,0,-258.6,0,0,1,0,1
10366,1.6444e+09,8.8522,8.8522,0,0,-258.6,0,0,1,0,1
10411,1.6444e+09,-5.9481,-5.9481,0,0,-258.6,0,0,1,0,1
10457,1.6444e+09,-2.4314,-2.4314,0,0,-258.6,0,0,1,0,1
10501,1.6444e+09,-9.3229,-9.3229,0,0,-258.6,0,0,1,0,1
10546,1.6444e+09,23.012,23.012,0,0,-258.6,0,0,1,0,1
10590,1.6444e+09,-4.1024,-4.1024,0,0,-258.6,0,0,1,0,1
10635,1.6444e+09,3.3611,3.3611,0,0,-258.6,0,0,1,0,1
10680,1.6444e+09,-1.57,-1.57,0,0,-258.6,0,0,1,0,1
10725,1.6444e+09,11.427,11.427,0,0,-258.6,0,0,1,0,1
10774,1.6445e+09,-20.352,-20.352,0,0,-258.6,0,0,1,0,1
10819,1.6445e+09,-12.14,-12.14,0,0,-258.6,0,0,1,0,1
10864,1.6445e+09,1.3754,1.3754,0,0,-258.6,0,0,1,0,1
10908,1.6445e+09,-1.0199,-1.0199,0,0,-258.6,0,0,1,0,1
10953,1.6445e+09,-9.6659,-9.6659,0,0,-258.6,0,0,1,0,1
10998,1.6445e+09,-10.672,-10.672,0,0,-258.6,0,0,1,0,1
11042,1.6445e+09,21.769,21.769,0,0,-258.6,0,0,1,0,1
11088,1.6445e+09,-5.5951,-5.5951,0,0,-258.6,0,0,1,0,1
11133,1.6445e+09,10.006,10.006,0,0,-258.6,0,0,1,0,1
11180,1.6446e+09,5.873,5.873,0,0,-258.6,0,0,1,0,1
11225,1.6446e+09,-4.2455,-4.2455,0,0,-258.6,0,0,1,0,1
11270,1.6446e+09,-6.5428,-6.5428,0,0,-258.6,0,0,1,0,1
11316,1.6446e+09,-8.0493,-8.0493,0,0,-258.6,0,0,1,0,1
11360,1.6446e+09,28.052,28.052,0,0,-258.6,0,0,1,0,1
11408,1.6446e+09,-13.615,-13.615,0,0,-258.6,0,0,1,0,1
11454,1.6446e+09,-10.262,-10.262,0,0,-258.6,0,0,1,0,1
11499,1.6446e+09,3.6926,3.6926,0,0,-258.6,0,0,1,0,1
11544,1.6446e+09,-3.7214,-3.7214,0,0,-258.6,0,0,1,0,1
11589,1.6447e+09,-3.1615,-3.1615,0,0,-258.6,0,0,1,0,1
11634,1.6447e+09,-5.6416,-5.6416,0,0,-258.6,0,0,1,0,1
11683,1.6447e+09,22.513,22.513,0,0,-258.6,0,0,1,0,1
11728,1.6447e+09,-7.6614,-7.6614,0,0,-258.6,0,0,1,0,1
11773,1.6447e+09,0.88539,0.88539,0,0,-258.6,0,0,1,0,1
11817,1.6447e+09,-0.97961,-0.97961,0,0,-258.6,0,0,1,0,1
11859,1.6447e+09,4.9963,4.9963,0,0,-258.6,0,0,1,0,1
11904,1.6447e+09,-7.5187,-7.5187,0,0,-258.6,0,0,1,0,1
11950,1.6447e+09,-16.082,-16.082,0,0,-258.6,0,0,1,0,1
11994,1.6447e+09,5.173,5.173,0,0,-258.6,0,0,1,0,1
12040,1.6448e+09,-5.0314,-5.0314,0,0,-258.6,0,0,1,0,1
12083,1.6448e+09,3.8234,3.8234,0,0,-258.6,0,0,1,0,1
12128,1.6448e+09,-10.709,-10.709,0,0,-258.6,0,0,1,0,1
12172,1.6448e+09,20.514,20.514,0,0,-258.6,0,0,1,0,1
12216,1.6448e+09,-12.061,-12.061,0,0,-258.6,0,0,1,0,1
12259,1.6448e+09,-3.1686,-3.1686,0,0,-258.6,0,0,1,0,1
12301,1.6448e+09,12.216,12.216,0,0,-258.6,0,0,1,0,1
12344,1.6448e+09,-1.1724,-1.1724,0,0,-258.6,0,0,1,0,1
12390,1.6448e+09,5.2096,5.2096,0,0,-258.6,0,0,1,0,1
12432,1.6448e+09,-16.16,-16.16,0,0,-258.6,0,0,1,0,1
12477,1.6449e+09,16.824,16.824,0,0,-258.6,0,0,1,0,1
12519,1.6449e+09,-12.702,-12.702,0,0,-258.6,0,0,1,0,1
12566,1.6449e+09,-8.2419,-8.2419,0,0,-258.6,0,0,1,0,1
12608,1.6449e+09,2.7729,2.7729,0,0,-258.6,0,0,1,0,1
12650,1.6449e+09,5.4486,5.4486,0,0,-258.6,0,0,1,0,1
12694,1.6449e+09,-2.4611,-2.4611,0,0,-258.6,0,0,1,0,1
12739,1.6449e+09,-8.1284,-8.1284,0,0,-258.6,0,0,1,0,1
12782,1.6449e+09,17.842,17.842,0,0,-258.6,0,0,1,0,1
12830,1.6449e+09,-2.4871,-2.4871,0,0,-258.6,0,0,1,0,1
12870,1.645e+09,-11.532,-11.532,0,0,-258.6,0,0,1,0,1
12914,1.645e+09,12.552,12.552,0,0,-258.6,0,0,1,0,1
12963,1.645e+09,-12.841,-12.841,0,0,-258.6,0,0,1,0,1
13008,1.645e+09,-3.8029,-3.8029,0,0,-258.6,0,0,1,0,1
13053,1.645e+09,-0.17443,-0.17443,0,0,-258.6,0,0,1,0,1
13098,1.645e+09,7.7528,7.7528,0,0,-258.6,0,0,1,0,1
13142,1.645e+09,-1.0999,-1.0999,0,0,-258.6,0,0,1,0,1
13186,1.645e+09,-10.256,-10.256,0,0,-258.6,0,0,1,0,1
13230,1.645e+09,21.554,21.554,0,0,-258.6,0,0,1,0,1
13275,1.6451e+09,-9.8267,-9.8267,0,0,-258.6,0,0,1,0,1
13320,1.6451e+09,1.5475,1.5475,0,0,-258.6,0,0,1,0,1
13364,1.6451e+09,-19.069,-19.069,0,0,-258.6,0,0,1,0,1
13413,1.6451e+09,12.531,12.531,0,0,-258.6,0,0,1,0,1
13457,1.6451e+09,-17.285,-17.285,0,0,-258.6,0,0,1,0,1
13502,1.6451e+09,-2.299,-2.299,0,0,-258.6,0,0,1,0,1
13559,1.6452e+09,3.0997,3.0997,0,0,-258.6,0,0,1,0,1
13604,1.6452e+09,-9.7786,-9.7786,0,0,-258.6,0,0,1,0,1
13652,1.6452e+09,18.938,18.938,0,0,-258.6,0,0,1,0,1
13700,1.6452e+09,-7.1606,-7.1606,0,0,-258.6,0,0,1,0,1
13745,1.6452e+09,-13.75,-13.75,0,0,-258.6,0,0,1,0,1
13792,1.6452e+09,4.0912,4.0912,0,0,-258.6,0,0,1,0,1
13837,1.6452e+09,-3.8293,-3.8293,0,0,-258.6,0,0,1,0,1
13883,1.6452e+09,10.041,10.041,0,0,-258.6,0,0,1,0,1
13928,1.6453e+09,-11.256,-11.256,0,0,-258.6,0,0,1,0,1
13973,1.6453e+09,10.919,10.919,0,0,-258.6,0,0,1,0,1
14019,1.6453e+09,3.013,3.013,0,0,-258.6,0,0,1,0,1
14068,1.6453e+09,-12.925,-12.925,0,0,-258.6,0,0,1,0,1
14113,1.6453e+09,6.365,6.365,0,0,-258.6,0,0,1,0,1
14158,1.6453e+09,-3.2774,-3.2774,0,0,-258.6,0,0,1,0,1
14203,1.6453e+09,13.266,13.266,0,0,-258.6,0,0,1,0,1
14247,1.6453e+09,-24.585,-24.585,0,0,-258.6,0,0,1,0,1
14292,1.6453e+09,15.473,15.473,0,0,-258.6,0,0,1,0,1
14336,1.6453e+09,0.52366,0.52366,0,0,-258.6,0,0,1,0,1
14385,1.6454e+09,-19.306,-19.306,0,0,-258.6,0,0,1,0,1
14425,1.6454e+09,3.5606,3.5606,0,0,-258.6,0,0,1,0,1
14467,1.6454e+09,-8.6649,-8.6649,0,0,-258.6,0,0,1,0,1
14516,1.6454e+09,14.775,14.775,0,0,-258.6,0,0,1,0,1
14558,1.6454e+09,-25.416,-25.416,0,0,-258.6,0,0,1,0,1
14603,1.6454e+09,23.095,23.095,0,0,-258.6,0,0,1,0,1
14645,1.6454e+09,-7.3315,-7.3315,0,0,-258.6,0,0,1,0,1
14686,1.6454e+09,13.482,13.482,0,0,-258.6,0,0,1,0,1
14728,1.6454e+09,-22.504,-22.504,0,0,-258.6,0,0,1,0,1
14770,1.6455e+09,10.883,10.883,0,0,-258.6,0,0,1,0,1
14813,1.6455e+09,0.37928,0.37928,0,0,-258.6,0,0,1,0,1
14855,1.6455e+09,-6.8178,-6.8178,0,0,-258.6,0,0,1,0,1
14898,1.6455e+09,6.643,6.643,0,0,-258.6,0,0,1,0,1
14946,1.6455e+09,-1.5224,-1.5224,0,0,-258.6,0,0,1,0,1
14989,1.6455e+09,11.072,11.072,0,0,-258.6,0,0,1,0,1
15032,1.6455e+09,-28.875,-28.875,0,0,-258.6,0,0,1,0,1
15074,1.6455e+09,13.345,13.345,0,0,-258.6,0,0,1,0,1
15117,1.6455e+09,-11.178,-11.178,0,0,-258.6,0,0,1,0,1
15159,1.6455e+09,6.8131,6.8131,0,0,-258.6,0,0,1,0,1
15202,1.6456e+09,-23.316,-23.316,0,0,-258.6,0,0,1,0,1
15244,1.6456e+09,-8.6827,-8.6827,0,0,-258.6,0,0,1,0,1
15289,1.6456e+09,11.654,11.654,0,0,-258.6,0,0,1,0,1
15334,1.6456e+09,-21.442,-21.442,0,0,-258.6,0,0,1,0,1
15382,1.6456e+09,12.492,12.492,0,0,-258.6,0,0,1,0,1
15428,1.6456e+09,-2.6635,-2.6635,0,0,-258.6,0,0,1,0,1
15472,1.6456e+09,16.947,16.947,0,0,-258.6,0,0,1,0,1
15518,1.6456e+09,-21.738,-21.738,0,0,-258.6,0,0,1,0,1
15565,1.6456e+09,8.0845,8.0845,0,0,-258.6,0,0,1,0,1
15610,1.6457e+09,5.4727,5.4727,0,0,-258.6,0,0,1,0,1
15655,1.6457e+09,-20.368,-20.368,0,0,-258.6,0,0,1,0,1
15699,1.6457e+09,3.689,3.689,0,0,-258.6,0,0,1,0,1
15744,1.6457e+09,-4.2408,-4.2408,0,0,-258.6,0,0,1,0,1
15794,1.6457e+09,6.4775,6.4775,0,0,-258.6,0,0,1,0,1
15838,1.6457e+09,-19.136,-19.136,0,0,-258.6,0,0,1,0,1
15883,1.6457e+09,16.556,16.556,0,0,-258.6,0,0,1,0,1
15928,1.6457e+09,-0.67224,-0.67224,0,0,-258.6,0,0,1,0,1
15974,1.6457e+09,0.92649,0.92649,0,0,-258.6,0,0,1,0,1
16020,1.6457e+09,-11.844,-11.844,0,0,-258.6,0,0,1,0,1
16059,1.6458e+09,-5.0705,-5.0705,0,0,-258.6,0,0,1,0,1
16104,1.6458e+09,0.52729,0.52729,0,0,-258.6,0,0,1,0,1
16151,1.6458e+09,-19.725,-19.725,0,0,-258.6,0,0,1,0,1
16196,1.6458e+09,12.107,12.107,0,0,-258.6,0,0,1,0,1
16246,1.6458e+09,0.31481,0.31481,0,0,-258.6,0,0,1,0,1
16291,1.6458e+09,3.3118,3.3118,0,0,-258.6,0,0,1,0,1
16335,1.6458e+09,-0.90952,-0.90952,0,0,-258.6,0,0,1,0,1
16382,1.6458e+09,-4.5859,-4.5859,0,0,-258.6,0,0,1,0,1
16432,1.6458e+09,5.2294,5.2294,0,0,-258.6,0,0,1,0,1
16476,1.6459e+09,-26.286,-26.286,0,0,-258.6,0,0,1,0,1
16521,1.6459e+09,3.6918,3.6918,0,0,-258.6,0,0,1,0,1
16566,1.6459e+09,-10.745,-10.745,0,0,-258.6,0,0,1,0,1
16610,1.6459e+09,-10.413,-10.413,0,0,-258.6,0,0,1,0,1
16656,1.6459e+09,-0.58746,-0.58746,0,0,-258.6,0,0,1,0,1
16704,1.6459e+09,-3.6372,-3.6372,0,0,-258.6,0,0,1,0,1
16749,1.6459e+09,20.346,20.346,0,0,-258.6,0,0,1,0,1
16793,1.6459e+09,-13.343,-13.343,0,0,-258.6,0,0,1,0,1
16839,1.6459e+09,20.047,20.047,0,0,-258.6,0,0,1,0,1
16885,1.6459e+09,-6.5248,-6.5248,0,0,-258.6,0,0,1,0,1
16928,1.646e+09,3.8004,3.8004,0,0,-258.6,0,0,1,0,1
16970,1.646e+09,-20.959,-20.959,0,0,-258.6,0,0,1,0,1
17013,1.646e+09,-7.479,-7.479,0,0,-258.6,0,0,1,0,1
17056,1.646e+09,5.3881,5.3881,0,0,-258.6,0,0,1,0,1
17098,1.646e+09,-21.29,-21.29,0,0,-258.6,0,0,1,0,1
17145,1.646e+09,6.5704,6.5704,0,0,-258.6,0,0,1,0,1
17187,1.646e+09,-5.6222,-5.6222,0,0,-258.6,0,0,1,0,1
17229,1.646e+09,28.304,28.304,0,0,-258.6,0,0,1,0,1
17274,1.646e+09,-21.471,-21.471,0,0,-258.6,0,0,1,0,1
17316,1.6461e+09,19.187,19.187,0,0,-258.6,0,0,1,0,1
17363,1.6461e+09,12.25,12.25,0,0,-258.6,0,0,1,0,1
17405,1.6461e+09,-25.685,-25.685,0,0,-258.6,0,0,1,0,1
17448,1.6461e+09,9.1669,9.1669,0,0,-258.6,0,0,1,0,1
17491,1.6461e+09,-14.432,-14.432,0,0,-258.6,0,0,1,0,1
17533,1.6461e+09,19.671,19.671,0,0,-258.6,0,0,1,0,1
17581,1.6461e+09,-34.021,-34.021,0,0,-258.6,0,0,1,0,1
17623,1.6461e+09,20.634,20.634,0,0,-258.6,0,0,1,0,1
17666,1.6461e+09,-2.6642,-2.6642,0,0,-258.6,0,0,1,0,1
17708,1.6461e+09,-19.315,-19.315,0,0,-258.6,0,0,1,0,1
17754,1.6462e+09,18.992,18.992,0,0,-258.6,0,0,1,0,1
17799,1.6462e+09,-1.4463,-1.4463,0,0,-258.6,0,0,1,0,1
17843,1.6462e+09,26.442,26.442,0,0,-258.6,0,0,1,0,1
17887,1.6462e+09,-28.292,-28.292,0,0,-258.6,0,0,1,0,1
17932,1.6462e+09,12.959,12.959,0,0,-258.6,0,0,1,0,1
17980,1.6462e+09,-13.344,-13.344,0,0,-258.6,0,0,1,0,1
18029,1.6462e+09,-15.927,-15.927,0,0,-258.6,0,0,1,0,1
18074,1.6462e+09,-1.8616,-1.8616,0,0,-258.6,0,0,1,0,1
18121,1.6462e+09,-5.7747,-5.7747,0,0,-258.6,0,0,1,0,1
18169,1.6463e+09,-2.1005,-2.1005,0,0,-258.6,0,0,1,0,1
18220,1.6463e+09,22.901,22.901,0,0,-258.6,0,0,1,0,1
18265,1.6463e+09,-14.995,-14.995,0,0,-258.6,0,0,1,0,1
18309,1.6463e+09,27.555,27.555,0,0,-258.6,0,0,1,0,1
18354,1.6463e+09,-34.444,-34.444,0,0,-258.6,0,0,1,0,1
18403,1.6463e+09,21.308,21.308,0,0,-258.6,0,0,1,0,1
18448,1.6463e+09,-11.341,-11.341,0,0,-258.6,0,0,1,0,1
18496,1.6463e+09,-15.217,-15.217,0,0,-258.6,0,0,1,0,1
18542,1.6463e+09,21.752,21.752,0,0,-258.6,0,0,1,0,1
18585,1.6464e+09,-6.5409,-6.5409,0,0,-258.6,0,0,1,0,1
18629,1.6464e+09,12.005,12.005,0,0,-258.6,0,0,1,0,1
18675,1.6464e+09,-14.176,-14.176,0,0,-258.6,0,0,1,0,1
18720,1.6464e+09,3.8046,3.8046,0,0,-258.6,0,0,1,0,1
18764,1.6464e+09,3.8836,3.8836,0,0,-258.6,0,0,1,0,1
18809,1.6464e+09,-11.821,-11.821,0,0,-258.6,0,0,1,0,1
18857,1.6464e+09,-3.0942,-3.0942,0,0,-258.6,0,0,1,0,1
18902,1.6464e+09,-11.011,-11.011,0,0,-258.6,0,0,1,0,1
18947,1.6464e+09,11.414,11.414,0,0,-258.6,0,0,1,0,1
18992,1.6465e+09,-22.057,-22.057,0,0,-258.6,0,0,1,0,1
19040,1.6465e+09,3.9319,3.9319,0,0,-258.6,0,0,1,0,1
19085,1.6465e+09,10.407,10.407,0,0,-258.6,0,0,1,0,1
19130,1.6465e+09,-2.8999,-2.8999,0,0,-258.6,0,0,1,0,1
19175,1.6465e+09,4.9239,4.9239,0,0,-258.6,0,0,1,0,1
19220,1.6465e+09,-5.1049,-5.1049,0,0,-258.6,0,0,1,0,1
19264,1.6465e+09,7.4056,7.4056,0,0,-258.6,0,0,1,0,1
19313,1.6465e+09,-27.063,-27.063,0,0,-258.6,0,0,1,0,1
19358,1.6465e+09,12.952,12.952,0,0,-258.6,0,0,1,0,1
19402,1.6465e+09,-6.4694,-6.4694,0,0,-258.6,0,0,1,0,1
19450,1.6466e+09,11.106,11.106,0,0,-258.6,0,0,1,0,1
19489,1.6466e+09,-2.9879,-2.9879,0,0,-258.6,0,0,1,0,1
19532,1.6466e+09,1.4574,1.4574,0,0,-258.6,0,0,1,0,1
19575,1.6466e+09,12.598,12.598,0,0,-258.6,0,0,1,0,1
19618,1.6466e+09,-22.595,-22.595,0,0,-258.6,0,0,1,0,1
19661,1.6466e+09,12.089,12.089,0,0,-258.6,0,0,1,0,1
19704,1.6466e+09,-10.016,-10.016,0,0,-258.6,0,0,1,0,1
19751,1.6466e+09,8.8927,8.8927,0,0,-258.6,0,0,1,0,1
19794,1.6466e+09,-17.289,-17.289,0,0,-258.6,0,0,1,0,1
19836,1.6467e+09,2.2666,2.2666,0,0,-258.6,0,0,1,0,1
19880,1.6467e+09,-2.6439,-2.6439,0,0,-258.6,0,0,1,0,1
19926,1.6467e+09,-18.653,-18.653,0,0,-258.6,0,0,1,0,1
19968,1.6467e+09,11.075,11.075,0,0,-258.6,0,0,1,0,1
20012,1.6467e+09,-2.8434,-2.8434,0,0,-258.6,0,0,1,0,1
20055,1.6467e+09,14.7,14.7,0,0,-258.6,0,0,1,0,1
20099,1.6467e+09,-9.1034,-9.1034,0,0,-258.6,0,0,1,0,1
20146,1.6467e+09,7.2287,7.2287,0,0,-258.6,0,0,1,0,1
20189,1.6467e+09,6.7282,6.7282,0,0,-258.6,0,0,1,0,1
20231,1.6467e+09,-21.029,-21.029,0,0,-258.6,0,0,1,0,1
20277,1.6468e+09,0.5105,0.5105,0,0,-258.6,0,0,1,0,1
20319,1.6468e+09,-0.75769,-0.75769,0,0,-258.6,0,0,1,0,1
20363,1.6468e+09,-2.5071,-2.5071,0,0,-258.6,0,0,1,0,1
20408,1.6468e+09,2.9961,2.9961,0,0,-258.6,0,0,1,0,1
20452,1.6468e+09,-1.6067,-1.6067,0,0,-258.6,0,0,1,0,1
20498,1.6468e+09,12.211,12.211,0,0,-258.6,0,0,1,0,1
20543,1.6468e+09,-15.946,-15.946,0,0,-258.6,0,0,1,0,1
20593,1.6468e+09,1.8925,1.8925,0,0,-258.6,0,0,1,0,1
20638,1.6468e+09,-1.0459,-1.0459,0,0,-258.6,0,0,1,0,1
20683,1.6469e+09,-2.6376,-2.6376,0,0,-258.6,0,0,1,0,1
20728,1.6469e+09,-12.801,-12.801,0,0,-258.6,0,0,1,0,1
20777,1.6469e+09,-10.377,-10.377,0,0,-258.6,0,0,1,0,1
20822,1.6469e+09,7.7369,7.7369,0,0,-258.6,0,0,1,0,1
20867,1.6469e+09,-14.4,-14.4,0,0,-258.6,0,0,1,0,1
20913,1.6469e+09,-6.5742,-6.5742,0,0,-258.6,0,0,1,0,1
20958,1.6469e+09,0.93613,0.93613,0,0,-258.6,0,0,1,0,1
21002,1.6469e+09,4.3834,4.3834,0,0,-258.6,0,0,1,0,1
21051,1.6469e+09,-4.8809,-4.8809,0,0,-258.6,0,0,1,0,1
21098,1.647e+09,-4.7436,-4.7436,0,0,-258.6,0,0,1,0,1
21139,1.647e+09,16.551,16.551,0,0,-258.6,0,0,1,0,1
21188,1.647e+09,-21.694,-21.694,0,0,-258.6,0,0,1,0,1
21233,1.647e+09,-12.592,-12.592,0,0,-258.6,0,0,1,0,1
21278,1.647e+09,6.7213,6.7213,0,0,-258.6,0,0,1,0,1
21322,1.647e+09,-7.0417,-7.0417,0,0,-258.6,0,0,1,0,1
21367,1.647e+09,7.5809,7.5809,0,0,-258.6,0,0,1,0,1
21412,1.647e+09,0.12169,0.12169,0,0,-258.6,0,0,1,0,1
21461,1.647e+09,32.834,32.834,0,0,-258.6,0,0,1,0,1
21506,1.647e+09,-9.4696,-9.4696,0,0,-258.6,0,0,1,0,1
21551,1.6471e+09,7.3741,7.3741,0,0,-258.6,0,0,1,0,1
21597,1.6471e+09,-18.42,-18.42,0,0,-258.6,0,0,1,0,1
21641,1.6471e+09,-0.37041,-0.37041,0,0,-258.6,0,0,1,0,1
21687,1.6471e+09,-10.714,-10.714,0,0,-258.6,0,0,1,0,1
21731,1.6471e+09,-10.701,-10.701,0,0,-258.6,0,0,1,0,1
21777,1.6471e+09,14.207,14.207,0,0,-258.6,0,0,1,0,1
21821,1.6471e+09,-8.5865,-8.5865,0,0,-258.6,0,0,1,0,1
21866,1.6471e+09,14.492,14.492,0,0,-258.6,0,0,1,0,1
21915,1.6471e+09,-11.831,-11.831,0,0,-258.6,0,0,1,0,1
21961,1.6472e+09,19.403,19.403,0,0,-258.6,0,0,1,0,1
22003,1.6472e+09,5.5076,5.5076,0,0,-258.6,0,0,1,0,1
22049,1.6472e+09,-18.813,-18.813,0,0,-258.6,0,0,1,0,1
22092,1.6472e+09,12.129,12.129,0,0,-258.6,0,0,1,0,1
22134,1.6472e+09,-17.179,-17.179,0,0,-258.6,0,0,1,0,1
22177,1.6472e+09,-6.1976,-6.1976,0,0,-258.6,0,0,1,0,1
22221,1.6472e+09,4.8441,4.8441,0,0,-258.6,0,0,1,0,1
22264,1.6472e+09,-1.2877,-1.2877,0,0,-258.6,0,0,1,0,1
22307,1.6472e+09,2.084,2.084,0,0,-258.6,0,0,1,0,1
22353,1.6473e+09,-7.7342,-7.7342,0,0,-258.6,0,0,1,0,1
22398,1.6473e+09,18.765,18.765,0,0,-258.6,0,0,1,0,1
22440,1.6473e+09,-19.24,-19.24,0,0,-258.6,0,0,1,0,1
22484,1.6473e+09,9.6946,9.6946,0,0,-258.6,0,0,1,0,1
22530,1.6473e+09,-17.247,-17.247,0,0,-258.6,0,0,1,0,1
22572,1.6473e+09,8.0104,8.0104,0,0,-258.6,0,0,1,0,1
22615,1.6473e+09,-10.394,-10.394,0,0,-258.6,0,0,1,0,1
22657,1.6473e+09,-1.4274,-1.4274,0,0,-258.6,0,0,1,0,1
22701,1.6473e+09,6.6387,6.6387,0,0,-258.6,0,0,1,0,1
22742,1.6473e+09,-9.7231,-9.7231,0,0,-258.6,0,0,1,0,1
22788,1.6474e+09,9.2418,9.2418,0,0,-258.6,0,0,1,0,1
22833,1.6474e+09,-15.972,-15.972,0,0,-258.6,0,0,1,0,1
22878,1.6474e+09,23.596,23.596,0,0,-258.6,0,0,1,0,1
22926,1.6474e+09,-12.116,-12.116,0,0,-258.6,0,0,1,0,1
22970,1.6474e+09,-0.033474,-0.033474,0,0,-258.6,0,0,1,0,1
23015,1.6474e+09,13.474,13.474,0,0,-258.6,0,0,1,0,1
23061,1.6474e+09,-12.48,-12.48,0,0,-258.6,0,0,1,0,1
23106,1.6474e+09,4.4684,4.4684,0,0,-258.6,0,0,1,0,1
23151,1.6474e+09,-15.204,-15.204,0,0,-258.6,0,0,1,0,1
23199,1.6475e+09,18.21,18.21,0,0,-258.6,0,0,1,0,1
23244,1.6475e+09,-17.458,-17.458,0,0,-258.6,0,0,1,0,1
23289,1.6475e+09,13.263,13.263,0,0,-258.6,0,0,1,0,1
23334,1.6475e+09,-8.2171,-8.2171,0,0,-258.6,0,0,1,0,1
23382,1.6475e+09,-10.942,-10.942,0,0,-258.6,0,0,1,0,1
23423,1.6475e+09,2.4752,2.4752,0,0,-258.6,0,0,1,0,1
23468,1.6475e+09,-15.643,-15.643,0,0,-258.6,0,0,1,0,1
23512,1.6475e+09,21.519,21.519,0,0,-258.6,0,0,1,0,1
23559,1.6475e+09,-18.911,-18.911,0,0,-258.6,0,0,1,0,1
23606,1.6475e+09,12.793,12.793,0,0,-258.6,0,0,1,0,1
23648,1.6476e+09,1.2386,1.2386,0,0,-258.6,0,0,1,0,1
23693,1.6476e+09,4.7026,4.7026,0,0,-258.6,0,0,1,0,1
23737,1.6476e+09,5.8501,5.8501,0,0,-258.6,0,0,1,0,1
23782,1.6476e+09,-9.5289,-9.5289,0,0,-258.6,0,0,1,0,1
23827,1.6476e+09,19.998,19.998,0,0,-258.6,0,0,1,0,1
23872,1.6476e+09,-13.938,-13.938,0,0,-258.6,0,0,1,0,1
23916,1.6476e+09,-0.96464,-0.96464,0,0,-258.6,0,0,1,0,1
23962,1.6476e+09,-9.4608,-9.4608,0,0,-258.6,0,0,1,0,1
24008,1.6476e+09,10.951,10.951,0,0,-258.6,0,0,1,0,1
24052,1.6477e+09,-10.668,-10.668,0,0,-258.6,0,0,1,0,1
24101,1.6477e+09,-9.9411,-9.9411,0,0,-258.6,0,0,1,0,1
24145,1.6477e+09,12.672,12.672,0,0,-258.6,0,0,1,0,1
24191,1.6477e+09,0.89588,0.89588,0,0,-258.6,0,0,1,0,1
24236,1.6477e+09,-15.282,-15.282,0,0,-258.6,0,0,1,0,1
24280,1.6477e+09,13.337,13.337,0,0,-258.6,0,0,1,0,1
24328,1.6477e+09,3.0139,3.0139,0,0,-258.6,0,0,1,0,1
24373,1.6477e+09,0.10757,0.10757,0,0,-258.6,0,0,1,0,1
24419,1.6477e+09,51.578,51.578,0,0,-258.6,0,0,1,0,1
24466,1.6477e+09,5.0815,5.0815,0,0,-258.6,0,0,1,0,1
24514,1.6478e+09,17.893,17.893,0,0,-258.6,0,0,1,0,1
24560,1.6478e+09,-42.161,-42.161,0,0,-258.6,0,0,1,0,1
24602,1.6478e+09,-67.059,-67.059,0,0,-258.6,0,0,1,0,1
24646,1.6478e+09,-27.643,-27.643,0,0,-258.6,0,0,1,0,1
24689,1.6478e+09,-26.177,-26.177,0,0,-258.6,0,0,1,0,1
24731,1.6478e+09,-4.0583,-4.0583,0,0,-258.6,0,0,1,0,1
24775,1.6478e+09,-6.842,-6.842,0,0,-258.6,0,0,1,0,1
24817,1.6478e+09,35.809,35.809,0,0,-258.6,0,0,1,0,1
24860,1.6478e+09,14.969,14.969,0,0,-258.6,0,0,1,0,1
24902,1.6479e+09,38.955,38.955,0,0,-258.6,0,0,1,0,1
24948,1.6479e+09,10.661,10.661,0,0,-258.6,0,0,1,0,1
24995,1.6479e+09,0.21563,0.21563,0,0,-258.6,0,0,1,0,1
25038,1.6479e+09,-35.332,-35.332,0,0,-258.6,0,0,1,0,1
25081,1.6479e+09,-9.7222,-9.7222,0,0,-258.6,0,0,1,0,1
25123,1.6479e+09,-36.364,-36.364,0,0,-258.6,0,0,1,0,1
25166,1.6479e+09,-15.024,-15.024,0,0,-258.6,0,0,1,0,1
25208,1.6479e+09,-24.915,-24.915,0,0,-258.6,0,0,1,0,1
25252,1.6479e+09,18.459,18.459,0,0,-258.6,0,0,1,0,1
25295,1.6479e+09,7.9582,7.9582,0,0,-258.6,0,0,1,0,1
25338,1.648e+09,23.663,23.663,0,0,-258.6,0,0,1,0,1
25383,1.648e+09,-2.3877,-2.3877,0,0,-258.6,0,0,1,0,1
25424,1.648e+09,7.4299,7.4299,0,0,-258.6,0,0,1,0,1
25468,1.648e+09,5.0166,5.0166,0,0,-258.6,0,0,1,0,1
25513,1.648e+09,16.172,16.172,0,0,-258.6,0,0,1,0,1
25557,1.648e+09,-41.732,-41.732,0,0,-258.6,0,0,1,0,1
25603,1.648e+09,-24.387,-24.387,0,0,-258.6,0,0,1,0,1
25648,1.648e+09,-27.511,-27.511,0,0,-258.6,0,0,1,0,1
25692,1.648e+09,-1.8456,-1.8456,0,0,-258.6,0,0,1,0,1
25737,1.648e+09,2.9943,2.9943,0,0,-258.6,0,0,1,0,1
25782,1.6481e+09,-1.723,-1.723,0,0,-258.6,0,0,1,0,1
25827,1.6481e+09,-15.7,-15.7,0,0,-256.1,0,0,1,0,0
25876,1.6481e+09,16.107,16.107,0,0,-251.1,0,0,1,0,0
25921,1.6481e+09,11.775,11.775,0,0,-246.1,0,0,1,0,0
25966,1.6481e+09,17.528,17.528,0,0,-241.1,0,0,1,0,0
26011,1.6481e+09,-19.17,-19.17,0,0,-236.1,0,0,1,0,0
26056,1.6481e+09,-27.365,-27.365,0,0,-231.1,0,0,1,0,0
26100,1.6481e+09,-13.444,-13.444,0,0,-226.1,0,0,1,0,0
26145,1.6481e+09,17.271,17.271,0,0,-221.1,0,0,1,0,0
26188,1.6482e+09,22.545,22.545,0,0,-216.1,0,0,1,0,0
26233,1.6482e+09,18.034,18.034,0,0,-211.1,0,0,1,0,0
26279,1.6482e+09,-1.4009,-1.4009,0,0,-206.1,0,0,1,0,0
26328,1.6482e+09,-8.6369,-8.6369,0,0,-201.1,0,0,1,0,0
26372,1.6482e+09,28.175,28.175,0,0,-196.1,0,0,1,0,0
26417,1.6482e+09,-0.040436,-0.040436,0,0,-191.1,0,0,1,0,0
26462,1.6482e+09,13.05,13.05,0,0,-186.1,0,0,1,0,0
26506,1.6482e+09,-33.458,-33.458,0,0,-181.1,0,0,1,0,0
26551,1.6482e+09,-48.762,-48.762,0,0,-176.1,0,0,1,0,0
26597,1.6483e+09,15.479,15.479,0,0,-171.1,0,0,1,0,0
26642,1.6483e+09,-5.3789,-5.3789,0,0,-166.1,0,0,1,0,0
26686,1.6483e+09,-24.454,-24.454,0,0,-161.1,0,0,1,0,0
26733,1.6483e+09,11.374,11.374,0,0,-156.1,0,0,1,0,0
26781,1.6483e+09,-24.34,-24.34,0,0,-151.1,0,0,1,0,0
26827,1.6483e+09,51.263,51.263,0,0,-146.1,0,0,1,0,0
26872,1.6483e+09,61.06,61.06,0,0,-141.1,0,0,1,0,0
26916,1.6483e+09,-32.656,-32.656,0,0,-136.1,0,0,1,0,0
26961,1.6483e+09,-37.897,-37.897,0,0,-131.1,0,0,1,0,0
27005,1.6483e+09,16.823,16.823,0,0,-126.1,0,0,1,0,0
27052,1.6484e+09,-8.2393,-8.2393,0,0,-121.1,0,0,1,0,0
27094,1.6484e+09,-15.755,-15.755,0,0,-116.1,0,0,1,0,0
27136,1.6484e+09,31.358,31.358,0,0,-111.1,0,0,1,0,0
27179,1.6484e+09,0.65489,0.65489,0,0,-106.1,0,0,1,0,0
27226,1.6484e+09,-43.478,-43.478,0,0,-101.1,0,0,1,0,0
27269,1.6484e+09,79.343,79.343,0,0,-96.101,0,0,1,0,0
27312,1.6484e+09,63.385,63.385,0,0,-91.101,0,0,1,0,0
27358,1.6484e+09,17.68,17.68,0,0,-84.851,0,0,1,0,0
27401,1.6484e+09,-54.541,-54.541,0,0,-79.851,0,0,1,0,0
27443,1.6485e+09,-26.883,-26.883,0,0,-74.851,0,0,1,0,0
27486,1.6485e+09,63.757,63.757,0,0,-69.851,0,0,1,0,0
27529,1.6485e+09,-22.134,-22.134,0,0,-64.851,0,0,1,0,0
27571,1.6485e+09,-44.818,-44.818,0,0,-59.851,0,0,1,0,0
27618,1.6485e+09,-20.232,-20.232,0,0,-54.851,0,0,1,0,0
27662,1.6485e+09,-14.257,-14.257,0,0,-49.851,0,0,1,0,0
27705,1.6485e+09,58.347,58.347,0,0,-44.851,0,0,1,0,0
27751,1.6485e+09,61.261,61.261,0,0,-38.601,0,0,1,0,0
27799,1.6485e+09,31.402,31.402,0,0,-32.351,0,0,1,0,0
27835,1.6486e+09,-20.959,-20.959,0,0,-28.601,0,0,1,0,0
27879,1.6486e+09,-33.074,-33.074,0,0,-23.601,0,0,1,0,0
27923,1.6486e+09,-27.69,-27.69,0,0,-18.601,0,0,1,0,0
27967,1.6486e+09,-6.3953,-6.3953,0,0,-13.601,0,0,1,0,0
28011,1.6486e+09,26.023,26.023,0,0,-8.6008,0,0,1,0,0
28061,1.6486e+09,30.517,30.517,0,0,-3.6008,0,0,1,0,0
28105,1.6486e+09,8.5355,8.5355,0,0,1.3992,0,0,1,0,0
28151,1.6486e+09,-24.234,-24.234,0,0,6.3992,0,0,1,0,0
28196,1.6486e+09,25.707,25.707,0,0,11.399,0,0,1,0,0
28240,1.6487e+09,41.928,41.928,0,0,16.399,0,0,1,0,0
28285,1.6487e+09,35.245,35.245,0,0,21.399,0,0,1,0,0
28329,1.6487e+09,35.121,35.121,0,0,26.399,0,0,1,0,0
28374,1.6487e+09,36.041,36.041,0,0,31.399,0,0,1,0,0
28420,1.6487e+09,37.444,37.444,0,0,36.399,0,0,1,0,0
28466,1.6487e+09,61.9,61.9,0,0,41.399,0,0,1,0,0
28514,1.6487e+09,90.917,90.917,0,0,46.399,0,0,1,0,0
28560,1.6487e+09,50.75,50.75,0,0,51.399,0,0,1,0,0
28609,1.6487e+09,64.821,64.821,0,0,57.649,0,0,1,0,0
28653,1.6488e+09,101.05,101.05,0,0,61.399,0,0,1,0,0
28697,1.6488e+09,112.68,112.68,0,0,66.399,0,0,1,0,0
28743,1.6488e+09,128.84,98.135,8.9692,4.4846,68.927,0,0,1,0,0
28789,1.6488e+09,132.97,142.65,10.575,5.2876,69.073,0,0,1,0,0
28833,1.6488e+09,137.41,158.3,-11.179,-5.5895,69.009,0,0,1,0,0
28879,1.6488e+09,141.95,152.97,-7.9186,-3.9593,68.915,0,0,1,0,0
28931,1.6488e+09,146.09,211.35,-43.208,-21.604,68.583,0,0,1,0,0
28976,1.6488e+09,140.64,174.09,-47.336,-23.668,68.086,0,0,1,0,0
29021,1.6488e+09,134.08,220.23,-61.576,-30.788,67.566,0,0,1,0,0
29065,1.6489e+09,128.42,216.48,-83.995,-41.997,66.774,0,0,1,0,0
29110,1.6489e+09,123.18,197.15,-73.809,-36.905,66.006,0,0,1,0,0
29154,1.6489e+09,116.84,219.03,-89.57,-44.785,65.176,0,0,1,0,0
29199,1.6489e+09,110.97,193.11,-91.548,-45.774,64.242,0,0,1,0,0
29244,1.6489e+09,104.45,205.18,-89.722,-44.861,63.381,0,0,1,0,0
29289,1.6489e+09,97.605,211.72,-107.64,-53.821,62.353,0,0,1,0,0
29336,1.6489e+09,90.52,231.78,-119.98,-59.991,61.21,0,0,1,0,0
29384,1.6489e+09,82.838,249.81,-145.02,-72.511,59.869,0,0,1,0,0
29430,1.6489e+09,73.838,201.5,-139.35,-69.676,58.439,0,0,1,0,0
29475,1.6489e+09,64.943,205.17,-142.63,-71.313,57.012,0,0,1,0,0
29519,1.649e+09,59.497,183.66,-133.28,-66.641,55.623,0,0,1,0,0
29561,1.649e+09,52.127,175.22,-122.44,-61.22,54.378,0,0,1,0,0
29603,1.649e+09,46.639,207.54,-140.63,-70.313,53.063,0,0,1,0,0
29646,1.649e+09,39.504,175.27,-147.54,-73.772,51.593,0,0,1,0,0
29688,1.649e+09,31.203,108.91,-116.56,-58.282,50.285,0,0,1,0,0
29732,1.649e+09,25.288,133.01,-108.74,-54.372,49.18,0,0,1,0,0
29775,1.649e+09,20.075,133.03,-113.14,-56.569,48.044,0,0,1,0,0
29822,1.649e+09,15.566,116.59,-102.8,-51.402,47.002,0,0,1,0,0
29865,1.649e+09,10.887,124.34,-109.59,-54.794,45.955,0,0,1,0,0
29907,1.6491e+09,6.6858,114.51,-110.34,-55.172,44.859,0,0,1,0,0
29950,1.6491e+09,3.2352,94.104,-96.663,-48.332,43.856,0,0,1,0,0
29994,1.6491e+09,-0.40395,116.91,-104.57,-52.285,42.877,0,0,1,0,0
30037,1.6491e+09,-3.5562,95.233,-104.38,-52.191,41.828,0,0,1,0,0
30079,1.6491e+09,-6.2074,67.92,-88.794,-44.397,40.864,0,0,1,0,0
30122,1.6491e+09,-8.9878,88.611,-89.117,-44.559,39.981,0,0,1,0,0
30165,1.6491e+09,-11.037,70.997,-89.23,-44.615,39.067,0,0,1,0,0
30207,1.6491e+09,-12.801,51.098,-79.629,-39.814,38.221,0,0,1,0,0
30254,1.6491e+09,-17.111,57.792,-83.513,-41.756,37.38,0,0,1,0,0
30298,1.6492e+09,-18.887,56.455,-87.362,-43.681,36.481,0,0,1,0,0
30345,1.6492e+09,-16.172,67.184,-81.127,-40.563,35.449,0,0,1,0,0
30382,1.6492e+09,-16.962,55.413,-77.626,-38.813,35.057,0,0,1,0,0
30426,1.6492e+09,-21.922,67.808,-80.345,-40.172,34.299,0,0,1,0,0
30472,1.6492e+09,-23.755,52.487,-79.619,-39.809,33.492,0,0,1,0,0
30517,1.6492e+09,-25.123,39.462,-72.361,-36.18,32.72,0,0,1,0,0
30561,1.6492e+09,-26.297,54.471,-77.107,-38.553,31.977,0,0,1,0,0
30606,1.6492e+09,-27.163,39.889,-72.709,-36.355,31.25,0,0,1,0,0
30650,1.6492e+09,-27.902,31.513,-66.773,-33.387,30.566,0,0,1,0,0
30701,1.6492e+09,-28.28,31.562,-65.693,-32.846,29.889,0,0,1,0,0
30747,1.6493e+09,-29.039,56.069,-77.207,-38.604,29.171,0,0,1,0,0
30792,1.6493e+09,-31.085,14.149,-69.67,-34.835,28.426,0,0,1,0,0
30837,1.6493e+09,-33.27,26.809,-61.741,-30.871,27.79,0,0,1,0,0
30881,1.6493e+09,-32.384,59.378,-71.285,-35.642,27.141,0,0,1,0,0
30926,1.6493e+09,-32.039,13.175,-57.323,-28.661,26.519,0,0,1,0,0
30970,1.6493e+09,-31.972,14.796,-60.832,-30.416,25.896,0,0,1,0,0
31015,1.6493e+09,-32.436,48.526,-73.347,-36.674,25.225,0,0,1,0,0
31059,1.6493e+09,-33.23,12.061,-48.343,-24.172,24.685,0,0,1,0,0
31104,1.6493e+09,-33.35,31.618,-56.29,-28.145,24.141,0,0,1,0,0
31155,1.6494e+09,-28.917,-24.501,-42.897,-21.449,23.415,0,0,1,0,0
31198,1.6494e+09,-28.537,-11.081,-33.284,-16.642,23.133,0,0,1,0,0
31243,1.6494e+09,-32.099,18.539,-45.04,-22.52,22.76,0,0,1,0,0
31291,1.6494e+09,-29.815,24.476,-43.576,-21.788,22.272,0,0,1,0,0
31335,1.6494e+09,-23.189,23.779,-34.879,-17.439,21.944,0,0,1,0,0
31380,1.6494e+09,-22.625,0.22402,-29.258,-14.629,21.619,0,0,1,0,0
31424,1.6494e+09,-25.247,-4.4462,-21.598,-10.799,21.365,0,0,1,0,0
31469,1.6494e+09,-26.691,41.718,-38.944,-19.472,21.078,0,0,1,0,0
31514,1.6494e+09,-26.925,6.2417,-42.342,-21.171,20.636,0,0,1,0,0
31563,1.6495e+09,-25.955,-8.365,-35.628,-17.814,20.223,0,0,1,0,0
31608,1.6495e+09,-25.349,22.412,-33.781,-16.891,19.934,0,0,1,0,0
31652,1.6495e+09,-24.769,33.429,-32.54,-16.27,19.656,0,0,1,0,0
31697,1.6495e+09,-23.31,-36.984,-14.699,-7.3495,19.366,0,0,1,0,0
31741,1.6495e+09,-22.522,-11.188,-33.051,-16.526,19.025,0,0,1,0,0
31786,1.6495e+09,-19.629,29.032,-44.069,-22.035,18.643,0,0,1,0,0
31832,1.6495e+09,-18.335,4.4844,-24.444,-12.222,18.348,0,0,1,0,0
31876,1.6495e+09,-17.979,23.67,-29.756,-14.878,18.083,0,0,1,0,0
31921,1.6495e+09,-18.108,44.1,-49.528,-24.764,17.662,0,0,1,0,0
31964,1.6496e+09,-18.711,-12.653,-32.505,-16.252,17.366,0,0,1,0,0
32010,1.6496e+09,-20.214,42.719,-39.795,-19.898,17.055,0,0,1,0,0
32054,1.6496e+09,-20.697,11.079,-27.296,-13.648,16.752,0,0,1,0,0
32099,1.6496e+09,-20.068,9.0809,-28.509,-14.254,16.477,0,0,1,0,0
32144,1.6496e+09,-19.974,33.108,-42.565,-21.283,16.103,0,0,1,0,0
32188,1.6496e+09,-19.012,0.32692,-33.531,-16.766,15.708,0,0,1,0,0
32234,1.6496e+09,-18.859,18.688,-40.514,-20.257,15.35,0,0,1,0,0
32278,1.6496e+09,-18.495,20.745,-34.677,-17.338,14.997,0,0,1,0,0
32323,1.6496e+09,-18.069,24.947,-37.41,-18.705,14.632,0,0,1,0,0
32369,1.6496e+09,-17.723,18.532,-38.172,-19.086,14.253,0,0,1,0,0
32413,1.6497e+09,-17.144,11.786,-27.144,-13.572,13.953,0,0,1,0,0
32462,1.6497e+09,-16.217,-4.4519,-19.414,-9.707,13.727,0,0,1,0,0
32506,1.6497e+09,-16.161,38.393,-33.491,-16.745,13.486,0,0,1,0,0
32551,1.6497e+09,-12.714,9.0915,-29.956,-14.978,13.157,0,0,1,0,0
32595,1.6497e+09,-11.647,26.038,-25.302,-12.651,12.921,0,0,1,0,0
32640,1.6497e+09,-10.934,17.047,-19.147,-9.5733,12.719,0,0,1,0,0
32685,1.6497e+09,-10.026,-13.323,-11.28,-5.6401,12.549,0,0,1,0,0
32732,1.6497e+09,-11.226,-11.159,-6.2893,-3.1446,12.456,0,0,1,0,0
32779,1.6497e+09,-11.171,18.081,-22.191,-11.095,12.3,0,0,1,0,0
32824,1.6498e+09,-10.442,11.834,-18.427,-9.2133,12.105,0,0,1,0,0
32870,1.6498e+09,-10.078,22.468,-20.723,-10.362,11.943,0,0,1,0,0
32913,1.6498e+09,-11.588,15.635,-19.216,-9.6082,11.853,0,0,1,0,0
32955,1.6498e+09,-11.447,-5.8559,-11.161,-5.5806,11.702,0,0,1,0,0
32998,1.6498e+09,-11.115,-20.686,-8.484,-4.242,11.569,0,0,1,0,0
33041,1.6498e+09,-10.927,6.5811,-11.718,-5.8589,11.488,0,0,1,0,0
33083,1.6498e+09,-10.934,15.612,-12.663,-6.3313,11.409,0,0,1,0,0
33127,1.6498e+09,-10.612,11.53,-12.279,-6.1397,11.29,0,0,1,0,0
33169,1.6498e+09,-10.057,-0.13227,-15.957,-7.9787,11.11,0,0,1,0,0
33212,1.6498e+09,-9.3108,-1.7454,-16.932,-8.4659,10.923,0,0,1,0,0
33256,1.6499e+09,-8.752,2.1609,-12.269,-6.1344,10.813,0,0,1,0,0
33298,1.6499e+09,-7.9561,1.9877,-1.2358,-0.61792,10.789,0,0,1,0,0
33346,1.6499e+09,-6.5403,-10.8,7.7923,3.8961,10.822,0,0,1,0,0
33388,1.6499e+09,-5.6708,-17.023,-8.7667,-4.3834,10.725,0,0,1,0,0
33432,1.6499e+09,-4.9491,-5.9977,-6.8099,-3.405,10.633,0,0,1,0,0
33475,1.6499e+09,-4.0958,2.8225,-1.9905,-0.99527,10.628,0,0,1,0,0
33518,1.6499e+09,-3.4371,2.2407,8.9363,4.4682,10.718,0,0,1,0,0
33560,1.6499e+09,-2.0958,-22.628,7.9001,3.95,10.72,0,0,1,0,0
33603,1.6499e+09,-0.91352,-15.004,-0.38805,-0.19402,10.698,0,0,1,0,0
33642,1.65e+09,-0.20943,-12.478,-2.8429,-1.4215,10.671,0,0,1,0,0
33686,1.65e+09,0.035929,14.794,-5.9099,-2.9549,10.652,0,0,1,0,0
33732,1.65e+09,0.19142,46.213,-11.58,-5.7899,10.632,0,0,1,0,0
33781,1.65e+09,0.69743,6.8188,-6.3604,-3.1802,10.528,0,0,1,0,0
33826,1.65e+09,0.8123,34.621,-18.567,-9.2836,10.365,0,0,1,0,0
33870,1.65e+09,0.73685,30.463,-29.447,-14.723,10.099,0,0,1,0,0
33916,1.65e+09,1.4581,33.134,-30.602,-15.301,9.8009,0,0,1,0,0
33960,1.65e+09,1.0096,32.74,-26.603,-13.302,9.5397,0,0,1,0,0
34005,1.65e+09,-0.80631,39.542,-29.798,-14.899,9.2719,0,0,1,0,0
34051,1.65e+09,-1.5962,53.152,-37.484,-18.742,8.9426,0,0,1,0,0
34095,1.6501e+09,-2.1086,24.172,-45.73,-22.865,8.4561,0,0,1,0,0
34140,1.6501e+09,-3.0991,44.312,-43.185,-21.592,8.0429,0,0,1,0,0
34184,1.6501e+09,-4.0623,60.697,-38.749,-19.375,7.718,0,0,1,0,0
34233,1.6501e+09,-5.0001,18.62,-35.342,-17.671,7.3157,0,0,1,0,0
34279,1.6501e+09,-5.7235,8.18,-41.498,-20.749,6.8306,0,0,1,0,0
34324,1.6501e+09,-6.9765,37.198,-41.632,-20.816,6.4518,0,0,1,0,0
34369,1.6501e+09,-7.8711,19.65,-30.287,-15.144,6.1147,0,0,1,0,0
34413,1.6501e+09,-8.1224,1.9496,-30.203,-15.102,5.7456,0,0,1,0,0
34454,1.6501e+09,-8.8559,5.174,-22.667,-11.334,5.5617,0,0,1,0,0
34499,1.6502e+09,-11.378,44.881,-36.407,-18.204,5.2889,0,0,1,0,0
34543,1.6502e+09,-11.924,3.3598,-17.847,-8.9234,5.0492,0,0,1,0,0
34588,1.6502e+09,-11.159,-8.1295,-15.674,-7.8369,4.8333,0,0,1,0,0
34632,1.6502e+09,-11.671,22.109,-32.669,-16.335,4.5472,0,0,1,0,0
34682,1.6502e+09,-11.93,0.25091,-26.972,-13.486,4.2699,0,0,1,0,0
34726,1.6502e+09,-12.495,-1.4377,-18.753,-9.3764,4.0649,0,0,1,0,0
34771,1.6502e+09,-12.731,32.563,-21.29,-10.645,3.9058,0,0,1,0,0
34815,1.6502e+09,-12.797,14.489,-17.812,-8.9058,3.7415,0,0,1,0,0
34863,1.6502e+09,-11.144,-10.142,-12.922,-6.4611,3.5495,0,0,1,0,0
34907,1.6502e+09,-11.102,5.7584,-21.078,-10.539,3.3537,0,0,1,0,0
34951,1.6503e+09,-12.108,0.52366,-27.007,-13.503,3.0791,0,0,1,0,0
34996,1.6503e+09,-11.991,16.226,-16.468,-8.2341,2.9121,0,0,1,0,0
35041,1.6503e+09,-11.576,31.487,-21.736,-10.868,2.7353,0,0,1,0,0
35086,1.6503e+09,-10.794,-5.4831,-16.925,-8.4626,2.523,0,0,1,0,0
35134,1.6503e+09,-8.582,-38.185,2.4716,1.2358,2.4332,0,0,1,0,0
35179,1.6503e+09,-7.7182,2.6882,-7.5857,-3.7929,2.3904,0,0,1,0,0
35224,1.6503e+09,-6.7236,-2.6486,1.5336,0.76679,2.4108,0,0,1,0,0
35269,1.6503e+09,-6.6062,-6.0716,6.7824,3.3912,2.465,0,0,1,0,0
35314,1.6503e+09,-5.0807,-8.8867,5.2621,2.631,2.5123,0,0,1,0,0
35359,1.6504e+09,-4.2262,5.8685,1.1718,0.58589,2.5323,0,0,1,0,0
35402,1.6504e+09,-3.0741,-22.811,8.9051,4.4526,2.5788,0,0,1,0,0
35444,1.6504e+09,-1.9506,-26.119,13.097,6.5487,2.666,0,0,1,0,0
35488,1.6504e+09,-1.3562,22.223,-6.0812,-3.0406,2.6938,0,0,1,0,0
35531,1.6504e+09,-0.54764,-1.8435,-3.287,-1.6435,2.6424,0,0,1,0,0
35577,1.6504e+09,0.38411,-11.162,6.7921,3.396,2.6587,0,0,1,0,0
35622,1.6504e+09,2.5546,-13.278,7.3259,3.663,2.6988,0,0,1,0,0
35665,1.6504e+09,3.4364,-4.5451,-1.5327,-0.76635,2.6883,0,0,1,0,0
35708,1.6504e+09,2.5656,36.293,-11.509,-5.7544,2.6477,0,0,1,0,0
35751,1.6505e+09,3.4223,23.223,-14.051,-7.0253,2.5331,0,0,1,0,0
35793,1.6505e+09,4.5057,0.807,-7.5798,-3.7899,2.4385,0,0,1,0,0
35836,1.6505e+09,5.1342,10.338,-5.5915,-2.7958,2.3885,0,0,1,0,0
35878,1.6505e+09,7.3147,22.359,-6.9213,-3.4606,2.3459,0,0,1,0,0
35922,1.6505e+09,12.669,14.277,-6.2674,-3.1337,2.293,0,0,1,0,0
35965,1.6505e+09,12.093,11.462,0.22723,0.11361,2.2731,0,0,1,0,0
36011,1.6505e+09,8.4358,1.1219,2.0593,1.0296,2.2679,0,0,1,0,0
36053,1.6505e+09,9.1417,12.476,-2.3883,-1.1942,2.2618,0,0,1,0,0
36096,1.6505e+09,9.3066,42.152,-14.581,-7.2903,2.17,0,0,1,0,0
36140,1.6505e+09,10.421,7.7125,3.8187,1.9094,2.1422,0,0,1,0,0
36184,1.6506e+09,12.291,31.109,1.897,0.94852,2.3097,0,0,1,0,0
36226,1.6506e+09,13.56,5.7444,5.1039,2.552,2.3535,0,0,1,0,0
36271,1.6506e+09,14.99,5.8022,13.105,6.5525,2.4806,0,0,1,0,0
36315,1.6506e+09,17.626,1.0599,10.601,5.3006,2.5831,0,0,1,0,0
36361,1.6506e+09,24.259,3.3527,21.53,10.765,2.7709,0,0,1,0,0
36411,1.6506e+09,26.633,1.0407,25.567,12.783,3.0289,0,0,1,0,0
36455,1.6506e+09,23.378,-19.171,25.531,12.765,3.2512,0,0,1,0,0
36501,1.6506e+09,22.827,-17.46,29.224,14.612,3.5072,0,0,1,0,0
36545,1.6506e+09,24.872,-8.3901,33.395,16.698,3.842,0,0,1,0,0
36593,1.6507e+09,26.929,20.277,23.416,11.708,4.2467,0,0,1,0,0
36638,1.6507e+09,29.216,1.6747,26.146,13.073,4.4961,0,0,1,0,0
36682,1.6507e+09,31.343,-30.398,44.811,22.405,4.8737,0,0,1,0,0
36727,1.6507e+09,34.391,0.2862,34.721,17.361,5.2452,0,0,1,0,0
36773,1.6507e+09,36.337,-17.34,29.939,14.969,5.5223,0,0,1,0,0
36817,1.6507e+09,36.441,12.097,30.702,15.351,5.8469,0,0,1,0,0
36866,1.6507e+09,37.778,48.068,25.54,12.77,6.155,0,0,1,0,0
36914,1.6507e+09,39.357,17.896,20.375,10.187,6.3591,0,0,1,0,0
36959,1.6507e+09,40.457,9.9524,31.202,15.601,6.6487,0,0,1,0,0
37002,1.6508e+09,42.164,22.854,19.926,9.9631,6.8767,0,0,1,0,0
37047,1.6508e+09,43.15,20.326,27.637,13.819,7.1116,0,0,1,0,0
37091,1.6508e+09,42.935,18.864,23.393,11.697,7.3513,0,0,1,0,0
37136,1.6508e+09,43.648,19.548,24.86,12.43,7.5892,0,0,1,0,0
37182,1.6508e+09,43.907,46.589,14.465,7.2327,7.7803,0,0,1,0,0
37228,1.6508e+09,44.177,22.052,17.518,8.759,7.9286,0,0,1,0,0
37272,1.6508e+09,43.993,43.112,2.889,1.4445,7.9751,0,0,1,0,0
37320,1.6508e+09,44.125,43.722,2.725,1.3625,8.0061,0,0,1,0,0
37364,1.6508e+09,43.712,50.141,2.6557,1.3278,8.0652,0,0,1,0,0
37408,1.6509e+09,42.985,63.504,-8.9785,-4.4893,8.0221,0,0,1,0,0
37452,1.6509e+09,42.483,57.601,-11.972,-5.9859,7.9202,0,0,1,0,0
37499,1.6509e+09,41.338,34.897,-12.559,-6.2796,7.7591,0,0,1,0,0
37544,1.6509e+09,40.365,41.322,-16.19,-8.0951,7.5484,0,0,1,0,0
37588,1.6509e+09,38.804,40.764,-22.633,-11.317,7.3158,0,0,1,0,0
37633,1.6509e+09,37.046,73.912,-33.932,-16.966,7.022,0,0,1,0,0
37678,1.6509e+09,34.791,78.999,-33.974,-16.987,6.7366,0,0,1,0,0
37723,1.6509e+09,32.797,66.348,-30.115,-15.057,6.4267,0,0,1,0,0
37773,1.6509e+09,31.258,46.66,-17.119,-8.5595,6.2031,0,0,1,0,0
37817,1.651e+09,31.145,65.428,-24.016,-12.008,5.9469,0,0,1,0,0
37860,1.651e+09,30.926,28.115,-16.138,-8.0692,5.723,0,0,1,0,0
37905,1.651e+09,26.584,30.891,-17.129,-8.5647,5.5382,0,0,1,0,0
37949,1.651e+09,24.3,20.691,-10.747,-5.3735,5.3807,0,0,1,0,0
37994,1.651e+09,22.741,15.617,-7.7426,-3.8713,5.2642,0,0,1,0,0
38039,1.651e+09,21.299,37.073,-12.377,-6.1885,5.14,0,0,1,0,0
38083,1.651e+09,20.874,-15.552,-2.0535,-1.0268,5.0217,0,0,1,0,0
38129,1.651e+09,20.19,9.1203,16.418,8.2088,5.174,0,0,1,0,0
38177,1.651e+09,19.532,36.499,5.4572,2.7286,5.3067,0,0,1,0,0
38225,1.6511e+09,19.417,5.6754,1.5617,0.78084,5.3042,0,0,1,0,0
38270,1.6511e+09,19.179,19.123,6.2385,3.1192,5.3835,0,0,1,0,0
38314,1.6511e+09,19.211,18.163,13.017,6.5085,5.5332,0,0,1,0,0
38363,1.6511e+09,19.468,24.047,10.487,5.2434,5.7249,0,0,1,0,0
38407,1.6511e+09,19.131,27.355,12.28,6.1401,5.8946,0,0,1,0,0
38453,1.6511e+09,19.612,-7.4261,19.59,9.7949,6.0172,0,0,1,0,0
38497,1.6511e+09,20.22,-7.9872,20.178,10.089,6.1877,0,0,1,0,0
38542,1.6511e+09,20.62,-8.7273,20.656,10.328,6.3694,0,0,1,0,0
38588,1.6511e+09,24.204,19.237,11.662,5.8312,6.506,0,0,1,0,0
38636,1.6511e+09,24.528,20.668,13.576,6.7881,6.6576,0,0,1,0,0
38683,1.6512e+09,25.297,-30.71,32.196,16.098,6.8681,0,0,1,0,0
38722,1.6512e+09,25.278,-0.12197,25.488,12.744,7.1336,0,0,1,0,0
38765,1.6512e+09,24.013,3.2414,17.035,8.5176,7.3075,0,0,1,0,0
38807,1.6512e+09,21.648,27.394,5.4653,2.7326,7.4098,0,0,1,0,0
38850,1.6512e+09,22.17,14.014,16.561,8.2803,7.5755,0,0,1,0,0
38892,1.6512e+09,21.981,22.452,8.3765,4.1882,7.7061,0,0,1,0,0
38935,1.6512e+09,21.578,40.308,-6.4416,-3.2208,7.697,0,0,1,0,0
38979,1.6512e+09,21.112,33.826,-6.6501,-3.3251,7.656,0,0,1,0,0
39022,1.6512e+09,21.076,-8.9301,5.5043,2.7521,7.6343,0,0,1,0,0
39068,1.6513e+09,20.692,15.561,3.8424,1.9212,7.6859,0,0,1,0,0
39111,1.6513e+09,20.253,-1.6879,4.7886,2.3943,7.7051,0,0,1,0,0
39155,1.6513e+09,18.928,55.288,-12.059,-6.0296,7.6638,0,0,1,0,0
39198,1.6513e+09,18.693,15.735,-0.72568,-0.36284,7.6066,0,0,1,0,0
39240,1.6513e+09,18.181,22.788,8.5853,4.2927,7.6841,0,0,1,0,0
39282,1.6513e+09,18.518,-4.7087,11.826,5.913,7.7459,0,0,1,0,0
39325,1.6513e+09,21.351,-16.18,30.05,15.025,8.0065,0,0,1,0,0
39367,1.6513e+09,23.47,-39.628,44.822,22.411,8.3774,0,0,1,0,0
39410,1.6513e+09,23.641,-26.171,44.007,22.004,8.8204,0,0,1,0,0
39451,1.6513e+09,22.837,-61.552,59.866,29.933,9.3542,0,0,1,0,0
39495,1.6514e+09,24.018,-16.674,47.555,23.777,9.8687,0,0,1,0,0
39541,1.6514e+09,26.225,-60.842,58.106,29.053,10.378,0,0,1,0,0
39585,1.6514e+09,27.349,-5.6332,57.89,28.945,11.036,0,0,1,0,0
39630,1.6514e+09,34.31,-28.759,59.733,29.867,11.603,0,0,1,0,0
39678,1.6514e+09,37.603,-24.282,70.914,35.457,12.456,0,0,1,0,0
39723,1.6514e+09,35.828,-18.547,53.985,26.992,13.03,0,0,1,0,0
39767,1.6514e+09,36.076,-48.686,65.419,32.709,13.611,0,0,1,0,0
39812,1.6514e+09,37.61,5.8654,49.794,24.897,14.177,0,0,1,0,0
39857,1.6514e+09,39.004,4.3417,37.296,18.648,14.591,0,0,1,0,0
39901,1.6515e+09,40.274,-17.671,42.091,21.046,14.958,0,0,1,0,0
39951,1.6515e+09,41.117,16.703,41.287,20.643,15.402,0,0,1,0,0
39995,1.6515e+09,41.454,31.537,22.29,11.145,15.692,0,0,1,0,0
40041,1.6515e+09,41.464,30.566,12.444,6.2218,15.825,0,0,1,0,0
40085,1.6515e+09,43.772,42.329,4.7801,2.39,15.891,0,0,1,0,0
40133,1.6515e+09,43.856,50.547,5.1316,2.5658,15.951,0,0,1,0,0
40178,1.6515e+09,40.526,42.713,-7.022,-3.511,15.89,0,0,1,0,0
40222,1.6515e+09,38.091,49.953,-14.786,-7.3928,15.76,0,0,1,0,0
40267,1.6515e+09,36.689,59.772,-17.561,-8.7806,15.592,0,0,1,0,0
40313,1.6515e+09,35.136,57.725,-10.448,-5.224,15.506,0,0,1,0,0
40355,1.6516e+09,33.489,70.729,-18.257,-9.1286,15.394,0,0,1,0,0
40404,1.6516e+09,30.878,57.202,-20.604,-10.302,15.187,0,0,1,0,0
40448,1.6516e+09,28.33,50.315,-17.317,-8.6584,15.005,0,0,1,0,0
40494,1.6516e+09,25.779,46.468,-26.577,-13.288,14.731,0,0,1,0,0
40539,1.6516e+09,23.522,73.019,-34.116,-17.058,14.446,0,0,1,0,0
40583,1.6516e+09,21.559,49.517,-32.931,-16.465,14.12,0,0,1,0,0
40628,1.6516e+09,19.771,25.659,-15.636,-7.8179,13.897,0,0,1,0,0
40673,1.6516e+09,16.826,45.035,-20.686,-10.343,13.725,0,0,1,0,0
40718,1.6516e+09,14.963,39.606,-24.629,-12.315,13.486,0,0,1,0,0
40762,1.6517e+09,13.915,6.8896,-11.818,-5.9089,13.304,0,0,1,0,0
40808,1.6517e+09,12.641,6.0501,1.1342,0.56712,13.28,0,0,1,0,0
40857,1.6517e+09,13.973,31.785,-12.764,-6.3822,13.173,0,0,1,0,0
40901,1.6517e+09,17.237,19.007,-14.255,-7.1273,13.013,0,0,1,0,0
40947,1.6517e+09,14.177,-8.2606,3.9335,1.9667,12.964,0,0,1,0,0
40991,1.6517e+09,10.163,-0.60663,13.769,6.8846,13.095,0,0,1,0,0
41037,1.6517e+09,9.5129,15.677,-3.3206,-1.6603,13.094,0,0,1,0,0
41082,1.6517e+09,9.0843,22.23,-4.5625,-2.2813,13.071,0,0,1,0,0
41128,1.6517e+09,11.448,-20.311,-1.1713,-0.58563,12.983,0,0,1,0,0
41173,1.6518e+09,15.155,-20.245,24.089,12.044,13.133,0,0,1,0,0
41219,1.6518e+09,12.254,33.272,-0.14887,-0.074436,13.237,0,0,1,0,0
41264,1.6518e+09,7.1128,6.5674,-7.5228,-3.7614,13.161,0,0,1,0,0
41310,1.6518e+09,7.6132,-13.084,1.9717,0.98585,13.124,0,0,1,0,0
41354,1.6518e+09,6.7689,2.0854,0.93424,0.46712,13.113,0,0,1,0,0
41399,1.6518e+09,4.5791,7.6477,-9.4148,-4.7074,13.03,0,0,1,0,0
41447,1.6518e+09,3.2105,19.818,-23.943,-11.972,12.763,0,0,1,0,0
41492,1.6518e+09,1.8829,-1.7095,-22.239,-11.119,12.492,0,0,1,0,0
41537,1.6518e+09,0.7271,13.285,-16.722,-8.3612,12.308,0,0,1,0,0
41581,1.6519e+09,0.57916,20.2,-25.608,-12.804,12.073,0,0,1,0,0
41626,1.6519e+09,-0.86484,33.862,-26.019,-13.01,11.808,0,0,1,0,0
41670,1.6519e+09,-5.8479,24.957,-31.643,-15.822,11.487,0,0,1,0,0
41720,1.6519e+09,-11.959,-7.6335,-20.258,-10.129,11.225,0,0,1,0,0
41764,1.6519e+09,-19.084,36.399,-43.676,-21.838,10.881,0,0,1,0,0
41809,1.6519e+09,-26.13,25.984,-50.797,-25.398,10.399,0,0,1,0,0
41854,1.6519e+09,-33.204,30.555,-49.666,-24.833,9.9164,0,0,1,0,0
41900,1.6519e+09,-39.294,-10.273,-40.839,-20.42,9.455,0,0,1,0,0
41945,1.6519e+09,-45.212,-42.149,-20.697,-10.348,9.1671,0,0,1,0,0
41992,1.652e+09,-51.388,-8.378,-35.529,-17.764,8.8687,0,0,1,0,0
42033,1.652e+09,-56.387,-37.368,-36.27,-18.135,8.5827,0,0,1,0,0
42075,1.652e+09,-62.655,-13.622,-45.354,-22.677,8.1756,0,0,1,0,0
42118,1.652e+09,-68.44,-57.87,-29.556,-14.778,7.8297,0,0,1,0,0
42164,1.652e+09,-74.843,-15.071,-39.199,-19.599,7.5081,0,0,1,0,0
42206,1.652e+09,-80.485,-45.49,-37.509,-18.754,7.1168,0,0,1,0,0
42249,1.652e+09,-86.524,-56.038,-38.783,-19.392,6.7102,0,0,1,0,0
42291,1.652e+09,-92.307,-57.1,-50.148,-25.074,6.1925,0,0,1,0,0
42335,1.652e+09,-98.087,-73.558,-38.103,-19.051,5.7767,0,0,1,0,0
42374,1.6521e+09,-102.68,-29.502,-52.292,-26.146,5.4275,0,0,1,0,0
42414,1.6521e+09,-106.37,-74.242,-39.51,-19.755,5.1017,0,0,1,0,0
42456,1.6521e+09,-106.29,-58.285,-37.566,-18.783,4.7498,0,0,1,0,0
42498,1.6521e+09,-105.4,-56.781,-46.111,-23.056,4.293,0,0,1,0,0
42543,1.6521e+09,-103.76,-99.017,-25.842,-12.921,3.9389,0,0,1,0,0
42590,1.6521e+09,-100.08,-58.639,-21.392,-10.696,3.7562,0,0,1,0,0
42633,1.6521e+09,-95.25,-74.866,-21.949,-10.975,3.5139,0,0,1,0,0
42676,1.6521e+09,-96.628,-80.249,-14.999,-7.4997,3.3606,0,0,1,0,0
42718,1.6521e+09,-97.978,-63.702,-20.292,-10.146,3.2129,0,0,1,0,0
42758,1.6521e+09,-96.521,-128.66,-9.5211,-4.7606,3.0755,0,0,1,0,0
42800,1.6522e+09,-94.844,-82.782,-9.8355,-4.9177,2.9827,0,0,1,0,0
42839,1.6522e+09,-92.082,-92.844,-13.531,-6.7653,2.8207,0,0,1,0,0
42884,1.6522e+09,-89.593,-98.173,0.43013,0.21507,2.797,0,0,1,0,0
42929,1.6522e+09,-87.602,-64.907,-9.4477,-4.7238,2.7454,0,0,1,0,0
42975,1.6522e+09,-84.422,-120.37,10.806,5.4029,2.7407,0,0,1,0,0
43026,1.6522e+09,-80.05,-98.592,10.952,5.4758,2.8486,0,0,1,0,0
43070,1.6522e+09,-76.945,-93.299,7.2782,3.6391,2.9045,0,0,1,0,0
43115,1.6522e+09,-73.478,-135.91,24.54,12.27,3.0257,0,0,1,0,0
43159,1.6522e+09,-71.055,-90.458,14.103,7.0515,3.1977,0,0,1,0,0
43205,1.6523e+09,-71.344,-110.19,11.31,5.6551,3.2767,0,0,1,0,0
43250,1.6523e+09,-69.573,-51.101,-3.201,-1.6005,3.3085,0,0,1,0,0
43295,1.6523e+09,-64.061,-24.363,-26.215,-13.108,3.1258,0,0,1,0,0
43340,1.6523e+09,-61.557,-63.672,-5.7696,-2.8848,3.0129,0,0,1,0,0
43384,1.6523e+09,-64.779,-36.252,-17.6,-8.8001,2.8953,0,0,1,0,0
43433,1.6523e+09,-63.95,-12.901,-31.353,-15.677,2.6689,0,0,1,0,0
43478,1.6523e+09,-63.008,-50.53,-18.914,-9.457,2.447,0,0,1,0,0
43522,1.6523e+09,-61.751,-72.898,-12.411,-6.2056,2.2401,0,0,1,0,0
43572,1.6524e+09,-61.117,-52.024,-20.579,-10.29,2.0162,0,0,1,0,0
43610,1.6524e+09,-60.019,-50.072,-16.819,-8.4096,1.8773,0,0,1,0,0
43652,1.6524e+09,-56.873,-44.384,-3.788,-1.894,1.8522,0,0,1,0,0
43694,1.6524e+09,-55.877,-14.553,-18.344,-9.1718,1.7634,0,0,1,0,0
43738,1.6524e+09,-51.83,-74.5,5.4355,2.7177,1.7177,0,0,1,0,0
43783,1.6524e+09,-50.513,-69.37,12.377,6.1886,1.8336,0,0,1,0,0
43830,1.6524e+09,-53.123,-40.114,0.13561,0.067803,1.9068,0,0,1,0,0
43878,1.6524e+09,-51.3,-65.833,13.193,6.5965,2.0078,0,0,1,0,0
43923,1.6524e+09,-50.238,-53.724,5.8173,2.9086,2.0899,0,0,1,0,0
43967,1.6525e+09,-49.046,-48.606,-3.7509,-1.8755,2.0602,0,0,1,0,0
44012,1.6525e+09,-47.682,-48.301,8.4894,4.2447,2.1406,0,0,1,0,0
44054,1.6525e+09,-46.355,-71.542,11.62,5.8101,2.2048,0,0,1,0,0
44095,1.6525e+09,-47.825,-74.669,11.214,5.6072,2.2757,0,0,1,0,0
44141,1.6525e+09,-45.99,-80.735,17.555,8.7777,2.4018,0,0,1,0,0
44187,1.6525e+09,-44.598,-56.288,13.343,6.6717,2.5497,0,0,1,0,0
44231,1.6525e+09,-43.001,-52.678,10.07,5.0349,2.6455,0,0,1,0,0
44276,1.6525e+09,-41.087,-74.113,22.727,11.363,2.8236,0,0,1,0,0
44324,1.6525e+09,-39.424,-58.311,20.243,10.121,3.0353,0,0,1,0,0
44371,1.6525e+09,-37.883,-52.345,18.466,9.2332,3.2166,0,0,1,0,0
44410,1.6526e+09,-36.143,-55.153,19.53,9.7648,3.4187,0,0,1,0,0
44454,1.6526e+09,-32.671,-46.402,14.815,7.4074,3.5776,0,0,1,0,0
44492,1.6526e+09,-31.682,-44.384,12.811,6.4053,3.6418,0,0,1,0,0
44537,1.6526e+09,-33.14,-56.777,14.042,7.021,3.7767,0,0,1,0,0
44582,1.6526e+09,-32.456,-29.965,9.3949,4.6974,3.9009,0,0,1,0,0
44629,1.6526e+09,-31.679,-32.822,7.8647,3.9323,3.987,0,0,1,0,0
44673,1.6526e+09,-30.712,-45.492,2.8007,1.4003,4.0047,0,0,1,0,0
44718,1.6526e+09,-27.533,-40.365,6.424,3.212,4.0574,0,0,1,0,0
44767,1.6526e+09,-26.65,-32.608,8.3722,4.1861,4.1538,0,0,1,0,0
44812,1.6527e+09,-28.426,-36.243,6.649,3.3245,4.2361,0,0,1,0,0
44856,1.6527e+09,-27.679,-47.151,11.228,5.6139,4.3114,0,0,1,0,0
44902,1.6527e+09,-26.563,-48.243,13.564,6.7818,4.4076,0,0,1,0,0
44941,1.6527e+09,-26.472,-52.909,18.361,9.1804,4.4931,0,0,1,0,0
44985,1.6527e+09,-23.701,-34.613,4.2247,2.1123,4.5543,0,0,1,0,0
45031,1.6527e+09,-23.359,-23.238,8.5295,4.2647,4.6631,0,0,1,0,0
45075,1.6527e+09,-25.636,-19.13,3.4167,1.7083,4.7263,0,0,1,0,0
45121,1.6527e+09,-25.228,-30.694,3.4565,1.7282,4.724,0,0,1,0,0
45168,1.6527e+09,-22.893,-14.666,-3.9127,-1.9564,4.7003,0,0,1,0,0
45210,1.6528e+09,-23.167,-15.9,-9.4863,-4.7431,4.5987,0,0,1,0,0
45256,1.6528e+09,-23.242,-22.143,-5.6648,-2.8324,4.5124,0,0,1,0,0
45301,1.6528e+09,-23.871,3.8608,-18.64,-9.32,4.3816,0,0,1,0,0
45346,1.6528e+09,-26.302,19.846,-31.662,-15.831,4.1246,0,0,1,0,0
45387,1.6528e+09,-27.621,7.7503,-33.538,-16.769,3.8687,0,0,1,0,0
45431,1.6528e+09,-28.781,-1.1372,-26.894,-13.447,3.5916,0,0,1,0,0
45473,1.6528e+09,-30.128,2.9442,-33.019,-16.509,3.3447,0,0,1,0,0
45517,1.6528e+09,-31.748,8.2899,-33.494,-16.747,3.0078,0,0,1,0,0
45562,1.6528e+09,-33.942,19.758,-40.774,-20.387,2.6449,0,0,1,0,0
45607,1.6529e+09,-36.388,36.523,-59.961,-29.981,2.1123,0,0,1,0,0
45657,1.6529e+09,-37.864,-3.2083,-40.643,-20.321,1.6528,0,0,1,0,0
45702,1.6529e+09,-39.521,-15.391,-34.152,-17.076,1.291,0,0,1,0,0
45747,1.6529e+09,-41.095,-16.57,-43.195,-21.598,0.8321,0,0,1,0,0
45792,1.6529e+09,-42.021,-22.793,-23.624,-11.812,0.52872,0,0,1,0,0
45833,1.6529e+09,-42.248,12.022,-26.177,-13.089,0.36394,0,0,1,0,0
45878,1.6529e+09,-43.137,-36.755,-12.873,-6.4367,0.19031,0,0,1,0,0
45922,1.6529e+09,-41.688,-39.682,-3.6569,-1.8284,0.10787,0,0,1,0,0
45966,1.6529e+09,-42.465,-12.446,-18.941,-9.4706,-0.042001,0,0,1,0,0
46011,1.653e+09,-39.136,-24.503,-18.766,-9.3829,-0.22446,0,0,1,0,0
46059,1.653e+09,-40.091,-7.0987,-19.171,-9.5857,-0.39979,0,0,1,0,0
46104,1.653e+09,-44.127,-20.873,-22.732,-11.366,-0.62058,0,0,1,0,0
46148,1.653e+09,-46.024,-12.963,-25.982,-12.991,-0.87808,0,0,1,0,0
46190,1.653e+09,-47.539,-14.724,-35.875,-17.938,-1.2263,0,0,1,0,0
46234,1.653e+09,-47.918,-31.338,-36.436,-18.218,-1.6252,0,0,1,0,0
46276,1.653e+09,-49.315,15.612,-50.158,-25.079,-2.0447,0,0,1,0,0
46315,1.653e+09,-50.043,-15.524,-45.504,-22.752,-2.405,0,0,1,0,0
46358,1.653e+09,-51.991,11.499,-58.586,-29.293,-2.9295,0,0,1,0,0
46401,1.6531e+09,-53.828,-2.9689,-57.738,-28.869,-3.5081,0,0,1,0,0
46443,1.6531e+09,-55.862,4.5154,-60.535,-30.267,-4.0921,0,0,1,0,0
46487,1.6531e+09,-57.541,2.9476,-58.118,-29.059,-4.6773,0,0,1,0,0
46533,1.6531e+09,-59.384,23.045,-68.427,-34.214,-5.3139,0,0,1,0,0
46576,1.6531e+09,-61.822,33.515,-80.377,-40.189,-6.0644,0,0,1,0,0
46619,1.6531e+09,-59.032,17.752,-70.102,-35.051,-6.768,0,0,1,0,0
46663,1.6531e+09,-60.592,-5.302,-80.363,-40.182,-7.5957,0,0,1,0,0
46706,1.6531e+09,-62.17,-21.12,-48.26,-24.13,-8.1698,0,0,1,0,0
46748,1.6531e+09,-67.218,28.1,-64.725,-32.362,-8.7052,0,0,1,0,0
46792,1.6532e+09,-71.236,-63.305,-43.306,-21.653,-9.2838,0,0,1,0,0
46832,1.6532e+09,-70.578,-21.999,-54.899,-27.449,-9.985,0,0,1,0,0
46878,1.6532e+09,-71.951,-2.9516,-56.068,-28.034,-10.518,0,0,1,0,0
46927,1.6532e+09,-75.77,12.902,-59.866,-29.933,-11.039,0,0,1,0,0
46972,1.6532e+09,-75.928,-50.556,-52.009,-26.005,-11.654,0,0,1,0,0
47018,1.6532e+09,-76.445,-43.347,-39.593,-19.797,-12.081,0,0,1,0,0
47063,1.6532e+09,-77.009,-16.955,-58.546,-29.273,-12.603,0,0,1,0,0
47105,1.6532e+09,-77.525,-29.266,-50.854,-25.427,-12.997,0,0,1,0,0
47149,1.6532e+09,-77.903,-19.257,-55.404,-27.702,-13.534,0,0,1,0,0
47191,1.6533e+09,-77.606,-54.084,-45.146,-22.573,-13.909,0,0,1,0,0
47238,1.6533e+09,-77.868,-8.5013,-48.133,-24.067,-14.329,0,0,1,0,0
47282,1.6533e+09,-74.686,-65.363,-41.283,-20.641,-14.827,0,0,1,0,0
47327,1.6533e+09,-73.533,-73.785,-26.049,-13.024,-15.148,0,0,1,0,0
47375,1.6533e+09,-73.655,-3.3023,-35.531,-17.766,-15.371,0,0,1,0,0
47420,1.6533e+09,-72.002,-65.853,-22.416,-11.208,-15.682,0,0,1,0,0
47465,1.6533e+09,-72.532,-88.696,-11.159,-5.5794,-15.886,0,0,1,0,0
47510,1.6533e+09,-70.892,-59.539,-8.6711,-4.3356,-15.962,0,0,1,0,0
47551,1.6533e+09,-69.007,-67.321,-2.4509,-1.2254,-15.991,0,0,1,0,0
47596,1.6534e+09,-67.046,-79.62,1.2551,0.62757,-16.006,0,0,1,0,0
47634,1.6534e+09,-62.28,-46.543,4.7768,2.3884,-15.926,0,0,1,0,0
47678,1.6534e+09,-59.848,-49.017,-0.060264,-0.030132,-15.904,0,0,1,0,0
47723,1.6534e+09,-59.006,-82.626,11.557,5.7784,-15.855,0,0,1,0,0
47768,1.6534e+09,-56.369,-50.778,5.7328,2.8664,-15.752,0,0,1,0,0
47817,1.6534e+09,-53.782,-49.875,-6.9282,-3.4641,-15.793,0,0,1,0,0
47862,1.6534e+09,-51.052,-36.517,2.9358,1.4679,-15.754,0,0,1,0,0
47907,1.6534e+09,-48.06,-56.655,7.7394,3.8697,-15.703,0,0,1,0,0
