LineNo,TimeUS,Tar,Act,Err,P,I,D,FF,Dmod,SRate,Limit
299,1.6419e+09,-0.20486,-0.0016774,-0.20318,-0.027429,0,-0.00052471,0,1,0,1
527,1.6419e+09,-0.2088,0.0010109,-0.20982,-0.028325,0,-0.00031541,0,1,0,1
979,1.642e+09,-0.21674,-5.5657e-05,-0.21668,-0.029252,0,-0.00059154,0,1,0,1
1093,1.6421e+09,-0.21951,-0.00065138,-0.21885,-0.029545,0,-5.0337e-05,0,1,0,1
1200,1.6422e+09,-0.22439,-0.0012558,-0.22314,-0.030124,0,-0.00038196,0,1,0,1
1311,1.6422e+09,-0.22621,-0.00013956,-0.22608,-0.03052,0,-0.00041901,0,1,0,1
1490,1.6423e+09,-0.22636,0.00081434,-0.22718,-0.030669,0,-0.00062393,0,1,0,1
1661,1.6423e+09,-0.22598,0.00065877,-0.22663,-0.030596,0,-1.6972e-05,0,1,0,1
1672,1.6423e+09,-0.22499,0.00089425,-0.22588,-0.030494,0,0.00030901,0,1,0,1
1716,1.6423e+09,-0.22382,-0.00041157,-0.22341,-0.03016,0,0.00078535,0,1,0,1
1761,1.6423e+09,-0.22265,0.0016567,-0.2243,-0.030281,0,0.00018965,0,1,0,1
1805,1.6423e+09,-0.22145,0.00050228,-0.22195,-0.029963,0,0.00078594,0,1,0,1
1850,1.6423e+09,-0.22015,-0.0020574,-0.21809,-0.029442,0,0.0010981,0,1,0,1
1897,1.6424e+09,-0.21881,3.6586e-05,-0.21885,-0.029544,0,4.7585e-05,0,1,0,1
1942,1.6424e+09,-0.21692,-0.0011061,-0.21581,-0.029135,0,0.00083826,0,1,0,1
1984,1.6424e+09,-0.21566,-0.00055998,-0.2151,-0.029038,0,0.00017104,0,1,0,1
2032,1.6424e+09,-0.21448,0.00027767,-0.21476,-0.028993,0,0.00021486,0,1,0,1
2075,1.6424e+09,-0.21332,0.00052584,-0.21385,-0.02887,0,0.00043175,0,1,0,1
2117,1.6424e+09,-0.21216,7.4968e-05,-0.21224,-0.028652,0,0.0005955,0,1,0,1
2163,1.6424e+09,-0.21069,0.00050841,-0.2112,-0.028512,0,0.00026063,0,1,0,1
2207,1.6424e+09,-0.20955,0.00084162,-0.21039,-0.028403,0,0.0003261,0,1,0,1
2249,1.6425e+09,-0.20845,0.0025868,-0.21103,-0.028489,0,3.2432e-05,0,1,0,1
2293,1.6425e+09,-0.2073,0.0010563,-0.20836,-0.028129,0,0.00068907,0,1,0,1
2335,1.6425e+09,-0.20611,-0.00042742,-0.20568,-0.027767,0,0.00099865,0,1,0,1
2378,1.6425e+09,-0.20484,-0.0010896,-0.20375,-0.027507,0,0.00077782,0,1,0,1
2421,1.6425e+09,-0.20358,-0.00021893,-0.20336,-0.027454,0,0.00026497,0,1,0,1
2467,1.6425e+09,-0.2023,-0.0014557,-0.20085,-0.027115,0,0.00066839,0,1,0,1
2511,1.6425e+09,-0.20106,0.0008921,-0.20195,-0.027263,0,5.9524e-05,0,1,0,1
2553,1.6425e+09,-0.19984,0.00074157,-0.20058,-0.027078,0,0.00047159,0,1,0,1
2596,1.6425e+09,-0.19857,-0.0017906,-0.19678,-0.026565,0,0.00095934,0,1,0,1
2641,1.6425e+09,-0.19727,0.00045186,-0.19772,-0.026692,0,-9.8819e-05,0,1,0,1
2687,1.6426e+09,-0.19551,-0.0010377,-0.19447,-0.026254,0,0.00069765,0,1,0,1
2732,1.6426e+09,-0.19452,0.0026659,-0.19718,-0.02662,0,-0.00039521,0,1,0,1
2777,1.6426e+09,-0.19348,0.00073958,-0.19422,-0.026219,0,0.00083441,0,1,0,1
2822,1.6426e+09,-0.19238,9.3665e-05,-0.19247,-0.025983,0,0.00067737,0,1,0,1
2871,1.6426e+09,-0.19123,0.00093188,-0.19216,-0.025942,0,0.00018195,0,1,0,1
2915,1.6426e+09,-0.19003,-0.0021631,-0.18787,-0.025362,0,0.0009309,0,1,0,1
2962,1.6426e+09,-0.1888,-0.00056822,-0.18823,-0.025411,0,0.00028633,0,1,0,1
3006,1.6426e+09,-0.18757,-0.00034685,-0.18723,-0.025275,0,0.00029673,0,1,0,1
3051,1.6426e+09,-0.18632,-0.00061614,-0.1857,-0.02507,0,0.00039652,0,1,0,1
3095,1.6427e+09,-0.18509,0.00067141,-0.18576,-0.025078,0,0.00023115,0,1,0,1
3140,1.6427e+09,-0.18388,0.00036233,-0.18424,-0.024872,0,0.00045334,0,1,0,1
3185,1.6427e+09,-0.18265,-0.00047426,-0.18217,-0.024594,0,0.00075954,0,1,0,1
3229,1.6427e+09,-0.18141,0.00022534,-0.18164,-0.024521,0,0.00029168,0,1,0,1
3276,1.6427e+09,-0.18022,0.0011975,-0.18142,-0.024491,0,0.00027238,0,1,0,1
3326,1.6427e+09,-0.17903,-0.0010283,-0.178,-0.02403,0,0.0010186,0,1,0,1
3372,1.6427e+09,-0.17783,0.00019621,-0.17803,-0.024034,0,0.00038288,0,1,0,1
3416,1.6427e+09,-0.17664,-0.00099754,-0.17564,-0.023711,0,0.000762,0,1,0,1
3461,1.6427e+09,-0.17542,-0.0012789,-0.17414,-0.023509,0,0.00057729,0,1,0,1
3506,1.6427e+09,-0.17417,-0.0014778,-0.17269,-0.023313,0,0.00040061,0,1,0,1
3553,1.6428e+09,-0.17267,-0.00068206,-0.17199,-0.023218,0,2.6269e-05,0,1,0,1
3595,1.6428e+09,-0.17162,-0.00096167,-0.17066,-0.023039,0,0.00057619,0,1,0,1
3639,1.6428e+09,-0.17043,-0.00016445,-0.17027,-0.022986,0,3.5492e-05,0,1,0,1
3683,1.6428e+09,-0.16927,0.0017381,-0.17101,-0.023086,0,-0.00019196,0,1,0,1
3730,1.6428e+09,-0.16812,0.00048534,-0.16861,-0.022762,0,0.00049999,0,1,0,1
3778,1.6428e+09,-0.167,0.0024423,-0.16944,-0.022875,0,-1.5469e-05,0,1,0,1
3823,1.6428e+09,-0.16587,0.0006469,-0.16652,-0.02248,0,0.0006031,0,1,0,1
3867,1.6428e+09,-0.16474,0.0016983,-0.16644,-0.022469,0,0.00026573,0,1,0,1
3912,1.6428e+09,-0.16359,0.0001851,-0.16377,-0.022109,0,0.00073497,0,1,0,1
3957,1.6429e+09,-0.16233,-0.0015171,-0.16082,-0.02171,0,0.00061739,0,1,0,1
4001,1.6429e+09,-0.16106,-0.0024864,-0.15858,-0.021408,0,0.00081355,0,1,0,1
4046,1.6429e+09,-0.15975,-0.003222,-0.15653,-0.021132,0,0.00081937,0,1,0,1
4090,1.6429e+09,-0.15848,-0.00037351,-0.1581,-0.021344,0,-2.4536e-05,0,1,0,1
4135,1.6429e+09,-0.15725,0.0013618,-0.15862,-0.021413,0,-0.00031337,0,1,0,1
4180,1.6429e+09,-0.15603,-0.001757,-0.15427,-0.020827,0,0.00090742,0,1,0,1
4229,1.6429e+09,-0.15479,0.00075184,-0.15554,-0.020998,0,-0.00017027,0,1,0,1
4274,1.6429e+09,-0.15361,0.0021006,-0.15571,-0.021021,0,-0.00018579,0,1,0,1
4318,1.6429e+09,-0.15246,0.00085581,-0.15332,-0.020698,0,0.00053247,0,1,0,1
4363,1.6429e+09,-0.15119,0.00050519,-0.15169,-0.020479,0,0.00029499,0,1,0,1
4405,1.643e+09,-0.15027,-0.00072758,-0.14954,-0.020188,0,0.00066287,0,1,0,1
4448,1.643e+09,-0.14907,-0.0041041,-0.14497,-0.01957,0,0.0013987,0,1,0,1
4492,1.643e+09,-0.14775,-0.0023304,-0.14542,-0.019631,0,0.00022179,0,1,0,1
4534,1.643e+09,-0.14648,0.00025627,-0.14674,-0.01981,0,-0.00017683,0,1,0,1
4577,1.643e+09,-0.1452,-0.0025028,-0.14269,-0.019264,0,0.00078688,0,1,0,1
4619,1.643e+09,-0.14394,-3.2614e-05,-0.14391,-0.019428,0,5.1391e-05,0,1,0,1
4668,1.643e+09,-0.14271,0.0016603,-0.14437,-0.01949,0,-0.00038456,0,1,0,1
4711,1.643e+09,-0.1415,-0.0003154,-0.14118,-0.01906,0,0.00049198,0,1,0,1
4754,1.643e+09,-0.14032,0.0012676,-0.14159,-0.019115,0,0.00022266,0,1,0,1
4797,1.6431e+09,-0.13916,0.001677,-0.14084,-0.019013,0,0.00010871,0,1,0,1
4839,1.6431e+09,-0.13855,-0.00076652,-0.13778,-0.0186,0,0.00095398,0,1,0,1
4882,1.6431e+09,-0.13838,0.00015087,-0.13853,-0.018701,0,0.00020199,0,1,0,1
4925,1.6431e+09,-0.13834,-0.00035102,-0.13799,-0.018629,0,0.00032896,0,1,0,1
4968,1.6431e+09,-0.13831,-0.00039335,-0.13791,-0.018618,0,-5.5974e-05,0,1,0,1
5011,1.6431e+09,-0.13828,-0.0020386,-0.13624,-0.018393,0,0.00055178,0,1,0,1
5054,1.6431e+09,-0.13824,-6.1437e-05,-0.13818,-0.018654,0,-0.00038717,0,1,0,1
5101,1.6431e+09,-0.13823,-0.00064318,-0.13759,-0.018574,0,7.3125e-05,0,1,0,1
5144,1.6431e+09,-0.13819,-0.0010025,-0.13719,-0.018521,0,7.6823e-05,0,1,0,1
5187,1.6431e+09,-0.13814,-0.0016644,-0.13648,-0.018425,0,0.0002159,0,1,0,1
5225,1.6432e+09,-0.13809,-0.0011662,-0.13692,-0.018485,0,-0.00017953,0,1,0,1
5269,1.6432e+09,-0.13805,-0.00041539,-0.13764,-0.018581,0,-0.00010819,0,1,0,1
5314,1.6432e+09,-0.13806,0.00063602,-0.13869,-0.018724,0,-0.00030447,0,1,0,1
5358,1.6432e+09,-0.1381,0.0012291,-0.13933,-0.01881,0,-0.00027593,0,1,0,1
5403,1.6432e+09,-0.13816,0.0004839,-0.13865,-0.018717,0,0.00016199,0,1,0,1
5447,1.6432e+09,-0.13822,-0.00035409,-0.13787,-0.018612,0,0.00042377,0,1,0,1
5492,1.6432e+09,-0.13825,0.00054605,-0.13879,-0.018737,0,-0.00013942,0,1,0,1
5541,1.6432e+09,-0.13824,-0.0014079,-0.13683,-0.018473,0,0.00030206,0,1,0,1
5586,1.6432e+09,-0.13825,0.00050106,-0.13875,-0.018731,0,-0.00033624,0,1,0,1
5630,1.6432e+09,-0.13826,-0.0005454,-0.13771,-0.018591,0,0.00015706,0,1,0,1
5675,1.6433e+09,-0.13822,-0.0010311,-0.13719,-0.01852,0,-9.6239e-05,0,1,0,1
5720,1.6433e+09,-0.13824,-0.0012644,-0.13697,-0.018491,0,0.00054737,0,1,0,1
5764,1.6433e+09,-0.1382,0.00064133,-0.13885,-0.018744,0,-0.00063382,0,1,0,1
5810,1.6433e+09,-0.13826,0.0025312,-0.1408,-0.019007,0,-0.00058369,0,1,0,1
5857,1.6433e+09,-0.13836,0.0019215,-0.14028,-0.018938,0,-2.2641e-06,0,1,0,1
5902,1.6433e+09,-0.13842,-0.0002325,-0.13819,-0.018655,0,0.0003888,0,1,0,1
5946,1.6433e+09,-0.13846,0.00077791,-0.13924,-0.018797,0,-0.00012209,0,1,0,1
5996,1.6433e+09,-0.13856,-0.00070676,-0.13785,-0.01861,0,0.00084278,0,1,0,1
6040,1.6433e+09,-0.13862,-0.00095783,-0.13766,-0.018584,0,0.00056897,0,1,0,1
6083,1.6434e+09,-0.13864,-0.0095095,-0.12914,-0.017433,0,0.0040408,0,1,0,1
6127,1.6434e+09,-0.1388,-0.0064901,-0.13231,-0.017862,0,0.0034816,0,1,0,1
6172,1.6434e+09,-0.13888,-0.0027523,-0.13613,-0.018378,0,0.0019292,0,1,0,1
6219,1.6434e+09,-0.13896,-0.0075154,-0.13144,-0.017745,0,0.0039868,0,1,0,1
6264,1.6434e+09,-0.13922,-0.0035651,-0.13565,-0.018313,0,0.003813,0,1,0,1
6308,1.6434e+09,-0.13921,-0.0029374,-0.13627,-0.018397,0,0.0012995,0,1,0,1
6353,1.6434e+09,-0.13919,-0.017809,-0.12138,-0.016386,0,0.0071193,0,1,0,1
6400,1.6434e+09,-0.13912,-0.0062247,-0.1329,-0.017941,0,0.0027552,0,1,0,1
6447,1.6434e+09,-0.13871,-0.0076066,-0.1311,-0.017699,0,-8.7159e-05,0,1,0,1
6491,1.6434e+09,-0.13859,0.0037427,-0.14234,-0.019215,0,-0.0023936,0,1,0,1
6535,1.6435e+09,-0.13847,0.013613,-0.15208,-0.020531,0,-0.0068502,0,1,0,1
6583,1.6435e+09,-0.13862,0.012166,-0.15078,-0.020356,0,-0.0054685,0,1,0,1
6627,1.6435e+09,-0.13871,-0.0053684,-0.13334,-0.018,0,0.0020501,0,1,0,1
6672,1.6435e+09,-0.13902,-0.022795,-0.11622,-0.01569,0,0.011344,0,1,0,1
6717,1.6435e+09,-0.13918,-0.00011578,-0.13906,-0.018774,0,0.0017708,0,1,0,1
6762,1.6435e+09,-0.13926,0.0041839,-0.14344,-0.019365,0,-0.0004961,0,1,0,1
6807,1.6435e+09,-0.13933,0.010997,-0.15033,-0.020294,0,-0.0038728,0,1,0,1
6855,1.6435e+09,-0.13937,-0.0039728,-0.13539,-0.018278,0,0.0015212,0,1,0,1
6902,1.6435e+09,-0.13934,-0.018771,-0.12057,-0.016277,0,0.0070393,0,1,0,1
6947,1.6436e+09,-0.13909,-0.0073972,-0.1317,-0.017779,0,0.00041601,0,1,0,1
6989,1.6436e+09,-0.13898,0.00051224,-0.13949,-0.018831,0,0.00063971,0,1,0,1
7037,1.6436e+09,-0.13897,-0.0020874,-0.13688,-0.018479,0,0.00057894,0,1,0,1
7080,1.6436e+09,-0.13911,0.009799,-0.14891,-0.020103,0,-0.0031545,0,1,0,1
7122,1.6436e+09,-0.1391,9.2642e-05,-0.13919,-0.018791,0,-0.00042618,0,1,0,1
7166,1.6436e+09,-0.13893,-0.0092375,-0.12969,-0.017509,0,0.0019477,0,1,0,1
7209,1.6436e+09,-0.1394,0.026771,-0.16617,-0.022433,0,-0.0067184,0,1,0,1
7255,1.6436e+09,-0.1395,-0.0046302,-0.13487,-0.018207,0,0.0025295,0,1,0,1
7298,1.6436e+09,-0.13953,-0.011045,-0.12849,-0.017346,0,0.0039856,0,1,0,1
7341,1.6437e+09,-0.1398,-0.007248,-0.13255,-0.017894,0,0.0047415,0,1,0,1
7386,1.6437e+09,-0.13964,-0.025324,-0.11432,-0.015433,0,0.0086383,0,1,0,1
7428,1.6437e+09,-0.13958,0.028326,-0.16791,-0.022667,0,-0.011581,0,1,0,1
7468,1.6437e+09,-0.13955,-0.00099949,-0.13856,-0.018705,0,0.00051883,0,1,0,1
7510,1.6437e+09,-0.1394,0.022936,-0.16234,-0.021916,0,-0.011058,0,1,0,1
7554,1.6437e+09,-0.13942,-0.0098301,-0.12959,-0.017494,0,0.0033899,0,1,0,1
7597,1.6437e+09,-0.13896,0.022004,-0.16096,-0.02173,0,-0.013529,0,1,0,1
7640,1.6437e+09,-0.13952,0.020507,-0.16002,-0.021603,0,-0.004233,0,1,0,1
7692,1.6437e+09,-0.13929,0.026822,-0.16611,-0.022425,0,-0.013206,0,1,0,1
7736,1.6438e+09,-0.13961,-0.043908,-0.095698,-0.012919,0,0.01652,0,1,0,1
7778,1.6438e+09,-0.13933,0.036186,-0.17552,-0.023695,0,-0.010764,0,1,0,1
7824,1.6438e+09,-0.13979,-0.044287,-0.095501,-0.012893,0,0.021314,0,1,0,1
7869,1.6438e+09,-0.14007,0.019898,-0.15997,-0.021595,0,-0.0050181,0,1,0,1
7916,1.6438e+09,-0.13933,-0.062597,-0.076735,-0.010359,0,0.019139,0,1,0,1
7960,1.6438e+09,-0.13961,0.046358,-0.18596,-0.025105,0,-0.015733,0,1,0,1
8005,1.6438e+09,-0.13998,-0.054866,-0.085116,-0.011491,0,0.02749,0,1,0,1
8049,1.6438e+09,-0.14011,0.030133,-0.17024,-0.022983,0,-0.009457,0,1,0,1
8094,1.6438e+09,-0.13964,-0.10031,-0.039331,-0.0053097,0,0.035289,0,1,0,1
8144,1.6438e+09,-0.14011,0.084488,-0.2246,-0.030321,0,-0.029459,0,1,0,1
8188,1.6439e+09,-0.13971,-0.077017,-0.062696,-0.0084639,0,0.025563,0,1,0,1
8234,1.6439e+09,-0.14075,0.040372,-0.18112,-0.024451,0,-0.0079061,0,1,0,1
8278,1.6439e+09,-0.13888,-0.055609,-0.083269,-0.011241,0,0.0054102,0,1,0,1
8324,1.6439e+09,-0.14062,0.048028,-0.18865,-0.025467,0,-0.0028942,0,1,0,1
8368,1.6439e+09,-0.13952,-0.018873,-0.12065,-0.016287,0,0.00020953,0,1,0,1
8413,1.6439e+09,-0.14064,-0.0059577,-0.13468,-0.018182,0,0.012603,0,1,0,1
8458,1.6439e+09,-0.13878,0.014396,-0.15317,-0.020678,0,-0.020437,0,1,0,1
8503,1.6439e+09,-0.14017,-0.028896,-0.11127,-0.015022,0,0.023836,0,1,0,1
8548,1.6439e+09,-0.13938,0.033888,-0.17326,-0.023391,0,-0.019511,0,1,0,1
8596,1.6439e+09,-0.13993,-0.074172,-0.065757,-0.0088772,0,0.03431,0,1,0,1
8640,1.644e+09,-0.13889,0.080025,-0.21891,-0.029553,0,-0.036702,0,1,0,1
8681,1.644e+09,-0.13953,-0.070388,-0.069138,-0.0093336,0,0.031167,0,1,0,1
8726,1.644e+09,-0.13962,0.059579,-0.1992,-0.026892,0,-0.023829,0,1,0,1
8772,1.644e+09,-0.13887,-0.093952,-0.044914,-0.0060635,0,0.029867,0,1,0,1
8813,1.644e+09,-0.13962,0.075356,-0.21498,-0.029022,0,-0.023468,0,1,0,1
8859,1.644e+09,-0.1388,-0.022362,-0.11644,-0.015719,0,0.00071611,0,1,0,1
8903,1.644e+09,-0.13959,0.013642,-0.15323,-0.020686,0,8.8986e-05,0,1,0,1
8947,1.644e+09,-0.13837,0.019002,-0.15738,-0.021246,0,-0.018103,0,1,0,1
8993,1.644e+09,-0.13937,-0.021714,-0.11766,-0.015884,0,0.017187,0,1,0,1
9041,1.644e+09,-0.13912,0.054614,-0.19373,-0.026153,0,-0.022868,0,1,0,1
9087,1.6441e+09,-0.13884,-0.074497,-0.064342,-0.0086862,0,0.026994,0,1,0,1
9131,1.6441e+09,-0.13907,0.034701,-0.17378,-0.02346,0,-0.010693,0,1,0,1
9176,1.6441e+09,-0.13878,-0.019626,-0.11916,-0.016086,0,0.0054127,0,1,0,1
9220,1.6441e+09,-0.13953,-0.0057071,-0.13383,-0.018067,0,0.006702,0,1,0,1
9265,1.6441e+09,-0.13852,0.0065008,-0.14502,-0.019577,0,-0.013128,0,1,0,1
9310,1.6441e+09,-0.13911,0.0063474,-0.14546,-0.019637,0,-0.0011518,0,1,0,1
9354,1.6441e+09,-0.13911,0.040227,-0.17934,-0.024211,0,-0.016874,0,1,0,1
9399,1.6441e+09,-0.1391,-0.023761,-0.11533,-0.01557,0,0.0094971,0,1,0,1
9444,1.6441e+09,-0.13875,0.0033847,-0.14214,-0.019189,0,-0.0029786,0,1,0,1
9493,1.6441e+09,-0.13908,-0.031048,-0.10803,-0.014584,0,0.017265,0,1,0,1
9539,1.6442e+09,-0.13888,-0.0027762,-0.1361,-0.018374,0,0.0049941,0,1,0,1
9582,1.6442e+09,-0.13816,-0.002682,-0.13547,-0.018289,0,-0.0070448,0,1,0,1
9625,1.6442e+09,-0.13918,-0.041282,-0.097903,-0.013217,0,0.026542,0,1,0,1
9667,1.6442e+09,-0.13883,0.027303,-0.16613,-0.022427,0,-0.010143,0,1,0,1
9712,1.6442e+09,-0.13849,-0.083888,-0.0546,-0.007371,0,0.030019,0,1,0,1
9754,1.6442e+09,-0.13839,0.068657,-0.20705,-0.027951,0,-0.029203,0,1,0,1
9797,1.6442e+09,-0.1385,-0.068012,-0.070484,-0.0095153,0,0.026998,0,1,0,1
9840,1.6442e+09,-0.13883,0.0634,-0.20223,-0.027301,0,-0.023117,0,1,0,1
9885,1.6442e+09,-0.13768,-0.06147,-0.076211,-0.010288,0,0.012877,0,1,0,1
9929,1.6443e+09,-0.13878,0.076356,-0.21514,-0.029044,0,-0.02014,0,1,0,1
9972,1.6443e+09,-0.13786,0.0020005,-0.13986,-0.018882,0,-0.0086248,0,1,0,1
10015,1.6443e+09,-0.13902,-0.034812,-0.10421,-0.014069,0,0.024234,0,1,0,1
10059,1.6443e+09,-0.13756,0.0209,-0.15846,-0.021393,0,-0.020026,0,1,0,1
10102,1.6443e+09,-0.13871,-0.080395,-0.058315,-0.0078725,0,0.042508,0,1,0,1
10145,1.6443e+09,-0.13828,0.055185,-0.19347,-0.026118,0,-0.024708,0,1,0,1
10189,1.6443e+09,-0.13829,-0.10892,-0.029364,-0.0039642,0,0.04131,0,1,0,1
10232,1.6443e+09,-0.13855,0.11039,-0.24894,-0.033607,0,-0.04257,0,1,0,1
10276,1.6443e+09,-0.13823,-0.056233,-0.081996,-0.011069,0,0.016937,0,1,0,1
10320,1.6444e+09,-0.13973,-0.093915,-0.045811,-0.0061845,0,0.045313,0,1,0,1
10364,1.6444e+09,-0.13823,0.062677,-0.20091,-0.027123,0,-0.029696,0,1,0,1
10409,1.6444e+09,-0.13848,-0.095372,-0.043107,-0.0058194,0,0.043721,0,1,0,1
10455,1.6444e+09,-0.1387,0.065237,-0.20393,-0.027531,0,-0.022405,0,1,0,1
10499,1.6444e+09,-0.13799,-0.056139,-0.081847,-0.011049,0,0.015354,0,1,0,1
10544,1.6444e+09,-0.13884,0.087712,-0.22656,-0.030585,0,-0.028308,0,1,0,1
10588,1.6444e+09,-0.13843,-0.007574,-0.13086,-0.017665,0,-0.0024317,0,1,0,1
10633,1.6444e+09,-0.13946,0.02307,-0.16253,-0.021942,0,-0.00097717,0,1,0,1
10678,1.6444e+09,-0.13834,-0.016987,-0.12135,-0.016383,0,-0.0017879,0,1,0,1
10723,1.6444e+09,-0.13949,-0.022713,-0.11678,-0.015765,0,0.021498,0,1,0,1
10772,1.6445e+09,-0.13845,-0.009238,-0.12921,-0.017443,0,-0.0018354,0,1,0,1
10817,1.6445e+09,-0.13841,-0.079423,-0.058985,-0.007963,0,0.032866,0,1,0,1
10862,1.6445e+09,-0.13732,0.039917,-0.17723,-0.023926,0,-0.025378,0,1,0,1
10906,1.6445e+09,-0.1376,-0.081848,-0.055753,-0.0075267,0,0.033837,0,1,0,1
10951,1.6445e+09,-0.1372,0.056097,-0.19329,-0.026095,0,-0.027053,0,1,0,1
10996,1.6445e+09,-0.1365,-0.076213,-0.060285,-0.0081385,0,0.022525,0,1,0,1
11040,1.6445e+09,-0.13703,0.1185,-0.25553,-0.034496,0,-0.043945,0,1,0,1
11086,1.6445e+09,-0.13685,-0.044835,-0.092014,-0.012422,0,0.015288,0,1,0,1
11131,1.6445e+09,-0.13833,0.05829,-0.19662,-0.026544,0,-0.011704,0,1,0,1
11178,1.6446e+09,-0.13715,0.095701,-0.23285,-0.031434,0,-0.042044,0,1,0,1
11223,1.6446e+09,-0.13842,-0.11585,-0.022572,-0.0030473,0,0.051182,0,1,0,1
11268,1.6446e+09,-0.13897,0.082912,-0.22189,-0.029954,0,-0.030064,0,1,0,1
11314,1.6446e+09,-0.13777,-0.098361,-0.039406,-0.0053198,0,0.025578,0,1,0,1
11358,1.6446e+09,-0.13889,0.11662,-0.25551,-0.034494,0,-0.037491,0,1,0,1
11406,1.6446e+09,-0.13703,0.059945,-0.19697,-0.026591,0,-0.039383,0,1,0,1
11452,1.6446e+09,-0.13694,-0.12599,-0.010941,-0.0014771,0,0.049176,0,1,0,1
11497,1.6446e+09,-0.13604,0.11276,-0.2488,-0.033589,0,-0.05232,0,1,0,1
11542,1.6446e+09,-0.13606,-0.10541,-0.030653,-0.0041382,0,0.038057,0,1,0,1
11587,1.6447e+09,-0.13718,0.099693,-0.23688,-0.031978,0,-0.032242,0,1,0,1
11632,1.6447e+09,-0.13629,-0.074229,-0.06206,-0.0083781,0,0.021021,0,1,0,1
11681,1.6447e+09,-0.1385,0.11123,-0.24973,-0.033713,0,-0.026039,0,1,0,1
11726,1.6447e+09,-0.13701,-0.013142,-0.12387,-0.016722,0,-0.0096747,0,1,0,1
11771,1.6447e+09,-0.13959,0.0037912,-0.14338,-0.019356,0,0.016668,0,1,0,1
11815,1.6447e+09,-0.13738,0.034636,-0.17201,-0.023222,0,-0.032139,0,1,0,1
11857,1.6447e+09,-0.1395,-0.078898,-0.060601,-0.0081812,0,0.049286,0,1,0,1
11902,1.6447e+09,-0.13761,0.10044,-0.23805,-0.032136,0,-0.055345,0,1,0,1
11948,1.6447e+09,-0.13787,-0.14776,0.0098872,0.0013348,0,0.05948,0,1,0,1
11992,1.6447e+09,-0.13676,0.16674,-0.3035,-0.040973,0,-0.076094,0,1,0,1
12038,1.6448e+09,-0.13709,-0.1907,0.053606,0.0072368,0,0.079025,0,1,0,1
12081,1.6448e+09,-0.13791,0.12451,-0.26242,-0.035427,0,-0.033196,0,1,0,1
12126,1.6448e+09,-0.13646,-0.10125,-0.035206,-0.0047528,0,0.022354,0,1,0,1
12170,1.6448e+09,-0.13941,0.048392,-0.1878,-0.025353,0,0.011445,0,1,0,1
12214,1.6448e+09,-0.13726,0.062928,-0.20018,-0.027025,0,-0.041883,0,1,0,1
12257,1.6448e+09,-0.13988,-0.076423,-0.063457,-0.0085667,0,0.05245,0,1,0,1
12299,1.6448e+09,-0.1385,0.1716,-0.3101,-0.041863,0,-0.077704,0,1,0,1
12342,1.6448e+09,-0.13959,-0.18687,0.047277,0.0063824,0,0.083212,0,1,0,1
12388,1.6448e+09,-0.14027,0.073425,-0.21369,-0.028848,0,-0.014731,0,1,0,1
12430,1.6448e+09,-0.13747,-0.085049,-0.052425,-0.0070774,0,0.0072049,0,1,0,1
12475,1.6449e+09,-0.13987,0.079628,-0.2195,-0.029632,0,-0.013628,0,1,0,1
12517,1.6449e+09,-0.13728,0.023682,-0.16096,-0.021729,0,-0.033234,0,1,0,1
12564,1.6449e+09,-0.13924,-0.091729,-0.047513,-0.0064143,0,0.048873,0,1,0,1
12606,1.6449e+09,-0.13756,0.15256,-0.29012,-0.039166,0,-0.071893,0,1,0,1
12648,1.6449e+09,-0.13858,-0.11733,-0.021242,-0.0028677,0,0.058324,0,1,0,1
12692,1.6449e+09,-0.13857,0.11919,-0.25777,-0.034798,0,-0.044357,0,1,0,1
12737,1.6449e+09,-0.13675,-0.097534,-0.039212,-0.0052937,0,0.020829,0,1,0,1
12780,1.6449e+09,-0.13932,0.052811,-0.19213,-0.025938,0,-0.0014822,0,1,0,1
12828,1.6449e+09,-0.13839,0.15848,-0.29687,-0.040077,0,-0.07214,0,1,0,1
12868,1.645e+09,-0.13749,-0.077271,-0.060222,-0.00813,0,0.010137,0,1,0,1
12912,1.645e+09,-0.13891,0.031941,-0.17085,-0.023065,0,0.0035378,0,1,0,1
12961,1.645e+09,-0.13661,0.010607,-0.14721,-0.019874,0,-0.024527,0,1,0,1
13006,1.645e+09,-0.13796,-0.061654,-0.076311,-0.010302,0,0.031226,0,1,0,1
13051,1.645e+09,-0.136,0.11593,-0.25193,-0.03401,0,-0.06466,0,1,0,1
13096,1.645e+09,-0.13728,-0.088617,-0.048661,-0.0065692,0,0.047094,0,1,0,1
13140,1.645e+09,-0.13713,0.11732,-0.25445,-0.034351,0,-0.04356,0,1,0,1
13184,1.645e+09,-0.13685,-0.16443,0.02758,0.0037233,0,0.067627,0,1,0,1
13228,1.645e+09,-0.1368,0.11857,-0.25537,-0.034475,0,-0.048168,0,1,0,1
13273,1.6451e+09,-0.13696,-0.13753,0.00057657,7.7837e-05,0,0.056441,0,1,0,1
13318,1.6451e+09,-0.13845,0.087924,-0.22638,-0.030561,0,-0.022314,0,1,0,1
13362,1.6451e+09,-0.13711,-0.10149,-0.035614,-0.0048079,0,0.028959,0,1,0,1
13411,1.6451e+09,-0.13859,0.093938,-0.23253,-0.031391,0,-0.026986,0,1,0,1
13455,1.6451e+09,-0.1376,-0.035716,-0.10189,-0.013754,0,0.0026652,0,1,0,1
13500,1.6451e+09,-0.13957,0.023483,-0.16305,-0.022012,0,0.0049624,0,1,0,1
13557,1.6452e+09,-0.13709,0.12654,-0.26363,-0.03559,0,-0.052358,0,1,0,1
13602,1.6452e+09,-0.13716,-0.15596,0.018804,0.0025385,0,0.067515,0,1,0,1
13650,1.6452e+09,-0.13675,0.13482,-0.27156,-0.036661,0,-0.052187,0,1,0,1
13698,1.6452e+09,-0.13581,-0.056602,-0.079212,-0.010694,0,0.0079952,0,1,0,1
13743,1.6452e+09,-0.13827,0.031034,-0.16931,-0.022857,0,0.0074783,0,1,0,1
13790,1.6452e+09,-0.13636,0.096212,-0.23257,-0.031397,0,-0.048265,0,1,0,1
13835,1.6452e+09,-0.13673,-0.13398,-0.0027423,-0.00037022,0,0.057633,0,1,0,1
13881,1.6452e+09,-0.13726,0.13315,-0.27041,-0.036506,0,-0.046941,0,1,0,1
13926,1.6453e+09,-0.13608,-0.15508,0.019003,0.0025655,0,0.053001,0,1,0,1
13971,1.6453e+09,-0.13718,0.10439,-0.24157,-0.032612,0,-0.030751,0,1,0,1
14017,1.6453e+09,-0.13568,-0.022752,-0.11292,-0.015245,0,-0.004348,0,1,0,1
14066,1.6453e+09,-0.1384,0.035026,-0.17343,-0.023412,0,0.0085104,0,1,0,1
14111,1.6453e+09,-0.13621,0.080007,-0.21622,-0.02919,0,-0.05063,0,1,0,1
14156,1.6453e+09,-0.13848,-0.057896,-0.080585,-0.010879,0,0.042863,0,1,0,1
14201,1.6453e+09,-0.13735,0.12511,-0.26246,-0.035433,0,-0.058228,0,1,0,1
14245,1.6453e+09,-0.13871,-0.14627,0.007554,0.0010198,0,0.067105,0,1,0,1
14290,1.6453e+09,-0.1384,0.13967,-0.27807,-0.03754,0,-0.056279,0,1,0,1
14334,1.6453e+09,-0.13835,-0.13066,-0.0076914,-0.0010383,0,0.05272,0,1,0,1
14383,1.6454e+09,-0.13998,0.026832,-0.16681,-0.02252,0,0.0086018,0,1,0,1
14423,1.6454e+09,-0.13751,-0.0063759,-0.13113,-0.017703,0,-0.020322,0,1,0,1
14465,1.6454e+09,-0.13926,-0.027594,-0.11167,-0.015075,0,0.028402,0,1,0,1
14514,1.6454e+09,-0.13738,0.054261,-0.19164,-0.025872,0,-0.036208,0,1,0,1
14556,1.6454e+09,-0.13896,-0.14542,0.0064665,0.00087298,0,0.069974,0,1,0,1
14601,1.6454e+09,-0.13772,0.12499,-0.26271,-0.035466,0,-0.057818,0,1,0,1
14643,1.6454e+09,-0.1384,-0.10258,-0.03582,-0.0048357,0,0.047625,0,1,0,1
14684,1.6454e+09,-0.1383,0.13409,-0.2724,-0.036774,0,-0.05395,0,1,0,1
14726,1.6454e+09,-0.13756,-0.15921,0.02165,0.0029228,0,0.054204,0,1,0,1
14768,1.6455e+09,-0.13778,0.12103,-0.2588,-0.034938,0,-0.049559,0,1,0,1
14811,1.6455e+09,-0.13731,-0.089385,-0.047921,-0.0064693,0,0.030922,0,1,0,1
14853,1.6455e+09,-0.13858,0.086411,-0.22499,-0.030374,0,-0.023637,0,1,0,1
14896,1.6455e+09,-0.1363,-0.050324,-0.085972,-0.011606,0,-0.00025749,0,1,0,1
14944,1.6455e+09,-0.13758,0.037696,-0.17528,-0.023662,0,-0.0048455,0,1,0,1
14987,1.6455e+09,-0.13643,0.020114,-0.15654,-0.021133,0,-0.016771,0,1,0,1
15030,1.6455e+09,-0.13794,-0.081458,-0.056478,-0.0076245,0,0.046818,0,1,0,1
15072,1.6455e+09,-0.13601,0.069937,-0.20595,-0.027803,0,-0.0418,0,1,0,1
15115,1.6455e+09,-0.13696,-0.059138,-0.077819,-0.010506,0,0.030106,0,1,0,1
15157,1.6455e+09,-0.13712,0.097556,-0.23467,-0.031681,0,-0.03781,0,1,0,1
15200,1.6456e+09,-0.1373,-0.11366,-0.023646,-0.0031922,0,0.045536,0,1,0,1
15242,1.6456e+09,-0.13714,0.028774,-0.16591,-0.022398,0,0.00028462,0,1,0,1
15287,1.6456e+09,-0.13717,0.001765,-0.13893,-0.018756,0,-0.0075199,0,1,0,1
15332,1.6456e+09,-0.13929,-0.013827,-0.12546,-0.016937,0,0.020797,0,1,0,1
15380,1.6456e+09,-0.13801,0.015532,-0.15354,-0.020728,0,-0.016305,0,1,0,1
15426,1.6456e+09,-0.13885,-0.042696,-0.096159,-0.012981,0,0.025966,0,1,0,1
15470,1.6456e+09,-0.1382,0.020101,-0.15831,-0.021371,0,-0.01223,0,1,0,1
15516,1.6456e+09,-0.13856,-0.12156,-0.017,-0.002295,0,0.050891,0,1,0,1
15563,1.6456e+09,-0.1382,0.093451,-0.23165,-0.031273,0,-0.035167,0,1,0,1
15608,1.6457e+09,-0.13793,-0.0067558,-0.13117,-0.017708,0,-0.0016274,0,1,0,1
15653,1.6457e+09,-0.13927,0.027995,-0.16727,-0.022581,0,-0.00058564,0,1,0,1
15697,1.6457e+09,-0.13812,-0.0041421,-0.13398,-0.018087,0,-0.0051379,0,1,0,1
15742,1.6457e+09,-0.13937,0.012096,-0.15147,-0.020448,0,0.0064573,0,1,0,1
15792,1.6457e+09,-0.13911,0.006043,-0.14516,-0.019596,0,-0.0023432,0,1,0,1
15836,1.6457e+09,-0.13973,-0.084486,-0.055247,-0.0074584,0,0.037712,0,1,0,1
15881,1.6457e+09,-0.13889,0.074203,-0.21309,-0.028768,0,-0.036813,0,1,0,1
15926,1.6457e+09,-0.13912,-0.047567,-0.091558,-0.01236,0,0.017971,0,1,0,1
15972,1.6457e+09,-0.13926,0.087127,-0.22638,-0.030562,0,-0.034514,0,1,0,1
16018,1.6457e+09,-0.1379,-0.073857,-0.064038,-0.0086452,0,0.016906,0,1,0,1
16057,1.6458e+09,-0.13687,0.02946,-0.16633,-0.022455,0,-0.0085334,0,1,0,1
16102,1.6458e+09,-0.13691,-0.024541,-0.11237,-0.01517,0,0.003611,0,1,0,1
16149,1.6458e+09,-0.13812,-0.085756,-0.052366,-0.0070694,0,0.041896,0,1,0,1
16194,1.6458e+09,-0.13717,0.043577,-0.18075,-0.024401,0,-0.023259,0,1,0,1
16244,1.6458e+09,-0.1376,-0.058705,-0.078893,-0.010651,0,0.027443,0,1,0,1
16289,1.6458e+09,-0.13848,0.063412,-0.20189,-0.027256,0,-0.016415,0,1,0,1
16333,1.6458e+09,-0.13725,-0.066253,-0.070997,-0.0095846,0,0.014265,0,1,0,1
16380,1.6458e+09,-0.13825,0.034748,-0.173,-0.023355,0,-0.0077903,0,1,0,1
16430,1.6458e+09,-0.13845,0.069313,-0.20776,-0.028048,0,-0.024425,0,1,0,1
16474,1.6459e+09,-0.13785,-0.10694,-0.03091,-0.0041729,0,0.036739,0,1,0,1
16519,1.6459e+09,-0.13796,0.066246,-0.20421,-0.027568,0,-0.025725,0,1,0,1
16564,1.6459e+09,-0.13763,-0.075566,-0.062063,-0.0083785,0,0.027841,0,1,0,1
16608,1.6459e+09,-0.13915,0.071185,-0.21033,-0.028395,0,-0.01372,0,1,0,1
16654,1.6459e+09,-0.13735,-0.040593,-0.096758,-0.013062,0,0.00040902,0,1,0,1
16702,1.6459e+09,-0.1388,0.0086628,-0.14746,-0.019907,0,0.0086175,0,1,0,1
16747,1.6459e+09,-0.13775,0.017042,-0.15479,-0.020896,0,-0.015506,0,1,0,1
16791,1.6459e+09,-0.13972,-0.054054,-0.085667,-0.011565,0,0.03669,0,1,0,1
16837,1.6459e+09,-0.1384,0.079696,-0.2181,-0.029443,0,-0.041118,0,1,0,1
16883,1.6459e+09,-0.139,-0.065114,-0.073891,-0.0099753,0,0.031839,0,1,0,1
16926,1.646e+09,-0.13869,0.079382,-0.21807,-0.029439,0,-0.027939,0,1,0,1
16968,1.646e+09,-0.13827,-0.091719,-0.046552,-0.0062845,0,0.02566,0,1,0,1
17011,1.646e+09,-0.13856,0.024195,-0.16275,-0.021972,0,-0.0019723,0,1,0,1
17054,1.646e+09,-0.13717,-0.024356,-0.11281,-0.015229,0,-0.00022696,0,1,0,1
17096,1.646e+09,-0.13863,-0.014714,-0.12391,-0.016728,0,0.018034,0,1,0,1
17143,1.646e+09,-0.13665,0.028388,-0.16504,-0.022281,0,-0.029065,0,1,0,1
17185,1.646e+09,-0.13746,-0.043888,-0.093576,-0.012633,0,0.022199,0,1,0,1
17227,1.646e+09,-0.13682,0.094985,-0.23181,-0.031294,0,-0.04492,0,1,0,1
17272,1.646e+09,-0.13742,-0.1119,-0.025513,-0.0034442,0,0.045303,0,1,0,1
17314,1.6461e+09,-0.13734,0.11441,-0.25175,-0.033987,0,-0.045286,0,1,0,1
17361,1.6461e+09,-0.13588,-0.018668,-0.11722,-0.015824,0,-0.0077314,0,1,0,1
17403,1.6461e+09,-0.13806,-0.060122,-0.077935,-0.010521,0,0.041298,0,1,0,1
17446,1.6461e+09,-0.13583,0.11491,-0.25074,-0.033849,0,-0.06508,0,1,0,1
17489,1.6461e+09,-0.13703,-0.090252,-0.04678,-0.0063153,0,0.041411,0,1,0,1
17531,1.6461e+09,-0.13697,0.17774,-0.31471,-0.042486,0,-0.073199,0,1,0,1
17579,1.6461e+09,-0.13701,-0.16007,0.023057,0.0031127,0,0.062921,0,1,0,1
17621,1.6461e+09,-0.13737,0.17492,-0.3123,-0.04216,0,-0.066147,0,1,0,1
17664,1.6461e+09,-0.13655,-0.10269,-0.033853,-0.0045702,0,0.035268,0,1,0,1
17706,1.6461e+09,-0.13809,-0.075282,-0.06281,-0.0084793,0,0.047443,0,1,0,1
17752,1.6462e+09,-0.13685,0.14557,-0.28242,-0.038127,0,-0.068037,0,1,0,1
17797,1.6462e+09,-0.13778,-0.074853,-0.062926,-0.008495,0,0.038231,0,1,0,1
17841,1.6462e+09,-0.13817,0.14458,-0.28274,-0.03817,0,-0.051272,0,1,0,1
17885,1.6462e+09,-0.13776,-0.14083,0.0030659,0.0004139,0,0.054159,0,1,0,1
17930,1.6462e+09,-0.13805,0.11289,-0.25094,-0.033877,0,-0.040824,0,1,0,1
17978,1.6462e+09,-0.13742,-0.090476,-0.046949,-0.0063381,0,0.033107,0,1,0,1
18027,1.6462e+09,-0.13882,-0.024473,-0.11434,-0.015437,0,0.026448,0,1,0,1
18072,1.6462e+09,-0.13667,0.015168,-0.15184,-0.020499,0,-0.025258,0,1,0,1
18119,1.6462e+09,-0.13781,-0.055918,-0.081895,-0.011056,0,0.023201,0,1,0,1
18167,1.6463e+09,-0.13925,0.027829,-0.16707,-0.022555,0,0.00693,0,1,0,1
18218,1.6463e+09,-0.13667,0.077798,-0.21447,-0.028953,0,-0.050917,0,1,0,1
18263,1.6463e+09,-0.13762,-0.043181,-0.094435,-0.012749,0,0.021571,0,1,0,1
18307,1.6463e+09,-0.13666,0.12214,-0.2588,-0.034939,0,-0.060505,0,1,0,1
18352,1.6463e+09,-0.13695,-0.092941,-0.044011,-0.0059415,0,0.03195,0,1,0,1
18401,1.6463e+09,-0.13665,0.127,-0.26365,-0.035593,0,-0.054523,0,1,0,1
18446,1.6463e+09,-0.13668,-0.082658,-0.054025,-0.0072933,0,0.034643,0,1,0,1
18494,1.6463e+09,-0.13709,0.020242,-0.15733,-0.021239,0,0.004534,0,1,0,1
18540,1.6463e+09,-0.13443,0.11187,-0.24631,-0.033251,0,-0.062317,0,1,0,1
18583,1.6464e+09,-0.13675,-0.044322,-0.092424,-0.012477,0,0.025442,0,1,0,1
18627,1.6464e+09,-0.13732,0.099139,-0.23646,-0.031921,0,-0.032968,0,1,0,1
18673,1.6464e+09,-0.13704,-0.10828,-0.028759,-0.0038825,0,0.042382,0,1,0,1
18718,1.6464e+09,-0.13738,0.061251,-0.19863,-0.026815,0,-0.017274,0,1,0,1
18762,1.6464e+09,-0.13696,-0.080884,-0.056072,-0.0075698,0,0.03003,0,1,0,1
18807,1.6464e+09,-0.13788,0.027495,-0.16537,-0.022325,0,-0.003454,0,1,0,1
18855,1.6464e+09,-0.13598,-0.052756,-0.083227,-0.011236,0,0.003881,0,1,0,1
18900,1.6464e+09,-0.13696,0.048443,-0.1854,-0.02503,0,-0.013516,0,1,0,1
18945,1.6464e+09,-0.13629,0.069257,-0.20555,-0.027749,0,-0.03547,0,1,0,1
18990,1.6465e+09,-0.1371,-0.046076,-0.091023,-0.012288,0,0.023828,0,1,0,1
19038,1.6465e+09,-0.13674,0.033784,-0.17053,-0.023021,0,-0.0069528,0,1,0,1
19083,1.6465e+09,-0.13603,-0.058997,-0.077037,-0.0104,0,0.019869,0,1,0,1
19128,1.6465e+09,-0.1379,-0.010644,-0.12725,-0.017179,0,0.019747,0,1,0,1
19173,1.6465e+09,-0.13608,-0.010465,-0.12561,-0.016958,0,-0.012349,0,1,0,1
19218,1.6465e+09,-0.1374,0.010862,-0.14826,-0.020016,0,0.0053665,0,1,0,1
19262,1.6465e+09,-0.13631,0.049437,-0.18574,-0.025076,0,-0.030211,0,1,0,1
19311,1.6465e+09,-0.13697,-0.10954,-0.027432,-0.0037033,0,0.045255,0,1,0,1
19356,1.6465e+09,-0.13575,0.10004,-0.23579,-0.031832,0,-0.050954,0,1,0,1
19400,1.6465e+09,-0.13567,-0.12588,-0.0097912,-0.0013218,0,0.049285,0,1,0,1
19448,1.6466e+09,-0.13674,0.10001,-0.23675,-0.031961,0,-0.02866,0,1,0,1
19487,1.6466e+09,-0.13612,-0.052366,-0.083753,-0.011307,0,0.0067348,0,1,0,1
19530,1.6466e+09,-0.13687,0.015186,-0.15205,-0.020527,0,0.0088924,0,1,0,1
19573,1.6466e+09,-0.13564,0.12998,-0.26562,-0.035859,0,-0.063147,0,1,0,1
19616,1.6466e+09,-0.13714,-0.10053,-0.03661,-0.0049423,0,0.051446,0,1,0,1
19659,1.6466e+09,-0.13597,0.11873,-0.2547,-0.034384,0,-0.057156,0,1,0,1
19702,1.6466e+09,-0.13648,-0.083067,-0.053417,-0.0072113,0,0.037991,0,1,0,1
19749,1.6466e+09,-0.13682,0.089675,-0.22649,-0.030576,0,-0.029651,0,1,0,1
19792,1.6466e+09,-0.1357,-0.13042,-0.0052796,-0.00071274,0,0.044188,0,1,0,1
19834,1.6467e+09,-0.13591,0.033863,-0.16977,-0.022919,0,-0.010996,0,1,0,1
19878,1.6467e+09,-0.13503,-0.065966,-0.069067,-0.0093241,0,0.019974,0,1,0,1
19924,1.6467e+09,-0.13657,-0.045837,-0.090732,-0.012249,0,0.026907,0,1,0,1
19966,1.6467e+09,-0.13608,0.10105,-0.23713,-0.032013,0,-0.043924,0,1,0,1
20010,1.6467e+09,-0.13645,-0.053825,-0.082627,-0.011155,0,0.024658,0,1,0,1
20053,1.6467e+09,-0.13749,0.070685,-0.20818,-0.028104,0,-0.015294,0,1,0,1
20097,1.6467e+09,-0.13648,-0.11662,-0.019861,-0.0026812,0,0.040391,0,1,0,1
20144,1.6467e+09,-0.13703,0.019126,-0.15616,-0.021081,0,-0.0011497,0,1,0,1
20187,1.6467e+09,-0.13582,-0.061787,-0.074031,-0.0099942,0,0.015777,0,1,0,1
20229,1.6467e+09,-0.13708,-0.0069212,-0.13015,-0.017571,0,0.01223,0,1,0,1
20275,1.6468e+09,-0.13524,0.0065342,-0.14177,-0.019139,0,-0.020706,0,1,0,1
20317,1.6468e+09,-0.13552,-0.071487,-0.064035,-0.0086448,0,0.027768,0,1,0,1
20361,1.6468e+09,-0.13584,0.01259,-0.14843,-0.020038,0,0.00079681,0,1,0,1
20406,1.6468e+09,-0.13402,-0.041927,-0.09209,-0.012432,0,0.0023699,0,1,0,1
20450,1.6468e+09,-0.13458,0.001632,-0.13621,-0.018389,0,0.0023082,0,1,0,1
20496,1.6468e+09,-0.13435,0.071594,-0.20595,-0.027803,0,-0.0321,0,1,0,1
20541,1.6468e+09,-0.13532,-0.025212,-0.11011,-0.014865,0,0.015635,0,1,0,1
20591,1.6468e+09,-0.13505,0.068354,-0.20341,-0.02746,0,-0.031093,0,1,0,1
20636,1.6468e+09,-0.1352,0.0025953,-0.1378,-0.018603,0,-0.00033721,0,1,0,1
20681,1.6469e+09,-0.13591,0.054031,-0.18994,-0.025642,0,-0.01426,0,1,0,1
20726,1.6469e+09,-0.13579,-0.029113,-0.10668,-0.014402,0,0.012202,0,1,0,1
20775,1.6469e+09,-0.13558,-0.027335,-0.10825,-0.014613,0,0.010929,0,1,0,1
20820,1.6469e+09,-0.13565,0.029833,-0.16548,-0.02234,0,-0.011795,0,1,0,1
20865,1.6469e+09,-0.13562,-0.0088148,-0.12681,-0.017119,0,0.00084298,0,1,0,1
20911,1.6469e+09,-0.13534,0.030118,-0.16546,-0.022337,0,-0.015853,0,1,0,1
20956,1.6469e+09,-0.13501,0.023363,-0.15837,-0.02138,0,-0.012577,0,1,0,1
21000,1.6469e+09,-0.1356,0.036092,-0.1717,-0.023179,0,-0.0090667,0,1,0,1
21049,1.6469e+09,-0.13529,-0.0092986,-0.12599,-0.017008,0,0.0019418,0,1,0,1
21096,1.647e+09,-0.13578,-0.033789,-0.10199,-0.013769,0,0.014908,0,1,0,1
21137,1.647e+09,-0.13568,0.032674,-0.16836,-0.022728,0,-0.011166,0,1,0,1
21186,1.647e+09,-0.13582,-0.022464,-0.11336,-0.015304,0,0.0058734,0,1,0,1
21231,1.647e+09,-0.13599,0.044775,-0.18076,-0.024403,0,-0.016582,0,1,0,1
21276,1.647e+09,-0.13547,-0.00062596,-0.13485,-0.018204,0,-0.0022455,0,1,0,1
21320,1.647e+09,-0.13622,-0.017212,-0.119,-0.016066,0,0.01604,0,1,0,1
21365,1.647e+09,-0.13492,-0.0447,-0.090216,-0.012179,0,0.0098117,0,1,0,1
21410,1.647e+09,-0.13498,-0.04218,-0.092801,-0.012528,0,0.01954,0,1,0,1
21459,1.647e+09,-0.13434,0.026161,-0.16051,-0.021668,0,-0.012948,0,1,0,1
21504,1.647e+09,-0.13462,-0.056363,-0.078252,-0.010564,0,0.023474,0,1,0,1
21549,1.6471e+09,-0.13408,0.030438,-0.16452,-0.022211,0,-0.018315,0,1,0,1
21595,1.6471e+09,-0.13407,0.0018903,-0.13596,-0.018355,0,-0.0021883,0,1,0,1
21639,1.6471e+09,-0.13488,0.06099,-0.19587,-0.026443,0,-0.018272,0,1,0,1
21685,1.6471e+09,-0.1347,-0.032355,-0.10234,-0.013817,0,0.011068,0,1,0,1
21729,1.6471e+09,-0.13487,0.027748,-0.16262,-0.021954,0,-0.008758,0,1,0,1
21775,1.6471e+09,-0.1345,0.0043412,-0.13884,-0.018744,0,-0.0022802,0,1,0,1
21819,1.6471e+09,-0.13496,-0.019107,-0.11585,-0.01564,0,0.013345,0,1,0,1
21864,1.6471e+09,-0.13387,-0.023917,-0.10996,-0.014844,0,0.0019738,0,1,0,1
21913,1.6471e+09,-0.13354,-0.050034,-0.083505,-0.011273,0,0.016439,0,1,0,1
21959,1.6472e+09,-0.13359,0.043751,-0.17734,-0.023941,0,-0.017331,0,1,0,1
22001,1.6472e+09,-0.13355,-0.020256,-0.1133,-0.015295,0,0.0030951,0,1,0,1
22047,1.6472e+09,-0.13316,-0.032816,-0.10034,-0.013547,0,0.010098,0,1,0,1
22090,1.6472e+09,-0.13399,0.074187,-0.20818,-0.028105,0,-0.023831,0,1,0,1
22132,1.6472e+09,-0.13407,-0.013023,-0.12104,-0.016341,0,0.001271,0,1,0,1
22175,1.6472e+09,-0.13485,0.036163,-0.17101,-0.023087,0,-0.009102,0,1,0,1
22219,1.6472e+09,-0.13411,0.019583,-0.15369,-0.020748,0,-0.013984,0,1,0,1
22262,1.6472e+09,-0.13567,0.0094464,-0.14512,-0.019591,0,0.010236,0,1,0,1
22305,1.6472e+09,-0.13441,-0.014725,-0.11969,-0.016158,0,-0.0044547,0,1,0,1
22351,1.6473e+09,-0.13503,-0.049534,-0.085496,-0.011542,0,0.0264,0,1,0,1
22396,1.6473e+09,-0.13371,0.023968,-0.15768,-0.021287,0,-0.01704,0,1,0,1
22438,1.6473e+09,-0.13454,-0.083707,-0.050829,-0.0068619,0,0.042096,0,1,0,1
22482,1.6473e+09,-0.13328,0.0069683,-0.14025,-0.018934,0,-0.013083,0,1,0,1
22528,1.6473e+09,-0.13299,-0.033921,-0.099073,-0.013375,0,0.0058543,0,1,0,1
22570,1.6473e+09,-0.13428,0.081741,-0.21602,-0.029163,0,-0.022479,0,1,0,1
22613,1.6473e+09,-0.13356,-0.030253,-0.1033,-0.013946,0,0.0055206,0,1,0,1
22655,1.6473e+09,-0.13457,0.041155,-0.17572,-0.023723,0,-0.0067716,0,1,0,1
22699,1.6473e+09,-0.13366,0.016685,-0.15035,-0.020297,0,-0.01275,0,1,0,1
22740,1.6473e+09,-0.13508,-0.046161,-0.088917,-0.012004,0,0.033489,0,1,0,1
22786,1.6474e+09,-0.13384,-0.0043861,-0.12946,-0.017477,0,-0.0061301,0,1,0,1
22831,1.6474e+09,-0.13429,-0.08207,-0.052217,-0.0070494,0,0.035111,0,1,0,1
22876,1.6474e+09,-0.1341,0.042737,-0.17684,-0.023873,0,-0.017043,0,1,0,1
22924,1.6474e+09,-0.13409,-0.026186,-0.10791,-0.014567,0,0.0047768,0,1,0,1
22968,1.6474e+09,-0.13407,0.012419,-0.14649,-0.019776,0,-0.0045517,0,1,0,1
23013,1.6474e+09,-0.13332,0.01689,-0.15021,-0.020279,0,-0.010698,0,1,0,1
23059,1.6474e+09,-0.13351,-0.027725,-0.10579,-0.014281,0,0.014968,0,1,0,1
23104,1.6474e+09,-0.13311,-0.043456,-0.089654,-0.012103,0,0.01512,0,1,0,1
23149,1.6474e+09,-0.13284,0.0096265,-0.14247,-0.019233,0,-0.0048136,0,1,0,1
23197,1.6475e+09,-0.13304,-0.020444,-0.1126,-0.015201,0,0.0088116,0,1,0,1
23242,1.6475e+09,-0.13416,0.014571,-0.14873,-0.020079,0,0.0023113,0,1,0,1
23287,1.6475e+09,-0.13338,0.00020528,-0.13358,-0.018034,0,-0.0087621,0,1,0,1
23332,1.6475e+09,-0.13384,0.0046951,-0.13853,-0.018702,0,-0.0011814,0,1,0,1
23380,1.6475e+09,-0.13451,0.038141,-0.17265,-0.023308,0,-0.007128,0,1,0,1
23421,1.6475e+09,-0.13336,-0.065035,-0.068325,-0.0092238,0,0.016118,0,1,0,1
23466,1.6475e+09,-0.13361,-0.02713,-0.10648,-0.014375,0,0.012363,0,1,0,1
23510,1.6475e+09,-0.13262,0.049868,-0.18249,-0.024636,0,-0.028446,0,1,0,1
23557,1.6475e+09,-0.1333,-0.038686,-0.094615,-0.012773,0,0.018337,0,1,0,1
23604,1.6475e+09,-0.13274,0.058472,-0.19121,-0.025814,0,-0.029863,0,1,0,1
23646,1.6476e+09,-0.13256,-0.0041933,-0.12837,-0.017329,0,2.8399e-05,0,1,0,1
23691,1.6476e+09,-0.13352,0.038895,-0.17242,-0.023277,0,-0.0068679,0,1,0,1
23735,1.6476e+09,-0.13342,-0.039969,-0.09345,-0.012616,0,0.016595,0,1,0,1
23780,1.6476e+09,-0.13374,-0.024921,-0.10882,-0.01469,0,0.01403,0,1,0,1
23825,1.6476e+09,-0.1336,0.00064559,-0.13424,-0.018123,0,0.00031807,0,1,0,1
23870,1.6476e+09,-0.13429,-0.010982,-0.12331,-0.016647,0,0.010643,0,1,0,1
23914,1.6476e+09,-0.13399,0.0075534,-0.14154,-0.019108,0,-0.0072687,0,1,0,1
23960,1.6476e+09,-0.13426,-0.00091177,-0.13335,-0.018002,0,-0.00085653,0,1,0,1
24006,1.6476e+09,-0.13443,0.084203,-0.21864,-0.029516,0,-0.032203,0,1,0,1
24050,1.6477e+09,-0.13427,-0.11231,-0.021966,-0.0029654,0,0.043811,0,1,0,1
24099,1.6477e+09,-0.13443,0.063129,-0.19756,-0.02667,0,-0.020795,0,1,0,1
24143,1.6477e+09,-0.13327,-0.05012,-0.083152,-0.011225,0,0.010341,0,1,0,1
24189,1.6477e+09,-0.13509,0.030476,-0.16557,-0.022352,0,0.0020558,0,1,0,1
24234,1.6477e+09,-0.13261,-0.018159,-0.11445,-0.015451,0,-0.013697,0,1,0,1
24278,1.6477e+09,-0.13433,-0.031533,-0.10279,-0.013877,-3.4159e-05,0.026399,0,1,0,0
24326,1.6477e+09,-0.13362,0.091458,-0.22507,-0.030385,-7.1705e-05,-0.034992,0,1,0,1
24371,1.6477e+09,-0.13213,-0.049116,-0.083017,-0.011207,-6.7393e-05,0.0063679,0,1,0,1
24417,1.6477e+09,-0.13352,-0.017876,-0.11564,-0.015612,-6.334e-05,0.018171,0,1,0,1
24464,1.6477e+09,-0.13289,0.066734,-0.19962,-0.026949,-7.1273e-05,-0.030633,0,1,0,1
24512,1.6478e+09,-0.13158,0.13054,-0.26212,-0.035386,-7.4955e-05,-0.056742,0,1,0,1
24558,1.6478e+09,-0.1314,0.062505,-0.1939,-0.026177,-0.00013018,-0.043155,0,1,0,0
24600,1.6478e+09,-0.1306,-0.037729,-0.092873,-0.012538,-0.00012235,0.0068381,0,1,0,1
24644,1.6478e+09,-0.13061,-0.073794,-0.05682,-0.0076706,-0.00017993,0.02761,0,1,0,1
24687,1.6478e+09,-0.13069,0.013954,-0.14464,-0.019527,-0.00016911,-0.004379,0,1,0,1
24729,1.6478e+09,-0.13046,0.011938,-0.1424,-0.019224,-0.0001976,-0.0058248,0,1,0,1
24773,1.6478e+09,-0.13041,0.0042272,-0.13464,-0.018177,-0.00026963,-0.0038804,0,1,0,0
24815,1.6478e+09,-0.13061,0.003478,-0.13409,-0.018102,-0.00028319,-0.0030778,0,1,0,1
24858,1.6478e+09,-0.13036,-0.083482,-0.046883,-0.0063291,-0.00028174,0.028224,0,1,0,0
24900,1.6479e+09,-0.13121,0.050285,-0.1815,-0.024502,-0.0002648,-0.014395,0,1,0,1
24946,1.6479e+09,-0.13016,0.094523,-0.22468,-0.030332,-0.00034204,-0.049155,0,1,0,0
24993,1.6479e+09,-0.12964,0.077696,-0.20734,-0.02799,-0.00039238,-0.044539,0,1,0,0
25036,1.6479e+09,-0.12911,-0.05927,-0.069843,-0.0094288,-0.00035606,0.0090222,0,1,0,1
25079,1.6479e+09,-0.1303,0.083685,-0.21399,-0.028889,-0.00038861,-0.031144,0,1,0,1
25121,1.6479e+09,-0.12952,0.072405,-0.20192,-0.027259,-0.00037321,-0.040432,0,1,0,1
25164,1.6479e+09,-0.12925,0.06482,-0.19407,-0.0262,-0.00041526,-0.035155,0,1,0,0
25206,1.6479e+09,-0.12981,-0.10036,-0.029446,-0.0039752,-0.00038036,0.030624,0,1,0,1
25250,1.6479e+09,-0.1303,0.0068936,-0.13719,-0.018521,-0.00046095,-0.0024951,0,1,0,0
25293,1.6479e+09,-0.12996,-0.061231,-0.068728,-0.0092782,-0.00047862,0.020538,0,1,0,1
25336,1.648e+09,-0.12968,0.046353,-0.17603,-0.023764,-0.0005881,-0.022492,0,1,0,0
25381,1.648e+09,-0.12966,-0.095487,-0.034178,-0.004614,-0.00059284,0.038215,0,1,0,0
25422,1.648e+09,-0.12859,0.0088109,-0.1374,-0.01855,-0.00062751,-0.006011,0,1,0,1
25466,1.648e+09,-0.12914,-0.10573,-0.023405,-0.0031597,-0.00064197,0.043025,0,1,0,0
25511,1.648e+09,-0.12942,0.042181,-0.1716,-0.023166,-0.00064959,-0.014566,0,1,0,1
25555,1.648e+09,-0.12914,-0.077845,-0.051294,-0.0069247,-0.00061053,0.031285,0,1,0,1
25601,1.648e+09,-0.12878,-0.0095027,-0.11927,-0.016102,-0.00062584,0.0040027,0,1,0,1
25646,1.648e+09,-0.12798,-0.112,-0.015987,-0.0021583,-0.00061135,0.040419,0,1,0,1
25690,1.648e+09,-0.1285,-0.056783,-0.071715,-0.0096816,-0.00061118,0.026629,0,1,0,1
25735,1.648e+09,-0.12869,0.0017017,-0.13039,-0.017602,-0.00071932,0.0041096,0,1,0,1
25780,1.6481e+09,-0.1278,0.0058358,-0.13364,-0.018041,-0.00072048,-0.0086131,0,1,0,0
25825,1.6481e+09,-0.12998,-0.11765,-0.012327,-0.0016641,-0.00069848,0.047118,0,1,0,1
25874,1.6481e+09,-0.14288,-0.034927,-0.10795,-0.014573,-0.00073491,0.010886,0,1,0,0
25919,1.6481e+09,-0.15358,-0.045657,-0.10793,-0.01457,-0.00073491,0.020258,0,1,0,1
25964,1.6481e+09,-0.16502,0.037226,-0.20224,-0.027303,-0.00090701,-0.016623,0,1,0,0
26009,1.6481e+09,-0.17112,-0.089899,-0.081221,-0.010965,-0.00099408,0.027933,0,1,0,0
26054,1.6481e+09,-0.17261,-0.10539,-0.067219,-0.0090746,-0.0010357,0.037666,0,1,0,1
26098,1.6481e+09,-0.17122,-0.092607,-0.078617,-0.010613,-0.0011329,0.034957,0,1,0,0
26143,1.6481e+09,-0.17218,0.0056143,-0.17779,-0.024002,-0.0013171,-0.0066705,0,1,0,0
26186,1.6482e+09,-0.17029,0.0072669,-0.17756,-0.02397,-0.0014688,-0.010094,0,1,0,0
26231,1.6482e+09,-0.16727,0.11773,-0.28499,-0.038474,-0.0015961,-0.05358,0,1,0,1
26277,1.6482e+09,-0.17068,0.065023,-0.2357,-0.03182,-0.0017235,-0.04169,0,1,0,0
26326,1.6482e+09,-0.17565,0.021025,-0.19667,-0.026551,-0.0019065,-0.0097769,0,1,0,0
26370,1.6482e+09,-0.18026,-0.0078468,-0.17241,-0.023276,-0.0021811,0.013639,0,1,0,0
26415,1.6482e+09,-0.17699,0.045519,-0.22251,-0.030039,-0.0022605,9.2596e-05,0,1,0,1
26460,1.6482e+09,-0.17028,0.077164,-0.24744,-0.033405,-0.0024289,-0.041819,0,1,0,0
26504,1.6482e+09,-0.16874,-0.11263,-0.056117,-0.0075758,-0.0025031,0.035636,0,1,0,0
26549,1.6482e+09,-0.16512,-0.093353,-0.071771,-0.009689,-0.0027459,0.042652,0,1,0,0
26595,1.6483e+09,-0.15962,-0.014098,-0.14552,-0.019646,-0.0028889,0.0046287,0,1,0,0
26640,1.6483e+09,-0.15754,0.10598,-0.26352,-0.035575,-0.0030125,-0.046324,0,1,0,1
26684,1.6483e+09,-0.1598,0.040609,-0.20041,-0.027055,-0.0031639,-0.029816,0,1,0,0
26731,1.6483e+09,-0.1608,-0.063891,-0.09691,-0.013083,-0.003309,0.026586,0,1,0,0
26779,1.6483e+09,-0.15779,-0.0098908,-0.1479,-0.019966,-0.003553,0.011871,0,1,0,0
26825,1.6483e+09,-0.15519,0.060607,-0.2158,-0.029133,-0.0037625,-0.02339,0,1,0,0
26870,1.6483e+09,-0.15865,0.034841,-0.1935,-0.026122,-0.0039584,-0.018723,0,1,0,0
26914,1.6483e+09,-0.16172,-0.0034341,-0.15828,-0.021368,-0.0041586,-0.005439,0,1,0,0
26959,1.6483e+09,-0.15911,-0.04179,-0.11732,-0.015838,-0.0043432,0.0095853,0,1,0,0
27003,1.6483e+09,-0.16109,-0.049691,-0.1114,-0.015039,-0.0046001,0.027379,0,1,0,0
27050,1.6484e+09,-0.16698,0.17053,-0.33751,-0.045564,-0.0048635,-0.064076,0,1,0,0
27092,1.6484e+09,-0.17302,0.15222,-0.32524,-0.043908,-0.0051748,-0.053533,0,1,0,0
27134,1.6484e+09,-0.17004,0.067361,-0.2374,-0.03205,-0.0053098,-0.04467,0,1,0,0
27177,1.6484e+09,-0.16696,-0.28926,0.1223,0.01651,-0.0054791,0.10748,0,1,0,0
27224,1.6484e+09,-0.16723,-0.11541,-0.051813,-0.0069948,-0.0058209,0.073185,0,1,0,0
27267,1.6484e+09,-0.15837,0.34774,-0.5061,-0.068324,-0.0059702,-0.15667,0,1,0,0
27310,1.6484e+09,-0.14959,0.11054,-0.26013,-0.035118,-0.0059199,-0.10504,0,1,0,0
27356,1.6484e+09,-0.15318,0.051149,-0.20433,-0.027584,-0.0061879,-0.053952,0,1,0,0
27399,1.6484e+09,-0.15973,-0.30744,0.14771,0.019941,-0.00649,0.13828,0,1,0,0
27441,1.6485e+09,-0.16323,-0.12706,-0.036161,-0.0048818,-0.0068552,0.087627,0,1,0,0
27484,1.6485e+09,-0.15361,0.35768,-0.51129,-0.069024,-0.0070747,-0.13837,0,1,0,0
27527,1.6485e+09,-0.13769,0.036463,-0.17415,-0.023511,-0.0070687,-0.050068,0,1,0,0
27569,1.6485e+09,-0.13806,-0.19043,0.052377,0.0070709,-0.007284,0.072272,0,1,0,0
27616,1.6485e+09,-0.15327,-0.16347,0.010198,0.0013768,-0.0076249,0.099431,0,1,0,0
27660,1.6485e+09,-0.16287,0.053014,-0.21588,-0.029144,-0.0079313,0.0084469,0,1,0,0
27703,1.6485e+09,-0.16116,0.24726,-0.40841,-0.055136,-0.0081501,-0.097319,0,1,0,0
27749,1.6485e+09,-0.16434,0.1547,-0.31904,-0.043071,-0.0083902,-0.065698,0,1,0,0
27797,1.6485e+09,-0.16088,0.087485,-0.24837,-0.03353,-0.0085919,-0.054106,0,1,0,0
27833,1.6486e+09,-0.16329,-0.012171,-0.15112,-0.020401,-0.0087712,-0.011772,0,1,0,0
27877,1.6486e+09,-0.16318,-0.050445,-0.11273,-0.015219,-0.0089903,0.014035,0,1,0,0
27921,1.6486e+09,-0.16417,-0.03801,-0.12615,-0.017031,-0.0092237,0.015546,0,1,0,0
27965,1.6486e+09,-0.17115,-0.032104,-0.13905,-0.018771,-0.0095184,0.026009,0,1,0,0
28009,1.6486e+09,-0.18079,0.038975,-0.21976,-0.029668,-0.0098102,-0.005451,0,1,0,0
28059,1.6486e+09,-0.18369,0.064883,-0.24857,-0.033558,-0.010095,-0.017842,0,1,0,0
28103,1.6486e+09,-0.17865,0.027318,-0.20597,-0.027806,-0.010315,-0.014704,0,1,0,0
28149,1.6486e+09,-0.17609,0.034192,-0.21028,-0.028388,-0.010583,-0.012006,0,1,0,0
28194,1.6486e+09,-0.18452,0.18433,-0.36885,-0.049794,-0.010927,-0.062588,0,1,0,0
28238,1.6487e+09,-0.19967,0.20243,-0.4021,-0.054284,-0.011268,-0.071862,0,1,0,0
28283,1.6487e+09,-0.21498,0.24447,-0.45944,-0.062025,-0.011615,-0.093178,0,1,0,0
28327,1.6487e+09,-0.22364,0.18058,-0.40422,-0.05457,-0.011953,-0.063044,0,1,0,0
28372,1.6487e+09,-0.23255,0.083025,-0.31558,-0.042603,-0.012312,-0.015255,0,1,0,0
28418,1.6487e+09,-0.24036,0.020789,-0.26115,-0.035255,-0.012659,0.011559,0,1,0,0
28464,1.6487e+09,-0.24745,0.0082996,-0.25575,-0.034526,-0.012993,0.0096208,0,1,0,0
28512,1.6487e+09,-0.24184,-0.15396,-0.087877,-0.011863,-0.013257,0.065639,0,1,0,0
28558,1.6487e+09,-0.23174,-0.16557,-0.066168,-0.0089327,-0.013473,0.051596,0,1,0,0
28607,1.6487e+09,-0.22562,-0.031839,-0.19378,-0.026161,-0.013794,-0.0077918,0,1,0,0
28651,1.6488e+09,-0.23022,-0.1228,-0.10742,-0.014502,-0.014054,0.023343,0,1,0,0
28695,1.6488e+09,-0.23623,-0.20859,-0.027642,-0.0037316,-0.014245,0.0516,0,1,0,0
28741,1.6488e+09,-0.2311,-0.081851,-0.14925,-0.020149,-0.014407,-0.013088,0,1,0,0
28787,1.6488e+09,-0.22692,-0.046917,-0.18001,-0.024301,-0.014551,-0.03251,0,1,0,0
28831,1.6488e+09,-0.23204,-0.13574,-0.096297,-0.013,-0.014688,0.0049814,0,1,0,0
28877,1.6488e+09,-0.24592,-0.14012,-0.1058,-0.014283,-0.014816,0.00080158,0,1,0,0
28929,1.6488e+09,-0.25537,-0.19415,-0.061224,-0.0082653,-0.014966,0.010907,0,1,0,0
28974,1.6488e+09,-0.26289,-0.20521,-0.057678,-0.0077866,-0.015033,-0.0014402,0,1,0,0
29019,1.6488e+09,-0.26483,-0.20749,-0.057337,-0.0077405,-0.015083,-0.0033235,0,1,0,0
29063,1.6489e+09,-0.25512,-0.34091,0.085789,0.011582,-0.015045,0.040232,0,1,0,0
29108,1.6489e+09,-0.23828,-0.27828,0.040002,0.0054003,-0.015048,0.01614,0,1,0,0
29152,1.6489e+09,-0.23689,-0.23167,-0.005222,-0.00070497,-0.015047,-0.0072068,0,1,0,0
29197,1.6489e+09,-0.25161,-0.20897,-0.042633,-0.0057554,-0.015043,-0.019013,0,1,0,0
29242,1.6489e+09,-0.25862,-0.29341,0.034788,0.0046964,-0.015004,0.010065,0,1,0,0
29287,1.6489e+09,-0.24187,-0.33016,0.088291,0.011919,-0.014946,0.021204,0,1,0,0
29334,1.6489e+09,-0.2234,-0.18872,-0.034688,-0.0046829,-0.014887,-0.03844,0,1,0,0
29382,1.6489e+09,-0.21949,-0.25647,0.036986,0.0049931,-0.014825,4.7657e-05,0,1,0,0
29428,1.6489e+09,-0.21521,-0.38156,0.16636,0.022458,-0.014713,0.044099,0,1,0,0
29473,1.6489e+09,-0.19632,-0.33077,0.13445,0.01815,-0.014605,0.020638,0,1,0,0
29517,1.649e+09,-0.15043,-0.3758,0.22538,0.030426,-0.014283,0.030617,0,1,0,0
29559,1.649e+09,-0.11929,-0.31066,0.19138,0.025836,-0.014023,-0.0013331,0,1,0,0
29601,1.649e+09,-0.099106,-0.28311,0.184,0.02484,-0.013746,-0.0089393,0,1,0,0
29644,1.649e+09,-0.073131,-0.31187,0.23874,0.03223,-0.013407,0.004318,0,1,0,0
29686,1.649e+09,-0.0305,-0.40314,0.37264,0.050306,-0.013018,0.046508,0,1,0,0
29730,1.649e+09,0.015259,-0.30296,0.31822,0.04296,-0.012546,-0.0063167,0,1,0,0
29773,1.649e+09,0.043524,-0.27446,0.31799,0.042929,-0.012071,-0.012177,0,1,0,0
29820,1.649e+09,0.062927,-0.297,0.35992,0.04859,-0.011622,0.013922,0,1,0,0
29863,1.649e+09,0.084804,-0.25672,0.34152,0.046106,-0.011175,0.0051885,0,1,0,0
29905,1.6491e+09,0.098286,-0.15014,0.24842,0.033537,-0.010804,-0.02161,0,1,0,0
29948,1.6491e+09,0.10613,-0.16937,0.2755,0.037193,-0.010437,0.00025741,0,1,0,0
29992,1.6491e+09,0.11749,-0.23238,0.34987,0.047232,-0.01007,0.040321,0,1,0,0
30035,1.6491e+09,0.13977,-0.23304,0.3728,0.050329,-0.0096733,0.042147,0,1,0,0
30077,1.6491e+09,0.16419,-0.18575,0.34994,0.047242,-0.0092928,0.024409,0,1,0,0
30120,1.6491e+09,0.18329,-0.057377,0.24067,0.03249,-0.0088749,-0.032509,0,1,0,0
30163,1.6491e+09,0.20653,-0.13727,0.3438,0.046413,-0.0084452,0.01468,0,1,0,0
30205,1.6491e+09,0.23283,-0.10216,0.33499,0.045223,-0.0080034,0.0072073,0,1,0,0
30252,1.6491e+09,0.25837,-0.11058,0.36895,0.049809,-0.0075092,0.0061041,0,1,0,0
30296,1.6492e+09,0.27589,-0.081403,0.35729,0.048234,-0.0070009,-0.0076275,0,1,0,0
30343,1.6492e+09,0.30161,-0.17303,0.47464,0.064076,-0.006307,0.036126,0,1,0,0
30380,1.6492e+09,0.30972,-0.0345,0.34422,0.04647,-0.0058309,-0.013164,0,1,0,0
30424,1.6492e+09,0.32586,-0.07744,0.4033,0.054446,-0.0053311,0.018584,0,1,0,0
30470,1.6492e+09,0.33791,-0.067899,0.4058,0.054784,-0.0048358,0.019499,0,1,0,0
30515,1.6492e+09,0.34212,0.044756,0.29736,0.040144,-0.0043795,-0.024101,0,1,0,0
30559,1.6492e+09,0.3468,0.072861,0.27394,0.036981,-0.0038771,-0.039544,0,1,0,0
30604,1.6492e+09,0.35684,-0.06215,0.41899,0.056564,-0.0033307,0.014891,0,1,0,0
30648,1.6492e+09,0.36574,-0.073265,0.43901,0.059266,-0.0028583,0.03413,0,1,0,0
30699,1.6492e+09,0.36772,0.023642,0.34407,0.04645,-0.0023851,-0.0030508,0,1,0,0
30745,1.6493e+09,0.36501,0.026884,0.33812,0.045647,-0.0019279,0.0040104,0,1,0,0
30790,1.6493e+09,0.37479,-0.032836,0.40763,0.055029,-0.0014347,0.02867,0,1,0,0
30835,1.6493e+09,0.38186,-0.0311,0.41296,0.05575,-0.0010033,0.035468,0,1,0,0
30879,1.6493e+09,0.38048,-0.0026347,0.38311,0.05172,-0.00058394,0.029189,0,1,0,0
30924,1.6493e+09,0.37936,-0.0067445,0.3861,0.052124,-0.00016259,0.032075,0,1,0,0
30968,1.6493e+09,0.3765,0.11224,0.26426,0.035676,0.00014312,0.0028327,0,1,0,0
31013,1.6493e+09,0.37159,0.14305,0.22854,0.030853,0.00052239,-0.017874,0,1,0,0
31057,1.6493e+09,0.36732,0.096065,0.27125,0.036619,0.00088622,-0.0017846,0,1,0,0
31102,1.6493e+09,0.36437,0.11585,0.24852,0.033551,0.0011494,0.0076236,0,1,0,0
31153,1.6494e+09,0.36057,0.10886,0.25171,0.033981,0.0015601,0.0078065,0,1,0,0
31196,1.6494e+09,0.35366,0.091707,0.26195,0.035363,0.0017579,0.043224,0,1,0,0
31241,1.6494e+09,0.34279,0.15212,0.19067,0.02574,0.0019786,0.017358,0,1,0,0
31289,1.6494e+09,0.33131,0.21072,0.12059,0.01628,0.0022751,-0.022712,0,1,0,0
31333,1.6494e+09,0.3268,0.063057,0.26375,0.035606,0.0025279,0.033234,0,1,0,0
31378,1.6494e+09,0.31937,0.1485,0.17088,0.023068,0.0027067,0.002324,0,1,0,0
31422,1.6494e+09,0.30457,0.21724,0.087332,0.01179,0.0028136,-0.0095351,0,1,0,0
31467,1.6494e+09,0.29052,0.21105,0.079463,0.010728,0.002985,-0.0176,0,1,0,0
31512,1.6494e+09,0.28199,0.065586,0.21641,0.029215,0.0032319,0.02117,0,1,0,0
31561,1.6495e+09,0.27632,0.11729,0.15903,0.021469,0.0033833,0.011453,0,1,0,0
31606,1.6495e+09,0.27263,0.13153,0.1411,0.019048,0.003545,0.0066638,0,1,0,0
31650,1.6495e+09,0.26526,0.21853,0.046728,0.0063083,0.0037354,-0.043386,0,1,0,0
31695,1.6495e+09,0.25789,0.077144,0.18075,0.024401,0.0039244,0.01652,0,1,0,0
31739,1.6495e+09,0.25266,0.042148,0.21051,0.028419,0.0041045,0.030195,0,1,0,0
31784,1.6495e+09,0.24833,0.21593,0.032401,0.0043741,0.0042721,-0.047501,0,1,0,0
31830,1.6495e+09,0.23927,0.16349,0.075779,0.01023,0.0044522,-0.029563,0,1,0,0
31874,1.6495e+09,0.22838,0.097408,0.13097,0.017682,0.0045688,0.0079228,0,1,0,0
31919,1.6495e+09,0.22269,0.085984,0.1367,0.018455,0.0047493,0.00091211,0,1,0,0
31962,1.6496e+09,0.2213,0.14983,0.071463,0.0096476,0.0049277,-0.029555,0,1,0,0
32008,1.6496e+09,0.2218,0.20513,0.016665,0.0022498,0.0050953,-0.050236,0,1,0,0
32052,1.6496e+09,0.21406,0.14252,0.071534,0.0096571,0.005311,-0.0333,0,1,0,0
32097,1.6496e+09,0.19529,0.20741,-0.012119,-0.0016361,0.0053951,-0.045704,0,1,0,0
32142,1.6496e+09,0.17655,0.22252,-0.04597,-0.0062059,0.0055423,-0.06509,0,1,0,0
32186,1.6496e+09,0.16816,0.096855,0.071301,0.0096256,0.0057093,-0.019437,0,1,0,0
32232,1.6496e+09,0.16345,0.13008,0.033372,0.0045052,0.0058188,-0.027374,0,1,0,0
32276,1.6496e+09,0.15929,0.16376,-0.0044638,-0.00060262,0.0059699,-0.049784,0,1,0,0
32321,1.6496e+09,0.14931,0.073454,0.075855,0.01024,0.0061078,-0.013266,0,1,0,0
32367,1.6496e+09,0.14086,0.1532,-0.012343,-0.0016663,0.0061951,-0.039543,0,1,0,0
32411,1.6497e+09,0.14146,0.12618,0.015286,0.0020636,0.0063612,-0.042834,0,1,0,0
32460,1.6497e+09,0.13362,0.054704,0.07892,0.010654,0.0064095,0.0071861,0,1,0,0
32504,1.6497e+09,0.12046,0.13926,-0.018798,-0.0025377,0.0064979,-0.037375,0,1,0,0
32549,1.6497e+09,0.10937,-0.056629,0.166,0.02241,0.0066016,0.038769,0,1,0,0
32593,1.6497e+09,0.10245,0.059617,0.042835,0.0057827,0.0065918,0.010385,0,1,0,0
32638,1.6497e+09,0.10509,0.086028,0.019063,0.0025735,0.006714,-0.021965,0,1,0,0
32683,1.6497e+09,0.10299,0.023708,0.079284,0.010703,0.0067595,0.015819,0,1,0,0
32730,1.6497e+09,0.095759,0.086401,0.0093571,0.0012632,0.0067947,-0.010186,0,1,0,0
32777,1.6497e+09,0.090704,0.002759,0.087945,0.011873,0.0068633,0.020713,0,1,0,0
32822,1.6498e+09,0.095479,-0.0069322,0.10241,0.013826,0.0069488,0.020624,0,1,0,0
32868,1.6498e+09,0.092464,0.080762,0.011702,0.0015797,0.0069555,-0.0025431,0,1,0,0
32911,1.6498e+09,0.09093,0.1489,-0.057973,-0.0078264,0.0070191,-0.03756,0,1,0,0
32953,1.6498e+09,0.078273,0.13151,-0.053237,-0.0071869,0.0070612,-0.033782,0,1,0,0
32996,1.6498e+09,0.067841,0.082769,-0.014928,-0.0020152,0.0070844,-0.011642,0,1,0,0
33039,1.6498e+09,0.062322,0.087882,-0.02556,-0.0034506,0.0070708,-0.0082641,0,1,0,0
33081,1.6498e+09,0.056524,0.17617,-0.11964,-0.016152,0.0070791,-0.051495,0,1,0,0
33125,1.6498e+09,0.047993,0.15641,-0.10842,-0.014637,0.0070874,-0.049535,0,1,0,0
33167,1.6498e+09,0.04285,0.10765,-0.064803,-0.0087483,0.0071147,-0.03526,0,1,0,0
33210,1.6498e+09,0.044702,-0.033559,0.078261,0.010565,0.0071257,0.02633,0,1,0,0
33254,1.6499e+09,0.045328,0.036934,0.0083934,0.0011331,0.0071051,0.00098293,0,1,0,0
33296,1.6499e+09,0.042374,0.083779,-0.041404,-0.0055896,0.0070804,-0.014343,0,1,0,0
33344,1.6499e+09,0.040816,-0.0037195,0.044536,0.0060123,0.0071192,0.0092375,0,1,0,0
33386,1.6499e+09,0.038611,-0.085655,0.12427,0.016776,0.0071397,0.043592,0,1,0,0
33430,1.6499e+09,0.043092,-0.12658,0.16967,0.022906,0.0071821,0.059458,0,1,0,0
33473,1.6499e+09,0.044079,-0.063957,0.10804,0.014585,0.0071556,0.049149,0,1,0,0
33516,1.6499e+09,0.042059,0.069833,-0.027773,-0.0037494,0.0071865,-0.017826,0,1,0,0
33558,1.6499e+09,0.041169,-0.086742,0.12791,0.017268,0.0072791,0.03301,0,1,0,0
33601,1.6499e+09,0.048023,-0.10999,0.15801,0.021332,0.0073606,0.043942,0,1,0,0
33640,1.65e+09,0.054885,-0.11668,0.17156,0.023161,0.007513,0.031725,0,1,0,0
33684,1.65e+09,0.051509,-0.15483,0.20634,0.027856,0.0075523,0.068278,0,1,0,0
33730,1.65e+09,0.042467,0.052035,-0.009568,-0.0012917,0.0075694,-0.017536,0,1,0,0
33779,1.65e+09,0.037289,-0.074758,0.11205,0.015126,0.0076365,0.030158,0,1,0,0
33824,1.65e+09,0.043833,-0.087662,0.1315,0.017752,0.0076643,0.045351,0,1,0,0
33868,1.65e+09,0.058256,-0.072173,0.13043,0.017608,0.007853,0.0087717,0,1,0,0
33914,1.65e+09,0.062023,-0.17121,0.23323,0.031486,0.0079523,0.064328,0,1,0,0
33958,1.65e+09,0.056574,0.06954,-0.012966,-0.0017504,0.0079656,-0.023224,0,1,0,0
34003,1.65e+09,0.049369,0.0023064,0.047063,0.0063534,0.008065,-0.0057445,0,1,0,0
34049,1.65e+09,0.048235,-0.17361,0.22185,0.029949,0.0081488,0.070124,0,1,0,0
34093,1.6501e+09,0.061443,-0.099382,0.16082,0.021711,0.0082813,0.030855,0,1,0,0
34138,1.6501e+09,0.079286,-0.068408,0.14769,0.019939,0.0084624,0.013263,0,1,0,0
34182,1.6501e+09,0.090007,-0.030091,0.1201,0.016213,0.0086299,-0.00078615,0,1,0,0
34231,1.6501e+09,0.086257,-0.10946,0.19571,0.026421,0.0087863,0.031568,0,1,0,0
34277,1.6501e+09,0.075776,-0.096271,0.17205,0.023226,0.0088563,0.039972,0,1,0,0
34322,1.6501e+09,0.072593,0.11208,-0.039488,-0.0053308,0.0089407,-0.051454,0,1,0,0
34367,1.6501e+09,0.077059,0.017966,0.059093,0.0079775,0.0090916,-0.021951,0,1,0,0
34411,1.6501e+09,0.072192,-0.051228,0.12342,0.016662,0.0091205,0.03062,0,1,0,0
34452,1.6501e+09,0.063456,0.20886,-0.1454,-0.019629,0.0090411,-0.056216,0,1,0,0
34497,1.6502e+09,0.049941,0.16669,-0.11675,-0.015761,0.0090796,-0.05095,0,1,0,0
34541,1.6502e+09,0.042267,0.034482,0.0077846,0.0010509,0.0090929,0.003677,0,1,0,0
34586,1.6502e+09,0.036081,0.02319,0.012891,0.0017403,0.0090294,0.020339,0,1,0,0
34630,1.6502e+09,0.034856,0.041211,-0.0063551,-0.00085794,0.009019,0.0079438,0,1,0,0
34680,1.6502e+09,0.043255,0.0039524,0.039303,0.0053059,0.0090872,0.0091833,0,1,0,0
34724,1.6502e+09,0.051075,-0.013171,0.064246,0.0086732,0.009151,0.010241,0,1,0,0
34769,1.6502e+09,0.055093,-0.077801,0.13289,0.017941,0.0092256,0.035735,0,1,0,0
34813,1.6502e+09,0.0603,-0.091728,0.15203,0.020524,0.0093241,0.032252,0,1,0,0
34861,1.6502e+09,0.066835,-0.018531,0.085366,0.011524,0.0094244,-0.00020499,0,1,0,0
34905,1.6502e+09,0.077497,-0.044702,0.1222,0.016497,0.0096056,0.004636,0,1,0,0
34949,1.6503e+09,0.087199,0.052459,0.03474,0.00469,0.0097897,-0.041928,0,1,0,0
34994,1.6503e+09,0.08928,0.00062895,0.088651,0.011968,0.0099511,-0.012517,0,1,0,0
35039,1.6503e+09,0.082523,-0.053095,0.13562,0.018308,0.010057,0.022779,0,1,0,0
35084,1.6503e+09,0.068511,0.070724,-0.0022128,-0.00029873,0.01013,-0.028409,0,1,0,0
35132,1.6503e+09,0.053026,0.050137,0.0028889,0.00039,0.010159,-0.011022,0,1,0,0
35177,1.6503e+09,0.046461,0.0017856,0.044675,0.0060311,0.010136,0.02523,0,1,0,0
35222,1.6503e+09,0.045276,0.073625,-0.028349,-0.0038271,0.010157,-0.01529,0,1,0,0
35267,1.6503e+09,0.036905,0.070627,-0.033722,-0.0045525,0.010132,-0.0082244,0,1,0,0
35312,1.6503e+09,0.024333,0.077098,-0.052764,-0.0071232,0.010059,-0.0032937,0,1,0,0
35357,1.6504e+09,0.013913,0.14686,-0.13295,-0.017948,0.0099819,-0.039105,0,1,0,0
35400,1.6504e+09,0.011232,0.13184,-0.1206,-0.016281,0.0099267,-0.033471,0,1,0,0
35442,1.6504e+09,0.0066968,0.090481,-0.083784,-0.011311,0.009848,-0.012824,0,1,0,0
35486,1.6504e+09,0.00088941,-0.0037505,0.0046399,0.00062639,0.0097802,0.026286,0,1,0,0
35529,1.6504e+09,-0.00051849,-0.0026106,0.0020921,0.00028243,0.0097096,0.022228,0,1,0,0
35575,1.6504e+09,0.0023445,0.0083576,-0.0060131,-0.00081177,0.0096415,0.018539,0,1,0,0
35620,1.6504e+09,0.0033635,-0.0033811,0.0067446,0.00091052,0.0096197,0.013961,0,1,0,0
35663,1.6504e+09,0.00095997,0.026548,-0.025588,-0.0034544,0.0095375,0.0066194,0,1,0,0
35706,1.6504e+09,-0.0005453,0.041172,-0.041717,-0.0056319,0.009541,-0.01688,0,1,0,0
35749,1.6505e+09,0.0073276,-0.058318,0.065646,0.0088622,0.0095761,0.024165,0,1,0,0
35791,1.6505e+09,0.016847,0.04456,-0.027713,-0.0037413,0.0096284,-0.024844,0,1,0,0
35834,1.6505e+09,0.015876,-0.057335,0.073212,0.0098836,0.0097061,0.011505,0,1,0,0
35876,1.6505e+09,0.0096221,-0.16321,0.17283,0.023332,0.0097276,0.067235,0,1,0,0
35920,1.6505e+09,0.015296,-0.10699,0.12229,0.016509,0.0097914,0.035217,0,1,0,0
35963,1.6505e+09,0.021414,-0.061416,0.082831,0.011182,0.0099144,0.0031185,0,1,0,0
36009,1.6505e+09,0.027419,-0.077245,0.10466,0.01413,0.010044,0.0070374,0,1,0,0
36051,1.6505e+09,0.028654,-0.086349,0.115,0.015525,0.010171,0.0085469,0,1,0,0
36094,1.6505e+09,0.032271,-0.083634,0.11591,0.015647,0.010315,0.0021011,0,1,0,0
36138,1.6505e+09,0.037944,-0.033759,0.071703,0.0096799,0.010493,-0.026899,0,1,0,0
36182,1.6506e+09,0.041025,-0.019691,0.060717,0.0081968,0.010676,-0.019162,0,1,0,0
