LineNo,TimeUS,Tar,Act,Err,P,I,D,FF,Dmod,SRate,Limit
298,1.6419e+09,0.032668,-0.0018535,0.034521,0.0046604,0,1.6001e-05,0,1,0,1
526,1.6419e+09,0.028346,0.00023942,0.028106,0.0037944,0,-0.001115,0,1,0,1
978,1.642e+09,0.018217,0.0019495,0.016268,0.0021962,0,-0.00072683,0,1,0,1
1092,1.6421e+09,0.015195,-0.0038631,0.019058,0.0025728,0,0.00023493,0,1,0,1
1199,1.6422e+09,0.009476,0.00056996,0.008906,0.0012023,0,-0.00041527,0,1,0,1
1310,1.6422e+09,0.0073337,-0.00056387,0.0078976,0.0010662,0,-0.00056277,0,1,0,1
1489,1.6423e+09,0.0073854,0.00069091,0.0066945,0.00090376,0,-0.00042687,0,1,0,1
1660,1.6423e+09,0.0077998,0.00054462,0.0072552,0.00097945,0,0.00012229,0,1,0,1
1671,1.6423e+09,0.0088678,0.0016343,0.0072334,0.00097651,0,7.4018e-05,0,1,0,1
1715,1.6423e+09,0.010164,0.0008666,0.0092977,0.0012552,0,0.0004954,0,1,0,1
1760,1.6423e+09,0.011526,0.0010098,0.010516,0.0014196,0,0.00017197,0,1,0,1
1804,1.6423e+09,0.012854,0.0012612,0.011592,0.001565,0,0.00046917,0,1,0,1
1849,1.6423e+09,0.014233,0.0012396,0.012993,0.0017541,0,0.00065558,0,1,0,1
1896,1.6424e+09,0.015609,0.0027365,0.012873,0.0017378,0,0.00024651,0,1,0,1
1941,1.6424e+09,0.017695,6.9846e-05,0.017626,0.0023795,0,0.00073895,0,1,0,1
1983,1.6424e+09,0.019168,-0.0016846,0.020853,0.0028152,0,0.0009918,0,1,0,1
2031,1.6424e+09,0.020651,-0.0012008,0.021852,0.00295,0,0.00034423,0,1,0,1
2074,1.6424e+09,0.022079,-0.00026605,0.022345,0.0030165,0,0.00025481,0,1,0,1
2116,1.6424e+09,0.023515,-0.0016765,0.025191,0.0034008,0,0.00084054,0,1,0,1
2162,1.6424e+09,0.025338,-0.0013685,0.026707,0.0036054,0,0.00063464,0,1,0,1
2206,1.6424e+09,0.026813,-0.0014615,0.028275,0.0038171,0,0.00043552,0,1,0,1
2248,1.6425e+09,0.02822,0.00035412,0.027866,0.0037619,0,5.2789e-05,0,1,0,1
2292,1.6425e+09,0.029554,0.0023088,0.027246,0.0036782,0,-0.00010818,0,1,0,1
2334,1.6425e+09,0.030876,0.0021016,0.028775,0.0038846,0,0.00030163,0,1,0,1
2377,1.6425e+09,0.032221,0.0018427,0.030378,0.004101,0,0.00048478,0,1,0,1
2420,1.6425e+09,0.033624,0.00068918,0.032934,0.0044461,0,0.00056179,0,1,0,1
2466,1.6425e+09,0.035035,0.0014493,0.033586,0.0045341,0,0.00030292,0,1,0,1
2510,1.6425e+09,0.036405,0.0016159,0.034789,0.0046965,0,0.00040432,0,1,0,1
2552,1.6425e+09,0.037746,0.0017357,0.03601,0.0048614,0,0.0004708,0,1,0,1
2595,1.6425e+09,0.039125,0.0024843,0.036641,0.0049465,0,0.00018811,0,1,0,1
2640,1.6425e+09,0.040486,0.0016864,0.038799,0.0052379,0,0.00077142,0,1,0,1
2686,1.6426e+09,0.042517,-0.00089697,0.043414,0.0058609,0,0.0009027,0,1,0,1
2731,1.6426e+09,0.043804,-0.00081875,0.044623,0.0060241,0,0.00035621,0,1,0,1
2776,1.6426e+09,0.045192,-0.0014052,0.046598,0.0062907,0,0.00063298,0,1,0,1
2821,1.6426e+09,0.046687,-0.002334,0.049021,0.0066179,0,0.00070058,0,1,0,1
2870,1.6426e+09,0.048187,-0.0011045,0.049292,0.0066544,0,0.00037347,0,1,0,1
2914,1.6426e+09,0.049721,-0.0011969,0.050918,0.0068739,0,0.00045765,0,1,0,1
2961,1.6426e+09,0.051212,-0.00017441,0.051386,0.0069372,0,0.00044367,0,1,0,1
3005,1.6426e+09,0.052678,0.0013792,0.051299,0.0069254,0,3.9291e-05,0,1,0,1
3050,1.6426e+09,0.054095,0.0026172,0.051478,0.0069496,0,-3.9909e-05,0,1,0,1
3094,1.6427e+09,0.055453,0.0021728,0.05328,0.0071928,0,0.00051138,0,1,0,1
3139,1.6427e+09,0.05681,0.0022584,0.054552,0.0073645,0,0.00041469,0,1,0,1
3184,1.6427e+09,0.058167,0.002234,0.055933,0.007551,0,0.00047535,0,1,0,1
3228,1.6427e+09,0.059553,0.0013165,0.058236,0.0078619,0,0.00067652,0,1,0,1
3275,1.6427e+09,0.060926,0.001753,0.059173,0.0079884,0,0.00051536,0,1,0,1
3325,1.6427e+09,0.062362,-0.0014962,0.063858,0.0086208,0,0.0013801,0,1,0,1
3371,1.6427e+09,0.063858,0.00061063,0.063247,0.0085384,0,9.8453e-05,0,1,0,1
3415,1.6427e+09,0.065365,-0.0010326,0.066397,0.0089636,0,0.00067286,0,1,0,1
3460,1.6427e+09,0.066923,-0.0023683,0.069291,0.0093543,0,0.00081492,0,1,0,1
3505,1.6427e+09,0.068482,-0.00085315,0.069335,0.0093603,0,0.00032674,0,1,0,1
3552,1.6428e+09,0.070316,-0.0016579,0.071974,0.0097165,0,0.000761,0,1,0,1
3594,1.6428e+09,0.071704,-0.0021686,0.073873,0.0099729,0,0.00067947,0,1,0,1
3638,1.6428e+09,0.073232,-0.00062704,0.073859,0.009971,0,0.00011093,0,1,0,1
3682,1.6428e+09,0.074748,-0.00047138,0.075219,0.010155,0,0.00026148,0,1,0,1
3729,1.6428e+09,0.076245,4.1441e-05,0.076203,0.010287,0,0.00026564,0,1,0,1
3777,1.6428e+09,0.077745,-0.00095814,0.078703,0.010625,0,0.00061712,0,1,0,1
3822,1.6428e+09,0.079234,-0.00052646,0.079761,0.010768,0,0.00065232,0,1,0,1
3866,1.6428e+09,0.080711,5.2659e-05,0.080659,0.010889,0,0.0005392,0,1,0,1
3911,1.6428e+09,0.082171,0.0010419,0.081129,0.010952,0,0.00031072,0,1,0,1
3956,1.6429e+09,0.083624,0.0012523,0.082371,0.01112,0,0.00047418,0,1,0,1
4000,1.6429e+09,0.085082,0.00095694,0.084126,0.011357,0,0.00052932,0,1,0,1
4045,1.6429e+09,0.086549,0.00096611,0.085583,0.011554,0,0.0004945,0,1,0,1
4089,1.6429e+09,0.088069,-0.00076463,0.088834,0.011993,0,0.00066373,0,1,0,1
4134,1.6429e+09,0.089595,-0.00082901,0.090424,0.012207,0,0.00059724,0,1,0,1
4179,1.6429e+09,0.09114,-0.00084572,0.091986,0.012418,0,0.00046489,0,1,0,1
4228,1.6429e+09,0.092691,-0.0002963,0.092987,0.012553,0,0.00027125,0,1,0,1
4273,1.6429e+09,0.094213,-0.0016776,0.09589,0.012945,0,0.00094399,0,1,0,1
4317,1.6429e+09,0.095717,0.0015369,0.09418,0.012714,0,-0.00017602,0,1,0,1
4362,1.6429e+09,0.097298,-0.00035583,0.097654,0.013183,0,0.00071049,0,1,0,1
4404,1.643e+09,0.098459,-0.00024651,0.098705,0.013325,0,0.00042409,0,1,0,1
4447,1.643e+09,0.099865,4.2535e-05,0.099823,0.013476,0,0.00031603,0,1,0,1
4491,1.643e+09,0.10134,7.0603e-05,0.10127,0.013671,0,0.00044601,0,1,0,1
4533,1.643e+09,0.10282,-0.00020597,0.10302,0.013908,0,0.00059649,0,1,0,1
4576,1.643e+09,0.10428,0.00037089,0.10391,0.014028,0,0.00055122,0,1,0,1
4618,1.643e+09,0.10574,-0.00023115,0.10597,0.014306,0,0.00082451,0,1,0,1
4667,1.643e+09,0.10723,-0.00059665,0.10783,0.014557,0,0.00066885,0,1,0,1
4710,1.643e+09,0.10871,-0.00010292,0.10882,0.01469,0,0.00055701,0,1,0,1
4753,1.643e+09,0.11024,-0.0023641,0.11261,0.015202,0,0.0010228,0,1,0,1
4796,1.6431e+09,0.11181,-0.0026512,0.11447,0.015453,0,0.00083146,0,1,0,1
4838,1.6431e+09,0.11271,-0.0010857,0.1138,0.015363,0,3.8242e-05,0,1,0,1
4881,1.6431e+09,0.11303,-0.0019867,0.11502,0.015527,0,0.00020774,0,1,0,1
4924,1.6431e+09,0.11314,-0.00053872,0.11368,0.015347,0,-0.0002366,0,1,0,1
4967,1.6431e+09,0.1132,-0.00012371,0.11333,0.015299,0,-0.00033944,0,1,0,1
5010,1.6431e+09,0.11319,-0.00024888,0.11344,0.015314,0,0.00019848,0,1,0,1
5053,1.6431e+09,0.11319,0.00047076,0.11272,0.015217,0,-0.000297,0,1,0,1
5100,1.6431e+09,0.11315,0.0025145,0.11063,0.014935,0,-0.00068853,0,1,0,1
5143,1.6431e+09,0.11307,0.00062364,0.11244,0.01518,0,0.0003165,0,1,0,1
5186,1.6431e+09,0.11305,-9.6984e-05,0.11315,0.015275,0,0.00011391,0,1,0,1
5224,1.6432e+09,0.11301,0.0019554,0.11106,0.014992,0,-0.00026352,0,1,0,1
5268,1.6432e+09,0.11291,0.00054426,0.11236,0.015169,0,0.00032692,0,1,0,1
5313,1.6432e+09,0.11286,0.0010483,0.11181,0.015094,0,-0.00021971,0,1,0,1
5357,1.6432e+09,0.1128,0.00021448,0.11258,0.015199,0,0.0002238,0,1,0,1
5402,1.6432e+09,0.11279,-0.0010718,0.11387,0.015372,0,0.00024876,0,1,0,1
5446,1.6432e+09,0.11284,-0.0029791,0.11582,0.015635,0,0.00066208,0,1,0,1
5491,1.6432e+09,0.11289,-0.00065717,0.11355,0.015329,0,-0.00027637,0,1,0,1
5540,1.6432e+09,0.1129,-9.964e-05,0.113,0.015255,0,-0.00010613,0,1,0,1
5585,1.6432e+09,0.1129,0.00033165,0.11256,0.015196,0,-0.00019986,0,1,0,1
5629,1.6432e+09,0.11289,-0.00082128,0.11372,0.015352,0,0.00024572,0,1,0,1
5674,1.6433e+09,0.11294,-0.00023926,0.11318,0.01528,0,-0.00038028,0,1,0,1
5719,1.6433e+09,0.11294,0.00050037,0.11244,0.01518,0,-0.00027906,0,1,0,1
5763,1.6433e+09,0.11293,0.00029652,0.11264,0.015206,0,-5.8355e-05,0,1,0,1
5809,1.6433e+09,0.11291,0.0010158,0.1119,0.015106,0,-0.00031936,0,1,0,1
5856,1.6433e+09,0.11289,0.00033335,0.11256,0.015195,0,6.8755e-07,0,1,0,1
5901,1.6433e+09,0.11286,0.00095891,0.1119,0.015106,0,-9.6337e-05,0,1,0,1
5945,1.6433e+09,0.11276,0.0033019,0.10946,0.014777,0,-0.00052786,0,1,0,1
5995,1.6433e+09,0.1126,0.008629,0.10397,0.014035,0,-0.0021401,0,1,0,1
6039,1.6433e+09,0.11248,0.003375,0.1091,0.014729,0,-0.00053889,0,1,0,1
6082,1.6434e+09,0.11228,0.015062,0.09722,0.013125,0,-0.0050107,0,1,0,1
6126,1.6434e+09,0.11241,0.019514,0.0929,0.012542,0,-0.0093351,0,1,0,1
6171,1.6434e+09,0.11249,-0.007319,0.11981,0.016174,0,0.0012867,0,1,0,1
6218,1.6434e+09,0.11227,-0.016815,0.12909,0.017427,0,0.0079032,0,1,0,1
6263,1.6434e+09,0.11216,0.012664,0.099496,0.013432,0,-0.0036383,0,1,0,1
6307,1.6434e+09,0.1125,0.021077,0.091424,0.012342,0,-0.010517,0,1,0,1
6352,1.6434e+09,0.11269,0.02268,0.09001,0.012151,0,-0.011249,0,1,0,1
6399,1.6434e+09,0.11291,0.032813,0.080099,0.010813,0,-0.016074,0,1,0,1
6446,1.6434e+09,0.11328,0.0034016,0.10988,0.014833,0,-0.0060464,0,1,0,1
6490,1.6434e+09,0.11322,-0.034274,0.14749,0.019911,0,0.012667,0,1,0,1
6534,1.6435e+09,0.11298,-0.0032479,0.11623,0.015691,0,0.0031629,0,1,0,1
6582,1.6435e+09,0.11298,0.010585,0.10239,0.013823,0,-0.0017622,0,1,0,1
6626,1.6435e+09,0.11298,0.023901,0.089076,0.012025,0,-0.0088026,0,1,0,1
6671,1.6435e+09,0.11302,0.015599,0.097422,0.013152,0,-0.0065623,0,1,0,1
6716,1.6435e+09,0.11296,0.0093913,0.10357,0.013982,0,-0.003996,0,1,0,1
6761,1.6435e+09,0.1129,0.0043903,0.10851,0.014649,0,-0.0024362,0,1,0,1
6806,1.6435e+09,0.11286,-0.0032853,0.11615,0.01568,0,0.00061995,0,1,0,1
6854,1.6435e+09,0.11249,-0.00075912,0.11325,0.015288,0,0.0032122,0,1,0,1
6901,1.6435e+09,0.11226,0.013401,0.098863,0.013347,0,-0.0032414,0,1,0,1
6946,1.6436e+09,0.11199,0.0056088,0.10638,0.014361,0,0.0012591,0,1,0,1
6988,1.6436e+09,0.11153,0.019501,0.092025,0.012423,0,-0.0051074,0,1,0,1
7036,1.6436e+09,0.11135,0.010154,0.1012,0.013662,0,-0.0036639,0,1,0,1
7079,1.6436e+09,0.11173,-0.01889,0.13062,0.017633,0,0.004014,0,1,0,1
7121,1.6436e+09,0.11196,-0.0087805,0.12074,0.0163,0,0.001537,0,1,0,1
7165,1.6436e+09,0.11208,0.025674,0.086406,0.011665,0,-0.010938,0,1,0,1
7208,1.6436e+09,0.11172,-0.0069262,0.11864,0.016017,0,0.0062543,0,1,0,1
7254,1.6436e+09,0.11141,-0.016815,0.12823,0.017311,0,0.0090585,0,1,0,1
7297,1.6436e+09,0.11167,0.0151,0.096574,0.013037,0,-0.0080384,0,1,0,1
7340,1.6437e+09,0.11225,0.0099866,0.10226,0.013805,0,-0.0086366,0,1,0,1
7385,1.6437e+09,0.11245,0.022655,0.0898,0.012123,0,-0.011579,0,1,0,1
7427,1.6437e+09,0.1113,0.026084,0.085221,0.011505,0,-0.0011674,0,1,0,1
7467,1.6437e+09,0.11046,-0.041661,0.15212,0.020536,0,0.023422,0,1,0,1
7509,1.6437e+09,0.11071,-0.033108,0.14382,0.019415,0,0.011447,0,1,0,1
7553,1.6437e+09,0.11161,0.0037611,0.10785,0.014559,0,-0.0080127,0,1,0,1
7596,1.6437e+09,0.11086,0.058978,0.051884,0.0070043,0,-0.016016,0,1,0,1
7639,1.6437e+09,0.10962,-0.019382,0.129,0.017415,0,0.019323,0,1,0,1
7691,1.6437e+09,0.10954,-0.041915,0.15146,0.020447,0,0.017451,0,1,0,1
7735,1.6438e+09,0.11183,0.044277,0.06755,0.0091192,0,-0.031441,0,1,0,1
7777,1.6438e+09,0.11032,0.036214,0.074104,0.010004,0,-0.0051809,0,1,0,1
7823,1.6438e+09,0.10997,0.0025107,0.10746,0.014507,0,0.00043998,0,1,0,1
7868,1.6438e+09,0.11041,-0.047778,0.15819,0.021356,0,0.013246,0,1,0,1
7915,1.6438e+09,0.11246,0.017683,0.094777,0.012795,0,-0.026119,0,1,0,1
7959,1.6438e+09,0.11139,0.047148,0.06424,0.0086724,0,-0.0074358,0,1,0,1
8004,1.6438e+09,0.11103,0.014349,0.096686,0.013053,0,-0.0028982,0,1,0,1
8048,1.6438e+09,0.11068,-0.018107,0.12879,0.017387,0,0.0082742,0,1,0,1
8093,1.6438e+09,0.11252,0.017505,0.095017,0.012827,0,-0.024066,0,1,0,1
8143,1.6438e+09,0.11109,0.062279,0.048809,0.0065892,0,-0.013354,0,1,0,1
8187,1.6439e+09,0.11012,0.046675,0.06345,0.0085657,0,-0.011511,0,1,0,1
8233,1.6439e+09,0.10916,-0.062175,0.17133,0.02313,0,0.031021,0,1,0,1
8277,1.6439e+09,0.10929,0.088845,0.020441,0.0027596,0,-0.036399,0,1,0,1
8323,1.6439e+09,0.1083,0.006806,0.10149,0.013701,0,0.0045162,0,1,0,1
8367,1.6439e+09,0.10737,0.076749,0.030616,0.0041332,0,-0.023348,0,1,0,1
8412,1.6439e+09,0.10734,-0.08623,0.19357,0.026133,0,0.033726,0,1,0,1
8457,1.6439e+09,0.10675,0.06994,0.036814,0.0049699,0,-0.021476,0,1,0,1
8502,1.6439e+09,0.10707,-0.035834,0.1429,0.019292,0,0.013149,0,1,0,1
8547,1.6439e+09,0.10671,0.036587,0.070124,0.0094667,0,-0.01089,0,1,0,1
8595,1.6439e+09,0.10808,-0.089083,0.19716,0.026617,0,0.023516,0,1,0,1
8639,1.644e+09,0.10713,0.013871,0.093259,0.01259,0,0.0021418,0,1,0,1
8680,1.644e+09,0.10821,-0.025973,0.13418,0.018115,0,0.0016753,0,1,0,1
8725,1.644e+09,0.10814,-0.017112,0.12525,0.016909,0,0.0079531,0,1,0,1
8771,1.644e+09,0.10943,0.019963,0.089463,0.012077,0,-0.019306,0,1,0,1
8812,1.644e+09,0.10813,-0.0031524,0.11129,0.015024,0,0.011127,0,1,0,1
8858,1.644e+09,0.10866,0.0056543,0.103,0.013905,0,-0.0075286,0,1,0,1
8902,1.644e+09,0.10852,-0.055457,0.16398,0.022137,0,0.022797,0,1,0,1
8946,1.644e+09,0.10882,0.089027,0.019788,0.0026714,0,-0.037386,0,1,0,1
8992,1.644e+09,0.10764,-0.022939,0.13058,0.017628,0,0.02009,0,1,0,1
9040,1.644e+09,0.10758,0.034977,0.072606,0.0098018,0,-0.013023,0,1,0,1
9086,1.6441e+09,0.10795,-0.07677,0.18472,0.024938,0,0.027843,0,1,0,1
9130,1.6441e+09,0.10763,0.049155,0.058473,0.0078939,0,-0.01408,0,1,0,1
9175,1.6441e+09,0.10776,-0.064161,0.17192,0.023209,0,0.026642,0,1,0,1
9219,1.6441e+09,0.1081,0.017175,0.090929,0.012275,0,-0.0086749,0,1,0,1
9264,1.6441e+09,0.10992,-0.053835,0.16375,0.022106,0,0.0056264,0,1,0,1
9309,1.6441e+09,0.10887,-0.025307,0.13417,0.018113,0,0.018293,0,1,0,1
9353,1.6441e+09,0.10951,0.0021573,0.10736,0.014493,0,-0.0067451,0,1,0,1
9398,1.6441e+09,0.10993,-0.045084,0.15501,0.020927,0,0.013725,0,1,0,1
9443,1.6441e+09,0.11109,0.076399,0.034689,0.004683,0,-0.040892,0,1,0,1
9492,1.6441e+09,0.11068,-0.054076,0.16476,0.022243,0,0.023814,0,1,0,1
9538,1.6442e+09,0.11059,-0.017611,0.1282,0.017307,0,0.0097742,0,1,0,1
9581,1.6442e+09,0.112,0.067066,0.044933,0.0060659,0,-0.037237,0,1,0,1
9624,1.6442e+09,0.11053,-0.02728,0.13781,0.018605,0,0.022154,0,1,0,1
9666,1.6442e+09,0.11016,0.041851,0.068305,0.0092212,0,-0.011975,0,1,0,1
9711,1.6442e+09,0.11058,-0.059457,0.17003,0.022954,0,0.021246,0,1,0,1
9753,1.6442e+09,0.10921,0.091905,0.017306,0.0023363,0,-0.023423,0,1,0,1
9796,1.6442e+09,0.10905,-0.0483,0.15735,0.021242,0,0.021273,0,1,0,1
9839,1.6442e+09,0.10791,0.031321,0.076593,0.01034,0,-0.0036564,0,1,0,1
9884,1.6442e+09,0.10904,-0.00039341,0.10943,0.014773,0,-0.011571,0,1,0,1
9928,1.6443e+09,0.10692,0.021424,0.085501,0.011543,0,0.0070293,0,1,0,1
9971,1.6443e+09,0.10752,0.046486,0.061038,0.0082401,0,-0.024963,0,1,0,1
10014,1.6443e+09,0.10722,-0.018152,0.12537,0.016925,0,0.00933,0,1,0,1
10058,1.6443e+09,0.10825,0.077434,0.030819,0.0041606,0,-0.040867,0,1,0,1
10101,1.6443e+09,0.1075,-0.070316,0.17782,0.024006,0,0.032713,0,1,0,1
10144,1.6443e+09,0.10831,0.0055382,0.10277,0.013874,0,-0.0082268,0,1,0,1
10188,1.6443e+09,0.10956,-0.10046,0.21001,0.028352,0,0.030867,0,1,0,1
10231,1.6443e+09,0.10953,0.037855,0.071673,0.0096759,0,-0.010943,0,1,0,1
10275,1.6443e+09,0.11026,-0.072465,0.18272,0.024668,0,0.023893,0,1,0,1
10319,1.6444e+09,0.10984,-0.034871,0.14471,0.019536,0,0.014325,0,1,0,1
10363,1.6444e+09,0.11024,0.10452,0.0057237,0.0007727,0,-0.040653,0,1,0,1
10408,1.6444e+09,0.10979,-0.089103,0.1989,0.026851,0,0.042984,0,1,0,1
10454,1.6444e+09,0.10929,0.022177,0.087108,0.01176,0,-0.00047255,0,1,0,1
10498,1.6444e+09,0.11028,-0.08005,0.19033,0.025695,0,0.027697,0,1,0,1
10543,1.6444e+09,0.1085,0.052158,0.056338,0.0076056,0,-0.0040266,0,1,0,1
10587,1.6444e+09,0.10908,-0.012885,0.12196,0.016465,0,-0.0012079,0,1,0,1
10632,1.6444e+09,0.1081,-0.0073012,0.1154,0.015579,0,0.0077033,0,1,0,1
10677,1.6444e+09,0.10881,0.073573,0.035238,0.0047571,0,-0.039669,0,1,0,1
10722,1.6444e+09,0.1072,0.019563,0.087637,0.011831,0,0.0025413,0,1,0,1
10771,1.6445e+09,0.10811,0.049858,0.058248,0.0078634,0,-0.028087,0,1,0,1
10816,1.6445e+09,0.10795,-0.07193,0.17988,0.024283,0,0.03019,0,1,0,1
10861,1.6445e+09,0.1086,0.086567,0.022029,0.0029739,0,-0.03336,0,1,0,1
10905,1.6445e+09,0.10868,-0.11006,0.21874,0.02953,0,0.046935,0,1,0,1
10950,1.6445e+09,0.10888,0.0082413,0.10063,0.013586,0,-0.0027465,0,1,0,1
10995,1.6445e+09,0.10983,-0.11577,0.22559,0.030455,0,0.039539,0,1,0,1
11039,1.6445e+09,0.10877,0.056721,0.052051,0.0070268,0,-0.012587,0,1,0,1
11085,1.6445e+09,0.10936,-0.089639,0.199,0.026865,0,0.030239,0,1,0,1
11130,1.6445e+09,0.10852,0.040995,0.067523,0.0091157,0,-0.011079,0,1,0,1
11177,1.6446e+09,0.1093,0.11441,-0.0051114,-0.00069003,0,-0.04358,0,1,0,1
11222,1.6446e+09,0.10824,-0.10623,0.21447,0.028954,0,0.046574,0,1,0,1
11267,1.6446e+09,0.10791,0.024547,0.083365,0.011254,0,-0.0079137,0,1,0,1
11313,1.6446e+09,0.10919,-0.11694,0.22613,0.030528,0,0.036981,0,1,0,1
11357,1.6446e+09,0.1078,0.054295,0.053508,0.0072236,0,-0.0092493,0,1,0,1
11405,1.6446e+09,0.10934,0.06506,0.044276,0.0059773,0,-0.041513,0,1,0,1
11451,1.6446e+09,0.10977,-0.099967,0.20974,0.028315,0,0.035337,0,1,0,1
11496,1.6446e+09,0.11023,0.067132,0.0431,0.0058186,0,-0.028629,0,1,0,1
11541,1.6446e+09,0.11072,-0.10483,0.21555,0.029099,0,0.039047,0,1,0,1
11586,1.6447e+09,0.11119,0.0099177,0.10127,0.013671,0,-0.0074377,0,1,0,1
11631,1.6447e+09,0.11228,-0.077165,0.18944,0.025574,0,0.021633,0,1,0,1
11680,1.6447e+09,0.11088,0.066159,0.044721,0.0060373,0,-0.013977,0,1,0,1
11725,1.6447e+09,0.11129,-0.025258,0.13655,0.018435,0,0.0044776,0,1,0,1
11770,1.6447e+09,0.10967,0.026936,0.082731,0.011169,0,-0.00050819,0,1,0,1
11814,1.6447e+09,0.10991,0.064813,0.045099,0.0060883,0,-0.029577,0,1,0,1
11856,1.6447e+09,0.1075,0.0085981,0.098904,0.013352,0,0.016033,0,1,0,1
11901,1.6447e+09,0.10792,0.02808,0.079837,0.010778,0,-0.015685,0,1,0,1
11947,1.6447e+09,0.10717,-0.096529,0.2037,0.0275,0,0.044419,0,1,0,1
11991,1.6447e+09,0.10704,0.095088,0.011951,0.0016134,0,-0.034699,0,1,0,1
12037,1.6448e+09,0.10684,-0.13133,0.23817,0.032152,0,0.055477,0,1,0,1
12080,1.6448e+09,0.10767,0.038097,0.069571,0.0093921,0,-0.017591,0,1,0,1
12125,1.6448e+09,0.10918,-0.05962,0.1688,0.022788,0,0.003893,0,1,0,1
12169,1.6448e+09,0.10901,0.0027555,0.10625,0.014344,0,0.0041216,0,1,0,1
12213,1.6448e+09,0.111,-0.027853,0.13885,0.018745,0,-0.0045899,0,1,0,1
12256,1.6448e+09,0.11092,-0.033668,0.14459,0.01952,0,0.014949,0,1,0,1
12298,1.6448e+09,0.11215,0.10482,0.0073271,0.00098916,0,-0.049814,0,1,0,1
12341,1.6448e+09,0.11161,-0.08573,0.19734,0.026641,0,0.038352,0,1,0,1
12387,1.6448e+09,0.11155,0.03849,0.07306,0.0098631,0,-0.012348,0,1,0,1
12429,1.6448e+09,0.11264,-0.030607,0.14325,0.019338,0,0.002135,0,1,0,1
12474,1.6449e+09,0.11052,0.05196,0.05856,0.0079056,0,-0.00224,0,1,0,1
12516,1.6449e+09,0.11109,-0.024408,0.1355,0.018292,0,0.005643,0,1,0,1
12563,1.6449e+09,0.11011,-0.045935,0.15604,0.021066,0,0.027118,0,1,0,1
12605,1.6449e+09,0.11079,0.067553,0.04324,0.0058374,0,-0.032027,0,1,0,1
12647,1.6449e+09,0.1098,-0.043723,0.15352,0.020725,0,0.025265,0,1,0,1
12691,1.6449e+09,0.11042,0.041449,0.068972,0.0093112,0,-0.023623,0,1,0,1
12736,1.6449e+09,0.11113,-0.051044,0.16218,0.021894,0,0.01018,0,1,0,1
12779,1.6449e+09,0.11011,0.037019,0.073093,0.0098676,0,-0.003697,0,1,0,1
12827,1.6449e+09,0.11179,-0.0070687,0.11886,0.016046,0,-0.0084212,0,1,0,1
12867,1.645e+09,0.11245,-0.062296,0.17475,0.023591,0,0.01473,0,1,0,1
12911,1.645e+09,0.11137,0.083265,0.028109,0.0037948,0,-0.020792,0,1,0,1
12960,1.645e+09,0.11224,-0.061686,0.17392,0.023479,0,0.019693,0,1,0,1
13005,1.645e+09,0.11135,-0.026479,0.13783,0.018607,0,0.020684,0,1,0,1
13050,1.645e+09,0.11226,0.044369,0.067895,0.0091658,0,-0.025344,0,1,0,1
13095,1.645e+09,0.11013,-0.029835,0.13996,0.018895,0,0.02932,0,1,0,1
13139,1.645e+09,0.11008,0.070804,0.039279,0.0053027,0,-0.029102,0,1,0,1
13183,1.645e+09,0.10946,-0.046757,0.15622,0.021089,0,0.021346,0,1,0,1
13227,1.645e+09,0.10923,0.13354,-0.024318,-0.0032829,0,-0.052852,0,1,0,1
13272,1.6451e+09,0.10834,-0.045218,0.15356,0.020731,0,0.022275,0,1,0,1
13317,1.6451e+09,0.10791,0.075134,0.032776,0.0044248,0,-0.028533,0,1,0,1
13361,1.6451e+09,0.1091,-0.05866,0.16776,0.022648,0,0.01243,0,1,0,1
13410,1.6451e+09,0.10826,0.052447,0.05581,0.0075343,0,-0.013357,0,1,0,1
13454,1.6451e+09,0.10926,-0.047759,0.15701,0.021197,0,0.012795,0,1,0,1
13499,1.6451e+09,0.10895,-0.017366,0.12631,0.017052,0,0.011486,0,1,0,1
13543,1.6451e+09,0.11061,0.0043655,0.10624,0.014343,0,-0.012301,0,1,0,1
13556,1.6452e+09,0.11015,-0.0092805,0.11943,0.016123,0,0.0053741,0,1,0,1
13601,1.6452e+09,0.10969,-0.078697,0.18839,0.025433,0,0.033144,0,1,0,1
13649,1.6452e+09,0.10931,0.099165,0.010145,0.0013696,0,-0.03745,0,1,0,1
13697,1.6452e+09,0.10787,0.031464,0.076409,0.010315,0,-0.0080403,0,1,0,1
13742,1.6452e+09,0.10678,0.0066211,0.10016,0.013522,0,0.0075445,0,1,0,1
13789,1.6452e+09,0.1075,0.011083,0.096419,0.013017,0,-0.0041413,0,1,0,1
13834,1.6452e+09,0.10736,0.0091364,0.098228,0.013261,0,-0.0022184,0,1,0,1
13880,1.6452e+09,0.10743,0.012712,0.09472,0.012787,0,-0.0082146,0,1,0,1
13925,1.6453e+09,0.10827,-0.053441,0.16171,0.021831,0,0.0092681,0,1,0,1
13970,1.6453e+09,0.10852,0.041089,0.06743,0.009103,0,-0.019918,0,1,0,1
14016,1.6453e+09,0.10917,0.012971,0.096197,0.012987,0,-0.011223,0,1,0,1
14065,1.6453e+09,0.11012,-0.037618,0.14774,0.019944,0,0.0088659,0,1,0,1
14110,1.6453e+09,0.11124,-0.030683,0.14192,0.01916,0,0.0062541,0,1,0,1
14155,1.6453e+09,0.11136,-0.020825,0.13218,0.017845,0,0.011285,0,1,0,1
14200,1.6453e+09,0.11132,-0.037366,0.14868,0.020072,0,0.018247,0,1,0,1
14244,1.6453e+09,0.11137,-0.031433,0.1428,0.019278,0,0.012444,0,1,0,1
14289,1.6453e+09,0.11115,0.018518,0.092635,0.012506,0,-0.0064211,0,1,0,1
14333,1.6453e+09,0.10983,0.058179,0.051655,0.0069734,0,-0.015003,0,1,0,1
14382,1.6454e+09,0.10861,0.0022977,0.10631,0.014352,0,0.0044403,0,1,0,1
14422,1.6454e+09,0.10831,0.0071874,0.10112,0.013651,0,0.002549,0,1,0,1
14464,1.6454e+09,0.10738,-0.00072267,0.1081,0.014593,0,0.0068704,0,1,0,1
14513,1.6454e+09,0.10661,-0.022233,0.12884,0.017394,0,0.016219,0,1,0,1
14555,1.6454e+09,0.10763,-0.044532,0.15217,0.020542,0,0.0097028,0,1,0,1
14600,1.6454e+09,0.10834,-0.012565,0.1209,0.016322,0,-0.0011091,0,1,0,1
14642,1.6454e+09,0.10892,-0.010272,0.11919,0.016091,0,-0.001755,0,1,0,1
14683,1.6454e+09,0.1093,-0.051524,0.16083,0.021711,0,0.016235,0,1,0,1
14725,1.6454e+09,0.1107,-0.0083766,0.11908,0.016076,0,-0.0093095,0,1,0,1
14767,1.6455e+09,0.11164,-0.00098393,0.11263,0.015205,0,-0.0082998,0,1,0,1
14810,1.6455e+09,0.11165,0.012086,0.099563,0.013441,0,-0.0052468,0,1,0,1
14852,1.6455e+09,0.11199,-0.014575,0.12657,0.017087,0,0.0026365,0,1,0,1
14895,1.6455e+09,0.11195,0.013721,0.09823,0.013261,0,-0.004494,0,1,0,1
14943,1.6455e+09,0.11135,0.035438,0.075907,0.010247,0,-0.0079949,0,1,0,1
14986,1.6455e+09,0.10994,0.0093788,0.10056,0.013575,0,0.0091896,0,1,0,1
15029,1.6455e+09,0.10961,0.011945,0.097664,0.013185,0,-0.0022424,0,1,0,1
15071,1.6455e+09,0.10879,0.014378,0.094415,0.012746,0,0.0018163,0,1,0,1
15114,1.6455e+09,0.10765,0.039105,0.068548,0.009254,0,-0.0057365,0,1,0,1
15156,1.6455e+09,0.10658,-0.01867,0.12525,0.016908,0,0.016482,0,1,0,1
15199,1.6456e+09,0.10684,-0.010723,0.11757,0.015872,0,0.0013906,0,1,0,1
15241,1.6456e+09,0.10652,-0.0025582,0.10908,0.014725,0,0.00073717,0,1,0,1
15286,1.6456e+09,0.10631,0.0086373,0.097676,0.013186,0,-0.00030807,0,1,0,1
15331,1.6456e+09,0.1078,-0.045731,0.15353,0.020727,0,0.0053965,0,1,0,1
15379,1.6456e+09,0.10918,-0.023353,0.13253,0.017892,0,-0.0028105,0,1,0,1
15425,1.6456e+09,0.11035,0.013463,0.096883,0.013079,0,-0.014602,0,1,0,1
15469,1.6456e+09,0.11097,-0.026161,0.13713,0.018513,0,0.005576,0,1,0,1
15515,1.6456e+09,0.11233,-0.021158,0.13348,0.01802,0,-0.0031604,0,1,0,1
15562,1.6456e+09,0.11288,-0.023716,0.1366,0.018441,0,0.0087252,0,1,0,1
15607,1.6457e+09,0.11244,0.036711,0.075725,0.010223,0,-0.0093987,0,1,0,1
15652,1.6457e+09,0.11225,-0.028122,0.14037,0.018951,0,0.013141,0,1,0,1
15696,1.6457e+09,0.11075,0.073363,0.037383,0.0050467,0,-0.0176,0,1,0,1
15741,1.6457e+09,0.10988,0.063122,0.046763,0.006313,0,-0.019212,0,1,0,1
15791,1.6457e+09,0.10785,-0.0062017,0.11405,0.015397,0,0.016805,0,1,0,1
15835,1.6457e+09,0.10756,0.025021,0.082535,0.011142,0,-0.0074503,0,1,0,1
15880,1.6457e+09,0.10683,-0.012312,0.11914,0.016084,0,0.012732,0,1,0,1
15925,1.6457e+09,0.10654,-0.0016926,0.10823,0.014611,0,0.0048147,0,1,0,1
15971,1.6457e+09,0.10705,-0.11083,0.21788,0.029414,0,0.040161,0,1,0,1
16017,1.6457e+09,0.10853,0.008325,0.10021,0.013528,0,-0.016376,0,1,0,1
16056,1.6458e+09,0.10811,-0.033959,0.14207,0.019179,0,-0.0010513,0,1,0,1
16101,1.6458e+09,0.10903,-0.013592,0.12262,0.016554,0,0.0078085,0,1,0,1
16148,1.6458e+09,0.11137,0.0046773,0.10669,0.014403,0,-0.019106,0,1,0,1
16193,1.6458e+09,0.11224,0.036072,0.076164,0.010282,0,-0.020675,0,1,0,1
16243,1.6458e+09,0.11273,0.064931,0.0478,0.006453,0,-0.029629,0,1,0,1
16288,1.6458e+09,0.11201,-0.045541,0.15756,0.02127,0,0.023965,0,1,0,1
16332,1.6458e+09,0.11224,0.017902,0.094335,0.012735,0,-0.0073026,0,1,0,1
16379,1.6458e+09,0.11209,-0.017563,0.12965,0.017503,0,0.012026,0,1,0,1
16429,1.6458e+09,0.11025,-0.0012528,0.11151,0.015053,0,0.013213,0,1,0,1
16473,1.6459e+09,0.10998,0.050141,0.059836,0.0080779,0,-0.018407,0,1,0,1
16518,1.6459e+09,0.10865,0.0076869,0.10096,0.01363,0,0.0094656,0,1,0,1
16563,1.6459e+09,0.10796,0.083076,0.024883,0.0033593,0,-0.025196,0,1,0,1
16607,1.6459e+09,0.10746,-0.087994,0.19546,0.026387,0,0.039604,0,1,0,1
16653,1.6459e+09,0.10747,0.015781,0.091684,0.012377,0,-0.0038639,0,1,0,1
16701,1.6459e+09,0.10769,-0.048083,0.15578,0.02103,0,0.01828,0,1,0,1
16746,1.6459e+09,0.10673,0.021961,0.084768,0.011444,0,0.00068455,0,1,0,1
16790,1.6459e+09,0.10819,-0.037279,0.14547,0.019638,0,0.0018152,0,1,0,1
16836,1.6459e+09,0.10831,0.017022,0.091291,0.012324,0,-0.010757,0,1,0,1
16882,1.6459e+09,0.10915,0.042366,0.066787,0.0090163,0,-0.026534,0,1,0,1
16925,1.646e+09,0.1088,-0.049735,0.15853,0.021402,0,0.021266,0,1,0,1
16967,1.646e+09,0.1107,0.017219,0.093483,0.01262,0,-0.016405,0,1,0,1
17010,1.646e+09,0.11054,-0.066864,0.17741,0.02395,0,0.026915,0,1,0,1
17053,1.646e+09,0.11019,0.032411,0.077784,0.010501,0,-0.0053692,0,1,0,1
17095,1.646e+09,0.11113,-0.10364,0.21477,0.028993,0,0.034957,0,1,0,1
17142,1.646e+09,0.11086,-0.012,0.12286,0.016587,0,0.0070562,0,1,0,1
17184,1.646e+09,0.11089,-0.031061,0.14195,0.019164,0,0.012386,0,1,0,1
17226,1.646e+09,0.10981,0.027419,0.082392,0.011123,0,-0.002419,0,1,0,1
17271,1.646e+09,0.11064,0.0041127,0.10652,0.014381,0,-0.011694,0,1,0,1
17313,1.6461e+09,0.10957,0.018845,0.090721,0.012247,0,-0.0020911,0,1,0,1
17360,1.6461e+09,0.1088,0.040076,0.068719,0.0092771,0,-0.0064723,0,1,0,1
17402,1.6461e+09,0.10951,-0.08396,0.19347,0.026118,0,0.029046,0,1,0,1
17445,1.6461e+09,0.10954,-0.0068675,0.1164,0.015715,0,0.0048766,0,1,0,1
17488,1.6461e+09,0.10958,-0.025334,0.13491,0.018213,0,0.0088761,0,1,0,1
17530,1.6461e+09,0.10868,0.025869,0.082811,0.011179,0,-0.0040914,0,1,0,1
17578,1.6461e+09,0.10943,-0.030955,0.14039,0.018952,0,0.0034813,0,1,0,1
17620,1.6461e+09,0.1085,0.062551,0.045952,0.0062035,0,-0.019037,0,1,0,1
17663,1.6461e+09,0.10863,0.027446,0.081184,0.01096,0,-0.013749,0,1,0,1
17705,1.6461e+09,0.10776,-0.093835,0.20159,0.027215,0,0.037252,0,1,0,1
17751,1.6462e+09,0.10866,0.013892,0.094769,0.012794,0,-0.0048946,0,1,0,1
17796,1.6462e+09,0.10885,-0.022299,0.13115,0.017705,0,0.0076981,0,1,0,1
17840,1.6462e+09,0.108,0.030845,0.077153,0.010416,0,-0.0072015,0,1,0,1
17884,1.6462e+09,0.10948,-0.014863,0.12435,0.016787,0,-0.0093596,0,1,0,1
17929,1.6462e+09,0.10884,0.042523,0.066312,0.0089521,0,-0.013093,0,1,0,1
17977,1.6462e+09,0.10945,0.04537,0.064082,0.0086511,0,-0.023992,0,1,0,1
18026,1.6462e+09,0.10937,-0.11168,0.22106,0.029843,0,0.041535,0,1,0,1
18071,1.6462e+09,0.10959,0.049684,0.059902,0.0080867,0,-0.021019,0,1,0,1
18118,1.6462e+09,0.11008,0.025781,0.084294,0.01138,0,-0.018089,0,1,0,1
18166,1.6463e+09,0.10914,-0.087012,0.19615,0.02648,0,0.037766,0,1,0,1
18217,1.6463e+09,0.10922,0.018434,0.090781,0.012255,0,-0.0014312,0,1,0,1
18262,1.6463e+09,0.10984,-0.032225,0.14206,0.019179,0,0.0087952,0,1,0,1
18306,1.6463e+09,0.10852,-0.010422,0.11894,0.016057,0,0.01572,0,1,0,1
18351,1.6463e+09,0.11009,0.013179,0.09691,0.013083,0,-0.018414,0,1,0,1
18400,1.6463e+09,0.10967,-0.031321,0.14099,0.019033,0,0.014595,0,1,0,1
18445,1.6463e+09,0.10982,0.056475,0.053349,0.0072021,0,-0.025282,0,1,0,1
18493,1.6463e+09,0.1104,-0.074653,0.18506,0.024983,0,0.019893,0,1,0,1
18539,1.6463e+09,0.11032,-0.024258,0.13458,0.018168,0,0.01192,0,1,0,1
18582,1.6464e+09,0.11074,0.044004,0.066736,0.0090094,0,-0.018058,0,1,0,1
18626,1.6464e+09,0.11061,-0.071498,0.1821,0.024584,0,0.028847,0,1,0,1
18672,1.6464e+09,0.11083,0.053282,0.057551,0.0077694,0,-0.023427,0,1,0,1
18717,1.6464e+09,0.11093,-0.0083847,0.11931,0.016107,0,0.00060453,0,1,0,1
18761,1.6464e+09,0.10941,0.036387,0.073024,0.0098582,0,-0.002216,0,1,0,1
18806,1.6464e+09,0.11028,-0.0058946,0.11618,0.015684,0,-0.0058759,0,1,0,1
18854,1.6464e+09,0.10981,0.0045824,0.10523,0.014206,0,0.0012783,0,1,0,1
18899,1.6464e+09,0.10962,0.031795,0.077828,0.010507,0,-0.010226,0,1,0,1
18944,1.6464e+09,0.10879,-0.06134,0.17013,0.022968,0,0.032579,0,1,0,1
18989,1.6465e+09,0.10962,0.016965,0.092653,0.012508,0,-0.012829,0,1,0,1
19037,1.6465e+09,0.11022,0.027696,0.082527,0.011141,0,-0.016999,0,1,0,1
19082,1.6465e+09,0.10951,0.034386,0.075125,0.010142,0,-0.0091121,0,1,0,1
19127,1.6465e+09,0.11019,-0.016131,0.12632,0.017054,0,-0.0009232,0,1,0,1
19172,1.6465e+09,0.11064,0.01491,0.095725,0.012923,0,-0.010388,0,1,0,1
19217,1.6465e+09,0.11084,0.0011338,0.10971,0.014811,0,-0.0017701,0,1,0,1
19261,1.6465e+09,0.11022,0.00052356,0.1097,0.014809,0,0.00603,0,1,0,1
19310,1.6465e+09,0.11095,-0.016388,0.12734,0.017191,0,0.0015367,0,1,0,1
19355,1.6465e+09,0.11086,0.0080513,0.10281,0.013879,0,-0.0014977,0,1,0,1
19399,1.6465e+09,0.11066,0.044398,0.06626,0.0089451,0,-0.015852,0,1,0,1
19447,1.6466e+09,0.1103,-0.018063,0.12836,0.017329,0,0.0088314,0,1,0,1
19486,1.6466e+09,0.10944,0.026756,0.082682,0.011162,0,-0.0084729,0,1,0,1
19529,1.6466e+09,0.10894,0.009324,0.099619,0.013449,0,0.0021887,0,1,0,1
19572,1.6466e+09,0.10836,-0.04152,0.14988,0.020234,0,0.024727,0,1,0,1
19615,1.6466e+09,0.10897,-0.046254,0.15523,0.020956,0,0.016627,0,1,0,1
19658,1.6466e+09,0.10911,-0.036434,0.14555,0.019649,0,0.016255,0,1,0,1
19701,1.6466e+09,0.10919,0.008863,0.10033,0.013545,0,-0.0018747,0,1,0,1
19748,1.6466e+09,0.10952,-0.082119,0.19164,0.025872,0,0.02864,0,1,0,1
19791,1.6466e+09,0.1102,-0.019733,0.12993,0.017541,0,0.00015833,0,1,0,1
19833,1.6467e+09,0.11109,-0.015646,0.12673,0.017109,0,-0.0035255,0,1,0,1
19877,1.6467e+09,0.11047,0.040305,0.070163,0.009472,0,-0.012462,0,1,0,1
19923,1.6467e+09,0.11092,0.001938,0.10899,0.014713,0,-0.0041081,0,1,0,1
19965,1.6467e+09,0.11163,-0.040327,0.15195,0.020514,0,0.013566,0,1,0,1
20009,1.6467e+09,0.11149,0.013646,0.097847,0.013209,0,-0.00060813,0,1,0,1
20052,1.6467e+09,0.11135,-0.073929,0.18528,0.025013,0,0.029118,0,1,0,1
20096,1.6467e+09,0.11081,0.0090703,0.10174,0.013735,0,-0.00109,0,1,0,1
20143,1.6467e+09,0.11088,0.030503,0.080377,0.010851,0,-0.015185,0,1,0,1
20186,1.6467e+09,0.10947,0.052088,0.057384,0.0077468,0,-0.01373,0,1,0,1
20228,1.6467e+09,0.1093,0.035225,0.074077,0.01,0,-0.015428,0,1,0,1
20274,1.6468e+09,0.10895,0.0014662,0.10749,0.014511,0,0.0025561,0,1,0,1
20316,1.6468e+09,0.10938,0.024763,0.084621,0.011424,0,-0.0075436,0,1,0,1
20360,1.6468e+09,0.11005,-0.0067255,0.11678,0.015765,0,-0.0075054,0,1,0,1
20405,1.6468e+09,0.10988,5.9724e-05,0.10982,0.014826,0,-0.0042202,0,1,0,1
20449,1.6468e+09,0.11022,0.051086,0.059136,0.0079834,0,-0.023679,0,1,0,1
20495,1.6468e+09,0.11015,-0.042985,0.15313,0.020673,0,0.018844,0,1,0,1
20540,1.6468e+09,0.11111,0.011693,0.099416,0.013421,0,-0.010256,0,1,0,1
20590,1.6468e+09,0.11213,-0.091508,0.20363,0.02749,0,0.031304,0,1,0,1
20635,1.6468e+09,0.11176,0.014556,0.097201,0.013122,0,0.0019105,0,1,0,1
20680,1.6469e+09,0.11255,-0.082675,0.19523,0.026356,0,0.02831,0,1,0,1
20725,1.6469e+09,0.11238,-0.03437,0.14675,0.019811,0,0.015078,0,1,0,1
20774,1.6469e+09,0.11257,0.088876,0.023693,0.0031985,0,-0.03887,0,1,0,1
20819,1.6469e+09,0.11112,0.0074486,0.10367,0.013995,0,0.0066926,0,1,0,1
20864,1.6469e+09,0.11107,0.060458,0.050608,0.0068321,0,-0.021336,0,1,0,1
20910,1.6469e+09,0.11104,-0.053961,0.165,0.022275,0,0.024027,0,1,0,1
20955,1.6469e+09,0.10991,0.04296,0.066952,0.0090385,0,-0.0040994,0,1,0,1
20999,1.6469e+09,0.10976,-0.072802,0.18256,0.024646,0,0.033353,0,1,0,1
21048,1.6469e+09,0.1091,-0.0056538,0.11475,0.015491,0,0.009737,0,1,0,1
21095,1.647e+09,0.11041,0.093914,0.016493,0.0022266,0,-0.041788,0,1,0,1
21136,1.647e+09,0.10876,0.0058373,0.10292,0.013895,0,0.0038871,0,1,0,1
21185,1.647e+09,0.10939,-0.011185,0.12058,0.016278,0,0.0024698,0,1,0,1
21230,1.647e+09,0.11079,-0.078331,0.18912,0.025532,0,0.021772,0,1,0,1
21275,1.647e+09,0.11056,-0.017531,0.12809,0.017292,0,0.011478,0,1,0,1
21319,1.647e+09,0.11149,-0.034213,0.14571,0.01967,0,0.0036261,0,1,0,1
21364,1.647e+09,0.11137,-0.018357,0.12973,0.017513,0,0.0055934,0,1,0,1
21409,1.647e+09,0.11223,0.066661,0.045567,0.0061515,0,-0.035983,0,1,0,1
21458,1.647e+09,0.11142,0.019322,0.092094,0.012433,0,-0.0052689,0,1,0,1
21503,1.647e+09,0.11191,0.047393,0.064518,0.0087099,0,-0.025183,0,1,0,1
21548,1.6471e+09,0.11156,-0.040563,0.15213,0.020537,0,0.019047,0,1,0,1
21594,1.6471e+09,0.11088,0.064556,0.046323,0.0062536,0,-0.018025,0,1,0,1
21638,1.6471e+09,0.11029,-0.060445,0.17073,0.023049,0,0.030313,0,1,0,1
21684,1.6471e+09,0.10962,0.026467,0.083155,0.011226,0,-0.0036358,0,1,0,1
21728,1.6471e+09,0.11022,-0.057265,0.16748,0.02261,0,0.01687,0,1,0,1
21774,1.6471e+09,0.10842,0.0050551,0.10336,0.013954,0,0.010768,0,1,0,1
21818,1.6471e+09,0.10848,-0.013052,0.12153,0.016406,0,0.00098719,0,1,0,1
21863,1.6471e+09,0.10758,-0.0050946,0.11267,0.015211,0,0.0060542,0,1,0,1
21912,1.6471e+09,0.10845,0.10281,0.0056419,0.00076166,0,-0.049188,0,1,0,1
21958,1.6472e+09,0.10784,-0.063883,0.17173,0.023183,0,0.028522,0,1,0,1
22000,1.6472e+09,0.10877,-0.00078496,0.10955,0.014789,0,-0.001285,0,1,0,1
22046,1.6472e+09,0.11058,0.087615,0.022968,0.0031007,0,-0.043896,0,1,0,1
22089,1.6472e+09,0.11047,-0.077826,0.1883,0.02542,0,0.033387,0,1,0,1
22131,1.6472e+09,0.11133,0.041341,0.069985,0.009448,0,-0.01803,0,1,0,1
22174,1.6472e+09,0.11255,-0.08437,0.19692,0.026584,0,0.026198,0,1,0,1
22218,1.6472e+09,0.11146,0.045407,0.066054,0.0089173,0,-0.0070349,0,1,0,1
22261,1.6472e+09,0.11134,-0.07073,0.18207,0.02458,0,0.030679,0,1,0,1
22304,1.6472e+09,0.11026,0.050701,0.059557,0.0080402,0,-0.010057,0,1,0,1
22350,1.6473e+09,0.11102,0.0019762,0.10904,0.014721,0,-0.0080055,0,1,0,1
22395,1.6473e+09,0.10869,0.045716,0.062974,0.0085015,0,-0.001301,0,1,0,1
22437,1.6473e+09,0.10884,-0.0025501,0.11139,0.015037,0,-0.0022334,0,1,0,1
22481,1.6473e+09,0.10743,0.022102,0.085326,0.011519,0,0.0021639,0,1,0,1
22527,1.6473e+09,0.10798,0.068618,0.039361,0.0053138,0,-0.025139,0,1,0,1
22569,1.6473e+09,0.10808,-0.10687,0.21496,0.029019,0,0.043024,0,1,0,1
22612,1.6473e+09,0.10847,0.033779,0.074694,0.010084,0,-0.016735,0,1,0,1
22654,1.6473e+09,0.11007,-0.067334,0.1774,0.023949,0,0.011239,0,1,0,1
22698,1.6473e+09,0.10973,0.017758,0.091973,0.012416,0,-0.0058825,0,1,0,1
22739,1.6473e+09,0.1102,-0.055231,0.16543,0.022333,0,0.013116,0,1,0,1
22785,1.6474e+09,0.11029,0.025244,0.085046,0.011481,0,-0.0075425,0,1,0,1
22830,1.6474e+09,0.11166,0.053766,0.057891,0.0078153,0,-0.033081,0,1,0,1
22875,1.6474e+09,0.11039,-0.009191,0.11958,0.016143,0,0.013055,0,1,0,1
22923,1.6474e+09,0.11067,0.066858,0.043809,0.0059142,0,-0.024619,0,1,0,1
22967,1.6474e+09,0.11103,-0.043315,0.15435,0.020837,0,0.012419,0,1,0,1
23012,1.6474e+09,0.10938,0.096767,0.012615,0.001703,0,-0.026871,0,1,0,1
23058,1.6474e+09,0.10942,-0.014547,0.12397,0.016736,0,0.0013399,0,1,0,1
23103,1.6474e+09,0.10763,0.035548,0.072077,0.0097304,0,-6.4074e-05,0,1,0,1
23148,1.6474e+09,0.108,0.063397,0.044601,0.0060211,0,-0.025546,0,1,0,1
23196,1.6475e+09,0.10667,-0.029196,0.13586,0.018342,0,0.027113,0,1,0,1
23241,1.6475e+09,0.10768,0.026137,0.08154,0.011008,0,-0.0169,0,1,0,1
23286,1.6475e+09,0.10791,-0.13419,0.2421,0.032683,0,0.052373,0,1,0,1
23331,1.6475e+09,0.10822,0.06878,0.039445,0.0053251,0,-0.026282,0,1,0,1
23379,1.6475e+09,0.10906,-0.022156,0.13122,0.017714,0,-0.0048878,0,1,0,1
23420,1.6475e+09,0.10828,-0.065472,0.17375,0.023456,0,0.031706,0,1,0,1
23465,1.6475e+09,0.10929,0.088865,0.020421,0.0027568,0,-0.041943,0,1,0,1
23509,1.6475e+09,0.10868,-0.075091,0.18378,0.02481,0,0.036916,0,1,0,1
23556,1.6475e+09,0.10913,0.0308,0.078331,0.010575,0,-0.013657,0,1,0,1
23603,1.6475e+09,0.10987,-0.13779,0.24765,0.033433,0,0.048958,0,1,0,1
23645,1.6476e+09,0.10971,0.06665,0.043062,0.0058134,0,-0.022085,0,1,0,1
23690,1.6476e+09,0.11012,-0.047139,0.15726,0.02123,0,0.010696,0,1,0,1
23734,1.6476e+09,0.10853,0.06933,0.039202,0.0052923,0,-0.015868,0,1,0,1
23779,1.6476e+09,0.11015,0.054871,0.055281,0.007463,0,-0.036504,0,1,0,1
23824,1.6476e+09,0.10855,0.033649,0.074901,0.010112,0,-0.00045763,0,1,0,1
23869,1.6476e+09,0.1097,0.027248,0.082454,0.011131,0,-0.020263,0,1,0,1
23913,1.6476e+09,0.10929,-0.13846,0.24776,0.033447,0,0.058701,0,1,0,1
23959,1.6476e+09,0.10922,0.05763,0.051587,0.0069643,0,-0.017568,0,1,0,1
24005,1.6476e+09,0.10954,-0.11836,0.2279,0.030767,0,0.042846,0,1,0,1
24049,1.6477e+09,0.10832,0.072636,0.035686,0.0048177,0,-0.019517,0,1,0,1
24098,1.6477e+09,0.10978,0.071398,0.038384,0.0051819,0,-0.040691,0,1,0,1
24142,1.6477e+09,0.10871,-0.10719,0.21591,0.029147,0,0.05065,0,1,0,1
24188,1.6477e+09,0.10843,0.084565,0.023864,0.0032216,0,-0.03083,0,1,0,1
24233,1.6477e+09,0.10953,0.0042679,0.10526,0.01421,0,-0.011333,0,1,0,1
24277,1.6477e+09,0.10741,-0.10271,0.21012,0.028366,6.9824e-05,0.057571,0,1,0,0
24325,1.6477e+09,0.10665,0.02987,0.076778,0.010365,3.8496e-05,0.0076999,0,1,0,1
24370,1.6477e+09,0.10783,0.19882,-0.090992,-0.012284,5.9436e-06,-0.085234,0,1,0,1
24416,1.6477e+09,0.10876,-0.045768,0.15452,0.020861,5.4058e-05,0.0039419,0,1,0,1
24463,1.6477e+09,0.1076,-0.22322,0.33082,0.044661,1.4686e-07,0.092566,0,1,0,1
24511,1.6478e+09,0.10452,-0.26242,0.36694,0.049536,7.4922e-06,0.11983,0,1,0,1
24557,1.6478e+09,0.10644,-0.2517,0.35813,0.048348,8.6247e-05,0.12001,0,1,0,0
24599,1.6478e+09,0.10327,0.027818,0.075455,0.010186,7.7814e-06,0.020359,0,1,0,1
24643,1.6478e+09,0.10372,0.23541,-0.1317,-0.017779,5.3388e-05,-0.086614,0,1,0,1
24686,1.6478e+09,0.10515,0.1491,-0.043947,-0.0059328,3.5573e-05,-0.071175,0,1,0,1
24728,1.6478e+09,0.10418,-0.091333,0.19552,0.026395,7.4846e-05,0.03972,0,1,0,1
24772,1.6478e+09,0.10229,-0.045526,0.14782,0.019955,0.00010426,0.037242,0,1,0,0
24814,1.6478e+09,0.10134,0.17643,-0.07509,-0.010137,3.5829e-05,-0.05365,0,1,0,1
24857,1.6478e+09,0.10297,0.19613,-0.093155,-0.012576,2.7186e-06,-0.089823,0,1,0,0
24899,1.6479e+09,0.10284,-0.015233,0.11807,0.015939,5.0687e-05,-0.0012643,0,1,0,1
24945,1.6479e+09,0.1025,-0.074818,0.17731,0.023937,0.00013502,0.029447,0,1,0,0
24992,1.6479e+09,0.10117,-0.044837,0.14601,0.019711,0.00016669,0.033822,0,1,0,0
25035,1.6479e+09,0.10147,0.10166,-0.00018524,-2.5008e-05,0.00014911,-0.03635,0,1,0,1
25078,1.6479e+09,0.10322,0.072061,0.031155,0.004206,0.0001862,-0.040262,0,1,0,1
25120,1.6479e+09,0.10433,-0.061344,0.16567,0.022365,0.00022022,0.013656,0,1,0,1
25163,1.6479e+09,0.10215,-0.15895,0.26109,0.035248,0.00026212,0.085301,0,1,0,0
25205,1.6479e+09,0.10238,0.096435,0.0059455,0.00080264,0.00021738,-0.027316,0,1,0,1
25249,1.6479e+09,0.10342,0.13017,-0.026753,-0.0036117,0.00027303,-0.058108,0,1,0,0
25292,1.6479e+09,0.10447,0.002844,0.10163,0.01372,0.0003167,-0.013288,0,1,0,1
25335,1.648e+09,0.10358,-0.10038,0.20396,0.027535,0.00040085,0.045081,0,1,0,0
25380,1.648e+09,0.10168,-0.057179,0.15886,0.021446,0.00042321,0.040376,0,1,0,0
25421,1.648e+09,0.10268,0.081409,0.021268,0.0028712,0.00039005,-0.018457,0,1,0,1
25465,1.648e+09,0.10189,0.18519,-0.083302,-0.011246,0.00039243,-0.07476,0,1,0,0
25510,1.648e+09,0.10183,-0.056884,0.15872,0.021427,0.00040141,0.016344,0,1,0,1
25554,1.648e+09,0.10027,-0.20897,0.30924,0.041747,0.00032184,0.092316,0,1,0,1
25600,1.648e+09,0.097797,-0.087539,0.18534,0.02502,0.00022654,0.063139,0,1,0,1
25645,1.648e+09,0.097881,0.1006,-0.0027236,-0.00036769,0.00018981,-0.026752,0,1,0,1
25689,1.648e+09,0.099351,0.099115,0.00023544,3.1784e-05,0.00022499,-0.048054,0,1,0,1
25734,1.648e+09,0.099508,-0.14996,0.24947,0.033678,0.00029003,0.057405,0,1,0,1
25779,1.6481e+09,0.097363,-0.21614,0.3135,0.042323,0.00033296,0.10909,0,1,0,0
25824,1.6481e+09,0.10339,-0.015726,0.11912,0.016081,0.00029711,0.018911,0,1,0,1
25873,1.6481e+09,0.10454,0.13783,-0.033299,-0.0044953,0.00028587,-0.067446,0,1,0,0
25918,1.6481e+09,0.098252,-0.039024,0.13728,0.018532,0.00028587,-0.013552,0,1,0,1
25963,1.6481e+09,0.0931,-0.20543,0.29853,0.040302,0.00044282,0.068834,0,1,0,0
26008,1.6481e+09,0.08926,-0.16912,0.25838,0.034882,0.00049291,0.075211,0,1,0,0
26053,1.6481e+09,0.088227,0.085513,0.0027136,0.00036633,0.00044978,-0.019305,0,1,0,1
26097,1.6481e+09,0.085598,0.22356,-0.13796,-0.018625,0.00048446,-0.090036,0,1,0,0
26142,1.6481e+09,0.084822,0.1089,-0.02408,-0.0032507,0.00062045,-0.05363,0,1,0,0
26185,1.6482e+09,0.080449,0.15875,-0.078305,-0.010571,0.00055016,-0.066467,0,1,0,0
26230,1.6482e+09,0.088083,-0.25478,0.34286,0.046286,0.000584,0.10364,0,1,0,1
26276,1.6482e+09,0.093562,-0.26082,0.35438,0.047841,0.00063059,0.12457,0,1,0,0
26325,1.6482e+09,0.085288,0.12375,-0.038464,-0.0051926,0.00053483,-0.021253,0,1,0,0
26369,1.6482e+09,0.084088,0.34504,-0.26095,-0.035228,0.00067012,-0.14486,0,1,0,0
26414,1.6482e+09,0.084709,-0.1145,0.1992,0.026893,0.00069166,0.016056,0,1,0,1
26459,1.6482e+09,0.089887,-0.30851,0.3984,0.053784,0.00074023,0.13762,0,1,0,0
26503,1.6482e+09,0.096744,-0.14012,0.23687,0.031977,0.00075786,0.072349,0,1,0,0
26548,1.6482e+09,0.097168,0.079334,0.017834,0.0024077,0.00086735,-0.02181,0,1,0,0
26594,1.6483e+09,0.10392,0.34881,-0.24489,-0.03306,0.00095703,-0.15997,0,1,0,0
26639,1.6483e+09,0.11158,-0.18433,0.29591,0.039948,0.0012767,0.017244,0,1,0,1
26683,1.6483e+09,0.10093,-0.41439,0.51533,0.069569,0.0013036,0.17951,0,1,0,0
26730,1.6483e+09,0.088846,0.18115,-0.092301,-0.012461,0.0011191,-0.032172,0,1,0,0
26778,1.6483e+09,0.08888,0.29115,-0.20227,-0.027306,0.0013123,-0.12446,0,1,0,0
26824,1.6483e+09,0.087383,-0.022134,0.10952,0.014785,0.0014251,0.0077723,0,1,0,0
26869,1.6483e+09,0.085772,-0.020678,0.10645,0.014371,0.0014538,0.024693,0,1,0,0
26913,1.6483e+09,0.091629,-0.23313,0.32476,0.043842,0.0015637,0.11376,0,1,0,0
26958,1.6483e+09,0.09679,0.071142,0.025649,0.0034626,0.001566,0.0038125,0,1,0,0
27002,1.6483e+09,0.10435,0.31958,-0.21523,-0.029056,0.0017701,-0.13797,0,1,0,0
27049,1.6484e+09,0.11108,-0.068329,0.17941,0.024221,0.002051,-0.0020432,0,1,0,0
27091,1.6484e+09,0.10937,-0.0010271,0.1104,0.014904,0.0022375,-0.030493,0,1,0,0
27133,1.6484e+09,0.11063,-0.20684,0.31747,0.042858,0.002315,0.093973,0,1,0,0
27176,1.6484e+09,0.1088,0.087767,0.021029,0.0028389,0.002443,-0.033682,0,1,0,0
27223,1.6484e+09,0.10936,-0.054229,0.16359,0.022084,0.002691,0.0047768,0,1,0,0
27266,1.6484e+09,0.10779,0.064167,0.043623,0.0058891,0.0028271,-0.032313,0,1,0,0
27309,1.6484e+09,0.10778,0.025377,0.082404,0.011124,0.0031145,-0.043829,0,1,0,0
27355,1.6484e+09,0.099498,-0.1216,0.2211,0.029848,0.0033394,0.022829,0,1,0,0
27398,1.6484e+09,0.082024,-0.30215,0.38417,0.051863,0.003349,0.14699,0,1,0,0
27440,1.6485e+09,0.06788,0.38579,-0.31791,-0.042918,0.0032496,-0.1211,0,1,0,0
27483,1.6485e+09,0.072274,0.3412,-0.26893,-0.036306,0.0035101,-0.16839,0,1,0,0
27526,1.6485e+09,0.074286,-0.455,0.52929,0.071454,0.0037051,0.16641,0,1,0,0
27568,1.6485e+09,0.058845,-0.41405,0.4729,0.063841,0.0035284,0.22332,0,1,0,0
27615,1.6485e+09,0.038959,0.19167,-0.15271,-0.020617,0.0033652,-0.016468,0,1,0,0
27659,1.6485e+09,0.031183,0.48074,-0.44955,-0.06069,0.0033321,-0.16152,0,1,0,0
27702,1.6485e+09,0.052314,0.26022,-0.20791,-0.028067,0.0035438,-0.13227,0,1,0,0
27748,1.6485e+09,0.075509,0.15845,-0.082942,-0.011197,0.0037996,-0.10969,0,1,0,0
27796,1.6485e+09,0.099811,-0.06048,0.16029,0.021639,0.0041394,-0.028706,0,1,0,0
27832,1.6486e+09,0.1084,-0.28242,0.39082,0.05276,0.0043718,0.085464,0,1,0,0
27876,1.6486e+09,0.10902,-0.33602,0.44503,0.060079,0.0044664,0.14987,0,1,0,0
27920,1.6486e+09,0.1028,0.14647,-0.043664,-0.0058946,0.0045255,-0.03967,0,1,0,0
27964,1.6486e+09,0.09888,0.37216,-0.27328,-0.036893,0.0046437,-0.14332,0,1,0,0
28008,1.6486e+09,0.090749,0.27862,-0.18787,-0.025362,0.0047988,-0.1188,0,1,0,0
28058,1.6486e+09,0.080139,-0.033139,0.11328,0.015292,0.0048481,0.027255,0,1,0,0
28102,1.6486e+09,0.070377,-0.0063174,0.076695,0.010354,0.0048069,0.034677,0,1,0,0
28148,1.6486e+09,0.067294,0.098258,-0.030964,-0.0041801,0.0047775,-0.0015882,0,1,0,0
28193,1.6486e+09,0.067432,0.12423,-0.0568,-0.007668,0.0048352,-0.028317,0,1,0,0
28237,1.6487e+09,0.077097,-0.040448,0.11755,0.015869,0.004997,0.016061,0,1,0,0
28282,1.6487e+09,0.086807,-0.19818,0.28498,0.038473,0.0051244,0.087067,0,1,0,0
28326,1.6487e+09,0.089851,-0.2268,0.31665,0.042748,0.0052909,0.086589,0,1,0,0
28371,1.6487e+09,0.078191,-0.028826,0.10702,0.014447,0.0053377,0.017015,0,1,0,0
28417,1.6487e+09,0.058531,0.1102,-0.051672,-0.0069757,0.0053591,-0.042271,0,1,0,0
28463,1.6487e+09,0.040365,0.0085839,0.031782,0.0042905,0.0053598,0.0023329,0,1,0,0
28511,1.6487e+09,0.0258,0.00047435,0.025325,0.0034189,0.0053363,0.0058841,0,1,0,0
28557,1.6487e+09,0.015215,0.08995,-0.074736,-0.010089,0.0052831,-0.026109,0,1,0,0
28606,1.6487e+09,-0.0094816,0.18121,-0.19069,-0.025743,0.0050681,-0.034701,0,1,0,0
28650,1.6488e+09,-0.039987,0.13253,-0.17252,-0.02329,0.0047979,-0.0045412,0,1,0,0
28694,1.6488e+09,-0.070608,0.23899,-0.30959,-0.041795,0.004434,-0.033537,0,1,0,0
28740,1.6488e+09,-0.099761,0.25264,-0.3524,-0.047575,0.0040731,-0.043659,0,1,0,0
28786,1.6488e+09,-0.12201,0.15633,-0.27835,-0.037577,0.0037024,-0.0031693,0,1,0,0
28830,1.6488e+09,-0.13608,0.030851,-0.16693,-0.022535,0.003353,0.043359,0,1,0,0
28876,1.6488e+09,-0.1445,0.090011,-0.23451,-0.031658,0.0029625,0.018381,0,1,0,0
28928,1.6488e+09,-0.15246,0.13881,-0.29128,-0.039322,0.0025151,-0.010041,0,1,0,0
28973,1.6488e+09,-0.15586,0.1082,-0.26406,-0.035648,0.0022228,-0.0092752,0,1,0,0
29018,1.6488e+09,-0.1646,0.078622,-0.24322,-0.032835,0.0018366,0.014228,0,1,0,0
29062,1.6489e+09,-0.17075,0.022711,-0.19346,-0.026117,0.0015447,0.014951,0,1,0,0
29107,1.6489e+09,-0.17274,0.092467,-0.26521,-0.035803,0.0012201,-0.016475,0,1,0,0
29151,1.6489e+09,-0.17772,0.05392,-0.23164,-0.031271,0.00091524,0.0013657,0,1,0,0
29196,1.6489e+09,-0.19013,0.06118,-0.25131,-0.033927,0.00062663,-0.0091789,0,1,0,0
29241,1.6489e+09,-0.21685,0.10614,-0.32299,-0.043603,0.00015827,-0.0075368,0,1,0,0
29286,1.6489e+09,-0.24664,0.14588,-0.39252,-0.05299,-0.00026855,-0.037577,0,1,0,0
29333,1.6489e+09,-0.26831,0.051917,-0.32022,-0.04323,-0.00076307,0.016025,0,1,0,0
29381,1.6489e+09,-0.27502,-0.010335,-0.26469,-0.035733,-0.0011803,0.027258,0,1,0,0
29427,1.6489e+09,-0.27602,0.090017,-0.36604,-0.049416,-0.0015933,-0.027361,0,1,0,0
29472,1.6489e+09,-0.29033,0.10133,-0.39166,-0.052875,-0.0020741,-0.023367,0,1,0,0
29516,1.649e+09,-0.31942,0.17205,-0.49146,-0.066347,-0.0027408,-0.050958,0,1,0,0
29558,1.649e+09,-0.33302,0.12322,-0.45624,-0.061592,-0.0032131,-0.043792,0,1,0,0
29600,1.649e+09,-0.33804,0.021078,-0.35912,-0.048481,-0.0036684,-0.0014595,0,1,0,0
29643,1.649e+09,-0.3371,-0.11228,-0.22482,-0.030351,-0.0040201,0.032455,0,1,0,0
29685,1.649e+09,-0.34211,-0.04749,-0.29462,-0.039773,-0.0044094,-0.0033879,0,1,0,0
29729,1.649e+09,-0.35846,-0.026332,-0.33213,-0.044838,-0.0049001,0.0053497,0,1,0,0
29772,1.649e+09,-0.37551,-0.066007,-0.3095,-0.041783,-0.0053802,0.022011,0,1,0,0
29819,1.649e+09,-0.39176,0.062158,-0.45392,-0.061279,-0.0059261,-0.030162,0,1,0,0
29862,1.649e+09,-0.40527,0.056545,-0.46182,-0.062345,-0.0064298,-0.040234,0,1,0,0
29904,1.6491e+09,-0.40816,0.016574,-0.42473,-0.057338,-0.0068826,-0.029122,0,1,0,0
29947,1.6491e+09,-0.40407,-0.043594,-0.36047,-0.048664,-0.0072843,-0.014808,0,1,0,0
29991,1.6491e+09,-0.40741,0.016062,-0.42347,-0.057168,-0.0077857,-0.029438,0,1,0,0
30034,1.6491e+09,-0.41156,0.053624,-0.46519,-0.0628,-0.0081988,-0.068631,0,1,0,0
30076,1.6491e+09,-0.41193,-0.148,-0.26393,-0.035631,-0.0086254,0.02205,0,1,0,0
30119,1.6491e+09,-0.40772,-0.10863,-0.29909,-0.040377,-0.0091174,0.026556,0,1,0,0
30162,1.6491e+09,-0.40781,-0.19332,-0.21448,-0.028955,-0.0094954,0.040194,0,1,0,0
30204,1.6491e+09,-0.41788,-0.2227,-0.19518,-0.026349,-0.0099925,0.063095,0,1,0,0
30251,1.6491e+09,-0.42658,-0.036438,-0.39014,-0.052669,-0.010513,-0.010852,0,1,0,0
30295,1.6492e+09,-0.43031,-0.14485,-0.28546,-0.038537,-0.010956,0.02866,0,1,0,0
30342,1.6492e+09,-0.44451,0.011737,-0.45625,-0.061594,-0.01165,-0.026504,0,1,0,0
30379,1.6492e+09,-0.44665,0.0071802,-0.45383,-0.061266,-0.012147,-0.028057,0,1,0,0
30423,1.6492e+09,-0.45829,0.071443,-0.52974,-0.071514,-0.01266,-0.063861,0,1,0,0
30469,1.6492e+09,-0.47093,0.0086061,-0.47954,-0.064738,-0.013159,-0.054054,0,1,0,0
30514,1.6492e+09,-0.48516,-0.17613,-0.30902,-0.041718,-0.013795,0.054782,0,1,0,0
30558,1.6492e+09,-0.50035,-0.085582,-0.41476,-0.055993,-0.014517,0.045495,0,1,0,0
30603,1.6492e+09,-0.50946,0.10537,-0.61483,-0.083002,-0.015185,-0.047302,0,1,0,0
30647,1.6492e+09,-0.51408,0.065042,-0.57912,-0.078181,-0.015791,-0.050269,0,1,0,0
30698,1.6492e+09,-0.52005,-0.037078,-0.48298,-0.065202,-0.016449,-0.0028721,0,1,0,0
30744,1.6493e+09,-0.52454,0.015411,-0.53995,-0.072893,-0.017158,-0.012812,0,1,0,0
30789,1.6493e+09,-0.52788,0.13401,-0.66189,-0.089356,-0.01777,-0.086461,0,1,0,0
30834,1.6493e+09,-0.53082,-0.039732,-0.49109,-0.066297,-0.018417,-0.0030505,0,1,0,0
30878,1.6493e+09,-0.52914,0.081885,-0.61103,-0.082489,-0.019093,-0.048243,0,1,0,0
30923,1.6493e+09,-0.52789,0.091482,-0.61937,-0.083615,-0.019638,-0.084443,0,1,0,0
30967,1.6493e+09,-0.52594,-0.22814,-0.29781,-0.040204,-0.020234,0.063224,0,1,0,0
31012,1.6493e+09,-0.52115,-0.06162,-0.45953,-0.062037,-0.020881,0.0067927,0,1,0,0
31056,1.6493e+09,-0.51604,0.13661,-0.65265,-0.088108,-0.021432,-0.09771,0,1,0,0
31101,1.6493e+09,-0.51357,-0.22281,-0.29076,-0.039253,-0.02188,0.035706,0,1,0,0
31152,1.6494e+09,-0.50446,-0.061489,-0.44297,-0.059801,-0.022508,-0.041521,0,1,0,0
31195,1.6494e+09,-0.50395,-0.21468,-0.28927,-0.039051,-0.022975,0.024529,0,1,0,0
31240,1.6494e+09,-0.51434,-0.081702,-0.43264,-0.058406,-0.023521,-0.022182,0,1,0,0
31288,1.6494e+09,-0.52974,-0.14606,-0.38369,-0.051798,-0.024116,0.0028622,0,1,0,0
31332,1.6494e+09,-0.54029,0.015835,-0.55613,-0.075077,-0.024628,-0.071559,0,1,0,0
31377,1.6494e+09,-0.54463,-0.061321,-0.48331,-0.065247,-0.025053,-0.060492,0,1,0,0
31421,1.6494e+09,-0.54015,-0.24023,-0.29993,-0.04049,-0.025474,0.0093984,0,1,0,0
31466,1.6494e+09,-0.5353,-0.41597,-0.11933,-0.016109,-0.02593,0.088263,0,1,0,0
31511,1.6494e+09,-0.53319,-0.17606,-0.35713,-0.048213,-0.026418,-0.0034855,0,1,0,0
31560,1.6495e+09,-0.525,-0.04266,-0.48234,-0.065116,-0.026828,-0.067474,0,1,0,0
31605,1.6495e+09,-0.52512,0.014592,-0.53971,-0.072861,-0.027214,-0.10891,0,1,0,0
31649,1.6495e+09,-0.52676,-0.30169,-0.22507,-0.030384,-0.027617,0.029447,0,1,0,0
31694,1.6495e+09,-0.52489,-0.44774,-0.077155,-0.010416,-0.028074,0.10736,0,1,0,0
31738,1.6495e+09,-0.52325,-0.28567,-0.23758,-0.032073,-0.028592,0.056335,0,1,0,0
31783,1.6495e+09,-0.52369,-0.014998,-0.50869,-0.068674,-0.029057,-0.061974,0,1,0,0
31829,1.6495e+09,-0.51909,-0.076413,-0.44267,-0.059761,-0.029477,-0.043616,0,1,0,0
31873,1.6495e+09,-0.51694,-0.20418,-0.31275,-0.042222,-0.029949,0.016295,0,1,0,0
31918,1.6495e+09,-0.51314,-0.18231,-0.33083,-0.044663,-0.030449,0.017328,0,1,0,0
31961,1.6496e+09,-0.49895,-0.11859,-0.38036,-0.051348,-0.030869,-0.019026,0,1,0,0
32007,1.6496e+09,-0.49073,-0.10655,-0.38417,-0.051863,-0.031315,-0.021881,0,1,0,0
32051,1.6496e+09,-0.48952,-0.14758,-0.34194,-0.046162,-0.031724,-0.01703,0,1,0,0
32096,1.6496e+09,-0.49824,-0.28206,-0.21618,-0.029184,-0.032271,0.069132,0,1,0,0
32141,1.6496e+09,-0.49286,-0.32137,-0.17149,-0.023151,-0.032751,0.084715,0,1,0,0
32185,1.6496e+09,-0.48256,-0.1516,-0.33096,-0.044679,-0.033206,0.0036566,0,1,0,0
32231,1.6496e+09,-0.47793,-0.22451,-0.25343,-0.034213,-0.033663,0.041969,0,1,0,0
32275,1.6496e+09,-0.47093,-0.13798,-0.33295,-0.044948,-0.034078,-0.0052909,0,1,0,0
32320,1.6496e+09,-0.46646,-0.19669,-0.26978,-0.03642,-0.034547,0.028467,0,1,0,0
32366,1.6496e+09,-0.46187,-0.20256,-0.25931,-0.035007,-0.035021,0.038851,0,1,0,0
32410,1.6497e+09,-0.45665,-0.13986,-0.31679,-0.042767,-0.035478,0.0086826,0,1,0,0
32459,1.6497e+09,-0.45325,-0.14551,-0.30774,-0.041545,-0.03594,0.015363,0,1,0,0
32503,1.6497e+09,-0.44956,-0.050712,-0.39884,-0.053844,-0.036437,-0.015036,0,1,0,0
32548,1.6497e+09,-0.44266,-0.063637,-0.37903,-0.051169,-0.036833,-0.025722,0,1,0,0
32592,1.6497e+09,-0.43063,-0.057893,-0.37274,-0.05032,-0.037221,-0.034927,0,1,0,0
32637,1.6497e+09,-0.42455,-0.168,-0.25654,-0.034633,-0.037595,0.0077634,0,1,0,0
32682,1.6497e+09,-0.42098,-0.28251,-0.13847,-0.018694,-0.038005,0.067251,0,1,0,0
32729,1.6497e+09,-0.41946,-0.13014,-0.28932,-0.039058,-0.038487,0.019047,0,1,0,0
32776,1.6497e+09,-0.413,-0.094309,-0.31869,-0.043023,-0.038891,-0.00014968,0,1,0,0
32821,1.6498e+09,-0.39912,0.052385,-0.45151,-0.060953,-0.039224,-0.082823,0,1,0,0
32867,1.6498e+09,-0.38724,-0.14858,-0.23866,-0.032219,-0.039448,-0.018201,0,1,0,0
32910,1.6498e+09,-0.38675,-0.14739,-0.23936,-0.032314,-0.039781,-0.013714,0,1,0,0
32952,1.6498e+09,-0.38435,-0.36941,-0.014938,-0.0020166,-0.040157,0.10145,0,1,0,0
32995,1.6498e+09,-0.38087,-0.18954,-0.19132,-0.025829,-0.040569,0.03949,0,1,0,0
33038,1.6498e+09,-0.37284,0.0097688,-0.3826,-0.051652,-0.040913,-0.051855,0,1,0,0
33080,1.6498e+09,-0.36298,-0.10488,-0.2581,-0.034844,-0.041157,-0.022304,0,1,0,0
33124,1.6498e+09,-0.35919,-0.30471,-0.05448,-0.0073549,-0.041494,0.0757,0,1,0,0
33166,1.6498e+09,-0.36192,-0.29989,-0.062034,-0.0083745,-0.041969,0.1085,0,1,0,0
33209,1.6498e+09,-0.36313,0.12473,-0.48786,-0.065861,-0.042458,-0.058951,0,1,0,0
33253,1.6499e+09,-0.35986,0.1705,-0.53036,-0.071598,-0.042807,-0.10013,0,1,0,0
33295,1.6499e+09,-0.35088,-0.10796,-0.24292,-0.032794,-0.043077,-0.0036763,0,1,0,0
33343,1.6499e+09,-0.34631,-0.25691,-0.089399,-0.012069,-0.043541,0.095563,0,1,0,0
33385,1.6499e+09,-0.34106,-0.19406,-0.147,-0.019845,-0.044018,0.091135,0,1,0,0
33429,1.6499e+09,-0.33424,0.30164,-0.63589,-0.085845,-0.044428,-0.13604,0,1,0,0
33472,1.6499e+09,-0.32813,0.20206,-0.53019,-0.071575,-0.044673,-0.13416,0,1,0,0
33515,1.6499e+09,-0.3246,-0.20409,-0.12051,-0.016269,-0.044949,0.036783,0,1,0,0
33557,1.6499e+09,-0.32094,-0.35523,0.034294,0.0046298,-0.045315,0.11813,0,1,0,0
33600,1.6499e+09,-0.3141,-0.027602,-0.2865,-0.038677,-0.045803,0.016114,0,1,0,0
33639,1.65e+09,-0.29498,0.090251,-0.38524,-0.052007,-0.046093,-0.049392,0,1,0,0
33683,1.65e+09,-0.28124,0.2504,-0.53165,-0.071772,-0.046343,-0.13597,0,1,0,0
33729,1.65e+09,-0.27167,0.038804,-0.31047,-0.041914,-0.046534,-0.062938,0,1,0,0
33778,1.65e+09,-0.25991,-0.28313,0.023222,0.003135,-0.046777,0.085709,0,1,0,0
33823,1.65e+09,-0.24378,-0.15723,-0.086552,-0.011685,-0.047109,0.055785,0,1,0,0
33867,1.65e+09,-0.22543,0.0048167,-0.23025,-0.031084,-0.047332,-0.019627,0,1,0,0
33913,1.65e+09,-0.21507,0.072491,-0.28757,-0.038821,-0.047572,-0.045665,0,1,0,0
33957,1.65e+09,-0.22572,0.092121,-0.31784,-0.042908,-0.047885,-0.044864,0,1,0,0
34002,1.65e+09,-0.23796,-0.032081,-0.20588,-0.027794,-0.048214,0.012681,0,1,0,0
34048,1.65e+09,-0.24686,0.052663,-0.29952,-0.040436,-0.048659,-0.0021191,0,1,0,0
34092,1.6501e+09,-0.25071,0.090917,-0.34163,-0.04612,-0.049012,-0.031264,0,1,0,0
34137,1.6501e+09,-0.25264,0.077008,-0.32965,-0.044503,-0.0494,-0.02222,0,1,0,0
34181,1.6501e+09,-0.26324,0.17443,-0.43767,-0.059086,-0.049849,-0.056084,0,1,0,0
34230,1.6501e+09,-0.27346,-0.020459,-0.253,-0.034155,-0.050271,0.027658,0,1,0,0
34276,1.6501e+09,-0.27299,-0.071695,-0.2013,-0.027175,-0.050716,0.05492,0,1,0,0
34321,1.6501e+09,-0.26711,0.02967,-0.29678,-0.040065,-0.05115,0.015191,0,1,0,0
34366,1.6501e+09,-0.25698,-0.054249,-0.20273,-0.027369,-0.051397,0.016631,0,1,0,0
34410,1.6501e+09,-0.25707,-0.075773,-0.18129,-0.024475,-0.051769,0.037884,0,1,0,0
34451,1.6501e+09,-0.26407,0.050989,-0.31505,-0.042532,-0.052187,-0.0061146,0,1,0,0
34496,1.6502e+09,-0.2739,0.089457,-0.36335,-0.049053,-0.052571,-0.034136,0,1,0,0
34540,1.6502e+09,-0.28389,0.00033805,-0.28423,-0.038371,-0.052933,-0.010717,0,1,0,0
34585,1.6502e+09,-0.29232,-0.1538,-0.13852,-0.0187,-0.053374,0.070522,0,1,0,0
34629,1.6502e+09,-0.29796,0.034063,-0.33202,-0.044823,-0.053793,-0.011309,0,1,0,0
34679,1.6502e+09,-0.30792,0.16881,-0.47672,-0.064358,-0.054211,-0.070354,0,1,0,0
34723,1.6502e+09,-0.32306,0.09821,-0.42127,-0.056872,-0.054677,-0.029011,0,1,0,0
34768,1.6502e+09,-0.32987,0.16235,-0.49222,-0.06645,-0.055181,-0.053357,0,1,0,0
34812,1.6502e+09,-0.33175,0.064513,-0.39626,-0.053495,-0.055574,-0.034868,0,1,0,0
34860,1.6502e+09,-0.33416,-0.23062,-0.10354,-0.013978,-0.056018,0.099192,0,1,0,0
34904,1.6502e+09,-0.34245,-0.1661,-0.17635,-0.023807,-0.056517,0.073455,0,1,0,0
34948,1.6503e+09,-0.36108,0.038504,-0.39958,-0.053944,-0.057118,0.0057705,0,1,0,0
34993,1.6503e+09,-0.3735,0.24744,-0.62094,-0.083827,-0.057623,-0.10204,0,1,0,0
35038,1.6503e+09,-0.37613,0.029578,-0.40571,-0.054771,-0.058072,-0.028125,0,1,0,0
35083,1.6503e+09,-0.37784,-0.14208,-0.23576,-0.031828,-0.058488,0.032244,0,1,0,0
35131,1.6503e+09,-0.37656,-0.19926,-0.1773,-0.023935,-0.05897,0.070845,0,1,0,0
35176,1.6503e+09,-0.37192,-0.012375,-0.35954,-0.048538,-0.05946,-0.0034341,0,1,0,0
35221,1.6503e+09,-0.36417,0.10984,-0.47401,-0.063991,-0.059795,-0.084487,0,1,0,0
35266,1.6503e+09,-0.36146,-0.17032,-0.19115,-0.025805,-0.060137,0.02912,0,1,0,0
35311,1.6503e+09,-0.36681,-0.24387,-0.12294,-0.016597,-0.060603,0.082513,0,1,0,0
35356,1.6504e+09,-0.36852,-0.27999,-0.088528,-0.011951,-0.061044,0.071598,0,1,0,0
35399,1.6504e+09,-0.36535,-0.27434,-0.091013,-0.012287,-0.061388,0.067196,0,1,0,0
35441,1.6504e+09,-0.37278,-0.1528,-0.21999,-0.029698,-0.061804,0.033991,0,1,0,0
35485,1.6504e+09,-0.38472,0.11202,-0.49674,-0.06706,-0.062305,-0.062559,0,1,0,0
35528,1.6504e+09,-0.3943,0.11258,-0.50687,-0.068428,-0.062669,-0.092855,0,1,0,0
35574,1.6504e+09,-0.39643,-0.26473,-0.1317,-0.017779,-0.063117,0.084151,0,1,0,0
35619,1.6504e+09,-0.39605,-0.17219,-0.22386,-0.03022,-0.063607,0.055852,0,1,0,0
35662,1.6504e+09,-0.40261,0.072455,-0.47507,-0.064134,-0.064128,-0.042509,0,1,0,0
35705,1.6504e+09,-0.40253,0.175,-0.57752,-0.077966,-0.064577,-0.10084,0,1,0,0
35748,1.6505e+09,-0.4012,-0.066683,-0.33452,-0.04516,-0.064953,-0.017394,0,1,0,0
35790,1.6505e+09,-0.40065,-0.23283,-0.16782,-0.022655,-0.065426,0.070141,0,1,0,0
35833,1.6505e+09,-0.401,0.14363,-0.54464,-0.073526,-0.065969,-0.069065,0,1,0,0
35875,1.6505e+09,-0.39069,0.099907,-0.4906,-0.06623,-0.066302,-0.085426,0,1,0,0
35919,1.6505e+09,-0.3854,-0.037603,-0.3478,-0.046953,-0.066708,-0.021611,0,1,0,0
35962,1.6505e+09,-0.37824,-0.16571,-0.21252,-0.028691,-0.067106,0.038166,0,1,0,0
36008,1.6505e+09,-0.37683,-0.11123,-0.2656,-0.035856,-0.067544,0.023004,0,1,0,0
36050,1.6505e+09,-0.37869,-0.015726,-0.36296,-0.049,-0.067998,-0.013615,0,1,0,0
36093,1.6505e+09,-0.37514,-0.05749,-0.31765,-0.042883,-0.068369,-0.009045,0,1,0,0
36137,1.6505e+09,-0.36696,-0.13494,-0.23203,-0.031324,-0.068727,0.016392,0,1,0,0
36181,1.6506e+09,-0.36361,-0.0050156,-0.3586,-0.048411,-0.069314,-0.037247,0,1,0,0
36223,1.6506e+09,-0.36083,-0.090893,-0.26994,-0.036442,-0.069686,0.0036102,0,1,0,0
36268,1.6506e+09,-0.35411,-0.037375,-0.31674,-0.042759,-0.070044,-0.025472,0,1,0,0
36312,1.6506e+09,-0.35229,-0.12323,-0.22906,-0.030924,-0.070395,0.010918,0,1,0,0
36358,1.6506e+09,-0.34603,0.02911,-0.37514,-0.050644,-0.070793,-0.04069,0,1,0,0
36408,1.6506e+09,-0.33594,-0.076503,-0.25943,-0.035024,-0.071041,-0.019768,0,1,0,0
36452,1.6506e+09,-0.33097,-0.2421,-0.088873,-0.011998,-0.071341,0.058485,0,1,0,0
36498,1.6506e+09,-0.32527,-0.066248,-0.25902,-0.034968,-0.071663,-0.0093622,0,1,0,0
36542,1.6506e+09,-0.32242,0.010657,-0.33308,-0.044966,-0.071952,-0.048991,0,1,0,0
36590,1.6507e+09,-0.32158,0.046412,-0.36799,-0.049678,-0.072368,-0.051942,0,1,0,0
36635,1.6507e+09,-0.31119,-0.069795,-0.2414,-0.032589,-0.072569,-0.029656,0,1,0,0
36679,1.6507e+09,-0.30552,-0.26931,-0.036208,-0.0048881,-0.072863,0.07188,0,1,0,0
36724,1.6507e+09,-0.30286,-0.20196,-0.1009,-0.013622,-0.073305,0.083371,0,1,0,0
36770,1.6507e+09,-0.3043,0.038911,-0.34321,-0.046334,-0.073696,-0.01877,0,1,0,0
36814,1.6507e+09,-0.30117,0.10427,-0.40544,-0.054734,-0.073989,-0.066028,0,1,0,0
36863,1.6507e+09,-0.29027,-0.045413,-0.24485,-0.033055,-0.074245,-0.020771,0,1,0,0
