LineNo,TimeUS,Tar,Act,Err,P,I,D,FF,Dmod,SRate,Limit
300,1.6419e+09,4.0318,0.0013241,3.5903,0.64625,0,0,0,1,0,1
528,1.6419e+09,4.1778,0.0013137,3.7527,0.67548,0,0,0,1,0,1
980,1.642e+09,4.4941,0.0022438,4.1021,0.73837,0,0,0,1,0,1
1094,1.6421e+09,4.5914,0.0020399,4.2004,0.75608,0,0,0,1,0,1
1201,1.6422e+09,4.786,0.0022827,4.3959,0.79127,0,0,0,1,0,1
1312,1.6422e+09,4.842,0.0020033,4.4901,0.80822,0,0,0,1,0,1
1491,1.6423e+09,4.8478,0.0019654,4.6004,0.82807,0,0,0,1,0,1
1662,1.6423e+09,4.8318,0.00062915,4.6536,0.83765,0,0,0,1,0,1
1673,1.6423e+09,4.7926,0.0020536,4.6713,0.84083,0,0,0,1,0,1
1717,1.6423e+09,4.7467,0.0019935,4.6819,0.84274,0,0,0,1,0,1
1762,1.6423e+09,4.6988,0.0026343,4.6856,0.84341,0,0,0,1,0,1
1806,1.6423e+09,4.6504,-0.0001242,4.6834,0.84302,0,0,0,1,0,1
1851,1.6423e+09,4.6018,0.00064675,4.6759,0.84167,0,0,0,1,0,1
1898,1.6424e+09,4.5532,0.0016451,4.6636,0.83945,0,0,0,1,0,1
1943,1.6424e+09,4.4802,0.0010531,4.6371,0.83469,0,0,0,1,0,1
1985,1.6424e+09,4.4315,0.0012292,4.6151,0.83071,0,0,0,1,0,1
2033,1.6424e+09,4.3829,0.0022336,4.5898,0.82617,0,0,0,1,0,1
2076,1.6424e+09,4.3342,0.00108,4.5621,0.82117,0,0,0,1,0,1
2118,1.6424e+09,4.2856,0.0010143,4.5319,0.81574,0,0,0,1,0,1
2164,1.6424e+09,4.2247,0.00045275,4.4911,0.8084,0,0,0,1,0,1
2208,1.6424e+09,4.1761,0.001166,4.4564,0.80215,0,0,0,1,0,1
2250,1.6425e+09,4.1274,0.0014161,4.42,0.7956,0,0,0,1,0,1
2294,1.6425e+09,4.0788,-0.00064097,4.3823,0.78882,0,0,0,1,0,1
2336,1.6425e+09,4.0301,4.0312e-05,4.3434,0.78182,0,0,0,1,0,1
2379,1.6425e+09,3.9815,0.0010275,4.3032,0.77458,0,0,0,1,0,1
2422,1.6425e+09,3.9328,-0.00082953,4.2622,0.76719,0,0,0,1,0,1
2468,1.6425e+09,3.8841,0.0019356,4.2202,0.75963,0,0,0,1,0,1
2512,1.6425e+09,3.8355,0.0016336,4.1773,0.75191,0,0,0,1,0,1
2554,1.6425e+09,3.7868,0.0021951,4.1336,0.74405,0,0,0,1,0,1
2597,1.6425e+09,3.7382,0.0016954,4.0895,0.7361,0,0,0,1,0,1
2642,1.6425e+09,3.6895,0.0011107,4.0449,0.72807,0,0,0,1,0,1
2688,1.6426e+09,3.6198,0.00082783,3.9771,0.71588,0,0,0,1,0,1
2733,1.6426e+09,3.5774,0.0014641,3.9324,0.70784,0,0,0,1,0,1
2778,1.6426e+09,3.5306,-0.00030587,3.8876,0.69977,0,0,0,1,0,1
2823,1.6426e+09,3.4825,0.0023855,3.8424,0.69163,0,0,0,1,0,1
2872,1.6426e+09,3.434,0.00037836,3.7967,0.68341,0,0,0,1,0,1
2916,1.6426e+09,3.3854,-0.00069476,3.751,0.67518,0,0,0,1,0,1
2963,1.6426e+09,3.3367,0.0006677,3.7048,0.66687,0,0,0,1,0,1
3007,1.6426e+09,3.2881,0.0019163,3.6582,0.65848,0,0,0,1,0,1
3052,1.6426e+09,3.2394,0.00030773,3.6115,0.65006,0,0,0,1,0,1
3096,1.6427e+09,3.1908,0.00059891,3.5645,0.6416,0,0,0,1,0,1
3141,1.6427e+09,3.1421,0.00061862,3.5173,0.63312,0,0,0,1,0,1
3186,1.6427e+09,3.0935,0.0019796,3.4699,0.62458,0,0,0,1,0,1
3230,1.6427e+09,3.0448,0.001282,3.4223,0.61602,0,0,0,1,0,1
3277,1.6427e+09,2.9962,0.0012854,3.3747,0.60745,0,0,0,1,0,1
3327,1.6427e+09,2.9475,0.001056,3.327,0.59886,0,0,0,1,0,1
3373,1.6427e+09,2.8988,0.0010545,3.2792,0.59025,0,0,0,1,0,1
3417,1.6427e+09,2.8502,0.0017385,3.2311,0.5816,0,0,0,1,0,1
3462,1.6427e+09,2.8015,0.0010189,3.1831,0.57295,0,0,0,1,0,1
3507,1.6427e+09,2.7529,0.0019324,3.1348,0.56427,0,0,0,1,0,1
3554,1.6428e+09,2.6953,0.00056238,3.0746,0.55343,0,0,0,1,0,1
3596,1.6428e+09,2.653,-0.00048281,3.0275,0.54494,0,0,0,1,0,1
3640,1.6428e+09,2.6062,0.0015739,2.9803,0.53646,0,0,0,1,0,1
3684,1.6428e+09,2.558,0.00067711,2.9331,0.52795,0,0,0,1,0,1
3731,1.6428e+09,2.5095,0.0043837,2.8854,0.51938,0,0,0,1,0,1
3779,1.6428e+09,2.4609,-0.0020449,2.8381,0.51085,0,0,0,1,0,1
3824,1.6428e+09,2.4123,0.0032576,2.7904,0.50228,0,0,0,1,0,1
3868,1.6428e+09,2.3636,0.001484,2.7426,0.49367,0,0,0,1,0,1
3913,1.6428e+09,2.315,0.00032306,2.6948,0.48507,0,0,0,1,0,1
3958,1.6429e+09,2.2663,0.0027119,2.6467,0.47641,0,0,0,1,0,1
4002,1.6429e+09,2.2177,0.00082063,2.5987,0.46777,0,0,0,1,0,1
4047,1.6429e+09,2.169,0.0018214,2.5506,0.45911,0,0,0,1,0,1
4091,1.6429e+09,2.1203,0.001364,2.5024,0.45044,0,0,0,1,0,1
4136,1.6429e+09,2.0717,0.0019136,2.4542,0.44175,0,0,0,1,0,1
4181,1.6429e+09,2.023,-0.00091858,2.4061,0.4331,0,0,0,1,0,1
4230,1.6429e+09,1.9744,0.0011573,2.3579,0.42442,0,0,0,1,0,1
4275,1.6429e+09,1.9257,0.00064381,2.3095,0.4157,0,0,0,1,0,1
4319,1.6429e+09,1.8771,-0.00069326,2.2612,0.40701,0,0,0,1,0,1
4364,1.6429e+09,1.8251,-0.00082729,2.2012,0.39622,0,0,0,1,0,1
4406,1.643e+09,1.7874,-0.00098725,2.1549,0.38788,0,0,0,1,0,1
4449,1.643e+09,1.7419,0.0021781,2.1087,0.37956,0,0,0,1,0,1
4493,1.643e+09,1.6942,0.0011965,2.0623,0.37121,0,0,0,1,0,1
4535,1.643e+09,1.6458,-3.3107e-05,2.0158,0.36285,0,0,0,1,0,1
4578,1.643e+09,1.5973,0.0029193,1.9689,0.35441,0,0,0,1,0,1
4620,1.643e+09,1.5486,0.0022802,1.9218,0.34592,0,0,0,1,0,1
4669,1.643e+09,1.5,0.00058821,1.8746,0.33744,0,0,0,1,0,1
4712,1.643e+09,1.4513,0.0027042,1.8271,0.32889,0,0,0,1,0,1
4755,1.643e+09,1.4027,0.0020253,1.7796,0.32032,0,0,0,1,0,1
4798,1.6431e+09,1.354,0.00025604,1.732,0.31176,0,0,0,1,0,1
4840,1.6431e+09,1.3273,0.002055,1.6855,0.30339,0,0,0,1,0,1
4883,1.6431e+09,1.3196,0.00071201,1.6431,0.29576,0,0,0,1,0,1
4926,1.6431e+09,1.3173,0.0030985,1.605,0.28889,0,0,0,1,0,1
4969,1.6431e+09,1.3166,0.0022239,1.5711,0.2828,0,0,0,1,0,1
5012,1.6431e+09,1.3164,0.00084808,1.5413,0.27743,0,0,0,1,0,1
5055,1.6431e+09,1.3163,0.0012696,1.515,0.2727,0,0,0,1,0,1
5102,1.6431e+09,1.3163,0.00042109,1.4917,0.26851,0,0,0,1,0,1
5145,1.6431e+09,1.3163,-0.00085792,1.4714,0.26485,0,0,0,1,0,1
5188,1.6431e+09,1.3163,0.00038432,1.4534,0.2616,0,0,0,1,0,1
5226,1.6432e+09,1.3163,0.001616,1.4373,0.25872,0,0,0,1,0,1
5270,1.6432e+09,1.3163,0.0008141,1.4231,0.25616,0,0,0,1,0,1
5315,1.6432e+09,1.3163,0.003971,1.4105,0.25388,0,0,0,1,0,1
5359,1.6432e+09,1.3162,0.00029992,1.3992,0.25186,0,0,0,1,0,1
5404,1.6432e+09,1.3162,0.00083796,1.3895,0.2501,0,0,0,1,0,1
5448,1.6432e+09,1.3162,0.0022238,1.3807,0.24853,0,0,0,1,0,1
5493,1.6432e+09,1.3162,0.0011515,1.3731,0.24716,0,0,0,1,0,1
5542,1.6432e+09,1.3162,0.0005993,1.3664,0.24595,0,0,0,1,0,1
5587,1.6432e+09,1.3162,-0.0013591,1.3606,0.24491,0,0,0,1,0,1
5631,1.6432e+09,1.3162,0.0010775,1.3555,0.24399,0,0,0,1,0,1
5676,1.6433e+09,1.3162,0.0014895,1.3507,0.24313,0,0,0,1,0,1
5721,1.6433e+09,1.3162,-0.00051371,1.3467,0.24241,0,0,0,1,0,1
5765,1.6433e+09,1.3162,-0.001484,1.3433,0.24179,0,0,0,1,0,1
5811,1.6433e+09,1.3163,0.0023861,1.34,0.2412,0,0,0,1,0,1
5858,1.6433e+09,0.96646,0.0012265,1.3264,0.23876,0,0,0,1,0,1
5903,1.6433e+09,0.28021,0.0021806,1.2262,0.22072,0,0,0,1,0,1
5947,1.6433e+09,0.080371,0.0084419,1.0987,0.19777,0,0,0,1,0,1
5997,1.6433e+09,0.022176,0.014168,0.97372,0.17527,0,0,0,1,0,1
6041,1.6433e+09,0.0052297,0.0093622,0.86026,0.15485,0,0,0,1,0,1
6084,1.6434e+09,0.00029726,0.01185,0.75913,0.13664,0,0,0,1,0,1
6128,1.6434e+09,-0.0011439,0.0013043,0.66969,0.12054,0,0,0,1,0,1
6173,1.6434e+09,-0.0015647,-0.00058767,0.5915,0.10647,0,0,0,1,0,1
6220,1.6434e+09,-0.0016975,-0.0053412,0.50754,0.091358,0,0,0,1,0,1
6265,1.6434e+09,-0.001725,-0.021118,0.44981,0.080966,0,0,0,1,0,1
6309,1.6434e+09,-0.0017378,-0.013934,0.39894,0.071809,0,0,0,1,0,1
6354,1.6434e+09,-0.0017425,-0.012089,0.35414,0.063746,0,0,0,1,0,1
6401,1.6434e+09,-0.0017458,-0.020399,0.31464,0.056635,0,0,0,1,0,1
6448,1.6434e+09,-0.0017464,-0.0045009,0.27862,0.050151,0,0,0,1,0,1
6492,1.6434e+09,-0.0017443,-0.00045469,0.24637,0.044346,0,0,0,1,0,1
6536,1.6435e+09,-0.001739,0.0091428,0.21701,0.039061,0,0,0,1,0,1
6584,1.6435e+09,-0.0017408,0.01834,0.18349,0.033027,0,0,0,1,0,1
6628,1.6435e+09,-0.001742,0.020324,0.15974,0.028753,0,0,0,1,0,1
6673,1.6435e+09,-0.0017466,0.0153,0.13864,0.024955,0,0,0,1,0,1
6718,1.6435e+09,-0.0017475,0.022655,0.11982,0.021568,0,0,0,1,0,1
6763,1.6435e+09,-0.0017476,0.011866,0.1038,0.018684,0,0,0,1,0,1
6808,1.6435e+09,-0.001748,0.0078026,0.090369,0.016266,0,0,0,1,0,1
6856,1.6435e+09,-0.0017427,-0.0058189,0.079818,0.014367,0,0,0,1,0,1
6903,1.6435e+09,-0.0017391,-0.014013,0.07168,0.012902,0,0,0,1,0,1
6948,1.6436e+09,-0.0017316,-0.019277,0.061536,0.011076,0,0,0,1,0,1
6990,1.6436e+09,-0.0017229,-0.010604,0.055605,0.010009,0,0,0,1,0,1
7038,1.6436e+09,-0.0017201,-0.001421,0.048428,0.0087171,0,0,0,1,0,1
7081,1.6436e+09,-0.0017276,-0.010233,0.043032,0.0077458,0,0,0,1,0,1
7123,1.6436e+09,-0.0017312,-0.0081447,0.03937,0.0070866,0,0,0,1,0,1
7167,1.6436e+09,-0.0017311,-0.0030138,0.035204,0.0063368,0,0,0,1,0,1
7210,1.6436e+09,-0.0017312,0.012298,0.030095,0.0054171,0,0,0,1,0,1
7256,1.6436e+09,-0.0017277,0.024192,0.024256,0.004366,0,0,0,1,0,1
7299,1.6436e+09,-0.001732,0.013869,0.019018,0.0034232,0,0,0,1,0,1
7342,1.6437e+09,-0.0017443,0.013066,0.014909,0.0026836,0,0,0,1,0,1
7387,1.6437e+09,-0.0017457,0.01341,0.011294,0.002033,0,0,0,1,0,1
7429,1.6437e+09,-0.0017271,0.012022,0.0081155,0.0014608,0,0,0,1,0,1
7469,1.6437e+09,-0.0017136,0.0044916,0.0068049,0.0012249,0,0,0,1,0,1
7511,1.6437e+09,-0.0017157,0.027195,0.00361,0.00064981,0,0,0,1,0,1
7555,1.6437e+09,-0.0017296,-0.025433,0.0036081,0.00064946,0,0,0,1,0,1
7598,1.6437e+09,-0.0017125,0.002491,0.0048138,0.00086648,0,0,0,1,0,1
7641,1.6437e+09,-0.0017002,-0.037328,0.0054341,0.00097814,0,0,0,1,0,1
7693,1.6437e+09,-0.0016962,0.037626,0.0068961,0.0012413,0,0,0,1,0,1
7737,1.6438e+09,-0.0017354,-0.053804,0.0062987,0.0011338,0,0,0,1,0,1
7779,1.6438e+09,-0.0017087,0.01649,0.0065268,0.0011748,0,0,0,1,0,1
7825,1.6438e+09,-0.0017091,-0.050687,0.0086794,0.0015623,0,0,0,1,0,1
7870,1.6438e+09,-0.0017191,0.054949,0.0058617,0.0010551,0,0,0,1,0,1
7917,1.6438e+09,-0.0017416,-0.017479,0.0029368,0.00052863,0,0,0,1,0,1
7961,1.6438e+09,-0.0017284,0.027408,0.0019303,0.00034745,0,0,0,1,0,1
8006,1.6438e+09,-0.0017277,-0.029064,0.0017369,0.00031263,0,0,0,1,0,1
8050,1.6438e+09,-0.0017237,0.056425,-0.00060709,-0.00010928,0,0,0,1,0,1
8095,1.6438e+09,-0.0017468,-0.0044025,-0.0038614,-0.00069506,0,0,0,1,0,1
8145,1.6438e+09,-0.0017301,0.02154,-0.0049506,-0.00089112,0,0,0,1,0,1
8189,1.6439e+09,-0.0017103,-0.043121,-0.0018174,-0.00032713,0,0,0,1,0,1
8235,1.6439e+09,-0.0017078,0.030986,-0.0030725,-0.00055305,0,0,0,1,0,1
8279,1.6439e+09,-0.0016871,-0.015587,-0.0023685,-0.00042634,0,0,0,1,0,1
8325,1.6439e+09,-0.0016925,0.0050296,-0.0034157,-0.00061483,0,0,0,1,0,1
8369,1.6439e+09,-0.0016652,-0.040855,0.0010924,0.00019663,0,0,0,1,0,1
8414,1.6439e+09,-0.0016782,0.016954,5.4986e-05,9.8975e-06,0,0,0,1,0,1
8459,1.6439e+09,-0.001647,-0.0083068,0.0013599,0.00024479,0,0,0,1,0,1
8504,1.6439e+09,-0.0016683,-0.0033136,-0.00010138,-1.8249e-05,0,0,0,1,0,1
8549,1.6439e+09,-0.0016533,-0.0080128,0.0020196,0.00036352,0,0,0,1,0,1
8597,1.6439e+09,-0.0016811,0.0079715,-0.00030149,-5.4269e-05,0,0,0,1,0,1
8641,1.644e+09,-0.0016541,0.020154,-0.00067573,-0.00012163,0,0,0,1,0,1
8682,1.644e+09,-0.0016785,-0.010637,-0.0018482,-0.00033268,0,0,0,1,0,1
8727,1.644e+09,-0.0016785,0.034205,-0.0031632,-0.00056938,0,0,0,1,0,1
8773,1.644e+09,-0.0016892,-0.011301,-0.0044138,-0.00079449,0,0,0,1,0,1
8814,1.644e+09,-0.0016784,0.024368,-0.0053264,-0.00095875,0,0,0,1,0,1
8860,1.644e+09,-0.0016764,-0.013804,-0.0040292,-0.00072525,0,0,0,1,0,1
8904,1.644e+09,-0.0016837,0.025596,-0.0057132,-0.0010284,0,0,0,1,0,1
8948,1.644e+09,-0.0016737,-0.016196,-0.0041134,-0.00074041,0,0,0,1,0,1
8994,1.644e+09,-0.0016676,0.0087565,-0.0045116,-0.00081209,0,0,0,1,0,1
9042,1.644e+09,-0.0016636,-0.026592,-0.0013609,-0.00024495,0,0,0,1,0,1
9088,1.6441e+09,-0.0016659,0.028757,-0.0032943,-0.00059298,0,0,0,1,0,1
9132,1.6441e+09,-0.0016638,-0.023994,-0.0020844,-0.00037518,0,0,0,1,0,1
9177,1.6441e+09,-0.0016623,-0.00053833,-0.0024677,-0.00044418,0,0,0,1,0,1
9221,1.6441e+09,-0.0016769,-0.016448,-0.00010116,-1.8208e-05,0,0,0,1,0,1
9266,1.6441e+09,-0.0016924,0.021696,-0.0035725,-0.00064305,0,0,0,1,0,1
9311,1.6441e+09,-0.0016835,0.014251,-0.0029231,-0.00052616,0,0,0,1,0,1
9355,1.6441e+09,-0.0016934,-0.012578,-0.003051,-0.00054918,0,0,0,1,0,1
9400,1.6441e+09,-0.0016996,0.02979,-0.0028715,-0.00051686,0,0,0,1,0,1
9445,1.6441e+09,-0.0017134,-0.0019398,-0.0045396,-0.00081712,0,0,0,1,0,1
9494,1.6441e+09,-0.0017112,0.014547,-0.0059262,-0.0010667,0,0,0,1,0,1
9540,1.6442e+09,-0.0017073,0.023787,-0.0038145,-0.0006866,0,0,0,1,0,1
9583,1.6442e+09,-0.0017199,-0.0014568,-0.0049522,-0.00089139,0,0,0,1,0,1
9626,1.6442e+09,-0.00171,0.0086025,-0.0048157,-0.00086682,0,0,0,1,0,1
9668,1.6442e+09,-0.0016999,-0.035924,-0.0018544,-0.00033378,0,0,0,1,0,1
9713,1.6442e+09,-0.0017022,0.0096232,-0.0021366,-0.00038458,0,0,0,1,0,1
9755,1.6442e+09,-0.0016798,-0.015852,-0.0014814,-0.00026665,0,0,0,1,0,1
9798,1.6442e+09,-0.0016786,-0.014093,-0.0011144,-0.0002006,0,0,0,1,0,1
9841,1.6442e+09,-0.0016652,-0.014478,0.0009218,0.00016592,0,0,0,1,0,1
9886,1.6442e+09,-0.0016685,0.00077986,5.3848e-05,9.6926e-06,0,0,0,1,0,1
9930,1.6443e+09,-0.0016493,0.020525,-0.00090824,-0.00016348,0,0,0,1,0,1
9973,1.6443e+09,-0.0016478,-0.0063955,-0.0010561,-0.0001901,0,0,0,1,0,1
10016,1.6443e+09,-0.0016569,0.017761,-0.0015674,-0.00028213,0,0,0,1,0,1
10060,1.6443e+09,-0.0016553,0.0073457,-0.0025141,-0.00045254,0,0,0,1,0,1
10103,1.6443e+09,-0.0016577,0.0047297,-0.0038245,-0.00068842,0,0,0,1,0,1
10146,1.6443e+09,-0.0016648,0.0039843,-0.003707,-0.00066726,0,0,0,1,0,1
10190,1.6443e+09,-0.0016838,0.0030406,-0.0049648,-0.00089367,0,0,0,1,0,1
10233,1.6443e+09,-0.0016867,0.012758,-0.0057812,-0.0010406,0,0,0,1,0,1
10277,1.6443e+09,-0.0016938,-0.022092,-0.0050031,-0.00090055,0,0,0,1,0,1
10321,1.6444e+09,-0.0017061,0.013926,-0.0050858,-0.00091544,0,0,0,1,0,1
10365,1.6444e+09,-0.0016938,-0.0085036,-0.0041642,-0.00074956,0,0,0,1,0,1
10410,1.6444e+09,-0.0016899,-0.014303,-0.0034464,-0.00062036,0,0,0,1,0,1
10456,1.6444e+09,-0.0016849,-0.014663,-0.0015199,-0.00027358,0,0,0,1,0,1
10500,1.6444e+09,-0.0016916,-0.010055,-0.0013441,-0.00024194,0,0,0,1,0,1
10545,1.6444e+09,-0.0016745,5.2708e-05,-0.00081732,-0.00014712,0,0,0,1,0,1
10589,1.6444e+09,-0.0016783,-0.024488,0.00031454,5.6618e-05,0,0,0,1,0,1
10634,1.6444e+09,-0.0016756,0.011454,0.00033776,6.0797e-05,0,0,0,1,0,1
10679,1.6444e+09,-0.0016732,-0.00056295,-0.00022995,-4.1391e-05,0,0,0,1,0,1
10724,1.6444e+09,-0.0016623,0.013819,-0.0018505,-0.0003331,0,0,0,1,0,1
10773,1.6445e+09,-0.0016638,-0.0043911,-0.0007398,-0.00013316,0,0,0,1,0,1
10818,1.6445e+09,-0.001661,0.013011,-0.0024947,-0.00044905,0,0,0,1,0,1
10863,1.6445e+09,-0.0016576,0.01349,-0.0031119,-0.00056014,0,0,0,1,0,1
10907,1.6445e+09,-0.0016622,-0.018642,-0.0034333,-0.00061799,0,0,0,1,0,1
10952,1.6445e+09,-0.0016603,0.010354,-0.0026313,-0.00047363,0,0,0,1,0,1
10997,1.6445e+09,-0.0016661,-0.009155,-0.0033336,-0.00060005,0,0,0,1,0,1
11041,1.6445e+09,-0.0016565,0.017806,-0.0040897,-0.00073615,0,0,0,1,0,1
11087,1.6445e+09,-0.0016635,-0.033369,-0.0027812,-0.00050061,0,0,0,1,0,1
11132,1.6445e+09,-0.0016686,0.017734,-0.0023332,-0.00041997,0,0,0,1,0,1
11179,1.6446e+09,-0.0016661,0.0050984,-0.0024089,-0.00043361,0,0,0,1,0,1
11224,1.6446e+09,-0.0016653,-0.021715,-0.0023768,-0.00042782,0,0,0,1,0,1
11269,1.6446e+09,-0.0016669,-0.003344,-0.00062353,-0.00011223,0,0,0,1,0,1
11315,1.6446e+09,-0.0016717,-0.0037826,-0.0013192,-0.00023746,0,0,0,1,0,1
11359,1.6446e+09,-0.0016642,0.0087626,-0.0023529,-0.00042352,0,0,0,1,0,1
11407,1.6446e+09,-0.0016649,0.00053972,-0.0016458,-0.00029624,0,0,0,1,0,1
11453,1.6446e+09,-0.0016705,0.0066034,-0.0022041,-0.00039674,0,0,0,1,0,1
11498,1.6446e+09,-0.0016666,0.022394,-0.003285,-0.0005913,0,0,0,1,0,1
11543,1.6446e+09,-0.0016743,-0.021563,-0.0026989,-0.0004858,0,0,0,1,0,1
11588,1.6447e+09,-0.0016954,0.015326,-0.0033099,-0.00059578,0,0,0,1,0,1
11633,1.6447e+09,-0.0017009,-0.0074584,-0.0028188,-0.00050738,0,0,0,1,0,1
11682,1.6447e+09,-0.0017067,0.00817,-0.0045296,-0.00081533,0,0,0,1,0,1
11727,1.6447e+09,-0.0016946,-0.011764,-0.0021637,-0.00038946,0,0,0,1,0,1
11772,1.6447e+09,-0.0017012,-0.0042306,-0.0026142,-0.00047056,0,0,0,1,0,1
11816,1.6447e+09,-0.0016783,0.016841,-0.0021478,-0.0003866,0,0,0,1,0,1
11858,1.6447e+09,-0.0016668,-0.017683,-0.0030686,-0.00055235,0,0,0,1,0,1
11903,1.6447e+09,-0.0016506,0.014818,-0.001331,-0.00023957,0,0,0,1,0,1
11949,1.6447e+09,-0.0016423,-0.0076936,-0.001455,-0.0002619,0,0,0,1,0,1
11993,1.6447e+09,-0.0016268,0.030181,-0.0026965,-0.00048536,0,0,0,1,0,1
12039,1.6448e+09,-0.0016276,-0.035119,-0.0014283,-0.0002571,0,0,0,1,0,1
12082,1.6448e+09,-0.0016504,0.018452,-0.0027266,-0.00049078,0,0,0,1,0,1
12127,1.6448e+09,-0.0016556,-0.0070024,-0.0020505,-0.0003691,0,0,0,1,0,1
12171,1.6448e+09,-0.0016891,0.0034027,-0.004591,-0.00082638,0,0,0,1,0,1
12215,1.6448e+09,-0.0016932,0.0077549,-0.0023414,-0.00042145,0,0,0,1,0,1
12258,1.6448e+09,-0.0017245,-0.0045139,-0.0036812,-0.00066262,0,0,0,1,0,1
12300,1.6448e+09,-0.001726,0.026722,-0.003375,-0.00060751,0,0,0,1,0,1
12343,1.6448e+09,-0.0017314,-0.022332,-0.0036234,-0.00065221,0,0,0,1,0,1
12389,1.6448e+09,-0.0017392,0.0095831,-0.0031937,-0.00057486,0,0,0,1,0,1
12431,1.6448e+09,-0.001721,-0.0042466,-0.0024326,-0.00043787,0,0,0,1,0,1
12476,1.6449e+09,-0.0017179,0.0018403,-0.0038324,-0.00068984,0,0,0,1,0,1
12518,1.6449e+09,-0.0016949,-0.0023324,-0.0017249,-0.00031048,0,0,0,1,0,1
12565,1.6449e+09,-0.0017041,-0.0042099,-0.0018779,-0.00033803,0,0,0,1,0,1
12607,1.6449e+09,-0.0016938,0.026764,-0.0027566,-0.00049619,0,0,0,1,0,1
12649,1.6449e+09,-0.001691,-0.019614,-0.0014854,-0.00026737,0,0,0,1,0,1
12693,1.6449e+09,-0.0017008,0.021534,-0.0022211,-0.0003998,0,0,0,1,0,1
12738,1.6449e+09,-0.001689,-0.00017157,-0.0011229,-0.00020211,0,0,0,1,0,1
12781,1.6449e+09,-0.0017049,-0.0062539,-0.0033562,-0.00060412,0,0,0,1,0,1
12829,1.6449e+09,-0.0017196,0.030376,-0.0024163,-0.00043493,0,0,0,1,0,1
12869,1.645e+09,-0.0017186,0.0039884,-0.0025672,-0.0004621,0,0,0,1,0,1
12913,1.645e+09,-0.0017197,-0.0093841,-0.0038631,-0.00069535,0,0,0,1,0,1
12962,1.645e+09,-0.0017041,0.0066049,-0.0031741,-0.00057135,0,0,0,1,0,1
13007,1.645e+09,-0.0017075,-0.015668,-0.0022355,-0.00040238,0,0,0,1,0,1
13052,1.645e+09,-0.0016969,0.026498,-0.0030875,-0.00055574,0,0,0,1,0,1
13097,1.645e+09,-0.0016803,-0.022679,-0.0015213,-0.00027383,0,0,0,1,0,1
13141,1.645e+09,-0.0016778,0.011982,-0.0017774,-0.00031994,0,0,0,1,0,1
13185,1.645e+09,-0.0016649,-0.018847,0.00011834,2.1301e-05,0,0,0,1,0,1
13229,1.645e+09,-0.0016606,0.010453,-0.0010921,-0.00019657,0,0,0,1,0,1
13274,1.6451e+09,-0.0016491,-0.022445,0.00071264,0.00012828,0,0,0,1,0,1
13319,1.6451e+09,-0.0016605,0.007229,-0.00091262,-0.00016427,0,0,0,1,0,1
13363,1.6451e+09,-0.0016624,-0.0094641,0.00058816,0.00010587,0,0,0,1,0,1
13412,1.6451e+09,-0.0016674,0.016945,-0.0019932,-0.00035878,0,0,0,1,0,1
13456,1.6451e+09,-0.001671,-0.0032965,-0.00067469,-0.00012144,0,0,0,1,0,1
13501,1.6451e+09,-0.00169,0.015033,-0.0032265,-0.00058076,0,0,0,1,0,1
13558,1.6452e+09,-0.0016785,0.014116,-0.0030623,-0.00055122,0,0,0,1,0,1
13603,1.6452e+09,-0.0016722,-0.022373,-0.0033373,-0.00060071,0,0,0,1,0,1
13651,1.6452e+09,-0.0016615,0.012793,-0.0026893,-0.00048408,0,0,0,1,0,1
13699,1.6452e+09,-0.0016284,-0.027789,-0.0002764,-4.9753e-05,0,0,0,1,0,1
13744,1.6452e+09,-0.0016411,0.028878,-0.0026128,-0.00047031,0,0,0,1,0,1
13791,1.6452e+09,-0.0016295,0.013847,-0.0011722,-0.00021099,0,0,0,1,0,1
13836,1.6452e+09,-0.0016318,-0.028354,-0.0024238,-0.00043628,0,0,0,1,0,1
13882,1.6452e+09,-0.0016393,0.03413,-0.0029284,-0.00052711,0,0,0,1,0,1
13927,1.6453e+09,-0.0016373,-0.032259,-0.0031942,-0.00057496,0,0,0,1,0,1
13972,1.6453e+09,-0.0016547,0.042598,-0.0051653,-0.00092975,0,0,0,1,0,1
14018,1.6453e+09,-0.0016464,-0.01937,-0.003865,-0.0006957,0,0,0,1,0,1
14067,1.6453e+09,-0.0016942,0.03254,-0.0068047,-0.0012248,0,0,0,1,0,1
14112,1.6453e+09,-0.0016844,-0.0024806,-0.003687,-0.00066366,0,0,0,1,0,1
14157,1.6453e+09,-0.0017142,-0.004442,-0.0056809,-0.0010226,0,0,0,1,0,1
14202,1.6453e+09,-0.0016998,0.011183,-0.0026911,-0.0004844,0,0,0,1,0,1
14246,1.6453e+09,-0.001717,-0.026908,-0.004422,-0.00079596,0,0,0,1,0,1
14291,1.6453e+09,-0.0017101,0.022219,-0.002298,-0.00041365,0,0,0,1,0,1
14335,1.6453e+09,-0.0016893,-0.052885,-0.0023342,-0.00042016,0,0,0,1,0,1
14384,1.6454e+09,-0.0016903,0.042651,-0.0033,-0.000594,0,0,0,1,0,1
14424,1.6454e+09,-0.0016558,-0.022629,-8.5737e-05,-1.5433e-05,0,0,0,1,0,1
14466,1.6454e+09,-0.0016623,0.026481,-0.0047206,-0.00084971,0,0,0,1,0,1
14515,1.6454e+09,-0.0016281,-0.010859,-0.0006054,-0.00010897,0,0,0,1,0,1
14557,1.6454e+09,-0.0016625,-0.0081146,-0.0046763,-0.00084173,0,0,0,1,0,1
14602,1.6454e+09,-0.0016585,0.02558,-0.002714,-0.00048852,0,0,0,1,0,1
14644,1.6454e+09,-0.0016757,-0.024631,-0.0053166,-0.00095699,0,0,0,1,0,1
14685,1.6454e+09,-0.0016804,0.032468,-0.0036331,-0.00065395,0,0,0,1,0,1
14727,1.6454e+09,-0.0016927,-0.042764,-0.0037145,-0.00066862,0,0,0,1,0,1
14769,1.6455e+09,-0.0017099,0.043065,-0.0037904,-0.00068227,0,0,0,1,0,1
14812,1.6455e+09,-0.0017041,-0.038962,-0.0035812,-0.00064461,0,0,0,1,0,1
14854,1.6455e+09,-0.0017252,0.042648,-0.0045721,-0.00082298,0,0,0,1,0,1
14897,1.6455e+09,-0.0016962,-0.039588,-0.001199,-0.00021582,0,0,0,1,0,1
14945,1.6455e+09,-0.0017028,0.043478,-0.0039393,-0.00070908,0,0,0,1,0,1
14988,1.6455e+09,-0.0016672,-0.022338,-0.00084433,-0.00015198,0,0,0,1,0,1
15031,1.6455e+09,-0.0016808,0.018067,-0.0045081,-0.00081145,0,0,0,1,0,1
15073,1.6455e+09,-0.0016449,-0.018732,-0.00016932,-3.0477e-05,0,0,0,1,0,1
15116,1.6455e+09,-0.0016388,0.01003,-0.0032631,-0.00058735,0,0,0,1,0,1
15158,1.6455e+09,-0.0016245,0.0085439,-0.0012863,-0.00023153,0,0,0,1,0,1
15201,1.6456e+09,-0.0016306,-0.015423,-0.0039219,-0.00070595,0,0,0,1,0,1
15243,1.6456e+09,-0.0016239,0.046552,-0.0040118,-0.00072212,0,0,0,1,0,1
15288,1.6456e+09,-0.0016213,-0.029755,-0.0026634,-0.0004794,0,0,0,1,0,1
15333,1.6456e+09,-0.0016694,0.046384,-0.0057358,-0.0010324,0,0,0,1,0,1
15381,1.6456e+09,-0.0016749,-0.025751,-0.0019672,-0.0003541,0,0,0,1,0,1
15427,1.6456e+09,-0.0017033,0.022401,-0.0055039,-0.0009907,0,0,0,1,0,1
15471,1.6456e+09,-0.0017049,-0.018606,-0.0014555,-0.00026199,0,0,0,1,0,1
15517,1.6456e+09,-0.0017301,-0.0022184,-0.0048783,-0.0008781,0,0,0,1,0,1
15564,1.6456e+09,-0.0017342,0.05369,-0.0021028,-0.0003785,0,0,0,1,0,1
15609,1.6457e+09,-0.001724,-0.047121,-0.001179,-0.00021222,0,0,0,1,0,1
15654,1.6457e+09,-0.001738,0.048984,-0.0015721,-0.00028297,0,0,0,1,0,1
15698,1.6457e+09,-0.0017005,-0.053847,0.0015168,0.00027302,0,0,0,1,0,1
15743,1.6457e+09,-0.0017026,0.043987,-0.0016673,-0.00030012,0,0,0,1,0,1
15793,1.6457e+09,-0.0016678,-0.011642,0.00071935,0.00012948,0,0,0,1,0,1
15837,1.6457e+09,-0.0016709,0.0055501,-0.0033643,-0.00060558,0,0,0,1,0,1
15882,1.6457e+09,-0.0016493,0.019406,-0.00074214,-0.00013359,0,0,0,1,0,1
15927,1.6457e+09,-0.0016477,-0.010085,-0.0041415,-0.00074547,0,0,0,1,0,1
15973,1.6457e+09,-0.0016573,0.052852,-0.0043203,-0.00077766,0,0,0,1,0,1
16019,1.6457e+09,-0.0016638,-0.034605,-0.005256,-0.00094609,0,0,0,1,0,1
16058,1.6458e+09,-0.001645,0.038848,-0.0065408,-0.0011773,0,0,0,1,0,1
16103,1.6458e+09,-0.0016594,-0.027613,-0.0036828,-0.0006629,0,0,0,1,0,1
16150,1.6458e+09,-0.0017101,0.0068423,-0.0068335,-0.00123,0,0,0,1,0,1
16195,1.6458e+09,-0.0017113,-0.0072484,-0.0030569,-0.00055025,0,0,0,1,0,1
16245,1.6458e+09,-0.0017243,-0.0064611,-0.0050637,-0.00091146,0,0,0,1,0,1
16290,1.6458e+09,-0.0017243,0.020617,-0.003319,-0.00059742,0,0,0,1,0,1
16334,1.6458e+09,-0.0017125,-0.027734,-0.0029888,-0.00053799,0,0,0,1,0,1
16381,1.6458e+09,-0.0017225,0.022387,-0.0028661,-0.00051589,0,0,0,1,0,1
16431,1.6458e+09,-0.0016969,0.018996,-0.0029378,-0.0005288,0,0,0,1,0,1
16475,1.6459e+09,-0.0016853,-0.019726,-0.0036068,-0.00064923,0,0,0,1,0,1
16520,1.6459e+09,-0.0016661,0.022179,-0.0023616,-0.00042508,0,0,0,1,0,1
16565,1.6459e+09,-0.0016518,-0.0057803,-0.0037501,-0.00067502,0,0,0,1,0,1
16609,1.6459e+09,-0.0016624,0.039137,-0.0055635,-0.0010014,0,0,0,1,0,1
16655,1.6459e+09,-0.0016409,-0.035211,-0.0034356,-0.0006184,0,0,0,1,0,1
16703,1.6459e+09,-0.0016616,0.020811,-0.0043636,-0.00078544,0,0,0,1,0,1
16748,1.6459e+09,-0.0016343,-0.016659,-0.0028297,-0.00050935,0,0,0,1,0,1
16792,1.6459e+09,-0.0016804,0.012685,-0.005376,-0.00096768,0,0,0,1,0,1
16838,1.6459e+09,-0.0016663,-0.0044983,-0.0029627,-0.00053328,0,0,0,1,0,1
16884,1.6459e+09,-0.0016867,-0.0059886,-0.0037168,-0.00066902,0,0,0,1,0,1
16927,1.646e+09,-0.0016772,0.027909,-0.0032947,-0.00059305,0,0,0,1,0,1
16969,1.646e+09,-0.0017016,-0.026087,-0.0033115,-0.00059606,0,0,0,1,0,1
17012,1.646e+09,-0.0017025,0.019473,-0.0030214,-0.00054385,0,0,0,1,0,1
17055,1.646e+09,-0.0016802,-0.010214,-0.0028428,-0.00051171,0,0,0,1,0,1
17097,1.646e+09,-0.0017124,0.018778,-0.0050156,-0.00090281,0,0,0,1,0,1
17144,1.646e+09,-0.0016843,-0.016109,-0.0030142,-0.00054256,0,0,0,1,0,1
17186,1.646e+09,-0.0016946,0.0051812,-0.0042553,-0.00076595,0,0,0,1,0,1
17228,1.646e+09,-0.0016702,-0.0041462,-0.0030825,-0.00055485,0,0,0,1,0,1
17273,1.646e+09,-0.0016898,-0.0032174,-0.0048653,-0.00087576,0,0,0,1,0,1
17315,1.6461e+09,-0.0016727,0.015386,-0.0037091,-0.00066764,0,0,0,1,0,1
17362,1.6461e+09,-0.0016434,-0.0093095,-0.0021986,-0.00039574,0,0,0,1,0,1
17404,1.6461e+09,-0.0016804,-0.0024769,-0.0040062,-0.00072111,0,0,0,1,0,1
17447,1.6461e+09,-0.0016538,0.0012413,-0.001559,-0.00028061,0,0,0,1,0,1
17490,1.6461e+09,-0.0016691,-0.020811,-0.0020814,-0.00037465,0,0,0,1,0,1
17532,1.6461e+09,-0.0016547,0.016227,-0.0011762,-0.00021173,0,0,0,1,0,1
17580,1.6461e+09,-0.0016666,-0.023708,-0.0014861,-0.0002675,0,0,0,1,0,1
17622,1.6461e+09,-0.0016568,0.0188,-0.00083849,-0.00015093,0,0,0,1,0,1
17665,1.6461e+09,-0.0016489,-0.016381,-0.00081215,-0.00014619,0,0,0,1,0,1
17707,1.6461e+09,-0.0016543,0.00081083,-0.002163,-0.00038934,0,0,0,1,0,1
17753,1.6462e+09,-0.001653,0.0072928,-0.00089933,-0.00016188,0,0,0,1,0,1
17798,1.6462e+09,-0.0016671,-0.0050882,-0.0016851,-0.00030332,0,0,0,1,0,1
17842,1.6462e+09,-0.0016586,0.025776,-0.0027043,-0.00048678,0,0,0,1,0,1
17886,1.6462e+09,-0.0016764,-0.012689,-0.0034948,-0.00062906,0,0,0,1,0,1
17931,1.6462e+09,-0.00167,0.022883,-0.0035339,-0.0006361,0,0,0,1,0,1
17979,1.6462e+09,-0.0016721,-0.0094274,-0.0035873,-0.00064571,0,0,0,1,0,1
18028,1.6462e+09,-0.0016877,0.012483,-0.0052904,-0.00095227,0,0,0,1,0,1
18073,1.6462e+09,-0.001665,-0.013547,-0.003051,-0.00054917,0,0,0,1,0,1
18120,1.6462e+09,-0.0016862,-0.014572,-0.0034214,-0.00061584,0,0,0,1,0,1
18168,1.6463e+09,-0.0016894,0.018836,-0.0044765,-0.00080577,0,0,0,1,0,1
18219,1.6463e+09,-0.0016594,0.0070826,-0.0016018,-0.00028832,0,0,0,1,0,1
18264,1.6463e+09,-0.0016801,-0.018332,-0.002572,-0.00046295,0,0,0,1,0,1
18308,1.6463e+09,-0.0016486,0.02281,-0.0016358,-0.00029444,0,0,0,1,0,1
18353,1.6463e+09,-0.001676,-0.029325,-0.001411,-0.00025398,0,0,0,1,0,1
18402,1.6463e+09,-0.001666,0.024156,-0.0010495,-0.00018891,0,0,0,1,0,1
18447,1.6463e+09,-0.0016687,-0.0098318,-0.00073688,-0.00013264,0,0,0,1,0,1
18495,1.6463e+09,-0.0016825,0.0096864,-0.0033874,-0.00060973,0,0,0,1,0,1
18541,1.6463e+09,-0.0016486,0.030483,-0.0020976,-0.00037756,0,0,0,1,0,1
18584,1.6464e+09,-0.0016834,-0.015344,-0.0020504,-0.00036907,0,0,0,1,0,1
18628,1.6464e+09,-0.0016885,0.041905,-0.0048313,-0.00086964,0,0,0,1,0,1
18674,1.6464e+09,-0.0016886,-0.031555,-0.0028437,-0.00051187,0,0,0,1,0,1
18719,1.6464e+09,-0.0016942,0.012506,-0.0041419,-0.00074555,0,0,0,1,0,1
18763,1.6464e+09,-0.0016658,-0.0060299,-0.0025232,-0.00045417,0,0,0,1,0,1
18808,1.6464e+09,-0.0016904,-0.0012991,-0.0041484,-0.00074671,0,0,0,1,0,1
18856,1.6464e+09,-0.0016601,-0.0058378,-0.0015758,-0.00028365,0,0,0,1,0,1
18901,1.6464e+09,-0.0016691,-0.013385,-0.00181,-0.0003258,0,0,0,1,0,1
18946,1.6464e+09,-0.0016485,0.034545,-0.002147,-0.00038646,0,0,0,1,0,1
18991,1.6465e+09,-0.0016708,-0.029397,-0.0016654,-0.00029978,0,0,0,1,0,1
19039,1.6465e+09,-0.0016756,-0.002105,-0.0011785,-0.00021214,0,0,0,1,0,1
19084,1.6465e+09,-0.0016561,-0.0016516,0.00010185,1.8333e-05,0,0,0,1,0,1
19129,1.6465e+09,-0.0016893,0.0031634,-0.002792,-0.00050257,0,0,0,1,0,1
19174,1.6465e+09,-0.0016735,-0.0039947,-0.00083636,-0.00015055,0,0,0,1,0,1
19219,1.6465e+09,-0.0016929,0.0011228,-0.0022316,-0.00040168,0,0,0,1,0,1
19263,1.6465e+09,-0.0016701,0.025089,-0.0024855,-0.00044739,0,0,0,1,0,1
19312,1.6465e+09,-0.0016894,-0.0098758,-0.0036681,-0.00066026,0,0,0,1,0,1
19357,1.6465e+09,-0.0016729,0.016689,-0.0033725,-0.00060706,0,0,0,1,0,1
19401,1.6465e+09,-0.0016691,-0.01813,-0.0023035,-0.00041464,0,0,0,1,0,1
19449,1.6466e+09,-0.0016769,0.023149,-0.0050685,-0.00091232,0,0,0,1,0,1
19488,1.6466e+09,-0.0016561,-0.0068017,-0.0030782,-0.00055407,0,0,0,1,0,1
19531,1.6466e+09,-0.0016576,-0.019293,-0.0029447,-0.00053005,0,0,0,1,0,1
19574,1.6466e+09,-0.0016341,0.047809,-0.003907,-0.00070325,0,0,0,1,0,1
19617,1.6466e+09,-0.0016616,-0.032096,-0.0035111,-0.000632,0,0,0,1,0,1
19660,1.6466e+09,-0.0016495,0.029421,-0.0033722,-0.00060699,0,0,0,1,0,1
19703,1.6466e+09,-0.0016566,-0.032607,-0.00081166,-0.0001461,0,0,0,1,0,1
19750,1.6466e+09,-0.0016658,0.042295,-0.0045936,-0.00082684,0,0,0,1,0,1
19793,1.6466e+09,-0.001662,-0.031588,-0.0020671,-0.00037208,0,0,0,1,0,1
19835,1.6467e+09,-0.0016783,0.0042261,-0.0038277,-0.00068899,0,0,0,1,0,1
19879,1.6467e+09,-0.0016582,-0.0090203,-0.0010947,-0.00019705,0,0,0,1,0,1
19925,1.6467e+09,-0.001684,-0.020559,-0.0037741,-0.00067933,0,0,0,1,0,1
19967,1.6467e+09,-0.0016887,0.035447,-0.003921,-0.00070578,0,0,0,1,0,1
20011,1.6467e+09,-0.0016912,-0.024037,-0.0023675,-0.00042615,0,0,0,1,0,1
20054,1.6467e+09,-0.001702,0.028798,-0.0050567,-0.00091021,0,0,0,1,0,1
20098,1.6467e+09,-0.001681,-0.017381,-0.0032465,-0.00058436,0,0,0,1,0,1
20145,1.6467e+09,-0.001689,-0.017354,-0.0037785,-0.00068013,0,0,0,1,0,1
20188,1.6467e+09,-0.0016528,0.012876,-0.0021749,-0.00039149,0,0,0,1,0,1
20230,1.6467e+09,-0.0016655,-0.02083,-0.0043863,-0.00078954,0,0,0,1,0,1
20276,1.6468e+09,-0.0016379,0.021016,-0.0028711,-0.0005168,0,0,0,1,0,1
20318,1.6468e+09,-0.0016478,-0.021777,-0.0012746,-0.00022942,0,0,0,1,0,1
20362,1.6468e+09,-0.001662,0.0024243,-0.0045685,-0.00082233,0,0,0,1,0,1
20407,1.6468e+09,-0.001637,0.0084371,-0.0023358,-0.00042045,0,0,0,1,0,1
20451,1.6468e+09,-0.001649,-0.029665,-0.0021281,-0.00038306,0,0,0,1,0,1
20497,1.6468e+09,-0.0016449,0.050827,-0.0027351,-0.00049232,0,0,0,1,0,1
20542,1.6468e+09,-0.0016715,-0.015001,-0.0036006,-0.00064811,0,0,0,1,0,1
20592,1.6468e+09,-0.0016835,0.035872,-0.0046498,-0.00083696,0,0,0,1,0,1
20637,1.6468e+09,-0.0016797,-0.030702,-0.0016912,-0.00030442,0,0,0,1,0,1
20682,1.6469e+09,-0.0017005,0.038595,-0.004561,-0.00082098,0,0,0,1,0,1
20727,1.6469e+09,-0.0016964,-0.014176,-0.0029165,-0.00052496,0,0,0,1,0,1
20776,1.6469e+09,-0.0016967,-0.01965,-0.0041668,-0.00075002,0,0,0,1,0,1
20821,1.6469e+09,-0.0016755,0.0233,-0.0027541,-0.00049574,0,0,0,1,0,1
20866,1.6469e+09,-0.0016745,-0.0047359,-0.003501,-0.00063019,0,0,0,1,0,1
20912,1.6469e+09,-0.0016707,0.02944,-0.0044478,-0.00080061,0,0,0,1,0,1
20957,1.6469e+09,-0.0016497,-0.016829,-0.0024837,-0.00044707,0,0,0,1,0,1
21001,1.6469e+09,-0.0016547,0.031596,-0.0042496,-0.00076492,0,0,0,1,0,1
21050,1.6469e+09,-0.0016408,-0.012345,-0.0026381,-0.00047486,0,0,0,1,0,1
21097,1.647e+09,-0.0016667,-0.024522,-0.0031802,-0.00057243,0,0,0,1,0,1
21138,1.647e+09,-0.0016405,0.014689,-0.0025052,-0.00045093,0,0,0,1,0,1
21187,1.647e+09,-0.0016518,-0.0047037,-0.0024107,-0.00043392,0,0,0,1,0,1
21232,1.647e+09,-0.0016751,0.017519,-0.0041827,-0.00075289,0,0,0,1,0,1
21277,1.647e+09,-0.001665,0.0035242,-0.0023245,-0.0004184,0,0,0,1,0,1
21321,1.647e+09,-0.0016885,-0.0056323,-0.0040388,-0.00072698,0,0,0,1,0,1
21366,1.647e+09,-0.0016704,0.0073302,-0.0029921,-0.00053857,0,0,0,1,0,1
21411,1.647e+09,-0.0016842,-0.020628,-0.0036853,-0.00066335,0,0,0,1,0,1
21460,1.647e+09,-0.001664,0.017476,-0.0034357,-0.00061842,0,0,0,1,0,1
21505,1.647e+09,-0.0016747,-0.018883,-0.0036269,-0.00065285,0,0,0,1,0,1
21550,1.6471e+09,-0.0016628,0.023458,-0.0040818,-0.00073472,0,0,0,1,0,1
21596,1.6471e+09,-0.0016525,-0.01978,-0.0027237,-0.00049026,0,0,0,1,0,1
21640,1.6471e+09,-0.0016536,0.030407,-0.0046061,-0.0008291,0,0,0,1,0,1
21686,1.6471e+09,-0.0016414,-0.014836,-0.002278,-0.00041004,0,0,0,1,0,1
21730,1.6471e+09,-0.0016524,0.012757,-0.0040765,-0.00073377,0,0,0,1,0,1
21776,1.6471e+09,-0.0016212,-0.0011872,-0.0015476,-0.00027856,0,0,0,1,0,1
21820,1.6471e+09,-0.0016276,-0.00015949,-0.0039278,-0.000707,0,0,0,1,0,1
21865,1.6471e+09,-0.0016011,0.010634,-0.0028467,-0.0005124,0,0,0,1,0,1
21914,1.6471e+09,-0.0016101,-0.028446,-0.002612,-0.00047016,0,0,0,1,0,1
21960,1.6472e+09,-0.0016015,0.031011,-0.0033902,-0.00061024,0,0,0,1,0,1
22002,1.6472e+09,-0.0016149,0.0010379,-0.0026857,-0.00048342,0,0,0,1,0,1
22048,1.6472e+09,-0.001637,-0.028935,-0.0024807,-0.00044652,0,0,0,1,0,1
22091,1.6472e+09,-0.0016456,0.03119,-0.0034236,-0.00061624,0,0,0,1,0,1
22133,1.6472e+09,-0.0016592,-0.012114,-0.0023505,-0.0004231,0,0,0,1,0,1
22176,1.6472e+09,-0.0016873,0.017467,-0.0037209,-0.00066976,0,0,0,1,0,1
22220,1.6472e+09,-0.0016617,-0.0093668,-0.0014419,-0.00025953,0,0,0,1,0,1
22263,1.6472e+09,-0.0016794,0.014397,-0.0031967,-0.0005754,0,0,0,1,0,1
22306,1.6472e+09,-0.0016475,0.001501,-0.001722,-0.00030997,0,0,0,1,0,1
22352,1.6473e+09,-0.0016665,-0.012206,-0.00263,-0.0004734,0,0,0,1,0,1
22397,1.6473e+09,-0.0016158,0.015585,-0.0018068,-0.00032523,0,0,0,1,0,1
22439,1.6473e+09,-0.0016277,-0.02039,-0.0026386,-0.00047495,0,0,0,1,0,1
22483,1.6473e+09,-0.0015917,0.022586,-0.0028066,-0.00050518,0,0,0,1,0,1
22529,1.6473e+09,-0.0015965,-0.025655,-0.0011076,-0.00019937,0,0,0,1,0,1
22571,1.6473e+09,-0.0016136,0.029491,-0.00431,-0.00077581,0,0,0,1,0,1
22614,1.6473e+09,-0.0016107,-0.0034786,-0.0023924,-0.00043064,0,0,0,1,0,1
22656,1.6473e+09,-0.0016467,0.004123,-0.0043117,-0.00077611,0,0,0,1,0,1
22700,1.6473e+09,-0.0016305,0.0096064,-0.0019158,-0.00034485,0,0,0,1,0,1
22741,1.6473e+09,-0.0016548,-0.012082,-0.0035941,-0.00064694,0,0,0,1,0,1
22787,1.6474e+09,-0.0016408,0.013803,-0.0027761,-0.00049969,0,0,0,1,0,1
22832,1.6474e+09,-0.0016669,-0.038188,-0.0017325,-0.00031185,0,0,0,1,0,1
22877,1.6474e+09,-0.0016454,0.028276,-0.0024343,-0.00043817,0,0,0,1,0,1
22925,1.6474e+09,-0.0016495,-0.0040628,-0.0020815,-0.00037467,0,0,0,1,0,1
22969,1.6474e+09,-0.0016549,-0.0020521,-0.0030478,-0.0005486,0,0,0,1,0,1
23014,1.6474e+09,-0.0016212,0.017802,-0.001774,-0.00031932,0,0,0,1,0,1
23060,1.6474e+09,-0.0016241,0.0045719,-0.0037748,-0.00067946,0,0,0,1,0,1
23105,1.6474e+09,-0.0015928,0.015895,-0.0040966,-0.00073739,0,0,0,1,0,1
23150,1.6474e+09,-0.0015948,-0.028204,-0.0027574,-0.00049633,0,0,0,1,0,1
23198,1.6475e+09,-0.0015775,0.015731,-0.0027042,-0.00048676,0,0,0,1,0,1
23243,1.6475e+09,-0.0016059,-0.011333,-0.003781,-0.00068058,0,0,0,1,0,1
23288,1.6475e+09,-0.0015999,0.0077243,-0.0033726,-0.00060708,0,0,0,1,0,1
23333,1.6475e+09,-0.0016101,-0.021837,-0.0018501,-0.00033302,0,0,0,1,0,1
23381,1.6475e+09,-0.0016308,0.01383,-0.0038745,-0.00069741,0,0,0,1,0,1
23422,1.6475e+09,-0.0016052,0.0059026,-0.0031557,-0.00056803,0,0,0,1,0,1
23467,1.6475e+09,-0.0016233,-0.035615,-0.0015731,-0.00028316,0,0,0,1,0,1
23511,1.6475e+09,-0.0016023,0.018122,-0.001626,-0.00029269,0,0,0,1,0,1
23558,1.6475e+09,-0.0016171,-0.015422,-0.0012092,-0.00021766,0,0,0,1,0,1
23605,1.6475e+09,-0.0016212,0.013419,-0.0025814,-0.00046466,0,0,0,1,0,1
23647,1.6476e+09,-0.0016167,-0.0096859,5.2499e-05,9.4498e-06,0,0,0,1,0,1
23692,1.6476e+09,-0.0016346,0.021314,-0.0023727,-0.00042709,0,0,0,1,0,1
23736,1.6476e+09,-0.0016097,0.0010915,-0.0016432,-0.00029577,0,0,0,1,0,1
23781,1.6476e+09,-0.0016378,-0.016698,-0.0016383,-0.0002949,0,0,0,1,0,1
23826,1.6476e+09,-0.0016122,0.017802,-0.00092721,-0.0001669,0,0,0,1,0,1
23871,1.6476e+09,-0.0016379,-0.0018171,-0.0028639,-0.0005155,0,0,0,1,0,1
23915,1.6476e+09,-0.001628,0.01492,-0.0034619,-0.00062315,0,0,0,1,0,1
23961,1.6476e+09,-0.0016301,-0.027521,-0.0012208,-0.00021974,0,0,0,1,0,1
24007,1.6476e+09,-0.0016372,0.031266,-0.0029887,-0.00053797,0,0,0,1,0,1
24051,1.6477e+09,-0.0016172,0.004173,-0.0024497,-0.00044095,0,0,0,1,0,1
24100,1.6477e+09,-0.0016406,-0.0087224,-0.0035331,-0.00063596,0,0,0,1,0,1
24144,1.6477e+09,-0.0016105,0.0077932,-0.0015442,-0.00027796,0,0,0,1,0,1
24190,1.6477e+09,-0.0016282,-0.0069306,-0.0029507,-0.00053113,0,0,0,1,0,1
24235,1.6477e+09,-0.0016143,0.01015,-0.0027905,-0.00050228,0,0,0,1,0,1
24279,1.6477e+09,-0.0015162,-0.016325,-0.0018406,-0.0003313,-8.1551e-08,0,0,1,0,0
24327,1.6477e+09,-0.0014288,0.030478,-0.0023786,-0.00042814,-1.1362e-07,0,0,1,0,1
24372,1.6477e+09,-0.0015687,-0.019026,-0.0020757,-0.00037363,-1.0679e-07,0,0,1,0,1
24418,1.6477e+09,-0.0016773,0.007407,-0.0030019,-0.00054033,-1.0037e-07,0,0,1,0,1
24465,1.6477e+09,-0.0019033,0.014153,-0.0036214,-0.00065185,-2.2095e-07,0,0,1,0,1
24513,1.6478e+09,-0.0020163,0.012317,-0.0036803,-0.00066245,-3.3761e-07,0,0,1,0,1
24559,1.6478e+09,-0.0021283,0.037927,-0.0038809,-0.00069857,-6.0708e-07,0,0,1,0,0
24601,1.6478e+09,-0.00264,0.002978,-0.0055305,-0.0009955,-5.7058e-07,0,0,1,0,1
24645,1.6478e+09,-0.0025907,-0.013527,-0.0041866,-0.00075359,-7.7321e-07,0,0,1,0,1
24688,1.6478e+09,-0.002981,0.0024122,-0.0057171,-0.0010291,-7.2672e-07,0,0,1,0,1
24730,1.6478e+09,-0.0030404,0.013035,-0.0056402,-0.0010152,-9.1477e-07,0,0,1,0,1
24774,1.6478e+09,-0.0028227,0.0028312,-0.0043552,-0.00078393,-1.2636e-06,0,0,1,0,0
24816,1.6478e+09,-0.0025553,-0.011091,-0.0033276,-0.00059897,-1.349e-06,0,0,1,0,1
24859,1.6478e+09,-0.0026014,-0.0027771,-0.0037956,-0.00068321,-1.4361e-06,0,0,1,0,0
24901,1.6479e+09,-0.00242,-0.010561,-0.0031861,-0.0005735,-1.3497e-06,0,0,1,0,1
24947,1.6479e+09,-0.0021371,0.030351,-0.0027327,-0.00049188,-1.5774e-06,0,0,1,0,0
24994,1.6479e+09,-0.0021932,-0.003024,-0.0026374,-0.00047473,-1.7435e-06,0,0,1,0,0
25037,1.6479e+09,-0.0019765,0.019345,-0.0020062,-0.00036112,-1.6997e-06,0,0,1,0,1
25080,1.6479e+09,-0.0028805,-0.0035343,-0.0052318,-0.00094173,-1.751e-06,0,0,1,0,1
25122,1.6479e+09,-0.0025674,0.010354,-0.0032455,-0.0005842,-1.8106e-06,0,0,1,0,1
25165,1.6479e+09,-0.0028435,0.0077454,-0.0045767,-0.00082381,-1.9045e-06,0,0,1,0,0
25207,1.6479e+09,-0.0027778,0.0095822,-0.0038993,-0.00070188,-1.9485e-06,0,0,1,0,1
25251,1.6479e+09,-0.0036616,-0.013903,-0.0068209,-0.0012278,-2.3714e-06,0,0,1,0,0
25294,1.6479e+09,-0.0033074,0.00019574,-0.0044862,-0.00080752,-2.4479e-06,0,0,1,0,1
25337,1.648e+09,-0.00404,-0.0091676,-0.0068089,-0.0012256,-3.1482e-06,0,0,1,0,0
25382,1.648e+09,-0.0030831,0.0033557,-0.0026229,-0.00047211,-3.1843e-06,0,0,1,0,0
25423,1.648e+09,-0.0036434,-0.0048672,-0.0053103,-0.00095585,-3.3277e-06,0,0,1,0,1
25467,1.648e+09,-0.0030303,-0.023009,-0.0014429,-0.00025972,-3.3792e-06,0,0,1,0,0
25512,1.648e+09,-0.0037137,0.0084668,-0.005037,-0.00090666,-3.3252e-06,0,0,1,0,1
25556,1.648e+09,-0.0028835,-0.01505,-0.0010045,-0.0001808,-3.1252e-06,0,0,1,0,1
25602,1.648e+09,-0.0033251,0.015089,-0.0038266,-0.00068879,-3.0322e-06,0,0,1,0,1
25647,1.648e+09,-0.0029103,-0.018762,-0.0015639,-0.00028151,-2.9419e-06,0,0,1,0,1
25691,1.648e+09,-0.0035528,-0.0047477,-0.004458,-0.00080244,-2.849e-06,0,0,1,0,1
25736,1.648e+09,-0.0033221,-0.011273,-0.0029362,-0.00052852,-3.1321e-06,0,0,1,0,1
25781,1.6481e+09,-0.0036913,0.02328,-0.0049706,-0.00089471,-3.164e-06,0,0,1,0,0
25826,1.6481e+09,-0.0034211,-0.01333,-0.0037834,-0.000681,-3.0674e-06,0,0,1,0,1
25875,1.6481e+09,-0.0042792,0.0066563,-0.0061211,-0.0011018,-3.3428e-06,0,0,1,0,0
25920,1.6481e+09,-0.0048122,-0.018659,-0.0053052,-0.00095494,-3.3428e-06,0,0,1,0,1
25965,1.6481e+09,-0.0057654,0.017277,-0.0076289,-0.0013732,-4.2341e-06,0,0,1,0,0
26010,1.6481e+09,-0.0060207,-0.0093811,-0.006792,-0.0012226,-4.8718e-06,0,0,1,0,0
26055,1.6481e+09,-0.006184,-0.0050401,-0.0071897,-0.0012941,-5.2039e-06,0,0,1,0,1
26099,1.6481e+09,-0.0062321,-0.033063,-0.0065198,-0.0011736,-5.8469e-06,0,0,1,0,0
26144,1.6481e+09,-0.0062003,0.00025819,-0.0067817,-0.0012207,-6.755e-06,0,0,1,0,0
26187,1.6482e+09,-0.0063011,-0.016319,-0.0068758,-0.0012376,-7.7079e-06,0,0,1,0,0
26232,1.6482e+09,-0.0061806,0.020356,-0.0081807,-0.0014725,-8.641e-06,0,0,1,0,1
26278,1.6482e+09,-0.005658,0.033726,-0.0068392,-0.0012311,-9.4801e-06,0,0,1,0,0
26327,1.6482e+09,-0.0066757,0.0071816,-0.0098378,-0.0017708,-1.0785e-05,0,0,1,0,0
26371,1.6482e+09,-0.0062669,-0.021866,-0.00642,-0.0011556,-1.2192e-05,0,0,1,0,0
26416,1.6482e+09,-0.007129,0.0023273,-0.010464,-0.0018835,-1.258e-05,0,0,1,0,1
26461,1.6482e+09,-0.0058519,0.028408,-0.0065599,-0.0011808,-1.3765e-05,0,0,1,0,0
26505,1.6482e+09,-0.006449,-0.0022268,-0.010121,-0.0018218,-1.5123e-05,0,0,1,0,0
26550,1.6482e+09,-0.0066311,0.03877,-0.010617,-0.001911,-1.6928e-05,0,0,1,0,0
26596,1.6483e+09,-0.0065404,-0.030011,-0.0083303,-0.0014995,-1.8233e-05,0,0,1,0,0
26641,1.6483e+09,-0.0075808,0.013774,-0.012638,-0.0022749,-1.9651e-05,0,0,1,0,1
26685,1.6483e+09,-0.0074818,0.034608,-0.010624,-0.0019124,-2.1076e-05,0,0,1,0,0
26732,1.6483e+09,-0.0080532,-0.0079353,-0.010997,-0.0019794,-2.2618e-05,0,0,1,0,0
26780,1.6483e+09,-0.0081023,-0.021219,-0.010324,-0.0018584,-2.4572e-05,0,0,1,0,0
26826,1.6483e+09,-0.0072681,0.015156,-0.0082861,-0.0014915,-2.6054e-05,0,0,1,0,0
26871,1.6483e+09,-0.0069611,-0.034535,-0.0069946,-0.001259,-2.7542e-05,0,0,1,0,0
26915,1.6483e+09,-0.0067055,0.029911,-0.0076641,-0.0013795,-2.8727e-05,0,0,1,0,0
26960,1.6483e+09,-0.0059818,0.028145,-0.0069038,-0.0012427,-2.994e-05,0,0,1,0,0
27004,1.6483e+09,-0.0059779,-0.041809,-0.0062977,-0.0011336,-3.133e-05,0,0,1,0,0
27051,1.6484e+09,-0.0067735,0.017881,-0.010047,-0.0018084,-3.2829e-05,0,0,1,0,0
27093,1.6484e+09,-0.0074031,0.02741,-0.011786,-0.0021214,-3.506e-05,0,0,1,0,0
27135,1.6484e+09,-0.007314,0.040219,-0.011065,-0.0019917,-3.6927e-05,0,0,1,0,0
27178,1.6484e+09,-0.0082756,-0.016131,-0.013208,-0.0023775,-3.937e-05,0,0,1,0,0
27225,1.6484e+09,-0.0090991,-0.0092914,-0.014977,-0.0026959,-4.1995e-05,0,0,1,0,0
27268,1.6484e+09,-0.0093097,0.07064,-0.015316,-0.0027568,-4.4438e-05,0,0,1,0,0
27311,1.6484e+09,-0.0095096,-0.026834,-0.011926,-0.0021467,-4.6924e-05,0,0,1,0,0
27357,1.6484e+09,-0.010358,-0.037118,-0.012609,-0.0022696,-4.9973e-05,0,0,1,0,0
27400,1.6484e+09,-0.0099698,-0.0082661,-0.0097488,-0.0017548,-5.1874e-05,0,0,1,0,0
27442,1.6485e+09,-0.010086,-0.0084258,-0.010172,-0.0018309,-5.3694e-05,0,0,1,0,0
27485,1.6485e+09,-0.010193,0.045317,-0.012576,-0.0022638,-5.567e-05,0,0,1,0,0
27528,1.6485e+09,-0.010078,0.002099,-0.012277,-0.0022098,-5.7949e-05,0,0,1,0,0
27570,1.6485e+09,-0.010685,-0.013706,-0.013283,-0.002391,-6.0371e-05,0,0,1,0,0
27617,1.6485e+09,-0.011415,-0.018251,-0.012744,-0.002294,-6.2738e-05,0,0,1,0,0
27661,1.6485e+09,-0.011516,0.0093232,-0.013221,-0.0023797,-6.5042e-05,0,0,1,0,0
27704,1.6485e+09,-0.01058,0.03361,-0.012897,-0.0023214,-6.7257e-05,0,0,1,0,0
27750,1.6485e+09,-0.011361,0.025552,-0.01755,-0.0031589,-7.0792e-05,0,0,1,0,0
27798,1.6485e+09,-0.011909,0.033034,-0.019948,-0.0035907,-7.4914e-05,0,0,1,0,0
27834,1.6486e+09,-0.012871,0.004186,-0.021105,-0.0037989,-7.8675e-05,0,0,1,0,0
27878,1.6486e+09,-0.013126,-0.011336,-0.01947,-0.0035045,-8.2294e-05,0,0,1,0,0
27922,1.6486e+09,-0.012937,-0.019619,-0.016955,-0.0030519,-8.5518e-05,0,0,1,0,0
27966,1.6486e+09,-0.012515,-0.020437,-0.014824,-0.0026682,-8.8338e-05,0,0,1,0,0
28010,1.6486e+09,-0.012811,-0.0033207,-0.015242,-0.0027435,-9.1059e-05,0,0,1,0,0
28060,1.6486e+09,-0.012621,0.00030901,-0.013751,-0.0024753,-9.3579e-05,0,0,1,0,0
28104,1.6486e+09,-0.012014,0.015257,-0.012198,-0.0021956,-9.5766e-05,0,0,1,0,0
28150,1.6486e+09,-0.011524,-0.015261,-0.011051,-0.0019891,-9.7898e-05,0,0,1,0,0
28195,1.6486e+09,-0.011114,0.0094639,-0.011089,-0.0019961,-9.9867e-05,0,0,1,0,0
28239,1.6487e+09,-0.011161,0.018244,-0.012153,-0.0021876,-0.00010198,0,0,1,0,0
28284,1.6487e+09,-0.011826,0.066323,-0.016134,-0.0029042,-0.00010452,0,0,1,0,0
28328,1.6487e+09,-0.012946,0.047268,-0.018131,-0.0032636,-0.00010758,0,0,1,0,0
28373,1.6487e+09,-0.014876,0.050972,-0.021717,-0.003909,-0.0001112,0,0,1,0,0
28419,1.6487e+09,-0.017456,0.051308,-0.025804,-0.0046448,-0.00011549,0,0,1,0,0
28465,1.6487e+09,-0.019217,0.0089736,-0.026475,-0.0047655,-0.00012018,0,0,1,0,0
28513,1.6487e+09,-0.020234,0.030762,-0.02732,-0.0049177,-0.0001249,0,0,1,0,0
28559,1.6487e+09,-0.021522,0.0049709,-0.029686,-0.0053434,-0.00013013,0,0,1,0,0
28608,1.6487e+09,-0.022613,0.012747,-0.029321,-0.0052778,-0.00013674,0,0,1,0,0
28652,1.6488e+09,-0.02381,-0.023924,-0.027983,-0.0050369,-0.0001433,0,0,1,0,0
28696,1.6488e+09,-0.024293,-0.0092458,-0.026813,-0.0048263,-0.0001482,0,0,1,0,0
28742,1.6488e+09,-0.024673,-0.040015,-0.02551,-0.0045918,-0.00015301,0,0,1,0,0
28788,1.6488e+09,-0.022685,-0.043404,-0.017505,-0.003151,-0.00015666,0,0,1,0,0
28832,1.6488e+09,-0.021498,0.0090203,-0.016858,-0.0030344,-0.00015965,0,0,1,0,0
28878,1.6488e+09,-0.020533,0.00010974,-0.016213,-0.0029183,-0.00016255,0,0,1,0,0
28930,1.6488e+09,-0.019693,0.0048026,-0.016854,-0.0030337,-0.00016625,0,0,1,0,0
28975,1.6488e+09,-0.019916,0.032819,-0.019828,-0.003569,-0.00016963,0,0,1,0,0
29020,1.6488e+09,-0.021296,0.062942,-0.025028,-0.0045051,-0.00017368,0,0,1,0,0
29064,1.6489e+09,-0.022578,0.014806,-0.028026,-0.0050447,-0.00017853,0,0,1,0,0
29109,1.6489e+09,-0.023863,0.03882,-0.032234,-0.0058022,-0.00018402,0,0,1,0,0
29153,1.6489e+09,-0.026044,0.068824,-0.038862,-0.0069951,-0.0001906,0,0,1,0,0
29198,1.6489e+09,-0.029551,0.12921,-0.049536,-0.0089165,-0.00019871,0,0,1,0,0
29243,1.6489e+09,-0.034497,0.09348,-0.060077,-0.010814,-0.00020883,0,0,1,0,0
29288,1.6489e+09,-0.038482,0.057252,-0.065076,-0.011714,-0.00022023,0,0,1,0,0
29335,1.6489e+09,-0.042988,0.11976,-0.074564,-0.013421,-0.000233,0,0,1,0,0
29383,1.6489e+09,-0.048137,0.16297,-0.086713,-0.015608,-0.00024769,0,0,1,0,0
29429,1.6489e+09,-0.055776,0.1952,-0.10587,-0.019057,-0.00026542,0,0,1,0,0
29474,1.6489e+09,-0.063697,0.13294,-0.1197,-0.021546,-0.00028617,0,0,1,0,0
29518,1.649e+09,-0.072608,0.099879,-0.12993,-0.023388,-0.00031457,0,0,1,0,0
29560,1.649e+09,-0.079102,0.16006,-0.13925,-0.025065,-0.00033891,0,0,1,0,0
29602,1.649e+09,-0.088452,0.26269,-0.16106,-0.02899,-0.00036638,0,0,1,0,0
29645,1.649e+09,-0.098285,0.20236,-0.17699,-0.031858,-0.00039725,0,0,1,0,0
29687,1.649e+09,-0.10777,0.18573,-0.1889,-0.034002,-0.00043036,0,0,1,0,0
29731,1.649e+09,-0.11755,0.19939,-0.20404,-0.036727,-0.00046603,0,0,1,0,0
29774,1.649e+09,-0.12654,0.18784,-0.21575,-0.038835,-0.00050411,0,0,1,0,0
29821,1.649e+09,-0.13609,0.23442,-0.23187,-0.041736,-0.0005447,0,0,1,0,0
29864,1.649e+09,-0.14627,0.21668,-0.24844,-0.044719,-0.00058836,0,0,1,0,0
29906,1.6491e+09,-0.15652,0.24077,-0.26359,-0.047446,-0.00063477,0,0,1,0,0
29949,1.6491e+09,-0.16756,0.28352,-0.28328,-0.05099,-0.00068439,0,0,1,0,0
29993,1.6491e+09,-0.17903,0.26479,-0.30093,-0.054167,-0.00073732,0,0,1,0,0
30036,1.6491e+09,-0.19124,0.22959,-0.31764,-0.057175,-0.00079341,0,0,1,0,0
30078,1.6491e+09,-0.20382,0.28582,-0.33484,-0.06027,-0.00085239,0,0,1,0,0
30121,1.6491e+09,-0.21756,0.31073,-0.35642,-0.064155,-0.00091512,0,0,1,0,0
30164,1.6491e+09,-0.23217,0.27723,-0.37598,-0.067676,-0.00098158,0,0,1,0,0
30206,1.6491e+09,-0.24524,0.29,-0.39158,-0.070485,-0.0010509,0,0,1,0,0
30253,1.6491e+09,-0.25846,0.28305,-0.40896,-0.073613,-0.0011234,0,0,1,0,0
30297,1.6492e+09,-0.2721,0.33137,-0.42856,-0.077142,-0.0011991,0,0,1,0,0
30344,1.6492e+09,-0.29123,0.29724,-0.45424,-0.081763,-0.0012991,0,0,1,0,0
30381,1.6492e+09,-0.30259,0.30313,-0.4692,-0.084457,-0.0013826,0,0,1,0,0
30425,1.6492e+09,-0.32039,0.33705,-0.49061,-0.088309,-0.0014694,0,0,1,0,0
30471,1.6492e+09,-0.336,0.31251,-0.50893,-0.091608,-0.0015598,0,0,1,0,0
30516,1.6492e+09,-0.35119,0.34715,-0.52825,-0.095085,-0.0016535,0,0,1,0,0
30560,1.6492e+09,-0.36591,0.33587,-0.54564,-0.098215,-0.0017505,0,0,1,0,0
30605,1.6492e+09,-0.38079,0.29701,-0.56162,-0.10109,-0.0018506,0,0,1,0,0
30649,1.6492e+09,-0.39483,0.31635,-0.57687,-0.10384,-0.0019533,0,0,1,0,0
30700,1.6492e+09,-0.40942,0.32815,-0.59532,-0.10716,-0.0020592,0,0,1,0,0
30746,1.6493e+09,-0.4226,0.31265,-0.60761,-0.10937,-0.0021677,0,0,1,0,0
30791,1.6493e+09,-0.43765,0.30317,-0.62393,-0.11231,-0.0022789,0,0,1,0,0
30836,1.6493e+09,-0.45216,0.28783,-0.63674,-0.11461,-0.0023926,0,0,1,0,0
30880,1.6493e+09,-0.46544,0.24217,-0.64692,-0.11645,-0.0025085,0,0,1,0,0
30925,1.6493e+09,-0.47842,0.26566,-0.65985,-0.11877,-0.0026264,0,0,1,0,0
30969,1.6493e+09,-0.4914,0.28854,-0.67225,-0.121,-0.0027465,0,0,1,0,0
31014,1.6493e+09,-0.52764,0.25846,-0.68318,-0.12297,-0.0028687,0,0,1,0,0
31058,1.6493e+09,-0.55964,0.2111,-0.69675,-0.12542,-0.0029933,0,0,1,0,0
31103,1.6493e+09,-0.58861,0.24956,-0.71278,-0.1283,-0.0031206,0,0,1,0,0
31154,1.6494e+09,-0.61851,0.22955,-0.73208,-0.13177,-0.0032836,0,0,1,0,0
31197,1.6494e+09,-0.64539,0.26648,-0.74966,-0.13494,-0.0034172,0,0,1,0,0
31242,1.6494e+09,-0.67789,0.23739,-0.76759,-0.13817,-0.0035541,0,0,1,0,0
31290,1.6494e+09,-0.71759,0.21855,-0.78844,-0.14192,-0.0037296,0,0,1,0,0
31334,1.6494e+09,-0.75965,0.17376,-0.80672,-0.14521,-0.0038736,0,0,1,0,0
31379,1.6494e+09,-0.81564,0.19921,-0.82863,-0.14915,-0.0040212,0,0,1,0,0
31423,1.6494e+09,-0.87253,0.20804,-0.85777,-0.1544,-0.0041737,0,0,1,0,0
31468,1.6494e+09,-0.90272,0.1782,-0.88294,-0.15893,-0.0043309,0,0,1,0,0
31513,1.6494e+09,-0.93763,0.16781,-0.90791,-0.16342,-0.0044927,0,0,1,0,0
31562,1.6495e+09,-0.97551,0.1471,-0.93412,-0.16814,-0.0046591,0,0,1,0,0
31607,1.6495e+09,-1.0023,0.14615,-0.95929,-0.17267,-0.0048301,0,0,1,0,0
31651,1.6495e+09,-1.0209,0.12882,-0.984,-0.17712,-0.0050057,0,0,1,0,0
31696,1.6495e+09,-1.0388,0.13911,-1.0027,-0.18048,-0.0051848,0,0,1,0,0
31740,1.6495e+09,-1.0638,0.1144,-1.0247,-0.18444,-0.0053678,0,0,1,0,0
31785,1.6495e+09,-1.0832,0.10879,-1.0429,-0.18772,-0.0055544,0,0,1,0,0
31831,1.6495e+09,-1.1079,0.085641,-1.0624,-0.19123,-0.0057444,0,0,1,0,0
31875,1.6495e+09,-1.1258,0.064727,-1.0771,-0.19388,-0.0059373,0,0,1,0,0
31920,1.6495e+09,-1.1439,0.079602,-1.0935,-0.19684,-0.0061331,0,0,1,0,0
31963,1.6496e+09,-1.1569,0.082105,-1.1086,-0.19956,-0.0063316,0,0,1,0,0
32009,1.6496e+09,-1.1621,0.048932,-1.1215,-0.20188,-0.0065327,0,0,1,0,0
32053,1.6496e+09,-1.1731,0.0080882,-1.1283,-0.20309,-0.0067354,0,0,1,0,0
32098,1.6496e+09,-1.2128,0.02835,-1.139,-0.20502,-0.0069396,0,0,1,0,0
32143,1.6496e+09,-1.2662,0.018719,-1.1509,-0.20717,-0.0071459,0,0,1,0,0
32187,1.6496e+09,-1.325,-0.0091538,-1.1686,-0.21035,-0.007355,0,0,1,0,0
32233,1.6496e+09,-1.3854,0.0028134,-1.1914,-0.21444,-0.0075679,0,0,1,0,0
32277,1.6496e+09,-1.4333,-0.061751,-1.2121,-0.21817,-0.0077847,0,0,1,0,0
32322,1.6496e+09,-1.4564,-0.060024,-1.2334,-0.22202,-0.0080053,0,0,1,0,0
32368,1.6496e+09,-1.4776,-0.048101,-1.2546,-0.22583,-0.0082297,0,0,1,0,0
32412,1.6497e+09,-1.4931,-0.1232,-1.2697,-0.22855,-0.0084573,0,0,1,0,0
32461,1.6497e+09,-1.5054,-0.1244,-1.2842,-0.23115,-0.0086876,0,0,1,0,0
32505,1.6497e+09,-1.516,-0.097274,-1.297,-0.23346,-0.0089201,0,0,1,0,0
32550,1.6497e+09,-1.5286,-0.16867,-1.3071,-0.23528,-0.0091548,0,0,1,0,0
32594,1.6497e+09,-1.5439,-0.16056,-1.3171,-0.23708,-0.0093913,0,0,1,0,0
32639,1.6497e+09,-1.5521,-0.17446,-1.3243,-0.23837,-0.0096291,0,0,1,0,0
32684,1.6497e+09,-1.5387,-0.20538,-1.326,-0.23868,-0.0098677,0,0,1,0,0
32731,1.6497e+09,-1.5351,-0.208,-1.3264,-0.23875,-0.010106,0,0,1,0,0
32778,1.6497e+09,-1.5097,-0.22115,-1.3222,-0.23799,-0.010345,0,0,1,0,0
32823,1.6498e+09,-1.503,-0.25404,-1.3165,-0.23698,-0.010582,0,0,1,0,0
32869,1.6498e+09,-1.5147,-0.26401,-1.3085,-0.23552,-0.010818,0,0,1,0,0
32912,1.6498e+09,-1.5199,-0.2746,-1.3028,-0.2345,-0.011053,0,0,1,0,0
32954,1.6498e+09,-1.5041,-0.26949,-1.2923,-0.23261,-0.011286,0,0,1,0,0
32997,1.6498e+09,-1.5002,-0.29493,-1.2814,-0.23066,-0.011518,0,0,1,0,0
33040,1.6498e+09,-1.4892,-0.32926,-1.2685,-0.22834,-0.011747,0,0,1,0,0
33082,1.6498e+09,-1.4878,-0.28952,-1.2596,-0.22673,-0.011974,0,0,1,0,0
33126,1.6498e+09,-1.4673,-0.33652,-1.2454,-0.22417,-0.012199,0,0,1,0,0
33168,1.6498e+09,-1.458,-0.31491,-1.232,-0.22175,-0.012422,0,0,1,0,0
33211,1.6498e+09,-1.4319,-0.39752,-1.2126,-0.21827,-0.012642,0,0,1,0,0
33255,1.6499e+09,-1.4103,-0.38211,-1.1949,-0.21508,-0.012858,0,0,1,0,0
33297,1.6499e+09,-1.3878,-0.38928,-1.1731,-0.21116,-0.013071,0,0,1,0,0
33345,1.6499e+09,-1.3464,-0.37013,-1.1513,-0.20724,-0.013279,0,0,1,0,0
33387,1.6499e+09,-1.3029,-0.42073,-1.1236,-0.20225,-0.013484,0,0,1,0,0
33431,1.6499e+09,-1.2561,-0.40709,-1.0943,-0.19698,-0.013683,0,0,1,0,0
33474,1.6499e+09,-1.2174,-0.45369,-1.0622,-0.1912,-0.013876,0,0,1,0,0
33517,1.6499e+09,-1.1718,-0.37835,-1.0314,-0.18564,-0.014064,0,0,1,0,0
33559,1.6499e+09,-1.138,-0.44799,-0.99353,-0.17884,-0.014245,0,0,1,0,0
33602,1.6499e+09,-1.0938,-0.41391,-0.95754,-0.17236,-0.01442,0,0,1,0,0
33641,1.65e+09,-1.0469,-0.43992,-0.91965,-0.16554,-0.014588,0,0,1,0,0
33685,1.65e+09,-0.99936,-0.44174,-0.88244,-0.15884,-0.01475,0,0,1,0,0
33731,1.65e+09,-0.96812,-0.43856,-0.8456,-0.15221,-0.014904,0,0,1,0,0
33780,1.65e+09,-0.95199,-0.42906,-0.80707,-0.14527,-0.015052,0,0,1,0,0
33825,1.65e+09,-0.94056,-0.42888,-0.77307,-0.13915,-0.015193,0,0,1,0,0
33869,1.65e+09,-0.93081,-0.42991,-0.74291,-0.13372,-0.015329,0,0,1,0,0
33915,1.65e+09,-0.92119,-0.43053,-0.71566,-0.12882,-0.01546,0,0,1,0,0
33959,1.65e+09,-0.91014,-0.44899,-0.68918,-0.12405,-0.015586,0,0,1,0,0
34004,1.65e+09,-0.89885,-0.39975,-0.66386,-0.11949,-0.015707,0,0,1,0,0
34050,1.65e+09,-0.88872,-0.44261,-0.64155,-0.11548,-0.015824,0,0,1,0,0
34094,1.6501e+09,-0.8793,-0.41443,-0.62188,-0.11194,-0.015937,0,0,1,0,0
34139,1.6501e+09,-0.86983,-0.45054,-0.5996,-0.10793,-0.016047,0,0,1,0,0
34183,1.6501e+09,-0.85933,-0.43213,-0.58071,-0.10453,-0.016152,0,0,1,0,0
34232,1.6501e+09,-0.84817,-0.41551,-0.56322,-0.10138,-0.016255,0,0,1,0,0
34278,1.6501e+09,-0.83703,-0.38595,-0.55004,-0.099007,-0.016355,0,0,1,0,0
34323,1.6501e+09,-0.82672,-0.39984,-0.53817,-0.096871,-0.016452,0,0,1,0,0
34368,1.6501e+09,-0.81715,-0.36496,-0.5277,-0.094986,-0.016548,0,0,1,0,0
34412,1.6501e+09,-0.807,-0.38928,-0.5165,-0.092971,-0.016642,0,0,1,0,0
34453,1.6501e+09,-0.79674,-0.33204,-0.50791,-0.091424,-0.016734,0,0,1,0,0
34498,1.6502e+09,-0.78457,-0.33508,-0.49957,-0.089923,-0.016824,0,0,1,0,0
34542,1.6502e+09,-0.77408,-0.33587,-0.49225,-0.088605,-0.016913,0,0,1,0,0
34587,1.6502e+09,-0.76427,-0.33275,-0.48605,-0.087489,-0.017001,0,0,1,0,0
34631,1.6502e+09,-0.75476,-0.32363,-0.47758,-0.085965,-0.017088,0,0,1,0,0
34681,1.6502e+09,-0.74611,-0.26851,-0.47612,-0.085701,-0.017173,0,0,1,0,0
34725,1.6502e+09,-0.73724,-0.30227,-0.47158,-0.084884,-0.017259,0,0,1,0,0
34770,1.6502e+09,-0.72835,-0.31841,-0.4658,-0.083845,-0.017343,0,0,1,0,0
34814,1.6502e+09,-0.71965,-0.31148,-0.46278,-0.0833,-0.017427,0,0,1,0,0
34862,1.6502e+09,-0.71207,-0.22743,-0.46387,-0.083497,-0.01751,0,0,1,0,0
34906,1.6502e+09,-0.70389,-0.24666,-0.46126,-0.083027,-0.017593,0,0,1,0,0
34950,1.6503e+09,-0.69571,-0.27112,-0.45875,-0.082575,-0.017676,0,0,1,0,0
34995,1.6503e+09,-0.68648,-0.28921,-0.45074,-0.081134,-0.017758,0,0,1,0,0
35040,1.6503e+09,-0.67839,-0.23846,-0.45212,-0.081381,-0.017839,0,0,1,0,0
35085,1.6503e+09,-0.6695,-0.21738,-0.44956,-0.080921,-0.01792,0,0,1,0,0
35133,1.6503e+09,-0.66124,-0.20815,-0.4495,-0.08091,-0.018001,0,0,1,0,0
35178,1.6503e+09,-0.65297,-0.25984,-0.44316,-0.079769,-0.018081,0,0,1,0,0
35223,1.6503e+09,-0.64456,-0.23366,-0.43837,-0.078906,-0.01816,0,0,1,0,0
35268,1.6503e+09,-0.6365,-0.2173,-0.43606,-0.07849,-0.018239,0,0,1,0,0
35313,1.6503e+09,-0.62812,-0.2294,-0.43245,-0.077842,-0.018317,0,0,1,0,0
35358,1.6504e+09,-0.61722,-0.21398,-0.42637,-0.076746,-0.018413,0,0,1,0,0
35401,1.6504e+09,-0.60874,-0.16934,-0.42485,-0.076472,-0.01849,0,0,1,0,0
35443,1.6504e+09,-0.60079,-0.21091,-0.42044,-0.075679,-0.018566,0,0,1,0,0
35487,1.6504e+09,-0.593,-0.21823,-0.41638,-0.074948,-0.018641,0,0,1,0,0
35530,1.6504e+09,-0.58482,-0.23241,-0.41125,-0.074024,-0.018715,0,0,1,0,0
35576,1.6504e+09,-0.57811,-0.14838,-0.41193,-0.074147,-0.018789,0,0,1,0,0
35621,1.6504e+09,-0.57087,-0.20498,-0.40712,-0.073282,-0.018863,0,0,1,0,0
35664,1.6504e+09,-0.56477,-0.13718,-0.41023,-0.073842,-0.018937,0,0,1,0,0
35707,1.6504e+09,-0.55873,-0.17559,-0.40828,-0.07349,-0.01901,0,0,1,0,0
35750,1.6505e+09,-0.55253,-0.17795,-0.40565,-0.073018,-0.019084,0,0,1,0,0
35792,1.6505e+09,-0.54609,-0.12578,-0.40297,-0.072534,-0.019156,0,0,1,0,0
35835,1.6505e+09,-0.53999,-0.13146,-0.40232,-0.072417,-0.019229,0,0,1,0,0
35877,1.6505e+09,-0.53432,-0.13901,-0.40342,-0.072616,-0.019301,0,0,1,0,0
35921,1.6505e+09,-0.52918,-0.12039,-0.4045,-0.072811,-0.019374,0,0,1,0,0
35964,1.6505e+09,-0.52361,-0.15739,-0.40104,-0.072187,-0.019446,0,0,1,0,0
36010,1.6505e+09,-0.51825,-0.083653,-0.40125,-0.072225,-0.019518,0,0,1,0,0
36052,1.6505e+09,-0.51362,-0.14843,-0.4026,-0.072468,-0.019591,0,0,1,0,0
36095,1.6505e+09,-0.50824,-0.11246,-0.40057,-0.072103,-0.019663,0,0,1,0,0
36139,1.6505e+09,-0.50422,-0.12024,-0.40324,-0.072584,-0.019736,0,0,1,0,0
36183,1.6506e+09,-0.49624,-0.065648,-0.40086,-0.072155,-0.019844,0,0,1,0,0
36225,1.6506e+09,-0.49156,-0.10734,-0.40148,-0.072266,-0.019916,0,0,1,0,0
36270,1.6506e+09,-0.48659,-0.062828,-0.40235,-0.072424,-0.019989,0,0,1,0,0
36314,1.6506e+09,-0.48192,-0.10126,-0.40156,-0.072281,-0.020061,0,0,1,0,0
36360,1.6506e+09,-0.47598,-0.089681,-0.39723,-0.071502,-0.020133,0,0,1,0,0
36410,1.6506e+09,-0.47166,-0.049356,-0.40183,-0.072329,-0.020205,0,0,1,0,0
36454,1.6506e+09,-0.46694,-0.081449,-0.39893,-0.071807,-0.020277,0,0,1,0,0
36500,1.6506e+09,-0.46272,-0.074425,-0.39647,-0.071364,-0.020348,0,0,1,0,0
36544,1.6506e+09,-0.45904,-0.079776,-0.39568,-0.071223,-0.020419,0,0,1,0,0
36592,1.6507e+09,-0.45437,-0.073959,-0.39452,-0.071013,-0.020508,0,0,1,0,0
36637,1.6507e+09,-0.45053,-0.081934,-0.39184,-0.07053,-0.020579,0,0,1,0,0
36681,1.6507e+09,-0.44849,0.00064043,-0.3953,-0.071154,-0.02065,0,0,1,0,0
36726,1.6507e+09,-0.44536,-0.079198,-0.3917,-0.070505,-0.020721,0,0,1,0,0
36772,1.6507e+09,-0.44207,-0.033365,-0.39095,-0.070371,-0.020791,0,0,1,0,0
36816,1.6507e+09,-0.43968,-0.064716,-0.39111,-0.0704,-0.020861,0,0,1,0,0
36865,1.6507e+09,-0.4385,-0.033678,-0.39407,-0.070932,-0.020932,0,0,1,0,0
36913,1.6507e+09,-0.43654,-0.077147,-0.39264,-0.070676,-0.021003,0,0,1,0,0
36958,1.6507e+09,-0.43402,-0.030423,-0.3905,-0.07029,-0.021073,0,0,1,0,0
37001,1.6508e+09,-0.43326,-0.029034,-0.39687,-0.071437,-0.021162,0,0,1,0,0
37046,1.6508e+09,-0.43184,-0.02308,-0.39643,-0.071357,-0.021234,0,0,1,0,0
37090,1.6508e+09,-0.43154,0.028622,-0.40196,-0.072352,-0.021306,0,0,1,0,0
37135,1.6508e+09,-0.43111,-0.004703,-0.40331,-0.072596,-0.021378,0,0,1,0,0
37181,1.6508e+09,-0.43046,0.00056484,-0.40518,-0.072933,-0.021451,0,0,1,0,0
37227,1.6508e+09,-0.4301,-0.044552,-0.4067,-0.073206,-0.021524,0,0,1,0,0
37271,1.6508e+09,-0.4306,0.044298,-0.41174,-0.074113,-0.021598,0,0,1,0,0
37319,1.6508e+09,-0.43184,0.022474,-0.41696,-0.075053,-0.021673,0,0,1,0,0
37363,1.6508e+09,-0.43317,-0.0056858,-0.42096,-0.075774,-0.021748,0,0,1,0,0
37407,1.6509e+09,-0.43393,0.013302,-0.4246,-0.076428,-0.021824,0,0,1,0,0
37451,1.6509e+09,-0.43495,0.024284,-0.42947,-0.077305,-0.021901,0,0,1,0,0
37498,1.6509e+09,-0.43698,0.094148,-0.43698,-0.078657,-0.021979,0,0,1,0,0
37543,1.6509e+09,-0.43881,0.0066222,-0.43903,-0.079025,-0.022058,0,0,1,0,0
37587,1.6509e+09,-0.44122,0.099227,-0.44698,-0.080457,-0.022138,0,0,1,0,0
37632,1.6509e+09,-0.44364,0.00047656,-0.45091,-0.081164,-0.022219,0,0,1,0,0
37677,1.6509e+09,-0.44652,0.11175,-0.46124,-0.083024,-0.022301,0,0,1,0,0
37722,1.6509e+09,-0.45072,0.060713,-0.47036,-0.084665,-0.022386,0,0,1,0,0
37772,1.6509e+09,-0.45444,0.077456,-0.47675,-0.085814,-0.022471,0,0,1,0,0
37816,1.651e+09,-0.45809,0.035789,-0.48017,-0.08643,-0.022579,0,0,1,0,0
37859,1.651e+09,-0.46193,0.083534,-0.48953,-0.088116,-0.022666,0,0,1,0,0
37904,1.651e+09,-0.46529,0.080742,-0.49381,-0.088886,-0.022755,0,0,1,0,0
37948,1.651e+09,-0.46862,0.08096,-0.49778,-0.089601,-0.022844,0,0,1,0,0
37993,1.651e+09,-0.47268,0.083946,-0.50469,-0.090844,-0.022934,0,0,1,0,0
38038,1.651e+09,-0.47583,0.070101,-0.50784,-0.091411,-0.023026,0,0,1,0,0
38082,1.651e+09,-0.47948,0.054432,-0.51229,-0.092212,-0.023118,0,0,1,0,0
38128,1.651e+09,-0.4824,0.061561,-0.51475,-0.092655,-0.02321,0,0,1,0,0
38176,1.651e+09,-0.48407,0.012207,-0.51646,-0.092962,-0.023303,0,0,1,0,0
38224,1.6511e+09,-0.48601,0.13339,-0.52312,-0.094162,-0.023397,0,0,1,0,0
38269,1.6511e+09,-0.48862,0.046069,-0.52815,-0.095066,-0.023491,0,0,1,0,0
38313,1.6511e+09,-0.49083,0.033689,-0.52888,-0.095198,-0.023587,0,0,1,0,0
38362,1.6511e+09,-0.49353,0.0030482,-0.53004,-0.095408,-0.023706,0,0,1,0,0
38406,1.6511e+09,-0.49512,0.070971,-0.53171,-0.095708,-0.023801,0,0,1,0,0
38452,1.6511e+09,-0.49812,0.077139,-0.53821,-0.096879,-0.023898,0,0,1,0,0
38496,1.6511e+09,-0.49982,0.062019,-0.53836,-0.096904,-0.023995,0,0,1,0,0
38541,1.6511e+09,-0.50285,0.053399,-0.54309,-0.097757,-0.024092,0,0,1,0,0
38587,1.6511e+09,-0.50512,0.035965,-0.54244,-0.097639,-0.02419,0,0,1,0,0
38635,1.6511e+09,-0.50781,0.065485,-0.54438,-0.097988,-0.024288,0,0,1,0,0
38682,1.6512e+09,-0.511,0.060472,-0.54569,-0.098224,-0.024386,0,0,1,0,0
