LineNo,TimeUS,Lat,Lng,Alt,RelHomeAlt,RelOriginAlt
318,1.6419e+09,43.601,13.482,86.09,-0.019888,-0.56989
546,1.6419e+09,43.601,13.482,86.08,-0.021794,-0.57179
1000,1.642e+09,43.601,13.482,86.08,-0.025468,-0.57547
1114,1.6421e+09,43.601,13.482,86.08,-0.027107,-0.57711
1221,1.6422e+09,43.601,13.482,86.08,-0.022926,-0.57293
1332,1.6422e+09,43.601,13.482,86.09,-0.010771,-0.56077
1511,1.6423e+09,43.601,13.482,86.11,0.0059612,-0.54404
1693,1.6423e+09,43.601,13.482,86.12,0.018255,-0.53175
1737,1.6423e+09,43.601,13.482,86.13,0.021896,-0.5281
1782,1.6423e+09,43.601,13.482,86.13,0.025183,-0.52482
1826,1.6423e+09,43.601,13.482,86.13,0.029134,-0.52087
1871,1.6423e+09,43.601,13.482,86.14,0.032753,-0.51725
1918,1.6424e+09,43.601,13.482,86.14,0.036354,-0.51365
1961,1.6424e+09,43.601,13.482,86.15,0.04058,-0.50942
2003,1.6424e+09,43.601,13.482,86.15,0.042558,-0.50744
2051,1.6424e+09,43.601,13.482,86.15,0.044587,-0.50541
2094,1.6424e+09,43.601,13.482,86.15,0.04699,-0.50301
2136,1.6424e+09,43.601,13.482,86.15,0.049442,-0.50056
2182,1.6424e+09,43.601,13.482,86.16,0.052457,-0.49754
2226,1.6424e+09,43.601,13.482,86.16,0.054542,-0.49546
2268,1.6425e+09,43.601,13.482,86.16,0.056997,-0.493
2312,1.6425e+09,43.601,13.482,86.17,0.060238,-0.48976
2354,1.6425e+09,43.601,13.482,86.17,0.062727,-0.48727
2397,1.6425e+09,43.601,13.482,86.17,0.064931,-0.48507
2440,1.6425e+09,43.601,13.482,86.17,0.067174,-0.48283
2486,1.6425e+09,43.601,13.482,86.17,0.069775,-0.48022
2530,1.6425e+09,43.601,13.482,86.18,0.072999,-0.477
2572,1.6425e+09,43.601,13.482,86.18,0.075311,-0.47469
2615,1.6425e+09,43.601,13.482,86.18,0.077657,-0.47234
2660,1.6425e+09,43.601,13.482,86.19,0.080303,-0.4697
2708,1.6426e+09,43.601,13.482,86.19,0.083181,-0.46682
2753,1.6426e+09,43.601,13.482,86.19,0.084227,-0.46577
2798,1.6426e+09,43.601,13.482,86.19,0.08568,-0.46432
2843,1.6426e+09,43.601,13.482,86.19,0.086891,-0.46311
2892,1.6426e+09,43.601,13.482,86.19,0.088179,-0.46182
2936,1.6426e+09,43.601,13.482,86.19,0.08986,-0.46014
2983,1.6426e+09,43.601,13.482,86.2,0.091615,-0.45839
3027,1.6426e+09,43.601,13.482,86.2,0.094771,-0.45523
3072,1.6426e+09,43.601,13.482,86.2,0.096247,-0.45375
3116,1.6427e+09,43.601,13.482,86.2,0.09778,-0.45222
3161,1.6427e+09,43.601,13.482,86.2,0.099685,-0.45032
3206,1.6427e+09,43.601,13.482,86.21,0.10281,-0.44719
3250,1.6427e+09,43.601,13.482,86.21,0.10446,-0.44554
3297,1.6427e+09,43.601,13.482,86.21,0.10616,-0.44384
3347,1.6427e+09,43.601,13.482,86.21,0.10792,-0.44208
3393,1.6427e+09,43.601,13.482,86.22,0.11004,-0.43996
3437,1.6427e+09,43.601,13.482,86.22,0.11315,-0.43685
3482,1.6427e+09,43.601,13.482,86.22,0.11501,-0.43499
3527,1.6427e+09,43.601,13.482,86.22,0.11692,-0.43308
3574,1.6428e+09,43.601,13.482,86.23,0.12016,-0.42984
3616,1.6428e+09,43.601,13.482,86.23,0.12069,-0.42931
3660,1.6428e+09,43.601,13.482,86.23,0.12164,-0.42836
3706,1.6428e+09,43.601,13.482,86.23,0.12237,-0.42763
3751,1.6428e+09,43.601,13.482,86.23,0.12319,-0.42681
3799,1.6428e+09,43.601,13.482,86.23,0.1244,-0.4256
3844,1.6428e+09,43.601,13.482,86.23,0.12776,-0.42224
3888,1.6428e+09,43.601,13.482,86.23,0.12874,-0.42126
3933,1.6428e+09,43.601,13.482,86.23,0.12981,-0.42019
3978,1.6429e+09,43.601,13.482,86.24,0.13089,-0.41911
4022,1.6429e+09,43.601,13.482,86.24,0.13205,-0.41795
4067,1.6429e+09,43.601,13.482,86.24,0.13359,-0.41641
4111,1.6429e+09,43.601,13.482,86.24,0.1366,-0.4134
4156,1.6429e+09,43.601,13.482,86.24,0.1379,-0.4121
4201,1.6429e+09,43.601,13.482,86.24,0.13926,-0.41074
4250,1.6429e+09,43.601,13.482,86.25,0.141,-0.409
4295,1.6429e+09,43.601,13.482,86.25,0.14249,-0.40751
4339,1.6429e+09,43.601,13.482,86.25,0.14405,-0.40595
4382,1.6429e+09,43.601,13.482,86.25,0.14604,-0.40396
4424,1.643e+09,43.601,13.482,86.25,0.14692,-0.40308
4467,1.643e+09,43.601,13.482,86.25,0.14819,-0.40181
4511,1.643e+09,43.601,13.482,86.26,0.15115,-0.39885
4553,1.643e+09,43.601,13.482,86.26,0.15219,-0.39781
4596,1.643e+09,43.601,13.482,86.26,0.15331,-0.39669
4638,1.643e+09,43.601,13.482,86.26,0.15451,-0.39549
4687,1.643e+09,43.601,13.482,86.26,0.15606,-0.39394
4730,1.643e+09,43.601,13.482,86.26,0.159,-0.391
4773,1.643e+09,43.601,13.482,86.27,0.16062,-0.38938
4816,1.6431e+09,43.601,13.482,86.27,0.1623,-0.3877
4858,1.6431e+09,43.601,13.482,86.27,0.16372,-0.38628
4901,1.6431e+09,43.601,13.482,86.27,0.16551,-0.38449
4944,1.6431e+09,43.601,13.482,86.27,0.16706,-0.38294
4987,1.6431e+09,43.601,13.482,86.27,0.16998,-0.38002
5030,1.6431e+09,43.601,13.482,86.28,0.17157,-0.37843
5073,1.6431e+09,43.601,13.482,86.28,0.17321,-0.37679
5120,1.6431e+09,43.601,13.482,86.28,0.17519,-0.37481
5163,1.6431e+09,43.601,13.482,86.28,0.17809,-0.37191
5206,1.6431e+09,43.601,13.482,86.28,0.17983,-0.37017
5246,1.6432e+09,43.601,13.482,86.29,0.18046,-0.36954
5290,1.6432e+09,43.601,13.482,86.29,0.18122,-0.36878
5335,1.6432e+09,43.601,13.482,86.29,0.18178,-0.36822
5379,1.6432e+09,43.601,13.482,86.29,0.18273,-0.36727
5424,1.6432e+09,43.601,13.482,86.29,0.18348,-0.36652
5468,1.6432e+09,43.601,13.482,86.29,0.18431,-0.36569
5513,1.6432e+09,43.601,13.482,86.29,0.18716,-0.36284
5562,1.6432e+09,43.601,13.482,86.29,0.18805,-0.36195
5607,1.6432e+09,43.601,13.482,86.29,0.18902,-0.36098
5651,1.6432e+09,43.601,13.482,86.3,0.19006,-0.35994
5696,1.6433e+09,43.601,13.482,86.3,0.19146,-0.35854
5741,1.6433e+09,43.601,13.482,86.3,0.19293,-0.35707
5785,1.6433e+09,43.601,13.482,86.3,0.19447,-0.35553
5833,1.6433e+09,43.601,13.482,86.3,0.19729,-0.35271
5878,1.6433e+09,43.601,13.482,86.3,0.1986,-0.3514
5923,1.6433e+09,43.601,13.482,86.3,0.19997,-0.35003
5967,1.6433e+09,43.601,13.482,86.31,0.2014,-0.3486
6017,1.6433e+09,43.601,13.482,86.31,0.20288,-0.34712
6061,1.6433e+09,43.601,13.482,86.31,0.20595,-0.34405
6104,1.6434e+09,43.601,13.482,86.31,0.20663,-0.34337
6148,1.6434e+09,43.601,13.482,86.31,0.20712,-0.34288
6193,1.6434e+09,43.601,13.482,86.31,0.20793,-0.34207
6240,1.6434e+09,43.601,13.482,86.31,0.20939,-0.34061
6285,1.6434e+09,43.601,13.482,86.32,0.21009,-0.33991
6329,1.6434e+09,43.601,13.482,86.32,0.21088,-0.33912
6374,1.6434e+09,43.601,13.482,86.32,0.21201,-0.33799
6421,1.6434e+09,43.601,13.482,86.32,0.21322,-0.33678
6468,1.6434e+09,43.601,13.482,86.32,0.21595,-0.33405
6512,1.6434e+09,43.601,13.482,86.32,0.21694,-0.33305
6556,1.6435e+09,43.601,13.482,86.32,0.21802,-0.33198
6604,1.6435e+09,43.601,13.482,86.32,0.21983,-0.33017
6648,1.6435e+09,43.601,13.482,86.33,0.22116,-0.32884
6693,1.6435e+09,43.601,13.482,86.33,0.22229,-0.32771
6738,1.6435e+09,43.601,13.482,86.33,0.22347,-0.32653
6783,1.6435e+09,43.601,13.482,86.33,0.22616,-0.32384
6828,1.6435e+09,43.601,13.482,86.33,0.22767,-0.32233
6876,1.6435e+09,43.601,13.482,86.33,0.22895,-0.32105
6923,1.6435e+09,43.601,13.482,86.34,0.23028,-0.31972
6966,1.6436e+09,43.601,13.482,86.34,0.23191,-0.31809
7008,1.6436e+09,43.601,13.482,86.34,0.23206,-0.31794
7056,1.6436e+09,43.601,13.482,86.34,0.23301,-0.31699
7099,1.6436e+09,43.601,13.482,86.34,0.23328,-0.31672
7141,1.6436e+09,43.601,13.482,86.34,0.23391,-0.31609
7185,1.6436e+09,43.601,13.482,86.34,0.23652,-0.31348
7228,1.6436e+09,43.601,13.482,86.34,0.23695,-0.31305
7274,1.6436e+09,43.601,13.482,86.34,0.23747,-0.31253
7317,1.6436e+09,43.601,13.482,86.34,0.2383,-0.3117
7360,1.6437e+09,43.601,13.482,86.35,0.24091,-0.30909
7405,1.6437e+09,43.601,13.482,86.35,0.24157,-0.30843
7447,1.6437e+09,43.601,13.482,86.35,0.2423,-0.3077
7487,1.6437e+09,43.601,13.482,86.35,0.24294,-0.30706
7529,1.6437e+09,43.601,13.482,86.35,0.24391,-0.30609
7573,1.6437e+09,43.601,13.482,86.35,0.24647,-0.30353
7616,1.6437e+09,43.601,13.482,86.35,0.24724,-0.30277
7659,1.6437e+09,43.601,13.482,86.35,0.24807,-0.30193
7711,1.6437e+09,43.601,13.482,86.35,0.24974,-0.30026
7757,1.6438e+09,43.601,13.482,86.36,0.25146,-0.29854
7799,1.6438e+09,43.601,13.482,86.36,0.25094,-0.29906
7845,1.6438e+09,43.601,13.482,86.36,0.25051,-0.29949
7892,1.6438e+09,43.601,13.482,86.36,0.25304,-0.29696
7937,1.6438e+09,43.601,13.482,86.36,0.25286,-0.29714
7981,1.6438e+09,43.601,13.482,86.36,0.25259,-0.29741
8026,1.6438e+09,43.601,13.482,86.36,0.25241,-0.29759
8070,1.6438e+09,43.601,13.482,86.36,0.25235,-0.29765
8115,1.6438e+09,43.601,13.482,86.36,0.25237,-0.29763
8165,1.6438e+09,43.601,13.482,86.36,0.25254,-0.29746
8209,1.6439e+09,43.601,13.482,86.36,0.25276,-0.29724
8255,1.6439e+09,43.601,13.482,86.36,0.25336,-0.29664
8299,1.6439e+09,43.601,13.482,86.36,0.25578,-0.29422
8345,1.6439e+09,43.601,13.482,86.36,0.2561,-0.2939
8389,1.6439e+09,43.601,13.482,86.36,0.25646,-0.29354
8434,1.6439e+09,43.601,13.482,86.36,0.25694,-0.29306
8479,1.6439e+09,43.601,13.482,86.36,0.2577,-0.2923
8524,1.6439e+09,43.601,13.482,86.37,0.26013,-0.28987
8569,1.6439e+09,43.601,13.482,86.37,0.26073,-0.28927
8617,1.6439e+09,43.601,13.482,86.37,0.2614,-0.2886
8661,1.644e+09,43.601,13.482,86.37,0.26136,-0.28864
8702,1.644e+09,43.601,13.482,86.37,0.26095,-0.28905
8747,1.644e+09,43.601,13.482,86.37,0.26067,-0.28933
8793,1.644e+09,43.601,13.482,86.37,0.26301,-0.28699
8834,1.644e+09,43.601,13.482,86.37,0.26294,-0.28706
8880,1.644e+09,43.601,13.482,86.37,0.2627,-0.2873
8924,1.644e+09,43.601,13.482,86.37,0.26259,-0.28741
8968,1.644e+09,43.601,13.482,86.37,0.26256,-0.28744
9014,1.644e+09,43.601,13.482,86.37,0.26491,-0.28509
9062,1.644e+09,43.601,13.482,86.37,0.26496,-0.28504
9108,1.6441e+09,43.601,13.482,86.37,0.26511,-0.28489
9152,1.6441e+09,43.601,13.482,86.37,0.26559,-0.28441
9197,1.6441e+09,43.601,13.482,86.37,0.26591,-0.28409
9241,1.6441e+09,43.601,13.482,86.37,0.26611,-0.28389
9286,1.6441e+09,43.601,13.482,86.37,0.26637,-0.28363
9331,1.6441e+09,43.601,13.482,86.37,0.26698,-0.28302
9375,1.6441e+09,43.601,13.482,86.37,0.26925,-0.28075
9420,1.6441e+09,43.601,13.482,86.37,0.26969,-0.28031
9465,1.6441e+09,43.601,13.482,86.38,0.27043,-0.27957
9514,1.6442e+09,43.601,13.482,86.38,0.27103,-0.27897
9558,1.6442e+09,43.601,13.482,86.38,0.2719,-0.2781
9601,1.6442e+09,43.601,13.482,86.38,0.2715,-0.2785
9644,1.6442e+09,43.601,13.482,86.38,0.27128,-0.27872
9686,1.6442e+09,43.601,13.482,86.38,0.27116,-0.27884
9731,1.6442e+09,43.601,13.482,86.38,0.27337,-0.27663
9773,1.6442e+09,43.601,13.482,86.38,0.27313,-0.27687
9816,1.6442e+09,43.601,13.482,86.38,0.27298,-0.27702
9859,1.6442e+09,43.601,13.482,86.38,0.27294,-0.27706
9904,1.6442e+09,43.601,13.482,86.38,0.27317,-0.27683
9948,1.6443e+09,43.601,13.482,86.38,0.2754,-0.2746
9991,1.6443e+09,43.601,13.482,86.38,0.27573,-0.27427
10036,1.6443e+09,43.601,13.482,86.38,0.27594,-0.27406
10078,1.6443e+09,43.601,13.482,86.38,0.27597,-0.27403
10121,1.6443e+09,43.601,13.482,86.38,0.27633,-0.27367
10164,1.6443e+09,43.601,13.482,86.38,0.27654,-0.27346
10208,1.6443e+09,43.601,13.482,86.38,0.27869,-0.27131
10251,1.6443e+09,43.601,13.482,86.38,0.27921,-0.27079
10295,1.6443e+09,43.601,13.482,86.38,0.27956,-0.27044
10341,1.6444e+09,43.601,13.482,86.39,0.28005,-0.26995
10385,1.6444e+09,43.601,13.482,86.39,0.28001,-0.26999
10430,1.6444e+09,43.601,13.482,86.38,0.27987,-0.27013
10476,1.6444e+09,43.601,13.482,86.38,0.27981,-0.27019
10520,1.6444e+09,43.601,13.482,86.38,0.27987,-0.27013
10565,1.6444e+09,43.601,13.482,86.38,0.27985,-0.27015
10609,1.6444e+09,43.601,13.482,86.39,0.28195,-0.26805
10654,1.6444e+09,43.601,13.482,86.39,0.28198,-0.26802
10699,1.6444e+09,43.601,13.482,86.39,0.2823,-0.2677
10744,1.6444e+09,43.601,13.482,86.39,0.28251,-0.26749
10793,1.6445e+09,43.601,13.482,86.39,0.28459,-0.26541
10838,1.6445e+09,43.601,13.482,86.39,0.28507,-0.26493
10883,1.6445e+09,43.601,13.482,86.39,0.28542,-0.26458
10927,1.6445e+09,43.601,13.482,86.39,0.28585,-0.26415
10972,1.6445e+09,43.601,13.482,86.39,0.28792,-0.26208
11017,1.6445e+09,43.601,13.482,86.39,0.2881,-0.2619
11061,1.6445e+09,43.601,13.482,86.39,0.28838,-0.26162
11107,1.6445e+09,43.601,13.482,86.39,0.28873,-0.26127
11152,1.6445e+09,43.601,13.482,86.39,0.28936,-0.26064
11199,1.6446e+09,43.601,13.482,86.39,0.28961,-0.26039
11244,1.6446e+09,43.601,13.482,86.39,0.28917,-0.26083
11289,1.6446e+09,43.601,13.482,86.39,0.28883,-0.26117
11335,1.6446e+09,43.601,13.482,86.39,0.2888,-0.2612
11379,1.6446e+09,43.601,13.482,86.4,0.29086,-0.25914
11427,1.6446e+09,43.601,13.482,86.39,0.28893,-0.26107
11473,1.6446e+09,43.601,13.482,86.4,0.29096,-0.25904
11518,1.6446e+09,43.601,13.482,86.4,0.29076,-0.25924
11563,1.6446e+09,43.601,13.482,86.4,0.29087,-0.25913
11608,1.6447e+09,43.601,13.482,86.4,0.29086,-0.25914
11653,1.6447e+09,43.601,13.482,86.4,0.29093,-0.25907
11702,1.6447e+09,43.601,13.482,86.4,0.29132,-0.25868
11747,1.6447e+09,43.601,13.482,86.4,0.2933,-0.2567
11792,1.6447e+09,43.601,13.482,86.4,0.29355,-0.25645
11836,1.6447e+09,43.601,13.482,86.4,0.29386,-0.25614
11878,1.6447e+09,43.601,13.482,86.4,0.29431,-0.25569
11923,1.6447e+09,43.601,13.482,86.4,0.29463,-0.25537
11969,1.6447e+09,43.601,13.482,86.4,0.29501,-0.25499
12013,1.6447e+09,43.601,13.482,86.4,0.29699,-0.25301
12059,1.6448e+09,43.601,13.482,86.4,0.29744,-0.25256
12100,1.6448e+09,43.601,13.482,86.4,0.29815,-0.25185
12147,1.6448e+09,43.601,13.482,86.4,0.29799,-0.25201
12189,1.6448e+09,43.601,13.482,86.4,0.29816,-0.25184
12233,1.6448e+09,43.601,13.482,86.4,0.29818,-0.25182
12276,1.6448e+09,43.601,13.482,86.4,0.29803,-0.25197
12318,1.6448e+09,43.601,13.482,86.4,0.29818,-0.25182
12361,1.6448e+09,43.601,13.482,86.41,0.30013,-0.24987
12407,1.6448e+09,43.601,13.482,86.41,0.30075,-0.24925
12449,1.6448e+09,43.601,13.482,86.41,0.30084,-0.24916
12494,1.6449e+09,43.601,13.482,86.41,0.30124,-0.24876
12536,1.6449e+09,43.601,13.482,86.41,0.30149,-0.24851
12583,1.6449e+09,43.601,13.482,86.41,0.30201,-0.24799
12625,1.6449e+09,43.601,13.482,86.41,0.30392,-0.24608
12667,1.6449e+09,43.601,13.482,86.41,0.30432,-0.24568
12711,1.6449e+09,43.601,13.482,86.41,0.30476,-0.24524
12756,1.6449e+09,43.601,13.482,86.41,0.30555,-0.24445
12799,1.6449e+09,43.601,13.482,86.41,0.30589,-0.24411
12847,1.6449e+09,43.601,13.482,86.41,0.30684,-0.24316
12889,1.645e+09,43.601,13.482,86.41,0.30719,-0.24281
12933,1.645e+09,43.601,13.482,86.41,0.30691,-0.24309
12982,1.645e+09,43.601,13.482,86.41,0.3067,-0.2433
13027,1.645e+09,43.601,13.482,86.41,0.30876,-0.24124
13072,1.645e+09,43.601,13.482,86.41,0.30862,-0.24138
13117,1.645e+09,43.601,13.482,86.41,0.3086,-0.2414
13161,1.645e+09,43.601,13.482,86.41,0.30865,-0.24135
13205,1.645e+09,43.601,13.482,86.41,0.30842,-0.24158
13249,1.645e+09,43.601,13.482,86.41,0.30867,-0.24133
13294,1.6451e+09,43.601,13.482,86.42,0.31052,-0.23948
13339,1.6451e+09,43.601,13.482,86.42,0.31065,-0.23935
13383,1.6451e+09,43.601,13.482,86.42,0.31083,-0.23917
13432,1.6451e+09,43.601,13.482,86.42,0.31112,-0.23888
13476,1.6451e+09,43.601,13.482,86.42,0.31145,-0.23855
13521,1.6451e+09,43.601,13.482,86.42,0.31186,-0.23814
13578,1.6452e+09,43.601,13.482,86.42,0.31572,-0.23428
13623,1.6452e+09,43.601,13.482,86.42,0.31525,-0.23475
13671,1.6452e+09,43.601,13.482,86.42,0.31508,-0.23492
13719,1.6452e+09,43.601,13.482,86.42,0.31515,-0.23485
13764,1.6452e+09,43.601,13.482,86.42,0.31495,-0.23505
13811,1.6452e+09,43.601,13.482,86.42,0.31507,-0.23493
13856,1.6452e+09,43.601,13.482,86.42,0.31493,-0.23507
13902,1.6452e+09,43.601,13.482,86.42,0.3167,-0.2333
13947,1.6453e+09,43.601,13.482,86.42,0.31644,-0.23356
13994,1.6453e+09,43.601,13.482,86.42,0.31629,-0.23371
14038,1.6453e+09,43.601,13.482,86.42,0.31639,-0.23361
14087,1.6453e+09,43.601,13.482,86.42,0.31813,-0.23187
14132,1.6453e+09,43.601,13.482,86.42,0.3183,-0.2317
14177,1.6453e+09,43.601,13.482,86.42,0.31838,-0.23162
14222,1.6453e+09,43.601,13.482,86.42,0.31855,-0.23145
14266,1.6453e+09,43.601,13.482,86.42,0.31855,-0.23145
14311,1.6453e+09,43.601,13.482,86.43,0.32031,-0.22969
14355,1.6453e+09,43.601,13.482,86.43,0.32056,-0.22944
14402,1.6454e+09,43.601,13.482,86.43,0.32123,-0.22877
14442,1.6454e+09,43.601,13.482,86.43,0.32045,-0.22955
14484,1.6454e+09,43.601,13.482,86.42,0.31978,-0.23022
14533,1.6454e+09,43.601,13.482,86.42,0.31924,-0.23076
14577,1.6454e+09,43.601,13.482,86.42,0.31893,-0.23107
14620,1.6454e+09,43.601,13.482,86.43,0.32067,-0.22933
14662,1.6454e+09,43.601,13.482,86.43,0.32029,-0.22971
14703,1.6454e+09,43.601,13.482,86.42,0.31974,-0.23026
14745,1.6454e+09,43.601,13.482,86.42,0.31924,-0.23076
14787,1.6455e+09,43.601,13.482,86.42,0.31887,-0.23113
14830,1.6455e+09,43.601,13.482,86.42,0.31858,-0.23142
14872,1.6455e+09,43.601,13.482,86.42,0.31855,-0.23145
14915,1.6455e+09,43.601,13.482,86.43,0.32022,-0.22978
14963,1.6455e+09,43.601,13.482,86.43,0.32011,-0.22989
15006,1.6455e+09,43.601,13.482,86.43,0.32025,-0.22975
15049,1.6455e+09,43.601,13.482,86.43,0.32026,-0.22974
15091,1.6455e+09,43.601,13.482,86.43,0.32194,-0.22806
15134,1.6455e+09,43.601,13.482,86.43,0.32173,-0.22827
15176,1.6455e+09,43.601,13.482,86.43,0.32162,-0.22838
15219,1.6456e+09,43.601,13.482,86.43,0.32155,-0.22845
15263,1.6456e+09,43.601,13.482,86.43,0.32122,-0.22878
15308,1.6456e+09,43.601,13.482,86.43,0.32019,-0.22981
15353,1.6456e+09,43.601,13.482,86.42,0.31941,-0.23059
15401,1.6456e+09,43.601,13.482,86.42,0.31892,-0.23108
15447,1.6456e+09,43.601,13.482,86.43,0.32054,-0.22946
15491,1.6456e+09,43.601,13.482,86.43,0.32001,-0.22999
15537,1.6456e+09,43.601,13.482,86.42,0.31924,-0.23076
15584,1.6456e+09,43.601,13.482,86.42,0.31911,-0.23089
15629,1.6457e+09,43.601,13.482,86.42,0.31857,-0.23143
15674,1.6457e+09,43.601,13.482,86.42,0.31811,-0.23189
15718,1.6457e+09,43.601,13.482,86.42,0.31776,-0.23224
15763,1.6457e+09,43.601,13.482,86.42,0.31749,-0.23251
15813,1.6457e+09,43.601,13.482,86.42,0.31748,-0.23252
15857,1.6457e+09,43.601,13.482,86.42,0.31904,-0.23096
15902,1.6457e+09,43.601,13.482,86.42,0.31911,-0.23089
15947,1.6457e+09,43.601,13.482,86.42,0.31909,-0.23091
15993,1.6457e+09,43.601,13.482,86.42,0.31892,-0.23108
16039,1.6457e+09,43.601,13.482,86.42,0.31879,-0.23121
16078,1.6458e+09,43.601,13.482,86.42,0.31843,-0.23157
16125,1.6458e+09,43.601,13.482,86.42,0.31784,-0.23216
16170,1.6458e+09,43.601,13.482,86.42,0.31749,-0.23251
16215,1.6458e+09,43.601,13.482,86.42,0.31918,-0.23082
16265,1.6458e+09,43.601,13.482,86.42,0.31876,-0.23124
16310,1.6458e+09,43.601,13.482,86.42,0.3186,-0.2314
16354,1.6458e+09,43.601,13.482,86.42,0.31835,-0.23165
16401,1.6458e+09,43.601,13.482,86.42,0.3182,-0.2318
16451,1.6458e+09,43.601,13.482,86.42,0.31893,-0.23107
16495,1.6459e+09,43.601,13.482,86.42,0.31876,-0.23124
16540,1.6459e+09,43.601,13.482,86.42,0.31872,-0.23128
16585,1.6459e+09,43.601,13.482,86.42,0.31856,-0.23144
16629,1.6459e+09,43.601,13.482,86.42,0.31879,-0.23121
16675,1.6459e+09,43.601,13.482,86.42,0.31907,-0.23093
16723,1.6459e+09,43.601,13.482,86.43,0.32055,-0.22945
16768,1.6459e+09,43.601,13.482,86.43,0.32077,-0.22923
16812,1.6459e+09,43.601,13.482,86.43,0.32102,-0.22898
16858,1.6459e+09,43.601,13.482,86.43,0.3213,-0.2287
16904,1.6459e+09,43.601,13.482,86.43,0.32147,-0.22853
16947,1.646e+09,43.601,13.482,86.43,0.32128,-0.22872
16987,1.646e+09,43.601,13.482,86.43,0.32111,-0.22889
17030,1.646e+09,43.601,13.482,86.43,0.32091,-0.22909
17073,1.646e+09,43.601,13.482,86.43,0.32237,-0.22763
17115,1.646e+09,43.601,13.482,86.43,0.32221,-0.22779
17162,1.646e+09,43.601,13.482,86.43,0.32213,-0.22787
17204,1.646e+09,43.601,13.482,86.43,0.32212,-0.22788
17246,1.646e+09,43.601,13.482,86.43,0.3222,-0.2278
17291,1.646e+09,43.601,13.482,86.43,0.32227,-0.22773
17333,1.6461e+09,43.601,13.482,86.43,0.32247,-0.22753
17380,1.6461e+09,43.601,13.482,86.43,0.32301,-0.22699
17422,1.6461e+09,43.601,13.482,86.43,0.32316,-0.22684
17465,1.6461e+09,43.601,13.482,86.43,0.32352,-0.22648
17508,1.6461e+09,43.601,13.482,86.43,0.32493,-0.22507
17550,1.6461e+09,43.601,13.482,86.43,0.32521,-0.22479
17598,1.6461e+09,43.601,13.482,86.43,0.32548,-0.22452
17640,1.6461e+09,43.601,13.482,86.43,0.32585,-0.22415
17683,1.6461e+09,43.601,13.482,86.43,0.32624,-0.22376
17727,1.6461e+09,43.601,13.482,86.43,0.32666,-0.22334
17773,1.6462e+09,43.601,13.482,86.43,0.32661,-0.22339
17818,1.6462e+09,43.601,13.482,86.43,0.32647,-0.22353
17862,1.6462e+09,43.601,13.482,86.43,0.32789,-0.22211
17906,1.6462e+09,43.601,13.482,86.43,0.32779,-0.22221
17951,1.6462e+09,43.601,13.482,86.43,0.3278,-0.2222
17999,1.6462e+09,43.601,13.482,86.43,0.32783,-0.22217
18048,1.6462e+09,43.601,13.482,86.43,0.32835,-0.22165
18093,1.6462e+09,43.601,13.482,86.43,0.32849,-0.22151
18140,1.6462e+09,43.601,13.482,86.43,0.32884,-0.22116
18190,1.6463e+09,43.601,13.482,86.43,0.32927,-0.22073
18239,1.6463e+09,43.601,13.482,86.43,0.32975,-0.22025
18284,1.6463e+09,43.601,13.482,86.43,0.32987,-0.22013
18328,1.6463e+09,43.601,13.482,86.44,0.33009,-0.21991
18373,1.6463e+09,43.601,13.482,86.44,0.3314,-0.2186
18422,1.6463e+09,43.601,13.482,86.44,0.33165,-0.21835
18467,1.6463e+09,43.601,13.482,86.44,0.33205,-0.21795
18515,1.6463e+09,43.601,13.482,86.44,0.33266,-0.21734
18561,1.6463e+09,43.601,13.482,86.44,0.33356,-0.21644
18604,1.6464e+09,43.601,13.482,86.44,0.33313,-0.21688
18648,1.6464e+09,43.601,13.482,86.44,0.33268,-0.21732
18694,1.6464e+09,43.601,13.482,86.44,0.33226,-0.21774
18739,1.6464e+09,43.601,13.482,86.44,0.33208,-0.21792
18783,1.6464e+09,43.601,13.482,86.44,0.33339,-0.21661
18828,1.6464e+09,43.601,13.482,86.44,0.33311,-0.21689
18876,1.6464e+09,43.601,13.482,86.44,0.33291,-0.2171
18921,1.6464e+09,43.601,13.482,86.44,0.3329,-0.2171
18966,1.6464e+09,43.601,13.482,86.44,0.33284,-0.21716
19011,1.6465e+09,43.601,13.482,86.44,0.3328,-0.2172
19059,1.6465e+09,43.601,13.482,86.44,0.33318,-0.21682
19104,1.6465e+09,43.601,13.482,86.44,0.3331,-0.2169
19149,1.6465e+09,43.601,13.482,86.44,0.33438,-0.21562
19194,1.6465e+09,43.601,13.482,86.44,0.33435,-0.21565
19239,1.6465e+09,43.601,13.482,86.44,0.33438,-0.21562
19283,1.6465e+09,43.601,13.482,86.44,0.33448,-0.21552
19332,1.6465e+09,43.601,13.482,86.44,0.33473,-0.21527
19377,1.6465e+09,43.601,13.482,86.44,0.33507,-0.21493
19421,1.6465e+09,43.601,13.482,86.44,0.33631,-0.21369
19469,1.6466e+09,43.601,13.482,86.44,0.33657,-0.21343
19506,1.6466e+09,43.601,13.482,86.44,0.33597,-0.21403
19549,1.6466e+09,43.601,13.482,86.44,0.33537,-0.21463
19592,1.6466e+09,43.601,13.482,86.44,0.33474,-0.21526
19635,1.6466e+09,43.601,13.482,86.44,0.33417,-0.21583
19678,1.6466e+09,43.601,13.482,86.44,0.3337,-0.2163
19721,1.6466e+09,43.601,13.482,86.44,0.33493,-0.21507
19768,1.6466e+09,43.601,13.482,86.44,0.33454,-0.21546
19811,1.6466e+09,43.601,13.482,86.44,0.33418,-0.21582
19853,1.6467e+09,43.601,13.482,86.44,0.33391,-0.21609
19897,1.6467e+09,43.601,13.482,86.44,0.33352,-0.21648
19943,1.6467e+09,43.601,13.482,86.44,0.33368,-0.21632
19985,1.6467e+09,43.601,13.482,86.44,0.33345,-0.21655
20029,1.6467e+09,43.601,13.482,86.44,0.33339,-0.21661
20072,1.6467e+09,43.601,13.482,86.44,0.33475,-0.21525
20116,1.6467e+09,43.601,13.482,86.44,0.33462,-0.21538
20163,1.6467e+09,43.601,13.482,86.44,0.33457,-0.21543
20206,1.6467e+09,43.601,13.482,86.44,0.3347,-0.2153
20248,1.6467e+09,43.601,13.482,86.44,0.33486,-0.21514
20296,1.6468e+09,43.601,13.482,86.44,0.33605,-0.21395
20338,1.6468e+09,43.601,13.482,86.44,0.33586,-0.21414
20382,1.6468e+09,43.601,13.482,86.44,0.33505,-0.21495
20427,1.6468e+09,43.601,13.482,86.44,0.33433,-0.21567
20471,1.6468e+09,43.601,13.482,86.44,0.33359,-0.21641
20517,1.6468e+09,43.601,13.482,86.44,0.33489,-0.21511
20562,1.6468e+09,43.601,13.482,86.44,0.33422,-0.21578
20612,1.6468e+09,43.601,13.482,86.44,0.33365,-0.21635
20657,1.6468e+09,43.601,13.482,86.44,0.33316,-0.21684
20702,1.6469e+09,43.601,13.482,86.44,0.33276,-0.21724
20747,1.6469e+09,43.601,13.482,86.44,0.3324,-0.2176
20796,1.6469e+09,43.601,13.482,86.44,0.33212,-0.21788
20841,1.6469e+09,43.601,13.482,86.44,0.33171,-0.21829
20886,1.6469e+09,43.601,13.482,86.44,0.33282,-0.21718
20932,1.6469e+09,43.601,13.482,86.44,0.33235,-0.21765
20977,1.6469e+09,43.601,13.482,86.44,0.33195,-0.21805
21021,1.6469e+09,43.601,13.482,86.44,0.33164,-0.21836
21070,1.6469e+09,43.601,13.482,86.44,0.33138,-0.21862
21117,1.647e+09,43.601,13.482,86.44,0.33082,-0.21918
21158,1.647e+09,43.601,13.482,86.43,0.32993,-0.22007
21207,1.647e+09,43.601,13.482,86.43,0.32912,-0.22088
21252,1.647e+09,43.601,13.482,86.43,0.32809,-0.22191
21297,1.647e+09,43.601,13.482,86.43,0.32726,-0.22274
21341,1.647e+09,43.601,13.482,86.43,0.32834,-0.22166
21386,1.647e+09,43.601,13.482,86.43,0.32749,-0.22251
21431,1.647e+09,43.601,13.482,86.43,0.32673,-0.22327
21480,1.647e+09,43.601,13.482,86.43,0.32619,-0.22381
21525,1.647e+09,43.601,13.482,86.43,0.32559,-0.22441
21570,1.6471e+09,43.601,13.482,86.43,0.3251,-0.2249
21616,1.6471e+09,43.601,13.482,86.43,0.3246,-0.2254
21660,1.6471e+09,43.601,13.482,86.43,0.32568,-0.22432
21706,1.6471e+09,43.601,13.482,86.43,0.32524,-0.22476
21750,1.6471e+09,43.601,13.482,86.43,0.32467,-0.22533
21796,1.6471e+09,43.601,13.482,86.43,0.32438,-0.22562
21840,1.6471e+09,43.601,13.482,86.43,0.32405,-0.22595
21885,1.6471e+09,43.601,13.482,86.43,0.32391,-0.22609
21934,1.6471e+09,43.601,13.482,86.43,0.32493,-0.22507
21980,1.6472e+09,43.601,13.482,86.43,0.32487,-0.22513
22020,1.6472e+09,43.601,13.482,86.43,0.32307,-0.22693
22066,1.6472e+09,43.601,13.482,86.43,0.32261,-0.22739
22109,1.6472e+09,43.601,13.482,86.43,0.32206,-0.22794
22151,1.6472e+09,43.601,13.482,86.43,0.32154,-0.22846
22194,1.6472e+09,43.601,13.482,86.43,0.32255,-0.22745
22238,1.6472e+09,43.601,13.482,86.43,0.32202,-0.22798
22281,1.6472e+09,43.601,13.482,86.43,0.32157,-0.22843
22324,1.6472e+09,43.601,13.482,86.43,0.32117,-0.22883
22372,1.6473e+09,43.601,13.482,86.43,0.32084,-0.22916
22415,1.6473e+09,43.601,13.482,86.43,0.32185,-0.22815
22457,1.6473e+09,43.601,13.482,86.43,0.32156,-0.22844
22501,1.6473e+09,43.601,13.482,86.43,0.32135,-0.22865
22547,1.6473e+09,43.601,13.482,86.43,0.32121,-0.22879
22589,1.6473e+09,43.601,13.482,86.43,0.321,-0.229
22632,1.6473e+09,43.601,13.482,86.43,0.32069,-0.22931
22674,1.6473e+09,43.601,13.482,86.43,0.32167,-0.22833
22718,1.6473e+09,43.601,13.482,86.43,0.32144,-0.22856
22761,1.6473e+09,43.601,13.482,86.43,0.32137,-0.22863
22807,1.6474e+09,43.601,13.482,86.43,0.3208,-0.2292
22852,1.6474e+09,43.601,13.482,86.43,0.32028,-0.22972
22897,1.6474e+09,43.601,13.482,86.42,0.31996,-0.23004
22945,1.6474e+09,43.601,13.482,86.42,0.31963,-0.23037
22989,1.6474e+09,43.601,13.482,86.42,0.3191,-0.2309
23034,1.6474e+09,43.601,13.482,86.42,0.31875,-0.23125
23080,1.6474e+09,43.601,13.482,86.42,0.31968,-0.23032
23125,1.6474e+09,43.601,13.482,86.42,0.31929,-0.23071
23170,1.6474e+09,43.601,13.482,86.42,0.31904,-0.23096
23218,1.6475e+09,43.601,13.482,86.42,0.3188,-0.2312
23263,1.6475e+09,43.601,13.482,86.42,0.31857,-0.23143
23308,1.6475e+09,43.601,13.482,86.42,0.31843,-0.23157
23353,1.6475e+09,43.601,13.482,86.42,0.31806,-0.23194
23401,1.6475e+09,43.601,13.482,86.42,0.31798,-0.23202
23442,1.6475e+09,43.601,13.482,86.42,0.31767,-0.23233
23487,1.6475e+09,43.601,13.482,86.42,0.31741,-0.23259
23531,1.6475e+09,43.601,13.482,86.42,0.31733,-0.23267
23578,1.6475e+09,43.601,13.482,86.42,0.31823,-0.23177
23625,1.6475e+09,43.601,13.482,86.42,0.31811,-0.23189
23667,1.6476e+09,43.601,13.482,86.42,0.3177,-0.2323
23712,1.6476e+09,43.601,13.482,86.42,0.31722,-0.23278
23756,1.6476e+09,43.601,13.482,86.42,0.31677,-0.23323
23801,1.6476e+09,43.601,13.482,86.42,0.31768,-0.23232
23846,1.6476e+09,43.601,13.482,86.42,0.31725,-0.23275
23891,1.6476e+09,43.601,13.482,86.42,0.31685,-0.23315
23935,1.6476e+09,43.601,13.482,86.42,0.3167,-0.2333
23981,1.6476e+09,43.601,13.482,86.42,0.3165,-0.2335
24027,1.6476e+09,43.601,13.482,86.42,0.31741,-0.23259
24071,1.6477e+09,43.601,13.482,86.42,0.31726,-0.23274
24120,1.6477e+09,43.601,13.482,86.42,0.31708,-0.23292
24164,1.6477e+09,43.601,13.482,86.42,0.31705,-0.23295
24210,1.6477e+09,43.601,13.482,86.42,0.31698,-0.23302
24255,1.6477e+09,43.601,13.482,86.42,0.31693,-0.23307
24299,1.6477e+09,43.601,13.482,86.42,0.31783,-0.23217
24347,1.6477e+09,43.601,13.482,86.42,0.31793,-0.23207
24392,1.6477e+09,43.601,13.482,86.42,0.3178,-0.2322
24438,1.6477e+09,43.601,13.482,86.42,0.3179,-0.2321
24487,1.6477e+09,43.601,13.482,86.42,0.31793,-0.23207
24533,1.6478e+09,43.601,13.482,86.42,0.31741,-0.23259
24577,1.6478e+09,43.601,13.482,86.42,0.31674,-0.23326
24619,1.6478e+09,43.601,13.482,86.42,0.31602,-0.23398
24663,1.6478e+09,43.601,13.482,86.42,0.31687,-0.23313
24706,1.6478e+09,43.601,13.482,86.42,0.31614,-0.23386
24748,1.6478e+09,43.601,13.482,86.42,0.31552,-0.23448
24792,1.6478e+09,43.601,13.482,86.42,0.31496,-0.23504
24834,1.6478e+09,43.601,13.482,86.42,0.31444,-0.23556
24877,1.6478e+09,43.601,13.482,86.42,0.31396,-0.23604
24919,1.6479e+09,43.601,13.482,86.42,0.3137,-0.2363
24965,1.6479e+09,43.601,13.482,86.42,0.31456,-0.23544
25012,1.6479e+09,43.601,13.482,86.42,0.31425,-0.23575
25055,1.6479e+09,43.601,13.482,86.42,0.31403,-0.23597
25098,1.6479e+09,43.601,13.482,86.42,0.31379,-0.23621
25140,1.6479e+09,43.601,13.482,86.42,0.31454,-0.23546
25183,1.6479e+09,43.601,13.482,86.42,0.3143,-0.2357
25225,1.6479e+09,43.601,13.482,86.42,0.3141,-0.2359
25269,1.6479e+09,43.601,13.482,86.42,0.31398,-0.23602
25312,1.6479e+09,43.601,13.482,86.42,0.31389,-0.23611
25355,1.648e+09,43.601,13.482,86.42,0.31396,-0.23604
25400,1.648e+09,43.601,13.482,86.42,0.31476,-0.23524
25443,1.648e+09,43.601,13.482,86.42,0.31458,-0.23542
25487,1.648e+09,43.601,13.482,86.42,0.31437,-0.23563
25532,1.648e+09,43.601,13.482,86.42,0.31422,-0.23578
25576,1.648e+09,43.601,13.482,86.42,0.31405,-0.23595
25622,1.648e+09,43.601,13.482,86.42,0.31491,-0.23509
25667,1.648e+09,43.601,13.482,86.42,0.31474,-0.23526
25711,1.648e+09,43.601,13.482,86.42,0.31456,-0.23544
25756,1.648e+09,43.601,13.482,86.42,0.31442,-0.23558
25801,1.6481e+09,43.601,13.482,86.42,0.31433,-0.23567
25846,1.6481e+09,43.601,13.482,86.42,0.3143,-0.2357
25895,1.6481e+09,43.601,13.482,86.42,0.31435,-0.23565
25940,1.6481e+09,43.601,13.482,86.42,0.3145,-0.2355
25985,1.6481e+09,43.601,13.482,86.42,0.31472,-0.23528
26030,1.6481e+09,43.601,13.482,86.42,0.31548,-0.23452
26075,1.6481e+09,43.601,13.482,86.42,0.31571,-0.23429
26119,1.6481e+09,43.601,13.482,86.42,0.31597,-0.23403
26164,1.6481e+09,43.601,13.482,86.42,0.31619,-0.23381
26207,1.6482e+09,43.601,13.482,86.42,0.31645,-0.23355
26252,1.6482e+09,43.601,13.482,86.42,0.31646,-0.23354
26298,1.6482e+09,43.601,13.482,86.42,0.31659,-0.23341
26347,1.6482e+09,43.601,13.482,86.42,0.3167,-0.2333
26391,1.6482e+09,43.601,13.482,86.42,0.31686,-0.23314
26436,1.6482e+09,43.601,13.482,86.42,0.31712,-0.23288
26481,1.6482e+09,43.601,13.482,86.42,0.3179,-0.2321
26525,1.6482e+09,43.601,13.482,86.42,0.31801,-0.23199
26572,1.6482e+09,43.601,13.482,86.42,0.31819,-0.23181
26616,1.6483e+09,43.601,13.482,86.42,0.31842,-0.23158
26661,1.6483e+09,43.601,13.482,86.42,0.31852,-0.23148
26705,1.6483e+09,43.601,13.482,86.42,0.31872,-0.23128
26752,1.6483e+09,43.601,13.482,86.42,0.31946,-0.23054
26800,1.6483e+09,43.601,13.482,86.42,0.31962,-0.23038
26846,1.6483e+09,43.601,13.482,86.42,0.31998,-0.23002
26891,1.6483e+09,43.601,13.482,86.43,0.32027,-0.22973
26935,1.6483e+09,43.601,13.482,86.43,0.32067,-0.22933
26980,1.6483e+09,43.601,13.482,86.43,0.32112,-0.22888
27024,1.6483e+09,43.601,13.482,86.43,0.32153,-0.22847
27071,1.6484e+09,43.601,13.482,86.43,0.32199,-0.22801
27111,1.6484e+09,43.601,13.482,86.43,0.32258,-0.22742
27153,1.6484e+09,43.601,13.482,86.43,0.32287,-0.22713
27196,1.6484e+09,43.601,13.482,86.43,0.32317,-0.22683
27243,1.6484e+09,43.601,13.482,86.43,0.32362,-0.22638
27286,1.6484e+09,43.601,13.482,86.43,0.32411,-0.22589
27329,1.6484e+09,43.601,13.482,86.43,0.32467,-0.22533
27375,1.6484e+09,43.601,13.482,86.43,0.3254,-0.2246
27418,1.6484e+09,43.601,13.482,86.43,0.32599,-0.22401
27460,1.6485e+09,43.601,13.482,86.43,0.32681,-0.22319
27503,1.6485e+09,43.601,13.482,86.43,0.32741,-0.22259
27546,1.6485e+09,43.601,13.482,86.43,0.3279,-0.2221
27588,1.6485e+09,43.601,13.482,86.43,0.32852,-0.22148
27635,1.6485e+09,43.601,13.482,86.43,0.32915,-0.22085
27679,1.6485e+09,43.601,13.482,86.43,0.32986,-0.22014
27722,1.6485e+09,43.601,13.482,86.44,0.33051,-0.21949
27768,1.6485e+09,43.601,13.482,86.44,0.33159,-0.21841
27816,1.6485e+09,43.601,13.482,86.44,0.33261,-0.21739
27854,1.6486e+09,43.601,13.482,86.44,0.33321,-0.21679
27898,1.6486e+09,43.601,13.482,86.44,0.33376,-0.21624
27942,1.6486e+09,43.601,13.482,86.44,0.33426,-0.21574
27986,1.6486e+09,43.601,13.482,86.44,0.33512,-0.21488
28030,1.6486e+09,43.601,13.482,86.44,0.33565,-0.21435
28080,1.6486e+09,43.601,13.482,86.44,0.3362,-0.2138
28124,1.6486e+09,43.601,13.482,86.44,0.33687,-0.21313
28170,1.6486e+09,43.601,13.482,86.44,0.33757,-0.21243
28215,1.6486e+09,43.601,13.482,86.44,0.33823,-0.21177
28259,1.6487e+09,43.601,13.482,86.44,0.33887,-0.21113
28304,1.6487e+09,43.601,13.482,86.44,0.33964,-0.21036
28348,1.6487e+09,43.601,13.482,86.45,0.34049,-0.20951
28393,1.6487e+09,43.601,13.482,86.45,0.34141,-0.20859
28439,1.6487e+09,43.601,13.482,86.45,0.34238,-0.20762
28485,1.6487e+09,43.601,13.482,86.45,0.34349,-0.20651
28533,1.6487e+09,43.601,13.482,86.45,0.34462,-0.20538
28579,1.6487e+09,43.601,13.482,86.45,0.34568,-0.20432
28630,1.6487e+09,43.601,13.482,86.45,0.34724,-0.20277
28672,1.6488e+09,43.601,13.482,86.45,0.34841,-0.20159
28716,1.6488e+09,43.601,13.482,86.45,0.34904,-0.20096
28762,1.6488e+09,43.601,13.482,86.45,0.34999,-0.20001
28808,1.6488e+09,43.601,13.482,86.46,0.35117,-0.19883
28852,1.6488e+09,43.601,13.482,86.46,0.35238,-0.19762
28898,1.6488e+09,43.601,13.482,86.46,0.35377,-0.19623
28950,1.6488e+09,43.601,13.482,86.46,0.35618,-0.19382
28995,1.6488e+09,43.601,13.482,86.46,0.35836,-0.19164
29040,1.6488e+09,43.601,13.482,86.47,0.36126,-0.18874
29084,1.6489e+09,43.601,13.482,86.47,0.364,-0.186
29129,1.6489e+09,43.601,13.482,86.47,0.36628,-0.18372
29173,1.6489e+09,43.601,13.482,86.47,0.36923,-0.18077
29218,1.6489e+09,43.601,13.482,86.48,0.37205,-0.17795
29263,1.6489e+09,43.601,13.482,86.48,0.37554,-0.17446
29308,1.6489e+09,43.601,13.482,86.48,0.37933,-0.17067
29355,1.6489e+09,43.601,13.482,86.49,0.38344,-0.16656
29403,1.6489e+09,43.601,13.482,86.49,0.38815,-0.16185
29449,1.6489e+09,43.601,13.482,86.5,0.3928,-0.1572
29494,1.6489e+09,43.601,13.482,86.5,0.39724,-0.15276
29536,1.649e+09,43.601,13.482,86.51,0.40376,-0.14624
29578,1.649e+09,43.601,13.482,86.51,0.4081,-0.1419
29620,1.649e+09,43.601,13.482,86.52,0.41219,-0.13781
29663,1.649e+09,43.601,13.482,86.52,0.41713,-0.13287
29705,1.649e+09,43.601,13.482,86.53,0.42165,-0.12835
29749,1.649e+09,43.601,13.482,86.53,0.42703,-0.12297
29792,1.649e+09,43.601,13.482,86.54,0.43265,-0.11735
29839,1.649e+09,43.601,13.482,86.54,0.43915,-0.11085
29882,1.649e+09,43.601,13.482,86.55,0.44509,-0.10491
29924,1.6491e+09,43.601,13.482,86.56,0.45055,-0.099445
29967,1.6491e+09,43.601,13.482,86.56,0.45616,-0.093842
30011,1.6491e+09,43.601,13.482,86.57,0.46239,-0.087613
30054,1.6491e+09,43.601,13.482,86.57,0.46806,-0.081938
30096,1.6491e+09,43.601,13.482,86.58,0.47519,-0.074807
30139,1.6491e+09,43.601,13.482,86.59,0.48183,-0.068173
30182,1.6491e+09,43.601,13.482,86.59,0.48786,-0.062136
30224,1.6491e+09,43.601,13.482,86.6,0.49402,-0.055978
30271,1.6491e+09,43.601,13.482,86.61,0.50031,-0.049686
30315,1.6492e+09,43.601,13.482,86.61,0.50748,-0.042519
30362,1.6492e+09,43.601,13.482,86.62,0.5163,-0.033697
30401,1.6492e+09,43.601,13.482,86.63,0.52412,-0.025884
30445,1.6492e+09,43.601,13.482,86.63,0.52981,-0.020187
30491,1.6492e+09,43.601,13.482,86.64,0.53642,-0.013576
30536,1.6492e+09,43.601,13.482,86.65,0.54318,-0.0068188
30580,1.6492e+09,43.601,13.482,86.65,0.5493,-0.0007036
30625,1.6492e+09,43.601,13.482,86.66,0.5572,0.0072029
30671,1.6492e+09,43.601,13.482,86.67,0.56346,0.013457
30720,1.6493e+09,43.601,13.482,86.67,0.56982,0.01982
30766,1.6493e+09,43.601,13.482,86.68,0.57714,0.027136
30811,1.6493e+09,43.601,13.482,86.69,0.58452,0.03452
30856,1.6493e+09,43.601,13.482,86.7,0.59262,0.04262
30900,1.6493e+09,43.601,13.482,86.7,0.59988,0.049876
30945,1.6493e+09,43.601,13.482,86.71,0.6072,0.057199
30989,1.6493e+09,43.601,13.482,86.72,0.61384,0.063842
31034,1.6493e+09,43.601,13.482,86.73,0.62141,0.071409
31078,1.6493e+09,43.601,13.482,86.73,0.62819,0.07819
31123,1.6493e+09,43.601,13.482,86.74,0.63592,0.085924
31174,1.6494e+09,43.601,13.482,86.75,0.64631,0.096311
31217,1.6494e+09,43.601,13.482,86.76,0.6554,0.1054
31262,1.6494e+09,43.601,13.482,86.77,0.66339,0.11339
31310,1.6494e+09,43.601,13.482,86.78,0.67284,0.12284
31354,1.6494e+09,43.601,13.482,86.78,0.67987,0.12987
31399,1.6494e+09,43.601,13.482,86.79,0.68778,0.13778
31443,1.6494e+09,43.601,13.482,86.8,0.69492,0.14492
31488,1.6494e+09,43.601,13.482,86.81,0.70215,0.15215
31533,1.6494e+09,43.601,13.482,86.82,0.71027,0.16027
31582,1.6495e+09,43.601,13.482,86.82,0.71846,0.16846
31627,1.6495e+09,43.601,13.482,86.83,0.72763,0.17763
31671,1.6495e+09,43.601,13.482,86.84,0.73504,0.18504
31716,1.6495e+09,43.601,13.482,86.85,0.74246,0.19246
31760,1.6495e+09,43.601,13.482,86.86,0.75084,0.20084
31805,1.6495e+09,43.601,13.482,86.86,0.75846,0.20846
31851,1.6495e+09,43.601,13.482,86.87,0.76691,0.21691
31895,1.6495e+09,43.601,13.482,86.88,0.77545,0.22545
31940,1.6495e+09,43.601,13.482,86.89,0.78389,0.23389
31983,1.6496e+09,43.601,13.482,86.9,0.79218,0.24218
32029,1.6496e+09,43.601,13.482,86.9,0.79976,0.24976
32073,1.6496e+09,43.601,13.482,86.91,0.80653,0.25653
32118,1.6496e+09,43.601,13.482,86.92,0.8134,0.2634
32163,1.6496e+09,43.601,13.482,86.93,0.82124,0.27124
32207,1.6496e+09,43.601,13.482,86.93,0.82971,0.27971
32253,1.6496e+09,43.601,13.482,86.94,0.83755,0.28755
32297,1.6496e+09,43.601,13.482,86.95,0.84461,0.29461
32342,1.6496e+09,43.601,13.482,86.96,0.85174,0.30174
32388,1.6496e+09,43.601,13.482,86.96,0.85983,0.30983
32432,1.6497e+09,43.601,13.482,86.97,0.86797,0.31797
32481,1.6497e+09,43.601,13.482,86.98,0.87651,0.32651
32525,1.6497e+09,43.601,13.482,86.99,0.88476,0.33476
32570,1.6497e+09,43.601,13.482,87,0.8922,0.3422
32614,1.6497e+09,43.601,13.482,87.01,0.90057,0.35057
32659,1.6497e+09,43.601,13.482,87.01,0.9081,0.3581
32704,1.6497e+09,43.601,13.482,87.02,0.91653,0.36653
32753,1.6497e+09,43.601,13.482,87.03,0.92501,0.37501
32798,1.6497e+09,43.601,13.482,87.04,0.93359,0.38359
32843,1.6498e+09,43.601,13.482,87.05,0.94218,0.39218
32889,1.6498e+09,43.601,13.482,87.06,0.9508,0.4008
32930,1.6498e+09,43.601,13.482,87.07,0.96106,0.41106
32972,1.6498e+09,43.601,13.482,87.07,0.9696,0.4196
33015,1.6498e+09,43.601,13.482,87.08,0.97816,0.42816
33058,1.6498e+09,43.601,13.482,87.09,0.98759,0.43759
33100,1.6498e+09,43.601,13.482,87.1,0.99621,0.44621
33144,1.6498e+09,43.601,13.482,87.11,1.0045,0.4545
33186,1.6498e+09,43.601,13.482,87.12,1.012,0.462
33229,1.6498e+09,43.601,13.482,87.12,1.0196,0.46957
33273,1.6499e+09,43.601,13.482,87.13,1.0281,0.47806
33315,1.6499e+09,43.601,13.482,87.14,1.0357,0.48571
33363,1.6499e+09,43.601,13.482,87.15,1.0434,0.49338
33405,1.6499e+09,43.601,13.482,87.16,1.052,0.502
33449,1.6499e+09,43.601,13.482,87.17,1.0606,0.51062
33492,1.6499e+09,43.601,13.482,87.17,1.0693,0.51927
33535,1.6499e+09,43.601,13.482,87.18,1.0764,0.52641
33577,1.6499e+09,43.601,13.482,87.19,1.0845,0.53448
33620,1.6499e+09,43.601,13.482,87.2,1.0918,0.54177
33661,1.65e+09,43.601,13.482,87.21,1.1007,0.55066
33705,1.65e+09,43.601,13.482,87.21,1.1088,0.55876
33751,1.65e+09,43.601,13.482,87.22,1.1161,0.5661
33800,1.65e+09,43.601,13.482,87.23,1.1243,0.57434
33845,1.65e+09,43.601,13.482,87.24,1.1327,0.58271
33889,1.65e+09,43.601,13.482,87.25,1.1414,0.59141
33935,1.65e+09,43.601,13.482,87.25,1.1499,0.5999
33979,1.65e+09,43.601,13.482,87.26,1.1581,0.6081
34024,1.65e+09,43.601,13.482,87.27,1.1655,0.61553
34070,1.65e+09,43.601,13.482,87.28,1.1731,0.62305
34114,1.6501e+09,43.601,13.482,87.29,1.1816,0.63158
34159,1.6501e+09,43.601,13.482,87.29,1.1893,0.63934
34203,1.6501e+09,43.601,13.482,87.3,1.1972,0.64718
34252,1.6501e+09,43.601,13.482,87.31,1.206,0.656
34298,1.6501e+09,43.601,13.482,87.32,1.215,0.66502
34343,1.6501e+09,43.601,13.482,87.33,1.224,0.674
34388,1.6501e+09,43.601,13.482,87.34,1.2321,0.68212
34432,1.6501e+09,43.601,13.482,87.35,1.2403,0.69026
34473,1.6501e+09,43.601,13.482,87.36,1.2501,0.70008
34518,1.6502e+09,43.601,13.482,87.36,1.2591,0.70909
34562,1.6502e+09,43.601,13.482,87.37,1.2672,0.71721
34607,1.6502e+09,43.601,13.482,87.38,1.2754,0.72541
34651,1.6502e+09,43.601,13.482,87.39,1.2837,0.73371
34701,1.6502e+09,43.601,13.482,87.4,1.293,0.74298
34745,1.6502e+09,43.601,13.482,87.41,1.3031,0.75307
34790,1.6502e+09,43.601,13.482,87.42,1.3124,0.76238
34836,1.6502e+09,43.601,13.482,87.43,1.3208,0.77081
34882,1.6502e+09,43.601,13.482,87.43,1.3287,0.77874
34926,1.6503e+09,43.601,13.482,87.44,1.3368,0.78684
34970,1.6503e+09,43.601,13.482,87.45,1.3441,0.79413
35015,1.6503e+09,43.601,13.482,87.46,1.3515,0.80149
35060,1.6503e+09,43.601,13.482,87.46,1.359,0.80895
35105,1.6503e+09,43.601,13.482,87.47,1.3674,0.8174
35153,1.6503e+09,43.601,13.482,87.48,1.3766,0.82659
35198,1.6503e+09,43.601,13.482,87.49,1.3851,0.83511
35243,1.6503e+09,43.601,13.482,87.5,1.3927,0.84275
35288,1.6503e+09,43.601,13.482,87.51,1.4003,0.85034
35333,1.6503e+09,43.601,13.482,87.51,1.4071,0.85712
35376,1.6504e+09,43.601,13.482,87.52,1.4196,0.8696
35419,1.6504e+09,43.601,13.482,87.53,1.4276,0.87759
35461,1.6504e+09,43.601,13.482,87.54,1.4348,0.88476
35505,1.6504e+09,43.601,13.482,87.55,1.443,0.89298
35548,1.6504e+09,43.601,13.482,87.56,1.4512,0.90125
35596,1.6504e+09,43.601,13.482,87.57,1.4604,0.91037
35639,1.6504e+09,43.601,13.482,87.57,1.4687,0.91872
35682,1.6504e+09,43.601,13.482,87.58,1.4763,0.92626
35725,1.6504e+09,43.601,13.482,87.59,1.4839,0.9339
35768,1.6505e+09,43.601,13.482,87.6,1.4906,0.94063
35810,1.6505e+09,43.601,13.482,87.6,1.4966,0.94659
35853,1.6505e+09,43.601,13.482,87.61,1.5027,0.95272
35895,1.6505e+09,43.601,13.482,87.61,1.509,0.95899
35939,1.6505e+09,43.601,13.482,87.62,1.5163,0.96633
35982,1.6505e+09,43.601,13.482,87.63,1.5265,0.97645
36028,1.6505e+09,43.601,13.482,87.64,1.533,0.98301
36070,1.6505e+09,43.601,13.482,87.64,1.5397,0.9897
36113,1.6505e+09,43.601,13.482,87.65,1.5465,0.99655
36157,1.6505e+09,43.601,13.482,87.66,1.5524,1.0024
36203,1.6506e+09,43.601,13.482,87.67,1.5641,1.0141
36245,1.6506e+09,43.601,13.482,87.68,1.5701,1.0201
36290,1.6506e+09,43.601,13.482,87.68,1.5764,1.0264
36334,1.6506e+09,43.601,13.482,87.69,1.5828,1.0328
36380,1.6506e+09,43.601,13.482,87.69,1.5893,1.0393
36430,1.6506e+09,43.601,13.482,87.7,1.5986,1.0486
36474,1.6506e+09,43.601,13.482,87.71,1.6052,1.0552
36520,1.6506e+09,43.601,13.482,87.72,1.6112,1.0612
36564,1.6506e+09,43.601,13.482,87.72,1.6172,1.0672
36612,1.6507e+09,43.601,13.482,87.73,1.6257,1.0757
36657,1.6507e+09,43.601,13.482,87.74,1.6308,1.0808
36701,1.6507e+09,43.601,13.482,87.74,1.6368,1.0868
36746,1.6507e+09,43.601,13.482,87.75,1.646,1.096
36792,1.6507e+09,43.601,13.482,87.76,1.6523,1.1023
36836,1.6507e+09,43.601,13.482,87.76,1.6578,1.1078
36887,1.6507e+09,43.601,13.482,87.77,1.6645,1.1145
36933,1.6507e+09,43.601,13.482,87.78,1.6704,1.1204
36978,1.6507e+09,43.601,13.482,87.78,1.6764,1.1264
37021,1.6508e+09,43.601,13.482,87.79,1.6858,1.1358
37066,1.6508e+09,43.601,13.482,87.8,1.6918,1.1418
37110,1.6508e+09,43.601,13.482,87.8,1.697,1.147
37155,1.6508e+09,43.601,13.482,87.81,1.7033,1.1533
37201,1.6508e+09,43.601,13.482,87.81,1.71,1.16
37247,1.6508e+09,43.601,13.482,87.82,1.7193,1.1693
37291,1.6508e+09,43.601,13.482,87.83,1.7262,1.1762
37339,1.6508e+09,43.601,13.482,87.84,1.7322,1.1822
37383,1.6508e+09,43.601,13.482,87.84,1.7385,1.1885
37427,1.6509e+09,43.601,13.482,87.85,1.745,1.195
37471,1.6509e+09,43.601,13.482,87.86,1.7505,1.2005
37518,1.6509e+09,43.601,13.482,87.86,1.7572,1.2072
37563,1.6509e+09,43.601,13.482,87.87,1.7641,1.2141
37607,1.6509e+09,43.601,13.482,87.88,1.7713,1.2213
37652,1.6509e+09,43.601,13.482,87.88,1.7788,1.2288
37697,1.6509e+09,43.601,13.482,87.89,1.7897,1.2397
37742,1.6509e+09,43.601,13.482,87.9,1.7974,1.2474
37792,1.6509e+09,43.601,13.482,87.91,1.8043,1.2543
37836,1.651e+09,43.601,13.482,87.92,1.8145,1.2645
37879,1.651e+09,43.601,13.482,87.93,1.8227,1.2727
37924,1.651e+09,43.601,13.482,87.93,1.8297,1.2797
37968,1.651e+09,43.601,13.482,87.94,1.8378,1.2878
38013,1.651e+09,43.601,13.482,87.95,1.8472,1.2972
38058,1.651e+09,43.601,13.482,87.96,1.8575,1.3075
38102,1.651e+09,43.601,13.482,87.97,1.867,1.317
38148,1.651e+09,43.601,13.482,87.98,1.8746,1.3246
38196,1.651e+09,43.601,13.482,87.99,1.8834,1.3334
38244,1.6511e+09,43.601,13.482,88,1.8912,1.3412
38289,1.6511e+09,43.601,13.482,88,1.8992,1.3492
38333,1.6511e+09,43.601,13.482,88.01,1.9073,1.3573
38382,1.6511e+09,43.601,13.482,88.02,1.919,1.369
38426,1.6511e+09,43.601,13.482,88.03,1.9276,1.3776
38472,1.6511e+09,43.601,13.482,88.04,1.9354,1.3854
38516,1.6511e+09,43.601,13.482,88.05,1.9433,1.3933
38561,1.6511e+09,43.601,13.482,88.06,1.9524,1.4024
38607,1.6511e+09,43.601,13.482,88.07,1.9627,1.4127
38655,1.6511e+09,43.601,13.482,88.08,1.9708,1.4208
38702,1.6512e+09,43.601,13.482,88.09,1.9801,1.4301
38739,1.6512e+09,43.601,13.482,88.1,1.9906,1.4406
38782,1.6512e+09,43.601,13.482,88.1,1.9992,1.4492
38824,1.6512e+09,43.601,13.482,88.11,2.0068,1.4568
38867,1.6512e+09,43.601,13.482,88.12,2.0145,1.4645
38909,1.6512e+09,43.601,13.482,88.13,2.0233,1.4733
38954,1.6512e+09,43.601,13.482,88.14,2.0338,1.4838
38996,1.6512e+09,43.601,13.482,88.15,2.0428,1.4928
39039,1.6512e+09,43.601,13.482,88.16,2.0509,1.5009
39085,1.6513e+09,43.601,13.482,88.16,2.0592,1.5092
39128,1.6513e+09,43.601,13.482,88.17,2.0686,1.5186
39172,1.6513e+09,43.601,13.482,88.18,2.0782,1.5282
39215,1.6513e+09,43.601,13.482,88.19,2.0868,1.5368
39257,1.6513e+09,43.601,13.482,88.2,2.0953,1.5453
39299,1.6513e+09,43.601,13.482,88.21,2.104,1.554
39342,1.6513e+09,43.601,13.482,88.22,2.1145,1.5645
39384,1.6513e+09,43.601,13.482,88.23,2.1222,1.5722
39427,1.6513e+09,43.601,13.482,88.23,2.1299,1.5799
39468,1.6513e+09,43.601,13.482,88.24,2.1392,1.5892
39514,1.6514e+09,43.601,13.482,88.25,2.1485,1.5985
39560,1.6514e+09,43.601,13.482,88.26,2.1579,1.6079
39604,1.6514e+09,43.601,13.482,88.27,2.1682,1.6182
39649,1.6514e+09,43.601,13.482,88.28,2.1776,1.6276
39697,1.6514e+09,43.601,13.482,88.29,2.1876,1.6376
39742,1.6514e+09,43.601,13.482,88.3,2.1957,1.6457
39786,1.6514e+09,43.601,13.482,88.31,2.2028,1.6528
39831,1.6514e+09,43.601,13.482,88.32,2.2101,1.6601
39876,1.6514e+09,43.601,13.482,88.32,2.2185,1.6685
39920,1.6515e+09,43.601,13.482,88.33,2.2271,1.6771
39970,1.6515e+09,43.601,13.482,88.34,2.2372,1.6872
40014,1.6515e+09,43.601,13.482,88.35,2.2449,1.6949
40060,1.6515e+09,43.601,13.482,88.36,2.2528,1.7028
40104,1.6515e+09,43.601,13.482,88.37,2.2607,1.7107
40152,1.6515e+09,43.601,13.482,88.38,2.2706,1.7206
40197,1.6515e+09,43.601,13.482,88.38,2.2787,1.7287
40241,1.6515e+09,43.601,13.482,88.39,2.2859,1.7359
40286,1.6515e+09,43.601,13.482,88.4,2.2964,1.7464
40332,1.6516e+09,43.601,13.482,88.41,2.3049,1.7549
40374,1.6516e+09,43.601,13.482,88.42,2.3133,1.7633
40423,1.6516e+09,43.601,13.482,88.43,2.3221,1.7721
40467,1.6516e+09,43.601,13.482,88.44,2.331,1.781
40513,1.6516e+09,43.601,13.482,88.45,2.3418,1.7918
40558,1.6516e+09,43.601,13.482,88.45,2.349,1.799
40602,1.6516e+09,43.601,13.482,88.46,2.3564,1.8064
40647,1.6516e+09,43.601,13.482,88.47,2.365,1.815
40692,1.6516e+09,43.601,13.482,88.48,2.3738,1.8238
40737,1.6516e+09,43.601,13.482,88.49,2.3848,1.8348
40781,1.6517e+09,43.601,13.482,88.5,2.3938,1.8438
40827,1.6517e+09,43.601,13.482,88.51,2.4018,1.8518
40876,1.6517e+09,43.601,13.482,88.52,2.4111,1.8611
40920,1.6517e+09,43.601,13.482,88.53,2.4206,1.8706
40966,1.6517e+09,43.601,13.482,88.54,2.4302,1.8802
41012,1.6517e+09,43.601,13.482,88.55,2.4413,1.8913
41056,1.6517e+09,43.601,13.482,88.55,2.45,1.9
41101,1.6517e+09,43.601,13.482,88.56,2.4589,1.9089
41147,1.6517e+09,43.601,13.482,88.57,2.468,1.918
41192,1.6518e+09,43.601,13.482,88.58,2.476,1.926
41238,1.6518e+09,43.601,13.482,88.59,2.4843,1.9343
41283,1.6518e+09,43.601,13.482,88.6,2.498,1.948
41329,1.6518e+09,43.601,13.482,88.61,2.5084,1.9584
41373,1.6518e+09,43.601,13.482,88.62,2.5179,1.9679
41418,1.6518e+09,43.601,13.482,88.63,2.5273,1.9773
41466,1.6518e+09,43.601,13.482,88.65,2.5403,1.9903
41511,1.6518e+09,43.601,13.482,88.66,2.55,2
41556,1.6518e+09,43.601,13.482,88.66,2.5588,2.0088
41600,1.6519e+09,43.601,13.482,88.67,2.5678,2.0178
41645,1.6519e+09,43.601,13.482,88.68,2.578,2.028
41689,1.6519e+09,43.601,13.482,88.69,2.5884,2.0384
41739,1.6519e+09,43.601,13.482,88.7,2.5989,2.0489
41783,1.6519e+09,43.601,13.482,88.71,2.6095,2.0595
41828,1.6519e+09,43.601,13.482,88.73,2.6209,2.0709
41873,1.6519e+09,43.601,13.482,88.74,2.6307,2.0807
41919,1.6519e+09,43.601,13.482,88.75,2.6405,2.0905
41964,1.6519e+09,43.601,13.482,88.76,2.6505,2.1005
42011,1.652e+09,43.601,13.482,88.76,2.6594,2.1094
42050,1.652e+09,43.601,13.482,88.78,2.6714,2.1214
42092,1.652e+09,43.601,13.482,88.79,2.6802,2.1302
42135,1.652e+09,43.601,13.482,88.8,2.6901,2.1401
42181,1.652e+09,43.601,13.482,88.81,2.7,2.15
42223,1.652e+09,43.601,13.482,88.81,2.709,2.159
42266,1.652e+09,43.601,13.482,88.82,2.7179,2.1679
42308,1.652e+09,43.601,13.482,88.83,2.7265,2.1765
42352,1.652e+09,43.601,13.482,88.84,2.7386,2.1886
42391,1.6521e+09,43.601,13.482,88.85,2.7483,2.1983
42431,1.6521e+09,43.601,13.482,88.86,2.7569,2.2069
42473,1.6521e+09,43.601,13.482,88.87,2.7646,2.2146
42515,1.6521e+09,43.601,13.482,88.88,2.7734,2.2234
42560,1.6521e+09,43.601,13.482,88.89,2.7821,2.2321
42607,1.6521e+09,43.601,13.482,88.89,2.7899,2.2399
42650,1.6521e+09,43.601,13.482,88.91,2.8004,2.2504
42693,1.6521e+09,43.601,13.482,88.91,2.8081,2.2581
42735,1.6521e+09,43.601,13.482,88.92,2.8159,2.2659
42775,1.6521e+09,43.601,13.482,88.93,2.8287,2.2787
42817,1.6522e+09,43.601,13.482,88.94,2.8374,2.2874
42858,1.6522e+09,43.601,13.482,88.95,2.8452,2.2952
42903,1.6522e+09,43.601,13.482,88.96,2.853,2.303
42948,1.6522e+09,43.601,13.482,88.97,2.8608,2.3108
42996,1.6522e+09,43.601,13.482,88.98,2.8704,2.3204
43045,1.6522e+09,43.601,13.482,88.98,2.8782,2.3281
43089,1.6522e+09,43.601,13.482,88.99,2.885,2.335
43134,1.6522e+09,43.601,13.482,89,2.8927,2.3427
43178,1.6522e+09,43.601,13.482,89,2.8996,2.3496
43224,1.6523e+09,43.601,13.482,89.02,2.9138,2.3638
43269,1.6523e+09,43.601,13.482,89.03,2.9204,2.3704
43314,1.6523e+09,43.601,13.482,89.03,2.9281,2.3781
43359,1.6523e+09,43.601,13.482,89.04,2.9357,2.3857
43403,1.6523e+09,43.601,13.482,89.05,2.9425,2.3925
43452,1.6523e+09,43.601,13.482,89.05,2.9495,2.3995
43497,1.6523e+09,43.601,13.482,89.06,2.9573,2.4073
43541,1.6523e+09,43.601,13.482,89.07,2.9652,2.4152
43591,1.6524e+09,43.601,13.482,89.08,2.9757,2.4257
43629,1.6524e+09,43.601,13.482,89.09,2.9844,2.4344
43671,1.6524e+09,43.601,13.482,89.1,2.9929,2.4429
43713,1.6524e+09,43.601,13.482,89.11,3.0005,2.4505
43757,1.6524e+09,43.601,13.482,89.11,3.0073,2.4573
43802,1.6524e+09,43.601,13.482,89.12,3.015,2.465
43849,1.6524e+09,43.601,13.482,89.13,3.0226,2.4726
43897,1.6524e+09,43.601,13.482,89.14,3.0303,2.4803
43942,1.6524e+09,43.601,13.482,89.14,3.0385,2.4885
43986,1.6525e+09,43.601,13.482,89.15,3.0461,2.4961
44031,1.6525e+09,43.601,13.482,89.16,3.0529,2.5029
44073,1.6525e+09,43.601,13.482,89.17,3.0614,2.5114
44114,1.6525e+09,43.601,13.482,89.17,3.0695,2.5195
44160,1.6525e+09,43.601,13.482,89.18,3.076,2.526
44206,1.6525e+09,43.601,13.482,89.19,3.0833,2.5333
44250,1.6525e+09,43.601,13.482,89.2,3.0906,2.5406
44295,1.6525e+09,43.601,13.482,89.2,3.0971,2.5471
44343,1.6525e+09,43.601,13.482,89.21,3.1043,2.5543
44390,1.6525e+09,43.601,13.482,89.22,3.1126,2.5626
44429,1.6526e+09,43.601,13.482,89.23,3.1207,2.5707
44473,1.6526e+09,43.601,13.482,89.23,3.128,2.578
44511,1.6526e+09,43.601,13.482,89.24,3.1361,2.5861
44556,1.6526e+09,43.601,13.482,89.25,3.1429,2.5929
44601,1.6526e+09,43.601,13.482,89.25,3.149,2.5991
44648,1.6526e+09,43.601,13.482,89.26,3.1559,2.6059
44692,1.6526e+09,43.601,13.482,89.27,3.1631,2.6131
44737,1.6526e+09,43.601,13.482,89.27,3.17,2.62
44786,1.6526e+09,43.601,13.482,89.28,3.1761,2.6261
44831,1.6527e+09,43.601,13.482,89.29,3.183,2.633
44875,1.6527e+09,43.601,13.482,89.29,3.1898,2.6398
44921,1.6527e+09,43.601,13.482,89.3,3.196,2.646
44960,1.6527e+09,43.601,13.482,89.31,3.2043,2.6543
45006,1.6527e+09,43.601,13.482,89.32,3.2114,2.6614
45050,1.6527e+09,43.601,13.482,89.32,3.2177,2.6677
45094,1.6527e+09,43.601,13.482,89.33,3.2248,2.6748
45140,1.6527e+09,43.601,13.482,89.34,3.2319,2.6819
45187,1.6527e+09,43.601,13.482,89.34,3.2387,2.6887
45229,1.6528e+09,43.601,13.482,89.35,3.2468,2.6968
45275,1.6528e+09,43.601,13.482,89.36,3.2528,2.7028
45320,1.6528e+09,43.601,13.482,89.36,3.2596,2.7096
45365,1.6528e+09,43.601,13.482,89.37,3.2658,2.7158
45406,1.6528e+09,43.601,13.482,89.38,3.2726,2.7226
45450,1.6528e+09,43.601,13.482,89.39,3.2801,2.7301
45492,1.6528e+09,43.601,13.482,89.39,3.2876,2.7376
45536,1.6528e+09,43.601,13.482,89.4,3.2951,2.7451
45581,1.6528e+09,43.601,13.482,89.41,3.3026,2.7526
45626,1.6529e+09,43.601,13.482,89.41,3.3095,2.7595
45676,1.6529e+09,43.601,13.482,89.42,3.3171,2.7671
45721,1.6529e+09,43.601,13.482,89.43,3.324,2.774
45766,1.6529e+09,43.601,13.482,89.44,3.3316,2.7816
45811,1.6529e+09,43.601,13.482,89.44,3.3384,2.7884
45852,1.6529e+09,43.601,13.482,89.45,3.3487,2.7987
45897,1.6529e+09,43.601,13.482,89.46,3.3551,2.8051
45941,1.6529e+09,43.601,13.482,89.47,3.3622,2.8122
45985,1.6529e+09,43.601,13.482,89.47,3.3693,2.8193
46030,1.653e+09,43.601,13.482,89.48,3.3757,2.8257
46078,1.653e+09,43.601,13.482,89.49,3.3851,2.8351
46121,1.653e+09,43.601,13.482,89.5,3.3926,2.8426
46165,1.653e+09,43.601,13.482,89.51,3.4,2.85
46207,1.653e+09,43.601,13.482,89.51,3.4068,2.8568
46251,1.653e+09,43.601,13.482,89.52,3.4134,2.8634
46293,1.653e+09,43.601,13.482,89.53,3.4209,2.8709
46332,1.653e+09,43.601,13.482,89.54,3.4303,2.8803
46375,1.653e+09,43.601,13.482,89.54,3.437,2.887
46418,1.6531e+09,43.601,13.482,89.55,3.4445,2.8945
46460,1.6531e+09,43.601,13.482,89.56,3.4519,2.9019
46504,1.6531e+09,43.601,13.482,89.56,3.4587,2.9087
46550,1.6531e+09,43.601,13.482,89.57,3.4662,2.9162
46593,1.6531e+09,43.601,13.482,89.58,3.4738,2.9238
46636,1.6531e+09,43.601,13.482,89.59,3.4807,2.9307
46680,1.6531e+09,43.601,13.482,89.6,3.4936,2.9436
46723,1.6531e+09,43.601,13.482,89.61,3.5005,2.9505
46765,1.6531e+09,43.601,13.482,89.61,3.5074,2.9574
46809,1.6532e+09,43.601,13.482,89.62,3.514,2.964
46851,1.6532e+09,43.601,13.482,89.63,3.5244,2.9744
46897,1.6532e+09,43.601,13.482,89.64,3.5319,2.9819
46946,1.6532e+09,43.601,13.482,89.64,3.5394,2.9894
46993,1.6532e+09,43.601,13.482,89.65,3.5468,2.9968
47037,1.6532e+09,43.601,13.482,89.66,3.5543,3.0043
47082,1.6532e+09,43.601,13.482,89.67,3.5609,3.0109
47124,1.6532e+09,43.601,13.482,89.67,3.5689,3.0189
47168,1.6532e+09,43.601,13.482,89.68,3.5749,3.0249
47210,1.6533e+09,43.601,13.482,89.69,3.5816,3.0316
47257,1.6533e+09,43.601,13.482,89.69,3.5876,3.0376
47301,1.6533e+09,43.601,13.482,89.7,3.5942,3.0442
47346,1.6533e+09,43.601,13.482,89.71,3.6001,3.0501
47394,1.6533e+09,43.601,13.482,89.71,3.6067,3.0567
47439,1.6533e+09,43.601,13.482,89.72,3.6129,3.0629
47484,1.6533e+09,43.601,13.482,89.72,3.6194,3.0694
47529,1.6533e+09,43.601,13.482,89.73,3.6252,3.0752
47570,1.6533e+09,43.601,13.482,89.74,3.6321,3.0821
47615,1.6534e+09,43.601,13.482,89.74,3.6379,3.0879
47653,1.6534e+09,43.601,13.482,89.75,3.6445,3.0945
47697,1.6534e+09,43.601,13.482,89.75,3.6492,3.0992
47742,1.6534e+09,43.601,13.482,89.76,3.654,3.104
47787,1.6534e+09,43.601,13.482,89.76,3.6593,3.1093
47836,1.6534e+09,43.601,13.482,89.77,3.6649,3.1149
47881,1.6534e+09,43.601,13.482,89.78,3.6702,3.1202
47926,1.6534e+09,43.601,13.482,89.78,3.6748,3.1248
47971,1.6534e+09,43.601,13.482,89.79,3.68,3.13
48009,1.6535e+09,43.601,13.482,89.79,3.6857,3.1357
48054,1.6535e+09,43.601,13.482,89.8,3.6908,3.1408
48098,1.6535e+09,43.601,13.482,89.8,3.6953,3.1453
48142,1.6535e+09,43.601,13.482,89.8,3.6997,3.1497
48186,1.6535e+09,43.601,13.482,89.81,3.7048,3.1548
48230,1.6535e+09,43.601,13.482,89.82,3.7105,3.1605
48279,1.6535e+09,43.601,13.482,89.82,3.715,3.165
48323,1.6535e+09,43.601,13.482,89.82,3.7195,3.1695
48367,1.6535e+09,43.601,13.482,89.83,3.724,3.174
48415,1.6535e+09,43.601,13.482,89.84,3.731,3.181
48453,1.6536e+09,43.601,13.482,89.84,3.7374,3.1874
48498,1.6536e+09,43.601,13.482,89.85,3.7423,3.1923
48543,1.6536e+09,43.601,13.482,89.85,3.7473,3.1973
48584,1.6536e+09,43.601,13.482,89.86,3.7532,3.2032
48629,1.6536e+09,43.601,13.482,89.86,3.7581,3.2081
48674,1.6536e+09,43.601,13.482,89.87,3.7634,3.2134
48722,1.6536e+09,43.601,13.482,89.87,3.7683,3.2183
48767,1.6536e+09,43.601,13.482,89.88,3.7736,3.2236
48812,1.6536e+09,43.601,13.482,89.88,3.7784,3.2284
48857,1.6537e+09,43.601,13.482,89.89,3.7852,3.2352
48903,1.6537e+09,43.601,13.482,89.9,3.7908,3.2408
48944,1.6537e+09,43.601,13.482,89.9,3.7969,3.2469
48989,1.6537e+09,43.601,13.482,89.91,3.8021,3.2521
49036,1.6537e+09,43.601,13.482,89.91,3.8071,3.2571
49081,1.6537e+09,43.601,13.482,89.92,3.8127,3.2627
49130,1.6537e+09,43.601,13.482,89.92,3.8182,3.2682
49175,1.6537e+09,43.601,13.482,89.93,3.8236,3.2736
49222,1.6537e+09,43.601,13.482,89.93,3.8282,3.2782
49267,1.6538e+09,43.601,13.482,89.94,3.8336,3.2836
49313,1.6538e+09,43.601,13.482,89.94,3.8386,3.2886
49350,1.6538e+09,43.601,13.482,89.95,3.8441,3.2941
49388,1.6538e+09,43.601,13.482,89.95,3.8495,3.2995
49434,1.6538e+09,43.601,13.482,89.96,3.8535,3.3035
49480,1.6538e+09,43.601,13.482,89.96,3.8579,3.3079
49524,1.6538e+09,43.601,13.482,89.97,3.8624,3.3124
49573,1.6538e+09,43.601,13.482,89.97,3.8669,3.3169
49617,1.6538e+09,43.601,13.482,89.98,3.8709,3.3209
49662,1.6539e+09,43.601,13.482,89.98,3.8753,3.3253
49708,1.6539e+09,43.601,13.482,89.98,3.8799,3.3299
49752,1.6539e+09,43.601,13.482,89.99,3.8839,3.3339
49796,1.6539e+09,43.601,13.482,89.99,3.8884,3.3384
49837,1.6539e+09,43.601,13.482,90,3.8956,3.3456
49883,1.6539e+09,43.601,13.482,90.01,3.9002,3.3502
49927,1.6539e+09,43.601,13.482,90.01,3.9051,3.3551
49973,1.6539e+09,43.601,13.482,90.02,3.9101,3.3601
50022,1.6539e+09,43.601,13.482,90.02,3.9147,3.3647
50067,1.654e+09,43.601,13.482,90.02,3.9192,3.3692
50114,1.654e+09,43.601,13.482,90.03,3.9271,3.3771
50158,1.654e+09,43.601,13.482,90.04,3.9307,3.3807
50200,1.654e+09,43.601,13.482,90.04,3.9362,3.3862
50245,1.654e+09,43.601,13.482,90.05,3.9426,3.3926
50290,1.654e+09,43.601,13.482,90.05,3.9472,3.3972
50335,1.654e+09,43.601,13.482,90.06,3.9513,3.4013
50379,1.654e+09,43.601,13.482,90.06,3.9555,3.4055
50428,1.6541e+09,43.601,13.482,90.07,3.9604,3.4104
50473,1.6541e+09,43.601,13.482,90.07,3.965,3.415
50518,1.6541e+09,43.601,13.482,90.07,3.9696,3.4196
50563,1.6541e+09,43.601,13.482,90.08,3.9738,3.4238
50607,1.6541e+09,43.601,13.482,90.08,3.9797,3.4297
50652,1.6541e+09,43.601,13.482,90.09,3.9845,3.4345
50694,1.6541e+09,43.601,13.482,90.09,3.9898,3.4398
50740,1.6541e+09,43.601,13.482,90.1,3.9941,3.4441
50787,1.6541e+09,43.601,13.482,90.1,3.9988,3.4488
50832,1.6542e+09,43.601,13.482,90.11,4.006,3.456
50880,1.6542e+09,43.601,13.482,90.12,4.0106,3.4606
50926,1.6542e+09,43.601,13.482,90.12,4.0148,3.4648
50971,1.6542e+09,43.601,13.482,90.12,4.0194,3.4694
51014,1.6542e+09,43.601,13.482,90.13,4.024,3.474
51059,1.6542e+09,43.601,13.482,90.13,4.029,3.479
51101,1.6542e+09,43.601,13.482,90.14,4.0335,3.4835
51146,1.6542e+09,43.601,13.482,90.14,4.038,3.488
51191,1.6542e+09,43.601,13.482,90.15,4.0422,3.4922
51238,1.6543e+09,43.601,13.482,90.15,4.0467,3.4967
51282,1.6543e+09,43.601,13.482,90.16,4.0508,3.5008
51331,1.6543e+09,43.601,13.482,90.16,4.0553,3.5053
51376,1.6543e+09,43.601,13.482,90.16,4.0594,3.5094
51421,1.6543e+09,43.601,13.482,90.17,4.0639,3.5139
51465,1.6543e+09,43.601,13.482,90.18,4.0713,3.5213
51511,1.6543e+09,43.601,13.482,90.18,4.0757,3.5257
51555,1.6543e+09,43.601,13.482,90.19,4.0805,3.5305
51599,1.6543e+09,43.601,13.482,90.19,4.0853,3.5353
51646,1.6544e+09,43.601,13.482,90.19,4.0896,3.5396
51688,1.6544e+09,43.601,13.482,90.2,4.0953,3.5453
51736,1.6544e+09,43.601,13.482,90.2,4.0994,3.5494
51781,1.6544e+09,43.601,13.482,90.21,4.103,3.553
51826,1.6544e+09,43.601,13.482,90.21,4.1067,3.5567
51871,1.6544e+09,43.601,13.482,90.22,4.1125,3.5625
51916,1.6544e+09,43.601,13.482,90.22,4.117,3.567
51961,1.6544e+09,43.601,13.482,90.23,4.121,3.571
52003,1.6545e+09,43.601,13.482,90.23,4.1259,3.5759
52048,1.6545e+09,43.601,13.482,90.23,4.13,3.58
52092,1.6545e+09,43.601,13.482,90.24,4.134,3.584
52137,1.6545e+09,43.601,13.482,90.24,4.1384,3.5884
52186,1.6545e+09,43.601,13.482,90.25,4.1424,3.5924
52231,1.6545e+09,43.601,13.482,90.25,4.1468,3.5968
52277,1.6545e+09,43.601,13.482,90.26,4.1507,3.6007
52321,1.6545e+09,43.601,13.482,90.26,4.1551,3.6051
52363,1.6545e+09,43.601,13.482,90.27,4.1613,3.6113
52408,1.6546e+09,43.601,13.482,90.27,4.1662,3.6162
52456,1.6546e+09,43.601,13.482,90.28,4.173,3.623
52499,1.6546e+09,43.601,13.482,90.28,4.1768,3.6268
