LineNo,TimeUS,C1,C2,C3,C4,C5,C6,C7,C8,C9,C10,C11,C12,C13,C14
320,1641889362,0,0,0,0,0,0,0,0,1000,1000,1000,1000,1000,1000
548,1641935713,0,0,0,0,0,0,0,0,1000,1000,1000,1000,1000,1000
1002,1642042117,0,0,0,0,0,0,0,0,1000,1000,1000,1000,1000,1000
1116,1642081580,0,0,0,0,0,0,0,0,1000,1000,1000,1000,1000,1000
1223,1642157962,0,0,0,0,0,0,0,0,1000,1000,1000,1000,1000,1000
1334,1642227558,0,0,0,0,0,0,0,0,1000,1000,1000,1000,1000,1000
1513,1642275291,0,0,0,0,0,0,0,0,1000,1000,1000,1000,1000,1000
1695,1642308560,0,0,0,0,0,0,0,0,1000,1000,1000,1000,1000,1000
1739,1642319080,0,0,0,0,0,0,0,0,1000,1000,1000,1000,1000,1000
1784,1642329238,0,0,0,0,0,0,0,0,1000,1000,1000,1000,1000,1000
1828,1642339349,0,0,0,0,0,0,0,0,1000,1000,1000,1000,1000,1000
1873,1642349510,0,0,0,0,0,0,0,0,1000,1000,1000,1000,1000,1000
1920,1642360484,0,0,0,0,0,0,0,0,1000,1000,1000,1000,1000,1000
1963,1642376938,0,0,0,0,0,0,0,0,1000,1000,1000,1000,1000,1000
2005,1642386950,0,0,0,0,0,0,0,0,1000,1000,1000,1000,1000,1000
2053,1642397501,0,0,0,0,0,0,0,0,1000,1000,1000,1000,1000,1000
2096,1642408203,0,0,0,0,0,0,0,0,1000,1000,1000,1000,1000,1000
2138,1642419094,0,0,0,0,0,0,0,0,1000,1000,1000,1000,1000,1000
2184,1642431718,0,0,0,0,0,0,0,0,1000,1000,1000,1000,1000,1000
2228,1642442504,0,0,0,0,0,0,0,0,1000,1000,1000,1000,1000,1000
2270,1642453071,0,0,0,0,0,0,0,0,1000,1000,1000,1000,1000,1000
2314,1642463352,0,0,0,0,0,0,0,0,1000,1000,1000,1000,1000,1000
2356,1642473202,0,0,0,0,0,0,0,0,1000,1000,1000,1000,1000,1000
2399,1642483714,0,0,0,0,0,0,0,0,1000,1000,1000,1000,1000,1000
2442,1642494200,0,0,0,0,0,0,0,0,1000,1000,1000,1000,1000,1000
2488,1642504658,0,0,0,0,0,0,0,0,1000,1000,1000,1000,1000,1000
2532,1642514528,0,0,0,0,0,0,0,0,1000,1000,1000,1000,1000,1000
2574,1642524497,0,0,0,0,0,0,0,0,1000,1000,1000,1000,1000,1000
2617,1642534527,0,0,0,0,0,0,0,0,1000,1000,1000,1000,1000,1000
2662,1642545528,0,0,0,0,0,0,0,0,1000,1000,1000,1000,1000,1000
2710,1642561621,0,0,0,0,0,0,0,0,1000,1000,1000,1000,1000,1000
2755,1642572407,0,0,0,0,0,0,0,0,1000,1000,1000,1000,1000,1000
2800,1642582957,0,0,0,0,0,0,0,0,1000,1000,1000,1000,1000,1000
2845,1642593188,0,0,0,0,0,0,0,0,1000,1000,1000,1000,1000,1000
2894,1642603536,0,0,0,0,0,0,0,0,1000,1000,1000,1000,1000,1000
2938,1642614132,0,0,0,0,0,0,0,0,1000,1000,1000,1000,1000,1000
2985,1642624596,0,0,0,0,0,0,0,0,1000,1000,1000,1000,1000,1000
3029,1642634400,0,0,0,0,0,0,0,0,1000,1000,1000,1000,1000,1000
3074,1642644497,0,0,0,0,0,0,0,0,1000,1000,1000,1000,1000,1000
3118,1642655404,0,0,0,0,0,0,0,0,1000,1000,1000,1000,1000,1000
3163,1642665732,0,0,0,0,0,0,0,0,1000,1000,1000,1000,1000,1000
3208,1642675530,0,0,0,0,0,0,0,0,1000,1000,1000,1000,1000,1000
3252,1642685553,0,0,0,0,0,0,0,0,1000,1000,1000,1000,1000,1000
3299,1642695569,0,0,0,0,0,0,0,0,1000,1000,1000,1000,1000,1000
3349,1642706382,0,0,0,0,0,0,0,0,1000,1000,1000,1000,1000,1000
3395,1642716779,0,0,0,0,0,0,0,0,1000,1000,1000,1000,1000,1000
3439,1642727186,0,0,0,0,0,0,0,0,1000,1000,1000,1000,1000,1000
3484,1642737069,0,0,0,0,0,0,0,0,1000,1000,1000,1000,1000,1000
3529,1642747192,0,0,0,0,0,0,0,0,1000,1000,1000,1000,1000,1000
3576,1642760349,0,0,0,0,0,0,0,0,1000,1000,1000,1000,1000,1000
3618,1642771627,0,0,0,0,0,0,0,0,1000,1000,1000,1000,1000,1000
3662,1642781762,0,0,0,0,0,0,0,0,1000,1000,1000,1000,1000,1000
3708,1642791936,0,0,0,0,0,0,0,0,1000,1000,1000,1000,1000,1000
3753,1642802713,0,0,0,0,0,0,0,0,1000,1000,1000,1000,1000,1000
3801,1642813229,0,0,0,0,0,0,0,0,1000,1000,1000,1000,1000,1000
3846,1642823492,0,0,0,0,0,0,0,0,1000,1000,1000,1000,1000,1000
3890,1642833101,0,0,0,0,0,0,0,0,1000,1000,1000,1000,1000,1000
3935,1642843706,0,0,0,0,0,0,0,0,1000,1000,1000,1000,1000,1000
3980,1642853621,0,0,0,0,0,0,0,0,1000,1000,1000,1000,1000,1000
4024,1642864306,0,0,0,0,0,0,0,0,1000,1000,1000,1000,1000,1000
4069,1642874923,0,0,0,0,0,0,0,0,1000,1000,1000,1000,1000,1000
4113,1642884787,0,0,0,0,0,0,0,0,1000,1000,1000,1000,1000,1000
4158,1642894632,0,0,0,0,0,0,0,0,1000,1000,1000,1000,1000,1000
4203,1642905340,0,0,0,0,0,0,0,0,1000,1000,1000,1000,1000,1000
4252,1642915390,0,0,0,0,0,0,0,0,1000,1000,1000,1000,1000,1000
4297,1642925372,0,0,0,0,0,0,0,0,1000,1000,1000,1000,1000,1000
4341,1642935636,0,0,0,0,0,0,0,0,1000,1000,1000,1000,1000,1000
4384,1642949518,0,0,0,0,0,0,0,0,1000,1000,1000,1000,1000,1000
4426,1642960193,0,0,0,0,0,0,0,0,1000,1000,1000,1000,1000,1000
4469,1642970692,0,0,0,0,0,0,0,0,1000,1000,1000,1000,1000,1000
4513,1642980660,0,0,0,0,0,0,0,0,1000,1000,1000,1000,1000,1000
4555,1642990575,0,0,0,0,0,0,0,0,1000,1000,1000,1000,1000,1000
4598,1643000744,0,0,0,0,0,0,0,0,1000,1000,1000,1000,1000,1000
4640,1643011122,0,0,0,0,0,0,0,0,1000,1000,1000,1000,1000,1000
4689,1643021765,0,0,0,0,0,0,0,0,1000,1000,1000,1000,1000,1000
4732,1643031677,0,0,0,0,0,0,0,0,1000,1000,1000,1000,1000,1000
4775,1643042058,0,0,0,0,0,0,0,0,1000,1000,1000,1000,1000,1000
4818,1643052356,0,0,0,0,0,0,0,0,1000,1000,1000,1000,1000,1000
4860,1643063095,0,0,0,0,0,0,0,0,1000,1000,1000,1000,1000,1000
4903,1643073041,0,0,0,0,0,0,0,0,1000,1000,1000,1000,1000,1000
4946,1643083569,0,0,0,0,0,0,0,0,1000,1000,1000,1000,1000,1000
4989,1643093550,0,0,0,0,0,0,0,0,1000,1000,1000,1000,1000,1000
5032,1643103403,0,0,0,0,0,0,0,0,1000,1000,1000,1000,1000,1000
5075,1643114203,0,0,0,0,0,0,0,0,1000,1000,1000,1000,1000,1000
5122,1643124590,0,0,0,0,0,0,0,0,1000,1000,1000,1000,1000,1000
5165,1643134565,0,0,0,0,0,0,0,0,1000,1000,1000,1000,1000,1000
5208,1643144474,0,0,0,0,0,0,0,0,1000,1000,1000,1000,1000,1000
5248,1643156112,0,0,0,0,0,0,0,0,1000,1000,1000,1000,1000,1000
5292,1643166213,0,0,0,0,0,0,0,0,1000,1000,1000,1000,1000,1000
5337,1643177089,0,0,0,0,0,0,0,0,1000,1000,1000,1000,1000,1000
5381,1643187319,0,0,0,0,0,0,0,0,1000,1000,1000,1000,1000,1000
5426,1643197494,0,0,0,0,0,0,0,0,1000,1000,1000,1000,1000,1000
5470,1643207925,0,0,0,0,0,0,0,0,1000,1000,1000,1000,1000,1000
5515,1643218157,0,0,0,0,0,0,0,0,1000,1000,1000,1000,1000,1000
5564,1643228145,0,0,0,0,0,0,0,0,1000,1000,1000,1000,1000,1000
5609,1643238272,0,0,0,0,0,0,0,0,1000,1000,1000,1000,1000,1000
5653,1643248622,0,0,0,0,0,0,0,0,1000,1000,1000,1000,1000,1000
5698,1643259317,0,0,0,0,0,0,0,0,1000,1000,1000,1000,1000,1000
5743,1643270067,0,0,0,0,0,0,0,0,1000,1000,1000,1000,1000,1000
5787,1643280587,0,0,0,0,0,0,0,0,1000,1000,1000,1000,1000,1000
5835,1643291065,0,0,0,0,0,0,0,0,1000,1000,1000,1000,1000,1000
5880,1643301182,0,0,0,0,0,0,0,0,1000,1000,1000,1000,1000,1000
5925,1643311198,0,0,0,0,0,0,0,0,1003,1003,1003,1003,1003,1003
5969,1643321228,0,0,0,0,0,0,0,0,1006,1006,1006,1006,1006,1006
6019,1643331604,0,0,0,0,0,0,0,0,1009,1009,1009,1009,1009,1009
6063,1643342583,0,0,0,0,0,0,0,0,1012,1012,1012,1012,1012,1012
6106,1643353192,0,0,0,0,0,0,0,0,1015,1015,1015,1015,1015,1015
6150,1643363170,0,0,0,0,0,0,0,0,1018,1018,1018,1018,1018,1018
6195,1643373586,0,0,0,0,0,0,0,0,1021,1021,1021,1021,1021,1021
6242,1643386163,0,0,0,0,0,0,0,0,1025,1025,1025,1025,1025,1025
6287,1643396803,0,0,0,0,0,0,0,0,1028,1028,1028,1028,1028,1028
6331,1643407317,0,0,0,0,0,0,0,0,1031,1031,1031,1031,1031,1031
6376,1643418101,0,0,0,0,0,0,0,0,1034,1034,1034,1034,1034,1034
6423,1643428787,0,0,0,0,0,0,0,0,1037,1037,1037,1037,1037,1037
6470,1643438981,0,0,0,0,0,0,0,0,1040,1040,1040,1040,1040,1040
6514,1643448694,0,0,0,0,0,0,0,0,1043,1043,1043,1043,1043,1043
6558,1643459292,0,0,0,0,0,0,0,0,1046,1046,1046,1046,1046,1046
6606,1643471960,0,0,0,0,0,0,0,0,1050,1050,1050,1050,1050,1050
6650,1643482393,0,0,0,0,0,0,0,0,1053,1053,1053,1053,1053,1053
6695,1643492136,0,0,0,0,0,0,0,0,1056,1056,1056,1056,1056,1056
6740,1643502761,0,0,0,0,0,0,0,0,1059,1059,1059,1059,1059,1059
6785,1643513294,0,0,0,0,0,0,0,0,1062,1062,1062,1062,1062,1062
6830,1643523350,0,0,0,0,0,0,0,0,1065,1065,1065,1065,1065,1065
6878,1643533547,0,0,0,0,0,0,0,0,1068,1068,1068,1068,1068,1068
6925,1643543617,0,0,0,0,0,0,0,0,1071,1071,1071,1071,1071,1071
6968,1643559337,0,0,0,0,0,0,0,0,1075,1075,1075,1075,1075,1075
7010,1643569659,0,0,0,0,0,0,0,0,1078,1078,1078,1078,1078,1078
7058,1643582343,0,0,0,0,0,0,0,0,1082,1082,1082,1082,1082,1082
7101,1643592790,0,0,0,0,0,0,0,0,1085,1085,1085,1085,1085,1085
7143,1643603502,0,0,0,0,0,0,0,0,1088,1088,1088,1088,1088,1088
7187,1643613773,0,0,0,0,0,0,0,0,1091,1091,1091,1091,1091,1091
7230,1643623542,0,0,0,0,0,0,0,0,1094,1094,1094,1094,1094,1094
7276,1643634118,0,0,0,0,0,0,0,0,1097,1097,1097,1097,1097,1097
7319,1643644653,0,0,0,0,0,0,0,0,1100,1100,1100,1100,1100,1100
7362,1643654410,0,0,0,0,0,0,0,0,1100,1100,1100,1100,1100,1100
7407,1643664489,0,0,0,0,0,0,0,0,1100,1100,1100,1100,1100,1100
7449,1643674508,0,0,0,0,0,0,0,0,1100,1100,1100,1100,1100,1100
7489,1643685130,0,0,0,0,0,0,0,0,1100,1100,1100,1100,1100,1100
7531,1643695557,0,0,0,0,0,0,0,0,1100,1100,1100,1100,1100,1100
7575,1643705643,0,0,0,0,0,0,0,0,1100,1100,1100,1100,1100,1100
7618,1643715401,0,0,0,0,0,0,0,0,1100,1100,1100,1100,1100,1100
7661,1643725343,0,0,0,0,0,0,0,0,1100,1100,1100,1100,1100,1100
7713,1643738161,0,0,0,0,0,0,0,0,1100,1100,1100,1100,1100,1100
7759,1643751086,0,0,0,0,0,0,0,0,1100,1100,1100,1100,1100,1100
7801,1643761840,0,0,0,0,0,0,0,0,1100,1100,1100,1100,1100,1100
7847,1643772159,0,0,0,0,0,0,0,0,1100,1100,1100,1100,1100,1100
7894,1643782382,0,0,0,0,0,0,0,0,1100,1100,1100,1100,1100,1100
7939,1643792554,0,0,0,0,0,0,0,0,1100,1100,1100,1100,1100,1100
7983,1643802378,0,0,0,0,0,0,0,0,1100,1100,1100,1100,1100,1100
8028,1643812513,0,0,0,0,0,0,0,0,1100,1100,1100,1100,1100,1100
8072,1643822983,0,0,0,0,0,0,0,0,1100,1100,1100,1100,1100,1100
8117,1643833206,0,0,0,0,0,0,0,0,1100,1100,1100,1100,1100,1100
8167,1643842966,0,0,0,0,0,0,0,0,1100,1100,1100,1100,1100,1100
8211,1643853476,0,0,0,0,0,0,0,0,1100,1100,1100,1100,1100,1100
8257,1643863777,0,0,0,0,0,0,0,0,1100,1100,1100,1100,1100,1100
8301,1643874012,0,0,0,0,0,0,0,0,1100,1100,1100,1100,1100,1100
8347,1643884148,0,0,0,0,0,0,0,0,1100,1100,1100,1100,1100,1100
8391,1643893734,0,0,0,0,0,0,0,0,1100,1100,1100,1100,1100,1100
8436,1643904203,0,0,0,0,0,0,0,0,1100,1100,1100,1100,1100,1100
8481,1643914615,0,0,0,0,0,0,0,0,1100,1100,1100,1100,1100,1100
8526,1643924549,0,0,0,0,0,0,0,0,1100,1100,1100,1100,1100,1100
8571,1643934389,0,0,0,0,0,0,0,0,1100,1100,1100,1100,1100,1100
8619,1643945130,0,0,0,0,0,0,0,0,1100,1100,1100,1100,1100,1100
8663,1643955351,0,0,0,0,0,0,0,0,1100,1100,1100,1100,1100,1100
8704,1643965791,0,0,0,0,0,0,0,0,1100,1100,1100,1100,1100,1100
8749,1643976186,0,0,0,0,0,0,0,0,1100,1100,1100,1100,1100,1100
8795,1643985923,0,0,0,0,0,0,0,0,1100,1100,1100,1100,1100,1100
8836,1643996603,0,0,0,0,0,0,0,0,1100,1100,1100,1100,1100,1100
8882,1644007184,0,0,0,0,0,0,0,0,1100,1100,1100,1100,1100,1100
8926,1644016961,0,0,0,0,0,0,0,0,1100,1100,1100,1100,1100,1100
8970,1644027073,0,0,0,0,0,0,0,0,1100,1100,1100,1100,1100,1100
9016,1644037166,0,0,0,0,0,0,0,0,1100,1100,1100,1100,1100,1100
9064,1644047146,0,0,0,0,0,0,0,0,1100,1100,1100,1100,1100,1100
9110,1644057541,0,0,0,0,0,0,0,0,1100,1100,1100,1100,1100,1100
9154,1644067533,0,0,0,0,0,0,0,0,1100,1100,1100,1100,1100,1100
9199,1644077330,0,0,0,0,0,0,0,0,1100,1100,1100,1100,1100,1100
9243,1644087533,0,0,0,0,0,0,0,0,1100,1100,1100,1100,1100,1100
9288,1644098116,0,0,0,0,0,0,0,0,1100,1100,1100,1100,1100,1100
9333,1644108777,0,0,0,0,0,0,0,0,1100,1100,1100,1100,1100,1100
9377,1644119047,0,0,0,0,0,0,0,0,1100,1100,1100,1100,1100,1100
9422,1644129275,0,0,0,0,0,0,0,0,1100,1100,1100,1100,1100,1100
9467,1644139637,0,0,0,0,0,0,0,0,1100,1100,1100,1100,1100,1100
9516,1644150122,0,0,0,0,0,0,0,0,1100,1100,1100,1100,1100,1100
9560,1644165823,0,0,0,0,0,0,0,0,1100,1100,1100,1100,1100,1100
9603,1644176294,0,0,0,0,0,0,0,0,1100,1100,1100,1100,1100,1100
9646,1644187172,0,0,0,0,0,0,0,0,1100,1100,1100,1100,1100,1100
9688,1644197712,0,0,0,0,0,0,0,0,1100,1100,1100,1100,1100,1100
9733,1644207747,0,0,0,0,0,0,0,0,1100,1100,1100,1100,1100,1100
9775,1644217753,0,0,0,0,0,0,0,0,1100,1100,1100,1100,1100,1100
9818,1644227923,0,0,0,0,0,0,0,0,1100,1100,1100,1100,1100,1100
9861,1644238363,0,0,0,0,0,0,0,0,1100,1100,1100,1100,1100,1100
9906,1644248844,0,0,0,0,0,0,0,0,1100,1100,1100,1100,1100,1100
9950,1644259326,0,0,0,0,0,0,0,0,1100,1100,1100,1100,1100,1100
9993,1644269097,0,0,0,0,0,0,0,0,1100,1100,1100,1100,1100,1100
10038,1644279543,0,0,0,0,0,0,0,0,1100,1100,1100,1100,1100,1100
10080,1644290112,0,0,0,0,0,0,0,0,1100,1100,1100,1100,1100,1100
10123,1644300388,0,0,0,0,0,0,0,0,1100,1100,1100,1100,1100,1100
10166,1644310752,0,0,0,0,0,0,0,0,1100,1100,1100,1100,1100,1100
10210,1644321391,0,0,0,0,0,0,0,0,1100,1100,1100,1100,1100,1100
10253,1644331169,0,0,0,0,0,0,0,0,1100,1100,1100,1100,1100,1100
10297,1644342342,0,0,0,0,0,0,0,0,1100,1100,1100,1100,1100,1100
10343,1644356083,0,0,0,0,0,0,0,0,1100,1100,1100,1100,1100,1100
10387,1644366526,0,0,0,0,0,0,0,0,1100,1100,1100,1100,1100,1100
10432,1644376569,0,0,0,0,0,0,0,0,1100,1100,1100,1100,1100,1100
10478,1644386477,0,0,0,0,0,0,0,0,1100,1100,1100,1100,1100,1100
10522,1644397103,0,0,0,0,0,0,0,0,1100,1100,1100,1100,1100,1100
10567,1644407789,0,0,0,0,0,0,0,0,1100,1100,1100,1100,1100,1100
10611,1644417809,0,0,0,0,0,0,0,0,1100,1100,1100,1100,1100,1100
10656,1644428186,0,0,0,0,0,0,0,0,1100,1100,1100,1100,1100,1100
10701,1644438285,0,0,0,0,0,0,0,0,1100,1100,1100,1100,1100,1100
10746,1644448867,0,0,0,0,0,0,0,0,1100,1100,1100,1100,1100,1100
10795,1644459512,0,0,0,0,0,0,0,0,1100,1100,1100,1100,1100,1100
10840,1644469714,0,0,0,0,0,0,0,0,1100,1100,1100,1100,1100,1100
10885,1644480122,0,0,0,0,0,0,0,0,1100,1100,1100,1100,1100,1100
10929,1644490123,0,0,0,0,0,0,0,0,1100,1100,1100,1100,1100,1100
10974,1644499640,0,0,0,0,0,0,0,0,1100,1100,1100,1100,1100,1100
11019,1644509594,0,0,0,0,0,0,0,0,1100,1100,1100,1100,1100,1100
11063,1644519582,0,0,0,0,0,0,0,0,1100,1100,1100,1100,1100,1100
11109,1644530507,0,0,0,0,0,0,0,0,1100,1100,1100,1100,1100,1100
11154,1644541119,0,0,0,0,0,0,0,0,1100,1100,1100,1100,1100,1100
11201,1644554191,0,0,0,0,0,0,0,0,1100,1100,1100,1100,1100,1100
11246,1644564734,0,0,0,0,0,0,0,0,1100,1100,1100,1100,1100,1100
11291,1644575368,0,0,0,0,0,0,0,0,1100,1100,1100,1100,1100,1100
11337,1644585983,0,0,0,0,0,0,0,0,1100,1100,1100,1100,1100,1100
11381,1644596137,0,0,0,0,0,0,0,0,1100,1100,1100,1100,1100,1100
11429,1644609795,0,0,0,0,0,0,0,0,1100,1100,1100,1100,1100,1100
11475,1644620214,0,0,0,0,0,0,0,0,1100,1100,1100,1100,1100,1100
11520,1644630570,0,0,0,0,0,0,0,0,1100,1100,1100,1100,1100,1100
11565,1644640743,0,0,0,0,0,0,0,0,1100,1100,1100,1100,1100,1100
11610,1644651110,0,0,0,0,0,0,0,0,1100,1100,1100,1100,1100,1100
11655,1644661273,0,0,0,0,0,0,0,0,1100,1100,1100,1100,1100,1100
11704,1644671616,0,0,0,0,0,0,0,0,1100,1100,1100,1100,1100,1100
11749,1644681351,0,0,0,0,0,0,0,0,1100,1100,1100,1100,1100,1100
11794,1644691757,0,0,0,0,0,0,0,0,1100,1100,1100,1100,1100,1100
11838,1644701704,0,0,0,0,0,0,0,0,1100,1100,1100,1100,1100,1100
11880,1644712307,0,0,0,0,0,0,0,0,1100,1100,1100,1100,1100,1100
11925,1644722536,0,0,0,0,0,0,0,0,1100,1100,1100,1100,1100,1100
11971,1644732625,0,0,0,0,0,0,0,0,1100,1100,1100,1100,1100,1100
12015,1644742951,0,0,0,0,0,0,0,0,1100,1100,1100,1100,1100,1100
12061,1644753178,0,0,0,0,0,0,0,0,1100,1100,1100,1100,1100,1100
12102,1644763299,0,0,0,0,0,0,0,0,1100,1100,1100,1100,1100,1100
12149,1644774338,0,0,0,0,0,0,0,0,1100,1100,1100,1100,1100,1100
12191,1644784750,0,0,0,0,0,0,0,0,1100,1100,1100,1100,1100,1100
12235,1644794966,0,0,0,0,0,0,0,0,1100,1100,1100,1100,1100,1100
12278,1644805370,0,0,0,0,0,0,0,0,1100,1100,1100,1100,1100,1100
12320,1644816055,0,0,0,0,0,0,0,0,1100,1100,1100,1100,1100,1100
12363,1644826176,0,0,0,0,0,0,0,0,1100,1100,1100,1100,1100,1100
12409,1644838356,0,0,0,0,0,0,0,0,1100,1100,1100,1100,1100,1100
12451,1644848637,0,0,0,0,0,0,0,0,1100,1100,1100,1100,1100,1100
12496,1644859097,0,0,0,0,0,0,0,0,1100,1100,1100,1100,1100,1100
12538,1644869324,0,0,0,0,0,0,0,0,1100,1100,1100,1100,1100,1100
12585,1644879919,0,0,0,0,0,0,0,0,1100,1100,1100,1100,1100,1100
12627,1644890071,0,0,0,0,0,0,0,0,1100,1100,1100,1100,1100,1100
12669,1644900203,0,0,0,0,0,0,0,0,1100,1100,1100,1100,1100,1100
12713,1644910088,0,0,0,0,0,0,0,0,1100,1100,1100,1100,1100,1100
12758,1644922743,0,0,0,0,0,0,0,0,1100,1100,1100,1100,1100,1100
12801,1644933093,0,0,0,0,0,0,0,0,1100,1100,1100,1100,1100,1100
12849,1644945300,0,0,0,0,0,0,0,0,1100,1100,1100,1100,1100,1100
12891,1644959748,0,0,0,0,0,0,0,0,1100,1100,1100,1100,1100,1100
12935,1644970132,0,0,0,0,0,0,0,0,1100,1100,1100,1100,1100,1100
12984,1644980774,0,0,0,0,0,0,0,0,1100,1100,1100,1100,1100,1100
13029,1644990616,0,0,0,0,0,0,0,0,1100,1100,1100,1100,1100,1100
13074,1645001101,0,0,0,0,0,0,0,0,1100,1100,1100,1100,1100,1100
13119,1645011075,0,0,0,0,0,0,0,0,1100,1100,1100,1100,1100,1100
13163,1645021170,0,0,0,0,0,0,0,0,1100,1100,1100,1100,1100,1100
13207,1645030805,0,0,0,0,0,0,0,0,1100,1100,1100,1100,1100,1100
13251,1645041476,0,0,0,0,0,0,0,0,1100,1100,1100,1100,1100,1100
13296,1645051161,0,0,0,0,0,0,0,0,1100,1100,1100,1100,1100,1100
13341,1645061489,0,0,0,0,0,0,0,0,1100,1100,1100,1100,1100,1100
13385,1645071398,0,0,0,0,0,0,0,0,1100,1100,1100,1100,1100,1100
13434,1645081801,0,0,0,0,0,0,0,0,1100,1100,1100,1100,1100,1100
13478,1645092247,0,0,0,0,0,0,0,0,1100,1100,1100,1100,1100,1100
13523,1645102581,0,0,0,0,0,0,0,0,1100,1100,1100,1100,1100,1100
13580,1645169609,0,0,0,0,0,0,0,0,1100,1100,1100,1100,1100,1100
13625,1645180172,0,0,0,0,0,0,0,0,1100,1100,1100,1100,1100,1100
13673,1645190357,0,0,0,0,0,0,0,0,1100,1100,1100,1100,1100,1100
13721,1645202614,0,0,0,0,0,0,0,0,1100,1100,1100,1100,1100,1100
13766,1645213268,0,0,0,0,0,0,0,0,1100,1100,1100,1100,1100,1100
13813,1645225623,0,0,0,0,0,0,0,0,1100,1100,1100,1100,1100,1100
13858,1645236511,0,0,0,0,0,0,0,0,1100,1100,1100,1100,1100,1100
13904,1645246346,0,0,0,0,0,0,0,0,1100,1100,1100,1100,1100,1100
13949,1645256799,0,0,0,0,0,0,0,0,1100,1100,1100,1100,1100,1100
13996,1645267356,0,0,0,0,0,0,0,0,1100,1100,1100,1100,1100,1100
14040,1645277800,0,0,0,0,0,0,0,0,1100,1100,1100,1100,1100,1100
14089,1645288307,0,0,0,0,0,0,0,0,1100,1100,1100,1100,1100,1100
14134,1645298348,0,0,0,0,0,0,0,0,1100,1100,1100,1100,1100,1100
14179,1645308523,0,0,0,0,0,0,0,0,1100,1100,1100,1100,1100,1100
14224,1645319048,0,0,0,0,0,0,0,0,1100,1100,1100,1100,1100,1100
14268,1645329074,0,0,0,0,0,0,0,0,1100,1100,1100,1100,1100,1100
14313,1645339320,0,0,0,0,0,0,0,0,1100,1100,1100,1100,1100,1100
14357,1645349376,0,0,0,0,0,0,0,0,1100,1100,1100,1100,1100,1100
14404,1645362340,0,0,0,0,0,0,0,0,1100,1100,1100,1100,1100,1100
14444,1645372716,0,0,0,0,0,0,0,0,1100,1100,1100,1100,1100,1100
14486,1645382620,0,0,0,0,0,0,0,0,1100,1100,1100,1100,1100,1100
14535,1645393171,0,0,0,0,0,0,0,0,1100,1100,1100,1100,1100,1100
14579,1645403600,0,0,0,0,0,0,0,0,1100,1100,1100,1100,1100,1100
14622,1645413633,0,0,0,0,0,0,0,0,1100,1100,1100,1100,1100,1100
14664,1645423504,0,0,0,0,0,0,0,0,1100,1100,1100,1100,1100,1100
14705,1645434042,0,0,0,0,0,0,0,0,1100,1100,1100,1100,1100,1100
14747,1645443956,0,0,0,0,0,0,0,0,1100,1100,1100,1100,1100,1100
14789,1645454160,0,0,0,0,0,0,0,0,1100,1100,1100,1100,1100,1100
14832,1645464392,0,0,0,0,0,0,0,0,1100,1100,1100,1100,1100,1100
14874,1645474820,0,0,0,0,0,0,0,0,1100,1100,1100,1100,1100,1100
14917,1645484744,0,0,0,0,0,0,0,0,1100,1100,1100,1100,1100,1100
14965,1645495320,0,0,0,0,0,0,0,0,1100,1100,1100,1100,1100,1100
15008,1645505553,0,0,0,0,0,0,0,0,1100,1100,1100,1100,1100,1100
15051,1645515507,0,0,0,0,0,0,0,0,1100,1100,1100,1100,1100,1100
15093,1645525403,0,0,0,0,0,0,0,0,1100,1100,1100,1100,1100,1100
15136,1645535392,0,0,0,0,0,0,0,0,1100,1100,1100,1100,1100,1100
15178,1645545481,0,0,0,0,0,0,0,0,1100,1100,1100,1100,1100,1100
15221,1645555906,0,0,0,0,0,0,0,0,1100,1100,1100,1100,1100,1100
15265,1645569058,0,0,0,0,0,0,0,0,1100,1100,1100,1100,1100,1100
15310,1645579205,0,0,0,0,0,0,0,0,1100,1100,1100,1100,1100,1100
15355,1645589541,0,0,0,0,0,0,0,0,1100,1100,1100,1100,1100,1100
15403,1645599772,0,0,0,0,0,0,0,0,1100,1100,1100,1100,1100,1100
15449,1645610071,0,0,0,0,0,0,0,0,1100,1100,1100,1100,1100,1100
15493,1645620219,0,0,0,0,0,0,0,0,1100,1100,1100,1100,1100,1100
15539,1645630564,0,0,0,0,0,0,0,0,1100,1100,1100,1100,1100,1100
15586,1645642782,0,0,0,0,0,0,0,0,1100,1100,1100,1100,1100,1100
15631,1645653238,0,0,0,0,0,0,0,0,1100,1100,1100,1100,1100,1100
15676,1645663153,0,0,0,0,0,0,0,0,1100,1100,1100,1100,1100,1100
15720,1645673145,0,0,0,0,0,0,0,0,1100,1100,1100,1100,1100,1100
15765,1645683495,0,0,0,0,0,0,0,0,1100,1100,1100,1100,1100,1100
15815,1645693978,0,0,0,0,0,0,0,0,1100,1100,1100,1100,1100,1100
15859,1645704498,0,0,0,0,0,0,0,0,1100,1100,1100,1100,1100,1100
15904,1645714737,0,0,0,0,0,0,0,0,1100,1100,1100,1100,1100,1100
15949,1645724589,0,0,0,0,0,0,0,0,1100,1100,1100,1100,1100,1100
15995,1645734569,0,0,0,0,0,0,0,0,1100,1100,1100,1100,1100,1100
16041,1645745254,0,0,0,0,0,0,0,0,1100,1100,1100,1100,1100,1100
16080,1645756072,0,0,0,0,0,0,0,0,1100,1100,1100,1100,1100,1100
16127,1645767095,0,0,0,0,0,0,0,0,1100,1100,1100,1100,1100,1100
16172,1645777547,0,0,0,0,0,0,0,0,1100,1100,1100,1100,1100,1100
16217,1645787768,0,0,0,0,0,0,0,0,1100,1100,1100,1100,1100,1100
16267,1645798257,0,0,0,0,0,0,0,0,1100,1100,1100,1100,1100,1100
16312,1645808553,0,0,0,0,0,0,0,0,1100,1100,1100,1100,1100,1100
16356,1645818612,0,0,0,0,0,0,0,0,1100,1100,1100,1100,1100,1100
16403,1645828900,0,0,0,0,0,0,0,0,1100,1100,1100,1100,1100,1100
16453,1645844134,0,0,0,0,0,0,0,0,1100,1100,1100,1100,1100,1100
16497,1645854237,0,0,0,0,0,0,0,0,1100,1100,1100,1100,1100,1100
16542,1645864270,0,0,0,0,0,0,0,0,1100,1100,1100,1100,1100,1100
16587,1645874596,0,0,0,0,0,0,0,0,1100,1100,1100,1100,1100,1100
16631,1645885148,0,0,0,0,0,0,0,0,1100,1100,1100,1100,1100,1100
16677,1645895533,0,0,0,0,0,0,0,0,1100,1100,1100,1100,1100,1100
16725,1645905547,0,0,0,0,0,0,0,0,1100,1100,1100,1100,1100,1100
16770,1645915558,0,0,0,0,0,0,0,0,1100,1100,1100,1100,1100,1100
16814,1645926130,0,0,0,0,0,0,0,0,1100,1100,1100,1100,1100,1100
16860,1645936484,0,0,0,0,0,0,0,0,1100,1100,1100,1100,1100,1100
16906,1645946525,0,0,0,0,0,0,0,0,1100,1100,1100,1100,1100,1100
16949,1645957158,0,0,0,0,0,0,0,0,1100,1100,1100,1100,1100,1100
16989,1645968586,0,0,0,0,0,0,0,0,1100,1100,1100,1100,1100,1100
17032,1645978636,0,0,0,0,0,0,0,0,1100,1100,1100,1100,1100,1100
17075,1645988733,0,0,0,0,0,0,0,0,1100,1100,1100,1100,1100,1100
17117,1645999133,0,0,0,0,0,0,0,0,1100,1100,1100,1100,1100,1100
17164,1646008965,0,0,0,0,0,0,0,0,1100,1100,1100,1100,1100,1100
17206,1646018717,0,0,0,0,0,0,0,0,1100,1100,1100,1100,1100,1100
17248,1646029269,0,0,0,0,0,0,0,0,1100,1100,1100,1100,1100,1100
17293,1646039782,0,0,0,0,0,0,0,0,1100,1100,1100,1100,1100,1100
17335,1646051152,0,0,0,0,0,0,0,0,1100,1100,1100,1100,1100,1100
17382,1646064150,0,0,0,0,0,0,0,0,1100,1100,1100,1100,1100,1100
17424,1646074378,0,0,0,0,0,0,0,0,1100,1100,1100,1100,1100,1100
17467,1646084958,0,0,0,0,0,0,0,0,1100,1100,1100,1100,1100,1100
17510,1646094778,0,0,0,0,0,0,0,0,1100,1100,1100,1100,1100,1100
17552,1646104768,0,0,0,0,0,0,0,0,1100,1100,1100,1100,1100,1100
17600,1646114797,0,0,0,0,0,0,0,0,1100,1100,1100,1100,1100,1100
17642,1646125117,0,0,0,0,0,0,0,0,1100,1100,1100,1100,1100,1100
17685,1646135396,0,0,0,0,0,0,0,0,1100,1100,1100,1100,1100,1100
17729,1646149610,0,0,0,0,0,0,0,0,1100,1100,1100,1100,1100,1100
17775,1646160510,0,0,0,0,0,0,0,0,1100,1100,1100,1100,1100,1100
17820,1646170732,0,0,0,0,0,0,0,0,1100,1100,1100,1100,1100,1100
17864,1646181082,0,0,0,0,0,0,0,0,1100,1100,1100,1100,1100,1100
17908,1646190779,0,0,0,0,0,0,0,0,1100,1100,1100,1100,1100,1100
17953,1646200877,0,0,0,0,0,0,0,0,1100,1100,1100,1100,1100,1100
18001,1646211174,0,0,0,0,0,0,0,0,1100,1100,1100,1100,1100,1100
18050,1646223712,0,0,0,0,0,0,0,0,1100,1100,1100,1100,1100,1100
18095,1646234292,0,0,0,0,0,0,0,0,1100,1100,1100,1100,1100,1100
18142,1646247008,0,0,0,0,0,0,0,0,1100,1100,1100,1100,1100,1100
18192,1646259540,0,0,0,0,0,0,0,0,1100,1100,1100,1100,1100,1100
18241,1646272091,0,0,0,0,0,0,0,0,1100,1100,1100,1100,1100,1100
18286,1646282525,0,0,0,0,0,0,0,0,1100,1100,1100,1100,1100,1100
18330,1646293090,0,0,0,0,0,0,0,0,1100,1100,1100,1100,1100,1100
18375,1646303253,0,0,0,0,0,0,0,0,1100,1100,1100,1100,1100,1100
18424,1646313542,0,0,0,0,0,0,0,0,1100,1100,1100,1100,1100,1100
18469,1646323525,0,0,0,0,0,0,0,0,1100,1100,1100,1100,1100,1100
18517,1646336013,0,0,0,0,0,0,0,0,1100,1100,1100,1100,1100,1100
18563,1646349075,0,0,0,0,0,0,0,0,1100,1100,1100,1100,1100,1100
18606,1646360509,0,0,0,0,0,0,0,0,1100,1100,1100,1100,1100,1100
18650,1646370588,0,0,0,0,0,0,0,0,1100,1100,1100,1100,1100,1100
18696,1646381561,0,0,0,0,0,0,0,0,1100,1100,1100,1100,1100,1100
18741,1646391824,0,0,0,0,0,0,0,0,1100,1100,1100,1100,1100,1100
18785,1646402282,0,0,0,0,0,0,0,0,1100,1100,1100,1100,1100,1100
18830,1646411957,0,0,0,0,0,0,0,0,1100,1100,1100,1100,1100,1100
18878,1646422494,0,0,0,0,0,0,0,0,1100,1100,1100,1100,1100,1100
18923,1646432942,0,0,0,0,0,0,0,0,1100,1100,1100,1100,1100,1100
18968,1646443197,0,0,0,0,0,0,0,0,1100,1100,1100,1100,1100,1100
19013,1646453381,0,0,0,0,0,0,0,0,1100,1100,1100,1100,1100,1100
19061,1646466306,0,0,0,0,0,0,0,0,1100,1100,1100,1100,1100,1100
19106,1646476550,0,0,0,0,0,0,0,0,1100,1100,1100,1100,1100,1100
19151,1646486476,0,0,0,0,0,0,0,0,1100,1100,1100,1100,1100,1100
19196,1646497053,0,0,0,0,0,0,0,0,1100,1100,1100,1100,1100,1100
19241,1646507099,0,0,0,0,0,0,0,0,1100,1100,1100,1100,1100,1100
19285,1646517515,0,0,0,0,0,0,0,0,1100,1100,1100,1100,1100,1100
19334,1646528113,0,0,0,0,0,0,0,0,1100,1100,1100,1100,1100,1100
19379,1646538544,0,0,0,0,0,0,0,0,1100,1100,1100,1100,1100,1100
19423,1646548554,0,0,0,0,0,0,0,0,1100,1100,1100,1100,1100,1100
19471,1646558492,0,0,0,0,0,0,0,0,1100,1100,1100,1100,1100,1100
19508,1646571345,0,0,0,0,0,0,0,0,1100,1100,1100,1100,1100,1100
19551,1646581564,0,0,0,0,0,0,0,0,1100,1100,1100,1100,1100,1100
19594,1646591087,0,0,0,0,0,0,0,0,1100,1100,1100,1100,1100,1100
19637,1646601509,0,0,0,0,0,0,0,0,1100,1100,1100,1100,1100,1100
19680,1646611583,0,0,0,0,0,0,0,0,1100,1100,1100,1100,1100,1100
19723,1646621728,0,0,0,0,0,0,0,0,1100,1100,1100,1100,1100,1100
19770,1646631617,0,0,0,0,0,0,0,0,1100,1100,1100,1100,1100,1100
19813,1646641956,0,0,0,0,0,0,0,0,1100,1100,1100,1100,1100,1100
19855,1646651558,0,0,0,0,0,0,0,0,1100,1100,1100,1100,1100,1100
19899,1646662579,0,0,0,0,0,0,0,0,1100,1100,1100,1100,1100,1100
19945,1646675776,0,0,0,0,0,0,0,0,1100,1100,1100,1100,1100,1100
19987,1646686317,0,0,0,0,0,0,0,0,1100,1100,1100,1100,1100,1100
20031,1646696907,0,0,0,0,0,0,0,0,1100,1100,1100,1100,1100,1100
20074,1646707156,0,0,0,0,0,0,0,0,1100,1100,1100,1100,1100,1100
20118,1646717095,0,0,0,0,0,0,0,0,1100,1100,1100,1100,1100,1100
20165,1646727561,0,0,0,0,0,0,0,0,1100,1100,1100,1100,1100,1100
20208,1646738090,0,0,0,0,0,0,0,0,1100,1100,1100,1100,1100,1100
20250,1646748555,0,0,0,0,0,0,0,0,1100,1100,1100,1100,1100,1100
20298,1646759093,0,0,0,0,0,0,0,0,1100,1100,1100,1100,1100,1100
20340,1646772832,0,0,0,0,0,0,0,0,1100,1100,1100,1100,1100,1100
20384,1646784350,0,0,0,0,0,0,0,0,1100,1100,1100,1100,1100,1100
20429,1646795072,0,0,0,0,0,0,0,0,1100,1100,1100,1100,1100,1100
20473,1646805382,0,0,0,0,0,0,0,0,1100,1100,1100,1100,1100,1100
20519,1646815193,0,0,0,0,0,0,0,0,1100,1100,1100,1100,1100,1100
20564,1646825476,0,0,0,0,0,0,0,0,1100,1100,1100,1100,1100,1100
20614,1646835190,0,0,0,0,0,0,0,0,1100,1100,1100,1100,1100,1100
20659,1646845736,0,0,0,0,0,0,0,0,1100,1100,1100,1100,1100,1100
20704,1646855628,0,0,0,0,0,0,0,0,1100,1100,1100,1100,1100,1100
20749,1646866129,0,0,0,0,0,0,0,0,1100,1100,1100,1100,1100,1100
20798,1646878595,0,0,0,0,0,0,0,0,1100,1100,1100,1100,1100,1100
20843,1646889719,0,0,0,0,0,0,0,0,1100,1100,1100,1100,1100,1100
20888,1646899590,0,0,0,0,0,0,0,0,1100,1100,1100,1100,1100,1100
20934,1646909557,0,0,0,0,0,0,0,0,1100,1100,1100,1100,1100,1100
20979,1646919551,0,0,0,0,0,0,0,0,1100,1100,1100,1100,1100,1100
21023,1646929631,0,0,0,0,0,0,0,0,1100,1100,1100,1100,1100,1100
21072,1646940369,0,0,0,0,0,0,0,0,1100,1100,1100,1100,1100,1100
21119,1646953109,0,0,0,0,0,0,0,0,1100,1100,1100,1100,1100,1100
21160,1646963774,0,0,0,0,0,0,0,0,1100,1100,1100,1100,1100,1100
21209,1646976302,0,0,0,0,0,0,0,0,1100,1100,1100,1100,1100,1100
21254,1646987087,0,0,0,0,0,0,0,0,1100,1100,1100,1100,1100,1100
21299,1646997483,0,0,0,0,0,0,0,0,1100,1100,1100,1100,1100,1100
21343,1647007516,0,0,0,0,0,0,0,0,1100,1100,1100,1100,1100,1100
21388,1647017751,0,0,0,0,0,0,0,0,1100,1100,1100,1100,1100,1100
21433,1647028295,0,0,0,0,0,0,0,0,1100,1100,1100,1100,1100,1100
21482,1647038626,0,0,0,0,0,0,0,0,1100,1100,1100,1100,1100,1100
21527,1647048708,0,0,0,0,0,0,0,0,1100,1100,1100,1100,1100,1100
21572,1647059095,0,0,0,0,0,0,0,0,1100,1100,1100,1100,1100,1100
21618,1647069729,0,0,0,0,0,0,0,0,1100,1100,1100,1100,1100,1100
21662,1647079535,0,0,0,0,0,0,0,0,1100,1100,1100,1100,1100,1100
21708,1647089926,0,0,0,0,0,0,0,0,1100,1100,1100,1100,1100,1100
21752,1647100638,0,0,0,0,0,0,0,0,1100,1100,1100,1100,1100,1100
21798,1647111104,0,0,0,0,0,0,0,0,1100,1100,1100,1100,1100,1100
21842,1647121521,0,0,0,0,0,0,0,0,1100,1100,1100,1100,1100,1100
21887,1647131736,0,0,0,0,0,0,0,0,1100,1100,1100,1100,1100,1100
21936,1647142315,0,0,0,0,0,0,0,0,1100,1100,1100,1100,1100,1100
21982,1647153088,0,0,0,0,0,0,0,0,1100,1100,1100,1100,1100,1100
22022,1647166813,0,0,0,0,0,0,0,0,1100,1100,1100,1100,1100,1100
22068,1647179866,0,0,0,0,0,0,0,0,1100,1100,1100,1100,1100,1100
22111,1647190617,0,0,0,0,0,0,0,0,1100,1100,1100,1100,1100,1100
22153,1647201494,0,0,0,0,0,0,0,0,1100,1100,1100,1100,1100,1100
22196,1647211351,0,0,0,0,0,0,0,0,1100,1100,1100,1100,1100,1100
22240,1647221411,0,0,0,0,0,0,0,0,1100,1100,1100,1100,1100,1100
22283,1647231600,0,0,0,0,0,0,0,0,1100,1100,1100,1100,1100,1100
22326,1647241307,0,0,0,0,0,0,0,0,1100,1100,1100,1100,1100,1100
22374,1647251776,0,0,0,0,0,0,0,0,1100,1100,1100,1100,1100,1100
22417,1647261634,0,0,0,0,0,0,0,0,1100,1100,1100,1100,1100,1100
22459,1647271937,0,0,0,0,0,0,0,0,1100,1100,1100,1100,1100,1100
22503,1647281945,0,0,0,0,0,0,0,0,1100,1100,1100,1100,1100,1100
22549,1647294773,0,0,0,0,0,0,0,0,1100,1100,1100,1100,1100,1100
22591,1647305387,0,0,0,0,0,0,0,0,1100,1100,1100,1100,1100,1100
22634,1647315569,0,0,0,0,0,0,0,0,1100,1100,1100,1100,1100,1100
22676,1647325291,0,0,0,0,0,0,0,0,1100,1100,1100,1100,1100,1100
22720,1647335409,0,0,0,0,0,0,0,0,1100,1100,1100,1100,1100,1100
22763,1647346386,0,0,0,0,0,0,0,0,1100,1100,1100,1100,1100,1100
22809,1647356625,0,0,0,0,0,0,0,0,1100,1100,1100,1100,1100,1100
22854,1647367257,0,0,0,0,0,0,0,0,1100,1100,1100,1100,1100,1100
22899,1647377817,0,0,0,0,0,0,0,0,1100,1100,1100,1100,1100,1100
22947,1647390537,0,0,0,0,0,0,0,0,1100,1100,1100,1100,1100,1100
22991,1647401505,0,0,0,0,0,0,0,0,1100,1100,1100,1100,1100,1100
23036,1647411947,0,0,0,0,0,0,0,0,1100,1100,1100,1100,1100,1100
23082,1647422272,0,0,0,0,0,0,0,0,1100,1100,1100,1100,1100,1100
23127,1647432628,0,0,0,0,0,0,0,0,1100,1100,1100,1100,1100,1100
23172,1647442613,0,0,0,0,0,0,0,0,1100,1100,1100,1100,1100,1100
23220,1647452966,0,0,0,0,0,0,0,0,1100,1100,1100,1100,1100,1100
23265,1647462903,0,0,0,0,0,0,0,0,1100,1100,1100,1100,1100,1100
23310,1647473160,0,0,0,0,0,0,0,0,1100,1100,1100,1100,1100,1100
23355,1647484006,0,0,0,0,0,0,0,0,1100,1100,1100,1100,1100,1100
23403,1647496337,0,0,0,0,0,0,0,0,1100,1100,1100,1100,1100,1100
23444,1647507092,0,0,0,0,0,0,0,0,1100,1100,1100,1100,1100,1100
23489,1647517538,0,0,0,0,0,0,0,0,1100,1100,1100,1100,1100,1100
23533,1647527895,0,0,0,0,0,0,0,0,1100,1100,1100,1100,1100,1100
23580,1647538049,0,0,0,0,0,0,0,0,1103,1103,1103,1103,1103,1103
23627,1647548360,0,0,0,0,0,0,0,0,1106,1106,1106,1106,1106,1106
23669,1647559367,0,0,0,0,0,0,0,0,1109,1109,1109,1109,1109,1109
23714,1647569713,0,0,0,0,0,0,0,0,1112,1112,1112,1112,1112,1112
23758,1647579549,0,0,0,0,0,0,0,0,1115,1115,1115,1115,1115,1115
23803,1647589759,0,0,0,0,0,0,0,0,1118,1118,1118,1118,1118,1118
23848,1647600089,0,0,0,0,0,0,0,0,1121,1121,1121,1121,1121,1121
23893,1647610636,0,0,0,0,0,0,0,0,1124,1124,1124,1124,1124,1124
23937,1647621150,0,0,0,0,0,0,0,0,1127,1127,1127,1127,1127,1127
23983,1647631938,0,0,0,0,0,0,0,0,1130,1130,1130,1130,1130,1130
24029,1647642340,0,0,0,0,0,0,0,0,1133,1133,1133,1133,1133,1133
24073,1647652611,0,0,0,0,0,0,0,0,1136,1136,1136,1136,1136,1136
24122,1647663192,0,0,0,0,0,0,0,0,1139,1139,1139,1139,1139,1139
24166,1647673350,0,0,0,0,0,0,0,0,1142,1142,1142,1142,1142,1142
24212,1647683183,0,0,0,0,0,0,0,0,1145,1145,1145,1145,1145,1145
24257,1647693758,0,0,0,0,0,0,0,0,1148,1148,1148,1148,1148,1148
24301,1647704321,0,0,0,0,0,0,0,0,1150,1248,1233,1169,1185,1220
24349,1647716926,0,0,0,0,0,0,0,0,1191,1214,1164,1237,1150,1248
24394,1647727401,0,0,0,0,0,0,0,0,1248,1150,1175,1228,1224,1180
24440,1647737744,0,0,0,0,0,0,0,0,1150,1200,1191,1159,1165,1187
24489,1647747587,0,0,0,0,0,0,0,0,1150,1248,1207,1199,1154,1245
24535,1647760772,0,0,0,0,0,0,0,0,1152,1246,1201,1205,1150,1248
24579,1647771344,0,0,0,0,0,0,0,0,1150,1248,1207,1198,1154,1245
24621,1647781813,0,0,0,0,0,0,0,0,1150,1210,1192,1171,1158,1203
24665,1647792141,0,0,0,0,0,0,0,0,1248,1150,1188,1217,1234,1168
24708,1647802093,0,0,0,0,0,0,0,0,1248,1150,1162,1239,1211,1194
24750,1647813281,0,0,0,0,0,0,0,0,1150,1248,1209,1196,1155,1244
24794,1647823681,0,0,0,0,0,0,0,0,1150,1248,1209,1197,1154,1245
24836,1647833597,0,0,0,0,0,0,0,0,1248,1150,1160,1240,1210,1195
24879,1647844171,0,0,0,0,0,0,0,0,1248,1150,1189,1216,1235,1167
24921,1647854585,0,0,0,0,0,0,0,0,1185,1212,1167,1227,1150,1241
24967,1647865095,0,0,0,0,0,0,0,0,1178,1226,1178,1226,1150,1248
25014,1647874959,0,0,0,0,0,0,0,0,1176,1228,1180,1224,1150,1248
25057,1647884981,0,0,0,0,0,0,0,0,1223,1150,1169,1206,1205,1171
25100,1647895494,0,0,0,0,0,0,0,0,1225,1179,1150,1248,1174,1229
25142,1647905590,0,0,0,0,0,0,0,0,1182,1222,1174,1230,1150,1248
25185,1647915342,0,0,0,0,0,0,0,0,1151,1247,1203,1203,1150,1248
25227,1647926057,0,0,0,0,0,0,0,0,1216,1163,1204,1177,1226,1150
25271,1647935737,0,0,0,0,0,0,0,0,1248,1150,1160,1240,1209,1197
25314,1647946369,0,0,0,0,0,0,0,0,1163,1163,1176,1150,1173,1152
25357,1647956583,0,0,0,0,0,0,0,0,1158,1242,1198,1208,1150,1248
25402,1647966262,0,0,0,0,0,0,0,0,1152,1247,1248,1150,1204,1202
25445,1647977584,0,0,0,0,0,0,0,0,1200,1167,1150,1214,1164,1202
25489,1647987549,0,0,0,0,0,0,0,0,1248,1150,1201,1205,1246,1152
25534,1647997566,0,0,0,0,0,0,0,0,1170,1233,1187,1218,1150,1248
25578,1648008091,0,0,0,0,0,0,0,0,1150,1248,1235,1168,1187,1219
25624,1648018398,0,0,0,0,0,0,0,0,1150,1248,1221,1185,1169,1234
25669,1648029117,0,0,0,0,0,0,0,0,1227,1175,1225,1178,1247,1150
25713,1648039517,0,0,0,0,0,0,0,0,1243,1150,1194,1207,1236,1160
25758,1648049399,0,0,0,0,0,0,0,0,1150,1248,1220,1185,1169,1234
25803,1648059313,0,0,0,0,0,0,0,0,1150,1248,1219,1187,1167,1235
25848,1648070048,0,0,0,0,0,0,0,0,1176,1232,1252,1150,1226,1183
25897,1648080793,0,0,0,0,0,0,0,0,1266,1150,1181,1243,1237,1189
25942,1648091261,0,0,0,0,0,0,0,0,1154,1164,1168,1150,1161,1158
25987,1648101924,0,0,0,0,0,0,0,0,1150,1293,1237,1222,1156,1289
26032,1648112116,0,0,0,0,0,0,0,0,1150,1306,1284,1182,1208,1264
26077,1648122623,0,0,0,0,0,0,0,0,1207,1167,1206,1167,1221,1150
26121,1648133317,0,0,0,0,0,0,0,0,1331,1150,1228,1275,1308,1185
26166,1648144054,0,0,0,0,0,0,0,0,1259,1151,1150,1260,1205,1215
26209,1648157677,0,0,0,0,0,0,0,0,1289,1150,1155,1285,1228,1225
26254,1648168639,0,0,0,0,0,0,0,0,1168,1354,1263,1283,1150,1365
26300,1648178695,0,0,0,0,0,0,0,0,1150,1376,1288,1272,1158,1371
26349,1648188752,0,0,0,0,0,0,0,0,1230,1178,1154,1248,1179,1229
26393,1648199157,0,0,0,0,0,0,0,0,1397,1150,1222,1354,1340,1240
26438,1648209729,0,0,0,0,0,0,0,0,1179,1255,1212,1227,1164,1266
26483,1648220076,0,0,0,0,0,0,0,0,1150,1417,1319,1293,1166,1409
26527,1648231481,0,0,0,0,0,0,0,0,1150,1325,1309,1175,1224,1271
26574,1648242126,0,0,0,0,0,0,0,0,1258,1223,1260,1221,1271,1208
26618,1648252945,0,0,0,0,0,0,0,0,1432,1150,1230,1387,1365,1260
26663,1648263387,0,0,0,0,0,0,0,0,1211,1301,1214,1299,1150,1342
26707,1648274051,0,0,0,0,0,0,0,0,1150,1465,1375,1295,1207,1436
26754,1648284240,0,0,0,0,0,0,0,0,1303,1233,1262,1277,1292,1246
26802,1648294316,0,0,0,0,0,0,0,0,1386,1150,1218,1345,1330,1238
26848,1648305084,0,0,0,0,0,0,0,0,1267,1300,1251,1315,1228,1333
26893,1648315408,0,0,0,0,0,0,0,0,1261,1319,1271,1310,1236,1339
26937,1648325556,0,0,0,0,0,0,0,0,1160,1398,1332,1260,1207,1372
26982,1648336408,0,0,0,0,0,0,0,0,1299,1310,1301,1308,1293,1316
27026,1648347497,0,0,0,0,0,0,0,0,1414,1172,1257,1360,1370,1244
27073,1648358369,0,0,0,0,0,0,0,0,1303,1333,1242,1382,1218,1399
27113,1648372730,0,0,0,0,0,0,0,0,1337,1316,1247,1393,1254,1388
27155,1648383167,0,0,0,0,0,0,0,0,1230,1416,1326,1340,1215,1425
27198,1648393387,0,0,0,0,0,0,0,0,1359,1319,1404,1263,1417,1244
27245,1648403951,0,0,0,0,0,0,0,0,1328,1363,1393,1292,1372,1317
27288,1648414592,0,0,0,0,0,0,0,0,1368,1335,1156,1485,1176,1476
27331,1648425330,0,0,0,0,0,0,0,0,1378,1338,1244,1449,1265,1435
27377,1648437929,0,0,0,0,0,0,0,0,1331,1398,1329,1400,1286,1434
27420,1648448637,0,0,0,0,0,0,0,0,1227,1481,1507,1175,1401,1341
27462,1648458769,0,0,0,0,0,0,0,0,1467,1267,1376,1379,1463,1273
27505,1648469050,0,0,0,0,0,0,0,0,1500,1254,1150,1550,1320,1457
27548,1648479164,0,0,0,0,0,0,0,0,1219,1514,1414,1364,1250,1498
27590,1648489385,0,0,0,0,0,0,0,0,1181,1542,1510,1244,1349,1438
27637,1648499870,0,0,0,0,0,0,0,0,1422,1380,1445,1354,1460,1335
27681,1648510566,0,0,0,0,0,0,0,0,1521,1260,1323,1479,1450,1360
27724,1648521161,0,0,0,0,0,0,0,0,1496,1314,1255,1532,1363,1459
27770,1648533802,0,0,0,0,0,0,0,0,1484,1348,1313,1509,1385,1454
27818,1648547241,0,0,0,0,0,0,0,0,1431,1424,1373,1477,1370,1479
27856,1648558959,0,0,0,0,0,0,0,0,1351,1504,1451,1414,1366,1493
27900,1648569313,0,0,0,0,0,0,0,0,1309,1542,1490,1381,1369,1500
27944,1648579931,0,0,0,0,0,0,0,0,1467,1420,1429,1459,1448,1441
27988,1648590589,0,0,0,0,0,0,0,0,1537,1345,1401,1494,1492,1404
28032,1648600801,0,0,0,0,0,0,0,0,1525,1374,1393,1511,1466,1443
28082,1648611573,0,0,0,0,0,0,0,0,1436,1483,1442,1478,1413,1504
28126,1648622390,0,0,0,0,0,0,0,0,1441,1490,1452,1479,1423,1506
28172,1648632751,0,0,0,0,0,0,0,0,1473,1470,1445,1496,1444,1498
28217,1648643260,0,0,0,0,0,0,0,0,1493,1459,1402,1542,1418,1530
28261,1648654531,0,0,0,0,0,0,0,0,1464,1499,1420,1538,1396,1557
28306,1648665294,0,0,0,0,0,0,0,0,1419,1548,1436,1535,1354,1595
28350,1648676504,0,0,0,0,0,0,0,0,1423,1555,1462,1521,1383,1585
28395,1648687240,0,0,0,0,0,0,0,0,1481,1514,1474,1521,1450,1542
28441,1648697872,0,0,0,0,0,0,0,0,1526,1479,1476,1529,1493,1512
28487,1648708305,0,0,0,0,0,0,0,0,1505,1512,1495,1521,1484,1531
28535,1648718583,0,0,0,0,0,0,0,0,1509,1518,1538,1487,1527,1500
28581,1648729150,0,0,0,0,0,0,0,0,1536,1501,1528,1509,1537,1499
28632,1648741879,0,0,0,0,0,0,0,0,1553,1495,1491,1557,1513,1537
28674,1648756501,0,0,0,0,0,0,0,0,1544,1518,1526,1537,1532,1531
28718,1648767237,0,0,0,0,0,0,0,0,1571,1499,1537,1535,1565,1505
28764,1648778078,0,0,0,0,0,0,0,0,1582,1496,1499,1580,1537,1545
28810,1648788308,0,0,0,0,0,0,0,0,1564,1527,1504,1585,1519,1571
28854,1648798627,0,0,0,0,0,0,0,0,1540,1559,1546,1553,1532,1567
28900,1648809207,0,0,0,0,0,0,0,0,1559,1546,1538,1566,1540,1564
28952,1648822298,0,0,0,0,0,0,0,0,1578,1531,1540,1570,1558,1551
28997,1648833103,0,0,0,0,0,0,0,0,1576,1533,1536,1574,1552,1558
29042,1648843502,0,0,0,0,0,0,0,0,1565,1545,1541,1569,1545,1566
29086,1648853586,0,0,0,0,0,0,0,0,1561,1547,1571,1537,1571,1537
29131,1648864049,0,0,0,0,0,0,0,0,1579,1526,1547,1559,1565,1541
29175,1648874929,0,0,0,0,0,0,0,0,1568,1535,1537,1566,1544,1559
29220,1648885703,0,0,0,0,0,0,0,0,1573,1525,1525,1574,1537,1563
29265,1648896183,0,0,0,0,0,0,0,0,1577,1518,1541,1555,1555,1542
29310,1648907227,0,0,0,0,0,0,0,0,1593,1496,1539,1553,1570,1521
29357,1648917608,0,0,0,0,0,0,0,0,1563,1524,1515,1571,1516,1571
29405,1648928505,0,0,0,0,0,0,0,0,1552,1528,1541,1540,1530,1550
29451,1648938976,0,0,0,0,0,0,0,0,1582,1487,1552,1521,1570,1501
29496,1648949601,0,0,0,0,0,0,0,0,1580,1482,1536,1529,1553,1512
29538,1648963618,0,0,0,0,0,0,0,0,1596,1454,1534,1524,1568,1487
29580,1648974519,0,0,0,0,0,0,0,0,1589,1457,1518,1536,1546,1507
29622,1648985350,0,0,0,0,0,0,0,0,1564,1482,1527,1522,1524,1525
29665,1648995699,0,0,0,0,0,0,0,0,1538,1504,1548,1494,1518,1526
29707,1649006245,0,0,0,0,0,0,0,0,1559,1477,1565,1470,1555,1482
29751,1649017221,0,0,0,0,0,0,0,0,1558,1476,1538,1499,1523,1514
29794,1649028059,0,0,0,0,0,0,0,0,1549,1484,1540,1495,1514,1522
29841,1649038387,0,0,0,0,0,0,0,0,1584,1443,1539,1494,1545,1488
29884,1649048719,0,0,0,0,0,0,0,0,1590,1434,1532,1501,1541,1491
29926,1649058980,0,0,0,0,0,0,0,0,1583,1440,1517,1515,1516,1516
29969,1649068957,0,0,0,0,0,0,0,0,1574,1450,1537,1493,1521,1510
30013,1649079346,0,0,0,0,0,0,0,0,1586,1435,1557,1470,1549,1479
30056,1649089644,0,0,0,0,0,0,0,0,1607,1405,1549,1477,1560,1464
30098,1649100226,0,0,0,0,0,0,0,0,1554,1470,1568,1454,1520,1507
30141,1649110598,0,0,0,0,0,0,0,0,1557,1468,1536,1491,1481,1545
30184,1649120951,0,0,0,0,0,0,0,0,1547,1479,1573,1448,1505,1522
30226,1649131210,0,0,0,0,0,0,0,0,1536,1491,1576,1444,1493,1534
30273,1649141403,0,0,0,0,0,0,0,0,1585,1433,1556,1469,1519,1508
30317,1649152125,0,0,0,0,0,0,0,0,1562,1461,1563,1460,1496,1530
30364,1649165130,0,0,0,0,0,0,0,0,1600,1413,1574,1445,1543,1482
30403,1649177387,0,0,0,0,0,0,0,0,1602,1410,1544,1481,1509,1517
30447,1649188377,0,0,0,0,0,0,0,0,1624,1379,1554,1470,1539,1487
30493,1649199058,0,0,0,0,0,0,0,0,1618,1387,1560,1462,1534,1492
30538,1649209144,0,0,0,0,0,0,0,0,1561,1462,1566,1456,1469,1555
30582,1649219626,0,0,0,0,0,0,0,0,1574,1446,1553,1471,1464,1559
30627,1649229591,0,0,0,0,0,0,0,0,1628,1371,1561,1461,1532,1494
30673,1649240115,0,0,0,0,0,0,0,0,1629,1370,1573,1447,1541,1484
30722,1649250294,0,0,0,0,0,0,0,0,1605,1406,1566,1456,1500,1526
30768,1649261160,0,0,0,0,0,0,0,0,1614,1394,1566,1456,1507,1520
30813,1649271916,0,0,0,0,0,0,0,0,1653,1330,1562,1460,1545,1479
30858,1649282365,0,0,0,0,0,0,0,0,1609,1399,1591,1424,1522,1504
30902,1649293106,0,0,0,0,0,0,0,0,1637,1358,1573,1447,1531,1495
30947,1649303543,0,0,0,0,0,0,0,0,1654,1330,1567,1454,1541,1484
30991,1649314184,0,0,0,0,0,0,0,0,1572,1449,1591,1424,1468,1556
31036,1649324984,0,0,0,0,0,0,0,0,1608,1401,1562,1460,1474,1550
31080,1649335564,0,0,0,0,0,0,0,0,1665,1310,1543,1482,1519,1508
31125,1649346360,0,0,0,0,0,0,0,0,1588,1428,1590,1426,1474,1551
31176,1649360139,0,0,0,0,0,0,0,0,1633,1364,1570,1451,1498,1528
31219,1649371119,0,0,0,0,0,0,0,0,1598,1418,1608,1403,1494,1534
31264,1649381508,0,0,0,0,0,0,0,0,1629,1376,1580,1443,1493,1538
31312,1649394494,0,0,0,0,0,0,0,0,1618,1394,1567,1461,1456,1571
31356,1649405207,0,0,0,0,0,0,0,0,1662,1327,1582,1445,1521,1513
31401,1649415484,0,0,0,0,0,0,0,0,1656,1340,1569,1462,1492,1542
31445,1649425721,0,0,0,0,0,0,0,0,1619,1400,1584,1447,1453,1579
31490,1649435769,0,0,0,0,0,0,0,0,1576,1458,1606,1421,1416,1609
31535,1649446411,0,0,0,0,0,0,0,0,1633,1381,1605,1420,1481,1556
31584,1649457166,0,0,0,0,0,0,0,0,1668,1322,1581,1451,1490,1547
31629,1649467490,0,0,0,0,0,0,0,0,1691,1281,1569,1467,1498,1542
31673,1649477766,0,0,0,0,0,0,0,0,1619,1404,1585,1449,1410,1614
31718,1649488204,0,0,0,0,0,0,0,0,1577,1459,1642,1370,1426,1603
31762,1649498910,0,0,0,0,0,0,0,0,1612,1415,1636,1380,1455,1581
31807,1649509294,0,0,0,0,0,0,0,0,1678,1308,1557,1482,1439,1593
31853,1649520088,0,0,0,0,0,0,0,0,1669,1325,1577,1460,1443,1590
31897,1649530947,0,0,0,0,0,0,0,0,1639,1377,1616,1410,1446,1589
31942,1649541607,0,0,0,0,0,0,0,0,1640,1373,1614,1412,1441,1592
31985,1649552512,0,0,0,0,0,0,0,0,1659,1340,1587,1445,1428,1601
32031,1649563652,0,0,0,0,0,0,0,0,1662,1336,1575,1461,1411,1613
32075,1649573379,0,0,0,0,0,0,0,0,1658,1342,1589,1443,1422,1605
32120,1649584161,0,0,0,0,0,0,0,0,1616,1408,1603,1426,1374,1639
32165,1649594706,0,0,0,0,0,0,0,0,1608,1419,1598,1433,1349,1654
32209,1649604821,0,0,0,0,0,0,0,0,1653,1350,1603,1424,1419,1607
32255,1649615479,0,0,0,0,0,0,0,0,1634,1379,1610,1414,1393,1625
32299,1649625730,0,0,0,0,0,0,0,0,1660,1337,1586,1445,1391,1625
32344,1649636405,0,0,0,0,0,0,0,0,1644,1362,1618,1401,1405,1615
32390,1649647187,0,0,0,0,0,0,0,0,1641,1367,1605,1418,1374,1636
32434,1649658049,0,0,0,0,0,0,0,0,1658,1338,1598,1427,1385,1628
32483,1649668383,0,0,0,0,0,0,0,0,1656,1342,1627,1388,1418,1606
32527,1649678816,0,0,0,0,0,0,0,0,1675,1309,1594,1435,1395,1623
32572,1649689399,0,0,0,0,0,0,0,0,1679,1301,1637,1374,1456,1577
32616,1649699363,0,0,0,0,0,0,0,0,1684,1292,1617,1404,1431,1597
32661,1649710498,0,0,0,0,0,0,0,0,1661,1335,1615,1407,1392,1626
32706,1649721334,0,0,0,0,0,0,0,0,1630,1386,1651,1354,1397,1623
32755,1649732593,0,0,0,0,0,0,0,0,1660,1341,1622,1400,1397,1624
32800,1649743157,0,0,0,0,0,0,0,0,1670,1325,1636,1382,1431,1601
32845,1649753796,0,0,0,0,0,0,0,0,1710,1244,1614,1413,1461,1577
32891,1649764185,0,0,0,0,0,0,0,0,1673,1321,1619,1408,1415,1614
32932,1649775614,0,0,0,0,0,0,0,0,1671,1325,1600,1434,1387,1634
32974,1649785544,0,0,0,0,0,0,0,0,1609,1422,1633,1388,1342,1662
33017,1649796161,0,0,0,0,0,0,0,0,1646,1369,1626,1399,1391,1632
33060,1649806564,0,0,0,0,0,0,0,0,1694,1286,1601,1436,1430,1605
33102,1649817044,0,0,0,0,0,0,0,0,1675,1323,1586,1456,1383,1639
33146,1649827637,0,0,0,0,0,0,0,0,1622,1409,1615,1419,1345,1663
33188,1649838006,0,0,0,0,0,0,0,0,1607,1429,1629,1398,1350,1660
33231,1649848523,0,0,0,0,0,0,0,0,1699,1276,1614,1420,1470,1574
33275,1649858723,0,0,0,0,0,0,0,0,1717,1238,1586,1456,1466,1578
33317,1649868510,0,0,0,0,0,0,0,0,1662,1348,1606,1432,1417,1617
33365,1649879299,0,0,0,0,0,0,0,0,1611,1428,1646,1377,1405,1627
33407,1649889771,0,0,0,0,0,0,0,0,1614,1424,1661,1355,1440,1603
33451,1649900503,0,0,0,0,0,0,0,0,1732,1208,1605,1437,1533,1520
33494,1649910945,0,0,0,0,0,0,0,0,1724,1230,1598,1447,1523,1532
33537,1649921391,0,0,0,0,0,0,0,0,1632,1404,1609,1435,1418,1622
33579,1649931584,0,0,0,0,0,0,0,0,1584,1468,1660,1363,1435,1610
33622,1649942308,0,0,0,0,0,0,0,0,1646,1386,1633,1405,1488,1568
33663,1649954204,0,0,0,0,0,0,0,0,1676,1337,1609,1439,1507,1551
33707,1649964596,0,0,0,0,0,0,0,0,1716,1260,1601,1450,1558,1501
33753,1649975359,0,0,0,0,0,0,0,0,1673,1345,1569,1489,1477,1579
33802,1649986145,0,0,0,0,0,0,0,0,1586,1468,1638,1400,1462,1591
33847,1649997070,0,0,0,0,0,0,0,0,1604,1445,1633,1406,1487,1569
33891,1650007487,0,0,0,0,0,0,0,0,1642,1390,1592,1457,1495,1561
33937,1650017571,0,0,0,0,0,0,0,0,1653,1369,1613,1428,1540,1514
33981,1650028477,0,0,0,0,0,0,0,0,1652,1368,1553,1498,1480,1569
34026,1650038776,0,0,0,0,0,0,0,0,1618,1416,1580,1466,1476,1571
34072,1650049299,0,0,0,0,0,0,0,0,1628,1400,1616,1418,1536,1513
34116,1650059209,0,0,0,0,0,0,0,0,1640,1377,1583,1456,1521,1524
34161,1650069758,0,0,0,0,0,0,0,0,1633,1385,1573,1464,1509,1533
34205,1650080216,0,0,0,0,0,0,0,0,1651,1353,1551,1488,1513,1527
34254,1650090953,0,0,0,0,0,0,0,0,1602,1423,1594,1434,1507,1530
34300,1650101261,0,0,0,0,0,0,0,0,1584,1442,1601,1420,1501,1533
34345,1650111543,0,0,0,0,0,0,0,0,1607,1411,1530,1502,1450,1577
34390,1650121630,0,0,0,0,0,0,0,0,1599,1420,1553,1476,1471,1558
34434,1650132641,0,0,0,0,0,0,0,0,1587,1434,1586,1435,1497,1532
34475,1650144927,0,0,0,0,0,0,0,0,1614,1397,1510,1520,1448,1576
34520,1650155205,0,0,0,0,0,0,0,0,1629,1375,1505,1525,1464,1563
34564,1650165983,0,0,0,0,0,0,0,0,1613,1398,1549,1479,1494,1535
34609,1650176220,0,0,0,0,0,0,0,0,1567,1458,1581,1442,1477,1551
34653,1650186907,0,0,0,0,0,0,0,0,1616,1394,1547,1481,1498,1531
34703,1650197574,0,0,0,0,0,0,0,0,1649,1341,1531,1498,1522,1507
34747,1650208149,0,0,0,0,0,0,0,0,1629,1375,1545,1483,1513,1517
34792,1650218436,0,0,0,0,0,0,0,0,1643,1353,1553,1475,1540,1489
34838,1650228809,0,0,0,0,0,0,0,0,1630,1374,1560,1467,1532,1498
34884,1650239631,0,0,0,0,0,0,0,0,1551,1477,1581,1441,1465,1562
34928,1650250523,0,0,0,0,0,0,0,0,1568,1458,1578,1446,1481,1549
34972,1650260747,0,0,0,0,0,0,0,0,1612,1399,1525,1505,1475,1552
35017,1650270983,0,0,0,0,0,0,0,0,1671,1305,1508,1522,1531,1498
35062,1650281389,0,0,0,0,0,0,0,0,1628,1377,1555,1473,1527,1504
35107,1650292046,0,0,0,0,0,0,0,0,1590,1429,1541,1488,1468,1559
35155,1650302478,0,0,0,0,0,0,0,0,1569,1456,1561,1466,1466,1561
35200,1650312706,0,0,0,0,0,0,0,0,1615,1398,1557,1472,1516,1516
35245,1650323113,0,0,0,0,0,0,0,0,1657,1335,1509,1525,1516,1518
35290,1650333517,0,0,0,0,0,0,0,0,1592,1435,1551,1484,1481,1553
35335,1650344620,0,0,0,0,0,0,0,0,1564,1471,1567,1467,1467,1568
35378,1650359147,0,0,0,0,0,0,0,0,1567,1469,1544,1496,1444,1588
35421,1650369557,0,0,0,0,0,0,0,0,1570,1467,1546,1494,1450,1584
35463,1650380353,0,0,0,0,0,0,0,0,1594,1440,1547,1495,1480,1561
35507,1650391139,0,0,0,0,0,0,0,0,1653,1357,1539,1505,1542,1502
35550,1650401970,0,0,0,0,0,0,0,0,1666,1335,1529,1516,1548,1496
35598,1650412401,0,0,0,0,0,0,0,0,1566,1476,1581,1458,1488,1555
35641,1650422574,0,0,0,0,0,0,0,0,1585,1454,1570,1472,1498,1547
35684,1650432412,0,0,0,0,0,0,0,0,1644,1373,1533,1513,1526,1521
35727,1650443195,0,0,0,0,0,0,0,0,1674,1322,1502,1544,1531,1515
35770,1650453900,0,0,0,0,0,0,0,0,1625,1400,1558,1486,1530,1516
35812,1650464136,0,0,0,0,0,0,0,0,1575,1464,1554,1489,1469,1572
35855,1650474190,0,0,0,0,0,0,0,0,1659,1346,1532,1513,1544,1500
35897,1650484561,0,0,0,0,0,0,0,0,1663,1340,1563,1479,1579,1460
35941,1650495178,0,0,0,0,0,0,0,0,1628,1395,1564,1477,1541,1503
35984,1650505499,0,0,0,0,0,0,0,0,1594,1442,1565,1477,1503,1541
36030,1650515202,0,0,0,0,0,0,0,0,1604,1429,1563,1479,1512,1533
36072,1650525797,0,0,0,0,0,0,0,0,1626,1398,1553,1491,1527,1519
36115,1650536205,0,0,0,0,0,0,0,0,1622,1405,1552,1492,1521,1524
36159,1650547290,0,0,0,0,0,0,0,0,1606,1426,1544,1500,1493,1551
36205,1650564145,0,0,0,0,0,0,0,0,1638,1384,1531,1517,1516,1531
36247,1650575615,0,0,0,0,0,0,0,0,1615,1417,1535,1513,1493,1553
36292,1650586543,0,0,0,0,0,0,0,0,1632,1396,1548,1501,1525,1525
36336,1650597327,0,0,0,0,0,0,0,0,1611,1426,1555,1494,1509,1542
36382,1650607966,0,0,0,0,0,0,0,0,1643,1383,1538,1515,1528,1525
36432,1650618567,0,0,0,0,0,0,0,0,1629,1407,1562,1491,1533,1522
36476,1650628779,0,0,0,0,0,0,0,0,1585,1467,1568,1487,1489,1566
36522,1650638619,0,0,0,0,0,0,0,0,1626,1416,1550,1509,1517,1543
36566,1650649252,0,0,0,0,0,0,0,0,1649,1387,1540,1523,1531,1531
36614,1650662386,0,0,0,0,0,0,0,0,1654,1384,1537,1530,1532,1534
36659,1650673281,0,0,0,0,0,0,0,0,1638,1410,1553,1514,1530,1538
36703,1650683933,0,0,0,0,0,0,0,0,1582,1485,1548,1522,1455,1606
36748,1650694248,0,0,0,0,0,0,0,0,1582,1488,1559,1514,1467,1599
36794,1650704595,0,0,0,0,0,0,0,0,1642,1412,1546,1529,1524,1550
36838,1650715310,0,0,0,0,0,0,0,0,1666,1377,1525,1551,1531,1546
36889,1650725758,0,0,0,0,0,0,0,0,1639,1420,1553,1524,1526,1552
36935,1650735756,0,0,0,0,0,0,0,0,1578,1498,1581,1495,1484,1590
36980,1650746767,0,0,0,0,0,0,0,0,1670,1376,1538,1541,1546,1533
37023,1650760932,0,0,0,0,0,0,0,0,1638,1424,1533,1547,1502,1576
37068,1650771890,0,0,0,0,0,0,0,0,1619,1451,1574,1504,1522,1558
37112,1650782387,0,0,0,0,0,0,0,0,1606,1468,1555,1526,1482,1594
37157,1650793135,0,0,0,0,0,0,0,0,1586,1492,1548,1533,1450,1620
37203,1650803789,0,0,0,0,0,0,0,0,1614,1458,1557,1524,1494,1585
37249,1650814227,0,0,0,0,0,0,0,0,1655,1402,1554,1527,1539,1543
37293,1650824527,0,0,0,0,0,0,0,0,1580,1497,1592,1485,1492,1585
37341,1650834714,0,0,0,0,0,0,0,0,1635,1427,1536,1543,1493,1582
37385,1650845106,0,0,0,0,0,0,0,0,1686,1347,1543,1535,1562,1515
37429,1650855007,0,0,0,0,0,0,0,0,1679,1356,1549,1527,1560,1515
37473,1650865569,0,0,0,0,0,0,0,0,1637,1418,1560,1513,1521,1552
37520,1650876412,0,0,0,0,0,0,0,0,1595,1469,1569,1500,1480,1586
37565,1650887341,0,0,0,0,0,0,0,0,1624,1429,1564,1502,1510,1557
37609,1650898197,0,0,0,0,0,0,0,0,1667,1361,1541,1523,1536,1529
37654,1650909698,0,0,0,0,0,0,0,0,1688,1319,1529,1532,1550,1510
37699,1650919934,0,0,0,0,0,0,0,0,1692,1307,1518,1540,1543,1515
37744,1650930129,0,0,0,0,0,0,0,0,1632,1402,1555,1499,1507,1547
37794,1650940579,0,0,0,0,0,0,0,0,1646,1377,1541,1511,1509,1543
37838,1650954064,0,0,0,0,0,0,0,0,1646,1376,1559,1490,1527,1524
37881,1650965116,0,0,0,0,0,0,0,0,1642,1380,1560,1486,1521,1527
37926,1650975607,0,0,0,0,0,0,0,0,1596,1443,1539,1508,1440,1598
37970,1650986536,0,0,0,0,0,0,0,0,1612,1420,1549,1497,1472,1571
38015,1650997716,0,0,0,0,0,0,0,0,1595,1443,1563,1481,1465,1577
38060,1651008639,0,0,0,0,0,0,0,0,1638,1383,1546,1500,1496,1549
38104,1651019721,0,0,0,0,0,0,0,0,1607,1426,1578,1463,1494,1551
38150,1651030509,0,0,0,0,0,0,0,0,1686,1304,1504,1545,1510,1538
38198,1651040801,0,0,0,0,0,0,0,0,1642,1383,1546,1505,1496,1554
38246,1651051122,0,0,0,0,0,0,0,0,1605,1436,1570,1480,1475,1574
38291,1651061197,0,0,0,0,0,0,0,0,1677,1329,1500,1553,1488,1564
38335,1651071497,0,0,0,0,0,0,0,0,1678,1330,1542,1513,1531,1525
38384,1651085159,0,0,0,0,0,0,0,0,1710,1271,1539,1519,1565,1491
38428,1651095404,0,0,0,0,0,0,0,0,1687,1320,1508,1552,1504,1556
38474,1651105761,0,0,0,0,0,0,0,0,1545,1517,1614,1435,1446,1605
38518,1651116132,0,0,0,0,0,0,0,0,1621,1427,1525,1538,1433,1617
38563,1651126775,0,0,0,0,0,0,0,0,1653,1383,1545,1520,1494,1569
38609,1651137132,0,0,0,0,0,0,0,0,1635,1412,1565,1499,1492,1571
38657,1651147531,0,0,0,0,0,0,0,0,1630,1420,1539,1528,1455,1604
38704,1651157526,0,0,0,0,0,0,0,0,1583,1481,1605,1455,1474,1589
38741,1651169587,0,0,0,0,0,0,0,0,1589,1477,1577,1491,1444,1616
38784,1651179385,0,0,0,0,0,0,0,0,1649,1399,1551,1521,1489,1580
38826,1651190038,0,0,0,0,0,0,0,0,1634,1421,1574,1497,1494,1576
38869,1651200538,0,0,0,0,0,0,0,0,1651,1398,1537,1537,1474,1594
38911,1651210848,0,0,0,0,0,0,0,0,1646,1406,1569,1504,1502,1571
38956,1651221248,0,0,0,0,0,0,0,0,1660,1383,1565,1507,1515,1558
38998,1651231211,0,0,0,0,0,0,0,0,1672,1362,1555,1516,1520,1551
39041,1651241588,0,0,0,0,0,0,0,0,1631,1423,1571,1497,1488,1579
39087,1651252130,0,0,0,0,0,0,0,0,1593,1472,1570,1499,1437,1620
39130,1651262759,0,0,0,0,0,0,0,0,1619,1439,1546,1524,1441,1617
39174,1651272960,0,0,0,0,0,0,0,0,1652,1390,1555,1515,1495,1573
39217,1651283383,0,0,0,0,0,0,0,0,1660,1376,1559,1509,1511,1557
39259,1651294407,0,0,0,0,0,0,0,0,1630,1423,1563,1505,1475,1589
39301,1651305053,0,0,0,0,0,0,0,0,1593,1471,1592,1471,1464,1598
39344,1651315008,0,0,0,0,0,0,0,0,1642,1409,1549,1522,1473,1592
39386,1651325107,0,0,0,0,0,0,0,0,1613,1452,1567,1506,1457,1609
39429,1651335089,0,0,0,0,0,0,0,0,1616,1453,1573,1505,1465,1607
39470,1651345784,0,0,0,0,0,0,0,0,1644,1421,1549,1535,1470,1607
39516,1651357323,0,0,0,0,0,0,0,0,1613,1468,1596,1488,1485,1599
39562,1651368107,0,0,0,0,0,0,0,0,1631,1449,1566,1526,1470,1614
39606,1651378323,0,0,0,0,0,0,0,0,1680,1384,1560,1538,1522,1575
39651,1651389109,0,0,0,0,0,0,0,0,1673,1400,1608,1489,1563,1538
39699,1651402158,0,0,0,0,0,0,0,0,1641,1453,1604,1499,1520,1586
39744,1651412542,0,0,0,0,0,0,0,0,1639,1461,1589,1520,1499,1608
39788,1651422940,0,0,0,0,0,0,0,0,1619,1489,1600,1511,1485,1622
39833,1651433533,0,0,0,0,0,0,0,0,1659,1440,1600,1514,1535,1582
39878,1651444270,0,0,0,0,0,0,0,0,1696,1386,1590,1527,1566,1552
39922,1651454943,0,0,0,0,0,0,0,0,1621,1490,1631,1478,1524,1592
39972,1651465193,0,0,0,0,0,0,0,0,1643,1465,1574,1545,1485,1627
40016,1651475025,0,0,0,0,0,0,0,0,1667,1432,1582,1536,1524,1593
40062,1651485125,0,0,0,0,0,0,0,0,1651,1452,1599,1516,1524,1592
40106,1651495169,0,0,0,0,0,0,0,0,1640,1463,1595,1517,1508,1603
40154,1651508045,0,0,0,0,0,0,0,0,1642,1457,1599,1510,1516,1593
40199,1651518245,0,0,0,0,0,0,0,0,1623,1478,1606,1499,1504,1601
40243,1651528967,0,0,0,0,0,0,0,0,1687,1383,1588,1514,1564,1541
40288,1651539332,0,0,0,0,0,0,0,0,1691,1370,1560,1541,1541,1559
40334,1651550183,0,0,0,0,0,0,0,0,1660,1416,1563,1535,1508,1587
40376,1651564200,0,0,0,0,0,0,0,0,1700,1347,1557,1538,1554,1541
40425,1651575134,0,0,0,0,0,0,0,0,1643,1431,1587,1501,1520,1570
40469,1651585631,0,0,0,0,0,0,0,0,1645,1426,1579,1508,1515,1572
40515,1651595724,0,0,0,0,0,0,0,0,1649,1416,1570,1514,1513,1571
40560,1651606188,0,0,0,0,0,0,0,0,1675,1372,1546,1536,1523,1559
40604,1651616161,0,0,0,0,0,0,0,0,1633,1429,1551,1527,1478,1595
40649,1651627202,0,0,0,0,0,0,0,0,1624,1438,1571,1503,1493,1580
40694,1651637926,0,0,0,0,0,0,0,0,1619,1444,1550,1525,1464,1604
40739,1651648508,0,0,0,0,0,0,0,0,1632,1424,1541,1532,1473,1594
40783,1651659079,0,0,0,0,0,0,0,0,1631,1424,1555,1516,1489,1580
40829,1651669598,0,0,0,0,0,0,0,0,1647,1401,1563,1508,1519,1553
40878,1651680265,0,0,0,0,0,0,0,0,1649,1399,1575,1494,1534,1538
40922,1651691166,0,0,0,0,0,0,0,0,1633,1421,1573,1496,1514,1556
40968,1651701919,0,0,0,0,0,0,0,0,1638,1413,1542,1529,1488,1579
41014,1651712368,0,0,0,0,0,0,0,0,1640,1413,1549,1524,1499,1572
41058,1651723508,0,0,0,0,0,0,0,0,1610,1454,1556,1518,1469,1598
41103,1651734210,0,0,0,0,0,0,0,0,1645,1408,1536,1539,1491,1580
41149,1651744821,0,0,0,0,0,0,0,0,1601,1466,1576,1495,1482,1587
41194,1651755141,0,0,0,0,0,0,0,0,1652,1398,1544,1531,1511,1564
41240,1651764892,0,0,0,0,0,0,0,0,1635,1426,1554,1523,1500,1576
41285,1651779340,0,0,0,0,0,0,0,0,1639,1419,1563,1513,1516,1560
41331,1651789937,0,0,0,0,0,0,0,0,1632,1428,1553,1523,1497,1576
41375,1651800563,0,0,0,0,0,0,0,0,1618,1447,1558,1517,1487,1585
41420,1651811738,0,0,0,0,0,0,0,0,1609,1458,1554,1521,1474,1596
41468,1651825496,0,0,0,0,0,0,0,0,1598,1469,1561,1511,1470,1597
41513,1651835629,0,0,0,0,0,0,0,0,1628,1427,1547,1523,1493,1575
41558,1651846204,0,0,0,0,0,0,0,0,1676,1351,1536,1533,1542,1526
41602,1651856521,0,0,0,0,0,0,0,0,1632,1417,1539,1528,1493,1572
41647,1651867498,0,0,0,0,0,0,0,0,1597,1461,1532,1533,1445,1610
41691,1651878237,0,0,0,0,0,0,0,0,1581,1477,1551,1511,1448,1605
41741,1651889159,0,0,0,0,0,0,0,0,1588,1467,1552,1508,1459,1594
41785,1651900091,0,0,0,0,0,0,0,0,1641,1394,1524,1535,1496,1561
41830,1651910486,0,0,0,0,0,0,0,0,1653,1370,1518,1537,1508,1546
41875,1651920924,0,0,0,0,0,0,0,0,1619,1415,1533,1518,1486,1563
41921,1651931846,0,0,0,0,0,0,0,0,1604,1432,1551,1495,1488,1558
41966,1651942665,0,0,0,0,0,0,0,0,1617,1413,1529,1517,1482,1562
42013,1651953131,0,0,0,0,0,0,0,0,1610,1422,1532,1514,1478,1565
42052,1651965587,0,0,0,0,0,0,0,0,1579,1459,1536,1508,1447,1589
42094,1651976614,0,0,0,0,0,0,0,0,1619,1406,1533,1509,1493,1548
42137,1651987528,0,0,0,0,0,0,0,0,1651,1355,1497,1543,1497,1543
42183,1651997620,0,0,0,0,0,0,0,0,1622,1399,1530,1510,1496,1543
42225,1652008146,0,0,0,0,0,0,0,0,1596,1432,1530,1509,1466,1568
42268,1652018743,0,0,0,0,0,0,0,0,1560,1474,1544,1492,1443,1586
42310,1652029628,0,0,0,0,0,0,0,0,1574,1454,1541,1492,1459,1570
42354,1652040169,0,0,0,0,0,0,0,0,1642,1358,1504,1528,1504,1528
42393,1652051541,0,0,0,0,0,0,0,0,1669,1309,1499,1531,1535,1495
42433,1652062623,0,0,0,0,0,0,0,0,1645,1349,1516,1513,1524,1504
42475,1652073332,0,0,0,0,0,0,0,0,1590,1427,1507,1521,1452,1570
42517,1652083761,0,0,0,0,0,0,0,0,1569,1452,1521,1506,1443,1576
42562,1652094295,0,0,0,0,0,0,0,0,1578,1439,1506,1520,1442,1576
42609,1652104838,0,0,0,0,0,0,0,0,1651,1336,1459,1564,1488,1538
42652,1652115178,0,0,0,0,0,0,0,0,1583,1436,1541,1485,1491,1536
42695,1652125091,0,0,0,0,0,0,0,0,1577,1446,1531,1497,1476,1551
42737,1652135141,0,0,0,0,0,0,0,0,1633,1370,1502,1529,1513,1517
42777,1652149817,0,0,0,0,0,0,0,0,1603,1414,1505,1526,1486,1544
42819,1652161408,0,0,0,0,0,0,0,0,1539,1493,1552,1479,1464,1565
42860,1652172930,0,0,0,0,0,0,0,0,1542,1491,1523,1510,1438,1587
42905,1652183332,0,0,0,0,0,0,0,0,1575,1455,1478,1555,1430,1595
42950,1652193944,0,0,0,0,0,0,0,0,1565,1469,1493,1544,1436,1592
42998,1652204473,0,0,0,0,0,0,0,0,1572,1462,1538,1500,1496,1543
43047,1652214774,0,0,0,0,0,0,0,0,1565,1474,1513,1529,1460,1577
43091,1652225311,0,0,0,0,0,0,0,0,1590,1447,1499,1545,1477,1565
43136,1652235933,0,0,0,0,0,0,0,0,1575,1467,1563,1481,1528,1518
43180,1652246242,0,0,0,0,0,0,0,0,1608,1429,1514,1536,1515,1535
43226,1652263733,0,0,0,0,0,0,0,0,1564,1486,1540,1512,1493,1558
43271,1652274344,0,0,0,0,0,0,0,0,1608,1434,1502,1551,1504,1549
43316,1652285135,0,0,0,0,0,0,0,0,1627,1407,1521,1531,1546,1506
43361,1652295534,0,0,0,0,0,0,0,0,1640,1385,1483,1565,1526,1525
43405,1652305896,0,0,0,0,0,0,0,0,1578,1468,1523,1528,1494,1555
43454,1652316603,0,0,0,0,0,0,0,0,1621,1411,1498,1550,1520,1529
43499,1652327610,0,0,0,0,0,0,0,0,1636,1386,1510,1536,1548,1497
43543,1652338575,0,0,0,0,0,0,0,0,1560,1482,1541,1503,1497,1547
43593,1652351556,0,0,0,0,0,0,0,0,1541,1502,1545,1498,1481,1561
43631,1652363957,0,0,0,0,0,0,0,0,1588,1447,1502,1540,1488,1553
43673,1652375140,0,0,0,0,0,0,0,0,1648,1363,1489,1554,1545,1498
43715,1652386547,0,0,0,0,0,0,0,0,1635,1385,1481,1561,1522,1523
43759,1652397182,0,0,0,0,0,0,0,0,1559,1484,1527,1517,1481,1561
43804,1652408044,0,0,0,0,0,0,0,0,1548,1498,1544,1502,1488,1557
43851,1652418934,0,0,0,0,0,0,0,0,1613,1421,1477,1569,1492,1555
43899,1652429672,0,0,0,0,0,0,0,0,1627,1405,1530,1521,1558,1491
43944,1652440522,0,0,0,0,0,0,0,0,1578,1470,1566,1483,1543,1509
43988,1652451107,0,0,0,0,0,0,0,0,1592,1453,1523,1530,1514,1539
