LineNo,TimeUS,IMU,VibeX,VibeY,VibeZ,Clip
322,1.6419e+09,0,0.019658,0.021102,0.02975,0
550,1.6419e+09,0,0.019609,0.019001,0.030195,0
1004,1.642e+09,0,0.018614,0.017591,0.031073,0
1118,1.6421e+09,0,0.017938,0.019389,0.030916,0
1225,1.6422e+09,0,0.018932,0.019025,0.028897,0
1336,1.6422e+09,0,0.020892,0.018716,0.031608,0
1515,1.6423e+09,0,0.019691,0.020312,0.028608,0
1697,1.6423e+09,0,0.019233,0.019767,0.027647,0
1741,1.6423e+09,0,0.019843,0.019334,0.028094,0
1786,1.6423e+09,0,0.019325,0.019137,0.028782,0
1830,1.6423e+09,0,0.019393,0.019055,0.029194,0
1875,1.6423e+09,0,0.019597,0.018881,0.028671,0
1922,1.6424e+09,0,0.019983,0.019278,0.028309,0
1965,1.6424e+09,0,0.019586,0.018547,0.031341,0
2007,1.6424e+09,0,0.018895,0.018285,0.030907,0
2055,1.6424e+09,0,0.018273,0.018972,0.030994,0
2098,1.6424e+09,0,0.017504,0.019101,0.031122,0
2140,1.6424e+09,0,0.017951,0.018592,0.030542,0
2186,1.6424e+09,0,0.017706,0.018491,0.030345,0
2230,1.6424e+09,0,0.017571,0.018121,0.030117,0
2272,1.6425e+09,0,0.018096,0.017433,0.02903,0
2316,1.6425e+09,0,0.017328,0.017431,0.027929,0
2358,1.6425e+09,0,0.017033,0.018084,0.027955,0
2401,1.6425e+09,0,0.017404,0.017441,0.026823,0
2444,1.6425e+09,0,0.017731,0.016632,0.02623,0
2490,1.6425e+09,0,0.016936,0.017508,0.025294,0
2534,1.6425e+09,0,0.017304,0.017763,0.025987,0
2576,1.6425e+09,0,0.017245,0.018697,0.027245,0
2619,1.6425e+09,0,0.017146,0.018769,0.026761,0
2664,1.6425e+09,0,0.018053,0.01848,0.02647,0
2712,1.6426e+09,0,0.017699,0.018095,0.027469,0
2757,1.6426e+09,0,0.018103,0.018387,0.027466,0
2802,1.6426e+09,0,0.019019,0.018389,0.026845,0
2847,1.6426e+09,0,0.019879,0.018619,0.027562,0
2896,1.6426e+09,0,0.019802,0.018214,0.027829,0
2940,1.6426e+09,0,0.019005,0.01772,0.028598,0
2987,1.6426e+09,0,0.018344,0.018281,0.027693,0
3031,1.6426e+09,0,0.018505,0.017944,0.026616,0
3076,1.6426e+09,0,0.018975,0.018023,0.029378,0
3120,1.6427e+09,0,0.018862,0.018331,0.029769,0
3165,1.6427e+09,0,0.01905,0.017946,0.029714,0
3210,1.6427e+09,0,0.018963,0.01792,0.029274,0
3254,1.6427e+09,0,0.01969,0.01743,0.028992,0
3301,1.6427e+09,0,0.019436,0.016925,0.02812,0
3351,1.6427e+09,0,0.019072,0.017011,0.02885,0
3397,1.6427e+09,0,0.018562,0.017821,0.027207,0
3441,1.6427e+09,0,0.018077,0.018187,0.025904,0
3486,1.6427e+09,0,0.018852,0.018745,0.02659,0
3531,1.6427e+09,0,0.01894,0.01821,0.027354,0
3578,1.6428e+09,0,0.019348,0.018175,0.027104,0
3620,1.6428e+09,0,0.018702,0.020726,0.02604,0
3664,1.6428e+09,0,0.018196,0.02049,0.026565,0
3710,1.6428e+09,0,0.017819,0.020402,0.028301,0
3755,1.6428e+09,0,0.018804,0.02027,0.027265,0
3803,1.6428e+09,0,0.01826,0.020789,0.026367,0
3848,1.6428e+09,0,0.018665,0.019782,0.025488,0
3892,1.6428e+09,0,0.018253,0.019789,0.027792,0
3937,1.6428e+09,0,0.017933,0.020518,0.028125,0
3982,1.6429e+09,0,0.018116,0.020227,0.027112,0
4026,1.6429e+09,0,0.01823,0.020208,0.027154,0
4071,1.6429e+09,0,0.019534,0.019807,0.02718,0
4115,1.6429e+09,0,0.019203,0.019499,0.026897,0
4160,1.6429e+09,0,0.021091,0.019472,0.02603,0
4205,1.6429e+09,0,0.020444,0.019699,0.026097,0
4254,1.6429e+09,0,0.019838,0.019539,0.028374,0
4299,1.6429e+09,0,0.019971,0.019038,0.028446,0
4343,1.6429e+09,0,0.019754,0.018114,0.027514,0
4386,1.6429e+09,0,0.020235,0.017913,0.027136,0
4428,1.643e+09,0,0.019557,0.017822,0.026084,0
4471,1.643e+09,0,0.019346,0.017825,0.026811,0
4515,1.643e+09,0,0.018714,0.018656,0.027051,0
4557,1.643e+09,0,0.018055,0.019415,0.028086,0
4600,1.643e+09,0,0.018374,0.019805,0.028826,0
4642,1.643e+09,0,0.018086,0.020073,0.027891,0
4691,1.643e+09,0,0.017741,0.019716,0.028715,0
4734,1.643e+09,0,0.017514,0.019883,0.030537,0
4777,1.643e+09,0,0.017891,0.019911,0.030012,0
4820,1.6431e+09,0,0.018459,0.019922,0.029499,0
4862,1.6431e+09,0,0.019632,0.019237,0.027953,0
4905,1.6431e+09,0,0.019651,0.018507,0.028375,0
4948,1.6431e+09,0,0.019271,0.018644,0.027888,0
4991,1.6431e+09,0,0.019285,0.018481,0.027506,0
5034,1.6431e+09,0,0.018418,0.019872,0.027307,0
5077,1.6431e+09,0,0.018523,0.019204,0.026797,0
5124,1.6431e+09,0,0.017941,0.018417,0.027899,0
5167,1.6431e+09,0,0.018983,0.018339,0.028867,0
5210,1.6431e+09,0,0.018274,0.018322,0.031365,0
5250,1.6432e+09,0,0.017916,0.018184,0.029917,0
5294,1.6432e+09,0,0.017979,0.018286,0.029601,0
5339,1.6432e+09,0,0.018301,0.018484,0.028867,0
5383,1.6432e+09,0,0.018348,0.018084,0.029507,0
5428,1.6432e+09,0,0.019158,0.019544,0.028717,0
5472,1.6432e+09,0,0.019183,0.019713,0.031789,0
5517,1.6432e+09,0,0.019824,0.021113,0.031237,0
5566,1.6432e+09,0,0.019396,0.020903,0.030132,0
5611,1.6432e+09,0,0.019146,0.020464,0.029733,0
5655,1.6432e+09,0,0.018884,0.020106,0.029394,0
5700,1.6433e+09,0,0.018726,0.019203,0.028677,0
5745,1.6433e+09,0,0.018564,0.020258,0.029323,0
5789,1.6433e+09,0,0.017696,0.019589,0.029277,0
5837,1.6433e+09,0,0.018137,0.019633,0.028758,0
5882,1.6433e+09,0,0.019098,0.019617,0.028709,0
5927,1.6433e+09,0,0.018802,0.021449,0.02863,0
5971,1.6433e+09,0,0.023945,0.032269,0.031627,0
6021,1.6433e+09,0,0.026103,0.038663,0.032882,0
6065,1.6433e+09,0,0.038252,0.062468,0.047383,0
6108,1.6434e+09,0,0.066161,0.11723,0.072438,0
6152,1.6434e+09,0,0.087308,0.17988,0.10643,0
6197,1.6434e+09,0,0.11548,0.20242,0.11218,0
6244,1.6434e+09,0,0.16262,0.23242,0.12887,0
6289,1.6434e+09,0,0.17711,0.28869,0.13725,0
6333,1.6434e+09,0,0.17041,0.3489,0.14761,0
6378,1.6434e+09,0,0.16378,0.37567,0.17865,0
6425,1.6434e+09,0,0.15691,0.4071,0.2641,0
6472,1.6434e+09,0,0.16035,0.43073,0.31351,0
6516,1.6434e+09,0,0.16367,0.42651,0.30694,0
6560,1.6435e+09,0,0.19844,0.40522,0.28896,0
6608,1.6435e+09,0,0.20445,0.4001,0.27241,0
6652,1.6435e+09,0,0.20116,0.40147,0.26301,0
6697,1.6435e+09,0,0.23144,0.39244,0.25462,0
6742,1.6435e+09,0,0.25276,0.37943,0.25078,0
6787,1.6435e+09,0,0.24794,0.36844,0.24769,0
6832,1.6435e+09,0,0.24433,0.3499,0.24259,0
6880,1.6435e+09,0,0.24171,0.33209,0.24393,0
6927,1.6435e+09,0,0.22796,0.31228,0.24277,0
6970,1.6436e+09,0,0.2277,0.29916,0.23385,0
7012,1.6436e+09,0,0.2292,0.30133,0.22749,0
7060,1.6436e+09,0,0.24218,0.28833,0.23946,0
7103,1.6436e+09,0,0.23968,0.27925,0.2316,0
7145,1.6436e+09,0,0.23743,0.26618,0.25199,0
7189,1.6436e+09,0,0.22907,0.25622,0.286,0
7232,1.6436e+09,0,0.22052,0.24582,0.2758,0
7278,1.6436e+09,0,0.20738,0.27643,0.27763,0
7321,1.6436e+09,0,0.2054,0.32891,0.31752,0
7364,1.6437e+09,0,0.20776,0.33042,0.30288,0
7409,1.6437e+09,0,0.22414,0.35349,0.30743,0
7451,1.6437e+09,0,0.24517,0.38705,0.30488,0
7491,1.6437e+09,0,0.25837,0.39863,0.2872,0
7533,1.6437e+09,0,0.2574,0.41357,0.30693,0
7577,1.6437e+09,0,0.2736,0.41852,0.30378,0
7620,1.6437e+09,0,0.28208,0.43257,0.34524,0
7663,1.6437e+09,0,0.33715,0.50033,0.3401,0
7715,1.6437e+09,0,0.40008,0.50235,0.40846,0
7761,1.6438e+09,0,0.41168,0.52478,0.47622,0
7803,1.6438e+09,0,0.42119,0.6302,0.46746,0
7849,1.6438e+09,0,0.45609,0.63308,0.51918,0
7896,1.6438e+09,0,0.50824,0.63915,0.52134,0
7941,1.6438e+09,0,0.5322,0.67408,0.60178,0
7985,1.6438e+09,0,0.55198,0.7412,0.573,0
8030,1.6438e+09,0,0.59825,0.75551,0.6112,0
8074,1.6438e+09,0,0.65982,0.7677,0.60375,0
8119,1.6438e+09,0,0.69284,0.77458,0.70018,0
8169,1.6438e+09,0,0.67903,0.77797,0.73184,0
8213,1.6439e+09,0,0.65688,0.75271,0.79985,0
8259,1.6439e+09,0,0.62431,0.71113,0.82582,0
8303,1.6439e+09,0,0.62191,0.71839,0.8779,0
8349,1.6439e+09,0,0.63019,0.76853,0.93842,0
8393,1.6439e+09,0,0.61422,0.74551,0.97435,0
8438,1.6439e+09,0,0.62417,0.72449,0.96414,0
8483,1.6439e+09,0,0.60753,0.72332,0.9549,0
8528,1.6439e+09,0,0.6093,0.7339,0.99257,0
8573,1.6439e+09,0,0.58398,0.69946,0.98837,0
8621,1.6439e+09,0,0.60186,0.68879,0.99338,0
8665,1.644e+09,0,0.57784,0.67131,0.96738,0
8706,1.644e+09,0,0.55962,0.64233,0.9518,0
8751,1.644e+09,0,0.54359,0.61795,0.9322,0
8797,1.644e+09,0,0.5643,0.60111,0.94404,0
8838,1.644e+09,0,0.5885,0.61077,0.92671,0
8884,1.644e+09,0,0.59986,0.57795,0.89473,0
8928,1.644e+09,0,0.63516,0.57332,0.86139,0
8972,1.644e+09,0,0.63754,0.54757,0.8585,0
9018,1.644e+09,0,0.65006,0.59864,0.85789,0
9066,1.644e+09,0,0.6281,0.61594,0.85132,0
9112,1.6441e+09,0,0.66899,0.64543,0.82854,0
9156,1.6441e+09,0,0.69606,0.65104,0.8083,0
9201,1.6441e+09,0,0.75266,0.72631,0.77163,0
9245,1.6441e+09,0,0.77672,0.7417,0.7909,0
9290,1.6441e+09,0,0.86302,0.775,0.76097,0
9335,1.6441e+09,0,0.94248,0.76231,0.72422,0
9379,1.6441e+09,0,1.0101,0.73076,0.71278,0
9424,1.6441e+09,0,1.0941,0.71569,0.68633,0
9469,1.6441e+09,0,1.1144,0.69928,0.6818,0
9518,1.6442e+09,0,1.1918,0.70738,0.67668,0
9562,1.6442e+09,0,1.2774,0.73916,0.71133,0
9605,1.6442e+09,0,1.2703,0.773,0.71233,0
9648,1.6442e+09,0,1.3155,0.79961,0.73963,0
9690,1.6442e+09,0,1.3447,0.83043,0.77467,0
9735,1.6442e+09,0,1.3639,0.85756,0.7789,0
9777,1.6442e+09,0,1.4031,0.86952,0.87873,0
9820,1.6442e+09,0,1.3749,0.90323,0.84713,0
9863,1.6442e+09,0,1.3305,0.97561,0.96977,0
9908,1.6442e+09,0,1.2925,1.0435,0.96884,0
9952,1.6443e+09,0,1.2717,1.0719,1.0283,0
9995,1.6443e+09,0,1.23,1.124,1.0162,0
10040,1.6443e+09,0,1.2249,1.1846,1.0493,0
10082,1.6443e+09,0,1.2007,1.2059,1.0178,0
10125,1.6443e+09,0,1.2576,1.2363,1.0512,0
10168,1.6443e+09,0,1.3389,1.2695,1.0599,0
10212,1.6443e+09,0,1.4306,1.3405,1.0858,0
10255,1.6443e+09,0,1.5494,1.4164,1.1647,0
10299,1.6443e+09,0,1.6033,1.4717,1.1518,0
10345,1.6444e+09,0,1.6915,1.5978,1.2597,0
10389,1.6444e+09,0,1.6851,1.6208,1.2468,0
10434,1.6444e+09,0,1.7181,1.6811,1.2946,0
10480,1.6444e+09,0,1.709,1.7455,1.3309,0
10524,1.6444e+09,0,1.6882,1.8376,1.3643,0
10569,1.6444e+09,0,1.6631,1.899,1.4115,0
10613,1.6444e+09,0,1.6431,1.9308,1.4033,0
10658,1.6444e+09,0,1.6144,1.983,1.4404,0
10703,1.6444e+09,0,1.5799,2.0306,1.4232,0
10748,1.6444e+09,0,1.564,2.0901,1.4324,0
10797,1.6445e+09,0,1.5663,2.1197,1.4543,0
10842,1.6445e+09,0,1.5747,2.1873,1.4559,0
10887,1.6445e+09,0,1.5966,2.1856,1.4738,0
10931,1.6445e+09,0,1.5906,2.2086,1.4603,0
10976,1.6445e+09,0,1.5831,2.2101,1.4852,0
11021,1.6445e+09,0,1.5823,2.237,1.4604,0
11065,1.6445e+09,0,1.6056,2.2584,1.5016,0
11111,1.6445e+09,0,1.5745,2.2433,1.4422,0
11156,1.6445e+09,0,1.5936,2.2278,1.4899,0
11203,1.6446e+09,0,1.575,2.2422,1.4474,0
11248,1.6446e+09,0,1.6332,2.2315,1.4372,0
11293,1.6446e+09,0,1.645,2.2215,1.4644,0
11339,1.6446e+09,0,1.6284,2.2499,1.4189,0
11383,1.6446e+09,0,1.6711,2.2435,1.478,0
11431,1.6446e+09,0,1.6356,2.1698,1.412,0
11477,1.6446e+09,0,1.6151,2.1262,1.39,0
11522,1.6446e+09,0,1.5488,2.0815,1.3591,0
11567,1.6446e+09,0,1.4982,2.0512,1.3266,0
11612,1.6447e+09,0,1.4362,1.982,1.2865,0
11657,1.6447e+09,0,1.383,1.9448,1.2247,0
11706,1.6447e+09,0,1.3821,1.9082,1.2513,0
11751,1.6447e+09,0,1.3299,1.8377,1.1948,0
11796,1.6447e+09,0,1.3081,1.7494,1.1558,0
11840,1.6447e+09,0,1.2736,1.7162,1.1296,0
11882,1.6447e+09,0,1.3032,1.6741,1.1033,0
11927,1.6447e+09,0,1.2664,1.5933,1.0548,0
11973,1.6447e+09,0,1.2474,1.5648,1.0604,0
12017,1.6447e+09,0,1.1817,1.5274,1.0563,0
12063,1.6448e+09,0,1.1851,1.5271,1.0436,0
12104,1.6448e+09,0,1.1409,1.4667,1.0345,0
12151,1.6448e+09,0,1.1293,1.4284,1.0021,0
12193,1.6448e+09,0,1.141,1.3736,1.0233,0
12237,1.6448e+09,0,1.107,1.3044,0.98623,0
12280,1.6448e+09,0,1.1314,1.251,1.0174,0
12322,1.6448e+09,0,1.1557,1.2018,1.0075,0
12365,1.6448e+09,0,1.2909,1.1571,1.0117,0
12411,1.6448e+09,0,1.3838,1.084,0.97485,0
12453,1.6448e+09,0,1.4808,1.0362,0.94836,0
12498,1.6449e+09,0,1.6008,0.99324,0.98019,0
12540,1.6449e+09,0,1.6724,0.93374,0.93122,0
12587,1.6449e+09,0,1.8437,0.88299,0.91169,0
12629,1.6449e+09,0,1.896,0.88349,0.87602,0
12671,1.6449e+09,0,2.0516,0.86627,0.84746,0
12715,1.6449e+09,0,2.1219,0.87253,0.80956,0
12760,1.6449e+09,0,2.3017,0.88758,0.81641,0
12803,1.6449e+09,0,2.3533,0.89654,0.79334,0
12851,1.6449e+09,0,2.4054,0.89013,0.74112,0
12893,1.645e+09,0,2.455,0.9108,0.70333,0
12937,1.645e+09,0,2.4867,0.91475,0.69175,0
12986,1.645e+09,0,2.4823,0.94013,0.66323,0
13031,1.645e+09,0,2.5011,0.93165,0.67463,0
13076,1.645e+09,0,2.4656,0.96559,0.70025,0
13121,1.645e+09,0,2.4628,0.94956,0.69649,0
13165,1.645e+09,0,2.4068,0.92881,0.66857,0
13209,1.645e+09,0,2.3889,0.93399,0.70463,0
13253,1.645e+09,0,2.2944,0.9519,0.71138,0
13298,1.6451e+09,0,2.2526,0.93668,0.73906,0
13343,1.6451e+09,0,2.1702,0.94529,0.7114,0
13387,1.6451e+09,0,2.1091,0.97365,0.73893,0
13436,1.6451e+09,0,2.0475,0.96887,0.71831,0
13480,1.6451e+09,0,1.9666,1.0013,0.74167,0
13525,1.6451e+09,0,1.8986,1.051,0.72829,0
13582,1.6452e+09,0,1.6237,1.3331,0.71071,0
13627,1.6452e+09,0,1.6033,1.4135,0.73154,0
13675,1.6452e+09,0,1.5698,1.4731,0.81574,0
13723,1.6452e+09,0,1.5495,1.4714,0.79047,0
13768,1.6452e+09,0,1.5142,1.5148,0.88031,0
13815,1.6452e+09,0,1.509,1.5121,0.85851,0
13860,1.6452e+09,0,1.4841,1.4896,0.83626,0
13906,1.6452e+09,0,1.4444,1.4957,0.90451,0
13951,1.6453e+09,0,1.417,1.4746,0.90683,0
13998,1.6453e+09,0,1.3853,1.4825,0.90071,0
14042,1.6453e+09,0,1.3242,1.4691,0.86321,0
14091,1.6453e+09,0,1.3021,1.4359,0.9369,0
14136,1.6453e+09,0,1.271,1.4373,0.91266,0
14181,1.6453e+09,0,1.2233,1.4483,0.94084,0
14226,1.6453e+09,0,1.1584,1.4833,0.97247,0
14270,1.6453e+09,0,1.1237,1.4622,1.0443,0
14315,1.6453e+09,0,1.0637,1.5229,1.0756,0
14359,1.6453e+09,0,1.0061,1.5208,1.0677,0
14406,1.6454e+09,0,0.95825,1.4909,1.138,0
14446,1.6454e+09,0,0.92053,1.4517,1.1194,0
14488,1.6454e+09,0,0.86857,1.4373,1.1675,0
14537,1.6454e+09,0,0.83197,1.4195,1.1369,0
14581,1.6454e+09,0,0.81879,1.3597,1.1859,0
14624,1.6454e+09,0,0.77539,1.3414,1.1728,0
14666,1.6454e+09,0,0.74458,1.3078,1.1354,0
14707,1.6454e+09,0,0.72471,1.2431,1.1388,0
14749,1.6454e+09,0,0.7209,1.1781,1.1174,0
14791,1.6455e+09,0,0.70289,1.1653,1.0951,0
14834,1.6455e+09,0,0.70183,1.1106,1.0572,0
14876,1.6455e+09,0,0.76052,1.0466,1.0915,0
14919,1.6455e+09,0,0.79738,1.0163,1.0929,0
14967,1.6455e+09,0,0.77657,0.98761,1.1271,0
15010,1.6455e+09,0,0.7742,0.96184,1.076,0
15053,1.6455e+09,0,0.82473,0.92484,1.1823,0
15095,1.6455e+09,0,0.80015,0.89957,1.1356,0
15138,1.6455e+09,0,0.76975,0.87972,1.1396,0
15180,1.6455e+09,0,0.76817,0.85693,1.1161,0
15223,1.6456e+09,0,0.75204,0.83507,1.1225,0
15267,1.6456e+09,0,0.72447,0.828,1.1086,0
15312,1.6456e+09,0,0.72348,0.81397,1.0663,0
15357,1.6456e+09,0,0.80648,0.79571,1.1147,0
15405,1.6456e+09,0,0.84917,0.80287,1.0635,0
15451,1.6456e+09,0,0.90358,0.79802,1.0489,0
15495,1.6456e+09,0,1.0492,0.78778,1.0257,0
15541,1.6456e+09,0,1.2494,0.81918,1.0495,0
15588,1.6456e+09,0,1.4113,0.82024,0.9953,0
15633,1.6457e+09,0,1.5626,0.82606,0.97404,0
15678,1.6457e+09,0,1.7043,0.87914,0.99023,0
15722,1.6457e+09,0,1.7906,0.932,1.0128,0
15767,1.6457e+09,0,1.7854,1.0274,0.97786,0
15817,1.6457e+09,0,1.7852,1.0218,0.93613,0
15861,1.6457e+09,0,1.7715,1.06,0.95295,0
15906,1.6457e+09,0,1.714,1.0404,0.90671,0
15951,1.6457e+09,0,1.6758,1.0591,0.88185,0
15997,1.6457e+09,0,1.6332,1.0655,0.86917,0
16043,1.6457e+09,0,1.5847,1.0818,0.8682,0
16082,1.6458e+09,0,1.5137,1.0954,0.83307,0
16129,1.6458e+09,0,1.4515,1.0654,0.81317,0
16174,1.6458e+09,0,1.4262,1.084,0.79835,0
16219,1.6458e+09,0,1.3371,1.136,0.84352,0
16269,1.6458e+09,0,1.2734,1.1909,0.83259,0
16314,1.6458e+09,0,1.2222,1.2381,0.84414,0
16358,1.6458e+09,0,1.192,1.2746,0.83595,0
16405,1.6458e+09,0,1.1721,1.2554,0.85118,0
16455,1.6458e+09,0,1.1254,1.3171,0.88892,0
16499,1.6459e+09,0,1.1039,1.364,0.91207,0
16544,1.6459e+09,0,1.0587,1.3519,0.92543,0
16589,1.6459e+09,0,1.0179,1.3676,0.91929,0
16633,1.6459e+09,0,1.0071,1.367,0.93926,0
16679,1.6459e+09,0,1.0283,1.3762,0.98952,0
16727,1.6459e+09,0,1.055,1.3497,1.0061,0
16772,1.6459e+09,0,1.0838,1.3399,1.0336,0
16816,1.6459e+09,0,1.0607,1.3231,1.012,0
16862,1.6459e+09,0,1.0748,1.3316,1.0739,0
16908,1.6459e+09,0,1.0792,1.3705,1.0368,0
16951,1.646e+09,0,1.0889,1.464,1.1284,0
16991,1.646e+09,0,1.1132,1.5561,1.1286,0
17034,1.646e+09,0,1.1292,1.5801,1.1587,0
17077,1.646e+09,0,1.159,1.6762,1.1791,0
17119,1.646e+09,0,1.1489,1.7641,1.1959,0
17166,1.646e+09,0,1.2225,1.8159,1.2412,0
17208,1.646e+09,0,1.3181,1.8239,1.2164,0
17250,1.646e+09,0,1.4457,1.8298,1.3118,0
17295,1.646e+09,0,1.498,1.8091,1.2698,0
17337,1.6461e+09,0,1.6225,1.8055,1.314,0
17384,1.6461e+09,0,1.7284,1.8458,1.3223,0
17426,1.6461e+09,0,1.7718,1.8799,1.3845,0
17469,1.6461e+09,0,1.8584,1.9114,1.4337,0
17512,1.6461e+09,0,1.8961,1.9215,1.3934,0
17554,1.6461e+09,0,1.9468,1.9148,1.4873,0
17602,1.6461e+09,0,1.9374,1.8782,1.4345,0
17644,1.6461e+09,0,1.9491,1.861,1.4762,0
17687,1.6461e+09,0,1.9161,1.8597,1.4382,0
17731,1.6461e+09,0,1.8617,1.8743,1.4274,0
17777,1.6462e+09,0,1.8644,1.8906,1.43,0
17822,1.6462e+09,0,1.8626,1.8942,1.3709,0
17866,1.6462e+09,0,1.8415,1.8868,1.4409,0
17910,1.6462e+09,0,1.8446,1.8656,1.388,0
17955,1.6462e+09,0,1.8105,1.832,1.3989,0
18003,1.6462e+09,0,1.7965,1.8153,1.396,0
18052,1.6462e+09,0,1.7826,1.7693,1.4098,0
18097,1.6462e+09,0,1.8413,1.7196,1.4511,0
18144,1.6462e+09,0,1.8757,1.696,1.4235,0
18194,1.6463e+09,0,1.9361,1.6534,1.4536,0
18243,1.6463e+09,0,2.0496,1.5726,1.4612,0
18288,1.6463e+09,0,2.1374,1.5362,1.4361,0
18332,1.6463e+09,0,2.2313,1.481,1.5149,0
18377,1.6463e+09,0,2.2836,1.4389,1.4628,0
18426,1.6463e+09,0,2.3721,1.4091,1.483,0
18471,1.6463e+09,0,2.4304,1.3822,1.4338,0
18519,1.6463e+09,0,2.4399,1.3198,1.4293,0
18565,1.6463e+09,0,2.4264,1.2464,1.4209,0
18608,1.6464e+09,0,2.404,1.1907,1.3581,0
18652,1.6464e+09,0,2.3582,1.1219,1.3453,0
18698,1.6464e+09,0,2.2958,1.0585,1.2984,0
18743,1.6464e+09,0,2.2204,0.99409,1.2513,0
18787,1.6464e+09,0,2.1602,0.95315,1.1932,0
18832,1.6464e+09,0,2.0727,0.90599,1.1472,0
18880,1.6464e+09,0,2.0305,0.86936,1.1082,0
18925,1.6464e+09,0,2.0319,0.83544,1.06,0
18970,1.6464e+09,0,2.0437,0.83136,1.0269,0
19015,1.6465e+09,0,2.0748,0.80828,1.0088,0
19063,1.6465e+09,0,2.0964,0.8105,0.9617,0
19108,1.6465e+09,0,2.1183,0.80059,0.93974,0
19153,1.6465e+09,0,2.0948,0.77303,0.93078,0
19198,1.6465e+09,0,2.0417,0.75236,0.91714,0
19243,1.6465e+09,0,1.9967,0.72634,0.88234,0
19287,1.6465e+09,0,1.9334,0.70343,0.87106,0
19336,1.6465e+09,0,1.8721,0.683,0.90201,0
19381,1.6465e+09,0,1.8086,0.6628,0.88462,0
19425,1.6465e+09,0,1.7644,0.6745,0.85189,0
19473,1.6466e+09,0,1.7236,0.69075,0.86418,0
19510,1.6466e+09,0,1.7401,0.71887,0.8502,0
19553,1.6466e+09,0,1.7572,0.74162,0.82676,0
19596,1.6466e+09,0,1.7704,0.78343,0.80589,0
19639,1.6466e+09,0,1.7476,0.86729,0.89722,0
19682,1.6466e+09,0,1.7766,0.88951,0.87472,0
19725,1.6466e+09,0,1.7798,0.95775,0.8672,0
19772,1.6466e+09,0,1.7334,0.99711,0.85671,0
19815,1.6466e+09,0,1.7442,1.0632,0.8804,0
19857,1.6467e+09,0,1.7397,1.1026,0.84531,0
19901,1.6467e+09,0,1.7518,1.1143,0.81084,0
19947,1.6467e+09,0,1.7618,1.1935,0.88719,0
19989,1.6467e+09,0,1.8054,1.2133,0.85977,0
20033,1.6467e+09,0,1.8425,1.2725,0.87894,0
20076,1.6467e+09,0,1.8391,1.3284,0.87175,0
20120,1.6467e+09,0,1.9147,1.3433,0.87508,0
20167,1.6467e+09,0,1.9791,1.3831,0.83835,0
20210,1.6467e+09,0,2.0299,1.4277,0.82414,0
20252,1.6467e+09,0,2.0302,1.4726,0.87081,0
20300,1.6468e+09,0,2.0312,1.5221,0.87883,0
20342,1.6468e+09,0,2.0156,1.6185,0.92195,0
20386,1.6468e+09,0,1.9808,1.6366,0.90611,0
20431,1.6468e+09,0,1.9624,1.6767,0.93026,0
20475,1.6468e+09,0,1.954,1.7301,0.98195,0
20521,1.6468e+09,0,1.9332,1.7785,0.99127,0
20566,1.6468e+09,0,1.8972,1.7849,1.0324,0
20616,1.6468e+09,0,1.8863,1.767,1.0215,0
20661,1.6468e+09,0,1.8803,1.7738,1.0245,0
20706,1.6469e+09,0,1.8394,1.7774,1.0237,0
20751,1.6469e+09,0,1.8069,1.8053,1.0742,0
20800,1.6469e+09,0,1.7634,1.8082,1.0459,0
20845,1.6469e+09,0,1.7087,1.8619,1.108,0
20890,1.6469e+09,0,1.6781,1.8558,1.0996,0
20936,1.6469e+09,0,1.6515,1.8335,1.0996,0
20981,1.6469e+09,0,1.6491,1.8302,1.0973,0
21025,1.6469e+09,0,1.6497,1.8513,1.0981,0
21074,1.6469e+09,0,1.6574,1.8452,1.09,0
21121,1.647e+09,0,1.6724,1.8012,1.0434,0
21162,1.647e+09,0,1.6931,1.8086,1.0867,0
21211,1.647e+09,0,1.689,1.7635,1.0727,0
21256,1.647e+09,0,1.6997,1.7353,1.0482,0
21301,1.647e+09,0,1.6837,1.7407,1.0783,0
21345,1.647e+09,0,1.6734,1.6939,1.0534,0
21390,1.647e+09,0,1.667,1.6217,1.0721,0
21435,1.647e+09,0,1.6392,1.593,1.0338,0
21484,1.647e+09,0,1.6269,1.6144,1.17,0
21529,1.647e+09,0,1.5886,1.5746,1.1424,0
21574,1.6471e+09,0,1.5629,1.539,1.138,0
21620,1.6471e+09,0,1.5508,1.5318,1.165,0
21664,1.6471e+09,0,1.5289,1.5661,1.1764,0
21710,1.6471e+09,0,1.4941,1.5333,1.1556,0
21754,1.6471e+09,0,1.4502,1.5123,1.125,0
21800,1.6471e+09,0,1.3929,1.5287,1.1826,0
21844,1.6471e+09,0,1.3621,1.4725,1.1283,0
21889,1.6471e+09,0,1.3458,1.457,1.1559,0
21938,1.6471e+09,0,1.3458,1.4447,1.1357,0
21984,1.6472e+09,0,1.3347,1.4418,1.153,0
22024,1.6472e+09,0,1.3346,1.3673,1.1238,0
22070,1.6472e+09,0,1.3615,1.3262,1.1026,0
22113,1.6472e+09,0,1.3918,1.3063,1.1301,0
22155,1.6472e+09,0,1.4064,1.2508,1.1044,0
22198,1.6472e+09,0,1.4241,1.2051,1.0861,0
22242,1.6472e+09,0,1.4244,1.1731,1.1122,0
22285,1.6472e+09,0,1.4687,1.1718,1.1272,0
22328,1.6472e+09,0,1.4937,1.135,1.12,0
22376,1.6473e+09,0,1.5033,1.1124,1.0743,0
22419,1.6473e+09,0,1.5104,1.0961,1.1512,0
22461,1.6473e+09,0,1.5568,1.0628,1.123,0
22505,1.6473e+09,0,1.5821,1.0739,1.1303,0
22551,1.6473e+09,0,1.5786,1.0317,1.1364,0
22593,1.6473e+09,0,1.5989,1.0307,1.1382,0
22636,1.6473e+09,0,1.594,1.0047,1.1121,0
22678,1.6473e+09,0,1.5926,1.0071,1.0767,0
22722,1.6473e+09,0,1.5796,0.99912,1.1157,0
22765,1.6473e+09,0,1.6029,0.95684,1.107,0
22811,1.6474e+09,0,1.6205,0.96968,1.1097,0
22856,1.6474e+09,0,1.6451,0.94642,1.0923,0
22901,1.6474e+09,0,1.6764,0.93805,1.1013,0
22949,1.6474e+09,0,1.6449,0.94006,1.0672,0
22993,1.6474e+09,0,1.6758,0.99259,1.0404,0
23038,1.6474e+09,0,1.6466,1.0738,1.0595,0
23084,1.6474e+09,0,1.6512,1.111,1.0417,0
23129,1.6474e+09,0,1.6676,1.2055,0.98612,0
23174,1.6474e+09,0,1.6923,1.2422,0.9891,0
23222,1.6475e+09,0,1.7163,1.2933,0.96207,0
23267,1.6475e+09,0,1.697,1.3248,0.95247,0
23312,1.6475e+09,0,1.675,1.3714,0.94511,0
23357,1.6475e+09,0,1.6818,1.3615,0.95369,0
23405,1.6475e+09,0,1.6637,1.3203,0.93583,0
23446,1.6475e+09,0,1.6625,1.3914,0.8993,0
23491,1.6475e+09,0,1.6471,1.3772,0.90554,0
23535,1.6475e+09,0,1.6433,1.3448,0.94332,0
23582,1.6475e+09,0,1.6126,1.3425,0.9698,0
23629,1.6475e+09,0,1.5773,1.3829,0.95569,0
23671,1.6476e+09,0,1.5824,1.371,1.029,0
23716,1.6476e+09,0,1.5761,1.3256,1.024,0
23760,1.6476e+09,0,1.5996,1.3682,1.0463,0
23805,1.6476e+09,0,1.636,1.4725,1.027,0
23850,1.6476e+09,0,1.6169,1.5432,1.0889,0
23895,1.6476e+09,0,1.6492,1.5726,1.0724,0
23939,1.6476e+09,0,1.6471,1.7215,1.0382,0
23985,1.6476e+09,0,1.6899,1.8116,1.0668,0
24031,1.6476e+09,0,1.7357,1.767,1.0553,0
24075,1.6477e+09,0,1.7764,1.8755,1.0162,0
24124,1.6477e+09,0,1.7794,1.857,0.99682,0
24168,1.6477e+09,0,1.7688,1.823,0.95607,0
24214,1.6477e+09,0,1.6964,1.7374,0.92909,0
24259,1.6477e+09,0,1.6094,1.6517,0.94722,0
24303,1.6477e+09,0,1.5219,1.5956,0.94149,0
24351,1.6477e+09,0,1.4061,1.6504,1.0323,0
24396,1.6477e+09,0,1.3831,1.6147,1.0933,0
24442,1.6477e+09,0,1.3242,1.8166,1.0477,0
24491,1.6477e+09,0,1.308,1.8933,1.0396,0
24537,1.6478e+09,0,1.3483,2.2748,1.1594,0
24581,1.6478e+09,0,1.3533,2.5992,1.3387,0
24623,1.6478e+09,0,1.35,2.9484,1.6901,0
24667,1.6478e+09,0,1.2936,2.9976,1.8579,0
24710,1.6478e+09,0,1.2292,2.9701,1.8701,0
24752,1.6478e+09,0,1.1598,2.8398,1.7895,0
24796,1.6478e+09,0,1.161,2.7973,1.8444,0
24838,1.6478e+09,0,1.1949,2.8902,1.8852,0
24881,1.6478e+09,0,1.2077,2.8806,1.8283,0
24923,1.6479e+09,0,1.2806,2.805,1.8739,0
24969,1.6479e+09,0,1.6716,2.6276,1.7934,0
25016,1.6479e+09,0,2.0054,2.5583,1.7112,0
25059,1.6479e+09,0,2.1618,2.4843,1.6817,0
25102,1.6479e+09,0,2.2589,2.374,1.7327,0
25144,1.6479e+09,0,2.5329,2.2819,1.665,0
25187,1.6479e+09,0,2.7014,2.2978,1.5866,0
25229,1.6479e+09,0,2.7068,2.2775,1.6339,0
25273,1.6479e+09,0,2.5939,2.1792,1.5763,0
25316,1.6479e+09,0,2.4736,2.152,1.5037,0
25359,1.648e+09,0,2.3408,2.0765,1.465,0
25404,1.648e+09,0,2.2063,2.0322,1.6038,0
25447,1.648e+09,0,2.1189,2.0127,1.6233,0
25491,1.648e+09,0,2.0991,2.0462,1.5733,0
25536,1.648e+09,0,2.0868,2.0076,1.5601,0
25580,1.648e+09,0,2.1135,2.0927,1.6312,0
25626,1.648e+09,0,2.1915,2.3089,1.6432,0
25671,1.648e+09,0,2.2953,2.2971,1.637,0
25715,1.648e+09,0,2.3188,2.1921,1.5576,0
25760,1.648e+09,0,2.284,2.2369,1.5849,0
25805,1.6481e+09,0,2.2571,2.6644,1.8106,0
25850,1.6481e+09,0,2.2693,2.8713,2.0411,0
25899,1.6481e+09,0,2.2337,2.7517,1.9446,0
25944,1.6481e+09,0,2.1743,2.6654,1.8761,0
25989,1.6481e+09,0,2.1512,2.8058,1.9861,0
26034,1.6481e+09,0,2.2122,2.8705,2.025,0
26079,1.6481e+09,0,2.3185,2.791,2.0137,0
26123,1.6481e+09,0,2.3271,2.6934,1.9394,0
26168,1.6481e+09,0,2.2476,2.7967,1.9574,0
26211,1.6482e+09,0,2.1508,2.7961,1.9661,0
26256,1.6482e+09,0,2.1156,2.8402,2.0318,0
26302,1.6482e+09,0,2.2314,3.0262,2.0865,0
26351,1.6482e+09,0,2.4174,2.9536,2.1067,0
26395,1.6482e+09,0,2.9468,3.3836,2.2611,0
26440,1.6482e+09,0,2.9716,3.4493,2.3579,0
26485,1.6482e+09,0,3.1182,3.7322,2.5342,0
26529,1.6482e+09,0,3.056,4.042,3.0538,0
26576,1.6482e+09,0,2.9867,4.4919,3.7862,0
26620,1.6483e+09,0,2.8257,4.4677,3.853,0
26665,1.6483e+09,0,2.7003,4.8375,4.2514,0
26709,1.6483e+09,0,2.6961,4.7079,4.0648,0
26756,1.6483e+09,0,2.6736,4.6781,3.8708,0
26804,1.6483e+09,0,2.6641,4.4532,3.8038,0
26850,1.6483e+09,0,2.528,4.3163,3.7965,0
26895,1.6483e+09,0,2.5257,4.0853,4.0287,0
26939,1.6483e+09,0,2.4984,4.1433,4.2369,0
26984,1.6483e+09,0,2.5504,4.0482,4.206,0
27028,1.6483e+09,0,2.4574,4.1209,4.1867,0
27075,1.6484e+09,0,2.442,4.1306,4.0448,0
27115,1.6484e+09,0,2.3527,3.856,3.7362,0
27157,1.6484e+09,0,2.3512,3.6698,3.7271,0
27200,1.6484e+09,0,2.374,3.4687,3.7851,0
27247,1.6484e+09,0,2.435,3.2868,4.317,0
27290,1.6484e+09,0,2.6087,3.1428,4.5606,0
27333,1.6484e+09,0,2.9521,3.0097,5.089,0
27379,1.6484e+09,0,3.1967,2.9267,5.4188,0
27422,1.6484e+09,0,3.2453,3.1742,5.5904,0
27464,1.6485e+09,0,3.4301,3.3195,5.867,0
27507,1.6485e+09,0,3.5615,3.9835,6.0966,0
27550,1.6485e+09,0,3.7271,4.3118,6.2098,0
27592,1.6485e+09,0,3.7713,4.9483,6.3054,0
27639,1.6485e+09,0,3.8066,5.4142,6.3637,0
27683,1.6485e+09,0,3.7851,5.825,6.2934,0
27726,1.6485e+09,0,3.817,6.021,6.2424,0
27772,1.6485e+09,0,3.6856,5.8793,6.0283,0
27820,1.6485e+09,0,3.4629,5.4647,5.7007,0
27858,1.6486e+09,0,3.266,5.1716,5.4162,0
27902,1.6486e+09,0,3.1179,5.2153,5.2788,0
27946,1.6486e+09,0,2.99,5.4046,5.1956,0
27990,1.6486e+09,0,2.8456,5.347,5.0484,0
28034,1.6486e+09,0,2.6992,5.2192,4.8076,0
28084,1.6486e+09,0,2.6473,4.9465,4.5809,0
28128,1.6486e+09,0,2.6047,4.6969,4.4175,0
28174,1.6486e+09,0,2.5485,4.5368,4.3728,0
28219,1.6486e+09,0,2.686,4.3332,4.1829,0
28263,1.6487e+09,0,3.1839,4.0796,3.9451,0
28308,1.6487e+09,0,3.8617,3.9764,3.7663,0
28352,1.6487e+09,0,4.4611,3.9218,3.6292,0
28397,1.6487e+09,0,4.9981,3.8082,3.4944,0
28443,1.6487e+09,0,5.4397,3.7397,3.3284,0
28489,1.6487e+09,0,5.6901,3.7565,3.2856,0
28537,1.6487e+09,0,5.8213,3.6902,3.2392,0
28583,1.6487e+09,0,5.9649,3.5563,3.1599,0
28634,1.6487e+09,0,6.0197,3.4572,3.1993,0
28676,1.6488e+09,0,5.9275,3.2229,3.2188,0
28720,1.6488e+09,0,5.8687,3.0461,3.4357,0
28766,1.6488e+09,0,5.7223,2.9059,3.4963,0
28812,1.6488e+09,0,5.6586,2.7367,3.5477,0
28856,1.6488e+09,0,5.7199,2.6414,3.497,0
28902,1.6488e+09,0,5.7868,2.5486,3.3989,0
28954,1.6488e+09,0,6.0067,2.4869,3.2192,0
28999,1.6488e+09,0,6.1249,2.4862,3.1406,0
29044,1.6488e+09,0,6.3113,2.4593,3.0411,0
29088,1.6489e+09,0,6.3925,2.5175,2.9819,0
29133,1.6489e+09,0,6.6295,2.5272,2.9249,0
29177,1.6489e+09,0,6.6353,2.7116,2.8636,0
29222,1.6489e+09,0,6.7831,2.7338,2.8732,0
29267,1.6489e+09,0,6.759,2.6583,2.7998,0
29312,1.6489e+09,0,6.9638,2.5575,2.7871,0
29359,1.6489e+09,0,7.0246,2.4892,2.7914,0
29407,1.6489e+09,0,7.2198,2.4621,2.8161,0
29453,1.6489e+09,0,7.2485,2.5055,2.8788,0
29498,1.6489e+09,0,7.3078,2.5925,2.9607,0
29540,1.649e+09,0,7.2296,3.0192,2.9766,0
29582,1.649e+09,0,7.1276,3.2858,2.7977,0
29624,1.649e+09,0,6.986,3.3939,2.7064,0
29667,1.649e+09,0,6.9118,3.2183,2.7993,0
29709,1.649e+09,0,6.7469,3.0698,2.9825,0
29753,1.649e+09,0,6.5481,3.0779,3.0986,0
29796,1.649e+09,0,6.4203,3.2571,3.1463,0
29843,1.649e+09,0,6.3355,3.4506,3.1728,0
29886,1.649e+09,0,6.2021,3.898,3.1833,0
29928,1.6491e+09,0,6.0087,4.236,3.1469,0
29971,1.6491e+09,0,5.979,4.139,3.1428,0
30015,1.6491e+09,0,6.2631,3.9794,3.1122,0
30058,1.6491e+09,0,6.4586,3.9694,2.9371,0
30100,1.6491e+09,0,6.6159,3.8797,2.8924,0
30143,1.6491e+09,0,6.5218,3.9059,2.9222,0
30186,1.6491e+09,0,6.3717,4.1331,2.7781,0
30228,1.6491e+09,0,6.1858,4.1086,2.7873,0
30275,1.6491e+09,0,6.0253,3.9413,2.982,0
30319,1.6492e+09,0,5.9034,3.9142,3.0022,0
30366,1.6492e+09,0,6.1624,4.0291,2.9278,0
30405,1.6492e+09,0,6.2156,4.2788,2.9568,0
30449,1.6492e+09,0,6.4283,4.161,2.8391,0
30495,1.6492e+09,0,6.4003,4.2485,2.762,0
30540,1.6492e+09,0,6.2971,4.2026,2.7298,0
30584,1.6492e+09,0,6.3449,4.2643,2.7254,0
30629,1.6492e+09,0,6.2564,4.1154,2.7504,0
30675,1.6492e+09,0,6.0486,4.3256,2.7593,0
30724,1.6493e+09,0,5.7287,4.2654,2.6779,0
30770,1.6493e+09,0,5.9532,4.0508,2.6869,0
30815,1.6493e+09,0,6.0754,4.3456,2.8265,0
30860,1.6493e+09,0,5.9804,4.4955,2.7888,0
30904,1.6493e+09,0,5.6291,4.3357,2.9796,0
30949,1.6493e+09,0,5.4695,4.5769,3.1735,0
30993,1.6493e+09,0,5.207,4.802,3.2362,0
31038,1.6493e+09,0,5.0142,4.817,3.1918,0
31082,1.6493e+09,0,5.066,4.863,3.068,0
31127,1.6493e+09,0,5.2325,4.8216,3.0164,0
31178,1.6494e+09,0,5.0134,5.1934,2.9095,0
31221,1.6494e+09,0,4.9299,4.9902,2.7708,0
31266,1.6494e+09,0,5.1561,4.9726,2.9876,0
31314,1.6494e+09,0,4.962,5.1211,2.993,0
31358,1.6494e+09,0,4.733,4.8744,3.0352,0
31403,1.6494e+09,0,4.8926,4.8493,2.9504,0
31447,1.6494e+09,0,4.8082,4.8479,2.9228,0
31492,1.6494e+09,0,4.5654,5.1525,3.0146,0
31537,1.6494e+09,0,4.3467,5.2705,2.9177,0
31586,1.6495e+09,0,4.0895,5.2623,2.8175,0
31631,1.6495e+09,0,3.945,5.4939,2.971,0
31675,1.6495e+09,0,4.1863,5.4234,3.0394,0
31720,1.6495e+09,0,4.1285,5.6624,3.3066,0
31764,1.6495e+09,0,4.0173,5.5404,3.4489,0
31809,1.6495e+09,0,4.1555,5.6378,3.3211,0
31855,1.6495e+09,0,4.1389,5.4983,3.1375,0
31899,1.6495e+09,0,3.9675,5.265,2.9543,0
31944,1.6495e+09,0,3.916,5.104,2.8411,0
31987,1.6496e+09,0,3.8487,4.8729,2.7665,0
32033,1.6496e+09,0,3.9485,4.6273,2.7458,0
32077,1.6496e+09,0,3.9115,4.8483,2.7199,0
32122,1.6496e+09,0,3.7831,4.7169,2.6525,0
32167,1.6496e+09,0,3.9105,4.9577,2.5798,0
32211,1.6496e+09,0,3.712,4.9517,2.5965,0
32257,1.6496e+09,0,3.6291,5.1002,2.7339,0
32301,1.6496e+09,0,3.6591,5.2957,2.6226,0
32346,1.6496e+09,0,3.5043,5.1743,2.5539,0
32392,1.6496e+09,0,3.398,4.9864,2.4283,0
32436,1.6497e+09,0,3.2281,4.8384,2.3343,0
32485,1.6497e+09,0,3.1704,4.6719,2.2624,0
32529,1.6497e+09,0,3.0113,4.3981,2.2041,0
32574,1.6497e+09,0,2.8824,4.3087,2.0903,0
32618,1.6497e+09,0,2.7222,4.2323,2.1516,0
32663,1.6497e+09,0,2.5512,4.3518,2.1115,0
32708,1.6497e+09,0,2.3903,4.3321,2.0778,0
32757,1.6497e+09,0,2.2655,4.2665,2.0734,0
32802,1.6497e+09,0,2.2254,4.3478,2.0822,0
32847,1.6498e+09,0,2.3132,4.3823,2.1386,0
32893,1.6498e+09,0,2.2469,4.4358,2.1385,0
32934,1.6498e+09,0,2.3113,4.5581,2.1361,0
32976,1.6498e+09,0,2.2217,4.3602,2.0535,0
33019,1.6498e+09,0,2.3234,4.2348,2.0492,0
33062,1.6498e+09,0,2.2537,4.1673,2.0512,0
33104,1.6498e+09,0,2.2763,4.0516,2.0577,0
33148,1.6498e+09,0,2.5088,4.0741,2.0226,0
33190,1.6498e+09,0,2.4643,4.1849,1.948,0
33233,1.6498e+09,0,2.5452,4.0791,1.9082,0
33277,1.6499e+09,0,2.694,4.2328,1.9674,0
33319,1.6499e+09,0,2.6405,4.1834,2.0448,0
33367,1.6499e+09,0,2.7742,4.174,2.2664,0
33409,1.6499e+09,0,2.7188,4.5543,2.4481,0
33453,1.6499e+09,0,2.7869,4.4619,2.3959,0
33496,1.6499e+09,0,2.8087,4.7539,2.379,0
33539,1.6499e+09,0,2.657,4.6903,2.6135,0
33581,1.6499e+09,0,2.5583,4.5777,2.8113,0
33624,1.6499e+09,0,2.6481,4.4954,2.7941,0
33665,1.65e+09,0,2.7962,4.738,2.8,0
33709,1.65e+09,0,2.7673,4.5894,2.704,0
33755,1.65e+09,0,2.8291,4.8498,2.8513,0
33804,1.65e+09,0,2.7039,4.931,3.0315,0
33849,1.65e+09,0,2.78,5.0673,3.0633,0
33893,1.65e+09,0,2.8889,5.2314,2.9431,0
33939,1.65e+09,0,2.7691,5.1259,2.7874,0
33983,1.65e+09,0,2.6905,4.9887,2.6593,0
34028,1.65e+09,0,2.5409,4.8458,2.5437,0
34074,1.65e+09,0,2.6766,4.7412,2.4752,0
34118,1.6501e+09,0,2.821,4.7324,2.4265,0
34163,1.6501e+09,0,2.693,4.5685,2.4913,0
34207,1.6501e+09,0,2.6916,4.7659,2.7073,0
34256,1.6501e+09,0,2.9284,5.0976,3.0229,0
34302,1.6501e+09,0,2.8507,5.4655,3.0524,0
34347,1.6501e+09,0,3.1218,5.3185,3.0858,0
34392,1.6501e+09,0,3.4844,5.4813,3.1296,0
34436,1.6501e+09,0,3.3088,5.6113,3.0305,0
34477,1.6501e+09,0,3.5364,5.4212,2.9212,0
34522,1.6502e+09,0,4.3186,5.443,2.9764,0
34566,1.6502e+09,0,4.326,5.4236,2.989,0
34611,1.6502e+09,0,4.1619,5.1858,3.1201,0
34655,1.6502e+09,0,4.1276,4.9584,3.2246,0
34705,1.6502e+09,0,4.1074,5.2849,3.6683,0
34749,1.6502e+09,0,3.8806,5.5489,3.5727,0
34794,1.6502e+09,0,3.775,5.3392,3.6124,0
34840,1.6502e+09,0,4.3931,5.223,3.5822,0
34886,1.6502e+09,0,4.6181,5.2795,3.5159,0
34930,1.6503e+09,0,4.5805,5.3592,3.4626,0
34974,1.6503e+09,0,4.3006,5.1629,3.3387,0
35019,1.6503e+09,0,4.2061,5.0228,3.4579,0
35064,1.6503e+09,0,4.1456,5.3879,3.5585,0
35109,1.6503e+09,0,3.9305,5.3098,3.4196,0
35157,1.6503e+09,0,3.7711,5.2965,3.5055,0
35202,1.6503e+09,0,3.8299,5.2958,3.3824,0
35247,1.6503e+09,0,3.676,5.4533,3.2477,0
35292,1.6503e+09,0,3.5657,5.2937,3.1886,0
35337,1.6503e+09,0,3.5466,5.3226,3.1963,0
35380,1.6504e+09,0,3.802,5.1489,3.2977,0
35423,1.6504e+09,0,3.5952,5.0721,3.1851,0
35465,1.6504e+09,0,3.4663,5.4187,3.166,0
35509,1.6504e+09,0,3.4468,5.2692,3.0879,0
35552,1.6504e+09,0,3.5513,5.2438,3.1728,0
35600,1.6504e+09,0,3.3719,5.1815,3.1423,0
35643,1.6504e+09,0,3.3434,5.0808,3.0602,0
35686,1.6504e+09,0,3.6688,5.0464,2.9953,0
35729,1.6504e+09,0,3.9337,4.9417,2.9949,0
35772,1.6505e+09,0,4.0368,5.2094,3.2838,0
35814,1.6505e+09,0,3.823,5.4498,3.3063,0
35857,1.6505e+09,0,3.6129,5.6036,3.1704,0
35899,1.6505e+09,0,3.7848,5.4228,3.1603,0
35943,1.6505e+09,0,3.9646,5.5677,3.1964,0
35986,1.6505e+09,0,3.7693,5.4727,3.1635,0
36032,1.6505e+09,0,3.615,5.4289,3.0066,0
36074,1.6505e+09,0,3.7147,5.1627,2.8862,0
36117,1.6505e+09,0,3.8791,5.0265,3.0988,0
36161,1.6505e+09,0,3.8057,5.3908,3.3193,0
36207,1.6506e+09,0,3.5939,5.3682,3.2804,0
36249,1.6506e+09,0,4.0466,5.1366,3.1314,0
36294,1.6506e+09,0,4.378,5.2601,3.0852,0
36338,1.6506e+09,0,4.285,5.3002,2.9592,0
36384,1.6506e+09,0,4.0291,5.0944,2.9067,0
36434,1.6506e+09,0,3.9083,4.9826,3.0571,0
36478,1.6506e+09,0,3.8187,5.1525,3.0849,0
36524,1.6506e+09,0,3.6324,5.2668,2.9972,0
36568,1.6506e+09,0,3.5151,5.2523,2.8916,0
36616,1.6507e+09,0,3.4609,5.2688,2.8903,0
36661,1.6507e+09,0,3.39,5.2723,2.9222,0
36705,1.6507e+09,0,3.2631,5.1975,2.9363,0
36750,1.6507e+09,0,3.2823,5.4248,2.8537,0
36796,1.6507e+09,0,3.1638,5.2075,3.0034,0
36840,1.6507e+09,0,3.1256,5.1597,3.0357,0
36891,1.6507e+09,0,3.0634,5.6552,3.464,0
36937,1.6507e+09,0,2.9658,5.5251,3.384,0
36982,1.6507e+09,0,2.9382,5.485,3.341,0
37025,1.6508e+09,0,2.8111,5.2414,3.4242,0
37070,1.6508e+09,0,2.9413,5.3687,3.4047,0
37114,1.6508e+09,0,2.8025,5.2499,3.2507,0
37159,1.6508e+09,0,2.8194,5.3506,3.2194,0
37205,1.6508e+09,0,2.722,5.4942,3.1715,0
37251,1.6508e+09,0,2.7245,5.3886,3.272,0
37295,1.6508e+09,0,2.6521,5.5209,3.3695,0
37343,1.6508e+09,0,2.677,5.4774,3.3992,0
37387,1.6508e+09,0,2.9882,5.6744,3.254,0
37431,1.6509e+09,0,2.8719,5.4167,3.1597,0
37475,1.6509e+09,0,2.766,5.3395,3.3511,0
37522,1.6509e+09,0,2.689,5.7794,3.593,0
37567,1.6509e+09,0,2.5419,5.8261,3.6248,0
37611,1.6509e+09,0,2.4793,5.9483,3.7049,0
37656,1.6509e+09,0,2.5245,5.6946,3.6321,0
37701,1.6509e+09,0,2.6089,5.7974,3.627,0
37746,1.6509e+09,0,2.4953,5.6452,3.5002,0
37796,1.6509e+09,0,2.4075,5.8574,3.3971,0
37840,1.651e+09,0,2.2907,5.7948,3.3706,0
37883,1.651e+09,0,2.4147,5.7249,3.4821,0
37928,1.651e+09,0,2.5408,5.7598,3.5045,0
37972,1.651e+09,0,2.5925,5.6963,3.5164,0
38017,1.651e+09,0,2.4269,5.8161,3.5931,0
38062,1.651e+09,0,2.325,5.8042,3.5225,0
38106,1.651e+09,0,2.2206,5.8141,3.448,0
38152,1.651e+09,0,2.1641,5.6822,3.3759,0
38200,1.651e+09,0,2.4514,5.6318,3.4043,0
38248,1.6511e+09,0,2.604,5.4574,3.2762,0
38293,1.6511e+09,0,2.7275,5.3881,3.2327,0
38337,1.6511e+09,0,2.5969,5.8539,3.201,0
38386,1.6511e+09,0,2.5908,5.7171,3.234,0
38430,1.6511e+09,0,2.6638,5.6288,3.2913,0
38476,1.6511e+09,0,2.5651,5.7967,3.3665,0
38520,1.6511e+09,0,2.4458,5.6157,3.3153,0
38565,1.6511e+09,0,2.3872,5.3716,3.3874,0
38611,1.6511e+09,0,2.7273,5.5309,3.2911,0
38659,1.6511e+09,0,2.6481,5.5471,3.2126,0
38706,1.6512e+09,0,2.5301,5.5789,3.1856,0
38743,1.6512e+09,0,2.7418,5.396,3.0931,0
38786,1.6512e+09,0,3.1235,5.4005,3.0402,0
38828,1.6512e+09,0,3.0418,5.4592,3.0535,0
38871,1.6512e+09,0,2.9738,5.4985,3.0636,0
38913,1.6512e+09,0,3.077,5.4095,2.9291,0
38958,1.6512e+09,0,3.4362,5.5073,2.8638,0
39000,1.6512e+09,0,3.4281,5.7305,2.847,0
39043,1.6512e+09,0,3.2578,5.5604,2.7693,0
39089,1.6513e+09,0,3.0765,5.3871,2.7429,0
39132,1.6513e+09,0,3.011,5.356,2.8141,0
39176,1.6513e+09,0,2.8341,5.5724,3.2003,0
39219,1.6513e+09,0,2.9104,5.5818,3.1805,0
39261,1.6513e+09,0,2.9233,5.5111,3.2667,0
39303,1.6513e+09,0,2.9905,5.6202,3.2037,0
39346,1.6513e+09,0,2.9195,5.5983,3.1046,0
39388,1.6513e+09,0,2.9125,5.6045,3.0005,0
39431,1.6513e+09,0,2.8859,5.4536,3.1108,0
39472,1.6513e+09,0,3.0433,5.3793,3.2087,0
39518,1.6514e+09,0,3.1153,5.4458,3.0945,0
39564,1.6514e+09,0,3.1122,5.674,3.0792,0
39608,1.6514e+09,0,3.0297,5.5735,2.989,0
39653,1.6514e+09,0,3.3638,5.462,2.8616,0
39701,1.6514e+09,0,3.6769,5.4031,2.7331,0
39746,1.6514e+09,0,3.5722,5.2783,2.6672,0
39790,1.6514e+09,0,3.3906,5.183,2.8367,0
39835,1.6514e+09,0,3.372,5.1788,2.7282,0
39880,1.6514e+09,0,3.3061,5.3892,2.7467,0
39924,1.6515e+09,0,3.1523,5.5897,2.9121,0
39974,1.6515e+09,0,3.2896,5.4471,2.8587,0
40018,1.6515e+09,0,3.8681,5.3412,2.7623,0
40064,1.6515e+09,0,4.095,5.5166,2.6634,0
40108,1.6515e+09,0,3.9435,5.4511,2.6206,0
40156,1.6515e+09,0,3.6586,5.4498,2.7002,0
40201,1.6515e+09,0,3.548,5.3265,2.6063,0
40245,1.6515e+09,0,3.4606,5.5063,2.6993,0
40290,1.6515e+09,0,3.3866,5.559,2.714,0
40336,1.6516e+09,0,3.5507,5.4232,2.7176,0
40378,1.6516e+09,0,3.9353,5.4959,2.7348,0
40427,1.6516e+09,0,3.7725,5.4696,2.6591,0
40471,1.6516e+09,0,3.6199,5.3153,2.6053,0
40517,1.6516e+09,0,3.5999,5.0984,2.5614,0
40562,1.6516e+09,0,3.5074,5.0907,2.7054,0
40606,1.6516e+09,0,3.3633,5.2209,2.6757,0
40651,1.6516e+09,0,3.1986,5.3092,2.6607,0
40696,1.6516e+09,0,3.2727,5.0862,2.5754,0
40741,1.6516e+09,0,3.5068,5.1409,2.444,0
40785,1.6517e+09,0,3.5023,5.1434,2.3734,0
40831,1.6517e+09,0,3.5601,5.1203,2.6006,0
40880,1.6517e+09,0,3.9482,4.9783,2.576,0
40924,1.6517e+09,0,4.1477,5.1737,2.5947,0
40970,1.6517e+09,0,3.9085,5.2691,2.4908,0
41016,1.6517e+09,0,3.6928,5.1511,2.471,0
41060,1.6517e+09,0,3.6534,5.1534,2.4025,0
41105,1.6517e+09,0,3.5385,5.2154,2.3994,0
41151,1.6517e+09,0,3.3787,5.2969,2.6364,0
41196,1.6518e+09,0,3.4561,5.2775,2.5877,0
41242,1.6518e+09,0,3.9789,5.0975,2.5531,0
41287,1.6518e+09,0,4.3402,5.0755,2.5178,0
41333,1.6518e+09,0,4.1423,5.1821,2.6406,0
41377,1.6518e+09,0,3.9377,5.4631,2.6557,0
41422,1.6518e+09,0,3.8457,5.2652,2.6381,0
41470,1.6518e+09,0,3.7452,5.3623,2.8634,0
41515,1.6518e+09,0,3.5597,5.6428,3,0
41560,1.6518e+09,0,3.5496,5.3779,3.0656,0
41604,1.6519e+09,0,3.4006,5.3312,3.2745,0
41649,1.6519e+09,0,3.3002,5.6678,3.5405,0
41693,1.6519e+09,0,3.1946,5.6297,3.3624,0
41743,1.6519e+09,0,3.2604,5.4883,3.2348,0
41787,1.6519e+09,0,3.1593,5.3075,3.13,0
41832,1.6519e+09,0,3.2594,5.2658,3.0441,0
41877,1.6519e+09,0,3.2322,5.3706,3.2044,0
41923,1.6519e+09,0,3.0894,5.4738,3.1149,0
41968,1.6519e+09,0,3.0228,5.5543,3.0312,0
42015,1.652e+09,0,2.8764,5.4615,2.9892,0
42054,1.652e+09,0,2.9696,5.3125,2.9816,0
42096,1.652e+09,0,2.907,5.3309,3.1675,0
42139,1.652e+09,0,2.7678,5.7909,3.2468,0
42185,1.652e+09,0,2.651,5.6197,3.1594,0
42227,1.652e+09,0,2.9746,5.376,3.1059,0
42270,1.652e+09,0,3.5345,5.5023,3.0891,0
42312,1.652e+09,0,3.5731,5.5352,3.2225,0
42356,1.652e+09,0,3.3889,5.4317,3.2452,0
42395,1.6521e+09,0,3.2077,5.2813,3.3796,0
42435,1.6521e+09,0,3.4643,5.3871,3.4396,0
42477,1.6521e+09,0,3.8082,5.3495,3.3169,0
42519,1.6521e+09,0,3.6995,5.5738,3.3127,0
42564,1.6521e+09,0,3.6731,5.3876,3.1608,0
42611,1.6521e+09,0,3.9502,5.25,3.2618,0
42654,1.6521e+09,0,3.951,5.2063,3.3743,0
42697,1.6521e+09,0,3.9996,5.2802,3.4178,0
42739,1.6521e+09,0,4.0078,5.4603,3.4608,0
42779,1.6521e+09,0,3.748,5.1207,3.3959,0
42821,1.6522e+09,0,3.6161,5.0273,3.4535,0
42862,1.6522e+09,0,3.4242,5.0039,3.4256,0
42907,1.6522e+09,0,3.6997,4.9539,3.4401,0
42952,1.6522e+09,0,4.2561,4.9934,3.45,0
43000,1.6522e+09,0,4.2893,4.9551,3.3851,0
43049,1.6522e+09,0,4.1745,4.8882,3.46,0
43093,1.6522e+09,0,4.1782,5.1763,3.4083,0
43138,1.6522e+09,0,4.0684,5.1406,3.5033,0
43182,1.6522e+09,0,4.1443,5.0323,3.6524,0
43228,1.6523e+09,0,4.3615,5.1503,3.6866,0
43273,1.6523e+09,0,4.2297,5.2455,3.6151,0
43318,1.6523e+09,0,4.076,5.027,3.6939,0
43363,1.6523e+09,0,4.3485,5.1612,3.585,0
43407,1.6523e+09,0,4.5038,5.0747,3.4036,0
43456,1.6523e+09,0,4.4184,4.8423,3.6928,0
43501,1.6523e+09,0,4.3311,5.0601,3.7476,0
43545,1.6523e+09,0,4.2709,5.2057,3.6914,0
43595,1.6524e+09,0,4.1676,5.0419,3.815,0
43633,1.6524e+09,0,4.1891,4.9717,3.8285,0
43675,1.6524e+09,0,4.09,5.2291,3.7755,0
43717,1.6524e+09,0,4.0993,5.1651,3.8234,0
43761,1.6524e+09,0,4.1841,5.4093,3.8076,0
43806,1.6524e+09,0,3.9773,5.3013,3.7055,0
43853,1.6524e+09,0,4.2537,5.1029,3.588,0
43901,1.6524e+09,0,4.825,5.0919,3.4921,0
43946,1.6524e+09,0,5.0241,5.0403,3.3975,0
43990,1.6525e+09,0,4.8144,4.8905,3.3191,0
44035,1.6525e+09,0,4.6355,4.7446,3.3731,0
44077,1.6525e+09,0,4.5683,5.0361,3.3179,0
44118,1.6525e+09,0,4.3292,5.1131,3.2102,0
44164,1.6525e+09,0,4.4742,4.962,3.1684,0
44210,1.6525e+09,0,5.2158,4.8912,3.0887,0
44254,1.6525e+09,0,5.3535,4.8749,2.9419,0
44299,1.6525e+09,0,5.2265,4.8688,2.884,0
44347,1.6525e+09,0,5.0291,4.8071,2.9191,0
44394,1.6525e+09,0,4.8712,4.7057,2.9163,0
44433,1.6526e+09,0,4.6164,4.5668,2.8987,0
44477,1.6526e+09,0,4.598,4.5457,2.9819,0
44515,1.6526e+09,0,5.0548,4.4679,3.0918,0
44560,1.6526e+09,0,5.3332,4.5837,3.0134,0
44605,1.6526e+09,0,5.2096,4.4962,2.9849,0
44652,1.6526e+09,0,5.1394,4.8541,3.0916,0
44696,1.6526e+09,0,5.0151,4.7577,3.1424,0
44741,1.6526e+09,0,4.8716,4.8514,2.9907,0
44790,1.6526e+09,0,4.7027,4.6054,2.9416,0
44835,1.6527e+09,0,4.5185,4.4893,3.2087,0
44879,1.6527e+09,0,4.3846,4.559,3.4348,0
44925,1.6527e+09,0,4.5014,4.6734,3.3332,0
44964,1.6527e+09,0,4.8542,4.7601,3.3996,0
45010,1.6527e+09,0,4.7507,4.8626,3.3649,0
45054,1.6527e+09,0,4.696,4.6566,3.2505,0
45098,1.6527e+09,0,5.0991,4.6488,3.126,0
45144,1.6527e+09,0,5.2236,4.7365,3.1562,0
45191,1.6527e+09,0,5.1234,5.1964,3.126,0
45233,1.6528e+09,0,4.7965,5.1052,3.2127,0
45279,1.6528e+09,0,4.5338,5.1987,3.1157,0
45324,1.6528e+09,0,4.4155,4.941,3.1412,0
45369,1.6528e+09,0,4.8581,4.8478,3.2177,0
45410,1.6528e+09,0,5.0944,5.0044,3.2989,0
45454,1.6528e+09,0,4.9424,5.0025,3.3108,0
45496,1.6528e+09,0,4.6929,5.1517,3.4266,0
45540,1.6528e+09,0,4.45,5.2106,3.331,0
45585,1.6528e+09,0,4.3314,5.1679,3.2213,0
45630,1.6529e+09,0,4.2799,5.0246,3.3178,0
45680,1.6529e+09,0,4.3197,4.8557,3.3636,0
45725,1.6529e+09,0,4.2813,4.9349,3.5122,0
45770,1.6529e+09,0,4.1094,5.1513,3.7633,0
45815,1.6529e+09,0,3.9056,5.2828,3.669,0
45856,1.6529e+09,0,4.1482,5.0711,3.7329,0
45901,1.6529e+09,0,3.9801,5.184,3.7046,0
45945,1.6529e+09,0,3.8968,4.9232,3.7662,0
45989,1.6529e+09,0,3.8153,4.8847,3.8402,0
46034,1.653e+09,0,3.7053,5.0181,3.854,0
46082,1.653e+09,0,3.7515,5.148,3.7482,0
46125,1.653e+09,0,3.562,5.0089,3.5806,0
46169,1.653e+09,0,3.5037,4.8276,3.4983,0
46211,1.653e+09,0,3.7174,4.8624,3.376,0
46255,1.653e+09,0,3.8779,5.1046,3.4324,0
46297,1.653e+09,0,3.8045,5.1721,3.327,0
46336,1.653e+09,0,3.5381,5.5238,3.4421,0
46379,1.653e+09,0,3.6153,5.3008,3.4037,0
46422,1.6531e+09,0,4.0094,5.3555,3.5281,0
46464,1.6531e+09,0,4.1597,5.6281,3.4503,0
46508,1.6531e+09,0,4.0761,5.3301,3.408,0
46554,1.6531e+09,0,4.0172,5.1714,3.3529,0
46597,1.6531e+09,0,4.2281,5.0384,3.459,0
46640,1.6531e+09,0,4.2111,5.1567,3.6398,0
46684,1.6531e+09,0,3.8692,5.4475,3.9206,0
46727,1.6531e+09,0,4.0148,5.3652,3.9398,0
46769,1.6531e+09,0,3.9576,5.2111,3.9036,0
46813,1.6532e+09,0,3.8243,5.1767,4.0108,0
46855,1.6532e+09,0,3.5215,5.3917,3.7388,0
46901,1.6532e+09,0,4.024,5.3387,3.6231,0
46950,1.6532e+09,0,4.1162,5.67,3.6194,0
46997,1.6532e+09,0,3.875,5.3908,3.5658,0
47041,1.6532e+09,0,3.7652,5.1434,3.4605,0
47086,1.6532e+09,0,3.9591,5.2994,3.6107,0
47128,1.6532e+09,0,3.8785,5.3054,3.6322,0
47172,1.6532e+09,0,3.6781,5.3065,3.7311,0
47214,1.6533e+09,0,3.9044,5.1699,3.9263,0
47261,1.6533e+09,0,4.1084,5.1823,4.0131,0
47305,1.6533e+09,0,3.8682,4.8937,3.9854,0
47350,1.6533e+09,0,3.7115,5.0039,4.1818,0
47398,1.6533e+09,0,4.0772,4.9617,4.0688,0
47443,1.6533e+09,0,4.3342,5.1004,3.8837,0
47488,1.6533e+09,0,4.412,5.0096,3.7837,0
47533,1.6533e+09,0,4.2174,4.8684,3.6608,0
47574,1.6533e+09,0,4.4453,4.9267,3.5569,0
47619,1.6534e+09,0,4.5582,4.7317,3.4863,0
47657,1.6534e+09,0,4.2566,4.8537,3.5018,0
47701,1.6534e+09,0,4.1709,4.6821,3.54,0
47746,1.6534e+09,0,4.1403,4.5649,3.4784,0
47791,1.6534e+09,0,3.9402,4.5112,3.4125,0
47840,1.6534e+09,0,3.8967,4.4736,3.3742,0
47885,1.6534e+09,0,4.025,4.2869,3.4099,0
47930,1.6534e+09,0,4.1252,4.4667,3.4007,0
47975,1.6534e+09,0,3.943,4.5823,3.3227,0
48013,1.6535e+09,0,3.9222,4.6767,3.3166,0
48058,1.6535e+09,0,3.946,4.7368,3.2338,0
48102,1.6535e+09,0,3.9007,4.5587,3.2712,0
48146,1.6535e+09,0,3.7697,4.864,3.2263,0
48190,1.6535e+09,0,3.7012,4.692,3.1823,0
48234,1.6535e+09,0,3.9992,4.6461,3.1041,0
48283,1.6535e+09,0,4.1128,4.6075,3.2163,0
48327,1.6535e+09,0,3.9877,4.9419,3.1635,0
48371,1.6535e+09,0,3.7913,4.9264,3.0769,0
48419,1.6535e+09,0,3.9841,4.638,2.987,0
48457,1.6536e+09,0,4.076,4.6862,3.0819,0
48502,1.6536e+09,0,3.8619,4.6924,2.97,0
48547,1.6536e+09,0,3.7509,4.6391,2.9213,0
48588,1.6536e+09,0,4.1705,4.7197,2.8522,0
48633,1.6536e+09,0,4.4531,4.7966,3.0777,0
48678,1.6536e+09,0,4.3249,5.052,3.045,0
48726,1.6536e+09,0,4.0697,4.9655,3.0613,0
48771,1.6536e+09,0,4.1748,4.841,3.0448,0
48816,1.6536e+09,0,4.1731,4.7799,3.5997,0
48861,1.6537e+09,0,3.8995,5.5107,3.7499,0
48907,1.6537e+09,0,3.8968,5.2666,3.8213,0
48948,1.6537e+09,0,4.0083,5.0945,3.7809,0
48993,1.6537e+09,0,4.1924,5.3431,3.6705,0
49040,1.6537e+09,0,4.0714,5.2226,3.6454,0
49085,1.6537e+09,0,4.0565,5.0385,3.7858,0
49134,1.6537e+09,0,3.8382,4.7968,4.082,0
49179,1.6537e+09,0,3.7215,5.0194,4.1418,0
49226,1.6537e+09,0,3.7659,4.9146,3.9496,0
49271,1.6538e+09,0,3.7935,4.783,3.8281,0
49317,1.6538e+09,0,3.6947,5.0977,3.6778,0
49354,1.6538e+09,0,3.5458,4.9093,3.5281,0
49392,1.6538e+09,0,3.6414,5.0524,3.4492,0
49438,1.6538e+09,0,3.4358,5.2167,3.3821,0
49484,1.6538e+09,0,3.258,5.1778,3.3807,0
49528,1.6538e+09,0,3.3872,5.0714,3.3281,0
49577,1.6538e+09,0,3.8239,4.967,3.4054,0
49621,1.6538e+09,0,3.9094,5.2357,3.3615,0
49666,1.6539e+09,0,3.755,5.3296,3.2494,0
49712,1.6539e+09,0,3.6942,5.2483,3.1716,0
49756,1.6539e+09,0,4.0307,5.4016,3.1272,0
49800,1.6539e+09,0,3.9545,5.5805,3.1143,0
49841,1.6539e+09,0,3.6229,5.2411,3.1395,0
49887,1.6539e+09,0,3.5905,5.0807,3.1252,0
49931,1.6539e+09,0,3.6183,5.1939,3.1001,0
49977,1.6539e+09,0,3.4672,5.432,3.1008,0
50026,1.6539e+09,0,3.2888,5.535,3.0322,0
50071,1.654e+09,0,3.5107,5.2764,3.0378,0
50118,1.654e+09,0,3.6163,5.112,3.2588,0
50162,1.654e+09,0,3.4614,5.243,3.2384,0
50204,1.654e+09,0,3.8764,4.9457,3.079,0
50249,1.654e+09,0,4.4997,5.0965,3.2697,0
50294,1.654e+09,0,4.3243,4.9399,3.494,0
50339,1.654e+09,0,4.2483,4.7367,3.541,0
50383,1.654e+09,0,4.2974,5.0858,3.7621,0
50432,1.6541e+09,0,4.1421,5.1868,3.5787,0
50477,1.6541e+09,0,3.9322,4.9423,3.5798,0
50522,1.6541e+09,0,4.0259,4.9064,3.5656,0
50567,1.6541e+09,0,4.393,4.766,3.8409,0
50611,1.6541e+09,0,4.1754,4.7459,3.968,0
50656,1.6541e+09,0,4.0773,4.9624,3.8349,0
50698,1.6541e+09,0,4.5334,4.7503,3.7148,0
50744,1.6541e+09,0,4.635,4.8982,3.8166,0
50791,1.6541e+09,0,4.3825,4.8765,3.8605,0
50836,1.6542e+09,0,4.4501,4.6696,3.8627,0
50884,1.6542e+09,0,4.3564,5.1494,3.8244,0
50930,1.6542e+09,0,4.1013,4.9827,3.745,0
50975,1.6542e+09,0,4.1421,4.8296,3.6934,0
51018,1.6542e+09,0,4.1987,4.9139,3.4778,0
51063,1.6542e+09,0,4.0485,4.7324,3.4896,0
51105,1.6542e+09,0,3.8121,4.9315,3.4893,0
51150,1.6542e+09,0,4.0161,4.8529,3.4271,0
51195,1.6542e+09,0,4.2264,4.9604,3.2856,0
51242,1.6543e+09,0,4.0587,4.8725,3.2025,0
51286,1.6543e+09,0,3.8458,4.9824,3.1164,0
51335,1.6543e+09,0,3.9889,4.7787,3.1388,0
51380,1.6543e+09,0,4.0688,4.9003,3.1231,0
51425,1.6543e+09,0,3.8813,4.8848,3.1046,0
51469,1.6543e+09,0,3.7427,4.9547,3.0112,0
51515,1.6543e+09,0,4.0401,5.2108,2.938,0
51559,1.6543e+09,0,3.8753,5.1355,2.8819,0
51603,1.6543e+09,0,3.6606,5.0491,2.7431,0
51650,1.6544e+09,0,3.7915,4.8745,2.7125,0
51692,1.6544e+09,0,3.7273,5.1052,2.9767,0
51740,1.6544e+09,0,3.6139,5.2599,3.0234,0
51785,1.6544e+09,0,3.7148,5.0918,2.929,0
51830,1.6544e+09,0,3.9561,5.3039,2.8672,0
51875,1.6544e+09,0,3.7114,5.1556,2.7983,0
51920,1.6544e+09,0,3.6232,4.9944,2.9141,0
51965,1.6544e+09,0,3.6492,5.1288,2.9909,0
52007,1.6545e+09,0,3.5887,5.381,3.0142,0
52052,1.6545e+09,0,3.4419,5.2679,2.8976,0
52096,1.6545e+09,0,3.4435,5.2424,2.9019,0
52141,1.6545e+09,0,3.396,5.1531,2.9083,0
52190,1.6545e+09,0,3.2836,4.9978,2.8695,0
52235,1.6545e+09,0,3.1353,4.8589,2.8014,0
52281,1.6545e+09,0,3.0117,5.008,2.8941,0
52325,1.6545e+09,0,3.1272,4.924,3.032,0
52367,1.6545e+09,0,3.2806,5.1972,3.0864,0
52412,1.6546e+09,0,3.2174,5.3854,2.9822,0
52460,1.6546e+09,0,3.1012,5.1319,3.0328,0
52503,1.6546e+09,0,3.0153,5.3555,3.2936,0
52545,1.6546e+09,0,2.9507,5.6891,3.2809,0
52592,1.6546e+09,0,2.8508,5.4939,3.3402,0
52634,1.6546e+09,0,3.0468,5.4463,3.3304,0
52677,1.6546e+09,0,3.3558,5.5424,3.2043,0
52721,1.6546e+09,0,3.3766,5.4648,3.1023,0
52760,1.6546e+09,0,3.2969,5.2503,3.4641,0
52805,1.6547e+09,0,3.7294,5.2427,3.4577,0
52847,1.6547e+09,0,3.6151,5.4062,3.3756,0
52889,1.6547e+09,0,3.4037,5.5204,3.2605,0
52931,1.6547e+09,0,3.4936,5.3538,3.2462,0
52976,1.6547e+09,0,3.6922,5.1251,3.3234,0
53023,1.6547e+09,0,3.614,5.2463,3.2912,0
53066,1.6547e+09,0,3.5678,5.2583,3.3784,0
53110,1.6547e+09,0,4.0025,5.1142,3.2399,0
53153,1.6547e+09,0,4.4143,5.2312,3.1718,0
53192,1.6548e+09,0,4.2051,5.3836,3.2099,0
53231,1.6548e+09,0,4.0027,5.2478,3.0417,0
53275,1.6548e+09,0,3.8874,5.1628,3.2728,0
53319,1.6548e+09,0,3.6779,5.5543,3.3841,0
53364,1.6548e+09,0,3.4556,5.5934,3.4034,0
53408,1.6548e+09,0,3.5679,5.4586,3.3634,0
53457,1.6548e+09,0,3.8088,5.312,3.2269,0
53501,1.6548e+09,0,3.8978,5.4747,3.105,0
53547,1.6548e+09,0,3.8009,5.3717,2.9831,0
53593,1.6548e+09,0,3.8695,5.2885,3.0241,0
53637,1.6549e+09,0,3.9868,5.3002,2.9539,0
53682,1.6549e+09,0,3.7919,5.4494,2.9921,0
53727,1.6549e+09,0,3.8003,5.2597,2.9779,0
53771,1.6549e+09,0,3.8825,5.3795,2.8962,0
53816,1.6549e+09,0,3.8105,5.428,2.9071,0
53864,1.6549e+09,0,3.6386,5.5471,2.9226,0
53909,1.6549e+09,0,3.4858,5.4053,2.8598,0
53953,1.6549e+09,0,3.5721,5.2814,3.1601,0
54002,1.6549e+09,0,3.6897,5.2015,3.0821,0
54042,1.655e+09,0,3.5751,5.4014,3.0621,0
54081,1.655e+09,0,3.311,5.5344,2.9742,0
54125,1.655e+09,0,3.322,5.4851,3.0164,0
54170,1.655e+09,0,3.4972,5.388,2.9942,0
54215,1.655e+09,0,3.3719,5.473,2.9535,0
54259,1.655e+09,0,3.2639,5.2741,2.9383,0
54308,1.655e+09,0,3.3633,5.1659,2.9266,0
54352,1.655e+09,0,3.6389,5.285,2.8872,0
54398,1.655e+09,0,3.5333,5.2681,2.8662,0
54444,1.6551e+09,0,3.3195,5.6219,3.0574,0
54485,1.6551e+09,0,3.2518,5.4544,3.0498,0
54530,1.6551e+09,0,3.2134,5.3612,3.3219,0
54575,1.6551e+09,0,3.0957,5.7779,3.6036,0
54620,1.6551e+09,0,3.1477,5.6042,3.5648,0
54665,1.6551e+09,0,3.1677,5.5077,3.5455,0
54710,1.6551e+09,0,3.1994,5.5981,3.4278,0
54758,1.6551e+09,0,3.0498,5.5738,3.3622,0
54806,1.6551e+09,0,2.936,5.4758,3.3997,0
54847,1.6552e+09,0,2.8388,5.4212,3.6033,0
54892,1.6552e+09,0,2.7572,5.5342,3.7125,0
54931,1.6552e+09,0,2.9261,5.4727,3.5872,0
54978,1.6552e+09,0,2.9003,5.5093,3.4267,0
55022,1.6552e+09,0,2.8695,5.4831,3.3168,0
55067,1.6552e+09,0,3.1408,5.498,3.1877,0
55113,1.6552e+09,0,3.1309,5.5934,3.1183,0
55157,1.6552e+09,0,2.9399,5.6415,3.1008,0
55205,1.6552e+09,0,2.992,5.4523,3.1841,0
55249,1.6553e+09,0,3.7549,5.416,3.1552,0
55295,1.6553e+09,0,3.8526,5.335,3.1002,0
55339,1.6553e+09,0,3.6577,5.2568,3.0551,0
55378,1.6553e+09,0,3.4802,5.3195,3.0399,0
55422,1.6553e+09,0,3.7542,5.2147,2.9412,0
55467,1.6553e+09,0,3.9286,5.1042,3.1466,0
55513,1.6553e+09,0,3.7605,5.385,3.1103,0
55557,1.6553e+09,0,3.7231,5.1493,3.0082,0
55606,1.6553e+09,0,3.8354,5.121,2.9335,0
55655,1.6554e+09,0,3.6539,5.133,3.1549,0
55701,1.6554e+09,0,3.5634,5.5569,3.4093,0
55743,1.6554e+09,0,3.4768,5.5563,3.5084,0
55787,1.6554e+09,0,3.474,5.7219,3.3935,0
55828,1.6554e+09,0,3.3082,5.453,3.4349,0
55873,1.6554e+09,0,3.2336,5.2661,3.5666,0
55917,1.6554e+09,0,3.4267,5.4451,3.5541,0
55961,1.6554e+09,0,3.3084,5.3805,3.3611,0
56007,1.6554e+09,0,3.1754,5.4324,3.3334,0
56051,1.6555e+09,0,3.0777,5.372,3.1797,0
56100,1.6555e+09,0,3.5217,5.1324,3.2433,0
56145,1.6555e+09,0,3.7839,5.4609,3.2304,0
56189,1.6555e+09,0,3.7534,5.5029,3.2946,0
56234,1.6555e+09,0,3.6948,5.5838,3.3759,0
56279,1.6555e+09,0,3.9663,5.3651,3.3492,0
56317,1.6555e+09,0,4.3257,5.4069,3.33,0
56362,1.6555e+09,0,4.2833,5.2207,3.371,0
56406,1.6555e+09,0,4.0375,5.3232,3.5477,0
56451,1.6555e+09,0,3.8878,5.4545,3.5313,0
56500,1.6556e+09,0,3.5642,5.1729,3.5625,0
56543,1.6556e+09,0,3.4884,5.3885,3.6019,0
56586,1.6556e+09,0,3.3407,5.2953,3.4373,0
56629,1.6556e+09,0,3.4768,5.469,3.4416,0
56672,1.6556e+09,0,3.2394,5.4343,3.3041,0
56715,1.6556e+09,0,3.3843,5.5269,3.1901,0
56757,1.6556e+09,0,3.3019,5.4283,3.0524,0
56800,1.6556e+09,0,3.1303,5.2523,3.1609,0
56844,1.6557e+09,0,2.9876,5.637,3.2083,0
56887,1.6557e+09,0,3.1245,5.4301,3.1201,0
56934,1.6557e+09,0,3.7004,5.2862,3.2458,0
56978,1.6557e+09,0,3.8222,5.7358,3.3634,0
57022,1.6557e+09,0,3.6752,5.6229,3.2766,0
57065,1.6557e+09,0,3.5059,5.4088,3.3376,0
57104,1.6557e+09,0,3.6215,5.3099,3.3724,0
57143,1.6557e+09,0,3.615,5.5098,3.2918,0
57186,1.6557e+09,0,3.4509,5.4725,3.34,0
57234,1.6558e+09,0,3.3954,5.402,3.2535,0
57275,1.6558e+09,0,3.3341,5.3166,3.3734,0
57321,1.6558e+09,0,3.1517,5.4438,3.3407,0
57370,1.6558e+09,0,3.0079,5.3429,3.5447,0
57414,1.6558e+09,0,3.0983,5.6513,3.7727,0
57459,1.6558e+09,0,3.3171,5.5156,3.7672,0
57504,1.6558e+09,0,3.1757,5.442,3.6521,0
57542,1.6558e+09,0,3.1288,5.7226,3.886,0
57587,1.6558e+09,0,2.9752,5.8388,3.8018,0
57634,1.6559e+09,0,2.8129,5.5896,3.6479,0
57678,1.6559e+09,0,2.6557,5.4372,3.5738,0
57723,1.6559e+09,0,2.7485,5.423,3.6229,0
57767,1.6559e+09,0,3.2456,5.2705,3.4837,0
57817,1.6559e+09,0,3.4147,5.6194,3.6932,0
57861,1.6559e+09,0,3.2097,5.6689,3.543,0
57907,1.6559e+09,0,3.0769,5.5462,3.4817,0
57952,1.6559e+09,0,3.1999,5.4006,3.4921,0
57993,1.6559e+09,0,3.5008,5.2027,3.3033,0
58038,1.6559e+09,0,3.5751,5.2834,3.5817,0
58082,1.656e+09,0,3.469,5.6027,3.5981,0
58127,1.656e+09,0,3.4509,5.3812,3.5766,0
58172,1.656e+09,0,3.3758,5.3585,3.4565,0
58220,1.656e+09,0,3.5526,5.336,3.475,0
58265,1.656e+09,0,3.6439,5.2763,3.4189,0
58309,1.656e+09,0,3.5132,5.3233,3.4347,0
58354,1.656e+09,0,3.3306,5.5565,3.4571,0
58397,1.656e+09,0,3.1586,5.4784,3.3392,0
58441,1.6561e+09,0,3.4252,5.2154,3.2349,0
58487,1.6561e+09,0,3.4321,5.4387,3.2966,0
58532,1.6561e+09,0,3.2473,5.3214,3.1807,0
58576,1.6561e+09,0,3.0764,5.389,3.1486,0
58622,1.6561e+09,0,3.08,5.3363,3.098,0
58671,1.6561e+09,0,3.4536,5.3622,3.0579,0
58715,1.6561e+09,0,3.5933,5.5502,3.2673,0
58760,1.6561e+09,0,3.4095,5.6999,3.3213,0
58805,1.6561e+09,0,3.3092,5.4344,3.4886,0
58850,1.6561e+09,0,3.1172,5.3188,3.5414,0
58894,1.6562e+09,0,3.0184,5.3883,3.7165,0
58933,1.6562e+09,0,2.8764,5.4611,3.6995,0
58977,1.6562e+09,0,2.9733,5.3296,3.5037,0
59023,1.6562e+09,0,2.9581,5.3928,3.3516,0
59067,1.6562e+09,0,2.977,5.2022,3.3597,0
59116,1.6562e+09,0,2.8597,5.2496,3.306,0
59162,1.6562e+09,0,2.723,5.3851,3.2166,0
59206,1.6562e+09,0,2.7477,5.2903,3.1419,0
59251,1.6562e+09,0,2.7313,5.2276,3.1731,0
59292,1.6563e+09,0,3.2748,4.9715,3.2389,0
59333,1.6563e+09,0,3.3786,5.2911,3.2727,0
59378,1.6563e+09,0,3.2109,5.4883,3.2764,0
59423,1.6563e+09,0,3.0962,5.388,3.2654,0
59467,1.6563e+09,0,3.4186,5.1787,3.1449,0
59513,1.6563e+09,0,3.3327,5.4473,3.2985,0
59561,1.6563e+09,0,3.155,5.3044,3.2449,0
59607,1.6563e+09,0,3.0253,5.1899,3.4684,0
59652,1.6563e+09,0,3.0891,5.3164,3.3882,0
59698,1.6564e+09,0,2.9984,5.2694,3.2643,0
59737,1.6564e+09,0,3.0236,5.2145,3.2017,0
59775,1.6564e+09,0,3.797,5.055,3.2302,0
59820,1.6564e+09,0,4.368,4.9925,3.142,0
59865,1.6564e+09,0,4.2956,4.9705,3.2177,0
59913,1.6564e+09,0,4.2349,5.2281,3.221,0
59958,1.6564e+09,0,4.2733,5.0809,3.1579,0
60006,1.6564e+09,0,4.2895,5.4702,3.0742,0
60051,1.6564e+09,0,4.1237,5.2596,3.033,0
60096,1.6565e+09,0,4.1148,4.9645,2.8839,0
60140,1.6565e+09,0,3.981,5.0556,2.9378,0
60182,1.6565e+09,0,3.8028,5.1336,2.8985,0
60224,1.6565e+09,0,3.5652,5.2284,2.8489,0
60268,1.6565e+09,0,3.4049,5.2372,2.8546,0
60314,1.6565e+09,0,3.2878,5.0941,2.8589,0
60359,1.6565e+09,0,3.0991,5.1353,2.99,0
60403,1.6565e+09,0,2.9861,5.0846,2.8387,0
60453,1.6565e+09,0,2.8454,5.4273,2.8303,0
60499,1.6565e+09,0,2.8688,5.3371,2.8859,0
60539,1.6566e+09,0,2.798,5.4185,2.919,0
60579,1.6566e+09,0,2.693,5.3127,2.8471,0
60615,1.6566e+09,0,2.5824,5.2121,2.7997,0
60657,1.6566e+09,0,2.4841,5.3423,2.9525,0
60700,1.6566e+09,0,2.4138,5.4315,2.9134,0
60743,1.6566e+09,0,2.4064,5.3074,2.8934,0
60786,1.6566e+09,0,2.4993,5.5773,2.9231,0
60828,1.6566e+09,0,2.5183,5.3464,2.8553,0
60876,1.6566e+09,0,2.3708,5.3007,2.9131,0
60919,1.6567e+09,0,2.3584,5.2366,3.2034,0
60962,1.6567e+09,0,2.6604,5.4463,3.2272,0
61007,1.6567e+09,0,2.7256,5.3085,3.2027,0
61046,1.6567e+09,0,2.5847,5.3814,3.0809,0
61085,1.6567e+09,0,2.5345,5.3702,3.0271,0
61129,1.6567e+09,0,2.7692,5.1612,3.0336,0
61171,1.6567e+09,0,2.6898,5.0078,3.0668,0
61215,1.6567e+09,0,2.6476,5.2818,3.1271,0
61259,1.6567e+09,0,3.4151,5.0467,3.0515,0
61305,1.6568e+09,0,3.7122,5.1099,3.3311,0
61350,1.6568e+09,0,3.6852,5.4242,3.2825,0
61392,1.6568e+09,0,3.5673,5.1834,3.1679,0
61437,1.6568e+09,0,3.5815,5.2772,3.23,0
61478,1.6568e+09,0,3.421,5.4548,3.4467,0
61524,1.6568e+09,0,3.2496,5.3833,3.4069,0
61566,1.6568e+09,0,3.456,5.2572,3.2966,0
61611,1.6568e+09,0,3.7215,5.2682,3.185,0
61655,1.6568e+09,0,3.6799,5.3152,3.1136,0
61700,1.6569e+09,0,3.615,5.0733,3.3241,0
61748,1.6569e+09,0,3.8517,5.3573,3.3633,0
61794,1.6569e+09,0,3.687,5.2893,3.2143,0
61838,1.6569e+09,0,3.4795,5.2587,3.2355,0
61883,1.6569e+09,0,3.5023,5.2051,3.2165,0
61921,1.6569e+09,0,3.9377,5.1094,3.1753,0
61965,1.6569e+09,0,3.8369,4.9583,3.041,0
62009,1.6569e+09,0,3.6997,4.9002,3.1819,0
62054,1.6569e+09,0,4.0272,4.9273,3.2514,0
62099,1.6569e+09,0,4.1951,5.0216,3.1901,0
62149,1.657e+09,0,3.8701,5.212,2.9696,0
62194,1.657e+09,0,3.8123,5.1526,2.946,0
62239,1.657e+09,0,4.0846,5.0953,3.1625,0
62285,1.657e+09,0,3.9224,5.2738,3.0663,0
62330,1.657e+09,0,3.9519,5.2465,3.0693,0
62375,1.657e+09,0,4.1169,5.4192,2.9645,0
62420,1.657e+09,0,3.9286,5.3711,2.8776,0
62464,1.657e+09,0,3.7588,5.327,2.8857,0
62509,1.6571e+09,0,4.1201,5.1506,2.8225,0
62553,1.6571e+09,0,4.2119,5.1712,2.7903,0
62602,1.6571e+09,0,3.9987,5.3284,2.8549,0
62648,1.6571e+09,0,4.0795,5.3024,2.7853,0
62692,1.6571e+09,0,4.3571,5.4342,2.7067,0
62737,1.6571e+09,0,4.1829,5.32,2.6826,0
62781,1.6571e+09,0,3.8604,5.0857,2.588,0
62828,1.6571e+09,0,4.0216,4.9021,2.7789,0
62872,1.6571e+09,0,4.0099,5.4163,2.9773,0
62919,1.6572e+09,0,3.7918,5.4414,2.9684,0
62963,1.6572e+09,0,3.9003,5.1964,2.8563,0
63012,1.6572e+09,0,3.8982,5.1165,2.8407,0
63056,1.6572e+09,0,3.7466,5.2672,2.8696,0
63102,1.6572e+09,0,3.5479,5.0386,2.8527,0
63147,1.6572e+09,0,3.6251,5.212,2.9652,0
63189,1.6572e+09,0,3.5623,5.2184,2.8359,0
63234,1.6572e+09,0,3.3833,5.1838,2.7993,0
63275,1.6572e+09,0,3.456,4.9457,2.7022,0
63319,1.6573e+09,0,3.6126,4.8949,2.6688,0
63363,1.6573e+09,0,3.5976,5.1502,2.8949,0
63408,1.6573e+09,0,3.4692,5.3668,2.9417,0
63457,1.6573e+09,0,3.5349,5.2266,2.8702,0
63502,1.6573e+09,0,3.6167,5.3173,2.7094,0
63548,1.6573e+09,0,3.5274,5.3458,2.6177,0
63592,1.6573e+09,0,3.5089,5.2225,2.5663,0
63634,1.6573e+09,0,3.37,5.0765,2.6307,0
63680,1.6573e+09,0,3.2824,5.294,2.8429,0
63722,1.6574e+09,0,3.1849,5.2779,2.7795,0
63764,1.6574e+09,0,3.0571,5.3419,2.6757,0
63805,1.6574e+09,0,2.9311,5.1458,2.7067,0
63850,1.6574e+09,0,2.8359,5.0436,2.8915,0
63899,1.6574e+09,0,2.7377,5.1629,2.7978,0
63943,1.6574e+09,0,2.6206,5.3426,2.7259,0
63988,1.6574e+09,0,2.7529,5.3531,2.8182,0
64033,1.6574e+09,0,2.8214,5.516,2.8373,0
64076,1.6574e+09,0,2.6951,5.4051,3.0167,0
64118,1.6575e+09,0,2.5546,5.286,2.9602,0
64162,1.6575e+09,0,2.5389,5.3015,3.1317,0
64207,1.6575e+09,0,2.5375,5.3939,3.0128,0
64254,1.6575e+09,0,2.4476,5.3081,2.9754,0
64298,1.6575e+09,0,2.4361,5.2901,3.1606,0
64347,1.6575e+09,0,2.5404,5.4406,3.0422,0
64391,1.6575e+09,0,2.4814,5.2832,3.0602,0
64436,1.6575e+09,0,2.3395,5.3232,3.0106,0
64483,1.6575e+09,0,2.6133,5.3783,3.1697,0
64527,1.6575e+09,0,2.8503,5.4175,2.9815,0
64568,1.6576e+09,0,2.8754,5.4718,2.8965,0
64606,1.6576e+09,0,2.7664,5.2854,2.8449,0
64651,1.6576e+09,0,2.9156,5.1302,2.7394,0
64696,1.6576e+09,0,2.9426,5.1263,2.8077,0
