LineNo,TimeUS,C,Roll,Pitch,Yaw,VN,VE,VD,dPD,PN,PE,PD,GX,GY,GZ,OH
312,1.6419e+09,1,-1.02,1.76,21.65,-0.0057435,-0.025473,0.032781,0.030946,14.44,0.61789,0.55653,-0.52,6.17,1.18,86.58
540,1.6419e+09,1,-1.02,1.76,21.66,-0.0070706,-0.027313,0.034446,0.032262,14.439,0.61648,0.55805,-0.5,5.99,1.14,86.58
994,1.642e+09,1,-1.01,1.81,21.68,-0.0050778,-0.02883,0.037512,0.033788,14.432,0.61336,0.56147,-0.48,5.74,1.1,86.58
1108,1.6421e+09,1,-1.01,1.84,21.7,-0.0031773,-0.028493,0.03905,0.034381,14.43,0.61221,0.56282,-0.47,5.65,1.08,86.58
1215,1.6422e+09,1,-1.02,1.97,21.73,-0.0019938,-0.028304,-0.073996,-0.065056,14.427,0.61035,0.55916,-0.46,5.54,1.06,86.58
1326,1.6422e+09,1,-1.04,2.19,21.76,-0.0048218,-0.027532,-0.32779,-0.29769,14.425,0.60908,0.54752,-0.46,5.43,1.04,86.58
1505,1.6423e+09,1,-1.05,2.23,21.77,-0.0056658,-0.029615,-0.32778,-0.29979,14.421,0.60756,0.53108,-0.45,5.37,1.03,86.58
1687,1.6423e+09,1,-1.05,2.28,21.77,-0.0090561,-0.032289,-0.32689,-0.31782,14.419,0.60642,0.51933,-0.45,5.4,1.03,86.58
1731,1.6423e+09,1,-1.05,2.29,21.78,-0.010454,-0.033045,-0.32539,-0.32157,14.418,0.60605,0.51576,-0.45,5.41,1.03,86.58
1776,1.6423e+09,1,-1.05,2.31,21.78,-0.012819,-0.033525,-0.32562,-0.32719,14.417,0.60569,0.5121,-0.46,5.44,1.04,86.58
1820,1.6423e+09,1,-1.05,2.32,21.78,-0.013742,-0.033887,-0.32509,-0.33106,14.417,0.60536,0.50891,-0.46,5.44,1.04,86.58
1865,1.6423e+09,1,-1.05,2.33,21.78,-0.016376,-0.034146,-0.32482,-0.33537,14.416,0.60496,0.50497,-0.45,5.41,1.03,86.58
1912,1.6424e+09,1,-1.04,2.35,21.78,-0.018175,-0.034726,-0.32485,-0.33837,14.414,0.60459,0.50138,-0.45,5.38,1.03,86.58
1955,1.6424e+09,1,-1.04,2.37,21.79,-0.019395,-0.035521,-0.32281,-0.33948,14.413,0.60405,0.49732,-0.45,5.39,1.03,86.58
1997,1.6424e+09,1,-1.04,2.38,21.8,-0.020942,-0.035639,-0.32141,-0.33301,14.411,0.60375,0.49545,-0.45,5.41,1.03,86.58
2045,1.6424e+09,1,-1.04,2.39,21.8,-0.022571,-0.036811,-0.32142,-0.32493,14.409,0.60345,0.49357,-0.46,5.44,1.04,86.58
2088,1.6424e+09,1,-1.04,2.41,21.8,-0.022854,-0.036958,-0.324,-0.31481,14.409,0.60304,0.49002,-0.46,5.44,1.04,86.58
2130,1.6424e+09,1,-1.05,2.42,21.81,-0.024631,-0.037465,-0.32469,-0.30458,14.407,0.60273,0.48803,-0.46,5.43,1.04,86.58
2176,1.6424e+09,1,-1.05,2.44,21.82,-0.025574,-0.037893,-0.32397,-0.28795,14.406,0.60226,0.48467,-0.46,5.46,1.04,86.58
2220,1.6424e+09,1,-1.05,2.45,21.82,-0.02757,-0.036888,-0.32141,-0.27484,14.404,0.60194,0.48257,-0.46,5.47,1.05,86.58
2262,1.6425e+09,1,-1.05,2.46,21.82,-0.028726,-0.037611,-0.32151,-0.26443,14.403,0.6016,0.48026,-0.46,5.48,1.05,86.58
2306,1.6425e+09,1,-1.05,2.47,21.83,-0.027632,-0.039912,-0.32011,-0.25544,14.402,0.6012,0.47701,-0.46,5.48,1.05,86.58
2348,1.6425e+09,1,-1.05,2.48,21.83,-0.029506,-0.040923,-0.31996,-0.24967,14.401,0.60083,0.47477,-0.46,5.43,1.04,86.58
2391,1.6425e+09,1,-1.05,2.49,21.83,-0.031421,-0.040107,-0.31958,-0.24398,14.4,0.60048,0.47269,-0.46,5.44,1.04,86.58
2434,1.6425e+09,1,-1.05,2.5,21.83,-0.032541,-0.039819,-0.31719,-0.23729,14.398,0.60014,0.47063,-0.46,5.46,1.04,86.58
2480,1.6425e+09,1,-1.05,2.52,21.83,-0.033059,-0.040737,-0.31606,-0.23073,14.398,0.59974,0.46741,-0.46,5.46,1.04,86.58
2524,1.6425e+09,1,-1.05,2.52,21.83,-0.034372,-0.041986,-0.31624,-0.22716,14.397,0.59935,0.46503,-0.46,5.46,1.04,86.58
2566,1.6425e+09,1,-1.05,2.54,21.84,-0.034781,-0.042554,-0.31664,-0.22464,14.395,0.59898,0.46286,-0.46,5.47,1.05,86.58
2609,1.6425e+09,1,-1.05,2.55,21.84,-0.036276,-0.043038,-0.31642,-0.22214,14.394,0.59861,0.46065,-0.46,5.49,1.05,86.58
2654,1.6425e+09,1,-1.04,2.56,21.84,-0.038636,-0.043366,-0.31637,-0.22107,14.393,0.59824,0.45846,-0.46,5.5,1.05,86.58
2702,1.6426e+09,1,-1.04,2.57,21.85,-0.041677,-0.044222,-0.31651,-0.21771,14.391,0.59759,0.4555,-0.46,5.5,1.05,86.58
2747,1.6426e+09,1,-1.04,2.58,21.85,-0.042929,-0.044764,-0.31669,-0.21356,14.389,0.59722,0.45466,-0.46,5.52,1.05,86.58
2792,1.6426e+09,1,-1.05,2.59,21.86,-0.044533,-0.044472,-0.31824,-0.20524,14.388,0.59681,0.45332,-0.46,5.54,1.06,86.58
2837,1.6426e+09,1,-1.05,2.6,21.86,-0.04579,-0.044976,-0.31691,-0.19237,14.387,0.59637,0.45019,-0.46,5.54,1.06,86.58
2886,1.6426e+09,1,-1.04,2.6,21.86,-0.047029,-0.045949,-0.31774,-0.18336,14.386,0.59599,0.44909,-0.47,5.54,1.06,86.58
2930,1.6426e+09,1,-1.05,2.61,21.86,-0.049399,-0.045281,-0.31806,-0.17603,14.384,0.59557,0.44763,-0.46,5.54,1.06,86.58
2977,1.6426e+09,1,-1.05,2.62,21.86,-0.051984,-0.045694,-0.31861,-0.17055,14.384,0.59512,0.44444,-0.46,5.54,1.06,86.58
3021,1.6426e+09,1,-1.05,2.63,21.86,-0.054647,-0.046937,-0.31746,-0.16444,14.382,0.59469,0.44288,-0.46,5.52,1.06,86.58
3066,1.6426e+09,1,-1.05,2.63,21.86,-0.056386,-0.046006,-0.31559,-0.15911,14.38,0.59431,0.44155,-0.46,5.53,1.06,86.58
3110,1.6427e+09,1,-1.05,2.64,21.87,-0.059233,-0.046122,-0.31437,-0.15741,14.379,0.59393,0.44018,-0.46,5.52,1.06,86.58
3155,1.6427e+09,1,-1.05,2.65,21.87,-0.060327,-0.044364,-0.31378,-0.15402,14.378,0.59344,0.43675,-0.46,5.52,1.06,86.58
3200,1.6427e+09,1,-1.05,2.66,21.87,-0.061415,-0.045551,-0.31351,-0.15315,14.377,0.59306,0.4353,-0.46,5.52,1.06,86.58
3244,1.6427e+09,1,-1.05,2.67,21.87,-0.064606,-0.046535,-0.31242,-0.15172,14.375,0.59268,0.43381,-0.46,5.54,1.06,86.58
3291,1.6427e+09,1,-1.05,2.67,21.87,-0.0655,-0.046307,-0.31243,-0.15269,14.374,0.5923,0.43223,-0.47,5.55,1.06,86.58
3341,1.6427e+09,1,-1.05,2.68,21.88,-0.066423,-0.048181,-0.31217,-0.15387,14.372,0.5919,0.43057,-0.47,5.56,1.06,86.58
3387,1.6427e+09,1,-1.05,2.69,21.88,-0.068969,-0.04917,-0.31083,-0.15297,14.372,0.59136,0.42715,-0.47,5.56,1.06,86.58
3431,1.6427e+09,1,-1.05,2.69,21.88,-0.070468,-0.048019,-0.30952,-0.15396,14.37,0.59096,0.42549,-0.47,5.57,1.06,86.58
3476,1.6427e+09,1,-1.05,2.7,21.88,-0.072238,-0.047528,-0.30946,-0.15657,14.369,0.59056,0.42377,-0.47,5.59,1.07,86.58
3521,1.6427e+09,1,-1.06,2.7,21.88,-0.075008,-0.049297,-0.30961,-0.16054,14.368,0.59016,0.42195,-0.47,5.59,1.07,86.58
3568,1.6428e+09,1,-1.05,2.7,21.89,-0.076556,-0.050443,-0.30775,-0.162,14.366,0.58954,0.42043,-0.47,5.6,1.07,86.58
3610,1.6428e+09,1,-1.06,2.71,21.89,-0.078404,-0.051255,-0.30745,-0.1605,14.365,0.58903,0.41735,-0.47,5.6,1.07,86.58
3654,1.6428e+09,1,-1.06,2.72,21.89,-0.080533,-0.0511,-0.30565,-0.1555,14.363,0.58855,0.41669,-0.47,5.58,1.07,86.58
3700,1.6428e+09,1,-1.06,2.72,21.89,-0.081409,-0.051246,-0.30272,-0.14621,14.362,0.58812,0.41621,-0.47,5.61,1.07,86.58
3745,1.6428e+09,1,-1.07,2.73,21.89,-0.083962,-0.05143,-0.30274,-0.13743,14.36,0.5877,0.4156,-0.47,5.64,1.08,86.58
3793,1.6428e+09,1,-1.06,2.73,21.89,-0.084908,-0.051346,-0.30122,-0.13003,14.359,0.58722,0.41462,-0.47,5.63,1.08,86.58
3838,1.6428e+09,1,-1.07,2.74,21.89,-0.085413,-0.051983,-0.30061,-0.12527,14.358,0.5867,0.41161,-0.47,5.63,1.08,86.58
3882,1.6428e+09,1,-1.06,2.75,21.89,-0.086895,-0.052087,-0.29977,-0.12364,14.356,0.58626,0.41084,-0.47,5.59,1.07,86.58
3927,1.6428e+09,1,-1.07,2.76,21.9,-0.089616,-0.052425,-0.29945,-0.12521,14.355,0.58583,0.40998,-0.47,5.58,1.07,86.58
3972,1.6429e+09,1,-1.07,2.77,21.9,-0.091392,-0.053743,-0.29869,-0.12293,14.354,0.58524,0.4067,-0.47,5.58,1.07,86.58
4016,1.6429e+09,1,-1.07,2.77,21.9,-0.091995,-0.054874,-0.29804,-0.12272,14.352,0.58478,0.40576,-0.47,5.58,1.07,86.58
4061,1.6429e+09,1,-1.07,2.78,21.91,-0.09297,-0.055827,-0.29556,-0.12038,14.351,0.58431,0.4048,-0.47,5.59,1.07,86.58
4105,1.6429e+09,1,-1.07,2.79,21.91,-0.09444,-0.05662,-0.29344,-0.11991,14.349,0.58378,0.40349,-0.47,5.6,1.07,86.58
4150,1.6429e+09,1,-1.07,2.79,21.91,-0.096027,-0.055931,-0.29233,-0.11894,14.348,0.5833,0.4024,-0.47,5.63,1.08,86.58
4195,1.6429e+09,1,-1.07,2.8,21.92,-0.09673,-0.056241,-0.29016,-0.11766,14.347,0.58282,0.40121,-0.47,5.64,1.08,86.58
4244,1.6429e+09,1,-1.07,2.8,21.92,-0.099034,-0.056993,-0.29159,-0.11897,14.346,0.58219,0.39802,-0.47,5.64,1.08,86.58
4289,1.6429e+09,1,-1.07,2.81,21.92,-0.1008,-0.057854,-0.29294,-0.12176,14.344,0.58176,0.39707,-0.47,5.65,1.08,86.58
4333,1.6429e+09,1,-1.07,2.81,21.92,-0.10231,-0.058715,-0.2955,-0.12753,14.343,0.5812,0.39541,-0.47,5.66,1.08,86.58
4376,1.6429e+09,1,-1.07,2.82,21.93,-0.10333,-0.058228,-0.29415,-0.12828,14.341,0.58073,0.39362,-0.48,5.67,1.09,86.58
4418,1.643e+09,1,-1.07,2.83,21.93,-0.10336,-0.058266,-0.2933,-0.12694,14.34,0.58049,0.39295,-0.48,5.69,1.09,86.58
4461,1.643e+09,1,-1.07,2.83,21.93,-0.10447,-0.060004,-0.29194,-0.12694,14.339,0.5799,0.39003,-0.48,5.69,1.09,86.58
4505,1.643e+09,1,-1.07,2.84,21.93,-0.10563,-0.061121,-0.2907,-0.12799,14.338,0.57957,0.389,-0.47,5.64,1.08,86.58
4547,1.643e+09,1,-1.07,2.84,21.93,-0.10707,-0.060442,-0.29097,-0.12896,14.336,0.57929,0.38818,-0.48,5.66,1.08,86.58
4590,1.643e+09,1,-1.07,2.85,21.93,-0.10885,-0.06008,-0.29063,-0.12884,14.335,0.579,0.38724,-0.48,5.68,1.09,86.58
4632,1.643e+09,1,-1.07,2.85,21.93,-0.10893,-0.0603,-0.28917,-0.12873,14.334,0.5787,0.38623,-0.48,5.68,1.09,86.58
4681,1.643e+09,1,-1.07,2.85,21.93,-0.11013,-0.06076,-0.28754,-0.12613,14.333,0.5781,0.38335,-0.48,5.68,1.09,86.58
4724,1.643e+09,1,-1.07,2.86,21.94,-0.1116,-0.061478,-0.28752,-0.12766,14.332,0.57773,0.38198,-0.48,5.68,1.09,86.58
4767,1.643e+09,1,-1.07,2.86,21.93,-0.11221,-0.062021,-0.28613,-0.1278,14.33,0.5774,0.38083,-0.48,5.69,1.09,86.58
4810,1.6431e+09,1,-1.07,2.87,21.94,-0.11427,-0.061712,-0.28487,-0.12912,14.329,0.57699,0.37929,-0.48,5.7,1.09,86.58
4852,1.6431e+09,1,-1.07,2.87,21.94,-0.11594,-0.062017,-0.28641,-0.13438,14.328,0.57665,0.37802,-0.48,5.7,1.09,86.58
4895,1.6431e+09,1,-1.07,2.87,21.94,-0.11768,-0.062867,-0.28739,-0.13717,14.327,0.57603,0.37517,-0.48,5.7,1.09,86.58
4938,1.6431e+09,1,-1.07,2.88,21.94,-0.12007,-0.062416,-0.28782,-0.14071,14.325,0.57568,0.37382,-0.48,5.71,1.09,86.58
4981,1.6431e+09,1,-1.07,2.88,21.94,-0.12053,-0.062575,-0.28579,-0.1412,14.324,0.57524,0.37208,-0.48,5.74,1.1,86.58
5024,1.6431e+09,1,-1.07,2.88,21.94,-0.12126,-0.062523,-0.28447,-0.14443,14.323,0.57487,0.3706,-0.48,5.73,1.1,86.58
5067,1.6431e+09,1,-1.07,2.89,21.94,-0.12253,-0.063986,-0.28404,-0.149,14.322,0.57425,0.36777,-0.48,5.73,1.1,86.58
5114,1.6431e+09,1,-1.07,2.89,21.94,-0.12406,-0.06421,-0.28199,-0.15252,14.32,0.57384,0.36621,-0.48,5.71,1.09,86.58
5157,1.6431e+09,1,-1.07,2.9,21.95,-0.1262,-0.064738,-0.28177,-0.15677,14.319,0.57339,0.36442,-0.48,5.74,1.1,86.58
5200,1.6431e+09,1,-1.06,2.9,21.95,-0.12722,-0.063782,-0.28164,-0.16128,14.318,0.57298,0.3628,-0.48,5.74,1.1,86.58
5240,1.6432e+09,1,-1.07,2.91,21.95,-0.12919,-0.064075,-0.28046,-0.1639,14.317,0.57272,0.36235,-0.48,5.75,1.1,86.58
5284,1.6432e+09,1,-1.07,2.91,21.95,-0.13009,-0.064839,-0.28061,-0.16107,14.315,0.57244,0.36176,-0.48,5.77,1.1,86.58
5329,1.6432e+09,1,-1.07,2.92,21.95,-0.13153,-0.065948,-0.27877,-0.15589,14.314,0.5722,0.36133,-0.48,5.77,1.1,86.58
5373,1.6432e+09,1,-1.07,2.92,21.95,-0.13343,-0.066524,-0.27874,-0.14832,14.313,0.57154,0.35857,-0.48,5.77,1.1,86.58
5418,1.6432e+09,1,-1.07,2.93,21.95,-0.13395,-0.067403,-0.27625,-0.13913,14.311,0.5712,0.35776,-0.49,5.78,1.11,86.58
5462,1.6432e+09,1,-1.06,2.93,21.96,-0.13432,-0.066697,-0.27389,-0.13152,14.31,0.57092,0.35718,-0.49,5.79,1.11,86.58
5507,1.6432e+09,1,-1.06,2.94,21.96,-0.13601,-0.067115,-0.27068,-0.12175,14.309,0.57063,0.35652,-0.49,5.81,1.11,86.58
5556,1.6432e+09,1,-1.06,2.94,21.96,-0.13689,-0.068288,-0.26977,-0.11666,14.308,0.57033,0.3558,-0.49,5.81,1.11,86.58
5601,1.6432e+09,1,-1.06,2.94,21.97,-0.1387,-0.068128,-0.26846,-0.11168,14.306,0.56964,0.3531,-0.49,5.81,1.11,86.58
5645,1.6432e+09,1,-1.07,2.95,21.97,-0.14004,-0.068488,-0.26666,-0.10834,14.305,0.56932,0.35232,-0.49,5.8,1.11,86.58
5690,1.6433e+09,1,-1.07,2.95,21.97,-0.14045,-0.06846,-0.26692,-0.10987,14.304,0.56891,0.35116,-0.49,5.79,1.11,86.58
5735,1.6433e+09,1,-1.07,2.96,21.97,-0.14258,-0.068798,-0.26712,-0.11193,14.302,0.56823,0.34853,-0.49,5.79,1.11,86.58
5779,1.6433e+09,1,-1.07,2.96,21.97,-0.14296,-0.068575,-0.26833,-0.12052,14.301,0.5678,0.34731,-0.48,5.71,1.09,86.58
5827,1.6433e+09,1,-1.06,2.97,21.97,-0.14399,-0.068963,-0.26972,-0.1274,14.299,0.56705,0.34434,-0.48,5.71,1.09,86.58
5872,1.6433e+09,1,-1.06,2.97,21.97,-0.14393,-0.068956,-0.26962,-0.13351,14.298,0.5667,0.34334,-0.48,5.68,1.09,86.58
5917,1.6433e+09,1,-1.06,2.97,21.98,-0.14558,-0.068641,-0.27092,-0.14135,14.297,0.566,0.34063,-0.48,5.68,1.09,86.58
5961,1.6433e+09,1,-1.06,2.98,21.98,-0.14659,-0.06943,-0.26967,-0.14555,14.295,0.56565,0.33957,-0.47,5.65,1.08,86.58
6011,1.6433e+09,1,-1.05,2.99,21.98,-0.14854,-0.070048,-0.26959,-0.14822,14.294,0.56527,0.33841,-0.48,5.67,1.09,86.58
6055,1.6433e+09,1,-1.05,2.99,21.99,-0.14924,-0.070322,-0.2671,-0.1464,14.293,0.56522,0.33807,-0.48,5.68,1.09,86.58
6098,1.6434e+09,1,-1.05,3,22,-0.15008,-0.069613,-0.26632,-0.1409,14.292,0.56515,0.33759,-0.48,5.7,1.09,86.58
6142,1.6434e+09,1,-1.05,3.01,22,-0.15095,-0.06861,-0.26514,-0.13519,14.29,0.56514,0.3373,-0.48,5.71,1.09,86.58
6187,1.6434e+09,1,-1.06,3.01,22,-0.15188,-0.069139,-0.26438,-0.12922,14.289,0.5651,0.33689,-0.48,5.72,1.1,86.58
6234,1.6434e+09,1,-1.06,3.02,21.99,-0.15443,-0.069695,-0.26446,-0.11808,14.288,0.56477,0.33539,-0.48,5.74,1.1,86.58
6279,1.6434e+09,1,-1.05,3.03,21.98,-0.15506,-0.070352,-0.26491,-0.11396,14.287,0.56475,0.33508,-0.48,5.76,1.1,86.58
6323,1.6434e+09,1,-1.05,3.04,21.97,-0.15589,-0.069762,-0.26327,-0.10539,14.285,0.5646,0.33419,-0.49,5.78,1.11,86.58
6368,1.6434e+09,1,-1.06,3.04,21.96,-0.15661,-0.070243,-0.26266,-0.098375,14.284,0.56392,0.33158,-0.49,5.78,1.11,86.58
6415,1.6434e+09,1,-1.06,3.05,21.95,-0.15589,-0.071074,-0.26328,-0.096098,14.282,0.56373,0.33058,-0.49,5.78,1.11,86.58
6462,1.6434e+09,1,-1.07,3.05,21.95,-0.15653,-0.071671,-0.263,-0.094901,14.281,0.56351,0.3295,-0.49,5.78,1.11,86.58
6506,1.6434e+09,1,-1.08,3.05,21.95,-0.15681,-0.07177,-0.26306,-0.096074,14.28,0.56333,0.32861,-0.49,5.78,1.11,86.58
6550,1.6435e+09,1,-1.08,3.06,21.95,-0.15809,-0.072747,-0.26416,-0.099035,14.279,0.56312,0.32763,-0.49,5.8,1.11,86.58
6598,1.6435e+09,1,-1.08,3.07,21.96,-0.15827,-0.0732,-0.26045,-0.095363,14.277,0.56268,0.32595,-0.49,5.82,1.12,86.58
6642,1.6435e+09,1,-1.07,3.07,21.97,-0.16142,-0.073748,-0.26212,-0.099014,14.276,0.56196,0.32334,-0.49,5.82,1.12,86.58
6687,1.6435e+09,1,-1.08,3.08,21.99,-0.16372,-0.074606,-0.26125,-0.10135,14.274,0.56171,0.32236,-0.49,5.81,1.11,86.58
6732,1.6435e+09,1,-1.08,3.09,22,-0.16526,-0.074257,-0.26019,-0.10235,14.273,0.56145,0.32136,-0.49,5.83,1.12,86.58
6777,1.6435e+09,1,-1.08,3.09,22.01,-0.16673,-0.07382,-0.26148,-0.11062,14.272,0.56108,0.31999,-0.49,5.79,1.11,86.58
6822,1.6435e+09,1,-1.08,3.1,22.01,-0.16922,-0.073573,-0.26085,-0.11428,14.27,0.56035,0.31737,-0.49,5.79,1.11,86.58
6870,1.6435e+09,1,-1.08,3.1,22.01,-0.17061,-0.074403,-0.26089,-0.11932,14.269,0.56004,0.31621,-0.49,5.8,1.11,86.58
6917,1.6435e+09,1,-1.07,3.1,22,-0.17101,-0.073563,-0.2604,-0.12291,14.267,0.55964,0.3147,-0.49,5.83,1.12,86.58
6960,1.6436e+09,1,-1.07,3.1,21.99,-0.17527,-0.07342,-0.26136,-0.13365,14.265,0.5593,0.3133,-0.48,5.76,1.1,86.58
7002,1.6436e+09,1,-1.06,3.11,21.98,-0.17666,-0.075953,-0.25891,-0.13357,14.264,0.55935,0.31333,-0.48,5.77,1.1,86.58
7050,1.6436e+09,1,-1.06,3.11,21.98,-0.17607,-0.076699,-0.25846,-0.12868,14.262,0.55843,0.31023,-0.48,5.77,1.1,86.58
7093,1.6436e+09,1,-1.07,3.13,21.96,-0.17516,-0.075322,-0.25831,-0.12426,14.261,0.55836,0.30996,-0.48,5.75,1.1,86.58
7135,1.6436e+09,1,-1.07,3.13,21.96,-0.17735,-0.073196,-0.25479,-0.11821,14.26,0.55835,0.30987,-0.48,5.74,1.1,86.58
7179,1.6436e+09,1,-1.06,3.13,21.95,-0.18,-0.073848,-0.25345,-0.1141,14.258,0.55825,0.30943,-0.48,5.74,1.1,86.58
7222,1.6436e+09,1,-1.07,3.16,21.96,-0.18161,-0.07473,-0.25542,-0.11019,14.257,0.55751,0.3069,-0.48,5.74,1.1,86.58
7268,1.6436e+09,1,-1.08,3.16,21.97,-0.18078,-0.077454,-0.253,-0.11023,14.255,0.55745,0.30662,-0.48,5.68,1.09,86.58
7311,1.6436e+09,1,-1.07,3.16,21.98,-0.18281,-0.077108,-0.25264,-0.10747,14.254,0.55668,0.30412,-0.48,5.68,1.09,86.58
7354,1.6437e+09,1,-1.08,3.18,21.99,-0.18553,-0.072082,-0.25418,-0.1078,14.252,0.55655,0.3035,-0.48,5.68,1.09,86.58
7399,1.6437e+09,1,-1.07,3.17,22,-0.18637,-0.068669,-0.24913,-0.10085,14.251,0.5565,0.30305,-0.48,5.7,1.09,86.58
7441,1.6437e+09,1,-1.06,3.19,22.01,-0.18809,-0.071482,-0.24949,-0.099263,14.25,0.55644,0.30253,-0.48,5.71,1.09,86.58
7481,1.6437e+09,1,-1.07,3.2,22.01,-0.18883,-0.077147,-0.25183,-0.10106,14.249,0.55628,0.30187,-0.48,5.71,1.09,86.58
7523,1.6437e+09,1,-1.08,3.21,22.02,-0.18985,-0.077055,-0.24987,-0.096652,14.247,0.55551,0.29939,-0.48,5.71,1.09,86.58
7567,1.6437e+09,1,-1.09,3.21,22.01,-0.19247,-0.07021,-0.24887,-0.09442,14.245,0.55528,0.29862,-0.48,5.73,1.1,86.58
7610,1.6437e+09,1,-1.05,3.22,22.01,-0.19464,-0.070725,-0.25154,-0.096772,14.244,0.55515,0.29798,-0.48,5.73,1.1,86.58
7653,1.6437e+09,1,-1.06,3.23,21.99,-0.19314,-0.079345,-0.24948,-0.094737,14.242,0.55493,0.29727,-0.48,5.74,1.1,86.58
7705,1.6437e+09,1,-1.07,3.24,22,-0.19544,-0.080574,-0.25058,-0.096628,14.241,0.55447,0.29596,-0.48,5.74,1.1,86.58
7751,1.6437e+09,1,-1.08,3.23,21.97,-0.19934,-0.073844,-0.24784,-0.092829,14.239,0.55437,0.296,-0.48,5.76,1.1,86.58
7793,1.6438e+09,1,-1.06,3.26,21.98,-0.20072,-0.076495,-0.24713,-0.084573,14.239,0.55444,0.29638,-0.49,5.78,1.11,86.58
7839,1.6438e+09,1,-1.06,3.25,21.96,-0.19793,-0.086531,-0.24863,-0.078916,14.237,0.55364,0.29394,-0.49,5.78,1.11,86.58
7886,1.6438e+09,1,-1.08,3.26,21.98,-0.19759,-0.081954,-0.24935,-0.072555,14.236,0.55365,0.29453,-0.48,5.76,1.1,86.58
7931,1.6438e+09,1,-1.1,3.24,21.98,-0.20389,-0.074768,-0.24536,-0.060806,14.235,0.55362,0.29479,-0.48,5.77,1.11,86.58
7975,1.6438e+09,1,-1.07,3.27,21.99,-0.2051,-0.07694,-0.24705,-0.052826,14.234,0.55367,0.29508,-0.49,5.79,1.11,86.58
8020,1.6438e+09,1,-1.08,3.26,21.97,-0.2008,-0.085544,-0.24329,-0.040961,14.233,0.55363,0.29533,-0.49,5.81,1.11,86.58
8064,1.6438e+09,1,-1.1,3.29,22,-0.20163,-0.083236,-0.24378,-0.036285,14.232,0.55351,0.29539,-0.49,5.81,1.11,86.58
8109,1.6438e+09,1,-1.11,3.25,22,-0.20952,-0.075559,-0.24113,-0.02706,14.23,0.55275,0.29304,-0.49,5.81,1.11,86.58
8159,1.6438e+09,1,-1.08,3.31,22,-0.20978,-0.074262,-0.24401,-0.026598,14.229,0.55272,0.29299,-0.49,5.81,1.11,86.58
8203,1.6439e+09,1,-1.06,3.28,21.98,-0.20657,-0.080493,-0.24385,-0.029226,14.227,0.55196,0.2906,-0.49,5.81,1.11,86.58
8249,1.6439e+09,1,-1.08,3.32,22,-0.20423,-0.079647,-0.24039,-0.02982,14.226,0.55174,0.29022,-0.48,5.76,1.1,86.58
8293,1.6439e+09,1,-1.05,3.29,21.99,-0.21212,-0.079521,-0.24469,-0.036208,14.225,0.55162,0.29004,-0.49,5.78,1.11,86.58
8339,1.6439e+09,1,-1.06,3.33,22,-0.20995,-0.079392,-0.23662,-0.030561,14.224,0.55147,0.28969,-0.49,5.79,1.11,86.58
8383,1.6439e+09,1,-1.02,3.31,21.97,-0.20775,-0.082433,-0.24373,-0.041568,14.223,0.55127,0.28941,-0.49,5.79,1.11,86.58
8428,1.6439e+09,1,-1.06,3.34,21.98,-0.20859,-0.081298,-0.23597,-0.037235,14.221,0.55046,0.28704,-0.49,5.79,1.11,86.58
8473,1.6439e+09,1,-1.02,3.32,21.97,-0.21654,-0.083279,-0.24312,-0.04922,14.219,0.55016,0.28647,-0.49,5.78,1.11,86.58
8518,1.6439e+09,1,-1.05,3.33,21.97,-0.21356,-0.084645,-0.23364,-0.042459,14.218,0.5499,0.28598,-0.49,5.81,1.11,86.58
8563,1.6439e+09,1,-1.03,3.35,21.96,-0.21366,-0.084788,-0.2409,-0.053838,14.217,0.54959,0.28544,-0.49,5.81,1.11,86.58
8611,1.6439e+09,1,-1.08,3.34,21.97,-0.216,-0.082459,-0.23241,-0.052393,14.215,0.54927,0.28481,-0.49,5.8,1.11,86.58
8655,1.644e+09,1,-1.05,3.36,21.97,-0.22237,-0.084491,-0.24082,-0.066168,14.213,0.54835,0.2822,-0.49,5.8,1.11,86.58
8696,1.644e+09,1,-1.07,3.35,21.97,-0.21841,-0.086991,-0.2324,-0.059055,14.213,0.54838,0.28287,-0.49,5.81,1.11,86.58
8741,1.644e+09,1,-1.08,3.38,21.99,-0.21833,-0.082748,-0.23632,-0.062465,14.212,0.54839,0.2834,-0.49,5.81,1.11,86.58
8787,1.644e+09,1,-1.08,3.34,21.98,-0.22333,-0.080367,-0.23298,-0.057787,14.212,0.54841,0.28399,-0.49,5.81,1.11,86.58
8828,1.644e+09,1,-1.07,3.39,21.99,-0.22059,-0.084016,-0.23495,-0.056806,14.211,0.5483,0.28415,-0.49,5.82,1.12,86.58
8874,1.644e+09,1,-1.08,3.37,21.98,-0.22051,-0.085715,-0.23474,-0.05039,14.209,0.54744,0.28183,-0.49,5.82,1.12,86.58
8918,1.644e+09,1,-1.1,3.39,21.99,-0.22025,-0.081604,-0.2326,-0.04396,14.209,0.54736,0.28212,-0.49,5.82,1.12,86.58
8962,1.644e+09,1,-1.07,3.38,21.97,-0.22697,-0.082093,-0.23673,-0.042287,14.208,0.5473,0.28231,-0.49,5.85,1.12,86.58
9008,1.644e+09,1,-1.08,3.39,21.97,-0.22221,-0.085267,-0.23323,-0.034342,14.207,0.54717,0.2823,-0.49,5.86,1.12,86.58
9056,1.644e+09,1,-1.07,3.41,21.95,-0.22376,-0.087388,-0.23856,-0.038096,14.207,0.54699,0.28225,-0.49,5.86,1.12,86.58
9102,1.6441e+09,1,-1.11,3.38,21.97,-0.22947,-0.083959,-0.23411,-0.033163,14.206,0.54679,0.28204,-0.49,5.88,1.13,86.58
9146,1.6441e+09,1,-1.08,3.41,21.96,-0.23451,-0.084986,-0.23784,-0.035469,14.203,0.54585,0.27943,-0.49,5.88,1.13,86.58
9191,1.6441e+09,1,-1.1,3.4,21.96,-0.22905,-0.089226,-0.22928,-0.028061,14.203,0.54561,0.27914,-0.49,5.88,1.13,86.58
9235,1.6441e+09,1,-1.09,3.41,21.95,-0.22716,-0.0904,-0.23162,-0.032796,14.202,0.54533,0.27902,-0.49,5.88,1.13,86.58
9280,1.6441e+09,1,-1.12,3.42,21.96,-0.23065,-0.08653,-0.23082,-0.034632,14.201,0.54503,0.27879,-0.5,5.89,1.13,86.58
9325,1.6441e+09,1,-1.1,3.43,21.95,-0.22744,-0.088225,-0.23299,-0.039037,14.2,0.54471,0.27843,-0.5,5.91,1.13,86.58
9369,1.6441e+09,1,-1.11,3.44,21.95,-0.22315,-0.093222,-0.23484,-0.042763,14.199,0.54424,0.27774,-0.5,5.93,1.14,86.58
9414,1.6441e+09,1,-1.13,3.43,21.96,-0.22717,-0.091852,-0.23141,-0.042737,14.198,0.54383,0.27718,-0.5,5.94,1.14,86.58
9459,1.6441e+09,1,-1.13,3.43,21.97,-0.23503,-0.091422,-0.23533,-0.049457,14.196,0.54342,0.27654,-0.5,5.97,1.14,86.58
9508,1.6441e+09,1,-1.16,3.44,21.98,-0.23599,-0.094463,-0.23185,-0.04882,14.194,0.5424,0.27396,-0.5,5.97,1.14,86.58
9552,1.6442e+09,1,-1.16,3.44,21.97,-0.23038,-0.093198,-0.23243,-0.056006,14.194,0.54232,0.27459,-0.5,5.99,1.15,86.58
9595,1.6442e+09,1,-1.14,3.44,21.98,-0.23646,-0.092851,-0.23278,-0.058683,14.194,0.5423,0.27512,-0.5,5.99,1.15,86.58
9638,1.6442e+09,1,-1.15,3.43,21.98,-0.235,-0.096694,-0.23027,-0.052732,14.191,0.54136,0.27277,-0.5,5.99,1.15,86.58
9680,1.6442e+09,1,-1.13,3.45,21.96,-0.23548,-0.09682,-0.23437,-0.054937,14.191,0.54118,0.27295,-0.5,5.99,1.15,86.58
9725,1.6442e+09,1,-1.16,3.42,21.96,-0.24003,-0.093117,-0.22732,-0.043757,14.19,0.54097,0.27297,-0.5,6,1.15,86.58
9767,1.6442e+09,1,-1.11,3.45,21.95,-0.2443,-0.09458,-0.2354,-0.048548,14.19,0.54082,0.2731,-0.51,6.01,1.15,86.58
9810,1.6442e+09,1,-1.13,3.42,21.95,-0.23812,-0.094619,-0.22726,-0.038925,14.19,0.54064,0.27312,-0.51,6.01,1.15,86.58
9853,1.6442e+09,1,-1.1,3.45,21.94,-0.23671,-0.094158,-0.23172,-0.042649,14.189,0.54041,0.27302,-0.51,6.02,1.15,86.58
9898,1.6442e+09,1,-1.12,3.41,21.94,-0.24357,-0.097129,-0.22871,-0.03739,14.186,0.53937,0.2705,-0.51,6.02,1.15,86.58
9942,1.6443e+09,1,-1.09,3.46,21.94,-0.24091,-0.10023,-0.23043,-0.039952,14.186,0.53911,0.27029,-0.5,6.01,1.15,86.58
9985,1.6443e+09,1,-1.09,3.45,21.94,-0.23997,-0.10159,-0.22882,-0.040741,14.185,0.53871,0.26979,-0.5,6.01,1.15,86.58
10030,1.6443e+09,1,-1.11,3.45,21.95,-0.24252,-0.098993,-0.2266,-0.041237,14.184,0.53839,0.26942,-0.51,6.02,1.15,86.58
10072,1.6443e+09,1,-1.09,3.45,21.95,-0.24985,-0.10053,-0.22849,-0.04702,14.184,0.53814,0.26946,-0.51,6.02,1.15,86.58
10115,1.6443e+09,1,-1.12,3.43,21.95,-0.24996,-0.10419,-0.22665,-0.046511,14.181,0.53704,0.26697,-0.51,6.02,1.15,86.58
10158,1.6443e+09,1,-1.12,3.47,21.96,-0.25171,-0.10398,-0.22879,-0.051939,14.18,0.53652,0.26651,-0.51,6.02,1.15,86.58
10202,1.6443e+09,1,-1.16,3.43,21.96,-0.25631,-0.10127,-0.22424,-0.049525,14.179,0.53607,0.26615,-0.51,6.03,1.16,86.58
10245,1.6443e+09,1,-1.13,3.5,21.97,-0.25312,-0.10197,-0.2281,-0.056896,14.178,0.53551,0.26547,-0.51,6.03,1.16,86.58
10289,1.6443e+09,1,-1.16,3.46,21.96,-0.24958,-0.10422,-0.22294,-0.057922,14.176,0.535,0.26496,-0.51,6.01,1.15,86.58
10335,1.6444e+09,1,-1.18,3.44,21.97,-0.25505,-0.10641,-0.22159,-0.060359,14.176,0.5345,0.26437,-0.51,6.03,1.16,86.58
10379,1.6444e+09,1,-1.14,3.47,21.96,-0.26188,-0.10633,-0.22735,-0.066118,14.176,0.53443,0.26461,-0.51,6.05,1.16,86.58
10424,1.6444e+09,1,-1.18,3.45,21.96,-0.26084,-0.1043,-0.221,-0.058391,14.173,0.53326,0.26216,-0.51,6.05,1.16,86.58
10470,1.6444e+09,1,-1.14,3.49,21.95,-0.25623,-0.10158,-0.22534,-0.062627,14.174,0.53312,0.2623,-0.51,6.02,1.15,86.58
10514,1.6444e+09,1,-1.17,3.46,21.95,-0.25771,-0.098101,-0.21835,-0.054791,14.174,0.53296,0.26232,-0.51,6.03,1.16,86.58
10559,1.6444e+09,1,-1.12,3.5,21.95,-0.25646,-0.097872,-0.22526,-0.061701,14.174,0.5328,0.26243,-0.51,6.03,1.16,86.58
10603,1.6444e+09,1,-1.12,3.49,21.94,-0.2469,-0.10278,-0.21768,-0.051614,14.173,0.53248,0.26217,-0.51,6.05,1.16,86.58
10648,1.6444e+09,1,-1.13,3.5,21.95,-0.24972,-0.10324,-0.21888,-0.051149,14.171,0.53147,0.25997,-0.51,6.05,1.16,86.58
10693,1.6444e+09,1,-1.12,3.48,21.95,-0.25679,-0.10562,-0.21691,-0.049007,14.171,0.53123,0.25989,-0.51,6.03,1.16,86.58
10738,1.6444e+09,1,-1.12,3.49,21.96,-0.25094,-0.1114,-0.21845,-0.049055,14.17,0.53095,0.25969,-0.51,6.06,1.16,86.58
10787,1.6445e+09,1,-1.13,3.49,21.95,-0.25135,-0.11272,-0.21716,-0.050421,14.17,0.53049,0.25923,-0.51,6.03,1.16,86.58
10832,1.6445e+09,1,-1.17,3.48,21.96,-0.25732,-0.10669,-0.21759,-0.054267,14.169,0.53,0.25866,-0.51,6.03,1.16,86.58
10877,1.6445e+09,1,-1.14,3.5,21.96,-0.26317,-0.10652,-0.22469,-0.062811,14.167,0.52892,0.25648,-0.51,6.03,1.16,86.58
10921,1.6445e+09,1,-1.18,3.47,21.96,-0.25815,-0.10707,-0.21502,-0.06139,14.166,0.52851,0.25606,-0.5,5.96,1.14,86.58
10966,1.6445e+09,1,-1.16,3.51,21.97,-0.26031,-0.10832,-0.22131,-0.072336,14.164,0.52739,0.25391,-0.5,5.96,1.14,86.58
11011,1.6445e+09,1,-1.2,3.47,21.97,-0.26393,-0.10347,-0.21512,-0.072414,14.163,0.52694,0.2534,-0.5,5.95,1.14,86.58
11055,1.6445e+09,1,-1.15,3.52,21.98,-0.26496,-0.1054,-0.22043,-0.083337,14.163,0.52652,0.25318,-0.5,5.95,1.14,86.58
11101,1.6445e+09,1,-1.19,3.49,21.96,-0.25845,-0.1067,-0.21044,-0.077245,14.162,0.52605,0.25284,-0.5,5.96,1.14,86.58
11146,1.6445e+09,1,-1.16,3.53,21.97,-0.25892,-0.11189,-0.21452,-0.082464,14.159,0.52485,0.25047,-0.5,5.96,1.14,86.58
11193,1.6446e+09,1,-1.15,3.53,21.96,-0.27356,-0.11155,-0.22043,-0.091288,14.157,0.52402,0.24941,-0.5,5.95,1.14,86.58
11238,1.6446e+09,1,-1.2,3.52,21.96,-0.26521,-0.11106,-0.21431,-0.083135,14.158,0.52386,0.24985,-0.5,5.95,1.14,86.58
11283,1.6446e+09,1,-1.17,3.57,21.95,-0.26402,-0.10855,-0.22303,-0.085911,14.159,0.52379,0.25039,-0.5,5.97,1.14,86.58
11329,1.6446e+09,1,-1.21,3.53,21.96,-0.26442,-0.10723,-0.21441,-0.070349,14.16,0.52357,0.25055,-0.5,5.97,1.14,86.58
11373,1.6446e+09,1,-1.16,3.58,21.96,-0.25985,-0.1113,-0.22104,-0.07169,14.16,0.52343,0.25082,-0.5,5.97,1.14,86.58
11421,1.6446e+09,1,-1.18,3.55,21.96,-0.25912,-0.11561,-0.21567,-0.058521,14.16,0.52289,0.25062,-0.5,5.97,1.15,86.58
11467,1.6446e+09,1,-1.22,3.51,21.97,-0.2664,-0.11006,-0.21434,-0.051116,14.157,0.52165,0.24823,-0.5,5.97,1.15,86.58
11512,1.6446e+09,1,-1.2,3.57,21.97,-0.26862,-0.11076,-0.21868,-0.05946,14.158,0.52147,0.24865,-0.49,5.88,1.13,86.58
11557,1.6446e+09,1,-1.23,3.52,21.96,-0.26097,-0.11595,-0.21179,-0.051018,14.155,0.52021,0.2463,-0.49,5.88,1.13,86.58
11602,1.6446e+09,1,-1.22,3.58,21.97,-0.26068,-0.11455,-0.21626,-0.054701,14.155,0.51993,0.24659,-0.49,5.87,1.13,86.58
11647,1.6447e+09,1,-1.25,3.54,21.97,-0.26485,-0.11281,-0.21018,-0.04683,14.156,0.51963,0.24678,-0.49,5.89,1.13,86.58
11696,1.6447e+09,1,-1.19,3.61,21.98,-0.25685,-0.11924,-0.21153,-0.04454,14.156,0.51916,0.2466,-0.5,5.91,1.13,86.58
11741,1.6447e+09,1,-1.21,3.59,21.98,-0.25633,-0.11879,-0.20668,-0.038076,14.156,0.51888,0.24681,-0.5,5.92,1.13,86.58
11786,1.6447e+09,1,-1.2,3.59,21.98,-0.25589,-0.11881,-0.20783,-0.038096,14.156,0.51834,0.24648,-0.5,5.92,1.14,86.58
11830,1.6447e+09,1,-1.18,3.6,21.98,-0.2624,-0.12036,-0.2065,-0.034792,14.153,0.51717,0.24443,-0.5,5.92,1.14,86.58
11872,1.6447e+09,1,-1.16,3.6,21.98,-0.2542,-0.12144,-0.20758,-0.036071,14.153,0.51671,0.24421,-0.5,5.92,1.14,86.58
11917,1.6447e+09,1,-1.16,3.62,21.97,-0.25734,-0.12175,-0.20783,-0.04097,14.151,0.5155,0.24217,-0.5,5.92,1.14,86.58
11963,1.6447e+09,1,-1.2,3.57,21.97,-0.26354,-0.11936,-0.20244,-0.040502,14.15,0.51486,0.24186,-0.49,5.86,1.12,86.58
12007,1.6447e+09,1,-1.14,3.64,21.98,-0.27056,-0.12315,-0.21001,-0.055848,14.148,0.51364,0.23982,-0.49,5.86,1.12,86.58
12053,1.6448e+09,1,-1.19,3.57,21.97,-0.26426,-0.12747,-0.20089,-0.054684,14.147,0.51307,0.2397,-0.48,5.78,1.11,86.58
12094,1.6448e+09,1,-1.17,3.66,21.98,-0.26344,-0.12927,-0.20603,-0.065379,14.148,0.51297,0.24012,-0.49,5.78,1.11,86.58
12141,1.6448e+09,1,-1.22,3.59,21.98,-0.27042,-0.12772,-0.20268,-0.062016,14.149,0.51293,0.24058,-0.49,5.8,1.11,86.58
12183,1.6448e+09,1,-1.2,3.66,21.99,-0.26226,-0.13091,-0.20383,-0.061222,14.15,0.51284,0.24091,-0.49,5.81,1.11,86.58
12227,1.6448e+09,1,-1.23,3.65,21.99,-0.26225,-0.13202,-0.20123,-0.052704,14.147,0.5114,0.23871,-0.49,5.81,1.11,86.58
12270,1.6448e+09,1,-1.24,3.65,21.99,-0.25902,-0.13131,-0.19711,-0.045068,14.147,0.51124,0.23896,-0.49,5.81,1.11,86.58
12312,1.6448e+09,1,-1.23,3.68,21.99,-0.26905,-0.13271,-0.20367,-0.048588,14.148,0.5109,0.23893,-0.49,5.81,1.12,86.58
12355,1.6448e+09,1,-1.26,3.63,21.99,-0.26285,-0.13495,-0.19744,-0.040993,14.148,0.51063,0.23896,-0.49,5.82,1.12,86.58
12401,1.6448e+09,1,-1.24,3.71,22,-0.26205,-0.13364,-0.20216,-0.042466,14.148,0.50991,0.23861,-0.49,5.83,1.12,86.58
12443,1.6448e+09,1,-1.26,3.64,22,-0.26977,-0.13299,-0.19662,-0.035685,14.145,0.50858,0.23664,-0.49,5.83,1.12,86.58
12488,1.6449e+09,1,-1.22,3.72,22.01,-0.25987,-0.13492,-0.19886,-0.037537,14.145,0.50821,0.23673,-0.49,5.81,1.11,86.58
12530,1.6449e+09,1,-1.24,3.7,22,-0.25789,-0.13647,-0.19531,-0.038203,14.145,0.50781,0.23684,-0.48,5.77,1.11,86.58
12577,1.6449e+09,1,-1.24,3.68,22,-0.25669,-0.13489,-0.19484,-0.038216,14.143,0.50644,0.23489,-0.48,5.77,1.11,86.58
12619,1.6449e+09,1,-1.22,3.72,22.01,-0.26682,-0.13775,-0.20005,-0.046985,14.142,0.50588,0.23472,-0.48,5.75,1.1,86.58
12661,1.6449e+09,1,-1.23,3.69,22,-0.26297,-0.14152,-0.19797,-0.049534,14.14,0.50447,0.2327,-0.48,5.75,1.1,86.58
12705,1.6449e+09,1,-1.22,3.74,22,-0.26263,-0.1425,-0.20127,-0.05692,14.14,0.50397,0.23261,-0.48,5.72,1.1,86.58
12750,1.6449e+09,1,-1.26,3.68,22.01,-0.27385,-0.14062,-0.19787,-0.059191,14.139,0.50302,0.23181,-0.48,5.71,1.09,86.58
12793,1.6449e+09,1,-1.23,3.76,22.02,-0.26945,-0.143,-0.19934,-0.065875,14.136,0.5016,0.22981,-0.48,5.71,1.09,86.58
12841,1.6449e+09,1,-1.26,3.8,22.02,-0.26214,-0.14228,-0.19669,-0.068041,14.135,0.50057,0.2293,-0.48,5.67,1.09,86.58
12883,1.645e+09,1,-1.29,3.71,22.02,-0.27382,-0.1418,-0.19197,-0.061228,14.138,0.50165,0.23212,-0.48,5.7,1.09,86.58
12927,1.645e+09,1,-1.25,3.78,22.01,-0.27134,-0.14285,-0.19838,-0.060224,14.135,0.50023,0.23016,-0.48,5.7,1.09,86.58
12976,1.645e+09,1,-1.28,3.76,22.02,-0.26728,-0.14116,-0.19156,-0.046805,14.136,0.50024,0.23078,-0.48,5.71,1.1,86.58
13021,1.645e+09,1,-1.27,3.77,22.01,-0.26353,-0.13466,-0.19113,-0.037805,14.136,0.50006,0.23105,-0.48,5.73,1.1,86.58
13066,1.645e+09,1,-1.26,3.79,22.02,-0.27415,-0.13571,-0.192,-0.031725,14.136,0.50001,0.23144,-0.48,5.74,1.1,86.58
13111,1.645e+09,1,-1.25,3.77,22.01,-0.27109,-0.13932,-0.18912,-0.025753,14.133,0.4986,0.2295,-0.48,5.74,1.1,86.58
13155,1.645e+09,1,-1.24,3.82,22.02,-0.26916,-0.14132,-0.19255,-0.027393,14.133,0.49849,0.22982,-0.48,5.7,1.09,86.58
13199,1.645e+09,1,-1.25,3.76,22.01,-0.27317,-0.13984,-0.18937,-0.022033,14.133,0.49832,0.23016,-0.48,5.72,1.1,86.58
13243,1.645e+09,1,-1.21,3.83,22.01,-0.28458,-0.14213,-0.19804,-0.031217,14.13,0.49694,0.22822,-0.48,5.72,1.1,86.58
13288,1.645e+09,1,-1.24,3.78,22,-0.27927,-0.14601,-0.19034,-0.024497,14.13,0.49658,0.22827,-0.48,5.68,1.09,86.58
13333,1.6451e+09,1,-1.21,3.86,22.01,-0.27562,-0.14572,-0.19566,-0.030655,14.13,0.49631,0.22843,-0.48,5.69,1.09,86.58
13377,1.6451e+09,1,-1.27,3.82,22,-0.28202,-0.14215,-0.19111,-0.02667,14.129,0.49597,0.22845,-0.48,5.7,1.09,86.58
13426,1.6451e+09,1,-1.24,3.88,22,-0.27946,-0.14254,-0.19484,-0.032237,14.129,0.49558,0.22835,-0.48,5.71,1.1,86.58
13470,1.6451e+09,1,-1.27,3.86,22,-0.2773,-0.14427,-0.18964,-0.026918,14.126,0.49415,0.22647,-0.48,5.71,1.1,86.58
13515,1.6451e+09,1,-1.27,3.89,22.01,-0.27205,-0.1406,-0.18998,-0.028681,14.125,0.49371,0.22631,-0.48,5.72,1.1,86.58
13572,1.6452e+09,1,-1.24,3.92,22.02,-0.27731,-0.14935,-0.18741,-0.033662,14.122,0.49051,0.22568,-0.49,5.79,1.11,86.58
13617,1.6452e+09,1,-1.27,3.85,22.02,-0.27805,-0.15129,-0.18429,-0.027807,14.123,0.49053,0.22633,-0.49,5.8,1.11,86.58
13665,1.6452e+09,1,-1.23,3.92,22.02,-0.28742,-0.15409,-0.18879,-0.026027,14.12,0.48901,0.22447,-0.49,5.8,1.11,86.58
13713,1.6452e+09,1,-1.23,3.89,22.01,-0.27715,-0.16175,-0.18338,-0.01535,14.119,0.48842,0.22442,-0.49,5.81,1.11,86.58
13758,1.6452e+09,1,-1.24,3.92,22.02,-0.27004,-0.15912,-0.18131,-0.009781,14.12,0.48825,0.22484,-0.49,5.81,1.11,86.58
13805,1.6452e+09,1,-1.23,3.92,22.01,-0.2874,-0.15709,-0.18511,-0.010023,14.119,0.48754,0.2246,-0.49,5.82,1.12,86.58
13850,1.6452e+09,1,-1.22,3.88,22,-0.28381,-0.16105,-0.18244,-0.0036298,14.12,0.48722,0.22506,-0.49,5.84,1.12,86.58
13896,1.6452e+09,1,-1.21,3.95,22.02,-0.27726,-0.16563,-0.18516,-0.00379,14.119,0.48666,0.22525,-0.49,5.85,1.12,86.58
13941,1.6453e+09,1,-1.25,3.88,22.01,-0.28033,-0.16743,-0.18183,-0.002101,14.119,0.48622,0.22555,-0.49,5.83,1.12,86.58
13988,1.6453e+09,1,-1.24,3.95,22.03,-0.28467,-0.16966,-0.1842,-0.0035943,14.116,0.48457,0.22373,-0.49,5.83,1.12,86.58
14032,1.6453e+09,1,-1.26,3.92,22.02,-0.2819,-0.17101,-0.18356,-0.0039743,14.116,0.48385,0.2237,-0.49,5.83,1.12,86.58
14081,1.6453e+09,1,-1.28,3.95,22.04,-0.27673,-0.16561,-0.17969,-0.00064866,14.116,0.48325,0.22377,-0.49,5.85,1.12,86.58
14126,1.6453e+09,1,-1.29,3.96,22.03,-0.28853,-0.16236,-0.18381,-0.0070675,14.115,0.48246,0.22357,-0.49,5.86,1.12,86.58
14171,1.6453e+09,1,-1.28,3.94,22.03,-0.28741,-0.16396,-0.18231,-0.0084224,14.114,0.4818,0.22343,-0.49,5.87,1.13,86.58
14216,1.6453e+09,1,-1.28,3.99,22.02,-0.28597,-0.1656,-0.18252,-0.013078,14.114,0.48107,0.22322,-0.49,5.87,1.13,86.58
14260,1.6453e+09,1,-1.28,3.93,22.02,-0.28549,-0.16635,-0.18245,-0.016175,14.111,0.47938,0.22141,-0.49,5.87,1.13,86.58
14305,1.6453e+09,1,-1.26,3.99,22.02,-0.292,-0.16635,-0.18107,-0.018709,14.11,0.47863,0.22135,-0.49,5.88,1.13,86.58
14349,1.6453e+09,1,-1.23,3.94,22,-0.28825,-0.17159,-0.18037,-0.024079,14.109,0.47783,0.22123,-0.49,5.86,1.12,86.58
14396,1.6454e+09,1,-1.24,4,22.03,-0.28033,-0.1703,-0.17211,-0.021621,14.109,0.4775,0.22158,-0.49,5.86,1.13,86.58
14436,1.6454e+09,1,-1.23,3.95,22.01,-0.2901,-0.1675,-0.17829,-0.027144,14.11,0.47747,0.22217,-0.49,5.88,1.13,86.58
14478,1.6454e+09,1,-1.22,3.98,22.02,-0.29079,-0.17079,-0.17536,-0.021803,14.107,0.47576,0.2204,-0.49,5.88,1.13,86.58
14527,1.6454e+09,1,-1.22,4,22.01,-0.28735,-0.17555,-0.17822,-0.022578,14.108,0.47576,0.22103,-0.49,5.87,1.13,86.58
14570,1.6454e+09,1,-1.24,3.97,22.03,-0.28463,-0.17505,-0.17389,-0.013775,14.108,0.47567,0.22155,-0.5,5.9,1.13,86.58
14614,1.6454e+09,1,-1.24,4.01,22.03,-0.29054,-0.17337,-0.1756,-0.013826,14.108,0.47537,0.22177,-0.49,5.88,1.13,86.58
14656,1.6454e+09,1,-1.23,3.98,22.02,-0.28735,-0.1778,-0.17368,-0.011476,14.106,0.47359,0.22001,-0.49,5.88,1.13,86.58
14697,1.6454e+09,1,-1.26,4.04,22.04,-0.28213,-0.17773,-0.17142,-0.009706,14.106,0.47336,0.22034,-0.49,5.86,1.12,86.58
14739,1.6454e+09,1,-1.27,3.97,22.02,-0.28675,-0.17704,-0.17278,-0.0089233,14.106,0.47308,0.22092,-0.49,5.89,1.13,86.58
14781,1.6455e+09,1,-1.28,4.03,22.04,-0.29317,-0.17547,-0.16916,-0.0076987,14.103,0.47134,0.21921,-0.49,5.89,1.13,86.58
14824,1.6455e+09,1,-1.27,3.98,22.03,-0.28803,-0.17845,-0.17133,-0.011957,14.103,0.47104,0.21971,-0.49,5.83,1.12,86.58
14866,1.6455e+09,1,-1.29,4.02,22.04,-0.2828,-0.1738,-0.16689,-0.0091955,14.103,0.47047,0.21991,-0.49,5.83,1.12,86.58
14909,1.6455e+09,1,-1.28,3.98,22.02,-0.292,-0.17398,-0.17344,-0.017611,14.103,0.47007,0.22018,-0.49,5.83,1.12,86.58
14957,1.6455e+09,1,-1.26,4,22.03,-0.29605,-0.17379,-0.17103,-0.016667,14.102,0.4696,0.22033,-0.49,5.85,1.12,86.58
15000,1.6455e+09,1,-1.25,4.01,22.01,-0.29303,-0.17801,-0.17412,-0.019517,14.102,0.46903,0.22034,-0.49,5.87,1.13,86.58
15043,1.6455e+09,1,-1.24,3.98,22.02,-0.29409,-0.17647,-0.17192,-0.016215,14.099,0.46711,0.21848,-0.49,5.87,1.13,86.58
15085,1.6455e+09,1,-1.23,4.02,22.01,-0.30209,-0.1751,-0.17402,-0.018856,14.098,0.46668,0.21858,-0.49,5.88,1.13,86.58
15128,1.6455e+09,1,-1.2,4,22.01,-0.30151,-0.17943,-0.17367,-0.020181,14.097,0.46586,0.21862,-0.49,5.88,1.13,86.58
15170,1.6455e+09,1,-1.21,4.06,22.01,-0.29635,-0.18083,-0.16885,-0.016698,14.097,0.4651,0.21871,-0.49,5.89,1.13,86.58
15213,1.6456e+09,1,-1.21,4.01,22,-0.2987,-0.1802,-0.16978,-0.020093,14.096,0.46428,0.21873,-0.49,5.89,1.13,86.58
15257,1.6456e+09,1,-1.21,4.05,22.01,-0.30184,-0.18424,-0.16548,-0.015134,14.095,0.46381,0.21911,-0.5,5.91,1.14,86.58
15302,1.6456e+09,1,-1.21,4.05,21.99,-0.30022,-0.18981,-0.16786,-0.015823,14.092,0.46211,0.21758,-0.5,5.91,1.14,86.58
15347,1.6456e+09,1,-1.24,4.06,22.01,-0.29637,-0.1866,-0.1655,-0.010701,14.093,0.46221,0.2185,-0.5,5.9,1.13,86.58
15395,1.6456e+09,1,-1.26,4.07,21.99,-0.30573,-0.18357,-0.16985,-0.0088747,14.093,0.46208,0.21908,-0.5,5.93,1.14,86.58
15441,1.6456e+09,1,-1.26,4.06,22,-0.30591,-0.18511,-0.17147,-0.0059468,14.093,0.46204,0.21969,-0.5,5.93,1.14,86.58
15485,1.6456e+09,1,-1.28,4.09,21.99,-0.30141,-0.1847,-0.17049,-0.0022329,14.093,0.46193,0.22018,-0.5,5.93,1.14,86.58
15531,1.6456e+09,1,-1.29,4.05,21.99,-0.30239,-0.1826,-0.17198,-0.0017194,14.093,0.46176,0.22088,-0.5,5.94,1.14,86.58
15578,1.6456e+09,1,-1.29,4.1,22,-0.29988,-0.17756,-0.16741,0.0093073,14.092,0.46096,0.2209,-0.5,5.96,1.14,86.58
15623,1.6457e+09,1,-1.27,4.08,21.97,-0.29855,-0.18209,-0.17171,0.0080276,14.089,0.45917,0.21923,-0.5,5.96,1.14,86.58
15668,1.6457e+09,1,-1.28,4.1,21.98,-0.29723,-0.17807,-0.16335,0.01772,14.089,0.45886,0.21971,-0.5,5.95,1.14,86.58
15712,1.6457e+09,1,-1.25,4.08,21.95,-0.30464,-0.18089,-0.16796,0.015289,14.088,0.45854,0.22009,-0.5,5.97,1.15,86.58
15757,1.6457e+09,1,-1.23,4.1,21.97,-0.30722,-0.18151,-0.16784,0.013694,14.088,0.45816,0.22037,-0.5,5.96,1.14,86.58
15807,1.6457e+09,1,-1.22,4.11,21.95,-0.30624,-0.1814,-0.16755,0.013865,14.087,0.45749,0.22034,-0.5,5.98,1.15,86.58
15851,1.6457e+09,1,-1.21,4.09,21.96,-0.30441,-0.17866,-0.16999,0.008758,14.086,0.457,0.22043,-0.5,5.98,1.15,86.58
15896,1.6457e+09,1,-1.21,4.11,21.95,-0.30999,-0.1773,-0.16949,0.006916,14.085,0.45625,0.22019,-0.5,6,1.15,86.58
15941,1.6457e+09,1,-1.2,4.1,21.96,-0.30524,-0.18388,-0.1736,0.00092793,14.082,0.45444,0.21849,-0.5,6,1.15,86.58
15987,1.6457e+09,1,-1.23,4.13,21.97,-0.29927,-0.18105,-0.16644,0.0049536,14.081,0.45375,0.21861,-0.5,6,1.15,86.58
16033,1.6457e+09,1,-1.23,4.07,21.96,-0.30558,-0.1795,-0.17118,-0.0031386,14.08,0.45304,0.21866,-0.51,6.01,1.15,86.58
16072,1.6458e+09,1,-1.25,4.1,21.97,-0.31093,-0.18125,-0.16678,0.00088643,14.08,0.453,0.21901,-0.51,6.04,1.16,86.58
16119,1.6458e+09,1,-1.25,4.09,21.95,-0.30668,-0.18653,-0.16778,-0.0015238,14.08,0.4532,0.21958,-0.51,6.03,1.16,86.58
16164,1.6458e+09,1,-1.27,4.08,21.96,-0.30666,-0.18583,-0.16307,0.0019659,14.077,0.45137,0.21793,-0.51,6.03,1.16,86.58
16209,1.6458e+09,1,-1.27,4.1,21.94,-0.31556,-0.18368,-0.16435,-0.00096555,14.077,0.45135,0.21825,-0.5,6,1.15,86.58
16259,1.6458e+09,1,-1.27,4.09,21.94,-0.31424,-0.18602,-0.16493,-0.003039,14.077,0.45144,0.21867,-0.5,6,1.15,86.58
16304,1.6458e+09,1,-1.29,4.14,21.94,-0.30893,-0.18413,-0.16137,-0.0015853,14.077,0.45141,0.21896,-0.5,6,1.15,86.58
16348,1.6458e+09,1,-1.28,4.09,21.93,-0.31203,-0.1812,-0.16472,-0.0069007,14.077,0.45135,0.21919,-0.51,6.01,1.15,86.58
16395,1.6458e+09,1,-1.28,4.13,21.94,-0.32147,-0.1778,-0.15863,-0.0011006,14.074,0.44938,0.21741,-0.51,6.01,1.15,86.58
16445,1.6458e+09,1,-1.24,4.14,21.94,-0.30942,-0.18343,-0.15997,-0.0053295,14.074,0.44995,0.21856,-0.51,6.03,1.16,86.58
16489,1.6459e+09,1,-1.24,4.1,21.94,-0.31168,-0.18365,-0.16016,-0.0068347,14.071,0.44815,0.21697,-0.51,6.03,1.16,86.58
16534,1.6459e+09,1,-1.23,4.14,21.93,-0.32074,-0.1829,-0.15896,-0.008019,14.071,0.44787,0.21707,-0.51,6.02,1.16,86.58
16579,1.6459e+09,1,-1.2,4.11,21.93,-0.31942,-0.18612,-0.16133,-0.012925,14.07,0.4475,0.21709,-0.51,6.03,1.16,86.58
16623,1.6459e+09,1,-1.23,4.16,21.95,-0.31653,-0.18249,-0.15617,-0.013183,14.067,0.4455,0.21536,-0.51,6.03,1.16,86.58
16669,1.6459e+09,1,-1.22,4.12,21.93,-0.32341,-0.1832,-0.16262,-0.024967,14.066,0.4451,0.21536,-0.5,5.97,1.15,86.58
16717,1.6459e+09,1,-1.23,4.16,21.94,-0.32881,-0.18475,-0.15919,-0.027091,14.065,0.44445,0.2151,-0.5,5.97,1.15,86.58
16762,1.6459e+09,1,-1.21,4.16,21.92,-0.3239,-0.18967,-0.16419,-0.036645,14.064,0.44386,0.21489,-0.5,5.98,1.15,86.58
16806,1.6459e+09,1,-1.24,4.17,21.94,-0.31727,-0.18603,-0.15878,-0.036137,14.063,0.44327,0.21464,-0.5,5.98,1.15,86.58
16852,1.6459e+09,1,-1.24,4.18,21.93,-0.32349,-0.18438,-0.16382,-0.04457,14.062,0.4426,0.21427,-0.5,6,1.15,86.58
16898,1.6459e+09,1,-1.24,4.17,21.93,-0.32344,-0.18967,-0.16251,-0.046042,14.058,0.44057,0.21249,-0.5,6,1.15,86.58
16941,1.646e+09,1,-1.26,4.21,21.93,-0.31977,-0.18906,-0.15838,-0.045348,14.056,0.43966,0.21212,-0.5,6,1.15,86.58
16981,1.646e+09,1,-1.27,4.16,21.93,-0.32617,-0.18354,-0.16301,-0.051725,14.057,0.43987,0.21241,-0.5,6,1.15,86.58
17024,1.646e+09,1,-1.29,4.19,21.93,-0.3306,-0.18093,-0.15632,-0.043641,14.057,0.44019,0.21274,-0.51,6.02,1.16,86.58
17067,1.646e+09,1,-1.25,4.18,21.93,-0.32696,-0.18431,-0.16169,-0.047773,14.058,0.44042,0.21299,-0.51,6.02,1.16,86.58
17109,1.646e+09,1,-1.29,4.19,21.94,-0.31755,-0.18003,-0.15256,-0.037031,14.058,0.44054,0.21317,-0.51,6.03,1.16,86.58
17156,1.646e+09,1,-1.26,4.19,21.93,-0.32624,-0.18228,-0.15982,-0.04078,14.055,0.4387,0.21161,-0.51,6.03,1.16,86.58
17198,1.646e+09,1,-1.26,4.18,21.94,-0.32585,-0.18482,-0.15515,-0.034065,14.055,0.43876,0.2117,-0.51,6.03,1.16,86.58
17240,1.646e+09,1,-1.24,4.21,21.93,-0.3232,-0.18896,-0.15673,-0.032997,14.055,0.4387,0.21171,-0.51,6.05,1.16,86.58
17285,1.646e+09,1,-1.25,4.17,21.94,-0.31616,-0.18591,-0.15036,-0.025028,14.055,0.43854,0.21166,-0.51,6.06,1.16,86.58
17327,1.646e+09,1,-1.24,4.21,21.95,-0.32587,-0.18789,-0.15009,-0.024793,14.054,0.438,0.21143,-0.51,6.05,1.16,86.58
17374,1.6461e+09,1,-1.24,4.19,21.94,-0.33514,-0.18978,-0.15878,-0.03622,14.053,0.43718,0.21097,-0.51,6.02,1.16,86.58
17416,1.6461e+09,1,-1.26,4.21,21.94,-0.32983,-0.18686,-0.14964,-0.027917,14.05,0.43528,0.20944,-0.51,6.02,1.16,86.58
17459,1.6461e+09,1,-1.25,4.23,21.93,-0.33261,-0.18512,-0.15687,-0.036973,14.049,0.43477,0.20921,-0.51,6.02,1.16,86.58
17502,1.6461e+09,1,-1.25,4.19,21.92,-0.33275,-0.18719,-0.15128,-0.032429,14.048,0.43437,0.20907,-0.51,6.04,1.16,86.58
17544,1.6461e+09,1,-1.23,4.26,21.92,-0.33001,-0.18987,-0.15194,-0.034549,14.047,0.43387,0.20883,-0.51,6.05,1.16,86.58
17592,1.6461e+09,1,-1.26,4.17,21.92,-0.3307,-0.18916,-0.14472,-0.029866,14.047,0.43337,0.20863,-0.51,6.05,1.16,86.58
17634,1.6461e+09,1,-1.22,4.24,21.92,-0.34163,-0.18993,-0.14716,-0.034931,14.043,0.43148,0.20714,-0.51,6.05,1.16,86.58
17677,1.6461e+09,1,-1.23,4.18,21.91,-0.34304,-0.1935,-0.14769,-0.038892,14.042,0.4309,0.20686,-0.51,6.03,1.16,86.58
17721,1.6461e+09,1,-1.26,4.21,21.92,-0.33811,-0.18347,-0.14434,-0.038987,14.042,0.43045,0.20632,-0.51,6.03,1.16,86.58
17767,1.6462e+09,1,-1.23,4.25,21.92,-0.34228,-0.18486,-0.14995,-0.044016,14.042,0.43071,0.20652,-0.51,6.04,1.16,86.58
17812,1.6462e+09,1,-1.24,4.21,21.91,-0.338,-0.18452,-0.14814,-0.040778,14.043,0.43125,0.20691,-0.51,6.05,1.16,86.58
17856,1.6462e+09,1,-1.23,4.27,21.92,-0.33247,-0.19238,-0.15,-0.042882,14.039,0.42916,0.20525,-0.51,6.05,1.16,86.58
17900,1.6462e+09,1,-1.26,4.2,21.92,-0.33521,-0.18925,-0.14611,-0.040698,14.04,0.42943,0.20544,-0.5,5.97,1.15,86.58
17945,1.6462e+09,1,-1.25,4.25,21.93,-0.34002,-0.18834,-0.14703,-0.042851,14.041,0.42966,0.20555,-0.5,5.97,1.15,86.58
17993,1.6462e+09,1,-1.25,4.21,21.92,-0.34074,-0.19246,-0.14837,-0.04424,14.037,0.42778,0.20406,-0.5,5.97,1.15,86.58
18042,1.6462e+09,1,-1.29,4.24,21.93,-0.33977,-0.186,-0.1438,-0.04028,14.037,0.4273,0.20362,-0.5,5.96,1.14,86.58
18087,1.6462e+09,1,-1.25,4.24,21.93,-0.35028,-0.18471,-0.15499,-0.051456,14.037,0.42735,0.20357,-0.5,5.96,1.14,86.58
18134,1.6462e+09,1,-1.25,4.22,21.92,-0.34026,-0.18671,-0.14687,-0.043744,14.036,0.42677,0.20301,-0.5,5.96,1.14,86.58
18184,1.6463e+09,1,-1.28,4.25,21.92,-0.3426,-0.18499,-0.14415,-0.042761,14.035,0.4261,0.20235,-0.5,5.94,1.14,86.58
18233,1.6463e+09,1,-1.25,4.26,21.92,-0.34717,-0.18255,-0.15347,-0.054586,14.033,0.42541,0.20196,-0.5,5.92,1.14,86.58
18278,1.6463e+09,1,-1.27,4.24,21.91,-0.34924,-0.18486,-0.14789,-0.050012,14.03,0.42375,0.20064,-0.5,5.92,1.14,86.58
18322,1.6463e+09,1,-1.26,4.28,21.92,-0.33887,-0.18672,-0.14978,-0.052543,14.029,0.4233,0.20043,-0.5,5.91,1.14,86.58
18367,1.6463e+09,1,-1.26,4.22,21.9,-0.33999,-0.18544,-0.14536,-0.047416,14.029,0.42296,0.20035,-0.5,5.93,1.14,86.58
18416,1.6463e+09,1,-1.27,4.27,21.91,-0.34579,-0.18857,-0.14549,-0.046879,14.028,0.42262,0.20019,-0.5,5.94,1.14,86.58
18461,1.6463e+09,1,-1.25,4.22,21.89,-0.35104,-0.19682,-0.14875,-0.050067,14.027,0.42194,0.19983,-0.5,5.94,1.14,86.58
18509,1.6463e+09,1,-1.29,4.27,21.9,-0.35252,-0.19367,-0.14244,-0.044342,14.025,0.42095,0.19921,-0.5,5.94,1.14,86.58
18555,1.6463e+09,1,-1.28,4.28,21.9,-0.35237,-0.18954,-0.15006,-0.051721,14.026,0.42101,0.19915,-0.5,5.95,1.14,86.58
18598,1.6464e+09,1,-1.26,4.26,21.89,-0.35005,-0.19454,-0.15029,-0.048626,14.026,0.42113,0.19948,-0.5,5.96,1.15,86.58
18642,1.6464e+09,1,-1.29,4.31,21.91,-0.34203,-0.19328,-0.14408,-0.03736,14.027,0.42149,0.19995,-0.5,5.98,1.15,86.58
18688,1.6464e+09,1,-1.27,4.26,21.89,-0.34805,-0.19197,-0.15007,-0.037919,14.028,0.42181,0.20036,-0.5,6,1.15,86.58
18733,1.6464e+09,1,-1.27,4.3,21.89,-0.35243,-0.19297,-0.14565,-0.026159,14.029,0.42181,0.20049,-0.51,6.01,1.16,86.58
18777,1.6464e+09,1,-1.25,4.27,21.89,-0.34751,-0.19739,-0.15127,-0.02472,14.025,0.41985,0.19899,-0.51,6.01,1.16,86.58
18822,1.6464e+09,1,-1.27,4.3,21.89,-0.34091,-0.19369,-0.14426,-0.014383,14.026,0.41997,0.19922,-0.5,5.99,1.15,86.58
18870,1.6464e+09,1,-1.27,4.27,21.89,-0.34835,-0.19105,-0.14839,-0.016671,14.026,0.42001,0.19935,-0.5,5.99,1.15,86.58
18915,1.6464e+09,1,-1.26,4.3,21.88,-0.34679,-0.19004,-0.14561,-0.0129,14.026,0.41976,0.19928,-0.5,5.99,1.15,86.58
18960,1.6464e+09,1,-1.27,4.31,21.89,-0.34153,-0.19272,-0.14674,-0.012461,14.022,0.41782,0.19781,-0.5,5.99,1.15,86.58
19005,1.6465e+09,1,-1.26,4.28,21.87,-0.34193,-0.19096,-0.14724,-0.013047,14.022,0.41769,0.1978,-0.5,6,1.15,86.58
19053,1.6465e+09,1,-1.26,4.3,21.87,-0.35776,-0.1988,-0.14567,-0.010866,14.021,0.4167,0.19732,-0.51,6.02,1.16,86.58
19098,1.6465e+09,1,-1.26,4.3,21.87,-0.35409,-0.20205,-0.15199,-0.016953,14.021,0.41656,0.19746,-0.51,6.02,1.16,86.58
19143,1.6465e+09,1,-1.28,4.32,21.88,-0.34347,-0.19625,-0.1483,-0.014321,14.02,0.41598,0.19725,-0.51,6.02,1.16,86.58
19188,1.6465e+09,1,-1.28,4.32,21.87,-0.34945,-0.19549,-0.154,-0.023462,14.02,0.41552,0.19708,-0.51,6,1.15,86.58
19233,1.6465e+09,1,-1.28,4.32,21.87,-0.35006,-0.19627,-0.14867,-0.019977,14.016,0.41357,0.19559,-0.51,6,1.15,86.58
19277,1.6465e+09,1,-1.28,4.33,21.87,-0.34584,-0.19874,-0.15288,-0.027003,14.016,0.41303,0.19537,-0.51,6,1.15,86.58
19326,1.6465e+09,1,-1.29,4.29,21.87,-0.34548,-0.19561,-0.14871,-0.027561,14.014,0.41223,0.19495,-0.5,5.99,1.15,86.58
19371,1.6465e+09,1,-1.28,4.33,21.88,-0.35472,-0.19701,-0.149,-0.031522,14.013,0.41156,0.19457,-0.51,6.01,1.16,86.58
19415,1.6465e+09,1,-1.26,4.28,21.87,-0.35714,-0.20351,-0.14734,-0.032703,14.012,0.41064,0.19404,-0.51,6.03,1.16,86.58
19463,1.6466e+09,1,-1.27,4.34,21.89,-0.35329,-0.205,-0.14585,-0.034868,14.008,0.40861,0.19256,-0.51,6.03,1.16,86.58
19500,1.6466e+09,1,-1.26,4.31,21.89,-0.35312,-0.20143,-0.1497,-0.038667,14.014,0.4113,0.19532,-0.51,6.04,1.16,86.58
19543,1.6466e+09,1,-1.26,4.33,21.88,-0.35249,-0.19905,-0.14758,-0.030559,14.01,0.4091,0.19369,-0.51,6.04,1.16,86.58
19586,1.6466e+09,1,-1.26,4.36,21.89,-0.35048,-0.19956,-0.15071,-0.028393,14.01,0.40946,0.19428,-0.51,6.04,1.16,86.58
19629,1.6466e+09,1,-1.27,4.32,21.87,-0.3472,-0.19384,-0.14648,-0.019444,14.011,0.40978,0.19481,-0.51,6.04,1.16,86.58
19672,1.6466e+09,1,-1.27,4.35,21.88,-0.35504,-0.19487,-0.14976,-0.018141,14.011,0.41,0.19518,-0.51,6.05,1.16,86.58
19715,1.6466e+09,1,-1.25,4.31,21.86,-0.35433,-0.19804,-0.14734,-0.012817,14.012,0.41032,0.19564,-0.51,6.05,1.16,86.58
19762,1.6466e+09,1,-1.28,4.35,21.89,-0.35478,-0.20177,-0.1494,-0.0096126,14.008,0.40808,0.19399,-0.51,6.05,1.16,86.58
19805,1.6466e+09,1,-1.28,4.3,21.87,-0.35885,-0.19975,-0.15141,-0.0093902,14.008,0.4081,0.19421,-0.51,6.05,1.16,86.58
19847,1.6466e+09,1,-1.3,4.33,21.88,-0.36491,-0.20235,-0.14712,-0.0023906,14.008,0.40803,0.19431,-0.51,6.08,1.17,86.58
19891,1.6467e+09,1,-1.28,4.31,21.87,-0.3637,-0.20864,-0.1525,-0.0060115,14.008,0.40785,0.19453,-0.51,6.09,1.17,86.58
19937,1.6467e+09,1,-1.3,4.34,21.87,-0.34942,-0.20322,-0.14855,-0.0053395,14.006,0.40677,0.19408,-0.51,6.03,1.16,86.58
19979,1.6467e+09,1,-1.32,4.37,21.88,-0.35605,-0.19947,-0.15147,-0.009792,14.006,0.40643,0.19413,-0.51,6.06,1.16,86.58
20023,1.6467e+09,1,-1.3,4.33,21.86,-0.36514,-0.20455,-0.15196,-0.010568,14.002,0.40418,0.19248,-0.51,6.06,1.16,86.58
20066,1.6467e+09,1,-1.32,4.38,21.88,-0.36026,-0.20581,-0.14942,-0.0098692,14.001,0.40373,0.19245,-0.51,6.05,1.16,86.58
20110,1.6467e+09,1,-1.3,4.34,21.87,-0.36495,-0.20631,-0.15171,-0.016209,14,0.40326,0.19239,-0.51,6.03,1.16,86.58
20157,1.6467e+09,1,-1.29,4.37,21.86,-0.37151,-0.20943,-0.14836,-0.016624,13.999,0.40269,0.19222,-0.51,6.03,1.16,86.58
20200,1.6467e+09,1,-1.27,4.35,21.86,-0.37223,-0.21685,-0.15147,-0.022651,13.998,0.40182,0.19184,-0.51,6.05,1.16,86.58
20242,1.6467e+09,1,-1.28,4.38,21.86,-0.36632,-0.21497,-0.14479,-0.017972,13.994,0.39969,0.19035,-0.51,6.05,1.16,86.58
20290,1.6468e+09,1,-1.3,4.36,21.86,-0.36902,-0.21132,-0.14873,-0.025424,13.993,0.39877,0.18993,-0.51,6.05,1.16,86.58
20332,1.6468e+09,1,-1.28,4.33,21.85,-0.37511,-0.21182,-0.15097,-0.034839,13.992,0.39843,0.18992,-0.51,6,1.15,86.58
20376,1.6468e+09,1,-1.29,4.36,21.86,-0.36846,-0.21439,-0.14406,-0.031457,13.993,0.39859,0.1906,-0.5,5.99,1.15,86.58
20421,1.6468e+09,1,-1.3,4.34,21.86,-0.37046,-0.2113,-0.14782,-0.032951,13.994,0.39869,0.19118,-0.51,6.01,1.16,86.58
20465,1.6468e+09,1,-1.29,4.35,21.84,-0.37428,-0.21151,-0.14593,-0.025353,13.99,0.39662,0.18972,-0.51,6.01,1.16,86.58
20511,1.6468e+09,1,-1.32,4.37,21.85,-0.36946,-0.21061,-0.14778,-0.02164,13.991,0.39661,0.19017,-0.51,6.01,1.16,86.58
20556,1.6468e+09,1,-1.32,4.35,21.85,-0.36583,-0.20565,-0.15095,-0.020356,13.991,0.39672,0.19068,-0.51,6.01,1.16,86.58
20606,1.6468e+09,1,-1.35,4.37,21.86,-0.37099,-0.20104,-0.14472,-0.010018,13.992,0.39678,0.19109,-0.51,6.02,1.16,86.58
20651,1.6468e+09,1,-1.32,4.36,21.83,-0.37486,-0.20438,-0.14948,-0.012213,13.992,0.39672,0.19141,-0.51,6.02,1.16,86.58
20696,1.6469e+09,1,-1.35,4.38,21.85,-0.37414,-0.20549,-0.1467,-0.0055132,13.988,0.39464,0.18994,-0.51,6.02,1.16,86.58
20741,1.6469e+09,1,-1.33,4.36,21.83,-0.37509,-0.20319,-0.15141,-0.0082204,13.988,0.39448,0.19016,-0.51,6.02,1.16,86.58
20790,1.6469e+09,1,-1.3,4.36,21.83,-0.37789,-0.21099,-0.14613,-0.0026829,13.987,0.39368,0.19023,-0.51,6,1.15,86.58
20835,1.6469e+09,1,-1.31,4.39,21.83,-0.37663,-0.21183,-0.14725,-0.0053181,13.983,0.39161,0.18874,-0.51,6,1.15,86.58
20880,1.6469e+09,1,-1.3,4.38,21.83,-0.37413,-0.20602,-0.14917,-0.0093423,13.983,0.39115,0.18902,-0.5,5.95,1.14,86.58
20926,1.6469e+09,1,-1.31,4.38,21.84,-0.37606,-0.20081,-0.14657,-0.0073867,13.982,0.39084,0.18935,-0.5,5.96,1.15,86.58
20971,1.6469e+09,1,-1.28,4.38,21.82,-0.38168,-0.20356,-0.15288,-0.014796,13.982,0.39043,0.18956,-0.5,5.96,1.15,86.58
21015,1.6469e+09,1,-1.3,4.39,21.83,-0.37973,-0.2051,-0.14787,-0.01043,13.978,0.38835,0.18806,-0.5,5.96,1.15,86.58
21064,1.6469e+09,1,-1.28,4.37,21.82,-0.38131,-0.20625,-0.152,-0.015894,13.977,0.38785,0.18821,-0.5,5.94,1.14,86.58
21111,1.647e+09,1,-1.27,4.37,21.82,-0.389,-0.21663,-0.14803,-0.014219,13.975,0.38642,0.18768,-0.5,5.95,1.14,86.58
21152,1.647e+09,1,-1.28,4.41,21.82,-0.38076,-0.2189,-0.14631,-0.0093388,13.977,0.38725,0.18868,-0.5,5.97,1.15,86.58
21201,1.647e+09,1,-1.31,4.39,21.82,-0.37765,-0.2087,-0.14925,-0.0055992,13.977,0.38733,0.18916,-0.5,5.99,1.15,86.58
21246,1.647e+09,1,-1.34,4.41,21.83,-0.38095,-0.20465,-0.14213,0.0090323,13.978,0.38798,0.19029,-0.51,6.01,1.15,86.58
21291,1.647e+09,1,-1.31,4.4,21.83,-0.38243,-0.20836,-0.14802,0.011674,13.98,0.38849,0.19128,-0.51,6.02,1.16,86.58
21335,1.647e+09,1,-1.33,4.41,21.83,-0.37937,-0.21361,-0.14387,0.021246,13.98,0.3887,0.19203,-0.51,6,1.15,86.58
21380,1.647e+09,1,-1.33,4.39,21.83,-0.38408,-0.21272,-0.14906,0.019274,13.981,0.38897,0.19277,-0.51,6,1.15,86.58
21425,1.647e+09,1,-1.32,4.4,21.83,-0.39074,-0.21529,-0.14504,0.028495,13.977,0.38688,0.19132,-0.51,6,1.15,86.58
21474,1.647e+09,1,-1.31,4.41,21.83,-0.38732,-0.21922,-0.14899,0.027614,13.978,0.38706,0.19192,-0.51,6,1.15,86.58
21519,1.647e+09,1,-1.32,4.39,21.82,-0.38286,-0.21995,-0.14649,0.033349,13.978,0.38687,0.1923,-0.51,6.02,1.16,86.58
21564,1.6471e+09,1,-1.34,4.4,21.83,-0.38575,-0.21576,-0.14199,0.039371,13.978,0.38681,0.19271,-0.51,6.03,1.16,86.58
21610,1.6471e+09,1,-1.3,4.39,21.81,-0.38815,-0.21724,-0.14513,0.035451,13.978,0.38669,0.1931,-0.51,6.03,1.16,86.58
21654,1.6471e+09,1,-1.33,4.43,21.83,-0.38658,-0.21649,-0.14301,0.035675,13.973,0.38427,0.19149,-0.51,6.03,1.16,86.58
21700,1.6471e+09,1,-1.29,4.41,21.81,-0.38874,-0.2148,-0.14944,0.022068,13.973,0.38406,0.19198,-0.5,5.96,1.15,86.58
21744,1.6471e+09,1,-1.3,4.42,21.81,-0.39217,-0.21201,-0.14163,0.024164,13.973,0.38376,0.19235,-0.5,5.97,1.15,86.58
21790,1.6471e+09,1,-1.27,4.42,21.8,-0.39454,-0.22107,-0.14801,0.014119,13.972,0.38315,0.19248,-0.5,5.99,1.15,86.58
21834,1.6471e+09,1,-1.27,4.43,21.8,-0.39263,-0.22727,-0.13997,0.020391,13.968,0.38092,0.19106,-0.5,5.99,1.15,86.58
21879,1.6471e+09,1,-1.29,4.43,21.81,-0.39369,-0.22884,-0.14335,0.011765,13.967,0.38016,0.19111,-0.5,5.96,1.15,86.58
21928,1.6471e+09,1,-1.26,4.42,21.8,-0.39739,-0.22951,-0.14024,0.0097353,13.966,0.37958,0.1913,-0.5,5.96,1.15,86.58
21974,1.6472e+09,1,-1.31,4.44,21.81,-0.3937,-0.2299,-0.14026,0.0053353,13.965,0.37898,0.19141,-0.5,5.97,1.15,86.58
22014,1.6472e+09,1,-1.3,4.42,21.8,-0.39737,-0.22635,-0.14258,-0.00088307,13.964,0.37844,0.19137,-0.5,5.98,1.15,86.58
22060,1.6472e+09,1,-1.31,4.42,21.79,-0.39957,-0.22659,-0.14001,-0.0025951,13.964,0.37842,0.19164,-0.5,5.96,1.15,86.58
22103,1.6472e+09,1,-1.34,4.47,21.81,-0.39621,-0.22733,-0.1397,-0.0022477,13.96,0.37613,0.19019,-0.5,5.96,1.15,86.58
22145,1.6472e+09,1,-1.33,4.45,21.8,-0.39374,-0.22237,-0.14329,-0.0049518,13.961,0.37646,0.19096,-0.5,5.96,1.15,86.58
22188,1.6472e+09,1,-1.37,4.46,21.8,-0.39963,-0.21782,-0.13554,0.0037079,13.961,0.37668,0.19157,-0.5,5.95,1.14,86.58
22232,1.6472e+09,1,-1.32,4.46,21.79,-0.40279,-0.22202,-0.14414,-0.0031488,13.962,0.37699,0.19223,-0.5,5.96,1.15,86.58
22275,1.6472e+09,1,-1.33,4.46,21.8,-0.39574,-0.22437,-0.13294,0.0089186,13.962,0.37717,0.19279,-0.5,5.96,1.15,86.58
22318,1.6472e+09,1,-1.3,4.45,21.8,-0.40171,-0.22713,-0.14214,0.0027525,13.958,0.37492,0.19141,-0.5,5.96,1.15,86.58
22366,1.6472e+09,1,-1.3,4.45,21.79,-0.40672,-0.22497,-0.13227,0.014831,13.958,0.37502,0.1919,-0.5,5.97,1.15,86.58
22409,1.6473e+09,1,-1.28,4.46,21.79,-0.40735,-0.22873,-0.14091,0.0082391,13.958,0.37502,0.19227,-0.51,5.99,1.15,86.58
22451,1.6473e+09,1,-1.28,4.44,21.78,-0.40053,-0.22953,-0.13274,0.017265,13.958,0.37488,0.19256,-0.51,6,1.15,86.58
22495,1.6473e+09,1,-1.27,4.45,21.79,-0.40119,-0.22986,-0.13935,0.0096952,13.958,0.37463,0.19271,-0.51,6,1.15,86.58
22541,1.6473e+09,1,-1.27,4.45,21.78,-0.40208,-0.22566,-0.14199,0.0060194,13.956,0.37363,0.19269,-0.51,6.01,1.16,86.58
22583,1.6473e+09,1,-1.31,4.5,21.8,-0.39625,-0.22738,-0.1361,0.0096205,13.955,0.37316,0.19293,-0.51,6.01,1.16,86.58
22626,1.6473e+09,1,-1.28,4.46,21.79,-0.39788,-0.22959,-0.14083,0.0043883,13.951,0.37087,0.19157,-0.51,6.01,1.16,86.58
22668,1.6473e+09,1,-1.31,4.47,21.79,-0.40267,-0.23024,-0.13297,0.010221,13.95,0.37009,0.19162,-0.51,6.01,1.16,86.58
22712,1.6473e+09,1,-1.29,4.47,21.79,-0.40615,-0.23465,-0.14264,-0.0020669,13.949,0.36949,0.19176,-0.51,6.02,1.16,86.58
22755,1.6473e+09,1,-1.33,4.48,21.78,-0.40005,-0.23502,-0.13295,0.0074692,13.95,0.36994,0.19234,-0.51,6.04,1.16,86.58
22801,1.6474e+09,1,-1.32,4.47,21.79,-0.40133,-0.23598,-0.14072,-0.0012166,13.951,0.37048,0.19293,-0.51,6.04,1.16,86.58
22846,1.6474e+09,1,-1.31,4.44,21.77,-0.40572,-0.23596,-0.13424,0.0050226,13.953,0.37093,0.19346,-0.51,6.04,1.16,86.58
22891,1.6474e+09,1,-1.32,4.48,21.79,-0.40683,-0.24023,-0.13953,0.0018893,13.949,0.36857,0.19205,-0.51,6.04,1.16,86.58
22939,1.6474e+09,1,-1.29,4.46,21.78,-0.39819,-0.23495,-0.14322,-0.0021201,13.948,0.36793,0.19192,-0.51,6.03,1.16,86.58
22983,1.6474e+09,1,-1.33,4.46,21.78,-0.40157,-0.23308,-0.13494,0.006705,13.949,0.36815,0.19249,-0.51,6.03,1.16,86.58
23028,1.6474e+09,1,-1.27,4.45,21.78,-0.4078,-0.24107,-0.14284,-0.00084968,13.949,0.368,0.19282,-0.51,6.03,1.16,86.58
23074,1.6474e+09,1,-1.3,4.45,21.78,-0.4039,-0.23903,-0.13577,0.0056763,13.949,0.36797,0.19322,-0.51,6.03,1.16,86.58
23119,1.6474e+09,1,-1.29,4.44,21.79,-0.40575,-0.23621,-0.14143,-0.00055709,13.949,0.36784,0.19349,-0.51,6.04,1.16,86.58
23164,1.6474e+09,1,-1.27,4.46,21.77,-0.41611,-0.23524,-0.13879,0.002815,13.945,0.36527,0.19197,-0.51,6.04,1.16,86.58
23212,1.6475e+09,1,-1.29,4.47,21.78,-0.41068,-0.23705,-0.14142,-0.00089348,13.945,0.36504,0.19215,-0.51,6.03,1.16,86.58
23257,1.6475e+09,1,-1.27,4.48,21.77,-0.40486,-0.2365,-0.13872,0.00029975,13.945,0.36468,0.19229,-0.51,6.04,1.16,86.58
23302,1.6475e+09,1,-1.32,4.48,21.78,-0.40897,-0.235,-0.1338,0.0014501,13.94,0.36229,0.19089,-0.51,6.04,1.16,86.58
23347,1.6475e+09,1,-1.27,4.48,21.76,-0.41192,-0.23996,-0.14074,-0.0096265,13.94,0.36187,0.191,-0.51,5.99,1.15,86.58
23395,1.6475e+09,1,-1.28,4.49,21.77,-0.4096,-0.24525,-0.13384,-0.0074984,13.938,0.36034,0.19045,-0.51,6.01,1.16,86.58
23436,1.6475e+09,1,-1.29,4.46,21.78,-0.41007,-0.24372,-0.13928,-0.014568,13.937,0.35971,0.19073,-0.51,6.03,1.16,86.58
23481,1.6475e+09,1,-1.27,4.47,21.76,-0.41619,-0.24216,-0.13484,-0.010739,13.936,0.359,0.19094,-0.51,6.04,1.16,86.58
23525,1.6475e+09,1,-1.29,4.48,21.77,-0.41515,-0.24337,-0.13517,-0.013575,13.935,0.35796,0.1909,-0.51,6.02,1.16,86.58
23572,1.6475e+09,1,-1.27,4.47,21.76,-0.41207,-0.242,-0.13758,-0.018667,13.931,0.3555,0.18955,-0.51,6.02,1.16,86.58
23619,1.6475e+09,1,-1.32,4.48,21.76,-0.41252,-0.23966,-0.13307,-0.018146,13.929,0.35463,0.18961,-0.5,5.98,1.15,86.58
23661,1.6476e+09,1,-1.27,4.48,21.75,-0.41522,-0.24532,-0.1435,-0.03221,13.93,0.35467,0.19016,-0.5,5.97,1.15,86.58
23706,1.6476e+09,1,-1.3,4.49,21.76,-0.41017,-0.24798,-0.13205,-0.021902,13.932,0.35503,0.19085,-0.5,5.97,1.15,86.58
23750,1.6476e+09,1,-1.27,4.48,21.75,-0.40987,-0.25306,-0.14009,-0.02674,13.928,0.35254,0.18947,-0.5,5.97,1.15,86.58
23795,1.6476e+09,1,-1.29,4.49,21.75,-0.41448,-0.25081,-0.13254,-0.015459,13.929,0.3528,0.19008,-0.5,5.98,1.15,86.58
23840,1.6476e+09,1,-1.28,4.5,21.75,-0.41776,-0.25573,-0.13743,-0.017277,13.93,0.3529,0.19055,-0.5,5.98,1.15,86.58
23885,1.6476e+09,1,-1.29,4.51,21.76,-0.41629,-0.25037,-0.13467,-0.014037,13.93,0.35287,0.19104,-0.5,5.97,1.15,86.58
23929,1.6476e+09,1,-1.33,4.52,21.76,-0.41873,-0.24292,-0.13538,-0.011511,13.926,0.35013,0.18952,-0.5,5.97,1.15,86.58
23975,1.6476e+09,1,-1.28,4.52,21.75,-0.41802,-0.24391,-0.13937,-0.014096,13.926,0.35005,0.18994,-0.5,5.96,1.15,86.58
24021,1.6476e+09,1,-1.32,4.54,21.76,-0.41231,-0.25039,-0.13381,-0.0060871,13.926,0.34956,0.19007,-0.5,5.98,1.15,86.58
24065,1.6477e+09,1,-1.27,4.5,21.76,-0.41241,-0.25522,-0.13797,-0.0090922,13.926,0.34897,0.19014,-0.5,5.98,1.15,86.58
24114,1.6477e+09,1,-1.29,4.54,21.76,-0.41996,-0.25166,-0.13369,-0.0044924,13.926,0.34856,0.19027,-0.51,5.99,1.15,86.58
24158,1.6477e+09,1,-1.32,4.51,21.75,-0.42365,-0.25404,-0.13738,-0.009019,13.922,0.34603,0.1889,-0.51,5.99,1.15,86.58
24204,1.6477e+09,1,-1.28,4.56,21.75,-0.41472,-0.25231,-0.13812,-0.011627,13.921,0.34551,0.18895,-0.5,5.96,1.15,86.58
24249,1.6477e+09,1,-1.31,4.51,21.76,-0.41931,-0.25245,-0.13454,-0.011959,13.921,0.34488,0.18895,-0.5,5.94,1.14,86.58
24293,1.6477e+09,1,-1.29,4.53,21.74,-0.41709,-0.25692,-0.13833,-0.019718,13.92,0.34388,0.18866,-0.5,5.95,1.14,86.58
24341,1.6477e+09,1,-1.28,4.55,21.76,-0.41538,-0.26019,-0.13818,-0.022498,13.918,0.34227,0.18827,-0.5,5.97,1.15,86.58
24386,1.6477e+09,1,-1.23,4.5,21.75,-0.42253,-0.25807,-0.14701,-0.033703,13.917,0.34136,0.18824,-0.5,5.98,1.15,86.58
