LineNo,TimeUS,C,Roll,Pitch,Yaw,VN,VE,VD,dPD,PN,PE,PD,GX,GY,GZ,OH
312,1641887303,1,-1.02,1.76,21.65,-0.005743511,-0.02547296,0.03278124,0.03094577,14.4398,0.6178947,0.5565295,-0.52,6.17,1.18,86.58
540,1641933520,1,-1.02,1.76,21.66,-0.007070605,-0.0273127,0.03444564,0.03226231,14.43857,0.616476,0.5580471,-0.5,5.99,1.14,86.58
994,1642040400,1,-1.01,1.81,21.68,-0.005077836,-0.02883048,0.03751206,0.03378754,14.43176,0.6133631,0.5614711999999999,-0.48,5.74,1.1,86.58
1108,1642079518,1,-1.01,1.84,21.7,-0.003177301,-0.0284926,0.03904959,0.03438072,14.42978,0.6122087000000001,0.562822,-0.47,5.65,1.08,86.58
1215,1642156178,1,-1.02,1.97,21.73,-0.001993764,-0.02830385,-0.07399606,-0.06505609,14.4272,0.6103469,0.5591622000000001,-0.46,5.54,1.06,86.58
1326,1642225592,1,-1.04,2.19,21.76,-0.004821794,-0.02753161,-0.3277877,-0.2976879,14.42499,0.6090754,0.5475188,-0.46,5.43,1.04,86.58
1505,1642272695,1,-1.05,2.23,21.77,-0.005665779,-0.02961517,-0.3277781,-0.2997946,14.42111,0.6075616,0.5310788,-0.45,5.37,1.03,86.58
1687,1642306384,1,-1.05,2.28,21.77,-0.009056131,-0.03228908,-0.3268872,-0.3178181,14.41878,0.6064157999999999,0.5193313000000001,-0.45,5.4,1.03,86.58
1731,1642316520,1,-1.05,2.29,21.78,-0.01045428,-0.03304509,-0.3253874,-0.3215683,14.41772,0.6060539,0.5157649,-0.45,5.41,1.03,86.58
1776,1642327306,1,-1.05,2.31,21.78,-0.01281914,-0.0335249,-0.3256239,-0.3271905,14.41669,0.6056917000000001,0.5120980000000001,-0.46,5.44,1.04,86.58
1820,1642337346,1,-1.05,2.32,21.78,-0.01374245,-0.03388742,-0.3250945,-0.3310611,14.41655,0.6053596,0.5089129999999999,-0.46,5.44,1.04,86.58
1865,1642347796,1,-1.05,2.33,21.78,-0.0163758,-0.03414604,-0.3248241,-0.3353653,14.41551,0.6049609,0.5049683,-0.45,5.41,1.03,86.58
1912,1642357719,1,-1.04,2.35,21.78,-0.01817471,-0.03472555,-0.3248516,-0.3383705,14.41449,0.6045911,0.5013792,-0.45,5.38,1.03,86.58
1955,1642375142,1,-1.04,2.37,21.79,-0.01939476,-0.03552129,-0.3228092,-0.3394848,14.41257,0.6040525,0.4973168,-0.45,5.39,1.03,86.58
1997,1642384847,1,-1.04,2.38,21.8,-0.02094247,-0.03563873,-0.3214059,-0.3330078,14.41086,0.6037517,0.4954506,-0.45,5.41,1.03,86.58
2045,1642394934,1,-1.04,2.39,21.8,-0.02257076,-0.03681114,-0.321415,-0.3249268,14.40922,0.6034527,0.4935748,-0.46,5.44,1.04,86.58
2088,1642405673,1,-1.04,2.41,21.8,-0.02285402,-0.03695755,-0.3239999,-0.3148091,14.40897,0.603041,0.4900196,-0.46,5.44,1.04,86.58
2130,1642416196,1,-1.05,2.42,21.81,-0.02463095,-0.03746546,-0.324692,-0.3045759,14.40737,0.6027263,0.4880275,-0.46,5.43,1.04,86.58
2176,1642430103,1,-1.05,2.44,21.82,-0.02557373,-0.03789276,-0.3239685,-0.2879511,14.40573,0.602257,0.4846747,-0.46,5.46,1.04,86.58
2220,1642439937,1,-1.05,2.45,21.82,-0.02757012,-0.03688794,-0.3214134,-0.27484,14.40425,0.6019431,0.4825707,-0.46,5.47,1.05,86.58
2262,1642450769,1,-1.05,2.46,21.82,-0.02872552,-0.03761126,-0.3215143,-0.264431,14.40279,0.6015956,0.4802629,-0.46,5.48,1.05,86.58
2306,1642461396,1,-1.05,2.47,21.83,-0.02763236,-0.03991187,-0.320112,-0.2554436,14.4025,0.6012016,0.4770128,-0.46,5.48,1.05,86.58
2348,1642471335,1,-1.05,2.48,21.83,-0.02950592,-0.04092254,-0.3199593,-0.2496687,14.40107,0.6008254,0.4747651,-0.46,5.43,1.04,86.58
2391,1642481327,1,-1.05,2.49,21.83,-0.0314207,-0.04010669,-0.3195751,-0.2439833,14.3997,0.6004778,0.4726863,-0.46,5.44,1.04,86.58
2434,1642491760,1,-1.05,2.5,21.83,-0.03254071,-0.03981934,-0.3171857,-0.237288,14.39838,0.6001419,0.4706259,-0.46,5.46,1.04,86.58
2480,1642502532,1,-1.05,2.52,21.83,-0.03305917,-0.04073667,-0.3160614,-0.2307277,14.39805,0.5997353,0.4674104,-0.46,5.46,1.04,86.58
2524,1642512775,1,-1.05,2.52,21.83,-0.03437158,-0.04198639,-0.3162379,-0.227164,14.39673,0.5993459,0.4650272,-0.46,5.46,1.04,86.58
2566,1642522727,1,-1.05,2.54,21.84,-0.03478109,-0.04255405,-0.3166385,-0.2246444,14.39548,0.5989815000000001,0.4628601,-0.46,5.47,1.05,86.58
2609,1642532731,1,-1.05,2.55,21.84,-0.03627554,-0.04303845,-0.3164247,-0.2221425,14.39428,0.5986145,0.4606536,-0.46,5.49,1.05,86.58
2654,1642543279,1,-1.04,2.56,21.84,-0.03863638,-0.04336647,-0.3163723,-0.2210737,14.39311,0.5982438,0.4584626,-0.46,5.5,1.05,86.58
2702,1642559640,1,-1.04,2.57,21.85,-0.04167695,-0.04422176,-0.3165099,-0.2177058,14.39109,0.5975878999999999,0.4554988,-0.46,5.5,1.05,86.58
2747,1642569765,1,-1.04,2.58,21.85,-0.0429288,-0.04476419,-0.3166915,-0.2135569,14.38939,0.5972236,0.4546577,-0.46,5.52,1.05,86.58
2792,1642580489,1,-1.05,2.59,21.86,-0.0445325,-0.04447199,-0.3182362,-0.2052408,14.3877,0.5968073,0.4533159,-0.46,5.54,1.06,86.58
2837,1642591210,1,-1.05,2.6,21.86,-0.04578963,-0.04497595,-0.3169082,-0.1923699,14.38725,0.5963665,0.4501895,-0.46,5.54,1.06,86.58
2886,1642601212,1,-1.04,2.6,21.86,-0.04702948,-0.0459493,-0.317739,-0.183362,14.38565,0.5959888,0.4490945,-0.47,5.54,1.06,86.58
2930,1642611630,1,-1.05,2.61,21.86,-0.04939916,-0.04528126,-0.3180622,-0.1760283,14.38404,0.5955727,0.4476331,-0.46,5.54,1.06,86.58
2977,1642622314,1,-1.05,2.62,21.86,-0.05198422,-0.04569365,-0.3186055,-0.1705536,14.38353,0.5951179,0.4444356,-0.46,5.54,1.06,86.58
3021,1642632689,1,-1.05,2.63,21.86,-0.05464713,-0.04693665,-0.3174562,-0.1644418,14.38191,0.5946929,0.4428757,-0.46,5.52,1.06,86.58
3066,1642642775,1,-1.05,2.63,21.86,-0.05638599,-0.04600591,-0.3155924,-0.1591129,14.38038,0.5943109,0.4415452,-0.46,5.53,1.06,86.58
3110,1642652679,1,-1.05,2.64,21.87,-0.05923321,-0.04612184,-0.3143714,-0.15741,14.37887,0.5939289,0.4401838,-0.46,5.52,1.06,86.58
3155,1642663538,1,-1.05,2.65,21.87,-0.06032709,-0.04436362,-0.3137752,-0.1540162,14.37822,0.5934363,0.4367464,-0.46,5.52,1.06,86.58
3200,1642673799,1,-1.05,2.66,21.87,-0.06141509,-0.04555111,-0.3135078,-0.1531452,14.37672,0.5930635,0.4353033,-0.46,5.52,1.06,86.58
3244,1642683770,1,-1.05,2.67,21.87,-0.06460588,-0.04653498,-0.3124174,-0.1517232,14.37527,0.5926844,0.4338136,-0.46,5.54,1.06,86.58
3291,1642693772,1,-1.05,2.67,21.87,-0.06550038,-0.04630651,-0.312429,-0.1526894,14.37383,0.5922957,0.432228,-0.47,5.55,1.06,86.58
3341,1642704079,1,-1.05,2.68,21.88,-0.06642265,-0.04818135,-0.3121742,-0.1538709,14.37244,0.5919023,0.430568,-0.47,5.56,1.06,86.58
3387,1642714398,1,-1.05,2.69,21.88,-0.06896931000000001,-0.04917031,-0.3108318,-0.1529657,14.3717,0.5913646,0.4271496,-0.47,5.56,1.06,86.58
3431,1642724917,1,-1.05,2.69,21.88,-0.07046761999999999,-0.04801868,-0.3095188,-0.1539581,14.37031,0.5909602,0.4254881,-0.47,5.57,1.06,86.58
3476,1642734891,1,-1.05,2.7,21.88,-0.07223836,-0.04752832,-0.3094562,-0.1565657,14.36895,0.5905638,0.4237675,-0.47,5.59,1.07,86.58
3521,1642744873,1,-1.06,2.7,21.88,-0.0750083,-0.04929696,-0.3096105,-0.1605354,14.3676,0.5901577,0.4219497,-0.47,5.59,1.07,86.58
3568,1642758474,1,-1.05,2.7,21.89,-0.07655631,-0.0504426,-0.3077548,-0.1619951,14.36571,0.5895407,0.4204288,-0.47,5.6,1.07,86.58
3610,1642768980,1,-1.06,2.71,21.89,-0.07840408,-0.05125471,-0.3074544,-0.1605005,14.36493,0.5890287,0.417353,-0.47,5.6,1.07,86.58
3654,1642779695,1,-1.06,2.72,21.89,-0.08053250000000001,-0.05109974,-0.3056537,-0.1555046,14.36327,0.5885522,0.4166927,-0.47,5.58,1.07,86.58
3700,1642789699,1,-1.06,2.72,21.89,-0.08140934,-0.05124611,-0.3027199,-0.146213,14.36173,0.5881244,0.4162095,-0.47,5.61,1.07,86.58
3745,1642800184,1,-1.07,2.73,21.89,-0.08396170999999999,-0.05142999,-0.3027365,-0.1374277,14.36021,0.5876954,0.4155984,-0.47,5.64,1.08,86.58
3793,1642810770,1,-1.06,2.73,21.89,-0.08490828,-0.05134562,-0.3012199,-0.1300255,14.35864,0.5872169,0.414617,-0.47,5.63,1.08,86.58
3838,1642821398,1,-1.07,2.74,21.89,-0.08541316,-0.0519831,-0.3006075,-0.1252732,14.35779,0.5866975,0.4116101,-0.47,5.63,1.08,86.58
3882,1642831265,1,-1.06,2.75,21.89,-0.08689474,-0.05208674,-0.2997692,-0.1236388,14.35631,0.586261,0.4108386,-0.47,5.59,1.07,86.58
3927,1642841434,1,-1.07,2.76,21.9,-0.0896156,-0.05242466,-0.2994521,-0.1252052,14.35486,0.5858261,0.4099818,-0.47,5.58,1.07,86.58
3972,1642851984,1,-1.07,2.77,21.9,-0.09139152,-0.05374281,-0.2986885,-0.1229275,14.35386,0.5852404,0.4067016,-0.47,5.58,1.07,86.58
4016,1642861789,1,-1.07,2.77,21.9,-0.09199522,-0.05487378,-0.2980444,-0.1227243,14.35241,0.5847824,0.4057641,-0.47,5.58,1.07,86.58
4061,1642872381,1,-1.07,2.78,21.91,-0.09297,-0.05582679,-0.2955635,-0.1203845,14.35098,0.5843081,0.4047978,-0.47,5.59,1.07,86.58
4105,1642883194,1,-1.07,2.79,21.91,-0.09444025,-0.05661955,-0.2934368,-0.1199066,14.34949,0.583778,0.4034944,-0.47,5.6,1.07,86.58
4150,1642893104,1,-1.07,2.79,21.91,-0.09602693,-0.05593073,-0.2923319,-0.1189448,14.34811,0.5833015,0.4023973,-0.47,5.63,1.08,86.58
4195,1642903206,1,-1.07,2.8,21.92,-0.09672952,-0.05624142,-0.2901625,-0.1176617,14.34675,0.5828184,0.4012098,-0.47,5.64,1.08,86.58
4244,1642913331,1,-1.07,2.8,21.92,-0.09903447,-0.05699262,-0.2915875,-0.118965,14.34568,0.5821916,0.3980169,-0.47,5.64,1.08,86.58
4289,1642923405,1,-1.07,2.81,21.92,-0.1008026,-0.05785364,-0.2929391,-0.1217598,14.34442,0.5817624,0.397071,-0.47,5.65,1.08,86.58
4333,1642933323,1,-1.07,2.81,21.92,-0.1023055,-0.05871526,-0.2955022,-0.1275338,14.34296,0.5812032,0.3954093,-0.47,5.66,1.08,86.58
4376,1642947407,1,-1.07,2.82,21.93,-0.1033303,-0.05822839,-0.2941509,-0.1282777,14.34128,0.580732,0.3936205,-0.48,5.67,1.09,86.58
4418,1642957618,1,-1.07,2.83,21.93,-0.103361,-0.05826577,-0.293297,-0.1269398,14.34003,0.5804908,0.3929499,-0.48,5.69,1.09,86.58
4461,1642968389,1,-1.07,2.83,21.93,-0.1044702,-0.06000352,-0.2919354,-0.1269441,14.33899,0.5799041,0.390025,-0.48,5.69,1.09,86.58
4505,1642978770,1,-1.07,2.84,21.93,-0.1056333,-0.0611213,-0.2906952,-0.127989,14.33764,0.5795689000000001,0.3889986,-0.47,5.64,1.08,86.58
4547,1642988648,1,-1.07,2.84,21.93,-0.1070668,-0.06044157,-0.2909656,-0.1289599,14.33641,0.5792863,0.3881756,-0.48,5.66,1.08,86.58
4590,1642998654,1,-1.07,2.85,21.93,-0.1088459,-0.06007953,-0.2906319,-0.128842,14.33518,0.5789997,0.3872395,-0.48,5.68,1.09,86.58
4632,1643008639,1,-1.07,2.85,21.93,-0.1089254,-0.06030004,-0.2891724,-0.1287277,14.33397,0.578704,0.3862295,-0.48,5.68,1.09,86.58
4681,1643019308,1,-1.07,2.85,21.93,-0.1101278,-0.06076012,-0.2875436,-0.1261299,14.33288,0.5780994,0.3833511,-0.48,5.68,1.09,86.58
4724,1643029853,1,-1.07,2.86,21.94,-0.1116013,-0.06147832,-0.2875176,-0.1276561,14.33156,0.5777264,0.3819802,-0.48,5.68,1.09,86.58
4767,1643039906,1,-1.07,2.86,21.93,-0.1122108,-0.06202114,-0.2861309,-0.1277965,14.33035,0.5773981,0.3808291,-0.48,5.69,1.09,86.58
4810,1643050341,1,-1.07,2.87,21.94,-0.1142709,-0.06171211,-0.284867,-0.1291175,14.32904,0.5769918000000001,0.3792926,-0.48,5.7,1.09,86.58
4852,1643060618,1,-1.07,2.87,21.94,-0.1159385,-0.06201714,-0.2864073,-0.1343804,14.32784,0.576647,0.3780172,-0.48,5.7,1.09,86.58
4895,1643071255,1,-1.07,2.87,21.94,-0.1176762,-0.06286745000000001,-0.2873889,-0.1371723,14.32668,0.5760285000000001,0.37517,-0.48,5.7,1.09,86.58
4938,1643081238,1,-1.07,2.88,21.94,-0.1200664,-0.06241591,-0.2878155,-0.1407121,14.32547,0.5756751,0.373822,-0.48,5.71,1.09,86.58
4981,1643091646,1,-1.07,2.88,21.94,-0.120528,-0.06257461,-0.2857876,-0.1411994,14.32413,0.5752437,0.3720821,-0.48,5.74,1.1,86.58
5024,1643101636,1,-1.07,2.88,21.94,-0.1212591,-0.06252331,-0.284474,-0.1444318,14.32293,0.5748734,0.3705988,-0.48,5.73,1.1,86.58
5067,1643111695,1,-1.07,2.89,21.94,-0.1225256,-0.06398558999999999,-0.2840419,-0.149004,14.32172,0.574245,0.3677724,-0.48,5.73,1.1,86.58
5114,1643122367,1,-1.07,2.89,21.94,-0.1240572,-0.06420960000000001,-0.2819885,-0.1525248,14.32049,0.5738394999999999,0.3662073,-0.48,5.71,1.09,86.58
5157,1643132665,1,-1.07,2.9,21.95,-0.1262042,-0.0647384,-0.281772,-0.1567694,14.31917,0.5733878,0.3644151,-0.48,5.74,1.1,86.58
5200,1643142722,1,-1.06,2.9,21.95,-0.1272171,-0.0637823,-0.2816433,-0.1612841,14.31794,0.5729799,0.3627971,-0.48,5.74,1.1,86.58
5240,1643154334,1,-1.07,2.91,21.95,-0.1291922,-0.06407469,-0.2804575,-0.1638958,14.31662,0.5727217999999999,0.3623484,-0.48,5.75,1.1,86.58
5284,1643164340,1,-1.07,2.91,21.95,-0.1300872,-0.06483916000000001,-0.2806144,-0.1610681,14.3153,0.5724391,0.3617562,-0.48,5.77,1.1,86.58
5329,1643174327,1,-1.07,2.92,21.95,-0.1315283,-0.06594817,-0.2787661,-0.1558877,14.3141,0.572201,0.3613328,-0.48,5.77,1.1,86.58
5373,1643185274,1,-1.07,2.92,21.95,-0.1334292,-0.06652379999999999,-0.2787365,-0.1483217,14.31278,0.5715417,0.3585677,-0.48,5.77,1.1,86.58
5418,1643195320,1,-1.07,2.93,21.95,-0.1339474,-0.06740327,-0.2762533,-0.1391324,14.31143,0.5712022,0.3577635,-0.49,5.78,1.11,86.58
5462,1643205578,1,-1.06,2.93,21.96,-0.1343219,-0.06669707,-0.2738913,-0.1315231,14.31022,0.5709202,0.3571803,-0.49,5.79,1.11,86.58
5507,1643216262,1,-1.06,2.94,21.96,-0.1360104,-0.06711514,-0.2706762,-0.1217509,14.30902,0.5706326,0.3565226,-0.49,5.81,1.11,86.58
5556,1643225866,1,-1.06,2.94,21.96,-0.1368922,-0.06828824,-0.2697745,-0.1166586,14.30781,0.5703284,0.3557996,-0.49,5.81,1.11,86.58
5601,1643235867,1,-1.06,2.94,21.97,-0.1386955,-0.06812849999999999,-0.2684588,-0.1116788,14.30643,0.569644,0.3531005,-0.49,5.81,1.11,86.58
5645,1643246250,1,-1.07,2.95,21.97,-0.1400414,-0.06848837000000001,-0.2666566,-0.1083417,14.30521,0.5693217,0.3523227,-0.49,5.8,1.11,86.58
5690,1643256741,1,-1.07,2.95,21.97,-0.1404491,-0.06846046,-0.2669202,-0.1098736,14.30382,0.5689081,0.3511634,-0.49,5.79,1.11,86.58
5735,1643267273,1,-1.07,2.96,21.97,-0.142575,-0.06879775,-0.2671248,-0.1119305,14.30242,0.5682283,0.3485262,-0.49,5.79,1.11,86.58
5779,1643278202,1,-1.07,2.96,21.97,-0.1429638,-0.06857541,-0.2683255,-0.1205206,14.30101,0.5678041,0.3473098,-0.48,5.71,1.09,86.58
5827,1643288935,1,-1.06,2.97,21.97,-0.1439851,-0.06896287,-0.269722,-0.1273974,14.29943,0.5670474,0.3443427,-0.48,5.71,1.09,86.58
5872,1643299270,1,-1.06,2.97,21.97,-0.1439313,-0.06895643999999999,-0.2696165,-0.1335085,14.29818,0.5666955,0.3433443,-0.48,5.68,1.09,86.58
5917,1643309287,1,-1.06,2.97,21.98,-0.1455781,-0.06864119,-0.2709155,-0.1413455,14.29672,0.5660047,0.3406338,-0.48,5.68,1.09,86.58
5961,1643319325,1,-1.06,2.98,21.98,-0.1465859,-0.0694302,-0.269675,-0.1455462,14.29545,0.5656477,0.3395732,-0.47,5.65,1.08,86.58
6011,1643328987,1,-1.05,2.99,21.98,-0.1485389,-0.07004781,-0.2695938,-0.1482191,14.29416,0.5652692,0.3384059,-0.48,5.67,1.09,86.58
6055,1643340405,1,-1.05,2.99,21.99,-0.1492433,-0.07032244999999999,-0.267096,-0.1464034,14.2929,0.5652204,0.3380674,-0.48,5.68,1.09,86.58
6098,1643351230,1,-1.05,3,22,-0.1500795,-0.06961335,-0.266319,-0.1408965,14.29162,0.5651516,0.3375928,-0.48,5.7,1.09,86.58
6142,1643361242,1,-1.05,3.01,22,-0.1509543,-0.06861003,-0.2651415,-0.1351929,14.2905,0.5651411,0.3372977,-0.48,5.71,1.09,86.58
6187,1643371195,1,-1.06,3.01,22,-0.1518799,-0.06913933999999999,-0.2643765,-0.1292162,14.28938,0.5651024,0.3368883,-0.48,5.72,1.1,86.58
6234,1643384397,1,-1.06,3.02,21.99,-0.1544344,-0.06969491,-0.2644615,-0.1180753,14.28764,0.5647699,0.3353926,-0.48,5.74,1.1,86.58
6279,1643394241,1,-1.05,3.03,21.98,-0.1550566,-0.07035223,-0.2649148,-0.1139648,14.28664,0.5647537,0.3350838,-0.48,5.76,1.1,86.58
6323,1643404759,1,-1.05,3.04,21.97,-0.1558904,-0.06976162,-0.2632681,-0.1053945,14.28536,0.5646019,0.3341923,-0.49,5.78,1.11,86.58
6368,1643415306,1,-1.06,3.04,21.96,-0.1566076,-0.07024263,-0.2626646,-0.09837485,14.2838,0.5639192,0.3315755,-0.49,5.78,1.11,86.58
6415,1643426307,1,-1.06,3.05,21.95,-0.1558885,-0.07107408,-0.2632803,-0.09609838,14.28249,0.5637311,0.3305778,-0.49,5.78,1.11,86.58
6462,1643436871,1,-1.07,3.05,21.95,-0.1565312,-0.0716712,-0.2629961,-0.09490137999999999,14.28117,0.5635146,0.3295031,-0.49,5.78,1.11,86.58
6506,1643446775,1,-1.08,3.05,21.95,-0.1568149,-0.07176984,-0.2630611,-0.0960739,14.28001,0.5633284,0.328611,-0.49,5.78,1.11,86.58
6550,1643456927,1,-1.08,3.06,21.95,-0.1580887,-0.07274735,-0.264162,-0.09903462,14.27884,0.5631228,0.3276347,-0.49,5.8,1.11,86.58
6598,1643469946,1,-1.08,3.07,21.96,-0.1582676,-0.07320036000000001,-0.2604523,-0.09536295,14.27718,0.562683,0.325954,-0.49,5.82,1.12,86.58
6642,1643480418,1,-1.07,3.07,21.97,-0.1614183,-0.07374801,-0.2621185,-0.0990143,14.27558,0.5619572,0.3233407,-0.49,5.82,1.12,86.58
6687,1643490233,1,-1.08,3.08,21.99,-0.163723,-0.07460588,-0.2612511,-0.1013495,14.27434,0.5617095,0.3223638,-0.49,5.81,1.11,86.58
6732,1643500387,1,-1.08,3.09,22,-0.1652643,-0.07425691,-0.2601921,-0.1023519,14.27311,0.5614473,0.3213556,-0.49,5.83,1.12,86.58
6777,1643510812,1,-1.08,3.09,22.01,-0.1667284,-0.0738205,-0.261481,-0.1106158,14.27166,0.5610844,0.3199906,-0.49,5.79,1.11,86.58
6822,1643521324,1,-1.08,3.1,22.01,-0.1692194,-0.07357295,-0.2608452,-0.11428,14.26997,0.5603487,0.3173748,-0.49,5.79,1.11,86.58
6870,1643531368,1,-1.08,3.1,22.01,-0.170607,-0.07440284,-0.2608871,-0.1193171,14.26866,0.5600383,0.3162105,-0.49,5.8,1.11,86.58
6917,1643541783,1,-1.07,3.1,22,-0.171007,-0.0735632,-0.2603964,-0.1229063,14.26715,0.5596430999999999,0.3147021,-0.49,5.83,1.12,86.58
6960,1643557508,1,-1.07,3.1,21.99,-0.1752741,-0.07341955999999999,-0.261364,-0.1336498,14.26512,0.5592964,0.3132992,-0.48,5.76,1.1,86.58
7002,1643567606,1,-1.06,3.11,21.98,-0.1766648,-0.07595288,-0.2589056,-0.1335742,14.26408,0.5593491,0.3133318,-0.48,5.77,1.1,86.58
7050,1643580525,1,-1.06,3.11,21.98,-0.1760729,-0.07669910000000001,-0.2584632,-0.1286848,14.26196,0.5584331,0.3102287,-0.48,5.77,1.1,86.58
7093,1643590567,1,-1.07,3.13,21.96,-0.1751648,-0.07532247,-0.258305,-0.1242621,14.26073,0.5583559,0.3099614,-0.48,5.75,1.1,86.58
7135,1643601186,1,-1.07,3.13,21.96,-0.1773472,-0.07319625,-0.2547892,-0.1182136,14.25966,0.5583515999999999,0.3098722,-0.48,5.74,1.1,86.58
7179,1643611650,1,-1.06,3.13,21.95,-0.179997,-0.07384779,-0.2534542,-0.1140988,14.25835,0.5582510000000001,0.3094282,-0.48,5.74,1.1,86.58
7222,1643621628,1,-1.07,3.16,21.96,-0.1816142,-0.07473017,-0.2554166,-0.1101886,14.25656,0.5575148,0.3068972,-0.48,5.74,1.1,86.58
7268,1643631663,1,-1.08,3.16,21.97,-0.18078,-0.07745357,-0.253001,-0.1102255,14.25541,0.5574453,0.306623,-0.48,5.68,1.09,86.58
7311,1643642421,1,-1.07,3.16,21.98,-0.1828095,-0.07710752999999999,-0.2526363,-0.1074716,14.2536,0.5566813,0.3041151,-0.48,5.68,1.09,86.58
7354,1643652851,1,-1.08,3.18,21.99,-0.1855301,-0.07208179000000001,-0.2541808,-0.1077951,14.25224,0.5565488,0.3035032,-0.48,5.68,1.09,86.58
7399,1643662739,1,-1.07,3.17,22,-0.1863669,-0.06866934,-0.2491332,-0.1008489,14.25102,0.5565035,0.3030505,-0.48,5.7,1.09,86.58
7441,1643672721,1,-1.06,3.19,22.01,-0.1880885,-0.07148219,-0.2494874,-0.09926291,14.24979,0.5564353,0.3025301,-0.48,5.71,1.09,86.58
7481,1643682974,1,-1.07,3.2,22.01,-0.1888292,-0.07714735,-0.2518263,-0.1010643,14.24852,0.5562801000000001,0.3018739,-0.48,5.71,1.09,86.58
7523,1643693367,1,-1.08,3.21,22.02,-0.1898519,-0.07705455,-0.2498693,-0.09665189,14.24664,0.5555075,0.2993863,-0.48,5.71,1.09,86.58
7567,1643703627,1,-1.09,3.21,22.01,-0.1924671,-0.07021038,-0.248873,-0.09442001999999999,14.24515,0.5552837,0.2986186,-0.48,5.73,1.1,86.58
7610,1643713652,1,-1.05,3.22,22.01,-0.1946433,-0.070725,-0.2515408,-0.09677191,14.2438,0.5551475,0.2979802,-0.48,5.73,1.1,86.58
7653,1643723652,1,-1.06,3.23,21.99,-0.1931444,-0.07934452,-0.2494765,-0.09473738,14.24245,0.5549302,0.2972659,-0.48,5.74,1.1,86.58
7705,1643736131,1,-1.07,3.24,22,-0.1954404,-0.08057395000000001,-0.2505768,-0.09662794,14.2407,0.5544744,0.295959,-0.48,5.74,1.1,86.58
7751,1643749226,1,-1.08,3.23,21.97,-0.1993403,-0.07384396,-0.2478376,-0.09282926,14.23944,0.5543671999999999,0.2959989,-0.48,5.76,1.1,86.58
7793,1643759735,1,-1.06,3.26,21.98,-0.2007195,-0.07649523,-0.2471343,-0.08457315999999999,14.23851,0.5544397,0.2963765,-0.49,5.78,1.11,86.58
7839,1643770319,1,-1.06,3.25,21.96,-0.1979277,-0.08653136,-0.2486313,-0.07891571999999999,14.23655,0.5536371,0.2939361,-0.49,5.78,1.11,86.58
7886,1643780243,1,-1.08,3.26,21.98,-0.1975934,-0.08195384999999999,-0.2493461,-0.07255547,14.23584,0.553651,0.2945258,-0.48,5.76,1.1,86.58
7931,1643790531,1,-1.1,3.24,21.98,-0.2038945,-0.07476822,-0.2453593,-0.0608056,14.23487,0.5536242,0.2947919,-0.48,5.77,1.11,86.58
7975,1643800399,1,-1.07,3.27,21.99,-0.2050951,-0.07693969000000001,-0.247048,-0.0528256,14.23398,0.5536694,0.295085,-0.49,5.79,1.11,86.58
8020,1643810356,1,-1.08,3.26,21.97,-0.2007978,-0.08554404,-0.2432866,-0.04096054,14.23314,0.5536294,0.295332,-0.49,5.81,1.11,86.58
8064,1643820395,1,-1.1,3.29,22,-0.2016276,-0.08323588,-0.2437758,-0.03628526,14.23222,0.5535099999999999,0.2953902,-0.49,5.81,1.11,86.58
8109,1643831314,1,-1.11,3.25,22,-0.209517,-0.07555944000000001,-0.2411333,-0.02705968,14.23022,0.5527524,0.293036,-0.49,5.81,1.11,86.58
8159,1643841183,1,-1.08,3.31,22,-0.2097837,-0.07426178999999999,-0.2440082,-0.02659828,14.22919,0.5527214,0.2929914,-0.49,5.81,1.11,86.58
8203,1643851183,1,-1.06,3.28,21.98,-0.2065746,-0.08049309,-0.2438546,-0.0292258,14.22712,0.5519560999999999,0.2905951,-0.49,5.81,1.11,86.58
8249,1643861361,1,-1.08,3.32,22,-0.2042258,-0.07964675,-0.2403885,-0.02982,14.22591,0.5517401,0.2902198,-0.48,5.76,1.1,86.58
8293,1643872142,1,-1.05,3.29,21.99,-0.2121165,-0.07952097,-0.2446857,-0.03620849,14.22487,0.551616,0.2900433,-0.49,5.78,1.11,86.58
8339,1643881942,1,-1.06,3.33,22,-0.2099462,-0.07939172,-0.2366194,-0.03056083,14.22373,0.5514684,0.2896873,-0.49,5.79,1.11,86.58
8383,1643891932,1,-1.02,3.31,21.97,-0.2077509,-0.0824329,-0.2437313,-0.04156767,14.22259,0.551266,0.289406,-0.49,5.79,1.11,86.58
8428,1643902274,1,-1.06,3.34,21.98,-0.2085861,-0.08129844,-0.235975,-0.03723506,14.22055,0.5504612,0.287039,-0.49,5.79,1.11,86.58
8473,1643912367,1,-1.02,3.32,21.97,-0.2165445,-0.08327932,-0.2431168,-0.04921961,14.21919,0.5501636,0.2864686,-0.49,5.78,1.11,86.58
8518,1643922559,1,-1.05,3.33,21.97,-0.2135562,-0.08464473,-0.2336409,-0.04245891,14.21794,0.5498964,0.2859806,-0.49,5.81,1.11,86.58
8563,1643932711,1,-1.03,3.35,21.96,-0.2136596,-0.08478839000000001,-0.2408957,-0.05383817,14.2167,0.5495906,0.2854353,-0.49,5.81,1.11,86.58
8611,1643942716,1,-1.08,3.34,21.97,-0.2160045,-0.08245936,-0.2324146,-0.05239327,14.21543,0.5492728,0.284815,-0.49,5.8,1.11,86.58
8655,1643953593,1,-1.05,3.36,21.97,-0.2223725,-0.08449125,-0.2408172,-0.06616795,14.21303,0.5483462,0.2822019,-0.49,5.8,1.11,86.58
8696,1643963934,1,-1.07,3.35,21.97,-0.2184067,-0.08699096000000001,-0.2324006,-0.05905456,14.21278,0.548378,0.2828726,-0.49,5.81,1.11,86.58
8741,1643973942,1,-1.08,3.38,21.99,-0.2183254,-0.08274753999999999,-0.2363208,-0.06246548,14.21248,0.5483861,0.2834009,-0.49,5.81,1.11,86.58
8787,1643984173,1,-1.08,3.34,21.98,-0.2233335,-0.08036707,-0.2329777,-0.0577873,14.21211,0.5484062,0.283991,-0.49,5.81,1.11,86.58
8828,1643994377,1,-1.07,3.39,21.99,-0.2205876,-0.08401631,-0.2349509,-0.05680577,14.21141,0.5482975,0.2841534,-0.49,5.82,1.12,86.58
8874,1644005282,1,-1.08,3.37,21.98,-0.2205067,-0.08571532,-0.2347378,-0.05038957,14.2092,0.5474396,0.281833,-0.49,5.82,1.12,86.58
8918,1644014860,1,-1.1,3.39,21.99,-0.2202528,-0.08160421,-0.2325961,-0.04395955,14.2087,0.547365,0.2821162,-0.49,5.82,1.12,86.58
8962,1644024841,1,-1.07,3.38,21.97,-0.2269692,-0.08209269,-0.2367322,-0.04228678,14.20811,0.5472986,0.2823111,-0.49,5.85,1.12,86.58
9008,1644035289,1,-1.08,3.39,21.97,-0.2222111,-0.08526739999999999,-0.2332253,-0.03434215,14.20743,0.5471699,0.2823035,-0.49,5.86,1.12,86.58
9056,1644044909,1,-1.07,3.41,21.95,-0.2237597,-0.08738795000000001,-0.2385616,-0.03809594,14.20676,0.5469922,0.2822469,-0.49,5.86,1.12,86.58
9102,1644054853,1,-1.11,3.38,21.97,-0.2294692,-0.08395904,-0.2341094,-0.03316278,14.206,0.5467914,0.2820394,-0.49,5.88,1.13,86.58
9146,1644065593,1,-1.08,3.41,21.96,-0.2345084,-0.08498601,-0.2378419,-0.03546931,14.20344,0.5458489,0.2794297,-0.49,5.88,1.13,86.58
9191,1644075617,1,-1.1,3.4,21.96,-0.2290529,-0.0892256,-0.2292796,-0.02806129,14.20262,0.5456138,0.2791438,-0.49,5.88,1.13,86.58
9235,1644085711,1,-1.09,3.41,21.95,-0.2271622,-0.09040049,-0.2316188,-0.03279581,14.20177,0.545326,0.2790194,-0.49,5.88,1.13,86.58
9280,1644095402,1,-1.12,3.42,21.96,-0.2306537,-0.08652999,-0.2308169,-0.03463193,14.20085,0.5450278,0.2787895,-0.5,5.89,1.13,86.58
9325,1644106249,1,-1.1,3.43,21.95,-0.2274392,-0.0882252,-0.2329853,-0.0390371,14.19988,0.5447106,0.2784344,-0.5,5.91,1.13,86.58
9369,1644116792,1,-1.11,3.44,21.95,-0.2231515,-0.09322245,-0.2348411,-0.0427633,14.19864,0.5442398000000001,0.2777434,-0.5,5.93,1.14,86.58
9414,1644127147,1,-1.13,3.43,21.96,-0.2271705,-0.09185159,-0.2314142,-0.04273687,14.19759,0.5438304,0.2771802,-0.5,5.94,1.14,86.58
9459,1644137392,1,-1.13,3.43,21.97,-0.2350286,-0.09142198999999999,-0.2353268,-0.04945738,14.19643,0.5434186,0.2765399,-0.5,5.97,1.14,86.58
9508,1644147771,1,-1.16,3.44,21.98,-0.2359945,-0.09446272,-0.231846,-0.04882008,14.19384,0.5424042,0.2739585,-0.5,5.97,1.14,86.58
9552,1644163824,1,-1.16,3.44,21.97,-0.2303772,-0.09319774,-0.2324265,-0.05600582,14.1936,0.542316,0.2745902,-0.5,5.99,1.15,86.58
9595,1644173820,1,-1.14,3.44,21.98,-0.2364633,-0.09285104,-0.2327801,-0.05868266,14.19352,0.5423041,0.2751159,-0.5,5.99,1.15,86.58
9638,1644184255,1,-1.15,3.43,21.98,-0.2349978,-0.09669381000000001,-0.2302695,-0.05273226,14.19114,0.541363,0.272771,-0.5,5.99,1.15,86.58
9680,1644195266,1,-1.13,3.45,21.96,-0.2354782,-0.09682035,-0.2343735,-0.05493674,14.19079,0.5411785,0.2729539,-0.5,5.99,1.15,86.58
9725,1644205881,1,-1.16,3.42,21.96,-0.2400299,-0.09311700000000001,-0.2273166,-0.04375665,14.19032,0.5409689,0.2729746,-0.5,6,1.15,86.58
9767,1644215700,1,-1.11,3.45,21.95,-0.244301,-0.09457984,-0.2353971,-0.04854753,14.18995,0.5408218,0.2731015,-0.51,6.01,1.15,86.58
9810,1644225711,1,-1.13,3.42,21.95,-0.2381223,-0.09461938,-0.2272629,-0.03892493,14.18951,0.5406379,0.2731204,-0.51,6.01,1.15,86.58
9853,1644235729,1,-1.1,3.45,21.94,-0.2367088,-0.0941584,-0.2317179,-0.0426488,14.18903,0.5404129,0.273016,-0.51,6.02,1.15,86.58
9898,1644246329,1,-1.12,3.41,21.94,-0.243571,-0.09712875999999999,-0.2287125,-0.03739038,14.18638,0.5393722,0.2705044,-0.51,6.02,1.15,86.58
9942,1644257293,1,-1.09,3.46,21.94,-0.2409099,-0.100229,-0.2304283,-0.03995208,14.18576,0.5391107000000001,0.2702854,-0.5,6.01,1.15,86.58
9985,1644267327,1,-1.09,3.45,21.94,-0.2399664,-0.1015889,-0.2288207,-0.04074117,14.18487,0.5387124,0.2697926,-0.5,6.01,1.15,86.58
10030,1644277301,1,-1.11,3.45,21.95,-0.2425237,-0.0989934,-0.226601,-0.04123664,14.18417,0.5383921,0.2694209,-0.51,6.02,1.15,86.58
10072,1644287420,1,-1.09,3.45,21.95,-0.2498484,-0.1005321,-0.2284929,-0.04701964,14.18357,0.5381435,0.2694583,-0.51,6.02,1.15,86.58
10115,1644298341,1,-1.12,3.43,21.95,-0.2499574,-0.1041944,-0.2266513,-0.04651118,14.18084,0.5370421,0.2669725,-0.51,6.02,1.15,86.58
10158,1644308393,1,-1.12,3.47,21.96,-0.2517058,-0.1039849,-0.2287873,-0.05193882,14.17975,0.5365207,0.2665082,-0.51,6.02,1.15,86.58
10202,1644319261,1,-1.16,3.43,21.96,-0.2563089,-0.1012731,-0.2242416,-0.04952547,14.17882,0.5360743,0.2661514,-0.51,6.03,1.16,86.58
10245,1644329343,1,-1.13,3.5,21.97,-0.2531236,-0.1019737,-0.2280955,-0.05689552,14.17752,0.5355052,0.2654662,-0.51,6.03,1.16,86.58
10289,1644339334,1,-1.16,3.46,21.96,-0.249579,-0.1042184,-0.2229375,-0.05792172,14.17646,0.534999,0.2649553,-0.51,6.01,1.15,86.58
10335,1644353785,1,-1.18,3.44,21.97,-0.2550493,-0.1064132,-0.2215934,-0.06035861,14.17588,0.5345029,0.2643662,-0.51,6.03,1.16,86.58
10379,1644364222,1,-1.14,3.47,21.96,-0.2618806,-0.106331,-0.227351,-0.06611798000000001,14.17618,0.5344251,0.2646125,-0.51,6.05,1.16,86.58
10424,1644374488,1,-1.18,3.45,21.96,-0.2608383,-0.1042952,-0.2210037,-0.05839147,14.17334,0.5332603,0.2621551,-0.51,6.05,1.16,86.58
10470,1644384391,1,-1.14,3.49,21.95,-0.2562275,-0.1015803,-0.2253386,-0.06262732,14.17357,0.5331202,0.2623007,-0.51,6.02,1.15,86.58
10514,1644395181,1,-1.17,3.46,21.95,-0.2577104,-0.09810145000000001,-0.2183505,-0.05479139,14.17368,0.5329601,0.2623187,-0.51,6.03,1.16,86.58
10559,1644405202,1,-1.12,3.5,21.95,-0.2564552,-0.09787232,-0.2252609,-0.06170072,14.1737,0.5328012,0.2624286,-0.51,6.03,1.16,86.58
10603,1644415837,1,-1.12,3.49,21.94,-0.2468951,-0.102783,-0.2176792,-0.05161417,14.17335,0.5324835999999999,0.2621661,-0.51,6.05,1.16,86.58
10648,1644426267,1,-1.13,3.5,21.95,-0.2497192,-0.1032413,-0.2188828,-0.05114904,14.17086,0.5314677,0.2599732,-0.51,6.05,1.16,86.58
10693,1644436214,1,-1.12,3.48,21.95,-0.2567896,-0.1056214,-0.2169086,-0.04900694,14.17069,0.5312327,0.259892,-0.51,6.03,1.16,86.58
10738,1644446223,1,-1.12,3.49,21.96,-0.250942,-0.1114024,-0.218452,-0.04905464,14.17045,0.530949,0.2596941,-0.51,6.06,1.16,86.58
10787,1644457129,1,-1.13,3.49,21.95,-0.2513481,-0.1127241,-0.2171585,-0.05042126,14.16992,0.530487,0.2592281,-0.51,6.03,1.16,86.58
10832,1644467525,1,-1.17,3.48,21.96,-0.2573185,-0.1066886,-0.2175907,-0.05426688,14.16934,0.5299969,0.2586584,-0.51,6.03,1.16,86.58
10877,1644477896,1,-1.14,3.5,21.96,-0.2631665,-0.1065189,-0.2246913,-0.06281132,14.16675,0.5289211,0.2564768,-0.51,6.03,1.16,86.58
10921,1644487768,1,-1.18,3.47,21.96,-0.2581485,-0.1070705,-0.2150206,-0.06138951,14.16633,0.5285121,0.2560624,-0.5,5.96,1.14,86.58
10966,1644497832,1,-1.16,3.51,21.97,-0.2603051,-0.1083152,-0.2213099,-0.07233604,14.16378,0.5273926,0.2539088,-0.5,5.96,1.14,86.58
11011,1644507793,1,-1.2,3.47,21.97,-0.2639252,-0.1034653,-0.2151157,-0.07241359999999999,14.1632,0.5269367,0.2533994,-0.5,5.95,1.14,86.58
11055,1644517895,1,-1.15,3.52,21.98,-0.2649552,-0.1054047,-0.2204331,-0.08333689,14.1626,0.5265242,0.2531769,-0.5,5.95,1.14,86.58
11101,1644527766,1,-1.19,3.49,21.96,-0.2584524,-0.1067037,-0.2104379,-0.07724549,14.16189,0.526052,0.2528414,-0.5,5.96,1.14,86.58
11146,1644538663,1,-1.16,3.53,21.97,-0.2589214,-0.1118892,-0.2145157,-0.08246423,14.159,0.5248501,0.2504651,-0.5,5.96,1.14,86.58
11193,1644552356,1,-1.15,3.53,21.96,-0.273556,-0.1115518,-0.2204262,-0.09128772,14.15739,0.5240163,0.2494125,-0.5,5.95,1.14,86.58
11238,1644563099,1,-1.2,3.52,21.96,-0.2652086,-0.1110638,-0.214312,-0.08313531,14.15816,0.5238638,0.2498467,-0.5,5.95,1.14,86.58
11283,1644572827,1,-1.17,3.57,21.95,-0.2640179,-0.108553,-0.2230292,-0.08591055,14.15915,0.5237904,0.250395,-0.5,5.97,1.14,86.58
11329,1644583432,1,-1.21,3.53,21.96,-0.2644164,-0.1072348,-0.2144128,-0.07034889,14.15968,0.5235665,0.2505532,-0.5,5.97,1.14,86.58
11373,1644593921,1,-1.16,3.58,21.96,-0.2598518,-0.1113016,-0.2210377,-0.07169018000000001,14.16036,0.5234308,0.2508172,-0.5,5.97,1.14,86.58
11421,1644607292,1,-1.18,3.55,21.96,-0.2591171,-0.1156125,-0.2156698,-0.05852088,14.16019,0.5228906,0.2506244,-0.5,5.97,1.15,86.58
11467,1644618287,1,-1.22,3.51,21.97,-0.2663956,-0.1100556,-0.2143385,-0.05111634,14.1573,0.5216495,0.248232,-0.5,5.97,1.15,86.58
11512,1644628332,1,-1.2,3.57,21.97,-0.268618,-0.1107624,-0.2186805,-0.05946019,14.15781,0.521468,0.2486517,-0.49,5.88,1.13,86.58
11557,1644638682,1,-1.23,3.52,21.96,-0.2609654,-0.1159517,-0.2117899,-0.05101796,14.15495,0.5202054,0.2462956,-0.49,5.88,1.13,86.58
11602,1644649201,1,-1.22,3.58,21.97,-0.2606832,-0.1145453,-0.2162591,-0.05470149,14.15542,0.5199275,0.2465899,-0.49,5.87,1.13,86.58
11647,1644659221,1,-1.25,3.54,21.97,-0.2648486,-0.112814,-0.2101814,-0.04683026,14.15575,0.5196316,0.2467821,-0.49,5.89,1.13,86.58
11696,1644669307,1,-1.19,3.61,21.98,-0.2568462,-0.1192367,-0.2115308,-0.04454027,14.15565,0.5191585,0.2466027,-0.5,5.91,1.13,86.58
11741,1644679326,1,-1.21,3.59,21.98,-0.2563315,-0.118785,-0.2066763,-0.03807603,14.15605,0.5188811,0.2468079,-0.5,5.92,1.13,86.58
11786,1644689352,1,-1.2,3.59,21.98,-0.2558927,-0.1188124,-0.207834,-0.03809602,14.15582,0.5183361,0.2464759,-0.5,5.92,1.14,86.58
11830,1644699887,1,-1.18,3.6,21.98,-0.262397,-0.1203606,-0.2064983,-0.03479172,14.15322,0.517172,0.2444284,-0.5,5.92,1.14,86.58
11872,1644710329,1,-1.16,3.6,21.98,-0.2542004,-0.1214358,-0.2075767,-0.03607095,14.15312,0.5167064,0.2442084,-0.5,5.92,1.14,86.58
11917,1644720571,1,-1.16,3.62,21.97,-0.2573352,-0.121753,-0.2078341,-0.0409697,14.15057,0.5154988,0.2421708,-0.5,5.92,1.14,86.58
11963,1644730670,1,-1.2,3.57,21.97,-0.2635395,-0.1193552,-0.2024398,-0.04050176,14.15016,0.5148634,0.2418602,-0.49,5.86,1.12,86.58
12007,1644740742,1,-1.14,3.64,21.98,-0.2705604,-0.1231523,-0.2100082,-0.05584764,14.1475,0.5136449,0.2398211,-0.49,5.86,1.12,86.58
12053,1644751237,1,-1.19,3.57,21.97,-0.2642584,-0.1274658,-0.2008881,-0.05468357,14.14729,0.5130743,0.2396986,-0.48,5.78,1.11,86.58
12094,1644761561,1,-1.17,3.66,21.98,-0.2634397,-0.1292689,-0.2060277,-0.06537943,14.14812,0.5129697,0.2401218,-0.49,5.78,1.11,86.58
12141,1644772211,1,-1.22,3.59,21.98,-0.270417,-0.1277241,-0.2026802,-0.06201564,14.14899,0.5129349,0.2405831,-0.49,5.8,1.11,86.58
12183,1644782512,1,-1.2,3.66,21.99,-0.2622568,-0.1309112,-0.2038336,-0.06122206,14.14971,0.5128413000000001,0.240912,-0.49,5.81,1.11,86.58
12227,1644792788,1,-1.23,3.65,21.99,-0.2622515,-0.132022,-0.2012264,-0.05270397,14.14684,0.5113974,0.2387144,-0.49,5.81,1.11,86.58
12270,1644802782,1,-1.24,3.65,21.99,-0.2590195,-0.1313147,-0.1971081,-0.04506753,14.14749,0.5112406,0.2389633,-0.49,5.81,1.11,86.58
12312,1644813328,1,-1.23,3.68,21.99,-0.2690513,-0.1327099,-0.2036668,-0.04858815,14.1477,0.5108998,0.2389282,-0.49,5.81,1.12,86.58
12355,1644823948,1,-1.26,3.63,21.99,-0.2628488,-0.1349456,-0.1974355,-0.04099261,14.14808,0.5106252,0.2389583,-0.49,5.82,1.12,86.58
12401,1644836568,1,-1.24,3.71,22,-0.2620538,-0.1336406,-0.2021579,-0.04246625,14.14763,0.5099108999999999,0.2386121,-0.49,5.83,1.12,86.58
12443,1644846777,1,-1.26,3.64,22,-0.2697659,-0.1329945,-0.1966162,-0.03568503,14.145,0.5085809,0.2366361,-0.49,5.83,1.12,86.58
12488,1644857143,1,-1.22,3.72,22.01,-0.2598738,-0.1349166,-0.1988554,-0.03753712,14.14514,0.5082098,0.2367314,-0.49,5.81,1.11,86.58
12530,1644867089,1,-1.24,3.7,22,-0.257893,-0.1364666,-0.1953127,-0.03820301,14.14531,0.5078118,0.2368442,-0.48,5.77,1.11,86.58
12577,1644877363,1,-1.24,3.68,22,-0.2566905,-0.1348887,-0.1948387,-0.03821617,14.14273,0.5064448,0.2348944,-0.48,5.77,1.11,86.58
12619,1644888282,1,-1.22,3.72,22.01,-0.2668164,-0.1377459,-0.2000464,-0.04698483,14.14248,0.5058773,0.234717,-0.48,5.75,1.1,86.58
12661,1644898293,1,-1.23,3.69,22,-0.2629679,-0.1415178,-0.1979731,-0.04953421,14.13979,0.5044708,0.2326991,-0.48,5.75,1.1,86.58
12705,1644908178,1,-1.22,3.74,22,-0.2626303,-0.1424964,-0.2012742,-0.05692034,14.13975,0.5039738,0.23261,-0.48,5.72,1.1,86.58
12750,1644920797,1,-1.26,3.68,22.01,-0.27385,-0.1406179,-0.1978696,-0.05919139,14.1388,0.5030175,0.2318127,-0.48,5.71,1.09,86.58
12793,1644930964,1,-1.23,3.76,22.02,-0.2694497,-0.1430005,-0.1993408,-0.06587529,14.13609,0.5015976,0.229806,-0.48,5.71,1.09,86.58
12841,1644943737,1,-1.26,3.8,22.02,-0.2621445,-0.1422792,-0.1966858,-0.06804143999999999,14.13504,0.5005733,0.2292995,-0.48,5.67,1.09,86.58
12883,1644957402,1,-1.29,3.71,22.02,-0.2738232,-0.1418007,-0.1919702,-0.06122813,14.13799,0.5016513,0.2321243,-0.48,5.7,1.09,86.58
12927,1644968257,1,-1.25,3.78,22.01,-0.2713406,-0.1428485,-0.1983818,-0.06022375,14.13526,0.50023,0.2301563,-0.48,5.7,1.09,86.58
12976,1644978254,1,-1.28,3.76,22.02,-0.2672785,-0.1411631,-0.1915627,-0.04680483,14.13572,0.5002363,0.2307783,-0.48,5.71,1.1,86.58
13021,1644988807,1,-1.27,3.77,22.01,-0.263526,-0.1346623,-0.1911328,-0.03780451,14.13577,0.5000637999999999,0.2310483,-0.48,5.73,1.1,86.58
13066,1644998754,1,-1.26,3.79,22.02,-0.2741543,-0.1357097,-0.1920029,-0.03172486,14.13591,0.5000078,0.2314367,-0.48,5.74,1.1,86.58
13111,1645009283,1,-1.25,3.77,22.01,-0.2710912,-0.1393221,-0.189123,-0.02575333,14.13314,0.4986045,0.2294997,-0.48,5.74,1.1,86.58
13155,1645019245,1,-1.24,3.82,22.02,-0.269156,-0.1413236,-0.1925481,-0.02739318,14.13325,0.4984918,0.2298174,-0.48,5.7,1.09,86.58
13199,1645029229,1,-1.25,3.76,22.01,-0.2731734,-0.1398434,-0.1893651,-0.02203286,14.13322,0.4983186,0.2301571,-0.48,5.72,1.1,86.58
13243,1645039193,1,-1.21,3.83,22.01,-0.284575,-0.142134,-0.1980393,-0.03121714,14.13043,0.4969392,0.2282237,-0.48,5.72,1.1,86.58
13288,1645049362,1,-1.24,3.78,22,-0.2792741,-0.1460052,-0.1903388,-0.02449681,14.12997,0.4965791,0.2282687,-0.48,5.68,1.09,86.58
13333,1645059337,1,-1.21,3.86,22.01,-0.2756181,-0.1457178,-0.195659,-0.03065538,14.12975,0.4963111,0.2284339,-0.48,5.69,1.09,86.58
13377,1645069533,1,-1.27,3.82,22,-0.2820159,-0.1421464,-0.1911138,-0.02667049,14.12935,0.4959692,0.2284518,-0.48,5.7,1.09,86.58
13426,1645079558,1,-1.24,3.88,22,-0.2794624,-0.142539,-0.1948358,-0.03223712,14.1288,0.4955799,0.2283515,-0.48,5.71,1.1,86.58
13470,1645090412,1,-1.27,3.86,22,-0.277301,-0.1442675,-0.1896399,-0.02691751,14.12604,0.4941497,0.2264665,-0.48,5.71,1.1,86.58
13515,1645100328,1,-1.27,3.89,22.01,-0.2720463,-0.140601,-0.189984,-0.02868111,14.12549,0.4937143,0.2263141,-0.48,5.72,1.1,86.58
13572,1645167737,1,-1.24,3.92,22.02,-0.2773096,-0.1493503,-0.1874121,-0.03366237,14.12179,0.4905124,0.2256831,-0.49,5.79,1.11,86.58
13617,1645177681,1,-1.27,3.85,22.02,-0.2780483,-0.1512933,-0.1842877,-0.02780667,14.12258,0.4905286,0.2263274,-0.49,5.8,1.11,86.58
13665,1645188400,1,-1.23,3.92,22.02,-0.287425,-0.1540907,-0.188788,-0.02602735,14.11977,0.4890084,0.2244717,-0.49,5.8,1.11,86.58
13713,1645200802,1,-1.23,3.89,22.01,-0.2771478,-0.1617478,-0.1833779,-0.01535041,14.11947,0.4884197,0.2244153,-0.49,5.81,1.11,86.58
13758,1645210744,1,-1.24,3.92,22.02,-0.2700359,-0.1591161,-0.1813055,-0.009781019,14.11997,0.4882461,0.2248427,-0.49,5.81,1.11,86.58
13805,1645223829,1,-1.23,3.92,22.01,-0.2874005,-0.1570861,-0.1851123,-0.01002313,14.11944,0.4875438,0.2245953,-0.49,5.82,1.12,86.58
13850,1645234276,1,-1.22,3.88,22,-0.2838087,-0.1610482,-0.1824364,-0.003629787,14.11952,0.4872206,0.2250616,-0.49,5.84,1.12,86.58
13896,1645244411,1,-1.21,3.95,22.02,-0.2772573,-0.165628,-0.1851602,-0.003789956,14.11928,0.4866635,0.2252519,-0.49,5.85,1.12,86.58
13941,1645254503,1,-1.25,3.88,22.01,-0.2803327,-0.1674321,-0.1818323,-0.002100963,14.11926,0.4862203,0.2255505,-0.49,5.83,1.12,86.58
13988,1645264919,1,-1.24,3.95,22.03,-0.2846715,-0.1696593,-0.1842029,-0.003594327,14.11645,0.4845744,0.2237263,-0.49,5.83,1.12,86.58
14032,1645275328,1,-1.26,3.92,22.02,-0.2818967,-0.1710101,-0.1835593,-0.003974255,14.11591,0.4838459,0.2237013,-0.49,5.83,1.12,86.58
14081,1645285878,1,-1.28,3.95,22.04,-0.2767266,-0.16561,-0.1796924,-0.000648665,14.11561,0.4832517,0.2237688,-0.49,5.85,1.12,86.58
14126,1645296319,1,-1.29,3.96,22.03,-0.2885337,-0.1623581,-0.1838058,-0.007067489,14.1149,0.4824613,0.2235665,-0.49,5.86,1.12,86.58
14171,1645306280,1,-1.28,3.94,22.03,-0.2874106,-0.163963,-0.1823056,-0.008422413,14.11431,0.481796,0.2234335,-0.49,5.87,1.13,86.58
14216,1645316285,1,-1.28,3.99,22.02,-0.2859726,-0.1656007,-0.182517,-0.01307799,14.11366,0.4810725,0.2232237,-0.49,5.87,1.13,86.58
14260,1645327188,1,-1.28,3.93,22.02,-0.2854925,-0.166349,-0.1824543,-0.01617543,14.11082,0.4793836,0.2214097,-0.49,5.87,1.13,86.58
14305,1645337320,1,-1.26,3.99,22.02,-0.2920003,-0.1663453,-0.1810676,-0.01870944,14.11005,0.4786313,0.2213506,-0.49,5.88,1.13,86.58
14349,1645347527,1,-1.23,3.94,22,-0.2882484,-0.1715878,-0.1803658,-0.02407903,14.10917,0.4778257,0.2212295,-0.49,5.86,1.12,86.58
14396,1645360393,1,-1.24,4,22.03,-0.2803295,-0.1702956,-0.1721125,-0.02162144,14.10935,0.4775035,0.2215778,-0.49,5.86,1.13,86.58
14436,1645370718,1,-1.23,3.95,22.01,-0.2900997,-0.1674962,-0.1782938,-0.02714443,14.10996,0.4774708,0.2221678,-0.49,5.88,1.13,86.58
14478,1645380797,1,-1.22,3.98,22.02,-0.2907927,-0.1707863,-0.1753591,-0.02180329,14.10704,0.4757581,0.2203969,-0.49,5.88,1.13,86.58
14527,1645390728,1,-1.22,4,22.01,-0.2873471,-0.1755499,-0.1782178,-0.02257833,14.10777,0.4757593,0.2210294,-0.49,5.87,1.13,86.58
14570,1645401349,1,-1.24,3.97,22.03,-0.2846347,-0.1750548,-0.1738901,-0.01377464,14.10836,0.4756733,0.2215463,-0.5,5.9,1.13,86.58
14614,1645411683,1,-1.24,4.01,22.03,-0.2905414,-0.1733681,-0.1755963,-0.01382551,14.1085,0.4753687,0.2217707,-0.49,5.88,1.13,86.58
14656,1645421722,1,-1.23,3.98,22.02,-0.2873482,-0.1777999,-0.1736766,-0.01147628,14.10557,0.4735869,0.220015,-0.49,5.88,1.13,86.58
14697,1645432205,1,-1.26,4.04,22.04,-0.2821299,-0.1777264,-0.1714181,-0.009705958000000001,14.10592,0.4733611,0.220343,-0.49,5.86,1.12,86.58
14739,1645442289,1,-1.27,3.97,22.02,-0.2867505,-0.1770386,-0.1727816,-0.008923293000000001,14.10613,0.4730838,0.2209176,-0.49,5.89,1.13,86.58
14781,1645452159,1,-1.28,4.03,22.04,-0.2931679,-0.1754713,-0.1691589,-0.007698729,14.10324,0.4713431,0.2192142,-0.49,5.89,1.13,86.58
14824,1645462183,1,-1.27,3.98,22.03,-0.2880275,-0.1784477,-0.1713323,-0.01195724,14.1033,0.4710358,0.219714,-0.49,5.83,1.12,86.58
14866,1645472380,1,-1.29,4.02,22.04,-0.2828027,-0.1737978,-0.1668925,-0.009195514,14.10296,0.4704656,0.2199091,-0.49,5.83,1.12,86.58
14909,1645482950,1,-1.28,3.98,22.02,-0.2920025,-0.1739848,-0.17344,-0.01761077,14.10281,0.4700676,0.2201839,-0.49,5.83,1.12,86.58
14957,1645493202,1,-1.26,4,22.03,-0.296048,-0.1737947,-0.171033,-0.01666741,14.10244,0.4695996,0.2203257,-0.49,5.85,1.12,86.58
15000,1645503380,1,-1.25,4.01,22.01,-0.293034,-0.1780093,-0.1741164,-0.01951706,14.10197,0.4690347,0.2203421,-0.49,5.87,1.13,86.58
15043,1645513284,1,-1.24,3.98,22.02,-0.2940926,-0.1764651,-0.1719171,-0.01621548,14.09877,0.4671066,0.2184756,-0.49,5.87,1.13,86.58
15085,1645523373,1,-1.23,4.02,22.01,-0.3020944,-0.1750972,-0.1740213,-0.01885628,14.09848,0.4666818,0.2185827,-0.49,5.88,1.13,86.58
15128,1645533693,1,-1.2,4,22.01,-0.3015065,-0.179433,-0.1736699,-0.02018102,14.09746,0.465857,0.2186214,-0.49,5.88,1.13,86.58
15170,1645543679,1,-1.21,4.06,22.01,-0.2963537,-0.1808259,-0.1688522,-0.01669772,14.09665,0.4651007,0.2187107,-0.49,5.89,1.13,86.58
15213,1645553685,1,-1.21,4.01,22,-0.2987016,-0.1801998,-0.1697787,-0.02009273,14.09573,0.4642767,0.2187304,-0.49,5.89,1.13,86.58
15257,1645567348,1,-1.21,4.05,22.01,-0.3018362,-0.1842396,-0.1654778,-0.01513424,14.0952,0.4638067,0.2191052,-0.5,5.91,1.14,86.58
15302,1645577282,1,-1.21,4.05,21.99,-0.3002194,-0.1898091,-0.167855,-0.01582327,14.09246,0.4621123,0.2175807,-0.5,5.91,1.14,86.58
15347,1645587218,1,-1.24,4.06,22.01,-0.2963721,-0.186595,-0.1655027,-0.01070084,14.093,0.4622123,0.2185004,-0.5,5.9,1.13,86.58
15395,1645597550,1,-1.26,4.07,21.99,-0.3057337,-0.1835691,-0.1698471,-0.008874676,14.09308,0.4620823,0.2190845,-0.5,5.93,1.14,86.58
15441,1645608167,1,-1.26,4.06,22,-0.3059069,-0.185107,-0.1714689,-0.005946801,14.09322,0.4620392,0.219687,-0.5,5.93,1.14,86.58
15485,1645618302,1,-1.28,4.09,21.99,-0.3014098,-0.1847036,-0.1704911,-0.002232858,14.09331,0.4619263,0.220175,-0.5,5.93,1.14,86.58
15531,1645627959,1,-1.29,4.05,21.99,-0.3023911,-0.1826002,-0.171976,-0.001719434,14.09331,0.461762,0.2208847,-0.5,5.94,1.14,86.58
15578,1645641151,1,-1.29,4.1,22,-0.299875,-0.1775625,-0.1674078,0.009307285,14.09214,0.4609573,0.2209008,-0.5,5.96,1.14,86.58
15623,1645651301,1,-1.27,4.08,21.97,-0.2985455,-0.1820871,-0.1717136,0.008027615,14.08916,0.4591665,0.2192325,-0.5,5.96,1.14,86.58
15668,1645661234,1,-1.28,4.1,21.98,-0.2972308,-0.1780686,-0.16335,0.0177203,14.08883,0.4588626,0.2197078,-0.5,5.95,1.14,86.58
15712,1645671223,1,-1.25,4.08,21.95,-0.3046363,-0.1808894,-0.1679581,0.01528903,14.08841,0.4585444,0.2200885,-0.5,5.97,1.15,86.58
15757,1645681236,1,-1.23,4.1,21.97,-0.3072172,-0.1815134,-0.1678358,0.0136941,14.0878,0.4581586,0.2203696,-0.5,5.96,1.14,86.58
15807,1645691510,1,-1.22,4.11,21.95,-0.3062405,-0.1814024,-0.1675479,0.01386459,14.0868,0.4574928,0.2203412,-0.5,5.98,1.15,86.58
15851,1645702215,1,-1.21,4.09,21.96,-0.3044137,-0.1786632,-0.1699926,0.008758044,14.08607,0.4570044,0.2204271,-0.5,5.98,1.15,86.58
15896,1645712560,1,-1.21,4.11,21.95,-0.3099896,-0.1773022,-0.1694907,0.006916043,14.08484,0.4562507,0.2201861,-0.5,6,1.15,86.58
15941,1645722762,1,-1.2,4.1,21.96,-0.3052362,-0.1838799,-0.1735951,0.0009279253,14.08178,0.4544357,0.2184945,-0.5,6,1.15,86.58
15987,1645732858,1,-1.23,4.13,21.97,-0.29927,-0.1810524,-0.1664409,0.004953617,14.08082,0.4537472,0.2186099,-0.5,6,1.15,86.58
16033,1645743102,1,-1.23,4.07,21.96,-0.3055835,-0.1795005,-0.1711817,-0.003138649,14.07977,0.4530364,0.2186601,-0.51,6.01,1.15,86.58
16072,1645754406,1,-1.25,4.1,21.97,-0.3109322,-0.1812479,-0.1667758,0.0008864293,14.07972,0.4530035,0.2190076,-0.51,6.04,1.16,86.58
16119,1645764329,1,-1.25,4.09,21.95,-0.3066785,-0.1865339,-0.1677803,-0.001523818,14.08015,0.4532031,0.2195762,-0.51,6.03,1.16,86.58
16164,1645775215,1,-1.27,4.08,21.96,-0.3066571,-0.1858292,-0.1630737,0.001965879,14.07709,0.4513696,0.2179258,-0.51,6.03,1.16,86.58
16209,1645785526,1,-1.27,4.1,21.94,-0.3155578,-0.1836798,-0.1643542,-0.0009655529,14.07706,0.4513458,0.2182539,-0.5,6,1.15,86.58
16259,1645796149,1,-1.27,4.09,21.94,-0.3142387,-0.1860236,-0.164929,-0.003039047,14.07716,0.4514384,0.2186686,-0.5,6,1.15,86.58
16304,1645806204,1,-1.29,4.14,21.94,-0.3089276,-0.1841326,-0.1613725,-0.001585325,14.07714,0.4514053,0.2189569,-0.5,6,1.15,86.58
16348,1645816272,1,-1.28,4.09,21.93,-0.3120264,-0.1811978,-0.1647248,-0.006900683,14.07705,0.4513461,0.219194,-0.51,6.01,1.15,86.58
16395,1645826814,1,-1.28,4.13,21.94,-0.3214687,-0.1777953,-0.1586338,-0.00110058,14.07358,0.4493774,0.2174133,-0.51,6.01,1.15,86.58
16445,1645842285,1,-1.24,4.14,21.94,-0.3094176,-0.183427,-0.1599705,-0.005329468,14.07448,0.4499514,0.2185566,-0.51,6.03,1.16,86.58
16489,1645852270,1,-1.24,4.1,21.94,-0.3116827,-0.1836541,-0.1601633,-0.006834738,14.07137,0.4481463,0.2169718,-0.51,6.03,1.16,86.58
16534,1645862174,1,-1.23,4.14,21.93,-0.3207427,-0.1828974,-0.1589577,-0.008019040999999999,14.07081,0.447872,0.2170696,-0.51,6.02,1.16,86.58
16579,1645872297,1,-1.2,4.11,21.93,-0.3194204,-0.1861151,-0.1613275,-0.01292508,14.07008,0.4475048,0.2170944,-0.51,6.03,1.16,86.58
16623,1645882691,1,-1.23,4.16,21.95,-0.316526,-0.1824922,-0.1561719,-0.01318273,14.06665,0.4454965,0.2153553,-0.51,6.03,1.16,86.58
16669,1645893324,1,-1.22,4.12,21.93,-0.3234051,-0.1832031,-0.1626178,-0.02496687,14.06596,0.4450992,0.2153608,-0.5,5.97,1.15,86.58
16717,1645903616,1,-1.23,4.16,21.94,-0.3288067,-0.1847513,-0.1591889,-0.02709127,14.06476,0.4444501,0.215104,-0.5,5.97,1.15,86.58
16762,1645913559,1,-1.21,4.16,21.92,-0.323896,-0.1896734,-0.1641928,-0.03664527,14.06373,0.443864,0.2148885,-0.5,5.98,1.15,86.58
16806,1645923493,1,-1.24,4.17,21.94,-0.317275,-0.1860312,-0.1587814,-0.03613669,14.06272,0.4432671,0.2146437,-0.5,5.98,1.15,86.58
16852,1645934218,1,-1.24,4.18,21.93,-0.3234909,-0.1843754,-0.1638195,-0.04457017,14.06153,0.4426043,0.2142685,-0.5,6,1.15,86.58
16898,1645944730,1,-1.24,4.17,21.93,-0.3234443,-0.189668,-0.1625078,-0.0460424,14.05794,0.4405695,0.2124931,-0.5,6,1.15,86.58
16941,1645955406,1,-1.26,4.21,21.93,-0.3197723,-0.1890596,-0.1583841,-0.04534788,14.05635,0.4396555,0.2121248,-0.5,6,1.15,86.58
16981,1645966271,1,-1.27,4.16,21.93,-0.3261656,-0.1835418,-0.1630086,-0.05172453,14.05688,0.43987,0.2124121,-0.5,6,1.15,86.58
17024,1645976318,1,-1.29,4.19,21.93,-0.3305952,-0.1809325,-0.1563198,-0.04364131,14.05748,0.4401855,0.2127363,-0.51,6.02,1.16,86.58
17067,1645987105,1,-1.25,4.18,21.93,-0.3269605,-0.1843121,-0.1616885,-0.04777313,14.05796,0.4404199,0.2129902,-0.51,6.02,1.16,86.58
17109,1645997063,1,-1.29,4.19,21.94,-0.3175528,-0.1800306,-0.1525607,-0.03703086,14.05833,0.4405417,0.2131673,-0.51,6.03,1.16,86.58
17156,1646007257,1,-1.26,4.19,21.93,-0.3262422,-0.1822768,-0.1598241,-0.04077987,14.05515,0.4386964,0.2116095,-0.51,6.03,1.16,86.58
17198,1646017097,1,-1.26,4.18,21.94,-0.3258506,-0.1848157,-0.1551543,-0.03406521,14.05534,0.4387554,0.2117036,-0.51,6.03,1.16,86.58
17240,1646027097,1,-1.24,4.21,21.93,-0.3232045,-0.1889563,-0.1567297,-0.03299661,14.0554,0.4386984,0.2117086,-0.51,6.05,1.16,86.58
17285,1646037336,1,-1.25,4.17,21.94,-0.3161637,-0.1859073,-0.1503557,-0.02502826,14.0553,0.4385373,0.2116604,-0.51,6.06,1.16,86.58
17327,1646048555,1,-1.24,4.21,21.95,-0.3258688,-0.1878907,-0.1500916,-0.0247931,14.05444,0.4380004,0.2114331,-0.51,6.05,1.16,86.58
17374,1646061840,1,-1.24,4.19,21.94,-0.3351375,-0.1897808,-0.1587774,-0.03622022,14.05306,0.4371753,0.210967,-0.51,6.02,1.16,86.58
17416,1646071880,1,-1.26,4.21,21.94,-0.3298315,-0.1868649,-0.1496438,-0.02791735,14.0498,0.435277,0.2094395,-0.51,6.02,1.16,86.58
17459,1646082439,1,-1.25,4.23,21.93,-0.3326122,-0.1851189,-0.156865,-0.036973,14.04899,0.4347684,0.2092107,-0.51,6.02,1.16,86.58
17502,1646093198,1,-1.25,4.19,21.92,-0.332747,-0.1871906,-0.1512833,-0.03242925,14.04832,0.4343731,0.2090692,-0.51,6.04,1.16,86.58
17544,1646103228,1,-1.23,4.26,21.92,-0.3300128,-0.189872,-0.1519393,-0.03454869,14.04749,0.4338729,0.2088305,-0.51,6.05,1.16,86.58
17592,1646113300,1,-1.26,4.17,21.92,-0.3307016,-0.1891552,-0.144717,-0.02986611,14.04666,0.4333746,0.208627,-0.51,6.05,1.16,86.58
17634,1646122980,1,-1.22,4.24,21.92,-0.3416251,-0.1899294,-0.1471634,-0.03493132,14.04323,0.431481,0.2071408,-0.51,6.05,1.16,86.58
17677,1646133228,1,-1.23,4.18,21.91,-0.3430413,-0.1935025,-0.1476925,-0.03889225,14.04213,0.4308989,0.206857,-0.51,6.03,1.16,86.58
17721,1646147821,1,-1.26,4.21,21.92,-0.3381092,-0.183471,-0.1443381,-0.03898749,14.04151,0.4304547,0.2063226,-0.51,6.03,1.16,86.58
17767,1646158271,1,-1.23,4.25,21.92,-0.3422849,-0.1848582,-0.1499464,-0.04401629,14.04208,0.430713,0.206518,-0.51,6.04,1.16,86.58
17812,1646168382,1,-1.24,4.21,21.91,-0.3380038,-0.1845243,-0.1481404,-0.04077801,14.04315,0.4312458,0.2069066,-0.51,6.05,1.16,86.58
17856,1646178759,1,-1.23,4.27,21.92,-0.3324668,-0.1923811,-0.1499982,-0.04288206,14.03942,0.4291638,0.2052508,-0.51,6.05,1.16,86.58
17900,1646188773,1,-1.26,4.2,21.92,-0.3352095,-0.1892462,-0.146106,-0.04069761,14.04012,0.4294282,0.2054414,-0.5,5.97,1.15,86.58
17945,1646198769,1,-1.25,4.25,21.93,-0.3400163,-0.1883403,-0.1470311,-0.04285061,14.04063,0.4296632,0.2055491,-0.5,5.97,1.15,86.58
17993,1646208853,1,-1.25,4.21,21.92,-0.3407404,-0.192465,-0.1483721,-0.04423987,14.0372,0.4277781,0.2040626,-0.5,5.97,1.15,86.58
18042,1646221680,1,-1.29,4.24,21.93,-0.3397733,-0.185999,-0.1438024,-0.04027966,14.03654,0.4273008,0.20362,-0.5,5.96,1.14,86.58
18087,1646231756,1,-1.25,4.24,21.93,-0.3502832,-0.1847125,-0.1549865,-0.05145607,14.03673,0.4273486,0.2035733,-0.5,5.96,1.14,86.58
18134,1646244711,1,-1.25,4.22,21.92,-0.3402569,-0.1867061,-0.1468729,-0.04374396,14.03568,0.4267734,0.2030054,-0.5,5.96,1.14,86.58
18184,1646257825,1,-1.28,4.25,21.92,-0.3425977,-0.1849912,-0.1441464,-0.04276074,14.03454,0.4260977,0.202349,-0.5,5.94,1.14,86.58
18233,1646270331,1,-1.25,4.26,21.92,-0.347165,-0.1825512,-0.1534684,-0.05458585,14.03329,0.4254127,0.2019582,-0.5,5.92,1.14,86.58
18278,1646280391,1,-1.27,4.24,21.91,-0.3492351,-0.1848621,-0.147891,-0.05001196,14.03017,0.4237506,0.2006365,-0.5,5.92,1.14,86.58
18322,1646290662,1,-1.26,4.28,21.92,-0.3388671,-0.1867194,-0.1497774,-0.05254343,14.02942,0.4232995,0.2004277,-0.5,5.91,1.14,86.58
18367,1646301276,1,-1.26,4.22,21.9,-0.3399854,-0.1854422,-0.1453564,-0.04741581,14.02886,0.4229613,0.2003489,-0.5,5.93,1.14,86.58
18416,1646311403,1,-1.27,4.27,21.91,-0.3457942,-0.1885733,-0.1454908,-0.04687929,14.02825,0.4226158,0.2001927,-0.5,5.94,1.14,86.58
18461,1646321565,1,-1.25,4.22,21.89,-0.3510427,-0.1968189,-0.1487521,-0.05006661,14.02708,0.4219444,0.1998297,-0.5,5.94,1.14,86.58
18509,1646333913,1,-1.29,4.27,21.9,-0.3525214,-0.1936736,-0.1424369,-0.04434152,14.02541,0.4209498,0.1992068,-0.5,5.94,1.14,86.58
18555,1646347242,1,-1.28,4.28,21.9,-0.3523673,-0.1895446,-0.1500583,-0.05172108,14.02582,0.4210142,0.1991507,-0.5,5.95,1.14,86.58
18598,1646358521,1,-1.26,4.26,21.89,-0.3500461,-0.1945431,-0.150286,-0.0486259,14.02631,0.4211293,0.1994783,-0.5,5.96,1.15,86.58
18642,1646369092,1,-1.29,4.31,21.91,-0.3420255,-0.1932832,-0.1440775,-0.03736009,14.02737,0.4214933,0.1999496,-0.5,5.98,1.15,86.58
18688,1646379157,1,-1.27,4.26,21.89,-0.3480506,-0.1919651,-0.150066,-0.03791935,14.02828,0.4218086,0.2003645,-0.5,6,1.15,86.58
18733,1646389621,1,-1.27,4.3,21.89,-0.3524343,-0.1929731,-0.1456549,-0.02615878,14.02857,0.4218133,0.200493,-0.51,6.01,1.16,86.58
18777,1646400326,1,-1.25,4.27,21.89,-0.3475127,-0.1973861,-0.1512737,-0.0247202,14.02506,0.4198536,0.1989876,-0.51,6.01,1.16,86.58
18822,1646410264,1,-1.27,4.3,21.89,-0.3409077,-0.1936918,-0.1442591,-0.01438274,14.02566,0.4199679,0.1992214,-0.5,5.99,1.15,86.58
18870,1646420364,1,-1.27,4.27,21.89,-0.3483509,-0.1910508,-0.1483854,-0.01667127,14.02604,0.4200076,0.1993545,-0.5,5.99,1.15,86.58
18915,1646430572,1,-1.26,4.3,21.88,-0.3467933,-0.1900429,-0.1456061,-0.01289991,14.02582,0.419759,0.1992771,-0.5,5.99,1.15,86.58
18960,1646440954,1,-1.27,4.31,21.89,-0.3415321,-0.1927181,-0.1467367,-0.0124606,14.02236,0.4178188,0.1978112,-0.5,5.99,1.15,86.58
19005,1646451186,1,-1.26,4.28,21.87,-0.3419304,-0.190956,-0.1472396,-0.01304739,14.02245,0.4176867,0.1978011,-0.5,6,1.15,86.58
19053,1646464338,1,-1.26,4.3,21.87,-0.3577606,-0.198803,-0.145674,-0.01086632,14.0209,0.4167008,0.1973153,-0.51,6.02,1.16,86.58
19098,1646474248,1,-1.26,4.3,21.87,-0.3540852,-0.2020513,-0.1519888,-0.0169532,14.02093,0.416561,0.1974649,-0.51,6.02,1.16,86.58
19143,1646484548,1,-1.28,4.32,21.88,-0.3434693,-0.196252,-0.148298,-0.01432086,14.02022,0.4159783,0.1972453,-0.51,6.02,1.16,86.58
19188,1646494566,1,-1.28,4.32,21.87,-0.3494545,-0.195488,-0.1539966,-0.0234622,14.01969,0.4155241,0.1970837,-0.51,6,1.15,86.58
19233,1646504915,1,-1.28,4.32,21.87,-0.3500585,-0.1962674,-0.148668,-0.01997667,14.01618,0.4135672,0.1955875,-0.51,6,1.15,86.58
19277,1646514928,1,-1.28,4.33,21.87,-0.3458394,-0.198743,-0.1528788,-0.02700328,14.01552,0.413027,0.1953689,-0.51,6,1.15,86.58
19326,1646525549,1,-1.29,4.29,21.87,-0.3454825,-0.1956116,-0.1487066,-0.02756144,14.01441,0.412231,0.1949478,-0.5,5.99,1.15,86.58
19371,1646536145,1,-1.28,4.33,21.88,-0.3547229,-0.1970066,-0.1490015,-0.03152223,14.01345,0.4115626,0.1945739,-0.51,6.01,1.16,86.58
19415,1646546858,1,-1.26,4.28,21.87,-0.3571436,-0.2035086,-0.1473362,-0.03270265,14.01202,0.4106433,0.1940449,-0.51,6.03,1.16,86.58
19463,1646556708,1,-1.27,4.34,21.89,-0.3532863,-0.2049961,-0.1458526,-0.03486814,14.00848,0.4086121,0.1925566,-0.51,6.03,1.16,86.58
19500,1646568864,1,-1.26,4.31,21.89,-0.353118,-0.2014269,-0.1496952,-0.03866666,14.0135,0.4113027,0.1953192,-0.51,6.04,1.16,86.58
19543,1646579337,1,-1.26,4.33,21.88,-0.3524934,-0.1990534,-0.1475776,-0.0305594,14.0096,0.4090973,0.1936882,-0.51,6.04,1.16,86.58
19586,1646589310,1,-1.26,4.36,21.89,-0.3504779,-0.1995602,-0.1507114,-0.02839259,14.01038,0.4094642,0.1942819,-0.51,6.04,1.16,86.58
19629,1646599312,1,-1.27,4.32,21.87,-0.3472035,-0.193836,-0.1464781,-0.01944354,14.01104,0.4097786,0.1948079,-0.51,6.04,1.16,86.58
19672,1646609314,1,-1.27,4.35,21.88,-0.3550425,-0.1948671,-0.1497567,-0.01814075,14.01146,0.4099987,0.1951819,-0.51,6.05,1.16,86.58
19715,1646619442,1,-1.25,4.31,21.86,-0.3543347,-0.198038,-0.1473411,-0.01281688,14.01206,0.4103187,0.1956419,-0.51,6.05,1.16,86.58
19762,1646629804,1,-1.28,4.35,21.89,-0.354778,-0.2017677,-0.1493981,-0.009612584,14.00816,0.4080825,0.1939934,-0.51,6.05,1.16,86.58
19805,1646639790,1,-1.28,4.3,21.87,-0.3588491,-0.1997532,-0.1514057,-0.009390173,14.00831,0.408105,0.1942099,-0.51,6.05,1.16,86.58
19847,1646649809,1,-1.3,4.33,21.88,-0.3649091,-0.2023511,-0.1471216,-0.002390596,14.0082,0.4080327,0.1943078,-0.51,6.08,1.17,86.58
19891,1646659849,1,-1.28,4.31,21.87,-0.3637002,-0.2086435,-0.1524957,-0.006011548,14.00791,0.407849,0.1945254,-0.51,6.09,1.17,86.58
19937,1646673354,1,-1.3,4.34,21.87,-0.3494196,-0.2032162,-0.148554,-0.00533947,14.00617,0.4067653,0.1940837,-0.51,6.03,1.16,86.58
19979,1646683909,1,-1.32,4.37,21.88,-0.3560525,-0.1994706,-0.1514733,-0.009792008,14.00565,0.4064298,0.1941262,-0.51,6.06,1.16,86.58
20023,1646694292,1,-1.3,4.33,21.86,-0.365139,-0.204547,-0.1519623,-0.01056847,14.00168,0.4041784,0.1924814,-0.51,6.06,1.16,86.58
20066,1646705276,1,-1.32,4.38,21.88,-0.3602596,-0.2058099,-0.1494242,-0.009869170999999999,14.00101,0.4037329,0.1924516,-0.51,6.05,1.16,86.58
20110,1646714910,1,-1.3,4.34,21.87,-0.3649505,-0.2063085,-0.1517093,-0.01620892,14.00029,0.4032606,0.1923904,-0.51,6.03,1.16,86.58
20157,1646724903,1,-1.29,4.37,21.86,-0.3715125,-0.2094345,-0.1483649,-0.01662445,13.99932,0.402688,0.1922164,-0.51,6.03,1.16,86.58
20200,1646735563,1,-1.27,4.35,21.86,-0.3722251,-0.2168478,-0.1514665,-0.02265102,13.99783,0.4018176,0.1918378,-0.51,6.05,1.16,86.58
20242,1646746291,1,-1.28,4.38,21.86,-0.3663191,-0.2149705,-0.1447883,-0.01797168,13.99414,0.3996911,0.1903465,-0.51,6.05,1.16,86.58
20290,1646756729,1,-1.3,4.36,21.86,-0.369024,-0.2113228,-0.1487321,-0.02542388,13.99258,0.3987671,0.1899304,-0.51,6.05,1.16,86.58
20332,1646770781,1,-1.28,4.33,21.85,-0.375107,-0.211818,-0.1509689,-0.03483868,13.99246,0.3984302,0.1899178,-0.51,6,1.15,86.58
20376,1646781395,1,-1.29,4.36,21.86,-0.3684582,-0.2143869,-0.1440552,-0.03145709,13.9933,0.3985927,0.1906044,-0.5,5.99,1.15,86.58
20421,1646792532,1,-1.3,4.34,21.86,-0.3704563,-0.2113035,-0.1478196,-0.03295149,13.99395,0.3986863,0.1911768,-0.51,6.01,1.16,86.58
20465,1646803220,1,-1.29,4.35,21.84,-0.3742756,-0.2115097,-0.1459304,-0.02535252,13.99023,0.3966192,0.1897216,-0.51,6.01,1.16,86.58
20511,1646813381,1,-1.32,4.37,21.85,-0.3694612,-0.2106113,-0.1477828,-0.02164003,13.99062,0.3966137,0.1901679,-0.51,6.01,1.16,86.58
20556,1646823309,1,-1.32,4.35,21.85,-0.3658275,-0.2056466,-0.1509455,-0.02035609,13.99126,0.3967247,0.1906815,-0.51,6.01,1.16,86.58
20606,1646833544,1,-1.35,4.37,21.86,-0.3709876,-0.2010357,-0.1447217,-0.01001761,13.99171,0.3967826,0.1910868,-0.51,6.02,1.16,86.58
20651,1646843538,1,-1.32,4.36,21.83,-0.3748626,-0.2043848,-0.1494752,-0.01221268,13.99188,0.3967158,0.191406,-0.51,6.02,1.16,86.58
20696,1646853838,1,-1.35,4.38,21.85,-0.3741446,-0.2054872,-0.146702,-0.005513217,13.98816,0.394635,0.1899448,-0.51,6.02,1.16,86.58
20741,1646863843,1,-1.33,4.36,21.83,-0.3750931,-0.2031917,-0.1514131,-0.008220356,13.98823,0.3944826,0.190161,-0.51,6.02,1.16,86.58
20790,1646876982,1,-1.3,4.36,21.83,-0.377891,-0.2109905,-0.1461339,-0.002682906,13.98702,0.393684,0.1902261,-0.51,6,1.15,86.58
20835,1646887383,1,-1.31,4.39,21.83,-0.376633,-0.2118278,-0.1472453,-0.005318149,13.98324,0.3916078,0.1887355,-0.51,6,1.15,86.58
20880,1646897814,1,-1.3,4.38,21.83,-0.3741287,-0.2060203,-0.1491698,-0.009342289,13.98264,0.3911501,0.1890238,-0.5,5.95,1.14,86.58
20926,1646907739,1,-1.31,4.38,21.84,-0.3760562,-0.2008124,-0.1465743,-0.007386653,13.98227,0.3908367,0.1893469,-0.5,5.96,1.15,86.58
20971,1646917733,1,-1.28,4.38,21.82,-0.381678,-0.2035621,-0.1528802,-0.0147959,13.98166,0.3904278,0.1895599,-0.5,5.96,1.15,86.58
21015,1646927822,1,-1.3,4.39,21.83,-0.3797274,-0.2050992,-0.1478673,-0.0104299,13.97785,0.3883464,0.1880595,-0.5,5.96,1.15,86.58
21064,1646937765,1,-1.28,4.37,21.82,-0.3813055,-0.2062501,-0.151998,-0.01589386,13.97717,0.3878469,0.1882081,-0.5,5.94,1.14,86.58
21111,1646951342,1,-1.27,4.37,21.82,-0.3890013,-0.2166336,-0.1480259,-0.0142193,13.97476,0.3864188,0.1876799,-0.5,5.95,1.14,86.58
21152,1646962256,1,-1.28,4.41,21.82,-0.3807557,-0.2188988,-0.1463102,-0.009338818,13.97657,0.3872537,0.1886822,-0.5,5.97,1.15,86.58
21201,1646974711,1,-1.31,4.39,21.82,-0.3776475,-0.2086998,-0.1492532,-0.005599219,13.97705,0.3873291,0.1891561,-0.5,5.99,1.15,86.58
21246,1646984361,1,-1.34,4.41,21.83,-0.3809503,-0.2046536,-0.1421328,0.009032254999999999,13.97847,0.3879826,0.1902919,-0.51,6.01,1.15,86.58
21291,1646994917,1,-1.31,4.4,21.83,-0.3824273,-0.2083587,-0.1480218,0.01167352,13.97957,0.3884912,0.1912778,-0.51,6.02,1.16,86.58
21335,1647005347,1,-1.33,4.41,21.83,-0.3793729,-0.2136129,-0.1438658,0.02124579,13.9802,0.3886955,0.192031,-0.51,6,1.15,86.58
21380,1647015621,1,-1.33,4.39,21.83,-0.3840824,-0.2127155,-0.1490617,0.01927406,13.98094,0.3889688,0.1927661,-0.51,6,1.15,86.58
21425,1647026244,1,-1.32,4.4,21.83,-0.3907433,-0.2152915,-0.1450398,0.02849542,13.97713,0.3868844,0.191318,-0.51,6,1.15,86.58
21474,1647036278,1,-1.31,4.41,21.83,-0.3873184,-0.2192222,-0.1489914,0.02761426,13.97762,0.3870594,0.1919234,-0.51,6,1.15,86.58
21519,1647046725,1,-1.32,4.39,21.82,-0.3828592,-0.2199462,-0.146492,0.03334862,13.97757,0.3868746,0.192301,-0.51,6.02,1.16,86.58
21564,1647056761,1,-1.34,4.4,21.83,-0.3857497,-0.2157643,-0.141988,0.0393711,13.97771,0.3868107,0.1927138,-0.51,6.03,1.16,86.58
21610,1647067266,1,-1.3,4.39,21.81,-0.3881527,-0.2172418,-0.1451301,0.03545133,13.97767,0.3866869,0.1931014,-0.51,6.03,1.16,86.58
21654,1647077813,1,-1.33,4.43,21.83,-0.3865767,-0.2164895,-0.143007,0.03567531,13.97337,0.3842675,0.1914934,-0.51,6.03,1.16,86.58
