LineNo,TimeUS,C,Roll,Pitch,Yaw,VN,VE,VD,dPD,PN,PE,PD,GX,GY,GZ,OH
305,1.6419e+09,0,-1.45,1.72,19.61,0.0059226,-0.021908,0.048075,0.039182,14.44,0.612,0.56989,0.01,0.14,-0.02,86.66
533,1.6419e+09,0,-1.46,1.72,19.62,0.0060705,-0.021898,0.048092,0.039404,14.439,0.61064,0.57179,0.01,0.14,-0.02,86.66
985,1.642e+09,0,-1.45,1.73,19.62,0.005406,-0.021329,0.048894,0.034945,14.43,0.60819,0.57547,0.01,0.14,-0.02,86.66
1099,1.6421e+09,0,-1.45,1.73,19.62,0.0055823,-0.021265,0.049413,0.036963,14.429,0.60731,0.57711,0.01,0.14,-0.02,86.66
1206,1.6422e+09,0,-1.45,1.73,19.63,0.0078647,-0.019866,-0.075787,-0.070883,14.426,0.60589,0.57293,0.01,0.14,-0.02,86.66
1317,1.6422e+09,0,-1.45,1.73,19.64,0.013028,-0.018441,-0.32916,-0.30832,14.424,0.60488,0.56077,0.01,0.13,-0.02,86.66
1496,1.6423e+09,0,-1.45,1.73,19.64,0.013427,-0.017722,-0.32869,-0.31031,14.421,0.6038,0.54404,0.01,0.13,-0.02,86.66
1678,1.6423e+09,0,-1.45,1.73,19.64,0.013322,-0.017062,-0.32908,-0.32828,14.418,0.60304,0.53175,0.01,0.13,-0.02,86.66
1722,1.6423e+09,0,-1.45,1.73,19.64,0.013249,-0.016974,-0.32906,-0.3328,14.418,0.60282,0.5281,0.01,0.13,-0.02,86.66
1767,1.6423e+09,0,-1.45,1.74,19.64,0.013611,-0.016997,-0.32906,-0.33746,14.418,0.60265,0.52482,0.01,0.13,-0.02,86.66
1811,1.6423e+09,0,-1.45,1.74,19.64,0.013729,-0.016733,-0.32899,-0.34177,14.417,0.60242,0.52087,0.01,0.13,-0.02,86.66
1856,1.6423e+09,0,-1.45,1.74,19.64,0.013792,-0.016778,-0.32875,-0.34496,14.416,0.60221,0.51725,0.01,0.13,-0.02,86.66
1903,1.6424e+09,0,-1.45,1.74,19.64,0.013811,-0.01676,-0.32888,-0.34795,14.416,0.60201,0.51365,0.01,0.13,-0.02,86.66
1948,1.6424e+09,0,-1.44,1.74,19.65,0.013766,-0.016429,-0.32767,-0.34706,14.414,0.60169,0.50942,0.01,0.13,-0.02,86.66
1990,1.6424e+09,0,-1.45,1.74,19.65,0.013495,-0.01609,-0.32705,-0.33984,14.413,0.6015,0.50744,0.01,0.13,-0.02,86.66
2038,1.6424e+09,0,-1.45,1.74,19.65,0.013173,-0.015869,-0.32664,-0.33085,14.412,0.60132,0.50541,0.01,0.13,-0.02,86.66
2081,1.6424e+09,0,-1.45,1.74,19.65,0.01305,-0.015782,-0.3261,-0.31935,14.41,0.60112,0.50301,0.01,0.13,-0.02,86.66
2123,1.6424e+09,0,-1.45,1.74,19.65,0.012766,-0.015681,-0.32591,-0.30668,14.409,0.60093,0.50056,0.01,0.13,-0.02,86.66
2169,1.6424e+09,0,-1.45,1.74,19.65,0.012383,-0.015557,-0.32527,-0.28975,14.408,0.60071,0.49754,0.01,0.13,-0.02,86.66
2213,1.6424e+09,0,-1.45,1.74,19.65,0.012212,-0.015431,-0.32491,-0.27873,14.407,0.60054,0.49546,0.01,0.13,-0.02,86.66
2255,1.6425e+09,0,-1.45,1.74,19.65,0.011974,-0.015156,-0.3245,-0.26655,14.406,0.60036,0.493,0.01,0.14,-0.02,86.66
2299,1.6425e+09,0,-1.44,1.75,19.65,0.012227,-0.015031,-0.32433,-0.25598,14.406,0.60021,0.48976,0.01,0.14,-0.02,86.66
2341,1.6425e+09,0,-1.44,1.75,19.65,0.011936,-0.014701,-0.32367,-0.24639,14.405,0.60004,0.48727,0.01,0.14,-0.02,86.66
2384,1.6425e+09,0,-1.44,1.75,19.65,0.011681,-0.014584,-0.32332,-0.23967,14.404,0.59989,0.48507,0.01,0.14,-0.02,86.66
2427,1.6425e+09,0,-1.44,1.75,19.65,0.011545,-0.0144,-0.323,-0.23466,14.403,0.59973,0.48283,0.01,0.14,-0.02,86.66
2473,1.6425e+09,0,-1.44,1.75,19.65,0.011317,-0.014217,-0.32267,-0.23049,14.403,0.59957,0.48022,0.01,0.14,-0.02,86.66
2517,1.6425e+09,0,-1.44,1.75,19.65,0.011516,-0.013996,-0.3227,-0.22705,14.403,0.59943,0.477,0.01,0.14,-0.02,86.66
2559,1.6425e+09,0,-1.44,1.75,19.65,0.011345,-0.014019,-0.32218,-0.22466,14.402,0.59929,0.47469,0.01,0.14,-0.02,86.66
2602,1.6425e+09,0,-1.43,1.75,19.65,0.011256,-0.014031,-0.3218,-0.22318,14.401,0.59914,0.47234,0.01,0.14,-0.02,86.66
2647,1.6425e+09,0,-1.43,1.75,19.65,0.010984,-0.013957,-0.3215,-0.22268,14.401,0.59898,0.4697,0.01,0.14,-0.02,86.66
2693,1.6426e+09,0,-1.43,1.75,19.65,0.010554,-0.013747,-0.32045,-0.21872,14.399,0.59865,0.46682,0.01,0.14,-0.02,86.66
2738,1.6426e+09,0,-1.43,1.75,19.65,0.01013,-0.013778,-0.3197,-0.21134,14.398,0.5984,0.46577,0.01,0.14,-0.02,86.66
2783,1.6426e+09,0,-1.43,1.75,19.65,0.0093618,-0.013676,-0.31888,-0.20053,14.396,0.59815,0.46432,0.01,0.14,-0.02,86.66
2828,1.6426e+09,0,-1.44,1.75,19.65,0.0089737,-0.01353,-0.31781,-0.19144,14.395,0.59792,0.46311,0.01,0.14,-0.02,86.66
2877,1.6426e+09,0,-1.44,1.75,19.65,0.0086025,-0.013413,-0.31725,-0.18326,14.394,0.59769,0.46182,0.01,0.14,-0.02,86.66
2921,1.6426e+09,0,-1.44,1.75,19.65,0.0081432,-0.013337,-0.31648,-0.17327,14.393,0.59746,0.46014,0.01,0.14,-0.02,86.66
2968,1.6426e+09,0,-1.44,1.75,19.65,0.0077115,-0.013123,-0.3161,-0.16447,14.391,0.59723,0.45839,0.01,0.14,-0.02,86.66
3012,1.6426e+09,0,-1.44,1.75,19.65,0.0076985,-0.013074,-0.31589,-0.15684,14.392,0.5971,0.45523,0.01,0.14,-0.02,86.66
3057,1.6426e+09,0,-1.43,1.75,19.65,0.0074764,-0.012883,-0.31516,-0.15166,14.39,0.5969,0.45375,0.01,0.14,-0.02,86.66
3101,1.6427e+09,0,-1.43,1.75,19.65,0.0071989,-0.012945,-0.31423,-0.1499,14.389,0.59669,0.45222,0.01,0.14,-0.02,86.66
3146,1.6427e+09,0,-1.43,1.75,19.65,0.0069663,-0.012816,-0.31329,-0.14916,14.388,0.59648,0.45032,0.01,0.14,-0.02,86.66
3191,1.6427e+09,0,-1.43,1.75,19.65,0.0069523,-0.012903,-0.31321,-0.14842,14.389,0.59635,0.44719,0.01,0.14,-0.02,86.66
3235,1.6427e+09,0,-1.43,1.75,19.65,0.0067398,-0.012729,-0.31275,-0.14915,14.388,0.59616,0.44554,0.01,0.14,-0.02,86.66
3282,1.6427e+09,0,-1.43,1.76,19.65,0.0065299,-0.012732,-0.31215,-0.15034,14.387,0.59596,0.44384,0.01,0.14,-0.02,86.66
3332,1.6427e+09,0,-1.43,1.76,19.65,0.0062816,-0.012812,-0.31178,-0.15308,14.386,0.59578,0.44208,0.01,0.14,-0.02,86.66
3378,1.6427e+09,0,-1.43,1.76,19.66,0.0061289,-0.013012,-0.31136,-0.15676,14.385,0.59558,0.43996,0.01,0.14,-0.02,86.66
3422,1.6427e+09,0,-1.43,1.76,19.66,0.0063347,-0.013159,-0.31139,-0.15957,14.385,0.59544,0.43685,0.01,0.14,-0.02,86.66
3467,1.6427e+09,0,-1.43,1.75,19.66,0.0063495,-0.013209,-0.31099,-0.16319,14.384,0.59526,0.43499,0.01,0.14,-0.02,86.66
3512,1.6427e+09,0,-1.43,1.75,19.66,0.0061986,-0.01319,-0.31019,-0.16664,14.384,0.59507,0.43308,0.01,0.14,-0.02,86.66
3559,1.6428e+09,0,-1.43,1.75,19.66,0.006087,-0.013298,-0.30991,-0.17285,14.383,0.59483,0.42984,0.01,0.14,-0.02,86.66
3601,1.6428e+09,0,-1.43,1.75,19.66,0.005565,-0.01323,-0.30898,-0.17357,14.382,0.59445,0.42931,0.01,0.14,-0.02,86.66
3645,1.6428e+09,0,-1.43,1.75,19.66,0.0050732,-0.013021,-0.30811,-0.169,14.38,0.59406,0.42836,0.01,0.14,-0.02,86.66
3689,1.6428e+09,0,-1.43,1.75,19.66,0.00461,-0.01304,-0.30687,-0.16398,14.379,0.5937,0.42763,0.01,0.14,-0.02,86.66
3736,1.6428e+09,0,-1.43,1.76,19.66,0.0042995,-0.012965,-0.30606,-0.15852,14.378,0.59335,0.42681,0.01,0.14,-0.02,86.66
3784,1.6428e+09,0,-1.43,1.76,19.66,0.0040461,-0.012992,-0.30521,-0.15032,14.377,0.59299,0.4256,0.01,0.14,-0.02,86.66
3829,1.6428e+09,0,-1.43,1.76,19.66,0.0040977,-0.013024,-0.30501,-0.14198,14.377,0.59285,0.42224,0.01,0.14,-0.02,86.66
3873,1.6428e+09,0,-1.43,1.76,19.66,0.003759,-0.012999,-0.30441,-0.13621,14.376,0.59252,0.42126,0.01,0.14,-0.02,86.66
3918,1.6428e+09,0,-1.43,1.76,19.66,0.0034098,-0.013109,-0.30369,-0.13231,14.375,0.59219,0.42019,0.01,0.14,-0.02,86.66
3963,1.6429e+09,0,-1.43,1.76,19.66,0.002916,-0.01314,-0.3029,-0.13019,14.374,0.59187,0.41911,0.01,0.14,-0.02,86.66
4007,1.6429e+09,0,-1.43,1.76,19.67,0.0025677,-0.013219,-0.30206,-0.1287,14.373,0.59156,0.41795,0.01,0.14,-0.02,86.66
4052,1.6429e+09,0,-1.43,1.76,19.67,0.0022632,-0.013387,-0.30135,-0.12652,14.372,0.59124,0.41641,0.01,0.14,-0.02,86.66
4096,1.6429e+09,0,-1.43,1.76,19.67,0.002205,-0.013447,-0.30148,-0.12487,14.372,0.59111,0.4134,0.01,0.14,-0.02,86.66
4141,1.6429e+09,0,-1.43,1.76,19.67,0.001978,-0.013373,-0.30075,-0.12479,14.371,0.59081,0.4121,0.01,0.14,-0.02,86.66
4186,1.6429e+09,0,-1.43,1.76,19.67,0.0017886,-0.013553,-0.3001,-0.12572,14.37,0.59051,0.41074,0.01,0.14,-0.02,86.66
4235,1.6429e+09,0,-1.43,1.76,19.67,0.0014761,-0.013738,-0.29968,-0.12716,14.369,0.59021,0.409,0.01,0.14,-0.02,86.66
4280,1.6429e+09,0,-1.43,1.76,19.67,0.0014075,-0.013941,-0.29933,-0.12965,14.369,0.58992,0.40751,0.01,0.14,-0.02,86.66
4324,1.6429e+09,0,-1.43,1.76,19.67,0.0012273,-0.014029,-0.29895,-0.13377,14.368,0.58964,0.40595,0.01,0.14,-0.02,86.66
4369,1.6429e+09,0,-1.43,1.76,19.67,0.00095075,-0.013999,-0.29808,-0.13656,14.367,0.58932,0.40396,0.01,0.14,-0.02,86.66
4411,1.643e+09,0,-1.43,1.76,19.67,0.00070693,-0.014031,-0.2972,-0.13842,14.366,0.58906,0.40308,0.01,0.14,-0.02,86.66
4454,1.643e+09,0,-1.43,1.76,19.67,0.00043374,-0.013924,-0.29643,-0.13746,14.364,0.58879,0.40181,0.01,0.14,-0.02,86.66
4498,1.643e+09,0,-1.43,1.75,19.67,0.00064636,-0.013861,-0.29656,-0.13533,14.364,0.58865,0.39885,0.01,0.14,-0.02,86.66
4540,1.643e+09,0,-1.43,1.75,19.67,0.0003538,-0.013781,-0.29612,-0.13435,14.363,0.58841,0.39781,0.01,0.14,-0.02,86.66
4583,1.643e+09,0,-1.43,1.75,19.67,0.0001534,-0.01362,-0.29569,-0.13372,14.362,0.58816,0.39669,0.01,0.14,-0.02,86.66
4625,1.643e+09,0,-1.43,1.75,19.67,-9.4722e-05,-0.013588,-0.29516,-0.13439,14.361,0.58793,0.39549,0.01,0.14,-0.02,86.66
4674,1.643e+09,0,-1.43,1.75,19.67,-0.00046648,-0.013465,-0.29454,-0.13571,14.36,0.58769,0.39394,0.01,0.14,-0.02,86.66
4717,1.643e+09,0,-1.43,1.75,19.67,-0.0004733,-0.013565,-0.2945,-0.13628,14.36,0.58755,0.391,0.01,0.14,-0.02,86.66
4760,1.643e+09,0,-1.43,1.76,19.67,-0.00070666,-0.013695,-0.29422,-0.13849,14.36,0.58731,0.38938,0.01,0.14,-0.02,86.66
4803,1.6431e+09,0,-1.43,1.76,19.67,-0.00080726,-0.013441,-0.29368,-0.14194,14.359,0.58708,0.3877,0.01,0.14,-0.02,86.66
4845,1.6431e+09,0,-1.44,1.76,19.67,-0.00098145,-0.013387,-0.29329,-0.14527,14.358,0.58686,0.38628,0.01,0.14,-0.02,86.66
4888,1.6431e+09,0,-1.44,1.76,19.67,-0.0013768,-0.01349,-0.29287,-0.14801,14.357,0.58664,0.38449,0.01,0.14,-0.02,86.66
4931,1.6431e+09,0,-1.44,1.76,19.68,-0.0015038,-0.01358,-0.29246,-0.15186,14.356,0.58643,0.38294,0.01,0.14,-0.02,86.66
4974,1.6431e+09,0,-1.44,1.76,19.68,-0.0013245,-0.013498,-0.29221,-0.15435,14.356,0.58629,0.38002,0.01,0.14,-0.02,86.66
5017,1.6431e+09,0,-1.44,1.76,19.68,-0.0015283,-0.013402,-0.29177,-0.15789,14.356,0.58609,0.37843,0.01,0.14,-0.02,86.66
5060,1.6431e+09,0,-1.44,1.76,19.68,-0.0016225,-0.013226,-0.29124,-0.1644,14.355,0.58589,0.37679,0.01,0.14,-0.02,86.66
5107,1.6431e+09,0,-1.43,1.75,19.68,-0.0016856,-0.01312,-0.29061,-0.16953,14.354,0.58568,0.37481,0.01,0.14,-0.02,86.66
5150,1.6431e+09,0,-1.43,1.75,19.68,-0.0016121,-0.012964,-0.29048,-0.1732,14.354,0.58555,0.37191,0.01,0.14,-0.02,86.66
5193,1.6431e+09,0,-1.43,1.75,19.68,-0.0018214,-0.012871,-0.2903,-0.17752,14.354,0.58536,0.37017,0.01,0.14,-0.02,86.66
5231,1.6432e+09,0,-1.43,1.75,19.68,-0.0022443,-0.012787,-0.28953,-0.17798,14.352,0.58505,0.36954,0.01,0.14,-0.02,86.66
5275,1.6432e+09,0,-1.43,1.75,19.68,-0.002615,-0.012918,-0.28868,-0.17274,14.351,0.58475,0.36878,0.01,0.14,-0.02,86.66
5320,1.6432e+09,0,-1.43,1.75,19.68,-0.0030954,-0.01301,-0.28772,-0.16517,14.35,0.58447,0.36822,0.01,0.14,-0.02,86.66
5364,1.6432e+09,0,-1.43,1.75,19.68,-0.0033095,-0.013145,-0.28715,-0.15571,14.349,0.58418,0.36727,0.01,0.14,-0.02,86.66
5409,1.6432e+09,0,-1.43,1.76,19.68,-0.0035889,-0.012986,-0.28633,-0.14767,14.348,0.58392,0.36652,0.01,0.14,-0.02,86.66
5453,1.6432e+09,0,-1.43,1.76,19.68,-0.0040288,-0.012939,-0.2856,-0.14184,14.346,0.58366,0.36569,0.01,0.14,-0.02,86.66
5498,1.6432e+09,0,-1.43,1.76,19.68,-0.0040425,-0.013176,-0.28512,-0.13466,14.346,0.58353,0.36284,0.01,0.14,-0.02,86.66
5547,1.6432e+09,0,-1.43,1.76,19.68,-0.0043987,-0.013192,-0.2844,-0.12985,14.345,0.58327,0.36195,0.01,0.14,-0.02,86.66
5592,1.6432e+09,0,-1.43,1.76,19.68,-0.0046938,-0.013169,-0.28392,-0.12883,14.344,0.58302,0.36098,0.01,0.14,-0.02,86.66
5636,1.6432e+09,0,-1.43,1.76,19.68,-0.0050625,-0.013146,-0.28339,-0.12816,14.343,0.58277,0.35994,0.01,0.14,-0.02,86.66
5681,1.6433e+09,0,-1.43,1.76,19.68,-0.0052324,-0.013127,-0.2827,-0.12626,14.343,0.58252,0.35854,0.01,0.14,-0.02,86.66
5726,1.6433e+09,0,-1.43,1.75,19.68,-0.0053385,-0.013109,-0.282,-0.12464,14.342,0.58227,0.35707,0.01,0.14,-0.02,86.66
5770,1.6433e+09,0,-1.43,1.76,19.68,-0.0055663,-0.012987,-0.28153,-0.12377,14.341,0.58203,0.35553,0.01,0.14,-0.02,86.66
5816,1.6433e+09,0,-1.43,1.76,19.68,-0.0057274,-0.012917,-0.2815,-0.12329,14.341,0.5819,0.35271,0.01,0.14,-0.02,86.66
5863,1.6433e+09,0,-1.43,1.76,19.68,-0.0059437,-0.012737,-0.28092,-0.12455,14.34,0.58167,0.3514,0.01,0.14,-0.02,86.66
5908,1.6433e+09,0,-1.43,1.76,19.68,-0.006116,-0.012493,-0.28043,-0.12677,14.339,0.58146,0.35003,0.01,0.14,-0.02,86.66
5952,1.6433e+09,0,-1.43,1.76,19.68,-0.0063018,-0.012499,-0.27969,-0.13019,14.339,0.58124,0.3486,0.01,0.14,-0.02,86.66
6002,1.6433e+09,0,-1.43,1.76,19.69,-0.0067106,-0.01266,-0.27943,-0.13457,14.338,0.58104,0.34712,0.01,0.14,-0.02,86.66
6046,1.6433e+09,0,-1.43,1.76,19.7,-0.0063748,-0.01316,-0.2791,-0.1382,14.338,0.5809,0.34405,0.01,0.14,-0.02,86.66
6089,1.6434e+09,0,-1.42,1.76,19.7,-0.0065862,-0.013279,-0.2784,-0.14053,14.336,0.58074,0.34337,0.01,0.14,-0.02,86.66
6133,1.6434e+09,0,-1.41,1.76,19.7,-0.0073322,-0.012533,-0.278,-0.13984,14.335,0.5806,0.34288,0.01,0.14,-0.02,86.66
6178,1.6434e+09,0,-1.42,1.76,19.7,-0.0077937,-0.01235,-0.27701,-0.13731,14.334,0.58045,0.34207,0.01,0.14,-0.02,86.66
6225,1.6434e+09,0,-1.43,1.77,19.7,-0.0084327,-0.012769,-0.2761,-0.13117,14.333,0.58028,0.34061,0.01,0.14,-0.02,86.66
6270,1.6434e+09,0,-1.43,1.77,19.69,-0.0082114,-0.01339,-0.27468,-0.12609,14.332,0.58015,0.33991,0.01,0.14,-0.02,86.66
6314,1.6434e+09,0,-1.43,1.77,19.68,-0.0079103,-0.013584,-0.27365,-0.12116,14.33,0.58002,0.33912,0.01,0.14,-0.02,86.66
6359,1.6434e+09,0,-1.43,1.76,19.67,-0.0078382,-0.01306,-0.27213,-0.11688,14.329,0.57988,0.33799,0.01,0.14,-0.02,86.66
6406,1.6434e+09,0,-1.42,1.76,19.66,-0.0082148,-0.012644,-0.27152,-0.1135,14.328,0.57975,0.33678,0.01,0.14,-0.02,86.66
6453,1.6434e+09,0,-1.42,1.76,19.66,-0.0089813,-0.011095,-0.27369,-0.11279,14.328,0.57963,0.33405,0.01,0.14,-0.02,86.66
6497,1.6434e+09,0,-1.44,1.76,19.66,-0.009357,-0.010767,-0.27282,-0.11154,14.327,0.57951,0.33305,0.01,0.14,-0.02,86.66
6541,1.6435e+09,0,-1.44,1.77,19.66,-0.0095519,-0.012142,-0.27244,-0.11175,14.326,0.57939,0.33198,0.01,0.14,-0.02,86.66
6589,1.6435e+09,0,-1.44,1.77,19.67,-0.0091923,-0.012122,-0.27151,-0.11145,14.325,0.57924,0.33017,0.01,0.14,-0.02,86.66
6633,1.6435e+09,0,-1.43,1.77,19.69,-0.010203,-0.012122,-0.27131,-0.11303,14.325,0.57912,0.32884,0.01,0.14,-0.02,86.66
6678,1.6435e+09,0,-1.43,1.76,19.7,-0.01044,-0.011962,-0.26968,-0.11365,14.324,0.57902,0.32771,0.01,0.14,-0.02,86.66
6723,1.6435e+09,0,-1.43,1.76,19.71,-0.010544,-0.011956,-0.26851,-0.11612,14.323,0.5789,0.32653,0.01,0.14,-0.02,86.66
6768,1.6435e+09,0,-1.43,1.77,19.71,-0.010544,-0.011623,-0.26952,-0.11926,14.323,0.57879,0.32384,0.01,0.14,-0.02,86.66
6813,1.6435e+09,0,-1.43,1.77,19.72,-0.011058,-0.010744,-0.26893,-0.12263,14.322,0.57866,0.32233,0.01,0.14,-0.02,86.66
6861,1.6435e+09,0,-1.43,1.77,19.71,-0.011007,-0.010759,-0.26818,-0.12622,14.321,0.57856,0.32105,0.01,0.14,-0.02,86.66
6908,1.6435e+09,0,-1.42,1.76,19.71,-0.00992,-0.010307,-0.2664,-0.12956,14.321,0.57845,0.31972,0.01,0.14,-0.02,86.66
6953,1.6436e+09,0,-1.42,1.76,19.69,-0.01189,-0.010498,-0.26762,-0.13408,14.319,0.57827,0.31809,0.01,0.14,-0.02,86.66
6995,1.6436e+09,0,-1.41,1.77,19.69,-0.013455,-0.012312,-0.26552,-0.12889,14.318,0.57814,0.31794,0.01,0.14,-0.02,86.66
7043,1.6436e+09,0,-1.41,1.77,19.68,-0.010844,-0.013069,-0.26488,-0.12436,14.317,0.57796,0.31699,0.01,0.14,-0.02,86.66
7086,1.6436e+09,0,-1.42,1.77,19.68,-0.0098343,-0.01137,-0.26576,-0.12261,14.315,0.57782,0.31672,0.01,0.14,-0.02,86.66
7128,1.6436e+09,0,-1.43,1.77,19.67,-0.011364,-0.0096218,-0.26312,-0.11396,14.314,0.57769,0.31609,0.01,0.14,-0.02,86.66
7172,1.6436e+09,0,-1.41,1.76,19.67,-0.012711,-0.0093598,-0.26112,-0.10468,14.314,0.57759,0.31348,0.01,0.14,-0.02,86.66
7215,1.6436e+09,0,-1.42,1.78,19.67,-0.012855,-0.010054,-0.26327,-0.10193,14.313,0.57748,0.31305,0.01,0.14,-0.02,86.66
7261,1.6436e+09,0,-1.42,1.78,19.69,-0.011442,-0.013824,-0.26084,-0.098207,14.312,0.57735,0.31253,0.01,0.14,-0.02,86.66
7304,1.6436e+09,0,-1.42,1.77,19.7,-0.012083,-0.013875,-0.25891,-0.095402,14.311,0.57719,0.3117,0.01,0.14,-0.02,86.66
7347,1.6437e+09,0,-1.42,1.77,19.7,-0.01285,-0.0095823,-0.26145,-0.095455,14.311,0.57709,0.30909,0.01,0.14,-0.02,86.66
7392,1.6437e+09,0,-1.41,1.76,19.71,-0.01286,-0.0058568,-0.25816,-0.091648,14.31,0.57701,0.30843,0.01,0.14,-0.02,86.66
7434,1.6437e+09,0,-1.39,1.77,19.72,-0.01361,-0.0080428,-0.25891,-0.09242,14.309,0.57692,0.3077,0.01,0.14,-0.02,86.66
7474,1.6437e+09,0,-1.41,1.77,19.72,-0.012411,-0.013319,-0.2591,-0.09403,14.308,0.5768,0.30706,0.01,0.14,-0.02,86.66
7516,1.6437e+09,0,-1.42,1.78,19.73,-0.012597,-0.011554,-0.25609,-0.09284,14.307,0.57664,0.30609,0.01,0.14,-0.02,86.66
7560,1.6437e+09,0,-1.42,1.77,19.72,-0.013427,-0.0059895,-0.25476,-0.091456,14.307,0.57655,0.30353,0.01,0.14,-0.02,86.66
7603,1.6437e+09,0,-1.39,1.77,19.72,-0.014869,-0.0039477,-0.25628,-0.094487,14.306,0.57651,0.30277,0.01,0.14,-0.02,86.66
7646,1.6437e+09,0,-1.39,1.78,19.7,-0.013115,-0.013024,-0.25353,-0.093544,14.305,0.57641,0.30193,0.01,0.14,-0.02,86.66
7698,1.6437e+09,0,-1.41,1.77,19.71,-0.012245,-0.012549,-0.2538,-0.09628,14.304,0.57622,0.30026,0.01,0.14,-0.02,86.66
7742,1.6437e+09,0,-1.4,1.75,19.68,-0.016126,-0.0061965,-0.25334,-0.098385,14.303,0.57609,0.29854,0.01,0.14,-0.02,86.66
7784,1.6438e+09,0,-1.38,1.78,19.69,-0.017134,-0.0074797,-0.25267,-0.09771,14.302,0.57597,0.29906,0.01,0.14,-0.02,86.66
7830,1.6438e+09,0,-1.38,1.76,19.66,-0.013111,-0.016859,-0.25067,-0.093639,14.301,0.57577,0.29949,0.01,0.14,-0.02,86.66
7875,1.6438e+09,0,-1.41,1.78,19.69,-0.011985,-0.013494,-0.25323,-0.091004,14.301,0.57561,0.29696,0.01,0.14,-0.02,86.66
7922,1.6438e+09,0,-1.41,1.75,19.68,-0.017258,-0.0066361,-0.24998,-0.081948,14.299,0.57543,0.29714,0.01,0.14,-0.02,86.66
7966,1.6438e+09,0,-1.4,1.78,19.7,-0.019431,-0.0070379,-0.25138,-0.075612,14.298,0.57532,0.29741,0.01,0.14,-0.02,86.66
8011,1.6438e+09,0,-1.39,1.76,19.68,-0.015037,-0.016663,-0.24747,-0.064244,14.297,0.57514,0.29759,0.01,0.14,-0.02,86.66
8055,1.6438e+09,0,-1.42,1.79,19.71,-0.014497,-0.01601,-0.24899,-0.059158,14.296,0.57493,0.29765,0.01,0.14,-0.02,86.66
8100,1.6438e+09,0,-1.41,1.74,19.71,-0.01957,-0.0086218,-0.24564,-0.049434,14.295,0.57477,0.29763,0.01,0.14,-0.02,86.66
8150,1.6438e+09,0,-1.39,1.8,19.72,-0.020947,-0.0060381,-0.24824,-0.045247,14.294,0.57466,0.29746,0.01,0.14,-0.02,86.66
8194,1.6439e+09,0,-1.37,1.76,19.7,-0.016278,-0.010843,-0.24624,-0.03901,14.293,0.57453,0.29724,0.01,0.14,-0.02,86.66
8240,1.6439e+09,0,-1.4,1.79,19.72,-0.013958,-0.011045,-0.24379,-0.032455,14.292,0.57435,0.29664,0.01,0.14,-0.02,86.66
8284,1.6439e+09,0,-1.36,1.76,19.71,-0.020371,-0.0076058,-0.24728,-0.032788,14.292,0.57426,0.29422,0.01,0.14,-0.02,86.66
8330,1.6439e+09,0,-1.37,1.78,19.71,-0.018476,-0.0073657,-0.24142,-0.026909,14.291,0.57415,0.2939,0.01,0.14,-0.02,86.66
8374,1.6439e+09,0,-1.33,1.77,19.69,-0.015207,-0.010466,-0.24612,-0.032965,14.29,0.57401,0.29354,0.01,0.14,-0.02,86.66
8419,1.6439e+09,0,-1.39,1.77,19.69,-0.01348,-0.0098389,-0.23869,-0.029077,14.29,0.57387,0.29306,0.01,0.14,-0.02,86.66
8464,1.6439e+09,0,-1.35,1.78,19.69,-0.0212,-0.010044,-0.24429,-0.039888,14.289,0.57374,0.2923,0.01,0.14,-0.02,86.66
8509,1.6439e+09,0,-1.37,1.76,19.69,-0.017959,-0.010401,-0.23627,-0.035396,14.289,0.57365,0.28987,0.01,0.14,-0.02,86.66
8554,1.6439e+09,0,-1.35,1.79,19.68,-0.016153,-0.010403,-0.24358,-0.0481,14.288,0.57351,0.28927,0.01,0.14,-0.02,86.66
8602,1.6439e+09,0,-1.39,1.75,19.69,-0.016604,-0.0072597,-0.2356,-0.045878,14.287,0.57339,0.2886,0.01,0.14,-0.02,86.66
8646,1.644e+09,0,-1.37,1.79,19.7,-0.022025,-0.0086634,-0.24201,-0.059145,14.286,0.57312,0.28864,0.01,0.14,-0.02,86.66
8687,1.644e+09,0,-1.37,1.75,19.69,-0.017667,-0.011244,-0.23562,-0.053834,14.285,0.57286,0.28905,0.01,0.14,-0.02,86.66
8732,1.644e+09,0,-1.38,1.79,19.71,-0.016769,-0.0082699,-0.2379,-0.055433,14.284,0.57261,0.28933,0.01,0.14,-0.02,86.66
8778,1.644e+09,0,-1.37,1.74,19.71,-0.020787,-0.0061231,-0.23598,-0.048788,14.284,0.57254,0.28699,0.01,0.14,-0.02,86.66
8819,1.644e+09,0,-1.37,1.79,19.72,-0.01836,-0.0093759,-0.23588,-0.045036,14.283,0.57232,0.28706,0.01,0.14,-0.02,86.66
8865,1.644e+09,0,-1.37,1.77,19.71,-0.015835,-0.010718,-0.23559,-0.040244,14.282,0.57207,0.2873,0.01,0.14,-0.02,86.66
8909,1.644e+09,0,-1.4,1.76,19.72,-0.014938,-0.0072291,-0.23222,-0.033204,14.282,0.57184,0.28741,0.01,0.14,-0.02,86.66
8953,1.644e+09,0,-1.35,1.77,19.71,-0.020856,-0.0061261,-0.23733,-0.03692,14.281,0.57165,0.28744,0.01,0.14,-0.02,86.66
8999,1.644e+09,0,-1.38,1.75,19.72,-0.016945,-0.010338,-0.2319,-0.030391,14.281,0.57158,0.28509,0.01,0.14,-0.02,86.66
9047,1.644e+09,0,-1.36,1.78,19.7,-0.016347,-0.011284,-0.23473,-0.034149,14.28,0.57134,0.28504,0.01,0.14,-0.02,86.66
9093,1.6441e+09,0,-1.4,1.75,19.72,-0.020283,-0.0083214,-0.23142,-0.032165,14.279,0.57113,0.28489,0.01,0.14,-0.02,86.66
9137,1.6441e+09,0,-1.36,1.78,19.7,-0.024064,-0.0078691,-0.23362,-0.035324,14.278,0.57093,0.28441,0.01,0.14,-0.02,86.66
9182,1.6441e+09,0,-1.39,1.77,19.7,-0.020267,-0.011476,-0.22835,-0.03209,14.278,0.57072,0.28409,0.01,0.14,-0.02,86.66
9226,1.6441e+09,0,-1.37,1.77,19.7,-0.018133,-0.010129,-0.22764,-0.033436,14.277,0.5705,0.28389,0.01,0.14,-0.02,86.66
9271,1.6441e+09,0,-1.39,1.77,19.71,-0.022852,-0.0071752,-0.22814,-0.036587,14.276,0.5703,0.28363,0.01,0.14,-0.02,86.66
9316,1.6441e+09,0,-1.39,1.77,19.72,-0.017399,-0.0086675,-0.22774,-0.038024,14.276,0.57011,0.28302,0.01,0.14,-0.02,86.66
9360,1.6441e+09,0,-1.38,1.77,19.7,-0.013564,-0.012624,-0.22699,-0.038307,14.276,0.57,0.28075,0.01,0.14,-0.02,86.66
9405,1.6441e+09,0,-1.41,1.75,19.72,-0.014295,-0.010839,-0.22581,-0.0404,14.275,0.56979,0.28031,0.01,0.14,-0.02,86.66
9450,1.6441e+09,0,-1.38,1.76,19.72,-0.022632,-0.0096224,-0.23021,-0.049805,14.274,0.56959,0.27957,0.01,0.14,-0.02,86.66
9499,1.6441e+09,0,-1.42,1.75,19.73,-0.018905,-0.011788,-0.22587,-0.052934,14.274,0.56942,0.27897,0.01,0.14,-0.02,86.66
9545,1.6442e+09,0,-1.42,1.75,19.73,-0.012607,-0.0093323,-0.22418,-0.056708,14.273,0.56905,0.2781,0.01,0.14,-0.02,86.66
9588,1.6442e+09,0,-1.39,1.75,19.72,-0.020008,-0.0083404,-0.2258,-0.060114,14.272,0.56878,0.2785,0.01,0.14,-0.02,86.66
9631,1.6442e+09,0,-1.41,1.74,19.73,-0.018348,-0.010333,-0.22278,-0.057307,14.271,0.56852,0.27872,0.01,0.14,-0.02,86.66
9673,1.6442e+09,0,-1.39,1.78,19.71,-0.01758,-0.0098895,-0.2261,-0.057057,14.27,0.56824,0.27884,0.01,0.14,-0.02,86.66
9718,1.6442e+09,0,-1.42,1.74,19.72,-0.021201,-0.0065844,-0.22077,-0.04578,14.27,0.56816,0.27663,0.01,0.14,-0.02,86.66
9760,1.6442e+09,0,-1.37,1.79,19.71,-0.024284,-0.0067864,-0.22684,-0.048,14.269,0.56792,0.27687,0.01,0.14,-0.02,86.66
9803,1.6442e+09,0,-1.38,1.75,19.71,-0.017674,-0.0078178,-0.2196,-0.037436,14.269,0.56769,0.27702,0.01,0.14,-0.02,86.66
9846,1.6442e+09,0,-1.36,1.78,19.7,-0.01555,-0.0067834,-0.22264,-0.039121,14.268,0.56744,0.27706,0.01,0.14,-0.02,86.66
9891,1.6442e+09,0,-1.36,1.74,19.7,-0.019877,-0.0078543,-0.21936,-0.035517,14.267,0.56721,0.27683,0.01,0.14,-0.02,86.66
9935,1.6443e+09,0,-1.36,1.77,19.71,-0.017748,-0.011275,-0.21863,-0.033093,14.267,0.56712,0.2746,0.01,0.14,-0.02,86.66
9978,1.6443e+09,0,-1.35,1.76,19.7,-0.01376,-0.014589,-0.21859,-0.033723,14.267,0.56686,0.27427,0.01,0.14,-0.02,86.66
10021,1.6443e+09,0,-1.38,1.74,19.71,-0.014654,-0.011009,-0.21523,-0.032341,14.266,0.56662,0.27406,0.01,0.14,-0.02,86.66
10065,1.6443e+09,0,-1.35,1.76,19.71,-0.022195,-0.011216,-0.22099,-0.040291,14.265,0.56642,0.27403,0.01,0.14,-0.02,86.66
10108,1.6443e+09,0,-1.4,1.73,19.72,-0.020573,-0.013208,-0.21763,-0.037746,14.265,0.56617,0.27367,0.01,0.14,-0.02,86.66
10151,1.6443e+09,0,-1.39,1.78,19.72,-0.020172,-0.012312,-0.21967,-0.042405,14.264,0.56593,0.27346,0.01,0.14,-0.02,86.66
10195,1.6443e+09,0,-1.43,1.73,19.73,-0.02458,-0.0082891,-0.21745,-0.040836,14.264,0.56582,0.27131,0.01,0.14,-0.02,86.66
10238,1.6443e+09,0,-1.38,1.8,19.74,-0.025343,-0.007296,-0.21947,-0.045583,14.263,0.56561,0.27079,0.01,0.14,-0.02,86.66
10282,1.6443e+09,0,-1.4,1.76,19.73,-0.018564,-0.0095987,-0.21542,-0.045085,14.263,0.5654,0.27044,0.01,0.14,-0.02,86.66
10326,1.6444e+09,0,-1.43,1.72,19.73,-0.014734,-0.012055,-0.21076,-0.042039,14.262,0.56493,0.26995,0.01,0.14,-0.02,86.66
10370,1.6444e+09,0,-1.38,1.78,19.72,-0.024939,-0.0091923,-0.21976,-0.048967,14.262,0.56455,0.26999,0.01,0.14,-0.02,86.66
10415,1.6444e+09,0,-1.43,1.74,19.72,-0.020598,-0.0099837,-0.21481,-0.04099,14.261,0.56417,0.27013,0.01,0.14,-0.02,86.66
10461,1.6444e+09,0,-1.39,1.78,19.71,-0.018006,-0.0077499,-0.21821,-0.042071,14.26,0.56379,0.27019,0.01,0.14,-0.02,86.66
10505,1.6444e+09,0,-1.4,1.75,19.71,-0.020042,-0.0032534,-0.21404,-0.03674,14.26,0.56343,0.27013,0.01,0.14,-0.02,86.66
10550,1.6444e+09,0,-1.36,1.78,19.71,-0.017183,-0.0060008,-0.21355,-0.036873,14.259,0.56311,0.27015,0.01,0.14,-0.02,86.66
10594,1.6444e+09,0,-1.35,1.77,19.7,-0.011567,-0.0085991,-0.2099,-0.031487,14.259,0.563,0.26805,0.01,0.14,-0.02,86.66
10639,1.6444e+09,0,-1.36,1.76,19.71,-0.009831,-0.0077429,-0.20947,-0.031312,14.259,0.56266,0.26802,0.01,0.14,-0.02,86.66
10684,1.6444e+09,0,-1.34,1.75,19.71,-0.01496,-0.011729,-0.20974,-0.03313,14.258,0.56233,0.2677,0.01,0.14,-0.02,86.66
10729,1.6444e+09,0,-1.37,1.74,19.71,-0.011006,-0.015839,-0.20748,-0.03551,14.258,0.56201,0.26749,0.01,0.14,-0.02,86.66
10778,1.6445e+09,0,-1.36,1.76,19.71,-0.0091607,-0.015941,-0.20699,-0.037104,14.258,0.56189,0.26541,0.01,0.14,-0.02,86.66
10823,1.6445e+09,0,-1.43,1.74,19.71,-0.015207,-0.011621,-0.20768,-0.041524,14.257,0.56156,0.26493,0.01,0.14,-0.02,86.66
10868,1.6445e+09,0,-1.37,1.77,19.72,-0.020494,-0.0089084,-0.21452,-0.051014,14.257,0.56128,0.26458,0.01,0.14,-0.02,86.66
10912,1.6445e+09,0,-1.42,1.73,19.71,-0.014841,-0.0095913,-0.20892,-0.050734,14.257,0.56098,0.26415,0.01,0.14,-0.02,86.66
10957,1.6445e+09,0,-1.39,1.77,19.72,-0.014749,-0.0073238,-0.2123,-0.058894,14.256,0.56087,0.26208,0.01,0.14,-0.02,86.66
11002,1.6445e+09,0,-1.42,1.72,19.71,-0.018173,-0.004006,-0.20845,-0.059596,14.256,0.56059,0.2619,0.01,0.14,-0.02,86.66
11046,1.6445e+09,0,-1.36,1.78,19.72,-0.018399,-0.0051171,-0.21239,-0.067035,14.256,0.56033,0.26162,0.01,0.14,-0.02,86.66
11092,1.6445e+09,0,-1.39,1.74,19.71,-0.012033,-0.0077603,-0.20523,-0.063673,14.255,0.56005,0.26127,0.01,0.14,-0.02,86.66
11137,1.6445e+09,0,-1.36,1.75,19.72,-0.00903,-0.0089224,-0.20436,-0.066747,14.255,0.55977,0.26064,0.01,0.14,-0.02,86.66
11184,1.6446e+09,0,-1.36,1.79,19.71,-0.021399,-0.010109,-0.21064,-0.073968,14.255,0.55933,0.26039,0.01,0.14,-0.02,86.66
11229,1.6446e+09,0,-1.4,1.74,19.7,-0.015325,-0.010981,-0.20508,-0.065741,14.254,0.55892,0.26083,0.01,0.14,-0.02,86.66
11274,1.6446e+09,0,-1.37,1.8,19.7,-0.014764,-0.0082584,-0.20893,-0.065863,14.254,0.55852,0.26117,0.01,0.14,-0.02,86.66
11320,1.6446e+09,0,-1.4,1.74,19.71,-0.016258,-0.0043919,-0.20401,-0.054404,14.254,0.55815,0.2612,0.01,0.14,-0.02,86.66
11364,1.6446e+09,0,-1.35,1.78,19.71,-0.013085,-0.0077333,-0.20671,-0.049845,14.254,0.55805,0.25914,0.01,0.14,-0.02,86.66
11412,1.6446e+09,0,-1.37,1.76,19.71,-0.005994,-0.014334,-0.2024,-0.039445,14.254,0.55737,0.26107,0.01,0.14,-0.02,86.66
11458,1.6446e+09,0,-1.44,1.69,19.71,-0.0099824,-0.011169,-0.2013,-0.031449,14.253,0.55726,0.25904,0.01,0.14,-0.02,86.66
11503,1.6446e+09,0,-1.4,1.76,19.72,-0.014799,-0.011122,-0.20605,-0.032006,14.253,0.55692,0.25924,0.01,0.14,-0.02,86.66
11548,1.6446e+09,0,-1.44,1.71,19.71,-0.0087058,-0.011149,-0.20239,-0.023981,14.253,0.55655,0.25913,0.01,0.14,-0.02,86.66
11593,1.6446e+09,0,-1.41,1.77,19.72,-0.0084305,-0.0092046,-0.20316,-0.022367,14.253,0.55621,0.25914,0.01,0.14,-0.02,86.66
11638,1.6447e+09,0,-1.43,1.72,19.72,-0.011758,-0.0055547,-0.20111,-0.020358,14.253,0.5559,0.25907,0.01,0.14,-0.02,86.66
11687,1.6447e+09,0,-1.38,1.78,19.72,-0.0071964,-0.0091374,-0.20071,-0.021528,14.253,0.5556,0.25868,0.01,0.14,-0.02,86.66
11732,1.6447e+09,0,-1.39,1.77,19.72,-0.003462,-0.010488,-0.1992,-0.020675,14.253,0.55548,0.2567,0.01,0.14,-0.02,86.66
11777,1.6447e+09,0,-1.39,1.75,19.71,-0.0028132,-0.0092518,-0.19764,-0.021124,14.253,0.55519,0.25645,0.01,0.14,-0.02,86.66
11821,1.6447e+09,0,-1.36,1.77,19.72,-0.0088566,-0.0090434,-0.19867,-0.024436,14.253,0.55492,0.25614,0.01,0.14,-0.02,86.66
11863,1.6447e+09,0,-1.37,1.72,19.71,-0.0012717,-0.012404,-0.19727,-0.026145,14.253,0.55463,0.25569,0.01,0.14,-0.02,86.66
11908,1.6447e+09,0,-1.35,1.78,19.71,-0.0026671,-0.0106,-0.19975,-0.031339,14.253,0.55435,0.25537,0.01,0.14,-0.02,86.66
11954,1.6447e+09,0,-1.4,1.69,19.71,-0.0043917,-0.0088104,-0.19475,-0.030559,14.253,0.55409,0.25499,0.01,0.14,-0.02,86.66
11998,1.6447e+09,0,-1.34,1.79,19.72,-0.011176,-0.0096493,-0.20261,-0.0428,14.252,0.554,0.25301,0.01,0.14,-0.02,86.66
12044,1.6448e+09,0,-1.39,1.69,19.71,-0.003069,-0.011992,-0.19635,-0.041936,14.252,0.55372,0.25256,0.01,0.14,-0.02,86.66
12087,1.6448e+09,0,-1.36,1.77,19.72,-0.0057635,-0.01201,-0.19788,-0.048145,14.252,0.55343,0.25185,0.01,0.14,-0.02,86.66
12132,1.6448e+09,0,-1.39,1.72,19.72,-0.011283,-0.0086063,-0.19678,-0.050756,14.252,0.55297,0.25201,0.01,0.14,-0.02,86.66
12176,1.6448e+09,0,-1.4,1.75,19.72,-0.0064636,-0.012355,-0.19468,-0.049689,14.251,0.55251,0.25184,0.01,0.14,-0.02,86.66
12220,1.6448e+09,0,-1.41,1.79,19.72,-0.0031861,-0.013386,-0.19484,-0.051205,14.251,0.55206,0.25182,0.01,0.14,-0.02,86.66
12263,1.6448e+09,0,-1.44,1.73,19.72,-0.00078994,-0.011123,-0.1897,-0.047113,14.25,0.55164,0.25197,0.01,0.14,-0.02,86.66
12305,1.6448e+09,0,-1.39,1.81,19.73,-0.0088429,-0.0098345,-0.19855,-0.054282,14.25,0.55124,0.25182,0.01,0.14,-0.02,86.66
12348,1.6448e+09,0,-1.44,1.71,19.72,-0.0012182,-0.011215,-0.19316,-0.045684,14.25,0.55113,0.24987,0.01,0.14,-0.02,86.66
12394,1.6448e+09,0,-1.41,1.79,19.72,-0.0066987,-0.011278,-0.19575,-0.046963,14.249,0.55069,0.24925,0.01,0.14,-0.02,86.66
12436,1.6448e+09,0,-1.42,1.76,19.73,-0.011122,-0.0083362,-0.1929,-0.043601,14.249,0.55033,0.24916,0.01,0.14,-0.02,86.66
12481,1.6449e+09,0,-1.4,1.78,19.73,-0.0039424,-0.010579,-0.19191,-0.042452,14.249,0.54997,0.24876,0.01,0.14,-0.02,86.66
12523,1.6449e+09,0,-1.41,1.78,19.72,-0.00090226,-0.011477,-0.19267,-0.044578,14.248,0.54959,0.24851,0.01,0.14,-0.02,86.66
12570,1.6449e+09,0,-1.42,1.71,19.72,0.0037612,-0.0086417,-0.18833,-0.043413,14.248,0.54922,0.24799,0.01,0.14,-0.02,86.66
12612,1.6449e+09,0,-1.37,1.78,19.73,-0.0035717,-0.010161,-0.19389,-0.050548,14.248,0.54912,0.24608,0.01,0.14,-0.02,86.66
12654,1.6449e+09,0,-1.4,1.7,19.72,0.0029205,-0.01307,-0.18954,-0.049049,14.248,0.54876,0.24568,0.01,0.14,-0.02,86.66
12698,1.6449e+09,0,-1.38,1.77,19.72,0.0017878,-0.014715,-0.1925,-0.057026,14.247,0.54839,0.24524,0.01,0.14,-0.02,86.66
12743,1.6449e+09,0,-1.43,1.75,19.72,-0.010236,-0.012636,-0.19224,-0.061318,14.247,0.54801,0.24445,0.01,0.14,-0.02,86.66
12786,1.6449e+09,0,-1.41,1.78,19.72,-0.0046166,-0.014738,-0.1911,-0.062455,14.247,0.54767,0.24411,0.01,0.14,-0.02,86.66
12834,1.6449e+09,0,-1.41,1.8,19.73,0.0055525,-0.012749,-0.19157,-0.064436,14.247,0.54729,0.24316,0.01,0.14,-0.02,86.66
12874,1.645e+09,0,-1.45,1.75,19.73,-0.0093132,-0.013539,-0.19014,-0.06479,14.246,0.54671,0.24281,0.01,0.14,-0.02,86.66
12918,1.645e+09,0,-1.41,1.77,19.73,-0.0066885,-0.013729,-0.19104,-0.064056,14.245,0.54622,0.24309,0.01,0.14,-0.02,86.66
12967,1.645e+09,0,-1.44,1.77,19.74,-0.0019608,-0.013094,-0.18797,-0.05839,14.244,0.54573,0.2433,0.01,0.14,-0.02,86.66
13012,1.645e+09,0,-1.43,1.71,19.73,0.0044195,-0.0077282,-0.1855,-0.050294,14.244,0.54559,0.24124,0.01,0.14,-0.02,86.66
13057,1.645e+09,0,-1.39,1.76,19.74,-0.0058398,-0.0077523,-0.19025,-0.052003,14.243,0.54514,0.24138,0.01,0.14,-0.02,86.66
13102,1.645e+09,0,-1.4,1.69,19.72,-0.0009571,-0.010438,-0.1853,-0.044223,14.242,0.5447,0.2414,0.01,0.14,-0.02,86.66
13146,1.645e+09,0,-1.36,1.76,19.72,-0.0022784,-0.014958,-0.18686,-0.041912,14.241,0.54424,0.24135,0.01,0.14,-0.02,86.66
13190,1.645e+09,0,-1.4,1.69,19.72,-0.0025084,-0.011576,-0.18221,-0.035165,14.24,0.54383,0.24158,0.01,0.14,-0.02,86.66
13234,1.645e+09,0,-1.34,1.77,19.72,-0.013318,-0.014701,-0.18994,-0.041106,14.239,0.54342,0.24133,0.01,0.14,-0.02,86.66
13279,1.645e+09,0,-1.38,1.72,19.71,-0.0074663,-0.017281,-0.1836,-0.032239,14.239,0.54328,0.23948,0.01,0.14,-0.02,86.66
13324,1.6451e+09,0,-1.36,1.78,19.72,-0.0037397,-0.017476,-0.18548,-0.032937,14.239,0.54286,0.23935,0.01,0.14,-0.02,86.66
13368,1.6451e+09,0,-1.4,1.74,19.72,-0.0086474,-0.014055,-0.18358,-0.031523,14.238,0.54245,0.23917,0.01,0.14,-0.02,86.66
13417,1.6451e+09,0,-1.38,1.79,19.72,-0.0098248,-0.015829,-0.18528,-0.034452,14.237,0.54206,0.23888,0.01,0.14,-0.02,86.66
13461,1.6451e+09,0,-1.41,1.77,19.72,-0.0049061,-0.016352,-0.18322,-0.033765,14.236,0.54166,0.23855,0.01,0.14,-0.02,86.66
13506,1.6451e+09,0,-1.41,1.76,19.73,0.00087362,-0.013709,-0.1817,-0.034589,14.236,0.54127,0.23814,0.01,0.14,-0.02,86.66
13563,1.6452e+09,0,-1.38,1.77,19.74,-0.0030403,-0.012288,-0.18404,-0.046057,14.233,0.53906,0.23428,0.01,0.15,-0.02,86.66
13608,1.6452e+09,0,-1.4,1.68,19.73,-0.0024331,-0.010133,-0.18075,-0.040294,14.232,0.53856,0.23475,0.01,0.15,-0.02,86.66
13656,1.6452e+09,0,-1.34,1.77,19.74,-0.011781,-0.01289,-0.1831,-0.039783,14.232,0.53809,0.23492,0.01,0.15,-0.02,86.66
13704,1.6452e+09,0,-1.36,1.74,19.72,-0.0037405,-0.01878,-0.17914,-0.034732,14.231,0.53758,0.23485,0.01,0.14,-0.02,86.66
13749,1.6452e+09,0,-1.38,1.74,19.74,0.0038817,-0.017422,-0.17304,-0.027652,14.23,0.53711,0.23505,0.01,0.14,-0.02,86.66
13796,1.6452e+09,0,-1.36,1.76,19.73,-0.0090515,-0.0096916,-0.18062,-0.030771,14.23,0.53664,0.23493,0.01,0.14,-0.02,86.66
13841,1.6452e+09,0,-1.34,1.69,19.72,-0.0078488,-0.015844,-0.17713,-0.024741,14.229,0.53621,0.23507,0.01,0.14,-0.02,86.66
13887,1.6452e+09,0,-1.34,1.78,19.74,-0.00357,-0.016028,-0.17741,-0.020934,14.229,0.53605,0.2333,0.01,0.14,-0.02,86.66
13932,1.6453e+09,0,-1.38,1.7,19.73,-0.0047375,-0.016874,-0.17634,-0.019235,14.229,0.53561,0.23356,0.01,0.14,-0.02,86.66
13977,1.6453e+09,0,-1.38,1.76,19.76,-0.0086268,-0.017852,-0.1745,-0.017728,14.228,0.5352,0.23371,0.01,0.14,-0.02,86.66
14023,1.6453e+09,0,-1.4,1.74,19.74,-0.0045451,-0.0201,-0.1759,-0.01994,14.228,0.53476,0.23361,0.01,0.14,-0.02,86.66
14072,1.6453e+09,0,-1.43,1.74,19.76,0.0010062,-0.01674,-0.17003,-0.013314,14.228,0.53459,0.23187,0.01,0.14,-0.02,86.66
14117,1.6453e+09,0,-1.43,1.77,19.75,-0.0078458,-0.011695,-0.17865,-0.022892,14.227,0.53418,0.2317,0.01,0.14,-0.02,86.66
14162,1.6453e+09,0,-1.42,1.72,19.75,-0.0085097,-0.013134,-0.1752,-0.021286,14.227,0.5338,0.23162,0.01,0.14,-0.02,86.66
14207,1.6453e+09,0,-1.42,1.8,19.75,-0.0070297,-0.014083,-0.17828,-0.026551,14.226,0.53341,0.23145,0.01,0.14,-0.02,86.66
14251,1.6453e+09,0,-1.41,1.71,19.74,-0.0041582,-0.013012,-0.17499,-0.025112,14.226,0.53303,0.23145,0.01,0.14,-0.02,86.66
14296,1.6453e+09,0,-1.39,1.79,19.75,-0.010946,-0.0095348,-0.17668,-0.028411,14.226,0.5329,0.22969,0.01,0.14,-0.02,86.66
14340,1.6453e+09,0,-1.36,1.72,19.73,-0.0066892,-0.017106,-0.17522,-0.029764,14.225,0.53254,0.22944,0.01,0.14,-0.02,86.66
14389,1.6454e+09,0,-1.38,1.76,19.75,-9.2518e-05,-0.016865,-0.16618,-0.024557,14.225,0.53213,0.22877,0.01,0.14,-0.02,86.66
14429,1.6454e+09,0,-1.37,1.76,19.74,-0.0069861,-0.014951,-0.17601,-0.03561,14.224,0.53162,0.22955,0.01,0.14,-0.02,86.66
14471,1.6454e+09,0,-1.36,1.74,19.75,-0.0067466,-0.015805,-0.16973,-0.029149,14.224,0.53113,0.23022,0.01,0.14,-0.02,86.66
14520,1.6454e+09,0,-1.36,1.78,19.74,-0.0037161,-0.018375,-0.17566,-0.033233,14.223,0.53062,0.23076,0.01,0.14,-0.02,86.66
14562,1.6454e+09,0,-1.38,1.71,19.75,-0.00065024,-0.017091,-0.16971,-0.022403,14.223,0.5301,0.23107,0.01,0.14,-0.02,86.66
14607,1.6454e+09,0,-1.37,1.79,19.76,-0.0067326,-0.013168,-0.17492,-0.021551,14.223,0.52994,0.22933,0.01,0.14,-0.02,86.66
14649,1.6454e+09,0,-1.37,1.72,19.75,-0.0031852,-0.016892,-0.17172,-0.014505,14.222,0.52948,0.22971,0.01,0.14,-0.02,86.66
14690,1.6454e+09,0,-1.4,1.8,19.77,0.0019732,-0.017482,-0.17007,-0.0091533,14.222,0.52901,0.23026,0.01,0.14,-0.02,86.66
14732,1.6454e+09,0,-1.41,1.71,19.75,0.00046313,-0.016539,-0.17009,-0.004866,14.221,0.52856,0.23076,0.01,0.14,-0.02,86.66
14774,1.6455e+09,0,-1.41,1.78,19.77,-0.0052333,-0.014268,-0.16789,0.00072578,14.221,0.52815,0.23113,0.01,0.14,-0.02,86.66
14817,1.6455e+09,0,-1.41,1.73,19.75,-0.00048674,-0.017584,-0.16926,0.0015856,14.22,0.52774,0.23142,0.01,0.14,-0.02,86.66
14859,1.6455e+09,0,-1.43,1.76,19.77,0.0061824,-0.014517,-0.1617,0.011974,14.22,0.52732,0.23145,0.01,0.14,-0.02,86.66
14902,1.6455e+09,0,-1.42,1.73,19.75,-0.00036309,-0.014082,-0.16952,0.0067326,14.22,0.52718,0.22978,0.01,0.14,-0.02,86.66
14950,1.6455e+09,0,-1.4,1.74,19.77,-0.0038146,-0.014584,-0.16464,0.011556,14.22,0.52682,0.22989,0.01,0.14,-0.02,86.66
14993,1.6455e+09,0,-1.39,1.75,19.75,0.00016969,-0.017227,-0.16948,0.0032723,14.219,0.52642,0.22975,0.01,0.14,-0.02,86.66
15036,1.6455e+09,0,-1.38,1.71,19.76,0.0021781,-0.015844,-0.16471,0.0034098,14.219,0.52606,0.22974,0.01,0.14,-0.02,86.66
15078,1.6455e+09,0,-1.37,1.75,19.75,-0.0063318,-0.013124,-0.16983,-0.0045968,14.219,0.52591,0.22806,0.01,0.14,-0.02,86.66
15121,1.6455e+09,0,-1.35,1.72,19.76,-0.0064572,-0.017852,-0.16781,-0.0051986,14.219,0.52556,0.22827,0.01,0.14,-0.02,86.66
15163,1.6455e+09,0,-1.36,1.78,19.76,-0.00097899,-0.017977,-0.16627,-0.0053946,14.219,0.52517,0.22838,0.01,0.14,-0.02,86.66
15206,1.6456e+09,0,-1.35,1.72,19.76,-0.0014894,-0.017269,-0.16594,-0.0071339,14.218,0.52481,0.22845,0.01,0.14,-0.02,86.66
15248,1.6456e+09,0,-1.35,1.75,19.78,-0.0057507,-0.019096,-0.16097,-0.0033701,14.217,0.52418,0.22878,0.01,0.14,-0.02,86.66
15293,1.6456e+09,0,-1.35,1.76,19.76,-0.0016615,-0.023888,-0.16431,-0.0068095,14.216,0.52361,0.22981,0.01,0.14,-0.02,86.66
15338,1.6456e+09,0,-1.38,1.75,19.78,0.0032143,-0.021682,-0.15791,0.0012146,14.215,0.52303,0.23059,0.01,0.14,-0.02,86.66
15386,1.6456e+09,0,-1.4,1.76,19.76,-0.0052327,-0.019315,-0.16374,-2.9234e-06,14.215,0.52247,0.23108,0.01,0.14,-0.02,86.66
15432,1.6456e+09,0,-1.4,1.74,19.77,-0.0072701,-0.021733,-0.16386,0.0055961,14.214,0.52228,0.22946,0.01,0.14,-0.02,86.66
15476,1.6456e+09,0,-1.42,1.77,19.77,-0.003344,-0.021974,-0.16405,0.0087737,14.214,0.52174,0.22999,0.01,0.14,-0.02,86.66
15522,1.6456e+09,0,-1.44,1.72,19.77,-0.0043828,-0.021555,-0.16245,0.013441,14.213,0.52123,0.23076,0.01,0.14,-0.02,86.66
15569,1.6456e+09,0,-1.44,1.77,19.78,-0.006389,-0.014096,-0.16009,0.02089,14.212,0.5207,0.23089,0.01,0.14,-0.02,86.66
15614,1.6457e+09,0,-1.41,1.76,19.75,-0.0013874,-0.016515,-0.16315,0.019778,14.211,0.52024,0.23143,0.01,0.14,-0.02,86.66
15659,1.6457e+09,0,-1.41,1.75,19.77,0.0042746,-0.012487,-0.15411,0.029809,14.211,0.51979,0.23189,0.01,0.14,-0.02,86.66
15703,1.6457e+09,0,-1.38,1.75,19.74,-0.00051343,-0.014021,-0.15954,0.026142,14.21,0.51938,0.23224,0.01,0.14,-0.02,86.66
15748,1.6457e+09,0,-1.35,1.76,19.76,-0.0046695,-0.015903,-0.15768,0.028053,14.209,0.51898,0.23251,0.01,0.14,-0.02,86.66
15798,1.6457e+09,0,-1.37,1.78,19.75,-0.0013512,-0.021141,-0.15753,0.028196,14.209,0.51853,0.23252,0.01,0.15,-0.02,86.66
15842,1.6457e+09,0,-1.36,1.75,19.75,-0.00040091,-0.020235,-0.15702,0.028482,14.209,0.51836,0.23096,0.01,0.15,-0.02,86.66
15887,1.6457e+09,0,-1.36,1.79,19.76,-0.0076247,-0.015809,-0.15953,0.022888,14.208,0.51794,0.23089,0.01,0.15,-0.02,86.66
15932,1.6457e+09,0,-1.35,1.75,19.76,-0.003476,-0.021557,-0.15997,0.019249,14.207,0.51754,0.23091,0.01,0.15,-0.02,86.66
15978,1.6457e+09,0,-1.39,1.78,19.78,0.003224,-0.01954,-0.15484,0.020588,14.207,0.5171,0.23108,0.01,0.15,-0.02,86.66
16024,1.6457e+09,0,-1.37,1.73,19.76,-0.00049594,-0.017058,-0.15942,0.011053,14.206,0.5167,0.23121,0.01,0.15,-0.02,86.66
16063,1.6458e+09,0,-1.38,1.75,19.78,-0.0064069,-0.018067,-0.15538,0.011443,14.205,0.51601,0.23157,0.01,0.15,-0.02,86.66
16108,1.6458e+09,0,-1.4,1.74,19.77,-0.001823,-0.023676,-0.15655,0.0070376,14.204,0.51534,0.23216,0.01,0.15,-0.02,86.66
16155,1.6458e+09,0,-1.42,1.72,19.78,-0.00032629,-0.024974,-0.14933,0.013701,14.203,0.51466,0.23251,0.01,0.15,-0.02,86.66
16200,1.6458e+09,0,-1.43,1.76,19.78,-0.0083211,-0.021489,-0.15276,0.011365,14.203,0.51443,0.23082,0.01,0.15,-0.02,86.66
16250,1.6458e+09,0,-1.41,1.73,19.77,-0.008777,-0.024681,-0.15363,0.009529,14.202,0.51383,0.23124,0.01,0.15,-0.02,86.66
16295,1.6458e+09,0,-1.45,1.78,19.78,-0.0031481,-0.021957,-0.15074,0.010542,14.201,0.51319,0.2314,0.01,0.15,-0.02,86.66
16339,1.6458e+09,0,-1.44,1.74,19.76,-0.0086812,-0.020451,-0.15669,0.0026262,14.2,0.51261,0.23165,0.01,0.15,-0.02,86.66
16386,1.6458e+09,0,-1.44,1.76,19.77,-0.014658,-0.018843,-0.15086,0.0068445,14.199,0.51206,0.2318,0.01,0.15,-0.02,86.66
16436,1.6458e+09,0,-1.4,1.78,19.78,-0.004728,-0.0237,-0.14874,0.0071355,14.198,0.51138,0.23107,0.01,0.15,-0.02,86.66
16480,1.6459e+09,0,-1.39,1.72,19.76,-0.006879,-0.022224,-0.15165,0.0028178,14.197,0.51085,0.23124,0.01,0.15,-0.02,86.66
16525,1.6459e+09,0,-1.39,1.77,19.78,-0.014096,-0.021406,-0.14807,0.0042476,14.196,0.51035,0.23128,0.01,0.15,-0.02,86.66
16570,1.6459e+09,0,-1.35,1.73,19.77,-0.011354,-0.025696,-0.15045,-0.0012947,14.195,0.50985,0.23144,0.01,0.15,-0.02,86.66
16614,1.6459e+09,0,-1.39,1.77,19.79,-0.005966,-0.021256,-0.14534,0.0011288,14.195,0.5093,0.23121,0.01,0.15,-0.02,86.66
16660,1.6459e+09,0,-1.36,1.75,19.77,-0.012698,-0.019866,-0.15374,-0.010279,14.194,0.50878,0.23093,0.01,0.15,-0.02,86.66
16708,1.6459e+09,0,-1.37,1.76,19.78,-0.016279,-0.020533,-0.14804,-0.0070999,14.194,0.50857,0.22945,0.01,0.15,-0.02,86.66
16753,1.6459e+09,0,-1.35,1.78,19.77,-0.011591,-0.025578,-0.15336,-0.016578,14.193,0.50806,0.22923,0.01,0.15,-0.02,86.66
16797,1.6459e+09,0,-1.37,1.75,19.78,-0.0048259,-0.022759,-0.14589,-0.013806,14.192,0.50756,0.22898,0.01,0.15,-0.02,86.66
16843,1.6459e+09,0,-1.37,1.78,19.78,-0.0089664,-0.022665,-0.1494,-0.021846,14.192,0.50707,0.2287,0.01,0.15,-0.02,86.66
16889,1.6459e+09,0,-1.36,1.74,19.78,-0.0081758,-0.025978,-0.14679,-0.023377,14.191,0.50661,0.22853,0.01,0.15,-0.02,86.66
16932,1.646e+09,0,-1.42,1.78,19.79,-0.0025523,-0.027526,-0.14279,-0.022441,14.19,0.506,0.22872,0.01,0.15,-0.02,86.66
16974,1.646e+09,0,-1.41,1.74,19.77,-0.0087423,-0.022314,-0.14872,-0.028782,14.189,0.50543,0.22889,0.01,0.15,-0.02,86.66
17017,1.646e+09,0,-1.44,1.76,19.78,-0.015153,-0.02024,-0.14357,-0.024605,14.188,0.50493,0.22909,0.01,0.15,-0.02,86.66
17060,1.646e+09,0,-1.4,1.75,19.78,-0.013218,-0.022572,-0.1509,-0.030643,14.188,0.50471,0.22763,0.01,0.15,-0.02,86.66
17102,1.646e+09,0,-1.43,1.75,19.79,-0.007339,-0.017986,-0.14165,-0.021284,14.187,0.50419,0.22779,0.01,0.15,-0.02,86.66
17149,1.646e+09,0,-1.41,1.77,19.78,-0.012921,-0.017633,-0.14985,-0.029551,14.187,0.5037,0.22787,0.01,0.15,-0.02,86.66
17191,1.646e+09,0,-1.4,1.73,19.79,-0.015345,-0.019049,-0.1446,-0.025436,14.186,0.50324,0.22788,0.01,0.15,-0.02,86.66
17233,1.646e+09,0,-1.38,1.79,19.79,-0.011684,-0.022522,-0.14888,-0.03112,14.185,0.50275,0.2278,0.01,0.15,-0.02,86.66
17278,1.646e+09,0,-1.38,1.71,19.8,-0.0031144,-0.022082,-0.14266,-0.025699,14.184,0.50226,0.22773,0.01,0.15,-0.02,86.66
17320,1.646e+09,0,-1.39,1.75,19.8,-0.0080344,-0.02363,-0.1409,-0.023966,14.184,0.50178,0.22753,0.01,0.15,-0.02,86.66
17367,1.6461e+09,0,-1.38,1.75,19.79,-0.016779,-0.02727,-0.14978,-0.032125,14.183,0.50126,0.22699,0.01,0.15,-0.02,86.66
17409,1.6461e+09,0,-1.41,1.73,19.79,-0.011457,-0.023249,-0.13986,-0.023232,14.182,0.50079,0.22684,0.01,0.15,-0.02,86.66
17452,1.6461e+09,0,-1.38,1.79,19.79,-0.016874,-0.020291,-0.1482,-0.032404,14.182,0.50033,0.22648,0.01,0.15,-0.02,86.66
17495,1.6461e+09,0,-1.38,1.71,19.78,-0.014608,-0.021903,-0.1423,-0.027151,14.182,0.50009,0.22507,0.01,0.15,-0.02,86.66
17537,1.6461e+09,0,-1.36,1.8,19.79,-0.0098321,-0.024924,-0.14416,-0.031193,14.181,0.49964,0.22479,0.01,0.15,-0.02,86.66
17585,1.6461e+09,0,-1.38,1.69,19.78,-0.0060869,-0.023631,-0.13765,-0.02746,14.18,0.4992,0.22452,0.01,0.15,-0.02,86.66
17627,1.6461e+09,0,-1.35,1.77,19.78,-0.011576,-0.02348,-0.13967,-0.033236,14.18,0.49879,0.22415,0.01,0.15,-0.02,86.66
17670,1.6461e+09,0,-1.35,1.71,19.78,-0.011217,-0.028014,-0.14023,-0.037843,14.179,0.49837,0.22376,0.01,0.15,-0.02,86.66
17712,1.6461e+09,0,-1.4,1.72,19.78,-0.0091565,-0.021218,-0.13731,-0.038112,14.178,0.49768,0.22334,0.01,0.15,-0.02,86.66
17758,1.6462e+09,0,-1.36,1.78,19.78,-0.013815,-0.020471,-0.14324,-0.044521,14.178,0.49715,0.22339,0.01,0.15,-0.02,86.66
17803,1.6462e+09,0,-1.36,1.72,19.78,-0.011336,-0.023349,-0.13941,-0.041231,14.177,0.49665,0.22353,0.01,0.15,-0.02,86.66
17847,1.6462e+09,0,-1.36,1.79,19.79,-0.0055331,-0.02748,-0.13957,-0.039552,14.177,0.49638,0.22211,0.01,0.15,-0.02,86.66
17891,1.6462e+09,0,-1.38,1.7,19.78,-0.004479,-0.025389,-0.13551,-0.034543,14.176,0.49589,0.22221,0.01,0.15,-0.02,86.66
17936,1.6462e+09,0,-1.38,1.76,19.79,-0.011074,-0.024739,-0.13584,-0.033952,14.176,0.49542,0.2222,0.01,0.15,-0.02,86.66
17984,1.6462e+09,0,-1.37,1.71,19.79,-0.0089674,-0.02746,-0.13508,-0.033215,14.175,0.49496,0.22217,0.01,0.15,-0.02,86.66
18033,1.6462e+09,0,-1.42,1.74,19.79,-0.0082259,-0.023158,-0.13143,-0.029544,14.174,0.49441,0.22165,0.01,0.15,-0.02,86.66
18078,1.6462e+09,0,-1.38,1.77,19.79,-0.01667,-0.021778,-0.14215,-0.041131,14.174,0.49398,0.22151,0.01,0.15,-0.02,86.66
18125,1.6462e+09,0,-1.37,1.73,19.79,-0.0076678,-0.022739,-0.13436,-0.032969,14.173,0.4935,0.22116,0.01,0.15,-0.02,86.66
18173,1.6463e+09,0,-1.42,1.75,19.79,-0.005513,-0.024991,-0.13011,-0.027781,14.173,0.49299,0.22073,0.01,0.15,-0.02,86.66
18224,1.6463e+09,0,-1.38,1.78,19.79,-0.014559,-0.021203,-0.14135,-0.037694,14.172,0.49252,0.22025,0.01,0.15,-0.02,86.66
18269,1.6463e+09,0,-1.39,1.74,19.78,-0.012007,-0.021405,-0.13391,-0.030029,14.172,0.49212,0.22013,0.01,0.15,-0.02,86.66
18313,1.6463e+09,0,-1.39,1.79,19.79,-0.0053743,-0.024666,-0.13707,-0.034173,14.172,0.49171,0.21991,0.01,0.15,-0.02,86.66
18358,1.6463e+09,0,-1.38,1.71,19.78,-0.0027818,-0.021301,-0.13136,-0.028618,14.172,0.49147,0.2186,0.01,0.15,-0.02,86.66
18407,1.6463e+09,0,-1.4,1.75,19.79,-0.0083699,-0.0219,-0.1338,-0.032397,14.171,0.49108,0.21835,0.01,0.15,-0.02,86.66
18452,1.6463e+09,0,-1.37,1.69,19.78,-0.0072405,-0.027829,-0.13366,-0.033318,14.171,0.49066,0.21795,0.01,0.15,-0.02,86.66
18500,1.6463e+09,0,-1.42,1.73,19.79,-0.0098815,-0.028428,-0.12633,-0.028408,14.17,0.49018,0.21734,0.01,0.15,-0.02,86.66
18546,1.6463e+09,0,-1.41,1.76,19.8,-0.01164,-0.022669,-0.13381,-0.039297,14.17,0.48971,0.21644,0.01,0.15,-0.02,86.66
18589,1.6464e+09,0,-1.39,1.71,19.79,-0.01007,-0.026631,-0.13248,-0.036975,14.169,0.48923,0.21688,0.01,0.15,-0.02,86.66
18633,1.6464e+09,0,-1.42,1.76,19.8,-0.0059137,-0.027031,-0.12826,-0.029999,14.168,0.48875,0.21732,0.01,0.15,-0.02,86.66
18679,1.6464e+09,0,-1.39,1.7,19.79,-0.010716,-0.024135,-0.13299,-0.031252,14.168,0.48832,0.21774,0.01,0.15,-0.02,86.66
18724,1.6464e+09,0,-1.4,1.76,19.8,-0.019595,-0.02613,-0.1285,-0.023911,14.167,0.48788,0.21792,0.01,0.15,-0.02,86.66
18768,1.6464e+09,0,-1.38,1.73,19.8,-0.013625,-0.029697,-0.13374,-0.026429,14.167,0.48762,0.21661,0.01,0.15,-0.02,86.66
18813,1.6464e+09,0,-1.39,1.75,19.79,-0.0091303,-0.026292,-0.12631,-0.017071,14.167,0.48718,0.21689,0.01,0.15,-0.02,86.66
18861,1.6464e+09,0,-1.4,1.73,19.79,-0.015492,-0.024349,-0.13159,-0.020458,14.166,0.48678,0.2171,0.01,0.15,-0.02,86.66
18906,1.6464e+09,0,-1.38,1.75,19.78,-0.012922,-0.023678,-0.1274,-0.013733,14.165,0.48637,0.2171,0.01,0.15,-0.02,86.66
18951,1.6464e+09,0,-1.41,1.77,19.8,-0.0050621,-0.026506,-0.12886,-0.014366,14.165,0.48596,0.21716,0.01,0.15,-0.02,86.66
18996,1.6465e+09,0,-1.39,1.71,19.78,-0.0020241,-0.022291,-0.1255,-0.010817,14.164,0.48557,0.2172,0.01,0.15,-0.02,86.66
19044,1.6465e+09,0,-1.38,1.74,19.78,-0.018795,-0.027264,-0.12514,-0.0086855,14.164,0.48511,0.21682,0.01,0.15,-0.02,86.66
19089,1.6465e+09,0,-1.38,1.74,19.78,-0.014346,-0.030255,-0.1318,-0.015894,14.163,0.48473,0.2169,0.01,0.15,-0.02,86.66
19134,1.6465e+09,0,-1.4,1.74,19.79,-0.0067111,-0.027752,-0.12431,-0.0076351,14.163,0.48446,0.21562,0.01,0.15,-0.02,86.66
19179,1.6465e+09,0,-1.41,1.75,19.79,-0.011387,-0.024774,-0.13098,-0.015828,14.163,0.4841,0.21565,0.01,0.15,-0.02,86.66
19224,1.6465e+09,0,-1.41,1.74,19.78,-0.011518,-0.024323,-0.12541,-0.012428,14.163,0.48376,0.21562,0.01,0.15,-0.02,86.66
19268,1.6465e+09,0,-1.41,1.77,19.8,-0.0059367,-0.027193,-0.12976,-0.01899,14.162,0.48339,0.21552,0.01,0.15,-0.02,86.66
19317,1.6465e+09,0,-1.41,1.69,19.79,-0.00090322,-0.023375,-0.12279,-0.013551,14.162,0.48302,0.21527,0.01,0.15,-0.02,86.66
19362,1.6465e+09,0,-1.4,1.74,19.8,-0.011414,-0.022929,-0.12664,-0.018904,14.161,0.48267,0.21493,0.01,0.15,-0.02,86.66
19406,1.6465e+09,0,-1.38,1.68,19.79,-0.01128,-0.025866,-0.12635,-0.019751,14.161,0.48242,0.21369,0.01,0.15,-0.02,86.66
19454,1.6466e+09,0,-1.39,1.75,19.8,-0.0075693,-0.025826,-0.12415,-0.019899,14.161,0.48207,0.21343,0.01,0.15,-0.02,86.66
19493,1.6466e+09,0,-1.39,1.73,19.8,-0.011711,-0.026641,-0.12739,-0.02398,14.16,0.48166,0.21403,0.01,0.15,-0.02,86.66
19536,1.6466e+09,0,-1.39,1.73,19.79,-0.011118,-0.025637,-0.12344,-0.017403,14.159,0.48128,0.21463,0.01,0.15,-0.02,86.66
19579,1.6466e+09,0,-1.4,1.77,19.81,-0.0084459,-0.027997,-0.12846,-0.01714,14.159,0.48091,0.21526,0.01,0.15,-0.02,86.66
19622,1.6466e+09,0,-1.4,1.69,19.79,-0.0030302,-0.023229,-0.12044,-0.0039258,14.158,0.48055,0.21583,0.01,0.15,-0.02,86.66
19665,1.6466e+09,0,-1.4,1.75,19.8,-0.010375,-0.021653,-0.1265,-0.0062054,14.157,0.48023,0.2163,0.01,0.15,-0.02,86.66
19708,1.6466e+09,0,-1.37,1.7,19.78,-0.011072,-0.023227,-0.12405,0.0015125,14.157,0.47998,0.21507,0.01,0.15,-0.02,86.66
19755,1.6466e+09,0,-1.4,1.75,19.8,-0.0079539,-0.025576,-0.12471,0.0042176,14.157,0.47962,0.21546,0.01,0.15,-0.02,86.66
19798,1.6466e+09,0,-1.4,1.69,19.79,-0.0080211,-0.02193,-0.12398,0.0074966,14.156,0.47929,0.21582,0.01,0.15,-0.02,86.66
19840,1.6466e+09,0,-1.4,1.72,19.79,-0.015912,-0.023001,-0.12143,0.010962,14.155,0.47898,0.21609,0.01,0.15,-0.02,86.66
19884,1.6467e+09,0,-1.39,1.71,19.8,-0.01585,-0.026746,-0.12302,0.0094964,14.155,0.47866,0.21648,0.01,0.15,-0.02,86.66
19930,1.6467e+09,0,-1.43,1.71,19.8,-0.0028102,-0.026941,-0.11567,0.019574,14.154,0.47823,0.21632,0.01,0.15,-0.02,86.66
19972,1.6467e+09,0,-1.44,1.75,19.81,-0.0076685,-0.02297,-0.12197,0.013461,14.154,0.47794,0.21655,0.01,0.15,-0.02,86.66
20016,1.6467e+09,0,-1.4,1.7,19.79,-0.010224,-0.021029,-0.12313,0.012053,14.153,0.47763,0.21661,0.01,0.15,-0.02,86.66
20059,1.6467e+09,0,-1.41,1.75,19.8,-0.0080665,-0.02308,-0.12197,0.013124,14.153,0.47734,0.21525,0.01,0.15,-0.02,86.66
20103,1.6467e+09,0,-1.39,1.7,19.8,-0.0086889,-0.021695,-0.12293,0.01019,14.153,0.47706,0.21538,0.01,0.15,-0.02,86.66
20150,1.6467e+09,0,-1.37,1.73,19.79,-0.015181,-0.023589,-0.12047,0.0085537,14.152,0.47679,0.21543,0.01,0.15,-0.02,86.66
20193,1.6467e+09,0,-1.37,1.73,19.81,-0.013704,-0.030129,-0.12161,0.0039758,14.152,0.47649,0.2153,0.01,0.15,-0.02,86.66
20235,1.6467e+09,0,-1.39,1.74,19.8,-0.0040776,-0.028532,-0.11341,0.0079305,14.151,0.47616,0.21514,0.01,0.15,-0.02,86.66
20281,1.6468e+09,0,-1.41,1.75,19.81,-0.0072088,-0.026102,-0.11971,-0.001342,14.151,0.47593,0.21395,0.01,0.15,-0.02,86.66
20323,1.6468e+09,0,-1.36,1.69,19.79,-0.010242,-0.023451,-0.12116,-0.00878,14.151,0.4754,0.21414,0.01,0.14,-0.02,86.66
20367,1.6468e+09,0,-1.37,1.72,19.8,-0.0072399,-0.027869,-0.11421,-0.0040969,14.15,0.47492,0.21495,0.01,0.14,-0.02,86.66
20412,1.6468e+09,0,-1.4,1.71,19.81,-0.0084327,-0.027489,-0.11671,-0.0043797,14.15,0.47448,0.21567,0.01,0.14,-0.02,86.66
20456,1.6468e+09,0,-1.41,1.71,19.79,-0.011819,-0.029626,-0.1137,0.00064777,14.149,0.47407,0.21641,0.01,0.14,-0.02,86.66
20502,1.6468e+09,0,-1.44,1.74,19.81,-0.0058347,-0.029732,-0.11599,0.0035056,14.149,0.47378,0.21511,0.01,0.14,-0.02,86.66
20547,1.6468e+09,0,-1.43,1.71,19.8,-0.0016058,-0.024647,-0.11706,0.0063537,14.148,0.47335,0.21578,0.01,0.14,-0.02,86.66
20597,1.6468e+09,0,-1.46,1.73,19.81,-0.0064223,-0.020377,-0.11634,0.009997,14.148,0.47296,0.21635,0.01,0.14,-0.02,86.66
20642,1.6468e+09,0,-1.43,1.71,19.79,-0.0097939,-0.021547,-0.12021,0.0086425,14.148,0.47258,0.21684,0.01,0.14,-0.02,86.66
20687,1.6469e+09,0,-1.44,1.73,19.81,-0.0078424,-0.023491,-0.11565,0.015766,14.147,0.47219,0.21724,0.01,0.14,-0.02,86.66
20732,1.6469e+09,0,-1.43,1.71,19.8,-0.0076476,-0.0204,-0.11844,0.014466,14.147,0.4718,0.2176,0.01,0.14,-0.02,86.66
20781,1.6469e+09,0,-1.39,1.72,19.8,-0.012786,-0.027111,-0.11067,0.025181,14.146,0.47138,0.21788,0.01,0.15,-0.02,86.66
20826,1.6469e+09,0,-1.43,1.74,19.81,-0.0059675,-0.029726,-0.11067,0.026258,14.146,0.471,0.21829,0.01,0.15,-0.02,86.66
20871,1.6469e+09,0,-1.41,1.72,19.81,-0.0031642,-0.027056,-0.11142,0.027622,14.146,0.47073,0.21718,0.01,0.15,-0.02,86.66
20917,1.6469e+09,0,-1.44,1.73,19.82,-0.0055106,-0.023035,-0.11018,0.029405,14.146,0.47039,0.21765,0.01,0.14,-0.02,86.66
20962,1.6469e+09,0,-1.4,1.72,19.8,-0.007828,-0.023219,-0.11583,0.023759,14.145,0.47005,0.21805,0.01,0.14,-0.02,86.66
21006,1.6469e+09,0,-1.42,1.72,19.81,-0.0037489,-0.024296,-0.11197,0.026286,14.145,0.4697,0.21836,0.01,0.14,-0.02,86.66
21055,1.6469e+09,0,-1.39,1.71,19.8,-0.0034023,-0.022036,-0.11569,0.020697,14.145,0.46934,0.21862,0.01,0.14,-0.02,86.66
21102,1.647e+09,0,-1.36,1.72,19.8,-0.010567,-0.029026,-0.1104,0.025884,14.144,0.46898,0.21918,0.01,0.15,-0.02,86.66
21143,1.647e+09,0,-1.39,1.74,19.81,-0.0058564,-0.032089,-0.11037,0.027681,14.144,0.46871,0.22007,0.01,0.15,-0.02,86.66
21192,1.647e+09,0,-1.4,1.71,19.8,0.00017837,-0.023242,-0.11132,0.031466,14.143,0.46834,0.22088,0.01,0.15,-0.02,86.66
21237,1.647e+09,0,-1.42,1.72,19.81,-0.0043808,-0.019264,-0.10795,0.037339,14.143,0.46809,0.22191,0.01,0.15,-0.02,86.66
21282,1.647e+09,0,-1.4,1.71,19.8,-0.0065676,-0.022163,-0.11262,0.03757,14.142,0.46783,0.22274,0.01,0.15,-0.02,86.66
21326,1.647e+09,0,-1.4,1.71,19.8,-0.0027135,-0.024873,-0.1068,0.048917,14.142,0.46757,0.22166,0.01,0.15,-0.02,86.66
21371,1.647e+09,0,-1.42,1.7,19.81,-0.0050464,-0.023799,-0.1108,0.048954,14.142,0.46733,0.22251,0.01,0.15,-0.02,86.66
21416,1.647e+09,0,-1.39,1.69,19.8,-0.0086525,-0.023262,-0.1056,0.057654,14.142,0.46712,0.22327,0.01,0.15,-0.02,86.66
21465,1.647e+09,0,-1.41,1.72,19.81,-0.0058343,-0.028215,-0.1082,0.056666,14.141,0.46688,0.22381,0.01,0.15,-0.02,86.66
21510,1.647e+09,0,-1.4,1.7,19.81,-0.0028834,-0.02582,-0.10572,0.058465,14.141,0.46665,0.22441,0.01,0.15,-0.02,86.66
21555,1.6471e+09,0,-1.44,1.72,19.82,-0.0057395,-0.022731,-0.1055,0.057112,14.141,0.46644,0.2249,0.01,0.15,-0.02,86.66
21601,1.6471e+09,0,-1.41,1.71,19.81,-0.0068511,-0.021106,-0.10814,0.053104,14.14,0.46623,0.2254,0.01,0.15,-0.02,86.66
21645,1.6471e+09,0,-1.42,1.73,19.82,-0.0018504,-0.022604,-0.1045,0.056371,14.14,0.46601,0.22432,0.01,0.15,-0.02,86.66
21691,1.6471e+09,0,-1.38,1.7,19.8,-0.0020814,-0.018999,-0.10873,0.048591,14.14,0.46578,0.22476,0.01,0.15,-0.02,86.66
21735,1.6471e+09,0,-1.39,1.71,19.81,-0.0065199,-0.017286,-0.10394,0.05071,14.14,0.46561,0.22533,0.01,0.15,-0.02,86.66
21781,1.6471e+09,0,-1.36,1.71,19.8,-0.0083481,-0.021335,-0.11008,0.040566,14.14,0.4654,0.22562,0.01,0.15,-0.02,86.66
21825,1.6471e+09,0,-1.36,1.7,19.8,-0.0034793,-0.025065,-0.10159,0.044765,14.139,0.46517,0.22595,0.01,0.15,-0.02,86.66
21870,1.6471e+09,0,-1.38,1.7,19.81,-0.0038623,-0.026341,-0.10398,0.038497,14.139,0.46494,0.22609,0.01,0.15,-0.02,86.66
21919,1.6471e+09,0,-1.34,1.69,19.8,-0.008025,-0.026468,-0.10225,0.037204,14.139,0.46471,0.22507,0.01,0.15,-0.02,86.66
21965,1.6472e+09,0,-1.4,1.71,19.82,-0.00183,-0.027984,-0.1024,0.032264,14.139,0.46447,0.22513,0.01,0.15,-0.02,86.66
22007,1.6472e+09,0,-1.39,1.68,19.81,-0.0019681,-0.02358,-0.10653,0.023439,14.137,0.46396,0.22693,0.01,0.15,-0.02,86.66
22053,1.6472e+09,0,-1.39,1.69,19.8,-0.0084064,-0.024927,-0.10083,0.029542,14.137,0.4636,0.22739,0.01,0.15,-0.02,86.66
22096,1.6472e+09,0,-1.44,1.73,19.82,-0.0016463,-0.024825,-0.099167,0.030131,14.136,0.46327,0.22794,0.01,0.15,-0.02,86.66
22138,1.6472e+09,0,-1.41,1.7,19.81,0.0017711,-0.020178,-0.10304,0.026609,14.135,0.46296,0.22846,0.01,0.15,-0.02,86.66
22181,1.6472e+09,0,-1.44,1.71,19.81,-0.0022512,-0.016004,-0.097841,0.033243,14.135,0.46275,0.22745,0.01,0.15,-0.02,86.66
22225,1.6472e+09,0,-1.4,1.71,19.8,-0.0054885,-0.017256,-0.1073,0.02429,14.135,0.46251,0.22798,0.01,0.15,-0.02,86.66
22268,1.6472e+09,0,-1.42,1.7,19.81,0.00012897,-0.019421,-0.097399,0.033435,14.134,0.46225,0.22843,0.01,0.15,-0.02,86.66
22311,1.6472e+09,0,-1.38,1.7,19.81,-0.0011454,-0.019428,-0.10442,0.025104,14.133,0.462,0.22883,0.01,0.15,-0.02,86.66
22357,1.6472e+09,0,-1.38,1.67,19.8,-0.0059078,-0.017238,-0.097403,0.029544,14.133,0.46177,0.22916,0.01,0.15,-0.02,86.66
22402,1.6473e+09,0,-1.36,1.71,19.81,-0.008211,-0.021189,-0.10543,0.020115,14.133,0.46158,0.22815,0.01,0.15,-0.02,86.66
22444,1.6473e+09,0,-1.37,1.67,19.8,-0.0023748,-0.023664,-0.09473,0.02814,14.132,0.46133,0.22844,0.01,0.15,-0.02,86.66
22488,1.6473e+09,0,-1.37,1.7,19.82,-0.0045432,-0.023973,-0.10018,0.019688,14.132,0.46109,0.22865,0.01,0.15,-0.02,86.66
22534,1.6473e+09,0,-1.36,1.69,19.81,-0.006178,-0.019799,-0.099715,0.01611,14.131,0.4608,0.22879,0.01,0.15,-0.02,86.66
22576,1.6473e+09,0,-1.4,1.72,19.82,0.00018583,-0.021325,-0.094922,0.018739,14.131,0.46052,0.229,0.01,0.15,-0.02,86.66
22619,1.6473e+09,0,-1.37,1.69,19.82,0.0014936,-0.020761,-0.10026,0.0094867,14.13,0.46027,0.22931,0.01,0.15,-0.02,86.66
22661,1.6473e+09,0,-1.4,1.7,19.81,-0.0026064,-0.018838,-0.094458,0.013225,14.13,0.46005,0.22833,0.01,0.15,-0.02,86.66
22705,1.6473e+09,0,-1.38,1.7,19.81,-0.0057272,-0.020656,-0.1037,0.0017196,14.13,0.45981,0.22856,0.01,0.15,-0.02,86.66
22746,1.6473e+09,0,-1.41,1.69,19.81,-0.0016515,-0.024478,-0.092799,0.010484,14.129,0.45953,0.22863,0.01,0.15,-0.02,86.66
22792,1.6474e+09,0,-1.41,1.71,19.82,-0.0043814,-0.024434,-0.099309,0.0022415,14.128,0.45901,0.2292,0.01,0.15,-0.02,86.66
22837,1.6474e+09,0,-1.39,1.68,19.8,-0.0098492,-0.022408,-0.092828,0.0072585,14.128,0.45853,0.22972,0.01,0.15,-0.02,86.66
22882,1.6474e+09,0,-1.42,1.72,19.82,-0.0087848,-0.024797,-0.096973,0.002076,14.127,0.45803,0.23004,0.01,0.15,-0.02,86.66
22930,1.6474e+09,0,-1.38,1.69,19.81,0.0013284,-0.018404,-0.097824,0.0031287,14.126,0.4575,0.23037,0.01,0.15,-0.02,86.66
22974,1.6474e+09,0,-1.4,1.69,19.81,-0.0018975,-0.016841,-0.091507,0.0099779,14.125,0.45706,0.2309,0.01,0.15,-0.02,86.66
23019,1.6474e+09,0,-1.35,1.69,19.82,-0.005936,-0.022742,-0.098024,0.0054872,14.125,0.45662,0.23125,0.01,0.15,-0.02,86.66
23065,1.6474e+09,0,-1.37,1.68,19.82,-0.0017879,-0.024013,-0.09101,0.01507,14.125,0.4564,0.23032,0.01,0.15,-0.02,86.66
23110,1.6474e+09,0,-1.38,1.67,19.82,-0.0021079,-0.023489,-0.095276,0.011879,14.124,0.45597,0.23071,0.01,0.15,-0.02,86.66
23155,1.6474e+09,0,-1.36,1.7,19.81,-0.01061,-0.02141,-0.092497,0.015792,14.123,0.45555,0.23096,0.01,0.15,-0.02,86.66
23203,1.6475e+09,0,-1.38,1.7,19.82,-0.0084592,-0.024567,-0.095826,0.012666,14.123,0.45514,0.2312,0.01,0.15,-0.02,86.66
23248,1.6475e+09,0,-1.36,1.71,19.82,-0.0029729,-0.020875,-0.092646,0.014682,14.122,0.45471,0.23143,0.01,0.15,-0.02,86.66
23293,1.6475e+09,0,-1.42,1.71,19.82,-0.0040721,-0.017595,-0.093634,0.011976,14.122,0.45431,0.23157,0.01,0.15,-0.02,86.66
23338,1.6475e+09,0,-1.35,1.7,19.81,-0.0055367,-0.018609,-0.096635,0.0073762,14.121,0.45392,0.23194,0.01,0.15,-0.02,86.66
23386,1.6475e+09,0,-1.37,1.71,19.82,-0.0016831,-0.025366,-0.089294,0.015682,14.121,0.45345,0.23202,0.01,0.15,-0.02,86.66
23427,1.6475e+09,0,-1.42,1.69,19.82,-0.00071893,-0.02515,-0.093721,0.011669,14.12,0.45306,0.23233,0.01,0.15,-0.02,86.66
23472,1.6475e+09,0,-1.37,1.68,19.81,-0.0066804,-0.022081,-0.088196,0.016925,14.12,0.45272,0.23259,0.01,0.15,-0.02,86.66
23516,1.6475e+09,0,-1.41,1.72,19.82,-0.0084371,-0.024216,-0.092346,0.012766,14.119,0.45234,0.23267,0.01,0.15,-0.02,86.66
23563,1.6475e+09,0,-1.37,1.68,19.81,-0.0035204,-0.021096,-0.091347,0.01377,14.119,0.4521,0.23177,0.01,0.15,-0.02,86.66
23610,1.6475e+09,0,-1.43,1.7,19.82,-0.0038058,-0.017883,-0.09092,0.012796,14.119,0.45175,0.23189,0.01,0.15,-0.02,86.66
23652,1.6476e+09,0,-1.36,1.68,19.81,-0.0060626,-0.018954,-0.098201,0.0039687,14.118,0.45111,0.2323,0.01,0.15,-0.02,86.66
23697,1.6476e+09,0,-1.39,1.69,19.81,-0.002601,-0.022096,-0.088673,0.013759,14.117,0.45051,0.23278,0.01,0.15,-0.02,86.66
23741,1.6476e+09,0,-1.38,1.68,19.81,0.0014132,-0.024047,-0.093805,0.008348,14.117,0.44992,0.23323,0.01,0.15,-0.02,86.66
23786,1.6476e+09,0,-1.37,1.68,19.8,-0.0037348,-0.021924,-0.086901,0.015304,14.117,0.44971,0.23232,0.01,0.15,-0.02,86.66
23831,1.6476e+09,0,-1.38,1.7,19.81,-0.0084006,-0.026632,-0.093035,0.0087337,14.116,0.44914,0.23275,0.01,0.15,-0.02,86.66
23876,1.6476e+09,0,-1.38,1.71,19.81,-0.007371,-0.026646,-0.087832,0.011966,14.115,0.44856,0.23315,0.01,0.15,-0.02,86.66
