LineNo,TimeUS,C,Roll,Pitch,Yaw,VN,VE,VD,dPD,PN,PE,PD,GX,GY,GZ,OH
305,1641887303,0,-1.45,1.72,19.61,0.005922586,-0.02190758,0.04807493,0.03918188,14.43994,0.6120001,0.5698885,0.01,0.14,-0.02,86.66
533,1641933520,0,-1.46,1.72,19.62,0.006070518,-0.02189788,0.0480923,0.03940364,14.43851,0.6106428,0.5717943,0.01,0.14,-0.02,86.66
985,1642040400,0,-1.45,1.73,19.62,0.005406007,-0.02132872,0.04889351,0.03494469,14.43042,0.6081898,0.5754683,0.01,0.14,-0.02,86.66
1099,1642079518,0,-1.45,1.73,19.62,0.005582266,-0.02126503,0.04941296,0.03696325,14.42887,0.6073102,0.5771067,0.01,0.14,-0.02,86.66
1206,1642156178,0,-1.45,1.73,19.63,0.007864721999999999,-0.01986579,-0.07578668,-0.07088257000000001,14.4256,0.6058856,0.5729262000000001,0.01,0.14,-0.02,86.66
1317,1642225592,0,-1.45,1.73,19.64,0.01302796,-0.01844054,-0.3291564,-0.3083238,14.42357,0.6048775,0.5607711,0.01,0.13,-0.02,86.66
1496,1642272695,0,-1.45,1.73,19.64,0.0134267,-0.01772211,-0.3286868,-0.3103136,14.42076,0.6038027,0.5440388,0.01,0.13,-0.02,86.66
1678,1642306384,0,-1.45,1.73,19.64,0.01332228,-0.01706182,-0.329082,-0.3282802,14.4183,0.6030375,0.5317451,0.01,0.13,-0.02,86.66
1722,1642316520,0,-1.45,1.73,19.64,0.01324947,-0.01697411,-0.329058,-0.3328049,14.41756,0.6028188,0.528104,0.01,0.13,-0.02,86.66
1767,1642327306,0,-1.45,1.74,19.64,0.01361053,-0.01699691,-0.3290578,-0.3374647,14.4177,0.6026493000000001,0.5248168,0.01,0.13,-0.02,86.66
1811,1642337346,0,-1.45,1.74,19.64,0.01372901,-0.01673316,-0.3289872,-0.341772,14.41702,0.6024195,0.5208661999999999,0.01,0.13,-0.02,86.66
1856,1642347796,0,-1.45,1.74,19.64,0.01379237,-0.0167781,-0.3287506,-0.3449572,14.41638,0.6022111,0.5172466999999999,0.01,0.13,-0.02,86.66
1903,1642357719,0,-1.45,1.74,19.64,0.01381098,-0.01676,-0.3288825,-0.3479465,14.41578,0.6020052,0.513646,0.01,0.13,-0.02,86.66
1948,1642375142,0,-1.44,1.74,19.65,0.01376647,-0.01642946,-0.3276738,-0.3470602,14.41438,0.6016926,0.5094201,0.01,0.13,-0.02,86.66
1990,1642384847,0,-1.45,1.74,19.65,0.01349533,-0.01608968,-0.3270474,-0.3398352,14.41296,0.6015032,0.5074424,0.01,0.13,-0.02,86.66
2038,1642394934,0,-1.45,1.74,19.65,0.01317345,-0.01586891,-0.3266371,-0.3308545,14.41162,0.6013193999999999,0.5054132,0.01,0.13,-0.02,86.66
2081,1642405673,0,-1.45,1.74,19.65,0.01305,-0.01578217,-0.3261025,-0.3193463,14.41036,0.601123,0.5030095999999999,0.01,0.13,-0.02,86.66
2123,1642416196,0,-1.45,1.74,19.65,0.01276616,-0.01568135,-0.3259146,-0.3066789,14.40917,0.6009309,0.5005584,0.01,0.13,-0.02,86.66
2169,1642430103,0,-1.45,1.74,19.65,0.01238296,-0.01555664,-0.325275,-0.2897522,14.40808,0.6007116,0.4975429,0.01,0.13,-0.02,86.66
2213,1642439937,0,-1.45,1.74,19.65,0.01221186,-0.01543127,-0.3249131,-0.2787342,14.40701,0.6005428,0.4954582,0.01,0.13,-0.02,86.66
2255,1642450769,0,-1.45,1.74,19.65,0.01197402,-0.01515587,-0.3244989,-0.2665504,14.406,0.6003628,0.4930027,0.01,0.14,-0.02,86.66
2299,1642461396,0,-1.44,1.75,19.65,0.01222658,-0.01503098,-0.3243334,-0.2559815,14.40613,0.600212,0.489762,0.01,0.14,-0.02,86.66
2341,1642471335,0,-1.44,1.75,19.65,0.01193613,-0.01470057,-0.3236676,-0.2463859,14.40518,0.6000397,0.4872733,0.01,0.14,-0.02,86.66
2384,1642481327,0,-1.44,1.75,19.65,0.01168106,-0.01458443,-0.3233155,-0.2396713,14.40426,0.5998856,0.485069,0.01,0.14,-0.02,86.66
2427,1642491760,0,-1.44,1.75,19.65,0.011545,-0.01440009,-0.3229999,-0.2346642,14.4034,0.5997338,0.4828261,0.01,0.14,-0.02,86.66
2473,1642502532,0,-1.44,1.75,19.65,0.01131705,-0.01421699,-0.322666,-0.2304946,14.40259,0.5995705,0.4802245,0.01,0.14,-0.02,86.66
2517,1642512775,0,-1.44,1.75,19.65,0.01151562,-0.01399551,-0.322695,-0.2270523,14.4027,0.5994294999999999,0.4770012,0.01,0.14,-0.02,86.66
2559,1642522727,0,-1.44,1.75,19.65,0.01134517,-0.01401945,-0.322181,-0.2246608,14.40193,0.5992852,0.474689,0.01,0.14,-0.02,86.66
2602,1642532731,0,-1.43,1.75,19.65,0.0112558,-0.01403059,-0.3218028,-0.2231822,14.4012,0.5991413,0.4723431,0.01,0.14,-0.02,86.66
2647,1642543279,0,-1.43,1.75,19.65,0.01098374,-0.01395705,-0.3214989,-0.2226764,14.40052,0.5989845,0.4696974,0.01,0.14,-0.02,86.66
2693,1642559640,0,-1.43,1.75,19.65,0.01055352,-0.01374716,-0.3204507,-0.2187208,14.39907,0.5986491,0.4668187,0.01,0.14,-0.02,86.66
2738,1642569765,0,-1.43,1.75,19.65,0.01013048,-0.01377779,-0.3197008,-0.2113351,14.39763,0.5984045,0.4657729,0.01,0.14,-0.02,86.66
2783,1642580489,0,-1.43,1.75,19.65,0.009361843,-0.01367624,-0.3188845,-0.2005342,14.39627,0.598152,0.4643202,0.01,0.14,-0.02,86.66
2828,1642591210,0,-1.44,1.75,19.65,0.008973727000000001,-0.01353004,-0.317809,-0.1914433,14.39496,0.5979198999999999,0.463109,0.01,0.14,-0.02,86.66
2877,1642601212,0,-1.44,1.75,19.65,0.008602462,-0.01341335,-0.3172469,-0.1832592,14.39372,0.5976946,0.4618208,0.01,0.14,-0.02,86.66
2921,1642611630,0,-1.44,1.75,19.65,0.008143160999999999,-0.01333684,-0.3164822,-0.1732728,14.39255,0.5974615,0.4601398,0.01,0.14,-0.02,86.66
2968,1642622314,0,-1.44,1.75,19.65,0.00771154,-0.01312268,-0.3161007,-0.1644747,14.39144,0.5972345,0.4583854,0.01,0.14,-0.02,86.66
3012,1642632689,0,-1.44,1.75,19.65,0.007698497,-0.01307415,-0.3158875,-0.1568412,14.39151,0.5971038,0.4552289,0.01,0.14,-0.02,86.66
3057,1642642775,0,-1.43,1.75,19.65,0.007476388,-0.01288303,-0.315157,-0.1516635,14.39044,0.5968965000000001,0.4537531,0.01,0.14,-0.02,86.66
3101,1642652679,0,-1.43,1.75,19.65,0.00719887,-0.01294545,-0.3142262,-0.1499017,14.38941,0.5966929,0.4522203,0.01,0.14,-0.02,86.66
3146,1642663538,0,-1.43,1.75,19.65,0.006966274,-0.01281582,-0.3132939,-0.1491641,14.38844,0.5964805,0.450315,0.01,0.14,-0.02,86.66
3191,1642673799,0,-1.43,1.75,19.65,0.006952324,-0.01290347,-0.3132116,-0.1484224,14.38851,0.596352,0.447186,0.01,0.14,-0.02,86.66
3235,1642683770,0,-1.43,1.75,19.65,0.006739818,-0.01272895,-0.3127476,-0.1491458,14.38758,0.5961564,0.4455411,0.01,0.14,-0.02,86.66
3282,1642693772,0,-1.43,1.76,19.65,0.00652988,-0.01273226,-0.3121468,-0.1503419,14.38669,0.595965,0.443838,0.01,0.14,-0.02,86.66
3332,1642704079,0,-1.43,1.76,19.65,0.006281585,-0.01281249,-0.3117846,-0.1530807,14.38584,0.5957759,0.4420802,0.01,0.14,-0.02,86.66
3378,1642714398,0,-1.43,1.76,19.66,0.006128901,-0.01301232,-0.3113559,-0.1567639,14.38505,0.5955752,0.4399568,0.01,0.14,-0.02,86.66
3422,1642724917,0,-1.43,1.76,19.66,0.006334685,-0.01315895,-0.3113937,-0.1595665,14.38511,0.5954446,0.4368464,0.01,0.14,-0.02,86.66
3467,1642734891,0,-1.43,1.75,19.66,0.006349548,-0.01320867,-0.3109908,-0.1631911,14.38435,0.5952566,0.4349872,0.01,0.14,-0.02,86.66
3512,1642744873,0,-1.43,1.75,19.66,0.00619856,-0.01319002,-0.3101869,-0.1666377,14.38363,0.5950712,0.4330803,0.01,0.14,-0.02,86.66
3559,1642758474,0,-1.43,1.75,19.66,0.006087035,-0.0132981,-0.3099107,-0.1728541,14.38297,0.5948339,0.4298385,0.01,0.14,-0.02,86.66
3601,1642768980,0,-1.43,1.75,19.66,0.005565003,-0.01323027,-0.3089759,-0.1735719,14.3816,0.5944481,0.4293084,0.01,0.14,-0.02,86.66
3645,1642779695,0,-1.43,1.75,19.66,0.005073186,-0.01302112,-0.3081096,-0.168999,14.3803,0.5940623,0.4283638,0.01,0.14,-0.02,86.66
3689,1642789699,0,-1.43,1.75,19.66,0.004610001,-0.01304047,-0.3068705,-0.1639783,14.37906,0.5937001,0.4276344,0.01,0.14,-0.02,86.66
3736,1642800184,0,-1.43,1.76,19.66,0.004299523,-0.01296521,-0.3060648,-0.158523,14.37788,0.5933482,0.4268128,0.01,0.14,-0.02,86.66
3784,1642810770,0,-1.43,1.76,19.66,0.004046085,-0.01299156,-0.3052097,-0.150318,14.37676,0.5929938,0.4255952,0.01,0.14,-0.02,86.66
3829,1642821398,0,-1.43,1.76,19.66,0.004097724,-0.01302379,-0.3050088,-0.1419775,14.3768,0.5928507,0.4222425,0.01,0.14,-0.02,86.66
3873,1642831265,0,-1.43,1.76,19.66,0.003759001,-0.01299883,-0.3044068,-0.1362145,14.37572,0.5925162,0.4212587,0.01,0.14,-0.02,86.66
3918,1642841434,0,-1.43,1.76,19.66,0.003409812,-0.01310879,-0.3036907,-0.1323092,14.37469,0.59219,0.4201949,0.01,0.14,-0.02,86.66
3963,1642851984,0,-1.43,1.76,19.66,0.002915995,-0.01313983,-0.302897,-0.1301873,14.37371,0.5918705,0.4191108,0.01,0.14,-0.02,86.66
4007,1642861789,0,-1.43,1.76,19.67,0.002567736,-0.01321854,-0.3020566,-0.1286979,14.37277,0.5915588000000001,0.4179496,0.01,0.14,-0.02,86.66
4052,1642872381,0,-1.43,1.76,19.67,0.002263241,-0.01338683,-0.3013485,-0.1265199,14.37188,0.5912402,0.4164119,0.01,0.14,-0.02,86.66
4096,1642883194,0,-1.43,1.76,19.67,0.002204998,-0.01344685,-0.3014814,-0.1248657,14.3719,0.5911063,0.4134009,0.01,0.14,-0.02,86.66
4141,1642893104,0,-1.43,1.76,19.67,0.001977993,-0.01337267,-0.3007471,-0.1247867,14.37105,0.5908052,0.4121018,0.01,0.14,-0.02,86.66
4186,1642903206,0,-1.43,1.76,19.67,0.001788583,-0.01355348,-0.3000968,-0.125723,14.37023,0.5905107000000001,0.4107354,0.01,0.14,-0.02,86.66
4235,1642913331,0,-1.43,1.76,19.67,0.001476054,-0.01373827,-0.2996813,-0.1271575,14.36946,0.5902081,0.4090021,0.01,0.14,-0.02,86.66
4280,1642923405,0,-1.43,1.76,19.67,0.0014075,-0.01394089,-0.2993286,-0.1296484,14.36873,0.5899225,0.4075062,0.01,0.14,-0.02,86.66
4324,1642933323,0,-1.43,1.76,19.67,0.001227297,-0.01402888,-0.2989511,-0.1337739,14.36803,0.589641,0.405952,0.01,0.14,-0.02,86.66
4369,1642947407,0,-1.43,1.76,19.67,0.0009507485,-0.01399903,-0.2980826,-0.1365626,14.36679,0.589319,0.4039586,0.01,0.14,-0.02,86.66
4411,1642957618,0,-1.43,1.76,19.67,0.0007069329,-0.01403095,-0.2972007,-0.1384203,14.36561,0.5890588,0.4030756,0.01,0.14,-0.02,86.66
4454,1642968389,0,-1.43,1.76,19.67,0.0004337405,-0.01392438,-0.2964334,-0.1374615,14.36448,0.5887902,0.4018102,0.01,0.14,-0.02,86.66
4498,1642978770,0,-1.43,1.75,19.67,0.0006463605,-0.01386085,-0.2965555,-0.1353309,14.36449,0.5886516000000001,0.398848,0.01,0.14,-0.02,86.66
4540,1642988648,0,-1.43,1.75,19.67,0.0003538049,-0.01378073,-0.2961176,-0.1343479,14.36341,0.5884051,0.3978071,0.01,0.14,-0.02,86.66
4583,1642998654,0,-1.43,1.75,19.67,0.0001533962,-0.01362008,-0.295692,-0.1337174,14.36238,0.5881646,0.3966874,0.01,0.14,-0.02,86.66
4625,1643008639,0,-1.43,1.75,19.67,-9.472179e-05,-0.01358839,-0.2951618,-0.134392,14.3614,0.5879295,0.3954944,0.01,0.14,-0.02,86.66
4674,1643019308,0,-1.43,1.75,19.67,-0.0004664837,-0.01346476,-0.2945409,-0.1357098,14.36047,0.5876862,0.3939385,0.01,0.14,-0.02,86.66
4717,1643029853,0,-1.43,1.75,19.67,-0.0004732991,-0.0135645,-0.2944964,-0.136282,14.36046,0.5875513999999999,0.390997,0.01,0.14,-0.02,86.66
4760,1643039906,0,-1.43,1.76,19.67,-0.0007066602,-0.01369477,-0.2942165,-0.1384927,14.35956,0.5873117,0.3893818,0.01,0.14,-0.02,86.66
4803,1643050341,0,-1.43,1.76,19.67,-0.0008072599,-0.01344087,-0.2936763,-0.1419414,14.3587,0.587077,0.3877035,0.01,0.14,-0.02,86.66
4845,1643060618,0,-1.44,1.76,19.67,-0.0009814544,-0.01338723,-0.2932942,-0.1452659,14.35788,0.5868619,0.3862757,0.01,0.14,-0.02,86.66
4888,1643071255,0,-1.44,1.76,19.67,-0.00137677,-0.01349001,-0.2928709,-0.1480138,14.3571,0.5866373,0.3844915,0.01,0.14,-0.02,86.66
4931,1643081238,0,-1.44,1.76,19.68,-0.00150385,-0.01358026,-0.2924594,-0.1518552,14.35636,0.5864286,0.3829437,0.01,0.14,-0.02,86.66
4974,1643091646,0,-1.44,1.76,19.68,-0.001324476,-0.01349828,-0.292206,-0.1543484,14.35635,0.586293,0.3800237,0.01,0.14,-0.02,86.66
5017,1643101636,0,-1.44,1.76,19.68,-0.001528283,-0.01340171,-0.2917682,-0.157892,14.35564,0.5860884,0.3784287,0.01,0.14,-0.02,86.66
5060,1643111695,0,-1.44,1.76,19.68,-0.001622463,-0.0132259,-0.2912359,-0.1643956,14.35495,0.5858876,0.3767901,0.01,0.14,-0.02,86.66
5107,1643122367,0,-1.43,1.75,19.68,-0.001685631,-0.01311985,-0.2906056,-0.1695315,14.35431,0.5856781,0.3748086,0.01,0.14,-0.02,86.66
5150,1643132665,0,-1.43,1.75,19.68,-0.00161208,-0.0129644,-0.2904825,-0.1731997,14.35429,0.585548,0.3719065,0.01,0.14,-0.02,86.66
5193,1643142722,0,-1.43,1.75,19.68,-0.001821434,-0.01287132,-0.290305,-0.1775229,14.35367,0.5853577,0.3701737,0.01,0.14,-0.02,86.66
5231,1643154334,0,-1.43,1.75,19.68,-0.002244301,-0.01278724,-0.2895255,-0.1779834,14.35233,0.5850508,0.3695361,0.01,0.14,-0.02,86.66
5275,1643164340,0,-1.43,1.75,19.68,-0.002615025,-0.01291824,-0.2886788,-0.1727434,14.35105,0.5847517,0.3687827,0.01,0.14,-0.02,86.66
5320,1643174327,0,-1.43,1.75,19.68,-0.00309542,-0.01301035,-0.2877203,-0.165166,14.34983,0.5844718,0.3682171,0.01,0.14,-0.02,86.66
5364,1643185274,0,-1.43,1.75,19.68,-0.003309532,-0.01314463,-0.2871476,-0.1557141,14.34866,0.584185,0.3672686,0.01,0.14,-0.02,86.66
5409,1643195320,0,-1.43,1.76,19.68,-0.003588914,-0.01298599,-0.2863339,-0.1476709,14.34755,0.5839181,0.3665187,0.01,0.14,-0.02,86.66
5453,1643205578,0,-1.43,1.76,19.68,-0.004028789,-0.01293934,-0.2855985,-0.1418414,14.34648,0.5836573,0.3656917,0.01,0.14,-0.02,86.66
5498,1643216262,0,-1.43,1.76,19.68,-0.004042512,-0.01317581,-0.2851182,-0.134656,14.34644,0.5835273,0.362842,0.01,0.14,-0.02,86.66
5547,1643225866,0,-1.43,1.76,19.68,-0.004398741,-0.0131916,-0.2844038,-0.1298506,14.34542,0.5832706,0.3619462,0.01,0.14,-0.02,86.66
5592,1643235867,0,-1.43,1.76,19.68,-0.004693793,-0.01316894,-0.2839217,-0.1288331,14.34443,0.5830181,0.3609811,0.01,0.14,-0.02,86.66
5636,1643246250,0,-1.43,1.76,19.68,-0.005062511,-0.01314598,-0.283392,-0.1281586,14.34348,0.5827715,0.3599389,0.01,0.14,-0.02,86.66
5681,1643256741,0,-1.43,1.76,19.68,-0.005232413,-0.01312662,-0.2827029,-0.1262644,14.34257,0.5825175,0.3585367,0.01,0.14,-0.02,86.66
5726,1643267273,0,-1.43,1.75,19.68,-0.005338542,-0.01310949,-0.2819971,-0.1246435,14.34171,0.5822687,0.3570651,0.01,0.14,-0.02,86.66
5770,1643278202,0,-1.43,1.76,19.68,-0.005566277,-0.01298703,-0.28153,-0.1237652,14.34088,0.5820259,0.3555261,0.01,0.14,-0.02,86.66
5816,1643288935,0,-1.43,1.76,19.68,-0.005727416,-0.01291697,-0.2814989,-0.123293,14.34083,0.5818965,0.3527145,0.01,0.14,-0.02,86.66
5863,1643299270,0,-1.43,1.76,19.68,-0.005943749,-0.01273705,-0.2809219,-0.1245549,14.34004,0.5816727,0.351401,0.01,0.14,-0.02,86.66
5908,1643309287,0,-1.43,1.76,19.68,-0.006116031,-0.01249348,-0.2804276,-0.1267745,14.33928,0.5814550000000001,0.3500297,0.01,0.14,-0.02,86.66
5952,1643319325,0,-1.43,1.76,19.68,-0.006301831,-0.01249865,-0.2796912,-0.1301913,14.33856,0.5812442,0.3486025,0.01,0.14,-0.02,86.66
6002,1643328987,0,-1.43,1.76,19.69,-0.006710588,-0.01266001,-0.2794261,-0.134566,14.33787,0.5810359,0.3471204,0.01,0.14,-0.02,86.66
6046,1643340405,0,-1.43,1.76,19.7,-0.006374775,-0.01315954,-0.2791041,-0.1382047,14.3378,0.5808974,0.34405,0.01,0.14,-0.02,86.66
6089,1643351230,0,-1.42,1.76,19.7,-0.00658624,-0.01327909,-0.2784012,-0.1405319,14.33643,0.5807415,0.3433729,0.01,0.14,-0.02,86.66
6133,1643361242,0,-1.41,1.76,19.7,-0.007332186,-0.01253274,-0.2780024,-0.1398438,14.33513,0.5806014,0.3428762,0.01,0.14,-0.02,86.66
6178,1643371195,0,-1.42,1.76,19.7,-0.007793683,-0.01234984,-0.2770081,-0.1373119,14.33387,0.5804511999999999,0.3420687,0.01,0.14,-0.02,86.66
6225,1643384397,0,-1.43,1.77,19.7,-0.008432688000000001,-0.01276861,-0.2760951,-0.1311663,14.33265,0.5802801,0.3406145,0.01,0.14,-0.02,86.66
6270,1643394241,0,-1.43,1.77,19.69,-0.008211365999999999,-0.01338984,-0.2746752,-0.1260943,14.3315,0.5801486,0.3399071,0.01,0.14,-0.02,86.66
6314,1643404759,0,-1.43,1.77,19.68,-0.007910344999999999,-0.01358425,-0.2736491,-0.1211638,14.33041,0.5800205,0.3391187,0.01,0.14,-0.02,86.66
6359,1643415306,0,-1.43,1.76,19.67,-0.007838159000000001,-0.01305971,-0.2721265,-0.116881,14.32935,0.5798837,0.3379864,0.01,0.14,-0.02,86.66
6406,1643426307,0,-1.42,1.76,19.66,-0.00821479,-0.01264393,-0.2715214,-0.1135023,14.32834,0.5797496,0.3367758,0.01,0.14,-0.02,86.66
6453,1643436871,0,-1.42,1.76,19.66,-0.008981289999999999,-0.01109466,-0.2736871,-0.1127905,14.32826,0.5796346999999999,0.3340527,0.01,0.14,-0.02,86.66
6497,1643446775,0,-1.44,1.76,19.66,-0.009356988,-0.01076697,-0.2728229,-0.1115377,14.32729,0.5795126,0.333055,0.01,0.14,-0.02,86.66
6541,1643456927,0,-1.44,1.77,19.66,-0.009551876000000001,-0.01214235,-0.2724355,-0.1117489,14.32637,0.5793939,0.3319777,0.01,0.14,-0.02,86.66
6589,1643469946,0,-1.44,1.77,19.67,-0.009192339000000001,-0.01212159,-0.2715057,-0.1114537,14.32545,0.5792441,0.3301691,0.01,0.14,-0.02,86.66
6633,1643480418,0,-1.43,1.77,19.69,-0.01020315,-0.01212176,-0.2713061,-0.1130264,14.32458,0.5791243,0.3288353,0.01,0.14,-0.02,86.66
6678,1643490233,0,-1.43,1.76,19.7,-0.01044002,-0.01196186,-0.2696763,-0.1136468,14.32377,0.5790163,0.3277096,0.01,0.14,-0.02,86.66
6723,1643500387,0,-1.43,1.76,19.71,-0.01054428,-0.01195555,-0.2685064,-0.1161171,14.32298,0.5789043,0.3265287,0.01,0.14,-0.02,86.66
6768,1643510812,0,-1.43,1.77,19.71,-0.01054384,-0.01162321,-0.2695197,-0.119264,14.32287,0.5787864,0.3238393,0.01,0.14,-0.02,86.66
6813,1643521324,0,-1.43,1.77,19.72,-0.01105755,-0.01074445,-0.2689349,-0.122631,14.3221,0.5786635,0.3223349,0.01,0.14,-0.02,86.66
6861,1643531368,0,-1.43,1.77,19.71,-0.0110068,-0.01075883,-0.2681818,-0.1262237,14.32138,0.5785567,0.321051,0.01,0.14,-0.02,86.66
6908,1643541783,0,-1.42,1.76,19.71,-0.009920016,-0.01030702,-0.2663967,-0.1295556,14.32068,0.5784541,0.319716,0.01,0.14,-0.02,86.66
6953,1643557508,0,-1.42,1.76,19.69,-0.01189018,-0.01049834,-0.2676206,-0.1340831,14.31924,0.5782662,0.3180864,0.01,0.14,-0.02,86.66
6995,1643567606,0,-1.41,1.77,19.69,-0.01345472,-0.01231201,-0.2655189,-0.1288885,14.31789,0.5781389,0.3179424,0.01,0.14,-0.02,86.66
7043,1643580525,0,-1.41,1.77,19.68,-0.01084401,-0.01306911,-0.2648768,-0.1243614,14.31656,0.5779564,0.3169936,0.01,0.14,-0.02,86.66
7086,1643590567,0,-1.42,1.77,19.68,-0.009834343000000001,-0.01137046,-0.2657602,-0.1226131,14.31534,0.5778154,0.3167228,0.01,0.14,-0.02,86.66
7128,1643601186,0,-1.43,1.77,19.67,-0.01136442,-0.009621802,-0.2631216,-0.1139579,14.31415,0.5776852,0.3160891,0.01,0.14,-0.02,86.66
7172,1643611650,0,-1.41,1.76,19.67,-0.01271111,-0.009359812,-0.2611157,-0.1046805,14.31403,0.5775926,0.3134811,0.01,0.14,-0.02,86.66
7215,1643621628,0,-1.42,1.78,19.67,-0.01285476,-0.01005409,-0.2632747,-0.1019285,14.31288,0.5774797,0.3130465,0.01,0.14,-0.02,86.66
7261,1643631663,0,-1.42,1.78,19.69,-0.01144173,-0.01382449,-0.2608414,-0.09820714,14.31178,0.5773494,0.3125286,0.01,0.14,-0.02,86.66
7304,1643642421,0,-1.42,1.77,19.7,-0.01208279,-0.0138753,-0.2589149,-0.09540249000000001,14.31073,0.5771937,0.3117007,0.01,0.14,-0.02,86.66
7347,1643652851,0,-1.42,1.77,19.7,-0.01285027,-0.009582266000000001,-0.2614453,-0.0954554,14.3106,0.5770873,0.3090932,0.01,0.14,-0.02,86.66
7392,1643662739,0,-1.41,1.76,19.71,-0.01285981,-0.00585679,-0.2581643,-0.09164824000000001,14.30958,0.5770051,0.3084286,0.01,0.14,-0.02,86.66
7434,1643672721,0,-1.39,1.77,19.72,-0.01360984,-0.008042796,-0.2589101,-0.09241965000000001,14.3086,0.5769229,0.3076994,0.01,0.14,-0.02,86.66
7474,1643682974,0,-1.41,1.77,19.72,-0.01241062,-0.01331901,-0.2590992,-0.09403037,14.30765,0.5767954,0.3070606,0.01,0.14,-0.02,86.66
7516,1643693367,0,-1.42,1.78,19.73,-0.01259677,-0.01155418,-0.256086,-0.09283956,14.30674,0.5766423000000001,0.3060871,0.01,0.14,-0.02,86.66
7560,1643703627,0,-1.42,1.77,19.72,-0.01342665,-0.005989511,-0.2547606,-0.09145565,14.3066,0.5765515,0.3035319,0.01,0.14,-0.02,86.66
7603,1643713652,0,-1.39,1.77,19.72,-0.0148687,-0.003947668,-0.2562845,-0.09448672,14.30572,0.5765053999999999,0.302765,0.01,0.14,-0.02,86.66
7646,1643723652,0,-1.39,1.78,19.7,-0.01311531,-0.01302377,-0.2535347,-0.09354374999999999,14.30488,0.5764132,0.3019299,0.01,0.14,-0.02,86.66
7698,1643736131,0,-1.41,1.77,19.71,-0.01224474,-0.01254942,-0.2537994,-0.0962797,14.30405,0.5762229,0.3002588,0.01,0.14,-0.02,86.66
7742,1643749226,0,-1.4,1.75,19.68,-0.01612628,-0.006196523,-0.2533441,-0.0983849,14.30323,0.5760938,0.2985421,0.01,0.14,-0.02,86.66
7784,1643759735,0,-1.38,1.78,19.69,-0.01713378,-0.007479669,-0.252667,-0.09770965,14.30194,0.575969,0.2990635,0.01,0.14,-0.02,86.66
7830,1643770319,0,-1.38,1.76,19.66,-0.01311102,-0.01685902,-0.2506712,-0.09363858,14.30071,0.5757694,0.2994924,0.01,0.14,-0.02,86.66
7875,1643780243,0,-1.41,1.78,19.69,-0.01198473,-0.01349402,-0.2532341,-0.09100377,14.30058,0.5756137,0.2969579,0.01,0.14,-0.02,86.66
7922,1643790531,0,-1.41,1.75,19.68,-0.01725795,-0.006636062,-0.2499841,-0.08194754,14.29939,0.5754326,0.2971373,0.01,0.14,-0.02,86.66
7966,1643800399,0,-1.4,1.78,19.7,-0.01943053,-0.007037926,-0.2513837,-0.07561188000000001,14.29823,0.5753161,0.297408,0.01,0.14,-0.02,86.66
8011,1643810356,0,-1.39,1.76,19.68,-0.01503733,-0.01666299,-0.2474716,-0.06424352,14.29713,0.5751406999999999,0.2975931,0.01,0.14,-0.02,86.66
8055,1643820395,0,-1.42,1.79,19.71,-0.01449651,-0.01600974,-0.2489863,-0.05915849,14.29611,0.5749292,0.2976494,0.01,0.14,-0.02,86.66
8100,1643831314,0,-1.41,1.74,19.71,-0.01957003,-0.008621768,-0.2456386,-0.04943363,14.29512,0.5747665,0.2976291,0.01,0.14,-0.02,86.66
8150,1643841183,0,-1.39,1.8,19.72,-0.02094699,-0.006038149,-0.2482377,-0.04524666,14.29412,0.5746595,0.2974607,0.01,0.14,-0.02,86.66
8194,1643851183,0,-1.37,1.76,19.7,-0.01627772,-0.01084336,-0.2462433,-0.03900978,14.29319,0.5745293,0.2972381,0.01,0.14,-0.02,86.66
8240,1643861361,0,-1.4,1.79,19.72,-0.01395829,-0.01104507,-0.2437939,-0.03245455,14.29233,0.5743533,0.2966425,0.01,0.14,-0.02,86.66
8284,1643872142,0,-1.36,1.76,19.71,-0.02037147,-0.007605847,-0.2472828,-0.03278756,14.29216,0.5742615,0.2942229,0.01,0.14,-0.02,86.66
8330,1643881942,0,-1.37,1.78,19.71,-0.01847572,-0.007365745,-0.2414192,-0.02690852,14.29127,0.5741491,0.2939005,0.01,0.14,-0.02,86.66
8374,1643891932,0,-1.33,1.77,19.69,-0.01520671,-0.01046641,-0.246118,-0.03296528,14.29045,0.5740141,0.2935368,0.01,0.14,-0.02,86.66
8419,1643902274,0,-1.39,1.77,19.69,-0.01348046,-0.009838855000000001,-0.238686,-0.02907732,14.2897,0.5738708,0.2930618,0.01,0.14,-0.02,86.66
8464,1643912367,0,-1.35,1.78,19.69,-0.02119971,-0.01004422,-0.2442947,-0.03988769,14.28892,0.5737394,0.2922951,0.01,0.14,-0.02,86.66
8509,1643922559,0,-1.37,1.76,19.69,-0.01795866,-0.01040114,-0.2362749,-0.03539561,14.28871,0.5736535,0.2898701,0.01,0.14,-0.02,86.66
8554,1643932711,0,-1.35,1.79,19.68,-0.01615275,-0.01040287,-0.2435836,-0.04810024,14.28799,0.5735147,0.2892739,0.01,0.14,-0.02,86.66
8602,1643942716,0,-1.39,1.75,19.69,-0.0166038,-0.007259704,-0.2356003,-0.04587808,14.28731,0.5733903,0.2885957,0.01,0.14,-0.02,86.66
8646,1643953593,0,-1.37,1.79,19.7,-0.02202486,-0.00866345,-0.2420118,-0.05914523,14.28622,0.5731229,0.2886367,0.01,0.14,-0.02,86.66
8687,1643963934,0,-1.37,1.75,19.69,-0.01766661,-0.01124362,-0.2356184,-0.0538341,14.28524,0.572861,0.2890532,0.01,0.14,-0.02,86.66
8732,1643973942,0,-1.38,1.79,19.71,-0.01676863,-0.00826988,-0.2379008,-0.05543329,14.28431,0.5726093,0.2893342,0.01,0.14,-0.02,86.66
8778,1643984173,0,-1.37,1.74,19.71,-0.02078713,-0.006123083,-0.235983,-0.04878811,14.28414,0.5725435,0.2869917,0.01,0.14,-0.02,86.66
8819,1643994377,0,-1.37,1.79,19.72,-0.01836031,-0.009375873999999999,-0.235882,-0.04503587,14.28319,0.5723158,0.2870627,0.01,0.14,-0.02,86.66
8865,1644005282,0,-1.37,1.77,19.71,-0.01583504,-0.01071844,-0.2355921,-0.04024426,14.28234,0.5720664,0.2873011,0.01,0.14,-0.02,86.66
8909,1644014860,0,-1.4,1.76,19.72,-0.01493835,-0.007229058,-0.2322187,-0.03320355,14.28154,0.5718381,0.2874119,0.01,0.14,-0.02,86.66
8953,1644024841,0,-1.35,1.77,19.71,-0.02085623,-0.006126054,-0.2373274,-0.03692027,14.28074,0.5716507,0.2874371,0.01,0.14,-0.02,86.66
8999,1644035289,0,-1.38,1.75,19.72,-0.01694475,-0.01033752,-0.2318956,-0.03039073,14.28053,0.5715778,0.2850853,0.01,0.14,-0.02,86.66
9047,1644044909,0,-1.36,1.78,19.7,-0.01634688,-0.01128397,-0.2347275,-0.03414852,14.27977,0.5713412,0.2850353,0.01,0.14,-0.02,86.66
9093,1644054853,0,-1.4,1.75,19.72,-0.02028333,-0.008321423,-0.231416,-0.03216539,14.27906,0.5711283,0.2848938,0.01,0.14,-0.02,86.66
9137,1644065593,0,-1.36,1.78,19.7,-0.02406369,-0.007869146,-0.2336188,-0.03532373,14.27831,0.570927,0.2844126,0.01,0.14,-0.02,86.66
9182,1644075617,0,-1.39,1.77,19.7,-0.0202673,-0.01147596,-0.2283539,-0.03208966,14.27763,0.5707197000000001,0.2840861,0.01,0.14,-0.02,86.66
9226,1644085711,0,-1.37,1.77,19.7,-0.01813338,-0.01012899,-0.2276426,-0.03343613,14.277,0.5704989,0.2838942,0.01,0.14,-0.02,86.66
9271,1644095402,0,-1.39,1.77,19.71,-0.02285152,-0.007175211,-0.2281449,-0.03658742,14.27639,0.5703042,0.2836265,0.01,0.14,-0.02,86.66
9316,1644106249,0,-1.39,1.77,19.72,-0.01739856,-0.008667487999999999,-0.2277394,-0.03802449,14.27576,0.5701132,0.2830158,0.01,0.14,-0.02,86.66
9360,1644116792,0,-1.38,1.77,19.7,-0.01356405,-0.0126236,-0.2269918,-0.03830748,14.27558,0.569995,0.2807506,0.01,0.14,-0.02,86.66
9405,1644127147,0,-1.41,1.75,19.72,-0.0142953,-0.01083863,-0.2258127,-0.04040048,14.27504,0.5697854,0.2803051,0.01,0.14,-0.02,86.66
9450,1644137392,0,-1.38,1.76,19.72,-0.02263206,-0.009622408000000001,-0.2302097,-0.04980541,14.27447,0.5695949,0.2795671,0.01,0.14,-0.02,86.66
9499,1644147771,0,-1.42,1.75,19.73,-0.01890518,-0.01178824,-0.2258691,-0.0529339,14.27393,0.5694165,0.2789738,0.01,0.14,-0.02,86.66
9545,1644163824,0,-1.42,1.75,19.73,-0.01260703,-0.0093323,-0.2241791,-0.05670778,14.27296,0.5690514,0.2781022,0.01,0.14,-0.02,86.66
9588,1644173820,0,-1.39,1.75,19.72,-0.02000809,-0.008340419,-0.2257982,-0.06011351,14.27208,0.5687844,0.2784964,0.01,0.14,-0.02,86.66
9631,1644184255,0,-1.41,1.74,19.73,-0.01834801,-0.01033331,-0.2227845,-0.05730654,14.27121,0.5685154,0.2787195,0.01,0.14,-0.02,86.66
9673,1644195266,0,-1.39,1.78,19.71,-0.01758007,-0.009889517,-0.2260977,-0.05705735,14.27042,0.5682352000000001,0.2788424,0.01,0.14,-0.02,86.66
9718,1644205881,0,-1.42,1.74,19.72,-0.02120109,-0.006584371,-0.2207652,-0.04578016,14.27027,0.5681564,0.2766299,0.01,0.14,-0.02,86.66
9760,1644215700,0,-1.37,1.79,19.71,-0.02428351,-0.006786402,-0.2268411,-0.04800044,14.26948,0.5679246,0.2768691,0.01,0.14,-0.02,86.66
9803,1644225711,0,-1.38,1.75,19.71,-0.01767356,-0.007817815000000001,-0.2195968,-0.03743552,14.26875,0.5676861,0.2770211,0.01,0.14,-0.02,86.66
9846,1644235729,0,-1.36,1.78,19.7,-0.0155496,-0.006783386,-0.222643,-0.03912133,14.26808,0.5674420999999999,0.2770642,0.01,0.14,-0.02,86.66
9891,1644246329,0,-1.36,1.74,19.7,-0.0198769,-0.007854343999999999,-0.2193597,-0.03551718,14.2674,0.5672118,0.2768273,0.01,0.14,-0.02,86.66
9935,1644257293,0,-1.36,1.77,19.71,-0.01774845,-0.01127466,-0.2186317,-0.03309341,14.26718,0.5671195,0.2745993,0.01,0.14,-0.02,86.66
9978,1644267327,0,-1.35,1.76,19.7,-0.01375992,-0.01458851,-0.2185886,-0.03372348,14.26653,0.5668565,0.2742716,0.01,0.14,-0.02,86.66
10021,1644277301,0,-1.38,1.74,19.71,-0.01465374,-0.01100866,-0.2152275,-0.03234113,14.26593,0.5666227,0.2740617,0.01,0.14,-0.02,86.66
10065,1644287420,0,-1.35,1.76,19.71,-0.02219496,-0.01121583,-0.2209877,-0.04029103,14.26531,0.5664150999999999,0.2740297,0.01,0.14,-0.02,86.66
10108,1644298341,0,-1.4,1.73,19.72,-0.02057265,-0.01320821,-0.2176329,-0.03774564,14.2647,0.5661736000000001,0.2736721,0.01,0.14,-0.02,86.66
10151,1644308393,0,-1.39,1.78,19.72,-0.02017246,-0.01231199,-0.2196691,-0.0424054,14.26416,0.565928,0.2734608,0.01,0.14,-0.02,86.66
10195,1644319261,0,-1.43,1.73,19.73,-0.02457964,-0.008289058,-0.217449,-0.04083581,14.26399,0.565823,0.2713073,0.01,0.14,-0.02,86.66
10238,1644329343,0,-1.38,1.8,19.74,-0.02534303,-0.007295989,-0.2194655,-0.04558264,14.2634,0.5656139,0.2707885,0.01,0.14,-0.02,86.66
10282,1644339334,0,-1.4,1.76,19.73,-0.01856402,-0.009598654999999999,-0.2154215,-0.04508532,14.26289,0.5653956999999999,0.2704373,0.01,0.14,-0.02,86.66
10326,1644353785,0,-1.43,1.72,19.73,-0.01473377,-0.01205471,-0.2107606,-0.04203861,14.26219,0.5649343,0.26995,0.01,0.14,-0.02,86.66
10370,1644364222,0,-1.38,1.78,19.72,-0.02493916,-0.009192252999999999,-0.2197616,-0.0489669,14.26151,0.5645488,0.2699874,0.01,0.14,-0.02,86.66
10415,1644374488,0,-1.43,1.74,19.72,-0.02059787,-0.009983671,-0.2148075,-0.0409898,14.26091,0.5641686,0.2701339,0.01,0.14,-0.02,86.66
10461,1644384391,0,-1.39,1.78,19.71,-0.01800627,-0.00774989,-0.2182084,-0.04207123,14.26036,0.5637873,0.2701884,0.01,0.14,-0.02,86.66
10505,1644395181,0,-1.4,1.75,19.71,-0.02004166,-0.003253397,-0.2140446,-0.03673976,14.25983,0.5634336,0.270127,0.01,0.14,-0.02,86.66
10550,1644405202,0,-1.36,1.78,19.71,-0.01718332,-0.00600075,-0.2135546,-0.03687257,14.2593,0.5631058,0.2701544,0.01,0.14,-0.02,86.66
10594,1644415837,0,-1.35,1.77,19.7,-0.01156661,-0.008599114999999999,-0.2098985,-0.03148723,14.25915,0.5630034,0.2680466,0.01,0.14,-0.02,86.66
10639,1644426267,0,-1.36,1.76,19.71,-0.009830960999999999,-0.007742858,-0.2094665,-0.03131183,14.25871,0.5626596,0.2680177,0.01,0.14,-0.02,86.66
10684,1644436214,0,-1.34,1.75,19.71,-0.01495996,-0.01172912,-0.2097417,-0.03313019,14.25825,0.5623332,0.2677013,0.01,0.14,-0.02,86.66
10729,1644446223,0,-1.37,1.74,19.71,-0.01100621,-0.01583907,-0.2074833,-0.03551031,14.25781,0.5620107,0.2674889,0.01,0.14,-0.02,86.66
10778,1644457129,0,-1.36,1.76,19.71,-0.009160702999999999,-0.0159413,-0.2069906,-0.03710355,14.2577,0.5618902,0.2654066,0.01,0.14,-0.02,86.66
10823,1644467525,0,-1.43,1.74,19.71,-0.01520698,-0.01162127,-0.2076826,-0.04152388,14.25731,0.561561,0.2649332,0.01,0.14,-0.02,86.66
10868,1644477896,0,-1.37,1.77,19.72,-0.02049372,-0.008908443,-0.2145215,-0.05101391,14.25691,0.5612773,0.264581,0.01,0.14,-0.02,86.66
10912,1644487768,0,-1.42,1.73,19.71,-0.01484148,-0.009591341,-0.2089176,-0.05073379,14.25654,0.5609793,0.2641526,0.01,0.14,-0.02,86.66
10957,1644497832,0,-1.39,1.77,19.72,-0.01474931,-0.007323821,-0.2122981,-0.05889432,14.25644,0.5608726000000001,0.2620839,0.01,0.14,-0.02,86.66
11002,1644507793,0,-1.42,1.72,19.71,-0.018173,-0.004006034,-0.2084467,-0.05959635,14.2561,0.5605925,0.2619046,0.01,0.14,-0.02,86.66
11046,1644517895,0,-1.36,1.78,19.72,-0.01839854,-0.005117103,-0.2123891,-0.06703465,14.25573,0.560331,0.2616162,0.01,0.14,-0.02,86.66
11092,1644527766,0,-1.39,1.74,19.71,-0.0120328,-0.007760325,-0.2052294,-0.06367344,14.25542,0.5600495,0.2612727,0.01,0.14,-0.02,86.66
11137,1644538663,0,-1.36,1.75,19.72,-0.009029987999999999,-0.008922385,-0.204365,-0.06674671,14.25513,0.5597736,0.2606393,0.01,0.14,-0.02,86.66
11184,1644552356,0,-1.36,1.79,19.71,-0.02139871,-0.01010946,-0.2106377,-0.07396793,14.25473,0.5593289,0.2603891,0.01,0.14,-0.02,86.66
11229,1644563099,0,-1.4,1.74,19.7,-0.01532516,-0.01098139,-0.2050801,-0.06574057,14.25444,0.5589215,0.2608266,0.01,0.14,-0.02,86.66
11274,1644572827,0,-1.37,1.8,19.7,-0.01476391,-0.008258401,-0.2089315,-0.06586277,14.2542,0.5585213,0.2611699,0.01,0.14,-0.02,86.66
11320,1644583432,0,-1.4,1.74,19.71,-0.01625758,-0.004391911,-0.2040139,-0.05440401,14.25396,0.5581458,0.2612021,0.01,0.14,-0.02,86.66
11364,1644593921,0,-1.35,1.78,19.71,-0.0130852,-0.007733322,-0.2067089,-0.04984508,14.25381,0.5580514,0.2591423,0.01,0.14,-0.02,86.66
11412,1644607292,0,-1.37,1.76,19.71,-0.005994017,-0.01433351,-0.2023998,-0.03944536,14.25353,0.5573663,0.2610664,0.01,0.14,-0.02,86.66
11458,1644618287,0,-1.44,1.69,19.71,-0.009982433000000001,-0.01116922,-0.2012996,-0.03144923,14.25345,0.5572572,0.259044,0.01,0.14,-0.02,86.66
11503,1644628332,0,-1.4,1.76,19.72,-0.01479864,-0.01112207,-0.2060539,-0.03200617,14.25326,0.5569185,0.2592369,0.01,0.14,-0.02,86.66
11548,1644638682,0,-1.44,1.71,19.71,-0.008705764,-0.01114851,-0.2023928,-0.02398112,14.25312,0.5565538,0.2591309,0.01,0.14,-0.02,86.66
11593,1644649201,0,-1.41,1.77,19.72,-0.008430531,-0.009204632000000001,-0.2031573,-0.02236711,14.25302,0.5562105000000001,0.2591405,0.01,0.14,-0.02,86.66
11638,1644659221,0,-1.43,1.72,19.72,-0.0117584,-0.00555467,-0.201115,-0.02035756,14.25293,0.555898,0.2590688,0.01,0.14,-0.02,86.66
11687,1644669307,0,-1.38,1.78,19.72,-0.007196365,-0.009137426000000001,-0.2007125,-0.02152839,14.25279,0.5555962,0.2586847,0.01,0.14,-0.02,86.66
11732,1644679326,0,-1.39,1.77,19.72,-0.003461953,-0.0104885,-0.1991989,-0.02067541,14.25273,0.5554833,0.2566961,0.01,0.14,-0.02,86.66
11777,1644689352,0,-1.39,1.75,19.71,-0.002813237,-0.009251756999999999,-0.1976411,-0.02112374,14.25268,0.5551867,0.2564525,0.01,0.14,-0.02,86.66
11821,1644699887,0,-1.36,1.77,19.72,-0.008856641,-0.00904335,-0.1986675,-0.02443628,14.25261,0.5549194,0.2561366,0.01,0.14,-0.02,86.66
11863,1644710329,0,-1.37,1.72,19.71,-0.001271654,-0.01240353,-0.197269,-0.02614462,14.25254,0.5546335999999999,0.2556854,0.01,0.14,-0.02,86.66
11908,1644720571,0,-1.35,1.78,19.71,-0.002667146,-0.01060024,-0.1997548,-0.03133908,14.25254,0.5543496999999999,0.255373,0.01,0.14,-0.02,86.66
11954,1644730670,0,-1.4,1.69,19.71,-0.004391718,-0.008810448,-0.1947474,-0.03055927,14.25254,0.5540888,0.2549903,0.01,0.14,-0.02,86.66
11998,1644740742,0,-1.34,1.79,19.72,-0.01117643,-0.009649319999999999,-0.2026146,-0.04279994,14.25244,0.5540003,0.2530121,0.01,0.14,-0.02,86.66
12044,1644751237,0,-1.39,1.69,19.71,-0.003068996,-0.01199158,-0.1963537,-0.04193552,14.25243,0.553724,0.2525649,0.01,0.14,-0.02,86.66
12087,1644761561,0,-1.36,1.77,19.72,-0.005763498,-0.01201039,-0.1978845,-0.04814476,14.25244,0.5534301,0.2518507,0.01,0.14,-0.02,86.66
12132,1644772211,0,-1.39,1.72,19.72,-0.01128329,-0.008606259999999999,-0.1967756,-0.05075634,14.2519,0.5529669,0.2520132,0.01,0.14,-0.02,86.66
12176,1644782512,0,-1.4,1.75,19.72,-0.006463639,-0.01235456,-0.1946833,-0.04968943,14.25132,0.5525113,0.2518391,0.01,0.14,-0.02,86.66
12220,1644792788,0,-1.41,1.79,19.72,-0.003186102,-0.01338591,-0.1948385,-0.05120469,14.25085,0.5520602,0.2518203,0.01,0.14,-0.02,86.66
12263,1644802782,0,-1.44,1.73,19.72,-0.0007899378000000001,-0.01112311,-0.1897002,-0.04711289,14.2504,0.5516372,0.2519651,0.01,0.14,-0.02,86.66
12305,1644813328,0,-1.39,1.81,19.73,-0.008842943000000001,-0.009834506999999999,-0.1985497,-0.05428239,14.24993,0.5512403,0.251821,0.01,0.14,-0.02,86.66
12348,1644823948,0,-1.44,1.71,19.72,-0.001218221,-0.01121534,-0.1931586,-0.04568357,14.24986,0.5511317,0.2498691,0.01,0.14,-0.02,86.66
12394,1644836568,0,-1.41,1.79,19.72,-0.00669872,-0.01127788,-0.1957474,-0.04696345,14.24946,0.5506947,0.2492523,0.01,0.14,-0.02,86.66
12436,1644846777,0,-1.42,1.76,19.73,-0.01112194,-0.008336168,-0.1929015,-0.04360081,14.24908,0.55033,0.2491617,0.01,0.14,-0.02,86.66
12481,1644857143,0,-1.4,1.78,19.73,-0.003942356,-0.01057913,-0.1919051,-0.04245238,14.24867,0.5499653,0.2487558,0.01,0.14,-0.02,86.66
12523,1644867089,0,-1.41,1.78,19.72,-0.0009022621,-0.01147704,-0.1926739,-0.04457833,14.24834,0.5495944,0.2485131,0.01,0.14,-0.02,86.66
12570,1644877363,0,-1.42,1.71,19.72,0.003761153,-0.008641724,-0.1883284,-0.04341287,14.24805,0.549224,0.2479947,0.01,0.14,-0.02,86.66
12612,1644888282,0,-1.37,1.78,19.73,-0.003571742,-0.01016112,-0.1938927,-0.05054766,14.24799,0.5491209,0.2460831,0.01,0.14,-0.02,86.66
12654,1644898293,0,-1.4,1.7,19.72,0.002920501,-0.01307013,-0.1895406,-0.04904902,14.24768,0.5487607,0.2456791,0.01,0.14,-0.02,86.66
12698,1644908178,0,-1.38,1.77,19.72,0.001787831,-0.01471452,-0.1925031,-0.0570258,14.24743,0.5483941,0.2452365,0.01,0.14,-0.02,86.66
12743,1644920797,0,-1.43,1.75,19.72,-0.01023572,-0.01263591,-0.1922383,-0.06131815,14.24718,0.5480072,0.2444484,0.01,0.14,-0.02,86.66
12786,1644930964,0,-1.41,1.78,19.72,-0.004616624,-0.01473776,-0.1911031,-0.06245549,14.24691,0.5476742999999999,0.2441144,0.01,0.14,-0.02,86.66
12834,1644943737,0,-1.41,1.8,19.73,0.005552458,-0.01274886,-0.1915728,-0.06443570999999999,14.24671,0.5472872,0.2431628,0.01,0.14,-0.02,86.66
12874,1644957402,0,-1.45,1.75,19.73,-0.009313244,-0.01353936,-0.1901438,-0.06479,14.2457,0.5467128999999999,0.2428134,0.01,0.14,-0.02,86.66
12918,1644968257,0,-1.41,1.77,19.73,-0.006688461,-0.01372871,-0.1910437,-0.06405606,14.24467,0.5462201,0.2430919,0.01,0.14,-0.02,86.66
12967,1644978254,0,-1.44,1.77,19.74,-0.001960782,-0.01309445,-0.1879691,-0.05838956,14.24373,0.5457271,0.2433048,0.01,0.14,-0.02,86.66
13012,1644988807,0,-1.43,1.71,19.73,0.004419542,-0.007728184,-0.185499,-0.05029394,14.24373,0.5455869,0.2412365,0.01,0.14,-0.02,86.66
13057,1644998754,0,-1.39,1.76,19.74,-0.005839836,-0.007752336,-0.1902505,-0.05200348,14.2428,0.5451443,0.2413777,0.01,0.14,-0.02,86.66
13102,1645009283,0,-1.4,1.69,19.72,-0.0009571018,-0.01043839,-0.1853007,-0.04422339,14.24188,0.5447005,0.2414026,0.01,0.14,-0.02,86.66
13146,1645019245,0,-1.36,1.76,19.72,-0.002278434,-0.01495761,-0.1868637,-0.04191221,14.24104,0.5442401,0.2413471,0.01,0.14,-0.02,86.66
13190,1645029229,0,-1.4,1.69,19.72,-0.002508379,-0.0115764,-0.1822145,-0.03516522,14.24026,0.5438283,0.2415801,0.01,0.14,-0.02,86.66
13234,1645039193,0,-1.34,1.77,19.72,-0.01331773,-0.01470118,-0.1899416,-0.04110637,14.23943,0.5434189,0.2413334,0.01,0.14,-0.02,86.66
13279,1645049362,0,-1.38,1.72,19.71,-0.007466346,-0.01728055,-0.1835955,-0.03223909,14.23936,0.5432847,0.2394767,0.01,0.14,-0.02,86.66
13324,1645059337,0,-1.36,1.78,19.72,-0.003739706,-0.01747613,-0.1854822,-0.03293677,14.23862,0.5428576000000001,0.2393481,0.01,0.14,-0.02,86.66
13368,1645069533,0,-1.4,1.74,19.72,-0.008647442,-0.01405491,-0.1835759,-0.03152301,14.23791,0.5424526,0.2391697,0.01,0.14,-0.02,86.66
13417,1645079558,0,-1.38,1.79,19.72,-0.009824752000000001,-0.01582856,-0.1852843,-0.03445205,14.23717,0.5420606,0.2388811,0.01,0.14,-0.02,86.66
13461,1645090412,0,-1.41,1.77,19.72,-0.004906137,-0.01635226,-0.1832218,-0.03376503,14.2365,0.5416574,0.2385536,0.01,0.14,-0.02,86.66
13506,1645100328,0,-1.41,1.76,19.73,0.0008736197,-0.01370865,-0.1817015,-0.03458889,14.23589,0.5412666,0.2381399,0.01,0.14,-0.02,86.66
13563,1645167737,0,-1.38,1.77,19.74,-0.003040315,-0.01228827,-0.1840384,-0.04605656,14.23283,0.5390584,0.2342845,0.01,0.15,-0.02,86.66
13608,1645177681,0,-1.4,1.68,19.73,-0.002433096,-0.01013279,-0.1807525,-0.04029412,14.23218,0.5385569,0.2347522,0.01,0.15,-0.02,86.66
13656,1645188400,0,-1.34,1.77,19.74,-0.01178066,-0.01288956,-0.1830956,-0.03978279,14.2315,0.5380857,0.2349197,0.01,0.15,-0.02,86.66
13704,1645200802,0,-1.36,1.74,19.72,-0.003740476,-0.01878048,-0.1791358,-0.03473177,14.23084,0.537584,0.2348539,0.01,0.14,-0.02,86.66
13749,1645210744,0,-1.38,1.74,19.74,0.003881691,-0.01742168,-0.1730428,-0.02765206,14.23027,0.5371142,0.2350546,0.01,0.14,-0.02,86.66
13796,1645223829,0,-1.36,1.76,19.73,-0.009051468,-0.009691577999999999,-0.1806225,-0.0307708,14.22971,0.536644,0.2349311,0.01,0.14,-0.02,86.66
13841,1645234276,0,-1.34,1.69,19.72,-0.007848841,-0.01584358,-0.1771324,-0.02474062,14.22914,0.5362133,0.2350724,0.01,0.14,-0.02,86.66
13887,1645244411,0,-1.34,1.78,19.74,-0.003569986,-0.01602804,-0.1774115,-0.02093444,14.2291,0.5360477,0.2332964,0.01,0.14,-0.02,86.66
13932,1645254503,0,-1.38,1.7,19.73,-0.004737504,-0.01687399,-0.1763447,-0.01923535,14.22862,0.5356098,0.2335635,0.01,0.14,-0.02,86.66
13977,1645264919,0,-1.38,1.76,19.76,-0.008626767,-0.01785211,-0.1744989,-0.01772812,14.2281,0.5351977,0.2337121,0.01,0.14,-0.02,86.66
14023,1645275328,0,-1.4,1.74,19.74,-0.004545091,-0.0201001,-0.1759036,-0.01993965,14.2276,0.5347598,0.233615,0.01,0.14,-0.02,86.66
14072,1645285878,0,-1.43,1.74,19.76,0.001006215,-0.01673969,-0.170035,-0.01331423,14.22756,0.5345865,0.2318685,0.01,0.14,-0.02,86.66
14117,1645296319,0,-1.43,1.77,19.75,-0.007845791,-0.01169482,-0.17865,-0.02289195,14.22711,0.5341773,0.2316969,0.01,0.14,-0.02,86.66
14162,1645306280,0,-1.42,1.72,19.75,-0.008509676000000001,-0.01313361,-0.175199,-0.02128609,14.22663,0.5338029,0.2316185,0.01,0.14,-0.02,86.66
14207,1645316285,0,-1.42,1.8,19.75,-0.007029692,-0.01408264,-0.1782787,-0.02655133,14.2262,0.5334062000000001,0.2314485,0.01,0.14,-0.02,86.66
14251,1645327188,0,-1.41,1.71,19.74,-0.004158216,-0.01301232,-0.1749868,-0.02511195,14.22584,0.5330338999999999,0.2314495,0.01,0.14,-0.02,86.66
14296,1645337320,0,-1.39,1.79,19.75,-0.01094562,-0.009534795,-0.1766803,-0.02841141,14.22577,0.5328986999999999,0.2296907,0.01,0.14,-0.02,86.66
14340,1645347527,0,-1.36,1.72,19.73,-0.0066892,-0.0171062,-0.1752208,-0.02976377,14.22536,0.5325421,0.2294385,0.01,0.14,-0.02,86.66
14389,1645360393,0,-1.38,1.76,19.75,-9.251782e-05,-0.01686515,-0.1661846,-0.02455732,14.225,0.532128,0.2287674,0.01,0.14,-0.02,86.66
14429,1645370718,0,-1.37,1.76,19.74,-0.006986138,-0.01495074,-0.1760093,-0.03561046,14.22438,0.5316156,0.22955,0.01,0.14,-0.02,86.66
14471,1645380797,0,-1.36,1.74,19.75,-0.006746612,-0.0158049,-0.1697277,-0.02914889,14.22375,0.5311294,0.230219,0.01,0.14,-0.02,86.66
14520,1645390728,0,-1.36,1.78,19.74,-0.003716078,-0.01837516,-0.1756593,-0.03323266,14.22318,0.5306171,0.230764,0.01,0.14,-0.02,86.66
14562,1645401349,0,-1.38,1.71,19.75,-0.0006502444,-0.01709067,-0.1697143,-0.02240304,14.22268,0.5301049,0.2310685,0.01,0.14,-0.02,86.66
14607,1645411683,0,-1.37,1.79,19.76,-0.00673263,-0.01316767,-0.1749211,-0.02155139,14.22265,0.5299397,0.2293346,0.01,0.14,-0.02,86.66
14649,1645421722,0,-1.37,1.72,19.75,-0.003185171,-0.01689186,-0.1717201,-0.01450547,14.22213,0.5294791,0.2297062,0.01,0.14,-0.02,86.66
14690,1645432205,0,-1.4,1.8,19.77,0.001973242,-0.01748237,-0.1700686,-0.009153349,14.22169,0.5290058,0.2302609,0.01,0.14,-0.02,86.66
14732,1645442289,0,-1.41,1.71,19.75,0.0004631297,-0.0165391,-0.1700906,-0.004865985,14.2213,0.5285615,0.2307646,0.01,0.14,-0.02,86.66
14774,1645452159,0,-1.41,1.78,19.77,-0.005233256,-0.01426787,-0.16789,0.0007257778,14.22089,0.5281477,0.23113,0.01,0.14,-0.02,86.66
14817,1645462183,0,-1.41,1.73,19.75,-0.000486739,-0.01758406,-0.1692566,0.00158555,14.22049,0.5277388,0.2314227,0.01,0.14,-0.02,86.66
14859,1645472380,0,-1.43,1.76,19.77,0.006182429,-0.01451679,-0.1617035,0.01197371,14.22016,0.5273203,0.2314489,0.01,0.14,-0.02,86.66
14902,1645482950,0,-1.42,1.73,19.75,-0.0003630909,-0.01408193,-0.1695244,0.006732556,14.22018,0.527176,0.2297797,0.01,0.14,-0.02,86.66
14950,1645493202,0,-1.4,1.74,19.77,-0.003814623,-0.01458406,-0.1646365,0.01155555,14.21981,0.5268193,0.22989,0.01,0.14,-0.02,86.66
14993,1645503380,0,-1.39,1.75,19.75,0.0001696909,-0.0172266,-0.1694796,0.003272268,14.21947,0.5264203,0.2297504,0.01,0.14,-0.02,86.66
15036,1645513284,0,-1.38,1.71,19.76,0.002178112,-0.01584365,-0.1647063,0.003409751,14.21921,0.5260562,0.2297429,0.01,0.14,-0.02,86.66
15078,1645523373,0,-1.37,1.75,19.75,-0.006331754,-0.0131241,-0.1698295,-0.004596842,14.21919,0.5259078,0.2280572,0.01,0.14,-0.02,86.66
15121,1645533693,0,-1.35,1.72,19.76,-0.006457166,-0.01785222,-0.1678121,-0.005198644,14.21885,0.5255586,0.2282743,0.01,0.14,-0.02,86.66
15163,1645543679,0,-1.36,1.78,19.76,-0.000978994,-0.0179766,-0.1662685,-0.005394554,14.21857,0.5251749,0.228378,0.01,0.14,-0.02,86.66
15206,1645553685,0,-1.35,1.72,19.76,-0.0014894,-0.01726925,-0.1659436,-0.007133919,14.21835,0.5248113,0.2284481,0.01,0.14,-0.02,86.66
15248,1645567348,0,-1.35,1.75,19.78,-0.005750718,-0.01909558,-0.1609681,-0.003370083,14.21729,0.5241761,0.228776,0.01,0.14,-0.02,86.66
15293,1645577282,0,-1.35,1.76,19.76,-0.001661529,-0.02388811,-0.16431,-0.006809493,14.2163,0.5236083,0.2298067,0.01,0.14,-0.02,86.66
15338,1645587218,0,-1.38,1.75,19.78,0.003214275,-0.02168156,-0.1579138,0.001214569,14.21539,0.5230339000000001,0.2305926,0.01,0.14,-0.02,86.66
15386,1645597550,0,-1.4,1.76,19.76,-0.005232697,-0.01931476,-0.1637397,-2.923436e-06,14.21452,0.5224656,0.2310756,0.01,0.14,-0.02,86.66
15432,1645608167,0,-1.4,1.74,19.77,-0.007270128,-0.0217331,-0.1638613,0.005596062,14.21445,0.5222831,0.2294576,0.01,0.14,-0.02,86.66
15476,1645618302,0,-1.42,1.77,19.77,-0.003343993,-0.02197361,-0.1640491,0.008773672999999999,14.21359,0.52174,0.2299891,0.01,0.14,-0.02,86.66
15522,1645627959,0,-1.44,1.72,19.77,-0.004382757,-0.02155489,-0.1624541,0.01344061,14.21281,0.5212305,0.2307585,0.01,0.14,-0.02,86.66
15569,1645641151,0,-1.44,1.77,19.78,-0.006389018,-0.01409559,-0.1600947,0.02088952,14.212,0.5207046,0.2308895,0.01,0.14,-0.02,86.66
15614,1645651301,0,-1.41,1.76,19.75,-0.001387406,-0.01651541,-0.1631474,0.01977778,14.21123,0.5202375,0.2314258,0.01,0.14,-0.02,86.66
15659,1645661234,0,-1.41,1.75,19.77,0.004274643,-0.01248716,-0.1541057,0.02980923,14.21054,0.519792,0.231886,0.01,0.14,-0.02,86.66
15703,1645671223,0,-1.38,1.75,19.74,-0.0005134263,-0.0140215,-0.1595355,0.02614224,14.20988,0.5193751,0.2322419,0.01,0.14,-0.02,86.66
15748,1645681236,0,-1.35,1.76,19.76,-0.004669514,-0.01590264,-0.1576796,0.02805262,14.2092,0.5189791,0.2325132,0.01,0.14,-0.02,86.66
15798,1645691510,0,-1.37,1.78,19.75,-0.00135121,-0.02114105,-0.157526,0.02819571,14.20858,0.5185308,0.2325218,0.01,0.15,-0.02,86.66
15842,1645702215,0,-1.36,1.75,19.75,-0.0004009085,-0.02023485,-0.1570223,0.0284821,14.20858,0.518355,0.2309641,0.01,0.15,-0.02,86.66
15887,1645712560,0,-1.36,1.79,19.76,-0.00762472,-0.01580948,-0.1595296,0.02288767,14.208,0.5179414,0.2308899,0.01,0.15,-0.02,86.66
15932,1645722762,0,-1.35,1.75,19.76,-0.003475991,-0.02155669,-0.1599737,0.01924861,14.20743,0.5175357,0.2309116,0.01,0.15,-0.02,86.66
15978,1645732858,0,-1.39,1.78,19.78,0.003224044,-0.01953988,-0.1548411,0.02058832,14.20693,0.5171017999999999,0.2310835,0.01,0.15,-0.02,86.66
16024,1645743102,0,-1.37,1.73,19.76,-0.0004959433,-0.01705762,-0.1594188,0.01105338,14.20647,0.5166975,0.2312108,0.01,0.15,-0.02,86.66
16063,1645754406,0,-1.38,1.75,19.78,-0.006406852,-0.01806663,-0.1553761,0.01144302,14.20528,0.5160102,0.231572,0.01,0.15,-0.02,86.66
16108,1645764329,0,-1.4,1.74,19.77,-0.001822984,-0.02367576,-0.1565474,0.007037559,14.20415,0.5153387,0.2321603,0.01,0.15,-0.02,86.66
16155,1645775215,0,-1.42,1.72,19.78,-0.0003262925,-0.02497379,-0.1493265,0.01370083,14.20311,0.5146631,0.2325148,0.01,0.15,-0.02,86.66
16200,1645785526,0,-1.43,1.76,19.78,-0.008321146999999999,-0.02148859,-0.1527596,0.01136472,14.20306,0.5144328,0.2308193,0.01,0.15,-0.02,86.66
16250,1645796149,0,-1.41,1.73,19.77,-0.008777023,-0.02468117,-0.15363,0.009528995,14.20197,0.5138309,0.2312403,0.01,0.15,-0.02,86.66
16295,1645806204,0,-1.45,1.78,19.78,-0.003148141,-0.0219567,-0.1507443,0.0105422,14.20095,0.5131934,0.2314009,0.01,0.15,-0.02,86.66
16339,1645816272,0,-1.44,1.74,19.76,-0.008681238000000001,-0.02045081,-0.1566916,0.002626208,14.20001,0.5126136,0.2316493,0.01,0.15,-0.02,86.66
16386,1645826814,0,-1.44,1.76,19.77,-0.01465786,-0.01884262,-0.1508564,0.0068445,14.19903,0.5120637,0.2317962,0.01,0.15,-0.02,86.66
16436,1645842285,0,-1.4,1.78,19.78,-0.004728019,-0.02369978,-0.1487436,0.007135477,14.19804,0.5113844,0.2310736,0.01,0.15,-0.02,86.66
16480,1645852270,0,-1.39,1.72,19.76,-0.006879035,-0.02222372,-0.1516458,0.002817798,14.19719,0.5108537,0.2312373,0.01,0.15,-0.02,86.66
16525,1645862174,0,-1.39,1.77,19.78,-0.01409565,-0.02140625,-0.1480704,0.004247611,14.19633,0.5103455,0.2312814,0.01,0.15,-0.02,86.66
16570,1645872297,0,-1.35,1.73,19.77,-0.01135351,-0.02569597,-0.1504524,-0.001294672,14.19548,0.5098539,0.231435,0.01,0.15,-0.02,86.66
16614,1645882691,0,-1.39,1.77,19.79,-0.005965982,-0.02125621,-0.1453422,0.001128826,14.1947,0.5093014,0.2312068,0.01,0.15,-0.02,86.66
16660,1645893324,0,-1.36,1.75,19.77,-0.01269846,-0.0198655,-0.1537447,-0.01027945,14.19397,0.5087845,0.2309343,0.01,0.15,-0.02,86.66
16708,1645903616,0,-1.37,1.76,19.78,-0.01627865,-0.02053335,-0.1480423,-0.007099857,14.19385,0.5085731,0.2294485,0.01,0.15,-0.02,86.66
16753,1645913559,0,-1.35,1.78,19.77,-0.01159102,-0.02557848,-0.1533584,-0.01657798,14.19311,0.5080601,0.2292342,0.01,0.15,-0.02,86.66
16797,1645923493,0,-1.37,1.75,19.78,-0.004825938,-0.02275888,-0.145891,-0.01380634,14.19245,0.50756,0.228984,0.01,0.15,-0.02,86.66
16843,1645934218,0,-1.37,1.78,19.78,-0.008966384000000001,-0.02266548,-0.1494042,-0.02184604,14.1918,0.5070668,0.2287022,0.01,0.15,-0.02,86.66
16889,1645944730,0,-1.36,1.74,19.78,-0.008175816000000001,-0.02597824,-0.1467923,-0.02337721,14.19114,0.5066109,0.228528,0.01,0.15,-0.02,86.66
16932,1645955406,0,-1.42,1.78,19.79,-0.002552279,-0.02752644,-0.1427932,-0.02244134,14.19017,0.5060005,0.2287239,0.01,0.15,-0.02,86.66
16974,1645966271,0,-1.41,1.74,19.77,-0.008742346,-0.02231441,-0.1487246,-0.02878225,14.18929,0.5054341999999999,0.2288865,0.01,0.15,-0.02,86.66
17017,1645976318,0,-1.44,1.76,19.78,-0.015153,-0.02023986,-0.1435724,-0.02460531,14.1884,0.5049284000000001,0.2290907,0.01,0.15,-0.02,86.66
17060,1645987105,0,-1.4,1.75,19.78,-0.01321762,-0.02257208,-0.1508971,-0.03064321,14.18828,0.5047064,0.2276319,0.01,0.15,-0.02,86.66
17102,1645997063,0,-1.43,1.75,19.79,-0.007339006,-0.01798597,-0.1416537,-0.0212837,14.18745,0.5041901,0.2277893,0.01,0.15,-0.02,86.66
17149,1646007257,0,-1.41,1.77,19.78,-0.01292079,-0.01763286,-0.1498512,-0.02955052,14.18666,0.5037022,0.2278674,0.01,0.15,-0.02,86.66
17191,1646017097,0,-1.4,1.73,19.79,-0.01534498,-0.01904916,-0.1445994,-0.02543555,14.18585,0.5032361,0.2278832,0.01,0.15,-0.02,86.66
17233,1646027097,0,-1.38,1.79,19.79,-0.01168423,-0.02252151,-0.1488753,-0.03111955,14.18507,0.5027493,0.2277987,0.01,0.15,-0.02,86.66
17278,1646037336,0,-1.38,1.71,19.8,-0.003114412,-0.02208247,-0.1426552,-0.02569874,14.18437,0.5022567,0.2277272,0.01,0.15,-0.02,86.66
17320,1646048555,0,-1.39,1.75,19.8,-0.008034384,-0.02363049,-0.1409032,-0.02396617,14.18367,0.5017847,0.2275329,0.01,0.15,-0.02,86.66
17367,1646061840,0,-1.38,1.75,19.79,-0.01677871,-0.02726977,-0.1497806,-0.03212505,14.18293,0.5012551,0.2269949,0.01,0.15,-0.02,86.66
17409,1646071880,0,-1.41,1.73,19.79,-0.011457,-0.02324912,-0.1398647,-0.02323221,14.1823,0.5007895999999999,0.226843,0.01,0.15,-0.02,86.66
17452,1646082439,0,-1.38,1.79,19.79,-0.01687434,-0.02029056,-0.1481965,-0.03240391,14.18168,0.5003276,0.2264783,0.01,0.15,-0.02,86.66
17495,1646093198,0,-1.38,1.71,19.78,-0.01460777,-0.02190274,-0.1422987,-0.02715122,14.18154,0.5000909,0.2250688,0.01,0.15,-0.02,86.66
17537,1646103228,0,-1.36,1.8,19.79,-0.009832133,-0.02492364,-0.1441596,-0.03119306,14.18091,0.499637,0.2247873,0.01,0.15,-0.02,86.66
17585,1646113300,0,-1.38,1.69,19.78,-0.006086901,-0.02363056,-0.1376487,-0.02745994,14.18037,0.4992005,0.2245181,0.01,0.15,-0.02,86.66
17627,1646122980,0,-1.35,1.77,19.78,-0.01157559,-0.02347959,-0.1396731,-0.03323565,14.17979,0.4987861,0.2241466,0.01,0.15,-0.02,86.66
17670,1646133228,0,-1.35,1.71,19.78,-0.01121739,-0.02801406,-0.1402301,-0.03784252,14.17921,0.4983732,0.2237586,0.01,0.15,-0.02,86.66
17712,1646147821,0,-1.4,1.72,19.78,-0.009156546999999999,-0.02121835,-0.1373117,-0.03811153,14.17843,0.4976836,0.2233363,0.01,0.15,-0.02,86.66
17758,1646158271,0,-1.36,1.78,19.78,-0.01381491,-0.02047119,-0.1432371,-0.04452107,14.17772,0.4971505,0.2233876,0.01,0.15,-0.02,86.66
17803,1646168382,0,-1.36,1.72,19.78,-0.01133584,-0.02334867,-0.1394068,-0.0412312,14.17701,0.4966545,0.2235252,0.01,0.15,-0.02,86.66
17847,1646178759,0,-1.36,1.79,19.79,-0.005533056,-0.02747951,-0.1395698,-0.03955187,14.17689,0.4963829,0.2221066,0.01,0.15,-0.02,86.66
17891,1646188773,0,-1.38,1.7,19.78,-0.004479038,-0.02538876,-0.1355081,-0.03454262,14.17629,0.4958851,0.2222108,0.01,0.15,-0.02,86.66
17936,1646198769,0,-1.38,1.76,19.79,-0.01107428,-0.02473869,-0.1358429,-0.03395186,14.17566,0.4954174,0.2221997,0.01,0.15,-0.02,86.66
17984,1646208853,0,-1.37,1.71,19.79,-0.008967407,-0.02745996,-0.1350764,-0.03321457,14.17505,0.4949583,0.2221702,0.01,0.15,-0.02,86.66
18033,1646221680,0,-1.42,1.74,19.79,-0.008225909999999999,-0.02315828,-0.1314322,-0.02954362,14.17448,0.4944109,0.2216529,0.01,0.15,-0.02,86.66
18078,1646231756,0,-1.38,1.77,19.79,-0.01666971,-0.02177835,-0.1421521,-0.04113123,14.17397,0.4939821,0.2215079,0.01,0.15,-0.02,86.66
18125,1646244711,0,-1.37,1.73,19.79,-0.007667818,-0.02273926,-0.134361,-0.03296874,14.1734,0.4935017,0.2211614,0.01,0.15,-0.02,86.66
18173,1646257825,0,-1.42,1.75,19.79,-0.005512977,-0.0249913,-0.1301131,-0.02778093,14.17291,0.4929909,0.2207314,0.01,0.15,-0.02,86.66
18224,1646270331,0,-1.38,1.78,19.79,-0.01455907,-0.02120256,-0.1413476,-0.0376942,14.17245,0.4925185,0.2202477,0.01,0.15,-0.02,86.66
18269,1646280391,0,-1.39,1.74,19.78,-0.01200653,-0.02140522,-0.133914,-0.03002941,14.17198,0.4921244,0.2201252,0.01,0.15,-0.02,86.66
18313,1646290662,0,-1.39,1.79,19.79,-0.00537429,-0.02466639,-0.1370666,-0.03417318,14.17156,0.491713,0.2199059,0.01,0.15,-0.02,86.66
18358,1646301276,0,-1.38,1.71,19.78,-0.002781768,-0.0213006,-0.1313614,-0.02861788,14.17151,0.4914688,0.2186022,0.01,0.15,-0.02,86.66
18407,1646311403,0,-1.4,1.75,19.79,-0.008369886,-0.02189953,-0.1338007,-0.03239663,14.1711,0.4910797,0.2183464,0.01,0.15,-0.02,86.66
18452,1646321565,0,-1.37,1.69,19.78,-0.007240542,-0.02782936,-0.1336598,-0.03331842,14.17067,0.4906615,0.2179465,0.01,0.15,-0.02,86.66
18500,1646333913,0,-1.42,1.73,19.79,-0.009881490999999999,-0.02842822,-0.1263296,-0.02840841,14.17031,0.490185,0.2173422,0.01,0.15,-0.02,86.66
18546,1646347242,0,-1.41,1.76,19.8,-0.0116395,-0.0226685,-0.1338145,-0.03929675,14.16991,0.4897091,0.2164373,0.01,0.15,-0.02,86.66
18589,1646358521,0,-1.39,1.71,19.79,-0.01006978,-0.02663099,-0.1324787,-0.03697518,14.16916,0.489228,0.216875,0.01,0.15,-0.02,86.66
18633,1646369092,0,-1.42,1.76,19.8,-0.005913708,-0.02703071,-0.1282578,-0.02999852,14.1685,0.488754,0.2173247,0.01,0.15,-0.02,86.66
18679,1646379157,0,-1.39,1.7,19.79,-0.01071569,-0.02413477,-0.1329864,-0.031252,14.16789,0.4883196,0.2177428,0.01,0.15,-0.02,86.66
18724,1646389621,0,-1.4,1.76,19.8,-0.01959546,-0.02613014,-0.1284956,-0.02391127,14.16723,0.4878799,0.2179224,0.01,0.15,-0.02,86.66
18768,1646400326,0,-1.38,1.73,19.8,-0.01362505,-0.02969723,-0.1337413,-0.02642878,14.16708,0.4876161,0.2166148,0.01,0.15,-0.02,86.66
18813,1646410264,0,-1.39,1.75,19.79,-0.009130334,-0.02629194,-0.1263054,-0.01707066,14.16652,0.4871783,0.2168852,0.01,0.15,-0.02,86.66
18861,1646420364,0,-1.4,1.73,19.79,-0.01549214,-0.02434923,-0.1315898,-0.02045827,14.16597,0.4867814,0.217095,0.01,0.15,-0.02,86.66
18906,1646430572,0,-1.38,1.75,19.78,-0.01292246,-0.02367751,-0.1274013,-0.0137329,14.16537,0.4863663,0.2171044,0.01,0.15,-0.02,86.66
18951,1646440954,0,-1.41,1.77,19.8,-0.005062053,-0.02650635,-0.1288635,-0.01436604,14.16484,0.4859569,0.2171617,0.01,0.15,-0.02,86.66
18996,1646451186,0,-1.39,1.71,19.78,-0.002024055,-0.02229062,-0.1255008,-0.01081691,14.1644,0.4855657,0.2171978,0.01,0.15,-0.02,86.66
19044,1646464338,0,-1.38,1.74,19.78,-0.01879536,-0.02726383,-0.1251408,-0.008685475999999999,14.16388,0.4851106,0.2168229,0.01,0.15,-0.02,86.66
19089,1646474248,0,-1.38,1.74,19.78,-0.01434585,-0.03025479,-0.1317991,-0.01589409,14.16341,0.484732,0.2169016,0.01,0.15,-0.02,86.66
19134,1646484548,0,-1.4,1.74,19.79,-0.006711071,-0.02775214,-0.1243089,-0.007635115,14.16334,0.4844619,0.2156195,0.01,0.15,-0.02,86.66
19179,1646494566,0,-1.41,1.75,19.79,-0.01138721,-0.02477445,-0.1309754,-0.01582844,14.16295,0.4841025,0.2156513,0.01,0.15,-0.02,86.66
19224,1646504915,0,-1.41,1.74,19.78,-0.01151769,-0.02432274,-0.1254092,-0.01242753,14.16252,0.4837565,0.2156194,0.01,0.15,-0.02,86.66
19268,1646514928,0,-1.41,1.77,19.8,-0.005936652,-0.0271932,-0.1297648,-0.01898989,14.16214,0.4833926,0.2155242,0.01,0.15,-0.02,86.66
19317,1646525549,0,-1.41,1.69,19.79,-0.0009032174999999999,-0.02337457,-0.122785,-0.01355057,14.16183,0.483015,0.2152737,0.01,0.15,-0.02,86.66
19362,1646536145,0,-1.4,1.74,19.8,-0.01141382,-0.02292912,-0.1266372,-0.01890405,14.16149,0.482666,0.2149347,0.01,0.15,-0.02,86.66
19406,1646546858,0,-1.38,1.68,19.79,-0.01128038,-0.02586554,-0.1263531,-0.01975125,14.16137,0.482423,0.2136891,0.01,0.15,-0.02,86.66
19454,1646556708,0,-1.39,1.75,19.8,-0.007569342,-0.02582586,-0.1241503,-0.01989913,14.16105,0.4820692,0.2134262,0.01,0.15,-0.02,86.66
19493,1646568864,0,-1.39,1.73,19.8,-0.01171103,-0.02664066,-0.1273937,-0.02397967,14.16027,0.4816608,0.2140288,0.01,0.15,-0.02,86.66
19536,1646579337,0,-1.39,1.73,19.79,-0.01111793,-0.02563722,-0.1234429,-0.01740302,14.15947,0.4812807,0.214632,0.01,0.15,-0.02,86.66
19579,1646589310,0,-1.4,1.77,19.81,-0.008445942999999999,-0.0279973,-0.1284649,-0.01713966,14.15872,0.4809128,0.2152607,0.01,0.15,-0.02,86.66
19622,1646599312,0,-1.4,1.69,19.79,-0.003030196,-0.02322867,-0.1204438,-0.00392579,14.15805,0.4805533,0.2158299,0.01,0.15,-0.02,86.66
19665,1646609314,0,-1.4,1.75,19.8,-0.01037519,-0.02165271,-0.126497,-0.006205427,14.15738,0.4802317,0.2162965,0.01,0.15,-0.02,86.66
19708,1646619442,0,-1.37,1.7,19.78,-0.01107195,-0.0232265,-0.1240534,0.001512526,14.15724,0.4799776,0.215069,0.01,0.15,-0.02,86.66
19755,1646629804,0,-1.4,1.75,19.8,-0.007953882000000001,-0.02557625,-0.1247128,0.004217567,14.15658,0.4796205,0.2154649,0.01,0.15,-0.02,86.66
19798,1646639790,0,-1.4,1.69,19.79,-0.008021082000000001,-0.02193022,-0.1239776,0.007496554,14.15599,0.4792854,0.2158232,0.01,0.15,-0.02,86.66
19840,1646649809,0,-1.4,1.72,19.79,-0.01591222,-0.02300121,-0.1214301,0.01096194,14.15539,0.4789777,0.216089,0.01,0.15,-0.02,86.66
19884,1646659849,0,-1.39,1.71,19.8,-0.01584962,-0.0267458,-0.1230215,0.009496357,14.15478,0.478664,0.21648,0.01,0.15,-0.02,86.66
19930,1646673354,0,-1.43,1.71,19.8,-0.002810195,-0.02694143,-0.1156727,0.0195735,14.1542,0.4782288,0.2163167,0.01,0.15,-0.02,86.66
19972,1646683909,0,-1.44,1.75,19.81,-0.007668502,-0.02296964,-0.1219694,0.01346104,14.15369,0.477938,0.216548,0.01,0.15,-0.02,86.66
20016,1646694292,0,-1.4,1.7,19.79,-0.0102238,-0.02102926,-0.1231272,0.0120525,14.15315,0.4776289,0.2166061,0.01,0.15,-0.02,86.66
20059,1646705276,0,-1.41,1.75,19.8,-0.008066513000000001,-0.02307979,-0.1219742,0.01312408,14.15304,0.4773436,0.2152535,0.01,0.15,-0.02,86.66
20103,1646714910,0,-1.39,1.7,19.8,-0.008688942999999999,-0.02169548,-0.1229302,0.01019005,14.15261,0.4770583,0.2153804,0.01,0.15,-0.02,86.66
20150,1646724903,0,-1.37,1.73,19.79,-0.01518123,-0.02358868,-0.1204728,0.008553674000000001,14.15214,0.4767906,0.2154281,0.01,0.15,-0.02,86.66
20193,1646735563,0,-1.37,1.73,19.81,-0.013704,-0.03012918,-0.1216071,0.003975828,14.15167,0.4764889,0.2152986,0.01,0.15,-0.02,86.66
20235,1646746291,0,-1.39,1.74,19.8,-0.004077599,-0.0285323,-0.1134065,0.007930489000000001,14.15127,0.4761631,0.2151359,0.01,0.15,-0.02,86.66
20281,1646756729,0,-1.41,1.75,19.81,-0.00720878,-0.02610208,-0.119713,-0.001342026,14.15122,0.475927,0.213947,0.01,0.15,-0.02,86.66
20323,1646770781,0,-1.36,1.69,19.79,-0.01024169,-0.02345136,-0.1211551,-0.008779988000000001,14.15059,0.4754038,0.2141405,0.01,0.14,-0.02,86.66
20367,1646781395,0,-1.37,1.72,19.8,-0.007239896,-0.02786859,-0.1142127,-0.004096905,14.15004,0.4749214,0.21495,0.01,0.14,-0.02,86.66
20412,1646792532,0,-1.4,1.71,19.81,-0.008432652000000001,-0.02748908,-0.1167133,-0.004379659,14.14955,0.4744763,0.2156712,0.01,0.14,-0.02,86.66
20456,1646803220,0,-1.41,1.71,19.79,-0.01181861,-0.02962642,-0.1137013,0.00064777,14.14904,0.4740727,0.2164148,0.01,0.14,-0.02,86.66
20502,1646813381,0,-1.44,1.74,19.81,-0.005834723,-0.02973192,-0.1159888,0.00350555,14.14892,0.4737753,0.2151124,0.01,0.14,-0.02,86.66
20547,1646823309,0,-1.43,1.71,19.8,-0.001605843,-0.0246469,-0.1170628,0.006353683,14.14847,0.4733469,0.2157839,0.01,0.14,-0.02,86.66
20597,1646833544,0,-1.46,1.73,19.81,-0.00642225,-0.02037707,-0.1163369,0.009996972999999999,14.14803,0.4729599,0.2163469,0.01,0.14,-0.02,86.66
20642,1646843538,0,-1.43,1.71,19.79,-0.009793867,-0.02154661,-0.1202118,0.008642518,14.14757,0.4725838,0.2168384,0.01,0.14,-0.02,86.66
20687,1646853838,0,-1.44,1.73,19.81,-0.007842436,-0.0234912,-0.1156478,0.01576593,14.14714,0.4721899,0.2172383,0.01,0.14,-0.02,86.66
20732,1646863843,0,-1.43,1.71,19.8,-0.007647633,-0.02039954,-0.1184398,0.01446623,14.14676,0.4718007,0.2175975,0.01,0.14,-0.02,86.66
20781,1646876982,0,-1.39,1.72,19.8,-0.0127859,-0.02711062,-0.1106724,0.02518059,14.14635,0.4713838,0.2178758,0.01,0.15,-0.02,86.66
20826,1646887383,0,-1.43,1.74,19.81,-0.005967529,-0.02972641,-0.1106673,0.0262577,14.14596,0.4709968,0.2182904,0.01,0.15,-0.02,86.66
20871,1646897814,0,-1.41,1.72,19.81,-0.00316425,-0.0270559,-0.1114213,0.02762178,14.1459,0.4707349,0.2171751,0.01,0.15,-0.02,86.66
20917,1646907739,0,-1.44,1.73,19.82,-0.005510615,-0.02303457,-0.1101815,0.02940516,14.14558,0.4703858,0.2176489,0.01,0.14,-0.02,86.66
20962,1646917733,0,-1.4,1.72,19.8,-0.007828000999999999,-0.02321931,-0.1158331,0.02375852,14.14524,0.4700496,0.2180483,0.01,0.14,-0.02,86.66
21006,1646927822,0,-1.42,1.72,19.81,-0.003748917,-0.02429626,-0.1119674,0.02628631,14.14493,0.4696957,0.2183575,0.01,0.14,-0.02,86.66
21055,1646937765,0,-1.39,1.71,19.8,-0.003402314,-0.02203611,-0.1156916,0.02069716,14.14468,0.4693419,0.2186155,0.01,0.14,-0.02,86.66
21102,1646951342,0,-1.36,1.72,19.8,-0.0105672,-0.02902598,-0.1103992,0.0258842,14.14415,0.4689842,0.2191784,0.01,0.15,-0.02,86.66
21143,1646962256,0,-1.39,1.74,19.81,-0.005856415,-0.03208885,-0.1103728,0.0276806,14.14367,0.4687054,0.2200696,0.01,0.15,-0.02,86.66
21192,1646974711,0,-1.4,1.71,19.8,0.000178372,-0.02324185,-0.1113234,0.03146618,14.14325,0.4683389,0.2208762,0.01,0.15,-0.02,86.66
