LineNo,TimeUS,C,IVN,IVE,IVD,IPN,IPE,IPD,IMX,IMY,IMZ,IYAW,IVT,RErr,ErSc
307,1.6419e+09,0,0,-0.02,0.03,0.17,0.06,0.01,0,0,0,0.24,0,0,0.00053949
535,1.6419e+09,0,0,-0.02,0.03,0.17,0.06,0.01,0,0,0,0.24,0,0,0.00053949
987,1.642e+09,0,0.02,-0.03,0.02,0.17,0.06,0.15,0,0,0,0.98,0,0,0.00057605
1101,1.6421e+09,0,0.02,-0.03,0.02,0.17,0.06,0.15,0,0,0,0.98,0,0,0.00057605
1208,1.6422e+09,0,0,-0.01,0.07,0.17,0.06,0.15,0,0,0,0.98,0,0,0.00075769
1319,1.6422e+09,0,0,-0.01,0.07,0.17,0.06,0.15,0,0,0,0.98,0,0,0.00075769
1498,1.6423e+09,0,0,-0.01,0.07,0.17,0.06,0.1,0,0,0,-0.33,0,0,0.00075769
1680,1.6423e+09,0,0,-0.01,0.07,0.17,0.06,0.1,0,0,0,-0.33,0,0,0.00075769
1724,1.6423e+09,0,0,-0.01,0.07,0.17,0.06,0.1,0,0,0,-0.33,0,0,0.00075769
1769,1.6423e+09,0,0,-0.01,0.07,0.17,0.06,0.1,0,0,0,-0.33,0,0,0.00075769
1813,1.6423e+09,0,0,-0.01,0.07,0.17,0.06,0.1,0,0,0,-0.33,0,0,0.00075769
1858,1.6423e+09,0,0,-0.01,0.07,0.17,0.06,0.03,0,0,0,0.98,0,0,0.00075769
1905,1.6424e+09,0,0,-0.01,0.07,0.17,0.06,0.03,0,0,0,0.98,0,0,0.00075769
1950,1.6424e+09,0,0.04,-0.02,-0.35,0.18,0.05,0.03,0,0,0,0.98,0,0,0.00867
1992,1.6424e+09,0,0.04,-0.02,-0.35,0.18,0.05,0.03,0,0,0,0.98,0,0,0.00867
2040,1.6424e+09,0,0.04,-0.02,-0.35,0.18,0.05,0.03,0,0,0,0.98,0,0,0.00867
2083,1.6424e+09,0,0.04,-0.02,-0.35,0.18,0.05,0.03,0,0,0,0.98,0,0,0.00867
2125,1.6424e+09,0,0.04,-0.02,-0.35,0.18,0.05,0.03,0,0,0,0.98,0,0,0.00867
2171,1.6424e+09,0,0.04,-0.02,-0.35,0.18,0.05,-0.28,0,0,0,2.16,0,0,0.00867
2215,1.6424e+09,0,0.04,-0.02,-0.35,0.18,0.05,-0.28,0,0,0,2.16,0,0,0.00867
2257,1.6425e+09,0,0.04,-0.02,-0.35,0.18,0.05,-0.28,0,0,0,2.16,0,0,0.00867
2301,1.6425e+09,0,0.04,-0.02,-0.35,0.18,0.05,-0.28,0,0,0,2.16,0,0,0.00867
2343,1.6425e+09,0,0.04,-0.02,-0.35,0.18,0.05,-0.28,0,0,0,2.16,0,0,0.00867
2386,1.6425e+09,0,0.04,-0.02,-0.35,0.18,0.05,-0.28,0,0,0,2.16,0,0,0.00867
2429,1.6425e+09,0,0.04,-0.02,-0.35,0.18,0.05,-0.28,0,0,0,2.16,0,0,0.00867
2475,1.6425e+09,0,0.04,-0.02,-0.35,0.18,0.05,-0.28,0,0,0,2.16,0,0,0.00867
2519,1.6425e+09,0,0.04,-0.02,-0.35,0.18,0.05,-0.28,0,0,0,2.16,0,0,0.00867
2561,1.6425e+09,0,0.04,-0.02,-0.35,0.18,0.05,-0.28,0,0,0,2.16,0,0,0.00867
2604,1.6425e+09,0,0.04,-0.02,-0.35,0.18,0.05,-0.28,0,0,0,2.16,0,0,0.00867
2649,1.6425e+09,0,0.04,-0.02,-0.35,0.18,0.05,-0.11,0,0,0,0.2,0,0,0.00867
2695,1.6426e+09,0,0.03,-0.01,-0.29,0.19,0.06,-0.11,0,0,0,0.2,0,0,0.0064054
2740,1.6426e+09,0,0.03,-0.01,-0.29,0.19,0.06,-0.11,0,0,0,0.2,0,0,0.0064054
2785,1.6426e+09,0,0.03,-0.01,-0.29,0.19,0.06,-0.11,0,0,0,0.2,0,0,0.0064054
2830,1.6426e+09,0,0.03,-0.01,-0.29,0.19,0.06,-0.11,0,0,0,0.2,0,0,0.0064054
2879,1.6426e+09,0,0.03,-0.01,-0.29,0.19,0.06,-0.11,0,0,0,0.2,0,0,0.0064054
2923,1.6426e+09,0,0.03,-0.01,-0.29,0.19,0.06,-0.11,0,0,0,0.2,0,0,0.0064054
2970,1.6426e+09,0,0.03,-0.01,-0.29,0.19,0.06,-0.11,0,0,0,0.2,0,0,0.0064054
3014,1.6426e+09,0,0.03,-0.01,-0.29,0.19,0.06,-0.11,0,0,0,0.2,0,0,0.0064054
3059,1.6426e+09,0,0.03,-0.01,-0.29,0.19,0.06,-0.04,0,0,0,0.05,0,0,0.0064054
3103,1.6427e+09,0,0.03,-0.01,-0.29,0.19,0.06,-0.04,0,0,0,0.05,0,0,0.0064054
3148,1.6427e+09,0,0.03,-0.01,-0.29,0.19,0.06,-0.04,0,0,0,0.05,0,0,0.0064054
3193,1.6427e+09,0,0.03,-0.01,-0.29,0.19,0.06,-0.04,0,0,0,0.05,0,0,0.0064054
3237,1.6427e+09,0,0.03,-0.01,-0.29,0.19,0.06,-0.04,0,0,0,0.05,0,0,0.0064054
3284,1.6427e+09,0,0.03,-0.01,-0.29,0.19,0.06,-0.04,0,0,0,0.05,0,0,0.0064054
3334,1.6427e+09,0,0.03,-0.01,-0.29,0.19,0.06,-0.04,0,0,0,0.05,0,0,0.0064054
3380,1.6427e+09,0,0.03,-0.01,-0.29,0.19,0.06,-0.04,0,0,0,0.05,0,0,0.0064054
3424,1.6427e+09,0,0.03,-0.01,-0.29,0.19,0.06,-0.04,0,0,0,0.05,0,0,0.0064054
3469,1.6427e+09,0,0.03,-0.01,-0.29,0.19,0.06,-0.04,0,0,0,0.05,0,0,0.0064054
3514,1.6427e+09,0,0.03,-0.01,-0.29,0.19,0.06,-0.04,0,0,0,0.05,0,0,0.0064054
3561,1.6428e+09,0,0.03,-0.01,-0.29,0.19,0.06,0.11,0,0,0,1.02,0,0,0.0064054
3603,1.6428e+09,0,0.01,0,-0.31,0.18,0.05,0.11,0,0,0,1.02,0,0,0.0071548
3647,1.6428e+09,0,0.01,0,-0.31,0.18,0.05,0.11,0,0,0,1.02,0,0,0.0071548
3691,1.6428e+09,0,0.01,0,-0.31,0.18,0.05,0.11,0,0,0,1.02,0,0,0.0071548
3738,1.6428e+09,0,0.01,0,-0.31,0.18,0.05,0.11,0,0,0,1.02,0,0,0.0071548
3786,1.6428e+09,0,0.01,0,-0.31,0.18,0.05,0.11,0,0,0,1.02,0,0,0.0071548
3831,1.6428e+09,0,0.01,0,-0.31,0.18,0.05,0.11,0,0,0,1.02,0,0,0.0071548
3875,1.6428e+09,0,0.01,0,-0.31,0.18,0.05,0.11,0,0,0,1.02,0,0,0.0071548
3920,1.6428e+09,0,0.01,0,-0.31,0.18,0.05,0.11,0,0,0,1.02,0,0,0.0071548
3965,1.6429e+09,0,0.01,0,-0.31,0.18,0.05,-0.11,0,0,0,1.12,0,0,0.0071548
4009,1.6429e+09,0,0.01,0,-0.31,0.18,0.05,-0.11,0,0,0,1.12,0,0,0.0071548
4054,1.6429e+09,0,0.01,0,-0.31,0.18,0.05,-0.11,0,0,0,1.12,0,0,0.0071548
4098,1.6429e+09,0,0.01,0,-0.31,0.18,0.05,-0.11,0,0,0,1.12,0,0,0.0071548
4143,1.6429e+09,0,0.01,0,-0.31,0.18,0.05,-0.11,0,0,0,1.12,0,0,0.0071548
4188,1.6429e+09,0,0.01,0,-0.31,0.18,0.05,-0.11,0,0,0,1.12,0,0,0.0071548
4237,1.6429e+09,0,0.01,0,-0.31,0.18,0.05,-0.11,0,0,0,1.12,0,0,0.0071548
4282,1.6429e+09,0,0.01,0,-0.31,0.18,0.05,-0.11,0,0,0,1.12,0,0,0.0071548
4326,1.6429e+09,0,0.01,0,-0.31,0.18,0.05,-0.11,0,0,0,1.12,0,0,0.0071548
4371,1.6429e+09,0,0,-0.02,-0.16,0.18,0.06,-0.03,0,0,0,1.12,0,0,0.0023032
4413,1.643e+09,0,0,-0.02,-0.16,0.18,0.06,-0.03,0,0,0,0.23,0,0,0.0023032
4456,1.643e+09,0,0,-0.02,-0.16,0.18,0.06,-0.03,0,0,0,0.23,0,0,0.0023032
4500,1.643e+09,0,0,-0.02,-0.16,0.18,0.06,-0.03,0,0,0,0.23,0,0,0.0023032
4542,1.643e+09,0,0,-0.02,-0.16,0.18,0.06,-0.03,0,0,0,0.23,0,0,0.0023032
4585,1.643e+09,0,0,-0.02,-0.16,0.18,0.06,-0.03,0,0,0,0.23,0,0,0.0023032
4627,1.643e+09,0,0,-0.02,-0.16,0.18,0.06,-0.03,0,0,0,0.23,0,0,0.0023032
4676,1.643e+09,0,0,-0.02,-0.16,0.18,0.06,-0.03,0,0,0,0.23,0,0,0.0023032
4719,1.643e+09,0,0,-0.02,-0.16,0.18,0.06,-0.03,0,0,0,0.23,0,0,0.0023032
4762,1.643e+09,0,0,-0.02,-0.16,0.18,0.06,-0.03,0,0,0,0.23,0,0,0.0023032
4805,1.6431e+09,0,0,-0.02,-0.16,0.18,0.06,-0.03,0,0,0,0.23,0,0,0.0023032
4847,1.6431e+09,0,0,-0.02,-0.16,0.18,0.06,-0.03,0,0,0,1.2,0,0,0.0023032
4890,1.6431e+09,0,0,-0.02,-0.16,0.18,0.06,-0.03,0,0,0,1.2,0,0,0.0023032
4933,1.6431e+09,0,0,-0.02,-0.16,0.18,0.06,-0.03,0,0,0,1.2,0,0,0.0023032
4976,1.6431e+09,0,0,-0.02,-0.16,0.18,0.06,-0.03,0,0,0,1.2,0,0,0.0023032
5019,1.6431e+09,0,0,-0.02,-0.16,0.18,0.06,-0.03,0,0,0,1.2,0,0,0.0023032
5062,1.6431e+09,0,0,-0.02,-0.16,0.18,0.06,-0.03,0,0,0,1.2,0,0,0.0023032
5109,1.6431e+09,0,0,-0.02,-0.16,0.18,0.06,-0.03,0,0,0,1.2,0,0,0.0023032
5152,1.6431e+09,0,0,-0.02,-0.16,0.18,0.06,-0.03,0,0,0,1.2,0,0,0.0023032
5195,1.6431e+09,0,0,-0.02,-0.16,0.18,0.06,-0.03,0,0,0,1.2,0,0,0.0023032
5233,1.6432e+09,0,0.01,0,-0.29,0.19,0.05,-0.03,0,0,0,1.2,0,0,0.0061529
5277,1.6432e+09,0,0.01,0,-0.29,0.19,0.05,0.02,0,0,0,1.46,0,0,0.0061529
5322,1.6432e+09,0,0.01,0,-0.29,0.19,0.05,0.02,0,0,0,1.46,0,0,0.0061529
5366,1.6432e+09,0,0.01,0,-0.29,0.19,0.05,0.02,0,0,0,1.46,0,0,0.0061529
5411,1.6432e+09,0,0.01,0,-0.29,0.19,0.05,0.02,0,0,0,1.46,0,0,0.0061529
5455,1.6432e+09,0,0.01,0,-0.29,0.19,0.05,0.02,0,0,0,1.46,0,0,0.0061529
5500,1.6432e+09,0,0.01,0,-0.29,0.19,0.05,0.02,0,0,0,1.46,0,0,0.0061529
5549,1.6432e+09,0,0.01,0,-0.29,0.19,0.05,0.02,0,0,0,1.46,0,0,0.0061529
5594,1.6432e+09,0,0.01,0,-0.29,0.19,0.05,0.02,0,0,0,1.46,0,0,0.0061529
5638,1.6432e+09,0,0.01,0,-0.29,0.19,0.05,0.02,0,0,0,1.46,0,0,0.0061529
5683,1.6433e+09,0,0.01,0,-0.29,0.19,0.05,0,0,0,0,1.46,0,0,0.0061529
5728,1.6433e+09,0,0.01,0,-0.29,0.19,0.05,0,0,0,0,0.76,0,0,0.0061529
5772,1.6433e+09,0,0.01,0,-0.29,0.19,0.05,0,0,0,0,0.76,0,0,0.0061529
5818,1.6433e+09,0,0.01,0,-0.29,0.19,0.05,0,0,0,0,0.76,0,0,0.0061529
5865,1.6433e+09,0,0.01,0,-0.29,0.19,0.05,0,0,0,0,0.76,0,0,0.0061529
5910,1.6433e+09,0,0.01,0,-0.29,0.19,0.05,0,0,0,0,0.76,0,0,0.0061529
5954,1.6433e+09,0,0.01,0,-0.29,0.19,0.05,0,0,0,0,0.76,0,0,0.0061529
6004,1.6433e+09,0,0.01,0,-0.29,0.19,0.05,0,0,0,0,0.76,0,0,0.0061529
6048,1.6433e+09,0,0.01,0,-0.29,0.19,0.05,0,0,0,0,0.76,0,0,0.0061529
6091,1.6434e+09,0,0.01,-0.03,-0.22,0.19,0.06,0,0,0,0,0.76,0,0,0.0039703
6135,1.6434e+09,0,0.01,-0.03,-0.22,0.19,0.06,0,0,0,0,0.76,0,0,0.0039703
6180,1.6434e+09,0,0.01,-0.03,-0.22,0.19,0.06,-0.11,0,0,0,0.07,0,0,0.0039703
6227,1.6434e+09,0,0.01,-0.03,-0.22,0.19,0.06,-0.11,0,0,0,0.07,0,0,0.0039703
6272,1.6434e+09,0,0.01,-0.03,-0.22,0.19,0.06,-0.11,0,0,0,0.07,0,0,0.0039703
6316,1.6434e+09,0,0.01,-0.03,-0.22,0.19,0.06,-0.11,0,0,0,0.07,0,0,0.0039703
6361,1.6434e+09,0,0.01,-0.03,-0.22,0.19,0.06,-0.11,0,0,0,0.07,0,0,0.0039703
6408,1.6434e+09,0,0.01,-0.03,-0.22,0.19,0.06,-0.11,0,0,0,0.07,0,0,0.0039703
6455,1.6434e+09,0,0.01,-0.03,-0.22,0.19,0.06,-0.11,0,0,0,0.07,0,0,0.0039703
6499,1.6434e+09,0,0.01,-0.03,-0.22,0.19,0.06,-0.11,0,0,0,0.07,0,0,0.0039703
6543,1.6435e+09,0,0.01,-0.03,-0.22,0.19,0.06,-0.11,0,0,0,0.07,0,0,0.0039703
6591,1.6435e+09,0,0.01,-0.03,-0.22,0.19,0.06,-0.3,0,0,0,0.07,0,0,0.0039703
6635,1.6435e+09,0,0.01,-0.03,-0.22,0.19,0.06,-0.3,0,0,0,2.87,0,0,0.0039703
6680,1.6435e+09,0,0.01,-0.03,-0.22,0.19,0.06,-0.3,0,0,0,2.87,0,0,0.0039703
6725,1.6435e+09,0,0.01,-0.03,-0.22,0.19,0.06,-0.3,0,0,0,2.87,0,0,0.0039703
6770,1.6435e+09,0,0.01,-0.03,-0.22,0.19,0.06,-0.3,0,0,0,2.87,0,0,0.0039703
6815,1.6435e+09,0,0.01,-0.03,-0.22,0.19,0.06,-0.3,0,0,0,2.87,0,0,0.0039703
6863,1.6435e+09,0,0.01,-0.03,-0.22,0.19,0.06,-0.3,0,0,0,2.87,0,0,0.0039703
6910,1.6435e+09,0,0.01,-0.03,-0.22,0.19,0.06,-0.3,0,0,0,2.87,0,0,0.0039703
6955,1.6436e+09,0,0.01,-0.02,-0.27,0.19,0.05,-0.3,0,0,0,2.87,0,0,0.0054674
6997,1.6436e+09,0,0.01,-0.02,-0.27,0.19,0.05,-0.3,0,0,0,2.87,0,0,0.0054674
7045,1.6436e+09,0,0.01,-0.02,-0.27,0.19,0.05,-0.13,0,0,0,0.32,0,0,0.0054674
7088,1.6436e+09,0,0.01,-0.02,-0.27,0.19,0.05,-0.13,0,0,0,0.32,0,0,0.0054674
7130,1.6436e+09,0,0.01,-0.02,-0.27,0.19,0.05,-0.13,0,0,0,0.32,0,0,0.0054674
7174,1.6436e+09,0,0.01,-0.02,-0.27,0.19,0.05,-0.13,0,0,0,0.32,0,0,0.0054674
7217,1.6436e+09,0,0.01,-0.02,-0.27,0.19,0.05,-0.13,0,0,0,0.32,0,0,0.0054674
7263,1.6436e+09,0,0.01,-0.02,-0.27,0.19,0.05,-0.13,0,0,0,0.32,0,0,0.0054674
7306,1.6436e+09,0,0.01,-0.02,-0.27,0.19,0.05,-0.13,0,0,0,0.32,0,0,0.0054674
7349,1.6437e+09,0,0.01,-0.02,-0.27,0.19,0.05,-0.13,0,0,0,0.32,0,0,0.0054674
7394,1.6437e+09,0,0.01,-0.02,-0.27,0.19,0.05,-0.13,0,0,0,0.32,0,0,0.0054674
7436,1.6437e+09,0,0.01,-0.02,-0.27,0.19,0.05,-0.13,0,0,0,0.32,0,0,0.0054674
7476,1.6437e+09,0,0.01,-0.02,-0.27,0.19,0.05,-0.34,0,0,0,2.52,0,0,0.0054674
7518,1.6437e+09,0,0.01,-0.02,-0.27,0.19,0.05,-0.34,0,0,0,2.52,0,0,0.0054674
7562,1.6437e+09,0,0.01,-0.02,-0.27,0.19,0.05,-0.34,0,0,0,2.52,0,0,0.0054674
7605,1.6437e+09,0,0.01,-0.02,-0.27,0.19,0.05,-0.34,0,0,0,2.52,0,0,0.0054674
7648,1.6437e+09,0,0.01,-0.02,-0.27,0.19,0.05,-0.34,0,0,0,2.52,0,0,0.0054674
7700,1.6437e+09,0,0.01,-0.02,-0.27,0.19,0.05,-0.34,0,0,0,2.52,0,0,0.0054674
7744,1.6437e+09,0,0.01,-0.02,-0.27,0.19,0.05,-0.34,0,0,0,2.52,0,0,0.0054674
7786,1.6438e+09,0,0,-0.01,-0.3,0.19,0.05,-0.34,0,0,0,2.52,0,0,0.0067273
7832,1.6438e+09,0,0,-0.01,-0.3,0.19,0.05,-0.34,0,0,0,2.52,0,0,0.0067273
7877,1.6438e+09,0,0,-0.01,-0.3,0.19,0.05,-0.34,0,0,0,2.52,0,0,0.0067273
7924,1.6438e+09,0,0,-0.01,-0.3,0.19,0.05,-0.18,0,0,0,1.42,0,0,0.0067273
7968,1.6438e+09,0,0,-0.01,-0.3,0.19,0.05,-0.18,0,0,0,1.42,0,0,0.0067273
8013,1.6438e+09,0,0,-0.01,-0.3,0.19,0.05,-0.18,0,0,0,1.42,0,0,0.0067273
8057,1.6438e+09,0,0,-0.01,-0.3,0.19,0.05,-0.18,0,0,0,1.42,0,0,0.0067273
8102,1.6438e+09,0,0,-0.01,-0.3,0.19,0.05,-0.18,0,0,0,1.42,0,0,0.0067273
8152,1.6438e+09,0,0,-0.01,-0.3,0.19,0.05,-0.18,0,0,0,1.42,0,0,0.0067273
8196,1.6439e+09,0,0,-0.01,-0.3,0.19,0.05,-0.18,0,0,0,1.42,0,0,0.0067273
8242,1.6439e+09,0,0,-0.01,-0.3,0.19,0.05,-0.18,0,0,0,1.42,0,0,0.0067273
8286,1.6439e+09,0,0,-0.01,-0.3,0.19,0.05,-0.18,0,0,0,1.42,0,0,0.0067273
8332,1.6439e+09,0,0,-0.01,-0.3,0.19,0.05,-0.21,0,0,0,0.07,0,0,0.0067273
8376,1.6439e+09,0,0,-0.01,-0.3,0.19,0.05,-0.21,0,0,0,0.07,0,0,0.0067273
8421,1.6439e+09,0,0,-0.01,-0.3,0.19,0.05,-0.21,0,0,0,0.07,0,0,0.0067273
8466,1.6439e+09,0,0,-0.01,-0.3,0.19,0.05,-0.21,0,0,0,0.07,0,0,0.0067273
8511,1.6439e+09,0,0,-0.01,-0.3,0.19,0.05,-0.21,0,0,0,0.07,0,0,0.0067273
8556,1.6439e+09,0,0,-0.01,-0.3,0.19,0.05,-0.21,0,0,0,0.07,0,0,0.0067273
8604,1.6439e+09,0,0,-0.01,-0.3,0.19,0.05,-0.21,0,0,0,0.07,0,0,0.0067273
8648,1.644e+09,0,-0.03,0,-0.24,0.19,0.05,-0.21,0,0,0,0.07,0,0,0.0046283
8689,1.644e+09,0,-0.03,0,-0.24,0.19,0.05,-0.21,0,0,0,0.07,0,0,0.0046283
8734,1.644e+09,0,-0.03,0,-0.24,0.19,0.05,-0.21,0,0,0,0.07,0,0,0.0046283
8780,1.644e+09,0,-0.03,0,-0.24,0.19,0.05,-0.21,0,0,0,0.07,0,0,0.0046283
8821,1.644e+09,0,-0.03,0,-0.24,0.19,0.05,-0.25,0,0,0,1.07,0,0,0.0046283
8867,1.644e+09,0,-0.03,0,-0.24,0.19,0.05,-0.25,0,0,0,1.07,0,0,0.0046283
8911,1.644e+09,0,-0.03,0,-0.24,0.19,0.05,-0.25,0,0,0,1.07,0,0,0.0046283
8955,1.644e+09,0,-0.03,0,-0.24,0.19,0.05,-0.25,0,0,0,1.07,0,0,0.0046283
9001,1.644e+09,0,-0.03,0,-0.24,0.19,0.05,-0.25,0,0,0,1.07,0,0,0.0046283
9049,1.644e+09,0,-0.03,0,-0.24,0.19,0.05,-0.25,0,0,0,1.07,0,0,0.0046283
9095,1.6441e+09,0,-0.03,0,-0.24,0.19,0.05,-0.25,0,0,0,1.07,0,0,0.0046283
9139,1.6441e+09,0,-0.03,0,-0.24,0.19,0.05,-0.25,0,0,0,1.07,0,0,0.0046283
9184,1.6441e+09,0,-0.03,0,-0.24,0.19,0.05,-0.25,0,0,0,1.07,0,0,0.0046283
9228,1.6441e+09,0,-0.03,0,-0.24,0.19,0.05,-0.4,0,0,0,0.16,0,0,0.0046283
9273,1.6441e+09,0,-0.03,0,-0.24,0.19,0.05,-0.4,0,0,0,0.16,0,0,0.0046283
9318,1.6441e+09,0,-0.03,0,-0.24,0.19,0.05,-0.4,0,0,0,0.16,0,0,0.0046283
9362,1.6441e+09,0,-0.03,0,-0.24,0.19,0.05,-0.4,0,0,0,0.16,0,0,0.0046283
9407,1.6441e+09,0,-0.03,0,-0.24,0.19,0.05,-0.4,0,0,0,0.16,0,0,0.0046283
9452,1.6441e+09,0,-0.03,0,-0.24,0.19,0.05,-0.4,0,0,0,0.16,0,0,0.0046283
9501,1.6441e+09,0,-0.03,0,-0.24,0.19,0.05,-0.4,0,0,0,0.16,0,0,0.0046283
9547,1.6442e+09,0,-0.02,0,-0.22,0.19,0.06,-0.4,0,0,0,0.16,0,0,0.0037025
9590,1.6442e+09,0,-0.02,0,-0.22,0.19,0.06,-0.4,0,0,0,0.16,0,0,0.0037025
9633,1.6442e+09,0,-0.02,0,-0.22,0.19,0.06,-0.33,0,0,0,1.41,0,0,0.0037025
9675,1.6442e+09,0,-0.02,0,-0.22,0.19,0.06,-0.33,0,0,0,1.41,0,0,0.0037025
9720,1.6442e+09,0,-0.02,0,-0.22,0.19,0.06,-0.33,0,0,0,1.41,0,0,0.0037025
9762,1.6442e+09,0,-0.02,0,-0.22,0.19,0.06,-0.33,0,0,0,1.41,0,0,0.0037025
9805,1.6442e+09,0,-0.02,0,-0.22,0.19,0.06,-0.33,0,0,0,1.41,0,0,0.0037025
9848,1.6442e+09,0,-0.02,0,-0.22,0.19,0.06,-0.33,0,0,0,1.41,0,0,0.0037025
9893,1.6442e+09,0,-0.02,0,-0.22,0.19,0.06,-0.33,0,0,0,1.41,0,0,0.0037025
9937,1.6443e+09,0,-0.02,0,-0.22,0.19,0.06,-0.33,0,0,0,1.41,0,0,0.0037025
9980,1.6443e+09,0,-0.02,0,-0.22,0.19,0.06,-0.33,0,0,0,1.41,0,0,0.0037025
10023,1.6443e+09,0,-0.02,0,-0.22,0.19,0.06,-0.33,0,0,0,1.41,0,0,0.0037025
10067,1.6443e+09,0,-0.02,0,-0.22,0.19,0.06,-0.46,0,0,0,1.41,0,0,0.0037025
10110,1.6443e+09,0,-0.02,0,-0.22,0.19,0.06,-0.46,0,0,0,1.43,0,0,0.0037025
10153,1.6443e+09,0,-0.02,0,-0.22,0.19,0.06,-0.46,0,0,0,1.43,0,0,0.0037025
10197,1.6443e+09,0,-0.02,0,-0.22,0.19,0.06,-0.46,0,0,0,1.43,0,0,0.0037025
10240,1.6443e+09,0,-0.02,0,-0.22,0.19,0.06,-0.46,0,0,0,1.43,0,0,0.0037025
10284,1.6443e+09,0,-0.02,0,-0.22,0.19,0.06,-0.46,0,0,0,1.43,0,0,0.0037025
10328,1.6444e+09,0,-0.04,0,-0.15,0.18,0.06,-0.46,0,0,0,1.43,0,0,0.0021867
10372,1.6444e+09,0,-0.04,0,-0.15,0.18,0.06,-0.46,0,0,0,1.43,0,0,0.0021867
10417,1.6444e+09,0,-0.04,0,-0.15,0.18,0.06,-0.46,0,0,0,1.43,0,0,0.0021867
10463,1.6444e+09,0,-0.04,0,-0.15,0.18,0.06,-0.46,0,0,0,1.43,0,0,0.0021867
10507,1.6444e+09,0,-0.04,0,-0.15,0.18,0.06,-0.32,0,0,0,2.57,0,0,0.0021867
10552,1.6444e+09,0,-0.04,0,-0.15,0.18,0.06,-0.32,0,0,0,2.57,0,0,0.0021867
10596,1.6444e+09,0,-0.04,0,-0.15,0.18,0.06,-0.32,0,0,0,2.57,0,0,0.0021867
10641,1.6444e+09,0,-0.04,0,-0.15,0.18,0.06,-0.32,0,0,0,2.57,0,0,0.0021867
10686,1.6444e+09,0,-0.04,0,-0.15,0.18,0.06,-0.32,0,0,0,2.57,0,0,0.0021867
10731,1.6444e+09,0,-0.04,0,-0.15,0.18,0.06,-0.32,0,0,0,2.57,0,0,0.0021867
10780,1.6445e+09,0,-0.04,0,-0.15,0.18,0.06,-0.32,0,0,0,2.57,0,0,0.0021867
10825,1.6445e+09,0,-0.04,0,-0.15,0.18,0.06,-0.32,0,0,0,2.57,0,0,0.0021867
10870,1.6445e+09,0,-0.04,0,-0.15,0.18,0.06,-0.32,0,0,0,2.57,0,0,0.0021867
10914,1.6445e+09,0,-0.04,0,-0.15,0.18,0.06,-0.32,0,0,0,2.57,0,0,0.0021867
10959,1.6445e+09,0,-0.04,0,-0.15,0.18,0.06,-0.32,0,0,0,2.57,0,0,0.0021867
11004,1.6445e+09,0,-0.04,0,-0.15,0.18,0.06,-0.5,0,0,0,2.57,0,0,0.0021867
11048,1.6445e+09,0,-0.04,0,-0.15,0.18,0.06,-0.5,0,0,0,0.94,0,0,0.0021867
11094,1.6445e+09,0,-0.04,0,-0.15,0.18,0.06,-0.5,0,0,0,0.94,0,0,0.0021867
11139,1.6445e+09,0,-0.04,0,-0.15,0.18,0.06,-0.5,0,0,0,0.94,0,0,0.0021867
11186,1.6446e+09,0,-0.06,0,-0.2,0.18,0.06,-0.5,0,0,0,0.94,0,0,0.0033561
11231,1.6446e+09,0,-0.06,0,-0.2,0.18,0.06,-0.5,0,0,0,0.94,0,0,0.0033561
11276,1.6446e+09,0,-0.06,0,-0.2,0.18,0.06,-0.5,0,0,0,0.94,0,0,0.0033561
11322,1.6446e+09,0,-0.06,0,-0.2,0.18,0.06,-0.5,0,0,0,0.94,0,0,0.0033561
11366,1.6446e+09,0,-0.06,0,-0.2,0.18,0.06,-0.5,0,0,0,0.94,0,0,0.0033561
11414,1.6446e+09,0,-0.06,0,-0.2,0.18,0.06,-0.46,0,0,0,0.96,0,0,0.0033561
11460,1.6446e+09,0,-0.06,0,-0.2,0.18,0.06,-0.46,0,0,0,0.96,0,0,0.0033561
11505,1.6446e+09,0,-0.06,0,-0.2,0.18,0.06,-0.46,0,0,0,0.96,0,0,0.0033561
11550,1.6446e+09,0,-0.06,0,-0.2,0.18,0.06,-0.46,0,0,0,0.96,0,0,0.0033561
11595,1.6446e+09,0,-0.06,0,-0.2,0.18,0.06,-0.46,0,0,0,0.96,0,0,0.0033561
11640,1.6447e+09,0,-0.06,0,-0.2,0.18,0.06,-0.46,0,0,0,0.96,0,0,0.0033561
11689,1.6447e+09,0,-0.06,0,-0.2,0.18,0.06,-0.46,0,0,0,0.96,0,0,0.0033561
11734,1.6447e+09,0,-0.06,0,-0.2,0.18,0.06,-0.46,0,0,0,0.96,0,0,0.0033561
11779,1.6447e+09,0,-0.06,0,-0.2,0.18,0.06,-0.46,0,0,0,0.96,0,0,0.0033561
11823,1.6447e+09,0,-0.06,0,-0.2,0.18,0.06,-0.46,0,0,0,0.96,0,0,0.0033561
11865,1.6447e+09,0,-0.06,0,-0.2,0.18,0.06,-0.27,0,0,0,0.23,0,0,0.0033561
11910,1.6447e+09,0,-0.06,0,-0.2,0.18,0.06,-0.27,0,0,0,0.23,0,0,0.0033561
11956,1.6447e+09,0,-0.06,0,-0.2,0.18,0.06,-0.27,0,0,0,0.23,0,0,0.0033561
12000,1.6447e+09,0,-0.06,0,-0.2,0.18,0.06,-0.27,0,0,0,0.23,0,0,0.0033561
12046,1.6448e+09,0,-0.06,0,-0.2,0.18,0.06,-0.27,0,0,0,0.23,0,0,0.0033561
12089,1.6448e+09,0,-0.06,0,-0.2,0.18,0.06,-0.27,0,0,0,0.23,0,0,0.0033561
12134,1.6448e+09,0,0,0,-0.13,0.17,0.06,-0.27,0,0,0,0.23,0,0,0.0016036
12178,1.6448e+09,0,0,0,-0.13,0.17,0.06,-0.27,0,0,0,0.23,0,0,0.0016036
12222,1.6448e+09,0,0,0,-0.13,0.17,0.06,-0.27,0,0,0,0.23,0,0,0.0016036
12265,1.6448e+09,0,0,0,-0.13,0.17,0.06,-0.46,0,0,0,0.23,0,0,0.0016036
12307,1.6448e+09,0,0,0,-0.13,0.17,0.06,-0.46,0,0,0,0.28,0,0,0.0016036
12350,1.6448e+09,0,0,0,-0.13,0.17,0.06,-0.46,0,0,0,0.28,0,0,0.0016036
12396,1.6448e+09,0,0,0,-0.13,0.17,0.06,-0.46,0,0,0,0.28,0,0,0.0016036
12438,1.6448e+09,0,0,0,-0.13,0.17,0.06,-0.46,0,0,0,0.28,0,0,0.0016036
12483,1.6449e+09,0,0,0,-0.13,0.17,0.06,-0.46,0,0,0,0.28,0,0,0.0016036
12525,1.6449e+09,0,0,0,-0.13,0.17,0.06,-0.46,0,0,0,0.28,0,0,0.0016036
12572,1.6449e+09,0,0,0,-0.13,0.17,0.06,-0.46,0,0,0,0.28,0,0,0.0016036
12614,1.6449e+09,0,0,0,-0.13,0.17,0.06,-0.46,0,0,0,0.28,0,0,0.0016036
12656,1.6449e+09,0,0,0,-0.13,0.17,0.06,-0.46,0,0,0,0.28,0,0,0.0016036
12700,1.6449e+09,0,0,0,-0.13,0.17,0.06,-0.46,0,0,0,0.28,0,0,0.0016036
12745,1.6449e+09,0,0,0,-0.13,0.17,0.06,-0.5,0,0,0,-0.36,0,0,0.0016036
12788,1.6449e+09,0,0,0,-0.13,0.17,0.06,-0.5,0,0,0,-0.36,0,0,0.0016036
12836,1.6449e+09,0,0,0,-0.13,0.17,0.06,-0.5,0,0,0,-0.36,0,0,0.0016036
12876,1.645e+09,0,0.03,0,-0.15,0.17,0.07,-0.5,0,0,0,-0.36,0,0,0.0021479
12920,1.645e+09,0,0.03,0,-0.15,0.17,0.07,-0.5,0,0,0,-0.36,0,0,0.0021479
12969,1.645e+09,0,0.03,0,-0.15,0.17,0.07,-0.5,0,0,0,-0.36,0,0,0.0021479
13014,1.645e+09,0,0.03,0,-0.15,0.17,0.07,-0.5,0,0,0,-0.36,0,0,0.0021479
13059,1.645e+09,0,0.03,0,-0.15,0.17,0.07,-0.5,0,0,0,-0.36,0,0,0.0021479
13104,1.645e+09,0,0.03,0,-0.15,0.17,0.07,-0.5,0,0,0,-0.36,0,0,0.0021479
13148,1.645e+09,0,0.03,0,-0.15,0.17,0.07,-0.3,0,0,0,0.5,0,0,0.0021479
13192,1.645e+09,0,0.03,0,-0.15,0.17,0.07,-0.3,0,0,0,0.5,0,0,0.0021479
13236,1.645e+09,0,0.03,0,-0.15,0.17,0.07,-0.3,0,0,0,0.5,0,0,0.0021479
13281,1.645e+09,0,0.03,0,-0.15,0.17,0.07,-0.3,0,0,0,0.5,0,0,0.0021479
13326,1.6451e+09,0,0.03,0,-0.15,0.17,0.07,-0.3,0,0,0,0.5,0,0,0.0021479
13370,1.6451e+09,0,0.03,0,-0.15,0.17,0.07,-0.3,0,0,0,0.5,0,0,0.0021479
13419,1.6451e+09,0,0.03,0,-0.15,0.17,0.07,-0.3,0,0,0,0.5,0,0,0.0021479
13463,1.6451e+09,0,0.03,0,-0.15,0.17,0.07,-0.3,0,0,0,0.5,0,0,0.0021479
13508,1.6451e+09,0,0.03,0,-0.15,0.17,0.07,-0.3,0,0,0,0.5,0,0,0.0021479
13565,1.6452e+09,0,-0.04,0,-0.18,0.18,0.07,-0.5,0,0,0,0.75,0,0,0.0029101
13610,1.6452e+09,0,-0.04,0,-0.18,0.18,0.07,-0.5,0,0,0,0.75,0,0,0.0029101
13658,1.6452e+09,0,-0.04,0,-0.18,0.18,0.07,-0.5,0,0,0,0.75,0,0,0.0029101
13706,1.6452e+09,0,-0.04,0,-0.18,0.18,0.07,-0.5,0,0,0,0.75,0,0,0.0029101
13751,1.6452e+09,0,-0.04,0,-0.18,0.18,0.07,-0.5,0,0,0,0.75,0,0,0.0029101
13798,1.6452e+09,0,-0.04,0,-0.18,0.18,0.07,-0.5,0,0,0,-0.1,0,0,0.0029101
13843,1.6452e+09,0,-0.04,0,-0.18,0.18,0.07,-0.5,0,0,0,-0.1,0,0,0.0029101
13889,1.6452e+09,0,-0.04,0,-0.18,0.18,0.07,-0.5,0,0,0,-0.1,0,0,0.0029101
13934,1.6453e+09,0,-0.04,0,-0.18,0.18,0.07,-0.5,0,0,0,-0.1,0,0,0.0029101
13979,1.6453e+09,0,-0.04,0,-0.18,0.18,0.07,-0.5,0,0,0,-0.1,0,0,0.0029101
14025,1.6453e+09,0,-0.04,0,-0.18,0.18,0.07,-0.5,0,0,0,-0.1,0,0,0.0029101
14074,1.6453e+09,0,-0.04,0,-0.18,0.18,0.07,-0.5,0,0,0,-0.1,0,0,0.0029101
14119,1.6453e+09,0,-0.04,0,-0.18,0.18,0.07,-0.5,0,0,0,-0.1,0,0,0.0029101
14164,1.6453e+09,0,-0.04,0,-0.18,0.18,0.07,-0.5,0,0,0,-0.1,0,0,0.0029101
14209,1.6453e+09,0,-0.04,0,-0.18,0.18,0.07,-0.5,0,0,0,-0.1,0,0,0.0029101
14253,1.6453e+09,0,-0.04,0,-0.18,0.18,0.07,-0.34,0,0,0,-0.1,0,0,0.0029101
14298,1.6453e+09,0,-0.04,0,-0.18,0.18,0.07,-0.34,0,0,0,-0.1,0,0,0.0029101
14342,1.6453e+09,0,-0.04,0,-0.18,0.18,0.07,-0.34,0,0,0,0.35,0,0,0.0029101
14391,1.6454e+09,0,-0.04,0,-0.18,0.18,0.07,-0.34,0,0,0,0.35,0,0,0.0029101
14431,1.6454e+09,0,-0.03,0,-0.18,0.17,0.07,-0.34,0,0,0,0.35,0,0,0.0026312
14473,1.6454e+09,0,-0.03,0,-0.18,0.17,0.07,-0.34,0,0,0,0.35,0,0,0.0026312
14522,1.6454e+09,0,-0.03,0,-0.18,0.17,0.07,-0.34,0,0,0,0.35,0,0,0.0026312
14564,1.6454e+09,0,-0.03,0,-0.18,0.17,0.07,-0.34,0,0,0,0.35,0,0,0.0026312
14609,1.6454e+09,0,-0.03,0,-0.18,0.17,0.07,-0.34,0,0,0,0.35,0,0,0.0026312
14651,1.6454e+09,0,-0.03,0,-0.18,0.17,0.07,-0.34,0,0,0,0.35,0,0,0.0026312
14692,1.6454e+09,0,-0.03,0,-0.18,0.17,0.07,-0.5,0,0,0,0.37,0,0,0.0026312
14734,1.6454e+09,0,-0.03,0,-0.18,0.17,0.07,-0.5,0,0,0,0.37,0,0,0.0026312
14776,1.6455e+09,0,-0.03,0,-0.18,0.17,0.07,-0.5,0,0,0,0.37,0,0,0.0026312
14819,1.6455e+09,0,-0.03,0,-0.18,0.17,0.07,-0.5,0,0,0,0.37,0,0,0.0026312
14861,1.6455e+09,0,-0.03,0,-0.18,0.17,0.07,-0.5,0,0,0,0.37,0,0,0.0026312
14904,1.6455e+09,0,-0.03,0,-0.18,0.17,0.07,-0.5,0,0,0,0.37,0,0,0.0026312
14952,1.6455e+09,0,-0.03,0,-0.18,0.17,0.07,-0.5,0,0,0,0.37,0,0,0.0026312
14995,1.6455e+09,0,-0.03,0,-0.18,0.17,0.07,-0.5,0,0,0,0.37,0,0,0.0026312
15038,1.6455e+09,0,-0.03,0,-0.18,0.17,0.07,-0.5,0,0,0,0.37,0,0,0.0026312
15080,1.6455e+09,0,-0.03,0,-0.18,0.17,0.07,-0.5,0,0,0,0.37,0,0,0.0026312
15123,1.6455e+09,0,-0.03,0,-0.18,0.17,0.07,-0.5,0,0,0,0.37,0,0,0.0026312
15165,1.6455e+09,0,-0.03,0,-0.18,0.17,0.07,-0.5,0,0,0,1.54,0,0,0.0026312
15208,1.6456e+09,0,-0.03,0,-0.18,0.17,0.07,-0.5,0,0,0,1.54,0,0,0.0026312
15250,1.6456e+09,0,0.02,0,-0.18,0.17,0.07,-0.5,0,0,0,1.54,0,0,0.0027075
15295,1.6456e+09,0,0.02,0,-0.18,0.17,0.07,-0.5,0,0,0,1.54,0,0,0.0027075
15340,1.6456e+09,0,0.02,0,-0.18,0.17,0.07,-0.5,0,0,0,1.54,0,0,0.0027075
15388,1.6456e+09,0,0.02,0,-0.18,0.17,0.07,-0.5,0,0,0,1.54,0,0,0.0027075
15434,1.6456e+09,0,0.02,0,-0.18,0.17,0.07,-0.5,0,0,0,1.54,0,0,0.0027075
15478,1.6456e+09,0,0.02,0,-0.18,0.17,0.07,-0.5,0,0,0,1.54,0,0,0.0027075
15524,1.6456e+09,0,0.02,0,-0.18,0.17,0.07,-0.46,0,0,0,1.54,0,0,0.0027075
15571,1.6456e+09,0,0.02,0,-0.18,0.17,0.07,-0.46,0,0,0,1.65,0,0,0.0027075
15616,1.6457e+09,0,0.02,0,-0.18,0.17,0.07,-0.46,0,0,0,1.65,0,0,0.0027075
15661,1.6457e+09,0,0.02,0,-0.18,0.17,0.07,-0.46,0,0,0,1.65,0,0,0.0027075
15705,1.6457e+09,0,0.02,0,-0.18,0.17,0.07,-0.46,0,0,0,1.65,0,0,0.0027075
15750,1.6457e+09,0,0.02,0,-0.18,0.17,0.07,-0.46,0,0,0,1.65,0,0,0.0027075
15800,1.6457e+09,0,0.02,0,-0.18,0.17,0.07,-0.46,0,0,0,1.65,0,0,0.0027075
15844,1.6457e+09,0,0.02,0,-0.18,0.17,0.07,-0.46,0,0,0,1.65,0,0,0.0027075
15889,1.6457e+09,0,0.02,0,-0.18,0.17,0.07,-0.46,0,0,0,1.65,0,0,0.0027075
15934,1.6457e+09,0,0.02,0,-0.18,0.17,0.07,-0.46,0,0,0,1.65,0,0,0.0027075
15980,1.6457e+09,0,0.02,0,-0.18,0.17,0.07,-0.37,0,0,0,1.65,0,0,0.0027075
16026,1.6457e+09,0,0.02,0,-0.18,0.17,0.07,-0.37,0,0,0,2.06,0,0,0.0027075
16065,1.6458e+09,0,0.02,0,-0.11,0.16,0.07,-0.37,0,0,0,2.06,0,0,0.0013542
16110,1.6458e+09,0,0.02,0,-0.11,0.16,0.07,-0.37,0,0,0,2.06,0,0,0.0013542
16157,1.6458e+09,0,0.02,0,-0.11,0.16,0.07,-0.37,0,0,0,2.06,0,0,0.0013542
16202,1.6458e+09,0,0.02,0,-0.11,0.16,0.07,-0.37,0,0,0,2.06,0,0,0.0013542
16252,1.6458e+09,0,0.02,0,-0.11,0.16,0.07,-0.37,0,0,0,2.06,0,0,0.0013542
16297,1.6458e+09,0,0.02,0,-0.11,0.16,0.07,-0.37,0,0,0,2.06,0,0,0.0013542
16341,1.6458e+09,0,0.02,0,-0.11,0.16,0.07,-0.37,0,0,0,2.06,0,0,0.0013542
16388,1.6458e+09,0,0.02,0,-0.11,0.16,0.07,-0.37,0,0,0,2.06,0,0,0.0013542
16438,1.6458e+09,0,0.02,0,-0.11,0.16,0.07,-0.21,0,0,0,-0.74,0,0,0.0013542
16482,1.6459e+09,0,0.02,0,-0.11,0.16,0.07,-0.21,0,0,0,-0.74,0,0,0.0013542
16527,1.6459e+09,0,0.02,0,-0.11,0.16,0.07,-0.21,0,0,0,-0.74,0,0,0.0013542
16572,1.6459e+09,0,0.02,0,-0.11,0.16,0.07,-0.21,0,0,0,-0.74,0,0,0.0013542
16616,1.6459e+09,0,0.02,0,-0.11,0.16,0.07,-0.21,0,0,0,-0.74,0,0,0.0013542
16662,1.6459e+09,0,0.02,0,-0.11,0.16,0.07,-0.21,0,0,0,-0.74,0,0,0.0013542
16710,1.6459e+09,0,0.02,0,-0.11,0.16,0.07,-0.21,0,0,0,-0.74,0,0,0.0013542
16755,1.6459e+09,0,0.02,0,-0.11,0.16,0.07,-0.21,0,0,0,-0.74,0,0,0.0013542
16799,1.6459e+09,0,0.02,0,-0.11,0.16,0.07,-0.21,0,0,0,-0.74,0,0,0.0013542
16845,1.6459e+09,0,0.02,0,-0.11,0.16,0.07,-0.32,0,0,0,-0.74,0,0,0.0013542
16891,1.6459e+09,0,0.02,0,-0.11,0.16,0.07,-0.32,0,0,0,1.13,0,0,0.0013542
16934,1.646e+09,0,-0.02,-0.01,-0.11,0.17,0.08,-0.32,0,0,0,1.13,0,0,0.0012842
16976,1.646e+09,0,-0.02,-0.01,-0.11,0.17,0.08,-0.32,0,0,0,1.13,0,0,0.0012842
17019,1.646e+09,0,-0.02,-0.01,-0.11,0.17,0.08,-0.32,0,0,0,1.13,0,0,0.0012842
17062,1.646e+09,0,-0.02,-0.01,-0.11,0.17,0.08,-0.32,0,0,0,1.13,0,0,0.0012842
17104,1.646e+09,0,-0.02,-0.01,-0.11,0.17,0.08,-0.32,0,0,0,1.13,0,0,0.0012842
17151,1.646e+09,0,-0.02,-0.01,-0.11,0.17,0.08,-0.32,0,0,0,1.13,0,0,0.0012842
17193,1.646e+09,0,-0.02,-0.01,-0.11,0.17,0.08,-0.32,0,0,0,1.13,0,0,0.0012842
17235,1.646e+09,0,-0.02,-0.01,-0.11,0.17,0.08,-0.32,0,0,0,1.13,0,0,0.0012842
17280,1.646e+09,0,-0.02,-0.01,-0.11,0.17,0.08,-0.27,0,0,0,1.13,0,0,0.0012842
17322,1.646e+09,0,-0.02,-0.01,-0.11,0.17,0.08,-0.27,0,0,0,2.02,0,0,0.0012842
17369,1.6461e+09,0,-0.02,-0.01,-0.11,0.17,0.08,-0.27,0,0,0,2.02,0,0,0.0012842
17411,1.6461e+09,0,-0.02,-0.01,-0.11,0.17,0.08,-0.27,0,0,0,2.02,0,0,0.0012842
17454,1.6461e+09,0,-0.02,-0.01,-0.11,0.17,0.08,-0.27,0,0,0,2.02,0,0,0.0012842
17497,1.6461e+09,0,-0.02,-0.01,-0.11,0.17,0.08,-0.27,0,0,0,2.02,0,0,0.0012842
17539,1.6461e+09,0,-0.02,-0.01,-0.11,0.17,0.08,-0.27,0,0,0,2.02,0,0,0.0012842
17587,1.6461e+09,0,-0.02,-0.01,-0.11,0.17,0.08,-0.27,0,0,0,2.02,0,0,0.0012842
17629,1.6461e+09,0,-0.02,-0.01,-0.11,0.17,0.08,-0.27,0,0,0,2.02,0,0,0.0012842
17672,1.6461e+09,0,-0.02,-0.01,-0.11,0.17,0.08,-0.27,0,0,0,2.02,0,0,0.0012842
17714,1.6461e+09,0,-0.03,-0.01,-0.09,0.16,0.07,-0.31,0,0,0,1.28,0,0,0.0010893
17760,1.6462e+09,0,-0.03,-0.01,-0.09,0.16,0.07,-0.31,0,0,0,1.28,0,0,0.0010893
17805,1.6462e+09,0,-0.03,-0.01,-0.09,0.16,0.07,-0.31,0,0,0,1.28,0,0,0.0010893
17849,1.6462e+09,0,-0.03,-0.01,-0.09,0.16,0.07,-0.31,0,0,0,1.28,0,0,0.0010893
17893,1.6462e+09,0,-0.03,-0.01,-0.09,0.16,0.07,-0.31,0,0,0,1.28,0,0,0.0010893
17938,1.6462e+09,0,-0.03,-0.01,-0.09,0.16,0.07,-0.31,0,0,0,1.28,0,0,0.0010893
17986,1.6462e+09,0,-0.03,-0.01,-0.09,0.16,0.07,-0.31,0,0,0,1.28,0,0,0.0010893
18035,1.6462e+09,0,-0.03,-0.01,-0.09,0.16,0.07,-0.31,0,0,0,1.28,0,0,0.0010893
18080,1.6462e+09,0,-0.03,-0.01,-0.09,0.16,0.07,-0.31,0,0,0,1.28,0,0,0.0010893
18127,1.6462e+09,0,-0.03,-0.01,-0.09,0.16,0.07,-0.43,0,0,0,1.28,0,0,0.0010893
18175,1.6463e+09,0,-0.03,-0.01,-0.09,0.16,0.07,-0.43,0,0,0,0.83,0,0,0.0010893
18226,1.6463e+09,0,-0.03,-0.01,-0.09,0.16,0.07,-0.43,0,0,0,0.83,0,0,0.0010893
18271,1.6463e+09,0,-0.03,-0.01,-0.09,0.16,0.07,-0.43,0,0,0,0.83,0,0,0.0010893
18315,1.6463e+09,0,-0.03,-0.01,-0.09,0.16,0.07,-0.43,0,0,0,0.83,0,0,0.0010893
18360,1.6463e+09,0,-0.03,-0.01,-0.09,0.16,0.07,-0.43,0,0,0,0.83,0,0,0.0010893
18409,1.6463e+09,0,-0.03,-0.01,-0.09,0.16,0.07,-0.43,0,0,0,0.83,0,0,0.0010893
18454,1.6463e+09,0,-0.03,-0.01,-0.09,0.16,0.07,-0.43,0,0,0,0.83,0,0,0.0010893
18502,1.6463e+09,0,-0.03,-0.01,-0.09,0.16,0.07,-0.43,0,0,0,0.83,0,0,0.0010893
18548,1.6463e+09,0,-0.03,-0.01,-0.09,0.16,0.07,-0.43,0,0,0,0.83,0,0,0.0010893
18591,1.6464e+09,0,-0.02,-0.02,-0.12,0.16,0.07,-0.5,0,0,0,1.05,0,0,0.0013954
18635,1.6464e+09,0,-0.02,-0.02,-0.12,0.16,0.07,-0.5,0,0,0,1.05,0,0,0.0013954
18681,1.6464e+09,0,-0.02,-0.02,-0.12,0.16,0.07,-0.5,0,0,0,1.05,0,0,0.0013954
18726,1.6464e+09,0,-0.02,-0.02,-0.12,0.16,0.07,-0.5,0,0,0,1.05,0,0,0.0013954
18770,1.6464e+09,0,-0.02,-0.02,-0.12,0.16,0.07,-0.5,0,0,0,1.05,0,0,0.0013954
18815,1.6464e+09,0,-0.02,-0.02,-0.12,0.16,0.07,-0.5,0,0,0,1.05,0,0,0.0013954
18863,1.6464e+09,0,-0.02,-0.02,-0.12,0.16,0.07,-0.5,0,0,0,1.05,0,0,0.0013954
18908,1.6464e+09,0,-0.02,-0.02,-0.12,0.16,0.07,-0.5,0,0,0,1.05,0,0,0.0013954
18953,1.6464e+09,0,-0.02,-0.02,-0.12,0.16,0.07,-0.5,0,0,0,1.05,0,0,0.0013954
18998,1.6465e+09,0,-0.02,-0.02,-0.12,0.16,0.07,-0.5,0,0,0,1.05,0,0,0.0013954
19046,1.6465e+09,0,-0.02,-0.02,-0.12,0.16,0.07,-0.3,0,0,0,0.79,0,0,0.0013954
19091,1.6465e+09,0,-0.02,-0.02,-0.12,0.16,0.07,-0.3,0,0,0,0.79,0,0,0.0013954
19136,1.6465e+09,0,-0.02,-0.02,-0.12,0.16,0.07,-0.3,0,0,0,0.79,0,0,0.0013954
19181,1.6465e+09,0,-0.02,-0.02,-0.12,0.16,0.07,-0.3,0,0,0,0.79,0,0,0.0013954
19226,1.6465e+09,0,-0.02,-0.02,-0.12,0.16,0.07,-0.3,0,0,0,0.79,0,0,0.0013954
19270,1.6465e+09,0,-0.02,-0.02,-0.12,0.16,0.07,-0.3,0,0,0,0.79,0,0,0.0013954
19319,1.6465e+09,0,-0.02,-0.02,-0.12,0.16,0.07,-0.3,0,0,0,0.79,0,0,0.0013954
19364,1.6465e+09,0,-0.02,-0.02,-0.12,0.16,0.07,-0.3,0,0,0,0.79,0,0,0.0013954
19408,1.6465e+09,0,-0.02,-0.02,-0.12,0.16,0.07,-0.3,0,0,0,0.79,0,0,0.0013954
19456,1.6466e+09,0,-0.02,-0.02,-0.12,0.16,0.07,-0.3,0,0,0,0.79,0,0,0.0013954
19495,1.6466e+09,0,0,-0.02,-0.17,0.15,0.07,-0.18,0,0,0,2.25,0,0,0.0025285
19538,1.6466e+09,0,0,-0.02,-0.17,0.15,0.07,-0.18,0,0,0,2.25,0,0,0.0025285
19581,1.6466e+09,0,0,-0.02,-0.17,0.15,0.07,-0.18,0,0,0,2.25,0,0,0.0025285
19624,1.6466e+09,0,0,-0.02,-0.17,0.15,0.07,-0.18,0,0,0,2.25,0,0,0.0025285
19667,1.6466e+09,0,0,-0.02,-0.17,0.15,0.07,-0.18,0,0,0,2.25,0,0,0.0025285
19710,1.6466e+09,0,0,-0.02,-0.17,0.15,0.07,-0.18,0,0,0,2.25,0,0,0.0025285
19757,1.6466e+09,0,0,-0.02,-0.17,0.15,0.07,-0.18,0,0,0,2.25,0,0,0.0025285
19800,1.6466e+09,0,0,-0.02,-0.17,0.15,0.07,-0.18,0,0,0,2.25,0,0,0.0025285
19842,1.6466e+09,0,0,-0.02,-0.17,0.15,0.07,-0.18,0,0,0,2.25,0,0,0.0025285
19886,1.6467e+09,0,0,-0.02,-0.17,0.15,0.07,-0.26,0,0,0,2.25,0,0,0.0025285
19932,1.6467e+09,0,0,-0.02,-0.17,0.15,0.07,-0.26,0,0,0,-0.2,0,0,0.0025285
19974,1.6467e+09,0,0,-0.02,-0.17,0.15,0.07,-0.26,0,0,0,-0.2,0,0,0.0025285
20018,1.6467e+09,0,0,-0.02,-0.17,0.15,0.07,-0.26,0,0,0,-0.2,0,0,0.0025285
20061,1.6467e+09,0,0,-0.02,-0.17,0.15,0.07,-0.26,0,0,0,-0.2,0,0,0.0025285
20105,1.6467e+09,0,0,-0.02,-0.17,0.15,0.07,-0.26,0,0,0,-0.2,0,0,0.0025285
20152,1.6467e+09,0,0,-0.02,-0.17,0.15,0.07,-0.26,0,0,0,-0.2,0,0,0.0025285
20195,1.6467e+09,0,0,-0.02,-0.17,0.15,0.07,-0.26,0,0,0,-0.2,0,0,0.0025285
20237,1.6467e+09,0,0,-0.02,-0.17,0.15,0.07,-0.26,0,0,0,-0.2,0,0,0.0025285
20283,1.6468e+09,0,0,-0.02,-0.17,0.15,0.07,-0.26,0,0,0,-0.2,0,0,0.0025285
20325,1.6468e+09,0,-0.04,-0.01,-0.12,0.16,0.07,-0.26,0,0,0,-0.2,0,0,0.0015906
20369,1.6468e+09,0,-0.04,-0.01,-0.12,0.16,0.07,-0.5,0,0,0,1.72,0,0,0.0015906
20414,1.6468e+09,0,-0.04,-0.01,-0.12,0.16,0.07,-0.5,0,0,0,1.72,0,0,0.0015906
20458,1.6468e+09,0,-0.04,-0.01,-0.12,0.16,0.07,-0.5,0,0,0,1.72,0,0,0.0015906
20504,1.6468e+09,0,-0.04,-0.01,-0.12,0.16,0.07,-0.5,0,0,0,1.72,0,0,0.0015906
20549,1.6468e+09,0,-0.04,-0.01,-0.12,0.16,0.07,-0.5,0,0,0,1.72,0,0,0.0015906
20599,1.6468e+09,0,-0.04,-0.01,-0.12,0.16,0.07,-0.5,0,0,0,1.72,0,0,0.0015906
20644,1.6468e+09,0,-0.04,-0.01,-0.12,0.16,0.07,-0.5,0,0,0,1.72,0,0,0.0015906
20689,1.6469e+09,0,-0.04,-0.01,-0.12,0.16,0.07,-0.5,0,0,0,1.72,0,0,0.0015906
20734,1.6469e+09,0,-0.04,-0.01,-0.12,0.16,0.07,-0.5,0,0,0,1.72,0,0,0.0015906
20783,1.6469e+09,0,-0.04,-0.01,-0.12,0.16,0.07,-0.5,0,0,0,3.04,0,0,0.0015906
20828,1.6469e+09,0,-0.04,-0.01,-0.12,0.16,0.07,-0.5,0,0,0,3.04,0,0,0.0015906
20873,1.6469e+09,0,-0.04,-0.01,-0.12,0.16,0.07,-0.5,0,0,0,3.04,0,0,0.0015906
20919,1.6469e+09,0,-0.04,-0.01,-0.12,0.16,0.07,-0.5,0,0,0,3.04,0,0,0.0015906
20964,1.6469e+09,0,-0.04,-0.01,-0.12,0.16,0.07,-0.5,0,0,0,3.04,0,0,0.0015906
21008,1.6469e+09,0,-0.04,-0.01,-0.12,0.16,0.07,-0.5,0,0,0,3.04,0,0,0.0015906
21057,1.6469e+09,0,-0.04,-0.01,-0.12,0.16,0.07,-0.5,0,0,0,3.04,0,0,0.0015906
21104,1.647e+09,0,-0.03,-0.04,-0.14,0.15,0.08,-0.5,0,0,0,3.04,0,0,0.0019496
21145,1.647e+09,0,-0.03,-0.04,-0.14,0.15,0.08,-0.5,0,0,0,3.04,0,0,0.0019496
21194,1.647e+09,0,-0.03,-0.04,-0.14,0.15,0.08,-0.43,0,0,0,0.66,0,0,0.0019496
21239,1.647e+09,0,-0.03,-0.04,-0.14,0.15,0.08,-0.43,0,0,0,0.66,0,0,0.0019496
21284,1.647e+09,0,-0.03,-0.04,-0.14,0.15,0.08,-0.43,0,0,0,0.66,0,0,0.0019496
21328,1.647e+09,0,-0.03,-0.04,-0.14,0.15,0.08,-0.43,0,0,0,0.66,0,0,0.0019496
21373,1.647e+09,0,-0.03,-0.04,-0.14,0.15,0.08,-0.43,0,0,0,0.66,0,0,0.0019496
21418,1.647e+09,0,-0.03,-0.04,-0.14,0.15,0.08,-0.43,0,0,0,0.66,0,0,0.0019496
21467,1.647e+09,0,-0.03,-0.04,-0.14,0.15,0.08,-0.43,0,0,0,0.66,0,0,0.0019496
21512,1.647e+09,0,-0.03,-0.04,-0.14,0.15,0.08,-0.43,0,0,0,0.66,0,0,0.0019496
21557,1.6471e+09,0,-0.03,-0.04,-0.14,0.15,0.08,-0.43,0,0,0,0.66,0,0,0.0019496
21603,1.6471e+09,0,-0.03,-0.04,-0.14,0.15,0.08,-0.22,0,0,0,0.66,0,0,0.0019496
21647,1.6471e+09,0,-0.03,-0.04,-0.14,0.15,0.08,-0.22,0,0,0,0.66,0,0,0.0019496
21693,1.6471e+09,0,-0.03,-0.04,-0.14,0.15,0.08,-0.22,0,0,0,1.34,0,0,0.0019496
21737,1.6471e+09,0,-0.03,-0.04,-0.14,0.15,0.08,-0.22,0,0,0,1.34,0,0,0.0019496
21783,1.6471e+09,0,-0.03,-0.04,-0.14,0.15,0.08,-0.22,0,0,0,1.34,0,0,0.0019496
21827,1.6471e+09,0,-0.03,-0.04,-0.14,0.15,0.08,-0.22,0,0,0,1.34,0,0,0.0019496
21872,1.6471e+09,0,-0.03,-0.04,-0.14,0.15,0.08,-0.22,0,0,0,1.34,0,0,0.0019496
21921,1.6471e+09,0,-0.03,-0.04,-0.14,0.15,0.08,-0.22,0,0,0,1.34,0,0,0.0019496
21967,1.6472e+09,0,-0.03,-0.04,-0.14,0.15,0.08,-0.22,0,0,0,1.34,0,0,0.0019496
22009,1.6472e+09,0,0.02,-0.02,-0.08,0.13,0.08,-0.22,0,0,0,1.34,0,0,0.00091852
22055,1.6472e+09,0,0.02,-0.02,-0.08,0.13,0.08,-0.41,0,0,0,1.48,0,0,0.00091852
22098,1.6472e+09,0,0.02,-0.02,-0.08,0.13,0.08,-0.41,0,0,0,1.48,0,0,0.00091852
22140,1.6472e+09,0,0.02,-0.02,-0.08,0.13,0.08,-0.41,0,0,0,1.48,0,0,0.00091852
22183,1.6472e+09,0,0.02,-0.02,-0.08,0.13,0.08,-0.41,0,0,0,1.48,0,0,0.00091852
22227,1.6472e+09,0,0.02,-0.02,-0.08,0.13,0.08,-0.41,0,0,0,1.48,0,0,0.00091852
22270,1.6472e+09,0,0.02,-0.02,-0.08,0.13,0.08,-0.41,0,0,0,1.48,0,0,0.00091852
22313,1.6472e+09,0,0.02,-0.02,-0.08,0.13,0.08,-0.41,0,0,0,1.48,0,0,0.00091852
22359,1.6472e+09,0,0.02,-0.02,-0.08,0.13,0.08,-0.41,0,0,0,1.48,0,0,0.00091852
22404,1.6473e+09,0,0.02,-0.02,-0.08,0.13,0.08,-0.41,0,0,0,1.48,0,0,0.00091852
22446,1.6473e+09,0,0.02,-0.02,-0.08,0.13,0.08,-0.41,0,0,0,1.48,0,0,0.00091852
22490,1.6473e+09,0,0.02,-0.02,-0.08,0.13,0.08,-0.41,0,0,0,1.48,0,0,0.00091852
22536,1.6473e+09,0,0.02,-0.02,-0.08,0.13,0.08,-0.35,0,0,0,0.11,0,0,0.00091852
22578,1.6473e+09,0,0.02,-0.02,-0.08,0.13,0.08,-0.35,0,0,0,0.11,0,0,0.00091852
22621,1.6473e+09,0,0.02,-0.02,-0.08,0.13,0.08,-0.35,0,0,0,0.11,0,0,0.00091852
22663,1.6473e+09,0,0.02,-0.02,-0.08,0.13,0.08,-0.35,0,0,0,0.11,0,0,0.00091852
22707,1.6473e+09,0,0.02,-0.02,-0.08,0.13,0.08,-0.35,0,0,0,0.11,0,0,0.00091852
22748,1.6473e+09,0,0.02,-0.02,-0.08,0.13,0.08,-0.35,0,0,0,0.11,0,0,0.00091852
22794,1.6474e+09,0,0,0,-0.08,0.14,0.08,-0.35,0,0,0,0.11,0,0,0.00075562
22839,1.6474e+09,0,0,0,-0.08,0.14,0.08,-0.35,0,0,0,0.11,0,0,0.00075562
22884,1.6474e+09,0,0,0,-0.08,0.14,0.08,-0.35,0,0,0,0.11,0,0,0.00075562
22932,1.6474e+09,0,0,0,-0.08,0.14,0.08,-0.34,0,0,0,0.88,0,0,0.00075562
22976,1.6474e+09,0,0,0,-0.08,0.14,0.08,-0.34,0,0,0,0.88,0,0,0.00075562
23021,1.6474e+09,0,0,0,-0.08,0.14,0.08,-0.34,0,0,0,0.88,0,0,0.00075562
23067,1.6474e+09,0,0,0,-0.08,0.14,0.08,-0.34,0,0,0,0.88,0,0,0.00075562
23112,1.6474e+09,0,0,0,-0.08,0.14,0.08,-0.34,0,0,0,0.88,0,0,0.00075562
23157,1.6474e+09,0,0,0,-0.08,0.14,0.08,-0.34,0,0,0,0.88,0,0,0.00075562
23205,1.6475e+09,0,0,0,-0.08,0.14,0.08,-0.34,0,0,0,0.88,0,0,0.00075562
23250,1.6475e+09,0,0,0,-0.08,0.14,0.08,-0.34,0,0,0,0.88,0,0,0.00075562
23295,1.6475e+09,0,0,0,-0.08,0.14,0.08,-0.34,0,0,0,0.88,0,0,0.00075562
23340,1.6475e+09,0,0,0,-0.08,0.14,0.08,-0.5,0,0,0,0.88,0,0,0.00091393
23388,1.6475e+09,0,0,0,-0.08,0.14,0.08,-0.5,0,0,0,2.28,0,0,0.00091393
23429,1.6475e+09,0,0,0,-0.08,0.14,0.08,-0.5,0,0,0,2.28,0,0,0.00091393
23474,1.6475e+09,0,0,0,-0.08,0.14,0.08,-0.5,0,0,0,2.28,0,0,0.00091393
23518,1.6475e+09,0,0,0,-0.08,0.14,0.08,-0.5,0,0,0,2.28,0,0,0.00091393
23565,1.6475e+09,0,0,0,-0.08,0.14,0.08,-0.5,0,0,0,2.28,0,0,0.00091393
23612,1.6475e+09,0,0,0,-0.08,0.14,0.08,-0.5,0,0,0,2.28,0,0,0.00091393
23654,1.6476e+09,0,0,0,-0.08,0.14,0.08,-0.5,0,0,0,2.28,0,0,0.00091393
23699,1.6476e+09,0,0,0,-0.08,0.14,0.08,-0.5,0,0,0,2.28,0,0,0.00091393
23743,1.6476e+09,0,0,0,-0.08,0.14,0.08,-0.5,0,0,0,2.28,0,0,0.00091393
23788,1.6476e+09,0,0,0,-0.08,0.14,0.08,-0.5,0,0,0,2.28,0,0,0.00091393
23833,1.6476e+09,0,0,0,-0.08,0.14,0.08,-0.07,0,0,0,2.28,0,0,0.00082876
23878,1.6476e+09,0,0,0,-0.08,0.14,0.08,-0.07,0,0,0,1.3,0,0,0.00082876
23922,1.6476e+09,0,0,0,-0.08,0.14,0.08,-0.07,0,0,0,1.3,0,0,0.00082876
23968,1.6476e+09,0,0,0,-0.08,0.14,0.08,-0.07,0,0,0,1.3,0,0,0.00082876
24014,1.6476e+09,0,0,0,-0.08,0.14,0.08,-0.07,0,0,0,1.3,0,0,0.00082876
24058,1.6477e+09,0,0,0,-0.08,0.14,0.08,-0.07,0,0,0,1.3,0,0,0.00082876
24107,1.6477e+09,0,0,0,-0.08,0.14,0.08,-0.07,0,0,0,1.3,0,0,0.00082876
24151,1.6477e+09,0,0,0,-0.08,0.14,0.08,-0.07,0,0,0,1.3,0,0,0.00082876
24197,1.6477e+09,0,0,0,-0.08,0.14,0.08,-0.07,0,0,0,1.3,0,0,0.00082876
24242,1.6477e+09,0,0,0,-0.08,0.14,0.08,-0.07,0,0,0,1.3,0,0,0.00082876
24286,1.6477e+09,0,0,0,-0.08,0.14,0.08,-0.07,0,0,0,1.3,0,0,0.00082876
24334,1.6477e+09,0,0,0,-0.08,0.14,0.08,-0.26,0,0,0,1.65,0,0,0.00082876
24379,1.6477e+09,0,0,0,-0.08,0.14,0.08,-0.26,0,0,0,1.65,0,0,0.00082876
24425,1.6477e+09,0,0,0,-0.08,0.14,0.08,-0.26,0,0,0,1.65,0,0,0.00082876
24472,1.6477e+09,0,0,0,-0.08,0.14,0.08,-0.26,0,0,0,1.65,0,0,0.00082876
24520,1.6478e+09,0,0.01,-0.03,-0.15,0.14,0.08,-0.26,0,0,0,1.65,0,0,0.0020632
24566,1.6478e+09,0,0.01,-0.03,-0.15,0.14,0.08,-0.26,0,0,0,1.65,0,0,0.0020632
24608,1.6478e+09,0,0.01,-0.03,-0.15,0.14,0.08,-0.26,0,0,0,1.65,0,0,0.0020632
24652,1.6478e+09,0,0.01,-0.03,-0.15,0.14,0.08,-0.26,0,0,0,1.65,0,0,0.0020632
24695,1.6478e+09,0,0.01,-0.03,-0.15,0.14,0.08,-0.26,0,0,0,1.65,0,0,0.0020632
24737,1.6478e+09,0,0.01,-0.03,-0.15,0.14,0.08,-0.08,0,0,0,1.9,0,0,0.0020632
24781,1.6478e+09,0,0.01,-0.03,-0.15,0.14,0.08,-0.08,0,0,0,1.9,0,0,0.0020632
24823,1.6478e+09,0,0.01,-0.03,-0.15,0.14,0.08,-0.08,0,0,0,1.9,0,0,0.0020632
24866,1.6478e+09,0,0.01,-0.03,-0.15,0.14,0.08,-0.08,0,0,0,1.9,0,0,0.0020632
24908,1.6479e+09,0,0.01,-0.03,-0.15,0.14,0.08,-0.08,0,0,0,1.9,0,0,0.0020632
24954,1.6479e+09,0,0.01,-0.03,-0.15,0.14,0.08,-0.08,0,0,0,1.9,0,0,0.0020632
25001,1.6479e+09,0,0.01,-0.03,-0.15,0.14,0.08,-0.08,0,0,0,1.9,0,0,0.0020632
25044,1.6479e+09,0,0.01,-0.03,-0.15,0.14,0.08,-0.08,0,0,0,1.9,0,0,0.0020632
25087,1.6479e+09,0,0.01,-0.03,-0.15,0.14,0.08,-0.08,0,0,0,1.9,0,0,0.0020632
25129,1.6479e+09,0,0.01,-0.03,-0.15,0.14,0.08,-0.08,0,0,0,1.9,0,0,0.0020632
25172,1.6479e+09,0,0.01,-0.03,-0.15,0.14,0.08,0.02,0,0,0,1.9,0,0,0.0020632
25214,1.6479e+09,0,0.01,-0.03,-0.15,0.14,0.08,0.02,0,0,0,-1.43,0,0,0.0020632
25258,1.6479e+09,0,0.01,-0.03,-0.15,0.14,0.08,0.02,0,0,0,-1.43,0,0,0.0020632
25301,1.6479e+09,0,0.01,-0.03,-0.15,0.14,0.08,0.02,0,0,0,-1.43,0,0,0.0020632
25344,1.648e+09,0,0.01,-0.03,-0.15,0.14,0.08,0.02,0,0,0,-1.43,0,0,0.0020632
25389,1.648e+09,0,0.01,-0.03,-0.15,0.14,0.08,0.02,0,0,0,-1.43,0,0,0.0020632
25430,1.648e+09,0,0.03,-0.01,-0.05,0.14,0.07,0.02,0,0,0,-1.43,0,0,0.00067636
25474,1.648e+09,0,0.03,-0.01,-0.05,0.14,0.07,0.02,0,0,0,-1.43,0,0,0.00067636
25519,1.648e+09,0,0.03,-0.01,-0.05,0.14,0.07,0.02,0,0,0,-1.43,0,0,0.00067636
25563,1.648e+09,0,0.03,-0.01,-0.05,0.14,0.07,0.02,0,0,0,-1.43,0,0,0.00067636
25609,1.648e+09,0,0.03,-0.01,-0.05,0.14,0.07,0.02,0,0,0,-1.43,0,0,0.00067636
25654,1.648e+09,0,0.03,-0.01,-0.05,0.14,0.07,-0.13,0,0,0,0.92,0,0,0.00067636
25698,1.648e+09,0,0.03,-0.01,-0.05,0.14,0.07,-0.13,0,0,0,0.92,0,0,0.00067636
25743,1.648e+09,0,0.03,-0.01,-0.05,0.14,0.07,-0.13,0,0,0,0.92,0,0,0.00067636
25788,1.6481e+09,0,0.03,-0.01,-0.05,0.14,0.07,-0.13,0,0,0,0.92,0,0,0.00067636
25833,1.6481e+09,0,0.03,-0.01,-0.05,0.14,0.07,-0.13,0,0,0,0.92,0,0,0.00067636
25882,1.6481e+09,0,0.03,-0.01,-0.05,0.14,0.07,-0.13,0,0,0,0.92,0,0,0.00067636
25927,1.6481e+09,0,0.03,-0.01,-0.05,0.14,0.07,-0.13,0,0,0,0.92,0,0,0.00067636
25972,1.6481e+09,0,0.03,-0.01,-0.05,0.14,0.07,-0.13,0,0,0,0.92,0,0,0.00067636
26017,1.6481e+09,0,0.03,-0.01,-0.05,0.14,0.07,-0.13,0,0,0,0.92,0,0,0.00067636
26062,1.6481e+09,0,0.03,-0.01,-0.05,0.14,0.07,0,0,0,0,1.61,0,0,0.00067636
26106,1.6481e+09,0,0.03,-0.01,-0.05,0.14,0.07,0,0,0,0,1.61,0,0,0.00067636
26151,1.6481e+09,0,0.03,-0.01,-0.05,0.14,0.07,0,0,0,0,1.61,0,0,0.00067636
26194,1.6482e+09,0,0.02,-0.03,-0.04,0.14,0.08,0,0,0,0,1.61,0,0,0.0006018
26239,1.6482e+09,0,0.02,-0.03,-0.04,0.14,0.08,0,0,0,0,1.61,0,0,0.0006018
26285,1.6482e+09,0,0.02,-0.03,-0.04,0.14,0.08,0,0,0,0,1.61,0,0,0.0006018
26334,1.6482e+09,0,0.02,-0.03,-0.04,0.14,0.08,0,0,0,0,1.61,0,0,0.0006018
26378,1.6482e+09,0,0.02,-0.03,-0.04,0.14,0.08,0,0,0,0,1.61,0,0,0.0006018
26423,1.6482e+09,0,0.02,-0.03,-0.04,0.14,0.08,0,0,0,0,1.61,0,0,0.0006018
26468,1.6482e+09,0,0.02,-0.03,-0.04,0.14,0.08,0,0,0,0,1.61,0,0,0.0006018
26512,1.6482e+09,0,0.02,-0.03,-0.04,0.14,0.08,-0.2,0,0,0,1.65,0,0,0.0006018
26557,1.6482e+09,0,0.02,-0.03,-0.04,0.14,0.08,-0.2,0,0,0,1.65,0,0,0.0006018
26603,1.6483e+09,0,0.02,-0.03,-0.04,0.14,0.08,-0.2,0,0,0,1.65,0,0,0.0006018
26648,1.6483e+09,0,0.02,-0.03,-0.04,0.14,0.08,-0.2,0,0,0,1.65,0,0,0.0006018
26692,1.6483e+09,0,0.02,-0.03,-0.04,0.14,0.08,-0.2,0,0,0,1.65,0,0,0.0006018
26739,1.6483e+09,0,0.02,-0.03,-0.04,0.14,0.08,-0.2,0,0,0,1.65,0,0,0.0006018
26787,1.6483e+09,0,0.02,-0.03,-0.04,0.14,0.08,-0.2,0,0,0,1.65,0,0,0.0006018
26833,1.6483e+09,0,0.02,-0.03,-0.04,0.14,0.08,-0.2,0,0,0,1.65,0,0,0.0006018
26878,1.6483e+09,0,0.02,-0.03,-0.04,0.14,0.08,-0.2,0,0,0,1.65,0,0,0.0006018
26922,1.6483e+09,0,0.02,-0.03,-0.04,0.14,0.08,-0.2,0,0,0,1.65,0,0,0.0006018
26967,1.6483e+09,0,0.02,-0.03,-0.04,0.14,0.08,0,0,0,0,1.37,0,0,0.0006018
27011,1.6483e+09,0,0.02,-0.03,-0.04,0.14,0.08,0,0,0,0,1.37,0,0,0.0006018
27058,1.6484e+09,0,0.02,-0.03,-0.04,0.14,0.08,0,0,0,0,1.37,0,0,0.0006018
27100,1.6484e+09,0,-0.03,-0.04,-0.02,0.14,0.07,0,0,0,0,1.37,0,0,0.00054806
27142,1.6484e+09,0,-0.03,-0.04,-0.02,0.14,0.07,0,0,0,0,1.37,0,0,0.00054806
27185,1.6484e+09,0,-0.03,-0.04,-0.02,0.14,0.07,0,0,0,0,1.37,0,0,0.00054806
27232,1.6484e+09,0,-0.03,-0.04,-0.02,0.14,0.07,0,0,0,0,1.37,0,0,0.00054806
27275,1.6484e+09,0,-0.03,-0.04,-0.02,0.14,0.07,0,0,0,0,1.37,0,0,0.00054806
27318,1.6484e+09,0,-0.03,-0.04,-0.02,0.14,0.07,0.07,0,0,0,1.37,0,0,0.00054806
27364,1.6484e+09,0,-0.03,-0.04,-0.02,0.14,0.07,0.07,0,0,0,0.9,0,0,0.00054806
27407,1.6484e+09,0,-0.03,-0.04,-0.02,0.14,0.07,0.07,0,0,0,0.9,0,0,0.00054806
27449,1.6485e+09,0,-0.03,-0.04,-0.02,0.14,0.07,0.07,0,0,0,0.9,0,0,0.00054806
27492,1.6485e+09,0,-0.03,-0.04,-0.02,0.14,0.07,0.07,0,0,0,0.9,0,0,0.00054806
27535,1.6485e+09,0,-0.03,-0.04,-0.02,0.14,0.07,0.07,0,0,0,0.9,0,0,0.00054806
27577,1.6485e+09,0,-0.03,-0.04,-0.02,0.14,0.07,0.07,0,0,0,0.9,0,0,0.00054806
27624,1.6485e+09,0,-0.03,-0.04,-0.02,0.14,0.07,0.07,0,0,0,0.9,0,0,0.00054806
27668,1.6485e+09,0,-0.03,-0.04,-0.02,0.14,0.07,0.07,0,0,0,0.9,0,0,0.00054806
27711,1.6485e+09,0,-0.03,-0.04,-0.02,0.14,0.07,0.07,0,0,0,0.9,0,0,0.00054806
27757,1.6485e+09,0,-0.03,-0.04,-0.02,0.14,0.07,0.12,0,0,0,0.9,0,0,0.00054806
27805,1.6485e+09,0,-0.03,-0.04,-0.02,0.14,0.07,0.12,0,0,0,0.6,0,0,0.00054806
27841,1.6486e+09,0,0.02,0,-0.05,0.13,0.07,0.12,0,0,0,0.6,0,0,0.00050767
27885,1.6486e+09,0,0.02,0,-0.05,0.13,0.07,0.12,0,0,0,0.6,0,0,0.00050767
27929,1.6486e+09,0,0.02,0,-0.05,0.13,0.07,0.12,0,0,0,0.6,0,0,0.00050767
27973,1.6486e+09,0,0.02,0,-0.05,0.13,0.07,0.12,0,0,0,0.6,0,0,0.00050767
28017,1.6486e+09,0,0.02,0,-0.05,0.13,0.07,0.12,0,0,0,0.6,0,0,0.00050767
28067,1.6486e+09,0,0.02,0,-0.05,0.13,0.07,0.12,0,0,0,0.6,0,0,0.00050767
28111,1.6486e+09,0,0.02,0,-0.05,0.13,0.07,0.12,0,0,0,0.6,0,0,0.00050767
28157,1.6486e+09,0,0.02,0,-0.05,0.13,0.07,0.12,0,0,0,0.6,0,0,0.00050767
28202,1.6486e+09,0,0.02,0,-0.05,0.13,0.07,-0.16,0,0,0,0.6,0,0,0.00050767
28246,1.6487e+09,0,0.02,0,-0.05,0.13,0.07,-0.16,0,0,0,1.26,0,0,0.00050767
28291,1.6487e+09,0,0.02,0,-0.05,0.13,0.07,-0.16,0,0,0,1.26,0,0,0.00050767
28335,1.6487e+09,0,0.02,0,-0.05,0.13,0.07,-0.16,0,0,0,1.26,0,0,0.00050767
28380,1.6487e+09,0,0.02,0,-0.05,0.13,0.07,-0.16,0,0,0,1.26,0,0,0.00050767
28426,1.6487e+09,0,0.02,0,-0.05,0.13,0.07,-0.16,0,0,0,1.26,0,0,0.00050767
28472,1.6487e+09,0,0.02,0,-0.05,0.13,0.07,-0.16,0,0,0,1.26,0,0,0.00050767
28520,1.6487e+09,0,0.02,0,-0.05,0.13,0.07,-0.16,0,0,0,1.26,0,0,0.00050767
28566,1.6487e+09,0,0.02,0,-0.05,0.13,0.07,-0.16,0,0,0,1.26,0,0,0.00050767
28615,1.6487e+09,0,0.02,0,-0.05,0.13,0.07,-0.16,0,0,0,1.26,0,0,0.00050767
28659,1.6488e+09,0,0.02,-0.02,-0.1,0.13,0.08,-0.42,0,0,0,1.26,0,0,0.0011122
28703,1.6488e+09,0,0.02,-0.02,-0.1,0.13,0.08,-0.42,0,0,0,0.25,0,0,0.0011122
28749,1.6488e+09,0,0.02,-0.02,-0.1,0.13,0.08,-0.42,0,0,0,0.25,0,0,0.0011122
28795,1.6488e+09,0,0.02,-0.02,-0.1,0.13,0.08,-0.42,0,0,0,0.25,0,0,0.0011122
28839,1.6488e+09,0,0.02,-0.02,-0.1,0.13,0.08,-0.42,0,0,0,0.25,0,0,0.0011122
28885,1.6488e+09,0,0.02,-0.02,-0.1,0.13,0.08,-0.42,0,0,0,0.25,0,0,0.0011122
28937,1.6488e+09,0,0.02,-0.02,-0.1,0.13,0.08,-0.42,0,0,0,0.25,0,0,0.0011122
28982,1.6488e+09,0,0.02,-0.02,-0.1,0.13,0.08,-0.42,0,0,0,0.25,0,0,0.0011122
29027,1.6488e+09,0,0.02,-0.02,-0.1,0.13,0.08,-0.42,0,0,0,0.25,0,0,0.0011122
29071,1.6489e+09,0,0.02,-0.02,-0.1,0.13,0.08,-0.42,0,0,0,0.25,0,0,0.0011122
29116,1.6489e+09,0,0.02,-0.02,-0.1,0.13,0.08,-0.5,0,0,0,0.25,0,0,0.0011122
29160,1.6489e+09,0,0.02,-0.02,-0.1,0.13,0.08,-0.5,0,0,0,-0.02,0,0,0.0011122
29205,1.6489e+09,0,0.02,-0.02,-0.1,0.13,0.08,-0.5,0,0,0,-0.02,0,0,0.0011122
29250,1.6489e+09,0,0.02,-0.02,-0.1,0.13,0.08,-0.5,0,0,0,-0.02,0,0,0.0011122
29295,1.6489e+09,0,0.02,-0.02,-0.1,0.13,0.08,-0.5,0,0,0,-0.02,0,0,0.0011122
29342,1.6489e+09,0,0.02,-0.02,-0.1,0.13,0.08,-0.5,0,0,0,-0.02,0,0,0.0011122
29390,1.6489e+09,0,0.02,-0.02,-0.1,0.13,0.08,-0.5,0,0,0,-0.02,0,0,0.0011122
29436,1.6489e+09,0,0.02,-0.02,-0.1,0.13,0.08,-0.5,0,0,0,-0.02,0,0,0.0011122
29481,1.6489e+09,0,0.02,-0.02,-0.1,0.13,0.08,-0.5,0,0,0,-0.02,0,0,0.0011122
29525,1.649e+09,0,-0.18,-0.1,-0.14,0.13,0.08,-0.5,0,0,0,-0.02,0,0,0.0046369
29567,1.649e+09,0,-0.18,-0.1,-0.14,0.13,0.08,-0.5,0,0,0,-0.82,0,0,0.0046369
29609,1.649e+09,0,-0.18,-0.1,-0.14,0.13,0.08,-0.5,0,0,0,-0.82,0,0,0.0046369
29652,1.649e+09,0,-0.18,-0.1,-0.14,0.13,0.08,-0.5,0,0,0,-0.82,0,0,0.0046369
29694,1.649e+09,0,-0.18,-0.1,-0.14,0.13,0.08,-0.5,0,0,0,-0.82,0,0,0.0046369
29738,1.649e+09,0,-0.18,-0.1,-0.14,0.13,0.08,-0.5,0,0,0,-0.82,0,0,0.0046369
29781,1.649e+09,0,-0.18,-0.1,-0.14,0.13,0.08,-0.5,0,0,0,-0.82,0,0,0.0046369
29828,1.649e+09,0,-0.18,-0.1,-0.14,0.13,0.08,-0.5,0,0,0,-0.82,0,0,0.0046369
29871,1.649e+09,0,-0.18,-0.1,-0.14,0.13,0.08,-0.5,0,0,0,-0.82,0,0,0.0046369
29913,1.6491e+09,0,-0.18,-0.1,-0.14,0.13,0.08,-0.5,0,0,0,-0.82,0,0,0.0046369
29956,1.6491e+09,0,-0.18,-0.1,-0.14,0.13,0.08,-0.5,0,0,0,-0.82,0,0,0.0046369
30000,1.6491e+09,0,-0.18,-0.1,-0.14,0.13,0.08,-0.35,0,0,0,0.02,0,0,0.0046369
30043,1.6491e+09,0,-0.18,-0.1,-0.14,0.13,0.08,-0.35,0,0,0,0.02,0,0,0.0046369
30085,1.6491e+09,0,-0.18,-0.1,-0.14,0.13,0.08,-0.35,0,0,0,0.02,0,0,0.0046369
30128,1.6491e+09,0,-0.18,-0.1,-0.14,0.13,0.08,-0.35,0,0,0,0.02,0,0,0.0046369
30171,1.6491e+09,0,-0.18,-0.1,-0.14,0.13,0.08,-0.35,0,0,0,0.02,0,0,0.0046369
30213,1.6491e+09,0,-0.18,-0.1,-0.14,0.13,0.08,-0.35,0,0,0,0.02,0,0,0.0046369
30260,1.6491e+09,0,-0.18,-0.1,-0.14,0.13,0.08,-0.35,0,0,0,0.02,0,0,0.0046369
30304,1.6491e+09,0,-0.18,-0.1,-0.14,0.13,0.08,-0.35,0,0,0,0.02,0,0,0.0046369
30351,1.6492e+09,0,-0.18,-0.1,-0.14,0.13,0.08,-0.35,0,0,0,0.02,0,0,0.0046369
30388,1.6492e+09,0,0.06,0.04,-0.13,0.09,0.07,-0.5,0,0,0,-1.92,0,0,0.0018363
30432,1.6492e+09,0,0.06,0.04,-0.13,0.09,0.07,-0.5,0,0,0,-1.92,0,0,0.0018363
30478,1.6492e+09,0,0.06,0.04,-0.13,0.09,0.07,-0.5,0,0,0,-1.92,0,0,0.0018363
30523,1.6492e+09,0,0.06,0.04,-0.13,0.09,0.07,-0.5,0,0,0,-1.92,0,0,0.0018363
30567,1.6492e+09,0,0.06,0.04,-0.13,0.09,0.07,-0.5,0,0,0,-1.92,0,0,0.0018363
30612,1.6492e+09,0,0.06,0.04,-0.13,0.09,0.07,-0.5,0,0,0,-1.92,0,0,0.0018363
30656,1.6492e+09,0,0.06,0.04,-0.13,0.09,0.07,-0.5,0,0,0,-1.92,0,0,0.0018363
30707,1.6492e+09,0,0.06,0.04,-0.13,0.09,0.07,-0.5,0,0,0,-1.92,0,0,0.0018363
30753,1.6493e+09,0,0.06,0.04,-0.13,0.09,0.07,-0.5,0,0,0,-1.92,0,0,0.0018363
30798,1.6493e+09,0,0.06,0.04,-0.13,0.09,0.07,-0.5,0,0,0,-1.92,0,0,0.0018363
30843,1.6493e+09,0,0.06,0.04,-0.13,0.09,0.07,-0.5,0,0,0,-1.92,0,0,0.0018363
30887,1.6493e+09,0,0.06,0.04,-0.13,0.09,0.07,-0.39,0,0,0,-0.82,0,0,0.0018363
30932,1.6493e+09,0,0.06,0.04,-0.13,0.09,0.07,-0.39,0,0,0,-0.82,0,0,0.0018363
30976,1.6493e+09,0,0.06,0.04,-0.13,0.09,0.07,-0.39,0,0,0,-0.82,0,0,0.0018363
31021,1.6493e+09,0,0.06,0.04,-0.13,0.09,0.07,-0.39,0,0,0,-0.82,0,0,0.0018363
31065,1.6493e+09,0,0.06,0.04,-0.13,0.09,0.07,-0.39,0,0,0,-0.82,0,0,0.0018363
31110,1.6493e+09,0,0.06,0.04,-0.13,0.09,0.07,-0.39,0,0,0,-0.82,0,0,0.0018363
31161,1.6494e+09,0,0.11,-0.23,0.01,0.08,0.09,-0.39,0,0,0,-0.82,0,0,0.0046254
31204,1.6494e+09,0,0.11,-0.23,0.01,0.08,0.09,-0.39,0,0,0,-0.82,0,0,0.0046254
31249,1.6494e+09,0,0.11,-0.23,0.01,0.08,0.09,-0.39,0,0,0,-0.82,0,0,0.0046254
31297,1.6494e+09,0,0.11,-0.23,0.01,0.08,0.09,-0.31,0,0,0,-0.82,0,0,0.0046254
31341,1.6494e+09,0,0.11,-0.23,0.01,0.08,0.09,-0.31,0,0,0,-1.74,0,0,0.0046254
31386,1.6494e+09,0,0.11,-0.23,0.01,0.08,0.09,-0.31,0,0,0,-1.74,0,0,0.0046254
31430,1.6494e+09,0,0.11,-0.23,0.01,0.08,0.09,-0.31,0,0,0,-1.74,0,0,0.0046254
31475,1.6494e+09,0,0.11,-0.23,0.01,0.08,0.09,-0.31,0,0,0,-1.74,0,0,0.0046254
31520,1.6494e+09,0,0.11,-0.23,0.01,0.08,0.09,-0.31,0,0,0,-1.74,0,0,0.0046254
31569,1.6495e+09,0,0.11,-0.23,0.01,0.08,0.09,-0.31,0,0,0,-1.74,0,0,0.0046254
31614,1.6495e+09,0,0.11,-0.23,0.01,0.08,0.09,-0.31,0,0,0,-1.74,0,0,0.0046254
31658,1.6495e+09,0,0.11,-0.23,0.01,0.08,0.09,-0.31,0,0,0,-1.74,0,0,0.0046254
31703,1.6495e+09,0,0.11,-0.23,0.01,0.08,0.09,-0.31,0,0,0,-1.74,0,0,0.0046254
31747,1.6495e+09,0,0.11,-0.23,0.01,0.08,0.09,0.02,0,0,0,-0.59,0,0,0.0046254
31792,1.6495e+09,0,0.11,-0.23,0.01,0.08,0.09,0.02,0,0,0,-0.59,0,0,0.0046254
31838,1.6495e+09,0,0.11,-0.23,0.01,0.08,0.09,0.02,0,0,0,-0.59,0,0,0.0046254
31882,1.6495e+09,0,0.11,-0.23,0.01,0.08,0.09,0.02,0,0,0,-0.59,0,0,0.0046254
31927,1.6495e+09,0,0.11,-0.23,0.01,0.08,0.09,0.02,0,0,0,-0.59,0,0,0.0046254
31970,1.6496e+09,0,0.06,-0.02,-0.2,0.08,0.07,0.02,0,0,0,-0.59,0,0,0.0031656
32016,1.6496e+09,0,0.06,-0.02,-0.2,0.08,0.07,0.02,0,0,0,-0.59,0,0,0.0031656
32060,1.6496e+09,0,0.06,-0.02,-0.2,0.08,0.07,0.02,0,0,0,-0.59,0,0,0.0031656
32105,1.6496e+09,0,0.06,-0.02,-0.2,0.08,0.07,0.02,0,0,0,-0.59,0,0,0.0031656
32150,1.6496e+09,0,0.06,-0.02,-0.2,0.08,0.07,0.02,0,0,0,-0.59,0,0,0.0031656
32194,1.6496e+09,0,0.06,-0.02,-0.2,0.08,0.07,0.02,0,0,0,-0.59,0,0,0.0031656
32240,1.6496e+09,0,0.06,-0.02,-0.2,0.08,0.07,-0.12,0,0,0,-2.25,0,0,0.0031656
32284,1.6496e+09,0,0.06,-0.02,-0.2,0.08,0.07,-0.12,0,0,0,-2.25,0,0,0.0031656
32329,1.6496e+09,0,0.06,-0.02,-0.2,0.08,0.07,-0.12,0,0,0,-2.25,0,0,0.0031656
32375,1.6496e+09,0,0.06,-0.02,-0.2,0.08,0.07,-0.12,0,0,0,-2.25,0,0,0.0031656
32419,1.6497e+09,0,0.06,-0.02,-0.2,0.08,0.07,-0.12,0,0,0,-2.25,0,0,0.0031656
32468,1.6497e+09,0,0.06,-0.02,-0.2,0.08,0.07,-0.12,0,0,0,-2.25,0,0,0.0031656
32512,1.6497e+09,0,0.06,-0.02,-0.2,0.08,0.07,-0.12,0,0,0,-2.25,0,0,0.0031656
32557,1.6497e+09,0,0.06,-0.02,-0.2,0.08,0.07,-0.12,0,0,0,-2.25,0,0,0.0031656
32601,1.6497e+09,0,0.06,-0.02,-0.2,0.08,0.07,-0.12,0,0,0,-2.25,0,0,0.0031656
32646,1.6497e+09,0,0.06,-0.02,-0.2,0.08,0.07,-0.01,0,0,0,-3.65,0,0,0.0031656
32691,1.6497e+09,0,0.06,-0.02,-0.2,0.08,0.07,-0.01,0,0,0,-3.65,0,0,0.0031656
32738,1.6497e+09,0,0.06,-0.02,-0.2,0.08,0.07,-0.01,0,0,0,-3.65,0,0,0.0031656
32785,1.6497e+09,0,0.06,-0.02,-0.2,0.08,0.07,-0.01,0,0,0,-3.65,0,0,0.0031656
32830,1.6498e+09,0,0.06,-0.02,-0.2,0.08,0.07,-0.01,0,0,0,-3.65,0,0,0.0031656
32876,1.6498e+09,0,0.06,-0.02,-0.2,0.08,0.07,-0.01,0,0,0,-3.65,0,0,0.0031656
32919,1.6498e+09,0,0,-0.01,0.13,0.06,0.08,-0.01,0,0,0,-3.65,0,0,0.0014118
32961,1.6498e+09,0,0,-0.01,0.13,0.06,0.08,-0.01,0,0,0,-3.65,0,0,0.0014118
33004,1.6498e+09,0,0,-0.01,0.13,0.06,0.08,-0.01,0,0,0,-3.65,0,0,0.0014118
33047,1.6498e+09,0,0,-0.01,0.13,0.06,0.08,-0.01,0,0,0,-3.65,0,0,0.0014118
33089,1.6498e+09,0,0,-0.01,0.13,0.06,0.08,-0.01,0,0,0,-3.65,0,0,0.0014118
33133,1.6498e+09,0,0,-0.01,0.13,0.06,0.08,-0.41,0,0,0,-0.69,0,0,0.0016389
33175,1.6498e+09,0,0,-0.01,0.13,0.06,0.08,-0.41,0,0,0,-0.69,0,0,0.0016389
33218,1.6498e+09,0,0,-0.01,0.13,0.06,0.08,-0.41,0,0,0,-0.69,0,0,0.0016389
33262,1.6499e+09,0,0,-0.01,0.13,0.06,0.08,-0.41,0,0,0,-0.69,0,0,0.0016389
33304,1.6499e+09,0,0,-0.01,0.13,0.06,0.08,-0.41,0,0,0,-0.69,0,0,0.0016389
33352,1.6499e+09,0,0,-0.01,0.13,0.06,0.08,-0.41,0,0,0,-0.69,0,0,0.0016389
33394,1.6499e+09,0,0,-0.01,0.13,0.06,0.08,-0.41,0,0,0,-0.69,0,0,0.0016389
33438,1.6499e+09,0,0,-0.01,0.13,0.06,0.08,-0.41,0,0,0,-0.69,0,0,0.0016389
33481,1.6499e+09,0,0,-0.01,0.13,0.06,0.08,-0.41,0,0,0,-0.69,0,0,0.0016389
33524,1.6499e+09,0,0,-0.01,0.13,0.06,0.08,-0.24,0,0,0,-3.67,0,0,0.0014118
33566,1.6499e+09,0,0,-0.01,0.13,0.06,0.08,-0.24,0,0,0,-3.67,0,0,0.0014118
33609,1.6499e+09,0,0,-0.01,0.13,0.06,0.08,-0.24,0,0,0,-3.67,0,0,0.0014118
33648,1.65e+09,0,-0.14,0.11,-0.04,0.06,0.07,-0.24,0,0,0,-3.67,0,0,0.0025336
33692,1.65e+09,0,-0.14,0.11,-0.04,0.06,0.07,-0.24,0,0,0,-3.67,0,0,0.0025336
33738,1.65e+09,0,-0.14,0.11,-0.04,0.06,0.07,-0.24,0,0,0,-3.67,0,0,0.0025336
33787,1.65e+09,0,-0.14,0.11,-0.04,0.06,0.07,-0.24,0,0,0,-3.67,0,0,0.0025336
33832,1.65e+09,0,-0.14,0.11,-0.04,0.06,0.07,-0.24,0,0,0,-3.67,0,0,0.0025336
33876,1.65e+09,0,-0.14,0.11,-0.04,0.06,0.07,-0.24,0,0,0,-3.67,0,0,0.0025336
33922,1.65e+09,0,-0.14,0.11,-0.04,0.06,0.07,-0.24,0,0,0,-3.67,0,0,0.0025336
33966,1.65e+09,0,-0.14,0.11,-0.04,0.06,0.07,-0.14,0,0,0,-2.83,0,0,0.0025336
34011,1.65e+09,0,-0.14,0.11,-0.04,0.06,0.07,-0.14,0,0,0,-2.83,0,0,0.0025336
34057,1.65e+09,0,-0.14,0.11,-0.04,0.06,0.07,-0.14,0,0,0,-2.83,0,0,0.0025336
34101,1.6501e+09,0,-0.14,0.11,-0.04,0.06,0.07,-0.14,0,0,0,-2.83,0,0,0.0025336
34146,1.6501e+09,0,-0.14,0.11,-0.04,0.06,0.07,-0.14,0,0,0,-2.83,0,0,0.0025336
34190,1.6501e+09,0,-0.14,0.11,-0.04,0.06,0.07,-0.14,0,0,0,-2.83,0,0,0.0025336
34239,1.6501e+09,0,-0.14,0.11,-0.04,0.06,0.07,-0.14,0,0,0,-2.83,0,0,0.0025336
34285,1.6501e+09,0,-0.14,0.11,-0.04,0.06,0.07,-0.14,0,0,0,-2.83,0,0,0.0025336
34330,1.6501e+09,0,-0.14,0.11,-0.04,0.06,0.07,-0.14,0,0,0,-2.83,0,0,0.0025336
34375,1.6501e+09,0,-0.14,0.11,-0.04,0.06,0.07,-0.14,0,0,0,-2.83,0,0,0.0025336
34419,1.6501e+09,0,-0.14,0.11,-0.04,0.06,0.07,-0.38,0,0,0,0.73,0,0,0.0025336
34460,1.6501e+09,0,0.13,0.02,0.14,0.05,0.07,-0.38,0,0,0,0.73,0,0,0.0027521
34505,1.6502e+09,0,0.13,0.02,0.14,0.05,0.07,-0.38,0,0,0,0.73,0,0,0.0027521
34549,1.6502e+09,0,0.13,0.02,0.14,0.05,0.07,-0.38,0,0,0,0.73,0,0,0.0027521
34594,1.6502e+09,0,0.13,0.02,0.14,0.05,0.07,-0.38,0,0,0,0.73,0,0,0.0027521
34638,1.6502e+09,0,0.13,0.02,0.14,0.05,0.07,-0.38,0,0,0,0.73,0,0,0.0027521
34688,1.6502e+09,0,0.13,0.02,0.14,0.05,0.07,-0.38,0,0,0,0.73,0,0,0.0027521
34732,1.6502e+09,0,0.13,0.02,0.14,0.05,0.07,-0.38,0,0,0,0.73,0,0,0.0027521
34777,1.6502e+09,0,0.13,0.02,0.14,0.05,0.07,-0.38,0,0,0,0.73,0,0,0.0027521
34821,1.6502e+09,0,0.13,0.02,0.14,0.05,0.07,-0.38,0,0,0,0.73,0,0,0.0027521
34869,1.6502e+09,0,0.13,0.02,0.14,0.05,0.07,-0.6,0,0,0,-0.15,0,0,0.003523
34913,1.6502e+09,0,0.13,0.02,0.14,0.05,0.07,-0.6,0,0,0,-0.15,0,0,0.003523
34957,1.6503e+09,0,0.13,0.02,0.14,0.05,0.07,-0.6,0,0,0,-0.15,0,0,0.003523
35002,1.6503e+09,0,0.13,0.02,0.14,0.05,0.07,-0.6,0,0,0,-0.15,0,0,0.003523
35047,1.6503e+09,0,0.13,0.02,0.14,0.05,0.07,-0.6,0,0,0,-0.15,0,0,0.003523
35092,1.6503e+09,0,0.13,0.02,0.14,0.05,0.07,-0.6,0,0,0,-0.15,0,0,0.003523
35140,1.6503e+09,0,0.13,0.02,0.14,0.05,0.07,-0.6,0,0,0,-0.15,0,0,0.003523
35185,1.6503e+09,0,0.13,0.02,0.14,0.05,0.07,-0.6,0,0,0,-0.15,0,0,0.003523
35230,1.6503e+09,0,0.13,0.02,0.14,0.05,0.07,-0.6,0,0,0,-0.15,0,0,0.003523
35275,1.6503e+09,0,0.13,0.02,0.14,0.05,0.07,-0.43,0,0,0,-0.15,0,0,0.0027521
35320,1.6503e+09,0,0.13,0.02,0.14,0.05,0.07,-0.43,0,0,0,0.41,0,0,0.0027521
35365,1.6504e+09,0,-0.04,-0.02,0.02,0.08,0.07,-0.43,0,0,0,0.41,0,0,0.001844
35408,1.6504e+09,0,-0.04,-0.02,0.02,0.08,0.07,-0.43,0,0,0,0.41,0,0,0.001844
35450,1.6504e+09,0,-0.04,-0.02,0.02,0.08,0.07,-0.43,0,0,0,0.41,0,0,0.001844
35494,1.6504e+09,0,-0.04,-0.02,0.02,0.08,0.07,-0.43,0,0,0,0.41,0,0,0.001844
35537,1.6504e+09,0,-0.04,-0.02,0.02,0.08,0.07,-0.43,0,0,0,0.41,0,0,0.001844
35583,1.6504e+09,0,-0.04,-0.02,0.02,0.08,0.07,-0.43,0,0,0,0.41,0,0,0.001844
35628,1.6504e+09,0,-0.04,-0.02,0.02,0.08,0.07,-0.43,0,0,0,0.41,0,0,0.001844
35671,1.6504e+09,0,-0.04,-0.02,0.02,0.08,0.07,-0.43,0,0,0,0.41,0,0,0.001844
35714,1.6504e+09,0,-0.04,-0.02,0.02,0.08,0.07,-0.43,0,0,0,0.41,0,0,0.001844
35757,1.6505e+09,0,-0.04,-0.02,0.02,0.08,0.07,-0.85,0,0,0,0.05,0,0,0.0069025
35799,1.6505e+09,0,-0.04,-0.02,0.02,0.08,0.07,-0.85,0,0,0,0.05,0,0,0.0069025
35842,1.6505e+09,0,-0.04,-0.02,0.02,0.08,0.07,-0.85,0,0,0,0.05,0,0,0.0069025
35884,1.6505e+09,0,-0.04,-0.02,0.02,0.08,0.07,-0.85,0,0,0,0.05,0,0,0.0069025
35928,1.6505e+09,0,-0.04,-0.02,0.02,0.08,0.07,-0.85,0,0,0,0.05,0,0,0.0069025
35971,1.6505e+09,0,-0.04,-0.02,0.02,0.08,0.07,-0.85,0,0,0,0.05,0,0,0.0069025
36017,1.6505e+09,0,-0.04,-0.02,0.02,0.08,0.07,-0.85,0,0,0,0.05,0,0,0.0069025
36059,1.6505e+09,0,-0.04,-0.02,0.02,0.08,0.07,-0.85,0,0,0,0.05,0,0,0.0069025
36102,1.6505e+09,0,-0.04,-0.02,0.02,0.08,0.07,-0.85,0,0,0,0.05,0,0,0.0069025
36146,1.6505e+09,0,-0.04,-0.02,0.02,0.08,0.07,-0.88,0,0,0,0.05,0,0,0.0074985
36190,1.6506e+09,0,-0.04,-0.02,0.02,0.08,0.07,-0.88,0,0,0,1.57,0,0,0.0074985
36232,1.6506e+09,0,0.15,0,-0.05,0.09,0.06,-0.88,0,0,0,1.57,0,0,0.0074985
36277,1.6506e+09,0,0.15,0,-0.05,0.09,0.06,-0.88,0,0,0,1.57,0,0,0.0074985
36321,1.6506e+09,0,0.15,0,-0.05,0.09,0.06,-0.88,0,0,0,1.57,0,0,0.0074985
36367,1.6506e+09,0,0.15,0,-0.05,0.09,0.06,-0.88,0,0,0,1.57,0,0,0.0074985
36417,1.6506e+09,0,0.15,0,-0.05,0.09,0.06,-0.88,0,0,0,1.57,0,0,0.0074985
36461,1.6506e+09,0,0.15,0,-0.05,0.09,0.06,-0.88,0,0,0,1.57,0,0,0.0074985
36507,1.6506e+09,0,0.15,0,-0.05,0.09,0.06,-0.88,0,0,0,1.57,0,0,0.0074985
36551,1.6506e+09,0,0.15,0,-0.05,0.09,0.06,-0.88,0,0,0,1.57,0,0,0.0074985
36599,1.6507e+09,0,0.15,0,-0.05,0.09,0.06,-0.63,0,0,0,-0.08,0,0,0.0037999
36644,1.6507e+09,0,0.15,0,-0.05,0.09,0.06,-0.63,0,0,0,-0.08,0,0,0.0037999
36688,1.6507e+09,0,0.15,0,-0.05,0.09,0.06,-0.63,0,0,0,-0.08,0,0,0.0037999
36733,1.6507e+09,0,0.15,0,-0.05,0.09,0.06,-0.63,0,0,0,-0.08,0,0,0.0037999
36779,1.6507e+09,0,0.15,0,-0.05,0.09,0.06,-0.63,0,0,0,-0.08,0,0,0.0037999
36823,1.6507e+09,0,0.15,0,-0.05,0.09,0.06,-0.63,0,0,0,-0.08,0,0,0.0037999
36872,1.6507e+09,0,0.15,0,-0.05,0.09,0.06,-0.63,0,0,0,-0.08,0,0,0.0037999
36920,1.6507e+09,0,0.15,0,-0.05,0.09,0.06,-0.63,0,0,0,-0.08,0,0,0.0037999
36965,1.6507e+09,0,0.15,0,-0.05,0.09,0.06,-0.63,0,0,0,-0.08,0,0,0.0037999
37008,1.6508e+09,0,-0.14,-0.03,0,0.14,0.07,-0.69,0,0,0,-0.08,0,0,0.0046395
37053,1.6508e+09,0,-0.14,-0.03,0,0.14,0.07,-0.69,0,0,0,0.09,0,0,0.0046395
37097,1.6508e+09,0,-0.14,-0.03,0,0.14,0.07,-0.69,0,0,0,0.09,0,0,0.0046395
37142,1.6508e+09,0,-0.14,-0.03,0,0.14,0.07,-0.69,0,0,0,0.09,0,0,0.0046395
37188,1.6508e+09,0,-0.14,-0.03,0,0.14,0.07,-0.69,0,0,0,0.09,0,0,0.0046395
37234,1.6508e+09,0,-0.14,-0.03,0,0.14,0.07,-0.69,0,0,0,0.09,0,0,0.0046395
37278,1.6508e+09,0,-0.14,-0.03,0,0.14,0.07,-0.69,0,0,0,0.09,0,0,0.0046395
37326,1.6508e+09,0,-0.14,-0.03,0,0.14,0.07,-0.69,0,0,0,0.09,0,0,0.0046395
