LineNo,TimeUS,C,IVN,IVE,IVD,IPN,IPE,IPD,IMX,IMY,IMZ,IYAW,IVT,RErr,ErSc
314,1.6419e+09,1,0,-0.02,0.02,0.18,0.07,0,0,0,0,1.44,0,0.0059661,0.00053977
542,1.6419e+09,1,0,-0.02,0.02,0.18,0.07,0,0,0,0,1.44,0,0.0059694,0.00053977
996,1.642e+09,1,0.01,-0.03,0,0.18,0.07,0.14,0,0,0,2.21,0,0.0060588,0.00057936
1110,1.6421e+09,1,0.01,-0.03,0,0.18,0.07,0.14,0,0,0,2.21,0,0.0060853,0.00057936
1217,1.6422e+09,1,0.01,-0.03,0,0.18,0.07,0.14,0,0,0,2.21,0,0.0061316,0.00057936
1328,1.6422e+09,1,0,-0.02,0.05,0.18,0.07,0.14,0,0,0,2.21,0,0.0061316,0.00071092
1507,1.6423e+09,1,0,-0.02,0.05,0.18,0.07,0.09,0,0,0,1.03,0,0.0061316,0.00071092
1689,1.6423e+09,1,0,-0.02,0.05,0.18,0.07,0.09,0,0,0,1.03,0,0.0061316,0.00071092
1733,1.6423e+09,1,0,-0.02,0.05,0.18,0.07,0.09,0,0,0,1.03,0,0.0061316,0.00071092
1778,1.6423e+09,1,0,-0.02,0.05,0.18,0.07,0.09,0,0,0,1.03,0,0.0061316,0.00071092
1822,1.6423e+09,1,0,-0.02,0.05,0.18,0.07,0.09,0,0,0,1.03,0,0.0061316,0.00071092
1867,1.6423e+09,1,0,-0.02,0.05,0.18,0.07,0.03,0,0,0,2.61,0,0.0061316,0.00071092
1914,1.6424e+09,1,0,-0.02,0.05,0.18,0.07,0.03,0,0,0,2.61,0,0.0061316,0.00071092
1957,1.6424e+09,1,0.01,-0.03,-0.34,0.18,0.06,0.03,0,0,0,2.61,0,0.0061316,0.0085848
1999,1.6424e+09,1,0.01,-0.03,-0.34,0.18,0.06,0.03,0,0,0,2.61,0,0.0061316,0.0085848
2047,1.6424e+09,1,0.01,-0.03,-0.34,0.18,0.06,0.03,0,0,0,2.61,0,0.0061316,0.0085848
2090,1.6424e+09,1,0.01,-0.03,-0.34,0.18,0.06,0.03,0,0,0,2.61,0,0.0061316,0.0085848
2132,1.6424e+09,1,0.01,-0.03,-0.34,0.18,0.06,0.03,0,0,0,2.61,0,0.0061316,0.0085848
2178,1.6424e+09,1,0.01,-0.03,-0.34,0.18,0.06,0.03,0,0,0,2.61,0,0.0061316,0.0085848
2222,1.6424e+09,1,0.01,-0.03,-0.34,0.18,0.06,0.03,0,0,0,2.61,0,0.0061316,0.0085848
2264,1.6425e+09,1,0.01,-0.03,-0.34,0.18,0.06,-0.3,0,0,0,3.86,0,0.0061316,0.0085848
2308,1.6425e+09,1,0.01,-0.03,-0.34,0.18,0.06,-0.3,0,0,0,3.86,0,0.0061316,0.0085848
2350,1.6425e+09,1,0.01,-0.03,-0.34,0.18,0.06,-0.3,0,0,0,3.86,0,0.0061316,0.0085848
2393,1.6425e+09,1,0.01,-0.03,-0.34,0.18,0.06,-0.3,0,0,0,3.86,0,0.0061316,0.0085848
2436,1.6425e+09,1,0.01,-0.03,-0.34,0.18,0.06,-0.3,0,0,0,3.86,0,0.0061316,0.0085848
2482,1.6425e+09,1,0.01,-0.03,-0.34,0.18,0.06,-0.3,0,0,0,3.86,0,0.0061316,0.0085848
2526,1.6425e+09,1,0.01,-0.03,-0.34,0.18,0.06,-0.3,0,0,0,3.86,0,0.0061316,0.0085848
2568,1.6425e+09,1,0.01,-0.03,-0.34,0.18,0.06,-0.3,0,0,0,3.86,0,0.0061316,0.0085848
2611,1.6425e+09,1,0.01,-0.03,-0.34,0.18,0.06,-0.3,0,0,0,3.86,0,0.0061316,0.0085848
2656,1.6425e+09,1,0.01,-0.03,-0.34,0.18,0.06,-0.12,0,0,0,3.86,0,0.0061316,0.0085848
2704,1.6426e+09,1,-0.01,-0.03,-0.29,0.19,0.07,-0.12,0,0,0,2.01,0,0.0083111,0.0062953
2749,1.6426e+09,1,-0.01,-0.03,-0.29,0.19,0.07,-0.12,0,0,0,2.01,0,0.0083111,0.0062953
2794,1.6426e+09,1,-0.01,-0.03,-0.29,0.19,0.07,-0.12,0,0,0,2.01,0,0.0083111,0.0062953
2839,1.6426e+09,1,-0.01,-0.03,-0.29,0.19,0.07,-0.12,0,0,0,2.01,0,0.0083111,0.0062953
2888,1.6426e+09,1,-0.01,-0.03,-0.29,0.19,0.07,-0.12,0,0,0,2.01,0,0.0083111,0.0062953
2932,1.6426e+09,1,-0.01,-0.03,-0.29,0.19,0.07,-0.12,0,0,0,2.01,0,0.0083111,0.0062953
2979,1.6426e+09,1,-0.01,-0.03,-0.29,0.19,0.07,-0.12,0,0,0,2.01,0,0.0083111,0.0062953
3023,1.6426e+09,1,-0.01,-0.03,-0.29,0.19,0.07,-0.12,0,0,0,2.01,0,0.0083111,0.0062953
3068,1.6426e+09,1,-0.01,-0.03,-0.29,0.19,0.07,-0.12,0,0,0,2.01,0,0.0083111,0.0062953
3112,1.6427e+09,1,-0.01,-0.03,-0.29,0.19,0.07,-0.05,0,0,0,1.92,0,0.0083111,0.0062953
3157,1.6427e+09,1,-0.01,-0.03,-0.29,0.19,0.07,-0.05,0,0,0,1.92,0,0.0083111,0.0062953
3202,1.6427e+09,1,-0.01,-0.03,-0.29,0.19,0.07,-0.05,0,0,0,1.92,0,0.0083111,0.0062953
3246,1.6427e+09,1,-0.01,-0.03,-0.29,0.19,0.07,-0.05,0,0,0,1.92,0,0.0083111,0.0062953
3293,1.6427e+09,1,-0.01,-0.03,-0.29,0.19,0.07,-0.05,0,0,0,1.92,0,0.0083111,0.0062953
3343,1.6427e+09,1,-0.01,-0.03,-0.29,0.19,0.07,-0.05,0,0,0,1.92,0,0.0083111,0.0062953
3389,1.6427e+09,1,-0.01,-0.03,-0.29,0.19,0.07,-0.05,0,0,0,1.92,0,0.0083111,0.0062953
3433,1.6427e+09,1,-0.01,-0.03,-0.29,0.19,0.07,-0.05,0,0,0,1.92,0,0.0083111,0.0062953
3478,1.6427e+09,1,-0.01,-0.03,-0.29,0.19,0.07,-0.05,0,0,0,1.92,0,0.0083111,0.0062953
3523,1.6427e+09,1,-0.01,-0.03,-0.29,0.19,0.07,-0.05,0,0,0,2.91,0,0.0083111,0.0062953
3570,1.6428e+09,1,-0.04,-0.02,-0.31,0.19,0.06,0.13,0,0,0,2.91,0,0.010159,0.0073296
3612,1.6428e+09,1,-0.04,-0.02,-0.31,0.19,0.06,0.13,0,0,0,2.91,0,0.011608,0.0073296
3656,1.6428e+09,1,-0.04,-0.02,-0.31,0.19,0.06,0.13,0,0,0,2.91,0,0.012307,0.0073296
3702,1.6428e+09,1,-0.04,-0.02,-0.31,0.19,0.06,0.13,0,0,0,2.91,0,0.013006,0.0073296
3747,1.6428e+09,1,-0.04,-0.02,-0.31,0.19,0.06,0.13,0,0,0,2.91,0,0.013705,0.0073296
3795,1.6428e+09,1,-0.04,-0.02,-0.31,0.19,0.06,0.13,0,0,0,2.91,0,0.014404,0.0073296
3840,1.6428e+09,1,-0.04,-0.02,-0.31,0.19,0.06,0.13,0,0,0,2.91,0,0.015103,0.0073296
3884,1.6428e+09,1,-0.04,-0.02,-0.31,0.19,0.06,0.13,0,0,0,2.91,0,0.015802,0.0073296
3929,1.6428e+09,1,-0.04,-0.02,-0.31,0.19,0.06,0.13,0,0,0,2.91,0,0.016501,0.0073296
3974,1.6429e+09,1,-0.04,-0.02,-0.31,0.19,0.06,0.13,0,0,0,2.91,0,0.0172,0.0073296
4018,1.6429e+09,1,-0.04,-0.02,-0.31,0.19,0.06,0.13,0,0,0,3.08,0,0.017899,0.0073296
4063,1.6429e+09,1,-0.04,-0.02,-0.31,0.19,0.06,-0.12,0,0,0,3.08,0,0.018598,0.0073296
4107,1.6429e+09,1,-0.04,-0.02,-0.31,0.19,0.06,-0.12,0,0,0,3.08,0,0.019297,0.0073296
4152,1.6429e+09,1,-0.04,-0.02,-0.31,0.19,0.06,-0.12,0,0,0,3.08,0,0.019996,0.0073296
4197,1.6429e+09,1,-0.04,-0.02,-0.31,0.19,0.06,-0.12,0,0,0,3.08,0,0.020696,0.0073296
4246,1.6429e+09,1,-0.04,-0.02,-0.31,0.19,0.06,-0.12,0,0,0,3.08,0,0.021395,0.0073296
4291,1.6429e+09,1,-0.04,-0.02,-0.31,0.19,0.06,-0.12,0,0,0,3.08,0,0.022094,0.0073296
4335,1.6429e+09,1,-0.04,-0.02,-0.31,0.19,0.06,-0.12,0,0,0,3.08,0,0.022793,0.0073296
4378,1.6429e+09,1,-0.08,-0.05,-0.16,0.19,0.06,-0.12,0,0,0,3.08,0,0.024256,0.0028599
4420,1.643e+09,1,-0.08,-0.05,-0.16,0.19,0.06,-0.04,0,0,0,2.29,0,0.026483,0.0028599
4463,1.643e+09,1,-0.08,-0.05,-0.16,0.19,0.06,-0.04,0,0,0,2.29,0,0.02871,0.0028599
4507,1.643e+09,1,-0.08,-0.05,-0.16,0.19,0.06,-0.04,0,0,0,2.29,0,0.030937,0.0028599
4549,1.643e+09,1,-0.08,-0.05,-0.16,0.19,0.06,-0.04,0,0,0,2.29,0,0.033164,0.0028599
4592,1.643e+09,1,-0.08,-0.05,-0.16,0.19,0.06,-0.04,0,0,0,2.29,0,0.035391,0.0028599
4634,1.643e+09,1,-0.08,-0.05,-0.16,0.19,0.06,-0.04,0,0,0,2.29,0,0.037618,0.0028599
4683,1.643e+09,1,-0.08,-0.05,-0.16,0.19,0.06,-0.04,0,0,0,2.29,0,0.039845,0.0028599
4726,1.643e+09,1,-0.08,-0.05,-0.16,0.19,0.06,-0.04,0,0,0,2.29,0,0.042072,0.0028599
4769,1.643e+09,1,-0.08,-0.05,-0.16,0.19,0.06,-0.04,0,0,0,2.29,0,0.044299,0.0028599
4812,1.6431e+09,1,-0.08,-0.05,-0.16,0.19,0.06,-0.04,0,0,0,2.29,0,0.046526,0.0028599
4854,1.6431e+09,1,-0.08,-0.05,-0.16,0.19,0.06,-0.04,0,0,0,2.29,0,0.048753,0.0028599
4897,1.6431e+09,1,-0.08,-0.05,-0.16,0.19,0.06,-0.04,0,0,0,2.29,0,0.05098,0.0028599
4940,1.6431e+09,1,-0.08,-0.05,-0.16,0.19,0.06,-0.04,0,0,0,3.3,0,0.053207,0.0028599
4983,1.6431e+09,1,-0.08,-0.05,-0.16,0.19,0.06,-0.04,0,0,0,3.3,0,0.055434,0.0028599
5026,1.6431e+09,1,-0.08,-0.05,-0.16,0.19,0.06,-0.04,0,0,0,3.3,0,0.057661,0.0028599
5069,1.6431e+09,1,-0.08,-0.05,-0.16,0.19,0.06,-0.04,0,0,0,3.3,0,0.059888,0.0028599
5116,1.6431e+09,1,-0.08,-0.05,-0.16,0.19,0.06,-0.04,0,0,0,3.3,0,0.062115,0.0028599
5159,1.6431e+09,1,-0.08,-0.05,-0.16,0.19,0.06,-0.04,0,0,0,3.3,0,0.064342,0.0028599
5202,1.6431e+09,1,-0.08,-0.05,-0.16,0.19,0.06,-0.04,0,0,0,3.3,0,0.066569,0.0028599
5242,1.6432e+09,1,-0.08,-0.05,-0.28,0.19,0.06,-0.04,0,0,0,3.3,0,0.067581,0.0063802
5286,1.6432e+09,1,-0.08,-0.05,-0.28,0.19,0.06,0.01,0,0,0,3.54,0,0.06849,0.0063802
5331,1.6432e+09,1,-0.08,-0.05,-0.28,0.19,0.06,0.01,0,0,0,3.54,0,0.069399,0.0063802
5375,1.6432e+09,1,-0.08,-0.05,-0.28,0.19,0.06,0.01,0,0,0,3.54,0,0.070308,0.0063802
5420,1.6432e+09,1,-0.08,-0.05,-0.28,0.19,0.06,0.01,0,0,0,3.54,0,0.071217,0.0063802
5464,1.6432e+09,1,-0.08,-0.05,-0.28,0.19,0.06,0.01,0,0,0,3.54,0,0.072126,0.0063802
5509,1.6432e+09,1,-0.08,-0.05,-0.28,0.19,0.06,0.01,0,0,0,3.54,0,0.073035,0.0063802
5558,1.6432e+09,1,-0.08,-0.05,-0.28,0.19,0.06,0.01,0,0,0,3.54,0,0.073944,0.0063802
5603,1.6432e+09,1,-0.08,-0.05,-0.28,0.19,0.06,0.01,0,0,0,3.54,0,0.074853,0.0063802
5647,1.6432e+09,1,-0.08,-0.05,-0.28,0.19,0.06,0.01,0,0,0,3.54,0,0.075762,0.0063802
5692,1.6433e+09,1,-0.08,-0.05,-0.28,0.19,0.06,0.01,0,0,0,3.54,0,0.076671,0.0063802
5737,1.6433e+09,1,-0.08,-0.05,-0.28,0.19,0.06,0.01,0,0,0,3.54,0,0.07758,0.0063802
5781,1.6433e+09,1,-0.08,-0.05,-0.28,0.19,0.06,0,0,0,0,2.9,0,0.078489,0.0063802
5829,1.6433e+09,1,-0.08,-0.05,-0.28,0.19,0.06,0,0,0,0,2.9,0,0.079398,0.0063802
5874,1.6433e+09,1,-0.08,-0.05,-0.28,0.19,0.06,0,0,0,0,2.9,0,0.080307,0.0063802
5919,1.6433e+09,1,-0.08,-0.05,-0.28,0.19,0.06,0,0,0,0,2.9,0,0.081216,0.0063802
5963,1.6433e+09,1,-0.08,-0.05,-0.28,0.19,0.06,0,0,0,0,2.9,0,0.082125,0.0063802
6013,1.6433e+09,1,-0.08,-0.05,-0.28,0.19,0.06,0,0,0,0,2.9,0,0.083034,0.0063802
6057,1.6433e+09,1,-0.1,-0.07,-0.21,0.19,0.06,0,0,0,0,2.9,0,0.083261,0.0045347
6100,1.6434e+09,1,-0.1,-0.07,-0.21,0.19,0.06,0,0,0,0,2.9,0,0.085518,0.0045347
6144,1.6434e+09,1,-0.1,-0.07,-0.21,0.19,0.06,0,0,0,0,2.9,0,0.087775,0.0045347
6189,1.6434e+09,1,-0.1,-0.07,-0.21,0.19,0.06,0,0,0,0,2.9,0,0.090033,0.0045347
6236,1.6434e+09,1,-0.1,-0.07,-0.21,0.19,0.06,-0.12,0,0,0,2.3,0,0.092854,0.0045347
6281,1.6434e+09,1,-0.1,-0.07,-0.21,0.19,0.06,-0.12,0,0,0,2.3,0,0.095112,0.0045347
6325,1.6434e+09,1,-0.1,-0.07,-0.21,0.19,0.06,-0.12,0,0,0,2.3,0,0.097369,0.0045347
6370,1.6434e+09,1,-0.1,-0.07,-0.21,0.19,0.06,-0.12,0,0,0,2.3,0,0.099626,0.0045347
6417,1.6434e+09,1,-0.1,-0.07,-0.21,0.19,0.06,-0.12,0,0,0,2.3,0,0.10188,0.0045347
6464,1.6434e+09,1,-0.1,-0.07,-0.21,0.19,0.06,-0.12,0,0,0,2.3,0,0.10414,0.0045347
6508,1.6434e+09,1,-0.1,-0.07,-0.21,0.19,0.06,-0.12,0,0,0,2.3,0,0.1064,0.0045347
6552,1.6435e+09,1,-0.1,-0.07,-0.21,0.19,0.06,-0.12,0,0,0,2.3,0,0.10866,0.0045347
6600,1.6435e+09,1,-0.1,-0.07,-0.21,0.19,0.06,-0.31,0,0,0,5.01,0,0.11148,0.0045347
6644,1.6435e+09,1,-0.1,-0.07,-0.21,0.19,0.06,-0.31,0,0,0,5.01,0,0.11373,0.0045347
6689,1.6435e+09,1,-0.1,-0.07,-0.21,0.19,0.06,-0.31,0,0,0,5.01,0,0.11599,0.0045347
6734,1.6435e+09,1,-0.1,-0.07,-0.21,0.19,0.06,-0.31,0,0,0,5.01,0,0.11825,0.0045347
6779,1.6435e+09,1,-0.1,-0.07,-0.21,0.19,0.06,-0.31,0,0,0,5.01,0,0.12051,0.0045347
6824,1.6435e+09,1,-0.1,-0.07,-0.21,0.19,0.06,-0.31,0,0,0,5.01,0,0.12276,0.0045347
6872,1.6435e+09,1,-0.1,-0.07,-0.21,0.19,0.06,-0.31,0,0,0,5.01,0,0.12502,0.0045347
6919,1.6435e+09,1,-0.1,-0.07,-0.21,0.19,0.06,-0.31,0,0,0,5.01,0,0.12728,0.0045347
6962,1.6436e+09,1,-0.11,-0.07,-0.26,0.19,0.06,-0.31,0,0,0,5.01,0,0.1306,0.006283
7004,1.6436e+09,1,-0.11,-0.07,-0.26,0.19,0.06,-0.31,0,0,0,5.01,0,0.13386,0.006283
7052,1.6436e+09,1,-0.11,-0.07,-0.26,0.19,0.06,-0.31,0,0,0,5.01,0,0.13794,0.006283
7095,1.6436e+09,1,-0.11,-0.07,-0.26,0.19,0.06,-0.13,0,0,0,5.01,0,0.1412,0.006283
7137,1.6436e+09,1,-0.11,-0.07,-0.26,0.19,0.06,-0.13,0,0,0,2.61,0,0.14447,0.006283
7181,1.6436e+09,1,-0.11,-0.07,-0.26,0.19,0.06,-0.13,0,0,0,2.61,0,0.14773,0.006283
7224,1.6436e+09,1,-0.11,-0.07,-0.26,0.19,0.06,-0.13,0,0,0,2.61,0,0.15099,0.006283
7270,1.6436e+09,1,-0.11,-0.07,-0.26,0.19,0.06,-0.13,0,0,0,2.61,0,0.15425,0.006283
7313,1.6436e+09,1,-0.11,-0.07,-0.26,0.19,0.06,-0.13,0,0,0,2.61,0,0.15751,0.006283
7356,1.6437e+09,1,-0.11,-0.07,-0.26,0.19,0.06,-0.13,0,0,0,2.61,0,0.16078,0.006283
7401,1.6437e+09,1,-0.11,-0.07,-0.26,0.19,0.06,-0.13,0,0,0,2.61,0,0.16404,0.006283
7443,1.6437e+09,1,-0.11,-0.07,-0.26,0.19,0.06,-0.13,0,0,0,2.61,0,0.1673,0.006283
7483,1.6437e+09,1,-0.11,-0.07,-0.26,0.19,0.06,-0.13,0,0,0,2.61,0,0.17056,0.006283
7525,1.6437e+09,1,-0.11,-0.07,-0.26,0.19,0.06,-0.13,0,0,0,2.61,0,0.17383,0.006283
7569,1.6437e+09,1,-0.11,-0.07,-0.26,0.19,0.06,-0.35,0,0,0,4.76,0,0.17709,0.006283
7612,1.6437e+09,1,-0.11,-0.07,-0.26,0.19,0.06,-0.35,0,0,0,4.76,0,0.18035,0.006283
7655,1.6437e+09,1,-0.11,-0.07,-0.26,0.19,0.06,-0.35,0,0,0,4.76,0,0.18361,0.006283
7707,1.6437e+09,1,-0.11,-0.07,-0.26,0.19,0.06,-0.35,0,0,0,4.76,0,0.18769,0.006283
7753,1.6437e+09,1,-0.16,-0.06,-0.3,0.18,0.05,-0.35,0,0,0,4.76,0,0.19582,0.0083111
7795,1.6438e+09,1,-0.16,-0.06,-0.3,0.18,0.05,-0.35,0,0,0,4.76,0,0.20342,0.0083111
7841,1.6438e+09,1,-0.16,-0.06,-0.3,0.18,0.05,-0.35,0,0,0,4.76,0,0.20975,0.0083111
7888,1.6438e+09,1,-0.16,-0.06,-0.3,0.18,0.05,-0.18,0,0,0,4.76,0,0.21609,0.0083111
7933,1.6438e+09,1,-0.16,-0.06,-0.3,0.18,0.05,-0.18,0,0,0,3.75,0,0.22243,0.0083111
7977,1.6438e+09,1,-0.16,-0.06,-0.3,0.18,0.05,-0.18,0,0,0,3.75,0,0.22876,0.0083111
8022,1.6438e+09,1,-0.16,-0.06,-0.3,0.18,0.05,-0.18,0,0,0,3.75,0,0.2351,0.0083111
8066,1.6438e+09,1,-0.16,-0.06,-0.3,0.18,0.05,-0.18,0,0,0,3.75,0,0.24143,0.0083111
8111,1.6438e+09,1,-0.16,-0.06,-0.3,0.18,0.05,-0.18,0,0,0,3.75,0,0.24777,0.0083111
8161,1.6438e+09,1,-0.16,-0.06,-0.3,0.18,0.05,-0.18,0,0,0,3.75,0,0.2541,0.0083111
8205,1.6439e+09,1,-0.16,-0.06,-0.3,0.18,0.05,-0.18,0,0,0,3.75,0,0.26044,0.0083111
8251,1.6439e+09,1,-0.16,-0.06,-0.3,0.18,0.05,-0.18,0,0,0,3.75,0,0.26677,0.0083111
8295,1.6439e+09,1,-0.16,-0.06,-0.3,0.18,0.05,-0.18,0,0,0,3.75,0,0.27311,0.0083111
8341,1.6439e+09,1,-0.16,-0.06,-0.3,0.18,0.05,-0.18,0,0,0,3.75,0,0.27944,0.0083111
8385,1.6439e+09,1,-0.16,-0.06,-0.3,0.18,0.05,-0.22,0,0,0,3.75,0,0.28578,0.0083111
8430,1.6439e+09,1,-0.16,-0.06,-0.3,0.18,0.05,-0.22,0,0,0,3.75,0,0.29211,0.0083111
8475,1.6439e+09,1,-0.16,-0.06,-0.3,0.18,0.05,-0.22,0,0,0,2.46,0,0.29845,0.0083111
8520,1.6439e+09,1,-0.16,-0.06,-0.3,0.18,0.05,-0.22,0,0,0,2.46,0,0.30478,0.0083111
8565,1.6439e+09,1,-0.16,-0.06,-0.3,0.18,0.05,-0.22,0,0,0,2.46,0,0.31112,0.0083111
8613,1.6439e+09,1,-0.16,-0.06,-0.3,0.18,0.05,-0.22,0,0,0,2.46,0,0.31745,0.0083111
8657,1.644e+09,1,-0.16,-0.06,-0.3,0.18,0.05,-0.22,0,0,0,2.46,0,0.32799,0.0083111
8698,1.644e+09,1,-0.2,-0.06,-0.24,0.18,0.05,-0.22,0,0,0,2.46,0,0.3385,0.0072561
8743,1.644e+09,1,-0.2,-0.06,-0.24,0.18,0.05,-0.22,0,0,0,2.46,0,0.34901,0.0072561
8789,1.644e+09,1,-0.2,-0.06,-0.24,0.18,0.05,-0.26,0,0,0,3.53,0,0.35952,0.0072561
8830,1.644e+09,1,-0.2,-0.06,-0.24,0.18,0.05,-0.26,0,0,0,3.53,0,0.37003,0.0072561
8876,1.644e+09,1,-0.2,-0.06,-0.24,0.18,0.05,-0.26,0,0,0,3.53,0,0.38054,0.0072561
8920,1.644e+09,1,-0.2,-0.06,-0.24,0.18,0.05,-0.26,0,0,0,3.53,0,0.39105,0.0072561
8964,1.644e+09,1,-0.2,-0.06,-0.24,0.18,0.05,-0.26,0,0,0,3.53,0,0.40156,0.0072561
9010,1.644e+09,1,-0.2,-0.06,-0.24,0.18,0.05,-0.26,0,0,0,3.53,0,0.41208,0.0072561
9058,1.644e+09,1,-0.2,-0.06,-0.24,0.18,0.05,-0.26,0,0,0,3.53,0,0.42259,0.0072561
9104,1.6441e+09,1,-0.2,-0.06,-0.24,0.18,0.05,-0.26,0,0,0,3.53,0,0.4331,0.0072561
9148,1.6441e+09,1,-0.2,-0.06,-0.24,0.18,0.05,-0.26,0,0,0,3.53,0,0.44361,0.0072561
9193,1.6441e+09,1,-0.2,-0.06,-0.24,0.18,0.05,-0.26,0,0,0,3.53,0,0.45412,0.0072561
9237,1.6441e+09,1,-0.2,-0.06,-0.24,0.18,0.05,-0.4,0,0,0,2.74,0,0.46463,0.0072561
9282,1.6441e+09,1,-0.2,-0.06,-0.24,0.18,0.05,-0.4,0,0,0,2.74,0,0.47514,0.0072561
9327,1.6441e+09,1,-0.2,-0.06,-0.24,0.18,0.05,-0.4,0,0,0,2.74,0,0.48565,0.0072561
9371,1.6441e+09,1,-0.2,-0.06,-0.24,0.18,0.05,-0.4,0,0,0,2.74,0,0.49617,0.0072561
9416,1.6441e+09,1,-0.2,-0.06,-0.24,0.18,0.05,-0.4,0,0,0,2.74,0,0.50668,0.0072561
9461,1.6441e+09,1,-0.2,-0.06,-0.24,0.18,0.05,-0.4,0,0,0,2.74,0,0.51719,0.0072561
9510,1.6441e+09,1,-0.2,-0.06,-0.24,0.18,0.05,-0.4,0,0,0,2.74,0,0.5277,0.0072561
9554,1.6442e+09,1,-0.21,-0.07,-0.22,0.18,0.06,-0.4,0,0,0,2.74,0,0.54585,0.0070564
9597,1.6442e+09,1,-0.21,-0.07,-0.22,0.18,0.06,-0.34,0,0,0,2.74,0,0.55926,0.0070564
9640,1.6442e+09,1,-0.21,-0.07,-0.22,0.18,0.06,-0.34,0,0,0,2.74,0,0.57268,0.0070564
9682,1.6442e+09,1,-0.21,-0.07,-0.22,0.18,0.06,-0.34,0,0,0,3.98,0,0.58609,0.0070564
9727,1.6442e+09,1,-0.21,-0.07,-0.22,0.18,0.06,-0.34,0,0,0,3.98,0,0.59951,0.0070564
9769,1.6442e+09,1,-0.21,-0.07,-0.22,0.18,0.06,-0.34,0,0,0,3.98,0,0.61292,0.0070564
9812,1.6442e+09,1,-0.21,-0.07,-0.22,0.18,0.06,-0.34,0,0,0,3.98,0,0.62634,0.0070564
9855,1.6442e+09,1,-0.21,-0.07,-0.22,0.18,0.06,-0.34,0,0,0,3.98,0,0.63976,0.0070564
9900,1.6442e+09,1,-0.21,-0.07,-0.22,0.18,0.06,-0.34,0,0,0,3.98,0,0.65317,0.0070564
9944,1.6443e+09,1,-0.21,-0.07,-0.22,0.18,0.06,-0.34,0,0,0,3.98,0,0.66659,0.0070564
9987,1.6443e+09,1,-0.21,-0.07,-0.22,0.18,0.06,-0.34,0,0,0,3.98,0,0.68,0.0070564
10032,1.6443e+09,1,-0.21,-0.07,-0.22,0.18,0.06,-0.34,0,0,0,3.98,0,0.69342,0.0070564
10074,1.6443e+09,1,-0.21,-0.07,-0.22,0.18,0.06,-0.47,0,0,0,4.01,0,0.70683,0.0070564
10117,1.6443e+09,1,-0.21,-0.07,-0.22,0.18,0.06,-0.47,0,0,0,4.01,0,0.72025,0.0070564
10160,1.6443e+09,1,-0.21,-0.07,-0.22,0.18,0.06,-0.47,0,0,0,4.01,0,0.73367,0.0070564
10204,1.6443e+09,1,-0.21,-0.07,-0.22,0.18,0.06,-0.47,0,0,0,4.01,0,0.74708,0.0070564
10247,1.6443e+09,1,-0.21,-0.07,-0.22,0.18,0.06,-0.47,0,0,0,4.01,0,0.7605,0.0070564
10291,1.6443e+09,1,-0.21,-0.07,-0.22,0.18,0.06,-0.47,0,0,0,4.01,0,0.77391,0.0070564
10337,1.6444e+09,1,-0.25,-0.07,-0.17,0.17,0.06,-0.47,0,0,0,4.01,0,0.79622,0.0067917
10381,1.6444e+09,1,-0.25,-0.07,-0.17,0.17,0.06,-0.47,0,0,0,4.01,0,0.81464,0.0067917
10426,1.6444e+09,1,-0.25,-0.07,-0.17,0.17,0.06,-0.47,0,0,0,4.01,0,0.83306,0.0067917
10472,1.6444e+09,1,-0.25,-0.07,-0.17,0.17,0.06,-0.47,0,0,0,4.01,0,0.85148,0.0067917
10516,1.6444e+09,1,-0.25,-0.07,-0.17,0.17,0.06,-0.47,0,0,0,4.01,0,0.8699,0.0067917
10561,1.6444e+09,1,-0.25,-0.07,-0.17,0.17,0.06,-0.32,0,0,0,5.07,0,0.88832,0.0067917
10605,1.6444e+09,1,-0.25,-0.07,-0.17,0.17,0.06,-0.32,0,0,0,5.07,0,0.90674,0.0067917
10650,1.6444e+09,1,-0.25,-0.07,-0.17,0.17,0.06,-0.32,0,0,0,5.07,0,0.92516,0.0067917
10695,1.6444e+09,1,-0.25,-0.07,-0.17,0.17,0.06,-0.32,0,0,0,5.07,0,0.94358,0.0067917
10740,1.6444e+09,1,-0.25,-0.07,-0.17,0.17,0.06,-0.32,0,0,0,5.07,0,0.962,0.0067917
10789,1.6445e+09,1,-0.25,-0.07,-0.17,0.17,0.06,-0.32,0,0,0,5.07,0,0.98042,0.0067917
10834,1.6445e+09,1,-0.25,-0.07,-0.17,0.17,0.06,-0.32,0,0,0,5.07,0,0.99884,0.0067917
10879,1.6445e+09,1,-0.25,-0.07,-0.17,0.17,0.06,-0.32,0,0,0,5.07,0,1,0.0067917
10923,1.6445e+09,1,-0.25,-0.07,-0.17,0.17,0.06,-0.32,0,0,0,5.07,0,1,0.0067917
10968,1.6445e+09,1,-0.25,-0.07,-0.17,0.17,0.06,-0.32,0,0,0,5.07,0,1,0.0067917
11013,1.6445e+09,1,-0.25,-0.07,-0.17,0.17,0.06,-0.32,0,0,0,5.07,0,1,0.0067917
11057,1.6445e+09,1,-0.25,-0.07,-0.17,0.17,0.06,-0.5,0,0,0,3.56,0,1,0.0067917
11103,1.6445e+09,1,-0.25,-0.07,-0.17,0.17,0.06,-0.5,0,0,0,3.56,0,1,0.0067917
11148,1.6445e+09,1,-0.25,-0.07,-0.17,0.17,0.06,-0.5,0,0,0,3.56,0,1,0.0067917
11195,1.6446e+09,1,-0.25,-0.07,-0.17,0.17,0.06,-0.5,0,0,0,3.56,0,1,0.0067917
11240,1.6446e+09,1,-0.29,-0.08,-0.21,0.17,0.06,-0.5,0,0,0,3.56,0,1,0.0094542
11285,1.6446e+09,1,-0.29,-0.08,-0.21,0.17,0.06,-0.5,0,0,0,3.56,0,1,0.0094542
11331,1.6446e+09,1,-0.29,-0.08,-0.21,0.17,0.06,-0.5,0,0,0,3.56,0,1,0.0094542
11375,1.6446e+09,1,-0.29,-0.08,-0.21,0.17,0.06,-0.5,0,0,0,3.56,0,1,0.0094542
11423,1.6446e+09,1,-0.29,-0.08,-0.21,0.17,0.06,-0.46,0,0,0,3.67,0,1,0.0094542
11469,1.6446e+09,1,-0.29,-0.08,-0.21,0.17,0.06,-0.46,0,0,0,3.67,0,1,0.0094542
11514,1.6446e+09,1,-0.29,-0.08,-0.21,0.17,0.06,-0.46,0,0,0,3.67,0,1,0.0094542
11559,1.6446e+09,1,-0.29,-0.08,-0.21,0.17,0.06,-0.46,0,0,0,3.67,0,1,0.0094542
11604,1.6446e+09,1,-0.29,-0.08,-0.21,0.17,0.06,-0.46,0,0,0,3.67,0,1,0.0094542
11649,1.6447e+09,1,-0.29,-0.08,-0.21,0.17,0.06,-0.46,0,0,0,3.67,0,1,0.0094542
11698,1.6447e+09,1,-0.29,-0.08,-0.21,0.17,0.06,-0.46,0,0,0,3.67,0,1,0.0094542
11743,1.6447e+09,1,-0.29,-0.08,-0.21,0.17,0.06,-0.46,0,0,0,3.67,0,1,0.0094542
11788,1.6447e+09,1,-0.29,-0.08,-0.21,0.17,0.06,-0.46,0,0,0,3.67,0,1,0.0094542
11832,1.6447e+09,1,-0.29,-0.08,-0.21,0.17,0.06,-0.46,0,0,0,3.67,0,1,0.0094542
11874,1.6447e+09,1,-0.29,-0.08,-0.21,0.17,0.06,-0.46,0,0,0,3.67,0,1,0.0094542
11919,1.6447e+09,1,-0.29,-0.08,-0.21,0.17,0.06,-0.46,0,0,0,3.67,0,1,0.0094542
11965,1.6447e+09,1,-0.29,-0.08,-0.21,0.17,0.06,-0.28,0,0,0,3.67,0,1,0.0094542
12009,1.6447e+09,1,-0.29,-0.08,-0.21,0.17,0.06,-0.28,0,0,0,3.67,0,1,0.0094542
12055,1.6448e+09,1,-0.29,-0.08,-0.21,0.17,0.06,-0.28,0,0,0,3.1,0,1,0.0094542
12096,1.6448e+09,1,-0.21,-0.09,-0.14,0.15,0.06,-0.28,0,0,0,3.1,0,1,0.0053358
12143,1.6448e+09,1,-0.21,-0.09,-0.14,0.15,0.06,-0.28,0,0,0,3.1,0,1,0.0053358
12185,1.6448e+09,1,-0.21,-0.09,-0.14,0.15,0.06,-0.28,0,0,0,3.1,0,1,0.0053358
12229,1.6448e+09,1,-0.21,-0.09,-0.14,0.15,0.06,-0.28,0,0,0,3.1,0,1,0.0053358
12272,1.6448e+09,1,-0.21,-0.09,-0.14,0.15,0.06,-0.28,0,0,0,3.1,0,1,0.0053358
12314,1.6448e+09,1,-0.21,-0.09,-0.14,0.15,0.06,-0.28,0,0,0,3.1,0,1,0.0053358
12357,1.6448e+09,1,-0.21,-0.09,-0.14,0.15,0.06,-0.28,0,0,0,3.1,0,1,0.0053358
12403,1.6448e+09,1,-0.21,-0.09,-0.14,0.15,0.06,-0.48,0,0,0,3.08,0,1,0.0053358
12445,1.6448e+09,1,-0.21,-0.09,-0.14,0.15,0.06,-0.48,0,0,0,3.08,0,1,0.0053358
12490,1.6449e+09,1,-0.21,-0.09,-0.14,0.15,0.06,-0.48,0,0,0,3.08,0,1,0.0053358
12532,1.6449e+09,1,-0.21,-0.09,-0.14,0.15,0.06,-0.48,0,0,0,3.08,0,1,0.0053358
12579,1.6449e+09,1,-0.21,-0.09,-0.14,0.15,0.06,-0.48,0,0,0,3.08,0,1,0.0053358
12621,1.6449e+09,1,-0.21,-0.09,-0.14,0.15,0.06,-0.48,0,0,0,3.08,0,1,0.0053358
12663,1.6449e+09,1,-0.21,-0.09,-0.14,0.15,0.06,-0.48,0,0,0,3.08,0,1,0.0053358
12707,1.6449e+09,1,-0.21,-0.09,-0.14,0.15,0.06,-0.48,0,0,0,3.08,0,1,0.0053358
12752,1.6449e+09,1,-0.21,-0.09,-0.14,0.15,0.06,-0.48,0,0,0,3.08,0,1,0.0053358
12795,1.6449e+09,1,-0.21,-0.09,-0.14,0.15,0.06,-0.48,0,0,0,3.08,0,1,0.0053358
12843,1.6449e+09,1,-0.21,-0.09,-0.14,0.15,0.06,-0.5,0,0,0,3.08,0,1,0.0053358
12885,1.645e+09,1,-0.18,-0.11,-0.15,0.15,0.06,-0.5,0,0,0,2.6,0,1,0.0050294
12929,1.645e+09,1,-0.18,-0.11,-0.15,0.15,0.06,-0.5,0,0,0,2.6,0,1,0.0050294
12978,1.645e+09,1,-0.18,-0.11,-0.15,0.15,0.06,-0.5,0,0,0,2.6,0,1,0.0050294
13023,1.645e+09,1,-0.18,-0.11,-0.15,0.15,0.06,-0.5,0,0,0,2.6,0,1,0.0050294
13068,1.645e+09,1,-0.18,-0.11,-0.15,0.15,0.06,-0.5,0,0,0,2.6,0,1,0.0050294
13113,1.645e+09,1,-0.18,-0.11,-0.15,0.15,0.06,-0.5,0,0,0,2.6,0,1,0.0050294
13157,1.645e+09,1,-0.18,-0.11,-0.15,0.15,0.06,-0.5,0,0,0,2.6,0,1,0.0050294
13201,1.645e+09,1,-0.18,-0.11,-0.15,0.15,0.06,-0.3,0,0,0,3.46,0,1,0.0050294
13245,1.645e+09,1,-0.18,-0.11,-0.15,0.15,0.06,-0.3,0,0,0,3.46,0,1,0.0050294
13290,1.645e+09,1,-0.18,-0.11,-0.15,0.15,0.06,-0.3,0,0,0,3.46,0,1,0.0050294
13335,1.6451e+09,1,-0.18,-0.11,-0.15,0.15,0.06,-0.3,0,0,0,3.46,0,1,0.0050294
13379,1.6451e+09,1,-0.18,-0.11,-0.15,0.15,0.06,-0.3,0,0,0,3.46,0,1,0.0050294
13428,1.6451e+09,1,-0.18,-0.11,-0.15,0.15,0.06,-0.3,0,0,0,3.46,0,1,0.0050294
13472,1.6451e+09,1,-0.18,-0.11,-0.15,0.15,0.06,-0.3,0,0,0,3.46,0,1,0.0050294
13517,1.6451e+09,1,-0.18,-0.11,-0.15,0.15,0.06,-0.3,0,0,0,3.46,0,1,0.0050294
13574,1.6452e+09,1,-0.29,-0.12,-0.19,0.15,0.06,-0.5,0,0,0,3.74,0,1,0.009566
13619,1.6452e+09,1,-0.29,-0.12,-0.19,0.15,0.06,-0.5,0,0,0,3.74,0,1,0.009566
13667,1.6452e+09,1,-0.29,-0.12,-0.19,0.15,0.06,-0.5,0,0,0,3.74,0,1,0.009566
13715,1.6452e+09,1,-0.29,-0.12,-0.19,0.15,0.06,-0.5,0,0,0,3.74,0,1,0.009566
13760,1.6452e+09,1,-0.29,-0.12,-0.19,0.15,0.06,-0.5,0,0,0,3.74,0,1,0.009566
13807,1.6452e+09,1,-0.29,-0.12,-0.19,0.15,0.06,-0.5,0,0,0,3.74,0,1,0.009566
13852,1.6452e+09,1,-0.29,-0.12,-0.19,0.15,0.06,-0.5,0,0,0,3.07,0,1,0.009566
13898,1.6452e+09,1,-0.29,-0.12,-0.19,0.15,0.06,-0.5,0,0,0,3.07,0,1,0.009566
13943,1.6453e+09,1,-0.29,-0.12,-0.19,0.15,0.06,-0.5,0,0,0,3.07,0,1,0.009566
13990,1.6453e+09,1,-0.29,-0.12,-0.19,0.15,0.06,-0.5,0,0,0,3.07,0,1,0.009566
14034,1.6453e+09,1,-0.29,-0.12,-0.19,0.15,0.06,-0.5,0,0,0,3.07,0,1,0.009566
14083,1.6453e+09,1,-0.29,-0.12,-0.19,0.15,0.06,-0.5,0,0,0,3.07,0,1,0.009566
14128,1.6453e+09,1,-0.29,-0.12,-0.19,0.15,0.06,-0.5,0,0,0,3.07,0,1,0.009566
14173,1.6453e+09,1,-0.29,-0.12,-0.19,0.15,0.06,-0.5,0,0,0,3.07,0,1,0.009566
14218,1.6453e+09,1,-0.29,-0.12,-0.19,0.15,0.06,-0.5,0,0,0,3.07,0,1,0.009566
14262,1.6453e+09,1,-0.29,-0.12,-0.19,0.15,0.06,-0.5,0,0,0,3.07,0,1,0.009566
14307,1.6453e+09,1,-0.29,-0.12,-0.19,0.15,0.06,-0.35,0,0,0,3.49,0,1,0.009566
14351,1.6453e+09,1,-0.29,-0.12,-0.19,0.15,0.06,-0.35,0,0,0,3.49,0,1,0.009566
14398,1.6454e+09,1,-0.28,-0.14,-0.18,0.14,0.06,-0.35,0,0,0,3.49,0,1,0.0091133
14438,1.6454e+09,1,-0.28,-0.14,-0.18,0.14,0.06,-0.35,0,0,0,3.49,0,1,0.0091133
14480,1.6454e+09,1,-0.28,-0.14,-0.18,0.14,0.06,-0.35,0,0,0,3.49,0,1,0.0091133
14529,1.6454e+09,1,-0.28,-0.14,-0.18,0.14,0.06,-0.35,0,0,0,3.49,0,1,0.0091133
14572,1.6454e+09,1,-0.28,-0.14,-0.18,0.14,0.06,-0.35,0,0,0,3.49,0,1,0.0091133
14616,1.6454e+09,1,-0.28,-0.14,-0.18,0.14,0.06,-0.35,0,0,0,3.49,0,1,0.0091133
14658,1.6454e+09,1,-0.28,-0.14,-0.18,0.14,0.06,-0.35,0,0,0,3.49,0,1,0.0091133
14699,1.6454e+09,1,-0.28,-0.14,-0.18,0.14,0.06,-0.35,0,0,0,3.49,0,1,0.0091133
14741,1.6454e+09,1,-0.28,-0.14,-0.18,0.14,0.06,-0.5,0,0,0,3.4,0,1,0.0091133
14783,1.6455e+09,1,-0.28,-0.14,-0.18,0.14,0.06,-0.5,0,0,0,3.4,0,1,0.0091133
14826,1.6455e+09,1,-0.28,-0.14,-0.18,0.14,0.06,-0.5,0,0,0,3.4,0,1,0.0091133
14868,1.6455e+09,1,-0.28,-0.14,-0.18,0.14,0.06,-0.5,0,0,0,3.4,0,1,0.0091133
14911,1.6455e+09,1,-0.28,-0.14,-0.18,0.14,0.06,-0.5,0,0,0,3.4,0,1,0.0091133
14959,1.6455e+09,1,-0.28,-0.14,-0.18,0.14,0.06,-0.5,0,0,0,3.4,0,1,0.0091133
15002,1.6455e+09,1,-0.28,-0.14,-0.18,0.14,0.06,-0.5,0,0,0,3.4,0,1,0.0091133
15045,1.6455e+09,1,-0.28,-0.14,-0.18,0.14,0.06,-0.5,0,0,0,3.4,0,1,0.0091133
15087,1.6455e+09,1,-0.28,-0.14,-0.18,0.14,0.06,-0.5,0,0,0,3.4,0,1,0.0091133
15130,1.6455e+09,1,-0.28,-0.14,-0.18,0.14,0.06,-0.5,0,0,0,3.4,0,1,0.0091133
15172,1.6455e+09,1,-0.28,-0.14,-0.18,0.14,0.06,-0.5,0,0,0,4.58,0,1,0.0091133
15215,1.6456e+09,1,-0.28,-0.14,-0.18,0.14,0.06,-0.5,0,0,0,4.58,0,1,0.0091133
15259,1.6456e+09,1,-0.24,-0.14,-0.18,0.13,0.06,-0.5,0,0,0,4.58,0,1,0.0077394
15304,1.6456e+09,1,-0.24,-0.14,-0.18,0.13,0.06,-0.5,0,0,0,4.58,0,1,0.0077394
15349,1.6456e+09,1,-0.24,-0.14,-0.18,0.13,0.06,-0.5,0,0,0,4.58,0,1,0.0077394
15397,1.6456e+09,1,-0.24,-0.14,-0.18,0.13,0.06,-0.5,0,0,0,4.58,0,1,0.0077394
15443,1.6456e+09,1,-0.24,-0.14,-0.18,0.13,0.06,-0.5,0,0,0,4.58,0,1,0.0077394
15487,1.6456e+09,1,-0.24,-0.14,-0.18,0.13,0.06,-0.5,0,0,0,4.58,0,1,0.0077394
15533,1.6456e+09,1,-0.24,-0.14,-0.18,0.13,0.06,-0.47,0,0,0,4.58,0,1,0.0077394
15580,1.6456e+09,1,-0.24,-0.14,-0.18,0.13,0.06,-0.47,0,0,0,4.65,0,1,0.0077394
15625,1.6457e+09,1,-0.24,-0.14,-0.18,0.13,0.06,-0.47,0,0,0,4.65,0,1,0.0077394
15670,1.6457e+09,1,-0.24,-0.14,-0.18,0.13,0.06,-0.47,0,0,0,4.65,0,1,0.0077394
15714,1.6457e+09,1,-0.24,-0.14,-0.18,0.13,0.06,-0.47,0,0,0,4.65,0,1,0.0077394
15759,1.6457e+09,1,-0.24,-0.14,-0.18,0.13,0.06,-0.47,0,0,0,4.65,0,1,0.0077394
15809,1.6457e+09,1,-0.24,-0.14,-0.18,0.13,0.06,-0.47,0,0,0,4.65,0,1,0.0077394
15853,1.6457e+09,1,-0.24,-0.14,-0.18,0.13,0.06,-0.47,0,0,0,4.65,0,1,0.0077394
15898,1.6457e+09,1,-0.24,-0.14,-0.18,0.13,0.06,-0.47,0,0,0,4.65,0,1,0.0077394
15943,1.6457e+09,1,-0.24,-0.14,-0.18,0.13,0.06,-0.47,0,0,0,4.65,0,1,0.0077394
15989,1.6457e+09,1,-0.24,-0.14,-0.18,0.13,0.06,-0.39,0,0,0,4.65,0,1,0.0077394
16035,1.6457e+09,1,-0.24,-0.14,-0.18,0.13,0.06,-0.39,0,0,0,5.07,0,1,0.0077394
16074,1.6458e+09,1,-0.26,-0.15,-0.13,0.12,0.05,-0.39,0,0,0,5.07,0,1,0.0073177
16121,1.6458e+09,1,-0.26,-0.15,-0.13,0.12,0.05,-0.39,0,0,0,5.07,0,1,0.0073177
16166,1.6458e+09,1,-0.26,-0.15,-0.13,0.12,0.05,-0.39,0,0,0,5.07,0,1,0.0073177
16211,1.6458e+09,1,-0.26,-0.15,-0.13,0.12,0.05,-0.39,0,0,0,5.07,0,1,0.0073177
16261,1.6458e+09,1,-0.26,-0.15,-0.13,0.12,0.05,-0.39,0,0,0,5.07,0,1,0.0073177
16306,1.6458e+09,1,-0.26,-0.15,-0.13,0.12,0.05,-0.39,0,0,0,5.07,0,1,0.0073177
16350,1.6458e+09,1,-0.26,-0.15,-0.13,0.12,0.05,-0.39,0,0,0,5.07,0,1,0.0073177
16397,1.6458e+09,1,-0.26,-0.15,-0.13,0.12,0.05,-0.39,0,0,0,5.07,0,1,0.0073177
16447,1.6458e+09,1,-0.26,-0.15,-0.13,0.12,0.05,-0.22,0,0,0,2.37,0,1,0.0073177
16491,1.6459e+09,1,-0.26,-0.15,-0.13,0.12,0.05,-0.22,0,0,0,2.37,0,1,0.0073177
16536,1.6459e+09,1,-0.26,-0.15,-0.13,0.12,0.05,-0.22,0,0,0,2.37,0,1,0.0073177
16581,1.6459e+09,1,-0.26,-0.15,-0.13,0.12,0.05,-0.22,0,0,0,2.37,0,1,0.0073177
16625,1.6459e+09,1,-0.26,-0.15,-0.13,0.12,0.05,-0.22,0,0,0,2.37,0,1,0.0073177
16671,1.6459e+09,1,-0.26,-0.15,-0.13,0.12,0.05,-0.22,0,0,0,2.37,0,1,0.0073177
16719,1.6459e+09,1,-0.26,-0.15,-0.13,0.12,0.05,-0.22,0,0,0,2.37,0,1,0.0073177
16764,1.6459e+09,1,-0.26,-0.15,-0.13,0.12,0.05,-0.22,0,0,0,2.37,0,1,0.0073177
16808,1.6459e+09,1,-0.26,-0.15,-0.13,0.12,0.05,-0.22,0,0,0,2.37,0,1,0.0073177
16854,1.6459e+09,1,-0.26,-0.15,-0.13,0.12,0.05,-0.22,0,0,0,2.37,0,1,0.0073177
16900,1.6459e+09,1,-0.26,-0.15,-0.13,0.12,0.05,-0.22,0,0,0,2.37,0,1,0.0073177
16943,1.646e+09,1,-0.26,-0.15,-0.13,0.12,0.05,-0.34,0,0,0,2.37,0,1,0.0073177
16983,1.646e+09,1,-0.3,-0.16,-0.12,0.12,0.06,-0.34,0,0,0,4.08,0,1,0.0091496
17026,1.646e+09,1,-0.3,-0.16,-0.12,0.12,0.06,-0.34,0,0,0,4.08,0,1,0.0091496
17069,1.646e+09,1,-0.3,-0.16,-0.12,0.12,0.06,-0.34,0,0,0,4.08,0,1,0.0091496
17111,1.646e+09,1,-0.3,-0.16,-0.12,0.12,0.06,-0.34,0,0,0,4.08,0,1,0.0091496
17158,1.646e+09,1,-0.3,-0.16,-0.12,0.12,0.06,-0.34,0,0,0,4.08,0,1,0.0091496
17200,1.646e+09,1,-0.3,-0.16,-0.12,0.12,0.06,-0.34,0,0,0,4.08,0,1,0.0091496
17242,1.646e+09,1,-0.3,-0.16,-0.12,0.12,0.06,-0.34,0,0,0,4.08,0,1,0.0091496
17287,1.646e+09,1,-0.3,-0.16,-0.12,0.12,0.06,-0.34,0,0,0,4.08,0,1,0.0091496
17329,1.646e+09,1,-0.3,-0.16,-0.12,0.12,0.06,-0.29,0,0,0,4.94,0,1,0.0091496
17376,1.6461e+09,1,-0.3,-0.16,-0.12,0.12,0.06,-0.29,0,0,0,4.94,0,1,0.0091496
17418,1.6461e+09,1,-0.3,-0.16,-0.12,0.12,0.06,-0.29,0,0,0,4.94,0,1,0.0091496
17461,1.6461e+09,1,-0.3,-0.16,-0.12,0.12,0.06,-0.29,0,0,0,4.94,0,1,0.0091496
17504,1.6461e+09,1,-0.3,-0.16,-0.12,0.12,0.06,-0.29,0,0,0,4.94,0,1,0.0091496
17546,1.6461e+09,1,-0.3,-0.16,-0.12,0.12,0.06,-0.29,0,0,0,4.94,0,1,0.0091496
17594,1.6461e+09,1,-0.3,-0.16,-0.12,0.12,0.06,-0.29,0,0,0,4.94,0,1,0.0091496
17636,1.6461e+09,1,-0.3,-0.16,-0.12,0.12,0.06,-0.29,0,0,0,4.94,0,1,0.0091496
17679,1.6461e+09,1,-0.3,-0.16,-0.12,0.12,0.06,-0.29,0,0,0,4.94,0,1,0.0091496
17723,1.6461e+09,1,-0.32,-0.16,-0.1,0.11,0.05,-0.29,0,0,0,4.94,0,1,0.0095289
17769,1.6462e+09,1,-0.32,-0.16,-0.1,0.11,0.05,-0.32,0,0,0,4.25,0,1,0.0095289
17814,1.6462e+09,1,-0.32,-0.16,-0.1,0.11,0.05,-0.32,0,0,0,4.25,0,1,0.0095289
17858,1.6462e+09,1,-0.32,-0.16,-0.1,0.11,0.05,-0.32,0,0,0,4.25,0,1,0.0095289
17902,1.6462e+09,1,-0.32,-0.16,-0.1,0.11,0.05,-0.32,0,0,0,4.25,0,1,0.0095289
17947,1.6462e+09,1,-0.32,-0.16,-0.1,0.11,0.05,-0.32,0,0,0,4.25,0,1,0.0095289
17995,1.6462e+09,1,-0.32,-0.16,-0.1,0.11,0.05,-0.32,0,0,0,4.25,0,1,0.0095289
18044,1.6462e+09,1,-0.32,-0.16,-0.1,0.11,0.05,-0.32,0,0,0,4.25,0,1,0.0095289
18089,1.6462e+09,1,-0.32,-0.16,-0.1,0.11,0.05,-0.32,0,0,0,4.25,0,1,0.0095289
18136,1.6462e+09,1,-0.32,-0.16,-0.1,0.11,0.05,-0.32,0,0,0,4.25,0,1,0.0095289
18186,1.6463e+09,1,-0.32,-0.16,-0.1,0.11,0.05,-0.32,0,0,0,4.25,0,1,0.0095289
18235,1.6463e+09,1,-0.32,-0.16,-0.1,0.11,0.05,-0.44,0,0,0,3.82,0,1,0.0095289
18280,1.6463e+09,1,-0.32,-0.16,-0.1,0.11,0.05,-0.44,0,0,0,3.82,0,1,0.0095289
18324,1.6463e+09,1,-0.32,-0.16,-0.1,0.11,0.05,-0.44,0,0,0,3.82,0,1,0.0095289
18369,1.6463e+09,1,-0.32,-0.16,-0.1,0.11,0.05,-0.44,0,0,0,3.82,0,1,0.0095289
18418,1.6463e+09,1,-0.32,-0.16,-0.1,0.11,0.05,-0.44,0,0,0,3.82,0,1,0.0095289
18463,1.6463e+09,1,-0.32,-0.16,-0.1,0.11,0.05,-0.44,0,0,0,3.82,0,1,0.0095289
18511,1.6463e+09,1,-0.32,-0.16,-0.1,0.11,0.05,-0.44,0,0,0,3.82,0,1,0.0095289
18557,1.6463e+09,1,-0.34,-0.17,-0.13,0.11,0.05,-0.44,0,0,0,3.82,0,1,0.011099
18600,1.6464e+09,1,-0.34,-0.17,-0.13,0.11,0.05,-0.5,0,0,0,3.82,0,1,0.011099
18644,1.6464e+09,1,-0.34,-0.17,-0.13,0.11,0.05,-0.5,0,0,0,4.02,0,1,0.011099
18690,1.6464e+09,1,-0.34,-0.17,-0.13,0.11,0.05,-0.5,0,0,0,4.02,0,1,0.011099
18735,1.6464e+09,1,-0.34,-0.17,-0.13,0.11,0.05,-0.5,0,0,0,4.02,0,1,0.011099
18779,1.6464e+09,1,-0.34,-0.17,-0.13,0.11,0.05,-0.5,0,0,0,4.02,0,1,0.011099
18824,1.6464e+09,1,-0.34,-0.17,-0.13,0.11,0.05,-0.5,0,0,0,4.02,0,1,0.011099
18872,1.6464e+09,1,-0.34,-0.17,-0.13,0.11,0.05,-0.5,0,0,0,4.02,0,1,0.011099
18917,1.6464e+09,1,-0.34,-0.17,-0.13,0.11,0.05,-0.5,0,0,0,4.02,0,1,0.011099
18962,1.6464e+09,1,-0.34,-0.17,-0.13,0.11,0.05,-0.5,0,0,0,4.02,0,1,0.011099
19007,1.6465e+09,1,-0.34,-0.17,-0.13,0.11,0.05,-0.5,0,0,0,4.02,0,1,0.011099
19055,1.6465e+09,1,-0.34,-0.17,-0.13,0.11,0.05,-0.32,0,0,0,3.9,0,1,0.011099
19100,1.6465e+09,1,-0.34,-0.17,-0.13,0.11,0.05,-0.32,0,0,0,3.9,0,1,0.011099
19145,1.6465e+09,1,-0.34,-0.17,-0.13,0.11,0.05,-0.32,0,0,0,3.9,0,1,0.011099
19190,1.6465e+09,1,-0.34,-0.17,-0.13,0.11,0.05,-0.32,0,0,0,3.9,0,1,0.011099
19235,1.6465e+09,1,-0.34,-0.17,-0.13,0.11,0.05,-0.32,0,0,0,3.9,0,1,0.011099
19279,1.6465e+09,1,-0.34,-0.17,-0.13,0.11,0.05,-0.32,0,0,0,3.9,0,1,0.011099
19328,1.6465e+09,1,-0.34,-0.17,-0.13,0.11,0.05,-0.32,0,0,0,3.9,0,1,0.011099
19373,1.6465e+09,1,-0.34,-0.17,-0.13,0.11,0.05,-0.32,0,0,0,3.9,0,1,0.011099
19417,1.6465e+09,1,-0.34,-0.17,-0.13,0.11,0.05,-0.32,0,0,0,3.9,0,1,0.011099
19465,1.6466e+09,1,-0.34,-0.17,-0.13,0.11,0.05,-0.32,0,0,0,3.9,0,1,0.011099
19502,1.6466e+09,1,-0.32,-0.19,-0.2,0.09,0.05,-0.19,0,0,0,5.15,0,1,0.012158
19545,1.6466e+09,1,-0.32,-0.19,-0.2,0.09,0.05,-0.19,0,0,0,5.15,0,1,0.012158
19588,1.6466e+09,1,-0.32,-0.19,-0.2,0.09,0.05,-0.19,0,0,0,5.15,0,1,0.012158
19631,1.6466e+09,1,-0.32,-0.19,-0.2,0.09,0.05,-0.19,0,0,0,5.15,0,1,0.012158
19674,1.6466e+09,1,-0.32,-0.19,-0.2,0.09,0.05,-0.19,0,0,0,5.15,0,1,0.012158
19717,1.6466e+09,1,-0.32,-0.19,-0.2,0.09,0.05,-0.19,0,0,0,5.15,0,1,0.012158
19764,1.6466e+09,1,-0.32,-0.19,-0.2,0.09,0.05,-0.19,0,0,0,5.15,0,1,0.012158
19807,1.6466e+09,1,-0.32,-0.19,-0.2,0.09,0.05,-0.19,0,0,0,5.15,0,1,0.012158
19849,1.6466e+09,1,-0.32,-0.19,-0.2,0.09,0.05,-0.19,0,0,0,5.15,0,1,0.012158
19893,1.6467e+09,1,-0.32,-0.19,-0.2,0.09,0.05,-0.28,0,0,0,5.15,0,1,0.012158
19939,1.6467e+09,1,-0.32,-0.19,-0.2,0.09,0.05,-0.28,0,0,0,2.95,0,1,0.012158
19981,1.6467e+09,1,-0.32,-0.19,-0.2,0.09,0.05,-0.28,0,0,0,2.95,0,1,0.012158
20025,1.6467e+09,1,-0.32,-0.19,-0.2,0.09,0.05,-0.28,0,0,0,2.95,0,1,0.012158
20068,1.6467e+09,1,-0.32,-0.19,-0.2,0.09,0.05,-0.28,0,0,0,2.95,0,1,0.012158
20112,1.6467e+09,1,-0.32,-0.19,-0.2,0.09,0.05,-0.28,0,0,0,2.95,0,1,0.012158
20159,1.6467e+09,1,-0.32,-0.19,-0.2,0.09,0.05,-0.28,0,0,0,2.95,0,1,0.012158
20202,1.6467e+09,1,-0.32,-0.19,-0.2,0.09,0.05,-0.28,0,0,0,2.95,0,1,0.012158
20244,1.6467e+09,1,-0.32,-0.19,-0.2,0.09,0.05,-0.28,0,0,0,2.95,0,1,0.012158
20292,1.6468e+09,1,-0.32,-0.19,-0.2,0.09,0.05,-0.28,0,0,0,2.95,0,1,0.012158
20334,1.6468e+09,1,-0.36,-0.17,-0.15,0.09,0.05,-0.28,0,0,0,2.95,0,1,0.012636
20378,1.6468e+09,1,-0.36,-0.17,-0.15,0.09,0.05,-0.5,0,0,0,4.78,0,1,0.012636
20423,1.6468e+09,1,-0.36,-0.17,-0.15,0.09,0.05,-0.5,0,0,0,4.78,0,1,0.012636
20467,1.6468e+09,1,-0.36,-0.17,-0.15,0.09,0.05,-0.5,0,0,0,4.78,0,1,0.012636
20513,1.6468e+09,1,-0.36,-0.17,-0.15,0.09,0.05,-0.5,0,0,0,4.78,0,1,0.012636
20558,1.6468e+09,1,-0.36,-0.17,-0.15,0.09,0.05,-0.5,0,0,0,4.78,0,1,0.012636
20608,1.6468e+09,1,-0.36,-0.17,-0.15,0.09,0.05,-0.5,0,0,0,4.78,0,1,0.012636
20653,1.6468e+09,1,-0.36,-0.17,-0.15,0.09,0.05,-0.5,0,0,0,4.78,0,1,0.012636
20698,1.6469e+09,1,-0.36,-0.17,-0.15,0.09,0.05,-0.5,0,0,0,4.78,0,1,0.012636
20743,1.6469e+09,1,-0.36,-0.17,-0.15,0.09,0.05,-0.5,0,0,0,4.78,0,1,0.012636
20792,1.6469e+09,1,-0.36,-0.17,-0.15,0.09,0.05,-0.5,0,0,0,4.78,0,1,0.012636
20837,1.6469e+09,1,-0.36,-0.17,-0.15,0.09,0.05,-0.5,0,0,0,4.78,0,1,0.012636
20882,1.6469e+09,1,-0.36,-0.17,-0.15,0.09,0.05,-0.5,0,0,0,5.93,0,1,0.012636
20928,1.6469e+09,1,-0.36,-0.17,-0.15,0.09,0.05,-0.5,0,0,0,5.93,0,1,0.012636
20973,1.6469e+09,1,-0.36,-0.17,-0.15,0.09,0.05,-0.5,0,0,0,5.93,0,1,0.012636
21017,1.6469e+09,1,-0.36,-0.17,-0.15,0.09,0.05,-0.5,0,0,0,5.93,0,1,0.012636
21066,1.6469e+09,1,-0.36,-0.17,-0.15,0.09,0.05,-0.5,0,0,0,5.93,0,1,0.012636
21113,1.647e+09,1,-0.36,-0.17,-0.15,0.09,0.05,-0.5,0,0,0,5.93,0,1,0.012636
21154,1.647e+09,1,-0.38,-0.21,-0.18,0.08,0.05,-0.5,0,0,0,5.93,0,1,0.014707
21203,1.647e+09,1,-0.38,-0.21,-0.18,0.08,0.05,-0.5,0,0,0,5.93,0,1,0.014707
21248,1.647e+09,1,-0.38,-0.21,-0.18,0.08,0.05,-0.45,0,0,0,5.93,0,1,0.014707
21293,1.647e+09,1,-0.38,-0.21,-0.18,0.08,0.05,-0.45,0,0,0,3.79,0,1,0.014707
21337,1.647e+09,1,-0.38,-0.21,-0.18,0.08,0.05,-0.45,0,0,0,3.79,0,1,0.014707
21382,1.647e+09,1,-0.38,-0.21,-0.18,0.08,0.05,-0.45,0,0,0,3.79,0,1,0.014707
21427,1.647e+09,1,-0.38,-0.21,-0.18,0.08,0.05,-0.45,0,0,0,3.79,0,1,0.014707
21476,1.647e+09,1,-0.38,-0.21,-0.18,0.08,0.05,-0.45,0,0,0,3.79,0,1,0.014707
21521,1.647e+09,1,-0.38,-0.21,-0.18,0.08,0.05,-0.45,0,0,0,3.79,0,1,0.014707
21566,1.6471e+09,1,-0.38,-0.21,-0.18,0.08,0.05,-0.45,0,0,0,3.79,0,1,0.014707
21612,1.6471e+09,1,-0.38,-0.21,-0.18,0.08,0.05,-0.45,0,0,0,3.79,0,1,0.014707
21656,1.6471e+09,1,-0.38,-0.21,-0.18,0.08,0.05,-0.45,0,0,0,3.79,0,1,0.014707
21702,1.6471e+09,1,-0.38,-0.21,-0.18,0.08,0.05,-0.25,0,0,0,4.36,0,1,0.014707
21746,1.6471e+09,1,-0.38,-0.21,-0.18,0.08,0.05,-0.25,0,0,0,4.36,0,1,0.014707
21792,1.6471e+09,1,-0.38,-0.21,-0.18,0.08,0.05,-0.25,0,0,0,4.36,0,1,0.014707
21836,1.6471e+09,1,-0.38,-0.21,-0.18,0.08,0.05,-0.25,0,0,0,4.36,0,1,0.014707
21881,1.6471e+09,1,-0.38,-0.21,-0.18,0.08,0.05,-0.25,0,0,0,4.36,0,1,0.014707
21930,1.6471e+09,1,-0.38,-0.21,-0.18,0.08,0.05,-0.25,0,0,0,4.36,0,1,0.014707
21976,1.6472e+09,1,-0.38,-0.21,-0.18,0.08,0.05,-0.25,0,0,0,4.36,0,1,0.014707
22016,1.6472e+09,1,-0.33,-0.2,-0.13,0.06,0.05,-0.25,0,0,0,4.36,0,1,0.011334
22062,1.6472e+09,1,-0.33,-0.2,-0.13,0.06,0.05,-0.25,0,0,0,4.36,0,1,0.011334
22105,1.6472e+09,1,-0.33,-0.2,-0.13,0.06,0.05,-0.25,0,0,0,4.36,0,1,0.011334
22147,1.6472e+09,1,-0.33,-0.2,-0.13,0.06,0.05,-0.44,0,0,0,4.53,0,1,0.011334
22190,1.6472e+09,1,-0.33,-0.2,-0.13,0.06,0.05,-0.44,0,0,0,4.53,0,1,0.011334
22234,1.6472e+09,1,-0.33,-0.2,-0.13,0.06,0.05,-0.44,0,0,0,4.53,0,1,0.011334
22277,1.6472e+09,1,-0.33,-0.2,-0.13,0.06,0.05,-0.44,0,0,0,4.53,0,1,0.011334
22320,1.6472e+09,1,-0.33,-0.2,-0.13,0.06,0.05,-0.44,0,0,0,4.53,0,1,0.011334
22368,1.6472e+09,1,-0.33,-0.2,-0.13,0.06,0.05,-0.44,0,0,0,4.53,0,1,0.011334
22411,1.6473e+09,1,-0.33,-0.2,-0.13,0.06,0.05,-0.44,0,0,0,4.53,0,1,0.011334
22453,1.6473e+09,1,-0.33,-0.2,-0.13,0.06,0.05,-0.44,0,0,0,4.53,0,1,0.011334
22497,1.6473e+09,1,-0.33,-0.2,-0.13,0.06,0.05,-0.44,0,0,0,4.53,0,1,0.011334
22543,1.6473e+09,1,-0.33,-0.2,-0.13,0.06,0.05,-0.38,0,0,0,3.3,0,1,0.011334
22585,1.6473e+09,1,-0.33,-0.2,-0.13,0.06,0.05,-0.38,0,0,0,3.3,0,1,0.011334
22628,1.6473e+09,1,-0.33,-0.2,-0.13,0.06,0.05,-0.38,0,0,0,3.3,0,1,0.011334
22670,1.6473e+09,1,-0.33,-0.2,-0.13,0.06,0.05,-0.38,0,0,0,3.3,0,1,0.011334
22714,1.6473e+09,1,-0.33,-0.2,-0.13,0.06,0.05,-0.38,0,0,0,3.3,0,1,0.011334
22757,1.6473e+09,1,-0.37,-0.19,-0.12,0.06,0.04,-0.38,0,0,0,3.3,0,1,0.013034
22803,1.6474e+09,1,-0.37,-0.19,-0.12,0.06,0.04,-0.38,0,0,0,3.3,0,1,0.013034
22848,1.6474e+09,1,-0.37,-0.19,-0.12,0.06,0.04,-0.38,0,0,0,3.3,0,1,0.013034
22893,1.6474e+09,1,-0.37,-0.19,-0.12,0.06,0.04,-0.38,0,0,0,3.3,0,1,0.013034
22941,1.6474e+09,1,-0.37,-0.19,-0.12,0.06,0.04,-0.38,0,0,0,3.3,0,1,0.013034
22985,1.6474e+09,1,-0.37,-0.19,-0.12,0.06,0.04,-0.37,0,0,0,3.96,0,1,0.013034
23030,1.6474e+09,1,-0.37,-0.19,-0.12,0.06,0.04,-0.37,0,0,0,3.96,0,1,0.013034
23076,1.6474e+09,1,-0.37,-0.19,-0.12,0.06,0.04,-0.37,0,0,0,3.96,0,1,0.013034
23121,1.6474e+09,1,-0.37,-0.19,-0.12,0.06,0.04,-0.37,0,0,0,3.96,0,1,0.013034
23166,1.6474e+09,1,-0.37,-0.19,-0.12,0.06,0.04,-0.37,0,0,0,3.96,0,1,0.013034
23214,1.6475e+09,1,-0.37,-0.19,-0.12,0.06,0.04,-0.37,0,0,0,3.96,0,1,0.013034
23259,1.6475e+09,1,-0.37,-0.19,-0.12,0.06,0.04,-0.37,0,0,0,3.96,0,1,0.013034
23304,1.6475e+09,1,-0.37,-0.19,-0.12,0.06,0.04,-0.37,0,0,0,3.96,0,1,0.013034
23349,1.6475e+09,1,-0.37,-0.19,-0.12,0.06,0.04,-0.37,0,0,0,3.96,0,1,0.013034
23397,1.6475e+09,1,-0.37,-0.19,-0.12,0.06,0.04,-0.37,0,0,0,3.96,0,1,0.013034
23438,1.6475e+09,1,-0.37,-0.19,-0.12,0.06,0.04,-0.5,0,0,0,5.29,0,1,0.013034
23483,1.6475e+09,1,-0.37,-0.19,-0.12,0.06,0.04,-0.5,0,0,0,5.29,0,1,0.013034
23527,1.6475e+09,1,-0.37,-0.19,-0.12,0.06,0.04,-0.5,0,0,0,5.29,0,1,0.013034
23574,1.6475e+09,1,-0.37,-0.19,-0.12,0.06,0.04,-0.5,0,0,0,5.29,0,1,0.013034
23621,1.6475e+09,1,-0.37,-0.19,-0.12,0.06,0.04,-0.5,0,0,0,5.29,0,1,0.013034
23663,1.6476e+09,1,-0.39,-0.19,-0.14,0.05,0.04,-0.5,0,0,0,5.29,0,1,0.01393
23708,1.6476e+09,1,-0.39,-0.19,-0.14,0.05,0.04,-0.5,0,0,0,5.29,0,1,0.01393
23752,1.6476e+09,1,-0.39,-0.19,-0.14,0.05,0.04,-0.5,0,0,0,5.29,0,1,0.01393
23797,1.6476e+09,1,-0.39,-0.19,-0.14,0.05,0.04,-0.5,0,0,0,5.29,0,1,0.01393
23842,1.6476e+09,1,-0.39,-0.19,-0.14,0.05,0.04,-0.5,0,0,0,5.29,0,1,0.01393
23887,1.6476e+09,1,-0.39,-0.19,-0.14,0.05,0.04,-0.1,0,0,0,5.29,0,1,0.01393
23931,1.6476e+09,1,-0.39,-0.19,-0.14,0.05,0.04,-0.1,0,0,0,5.29,0,1,0.01393
23977,1.6476e+09,1,-0.39,-0.19,-0.14,0.05,0.04,-0.1,0,0,0,4.43,0,1,0.01393
24023,1.6476e+09,1,-0.39,-0.19,-0.14,0.05,0.04,-0.1,0,0,0,4.43,0,1,0.01393
24067,1.6477e+09,1,-0.39,-0.19,-0.14,0.05,0.04,-0.1,0,0,0,4.43,0,1,0.01393
24116,1.6477e+09,1,-0.39,-0.19,-0.14,0.05,0.04,-0.1,0,0,0,4.43,0,1,0.01393
24160,1.6477e+09,1,-0.39,-0.19,-0.14,0.05,0.04,-0.1,0,0,0,4.43,0,1,0.01393
24206,1.6477e+09,1,-0.39,-0.19,-0.14,0.05,0.04,-0.1,0,0,0,4.43,0,1,0.01393
24251,1.6477e+09,1,-0.39,-0.19,-0.14,0.05,0.04,-0.1,0,0,0,4.43,0,1,0.01393
24295,1.6477e+09,1,-0.39,-0.19,-0.14,0.05,0.04,-0.1,0,0,0,4.43,0,1,0.01393
24343,1.6477e+09,1,-0.39,-0.19,-0.14,0.05,0.04,-0.3,0,0,0,4.75,0,1,0.01393
24388,1.6477e+09,1,-0.39,-0.19,-0.14,0.05,0.04,-0.3,0,0,0,4.75,0,1,0.01393
24434,1.6477e+09,1,-0.39,-0.19,-0.14,0.05,0.04,-0.3,0,0,0,4.75,0,1,0.01393
24483,1.6477e+09,1,-0.39,-0.19,-0.14,0.05,0.04,-0.3,0,0,0,4.75,0,1,0.01393
24529,1.6478e+09,1,-0.39,-0.19,-0.14,0.05,0.04,-0.3,0,0,0,4.75,0,1,0.01393
24573,1.6478e+09,1,-0.37,-0.25,-0.2,0.04,0.03,-0.3,0,0,0,4.75,0,1,0.016432
24615,1.6478e+09,1,-0.37,-0.25,-0.2,0.04,0.03,-0.3,0,0,0,4.75,0,1,0.016432
24659,1.6478e+09,1,-0.37,-0.25,-0.2,0.04,0.03,-0.3,0,0,0,4.75,0,1,0.016432
24702,1.6478e+09,1,-0.37,-0.25,-0.2,0.04,0.03,-0.12,0,0,0,4.75,0,1,0.016432
24744,1.6478e+09,1,-0.37,-0.25,-0.2,0.04,0.03,-0.12,0,0,0,4.79,0,1,0.016432
24788,1.6478e+09,1,-0.37,-0.25,-0.2,0.04,0.03,-0.12,0,0,0,4.79,0,1,0.016432
24830,1.6478e+09,1,-0.37,-0.25,-0.2,0.04,0.03,-0.12,0,0,0,4.79,0,1,0.016432
24873,1.6478e+09,1,-0.37,-0.25,-0.2,0.04,0.03,-0.12,0,0,0,4.79,0,1,0.016432
24915,1.6479e+09,1,-0.37,-0.25,-0.2,0.04,0.03,-0.12,0,0,0,4.79,0,1,0.016432
24961,1.6479e+09,1,-0.37,-0.25,-0.2,0.04,0.03,-0.12,0,0,0,4.79,0,1,0.016432
25008,1.6479e+09,1,-0.37,-0.25,-0.2,0.04,0.03,-0.12,0,0,0,4.79,0,1,0.016432
25051,1.6479e+09,1,-0.37,-0.25,-0.2,0.04,0.03,-0.12,0,0,0,4.79,0,1,0.016432
25094,1.6479e+09,1,-0.37,-0.25,-0.2,0.04,0.03,-0.12,0,0,0,4.79,0,1,0.016432
25136,1.6479e+09,1,-0.37,-0.25,-0.2,0.04,0.03,-0.12,0,0,0,4.79,0,1,0.016432
25179,1.6479e+09,1,-0.37,-0.25,-0.2,0.04,0.03,-0.12,0,0,0,4.79,0,1,0.016432
25221,1.6479e+09,1,-0.37,-0.25,-0.2,0.04,0.03,-0.01,0,0,0,1.85,0,1,0.016432
25265,1.6479e+09,1,-0.37,-0.25,-0.2,0.04,0.03,-0.01,0,0,0,1.85,0,1,0.016432
25308,1.6479e+09,1,-0.37,-0.25,-0.2,0.04,0.03,-0.01,0,0,0,1.85,0,1,0.016432
25351,1.648e+09,1,-0.37,-0.25,-0.2,0.04,0.03,-0.01,0,0,0,1.85,0,1,0.016432
25396,1.648e+09,1,-0.37,-0.25,-0.2,0.04,0.03,-0.01,0,0,0,1.85,0,1,0.016432
25439,1.648e+09,1,-0.37,-0.23,-0.09,0.04,0.02,-0.01,0,0,0,1.85,0,1,0.013538
25483,1.648e+09,1,-0.37,-0.23,-0.09,0.04,0.02,-0.01,0,0,0,1.85,0,1,0.013538
25528,1.648e+09,1,-0.37,-0.23,-0.09,0.04,0.02,-0.01,0,0,0,1.85,0,1,0.013538
25572,1.648e+09,1,-0.37,-0.23,-0.09,0.04,0.02,-0.01,0,0,0,1.85,0,1,0.013538
25618,1.648e+09,1,-0.37,-0.23,-0.09,0.04,0.02,-0.01,0,0,0,1.85,0,1,0.013538
25663,1.648e+09,1,-0.37,-0.23,-0.09,0.04,0.02,-0.01,0,0,0,1.85,0,1,0.013538
25707,1.648e+09,1,-0.37,-0.23,-0.09,0.04,0.02,-0.01,0,0,0,1.85,0,1,0.013538
25752,1.648e+09,1,-0.37,-0.23,-0.09,0.04,0.02,-0.17,0,0,0,1.85,0,1,0.013538
25797,1.6481e+09,1,-0.37,-0.23,-0.09,0.04,0.02,-0.17,0,0,0,4.12,0,1,0.013538
25842,1.6481e+09,1,-0.37,-0.23,-0.09,0.04,0.02,-0.17,0,0,0,4.12,0,1,0.013538
25891,1.6481e+09,1,-0.37,-0.23,-0.09,0.04,0.02,-0.17,0,0,0,4.12,0,1,0.013538
25936,1.6481e+09,1,-0.37,-0.23,-0.09,0.04,0.02,-0.17,0,0,0,4.12,0,1,0.013538
25981,1.6481e+09,1,-0.37,-0.23,-0.09,0.04,0.02,-0.17,0,0,0,4.12,0,1,0.013538
26026,1.6481e+09,1,-0.37,-0.23,-0.09,0.04,0.02,-0.17,0,0,0,4.12,0,1,0.013538
26071,1.6481e+09,1,-0.37,-0.23,-0.09,0.04,0.02,-0.17,0,0,0,4.12,0,1,0.013538
26115,1.6481e+09,1,-0.37,-0.23,-0.09,0.04,0.02,-0.03,0,0,0,4.41,0,1,0.013538
26160,1.6481e+09,1,-0.37,-0.23,-0.09,0.04,0.02,-0.03,0,0,0,4.41,0,1,0.013538
26203,1.6482e+09,1,-0.38,-0.26,-0.09,0.03,0.02,-0.03,0,0,0,4.41,0,1,0.015223
26248,1.6482e+09,1,-0.38,-0.26,-0.09,0.03,0.02,-0.03,0,0,0,4.41,0,1,0.015223
26294,1.6482e+09,1,-0.38,-0.26,-0.09,0.03,0.02,-0.03,0,0,0,4.41,0,1,0.015223
26343,1.6482e+09,1,-0.38,-0.26,-0.09,0.03,0.02,-0.03,0,0,0,4.41,0,1,0.015223
26387,1.6482e+09,1,-0.38,-0.26,-0.09,0.03,0.02,-0.03,0,0,0,4.41,0,1,0.015223
26432,1.6482e+09,1,-0.38,-0.26,-0.09,0.03,0.02,-0.03,0,0,0,4.41,0,1,0.015223
26477,1.6482e+09,1,-0.38,-0.26,-0.09,0.03,0.02,-0.03,0,0,0,4.41,0,1,0.015223
26521,1.6482e+09,1,-0.38,-0.26,-0.09,0.03,0.02,-0.24,0,0,0,4.36,0,1,0.015223
26568,1.6482e+09,1,-0.38,-0.26,-0.09,0.03,0.02,-0.24,0,0,0,4.36,0,1,0.015223
26612,1.6483e+09,1,-0.38,-0.26,-0.09,0.03,0.02,-0.24,0,0,0,4.36,0,1,0.015223
26657,1.6483e+09,1,-0.38,-0.26,-0.09,0.03,0.02,-0.24,0,0,0,4.36,0,1,0.015223
26701,1.6483e+09,1,-0.38,-0.26,-0.09,0.03,0.02,-0.24,0,0,0,4.36,0,1,0.015223
26748,1.6483e+09,1,-0.38,-0.26,-0.09,0.03,0.02,-0.24,0,0,0,4.36,0,1,0.015223
26796,1.6483e+09,1,-0.38,-0.26,-0.09,0.03,0.02,-0.24,0,0,0,4.36,0,1,0.015223
26842,1.6483e+09,1,-0.38,-0.26,-0.09,0.03,0.02,-0.24,0,0,0,4.36,0,1,0.015223
26887,1.6483e+09,1,-0.38,-0.26,-0.09,0.03,0.02,-0.24,0,0,0,4.36,0,1,0.015223
26931,1.6483e+09,1,-0.38,-0.26,-0.09,0.03,0.02,-0.24,0,0,0,4.36,0,1,0.015223
26976,1.6483e+09,1,-0.38,-0.26,-0.09,0.03,0.02,-0.04,0,0,0,4.54,0,1,0.015223
27020,1.6483e+09,1,-0.38,-0.26,-0.09,0.03,0.02,-0.04,0,0,0,4.54,0,1,0.015223
27067,1.6484e+09,1,-0.38,-0.26,-0.09,0.03,0.02,-0.04,0,0,0,4.54,0,1,0.015223
27107,1.6484e+09,1,-0.43,-0.28,-0.06,0.02,0.02,-0.04,0,0,0,4.54,0,1,0.018174
27149,1.6484e+09,1,-0.43,-0.28,-0.06,0.02,0.02,-0.04,0,0,0,4.54,0,1,0.018174
27192,1.6484e+09,1,-0.43,-0.28,-0.06,0.02,0.02,-0.04,0,0,0,4.54,0,1,0.018174
27239,1.6484e+09,1,-0.43,-0.28,-0.06,0.02,0.02,-0.04,0,0,0,4.54,0,1,0.018174
27282,1.6484e+09,1,-0.43,-0.28,-0.06,0.02,0.02,-0.04,0,0,0,4.54,0,1,0.018174
27325,1.6484e+09,1,-0.43,-0.28,-0.06,0.02,0.02,-0.04,0,0,0,4.54,0,1,0.018174
27371,1.6484e+09,1,-0.43,-0.28,-0.06,0.02,0.02,-0.04,0,0,0,4.54,0,1,0.018174
27414,1.6484e+09,1,-0.43,-0.28,-0.06,0.02,0.02,0.02,0,0,0,4.46,0,1,0.018174
27456,1.6485e+09,1,-0.43,-0.28,-0.06,0.02,0.02,0.02,0,0,0,4.46,0,1,0.018174
27499,1.6485e+09,1,-0.43,-0.28,-0.06,0.02,0.02,0.02,0,0,0,4.46,0,1,0.018174
27542,1.6485e+09,1,-0.43,-0.28,-0.06,0.02,0.02,0.02,0,0,0,4.46,0,1,0.018174
27584,1.6485e+09,1,-0.43,-0.28,-0.06,0.02,0.02,0.02,0,0,0,4.46,0,1,0.018174
27631,1.6485e+09,1,-0.43,-0.28,-0.06,0.02,0.02,0.02,0,0,0,4.46,0,1,0.018174
27675,1.6485e+09,1,-0.43,-0.28,-0.06,0.02,0.02,0.02,0,0,0,4.46,0,1,0.018174
27718,1.6485e+09,1,-0.43,-0.28,-0.06,0.02,0.02,0.02,0,0,0,4.46,0,1,0.018174
27764,1.6485e+09,1,-0.43,-0.28,-0.06,0.02,0.02,0.02,0,0,0,4.46,0,1,0.018174
27812,1.6485e+09,1,-0.43,-0.28,-0.06,0.02,0.02,0.02,0,0,0,4.46,0,1,0.018174
27850,1.6486e+09,1,-0.39,-0.22,-0.08,0.01,0.02,0.08,0,0,0,4.46,0,1,0.013783
27894,1.6486e+09,1,-0.39,-0.22,-0.08,0.01,0.02,0.08,0,0,0,3.68,0,1,0.013783
27938,1.6486e+09,1,-0.39,-0.22,-0.08,0.01,0.02,0.08,0,0,0,3.68,0,1,0.013783
27982,1.6486e+09,1,-0.39,-0.22,-0.08,0.01,0.02,0.08,0,0,0,3.68,0,1,0.013783
28026,1.6486e+09,1,-0.39,-0.22,-0.08,0.01,0.02,0.08,0,0,0,3.68,0,1,0.013783
28076,1.6486e+09,1,-0.39,-0.22,-0.08,0.01,0.02,0.08,0,0,0,3.68,0,1,0.013783
28120,1.6486e+09,1,-0.39,-0.22,-0.08,0.01,0.02,0.08,0,0,0,3.68,0,1,0.013783
28166,1.6486e+09,1,-0.39,-0.22,-0.08,0.01,0.02,0.08,0,0,0,3.68,0,1,0.013783
28211,1.6486e+09,1,-0.39,-0.22,-0.08,0.01,0.02,0.08,0,0,0,3.68,0,1,0.013783
28255,1.6487e+09,1,-0.39,-0.22,-0.08,0.01,0.02,0.08,0,0,0,3.68,0,1,0.013783
28300,1.6487e+09,1,-0.39,-0.22,-0.08,0.01,0.02,0.08,0,0,0,3.68,0,1,0.013783
28344,1.6487e+09,1,-0.39,-0.22,-0.08,0.01,0.02,-0.2,0,0,0,4.33,0,1,0.013783
28389,1.6487e+09,1,-0.39,-0.22,-0.08,0.01,0.02,-0.2,0,0,0,4.33,0,1,0.013783
28435,1.6487e+09,1,-0.39,-0.22,-0.08,0.01,0.02,-0.2,0,0,0,4.33,0,1,0.013783
28481,1.6487e+09,1,-0.39,-0.22,-0.08,0.01,0.02,-0.2,0,0,0,4.33,0,1,0.013783
28529,1.6487e+09,1,-0.39,-0.22,-0.08,0.01,0.02,-0.2,0,0,0,4.33,0,1,0.013783
28575,1.6487e+09,1,-0.39,-0.22,-0.08,0.01,0.02,-0.2,0,0,0,4.33,0,1,0.013783
28626,1.6487e+09,1,-0.39,-0.22,-0.08,0.01,0.02,-0.2,0,0,0,4.33,0,1,0.013783
28668,1.6488e+09,1,-0.42,-0.24,-0.13,0,0.02,-0.47,0,0,0,4.33,0,1,0.017083
28712,1.6488e+09,1,-0.42,-0.24,-0.13,0,0.02,-0.47,0,0,0,3.35,0,1,0.017083
28758,1.6488e+09,1,-0.42,-0.24,-0.13,0,0.02,-0.47,0,0,0,3.35,0,1,0.017083
28804,1.6488e+09,1,-0.42,-0.24,-0.13,0,0.02,-0.47,0,0,0,3.35,0,1,0.017083
28848,1.6488e+09,1,-0.42,-0.24,-0.13,0,0.02,-0.47,0,0,0,3.35,0,1,0.017083
28894,1.6488e+09,1,-0.42,-0.24,-0.13,0,0.02,-0.47,0,0,0,3.35,0,1,0.017083
28946,1.6488e+09,1,-0.42,-0.24,-0.13,0,0.02,-0.47,0,0,0,3.35,0,1,0.017083
28991,1.6488e+09,1,-0.42,-0.24,-0.13,0,0.02,-0.47,0,0,0,3.35,0,1,0.017083
29036,1.6488e+09,1,-0.42,-0.24,-0.13,0,0.02,-0.47,0,0,0,3.35,0,1,0.017083
29080,1.6489e+09,1,-0.42,-0.24,-0.13,0,0.02,-0.47,0,0,0,3.35,0,1,0.017083
29125,1.6489e+09,1,-0.42,-0.24,-0.13,0,0.02,-0.47,0,0,0,3.35,0,1,0.017083
29169,1.6489e+09,1,-0.42,-0.24,-0.13,0,0.02,-0.5,0,0,0,3.53,0,1,0.017083
29214,1.6489e+09,1,-0.42,-0.24,-0.13,0,0.02,-0.5,0,0,0,3.53,0,1,0.017083
29259,1.6489e+09,1,-0.42,-0.24,-0.13,0,0.02,-0.5,0,0,0,3.53,0,1,0.017083
29304,1.6489e+09,1,-0.42,-0.24,-0.13,0,0.02,-0.5,0,0,0,3.53,0,1,0.017083
29351,1.6489e+09,1,-0.42,-0.24,-0.13,0,0.02,-0.5,0,0,0,3.53,0,1,0.017083
29399,1.6489e+09,1,-0.42,-0.24,-0.13,0,0.02,-0.5,0,0,0,3.53,0,1,0.017083
29445,1.6489e+09,1,-0.42,-0.24,-0.13,0,0.02,-0.5,0,0,0,3.53,0,1,0.017083
29490,1.6489e+09,1,-0.42,-0.24,-0.13,0,0.02,-0.5,0,0,0,3.53,0,1,0.017083
29532,1.649e+09,1,-0.61,-0.31,-0.18,0,0.01,-0.5,0,0,0,3.53,0,1,0.033263
29574,1.649e+09,1,-0.61,-0.31,-0.18,0,0.01,-0.5,0,0,0,3.53,0,1,0.033263
29616,1.649e+09,1,-0.61,-0.31,-0.18,0,0.01,-0.5,0,0,0,2.62,0,1,0.033263
29659,1.649e+09,1,-0.61,-0.31,-0.18,0,0.01,-0.5,0,0,0,2.62,0,1,0.033263
29701,1.649e+09,1,-0.61,-0.31,-0.18,0,0.01,-0.5,0,0,0,2.62,0,1,0.033263
29745,1.649e+09,1,-0.61,-0.31,-0.18,0,0.01,-0.5,0,0,0,2.62,0,1,0.033263
29788,1.649e+09,1,-0.61,-0.31,-0.18,0,0.01,-0.5,0,0,0,2.62,0,1,0.033263
29835,1.649e+09,1,-0.61,-0.31,-0.18,0,0.01,-0.5,0,0,0,2.62,0,1,0.033263
29878,1.649e+09,1,-0.61,-0.31,-0.18,0,0.01,-0.5,0,0,0,2.62,0,1,0.033263
29920,1.6491e+09,1,-0.61,-0.31,-0.18,0,0.01,-0.5,0,0,0,2.62,0,1,0.033263
29963,1.6491e+09,1,-0.61,-0.31,-0.18,0,0.01,-0.5,0,0,0,2.62,0,1,0.033263
30007,1.6491e+09,1,-0.61,-0.31,-0.18,0,0.01,-0.5,0,0,0,2.62,0,1,0.033263
30050,1.6491e+09,1,-0.61,-0.31,-0.18,0,0.01,-0.41,0,0,0,3.27,0,1,0.033263
30092,1.6491e+09,1,-0.61,-0.31,-0.18,0,0.01,-0.41,0,0,0,3.27,0,1,0.033263
30135,1.6491e+09,1,-0.61,-0.31,-0.18,0,0.01,-0.41,0,0,0,3.27,0,1,0.033263
30178,1.6491e+09,1,-0.61,-0.31,-0.18,0,0.01,-0.41,0,0,0,3.27,0,1,0.033263
30220,1.6491e+09,1,-0.61,-0.31,-0.18,0,0.01,-0.41,0,0,0,3.27,0,1,0.033263
30267,1.6491e+09,1,-0.61,-0.31,-0.18,0,0.01,-0.41,0,0,0,3.27,0,1,0.033263
30311,1.6491e+09,1,-0.61,-0.31,-0.18,0,0.01,-0.41,0,0,0,3.27,0,1,0.033263
30358,1.6492e+09,1,-0.61,-0.31,-0.18,0,0.01,-0.41,0,0,0,3.27,0,1,0.033263
30397,1.6492e+09,1,-0.39,-0.19,-0.16,-0.05,0,-0.5,0,0,0,3.27,0,1,0.014245
30441,1.6492e+09,1,-0.39,-0.19,-0.16,-0.05,0,-0.5,0,0,0,1.65,0,1,0.014245
30487,1.6492e+09,1,-0.39,-0.19,-0.16,-0.05,0,-0.5,0,0,0,1.65,0,1,0.014245
30532,1.6492e+09,1,-0.39,-0.19,-0.16,-0.05,0,-0.5,0,0,0,1.65,0,1,0.014245
30576,1.6492e+09,1,-0.39,-0.19,-0.16,-0.05,0,-0.5,0,0,0,1.65,0,1,0.014245
30621,1.6492e+09,1,-0.39,-0.19,-0.16,-0.05,0,-0.5,0,0,0,1.65,0,1,0.014245
30667,1.6492e+09,1,-0.39,-0.19,-0.16,-0.05,0,-0.5,0,0,0,1.65,0,1,0.014245
30716,1.6492e+09,1,-0.39,-0.19,-0.16,-0.05,0,-0.5,0,0,0,1.65,0,1,0.014245
30762,1.6493e+09,1,-0.39,-0.19,-0.16,-0.05,0,-0.5,0,0,0,1.65,0,1,0.014245
30807,1.6493e+09,1,-0.39,-0.19,-0.16,-0.05,0,-0.5,0,0,0,1.65,0,1,0.014245
30852,1.6493e+09,1,-0.39,-0.19,-0.16,-0.05,0,-0.5,0,0,0,1.65,0,1,0.014245
30896,1.6493e+09,1,-0.39,-0.19,-0.16,-0.05,0,-0.5,0,0,0,1.65,0,1,0.014245
30941,1.6493e+09,1,-0.39,-0.19,-0.16,-0.05,0,-0.46,0,0,0,2.42,0,1,0.014245
30985,1.6493e+09,1,-0.39,-0.19,-0.16,-0.05,0,-0.46,0,0,0,2.42,0,1,0.014245
31030,1.6493e+09,1,-0.39,-0.19,-0.16,-0.05,0,-0.46,0,0,0,2.42,0,1,0.014245
31074,1.6493e+09,1,-0.39,-0.19,-0.16,-0.05,0,-0.46,0,0,0,2.42,0,1,0.014245
31119,1.6493e+09,1,-0.39,-0.19,-0.16,-0.05,0,-0.46,0,0,0,2.42,0,1,0.014245
31170,1.6494e+09,1,-0.39,-0.19,-0.16,-0.05,0,-0.46,0,0,0,2.42,0,1,0.014245
31213,1.6494e+09,1,-0.32,-0.47,-0.01,-0.06,0.02,-0.46,0,0,0,2.42,0,1,0.021742
31258,1.6494e+09,1,-0.32,-0.47,-0.01,-0.06,0.02,-0.46,0,0,0,2.42,0,1,0.021742
31306,1.6494e+09,1,-0.32,-0.47,-0.01,-0.06,0.02,-0.38,0,0,0,1.27,0,1,0.021742
31350,1.6494e+09,1,-0.32,-0.47,-0.01,-0.06,0.02,-0.38,0,0,0,1.27,0,1,0.021742
31395,1.6494e+09,1,-0.32,-0.47,-0.01,-0.06,0.02,-0.38,0,0,0,1.27,0,1,0.021742
31439,1.6494e+09,1,-0.32,-0.47,-0.01,-0.06,0.02,-0.38,0,0,0,1.27,0,1,0.021742
31484,1.6494e+09,1,-0.32,-0.47,-0.01,-0.06,0.02,-0.38,0,0,0,1.27,0,1,0.021742
31529,1.6494e+09,1,-0.32,-0.47,-0.01,-0.06,0.02,-0.38,0,0,0,1.27,0,1,0.021742
31578,1.6495e+09,1,-0.32,-0.47,-0.01,-0.06,0.02,-0.38,0,0,0,1.27,0,1,0.021742
31623,1.6495e+09,1,-0.32,-0.47,-0.01,-0.06,0.02,-0.38,0,0,0,1.27,0,1,0.021742
31667,1.6495e+09,1,-0.32,-0.47,-0.01,-0.06,0.02,-0.38,0,0,0,1.27,0,1,0.021742
31712,1.6495e+09,1,-0.32,-0.47,-0.01,-0.06,0.02,-0.38,0,0,0,1.27,0,1,0.021742
31756,1.6495e+09,1,-0.32,-0.47,-0.01,-0.06,0.02,-0.38,0,0,0,1.27,0,1,0.021742
31801,1.6495e+09,1,-0.32,-0.47,-0.01,-0.06,0.02,-0.38,0,0,0,1.27,0,1,0.021742
31847,1.6495e+09,1,-0.32,-0.47,-0.01,-0.06,0.02,-0.03,0,0,0,1.27,0,1,0.021742
31891,1.6495e+09,1,-0.32,-0.47,-0.01,-0.06,0.02,-0.03,0,0,0,2.59,0,1,0.021742
31936,1.6495e+09,1,-0.32,-0.47,-0.01,-0.06,0.02,-0.03,0,0,0,2.59,0,1,0.021742
31979,1.6496e+09,1,-0.32,-0.47,-0.01,-0.06,0.02,-0.03,0,0,0,2.59,0,1,0.021742
32025,1.6496e+09,1,-0.38,-0.24,-0.25,-0.05,0,-0.03,0,0,0,2.59,0,1,0.018039
32069,1.6496e+09,1,-0.38,-0.24,-0.25,-0.05,0,-0.03,0,0,0,2.59,0,1,0.018039
32114,1.6496e+09,1,-0.38,-0.24,-0.25,-0.05,0,-0.03,0,0,0,2.59,0,1,0.018039
32159,1.6496e+09,1,-0.38,-0.24,-0.25,-0.05,0,-0.03,0,0,0,2.59,0,1,0.018039
32203,1.6496e+09,1,-0.38,-0.24,-0.25,-0.05,0,-0.03,0,0,0,2.59,0,1,0.018039
32249,1.6496e+09,1,-0.38,-0.24,-0.25,-0.05,0,-0.18,0,0,0,2.59,0,1,0.018039
32293,1.6496e+09,1,-0.38,-0.24,-0.25,-0.05,0,-0.18,0,0,0,1.46,0,1,0.018039
32338,1.6496e+09,1,-0.38,-0.24,-0.25,-0.05,0,-0.18,0,0,0,1.46,0,1,0.018039
32384,1.6496e+09,1,-0.38,-0.24,-0.25,-0.05,0,-0.18,0,0,0,1.46,0,1,0.018039
32428,1.6497e+09,1,-0.38,-0.24,-0.25,-0.05,0,-0.18,0,0,0,1.46,0,1,0.018039
32477,1.6497e+09,1,-0.38,-0.24,-0.25,-0.05,0,-0.18,0,0,0,1.46,0,1,0.018039
32521,1.6497e+09,1,-0.38,-0.24,-0.25,-0.05,0,-0.18,0,0,0,1.46,0,1,0.018039
32566,1.6497e+09,1,-0.38,-0.24,-0.25,-0.05,0,-0.18,0,0,0,1.46,0,1,0.018039
32610,1.6497e+09,1,-0.38,-0.24,-0.25,-0.05,0,-0.18,0,0,0,1.46,0,1,0.018039
32655,1.6497e+09,1,-0.38,-0.24,-0.25,-0.05,0,-0.18,0,0,0,1.46,0,1,0.018039
32700,1.6497e+09,1,-0.38,-0.24,-0.25,-0.05,0,-0.08,0,0,0,1.46,0,1,0.018039
32749,1.6497e+09,1,-0.38,-0.24,-0.25,-0.05,0,-0.08,0,0,0,0.11,0,1,0.018039
32794,1.6497e+09,1,-0.38,-0.24,-0.25,-0.05,0,-0.08,0,0,0,0.11,0,1,0.018039
32839,1.6498e+09,1,-0.38,-0.24,-0.25,-0.05,0,-0.08,0,0,0,0.11,0,1,0.018039
32885,1.6498e+09,1,-0.38,-0.24,-0.25,-0.05,0,-0.08,0,0,0,0.11,0,1,0.018039
32926,1.6498e+09,1,-0.46,-0.23,0.08,-0.1,0,-0.08,0,0,0,0.11,0,1,0.018707
32968,1.6498e+09,1,-0.46,-0.23,0.08,-0.1,0,-0.08,0,0,0,0.11,0,1,0.018707
33011,1.6498e+09,1,-0.46,-0.23,0.08,-0.1,0,-0.08,0,0,0,0.11,0,1,0.018707
33054,1.6498e+09,1,-0.46,-0.23,0.08,-0.1,0,-0.08,0,0,0,0.11,0,1,0.018707
33096,1.6498e+09,1,-0.46,-0.23,0.08,-0.1,0,-0.47,0,0,0,0.11,0,1,0.018707
33140,1.6498e+09,1,-0.46,-0.23,0.08,-0.1,0,-0.47,0,0,0,2.55,0,1,0.018707
33182,1.6498e+09,1,-0.46,-0.23,0.08,-0.1,0,-0.47,0,0,0,2.55,0,1,0.018707
33225,1.6498e+09,1,-0.46,-0.23,0.08,-0.1,0,-0.47,0,0,0,2.55,0,1,0.018707
33269,1.6499e+09,1,-0.46,-0.23,0.08,-0.1,0,-0.47,0,0,0,2.55,0,1,0.018707
33311,1.6499e+09,1,-0.46,-0.23,0.08,-0.1,0,-0.47,0,0,0,2.55,0,1,0.018707
33359,1.6499e+09,1,-0.46,-0.23,0.08,-0.1,0,-0.47,0,0,0,2.55,0,1,0.018707
33401,1.6499e+09,1,-0.46,-0.23,0.08,-0.1,0,-0.47,0,0,0,2.55,0,1,0.018707
33445,1.6499e+09,1,-0.46,-0.23,0.08,-0.1,0,-0.47,0,0,0,2.55,0,1,0.018707
33488,1.6499e+09,1,-0.46,-0.23,0.08,-0.1,0,-0.47,0,0,0,2.55,0,1,0.018707
33531,1.6499e+09,1,-0.46,-0.23,0.08,-0.1,0,-0.47,0,0,0,2.55,0,1,0.018707
33573,1.6499e+09,1,-0.46,-0.23,0.08,-0.1,0,-0.32,0,0,0,0,0,1,0.018707
33616,1.6499e+09,1,-0.46,-0.23,0.08,-0.1,0,-0.32,0,0,0,0,0,1,0.018707
33657,1.65e+09,1,-0.6,-0.1,-0.09,-0.1,0,-0.32,0,0,0,0,0,1,0.025813
33701,1.65e+09,1,-0.6,-0.1,-0.09,-0.1,0,-0.32,0,0,0,0,0,1,0.025813
33747,1.65e+09,1,-0.6,-0.1,-0.09,-0.1,0,-0.32,0,0,0,0,0,1,0.025813
33796,1.65e+09,1,-0.6,-0.1,-0.09,-0.1,0,-0.32,0,0,0,0,0,1,0.025813
33841,1.65e+09,1,-0.6,-0.1,-0.09,-0.1,0,-0.32,0,0,0,0,0,1,0.025813
33885,1.65e+09,1,-0.6,-0.1,-0.09,-0.1,0,-0.32,0,0,0,0,0,1,0.025813
33931,1.65e+09,1,-0.6,-0.1,-0.09,-0.1,0,-0.32,0,0,0,0,0,1,0.025813
33975,1.65e+09,1,-0.6,-0.1,-0.09,-0.1,0,-0.32,0,0,0,0,0,1,0.025813
34020,1.65e+09,1,-0.6,-0.1,-0.09,-0.1,0,-0.21,0,0,0,0,0,1,0.025813
34066,1.65e+09,1,-0.6,-0.1,-0.09,-0.1,0,-0.21,0,0,0,0.32,0,1,0.025813
34110,1.6501e+09,1,-0.6,-0.1,-0.09,-0.1,0,-0.21,0,0,0,0.32,0,1,0.025813
34155,1.6501e+09,1,-0.6,-0.1,-0.09,-0.1,0,-0.21,0,0,0,0.32,0,1,0.025813
34199,1.6501e+09,1,-0.6,-0.1,-0.09,-0.1,0,-0.21,0,0,0,0.32,0,1,0.025813
34248,1.6501e+09,1,-0.6,-0.1,-0.09,-0.1,0,-0.21,0,0,0,0.32,0,1,0.025813
34294,1.6501e+09,1,-0.6,-0.1,-0.09,-0.1,0,-0.21,0,0,0,0.32,0,1,0.025813
34339,1.6501e+09,1,-0.6,-0.1,-0.09,-0.1,0,-0.21,0,0,0,0.32,0,1,0.025813
34384,1.6501e+09,1,-0.6,-0.1,-0.09,-0.1,0,-0.21,0,0,0,0.32,0,1,0.025813
34428,1.6501e+09,1,-0.6,-0.1,-0.09,-0.1,0,-0.46,0,0,0,3.75,0,1,0.025813
34469,1.6501e+09,1,-0.31,-0.15,0.08,-0.11,0,-0.46,0,0,0,3.75,0,1,0.0087648
34514,1.6502e+09,1,-0.31,-0.15,0.08,-0.11,0,-0.46,0,0,0,3.75,0,1,0.0087648
34558,1.6502e+09,1,-0.31,-0.15,0.08,-0.11,0,-0.46,0,0,0,3.75,0,1,0.0087648
34603,1.6502e+09,1,-0.31,-0.15,0.08,-0.11,0,-0.46,0,0,0,3.75,0,1,0.0087648
34647,1.6502e+09,1,-0.31,-0.15,0.08,-0.11,0,-0.46,0,0,0,3.75,0,1,0.0087648
34697,1.6502e+09,1,-0.31,-0.15,0.08,-0.11,0,-0.46,0,0,0,3.75,0,1,0.0087648
34741,1.6502e+09,1,-0.31,-0.15,0.08,-0.11,0,-0.46,0,0,0,3.75,0,1,0.0087648
34786,1.6502e+09,1,-0.31,-0.15,0.08,-0.11,0,-0.46,0,0,0,3.75,0,1,0.0087648
34832,1.6502e+09,1,-0.31,-0.15,0.08,-0.11,0,-0.46,0,0,0,3.75,0,1,0.0087648
34878,1.6502e+09,1,-0.31,-0.15,0.08,-0.11,0,-0.46,0,0,0,3.75,0,1,0.0087648
34922,1.6502e+09,1,-0.31,-0.15,0.08,-0.11,0,-0.67,0,0,0,2.6,0,1,0.0087648
34966,1.6503e+09,1,-0.31,-0.15,0.08,-0.11,0,-0.67,0,0,0,2.6,0,1,0.0087648
35011,1.6503e+09,1,-0.31,-0.15,0.08,-0.11,0,-0.67,0,0,0,2.6,0,1,0.0087648
35056,1.6503e+09,1,-0.31,-0.15,0.08,-0.11,0,-0.67,0,0,0,2.6,0,1,0.0087648
35101,1.6503e+09,1,-0.31,-0.15,0.08,-0.11,0,-0.67,0,0,0,2.6,0,1,0.0087648
35149,1.6503e+09,1,-0.31,-0.15,0.08,-0.11,0,-0.67,0,0,0,2.6,0,1,0.0087648
35194,1.6503e+09,1,-0.31,-0.15,0.08,-0.11,0,-0.67,0,0,0,2.6,0,1,0.0087648
35239,1.6503e+09,1,-0.31,-0.15,0.08,-0.11,0,-0.67,0,0,0,2.6,0,1,0.0087648
35284,1.6503e+09,1,-0.31,-0.15,0.08,-0.11,0,-0.67,0,0,0,2.6,0,1,0.0087648
35329,1.6503e+09,1,-0.31,-0.15,0.08,-0.11,0,-0.51,0,0,0,2.6,0,1,0.0087648
35372,1.6504e+09,1,-0.5,-0.2,0,-0.09,0,-0.51,0,0,0,3.15,0,1,0.020201
35415,1.6504e+09,1,-0.5,-0.2,0,-0.09,0,-0.51,0,0,0,3.15,0,1,0.020201
35457,1.6504e+09,1,-0.5,-0.2,0,-0.09,0,-0.51,0,0,0,3.15,0,1,0.020201
35501,1.6504e+09,1,-0.5,-0.2,0,-0.09,0,-0.51,0,0,0,3.15,0,1,0.020201
35544,1.6504e+09,1,-0.5,-0.2,0,-0.09,0,-0.51,0,0,0,3.15,0,1,0.020201
35591,1.6504e+09,1,-0.5,-0.2,0,-0.09,0,-0.51,0,0,0,3.15,0,1,0.020201
35635,1.6504e+09,1,-0.5,-0.2,0,-0.09,0,-0.51,0,0,0,3.15,0,1,0.020201
35678,1.6504e+09,1,-0.5,-0.2,0,-0.09,0,-0.51,0,0,0,3.15,0,1,0.020201
35721,1.6504e+09,1,-0.5,-0.2,0,-0.09,0,-0.9,0,0,0,3.15,0,1,0.020201
35764,1.6505e+09,1,-0.5,-0.2,0,-0.09,0,-0.9,0,0,0,3.15,0,1,0.020201
35806,1.6505e+09,1,-0.5,-0.2,0,-0.09,0,-0.9,0,0,0,2.76,0,1,0.020201
35849,1.6505e+09,1,-0.5,-0.2,0,-0.09,0,-0.9,0,0,0,2.76,0,1,0.020201
35891,1.6505e+09,1,-0.5,-0.2,0,-0.09,0,-0.9,0,0,0,2.76,0,1,0.020201
