LineNo,TimeUS,C,NI,FIX,FIY,AFI,HAGL,offset,RI,rng,Herr,eAng,eVel,ePos
308,1.6419e+09,0,0,0,0,0,0.09,0.66,0,0,0.5,7.2864e-05,0.0014671,0.0042679
536,1.6419e+09,0,0,0,0,0,0.09,0.66,0,0,0.5,6.2036e-05,0.0016726,0.0047976
988,1.642e+09,0,0,0,0,0,0.09,0.66,0,0,0.5,0.000187,0.002784,0.005834
1102,1.6421e+09,0,0,0,0,0,0.08,0.66,0,0,0.5,0.00017788,0.0022426,0.0046603
1209,1.6422e+09,0,0,0,0,0,0.09,0.66,0,0,0.5,0.00020839,0.0040733,0.01193
1320,1.6422e+09,0,0,0,0,0,0.09,0.66,0,0,0.5,0.00019897,0.0031218,0.0093255
1499,1.6423e+09,0,0,0,0,0,0.09,0.66,0,0,0.5,0.00017322,0.0019,0.006107
1681,1.6423e+09,0,0,0,0,0,0.09,0.66,0,0,0.5,0.00015599,0.0010255,0.0030139
1725,1.6423e+09,0,0,0,0,0,0.09,0.66,0,0,0.5,0.00015213,0.00090082,0.0021785
1770,1.6423e+09,0,0,0,0,0,0.09,0.66,0,0,0.5,0.00015213,0.00090082,0.0021785
1814,1.6423e+09,0,0,0,0,0,0.1,0.66,0,0,0.5,0.00014686,0.00073916,0.0013415
1859,1.6423e+09,0,0,0,0,0,0.11,0.66,0,0,0.5,0.00015747,0.00063211,0.00060117
1906,1.6424e+09,0,0,0,0,0,0.11,0.66,0,0,0.5,0.00015058,0.00060216,0.00055462
1951,1.6424e+09,0,0,0,0,0,0.08,0.66,0,0,0.5,0.00030277,0.014291,0.035173
1993,1.6424e+09,0,0,0,0,0,0.09,0.66,0,0,0.5,0.00029488,0.013518,0.033425
2041,1.6424e+09,0,0,0,0,0,0.09,0.66,0,0,0.5,0.0002874,0.012795,0.03176
2084,1.6424e+09,0,0,0,0,0,0.1,0.66,0,0,0.5,0.00028157,0.01211,0.030196
2126,1.6424e+09,0,0,0,0,0,0.1,0.66,0,0,0.5,0.00027454,0.011465,0.028742
2172,1.6424e+09,0,0,0,0,0,0.1,0.66,0,0,0.5,0.00032348,0.011194,0.029661
2216,1.6424e+09,0,0,0,0,0,0.11,0.66,0,0,0.5,0.00031575,0.010606,0.028301
2258,1.6425e+09,0,0,0,0,0,0.11,0.66,0,0,0.5,0.00030509,0.010051,0.027026
2302,1.6425e+09,0,0,0,0,0,0.11,0.66,0,0,0.5,0.00030509,0.010051,0.027026
2344,1.6425e+09,0,0,0,0,0,0.11,0.66,0,0,0.5,0.00029494,0.0095271,0.025839
2387,1.6425e+09,0,0,0,0,0,0.12,0.66,0,0,0.5,0.00028108,0.0090193,0.024692
2430,1.6425e+09,0,0,0,0,0,0.12,0.66,0,0,0.5,0.00026403,0.0085413,0.023641
2476,1.6425e+09,0,0,0,0,0,0.13,0.66,0,0,0.5,0.00024787,0.0080894,0.022654
2520,1.6425e+09,0,0,0,0,0,0.13,0.66,0,0,0.5,0.00024787,0.0080894,0.022654
2562,1.6425e+09,0,0,0,0,0,0.13,0.66,0,0,0.5,0.00023555,0.0076609,0.021708
2605,1.6425e+09,0,0,0,0,0,0.13,0.66,0,0,0.5,0.00022354,0.0072567,0.020817
2650,1.6425e+09,0,0,0,0,0,0.14,0.66,0,0,0.5,0.00021256,0.007034,0.021024
2696,1.6426e+09,0,0,0,0,0,0.11,0.66,0,0,0.5,0.00029035,0.01823,0.049383
2741,1.6426e+09,0,0,0,0,0,0.12,0.66,0,0,0.5,0.00026988,0.017244,0.046991
2786,1.6426e+09,0,0,0,0,0,0.12,0.66,0,0,0.5,0.00025011,0.016319,0.044726
2831,1.6426e+09,0,0,0,0,0,0.12,0.66,0,0,0.5,0.00023174,0.015443,0.042583
2880,1.6426e+09,0,0,0,0,0,0.13,0.66,0,0,0.5,0.00021462,0.01461,0.040547
2924,1.6426e+09,0,0,0,0,0,0.13,0.66,0,0,0.5,0.00019868,0.013822,0.038618
2971,1.6426e+09,0,0,0,0,0,0.14,0.66,0,0,0.5,0.00018409,0.013074,0.036776
3015,1.6426e+09,0,0,0,0,0,0.14,0.66,0,0,0.5,0.00018409,0.013074,0.036776
3060,1.6426e+09,0,0,0,0,0,0.14,0.66,0,0,0.5,0.00017207,0.012424,0.035427
3104,1.6427e+09,0,0,0,0,0,0.14,0.66,0,0,0.5,0.00016002,0.011749,0.033778
3149,1.6427e+09,0,0,0,0,0,0.15,0.66,0,0,0.5,0.00014564,0.011097,0.032169
3194,1.6427e+09,0,0,0,0,0,0.15,0.66,0,0,0.5,0.00014564,0.011097,0.032169
3238,1.6427e+09,0,0,0,0,0,0.15,0.66,0,0,0.5,0.00013213,0.010478,0.030642
3285,1.6427e+09,0,0,0,0,0,0.15,0.66,0,0,0.5,0.00011625,0.0098927,0.029225
3335,1.6427e+09,0,0,0,0,0,0.16,0.66,0,0,0.5,0.00010166,0.0093395,0.027869
3381,1.6427e+09,0,0,0,0,0,0.16,0.66,0,0,0.5,9.0888e-05,0.0088161,0.026574
3425,1.6427e+09,0,0,0,0,0,0.16,0.66,0,0,0.5,9.0888e-05,0.0088161,0.026574
3470,1.6427e+09,0,0,0,0,0,0.16,0.66,0,0,0.5,8.0745e-05,0.0083218,0.025352
3515,1.6427e+09,0,0,0,0,0,0.17,0.66,0,0,0.5,6.899e-05,0.0078572,0.024222
3562,1.6428e+09,0,0,0,0,0,0.17,0.66,0,0,0.5,8.9538e-05,0.007263,0.022154
3604,1.6428e+09,0,0,0,0,0,0.15,0.66,0,0,0.5,0.0001423,0.018264,0.052006
3648,1.6428e+09,0,0,0,0,0,0.15,0.66,0,0,0.5,0.00013318,0.017273,0.049444
3692,1.6428e+09,0,0,0,0,0,0.16,0.66,0,0,0.5,0.00012518,0.016337,0.046993
3739,1.6428e+09,0,0,0,0,0,0.16,0.66,0,0,0.5,0.00011806,0.015448,0.044679
3787,1.6428e+09,0,0,0,0,0,0.16,0.66,0,0,0.5,0.00011179,0.014606,0.042482
3832,1.6428e+09,0,0,0,0,0,0.16,0.66,0,0,0.5,0.00011179,0.014606,0.042482
3876,1.6428e+09,0,0,0,0,0,0.17,0.66,0,0,0.5,0.00010638,0.013808,0.0404
3921,1.6428e+09,0,0,0,0,0,0.17,0.66,0,0,0.5,0.00010179,0.013049,0.038402
3966,1.6429e+09,0,0,0,0,0,0.17,0.66,0,0,0.5,0.00014766,0.012488,0.037569
4010,1.6429e+09,0,0,0,0,0,0.18,0.66,0,0,0.5,0.00014287,0.011796,0.035699
4055,1.6429e+09,0,0,0,0,0,0.18,0.66,0,0,0.5,0.0001362,0.011135,0.033923
4099,1.6429e+09,0,0,0,0,0,0.18,0.66,0,0,0.5,0.0001362,0.011135,0.033923
4144,1.6429e+09,0,0,0,0,0,0.18,0.66,0,0,0.5,0.0001284,0.010512,0.032272
4189,1.6429e+09,0,0,0,0,0,0.19,0.66,0,0,0.5,0.00012119,0.009921,0.030686
4238,1.6429e+09,0,0,0,0,0,0.19,0.66,0,0,0.5,0.00011572,0.0093633,0.02917
4283,1.6429e+09,0,0,0,0,0,0.2,0.66,0,0,0.5,0.00010921,0.0088386,0.027763
4327,1.6429e+09,0,0,0,0,0,0.2,0.66,0,0,0.5,0.00010319,0.0083437,0.026431
4372,1.6429e+09,0,0,0,0,0,0.19,0.66,0,0,0.5,0.00011804,0.013371,0.042106
4414,1.643e+09,0,0,0,0,0,0.19,0.66,0,0,0.5,0.00012064,0.0126,0.039901
4457,1.643e+09,0,0,0,0,0,0.19,0.66,0,0,0.5,0.00011369,0.01187,0.037785
4501,1.643e+09,0,0,0,0,0,0.19,0.66,0,0,0.5,0.00011369,0.01187,0.037785
4543,1.643e+09,0,0,0,0,0,0.2,0.66,0,0,0.5,0.00010568,0.011179,0.035812
4586,1.643e+09,0,0,0,0,0,0.2,0.66,0,0,0.5,9.8422e-05,0.010524,0.033919
4628,1.643e+09,0,0,0,0,0,0.2,0.66,0,0,0.5,9.3097e-05,0.0099034,0.032109
4677,1.643e+09,0,0,0,0,0,0.21,0.66,0,0,0.5,8.7072e-05,0.0093166,0.030407
4720,1.643e+09,0,0,0,0,0,0.21,0.66,0,0,0.5,8.7072e-05,0.0093166,0.030407
4763,1.643e+09,0,0,0,0,0,0.21,0.66,0,0,0.5,8.1668e-05,0.0087619,0.028807
4806,1.6431e+09,0,0,0,0,0,0.21,0.66,0,0,0.5,7.7871e-05,0.0082383,0.027265
4848,1.6431e+09,0,0,0,0,0,0.22,0.66,0,0,0.5,0.00013134,0.0078017,0.026195
4891,1.6431e+09,0,0,0,0,0,0.22,0.66,0,0,0.5,0.00012465,0.0073342,0.024798
4934,1.6431e+09,0,0,0,0,0,0.22,0.66,0,0,0.5,0.00011686,0.0068974,0.023507
4977,1.6431e+09,0,0,0,0,0,0.22,0.66,0,0,0.5,0.00011686,0.0068974,0.023507
5020,1.6431e+09,0,0,0,0,0,0.23,0.66,0,0,0.5,0.00010965,0.0064885,0.022279
5063,1.6431e+09,0,0,0,0,0,0.23,0.66,0,0,0.5,0.00010301,0.0061102,0.021136
5110,1.6431e+09,0,0,0,0,0,0.24,0.66,0,0,0.5,9.6961e-05,0.0057552,0.020056
5153,1.6431e+09,0,0,0,0,0,0.24,0.66,0,0,0.5,9.6961e-05,0.0057552,0.020056
5196,1.6431e+09,0,0,0,0,0,0.24,0.66,0,0,0.5,9.1507e-05,0.0054284,0.019051
5234,1.6432e+09,0,0,0,0,0,0.21,0.66,0,0,0.5,0.00013305,0.015313,0.047063
5278,1.6432e+09,0,0,0,0,0,0.22,0.66,0,0,0.5,0.00020053,0.014377,0.044307
5323,1.6432e+09,0,0,0,0,0,0.22,0.66,0,0,0.5,0.00019365,0.013522,0.041864
5367,1.6432e+09,0,0,0,0,0,0.22,0.66,0,0,0.5,0.00018547,0.012713,0.039582
5412,1.6432e+09,0,0,0,0,0,0.23,0.66,0,0,0.5,0.00017774,0.011947,0.037418
5456,1.6432e+09,0,0,0,0,0,0.23,0.66,0,0,0.5,0.00016781,0.011225,0.035428
5501,1.6432e+09,0,0,0,0,0,0.23,0.66,0,0,0.5,0.00016781,0.011225,0.035428
5550,1.6432e+09,0,0,0,0,0,0.24,0.66,0,0,0.5,0.0001625,0.010533,0.03344
5595,1.6432e+09,0,0,0,0,0,0.24,0.66,0,0,0.5,0.00015638,0.0098784,0.031582
5639,1.6432e+09,0,0,0,0,0,0.24,0.66,0,0,0.5,0.00015071,0.0092545,0.029797
5684,1.6433e+09,0,0,0,0,0,0.25,0.66,0,0,0.5,0.00014394,0.0086551,0.028058
5729,1.6433e+09,0,0,0,0,0,0.25,0.66,0,0,0.5,0.0001773,0.0080956,0.026447
5773,1.6433e+09,0,0,0,0,0,0.25,0.66,0,0,0.5,0.00016718,0.0075695,0.024927
5819,1.6433e+09,0,0,0,0,0,0.25,0.66,0,0,0.5,0.00016718,0.0075695,0.024927
5866,1.6433e+09,0,0,0,0,0,0.26,0.66,0,0,0.5,0.00015498,0.007076,0.023507
5911,1.6433e+09,0,0,0,0,0,0.26,0.66,0,0,0.5,0.00014322,0.0066123,0.022177
5955,1.6433e+09,0,0,0,0,0,0.26,0.66,0,0,0.5,0.0001316,0.0061777,0.020923
6005,1.6433e+09,0,0,0,0,0,0.27,0.66,0,0,0.5,0.0001183,0.005771,0.019765
6049,1.6433e+09,0,0,0,0,0,0.27,0.66,0,0,0.5,0.0001183,0.005771,0.019765
6092,1.6434e+09,0,0,0,0,0,0.25,0.66,0,0,0.5,0.00017188,0.013536,0.041949
6136,1.6434e+09,0,0,0,0,0,0.25,0.66,0,0,0.5,0.00016454,0.012673,0.039504
6181,1.6434e+09,0,0,0,0,0,0.25,0.66,0,0,0.5,0.00016027,0.01202,0.038257
6228,1.6434e+09,0,0,0,0,0,0.26,0.66,0,0,0.5,0.00015254,0.011236,0.035994
6273,1.6434e+09,0,0,0,0,0,0.26,0.66,0,0,0.5,0.00014378,0.010496,0.03388
6317,1.6434e+09,0,0,0,0,0,0.26,0.66,0,0,0.5,0.00013596,0.0097932,0.031858
6362,1.6434e+09,0,0,0,0,0,0.27,0.66,0,0,0.5,0.00012923,0.0091291,0.029961
6409,1.6434e+09,0,0,0,0,0,0.27,0.66,0,0,0.5,0.00012344,0.0084982,0.028145
6456,1.6434e+09,0,0,0,0,0,0.27,0.66,0,0,0.5,0.00012344,0.0084982,0.028145
6500,1.6434e+09,0,0,0,0,0,0.27,0.66,0,0,0.5,0.00011839,0.007904,0.026469
6544,1.6435e+09,0,0,0,0,0,0.28,0.66,0,0,0.5,0.00010722,0.0073367,0.024838
6592,1.6435e+09,0,0,0,0,0,0.28,0.66,0,0,0.5,9.6601e-05,0.0072754,0.026369
6636,1.6435e+09,0,0,0,0,0,0.28,0.66,0,0,0.5,0.00022291,0.0067493,0.024752
6681,1.6435e+09,0,0,0,0,0,0.28,0.66,0,0,0.5,0.00021454,0.0062544,0.023236
6726,1.6435e+09,0,0,0,0,0,0.29,0.66,0,0,0.5,0.00020843,0.0057912,0.021799
6771,1.6435e+09,0,0,0,0,0,0.29,0.66,0,0,0.5,0.00020843,0.0057912,0.021799
6816,1.6435e+09,0,0,0,0,0,0.29,0.66,0,0,0.5,0.00020163,0.0053585,0.020472
6864,1.6435e+09,0,0,0,0,0,0.29,0.66,0,0,0.5,0.00019681,0.0049563,0.019218
6911,1.6435e+09,0,0,0,0,0,0.3,0.66,0,0,0.5,0.00019158,0.0045858,0.018064
6956,1.6436e+09,0,0,0,0,0,0.27,0.66,0,0,0.5,0.00022246,0.013998,0.044946
6998,1.6436e+09,0,0,0,0,0,0.27,0.66,0,0,0.5,0.00021755,0.013089,0.042271
7046,1.6436e+09,0,0,0,0,0,0.28,0.66,0,0,0.5,0.00023008,0.012425,0.041053
7089,1.6436e+09,0,0,0,0,0,0.28,0.66,0,0,0.5,0.00021512,0.011595,0.038576
7131,1.6436e+09,0,0,0,0,0,0.28,0.66,0,0,0.5,0.00020079,0.010806,0.036235
7175,1.6436e+09,0,0,0,0,0,0.28,0.66,0,0,0.5,0.00020079,0.010806,0.036235
7218,1.6436e+09,0,0,0,0,0,0.29,0.66,0,0,0.5,0.00018717,0.01006,0.034019
7264,1.6436e+09,0,0,0,0,0,0.29,0.66,0,0,0.5,0.00017428,0.0093514,0.031912
7307,1.6436e+09,0,0,0,0,0,0.29,0.66,0,0,0.5,0.00016212,0.0086764,0.029902
7350,1.6437e+09,0,0,0,0,0,0.29,0.66,0,0,0.5,0.00016212,0.0086764,0.029902
7395,1.6437e+09,0,0,0,0,0,0.3,0.66,0,0,0.5,0.00015063,0.0080367,0.027976
7437,1.6437e+09,0,0,0,0,0,0.3,0.66,0,0,0.5,0.00013903,0.0074284,0.026132
7477,1.6437e+09,0,0,0,0,0,0.3,0.66,0,0,0.5,0.00027256,0.0074041,0.027983
7519,1.6437e+09,0,0,0,0,0,0.3,0.66,0,0,0.5,0.00025838,0.0068402,0.026188
7563,1.6437e+09,0,0,0,0,0,0.3,0.66,0,0,0.5,0.00025838,0.0068402,0.026188
7606,1.6437e+09,0,0,0,0,0,0.3,0.66,0,0,0.5,0.00024791,0.0063111,0.024464
7649,1.6437e+09,0,0,0,0,0,0.31,0.66,0,0,0.5,0.00023557,0.0058171,0.022829
7701,1.6437e+09,0,0,0,0,0,0.31,0.66,0,0,0.5,0.00022187,0.0053566,0.021343
7745,1.6437e+09,0,0,0,0,0,0.31,0.66,0,0,0.5,0.00021145,0.0049276,0.019907
7787,1.6438e+09,0,0,0,0,0,0.29,0.66,0,0,0.5,0.00020761,0.014668,0.049917
7833,1.6438e+09,0,0,0,0,0,0.29,0.66,0,0,0.5,0.00019839,0.013738,0.046944
7878,1.6438e+09,0,0,0,0,0,0.29,0.66,0,0,0.5,0.00019839,0.013738,0.046944
7925,1.6438e+09,0,0,0,0,0,0.29,0.66,0,0,0.5,0.00028155,0.013138,0.045976
7969,1.6438e+09,0,0,0,0,0,0.29,0.66,0,0,0.5,0.0002644,0.012282,0.043209
8014,1.6438e+09,0,0,0,0,0,0.3,0.66,0,0,0.5,0.00024809,0.011474,0.040572
8058,1.6438e+09,0,0,0,0,0,0.3,0.66,0,0,0.5,0.00023267,0.010707,0.038067
8103,1.6438e+09,0,0,0,0,0,0.3,0.66,0,0,0.5,0.00021788,0.0099825,0.03566
8153,1.6438e+09,0,0,0,0,0,0.31,0.66,0,0,0.5,0.00020637,0.0092991,0.033385
8197,1.6439e+09,0,0,0,0,0,0.31,0.66,0,0,0.5,0.00019229,0.0086584,0.03125
8243,1.6439e+09,0,0,0,0,0,0.31,0.66,0,0,0.5,0.0001786,0.0080492,0.029234
8287,1.6439e+09,0,0,0,0,0,0.31,0.66,0,0,0.5,0.0001786,0.0080492,0.029234
8333,1.6439e+09,0,0,0,0,0,0.31,0.66,0,0,0.5,0.00016789,0.0078264,0.029695
8377,1.6439e+09,0,0,0,0,0,0.32,0.66,0,0,0.5,0.00015358,0.0072712,0.02772
8422,1.6439e+09,0,0,0,0,0,0.32,0.66,0,0,0.5,0.00013644,0.006752,0.025911
8467,1.6439e+09,0,0,0,0,0,0.32,0.66,0,0,0.5,0.00012018,0.0062698,0.024185
8512,1.6439e+09,0,0,0,0,0,0.32,0.66,0,0,0.5,0.00012018,0.0062698,0.024185
8557,1.6439e+09,0,0,0,0,0,0.32,0.66,0,0,0.5,0.00010799,0.0058253,0.022552
8605,1.6439e+09,0,0,0,0,0,0.33,0.66,0,0,0.5,9.6208e-05,0.0054171,0.021024
8649,1.644e+09,0,0,0,0,0,0.3,0.66,0,0,0.5,8.2212e-05,0.013218,0.044445
8690,1.644e+09,0,0,0,0,0,0.31,0.66,0,0,0.5,7.2525e-05,0.012422,0.041685
8735,1.644e+09,0,0,0,0,0,0.31,0.66,0,0,0.5,6.1237e-05,0.011676,0.039058
8781,1.644e+09,0,0,0,0,0,0.31,0.66,0,0,0.5,6.1237e-05,0.011676,0.039058
8822,1.644e+09,0,0,0,0,0,0.31,0.66,0,0,0.5,0.00011885,0.011365,0.03931
8868,1.644e+09,0,0,0,0,0,0.31,0.66,0,0,0.5,0.00010859,0.010676,0.036885
8912,1.644e+09,0,0,0,0,0,0.32,0.66,0,0,0.5,9.9559e-05,0.01003,0.034512
8956,1.644e+09,0,0,0,0,0,0.32,0.66,0,0,0.5,9.1646e-05,0.0094235,0.032306
9002,1.644e+09,0,0,0,0,0,0.32,0.66,0,0,0.5,9.1646e-05,0.0094235,0.032306
9050,1.644e+09,0,0,0,0,0,0.32,0.66,0,0,0.5,8.4838e-05,0.0088578,0.030228
9096,1.6441e+09,0,0,0,0,0,0.32,0.66,0,0,0.5,7.8823e-05,0.0083301,0.028211
9140,1.6441e+09,0,0,0,0,0,0.33,0.66,0,0,0.5,7.4399e-05,0.0078282,0.026308
9185,1.6441e+09,0,0,0,0,0,0.33,0.66,0,0,0.5,6.9481e-05,0.0073652,0.024549
9229,1.6441e+09,0,0,0,0,0,0.33,0.66,0,0,0.5,7.5154e-05,0.0074859,0.027075
9274,1.6441e+09,0,0,0,0,0,0.33,0.66,0,0,0.5,6.8883e-05,0.0070473,0.025287
9319,1.6441e+09,0,0,0,0,0,0.33,0.66,0,0,0.5,6.1698e-05,0.0066435,0.023603
9363,1.6441e+09,0,0,0,0,0,0.33,0.66,0,0,0.5,6.1698e-05,0.0066435,0.023603
9408,1.6441e+09,0,0,0,0,0,0.34,0.66,0,0,0.5,5.501e-05,0.006277,0.022008
9453,1.6441e+09,0,0,0,0,0,0.34,0.66,0,0,0.5,4.7652e-05,0.0059413,0.020596
9502,1.6441e+09,0,0,0,0,0,0.34,0.66,0,0,0.5,4.2089e-05,0.005642,0.019259
9548,1.6442e+09,0,0,0,0,0,0.32,0.66,0,0,0.5,3.666e-05,0.011466,0.038837
9591,1.6442e+09,0,0,0,0,0,0.32,0.66,0,0,0.5,3.1658e-05,0.010766,0.036283
9634,1.6442e+09,0,0,0,0,0,0.32,0.66,0,0,0.5,0.00011808,0.010606,0.037462
9676,1.6442e+09,0,0,0,0,0,0.33,0.66,0,0,0.5,0.00011285,0.0099551,0.03494
9721,1.6442e+09,0,0,0,0,0,0.33,0.66,0,0,0.5,0.00011285,0.0099551,0.03494
9763,1.6442e+09,0,0,0,0,0,0.33,0.66,0,0,0.5,0.00010898,0.009348,0.032581
9806,1.6442e+09,0,0,0,0,0,0.33,0.66,0,0,0.5,0.00010454,0.0087813,0.030336
9849,1.6442e+09,0,0,0,0,0,0.33,0.66,0,0,0.5,0.00010062,0.0082534,0.028224
9894,1.6442e+09,0,0,0,0,0,0.34,0.66,0,0,0.5,9.649e-05,0.0077634,0.026301
9938,1.6443e+09,0,0,0,0,0,0.34,0.66,0,0,0.5,9.649e-05,0.0077634,0.026301
9981,1.6443e+09,0,0,0,0,0,0.34,0.66,0,0,0.5,9.4024e-05,0.0073048,0.024389
10024,1.6443e+09,0,0,0,0,0,0.34,0.66,0,0,0.5,9.1285e-05,0.0068814,0.022609
10068,1.6443e+09,0,0,0,0,0,0.34,0.66,0,0,0.5,8.8692e-05,0.007075,0.02592
10111,1.6443e+09,0,0,0,0,0,0.34,0.66,0,0,0.5,0.00017706,0.0066622,0.024054
10154,1.6443e+09,0,0,0,0,0,0.34,0.66,0,0,0.5,0.00016942,0.0062905,0.02232
10198,1.6443e+09,0,0,0,0,0,0.34,0.66,0,0,0.5,0.00016942,0.0062905,0.02232
10241,1.6443e+09,0,0,0,0,0,0.35,0.66,0,0,0.5,0.00016221,0.0059532,0.020783
10285,1.6443e+09,0,0,0,0,0,0.35,0.66,0,0,0.5,0.00015519,0.0056538,0.019293
10329,1.6444e+09,0,0,0,0,0,0.34,0.66,0,0,0.5,0.0001637,0.011567,0.032729
10373,1.6444e+09,0,0,0,0,0,0.34,0.66,0,0,0.5,0.00015761,0.010962,0.030516
10418,1.6444e+09,0,0,0,0,0,0.34,0.66,0,0,0.5,0.00015174,0.010399,0.028381
10464,1.6444e+09,0,0,0,0,0,0.34,0.66,0,0,0.5,0.0001462,0.009872,0.02635
10508,1.6444e+09,0,0,0,0,0,0.34,0.66,0,0,0.5,0.00030291,0.0097113,0.027892
10553,1.6444e+09,0,0,0,0,0,0.35,0.66,0,0,0.5,0.00029154,0.009231,0.025938
10597,1.6444e+09,0,0,0,0,0,0.35,0.66,0,0,0.5,0.00029154,0.009231,0.025938
10642,1.6444e+09,0,0,0,0,0,0.35,0.66,0,0,0.5,0.00028069,0.0087867,0.024079
10687,1.6444e+09,0,0,0,0,0,0.35,0.66,0,0,0.5,0.00027049,0.0083732,0.022426
10732,1.6444e+09,0,0,0,0,0,0.35,0.66,0,0,0.5,0.0002626,0.0079985,0.020826
10781,1.6445e+09,0,0,0,0,0,0.35,0.66,0,0,0.5,0.0002626,0.0079985,0.020826
10826,1.6445e+09,0,0,0,0,0,0.36,0.66,0,0,0.5,0.00025405,0.0076485,0.019293
10871,1.6445e+09,0,0,0,0,0,0.36,0.66,0,0,0.5,0.00024571,0.0073288,0.017928
10915,1.6445e+09,0,0,0,0,0,0.36,0.66,0,0,0.5,0.00023558,0.0070487,0.016715
10960,1.6445e+09,0,0,0,0,0,0.36,0.66,0,0,0.5,0.00023558,0.0070487,0.016715
11005,1.6445e+09,0,0,0,0,0,0.36,0.66,0,0,0.5,0.00022563,0.0071293,0.020265
11049,1.6445e+09,0,0,0,0,0,0.36,0.66,0,0,0.5,0.00026691,0.0068561,0.018906
11095,1.6445e+09,0,0,0,0,0,0.36,0.66,0,0,0.5,0.00024768,0.0066094,0.017657
11140,1.6445e+09,0,0,0,0,0,0.37,0.66,0,0,0.5,0.00022897,0.0063922,0.016542
11187,1.6446e+09,0,0,0,0,0,0.35,0.66,0,0,0.5,0.000231,0.014661,0.03402
11232,1.6446e+09,0,0,0,0,0,0.35,0.66,0,0,0.5,0.00021503,0.013951,0.031744
11277,1.6446e+09,0,0,0,0,0,0.35,0.66,0,0,0.5,0.00020315,0.013286,0.029567
11323,1.6446e+09,0,0,0,0,0,0.35,0.66,0,0,0.5,0.00018587,0.012664,0.027658
11367,1.6446e+09,0,0,0,0,0,0.35,0.66,0,0,0.5,0.00018587,0.012664,0.027658
11415,1.6446e+09,0,0,0,0,0,0.36,0.66,0,0,0.5,0.00021182,0.011841,0.028559
11461,1.6446e+09,0,0,0,0,0,0.36,0.66,0,0,0.5,0.00021182,0.011841,0.028559
11506,1.6446e+09,0,0,0,0,0,0.36,0.66,0,0,0.5,0.00019671,0.011281,0.026703
11551,1.6446e+09,0,0,0,0,0,0.36,0.66,0,0,0.5,0.00018289,0.01075,0.024974
11596,1.6446e+09,0,0,0,0,0,0.36,0.66,0,0,0.5,0.00017279,0.010252,0.023363
11641,1.6447e+09,0,0,0,0,0,0.36,0.66,0,0,0.5,0.00016128,0.009776,0.021907
11690,1.6447e+09,0,0,0,0,0,0.37,0.66,0,0,0.5,0.00014753,0.0093379,0.020511
11735,1.6447e+09,0,0,0,0,0,0.37,0.66,0,0,0.5,0.00014753,0.0093379,0.020511
11780,1.6447e+09,0,0,0,0,0,0.37,0.66,0,0,0.5,0.00013725,0.008931,0.019211
11824,1.6447e+09,0,0,0,0,0,0.37,0.66,0,0,0.5,0.00012504,0.0085518,0.01819
11866,1.6447e+09,0,0,0,0,0,0.37,0.66,0,0,0.5,0.00012938,0.008315,0.01937
11911,1.6447e+09,0,0,0,0,0,0.37,0.66,0,0,0.5,0.00011512,0.0079684,0.018259
11957,1.6447e+09,0,0,0,0,0,0.38,0.66,0,0,0.5,0.00010446,0.0076531,0.017285
12001,1.6447e+09,0,0,0,0,0,0.38,0.66,0,0,0.5,0.00010446,0.0076531,0.017285
12047,1.6448e+09,0,0,0,0,0,0.38,0.66,0,0,0.5,9.1817e-05,0.0073737,0.016447
12090,1.6448e+09,0,0,0,0,0,0.38,0.66,0,0,0.5,7.9962e-05,0.0071148,0.015751
12135,1.6448e+09,0,0,0,0,0,0.37,0.66,0,0,0.5,6.2451e-05,0.006503,0.021481
12179,1.6448e+09,0,0,0,0,0,0.37,0.66,0,0,0.5,5.4221e-05,0.0060544,0.019545
12223,1.6448e+09,0,0,0,0,0,0.37,0.66,0,0,0.5,4.8633e-05,0.005644,0.017765
12266,1.6448e+09,0,0,0,0,0,0.37,0.66,0,0,0.5,4.2424e-05,0.0057981,0.021208
12308,1.6448e+09,0,0,0,0,0,0.37,0.66,0,0,0.5,5.3396e-05,0.0054004,0.019307
12351,1.6448e+09,0,0,0,0,0,0.37,0.66,0,0,0.5,5.3396e-05,0.0054004,0.019307
12397,1.6448e+09,0,0,0,0,0,0.37,0.66,0,0,0.5,4.801e-05,0.0050408,0.017619
12439,1.6448e+09,0,0,0,0,0,0.38,0.66,0,0,0.5,4.3249e-05,0.0047158,0.016077
12484,1.6449e+09,0,0,0,0,0,0.38,0.66,0,0,0.5,4.0966e-05,0.0044275,0.014562
12526,1.6449e+09,0,0,0,0,0,0.38,0.66,0,0,0.5,3.9072e-05,0.0041779,0.01327
12573,1.6449e+09,0,0,0,0,0,0.38,0.66,0,0,0.5,3.6867e-05,0.0039699,0.012104
12615,1.6449e+09,0,0,0,0,0,0.38,0.66,0,0,0.5,3.6867e-05,0.0039699,0.012104
12657,1.6449e+09,0,0,0,0,0,0.39,0.66,0,0,0.5,3.4507e-05,0.0038031,0.011061
12701,1.6449e+09,0,0,0,0,0,0.39,0.66,0,0,0.5,3.2622e-05,0.003677,0.010258
12746,1.6449e+09,0,0,0,0,0,0.38,0.66,0,0,0.5,3.3172e-05,0.0037665,0.013704
12789,1.6449e+09,0,0,0,0,0,0.39,0.66,0,0,0.5,3.4165e-05,0.0036244,0.012547
12837,1.6449e+09,0,0,0,0,0,0.39,0.66,0,0,0.5,3.511e-05,0.0035168,0.011596
12877,1.645e+09,0,0,0,0,0,0.37,0.66,0,0,0.5,0.00011071,0.0075551,0.02528
12921,1.645e+09,0,0,0,0,0,0.38,0.66,0,0,0.5,0.00011007,0.0069098,0.022865
12970,1.645e+09,0,0,0,0,0,0.38,0.66,0,0,0.5,0.00010917,0.0063095,0.020613
13015,1.645e+09,0,0,0,0,0,0.38,0.66,0,0,0.5,0.00010917,0.0063095,0.020613
13060,1.645e+09,0,0,0,0,0,0.38,0.66,0,0,0.5,0.00010833,0.0057444,0.018436
13105,1.645e+09,0,0,0,0,0,0.38,0.66,0,0,0.5,0.00010718,0.0052174,0.016343
13149,1.645e+09,0,0,0,0,0,0.38,0.66,0,0,0.5,9.9487e-05,0.0050506,0.017702
13193,1.645e+09,0,0,0,0,0,0.39,0.66,0,0,0.5,9.8224e-05,0.0045598,0.01569
13237,1.645e+09,0,0,0,0,0,0.39,0.66,0,0,0.5,9.6734e-05,0.0041055,0.013754
13282,1.645e+09,0,0,0,0,0,0.39,0.66,0,0,0.5,9.6734e-05,0.0041055,0.013754
13327,1.6451e+09,0,0,0,0,0,0.39,0.66,0,0,0.5,9.5281e-05,0.0036933,0.011956
13371,1.6451e+09,0,0,0,0,0,0.39,0.66,0,0,0.5,8.9937e-05,0.0033011,0.010241
13420,1.6451e+09,0,0,0,0,0,0.39,0.66,0,0,0.5,8.3331e-05,0.0029506,0.0086051
13464,1.6451e+09,0,0,0,0,0,0.4,0.66,0,0,0.5,7.6761e-05,0.0026536,0.0071293
13509,1.6451e+09,0,0,0,0,0,0.4,0.66,0,0,0.5,7.0256e-05,0.0024092,0.0057991
13566,1.6452e+09,0,0,0,0,0,0.38,0.66,0,0,0.5,5.5355e-05,0.0064682,0.024997
13611,1.6452e+09,0,0,0,0,0,0.39,0.66,0,0,0.5,5.5489e-05,0.0059172,0.022671
13659,1.6452e+09,0,0,0,0,0,0.39,0.66,0,0,0.5,5.5955e-05,0.0054099,0.020466
13707,1.6452e+09,0,0,0,0,0,0.39,0.66,0,0,0.5,5.6805e-05,0.0049433,0.018414
13752,1.6452e+09,0,0,0,0,0,0.39,0.66,0,0,0.5,5.7605e-05,0.0045149,0.016404
13799,1.6452e+09,0,0,0,0,0,0.39,0.66,0,0,0.5,5.2493e-05,0.0048054,0.020389
13844,1.6452e+09,0,0,0,0,0,0.39,0.66,0,0,0.5,5.1478e-05,0.0043934,0.018356
13890,1.6452e+09,0,0,0,0,0,0.39,0.66,0,0,0.5,5.1478e-05,0.0043934,0.018356
13935,1.6453e+09,0,0,0,0,0,0.39,0.66,0,0,0.5,5.0677e-05,0.0040295,0.016423
13980,1.6453e+09,0,0,0,0,0,0.39,0.66,0,0,0.5,5.0141e-05,0.0037064,0.014629
14026,1.6453e+09,0,0,0,0,0,0.4,0.66,0,0,0.5,4.794e-05,0.0034231,0.01297
14075,1.6453e+09,0,0,0,0,0,0.4,0.66,0,0,0.5,4.794e-05,0.0034231,0.01297
14120,1.6453e+09,0,0,0,0,0,0.4,0.66,0,0,0.5,4.5007e-05,0.0031937,0.011435
14165,1.6453e+09,0,0,0,0,0,0.4,0.66,0,0,0.5,4.1639e-05,0.0030155,0.010119
14210,1.6453e+09,0,0,0,0,0,0.4,0.66,0,0,0.5,3.8944e-05,0.0028792,0.0089925
14254,1.6453e+09,0,0,0,0,0,0.4,0.66,0,0,0.5,3.692e-05,0.0029495,0.011348
14299,1.6453e+09,0,0,0,0,0,0.4,0.66,0,0,0.5,3.692e-05,0.0029495,0.011348
14343,1.6453e+09,0,0,0,0,0,0.4,0.66,0,0,0.5,4.5608e-05,0.0028406,0.010148
14392,1.6454e+09,0,0,0,0,0,0.41,0.66,0,0,0.5,4.15e-05,0.0027809,0.009168
14432,1.6454e+09,0,0,0,0,0,0.39,0.66,0,0,0.5,5.3341e-05,0.007039,0.025224
14474,1.6454e+09,0,0,0,0,0,0.39,0.66,0,0,0.5,5.0262e-05,0.0064927,0.022826
14523,1.6454e+09,0,0,0,0,0,0.39,0.66,0,0,0.5,4.7391e-05,0.0059839,0.020557
14565,1.6454e+09,0,0,0,0,0,0.39,0.66,0,0,0.5,4.4769e-05,0.0055111,0.018472
14610,1.6454e+09,0,0,0,0,0,0.39,0.66,0,0,0.5,4.4769e-05,0.0055111,0.018472
14652,1.6454e+09,0,0,0,0,0,0.4,0.66,0,0,0.5,4.2261e-05,0.0050837,0.016483
14693,1.6454e+09,0,0,0,0,0,0.39,0.66,0,0,0.5,5.5126e-05,0.0053087,0.020529
14735,1.6454e+09,0,0,0,0,0,0.39,0.66,0,0,0.5,5.2606e-05,0.0048908,0.018557
14777,1.6455e+09,0,0,0,0,0,0.4,0.66,0,0,0.5,4.969e-05,0.0045111,0.016642
14820,1.6455e+09,0,0,0,0,0,0.4,0.66,0,0,0.5,4.706e-05,0.0041717,0.014807
14862,1.6455e+09,0,0,0,0,0,0.4,0.66,0,0,0.5,4.3879e-05,0.0038653,0.013228
14905,1.6455e+09,0,0,0,0,0,0.4,0.66,0,0,0.5,4.3879e-05,0.0038653,0.013228
14953,1.6455e+09,0,0,0,0,0,0.4,0.66,0,0,0.5,4.086e-05,0.0036097,0.011766
14996,1.6455e+09,0,0,0,0,0,0.41,0.66,0,0,0.5,3.8526e-05,0.0034085,0.010423
15039,1.6455e+09,0,0,0,0,0,0.41,0.66,0,0,0.5,3.5791e-05,0.0032574,0.0093837
15081,1.6455e+09,0,0,0,0,0,0.41,0.66,0,0,0.5,3.5791e-05,0.0032574,0.0093837
15124,1.6455e+09,0,0,0,0,0,0.4,0.66,0,0,0.5,3.3165e-05,0.003367,0.013271
15166,1.6455e+09,0,0,0,0,0,0.4,0.66,0,0,0.5,0.00012654,0.0031992,0.011892
15209,1.6456e+09,0,0,0,0,0,0.41,0.66,0,0,0.5,0.00012319,0.0030821,0.010734
15251,1.6456e+09,0,0,0,0,0,0.39,0.66,0,0,0.5,0.00013117,0.0076067,0.028178
15296,1.6456e+09,0,0,0,0,0,0.39,0.66,0,0,0.5,0.0001299,0.0069042,0.025482
15341,1.6456e+09,0,0,0,0,0,0.39,0.66,0,0,0.5,0.00012834,0.006246,0.022921
15389,1.6456e+09,0,0,0,0,0,0.39,0.66,0,0,0.5,0.00012658,0.005629,0.020452
15435,1.6456e+09,0,0,0,0,0,0.39,0.66,0,0,0.5,0.00012658,0.005629,0.020452
15479,1.6456e+09,0,0,0,0,0,0.4,0.66,0,0,0.5,0.00012516,0.0050477,0.018117
15525,1.6456e+09,0,0,0,0,0,0.39,0.66,0,0,0.5,0.00012345,0.0051268,0.021504
15572,1.6456e+09,0,0,0,0,0,0.39,0.66,0,0,0.5,0.00022278,0.0045651,0.019093
15617,1.6457e+09,0,0,0,0,0,0.4,0.66,0,0,0.5,0.000215,0.0040364,0.016858
15662,1.6457e+09,0,0,0,0,0,0.4,0.66,0,0,0.5,0.00020735,0.0035462,0.014747
15706,1.6457e+09,0,0,0,0,0,0.4,0.66,0,0,0.5,0.00019854,0.0030898,0.012691
15751,1.6457e+09,0,0,0,0,0,0.4,0.66,0,0,0.5,0.00019002,0.0026738,0.010777
15801,1.6457e+09,0,0,0,0,0,0.4,0.66,0,0,0.5,0.00018313,0.0023047,0.0089971
15845,1.6457e+09,0,0,0,0,0,0.4,0.66,0,0,0.5,0.00018313,0.0023047,0.0089971
15890,1.6457e+09,0,0,0,0,0,0.41,0.66,0,0,0.5,0.00017444,0.001991,0.0073094
15935,1.6457e+09,0,0,0,0,0,0.41,0.66,0,0,0.5,0.00016591,0.0017458,0.0058044
15981,1.6457e+09,0,0,0,0,0,0.41,0.66,0,0,0.5,0.00015897,0.0017287,0.0089881
16027,1.6457e+09,0,0,0,0,0,0.41,0.66,0,0,0.5,0.00027895,0.0014998,0.007442
16066,1.6458e+09,0,0,0,0,0,0.4,0.66,0,0,0.5,0.00027639,0.0080005,0.022473
16111,1.6458e+09,0,0,0,0,0,0.4,0.66,0,0,0.5,0.00026523,0.0073788,0.020029
16158,1.6458e+09,0,0,0,0,0,0.4,0.66,0,0,0.5,0.00025151,0.0068044,0.017707
16203,1.6458e+09,0,0,0,0,0,0.4,0.66,0,0,0.5,0.00025151,0.0068044,0.017707
16253,1.6458e+09,0,0,0,0,0,0.4,0.66,0,0,0.5,0.00024099,0.006265,0.015534
16298,1.6458e+09,0,0,0,0,0,0.4,0.66,0,0,0.5,0.00022838,0.0057616,0.013464
16342,1.6458e+09,0,0,0,0,0,0.4,0.66,0,0,0.5,0.00021873,0.0052946,0.011491
16389,1.6458e+09,0,0,0,0,0,0.41,0.66,0,0,0.5,0.00020706,0.0048756,0.0096403
16439,1.6458e+09,0,0,0,0,0,0.41,0.66,0,0,0.5,0.00015087,0.0045693,0.0099103
16483,1.6459e+09,0,0,0,0,0,0.41,0.66,0,0,0.5,0.00013667,0.0042048,0.0081194
16528,1.6459e+09,0,0,0,0,0,0.41,0.66,0,0,0.5,0.00011797,0.003882,0.0064383
16573,1.6459e+09,0,0,0,0,0,0.41,0.66,0,0,0.5,0.00010415,0.0036022,0.0049199
16617,1.6459e+09,0,0,0,0,0,0.41,0.66,0,0,0.5,8.7524e-05,0.0033778,0.0036574
16663,1.6459e+09,0,0,0,0,0,0.42,0.66,0,0,0.5,7.2329e-05,0.0032118,0.0027372
16711,1.6459e+09,0,0,0,0,0,0.42,0.66,0,0,0.5,7.2329e-05,0.0032118,0.0027372
16756,1.6459e+09,0,0,0,0,0,0.42,0.66,0,0,0.5,5.831e-05,0.0030905,0.0025617
16800,1.6459e+09,0,0,0,0,0,0.42,0.66,0,0,0.5,4.8317e-05,0.0030131,0.0031
16846,1.6459e+09,0,0,0,0,0,0.42,0.66,0,0,0.5,3.743e-05,0.0027015,0.0019846
16892,1.6459e+09,0,0,0,0,0,0.42,0.66,0,0,0.5,8.9164e-05,0.0026644,0.0020009
16935,1.646e+09,0,0,0,0,0,0.41,0.66,0,0,0.5,7.9448e-05,0.0027111,0.012493
16977,1.646e+09,0,0,0,0,0,0.41,0.66,0,0,0.5,7.1886e-05,0.0022634,0.010495
17020,1.646e+09,0,0,0,0,0,0.41,0.66,0,0,0.5,6.666e-05,0.0018463,0.0086366
17063,1.646e+09,0,0,0,0,0,0.41,0.66,0,0,0.5,6.666e-05,0.0018463,0.0086366
17105,1.646e+09,0,0,0,0,0,0.41,0.66,0,0,0.5,6.2339e-05,0.0014698,0.0068504
17152,1.646e+09,0,0,0,0,0,0.41,0.66,0,0,0.5,5.81e-05,0.0011502,0.005165
17194,1.646e+09,0,0,0,0,0,0.42,0.66,0,0,0.5,5.5049e-05,0.00092222,0.0036542
17236,1.646e+09,0,0,0,0,0,0.42,0.66,0,0,0.5,5.3145e-05,0.00083425,0.0023779
17281,1.646e+09,0,0,0,0,0,0.42,0.66,0,0,0.5,5.186e-05,0.00067442,0.0035287
17323,1.646e+09,0,0,0,0,0,0.42,0.66,0,0,0.5,0.00017934,0.00073149,0.0021116
17370,1.6461e+09,0,0,0,0,0,0.42,0.66,0,0,0.5,0.00017457,0.00092618,0.0012708
17412,1.6461e+09,0,0,0,0,0,0.42,0.66,0,0,0.5,0.00016906,0.0011768,0.0017847
17455,1.6461e+09,0,0,0,0,0,0.42,0.66,0,0,0.5,0.000164,0.0014466,0.0029008
17498,1.6461e+09,0,0,0,0,0,0.42,0.66,0,0,0.5,0.000164,0.0014466,0.0029008
17540,1.6461e+09,0,0,0,0,0,0.42,0.66,0,0,0.5,0.00015941,0.001713,0.0041546
17588,1.6461e+09,0,0,0,0,0,0.43,0.66,0,0,0.5,0.00015503,0.0019766,0.0053382
17630,1.6461e+09,0,0,0,0,0,0.43,0.66,0,0,0.5,0.00015092,0.0022303,0.0064913
17673,1.6461e+09,0,0,0,0,0,0.43,0.66,0,0,0.5,0.00014776,0.0024731,0.0076577
17715,1.6461e+09,0,0,0,0,0,0.42,0.66,0,0,0.5,0.00023345,0.0026157,0.0076954
17761,1.6462e+09,0,0,0,0,0,0.42,0.66,0,0,0.5,0.00022364,0.0024813,0.0060534
17806,1.6462e+09,0,0,0,0,0,0.42,0.66,0,0,0.5,0.00021181,0.0024164,0.0045708
17850,1.6462e+09,0,0,0,0,0,0.42,0.66,0,0,0.5,0.00021181,0.0024164,0.0045708
17894,1.6462e+09,0,0,0,0,0,0.42,0.66,0,0,0.5,0.00020245,0.0024094,0.0032918
17939,1.6462e+09,0,0,0,0,0,0.42,0.66,0,0,0.5,0.00019096,0.0024501,0.0025272
17987,1.6462e+09,0,0,0,0,0,0.42,0.66,0,0,0.5,0.00017974,0.0025328,0.0026228
18036,1.6462e+09,0,0,0,0,0,0.43,0.66,0,0,0.5,0.00016882,0.0026485,0.0033378
18081,1.6462e+09,0,0,0,0,0,0.43,0.66,0,0,0.5,0.00015826,0.0027785,0.0044061
18128,1.6462e+09,0,0,0,0,0,0.42,0.66,0,0,0.5,0.00015001,0.0026197,0.0042301
18176,1.6463e+09,0,0,0,0,0,0.43,0.66,0,0,0.5,0.00019151,0.0027278,0.0042601
18227,1.6463e+09,0,0,0,0,0,0.43,0.66,0,0,0.5,0.00017633,0.0028515,0.0047861
18272,1.6463e+09,0,0,0,0,0,0.43,0.66,0,0,0.5,0.00016212,0.0029863,0.0055612
18316,1.6463e+09,0,0,0,0,0,0.43,0.66,0,0,0.5,0.00014874,0.0031308,0.0064417
18361,1.6463e+09,0,0,0,0,0,0.43,0.66,0,0,0.5,0.00014874,0.0031308,0.0064417
18410,1.6463e+09,0,0,0,0,0,0.43,0.66,0,0,0.5,0.00013597,0.0032816,0.0074386
18455,1.6463e+09,0,0,0,0,0,0.43,0.66,0,0,0.5,0.00012404,0.0034316,0.0084033
18503,1.6463e+09,0,0,0,0,0,0.44,0.66,0,0,0.5,0.00011283,0.0035795,0.0093676
18549,1.6463e+09,0,0,0,0,0,0.44,0.66,0,0,0.5,0.00010435,0.0037271,0.01033
18592,1.6464e+09,0,0,0,0,0,0.42,0.66,0,0,0.5,0.00016599,0.0031457,0.011528
18636,1.6464e+09,0,0,0,0,0,0.42,0.66,0,0,0.5,0.00015579,0.0028916,0.0096687
18682,1.6464e+09,0,0,0,0,0,0.42,0.66,0,0,0.5,0.00014395,0.0026934,0.0080129
18727,1.6464e+09,0,0,0,0,0,0.42,0.66,0,0,0.5,0.00013282,0.0025564,0.0065102
18771,1.6464e+09,0,0,0,0,0,0.42,0.66,0,0,0.5,0.00013282,0.0025564,0.0065102
18816,1.6464e+09,0,0,0,0,0,0.43,0.66,0,0,0.5,0.00012274,0.0024814,0.0051122
18864,1.6464e+09,0,0,0,0,0,0.43,0.66,0,0,0.5,0.0001153,0.002456,0.0041148
18909,1.6464e+09,0,0,0,0,0,0.43,0.66,0,0,0.5,0.00010669,0.0024798,0.0035691
18954,1.6464e+09,0,0,0,0,0,0.43,0.66,0,0,0.5,9.8912e-05,0.0025432,0.0036263
18999,1.6465e+09,0,0,0,0,0,0.43,0.66,0,0,0.5,9.315e-05,0.0026381,0.0042539
19047,1.6465e+09,0,0,0,0,0,0.43,0.66,0,0,0.5,0.0001357,0.0025533,0.0048638
19092,1.6465e+09,0,0,0,0,0,0.43,0.66,0,0,0.5,0.00012496,0.002651,0.0049308
19137,1.6465e+09,0,0,0,0,0,0.43,0.66,0,0,0.5,0.00012496,0.002651,0.0049308
19182,1.6465e+09,0,0,0,0,0,0.43,0.66,0,0,0.5,0.0001148,0.0027785,0.0053931
19227,1.6465e+09,0,0,0,0,0,0.43,0.66,0,0,0.5,0.00010378,0.0029175,0.0061475
19271,1.6465e+09,0,0,0,0,0,0.44,0.66,0,0,0.5,9.5414e-05,0.0030593,0.0070173
19320,1.6465e+09,0,0,0,0,0,0.44,0.66,0,0,0.5,8.9163e-05,0.0032066,0.0079394
19365,1.6465e+09,0,0,0,0,0,0.44,0.66,0,0,0.5,8.1773e-05,0.003354,0.0088824
19409,1.6465e+09,0,0,0,0,0,0.44,0.66,0,0,0.5,8.1773e-05,0.003354,0.0088824
19457,1.6466e+09,0,0,0,0,0,0.44,0.66,0,0,0.5,7.5058e-05,0.0035027,0.009835
19496,1.6466e+09,0,0,0,0,0,0.42,0.66,0,0,0.5,0.00023604,0.0042843,0.015302
19539,1.6466e+09,0,0,0,0,0,0.42,0.66,0,0,0.5,0.0002271,0.0037965,0.013195
19582,1.6466e+09,0,0,0,0,0,0.42,0.66,0,0,0.5,0.00021717,0.0033452,0.011214
19625,1.6466e+09,0,0,0,0,0,0.42,0.66,0,0,0.5,0.00020956,0.0029306,0.0094064
19668,1.6466e+09,0,0,0,0,0,0.42,0.66,0,0,0.5,0.00020249,0.0025564,0.0076894
19711,1.6466e+09,0,0,0,0,0,0.42,0.66,0,0,0.5,0.00020249,0.0025564,0.0076894
19758,1.6466e+09,0,0,0,0,0,0.43,0.66,0,0,0.5,0.00019714,0.0022318,0.0061047
19801,1.6466e+09,0,0,0,0,0,0.43,0.66,0,0,0.5,0.00019221,0.0019681,0.0047716
19843,1.6466e+09,0,0,0,0,0,0.43,0.66,0,0,0.5,0.00018647,0.0017751,0.0037126
19887,1.6467e+09,0,0,0,0,0,0.43,0.66,0,0,0.5,0.00018099,0.0017627,0.0056762
19933,1.6467e+09,0,0,0,0,0,0.43,0.66,0,0,0.5,0.00015579,0.0016234,0.0047342
19975,1.6467e+09,0,0,0,0,0,0.43,0.66,0,0,0.5,0.00014375,0.0015661,0.0041763
20019,1.6467e+09,0,0,0,0,0,0.43,0.66,0,0,0.5,0.00012878,0.001594,0.0041622
20062,1.6467e+09,0,0,0,0,0,0.43,0.66,0,0,0.5,0.00012878,0.001594,0.0041622
20106,1.6467e+09,0,0,0,0,0,0.43,0.66,0,0,0.5,0.00011409,0.0016905,0.0045935
20153,1.6467e+09,0,0,0,0,0,0.43,0.66,0,0,0.5,0.00010004,0.0018363,0.0053716
20196,1.6467e+09,0,0,0,0,0,0.44,0.66,0,0,0.5,8.6666e-05,0.0020107,0.0062707
20238,1.6467e+09,0,0,0,0,0,0.44,0.66,0,0,0.5,7.3638e-05,0.0022017,0.007235
20284,1.6468e+09,0,0,0,0,0,0.44,0.66,0,0,0.5,7.3638e-05,0.0022017,0.007235
20326,1.6468e+09,0,0,0,0,0,0.42,0.66,0,0,0.5,7.0804e-05,0.0043432,0.0092728
20370,1.6468e+09,0,0,0,0,0,0.42,0.66,0,0,0.5,0.00016622,0.0045608,0.01419
20415,1.6468e+09,0,0,0,0,0,0.42,0.66,0,0,0.5,0.00015838,0.0042478,0.012288
20459,1.6468e+09,0,0,0,0,0,0.42,0.66,0,0,0.5,0.00014959,0.0039872,0.010533
20505,1.6468e+09,0,0,0,0,0,0.42,0.66,0,0,0.5,0.00014959,0.0039872,0.010533
20550,1.6468e+09,0,0,0,0,0,0.42,0.66,0,0,0.5,0.00014196,0.0037763,0.0090194
20600,1.6468e+09,0,0,0,0,0,0.42,0.66,0,0,0.5,0.00013396,0.0036147,0.0077002
20645,1.6468e+09,0,0,0,0,0,0.43,0.66,0,0,0.5,0.00012938,0.0034779,0.0066298
20690,1.6469e+09,0,0,0,0,0,0.43,0.66,0,0,0.5,0.00012448,0.003389,0.0059539
20735,1.6469e+09,0,0,0,0,0,0.43,0.66,0,0,0.5,0.00011886,0.0033445,0.0057033
20784,1.6469e+09,0,0,0,0,0,0.42,0.66,0,0,0.5,0.00031247,0.003314,0.0091552
20829,1.6469e+09,0,0,0,0,0,0.43,0.66,0,0,0.5,0.00030436,0.0032146,0.0081261
20874,1.6469e+09,0,0,0,0,0,0.43,0.66,0,0,0.5,0.00030436,0.0032146,0.0081261
20920,1.6469e+09,0,0,0,0,0,0.43,0.66,0,0,0.5,0.00029482,0.0031616,0.0074503
20965,1.6469e+09,0,0,0,0,0,0.43,0.66,0,0,0.5,0.00028588,0.0031475,0.007139
21009,1.6469e+09,0,0,0,0,0,0.43,0.66,0,0,0.5,0.00027725,0.0031673,0.007111
21058,1.6469e+09,0,0,0,0,0,0.43,0.66,0,0,0.5,0.00026905,0.0032151,0.007392
21105,1.647e+09,0,0,0,0,0,0.42,0.66,0,0,0.5,0.00028043,0.0064649,0.015123
21146,1.647e+09,0,0,0,0,0,0.42,0.66,0,0,0.5,0.00027274,0.0060225,0.013235
21195,1.647e+09,0,0,0,0,0,0.41,0.66,0,0,0.5,0.00030783,0.005995,0.017106
21240,1.647e+09,0,0,0,0,0,0.41,0.66,0,0,0.5,0.00028762,0.0055867,0.015203
21285,1.647e+09,0,0,0,0,0,0.42,0.66,0,0,0.5,0.00026825,0.0052169,0.01341
21329,1.647e+09,0,0,0,0,0,0.42,0.66,0,0,0.5,0.00026825,0.0052169,0.01341
21374,1.647e+09,0,0,0,0,0,0.42,0.66,0,0,0.5,0.00024973,0.0048846,0.011784
21419,1.647e+09,0,0,0,0,0,0.42,0.66,0,0,0.5,0.0002318,0.0045876,0.010423
21468,1.647e+09,0,0,0,0,0,0.42,0.66,0,0,0.5,0.0002148,0.0043382,0.0092547
21513,1.647e+09,0,0,0,0,0,0.42,0.66,0,0,0.5,0.00020155,0.0041338,0.0083448
21558,1.6471e+09,0,0,0,0,0,0.42,0.66,0,0,0.5,0.00018648,0.003968,0.007731
21604,1.6471e+09,0,0,0,0,0,0.42,0.66,0,0,0.5,0.00016809,0.0038327,0.0087221
21648,1.6471e+09,0,0,0,0,0,0.42,0.66,0,0,0.5,0.00016809,0.0038327,0.0087221
21694,1.6471e+09,0,0,0,0,0,0.42,0.66,0,0,0.5,0.00023058,0.0037189,0.0081794
21738,1.6471e+09,0,0,0,0,0,0.42,0.66,0,0,0.5,0.00021516,0.0036356,0.0079358
21784,1.6471e+09,0,0,0,0,0,0.42,0.66,0,0,0.5,0.00019663,0.0035918,0.0079616
21828,1.6471e+09,0,0,0,0,0,0.42,0.66,0,0,0.5,0.00018305,0.003582,0.0082193
21873,1.6471e+09,0,0,0,0,0,0.43,0.66,0,0,0.5,0.00016676,0.0035974,0.0087381
21922,1.6471e+09,0,0,0,0,0,0.43,0.66,0,0,0.5,0.00016676,0.0035974,0.0087381
21968,1.6472e+09,0,0,0,0,0,0.43,0.66,0,0,0.5,0.00015189,0.0036343,0.0093784
22010,1.6472e+09,0,0,0,0,0,0.42,0.66,0,0,0.5,0.00016408,0.0035361,0.0058109
22056,1.6472e+09,0,0,0,0,0,0.42,0.66,0,0,0.5,0.00023583,0.00339,0.0085995
22099,1.6472e+09,0,0,0,0,0,0.42,0.66,0,0,0.5,0.00022442,0.003086,0.0068251
22141,1.6472e+09,0,0,0,0,0,0.42,0.66,0,0,0.5,0.0002114,0.0028355,0.0051189
22184,1.6472e+09,0,0,0,0,0,0.42,0.66,0,0,0.5,0.0002114,0.0028355,0.0051189
22228,1.6472e+09,0,0,0,0,0,0.42,0.66,0,0,0.5,0.00019949,0.0026383,0.0036407
22271,1.6472e+09,0,0,0,0,0,0.42,0.66,0,0,0.5,0.00019083,0.0024942,0.0025096
22314,1.6472e+09,0,0,0,0,0,0.42,0.66,0,0,0.5,0.00018083,0.0024086,0.0020978
22360,1.6472e+09,0,0,0,0,0,0.42,0.66,0,0,0.5,0.00017356,0.0023732,0.002692
22405,1.6473e+09,0,0,0,0,0,0.42,0.66,0,0,0.5,0.00017356,0.0023732,0.002692
22447,1.6473e+09,0,0,0,0,0,0.42,0.66,0,0,0.5,0.00016423,0.0023827,0.0037593
22491,1.6473e+09,0,0,0,0,0,0.43,0.66,0,0,0.5,0.00015538,0.0024332,0.0049468
22537,1.6473e+09,0,0,0,0,0,0.42,0.66,0,0,0.5,0.00014537,0.0020548,0.0026119
22579,1.6473e+09,0,0,0,0,0,0.42,0.66,0,0,0.5,0.00013314,0.0021405,0.0034986
22622,1.6473e+09,0,0,0,0,0,0.42,0.66,0,0,0.5,0.0001185,0.0022572,0.0046057
22664,1.6473e+09,0,0,0,0,0,0.42,0.66,0,0,0.5,0.0001185,0.0022572,0.0046057
22708,1.6473e+09,0,0,0,0,0,0.43,0.66,0,0,0.5,0.00010466,0.0024019,0.0057475
22749,1.6473e+09,0,0,0,0,0,0.43,0.66,0,0,0.5,9.1635e-05,0.0025614,0.0069424
22795,1.6474e+09,0,0,0,0,0,0.42,0.66,0,0,0.5,8.3183e-05,0.0026646,0.0064857
22840,1.6474e+09,0,0,0,0,0,0.42,0.66,0,0,0.5,7.2581e-05,0.0024643,0.0053234
22885,1.6474e+09,0,0,0,0,0,0.42,0.66,0,0,0.5,6.316e-05,0.0023249,0.004546
22933,1.6474e+09,0,0,0,0,0,0.42,0.66,0,0,0.5,0.0001043,0.002095,0.0047126
22977,1.6474e+09,0,0,0,0,0,0.42,0.66,0,0,0.5,9.7311e-05,0.0019975,0.0034062
23022,1.6474e+09,0,0,0,0,0,0.42,0.66,0,0,0.5,8.7834e-05,0.0019729,0.0025907
23068,1.6474e+09,0,0,0,0,0,0.42,0.66,0,0,0.5,8.7834e-05,0.0019729,0.0025907
23113,1.6474e+09,0,0,0,0,0,0.42,0.66,0,0,0.5,8.1122e-05,0.002009,0.0026125
23158,1.6474e+09,0,0,0,0,0,0.42,0.66,0,0,0.5,7.6418e-05,0.0020957,0.0033609
23206,1.6475e+09,0,0,0,0,0,0.42,0.66,0,0,0.5,7.1281e-05,0.0022171,0.0044564
23251,1.6475e+09,0,0,0,0,0,0.42,0.66,0,0,0.5,6.6371e-05,0.0023614,0.0055667
23296,1.6475e+09,0,0,0,0,0,0.43,0.66,0,0,0.5,6.2064e-05,0.0025251,0.0066858
23341,1.6475e+09,0,0,0,0,0,0.42,0.66,0,0,0.5,5.8698e-05,0.0018978,0.0017035
23389,1.6475e+09,0,0,0,0,0,0.42,0.66,0,0,0.5,0.00019943,0.0020862,0.0027547
23430,1.6475e+09,0,0,0,0,0,0.42,0.66,0,0,0.5,0.00019431,0.0022827,0.0040202
23475,1.6475e+09,0,0,0,0,0,0.42,0.66,0,0,0.5,0.00018835,0.0024821,0.0052815
23519,1.6475e+09,0,0,0,0,0,0.42,0.66,0,0,0.5,0.00018385,0.0026798,0.0064629
23566,1.6475e+09,0,0,0,0,0,0.42,0.66,0,0,0.5,0.00018385,0.0026798,0.0064629
23613,1.6475e+09,0,0,0,0,0,0.43,0.66,0,0,0.5,0.0001787,0.0028718,0.0076588
23655,1.6476e+09,0,0,0,0,0,0.42,0.66,0,0,0.5,0.00017644,0.0033281,0.0075907
23700,1.6476e+09,0,0,0,0,0,0.42,0.66,0,0,0.5,0.00017175,0.0031594,0.0065694
23744,1.6476e+09,0,0,0,0,0,0.42,0.66,0,0,0.5,0.00016826,0.0030344,0.0058369
23789,1.6476e+09,0,0,0,0,0,0.42,0.66,0,0,0.5,0.00016826,0.0030344,0.0058369
23834,1.6476e+09,0,0,0,0,0,0.42,0.66,0,0,0.5,0.00016491,0.0028995,0.0051729
23879,1.6476e+09,0,0,0,0,0,0.42,0.66,0,0,0.5,0.00024032,0.0028278,0.0050213
23923,1.6476e+09,0,0,0,0,0,0.42,0.66,0,0,0.5,0.00022689,0.0027966,0.0053287
23969,1.6476e+09,0,0,0,0,0,0.42,0.66,0,0,0.5,0.00021641,0.0028037,0.0059101
24015,1.6476e+09,0,0,0,0,0,0.42,0.66,0,0,0.5,0.00021641,0.0028037,0.0059101
24059,1.6477e+09,0,0,0,0,0,0.42,0.66,0,0,0.5,0.00020353,0.0028413,0.0067426
24108,1.6477e+09,0,0,0,0,0,0.42,0.66,0,0,0.5,0.00019113,0.0029109,0.007643
24152,1.6477e+09,0,0,0,0,0,0.43,0.66,0,0,0.5,0.00018135,0.0030022,0.0085429
24198,1.6477e+09,0,0,0,0,0,0.43,0.66,0,0,0.5,0.00016927,0.003109,0.0095367
24243,1.6477e+09,0,0,0,0,0,0.43,0.66,0,0,0.5,0.00015545,0.0032253,0.010499
24287,1.6477e+09,0,0,0,0,0,0.43,0.66,0,0,0.5,0.00015545,0.0032253,0.010499
24335,1.6477e+09,0,0,0,0,0,0.43,0.66,0,0,0.5,0.00025236,0.0029322,0.0077395
24380,1.6477e+09,0,0,0,0,0,0.43,0.66,0,0,0.5,0.0002403,0.0030787,0.0087837
24426,1.6477e+09,0,0,0,0,0,0.43,0.66,0,0,0.5,0.00022574,0.003228,0.0098655
24473,1.6477e+09,0,0,0,0,0,0.43,0.66,0,0,0.5,0.00021229,0.0033789,0.010856
24521,1.6478e+09,0,0,0,0,0,0.41,0.66,0,0,0.5,0.00021977,0.0039683,0.0098041
24567,1.6478e+09,0,0,0,0,0,0.41,0.66,0,0,0.5,0.00020893,0.0035232,0.0079975
24609,1.6478e+09,0,0,0,0,0,0.41,0.66,0,0,0.5,0.00019907,0.0031255,0.0063506
24653,1.6478e+09,0,0,0,0,0,0.41,0.66,0,0,0.5,0.00019907,0.0031255,0.0063506
24696,1.6478e+09,0,0,0,0,0,0.41,0.66,0,0,0.5,0.00018986,0.0027713,0.0049286
24738,1.6478e+09,0,0,0,0,0,0.41,0.66,0,0,0.5,0.00029979,0.0024938,0.0041525
24782,1.6478e+09,0,0,0,0,0,0.42,0.66,0,0,0.5,0.00028425,0.0022242,0.0031032
24824,1.6478e+09,0,0,0,0,0,0.42,0.66,0,0,0.5,0.00026986,0.0020195,0.0026356
24867,1.6478e+09,0,0,0,0,0,0.42,0.66,0,0,0.5,0.00025629,0.0018814,0.0029808
24909,1.6479e+09,0,0,0,0,0,0.42,0.66,0,0,0.5,0.00024366,0.0018201,0.0038546
24955,1.6479e+09,0,0,0,0,0,0.42,0.66,0,0,0.5,0.00024366,0.0018201,0.0038546
25002,1.6479e+09,0,0,0,0,0,0.42,0.66,0,0,0.5,0.00023219,0.001819,0.0048855
25045,1.6479e+09,0,0,0,0,0,0.42,0.66,0,0,0.5,0.00021856,0.0018717,0.0059451
25088,1.6479e+09,0,0,0,0,0,0.42,0.66,0,0,0.5,0.00020553,0.0019726,0.0070096
25130,1.6479e+09,0,0,0,0,0,0.42,0.66,0,0,0.5,0.00020553,0.0019726,0.0070096
25173,1.6479e+09,0,0,0,0,0,0.42,0.66,0,0,0.5,0.00019319,0.0021554,0.0085052
25215,1.6479e+09,0,0,0,0,0,0.42,0.66,0,0,0.5,9.3714e-05,0.0023159,0.0095775
25259,1.6479e+09,0,0,0,0,0,0.43,0.66,0,0,0.5,7.6878e-05,0.0024888,0.010594
25302,1.6479e+09,0,0,0,0,0,0.43,0.66,0,0,0.5,6.166e-05,0.0026686,0.011575
25345,1.648e+09,0,0,0,0,0,0.43,0.66,0,0,0.5,5.0784e-05,0.0028512,0.012454
25390,1.648e+09,0,0,0,0,0,0.43,0.66,0,0,0.5,5.0784e-05,0.0028512,0.012454
25431,1.648e+09,0,0,0,0,0,0.42,0.66,0,0,0.5,0.0001456,0.0070125,0.013628
25475,1.648e+09,0,0,0,0,0,0.42,0.66,0,0,0.5,0.00014026,0.0066251,0.01323
25520,1.648e+09,0,0,0,0,0,0.42,0.66,0,0,0.5,0.00013765,0.0062983,0.012986
25564,1.648e+09,0,0,0,0,0,0.43,0.66,0,0,0.5,0.00013665,0.0059994,0.012872
25610,1.648e+09,0,0,0,0,0,0.43,0.66,0,0,0.5,0.00013665,0.0059994,0.012872
25655,1.648e+09,0,0,0,0,0,0.42,0.66,0,0,0.5,0.00012816,0.0056353,0.011423
25699,1.648e+09,0,0,0,0,0,0.43,0.66,0,0,0.5,0.00012455,0.0053875,0.011586
25744,1.648e+09,0,0,0,0,0,0.43,0.66,0,0,0.5,0.00012141,0.0051757,0.01191
25789,1.6481e+09,0,0,0,0,0,0.43,0.66,0,0,0.5,0.00011923,0.0049943,0.01233
25834,1.6481e+09,0,0,0,0,0,0.43,0.66,0,0,0.5,0.00011692,0.0048405,0.012867
25883,1.6481e+09,0,0,0,0,0,0.43,0.66,0,0,0.5,0.00010976,0.0047082,0.013408
25928,1.6481e+09,0,0,0,0,0,0.43,0.66,0,0,0.5,0.00010258,0.0046031,0.013947
25973,1.6481e+09,0,0,0,0,0,0.43,0.66,0,0,0.5,9.1809e-05,0.0045308,0.014467
26018,1.6481e+09,0,0,0,0,0,0.43,0.66,0,0,0.5,9.1809e-05,0.0045308,0.014467
26063,1.6481e+09,0,0,0,0,0,0.43,0.66,0,0,0.5,0.00013708,0.0044962,0.015151
26107,1.6481e+09,0,0,0,0,0,0.43,0.66,0,0,0.5,0.00013227,0.0044718,0.015772
26152,1.6481e+09,0,0,0,0,0,0.43,0.66,0,0,0.5,0.00012787,0.0044597,0.016324
26195,1.6482e+09,0,0,0,0,0,0.43,0.66,0,0,0.5,0.00020209,0.0080999,0.017494
26240,1.6482e+09,0,0,0,0,0,0.43,0.66,0,0,0.5,0.00019513,0.0076935,0.017073
26286,1.6482e+09,0,0,0,0,0,0.43,0.66,0,0,0.5,0.00018839,0.0073395,0.016822
26335,1.6482e+09,0,0,0,0,0,0.43,0.66,0,0,0.5,0.00018347,0.007008,0.016772
26379,1.6482e+09,0,0,0,0,0,0.43,0.66,0,0,0.5,0.00017892,0.0067045,0.016872
26424,1.6482e+09,0,0,0,0,0,0.43,0.66,0,0,0.5,0.00017367,0.006435,0.017083
26469,1.6482e+09,0,0,0,0,0,0.43,0.66,0,0,0.5,0.00017367,0.006435,0.017083
26513,1.6482e+09,0,0,0,0,0,0.43,0.66,0,0,0.5,0.00024773,0.0059962,0.01474
26558,1.6482e+09,0,0,0,0,0,0.43,0.66,0,0,0.5,0.00023845,0.0057665,0.01501
26604,1.6483e+09,0,0,0,0,0,0.43,0.66,0,0,0.5,0.00022959,0.0055704,0.01535
26649,1.6483e+09,0,0,0,0,0,0.44,0.66,0,0,0.5,0.0002195,0.0053959,0.015674
26693,1.6483e+09,0,0,0,0,0,0.44,0.66,0,0,0.5,0.00020983,0.0052427,0.01595
26740,1.6483e+09,0,0,0,0,0,0.44,0.66,0,0,0.5,0.00020983,0.0052427,0.01595
26788,1.6483e+09,0,0,0,0,0,0.44,0.66,0,0,0.5,0.00019782,0.0051135,0.016235
26834,1.6483e+09,0,0,0,0,0,0.44,0.66,0,0,0.5,0.00018661,0.0050054,0.016597
26879,1.6483e+09,0,0,0,0,0,0.44,0.66,0,0,0.5,0.00017792,0.0049253,0.017008
26923,1.6483e+09,0,0,0,0,0,0.44,0.66,0,0,0.5,0.00016716,0.0048604,0.017413
26968,1.6483e+09,0,0,0,0,0,0.44,0.66,0,0,0.5,0.00023828,0.0048177,0.01793
27012,1.6483e+09,0,0,0,0,0,0.44,0.66,0,0,0.5,0.00022615,0.0047908,0.018527
27059,1.6484e+09,0,0,0,0,0,0.44,0.66,0,0,0.5,0.00021139,0.0047796,0.019218
27101,1.6484e+09,0,0,0,0,0,0.44,0.66,0,0,0.5,0.00023763,0.0054769,0.017243
27143,1.6484e+09,0,0,0,0,0,0.44,0.66,0,0,0.5,0.0002256,0.0053793,0.017594
27186,1.6484e+09,0,0,0,0,0,0.44,0.66,0,0,0.5,0.00021436,0.0053092,0.018029
27233,1.6484e+09,0,0,0,0,0,0.44,0.66,0,0,0.5,0.00020598,0.0052528,0.018436
27276,1.6484e+09,0,0,0,0,0,0.44,0.66,0,0,0.5,0.00019616,0.0052128,0.018598
27319,1.6484e+09,0,0,0,0,0,0.45,0.66,0,0,0.5,0.00018886,0.0052851,0.01981
27365,1.6484e+09,0,0,0,0,0,0.45,0.66,0,0,0.5,0.00022552,0.0052663,0.020085
27408,1.6484e+09,0,0,0,0,0,0.45,0.66,0,0,0.5,0.00021507,0.0052553,0.02044
27450,1.6485e+09,0,0,0,0,0,0.45,0.66,0,0,0.5,0.00021507,0.0052553,0.02044
27493,1.6485e+09,0,0,0,0,0,0.45,0.66,0,0,0.5,0.00020522,0.0052503,0.020816
27536,1.6485e+09,0,0,0,0,0,0.45,0.66,0,0,0.5,0.00019229,0.0052491,0.021169
27578,1.6485e+09,0,0,0,0,0,0.45,0.66,0,0,0.5,0.00017671,0.005255,0.021589
27625,1.6485e+09,0,0,0,0,0,0.45,0.66,0,0,0.5,0.00016478,0.0052669,0.021851
27669,1.6485e+09,0,0,0,0,0,0.45,0.66,0,0,0.5,0.00015326,0.0052843,0.021918
27712,1.6485e+09,0,0,0,0,0,0.45,0.66,0,0,0.5,0.00014191,0.0052995,0.02222
27758,1.6485e+09,0,0,0,0,0,0.46,0.66,0,0,0.5,0.00013091,0.005524,0.024432
27806,1.6485e+09,0,0,0,0,0,0.46,0.66,0,0,0.5,0.00014978,0.0055385,0.024702
27842,1.6486e+09,0,0,0,0,0,0.45,0.66,0,0,0.5,0.00013298,0.0047079,0.019366
27886,1.6486e+09,0,0,0,0,0,0.45,0.66,0,0,0.5,0.00012073,0.0046059,0.019232
27930,1.6486e+09,0,0,0,0,0,0.45,0.66,0,0,0.5,0.000112,0.0045262,0.019004
27974,1.6486e+09,0,0,0,0,0,0.45,0.66,0,0,0.5,0.000112,0.0045262,0.019004
28018,1.6486e+09,0,0,0,0,0,0.46,0.66,0,0,0.5,0.00010275,0.0044605,0.018827
28068,1.6486e+09,0,0,0,0,0,0.46,0.66,0,0,0.5,9.6385e-05,0.0044109,0.018855
28112,1.6486e+09,0,0,0,0,0,0.46,0.66,0,0,0.5,8.9701e-05,0.0043793,0.019026
28158,1.6486e+09,0,0,0,0,0,0.46,0.66,0,0,0.5,8.5481e-05,0.0043637,0.019301
28203,1.6486e+09,0,0,0,0,0,0.46,0.66,0,0,0.5,8.1151e-05,0.0040853,0.017285
28247,1.6487e+09,0,0,0,0,0,0.46,0.66,0,0,0.5,0.00014877,0.0040974,0.01767
28292,1.6487e+09,0,0,0,0,0,0.46,0.66,0,0,0.5,0.00014165,0.0041215,0.017913
28336,1.6487e+09,0,0,0,0,0,0.46,0.66,0,0,0.5,0.00013333,0.0041544,0.018101
28381,1.6487e+09,0,0,0,0,0,0.46,0.66,0,0,0.5,0.00012563,0.0041972,0.018376
28427,1.6487e+09,0,0,0,0,0,0.46,0.66,0,0,0.5,0.00011858,0.004245,0.018673
28473,1.6487e+09,0,0,0,0,0,0.46,0.66,0,0,0.5,0.00011858,0.004245,0.018673
28521,1.6487e+09,0,0,0,0,0,0.46,0.66,0,0,0.5,0.00011331,0.0042939,0.018893
28567,1.6487e+09,0,0,0,0,0,0.46,0.66,0,0,0.5,0.00010834,0.004346,0.019113
28616,1.6487e+09,0,0,0,0,0,0.46,0.66,0,0,0.5,0.00010264,0.0043954,0.019389
28660,1.6488e+09,0,0,0,0,0,0.45,0.66,0,0,0.5,0.00015313,0.0052729,0.009688
28704,1.6488e+09,0,0,0,0,0,0.45,0.66,0,0,0.5,0.00015663,0.0048965,0.0088164
28750,1.6488e+09,0,0,0,0,0,0.45,0.66,0,0,0.5,0.00015002,0.0045623,0.0081503
28796,1.6488e+09,0,0,0,0,0,0.45,0.66,0,0,0.5,0.00014384,0.0042611,0.0076876
28840,1.6488e+09,0,0,0,0,0,0.45,0.66,0,0,0.5,0.00013797,0.0039908,0.0074657
28886,1.6488e+09,0,0,0,0,0,0.45,0.66,0,0,0.5,0.00013128,0.0037597,0.0075109
28938,1.6488e+09,0,0,0,0,0,0.45,0.66,0,0,0.5,0.00012649,0.0035576,0.0077347
28983,1.6488e+09,0,0,0,0,0,0.46,0.66,0,0,0.5,0.00011995,0.0033868,0.0081067
29028,1.6488e+09,0,0,0,0,0,0.46,0.66,0,0,0.5,0.00011995,0.0033868,0.0081067
29072,1.6489e+09,0,0,0,0,0,0.46,0.66,0,0,0.5,0.0001151,0.003253,0.0085018
29117,1.6489e+09,0,0,0,0,0,0.45,0.66,0,0,0.5,0.00010629,0.0026535,0.0024738
29161,1.6489e+09,0,0,0,0,0,0.45,0.66,0,0,0.5,9.7519e-05,0.0025294,0.0027739
29206,1.6489e+09,0,0,0,0,0,0.46,0.66,0,0,0.5,8.9829e-05,0.0024355,0.0034957
29251,1.6489e+09,0,0,0,0,0,0.46,0.66,0,0,0.5,8.0665e-05,0.0023837,0.0043016
29296,1.6489e+09,0,0,0,0,0,0.46,0.66,0,0,0.5,7.3744e-05,0.0023706,0.0052111
29343,1.6489e+09,0,0,0,0,0,0.46,0.66,0,0,0.5,6.5141e-05,0.0023887,0.0060896
29391,1.6489e+09,0,0,0,0,0,0.46,0.66,0,0,0.5,6.5141e-05,0.0023887,0.0060896
29437,1.6489e+09,0,0,0,0,0,0.47,0.66,0,0,0.5,5.7178e-05,0.0024332,0.0069567
29482,1.6489e+09,0,0,0,0,0,0.47,0.66,0,0,0.5,4.9474e-05,0.0024988,0.0077759
29526,1.649e+09,0,0,0,0,0,0.46,0.66,0,0,0.5,0.00054114,0.020554,0.026585
29568,1.649e+09,0,0,0,0,0,0.45,0.66,0,0,0.5,0.00053256,0.019751,0.028782
29610,1.649e+09,0,0,0,0,0,0.46,0.66,0,0,0.5,0.00053618,0.018955,0.027823
29653,1.649e+09,0,0,0,0,0,0.46,0.66,0,0,0.5,0.00053847,0.018175,0.02679
29695,1.649e+09,0,0,0,0,0,0.47,0.66,0,0,0.5,0.00054059,0.01744,0.025696
29739,1.649e+09,0,0,0,0,0,0.47,0.66,0,0,0.5,0.0005425,0.016743,0.024747
29782,1.649e+09,0,0,0,0,0,0.48,0.66,0,0,0.5,0.0005448,0.016099,0.023973
29829,1.649e+09,0,0,0,0,0,0.48,0.66,0,0,0.5,0.0005448,0.016099,0.023973
29872,1.649e+09,0,0,0,0,0,0.49,0.66,0,0,0.5,0.00054693,0.015475,0.023299
29914,1.6491e+09,0,0,0,0,0,0.49,0.66,0,0,0.5,0.00054853,0.014869,0.022745
29957,1.6491e+09,0,0,0,0,0,0.5,0.66,0,0,0.5,0.00052088,0.014299,0.022216
30001,1.6491e+09,0,0,0,0,0,0.5,0.66,0,0,0.5,0.00049387,0.013765,0.022872
30044,1.6491e+09,0,0,0,0,0,0.51,0.66,0,0,0.5,0.00045697,0.013248,0.022196
30086,1.6491e+09,0,0,0,0,0,0.51,0.66,0,0,0.5,0.00045697,0.013248,0.022196
30129,1.6491e+09,0,0,0,0,0,0.52,0.66,0,0,0.5,0.00042108,0.012739,0.02159
30172,1.6491e+09,0,0,0,0,0,0.52,0.66,0,0,0.5,0.0003859,0.01226,0.021109
30214,1.6491e+09,0,0,0,0,0,0.53,0.66,0,0,0.5,0.00035824,0.011782,0.02068
30261,1.6491e+09,0,0,0,0,0,0.54,0.66,0,0,0.5,0.00032239,0.011345,0.020319
30305,1.6491e+09,0,0,0,0,0,0.55,0.66,0,0,0.5,0.00029386,0.010922,0.019961
30352,1.6492e+09,0,0,0,0,0,0.55,0.66,0,0,0.5,0.00025821,0.010521,0.019722
30389,1.6492e+09,0,0,0,0,0,0.54,0.66,0,0,0.5,0.00024424,0.0049275,0.021693
30433,1.6492e+09,0,0,0,0,0,0.55,0.66,0,0,0.5,0.00025295,0.0045047,0.019653
30479,1.6492e+09,0,0,0,0,0,0.56,0.66,0,0,0.5,0.00026414,0.0041179,0.017733
30524,1.6492e+09,0,0,0,0,0,0.57,0.66,0,0,0.5,0.00027415,0.0037684,0.015957
30568,1.6492e+09,0,0,0,0,0,0.57,0.66,0,0,0.5,0.00028723,0.003456,0.014328
30613,1.6492e+09,0,0,0,0,0,0.57,0.66,0,0,0.5,0.00028723,0.003456,0.014328
30657,1.6492e+09,0,0,0,0,0,0.58,0.66,0,0,0.5,0.00030074,0.0031729,0.012834
30708,1.6492e+09,0,0,0,0,0,0.59,0.66,0,0,0.5,0.00031398,0.0029251,0.011445
30754,1.6493e+09,0,0,0,0,0,0.6,0.66,0,0,0.5,0.00032392,0.002716,0.010132
30799,1.6493e+09,0,0,0,0,0,0.61,0.66,0,0,0.5,0.00033312,0.0025533,0.0089739
30844,1.6493e+09,0,0,0,0,0,0.61,0.66,0,0,0.5,0.00033312,0.0025533,0.0089739
30888,1.6493e+09,0,0,0,0,0,0.61,0.66,0,0,0.5,0.00036843,0.0027251,0.012849
30933,1.6493e+09,0,0,0,0,0,0.62,0.66,0,0,0.5,0.00035686,0.0025416,0.011455
30977,1.6493e+09,0,0,0,0,0,0.63,0.66,0,0,0.5,0.00034414,0.0024105,0.010234
31022,1.6493e+09,0,0,0,0,0,0.64,0.66,0,0,0.5,0.00032723,0.0023044,0.0092483
31066,1.6493e+09,0,0,0,0,0,0.65,0.66,0,0,0.5,0.00030936,0.0022536,0.0083926
31111,1.6493e+09,0,0,0,0,0,0.66,0.66,0,0,0.5,0.00029036,0.0022299,0.0076974
31162,1.6494e+09,0,0,0,0,0,0.67,0.66,0,0,0.5,0.00084472,0.026463,0.032801
31205,1.6494e+09,0,0,0,0,0,0.67,0.66,0,0,0.5,0.00084472,0.026463,0.032801
31250,1.6494e+09,0,0,0,0,0,0.68,0.66,0,0,0.5,0.00083952,0.025085,0.03136
31298,1.6494e+09,0,0,0,0,0,0.69,0.66,0,0,0.5,0.00083482,0.023841,0.030145
31342,1.6494e+09,0,0,0,0,0,0.7,0.66,0,0,0.5,0.00087978,0.022662,0.028705
31387,1.6494e+09,0,0,0,0,0,0.71,0.66,0,0,0.5,0.00087425,0.02155,0.027327
31431,1.6494e+09,0,0,0,0,0,0.72,0.66,0,0,0.5,0.00086567,0.020522,0.026374
31476,1.6494e+09,0,0,0,0,0,0.73,0.66,0,0,0.5,0.00086153,0.019485,0.025255
31521,1.6494e+09,0,0,0,0,0,0.74,0.66,0,0,0.5,0.00085778,0.018519,0.024276
31570,1.6495e+09,0,0,0,0,0,0.75,0.66,0,0,0.5,0.00085434,0.01758,0.023493
31615,1.6495e+09,0,0,0,0,0,0.75,0.66,0,0,0.5,0.00085434,0.01758,0.023493
31659,1.6495e+09,0,0,0,0,0,0.76,0.66,0,0,0.5,0.0007906,0.016742,0.022985
31704,1.6495e+09,0,0,0,0,0,0.77,0.66,0,0,0.5,0.00074957,0.01588,0.022166
31748,1.6495e+09,0,0,0,0,0,0.78,0.66,0,0,0.5,0.00071443,0.015104,0.021594
31793,1.6495e+09,0,0,0,0,0,0.79,0.66,0,0,0.5,0.00066065,0.014344,0.021146
31839,1.6495e+09,0,0,0,0,0,0.8,0.66,0,0,0.5,0.00060826,0.013602,0.020701
31883,1.6495e+09,0,0,0,0,0,0.81,0.66,0,0,0.5,0.00056464,0.012898,0.020279
31928,1.6495e+09,0,0,0,0,0,0.81,0.66,0,0,0.5,0.00056464,0.012898,0.020279
31971,1.6496e+09,0,0,0,0,0,0.8,0.66,0,0,0.5,0.00074304,0.018793,0.027648
32017,1.6496e+09,0,0,0,0,0,0.81,0.66,0,0,0.5,0.00070121,0.017685,0.025614
32061,1.6496e+09,0,0,0,0,0,0.82,0.66,0,0,0.5,0.00064959,0.016648,0.023728
32106,1.6496e+09,0,0,0,0,0,0.83,0.66,0,0,0.5,0.00061047,0.015666,0.021954
32151,1.6496e+09,0,0,0,0,0,0.84,0.66,0,0,0.5,0.00056404,0.014722,0.020347
32195,1.6496e+09,0,0,0,0,0,0.84,0.66,0,0,0.5,0.00056404,0.014722,0.020347
32241,1.6496e+09,0,0,0,0,0,0.85,0.66,0,0,0.5,0.00062285,0.013876,0.019404
32285,1.6496e+09,0,0,0,0,0,0.86,0.66,0,0,0.5,0.00058468,0.013018,0.017927
32330,1.6496e+09,0,0,0,0,0,0.87,0.66,0,0,0.5,0.00055715,0.012179,0.016562
32376,1.6496e+09,0,0,0,0,0,0.88,0.66,0,0,0.5,0.00051993,0.011399,0.015372
32420,1.6497e+09,0,0,0,0,0,0.89,0.66,0,0,0.5,0.00048637,0.010645,0.014287
32469,1.6497e+09,0,0,0,0,0,0.89,0.66,0,0,0.5,0.00048637,0.010645,0.014287
32513,1.6497e+09,0,0,0,0,0,0.9,0.66,0,0,0.5,0.00044764,0.0099317,0.013403
32558,1.6497e+09,0,0,0,0,0,0.91,0.66,0,0,0.5,0.00041148,0.0092543,0.012605
32602,1.6497e+09,0,0,0,0,0,0.92,0.66,0,0,0.5,0.00038546,0.0086156,0.011984
32647,1.6497e+09,0,0,0,0,0,0.93,0.66,0,0,0.5,0.00058585,0.0080483,0.011356
32692,1.6497e+09,0,0,0,0,0,0.94,0.66,0,0,0.5,0.00055253,0.0074703,0.010871
32739,1.6497e+09,0,0,0,0,0,0.96,0.66,0,0,0.5,0.00051513,0.0069449,0.010619
32786,1.6497e+09,0,0,0,0,0,0.97,0.66,0,0,0.5,0.00049253,0.0064491,0.010535
32831,1.6498e+09,0,0,0,0,0,0.98,0.66,0,0,0.5,0.00047038,0.0059798,0.010563
32877,1.6498e+09,0,0,0,0,0,0.98,0.66,0,0,0.5,0.00047038,0.0059798,0.010563
32920,1.6498e+09,0,0,0,0,0,1,0.66,0,0,0.5,0.00042942,0.0084441,0.023564
32962,1.6498e+09,0,0,0,0,0,1.01,0.66,0,0,0.5,0.00041024,0.0080833,0.023438
33005,1.6498e+09,0,0,0,0,0,1.02,0.66,0,0,0.5,0.00038747,0.0077502,0.023372
33048,1.6498e+09,0,0,0,0,0,1.03,0.66,0,0,0.5,0.00036654,0.0074447,0.02338
33090,1.6498e+09,0,0,0,0,0,1.03,0.66,0,0,0.5,0.00036654,0.0074447,0.02338
33134,1.6498e+09,0,0,0,0,0,1.02,0.66,0,0,0.5,0.00038576,0.0050779,0.0048696
33176,1.6498e+09,0,0,0,0,0,1.03,0.66,0,0,0.5,0.00035865,0.0048306,0.0043929
33219,1.6498e+09,0,0,0,0,0,1.04,0.66,0,0,0.5,0.00033254,0.0046199,0.0042956
33263,1.6499e+09,0,0,0,0,0,1.05,0.66,0,0,0.5,0.00030115,0.0044465,0.0045552
33305,1.6499e+09,0,0,0,0,0,1.06,0.66,0,0,0.5,0.00027183,0.0043125,0.0051211
33353,1.6499e+09,0,0,0,0,0,1.07,0.66,0,0,0.5,0.00025034,0.0042109,0.0058157
33395,1.6499e+09,0,0,0,0,0,1.08,0.66,0,0,0.5,0.00022003,0.0041435,0.0065518
33439,1.6499e+09,0,0,0,0,0,1.08,0.66,0,0,0.5,0.00022003,0.0041435,0.0065518
33482,1.6499e+09,0,0,0,0,0,1.1,0.66,0,0,0.5,0.00019689,0.0041033,0.0073154
33525,1.6499e+09,0,0,0,0,0,1.09,0.66,0,0,0.5,0.00042227,0.0025678,0.006723
33567,1.6499e+09,0,0,0,0,0,1.1,0.66,0,0,0.5,0.00040409,0.0026122,0.0056712
33610,1.6499e+09,0,0,0,0,0,1.11,0.66,0,0,0.5,0.00038267,0.0026881,0.0048819
33649,1.65e+09,0,0,0,0,0,1.12,0.66,0,0,0.5,0.0006254,0.020551,0.029776
33693,1.65e+09,0,0,0,0,0,1.13,0.66,0,0,0.5,0.00062276,0.019807,0.028703
33739,1.65e+09,0,0,0,0,0,1.14,0.66,0,0,0.5,0.00062064,0.019171,0.027786
33788,1.65e+09,0,0,0,0,0,1.15,0.66,0,0,0.5,0.00061923,0.018543,0.026935
33833,1.65e+09,0,0,0,0,0,1.16,0.66,0,0,0.5,0.00061744,0.017957,0.02633
33877,1.65e+09,0,0,0,0,0,1.16,0.66,0,0,0.5,0.00061744,0.017957,0.02633
33923,1.65e+09,0,0,0,0,0,1.17,0.66,0,0,0.5,0.00061619,0.01739,0.025785
33967,1.65e+09,0,0,0,0,0,1.17,0.66,0,0,0.5,0.00064848,0.01673,0.026016
34012,1.65e+09,0,0,0,0,0,1.19,0.66,0,0,0.5,0.00063998,0.016222,0.025367
34058,1.65e+09,0,0,0,0,0,1.19,0.66,0,0,0.5,0.0006341,0.015726,0.024704
34102,1.6501e+09,0,0,0,0,0,1.2,0.66,0,0,0.5,0.00060266,0.015256,0.02405
34147,1.6501e+09,0,0,0,0,0,1.21,0.66,0,0,0.5,0.00057109,0.014808,0.023389
34191,1.6501e+09,0,0,0,0,0,1.23,0.66,0,0,0.5,0.0005311,0.01438,0.022782
34240,1.6501e+09,0,0,0,0,0,1.23,0.66,0,0,0.5,0.00050008,0.013958,0.022288
34286,1.6501e+09,0,0,0,0,0,1.23,0.66,0,0,0.5,0.00050008,0.013958,0.022288
34331,1.6501e+09,0,0,0,0,0,1.25,0.66,0,0,0.5,0.00046037,0.013565,0.021883
34376,1.6501e+09,0,0,0,0,0,1.26,0.66,0,0,0.5,0.00043034,0.013174,0.021584
34420,1.6501e+09,0,0,0,0,0,1.25,0.66,0,0,0.5,0.00038319,0.012492,0.025514
34461,1.6501e+09,0,0,0,0,0,1.27,0.66,0,0,0.5,0.00036828,0.015103,0.020341
34506,1.6502e+09,0,0,0,0,0,1.28,0.66,0,0,0.5,0.00036225,0.0145,0.019374
34550,1.6502e+09,0,0,0,0,0,1.29,0.66,0,0,0.5,0.00035903,0.013965,0.018545
34595,1.6502e+09,0,0,0,0,0,1.3,0.66,0,0,0.5,0.00035972,0.013453,0.01786
34639,1.6502e+09,0,0,0,0,0,1.31,0.66,0,0,0.5,0.00036375,0.012966,0.017351
34689,1.6502e+09,0,0,0,0,0,1.32,0.66,0,0,0.5,0.0003704,0.012507,0.017016
34733,1.6502e+09,0,0,0,0,0,1.32,0.66,0,0,0.5,0.0003704,0.012507,0.017016
34778,1.6502e+09,0,0,0,0,0,1.33,0.66,0,0,0.5,0.00037719,0.012066,0.016575
34822,1.6502e+09,0,0,0,0,0,1.34,0.66,0,0,0.5,0.00038666,0.011646,0.016286
34870,1.6502e+09,0,0,0,0,0,1.33,0.66,0,0,0.5,0.00039469,0.010169,0.025248
34914,1.6502e+09,0,0,0,0,0,1.34,0.66,0,0,0.5,0.00037908,0.0097838,0.023092
34958,1.6503e+09,0,0,0,0,0,1.35,0.66,0,0,0.5,0.00036313,0.0094168,0.021126
35003,1.6503e+09,0,0,0,0,0,1.36,0.66,0,0,0.5,0.00034227,0.0090753,0.019345
35048,1.6503e+09,0,0,0,0,0,1.37,0.66,0,0,0.5,0.00032112,0.0087519,0.017652
35093,1.6503e+09,0,0,0,0,0,1.38,0.66,0,0,0.5,0.00030329,0.0084431,0.01615
35141,1.6503e+09,0,0,0,0,0,1.38,0.66,0,0,0.5,0.00030329,0.0084431,0.01615
35186,1.6503e+09,0,0,0,0,0,1.39,0.66,0,0,0.5,0.00027959,0.0081619,0.014792
35231,1.6503e+09,0,0,0,0,0,1.4,0.66,0,0,0.5,0.00026062,0.0078922,0.013472
35276,1.6503e+09,0,0,0,0,0,1.39,0.66,0,0,0.5,0.00023381,0.007185,0.029585
35321,1.6503e+09,0,0,0,0,0,1.4,0.66,0,0,0.5,0.00021061,0.0068986,0.027183
35366,1.6504e+09,0,0,0,0,0,1.41,0.66,0,0,0.5,5.3278e-05,0.0054104,0.023188
35409,1.6504e+09,0,0,0,0,0,1.43,0.66,0,0,0.5,4.2447e-05,0.0053363,0.02107
35451,1.6504e+09,0,0,0,0,0,1.44,0.66,0,0,0.5,4.2442e-05,0.0052721,0.019088
35495,1.6504e+09,0,0,0,0,0,1.45,0.66,0,0,0.5,4.9112e-05,0.0052193,0.01727
35538,1.6504e+09,0,0,0,0,0,1.46,0.66,0,0,0.5,6.1827e-05,0.0051759,0.01561
35584,1.6504e+09,0,0,0,0,0,1.46,0.66,0,0,0.5,6.1827e-05,0.0051759,0.01561
35629,1.6504e+09,0,0,0,0,0,1.47,0.66,0,0,0.5,7.2994e-05,0.0051405,0.014141
35672,1.6504e+09,0,0,0,0,0,1.48,0.66,0,0,0.5,8.7315e-05,0.0051131,0.012911
35715,1.6504e+09,0,0,0,0,0,1.49,0.66,0,0,0.5,0.00010079,0.0050915,0.011824
35758,1.6505e+09,0,0,0,0,0,1.46,0.66,0,0,0.5,0.00011534,0.0049722,0.045769
35800,1.6505e+09,0,0,0,0,0,1.48,0.66,0,0,0.5,0.00011599,0.0047612,0.042593
35843,1.6505e+09,0,0,0,0,0,1.49,0.66,0,0,0.5,0.00011553,0.004574,0.039555
35885,1.6505e+09,0,0,0,0,0,1.5,0.66,0,0,0.5,0.00011384,0.0044124,0.036725
35929,1.6505e+09,0,0,0,0,0,1.51,0.66,0,0,0.5,0.00011181,0.0042708,0.033894
35972,1.6505e+09,0,0,0,0,0,1.51,0.66,0,0,0.5,0.00011181,0.0042708,0.033894
36018,1.6505e+09,0,0,0,0,0,1.52,0.66,0,0,0.5,0.00010795,0.0041531,0.031187
36060,1.6505e+09,0,0,0,0,0,1.53,0.66,0,0,0.5,0.0001043,0.0040571,0.028617
36103,1.6505e+09,0,0,0,0,0,1.54,0.66,0,0,0.5,9.8509e-05,0.0039835,0.026183
36147,1.6505e+09,0,0,0,0,0,1.51,0.66,0,0,0.5,9.7347e-05,0.0061956,0.062689
36191,1.6506e+09,0,0,0,0,0,1.52,0.66,0,0,0.5,0.00014438,0.0058183,0.058502
36233,1.6506e+09,0,0,0,0,0,1.53,0.66,0,0,0.5,0.00049124,0.017625,0.062687
36278,1.6506e+09,0,0,0,0,0,1.54,0.66,0,0,0.5,0.00049729,0.016561,0.058449
36322,1.6506e+09,0,0,0,0,0,1.55,0.66,0,0,0.5,0.00050221,0.015608,0.054421
36368,1.6506e+09,0,0,0,0,0,1.56,0.66,0,0,0.5,0.00050855,0.014705,0.050594
36418,1.6506e+09,0,0,0,0,0,1.56,0.66,0,0,0.5,0.00050855,0.014705,0.050594
36462,1.6506e+09,0,0,0,0,0,1.57,0.66,0,0,0.5,0.00051486,0.013845,0.046859
36508,1.6506e+09,0,0,0,0,0,1.59,0.66,0,0,0.5,0.00052088,0.013033,0.043275
36552,1.6506e+09,0,0,0,0,0,1.6,0.66,0,0,0.5,0.00052664,0.012247,0.039866
36600,1.6507e+09,0,0,0,0,0,1.58,0.66,0,0,0.5,0.00052749,0.012626,0.062803
36645,1.6507e+09,0,0,0,0,0,1.59,0.66,0,0,0.5,0.00053124,0.011826,0.058486
36689,1.6507e+09,0,0,0,0,0,1.6,0.66,0,0,0.5,0.0005068,0.011056,0.054274
36734,1.6507e+09,0,0,0,0,0,1.6,0.66,0,0,0.5,0.0005068,0.011056,0.054274
36780,1.6507e+09,0,0,0,0,0,1.62,0.66,0,0,0.5,0.00048189,0.010318,0.050265
36824,1.6507e+09,0,0,0,0,0,1.63,0.66,0,0,0.5,0.00045069,0.0096225,0.046447
36873,1.6507e+09,0,0,0,0,0,1.64,0.66,0,0,0.5,0.00041879,0.0089665,0.042764
36921,1.6507e+09,0,0,0,0,0,1.65,0.66,0,0,0.5,0.00038708,0.0083284,0.039241
36966,1.6507e+09,0,0,0,0,0,1.66,0.66,0,0,0.5,0.00035468,0.0077274,0.03589
37009,1.6508e+09,0,0,0,0,0,1.65,0.66,0,0,0.5,0.00017772,0.0090384,0.061075
37054,1.6508e+09,0,0,0,0,0,1.66,0.66,0,0,0.5,0.00019779,0.00855,0.056741
37098,1.6508e+09,0,0,0,0,0,1.67,0.66,0,0,0.5,0.00022752,0.0081379,0.052618
37143,1.6508e+09,0,0,0,0,0,1.68,0.66,0,0,0.5,0.00025667,0.0077625,0.048708
37189,1.6508e+09,0,0,0,0,0,1.69,0.66,0,0,0.5,0.00027899,0.0074124,0.04492
37235,1.6508e+09,0,0,0,0,0,1.69,0.66,0,0,0.5,0.00027899,0.0074124,0.04492
37279,1.6508e+09,0,0,0,0,0,1.7,0.66,0,0,0.5,0.00030592,0.0070988,0.041444
37327,1.6508e+09,0,0,0,0,0,1.71,0.66,0,0,0.5,0.00033164,0.0068136,0.038198
37371,1.6508e+09,0,0,0,0,0,1.72,0.66,0,0,0.5,0.0003554,0.0065539,0.035015
