LineNo,TimeUS,C,Q1,Q2,Q3,Q4
316,1.6419e+09,1,-0.9819,0.022469,-0.0052405,-0.18801
544,1.6419e+09,1,-0.98188,0.022494,-0.0052297,-0.1881
998,1.642e+09,1,-0.98184,0.022525,-0.0056312,-0.18827
1112,1.6421e+09,1,-0.98181,0.022569,-0.0059114,-0.18845
1219,1.6422e+09,1,-0.98174,0.02287,-0.0069923,-0.18869
1330,1.6422e+09,1,-0.98166,0.023351,-0.0088257,-0.18897
1509,1.6423e+09,1,-0.98164,0.023512,-0.0091828,-0.18909
1691,1.6423e+09,1,-0.98162,0.023594,-0.0095676,-0.18913
1735,1.6423e+09,1,-0.98161,0.023614,-0.0097096,-0.18917
1780,1.6423e+09,1,-0.9816,0.023644,-0.0098571,-0.18922
1824,1.6423e+09,1,-0.9816,0.023656,-0.0099913,-0.18921
1869,1.6423e+09,1,-0.98159,0.023662,-0.01007,-0.18924
1916,1.6424e+09,1,-0.98159,0.023666,-0.010176,-0.18925
1959,1.6424e+09,1,-0.98157,0.023669,-0.01038,-0.18934
2001,1.6424e+09,1,-0.98156,0.023694,-0.010492,-0.18939
2049,1.6424e+09,1,-0.98156,0.023727,-0.010571,-0.18939
2092,1.6424e+09,1,-0.98155,0.023777,-0.010686,-0.18942
2134,1.6424e+09,1,-0.98153,0.02384,-0.01081,-0.18949
2180,1.6424e+09,1,-0.98152,0.023877,-0.010949,-0.18953
2224,1.6424e+09,1,-0.98152,0.023917,-0.011038,-0.18956
2266,1.6425e+09,1,-0.98151,0.023952,-0.011141,-0.18958
2310,1.6425e+09,1,-0.9815,0.02395,-0.011229,-0.18961
2352,1.6425e+09,1,-0.98149,0.023952,-0.011321,-0.18966
2395,1.6425e+09,1,-0.98149,0.023971,-0.011427,-0.18967
2438,1.6425e+09,1,-0.9815,0.023992,-0.011513,-0.18962
2484,1.6425e+09,1,-0.98149,0.024006,-0.011622,-0.18964
2528,1.6425e+09,1,-0.98148,0.024005,-0.011694,-0.18968
2570,1.6425e+09,1,-0.98147,0.024024,-0.011799,-0.18971
2613,1.6425e+09,1,-0.98147,0.024032,-0.011877,-0.18974
2658,1.6425e+09,1,-0.98146,0.024027,-0.011975,-0.18979
2706,1.6426e+09,1,-0.98145,0.024042,-0.012093,-0.18984
2751,1.6426e+09,1,-0.98144,0.024071,-0.012169,-0.18986
2796,1.6426e+09,1,-0.98143,0.024098,-0.012259,-0.1899
2841,1.6426e+09,1,-0.98143,0.024113,-0.012299,-0.18991
2890,1.6426e+09,1,-0.98142,0.024106,-0.012344,-0.18995
2934,1.6426e+09,1,-0.98142,0.024142,-0.012411,-0.18997
2981,1.6426e+09,1,-0.98142,0.024168,-0.012482,-0.18995
3025,1.6426e+09,1,-0.98142,0.02417,-0.012551,-0.18995
3070,1.6426e+09,1,-0.98141,0.024195,-0.012619,-0.18997
3114,1.6427e+09,1,-0.9814,0.024233,-0.012678,-0.18999
3159,1.6427e+09,1,-0.9814,0.024239,-0.012745,-0.19
3204,1.6427e+09,1,-0.9814,0.024252,-0.012818,-0.19003
3248,1.6427e+09,1,-0.98139,0.024264,-0.012893,-0.19006
3295,1.6427e+09,1,-0.98139,0.024267,-0.012968,-0.19006
3345,1.6427e+09,1,-0.98138,0.024271,-0.013019,-0.1901
3391,1.6427e+09,1,-0.98138,0.024282,-0.013092,-0.19011
3435,1.6427e+09,1,-0.98137,0.02431,-0.013112,-0.19011
3480,1.6427e+09,1,-0.98137,0.02434,-0.013136,-0.19012
3525,1.6427e+09,1,-0.98136,0.024378,-0.013174,-0.19015
3572,1.6428e+09,1,-0.98136,0.024367,-0.013211,-0.19017
3614,1.6428e+09,1,-0.98135,0.024398,-0.01326,-0.19019
3658,1.6428e+09,1,-0.98135,0.024411,-0.013307,-0.19022
3704,1.6428e+09,1,-0.98134,0.024443,-0.013332,-0.19024
3749,1.6428e+09,1,-0.98134,0.024496,-0.01337,-0.19022
3797,1.6428e+09,1,-0.98135,0.024497,-0.013437,-0.19021
3842,1.6428e+09,1,-0.98134,0.024524,-0.013537,-0.1902
3886,1.6428e+09,1,-0.98134,0.024531,-0.013602,-0.19023
3931,1.6428e+09,1,-0.98133,0.024556,-0.013655,-0.19028
3976,1.6429e+09,1,-0.98133,0.02458,-0.013713,-0.19027
4020,1.6429e+09,1,-0.98132,0.024582,-0.013765,-0.19032
4065,1.6429e+09,1,-0.98131,0.024613,-0.013825,-0.19035
4109,1.6429e+09,1,-0.98131,0.024635,-0.013889,-0.19036
4154,1.6429e+09,1,-0.9813,0.024661,-0.013951,-0.19039
4199,1.6429e+09,1,-0.98129,0.02465,-0.013986,-0.19044
4248,1.6429e+09,1,-0.98129,0.02466,-0.014034,-0.19045
4293,1.6429e+09,1,-0.98128,0.024671,-0.01409,-0.19046
4337,1.6429e+09,1,-0.98128,0.024683,-0.014123,-0.19047
4380,1.6429e+09,1,-0.98127,0.024682,-0.014209,-0.19053
4422,1.643e+09,1,-0.98126,0.024701,-0.014244,-0.19055
4465,1.643e+09,1,-0.98126,0.024745,-0.014287,-0.19054
4509,1.643e+09,1,-0.98126,0.024737,-0.014316,-0.19055
4551,1.643e+09,1,-0.98126,0.024734,-0.014361,-0.19057
4594,1.643e+09,1,-0.98126,0.024732,-0.014381,-0.19056
4636,1.643e+09,1,-0.98126,0.024729,-0.014441,-0.19057
4685,1.643e+09,1,-0.98125,0.024726,-0.014463,-0.19059
4728,1.643e+09,1,-0.98125,0.024728,-0.014492,-0.19062
4771,1.643e+09,1,-0.98125,0.024737,-0.014519,-0.19061
4814,1.6431e+09,1,-0.98124,0.02474,-0.014569,-0.19065
4856,1.6431e+09,1,-0.98124,0.024762,-0.014596,-0.19063
4899,1.6431e+09,1,-0.98124,0.024794,-0.014629,-0.19064
4942,1.6431e+09,1,-0.98124,0.02478,-0.014654,-0.19065
4985,1.6431e+09,1,-0.98123,0.02479,-0.014722,-0.19065
5028,1.6431e+09,1,-0.98124,0.024789,-0.014715,-0.19063
5071,1.6431e+09,1,-0.98123,0.02478,-0.014755,-0.19067
5118,1.6431e+09,1,-0.98122,0.024781,-0.014791,-0.1907
5161,1.6431e+09,1,-0.98122,0.024789,-0.014834,-0.19072
5204,1.6431e+09,1,-0.98121,0.024791,-0.014893,-0.19074
5244,1.6432e+09,1,-0.98121,0.024808,-0.014917,-0.19076
5288,1.6432e+09,1,-0.98121,0.024828,-0.014957,-0.19077
5333,1.6432e+09,1,-0.98121,0.024842,-0.015006,-0.19077
5377,1.6432e+09,1,-0.9812,0.024852,-0.015054,-0.19078
5422,1.6432e+09,1,-0.9812,0.02485,-0.0151,-0.19079
5466,1.6432e+09,1,-0.9812,0.024817,-0.015131,-0.19082
5511,1.6432e+09,1,-0.98119,0.024841,-0.015185,-0.19084
5560,1.6432e+09,1,-0.98118,0.024838,-0.015206,-0.19087
5605,1.6432e+09,1,-0.98118,0.024857,-0.015225,-0.19089
5649,1.6432e+09,1,-0.98118,0.024881,-0.015241,-0.1909
5694,1.6433e+09,1,-0.98117,0.024887,-0.015275,-0.19093
5739,1.6433e+09,1,-0.98117,0.024917,-0.015324,-0.19094
5783,1.6433e+09,1,-0.98116,0.024905,-0.015374,-0.19095
5831,1.6433e+09,1,-0.98117,0.024887,-0.015409,-0.19091
5876,1.6433e+09,1,-0.98116,0.024872,-0.015462,-0.19096
5921,1.6433e+09,1,-0.98115,0.024865,-0.015493,-0.19099
5965,1.6433e+09,1,-0.98115,0.024861,-0.01557,-0.19101
6015,1.6433e+09,1,-0.98114,0.024828,-0.01561,-0.19106
6059,1.6433e+09,1,-0.98113,0.024838,-0.015637,-0.19109
6102,1.6434e+09,1,-0.98112,0.024802,-0.015707,-0.19117
6146,1.6434e+09,1,-0.98111,0.024857,-0.015772,-0.19121
6191,1.6434e+09,1,-0.9811,0.024929,-0.015832,-0.19122
6238,1.6434e+09,1,-0.98112,0.024932,-0.015905,-0.19113
6283,1.6434e+09,1,-0.98114,0.024847,-0.015982,-0.19104
6327,1.6434e+09,1,-0.98115,0.024923,-0.016044,-0.19094
6372,1.6434e+09,1,-0.98117,0.02498,-0.016053,-0.19088
6419,1.6434e+09,1,-0.98118,0.025017,-0.016143,-0.19077
6466,1.6434e+09,1,-0.98118,0.025059,-0.016119,-0.19076
6510,1.6434e+09,1,-0.98119,0.025187,-0.016128,-0.19074
6554,1.6435e+09,1,-0.98118,0.025191,-0.016215,-0.19077
6602,1.6435e+09,1,-0.98115,0.025191,-0.016281,-0.19088
6646,1.6435e+09,1,-0.98114,0.025136,-0.016314,-0.19098
6691,1.6435e+09,1,-0.98111,0.025179,-0.016349,-0.1911
6736,1.6435e+09,1,-0.98109,0.025203,-0.016441,-0.19122
6781,1.6435e+09,1,-0.98107,0.025216,-0.016477,-0.19127
6826,1.6435e+09,1,-0.98106,0.025275,-0.016488,-0.19132
6874,1.6435e+09,1,-0.98107,0.025267,-0.016551,-0.19128
6921,1.6435e+09,1,-0.98108,0.025171,-0.016513,-0.19125
6964,1.6436e+09,1,-0.98111,0.025162,-0.016575,-0.19111
7006,1.6436e+09,1,-0.98112,0.025075,-0.016647,-0.19103
7054,1.6436e+09,1,-0.98112,0.025082,-0.016671,-0.19102
7097,1.6436e+09,1,-0.98114,0.025248,-0.016803,-0.19091
7139,1.6436e+09,1,-0.98115,0.025243,-0.016826,-0.19085
7183,1.6436e+09,1,-0.98116,0.025155,-0.016864,-0.19081
7226,1.6436e+09,1,-0.98115,0.025228,-0.017043,-0.19085
7272,1.6436e+09,1,-0.98112,0.025317,-0.017053,-0.19097
7315,1.6436e+09,1,-0.9811,0.025281,-0.017085,-0.19107
7358,1.6437e+09,1,-0.98108,0.025384,-0.017189,-0.19115
7403,1.6437e+09,1,-0.98107,0.025319,-0.017162,-0.19121
7445,1.6437e+09,1,-0.98106,0.025226,-0.017359,-0.19128
7485,1.6437e+09,1,-0.98105,0.025368,-0.017356,-0.1913
7527,1.6437e+09,1,-0.98102,0.025429,-0.017443,-0.19142
7571,1.6437e+09,1,-0.98104,0.025492,-0.017441,-0.19133
7614,1.6437e+09,1,-0.98105,0.025227,-0.017574,-0.19131
7657,1.6437e+09,1,-0.98108,0.025296,-0.017652,-0.19114
7709,1.6437e+09,1,-0.98106,0.025398,-0.017743,-0.1912
7755,1.6437e+09,1,-0.9811,0.025432,-0.01766,-0.19101
7797,1.6438e+09,1,-0.98109,0.025299,-0.017927,-0.19106
7843,1.6438e+09,1,-0.98113,0.025303,-0.01784,-0.19085
7890,1.6438e+09,1,-0.98108,0.025555,-0.017905,-0.19108
7935,1.6438e+09,1,-0.98108,0.025666,-0.01772,-0.19106
7979,1.6438e+09,1,-0.98107,0.025495,-0.018038,-0.19114
8024,1.6438e+09,1,-0.9811,0.025467,-0.01789,-0.191
8068,1.6438e+09,1,-0.98104,0.025721,-0.018111,-0.19122
8113,1.6438e+09,1,-0.98105,0.025746,-0.017796,-0.19121
8163,1.6438e+09,1,-0.98103,0.025589,-0.018354,-0.19128
8207,1.6439e+09,1,-0.98108,0.025409,-0.018091,-0.19106
8253,1.6439e+09,1,-0.98104,0.025661,-0.018422,-0.19122
8297,1.6439e+09,1,-0.98106,0.025315,-0.018189,-0.19117
8343,1.6439e+09,1,-0.98104,0.025418,-0.018536,-0.19122
8387,1.6439e+09,1,-0.9811,0.025113,-0.01844,-0.19098
8432,1.6439e+09,1,-0.98107,0.025501,-0.018577,-0.19109
8477,1.6439e+09,1,-0.9811,0.025133,-0.01848,-0.19097
8522,1.6439e+09,1,-0.98109,0.02539,-0.018575,-0.19098
8567,1.6439e+09,1,-0.98111,0.025267,-0.018741,-0.19089
8615,1.6439e+09,1,-0.98108,0.02567,-0.018552,-0.19099
8659,1.644e+09,1,-0.98108,0.025444,-0.018834,-0.19101
8700,1.644e+09,1,-0.98108,0.025605,-0.018666,-0.191
8745,1.644e+09,1,-0.98105,0.025691,-0.018946,-0.19113
8791,1.644e+09,1,-0.98106,0.025657,-0.018622,-0.19109
8832,1.644e+09,1,-0.98104,0.025643,-0.019062,-0.19115
8878,1.644e+09,1,-0.98106,0.025675,-0.018889,-0.19105
8922,1.644e+09,1,-0.98103,0.025904,-0.018957,-0.19117
8966,1.644e+09,1,-0.98107,0.025661,-0.018949,-0.19103
9012,1.644e+09,1,-0.98106,0.025761,-0.018997,-0.19104
9060,1.644e+09,1,-0.98109,0.02567,-0.019174,-0.19086
9106,1.6441e+09,1,-0.98107,0.025929,-0.018869,-0.19099
9150,1.6441e+09,1,-0.98109,0.025719,-0.0192,-0.19087
9195,1.6441e+09,1,-0.98107,0.025961,-0.019086,-0.19093
9239,1.6441e+09,1,-0.9811,0.02583,-0.019199,-0.19082
9284,1.6441e+09,1,-0.98107,0.026136,-0.019196,-0.19092
9329,1.6441e+09,1,-0.98108,0.026001,-0.019306,-0.19087
9373,1.6441e+09,1,-0.98108,0.026098,-0.019388,-0.19087
9418,1.6441e+09,1,-0.98106,0.026254,-0.019271,-0.19096
9463,1.6441e+09,1,-0.98106,0.026198,-0.019307,-0.19097
9512,1.6441e+09,1,-0.98102,0.026466,-0.0193,-0.19111
9556,1.6442e+09,1,-0.98103,0.026467,-0.019342,-0.19106
9599,1.6442e+09,1,-0.98103,0.026347,-0.019314,-0.19107
9642,1.6442e+09,1,-0.98102,0.026433,-0.019276,-0.19112
9684,1.6442e+09,1,-0.98106,0.026256,-0.019454,-0.19093
9729,1.6442e+09,1,-0.98105,0.026484,-0.019167,-0.19097
9771,1.6442e+09,1,-0.98107,0.026116,-0.019493,-0.19088
9814,1.6442e+09,1,-0.98108,0.026228,-0.019225,-0.19085
9857,1.6442e+09,1,-0.9811,0.026037,-0.019526,-0.19074
9902,1.6442e+09,1,-0.9811,0.026081,-0.019175,-0.19075
9946,1.6443e+09,1,-0.98109,0.025958,-0.019569,-0.19078
9989,1.6443e+09,1,-0.98111,0.025904,-0.019487,-0.19074
10034,1.6443e+09,1,-0.98109,0.026037,-0.019461,-0.19081
10076,1.6443e+09,1,-0.98108,0.025937,-0.019478,-0.19085
10119,1.6443e+09,1,-0.98107,0.026157,-0.019339,-0.19088
10162,1.6443e+09,1,-0.98106,0.026228,-0.019658,-0.1909
10206,1.6443e+09,1,-0.98105,0.026492,-0.019248,-0.19095
10249,1.6443e+09,1,-0.98103,0.026377,-0.019859,-0.19102
10293,1.6443e+09,1,-0.98104,0.026558,-0.019494,-0.19096
10339,1.6444e+09,1,-0.98103,0.02665,-0.019319,-0.19102
10383,1.6444e+09,1,-0.98105,0.026353,-0.019597,-0.19096
10428,1.6444e+09,1,-0.98106,0.026661,-0.019375,-0.19091
10474,1.6444e+09,1,-0.98106,0.026429,-0.019743,-0.19085
10518,1.6444e+09,1,-0.98106,0.02663,-0.019427,-0.19089
10563,1.6444e+09,1,-0.98106,0.026222,-0.01994,-0.19088
10607,1.6444e+09,1,-0.98108,0.026246,-0.019784,-0.19079
10652,1.6444e+09,1,-0.98107,0.026311,-0.019914,-0.19083
10697,1.6444e+09,1,-0.98107,0.02618,-0.019753,-0.19085
10742,1.6444e+09,1,-0.98106,0.026264,-0.019776,-0.19089
10791,1.6445e+09,1,-0.98107,0.026303,-0.019801,-0.19085
10836,1.6445e+09,1,-0.98105,0.02668,-0.019602,-0.19093
10881,1.6445e+09,1,-0.98104,0.026407,-0.019887,-0.19096
10925,1.6445e+09,1,-0.98105,0.026701,-0.019558,-0.19093
10970,1.6445e+09,1,-0.98103,0.026577,-0.019886,-0.191
11015,1.6445e+09,1,-0.98103,0.026859,-0.01949,-0.19101
11059,1.6445e+09,1,-0.98101,0.026547,-0.020052,-0.19107
11105,1.6445e+09,1,-0.98103,0.026842,-0.01971,-0.19099
11150,1.6445e+09,1,-0.98102,0.026631,-0.020052,-0.19102
11197,1.6446e+09,1,-0.98103,0.026577,-0.020111,-0.19099
11242,1.6446e+09,1,-0.98103,0.026967,-0.019949,-0.19094
11287,1.6446e+09,1,-0.98103,0.026804,-0.020448,-0.19091
11333,1.6446e+09,1,-0.98102,0.027047,-0.019988,-0.19096
11377,1.6446e+09,1,-0.98102,0.026736,-0.020496,-0.19097
11425,1.6446e+09,1,-0.98102,0.026843,-0.020251,-0.19097
11471,1.6446e+09,1,-0.98101,0.027161,-0.01982,-0.19101
11516,1.6446e+09,1,-0.98099,0.027023,-0.020336,-0.19107
11561,1.6446e+09,1,-0.98101,0.027248,-0.019885,-0.19098
11606,1.6446e+09,1,-0.98099,0.027247,-0.020424,-0.19103
11651,1.6447e+09,1,-0.981,0.027439,-0.020032,-0.19103
11700,1.6447e+09,1,-0.98098,0.027071,-0.020684,-0.19112
11745,1.6447e+09,1,-0.98098,0.027174,-0.02055,-0.1911
11790,1.6447e+09,1,-0.98098,0.027083,-0.020559,-0.19111
11834,1.6447e+09,1,-0.98097,0.026935,-0.020622,-0.19115
11876,1.6447e+09,1,-0.98099,0.026765,-0.020642,-0.1911
11921,1.6447e+09,1,-0.98099,0.026831,-0.020842,-0.19108
11967,1.6447e+09,1,-0.98099,0.027008,-0.020341,-0.19108
12011,1.6447e+09,1,-0.98097,0.026677,-0.021099,-0.19116
12057,1.6448e+09,1,-0.981,0.026984,-0.020365,-0.19106
12098,1.6448e+09,1,-0.98096,0.026925,-0.021152,-0.19115
12145,1.6448e+09,1,-0.98097,0.027219,-0.02049,-0.19116
12187,1.6448e+09,1,-0.98094,0.027226,-0.021114,-0.19123
12231,1.6448e+09,1,-0.98094,0.027475,-0.021029,-0.19121
12274,1.6448e+09,1,-0.98094,0.027556,-0.02093,-0.19121
12316,1.6448e+09,1,-0.98093,0.027482,-0.021232,-0.19126
12359,1.6448e+09,1,-0.98093,0.027654,-0.020784,-0.19126
12405,1.6448e+09,1,-0.98091,0.027603,-0.021495,-0.1913
12447,1.6448e+09,1,-0.98091,0.027727,-0.020867,-0.19133
12492,1.6449e+09,1,-0.98089,0.027495,-0.02161,-0.1914
12534,1.6449e+09,1,-0.9809,0.027614,-0.02139,-0.19136
12581,1.6449e+09,1,-0.9809,0.027587,-0.021205,-0.19136
12623,1.6449e+09,1,-0.98088,0.027505,-0.021618,-0.19142
12665,1.6449e+09,1,-0.98091,0.027506,-0.021321,-0.19133
12709,1.6449e+09,1,-0.98089,0.027496,-0.021808,-0.19137
12754,1.6449e+09,1,-0.98089,0.027758,-0.021212,-0.19138
12797,1.6449e+09,1,-0.98086,0.027673,-0.021942,-0.19147
12845,1.6449e+09,1,-0.98083,0.027978,-0.022175,-0.19156
12887,1.645e+09,1,-0.98086,0.028081,-0.021439,-0.19148
12931,1.645e+09,1,-0.98086,0.02785,-0.022065,-0.19146
12980,1.645e+09,1,-0.98085,0.028103,-0.021823,-0.1915
13025,1.645e+09,1,-0.98085,0.028012,-0.021956,-0.19147
13070,1.645e+09,1,-0.98084,0.027975,-0.022147,-0.19154
13115,1.645e+09,1,-0.98087,0.02783,-0.02194,-0.19141
13159,1.645e+09,1,-0.98084,0.027802,-0.022396,-0.19149
13203,1.645e+09,1,-0.98088,0.027791,-0.021933,-0.19139
13247,1.645e+09,1,-0.98086,0.02757,-0.022551,-0.19144
13292,1.645e+09,1,-0.98088,0.027774,-0.022115,-0.19136
13337,1.6451e+09,1,-0.98086,0.027648,-0.022783,-0.19141
13381,1.6451e+09,1,-0.98087,0.028044,-0.022351,-0.19134
13430,1.6451e+09,1,-0.98085,0.027958,-0.022955,-0.19139
13474,1.6451e+09,1,-0.98085,0.02816,-0.02274,-0.19137
13519,1.6451e+09,1,-0.98083,0.02822,-0.022992,-0.19145
13576,1.6452e+09,1,-0.98081,0.028019,-0.023284,-0.19155
13621,1.6452e+09,1,-0.98083,0.028096,-0.022676,-0.19151
13669,1.6452e+09,1,-0.98081,0.027942,-0.023311,-0.19153
13717,1.6452e+09,1,-0.98084,0.02785,-0.02305,-0.19142
13762,1.6452e+09,1,-0.98081,0.027984,-0.023302,-0.19154
13809,1.6452e+09,1,-0.98083,0.027893,-0.023292,-0.19144
13854,1.6452e+09,1,-0.98085,0.02776,-0.022968,-0.19139
13900,1.6452e+09,1,-0.98081,0.027821,-0.023602,-0.19154
13945,1.6453e+09,1,-0.98084,0.027969,-0.022949,-0.19145
13992,1.6453e+09,1,-0.98078,0.028031,-0.023516,-0.19163
14036,1.6453e+09,1,-0.9808,0.028147,-0.023244,-0.19155
14085,1.6453e+09,1,-0.98076,0.028402,-0.023454,-0.19169
14130,1.6453e+09,1,-0.98077,0.028515,-0.02353,-0.19164
14175,1.6453e+09,1,-0.98079,0.028393,-0.023376,-0.19159
14220,1.6453e+09,1,-0.98077,0.028489,-0.023846,-0.19159
14264,1.6453e+09,1,-0.9808,0.028366,-0.023297,-0.19153
14309,1.6453e+09,1,-0.98078,0.028319,-0.023874,-0.19158
14353,1.6453e+09,1,-0.98083,0.027932,-0.023443,-0.19141
14400,1.6454e+09,1,-0.98077,0.028118,-0.023992,-0.19162
14440,1.6454e+09,1,-0.98082,0.027944,-0.023592,-0.19143
14482,1.6454e+09,1,-0.9808,0.027925,-0.023789,-0.19156
14531,1.6454e+09,1,-0.98081,0.027955,-0.023966,-0.19148
14574,1.6454e+09,1,-0.98078,0.028046,-0.023694,-0.19165
14618,1.6454e+09,1,-0.98078,0.028097,-0.024044,-0.1916
14660,1.6454e+09,1,-0.98079,0.028021,-0.02378,-0.19158
14701,1.6454e+09,1,-0.98074,0.028348,-0.024288,-0.19171
14743,1.6454e+09,1,-0.98079,0.028296,-0.023625,-0.19156
14785,1.6455e+09,1,-0.98073,0.028474,-0.024154,-0.19175
14828,1.6455e+09,1,-0.98078,0.028359,-0.023726,-0.1916
14870,1.6455e+09,1,-0.98073,0.028558,-0.024092,-0.19174
14913,1.6455e+09,1,-0.98079,0.028426,-0.023731,-0.19153
14961,1.6455e+09,1,-0.98076,0.028307,-0.023967,-0.19168
15004,1.6455e+09,1,-0.98079,0.028216,-0.024039,-0.1915
15047,1.6455e+09,1,-0.98079,0.02813,-0.023818,-0.19156
15089,1.6455e+09,1,-0.98081,0.028073,-0.024196,-0.19143
15132,1.6455e+09,1,-0.98081,0.027809,-0.024064,-0.19147
15174,1.6455e+09,1,-0.9808,0.027938,-0.0245,-0.19143
15217,1.6456e+09,1,-0.98083,0.027884,-0.024066,-0.19135
15261,1.6456e+09,1,-0.9808,0.027962,-0.02448,-0.19146
15306,1.6456e+09,1,-0.98083,0.027934,-0.024484,-0.19131
15351,1.6456e+09,1,-0.98078,0.028244,-0.024475,-0.1915
15399,1.6456e+09,1,-0.98082,0.028421,-0.024504,-0.19128
15445,1.6456e+09,1,-0.9808,0.028401,-0.024443,-0.19137
15489,1.6456e+09,1,-0.98081,0.028596,-0.024672,-0.19129
15535,1.6456e+09,1,-0.98081,0.028638,-0.024336,-0.19133
15582,1.6456e+09,1,-0.98079,0.028749,-0.024755,-0.19136
15627,1.6457e+09,1,-0.98085,0.028494,-0.024586,-0.19112
15672,1.6457e+09,1,-0.98081,0.028648,-0.024732,-0.19127
15716,1.6457e+09,1,-0.98088,0.028298,-0.024692,-0.19096
15761,1.6457e+09,1,-0.98084,0.028171,-0.024896,-0.19113
15811,1.6457e+09,1,-0.98088,0.02813,-0.024915,-0.19096
15855,1.6457e+09,1,-0.98086,0.028026,-0.024783,-0.19107
15900,1.6457e+09,1,-0.98087,0.028033,-0.025015,-0.191
15945,1.6457e+09,1,-0.98087,0.027933,-0.024866,-0.19102
15991,1.6457e+09,1,-0.98083,0.028274,-0.025095,-0.19116
16037,1.6457e+09,1,-0.98087,0.028133,-0.024641,-0.19102
16076,1.6458e+09,1,-0.98083,0.028397,-0.024841,-0.19117
16123,1.6458e+09,1,-0.98088,0.028307,-0.024702,-0.19096
16168,1.6458e+09,1,-0.98085,0.028516,-0.02461,-0.19109
16213,1.6458e+09,1,-0.98088,0.028557,-0.024817,-0.19092
16263,1.6458e+09,1,-0.98088,0.028468,-0.024715,-0.19091
16308,1.6458e+09,1,-0.98087,0.028773,-0.025073,-0.1909
16352,1.6458e+09,1,-0.9809,0.028549,-0.024695,-0.19083
16399,1.6458e+09,1,-0.98087,0.028663,-0.025029,-0.19089
16449,1.6458e+09,1,-0.98089,0.028336,-0.025198,-0.19084
16493,1.6459e+09,1,-0.9809,0.028266,-0.02487,-0.19083
16538,1.6459e+09,1,-0.9809,0.028236,-0.02519,-0.19082
16583,1.6459e+09,1,-0.98091,0.027975,-0.024981,-0.19079
16627,1.6459e+09,1,-0.98087,0.028328,-0.025393,-0.19093
16673,1.6459e+09,1,-0.98091,0.028127,-0.025016,-0.19079
16721,1.6459e+09,1,-0.98088,0.028315,-0.025368,-0.19085
16766,1.6459e+09,1,-0.98091,0.028086,-0.025447,-0.19074
16810,1.6459e+09,1,-0.98087,0.028434,-0.025474,-0.1909
16856,1.6459e+09,1,-0.98089,0.028356,-0.025541,-0.19078
16902,1.6459e+09,1,-0.98089,0.028353,-0.025435,-0.19079
16945,1.646e+09,1,-0.98086,0.028634,-0.025749,-0.19085
16985,1.646e+09,1,-0.98089,0.028577,-0.0253,-0.19077
17028,1.646e+09,1,-0.98087,0.0288,-0.025509,-0.19085
17071,1.646e+09,1,-0.98089,0.028521,-0.025493,-0.19079
17113,1.646e+09,1,-0.98085,0.028837,-0.025541,-0.19094
17160,1.646e+09,1,-0.98087,0.028621,-0.025541,-0.19082
17202,1.646e+09,1,-0.98086,0.028583,-0.025468,-0.1909
17244,1.646e+09,1,-0.98087,0.028434,-0.025754,-0.19085
17289,1.646e+09,1,-0.98087,0.028424,-0.0254,-0.19092
17331,1.646e+09,1,-0.98085,0.028457,-0.025814,-0.19094
17378,1.6461e+09,1,-0.98087,0.028392,-0.025643,-0.19087
17420,1.6461e+09,1,-0.98085,0.028656,-0.025712,-0.19092
17463,1.6461e+09,1,-0.98086,0.028577,-0.025981,-0.19082
17506,1.6461e+09,1,-0.98089,0.028536,-0.025583,-0.19074
17548,1.6461e+09,1,-0.98088,0.02845,-0.026189,-0.19075
17596,1.6461e+09,1,-0.9809,0.028535,-0.025444,-0.19069
17638,1.6461e+09,1,-0.98089,0.028348,-0.026087,-0.19071
17681,1.6461e+09,1,-0.98092,0.028335,-0.025548,-0.19064
17725,1.6461e+09,1,-0.98089,0.028578,-0.025742,-0.19072
17771,1.6462e+09,1,-0.98089,0.028404,-0.026181,-0.19068
17816,1.6462e+09,1,-0.98091,0.028407,-0.025798,-0.19066
17860,1.6462e+09,1,-0.98088,0.028444,-0.026305,-0.19071
17904,1.6462e+09,1,-0.98089,0.028582,-0.025629,-0.19071
17949,1.6462e+09,1,-0.98087,0.028579,-0.026116,-0.19078
17997,1.6462e+09,1,-0.98089,0.028492,-0.025756,-0.19075
18046,1.6462e+09,1,-0.98085,0.028929,-0.025967,-0.19085
18091,1.6462e+09,1,-0.98087,0.028564,-0.026008,-0.19079
18138,1.6462e+09,1,-0.98088,0.028527,-0.025867,-0.19075
18188,1.6463e+09,1,-0.98087,0.028864,-0.026022,-0.19076
18237,1.6463e+09,1,-0.98088,0.028655,-0.026193,-0.1907
18282,1.6463e+09,1,-0.98089,0.028757,-0.025995,-0.19065
18326,1.6463e+09,1,-0.98088,0.028717,-0.026336,-0.1907
18371,1.6463e+09,1,-0.98091,0.028594,-0.025847,-0.19059
18420,1.6463e+09,1,-0.98088,0.028803,-0.026237,-0.19066
18465,1.6463e+09,1,-0.98093,0.028527,-0.025874,-0.19051
18513,1.6463e+09,1,-0.98089,0.028996,-0.026212,-0.1906
18559,1.6463e+09,1,-0.98089,0.028916,-0.02633,-0.19057
18602,1.6464e+09,1,-0.98092,0.028686,-0.026183,-0.19047
18646,1.6464e+09,1,-0.98087,0.029047,-0.026535,-0.19064
18692,1.6464e+09,1,-0.98092,0.028738,-0.026156,-0.19047
18737,1.6464e+09,1,-0.9809,0.028885,-0.026519,-0.19052
18781,1.6464e+09,1,-0.98092,0.028625,-0.026315,-0.19046
18826,1.6464e+09,1,-0.98091,0.028808,-0.026544,-0.19046
18874,1.6464e+09,1,-0.98093,0.028747,-0.026251,-0.19044
18919,1.6464e+09,1,-0.98093,0.028718,-0.026556,-0.19039
18964,1.6464e+09,1,-0.98091,0.028833,-0.026584,-0.19049
19009,1.6465e+09,1,-0.98094,0.028698,-0.026332,-0.19034
19057,1.6465e+09,1,-0.98094,0.028767,-0.02656,-0.19034
19102,1.6465e+09,1,-0.98094,0.028734,-0.026573,-0.19034
19147,1.6465e+09,1,-0.98092,0.028926,-0.026718,-0.1904
19192,1.6465e+09,1,-0.98093,0.028957,-0.026651,-0.19034
19237,1.6465e+09,1,-0.98093,0.028975,-0.026678,-0.1903
19281,1.6465e+09,1,-0.98093,0.028936,-0.026766,-0.19035
19330,1.6465e+09,1,-0.98094,0.028985,-0.026416,-0.19033
19375,1.6465e+09,1,-0.98091,0.028992,-0.026764,-0.19041
19419,1.6465e+09,1,-0.98094,0.028757,-0.026377,-0.19033
19467,1.6466e+09,1,-0.9809,0.028886,-0.026877,-0.19045
19504,1.6466e+09,1,-0.98091,0.028782,-0.026606,-0.19045
19547,1.6466e+09,1,-0.98092,0.028786,-0.026802,-0.19037
19590,1.6466e+09,1,-0.9809,0.028857,-0.027016,-0.19047
19633,1.6466e+09,1,-0.98093,0.028883,-0.026708,-0.19034
19676,1.6466e+09,1,-0.9809,0.028959,-0.026949,-0.19044
19719,1.6466e+09,1,-0.98095,0.028707,-0.026619,-0.19025
19766,1.6466e+09,1,-0.98089,0.029029,-0.026965,-0.19048
19809,1.6466e+09,1,-0.98094,0.028939,-0.026458,-0.19032
19851,1.6466e+09,1,-0.98091,0.029134,-0.026771,-0.19039
19895,1.6467e+09,1,-0.98094,0.028939,-0.026626,-0.19028
19941,1.6467e+09,1,-0.98092,0.029189,-0.026832,-0.19035
19983,1.6467e+09,1,-0.98089,0.029405,-0.026994,-0.19043
20027,1.6467e+09,1,-0.98094,0.029139,-0.026766,-0.19024
20070,1.6467e+09,1,-0.98089,0.0294,-0.027146,-0.19041
20114,1.6467e+09,1,-0.98092,0.029153,-0.026795,-0.19033
20161,1.6467e+09,1,-0.98093,0.029099,-0.027103,-0.19028
20204,1.6467e+09,1,-0.98094,0.028919,-0.026957,-0.19027
20246,1.6467e+09,1,-0.98093,0.029033,-0.027181,-0.19027
20294,1.6468e+09,1,-0.98093,0.029158,-0.026966,-0.19028
20336,1.6468e+09,1,-0.98096,0.028947,-0.026806,-0.19014
20380,1.6468e+09,1,-0.98093,0.029144,-0.027022,-0.19025
20425,1.6468e+09,1,-0.98094,0.0292,-0.026819,-0.19023
20469,1.6468e+09,1,-0.98097,0.029065,-0.026917,-0.19008
20515,1.6468e+09,1,-0.98093,0.029397,-0.027052,-0.19021
20560,1.6468e+09,1,-0.98095,0.029313,-0.02688,-0.19014
20610,1.6468e+09,1,-0.98092,0.029635,-0.027017,-0.19025
20655,1.6468e+09,1,-0.98097,0.02939,-0.026955,-0.19001
20700,1.6469e+09,1,-0.98093,0.029638,-0.027096,-0.19015
20745,1.6469e+09,1,-0.98097,0.029487,-0.026961,-0.19001
20794,1.6469e+09,1,-0.98098,0.029189,-0.027035,-0.18999
20839,1.6469e+09,1,-0.98097,0.029312,-0.027208,-0.19002
20884,1.6469e+09,1,-0.98098,0.029185,-0.027146,-0.18996
20930,1.6469e+09,1,-0.98096,0.029335,-0.027135,-0.19006
20975,1.6469e+09,1,-0.981,0.029043,-0.027162,-0.1899
21019,1.6469e+09,1,-0.98097,0.029228,-0.027212,-0.18999
21068,1.6469e+09,1,-0.981,0.029067,-0.027119,-0.18989
21115,1.647e+09,1,-0.98101,0.028903,-0.027153,-0.18986
21156,1.647e+09,1,-0.98098,0.0291,-0.027419,-0.18994
21205,1.647e+09,1,-0.98099,0.029293,-0.027285,-0.1899
21250,1.647e+09,1,-0.98095,0.029587,-0.027399,-0.19003
21295,1.647e+09,1,-0.98098,0.029345,-0.027291,-0.18995
21339,1.647e+09,1,-0.98096,0.029554,-0.027364,-0.18999
21384,1.647e+09,1,-0.98096,0.029479,-0.02723,-0.19001
21429,1.647e+09,1,-0.98097,0.029403,-0.027271,-0.18997
21478,1.647e+09,1,-0.98096,0.029386,-0.027403,-0.19003
21523,1.647e+09,1,-0.98098,0.02937,-0.027218,-0.18992
21568,1.6471e+09,1,-0.98096,0.029621,-0.027271,-0.18998
21614,1.6471e+09,1,-0.981,0.029252,-0.027296,-0.18985
21658,1.6471e+09,1,-0.98096,0.029556,-0.027544,-0.18998
21704,1.6471e+09,1,-0.98101,0.029194,-0.027412,-0.18979
21748,1.6471e+09,1,-0.98099,0.02929,-0.02751,-0.18983
21794,1.6471e+09,1,-0.98101,0.029008,-0.027579,-0.18977
21838,1.6471e+09,1,-0.98101,0.02906,-0.02761,-0.18977
21883,1.6471e+09,1,-0.981,0.029186,-0.027588,-0.18981
21932,1.6471e+09,1,-0.98103,0.028968,-0.027535,-0.18971
21978,1.6472e+09,1,-0.98099,0.029383,-0.0277,-0.18981
22018,1.6472e+09,1,-0.98102,0.029308,-0.027501,-0.1897
22064,1.6472e+09,1,-0.98102,0.029365,-0.027529,-0.18967
22107,1.6472e+09,1,-0.98098,0.029732,-0.027834,-0.18981
22149,1.6472e+09,1,-0.98101,0.029543,-0.027688,-0.18971
22192,1.6472e+09,1,-0.98098,0.029911,-0.027792,-0.18979
22236,1.6472e+09,1,-0.98101,0.029488,-0.027811,-0.18965
22279,1.6472e+09,1,-0.981,0.029634,-0.027825,-0.18972
22322,1.6472e+09,1,-0.98101,0.029316,-0.027817,-0.18971
22370,1.6472e+09,1,-0.98102,0.029337,-0.027729,-0.18966
22413,1.6473e+09,1,-0.98102,0.029154,-0.027932,-0.18967
22455,1.6473e+09,1,-0.98104,0.029125,-0.027702,-0.1896
22499,1.6473e+09,1,-0.98103,0.029045,-0.027839,-0.18966
22545,1.6473e+09,1,-0.98104,0.029039,-0.027808,-0.18958
22587,1.6473e+09,1,-0.98099,0.029483,-0.028144,-0.18973
22630,1.6473e+09,1,-0.98103,0.029166,-0.027854,-0.18962
22672,1.6473e+09,1,-0.98101,0.02946,-0.027941,-0.18967
22716,1.6473e+09,1,-0.98102,0.0293,-0.027997,-0.18963
22759,1.6473e+09,1,-0.98101,0.029618,-0.02796,-0.18961
22805,1.6474e+09,1,-0.98101,0.029519,-0.027926,-0.18965
22850,1.6474e+09,1,-0.98105,0.029362,-0.027715,-0.18948
22895,1.6474e+09,1,-0.98101,0.029529,-0.028013,-0.18963
22943,1.6474e+09,1,-0.98104,0.029267,-0.027861,-0.18956
22987,1.6474e+09,1,-0.98103,0.029588,-0.027845,-0.18956
23032,1.6474e+09,1,-0.98105,0.029087,-0.027827,-0.18955
23078,1.6474e+09,1,-0.98104,0.029287,-0.02778,-0.18956
23123,1.6474e+09,1,-0.98103,0.029205,-0.02771,-0.18963
23168,1.6474e+09,1,-0.98106,0.029104,-0.027909,-0.18948
23216,1.6475e+09,1,-0.98103,0.029265,-0.027966,-0.18956
23261,1.6475e+09,1,-0.98104,0.029093,-0.02811,-0.18952
23306,1.6475e+09,1,-0.98102,0.029507,-0.027989,-0.18957
23351,1.6475e+09,1,-0.98106,0.029107,-0.028081,-0.18942
23399,1.6475e+09,1,-0.98104,0.029243,-0.028162,-0.18952
23440,1.6475e+09,1,-0.98104,0.029236,-0.0279,-0.18954
23485,1.6475e+09,1,-0.98107,0.029108,-0.028008,-0.1894
23529,1.6475e+09,1,-0.98105,0.029265,-0.028026,-0.18945
23576,1.6475e+09,1,-0.98108,0.029112,-0.02799,-0.18936
23623,1.6475e+09,1,-0.98105,0.029548,-0.02801,-0.18944
23665,1.6476e+09,1,-0.98109,0.029094,-0.028064,-0.18928
23710,1.6476e+09,1,-0.98106,0.029391,-0.028169,-0.18937
23754,1.6476e+09,1,-0.98108,0.02906,-0.028079,-0.18933
23799,1.6476e+09,1,-0.98108,0.029297,-0.028148,-0.18929
23844,1.6476e+09,1,-0.98108,0.02918,-0.028243,-0.18932
23889,1.6476e+09,1,-0.98106,0.029358,-0.028348,-0.18938
23933,1.6476e+09,1,-0.98103,0.029659,-0.028325,-0.18944
23979,1.6476e+09,1,-0.98107,0.029232,-0.028388,-0.18931
24025,1.6476e+09,1,-0.98103,0.029622,-0.028526,-0.18945
24069,1.6477e+09,1,-0.98105,0.02916,-0.028241,-0.18944
24118,1.6477e+09,1,-0.98104,0.02939,-0.028608,-0.18942
24162,1.6477e+09,1,-0.98106,0.029541,-0.028258,-0.18934
24208,1.6477e+09,1,-0.98106,0.029287,-0.028755,-0.18933
24253,1.6477e+09,1,-0.98106,0.029457,-0.028289,-0.18937
24297,1.6477e+09,1,-0.98107,0.029387,-0.028486,-0.18927
24345,1.6477e+09,1,-0.98104,0.029339,-0.028637,-0.1894
24390,1.6477e+09,1,-0.98109,0.028797,-0.028364,-0.18928
24436,1.6477e+09,1,-0.98107,0.029155,-0.028425,-0.18934
24485,1.6477e+09,1,-0.98105,0.029522,-0.02845,-0.18938
24531,1.6478e+09,1,-0.98104,0.029443,-0.028574,-0.18939
24575,1.6478e+09,1,-0.98104,0.029479,-0.028396,-0.18946
24617,1.6478e+09,1,-0.98107,0.028603,-0.028188,-0.18944
24661,1.6478e+09,1,-0.98111,0.027959,-0.028165,-0.18934
24704,1.6478e+09,1,-0.98108,0.0282,-0.028296,-0.18942
24746,1.6478e+09,1,-0.98106,0.028519,-0.028258,-0.1895
24790,1.6478e+09,1,-0.98106,0.028435,-0.028321,-0.18949
24832,1.6478e+09,1,-0.98109,0.027946,-0.028449,-0.1894
24875,1.6478e+09,1,-0.98111,0.027672,-0.028191,-0.18939
24917,1.6479e+09,1,-0.98109,0.028198,-0.028472,-0.18937
24963,1.6479e+09,1,-0.98108,0.028346,-0.028431,-0.18939
25010,1.6479e+09,1,-0.98108,0.028404,-0.028522,-0.18936
25053,1.6479e+09,1,-0.98112,0.02781,-0.028046,-0.18932
25096,1.6479e+09,1,-0.98109,0.028074,-0.028403,-0.18941
25138,1.6479e+09,1,-0.98108,0.028345,-0.028322,-0.18941
25181,1.6479e+09,1,-0.98108,0.028402,-0.028117,-0.18942
25223,1.6479e+09,1,-0.98108,0.028164,-0.028058,-0.1895
25267,1.6479e+09,1,-0.98108,0.02796,-0.028272,-0.18947
25310,1.6479e+09,1,-0.98108,0.028327,-0.02797,-0.18949
25353,1.648e+09,1,-0.98106,0.028455,-0.028121,-0.18955
25398,1.648e+09,1,-0.98108,0.02838,-0.027892,-0.18948
25441,1.648e+09,1,-0.98107,0.027938,-0.028188,-0.18954
25485,1.648e+09,1,-0.98111,0.02765,-0.028001,-0.1894
25530,1.648e+09,1,-0.98107,0.028155,-0.028214,-0.18951
25574,1.648e+09,1,-0.9811,0.028261,-0.027949,-0.18935
25620,1.648e+09,1,-0.98109,0.027861,-0.02816,-0.18944
25665,1.648e+09,1,-0.98115,0.027311,-0.028011,-0.18922
25709,1.648e+09,1,-0.98112,0.027457,-0.028121,-0.18934
25754,1.648e+09,1,-0.98112,0.027834,-0.028188,-0.1893
25799,1.6481e+09,1,-0.98109,0.028141,-0.028151,-0.18943
25844,1.6481e+09,1,-0.98111,0.028073,-0.028104,-0.18933
25893,1.6481e+09,1,-0.9811,0.02775,-0.028305,-0.18939
25938,1.6481e+09,1,-0.9811,0.028127,-0.028275,-0.18934
25983,1.6481e+09,1,-0.98105,0.028793,-0.028352,-0.18951
26028,1.6481e+09,1,-0.98105,0.028922,-0.028258,-0.18951
26073,1.6481e+09,1,-0.98105,0.028368,-0.028344,-0.18954
26117,1.6481e+09,1,-0.98108,0.02784,-0.028454,-0.18946
26162,1.6481e+09,1,-0.98108,0.027607,-0.028606,-0.18947
26205,1.6482e+09,1,-0.9811,0.027433,-0.028622,-0.18942
26250,1.6482e+09,1,-0.98105,0.028123,-0.028727,-0.18953
26296,1.6482e+09,1,-0.98105,0.028266,-0.0285,-0.18958
26345,1.6482e+09,1,-0.98106,0.027508,-0.02864,-0.18958
26389,1.6482e+09,1,-0.98111,0.026586,-0.028733,-0.18943
26434,1.6482e+09,1,-0.98103,0.027639,-0.028834,-0.18969
26479,1.6482e+09,1,-0.98101,0.028007,-0.028917,-0.18971
26523,1.6482e+09,1,-0.98101,0.02793,-0.028526,-0.18978
26570,1.6482e+09,1,-0.98099,0.027936,-0.028463,-0.18991
26614,1.6483e+09,1,-0.98104,0.027349,-0.028648,-0.18969
26659,1.6483e+09,1,-0.98097,0.028427,-0.028718,-0.18989
26703,1.6483e+09,1,-0.98092,0.029326,-0.028473,-0.19007
26750,1.6483e+09,1,-0.98098,0.028361,-0.028342,-0.18992
26798,1.6483e+09,1,-0.98101,0.027638,-0.028694,-0.18984
26844,1.6483e+09,1,-0.981,0.027963,-0.028808,-0.18982
26889,1.6483e+09,1,-0.98103,0.027798,-0.02882,-0.18967
26933,1.6483e+09,1,-0.981,0.028174,-0.028603,-0.18981
26978,1.6483e+09,1,-0.98101,0.027659,-0.028557,-0.18982
27022,1.6483e+09,1,-0.98108,0.026872,-0.028653,-0.18959
27069,1.6484e+09,1,-0.98102,0.027439,-0.029061,-0.18973
27109,1.6484e+09,1,-0.98101,0.027334,-0.029071,-0.18981
27151,1.6484e+09,1,-0.98096,0.027979,-0.029009,-0.18997
27194,1.6484e+09,1,-0.98101,0.027314,-0.028163,-0.18997
27241,1.6484e+09,1,-0.98098,0.027779,-0.028189,-0.19004
27284,1.6484e+09,1,-0.98092,0.027761,-0.029062,-0.1902
27327,1.6484e+09,1,-0.98099,0.027959,-0.027906,-0.19002
27373,1.6484e+09,1,-0.98096,0.028217,-0.028335,-0.19003
27416,1.6484e+09,1,-0.98099,0.028047,-0.02762,-0.19
27458,1.6485e+09,1,-0.98102,0.026697,-0.028482,-0.18993
27501,1.6485e+09,1,-0.98094,0.027488,-0.029305,-0.19012
27544,1.6485e+09,1,-0.98093,0.029033,-0.027989,-0.19015
27586,1.6485e+09,1,-0.98096,0.028307,-0.027513,-0.19015
27633,1.6485e+09,1,-0.98099,0.026506,-0.028805,-0.19006
27677,1.6485e+09,1,-0.98097,0.026406,-0.029371,-0.19008
27720,1.6485e+09,1,-0.98095,0.026617,-0.029676,-0.19015
27766,1.6485e+09,1,-0.9809,0.027239,-0.029358,-0.19037
27814,1.6485e+09,1,-0.98083,0.028376,-0.028811,-0.1906
27852,1.6486e+09,1,-0.9808,0.029071,-0.028434,-0.19073
27896,1.6486e+09,1,-0.9808,0.02942,-0.028338,-0.19069
27940,1.6486e+09,1,-0.98087,0.028181,-0.0286,-0.19049
27984,1.6486e+09,1,-0.9809,0.027725,-0.029044,-0.19032
28028,1.6486e+09,1,-0.98087,0.028031,-0.029309,-0.19037
28078,1.6486e+09,1,-0.98088,0.028086,-0.029585,-0.1903
28122,1.6486e+09,1,-0.9809,0.027764,-0.029604,-0.19022
28168,1.6486e+09,1,-0.98095,0.027068,-0.02971,-0.19008
28213,1.6486e+09,1,-0.98094,0.026811,-0.030455,-0.19004
28257,1.6487e+09,1,-0.98091,0.027156,-0.030663,-0.19012
28302,1.6487e+09,1,-0.98082,0.02772,-0.031142,-0.19039
28346,1.6487e+09,1,-0.98081,0.02781,-0.031073,-0.19046
28391,1.6487e+09,1,-0.9808,0.027338,-0.031191,-0.19056
28437,1.6487e+09,1,-0.98078,0.026672,-0.031198,-0.19073
28483,1.6487e+09,1,-0.98078,0.026516,-0.031288,-0.19076
28531,1.6487e+09,1,-0.98077,0.026361,-0.03094,-0.1909
28577,1.6487e+09,1,-0.98078,0.025676,-0.030536,-0.19098
28628,1.6487e+09,1,-0.98077,0.025102,-0.030717,-0.19109
28670,1.6488e+09,1,-0.98084,0.023994,-0.030317,-0.19096
28714,1.6488e+09,1,-0.9809,0.022577,-0.029821,-0.19087
28760,1.6488e+09,1,-0.98097,0.021401,-0.029788,-0.19066
28806,1.6488e+09,1,-0.98107,0.020487,-0.029405,-0.1903
28850,1.6488e+09,1,-0.98113,0.019725,-0.028442,-0.19025
28896,1.6488e+09,1,-0.98117,0.018924,-0.028078,-0.19018
28948,1.6488e+09,1,-0.98122,0.017871,-0.027282,-0.19013
28993,1.6488e+09,1,-0.98122,0.017315,-0.026105,-0.19032
29038,1.6488e+09,1,-0.98123,0.016398,-0.024904,-0.19051
29082,1.6489e+09,1,-0.98125,0.015857,-0.023444,-0.19063
29127,1.6489e+09,1,-0.98124,0.015096,-0.022478,-0.19089
29171,1.6489e+09,1,-0.9812,0.014743,-0.021292,-0.19124
29216,1.6489e+09,1,-0.98111,0.014441,-0.019801,-0.1919
29261,1.6489e+09,1,-0.98106,0.013213,-0.018344,-0.19239
29306,1.6489e+09,1,-0.98103,0.012423,-0.016853,-0.19272
29353,1.6489e+09,1,-0.98093,0.011752,-0.015798,-0.19337
29401,1.6489e+09,1,-0.98081,0.011309,-0.014358,-0.19409
29447,1.6489e+09,1,-0.98062,0.010482,-0.012587,-0.19521
29492,1.6489e+09,1,-0.9805,0.010062,-0.011313,-0.19592
29534,1.649e+09,1,-0.98034,0.0086824,-0.0086952,-0.19691
29576,1.649e+09,1,-0.98022,0.0083639,-0.0072533,-0.19762
29618,1.649e+09,1,-0.97994,0.0082095,-0.0056356,-0.19903
29661,1.649e+09,1,-0.97973,0.0082235,-0.0035381,-0.20013
29703,1.649e+09,1,-0.97957,0.0080046,-0.0019241,-0.20095
29747,1.649e+09,1,-0.97932,0.0077463,-4.4551e-05,-0.20217
29790,1.649e+09,1,-0.97912,0.0072919,0.0019001,-0.20316
29837,1.649e+09,1,-0.97889,0.0065423,0.003293,-0.20426
29880,1.649e+09,1,-0.97862,0.0065333,0.0044531,-0.20551
29922,1.6491e+09,1,-0.97838,0.0068555,0.0052879,-0.20662
29965,1.6491e+09,1,-0.97806,0.0071351,0.0064546,-0.2081
30009,1.6491e+09,1,-0.9778,0.0071847,0.0072511,-0.20931
30052,1.6491e+09,1,-0.97749,0.0072157,0.008234,-0.2107
30094,1.6491e+09,1,-0.97719,0.0080404,0.0089714,-0.21205
30137,1.6491e+09,1,-0.97677,0.0084503,0.0096289,-0.21391
30180,1.6491e+09,1,-0.97649,0.0087365,0.010342,-0.21515
30222,1.6491e+09,1,-0.97615,0.0089993,0.01081,-0.21665
30269,1.6491e+09,1,-0.97586,0.008907,0.011288,-0.21793
30313,1.6491e+09,1,-0.9754,0.0097017,0.012134,-0.21987
30360,1.6492e+09,1,-0.97498,0.0092485,0.012981,-0.2217
30399,1.6492e+09,1,-0.97457,0.0097218,0.013189,-0.22349
30443,1.6492e+09,1,-0.97416,0.009574,0.013591,-0.22525
30489,1.6492e+09,1,-0.97376,0.0099683,0.013531,-0.22694
30534,1.6492e+09,1,-0.97336,0.010757,0.013596,-0.22861
30578,1.6492e+09,1,-0.97302,0.010644,0.013628,-0.23007
30623,1.6492e+09,1,-0.97261,0.010437,0.013913,-0.23178
30669,1.6492e+09,1,-0.97224,0.010557,0.013967,-0.23333
30718,1.6492e+09,1,-0.97186,0.010971,0.01386,-0.2349
30764,1.6493e+09,1,-0.97149,0.011026,0.013967,-0.23643
30809,1.6493e+09,1,-0.97113,0.011038,0.01385,-0.23789
30854,1.6493e+09,1,-0.97074,0.011767,0.013812,-0.23944
30898,1.6493e+09,1,-0.97044,0.011818,0.013339,-0.24068
30943,1.6493e+09,1,-0.97005,0.012337,0.013002,-0.24224
30987,1.6493e+09,1,-0.96966,0.013867,0.012473,-0.24374
31032,1.6493e+09,1,-0.96937,0.014065,0.011838,-0.24491
31076,1.6493e+09,1,-0.96907,0.014303,0.011301,-0.24613
31121,1.6493e+09,1,-0.96872,0.015729,0.010832,-0.24742
31172,1.6494e+09,1,-0.96826,0.016725,0.010116,-0.24918
31215,1.6494e+09,1,-0.96793,0.018068,0.009266,-0.25039
31260,1.6494e+09,1,-0.96763,0.01869,0.0084579,-0.25155
31308,1.6494e+09,1,-0.96729,0.019925,0.0075067,-0.25279
31352,1.6494e+09,1,-0.96701,0.020632,0.0070005,-0.25379
31397,1.6494e+09,1,-0.96673,0.022031,0.0063751,-0.25476
31441,1.6494e+09,1,-0.9664,0.023719,0.0053996,-0.25588
31486,1.6494e+09,1,-0.96617,0.025153,0.0049608,-0.25664
31531,1.6494e+09,1,-0.9659,0.026179,0.0046116,-0.25754
31580,1.6495e+09,1,-0.96567,0.027206,0.004082,-0.25832
31625,1.6495e+09,1,-0.96543,0.028503,0.0035114,-0.25908
31669,1.6495e+09,1,-0.96519,0.030227,0.0032534,-0.25977
31714,1.6495e+09,1,-0.96496,0.031778,0.0029251,-0.26044
31758,1.6495e+09,1,-0.96478,0.03247,0.0023722,-0.26104
31803,1.6495e+09,1,-0.96462,0.033124,0.0015089,-0.26157
31849,1.6495e+09,1,-0.96444,0.034176,0.0011707,-0.26209
31893,1.6495e+09,1,-0.96429,0.03549,0.00073937,-0.26246
31938,1.6495e+09,1,-0.96414,0.036377,0.00054109,-0.26288
31981,1.6496e+09,1,-0.964,0.037317,0.0002356,-0.26327
32027,1.6496e+09,1,-0.96388,0.038399,-0.0001882,-0.26357
32071,1.6496e+09,1,-0.96384,0.03933,-0.00029673,-0.26357
32116,1.6496e+09,1,-0.96376,0.040482,-0.00079317,-0.26366
32161,1.6496e+09,1,-0.96373,0.041458,-0.0011027,-0.26363
32205,1.6496e+09,1,-0.96372,0.042027,-0.0010689,-0.26357
32251,1.6496e+09,1,-0.96367,0.043008,-0.0012701,-0.26362
32295,1.6496e+09,1,-0.96374,0.043791,-0.0014831,-0.26323
32340,1.6496e+09,1,-0.96378,0.044535,-0.0014064,-0.26297
32386,1.6496e+09,1,-0.96384,0.045288,-0.0017039,-0.26261
32430,1.6497e+09,1,-0.96398,0.045668,-0.0015647,-0.26202
32479,1.6497e+09,1,-0.96412,0.046548,-0.0019663,-0.26135
32523,1.6497e+09,1,-0.96426,0.047029,-0.002411,-0.26073
32568,1.6497e+09,1,-0.96444,0.047581,-0.0021471,-0.25999
32612,1.6497e+09,1,-0.96463,0.048291,-0.0025038,-0.25914
32657,1.6497e+09,1,-0.96478,0.049304,-0.0025111,-0.25837
32702,1.6497e+09,1,-0.96506,0.050322,-0.0025323,-0.25714
32751,1.6497e+09,1,-0.96535,0.050817,-0.002902,-0.25596
32796,1.6497e+09,1,-0.96561,0.051336,-0.0028863,-0.25485
32841,1.6498e+09,1,-0.96592,0.051838,-0.0028726,-0.25356
32887,1.6498e+09,1,-0.96619,0.053169,-0.0029664,-0.25226
32928,1.6498e+09,1,-0.96658,0.053801,-0.0029663,-0.25066
32970,1.6498e+09,1,-0.96692,0.054853,-0.0029373,-0.2491
33013,1.6498e+09,1,-0.96726,0.055088,-0.0029357,-0.2477
33056,1.6498e+09,1,-0.9677,0.055819,-0.0030711,-0.24584
33098,1.6498e+09,1,-0.96799,0.056721,-0.0032266,-0.24448
33142,1.6498e+09,1,-0.96844,0.057607,-0.0032691,-0.24246
33184,1.6498e+09,1,-0.96881,0.057799,-0.0031385,-0.24095
33227,1.6498e+09,1,-0.96935,0.057554,-0.0032716,-0.23884
33271,1.6499e+09,1,-0.96982,0.057764,-0.0033931,-0.23686
33313,1.6499e+09,1,-0.97025,0.058569,-0.0035304,-0.2349
33361,1.6499e+09,1,-0.97064,0.059402,-0.0032902,-0.23307
33403,1.6499e+09,1,-0.97115,0.05978,-0.003001,-0.23085
33447,1.6499e+09,1,-0.97167,0.05886,-0.0030557,-0.22886
33490,1.6499e+09,1,-0.97214,0.059302,-0.0030818,-0.22677
33533,1.6499e+09,1,-0.97258,0.060115,-0.0030548,-0.22464
33575,1.6499e+09,1,-0.97309,0.060717,-0.0024512,-0.22226
33618,1.6499e+09,1,-0.97357,0.060592,-0.0020532,-0.22018
33659,1.65e+09,1,-0.97412,0.060875,-0.0016259,-0.21767
33703,1.65e+09,1,-0.97462,0.060567,-0.0013925,-0.21552
33749,1.65e+09,1,-0.97505,0.061437,-0.0015841,-0.2133
33798,1.65e+09,1,-0.9755,0.062474,-0.0010098,-0.21094
33843,1.65e+09,1,-0.97595,0.062648,-0.00069814,-0.20879
33887,1.65e+09,1,-0.97643,0.062788,-0.00026843,-0.20652
33933,1.65e+09,1,-0.97688,0.0626,0.00025735,-0.20443
33977,1.65e+09,1,-0.97737,0.062579,-0.00016625,-0.20205
34022,1.65e+09,1,-0.97785,0.062472,6.271e-05,-0.19975
34068,1.65e+09,1,-0.97832,0.061984,0.000592,-0.19761
34112,1.6501e+09,1,-0.97879,0.061688,0.00088721,-0.19537
34157,1.6501e+09,1,-0.97925,0.061341,0.0013119,-0.19316
34201,1.6501e+09,1,-0.9797,0.06082,0.0012859,-0.19102
34250,1.6501e+09,1,-0.9801,0.060852,0.00182,-0.18896
34296,1.6501e+09,1,-0.98051,0.060769,0.0018343,-0.18684
34341,1.6501e+09,1,-0.9809,0.060424,0.0015216,-0.18489
34386,1.6501e+09,1,-0.98125,0.060677,0.0017824,-0.18292
34430,1.6501e+09,1,-0.98165,0.060583,0.0018232,-0.18081
34471,1.6501e+09,1,-0.98206,0.060256,0.0011294,-0.17866
34516,1.6502e+09,1,-0.98242,0.059904,0.00091727,-0.17683
34560,1.6502e+09,1,-0.98277,0.059818,0.00095089,-0.1749
34605,1.6502e+09,1,-0.98304,0.060269,0.00099534,-0.17318
34649,1.6502e+09,1,-0.98336,0.059979,0.0008587,-0.17149
34699,1.6502e+09,1,-0.98364,0.059654,0.00079789,-0.16996
34743,1.6502e+09,1,-0.98393,0.059634,0.00086465,-0.16827
34788,1.6502e+09,1,-0.98421,0.059117,0.0010527,-0.16682
34834,1.6502e+09,1,-0.98448,0.059178,0.00095192,-0.16519
34880,1.6502e+09,1,-0.98468,0.0594,0.0013893,-0.16392
34924,1.6502e+09,1,-0.98491,0.059281,0.0017135,-0.16259
34968,1.6503e+09,1,-0.98516,0.058511,0.0017941,-0.16138
35013,1.6503e+09,1,-0.98543,0.058221,0.0020259,-0.15977
35058,1.6503e+09,1,-0.98562,0.058378,0.0023192,-0.15854
35103,1.6503e+09,1,-0.98577,0.059189,0.0022062,-0.15733
35151,1.6503e+09,1,-0.98593,0.059493,0.0022878,-0.15618
35196,1.6503e+09,1,-0.98618,0.059289,0.0020012,-0.15469
35241,1.6503e+09,1,-0.98636,0.059559,0.001746,-0.15342
35286,1.6503e+09,1,-0.98645,0.060636,0.0016182,-0.15244
35331,1.6503e+09,1,-0.98664,0.061071,0.0013002,-0.151
35374,1.6504e+09,1,-0.98685,0.061946,0.00091854,-0.14929
35417,1.6504e+09,1,-0.98695,0.062627,0.0007961,-0.14833
35459,1.6504e+09,1,-0.9871,0.063125,0.00064191,-0.14711
35503,1.6504e+09,1,-0.98732,0.062678,0.00055259,-0.14587
35546,1.6504e+09,1,-0.98745,0.063111,0.00044549,-0.14477
35593,1.6504e+09,1,-0.98753,0.063956,0.00033877,-0.14388
35637,1.6504e+09,1,-0.98768,0.064015,0.00029149,-0.14282
35680,1.6504e+09,1,-0.98779,0.063971,-0.00011816,-0.14204
35723,1.6504e+09,1,-0.98791,0.063934,-9.3436e-05,-0.14125
35766,1.6505e+09,1,-0.98801,0.064596,0.00042244,-0.14022
35808,1.6505e+09,1,-0.98807,0.06524,0.00055173,-0.13953
35851,1.6505e+09,1,-0.98821,0.064744,0.00096111,-0.13874
35893,1.6505e+09,1,-0.98828,0.065071,0.001297,-0.13812
35937,1.6505e+09,1,-0.98835,0.065405,0.0017213,-0.13741
35980,1.6505e+09,1,-0.98841,0.065943,0.0019887,-0.13675
36026,1.6505e+09,1,-0.98847,0.066232,0.0025039,-0.13617
36068,1.6505e+09,1,-0.98855,0.066119,0.0028662,-0.1356
36111,1.6505e+09,1,-0.9886,0.066646,0.0033833,-0.13498
36155,1.6505e+09,1,-0.98863,0.067227,0.0039109,-0.13448
36201,1.6506e+09,1,-0.98869,0.067853,0.0044841,-0.1337
36243,1.6506e+09,1,-0.98872,0.068278,0.0048948,-0.1332
36288,1.6506e+09,1,-0.98876,0.068474,0.0052993,-0.13284
36332,1.6506e+09,1,-0.98877,0.069173,0.0054788,-0.13233
36378,1.6506e+09,1,-0.98884,0.06936,0.0055987,-0.13175
36428,1.6506e+09,1,-0.98882,0.069983,0.0056318,-0.13155
36472,1.6506e+09,1,-0.98881,0.071098,0.0056378,-0.13104
36518,1.6506e+09,1,-0.98886,0.07124,0.0055354,-0.1306
36562,1.6506e+09,1,-0.98889,0.071494,0.0053676,-0.13024
36610,1.6507e+09,1,-0.98892,0.071977,0.0050551,-0.12977
36655,1.6507e+09,1,-0.98891,0.072856,0.0050419,-0.12934
36699,1.6507e+09,1,-0.98886,0.073831,0.0045128,-0.12916
36744,1.6507e+09,1,-0.98892,0.07397,0.0044721,-0.12865
36790,1.6507e+09,1,-0.98899,0.073482,0.0043611,-0.12838
36834,1.6507e+09,1,-0.98902,0.073675,0.0041447,-0.12806
36885,1.6507e+09,1,-0.98897,0.074399,0.0042643,-0.12798
36931,1.6507e+09,1,-0.98897,0.074925,0.0042816,-0.12767
36976,1.6507e+09,1,-0.98905,0.074257,0.0043207,-0.12745
37019,1.6508e+09,1,-0.98903,0.074539,0.0040473,-0.12743
37064,1.6508e+09,1,-0.98905,0.074554,0.0044137,-0.12725
37108,1.6508e+09,1,-0.98901,0.074879,0.004322,-0.12739
37153,1.6508e+09,1,-0.98904,0.07476,0.0041991,-0.12726
37199,1.6508e+09,1,-0.98908,0.074316,0.004294,-0.12724
37245,1.6508e+09,1,-0.98912,0.073932,0.0042914,-0.12712
37289,1.6508e+09,1,-0.98906,0.07435,0.0043255,-0.12729
37337,1.6508e+09,1,-0.98911,0.07354,0.0039438,-0.12742
37381,1.6508e+09,1,-0.98919,0.072477,0.0041288,-0.12743
37425,1.6509e+09,1,-0.98921,0.072085,0.0038529,-0.12748
37469,1.6509e+09,1,-0.9892,0.072049,0.0034537,-0.12761
37516,1.6509e+09,1,-0.98916,0.071898,0.0029933,-0.12799
37561,1.6509e+09,1,-0.98924,0.070906,0.0026158,-0.12796
37605,1.6509e+09,1,-0.98928,0.069493,0.0021102,-0.12842
37650,1.6509e+09,1,-0.98933,0.068778,0.0016702,-0.12846
37695,1.6509e+09,1,-0.98926,0.068519,0.0010046,-0.12911
37740,1.6509e+09,1,-0.9892,0.068702,0.00078948,-0.12944
37790,1.6509e+09,1,-0.98918,0.068226,0.00035629,-0.12984
37834,1.651e+09,1,-0.98918,0.067875,0.00015436,-0.13008
37877,1.651e+09,1,-0.98911,0.067796,-0.00014912,-0.13064
37922,1.651e+09,1,-0.98905,0.068156,-0.00054082,-0.13094
37966,1.651e+09,1,-0.98902,0.067851,-0.00042848,-0.13131
38011,1.651e+09,1,-0.98895,0.067993,-0.00048147,-0.13177
38056,1.651e+09,1,-0.98892,0.067811,-0.00038349,-0.13207
38100,1.651e+09,1,-0.98883,0.068248,-5.1906e-06,-0.13249
38146,1.651e+09,1,-0.98882,0.067834,-0.00032077,-0.13277
38194,1.651e+09,1,-0.98874,0.068623,-0.00022452,-0.13295
38242,1.651e+09,1,-0.98861,0.069297,-0.00018935,-0.1336
38287,1.6511e+09,1,-0.9886,0.069135,-0.00050191,-0.13378
38331,1.6511e+09,1,-0.98854,0.069448,-0.0005029,-0.13401
38380,1.6511e+09,1,-0.98847,0.069937,-0.00085041,-0.13426
38424,1.6511e+09,1,-0.98836,0.070871,-0.0012537,-0.13463
38470,1.6511e+09,1,-0.98817,0.072693,-0.0010807,-0.13506
38514,1.6511e+09,1,-0.98807,0.073462,-0.0018859,-0.13537
38559,1.6511e+09,1,-0.98799,0.073849,-0.0017773,-0.13572
38605,1.6511e+09,1,-0.98791,0.07459,-0.0019222,-0.13592
38653,1.6511e+09,1,-0.98776,0.0759,-0.0020318,-0.13627
38700,1.6512e+09,1,-0.98762,0.077188,-0.0014248,-0.13657
38737,1.6512e+09,1,-0.98749,0.078035,-0.0014334,-0.13698
38780,1.6512e+09,1,-0.98743,0.078496,-0.0010119,-0.1372
38822,1.6512e+09,1,-0.9873,0.079465,-0.00045239,-0.13758
38865,1.6512e+09,1,-0.98721,0.080318,-8.9586e-05,-0.13768
38907,1.6512e+09,1,-0.98707,0.081161,0.00063737,-0.13819
38952,1.6512e+09,1,-0.987,0.081641,0.0010034,-0.13846
38994,1.6512e+09,1,-0.98691,0.082432,0.0013212,-0.13864
39037,1.6512e+09,1,-0.9868,0.083682,0.0014636,-0.13867
39083,1.6512e+09,1,-0.98667,0.084469,0.0014711,-0.13909
39126,1.6513e+09,1,-0.98659,0.084913,0.0015969,-0.13935
39170,1.6513e+09,1,-0.98655,0.085089,0.0018641,-0.13953
39213,1.6513e+09,1,-0.9865,0.085621,0.0022617,-0.13958
39255,1.6513e+09,1,-0.98639,0.086114,0.0024612,-0.14004
39297,1.6513e+09,1,-0.98633,0.086782,0.0028415,-0.14003
39340,1.6513e+09,1,-0.98629,0.087015,0.0031049,-0.14021
39382,1.6513e+09,1,-0.98618,0.088051,0.0037772,-0.14029
39425,1.6513e+09,1,-0.98612,0.088536,0.0042205,-0.14039
39466,1.6513e+09,1,-0.98605,0.089064,0.0048927,-0.14057
39512,1.6514e+09,1,-0.98598,0.090163,0.0056059,-0.14029
39558,1.6514e+09,1,-0.98586,0.091149,0.0060706,-0.14046
39602,1.6514e+09,1,-0.98586,0.091285,0.0067844,-0.14039
39647,1.6514e+09,1,-0.98569,0.092852,0.0078982,-0.14046
39695,1.6514e+09,1,-0.98561,0.093772,0.0086008,-0.14037
39740,1.6514e+09,1,-0.98556,0.094109,0.0092636,-0.14043
39784,1.6514e+09,1,-0.98553,0.094443,0.010237,-0.14039
39829,1.6514e+09,1,-0.98556,0.094082,0.011316,-0.14034
39874,1.6514e+09,1,-0.98554,0.09389,0.012462,-0.1405
39918,1.6515e+09,1,-0.98547,0.094335,0.013638,-0.14058
39968,1.6515e+09,1,-0.98556,0.093478,0.014402,-0.14042
40012,1.6515e+09,1,-0.98563,0.092556,0.015556,-0.14043
40058,1.6515e+09,1,-0.98564,0.092128,0.016552,-0.14057
40102,1.6515e+09,1,-0.98571,0.09136,0.017549,-0.14046
40150,1.6515e+09,1,-0.98579,0.090148,0.018625,-0.14054
40195,1.6515e+09,1,-0.98592,0.08887,0.019493,-0.14032
40239,1.6515e+09,1,-0.98605,0.087219,0.020263,-0.14031
40284,1.6515e+09,1,-0.98619,0.085894,0.020491,-0.1401
40330,1.6515e+09,1,-0.9863,0.084639,0.020931,-0.14007
40372,1.6516e+09,1,-0.98649,0.082809,0.021324,-0.13974
40421,1.6516e+09,1,-0.98658,0.081937,0.021641,-0.13954
40465,1.6516e+09,1,-0.9867,0.080928,0.021625,-0.13933
40511,1.6516e+09,1,-0.98687,0.079689,0.021651,-0.1388
40556,1.6516e+09,1,-0.987,0.078647,0.021333,-0.13854
40600,1.6516e+09,1,-0.98709,0.078038,0.021243,-0.13822
40645,1.6516e+09,1,-0.98719,0.077404,0.021348,-0.13791
40690,1.6516e+09,1,-0.98731,0.076654,0.020938,-0.13748
40735,1.6516e+09,1,-0.98743,0.075907,0.020878,-0.13708
40779,1.6517e+09,1,-0.98754,0.075298,0.020721,-0.13665
40825,1.6517e+09,1,-0.98764,0.07461,0.020573,-0.13631
40874,1.6517e+09,1,-0.98773,0.074216,0.020409,-0.13591
40918,1.6517e+09,1,-0.98781,0.073997,0.019912,-0.13553
40964,1.6517e+09,1,-0.98792,0.07354,0.019435,-0.13502
41010,1.6517e+09,1,-0.98801,0.073214,0.018673,-0.13461
41054,1.6517e+09,1,-0.98809,0.073221,0.01812,-0.1341
41099,1.6517e+09,1,-0.98816,0.072857,0.017557,-0.13384
41145,1.6517e+09,1,-0.98821,0.073126,0.017247,-0.13344
41190,1.6518e+09,1,-0.98833,0.072435,0.01659,-0.13297
41236,1.6518e+09,1,-0.98839,0.072505,0.016241,-0.13255
41281,1.6518e+09,1,-0.98846,0.072208,0.016396,-0.13217
41327,1.6518e+09,1,-0.98853,0.072031,0.016069,-0.13173
41371,1.6518e+09,1,-0.9886,0.072043,0.015719,-0.13129
41416,1.6518e+09,1,-0.98868,0.071732,0.01535,-0.1309
41464,1.6518e+09,1,-0.98875,0.071663,0.015291,-0.13042
41509,1.6518e+09,1,-0.98881,0.071389,0.015297,-0.13006
41554,1.6518e+09,1,-0.9889,0.070905,0.01526,-0.12967
41598,1.6519e+09,1,-0.98891,0.071252,0.015123,-0.12945
41643,1.6519e+09,1,-0.98897,0.071443,0.014963,-0.12885
41687,1.6519e+09,1,-0.98896,0.071801,0.015394,-0.12871
41737,1.6519e+09,1,-0.98902,0.071622,0.015674,-0.12828
41781,1.6519e+09,1,-0.9891,0.071192,0.015841,-0.12792
41826,1.6519e+09,1,-0.98918,0.070931,0.016056,-0.1274
41871,1.6519e+09,1,-0.98919,0.071192,0.01638,-0.12711
41917,1.6519e+09,1,-0.98916,0.07178,0.016928,-0.127
41962,1.6519e+09,1,-0.98922,0.071749,0.017174,-0.12652
42009,1.652e+09,1,-0.98921,0.072375,0.017325,-0.12618
42048,1.652e+09,1,0.99121,-0.073333,-0.016245,0.10887
42090,1.652e+09,1,0.99122,-0.073521,-0.016324,0.10864
42133,1.652e+09,1,0.99122,-0.074144,-0.016333,0.10826
42179,1.652e+09,1,0.99118,-0.07518,-0.016401,0.10788
42221,1.652e+09,1,0.99115,-0.076198,-0.016421,0.10742
42264,1.652e+09,1,0.9911,-0.077514,-0.016199,0.10702
42306,1.652e+09,1,0.9911,-0.077806,-0.016492,0.10673
42350,1.652e+09,1,0.99116,-0.077791,-0.01621,0.1062
42389,1.652e+09,1,0.99119,-0.078228,-0.015928,0.10565
42429,1.6521e+09,1,0.9912,-0.078883,-0.015756,0.10511
42471,1.6521e+09,1,0.99123,-0.079798,-0.015301,0.10421
42513,1.6521e+09,1,0.99127,-0.080429,-0.015095,0.10335
42558,1.6521e+09,1,0.99141,-0.080198,-0.014799,0.10228
42605,1.6521e+09,1,0.99154,-0.080137,-0.014015,0.10119
42648,1.6521e+09,1,0.99155,-0.081035,-0.014216,0.10031
42691,1.6521e+09,1,0.99165,-0.081318,-0.013953,0.099099
42733,1.6521e+09,1,0.99175,-0.081069,-0.014008,0.098273
42773,1.6521e+09,1,0.99185,-0.081958,-0.013898,0.096523
42815,1.6522e+09,1,0.99189,-0.082713,-0.013919,0.095513
42856,1.6522e+09,1,0.99203,-0.083098,-0.014311,0.09367
42901,1.6522e+09,1,0.99216,-0.083319,-0.01481,0.091932
42946,1.6522e+09,1,0.99226,-0.083903,-0.015925,0.090184
42994,1.6522e+09,1,0.99236,-0.084147,-0.017111,0.088542
43043,1.6522e+09,1,0.99249,-0.084303,-0.018115,0.086814
43087,1.6522e+09,1,0.99266,-0.083831,-0.019222,0.08504
43132,1.6522e+09,1,0.99274,-0.084236,-0.021054,0.083262
43176,1.6522e+09,1,0.9929,-0.083589,-0.022152,0.081683
43222,1.6523e+09,1,0.99301,-0.08406,-0.024657,0.079151
43267,1.6523e+09,1,0.99317,-0.083076,-0.025987,0.077658
43312,1.6523e+09,1,0.99327,-0.082685,-0.028173,0.076053
43357,1.6523e+09,1,0.99333,-0.082498,-0.029791,0.074852
43401,1.6523e+09,1,0.99338,-0.082456,-0.031415,0.073583
43450,1.6523e+09,1,0.99348,-0.081589,-0.033193,0.072402
43495,1.6523e+09,1,0.9935,-0.081316,-0.035167,0.071478
43539,1.6523e+09,1,0.99353,-0.081224,-0.037038,0.070227
43589,1.6523e+09,1,0.99359,-0.080387,-0.039124,0.069167
43627,1.6524e+09,1,0.9937,-0.079749,-0.042023,0.066664
43669,1.6524e+09,1,0.9938,-0.078985,-0.045436,0.063644
43711,1.6524e+09,1,0.99387,-0.078541,-0.048444,0.060948
43755,1.6524e+09,1,0.99389,-0.078663,-0.051092,0.058234
43800,1.6524e+09,1,0.99393,-0.078057,-0.054142,0.055495
43847,1.6524e+09,1,0.99401,-0.077123,-0.056492,0.05298
43895,1.6524e+09,1,0.99396,-0.076919,-0.059799,0.050473
43940,1.6524e+09,1,0.99396,-0.07675,-0.062241,0.04774
43984,1.6524e+09,1,0.99396,-0.076338,-0.064533,0.045242
44029,1.6525e+09,1,0.99397,-0.075821,-0.06666,0.042707
44071,1.6525e+09,1,0.99395,-0.07556,-0.068783,0.040362
44112,1.6525e+09,1,0.99388,-0.075914,-0.070607,0.03807
44158,1.6525e+09,1,0.99385,-0.075755,-0.072111,0.036359
44204,1.6525e+09,1,0.99383,-0.076055,-0.072985,0.034593
44248,1.6525e+09,1,0.99381,-0.075724,-0.074231,0.033025
44293,1.6525e+09,1,0.99379,-0.075581,-0.075314,0.031529
44341,1.6525e+09,1,0.99383,-0.075545,-0.075315,0.03026
44388,1.6525e+09,1,0.99382,-0.075988,-0.075541,0.029086
44427,1.6526e+09,1,0.99383,-0.076232,-0.075567,0.027847
44471,1.6526e+09,1,0.99388,-0.076022,-0.075586,0.026616
44509,1.6526e+09,1,0.99396,-0.075359,-0.075627,0.025487
44554,1.6526e+09,1,0.99403,-0.075289,-0.075114,0.024525
44599,1.6526e+09,1,0.99402,-0.075882,-0.074795,0.023776
44646,1.6526e+09,1,0.99405,-0.076033,-0.074507,0.023129
44690,1.6526e+09,1,0.99412,-0.075663,-0.074117,0.022409
44735,1.6526e+09,1,0.99424,-0.075207,-0.07309,0.022067
44784,1.6526e+09,1,0.99425,-0.075741,-0.072579,0.02159
44829,1.6527e+09,1,0.99431,-0.075893,-0.071597,0.021334
44873,1.6527e+09,1,0.99439,-0.075956,-0.070551,0.021063
44919,1.6527e+09,1,0.99443,-0.076022,-0.070029,0.020703
44958,1.6527e+09,1,0.99452,-0.075684,-0.069083,0.020747
45004,1.6527e+09,1,0.99461,-0.075322,-0.068118,0.020801
45048,1.6527e+09,1,0.9947,-0.074758,-0.067469,0.020936
45092,1.6527e+09,1,0.99477,-0.074269,-0.06697,0.020977
45138,1.6527e+09,1,0.99485,-0.073835,-0.06604,0.021332
45185,1.6527e+09,1,0.99493,-0.073349,-0.065411,0.021406
45227,1.6528e+09,1,0.99505,-0.072271,-0.064582,0.022042
45273,1.6528e+09,1,0.99513,-0.07147,-0.063996,0.022526
45318,1.6528e+09,1,0.99528,-0.069964,-0.06326,0.023036
45363,1.6528e+09,1,0.99543,-0.068175,-0.062629,0.023422
45404,1.6528e+09,1,0.99553,-0.066991,-0.062112,0.024065
45448,1.6528e+09,1,0.99564,-0.065739,-0.061405,0.024595
45490,1.6528e+09,1,0.99579,-0.064057,-0.060524,0.025325
45534,1.6528e+09,1,0.99597,-0.061442,-0.059947,0.025974
45579,1.6528e+09,1,0.99609,-0.059741,-0.059359,0.026519
45624,1.6529e+09,1,0.99622,-0.058136,-0.058426,0.027442
45674,1.6529e+09,1,0.99637,-0.055933,-0.05778,0.028006
45719,1.6529e+09,1,0.99647,-0.054054,-0.05737,0.028828
45764,1.6529e+09,1,0.99655,-0.052851,-0.056704,0.029606
45809,1.6529e+09,1,0.99664,-0.051363,-0.056125,0.03024
45850,1.6529e+09,1,0.99677,-0.048904,-0.055379,0.031619
45895,1.6529e+09,1,0.9968,-0.048015,-0.055143,0.032184
45939,1.6529e+09,1,0.99687,-0.046827,-0.054478,0.033006
45983,1.6529e+09,1,0.99693,-0.045372,-0.054184,0.03383
46028,1.653e+09,1,0.99699,-0.043819,-0.053891,0.034528
46076,1.653e+09,1,0.99706,-0.042106,-0.053399,0.035395
46119,1.653e+09,1,0.99709,-0.040707,-0.053319,0.03609
46163,1.653e+09,1,0.9971,-0.03985,-0.053026,0.037237
46205,1.653e+09,1,0.99713,-0.038937,-0.052758,0.037973
46249,1.653e+09,1,0.99716,-0.037282,-0.052748,0.038738
46291,1.653e+09,1,0.99717,-0.035738,-0.052813,0.039791
46330,1.653e+09,1,0.99716,-0.034672,-0.052937,0.040718
46373,1.653e+09,1,0.99716,-0.033636,-0.05302,0.041468
46416,1.6531e+09,1,0.99715,-0.032928,-0.05325,0.042127
46458,1.6531e+09,1,0.9971,-0.032654,-0.053836,0.042841
46502,1.6531e+09,1,0.9971,-0.031226,-0.054169,0.043471
46548,1.6531e+09,1,0.99705,-0.03094,-0.054608,0.044149
46591,1.6531e+09,1,0.997,-0.030809,-0.054929,0.044953
46634,1.6531e+09,1,0.99691,-0.030802,-0.055988,0.04559
46678,1.6531e+09,1,0.9968,-0.030173,-0.057574,0.046617
46721,1.6531e+09,1,0.99668,-0.030454,-0.058663,0.04745
46763,1.6531e+09,1,0.99667,-0.029839,-0.058896,0.04782
46807,1.6532e+09,1,0.99653,-0.0303,-0.060485,0.048455
46849,1.6532e+09,1,0.99643,-0.030676,-0.061284,0.04935
46895,1.6532e+09,1,0.9964,-0.031058,-0.060687,0.050493
46944,1.6532e+09,1,0.99626,-0.032113,-0.061718,0.051241
46991,1.6532e+09,1,0.99618,-0.032699,-0.061568,0.052515
47035,1.6532e+09,1,0.99612,-0.032621,-0.061975,0.053346
47080,1.6532e+09,1,0.99602,-0.033141,-0.062398,0.05438
47122,1.6532e+09,1,0.99593,-0.03461,-0.062219,0.055332
47166,1.6532e+09,1,0.99577,-0.036418,-0.06285,0.056221
47208,1.6533e+09,1,0.99568,-0.037992,-0.06251,0.057244
47255,1.6533e+09,1,0.9956,-0.037896,-0.063157,0.057983
47299,1.6533e+09,1,0.99542,-0.039708,-0.063845,0.059005
47344,1.6533e+09,1,0.99535,-0.041357,-0.063297,0.059603
47392,1.6533e+09,1,0.99528,-0.042253,-0.063172,0.06027
47437,1.6533e+09,1,0.99509,-0.044464,-0.064029,0.061009
47482,1.6533e+09,1,0.995,-0.045807,-0.063703,0.06179
47527,1.6533e+09,1,0.99498,-0.04639,-0.063182,0.062281
47568,1.6533e+09,1,0.99477,-0.048745,-0.06391,0.063002
47613,1.6534e+09,1,0.99469,-0.050731,-0.063243,0.063348
47651,1.6534e+09,1,0.99464,-0.052653,-0.062247,0.063636
47695,1.6534e+09,1,0.99448,-0.05489,-0.062078,0.064337
47740,1.6534e+09,1,0.99445,-0.056215,-0.061294,0.064514
47785,1.6534e+09,1,0.99437,-0.05755,-0.060986,0.064719
47834,1.6534e+09,1,0.99433,-0.059069,-0.05997,0.065047
47879,1.6534e+09,1,0.99433,-0.060164,-0.058848,0.065015
47924,1.6534e+09,1,0.99418,-0.062284,-0.058748,0.06532
47969,1.6534e+09,1,0.9942,-0.06327,-0.057223,0.065441
48007,1.6534e+09,1,0.99424,-0.064079,-0.055912,0.065276
48052,1.6535e+09,1,0.99417,-0.065528,-0.055467,0.065168
48096,1.6535e+09,1,0.99415,-0.067136,-0.053628,0.06541
48140,1.6535e+09,1,0.99418,-0.067616,-0.052813,0.06523
48184,1.6535e+09,1,0.99423,-0.06764,-0.051987,0.065103
48228,1.6535e+09,1,0.99429,-0.068083,-0.050248,0.065034
48277,1.6535e+09,1,0.99425,-0.069305,-0.049231,0.065083
48321,1.6535e+09,1,0.99431,-0.069643,-0.047696,0.064972
48365,1.6535e+09,1,0.99433,-0.069893,-0.047072,0.06488
48413,1.6535e+09,1,0.99439,-0.070032,-0.045469,0.06489
48451,1.6536e+09,1,0.99445,-0.070008,-0.044214,0.064958
48496,1.6536e+09,1,0.99453,-0.069766,-0.043218,0.064619
48541,1.6536e+09,1,0.99456,-0.069656,-0.042752,0.064529
48582,1.6536e+09,1,0.99463,-0.069537,-0.041293,0.064571
48627,1.6536e+09,1,0.9947,-0.068961,-0.0409,0.064421
48672,1.6536e+09,1,0.99476,-0.068528,-0.04031,0.064203
48720,1.6536e+09,1,0.99477,-0.06884,-0.039778,0.064113
48765,1.6536e+09,1,0.99479,-0.069,-0.038806,0.06421
48810,1.6536e+09,1,0.99493,-0.067725,-0.037834,0.063927
48855,1.6537e+09,1,0.99501,-0.067169,-0.036956,0.0638
48901,1.6537e+09,1,0.9951,-0.066391,-0.036121,0.063711
48942,1.6537e+09,1,0.9952,-0.065364,-0.034756,0.064073
48987,1.6537e+09,1,0.99528,-0.064518,-0.034186,0.063894
49034,1.6537e+09,1,0.99538,-0.063569,-0.033382,0.063811
49079,1.6537e+09,1,0.99546,-0.062598,-0.032641,0.063881
49128,1.6537e+09,1,0.99555,-0.060797,-0.032156,0.06437
49173,1.6537e+09,1,0.99568,-0.059324,-0.031163,0.064334
49220,1.6537e+09,1,0.99575,-0.058203,-0.030702,0.06444
49265,1.6538e+09,1,0.99586,-0.056553,-0.030356,0.064342
49311,1.6538e+09,1,0.99597,-0.05462,-0.029783,0.064651
49348,1.6538e+09,1,0.99604,-0.05299,-0.029532,0.065003
49386,1.6538e+09,1,0.9961,-0.05157,-0.029086,0.065453
49432,1.6538e+09,1,0.99614,-0.050036,-0.028981,0.065999
49478,1.6538e+09,1,0.99618,-0.049241,-0.028137,0.066418
49522,1.6538e+09,1,0.99619,-0.048158,-0.02812,0.067088
49571,1.6538e+09,1,0.99626,-0.046299,-0.027894,0.067405
49615,1.6538e+09,1,0.99629,-0.044874,-0.027584,0.068015
49660,1.6539e+09,1,0.99632,-0.043691,-0.027268,0.068546
49706,1.6539e+09,1,0.9963,-0.043074,-0.027408,0.069116
