LineNo,TimeUS,C,Q1,Q2,Q3,Q4
310,1.6419e+09,0,-0.985,0.026075,-0.0046507,-0.17052
538,1.6419e+09,0,-0.98499,0.026095,-0.0046711,-0.17056
990,1.642e+09,0,-0.98498,0.026035,-0.0046995,-0.17061
1104,1.6421e+09,0,-0.98498,0.026073,-0.0047175,-0.17063
1211,1.6422e+09,0,-0.98497,0.026061,-0.0046941,-0.17067
1322,1.6422e+09,0,-0.98496,0.026072,-0.0047602,-0.17072
1501,1.6423e+09,0,-0.98496,0.02608,-0.0047358,-0.17075
1683,1.6423e+09,0,-0.98495,0.026067,-0.0047564,-0.17077
1727,1.6423e+09,0,-0.98495,0.026061,-0.0047608,-0.17078
1772,1.6423e+09,0,-0.98495,0.026057,-0.0047733,-0.17079
1816,1.6423e+09,0,-0.98495,0.026049,-0.0047798,-0.17079
1861,1.6423e+09,0,-0.98495,0.026038,-0.0047752,-0.17079
1908,1.6424e+09,0,-0.98495,0.026022,-0.00478,-0.1708
1953,1.6424e+09,0,-0.98495,0.026016,-0.0047796,-0.17082
1995,1.6424e+09,0,-0.98495,0.026022,-0.0047829,-0.17082
2043,1.6424e+09,0,-0.98494,0.026024,-0.0047903,-0.17084
2086,1.6424e+09,0,-0.98494,0.026025,-0.0047981,-0.17084
2128,1.6424e+09,0,-0.98494,0.026029,-0.0048042,-0.17084
2174,1.6424e+09,0,-0.98494,0.026032,-0.0048113,-0.17084
2218,1.6424e+09,0,-0.98494,0.026039,-0.004821,-0.17085
2260,1.6425e+09,0,-0.98494,0.026038,-0.0048423,-0.17085
2304,1.6425e+09,0,-0.98494,0.026024,-0.0048565,-0.17084
2346,1.6425e+09,0,-0.98494,0.02601,-0.0048626,-0.17084
2389,1.6425e+09,0,-0.98494,0.025999,-0.0048648,-0.17084
2432,1.6425e+09,0,-0.98495,0.025993,-0.0048694,-0.17083
2478,1.6425e+09,0,-0.98494,0.025983,-0.0048698,-0.17084
2522,1.6425e+09,0,-0.98494,0.025972,-0.0048783,-0.17084
2564,1.6425e+09,0,-0.98494,0.025964,-0.004888,-0.17085
2607,1.6425e+09,0,-0.98494,0.025947,-0.0048857,-0.17085
2652,1.6425e+09,0,-0.98494,0.025937,-0.004892,-0.17086
2698,1.6426e+09,0,-0.98494,0.025938,-0.0048921,-0.17086
2743,1.6426e+09,0,-0.98494,0.025945,-0.0049097,-0.17086
2788,1.6426e+09,0,-0.98494,0.025951,-0.0049178,-0.17086
2833,1.6426e+09,0,-0.98494,0.025961,-0.0049232,-0.17086
2882,1.6426e+09,0,-0.98494,0.025966,-0.0049305,-0.17086
2926,1.6426e+09,0,-0.98494,0.025967,-0.0049231,-0.17086
2973,1.6426e+09,0,-0.98494,0.025966,-0.0049247,-0.17086
3017,1.6426e+09,0,-0.98494,0.025957,-0.0049268,-0.17087
3062,1.6426e+09,0,-0.98494,0.025942,-0.0049311,-0.17087
3106,1.6427e+09,0,-0.98494,0.025932,-0.004941,-0.17087
3151,1.6427e+09,0,-0.98494,0.025919,-0.0049451,-0.17087
3196,1.6427e+09,0,-0.98494,0.025906,-0.0049512,-0.17088
3240,1.6427e+09,0,-0.98494,0.025899,-0.0049569,-0.17089
3287,1.6427e+09,0,-0.98494,0.025891,-0.0049684,-0.17089
3337,1.6427e+09,0,-0.98494,0.025898,-0.0049666,-0.17089
3383,1.6427e+09,0,-0.98494,0.025894,-0.0049724,-0.17089
3427,1.6427e+09,0,-0.98494,0.025898,-0.0049687,-0.1709
3472,1.6427e+09,0,-0.98493,0.025909,-0.0049615,-0.17091
3517,1.6427e+09,0,-0.98493,0.025913,-0.0049544,-0.17092
3564,1.6428e+09,0,-0.98493,0.02592,-0.0049478,-0.17092
3606,1.6428e+09,0,-0.98493,0.025928,-0.0049418,-0.17092
3650,1.6428e+09,0,-0.98493,0.025932,-0.0049422,-0.17093
3694,1.6428e+09,0,-0.98493,0.025938,-0.0049523,-0.17093
3741,1.6428e+09,0,-0.98492,0.025941,-0.0049575,-0.17096
3789,1.6428e+09,0,-0.98493,0.02595,-0.0049714,-0.17095
3834,1.6428e+09,0,-0.98492,0.025951,-0.0049772,-0.17096
3878,1.6428e+09,0,-0.98492,0.025951,-0.0049877,-0.17096
3923,1.6428e+09,0,-0.98492,0.025945,-0.0049903,-0.17097
3968,1.6429e+09,0,-0.98492,0.025936,-0.0049849,-0.17098
4012,1.6429e+09,0,-0.98492,0.02593,-0.0049769,-0.17098
4057,1.6429e+09,0,-0.98492,0.025925,-0.0049638,-0.17099
4101,1.6429e+09,0,-0.98492,0.02593,-0.0049642,-0.17099
4146,1.6429e+09,0,-0.98492,0.025938,-0.0049681,-0.171
4191,1.6429e+09,0,-0.98492,0.025943,-0.0049555,-0.17099
4240,1.6429e+09,0,-0.98492,0.025945,-0.0049608,-0.17099
4285,1.6429e+09,0,-0.98492,0.025956,-0.0049706,-0.171
4329,1.6429e+09,0,-0.98492,0.02595,-0.0049783,-0.17099
4374,1.6429e+09,0,-0.98492,0.025951,-0.0049788,-0.17099
4416,1.643e+09,0,-0.98492,0.025952,-0.0049776,-0.17098
4459,1.643e+09,0,-0.98492,0.025947,-0.0049572,-0.17099
4503,1.643e+09,0,-0.98492,0.025943,-0.0049496,-0.17099
4545,1.643e+09,0,-0.98492,0.025944,-0.0049505,-0.17099
4588,1.643e+09,0,-0.98492,0.025937,-0.0049394,-0.17101
4630,1.643e+09,0,-0.98491,0.025933,-0.0049395,-0.17102
4679,1.643e+09,0,-0.98491,0.025935,-0.0049459,-0.17102
4722,1.643e+09,0,-0.98491,0.025934,-0.0049444,-0.17103
4765,1.643e+09,0,-0.98491,0.025947,-0.004953,-0.17104
4808,1.6431e+09,0,-0.98491,0.025962,-0.0049583,-0.17104
4850,1.6431e+09,0,-0.98491,0.025964,-0.0049547,-0.17105
4893,1.6431e+09,0,-0.98491,0.025973,-0.0049574,-0.17105
4936,1.6431e+09,0,-0.9849,0.025975,-0.0049559,-0.17107
4979,1.6431e+09,0,-0.9849,0.025974,-0.0049551,-0.17107
5022,1.6431e+09,0,-0.9849,0.025974,-0.0049484,-0.17108
5065,1.6431e+09,0,-0.9849,0.02597,-0.0049494,-0.17108
5112,1.6431e+09,0,-0.9849,0.025957,-0.0049483,-0.17108
5155,1.6431e+09,0,-0.9849,0.025955,-0.0049437,-0.17108
5198,1.6431e+09,0,-0.9849,0.025951,-0.004936,-0.17107
5236,1.6432e+09,0,-0.9849,0.025937,-0.0049331,-0.17108
5280,1.6432e+09,0,-0.9849,0.025932,-0.0049332,-0.17108
5325,1.6432e+09,0,-0.9849,0.025927,-0.00494,-0.17109
5369,1.6432e+09,0,-0.9849,0.025924,-0.0049479,-0.17109
5414,1.6432e+09,0,-0.9849,0.025929,-0.0049535,-0.17109
5458,1.6432e+09,0,-0.9849,0.025942,-0.004952,-0.1711
5503,1.6432e+09,0,-0.9849,0.025943,-0.0049584,-0.1711
5552,1.6432e+09,0,-0.9849,0.025941,-0.0049513,-0.1711
5597,1.6432e+09,0,-0.9849,0.02594,-0.0049573,-0.17109
5641,1.6432e+09,0,-0.9849,0.025944,-0.0049537,-0.17109
5686,1.6433e+09,0,-0.9849,0.025946,-0.0049514,-0.1711
5731,1.6433e+09,0,-0.9849,0.025946,-0.0049487,-0.17109
5775,1.6433e+09,0,-0.9849,0.025944,-0.0049517,-0.17108
5821,1.6433e+09,0,-0.9849,0.025941,-0.004965,-0.17109
5868,1.6433e+09,0,-0.9849,0.025942,-0.0049789,-0.17109
5913,1.6433e+09,0,-0.9849,0.025936,-0.0049787,-0.1711
5957,1.6433e+09,0,-0.98489,0.025924,-0.0049936,-0.17114
6007,1.6433e+09,0,-0.98488,0.025887,-0.0049992,-0.1712
6051,1.6433e+09,0,-0.98488,0.02589,-0.00501,-0.17125
6094,1.6434e+09,0,-0.98487,0.025851,-0.004998,-0.17131
6138,1.6434e+09,0,-0.98487,0.02579,-0.0050026,-0.17132
6183,1.6434e+09,0,-0.98486,0.025875,-0.0050087,-0.17132
6230,1.6434e+09,0,-0.98487,0.025975,-0.005042,-0.17127
6275,1.6434e+09,0,-0.98489,0.025944,-0.0050614,-0.17117
6319,1.6434e+09,0,-0.9849,0.02591,-0.005072,-0.17111
6364,1.6434e+09,0,-0.98491,0.025906,-0.0050217,-0.17104
6411,1.6434e+09,0,-0.98493,0.025865,-0.0050306,-0.17093
6458,1.6434e+09,0,-0.98493,0.025874,-0.0049954,-0.17092
6502,1.6434e+09,0,-0.98493,0.026033,-0.0049884,-0.17091
6546,1.6435e+09,0,-0.98492,0.026038,-0.0050398,-0.17096
6594,1.6435e+09,0,-0.9849,0.026019,-0.0050405,-0.17106
6638,1.6435e+09,0,-0.98489,0.025951,-0.0050388,-0.17116
6683,1.6435e+09,0,-0.98488,0.025906,-0.0049743,-0.17124
6728,1.6435e+09,0,-0.98486,0.025902,-0.0050194,-0.17135
6773,1.6435e+09,0,-0.98485,0.025909,-0.0050635,-0.1714
6818,1.6435e+09,0,-0.98484,0.025936,-0.0051166,-0.17144
6866,1.6435e+09,0,-0.98485,0.025928,-0.0050994,-0.17141
6913,1.6435e+09,0,-0.98486,0.02584,-0.0050291,-0.17134
6958,1.6436e+09,0,-0.98488,0.025838,-0.005038,-0.17122
7000,1.6436e+09,0,-0.98489,0.025761,-0.0050749,-0.17117
7048,1.6436e+09,0,-0.9849,0.02579,-0.005086,-0.17114
7091,1.6436e+09,0,-0.9849,0.025883,-0.0050993,-0.17108
7133,1.6436e+09,0,-0.98491,0.025905,-0.0050693,-0.17103
7177,1.6436e+09,0,-0.98492,0.02577,-0.0050499,-0.171
7220,1.6436e+09,0,-0.98491,0.025823,-0.0051647,-0.17106
7266,1.6436e+09,0,-0.98489,0.025904,-0.0051366,-0.17117
7309,1.6436e+09,0,-0.98488,0.025876,-0.0051171,-0.17124
7352,1.6437e+09,0,-0.98486,0.025871,-0.005111,-0.17131
7397,1.6437e+09,0,-0.98486,0.02576,-0.0050255,-0.17138
7439,1.6437e+09,0,-0.98485,0.025643,-0.0051672,-0.17143
7479,1.6437e+09,0,-0.98484,0.025786,-0.0051042,-0.17145
7521,1.6437e+09,0,-0.98482,0.025894,-0.0051442,-0.17157
7565,1.6437e+09,0,-0.98484,0.025832,-0.0050586,-0.17144
7608,1.6437e+09,0,-0.98485,0.025563,-0.0051826,-0.17145
7651,1.6437e+09,0,-0.98488,0.025648,-0.0051926,-0.17125
7703,1.6437e+09,0,-0.98486,0.025735,-0.0051452,-0.17135
7747,1.6437e+09,0,-0.98491,0.025623,-0.0049877,-0.17109
7789,1.6438e+09,0,-0.9849,0.025542,-0.0052316,-0.17116
7835,1.6438e+09,0,-0.98494,0.02552,-0.0050584,-0.17092
7880,1.6438e+09,0,-0.98489,0.025808,-0.0051615,-0.17118
7927,1.6438e+09,0,-0.9849,0.025759,-0.0049148,-0.17111
7971,1.6438e+09,0,-0.98488,0.025662,-0.0052224,-0.17125
8016,1.6438e+09,0,-0.98491,0.025607,-0.0050392,-0.1711
8060,1.6438e+09,0,-0.98485,0.025847,-0.005257,-0.17137
8105,1.6438e+09,0,-0.98486,0.025761,-0.0048757,-0.17135
8155,1.6438e+09,0,-0.98484,0.025657,-0.0054055,-0.17146
8199,1.6439e+09,0,-0.98488,0.025407,-0.0051121,-0.17126
8245,1.6439e+09,0,-0.98485,0.025743,-0.0052445,-0.17141
8289,1.6439e+09,0,-0.98487,0.025311,-0.0050856,-0.17135
8335,1.6439e+09,0,-0.98487,0.0254,-0.0052507,-0.17135
8379,1.6439e+09,0,-0.98491,0.025116,-0.0052677,-0.17116
8424,1.6439e+09,0,-0.98489,0.025567,-0.0051197,-0.17123
8469,1.6439e+09,0,-0.9849,0.025277,-0.0052574,-0.17118
8514,1.6439e+09,0,-0.9849,0.025409,-0.0050835,-0.17116
8559,1.6439e+09,0,-0.98491,0.025277,-0.0053425,-0.17113
8607,1.6439e+09,0,-0.9849,0.025553,-0.0049309,-0.17116
8651,1.644e+09,0,-0.98489,0.025422,-0.005376,-0.17125
8692,1.644e+09,0,-0.98489,0.025424,-0.0050332,-0.17121
8737,1.644e+09,0,-0.98486,0.025576,-0.0053409,-0.17137
8783,1.644e+09,0,-0.98488,0.025387,-0.0049424,-0.17132
8824,1.644e+09,0,-0.98485,0.025484,-0.0052889,-0.17143
8870,1.644e+09,0,-0.98487,0.025417,-0.005159,-0.17136
8914,1.644e+09,0,-0.98484,0.025703,-0.0050681,-0.17148
8958,1.644e+09,0,-0.98487,0.025293,-0.0052056,-0.17138
9004,1.644e+09,0,-0.98486,0.025448,-0.005014,-0.17141
9052,1.644e+09,0,-0.98488,0.025337,-0.0053051,-0.17127
9098,1.6441e+09,0,-0.98485,0.025636,-0.0049141,-0.17141
9142,1.6441e+09,0,-0.98488,0.025375,-0.0052294,-0.17131
9187,1.6441e+09,0,-0.98487,0.025576,-0.0051564,-0.17131
9231,1.6441e+09,0,-0.98488,0.025443,-0.0051558,-0.17128
9276,1.6441e+09,0,-0.98486,0.025625,-0.0051667,-0.17138
9321,1.6441e+09,0,-0.98485,0.025604,-0.0050939,-0.17142
9365,1.6441e+09,0,-0.98487,0.02556,-0.0051889,-0.17132
9410,1.6441e+09,0,-0.98484,0.025777,-0.0049377,-0.17145
9455,1.6441e+09,0,-0.98485,0.025529,-0.0050202,-0.17142
9504,1.6441e+09,0,-0.98483,0.025859,-0.0049226,-0.1715
9550,1.6442e+09,0,-0.98483,0.025838,-0.0049565,-0.17153
9593,1.6442e+09,0,-0.98484,0.025561,-0.0049916,-0.17148
9636,1.6442e+09,0,-0.98483,0.025767,-0.0048686,-0.17151
9678,1.6442e+09,0,-0.98486,0.025644,-0.005187,-0.17134
9723,1.6442e+09,0,-0.98485,0.025823,-0.0048415,-0.17142
9765,1.6442e+09,0,-0.98487,0.025409,-0.0053134,-0.17136
9808,1.6442e+09,0,-0.98487,0.025489,-0.0049635,-0.17133
9851,1.6442e+09,0,-0.98488,0.025323,-0.0052738,-0.17129
9896,1.6442e+09,0,-0.98488,0.025255,-0.0049096,-0.17131
9940,1.6443e+09,0,-0.98487,0.025315,-0.0051865,-0.17138
9983,1.6443e+09,0,-0.98488,0.025262,-0.0051192,-0.17132
10026,1.6443e+09,0,-0.98486,0.025486,-0.00486,-0.17138
10070,1.6443e+09,0,-0.98487,0.025253,-0.0050855,-0.17139
10113,1.6443e+09,0,-0.98485,0.025596,-0.0047946,-0.17143
10156,1.6443e+09,0,-0.98485,0.025577,-0.0052384,-0.17145
10200,1.6443e+09,0,-0.98483,0.025879,-0.0047738,-0.1715
10243,1.6443e+09,0,-0.98482,0.025574,-0.0054124,-0.17159
10287,1.6443e+09,0,-0.98483,0.02571,-0.005042,-0.17151
10331,1.6444e+09,0,-0.98482,0.025861,-0.0046631,-0.17156
10375,1.6444e+09,0,-0.98484,0.025565,-0.0052043,-0.17149
10420,1.6444e+09,0,-0.98484,0.025863,-0.0048097,-0.17145
10466,1.6444e+09,0,-0.98485,0.025659,-0.0052489,-0.17139
10510,1.6444e+09,0,-0.98486,0.025682,-0.0049284,-0.17138
10555,1.6444e+09,0,-0.98486,0.025348,-0.005286,-0.17139
10599,1.6444e+09,0,-0.98488,0.025265,-0.005156,-0.17129
10644,1.6444e+09,0,-0.98487,0.025321,-0.0051254,-0.17134
10689,1.6444e+09,0,-0.98488,0.025155,-0.0050506,-0.17133
10734,1.6444e+09,0,-0.98487,0.025345,-0.0049539,-0.17137
10783,1.6445e+09,0,-0.98487,0.025353,-0.0050654,-0.17133
10828,1.6445e+09,0,-0.98485,0.025854,-0.0047835,-0.17139
10873,1.6445e+09,0,-0.98485,0.025447,-0.0051729,-0.17144
10917,1.6445e+09,0,-0.98486,0.02579,-0.004755,-0.17136
10962,1.6445e+09,0,-0.98485,0.025588,-0.0051136,-0.17143
11007,1.6445e+09,0,-0.98485,0.025797,-0.0046624,-0.1714
11051,1.6445e+09,0,-0.98484,0.025374,-0.0052328,-0.17149
11097,1.6445e+09,0,-0.98487,0.025543,-0.0048685,-0.17136
11142,1.6445e+09,0,-0.98486,0.025325,-0.0050437,-0.17144
11189,1.6446e+09,0,-0.98486,0.025334,-0.005383,-0.1714
11234,1.6446e+09,0,-0.98487,0.025674,-0.0048483,-0.17131
11279,1.6446e+09,0,-0.98487,0.025462,-0.0053848,-0.17131
11325,1.6446e+09,0,-0.98487,0.025629,-0.0048341,-0.17134
11369,1.6446e+09,0,-0.98486,0.025307,-0.0053131,-0.17139
11417,1.6446e+09,0,-0.98487,0.025436,-0.005053,-0.17135
11463,1.6446e+09,0,-0.98486,0.025909,-0.0043845,-0.17137
11508,1.6446e+09,0,-0.98485,0.025658,-0.0050753,-0.17144
11553,1.6446e+09,0,-0.98486,0.025918,-0.0045648,-0.17136
11598,1.6446e+09,0,-0.98484,0.025786,-0.005074,-0.17144
11643,1.6447e+09,0,-0.98485,0.025907,-0.0046721,-0.17142
11692,1.6447e+09,0,-0.98485,0.025524,-0.0051944,-0.17147
11737,1.6447e+09,0,-0.98485,0.025604,-0.0050915,-0.17143
11782,1.6447e+09,0,-0.98486,0.025531,-0.0049611,-0.1714
11826,1.6447e+09,0,-0.98485,0.025314,-0.0051835,-0.17148
11868,1.6447e+09,0,-0.98487,0.025325,-0.0047615,-0.17137
11913,1.6447e+09,0,-0.98486,0.02528,-0.0052948,-0.17141
11959,1.6447e+09,0,-0.98487,0.025593,-0.0044511,-0.17136
12003,1.6447e+09,0,-0.98486,0.025169,-0.0053752,-0.17145
12049,1.6448e+09,0,-0.98488,0.025478,-0.0044262,-0.17131
12092,1.6448e+09,0,-0.98486,0.025358,-0.0051646,-0.17141
12137,1.6448e+09,0,-0.98486,0.025556,-0.0047268,-0.17142
12181,1.6448e+09,0,-0.98485,0.02564,-0.0049709,-0.17146
12225,1.6448e+09,0,-0.98483,0.025838,-0.0052785,-0.17148
12268,1.6448e+09,0,-0.98484,0.025981,-0.004696,-0.17144
12310,1.6448e+09,0,-0.98483,0.025676,-0.0055043,-0.17151
12353,1.6448e+09,0,-0.98485,0.025929,-0.0045551,-0.17141
12399,1.6448e+09,0,-0.98484,0.02582,-0.0052964,-0.17148
12441,1.6448e+09,0,-0.98483,0.02587,-0.0049566,-0.1715
12486,1.6449e+09,0,-0.98484,0.025699,-0.0052037,-0.1715
12528,1.6449e+09,0,-0.98484,0.025754,-0.0052397,-0.17149
12575,1.6449e+09,0,-0.98485,0.025757,-0.0045606,-0.17145
12617,1.6449e+09,0,-0.98484,0.025469,-0.00527,-0.17151
12659,1.6449e+09,0,-0.98486,0.025577,-0.0045429,-0.1714
12703,1.6449e+09,0,-0.98485,0.025485,-0.0051902,-0.17145
12748,1.6449e+09,0,-0.98484,0.025878,-0.0049073,-0.17147
12791,1.6449e+09,0,-0.98484,0.025786,-0.0051621,-0.17147
12839,1.6449e+09,0,-0.98483,0.025788,-0.0053257,-0.17153
12879,1.645e+09,0,-0.98482,0.026107,-0.0048745,-0.17154
12923,1.645e+09,0,-0.98483,0.025793,-0.0050629,-0.17153
12972,1.645e+09,0,-0.98481,0.026031,-0.0050813,-0.17159
13017,1.645e+09,0,-0.98483,0.025882,-0.0045707,-0.17151
13062,1.645e+09,0,-0.98482,0.025573,-0.0050758,-0.17159
13107,1.645e+09,0,-0.98485,0.025557,-0.0044487,-0.17146
13151,1.645e+09,0,-0.98485,0.02532,-0.005096,-0.17147
13195,1.645e+09,0,-0.98486,0.025555,-0.0043975,-0.17141
13239,1.645e+09,0,-0.98486,0.025171,-0.0052185,-0.17144
13284,1.645e+09,0,-0.98486,0.025465,-0.0046811,-0.17139
13329,1.6451e+09,0,-0.98486,0.025354,-0.0052578,-0.17142
13373,1.6451e+09,0,-0.98485,0.02566,-0.0048305,-0.17141
13422,1.6451e+09,0,-0.98484,0.025565,-0.0052806,-0.17148
13466,1.6451e+09,0,-0.98484,0.025735,-0.0050806,-0.17148
13511,1.6451e+09,0,-0.98483,0.025793,-0.005035,-0.17152
13568,1.6452e+09,0,-0.98482,0.02554,-0.0051766,-0.17162
13613,1.6452e+09,0,-0.98484,0.025566,-0.0043687,-0.17152
13661,1.6452e+09,0,-0.98483,0.025172,-0.005231,-0.17159
13709,1.6452e+09,0,-0.98485,0.02529,-0.0049291,-0.17148
13754,1.6452e+09,0,-0.98483,0.025433,-0.0049269,-0.17158
13801,1.6452e+09,0,-0.98484,0.025302,-0.0050691,-0.17156
13846,1.6452e+09,0,-0.98486,0.025067,-0.0045619,-0.17148
13892,1.6452e+09,0,-0.98482,0.025181,-0.0052726,-0.17166
13937,1.6453e+09,0,-0.98484,0.025414,-0.0045486,-0.17155
13982,1.6453e+09,0,-0.9848,0.025476,-0.0050655,-0.17175
14028,1.6453e+09,0,-0.98481,0.025624,-0.0048757,-0.17166
14077,1.6453e+09,0,-0.98478,0.025873,-0.0048532,-0.17178
14122,1.6453e+09,0,-0.98479,0.025954,-0.0050645,-0.17171
14167,1.6453e+09,0,-0.98481,0.025793,-0.00468,-0.17167
14212,1.6453e+09,0,-0.98479,0.025864,-0.0053189,-0.17173
14256,1.6453e+09,0,-0.98482,0.025709,-0.0045821,-0.1716
14301,1.6453e+09,0,-0.9848,0.025609,-0.0053434,-0.17173
14345,1.6453e+09,0,-0.98484,0.025228,-0.0047621,-0.17153
14394,1.6454e+09,0,-0.9848,0.025481,-0.0050451,-0.17172
14434,1.6454e+09,0,-0.98482,0.025457,-0.0051043,-0.17161
14476,1.6454e+09,0,-0.98481,0.025336,-0.0049053,-0.1717
14525,1.6454e+09,0,-0.98481,0.0254,-0.0052572,-0.17166
14567,1.6454e+09,0,-0.98482,0.025385,-0.0046194,-0.17166
14612,1.6454e+09,0,-0.98479,0.025487,-0.005285,-0.17181
14654,1.6454e+09,0,-0.98481,0.0254,-0.0047504,-0.1717
14695,1.6454e+09,0,-0.98477,0.025761,-0.0053614,-0.17188
14737,1.6454e+09,0,-0.98481,0.025665,-0.0045822,-0.17169
14779,1.6455e+09,0,-0.98476,0.025823,-0.0051639,-0.17192
14822,1.6455e+09,0,-0.98479,0.025741,-0.0047098,-0.17174
14864,1.6455e+09,0,-0.98476,0.0259,-0.0050203,-0.17192
14907,1.6455e+09,0,-0.9848,0.025812,-0.0047489,-0.17173
14955,1.6455e+09,0,-0.98477,0.025651,-0.0048581,-0.17189
14998,1.6455e+09,0,-0.9848,0.02559,-0.0049527,-0.17174
15041,1.6455e+09,0,-0.98479,0.025442,-0.0045863,-0.1718
15083,1.6455e+09,0,-0.98481,0.025418,-0.0050218,-0.17172
15126,1.6455e+09,0,-0.98481,0.025163,-0.0047666,-0.17176
15168,1.6455e+09,0,-0.98479,0.025314,-0.0052565,-0.17183
15211,1.6456e+09,0,-0.98481,0.025212,-0.00471,-0.17176
15253,1.6456e+09,0,-0.98477,0.025236,-0.0049794,-0.17193
15298,1.6456e+09,0,-0.9848,0.025275,-0.0050908,-0.17179
15343,1.6456e+09,0,-0.98476,0.025491,-0.0049239,-0.17198
15391,1.6456e+09,0,-0.98478,0.025695,-0.0049821,-0.17182
15437,1.6456e+09,0,-0.98477,0.025657,-0.004846,-0.17191
15481,1.6456e+09,0,-0.98477,0.025891,-0.0050946,-0.17185
15527,1.6456e+09,0,-0.98477,0.025965,-0.0046613,-0.17185
15574,1.6456e+09,0,-0.98474,0.026009,-0.0050571,-0.17197
15619,1.6457e+09,0,-0.9848,0.025758,-0.0049777,-0.1717
15664,1.6457e+09,0,-0.98477,0.025766,-0.0049268,-0.17188
15708,1.6457e+09,0,-0.98483,0.02547,-0.0049597,-0.1716
15753,1.6457e+09,0,-0.9848,0.025263,-0.0050939,-0.17177
15803,1.6457e+09,0,-0.98481,0.02546,-0.0052716,-0.1717
15847,1.6457e+09,0,-0.98481,0.025342,-0.0049961,-0.17173
15892,1.6457e+09,0,-0.98479,0.025413,-0.0053672,-0.17182
15937,1.6457e+09,0,-0.9848,0.025234,-0.0050385,-0.17175
15983,1.6457e+09,0,-0.98475,0.025663,-0.0052408,-0.172
16029,1.6457e+09,0,-0.98479,0.02538,-0.0047973,-0.1718
16068,1.6458e+09,0,-0.98476,0.025519,-0.0049149,-0.17198
16113,1.6458e+09,0,-0.98477,0.025666,-0.004888,-0.17188
16160,1.6458e+09,0,-0.98476,0.025816,-0.0046348,-0.17195
16205,1.6458e+09,0,-0.98476,0.025899,-0.0049641,-0.17193
16255,1.6458e+09,0,-0.98477,0.025731,-0.0047787,-0.17189
16300,1.6458e+09,0,-0.98475,0.026137,-0.0050958,-0.17195
16344,1.6458e+09,0,-0.98478,0.025954,-0.0048383,-0.1718
16391,1.6458e+09,0,-0.98476,0.025987,-0.0049984,-0.17191
16441,1.6458e+09,0,-0.98476,0.025737,-0.0051536,-0.17193
16485,1.6459e+09,0,-0.98479,0.025509,-0.004736,-0.17183
16530,1.6459e+09,0,-0.98476,0.025614,-0.0050822,-0.17193
16575,1.6459e+09,0,-0.98479,0.025175,-0.0048342,-0.17187
16619,1.6459e+09,0,-0.98475,0.025607,-0.0051556,-0.17202
16665,1.6459e+09,0,-0.98478,0.025294,-0.005021,-0.17186
16713,1.6459e+09,0,-0.98476,0.02539,-0.005051,-0.17197
16758,1.6459e+09,0,-0.98477,0.025261,-0.0052621,-0.17192
16802,1.6459e+09,0,-0.98476,0.025364,-0.0049474,-0.172
16848,1.6459e+09,0,-0.98476,0.025466,-0.0052624,-0.17198
16894,1.6459e+09,0,-0.98477,0.025339,-0.0048898,-0.17195
16937,1.646e+09,0,-0.98474,0.025857,-0.0051851,-0.17205
16979,1.646e+09,0,-0.98476,0.025756,-0.0047987,-0.17191
17022,1.646e+09,0,-0.98474,0.026002,-0.0049246,-0.17201
17065,1.646e+09,0,-0.98476,0.025676,-0.0049694,-0.17195
17107,1.646e+09,0,-0.98473,0.025907,-0.0048479,-0.17205
17154,1.646e+09,0,-0.98475,0.025765,-0.0050647,-0.172
17196,1.646e+09,0,-0.98474,0.025655,-0.0047881,-0.17205
17238,1.646e+09,0,-0.98474,0.025501,-0.0052782,-0.17205
17283,1.646e+09,0,-0.98474,0.025403,-0.0046043,-0.17208
17325,1.646e+09,0,-0.98473,0.02556,-0.0049898,-0.17212
17372,1.6461e+09,0,-0.98475,0.025514,-0.004948,-0.17203
17414,1.6461e+09,0,-0.98475,0.025715,-0.0047017,-0.17203
17457,1.6461e+09,0,-0.98474,0.025581,-0.0052673,-0.17204
17500,1.6461e+09,0,-0.98476,0.025439,-0.0046579,-0.17196
17542,1.6461e+09,0,-0.98475,0.025398,-0.005415,-0.17204
17590,1.6461e+09,0,-0.98477,0.025376,-0.0044662,-0.17193
17632,1.6461e+09,0,-0.98476,0.025302,-0.0052102,-0.17199
17675,1.6461e+09,0,-0.98478,0.025193,-0.0046534,-0.17191
17717,1.6461e+09,0,-0.98476,0.025574,-0.0047061,-0.17195
17763,1.6462e+09,0,-0.98476,0.025367,-0.0052547,-0.17196
17808,1.6462e+09,0,-0.98477,0.025308,-0.0047109,-0.17194
17852,1.6462e+09,0,-0.98475,0.025344,-0.0053066,-0.17204
17896,1.6462e+09,0,-0.98476,0.025391,-0.0045591,-0.17199
17941,1.6462e+09,0,-0.98474,0.025463,-0.0050744,-0.17208
17989,1.6462e+09,0,-0.98476,0.025313,-0.0046806,-0.17202
18038,1.6462e+09,0,-0.98473,0.025847,-0.0048461,-0.17208
18083,1.6462e+09,0,-0.98475,0.025525,-0.0051282,-0.17204
18130,1.6462e+09,0,-0.98475,0.025346,-0.0048157,-0.17203
18178,1.6463e+09,0,-0.98473,0.025791,-0.0049107,-0.17207
18229,1.6463e+09,0,-0.98474,0.025573,-0.0052511,-0.17206
18274,1.6463e+09,0,-0.98476,0.02554,-0.0048623,-0.17197
18318,1.6463e+09,0,-0.98473,0.025648,-0.0052768,-0.17209
18363,1.6463e+09,0,-0.98477,0.025405,-0.0046021,-0.17195
18412,1.6463e+09,0,-0.98474,0.025638,-0.0049742,-0.17203
18457,1.6463e+09,0,-0.98477,0.025302,-0.0044761,-0.17196
18505,1.6463e+09,0,-0.98474,0.025817,-0.0047691,-0.17202
18551,1.6463e+09,0,-0.98473,0.025779,-0.0049679,-0.1721
18594,1.6464e+09,0,-0.98475,0.025478,-0.0046027,-0.17201
18638,1.6464e+09,0,-0.98471,0.025878,-0.0049893,-0.17218
18684,1.6464e+09,0,-0.98475,0.025514,-0.0045361,-0.17203
18729,1.6464e+09,0,-0.98473,0.02565,-0.0049909,-0.1721
18773,1.6464e+09,0,-0.98474,0.025487,-0.0047786,-0.17209
18818,1.6464e+09,0,-0.98474,0.025576,-0.0049658,-0.17208
18866,1.6464e+09,0,-0.98474,0.025605,-0.0047861,-0.17208
18911,1.6464e+09,0,-0.98476,0.025479,-0.004926,-0.17199
18956,1.6464e+09,0,-0.98472,0.025777,-0.0050444,-0.17213
19001,1.6465e+09,0,-0.98476,0.025532,-0.0046172,-0.17196
19049,1.6465e+09,0,-0.98476,0.025507,-0.0048808,-0.17196
19094,1.6465e+09,0,-0.98476,0.025475,-0.004839,-0.17199
19139,1.6465e+09,0,-0.98475,0.025667,-0.0048558,-0.17201
19184,1.6465e+09,0,-0.98475,0.025703,-0.0049068,-0.17202
19229,1.6465e+09,0,-0.98475,0.025705,-0.0048493,-0.172
19273,1.6465e+09,0,-0.98473,0.025749,-0.0050505,-0.17211
19322,1.6465e+09,0,-0.98474,0.025698,-0.0044192,-0.17206
19367,1.6465e+09,0,-0.98473,0.025673,-0.0048639,-0.17211
19411,1.6465e+09,0,-0.98475,0.025347,-0.0043679,-0.17205
19459,1.6466e+09,0,-0.98473,0.025537,-0.0049301,-0.17216
19498,1.6466e+09,0,-0.98473,0.025495,-0.0047477,-0.17214
19541,1.6466e+09,0,-0.98475,0.025522,-0.0047814,-0.17204
19584,1.6466e+09,0,-0.98471,0.025654,-0.0051387,-0.17221
19627,1.6466e+09,0,-0.98475,0.02557,-0.0044369,-0.17204
19670,1.6466e+09,0,-0.98473,0.025622,-0.0049359,-0.17213
19713,1.6466e+09,0,-0.98477,0.02533,-0.0045083,-0.17197
19760,1.6466e+09,0,-0.98472,0.025647,-0.0049198,-0.17215
19803,1.6466e+09,0,-0.98475,0.025525,-0.0044059,-0.17204
19845,1.6466e+09,0,-0.98474,0.025613,-0.0047092,-0.17208
19889,1.6467e+09,0,-0.98474,0.025485,-0.0046188,-0.17209
19935,1.6467e+09,0,-0.98473,0.025856,-0.0045415,-0.17209
19977,1.6467e+09,0,-0.98471,0.025981,-0.0048718,-0.1722
20021,1.6467e+09,0,-0.98474,0.025569,-0.0045479,-0.17206
20064,1.6467e+09,0,-0.98472,0.025763,-0.0048793,-0.17218
20108,1.6467e+09,0,-0.98473,0.025511,-0.0045023,-0.17213
20155,1.6467e+09,0,-0.98475,0.025384,-0.0047908,-0.17207
20198,1.6467e+09,0,-0.98473,0.025357,-0.0047922,-0.17219
20240,1.6467e+09,0,-0.98473,0.025538,-0.0048788,-0.17213
20286,1.6468e+09,0,-0.98471,0.025707,-0.0048804,-0.17223
20328,1.6468e+09,0,-0.98475,0.02523,-0.0044595,-0.17207
20372,1.6468e+09,0,-0.98474,0.025354,-0.0046773,-0.17213
20417,1.6468e+09,0,-0.98472,0.025641,-0.0045882,-0.17221
20461,1.6468e+09,0,-0.98474,0.025673,-0.0045976,-0.17205
20507,1.6468e+09,0,-0.9847,0.025986,-0.0047999,-0.17225
20552,1.6468e+09,0,-0.98472,0.025839,-0.0045136,-0.17213
20602,1.6468e+09,0,-0.9847,0.026149,-0.0046492,-0.17224
20647,1.6468e+09,0,-0.98474,0.025831,-0.0045484,-0.17206
20692,1.6469e+09,0,-0.98471,0.025977,-0.0046885,-0.1722
20737,1.6469e+09,0,-0.98472,0.025869,-0.0045382,-0.17214
20786,1.6469e+09,0,-0.98473,0.025564,-0.0046802,-0.17216
20831,1.6469e+09,0,-0.9847,0.025866,-0.0047963,-0.17225
20876,1.6469e+09,0,-0.98472,0.025676,-0.0046883,-0.17218
20922,1.6469e+09,0,-0.9847,0.025935,-0.0046627,-0.17227
20967,1.6469e+09,0,-0.98473,0.025614,-0.004667,-0.17214
21011,1.6469e+09,0,-0.98471,0.025753,-0.0046761,-0.17223
21060,1.6469e+09,0,-0.98473,0.025519,-0.0045718,-0.17214
21107,1.647e+09,0,-0.98474,0.02523,-0.0047261,-0.17213
21148,1.647e+09,0,-0.98472,0.025529,-0.0049025,-0.17222
21197,1.647e+09,0,-0.98473,0.025639,-0.0045911,-0.17215
21242,1.647e+09,0,-0.98472,0.025781,-0.0046394,-0.17218
21287,1.647e+09,0,-0.98473,0.025563,-0.0046025,-0.17216
21331,1.647e+09,0,-0.98473,0.025617,-0.0045395,-0.17213
21376,1.647e+09,0,-0.98471,0.025731,-0.0044607,-0.17221
21421,1.647e+09,0,-0.98474,0.025466,-0.0044193,-0.17213
21470,1.647e+09,0,-0.98471,0.025699,-0.0046877,-0.17226
21515,1.647e+09,0,-0.98472,0.025621,-0.004503,-0.17219
21560,1.6471e+09,0,-0.98469,0.025984,-0.0046204,-0.1723
21606,1.6471e+09,0,-0.98472,0.025652,-0.0045898,-0.17217
21650,1.6471e+09,0,-0.9847,0.025837,-0.004732,-0.17227
21696,1.6471e+09,0,-0.98473,0.025422,-0.0045095,-0.17216
21740,1.6471e+09,0,-0.98473,0.025534,-0.004565,-0.17217
21786,1.6471e+09,0,-0.98474,0.02525,-0.0046118,-0.17215
21830,1.6471e+09,0,-0.98474,0.025233,-0.0045559,-0.17215
21875,1.6471e+09,0,-0.98472,0.025409,-0.0045493,-0.17223
21924,1.6471e+09,0,-0.98475,0.02507,-0.0044692,-0.17211
21970,1.6472e+09,0,-0.98471,0.025643,-0.004618,-0.17226
22012,1.6472e+09,0,-0.98472,0.025478,-0.0043721,-0.17221
22058,1.6472e+09,0,-0.98473,0.025472,-0.0044678,-0.17214
22101,1.6472e+09,0,-0.98469,0.026012,-0.0046874,-0.17229
22143,1.6472e+09,0,-0.98472,0.0257,-0.0044858,-0.1722
22186,1.6472e+09,0,-0.9847,0.025952,-0.0044846,-0.17224
22230,1.6472e+09,0,-0.98473,0.025588,-0.0045664,-0.17216
22273,1.6472e+09,0,-0.98472,0.025738,-0.0044903,-0.1722
22316,1.6472e+09,0,-0.98472,0.025425,-0.0045209,-0.1722
22362,1.6472e+09,0,-0.98474,0.025345,-0.0043171,-0.17213
22407,1.6473e+09,0,-0.98473,0.025241,-0.0046247,-0.17221
22449,1.6473e+09,0,-0.98474,0.025245,-0.0043262,-0.17213
22493,1.6473e+09,0,-0.98471,0.025368,-0.0045614,-0.17226
22539,1.6473e+09,0,-0.98473,0.025236,-0.00448,-0.17217
22581,1.6473e+09,0,-0.9847,0.025604,-0.004639,-0.17228
22624,1.6473e+09,0,-0.98472,0.025299,-0.0044402,-0.17225
22666,1.6473e+09,0,-0.98472,0.025551,-0.0044713,-0.17223
22710,1.6473e+09,0,-0.98471,0.025417,-0.0045594,-0.17225
22751,1.6473e+09,0,-0.98472,0.025646,-0.004378,-0.17219
22797,1.6474e+09,0,-0.9847,0.025689,-0.0045444,-0.17227
22842,1.6474e+09,0,-0.98474,0.025495,-0.0043173,-0.17211
22887,1.6474e+09,0,-0.9847,0.025771,-0.0046851,-0.17228
22935,1.6474e+09,0,-0.98472,0.0254,-0.0044789,-0.17225
22979,1.6474e+09,0,-0.98472,0.025552,-0.004375,-0.17222
23024,1.6474e+09,0,-0.98472,0.025161,-0.0044664,-0.17226
23070,1.6474e+09,0,-0.98472,0.025332,-0.0043628,-0.17226
23115,1.6474e+09,0,-0.9847,0.025349,-0.0043021,-0.17234
23160,1.6474e+09,0,-0.98473,0.025251,-0.0045595,-0.17221
23208,1.6475e+09,0,-0.9847,0.025447,-0.0045325,-0.17232
23253,1.6475e+09,0,-0.98471,0.025234,-0.0046687,-0.17227
23298,1.6475e+09,0,-0.98469,0.025742,-0.0045772,-0.17234
23343,1.6475e+09,0,-0.98472,0.025171,-0.0045592,-0.17225
23391,1.6475e+09,0,-0.98471,0.025379,-0.0046061,-0.17231
23432,1.6475e+09,0,-0.98469,0.025761,-0.0043671,-0.17233
23477,1.6475e+09,0,-0.98473,0.025329,-0.0044009,-0.17217
23521,1.6475e+09,0,-0.9847,0.025676,-0.0046145,-0.17228
23568,1.6475e+09,0,-0.98472,0.025326,-0.0043917,-0.17222
23615,1.6475e+09,0,-0.9847,0.025828,-0.0044961,-0.17227
23657,1.6476e+09,0,-0.98473,0.025236,-0.0043578,-0.17217
23702,1.6476e+09,0,-0.98472,0.025499,-0.0044618,-0.17223
23746,1.6476e+09,0,-0.98472,0.02535,-0.0043572,-0.17223
23791,1.6476e+09,0,-0.98474,0.025269,-0.0043621,-0.17213
23836,1.6476e+09,0,-0.98472,0.025444,-0.0045078,-0.17222
23881,1.6476e+09,0,-0.98472,0.025428,-0.0045986,-0.17219
23925,1.6476e+09,0,-0.9847,0.02593,-0.0046115,-0.17228
23971,1.6476e+09,0,-0.98474,0.025259,-0.0045371,-0.17215
24017,1.6476e+09,0,-0.9847,0.025703,-0.0047111,-0.17227
24061,1.6477e+09,0,-0.98472,0.025381,-0.004245,-0.17226
24110,1.6477e+09,0,-0.98473,0.025253,-0.0047177,-0.17216
24154,1.6477e+09,0,-0.98471,0.025702,-0.0044603,-0.17222
24200,1.6477e+09,0,-0.98473,0.025272,-0.0045781,-0.1722
24245,1.6477e+09,0,-0.98472,0.025216,-0.0045684,-0.17224
24289,1.6477e+09,0,-0.98473,0.025662,-0.0042753,-0.17214
24337,1.6477e+09,0,-0.98471,0.025593,-0.0046262,-0.17226
24382,1.6477e+09,0,-0.98475,0.024633,-0.0045128,-0.17215
24428,1.6477e+09,0,-0.98473,0.024913,-0.0043804,-0.17222
24475,1.6477e+09,0,-0.98471,0.02576,-0.0044539,-0.17225
24523,1.6478e+09,0,-0.98471,0.025635,-0.0045507,-0.17224
24569,1.6478e+09,0,-0.98468,0.025959,-0.0044784,-0.17236
24611,1.6478e+09,0,-0.98469,0.025538,-0.0042655,-0.17236
24655,1.6478e+09,0,-0.98473,0.024533,-0.0041347,-0.17231
24698,1.6478e+09,0,-0.98473,0.024204,-0.0043669,-0.17232
24740,1.6478e+09,0,-0.9847,0.024956,-0.0043407,-0.17239
24784,1.6478e+09,0,-0.9847,0.025199,-0.0043542,-0.17236
24826,1.6478e+09,0,-0.98473,0.02459,-0.0045157,-0.17231
24869,1.6478e+09,0,-0.98474,0.02396,-0.0042826,-0.17229
24911,1.6479e+09,0,-0.98474,0.024507,-0.0043944,-0.17225
24957,1.6479e+09,0,-0.98471,0.024895,-0.0046044,-0.17236
25004,1.6479e+09,0,-0.98471,0.025149,-0.0047397,-0.17231
25047,1.6479e+09,0,-0.98471,0.02473,-0.0043423,-0.17239
25090,1.6479e+09,0,-0.98472,0.024564,-0.0045554,-0.17234
25132,1.6479e+09,0,-0.98471,0.024845,-0.0046608,-0.17238
25175,1.6479e+09,0,-0.98469,0.025466,-0.0046624,-0.17238
25217,1.6479e+09,0,-0.98469,0.024877,-0.0042351,-0.17245
25261,1.6479e+09,0,-0.98472,0.024447,-0.0044053,-0.17237
25304,1.6479e+09,0,-0.98471,0.024521,-0.0041655,-0.17243
25347,1.648e+09,0,-0.98471,0.024877,-0.0043435,-0.17238
25392,1.648e+09,0,-0.9847,0.024971,-0.0038775,-0.17243
25433,1.648e+09,0,-0.98471,0.024613,-0.004128,-0.17239
25477,1.648e+09,0,-0.98474,0.0238,-0.0038933,-0.17233
25522,1.648e+09,0,-0.98473,0.024143,-0.0041679,-0.17234
25566,1.648e+09,0,-0.98472,0.024853,-0.0037712,-0.1723
25612,1.648e+09,0,-0.98471,0.024807,-0.0039994,-0.17238
25657,1.648e+09,0,-0.98473,0.024254,-0.0039574,-0.17234
25701,1.648e+09,0,-0.98474,0.023766,-0.0040206,-0.17234
25746,1.648e+09,0,-0.98473,0.024345,-0.0041219,-0.17233
25791,1.6481e+09,0,-0.98469,0.025027,-0.0041791,-0.17244
25836,1.6481e+09,0,-0.98471,0.024765,-0.0037943,-0.17241
25885,1.6481e+09,0,-0.98471,0.02414,-0.0039703,-0.17245
25930,1.6481e+09,0,-0.98472,0.024419,-0.0039552,-0.1724
25975,1.6481e+09,0,-0.98468,0.025054,-0.0042116,-0.17252
26020,1.6481e+09,0,-0.98467,0.025509,-0.0038512,-0.17253
26065,1.6481e+09,0,-0.98468,0.024893,-0.0038349,-0.17257
26109,1.6481e+09,0,-0.98471,0.024138,-0.0038495,-0.1725
26154,1.6481e+09,0,-0.98471,0.023731,-0.0040444,-0.17253
26197,1.6482e+09,0,-0.98473,0.023295,-0.0038462,-0.17248
26242,1.6482e+09,0,-0.98469,0.024462,-0.0040845,-0.17255
26288,1.6482e+09,0,-0.98466,0.024872,-0.0038792,-0.17268
26337,1.6482e+09,0,-0.98468,0.023938,-0.0038258,-0.17266
26381,1.6482e+09,0,-0.98474,0.02237,-0.0038048,-0.17256
26426,1.6482e+09,0,-0.98472,0.023367,-0.0040149,-0.17253
26471,1.6482e+09,0,-0.98466,0.024685,-0.0043156,-0.17266
26515,1.6482e+09,0,-0.98467,0.024377,-0.0035799,-0.17269
26560,1.6482e+09,0,-0.98464,0.024228,-0.0033486,-0.17288
26606,1.6483e+09,0,-0.9847,0.023307,-0.0035902,-0.17266
26651,1.6483e+09,0,-0.98466,0.024088,-0.0039199,-0.17274
26695,1.6483e+09,0,-0.9846,0.025423,-0.0036234,-0.17294
26742,1.6483e+09,0,-0.98465,0.02432,-0.0033361,-0.17283
26790,1.6483e+09,0,-0.9847,0.022983,-0.0036471,-0.17268
26836,1.6483e+09,0,-0.98468,0.023398,-0.003842,-0.17276
26881,1.6483e+09,0,-0.9847,0.02364,-0.0039458,-0.17261
26925,1.6483e+09,0,-0.98468,0.024099,-0.0036126,-0.17269
26970,1.6483e+09,0,-0.98466,0.023613,-0.0035404,-0.17283
27014,1.6483e+09,0,-0.98474,0.022294,-0.0035051,-0.17257
27061,1.6484e+09,0,-0.9847,0.022917,-0.0040868,-0.1727
27103,1.6484e+09,0,-0.98469,0.022833,-0.0040367,-0.17279
27145,1.6484e+09,0,-0.98463,0.023849,-0.0041071,-0.17298
27188,1.6484e+09,0,-0.98466,0.023114,-0.0030159,-0.17295
27235,1.6484e+09,0,-0.98465,0.023415,-0.002836,-0.17295
27278,1.6484e+09,0,-0.98459,0.023594,-0.0041203,-0.17322
27321,1.6484e+09,0,-0.98462,0.023605,-0.0040437,-0.17306
27367,1.6484e+09,0,-0.98463,0.02393,-0.0040854,-0.17296
27410,1.6484e+09,0,-0.98461,0.024694,-0.0028533,-0.17299
27452,1.6485e+09,0,-0.98466,0.022938,-0.0027552,-0.17293
27495,1.6485e+09,0,-0.98466,0.021822,-0.0045096,-0.17306
27538,1.6485e+09,0,-0.98461,0.023938,-0.0040499,-0.1731
27580,1.6485e+09,0,-0.9846,0.024441,-0.0033296,-0.17309
27627,1.6485e+09,0,-0.98466,0.022882,-0.0030259,-0.17295
27671,1.6485e+09,0,-0.98468,0.021474,-0.0037655,-0.173
27714,1.6485e+09,0,-0.98466,0.021101,-0.0048672,-0.17314
27760,1.6485e+09,0,-0.98463,0.021876,-0.0045837,-0.17322
27808,1.6485e+09,0,-0.98456,0.023127,-0.0042837,-0.17343
27844,1.6486e+09,0,-0.98454,0.024017,-0.0037738,-0.17349
27888,1.6486e+09,0,-0.98453,0.024894,-0.0034423,-0.17343
27932,1.6486e+09,0,-0.98456,0.024099,-0.0035522,-0.17334
27976,1.6486e+09,0,-0.9846,0.023087,-0.0038298,-0.17326
28020,1.6486e+09,0,-0.98462,0.022286,-0.0043317,-0.17323
28070,1.6486e+09,0,-0.98461,0.022828,-0.0046572,-0.17322
28114,1.6486e+09,0,-0.98461,0.02284,-0.0047531,-0.1732
28160,1.6486e+09,0,-0.98463,0.022576,-0.0048794,-0.1731
28205,1.6486e+09,0,-0.98463,0.022359,-0.0054472,-0.17316
28249,1.6487e+09,0,-0.98461,0.022544,-0.0059163,-0.1732
28294,1.6487e+09,0,-0.98455,0.023004,-0.0060363,-0.17346
28338,1.6487e+09,0,-0.98454,0.02299,-0.0058415,-0.17354
28383,1.6487e+09,0,-0.98453,0.022308,-0.0056089,-0.17369
28429,1.6487e+09,0,-0.98452,0.021422,-0.0055359,-0.17386
28475,1.6487e+09,0,-0.98453,0.021298,-0.0056952,-0.17383
28523,1.6487e+09,0,-0.98451,0.021095,-0.0054798,-0.17397
28569,1.6487e+09,0,-0.98451,0.020749,-0.0053472,-0.17404
28618,1.6487e+09,0,-0.98448,0.020458,-0.0055715,-0.1742
28662,1.6488e+09,0,-0.98454,0.018974,-0.0048752,-0.17405
28706,1.6488e+09,0,-0.98456,0.017572,-0.0045147,-0.17408
28752,1.6488e+09,0,-0.98461,0.016461,-0.0045608,-0.17393
28798,1.6488e+09,0,-0.98466,0.015896,-0.0037647,-0.1737
28842,1.6488e+09,0,-0.98469,0.015158,-0.0028298,-0.17365
28888,1.6488e+09,0,-0.98472,0.01413,-0.0023835,-0.17357
28940,1.6488e+09,0,-0.9847,0.013546,-0.0017461,-0.17371
28985,1.6488e+09,0,-0.98469,0.012884,-0.00045548,-0.17385
29030,1.6488e+09,0,-0.98467,0.011953,0.00086918,-0.17404
29074,1.6489e+09,0,-0.98466,0.011238,0.0022877,-0.17412
29119,1.6489e+09,0,-0.9846,0.010722,0.0030099,-0.17445
29163,1.6489e+09,0,-0.98451,0.010917,0.0045689,-0.17492
29208,1.6489e+09,0,-0.98441,0.010207,0.0059719,-0.17548
29253,1.6489e+09,0,-0.98434,0.0087875,0.0072274,-0.17589
29298,1.6489e+09,0,-0.98425,0.0081821,0.0084129,-0.17637
29345,1.6489e+09,0,-0.98412,0.00773,0.0099658,-0.17706
29393,1.6489e+09,0,-0.98398,0.0072184,0.011628,-0.17778
29439,1.6489e+09,0,-0.98378,0.0062434,0.012881,-0.1788
29484,1.6489e+09,0,-0.98363,0.0059704,0.014044,-0.17955
29528,1.649e+09,0,-0.98344,0.0045041,0.016735,-0.18041
29570,1.649e+09,0,-0.98323,0.0045768,0.018076,-0.18141
29612,1.649e+09,0,-0.98296,0.0046027,0.020044,-0.18269
29655,1.649e+09,0,-0.98275,0.0045402,0.022104,-0.18357
29697,1.649e+09,0,-0.98255,0.0043838,0.023807,-0.18442
29741,1.649e+09,0,-0.98229,0.0043538,0.025314,-0.18558
29784,1.649e+09,0,-0.98205,0.0039461,0.027339,-0.18661
29831,1.649e+09,0,-0.98179,0.0032497,0.028716,-0.18775
29874,1.649e+09,0,-0.98153,0.003447,0.029682,-0.18896
29916,1.6491e+09,0,-0.98126,0.0039065,0.030699,-0.19017
29959,1.6491e+09,0,-0.98097,0.0040401,0.031919,-0.19146
30003,1.6491e+09,0,-0.98069,0.0037835,0.03287,-0.19277
30046,1.6491e+09,0,-0.98044,0.0038605,0.033227,-0.19393
30088,1.6491e+09,0,-0.98012,0.0050376,0.033894,-0.19541
30131,1.6491e+09,0,-0.97974,0.0056997,0.034861,-0.19713
30174,1.6491e+09,0,-0.97945,0.0057678,0.035782,-0.19842
30216,1.6491e+09,0,-0.97915,0.0060873,0.036146,-0.19979
30263,1.6491e+09,0,-0.97885,0.006201,0.036533,-0.2012
30307,1.6491e+09,0,-0.97844,0.0070366,0.037448,-0.20297
30354,1.6492e+09,0,-0.97803,0.0063704,0.038154,-0.20485
30391,1.6492e+09,0,-0.97759,0.0073136,0.038654,-0.2068
30435,1.6492e+09,0,-0.97725,0.006812,0.038957,-0.20838
30481,1.6492e+09,0,-0.9769,0.0070034,0.03865,-0.21006
30526,1.6492e+09,0,-0.97648,0.0083081,0.038987,-0.21191
30570,1.6492e+09,0,-0.97613,0.0084821,0.039058,-0.21346
30615,1.6492e+09,0,-0.97583,0.007675,0.039167,-0.21486
30659,1.6492e+09,0,-0.97548,0.0076271,0.039251,-0.21641
30710,1.6492e+09,0,-0.97509,0.0083644,0.039386,-0.21811
30756,1.6493e+09,0,-0.97476,0.0085248,0.039452,-0.21957
30801,1.6493e+09,0,-0.97443,0.0085136,0.03894,-0.22113
30846,1.6493e+09,0,-0.9741,0.0094451,0.038947,-0.22255
30890,1.6493e+09,0,-0.9738,0.0095104,0.038569,-0.2239
30935,1.6493e+09,0,-0.97346,0.0099189,0.03792,-0.22546
30979,1.6493e+09,0,-0.97315,0.011605,0.03762,-0.22677
31024,1.6493e+09,0,-0.97286,0.011932,0.037021,-0.22812
31068,1.6493e+09,0,-0.97259,0.012056,0.035968,-0.22941
31113,1.6493e+09,0,-0.97226,0.013735,0.03574,-0.23076
31164,1.6494e+09,0,-0.9719,0.01442,0.035092,-0.23231
31207,1.6494e+09,0,-0.97158,0.015809,0.034802,-0.23361
31252,1.6494e+09,0,-0.97131,0.016774,0.033504,-0.23483
31300,1.6494e+09,0,-0.97101,0.01851,0.032405,-0.23609
31344,1.6494e+09,0,-0.97082,0.018855,0.031684,-0.23697
31389,1.6494e+09,0,-0.97055,0.020234,0.030725,-0.23807
31433,1.6494e+09,0,-0.9703,0.021483,0.030196,-0.23905
31478,1.6494e+09,0,-0.97007,0.023477,0.029613,-0.23989
31523,1.6494e+09,0,-0.96984,0.024557,0.02935,-0.24072
31572,1.6495e+09,0,-0.96966,0.025245,0.028887,-0.24144
31617,1.6495e+09,0,-0.96943,0.026062,0.028017,-0.24236
31661,1.6495e+09,0,-0.96924,0.02817,0.027458,-0.24296
31706,1.6495e+09,0,-0.96904,0.030028,0.027717,-0.2435
31750,1.6495e+09,0,-0.96887,0.031029,0.027209,-0.24409
31795,1.6495e+09,0,-0.96873,0.031699,0.026172,-0.24467
31841,1.6495e+09,0,-0.96862,0.032357,0.025822,-0.24509
31885,1.6495e+09,0,-0.96848,0.033633,0.025516,-0.2455
31930,1.6495e+09,0,-0.96835,0.034776,0.025512,-0.24585
31973,1.6496e+09,0,-0.96822,0.035741,0.025127,-0.24627
32019,1.6496e+09,0,-0.96817,0.036366,0.024804,-0.24641
32063,1.6496e+09,0,-0.96815,0.037026,0.024488,-0.2464
32108,1.6496e+09,0,-0.96806,0.038587,0.024125,-0.24655
32153,1.6496e+09,0,-0.96805,0.039535,0.023877,-0.24646
32197,1.6496e+09,0,-0.96804,0.040047,0.023721,-0.24642
32243,1.6496e+09,0,-0.968,0.041195,0.023769,-0.24641
32287,1.6496e+09,0,-0.9681,0.041504,0.023294,-0.24599
32332,1.6496e+09,0,-0.96812,0.042377,0.023368,-0.24578
32378,1.6496e+09,0,-0.96818,0.043081,0.023215,-0.24544
32422,1.6497e+09,0,-0.96831,0.043716,0.022838,-0.24483
32471,1.6497e+09,0,-0.96842,0.044482,0.023103,-0.24425
32515,1.6497e+09,0,-0.96857,0.044922,0.022529,-0.24361
32560,1.6497e+09,0,-0.96872,0.045416,0.022857,-0.24288
32604,1.6497e+09,0,-0.96893,0.045869,0.022702,-0.24199
32649,1.6497e+09,0,-0.96907,0.047008,0.022464,-0.24121
32694,1.6497e+09,0,-0.96932,0.048038,0.022671,-0.24001
32741,1.6497e+09,0,-0.96957,0.048588,0.022354,-0.23889
32788,1.6497e+09,0,-0.96984,0.049117,0.022608,-0.23767
32833,1.6498e+09,0,-0.97015,0.049327,0.022451,-0.23636
32879,1.6498e+09,0,-0.9704,0.050343,0.022528,-0.23511
32922,1.6498e+09,0,-0.97078,0.051016,0.022208,-0.23343
32964,1.6498e+09,0,-0.97101,0.052638,0.022326,-0.23209
33007,1.6498e+09,0,-0.97136,0.053137,0.022332,-0.23052
33050,1.6498e+09,0,-0.97175,0.053335,0.022097,-0.22883
33092,1.6498e+09,0,-0.9721,0.053793,0.021782,-0.22728
33136,1.6498e+09,0,-0.97246,0.054985,0.021794,-0.22544
33178,1.6498e+09,0,-0.97278,0.055887,0.021875,-0.22382
33221,1.6498e+09,0,-0.97325,0.05522,0.021818,-0.22192
33265,1.6499e+09,0,-0.97369,0.055227,0.021776,-0.22
33307,1.6499e+09,0,-0.97412,0.055694,0.021525,-0.218
33355,1.6499e+09,0,-0.97444,0.056874,0.021672,-0.21623
33397,1.6499e+09,0,-0.9749,0.057296,0.022236,-0.214
33441,1.6499e+09,0,-0.9754,0.055914,0.022201,-0.21209
33484,1.6499e+09,0,-0.97588,0.056029,0.02228,-0.20982
33527,1.6499e+09,0,-0.97624,0.057126,0.022034,-0.20785
33569,1.6499e+09,0,-0.97666,0.05812,0.022695,-0.20551
33612,1.6499e+09,0,-0.97709,0.057955,0.023162,-0.20347
33651,1.65e+09,0,-0.97758,0.058231,0.023435,-0.20099
33695,1.65e+09,0,-0.9781,0.057457,0.023752,-0.19866
33741,1.65e+09,0,-0.97849,0.057906,0.023352,-0.19659
33790,1.65e+09,0,-0.97888,0.059105,0.024025,-0.19424
33835,1.65e+09,0,-0.9793,0.059494,0.024207,-0.19196
33879,1.65e+09,0,-0.97967,0.059624,0.024558,-0.18995
33925,1.65e+09,0,-0.98014,0.059199,0.025073,-0.18761
33969,1.65e+09,0,-0.98058,0.059181,0.024652,-0.18532
34014,1.65e+09,0,-0.98097,0.059065,0.024803,-0.18327
34060,1.65e+09,0,-0.98137,0.058651,0.025387,-0.18116
34104,1.6501e+09,0,-0.98177,0.058375,0.025663,-0.17904
34149,1.6501e+09,0,-0.98219,0.057971,0.026105,-0.17682
34193,1.6501e+09,0,-0.9826,0.057284,0.025946,-0.17477
34242,1.6501e+09,0,-0.98297,0.057662,0.026238,-0.17253
34288,1.6501e+09,0,-0.98329,0.057626,0.026513,-0.17062
34333,1.6501e+09,0,-0.98365,0.057642,0.025951,-0.16865
34378,1.6501e+09,0,-0.98395,0.057731,0.026225,-0.16681
34422,1.6501e+09,0,-0.98431,0.057405,0.026563,-0.16473
34463,1.6501e+09,0,-0.98467,0.057166,0.02583,-0.16273
34508,1.6502e+09,0,-0.98505,0.056402,0.025698,-0.16076
34552,1.6502e+09,0,-0.98532,0.056488,0.025553,-0.15908
34597,1.6502e+09,0,-0.98556,0.057031,0.025597,-0.15738
34641,1.6502e+09,0,-0.98583,0.056757,0.025564,-0.15577
34691,1.6502e+09,0,-0.98611,0.056556,0.025285,-0.15414
34735,1.6502e+09,0,-0.98635,0.056485,0.025358,-0.1526
34780,1.6502e+09,0,-0.98665,0.05572,0.025318,-0.15091
34824,1.6502e+09,0,-0.98684,0.055868,0.025404,-0.14957
34872,1.6502e+09,0,-0.98698,0.056527,0.025878,-0.14833
34916,1.6502e+09,0,-0.98722,0.056144,0.026337,-0.14683
34960,1.6503e+09,0,-0.98744,0.055827,0.026292,-0.14544
35005,1.6503e+09,0,-0.98771,0.054638,0.026593,-0.14404
35050,1.6503e+09,0,-0.98786,0.054722,0.026826,-0.14292
35095,1.6503e+09,0,-0.98797,0.055801,0.026597,-0.14173
35143,1.6503e+09,0,-0.9881,0.056415,0.026788,-0.14056
35188,1.6503e+09,0,-0.98832,0.056234,0.026478,-0.13912
35233,1.6503e+09,0,-0.9885,0.056216,0.026117,-0.13796
35278,1.6503e+09,0,-0.98863,0.057009,0.026106,-0.13666
35323,1.6503e+09,0,-0.98875,0.057961,0.02574,-0.1355
35368,1.6504e+09,0,-0.98895,0.058494,0.025403,-0.1338
35411,1.6504e+09,0,-0.98903,0.059705,0.025087,-0.13273
35453,1.6504e+09,0,-0.98916,0.060278,0.025051,-0.13156
35497,1.6504e+09,0,-0.98937,0.059403,0.024913,-0.13036
35540,1.6504e+09,0,-0.98952,0.059552,0.024619,-0.12921
35586,1.6504e+09,0,-0.98955,0.060806,0.024792,-0.12841
35631,1.6504e+09,0,-0.98966,0.061214,0.024518,-0.12734
35674,1.6504e+09,0,-0.98977,0.060998,0.024207,-0.12671
35717,1.6504e+09,0,-0.98991,0.060372,0.024374,-0.12585
35760,1.6505e+09,0,-0.98999,0.060928,0.025025,-0.12486
35802,1.6505e+09,0,-0.98999,0.062221,0.02495,-0.12417
35845,1.6505e+09,0,-0.9901,0.061768,0.025429,-0.12344
35887,1.6505e+09,0,-0.99019,0.061401,0.026067,-0.12276
35931,1.6505e+09,0,-0.99021,0.062379,0.025984,-0.12215
35974,1.6505e+09,0,-0.99025,0.063214,0.026499,-0.12125
36020,1.6505e+09,0,-0.99028,0.063417,0.026825,-0.12088
36062,1.6505e+09,0,-0.99035,0.063393,0.02716,-0.12022
36105,1.6505e+09,0,-0.99039,0.063542,0.027535,-0.11975
36149,1.6505e+09,0,-0.99041,0.063967,0.027996,-0.11918
36193,1.6506e+09,0,-0.99044,0.064626,0.028604,-0.11848
36235,1.6506e+09,0,-0.99046,0.06508,0.029169,-0.11791
36280,1.6506e+09,0,-0.99049,0.065052,0.029902,-0.11748
36324,1.6506e+09,0,-0.99049,0.065997,0.029891,-0.11695
36370,1.6506e+09,0,-0.99054,0.066179,0.03007,-0.1164
36420,1.6506e+09,0,-0.99054,0.066658,0.029961,-0.11612
36464,1.6506e+09,0,-0.99051,0.06814,0.029876,-0.1156
36510,1.6506e+09,0,-0.99056,0.068185,0.029807,-0.11515
36554,1.6506e+09,0,-0.9906,0.068204,0.029547,-0.11481
36602,1.6507e+09,0,-0.99061,0.069059,0.029556,-0.11424
36647,1.6507e+09,0,-0.99064,0.069257,0.029399,-0.11386
36691,1.6507e+09,0,-0.99056,0.070847,0.028955,-0.11372
36736,1.6507e+09,0,-0.99059,0.071257,0.02888,-0.1132
36782,1.6507e+09,0,-0.99064,0.071023,0.028612,-0.11301
36826,1.6507e+09,0,-0.99072,0.070556,0.028407,-0.11267
36875,1.6507e+09,0,-0.99074,0.070471,0.028642,-0.1125
36923,1.6507e+09,0,-0.99066,0.071914,0.028607,-0.11224
36968,1.6507e+09,0,-0.99074,0.071047,0.02854,-0.11211
37011,1.6508e+09,0,-0.99073,0.071367,0.028439,-0.11204
37056,1.6508e+09,0,-0.99075,0.071181,0.02901,-0.11184
37100,1.6508e+09,0,-0.9907,0.071795,0.02875,-0.11197
37145,1.6508e+09,0,-0.99072,0.071878,0.028546,-0.11178
37191,1.6508e+09,0,-0.99075,0.071455,0.028549,-0.11181
37237,1.6508e+09,0,-0.9908,0.070904,0.028625,-0.11171
37281,1.6508e+09,0,-0.99075,0.071292,0.028756,-0.11184
37329,1.6508e+09,0,-0.99077,0.070896,0.028219,-0.11205
37373,1.6508e+09,0,-0.99084,0.069768,0.02831,-0.11211
37417,1.6509e+09,0,-0.99089,0.068883,0.028354,-0.11216
37461,1.6509e+09,0,-0.99089,0.068884,0.027884,-0.11232
37508,1.6509e+09,0,-0.99082,0.069333,0.027531,-0.11273
37553,1.6509e+09,0,-0.99091,0.068242,0.027175,-0.11269
37597,1.6509e+09,0,-0.9909,0.067446,0.026924,-0.11332
37642,1.6509e+09,0,-0.99102,0.065866,0.026547,-0.11326
37687,1.6509e+09,0,-0.99099,0.06539,0.025855,-0.11399
37732,1.6509e+09,0,-0.99097,0.065251,0.025769,-0.11426
37782,1.6509e+09,0,-0.99095,0.064912,0.025311,-0.11476
37826,1.651e+09,0,-0.99094,0.064687,0.025151,-0.11496
37869,1.651e+09,0,-0.99088,0.064588,0.02485,-0.11558
37914,1.651e+09,0,-0.99082,0.065231,0.024584,-0.11587
37958,1.651e+09,0,-0.9908,0.064835,0.024667,-0.11624
38003,1.651e+09,0,-0.99073,0.065139,0.024711,-0.11665
38048,1.651e+09,0,-0.99072,0.064637,0.024787,-0.11699
38092,1.651e+09,0,-0.99062,0.065385,0.025148,-0.11736
38138,1.651e+09,0,-0.99066,0.064442,0.02467,-0.11762
38186,1.651e+09,0,-0.99057,0.065254,0.02463,-0.1179
38234,1.651e+09,0,-0.99042,0.066297,0.024976,-0.11851
38279,1.6511e+09,0,-0.99044,0.065931,0.024613,-0.11865
38323,1.6511e+09,0,-0.9904,0.066035,0.024624,-0.11891
38372,1.6511e+09,0,-0.99035,0.066704,0.024288,-0.11906
38416,1.6511e+09,0,-0.99024,0.067666,0.023744,-0.11949
38462,1.6511e+09,0,-0.99007,0.069656,0.024081,-0.11967
38506,1.6511e+09,0,-0.99001,0.070392,0.023153,-0.11998
38551,1.6511e+09,0,-0.98995,0.070578,0.023429,-0.12029
38597,1.6511e+09,0,-0.98989,0.071152,0.023477,-0.1204
38645,1.6511e+09,0,-0.98975,0.07262,0.02322,-0.12077
38692,1.6512e+09,0,-0.9896,0.074125,0.023765,-0.12094
38731,1.6512e+09,0,-0.98947,0.075267,0.023688,-0.12137
38774,1.6512e+09,0,-0.98943,0.075454,0.024152,-0.12146
38816,1.6512e+09,0,-0.98932,0.076265,0.024742,-0.1217
38859,1.6512e+09,0,-0.98924,0.077203,0.024817,-0.12178
38901,1.6512e+09,0,-0.98911,0.077888,0.025814,-0.12216
38944,1.6512e+09,0,-0.98904,0.078376,0.026055,-0.12236
38988,1.6512e+09,0,-0.98895,0.079477,0.02622,-0.1224
39031,1.6512e+09,0,-0.98887,0.080438,0.026399,-0.12235
39077,1.6512e+09,0,-0.98872,0.081732,0.026339,-0.12276
39120,1.6513e+09,0,-0.98867,0.082105,0.0264,-0.12288
39164,1.6513e+09,0,-0.98866,0.081923,0.026718,-0.12298
39207,1.6513e+09,0,-0.98861,0.082284,0.027141,-0.12304
39249,1.6513e+09,0,-0.98851,0.082715,0.027489,-0.12347
39291,1.6513e+09,0,-0.98844,0.083724,0.027738,-0.12335
39334,1.6513e+09,0,-0.98837,0.084206,0.027821,-0.12353
39376,1.6513e+09,0,-0.98828,0.085153,0.028445,-0.12347
39419,1.6513e+09,0,-0.98819,0.085822,0.028986,-0.12358
39460,1.6513e+09,0,-0.98811,0.08631,0.029657,-0.12371
39504,1.6514e+09,0,-0.98806,0.087322,0.030281,-0.12326
39550,1.6514e+09,0,-0.98789,0.088681,0.030708,-0.12359
39594,1.6514e+09,0,-0.9879,0.088581,0.031347,-0.12339
39639,1.6514e+09,0,-0.98779,0.089539,0.032297,-0.12335
39687,1.6514e+09,0,-0.98767,0.090698,0.033071,-0.12326
39732,1.6514e+09,0,-0.98759,0.091127,0.033808,-0.12335
39776,1.6514e+09,0,-0.98753,0.091673,0.034702,-0.12317
39821,1.6514e+09,0,-0.98754,0.091208,0.035841,-0.1231
39866,1.6514e+09,0,-0.98752,0.090849,0.036899,-0.12326
39910,1.6515e+09,0,-0.98746,0.091087,0.038249,-0.1231
39960,1.6515e+09,0,-0.98749,0.090743,0.038481,-0.12311
40004,1.6515e+09,0,-0.9875,0.090006,0.03963,-0.12314
40050,1.6515e+09,0,-0.98753,0.08907,0.040858,-0.12318
40094,1.6515e+09,0,-0.98757,0.088457,0.041802,-0.12306
40142,1.6515e+09,0,-0.98766,0.086844,0.042873,-0.12305
40187,1.6515e+09,0,-0.98767,0.08632,0.043695,-0.12305
40231,1.6515e+09,0,-0.98782,0.084285,0.044453,-0.123
40276,1.6515e+09,0,-0.98796,0.082708,0.044672,-0.12285
40322,1.6515e+09,0,-0.98802,0.081549,0.045339,-0.12289
40364,1.6516e+09,0,-0.9882,0.079697,0.045711,-0.12258
40413,1.6516e+09,0,-0.98829,0.078826,0.046069,-0.12228
40457,1.6516e+09,0,-0.98835,0.077862,0.046334,-0.12225
40503,1.6516e+09,0,-0.98852,0.07665,0.046176,-0.12173
40548,1.6516e+09,0,-0.98864,0.075509,0.045856,-0.12163
40592,1.6516e+09,0,-0.98869,0.075285,0.045649,-0.12137
40637,1.6516e+09,0,-0.9888,0.074522,0.045647,-0.12097
40682,1.6516e+09,0,-0.9889,0.074053,0.045149,-0.12066
40727,1.6516e+09,0,-0.989,0.073284,0.045045,-0.12031
40771,1.6517e+09,0,-0.98908,0.072891,0.045023,-0.11994
40817,1.6517e+09,0,-0.98916,0.072206,0.045053,-0.11963
40866,1.6517e+09,0,-0.98929,0.071707,0.044486,-0.11909
40910,1.6517e+09,0,-0.98932,0.071793,0.044242,-0.11886
40956,1.6517e+09,0,-0.98948,0.071124,0.043393,-0.11823
41000,1.6517e+09,0,-0.98955,0.070877,0.042893,-0.11805
41046,1.6517e+09,0,-0.98964,0.07079,0.042496,-0.11748
41091,1.6517e+09,0,-0.9897,0.070465,0.041959,-0.11732
41137,1.6517e+09,0,-0.98974,0.070879,0.041787,-0.11683
41182,1.6518e+09,0,-0.98987,0.070147,0.041025,-0.11641
41228,1.6518e+09,0,-0.98994,0.070224,0.040445,-0.11602
41273,1.6518e+09,0,-0.98999,0.069818,0.040843,-0.11569
41319,1.6518e+09,0,-0.99007,0.069784,0.040297,-0.11518
41363,1.6518e+09,0,-0.99015,0.069723,0.039855,-0.11469
41408,1.6518e+09,0,-0.99018,0.069901,0.039529,-0.11444
41456,1.6518e+09,0,-0.99027,0.069373,0.039482,-0.11398
41501,1.6518e+09,0,-0.99031,0.06955,0.039663,-0.11348
41546,1.6518e+09,0,-0.99041,0.068661,0.039558,-0.1132
41590,1.6519e+09,0,-0.99042,0.069119,0.039322,-0.11288
41635,1.6519e+09,0,-0.99049,0.069083,0.039255,-0.11234
41679,1.6519e+09,0,-0.99047,0.069484,0.039539,-0.11218
41729,1.6519e+09,0,-0.9905,0.069419,0.040014,-0.11175
41773,1.6519e+09,0,-0.99058,0.068861,0.040064,-0.11142
41818,1.6519e+09,0,-0.99064,0.068575,0.040295,-0.11093
41863,1.6519e+09,0,-0.99065,0.068794,0.0407,-0.11055
41909,1.6519e+09,0,0.98993,-0.069282,-0.041724,0.11617
41954,1.6519e+09,0,0.98999,-0.069419,-0.041878,0.11557
42001,1.652e+09,0,0.98999,-0.069736,-0.041942,0.11529
42042,1.652e+09,0,0.99,-0.070631,-0.04225,0.1146
42084,1.652e+09,0,0.99003,-0.070905,-0.04245,0.1141
42127,1.652e+09,0,0.99005,-0.071546,-0.042614,0.1134
42173,1.652e+09,0,0.99007,-0.072208,-0.042758,0.11276
42215,1.652e+09,0,0.99011,-0.073165,-0.042493,0.11193
42258,1.652e+09,0,0.99006,-0.074781,-0.042516,0.11131
42300,1.652e+09,0,0.99008,-0.075122,-0.042963,0.11068
42344,1.652e+09,0,0.99016,-0.075124,-0.043022,0.10991
42383,1.652e+09,0,0.99028,-0.075155,-0.042891,0.10887
42423,1.6521e+09,0,0.99035,-0.075884,-0.042731,0.10783
42465,1.6521e+09,0,0.99042,-0.076865,-0.042277,0.10668
42507,1.6521e+09,0,0.99047,-0.077451,-0.042304,0.10571
42552,1.6521e+09,0,0.9906,-0.077956,-0.041565,0.10441
42599,1.6521e+09,0,0.99078,-0.077259,-0.04129,0.10339
42642,1.6521e+09,0,0.99082,-0.077863,-0.041825,0.1023
42685,1.6521e+09,0,0.99089,-0.078527,-0.041658,0.10114
42727,1.6521e+09,0,0.991,-0.078386,-0.041523,0.10029
42767,1.6521e+09,0,0.99112,-0.079162,-0.041507,0.098439
42809,1.6522e+09,0,0.9911,-0.079998,-0.04172,0.097852
42848,1.6522e+09,0,0.99114,-0.08049,-0.040942,0.097355
42893,1.6522e+09,0,0.99113,-0.081127,-0.040441,0.097144
42938,1.6522e+09,0,0.99112,-0.081355,-0.040928,0.096875
42984,1.6522e+09,0,0.99112,-0.081318,-0.041267,0.096751
43035,1.6522e+09,0,0.99109,-0.082079,-0.04099,0.096586
43079,1.6522e+09,0,0.99109,-0.082332,-0.041067,0.0963
43124,1.6522e+09,0,0.99109,-0.081985,-0.04213,0.09615
43168,1.6522e+09,0,0.99111,-0.081738,-0.042194,0.0961
43214,1.6523e+09,0,0.99106,-0.081881,-0.043261,0.096009
43259,1.6523e+09,0,0.99107,-0.081416,-0.043933,0.096039
43304,1.6523e+09,0,0.99111,-0.080472,-0.044847,0.095952
43349,1.6523e+09,0,0.99112,-0.080123,-0.04529,0.096017
43393,1.6523e+09,0,0.99101,-0.080606,-0.046572,0.09612
43442,1.6523e+09,0,0.99103,-0.079721,-0.047503,0.096189
43487,1.6523e+09,0,0.99104,-0.078743,-0.048534,0.096352
43531,1.6523e+09,0,0.99091,-0.079806,-0.050011,0.096092
43581,1.6523e+09,0,0.99085,-0.079361,-0.051489,0.096293
43619,1.6524e+09,0,0.99087,-0.078358,-0.052987,0.096087
43661,1.6524e+09,0,0.99089,-0.077629,-0.054415,0.09566
43703,1.6524e+09,0,0.9909,-0.077323,-0.056455,0.094595
43747,1.6524e+09,0,0.99092,-0.077252,-0.058336,0.093348
43792,1.6524e+09,0,0.99095,-0.077097,-0.059881,0.092134
43839,1.6524e+09,0,0.99099,-0.076473,-0.061745,0.091013
43887,1.6524e+09,0,0.99107,-0.075296,-0.06376,0.089732
43932,1.6524e+09,0,0.99106,-0.075712,-0.065063,0.08847
43976,1.6524e+09,0,0.99107,-0.075682,-0.066441,0.087397
44021,1.6525e+09,0,0.99116,-0.07497,-0.067454,0.086173
44063,1.6525e+09,0,0.99118,-0.074711,-0.068782,0.085132
44104,1.6525e+09,0,0.99117,-0.075283,-0.06988,0.083872
44150,1.6525e+09,0,0.9912,-0.075042,-0.070648,0.083097
44196,1.6525e+09,0,0.99124,-0.075578,-0.070559,0.082134
44240,1.6525e+09,0,0.99128,-0.075368,-0.071078,0.08139
44285,1.6525e+09,0,0.99132,-0.074964,-0.071785,0.080639
44333,1.6525e+09,0,0.99143,-0.074905,-0.071106,0.079984
44380,1.6525e+09,0,0.99144,-0.075579,-0.070934,0.079436
44419,1.6526e+09,0,0.9915,-0.07578,-0.07033,0.07895
44463,1.6526e+09,0,0.99155,-0.075978,-0.069825,0.078672
44501,1.6526e+09,0,0.99168,-0.074806,-0.06941,0.078473
44546,1.6526e+09,0,0.99177,-0.074931,-0.068204,0.078319
44591,1.6526e+09,0,0.99177,-0.075465,-0.067486,0.078352
44638,1.6526e+09,0,0.99178,-0.075791,-0.066898,0.078388
44682,1.6526e+09,0,0.99184,-0.075945,-0.065833,0.078397
44727,1.6526e+09,0,0.99195,-0.075462,-0.064437,0.078665
44776,1.6526e+09,0,0.99195,-0.075911,-0.06372,0.078822
44821,1.6527e+09,0,0.99201,-0.075983,-0.062256,0.079178
44865,1.6527e+09,0,0.99205,-0.07631,-0.060889,0.079387
44911,1.6527e+09,0,0.99206,-0.076509,-0.060275,0.079583
44950,1.6527e+09,0,0.99213,-0.076314,-0.058685,0.0801
44994,1.6527e+09,0,0.99217,-0.07607,-0.057602,0.080555
45040,1.6527e+09,0,0.99225,-0.07522,-0.056691,0.081005
45084,1.6527e+09,0,0.99231,-0.074779,-0.055702,0.08142
45130,1.6527e+09,0,0.99231,-0.074708,-0.054848,0.082038
45177,1.6527e+09,0,0.99235,-0.074198,-0.054251,0.082416
45219,1.6528e+09,0,0.99242,-0.073036,-0.053022,0.083359
45265,1.6528e+09,0,0.99241,-0.072732,-0.052403,0.0842
45310,1.6528e+09,0,0.9925,-0.071158,-0.051319,0.085092
45355,1.6528e+09,0,0.9926,-0.069464,-0.050464,0.085816
45396,1.6528e+09,0,0.99261,-0.068564,-0.049997,0.086789
45440,1.6528e+09,0,0.99266,-0.06731,-0.049155,0.087682
45482,1.6528e+09,0,0.99272,-0.065847,-0.048119,0.088655
45526,1.6528e+09,0,0.99283,-0.063506,-0.047463,0.089513
45571,1.6528e+09,0,0.99292,-0.061271,-0.046657,0.090417
45616,1.6529e+09,0,0.99291,-0.060575,-0.045809,0.091422
45666,1.6529e+09,0,0.99302,-0.058341,-0.044945,0.092178
45711,1.6529e+09,0,0.99305,-0.056577,-0.044311,0.093233
45756,1.6529e+09,0,0.99304,-0.055707,-0.043943,0.094059
45801,1.6529e+09,0,0.9931,-0.053858,-0.043046,0.094865
45842,1.6529e+09,0,0.99312,-0.051635,-0.042143,0.096282
45887,1.6529e+09,0,0.99311,-0.05077,-0.041923,0.096943
45931,1.6529e+09,0,0.9931,-0.050053,-0.041199,0.097747
45975,1.6529e+09,0,0.99309,-0.048717,-0.040933,0.098607
46020,1.653e+09,0,0.9931,-0.047077,-0.040751,0.099381
46068,1.653e+09,0,0.99309,-0.045708,-0.04041,0.10029
46113,1.653e+09,0,0.99314,-0.043555,-0.039922,0.10087
46157,1.653e+09,0,0.99308,-0.042807,-0.040236,0.10165
46199,1.653e+09,0,0.9931,-0.041986,-0.039869,0.10201
46243,1.653e+09,0,0.9931,-0.040737,-0.039824,0.10254
46285,1.653e+09,0,0.99309,-0.038948,-0.040068,0.1032
46324,1.653e+09,0,0.99306,-0.038107,-0.040141,0.10373
46367,1.653e+09,0,0.99307,-0.036542,-0.04049,0.10409
46410,1.6531e+09,0,0.99306,-0.035935,-0.040318,0.10452
46452,1.6531e+09,0,0.99299,-0.035768,-0.041099,0.10492
46496,1.6531e+09,0,0.99301,-0.033999,-0.041246,0.10524
46542,1.6531e+09,0,0.99296,-0.03332,-0.041986,0.10563
46585,1.6531e+09,0,0.99288,-0.032946,-0.04297,0.10605
46628,1.6531e+09,0,0.99283,-0.0324,-0.043658,0.10644
46672,1.6531e+09,0,0.99274,-0.030993,-0.045424,0.10694
46715,1.6531e+09,0,0.9926,-0.031922,-0.046769,0.10742
46757,1.6531e+09,0,0.9926,-0.03157,-0.046676,0.10758
46801,1.6532e+09,0,0.99248,-0.031796,-0.048291,0.10793
46841,1.6532e+09,0,0.99236,-0.031588,-0.049197,0.10864
46887,1.6532e+09,0,0.99231,-0.031791,-0.049071,0.10912
46936,1.6532e+09,0,0.9922,-0.03253,-0.050177,0.10934
46981,1.6532e+09,0,0.99208,-0.033791,-0.05047,0.10999
47027,1.6532e+09,0,0.99199,-0.034154,-0.051109,0.11032
47072,1.6532e+09,0,0.99191,-0.033991,-0.051656,0.11086
47114,1.6532e+09,0,0.99179,-0.035061,-0.052158,0.11133
47158,1.6532e+09,0,0.99167,-0.036792,-0.052547,0.1117
47200,1.6533e+09,0,0.99155,-0.038807,-0.052041,0.1123
47247,1.6533e+09,0,0.99147,-0.038793,-0.052835,0.11265
47291,1.6533e+09,0,0.9913,-0.039816,-0.054082,0.1132
47336,1.6533e+09,0,0.99122,-0.041475,-0.053893,0.11336
47384,1.6533e+09,0,0.99116,-0.042255,-0.053891,0.11361
47429,1.6533e+09,0,0.99096,-0.044334,-0.05515,0.11398
47474,1.6533e+09,0,0.99087,-0.046163,-0.054811,0.11423
47519,1.6533e+09,0,0.99085,-0.046477,-0.054452,0.11441
47560,1.6533e+09,0,0.9907,-0.048282,-0.055037,0.11471
47605,1.6534e+09,0,0.99057,-0.050831,-0.05502,0.11474
47643,1.6534e+09,0,0.99053,-0.052742,-0.053997,0.11473
47687,1.6534e+09,0,0.99038,-0.055294,-0.053814,0.11486
47732,1.6534e+09,0,0.99036,-0.056863,-0.053413,0.11446
47777,1.6534e+09,0,0.99033,-0.057995,-0.053362,0.1142
47826,1.6534e+09,0,0.99028,-0.05958,-0.052986,0.11395
47871,1.6534e+09,0,0.99033,-0.06091,-0.051613,0.11347
47916,1.6534e+09,0,0.99019,-0.063243,-0.051849,0.11332
47961,1.6534e+09,0,0.99022,-0.064349,-0.050634,0.11293
47999,1.6534e+09,0,0.99028,-0.065274,-0.049505,0.11242
48044,1.6535e+09,0,0.99028,-0.066201,-0.049482,0.11185
48088,1.6535e+09,0,0.99022,-0.068468,-0.047744,0.11175
48132,1.6535e+09,0,0.99027,-0.069379,-0.046938,0.11112
48176,1.6535e+09,0,0.99034,-0.069412,-0.046513,0.11062
48220,1.6535e+09,0,0.99045,-0.069736,-0.044495,0.11032
48269,1.6535e+09,0,0.99041,-0.071065,-0.043949,0.11003
48313,1.6535e+09,0,0.99046,-0.071614,-0.042727,0.10969
48357,1.6535e+09,0,0.99052,-0.071963,-0.041803,0.1093
48405,1.6535e+09,0,0.99057,-0.071975,-0.041022,0.1091
48443,1.6536e+09,0,0.99062,-0.072418,-0.03971,0.10889
48488,1.6536e+09,0,0.99072,-0.072408,-0.038843,0.10828
48533,1.6536e+09,0,0.99078,-0.072082,-0.038674,0.10802
48574,1.6536e+09,0,0.99083,-0.072189,-0.037383,0.10788
48619,1.6536e+09,0,0.9909,-0.071721,-0.03731,0.10759
48664,1.6536e+09,0,0.99101,-0.071204,-0.036789,0.10716
48712,1.6536e+09,0,0.99103,-0.07133,-0.036241,0.10705
48757,1.6536e+09,0,0.99102,-0.071632,-0.0361,0.10699
48802,1.6536e+09,0,0.99117,-0.070627,-0.034968,0.10663
48847,1.6537e+09,0,0.99125,-0.070332,-0.034265,0.10633
48893,1.6537e+09,0,0.99135,-0.069441,-0.033457,0.10623
48934,1.6537e+09,0,0.99145,-0.068004,-0.032525,0.10652
48979,1.6537e+09,0,0.99153,-0.067477,-0.031966,0.10625
49024,1.6537e+09,0,0.99162,-0.066842,-0.030871,0.1062
49071,1.6537e+09,0,0.99169,-0.066103,-0.030292,0.10616
49120,1.6537e+09,0,0.99175,-0.064468,-0.029886,0.10665
49165,1.6537e+09,0,0.99191,-0.062579,-0.028824,0.10658
49212,1.6537e+09,0,0.99196,-0.061697,-0.028717,0.10671
49257,1.6538e+09,0,0.99208,-0.059914,-0.028389,0.10669
49303,1.6538e+09,0,0.99214,-0.058401,-0.027758,0.10711
49342,1.6538e+09,0,0.99225,-0.056588,-0.027701,0.10714
49378,1.6538e+09,0,0.99232,-0.05513,-0.026991,0.10735
49424,1.6538e+09,0,0.99239,-0.053486,-0.027041,0.10757
49470,1.6538e+09,0,0.99245,-0.052223,-0.02643,0.10775
49514,1.6538e+09,0,0.99244,-0.051836,-0.026518,0.10804
49563,1.6538e+09,0,0.99255,-0.04982,-0.026265,0.10804
