LineNo,TimeUS,C,V00,V01,V02,V03,V04,V05,V06,V07,V08,V09,V10,V11
3695,1.6428e+09,0,6.821e-06,4.191e-06,4.5086e-06,0.00023023,0.012466,0.010491,0.0080289,0.049625,0.049601,0.14348,3.9699e-11,4.0108e-11
5822,1.6433e+09,0,6.8646e-06,4.3262e-06,4.7985e-06,0.00023039,0.014131,0.011366,0.0082626,0.052451,0.052299,0.15535,3.9937e-11,4.0592e-11
7881,1.6438e+09,0,6.9425e-06,4.2558e-06,5.05e-06,0.00023131,0.012843,0.010476,0.0082259,0.049522,0.049413,0.16572,3.9856e-11,4.1025e-11
10027,1.6443e+09,0,6.9861e-06,4.4352e-06,5.5096e-06,0.00023159,0.013756,0.011251,0.0084287,0.052645,0.052343,0.17746,4.0142e-11,4.1719e-11
12138,1.6448e+09,0,7.0167e-06,4.423e-06,5.9384e-06,0.00023176,0.012153,0.010335,0.0083189,0.049849,0.049633,0.1853,4.0111e-11,4.2349e-11
13983,1.6453e+09,0,7.0421e-06,4.6139e-06,6.473e-06,0.00023192,0.012574,0.010904,0.0084539,0.052479,0.052107,0.19485,4.0371e-11,4.3064e-11
16114,1.6458e+09,0,7.0751e-06,4.6461e-06,7.0011e-06,0.00023218,0.011193,0.01008,0.0083347,0.049929,0.049654,0.20159,4.0367e-11,4.374e-11
18179,1.6463e+09,0,7.1348e-06,4.8538e-06,7.5865e-06,0.00023238,0.011587,0.010622,0.0084278,0.052421,0.052038,0.20938,4.0515e-11,4.433e-11
20287,1.6468e+09,0,7.2072e-06,5.0734e-06,8.1958e-06,0.00023339,0.011979,0.011216,0.0085977,0.055209,0.054734,0.21968,4.0764e-11,4.5006e-11
22363,1.6472e+09,0,7.2517e-06,5.1109e-06,8.74e-06,0.00023362,0.010865,0.010428,0.0084581,0.052326,0.051986,0.22379,4.071e-11,4.5542e-11
24476,1.6477e+09,0,7.2791e-06,5.328e-06,9.3349e-06,0.00023373,0.011336,0.011031,0.0085634,0.054957,0.054587,0.22962,4.0914e-11,4.6096e-11
26561,1.6482e+09,0,7.3342e-06,5.3256e-06,9.7888e-06,0.00023382,0.010345,0.010203,0.0083924,0.051732,0.051476,0.23152,4.0726e-11,4.635e-11
28619,1.6487e+09,0,7.4446e-06,5.5415e-06,1.0323e-05,0.00023502,0.01097,0.010889,0.0085562,0.054597,0.054347,0.24027,4.0818e-11,4.6678e-11
30660,1.6492e+09,0,9.9566e-06,5.7438e-06,1.057e-05,0.00023248,0.010463,0.010438,0.0083825,0.051538,0.051368,0.24118,4.0472e-11,4.6567e-11
32742,1.6497e+09,0,1.473e-05,5.6476e-06,1.1501e-05,0.00022729,0.011233,0.011171,0.0083636,0.054294,0.054164,0.2343,4.0662e-11,4.682e-11
34825,1.6502e+09,0,6.8999e-06,5.7077e-06,1.1832e-05,0.00023567,0.010279,0.010265,0.0078251,0.051039,0.050956,0.2041,4.0202e-11,4.6337e-11
36876,1.6507e+09,0,3.5661e-06,6.0103e-06,1.2312e-05,0.00023888,0.010902,0.010872,0.0076382,0.053583,0.053533,0.17764,4.0209e-11,4.6266e-11
38945,1.6512e+09,0,3.8031e-06,5.7996e-06,1.2361e-05,0.00023872,0.010137,0.010086,0.0073617,0.050395,0.050362,0.15775,3.9759e-11,4.5612e-11
41001,1.6517e+09,0,3.9396e-06,6.2397e-06,1.2714e-05,0.00023886,0.010793,0.010698,0.0074626,0.052597,0.05258,0.14981,3.9753e-11,4.543e-11
42985,1.6522e+09,0,0.00018896,0.00024976,0.0009525,0.015087,0.029735,0.015709,0.0073074,0.049441,0.049424,0.13821,3.9457e-11,4.5014e-11
44995,1.6527e+09,0,0.00010985,0.00018108,0.00037768,0.012482,0.061749,0.035524,0.0074502,0.052891,0.052431,0.13118,4.016e-11,4.5921e-11
46982,1.6532e+09,0,0.00015485,7.5202e-05,9.8697e-05,0.01179,0.037862,0.0308,0.0074178,0.049618,0.049478,0.1284,4.1001e-11,4.6607e-11
49025,1.6537e+09,0,0.00016384,4.3907e-05,0.00010851,0.010992,0.035597,0.031105,0.0075399,0.053201,0.052898,0.12384,4.1895e-11,4.7393e-11
51003,1.6542e+09,0,0.00017382,2.3052e-05,6.1363e-05,0.010416,0.024386,0.022946,0.0075062,0.049371,0.049251,0.12275,4.285e-11,4.8266e-11
52963,1.6547e+09,0,0.00017774,1.5845e-05,8.6765e-05,0.0099,0.022129,0.022675,0.0075576,0.051977,0.051846,0.11929,4.3681e-11,4.9074e-11
54963,1.6552e+09,0,0.00017251,1.2096e-05,8.0117e-05,0.0093004,0.017266,0.01801,0.0074276,0.048666,0.048588,0.11606,4.461e-11,4.9984e-11
56965,1.6557e+09,0,0.000143,1.8718e-05,7.6027e-05,0.00871,0.01771,0.018053,0.0075926,0.051432,0.051368,0.11753,4.5555e-11,5.0918e-11
58962,1.6562e+09,0,0.00012612,2.2855e-05,0.00010861,0.0074907,0.017884,0.013698,0.0074455,0.047868,0.047822,0.11467,4.6508e-11,5.1858e-11
60994,1.6567e+09,0,0.00013246,1.4412e-05,4.9257e-05,0.0064775,0.019414,0.013253,0.007601,0.050578,0.050485,0.11684,4.7423e-11,5.2769e-11
62948,1.6572e+09,0,0.00011306,6.0488e-06,3.7654e-05,0.0054962,0.014841,0.011495,0.0074289,0.047199,0.047148,0.11451,4.8257e-11,5.3606e-11
64999,1.6577e+09,0,9.8853e-05,5.5939e-06,3.7048e-05,0.0049557,0.014822,0.013786,0.0074934,0.049921,0.049757,0.11378,4.9093e-11,5.4438e-11
66976,1.6582e+09,0,9.9982e-05,5.6233e-06,3.1258e-05,0.0043646,0.014972,0.014577,0.0076229,0.052671,0.052448,0.11616,4.9923e-11,5.5251e-11
68927,1.6586e+09,0,0.00010817,5.5177e-06,3.1241e-05,0.0036792,0.012573,0.012513,0.0074402,0.048733,0.048605,0.11376,5.0679e-11,5.5933e-11
70943,1.6591e+09,0,9.5803e-05,6.0809e-06,1.8664e-05,0.0033583,0.012299,0.013446,0.007555,0.051236,0.051134,0.11641,5.1307e-11,5.6466e-11
72921,1.6596e+09,0,7.5315e-05,1.363e-05,1.561e-05,0.0031043,0.010209,0.010845,0.0073809,0.047882,0.047848,0.11451,5.1736e-11,5.6598e-11
74940,1.6601e+09,0,7.3868e-05,1.5081e-05,1.6413e-05,0.0030703,0.011118,0.010646,0.0074849,0.049969,0.050021,0.11686,5.2047e-11,5.6667e-11
76928,1.6606e+09,0,6.6031e-05,3.2549e-05,1.4463e-05,0.00294,0.011681,0.011028,0.0073468,0.047107,0.047143,0.11533,5.1733e-11,5.6115e-11
78932,1.6611e+09,0,6.2739e-05,2.5179e-05,1.5734e-05,0.0025288,0.015491,0.017125,0.0073541,0.04906,0.049018,0.11415,5.133e-11,5.5668e-11
80951,1.6616e+09,0,4.5589e-05,1.2541e-05,1.5116e-05,0.0018151,0.013034,0.015357,0.0072948,0.046171,0.046145,0.11561,5.0774e-11,5.484e-11
82994,1.6621e+09,0,3.711e-05,7.2142e-06,3.0865e-05,0.001535,0.011623,0.014986,0.0073316,0.048855,0.048965,0.11507,5.0813e-11,5.4449e-11
84999,1.6626e+09,0,3.088e-05,6.6165e-06,2.3442e-05,0.001361,0.0099906,0.012453,0.0071618,0.045635,0.045755,0.11287,5.0569e-11,5.3238e-11
87000,1.6631e+09,0,2.8715e-05,6.3573e-06,1.8046e-05,0.0012993,0.010886,0.012368,0.0072947,0.047976,0.048349,0.11546,5.0649e-11,5.2614e-11
89032,1.6636e+09,0,2.8364e-05,5.7949e-06,1.5166e-05,0.001247,0.010258,0.010466,0.0071753,0.045384,0.045687,0.11384,5.0225e-11,5.133e-11
91053,1.6641e+09,0,2.2523e-05,7.5584e-06,1.5358e-05,0.0012456,0.010628,0.010657,0.0072805,0.047405,0.047663,0.11591,4.9813e-11,5.0695e-11
93057,1.6646e+09,0,1.8444e-05,6.6284e-06,1.6132e-05,0.0012186,0.0098865,0.011039,0.0071338,0.044715,0.04485,0.11413,4.8144e-11,4.9439e-11
95080,1.6651e+09,0,1.725e-05,5.7773e-06,1.6952e-05,0.0011716,0.010695,0.012433,0.0072051,0.047324,0.047301,0.11365,4.7237e-11,4.9004e-11
97104,1.6656e+09,0,1.9499e-05,5.5684e-06,1.8972e-05,0.0011132,0.0098094,0.010795,0.0071301,0.044251,0.044228,0.11468,4.568e-11,4.7911e-11
99112,1.6661e+09,0,2.2774e-05,7.1636e-06,1.7729e-05,0.0010904,0.010456,0.010769,0.0071987,0.046827,0.046814,0.11429,4.5171e-11,4.7551e-11
1.0112e+05,1.6666e+09,0,2.4023e-05,6.3461e-06,1.6378e-05,0.0010871,0.009759,0.0097371,0.0072709,0.044018,0.044011,0.12212,4.4115e-11,4.6485e-11
1.0314e+05,1.6671e+09,0,2.218e-05,5.7685e-06,1.1966e-05,0.0010929,0.010742,0.010434,0.0076067,0.046308,0.046287,0.13495,4.3791e-11,4.6102e-11
1.0514e+05,1.6676e+09,0,1.8892e-05,6.02e-06,1.0437e-05,0.0010524,0.011615,0.0096523,0.0076438,0.043465,0.043447,0.14473,4.2913e-11,4.5402e-11
1.0717e+05,1.6681e+09,0,1.9797e-05,1.2099e-05,1.2409e-05,0.00097752,0.013398,0.010672,0.0079458,0.046115,0.045954,0.15794,4.2827e-11,4.559e-11
1.0914e+05,1.6686e+09,0,2.1711e-05,1.0366e-05,1.8813e-05,0.00089509,0.013672,0.012581,0.0080204,0.048646,0.048277,0.16358,4.2738e-11,4.5683e-11
1.1117e+05,1.6691e+09,0,2.0228e-05,1.155e-05,2.4022e-05,0.0007802,0.01077,0.014052,0.0075394,0.045642,0.04544,0.14962,4.259e-11,4.5226e-11
1.1318e+05,1.6696e+09,0,1.6175e-05,7.5702e-06,1.8097e-05,0.00067778,0.009712,0.01378,0.0073279,0.043121,0.043032,0.14422,4.2839e-11,4.4121e-11
1.1519e+05,1.6701e+09,0,1.3626e-05,5.8221e-06,1.7453e-05,0.00062216,0.010346,0.013516,0.0072702,0.045367,0.045589,0.13632,4.3403e-11,4.3665e-11
1.1721e+05,1.6706e+09,0,1.1952e-05,5.4766e-06,1.6188e-05,0.0005704,0.0095852,0.011159,0.0071476,0.042572,0.042778,0.13289,4.3743e-11,4.2695e-11
1.1922e+05,1.6711e+09,0,1.1529e-05,5.537e-06,1.2631e-05,0.00055095,0.01023,0.010809,0.0071795,0.044958,0.045389,0.12782,4.4172e-11,4.2417e-11
1.2129e+05,1.6716e+09,0,1.0686e-05,5.8894e-06,1.4582e-05,0.00054178,0.01069,0.010453,0.0072851,0.047314,0.047707,0.12739,4.4291e-11,4.2179e-11
1.233e+05,1.6721e+09,0,1.0572e-05,5.4444e-06,1.2214e-05,0.00053526,0.01016,0.010565,0.007164,0.044686,0.044882,0.12283,4.3413e-11,4.1563e-11
1.2532e+05,1.6726e+09,0,1.1456e-05,9.926e-06,1.4445e-05,0.00051301,0.010887,0.01301,0.007429,0.047189,0.047204,0.1282,4.2807e-11,4.1496e-11
1.2739e+05,1.6731e+09,0,8.6138e-06,5.5387e-06,1.3597e-05,0.00046711,0.010343,0.013353,0.0075716,0.044584,0.044574,0.13834,4.1047e-11,4.0942e-11
1.2944e+05,1.6736e+09,0,1.0954e-05,6.0727e-06,1.19e-05,0.00041972,0.0096917,0.011166,0.0074257,0.042056,0.042058,0.13811,3.9778e-11,4.045e-11
1.3146e+05,1.6741e+09,0,1.2848e-05,5.5059e-06,1.1596e-05,0.00040771,0.010525,0.011018,0.0073933,0.044605,0.044665,0.13233,3.9677e-11,4.0545e-11
1.3348e+05,1.6746e+09,0,1.1847e-05,5.0691e-06,1.2536e-05,0.00040107,0.0097856,0.0098945,0.0072463,0.041799,0.041849,0.12988,3.9073e-11,4.0079e-11
1.355e+05,1.6751e+09,0,8.557e-06,5.2054e-06,1.835e-05,0.0003931,0.010916,0.010483,0.0072655,0.044099,0.044152,0.12549,3.9027e-11,4.0064e-11
1.3748e+05,1.6755e+09,0,8.1477e-06,5.7381e-06,1.4092e-05,0.00038682,0.012051,0.011,0.0073151,0.046843,0.046828,0.12218,3.8996e-11,4.0033e-11
1.395e+05,1.676e+09,0,6.7813e-06,5.3566e-06,1.0033e-05,0.00037862,0.010374,0.0099725,0.0072225,0.043801,0.043776,0.12159,3.85e-11,3.9588e-11
1.4151e+05,1.6765e+09,0,6.4854e-06,5.9792e-06,1.03e-05,0.00037515,0.010393,0.010356,0.0074726,0.046287,0.046242,0.12726,3.8642e-11,3.9767e-11
1.4353e+05,1.677e+09,0,7.6636e-06,5.4994e-06,9.2986e-06,0.00037459,0.0093719,0.0094717,0.0076092,0.043421,0.043396,0.13837,3.8427e-11,3.9624e-11
1.455e+05,1.6775e+09,0,9.7896e-06,5.3781e-06,9.4074e-06,0.00037259,0.010431,0.01011,0.0078492,0.045218,0.045271,0.14893,3.855e-11,3.9768e-11
1.4751e+05,1.678e+09,0,9.138e-06,5.4292e-06,9.8239e-06,0.00036267,0.010244,0.0096999,0.007903,0.042696,0.042767,0.16014,3.8293e-11,3.9584e-11
1.4953e+05,1.6785e+09,0,8.0185e-06,5.4807e-06,9.877e-06,0.00035525,0.011734,0.0105,0.0081093,0.04485,0.044959,0.17076,3.8387e-11,3.9752e-11
1.5154e+05,1.679e+09,0,7.7975e-06,5.6933e-06,9.3976e-06,0.00033,0.011648,0.0097354,0.0077367,0.042155,0.042219,0.16301,3.8089e-11,3.9717e-11
1.5356e+05,1.6795e+09,0,5.5858e-06,5.5261e-06,1.1144e-05,0.00032033,0.01121,0.010411,0.0076378,0.044788,0.044758,0.15611,3.8261e-11,4.0092e-11
1.555e+05,1.68e+09,0,5.3422e-06,5.2836e-06,1.0231e-05,0.00031611,0.0099184,0.0096432,0.0072857,0.041922,0.041888,0.1437,3.7989e-11,4.0046e-11
1.5748e+05,1.6805e+09,0,5.9536e-06,5.5603e-06,1.1375e-05,0.00031428,0.010192,0.010237,0.0073189,0.044146,0.044103,0.14017,3.8099e-11,4.022e-11
1.595e+05,1.681e+09,0,7.3446e-06,5.5606e-06,1.0028e-05,0.00031542,0.0094023,0.009466,0.0071136,0.041499,0.04148,0.13218,3.7878e-11,3.9984e-11
1.615e+05,1.6815e+09,0,7.9801e-06,5.7975e-06,1.0473e-05,0.00031634,0.010004,0.010042,0.0071283,0.043706,0.043723,0.12681,3.7986e-11,4.0022e-11
1.6356e+05,1.682e+09,0,7.2678e-06,5.7393e-06,1.0027e-05,0.00031943,0.009262,0.0092791,0.0070544,0.040874,0.040895,0.12502,3.7768e-11,3.9719e-11
1.6551e+05,1.6825e+09,0,6.0972e-06,6.0123e-06,1.0467e-05,0.00032232,0.009925,0.0099349,0.0071232,0.043173,0.043209,0.1215,3.7965e-11,3.9834e-11
1.675e+05,1.683e+09,0,5.0877e-06,6.075e-06,1.1317e-05,0.00032448,0.010655,0.010561,0.007188,0.045526,0.045577,0.11863,3.8141e-11,3.9902e-11
1.6952e+05,1.6835e+09,0,6.7401e-06,6.2119e-06,1.0611e-05,0.00032336,0.010072,0.0098782,0.0071506,0.042685,0.042725,0.11872,3.7989e-11,3.9552e-11
1.7149e+05,1.684e+09,0,7.793e-06,5.8438e-06,1.0716e-05,0.00031977,0.0094187,0.0091616,0.0071383,0.03964,0.03967,0.12252,3.7659e-11,3.8981e-11
1.7355e+05,1.6845e+09,0,6.3408e-06,5.7096e-06,9.8175e-06,0.00032118,0.010182,0.0099489,0.0074813,0.042358,0.042375,0.13436,3.7858e-11,3.9022e-11
1.7548e+05,1.685e+09,0,8.2165e-06,5.8945e-06,1.0678e-05,0.00031761,0.010735,0.01047,0.0077475,0.0444,0.044396,0.14629,3.7914e-11,3.8939e-11
1.7749e+05,1.6854e+09,0,1.0196e-05,5.4893e-06,1.0502e-05,0.0003131,0.010029,0.0097167,0.0077731,0.041353,0.041345,0.15667,3.7639e-11,3.8494e-11
1.7951e+05,1.6859e+09,0,7.1662e-06,6.1104e-06,1.2925e-05,0.00031244,0.010993,0.010428,0.0079989,0.04406,0.044004,0.16827,3.7762e-11,3.8504e-11
1.8146e+05,1.6864e+09,0,6.0239e-06,5.7124e-06,1.0843e-05,0.0003083,0.010552,0.0097528,0.0075524,0.040871,0.040816,0.15618,3.7566e-11,3.8153e-11
1.8346e+05,1.6869e+09,0,6.4908e-06,5.6434e-06,1.002e-05,0.00030305,0.01132,0.010327,0.0074925,0.043213,0.043058,0.15045,3.7733e-11,3.8247e-11
1.8542e+05,1.6874e+09,0,6.7616e-06,5.5378e-06,9.0514e-06,0.00029637,0.0099762,0.009543,0.0071796,0.040281,0.040152,0.1397,3.7457e-11,3.7934e-11
1.8741e+05,1.6879e+09,0,7.9387e-06,5.6859e-06,9.1981e-06,0.00029469,0.010191,0.010143,0.0072164,0.042497,0.042347,0.13692,3.7537e-11,3.8009e-11
1.8935e+05,1.6884e+09,0,6.8925e-06,5.3918e-06,9.1312e-06,0.00029651,0.0093224,0.009358,0.0070133,0.039515,0.039423,0.12934,3.7298e-11,3.7803e-11
1.9136e+05,1.6889e+09,0,6.1852e-06,5.3753e-06,9.2071e-06,0.00029905,0.0098935,0.0099278,0.0073374,0.041747,0.041689,0.13992,3.7445e-11,3.7949e-11
1.9337e+05,1.6894e+09,0,5.9537e-06,5.4731e-06,8.8655e-06,0.00030143,0.0092095,0.0092274,0.007454,0.039059,0.039029,0.15029,3.7321e-11,3.7836e-11
1.9535e+05,1.6899e+09,0,7.1499e-06,5.7359e-06,9.0651e-06,0.00030189,0.0099811,0.0099466,0.007733,0.041353,0.041354,0.16085,3.7644e-11,3.8137e-11
1.9733e+05,1.6904e+09,0,6.8486e-06,5.6663e-06,8.8888e-06,0.00030313,0.00941,0.0092208,0.0077192,0.038688,0.0387,0.16913,3.742e-11,3.7893e-11
1.9937e+05,1.6909e+09,0,5.9414e-06,5.9407e-06,8.9279e-06,0.00030301,0.010779,0.0099302,0.0079705,0.041099,0.041134,0.1812,3.7642e-11,3.8108e-11
2.0132e+05,1.6914e+09,0,5.6478e-06,5.621e-06,8.7123e-06,0.00029442,0.010312,0.0091239,0.007869,0.038146,0.038169,0.18744,3.7376e-11,3.7909e-11
2.0334e+05,1.6919e+09,0,6.0429e-06,5.5012e-06,8.9482e-06,0.00028735,0.01116,0.0098099,0.0080739,0.040476,0.040432,0.19848,3.7579e-11,3.8207e-11
2.0531e+05,1.6924e+09,0,5.9231e-06,5.248e-06,8.9438e-06,0.00027797,0.0099839,0.0090597,0.0075226,0.037777,0.037726,0.17777,3.727e-11,3.8093e-11
2.0736e+05,1.6929e+09,0,6.1857e-06,5.5928e-06,1.1297e-05,0.00027351,0.010036,0.0097955,0.0073576,0.04049,0.040353,0.1607,3.7589e-11,3.8501e-11
2.0936e+05,1.6934e+09,0,5.6152e-06,5.5214e-06,1.0014e-05,0.00027664,0.0090779,0.0091022,0.0074433,0.037745,0.03765,0.16966,3.742e-11,3.8358e-11
2.1136e+05,1.6939e+09,0,4.5621e-06,5.9791e-06,1.2949e-05,0.00027642,0.0098494,0.0097535,0.0074378,0.040026,0.03998,0.16301,3.7608e-11,3.8464e-11
2.1336e+05,1.6944e+09,0,5.7048e-06,6.0807e-06,9.3191e-06,0.00027782,0.009339,0.0090777,0.0071329,0.037292,0.037282,0.1478,3.742e-11,3.8065e-11
2.1534e+05,1.6949e+09,0,5.389e-06,6.0163e-06,9.8306e-06,0.00027908,0.0098812,0.0097779,0.0072322,0.039761,0.039788,0.1432,3.7664e-11,3.8198e-11
2.173e+05,1.6954e+09,0,5.0085e-06,5.6961e-06,1.1223e-05,0.00027795,0.0091727,0.0089854,0.0072545,0.036952,0.036976,0.14726,3.741e-11,3.7814e-11
2.1936e+05,1.6959e+09,0,5.7824e-06,5.9625e-06,9.6917e-06,0.00027745,0.010094,0.0097121,0.0075438,0.039314,0.039341,0.15739,3.754e-11,3.7826e-11
2.2137e+05,1.6964e+09,0,7.8544e-06,5.3638e-06,9.8018e-06,0.00027489,0.010489,0.010332,0.0075497,0.041451,0.041467,0.15437,3.7678e-11,3.7876e-11
2.2334e+05,1.6968e+09,0,9.2506e-06,5.2552e-06,9.4038e-06,0.00027256,0.0097898,0.009646,0.0072456,0.03881,0.03882,0.14221,3.7454e-11,3.7582e-11
2.2539e+05,1.6973e+09,0,7.5688e-06,5.1353e-06,9.4675e-06,0.00027518,0.010358,0.010189,0.0072878,0.040827,0.040816,0.13809,3.7644e-11,3.7735e-11
2.2738e+05,1.6978e+09,0,6.2263e-06,5.2051e-06,9.0709e-06,0.00027656,0.0096363,0.0096797,0.0071373,0.038571,0.038551,0.13057,3.7606e-11,3.7646e-11
2.294e+05,1.6983e+09,0,5.3747e-06,5.2884e-06,9.0428e-06,0.00027824,0.010161,0.010285,0.0071559,0.041018,0.040988,0.12547,3.7762e-11,3.7751e-11
2.3141e+05,1.6988e+09,0,6.7781e-06,5.0659e-06,8.6628e-06,0.00027778,0.0093487,0.0095647,0.0072169,0.03811,0.038095,0.13235,3.7546e-11,3.7489e-11
2.3337e+05,1.6993e+09,0,7.4611e-06,5.1754e-06,9.0747e-06,0.00027743,0.0099481,0.01017,0.0075015,0.040291,0.040308,0.14277,3.7797e-11,3.7694e-11
2.3536e+05,1.6998e+09,0,5.863e-06,5.0757e-06,9.0089e-06,0.00027953,0.0092785,0.0095128,0.007291,0.037649,0.037673,0.13834,3.7769e-11,3.7622e-11
2.3738e+05,1.7003e+09,0,6.167e-06,5.1965e-06,9.1095e-06,0.00027954,0.0099014,0.010237,0.0072287,0.039759,0.039822,0.13166,3.8003e-11,3.7791e-11
2.3935e+05,1.7008e+09,0,6.2453e-06,5.2508e-06,9.2311e-06,0.0002788,0.0093229,0.0095358,0.0071322,0.037425,0.037486,0.12959,3.8026e-11,3.7718e-11
2.4134e+05,1.7013e+09,0,5.4155e-06,5.7211e-06,9.0361e-06,0.00028111,0.0099236,0.010055,0.0071296,0.039508,0.039596,0.12491,3.8268e-11,3.7904e-11
2.433e+05,1.7018e+09,0,5.4023e-06,5.7718e-06,9.0469e-06,0.00028259,0.0091903,0.0092276,0.0069474,0.036866,0.036933,0.12003,3.8063e-11,3.7667e-11
2.4529e+05,1.7023e+09,0,5.9307e-06,6.0223e-06,9.3989e-06,0.00028427,0.0099289,0.009979,0.0070883,0.039391,0.039455,0.12095,3.8321e-11,3.7943e-11
2.4724e+05,1.7028e+09,0,4.8165e-06,5.9549e-06,8.8612e-06,0.00028724,0.0091322,0.0092506,0.0069163,0.036651,0.036694,0.11705,3.7914e-11,3.7651e-11
2.4927e+05,1.7033e+09,0,4.9182e-06,6.4261e-06,9.3142e-06,0.00028721,0.0098338,0.010107,0.007043,0.03894,0.038981,0.11834,3.7973e-11,3.782e-11
2.5127e+05,1.7038e+09,0,6.5655e-06,5.7868e-06,9.5938e-06,0.0002826,0.0091432,0.0096129,0.0068769,0.036349,0.036384,0.11519,3.7383e-11,3.7494e-11
2.5331e+05,1.7043e+09,0,6.1525e-06,6.252e-06,9.5655e-06,0.00028014,0.0097547,0.010445,0.0069235,0.038446,0.038523,0.11339,3.7348e-11,3.76e-11
2.5532e+05,1.7048e+09,0,4.6415e-06,9.6406e-06,8.7009e-06,0.00026889,0.0092897,0.010876,0.0069173,0.036158,0.036236,0.11429,3.7071e-11,3.7546e-11
2.5733e+05,1.7053e+09,0,5.8775e-06,5.3617e-06,9.6567e-06,0.00025844,0.0099802,0.011919,0.0069924,0.038616,0.038868,0.1133,3.7067e-11,3.7643e-11
2.5931e+05,1.7058e+09,0,5.5139e-06,5.3705e-06,9.5849e-06,0.00024963,0.010429,0.011676,0.0070499,0.041127,0.041576,0.11231,3.7204e-11,3.7804e-11
2.613e+05,1.7063e+09,0,5.2176e-06,5.4784e-06,9.0076e-06,0.00024302,0.0096287,0.010335,0.0070975,0.038368,0.038708,0.11825,3.6971e-11,3.7541e-11
2.6329e+05,1.7068e+09,0,5.2262e-06,5.0051e-06,9.1495e-06,0.00023868,0.0089263,0.0093284,0.0071755,0.035862,0.036124,0.12794,3.6752e-11,3.7248e-11
2.6535e+05,1.7073e+09,0,4.7361e-06,5.0593e-06,9.6816e-06,0.00023797,0.0095129,0.0096858,0.0074837,0.038314,0.038625,0.14089,3.701e-11,3.7445e-11
2.6736e+05,1.7078e+09,0,4.8559e-06,4.9912e-06,1.0954e-05,0.00023634,0.009045,0.0090044,0.0071514,0.035985,0.036201,0.13313,3.6912e-11,3.7257e-11
2.6933e+05,1.7083e+09,0,4.8293e-06,5.1342e-06,1.0998e-05,0.00023546,0.010074,0.0097575,0.0071272,0.038513,0.038724,0.12855,3.7243e-11,3.749e-11
2.7135e+05,1.7088e+09,0,4.8834e-06,5.202e-06,1.0694e-05,0.00023445,0.010946,0.010421,0.0071834,0.040964,0.041139,0.12824,3.7357e-11,3.7515e-11
2.7334e+05,1.7093e+09,0,4.7375e-06,5.0159e-06,1.0187e-05,0.00023101,0.010195,0.0096754,0.0069994,0.038255,0.038362,0.12304,3.7193e-11,3.7258e-11
2.7533e+05,1.7098e+09,0,3.8026e-06,5.0902e-06,1.0292e-05,0.00022979,0.010826,0.010298,0.007032,0.040757,0.040795,0.11991,3.7383e-11,3.7416e-11
2.7738e+05,1.7103e+09,0,3.4216e-06,4.9687e-06,1.0029e-05,0.00022821,0.0098659,0.0095703,0.006963,0.038203,0.038207,0.11962,3.7161e-11,3.7218e-11
2.7939e+05,1.7108e+09,0,3.5338e-06,5.092e-06,1.0276e-05,0.00022719,0.01047,0.01027,0.0070237,0.040816,0.040757,0.11753,3.7314e-11,3.7402e-11
2.8136e+05,1.7113e+09,0,3.5304e-06,4.9798e-06,9.7477e-06,0.00022712,0.0096084,0.0095308,0.0069776,0.038038,0.037987,0.11761,3.7189e-11,3.7353e-11
2.8333e+05,1.7117e+09,0,3.2445e-06,5.1571e-06,9.7222e-06,0.00022788,0.010264,0.010239,0.007065,0.040771,0.040703,0.11622,3.7428e-11,3.7634e-11
2.8527e+05,1.7122e+09,0,3.5276e-06,4.9879e-06,9.2642e-06,0.00022818,0.0094634,0.0094887,0.0069268,0.037956,0.037911,0.11328,3.7231e-11,3.751e-11
2.8729e+05,1.7127e+09,0,3.8267e-06,5.1919e-06,9.2248e-06,0.000229,0.0099306,0.0099973,0.0070477,0.040099,0.040064,0.11494,3.737e-11,3.7689e-11
2.8929e+05,1.7132e+09,0,3.5008e-06,5.1509e-06,1.0327e-05,0.00022827,0.0095467,0.0093353,0.0069127,0.037597,0.037585,0.11274,3.7201e-11,3.7566e-11
2.9131e+05,1.7137e+09,0,3.7898e-06,5.2202e-06,1.1466e-05,0.0002202,0.013043,0.0099485,0.0070523,0.039777,0.039806,0.11473,3.7381e-11,3.7768e-11
2.9332e+05,1.7142e+09,0,3.8688e-06,5.0755e-06,9.073e-06,0.00019508,0.012668,0.0093537,0.0072348,0.037671,0.037651,0.12537,3.7234e-11,3.783e-11
2.9532e+05,1.7147e+09,0,4.1615e-06,5.2515e-06,9.1918e-06,0.00018349,0.011966,0.010164,0.0075269,0.040389,0.040175,0.13696,3.7526e-11,3.8318e-11
2.9731e+05,1.7152e+09,0,4.3696e-06,5.1972e-06,9.2035e-06,0.00017503,0.010262,0.0094074,0.0075562,0.037632,0.037452,0.14755,3.7266e-11,3.8387e-11
2.9934e+05,1.7157e+09,0,4.0763e-06,5.2561e-06,9.5054e-06,0.00017328,0.010512,0.010078,0.0076563,0.040164,0.039901,0.15439,3.7385e-11,3.8676e-11
3.0134e+05,1.7162e+09,0,4.5023e-06,5.1255e-06,9.3526e-06,0.000172,0.0095028,0.0094097,0.0072301,0.037722,0.037537,0.14297,3.714e-11,3.8645e-11
3.0333e+05,1.7167e+09,0,4.2838e-06,5.2011e-06,9.4804e-06,0.00017315,0.010012,0.0099948,0.0072126,0.040084,0.039911,0.14001,3.7253e-11,3.8849e-11
3.0532e+05,1.7172e+09,0,3.4878e-06,5.0321e-06,8.5887e-06,0.00017545,0.0092272,0.0092,0.007223,0.037418,0.037311,0.14532,3.7095e-11,3.8814e-11
3.0734e+05,1.7177e+09,0,2.9666e-06,5.4505e-06,9.3289e-06,0.0001761,0.0099146,0.0098384,0.0074759,0.039838,0.039733,0.15588,3.7251e-11,3.9071e-11
3.0928e+05,1.7182e+09,0,4.0584e-06,5.585e-06,9.4695e-06,0.00017512,0.0092828,0.009343,0.0072556,0.037548,0.037478,0.1523,3.7003e-11,3.8956e-11
3.113e+05,1.7187e+09,0,4.7949e-06,5.3069e-06,1.0048e-05,0.00017482,0.0098233,0.010015,0.0071249,0.039737,0.039691,0.14196,3.7132e-11,3.9105e-11
3.1319e+05,1.7192e+09,0,4.8172e-06,5.09e-06,1.0187e-05,0.00017525,0.0092152,0.0093577,0.0069842,0.03756,0.037543,0.13745,3.6949e-11,3.8909e-11
3.1515e+05,1.7197e+09,0,3.8279e-06,5.082e-06,8.721e-06,0.00017882,0.0098769,0.0099238,0.0069977,0.039865,0.03989,0.13056,3.7292e-11,3.919e-11
3.1716e+05,1.7202e+09,0,3.0247e-06,5.0332e-06,8.8335e-06,0.00018068,0.0091426,0.0091729,0.0069244,0.037359,0.037383,0.12782,3.7197e-11,3.9125e-11
3.1917e+05,1.7207e+09,0,3.4695e-06,5.1962e-06,9.8083e-06,0.00018055,0.009704,0.0097459,0.0069443,0.039648,0.039676,0.12325,3.7316e-11,3.9239e-11
3.2119e+05,1.7212e+09,0,4.2953e-06,5.2531e-06,1.0487e-05,0.00018038,0.010423,0.010369,0.0070581,0.042197,0.042247,0.1234,3.7458e-11,3.9312e-11
3.2319e+05,1.7217e+09,0,5.3031e-06,5.0727e-06,9.7571e-06,0.00018064,0.0097278,0.00957,0.0069056,0.039446,0.03949,0.11903,3.7207e-11,3.8864e-11
3.252e+05,1.7222e+09,0,4.5148e-06,4.8389e-06,1.1993e-05,0.00017842,0.0093993,0.0089767,0.0067712,0.037197,0.037234,0.11556,3.6975e-11,3.8345e-11
3.2722e+05,1.7227e+09,0,5.1679e-06,4.9876e-06,1.0236e-05,0.00017772,0.010478,0.0095861,0.0068899,0.039368,0.039392,0.11667,3.7084e-11,3.8174e-11
3.2923e+05,1.7231e+09,0,3.8387e-06,5.1458e-06,8.6833e-06,0.00017831,0.010884,0.010252,0.0069599,0.0417,0.041664,0.11463,3.7351e-11,3.8178e-11
3.3123e+05,1.7236e+09,0,3.7647e-06,5.2412e-06,9.4312e-06,0.00017596,0.0098162,0.009613,0.0068521,0.039341,0.039308,0.11228,3.72e-11,3.7792e-11
3.3329e+05,1.7241e+09,0,3.6242e-06,5.8235e-06,9.3151e-06,0.00017614,0.010497,0.010169,0.0069922,0.041697,0.04163,0.11419,3.7413e-11,3.7876e-11
3.3522e+05,1.7246e+09,0,3.4551e-06,5.7754e-06,8.8034e-06,0.00017619,0.0096836,0.00955,0.0070777,0.039272,0.03922,0.11938,3.7428e-11,3.7761e-11
3.3728e+05,1.7251e+09,0,3.8214e-06,5.5664e-06,8.8509e-06,0.0001767,0.010239,0.010216,0.0073859,0.041908,0.041846,0.13088,3.7614e-11,3.789e-11
3.3929e+05,1.7256e+09,0,3.5093e-06,5.3237e-06,8.902e-06,0.00017749,0.0094248,0.0094672,0.0074471,0.039199,0.039163,0.14174,3.7345e-11,3.7603e-11
3.413e+05,1.7261e+09,0,3.134e-06,5.3866e-06,9.0475e-06,0.00017874,0.010064,0.010085,0.007651,0.041606,0.041583,0.15312,3.7401e-11,3.7636e-11
3.4332e+05,1.7266e+09,0,3.3729e-06,5.6701e-06,8.6954e-06,0.00017923,0.0093698,0.0094504,0.007606,0.038957,0.038949,0.16181,3.7127e-11,3.7359e-11
3.4533e+05,1.7271e+09,0,3.1431e-06,5.236e-06,8.8273e-06,0.00018073,0.0098916,0.0099635,0.0077799,0.040889,0.040902,0.17328,3.7209e-11,3.7433e-11
3.4732e+05,1.7276e+09,0,3.0301e-06,5.1488e-06,8.5271e-06,0.00018222,0.0093712,0.0094052,0.0077372,0.038917,0.038938,0.18177,3.7045e-11,3.7276e-11
3.4931e+05,1.7281e+09,0,2.7268e-06,5.2926e-06,9.2217e-06,0.00018338,0.0099624,0.0099939,0.0079108,0.041042,0.04108,0.19263,3.7249e-11,3.7478e-11
3.5127e+05,1.7286e+09,0,2.5755e-06,5.516e-06,8.6418e-06,0.00018495,0.0093238,0.0093461,0.0074829,0.038633,0.038664,0.17954,3.7061e-11,3.7267e-11
3.5329e+05,1.7291e+09,0,2.6444e-06,5.5692e-06,8.5129e-06,0.0001866,0.0099874,0.01003,0.0073547,0.041125,0.041165,0.16826,3.7235e-11,3.7414e-11
3.5524e+05,1.7296e+09,0,2.6873e-06,5.3059e-06,8.4133e-06,0.0001883,0.0092195,0.0092448,0.0069937,0.038354,0.038389,0.1519,3.6911e-11,3.7101e-11
3.5724e+05,1.7301e+09,0,3.3851e-06,5.767e-06,8.5031e-06,0.00018855,0.0098139,0.0098343,0.0072116,0.040687,0.040739,0.15705,3.7052e-11,3.724e-11
3.5926e+05,1.7306e+09,0,4.4779e-06,5.3686e-06,8.4548e-06,0.00018876,0.0091879,0.0091758,0.0073006,0.038179,0.038223,0.16611,3.6868e-11,3.7096e-11
3.6121e+05,1.7311e+09,0,3.3595e-06,5.1907e-06,9.6497e-06,0.00018993,0.0097921,0.0098197,0.0075421,0.040583,0.040639,0.17546,3.7046e-11,3.7285e-11
3.6321e+05,1.7316e+09,0,2.5203e-06,5.2471e-06,8.7675e-06,0.00019247,0.0091488,0.0091507,0.0075242,0.038081,0.038125,0.18218,3.6823e-11,3.703e-11
3.6519e+05,1.7321e+09,0,2.686e-06,5.5077e-06,8.6839e-06,0.00019388,0.0097287,0.0097398,0.0077257,0.040156,0.040205,0.1922,3.697e-11,3.7136e-11
3.6712e+05,1.7326e+09,0,3.5292e-06,5.3756e-06,8.4844e-06,0.00019432,0.0089645,0.0089954,0.0076305,0.037553,0.037593,0.19733,3.6688e-11,3.6822e-11
3.6917e+05,1.7331e+09,0,2.8121e-06,5.2111e-06,9.0122e-06,0.00019655,0.009549,0.009577,0.0078371,0.039933,0.039979,0.2075,3.692e-11,3.7036e-11
3.7117e+05,1.7336e+09,0,2.4432e-06,5.3643e-06,8.8183e-06,0.00019803,0.008552,0.0085641,0.007589,0.037226,0.037262,0.20295,3.6754e-11,3.6834e-11
3.7318e+05,1.7341e+09,0,2.6491e-06,5.361e-06,9.0024e-06,0.00019927,0.0091407,0.0091598,0.0074261,0.039459,0.0395,0.18479,3.7061e-11,3.711e-11
3.7521e+05,1.7346e+09,0,2.8894e-06,5.5344e-06,9.2029e-06,0.00020063,0.010018,0.010049,0.0073111,0.042168,0.042216,0.1652,3.7451e-11,3.7482e-11
3.7722e+05,1.7351e+09,0,3.5657e-06,5.354e-06,9.2107e-06,0.00020105,0.0095372,0.0095643,0.0070831,0.039584,0.039624,0.1495,3.7407e-11,3.7419e-11
3.7924e+05,1.7356e+09,0,3.6941e-06,5.4628e-06,9.3116e-06,0.00020195,0.010236,0.010262,0.0070721,0.041979,0.042026,0.13885,3.7535e-11,3.7517e-11
3.8126e+05,1.7361e+09,0,3.4025e-06,5.3736e-06,9.0711e-06,0.00020375,0.0094663,0.009491,0.0069739,0.039145,0.039182,0.13391,3.7249e-11,3.7214e-11
3.8316e+05,1.7365e+09,0,3.3454e-06,5.4272e-06,8.8434e-06,0.00020538,0.010156,0.010147,0.0070206,0.041435,0.04148,0.12721,3.7448e-11,3.7396e-11
3.8518e+05,1.737e+09,0,4.0996e-06,5.335e-06,9.3559e-06,0.000205,0.0097209,0.0096794,0.0069828,0.03904,0.039077,0.12514,3.7257e-11,3.7248e-11
3.8719e+05,1.7375e+09,0,3.5088e-06,5.542e-06,9.2651e-06,0.00020646,0.01041,0.01043,0.0070641,0.041859,0.041904,0.12153,3.7396e-11,3.7399e-11
3.8913e+05,1.738e+09,0,2.9835e-06,5.5843e-06,8.8835e-06,0.00020767,0.0095584,0.0096426,0.0070701,0.038884,0.038921,0.12448,3.7142e-11,3.7183e-11
3.9119e+05,1.7385e+09,0,3.7886e-06,5.4636e-06,8.9758e-06,0.00020808,0.01036,0.010509,0.0073982,0.041517,0.041573,0.13635,3.7274e-11,3.7344e-11
3.9315e+05,1.739e+09,0,3.8896e-06,5.1993e-06,8.6422e-06,0.00020843,0.0095862,0.0096799,0.0074425,0.038961,0.03901,0.14537,3.7019e-11,3.713e-11
3.9517e+05,1.7395e+09,0,4.0017e-06,5.4141e-06,8.6164e-06,0.00020893,0.010133,0.010231,0.0076619,0.041426,0.041494,0.15595,3.7191e-11,3.7308e-11
3.9722e+05,1.74e+09,0,4.0402e-06,5.0678e-06,8.5539e-06,0.00020995,0.0094433,0.0095165,0.007682,0.03922,0.039277,0.16645,3.7017e-11,3.7167e-11
3.9923e+05,1.7405e+09,0,3.8254e-06,5.2342e-06,8.563e-06,0.00021096,0.010003,0.010059,0.0078357,0.041611,0.041683,0.17635,3.714e-11,3.7287e-11
4.0124e+05,1.741e+09,0,4.145e-06,5.08e-06,8.3665e-06,0.00021138,0.009366,0.0094194,0.0077823,0.039043,0.0391,0.18529,3.6975e-11,3.714e-11
4.0329e+05,1.7415e+09,0,3.6572e-06,5.1019e-06,8.9066e-06,0.00021254,0.010021,0.010091,0.0079075,0.041398,0.041467,0.19389,3.7142e-11,3.7324e-11
4.0526e+05,1.742e+09,0,3.3296e-06,4.9767e-06,9.4378e-06,0.00021231,0.0093591,0.0093355,0.0077943,0.038827,0.038883,0.1991,3.703e-11,3.7202e-11
4.0729e+05,1.7425e+09,0,4.0986e-06,5.0839e-06,8.4213e-06,0.00021338,0.010035,0.010006,0.0079874,0.041506,0.041572,0.20975,3.7371e-11,3.7507e-11
4.0932e+05,1.743e+09,0,4.3572e-06,5.0386e-06,8.4354e-06,0.00021332,0.0093115,0.0093178,0.007859,0.039291,0.039342,0.21429,3.7232e-11,3.7339e-11
4.113e+05,1.7435e+09,0,3.8656e-06,5.2183e-06,8.3101e-06,0.00021465,0.0098796,0.0099145,0.0079475,0.041719,0.041776,0.22037,3.7405e-11,3.7491e-11
4.1331e+05,1.744e+09,0,3.4937e-06,5.5273e-06,8.2069e-06,0.00021584,0.0091989,0.0092544,0.0078348,0.03928,0.039324,0.22607,3.7194e-11,3.7297e-11
4.1531e+05,1.7445e+09,0,4.1491e-06,5.1238e-06,8.544e-06,0.00021592,0.0098659,0.0099396,0.0079313,0.041778,0.041843,0.23099,3.7382e-11,3.7501e-11
4.1733e+05,1.745e+09,0,3.9339e-06,5.0733e-06,8.4367e-06,0.00021618,0.0091672,0.0092219,0.007814,0.039331,0.039386,0.23562,3.7118e-11,3.7274e-11
4.1934e+05,1.7455e+09,0,3.5677e-06,5.0978e-06,8.5753e-06,0.0002176,0.0097783,0.0098242,0.0078944,0.041685,0.041752,0.23924,3.7225e-11,3.7394e-11
4.2132e+05,1.746e+09,0,3.7533e-06,4.9766e-06,8.5668e-06,0.00021788,0.009048,0.0090783,0.0077208,0.039152,0.039204,0.23916,3.6919e-11,3.7102e-11
4.233e+05,1.7465e+09,0,3.6531e-06,5.0751e-06,8.6502e-06,0.0002192,0.009697,0.0097312,0.0078769,0.041764,0.041822,0.24586,3.7102e-11,3.7283e-11
4.2531e+05,1.747e+09,0,3.275e-06,4.9742e-06,8.322e-06,0.00022058,0.0089841,0.0090064,0.0077167,0.039322,0.039369,0.24504,3.6847e-11,3.7032e-11
4.273e+05,1.7475e+09,0,3.139e-06,5.1112e-06,8.5078e-06,0.0002215,0.0095793,0.009598,0.0078158,0.041756,0.041805,0.247,3.7e-11,3.7185e-11
4.293e+05,1.748e+09,0,4.1319e-06,4.9979e-06,8.9161e-06,0.00022125,0.0090462,0.0090835,0.0077338,0.039704,0.039741,0.25017,3.6786e-11,3.6991e-11
4.313e+05,1.7485e+09,0,4.8856e-06,5.1233e-06,8.6623e-06,0.00022126,0.0097261,0.0097704,0.0078097,0.041772,0.041813,0.25066,3.6895e-11,3.7073e-11
4.3332e+05,1.7489e+09,0,4.8343e-06,5.2392e-06,8.6562e-06,0.00022265,0.010437,0.010486,0.007969,0.044538,0.044587,0.25599,3.7034e-11,3.7193e-11
4.3535e+05,1.7494e+09,0,3.064e-06,5.1564e-06,8.7008e-06,0.00022517,0.0096068,0.0096463,0.0078195,0.04192,0.041961,0.25378,3.6748e-11,3.6897e-11
4.3736e+05,1.7499e+09,0,4.4896e-06,5.6576e-06,8.5846e-06,0.00022446,0.010331,0.010373,0.0079585,0.044243,0.044297,0.25796,3.6847e-11,3.6981e-11
4.3936e+05,1.7504e+09,0,4.4722e-06,5.543e-06,8.4722e-06,0.00022572,0.0096236,0.0096624,0.0078242,0.041902,0.041947,0.25605,3.6588e-11,3.6704e-11
4.4137e+05,1.7509e+09,0,4.4597e-06,5.6704e-06,8.58e-06,0.00022659,0.010326,0.01038,0.0079458,0.044738,0.044798,0.25672,3.6747e-11,3.6838e-11
4.4339e+05,1.7514e+09,0,4.4674e-06,5.5288e-06,8.4468e-06,0.00022779,0.0095387,0.0095884,0.0078368,0.041969,0.042018,0.25765,3.6483e-11,3.6563e-11
4.454e+05,1.7519e+09,0,4.4964e-06,5.6491e-06,8.5354e-06,0.00022854,0.010113,0.01017,0.0079377,0.04439,0.044451,0.25748,3.6604e-11,3.6665e-11
4.4741e+05,1.7524e+09,0,4.4919e-06,5.5059e-06,8.4049e-06,0.00022928,0.0094098,0.0094602,0.0078259,0.04187,0.041921,0.25463,3.6532e-11,3.658e-11
4.4951e+05,1.7529e+09,0,4.4934e-06,5.6144e-06,8.5057e-06,0.0002306,0.010077,0.01013,0.0079928,0.044522,0.044585,0.25882,3.675e-11,3.6785e-11
4.5154e+05,1.7534e+09,0,4.5077e-06,5.5071e-06,8.3852e-06,0.00023146,0.0094861,0.0095305,0.0078906,0.042474,0.042528,0.25682,3.6618e-11,3.6641e-11
4.5363e+05,1.7539e+09,0,4.5188e-06,5.5878e-06,8.4575e-06,0.00023228,0.010036,0.010085,0.0079817,0.044809,0.044873,0.25638,3.6743e-11,3.6748e-11
4.5567e+05,1.7544e+09,0,4.5251e-06,5.4705e-06,8.318e-06,0.00023305,0.0093153,0.0093578,0.007841,0.042275,0.042328,0.25341,3.6599e-11,3.659e-11
4.577e+05,1.7549e+09,0,4.5376e-06,5.5858e-06,8.4267e-06,0.00023439,0.010048,0.010093,0.0080324,0.045111,0.045174,0.25801,3.6889e-11,3.6868e-11
4.5973e+05,1.7554e+09,0,4.5393e-06,5.4585e-06,8.2952e-06,0.00023526,0.0093705,0.0094088,0.0078935,0.042773,0.042825,0.25548,3.669e-11,3.6653e-11
4.6178e+05,1.7559e+09,0,4.5576e-06,5.5502e-06,8.3749e-06,0.00023599,0.0099326,0.0099745,0.0079983,0.045072,0.045133,0.255,3.6905e-11,3.6849e-11
4.6384e+05,1.7564e+09,0,4.5692e-06,5.6736e-06,8.4877e-06,0.00023689,0.010699,0.010746,0.00818,0.048199,0.048272,0.25975,3.7176e-11,3.71e-11
4.6587e+05,1.7569e+09,0,4.5861e-06,5.5317e-06,8.3497e-06,0.00023824,0.0099201,0.0099584,0.0080322,0.045517,0.045574,0.25722,3.6954e-11,3.687e-11
4.6792e+05,1.7574e+09,0,4.597e-06,5.4091e-06,8.2262e-06,0.00023893,0.0092264,0.0092579,0.007886,0.042958,0.043004,0.25403,3.6833e-11,3.6733e-11
4.6993e+05,1.7579e+09,0,4.6023e-06,5.5331e-06,8.3334e-06,0.00023972,0.00992,0.0099568,0.008019,0.045693,0.045749,0.25437,3.7104e-11,3.6984e-11
4.7204e+05,1.7584e+09,0,4.6132e-06,5.6372e-06,8.4287e-06,0.000241,0.010543,0.010582,0.008163,0.048351,0.048414,0.25831,3.7291e-11,3.7156e-11
4.7409e+05,1.7589e+09,0,4.6189e-06,5.5256e-06,8.3069e-06,0.00024174,0.0098654,0.0099008,0.0080427,0.045929,0.045981,0.25605,3.7195e-11,3.7045e-11
4.7618e+05,1.7594e+09,0,4.6335e-06,5.4233e-06,8.2066e-06,0.00024263,0.009317,0.0093498,0.0079315,0.044081,0.044125,0.2545,3.7101e-11,3.6936e-11
4.7819e+05,1.7599e+09,0,4.6358e-06,5.5371e-06,8.3048e-06,0.00024328,0.0099422,0.0099795,0.0080489,0.046595,0.046648,0.25439,3.7368e-11,3.7184e-11
4.8029e+05,1.7604e+09,0,4.6462e-06,5.4163e-06,8.1781e-06,0.00024451,0.0092434,0.009275,0.0079384,0.044205,0.044247,0.25579,3.7193e-11,3.7001e-11
4.8233e+05,1.7609e+09,0,4.6546e-06,5.5325e-06,8.2813e-06,0.00024529,0.0098999,0.0099367,0.0080501,0.046954,0.047005,0.25621,3.7378e-11,3.7167e-11
4.8437e+05,1.7614e+09,0,4.6606e-06,5.4158e-06,8.1732e-06,0.00024605,0.0092729,0.0093052,0.0079107,0.044769,0.044812,0.254,3.7205e-11,3.6981e-11
4.8646e+05,1.7619e+09,0,4.638e-06,5.5305e-06,8.2698e-06,0.00024587,0.0099552,0.0099628,0.0077863,0.047359,0.047408,0.23222,3.7433e-11,3.7204e-11
4.8858e+05,1.7624e+09,0,4.5946e-06,5.6172e-06,8.2287e-06,0.0002454,0.011212,0.010855,0.007657,0.050478,0.050521,0.2039,3.7765e-11,3.7553e-11
4.9062e+05,1.7629e+09,0,4.553e-06,5.3607e-06,7.5381e-06,0.00024398,0.010908,0.01018,0.007296,0.047535,0.047559,0.17458,3.7558e-11,3.74e-11
4.927e+05,1.7633e+09,0,4.509e-06,5.38e-06,7.1698e-06,0.00024279,0.012301,0.0111,0.0072744,0.050732,0.050686,0.15638,3.7737e-11,3.7654e-11
4.9478e+05,1.7638e+09,0,4.4746e-06,5.0737e-06,6.2683e-06,0.00024245,0.011452,0.010274,0.0071356,0.047568,0.047526,0.14675,3.7525e-11,3.7626e-11
4.969e+05,1.7643e+09,0,4.4303e-06,5.0967e-06,5.9281e-06,0.00024131,0.012485,0.011134,0.0072128,0.050833,0.050668,0.13692,3.7823e-11,3.8093e-11
4.9897e+05,1.7648e+09,0,4.3882e-06,4.8294e-06,5.2284e-06,0.00024018,0.011333,0.010267,0.0070442,0.047894,0.047767,0.12803,3.7624e-11,3.8196e-11
5.0105e+05,1.7653e+09,0,4.3459e-06,4.8674e-06,5.0415e-06,0.00023911,0.011991,0.010956,0.0070845,0.050781,0.050537,0.12221,3.7807e-11,3.8598e-11
5.031e+05,1.7658e+09,0,4.3279e-06,4.6715e-06,4.6278e-06,0.00023904,0.01106,0.01031,0.0070276,0.048597,0.048396,0.12064,3.7746e-11,3.8874e-11
5.0522e+05,1.7663e+09,0,4.2925e-06,5.0749e-06,4.918e-06,0.0002381,0.013536,0.012665,0.0071512,0.055855,0.05533,0.1179,3.8335e-11,3.956e-11
5.073e+05,1.7668e+09,0,4.2461e-06,5.2689e-06,4.9847e-06,0.00023706,0.014762,0.01396,0.0071015,0.059393,0.058679,0.1148,3.8677e-11,4.0086e-11
5.0937e+05,1.7673e+09,0,4.2155e-06,5.5239e-06,5.1673e-06,0.00023624,0.016838,0.016083,0.0071911,0.0697,0.068651,0.11366,3.9089e-11,4.0652e-11
5.1139e+05,1.7678e+09,0,4.182e-06,5.3965e-06,5.0637e-06,0.0002362,0.016708,0.016166,0.0071146,0.071631,0.07067,0.11385,3.9049e-11,4.0852e-11
5.1346e+05,1.7683e+09,0,4.1645e-06,5.5967e-06,5.234e-06,0.00023538,0.018459,0.018019,0.0072396,0.083037,0.081915,0.11365,3.945e-11,4.1406e-11
5.1554e+05,1.7688e+09,0,4.1197e-06,5.6288e-06,5.0548e-06,0.0002344,0.017357,0.017118,0.0070686,0.082137,0.081299,0.11178,3.9222e-11,4.1424e-11
5.1761e+05,1.7693e+09,0,4.8386e-06,5.0589e-06,5.0867e-06,0.0002337,0.018992,0.018859,0.0070848,0.088973,0.08823,0.11136,3.93e-11,4.1654e-11
5.1967e+05,1.7698e+09,0,4.5906e-06,1.4613e-05,2.6759e-05,0.00020044,0.015538,0.015907,0.0068911,0.081633,0.081177,0.10956,3.8865e-11,4.1315e-11
5.2174e+05,1.7703e+09,0,3.7316e-05,8.0966e-06,4.7049e-05,0.000152,0.014764,0.014892,0.0069384,0.083683,0.083334,0.11189,3.888e-11,4.1351e-11
5.2381e+05,1.7708e+09,0,9.072e-05,4.0563e-06,5.3329e-05,9.3468e-05,0.012937,0.012892,0.0067974,0.076105,0.075881,0.11049,3.8604e-11,4.1098e-11
5.2586e+05,1.7713e+09,0,9.7817e-05,3.9635e-06,6.5844e-05,7.0506e-05,0.013007,0.012965,0.0068986,0.077691,0.077531,0.11001,3.8733e-11,4.1238e-11
5.2794e+05,1.7718e+09,0,0.00010994,8.9266e-06,7.4077e-05,4.1254e-05,0.010934,0.011047,0.0068883,0.070052,0.069932,0.10852,3.8543e-11,4.1121e-11
5.3002e+05,1.7723e+09,0,0.00011093,8.4978e-06,7.7347e-05,3.4768e-05,0.01107,0.011269,0.0072434,0.071292,0.071219,0.11137,3.8818e-11,4.1455e-11
5.3205e+05,1.7728e+09,0,0.00011173,1.2645e-05,7.9743e-05,2.3903e-05,0.010054,0.010199,0.007356,0.065785,0.06573,0.10961,3.8963e-11,4.1745e-11
5.3413e+05,1.7733e+09,0,0.00011496,2.1866e-05,7.4342e-05,1.3545e-05,0.010674,0.010933,0.0078485,0.067716,0.067716,0.10944,3.9572e-11,4.2478e-11
5.362e+05,1.7738e+09,0,0.00011091,2.5666e-05,7.329e-05,1.1542e-05,0.0098238,0.010006,0.0080457,0.063691,0.063696,0.10837,4.0008e-11,4.3165e-11
5.3828e+05,1.7743e+09,0,0.00011082,2.4575e-05,7.4149e-05,8.8918e-06,0.01042,0.010589,0.0086474,0.065979,0.066039,0.11189,4.0653e-11,4.4007e-11
5.4035e+05,1.7748e+09,0,0.00010692,3.076e-05,7.0823e-05,6.2287e-06,0.0094775,0.0097606,0.0088368,0.062307,0.062349,0.11124,4.1123e-11,4.4822e-11
5.4241e+05,1.7753e+09,0,0.00010592,2.4915e-05,7.2593e-05,8.5507e-06,0.0099352,0.010266,0.009263,0.064621,0.064724,0.11167,4.1714e-11,4.5637e-11
5.4448e+05,1.7758e+09,0,0.00010264,1.6104e-05,7.6122e-05,1.4527e-05,0.010874,0.011275,0.009734,0.067651,0.067834,0.11289,4.2433e-11,4.6577e-11
5.4654e+05,1.7763e+09,0,0.00011093,5.7777e-06,7.0993e-05,1.9549e-05,0.011053,0.011532,0.009833,0.066354,0.066573,0.11531,4.3052e-11,4.7454e-11
