LineNo,TimeUS,C,V12,V13,V14,V15,V16,V17,V18,V19,V20,V21,V22,V23
3696,1.6428e+09,0,1.089e-10,6.3016e-07,6.1244e-08,7.0175e-09,0,0,0,0,0,0,0,0
5823,1.6433e+09,0,1.0892e-10,5.8301e-07,6.0775e-08,6.964e-09,0,0,0,0,0,0,0,0
7882,1.6438e+09,0,1.0914e-10,5.1183e-07,5.9913e-08,6.8869e-09,0,0,0,0,0,0,0,0
10028,1.6443e+09,0,1.0918e-10,4.7024e-07,5.9306e-08,6.8296e-09,0,0,0,0,0,0,0,0
12139,1.6448e+09,0,1.0922e-10,4.2054e-07,5.8441e-08,6.7463e-09,0,0,0,0,0,0,0,0
13984,1.6453e+09,0,1.092e-10,3.9515e-07,5.7929e-08,6.6867e-09,0,0,0,0,0,0,0,0
16115,1.6458e+09,0,1.0926e-10,3.6704e-07,5.7289e-08,6.6029e-09,0,0,0,0,0,0,0,0
18180,1.6463e+09,0,1.0913e-10,3.533e-07,5.6946e-08,6.5422e-09,0,0,0,0,0,0,0,0
20288,1.6468e+09,0,1.0931e-10,3.4273e-07,5.6668e-08,6.4863e-09,0,0,0,0,0,0,0,0
22364,1.6472e+09,0,1.0937e-10,3.3211e-07,5.6372e-08,6.4038e-09,0,0,0,0,0,0,0,0
24477,1.6477e+09,0,1.0934e-10,3.275e-07,5.6241e-08,6.3454e-09,0,0,0,0,0,0,0,0
26562,1.6482e+09,0,1.0932e-10,3.2331e-07,5.6117e-08,6.2644e-09,0,0,0,0,0,0,0,0
28620,1.6487e+09,0,1.0943e-10,3.2175e-07,5.6072e-08,6.2107e-09,0,0,0,0,0,0,0,0
30661,1.6492e+09,0,1.0935e-10,3.2069e-07,5.6039e-08,6.1313e-09,0,0,0,0,0,0,0,0
32743,1.6497e+09,0,1.0935e-10,3.2046e-07,5.6033e-08,6.0668e-09,0,0,0,0,0,0,0,0
34826,1.6502e+09,0,1.0936e-10,3.2006e-07,5.6016e-08,5.9672e-09,0,0,0,0,0,0,0,0
36877,1.6507e+09,0,1.0927e-10,3.1979e-07,5.6004e-08,5.8947e-09,0,0,0,0,0,0,0,0
38946,1.6512e+09,0,1.0916e-10,3.1916e-07,5.5972e-08,5.8149e-09,0,0,0,0,0,0,0,0
41002,1.6517e+09,0,1.0922e-10,3.1854e-07,5.5943e-08,5.7643e-09,0,0,0,0,0,0,0,0
42986,1.6522e+09,0,1.0968e-10,3.1764e-07,5.5892e-08,5.694e-09,0.0015847,0.0012353,0.0015189,0.0016163,0.0018158,0.0015223,0,0
44996,1.6527e+09,0,1.1065e-10,3.1694e-07,5.5843e-08,5.6427e-09,0.0013654,0.0011627,0.0013371,0.0013781,0.0016218,0.0013454,0,0
46983,1.6532e+09,0,1.1155e-10,3.1612e-07,5.5726e-08,5.5812e-09,0.0013054,0.0011311,0.0012966,0.0013137,0.0015342,0.0013034,0,0
49026,1.6537e+09,0,1.1249e-10,3.1581e-07,5.566e-08,5.5321e-09,0.0012821,0.0011115,0.0012728,0.0012873,0.0014745,0.0012789,0,0
51004,1.6542e+09,0,1.1352e-10,3.1542e-07,5.5582e-08,5.4744e-09,0.0012655,0.0010954,0.0012568,0.0012693,0.001428,0.0012634,0,0
52964,1.6547e+09,0,1.1439e-10,3.1517e-07,5.5532e-08,5.4264e-09,0.0012564,0.001084,0.0012485,0.0012586,0.0013941,0.001256,0,0
54964,1.6552e+09,0,1.1534e-10,3.148e-07,5.5462e-08,5.3655e-09,0.0012475,0.0010705,0.0012399,0.0012488,0.0013525,0.0012481,0,0
56966,1.6557e+09,0,1.1627e-10,3.1452e-07,5.5417e-08,5.3252e-09,0.001244,0.0010585,0.0012362,0.0012453,0.0013175,0.0012439,0,0
58963,1.6562e+09,0,1.1719e-10,3.1405e-07,5.5346e-08,5.2671e-09,0.00124,0.0010355,0.0012227,0.0012422,0.0012464,0.0012284,0,0
60995,1.6567e+09,0,1.1809e-10,3.1368e-07,5.5296e-08,5.2285e-09,0.0012365,0.001017,0.0012162,0.0012396,0.001195,0.0012202,0,0
62949,1.6572e+09,0,1.1893e-10,3.1308e-07,5.5218e-08,5.1727e-09,0.0012298,0.00099963,0.0012098,0.0012323,0.0011504,0.001213,0,0
65000,1.6577e+09,0,1.1978e-10,3.1259e-07,5.5156e-08,5.1314e-09,0.0012113,0.00098914,0.0011918,0.0012123,0.0011251,0.0011948,0,0
66977,1.6582e+09,0,1.2064e-10,3.1208e-07,5.5094e-08,5.0961e-09,0.0011997,0.00097745,0.0011806,0.0011989,0.0010986,0.0011828,0,0
68928,1.6586e+09,0,1.2153e-10,3.1124e-07,5.4997e-08,5.0462e-09,0.0011848,0.00096485,0.0011656,0.0011819,0.0010684,0.0011678,0,0
70944,1.6591e+09,0,1.2229e-10,3.1063e-07,5.4927e-08,5.0127e-09,0.0011675,0.00095803,0.0011462,0.0011618,0.0010503,0.0011496,0,0
72922,1.6596e+09,0,1.23e-10,3.0961e-07,5.4821e-08,4.9648e-09,0.0011643,0.00095076,0.0011417,0.0011587,0.0010377,0.001145,0,0
74941,1.6601e+09,0,1.2369e-10,3.0858e-07,5.4743e-08,4.9334e-09,0.0011622,0.00094656,0.0011378,0.0011563,0.0010348,0.0011414,0,0
76929,1.6606e+09,0,1.2441e-10,3.0668e-07,5.4623e-08,4.889e-09,0.0011582,0.0009426,0.001134,0.0011521,0.0010294,0.0011377,0,0
78933,1.6611e+09,0,1.2497e-10,3.05e-07,5.4531e-08,4.8546e-09,0.0011227,0.000926,0.0010871,0.0011104,0.0010093,0.0010907,0,0
80952,1.6616e+09,0,1.2561e-10,3.03e-07,5.4425e-08,4.8166e-09,0.0011167,0.00091323,0.0010802,0.0011034,0.0009806,0.0010824,0,0
82995,1.6621e+09,0,1.262e-10,3.0183e-07,5.4347e-08,4.7845e-09,0.0011138,0.00090536,0.0010719,0.0011002,0.00096458,0.0010734,0,0
85000,1.6626e+09,0,1.2685e-10,3.003e-07,5.4247e-08,4.744e-09,0.0011118,0.00089714,0.0010627,0.0010987,0.00094875,0.0010637,0,0
87001,1.6631e+09,0,1.2755e-10,2.9931e-07,5.418e-08,4.7179e-09,0.0011094,0.00089407,0.0010611,0.0010965,0.0009435,0.0010619,0,0
89033,1.6636e+09,0,1.2829e-10,2.9783e-07,5.4079e-08,4.6805e-09,0.0011061,0.00089159,0.0010591,0.0010933,0.00093985,0.0010595,0,0
91054,1.6641e+09,0,1.2888e-10,2.9692e-07,5.4005e-08,4.6555e-09,0.0010909,0.00088817,0.0010483,0.0010791,0.0009364,0.0010475,0,0
93058,1.6646e+09,0,1.2931e-10,2.9567e-07,5.3882e-08,4.6189e-09,0.0010582,0.00087956,0.0010295,0.0010477,0.00092777,0.0010254,0,0
95081,1.6651e+09,0,1.2986e-10,2.9487e-07,5.379e-08,4.5925e-09,0.0010355,0.00086876,0.001023,0.0010253,0.00091623,0.0010163,0,0
97105,1.6656e+09,0,1.3038e-10,2.9377e-07,5.3674e-08,4.5615e-09,0.0010268,0.0008627,0.0010217,0.0010169,0.00090854,0.0010141,0,0
99113,1.6661e+09,0,1.3098e-10,2.9309e-07,5.359e-08,4.5366e-09,0.0010209,0.00085876,0.0010192,0.0010114,0.00090311,0.0010112,0,0
1.0113e+05,1.6666e+09,0,1.3146e-10,2.9226e-07,5.3502e-08,4.5123e-09,0.0010166,0.00085759,0.0010161,0.0010074,0.00090092,0.0010086,0,0
1.0314e+05,1.6671e+09,0,1.3203e-10,2.9172e-07,5.3447e-08,4.4986e-09,0.0010151,0.00085594,0.0010143,0.001006,0.00089909,0.0010068,0,0
1.0514e+05,1.6676e+09,0,1.3236e-10,2.9106e-07,5.3359e-08,4.4733e-09,0.001011,0.00082803,0.00097576,0.0010015,0.00086559,0.00096961,0,0
1.0717e+05,1.6681e+09,0,1.3289e-10,2.9071e-07,5.3305e-08,4.4585e-09,0.00099946,0.00081839,0.00095719,0.00098762,0.00085457,0.00095268,0,0
1.0914e+05,1.6686e+09,0,1.332e-10,2.9029e-07,5.3241e-08,4.4365e-09,0.00097662,0.00081138,0.00092975,0.00096211,0.00084674,0.00092695,0,0
1.1117e+05,1.6691e+09,0,1.336e-10,2.8951e-07,5.3136e-08,4.3941e-09,0.00094226,0.00080754,0.00089611,0.00093208,0.00083414,0.00089394,0,0
1.1318e+05,1.6696e+09,0,1.3392e-10,2.8851e-07,5.3058e-08,4.3619e-09,0.00091061,0.0008016,0.00086299,0.00090566,0.00081839,0.00086174,0,0
1.1519e+05,1.6701e+09,0,1.3431e-10,2.8779e-07,5.2996e-08,4.3371e-09,0.00089799,0.00079876,0.0008529,0.00089387,0.00081262,0.00085264,0,0
1.1722e+05,1.6706e+09,0,1.3479e-10,2.8694e-07,5.2932e-08,4.3109e-09,0.00088729,0.00079551,0.00084506,0.00088397,0.00080683,0.00084569,0,0
1.1922e+05,1.6711e+09,0,1.3514e-10,2.8646e-07,5.2882e-08,4.2904e-09,0.00087705,0.00079167,0.00083767,0.00087377,0.0008015,0.00083942,0,0
1.2129e+05,1.6716e+09,0,1.3539e-10,2.8606e-07,5.2839e-08,4.2732e-09,0.00087168,0.00078713,0.00083482,0.00086854,0.00079718,0.00083598,0,0
1.233e+05,1.6721e+09,0,1.357e-10,2.8545e-07,5.2774e-08,4.2482e-09,0.00086799,0.00078204,0.00083287,0.00086446,0.00079232,0.00083421,0,0
1.2532e+05,1.6726e+09,0,1.3588e-10,2.8494e-07,5.2731e-08,4.2367e-09,0.00085553,0.00077868,0.00082228,0.00085201,0.00078951,0.00082291,0,0
1.2739e+05,1.6731e+09,0,1.3586e-10,2.8418e-07,5.2666e-08,4.2211e-09,0.00084223,0.00077301,0.00081414,0.00083902,0.0007842,0.0008135,0,0
1.2944e+05,1.6736e+09,0,1.3607e-10,2.833e-07,5.2592e-08,4.1984e-09,0.00083767,0.00076959,0.00081168,0.0008346,0.00078036,0.00081114,0,0
1.3146e+05,1.6741e+09,0,1.3635e-10,2.8255e-07,5.2538e-08,4.1802e-09,0.00083036,0.00076851,0.00080542,0.00082716,0.00077955,0.00080462,0,0
1.3348e+05,1.6746e+09,0,1.3668e-10,2.8133e-07,5.2468e-08,4.1592e-09,0.00082833,0.00076751,0.00080424,0.00082507,0.00077875,0.0008032,0,0
1.355e+05,1.6751e+09,0,1.3682e-10,2.8049e-07,5.2417e-08,4.1429e-09,0.00082744,0.00075246,0.00078688,0.00082439,0.00076174,0.00078555,0,0
1.3748e+05,1.6755e+09,0,1.3697e-10,2.797e-07,5.2369e-08,4.1274e-09,0.00082408,0.00073856,0.00077174,0.0008225,0.0007454,0.0007699,0,0
1.395e+05,1.676e+09,0,1.3716e-10,2.7887e-07,5.2319e-08,4.1089e-09,0.00082133,0.00073456,0.00076958,0.00082012,0.00074133,0.00076774,0,0
1.4151e+05,1.6765e+09,0,1.3732e-10,2.7841e-07,5.2293e-08,4.1004e-09,0.00081521,0.00072993,0.00076765,0.00081386,0.0007365,0.00076649,0,0
1.4353e+05,1.677e+09,0,1.3756e-10,2.7784e-07,5.2265e-08,4.0894e-09,0.00081228,0.00072718,0.00076632,0.00081075,0.00073388,0.00076556,0,0
1.455e+05,1.6775e+09,0,1.374e-10,2.7741e-07,5.2245e-08,4.082e-09,0.00081171,0.0007065,0.00074262,0.00080987,0.00071227,0.00074212,0,0
1.4752e+05,1.678e+09,0,1.3693e-10,2.768e-07,5.2216e-08,4.069e-09,0.00081076,0.00069885,0.00073378,0.00080961,0.00070348,0.00073329,0,0
1.4953e+05,1.6785e+09,0,1.3681e-10,2.7632e-07,5.2195e-08,4.0604e-09,0.00081029,0.00068191,0.00071499,0.00080925,0.00068542,0.00071489,0,0
1.5154e+05,1.679e+09,0,1.3623e-10,2.7549e-07,5.2152e-08,4.0379e-09,0.00080988,0.00065458,0.00068561,0.00080857,0.00065703,0.00068613,0,0
1.5356e+05,1.6795e+09,0,1.3615e-10,2.7488e-07,5.2125e-08,4.0233e-09,0.00080873,0.00065237,0.00068452,0.00080746,0.00065486,0.00068506,0,0
1.555e+05,1.68e+09,0,1.3611e-10,2.7408e-07,5.2093e-08,4.0029e-09,0.00080302,0.00064476,0.00068003,0.00080196,0.00064693,0.0006808,0,0
1.5748e+05,1.6805e+09,0,1.3608e-10,2.7355e-07,5.2077e-08,3.9916e-09,0.00079884,0.00064053,0.00067769,0.00079807,0.00064257,0.00067839,0,0
1.595e+05,1.681e+09,0,1.3626e-10,2.7286e-07,5.2059e-08,3.9744e-09,0.00079804,0.00063727,0.00067499,0.00079736,0.00063925,0.00067583,0,0
1.615e+05,1.6815e+09,0,1.3611e-10,2.7237e-07,5.205e-08,3.9624e-09,0.00079786,0.00063323,0.0006712,0.00079725,0.0006353,0.00067212,0,0
1.6356e+05,1.682e+09,0,1.3621e-10,2.7181e-07,5.2044e-08,3.9484e-09,0.00079769,0.00062972,0.00066791,0.00079684,0.00063212,0.00066894,0,0
1.6551e+05,1.6825e+09,0,1.3615e-10,2.7136e-07,5.204e-08,3.9382e-09,0.0007971,0.00062516,0.00066432,0.00079608,0.00062767,0.00066563,0,0
1.675e+05,1.683e+09,0,1.3608e-10,2.7092e-07,5.2039e-08,3.928e-09,0.00079393,0.00062083,0.00066296,0.00079272,0.00062331,0.00066455,0,0
1.6952e+05,1.6835e+09,0,1.3614e-10,2.704e-07,5.2041e-08,3.9154e-09,0.00079267,0.00061837,0.00066186,0.00079125,0.00062092,0.00066369,0,0
1.715e+05,1.684e+09,0,1.3555e-10,2.6995e-07,5.2044e-08,3.9031e-09,0.00079229,0.00061731,0.00066113,0.00079067,0.00062004,0.00066306,0,0
1.7355e+05,1.6845e+09,0,1.3542e-10,2.6967e-07,5.205e-08,3.8987e-09,0.00079211,0.00061535,0.00065962,0.0007905,0.00061812,0.00066159,0,0
1.7548e+05,1.685e+09,0,1.3493e-10,2.6939e-07,5.2056e-08,3.8928e-09,0.00079171,0.00061289,0.00065802,0.00079007,0.0006157,0.00066011,0,0
1.7749e+05,1.6854e+09,0,1.3412e-10,2.6899e-07,5.2062e-08,3.8809e-09,0.00078741,0.00061095,0.00065776,0.00078568,0.00061356,0.00065981,0,0
1.7951e+05,1.6859e+09,0,1.3368e-10,2.6866e-07,5.2068e-08,3.8735e-09,0.00078586,0.00061005,0.00065692,0.00078413,0.00061237,0.000659,0,0
1.8147e+05,1.6864e+09,0,1.3273e-10,2.6804e-07,5.2071e-08,3.8523e-09,0.00078424,0.00060637,0.00065047,0.00078319,0.00060751,0.00065244,0,0
1.8346e+05,1.6869e+09,0,1.3219e-10,2.6762e-07,5.2076e-08,3.84e-09,0.00078354,0.00060524,0.00064902,0.00078242,0.0006065,0.00065085,0,0
1.8542e+05,1.6874e+09,0,1.3135e-10,2.671e-07,5.208e-08,3.822e-09,0.00078339,0.00060465,0.0006487,0.0007822,0.00060595,0.00065061,0,0
1.8741e+05,1.6879e+09,0,1.3067e-10,2.6677e-07,5.2085e-08,3.812e-09,0.00078191,0.00060267,0.00064736,0.0007806,0.00060401,0.00064914,0,0
1.8935e+05,1.6884e+09,0,1.3036e-10,2.6635e-07,5.209e-08,3.7968e-09,0.00078147,0.0006023,0.0006472,0.00078012,0.0006036,0.00064896,0,0
1.9136e+05,1.6889e+09,0,1.2976e-10,2.6615e-07,5.2097e-08,3.7931e-09,0.0007813,0.00060196,0.00064705,0.00077995,0.00060326,0.00064881,0,0
1.9337e+05,1.6894e+09,0,1.2959e-10,2.6588e-07,5.2104e-08,3.7852e-09,0.00078082,0.00060131,0.00064673,0.00077949,0.00060271,0.00064846,0,0
1.9535e+05,1.6899e+09,0,1.2917e-10,2.6565e-07,5.2112e-08,3.7815e-09,0.00078026,0.00059977,0.00064548,0.00077865,0.00060138,0.00064724,0,0
1.9733e+05,1.6904e+09,0,1.2854e-10,2.653e-07,5.2117e-08,3.771e-09,0.00077942,0.00059637,0.0006424,0.00077752,0.00059816,0.00064408,0,0
1.9937e+05,1.6909e+09,0,1.2833e-10,2.6505e-07,5.2124e-08,3.7666e-09,0.00077866,0.00058538,0.0006312,0.00077568,0.00058774,0.00063308,0,0
2.0132e+05,1.6914e+09,0,1.2729e-10,2.6467e-07,5.2129e-08,3.7552e-09,0.00077763,0.00057649,0.0006231,0.00077355,0.00057961,0.00062553,0,0
2.0334e+05,1.6919e+09,0,1.2668e-10,2.6442e-07,5.2135e-08,3.7504e-09,0.0007774,0.00057146,0.00061907,0.00077297,0.00057491,0.00062178,0,0
2.0531e+05,1.6924e+09,0,1.2549e-10,2.6392e-07,5.2139e-08,3.7304e-09,0.00077714,0.0005677,0.00061647,0.00077287,0.00057127,0.00061936,0,0
2.0737e+05,1.6929e+09,0,1.2468e-10,2.6355e-07,5.2146e-08,3.7194e-09,0.00077697,0.00056621,0.00061423,0.00077277,0.00056969,0.00061712,0,0
2.0936e+05,1.6934e+09,0,1.2424e-10,2.6324e-07,5.2153e-08,3.7129e-09,0.00077686,0.00056579,0.00061309,0.00077269,0.00056921,0.00061593,0,0
2.1136e+05,1.6939e+09,0,1.2343e-10,2.6291e-07,5.216e-08,3.7046e-09,0.00077408,0.00056366,0.00060921,0.00077052,0.00056631,0.00061191,0,0
2.1336e+05,1.6944e+09,0,1.2244e-10,2.624e-07,5.2165e-08,3.6915e-09,0.00077106,0.0005614,0.00060477,0.00076793,0.00056344,0.00060737,0,0
2.1534e+05,1.6949e+09,0,1.2212e-10,2.6204e-07,5.2171e-08,3.6862e-09,0.00076884,0.00056039,0.00060298,0.0007653,0.00056276,0.00060569,0,0
2.1731e+05,1.6954e+09,0,1.2117e-10,2.6164e-07,5.2177e-08,3.6796e-09,0.00076731,0.0005597,0.0006012,0.00076394,0.0005618,0.0006039,0,0
2.1936e+05,1.6959e+09,0,1.203e-10,2.6136e-07,5.2183e-08,3.6775e-09,0.00076505,0.00055502,0.00059296,0.00076266,0.00055586,0.00059537,0,0
2.2137e+05,1.6964e+09,0,1.1934e-10,2.61e-07,5.2189e-08,3.6713e-09,0.00076301,0.0005543,0.00059239,0.00076048,0.00055522,0.00059481,0,0
2.2334e+05,1.6968e+09,0,1.1825e-10,2.605e-07,5.2194e-08,3.6597e-09,0.00075593,0.00055154,0.00059149,0.00075298,0.000552,0.00059428,0,0
2.2539e+05,1.6973e+09,0,1.1769e-10,2.6016e-07,5.2199e-08,3.6548e-09,0.00074874,0.00054985,0.00058934,0.00074554,0.00054976,0.00059256,0,0
2.2738e+05,1.6978e+09,0,1.1697e-10,2.5971e-07,5.2202e-08,3.6466e-09,0.00074226,0.00054963,0.00058549,0.00073902,0.0005492,0.00058893,0,0
2.294e+05,1.6983e+09,0,1.1618e-10,2.5939e-07,5.2206e-08,3.6406e-09,0.00074152,0.00054946,0.00058503,0.00073834,0.00054901,0.00058845,0,0
2.3141e+05,1.6988e+09,0,1.1571e-10,2.5913e-07,5.221e-08,3.6353e-09,0.00073761,0.00054866,0.00058225,0.00073502,0.00054769,0.00058564,0,0
2.3338e+05,1.6993e+09,0,1.1495e-10,2.5897e-07,5.2216e-08,3.6342e-09,0.0007313,0.0005478,0.00057932,0.0007291,0.000546,0.00058298,0,0
2.3536e+05,1.6998e+09,0,1.1454e-10,2.5869e-07,5.2219e-08,3.6248e-09,0.00072322,0.00054763,0.00057432,0.00072109,0.00054555,0.00057811,0,0
2.3738e+05,1.7003e+09,0,1.1382e-10,2.5849e-07,5.2224e-08,3.6175e-09,0.00071046,0.00054741,0.00056621,0.00070879,0.00054506,0.00056983,0,0
2.3936e+05,1.7008e+09,0,1.1318e-10,2.5835e-07,5.2228e-08,3.6092e-09,0.00070487,0.00054726,0.00056269,0.00070331,0.00054464,0.0005664,0,0
2.4134e+05,1.7013e+09,0,1.1289e-10,2.5823e-07,5.2232e-08,3.6027e-09,0.00070178,0.00054713,0.00056057,0.00070022,0.00054452,0.00056426,0,0
2.433e+05,1.7018e+09,0,1.1229e-10,2.5812e-07,5.2234e-08,3.592e-09,0.00070005,0.00054687,0.00055949,0.00069858,0.00054432,0.00056305,0,0
2.4529e+05,1.7023e+09,0,1.1211e-10,2.5806e-07,5.2239e-08,3.5879e-09,0.00069932,0.00054677,0.00055897,0.0006979,0.00054418,0.00056251,0,0
2.4724e+05,1.7028e+09,0,1.1134e-10,2.58e-07,5.224e-08,3.5767e-09,0.00069842,0.00054643,0.00055837,0.00069703,0.00054389,0.00056184,0,0
2.4927e+05,1.7033e+09,0,1.1058e-10,2.5795e-07,5.2244e-08,3.5715e-09,0.00069762,0.00054559,0.00055812,0.00069631,0.00054314,0.00056153,0,0
2.5127e+05,1.7038e+09,0,1.0945e-10,2.579e-07,5.2243e-08,3.5595e-09,0.00069738,0.00054542,0.00055782,0.00069602,0.00054295,0.00056125,0,0
2.5331e+05,1.7043e+09,0,1.0824e-10,2.5787e-07,5.2244e-08,3.5523e-09,0.00069668,0.00054491,0.00055683,0.00069514,0.00054236,0.00056032,0,0
2.5532e+05,1.7048e+09,0,1.0695e-10,2.5784e-07,5.2245e-08,3.5446e-09,0.00068063,0.00054433,0.00054632,0.00067886,0.00054179,0.00055004,0,0
2.5733e+05,1.7053e+09,0,1.0503e-10,2.578e-07,5.2245e-08,3.5378e-09,0.00067172,0.00054326,0.00054012,0.00066937,0.0005411,0.00054414,0,0
2.5931e+05,1.7058e+09,0,1.0344e-10,2.5779e-07,5.2245e-08,3.5313e-09,0.0006715,0.00054277,0.00053921,0.00066906,0.00054058,0.00054328,0,0
2.613e+05,1.7063e+09,0,1.0235e-10,2.5778e-07,5.2243e-08,3.5241e-09,0.00067126,0.00054253,0.00053885,0.00066881,0.00054037,0.00054296,0,0
2.6329e+05,1.7068e+09,0,1.0121e-10,2.5778e-07,5.224e-08,3.5175e-09,0.00067045,0.00054219,0.00053824,0.00066788,0.00054017,0.0005424,0,0
2.6535e+05,1.7073e+09,0,1.0046e-10,2.5779e-07,5.2242e-08,3.5159e-09,0.00067004,0.00054184,0.0005376,0.00066744,0.00053988,0.00054165,0,0
2.6736e+05,1.7078e+09,0,1.0005e-10,2.5778e-07,5.2237e-08,3.5029e-09,0.00066962,0.00053797,0.00053274,0.00066713,0.00053574,0.00053651,0,0
2.6933e+05,1.7083e+09,0,9.9422e-11,2.5777e-07,5.2236e-08,3.4964e-09,0.00066864,0.00053316,0.00052647,0.00066676,0.00053006,0.00052997,0,0
2.7135e+05,1.7088e+09,0,9.8898e-11,2.5776e-07,5.2233e-08,3.4905e-09,0.00066778,0.00052971,0.00052212,0.00066639,0.00052599,0.00052543,0,0
2.7334e+05,1.7093e+09,0,9.8122e-11,2.5773e-07,5.2226e-08,3.4814e-09,0.00066712,0.00052517,0.00051689,0.00066617,0.00052092,0.00051997,0,0
2.7533e+05,1.7098e+09,0,9.7502e-11,2.5771e-07,5.2222e-08,3.4761e-09,0.00066582,0.00051921,0.00051159,0.0006652,0.00051482,0.00051418,0,0
2.7738e+05,1.7103e+09,0,9.7215e-11,2.5767e-07,5.2211e-08,3.4694e-09,0.00066327,0.00051339,0.00050774,0.000663,0.00050916,0.00050974,0,0
2.7939e+05,1.7108e+09,0,9.6778e-11,2.5763e-07,5.2201e-08,3.4649e-09,0.00066041,0.00050467,0.00050136,0.00066063,0.00050046,0.00050256,0,0
2.8136e+05,1.7113e+09,0,9.6744e-11,2.5755e-07,5.2182e-08,3.4602e-09,0.00065819,0.00049788,0.00049627,0.00065905,0.00049345,0.00049695,0,0
2.8334e+05,1.7117e+09,0,9.6506e-11,2.5749e-07,5.2167e-08,3.4573e-09,0.00065532,0.00048981,0.00049066,0.00065691,0.00048507,0.00049071,0,0
2.8527e+05,1.7122e+09,0,9.6253e-11,2.5738e-07,5.2138e-08,3.4515e-09,0.00065224,0.00048221,0.0004862,0.00065438,0.00047753,0.00048561,0,0
2.873e+05,1.7127e+09,0,9.6154e-11,2.5731e-07,5.2118e-08,3.4496e-09,0.00065151,0.00047869,0.00048382,0.00065388,0.00047396,0.000483,0,0
2.8929e+05,1.7132e+09,0,9.559e-11,2.5722e-07,5.2084e-08,3.445e-09,0.00065059,0.00047384,0.00047895,0.00065284,0.00046903,0.00047827,0,0
2.9131e+05,1.7137e+09,0,9.4328e-11,2.5715e-07,5.2062e-08,3.4442e-09,0.00064987,0.0004431,0.00044451,0.0006518,0.00043692,0.0004443,0,0
2.9332e+05,1.7142e+09,0,9.1001e-11,2.5707e-07,5.2038e-08,3.4442e-09,0.00064858,0.0004308,0.00043145,0.00065103,0.00042391,0.00043142,0,0
2.9532e+05,1.7147e+09,0,8.9644e-11,2.5702e-07,5.2023e-08,3.4466e-09,0.00064812,0.00042951,0.00043047,0.0006506,0.00042267,0.00043033,0,0
2.9731e+05,1.7152e+09,0,8.8697e-11,2.5695e-07,5.1998e-08,3.445e-09,0.00064732,0.00042927,0.00043045,0.00064988,0.0004224,0.0004303,0,0
2.9934e+05,1.7157e+09,0,8.8191e-11,2.5689e-07,5.1979e-08,3.444e-09,0.00064681,0.00042916,0.00043042,0.00064937,0.00042226,0.00043025,0,0
3.0135e+05,1.7162e+09,0,8.7794e-11,2.5677e-07,5.1942e-08,3.4361e-09,0.00064548,0.00042901,0.00043012,0.00064802,0.00042207,0.00042997,0,0
3.0334e+05,1.7167e+09,0,8.7724e-11,2.5668e-07,5.1921e-08,3.4333e-09,0.00064364,0.00042847,0.00042939,0.00064604,0.00042177,0.00042916,0,0
3.0533e+05,1.7172e+09,0,8.7564e-11,2.5657e-07,5.1902e-08,3.4315e-09,0.00064284,0.00042665,0.00042719,0.00064552,0.00041975,0.00042702,0,0
3.0734e+05,1.7177e+09,0,8.7593e-11,2.5651e-07,5.1893e-08,3.4319e-09,0.00064201,0.00042352,0.00042418,0.00064478,0.00041647,0.00042422,0,0
3.0928e+05,1.7182e+09,0,8.7346e-11,2.5643e-07,5.1874e-08,3.4261e-09,0.00063933,0.00042223,0.00042244,0.0006417,0.00041546,0.00042273,0,0
3.113e+05,1.7187e+09,0,8.7044e-11,2.5637e-07,5.1859e-08,3.422e-09,0.00063669,0.00042147,0.00042178,0.00063888,0.00041503,0.00042198,0,0
3.1319e+05,1.7192e+09,0,8.6988e-11,2.5627e-07,5.1846e-08,3.4174e-09,0.00063522,0.00042107,0.00042168,0.00063735,0.00041475,0.00042183,0,0
3.1515e+05,1.7197e+09,0,8.6961e-11,2.562e-07,5.1837e-08,3.4163e-09,0.00063253,0.00041803,0.000418,0.00063534,0.00041116,0.00041814,0,0
3.1716e+05,1.7202e+09,0,8.7181e-11,2.5609e-07,5.183e-08,3.4132e-09,0.00063084,0.00041513,0.00041465,0.00063415,0.00040783,0.0004149,0,0
3.1917e+05,1.7207e+09,0,8.7033e-11,2.5604e-07,5.1825e-08,3.4106e-09,0.00063031,0.00041243,0.00041258,0.00063345,0.00040521,0.00041306,0,0
3.2119e+05,1.7212e+09,0,8.6835e-11,2.56e-07,5.1825e-08,3.4092e-09,0.00063009,0.00041233,0.00041246,0.0006332,0.0004051,0.00041293,0,0
3.2319e+05,1.7217e+09,0,8.6759e-11,2.5595e-07,5.1824e-08,3.4037e-09,0.00062771,0.00041151,0.0004123,0.00063084,0.00040429,0.00041275,0,0
3.252e+05,1.7222e+09,0,8.6381e-11,2.5589e-07,5.1824e-08,3.398e-09,0.00062392,0.00041009,0.00041036,0.00062658,0.000403,0.00041094,0,0
3.2722e+05,1.7227e+09,0,8.6112e-11,2.5585e-07,5.1826e-08,3.3957e-09,0.00062038,0.00040844,0.00040812,0.00062237,0.00040153,0.00040893,0,0
3.2923e+05,1.7231e+09,0,8.5842e-11,2.5582e-07,5.183e-08,3.3937e-09,0.00061584,0.00040722,0.00040589,0.00061798,0.00039996,0.00040687,0,0
3.3123e+05,1.7236e+09,0,8.5687e-11,2.5578e-07,5.1833e-08,3.3879e-09,0.0006147,0.00040526,0.00040354,0.00061725,0.00039762,0.00040458,0,0
3.3329e+05,1.7241e+09,0,8.5787e-11,2.5576e-07,5.1839e-08,3.3863e-09,0.00061453,0.0004052,0.00040335,0.00061706,0.00039752,0.00040439,0,0
3.3522e+05,1.7246e+09,0,8.5861e-11,2.5575e-07,5.1847e-08,3.3845e-09,0.00061288,0.00040481,0.00040246,0.00061522,0.00039726,0.00040358,0,0
3.3728e+05,1.7251e+09,0,8.5744e-11,2.5574e-07,5.1855e-08,3.385e-09,0.00061228,0.00040451,0.00040209,0.00061452,0.00039704,0.00040325,0,0
3.3929e+05,1.7256e+09,0,8.5742e-11,2.5571e-07,5.1862e-08,3.3816e-09,0.00061195,0.00040429,0.00040193,0.00061412,0.00039686,0.00040308,0,0
3.413e+05,1.7261e+09,0,8.5519e-11,2.5569e-07,5.1868e-08,3.38e-09,0.00061161,0.000404,0.00040188,0.0006138,0.00039657,0.00040301,0,0
3.4332e+05,1.7266e+09,0,8.5535e-11,2.5563e-07,5.1874e-08,3.375e-09,0.0006109,0.0004038,0.00040156,0.00061303,0.00039641,0.00040272,0,0
3.4533e+05,1.7271e+09,0,8.5333e-11,2.5559e-07,5.1881e-08,3.3737e-09,0.00061037,0.00040359,0.00040135,0.00061246,0.00039624,0.0004025,0,0
3.4732e+05,1.7276e+09,0,8.5294e-11,2.5551e-07,5.1888e-08,3.3692e-09,0.00060986,0.0004024,0.00040056,0.00061199,0.00039501,0.00040179,0,0
3.4931e+05,1.7281e+09,0,8.543e-11,2.5545e-07,5.1895e-08,3.3684e-09,0.00060917,0.00040169,0.0004002,0.00061136,0.00039429,0.00040143,0,0
3.5128e+05,1.7286e+09,0,8.5363e-11,2.5531e-07,5.19e-08,3.3591e-09,0.00060731,0.00040052,0.00039987,0.00060956,0.00039312,0.00040102,0,0
3.5329e+05,1.7291e+09,0,8.5343e-11,2.552e-07,5.1905e-08,3.3542e-09,0.0006056,0.00039792,0.0003983,0.00060744,0.00039073,0.00039976,0,0
3.5524e+05,1.7296e+09,0,8.5411e-11,2.5502e-07,5.1908e-08,3.3456e-09,0.0006048,0.00039537,0.00039658,0.0006063,0.00038836,0.00039828,0,0
3.5724e+05,1.7301e+09,0,8.5316e-11,2.5491e-07,5.1914e-08,3.3453e-09,0.00060383,0.00039287,0.00039481,0.00060492,0.00038617,0.00039668,0,0
3.5926e+05,1.7306e+09,0,8.5385e-11,2.5477e-07,5.1921e-08,3.3434e-09,0.00060264,0.00039055,0.00039295,0.00060337,0.00038426,0.00039477,0,0
3.6122e+05,1.7311e+09,0,8.5201e-11,2.5468e-07,5.1929e-08,3.3438e-09,0.00060168,0.0003894,0.00039215,0.00060238,0.00038318,0.00039387,0,0
3.6321e+05,1.7316e+09,0,8.5035e-11,2.5455e-07,5.1936e-08,3.3403e-09,0.00060062,0.00038818,0.00039124,0.00060137,0.00038201,0.00039279,0,0
3.6519e+05,1.7321e+09,0,8.5152e-11,2.5445e-07,5.1943e-08,3.3401e-09,0.00059923,0.00038665,0.00039084,0.00059985,0.00038054,0.00039252,0,0
3.6712e+05,1.7326e+09,0,8.4988e-11,2.5428e-07,5.195e-08,3.3356e-09,0.00059863,0.00038564,0.00039026,0.00059905,0.00037971,0.00039201,0,0
3.6917e+05,1.7331e+09,0,8.5147e-11,2.5417e-07,5.1958e-08,3.336e-09,0.0005983,0.00038515,0.00039005,0.00059875,0.00037924,0.00039177,0,0
3.7118e+05,1.7336e+09,0,8.5019e-11,2.5394e-07,5.1963e-08,3.33e-09,0.00059678,0.00038411,0.00038997,0.00059729,0.00037823,0.00039164,0,0
3.7318e+05,1.7341e+09,0,8.5021e-11,2.5372e-07,5.1968e-08,3.3258e-09,0.00059552,0.00038298,0.0003899,0.00059601,0.00037715,0.00039158,0,0
3.7521e+05,1.7346e+09,0,8.5311e-11,2.5353e-07,5.1976e-08,3.323e-09,0.0005948,0.00038234,0.00038987,0.00059532,0.00037654,0.00039151,0,0
3.7723e+05,1.7351e+09,0,8.5319e-11,2.5335e-07,5.1985e-08,3.3189e-09,0.00059441,0.00038213,0.00038971,0.00059493,0.00037636,0.0003913,0,0
3.7924e+05,1.7356e+09,0,8.5111e-11,2.5324e-07,5.1992e-08,3.3165e-09,0.00059406,0.00038212,0.00038953,0.00059455,0.00037635,0.0003911,0,0
3.8126e+05,1.7361e+09,0,8.5129e-11,2.5312e-07,5.2e-08,3.3127e-09,0.00059352,0.00038204,0.00038931,0.00059404,0.00037625,0.00039086,0,0
3.8316e+05,1.7365e+09,0,8.5082e-11,2.5303e-07,5.2008e-08,3.3116e-09,0.00059316,0.00038059,0.00038821,0.00059382,0.00037467,0.00038978,0,0
3.8518e+05,1.737e+09,0,8.514e-11,2.5291e-07,5.2016e-08,3.309e-09,0.00059283,0.00037969,0.00038755,0.00059356,0.0003737,0.00038912,0,0
3.872e+05,1.7375e+09,0,8.4927e-11,2.528e-07,5.2023e-08,3.3077e-09,0.00059205,0.00037965,0.00038721,0.0005927,0.00037364,0.00038879,0,0
3.8913e+05,1.738e+09,0,8.478e-11,2.5269e-07,5.2029e-08,3.3054e-09,0.00059172,0.00037934,0.0003871,0.00059234,0.00037336,0.00038869,0,0
3.9119e+05,1.7385e+09,0,8.4852e-11,2.526e-07,5.2035e-08,3.3071e-09,0.00059162,0.00037915,0.00038708,0.00059222,0.00037319,0.00038867,0,0
3.9315e+05,1.739e+09,0,8.4665e-11,2.5246e-07,5.2039e-08,3.3049e-09,0.00059113,0.00037886,0.00038691,0.00059179,0.00037285,0.00038849,0,0
3.9517e+05,1.7395e+09,0,8.4516e-11,2.5238e-07,5.2045e-08,3.3052e-09,0.00059075,0.00037849,0.0003868,0.00059142,0.00037247,0.00038836,0,0
3.9722e+05,1.74e+09,0,8.4574e-11,2.5229e-07,5.2052e-08,3.3025e-09,0.00059016,0.00037823,0.0003867,0.00059086,0.00037217,0.00038825,0,0
3.9923e+05,1.7405e+09,0,8.4378e-11,2.5224e-07,5.2058e-08,3.3013e-09,0.00058938,0.00037764,0.00038623,0.00059024,0.00037144,0.00038776,0,0
4.0124e+05,1.741e+09,0,8.4262e-11,2.5218e-07,5.2066e-08,3.2976e-09,0.00058882,0.0003768,0.00038579,0.0005898,0.00037052,0.00038728,0,0
4.0329e+05,1.7415e+09,0,8.4313e-11,2.5213e-07,5.2073e-08,3.2963e-09,0.00058842,0.00037626,0.00038553,0.00058946,0.00036995,0.000387,0,0
4.0526e+05,1.742e+09,0,8.4173e-11,2.5209e-07,5.2081e-08,3.2921e-09,0.00058763,0.00037532,0.00038369,0.00058847,0.0003692,0.00038503,0,0
4.0729e+05,1.7425e+09,0,8.439e-11,2.5207e-07,5.209e-08,3.2925e-09,0.00058687,0.00037501,0.00038317,0.00058779,0.00036881,0.00038448,0,0
4.0932e+05,1.743e+09,0,8.4291e-11,2.5204e-07,5.2098e-08,3.2875e-09,0.00058563,0.00037455,0.00038285,0.00058666,0.0003682,0.00038416,0,0
4.113e+05,1.7435e+09,0,8.4152e-11,2.5203e-07,5.2106e-08,3.2855e-09,0.00058481,0.00037401,0.00038247,0.00058596,0.00036752,0.00038378,0,0
4.1331e+05,1.744e+09,0,8.4237e-11,2.5201e-07,5.2114e-08,3.2802e-09,0.00058445,0.00037305,0.00038191,0.00058547,0.0003667,0.00038322,0,0
4.1531e+05,1.7445e+09,0,8.4084e-11,2.52e-07,5.2122e-08,3.2783e-09,0.00058383,0.00037231,0.00038149,0.00058474,0.00036607,0.0003828,0,0
4.1733e+05,1.745e+09,0,8.3809e-11,2.5198e-07,5.2129e-08,3.2727e-09,0.00058309,0.00037206,0.00038132,0.00058406,0.00036576,0.00038263,0,0
4.1934e+05,1.7455e+09,0,8.3806e-11,2.5196e-07,5.2136e-08,3.2701e-09,0.00058243,0.00037191,0.00038105,0.00058348,0.00036554,0.00038234,0,0
4.2132e+05,1.746e+09,0,8.3576e-11,2.5194e-07,5.2143e-08,3.2632e-09,0.00058152,0.00037163,0.00038064,0.00058271,0.00036516,0.0003819,0,0
4.233e+05,1.7465e+09,0,8.3651e-11,2.5192e-07,5.215e-08,3.2615e-09,0.00058082,0.00037155,0.00038036,0.00058207,0.00036501,0.00038162,0,0
4.2531e+05,1.747e+09,0,8.3523e-11,2.5188e-07,5.2157e-08,3.2546e-09,0.00057887,0.00037066,0.00037916,0.00058047,0.00036381,0.00038037,0,0
4.273e+05,1.7475e+09,0,8.3449e-11,2.5185e-07,5.2163e-08,3.2517e-09,0.00057628,0.00036913,0.00037748,0.00057834,0.00036189,0.00037864,0,0
4.293e+05,1.748e+09,0,8.3517e-11,2.5179e-07,5.2169e-08,3.2451e-09,0.00057476,0.00036848,0.00037659,0.00057706,0.00036104,0.00037773,0,0
4.313e+05,1.7485e+09,0,8.3349e-11,2.5178e-07,5.2176e-08,3.2416e-09,0.00057204,0.0003681,0.00037568,0.00057455,0.00036038,0.00037685,0,0
4.3332e+05,1.7489e+09,0,8.3485e-11,2.5178e-07,5.2184e-08,3.239e-09,0.00056923,0.00036667,0.00037473,0.00057214,0.00035854,0.00037587,0,0
4.3535e+05,1.7494e+09,0,8.3412e-11,2.5178e-07,5.219e-08,3.2309e-09,0.00056765,0.00036521,0.00037355,0.00057093,0.00035674,0.00037467,0,0
4.3736e+05,1.7499e+09,0,8.337e-11,2.5177e-07,5.2197e-08,3.2274e-09,0.00056622,0.00036269,0.00037177,0.00056977,0.00035401,0.0003728,0,0
4.3936e+05,1.7504e+09,0,8.3533e-11,2.5177e-07,5.2201e-08,3.2191e-09,0.00056556,0.00036044,0.00037058,0.00056896,0.00035196,0.00037153,0,0
4.4137e+05,1.7509e+09,0,8.3525e-11,2.5177e-07,5.2205e-08,3.2155e-09,0.00056487,0.00035785,0.00036934,0.00056811,0.00034959,0.0003702,0,0
4.4339e+05,1.7514e+09,0,8.3651e-11,2.5177e-07,5.2204e-08,3.2081e-09,0.00056436,0.00035582,0.00036839,0.00056748,0.00034772,0.0003692,0,0
4.454e+05,1.7519e+09,0,8.3612e-11,2.5178e-07,5.2205e-08,3.2046e-09,0.00056375,0.00035328,0.00036727,0.00056671,0.00034539,0.00036799,0,0
4.4741e+05,1.7524e+09,0,8.3742e-11,2.5176e-07,5.2201e-08,3.1987e-09,0.00056318,0.00035083,0.00036625,0.00056597,0.00034316,0.0003669,0,0
4.4951e+05,1.7529e+09,0,8.3958e-11,2.5175e-07,5.22e-08,3.1969e-09,0.00056277,0.00034895,0.00036551,0.00056543,0.00034145,0.0003661,0,0
4.5154e+05,1.7534e+09,0,8.401e-11,2.5171e-07,5.2191e-08,3.1909e-09,0.00056227,0.00034666,0.00036466,0.00056478,0.00033937,0.00036519,0,0
4.5363e+05,1.7539e+09,0,8.3959e-11,2.5168e-07,5.2186e-08,3.1881e-09,0.00056183,0.00034443,0.00036388,0.00056417,0.00033736,0.00036435,0,0
4.5567e+05,1.7544e+09,0,8.3987e-11,2.5162e-07,5.2174e-08,3.1824e-09,0.0005614,0.00034224,0.00036315,0.00056359,0.00033538,0.00036357,0,0
4.577e+05,1.7549e+09,0,8.4272e-11,2.5158e-07,5.2168e-08,3.1818e-09,0.00056109,0.00034054,0.00036261,0.00056316,0.00033384,0.00036299,0,0
4.5973e+05,1.7554e+09,0,8.4245e-11,2.515e-07,5.2152e-08,3.1761e-09,0.00056072,0.00033843,0.00036198,0.00056264,0.00033193,0.0003623,0,0
4.6178e+05,1.7559e+09,0,8.4269e-11,2.5144e-07,5.2143e-08,3.1745e-09,0.00056038,0.0003364,0.0003614,0.00056215,0.0003301,0.00036168,0,0
4.6384e+05,1.7564e+09,0,8.4334e-11,2.5138e-07,5.2134e-08,3.1741e-09,0.00056005,0.00033442,0.00036088,0.00056168,0.00032832,0.00036112,0,0
4.6587e+05,1.7569e+09,0,8.4494e-11,2.5126e-07,5.2115e-08,3.1688e-09,0.0005598,0.00033286,0.00036049,0.00056132,0.0003269,0.00036069,0,0
4.6792e+05,1.7574e+09,0,8.4521e-11,2.5114e-07,5.2095e-08,3.1643e-09,0.00055951,0.00033096,0.00036003,0.00056088,0.0003252,0.00036019,0,0
4.6993e+05,1.7579e+09,0,8.4581e-11,2.5105e-07,5.2083e-08,3.1638e-09,0.00055923,0.00032912,0.00035963,0.00056046,0.00032355,0.00035975,0,0
4.7204e+05,1.7584e+09,0,8.4754e-11,2.5095e-07,5.2071e-08,3.1631e-09,0.00055901,0.00032768,0.00035932,0.00056012,0.00032226,0.00035941,0,0
4.7409e+05,1.7589e+09,0,8.4828e-11,2.508e-07,5.2049e-08,3.1596e-09,0.00055874,0.00032589,0.00035895,0.0005597,0.00032067,0.00035901,0,0
4.7618e+05,1.7594e+09,0,8.4892e-11,2.5063e-07,5.2027e-08,3.1561e-09,0.00055848,0.00032415,0.00035862,0.0005593,0.00031912,0.00035864,0,0
4.7819e+05,1.7599e+09,0,8.4945e-11,2.5052e-07,5.2013e-08,3.156e-09,0.00055824,0.00032246,0.00035832,0.00055892,0.00031761,0.00035831,0,0
4.8029e+05,1.7604e+09,0,8.5122e-11,2.5034e-07,5.199e-08,3.1528e-09,0.00055805,0.00032112,0.0003581,0.00055862,0.00031641,0.00035806,0,0
4.8233e+05,1.7609e+09,0,8.5099e-11,2.5021e-07,5.1975e-08,3.1522e-09,0.00055784,0.00031949,0.00035784,0.00055827,0.00031496,0.00035777,0,0
4.8437e+05,1.7614e+09,0,8.5084e-11,2.5002e-07,5.195e-08,3.1486e-09,0.00055764,0.00031789,0.0003576,0.00055793,0.00031353,0.0003575,0,0
4.8646e+05,1.7619e+09,0,8.5286e-11,2.4995e-07,5.1944e-08,3.1458e-09,0,0,0,0,0,0,0,0
4.8858e+05,1.7624e+09,0,8.5981e-11,2.4995e-07,5.1944e-08,3.1438e-09,0,0,0,0,0,0,0,0
4.9062e+05,1.7629e+09,0,8.6413e-11,2.4995e-07,5.1944e-08,3.1383e-09,0,0,0,0,0,0,0,0
4.927e+05,1.7633e+09,0,8.6836e-11,2.4995e-07,5.1944e-08,3.1366e-09,0,0,0,0,0,0,0,0
4.9478e+05,1.7638e+09,0,8.7325e-11,2.4995e-07,5.1944e-08,3.1337e-09,0,0,0,0,0,0,0,0
4.969e+05,1.7643e+09,0,8.7833e-11,2.4995e-07,5.1944e-08,3.1337e-09,0,0,0,0,0,0,0,0
4.9897e+05,1.7648e+09,0,8.8175e-11,2.4995e-07,5.1944e-08,3.1301e-09,0,0,0,0,0,0,0,0
5.0105e+05,1.7653e+09,0,8.8518e-11,2.4995e-07,5.1944e-08,3.1289e-09,0,0,0,0,0,0,0,0
5.031e+05,1.7658e+09,0,8.904e-11,2.4995e-07,5.1944e-08,3.1268e-09,0,0,0,0,0,0,0,0
5.0522e+05,1.7663e+09,0,8.9401e-11,2.4995e-07,5.1944e-08,3.1266e-09,0,0,0,0,0,0,0,0
5.073e+05,1.7668e+09,0,8.9809e-11,2.4995e-07,5.1944e-08,3.1247e-09,0,0,0,0,0,0,0,0
5.0937e+05,1.7673e+09,0,9.0218e-11,2.4995e-07,5.1944e-08,3.1243e-09,0,0,0,0,0,0,0,0
5.1139e+05,1.7678e+09,0,9.0631e-11,2.4995e-07,5.1944e-08,3.1218e-09,0,0,0,0,0,0,0,0
5.1346e+05,1.7683e+09,0,9.1114e-11,2.4995e-07,5.1944e-08,3.1225e-09,0,0,0,0,0,0,0,0
5.1554e+05,1.7688e+09,0,9.1493e-11,2.4995e-07,5.1944e-08,3.1189e-09,0,0,0,0,0,0,0,0
5.1761e+05,1.7693e+09,0,9.1916e-11,2.4995e-07,5.1944e-08,3.1186e-09,0,0,0,0,0,0,0,0
5.1967e+05,1.7698e+09,0,9.2037e-11,2.4995e-07,5.1944e-08,3.1178e-09,0,0,0,0,0,0,0,0
5.2174e+05,1.7703e+09,0,9.2297e-11,2.4995e-07,5.1944e-08,3.1178e-09,0,0,0,0,0,0,0,0
5.2382e+05,1.7708e+09,0,9.261e-11,2.4995e-07,5.1944e-08,3.1178e-09,0,0,0,0,0,0,0,0
5.2586e+05,1.7713e+09,0,9.2907e-11,2.4995e-07,5.1944e-08,3.1178e-09,0,0,0,0,0,0,0,0
5.2794e+05,1.7718e+09,0,9.3197e-11,2.4995e-07,5.1944e-08,3.1178e-09,0,0,0,0,0,0,0,0
5.3002e+05,1.7723e+09,0,9.3587e-11,2.4995e-07,5.1944e-08,3.1178e-09,0,0,0,0,0,0,0,0
5.3205e+05,1.7728e+09,0,9.3895e-11,2.4995e-07,5.1944e-08,3.1178e-09,0,0,0,0,0,0,0,0
5.3413e+05,1.7733e+09,0,9.4314e-11,2.4995e-07,5.1944e-08,3.1178e-09,0,0,0,0,0,0,0,0
5.362e+05,1.7738e+09,0,9.4539e-11,2.4995e-07,5.1944e-08,3.1178e-09,0,0,0,0,0,0,0,0
5.3828e+05,1.7743e+09,0,9.475e-11,2.4995e-07,5.1944e-08,3.1178e-09,0,0,0,0,0,0,0,0
5.4035e+05,1.7748e+09,0,9.4191e-11,2.4995e-07,5.1944e-08,3.1178e-09,0,0,0,0,0,0,0,0
5.4241e+05,1.7753e+09,0,9.3741e-11,2.4995e-07,5.1944e-08,3.1178e-09,0,0,0,0,0,0,0,0
5.4448e+05,1.7758e+09,0,9.3033e-11,2.4995e-07,5.1944e-08,3.1178e-09,0,0,0,0,0,0,0,0
5.4654e+05,1.7763e+09,0,9.1612e-11,2.499e-07,5.1944e-08,3.1178e-09,0,0,0,0,0,0,0,0
