LineNo,TimeUS,C,IVN0,IVN1,IVN2,IVN3,IVN4,IVE0,IVE1,IVE2,IVE3,IVE4
304,1.6419e+09,0,0.40701,-0.34964,-0.58047,0.017633,0.62718,0.50158,0.50645,-0.20687,-0.64623,-0.21892
532,1.6419e+09,0,0.40701,-0.34964,-0.58047,0.017633,0.62718,0.50158,0.50645,-0.20687,-0.64623,-0.21892
984,1.642e+09,0,0.48413,-0.41587,-0.68971,0.018447,0.75422,0.59385,0.592,-0.25166,-0.78156,-0.27048
1098,1.6421e+09,0,0.48413,-0.41587,-0.68971,0.018447,0.75422,0.59385,0.592,-0.25166,-0.78156,-0.27048
1205,1.6422e+09,0,0.54775,-0.55261,-0.88893,-0.025579,0.89218,0.76732,0.75427,-0.27113,-0.93291,-0.30095
1316,1.6422e+09,0,0.54775,-0.55261,-0.88893,-0.025579,0.89218,0.76732,0.75427,-0.27113,-0.93291,-0.30095
1495,1.6423e+09,0,0.54775,-0.55261,-0.88893,-0.025579,0.89218,0.76732,0.75427,-0.27113,-0.93291,-0.30095
1677,1.6423e+09,0,0.54775,-0.55261,-0.88893,-0.025579,0.89218,0.76732,0.75427,-0.27113,-0.93291,-0.30095
1721,1.6423e+09,0,0.54775,-0.55261,-0.88893,-0.025579,0.89218,0.76732,0.75427,-0.27113,-0.93291,-0.30095
1766,1.6423e+09,0,0.54775,-0.55261,-0.88893,-0.025579,0.89218,0.76732,0.75427,-0.27113,-0.93291,-0.30095
1810,1.6423e+09,0,0.54775,-0.55261,-0.88893,-0.025579,0.89218,0.76732,0.75427,-0.27113,-0.93291,-0.30095
1855,1.6423e+09,0,0.54775,-0.55261,-0.88893,-0.025579,0.89218,0.76732,0.75427,-0.27113,-0.93291,-0.30095
1902,1.6424e+09,0,0.54775,-0.55261,-0.88893,-0.025579,0.89218,0.76732,0.75427,-0.27113,-0.93291,-0.30095
1947,1.6424e+09,0,0.76208,-0.72154,-1.1716,-0.0089737,1.223,1.0162,0.9992,-0.38373,-1.27,-0.42152
1989,1.6424e+09,0,0.76208,-0.72154,-1.1716,-0.0089737,1.223,1.0162,0.9992,-0.38373,-1.27,-0.42152
2037,1.6424e+09,0,0.76208,-0.72154,-1.1716,-0.0089737,1.223,1.0162,0.9992,-0.38373,-1.27,-0.42152
2080,1.6424e+09,0,0.76208,-0.72154,-1.1716,-0.0089737,1.223,1.0162,0.9992,-0.38373,-1.27,-0.42152
2122,1.6424e+09,0,0.76208,-0.72154,-1.1716,-0.0089737,1.223,1.0162,0.9992,-0.38373,-1.27,-0.42152
2168,1.6424e+09,0,0.76208,-0.72154,-1.1716,-0.0089737,1.223,1.0162,0.9992,-0.38373,-1.27,-0.42152
2212,1.6424e+09,0,0.76208,-0.72154,-1.1716,-0.0089737,1.223,1.0162,0.9992,-0.38373,-1.27,-0.42152
2254,1.6425e+09,0,0.76208,-0.72154,-1.1716,-0.0089737,1.223,1.0162,0.9992,-0.38373,-1.27,-0.42152
2298,1.6425e+09,0,0.76208,-0.72154,-1.1716,-0.0089737,1.223,1.0162,0.9992,-0.38373,-1.27,-0.42152
2340,1.6425e+09,0,0.76208,-0.72154,-1.1716,-0.0089737,1.223,1.0162,0.9992,-0.38373,-1.27,-0.42152
2383,1.6425e+09,0,0.76208,-0.72154,-1.1716,-0.0089737,1.223,1.0162,0.9992,-0.38373,-1.27,-0.42152
2426,1.6425e+09,0,0.76208,-0.72154,-1.1716,-0.0089737,1.223,1.0162,0.9992,-0.38373,-1.27,-0.42152
2472,1.6425e+09,0,0.76208,-0.72154,-1.1716,-0.0089737,1.223,1.0162,0.9992,-0.38373,-1.27,-0.42152
2516,1.6425e+09,0,0.76208,-0.72154,-1.1716,-0.0089737,1.223,1.0162,0.9992,-0.38373,-1.27,-0.42152
2558,1.6425e+09,0,0.76208,-0.72154,-1.1716,-0.0089737,1.223,1.0162,0.9992,-0.38373,-1.27,-0.42152
2601,1.6425e+09,0,0.76208,-0.72154,-1.1716,-0.0089737,1.223,1.0162,0.9992,-0.38373,-1.27,-0.42152
2646,1.6425e+09,0,0.76208,-0.72154,-1.1716,-0.0089737,1.223,1.0162,0.9992,-0.38373,-1.27,-0.42152
2692,1.6426e+09,0,0.7835,-0.78158,-1.2553,-0.034488,1.2784,1.0941,1.0675,-0.38497,-1.3283,-0.43187
2737,1.6426e+09,0,0.7835,-0.78158,-1.2553,-0.034488,1.2784,1.0941,1.0675,-0.38497,-1.3283,-0.43187
2782,1.6426e+09,0,0.7835,-0.78158,-1.2553,-0.034488,1.2784,1.0941,1.0675,-0.38497,-1.3283,-0.43187
2827,1.6426e+09,0,0.7835,-0.78158,-1.2553,-0.034488,1.2784,1.0941,1.0675,-0.38497,-1.3283,-0.43187
2876,1.6426e+09,0,0.7835,-0.78158,-1.2553,-0.034488,1.2784,1.0941,1.0675,-0.38497,-1.3283,-0.43187
2920,1.6426e+09,0,0.7835,-0.78158,-1.2553,-0.034488,1.2784,1.0941,1.0675,-0.38497,-1.3283,-0.43187
2967,1.6426e+09,0,0.7835,-0.78158,-1.2553,-0.034488,1.2784,1.0941,1.0675,-0.38497,-1.3283,-0.43187
3011,1.6426e+09,0,0.7835,-0.78158,-1.2553,-0.034488,1.2784,1.0941,1.0675,-0.38497,-1.3283,-0.43187
3056,1.6426e+09,0,0.7835,-0.78158,-1.2553,-0.034488,1.2784,1.0941,1.0675,-0.38497,-1.3283,-0.43187
3100,1.6427e+09,0,0.7835,-0.78158,-1.2553,-0.034488,1.2784,1.0941,1.0675,-0.38497,-1.3283,-0.43187
3145,1.6427e+09,0,0.7835,-0.78158,-1.2553,-0.034488,1.2784,1.0941,1.0675,-0.38497,-1.3283,-0.43187
3190,1.6427e+09,0,0.7835,-0.78158,-1.2553,-0.034488,1.2784,1.0941,1.0675,-0.38497,-1.3283,-0.43187
3234,1.6427e+09,0,0.7835,-0.78158,-1.2553,-0.034488,1.2784,1.0941,1.0675,-0.38497,-1.3283,-0.43187
3281,1.6427e+09,0,0.7835,-0.78158,-1.2553,-0.034488,1.2784,1.0941,1.0675,-0.38497,-1.3283,-0.43187
3331,1.6427e+09,0,0.7835,-0.78158,-1.2553,-0.034488,1.2784,1.0941,1.0675,-0.38497,-1.3283,-0.43187
3377,1.6427e+09,0,0.7835,-0.78158,-1.2553,-0.034488,1.2784,1.0941,1.0675,-0.38497,-1.3283,-0.43187
3421,1.6427e+09,0,0.7835,-0.78158,-1.2553,-0.034488,1.2784,1.0941,1.0675,-0.38497,-1.3283,-0.43187
3466,1.6427e+09,0,0.7835,-0.78158,-1.2553,-0.034488,1.2784,1.0941,1.0675,-0.38497,-1.3283,-0.43187
3511,1.6427e+09,0,0.7835,-0.78158,-1.2553,-0.034488,1.2784,1.0941,1.0675,-0.38497,-1.3283,-0.43187
3558,1.6428e+09,0,0.7835,-0.78158,-1.2553,-0.034488,1.2784,1.0941,1.0675,-0.38497,-1.3283,-0.43187
3600,1.6428e+09,0,0.84183,-0.87675,-1.3948,-0.059424,1.3828,1.2127,1.1829,-0.40923,-1.4436,-0.46447
3644,1.6428e+09,0,0.84183,-0.87675,-1.3948,-0.059424,1.3828,1.2127,1.1829,-0.40923,-1.4436,-0.46447
3688,1.6428e+09,0,0.84183,-0.87675,-1.3948,-0.059424,1.3828,1.2127,1.1829,-0.40923,-1.4436,-0.46447
3735,1.6428e+09,0,0.84183,-0.87675,-1.3948,-0.059424,1.3828,1.2127,1.1829,-0.40923,-1.4436,-0.46447
3783,1.6428e+09,0,0.84183,-0.87675,-1.3948,-0.059424,1.3828,1.2127,1.1829,-0.40923,-1.4436,-0.46447
3828,1.6428e+09,0,0.84183,-0.87675,-1.3948,-0.059424,1.3828,1.2127,1.1829,-0.40923,-1.4436,-0.46447
3872,1.6428e+09,0,0.84183,-0.87675,-1.3948,-0.059424,1.3828,1.2127,1.1829,-0.40923,-1.4436,-0.46447
3917,1.6428e+09,0,0.84183,-0.87675,-1.3948,-0.059424,1.3828,1.2127,1.1829,-0.40923,-1.4436,-0.46447
3962,1.6429e+09,0,0.84183,-0.87675,-1.3948,-0.059424,1.3828,1.2127,1.1829,-0.40923,-1.4436,-0.46447
4006,1.6429e+09,0,0.84183,-0.87675,-1.3948,-0.059424,1.3828,1.2127,1.1829,-0.40923,-1.4436,-0.46447
4051,1.6429e+09,0,0.84183,-0.87675,-1.3948,-0.059424,1.3828,1.2127,1.1829,-0.40923,-1.4436,-0.46447
4095,1.6429e+09,0,0.84183,-0.87675,-1.3948,-0.059424,1.3828,1.2127,1.1829,-0.40923,-1.4436,-0.46447
4140,1.6429e+09,0,0.84183,-0.87675,-1.3948,-0.059424,1.3828,1.2127,1.1829,-0.40923,-1.4436,-0.46447
4185,1.6429e+09,0,0.84183,-0.87675,-1.3948,-0.059424,1.3828,1.2127,1.1829,-0.40923,-1.4436,-0.46447
4234,1.6429e+09,0,0.84183,-0.87675,-1.3948,-0.059424,1.3828,1.2127,1.1829,-0.40923,-1.4436,-0.46447
4279,1.6429e+09,0,0.84183,-0.87675,-1.3948,-0.059424,1.3828,1.2127,1.1829,-0.40923,-1.4436,-0.46447
4323,1.6429e+09,0,0.84183,-0.87675,-1.3948,-0.059424,1.3828,1.2127,1.1829,-0.40923,-1.4436,-0.46447
4368,1.6429e+09,0,0.86108,-0.92223,-1.4556,-0.072577,1.4162,1.2206,1.1914,-0.4608,-1.5261,-0.51605
4410,1.643e+09,0,0.86108,-0.92223,-1.4556,-0.072577,1.4162,1.2206,1.1914,-0.4608,-1.5261,-0.51605
4453,1.643e+09,0,0.86108,-0.92223,-1.4556,-0.072577,1.4162,1.2206,1.1914,-0.4608,-1.5261,-0.51605
4497,1.643e+09,0,0.86108,-0.92223,-1.4556,-0.072577,1.4162,1.2206,1.1914,-0.4608,-1.5261,-0.51605
4539,1.643e+09,0,0.86108,-0.92223,-1.4556,-0.072577,1.4162,1.2206,1.1914,-0.4608,-1.5261,-0.51605
4582,1.643e+09,0,0.86108,-0.92223,-1.4556,-0.072577,1.4162,1.2206,1.1914,-0.4608,-1.5261,-0.51605
4624,1.643e+09,0,0.86108,-0.92223,-1.4556,-0.072577,1.4162,1.2206,1.1914,-0.4608,-1.5261,-0.51605
4673,1.643e+09,0,0.86108,-0.92223,-1.4556,-0.072577,1.4162,1.2206,1.1914,-0.4608,-1.5261,-0.51605
4716,1.643e+09,0,0.86108,-0.92223,-1.4556,-0.072577,1.4162,1.2206,1.1914,-0.4608,-1.5261,-0.51605
4759,1.643e+09,0,0.86108,-0.92223,-1.4556,-0.072577,1.4162,1.2206,1.1914,-0.4608,-1.5261,-0.51605
4802,1.6431e+09,0,0.86108,-0.92223,-1.4556,-0.072577,1.4162,1.2206,1.1914,-0.4608,-1.5261,-0.51605
4844,1.6431e+09,0,0.86108,-0.92223,-1.4556,-0.072577,1.4162,1.2206,1.1914,-0.4608,-1.5261,-0.51605
4887,1.6431e+09,0,0.86108,-0.92223,-1.4556,-0.072577,1.4162,1.2206,1.1914,-0.4608,-1.5261,-0.51605
4930,1.6431e+09,0,0.86108,-0.92223,-1.4556,-0.072577,1.4162,1.2206,1.1914,-0.4608,-1.5261,-0.51605
4973,1.6431e+09,0,0.86108,-0.92223,-1.4556,-0.072577,1.4162,1.2206,1.1914,-0.4608,-1.5261,-0.51605
5016,1.6431e+09,0,0.86108,-0.92223,-1.4556,-0.072577,1.4162,1.2206,1.1914,-0.4608,-1.5261,-0.51605
5059,1.6431e+09,0,0.86108,-0.92223,-1.4556,-0.072577,1.4162,1.2206,1.1914,-0.4608,-1.5261,-0.51605
5106,1.6431e+09,0,0.86108,-0.92223,-1.4556,-0.072577,1.4162,1.2206,1.1914,-0.4608,-1.5261,-0.51605
5149,1.6431e+09,0,0.86108,-0.92223,-1.4556,-0.072577,1.4162,1.2206,1.1914,-0.4608,-1.5261,-0.51605
5192,1.6431e+09,0,0.86108,-0.92223,-1.4556,-0.072577,1.4162,1.2206,1.1914,-0.4608,-1.5261,-0.51605
5230,1.6432e+09,0,0.92223,-0.93376,-1.4953,-0.048018,1.5023,1.2922,1.2656,-0.45851,-1.5721,-0.51346
5274,1.6432e+09,0,0.92223,-0.93376,-1.4953,-0.048018,1.5023,1.2922,1.2656,-0.45851,-1.5721,-0.51346
5319,1.6432e+09,0,0.92223,-0.93376,-1.4953,-0.048018,1.5023,1.2922,1.2656,-0.45851,-1.5721,-0.51346
5363,1.6432e+09,0,0.92223,-0.93376,-1.4953,-0.048018,1.5023,1.2922,1.2656,-0.45851,-1.5721,-0.51346
5408,1.6432e+09,0,0.92223,-0.93376,-1.4953,-0.048018,1.5023,1.2922,1.2656,-0.45851,-1.5721,-0.51346
5452,1.6432e+09,0,0.92223,-0.93376,-1.4953,-0.048018,1.5023,1.2922,1.2656,-0.45851,-1.5721,-0.51346
5497,1.6432e+09,0,0.92223,-0.93376,-1.4953,-0.048018,1.5023,1.2922,1.2656,-0.45851,-1.5721,-0.51346
5546,1.6432e+09,0,0.92223,-0.93376,-1.4953,-0.048018,1.5023,1.2922,1.2656,-0.45851,-1.5721,-0.51346
5591,1.6432e+09,0,0.92223,-0.93376,-1.4953,-0.048018,1.5023,1.2922,1.2656,-0.45851,-1.5721,-0.51346
5635,1.6432e+09,0,0.92223,-0.93376,-1.4953,-0.048018,1.5023,1.2922,1.2656,-0.45851,-1.5721,-0.51346
5680,1.6433e+09,0,0.92223,-0.93376,-1.4953,-0.048018,1.5023,1.2922,1.2656,-0.45851,-1.5721,-0.51346
5725,1.6433e+09,0,0.92223,-0.93376,-1.4953,-0.048018,1.5023,1.2922,1.2656,-0.45851,-1.5721,-0.51346
5769,1.6433e+09,0,0.92223,-0.93376,-1.4953,-0.048018,1.5023,1.2922,1.2656,-0.45851,-1.5721,-0.51346
5815,1.6433e+09,0,0.92223,-0.93376,-1.4953,-0.048018,1.5023,1.2922,1.2656,-0.45851,-1.5721,-0.51346
5862,1.6433e+09,0,0.92223,-0.93376,-1.4953,-0.048018,1.5023,1.2922,1.2656,-0.45851,-1.5721,-0.51346
5907,1.6433e+09,0,0.92223,-0.93376,-1.4953,-0.048018,1.5023,1.2922,1.2656,-0.45851,-1.5721,-0.51346
5951,1.6433e+09,0,0.92223,-0.93376,-1.4953,-0.048018,1.5023,1.2922,1.2656,-0.45851,-1.5721,-0.51346
6001,1.6433e+09,0,0.92223,-0.93376,-1.4953,-0.048018,1.5023,1.2922,1.2656,-0.45851,-1.5721,-0.51346
6045,1.6433e+09,0,0.92223,-0.93376,-1.4953,-0.048018,1.5023,1.2922,1.2656,-0.45851,-1.5721,-0.51346
6088,1.6434e+09,0,0.9496,-0.96882,-1.5477,-0.054963,1.5486,1.3094,1.2807,-0.49937,-1.65,-0.55842
6132,1.6434e+09,0,0.9496,-0.96882,-1.5477,-0.054963,1.5486,1.3094,1.2807,-0.49937,-1.65,-0.55842
6177,1.6434e+09,0,0.9496,-0.96882,-1.5477,-0.054963,1.5486,1.3094,1.2807,-0.49937,-1.65,-0.55842
6224,1.6434e+09,0,0.9496,-0.96882,-1.5477,-0.054963,1.5486,1.3094,1.2807,-0.49937,-1.65,-0.55842
6269,1.6434e+09,0,0.9496,-0.96882,-1.5477,-0.054963,1.5486,1.3094,1.2807,-0.49937,-1.65,-0.55842
6313,1.6434e+09,0,0.9496,-0.96882,-1.5477,-0.054963,1.5486,1.3094,1.2807,-0.49937,-1.65,-0.55842
6358,1.6434e+09,0,0.9496,-0.96882,-1.5477,-0.054963,1.5486,1.3094,1.2807,-0.49937,-1.65,-0.55842
6405,1.6434e+09,0,0.9496,-0.96882,-1.5477,-0.054963,1.5486,1.3094,1.2807,-0.49937,-1.65,-0.55842
6452,1.6434e+09,0,0.9496,-0.96882,-1.5477,-0.054963,1.5486,1.3094,1.2807,-0.49937,-1.65,-0.55842
6496,1.6434e+09,0,0.9496,-0.96882,-1.5477,-0.054963,1.5486,1.3094,1.2807,-0.49937,-1.65,-0.55842
6540,1.6435e+09,0,0.9496,-0.96882,-1.5477,-0.054963,1.5486,1.3094,1.2807,-0.49937,-1.65,-0.55842
6588,1.6435e+09,0,0.9496,-0.96882,-1.5477,-0.054963,1.5486,1.3094,1.2807,-0.49937,-1.65,-0.55842
6632,1.6435e+09,0,0.9496,-0.96882,-1.5477,-0.054963,1.5486,1.3094,1.2807,-0.49937,-1.65,-0.55842
6677,1.6435e+09,0,0.9496,-0.96882,-1.5477,-0.054963,1.5486,1.3094,1.2807,-0.49937,-1.65,-0.55842
6722,1.6435e+09,0,0.9496,-0.96882,-1.5477,-0.054963,1.5486,1.3094,1.2807,-0.49937,-1.65,-0.55842
6767,1.6435e+09,0,0.9496,-0.96882,-1.5477,-0.054963,1.5486,1.3094,1.2807,-0.49937,-1.65,-0.55842
6812,1.6435e+09,0,0.9496,-0.96882,-1.5477,-0.054963,1.5486,1.3094,1.2807,-0.49937,-1.65,-0.55842
6860,1.6435e+09,0,0.9496,-0.96882,-1.5477,-0.054963,1.5486,1.3094,1.2807,-0.49937,-1.65,-0.55842
6907,1.6435e+09,0,0.9496,-0.96882,-1.5477,-0.054963,1.5486,1.3094,1.2807,-0.49937,-1.65,-0.55842
6952,1.6436e+09,0,0.97415,-0.98956,-1.5857,-0.054881,1.5921,1.3594,1.3289,-0.49353,-1.6774,-0.55496
6994,1.6436e+09,0,0.97415,-0.98956,-1.5857,-0.054881,1.5921,1.3594,1.3289,-0.49353,-1.6774,-0.55496
7042,1.6436e+09,0,0.97415,-0.98956,-1.5857,-0.054881,1.5921,1.3594,1.3289,-0.49353,-1.6774,-0.55496
7085,1.6436e+09,0,0.97415,-0.98956,-1.5857,-0.054881,1.5921,1.3594,1.3289,-0.49353,-1.6774,-0.55496
7127,1.6436e+09,0,0.97415,-0.98956,-1.5857,-0.054881,1.5921,1.3594,1.3289,-0.49353,-1.6774,-0.55496
7171,1.6436e+09,0,0.97415,-0.98956,-1.5857,-0.054881,1.5921,1.3594,1.3289,-0.49353,-1.6774,-0.55496
7214,1.6436e+09,0,0.97415,-0.98956,-1.5857,-0.054881,1.5921,1.3594,1.3289,-0.49353,-1.6774,-0.55496
7260,1.6436e+09,0,0.97415,-0.98956,-1.5857,-0.054881,1.5921,1.3594,1.3289,-0.49353,-1.6774,-0.55496
7303,1.6436e+09,0,0.97415,-0.98956,-1.5857,-0.054881,1.5921,1.3594,1.3289,-0.49353,-1.6774,-0.55496
7346,1.6437e+09,0,0.97415,-0.98956,-1.5857,-0.054881,1.5921,1.3594,1.3289,-0.49353,-1.6774,-0.55496
7391,1.6437e+09,0,0.97415,-0.98956,-1.5857,-0.054881,1.5921,1.3594,1.3289,-0.49353,-1.6774,-0.55496
7433,1.6437e+09,0,0.97415,-0.98956,-1.5857,-0.054881,1.5921,1.3594,1.3289,-0.49353,-1.6774,-0.55496
7473,1.6437e+09,0,0.97415,-0.98956,-1.5857,-0.054881,1.5921,1.3594,1.3289,-0.49353,-1.6774,-0.55496
7515,1.6437e+09,0,0.97415,-0.98956,-1.5857,-0.054881,1.5921,1.3594,1.3289,-0.49353,-1.6774,-0.55496
7559,1.6437e+09,0,0.97415,-0.98956,-1.5857,-0.054881,1.5921,1.3594,1.3289,-0.49353,-1.6774,-0.55496
7602,1.6437e+09,0,0.97415,-0.98956,-1.5857,-0.054881,1.5921,1.3594,1.3289,-0.49353,-1.6774,-0.55496
7645,1.6437e+09,0,0.97415,-0.98956,-1.5857,-0.054881,1.5921,1.3594,1.3289,-0.49353,-1.6774,-0.55496
7697,1.6437e+09,0,0.97415,-0.98956,-1.5857,-0.054881,1.5921,1.3594,1.3289,-0.49353,-1.6774,-0.55496
7741,1.6437e+09,0,0.97415,-0.98956,-1.5857,-0.054881,1.5921,1.3594,1.3289,-0.49353,-1.6774,-0.55496
7783,1.6438e+09,0,0.96299,-1.0242,-1.6284,-0.080613,1.5889,1.383,1.352,-0.4911,-1.6915,-0.55597
7829,1.6438e+09,0,0.96299,-1.0242,-1.6284,-0.080613,1.5889,1.383,1.352,-0.4911,-1.6915,-0.55597
7874,1.6438e+09,0,0.96299,-1.0242,-1.6284,-0.080613,1.5889,1.383,1.352,-0.4911,-1.6915,-0.55597
7921,1.6438e+09,0,0.96299,-1.0242,-1.6284,-0.080613,1.5889,1.383,1.352,-0.4911,-1.6915,-0.55597
7965,1.6438e+09,0,0.96299,-1.0242,-1.6284,-0.080613,1.5889,1.383,1.352,-0.4911,-1.6915,-0.55597
8010,1.6438e+09,0,0.96299,-1.0242,-1.6284,-0.080613,1.5889,1.383,1.352,-0.4911,-1.6915,-0.55597
8054,1.6438e+09,0,0.96299,-1.0242,-1.6284,-0.080613,1.5889,1.383,1.352,-0.4911,-1.6915,-0.55597
8099,1.6438e+09,0,0.96299,-1.0242,-1.6284,-0.080613,1.5889,1.383,1.352,-0.4911,-1.6915,-0.55597
8149,1.6438e+09,0,0.96299,-1.0242,-1.6284,-0.080613,1.5889,1.383,1.352,-0.4911,-1.6915,-0.55597
8193,1.6439e+09,0,0.96299,-1.0242,-1.6284,-0.080613,1.5889,1.383,1.352,-0.4911,-1.6915,-0.55597
8239,1.6439e+09,0,0.96299,-1.0242,-1.6284,-0.080613,1.5889,1.383,1.352,-0.4911,-1.6915,-0.55597
8283,1.6439e+09,0,0.96299,-1.0242,-1.6284,-0.080613,1.5889,1.383,1.352,-0.4911,-1.6915,-0.55597
8329,1.6439e+09,0,0.96299,-1.0242,-1.6284,-0.080613,1.5889,1.383,1.352,-0.4911,-1.6915,-0.55597
8373,1.6439e+09,0,0.96299,-1.0242,-1.6284,-0.080613,1.5889,1.383,1.352,-0.4911,-1.6915,-0.55597
8418,1.6439e+09,0,0.96299,-1.0242,-1.6284,-0.080613,1.5889,1.383,1.352,-0.4911,-1.6915,-0.55597
8463,1.6439e+09,0,0.96299,-1.0242,-1.6284,-0.080613,1.5889,1.383,1.352,-0.4911,-1.6915,-0.55597
8508,1.6439e+09,0,0.96299,-1.0242,-1.6284,-0.080613,1.5889,1.383,1.352,-0.4911,-1.6915,-0.55597
8553,1.6439e+09,0,0.96299,-1.0242,-1.6284,-0.080613,1.5889,1.383,1.352,-0.4911,-1.6915,-0.55597
8601,1.6439e+09,0,0.96299,-1.0242,-1.6284,-0.080613,1.5889,1.383,1.352,-0.4911,-1.6915,-0.55597
8645,1.644e+09,0,0.94345,-1.0478,-1.6507,-0.096108,1.5728,1.3968,1.3638,-0.48548,-1.6847,-0.54355
8686,1.644e+09,0,0.94345,-1.0478,-1.6507,-0.096108,1.5728,1.3968,1.3638,-0.48548,-1.6847,-0.54355
8731,1.644e+09,0,0.94345,-1.0478,-1.6507,-0.096108,1.5728,1.3968,1.3638,-0.48548,-1.6847,-0.54355
8777,1.644e+09,0,0.94345,-1.0478,-1.6507,-0.096108,1.5728,1.3968,1.3638,-0.48548,-1.6847,-0.54355
8818,1.644e+09,0,0.94345,-1.0478,-1.6507,-0.096108,1.5728,1.3968,1.3638,-0.48548,-1.6847,-0.54355
8864,1.644e+09,0,0.94345,-1.0478,-1.6507,-0.096108,1.5728,1.3968,1.3638,-0.48548,-1.6847,-0.54355
8908,1.644e+09,0,0.94345,-1.0478,-1.6507,-0.096108,1.5728,1.3968,1.3638,-0.48548,-1.6847,-0.54355
8952,1.644e+09,0,0.94345,-1.0478,-1.6507,-0.096108,1.5728,1.3968,1.3638,-0.48548,-1.6847,-0.54355
8998,1.644e+09,0,0.94345,-1.0478,-1.6507,-0.096108,1.5728,1.3968,1.3638,-0.48548,-1.6847,-0.54355
9046,1.644e+09,0,0.94345,-1.0478,-1.6507,-0.096108,1.5728,1.3968,1.3638,-0.48548,-1.6847,-0.54355
9092,1.6441e+09,0,0.94345,-1.0478,-1.6507,-0.096108,1.5728,1.3968,1.3638,-0.48548,-1.6847,-0.54355
9136,1.6441e+09,0,0.94345,-1.0478,-1.6507,-0.096108,1.5728,1.3968,1.3638,-0.48548,-1.6847,-0.54355
9181,1.6441e+09,0,0.94345,-1.0478,-1.6507,-0.096108,1.5728,1.3968,1.3638,-0.48548,-1.6847,-0.54355
9225,1.6441e+09,0,0.94345,-1.0478,-1.6507,-0.096108,1.5728,1.3968,1.3638,-0.48548,-1.6847,-0.54355
9270,1.6441e+09,0,0.94345,-1.0478,-1.6507,-0.096108,1.5728,1.3968,1.3638,-0.48548,-1.6847,-0.54355
9315,1.6441e+09,0,0.94345,-1.0478,-1.6507,-0.096108,1.5728,1.3968,1.3638,-0.48548,-1.6847,-0.54355
9359,1.6441e+09,0,0.94345,-1.0478,-1.6507,-0.096108,1.5728,1.3968,1.3638,-0.48548,-1.6847,-0.54355
9404,1.6441e+09,0,0.94345,-1.0478,-1.6507,-0.096108,1.5728,1.3968,1.3638,-0.48548,-1.6847,-0.54355
9449,1.6441e+09,0,0.94345,-1.0478,-1.6507,-0.096108,1.5728,1.3968,1.3638,-0.48548,-1.6847,-0.54355
9498,1.6441e+09,0,0.94345,-1.0478,-1.6507,-0.096108,1.5728,1.3968,1.3638,-0.48548,-1.6847,-0.54355
9544,1.6442e+09,0,0.98218,-1.0473,-1.6666,-0.082797,1.6155,1.4102,1.3849,-0.50096,-1.7236,-0.56502
9587,1.6442e+09,0,0.98218,-1.0473,-1.6666,-0.082797,1.6155,1.4102,1.3849,-0.50096,-1.7236,-0.56502
9630,1.6442e+09,0,0.98218,-1.0473,-1.6666,-0.082797,1.6155,1.4102,1.3849,-0.50096,-1.7236,-0.56502
9672,1.6442e+09,0,0.98218,-1.0473,-1.6666,-0.082797,1.6155,1.4102,1.3849,-0.50096,-1.7236,-0.56502
9717,1.6442e+09,0,0.98218,-1.0473,-1.6666,-0.082797,1.6155,1.4102,1.3849,-0.50096,-1.7236,-0.56502
9759,1.6442e+09,0,0.98218,-1.0473,-1.6666,-0.082797,1.6155,1.4102,1.3849,-0.50096,-1.7236,-0.56502
9802,1.6442e+09,0,0.98218,-1.0473,-1.6666,-0.082797,1.6155,1.4102,1.3849,-0.50096,-1.7236,-0.56502
9845,1.6442e+09,0,0.98218,-1.0473,-1.6666,-0.082797,1.6155,1.4102,1.3849,-0.50096,-1.7236,-0.56502
9890,1.6442e+09,0,0.98218,-1.0473,-1.6666,-0.082797,1.6155,1.4102,1.3849,-0.50096,-1.7236,-0.56502
9934,1.6443e+09,0,0.98218,-1.0473,-1.6666,-0.082797,1.6155,1.4102,1.3849,-0.50096,-1.7236,-0.56502
9977,1.6443e+09,0,0.98218,-1.0473,-1.6666,-0.082797,1.6155,1.4102,1.3849,-0.50096,-1.7236,-0.56502
10020,1.6443e+09,0,0.98218,-1.0473,-1.6666,-0.082797,1.6155,1.4102,1.3849,-0.50096,-1.7236,-0.56502
10064,1.6443e+09,0,0.98218,-1.0473,-1.6666,-0.082797,1.6155,1.4102,1.3849,-0.50096,-1.7236,-0.56502
10107,1.6443e+09,0,0.98218,-1.0473,-1.6666,-0.082797,1.6155,1.4102,1.3849,-0.50096,-1.7236,-0.56502
10150,1.6443e+09,0,0.98218,-1.0473,-1.6666,-0.082797,1.6155,1.4102,1.3849,-0.50096,-1.7236,-0.56502
10194,1.6443e+09,0,0.98218,-1.0473,-1.6666,-0.082797,1.6155,1.4102,1.3849,-0.50096,-1.7236,-0.56502
10237,1.6443e+09,0,0.98218,-1.0473,-1.6666,-0.082797,1.6155,1.4102,1.3849,-0.50096,-1.7236,-0.56502
10281,1.6443e+09,0,0.98218,-1.0473,-1.6666,-0.082797,1.6155,1.4102,1.3849,-0.50096,-1.7236,-0.56502
10325,1.6444e+09,0,0.94921,-1.0591,-1.6721,-0.10339,1.5753,1.4065,1.3824,-0.4849,-1.6937,-0.54663
10369,1.6444e+09,0,0.94921,-1.0591,-1.6721,-0.10339,1.5753,1.4065,1.3824,-0.4849,-1.6937,-0.54663
10414,1.6444e+09,0,0.94921,-1.0591,-1.6721,-0.10339,1.5753,1.4065,1.3824,-0.4849,-1.6937,-0.54663
10460,1.6444e+09,0,0.94921,-1.0591,-1.6721,-0.10339,1.5753,1.4065,1.3824,-0.4849,-1.6937,-0.54663
10504,1.6444e+09,0,0.94921,-1.0591,-1.6721,-0.10339,1.5753,1.4065,1.3824,-0.4849,-1.6937,-0.54663
10549,1.6444e+09,0,0.94921,-1.0591,-1.6721,-0.10339,1.5753,1.4065,1.3824,-0.4849,-1.6937,-0.54663
10593,1.6444e+09,0,0.94921,-1.0591,-1.6721,-0.10339,1.5753,1.4065,1.3824,-0.4849,-1.6937,-0.54663
10638,1.6444e+09,0,0.94921,-1.0591,-1.6721,-0.10339,1.5753,1.4065,1.3824,-0.4849,-1.6937,-0.54663
10683,1.6444e+09,0,0.94921,-1.0591,-1.6721,-0.10339,1.5753,1.4065,1.3824,-0.4849,-1.6937,-0.54663
10728,1.6444e+09,0,0.94921,-1.0591,-1.6721,-0.10339,1.5753,1.4065,1.3824,-0.4849,-1.6937,-0.54663
10777,1.6445e+09,0,0.94921,-1.0591,-1.6721,-0.10339,1.5753,1.4065,1.3824,-0.4849,-1.6937,-0.54663
10822,1.6445e+09,0,0.94921,-1.0591,-1.6721,-0.10339,1.5753,1.4065,1.3824,-0.4849,-1.6937,-0.54663
10867,1.6445e+09,0,0.94921,-1.0591,-1.6721,-0.10339,1.5753,1.4065,1.3824,-0.4849,-1.6937,-0.54663
10911,1.6445e+09,0,0.94921,-1.0591,-1.6721,-0.10339,1.5753,1.4065,1.3824,-0.4849,-1.6937,-0.54663
10956,1.6445e+09,0,0.94921,-1.0591,-1.6721,-0.10339,1.5753,1.4065,1.3824,-0.4849,-1.6937,-0.54663
11001,1.6445e+09,0,0.94921,-1.0591,-1.6721,-0.10339,1.5753,1.4065,1.3824,-0.4849,-1.6937,-0.54663
11045,1.6445e+09,0,0.94921,-1.0591,-1.6721,-0.10339,1.5753,1.4065,1.3824,-0.4849,-1.6937,-0.54663
11091,1.6445e+09,0,0.94921,-1.0591,-1.6721,-0.10339,1.5753,1.4065,1.3824,-0.4849,-1.6937,-0.54663
11136,1.6445e+09,0,0.94921,-1.0591,-1.6721,-0.10339,1.5753,1.4065,1.3824,-0.4849,-1.6937,-0.54663
11183,1.6446e+09,0,0.92637,-1.0969,-1.7035,-0.11379,1.5656,1.4176,1.3844,-0.50291,-1.7082,-0.543
11228,1.6446e+09,0,0.92637,-1.0969,-1.7035,-0.11379,1.5656,1.4176,1.3844,-0.50291,-1.7082,-0.543
11273,1.6446e+09,0,0.92637,-1.0969,-1.7035,-0.11379,1.5656,1.4176,1.3844,-0.50291,-1.7082,-0.543
11319,1.6446e+09,0,0.92637,-1.0969,-1.7035,-0.11379,1.5656,1.4176,1.3844,-0.50291,-1.7082,-0.543
11363,1.6446e+09,0,0.92637,-1.0969,-1.7035,-0.11379,1.5656,1.4176,1.3844,-0.50291,-1.7082,-0.543
11411,1.6446e+09,0,0.92637,-1.0969,-1.7035,-0.11379,1.5656,1.4176,1.3844,-0.50291,-1.7082,-0.543
11457,1.6446e+09,0,0.92637,-1.0969,-1.7035,-0.11379,1.5656,1.4176,1.3844,-0.50291,-1.7082,-0.543
11502,1.6446e+09,0,0.92637,-1.0969,-1.7035,-0.11379,1.5656,1.4176,1.3844,-0.50291,-1.7082,-0.543
11547,1.6446e+09,0,0.92637,-1.0969,-1.7035,-0.11379,1.5656,1.4176,1.3844,-0.50291,-1.7082,-0.543
11592,1.6446e+09,0,0.92637,-1.0969,-1.7035,-0.11379,1.5656,1.4176,1.3844,-0.50291,-1.7082,-0.543
11637,1.6447e+09,0,0.92637,-1.0969,-1.7035,-0.11379,1.5656,1.4176,1.3844,-0.50291,-1.7082,-0.543
11686,1.6447e+09,0,0.92637,-1.0969,-1.7035,-0.11379,1.5656,1.4176,1.3844,-0.50291,-1.7082,-0.543
11731,1.6447e+09,0,0.92637,-1.0969,-1.7035,-0.11379,1.5656,1.4176,1.3844,-0.50291,-1.7082,-0.543
11776,1.6447e+09,0,0.92637,-1.0969,-1.7035,-0.11379,1.5656,1.4176,1.3844,-0.50291,-1.7082,-0.543
11820,1.6447e+09,0,0.92637,-1.0969,-1.7035,-0.11379,1.5656,1.4176,1.3844,-0.50291,-1.7082,-0.543
11862,1.6447e+09,0,0.92637,-1.0969,-1.7035,-0.11379,1.5656,1.4176,1.3844,-0.50291,-1.7082,-0.543
11907,1.6447e+09,0,0.92637,-1.0969,-1.7035,-0.11379,1.5656,1.4176,1.3844,-0.50291,-1.7082,-0.543
11953,1.6447e+09,0,0.92637,-1.0969,-1.7035,-0.11379,1.5656,1.4176,1.3844,-0.50291,-1.7082,-0.543
11997,1.6447e+09,0,0.92637,-1.0969,-1.7035,-0.11379,1.5656,1.4176,1.3844,-0.50291,-1.7082,-0.543
12043,1.6448e+09,0,0.92637,-1.0969,-1.7035,-0.11379,1.5656,1.4176,1.3844,-0.50291,-1.7082,-0.543
12086,1.6448e+09,0,0.92637,-1.0969,-1.7035,-0.11379,1.5656,1.4176,1.3844,-0.50291,-1.7082,-0.543
12131,1.6448e+09,0,1.0384,-1.0382,-1.6724,-0.043229,1.6803,1.442,1.4234,-0.51403,-1.7563,-0.56877
12175,1.6448e+09,0,1.0384,-1.0382,-1.6724,-0.043229,1.6803,1.442,1.4234,-0.51403,-1.7563,-0.56877
12219,1.6448e+09,0,1.0384,-1.0382,-1.6724,-0.043229,1.6803,1.442,1.4234,-0.51403,-1.7563,-0.56877
12262,1.6448e+09,0,1.0384,-1.0382,-1.6724,-0.043229,1.6803,1.442,1.4234,-0.51403,-1.7563,-0.56877
12304,1.6448e+09,0,1.0384,-1.0382,-1.6724,-0.043229,1.6803,1.442,1.4234,-0.51403,-1.7563,-0.56877
12347,1.6448e+09,0,1.0384,-1.0382,-1.6724,-0.043229,1.6803,1.442,1.4234,-0.51403,-1.7563,-0.56877
12393,1.6448e+09,0,1.0384,-1.0382,-1.6724,-0.043229,1.6803,1.442,1.4234,-0.51403,-1.7563,-0.56877
12435,1.6448e+09,0,1.0384,-1.0382,-1.6724,-0.043229,1.6803,1.442,1.4234,-0.51403,-1.7563,-0.56877
12480,1.6449e+09,0,1.0384,-1.0382,-1.6724,-0.043229,1.6803,1.442,1.4234,-0.51403,-1.7563,-0.56877
12522,1.6449e+09,0,1.0384,-1.0382,-1.6724,-0.043229,1.6803,1.442,1.4234,-0.51403,-1.7563,-0.56877
12569,1.6449e+09,0,1.0384,-1.0382,-1.6724,-0.043229,1.6803,1.442,1.4234,-0.51403,-1.7563,-0.56877
12611,1.6449e+09,0,1.0384,-1.0382,-1.6724,-0.043229,1.6803,1.442,1.4234,-0.51403,-1.7563,-0.56877
12653,1.6449e+09,0,1.0384,-1.0382,-1.6724,-0.043229,1.6803,1.442,1.4234,-0.51403,-1.7563,-0.56877
12697,1.6449e+09,0,1.0384,-1.0382,-1.6724,-0.043229,1.6803,1.442,1.4234,-0.51403,-1.7563,-0.56877
12742,1.6449e+09,0,1.0384,-1.0382,-1.6724,-0.043229,1.6803,1.442,1.4234,-0.51403,-1.7563,-0.56877
12785,1.6449e+09,0,1.0384,-1.0382,-1.6724,-0.043229,1.6803,1.442,1.4234,-0.51403,-1.7563,-0.56877
12833,1.6449e+09,0,1.0384,-1.0382,-1.6724,-0.043229,1.6803,1.442,1.4234,-0.51403,-1.7563,-0.56877
12873,1.645e+09,0,1.0585,-0.98217,-1.6072,-0.010354,1.6864,1.4126,1.396,-0.50526,-1.7285,-0.56568
12917,1.645e+09,0,1.0585,-0.98217,-1.6072,-0.010354,1.6864,1.4126,1.396,-0.50526,-1.7285,-0.56568
12966,1.645e+09,0,1.0585,-0.98217,-1.6072,-0.010354,1.6864,1.4126,1.396,-0.50526,-1.7285,-0.56568
13011,1.645e+09,0,1.0585,-0.98217,-1.6072,-0.010354,1.6864,1.4126,1.396,-0.50526,-1.7285,-0.56568
13056,1.645e+09,0,1.0585,-0.98217,-1.6072,-0.010354,1.6864,1.4126,1.396,-0.50526,-1.7285,-0.56568
13101,1.645e+09,0,1.0585,-0.98217,-1.6072,-0.010354,1.6864,1.4126,1.396,-0.50526,-1.7285,-0.56568
13145,1.645e+09,0,1.0585,-0.98217,-1.6072,-0.010354,1.6864,1.4126,1.396,-0.50526,-1.7285,-0.56568
13189,1.645e+09,0,1.0585,-0.98217,-1.6072,-0.010354,1.6864,1.4126,1.396,-0.50526,-1.7285,-0.56568
13233,1.645e+09,0,1.0585,-0.98217,-1.6072,-0.010354,1.6864,1.4126,1.396,-0.50526,-1.7285,-0.56568
13278,1.645e+09,0,1.0585,-0.98217,-1.6072,-0.010354,1.6864,1.4126,1.396,-0.50526,-1.7285,-0.56568
13323,1.6451e+09,0,1.0585,-0.98217,-1.6072,-0.010354,1.6864,1.4126,1.396,-0.50526,-1.7285,-0.56568
13367,1.6451e+09,0,1.0585,-0.98217,-1.6072,-0.010354,1.6864,1.4126,1.396,-0.50526,-1.7285,-0.56568
13416,1.6451e+09,0,1.0585,-0.98217,-1.6072,-0.010354,1.6864,1.4126,1.396,-0.50526,-1.7285,-0.56568
13460,1.6451e+09,0,1.0585,-0.98217,-1.6072,-0.010354,1.6864,1.4126,1.396,-0.50526,-1.7285,-0.56568
13505,1.6451e+09,0,1.0585,-0.98217,-1.6072,-0.010354,1.6864,1.4126,1.396,-0.50526,-1.7285,-0.56568
13562,1.6452e+09,0,0.97422,-1.0918,-1.7152,-0.098113,1.6194,1.4351,1.4068,-0.51713,-1.7508,-0.569
13607,1.6452e+09,0,0.97422,-1.0918,-1.7152,-0.098113,1.6194,1.4351,1.4068,-0.51713,-1.7508,-0.569
13655,1.6452e+09,0,0.97422,-1.0918,-1.7152,-0.098113,1.6194,1.4351,1.4068,-0.51713,-1.7508,-0.569
13703,1.6452e+09,0,0.97422,-1.0918,-1.7152,-0.098113,1.6194,1.4351,1.4068,-0.51713,-1.7508,-0.569
13748,1.6452e+09,0,0.97422,-1.0918,-1.7152,-0.098113,1.6194,1.4351,1.4068,-0.51713,-1.7508,-0.569
13795,1.6452e+09,0,0.97422,-1.0918,-1.7152,-0.098113,1.6194,1.4351,1.4068,-0.51713,-1.7508,-0.569
13840,1.6452e+09,0,0.97422,-1.0918,-1.7152,-0.098113,1.6194,1.4351,1.4068,-0.51713,-1.7508,-0.569
13886,1.6452e+09,0,0.97422,-1.0918,-1.7152,-0.098113,1.6194,1.4351,1.4068,-0.51713,-1.7508,-0.569
13931,1.6453e+09,0,0.97422,-1.0918,-1.7152,-0.098113,1.6194,1.4351,1.4068,-0.51713,-1.7508,-0.569
13976,1.6453e+09,0,0.97422,-1.0918,-1.7152,-0.098113,1.6194,1.4351,1.4068,-0.51713,-1.7508,-0.569
14022,1.6453e+09,0,0.97422,-1.0918,-1.7152,-0.098113,1.6194,1.4351,1.4068,-0.51713,-1.7508,-0.569
14071,1.6453e+09,0,0.97422,-1.0918,-1.7152,-0.098113,1.6194,1.4351,1.4068,-0.51713,-1.7508,-0.569
14116,1.6453e+09,0,0.97422,-1.0918,-1.7152,-0.098113,1.6194,1.4351,1.4068,-0.51713,-1.7508,-0.569
14161,1.6453e+09,0,0.97422,-1.0918,-1.7152,-0.098113,1.6194,1.4351,1.4068,-0.51713,-1.7508,-0.569
14206,1.6453e+09,0,0.97422,-1.0918,-1.7152,-0.098113,1.6194,1.4351,1.4068,-0.51713,-1.7508,-0.569
14250,1.6453e+09,0,0.97422,-1.0918,-1.7152,-0.098113,1.6194,1.4351,1.4068,-0.51713,-1.7508,-0.569
14295,1.6453e+09,0,0.97422,-1.0918,-1.7152,-0.098113,1.6194,1.4351,1.4068,-0.51713,-1.7508,-0.569
14339,1.6453e+09,0,0.97422,-1.0918,-1.7152,-0.098113,1.6194,1.4351,1.4068,-0.51713,-1.7508,-0.569
14388,1.6454e+09,0,0.97422,-1.0918,-1.7152,-0.098113,1.6194,1.4351,1.4068,-0.51713,-1.7508,-0.569
14428,1.6454e+09,0,1.0081,-1.0628,-1.6937,-0.07344,1.6482,1.4349,1.4143,-0.51465,-1.7541,-0.57306
14470,1.6454e+09,0,1.0081,-1.0628,-1.6937,-0.07344,1.6482,1.4349,1.4143,-0.51465,-1.7541,-0.57306
14519,1.6454e+09,0,1.0081,-1.0628,-1.6937,-0.07344,1.6482,1.4349,1.4143,-0.51465,-1.7541,-0.57306
14561,1.6454e+09,0,1.0081,-1.0628,-1.6937,-0.07344,1.6482,1.4349,1.4143,-0.51465,-1.7541,-0.57306
14606,1.6454e+09,0,1.0081,-1.0628,-1.6937,-0.07344,1.6482,1.4349,1.4143,-0.51465,-1.7541,-0.57306
14648,1.6454e+09,0,1.0081,-1.0628,-1.6937,-0.07344,1.6482,1.4349,1.4143,-0.51465,-1.7541,-0.57306
14689,1.6454e+09,0,1.0081,-1.0628,-1.6937,-0.07344,1.6482,1.4349,1.4143,-0.51465,-1.7541,-0.57306
14731,1.6454e+09,0,1.0081,-1.0628,-1.6937,-0.07344,1.6482,1.4349,1.4143,-0.51465,-1.7541,-0.57306
14773,1.6455e+09,0,1.0081,-1.0628,-1.6937,-0.07344,1.6482,1.4349,1.4143,-0.51465,-1.7541,-0.57306
14816,1.6455e+09,0,1.0081,-1.0628,-1.6937,-0.07344,1.6482,1.4349,1.4143,-0.51465,-1.7541,-0.57306
14858,1.6455e+09,0,1.0081,-1.0628,-1.6937,-0.07344,1.6482,1.4349,1.4143,-0.51465,-1.7541,-0.57306
14901,1.6455e+09,0,1.0081,-1.0628,-1.6937,-0.07344,1.6482,1.4349,1.4143,-0.51465,-1.7541,-0.57306
14949,1.6455e+09,0,1.0081,-1.0628,-1.6937,-0.07344,1.6482,1.4349,1.4143,-0.51465,-1.7541,-0.57306
14992,1.6455e+09,0,1.0081,-1.0628,-1.6937,-0.07344,1.6482,1.4349,1.4143,-0.51465,-1.7541,-0.57306
15035,1.6455e+09,0,1.0081,-1.0628,-1.6937,-0.07344,1.6482,1.4349,1.4143,-0.51465,-1.7541,-0.57306
15077,1.6455e+09,0,1.0081,-1.0628,-1.6937,-0.07344,1.6482,1.4349,1.4143,-0.51465,-1.7541,-0.57306
15120,1.6455e+09,0,1.0081,-1.0628,-1.6937,-0.07344,1.6482,1.4349,1.4143,-0.51465,-1.7541,-0.57306
15162,1.6455e+09,0,1.0081,-1.0628,-1.6937,-0.07344,1.6482,1.4349,1.4143,-0.51465,-1.7541,-0.57306
15205,1.6456e+09,0,1.0081,-1.0628,-1.6937,-0.07344,1.6482,1.4349,1.4143,-0.51465,-1.7541,-0.57306
15247,1.6456e+09,0,1.0489,-1.0112,-1.6313,-0.013847,1.6933,1.4386,1.4104,-0.51174,-1.7379,-0.55581
15292,1.6456e+09,0,1.0489,-1.0112,-1.6313,-0.013847,1.6933,1.4386,1.4104,-0.51174,-1.7379,-0.55581
15337,1.6456e+09,0,1.0489,-1.0112,-1.6313,-0.013847,1.6933,1.4386,1.4104,-0.51174,-1.7379,-0.55581
15385,1.6456e+09,0,1.0489,-1.0112,-1.6313,-0.013847,1.6933,1.4386,1.4104,-0.51174,-1.7379,-0.55581
15431,1.6456e+09,0,1.0489,-1.0112,-1.6313,-0.013847,1.6933,1.4386,1.4104,-0.51174,-1.7379,-0.55581
15475,1.6456e+09,0,1.0489,-1.0112,-1.6313,-0.013847,1.6933,1.4386,1.4104,-0.51174,-1.7379,-0.55581
15521,1.6456e+09,0,1.0489,-1.0112,-1.6313,-0.013847,1.6933,1.4386,1.4104,-0.51174,-1.7379,-0.55581
15568,1.6456e+09,0,1.0489,-1.0112,-1.6313,-0.013847,1.6933,1.4386,1.4104,-0.51174,-1.7379,-0.55581
15613,1.6457e+09,0,1.0489,-1.0112,-1.6313,-0.013847,1.6933,1.4386,1.4104,-0.51174,-1.7379,-0.55581
15658,1.6457e+09,0,1.0489,-1.0112,-1.6313,-0.013847,1.6933,1.4386,1.4104,-0.51174,-1.7379,-0.55581
15702,1.6457e+09,0,1.0489,-1.0112,-1.6313,-0.013847,1.6933,1.4386,1.4104,-0.51174,-1.7379,-0.55581
15747,1.6457e+09,0,1.0489,-1.0112,-1.6313,-0.013847,1.6933,1.4386,1.4104,-0.51174,-1.7379,-0.55581
15797,1.6457e+09,0,1.0489,-1.0112,-1.6313,-0.013847,1.6933,1.4386,1.4104,-0.51174,-1.7379,-0.55581
15841,1.6457e+09,0,1.0489,-1.0112,-1.6313,-0.013847,1.6933,1.4386,1.4104,-0.51174,-1.7379,-0.55581
15886,1.6457e+09,0,1.0489,-1.0112,-1.6313,-0.013847,1.6933,1.4386,1.4104,-0.51174,-1.7379,-0.55581
15931,1.6457e+09,0,1.0489,-1.0112,-1.6313,-0.013847,1.6933,1.4386,1.4104,-0.51174,-1.7379,-0.55581
15977,1.6457e+09,0,1.0489,-1.0112,-1.6313,-0.013847,1.6933,1.4386,1.4104,-0.51174,-1.7379,-0.55581
16023,1.6457e+09,0,1.0489,-1.0112,-1.6313,-0.013847,1.6933,1.4386,1.4104,-0.51174,-1.7379,-0.55581
16062,1.6458e+09,0,1.0354,-1.0136,-1.6331,-0.030614,1.672,1.4319,1.4067,-0.50122,-1.7246,-0.55515
16107,1.6458e+09,0,1.0354,-1.0136,-1.6331,-0.030614,1.672,1.4319,1.4067,-0.50122,-1.7246,-0.55515
16154,1.6458e+09,0,1.0354,-1.0136,-1.6331,-0.030614,1.672,1.4319,1.4067,-0.50122,-1.7246,-0.55515
16199,1.6458e+09,0,1.0354,-1.0136,-1.6331,-0.030614,1.672,1.4319,1.4067,-0.50122,-1.7246,-0.55515
16249,1.6458e+09,0,1.0354,-1.0136,-1.6331,-0.030614,1.672,1.4319,1.4067,-0.50122,-1.7246,-0.55515
16294,1.6458e+09,0,1.0354,-1.0136,-1.6331,-0.030614,1.672,1.4319,1.4067,-0.50122,-1.7246,-0.55515
16338,1.6458e+09,0,1.0354,-1.0136,-1.6331,-0.030614,1.672,1.4319,1.4067,-0.50122,-1.7246,-0.55515
16385,1.6458e+09,0,1.0354,-1.0136,-1.6331,-0.030614,1.672,1.4319,1.4067,-0.50122,-1.7246,-0.55515
16435,1.6458e+09,0,1.0354,-1.0136,-1.6331,-0.030614,1.672,1.4319,1.4067,-0.50122,-1.7246,-0.55515
16479,1.6459e+09,0,1.0354,-1.0136,-1.6331,-0.030614,1.672,1.4319,1.4067,-0.50122,-1.7246,-0.55515
16524,1.6459e+09,0,1.0354,-1.0136,-1.6331,-0.030614,1.672,1.4319,1.4067,-0.50122,-1.7246,-0.55515
16569,1.6459e+09,0,1.0354,-1.0136,-1.6331,-0.030614,1.672,1.4319,1.4067,-0.50122,-1.7246,-0.55515
16613,1.6459e+09,0,1.0354,-1.0136,-1.6331,-0.030614,1.672,1.4319,1.4067,-0.50122,-1.7246,-0.55515
16659,1.6459e+09,0,1.0354,-1.0136,-1.6331,-0.030614,1.672,1.4319,1.4067,-0.50122,-1.7246,-0.55515
16707,1.6459e+09,0,1.0354,-1.0136,-1.6331,-0.030614,1.672,1.4319,1.4067,-0.50122,-1.7246,-0.55515
16752,1.6459e+09,0,1.0354,-1.0136,-1.6331,-0.030614,1.672,1.4319,1.4067,-0.50122,-1.7246,-0.55515
16796,1.6459e+09,0,1.0354,-1.0136,-1.6331,-0.030614,1.672,1.4319,1.4067,-0.50122,-1.7246,-0.55515
16842,1.6459e+09,0,1.0354,-1.0136,-1.6331,-0.030614,1.672,1.4319,1.4067,-0.50122,-1.7246,-0.55515
16888,1.6459e+09,0,1.0354,-1.0136,-1.6331,-0.030614,1.672,1.4319,1.4067,-0.50122,-1.7246,-0.55515
16931,1.646e+09,0,1.0075,-1.0576,-1.6808,-0.06836,1.6486,1.4224,1.3958,-0.52531,-1.7581,-0.58159
16973,1.646e+09,0,1.0075,-1.0576,-1.6808,-0.06836,1.6486,1.4224,1.3958,-0.52531,-1.7581,-0.58159
17016,1.646e+09,0,1.0075,-1.0576,-1.6808,-0.06836,1.6486,1.4224,1.3958,-0.52531,-1.7581,-0.58159
17059,1.646e+09,0,1.0075,-1.0576,-1.6808,-0.06836,1.6486,1.4224,1.3958,-0.52531,-1.7581,-0.58159
17101,1.646e+09,0,1.0075,-1.0576,-1.6808,-0.06836,1.6486,1.4224,1.3958,-0.52531,-1.7581,-0.58159
17148,1.646e+09,0,1.0075,-1.0576,-1.6808,-0.06836,1.6486,1.4224,1.3958,-0.52531,-1.7581,-0.58159
17190,1.646e+09,0,1.0075,-1.0576,-1.6808,-0.06836,1.6486,1.4224,1.3958,-0.52531,-1.7581,-0.58159
17232,1.646e+09,0,1.0075,-1.0576,-1.6808,-0.06836,1.6486,1.4224,1.3958,-0.52531,-1.7581,-0.58159
17277,1.646e+09,0,1.0075,-1.0576,-1.6808,-0.06836,1.6486,1.4224,1.3958,-0.52531,-1.7581,-0.58159
17319,1.646e+09,0,1.0075,-1.0576,-1.6808,-0.06836,1.6486,1.4224,1.3958,-0.52531,-1.7581,-0.58159
17366,1.6461e+09,0,1.0075,-1.0576,-1.6808,-0.06836,1.6486,1.4224,1.3958,-0.52531,-1.7581,-0.58159
17408,1.6461e+09,0,1.0075,-1.0576,-1.6808,-0.06836,1.6486,1.4224,1.3958,-0.52531,-1.7581,-0.58159
17451,1.6461e+09,0,1.0075,-1.0576,-1.6808,-0.06836,1.6486,1.4224,1.3958,-0.52531,-1.7581,-0.58159
17494,1.6461e+09,0,1.0075,-1.0576,-1.6808,-0.06836,1.6486,1.4224,1.3958,-0.52531,-1.7581,-0.58159
17536,1.6461e+09,0,1.0075,-1.0576,-1.6808,-0.06836,1.6486,1.4224,1.3958,-0.52531,-1.7581,-0.58159
17584,1.6461e+09,0,1.0075,-1.0576,-1.6808,-0.06836,1.6486,1.4224,1.3958,-0.52531,-1.7581,-0.58159
17626,1.6461e+09,0,1.0075,-1.0576,-1.6808,-0.06836,1.6486,1.4224,1.3958,-0.52531,-1.7581,-0.58159
17669,1.6461e+09,0,1.0075,-1.0576,-1.6808,-0.06836,1.6486,1.4224,1.3958,-0.52531,-1.7581,-0.58159
17711,1.6461e+09,0,0.97123,-1.0677,-1.6784,-0.082056,1.6101,1.4156,1.3841,-0.51502,-1.7283,-0.56108
17757,1.6462e+09,0,0.97123,-1.0677,-1.6784,-0.082056,1.6101,1.4156,1.3841,-0.51502,-1.7283,-0.56108
17802,1.6462e+09,0,0.97123,-1.0677,-1.6784,-0.082056,1.6101,1.4156,1.3841,-0.51502,-1.7283,-0.56108
17846,1.6462e+09,0,0.97123,-1.0677,-1.6784,-0.082056,1.6101,1.4156,1.3841,-0.51502,-1.7283,-0.56108
17890,1.6462e+09,0,0.97123,-1.0677,-1.6784,-0.082056,1.6101,1.4156,1.3841,-0.51502,-1.7283,-0.56108
17935,1.6462e+09,0,0.97123,-1.0677,-1.6784,-0.082056,1.6101,1.4156,1.3841,-0.51502,-1.7283,-0.56108
17983,1.6462e+09,0,0.97123,-1.0677,-1.6784,-0.082056,1.6101,1.4156,1.3841,-0.51502,-1.7283,-0.56108
18032,1.6462e+09,0,0.97123,-1.0677,-1.6784,-0.082056,1.6101,1.4156,1.3841,-0.51502,-1.7283,-0.56108
18077,1.6462e+09,0,0.97123,-1.0677,-1.6784,-0.082056,1.6101,1.4156,1.3841,-0.51502,-1.7283,-0.56108
18124,1.6462e+09,0,0.97123,-1.0677,-1.6784,-0.082056,1.6101,1.4156,1.3841,-0.51502,-1.7283,-0.56108
18172,1.6463e+09,0,0.97123,-1.0677,-1.6784,-0.082056,1.6101,1.4156,1.3841,-0.51502,-1.7283,-0.56108
18223,1.6463e+09,0,0.97123,-1.0677,-1.6784,-0.082056,1.6101,1.4156,1.3841,-0.51502,-1.7283,-0.56108
18268,1.6463e+09,0,0.97123,-1.0677,-1.6784,-0.082056,1.6101,1.4156,1.3841,-0.51502,-1.7283,-0.56108
18312,1.6463e+09,0,0.97123,-1.0677,-1.6784,-0.082056,1.6101,1.4156,1.3841,-0.51502,-1.7283,-0.56108
18357,1.6463e+09,0,0.97123,-1.0677,-1.6784,-0.082056,1.6101,1.4156,1.3841,-0.51502,-1.7283,-0.56108
18406,1.6463e+09,0,0.97123,-1.0677,-1.6784,-0.082056,1.6101,1.4156,1.3841,-0.51502,-1.7283,-0.56108
18451,1.6463e+09,0,0.97123,-1.0677,-1.6784,-0.082056,1.6101,1.4156,1.3841,-0.51502,-1.7283,-0.56108
18499,1.6463e+09,0,0.97123,-1.0677,-1.6784,-0.082056,1.6101,1.4156,1.3841,-0.51502,-1.7283,-0.56108
18545,1.6463e+09,0,0.97123,-1.0677,-1.6784,-0.082056,1.6101,1.4156,1.3841,-0.51502,-1.7283,-0.56108
18588,1.6464e+09,0,0.98577,-1.0663,-1.6769,-0.065776,1.633,1.4214,1.3858,-0.52832,-1.745,-0.56535
18632,1.6464e+09,0,0.98577,-1.0663,-1.6769,-0.065776,1.633,1.4214,1.3858,-0.52832,-1.745,-0.56535
18678,1.6464e+09,0,0.98577,-1.0663,-1.6769,-0.065776,1.633,1.4214,1.3858,-0.52832,-1.745,-0.56535
18723,1.6464e+09,0,0.98577,-1.0663,-1.6769,-0.065776,1.633,1.4214,1.3858,-0.52832,-1.745,-0.56535
18767,1.6464e+09,0,0.98577,-1.0663,-1.6769,-0.065776,1.633,1.4214,1.3858,-0.52832,-1.745,-0.56535
18812,1.6464e+09,0,0.98577,-1.0663,-1.6769,-0.065776,1.633,1.4214,1.3858,-0.52832,-1.745,-0.56535
18860,1.6464e+09,0,0.98577,-1.0663,-1.6769,-0.065776,1.633,1.4214,1.3858,-0.52832,-1.745,-0.56535
18905,1.6464e+09,0,0.98577,-1.0663,-1.6769,-0.065776,1.633,1.4214,1.3858,-0.52832,-1.745,-0.56535
18950,1.6464e+09,0,0.98577,-1.0663,-1.6769,-0.065776,1.633,1.4214,1.3858,-0.52832,-1.745,-0.56535
18995,1.6465e+09,0,0.98577,-1.0663,-1.6769,-0.065776,1.633,1.4214,1.3858,-0.52832,-1.745,-0.56535
19043,1.6465e+09,0,0.98577,-1.0663,-1.6769,-0.065776,1.633,1.4214,1.3858,-0.52832,-1.745,-0.56535
19088,1.6465e+09,0,0.98577,-1.0663,-1.6769,-0.065776,1.633,1.4214,1.3858,-0.52832,-1.745,-0.56535
19133,1.6465e+09,0,0.98577,-1.0663,-1.6769,-0.065776,1.633,1.4214,1.3858,-0.52832,-1.745,-0.56535
19178,1.6465e+09,0,0.98577,-1.0663,-1.6769,-0.065776,1.633,1.4214,1.3858,-0.52832,-1.745,-0.56535
19223,1.6465e+09,0,0.98577,-1.0663,-1.6769,-0.065776,1.633,1.4214,1.3858,-0.52832,-1.745,-0.56535
19267,1.6465e+09,0,0.98577,-1.0663,-1.6769,-0.065776,1.633,1.4214,1.3858,-0.52832,-1.745,-0.56535
19316,1.6465e+09,0,0.98577,-1.0663,-1.6769,-0.065776,1.633,1.4214,1.3858,-0.52832,-1.745,-0.56535
19361,1.6465e+09,0,0.98577,-1.0663,-1.6769,-0.065776,1.633,1.4214,1.3858,-0.52832,-1.745,-0.56535
19405,1.6465e+09,0,0.98577,-1.0663,-1.6769,-0.065776,1.633,1.4214,1.3858,-0.52832,-1.745,-0.56535
19453,1.6466e+09,0,0.98577,-1.0663,-1.6769,-0.065776,1.633,1.4214,1.3858,-0.52832,-1.745,-0.56535
19492,1.6466e+09,0,1.042,-1.0323,-1.6638,-0.043147,1.6818,1.416,1.3954,-0.53544,-1.7768,-0.59609
19535,1.6466e+09,0,1.042,-1.0323,-1.6638,-0.043147,1.6818,1.416,1.3954,-0.53544,-1.7768,-0.59609
19578,1.6466e+09,0,1.042,-1.0323,-1.6638,-0.043147,1.6818,1.416,1.3954,-0.53544,-1.7768,-0.59609
19621,1.6466e+09,0,1.042,-1.0323,-1.6638,-0.043147,1.6818,1.416,1.3954,-0.53544,-1.7768,-0.59609
19664,1.6466e+09,0,1.042,-1.0323,-1.6638,-0.043147,1.6818,1.416,1.3954,-0.53544,-1.7768,-0.59609
19707,1.6466e+09,0,1.042,-1.0323,-1.6638,-0.043147,1.6818,1.416,1.3954,-0.53544,-1.7768,-0.59609
19754,1.6466e+09,0,1.042,-1.0323,-1.6638,-0.043147,1.6818,1.416,1.3954,-0.53544,-1.7768,-0.59609
19797,1.6466e+09,0,1.042,-1.0323,-1.6638,-0.043147,1.6818,1.416,1.3954,-0.53544,-1.7768,-0.59609
19839,1.6466e+09,0,1.042,-1.0323,-1.6638,-0.043147,1.6818,1.416,1.3954,-0.53544,-1.7768,-0.59609
19883,1.6467e+09,0,1.042,-1.0323,-1.6638,-0.043147,1.6818,1.416,1.3954,-0.53544,-1.7768,-0.59609
19929,1.6467e+09,0,1.042,-1.0323,-1.6638,-0.043147,1.6818,1.416,1.3954,-0.53544,-1.7768,-0.59609
19971,1.6467e+09,0,1.042,-1.0323,-1.6638,-0.043147,1.6818,1.416,1.3954,-0.53544,-1.7768,-0.59609
20015,1.6467e+09,0,1.042,-1.0323,-1.6638,-0.043147,1.6818,1.416,1.3954,-0.53544,-1.7768,-0.59609
20058,1.6467e+09,0,1.042,-1.0323,-1.6638,-0.043147,1.6818,1.416,1.3954,-0.53544,-1.7768,-0.59609
20102,1.6467e+09,0,1.042,-1.0323,-1.6638,-0.043147,1.6818,1.416,1.3954,-0.53544,-1.7768,-0.59609
20149,1.6467e+09,0,1.042,-1.0323,-1.6638,-0.043147,1.6818,1.416,1.3954,-0.53544,-1.7768,-0.59609
20192,1.6467e+09,0,1.042,-1.0323,-1.6638,-0.043147,1.6818,1.416,1.3954,-0.53544,-1.7768,-0.59609
20234,1.6467e+09,0,1.042,-1.0323,-1.6638,-0.043147,1.6818,1.416,1.3954,-0.53544,-1.7768,-0.59609
20280,1.6468e+09,0,1.042,-1.0323,-1.6638,-0.043147,1.6818,1.416,1.3954,-0.53544,-1.7768,-0.59609
20322,1.6468e+09,0,0.99775,-1.0756,-1.7035,-0.081221,1.6426,1.4447,1.4193,-0.51148,-1.7507,-0.56632
20366,1.6468e+09,0,0.99775,-1.0756,-1.7035,-0.081221,1.6426,1.4447,1.4193,-0.51148,-1.7507,-0.56632
20411,1.6468e+09,0,0.99775,-1.0756,-1.7035,-0.081221,1.6426,1.4447,1.4193,-0.51148,-1.7507,-0.56632
20455,1.6468e+09,0,0.99775,-1.0756,-1.7035,-0.081221,1.6426,1.4447,1.4193,-0.51148,-1.7507,-0.56632
20501,1.6468e+09,0,0.99775,-1.0756,-1.7035,-0.081221,1.6426,1.4447,1.4193,-0.51148,-1.7507,-0.56632
20546,1.6468e+09,0,0.99775,-1.0756,-1.7035,-0.081221,1.6426,1.4447,1.4193,-0.51148,-1.7507,-0.56632
20596,1.6468e+09,0,0.99775,-1.0756,-1.7035,-0.081221,1.6426,1.4447,1.4193,-0.51148,-1.7507,-0.56632
20641,1.6468e+09,0,0.99775,-1.0756,-1.7035,-0.081221,1.6426,1.4447,1.4193,-0.51148,-1.7507,-0.56632
20686,1.6469e+09,0,0.99775,-1.0756,-1.7035,-0.081221,1.6426,1.4447,1.4193,-0.51148,-1.7507,-0.56632
20731,1.6469e+09,0,0.99775,-1.0756,-1.7035,-0.081221,1.6426,1.4447,1.4193,-0.51148,-1.7507,-0.56632
20780,1.6469e+09,0,0.99775,-1.0756,-1.7035,-0.081221,1.6426,1.4447,1.4193,-0.51148,-1.7507,-0.56632
20825,1.6469e+09,0,0.99775,-1.0756,-1.7035,-0.081221,1.6426,1.4447,1.4193,-0.51148,-1.7507,-0.56632
20870,1.6469e+09,0,0.99775,-1.0756,-1.7035,-0.081221,1.6426,1.4447,1.4193,-0.51148,-1.7507,-0.56632
20916,1.6469e+09,0,0.99775,-1.0756,-1.7035,-0.081221,1.6426,1.4447,1.4193,-0.51148,-1.7507,-0.56632
20961,1.6469e+09,0,0.99775,-1.0756,-1.7035,-0.081221,1.6426,1.4447,1.4193,-0.51148,-1.7507,-0.56632
21005,1.6469e+09,0,0.99775,-1.0756,-1.7035,-0.081221,1.6426,1.4447,1.4193,-0.51148,-1.7507,-0.56632
21054,1.6469e+09,0,0.99775,-1.0756,-1.7035,-0.081221,1.6426,1.4447,1.4193,-0.51148,-1.7507,-0.56632
21101,1.647e+09,0,0.98503,-1.0626,-1.6766,-0.069901,1.6274,1.3957,1.3648,-0.54467,-1.7624,-0.58741
21142,1.647e+09,0,0.98503,-1.0626,-1.6766,-0.069901,1.6274,1.3957,1.3648,-0.54467,-1.7624,-0.58741
21191,1.647e+09,0,0.98503,-1.0626,-1.6766,-0.069901,1.6274,1.3957,1.3648,-0.54467,-1.7624,-0.58741
21236,1.647e+09,0,0.98503,-1.0626,-1.6766,-0.069901,1.6274,1.3957,1.3648,-0.54467,-1.7624,-0.58741
21281,1.647e+09,0,0.98503,-1.0626,-1.6766,-0.069901,1.6274,1.3957,1.3648,-0.54467,-1.7624,-0.58741
21325,1.647e+09,0,0.98503,-1.0626,-1.6766,-0.069901,1.6274,1.3957,1.3648,-0.54467,-1.7624,-0.58741
21370,1.647e+09,0,0.98503,-1.0626,-1.6766,-0.069901,1.6274,1.3957,1.3648,-0.54467,-1.7624,-0.58741
21415,1.647e+09,0,0.98503,-1.0626,-1.6766,-0.069901,1.6274,1.3957,1.3648,-0.54467,-1.7624,-0.58741
21464,1.647e+09,0,0.98503,-1.0626,-1.6766,-0.069901,1.6274,1.3957,1.3648,-0.54467,-1.7624,-0.58741
21509,1.647e+09,0,0.98503,-1.0626,-1.6766,-0.069901,1.6274,1.3957,1.3648,-0.54467,-1.7624,-0.58741
21554,1.6471e+09,0,0.98503,-1.0626,-1.6766,-0.069901,1.6274,1.3957,1.3648,-0.54467,-1.7624,-0.58741
21600,1.6471e+09,0,0.98503,-1.0626,-1.6766,-0.069901,1.6274,1.3957,1.3648,-0.54467,-1.7624,-0.58741
21644,1.6471e+09,0,0.98503,-1.0626,-1.6766,-0.069901,1.6274,1.3957,1.3648,-0.54467,-1.7624,-0.58741
21690,1.6471e+09,0,0.98503,-1.0626,-1.6766,-0.069901,1.6274,1.3957,1.3648,-0.54467,-1.7624,-0.58741
21734,1.6471e+09,0,0.98503,-1.0626,-1.6766,-0.069901,1.6274,1.3957,1.3648,-0.54467,-1.7624,-0.58741
21780,1.6471e+09,0,0.98503,-1.0626,-1.6766,-0.069901,1.6274,1.3957,1.3648,-0.54467,-1.7624,-0.58741
21824,1.6471e+09,0,0.98503,-1.0626,-1.6766,-0.069901,1.6274,1.3957,1.3648,-0.54467,-1.7624,-0.58741
21869,1.6471e+09,0,0.98503,-1.0626,-1.6766,-0.069901,1.6274,1.3957,1.3648,-0.54467,-1.7624,-0.58741
21918,1.6471e+09,0,0.98503,-1.0626,-1.6766,-0.069901,1.6274,1.3957,1.3648,-0.54467,-1.7624,-0.58741
21964,1.6472e+09,0,0.98503,-1.0626,-1.6766,-0.069901,1.6274,1.3957,1.3648,-0.54467,-1.7624,-0.58741
22006,1.6472e+09,0,1.0528,-0.99913,-1.62,-0.010849,1.693,1.4187,1.3929,-0.52022,-1.7454,-0.56969
22052,1.6472e+09,0,1.0528,-0.99913,-1.62,-0.010849,1.693,1.4187,1.3929,-0.52022,-1.7454,-0.56969
22095,1.6472e+09,0,1.0528,-0.99913,-1.62,-0.010849,1.693,1.4187,1.3929,-0.52022,-1.7454,-0.56969
22137,1.6472e+09,0,1.0528,-0.99913,-1.62,-0.010849,1.693,1.4187,1.3929,-0.52022,-1.7454,-0.56969
22180,1.6472e+09,0,1.0528,-0.99913,-1.62,-0.010849,1.693,1.4187,1.3929,-0.52022,-1.7454,-0.56969
22224,1.6472e+09,0,1.0528,-0.99913,-1.62,-0.010849,1.693,1.4187,1.3929,-0.52022,-1.7454,-0.56969
22267,1.6472e+09,0,1.0528,-0.99913,-1.62,-0.010849,1.693,1.4187,1.3929,-0.52022,-1.7454,-0.56969
22310,1.6472e+09,0,1.0528,-0.99913,-1.62,-0.010849,1.693,1.4187,1.3929,-0.52022,-1.7454,-0.56969
22356,1.6472e+09,0,1.0528,-0.99913,-1.62,-0.010849,1.693,1.4187,1.3929,-0.52022,-1.7454,-0.56969
22401,1.6473e+09,0,1.0528,-0.99913,-1.62,-0.010849,1.693,1.4187,1.3929,-0.52022,-1.7454,-0.56969
22443,1.6473e+09,0,1.0528,-0.99913,-1.62,-0.010849,1.693,1.4187,1.3929,-0.52022,-1.7454,-0.56969
22487,1.6473e+09,0,1.0528,-0.99913,-1.62,-0.010849,1.693,1.4187,1.3929,-0.52022,-1.7454,-0.56969
22533,1.6473e+09,0,1.0528,-0.99913,-1.62,-0.010849,1.693,1.4187,1.3929,-0.52022,-1.7454,-0.56969
22575,1.6473e+09,0,1.0528,-0.99913,-1.62,-0.010849,1.693,1.4187,1.3929,-0.52022,-1.7454,-0.56969
22618,1.6473e+09,0,1.0528,-0.99913,-1.62,-0.010849,1.693,1.4187,1.3929,-0.52022,-1.7454,-0.56969
22660,1.6473e+09,0,1.0528,-0.99913,-1.62,-0.010849,1.693,1.4187,1.3929,-0.52022,-1.7454,-0.56969
22704,1.6473e+09,0,1.0528,-0.99913,-1.62,-0.010849,1.693,1.4187,1.3929,-0.52022,-1.7454,-0.56969
22745,1.6473e+09,0,1.0528,-0.99913,-1.62,-0.010849,1.693,1.4187,1.3929,-0.52022,-1.7454,-0.56969
22791,1.6474e+09,0,1.0086,-1.0219,-1.639,-0.050622,1.6396,1.4226,1.399,-0.49145,-1.7075,-0.54791
22836,1.6474e+09,0,1.0086,-1.0219,-1.639,-0.050622,1.6396,1.4226,1.399,-0.49145,-1.7075,-0.54791
22881,1.6474e+09,0,1.0086,-1.0219,-1.639,-0.050622,1.6396,1.4226,1.399,-0.49145,-1.7075,-0.54791
22929,1.6474e+09,0,1.0086,-1.0219,-1.639,-0.050622,1.6396,1.4226,1.399,-0.49145,-1.7075,-0.54791
22973,1.6474e+09,0,1.0086,-1.0219,-1.639,-0.050622,1.6396,1.4226,1.399,-0.49145,-1.7075,-0.54791
23018,1.6474e+09,0,1.0086,-1.0219,-1.639,-0.050622,1.6396,1.4226,1.399,-0.49145,-1.7075,-0.54791
23064,1.6474e+09,0,1.0086,-1.0219,-1.639,-0.050622,1.6396,1.4226,1.399,-0.49145,-1.7075,-0.54791
23109,1.6474e+09,0,1.0086,-1.0219,-1.639,-0.050622,1.6396,1.4226,1.399,-0.49145,-1.7075,-0.54791
23154,1.6474e+09,0,1.0086,-1.0219,-1.639,-0.050622,1.6396,1.4226,1.399,-0.49145,-1.7075,-0.54791
23202,1.6475e+09,0,1.0086,-1.0219,-1.639,-0.050622,1.6396,1.4226,1.399,-0.49145,-1.7075,-0.54791
23247,1.6475e+09,0,1.0086,-1.0219,-1.639,-0.050622,1.6396,1.4226,1.399,-0.49145,-1.7075,-0.54791
23292,1.6475e+09,0,1.0086,-1.0219,-1.639,-0.050622,1.6396,1.4226,1.399,-0.49145,-1.7075,-0.54791
23337,1.6475e+09,0,1.0086,-1.0219,-1.639,-0.050622,1.6396,1.4226,1.399,-0.49145,-1.7075,-0.54791
23385,1.6475e+09,0,1.0086,-1.0219,-1.639,-0.050622,1.6396,1.4226,1.399,-0.49145,-1.7075,-0.54791
23426,1.6475e+09,0,1.0086,-1.0219,-1.639,-0.050622,1.6396,1.4226,1.399,-0.49145,-1.7075,-0.54791
23471,1.6475e+09,0,1.0086,-1.0219,-1.639,-0.050622,1.6396,1.4226,1.399,-0.49145,-1.7075,-0.54791
23515,1.6475e+09,0,1.0086,-1.0219,-1.639,-0.050622,1.6396,1.4226,1.399,-0.49145,-1.7075,-0.54791
23562,1.6475e+09,0,1.0086,-1.0219,-1.639,-0.050622,1.6396,1.4226,1.399,-0.49145,-1.7075,-0.54791
23609,1.6475e+09,0,1.0086,-1.0219,-1.639,-0.050622,1.6396,1.4226,1.399,-0.49145,-1.7075,-0.54791
23651,1.6476e+09,0,1.0065,-1.0434,-1.655,-0.045704,1.6539,1.4482,1.4128,-0.49876,-1.7168,-0.53782
23696,1.6476e+09,0,1.0065,-1.0434,-1.655,-0.045704,1.6539,1.4482,1.4128,-0.49876,-1.7168,-0.53782
23740,1.6476e+09,0,1.0065,-1.0434,-1.655,-0.045704,1.6539,1.4482,1.4128,-0.49876,-1.7168,-0.53782
23785,1.6476e+09,0,1.0065,-1.0434,-1.655,-0.045704,1.6539,1.4482,1.4128,-0.49876,-1.7168,-0.53782
23830,1.6476e+09,0,1.0065,-1.0434,-1.655,-0.045704,1.6539,1.4482,1.4128,-0.49876,-1.7168,-0.53782
23875,1.6476e+09,0,1.0065,-1.0434,-1.655,-0.045704,1.6539,1.4482,1.4128,-0.49876,-1.7168,-0.53782
23919,1.6476e+09,0,1.0065,-1.0434,-1.655,-0.045704,1.6539,1.4482,1.4128,-0.49876,-1.7168,-0.53782
23965,1.6476e+09,0,1.0065,-1.0434,-1.655,-0.045704,1.6539,1.4482,1.4128,-0.49876,-1.7168,-0.53782
24011,1.6476e+09,0,1.0065,-1.0434,-1.655,-0.045704,1.6539,1.4482,1.4128,-0.49876,-1.7168,-0.53782
24055,1.6477e+09,0,1.0065,-1.0434,-1.655,-0.045704,1.6539,1.4482,1.4128,-0.49876,-1.7168,-0.53782
24104,1.6477e+09,0,1.0065,-1.0434,-1.655,-0.045704,1.6539,1.4482,1.4128,-0.49876,-1.7168,-0.53782
24148,1.6477e+09,0,1.0065,-1.0434,-1.655,-0.045704,1.6539,1.4482,1.4128,-0.49876,-1.7168,-0.53782
24194,1.6477e+09,0,1.0065,-1.0434,-1.655,-0.045704,1.6539,1.4482,1.4128,-0.49876,-1.7168,-0.53782
24239,1.6477e+09,0,1.0065,-1.0434,-1.655,-0.045704,1.6539,1.4482,1.4128,-0.49876,-1.7168,-0.53782
24283,1.6477e+09,0,1.0065,-1.0434,-1.655,-0.045704,1.6539,1.4482,1.4128,-0.49876,-1.7168,-0.53782
24331,1.6477e+09,0,1.0065,-1.0434,-1.655,-0.045704,1.6539,1.4482,1.4128,-0.49876,-1.7168,-0.53782
24376,1.6477e+09,0,1.0065,-1.0434,-1.655,-0.045704,1.6539,1.4482,1.4128,-0.49876,-1.7168,-0.53782
24422,1.6477e+09,0,1.0065,-1.0434,-1.655,-0.045704,1.6539,1.4482,1.4128,-0.49876,-1.7168,-0.53782
24469,1.6477e+09,0,1.0065,-1.0434,-1.655,-0.045704,1.6539,1.4482,1.4128,-0.49876,-1.7168,-0.53782
24517,1.6478e+09,0,1.0231,-1.0146,-1.6306,-0.037972,1.6562,1.3887,1.3632,-0.53342,-1.7505,-0.58825
24563,1.6478e+09,0,1.0231,-1.0146,-1.6306,-0.037972,1.6562,1.3887,1.3632,-0.53342,-1.7505,-0.58825
24605,1.6478e+09,0,1.0231,-1.0146,-1.6306,-0.037972,1.6562,1.3887,1.3632,-0.53342,-1.7505,-0.58825
24649,1.6478e+09,0,1.0231,-1.0146,-1.6306,-0.037972,1.6562,1.3887,1.3632,-0.53342,-1.7505,-0.58825
24692,1.6478e+09,0,1.0231,-1.0146,-1.6306,-0.037972,1.6562,1.3887,1.3632,-0.53342,-1.7505,-0.58825
24734,1.6478e+09,0,1.0231,-1.0146,-1.6306,-0.037972,1.6562,1.3887,1.3632,-0.53342,-1.7505,-0.58825
24778,1.6478e+09,0,1.0231,-1.0146,-1.6306,-0.037972,1.6562,1.3887,1.3632,-0.53342,-1.7505,-0.58825
24820,1.6478e+09,0,1.0231,-1.0146,-1.6306,-0.037972,1.6562,1.3887,1.3632,-0.53342,-1.7505,-0.58825
24863,1.6478e+09,0,1.0231,-1.0146,-1.6306,-0.037972,1.6562,1.3887,1.3632,-0.53342,-1.7505,-0.58825
24905,1.6479e+09,0,1.0231,-1.0146,-1.6306,-0.037972,1.6562,1.3887,1.3632,-0.53342,-1.7505,-0.58825
24951,1.6479e+09,0,1.0231,-1.0146,-1.6306,-0.037972,1.6562,1.3887,1.3632,-0.53342,-1.7505,-0.58825
24998,1.6479e+09,0,1.0231,-1.0146,-1.6306,-0.037972,1.6562,1.3887,1.3632,-0.53342,-1.7505,-0.58825
25041,1.6479e+09,0,1.0231,-1.0146,-1.6306,-0.037972,1.6562,1.3887,1.3632,-0.53342,-1.7505,-0.58825
25084,1.6479e+09,0,1.0231,-1.0146,-1.6306,-0.037972,1.6562,1.3887,1.3632,-0.53342,-1.7505,-0.58825
25126,1.6479e+09,0,1.0231,-1.0146,-1.6306,-0.037972,1.6562,1.3887,1.3632,-0.53342,-1.7505,-0.58825
25169,1.6479e+09,0,1.0231,-1.0146,-1.6306,-0.037972,1.6562,1.3887,1.3632,-0.53342,-1.7505,-0.58825
25211,1.6479e+09,0,1.0231,-1.0146,-1.6306,-0.037972,1.6562,1.3887,1.3632,-0.53342,-1.7505,-0.58825
25255,1.6479e+09,0,1.0231,-1.0146,-1.6306,-0.037972,1.6562,1.3887,1.3632,-0.53342,-1.7505,-0.58825
25298,1.6479e+09,0,1.0231,-1.0146,-1.6306,-0.037972,1.6562,1.3887,1.3632,-0.53342,-1.7505,-0.58825
25341,1.648e+09,0,1.0231,-1.0146,-1.6306,-0.037972,1.6562,1.3887,1.3632,-0.53342,-1.7505,-0.58825
25386,1.648e+09,0,1.0231,-1.0146,-1.6306,-0.037972,1.6562,1.3887,1.3632,-0.53342,-1.7505,-0.58825
25427,1.648e+09,0,1.0351,-1.0069,-1.6184,-0.018075,1.6776,1.4173,1.3841,-0.51836,-1.7343,-0.56279
25471,1.648e+09,0,1.0351,-1.0069,-1.6184,-0.018075,1.6776,1.4173,1.3841,-0.51836,-1.7343,-0.56279
25516,1.648e+09,0,1.0351,-1.0069,-1.6184,-0.018075,1.6776,1.4173,1.3841,-0.51836,-1.7343,-0.56279
25560,1.648e+09,0,1.0351,-1.0069,-1.6184,-0.018075,1.6776,1.4173,1.3841,-0.51836,-1.7343,-0.56279
25606,1.648e+09,0,1.0351,-1.0069,-1.6184,-0.018075,1.6776,1.4173,1.3841,-0.51836,-1.7343,-0.56279
25651,1.648e+09,0,1.0351,-1.0069,-1.6184,-0.018075,1.6776,1.4173,1.3841,-0.51836,-1.7343,-0.56279
25695,1.648e+09,0,1.0351,-1.0069,-1.6184,-0.018075,1.6776,1.4173,1.3841,-0.51836,-1.7343,-0.56279
25740,1.648e+09,0,1.0351,-1.0069,-1.6184,-0.018075,1.6776,1.4173,1.3841,-0.51836,-1.7343,-0.56279
25785,1.6481e+09,0,1.0351,-1.0069,-1.6184,-0.018075,1.6776,1.4173,1.3841,-0.51836,-1.7343,-0.56279
25830,1.6481e+09,0,1.0351,-1.0069,-1.6184,-0.018075,1.6776,1.4173,1.3841,-0.51836,-1.7343,-0.56279
25879,1.6481e+09,0,1.0351,-1.0069,-1.6184,-0.018075,1.6776,1.4173,1.3841,-0.51836,-1.7343,-0.56279
25924,1.6481e+09,0,1.0351,-1.0069,-1.6184,-0.018075,1.6776,1.4173,1.3841,-0.51836,-1.7343,-0.56279
25969,1.6481e+09,0,1.0351,-1.0069,-1.6184,-0.018075,1.6776,1.4173,1.3841,-0.51836,-1.7343,-0.56279
26014,1.6481e+09,0,1.0351,-1.0069,-1.6184,-0.018075,1.6776,1.4173,1.3841,-0.51836,-1.7343,-0.56279
26059,1.6481e+09,0,1.0351,-1.0069,-1.6184,-0.018075,1.6776,1.4173,1.3841,-0.51836,-1.7343,-0.56279
26103,1.6481e+09,0,1.0351,-1.0069,-1.6184,-0.018075,1.6776,1.4173,1.3841,-0.51836,-1.7343,-0.56279
26148,1.6481e+09,0,1.0351,-1.0069,-1.6184,-0.018075,1.6776,1.4173,1.3841,-0.51836,-1.7343,-0.56279
26191,1.6482e+09,0,0.99553,-1.0141,-1.6055,-0.025311,1.6388,1.3919,1.3475,-0.52716,-1.716,-0.55472
26236,1.6482e+09,0,0.99553,-1.0141,-1.6055,-0.025311,1.6388,1.3919,1.3475,-0.52716,-1.716,-0.55472
26282,1.6482e+09,0,0.99553,-1.0141,-1.6055,-0.025311,1.6388,1.3919,1.3475,-0.52716,-1.716,-0.55472
26331,1.6482e+09,0,0.99553,-1.0141,-1.6055,-0.025311,1.6388,1.3919,1.3475,-0.52716,-1.716,-0.55472
26375,1.6482e+09,0,0.99553,-1.0141,-1.6055,-0.025311,1.6388,1.3919,1.3475,-0.52716,-1.716,-0.55472
26420,1.6482e+09,0,0.99553,-1.0141,-1.6055,-0.025311,1.6388,1.3919,1.3475,-0.52716,-1.716,-0.55472
26465,1.6482e+09,0,0.99553,-1.0141,-1.6055,-0.025311,1.6388,1.3919,1.3475,-0.52716,-1.716,-0.55472
26509,1.6482e+09,0,0.99553,-1.0141,-1.6055,-0.025311,1.6388,1.3919,1.3475,-0.52716,-1.716,-0.55472
26554,1.6482e+09,0,0.99553,-1.0141,-1.6055,-0.025311,1.6388,1.3919,1.3475,-0.52716,-1.716,-0.55472
26600,1.6483e+09,0,0.99553,-1.0141,-1.6055,-0.025311,1.6388,1.3919,1.3475,-0.52716,-1.716,-0.55472
26645,1.6483e+09,0,0.99553,-1.0141,-1.6055,-0.025311,1.6388,1.3919,1.3475,-0.52716,-1.716,-0.55472
26689,1.6483e+09,0,0.99553,-1.0141,-1.6055,-0.025311,1.6388,1.3919,1.3475,-0.52716,-1.716,-0.55472
26736,1.6483e+09,0,0.99553,-1.0141,-1.6055,-0.025311,1.6388,1.3919,1.3475,-0.52716,-1.716,-0.55472
26784,1.6483e+09,0,0.99553,-1.0141,-1.6055,-0.025311,1.6388,1.3919,1.3475,-0.52716,-1.716,-0.55472
26830,1.6483e+09,0,0.99553,-1.0141,-1.6055,-0.025311,1.6388,1.3919,1.3475,-0.52716,-1.716,-0.55472
26875,1.6483e+09,0,0.99553,-1.0141,-1.6055,-0.025311,1.6388,1.3919,1.3475,-0.52716,-1.716,-0.55472
26919,1.6483e+09,0,0.99553,-1.0141,-1.6055,-0.025311,1.6388,1.3919,1.3475,-0.52716,-1.716,-0.55472
26964,1.6483e+09,0,0.99553,-1.0141,-1.6055,-0.025311,1.6388,1.3919,1.3475,-0.52716,-1.716,-0.55472
27008,1.6483e+09,0,0.99553,-1.0141,-1.6055,-0.025311,1.6388,1.3919,1.3475,-0.52716,-1.716,-0.55472
27055,1.6484e+09,0,0.99553,-1.0141,-1.6055,-0.025311,1.6388,1.3919,1.3475,-0.52716,-1.716,-0.55472
27097,1.6484e+09,0,0.98329,-1.0612,-1.6859,-0.093771,1.6142,1.3781,1.3573,-0.54166,-1.7711,-0.61033
27139,1.6484e+09,0,0.98329,-1.0612,-1.6859,-0.093771,1.6142,1.3781,1.3573,-0.54166,-1.7711,-0.61033
27182,1.6484e+09,0,0.98329,-1.0612,-1.6859,-0.093771,1.6142,1.3781,1.3573,-0.54166,-1.7711,-0.61033
27229,1.6484e+09,0,0.98329,-1.0612,-1.6859,-0.093771,1.6142,1.3781,1.3573,-0.54166,-1.7711,-0.61033
27272,1.6484e+09,0,0.98329,-1.0612,-1.6859,-0.093771,1.6142,1.3781,1.3573,-0.54166,-1.7711,-0.61033
27315,1.6484e+09,0,0.98329,-1.0612,-1.6859,-0.093771,1.6142,1.3781,1.3573,-0.54166,-1.7711,-0.61033
27361,1.6484e+09,0,0.98329,-1.0612,-1.6859,-0.093771,1.6142,1.3781,1.3573,-0.54166,-1.7711,-0.61033
27404,1.6484e+09,0,0.98329,-1.0612,-1.6859,-0.093771,1.6142,1.3781,1.3573,-0.54166,-1.7711,-0.61033
27446,1.6485e+09,0,0.98329,-1.0612,-1.6859,-0.093771,1.6142,1.3781,1.3573,-0.54166,-1.7711,-0.61033
27489,1.6485e+09,0,0.98329,-1.0612,-1.6859,-0.093771,1.6142,1.3781,1.3573,-0.54166,-1.7711,-0.61033
27532,1.6485e+09,0,0.98329,-1.0612,-1.6859,-0.093771,1.6142,1.3781,1.3573,-0.54166,-1.7711,-0.61033
27574,1.6485e+09,0,0.98329,-1.0612,-1.6859,-0.093771,1.6142,1.3781,1.3573,-0.54166,-1.7711,-0.61033
27621,1.6485e+09,0,0.98329,-1.0612,-1.6859,-0.093771,1.6142,1.3781,1.3573,-0.54166,-1.7711,-0.61033
27665,1.6485e+09,0,0.98329,-1.0612,-1.6859,-0.093771,1.6142,1.3781,1.3573,-0.54166,-1.7711,-0.61033
27708,1.6485e+09,0,0.98329,-1.0612,-1.6859,-0.093771,1.6142,1.3781,1.3573,-0.54166,-1.7711,-0.61033
27754,1.6485e+09,0,0.98329,-1.0612,-1.6859,-0.093771,1.6142,1.3781,1.3573,-0.54166,-1.7711,-0.61033
27802,1.6485e+09,0,0.98329,-1.0612,-1.6859,-0.093771,1.6142,1.3781,1.3573,-0.54166,-1.7711,-0.61033
27838,1.6486e+09,0,1.0031,-1.011,-1.6076,-0.023487,1.6471,1.4326,1.3906,-0.48818,-1.6837,-0.51934
27882,1.6486e+09,0,1.0031,-1.011,-1.6076,-0.023487,1.6471,1.4326,1.3906,-0.48818,-1.6837,-0.51934
27926,1.6486e+09,0,1.0031,-1.011,-1.6076,-0.023487,1.6471,1.4326,1.3906,-0.48818,-1.6837,-0.51934
27970,1.6486e+09,0,1.0031,-1.011,-1.6076,-0.023487,1.6471,1.4326,1.3906,-0.48818,-1.6837,-0.51934
28014,1.6486e+09,0,1.0031,-1.011,-1.6076,-0.023487,1.6471,1.4326,1.3906,-0.48818,-1.6837,-0.51934
28064,1.6486e+09,0,1.0031,-1.011,-1.6076,-0.023487,1.6471,1.4326,1.3906,-0.48818,-1.6837,-0.51934
28108,1.6486e+09,0,1.0031,-1.011,-1.6076,-0.023487,1.6471,1.4326,1.3906,-0.48818,-1.6837,-0.51934
28154,1.6486e+09,0,1.0031,-1.011,-1.6076,-0.023487,1.6471,1.4326,1.3906,-0.48818,-1.6837,-0.51934
28199,1.6486e+09,0,1.0031,-1.011,-1.6076,-0.023487,1.6471,1.4326,1.3906,-0.48818,-1.6837,-0.51934
28243,1.6487e+09,0,1.0031,-1.011,-1.6076,-0.023487,1.6471,1.4326,1.3906,-0.48818,-1.6837,-0.51934
28288,1.6487e+09,0,1.0031,-1.011,-1.6076,-0.023487,1.6471,1.4326,1.3906,-0.48818,-1.6837,-0.51934
28332,1.6487e+09,0,1.0031,-1.011,-1.6076,-0.023487,1.6471,1.4326,1.3906,-0.48818,-1.6837,-0.51934
28377,1.6487e+09,0,1.0031,-1.011,-1.6076,-0.023487,1.6471,1.4326,1.3906,-0.48818,-1.6837,-0.51934
28423,1.6487e+09,0,1.0031,-1.011,-1.6076,-0.023487,1.6471,1.4326,1.3906,-0.48818,-1.6837,-0.51934
28469,1.6487e+09,0,1.0031,-1.011,-1.6076,-0.023487,1.6471,1.4326,1.3906,-0.48818,-1.6837,-0.51934
28517,1.6487e+09,0,1.0031,-1.011,-1.6076,-0.023487,1.6471,1.4326,1.3906,-0.48818,-1.6837,-0.51934
