LineNo,TimeUS,DesRoll,Roll,DesPitch,Pitch,DesYaw,Yaw,ErrRP,ErrYaw,AEKF
412,4.5016e+07,0,0.86,0,-0.72,23.24,23.23,0,0,3
869,4.5101e+07,0,0.88,0,-0.73,23.25,23.24,0,0,3
1096,4.5179e+07,0,0.86,0,-0.73,23.25,23.24,0,0,3
1298,4.5306e+07,0,0.86,0,-0.72,23.26,23.25,0,0,3
1551,4.5345e+07,0,0.86,0,-0.71,23.26,23.25,0,0,3
1574,4.5365e+07,0,0.86,0,-0.71,23.26,23.25,0,0,3
1616,4.5375e+07,0,0.86,0,-0.71,23.26,23.25,0,0,3
1657,4.5385e+07,0,0.86,0,-0.71,23.26,23.25,0,0,3
1697,4.5395e+07,0,0.86,0,-0.71,23.26,23.25,0,0,3
1738,4.5405e+07,0,0.86,0,-0.71,23.26,23.24,0,0,3
1780,4.5415e+07,0,0.86,0,-0.71,23.25,23.24,0,0,3
1822,4.5426e+07,0,0.86,0,-0.72,23.26,23.24,0,0,3
1862,4.5436e+07,0,0.86,0,-0.72,23.25,23.24,0,0,3
1903,4.5446e+07,0,0.86,0,-0.72,23.25,23.24,0,0,3
1948,4.5457e+07,0,0.86,0,-0.72,23.25,23.24,0,0,3
1988,4.5467e+07,0,0.86,0,-0.72,23.25,23.24,0,0.01,3
2031,4.5477e+07,0,0.86,0,-0.72,23.25,23.24,0,0.01,3
2071,4.5487e+07,0,0.86,0,-0.72,23.25,23.24,0,0.01,3
2115,4.5501e+07,0,0.86,0,-0.71,23.25,23.24,0,0.01,3
2155,4.5511e+07,0,0.86,0,-0.71,23.25,23.24,0,0.01,3
2196,4.5521e+07,0,0.86,0,-0.71,23.25,23.24,0,0.01,3
2240,4.5532e+07,0,0.86,0,-0.71,23.24,23.23,0,0.01,3
2281,4.5542e+07,0,0.86,0,-0.71,23.24,23.23,0,0.01,3
2322,4.5551e+07,0,0.86,0,-0.71,23.24,23.23,0,0.01,3
2368,4.5562e+07,0,0.86,0,-0.71,23.24,23.23,0,0.01,3
2409,4.5572e+07,0,0.86,0,-0.71,23.24,23.23,0,0.01,3
2451,4.5583e+07,0,0.86,0,-0.71,23.24,23.23,0,0.01,3
2492,4.5593e+07,0,0.86,0,-0.71,23.24,23.23,0,0.01,3
2532,4.5603e+07,0,0.86,0,-0.71,23.24,23.23,0,0.01,3
2575,4.5613e+07,0,0.86,0,-0.71,23.24,23.23,0,0.01,3
2617,4.5624e+07,0,0.86,0,-0.71,23.23,23.22,0,0.01,3
2657,4.5634e+07,0,0.86,0,-0.71,23.23,23.22,0,0.01,3
2698,4.5644e+07,0,0.86,0,-0.71,23.23,23.22,0,0.01,3
2738,4.5654e+07,0,0.86,0,-0.71,23.23,23.22,0,0.01,3
2784,4.5664e+07,0,0.86,0,-0.72,23.23,23.22,0,0.01,3
2825,4.5674e+07,0,0.85,0,-0.72,23.23,23.22,0,0.01,3
2866,4.5685e+07,0,0.85,0,-0.72,23.23,23.22,0,0.01,3
2908,4.5695e+07,0,0.85,0,-0.71,23.23,23.21,0,0.01,3
2948,4.5705e+07,0,0.85,0,-0.71,23.23,23.21,0,0.01,3
2986,4.5716e+07,0,0.86,0,-0.71,23.23,23.22,0,0.01,3
3027,4.5726e+07,0,0.86,0,-0.71,23.22,23.21,0,0.01,3
3067,4.5736e+07,0,0.86,0,-0.71,23.23,23.22,0,0.01,3
3109,4.5746e+07,0,0.86,0,-0.71,23.23,23.22,0,0.01,3
3149,4.5757e+07,0,0.87,0,-0.71,23.23,23.22,0,0.01,3
3194,4.5767e+07,0,0.87,0,-0.71,23.23,23.22,0,0.01,3
3234,4.5777e+07,0,0.87,0,-0.71,23.23,23.22,0,0.01,3
3275,4.5787e+07,0,0.87,0,-0.71,23.23,23.22,0,0.01,3
3316,4.5798e+07,0,0.87,0,-0.71,23.23,23.22,0,0.01,3
3357,4.5808e+07,0,0.87,0,-0.71,23.23,23.22,0,0.01,3
3402,4.5818e+07,0,0.86,0,-0.71,23.23,23.22,0,0.01,3
3439,4.5829e+07,0,0.86,0,-0.71,23.23,23.22,0,0.01,3
3482,4.5839e+07,0,0.86,0,-0.71,23.23,23.22,0,0.01,3
3522,4.5849e+07,0,0.86,0,-0.71,23.23,23.22,0,0.01,3
3564,4.586e+07,0,0.86,0,-0.71,23.23,23.22,0,0.01,3
3612,4.587e+07,0,0.86,0,-0.71,23.23,23.22,0,0.01,3
3652,4.588e+07,0,0.86,0,-0.71,23.23,23.22,0,0.01,3
3693,4.589e+07,0,0.86,0,-0.71,23.23,23.22,0,0.01,3
3734,4.5901e+07,0,0.86,0,-0.71,23.23,23.22,0,0.01,3
3778,4.5913e+07,0,0.86,0,-0.71,23.23,23.22,0,0.01,3
3818,4.5923e+07,0,0.87,0,-0.71,23.24,23.23,0,0.01,3
3860,4.5934e+07,0,0.87,0,-0.71,23.24,23.22,0,0.01,3
3901,4.5943e+07,0,0.87,0,-0.71,23.24,23.23,0,0.01,3
3941,4.5954e+07,0,0.87,0,-0.71,23.24,23.22,0,0.01,3
3982,4.5964e+07,0,0.87,0,-0.71,23.23,23.22,0,0.01,3
4028,4.5974e+07,0,0.87,0,-0.71,23.23,23.22,0,0.01,3
4070,4.5983e+07,0,0.86,0,-0.71,23.23,23.22,0,0.01,3
4110,4.5994e+07,0,0.86,0,-0.71,23.23,23.22,0,0.01,3
4154,4.6004e+07,0,0.86,0,-0.71,23.23,23.22,0,0.01,3
4194,4.6016e+07,0,0.86,0,-0.71,23.23,23.22,0,0.01,3
4235,4.6027e+07,0,0.85,0,-0.71,23.23,23.22,0,0.01,3
4276,4.6037e+07,0,0.85,0,-0.71,23.23,23.22,0,0.01,3
4316,4.6047e+07,0,0.85,0,-0.71,23.23,23.22,0,0.01,3
4359,4.6057e+07,0,0.86,0,-0.71,23.23,23.22,0,0.01,3
4399,4.6067e+07,0,0.86,0,-0.71,23.23,23.22,0,0.01,3
4445,4.6077e+07,0,0.86,0,-0.7,23.23,23.22,0,0.01,3
4485,4.6087e+07,0,0.86,0,-0.7,23.23,23.22,0,0.01,3
4526,4.6097e+07,0,0.86,0,-0.7,23.23,23.22,0,0.01,3
4567,4.6107e+07,0,0.87,0,-0.7,23.23,23.22,0,0.01,3
4608,4.612e+07,0,0.87,0,-0.7,23.23,23.22,0,0.01,3
4650,4.6131e+07,0,0.87,0,-0.71,23.23,23.22,0,0.01,3
4690,4.6141e+07,0,0.87,0,-0.71,23.23,23.22,0,0.01,3
4731,4.6151e+07,0,0.86,0,-0.71,23.23,23.22,0,0.01,3
4772,4.6161e+07,0,0.86,0,-0.71,23.23,23.22,0,0.01,3
4816,4.6171e+07,0,0.86,0,-0.71,23.23,23.22,0,0.01,3
4857,4.6181e+07,0,0.86,0,-0.71,23.23,23.22,0,0.01,3
4898,4.6191e+07,0,0.86,0,-0.7,23.23,23.22,0,0.01,3
4939,4.6201e+07,0,0.85,0,-0.7,23.23,23.22,0,0.01,3
4981,4.6212e+07,0,0.85,0,-0.7,23.23,23.22,0,0.01,3
5023,4.6222e+07,0,0.86,0,-0.7,23.23,23.22,0,0.01,3
5064,4.6232e+07,0,0.86,0,-0.7,23.22,23.21,0,0.01,3
5105,4.6242e+07,0,0.86,0,-0.7,23.22,23.21,0,0.01,3
5146,4.6252e+07,0,0.86,0,-0.71,23.22,23.21,0,0.01,3
5187,4.6262e+07,0,0.86,0,-0.71,23.22,23.21,0,0.01,3
5231,4.6273e+07,0,0.87,0,-0.71,23.22,23.21,0,0.01,3
5273,4.6283e+07,0,0.87,0,-0.71,23.22,23.21,0,0,3
5313,4.6292e+07,0,0.87,0,-0.7,23.22,23.21,0,0,3
5354,4.6302e+07,0,0.87,0,-0.7,23.22,23.21,0,0,3
5394,4.6312e+07,0,0.86,0,-0.7,23.22,23.21,0,0,3
5438,4.6325e+07,0,0.86,0,-0.7,23.22,23.21,0,0,3
5478,4.6336e+07,0,0.86,0,-0.7,23.22,23.21,0,0,3
5520,4.6346e+07,0,0.85,0,-0.7,23.22,23.21,0,0,3
5562,4.6356e+07,0,0.85,0,-0.7,23.22,23.21,0,0,3
5602,4.6367e+07,0,0.85,0,-0.7,23.22,23.21,0,0,3
5647,4.6377e+07,0,0.85,0,-0.7,23.22,23.21,0,0,3
5688,4.6387e+07,0,0.85,0,-0.71,23.22,23.21,0,0,3
5729,4.6397e+07,0,0.86,0,-0.71,23.22,23.21,0,0,3
5769,4.6407e+07,0,0.86,0,-0.71,23.22,23.21,0,0,3
5812,4.6417e+07,0,0.86,0,-0.7,23.22,23.21,0,0,3
5850,4.6428e+07,0,0.86,0,-0.7,23.22,23.21,0,0,3
5891,4.6438e+07,0,0.86,0,-0.7,23.22,23.21,0,0,3
5933,4.6448e+07,0,0.86,0,-0.7,23.22,23.21,0,0,3
5973,4.6459e+07,0,0.87,0,-0.7,23.22,23.21,0,0,3
6014,4.6469e+07,0,0.86,0,-0.7,23.22,23.21,0,0,3
6060,4.6479e+07,0,0.86,0,-0.7,23.22,23.21,0,0.01,3
6100,4.6489e+07,0,0.86,0,-0.7,23.22,23.21,0,0.01,3
6141,4.6499e+07,0,0.86,0,-0.71,23.22,23.21,0,0.01,3
6181,4.6509e+07,0,0.85,0,-0.71,23.21,23.2,0,0.01,3
6222,4.6519e+07,0,0.85,0,-0.71,23.21,23.2,0,0.01,3
6259,4.653e+07,0,0.85,0,-0.71,23.21,23.2,0,0.01,3
6301,4.654e+07,0,0.85,0,-0.7,23.21,23.2,0,0.01,3
6346,4.655e+07,0,0.85,0,-0.7,23.21,23.2,0,0.01,3
6386,4.656e+07,0,0.85,0,-0.7,23.21,23.2,0,0.01,3
6427,4.6571e+07,0,0.86,0,-0.7,23.21,23.2,0,0.01,3
6471,4.6581e+07,0,0.86,0,-0.7,23.21,23.2,0,0,3
6513,4.6591e+07,0,0.86,0,-0.7,23.21,23.2,0,0,3
6555,4.6601e+07,0,0.86,0,-0.7,23.21,23.2,0,0,3
6596,4.6611e+07,0,0.86,0,-0.7,23.21,23.2,0,0,3
6634,4.6621e+07,0,0.86,0,-0.7,23.2,23.19,0,0,3
6674,4.6631e+07,0,0.86,0,-0.7,23.2,23.19,0,0,3
6716,4.6642e+07,0,0.86,0,-0.7,23.2,23.19,0,0,3
6757,4.6652e+07,0,0.86,0,-0.71,23.2,23.19,0,0,3
6798,4.6662e+07,0,0.86,0,-0.71,23.2,23.19,0,0,3
6839,4.6672e+07,0,0.85,0,-0.71,23.2,23.19,0,0,3
6884,4.6682e+07,0,0.85,0,-0.71,23.2,23.19,0,0,3
6925,4.6692e+07,0,0.85,0,-0.71,23.2,23.19,0,0,3
6965,4.6702e+07,0,0.85,0,-0.71,23.2,23.19,0,0,3
7006,4.6712e+07,0,0.85,0,-0.7,23.2,23.19,0,0,3
7046,4.6722e+07,0,0.86,0,-0.71,23.2,23.19,0,0,3
7088,4.6732e+07,0,0.86,0,-0.7,23.2,23.19,0,0,3
7126,4.6743e+07,0,0.86,0,-0.7,23.2,23.19,0,0,3
7167,4.6753e+07,0,0.86,0,-0.7,23.2,23.19,0,0,3
7208,4.6763e+07,0,0.86,0,-0.7,23.2,23.19,0,0,3
7248,4.6773e+07,0,0.87,0,-0.7,23.2,23.19,0,0,3
7295,4.6783e+07,0,0.87,0,-0.7,23.2,23.19,0,0,3
7335,4.6793e+07,0,0.86,0,-0.7,23.2,23.19,0,0,3
7378,4.6804e+07,0,0.86,0,-0.7,23.2,23.19,0,0,3
7418,4.6814e+07,0,0.86,0,-0.7,23.2,23.19,0,0,3
7460,4.6824e+07,0,0.86,0,-0.7,23.2,23.19,0,0,3
7501,4.6834e+07,0,0.86,0,-0.7,23.2,23.19,0,0,3
7542,4.6844e+07,0,0.86,0,-0.7,23.2,23.19,0,0,3
7584,4.6854e+07,0,0.86,0,-0.7,23.2,23.19,0,0,3
7625,4.6865e+07,0,0.86,0,-0.7,23.2,23.19,0,0,3
7667,4.6874e+07,0,0.86,0,-0.7,23.2,23.19,0,0,3
7712,4.6885e+07,0,0.86,0,-0.7,23.2,23.19,0,0.01,3
7752,4.6895e+07,0,0.86,0,-0.7,23.2,23.19,0,0.01,3
7793,4.6905e+07,0,0.86,0,-0.7,23.2,23.19,0,0.01,3
7833,4.6916e+07,0,0.87,0,-0.7,23.2,23.19,0,0.01,3
7875,4.6926e+07,0,0.87,0,-0.7,23.21,23.19,0,0.01,3
7918,4.6938e+07,0,0.87,0,-0.7,23.21,23.2,0,0.01,3
7959,4.6948e+07,0,0.87,0,-0.7,23.21,23.2,0,0.01,3
7999,4.6958e+07,0,0.87,0,-0.7,23.21,23.2,0,0.01,3
8041,4.6968e+07,0,0.86,0,-0.7,23.21,23.2,0,0.01,3
8082,4.6978e+07,0,0.86,0,-0.7,23.21,23.2,0,0.01,3
8128,4.6989e+07,0,0.86,0,-0.7,23.21,23.2,0,0,3
8170,4.6999e+07,0,0.86,0,-0.7,23.21,23.2,0,0,3
8210,4.7009e+07,0,0.86,0,-0.7,23.21,23.2,0,0,3
8253,4.7019e+07,0,0.86,0,-0.7,23.21,23.2,0,0,3
8290,4.7029e+07,0,0.86,0,-0.7,23.21,23.2,0,0,3
8331,4.7039e+07,0,0.86,0,-0.7,23.22,23.21,0,0,3
8371,4.7049e+07,0,0.86,0,-0.7,23.21,23.2,0,0,3
8411,4.7059e+07,0,0.86,0,-0.7,23.22,23.21,0,0,3
8454,4.7069e+07,0,0.86,0,-0.7,23.22,23.21,0,0,3
8495,4.7079e+07,0,0.87,0,-0.7,23.22,23.21,0,0,3
8539,4.7089e+07,0,0.87,0,-0.7,23.22,23.21,0,0.01,3
8580,4.7099e+07,0,0.87,0,-0.7,23.22,23.21,0,0.01,3
8620,4.711e+07,0,0.87,0,-0.7,23.22,23.21,0,0.01,3
8661,4.712e+07,0,0.87,0,-0.7,23.22,23.21,0,0.01,3
8701,4.713e+07,0,0.86,0,-0.7,23.22,23.21,0,0.01,3
8742,4.714e+07,0,0.86,0,-0.7,23.22,23.21,0,0.01,3
8785,4.7153e+07,0,0.86,0,-0.7,23.22,23.21,0,0.01,3
8826,4.7163e+07,0,0.86,0,-0.7,23.22,23.21,0,0.01,3
8867,4.7173e+07,0,0.86,0,-0.7,23.22,23.21,0,0.01,3
8908,4.7183e+07,0,0.86,0,-0.7,23.22,23.21,0,0.01,3
8953,4.7193e+07,0,0.86,0,-0.7,23.22,23.21,0,0.01,3
8995,4.7203e+07,0,0.86,0,-0.7,23.22,23.21,0,0.01,3
9037,4.7213e+07,0,0.86,0,-0.7,23.22,23.21,0,0.01,3
9078,4.7223e+07,0,0.86,0,-0.7,23.22,23.21,0,0.01,3
9118,4.7233e+07,0,0.87,0,-0.7,23.22,23.21,0,0.01,3
9155,4.7243e+07,0,0.87,0,-0.7,23.22,23.21,0,0.01,3
9196,4.7254e+07,0,0.87,0,-0.7,23.22,23.21,0,0.01,3
9215,4.7283e+07,0,0.87,0,-0.7,23.22,23.21,0,0.01,3
9261,4.7293e+07,0,0.86,0,-0.7,23.22,23.21,0,0.01,3
9301,4.7303e+07,0,0.86,0,-0.7,23.22,23.21,0,0.01,3
9342,4.7314e+07,0,0.86,0,-0.7,23.22,23.21,0,0.01,3
9388,4.7328e+07,0,0.86,0,-0.7,23.22,23.21,0,0.01,3
9429,4.7339e+07,0,0.86,0,-0.7,23.22,23.21,0,0.01,3
9471,4.7349e+07,0,0.86,0,-0.7,23.21,23.2,0,0.01,3
9511,4.7358e+07,0,0.86,0,-0.7,23.21,23.2,0,0.01,3
9552,4.7368e+07,0,0.86,0,-0.7,23.21,23.2,0,0.01,3
9592,4.7379e+07,0,0.86,0,-0.7,23.21,23.2,0,0.01,3
9637,4.7389e+07,0,0.86,0,-0.7,23.21,23.2,0,0.01,3
9679,4.7399e+07,0,0.86,0,-0.7,23.21,23.2,0,0.01,3
9722,4.7409e+07,0,0.86,0,-0.7,23.2,23.19,0,0.01,3
9760,4.742e+07,0,0.86,0,-0.7,23.2,23.19,0,0.01,3
9800,4.743e+07,0,0.86,0,-0.7,23.2,23.19,0,0.01,3
9844,4.7442e+07,0,0.86,0,-0.7,23.2,23.19,0,0.01,3
9885,4.7453e+07,0,0.86,0,-0.7,23.2,23.19,0,0.01,3
9926,4.7462e+07,0,0.86,0,-0.7,23.2,23.19,0,0.01,3
9967,4.7473e+07,0,0.86,0,-0.7,23.2,23.19,0,0.01,3
10007,4.7482e+07,0,0.86,0,-0.7,23.2,23.19,0,0.01,3
10052,4.7492e+07,0,0.85,0,-0.7,23.2,23.19,0,0.01,3
10093,4.7503e+07,0,0.86,0,-0.7,23.19,23.18,0,0.01,3
10135,4.7513e+07,0,0.86,0,-0.7,23.19,23.18,0,0.01,3
10175,4.7523e+07,0,0.86,0,-0.7,23.19,23.18,0,0.01,3
10216,4.7532e+07,0,0.86,0,-0.7,23.19,23.18,0,0.01,3
10259,4.7543e+07,0,0.86,0,-0.69,23.19,23.18,0,0.01,3
10300,4.7553e+07,0,0.86,0,-0.69,23.18,23.17,0,0.01,3
10342,4.7563e+07,0,0.86,0,-0.69,23.18,23.17,0,0.01,3
10382,4.7572e+07,0,0.86,0,-0.69,23.18,23.17,0,0.01,3
10423,4.7582e+07,0,0.86,0,-0.69,23.18,23.17,0,0.01,3
10467,4.7593e+07,0,0.86,0,-0.69,23.18,23.17,0,0.01,3
10510,4.7603e+07,0,0.86,0,-0.69,23.18,23.17,0,0.01,3
10550,4.7613e+07,0,0.86,0,-0.69,23.18,23.17,0,0.01,3
10590,4.7623e+07,0,0.86,0,-0.69,23.18,23.17,0,0.01,3
10634,4.7636e+07,0,0.86,0,-0.69,23.18,23.16,0,0.01,3
10674,4.7646e+07,0,0.86,0,-0.7,23.17,23.16,0,0.01,3
10715,4.7655e+07,0,0.86,0,-0.7,23.17,23.16,0,0.01,3
10756,4.7665e+07,0,0.86,0,-0.7,23.17,23.16,0,0.01,3
10796,4.7676e+07,0,0.86,0,-0.7,23.17,23.16,0,0.01,3
10837,4.7685e+07,0,0.86,0,-0.7,23.16,23.15,0,0.01,3
10881,4.7696e+07,0,0.86,0,-0.7,23.16,23.15,0,0.01,3
10922,4.7706e+07,0,0.86,0,-0.7,23.16,23.15,0,0.01,3
10962,4.7716e+07,0,0.86,0,-0.7,23.16,23.15,0,0.01,3
11008,4.7728e+07,0,0.86,0,-0.7,23.16,23.15,0,0.01,3
11052,4.7741e+07,0,0.86,0,-0.7,23.16,23.15,0,0.01,3
11096,4.7753e+07,0,0.86,0,-0.69,23.16,23.15,0,0.01,3
11136,4.7764e+07,0,0.86,0,-0.69,23.16,23.15,0,0.01,3
11177,4.7774e+07,0,0.86,0,-0.69,23.16,23.15,0,0.01,3
11218,4.7784e+07,0,0.86,0,-0.69,23.16,23.15,0,0.01,3
11263,4.7794e+07,0,0.86,0,-0.69,23.16,23.15,0,0.01,3
11306,4.7805e+07,0,0.86,0,-0.69,23.16,23.15,0,0.01,3
11343,4.7815e+07,0,0.86,0,-0.69,23.16,23.15,0,0.01,3
11385,4.7825e+07,0,0.86,0,-0.69,23.16,23.15,0,0.01,3
11426,4.7835e+07,0,0.86,0,-0.69,23.16,23.15,0,0.01,3
11467,4.7846e+07,0,0.86,0,-0.69,23.16,23.15,0,0.01,3
11508,4.7856e+07,0,0.86,0,-0.69,23.16,23.15,0,0.01,3
11549,4.7866e+07,0,0.86,0,-0.7,23.16,23.15,0,0.01,3
11590,4.7875e+07,0,0.86,0,-0.69,23.16,23.15,0,0.01,3
11630,4.7886e+07,0,0.86,0,-0.69,23.16,23.15,0,0.01,3
11676,4.7896e+07,0,0.86,0,-0.69,23.16,23.15,0,0.01,3
11717,4.7906e+07,0,0.86,0,-0.69,23.16,23.15,0,0.01,3
11757,4.7917e+07,0,0.86,0,-0.69,23.16,23.15,0,0.01,3
11799,4.7927e+07,0,0.86,0,-0.69,23.16,23.15,0,0.01,3
11837,4.7937e+07,0,0.86,0,-0.69,23.16,23.15,0,0.01,3
11879,4.7947e+07,0,0.86,0,-0.69,23.16,23.15,0,0.01,3
11919,4.7957e+07,0,0.86,0,-0.69,23.16,23.15,0,0.01,3
11960,4.7967e+07,0,0.86,0,-0.69,23.16,23.15,0,0.01,3
12001,4.7977e+07,0,0.86,0,-0.69,23.16,23.15,0,0.01,3
12042,4.7986e+07,0,0.86,0,-0.7,23.16,23.15,0,0.01,3
12089,4.7997e+07,0,0.86,0,-0.7,23.16,23.15,0,0.01,3
12131,4.8007e+07,0,0.86,0,-0.7,23.16,23.15,0,0.01,3
12168,4.8017e+07,0,0.86,0,-0.69,23.16,23.15,0,0.01,3
12209,4.8027e+07,0,0.86,0,-0.69,23.16,23.15,0,0.01,3
12254,4.8037e+07,0,0.86,0,-0.69,23.16,23.14,0,0.01,3
12297,4.805e+07,0,0.86,0,-0.69,23.16,23.15,0,0.01,3
12338,4.806e+07,0,0.86,0,-0.69,23.15,23.14,0,0.01,3
12378,4.807e+07,0,0.86,0,-0.69,23.15,23.14,0,0.01,3
12419,4.8081e+07,0,0.86,0,-0.7,23.15,23.14,0,0.01,3
12460,4.8091e+07,0,0.86,0,-0.69,23.15,23.14,0,0.01,3
12504,4.8101e+07,0,0.86,0,-0.7,23.15,23.14,0,0.01,3
12545,4.8111e+07,0,0.86,0,-0.7,23.15,23.14,0,0.01,3
12586,4.8121e+07,0,0.86,0,-0.7,23.15,23.14,0,0.01,3
12627,4.8131e+07,0,0.86,0,-0.7,23.15,23.14,0,0.01,3
12665,4.8141e+07,0,0.86,0,-0.69,23.15,23.14,0,0.01,3
12706,4.8151e+07,0,0.86,0,-0.69,23.15,23.14,0,0.01,3
12748,4.8161e+07,0,0.86,0,-0.69,23.15,23.14,0,0.01,3
12788,4.8171e+07,0,0.86,0,-0.69,23.14,23.13,0,0.01,3
12829,4.8181e+07,0,0.86,0,-0.69,23.14,23.13,0,0.01,3
12869,4.8191e+07,0,0.86,0,-0.69,23.14,23.13,0,0.01,3
12914,4.8201e+07,0,0.86,0,-0.69,23.14,23.13,0,0.01,3
12957,4.8211e+07,0,0.86,0,-0.69,23.14,23.13,0,0.01,3
12998,4.8221e+07,0,0.86,0,-0.69,23.14,23.13,0,0.01,3
13036,4.8231e+07,0,0.86,0,-0.69,23.14,23.13,0,0.01,3
13077,4.8244e+07,0,0.86,0,-0.69,23.13,23.12,0,0.01,3
13117,4.8254e+07,0,0.86,0,-0.69,23.13,23.12,0,0.01,3
13158,4.8264e+07,0,0.86,0,-0.69,23.13,23.12,0,0.01,3
13199,4.8273e+07,0,0.86,0,-0.69,23.13,23.12,0,0.01,3
13241,4.8284e+07,0,0.86,0,-0.69,23.13,23.12,0,0.01,3
13286,4.8294e+07,0,0.86,0,-0.69,23.13,23.12,0,0.01,3
13326,4.8304e+07,0,0.86,0,-0.69,23.13,23.12,0,0.01,3
13367,4.8314e+07,0,0.86,0,-0.69,23.12,23.11,0,0.01,3
13408,4.8324e+07,0,0.86,0,-0.69,23.12,23.11,0,0.01,3
13449,4.8334e+07,0,0.86,0,-0.69,23.12,23.11,0,0.01,3
13489,4.8348e+07,0,0.86,0,-0.69,23.12,23.11,0,0.01,3
13530,4.8358e+07,0,0.86,0,-0.69,23.12,23.11,0,0.01,3
13572,4.8368e+07,0,0.86,0,-0.69,23.12,23.11,0,0.01,3
13613,4.8378e+07,0,0.86,0,-0.69,23.12,23.11,0,0.01,3
13654,4.8388e+07,0,0.86,0,-0.69,23.12,23.11,0,0.01,3
13698,4.8398e+07,0,0.86,0,-0.69,23.12,23.1,0,0.01,3
13739,4.8408e+07,0,0.86,0,-0.69,23.12,23.11,0,0.01,3
13783,4.8418e+07,0,0.86,0,-0.69,23.12,23.11,0,0.01,3
13821,4.8429e+07,0,0.86,0,-0.69,23.12,23.11,0,0.01,3
13861,4.8438e+07,0,0.86,0,-0.69,23.12,23.11,0,0.01,3
13902,4.8449e+07,0,0.86,0,-0.69,23.12,23.11,0,0.01,3
13943,4.8459e+07,0,0.86,0,-0.69,23.12,23.1,0,0.01,3
13985,4.847e+07,0,0.86,0,-0.69,23.12,23.1,0,0.01,3
14026,4.848e+07,0,0.86,0,-0.69,23.11,23.1,0,0.01,3
14066,4.849e+07,0,0.86,0,-0.69,23.11,23.1,0,0.01,3
14111,4.8501e+07,0,0.86,0,-0.69,23.11,23.1,0,0.01,3
14152,4.851e+07,0,0.86,0,-0.69,23.11,23.1,0,0.01,3
14193,4.8521e+07,0,0.86,0,-0.69,23.11,23.1,0,0.01,3
14236,4.8531e+07,0,0.86,0,-0.69,23.11,23.1,0,0.01,3
14276,4.8541e+07,0,0.86,0,-0.69,23.11,23.1,0,0.01,3
14317,4.8551e+07,0,0.86,0,-0.69,23.11,23.1,0,0.01,3
14359,4.8561e+07,0,0.86,0,-0.69,23.11,23.1,0,0.01,3
14400,4.8571e+07,0,0.86,0,-0.69,23.11,23.1,0,0.01,3
14442,4.8581e+07,0,0.86,0,-0.69,23.11,23.1,0,0.01,3
14483,4.8591e+07,0,0.86,0,-0.69,23.11,23.1,0,0.01,3
14529,4.8602e+07,0,0.86,0,-0.69,23.11,23.1,0,0.01,3
14569,4.8612e+07,0,0.86,0,-0.69,23.11,23.09,0,0.01,3
14609,4.8621e+07,0,0.86,0,-0.7,23.1,23.09,0,0.01,3
14646,4.8632e+07,0,0.85,0,-0.7,23.1,23.09,0,0.01,3
14687,4.8642e+07,0,0.85,0,-0.69,23.1,23.09,0,0.01,3
14724,4.8652e+07,0,0.85,0,-0.69,23.1,23.09,0,0.01,3
14765,4.8662e+07,0,0.85,0,-0.69,23.1,23.09,0,0.01,3
14806,4.8673e+07,0,0.85,0,-0.69,23.1,23.09,0,0.01,3
14848,4.8683e+07,0,0.86,0,-0.7,23.1,23.09,0,0.01,3
14889,4.8693e+07,0,0.86,0,-0.69,23.1,23.09,0,0.01,3
14933,4.8703e+07,0,0.86,0,-0.69,23.1,23.09,0,0.01,3
14974,4.8713e+07,0,0.86,0,-0.69,23.1,23.09,0,0.01,3
15016,4.8723e+07,0,0.86,0,-0.69,23.1,23.09,0,0.01,3
15056,4.8734e+07,0,0.86,0,-0.69,23.1,23.09,0,0.01,3
15100,4.8746e+07,0,0.86,0,-0.69,23.1,23.09,0,0.01,3
15140,4.8756e+07,0,0.86,0,-0.69,23.1,23.09,0,0.01,3
15181,4.8767e+07,0,0.86,0,-0.69,23.09,23.08,0,0.01,3
15222,4.8777e+07,0,0.85,0,-0.69,23.09,23.08,0,0.01,3
15264,4.8787e+07,0,0.85,0,-0.69,23.09,23.08,0,0.01,3
15306,4.8797e+07,0,0.85,0,-0.69,23.09,23.08,0,0.01,3
15348,4.881e+07,0,0.85,0,-0.7,23.09,23.08,0,0.01,3
15388,4.882e+07,0,0.85,0,-0.7,23.09,23.08,0,0.01,3
15429,4.883e+07,0,0.85,0,-0.7,23.09,23.08,0,0.01,3
15470,4.884e+07,0,0.86,0,-0.7,23.09,23.08,0,0.01,3
15511,4.885e+07,0,0.86,0,-0.7,23.08,23.07,0,0.01,3
15553,4.8861e+07,0,0.86,0,-0.7,23.08,23.07,0,0.01,3
15594,4.8871e+07,0,0.86,0,-0.7,23.08,23.07,0,0.01,3
15634,4.8881e+07,0,0.86,0,-0.7,23.08,23.07,0,0.01,3
15677,4.8891e+07,0,0.86,0,-0.7,23.08,23.07,0,0.01,3
15717,4.8901e+07,0,0.86,0,-0.69,23.08,23.07,0,0.01,3
15762,4.8911e+07,0,0.86,0,-0.69,23.08,23.07,0,0,3
15803,4.8921e+07,0,0.86,0,-0.69,23.08,23.07,0,0,3
15844,4.8931e+07,0,0.86,0,-0.69,23.08,23.07,0,0,3
15886,4.8941e+07,0,0.86,0,-0.69,23.08,23.07,0,0,3
15926,4.8951e+07,0,0.86,0,-0.69,23.08,23.07,0,0,3
15967,4.8961e+07,0,0.86,0,-0.69,23.08,23.07,0,0,3
16008,4.8971e+07,0,0.86,0,-0.69,23.08,23.07,0,0,3
16049,4.8981e+07,0,0.86,0,-0.69,23.08,23.06,0,0,3
16090,4.8992e+07,0,0.86,0,-0.69,23.07,23.06,0,0,3
16135,4.9005e+07,0,0.86,0,-0.69,23.07,23.06,0,0,3
16177,4.9015e+07,0,0.86,0,-0.69,23.07,23.06,0,0.01,3
16219,4.9026e+07,0,0.86,0,-0.69,23.07,23.06,0,0.01,3
16260,4.9036e+07,0,0.86,0,-0.69,23.07,23.06,0,0.01,3
16301,4.9047e+07,0,0.86,0,-0.69,23.07,23.06,0,0.01,3
16342,4.9057e+07,0,0.86,0,-0.69,23.07,23.06,0,0.01,3
16383,4.9067e+07,0,0.86,0,-0.69,23.07,23.06,0,0.01,3
16423,4.9077e+07,0,0.86,0,-0.69,23.07,23.06,0,0.01,3
16465,4.9087e+07,0,0.86,0,-0.69,23.07,23.06,0,0.01,3
16506,4.9098e+07,0,0.86,0,-0.69,23.07,23.06,0,0.01,3
16547,4.9108e+07,0,0.86,0,-0.69,23.07,23.06,0,0.01,3
16592,4.9117e+07,0,0.86,0,-0.69,23.07,23.06,0,0,3
16633,4.9128e+07,0,0.86,0,-0.69,23.07,23.06,0,0,3
16674,4.9138e+07,0,0.86,0,-0.69,23.07,23.06,0,0,3
16714,4.9148e+07,0,0.86,0,-0.69,23.07,23.06,0,0,3
16755,4.9158e+07,0,0.86,0,-0.69,23.06,23.05,0,0,3
16795,4.9168e+07,0,0.86,0,-0.69,23.06,23.05,0,0,3
16837,4.9179e+07,0,0.86,0,-0.69,23.06,23.05,0,0,3
16877,4.9188e+07,0,0.86,0,-0.69,23.06,23.05,0,0,3
16918,4.9199e+07,0,0.86,0,-0.69,23.06,23.05,0,0,3
16959,4.9208e+07,0,0.86,0,-0.69,23.06,23.05,0,0,3
17000,4.9219e+07,0,0.86,0,-0.69,23.06,23.05,0,0,3
17041,4.9229e+07,0,0.86,0,-0.68,23.06,23.05,0,0,3
17082,4.9239e+07,0,0.86,0,-0.68,23.06,23.05,0,0,3
17123,4.9249e+07,0,0.86,0,-0.68,23.06,23.05,0,0,3
17164,4.9259e+07,0,0.86,0,-0.68,23.06,23.05,0,0,3
17204,4.9269e+07,0,0.86,0,-0.68,23.06,23.05,0,0,3
17246,4.9279e+07,0,0.86,0,-0.68,23.06,23.05,0,0,3
17286,4.9289e+07,0,0.86,0,-0.68,23.06,23.05,0,0,3
17327,4.9299e+07,0,0.86,0,-0.68,23.06,23.05,0,0,3
17368,4.931e+07,0,0.86,0,-0.68,23.06,23.05,0,0,3
17414,4.932e+07,0,0.86,0,-0.68,23.06,23.05,0,0,3
17455,4.933e+07,0,0.86,0,-0.68,23.06,23.05,0,0,3
17495,4.934e+07,0,0.86,0,-0.68,23.06,23.05,0,0,3
17536,4.935e+07,0,0.86,0,-0.68,23.06,23.05,0,0,3
17576,4.936e+07,0,0.86,0,-0.68,23.06,23.05,0,0,3
17618,4.9371e+07,0,0.86,0,-0.68,23.06,23.05,0,0,3
17658,4.9381e+07,0,0.86,0,-0.68,23.06,23.04,0,0,3
17699,4.9391e+07,0,0.86,0,-0.68,23.05,23.04,0,0,3
17740,4.9401e+07,0,0.86,0,-0.68,23.05,23.04,0,0,3
17779,4.9411e+07,0,0.86,0,-0.68,23.06,23.05,0,0,3
17822,4.9421e+07,0,0.86,0,-0.68,23.06,23.04,0,0,3
17863,4.9431e+07,0,0.86,0,-0.68,23.06,23.04,0,0,3
17904,4.9441e+07,0,0.86,0,-0.68,23.06,23.04,0,0,3
17945,4.9451e+07,0,0.86,0,-0.68,23.05,23.04,0,0,3
17988,4.9463e+07,0,0.86,0,-0.68,23.05,23.04,0,0,3
18029,4.9473e+07,0,0.86,0,-0.68,23.05,23.04,0,0,3
18070,4.9484e+07,0,0.86,0,-0.68,23.05,23.04,0,0,3
18111,4.9494e+07,0,0.86,0,-0.68,23.05,23.04,0,0,3
18151,4.9503e+07,0,0.86,0,-0.68,23.05,23.04,0,0,3
18193,4.9513e+07,0,0.86,0,-0.68,23.05,23.04,0,0,3
18240,4.9523e+07,0,0.86,0,-0.68,23.05,23.04,0,0,3
18281,4.9534e+07,0,0.86,0,-0.68,23.05,23.04,0,0,3
18322,4.9544e+07,0,0.86,0,-0.68,23.05,23.04,0,0,3
18362,4.9554e+07,0,0.86,0,-0.68,23.05,23.04,0,0,3
18403,4.9564e+07,0,0.86,0,-0.68,23.05,23.04,0,0,3
18444,4.9574e+07,0,0.86,0,-0.68,23.05,23.03,0,0,3
18485,4.9585e+07,0,0.86,0,-0.68,23.04,23.03,0,0,3
18526,4.9595e+07,0,0.86,0,-0.68,23.04,23.03,0,0,3
18567,4.9605e+07,0,0.86,0,-0.68,23.04,23.03,0,0,3
18606,4.9615e+07,0,0.86,0,-0.68,23.04,23.03,0,0,3
18648,4.9625e+07,0,0.86,0,-0.68,23.04,23.03,0,0.01,3
18688,4.9635e+07,0,0.86,0,-0.68,23.04,23.03,0,0.01,3
18729,4.9645e+07,0,0.86,0,-0.68,23.04,23.03,0,0.01,3
18770,4.9656e+07,0,0.86,0,-0.68,23.04,23.03,0,0.01,3
18814,4.9668e+07,0,0.86,0,-0.68,23.03,23.02,0,0.01,3
18854,4.9678e+07,0,0.86,0,-0.68,23.03,23.02,0,0.01,3
18895,4.9689e+07,0,0.86,0,-0.68,23.03,23.02,0,0.01,3
18937,4.9699e+07,0,0.86,0,-0.68,23.03,23.02,0,0.01,3
18977,4.9709e+07,0,0.86,0,-0.68,23.03,23.02,0,0.01,3
19018,4.9719e+07,0,0.86,0,-0.68,23.03,23.02,0,0.01,3
19063,4.9729e+07,0,0.86,0,-0.68,23.03,23.02,0,0.01,3
19104,4.9739e+07,0,0.86,0,-0.68,23.03,23.02,0,0.01,3
19145,4.9749e+07,0,0.86,0,-0.68,23.03,23.02,0,0.01,3
19186,4.9759e+07,0,0.86,0,-0.68,23.03,23.02,0,0.01,3
19229,4.9772e+07,0,0.86,0,-0.68,23.03,23.02,0,0.01,3
19271,4.9782e+07,0,0.86,0,-0.68,23.03,23.02,0,0.01,3
19313,4.9792e+07,0,0.86,0,-0.68,23.03,23.02,0,0.01,3
19353,4.9802e+07,0,0.86,0,-0.68,23.03,23.02,0,0.01,3
19396,4.9818e+07,0,0.86,0,-0.68,23.03,23.02,0,0.01,3
19442,4.9828e+07,0,0.86,0,-0.68,23.03,23.02,0,0,3
19483,4.9838e+07,0,0.86,0,-0.68,23.03,23.02,0,0,3
19525,4.9848e+07,0,0.86,0,-0.68,23.03,23.02,0,0,3
19565,4.9858e+07,0,0.86,0,-0.68,23.03,23.02,0,0,3
19603,4.9868e+07,0,0.86,0,-0.68,23.03,23.02,0,0,3
19645,4.9878e+07,0,0.86,0,-0.68,23.03,23.02,0,0,3
19685,4.9888e+07,0,0.86,0,-0.68,23.03,23.02,0,0,3
19726,4.9898e+07,0,0.87,0,-0.68,23.03,23.01,0,0,3
19767,4.9908e+07,0,0.87,0,-0.68,23.02,23.01,0,0,3
19809,4.9918e+07,0,0.87,0,-0.68,23.02,23.01,0,0,3
19853,4.9929e+07,0,0.87,0,-0.68,23.02,23.01,0,0,3
19895,4.9939e+07,0,0.86,0,-0.68,23.02,23.01,0,0,3
19936,4.9949e+07,0,0.87,0,-0.68,23.02,23.01,0,0,3
19977,4.9959e+07,0,0.87,0,-0.69,23.02,23.01,0,0,3
20018,4.9969e+07,0,0.86,0,-0.69,23.02,23.01,0,0,3
20058,4.9979e+07,0,0.86,0,-0.69,23.02,23.01,0,0,3
20099,4.999e+07,0,0.86,0,-0.69,23.01,23,0,0,3
20139,5e+07,0,0.86,0,-0.68,23.01,23,0,0,3
20181,5.001e+07,0,0.86,0,-0.68,23.01,23,0,0,3
20221,5.0021e+07,0,0.86,0,-0.68,23.01,23,0,0,3
20267,5.0031e+07,0,0.86,0,-0.68,23.01,23,0,0.01,3
20309,5.0041e+07,0,0.86,0,-0.69,23.01,23,0,0.01,3
20349,5.0052e+07,0,0.86,0,-0.69,23.02,23.01,0,0.01,3
20391,5.0062e+07,0,0.86,0,-0.69,23.02,23.01,0,0.01,3
20431,5.0072e+07,0,0.86,0,-0.69,23.02,23.01,0,0.01,3
20472,5.0082e+07,0,0.86,0,-0.69,23.02,23,0,0.01,3
20512,5.0092e+07,0,0.86,0,-0.69,23.01,23,0,0.01,3
20553,5.0102e+07,0,0.86,0,-0.69,23.02,23.01,0,0.01,3
20594,5.0112e+07,0,0.86,0,-0.69,23.02,23,0,0.01,3
20634,5.0123e+07,0,0.86,0,-0.69,23.01,23,0,0.01,3
20680,5.0132e+07,0,0.86,0,-0.69,23.01,23,0,0,3
20720,5.0143e+07,0,0.86,0,-0.69,23.02,23.01,0,0,3
20762,5.0153e+07,0,0.86,0,-0.69,23.02,23.01,0,0,3
20802,5.0163e+07,0,0.86,0,-0.69,23.02,23.01,0,0,3
20840,5.0174e+07,0,0.86,0,-0.69,23.02,23.01,0,0,3
20881,5.0183e+07,0,0.86,0,-0.69,23.02,23.01,0,0,3
20921,5.0194e+07,0,0.86,0,-0.69,23.02,23.01,0,0,3
20962,5.0204e+07,0,0.86,0,-0.69,23.02,23.01,0,0,3
21002,5.0214e+07,0,0.86,0,-0.69,23.02,23.01,0,0,3
21042,5.0227e+07,0,0.86,0,-0.69,23.02,23.01,0,0,3
21086,5.0237e+07,0,0.86,0,-0.69,23.02,23.01,0,0,3
21128,5.0247e+07,0,0.86,0,-0.69,23.02,23.01,0,0,3
21170,5.0257e+07,0,0.86,0,-0.69,23.02,23.01,0,0,3
21210,5.0267e+07,0,0.86,0,-0.69,23.02,23.01,0,0,3
21254,5.028e+07,0,0.86,0,-0.69,23.02,23.01,0,0,3
21294,5.029e+07,0,0.86,0,-0.7,23.02,23.01,0,0,3
21336,5.03e+07,0,0.86,0,-0.7,23.02,23.01,0,0,3
21377,5.031e+07,0,0.86,0,-0.7,23.02,23.01,0,0,3
21419,5.032e+07,0,0.86,0,-0.7,23.02,23.01,0,0,3
21464,5.0331e+07,0,0.86,0,-0.7,23.02,23.01,0,0,3
21504,5.0341e+07,0,0.86,0,-0.7,23.03,23.02,0,0.01,3
21545,5.0351e+07,0,0.86,0,-0.7,23.03,23.02,0,0.01,3
21588,5.0361e+07,0,0.86,0,-0.7,23.03,23.02,0,0.01,3
21628,5.0371e+07,0,0.86,0,-0.7,23.03,23.02,0,0.01,3
21666,5.0381e+07,0,0.86,0,-0.7,23.03,23.02,0,0.01,3
21706,5.0391e+07,0,0.87,0,-0.7,23.03,23.02,0,0.01,3
21749,5.0404e+07,0,0.87,0,-0.7,23.03,23.02,0,0.01,3
21788,5.0414e+07,0,0.86,0,-0.7,23.03,23.01,0,0.01,3
21828,5.0424e+07,0,0.86,0,-0.7,23.03,23.01,0,0.01,3
21873,5.0435e+07,0,0.86,0,-0.7,23.02,23.01,0,0,3
21913,5.0445e+07,0,0.86,0,-0.7,23.02,23.01,0,0,3
21955,5.0455e+07,0,0.86,0,-0.7,23.02,23.01,0,0,3
21997,5.0465e+07,0,0.86,0,-0.7,23.02,23.01,0,0,3
22037,5.0475e+07,0,0.86,0,-0.7,23.02,23.01,0,0,3
22078,5.0485e+07,0,0.86,0,-0.7,23.02,23.01,0,0,3
22119,5.0495e+07,0,0.86,0,-0.7,23.02,23,0,0,3
22160,5.0506e+07,0,0.86,0,-0.7,23.02,23,0,0,3
22202,5.0516e+07,0,0.86,0,-0.7,23.02,23,0,0,3
22243,5.0526e+07,0,0.86,0,-0.7,23.02,23,0,0,3
22288,5.0536e+07,0,0.87,0,-0.7,23.01,23,0,0,3
22329,5.0546e+07,0,0.87,0,-0.7,23.01,23,0,0,3
22370,5.0556e+07,0,0.87,0,-0.7,23.01,23,0,0,3
22411,5.0566e+07,0,0.87,0,-0.7,23.01,23,0,0,3
22452,5.0576e+07,0,0.87,0,-0.7,23.01,23,0,0,3
22493,5.0587e+07,0,0.87,0,-0.7,23.01,23,0,0,3
22534,5.0597e+07,0,0.87,0,-0.7,23.01,23,0,0,3
22578,5.0607e+07,0,0.87,0,-0.7,23.01,23,0,0,3
22612,5.0617e+07,0,0.86,0,-0.7,23.01,23,0,0,3
22653,5.0628e+07,0,0.86,0,-0.7,23.01,22.99,0,0,3
22698,5.0637e+07,0,0.86,0,-0.7,23.01,22.99,0,0,3
22739,5.0648e+07,0,0.86,0,-0.7,23,22.99,0,0,3
22779,5.0658e+07,0,0.86,0,-0.7,23,22.99,0,0,3
22821,5.0668e+07,0,0.86,0,-0.7,23,22.99,0,0,3
22862,5.0678e+07,0,0.86,0,-0.7,23,22.99,0,0,3
22903,5.0689e+07,0,0.87,0,-0.7,23,22.99,0,0,3
22944,5.0698e+07,0,0.87,0,-0.7,23,22.99,0,0,3
22984,5.0709e+07,0,0.87,0,-0.7,23,22.99,0,0,3
23025,5.0719e+07,0,0.87,0,-0.7,23,22.99,0,0,3
23065,5.0729e+07,0,0.87,0,-0.7,23,22.99,0,0,3
23110,5.074e+07,0,0.87,0,-0.7,23,22.99,0,0,3
23152,5.075e+07,0,0.87,0,-0.7,23,22.99,0,0,3
23192,5.076e+07,0,0.87,0,-0.7,23,22.99,0,0,3
23233,5.077e+07,0,0.87,0,-0.7,23,22.99,0,0,3
23274,5.078e+07,0,0.87,0,-0.7,23,22.99,0,0,3
23315,5.0791e+07,0,0.87,0,-0.7,23,22.99,0,0,3
23357,5.0801e+07,0,0.87,0,-0.69,23,22.99,0,0,3
23399,5.0813e+07,0,0.87,0,-0.69,23,22.99,0,0,3
23439,5.0824e+07,0,0.87,0,-0.69,23,22.99,0,0,3
23479,5.0833e+07,0,0.87,0,-0.69,23,22.99,0,0,3
23524,5.0843e+07,0,0.87,0,-0.69,23,22.99,0,0,3
23567,5.0854e+07,0,0.87,0,-0.69,23,22.99,0,0,3
23607,5.0864e+07,0,0.87,0,-0.69,23,22.98,0,0,3
23649,5.0874e+07,0,0.87,0,-0.69,23,22.98,0,0,3
23689,5.0884e+07,0,0.87,0,-0.69,23,22.98,0,0,3
23730,5.0894e+07,0,0.88,0,-0.69,23,22.98,0,0,3
23770,5.0905e+07,0,0.88,0,-0.69,22.99,22.98,0,0,3
23811,5.0914e+07,0,0.88,0,-0.69,22.99,22.98,0,0,3
23853,5.0925e+07,0,0.88,0,-0.69,22.99,22.98,0,0,3
23893,5.0935e+07,0,0.88,0,-0.69,22.99,22.98,0,0,3
23939,5.0945e+07,0,0.88,0,-0.69,22.99,22.98,0,0,3
23979,5.0955e+07,0,0.87,0,-0.69,22.99,22.98,0,0,3
24022,5.0966e+07,0,0.87,0,-0.69,22.99,22.98,0,0,3
24062,5.0976e+07,0,0.87,0,-0.69,22.99,22.98,0,0,3
24104,5.0986e+07,0,0.87,0,-0.69,22.99,22.98,0,0,3
24144,5.0996e+07,0,0.87,0,-0.69,22.99,22.98,0,0,3
24186,5.1007e+07,0,0.87,0,-0.69,22.99,22.98,0,0,3
24231,5.1017e+07,0,0.88,0,-0.69,22.99,22.98,0,0,3
24265,5.1027e+07,0,0.88,0,-0.69,22.99,22.98,0,0,3
24307,5.1037e+07,0,0.88,0,-0.69,22.99,22.98,0,0,3
24352,5.1047e+07,0,0.88,0,-0.69,22.99,22.98,0,0,3
24393,5.1057e+07,0,0.88,0,-0.69,22.99,22.98,0,0,3
24434,5.1067e+07,0,0.88,0,-0.69,22.99,22.98,0,0,3
24474,5.1077e+07,0,0.88,0,-0.69,22.99,22.98,0,0,3
24517,5.1087e+07,0,0.87,0,-0.69,22.99,22.98,0,0,3
24557,5.1097e+07,0,0.87,0,-0.69,22.99,22.98,0,0,3
24598,5.1107e+07,0,0.87,0,-0.69,22.99,22.98,0,0,3
24638,5.1117e+07,0,0.87,0,-0.69,22.99,22.98,0,0,3
24679,5.1127e+07,0,0.87,0,-0.69,22.99,22.98,0,0,3
24720,5.1137e+07,0,0.87,0,-0.69,22.99,22.98,0,0,3
24765,5.1147e+07,0,0.87,0,-0.69,22.99,22.98,0,0.01,3
24806,5.1157e+07,0,0.87,0,-0.69,22.99,22.98,0,0.01,3
24846,5.1167e+07,0,0.87,0,-0.69,22.99,22.98,0,0.01,3
24887,5.1177e+07,0,0.87,0,-0.69,22.99,22.98,0,0.01,3
24929,5.1188e+07,0,0.87,0,-0.69,22.99,22.98,0,0.01,3
24970,5.1197e+07,0,0.87,0,-0.69,22.99,22.98,0,0.01,3
25011,5.1208e+07,0,0.87,0,-0.69,22.99,22.98,0,0.01,3
25053,5.1223e+07,0,0.87,0,-0.69,22.99,22.98,0,0.01,3
25095,5.1233e+07,0,0.87,0,-0.69,22.99,22.98,0,0.01,3
25139,5.1243e+07,0,0.87,0,-0.69,22.99,22.98,0,0.01,3
25180,5.1253e+07,0,0.87,0,-0.69,22.99,22.98,0,0.01,3
25220,5.1263e+07,0,0.87,0,-0.69,23,22.98,0,0.01,3
25262,5.1273e+07,0,0.87,0,-0.69,23,22.98,0,0.01,3
25303,5.1283e+07,0,0.87,0,-0.69,23,22.99,0,0.01,3
25343,5.1293e+07,0,0.87,0,-0.69,23,22.99,0,0.01,3
25384,5.1304e+07,0,0.87,0,-0.69,23,22.99,0,0.01,3
25425,5.1314e+07,0,0.87,0,-0.69,23,22.99,0,0.01,3
25466,5.1324e+07,0,0.87,0,-0.69,23,22.99,0,0.01,3
25506,5.1334e+07,0,0.87,0,-0.69,23,22.99,0,0.01,3
25552,5.1344e+07,0,0.87,0,-0.69,23,22.99,0,0.01,3
25593,5.1354e+07,0,0.87,0,-0.69,23,22.99,0,0.01,3
25633,5.1364e+07,0,0.87,0,-0.69,23.01,22.99,0,0.01,3
25674,5.1374e+07,0,0.87,0,-0.69,23.01,22.99,0,0.01,3
25715,5.1384e+07,0,0.87,0,-0.69,23.01,22.99,0,0.01,3
25756,5.1394e+07,0,0.87,0,-0.69,23.01,23,0,0.01,3
25796,5.1404e+07,0,0.87,0,-0.69,23.01,23,0,0.01,3
25840,5.1414e+07,0,0.87,0,-0.69,23.01,23,0,0.01,3
25875,5.1425e+07,0,0.88,0,-0.69,23.01,23,0,0.01,3
25916,5.1435e+07,0,0.88,0,-0.69,23.01,23,0,0.01,3
25961,5.1446e+07,0,0.88,0,-0.69,23.01,23,0,0.01,3
26001,5.1456e+07,0,0.88,0,-0.68,23.01,23,0,0.01,3
26042,5.1467e+07,0,0.88,0,-0.68,23.01,23,0,0.01,3
26082,5.1476e+07,0,0.88,0,-0.68,23.01,23,0,0.01,3
26123,5.1487e+07,0,0.88,0,-0.68,23.01,23,0,0.01,3
26165,5.1497e+07,0,0.88,0,-0.68,23.01,23,0,0.01,3
26207,5.1508e+07,0,0.88,0,-0.68,23.01,23,0,0.01,3
26248,5.1517e+07,0,0.88,0,-0.68,23.01,23,0,0.01,3
26289,5.1528e+07,0,0.88,0,-0.68,23.01,23,0,0.01,3
26331,5.1538e+07,0,0.88,0,-0.68,23.01,23,0,0.01,3
26375,5.1548e+07,0,0.88,0,-0.68,23.01,23,0,0.01,3
26416,5.1558e+07,0,0.88,0,-0.68,23.01,22.99,0,0.01,3
26457,5.1568e+07,0,0.88,0,-0.68,23.01,22.99,0,0.01,3
26498,5.1578e+07,0,0.88,0,-0.68,23.01,22.99,0,0.01,3
26543,5.1591e+07,0,0.88,0,-0.68,23.01,22.99,0,0.01,3
26582,5.1601e+07,0,0.88,0,-0.68,23.01,22.99,0,0.01,3
26617,5.1611e+07,0,0.88,0,-0.68,23.01,23,0,0.01,3
26658,5.1621e+07,0,0.88,0,-0.68,23.01,23,0,0.01,3
26701,5.1631e+07,0,0.88,0,-0.68,23.01,23,0,0.01,3
26741,5.1641e+07,0,0.88,0,-0.68,23.01,23,0,0.01,3
26786,5.1651e+07,0,0.88,0,-0.68,23.01,23,0,0.01,3
26826,5.1661e+07,0,0.88,0,-0.68,23.01,23,0,0.01,3
26867,5.1671e+07,0,0.88,0,-0.68,23.01,23,0,0.01,3
26907,5.1681e+07,0,0.88,0,-0.68,23.01,23,0,0.01,3
26948,5.1692e+07,0,0.88,0,-0.68,23.01,23,0,0.01,3
26989,5.1702e+07,0,0.88,0,-0.68,23.01,23,0,0.01,3
27030,5.1712e+07,0,0.88,0,-0.69,23.01,23,0,0.01,3
27071,5.1722e+07,0,0.88,0,-0.69,23.01,23,0,0.01,3
27111,5.1732e+07,0,0.88,0,-0.69,23.01,23,0,0.01,3
27153,5.1742e+07,0,0.88,0,-0.69,23.01,23,0,0.01,3
27198,5.1752e+07,0,0.88,0,-0.69,23.01,23,0,0,3
27239,5.1763e+07,0,0.88,0,-0.69,23.01,23,0,0,3
27280,5.1772e+07,0,0.88,0,-0.69,23.01,23,0,0,3
27320,5.1783e+07,0,0.88,0,-0.69,23.01,23,0,0,3
27361,5.1793e+07,0,0.88,0,-0.69,23.01,23,0,0,3
27403,5.1809e+07,0,0.88,0,-0.69,23.01,23,0,0,3
27445,5.1819e+07,0,0.88,0,-0.69,23.01,23,0,0,3
27485,5.183e+07,0,0.88,0,-0.69,23.01,23,0,0,3
27526,5.184e+07,0,0.88,0,-0.69,23.01,23,0,0,3
27569,5.185e+07,0,0.87,0,-0.69,23.01,23,0,0,3
27614,5.186e+07,0,0.87,0,-0.69,23.01,23,0,0.01,3
27656,5.187e+07,0,0.87,0,-0.69,23.01,23,0,0.01,3
27696,5.188e+07,0,0.87,0,-0.69,23.01,23,0,0.01,3
27737,5.189e+07,0,0.87,0,-0.69,23.01,23,0,0.01,3
27777,5.19e+07,0,0.87,0,-0.69,23.01,23,0,0.01,3
27817,5.191e+07,0,0.87,0,-0.69,23.01,23,0,0.01,3
27858,5.1921e+07,0,0.87,0,-0.69,23.01,23,0,0.01,3
27899,5.1931e+07,0,0.87,0,-0.69,23.01,23,0,0.01,3
27940,5.1941e+07,0,0.87,0,-0.69,23.01,23,0,0.01,3
27980,5.1951e+07,0,0.87,0,-0.69,23.01,23,0,0.01,3
28027,5.1962e+07,0,0.87,0,-0.69,23.01,23,0,0.01,3
28067,5.1972e+07,0,0.87,0,-0.69,23.01,23,0,0.01,3
28108,5.1982e+07,0,0.87,0,-0.69,23.01,23,0,0.01,3
28149,5.1991e+07,0,0.87,0,-0.69,23.01,23,0,0.01,3
28192,5.2002e+07,0,0.87,0,-0.69,23.01,23,0,0.01,3
28232,5.2015e+07,0,0.87,0,-0.7,23.01,23,0,0.01,3
28272,5.2025e+07,0,0.87,0,-0.7,23.01,23,0,0.01,3
28312,5.2035e+07,0,0.87,0,-0.7,23.01,23,0,0.01,3
28352,5.2045e+07,0,0.87,0,-0.7,23.01,23,0,0.01,3
28401,5.2056e+07,0,0.87,0,-0.7,23.01,23,0,0.01,3
28441,5.2066e+07,0,0.87,0,-0.7,23.01,23,0,0,3
28481,5.2076e+07,0,0.87,0,-0.7,23.01,23,0,0,3
28522,5.2086e+07,0,0.87,0,-0.7,23.01,23,0,0,3
28562,5.2096e+07,0,0.87,0,-0.7,23.01,23,0,0,3
28603,5.2106e+07,0,0.87,0,-0.7,23.01,23,0,0,3
28643,5.2117e+07,0,0.87,0,-0.7,23.01,23,0,0,3
28684,5.2127e+07,0,0.87,0,-0.7,23.01,23,0,0,3
28725,5.2137e+07,0,0.87,0,-0.7,23.01,23,0,0,3
28765,5.2147e+07,0,0.88,0,-0.7,23.01,23,0,0,3
28811,5.2157e+07,0,0.87,0,-0.7,23.01,23,0,0,3
28851,5.2168e+07,0,0.87,0,-0.7,23.01,23,0,0.01,3
28893,5.2177e+07,0,0.87,0,-0.7,23.01,23,0,0.01,3
28933,5.2187e+07,0,0.87,0,-0.7,23.01,23,0,0.01,3
28974,5.2198e+07,0,0.87,0,-0.7,23.01,23,0,0.01,3
29017,5.221e+07,0,0.87,0,-0.7,23.01,23,0,0.01,3
29051,5.2221e+07,0,0.87,0,-0.7,23.02,23,0,0.01,3
29093,5.2231e+07,0,0.87,0,-0.71,23.02,23,0,0.01,3
29133,5.2242e+07,0,0.88,0,-0.71,23.02,23,0,0.01,3
29174,5.2252e+07,0,0.88,0,-0.71,23.02,23,0,0.01,3
29219,5.2262e+07,0,0.88,0,-0.71,23.02,23,0,0,3
29260,5.2272e+07,0,0.88,0,-0.71,23.02,23,0,0,3
29301,5.2282e+07,0,0.88,0,-0.71,23.02,23,0,0,3
29342,5.2292e+07,0,0.88,0,-0.71,23.02,23.01,0,0,3
29383,5.2302e+07,0,0.88,0,-0.71,23.02,23,0,0,3
29423,5.2312e+07,0,0.88,0,-0.71,23.02,23,0,0,3
29464,5.2323e+07,0,0.88,0,-0.71,23.02,23,0,0,3
29505,5.2332e+07,0,0.88,0,-0.71,23.02,23,0,0,3
29546,5.2343e+07,0,0.88,0,-0.71,23.01,23,0,0,3
29587,5.2353e+07,0,0.88,0,-0.71,23.02,23,0,0,3
29632,5.2363e+07,0,0.88,0,-0.71,23.01,23,0,0.01,3
29674,5.2372e+07,0,0.88,0,-0.71,23.01,23,0,0.01,3
29714,5.2382e+07,0,0.88,0,-0.71,23.01,23,0,0.01,3
29755,5.2392e+07,0,0.88,0,-0.71,23.01,23,0,0.01,3
29796,5.2403e+07,0,0.88,0,-0.71,23.01,23,0,0.01,3
29839,5.2416e+07,0,0.89,0,-0.71,23.01,23,0,0.01,3
29877,5.2427e+07,0,0.89,0,-0.71,23.01,23,0,0.01,3
29918,5.2437e+07,0,0.88,0,-0.71,23.01,23,0,0.01,3
29958,5.2448e+07,0,0.88,0,-0.71,23.01,23,0,0.01,3
29999,5.2458e+07,0,0.88,0,-0.71,23.01,23,0,0.01,3
30049,5.2469e+07,0,0.88,0,-0.71,23.01,23,0,0.01,3
30091,5.2479e+07,0,0.88,0,-0.71,23.02,23,0,0.01,3
30131,5.2489e+07,0,0.88,0,-0.71,23.02,23,0,0.01,3
30174,5.2499e+07,0,0.87,0,-0.71,23.02,23,0,0.01,3
30215,5.2509e+07,0,0.87,0,-0.71,23.02,23.01,0,0.01,3
30256,5.2519e+07,0,0.87,0,-0.71,23.02,23.01,0,0.01,3
30297,5.2529e+07,0,0.87,0,-0.71,23.02,23,0,0.01,3
30337,5.2539e+07,0,0.87,0,-0.72,23.02,23,0,0.01,3
30378,5.2549e+07,0,0.87,0,-0.72,23.01,23,0,0.01,3
30419,5.2559e+07,0,0.88,0,-0.72,23.01,23,0,0.01,3
30464,5.2569e+07,0,0.88,0,-0.72,23.01,23,0,0.01,3
30506,5.2579e+07,0,0.88,0,-0.72,23.01,23,0,0.01,3
30546,5.2589e+07,0,0.88,0,-0.72,23.01,23,0,0.01,3
30589,5.2599e+07,0,0.88,0,-0.72,23.01,23,0,0.01,3
30629,5.2609e+07,0,0.88,0,-0.72,23.01,23,0,0.01,3
30669,5.262e+07,0,0.87,0,-0.72,23.01,23,0,0.01,3
30708,5.263e+07,0,0.87,0,-0.72,23.01,23,0,0.01,3
30753,5.2641e+07,0,0.87,0,-0.72,23.01,23,0,0.01,3
30798,5.2651e+07,0,0.87,0,-0.72,23.01,23,0,0.01,3
30843,5.2661e+07,0,0.87,0,-0.72,23.01,23,0,0.01,3
30892,5.2671e+07,0,0.87,0,-0.72,23.01,23,0,0.01,3
30936,5.2681e+07,0,0.87,0,-0.72,23.01,23,0,0.01,3
30982,5.2691e+07,0,0.87,0,-0.72,23.01,23,0,0.01,3
31029,5.2704e+07,0,0.87,0,-0.72,23.01,23,0,0.01,3
31075,5.2714e+07,0,0.87,0,-0.72,23.01,23,0,0.01,3
31120,5.2724e+07,0,0.87,0,-0.72,23.01,23,0,0.01,3
31164,5.2734e+07,0,0.87,0,-0.72,23.01,23,0,0.01,3
31209,5.2745e+07,0,0.87,0,-0.72,23.01,23,0,0.01,3
31254,5.2754e+07,0,0.87,0,-0.72,23.01,23,0,0.01,3
31299,5.2765e+07,0,0.87,0,-0.72,23.01,23,0,0.01,3
31347,5.2775e+07,0,0.87,0,-0.72,23.01,23,0,0.01,3
31392,5.2785e+07,0,0.87,0,-0.72,23.01,22.99,0,0.01,3
31438,5.2794e+07,0,0.87,0,-0.72,23.01,23,0,0.01,3
31478,5.2806e+07,0,0.87,0,-0.72,23.01,23,0,0.01,3
31526,5.2819e+07,0,0.87,0,-0.72,23.01,23,0,0.01,3
31572,5.2829e+07,0,0.87,0,-0.72,23.01,23,0,0.01,3
31617,5.2839e+07,0,0.87,0,-0.72,23.01,23,0,0.01,3
31662,5.2849e+07,0,0.87,0,-0.72,23.01,23,0,0.01,3
31707,5.2859e+07,0,0.87,0,-0.72,23.01,23,0,0.01,3
31755,5.2869e+07,0,0.87,0,-0.72,23.01,23,0,0.01,3
31801,5.2879e+07,0,0.87,0,-0.72,23.01,23,0,0.01,3
31846,5.2889e+07,0,0.87,0,-0.72,23.01,23,0,0.01,3
31890,5.29e+07,0,0.87,0,-0.72,23.01,23,0,0.01,3
31935,5.291e+07,0,0.87,0,-0.72,23.01,23,0,0.01,3
31980,5.292e+07,0,0.87,0,-0.72,23.01,23,0,0.01,3
32024,5.293e+07,0,0.87,0,-0.72,23.01,23,0,0.01,3
32070,5.294e+07,0,0.87,0,-0.72,23.01,23,0,0.01,3
32114,5.295e+07,0,0.87,0,-0.72,23.02,23,0,0.01,3
32159,5.2961e+07,0,0.87,0,-0.72,23.02,23,0,0.01,3
32206,5.2971e+07,0,0.87,0,-0.72,23.02,23.01,0,0.01,3
32252,5.2981e+07,0,0.87,0,-0.72,23.02,23.01,0,0.01,3
32300,5.2991e+07,0,0.87,0,-0.72,23.02,23.01,0,0.01,3
32346,5.3002e+07,0,0.87,0,-0.72,23.02,23.01,0,0.01,3
32388,5.3012e+07,0,0.87,0,-0.72,23.02,23.01,0,0.01,3
32430,5.3023e+07,0,0.87,0,-0.72,23.02,23.01,0,0.01,3
32475,5.3034e+07,0,0.87,0,-0.72,23.02,23.01,0,0.01,3
32521,5.3044e+07,0,0.87,0,-0.72,23.02,23.01,0,0.01,3
32566,5.3054e+07,0,0.87,0,-0.72,23.02,23.01,0,0.01,3
32611,5.3064e+07,0,0.87,0,-0.72,23.02,23.01,0,0.01,3
32661,5.3075e+07,0,0.87,0,-0.72,23.02,23.01,0,0.01,3
32706,5.3085e+07,0,0.87,0,-0.72,23.02,23.01,0,0.01,3
32752,5.3095e+07,0,0.87,0,-0.72,23.02,23.01,0,0.01,3
32796,5.3106e+07,0,0.87,0,-0.72,23.02,23.01,0,0.01,3
32844,5.3118e+07,0,0.87,0,-0.72,23.02,23.01,0,0.01,3
32888,5.3128e+07,0,0.87,0,-0.72,23.02,23.01,0,0.01,3
32933,5.3138e+07,0,0.87,0,-0.72,23.02,23.01,0,0.01,3
32978,5.3148e+07,0,0.87,0,-0.72,23.02,23.01,0,0.01,3
33024,5.3159e+07,0,0.87,0,-0.72,23.02,23.01,0,0.01,3
33069,5.3169e+07,0,0.87,0,-0.72,23.01,23,0,0.01,3
33117,5.3179e+07,0,0.87,0,-0.72,23.01,23,0,0.01,3
33162,5.3189e+07,0,0.87,0,-0.72,23.01,23,0,0.01,3
33207,5.32e+07,0,0.87,0,-0.72,23.01,23,0,0.01,3
33254,5.321e+07,0,0.87,0,-0.72,23.01,23,0.01,0.01,3
33292,5.3221e+07,0,0.87,0,-0.72,23.01,23,0.01,0.01,3
33337,5.3231e+07,0,0.87,0,-0.72,23.01,23,0.01,0.01,3
33382,5.3242e+07,0,0.87,0,-0.72,23.01,22.99,0.01,0.01,3
33428,5.3252e+07,0,0.88,0,-0.72,23,22.99,0.01,0.01,3
33473,5.3262e+07,0,0.87,0,-0.72,23,22.99,0.01,0.01,3
33517,5.3272e+07,0,0.87,0,-0.72,23,22.99,0.01,0.01,3
33566,5.3282e+07,0,0.87,0,-0.72,23,22.99,0.01,0.01,3
33611,5.3293e+07,0,0.87,0,-0.72,23,22.99,0.01,0.01,3
33656,5.3303e+07,0,0.87,0,-0.72,23,22.99,0.01,0.01,3
33701,5.3312e+07,0,0.87,0,-0.72,23,22.99,0.01,0.01,3
33742,5.3323e+07,0,0.87,0,-0.72,23,22.99,0.01,0.01,3
33787,5.3333e+07,0,0.87,0,-0.72,23,22.99,0.01,0.01,3
33831,5.3343e+07,0,0.87,0,-0.72,22.99,22.98,0.01,0.01,3
33878,5.3353e+07,0,0.87,0,-0.72,23,22.98,0.01,0.01,3
33923,5.3363e+07,0,0.87,0,-0.72,22.99,22.98,0.01,0.01,3
33967,5.3373e+07,0,0.87,0,-0.72,22.99,22.98,0.01,0.01,3
34016,5.3383e+07,0,0.88,0,-0.71,22.99,22.98,0.01,0.01,3
34062,5.3393e+07,0,0.88,0,-0.72,22.99,22.98,0.01,0.01,3
34101,5.3404e+07,0,0.88,0,-0.72,22.99,22.98,0.01,0.01,3
34146,5.3415e+07,0,0.88,0,-0.72,22.99,22.98,0.01,0.01,3
34190,5.3425e+07,0,0.88,0,-0.71,22.99,22.98,0.01,0.01,3
34234,5.3436e+07,0,0.88,0,-0.72,22.99,22.98,0.01,0.01,3
34278,5.3446e+07,0,0.87,0,-0.72,22.99,22.98,0.01,0.01,3
34325,5.3456e+07,0,0.87,0,-0.72,22.99,22.98,0.01,0.01,3
34369,5.3466e+07,0,0.87,0,-0.72,22.99,22.98,0.01,0.01,3
34413,5.3476e+07,0,0.87,0,-0.72,22.99,22.98,0.01,0.01,3
34464,5.3486e+07,0,0.87,0,-0.72,22.99,22.98,0.01,0.01,3
34508,5.3496e+07,0,0.87,0,-0.72,22.99,22.98,0.01,0.01,3
34553,5.3506e+07,0,0.87,0,-0.72,22.99,22.98,0.01,0.01,3
34598,5.3517e+07,0,0.87,0,-0.72,22.99,22.98,0.01,0.01,3
34646,5.3529e+07,0,0.88,0,-0.72,22.99,22.98,0.01,0.01,3
34690,5.3539e+07,0,0.88,0,-0.72,22.99,22.98,0.01,0.01,3
34735,5.3549e+07,0,0.88,0,-0.72,22.99,22.98,0.01,0.01,3
34780,5.3559e+07,0,0.88,0,-0.72,22.99,22.98,0.01,0.01,3
34825,5.357e+07,0,0.88,0,-0.72,22.99,22.98,0.01,0.01,3
34870,5.358e+07,0,0.88,0,-0.72,22.99,22.98,0.01,0.01,3
34918,5.359e+07,0,0.87,0,-0.72,23,22.99,0.01,0.01,3
34963,5.36e+07,0,0.87,0,-0.72,23,22.99,0.01,0.01,3
35007,5.361e+07,0,0.87,0,-0.72,23,22.99,0.01,0.01,3
35053,5.3621e+07,0,0.87,0,-0.72,23,22.99,0.02,0.01,3
35094,5.3632e+07,0,0.87,0,-0.72,22.99,22.98,0.02,0.01,3
35138,5.3642e+07,0,0.87,0,-0.72,22.99,22.98,0.02,0.01,3
35183,5.3652e+07,0,0.87,0,-0.72,22.99,22.98,0.02,0.01,3
35228,5.3662e+07,0,0.87,0,-0.72,22.99,22.98,0.02,0.01,3
35273,5.3672e+07,0,0.87,0,-0.72,22.99,22.98,0.02,0.01,3
35318,5.3683e+07,0,0.87,0,-0.72,22.99,22.98,0.02,0.01,3
35367,5.3693e+07,0,0.87,0,-0.72,22.99,22.98,0.02,0.01,3
35412,5.3702e+07,0,0.87,0,-0.72,22.99,22.98,0.02,0.01,3
35456,5.3713e+07,0,0.87,0,-0.72,22.99,22.98,0.02,0.01,3
35501,5.3723e+07,0,0.87,0,-0.72,22.99,22.98,0.02,0.01,3
35546,5.3733e+07,0,0.87,0,-0.72,22.99,22.98,0.02,0.01,3
35591,5.3743e+07,0,0.87,0,-0.72,22.99,22.98,0.02,0.01,3
35636,5.3754e+07,0,0.87,0,-0.72,22.99,22.98,0.02,0.01,3
35680,5.3764e+07,0,0.87,0,-0.72,22.99,22.98,0.02,0.01,3
35726,5.3773e+07,0,0.87,0,-0.72,22.99,22.98,0.02,0.01,3
35771,5.3784e+07,0,0.87,0,-0.72,22.98,22.97,0.02,0.01,3
35821,5.3794e+07,0,0.87,0,-0.72,22.98,22.97,0.02,0.01,3
35867,5.3803e+07,0,0.87,0,-0.72,22.98,22.97,0.02,0.01,3
35906,5.3814e+07,0,0.87,0,-0.72,22.98,22.97,0.02,0.01,3
35951,5.3825e+07,0,0.87,0,-0.72,22.98,22.97,0.02,0.01,3
35995,5.3835e+07,0,0.87,0,-0.72,22.98,22.97,0.02,0.01,3
36040,5.3845e+07,0,0.87,0,-0.72,22.98,22.96,0.02,0.01,3
36085,5.3855e+07,0,0.87,0,-0.72,22.97,22.96,0.02,0.01,3
36130,5.3866e+07,0,0.87,0,-0.72,22.97,22.96,0.02,0.01,3
36174,5.3876e+07,0,0.87,0,-0.72,22.97,22.96,0.02,0.01,3
36221,5.3886e+07,0,0.87,0,-0.72,22.97,22.96,0.02,0.01,3
36270,5.3896e+07,0,0.87,0,-0.72,22.97,22.96,0.02,0.01,3
36314,5.3906e+07,0,0.88,0,-0.72,22.97,22.96,0.02,0.01,3
36359,5.3916e+07,0,0.88,0,-0.72,22.97,22.96,0.02,0.01,3
36404,5.3927e+07,0,0.88,0,-0.72,22.97,22.95,0.02,0.01,3
36449,5.3937e+07,0,0.88,0,-0.72,22.97,22.95,0.02,0.01,3
36494,5.3947e+07,0,0.88,0,-0.72,22.96,22.95,0.02,0.01,3
36539,5.3956e+07,0,0.88,0,-0.72,22.96,22.95,0.02,0.01,3
36585,5.3966e+07,0,0.88,0,-0.72,22.96,22.95,0.02,0.01,3
36631,5.3977e+07,0,0.88,0,-0.72,22.96,22.95,0.02,0.01,3
36677,5.3987e+07,0,0.87,0,-0.72,22.96,22.95,0.02,0.01,3
36725,5.3997e+07,0,0.87,0,-0.72,22.96,22.95,0.02,0.01,3
36768,5.4007e+07,0,0.87,0,-0.72,22.96,22.95,0.03,0.01,3
36810,5.4018e+07,0,0.87,0,-0.72,22.96,22.95,0.03,0.01,3
36856,5.4028e+07,0,0.87,0,-0.72,22.96,22.95,0.03,0.01,3
36900,5.4038e+07,0,0.87,0,-0.72,22.96,22.95,0.03,0.01,3
36945,5.4048e+07,0,0.88,0,-0.72,22.96,22.95,0.03,0.01,3
36989,5.4058e+07,0,0.88,0,-0.72,22.96,22.95,0.03,0.01,3
37034,5.4068e+07,0,0.88,0,-0.72,22.96,22.95,0.03,0.01,3
37078,5.4078e+07,0,0.88,0,-0.72,22.96,22.95,0.03,0.01,3
37128,5.4088e+07,0,0.88,0,-0.72,22.96,22.95,0.03,0.01,3
37177,5.4098e+07,0,0.88,0,-0.72,22.96,22.94,0.03,0.01,3
37221,5.4108e+07,0,0.88,0,-0.72,22.95,22.94,0.03,0.01,3
37266,5.4118e+07,0,0.88,0,-0.72,22.95,22.94,0.03,0.01,3
37310,5.4128e+07,0,0.88,0,-0.72,22.95,22.94,0.03,0.01,3
37355,5.4138e+07,0,0.88,0,-0.72,22.95,22.94,0.03,0.01,3
37397,5.4148e+07,0,0.88,0,-0.72,22.95,22.94,0.03,0.01,3
37441,5.4158e+07,0,0.88,0,-0.72,22.95,22.94,0.03,0.01,3
37486,5.4168e+07,0,0.88,0,-0.72,22.95,22.94,0.03,0.01,3
37531,5.4178e+07,0,0.88,0,-0.72,22.95,22.94,0.03,0.01,3
37576,5.4189e+07,0,0.88,0,-0.72,22.95,22.94,0.03,0.01,3
37625,5.4199e+07,0,0.88,0,-0.72,22.95,22.94,0.03,0.01,3
37672,5.4209e+07,0,0.88,0,-0.72,22.95,22.94,0.03,0.01,3
37711,5.4219e+07,0,0.88,0,-0.72,22.95,22.94,0.03,0.01,3
37756,5.4229e+07,0,0.88,0,-0.72,22.95,22.94,0.03,0.01,3
37804,5.4242e+07,0,0.88,0,-0.72,22.95,22.94,0.03,0.01,3
37848,5.4252e+07,0,0.88,0,-0.72,22.95,22.94,0.03,0.01,3
37893,5.4262e+07,0,0.88,0,-0.72,22.96,22.94,0.03,0.01,3
37938,5.4272e+07,0,0.88,0,-0.72,22.95,22.94,0.03,0.01,3
37983,5.4282e+07,0,0.88,0,-0.72,22.95,22.94,0.03,0.01,3
38028,5.4292e+07,0,0.88,0,-0.72,22.95,22.94,0.03,0.01,3
38077,5.4303e+07,0,0.88,0,-0.72,22.95,22.94,0.03,0.01,3
38122,5.4313e+07,0,0.88,0,-0.72,22.95,22.94,0.03,0.01,3
38166,5.4323e+07,0,0.88,0,-0.72,22.95,22.94,0.03,0.01,3
38212,5.4333e+07,0,0.87,0,-0.72,22.95,22.94,0.03,0.01,3
38257,5.4343e+07,0,0.88,0,-0.72,22.95,22.94,0.03,0.01,3
38298,5.4353e+07,0,0.88,0,-0.72,22.96,22.94,0.03,0.01,3
38343,5.4363e+07,0,0.88,0,-0.72,22.96,22.95,0.03,0.01,3
38387,5.4373e+07,0,0.88,0,-0.72,22.96,22.95,0.03,0.01,3
38433,5.4383e+07,0,0.88,0,-0.72,22.96,22.95,0.03,0.01,3
38478,5.4393e+07,0,0.88,0,-0.72,22.96,22.95,0.03,0.01,3
38527,5.4403e+07,0,0.88,0,-0.72,22.96,22.95,0.03,0.01,3
38574,5.4413e+07,0,0.88,0,-0.72,22.96,22.95,0.03,0.01,3
38612,5.4423e+07,0,0.88,0,-0.71,22.96,22.95,0.03,0.01,3
38658,5.4434e+07,0,0.88,0,-0.71,22.96,22.95,0.03,0.01,3
38703,5.4444e+07,0,0.88,0,-0.71,22.96,22.95,0.03,0.01,3
38747,5.4455e+07,0,0.87,0,-0.71,22.96,22.95,0.03,0.01,3
38792,5.4465e+07,0,0.87,0,-0.71,22.96,22.95,0.03,0.01,3
38840,5.4475e+07,0,0.87,0,-0.71,22.96,22.95,0.03,0.01,3
38885,5.4485e+07,0,0.87,0,-0.71,22.96,22.95,0.03,0.01,3
38929,5.4496e+07,0,0.87,0,-0.71,22.96,22.95,0.03,0.01,3
38978,5.4506e+07,0,0.87,0,-0.72,22.96,22.95,0.03,0.01,3
39024,5.4516e+07,0,0.87,0,-0.71,22.96,22.95,0.03,0.01,3
39068,5.4527e+07,0,0.88,0,-0.71,22.96,22.95,0.03,0.01,3
39114,5.4536e+07,0,0.88,0,-0.71,22.95,22.94,0.03,0.01,3
39158,5.4547e+07,0,0.87,0,-0.71,22.95,22.94,0.03,0.01,3
39203,5.4557e+07,0,0.87,0,-0.71,22.95,22.94,0.03,0.01,3
39247,5.4568e+07,0,0.87,0,-0.7,22.95,22.93,0.03,0.01,3
39292,5.4577e+07,0,0.87,0,-0.7,22.95,22.94,0.03,0.01,3
39336,5.4587e+07,0,0.87,0,-0.71,22.95,22.94,0.03,0.01,3
39381,5.4598e+07,0,0.88,0,-0.72,22.96,22.95,0.03,0.01,3
39430,5.4608e+07,0,0.88,0,-0.72,22.97,22.96,0.03,0.01,3
39478,5.4624e+07,0,0.88,0,-0.71,22.98,22.97,0.04,0.01,3
39523,5.4634e+07,0,0.88,0,-0.71,22.98,22.97,0.04,0.01,3
39568,5.4645e+07,0,0.88,0,-0.71,22.98,22.97,0.04,0.01,3
39613,5.4655e+07,0,0.88,0,-0.71,22.98,22.97,0.04,0.01,3
39657,5.4665e+07,0,0.87,0,-0.71,22.98,22.97,0.04,0.01,3
39702,5.4676e+07,0,0.87,0,-0.71,22.97,22.96,0.04,0.01,3
39747,5.4686e+07,0,0.88,0,-0.71,22.96,22.95,0.04,0.01,3
39791,5.4697e+07,0,0.88,0,-0.71,22.96,22.95,0.04,0.01,3
39841,5.4707e+07,0,0.89,0,-0.71,22.95,22.94,0.04,0.01,3
39885,5.4717e+07,0,0.89,0,-0.71,22.95,22.94,0.04,0.01,3
39931,5.4728e+07,0,0.88,0,-0.71,22.95,22.94,0.04,0.01,3
39975,5.4738e+07,0,0.89,0,-0.71,22.96,22.95,0.04,0.01,3
40020,5.4748e+07,0,0.89,0,-0.71,22.96,22.95,0.04,0.01,3
40065,5.4758e+07,0,0.88,0,-0.71,22.97,22.95,0.04,0.01,3
40109,5.4769e+07,0,0.88,0,-0.71,22.97,22.96,0.04,0.01,3
40154,5.4779e+07,0,0.88,0,-0.71,22.98,22.97,0.04,0.01,3
40198,5.4789e+07,0,0.88,0,-0.71,22.98,22.97,0.04,0.01,3
40245,5.48e+07,0,0.88,0,-0.71,22.98,22.97,0.04,0.01,3
40290,5.4814e+07,0,0.88,0,-0.71,22.98,22.97,0.03,0.01,3
40335,5.4824e+07,0,0.88,0,-0.71,22.98,22.97,0.03,0.01,3
40380,5.4834e+07,0,0.89,0,-0.71,22.97,22.96,0.03,0.01,3
40424,5.4844e+07,0,0.89,0,-0.72,22.97,22.96,0.03,0.01,3
40470,5.4854e+07,0,0.89,0,-0.71,22.96,22.95,0.03,0.01,3
40515,5.4864e+07,0,0.89,0,-0.72,22.96,22.94,0.03,0.01,3
40560,5.4875e+07,0,0.89,0,-0.71,22.96,22.95,0.03,0.01,3
40594,5.4905e+07,0,0.88,0,-0.71,22.96,22.95,0.03,0.01,3
40642,5.4915e+07,0,0.88,0,-0.7,22.97,22.96,0.03,0.01,3
40685,5.4924e+07,0,0.87,0,-0.71,22.97,22.96,0.03,0.01,3
40730,5.4935e+07,0,0.88,0,-0.7,22.98,22.97,0.03,0.01,3
40774,5.4945e+07,0,0.87,0,-0.71,22.98,22.97,0.03,0.01,3
40819,5.4956e+07,0,0.87,0,-0.7,22.99,22.98,0.03,0.01,3
40865,5.4965e+07,0,0.87,0,-0.71,22.99,22.98,0.03,0.01,3
40914,5.4978e+07,0,0.88,0,-0.69,22.98,22.97,0.03,0.01,3
40959,5.4988e+07,0,0.87,0,-0.7,22.98,22.97,0.03,0.01,3
41003,5.4998e+07,0,0.87,0,-0.69,22.98,22.97,0.03,0.01,3
41051,5.5008e+07,0,0.87,0,-0.7,22.97,22.96,0.03,0.01,3
41093,5.5019e+07,0,0.87,0,-0.69,22.96,22.95,0.03,0.01,3
41138,5.5029e+07,0,0.86,0,-0.69,22.97,22.96,0.03,0.01,3
41182,5.5039e+07,0,0.86,0,-0.69,22.96,22.95,0.03,0.01,3
41231,5.5052e+07,0,0.92,0,-0.71,22.97,22.96,0.03,0.01,3
41276,5.5063e+07,0,0.91,0,-0.72,22.96,22.95,0.03,0.01,3
41320,5.5073e+07,0,0.91,0,-0.72,22.97,22.96,0.03,0.01,3
41365,5.5083e+07,0,0.91,0,-0.73,22.97,22.96,0.03,0.01,3
41411,5.5093e+07,0,0.91,0,-0.73,22.98,22.97,0.03,0.01,3
41455,5.5103e+07,0,0.89,0,-0.73,22.98,22.97,0.03,0.01,3
41506,5.5113e+07,0,0.89,0,-0.72,22.99,22.98,0.03,0.01,3
41551,5.5123e+07,0,0.88,0,-0.71,22.99,22.98,0.03,0,3
41597,5.5133e+07,0,0.88,0,-0.71,22.98,22.97,0.03,0,3
41642,5.5143e+07,0,0.87,0,-0.7,22.99,22.97,0.03,0,3
41687,5.5154e+07,0,0.87,0,-0.7,22.98,22.97,0.03,0,3
41732,5.5164e+07,0,0.86,0,-0.69,22.98,22.97,0.03,0,3
41780,5.5176e+07,0,0.87,0,-0.71,22.97,22.96,0.03,0,3
41825,5.5187e+07,0,0.88,0,-0.7,22.97,22.96,0.03,0,3
41869,5.5197e+07,0,0.91,0,-0.72,22.96,22.95,0.03,0,3
41916,5.5207e+07,0,0.92,0,-0.71,22.96,22.95,0.03,0,3
41957,5.5218e+07,0,0.91,0,-0.73,22.97,22.96,0.02,0.01,3
42004,5.5228e+07,0,0.89,0,-0.72,22.97,22.96,0.02,0.01,3
42050,5.5238e+07,0,0.88,0,-0.73,22.97,22.96,0.02,0.01,3
42095,5.5248e+07,0,0.87,0,-0.72,22.97,22.96,0.02,0.01,3
42139,5.5258e+07,0,0.86,0,-0.72,22.98,22.97,0.02,0.01,3
42183,5.5268e+07,0,0.84,0,-0.72,22.98,22.97,0.02,0.01,3
42227,5.5278e+07,0,0.84,0,-0.71,22.98,22.97,0.02,0.01,3
42273,5.5288e+07,0,0.83,0,-0.71,22.98,22.97,0.02,0.01,3
42317,5.5298e+07,0,0.84,0,-0.7,22.98,22.97,0.02,0.01,3
42364,5.5308e+07,0,0.84,0,-0.71,22.98,22.97,0.02,0.01,3
42411,5.5318e+07,0,0.86,0,-0.69,22.98,22.97,0.02,0.01,3
42458,5.5328e+07,0,0.86,0,-0.72,22.97,22.96,0.02,0.01,3
42503,5.5339e+07,0,0.88,0,-0.69,22.97,22.96,0.02,0.01,3
42551,5.5351e+07,0,0.88,0,-0.73,22.97,22.96,0.02,0.01,3
42599,5.5364e+07,0,0.84,0,-0.71,22.96,22.95,0.02,0.01,3
42643,5.5375e+07,0,0.85,0,-0.69,22.97,22.96,0.02,0.01,3
42688,5.5385e+07,0,0.88,0,-0.73,22.97,22.96,0.02,0.01,3
42733,5.5395e+07,0,0.9,0,-0.71,22.97,22.96,0.02,0.01,3
42778,5.5406e+07,0,0.9,0,-0.73,22.98,22.96,0.02,0.01,3
42822,5.5416e+07,0,0.88,0,-0.71,22.98,22.97,0.02,0.01,3
42867,5.5427e+07,0,0.87,0,-0.73,22.98,22.97,0.02,0.01,3
42913,5.5437e+07,0,0.86,0,-0.7,22.99,22.98,0.02,0.01,3
42957,5.5447e+07,0,0.85,0,-0.72,22.99,22.98,0.02,0.01,3
43005,5.5457e+07,0,0.85,0,-0.71,22.99,22.98,0.02,0.01,3
43050,5.5467e+07,0,0.87,0,-0.71,23,22.99,0.02,0.01,3
43094,5.5477e+07,0,0.87,0,-0.71,22.98,22.97,0.02,0.01,3
43138,5.5487e+07,0,0.89,0,-0.71,23,22.99,0.02,0.01,3
43183,5.5498e+07,0,0.89,0,-0.73,22.97,22.96,0.02,0.01,3
43228,5.5507e+07,0,0.92,0,-0.7,23,22.99,0.02,0.01,3
43272,5.5517e+07,0,0.91,0,-0.74,22.97,22.95,0.02,0.01,3
43324,5.553e+07,0,0.88,0,-0.69,22.99,22.98,0.02,0.01,3
43368,5.554e+07,0,0.86,0,-0.73,22.98,22.97,0.02,0.01,3
43414,5.555e+07,0,0.85,0,-0.7,22.98,22.97,0.02,0.01,3
43460,5.5561e+07,0,0.85,0,-0.72,22.99,22.98,0.02,0.01,3
43507,5.5574e+07,0,0.88,0,-0.74,22.98,22.97,0.02,0.01,3
43551,5.5584e+07,0,0.9,0,-0.7,23,22.99,0.02,0.01,3
43596,5.5594e+07,0,0.88,0,-0.74,22.98,22.97,0.02,0.01,3
43641,5.5604e+07,0,0.88,0,-0.7,23.01,23,0.02,0.01,3
43688,5.5614e+07,0,0.87,0,-0.73,22.99,22.98,0.02,0.01,3
43732,5.5627e+07,0,0.86,0,-0.71,22.99,22.98,0.01,0.01,3
43778,5.5637e+07,0,0.87,0,-0.71,23,22.99,0.01,0.01,3
43824,5.5647e+07,0,0.88,0,-0.72,22.98,22.97,0.01,0.01,3
43869,5.5656e+07,0,0.9,0,-0.71,23,22.99,0.01,0.01,3
43914,5.5667e+07,0,0.89,0,-0.73,22.97,22.96,0.01,0.01,3
43958,5.5677e+07,0,0.9,0,-0.71,22.99,22.98,0.01,0.01,3
44003,5.5687e+07,0,0.9,0,-0.73,22.98,22.97,0.01,0.01,3
44048,5.5697e+07,0,0.9,0,-0.7,22.99,22.98,0.01,0.01,3
44093,5.5707e+07,0,0.89,0,-0.72,22.98,22.97,0.01,0.01,3
44138,5.5717e+07,0,0.88,0,-0.69,23,22.99,0.01,0.01,3
44185,5.5727e+07,0,0.88,0,-0.71,22.99,22.98,0.01,0.01,3
44231,5.5737e+07,0,0.87,0,-0.69,23,22.99,0.01,0.01,3
44276,5.5747e+07,0,0.86,0,-0.71,23,22.99,0.01,0.01,3
44322,5.5757e+07,0,0.86,0,-0.69,23,22.99,0.01,0.01,3
44366,5.5767e+07,0,0.87,0,-0.72,23,22.99,0.01,0.01,3
44411,5.5777e+07,0,0.87,0,-0.7,22.99,22.98,0.01,0.01,3
44456,5.5788e+07,0,0.88,0,-0.72,23.01,22.99,0.01,0.01,3
44502,5.5798e+07,0,0.88,0,-0.72,22.99,22.98,0.01,0.01,3
44547,5.5808e+07,0,0.9,0,-0.7,23.01,23,0.01,0.01,3
44593,5.5818e+07,0,0.88,0,-0.73,22.98,22.97,0.01,0.01,3
44637,5.5829e+07,0,0.89,0,-0.68,23,22.99,0.01,0.01,3
44683,5.5839e+07,0,0.88,0,-0.73,22.98,22.97,0.01,0.01,3
44727,5.5849e+07,0,0.88,0,-0.69,22.99,22.98,0.01,0.01,3
44775,5.5859e+07,0,0.86,0,-0.73,22.99,22.98,0.01,0.01,3
44822,5.5872e+07,0,0.86,0,-0.72,22.98,22.97,0.01,0.01,3
44867,5.5882e+07,0,0.88,0,-0.7,23,22.99,0.01,0.01,3
44911,5.5892e+07,0,0.87,0,-0.72,22.98,22.97,0.01,0.01,3
44956,5.5902e+07,0,0.89,0,-0.68,23.01,23,0.01,0.01,3
45001,5.5911e+07,0,0.88,0,-0.72,22.99,22.98,0.01,0.01,3
45046,5.5922e+07,0,0.9,0,-0.68,23.01,23,0.01,0.01,3
45095,5.5931e+07,0,0.88,0,-0.72,22.99,22.98,0.01,0.01,3
45139,5.5942e+07,0,0.89,0,-0.68,23.01,22.99,0.01,0.01,3
45186,5.5952e+07,0,0.88,0,-0.73,23,22.99,0.01,0.01,3
45232,5.5962e+07,0,0.89,0,-0.69,22.99,22.98,0.01,0.01,3
45277,5.5972e+07,0,0.88,0,-0.71,23,22.99,0.01,0.01,3
45322,5.5983e+07,0,0.87,0,-0.7,22.98,22.97,0.01,0.01,3
45366,5.5992e+07,0,0.89,0,-0.71,23,22.99,0.01,0.01,3
45410,5.6003e+07,0,0.89,0,-0.72,22.97,22.96,0.01,0.01,3
45452,5.6013e+07,0,0.91,0,-0.69,23.01,23,0.01,0.01,3
45497,5.6023e+07,0,0.9,0,-0.72,22.99,22.97,0.01,0.01,3
45546,5.6034e+07,0,0.91,0,-0.69,23.01,23,0.01,0.01,3
45590,5.6044e+07,0,0.88,0,-0.72,22.99,22.98,0.01,0.01,3
45635,5.6053e+07,0,0.89,0,-0.7,23.01,23,0.01,0.01,3
45679,5.6063e+07,0,0.88,0,-0.72,23.01,23,0.01,0.01,3
45729,5.6076e+07,0,0.86,0,-0.71,22.99,22.98,0.01,0.01,3
45773,5.6086e+07,0,0.87,0,-0.71,23.01,23,0.01,0.01,3
45818,5.6097e+07,0,0.88,0,-0.71,23,22.99,0.01,0.01,3
45863,5.6107e+07,0,0.9,0,-0.71,23.01,23,0.01,0.01,3
45907,5.6116e+07,0,0.9,0,-0.71,22.99,22.98,0.01,0.01,3
45958,5.6127e+07,0,0.9,0,-0.7,23.01,23,0.01,0.01,3
46003,5.6137e+07,0,0.9,0,-0.71,23,22.98,0.01,0.01,3
46048,5.6147e+07,0,0.91,0,-0.71,23,22.99,0.01,0.01,3
46092,5.6156e+07,0,0.9,0,-0.72,22.99,22.98,0.01,0.01,3
46139,5.6167e+07,0,0.89,0,-0.71,23,22.99,0.01,0.01,3
46184,5.6177e+07,0,0.89,0,-0.72,22.99,22.98,0.01,0.01,3
46228,5.6187e+07,0,0.88,0,-0.72,22.99,22.98,0.01,0.01,3
46274,5.6197e+07,0,0.87,0,-0.72,23,22.99,0.01,0.01,3
46320,5.6207e+07,0,0.85,0,-0.71,23,22.99,0.01,0.01,3
46358,5.6217e+07,0,0.85,0,-0.72,23,22.99,0.01,0.01,3
46406,5.6227e+07,0,0.84,0,-0.7,23,22.98,0.01,0.01,3
46452,5.6238e+07,0,0.86,0,-0.71,23,22.99,0.01,0.01,3
46498,5.6248e+07,0,0.86,0,-0.7,23,22.99,0.01,0.01,3
46542,5.6258e+07,0,0.89,0,-0.72,23,22.99,0.01,0.01,3
46587,5.6268e+07,0,0.89,0,-0.69,23,22.99,0.01,0.01,3
46632,5.6278e+07,0,0.89,0,-0.72,23,22.99,0.01,0.01,3
46677,5.6288e+07,0,0.9,0,-0.7,23,22.99,0.01,0.01,3
46723,5.6298e+07,0,0.9,0,-0.73,22.99,22.98,0.01,0.01,3
46767,5.6308e+07,0,0.9,0,-0.7,22.99,22.98,0.01,0.01,3
46812,5.6318e+07,0,0.88,0,-0.72,22.99,22.98,0.01,0.01,3
46859,5.6328e+07,0,0.88,0,-0.72,22.98,22.97,0.01,0.01,3
46906,5.6338e+07,0,0.87,0,-0.72,22.99,22.98,0.01,0.01,3
46951,5.6348e+07,0,0.86,0,-0.72,22.98,22.97,0.01,0.01,3
46995,5.6358e+07,0,0.84,0,-0.7,23,22.99,0.01,0.01,3
47040,5.6368e+07,0,0.85,0,-0.72,22.99,22.98,0.01,0.01,3
47084,5.6378e+07,0,0.84,0,-0.69,23,22.99,0.01,0.01,3
47129,5.6388e+07,0,0.84,0,-0.71,22.99,22.98,0.01,0.01,3
47175,5.6399e+07,0,0.84,0,-0.68,23.01,23,0.01,0.01,3
47222,5.6411e+07,0,0.88,0,-0.73,23,22.99,0.01,0.01,3
47264,5.6422e+07,0,0.88,0,-0.72,22.99,22.98,0.01,0.01,3
47311,5.6433e+07,0,0.87,0,-0.72,23,22.99,0.01,0.01,3
47357,5.6443e+07,0,0.88,0,-0.72,22.99,22.98,0.01,0.01,3
47404,5.6453e+07,0,0.87,0,-0.69,23,22.99,0.01,0.01,3
47449,5.6463e+07,0,0.87,0,-0.71,22.99,22.98,0.01,0.01,3
47494,5.6473e+07,0,0.87,0,-0.69,23,22.99,0.01,0.01,3
47538,5.6483e+07,0,0.89,0,-0.71,22.99,22.98,0.01,0.01,3
47585,5.6493e+07,0,0.88,0,-0.69,23,22.99,0.01,0.01,3
47629,5.6504e+07,0,0.88,0,-0.72,23,22.99,0.01,0.01,3
47674,5.6513e+07,0,0.88,0,-0.7,23,22.99,0.01,0.01,3
47718,5.6524e+07,0,0.88,0,-0.73,23,22.99,0.01,0.01,3
47766,5.6533e+07,0,0.88,0,-0.7,23,22.99,0.01,0.01,3
47812,5.6544e+07,0,0.87,0,-0.72,23,22.99,0.01,0.01,3
47857,5.6554e+07,0,0.89,0,-0.72,23,22.99,0.01,0.01,3
47902,5.6564e+07,0,0.88,0,-0.71,23.01,23,0.01,0.01,3
47949,5.6578e+07,0,0.86,0,-0.73,23,22.99,0.01,0.01,3
47994,5.6588e+07,0,0.86,0,-0.69,23.01,23,0.01,0.01,3
48040,5.6598e+07,0,0.87,0,-0.72,23,22.99,0.01,0.01,3
48087,5.6609e+07,0,0.88,0,-0.69,23,22.99,0.01,0.01,3
48126,5.6619e+07,0,0.89,0,-0.69,23,22.99,0.01,0.01,3
48170,5.6629e+07,0,0.9,0,-0.71,23,22.99,0.01,0.01,3
48220,5.664e+07,0,0.9,0,-0.69,23.01,22.99,0.01,0.01,3
48265,5.665e+07,0,0.9,0,-0.73,23,22.99,0.01,0.01,3
48310,5.666e+07,0,0.89,0,-0.69,23.01,23,0.01,0.01,3
48356,5.6671e+07,0,0.88,0,-0.74,23,22.99,0.01,0.01,3
48400,5.6681e+07,0,0.88,0,-0.69,23.01,23,0.01,0.01,3
48444,5.6691e+07,0,0.87,0,-0.74,23.01,23,0.01,0.01,3
48490,5.6701e+07,0,0.87,0,-0.69,23.02,23.01,0.01,0.01,3
48535,5.6711e+07,0,0.87,0,-0.72,23.02,23,0.01,0.01,3
48580,5.6721e+07,0,0.88,0,-0.69,23.01,23,0.01,0.01,3
48624,5.6732e+07,0,0.87,0,-0.69,23.02,23.01,0.01,0.01,3
48672,5.6741e+07,0,0.9,0,-0.7,23.02,23.01,0.01,0.01,3
48718,5.6751e+07,0,0.9,0,-0.69,23.02,23.01,0.01,0.01,3
48763,5.6762e+07,0,0.91,0,-0.71,23.01,23,0.01,0.01,3
48807,5.6772e+07,0,0.89,0,-0.69,23.02,23.01,0.01,0.01,3
48852,5.6782e+07,0,0.89,0,-0.73,23.01,23,0.01,0.01,3
48896,5.6792e+07,0,0.88,0,-0.69,23.01,23,0.01,0.01,3
48943,5.6802e+07,0,0.87,0,-0.72,23.01,23,0.01,0.01,3
48990,5.6813e+07,0,0.88,0,-0.68,23.02,23.01,0.01,0.01,3
49031,5.6826e+07,0,0.9,0,-0.7,23.02,23.01,0.02,0.01,3
49076,5.6836e+07,0,0.89,0,-0.71,23.02,23.01,0.02,0.01,3
49124,5.6847e+07,0,0.87,0,-0.69,23.03,23.02,0.02,0.01,3
49170,5.6857e+07,0,0.85,0,-0.73,23.02,23.01,0.02,0.01,3
49216,5.6868e+07,0,0.85,0,-0.69,23.03,23.02,0.02,0.01,3
49260,5.6877e+07,0,0.84,0,-0.73,23.02,23.01,0.02,0.01,3
49304,5.6888e+07,0,0.85,0,-0.68,23.03,23.02,0.02,0.01,3
49349,5.6898e+07,0,0.86,0,-0.72,23.02,23.01,0.02,0.01,3
49394,5.6908e+07,0,0.88,0,-0.68,23.02,23.01,0.02,0.01,3
49440,5.6918e+07,0,0.87,0,-0.7,23.02,23.01,0.02,0.01,3
49485,5.6928e+07,0,0.89,0,-0.7,23.02,23.01,0.02,0.01,3
49529,5.6938e+07,0,0.91,0,-0.71,23.02,23.01,0.02,0.01,3
49581,5.6948e+07,0,0.91,0,-0.71,23.01,23,0.02,0.01,3
49625,5.6958e+07,0,0.9,0,-0.7,23.02,23.01,0.02,0.01,3
49670,5.6968e+07,0,0.9,0,-0.73,23.01,23,0.02,0.01,3
49716,5.6979e+07,0,0.9,0,-0.71,23.02,23.01,0.02,0.01,3
49760,5.6989e+07,0,0.89,0,-0.72,23.01,23,0.02,0.01,3
49808,5.7001e+07,0,0.89,0,-0.67,23.04,23.02,0.02,0.01,3
49852,5.7012e+07,0,0.89,0,-0.71,23.03,23.02,0.02,0.01,3
49897,5.7022e+07,0,0.9,0,-0.68,23.03,23.02,0.02,0.01,3
49940,5.7032e+07,0,0.86,0,-0.71,23.03,23.02,0.02,0.01,3
49987,5.7043e+07,0,0.86,0,-0.71,23.02,23.01,0.02,0.01,3
50033,5.7053e+07,0,0.86,0,-0.71,23.03,23.02,0.02,0.01,3
50078,5.7063e+07,0,0.85,0,-0.72,23.01,23,0.02,0.01,3
50122,5.7073e+07,0,0.84,0,-0.69,23.03,23.02,0.02,0.01,3
50168,5.7083e+07,0,0.85,0,-0.72,23.01,23,0.02,0.01,3
50212,5.7094e+07,0,0.86,0,-0.68,23.03,23.02,0.02,0.01,3
50257,5.7103e+07,0,0.86,0,-0.71,23.01,23,0.02,0.01,3
50301,5.7113e+07,0,0.88,0,-0.66,23.03,23.02,0.02,0.01,3
50347,5.7124e+07,0,0.89,0,-0.71,23.01,23,0.02,0.01,3
50393,5.7134e+07,0,0.91,0,-0.67,23.03,23.02,0.02,0.01,3
50442,5.7144e+07,0,0.89,0,-0.7,23.02,23.01,0.02,0.01,3
50488,5.7154e+07,0,0.91,0,-0.67,23.03,23.02,0.02,0.01,3
50532,5.7164e+07,0,0.91,0,-0.72,23.03,23.02,0.02,0.01,3
50577,5.7174e+07,0,0.9,0,-0.71,23.02,23.01,0.02,0.01,3
50626,5.7187e+07,0,0.82,0,-0.68,23.04,23.03,0.02,0.01,3
50670,5.7197e+07,0,0.83,0,-0.7,23.02,23.01,0.02,0.01,3
50713,5.7207e+07,0,0.84,0,-0.67,23.04,23.03,0.02,0.01,3
50752,5.7217e+07,0,0.85,0,-0.69,23.03,23.01,0.02,0.01,3
