LineNo,TimeUS,Instance,RPM,RawRPM,Volt,Curr,Temp,CTot,MotTemp,Err
1817,4.5423e+07,2,0,0,16.57,0.04,26,0,0,0
2274,4.5537e+07,2,0,0,16.57,0.04,27,0,0,0
2691,4.5639e+07,2,0,0,16.57,0.03,26,0,0,0
3105,4.5744e+07,2,0,0,16.57,0.04,27,0,0,0
3560,4.5857e+07,2,0,0,16.56,0.03,27,0,0,0
3975,4.5959e+07,2,0,0,16.57,0.04,27,0,0,0
4434,4.607e+07,2,0,0,16.57,0.03,26,0,0,0
4847,4.6173e+07,2,0,0,16.57,0.03,27,0,0,0
5265,4.6278e+07,2,0,0,16.58,0.03,27,0,0,0
5719,4.639e+07,2,0,0,16.56,0.03,27,0,0,0
6134,4.6494e+07,2,0,0,16.56,0.03,27,0,0,0
6589,4.6606e+07,2,0,0,16.57,0.03,27,0,0,0
6999,4.6707e+07,2,0,0,16.57,0.03,27,0,0,0
7452,4.682e+07,2,0,0,16.57,0.03,27,0,0,0
7867,4.6921e+07,2,0,0,16.57,0.04,27,0,0,0
8324,4.7035e+07,2,0,0,16.57,0.03,27,0,0,0
8735,4.7136e+07,2,0,0,16.57,0.04,27,0,0,0
9189,4.7249e+07,2,0,0,16.57,0.04,27,0,0,0
9460,4.7342e+07,2,0,0,16.57,0.03,27,0,0,0
9916,4.7455e+07,2,0,0,16.56,0.03,27,0,0,0
10331,4.7556e+07,2,0,0,16.57,0.03,27,0,0,0
11170,4.7769e+07,2,0,0,16.57,0.03,27,0,0,0
11586,4.7873e+07,2,0,0,16.57,0.03,27,0,0,0
11997,4.7974e+07,2,0,0,16.57,0.03,27,0,0,0
12450,4.8083e+07,2,0,0,16.57,0.04,27,0,0,0
12904,4.8193e+07,2,0,0,16.57,0.04,27,0,0,0
13278,4.8291e+07,2,0,0,16.57,0.04,27,0,0,0
13732,4.8404e+07,2,0,0,16.57,0.04,27,0,0,0
14186,4.8516e+07,2,0,0,16.56,0.03,27,0,0,0
14605,4.8617e+07,2,0,0,16.57,0.04,27,0,0,0
15008,4.8718e+07,2,0,0,16.57,0.04,27,0,0,0
15460,4.8833e+07,2,0,0,16.57,0.04,27,0,0,0
15875,4.8934e+07,2,0,0,16.57,0.04,27,0,0,0
16332,4.905e+07,2,0,0,16.57,0.04,27,0,0,0
16745,4.9151e+07,2,0,0,16.56,0.04,27,0,0,0
17157,4.9255e+07,2,0,0,16.57,0.03,27,0,0,0
17610,4.9365e+07,2,0,0,16.56,0.03,27,0,0,0
18022,4.9469e+07,2,0,0,16.56,0.03,27,0,0,0
18478,4.958e+07,2,0,0,16.56,0.03,27,0,0,0
18888,4.9683e+07,2,0,0,16.57,0.03,27,0,0,0
19302,4.9785e+07,2,0,0,16.56,0.03,27,0,0,0
19716,4.9891e+07,2,0,0,16.56,0.03,27,0,0,0
20170,5.0002e+07,2,0,0,16.57,0.03,27,0,0,0
20584,5.0105e+07,2,0,0,16.57,0.03,27,0,0,0
21035,5.0217e+07,2,0,0,16.57,0.04,27,0,0,0
21450,5.0323e+07,2,0,0,16.57,0.04,27,0,0,0
21862,5.043e+07,2,0,0,16.56,0.04,27,0,0,0
22277,5.0531e+07,2,0,0,16.56,0.04,27,0,0,0
22732,5.0643e+07,2,0,0,16.56,0.03,27,0,0,0
23144,5.0745e+07,2,0,0,16.57,0.04,27,0,0,0
23560,5.0849e+07,2,0,0,16.57,0.03,27,0,0,0
24015,5.0961e+07,2,0,0,16.57,0.04,27,0,0,0
24430,5.1065e+07,2,0,0,16.57,0.03,27,0,0,0
24883,5.1175e+07,2,0,0,16.57,0.03,27,0,0,0
25293,5.1277e+07,2,0,0,16.57,0.03,27,0,0,0
25746,5.1386e+07,2,0,0,16.57,0.03,27,0,0,0
26154,5.1489e+07,2,0,0,16.57,0.03,27,0,0,0
26613,5.1609e+07,2,0,0,16.56,0.03,27,0,0,0
27026,5.1709e+07,2,0,0,16.57,0.03,27,0,0,0
27434,5.1812e+07,2,0,0,16.57,0.03,27,0,0,0
27889,5.1923e+07,2,0,0,16.57,0.03,27,0,0,0
29161,5.2243e+07,2,0,0,16.57,0.03,27,0,0,0
29577,5.2345e+07,2,0,0,16.57,0.03,27,0,0,0
29989,5.245e+07,2,0,0,16.57,0.03,27,0,0,0
30450,5.2561e+07,2,0,0,16.55,0.03,27,0,0,0
30884,5.2666e+07,2,0,0,16.56,0.03,27,0,0,0
31382,5.2778e+07,2,0,0,16.56,0.03,27,0,0,0
31836,5.2882e+07,2,0,0,16.57,0.03,27,0,0,0
32289,5.2983e+07,2,0,0,16.57,0.03,27,0,0,0
32748,5.3092e+07,2,0,0,16.57,0.03,27,0,0,0
33245,5.3205e+07,2,0,0,16.57,0.03,27,0,0,0
33694,5.3308e+07,2,0,0,16.57,0.03,27,0,0,0
34142,5.3412e+07,2,0,0,16.57,0.04,27,0,0,0
34639,5.3524e+07,2,0,0,16.57,0.03,27,0,0,0
35587,5.3742e+07,2,0,0,16.56,0.03,27,0,0,0
36036,5.3842e+07,2,0,0,16.57,0.03,27,0,0,0
36535,5.3954e+07,2,0,0,16.56,0.03,27,0,0,0
37024,5.4061e+07,2,0,0,16.56,0.03,27,0,0,0
37479,5.4164e+07,2,0,0,16.57,0.03,27,0,0,0
37931,5.4268e+07,2,0,0,16.57,0.03,27,0,0,0
38426,5.4378e+07,2,0,0,16.57,0.04,27,0,0,0
38881,5.4483e+07,2,0,0,16.57,0.03,27,0,0,0
39377,5.4596e+07,2,15,171,16.55,0.04,27,0,0,0
39826,5.47e+07,2,197,571,16.56,0.09,27,0,0,0
40325,5.4816e+07,2,608,1014,16.54,0.15,27,0,0,0
40677,5.4917e+07,2,1032,1228,16.55,0.12,27,0,0,0
41128,5.5022e+07,2,1234,1300,16.55,0.11,27,0,0,0
41586,5.5126e+07,2,1301,1328,16.55,0.11,27,0,0,0
42046,5.5236e+07,2,1329,1342,16.55,0.11,27,0,0,0
42499,5.5336e+07,2,1342,1357,16.54,0.1,27,0,0,0
42994,5.545e+07,2,1356,1342,16.55,0.11,27,0,0,0
43449,5.5553e+07,2,1342,1357,16.55,0.1,27,0,0,0
43904,5.5659e+07,2,1357,1357,16.55,0.11,27,0,0,0
44401,5.577e+07,2,1357,1357,16.54,0.1,27,0,0,0
44857,5.5874e+07,2,1357,1357,16.54,0.1,27,0,0,0
45312,5.5976e+07,2,1357,1357,16.55,0.1,27,0,0,0
45808,5.6089e+07,2,1357,1357,16.54,0.1,27,0,0,0
46264,5.6189e+07,2,1357,1357,16.55,0.1,27,0,0,0
46715,5.6293e+07,2,1357,1357,16.55,0.1,27,0,0,0
47215,5.6404e+07,2,1357,1357,16.55,0.11,27,0,0,0
47667,5.6509e+07,2,1357,1357,16.55,0.1,27,0,0,0
48122,5.6617e+07,2,1357,1371,16.54,0.1,27,0,0,0
48576,5.6718e+07,2,1371,1371,16.55,0.1,27,0,0,0
49069,5.6831e+07,2,1371,1371,16.54,0.1,27,0,0,0
49569,5.6941e+07,2,1369,1357,16.55,0.11,27,0,0,0
50025,5.7048e+07,2,1357,1357,16.55,0.11,27,0,0,0
50484,5.7151e+07,2,1357,1357,16.55,0.11,27,0,0,0
50933,5.7255e+07,2,1357,1357,16.55,0.11,27,0,0,0
51431,5.7366e+07,2,1358,1371,16.55,0.11,27,0,0,0
51881,5.747e+07,2,1371,1371,16.55,0.1,27,0,0,0
52333,5.7575e+07,2,1371,1371,16.55,0.1,27,0,0,0
52832,5.769e+07,2,1371,1371,16.55,0.11,27,0,0,0
53772,5.7902e+07,2,1371,1371,16.54,0.1,27,0,0,0
54227,5.8003e+07,2,1371,1371,16.55,0.1,27,0,0,0
54684,5.8113e+07,2,1370,1357,16.54,0.1,27,0,0,0
55142,5.8217e+07,2,1357,1357,16.55,0.11,27,0,0,0
55635,5.833e+07,2,1357,1357,16.54,0.11,27,0,0,0
56091,5.8437e+07,2,1357,1357,16.55,0.11,27,0,0,0
56538,5.8539e+07,2,1357,1357,16.55,0.11,27,0,0,0
56989,5.8645e+07,2,1357,1357,16.54,0.11,27,0,0,0
57488,5.8756e+07,2,1357,1357,16.55,0.1,27,0,0,0
58396,5.8967e+07,2,1357,1357,16.55,0.1,27,0,0,0
58851,5.9077e+07,2,1357,1357,16.54,0.1,27,0,0,0
59315,5.9182e+07,2,1357,1371,16.55,0.1,27,0,0,0
59764,5.9286e+07,2,1370,1357,16.54,0.1,27,0,0,0
60259,5.9397e+07,2,1355,1342,16.55,0.1,27,0,0,0
60710,5.9501e+07,2,1342,1357,16.55,0.1,27,0,0,0
61163,5.9601e+07,2,1357,1357,16.55,0.1,27,0,0,0
61622,5.971e+07,2,1357,1357,16.54,0.1,27,0,0,0
62115,5.9823e+07,2,1357,1357,16.55,0.1,27,0,0,0
62536,5.9924e+07,2,1357,1357,16.55,0.11,27,0,0,0
63033,6.0038e+07,2,1357,1357,16.55,0.1,27,0,0,0
63483,6.0139e+07,2,1357,1357,16.55,0.11,27,0,0,0
63939,6.0247e+07,2,1357,1357,16.54,0.11,27,0,0,0
64439,6.036e+07,2,1357,1357,16.55,0.11,27,0,0,0
64852,6.0457e+07,2,1357,1357,16.54,0.11,27,0,0,0
65349,6.0569e+07,2,1357,1357,16.54,0.11,27,0,0,0
65839,6.0679e+07,2,1357,1357,16.54,0.1,27,0,0,0
66292,6.0781e+07,2,1357,1357,16.55,0.11,27,0,0,0
66791,6.0895e+07,2,1358,1371,16.55,0.11,27,0,0,0
67249,6.0997e+07,2,1370,1357,16.54,0.1,27,0,0,0
67703,6.1105e+07,2,1357,1357,16.54,0.1,27,0,0,0
68155,6.1206e+07,2,1357,1357,16.55,0.11,27,0,0,0
68649,6.1315e+07,2,1357,1357,16.55,0.11,27,0,0,0
69150,6.1429e+07,2,1355,1342,16.54,0.11,27,0,0,0
69602,6.153e+07,2,1343,1357,16.54,0.11,27,0,0,0
70048,6.1632e+07,2,1357,1357,16.55,0.11,27,0,0,0
70547,6.1743e+07,2,1357,1357,16.54,0.11,27,0,0,0
70999,6.1849e+07,2,1357,1357,16.55,0.11,27,0,0,0
71493,6.1956e+07,2,1357,1357,16.54,0.11,27,0,0,0
71945,6.2063e+07,2,1357,1357,16.54,0.1,27,0,0,0
72400,6.2169e+07,2,1357,1371,16.54,0.1,27,0,0,0
72857,6.2276e+07,2,1370,1357,16.55,0.1,27,0,0,0
73356,6.2389e+07,2,1357,1357,16.54,0.1,27,0,0,0
73802,6.2495e+07,2,1346,1128,16.56,0.04,27,0,0,0
74280,6.2611e+07,2,1055,328,16.57,0.01,27,0,0,0
74691,6.271e+07,2,322,0,16.56,0.02,27,0,0,0
75146,6.282e+07,2,0,0,16.56,0.03,27,0,0,0
75601,6.2926e+07,2,0,0,16.56,0.03,27,0,0,0
76092,6.3039e+07,2,0,0,16.56,0.03,27,0,0,0
76545,6.3142e+07,2,0,0,16.55,0.03,27,0,0,0
76999,6.3253e+07,2,0,0,16.55,0.04,27,0,0,0
77499,6.3368e+07,2,0,0,16.56,0.03,27,0,0,0
77908,6.3466e+07,2,0,0,16.55,0.04,27,0,0,0
78855,6.3689e+07,2,0,0,16.56,0.03,27,0,0,0
79352,6.3803e+07,2,0,0,16.56,0.03,27,0,0,0
79811,6.3913e+07,2,0,0,16.56,0.04,27,0,0,0
80762,6.4136e+07,2,0,0,16.56,0.03,27,0,0,0
81218,6.4248e+07,2,0,0,16.56,0.03,27,0,0,0
81672,6.4355e+07,2,0,0,16.55,0.03,27,0,0,0
82576,6.4568e+07,2,0,0,16.56,0.03,27,0,0,0
83066,6.4681e+07,2,0,0,16.56,0.03,27,0,0,0
83519,6.4785e+07,2,0,0,16.56,0.03,27,0,0,0
83978,6.4898e+07,2,0,0,16.56,0.03,27,0,0,0
84429,6.5e+07,2,0,0,16.55,0.03,27,0,0,0
84881,6.5108e+07,2,0,0,16.55,0.03,27,0,0,0
85828,6.5327e+07,2,0,0,16.56,0.03,27,0,0,0
86326,6.5445e+07,2,0,0,16.56,0.04,27,0,0,0
87725,6.5774e+07,2,0,0,16.56,0.04,27,0,0,0
88176,6.5881e+07,2,0,0,16.55,0.03,27,0,0,0
88631,6.5984e+07,2,0,0,16.56,0.03,27,0,0,0
89085,6.6093e+07,2,0,0,16.56,0.03,27,0,0,0
89538,6.6198e+07,2,0,0,16.56,0.03,27,0,0,0
90025,6.6314e+07,2,0,0,16.55,0.04,27,0,0,0
90522,6.6431e+07,2,0,0,16.56,0.03,27,0,0,0
90984,6.6539e+07,2,0,0,16.56,0.04,27,0,0,0
91436,6.6645e+07,2,0,0,16.56,0.04,27,0,0,0
91891,6.6749e+07,2,0,0,16.56,0.04,27,0,0,0
92349,6.6854e+07,2,0,0,16.55,0.03,27,0,0,0
92810,6.6962e+07,2,0,0,16.56,0.04,27,0,0,0
93264,6.7071e+07,2,0,0,16.56,0.03,27,0,0,0
93760,6.7183e+07,2,0,0,16.56,0.03,27,0,0,0
94211,6.729e+07,2,0,0,16.56,0.03,27,0,0,0
94667,6.7393e+07,2,0,0,16.56,0.04,27,0,0,0
95159,6.7506e+07,2,0,0,16.56,0.04,27,0,0,0
95618,6.761e+07,2,0,0,16.56,0.03,27,0,0,0
96064,6.7715e+07,2,0,0,16.56,0.03,27,0,0,0
96520,6.7824e+07,2,0,0,16.56,0.03,27,0,0,0
96975,6.7926e+07,2,0,0,16.55,0.03,27,0,0,0
97961,6.8152e+07,2,0,0,16.56,0.03,27,0,0,0
98866,6.8361e+07,2,0,0,16.56,0.04,27,0,0,0
99318,6.847e+07,2,0,0,16.56,0.03,27,0,0,0
99816,6.8583e+07,2,13,214,16.55,0.04,27,0,0,0
1.0027e+05,6.8689e+07,2,239,628,16.54,0.09,27,0,0,0
1.0076e+05,6.8804e+07,2,663,1042,16.53,0.16,27,0,0,0
1.0122e+05,6.8908e+07,2,1055,1242,16.54,0.12,27,0,0,0
1.0168e+05,6.9018e+07,2,1247,1300,16.54,0.11,27,0,0,0
1.0213e+05,6.912e+07,2,1300,1314,16.54,0.11,27,0,0,0
1.0258e+05,6.9229e+07,2,1316,1342,16.55,0.11,27,0,0,0
1.0304e+05,6.9332e+07,2,1342,1357,16.54,0.11,27,0,0,0
1.035e+05,6.9442e+07,2,1356,1342,16.54,0.12,27,0,0,0
1.0399e+05,6.9553e+07,2,1362,1585,16.51,0.26,27,0,0,0
1.0441e+05,6.9657e+07,2,1594,2185,16.47,0.71,27,0,0,0
1.0467e+05,6.9768e+07,2,2207,2442,16.48,0.42,27,0,0,0
1.0513e+05,6.9877e+07,2,2438,2400,16.48,0.39,27,0,0,0
1.0558e+05,6.9979e+07,2,2403,2485,16.47,0.4,27,0,0,0
1.0604e+05,7.0091e+07,2,2486,2514,16.5,0.32,27,0,0,0
1.0649e+05,7.0196e+07,2,2514,2571,16.51,0.54,27,0,0,0
1.0694e+05,7.0305e+07,2,2586,2885,16.35,0.79,27,0,0,0
1.0744e+05,7.0425e+07,2,2931,3600,16.32,1.58,27,0,0,0
1.079e+05,7.0532e+07,2,3660,4242,16.24,2.13,27,0,0,0
1.0835e+05,7.064e+07,2,4282,4857,16.14,2.53,27,0,0,0
1.088e+05,7.0746e+07,2,4906,5342,16.05,3.34,28,0,0,0
1.0922e+05,7.0849e+07,2,5358,5771,15.94,4.25,28,1,0,0
1.0967e+05,7.0954e+07,2,5785,6157,16.04,3.88,27,1,0,0
1.1012e+05,7.1062e+07,2,6156,6100,16.1,3.51,28,1,0,0
1.1066e+05,7.1186e+07,2,6091,6000,16.13,3.19,28,1,0,0
1.1107e+05,7.1287e+07,2,6000,6028,16.03,3.56,28,1,0,0
1.1153e+05,7.1394e+07,2,6040,6200,16,4.07,28,1,0,0
1.1198e+05,7.1502e+07,2,6201,6271,16.09,3.86,28,1,0,0
1.1248e+05,7.1616e+07,2,6266,6214,16.07,3.99,28,1,0,0
1.1293e+05,7.1728e+07,2,6222,6314,16.04,4.7,28,2,0,0
1.1334e+05,7.1828e+07,2,6317,6514,16,4.82,28,2,0,0
1.1427e+05,7.2046e+07,2,6512,6442,15.95,4.32,28,2,0,0
1.1477e+05,7.2161e+07,2,6433,6314,16.01,4.22,28,2,0,0
1.1523e+05,7.2271e+07,2,6304,6214,16.02,3.73,28,2,0,0
1.1568e+05,7.2375e+07,2,6211,6028,16.02,3.64,28,2,0,0
1.1613e+05,7.2484e+07,2,6028,6042,16.06,3.62,28,2,0,0
1.1659e+05,7.2591e+07,2,6041,6014,16.02,3.46,28,3,0,0
1.1708e+05,7.2708e+07,2,6022,6114,16.04,3.62,28,3,0,0
1.1754e+05,7.2815e+07,2,6099,5971,16.02,3.52,28,3,0,0
1.1799e+05,7.2922e+07,2,5973,6000,16.04,3.66,28,3,0,0
1.1844e+05,7.303e+07,2,5990,5900,16.05,3.48,28,3,0,0
1.1889e+05,7.3133e+07,2,5900,5914,15.94,3.38,28,3,0,0
1.1935e+05,7.325e+07,2,5914,5914,16,3.57,28,3,0,0
1.198e+05,7.3356e+07,2,5931,6100,15.96,3.57,28,3,0,0
1.2025e+05,7.3466e+07,2,6089,5985,15.95,3.43,28,3,0,0
1.2071e+05,7.3572e+07,2,5980,5914,15.93,3.49,28,4,0,0
1.2162e+05,7.3791e+07,2,5921,6071,15.97,3.81,28,4,0,0
1.2208e+05,7.39e+07,2,6076,6128,15.98,3.94,28,4,0,0
1.2253e+05,7.4008e+07,2,6122,6057,15.96,4.13,28,4,0,0
1.2298e+05,7.4119e+07,2,6065,6157,15.88,4.27,28,4,0,0
1.234e+05,7.4225e+07,2,6159,6342,15.89,4.15,28,4,0,0
1.2385e+05,7.4333e+07,2,6331,6214,15.93,3.89,28,4,0,0
1.2434e+05,7.4449e+07,2,6225,6314,15.98,4.07,29,5,0,0
1.2519e+05,7.4659e+07,2,6310,6242,15.83,4.72,29,5,0,0
1.2564e+05,7.4767e+07,2,6257,6642,15.86,5.28,28,5,0,0
1.2604e+05,7.4868e+07,2,6639,6500,15.87,4.81,29,5,0,0
1.2649e+05,7.4978e+07,2,6501,6628,15.88,4.78,29,5,0,0
1.2698e+05,7.5092e+07,2,6613,6471,15.91,4.44,29,5,0,0
1.2738e+05,7.5193e+07,2,6471,6500,15.94,4.27,29,5,0,0
1.2788e+05,7.5315e+07,2,6469,6157,16.01,3.86,29,6,0,0
1.2877e+05,7.5532e+07,2,6147,5857,16.03,3.11,29,6,0,0
1.2965e+05,7.5749e+07,2,5848,5500,16.11,2.56,29,6,0,0
1.3011e+05,7.5863e+07,2,5502,5542,16.05,2.87,29,6,0,0
1.3057e+05,7.5974e+07,2,5534,5471,16.04,2.51,29,6,0,0
1.3101e+05,7.6082e+07,2,5464,5371,15.97,2.6,29,6,0,0
1.3146e+05,7.6189e+07,2,5395,5628,15.99,3.11,29,6,0,0
1.3189e+05,7.6293e+07,2,5629,5671,16,3.06,29,6,0,0
1.3279e+05,7.6514e+07,2,5672,5857,16,3.09,29,7,0,0
1.3327e+05,7.6633e+07,2,5866,5942,15.95,3.26,29,7,0,0
1.3372e+05,7.674e+07,2,5948,6042,15.92,3.25,29,7,0,0
1.3413e+05,7.6843e+07,2,6039,5885,15.89,3.16,29,7,0,0
1.3463e+05,7.6962e+07,2,5880,5842,15.94,3.35,29,7,0,0
1.3507e+05,7.7069e+07,2,5845,5942,15.88,3.31,29,7,0,0
1.3551e+05,7.7176e+07,2,5942,5942,16,2.87,29,7,0,0
1.3593e+05,7.7285e+07,2,5940,5857,15.95,3.26,29,7,0,0
1.3641e+05,7.7401e+07,2,5854,5828,16,3.05,29,7,0,0
1.3686e+05,7.7509e+07,2,5844,6014,15.98,3.28,29,7,0,0
1.3726e+05,7.7611e+07,2,6011,5842,16.06,2.81,29,8,0,0
1.3771e+05,7.7717e+07,2,5838,5657,16,2.69,29,8,0,0
1.382e+05,7.7838e+07,2,5673,5800,16,3.01,29,8,0,0
1.3906e+05,7.8052e+07,2,5800,5814,15.92,2.96,29,8,0,0
1.3951e+05,7.8163e+07,2,5821,5900,15.98,3.12,29,8,0,0
1.3991e+05,7.8264e+07,2,5899,5885,15.94,2.97,29,8,0,0
1.4036e+05,7.8377e+07,2,5883,5857,16.01,3.34,29,8,0,0
1.4081e+05,7.8486e+07,2,5864,6057,15.92,3.36,29,8,0,0
1.413e+05,7.86e+07,2,6050,5985,15.92,3.38,29,8,0,0
1.4174e+05,7.871e+07,2,5988,6028,15.94,3.25,29,9,0,0
1.4214e+05,7.8813e+07,2,6030,6142,15.97,3.46,29,9,0,0
1.426e+05,7.8924e+07,2,6128,5957,15.87,3.33,29,9,0,0
1.4304e+05,7.9036e+07,2,5968,6114,15.94,3.28,29,9,0,0
1.435e+05,7.9144e+07,2,6108,6028,15.95,3.41,29,9,0,0
1.4435e+05,7.9356e+07,2,6030,6142,15.89,3.46,30,9,0,0
1.448e+05,7.9465e+07,2,6136,6057,15.96,3.22,29,9,0,0
1.4525e+05,7.9577e+07,2,6053,6014,15.97,3.33,29,9,0,0
1.4566e+05,7.968e+07,2,6012,5914,15.86,3.48,30,9,0,0
1.4615e+05,7.9799e+07,2,5916,5942,15.89,3.12,29,10,0,0
1.4655e+05,7.9898e+07,2,5950,6114,15.92,3.62,30,10,0,0
1.4704e+05,8.0019e+07,2,6128,6257,15.89,3.94,29,10,0,0
1.4745e+05,8.0118e+07,2,6264,6357,15.88,3.55,30,10,0,0
1.479e+05,8.0229e+07,2,6354,6200,15.97,3.49,30,10,0,0
1.4834e+05,8.0337e+07,2,6196,6128,15.86,3.87,30,10,0,0
1.4879e+05,8.0448e+07,2,6123,5928,15.87,3.32,30,10,0,0
1.4923e+05,8.0557e+07,2,5950,6328,15.87,4.22,30,10,0,0
1.5012e+05,8.0775e+07,2,6330,6400,15.83,3.99,30,11,0,0
1.5057e+05,8.089e+07,2,6386,6242,15.9,3.28,30,11,0,0
1.5102e+05,8.0996e+07,2,6233,6142,15.86,3.38,30,11,0,0
1.5143e+05,8.1096e+07,2,6142,6171,15.81,3.65,30,11,0,0
1.5232e+05,8.1314e+07,2,6169,6100,15.92,3.34,30,11,0,0
1.5277e+05,8.1419e+07,2,6100,6171,15.9,3.11,30,11,0,0
1.5321e+05,8.1532e+07,2,6167,6071,15.87,2.71,30,11,0,0
1.5366e+05,8.164e+07,2,6063,5914,15.9,3.09,30,11,0,0
1.5411e+05,8.1746e+07,2,5915,6000,15.88,3.02,30,11,0,0
1.5452e+05,8.1853e+07,2,5991,5800,15.95,2.69,30,12,0,0
1.5544e+05,8.2072e+07,2,5801,5871,15.85,3.25,30,12,0,0
1.5585e+05,8.2177e+07,2,5877,6028,15.93,3.32,30,12,0,0
1.5634e+05,8.2291e+07,2,6028,6028,15.89,3.47,30,12,0,0
1.572e+05,8.2507e+07,2,6029,6057,15.82,3.53,30,12,0,0
1.5809e+05,8.2721e+07,2,6057,6057,15.83,3.4,30,12,0,0
1.585e+05,8.2828e+07,2,6055,5957,15.83,3.35,30,12,0,0
1.5899e+05,8.2942e+07,2,5960,5985,15.83,3.35,30,13,0,0
1.5939e+05,8.3046e+07,2,5986,6014,15.8,3.48,30,13,0,0
1.5987e+05,8.3157e+07,2,6015,6057,15.86,3.95,30,13,0,0
1.6028e+05,8.3263e+07,2,6059,6242,15.8,4.07,30,13,0,0
1.6074e+05,8.3373e+07,2,6235,6100,15.79,3.59,30,13,0,0
1.6118e+05,8.3484e+07,2,6093,5942,15.89,3.15,30,13,0,0
1.6163e+05,8.3591e+07,2,5942,5957,15.94,2.86,30,13,0,0
1.6208e+05,8.3701e+07,2,5950,5814,15.91,2.62,30,13,0,0
1.6253e+05,8.3812e+07,2,5808,5700,15.87,2.29,30,13,0,0
1.6293e+05,8.3912e+07,2,5699,5685,15.92,2.44,30,13,0,0
1.6338e+05,8.4022e+07,2,5684,5628,15.91,2.7,30,14,0,0
1.6432e+05,8.4251e+07,2,5631,5700,15.85,3.29,30,14,0,0
1.6472e+05,8.435e+07,2,5702,5900,15.82,3.43,30,14,0,0
1.6517e+05,8.4459e+07,2,5901,5985,15.86,3.57,30,14,0,0
1.6566e+05,8.4571e+07,2,5992,6100,15.83,3.41,30,14,0,0
1.661e+05,8.4676e+07,2,6096,6028,15.88,3.62,30,14,0,0
1.6655e+05,8.479e+07,2,6031,6128,15.89,3.62,30,14,0,0
1.6699e+05,8.4898e+07,2,6131,6314,15.85,3.85,30,14,0,0
1.6788e+05,8.5114e+07,2,6313,6300,15.85,3.72,30,15,0,0
1.6833e+05,8.5222e+07,2,6300,6342,15.79,3.85,30,15,0,0
1.6882e+05,8.5339e+07,2,6332,6228,15.83,3.72,30,15,0,0
1.6927e+05,8.5448e+07,2,6230,6271,15.88,3.99,30,15,0,0
1.6972e+05,8.5557e+07,2,6264,6185,15.88,3.53,30,15,0,0
1.7016e+05,8.5667e+07,2,6173,6028,15.83,3.33,30,15,0,0
1.7061e+05,8.5775e+07,2,6028,6042,15.94,3.34,30,15,0,0
1.7106e+05,8.5884e+07,2,6038,6000,15.86,3.3,30,15,0,0
1.715e+05,8.599e+07,2,5994,5857,15.92,2.95,30,15,0,0
1.7199e+05,8.6106e+07,2,5855,5842,15.85,3.05,30,16,0,0
1.724e+05,8.6206e+07,2,5839,5800,15.89,2.99,30,16,0,0
1.728e+05,8.6313e+07,2,5801,5914,15.83,2.95,30,16,0,0
1.7325e+05,8.6421e+07,2,5910,5700,15.91,3,30,16,0,0
1.737e+05,8.6531e+07,2,5704,5814,15.82,2.89,30,16,0,0
1.7414e+05,8.6641e+07,2,5801,5642,15.86,2.66,30,16,0,0
1.7459e+05,8.6749e+07,2,5653,5771,15.84,2.9,30,16,0,0
1.75e+05,8.6852e+07,2,5785,6071,15.86,3.56,30,16,0,0
1.7545e+05,8.696e+07,2,6080,6285,15.88,4.15,30,16,0,0
1.759e+05,8.7072e+07,2,6289,6371,15.81,4.3,30,16,0,0
1.7639e+05,8.7189e+07,2,6358,6228,15.83,4.02,30,17,0,0
1.7683e+05,8.7297e+07,2,6238,6385,15.81,3.64,30,17,0,0
1.7728e+05,8.7405e+07,2,6372,6242,15.82,3.85,30,17,0,0
1.7772e+05,8.7513e+07,2,6241,6228,15.82,3.77,30,17,0,0
1.7817e+05,8.7631e+07,2,6228,6228,15.81,3.68,30,17,0,0
1.7902e+05,8.7846e+07,2,6223,6085,15.83,3.51,30,17,0,0
1.7988e+05,8.8056e+07,2,6079,5928,15.79,3.18,30,17,0,0
1.8034e+05,8.8167e+07,2,5927,5914,15.86,3.1,30,18,0,0
1.8074e+05,8.8273e+07,2,5915,6000,15.8,3.27,30,18,0,0
1.8123e+05,8.839e+07,2,5980,5814,15.88,3.14,30,18,0,0
1.8164e+05,8.849e+07,2,5817,5900,15.8,3.14,30,18,0,0
1.8209e+05,8.8604e+07,2,5897,5871,15.82,2.97,30,18,0,0
1.8298e+05,8.8825e+07,2,5870,5857,15.88,2.67,30,18,0,0
1.8432e+05,8.9147e+07,2,5851,5671,15.8,2.8,30,18,0,0
1.848e+05,8.9261e+07,2,5669,5657,15.83,2.59,30,18,0,0
1.8566e+05,8.9475e+07,2,5648,5471,15.8,2.44,30,19,0,0
1.861e+05,8.9583e+07,2,5460,5371,15.81,2,30,19,0,0
1.8651e+05,8.968e+07,2,5371,5400,15.83,2.28,30,19,0,0
1.874e+05,8.9901e+07,2,5402,5500,15.88,2.74,30,19,0,0
1.8786e+05,9.0008e+07,2,5507,5657,15.87,2.85,30,19,0,0
1.8826e+05,9.0112e+07,2,5662,5814,15.81,3.38,30,19,0,0
1.8875e+05,9.0231e+07,2,5810,5700,15.85,3.16,30,19,0,0
1.892e+05,9.0335e+07,2,5701,5714,15.83,2.71,30,19,0,0
1.8964e+05,9.0448e+07,2,5717,5757,15.87,2.4,30,19,0,0
1.9005e+05,9.0547e+07,2,5752,5442,15.85,1.94,30,19,0,0
1.9049e+05,9.0655e+07,2,5438,5371,15.85,2.39,30,19,0,0
1.9094e+05,9.0768e+07,2,5374,5571,15.83,3.01,30,20,0,0
1.9143e+05,9.0884e+07,2,5599,5885,15.76,3.22,30,20,0,0
1.9188e+05,9.0992e+07,2,5891,5971,15.82,3.12,30,20,0,0
1.9234e+05,9.111e+07,2,5965,5900,15.81,3.09,30,20,0,0
1.9279e+05,9.1221e+07,2,5900,5900,15.77,3.04,30,20,0,0
1.9319e+05,9.1318e+07,2,5898,5857,15.77,3.08,30,20,0,0
1.9364e+05,9.1431e+07,2,5850,5800,15.81,2.85,30,20,0,0
1.9408e+05,9.1538e+07,2,5813,6000,15.81,2.97,30,20,0,0
1.9489e+05,9.1754e+07,2,5833,5885,15.85,3.18,30,20,0,0
1.9534e+05,9.1862e+07,2,5892,6000,15.85,3.31,30,20,0,0
1.9579e+05,9.1973e+07,2,5994,5885,15.78,3.16,30,21,0,0
1.9623e+05,9.208e+07,2,5887,5985,15.76,3.18,30,21,0,0
1.9669e+05,9.2194e+07,2,5982,5942,15.79,3.06,30,21,0,0
1.9714e+05,9.2305e+07,2,5936,5857,15.79,3.11,30,21,0,0
1.9797e+05,9.2524e+07,2,5924,5757,15.77,3.2,30,21,0,0
1.9839e+05,9.263e+07,2,5758,5800,15.79,3.57,30,21,0,0
1.9884e+05,9.274e+07,2,5803,5842,15.75,3.41,30,21,0,0
1.9928e+05,9.285e+07,2,5850,5942,15.77,3.18,30,21,0,0
1.9974e+05,9.2958e+07,2,5933,5842,15.73,3.37,30,21,0,0
2.0018e+05,9.3066e+07,2,5840,5814,15.81,3.38,30,22,0,0
2.0059e+05,9.3165e+07,2,5818,5900,15.83,3.31,30,22,0,0
2.0103e+05,9.3277e+07,2,5889,5742,15.79,3.19,30,22,0,0
2.0148e+05,9.3387e+07,2,5744,5814,15.83,3.08,30,22,0,0
2.0192e+05,9.3496e+07,2,5811,5785,15.78,3.5,30,22,0,0
2.0237e+05,9.3602e+07,2,5790,5928,15.79,3.58,30,22,0,0
2.0281e+05,9.3708e+07,2,5940,6114,15.82,3.85,30,22,0,0
2.0326e+05,9.382e+07,2,6122,6200,15.78,4.03,30,22,0,0
2.0371e+05,9.3926e+07,2,6202,6228,15.76,3.83,30,22,0,0
2.0416e+05,9.4031e+07,2,6218,5985,15.8,3.55,30,23,0,0
2.046e+05,9.4138e+07,2,5985,6000,15.78,3.34,30,23,0,0
2.0505e+05,9.4251e+07,2,5988,5857,15.83,3.45,30,23,0,0
2.0549e+05,9.4349e+07,2,5857,5871,15.73,3.48,30,23,0,0
2.0593e+05,9.4456e+07,2,5872,5914,15.82,3.38,30,23,0,0
2.0638e+05,9.4567e+07,2,5913,5857,15.84,3.3,30,23,0,0
2.0683e+05,9.4678e+07,2,5852,5742,15.85,3.06,30,23,0,0
2.0772e+05,9.4897e+07,2,5741,5728,15.77,3.19,30,23,0,0
2.0817e+05,9.5006e+07,2,5726,5685,15.83,3.26,30,23,0,0
2.0861e+05,9.5115e+07,2,5703,6071,15.82,3.62,30,24,0,0
2.0911e+05,9.5236e+07,2,6060,5942,15.72,3.78,30,24,0,0
2.0952e+05,9.5338e+07,2,5956,6100,15.82,3.76,30,24,0,0
2.0992e+05,9.544e+07,2,6097,6028,15.8,3.82,30,24,0,0
2.1036e+05,9.5546e+07,2,6028,6071,15.73,3.98,30,24,0,0
2.1081e+05,9.5655e+07,2,6086,6314,15.82,4.03,30,24,0,0
2.1126e+05,9.5764e+07,2,6305,6185,15.8,3.93,30,24,0,0
2.1171e+05,9.5876e+07,2,6184,6171,15.76,4.03,30,24,0,0
2.1216e+05,9.5986e+07,2,6169,6157,15.75,4.06,30,24,0,0
2.126e+05,9.6092e+07,2,6156,6142,15.75,4.14,30,25,0,0
2.1306e+05,9.6201e+07,2,6145,6214,15.79,3.98,30,25,0,0
2.1395e+05,9.642e+07,2,6213,6171,15.81,3.95,30,25,0,0
2.1439e+05,9.6531e+07,2,6171,6171,15.76,4.09,30,25,0,0
2.1484e+05,9.6646e+07,2,6171,6171,15.77,4.05,30,25,0,0
2.1525e+05,9.675e+07,2,6173,6200,15.74,3.92,30,25,0,0
2.157e+05,9.6864e+07,2,6201,6214,15.75,3.99,30,25,0,0
2.1615e+05,9.6974e+07,2,6199,6114,15.77,3.85,30,26,0,0
2.1656e+05,9.7079e+07,2,6120,6171,15.71,3.82,30,26,0,0
2.1701e+05,9.7186e+07,2,6168,6100,15.77,3.88,30,26,0,0
2.1745e+05,9.7296e+07,2,6102,6128,15.76,3.89,30,26,0,0
2.179e+05,9.7405e+07,2,6130,6157,15.81,4.2,30,26,0,0
2.192e+05,9.7724e+07,2,6159,6357,15.75,4.25,30,26,0,0
2.1969e+05,9.7845e+07,2,6335,6085,15.81,4.07,30,27,0,0
2.2009e+05,9.7941e+07,2,6084,6071,15.73,4.1,30,27,0,0
2.2147e+05,9.8273e+07,2,6072,6114,15.8,3.75,30,27,0,0
2.2192e+05,9.8383e+07,2,6103,5942,15.75,3.45,30,27,0,0
2.2236e+05,9.8491e+07,2,5932,5785,15.77,3.36,30,27,0,0
2.2281e+05,9.8598e+07,2,5802,5985,15.76,3.66,30,27,0,0
2.2326e+05,9.871e+07,2,5992,6071,15.74,3.74,30,27,0,0
2.2371e+05,9.8819e+07,2,6065,6014,15.76,3.7,30,28,0,0
2.2459e+05,9.9035e+07,2,6019,6171,15.8,3.88,31,28,0,0
2.2504e+05,9.9145e+07,2,6175,6242,15.76,3.92,30,28,0,0
2.2593e+05,9.9361e+07,2,6240,6100,15.77,3.8,30,28,0,0
2.2638e+05,9.9471e+07,2,6100,6114,15.79,3.95,30,28,0,0
2.2686e+05,9.9585e+07,2,6120,6200,15.73,3.75,30,28,0,0
2.2731e+05,9.9694e+07,2,6209,6328,15.79,3.76,30,29,0,0
2.2776e+05,9.9806e+07,2,6305,6071,15.74,3.79,31,29,0,0
2.2816e+05,9.9906e+07,2,6070,6057,15.76,3.79,30,29,0,0
2.2861e+05,1.0002e+08,2,6059,6271,15.75,3.73,30,29,0,0
2.2906e+05,1.0012e+08,2,6268,6085,15.71,3.69,30,29,0,0
2.2956e+05,1.0025e+08,2,6085,6085,15.76,3.82,30,29,0,0
2.2996e+05,1.0034e+08,2,6088,6142,15.75,3.39,30,29,0,0
2.3036e+05,1.0045e+08,2,6140,6085,15.79,3.54,31,29,0,0
2.3082e+05,1.0056e+08,2,6085,6114,15.73,3.78,31,29,0,0
2.313e+05,1.0067e+08,2,6103,5971,15.72,3.44,30,29,0,0
2.3174e+05,1.0078e+08,2,5975,6071,15.71,3.94,30,30,0,0
2.3219e+05,1.0089e+08,2,6066,6014,15.77,3.56,30,30,0,0
2.3305e+05,1.0111e+08,2,6015,6142,15.73,4.08,31,30,0,0
2.3398e+05,1.0133e+08,2,6150,6385,15.73,4.61,31,30,0,0
2.3439e+05,1.0144e+08,2,6381,6342,15.76,4.45,31,30,0,0
2.3479e+05,1.0154e+08,2,6340,6271,15.78,4.15,31,30,0,0
2.3528e+05,1.0165e+08,2,6268,6214,15.77,4.01,31,31,0,0
2.3573e+05,1.0176e+08,2,6213,6200,15.72,3.78,31,31,0,0
2.3618e+05,1.0187e+08,2,6205,6257,15.8,3.76,31,31,0,0
2.3663e+05,1.0198e+08,2,6253,6214,15.73,4.03,31,31,0,0
2.3707e+05,1.0209e+08,2,6215,6257,15.73,3.89,31,31,0,0
2.3756e+05,1.022e+08,2,6260,6314,15.8,3.93,31,31,0,0
2.38e+05,1.0231e+08,2,6303,6171,15.77,4.09,31,31,0,0
2.3889e+05,1.0253e+08,2,6167,6071,15.68,4,31,32,0,0
2.3978e+05,1.0274e+08,2,6079,6314,15.72,3.77,31,32,0,0
2.4112e+05,1.0307e+08,2,6303,5828,15.73,3.4,31,32,0,0
2.4157e+05,1.0318e+08,2,5825,5771,15.75,3.43,31,32,0,0
2.4201e+05,1.0329e+08,2,5773,5814,15.78,3.63,31,32,0,0
2.4242e+05,1.0339e+08,2,5817,5900,15.78,3.67,31,33,0,0
2.4286e+05,1.035e+08,2,5900,5928,15.78,3.66,31,33,0,0
2.4336e+05,1.0362e+08,2,5926,5914,15.75,3.26,31,33,0,0
2.4381e+05,1.0373e+08,2,5914,5914,15.72,3.46,31,33,0,0
2.4425e+05,1.0384e+08,2,5922,6014,15.76,3.49,31,33,0,0
2.447e+05,1.0395e+08,2,6007,5942,15.73,3.76,31,33,0,0
2.4511e+05,1.0405e+08,2,5944,5985,15.77,3.62,31,33,0,0
2.4548e+05,1.0416e+08,2,5994,6085,15.72,3.9,31,33,0,0
2.4588e+05,1.0426e+08,2,6084,6057,15.75,3.95,31,33,0,0
2.4637e+05,1.0438e+08,2,6065,6157,15.73,3.65,31,34,0,0
2.4678e+05,1.0448e+08,2,6147,5900,15.77,3.58,31,34,0,0
2.4722e+05,1.0459e+08,2,5901,5928,15.77,3.38,31,34,0,0
2.4771e+05,1.0471e+08,2,5938,6085,15.74,3.38,31,34,0,0
2.4812e+05,1.0481e+08,2,6081,5942,15.8,3.33,31,34,0,0
2.4856e+05,1.0492e+08,2,5940,5842,15.74,3.25,31,34,0,0
2.4904e+05,1.0503e+08,2,5844,5900,15.73,3.21,31,34,0,0
2.495e+05,1.0514e+08,2,5903,5985,15.77,3.16,31,34,0,0
2.4997e+05,1.0526e+08,2,5978,5942,15.74,3.21,31,34,0,0
2.5038e+05,1.0535e+08,2,5946,6028,15.75,3.44,31,34,0,0
2.5083e+05,1.0547e+08,2,6031,6057,15.77,3.41,31,35,0,0
2.5128e+05,1.0558e+08,2,6053,6014,15.75,3.47,31,35,0,0
2.5168e+05,1.0568e+08,2,6015,6057,15.82,3.83,31,35,0,0
2.5217e+05,1.058e+08,2,6081,6342,15.79,3.99,31,35,0,0
2.5258e+05,1.059e+08,2,6312,6085,15.76,3.82,31,35,0,0
2.5303e+05,1.0601e+08,2,6095,6228,15.75,3.69,31,35,0,0
2.5348e+05,1.0612e+08,2,6212,6100,15.73,3.47,31,35,0,0
2.5392e+05,1.0623e+08,2,6093,6042,15.8,3.29,31,35,0,0
2.5432e+05,1.0633e+08,2,6040,5942,15.78,3.01,31,35,0,0
2.548e+05,1.0644e+08,2,5952,6100,15.76,3.32,31,36,0,0
2.5525e+05,1.0655e+08,2,6087,5914,15.83,2.84,31,36,0,0
2.5569e+05,1.0666e+08,2,5906,5842,15.79,2.93,31,36,0,0
2.5704e+05,1.0699e+08,2,5841,5828,15.69,2.57,31,36,0,0
2.5748e+05,1.071e+08,2,5812,5657,15.72,2.39,31,36,0,0
2.5793e+05,1.0721e+08,2,5652,5571,15.71,2.48,31,36,0,0
2.5837e+05,1.0732e+08,2,5577,5671,15.69,2.91,31,36,0,0
2.5882e+05,1.0743e+08,2,5677,5742,15.72,2.78,31,36,0,0
2.5927e+05,1.0754e+08,2,5749,5914,15.72,3.13,31,36,0,0
2.6012e+05,1.0775e+08,2,5913,5900,15.76,3.18,31,37,0,0
2.606e+05,1.0787e+08,2,5904,5957,15.7,3.17,31,37,0,0
2.6146e+05,1.0808e+08,2,5948,5757,15.75,2.87,31,37,0,0
2.6186e+05,1.0818e+08,2,5756,5742,15.73,2.9,31,37,0,0
2.6231e+05,1.0829e+08,2,5742,5757,15.75,3.01,31,37,0,0
2.6276e+05,1.084e+08,2,5752,5685,15.68,3.34,31,37,0,0
2.632e+05,1.0851e+08,2,5691,5857,15.69,3.34,31,37,0,0
2.6361e+05,1.0862e+08,2,5852,5757,15.66,2.99,31,37,0,0
2.6394e+05,1.0873e+08,2,5757,5771,15.67,3.17,31,37,0,0
2.6484e+05,1.0895e+08,2,5764,5642,15.69,3.55,31,38,0,0
2.6523e+05,1.0905e+08,2,5648,5971,15.64,3.49,31,38,0,0
2.6572e+05,1.0916e+08,2,5958,5785,15.71,3.06,31,38,0,0
2.6613e+05,1.0927e+08,2,5781,5628,15.73,2.68,31,38,0,0
2.6662e+05,1.0938e+08,2,5621,5528,15.82,2.67,31,38,0,0
2.6702e+05,1.0949e+08,2,5528,5542,15.75,2.84,31,38,0,0
2.6747e+05,1.096e+08,2,5543,5657,15.79,2.37,31,38,0,0
2.6792e+05,1.0971e+08,2,5645,5542,15.79,2.51,31,38,0,0
2.6836e+05,1.0982e+08,2,5546,5614,15.73,2.7,31,38,0,0
2.6877e+05,1.0992e+08,2,5615,5700,15.77,2.45,31,38,0,0
2.6922e+05,1.1003e+08,2,5694,5414,15.78,2.34,31,38,0,0
2.6966e+05,1.1014e+08,2,5416,5542,15.79,2.41,31,38,0,0
2.7015e+05,1.1025e+08,2,5547,5600,15.75,2.85,31,39,0,0
2.706e+05,1.1036e+08,2,5602,5628,15.79,2.65,31,39,0,0
2.71e+05,1.1047e+08,2,5628,5642,15.75,2.77,31,39,0,0
2.7146e+05,1.1058e+08,2,5644,5785,15.8,2.78,31,39,0,0
2.719e+05,1.1068e+08,2,5786,5842,15.8,2.72,31,39,0,0
2.7235e+05,1.108e+08,2,5841,5814,15.73,2.87,31,39,0,0
2.7283e+05,1.1091e+08,2,5807,5742,15.77,2.58,31,39,0,0
2.7324e+05,1.1101e+08,2,5743,5857,15.72,3.24,31,39,0,0
2.7372e+05,1.1113e+08,2,5872,6028,15.73,3.27,31,39,0,0
2.7416e+05,1.1124e+08,2,6020,5957,15.76,3.15,31,39,0,0
2.7457e+05,1.1134e+08,2,5958,6071,15.72,3.36,31,39,0,0
2.7502e+05,1.1145e+08,2,6069,6057,15.75,3.13,31,39,0,0
2.7546e+05,1.1155e+08,2,6050,5900,15.69,3.06,31,40,0,0
2.7635e+05,1.1178e+08,2,5907,6085,15.78,3.28,31,40,0,0
2.7676e+05,1.1188e+08,2,6082,6028,15.76,3.1,31,40,0,0
2.7721e+05,1.1199e+08,2,6021,5942,15.78,2.87,31,40,0,0
2.7765e+05,1.1209e+08,2,5941,5928,15.73,2.97,31,40,0,0
2.781e+05,1.122e+08,2,5924,5885,15.79,2.77,31,40,0,0
2.7855e+05,1.1232e+08,2,5880,5828,15.71,2.87,31,40,0,0
2.7896e+05,1.1242e+08,2,5826,5728,15.77,2.89,31,40,0,0
2.7941e+05,1.1253e+08,2,5731,5914,15.7,2.92,31,40,0,0
2.7989e+05,1.1265e+08,2,5890,5671,15.72,2.92,31,41,0,0
2.8029e+05,1.1275e+08,2,5670,5657,15.73,2.99,31,41,0,0
2.8074e+05,1.1286e+08,2,5665,5828,15.71,3.18,31,41,0,0
2.8167e+05,1.1308e+08,2,5837,6000,15.75,3.17,31,41,0,0
2.8212e+05,1.1319e+08,2,6011,6085,15.72,3.25,31,41,0,0
2.8252e+05,1.133e+08,2,6077,5985,15.73,3.38,31,41,0,0
2.8297e+05,1.1341e+08,2,5992,6085,15.72,3.42,31,41,0,0
2.8342e+05,1.1351e+08,2,6081,6028,15.67,3.5,31,41,0,0
2.8471e+05,1.1383e+08,2,6000,6014,15.76,3.49,31,42,0,0
2.856e+05,1.1405e+08,2,6016,6142,15.7,3.32,31,42,0,0
2.8605e+05,1.1416e+08,2,6138,6071,15.7,3.3,31,42,0,0
2.8653e+05,1.1428e+08,2,6049,5814,15.68,3.13,31,42,0,0
2.8694e+05,1.1437e+08,2,5805,5614,15.7,2.42,31,42,0,0
2.8739e+05,1.1449e+08,2,5611,5571,15.7,2.62,31,42,0,0
2.8788e+05,1.146e+08,2,5565,5514,15.66,3.08,31,42,0,0
2.8828e+05,1.1471e+08,2,5533,5814,15.72,3.48,31,42,0,0
2.8873e+05,1.1481e+08,2,5813,5800,15.7,3.37,31,42,0,0
2.8918e+05,1.1492e+08,2,5814,6100,15.62,4.2,31,43,0,0
2.8958e+05,1.1503e+08,2,6104,6357,15.58,4.98,31,43,0,0
2.9007e+05,1.1514e+08,2,6368,6514,15.68,4.4,31,43,0,0
2.9052e+05,1.1526e+08,2,6519,6571,15.6,4.67,31,43,0,0
2.9096e+05,1.1536e+08,2,6582,6700,15.64,4.39,31,43,0,0
2.9136e+05,1.1546e+08,2,6696,6485,15.62,4.43,31,43,0,0
2.9186e+05,1.1558e+08,2,6484,6471,15.7,4,31,43,0,0
2.923e+05,1.1569e+08,2,6471,6485,15.61,4.34,31,43,0,0
2.9276e+05,1.158e+08,2,6453,6157,15.59,3.65,31,44,0,0
2.9312e+05,1.1589e+08,2,6155,6071,15.67,3.38,31,44,0,0
2.9366e+05,1.1602e+08,2,6079,6185,15.66,3.39,31,44,0,0
2.941e+05,1.1612e+08,2,6162,5871,15.73,3.24,31,44,0,0
2.9451e+05,1.1623e+08,2,5888,6085,15.66,3.45,31,44,0,0
2.9496e+05,1.1634e+08,2,6072,5900,15.77,3.28,31,44,0,0
2.9581e+05,1.1655e+08,2,5900,5942,15.67,3.29,31,44,0,0
2.9625e+05,1.1666e+08,2,5940,5914,15.63,3.13,31,44,0,0
2.967e+05,1.1677e+08,2,5918,5971,15.65,3.25,31,45,0,0
2.9714e+05,1.1688e+08,2,5956,5800,15.67,3.29,31,45,0,0
2.9759e+05,1.1699e+08,2,5805,5900,15.7,3.32,31,45,0,0
2.9804e+05,1.171e+08,2,5907,6014,15.75,3.48,31,45,0,0
2.9848e+05,1.1721e+08,2,6019,6100,15.63,3.59,31,45,0,0
2.9893e+05,1.1732e+08,2,6098,6085,15.63,3.75,31,45,0,0
2.9937e+05,1.1742e+08,2,6080,6000,15.68,3.71,31,45,0,0
3.0021e+05,1.1763e+08,2,5998,5842,15.71,3.38,31,45,0,0
3.0071e+05,1.1775e+08,2,5864,6100,15.67,3.43,31,45,0,0
3.0115e+05,1.1786e+08,2,6087,5914,15.68,3.38,31,46,0,0
3.016e+05,1.1797e+08,2,5908,5857,15.67,3.43,31,46,0,0
3.0204e+05,1.1807e+08,2,5862,5942,15.65,3.42,31,46,0,0
3.0245e+05,1.1818e+08,2,5940,5871,15.7,3.47,31,46,0,0
3.0293e+05,1.1829e+08,2,5870,5857,15.64,3.79,31,46,0,0
3.0338e+05,1.184e+08,2,5860,5914,15.73,3.79,31,46,0,0
3.0382e+05,1.1851e+08,2,5925,6057,15.71,3.66,31,46,0,0
3.0426e+05,1.1863e+08,2,6052,6014,15.72,3.6,31,46,0,0
3.0471e+05,1.1874e+08,2,6019,6057,15.6,3.76,31,46,0,0
3.056e+05,1.1895e+08,2,6063,6228,15.64,3.75,31,47,0,0
3.0604e+05,1.1905e+08,2,6224,6171,15.69,3.79,31,47,0,0
3.0649e+05,1.1916e+08,2,6164,6071,15.66,3.8,31,47,0,0
3.0694e+05,1.1928e+08,2,6091,6285,15.71,3.98,31,47,0,0
3.0738e+05,1.1939e+08,2,6284,6228,15.69,3.78,31,47,0,0
3.0779e+05,1.1949e+08,2,6226,6200,15.7,3.84,31,47,0,0
3.0828e+05,1.1961e+08,2,6182,6042,15.67,3.78,31,47,0,0
3.0868e+05,1.1971e+08,2,6040,6014,15.7,3.48,31,48,0,0
3.0914e+05,1.1982e+08,2,5995,5857,15.71,3.36,31,48,0,0
3.0958e+05,1.1993e+08,2,5858,5871,15.69,3.19,31,48,0,0
3.1003e+05,1.2005e+08,2,5872,5885,15.67,3.22,31,48,0,0
3.1048e+05,1.2016e+08,2,5889,5928,15.68,3.34,31,48,0,0
3.1092e+05,1.2027e+08,2,5925,5900,15.61,3.3,31,48,0,0
3.1177e+05,1.2047e+08,2,5900,5957,15.63,3.26,31,48,0,0
3.1226e+05,1.2059e+08,2,5947,5857,15.69,3.08,31,48,0,0
3.1267e+05,1.207e+08,2,5857,5857,15.77,2.95,31,48,0,0
3.1312e+05,1.208e+08,2,5860,5928,15.73,2.98,31,49,0,0
3.1361e+05,1.2092e+08,2,5936,6028,15.75,3.11,31,49,0,0
3.1402e+05,1.2102e+08,2,6014,5757,15.72,2.73,31,49,0,0
3.1446e+05,1.2114e+08,2,5758,5771,15.63,2.95,31,49,0,0
3.149e+05,1.2124e+08,2,5771,5771,15.75,3.26,31,49,0,0
3.1535e+05,1.2135e+08,2,5774,5957,15.75,3.34,31,49,0,0
3.1583e+05,1.2146e+08,2,5950,5857,15.67,3.07,31,49,0,0
3.1628e+05,1.2158e+08,2,5863,5928,15.72,2.92,31,49,0,0
3.1671e+05,1.2168e+08,2,5914,5742,15.73,2.56,31,49,0,0
3.1717e+05,1.2179e+08,2,5730,5614,15.68,2.48,31,49,0,0
3.1757e+05,1.2189e+08,2,5615,5671,15.75,2.67,31,49,0,0
3.1802e+05,1.22e+08,2,5664,5542,15.71,2.68,31,49,0,0
3.1847e+05,1.2212e+08,2,5557,5714,15.72,2.88,31,50,0,0
3.1888e+05,1.2221e+08,2,5714,5714,15.73,2.93,31,50,0,0
3.1936e+05,1.2233e+08,2,5718,5785,15.67,3.22,31,50,0,0
3.198e+05,1.2244e+08,2,5806,6028,15.71,3.21,31,50,0,0
3.2025e+05,1.2255e+08,2,6028,6028,15.64,3.32,31,50,0,0
3.2066e+05,1.2265e+08,2,6032,6128,15.67,3.28,31,50,0,0
3.211e+05,1.2276e+08,2,6127,6071,15.72,3.23,31,50,0,0
3.216e+05,1.2288e+08,2,6059,5942,15.66,3.43,31,50,0,0
3.22e+05,1.2298e+08,2,5959,6200,15.67,3.66,31,50,0,0
3.2244e+05,1.2309e+08,2,6206,6328,15.63,3.88,31,50,0,0
3.229e+05,1.232e+08,2,6321,6257,15.66,3.95,31,51,0,0
3.2334e+05,1.233e+08,2,6255,6228,15.64,3.96,31,51,0,0
3.2383e+05,1.2342e+08,2,6237,6314,15.69,3.94,31,51,0,0
3.2424e+05,1.2353e+08,2,6315,6342,15.7,3.94,31,51,0,0
3.2468e+05,1.2364e+08,2,6327,6185,15.72,3.75,31,51,0,0
3.2513e+05,1.2375e+08,2,6178,6100,15.68,3.63,31,51,0,0
3.2558e+05,1.2386e+08,2,6101,6114,15.7,3.46,31,51,0,0
3.2647e+05,1.2408e+08,2,6118,6214,15.68,3.89,31,52,0,0
3.2692e+05,1.2418e+08,2,6206,6100,15.64,3.49,31,52,0,0
3.2732e+05,1.2429e+08,2,6101,6114,15.68,3.69,31,52,0,0
3.2822e+05,1.2451e+08,2,6109,5971,15.73,3.16,31,52,0,0
3.2862e+05,1.2461e+08,2,5972,6014,15.68,3.28,31,52,0,0
3.2907e+05,1.2472e+08,2,6032,6214,15.69,3.43,31,52,0,0
3.2955e+05,1.2484e+08,2,6181,5842,15.72,3.07,31,52,0,0
3.3e+05,1.2495e+08,2,5867,6114,15.66,3.51,31,52,0,0
3.304e+05,1.2504e+08,2,6112,6028,15.63,3.4,32,52,0,0
3.3089e+05,1.2517e+08,2,6026,6014,15.73,3.62,31,53,0,0
3.3133e+05,1.2528e+08,2,6014,6014,15.64,3.57,31,53,0,0
3.3178e+05,1.2538e+08,2,6014,6071,15.65,3.37,31,53,0,0
3.3267e+05,1.256e+08,2,6070,6014,15.64,3.37,32,53,0,0
3.3311e+05,1.2571e+08,2,6011,5971,15.64,3.35,31,53,0,0
3.3365e+05,1.2593e+08,2,5977,6100,15.6,3.14,31,53,0,0
3.3406e+05,1.2604e+08,2,6080,5871,15.72,3.3,31,53,0,0
3.3452e+05,1.2615e+08,2,5890,6100,15.7,2.93,32,54,0,0
3.3495e+05,1.2625e+08,2,6082,5857,15.75,2.79,31,54,0,0
3.354e+05,1.2636e+08,2,5850,5757,15.73,2.9,31,54,0,0
3.3581e+05,1.2647e+08,2,5759,5785,15.72,3.11,31,54,0,0
3.3626e+05,1.2658e+08,2,5794,5914,15.68,2.91,31,54,0,0
3.367e+05,1.2669e+08,2,5923,6014,15.73,3.19,31,54,0,0
3.3714e+05,1.2679e+08,2,6008,5928,15.7,3.18,31,54,0,0
3.3759e+05,1.269e+08,2,5932,6042,15.75,2.86,31,54,0,0
3.3804e+05,1.2701e+08,2,6032,5871,15.73,2.81,31,54,0,0
3.3889e+05,1.2723e+08,2,5872,5914,15.75,2.58,31,54,0,0
3.393e+05,1.2733e+08,2,5912,5857,15.7,2.76,31,54,0,0
3.4023e+05,1.2756e+08,2,5857,5871,15.75,2.81,32,55,0,0
3.4089e+05,1.2778e+08,2,5871,5871,15.71,2.67,31,55,0,0
3.4129e+05,1.2787e+08,2,5861,5742,15.71,2.69,31,55,0,0
3.4174e+05,1.2798e+08,2,5745,5814,15.69,3.01,31,55,0,0
3.4219e+05,1.2809e+08,2,5819,5885,15.69,3.03,31,55,0,0
3.4263e+05,1.282e+08,2,5891,5971,15.73,3.09,31,55,0,0
3.4305e+05,1.283e+08,2,5968,5857,15.67,3.07,31,55,0,0
3.4353e+05,1.2842e+08,2,5870,6000,15.64,3.26,31,55,0,0
3.4398e+05,1.2853e+08,2,5989,5871,15.66,3.13,31,55,0,0
3.4442e+05,1.2864e+08,2,5880,6014,15.72,3.22,31,56,0,0
3.4479e+05,1.2873e+08,2,6011,5842,15.68,3.13,32,56,0,0
3.4528e+05,1.2885e+08,2,5840,5814,15.72,3.09,31,56,0,0
3.4572e+05,1.2896e+08,2,5815,5828,15.69,2.96,31,56,0,0
3.4612e+05,1.2906e+08,2,5834,5971,15.7,2.98,31,56,0,0
3.4658e+05,1.2917e+08,2,5959,5685,15.64,3.06,31,56,0,0
3.4702e+05,1.2928e+08,2,5686,5714,15.69,2.96,31,56,0,0
3.4747e+05,1.2939e+08,2,5729,5942,15.69,3.19,31,56,0,0
3.4792e+05,1.295e+08,2,5944,5985,15.59,3.62,32,56,0,0
3.4836e+05,1.2961e+08,2,5989,6085,15.61,3.72,31,56,0,0
3.4881e+05,1.2972e+08,2,6088,6128,15.68,3.38,31,57,0,0
3.4961e+05,1.2993e+08,2,6099,6085,15.63,3.37,31,57,0,0
3.5005e+05,1.3004e+08,2,6078,5985,15.64,3.46,32,57,0,0
3.505e+05,1.3015e+08,2,5988,6057,15.65,3.41,31,57,0,0
3.5095e+05,1.3026e+08,2,6051,5971,15.67,3.15,31,57,0,0
3.5141e+05,1.3037e+08,2,5955,5814,15.76,2.95,32,57,0,0
3.5185e+05,1.3048e+08,2,5806,5700,15.69,2.7,32,57,0,0
3.523e+05,1.3059e+08,2,5692,5600,15.74,2.79,31,57,0,0
3.5274e+05,1.307e+08,2,5600,5614,15.71,2.85,31,57,0,0
3.5319e+05,1.3081e+08,2,5610,5557,15.7,2.55,31,57,0,0
3.5363e+05,1.3092e+08,2,5551,5471,15.79,2.34,31,58,0,0
3.5452e+05,1.3113e+08,2,5471,5471,15.77,2.36,31,58,0,0
3.5493e+05,1.3124e+08,2,5461,5371,15.68,2.49,31,58,0,0
3.5534e+05,1.3134e+08,2,5378,5542,15.75,2.91,31,58,0,0
3.5574e+05,1.3144e+08,2,5535,5328,16.08,2.04,31,58,0,0
3.5619e+05,1.3156e+08,2,5240,4000,15.92,1.64,32,58,0,0
3.5664e+05,1.3166e+08,2,3971,3685,16.16,0.29,31,58,0,0
3.5709e+05,1.3177e+08,2,3645,3271,16.13,0.4,31,58,0,0
3.5756e+05,1.3188e+08,2,3245,2900,16.07,0.35,31,58,0,0
3.5797e+05,1.3198e+08,2,2896,2828,16.07,0.45,31,58,0,0
3.5842e+05,1.321e+08,2,2828,2828,16.05,0.46,31,58,0,0
3.5887e+05,1.322e+08,2,2830,2857,16.05,0.43,31,58,0,0
3.5932e+05,1.3232e+08,2,2854,2828,16.07,0.4,31,58,0,0
3.5973e+05,1.3242e+08,2,2829,2857,16.07,0.41,31,58,0,0
3.6016e+05,1.3253e+08,2,2857,2857,16.07,0.42,31,58,0,0
3.6061e+05,1.3264e+08,2,2857,2857,16.08,0.43,31,58,0,0
3.6106e+05,1.3275e+08,2,2857,2857,16.05,0.44,31,58,0,0
3.6147e+05,1.3286e+08,2,2856,2842,16.09,0.44,31,58,0,0
3.6188e+05,1.3296e+08,2,2842,2857,16.07,0.49,31,58,0,0
3.6232e+05,1.3307e+08,2,2857,2871,16.1,0.47,31,58,0,0
3.6277e+05,1.3318e+08,2,2871,2871,16.08,0.43,31,58,0,0
3.6322e+05,1.3328e+08,2,2871,2871,16.08,0.47,31,58,0,0
3.6366e+05,1.3339e+08,2,2870,2857,16.07,0.45,31,58,0,0
3.641e+05,1.335e+08,2,2854,2828,16.08,0.43,31,58,0,0
3.6456e+05,1.3361e+08,2,2779,2128,16.14,0.02,31,58,0,0
3.65e+05,1.3371e+08,2,2092,1585,16.14,0,31,58,0,0
3.6545e+05,1.3382e+08,2,1571,1385,16.14,0.05,31,58,0,0
3.659e+05,1.3393e+08,2,1381,1342,16.14,0.09,31,58,0,0
3.6635e+05,1.3404e+08,2,1342,1342,16.14,0.09,31,58,0,0
3.6675e+05,1.3414e+08,2,1341,1328,16.15,0.09,31,58,0,0
3.672e+05,1.3425e+08,2,1328,1328,16.14,0.09,31,58,0,0
3.6769e+05,1.3437e+08,2,1328,1328,16.14,0.09,31,58,0,0
3.6814e+05,1.3448e+08,2,1328,1328,16.14,0.09,31,58,0,0
3.6858e+05,1.3459e+08,2,1328,1328,16.15,0.1,31,58,0,0
3.69e+05,1.3469e+08,2,1328,1328,16.15,0.1,31,58,0,0
3.6949e+05,1.3481e+08,2,1328,1328,16.15,0.1,31,58,0,0
3.6997e+05,1.3492e+08,2,1328,1328,16.15,0.1,31,58,0,0
3.7042e+05,1.3503e+08,2,1328,1328,16.16,0.09,31,58,0,0
3.7086e+05,1.3513e+08,2,1328,1328,16.16,0.09,31,58,0,0
3.713e+05,1.3523e+08,2,1328,1328,16.16,0.09,31,58,0,0
3.7175e+05,1.3534e+08,2,1328,1328,16.16,0.1,31,58,0,0
3.722e+05,1.3545e+08,2,1328,1328,16.16,0.1,31,58,0,0
3.7265e+05,1.3556e+08,2,1328,1328,16.16,0.09,31,58,0,0
3.7309e+05,1.3566e+08,2,1328,1328,16.17,0.09,31,58,0,0
3.7354e+05,1.3577e+08,2,1328,1328,16.17,0.1,31,58,0,0
3.7395e+05,1.3588e+08,2,1328,1328,16.16,0.1,31,58,0,0
3.7444e+05,1.3599e+08,2,1328,1328,16.17,0.1,31,58,0,0
3.7485e+05,1.3609e+08,2,1328,1328,16.17,0.1,31,58,0,0
3.753e+05,1.362e+08,2,1328,1328,16.18,0.1,31,58,0,0
3.7575e+05,1.3631e+08,2,1328,1328,16.17,0.1,31,58,0,0
3.7615e+05,1.3641e+08,2,1328,1328,16.15,0.1,31,58,0,0
3.766e+05,1.3652e+08,2,1328,1328,16.17,0.1,31,58,0,0
3.7708e+05,1.3664e+08,2,1328,1328,16.18,0.1,31,58,0,0
3.7749e+05,1.3674e+08,2,1328,1328,16.18,0.1,31,58,0,0
3.7793e+05,1.3684e+08,2,1328,1328,16.18,0.1,31,58,0,0
3.7839e+05,1.3696e+08,2,1328,1328,16.18,0.1,31,58,0,0
3.7884e+05,1.3706e+08,2,1328,1328,16.19,0.1,31,58,0,0
3.7932e+05,1.3717e+08,2,1328,1328,16.19,0.1,31,58,0,0
3.7973e+05,1.3728e+08,2,1328,1328,16.19,0.1,31,58,0,0
3.8022e+05,1.3739e+08,2,1328,1328,16.19,0.1,31,58,0,0
3.8067e+05,1.375e+08,2,1328,1328,16.19,0.1,31,58,0,0
3.8111e+05,1.376e+08,2,1328,1328,16.19,0.1,31,58,0,0
3.8156e+05,1.3771e+08,2,1328,1328,16.19,0.1,31,58,0,0
3.8249e+05,1.3793e+08,2,1328,1328,16.19,0.1,30,58,0,0
3.8297e+05,1.3805e+08,2,1328,1328,16.19,0.1,31,58,0,0
3.8342e+05,1.3816e+08,2,1328,1328,16.19,0.1,31,58,0,0
3.8382e+05,1.3826e+08,2,1328,1328,16.2,0.1,31,58,0,0
3.8428e+05,1.3837e+08,2,1328,1328,16.19,0.1,31,58,0,0
3.8468e+05,1.3846e+08,2,1328,1328,16.2,0.1,31,58,0,0
3.8516e+05,1.3858e+08,2,1328,1328,16.2,0.1,30,58,0,0
3.8561e+05,1.3869e+08,2,1328,1328,16.2,0.1,31,58,0,0
3.8605e+05,1.3879e+08,2,1328,1342,16.2,0.1,31,58,0,0
3.8646e+05,1.3889e+08,2,1341,1328,16.2,0.1,31,58,0,0
3.8691e+05,1.39e+08,2,1328,1328,16.2,0.1,30,58,0,0
3.878e+05,1.3922e+08,2,1328,1328,16.21,0.1,30,58,0,0
3.8825e+05,1.3932e+08,2,1328,1328,16.21,0.1,30,58,0,0
3.887e+05,1.3943e+08,2,1328,1342,16.2,0.1,30,58,0,0
3.8914e+05,1.3954e+08,2,1341,1328,16.21,0.1,30,58,0,0
3.8959e+05,1.3965e+08,2,1328,1328,16.21,0.1,30,58,0,0
3.9008e+05,1.3977e+08,2,1329,1342,16.2,0.1,30,58,0,0
3.9048e+05,1.3986e+08,2,1342,1342,16.21,0.1,30,58,0,0
3.9141e+05,1.4008e+08,2,1342,1342,16.22,0.1,30,58,0,0
3.9191e+05,1.4019e+08,2,1273,514,16.23,0,30,58,0,0
3.9236e+05,1.403e+08,2,488,228,16.23,0.02,30,58,0,0
3.9282e+05,1.4041e+08,2,212,0,16.23,0.02,30,58,0,0
3.9326e+05,1.4051e+08,2,0,0,16.23,0.03,30,58,0,0
3.9376e+05,1.4063e+08,2,0,0,16.23,0.03,30,58,0,0
3.9422e+05,1.4074e+08,2,0,0,16.23,0.02,30,58,0,0
3.9462e+05,1.4084e+08,2,0,0,16.23,0.03,30,58,0,0
3.9507e+05,1.4095e+08,2,0,0,16.23,0.03,30,58,0,0
3.9603e+05,1.4117e+08,2,0,0,16.23,0.03,30,58,0,0
3.9652e+05,1.4129e+08,2,0,0,16.24,0.03,30,58,0,0
3.9697e+05,1.4139e+08,2,0,0,16.24,0.03,30,58,0,0
3.9742e+05,1.415e+08,2,0,0,16.24,0.03,30,58,0,0
3.9788e+05,1.4161e+08,2,0,0,16.24,0.03,30,58,0,0
3.9833e+05,1.4171e+08,2,0,0,16.24,0.03,30,58,0,0
3.9882e+05,1.4184e+08,2,0,0,16.25,0.02,30,58,0,0
3.9923e+05,1.4193e+08,2,0,0,16.25,0.03,30,58,0,0
3.9972e+05,1.4205e+08,2,0,0,16.25,0.03,30,58,0,0
4.0018e+05,1.4215e+08,2,0,0,16.24,0.03,30,58,0,0
4.0063e+05,1.4226e+08,2,0,0,16.25,0.03,30,58,0,0
4.0109e+05,1.4237e+08,2,0,0,16.25,0.03,30,58,0,0
4.0158e+05,1.4248e+08,2,0,0,16.25,0.02,30,58,0,0
4.0203e+05,1.4259e+08,2,0,0,16.25,0.02,30,58,0,0
4.0248e+05,1.427e+08,2,0,0,16.25,0.02,30,58,0,0
4.0298e+05,1.4282e+08,2,0,0,16.25,0.02,30,58,0,0
4.0339e+05,1.4291e+08,2,0,0,16.25,0.02,30,58,0,0
4.0388e+05,1.4303e+08,2,0,0,16.25,0.03,30,58,0,0
4.0474e+05,1.4323e+08,2,0,0,16.25,0.03,30,58,0,0
4.0524e+05,1.4335e+08,2,0,0,16.26,0.03,30,58,0,0
4.0569e+05,1.4346e+08,2,0,0,16.26,0.03,30,58,0,0
4.0614e+05,1.4356e+08,2,0,0,16.25,0.03,30,58,0,0
4.0659e+05,1.4367e+08,2,0,0,16.25,0.03,30,58,0,0
4.0709e+05,1.4379e+08,2,0,0,16.26,0.03,30,58,0,0
4.0754e+05,1.4389e+08,2,0,0,16.25,0.03,30,58,0,0
4.08e+05,1.44e+08,2,0,0,16.26,0.02,30,58,0,0
4.0844e+05,1.4411e+08,2,0,0,16.26,0.03,30,58,0,0
4.0894e+05,1.4422e+08,2,0,0,16.26,0.03,30,58,0,0
