LineNo,TimeUS,Instance,RPM,RawRPM,Volt,Curr,Temp,CTot,MotTemp,Err
1899,4.5443e+07,3,0,0,16.66,0.04,27,0,0,0
2315,4.5547e+07,3,0,0,16.66,0.04,27,0,0,0
2772,4.566e+07,3,0,0,16.66,0.04,27,0,0,0
3190,4.5764e+07,3,0,0,16.66,0.04,27,0,0,0
3608,4.5868e+07,3,0,0,16.66,0.04,27,0,0,0
4063,4.5979e+07,3,0,0,16.66,0.04,27,0,0,0
4516,4.609e+07,3,0,0,16.66,0.04,27,0,0,0
4929,4.6193e+07,3,0,0,16.66,0.04,27,0,0,0
5347,4.6297e+07,3,0,0,16.66,0.04,27,0,0,0
5802,4.641e+07,3,0,0,16.66,0.04,27,0,0,0
6215,4.6514e+07,3,0,0,16.66,0.04,27,0,0,0
6630,4.6616e+07,3,0,0,16.66,0.04,27,0,0,0
7081,4.6727e+07,3,0,0,16.66,0.04,27,0,0,0
7494,4.6829e+07,3,0,0,16.66,0.04,27,0,0,0
7949,4.6941e+07,3,0,0,16.66,0.04,27,0,0,0
8364,4.7044e+07,3,0,0,16.66,0.04,27,0,0,0
8816,4.7155e+07,3,0,0,16.66,0.04,27,0,0,0
9542,4.7362e+07,3,0,0,16.66,0.04,27,0,0,0
9957,4.7465e+07,3,0,0,16.65,0.04,27,0,0,0
10413,4.7575e+07,3,0,0,16.64,0.04,27,0,0,0
10827,4.7678e+07,3,0,0,16.66,0.04,27,0,0,0
11256,4.7789e+07,3,0,0,16.66,0.04,27,0,0,0
11672,4.7893e+07,3,0,0,16.66,0.04,27,0,0,0
12085,4.7994e+07,3,0,0,16.66,0.04,27,0,0,0
12535,4.8103e+07,3,0,0,16.65,0.04,27,0,0,0
12988,4.8214e+07,3,0,0,16.65,0.04,27,0,0,0
13363,4.8312e+07,3,0,0,16.66,0.04,27,0,0,0
13814,4.8424e+07,3,0,0,16.66,0.04,27,0,0,0
14229,4.8526e+07,3,0,0,16.65,0.04,27,0,0,0
14680,4.8637e+07,3,0,0,16.65,0.04,27,0,0,0
15090,4.8738e+07,3,0,0,16.65,0.04,27,0,0,0
15542,4.8853e+07,3,0,0,16.65,0.04,27,0,0,0
15957,4.8953e+07,3,0,0,16.65,0.04,27,0,0,0
16373,4.906e+07,3,0,0,16.65,0.04,27,0,0,0
16826,4.9171e+07,3,0,0,16.66,0.04,27,0,0,0
17238,4.9274e+07,3,0,0,16.65,0.04,27,0,0,0
17692,4.9386e+07,3,0,0,16.66,0.04,27,0,0,0
18104,4.9489e+07,3,0,0,16.65,0.04,27,0,0,0
18519,4.959e+07,3,0,0,16.66,0.04,27,0,0,0
18929,4.9694e+07,3,0,0,16.65,0.04,27,0,0,0
19384,4.9805e+07,3,0,0,16.65,0.04,27,0,0,0
19798,4.991e+07,3,0,0,16.65,0.04,27,0,0,0
20253,5.0023e+07,3,0,0,16.65,0.04,27,0,0,0
20665,5.0125e+07,3,0,0,16.66,0.04,27,0,0,0
21117,5.024e+07,3,0,0,16.66,0.04,27,0,0,0
21535,5.0343e+07,3,0,0,16.66,0.04,27,0,0,0
21947,5.045e+07,3,0,0,16.65,0.04,27,0,0,0
22363,5.0551e+07,3,0,0,16.65,0.04,27,0,0,0
22813,5.0664e+07,3,0,0,16.66,0.04,27,0,0,0
23226,5.0765e+07,3,0,0,16.66,0.04,27,0,0,0
23641,5.0869e+07,3,0,0,16.66,0.04,27,0,0,0
24097,5.0981e+07,3,0,0,16.66,0.04,27,0,0,0
24511,5.1084e+07,3,0,0,16.66,0.04,27,0,0,0
24924,5.1185e+07,3,0,0,16.65,0.04,27,0,0,0
25374,5.1296e+07,3,0,0,16.65,0.04,27,0,0,0
25827,5.1407e+07,3,0,0,16.66,0.04,27,0,0,0
26238,5.151e+07,3,0,0,16.66,0.04,27,0,0,0
26654,5.1619e+07,3,0,0,16.66,0.04,27,0,0,0
27067,5.1719e+07,3,0,0,16.66,0.04,27,0,0,0
27516,5.1832e+07,3,0,0,16.66,0.04,27,0,0,0
27930,5.1933e+07,3,0,0,16.65,0.04,27,0,0,0
28383,5.2048e+07,3,0,0,16.65,0.04,27,0,0,0
28796,5.215e+07,3,0,0,16.65,0.04,27,0,0,0
29205,5.2254e+07,3,0,0,16.65,0.04,27,0,0,0
29663,5.2366e+07,3,0,0,16.66,0.04,27,0,0,0
30080,5.2472e+07,3,0,0,16.65,0.04,27,0,0,0
30495,5.2571e+07,3,0,0,16.65,0.04,27,0,0,0
30975,5.2686e+07,3,0,0,16.66,0.04,27,0,0,0
31428,5.2788e+07,3,0,0,16.65,0.04,27,0,0,0
31925,5.2902e+07,3,0,0,16.66,0.04,27,0,0,0
32381,5.3007e+07,3,0,0,16.65,0.04,27,0,0,0
32837,5.3113e+07,3,0,0,16.66,0.04,27,0,0,0
33330,5.3226e+07,3,0,0,16.66,0.04,27,0,0,0
33780,5.3328e+07,3,0,0,16.66,0.04,27,0,0,0
34728,5.3545e+07,3,0,0,16.66,0.04,27,0,0,0
35179,5.365e+07,3,0,0,16.66,0.04,27,0,0,0
35632,5.3751e+07,3,0,0,16.65,0.04,27,0,0,0
36126,5.3862e+07,3,0,0,16.65,0.04,27,0,0,0
36580,5.3964e+07,3,0,0,16.66,0.04,27,0,0,0
37113,5.4081e+07,3,0,0,16.66,0.04,27,0,0,0
37569,5.4183e+07,3,0,0,16.66,0.04,27,0,0,0
38021,5.4288e+07,3,0,0,16.66,0.04,27,0,0,0
38471,5.4388e+07,3,0,0,16.66,0.04,27,0,0,0
38974,5.4504e+07,3,0,0,16.66,0.04,27,0,0,0
39426,5.4606e+07,3,3,185,16.64,0.05,27,0,0,0
39920,5.472e+07,3,214,657,16.63,0.11,27,0,0,0
40370,5.4827e+07,3,682,1057,16.61,0.17,27,0,0,0
40720,5.4927e+07,3,1059,1257,16.63,0.13,27,0,0,0
41217,5.5042e+07,3,1260,1300,16.63,0.12,27,0,0,0
41677,5.5146e+07,3,1302,1328,16.64,0.11,27,0,0,0
42091,5.5245e+07,3,1328,1342,16.64,0.11,27,0,0,0
42589,5.5356e+07,3,1342,1342,16.63,0.11,27,0,0,0
43040,5.546e+07,3,1342,1357,16.64,0.11,27,0,0,0
43993,5.568e+07,3,1356,1342,16.63,0.11,27,0,0,0
44446,5.578e+07,3,1342,1342,16.64,0.11,27,0,0,0
44946,5.5894e+07,3,1343,1357,16.64,0.11,27,0,0,0
45401,5.5995e+07,3,1356,1342,16.63,0.11,27,0,0,0
45853,5.6099e+07,3,1342,1342,16.63,0.11,27,0,0,0
46390,5.6218e+07,3,1343,1357,16.63,0.11,27,0,0,0
46805,5.6313e+07,3,1357,1357,16.64,0.11,27,0,0,0
47257,5.6417e+07,3,1357,1357,16.63,0.11,27,0,0,0
47756,5.6529e+07,3,1357,1357,16.63,0.11,27,0,0,0
48214,5.6637e+07,3,1355,1342,16.63,0.11,27,0,0,0
48668,5.6739e+07,3,1342,1357,16.64,0.11,27,0,0,0
49163,5.6852e+07,3,1357,1357,16.64,0.11,27,0,0,0
49660,5.6961e+07,3,1357,1357,16.63,0.11,27,0,0,0
50071,5.7059e+07,3,1357,1357,16.63,0.11,27,0,0,0
50573,5.7172e+07,3,1357,1357,16.63,0.11,27,0,0,0
51023,5.7275e+07,3,1357,1357,16.63,0.11,27,0,0,0
51476,5.7377e+07,3,1357,1357,16.64,0.11,27,0,0,0
51971,5.7491e+07,3,1357,1357,16.63,0.11,27,0,0,0
52424,5.7596e+07,3,1357,1357,16.63,0.11,27,0,0,0
52880,5.7702e+07,3,1357,1357,16.63,0.11,27,0,0,0
53374,5.7814e+07,3,1357,1357,16.63,0.11,27,0,0,0
53861,5.7922e+07,3,1357,1357,16.63,0.11,27,0,0,0
54315,5.8028e+07,3,1355,1342,16.63,0.11,27,0,0,0
54773,5.8134e+07,3,1342,1342,16.64,0.11,27,0,0,0
55228,5.8238e+07,3,1342,1357,16.63,0.11,27,0,0,0
55725,5.835e+07,3,1355,1342,16.63,0.11,27,0,0,0
56180,5.8457e+07,3,1342,1342,16.63,0.11,27,0,0,0
56628,5.8559e+07,3,1342,1357,16.63,0.11,27,0,0,0
57080,5.8665e+07,3,1357,1357,16.64,0.11,27,0,0,0
57580,5.8776e+07,3,1355,1342,16.63,0.11,27,0,0,0
58035,5.8884e+07,3,1343,1357,16.63,0.11,27,0,0,0
58489,5.8988e+07,3,1357,1357,16.63,0.11,27,0,0,0
58945,5.9097e+07,3,1357,1357,16.64,0.11,27,0,0,0
59406,5.9203e+07,3,1357,1357,16.63,0.11,27,0,0,0
59854,5.9306e+07,3,1357,1357,16.63,0.11,27,0,0,0
60347,5.9418e+07,3,1357,1357,16.63,0.11,27,0,0,0
60801,5.9521e+07,3,1357,1357,16.63,0.11,27,0,0,0
61252,5.9624e+07,3,1357,1357,16.63,0.11,27,0,0,0
61711,5.973e+07,3,1357,1357,16.63,0.11,27,0,0,0
62169,5.9842e+07,3,1357,1357,16.63,0.11,27,0,0,0
62626,5.9945e+07,3,1357,1357,16.63,0.11,27,0,0,0
63075,6.0049e+07,3,1357,1357,16.63,0.11,27,0,0,0
64029,6.0267e+07,3,1357,1357,16.63,0.11,27,0,0,0
64484,6.037e+07,3,1357,1357,16.63,0.11,27,0,0,0
64941,6.0477e+07,3,1357,1357,16.63,0.11,27,0,0,0
65438,6.0589e+07,3,1357,1357,16.63,0.11,27,0,0,0
65929,6.0699e+07,3,1355,1342,16.62,0.11,27,0,0,0
66381,6.08e+07,3,1342,1357,16.63,0.11,27,0,0,0
66838,6.0905e+07,3,1357,1357,16.63,0.11,27,0,0,0
67344,6.1024e+07,3,1357,1357,16.63,0.11,27,0,0,0
67751,6.1115e+07,3,1357,1357,16.63,0.11,27,0,0,0
68289,6.1234e+07,3,1357,1357,16.63,0.11,27,0,0,0
68742,6.1335e+07,3,1357,1357,16.63,0.11,27,0,0,0
69196,6.1439e+07,3,1357,1357,16.63,0.11,27,0,0,0
69648,6.154e+07,3,1357,1357,16.63,0.11,27,0,0,0
70138,6.1653e+07,3,1357,1357,16.63,0.11,27,0,0,0
70636,6.1764e+07,3,1357,1357,16.63,0.11,27,0,0,0
71089,6.187e+07,3,1357,1357,16.63,0.11,27,0,0,0
71586,6.1979e+07,3,1357,1357,16.63,0.11,27,0,0,0
72034,6.2083e+07,3,1357,1357,16.63,0.11,27,0,0,0
72493,6.2191e+07,3,1357,1357,16.63,0.1,27,0,0,0
72946,6.2296e+07,3,1357,1357,16.63,0.11,27,0,0,0
73404,6.2403e+07,3,1357,1357,16.62,0.11,27,0,0,0
73891,6.2518e+07,3,1315,700,16.64,0.02,27,0,0,0
74324,6.2624e+07,3,683,242,16.65,0.02,27,0,0,0
74780,6.2732e+07,3,224,0,16.65,0.03,27,0,0,0
75236,6.284e+07,3,0,0,16.64,0.04,27,0,0,0
75690,6.2947e+07,3,0,0,16.64,0.04,27,0,0,0
76181,6.3061e+07,3,0,0,16.64,0.04,27,0,0,0
76634,6.3164e+07,3,0,0,16.64,0.04,27,0,0,0
77088,6.3273e+07,3,0,0,16.65,0.04,27,0,0,0
77544,6.3379e+07,3,0,0,16.64,0.04,27,0,0,0
77998,6.3488e+07,3,0,0,16.64,0.04,27,0,0,0
78495,6.3602e+07,3,0,0,16.64,0.04,27,0,0,0
78948,6.371e+07,3,0,0,16.65,0.04,27,0,0,0
79446,6.3828e+07,3,0,0,16.65,0.04,27,0,0,0
79904,6.3934e+07,3,0,0,16.64,0.04,27,0,0,0
80355,6.4043e+07,3,0,0,16.65,0.04,27,0,0,0
80807,6.4146e+07,3,0,0,16.64,0.04,27,0,0,0
81263,6.4259e+07,3,0,0,16.64,0.04,27,0,0,0
81718,6.4366e+07,3,0,0,16.64,0.04,27,0,0,0
82169,6.4474e+07,3,0,0,16.65,0.04,27,0,0,0
82622,6.4579e+07,3,0,0,16.64,0.04,27,0,0,0
83112,6.4691e+07,3,0,0,16.64,0.04,27,0,0,0
83613,6.4813e+07,3,0,0,16.64,0.04,27,0,0,0
84068,6.4919e+07,3,0,0,16.65,0.04,27,0,0,0
84516,6.5023e+07,3,0,0,16.65,0.04,27,0,0,0
84971,6.513e+07,3,0,0,16.64,0.04,27,0,0,0
85419,6.5233e+07,3,0,0,16.64,0.04,27,0,0,0
85917,6.5348e+07,3,0,0,16.64,0.04,27,0,0,0
86372,6.5456e+07,3,0,0,16.64,0.04,27,0,0,0
86868,6.5572e+07,3,0,0,16.65,0.04,27,0,0,0
87316,6.5679e+07,3,0,0,16.65,0.04,27,0,0,0
87770,6.5785e+07,3,0,0,16.65,0.04,27,0,0,0
88222,6.5891e+07,3,0,0,16.65,0.04,27,0,0,0
88720,6.6006e+07,3,0,0,16.65,0.04,27,0,0,0
89174,6.6115e+07,3,0,0,16.64,0.04,27,0,0,0
89623,6.6221e+07,3,0,0,16.64,0.04,27,0,0,0
90118,6.6336e+07,3,0,0,16.64,0.04,27,0,0,0
90579,6.6445e+07,3,0,0,16.64,0.04,27,0,0,0
91032,6.6549e+07,3,0,0,16.65,0.04,27,0,0,0
91529,6.6665e+07,3,0,0,16.64,0.04,27,0,0,0
91986,6.677e+07,3,0,0,16.65,0.04,27,0,0,0
92442,6.6877e+07,3,0,0,16.65,0.04,27,0,0,0
92900,6.6983e+07,3,0,0,16.65,0.04,27,0,0,0
93353,6.7091e+07,3,0,0,16.65,0.04,27,0,0,0
93850,6.7203e+07,3,0,0,16.64,0.04,27,0,0,0
94301,6.7311e+07,3,0,0,16.65,0.04,27,0,0,0
94752,6.7414e+07,3,0,0,16.64,0.04,27,0,0,0
95205,6.7516e+07,3,0,0,16.65,0.04,27,0,0,0
95657,6.7622e+07,3,0,0,16.65,0.04,27,0,0,0
96153,6.7735e+07,3,0,0,16.64,0.04,27,0,0,0
97064,6.7946e+07,3,0,0,16.65,0.04,27,0,0,0
97554,6.806e+07,3,0,0,16.65,0.04,27,0,0,0
98006,6.8162e+07,3,0,0,16.65,0.04,27,0,0,0
98500,6.8279e+07,3,0,0,16.64,0.04,27,0,0,0
98955,6.8381e+07,3,0,0,16.65,0.04,27,0,0,0
99409,6.8491e+07,3,0,0,16.65,0.03,27,0,0,0
99908,6.8607e+07,3,17,157,16.63,0.05,27,0,0,0
1.0036e+05,6.871e+07,3,203,671,16.63,0.11,27,0,0,0
1.0081e+05,6.8813e+07,3,685,1085,16.6,0.18,27,0,0,0
1.0126e+05,6.8918e+07,3,1088,1257,16.63,0.13,27,0,0,0
1.0172e+05,6.9029e+07,3,1257,1300,16.63,0.12,27,0,0,0
1.0222e+05,6.9141e+07,3,1302,1328,16.63,0.11,27,0,0,0
1.0268e+05,6.925e+07,3,1329,1342,16.64,0.11,27,0,0,0
1.0313e+05,6.9352e+07,3,1342,1342,16.64,0.11,27,0,0,0
1.0359e+05,6.9462e+07,3,1343,1371,16.61,0.14,27,0,0,0
1.0408e+05,6.9574e+07,3,1397,1685,16.61,0.29,27,0,0,0
1.045e+05,6.9677e+07,3,1722,2257,16.54,0.58,27,0,0,0
1.0476e+05,6.9788e+07,3,2269,2414,16.57,0.33,27,0,0,0
1.0522e+05,6.9898e+07,3,2407,2342,16.59,0.35,27,0,0,0
1.0568e+05,7.0004e+07,3,2351,2442,16.57,0.35,27,0,0,0
1.0613e+05,7.0112e+07,3,2434,2357,16.6,0.28,27,0,0,0
1.0658e+05,7.0218e+07,3,2365,2471,16.6,0.37,27,0,0,0
1.0704e+05,7.0329e+07,3,2499,2785,16.42,0.88,27,0,0,0
1.0794e+05,7.0543e+07,3,2816,4214,16.2,1.92,27,0,0,0
1.0885e+05,7.0758e+07,3,4243,5100,16.1,2.94,27,1,0,0
1.0931e+05,7.087e+07,3,5141,5557,15.97,3.5,27,1,0,0
1.0976e+05,7.0976e+07,3,5581,5914,16.05,3.31,27,1,0,0
1.1026e+05,7.1093e+07,3,5898,5728,16.16,2.49,27,1,0,0
1.107e+05,7.1197e+07,3,5706,5414,16.12,2.26,27,1,0,0
1.1116e+05,7.1308e+07,3,5401,5285,16.11,2.09,27,1,0,0
1.1162e+05,7.1415e+07,3,5261,4957,16.1,1.74,27,1,0,0
1.1207e+05,7.1523e+07,3,4950,4857,16.11,1.9,27,1,0,0
1.1252e+05,7.1632e+07,3,4857,4871,16.11,1.89,27,1,0,0
1.1344e+05,7.1851e+07,3,4855,4542,16.06,1.58,27,1,0,0
1.1389e+05,7.1956e+07,3,4540,4500,16.09,1.58,27,1,0,0
1.1437e+05,7.2066e+07,3,4499,4471,16.09,1.45,27,1,0,0
1.1486e+05,7.2181e+07,3,4479,4571,16.05,1.7,27,1,0,0
1.1527e+05,7.2282e+07,3,4575,4871,16.13,2.2,27,1,0,0
1.1577e+05,7.2395e+07,3,4869,4842,16.11,2.07,27,2,0,0
1.1622e+05,7.2505e+07,3,4855,5042,16.05,2.08,27,2,0,0
1.1668e+05,7.2611e+07,3,5044,5114,16.07,2.39,27,2,0,0
1.1713e+05,7.2718e+07,3,5115,5157,16.01,2.41,27,2,0,0
1.1758e+05,7.2827e+07,3,5161,5271,16.05,2.64,27,2,0,0
1.1803e+05,7.2932e+07,3,5270,5257,16.05,2.52,27,2,0,0
1.1848e+05,7.304e+07,3,5258,5342,15.99,2.66,27,2,0,0
1.1898e+05,7.3156e+07,3,5348,5428,16,2.61,27,2,0,0
1.1939e+05,7.3263e+07,3,5420,5328,16.05,2.44,28,2,0,0
1.1989e+05,7.3376e+07,3,5325,5300,16.06,2.42,28,2,0,0
1.203e+05,7.3476e+07,3,5304,5400,16.01,2.82,27,2,0,0
1.208e+05,7.3594e+07,3,5408,5528,15.95,2.72,28,2,0,0
1.2125e+05,7.3702e+07,3,5507,5314,16.02,2.51,28,3,0,0
1.2166e+05,7.3803e+07,3,5313,5300,16.04,2.28,28,3,0,0
1.2212e+05,7.3912e+07,3,5296,5228,15.98,2.07,28,3,0,0
1.2303e+05,7.4132e+07,3,5227,5200,16.02,2.37,28,3,0,0
1.2344e+05,7.4236e+07,3,5199,5157,15.96,2.28,28,3,0,0
1.2394e+05,7.4354e+07,3,5167,5328,16.05,2.3,28,3,0,0
1.2438e+05,7.446e+07,3,5315,5157,15.91,2.4,28,3,0,0
1.2479e+05,7.456e+07,3,5159,5271,15.96,2.46,28,3,0,0
1.2523e+05,7.4669e+07,3,5272,5342,15.91,2.61,28,3,0,0
1.2568e+05,7.4778e+07,3,5334,5157,15.9,2.49,28,3,0,0
1.2613e+05,7.489e+07,3,5159,5285,15.88,2.59,28,3,0,0
1.2658e+05,7.4998e+07,3,5284,5242,15.95,2.41,28,3,0,0
1.2706e+05,7.5114e+07,3,5246,5300,15.97,2.55,28,3,0,0
1.2752e+05,7.5227e+07,3,5294,5242,15.98,2.37,28,3,0,0
1.2792e+05,7.5326e+07,3,5232,5114,16.04,2.03,28,4,0,0
1.284e+05,7.5441e+07,3,5101,4928,16.07,2.1,28,4,0,0
1.2886e+05,7.5554e+07,3,4924,4885,16.08,1.74,28,4,0,0
1.2926e+05,7.5657e+07,3,4882,4828,16.08,1.77,28,4,0,0
1.2975e+05,7.5772e+07,3,4831,4885,16.02,2.18,28,4,0,0
1.302e+05,7.5884e+07,3,4888,4928,16.13,1.97,28,4,0,0
1.3066e+05,7.5995e+07,3,4937,5028,16.08,2.33,28,4,0,0
1.311e+05,7.6104e+07,3,5039,5142,16.04,2.51,28,4,0,0
1.315e+05,7.62e+07,3,5141,5128,15.94,2.36,28,4,0,0
1.3198e+05,7.6315e+07,3,5136,5257,16.02,2.27,28,4,0,0
1.3288e+05,7.6536e+07,3,5253,5157,16.02,2.25,28,4,0,0
1.3332e+05,7.6644e+07,3,5162,5285,16.01,2.45,28,4,0,0
1.3382e+05,7.6762e+07,3,5294,5385,15.98,2.64,28,4,0,0
1.3422e+05,7.6863e+07,3,5385,5385,15.98,2.62,28,5,0,0
1.3468e+05,7.6971e+07,3,5383,5300,15.98,2.42,28,5,0,0
1.3516e+05,7.709e+07,3,5298,5285,16.06,2.37,28,5,0,0
1.356e+05,7.7197e+07,3,5284,5228,16.02,2.04,28,5,0,0
1.3602e+05,7.7306e+07,3,5223,5114,15.91,2.27,28,5,0,0
1.365e+05,7.7421e+07,3,5114,5114,15.97,2.2,28,5,0,0
1.3694e+05,7.7529e+07,3,5111,5085,16.05,2.19,28,5,0,0
1.3735e+05,7.7631e+07,3,5083,5014,16.11,1.96,28,5,0,0
1.378e+05,7.7737e+07,3,5014,5014,16.05,2.17,28,5,0,0
1.387e+05,7.796e+07,3,5017,5114,16.04,2.34,28,5,0,0
1.3915e+05,7.8074e+07,3,5116,5142,16.04,2.3,28,5,0,0
1.3955e+05,7.8174e+07,3,5138,5057,16.04,2.1,28,5,0,0
1.4e+05,7.8285e+07,3,5062,5200,15.97,2.2,28,5,0,0
1.4045e+05,7.8397e+07,3,5184,4942,15.91,1.92,28,5,0,0
1.409e+05,7.8507e+07,3,4949,5028,15.99,2.04,28,6,0,0
1.4138e+05,7.8619e+07,3,5024,4985,15.97,2.08,28,6,0,0
1.4182e+05,7.8733e+07,3,4982,4957,15.97,2,28,6,0,0
1.4223e+05,7.8838e+07,3,4960,4985,15.97,2.21,28,6,0,0
1.4268e+05,7.8947e+07,3,5003,5157,15.94,2.25,28,6,0,0
1.4313e+05,7.9057e+07,3,5165,5242,16.02,2.12,28,6,0,0
1.4358e+05,7.9171e+07,3,5226,5128,15.97,1.96,28,6,0,0
1.4489e+05,7.949e+07,3,5122,4985,15.99,2.02,28,6,0,0
1.4534e+05,7.9602e+07,3,4988,5014,16,2.03,28,6,0,0
1.4574e+05,7.9703e+07,3,5013,5000,15.97,2.04,28,6,0,0
1.4624e+05,7.982e+07,3,5003,5042,16.04,1.83,28,6,0,0
1.4664e+05,7.9921e+07,3,5004,4700,15.97,1.62,28,6,0,0
1.4708e+05,8.0034e+07,3,4697,4671,15.95,2.16,28,6,0,0
1.4753e+05,8.0141e+07,3,4671,4671,15.98,1.65,28,6,0,0
1.4798e+05,8.0253e+07,3,4665,4614,15.92,1.55,28,7,0,0
1.4843e+05,8.0358e+07,3,4617,4671,15.92,2.11,28,7,0,0
1.4887e+05,8.0469e+07,3,4681,4914,15.89,2.1,28,7,0,0
1.4927e+05,8.0569e+07,3,4912,4842,15.98,1.81,28,7,0,0
1.5021e+05,8.08e+07,3,4828,4571,16.01,1.33,28,7,0,0
1.5062e+05,8.0901e+07,3,4573,4700,15.97,1.89,28,7,0,0
1.5111e+05,8.1019e+07,3,4716,4885,15.96,2.07,28,7,0,0
1.5151e+05,8.1119e+07,3,4879,4800,15.96,1.55,28,7,0,0
1.5196e+05,8.1226e+07,3,4803,4900,15.95,2.2,28,7,0,0
1.5241e+05,8.1335e+07,3,4897,4857,16.04,1.75,28,7,0,0
1.5285e+05,8.1443e+07,3,4851,4814,15.94,1.9,28,7,0,0
1.533e+05,8.1552e+07,3,4825,5157,15.91,2.56,28,7,0,0
1.5374e+05,8.1661e+07,3,5164,5257,15.88,2.57,28,7,0,0
1.5419e+05,8.177e+07,3,5266,5357,15.92,2.49,28,7,0,0
1.546e+05,8.1875e+07,3,5359,5428,15.93,2.62,28,7,0,0
1.5508e+05,8.1984e+07,3,5421,5285,15.93,2.31,28,7,0,0
1.5553e+05,8.2095e+07,3,5282,5257,15.95,2.2,28,8,0,0
1.5594e+05,8.2198e+07,3,5254,5200,15.95,2.37,28,8,0,0
1.5638e+05,8.2302e+07,3,5203,5328,15.86,2.43,28,8,0,0
1.5688e+05,8.2423e+07,3,5319,5200,15.95,2.42,28,8,0,0
1.5729e+05,8.2528e+07,3,5202,5228,15.89,2.28,28,8,0,0
1.5772e+05,8.2631e+07,3,5225,5200,15.97,2.42,28,8,0,0
1.5818e+05,8.2744e+07,3,5212,5342,15.91,2.56,28,8,0,0
1.5859e+05,8.2849e+07,3,5334,5257,15.9,2.33,28,8,0,0
1.5903e+05,8.2953e+07,3,5262,5385,15.86,2.72,28,8,0,0
1.5996e+05,8.318e+07,3,5376,5200,15.95,2.01,28,8,0,0
1.6037e+05,8.3283e+07,3,5191,5071,15.93,1.88,28,8,0,0
1.6083e+05,8.3394e+07,3,5069,5042,15.94,2.29,28,8,0,0
1.6127e+05,8.3505e+07,3,5047,5128,15.92,2.29,28,8,0,0
1.6172e+05,8.3612e+07,3,5128,5157,16.01,2.38,28,9,0,0
1.6217e+05,8.3722e+07,3,5160,5200,15.91,2.49,28,9,0,0
1.6258e+05,8.3829e+07,3,5212,5471,15.98,2.89,28,9,0,0
1.6302e+05,8.3934e+07,3,5472,5485,15.96,2.72,28,9,0,0
1.6347e+05,8.4043e+07,3,5477,5328,16,2.3,28,9,0,0
1.6392e+05,8.415e+07,3,5327,5300,15.95,2.45,28,9,0,0
1.6436e+05,8.4261e+07,3,5298,5271,15.91,2.11,28,9,0,0
1.6482e+05,8.4372e+07,3,5266,5157,15.98,2.04,28,9,0,0
1.6526e+05,8.448e+07,3,5145,4871,15.89,1.93,28,9,0,0
1.6575e+05,8.4592e+07,3,4894,5128,15.91,2.4,28,9,0,0
1.6619e+05,8.47e+07,3,5122,5042,15.88,1.96,28,9,0,0
1.6709e+05,8.4918e+07,3,5039,4885,15.92,1.89,28,9,0,0
1.6753e+05,8.5027e+07,3,4883,4785,15.91,1.68,28,9,0,0
1.6798e+05,8.5135e+07,3,4785,4785,15.95,1.82,28,10,0,0
1.6842e+05,8.5243e+07,3,4784,4771,15.86,1.87,28,10,0,0
1.6892e+05,8.5361e+07,3,4777,4842,15.93,1.92,29,10,0,0
1.6936e+05,8.5468e+07,3,4835,4742,15.97,1.47,28,10,0,0
1.6981e+05,8.5578e+07,3,4738,4700,15.95,1.67,28,10,0,0
1.7025e+05,8.5688e+07,3,4701,4714,15.88,1.94,28,10,0,0
1.707e+05,8.5796e+07,3,4722,4842,15.91,1.94,29,10,0,0
1.711e+05,8.5894e+07,3,4843,4957,15.96,2.17,28,10,0,0
1.716e+05,8.601e+07,3,4986,5271,15.98,2.35,28,10,0,0
1.7203e+05,8.6117e+07,3,5264,5171,15.92,2.39,28,10,0,0
1.7248e+05,8.6228e+07,3,5168,5142,15.96,2.17,28,10,0,0
1.7289e+05,8.6333e+07,3,5147,5271,15.87,2.42,28,10,0,0
1.7334e+05,8.6442e+07,3,5272,5285,15.92,2.33,28,10,0,0
1.7379e+05,8.6552e+07,3,5278,5214,15.89,2.55,29,10,0,0
1.7423e+05,8.6661e+07,3,5237,5485,15.95,2.75,29,10,0,0
1.7464e+05,8.6761e+07,3,5471,5228,15.96,1.86,29,10,0,0
1.7509e+05,8.6874e+07,3,5213,5000,15.92,1.97,29,10,0,0
1.7554e+05,8.6981e+07,3,4990,4800,15.92,1.62,29,11,0,0
1.7599e+05,8.7093e+07,3,4794,4657,15.91,1.85,29,11,0,0
1.7643e+05,8.72e+07,3,4661,4757,15.8,1.95,29,11,0,0
1.7692e+05,8.7323e+07,3,4768,4842,15.8,2.03,29,11,0,0
1.7781e+05,8.7535e+07,3,4844,4928,15.85,2.21,29,11,0,0
1.7821e+05,8.7644e+07,3,4931,4971,15.9,2.36,29,11,0,0
1.7866e+05,8.7754e+07,3,4973,5028,15.89,2.28,29,11,0,0
1.7911e+05,8.7868e+07,3,5025,4971,15.86,2.13,29,11,0,0
1.7993e+05,8.8071e+07,3,4973,5200,15.88,2.45,29,11,0,0
1.8038e+05,8.8181e+07,3,5201,5300,15.88,2.68,28,11,0,0
1.8127e+05,8.8401e+07,3,5300,5342,15.83,2.7,29,11,0,0
1.8213e+05,8.8615e+07,3,5340,5257,15.95,2.6,29,12,0,0
1.8303e+05,8.8835e+07,3,5259,5400,15.94,2.7,29,12,0,0
1.8392e+05,8.9052e+07,3,5401,5600,15.95,2.86,29,12,0,0
1.8436e+05,8.9157e+07,3,5600,5657,15.89,2.85,29,12,0,0
1.8485e+05,8.9272e+07,3,5662,5714,15.91,2.95,29,12,0,0
1.8525e+05,8.937e+07,3,5712,5614,15.85,3.13,29,12,0,0
1.857e+05,8.9486e+07,3,5608,5528,15.93,2.87,29,12,0,0
1.8615e+05,8.9594e+07,3,5533,5642,15.88,3.47,29,12,0,0
1.8659e+05,8.9702e+07,3,5643,5700,15.86,3.03,29,12,0,0
1.8705e+05,8.9811e+07,3,5701,5714,15.92,3.02,29,13,0,0
1.8749e+05,8.9924e+07,3,5695,5500,15.91,2.68,29,13,0,0
1.8795e+05,9.0038e+07,3,5496,5471,15.89,2.77,29,13,0,0
1.8835e+05,9.0136e+07,3,5469,5442,15.84,2.56,29,13,0,0
1.888e+05,9.0242e+07,3,5441,5428,15.9,2.59,29,13,0,0
1.8928e+05,9.0357e+07,3,5417,5314,15.92,2.62,29,13,0,0
1.8969e+05,9.0458e+07,3,5320,5457,15.86,3.07,29,13,0,0
1.9014e+05,9.0568e+07,3,5474,5714,15.92,3.54,29,13,0,0
1.9058e+05,9.0677e+07,3,5706,5600,15.9,2.8,29,13,0,0
1.9103e+05,9.0788e+07,3,5600,5614,15.86,2.67,29,13,0,0
1.9148e+05,9.0895e+07,3,5607,5471,15.94,2.54,29,13,0,0
1.9192e+05,9.1003e+07,3,5468,5357,15.89,2.63,29,13,0,0
1.9238e+05,9.1121e+07,3,5359,5400,15.88,2.44,29,14,0,0
1.9283e+05,9.1232e+07,3,5406,5485,15.85,2.61,29,14,0,0
1.9328e+05,9.134e+07,3,5482,5442,15.88,2.46,29,14,0,0
1.9368e+05,9.1442e+07,3,5441,5400,15.92,2.55,29,14,0,0
1.9454e+05,9.1666e+07,3,5127,5114,15.92,2.43,29,14,0,0
1.9494e+05,9.1764e+07,3,5115,5200,15.9,2.55,29,14,0,0
1.9543e+05,9.1884e+07,3,5200,5200,15.83,2.47,29,14,0,0
1.9588e+05,9.1994e+07,3,5213,5400,15.87,2.52,29,14,0,0
1.9633e+05,9.2101e+07,3,5395,5314,15.82,2.41,29,14,0,0
1.9678e+05,9.2216e+07,3,5314,5314,15.88,2.47,29,14,0,0
1.9723e+05,9.2325e+07,3,5320,5385,15.83,2.63,29,14,0,0
1.9761e+05,9.2434e+07,3,5384,5371,15.84,2.7,29,14,0,0
1.9802e+05,9.2534e+07,3,5381,5600,15.87,2.63,29,15,0,0
1.9848e+05,9.265e+07,3,5584,5414,15.75,2.61,29,15,0,0
1.9888e+05,9.275e+07,3,5416,5600,15.85,2.65,29,15,0,0
1.9933e+05,9.2861e+07,3,5593,5457,15.76,2.77,29,15,0,0
1.9978e+05,9.2969e+07,3,5456,5414,15.83,2.69,29,15,0,0
2.0023e+05,9.3076e+07,3,5411,5357,15.81,2.52,29,15,0,0
2.0068e+05,9.3186e+07,3,5359,5400,15.86,2.7,29,15,0,0
2.0112e+05,9.3297e+07,3,5407,5485,15.83,2.52,29,15,0,0
2.0153e+05,9.3397e+07,3,5482,5342,15.79,2.57,29,15,0,0
2.0197e+05,9.3507e+07,3,5342,5371,15.79,2.33,29,15,0,0
2.0242e+05,9.3614e+07,3,5370,5328,15.87,2.12,29,15,0,0
2.029e+05,9.3729e+07,3,5309,5042,15.79,1.89,29,15,0,0
2.033e+05,9.383e+07,3,5041,5028,15.81,2.04,29,15,0,0
2.038e+05,9.3945e+07,3,5039,5157,15.77,2.22,29,15,0,0
2.0424e+05,9.4053e+07,3,5155,5128,15.83,2.19,29,16,0,0
2.0469e+05,9.4159e+07,3,5133,5214,15.82,2.33,29,16,0,0
2.051e+05,9.4261e+07,3,5214,5228,15.83,2.46,29,16,0,0
2.0558e+05,9.4369e+07,3,5229,5285,15.82,2.64,29,16,0,0
2.0602e+05,9.4476e+07,3,5284,5271,15.84,2.39,29,16,0,0
2.0647e+05,9.4588e+07,3,5271,5271,15.83,2.41,29,16,0,0
2.0692e+05,9.4698e+07,3,5269,5228,15.84,2.53,29,16,0,0
2.074e+05,9.4817e+07,3,5226,5214,15.83,2.32,29,16,0,0
2.0781e+05,9.4922e+07,3,5227,5371,15.89,2.23,29,16,0,0
2.0826e+05,9.5028e+07,3,5350,5142,15.83,2.25,29,16,0,0
2.087e+05,9.5136e+07,3,5137,5042,15.89,2.08,29,16,0,0
2.0915e+05,9.5251e+07,3,5043,5057,15.83,2.05,29,16,0,0
2.0956e+05,9.5348e+07,3,5055,5014,15.83,2.07,29,16,0,0
2.1e+05,9.5462e+07,3,5011,4985,15.8,1.93,29,16,0,0
2.1045e+05,9.5566e+07,3,4987,5028,15.86,1.81,29,17,0,0
2.109e+05,9.5679e+07,3,5007,4785,15.85,1.7,29,17,0,0
2.1135e+05,9.579e+07,3,4783,4771,15.89,1.64,29,17,0,0
2.118e+05,9.5903e+07,3,4781,4857,15.86,1.79,29,17,0,0
2.1224e+05,9.6004e+07,3,4862,4914,15.85,1.76,29,17,0,0
2.1269e+05,9.6115e+07,3,4907,4828,15.89,1.54,29,17,0,0
2.131e+05,9.6215e+07,3,4828,4885,15.86,1.86,29,17,0,0
2.1358e+05,9.6334e+07,3,4881,4842,15.84,1.91,29,17,0,0
2.1399e+05,9.6434e+07,3,4843,4914,15.91,1.84,29,17,0,0
2.1448e+05,9.6553e+07,3,4914,4914,15.88,1.76,29,17,0,0
2.1488e+05,9.666e+07,3,4914,4914,15.86,1.75,29,17,0,0
2.1529e+05,9.6762e+07,3,4912,4842,15.87,1.77,29,17,0,0
2.1574e+05,9.6874e+07,3,4843,4871,15.88,1.77,29,17,0,0
2.1619e+05,9.6983e+07,3,4873,4914,15.86,1.7,29,17,0,0
2.166e+05,9.7089e+07,3,4913,4885,15.84,1.72,29,17,0,0
2.171e+05,9.7207e+07,3,4888,4928,15.81,1.71,29,17,0,0
2.1754e+05,9.7318e+07,3,4926,4914,15.88,1.59,29,17,0,0
2.1794e+05,9.7417e+07,3,4912,4771,15.83,1.42,29,17,0,0
2.1838e+05,9.7523e+07,3,4769,4714,15.89,1.55,29,17,0,0
2.1884e+05,9.7638e+07,3,4712,4628,15.83,1.46,29,17,0,0
2.1929e+05,9.7746e+07,3,4631,4671,15.84,1.64,29,18,0,0
2.1973e+05,9.7856e+07,3,4687,4842,15.85,1.73,29,18,0,0
2.2058e+05,9.8065e+07,3,4843,4971,15.85,2.15,29,18,0,0
2.2156e+05,9.8295e+07,3,4978,5128,15.83,1.99,29,18,0,0
2.2201e+05,9.8404e+07,3,5125,5100,15.86,2.21,29,18,0,0
2.2245e+05,9.8512e+07,3,5108,5228,15.81,2.31,29,18,0,0
2.229e+05,9.8621e+07,3,5229,5257,15.8,2.15,29,18,0,0
2.233e+05,9.872e+07,3,5251,5128,15.8,2.11,29,18,0,0
2.238e+05,9.8841e+07,3,5130,5157,15.8,2.25,29,18,0,0
2.242e+05,9.8941e+07,3,5150,5000,15.84,1.71,29,18,0,0
2.2469e+05,9.9057e+07,3,5000,5014,15.85,1.79,29,18,0,0
2.2514e+05,9.9166e+07,3,5005,4928,15.81,1.92,29,18,0,0
2.2558e+05,9.9274e+07,3,4936,5014,15.83,1.92,29,18,0,0
2.2602e+05,9.9381e+07,3,5013,4985,15.88,1.84,29,18,0,0
2.2647e+05,9.9492e+07,3,4985,4985,15.78,1.89,29,19,0,0
2.2696e+05,9.9605e+07,3,4983,4971,15.85,2,29,19,0,0
2.2736e+05,9.9705e+07,3,4973,5085,15.8,2.01,29,19,0,0
2.278e+05,9.9818e+07,3,5081,5014,15.81,1.99,29,19,0,0
2.287e+05,1.0004e+08,3,5013,4985,15.83,1.83,29,19,0,0
2.2915e+05,1.0015e+08,3,4979,4900,15.84,1.9,29,19,0,0
2.2956e+05,1.0025e+08,3,4901,4985,15.76,2.15,29,19,0,0
2.3005e+05,1.0037e+08,3,4987,5028,15.81,2.22,29,19,0,0
2.3046e+05,1.0047e+08,3,5028,5057,15.81,2.22,29,19,0,0
2.3091e+05,1.0058e+08,3,5058,5085,15.8,2.24,29,19,0,0
2.3139e+05,1.007e+08,3,5085,5100,15.8,2.45,29,19,0,0
2.3183e+05,1.008e+08,3,5093,5014,15.77,1.99,29,19,0,0
2.3228e+05,1.0092e+08,3,5021,5100,15.8,2.15,29,19,0,0
2.3273e+05,1.0103e+08,3,5105,5157,15.82,2.16,29,19,0,0
2.3314e+05,1.0113e+08,3,5154,4971,15.86,1.7,29,19,0,0
2.3357e+05,1.0123e+08,3,4966,4814,15.83,1.56,29,20,0,0
2.3402e+05,1.0134e+08,3,4810,4685,15.86,1.26,29,20,0,0
2.3443e+05,1.0145e+08,3,4679,4557,15.82,1.4,29,20,0,0
2.3488e+05,1.0156e+08,3,4559,4700,15.85,1.6,29,20,0,0
2.3537e+05,1.0167e+08,3,4709,4842,15.85,1.69,29,20,0,0
2.3582e+05,1.0178e+08,3,4841,4828,15.79,1.75,29,20,0,0
2.3622e+05,1.0188e+08,3,4828,4842,15.81,1.88,29,20,0,0
2.3667e+05,1.0199e+08,3,4842,4885,15.85,1.55,29,20,0,0
2.3716e+05,1.0211e+08,3,4882,4842,15.82,1.61,29,20,0,0
2.3809e+05,1.0233e+08,3,4843,4871,15.74,1.75,29,20,0,0
2.3898e+05,1.0255e+08,3,4873,4928,15.84,1.6,29,20,0,0
2.3942e+05,1.0266e+08,3,4928,4928,15.78,1.74,29,20,0,0
2.3987e+05,1.0276e+08,3,4941,5128,15.85,2.08,29,20,0,0
2.4032e+05,1.0287e+08,3,5132,5171,15.87,1.85,29,20,0,0
2.4072e+05,1.0298e+08,3,5171,5185,15.82,2,29,20,0,0
2.4121e+05,1.0309e+08,3,5180,5114,15.85,1.9,29,20,0,0
2.4166e+05,1.032e+08,3,5116,5142,15.82,1.84,29,20,0,0
2.421e+05,1.0332e+08,3,5140,5128,15.84,1.91,29,20,0,0
2.4252e+05,1.0342e+08,3,5126,5114,15.89,1.72,29,21,0,0
2.4296e+05,1.0352e+08,3,5108,5014,15.82,1.83,29,21,0,0
2.434e+05,1.0363e+08,3,5015,5042,15.76,1.87,29,21,0,0
2.4393e+05,1.0376e+08,3,5038,5014,15.83,1.86,29,21,0,0
2.443e+05,1.0385e+08,3,5017,5100,15.81,1.92,29,21,0,0
2.4474e+05,1.0396e+08,3,5096,5014,15.84,1.8,29,21,0,0
2.452e+05,1.0408e+08,3,5013,5000,15.81,1.71,29,21,0,0
2.4552e+05,1.0418e+08,3,4995,4957,15.82,1.65,29,21,0,0
2.4596e+05,1.0429e+08,3,4953,4871,15.79,1.87,29,21,0,0
2.4642e+05,1.0439e+08,3,4873,5014,15.85,2.08,29,21,0,0
2.4686e+05,1.0451e+08,3,5021,5085,15.84,1.95,29,21,0,0
2.4735e+05,1.0462e+08,3,5079,5000,15.77,1.94,29,21,0,0
2.478e+05,1.0473e+08,3,5012,5085,15.8,1.98,29,21,0,0
2.4824e+05,1.0484e+08,3,5080,5028,15.85,2.19,29,21,0,0
2.4868e+05,1.0495e+08,3,5026,5014,15.79,2.15,29,21,0,0
2.4958e+05,1.0516e+08,3,5017,5128,15.8,2.2,29,21,0,0
2.5002e+05,1.0527e+08,3,5140,5257,15.85,2.16,29,22,0,0
2.5047e+05,1.0538e+08,3,5250,5185,15.86,1.98,29,22,0,0
2.5088e+05,1.0548e+08,3,5175,4971,15.84,1.85,29,22,0,0
2.5137e+05,1.056e+08,3,4964,4900,15.81,1.84,29,22,0,0
2.5177e+05,1.057e+08,3,4888,4742,15.84,1.57,29,22,0,0
2.5222e+05,1.0582e+08,3,4724,4600,15.84,1.35,29,22,0,0
2.5262e+05,1.0591e+08,3,4598,4571,15.82,1.5,29,22,0,0
2.5312e+05,1.0604e+08,3,4586,4671,15.84,1.69,29,22,0,0
2.5352e+05,1.0613e+08,3,4674,4728,15.81,1.74,29,22,0,0
2.5396e+05,1.0624e+08,3,4729,4857,15.85,1.76,29,22,0,0
2.544e+05,1.0635e+08,3,4858,4928,15.8,1.84,29,22,0,0
2.5485e+05,1.0645e+08,3,4929,4971,15.82,2.03,29,22,0,0
2.5534e+05,1.0657e+08,3,4968,4942,15.83,2.06,29,22,0,0
2.5578e+05,1.0668e+08,3,4940,4928,15.77,2.08,29,22,0,0
2.5623e+05,1.0679e+08,3,4930,4957,15.85,1.96,29,22,0,0
2.5713e+05,1.0701e+08,3,4977,5428,15.85,2.88,29,23,0,0
2.5752e+05,1.0711e+08,3,5430,5500,15.79,2.93,29,23,0,0
2.5801e+05,1.0723e+08,3,5505,5628,15.73,2.98,29,23,0,0
2.5846e+05,1.0734e+08,3,5627,5614,15.74,2.83,29,23,0,0
2.5886e+05,1.0744e+08,3,5615,5642,15.75,2.83,29,23,0,0
2.5931e+05,1.0755e+08,3,5636,5442,15.79,2.39,29,23,0,0
2.598e+05,1.0767e+08,3,5439,5414,15.75,2.69,29,23,0,0
2.6021e+05,1.0777e+08,3,5414,5428,15.77,2.62,29,23,0,0
2.6065e+05,1.0788e+08,3,5436,5600,15.8,2.75,29,23,0,0
2.6151e+05,1.0809e+08,3,5600,5614,15.79,2.6,29,23,0,0
2.6196e+05,1.082e+08,3,5613,5585,15.81,2.64,29,23,0,0
2.624e+05,1.0831e+08,3,5586,5600,15.68,2.93,29,24,0,0
2.6285e+05,1.0842e+08,3,5605,5657,15.65,2.89,29,24,0,0
2.633e+05,1.0853e+08,3,5656,5642,15.76,3.02,29,24,0,0
2.637e+05,1.0864e+08,3,5653,5814,15.67,3.26,29,24,0,0
2.6403e+05,1.0875e+08,3,5811,5685,15.66,3.23,29,24,0,0
2.6447e+05,1.0886e+08,3,5692,5771,15.75,3.23,29,24,0,0
2.6488e+05,1.0896e+08,3,5776,5900,15.71,2.91,29,24,0,0
2.6581e+05,1.0918e+08,3,5892,5671,15.73,3.07,29,24,0,0
2.6622e+05,1.0929e+08,3,5672,5742,15.77,3.17,29,24,0,0
2.667e+05,1.094e+08,3,5725,5542,15.9,2.34,29,24,0,0
2.6711e+05,1.0951e+08,3,5523,5271,15.85,2.1,29,25,0,0
2.6755e+05,1.0962e+08,3,5280,5385,15.83,2.5,29,25,0,0
2.6796e+05,1.0972e+08,3,5379,5271,15.82,2.3,29,25,0,0
2.6841e+05,1.0983e+08,3,5277,5428,15.88,2.48,29,25,0,0
2.6886e+05,1.0994e+08,3,5425,5314,15.86,2.59,29,25,0,0
2.6931e+05,1.1005e+08,3,5316,5371,15.79,2.61,29,25,0,0
2.6975e+05,1.1016e+08,3,5373,5400,15.8,2.58,29,25,0,0
2.702e+05,1.1026e+08,3,5398,5371,15.85,2.24,29,25,0,0
2.7065e+05,1.1038e+08,3,5368,5314,15.84,1.98,29,25,0,0
2.7109e+05,1.1049e+08,3,5297,5071,15.78,1.89,29,25,0,0
2.7154e+05,1.106e+08,3,5060,4914,15.87,1.7,29,25,0,0
2.7199e+05,1.1071e+08,3,4917,4957,15.73,2.05,29,25,0,0
2.7244e+05,1.1082e+08,3,4952,4900,15.8,1.92,29,25,0,0
2.7288e+05,1.1093e+08,3,4901,4914,15.78,2.12,29,25,0,0
2.7332e+05,1.1103e+08,3,4910,4871,15.8,1.67,29,25,0,0
2.7466e+05,1.1136e+08,3,4871,4871,15.77,1.79,29,26,0,0
2.751e+05,1.1147e+08,3,4856,4714,15.83,1.92,29,26,0,0
2.7555e+05,1.1157e+08,3,4718,4785,15.79,1.84,29,26,0,0
2.76e+05,1.1169e+08,3,4787,4814,15.87,1.78,29,26,0,0
2.7644e+05,1.118e+08,3,4814,4814,15.76,1.69,29,26,0,0
2.7684e+05,1.119e+08,3,4817,4857,15.85,1.86,29,26,0,0
2.773e+05,1.1201e+08,3,4869,4985,15.86,2.02,29,26,0,0
2.7774e+05,1.1212e+08,3,4981,4942,15.86,1.78,29,26,0,0
2.7819e+05,1.1223e+08,3,4949,5028,15.81,2.1,29,26,0,0
2.7859e+05,1.1233e+08,3,5020,4942,15.88,1.99,29,26,0,0
2.7904e+05,1.1244e+08,3,4960,5171,15.83,2.11,29,26,0,0
2.7948e+05,1.1255e+08,3,5172,5257,15.77,2.56,29,26,0,0
2.7993e+05,1.1266e+08,3,5278,5471,15.79,2.96,29,26,0,0
2.8038e+05,1.1277e+08,3,5478,5585,15.81,2.58,29,26,0,0
2.8078e+05,1.1287e+08,3,5582,5414,15.75,2.84,29,27,0,0
2.8127e+05,1.1299e+08,3,5412,5400,15.79,2.38,29,27,0,0
2.8171e+05,1.1309e+08,3,5390,5257,15.77,1.88,29,27,0,0
2.8216e+05,1.132e+08,3,5247,5128,15.77,2.2,29,27,0,0
2.8256e+05,1.1331e+08,3,5128,5128,15.8,2.29,29,27,0,0
2.8306e+05,1.1343e+08,3,5129,5142,15.76,2.3,29,27,0,0
2.8346e+05,1.1353e+08,3,5150,5300,15.71,2.6,29,27,0,0
2.8387e+05,1.1363e+08,3,5299,5257,15.71,2.6,29,27,0,0
2.8436e+05,1.1375e+08,3,5272,5428,15.77,2.57,29,27,0,0
2.848e+05,1.1385e+08,3,5417,5285,15.7,2.38,29,27,0,0
2.8525e+05,1.1396e+08,3,5277,5200,15.79,2.15,29,27,0,0
2.8569e+05,1.1407e+08,3,5209,5342,15.76,2.47,29,27,0,0
2.8614e+05,1.1418e+08,3,5333,5228,15.73,2.77,29,27,0,0
2.8658e+05,1.1429e+08,3,5251,5742,15.7,3.81,29,27,0,0
2.8703e+05,1.144e+08,3,5755,5928,15.72,3.55,29,28,0,0
2.8748e+05,1.1451e+08,3,5919,5800,15.72,3.32,29,28,0,0
2.8793e+05,1.1462e+08,3,5805,5857,15.7,3.11,29,28,0,0
2.8838e+05,1.1473e+08,3,5858,5871,15.72,2.91,29,28,0,0
2.8878e+05,1.1483e+08,3,5853,5528,15.77,2.4,29,28,0,0
2.8927e+05,1.1494e+08,3,5503,5185,15.76,1.87,29,28,0,0
2.8968e+05,1.1505e+08,3,5169,4757,15.73,1.38,29,28,0,0
2.9017e+05,1.1517e+08,3,4728,4442,15.7,1.26,29,28,0,0
2.9057e+05,1.1527e+08,3,4439,4385,15.69,1.44,29,28,0,0
2.9101e+05,1.1537e+08,3,4390,4528,15.69,1.82,29,28,0,0
2.9146e+05,1.1548e+08,3,4528,4557,15.76,1.7,29,28,0,0
2.9195e+05,1.156e+08,3,4557,4557,15.8,1.6,29,28,0,0
2.9239e+05,1.1571e+08,3,4554,4514,15.73,1.61,29,28,0,0
2.9281e+05,1.1582e+08,3,4551,4785,15.63,2.32,29,28,0,0
2.9322e+05,1.1592e+08,3,4789,5071,15.71,2.56,29,28,0,0
2.9366e+05,1.1602e+08,3,5071,5085,15.82,2.23,29,29,0,0
2.9415e+05,1.1614e+08,3,5083,5042,15.82,2.18,29,29,0,0
2.946e+05,1.1625e+08,3,5040,5028,15.77,2.11,29,29,0,0
2.9505e+05,1.1636e+08,3,5033,5085,15.75,2.27,29,29,0,0
2.9545e+05,1.1646e+08,3,5085,5100,15.76,2.38,29,29,0,0
2.959e+05,1.1657e+08,3,5100,5100,15.72,2.51,29,29,0,0
2.9634e+05,1.1668e+08,3,5115,5271,15.67,2.56,29,29,0,0
2.9679e+05,1.1679e+08,3,5264,5200,15.74,2.54,29,29,0,0
2.9723e+05,1.169e+08,3,5213,5342,15.68,2.49,29,29,0,0
2.9764e+05,1.17e+08,3,5340,5200,15.76,2.38,29,29,0,0
2.9813e+05,1.1712e+08,3,5194,5128,15.72,2.28,29,29,0,0
2.9857e+05,1.1723e+08,3,5131,5171,15.78,2.12,29,29,0,0
2.9902e+05,1.1734e+08,3,5158,5071,15.65,2.06,29,29,0,0
2.9946e+05,1.1744e+08,3,5068,5042,15.77,2.09,29,30,0,0
2.999e+05,1.1755e+08,3,5036,4985,15.73,2.36,29,30,0,0
3.003e+05,1.1765e+08,3,4994,5200,15.74,2.41,29,30,0,0
3.0075e+05,1.1776e+08,3,5201,5300,15.77,2.45,29,30,0,0
3.0124e+05,1.1788e+08,3,5289,5214,15.77,2.46,29,30,0,0
3.0213e+05,1.181e+08,3,5218,5285,15.77,2.56,29,30,0,0
3.0254e+05,1.182e+08,3,5285,5300,15.73,2.5,29,30,0,0
3.0302e+05,1.1832e+08,3,5303,5342,15.75,2.33,29,30,0,0
3.0346e+05,1.1843e+08,3,5319,5185,15.69,2.38,29,30,0,0
3.0435e+05,1.1865e+08,3,5187,5242,15.72,2.43,29,30,0,0
3.0476e+05,1.1875e+08,3,5240,5157,15.77,2.27,29,30,0,0
3.0524e+05,1.1886e+08,3,5158,5171,15.74,2.35,29,30,0,0
3.0569e+05,1.1897e+08,3,5160,5042,15.67,2.2,29,31,0,0
3.0613e+05,1.1907e+08,3,5044,5071,15.77,2.06,29,31,0,0
3.0658e+05,1.1918e+08,3,5067,5028,15.74,2,29,31,0,0
3.0698e+05,1.1929e+08,3,5024,4928,15.78,1.91,29,31,0,0
3.0747e+05,1.1941e+08,3,4925,4900,15.67,2.17,29,31,0,0
3.0787e+05,1.1951e+08,3,4900,4914,15.68,2.19,29,31,0,0
3.0832e+05,1.1962e+08,3,4929,5057,15.74,2.11,29,31,0,0
3.0876e+05,1.1973e+08,3,5063,5157,15.7,2.5,29,31,0,0
3.0918e+05,1.1983e+08,3,5155,5128,15.73,2.37,29,31,0,0
3.0963e+05,1.1994e+08,3,5131,5200,15.69,2.45,29,31,0,0
3.1007e+05,1.2006e+08,3,5201,5228,15.7,2.44,29,31,0,0
3.1052e+05,1.2017e+08,3,5219,5142,15.69,2.41,29,31,0,0
3.1096e+05,1.2028e+08,3,5146,5200,15.8,2.32,29,31,0,0
3.1142e+05,1.2038e+08,3,5201,5228,15.74,2.33,29,31,0,0
3.1186e+05,1.2049e+08,3,5225,5185,15.69,2.22,29,31,0,0
3.1231e+05,1.206e+08,3,5178,5014,15.73,2.16,29,32,0,0
3.1276e+05,1.2072e+08,3,5015,5028,15.81,1.85,29,32,0,0
3.1316e+05,1.2082e+08,3,5024,4785,15.83,1.82,29,32,0,0
3.1365e+05,1.2093e+08,3,4778,4628,15.75,1.63,29,32,0,0
3.1415e+05,1.2106e+08,3,4645,4828,15.75,2.2,29,32,0,0
3.1455e+05,1.2116e+08,3,4845,5000,15.73,2.28,29,32,0,0
3.1499e+05,1.2126e+08,3,4991,4871,15.82,1.8,29,32,0,0
3.1544e+05,1.2137e+08,3,4870,4814,15.79,1.93,29,32,0,0
3.1592e+05,1.2149e+08,3,4824,4971,15.76,2.16,29,32,0,0
3.1633e+05,1.2159e+08,3,4973,5114,15.73,2.55,29,32,0,0
3.1676e+05,1.2169e+08,3,5116,5214,15.7,2.57,29,32,0,0
3.1722e+05,1.218e+08,3,5221,5385,15.8,2.65,29,32,0,0
3.1766e+05,1.2191e+08,3,5382,5285,15.74,2.62,29,32,0,0
3.1812e+05,1.2203e+08,3,5295,5400,15.72,2.68,29,32,0,0
3.1856e+05,1.2214e+08,3,5388,5271,15.79,2.52,29,33,0,0
3.1897e+05,1.2224e+08,3,5267,5200,15.78,2.42,29,33,0,0
3.1945e+05,1.2235e+08,3,5190,5114,15.76,2.14,29,33,0,0
3.1985e+05,1.2245e+08,3,5114,5128,15.75,2.14,29,33,0,0
3.203e+05,1.2256e+08,3,5123,4971,15.75,2.02,29,33,0,0
3.2075e+05,1.2267e+08,3,4977,5042,15.78,1.98,29,33,0,0
3.212e+05,1.2278e+08,3,5035,4885,15.73,2.1,29,33,0,0
3.2164e+05,1.2289e+08,3,4883,4857,15.76,1.86,29,33,0,0
3.2209e+05,1.23e+08,3,4851,4800,15.77,1.81,29,33,0,0
3.2254e+05,1.2311e+08,3,4797,4757,15.72,1.67,29,33,0,0
3.2299e+05,1.2322e+08,3,4745,4642,15.72,1.79,29,33,0,0
3.2343e+05,1.2333e+08,3,4644,4700,15.74,1.64,29,33,0,0
3.2392e+05,1.2344e+08,3,4699,4685,15.76,1.74,29,33,0,0
3.2432e+05,1.2355e+08,3,4690,4771,15.69,1.84,29,33,0,0
3.2473e+05,1.2365e+08,3,4771,4771,15.7,1.73,29,33,0,0
3.2522e+05,1.2377e+08,3,4774,4814,15.71,1.72,29,33,0,0
3.2562e+05,1.2387e+08,3,4815,4885,15.79,1.77,29,33,0,0
3.2652e+05,1.2409e+08,3,4881,4714,15.8,1.38,29,34,0,0
3.2697e+05,1.242e+08,3,4716,4771,15.77,1.77,29,34,0,0
3.2737e+05,1.243e+08,3,4779,4942,15.76,1.83,29,34,0,0
3.2786e+05,1.2442e+08,3,4942,4942,15.77,1.66,29,34,0,0
3.2826e+05,1.2452e+08,3,4943,4985,15.79,1.68,29,34,0,0
3.2871e+05,1.2464e+08,3,4980,4942,15.78,1.67,29,34,0,0
3.2916e+05,1.2475e+08,3,4949,5000,15.78,1.59,29,34,0,0
3.3004e+05,1.2496e+08,3,4996,4900,15.73,1.95,29,34,0,0
3.3098e+05,1.2519e+08,3,4906,5042,15.73,2.1,29,34,0,0
3.3187e+05,1.254e+08,3,5042,5057,15.72,1.81,29,34,0,0
3.323e+05,1.2551e+08,3,5051,4942,15.73,1.91,29,34,0,0
3.3275e+05,1.2562e+08,3,4938,4857,15.76,2.07,29,34,0,0
3.332e+05,1.2573e+08,3,4867,4957,15.72,1.85,29,34,0,0
3.3369e+05,1.2594e+08,3,4856,4800,15.74,1.92,29,34,0,0
3.341e+05,1.2605e+08,3,4807,4942,15.78,2.09,29,35,0,0
3.3456e+05,1.2616e+08,3,4942,4971,15.77,1.95,29,35,0,0
3.35e+05,1.2626e+08,3,4972,5014,15.76,2.14,29,35,0,0
3.3545e+05,1.2637e+08,3,5014,5014,15.73,2.23,29,35,0,0
3.359e+05,1.2649e+08,3,5018,5085,15.8,2.06,29,35,0,0
3.3675e+05,1.267e+08,3,5084,5028,15.74,2,29,35,0,0
3.3768e+05,1.2693e+08,3,5027,5014,15.79,2.16,29,35,0,0
3.3813e+05,1.2704e+08,3,5029,5157,15.82,2.26,29,35,0,0
3.3853e+05,1.2714e+08,3,5157,5157,15.77,2.09,29,35,0,0
3.3894e+05,1.2724e+08,3,5151,5042,15.85,1.95,29,35,0,0
3.3939e+05,1.2735e+08,3,5037,4942,15.8,1.85,29,35,0,0
3.3983e+05,1.2746e+08,3,4944,4971,15.75,2.37,29,35,0,0
3.4028e+05,1.2757e+08,3,4971,4971,15.83,1.94,29,35,0,0
3.4094e+05,1.2779e+08,3,5095,5242,15.75,2.19,29,36,0,0
3.4138e+05,1.2789e+08,3,5239,5200,15.73,2.39,29,36,0,0
3.4183e+05,1.28e+08,3,5195,5128,15.74,2.19,29,36,0,0
3.4223e+05,1.281e+08,3,5129,5185,15.73,2.06,29,36,0,0
3.4268e+05,1.2821e+08,3,5184,5157,15.81,2.09,29,36,0,0
3.4314e+05,1.2832e+08,3,5148,5000,15.79,2.08,29,36,0,0
3.4358e+05,1.2843e+08,3,5000,5000,15.7,2.15,29,36,0,0
3.4403e+05,1.2854e+08,3,5010,5142,15.73,2.17,29,36,0,0
3.4448e+05,1.2865e+08,3,5137,5071,15.77,2,29,36,0,0
3.4488e+05,1.2876e+08,3,5070,5000,15.8,2.02,29,36,0,0
3.4537e+05,1.2887e+08,3,4997,4971,15.76,2.16,29,36,0,0
3.4577e+05,1.2897e+08,3,4974,5114,15.7,2.42,29,36,0,0
3.4622e+05,1.2908e+08,3,5118,5200,15.67,2.53,29,36,0,0
3.4667e+05,1.2919e+08,3,5215,5371,15.73,2.71,29,36,0,0
3.4712e+05,1.293e+08,3,5373,5414,15.78,2.54,29,36,0,0
3.4756e+05,1.2941e+08,3,5407,5314,15.71,2.54,29,37,0,0
3.4801e+05,1.2952e+08,3,5332,5614,15.66,2.95,29,37,0,0
3.4846e+05,1.2963e+08,3,5609,5571,15.62,2.84,29,37,0,0
3.4886e+05,1.2973e+08,3,5568,5442,15.67,2.62,29,37,0,0
3.4925e+05,1.2984e+08,3,5440,5414,15.75,2.43,29,37,0,0
3.497e+05,1.2995e+08,3,5410,5357,15.75,2.27,29,37,0,0
3.5015e+05,1.3006e+08,3,5344,5214,15.7,2,29,37,0,0
3.506e+05,1.3017e+08,3,5206,5014,15.73,1.95,29,37,0,0
3.5104e+05,1.3028e+08,3,5003,4900,15.85,1.83,29,37,0,0
3.5145e+05,1.3038e+08,3,4897,4742,15.83,1.62,29,37,0,0
3.5194e+05,1.305e+08,3,4749,4828,15.83,1.82,29,37,0,0
3.5239e+05,1.3061e+08,3,4829,4842,15.8,1.94,29,37,0,0
3.5283e+05,1.3072e+08,3,4851,5000,15.75,2.12,29,37,0,0
3.5328e+05,1.3083e+08,3,5006,5085,15.79,2.34,29,37,0,0
3.5372e+05,1.3094e+08,3,5092,5171,15.79,2.38,29,37,0,0
3.5412e+05,1.3104e+08,3,5170,5157,15.73,2.44,29,38,0,0
3.5457e+05,1.3114e+08,3,5162,5257,15.82,2.43,29,38,0,0
3.5498e+05,1.3125e+08,3,5257,5285,15.74,2.16,29,38,0,0
3.5543e+05,1.3136e+08,3,5262,4942,15.82,1.82,29,38,0,0
3.5584e+05,1.3147e+08,3,4893,4157,16.39,0.37,29,38,0,0
3.5629e+05,1.3158e+08,3,4077,2842,15.88,0.56,29,38,0,0
3.5714e+05,1.3178e+08,3,2839,2600,16.2,0.34,29,38,0,0
3.5766e+05,1.319e+08,3,2569,2242,16.17,0.23,29,38,0,0
3.5806e+05,1.32e+08,3,2236,2157,16.17,0.18,29,38,0,0
3.5851e+05,1.3212e+08,3,2153,2114,16.16,0.23,29,38,0,0
3.5936e+05,1.3233e+08,3,2113,2100,16.17,0.23,29,38,0,0
3.5976e+05,1.3243e+08,3,2100,2114,16.17,0.22,29,38,0,0
3.6025e+05,1.3255e+08,3,2112,2071,16.18,0.22,29,38,0,0
3.6066e+05,1.3265e+08,3,2071,2085,16.19,0.24,29,38,0,0
3.6156e+05,1.3288e+08,3,2084,2071,16.19,0.21,29,38,0,0
3.6241e+05,1.3309e+08,3,2070,2057,16.17,0.21,29,38,0,0
3.6286e+05,1.3319e+08,3,2057,2071,16.2,0.21,29,38,0,0
3.633e+05,1.333e+08,3,2071,2071,16.2,0.19,29,38,0,0
3.6375e+05,1.3341e+08,3,2072,2085,16.2,0.22,29,38,0,0
3.642e+05,1.3352e+08,3,2086,2114,16.21,0.22,29,38,0,0
3.646e+05,1.3362e+08,3,2108,1800,16.26,0.01,29,38,0,0
3.6508e+05,1.3374e+08,3,1763,1457,16.25,0,29,38,0,0
3.6554e+05,1.3385e+08,3,1441,1342,16.25,0.08,29,38,0,0
3.6594e+05,1.3394e+08,3,1341,1328,16.25,0.1,29,38,0,0
3.6639e+05,1.3406e+08,3,1326,1314,16.25,0.1,29,38,0,0
3.6684e+05,1.3416e+08,3,1314,1314,16.25,0.11,29,38,0,0
3.6822e+05,1.345e+08,3,1314,1314,16.26,0.11,29,38,0,0
3.6863e+05,1.346e+08,3,1314,1314,16.25,0.1,29,38,0,0
3.6909e+05,1.3471e+08,3,1314,1314,16.25,0.11,29,38,0,0
3.7002e+05,1.3493e+08,3,1314,1314,16.26,0.1,29,38,0,0
3.7042e+05,1.3503e+08,3,1314,1328,16.26,0.11,29,38,0,0
3.709e+05,1.3514e+08,3,1327,1314,16.27,0.11,29,38,0,0
3.7134e+05,1.3524e+08,3,1314,1314,16.26,0.11,29,38,0,0
3.7184e+05,1.3536e+08,3,1314,1314,16.27,0.11,29,38,0,0
3.7229e+05,1.3547e+08,3,1314,1314,16.27,0.11,29,38,0,0
3.7274e+05,1.3558e+08,3,1314,1314,16.27,0.11,29,38,0,0
3.7318e+05,1.3568e+08,3,1314,1314,16.28,0.11,29,38,0,0
3.7364e+05,1.358e+08,3,1314,1314,16.27,0.11,29,38,0,0
3.7404e+05,1.359e+08,3,1314,1328,16.27,0.11,29,38,0,0
3.7449e+05,1.36e+08,3,1328,1328,16.27,0.1,29,38,0,0
3.7495e+05,1.3612e+08,3,1328,1328,16.27,0.11,29,38,0,0
3.7539e+05,1.3622e+08,3,1328,1328,16.28,0.11,29,38,0,0
3.7584e+05,1.3633e+08,3,1221,128,16.27,0.27,29,38,0,0
3.7624e+05,1.3643e+08,3,130,157,16.19,0.75,29,38,0,0
3.7669e+05,1.3654e+08,3,197,742,16.27,0.39,29,38,0,0
3.7713e+05,1.3665e+08,3,761,1185,16.28,0.14,29,38,0,0
3.7758e+05,1.3676e+08,3,1189,1257,16.28,0.11,29,38,0,0
3.7803e+05,1.3687e+08,3,1258,1285,16.29,0.11,29,38,0,0
3.7848e+05,1.3698e+08,3,1286,1300,16.28,0.11,29,38,0,0
3.7893e+05,1.3708e+08,3,1300,1314,16.29,0.11,29,38,0,0
3.7941e+05,1.372e+08,3,1315,1328,16.3,0.11,29,38,0,0
3.7982e+05,1.373e+08,3,1327,1314,16.29,0.11,29,38,0,0
3.8027e+05,1.374e+08,3,1314,1328,16.29,0.11,29,38,0,0
3.8071e+05,1.3751e+08,3,1327,1314,16.3,0.11,29,38,0,0
3.812e+05,1.3763e+08,3,1316,1328,16.29,0.11,29,38,0,0
3.8165e+05,1.3773e+08,3,1326,1314,16.29,0.11,29,38,0,0
3.8302e+05,1.3806e+08,3,1314,1328,16.3,0.11,29,38,0,0
3.8347e+05,1.3817e+08,3,1326,1314,16.3,0.11,29,38,0,0
3.8387e+05,1.3827e+08,3,1314,1314,16.3,0.11,29,38,0,0
3.8432e+05,1.3838e+08,3,1314,1328,16.3,0.11,29,38,0,0
3.8477e+05,1.3848e+08,3,1328,1328,16.3,0.11,29,38,0,0
3.8521e+05,1.3859e+08,3,1328,1328,16.3,0.11,29,38,0,0
3.8566e+05,1.387e+08,3,1328,1328,16.31,0.11,29,38,0,0
3.8611e+05,1.3881e+08,3,1328,1328,16.3,0.11,29,38,0,0
3.8655e+05,1.3891e+08,3,1328,1328,16.3,0.11,29,38,0,0
3.8744e+05,1.3913e+08,3,1328,1328,16.3,0.11,29,38,0,0
3.8789e+05,1.3924e+08,3,1328,1328,16.32,0.1,29,38,0,0
3.8834e+05,1.3934e+08,3,1328,1328,16.31,0.11,29,38,0,0
3.8879e+05,1.3945e+08,3,1328,1328,16.31,0.1,29,38,0,0
3.8923e+05,1.3956e+08,3,1328,1328,16.32,0.1,29,38,0,0
3.8968e+05,1.3967e+08,3,1328,1328,16.32,0.11,28,38,0,0
3.9013e+05,1.3978e+08,3,1328,1328,16.31,0.11,29,38,0,0
3.9053e+05,1.3987e+08,3,1328,1328,16.31,0.11,29,38,0,0
3.9106e+05,1.3999e+08,3,1328,1328,16.31,0.1,29,38,0,0
3.9151e+05,1.401e+08,3,1328,1328,16.32,0.1,29,38,0,0
3.9196e+05,1.4021e+08,3,1286,428,16.33,0,29,38,0,0
3.9241e+05,1.4031e+08,3,416,171,16.33,0.03,28,38,0,0
3.929e+05,1.4043e+08,3,156,0,16.33,0.04,28,38,0,0
3.9335e+05,1.4053e+08,3,0,0,16.33,0.04,28,38,0,0
3.9381e+05,1.4064e+08,3,0,0,16.33,0.04,28,38,0,0
3.9426e+05,1.4075e+08,3,0,0,16.33,0.04,28,38,0,0
3.9472e+05,1.4086e+08,3,0,0,16.34,0.04,28,38,0,0
3.9517e+05,1.4097e+08,3,0,0,16.34,0.04,28,38,0,0
3.9562e+05,1.4108e+08,3,0,0,16.34,0.04,28,38,0,0
3.9607e+05,1.4118e+08,3,0,0,16.34,0.04,28,38,0,0
3.9657e+05,1.413e+08,3,0,0,16.33,0.03,28,38,0,0
3.9706e+05,1.4141e+08,3,0,0,16.35,0.03,28,38,0,0
3.9747e+05,1.4151e+08,3,0,0,16.34,0.04,28,38,0,0
3.9796e+05,1.4163e+08,3,0,0,16.35,0.03,28,38,0,0
3.9842e+05,1.4173e+08,3,0,0,16.35,0.04,28,38,0,0
3.9887e+05,1.4185e+08,3,0,0,16.35,0.03,28,38,0,0
3.9932e+05,1.4195e+08,3,0,0,16.35,0.04,28,38,0,0
3.9977e+05,1.4206e+08,3,0,0,16.35,0.04,28,38,0,0
4.0027e+05,1.4217e+08,3,0,0,16.35,0.03,28,38,0,0
4.0072e+05,1.4228e+08,3,0,0,16.35,0.03,28,38,0,0
4.0162e+05,1.425e+08,3,0,0,16.35,0.03,28,38,0,0
4.0212e+05,1.4261e+08,3,0,0,16.35,0.03,28,38,0,0
4.0257e+05,1.4272e+08,3,0,0,16.35,0.04,28,38,0,0
4.0302e+05,1.4283e+08,3,0,0,16.35,0.04,28,38,0,0
4.0348e+05,1.4293e+08,3,0,0,16.35,0.04,28,38,0,0
4.0393e+05,1.4304e+08,3,0,0,16.36,0.04,28,38,0,0
4.0438e+05,1.4315e+08,3,0,0,16.35,0.04,28,38,0,0
4.0483e+05,1.4325e+08,3,0,0,16.35,0.04,28,38,0,0
4.0528e+05,1.4336e+08,3,0,0,16.36,0.04,28,38,0,0
4.0574e+05,1.4347e+08,3,0,0,16.36,0.04,28,38,0,0
4.0623e+05,1.4358e+08,3,0,0,16.36,0.04,28,38,0,0
4.0669e+05,1.4369e+08,3,0,0,16.36,0.04,28,38,0,0
4.0718e+05,1.4381e+08,3,0,0,16.36,0.04,28,38,0,0
4.0759e+05,1.4391e+08,3,0,0,16.36,0.04,28,38,0,0
4.0808e+05,1.4402e+08,3,0,0,16.36,0.04,28,38,0,0
4.0853e+05,1.4413e+08,3,0,0,16.36,0.04,28,38,0,0
4.0899e+05,1.4423e+08,3,0,0,16.36,0.04,28,38,0,0
