LineNo,TimeUS,Instance,RPM,RawRPM,Volt,Curr,Temp,CTot,MotTemp,Err
1899,45443343,3,0,0,16.66,0.04,27,0,0,0
2315,45546705,3,0,0,16.66,0.04,27,0,0,0
2772,45659669,3,0,0,16.66,0.04,27,0,0,0
3190,45764393,3,0,0,16.66,0.04,27,0,0,0
3608,45868317,3,0,0,16.66,0.04,27,0,0,0
4063,45979020,3,0,0,16.66,0.04,27,0,0,0
4516,46089649,3,0,0,16.66,0.04,27,0,0,0
4929,46193463,3,0,0,16.66,0.04,27,0,0,0
5347,46297387,3,0,0,16.66,0.04,27,0,0,0
5802,46410006,3,0,0,16.66,0.04,27,0,0,0
6215,46514211,3,0,0,16.66,0.04,27,0,0,0
6630,46616318,3,0,0,16.66,0.04,27,0,0,0
7081,46727187,3,0,0,16.66,0.04,27,0,0,0
7494,46829484,3,0,0,16.66,0.04,27,0,0,0
7949,46940642,3,0,0,16.66,0.04,27,0,0,0
8364,47044263,3,0,0,16.66,0.04,27,0,0,0
8816,47154760,3,0,0,16.66,0.04,27,0,0,0
9542,47361928,3,0,0,16.66,0.04,27,0,0,0
9957,47465222,3,0,0,16.65,0.04,27,0,0,0
10413,47575455,3,0,0,16.64,0.04,27,0,0,0
10827,47678139,3,0,0,16.66,0.04,27,0,0,0
11256,47788718,3,0,0,16.66,0.04,27,0,0,0
11672,47892918,3,0,0,16.66,0.04,27,0,0,0
12085,47994018,3,0,0,16.66,0.04,27,0,0,0
12535,48102834,3,0,0,16.65,0.04,27,0,0,0
12988,48213806,3,0,0,16.65,0.04,27,0,0,0
13363,48311611,3,0,0,16.66,0.04,27,0,0,0
13814,48423695,3,0,0,16.66,0.04,27,0,0,0
14229,48525919,3,0,0,16.65,0.04,27,0,0,0
14680,48637307,3,0,0,16.65,0.04,27,0,0,0
15090,48738457,3,0,0,16.65,0.04,27,0,0,0
15542,48853379,3,0,0,16.65,0.04,27,0,0,0
15957,48953293,3,0,0,16.65,0.04,27,0,0,0
16373,49060191,3,0,0,16.65,0.04,27,0,0,0
16826,49170790,3,0,0,16.66,0.04,27,0,0,0
17238,49274190,3,0,0,16.65,0.04,27,0,0,0
17692,49386067,3,0,0,16.66,0.04,27,0,0,0
18104,49488554,3,0,0,16.65,0.04,27,0,0,0
18519,49589579,3,0,0,16.66,0.04,27,0,0,0
18929,49694136,3,0,0,16.65,0.04,27,0,0,0
19384,49804913,3,0,0,16.65,0.04,27,0,0,0
19798,49910476,3,0,0,16.65,0.04,27,0,0,0
20253,50023434,3,0,0,16.65,0.04,27,0,0,0
20665,50124924,3,0,0,16.66,0.04,27,0,0,0
21117,50239605,3,0,0,16.66,0.04,27,0,0,0
21535,50343301,3,0,0,16.66,0.04,27,0,0,0
21947,50449883,3,0,0,16.65,0.04,27,0,0,0
22363,50551485,3,0,0,16.65,0.04,27,0,0,0
22813,50663707,3,0,0,16.66,0.04,27,0,0,0
23226,50764834,3,0,0,16.66,0.04,27,0,0,0
23641,50869173,3,0,0,16.66,0.04,27,0,0,0
24097,50980925,3,0,0,16.66,0.04,27,0,0,0
24511,51084424,3,0,0,16.66,0.04,27,0,0,0
24924,51184573,3,0,0,16.65,0.04,27,0,0,0
25374,51295700,3,0,0,16.65,0.04,27,0,0,0
25827,51406624,3,0,0,16.66,0.04,27,0,0,0
26238,51510104,3,0,0,16.66,0.04,27,0,0,0
26654,51618711,3,0,0,16.66,0.04,27,0,0,0
27067,51719175,3,0,0,16.66,0.04,27,0,0,0
27516,51832422,3,0,0,16.66,0.04,27,0,0,0
27930,51933406,3,0,0,16.65,0.04,27,0,0,0
28383,52048005,3,0,0,16.65,0.04,27,0,0,0
28796,52149679,3,0,0,16.65,0.04,27,0,0,0
29205,52253929,3,0,0,16.65,0.04,27,0,0,0
29663,52365584,3,0,0,16.66,0.04,27,0,0,0
30080,52471612,3,0,0,16.65,0.04,27,0,0,0
30495,52571427,3,0,0,16.65,0.04,27,0,0,0
30975,52685653,3,0,0,16.66,0.04,27,0,0,0
31428,52787948,3,0,0,16.65,0.04,27,0,0,0
31925,52902470,3,0,0,16.66,0.04,27,0,0,0
32381,53007434,3,0,0,16.65,0.04,27,0,0,0
32837,53112913,3,0,0,16.66,0.04,27,0,0,0
33330,53226465,3,0,0,16.66,0.04,27,0,0,0
33780,53328146,3,0,0,16.66,0.04,27,0,0,0
34728,53544567,3,0,0,16.66,0.04,27,0,0,0
35179,53649698,3,0,0,16.66,0.04,27,0,0,0
35632,53750601,3,0,0,16.65,0.04,27,0,0,0
36126,53862496,3,0,0,16.65,0.04,27,0,0,0
36580,53964175,3,0,0,16.66,0.04,27,0,0,0
37113,54080917,3,0,0,16.66,0.04,27,0,0,0
37569,54183145,3,0,0,16.66,0.04,27,0,0,0
38021,54287695,3,0,0,16.66,0.04,27,0,0,0
38471,54387656,3,0,0,16.66,0.04,27,0,0,0
38974,54503527,3,0,0,16.66,0.04,27,0,0,0
39426,54605557,3,3,185,16.64,0.05,27,0,0,0
39920,54720435,3,214,657,16.63,0.11,27,0,0,0
40370,54826669,3,682,1057,16.61,0.17,27,0,0,0
40720,54927197,3,1059,1257,16.63,0.13,27,0,0,0
41217,55042170,3,1260,1300,16.63,0.12,27,0,0,0
41677,55145685,3,1302,1328,16.64,0.11,27,0,0,0
42091,55245492,3,1328,1342,16.64,0.11,27,0,0,0
42589,55356487,3,1342,1342,16.63,0.11,27,0,0,0
43040,55460139,3,1342,1357,16.64,0.11,27,0,0,0
43993,55679517,3,1356,1342,16.63,0.11,27,0,0,0
44446,55779675,3,1342,1342,16.64,0.11,27,0,0,0
44946,55894154,3,1343,1357,16.64,0.11,27,0,0,0
45401,55994632,3,1356,1342,16.63,0.11,27,0,0,0
45853,56099393,3,1342,1342,16.63,0.11,27,0,0,0
46390,56218129,3,1343,1357,16.63,0.11,27,0,0,0
46805,56313451,3,1357,1357,16.64,0.11,27,0,0,0
47257,56417393,3,1357,1357,16.63,0.11,27,0,0,0
47756,56528690,3,1357,1357,16.63,0.11,27,0,0,0
48214,56637394,3,1355,1342,16.63,0.11,27,0,0,0
48668,56739148,3,1342,1357,16.64,0.11,27,0,0,0
49163,56851667,3,1357,1357,16.64,0.11,27,0,0,0
49660,56960572,3,1357,1357,16.63,0.11,27,0,0,0
50071,57058542,3,1357,1357,16.63,0.11,27,0,0,0
50573,57171921,3,1357,1357,16.63,0.11,27,0,0,0
51023,57275180,3,1357,1357,16.63,0.11,27,0,0,0
51476,57376552,3,1357,1357,16.64,0.11,27,0,0,0
51971,57491005,3,1357,1357,16.63,0.11,27,0,0,0
52424,57596119,3,1357,1357,16.63,0.11,27,0,0,0
52880,57702425,3,1357,1357,16.63,0.11,27,0,0,0
53374,57814373,3,1357,1357,16.63,0.11,27,0,0,0
53861,57921703,3,1357,1357,16.63,0.11,27,0,0,0
54315,58027767,3,1355,1342,16.63,0.11,27,0,0,0
54773,58134177,3,1342,1342,16.64,0.11,27,0,0,0
55228,58237661,3,1342,1357,16.63,0.11,27,0,0,0
55725,58350184,3,1355,1342,16.63,0.11,27,0,0,0
56180,58457372,3,1342,1342,16.63,0.11,27,0,0,0
56628,58558640,3,1342,1357,16.63,0.11,27,0,0,0
57080,58664895,3,1357,1357,16.64,0.11,27,0,0,0
57580,58776393,3,1355,1342,16.63,0.11,27,0,0,0
58035,58883895,3,1343,1357,16.63,0.11,27,0,0,0
58489,58987632,3,1357,1357,16.63,0.11,27,0,0,0
58945,59096586,3,1357,1357,16.64,0.11,27,0,0,0
59406,59202677,3,1357,1357,16.63,0.11,27,0,0,0
59854,59306151,3,1357,1357,16.63,0.11,27,0,0,0
60347,59417689,3,1357,1357,16.63,0.11,27,0,0,0
60801,59521009,3,1357,1357,16.63,0.11,27,0,0,0
61252,59624218,3,1357,1357,16.63,0.11,27,0,0,0
61711,59730327,3,1357,1357,16.63,0.11,27,0,0,0
62169,59842442,3,1357,1357,16.63,0.11,27,0,0,0
62626,59944587,3,1357,1357,16.63,0.11,27,0,0,0
63075,60048591,3,1357,1357,16.63,0.11,27,0,0,0
64029,60267413,3,1357,1357,16.63,0.11,27,0,0,0
64484,60369616,3,1357,1357,16.63,0.11,27,0,0,0
64941,60476655,3,1357,1357,16.63,0.11,27,0,0,0
65438,60588958,3,1357,1357,16.63,0.11,27,0,0,0
65929,60698886,3,1355,1342,16.62,0.11,27,0,0,0
66381,60799950,3,1342,1357,16.63,0.11,27,0,0,0
66838,60904620,3,1357,1357,16.63,0.11,27,0,0,0
67344,61023955,3,1357,1357,16.63,0.11,27,0,0,0
67751,61114649,3,1357,1357,16.63,0.11,27,0,0,0
68289,61233933,3,1357,1357,16.63,0.11,27,0,0,0
68742,61335252,3,1357,1357,16.63,0.11,27,0,0,0
69196,61439399,3,1357,1357,16.63,0.11,27,0,0,0
69648,61540476,3,1357,1357,16.63,0.11,27,0,0,0
70138,61653150,3,1357,1357,16.63,0.11,27,0,0,0
70636,61764104,3,1357,1357,16.63,0.11,27,0,0,0
71089,61870430,3,1357,1357,16.63,0.11,27,0,0,0
71586,61979172,3,1357,1357,16.63,0.11,27,0,0,0
72034,62083019,3,1357,1357,16.63,0.11,27,0,0,0
72493,62191174,3,1357,1357,16.63,0.09999999,27,0,0,0
72946,62295702,3,1357,1357,16.63,0.11,27,0,0,0
73404,62402871,3,1357,1357,16.62,0.11,27,0,0,0
73891,62517544,3,1315,700,16.64,0.02,27,0,0,0
74324,62623605,3,683,242,16.65,0.02,27,0,0,0
74780,62731503,3,224,0,16.65,0.03,27,0,0,0
75236,62840491,3,0,0,16.64,0.04,27,0,0,0
75690,62946641,3,0,0,16.64,0.04,27,0,0,0
76181,63060541,3,0,0,16.64,0.04,27,0,0,0
76634,63163519,3,0,0,16.64,0.04,27,0,0,0
77088,63273341,3,0,0,16.65,0.04,27,0,0,0
77544,63378629,3,0,0,16.64,0.04,27,0,0,0
77998,63487545,3,0,0,16.64,0.04,27,0,0,0
78495,63601586,3,0,0,16.64,0.04,27,0,0,0
78948,63709912,3,0,0,16.65,0.04,27,0,0,0
79446,63827677,3,0,0,16.65,0.04,27,0,0,0
79904,63934416,3,0,0,16.64,0.04,27,0,0,0
80355,64042517,3,0,0,16.65,0.04,27,0,0,0
80807,64146317,3,0,0,16.64,0.04,27,0,0,0
81263,64258678,3,0,0,16.64,0.04,27,0,0,0
81718,64365896,3,0,0,16.64,0.04,27,0,0,0
82169,64474438,3,0,0,16.65,0.04,27,0,0,0
82622,64578631,3,0,0,16.64,0.04,27,0,0,0
83112,64691208,3,0,0,16.64,0.04,27,0,0,0
83613,64812884,3,0,0,16.64,0.04,27,0,0,0
84068,64918506,3,0,0,16.65,0.04,27,0,0,0
84516,65022799,3,0,0,16.65,0.04,27,0,0,0
84971,65129537,3,0,0,16.64,0.04,27,0,0,0
85419,65232794,3,0,0,16.64,0.04,27,0,0,0
85917,65348418,3,0,0,16.64,0.04,27,0,0,0
86372,65456415,3,0,0,16.64,0.04,27,0,0,0
86868,65571507,3,0,0,16.65,0.04,27,0,0,0
87316,65679359,3,0,0,16.65,0.04,27,0,0,0
87770,65784926,3,0,0,16.65,0.04,27,0,0,0
88222,65890527,3,0,0,16.65,0.04,27,0,0,0
88720,66005687,3,0,0,16.65,0.04,27,0,0,0
89174,66114945,3,0,0,16.64,0.04,27,0,0,0
89623,66220610,3,0,0,16.64,0.04,27,0,0,0
90118,66335536,3,0,0,16.64,0.04,27,0,0,0
90579,66445132,3,0,0,16.64,0.04,27,0,0,0
91032,66548614,3,0,0,16.65,0.04,27,0,0,0
91529,66664712,3,0,0,16.64,0.04,27,0,0,0
91986,66770020,3,0,0,16.65,0.04,27,0,0,0
92442,66876613,3,0,0,16.65,0.04,27,0,0,0
92900,66982524,3,0,0,16.65,0.04,27,0,0,0
93353,67090687,3,0,0,16.65,0.04,27,0,0,0
93850,67203022,3,0,0,16.64,0.04,27,0,0,0
94301,67311195,3,0,0,16.65,0.04,27,0,0,0
94752,67414180,3,0,0,16.64,0.04,27,0,0,0
95205,67516007,3,0,0,16.65,0.04,27,0,0,0
95657,67621805,3,0,0,16.65,0.04,27,0,0,0
96153,67734782,3,0,0,16.64,0.04,27,0,0,0
97064,67945671,3,0,0,16.65,0.04,27,0,0,0
97554,68059636,3,0,0,16.65,0.04,27,0,0,0
98006,68161696,3,0,0,16.65,0.04,27,0,0,0
98500,68278682,3,0,0,16.64,0.04,27,0,0,0
98955,68381379,3,0,0,16.65,0.04,27,0,0,0
99409,68491410,3,0,0,16.65,0.03,27,0,0,0
99908,68606983,3,17,157,16.63,0.05,27,0,0,0
100358,68710231,3,203,671,16.63,0.11,27,0,0,0
100810,68813022,3,685,1085,16.6,0.18,27,0,0,0
101263,68918410,3,1088,1257,16.63,0.13,27,0,0,0
101725,69029026,3,1257,1300,16.63,0.12,27,0,0,0
102223,69140513,3,1302,1328,16.63,0.11,27,0,0,0
102677,69249547,3,1329,1342,16.64,0.11,27,0,0,0
103132,69352480,3,1342,1342,16.64,0.11,27,0,0,0
103586,69461629,3,1343,1371,16.61,0.14,27,0,0,0
104080,69574173,3,1397,1685,16.61,0.29,27,0,0,0
104496,69677490,3,1722,2257,16.54,0.58,27,0,0,0
104763,69788036,3,2269,2414,16.57,0.33,27,0,0,0
105220,69897663,3,2407,2342,16.59,0.35,27,0,0,0
105676,70004017,3,2351,2442,16.57,0.35,27,0,0,0
106129,70111599,3,2434,2357,16.6,0.28,27,0,0,0
106580,70218200,3,2365,2471,16.6,0.37,27,0,0,0
107039,70328948,3,2499,2785,16.42,0.88,27,0,0,0
107941,70543129,3,2816,4214,16.2,1.92,27,0,0,0
108847,70758177,3,4243,5100,16.1,2.94,27,1,0,0
109309,70869725,3,5141,5557,15.97,3.5,27,1,0,0
109762,70975578,3,5581,5914,16.05,3.31,27,1,0,0
110255,71093443,3,5898,5728,16.16,2.49,27,1,0,0
110704,71196915,3,5706,5414,16.12,2.26,27,1,0,0
111160,71307964,3,5401,5285,16.11,2.09,27,1,0,0
111617,71414528,3,5261,4957,16.1,1.74,27,1,0,0
112066,71522783,3,4950,4857,16.11,1.9,27,1,0,0
112525,71632203,3,4857,4871,16.11,1.89,27,1,0,0
113435,71850908,3,4855,4542,16.06,1.58,27,1,0,0
113887,71956111,3,4540,4500,16.09,1.58,27,1,0,0
114367,72066311,3,4499,4471,16.09,1.45,27,1,0,0
114864,72180971,3,4479,4571,16.05,1.7,27,1,0,0
115273,72281595,3,4575,4871,16.13,2.2,27,1,0,0
115770,72395228,3,4869,4842,16.11,2.07,27,2,0,0
116223,72504686,3,4855,5042,16.05,2.08,27,2,0,0
116676,72611362,3,5044,5114,16.07,2.39,27,2,0,0
117126,72718410,3,5115,5157,16.01,2.41,27,2,0,0
117578,72826697,3,5161,5271,16.05,2.64,27,2,0,0
118032,72931686,3,5270,5257,16.05,2.52,27,2,0,0
118482,73040387,3,5258,5342,15.99,2.66,27,2,0,0
118979,73155504,3,5348,5428,16,2.61,27,2,0,0
119394,73263131,3,5420,5328,16.05,2.44,28,2,0,0
119888,73376302,3,5325,5300,16.06,2.42,28,2,0,0
120298,73476456,3,5304,5400,16.01,2.82,27,2,0,0
120799,73594154,3,5408,5528,15.95,2.72,28,2,0,0
121249,73702004,3,5507,5314,16.02,2.51,28,3,0,0
121663,73803426,3,5313,5300,16.04,2.28,28,3,0,0
122125,73912491,3,5296,5228,15.98,2.07,28,3,0,0
123029,74131686,3,5227,5200,16.02,2.37,28,3,0,0
123441,74235574,3,5199,5157,15.96,2.28,28,3,0,0
123942,74353673,3,5167,5328,16.05,2.3,28,3,0,0
124380,74460399,3,5315,5157,15.91,2.4,28,3,0,0
124786,74559891,3,5159,5271,15.96,2.46,28,3,0,0
125231,74668890,3,5272,5342,15.91,2.61,28,3,0,0
125684,74778291,3,5334,5157,15.9,2.49,28,3,0,0
126131,74889720,3,5159,5285,15.88,2.59,28,3,0,0
126582,74997592,3,5284,5242,15.95,2.41,28,3,0,0
127065,75113669,3,5246,5300,15.97,2.55,28,3,0,0
127516,75227427,3,5294,5242,15.98,2.37,28,3,0,0
127924,75325611,3,5232,5114,16.04,2.03,28,4,0,0
128402,75440507,3,5101,4928,16.07,2.1,28,4,0,0
128856,75553700,3,4924,4885,16.08,1.74,28,4,0,0
129257,75656892,3,4882,4828,16.08,1.77,28,4,0,0
129749,75772391,3,4831,4885,16.02,2.18,28,4,0,0
130201,75883677,3,4888,4928,16.13,1.97,28,4,0,0
130661,75995491,3,4937,5028,16.08,2.33,28,4,0,0
131103,76103565,3,5039,5142,16.04,2.51,28,4,0,0
131503,76199796,3,5141,5128,15.94,2.36,28,4,0,0
131985,76314652,3,5136,5257,16.02,2.27,28,4,0,0
132880,76535663,3,5253,5157,16.02,2.25,28,4,0,0
133322,76643559,3,5162,5285,16.01,2.45,28,4,0,0
133817,76761698,3,5294,5385,15.98,2.64,28,4,0,0
134223,76862902,3,5385,5385,15.98,2.62,28,5,0,0
134676,76971434,3,5383,5300,15.98,2.42,28,5,0,0
135160,77089879,3,5298,5285,16.06,2.37,28,5,0,0
135604,77196996,3,5284,5228,16.02,2.04,28,5,0,0
136016,77305627,3,5223,5114,15.91,2.27,28,5,0,0
136503,77421158,3,5114,5114,15.97,2.2,28,5,0,0
136945,77529357,3,5111,5085,16.05,2.19,28,5,0,0
137349,77630564,3,5083,5014,16.11,1.96,28,5,0,0
137795,77737439,3,5014,5014,16.05,2.17,28,5,0,0
138695,77960410,3,5017,5114,16.04,2.34,28,5,0,0
139146,78073537,3,5116,5142,16.04,2.3,28,5,0,0
139554,78173629,3,5138,5057,16.04,2.1,28,5,0,0
140002,78284534,3,5062,5200,15.97,2.2,28,5,0,0
140454,78396790,3,5184,4942,15.91,1.92,28,5,0,0
140900,78506699,3,4949,5028,15.99,2.04,28,6,0,0
141376,78618553,3,5024,4985,15.97,2.08,28,6,0,0
141825,78732637,3,4982,4957,15.97,2,28,6,0,0
142230,78837716,3,4960,4985,15.97,2.21,28,6,0,0
142684,78947461,3,5003,5157,15.94,2.25,28,6,0,0
143130,79057464,3,5165,5242,16.02,2.12,28,6,0,0
143581,79170714,3,5226,5128,15.97,1.96,28,6,0,0
144887,79489503,3,5122,4985,15.99,2.02,28,6,0,0
145339,79601517,3,4988,5014,16,2.03,28,6,0,0
145740,79702650,3,5013,5000,15.97,2.04,28,6,0,0
146235,79820265,3,5003,5042,16.04,1.83,28,6,0,0
146636,79920874,3,5004,4700,15.97,1.62,28,6,0,0
147085,80034414,3,4697,4671,15.95,2.16,28,6,0,0
147534,80140637,3,4671,4671,15.98,1.65,28,6,0,0
147977,80252639,3,4665,4614,15.92,1.55,28,7,0,0
148427,80357552,3,4617,4671,15.92,2.11,28,7,0,0
148872,80469146,3,4681,4914,15.89,2.1,28,7,0,0
149273,80568710,3,4912,4842,15.98,1.81,28,7,0,0
150212,80799786,3,4828,4571,16.01,1.33,28,7,0,0
150616,80900569,3,4573,4700,15.97,1.89,28,7,0,0
151111,81018606,3,4716,4885,15.96,2.07,28,7,0,0
151514,81118622,3,4879,4800,15.96,1.55,28,7,0,0
151959,81225522,3,4803,4900,15.95,2.2,28,7,0,0
152408,81334588,3,4897,4857,16.04,1.75,28,7,0,0
152853,81443479,3,4851,4814,15.94,1.9,28,7,0,0
153302,81551651,3,4825,5157,15.91,2.56,28,7,0,0
153745,81661210,3,5164,5257,15.88,2.57,28,7,0,0
154193,81770124,3,5266,5357,15.92,2.49,28,7,0,0
154601,81874569,3,5359,5428,15.93,2.62,28,7,0,0
155083,81984128,3,5421,5285,15.93,2.31,28,7,0,0
155532,82094696,3,5282,5257,15.95,2.2,28,8,0,0
155945,82198135,3,5254,5200,15.95,2.37,28,8,0,0
156384,82301894,3,5203,5328,15.86,2.43,28,8,0,0
156878,82422807,3,5319,5200,15.95,2.42,28,8,0,0
157287,82528401,3,5202,5228,15.89,2.28,28,8,0,0
157722,82630624,3,5225,5200,15.97,2.42,28,8,0,0
158180,82744115,3,5212,5342,15.91,2.56,28,8,0,0
158588,82849168,3,5334,5257,15.9,2.33,28,8,0,0
159033,82952931,3,5262,5385,15.86,2.72,28,8,0,0
159965,83179683,3,5376,5200,15.95,2.01,28,8,0,0
160374,83283499,3,5191,5071,15.93,1.88,28,8,0,0
160826,83394473,3,5069,5042,15.94,2.29,28,8,0,0
161271,83505133,3,5047,5128,15.92,2.29,28,8,0,0
161716,83611691,3,5128,5157,16.01,2.38,28,9,0,0
162166,83721908,3,5160,5200,15.91,2.49,28,9,0,0
162575,83828522,3,5212,5471,15.98,2.89,28,9,0,0
163024,83933634,3,5472,5485,15.96,2.72,28,9,0,0
163468,84042878,3,5477,5328,16,2.3,28,9,0,0
163915,84150381,3,5327,5300,15.95,2.45,28,9,0,0
164362,84261412,3,5298,5271,15.91,2.11,28,9,0,0
164815,84371641,3,5266,5157,15.98,2.04,28,9,0,0
165258,84479596,3,5145,4871,15.89,1.93,28,9,0,0
165749,84591685,3,4894,5128,15.91,2.4,28,9,0,0
166194,84699948,3,5122,5042,15.88,1.96,28,9,0,0
167086,84917512,3,5039,4885,15.92,1.89,28,9,0,0
167530,85027205,3,4883,4785,15.91,1.68,28,9,0,0
167978,85134914,3,4785,4785,15.95,1.82,28,10,0,0
168423,85243206,3,4784,4771,15.86,1.87,28,10,0,0
168916,85361229,3,4777,4842,15.93,1.92,29,10,0,0
169358,85467655,3,4835,4742,15.97,1.47,28,10,0,0
169807,85577560,3,4738,4700,15.95,1.67,28,10,0,0
170254,85688116,3,4701,4714,15.88,1.94,28,10,0,0
170703,85795665,3,4722,4842,15.91,1.94,29,10,0,0
171105,85894142,3,4843,4957,15.96,2.17,28,10,0,0
171596,86010496,3,4986,5271,15.98,2.35,28,10,0,0
172033,86116671,3,5264,5171,15.92,2.39,28,10,0,0
172480,86227672,3,5168,5142,15.96,2.17,28,10,0,0
172894,86333495,3,5147,5271,15.87,2.42,28,10,0,0
173335,86441555,3,5272,5285,15.92,2.33,28,10,0,0
173788,86552485,3,5278,5214,15.89,2.55,29,10,0,0
174233,86661204,3,5237,5485,15.95,2.75,29,10,0,0
174639,86760573,3,5471,5228,15.96,1.86,29,10,0,0
175090,86874464,3,5213,5000,15.92,1.97,29,10,0,0
175537,86981123,3,4990,4800,15.92,1.62,29,11,0,0
175986,87092807,3,4794,4657,15.91,1.85,29,11,0,0
176434,87199523,3,4661,4757,15.8,1.95,29,11,0,0
176916,87323443,3,4768,4842,15.8,2.03,29,11,0,0
177810,87534596,3,4844,4928,15.85,2.21,29,11,0,0
178211,87644143,3,4931,4971,15.9,2.36,29,11,0,0
178663,87753936,3,4973,5028,15.89,2.28,29,11,0,0
179112,87867552,3,5025,4971,15.86,2.13,29,11,0,0
179926,88071365,3,4973,5200,15.88,2.45,29,11,0,0
180381,88181492,3,5201,5300,15.88,2.68,28,11,0,0
181273,88400964,3,5300,5342,15.83,2.7,29,11,0,0
182130,88615416,3,5340,5257,15.95,2.6,29,12,0,0
183026,88835498,3,5259,5400,15.94,2.7,29,12,0,0
183916,89051652,3,5401,5600,15.95,2.86,29,12,0,0
184363,89157357,3,5600,5657,15.89,2.85,29,12,0,0
184846,89272023,3,5662,5714,15.91,2.95,29,12,0,0
185250,89370364,3,5712,5614,15.85,3.13,29,12,0,0
185701,89486119,3,5608,5528,15.93,2.87,29,12,0,0
186146,89593598,3,5533,5642,15.88,3.47,29,12,0,0
186593,89701536,3,5643,5700,15.86,3.03,29,12,0,0
187046,89811139,3,5701,5714,15.92,3.02,29,13,0,0
187493,89923654,3,5695,5500,15.91,2.68,29,13,0,0
187947,90038343,3,5496,5471,15.89,2.77,29,13,0,0
188354,90136183,3,5469,5442,15.84,2.56,29,13,0,0
188796,90242184,3,5441,5428,15.9,2.59,29,13,0,0
189284,90356515,3,5417,5314,15.92,2.62,29,13,0,0
189686,90457905,3,5320,5457,15.86,3.07,29,13,0,0
190138,90567607,3,5474,5714,15.92,3.54,29,13,0,0
190581,90676512,3,5706,5600,15.9,2.8,29,13,0,0
191034,90788463,3,5600,5614,15.86,2.67,29,13,0,0
191476,90894596,3,5607,5471,15.94,2.54,29,13,0,0
191925,91002697,3,5468,5357,15.89,2.63,29,13,0,0
192382,91121114,3,5359,5400,15.88,2.44,29,14,0,0
192831,91232020,3,5406,5485,15.85,2.61,29,14,0,0
193281,91340203,3,5482,5442,15.88,2.46,29,14,0,0
193683,91441589,3,5441,5400,15.92,2.55,29,14,0,0
194537,91665897,3,5127,5114,15.92,2.43,29,14,0,0
194938,91763942,3,5115,5200,15.9,2.55,29,14,0,0
195430,91883580,3,5200,5200,15.83,2.47,29,14,0,0
195885,91994099,3,5213,5400,15.87,2.52,29,14,0,0
196326,92100633,3,5395,5314,15.82,2.41,29,14,0,0
196785,92216110,3,5314,5314,15.88,2.47,29,14,0,0
197228,92324661,3,5320,5385,15.83,2.63,29,14,0,0
197611,92433529,3,5384,5371,15.84,2.7,29,14,0,0
198019,92534306,3,5381,5600,15.87,2.63,29,15,0,0
198476,92649555,3,5584,5414,15.75,2.61,29,15,0,0
198884,92750190,3,5416,5600,15.85,2.65,29,15,0,0
199331,92860550,3,5593,5457,15.76,2.77,29,15,0,0
199781,92968705,3,5456,5414,15.83,2.69,29,15,0,0
200226,93076193,3,5411,5357,15.81,2.52,29,15,0,0
200677,93185720,3,5359,5400,15.86,2.7,29,15,0,0
201122,93297113,3,5407,5485,15.83,2.52,29,15,0,0
201528,93397244,3,5482,5342,15.79,2.57,29,15,0,0
201968,93506694,3,5342,5371,15.79,2.33,29,15,0,0
202416,93613566,3,5370,5328,15.87,2.12,29,15,0,0
202899,93728905,3,5309,5042,15.79,1.89,29,15,0,0
203305,93830381,3,5041,5028,15.81,2.04,29,15,0,0
203798,93945454,3,5039,5157,15.77,2.22,29,15,0,0
204244,94052658,3,5155,5128,15.83,2.19,29,16,0,0
204693,94158882,3,5133,5214,15.82,2.33,29,16,0,0
205096,94261434,3,5214,5228,15.83,2.46,29,16,0,0
205576,94369365,3,5229,5285,15.82,2.64,29,16,0,0
206018,94475707,3,5284,5271,15.84,2.39,29,16,0,0
206470,94588422,3,5271,5271,15.83,2.41,29,16,0,0
206918,94698352,3,5269,5228,15.84,2.53,29,16,0,0
207401,94816723,3,5226,5214,15.83,2.32,29,16,0,0
207807,94922373,3,5227,5371,15.89,2.23,29,16,0,0
208258,95027937,3,5350,5142,15.83,2.25,29,16,0,0
208704,95135707,3,5137,5042,15.89,2.08,29,16,0,0
209148,95250788,3,5043,5057,15.83,2.05,29,16,0,0
209560,95348446,3,5055,5014,15.83,2.07,29,16,0,0
210004,95461886,3,5011,4985,15.8,1.93,29,16,0,0
210454,95566494,3,4987,5028,15.86,1.81,29,17,0,0
210895,95678672,3,5007,4785,15.85,1.7,29,17,0,0
211349,95790035,3,4783,4771,15.89,1.64,29,17,0,0
211799,95903443,3,4781,4857,15.86,1.79,29,17,0,0
212241,96004384,3,4862,4914,15.85,1.76,29,17,0,0
212688,96114663,3,4907,4828,15.89,1.54,29,17,0,0
213100,96215426,3,4828,4885,15.86,1.86,29,17,0,0
213582,96333718,3,4881,4842,15.84,1.91,29,17,0,0
213989,96434393,3,4843,4914,15.91,1.84,29,17,0,0
214476,96552639,3,4914,4914,15.88,1.76,29,17,0,0
214883,96660438,3,4914,4914,15.86,1.75,29,17,0,0
215292,96761565,3,4912,4842,15.87,1.77,29,17,0,0
215740,96873561,3,4843,4871,15.88,1.77,29,17,0,0
216192,96983167,3,4873,4914,15.86,1.7,29,17,0,0
216604,97089187,3,4913,4885,15.84,1.72,29,17,0,0
217097,97206531,3,4888,4928,15.81,1.71,29,17,0,0
217540,97317687,3,4926,4914,15.88,1.59,29,17,0,0
217944,97416582,3,4912,4771,15.83,1.42,29,17,0,0
218385,97522718,3,4769,4714,15.89,1.55,29,17,0,0
218838,97638113,3,4712,4628,15.83,1.46,29,17,0,0
219287,97745546,3,4631,4671,15.84,1.64,29,18,0,0
219733,97855571,3,4687,4842,15.85,1.73,29,18,0,0
220583,98065442,3,4843,4971,15.85,2.15,29,18,0,0
221555,98295431,3,4978,5128,15.83,1.99,29,18,0,0
222006,98403632,3,5125,5100,15.86,2.21,29,18,0,0
222449,98511550,3,5108,5228,15.81,2.31,29,18,0,0
222896,98620745,3,5229,5257,15.8,2.15,29,18,0,0
223303,98719803,3,5251,5128,15.8,2.11,29,18,0,0
223797,98840635,3,5130,5157,15.8,2.25,29,18,0,0
224201,98941023,3,5150,5000,15.84,1.71,29,18,0,0
224690,99056570,3,5000,5014,15.85,1.79,29,18,0,0
225138,99165891,3,5005,4928,15.81,1.92,29,18,0,0
225580,99274447,3,4936,5014,15.83,1.92,29,18,0,0
226025,99380659,3,5013,4985,15.88,1.84,29,18,0,0
226471,99491928,3,4985,4985,15.78,1.89,29,19,0,0
226957,99604609,3,4983,4971,15.85,2,29,19,0,0
227356,99704559,3,4973,5085,15.8,2.01,29,19,0,0
227805,99817938,3,5081,5014,15.81,1.99,29,19,0,0
228701,100036664,3,5013,4985,15.83,1.83,29,19,0,0
229152,100146419,3,4979,4900,15.84,1.9,29,19,0,0
229556,100248296,3,4901,4985,15.76,2.15,29,19,0,0
230049,100365183,3,4987,5028,15.81,2.22,29,19,0,0
230456,100470642,3,5028,5057,15.81,2.22,29,19,0,0
230909,100579625,3,5058,5085,15.8,2.24,29,19,0,0
231389,100695028,3,5085,5100,15.8,2.45,29,19,0,0
231834,100802496,3,5093,5014,15.77,1.99,29,19,0,0
232283,100915607,3,5021,5100,15.8,2.15,29,19,0,0
232731,101026617,3,5105,5157,15.82,2.16,29,19,0,0
233137,101126032,3,5154,4971,15.86,1.7,29,19,0,0
233572,101230107,3,4966,4814,15.83,1.56,29,20,0,0
234021,101340017,3,4810,4685,15.86,1.26,29,20,0,0
234434,101450177,3,4679,4557,15.82,1.4,29,20,0,0
234884,101559176,3,4559,4700,15.85,1.6,29,20,0,0
235369,101674182,3,4709,4842,15.85,1.69,29,20,0,0
235820,101784408,3,4841,4828,15.79,1.75,29,20,0,0
236221,101884477,3,4828,4842,15.81,1.88,29,20,0,0
236672,101994454,3,4842,4885,15.85,1.55,29,20,0,0
237157,102108011,3,4882,4842,15.82,1.61,29,20,0,0
238092,102333040,3,4843,4871,15.74,1.75,29,20,0,0
238979,102547922,3,4873,4928,15.84,1.6,29,20,0,0
239420,102655181,3,4928,4928,15.78,1.74,29,20,0,0
239872,102763459,3,4941,5128,15.85,2.08,29,20,0,0
240316,102874440,3,5132,5171,15.87,1.85,29,20,0,0
240722,102976439,3,5171,5185,15.82,2,29,20,0,0
241207,103089353,3,5180,5114,15.85,1.9,29,20,0,0
241656,103199624,3,5116,5142,15.82,1.84,29,20,0,0
242101,103318472,3,5140,5128,15.84,1.91,29,20,0,0
242518,103422178,3,5126,5114,15.89,1.72,29,21,0,0
242956,103521136,3,5108,5014,15.82,1.83,29,21,0,0
243405,103634498,3,5015,5042,15.76,1.87,29,21,0,0
243929,103759169,3,5038,5014,15.83,1.86,29,21,0,0
244295,103850214,3,5017,5100,15.81,1.92,29,21,0,0
244744,103960720,3,5096,5014,15.84,1.8,29,21,0,0
245196,104076923,3,5013,5000,15.81,1.71,29,21,0,0
245523,104180699,3,4995,4957,15.82,1.65,29,21,0,0
245964,104286602,3,4953,4871,15.79,1.87,29,21,0,0
246415,104392650,3,4873,5014,15.85,2.08,29,21,0,0
246862,104508431,3,5021,5085,15.84,1.95,29,21,0,0
247348,104618642,3,5079,5000,15.77,1.94,29,21,0,0
247795,104734498,3,5012,5085,15.8,1.98,29,21,0,0
248242,104842248,3,5080,5028,15.85,2.19,29,21,0,0
248684,104946106,3,5026,5014,15.79,2.15,29,21,0,0
249583,105159688,3,5017,5128,15.8,2.2,29,21,0,0
250018,105267636,3,5140,5257,15.85,2.16,29,22,0,0
250471,105377890,3,5250,5185,15.86,1.98,29,22,0,0
250877,105483462,3,5175,4971,15.84,1.85,29,22,0,0
251368,105600918,3,4964,4900,15.81,1.84,29,22,0,0
251767,105699928,3,4888,4742,15.84,1.57,29,22,0,0
252220,105815542,3,4724,4600,15.84,1.35,29,22,0,0
252623,105911331,3,4598,4571,15.82,1.5,29,22,0,0
253115,106036666,3,4586,4671,15.84,1.69,29,22,0,0
253521,106134166,3,4674,4728,15.81,1.74,29,22,0,0
253961,106242316,3,4729,4857,15.85,1.76,29,22,0,0
254405,106347368,3,4858,4928,15.8,1.84,29,22,0,0
254846,106454547,3,4929,4971,15.82,2.03,29,22,0,0
255341,106573664,3,4968,4942,15.83,2.06,29,22,0,0
255782,106682452,3,4940,4928,15.77,2.08,29,22,0,0
256226,106789328,3,4930,4957,15.85,1.96,29,22,0,0
257126,107010448,3,4977,5428,15.85,2.88,29,23,0,0
257525,107110133,3,5430,5500,15.79,2.93,29,23,0,0
258011,107229155,3,5505,5628,15.73,2.98,29,23,0,0
258462,107340147,3,5627,5614,15.74,2.83,29,23,0,0
258864,107443116,3,5615,5642,15.75,2.83,29,23,0,0
259311,107548880,3,5636,5442,15.79,2.39,29,23,0,0
259802,107668437,3,5439,5414,15.75,2.69,29,23,0,0
260209,107769999,3,5414,5428,15.77,2.62,29,23,0,0
260653,107879531,3,5436,5600,15.8,2.75,29,23,0,0
261509,108093901,3,5600,5614,15.79,2.6,29,23,0,0
261957,108203425,3,5613,5585,15.81,2.64,29,23,0,0
262402,108314444,3,5586,5600,15.68,2.93,29,24,0,0
262849,108424889,3,5605,5657,15.65,2.89,29,24,0,0
263296,108531706,3,5656,5642,15.76,3.02,29,24,0,0
263705,108638915,3,5653,5814,15.67,3.26,29,24,0,0
264031,108745576,3,5811,5685,15.66,3.23,29,24,0,0
264472,108859654,3,5692,5771,15.75,3.23,29,24,0,0
264883,108961459,3,5776,5900,15.71,2.91,29,24,0,0
265812,109184520,3,5892,5671,15.73,3.07,29,24,0,0
266216,109288488,3,5672,5742,15.77,3.17,29,24,0,0
266705,109404794,3,5725,5542,15.9,2.34,29,24,0,0
267110,109508152,3,5523,5271,15.85,2.1,29,25,0,0
267554,109620031,3,5280,5385,15.83,2.5,29,25,0,0
267960,109720507,3,5379,5271,15.82,2.3,29,25,0,0
268406,109831641,3,5277,5428,15.88,2.48,29,25,0,0
268857,109940617,3,5425,5314,15.86,2.59,29,25,0,0
269307,110049717,3,5316,5371,15.79,2.61,29,25,0,0
269751,110157290,3,5373,5400,15.8,2.58,29,25,0,0
270198,110264805,3,5398,5371,15.85,2.24,29,25,0,0
270648,110376152,3,5368,5314,15.84,1.98,29,25,0,0
271094,110487884,3,5297,5071,15.78,1.89,29,25,0,0
271545,110597524,3,5060,4914,15.87,1.7,29,25,0,0
271986,110708681,3,4917,4957,15.73,2.05,29,25,0,0
272437,110821784,3,4952,4900,15.8,1.92,29,25,0,0
272877,110926546,3,4901,4914,15.78,2.12,29,25,0,0
273320,111033615,3,4910,4871,15.8,1.67,29,25,0,0
274655,111358800,3,4871,4871,15.77,1.79,29,26,0,0
275105,111469214,3,4856,4714,15.83,1.92,29,26,0,0
275552,111573803,3,4718,4785,15.79,1.84,29,26,0,0
275999,111691218,3,4787,4814,15.87,1.78,29,26,0,0
276440,111798402,3,4814,4814,15.76,1.69,29,26,0,0
276841,111900200,3,4817,4857,15.85,1.86,29,26,0,0
277296,112010640,3,4869,4985,15.86,2.02,29,26,0,0
277738,112118116,3,4981,4942,15.86,1.78,29,26,0,0
278188,112233523,3,4949,5028,15.81,2.1,29,26,0,0
278591,112329897,3,5020,4942,15.88,1.99,29,26,0,0
279045,112441718,3,4960,5171,15.83,2.11,29,26,0,0
279484,112548108,3,5172,5257,15.77,2.56,29,26,0,0
279934,112663492,3,5278,5471,15.79,2.96,29,26,0,0
280378,112769791,3,5478,5585,15.81,2.58,29,26,0,0
280781,112871541,3,5582,5414,15.75,2.84,29,27,0,0
281274,112988689,3,5412,5400,15.79,2.38,29,27,0,0
281714,113094800,3,5390,5257,15.77,1.88,29,27,0,0
282165,113204594,3,5247,5128,15.77,2.2,29,27,0,0
282565,113307516,3,5128,5128,15.8,2.29,29,27,0,0
283058,113428596,3,5129,5142,15.76,2.3,29,27,0,0
283463,113525110,3,5150,5300,15.71,2.6,29,27,0,0
283867,113628898,3,5299,5257,15.71,2.6,29,27,0,0
284359,113748787,3,5272,5428,15.77,2.57,29,27,0,0
284798,113853711,3,5417,5285,15.7,2.38,29,27,0,0
285250,113964611,3,5277,5200,15.79,2.15,29,27,0,0
285691,114070184,3,5209,5342,15.76,2.47,29,27,0,0
286138,114179368,3,5333,5228,15.73,2.77,29,27,0,0
286579,114286672,3,5251,5742,15.7,3.81,29,27,0,0
287027,114395452,3,5755,5928,15.72,3.55,29,28,0,0
287483,114509389,3,5919,5800,15.72,3.32,29,28,0,0
287930,114620889,3,5805,5857,15.7,3.11,29,28,0,0
288375,114726594,3,5858,5871,15.72,2.91,29,28,0,0
288781,114830001,3,5853,5528,15.77,2.4,29,28,0,0
289269,114944166,3,5503,5185,15.76,1.87,29,28,0,0
289677,115049089,3,5169,4757,15.73,1.38,29,28,0,0
290167,115166445,3,4728,4442,15.7,1.26,29,28,0,0
290567,115266501,3,4439,4385,15.69,1.44,29,28,0,0
291014,115374418,3,4390,4528,15.69,1.82,29,28,0,0
291457,115482493,3,4528,4557,15.76,1.7,29,28,0,0
291949,115598352,3,4557,4557,15.8,1.6,29,28,0,0
292393,115706478,3,4554,4514,15.73,1.61,29,28,0,0
292808,115816382,3,4551,4785,15.63,2.32,29,28,0,0
293217,115916128,3,4789,5071,15.71,2.56,29,28,0,0
293664,116023384,3,5071,5085,15.82,2.23,29,29,0,0
294152,116136804,3,5083,5042,15.82,2.18,29,29,0,0
294602,116254373,3,5040,5028,15.77,2.11,29,29,0,0
295047,116360196,3,5033,5085,15.75,2.27,29,29,0,0
295451,116464561,3,5085,5100,15.76,2.38,29,29,0,0
295898,116572168,3,5100,5100,15.72,2.51,29,29,0,0
296342,116681606,3,5115,5271,15.67,2.56,29,29,0,0
296788,116791660,3,5264,5200,15.74,2.54,29,29,0,0
297232,116899804,3,5213,5342,15.68,2.49,29,29,0,0
297638,116999785,3,5340,5200,15.76,2.38,29,29,0,0
298127,117120488,3,5194,5128,15.72,2.28,29,29,0,0
298569,117228446,3,5131,5171,15.78,2.12,29,29,0,0
299019,117341717,3,5158,5071,15.65,2.06,29,29,0,0
299457,117443183,3,5068,5042,15.77,2.09,29,30,0,0
299903,117550796,3,5036,4985,15.73,2.36,29,30,0,0
300304,117653584,3,4994,5200,15.74,2.41,29,30,0,0
300751,117760026,3,5201,5300,15.77,2.45,29,30,0,0
301238,117881604,3,5289,5214,15.77,2.46,29,30,0,0
302127,118102796,3,5218,5285,15.77,2.56,29,30,0,0
302535,118197411,3,5285,5300,15.73,2.5,29,30,0,0
303017,118317615,3,5303,5342,15.75,2.33,29,30,0,0
303463,118432716,3,5319,5185,15.69,2.38,29,30,0,0
304350,118649121,3,5187,5242,15.72,2.43,29,30,0,0
304757,118747633,3,5240,5157,15.77,2.27,29,30,0,0
305236,118859955,3,5158,5171,15.74,2.35,29,30,0,0
305690,118973621,3,5160,5042,15.67,2.2,29,31,0,0
306132,119073645,3,5044,5071,15.77,2.06,29,31,0,0
306575,119184887,3,5067,5028,15.74,2,29,31,0,0
306981,119289830,3,5024,4928,15.78,1.91,29,31,0,0
307472,119407378,3,4925,4900,15.67,2.17,29,31,0,0
307873,119510483,3,4900,4914,15.68,2.19,29,31,0,0
308320,119623805,3,4929,5057,15.74,2.11,29,31,0,0
308765,119729204,3,5063,5157,15.7,2.5,29,31,0,0
309177,119833632,3,5155,5128,15.73,2.37,29,31,0,0
309627,119944099,3,5131,5200,15.69,2.45,29,31,0,0
310072,120058625,3,5201,5228,15.7,2.44,29,31,0,0
310521,120167366,3,5219,5142,15.69,2.41,29,31,0,0
310965,120277454,3,5146,5200,15.8,2.32,29,31,0,0
311416,120384528,3,5201,5228,15.74,2.33,29,31,0,0
311860,120494443,3,5225,5185,15.69,2.22,29,31,0,0
312308,120602439,3,5178,5014,15.73,2.16,29,32,0,0
312758,120718514,3,5015,5028,15.81,1.85,29,32,0,0
313162,120820527,3,5024,4785,15.83,1.82,29,32,0,0
313651,120932605,3,4778,4628,15.75,1.63,29,32,0,0
314148,121056899,3,4645,4828,15.75,2.2,29,32,0,0
314550,121156637,3,4845,5000,15.73,2.28,29,32,0,0
314991,121263543,3,4991,4871,15.82,1.8,29,32,0,0
315442,121369795,3,4870,4814,15.79,1.93,29,32,0,0
315924,121486408,3,4824,4971,15.76,2.16,29,32,0,0
316328,121586564,3,4973,5114,15.73,2.55,29,32,0,0
316759,121689720,3,5116,5214,15.7,2.57,29,32,0,0
317215,121801030,3,5221,5385,15.8,2.65,29,32,0,0
317662,121912557,3,5382,5285,15.74,2.62,29,32,0,0
318116,122028922,3,5295,5400,15.72,2.68,29,32,0,0
318565,122137622,3,5388,5271,15.79,2.52,29,33,0,0
318966,122238327,3,5267,5200,15.78,2.42,29,33,0,0
319454,122351349,3,5190,5114,15.76,2.14,29,33,0,0
319854,122453500,3,5114,5128,15.75,2.14,29,33,0,0
320299,122559364,3,5123,4971,15.75,2.02,29,33,0,0
320752,122672500,3,4977,5042,15.78,1.98,29,33,0,0
321196,122778897,3,5035,4885,15.73,2.1,29,33,0,0
321642,122887546,3,4883,4857,15.76,1.86,29,33,0,0
322093,122999717,3,4851,4800,15.77,1.81,29,33,0,0
322535,123106909,3,4797,4757,15.72,1.67,29,33,0,0
322986,123221598,3,4745,4642,15.72,1.79,29,33,0,0
323428,123325636,3,4644,4700,15.74,1.64,29,33,0,0
323917,123444649,3,4699,4685,15.76,1.74,29,33,0,0
324324,123546688,3,4690,4771,15.69,1.84,29,33,0,0
324730,123651918,3,4771,4771,15.7,1.73,29,33,0,0
325216,123766127,3,4774,4814,15.71,1.72,29,33,0,0
325624,123869890,3,4815,4885,15.79,1.77,29,33,0,0
326515,124085784,3,4881,4714,15.8,1.38,29,34,0,0
326966,124195520,3,4716,4771,15.77,1.77,29,34,0,0
327369,124300791,3,4779,4942,15.76,1.83,29,34,0,0
327859,124421144,3,4942,4942,15.77,1.66,29,34,0,0
328262,124521257,3,4943,4985,15.79,1.68,29,34,0,0
328706,124635125,3,4980,4942,15.78,1.67,29,34,0,0
329155,124746548,3,4949,5000,15.78,1.59,29,34,0,0
330044,124956530,3,4996,4900,15.73,1.95,29,34,0,0
330979,125189596,3,4906,5042,15.73,2.1,29,34,0,0
331869,125402548,3,5042,5057,15.72,1.81,29,34,0,0
332302,125508377,3,5051,4942,15.73,1.91,29,34,0,0
332752,125618527,3,4938,4857,15.76,2.07,29,34,0,0
333197,125726595,3,4867,4957,15.72,1.85,29,34,0,0
333694,125937789,3,4856,4800,15.74,1.92,29,34,0,0
334105,126047424,3,4807,4942,15.78,2.09,29,35,0,0
334557,126157177,3,4942,4971,15.77,1.95,29,35,0,0
334997,126263941,3,4972,5014,15.76,2.14,29,35,0,0
335447,126372937,3,5014,5014,15.73,2.23,29,35,0,0
335898,126487714,3,5018,5085,15.8,2.06,29,35,0,0
336747,126700710,3,5084,5028,15.74,2,29,35,0,0
337681,126925934,3,5027,5014,15.79,2.16,29,35,0,0
338127,127035599,3,5029,5157,15.82,2.26,29,35,0,0
338533,127135033,3,5157,5157,15.77,2.09,29,35,0,0
338940,127238936,3,5151,5042,15.85,1.95,29,35,0,0
339392,127350427,3,5037,4942,15.8,1.85,29,35,0,0
339834,127460441,3,4944,4971,15.75,2.37,29,35,0,0
340278,127566154,3,4971,4971,15.83,1.94,29,35,0,0
340939,127786504,3,5095,5242,15.75,2.19,29,36,0,0
341380,127893649,3,5239,5200,15.73,2.39,29,36,0,0
341828,128002646,3,5195,5128,15.74,2.19,29,36,0,0
342233,128102895,3,5129,5185,15.73,2.06,29,36,0,0
342680,128208692,3,5184,5157,15.81,2.09,29,36,0,0
343137,128323347,3,5148,5000,15.79,2.08,29,36,0,0
343580,128432704,3,5000,5000,15.7,2.15,29,36,0,0
344032,128541223,3,5010,5142,15.73,2.17,29,36,0,0
344476,128652159,3,5137,5071,15.77,2,29,36,0,0
344879,128755006,3,5070,5000,15.8,2.02,29,36,0,0
345370,128872457,3,4997,4971,15.76,2.16,29,36,0,0
345767,128968351,3,4974,5114,15.7,2.42,29,36,0,0
346218,129080216,3,5118,5200,15.67,2.53,29,36,0,0
346672,129193401,3,5215,5371,15.73,2.71,29,36,0,0
347115,129301490,3,5373,5414,15.78,2.54,29,36,0,0
347563,129410140,3,5407,5314,15.71,2.54,29,37,0,0
348008,129519021,3,5332,5614,15.66,2.95,29,37,0,0
348458,129631117,3,5609,5571,15.62,2.84,29,37,0,0
348862,129729590,3,5568,5442,15.67,2.62,29,37,0,0
349249,129836012,3,5440,5414,15.75,2.43,29,37,0,0
349700,129948630,3,5410,5357,15.75,2.27,29,37,0,0
350146,130059721,3,5344,5214,15.7,2,29,37,0,0
350595,130167592,3,5206,5014,15.73,1.95,29,37,0,0
351043,130280445,3,5003,4900,15.85,1.83,29,37,0,0
351454,130382160,3,4897,4742,15.83,1.62,29,37,0,0
351939,130498504,3,4749,4828,15.83,1.82,29,37,0,0
352388,130607459,3,4829,4842,15.8,1.94,29,37,0,0
352829,130716402,3,4851,5000,15.75,2.12,29,37,0,0
353278,130830695,3,5006,5085,15.79,2.34,29,37,0,0
353723,130937023,3,5092,5171,15.79,2.38,29,37,0,0
354119,131035559,3,5170,5157,15.73,2.44,29,38,0,0
354568,131144538,3,5162,5257,15.82,2.43,29,38,0,0
354975,131249318,3,5257,5285,15.74,2.16,29,38,0,0
355429,131361098,3,5262,4942,15.82,1.82,29,38,0,0
355838,131466615,3,4893,4157,16.39,0.37,29,38,0,0
356286,131575125,3,4077,2842,15.88,0.5600000000000001,29,38,0,0
357136,131782629,3,2839,2600,16.2,0.34,29,38,0,0
357655,131903557,3,2569,2242,16.17,0.23,29,38,0,0
358062,132004941,3,2236,2157,16.17,0.18,29,38,0,0
358508,132116001,3,2153,2114,16.16,0.23,29,38,0,0
359362,132328903,3,2113,2100,16.17,0.23,29,38,0,0
359765,132432449,3,2100,2114,16.17,0.22,29,38,0,0
360253,132548882,3,2112,2071,16.18,0.22,29,38,0,0
360657,132654722,3,2071,2085,16.19,0.24,29,38,0,0
361562,132881745,3,2084,2071,16.19,0.21,29,38,0,0
362411,133089699,3,2070,2057,16.17,0.21,29,38,0,0
362859,133194696,3,2057,2071,16.2,0.21,29,38,0,0
363304,133304672,3,2071,2071,16.2,0.19,29,38,0,0
363754,133413470,3,2072,2085,16.2,0.22,29,38,0,0
364195,133518482,3,2086,2114,16.21,0.22,29,38,0,0
364601,133616711,3,2108,1800,16.26,0.01,29,38,0,0
365084,133736604,3,1763,1457,16.25,0,29,38,0,0
365535,133846930,3,1441,1342,16.25,0.08,29,38,0,0
365943,133943392,3,1341,1328,16.25,0.09999999,29,38,0,0
366390,134056903,3,1326,1314,16.25,0.09999999,29,38,0,0
366842,134162781,3,1314,1314,16.25,0.11,29,38,0,0
368221,134498136,3,1314,1314,16.26,0.11,29,38,0,0
368628,134597343,3,1314,1314,16.25,0.09999999,29,38,0,0
369087,134711511,3,1314,1314,16.25,0.11,29,38,0,0
370015,134926488,3,1314,1314,16.26,0.09999999,29,38,0,0
370424,135028044,3,1314,1328,16.26,0.11,29,38,0,0
370902,135136513,3,1327,1314,16.27,0.11,29,38,0,0
371345,135244531,3,1314,1314,16.26,0.11,29,38,0,0
371842,135361788,3,1314,1314,16.27,0.11,29,38,0,0
372286,135467805,3,1314,1314,16.27,0.11,29,38,0,0
372737,135576036,3,1314,1314,16.27,0.11,29,38,0,0
373177,135682909,3,1314,1314,16.28,0.11,29,38,0,0
373637,135795700,3,1314,1314,16.27,0.11,29,38,0,0
374038,135897384,3,1314,1328,16.27,0.11,29,38,0,0
374489,136004622,3,1328,1328,16.27,0.09999999,29,38,0,0
374947,136116010,3,1328,1328,16.27,0.11,29,38,0,0
375387,136224657,3,1328,1328,16.28,0.11,29,38,0,0
375841,136333569,3,1221,128,16.27,0.27,29,38,0,0
376244,136433434,3,130,157,16.19,0.75,29,38,0,0
376690,136539183,3,197,742,16.27,0.39,29,38,0,0
377131,136646621,3,761,1185,16.28,0.14,29,38,0,0
377584,136756094,3,1189,1257,16.28,0.11,29,38,0,0
378028,136865115,3,1258,1285,16.29,0.11,29,38,0,0
378482,136975252,3,1286,1300,16.28,0.11,29,38,0,0
378927,137083129,3,1300,1314,16.29,0.11,29,38,0,0
379413,137195023,3,1315,1328,16.3,0.11,29,38,0,0
379821,137296494,3,1327,1314,16.29,0.11,29,38,0,0
380271,137404150,3,1314,1328,16.29,0.11,29,38,0,0
380712,137508010,3,1327,1314,16.3,0.11,29,38,0,0
381204,137629722,3,1316,1328,16.29,0.11,29,38,0,0
381647,137733522,3,1326,1314,16.29,0.11,29,38,0,0
383016,138059663,3,1314,1328,16.3,0.11,29,38,0,0
383467,138168897,3,1326,1314,16.3,0.11,29,38,0,0
383869,138265653,3,1314,1314,16.3,0.11,29,38,0,0
384324,138377491,3,1314,1328,16.3,0.11,29,38,0,0
384769,138481424,3,1328,1328,16.3,0.11,29,38,0,0
385213,138589200,3,1328,1328,16.3,0.11,29,38,0,0
385657,138697548,3,1328,1328,16.31,0.11,29,38,0,0
386112,138807652,3,1328,1328,16.3,0.11,29,38,0,0
386551,138913154,3,1328,1328,16.3,0.11,29,38,0,0
387445,139127918,3,1328,1328,16.3,0.11,29,38,0,0
387894,139239627,3,1328,1328,16.32,0.09999999,29,38,0,0
388340,139343629,3,1328,1328,16.31,0.11,29,38,0,0
388787,139453369,3,1328,1328,16.31,0.09999999,29,38,0,0
389233,139557492,3,1328,1328,16.32,0.09999999,29,38,0,0
389676,139666944,3,1328,1328,16.32,0.11,28,38,0,0
390129,139776299,3,1328,1328,16.31,0.11,29,38,0,0
390528,139873662,3,1328,1328,16.31,0.11,29,38,0,0
391058,139993434,3,1328,1328,16.31,0.09999999,29,38,0,0
391509,140100499,3,1328,1328,16.32,0.09999999,29,38,0,0
391962,140205208,3,1286,428,16.33,0,29,38,0,0
392411,140314645,3,416,171,16.33,0.03,28,38,0,0
392903,140430792,3,156,0,16.33,0.04,28,38,0,0
393354,140534020,3,0,0,16.33,0.04,28,38,0,0
393808,140644683,3,0,0,16.33,0.04,28,38,0,0
394260,140749598,3,0,0,16.33,0.04,28,38,0,0
394715,140860798,3,0,0,16.34,0.04,28,38,0,0
395168,140965788,3,0,0,16.34,0.04,28,38,0,0
395620,141076659,3,0,0,16.34,0.04,28,38,0,0
396074,141180560,3,0,0,16.34,0.04,28,38,0,0
396567,141297161,3,0,0,16.33,0.03,28,38,0,0
397062,141413123,3,0,0,16.35,0.03,28,38,0,0
397468,141511550,3,0,0,16.34,0.04,28,38,0,0
397960,141628608,3,0,0,16.35,0.03,28,38,0,0
398415,141734130,3,0,0,16.35,0.04,28,38,0,0
398868,141846794,3,0,0,16.35,0.03,28,38,0,0
399322,141953524,3,0,0,16.35,0.04,28,38,0,0
399770,142059675,3,0,0,16.35,0.04,28,38,0,0
400268,142172425,3,0,0,16.35,0.03,28,38,0,0
400723,142282687,3,0,0,16.35,0.03,28,38,0,0
401624,142496141,3,0,0,16.35,0.03,28,38,0,0
402118,142610270,3,0,0,16.35,0.03,28,38,0,0
402571,142717364,3,0,0,16.35,0.04,28,38,0,0
403021,142826570,3,0,0,16.35,0.04,28,38,0,0
403476,142934146,3,0,0,16.35,0.04,28,38,0,0
403926,143043569,3,0,0,16.36,0.04,28,38,0,0
404379,143148688,3,0,0,16.35,0.04,28,38,0,0
404830,143253613,3,0,0,16.35,0.04,28,38,0,0
405285,143360900,3,0,0,16.36,0.04,28,38,0,0
405739,143469035,3,0,0,16.36,0.04,28,38,0,0
406232,143583523,3,0,0,16.36,0.04,28,38,0,0
406688,143692177,3,0,0,16.36,0.04,28,38,0,0
407183,143807134,3,0,0,16.36,0.04,28,38,0,0
407589,143905422,3,0,0,16.36,0.04,28,38,0,0
408084,144018330,3,0,0,16.36,0.04,28,38,0,0
408534,144125475,3,0,0,16.36,0.04,28,38,0,0
408986,144233491,3,0,0,16.36,0.04,28,38,0,0
