LineNo,TimeUS,Instance,RPM,RawRPM,Volt,Curr,Temp,CTot,MotTemp,Err
1612,4.5373e+07,5,0,0,16.79,0.03,23,0,0,0
2027,4.5475e+07,5,0,0,16.79,0.03,24,0,0,0
2485,4.5588e+07,5,0,0,16.78,0.03,24,0,0,0
2901,4.569e+07,5,0,0,16.79,0.03,24,0,0,0
3353,4.5806e+07,5,0,0,16.79,0.03,24,0,0,0
3771,4.5908e+07,5,0,0,16.79,0.03,23,0,0,0
4225,4.6019e+07,5,0,0,16.79,0.03,24,0,0,0
4639,4.6123e+07,5,0,0,16.79,0.03,23,0,0,0
5057,4.6228e+07,5,0,0,16.79,0.03,23,0,0,0
5509,4.6338e+07,5,0,0,16.79,0.03,24,0,0,0
5925,4.6443e+07,5,0,0,16.79,0.03,24,0,0,0
6338,4.6544e+07,5,0,0,16.79,0.03,24,0,0,0
6791,4.6657e+07,5,0,0,16.79,0.03,24,0,0,0
7201,4.6758e+07,5,0,0,16.79,0.03,23,0,0,0
7660,4.687e+07,5,0,0,16.79,0.03,23,0,0,0
8075,4.6974e+07,5,0,0,16.79,0.03,23,0,0,0
8488,4.7074e+07,5,0,0,16.79,0.03,23,0,0,0
8943,4.7186e+07,5,0,0,16.79,0.03,23,0,0,0
9254,4.7289e+07,5,0,0,16.79,0.02,23,0,0,0
9712,4.7402e+07,5,0,0,16.79,0.03,24,0,0,0
10124,4.7506e+07,5,0,0,16.79,0.03,24,0,0,0
10541,4.7606e+07,5,0,0,16.79,0.03,23,0,0,0
10993,4.7718e+07,5,0,0,16.79,0.03,23,0,0,0
11794,4.7924e+07,5,0,0,16.79,0.03,23,0,0,0
12242,4.803e+07,5,0,0,16.79,0.03,24,0,0,0
12696,4.8143e+07,5,0,0,16.79,0.03,23,0,0,0
13073,4.8242e+07,5,0,0,16.79,0.03,24,0,0,0
13523,4.8353e+07,5,0,0,16.79,0.03,23,0,0,0
13936,4.8455e+07,5,0,0,16.79,0.03,23,0,0,0
14393,4.8566e+07,5,0,0,16.79,0.03,24,0,0,0
14799,4.8668e+07,5,0,0,16.79,0.02,24,0,0,0
15253,4.8779e+07,5,0,0,16.79,0.02,24,0,0,0
15665,4.8884e+07,5,0,0,16.79,0.02,24,0,0,0
16121,4.8994e+07,5,0,0,16.79,0.02,23,0,0,0
16537,4.91e+07,5,0,0,16.79,0.02,24,0,0,0
16949,4.9201e+07,5,0,0,16.8,0.02,23,0,0,0
17406,4.9315e+07,5,0,0,16.79,0.03,24,0,0,0
17818,4.9419e+07,5,0,0,16.79,0.02,24,0,0,0
18233,4.9519e+07,5,0,0,16.79,0.02,24,0,0,0
19097,4.9734e+07,5,0,0,16.79,0.02,24,0,0,0
19514,4.9841e+07,5,0,0,16.79,0.03,23,0,0,0
19967,4.9952e+07,5,0,0,16.79,0.03,24,0,0,0
20380,5.0054e+07,5,0,0,16.79,0.03,24,0,0,0
20833,5.0166e+07,5,0,0,16.79,0.03,24,0,0,0
21241,5.0269e+07,5,0,0,16.79,0.02,24,0,0,0
21659,5.0373e+07,5,0,0,16.79,0.03,24,0,0,0
22071,5.0481e+07,5,0,0,16.79,0.03,23,0,0,0
22527,5.0592e+07,5,0,0,16.79,0.03,24,0,0,0
22937,5.0693e+07,5,0,0,16.79,0.03,24,0,0,0
23349,5.0796e+07,5,0,0,16.79,0.03,24,0,0,0
23804,5.091e+07,5,0,0,16.79,0.03,24,0,0,0
24224,5.1012e+07,5,0,0,16.79,0.03,23,0,0,0
24675,5.1125e+07,5,0,0,16.79,0.03,24,0,0,0
25084,5.1226e+07,5,0,0,16.79,0.03,24,0,0,0
25537,5.1337e+07,5,0,0,16.79,0.03,24,0,0,0
25947,5.1438e+07,5,0,0,16.79,0.03,24,0,0,0
26406,5.155e+07,5,0,0,16.79,0.03,24,0,0,0
26782,5.1649e+07,5,0,0,16.79,0.03,24,0,0,0
27235,5.176e+07,5,0,0,16.79,0.03,24,0,0,0
27646,5.1863e+07,5,0,0,16.79,0.03,24,0,0,0
28098,5.1974e+07,5,0,0,16.79,0.03,24,0,0,0
28512,5.2079e+07,5,0,0,16.79,0.03,24,0,0,0
28964,5.219e+07,5,0,0,16.79,0.03,24,0,0,0
29373,5.2294e+07,5,0,0,16.79,0.03,24,0,0,0
29786,5.2395e+07,5,0,0,16.79,0.03,24,0,0,0
30246,5.2512e+07,5,0,0,16.79,0.03,24,0,0,0
30660,5.2611e+07,5,0,0,16.79,0.03,24,0,0,0
31110,5.2718e+07,5,0,0,16.79,0.03,24,0,0,0
31607,5.2832e+07,5,0,0,16.79,0.03,24,0,0,0
32059,5.2932e+07,5,0,0,16.79,0.03,24,0,0,0
32516,5.3042e+07,5,0,0,16.79,0.03,24,0,0,0
32971,5.3143e+07,5,0,0,16.79,0.03,24,0,0,0
33466,5.3257e+07,5,0,0,16.79,0.03,24,0,0,0
33916,5.3358e+07,5,0,0,16.79,0.03,24,0,0,0
34863,5.3575e+07,5,0,0,16.79,0.03,24,0,0,0
35314,5.368e+07,5,0,0,16.79,0.02,24,0,0,0
35816,5.3791e+07,5,0,0,16.79,0.02,24,0,0,0
36266,5.3894e+07,5,0,0,16.79,0.02,24,0,0,0
36800,5.4008e+07,5,0,0,16.79,0.02,24,0,0,0
37256,5.411e+07,5,0,0,16.79,0.02,24,0,0,0
37707,5.4217e+07,5,0,0,16.79,0.02,24,0,0,0
38204,5.4328e+07,5,0,0,16.79,0.02,24,0,0,0
38654,5.4432e+07,5,0,0,16.79,0.02,24,0,0,0
39109,5.4534e+07,5,0,0,16.79,0.01,24,0,0,0
39603,5.4647e+07,5,27,285,16.78,0.05,24,0,0,0
40055,5.475e+07,5,291,771,16.76,0.11,24,0,0,0
40505,5.4857e+07,5,776,1157,16.76,0.15,24,0,0,0
40900,5.4968e+07,5,1167,1285,16.77,0.11,24,0,0,0
41355,5.5076e+07,5,1287,1328,16.77,0.11,24,0,0,0
41815,5.5179e+07,5,1328,1342,16.77,0.1,24,0,0,0
42269,5.5286e+07,5,1342,1342,16.77,0.1,24,0,0,0
42768,5.5398e+07,5,1342,1342,16.77,0.1,24,0,0,0
43218,5.55e+07,5,1342,1357,16.77,0.1,24,0,0,0
43676,5.5606e+07,5,1357,1357,16.77,0.1,24,0,0,0
44128,5.571e+07,5,1357,1357,16.77,0.1,24,0,0,0
44633,5.5824e+07,5,1357,1357,16.77,0.1,24,0,0,0
45084,5.5924e+07,5,1357,1357,16.77,0.1,24,0,0,0
45535,5.6026e+07,5,1357,1357,16.77,0.1,24,0,0,0
46038,5.614e+07,5,1356,1342,16.77,0.1,24,0,0,0
46487,5.624e+07,5,1342,1357,16.77,0.1,24,0,0,0
46944,5.6343e+07,5,1357,1357,16.76,0.1,24,0,0,0
47442,5.6458e+07,5,1357,1357,16.78,0.1,24,0,0,0
47895,5.6559e+07,5,1357,1357,16.77,0.1,24,0,0,0
48351,5.6668e+07,5,1357,1357,16.77,0.1,24,0,0,0
48848,5.678e+07,5,1357,1357,16.77,0.1,24,0,0,0
49336,5.6889e+07,5,1357,1357,16.77,0.1,24,0,0,0
49795,5.6992e+07,5,1357,1357,16.76,0.09,24,0,0,0
50250,5.7099e+07,5,1357,1357,16.77,0.1,24,0,0,0
50748,5.7215e+07,5,1357,1357,16.77,0.1,24,0,0,0
51202,5.7316e+07,5,1357,1357,16.77,0.1,24,0,0,0
51647,5.7418e+07,5,1357,1357,16.77,0.1,24,0,0,0
52105,5.7525e+07,5,1357,1357,16.77,0.1,24,0,0,0
52557,5.7629e+07,5,1357,1357,16.77,0.1,24,0,0,0
53015,5.7733e+07,5,1357,1357,16.77,0.1,24,0,0,0
53541,5.7851e+07,5,1357,1357,16.77,0.1,24,0,0,0
53998,5.7952e+07,5,1357,1357,16.77,0.1,24,0,0,0
54455,5.8061e+07,5,1357,1357,16.77,0.1,24,0,0,0
54913,5.8165e+07,5,1357,1357,16.77,0.1,24,0,0,0
55411,5.828e+07,5,1357,1357,16.77,0.1,24,0,0,0
55863,5.838e+07,5,1357,1357,16.77,0.1,24,0,0,0
56319,5.8488e+07,5,1357,1357,16.77,0.1,24,0,0,0
56810,5.86e+07,5,1357,1357,16.77,0.1,24,0,0,0
57263,5.8706e+07,5,1357,1357,16.76,0.1,24,0,0,0
57715,5.8811e+07,5,1357,1357,16.76,0.1,24,0,0,0
58169,5.8914e+07,5,1357,1357,16.76,0.1,24,0,0,0
58626,5.9019e+07,5,1357,1357,16.76,0.1,24,0,0,0
59082,5.913e+07,5,1357,1357,16.77,0.1,24,0,0,0
59539,5.9234e+07,5,1357,1357,16.77,0.1,24,0,0,0
59986,5.9336e+07,5,1357,1357,16.77,0.1,24,0,0,0
60979,5.9561e+07,5,1357,1357,16.77,0.1,24,0,0,0
61435,5.9667e+07,5,1357,1357,16.77,0.1,24,0,0,0
61891,5.977e+07,5,1357,1357,16.76,0.1,24,0,0,0
62306,5.9873e+07,5,1357,1357,16.76,0.1,24,0,0,0
62805,5.9984e+07,5,1357,1357,16.77,0.1,24,0,0,0
63255,6.0089e+07,5,1357,1357,16.77,0.1,24,0,0,0
63707,6.019e+07,5,1357,1357,16.76,0.1,24,0,0,0
64165,6.0298e+07,5,1357,1357,16.77,0.1,24,0,0,0
64672,6.0416e+07,5,1357,1357,16.76,0.1,24,0,0,0
65125,6.0517e+07,5,1357,1357,16.77,0.1,24,0,0,0
65609,6.0623e+07,5,1357,1357,16.76,0.1,24,0,0,0
66068,6.073e+07,5,1357,1357,16.77,0.1,24,0,0,0
66520,6.0833e+07,5,1357,1357,16.76,0.1,24,0,0,0
67022,6.0944e+07,5,1357,1357,16.77,0.1,24,0,0,0
67434,6.1044e+07,5,1357,1357,16.77,0.1,24,0,0,0
67932,6.1155e+07,5,1356,1342,16.77,0.1,24,0,0,0
68424,6.1265e+07,5,1343,1357,16.76,0.1,24,0,0,0
68878,6.1365e+07,5,1357,1357,16.76,0.1,24,0,0,0
69331,6.147e+07,5,1357,1357,16.76,0.1,24,0,0,0
69828,6.1583e+07,5,1357,1357,16.76,0.1,24,0,0,0
70318,6.1693e+07,5,1357,1357,16.76,0.1,24,0,0,0
70772,6.1795e+07,5,1357,1357,16.76,0.1,24,0,0,0
71265,6.1906e+07,5,1357,1357,16.76,0.1,24,0,0,0
71722,6.201e+07,5,1357,1357,16.76,0.1,24,0,0,0
72173,6.2117e+07,5,1357,1357,16.77,0.1,24,0,0,0
72630,6.2222e+07,5,1357,1357,16.76,0.1,24,0,0,0
73127,6.2338e+07,5,1357,1357,16.76,0.1,24,0,0,0
73573,6.2439e+07,5,1357,1357,16.76,0.1,24,0,0,0
74020,6.2548e+07,5,1322,442,16.79,0,24,0,0,0
74463,6.2657e+07,5,428,242,16.79,0.02,24,0,0,0
74964,6.2772e+07,5,222,0,16.79,0.02,24,0,0,0
75875,6.2989e+07,5,0,0,16.79,0.03,24,0,0,0
76321,6.309e+07,5,0,0,16.79,0.03,24,0,0,0
76818,6.3204e+07,5,0,0,16.78,0.03,24,0,0,0
77230,6.3305e+07,5,0,0,16.78,0.03,24,0,0,0
77728,6.3424e+07,5,0,0,16.78,0.03,24,0,0,0
78181,6.3529e+07,5,0,0,16.79,0.03,24,0,0,0
78632,6.3638e+07,5,0,0,16.78,0.03,24,0,0,0
79129,6.375e+07,5,0,0,16.78,0.03,24,0,0,0
79583,6.3861e+07,5,0,0,16.79,0.03,24,0,0,0
80040,6.3965e+07,5,0,0,16.79,0.03,24,0,0,0
80490,6.4072e+07,5,0,0,16.78,0.03,24,0,0,0
81442,6.4302e+07,5,0,0,16.78,0.03,24,0,0,0
82304,6.4506e+07,5,0,0,16.79,0.03,24,0,0,0
82838,6.4628e+07,5,0,0,16.78,0.03,24,0,0,0
83291,6.4734e+07,5,0,0,16.78,0.03,24,0,0,0
83747,6.4846e+07,5,0,0,16.77,0.02,24,0,0,0
84202,6.495e+07,5,0,0,16.77,0.02,24,0,0,0
84653,6.5056e+07,5,0,0,16.78,0.02,24,0,0,0
85150,6.517e+07,5,0,0,16.77,0.03,24,0,0,0
85597,6.5275e+07,5,0,0,16.78,0.03,24,0,0,0
86554,6.5499e+07,5,0,0,16.78,0.03,24,0,0,0
87455,6.5711e+07,5,0,0,16.79,0.03,24,0,0,0
87904,6.5818e+07,5,0,0,16.78,0.03,24,0,0,0
88404,6.5932e+07,5,0,0,16.77,0.03,24,0,0,0
88860,6.6042e+07,5,0,0,16.78,0.03,24,0,0,0
89357,6.6156e+07,5,0,0,16.78,0.03,24,0,0,0
90256,6.6367e+07,5,0,0,16.78,0.03,24,0,0,0
90714,6.6476e+07,5,0,0,16.78,0.03,24,0,0,0
91212,6.659e+07,5,0,0,16.78,0.03,24,0,0,0
91664,6.6695e+07,5,0,0,16.78,0.03,24,0,0,0
92120,6.68e+07,5,0,0,16.78,0.03,24,0,0,0
92582,6.6912e+07,5,0,0,16.79,0.03,24,0,0,0
93036,6.7019e+07,5,0,0,16.79,0.03,24,0,0,0
93531,6.7132e+07,5,0,0,16.79,0.03,24,0,0,0
93983,6.7238e+07,5,0,0,16.78,0.03,24,0,0,0
94437,6.7342e+07,5,0,0,16.79,0.03,24,0,0,0
95387,6.756e+07,5,0,0,16.79,0.03,24,0,0,0
95835,6.7664e+07,5,0,0,16.79,0.03,24,0,0,0
96333,6.7777e+07,5,0,0,16.79,0.03,24,0,0,0
96745,6.7875e+07,5,0,0,16.79,0.03,24,0,0,0
97245,6.7987e+07,5,0,0,16.79,0.03,24,0,0,0
97692,6.8091e+07,5,0,0,16.79,0.03,24,0,0,0
98189,6.8203e+07,5,0,0,16.78,0.03,24,0,0,0
98639,6.8309e+07,5,0,0,16.79,0.03,24,0,0,0
99092,6.8416e+07,5,0,0,16.79,0.03,24,0,0,0
99592,6.8532e+07,5,10,128,16.77,0.02,24,0,0,0
1.0004e+05,6.8638e+07,5,149,385,16.76,0.06,24,0,0,0
1.005e+05,6.8741e+07,5,390,828,16.75,0.12,24,0,0,0
1.0099e+05,6.8857e+07,5,859,1200,16.76,0.14,24,0,0,0
1.0145e+05,6.8962e+07,5,1204,1271,16.77,0.11,24,0,0,0
1.0191e+05,6.907e+07,5,1273,1314,16.76,0.11,24,0,0,0
1.0236e+05,6.9171e+07,5,1315,1342,16.76,0.11,24,0,0,0
1.0281e+05,6.9281e+07,5,1342,1342,16.76,0.11,24,0,0,0
1.0331e+05,6.9394e+07,5,1342,1342,16.77,0.11,24,0,0,0
1.0376e+05,6.9503e+07,5,1351,1457,16.75,0.19,24,0,0,0
1.0422e+05,6.9611e+07,5,1496,1914,16.66,0.44,24,0,0,0
1.0485e+05,6.9815e+07,5,2370,2357,16.75,0.19,24,0,0,0
1.0535e+05,6.9928e+07,5,2358,2385,16.72,0.58,24,0,0,0
1.0581e+05,7.004e+07,5,2391,2457,16.75,0.49,24,0,0,0
1.0626e+05,7.0142e+07,5,2456,2414,16.56,0.55,24,0,0,0
1.0671e+05,7.0253e+07,5,2419,2500,16.61,0.58,24,0,0,0
1.0717e+05,7.036e+07,5,2520,2914,16.56,1.05,24,0,0,0
1.0813e+05,7.0585e+07,5,2979,4385,16.15,2.3,24,0,0,0
1.0853e+05,7.0684e+07,5,4407,4828,16.29,2.56,24,0,0,0
1.0903e+05,7.08e+07,5,4867,5271,16.17,3.27,24,1,0,0
1.0945e+05,7.0902e+07,5,5286,5928,16.04,4.04,24,1,0,0
1.0995e+05,7.1017e+07,5,5929,5957,16.2,3.65,24,1,0,0
1.1039e+05,7.1124e+07,5,5944,5828,16.21,3.24,24,1,0,0
1.1084e+05,7.1236e+07,5,5830,5857,16.17,3.28,24,1,0,0
1.113e+05,7.1338e+07,5,5858,5971,16.25,3.13,24,1,0,0
1.1175e+05,7.145e+07,5,5954,5728,16.22,3.21,24,1,0,0
1.1225e+05,7.1564e+07,5,5730,5757,16.26,3.36,24,1,0,0
1.1266e+05,7.1664e+07,5,5770,6057,16.23,4,24,1,0,0
1.1316e+05,7.1781e+07,5,6063,6128,16.22,4.09,24,1,0,0
1.1357e+05,7.1883e+07,5,6136,6357,16.18,4.38,24,2,0,0
1.1402e+05,7.1987e+07,5,6354,6200,16.17,4.01,24,2,0,0
1.1455e+05,7.2107e+07,5,6213,6371,16.1,4.19,24,2,0,0
1.15e+05,7.2212e+07,5,6355,6042,16.13,3.69,24,2,0,0
1.1545e+05,7.2323e+07,5,6036,5885,16.22,3.19,24,2,0,0
1.159e+05,7.2431e+07,5,5883,5814,16.25,2.99,25,2,0,0
1.1636e+05,7.254e+07,5,5804,5585,16.16,3,25,2,0,0
1.1681e+05,7.2645e+07,5,5588,5742,16.19,3.2,25,2,0,0
1.1726e+05,7.2751e+07,5,5742,5800,16.13,3.21,25,2,0,0
1.1771e+05,7.2859e+07,5,5800,5842,16.08,3.37,25,2,0,0
1.1821e+05,7.2974e+07,5,5825,5614,16.1,3.33,25,3,0,0
1.1866e+05,7.3082e+07,5,5627,5814,16.08,3.17,25,3,0,0
1.1911e+05,7.3189e+07,5,5808,5728,16.16,3.23,25,3,0,0
1.1953e+05,7.3293e+07,5,5729,5857,16.14,3.24,25,3,0,0
1.2002e+05,7.3408e+07,5,5847,5714,16.14,3.34,25,3,0,0
1.2048e+05,7.3521e+07,5,5739,6000,16.15,3.51,25,3,0,0
1.2093e+05,7.3629e+07,5,6000,6000,16.21,3.29,25,3,0,0
1.2139e+05,7.3735e+07,5,5985,5842,16.16,3.39,25,3,0,0
1.218e+05,7.3837e+07,5,5844,5900,16.18,3.51,25,3,0,0
1.223e+05,7.3955e+07,5,5909,6014,16.13,3.73,25,4,0,0
1.2276e+05,7.4066e+07,5,6010,5971,16.08,3.88,25,4,0,0
1.2317e+05,7.4165e+07,5,5971,5985,16.1,3.9,25,4,0,0
1.2362e+05,7.4278e+07,5,5987,6057,16.19,3.52,25,4,0,0
1.2408e+05,7.4385e+07,5,6049,5957,16.17,3.41,25,4,0,0
1.2452e+05,7.4491e+07,5,5962,6071,16.05,3.64,25,4,0,0
1.2497e+05,7.4601e+07,5,6071,6085,16.01,4.1,25,4,0,0
1.2541e+05,7.4711e+07,5,6105,6385,15.99,3.97,25,4,0,0
1.2586e+05,7.4822e+07,5,6373,6214,16.05,4.48,25,4,0,0
1.2631e+05,7.4931e+07,5,6224,6328,15.99,4.25,25,5,0,0
1.2675e+05,7.5034e+07,5,6333,6442,15.98,4.33,25,5,0,0
1.2721e+05,7.5147e+07,5,6433,6314,16.03,3.87,25,5,0,0
1.2765e+05,7.5259e+07,5,6301,6171,16.1,3.51,25,5,0,0
1.2811e+05,7.5367e+07,5,6144,5871,16.17,3.18,25,5,0,0
1.2854e+05,7.5472e+07,5,5868,5757,16.22,3.02,25,5,0,0
1.2899e+05,7.5585e+07,5,5758,5785,16.25,2.83,25,5,0,0
1.294e+05,7.5688e+07,5,5778,5400,16.14,2.51,25,5,0,0
1.2993e+05,7.5817e+07,5,5411,5585,16.23,3.07,25,5,0,0
1.3034e+05,7.5914e+07,5,5579,5442,16.15,2.74,26,6,0,0
1.3079e+05,7.6028e+07,5,5441,5428,16.19,2.8,25,6,0,0
1.3124e+05,7.6133e+07,5,5437,5571,16.17,3.05,25,6,0,0
1.3212e+05,7.6347e+07,5,5574,5742,16.11,3.02,25,6,0,0
1.3257e+05,7.6459e+07,5,5742,5785,16.19,3.16,26,6,0,0
1.3301e+05,7.6567e+07,5,5782,5671,16.11,3.17,26,6,0,0
1.335e+05,7.6689e+07,5,5693,5900,16.1,3.41,26,6,0,0
1.3395e+05,7.6793e+07,5,5898,5857,16.1,3.39,26,6,0,0
1.344e+05,7.6908e+07,5,5869,6000,16.14,3.18,26,6,0,0
1.3489e+05,7.7024e+07,5,5992,5942,16.12,3.26,26,6,0,0
1.3577e+05,7.7243e+07,5,5931,5728,16.15,2.98,26,7,0,0
1.3618e+05,7.7344e+07,5,5730,5771,16.16,2.9,26,7,0,0
1.3659e+05,7.7445e+07,5,5770,5742,16.08,2.73,26,7,0,0
1.3703e+05,7.7552e+07,5,5741,5657,16.18,2.71,26,7,0,0
1.3748e+05,7.7664e+07,5,5654,5585,16.19,2.82,26,7,0,0
1.3793e+05,7.7771e+07,5,5588,5757,16.18,3.04,26,7,0,0
1.3842e+05,7.7897e+07,5,5753,5728,16.05,3.03,26,7,0,0
1.3887e+05,7.8004e+07,5,5723,5657,16.12,2.91,26,7,0,0
1.3972e+05,7.822e+07,5,5657,5700,16.05,3.01,26,7,0,0
1.4014e+05,7.8323e+07,5,5717,5857,16.13,2.91,26,8,0,0
1.4058e+05,7.8434e+07,5,5855,5742,16.13,3.16,26,8,0,0
1.4102e+05,7.8537e+07,5,5744,5857,16.16,3.24,26,8,0,0
1.4151e+05,7.8651e+07,5,5858,5871,16.1,3.28,26,8,0,0
1.4236e+05,7.8869e+07,5,5869,5828,16.07,3.29,26,8,0,0
1.4277e+05,7.8972e+07,5,5828,5842,16.05,3.38,26,8,0,0
1.4326e+05,7.909e+07,5,5839,5814,16.13,3.02,26,8,0,0
1.4367e+05,7.9192e+07,5,5814,5828,16.1,3.19,26,8,0,0
1.4412e+05,7.9302e+07,5,5825,5785,16.1,2.86,26,8,0,0
1.4457e+05,7.9415e+07,5,5785,5785,16.07,3.21,26,9,0,0
1.4502e+05,7.9524e+07,5,5792,5871,16.05,3.2,26,9,0,0
1.4543e+05,7.9626e+07,5,5871,5885,16.1,3.5,26,9,0,0
1.4588e+05,7.9735e+07,5,5885,5928,16.11,3.27,26,9,0,0
1.4632e+05,7.9844e+07,5,5926,5871,16.11,2.94,26,9,0,0
1.4677e+05,7.9955e+07,5,5868,5828,15.91,3.79,26,9,0,0
1.4722e+05,8.0065e+07,5,5837,5928,16.13,3.22,26,9,0,0
1.4811e+05,8.0284e+07,5,5925,5785,16.07,3.19,26,9,0,0
1.4856e+05,8.039e+07,5,5793,6000,15.98,3.86,26,9,0,0
1.49e+05,8.0501e+07,5,6000,6014,15.88,4.08,26,10,0,0
1.4946e+05,8.0613e+07,5,6019,6100,16.02,3.11,26,10,0,0
1.4986e+05,8.0715e+07,5,6096,6000,16.13,3.44,26,10,0,0
1.503e+05,8.0825e+07,5,5990,5728,16.03,3.37,26,10,0,0
1.508e+05,8.0943e+07,5,5754,6014,16.01,3.83,26,10,0,0
1.512e+05,8.1043e+07,5,6012,5942,15.99,3.96,26,10,0,0
1.517e+05,8.116e+07,5,5931,5771,15.88,3.51,26,10,0,0
1.5214e+05,8.1268e+07,5,5772,5785,16.08,2.77,26,10,0,0
1.5254e+05,8.1366e+07,5,5776,5371,16.12,2.29,26,10,0,0
1.5299e+05,8.1475e+07,5,5379,5485,16.08,3.49,26,10,0,0
1.5344e+05,8.1583e+07,5,5489,5742,16.07,3.12,26,11,0,0
1.5388e+05,8.1692e+07,5,5742,5814,16.11,3.56,26,11,0,0
1.5434e+05,8.1811e+07,5,5829,5928,16.02,3.15,26,11,0,0
1.5474e+05,8.1906e+07,5,5919,5585,16.08,2.96,26,11,0,0
1.5522e+05,8.2017e+07,5,5589,5671,16.1,3.07,26,11,0,0
1.5568e+05,8.2129e+07,5,5671,5685,16.01,3.45,26,11,0,0
1.5608e+05,8.2232e+07,5,5691,5885,16.08,3.38,26,11,0,0
1.5657e+05,8.2343e+07,5,5888,5971,16.08,3.22,26,11,0,0
1.5701e+05,8.2455e+07,5,5965,5900,16.01,3.38,26,11,0,0
1.5743e+05,8.2559e+07,5,5892,5785,15.98,3.25,26,11,0,0
1.5786e+05,8.2663e+07,5,5797,6100,16.06,3.38,26,11,0,0
1.5832e+05,8.2776e+07,5,6087,5914,16.1,3.46,26,12,0,0
1.5873e+05,8.288e+07,5,5916,6057,15.98,3.58,26,12,0,0
1.5922e+05,8.2995e+07,5,6059,6100,16.01,3.43,27,12,0,0
1.5962e+05,8.3098e+07,5,6100,6100,16.02,3.59,26,12,0,0
1.6011e+05,8.3212e+07,5,6088,5828,16.02,3.11,27,12,0,0
1.6056e+05,8.3326e+07,5,5830,5857,16.09,3.15,27,12,0,0
1.6096e+05,8.343e+07,5,5849,5742,16.03,2.95,26,12,0,0
1.6145e+05,8.3547e+07,5,5740,5728,16.12,3.05,26,12,0,0
1.6185e+05,8.3645e+07,5,5725,5614,16.11,2.78,26,12,0,0
1.623e+05,8.3753e+07,5,5612,5542,16.1,2.7,27,12,0,0
1.6272e+05,8.3859e+07,5,5542,5585,16.1,2.9,27,13,0,0
1.6321e+05,8.3976e+07,5,5574,5471,16.05,2.72,27,13,0,0
1.6365e+05,8.4084e+07,5,5474,5528,16.14,2.63,27,13,0,0
1.641e+05,8.4192e+07,5,5528,5528,16.06,3.2,27,13,0,0
1.6454e+05,8.4303e+07,5,5540,5714,16.08,3.14,27,13,0,0
1.6495e+05,8.4404e+07,5,5713,5700,16.12,3.02,27,13,0,0
1.654e+05,8.451e+07,5,5701,5757,16,3.32,27,13,0,0
1.6584e+05,8.4619e+07,5,5763,6157,15.96,3.83,27,13,0,0
1.6633e+05,8.4731e+07,5,6144,5857,15.99,3.39,27,13,0,0
1.6726e+05,8.496e+07,5,5859,5914,15.97,3.2,26,13,0,0
1.6771e+05,8.5074e+07,5,5915,5928,16.03,3.26,27,14,0,0
1.6815e+05,8.517e+07,5,5928,5942,16.05,3.46,27,14,0,0
1.686e+05,8.5287e+07,5,5939,5914,15.99,3.56,27,14,0,0
1.6908e+05,8.54e+07,5,5908,5828,15.94,3.17,27,14,0,0
1.6994e+05,8.5614e+07,5,5824,5657,16.12,3.13,27,14,0,0
1.7038e+05,8.5723e+07,5,5655,5571,16.1,2.81,27,14,0,0
1.7175e+05,8.6049e+07,5,5567,5442,16.1,2.6,27,14,0,0
1.7221e+05,8.6163e+07,5,5432,5328,16.1,2.39,27,14,0,0
1.7258e+05,8.6261e+07,5,5334,5471,15.99,2.62,27,15,0,0
1.7306e+05,8.6373e+07,5,5476,5557,16.07,3.04,27,15,0,0
1.7347e+05,8.6479e+07,5,5554,5528,16.09,2.78,27,15,0,0
1.7392e+05,8.658e+07,5,5529,5628,16.05,2.85,27,15,0,0
1.7436e+05,8.6695e+07,5,5625,5600,16.02,2.9,27,15,0,0
1.7481e+05,8.6806e+07,5,5611,5714,16.04,3.2,27,15,0,0
1.7522e+05,8.6907e+07,5,5735,6042,15.98,4.07,27,15,0,0
1.7567e+05,8.7014e+07,5,6043,6100,16,3.5,27,15,0,0
1.7611e+05,8.7127e+07,5,6102,6157,16,4.14,27,15,0,0
1.766e+05,8.7244e+07,5,6157,6157,15.96,3.9,27,15,0,0
1.7705e+05,8.7353e+07,5,6157,6157,16.05,3.7,27,16,0,0
1.7749e+05,8.7461e+07,5,6155,6128,15.97,3.83,27,16,0,0
1.7794e+05,8.7573e+07,5,6133,6228,16.02,3.93,27,16,0,0
1.7835e+05,8.7678e+07,5,6219,6100,15.97,3.82,27,16,0,0
1.788e+05,8.7785e+07,5,6099,6085,15.96,3.4,27,16,0,0
1.7925e+05,8.7898e+07,5,6072,5900,16.01,3.15,27,16,0,0
1.7966e+05,8.7999e+07,5,5901,5985,15.98,3.57,27,16,0,0
1.801e+05,8.8113e+07,5,5974,5842,16.02,3.19,27,16,0,0
1.8056e+05,8.8231e+07,5,5858,6042,16.05,3.49,27,16,0,0
1.81e+05,8.8336e+07,5,6038,6000,15.93,3.46,27,17,0,0
1.8141e+05,8.8438e+07,5,5998,5985,16.02,3.29,27,17,0,0
1.8186e+05,8.8545e+07,5,5982,5942,15.99,3.21,27,17,0,0
1.8231e+05,8.866e+07,5,5942,5942,15.97,3.06,27,17,0,0
1.8272e+05,8.876e+07,5,5941,5900,16.04,3.02,27,17,0,0
1.8321e+05,8.8877e+07,5,5898,5885,15.96,3.23,27,17,0,0
1.8366e+05,8.8983e+07,5,5893,6014,15.95,3.53,27,17,0,0
1.8405e+05,8.9083e+07,5,6013,5928,15.92,3.46,27,17,0,0
1.8455e+05,8.9198e+07,5,5926,5914,16.01,3.27,27,17,0,0
1.8503e+05,8.9314e+07,5,5915,5928,15.97,3.18,27,17,0,0
1.8584e+05,8.9517e+07,5,5923,5742,15.96,2.61,27,18,0,0
1.8633e+05,8.9637e+07,5,5744,5771,16,3.68,27,18,0,0
1.8673e+05,8.9733e+07,5,5773,5871,15.98,3.6,27,18,0,0
1.8718e+05,8.9846e+07,5,5883,6042,16,3.23,27,18,0,0
1.8763e+05,8.9954e+07,5,6040,6000,15.98,3.58,27,18,0,0
1.8804e+05,9.0059e+07,5,6000,6028,15.99,3.6,27,18,0,0
1.8849e+05,9.0167e+07,5,6028,6085,15.98,3.51,27,18,0,0
1.8898e+05,9.0284e+07,5,6076,5985,16.05,3.28,27,18,0,0
1.8942e+05,9.0389e+07,5,5983,5957,16.02,2.97,27,18,0,0
1.8987e+05,9.05e+07,5,5936,5714,15.93,2.66,27,19,0,0
1.9028e+05,9.0599e+07,5,5711,5571,16.02,2.76,27,19,0,0
1.9076e+05,9.0718e+07,5,5581,5700,16,3.13,27,19,0,0
1.9121e+05,9.0831e+07,5,5720,5928,15.94,3.29,27,19,0,0
1.9166e+05,9.0936e+07,5,5933,6014,16.04,3.29,27,19,0,0
1.9207e+05,9.1043e+07,5,6009,5914,16.01,3.42,27,19,0,0
1.9257e+05,9.1163e+07,5,5916,5942,15.94,3.47,27,19,0,0
1.9297e+05,9.1263e+07,5,5948,6200,15.94,3.9,27,19,0,0
1.9342e+05,9.1371e+07,5,6195,6100,15.99,3.33,27,19,0,0
1.9387e+05,9.1482e+07,5,6092,6014,15.98,3.24,27,19,0,0
1.9467e+05,9.1697e+07,5,6006,5785,16.03,3.51,27,20,0,0
1.9512e+05,9.1807e+07,5,5786,5814,15.89,3.7,27,20,0,0
1.9606e+05,9.2044e+07,5,5817,5885,16,3.14,27,20,0,0
1.9651e+05,9.2148e+07,5,5868,5757,16.02,3.05,27,20,0,0
1.9691e+05,9.2249e+07,5,5754,5728,15.94,3.25,27,20,0,0
1.9736e+05,9.2356e+07,5,5728,5742,15.96,3.05,27,20,0,0
1.9775e+05,9.247e+07,5,5745,5785,15.92,3.15,27,20,0,0
1.9816e+05,9.2576e+07,5,5782,5728,15.95,3.27,27,20,0,0
1.9861e+05,9.2688e+07,5,5751,5914,16,3.34,27,21,0,0
1.9906e+05,9.2793e+07,5,5912,5771,15.91,3.56,27,21,0,0
1.9951e+05,9.2906e+07,5,5779,5857,15.97,3.29,27,21,0,0
1.9996e+05,9.3012e+07,5,5843,5728,15.93,3.32,27,21,0,0
2.004e+05,9.3121e+07,5,5731,5771,15.98,3.29,27,21,0,0
2.0081e+05,9.3222e+07,5,5771,5828,15.95,3.67,27,21,0,0
2.0125e+05,9.3333e+07,5,5830,5871,15.94,3.57,27,21,0,0
2.0258e+05,9.3654e+07,5,5873,6014,15.95,3.58,27,21,0,0
2.0303e+05,9.3767e+07,5,6008,5957,15.94,3.78,27,22,0,0
2.0348e+05,9.3874e+07,5,5951,5900,15.91,3.25,27,22,0,0
2.0393e+05,9.3978e+07,5,5896,5842,15.95,3.5,27,22,0,0
2.0438e+05,9.4086e+07,5,5834,5671,15.99,3.22,27,22,0,0
2.0482e+05,9.4196e+07,5,5683,5842,15.96,3.3,27,22,0,0
2.0526e+05,9.4298e+07,5,5844,5942,15.97,3.34,27,22,0,0
2.062e+05,9.4524e+07,5,5925,5542,16,2.89,27,22,0,0
2.066e+05,9.4626e+07,5,5546,5628,15.99,2.82,27,22,0,0
2.0749e+05,9.4843e+07,5,5624,5485,16.02,2.95,27,23,0,0
2.0794e+05,9.4954e+07,5,5500,5685,15.98,3.06,27,23,0,0
2.0838e+05,9.5063e+07,5,5688,5757,15.98,3.26,27,23,0,0
2.0883e+05,9.5169e+07,5,5756,5742,15.98,3.47,27,23,0,0
2.0928e+05,9.5284e+07,5,5743,5757,15.97,3.23,27,23,0,0
2.0973e+05,9.5392e+07,5,5782,6042,15.95,3.26,27,23,0,0
2.1014e+05,9.5494e+07,5,6038,5957,15.85,3.47,27,23,0,0
2.1058e+05,9.56e+07,5,5959,6085,15.95,3.34,27,23,0,0
2.1103e+05,9.5713e+07,5,6076,5971,16.01,3.47,27,23,0,0
2.1148e+05,9.5822e+07,5,5962,5842,15.95,3.04,27,23,0,0
2.1189e+05,9.5924e+07,5,5842,5857,15.97,3.47,27,23,0,0
2.1237e+05,9.6037e+07,5,5861,5957,15.98,3.24,27,24,0,0
2.1283e+05,9.6148e+07,5,5955,5928,15.98,3.37,27,24,0,0
2.1327e+05,9.6259e+07,5,5940,6071,15.92,3.23,27,24,0,0
2.1416e+05,9.6478e+07,5,6076,6214,15.92,3.48,27,24,0,0
2.1461e+05,9.6585e+07,5,6200,5942,15.92,3.38,27,24,0,0
2.1502e+05,9.6691e+07,5,5942,5957,15.94,3.2,27,24,0,0
2.1547e+05,9.6802e+07,5,5951,5871,15.98,3.11,27,24,0,0
2.1592e+05,9.6916e+07,5,5892,6114,15.97,3.53,28,24,0,0
2.1638e+05,9.7028e+07,5,6110,6085,15.97,3.24,28,25,0,0
2.1678e+05,9.7131e+07,5,6071,5885,15.92,3.2,27,25,0,0
2.1768e+05,9.735e+07,5,5892,6100,15.91,3.22,27,25,0,0
2.1812e+05,9.746e+07,5,6098,6071,15.97,3.4,27,25,0,0
2.1857e+05,9.7564e+07,5,6068,6014,15.93,3.14,27,25,0,0
2.1898e+05,9.7669e+07,5,6007,5914,15.97,3.26,28,25,0,0
2.1943e+05,9.7776e+07,5,5913,5857,15.92,3.24,28,25,0,0
2.1987e+05,9.7887e+07,5,5859,5928,15.91,3.27,28,25,0,0
2.2036e+05,9.8003e+07,5,5946,6142,15.92,3.17,28,25,0,0
2.2077e+05,9.8107e+07,5,6130,5857,15.95,3.1,27,26,0,0
2.2125e+05,9.8217e+07,5,5847,5728,15.96,2.62,28,26,0,0
2.217e+05,9.8326e+07,5,5726,5700,15.98,2.66,28,26,0,0
2.2214e+05,9.8437e+07,5,5710,5814,15.95,3.01,28,26,0,0
2.2259e+05,9.8543e+07,5,5819,5942,15.92,3.07,28,26,0,0
2.2304e+05,9.8653e+07,5,5935,5871,15.88,3.29,27,26,0,0
2.2349e+05,9.8761e+07,5,5861,5742,15.98,3.02,27,26,0,0
2.2393e+05,9.8871e+07,5,5751,5885,15.86,3.24,28,26,0,0
2.2434e+05,9.8973e+07,5,5885,5900,15.91,3.12,28,26,0,0
2.2482e+05,9.9087e+07,5,5896,5814,15.95,2.92,28,26,0,0
2.2527e+05,9.9197e+07,5,5809,5757,15.97,3.26,28,26,0,0
2.2571e+05,9.9305e+07,5,5757,5771,15.95,2.95,28,27,0,0
2.262e+05,9.9428e+07,5,5784,5871,15.94,3.06,28,27,0,0
2.2709e+05,9.9642e+07,5,5868,5814,15.94,2.92,27,27,0,0
2.2753e+05,9.9752e+07,5,5810,5771,15.93,2.95,28,27,0,0
2.2798e+05,9.986e+07,5,5767,5714,15.88,2.86,28,27,0,0
2.2843e+05,9.9969e+07,5,5715,5728,15.94,2.89,27,27,0,0
2.2888e+05,1.0008e+08,5,5726,5714,15.95,3.27,28,27,0,0
2.2933e+05,1.0019e+08,5,5704,5628,15.85,3.01,28,27,0,0
2.2973e+05,1.0029e+08,5,5638,5857,15.95,3.39,28,27,0,0
2.3018e+05,1.004e+08,5,5850,5785,15.92,3.13,28,27,0,0
2.3059e+05,1.0051e+08,5,5784,5771,15.91,3.08,28,28,0,0
2.3112e+05,1.0063e+08,5,5778,5828,15.92,3.29,28,28,0,0
2.3152e+05,1.0073e+08,5,5833,5942,15.9,3.31,28,28,0,0
2.3196e+05,1.0084e+08,5,5938,5742,15.89,3.03,28,28,0,0
2.3242e+05,1.0095e+08,5,5729,5628,15.86,2.92,28,28,0,0
2.3286e+05,1.0106e+08,5,5625,5600,15.95,2.89,28,28,0,0
2.3327e+05,1.0116e+08,5,5597,5528,15.94,2.8,28,28,0,0
2.3375e+05,1.0128e+08,5,5538,5642,15.91,2.9,28,28,0,0
2.3416e+05,1.0138e+08,5,5645,5785,15.97,3.6,28,28,0,0
2.3506e+05,1.016e+08,5,5789,5885,15.98,3.12,28,28,0,0
2.355e+05,1.0171e+08,5,5880,5828,15.98,2.69,28,29,0,0
2.3595e+05,1.0182e+08,5,5828,5828,15.94,2.72,28,29,0,0
2.3635e+05,1.0192e+08,5,5828,5857,15.95,3.49,28,29,0,0
2.3684e+05,1.0203e+08,5,5854,5728,15.91,2.44,28,29,0,0
2.3729e+05,1.0214e+08,5,5724,5600,15.9,2.5,28,29,0,0
2.3777e+05,1.0226e+08,5,5608,5700,15.91,2.78,28,29,0,0
2.3822e+05,1.0237e+08,5,5692,5614,15.94,2.54,28,29,0,0
2.3866e+05,1.0248e+08,5,5621,5714,15.91,2.91,28,29,0,0
2.3911e+05,1.0258e+08,5,5709,5614,15.91,2.88,28,29,0,0
2.3955e+05,1.0269e+08,5,5622,5714,15.91,2.71,28,29,0,0
2.4085e+05,1.0301e+08,5,5713,5585,15.97,2.33,28,30,0,0
2.4134e+05,1.0312e+08,5,5578,5457,15.88,2.63,28,30,0,0
2.4178e+05,1.0324e+08,5,5462,5585,15.96,2.62,28,30,0,0
2.4219e+05,1.0334e+08,5,5587,5628,15.98,2.73,28,30,0,0
2.4264e+05,1.0345e+08,5,5615,5428,15.88,2.59,28,30,0,0
2.4308e+05,1.0355e+08,5,5429,5471,15.96,2.62,28,30,0,0
2.4353e+05,1.0367e+08,5,5472,5571,15.97,2.82,28,30,0,0
2.4402e+05,1.0378e+08,5,5577,5700,16,2.95,28,30,0,0
2.4487e+05,1.0399e+08,5,5699,5671,15.94,2.9,28,30,0,0
2.4533e+05,1.0411e+08,5,5674,5714,15.91,3.12,28,30,0,0
2.4566e+05,1.0421e+08,5,5714,5742,15.89,3.07,28,31,0,0
2.461e+05,1.0432e+08,5,5743,5885,15.92,3.3,28,31,0,0
2.4659e+05,1.0444e+08,5,5876,5785,15.88,3.25,28,31,0,0
2.47e+05,1.0454e+08,5,5782,5728,15.92,2.88,28,31,0,0
2.4748e+05,1.0465e+08,5,5723,5671,15.97,2.97,28,31,0,0
2.4788e+05,1.0476e+08,5,5671,5685,15.97,3.06,28,31,0,0
2.4833e+05,1.0486e+08,5,5686,5814,15.92,2.98,28,31,0,0
2.4882e+05,1.0498e+08,5,5802,5614,15.88,3,28,31,0,0
2.4927e+05,1.0509e+08,5,5614,5628,15.92,2.8,28,31,0,0
2.4972e+05,1.0519e+08,5,5630,5657,15.91,3.1,28,31,0,0
2.5015e+05,1.053e+08,5,5657,5671,15.97,3.02,28,31,0,0
2.506e+05,1.0541e+08,5,5673,5700,15.97,3.13,28,32,0,0
2.5101e+05,1.0552e+08,5,5699,5671,15.92,3.11,28,32,0,0
2.515e+05,1.0563e+08,5,5684,5814,15.9,3.23,28,32,0,0
2.519e+05,1.0573e+08,5,5803,5657,15.95,2.98,28,32,0,0
2.528e+05,1.0596e+08,5,5663,5800,15.89,2.97,28,32,0,0
2.5321e+05,1.0606e+08,5,5796,5571,15.94,2.81,28,32,0,0
2.5366e+05,1.0617e+08,5,5574,5742,15.92,2.92,28,32,0,0
2.5459e+05,1.0639e+08,5,5733,5571,15.79,3.08,28,32,0,0
2.5503e+05,1.065e+08,5,5574,5628,15.91,2.81,27,32,0,0
2.5548e+05,1.0661e+08,5,5616,5542,15.96,2.57,28,33,0,0
2.5592e+05,1.0671e+08,5,5548,5642,15.91,3.11,28,33,0,0
2.5637e+05,1.0682e+08,5,5640,5585,15.92,3.23,28,33,0,0
2.5681e+05,1.0693e+08,5,5591,5742,15.92,3.03,28,33,0,0
2.5726e+05,1.0704e+08,5,5742,5757,15.91,3.09,28,33,0,0
2.5771e+05,1.0715e+08,5,5749,5642,15.94,2.77,28,33,0,0
2.5815e+05,1.0726e+08,5,5651,5771,15.83,3.38,28,33,0,0
2.5864e+05,1.0738e+08,5,5775,5828,15.88,3.01,28,33,0,0
2.595e+05,1.0759e+08,5,5824,5742,15.92,3.32,28,33,0,0
2.5994e+05,1.077e+08,5,5754,5942,15.88,3.44,28,33,0,0
2.6039e+05,1.0781e+08,5,5947,6028,15.88,3.35,28,34,0,0
2.6083e+05,1.0793e+08,5,6022,5985,15.82,3.41,28,34,0,0
2.612e+05,1.0802e+08,5,5984,5971,15.87,3.02,28,34,0,0
2.6169e+05,1.0814e+08,5,5967,5914,15.87,3.45,28,34,0,0
2.6213e+05,1.0825e+08,5,5919,5971,15.86,3.18,28,34,0,0
2.6254e+05,1.0834e+08,5,5968,5914,15.89,3.55,28,34,0,0
2.6298e+05,1.0846e+08,5,5918,5985,15.8,3.44,28,34,0,0
2.6343e+05,1.0857e+08,5,5973,5885,15.88,3.4,28,34,0,0
2.6461e+05,1.089e+08,5,5886,6028,15.83,3.28,28,35,0,0
2.6506e+05,1.0901e+08,5,6029,6042,15.84,3.36,28,35,0,0
2.6554e+05,1.0912e+08,5,6043,6071,15.89,3.36,28,35,0,0
2.6594e+05,1.0923e+08,5,6071,6071,15.91,3.23,28,35,0,0
2.6639e+05,1.0933e+08,5,6044,5800,15.95,2.69,28,35,0,0
2.6683e+05,1.0944e+08,5,5765,5414,15.97,2.3,28,35,0,0
2.6724e+05,1.0954e+08,5,5411,5271,15.98,2.49,28,35,0,0
2.6769e+05,1.0965e+08,5,5280,5514,15.89,2.64,28,35,0,0
2.6813e+05,1.0976e+08,5,5516,5557,15.97,2.82,28,35,0,0
2.6854e+05,1.0987e+08,5,5554,5500,15.92,2.82,28,35,0,0
2.6902e+05,1.0998e+08,5,5502,5557,15.92,2.44,28,35,0,0
2.6944e+05,1.1008e+08,5,5552,5442,15.95,2.52,28,36,0,0
2.6988e+05,1.1019e+08,5,5444,5500,15.93,2.57,28,36,0,0
2.7082e+05,1.1042e+08,5,5492,5328,15.98,2.29,28,36,0,0
2.7127e+05,1.1054e+08,5,5313,5228,16,1.93,28,36,0,0
2.7167e+05,1.1063e+08,5,5223,5142,15.95,2.25,28,36,0,0
2.7212e+05,1.1074e+08,5,5145,5200,15.89,2.58,28,36,0,0
2.726e+05,1.1086e+08,5,5211,5328,16,2.84,28,36,0,0
2.7301e+05,1.1096e+08,5,5325,5171,15.94,2.19,28,36,0,0
2.7345e+05,1.1107e+08,5,5187,5500,15.95,3.24,28,36,0,0
2.7394e+05,1.1118e+08,5,5495,5442,15.96,2.87,28,36,0,0
2.7434e+05,1.1128e+08,5,5444,5571,15.93,3.03,28,36,0,0
2.7479e+05,1.1139e+08,5,5572,5657,15.98,2.9,28,36,0,0
2.7569e+05,1.1161e+08,5,5652,5557,15.87,2.89,28,37,0,0
2.7613e+05,1.1172e+08,5,5542,5400,15.79,3.16,28,37,0,0
2.7698e+05,1.1193e+08,5,5400,5414,15.97,2.63,28,37,0,0
2.7742e+05,1.1204e+08,5,5411,5357,15.95,2.46,28,37,0,0
2.7787e+05,1.1215e+08,5,5352,5300,15.85,2.61,28,37,0,0
2.7828e+05,1.1226e+08,5,5299,5285,15.94,2.54,28,37,0,0
2.7873e+05,1.1236e+08,5,5282,5242,15.97,2.32,28,37,0,0
2.7918e+05,1.1248e+08,5,5243,5271,15.91,2.96,28,37,0,0
2.7967e+05,1.1259e+08,5,5300,5614,15.85,3.06,28,37,0,0
2.8007e+05,1.1269e+08,5,5629,5828,15.83,3.18,28,37,0,0
2.8052e+05,1.128e+08,5,5826,5742,15.88,3.19,28,38,0,0
2.8141e+05,1.1302e+08,5,5742,5771,15.89,2.98,28,38,0,0
2.8185e+05,1.1313e+08,5,5771,5771,15.92,3.14,28,38,0,0
2.823e+05,1.1324e+08,5,5774,5871,15.91,3.37,28,38,0,0
2.8275e+05,1.1335e+08,5,5871,5885,15.88,3.15,28,38,0,0
2.832e+05,1.1346e+08,5,5883,5871,15.86,3.62,28,38,0,0
2.8365e+05,1.1357e+08,5,5872,5885,15.86,3.47,28,38,0,0
2.8405e+05,1.1367e+08,5,5899,6100,15.85,3.86,28,38,0,0
2.845e+05,1.1378e+08,5,6091,5985,15.86,3.48,28,39,0,0
2.8494e+05,1.1388e+08,5,5985,6028,15.88,3.54,28,39,0,0
2.8539e+05,1.1399e+08,5,6015,5842,15.86,3.32,28,39,0,0
2.8587e+05,1.1411e+08,5,5855,6000,15.9,3.45,28,39,0,0
2.8632e+05,1.1422e+08,5,5998,5971,15.76,3.49,28,39,0,0
2.8676e+05,1.1433e+08,5,5962,5842,15.85,3.03,28,39,0,0
2.8716e+05,1.1443e+08,5,5839,5742,15.87,3.08,28,39,0,0
2.8762e+05,1.1454e+08,5,5744,5814,15.86,3.3,28,39,0,0
2.8806e+05,1.1465e+08,5,5817,5914,15.85,3.31,28,39,0,0
2.8851e+05,1.1476e+08,5,5915,5942,15.77,3.39,28,39,0,0
2.8899e+05,1.1488e+08,5,5954,6057,15.83,4.1,28,40,0,0
2.894e+05,1.1497e+08,5,6068,6357,15.89,4.42,28,40,0,0
2.8981e+05,1.1508e+08,5,6356,6328,15.75,4.6,28,40,0,0
2.903e+05,1.152e+08,5,6348,6542,15.89,4.44,28,40,0,0
2.907e+05,1.153e+08,5,6540,6442,15.83,4.39,28,40,0,0
2.9119e+05,1.1542e+08,5,6420,6228,15.82,3.95,28,40,0,0
2.9164e+05,1.1552e+08,5,6220,6142,15.82,4.03,28,40,0,0
2.9212e+05,1.1564e+08,5,6134,6085,15.83,3.67,28,40,0,0
2.9257e+05,1.1575e+08,5,6068,5957,15.73,3.9,28,41,0,0
2.9294e+05,1.1585e+08,5,5996,6228,15.8,4.08,28,41,0,0
2.9339e+05,1.1596e+08,5,6214,6085,15.77,3.56,28,41,0,0
2.9388e+05,1.1607e+08,5,6065,5857,15.81,3.24,28,41,0,0
2.9433e+05,1.1619e+08,5,5834,5700,15.86,3.24,28,41,0,0
2.9473e+05,1.1629e+08,5,5717,5871,15.86,3.21,28,41,0,0
2.9518e+05,1.164e+08,5,5860,5771,15.88,3.13,28,41,0,0
2.9558e+05,1.165e+08,5,5776,5871,15.84,3.22,28,41,0,0
2.9608e+05,1.1662e+08,5,5864,5785,15.88,3.17,28,41,0,0
2.9732e+05,1.1693e+08,5,5785,5828,15.86,3.36,28,42,0,0
2.9826e+05,1.1715e+08,5,5826,5771,15.86,3.19,28,42,0,0
2.987e+05,1.1727e+08,5,5765,5714,15.9,3.26,28,42,0,0
3.0048e+05,1.177e+08,5,5716,5814,15.84,3.35,28,42,0,0
3.0093e+05,1.1781e+08,5,5823,5914,15.86,3.27,28,42,0,0
3.0182e+05,1.1802e+08,5,5909,5771,15.79,3.18,28,43,0,0
3.0222e+05,1.1812e+08,5,5774,5857,15.83,3.46,28,43,0,0
3.027e+05,1.1824e+08,5,5862,5985,15.83,3.54,28,43,0,0
3.0315e+05,1.1835e+08,5,5971,5842,15.8,3.39,28,43,0,0
3.0355e+05,1.1845e+08,5,5843,5928,15.82,3.38,28,43,0,0
3.0404e+05,1.1857e+08,5,5928,5928,15.84,3.5,28,43,0,0
3.0444e+05,1.1867e+08,5,5929,5985,15.85,3.64,28,43,0,0
3.0537e+05,1.1889e+08,5,5989,6085,15.82,3.82,28,43,0,0
3.0578e+05,1.1899e+08,5,6085,6100,15.89,3.64,28,44,0,0
3.0626e+05,1.1911e+08,5,6095,6014,15.85,3.53,28,44,0,0
3.0671e+05,1.1922e+08,5,6025,6128,15.81,3.65,28,44,0,0
3.0716e+05,1.1933e+08,5,6121,6057,15.82,3.69,28,44,0,0
3.0756e+05,1.1943e+08,5,6055,6000,15.83,3.56,28,44,0,0
3.0801e+05,1.1954e+08,5,6002,6057,15.89,3.69,28,44,0,0
3.0891e+05,1.1976e+08,5,6058,6085,15.8,3.93,28,44,0,0
3.0936e+05,1.1988e+08,5,6087,6114,15.88,3.71,28,45,0,0
3.0981e+05,1.1999e+08,5,6111,6085,15.84,3.65,28,45,0,0
3.1021e+05,1.2009e+08,5,6081,6014,15.8,3.55,28,45,0,0
3.1066e+05,1.202e+08,5,6014,6014,15.81,3.43,28,45,0,0
3.1111e+05,1.2031e+08,5,6013,6000,15.83,3.53,28,45,0,0
3.116e+05,1.2043e+08,5,6003,6042,15.88,3.73,28,45,0,0
3.1204e+05,1.2054e+08,5,6033,5942,15.8,3.61,28,45,0,0
3.1244e+05,1.2064e+08,5,5943,5985,15.9,3.37,28,45,0,0
3.129e+05,1.2075e+08,5,5980,5914,15.94,3.29,28,45,0,0
3.1335e+05,1.2086e+08,5,5909,5800,15.85,3.26,28,46,0,0
3.1384e+05,1.2098e+08,5,5795,5757,15.96,3.45,28,46,0,0
3.1469e+05,1.2119e+08,5,5760,5857,15.93,3.55,28,46,0,0
3.1517e+05,1.213e+08,5,5863,5942,15.88,3.67,28,46,0,0
3.1566e+05,1.2142e+08,5,5942,5942,15.85,3.44,28,46,0,0
3.1606e+05,1.2152e+08,5,5929,5814,15.79,3.26,28,46,0,0
3.1646e+05,1.2162e+08,5,5812,5785,15.87,2.95,28,46,0,0
3.1694e+05,1.2174e+08,5,5785,5785,15.81,2.82,28,46,0,0
3.1735e+05,1.2184e+08,5,5782,5642,15.81,2.83,28,46,0,0
3.1784e+05,1.2196e+08,5,5643,5657,15.89,2.83,28,46,0,0
3.1825e+05,1.2206e+08,5,5659,5700,15.88,3.17,28,47,0,0
3.187e+05,1.2217e+08,5,5691,5614,15.87,3.09,28,47,0,0
3.191e+05,1.2227e+08,5,5616,5771,15.91,3.14,28,47,0,0
3.1959e+05,1.2238e+08,5,5760,5657,15.84,3.21,28,47,0,0
3.2003e+05,1.225e+08,5,5661,5714,15.82,3.15,28,47,0,0
3.2048e+05,1.2261e+08,5,5719,5757,15.91,3.05,28,47,0,0
3.2133e+05,1.2281e+08,5,5757,5885,15.8,3.74,28,47,0,0
3.2181e+05,1.2293e+08,5,5885,5885,15.85,3.51,28,47,0,0
3.2267e+05,1.2315e+08,5,5889,5971,15.81,3.54,28,48,0,0
3.2311e+05,1.2325e+08,5,5971,5971,15.8,3.57,28,48,0,0
3.236e+05,1.2337e+08,5,5961,5842,15.8,3.35,28,48,0,0
3.24e+05,1.2347e+08,5,5849,5928,15.85,3.17,28,48,0,0
3.2445e+05,1.2358e+08,5,5920,5757,15.86,3.15,28,48,0,0
3.249e+05,1.2369e+08,5,5756,5742,15.84,3.04,28,48,0,0
3.2535e+05,1.238e+08,5,5740,5714,15.91,2.92,28,48,0,0
3.2576e+05,1.2391e+08,5,5714,5714,15.88,2.99,28,48,0,0
3.262e+05,1.2401e+08,5,5712,5600,15.92,2.83,28,48,0,0
3.2665e+05,1.2412e+08,5,5598,5557,15.81,2.75,28,48,0,0
3.271e+05,1.2424e+08,5,5562,5628,15.86,2.57,28,49,0,0
3.2754e+05,1.2434e+08,5,5622,5571,15.92,2.7,28,49,0,0
3.2794e+05,1.2444e+08,5,5569,5485,15.81,2.53,28,49,0,0
3.2839e+05,1.2455e+08,5,5482,5385,15.91,2.55,28,49,0,0
3.2924e+05,1.2477e+08,5,5385,5442,15.92,2.88,28,49,0,0
3.2972e+05,1.2488e+08,5,5453,5600,15.86,2.81,28,49,0,0
3.3022e+05,1.25e+08,5,5589,5485,15.89,2.69,28,49,0,0
3.3062e+05,1.251e+08,5,5487,5600,15.83,3.05,28,49,0,0
3.3156e+05,1.2533e+08,5,5596,5500,15.83,3.03,28,49,0,0
3.32e+05,1.2544e+08,5,5508,5600,15.88,2.76,28,49,0,0
3.3244e+05,1.2554e+08,5,5606,5742,15.89,3.01,28,50,0,0
3.3288e+05,1.2565e+08,5,5732,5600,15.82,3.11,28,50,0,0
3.3333e+05,1.2576e+08,5,5587,5414,15.9,2.65,28,50,0,0
3.3385e+05,1.2598e+08,5,5363,5428,15.85,2.67,28,50,0,0
3.3429e+05,1.2609e+08,5,5420,5342,15.94,2.48,28,50,0,0
3.3474e+05,1.262e+08,5,5335,5271,15.87,2.57,28,50,0,0
3.3518e+05,1.2631e+08,5,5276,5357,15.88,2.69,28,50,0,0
3.3563e+05,1.2641e+08,5,5364,5457,15.89,2.8,28,50,0,0
3.3604e+05,1.2652e+08,5,5463,5557,15.86,2.69,28,50,0,0
3.3693e+05,1.2674e+08,5,5555,5528,15.88,2.92,28,50,0,0
3.3737e+05,1.2685e+08,5,5524,5471,15.91,2.89,28,51,0,0
3.3782e+05,1.2696e+08,5,5470,5428,15.9,2.59,28,51,0,0
3.3827e+05,1.2707e+08,5,5429,5442,15.86,2.51,28,51,0,0
3.3872e+05,1.2718e+08,5,5422,5228,15.93,2.36,28,51,0,0
3.3912e+05,1.2728e+08,5,5236,5357,15.93,2.63,28,51,0,0
3.3953e+05,1.2738e+08,5,5354,5257,15.89,2.03,28,51,0,0
3.4002e+05,1.275e+08,5,5262,5314,15.94,2.59,28,51,0,0
3.4046e+05,1.2761e+08,5,5306,5185,15.93,2.59,28,51,0,0
3.4067e+05,1.2772e+08,5,5198,5328,15.91,2.54,28,51,0,0
3.4112e+05,1.2783e+08,5,5320,5257,15.89,2.43,28,51,0,0
3.4152e+05,1.2792e+08,5,5263,5400,15.86,2.71,28,51,0,0
3.4197e+05,1.2804e+08,5,5400,5400,15.86,2.78,28,51,0,0
3.4242e+05,1.2814e+08,5,5400,5414,15.83,2.65,28,51,0,0
3.4287e+05,1.2825e+08,5,5421,5500,15.84,2.9,28,52,0,0
3.4332e+05,1.2837e+08,5,5503,5542,15.9,2.69,28,52,0,0
3.4376e+05,1.2847e+08,5,5538,5500,15.88,2.82,28,52,0,0
3.4421e+05,1.2858e+08,5,5495,5457,15.83,2.92,28,52,0,0
3.4461e+05,1.2868e+08,5,5450,5328,15.88,2.43,28,52,0,0
3.4506e+05,1.288e+08,5,5327,5314,15.89,2.45,28,52,0,0
3.455e+05,1.289e+08,5,5319,5428,15.85,2.7,28,52,0,0
3.4595e+05,1.2902e+08,5,5425,5414,15.92,2.61,28,52,0,0
3.4636e+05,1.2911e+08,5,5424,5657,15.85,3.07,28,52,0,0
3.4681e+05,1.2922e+08,5,5654,5500,15.86,2.64,28,52,0,0
3.4725e+05,1.2933e+08,5,5498,5471,15.82,2.79,28,52,0,0
3.4773e+05,1.2945e+08,5,5487,5585,15.76,3.11,28,52,0,0
3.4814e+05,1.2955e+08,5,5596,5785,15.72,3.58,28,53,0,0
3.4859e+05,1.2966e+08,5,5784,5771,15.76,3.2,28,53,0,0
3.4903e+05,1.2977e+08,5,5774,5800,15.79,3.16,28,53,0,0
3.4943e+05,1.2988e+08,5,5819,5957,15.79,3.31,28,53,0,0
3.4984e+05,1.2998e+08,5,5950,5814,15.79,3.1,28,53,0,0
3.5028e+05,1.3009e+08,5,5812,5771,15.86,3.18,28,53,0,0
3.5077e+05,1.3022e+08,5,5760,5657,15.92,2.75,28,53,0,0
3.5118e+05,1.3031e+08,5,5649,5500,15.91,2.6,28,53,0,0
3.5167e+05,1.3043e+08,5,5471,5342,15.96,2.31,28,53,0,0
3.5207e+05,1.3053e+08,5,5343,5400,15.82,2.59,28,53,0,0
3.5251e+05,1.3064e+08,5,5397,5357,15.86,2.43,28,53,0,0
3.5296e+05,1.3075e+08,5,5355,5214,15.85,2.33,28,53,0,0
3.534e+05,1.3086e+08,5,5212,5142,15.93,2.19,28,54,0,0
3.5385e+05,1.3097e+08,5,5153,5300,15.88,2.4,28,54,0,0
3.543e+05,1.3108e+08,5,5297,5271,15.94,2.5,28,54,0,0
3.5475e+05,1.3119e+08,5,5299,5557,15.88,3.09,28,54,0,0
3.5511e+05,1.3128e+08,5,5556,5514,15.87,2.54,28,54,0,0
3.5556e+05,1.314e+08,5,5513,5471,15.97,2.32,28,54,0,0
3.5601e+05,1.3151e+08,5,5317,3928,16.51,0.16,28,54,0,0
3.5642e+05,1.3161e+08,5,3840,3228,16.09,0.7,28,54,0,0
3.5686e+05,1.3172e+08,5,3239,3328,16.2,1.12,28,54,0,0
3.5735e+05,1.3183e+08,5,3289,2800,16.27,0.12,28,54,0,0
3.5779e+05,1.3194e+08,5,2788,2628,16.29,0.28,28,54,0,0
3.5823e+05,1.3205e+08,5,2633,2685,16.25,0.49,28,54,0,0
3.5868e+05,1.3216e+08,5,2686,2714,16.26,0.38,28,54,0,0
3.5909e+05,1.3226e+08,5,2715,2728,16.28,0.44,28,54,0,0
3.5954e+05,1.3238e+08,5,2731,2771,16.29,0.41,28,54,0,0
3.5994e+05,1.3248e+08,5,2771,2771,16.29,0.41,28,54,0,0
3.6039e+05,1.3259e+08,5,2774,2800,16.3,0.41,28,54,0,0
3.6079e+05,1.3269e+08,5,2798,2757,16.3,0.4,28,54,0,0
3.6124e+05,1.328e+08,5,2760,2800,16.3,0.4,28,54,0,0
3.6169e+05,1.3292e+08,5,2798,2771,16.29,0.39,28,54,0,0
3.6209e+05,1.3301e+08,5,2771,2771,16.3,0.42,28,54,0,0
3.6254e+05,1.3312e+08,5,2772,2814,16.31,0.46,28,54,0,0
3.6388e+05,1.3345e+08,5,2815,2871,16.3,0.42,28,54,0,0
3.6433e+05,1.3355e+08,5,2853,2500,16.41,0.15,28,54,0,0
3.6477e+05,1.3366e+08,5,2434,1828,16.36,0,28,54,0,0
3.6522e+05,1.3377e+08,5,1793,1428,16.36,0.02,28,54,0,0
3.6562e+05,1.3387e+08,5,1425,1342,16.36,0.07,28,54,0,0
3.6612e+05,1.3399e+08,5,1340,1328,16.36,0.08,28,54,0,0
3.6652e+05,1.3409e+08,5,1328,1328,16.36,0.08,28,54,0,0
3.6698e+05,1.342e+08,5,1327,1314,16.37,0.09,28,54,0,0
3.6742e+05,1.3431e+08,5,1314,1314,16.37,0.09,28,54,0,0
3.6787e+05,1.3441e+08,5,1314,1314,16.38,0.09,28,54,0,0
3.6836e+05,1.3453e+08,5,1314,1314,16.37,0.09,28,54,0,0
3.6877e+05,1.3464e+08,5,1314,1328,16.38,0.08,28,54,0,0
3.6922e+05,1.3474e+08,5,1327,1314,16.38,0.08,28,54,0,0
3.6971e+05,1.3485e+08,5,1314,1314,16.38,0.09,28,54,0,0
3.7016e+05,1.3496e+08,5,1314,1328,16.38,0.09,28,54,0,0
3.706e+05,1.3507e+08,5,1327,1314,16.38,0.09,28,54,0,0
3.7108e+05,1.3518e+08,5,1314,1314,16.38,0.08,28,54,0,0
3.7153e+05,1.3529e+08,5,1314,1314,16.38,0.09,28,54,0,0
3.7198e+05,1.3539e+08,5,1314,1314,16.39,0.08,28,54,0,0
3.7242e+05,1.355e+08,5,1314,1328,16.39,0.09,28,54,0,0
3.7292e+05,1.3562e+08,5,1328,1328,16.39,0.09,28,54,0,0
3.7336e+05,1.3572e+08,5,1328,1328,16.39,0.09,28,54,0,0
3.7377e+05,1.3583e+08,5,1328,1328,16.4,0.09,28,54,0,0
3.7422e+05,1.3594e+08,5,1328,1328,16.39,0.09,28,54,0,0
3.7467e+05,1.3605e+08,5,1328,1328,16.4,0.09,27,54,0,0
3.7552e+05,1.3626e+08,5,1328,1328,16.39,0.09,28,54,0,0
3.7598e+05,1.3637e+08,5,1328,1328,16.39,0.09,27,54,0,0
3.7642e+05,1.3648e+08,5,1326,1314,16.38,0.09,27,54,0,0
3.7687e+05,1.3658e+08,5,1315,1328,16.4,0.09,28,54,0,0
3.7731e+05,1.3669e+08,5,1328,1328,16.4,0.09,28,54,0,0
3.7772e+05,1.3679e+08,5,1328,1328,16.41,0.09,28,54,0,0
3.7821e+05,1.3691e+08,5,1328,1328,16.41,0.09,27,54,0,0
3.7862e+05,1.3701e+08,5,1328,1328,16.41,0.09,28,54,0,0
3.791e+05,1.3712e+08,5,1328,1328,16.41,0.09,27,54,0,0
3.7954e+05,1.3723e+08,5,1328,1328,16.41,0.09,27,54,0,0
3.7995e+05,1.3733e+08,5,1328,1328,16.41,0.09,27,54,0,0
3.8044e+05,1.3745e+08,5,1326,1314,16.41,0.09,27,54,0,0
3.8178e+05,1.3777e+08,5,1314,1328,16.42,0.09,27,54,0,0
3.8226e+05,1.3788e+08,5,1328,1328,16.42,0.08,27,54,0,0
3.827e+05,1.3798e+08,5,1328,1328,16.42,0.09,27,54,0,0
3.836e+05,1.382e+08,5,1328,1328,16.42,0.09,27,54,0,0
3.8405e+05,1.3831e+08,5,1328,1328,16.42,0.08,27,54,0,0
3.845e+05,1.3842e+08,5,1328,1328,16.42,0.08,27,54,0,0
3.8495e+05,1.3852e+08,5,1328,1328,16.43,0.08,27,54,0,0
3.8535e+05,1.3862e+08,5,1328,1328,16.43,0.09,27,54,0,0
3.8584e+05,1.3874e+08,5,1328,1328,16.43,0.09,27,54,0,0
3.8624e+05,1.3884e+08,5,1328,1328,16.43,0.09,27,54,0,0
3.8669e+05,1.3894e+08,5,1328,1328,16.42,0.09,27,54,0,0
3.8718e+05,1.3906e+08,5,1328,1328,16.43,0.09,27,54,0,0
3.8763e+05,1.3917e+08,5,1328,1328,16.44,0.09,27,54,0,0
3.8803e+05,1.3927e+08,5,1328,1342,16.43,0.08,27,54,0,0
3.8848e+05,1.3937e+08,5,1341,1328,16.44,0.08,27,54,0,0
3.8892e+05,1.3948e+08,5,1328,1342,16.44,0.08,27,54,0,0
3.8942e+05,1.396e+08,5,1340,1328,16.44,0.08,27,54,0,0
3.8982e+05,1.397e+08,5,1328,1328,16.44,0.08,27,54,0,0
3.9027e+05,1.3981e+08,5,1328,1328,16.44,0.08,27,54,0,0
3.9071e+05,1.3992e+08,5,1328,1328,16.43,0.08,27,54,0,0
3.9164e+05,1.4013e+08,5,1319,942,16.46,0.03,27,54,0,0
3.9304e+05,1.4046e+08,5,923,0,16.45,0.02,27,54,0,0
3.9349e+05,1.4057e+08,5,0,0,16.47,0.01,27,54,0,0
3.9394e+05,1.4068e+08,5,0,0,16.47,0.01,27,54,0,0
3.9444e+05,1.4079e+08,5,0,0,16.46,0.01,27,54,0,0
3.9485e+05,1.4089e+08,5,0,0,16.46,0.01,27,54,0,0
3.9535e+05,1.4101e+08,5,0,0,16.47,0.01,27,54,0,0
3.9576e+05,1.4111e+08,5,0,0,16.46,0.01,27,54,0,0
3.9625e+05,1.4122e+08,5,0,0,16.47,0.01,27,54,0,0
3.9675e+05,1.4134e+08,5,0,0,16.46,0.01,27,54,0,0
3.972e+05,1.4145e+08,5,0,0,16.47,0.01,27,54,0,0
3.9765e+05,1.4155e+08,5,0,0,16.47,0.01,27,54,0,0
3.981e+05,1.4166e+08,5,0,0,16.47,0.01,27,54,0,0
3.9855e+05,1.4177e+08,5,0,0,16.47,0.01,27,54,0,0
3.99e+05,1.4188e+08,5,0,0,16.47,0.01,27,54,0,0
3.9946e+05,1.4199e+08,5,0,0,16.47,0.02,27,54,0,0
3.9995e+05,1.421e+08,5,0,0,16.47,0.01,27,54,0,0
4.004e+05,1.422e+08,5,0,0,16.47,0.01,27,54,0,0
4.0086e+05,1.4232e+08,5,0,0,16.47,0.01,27,54,0,0
4.0131e+05,1.4242e+08,5,0,0,16.47,0.01,27,54,0,0
4.0181e+05,1.4254e+08,5,0,0,16.48,0.01,27,54,0,0
4.0226e+05,1.4265e+08,5,0,0,16.48,0.02,27,54,0,0
4.0271e+05,1.4275e+08,5,0,0,16.48,0.01,27,54,0,0
4.0316e+05,1.4286e+08,5,0,0,16.48,0.01,27,54,0,0
4.0361e+05,1.4296e+08,5,0,0,16.48,0.01,27,54,0,0
4.0407e+05,1.4308e+08,5,0,0,16.48,0.02,27,54,0,0
4.0456e+05,1.4319e+08,5,0,0,16.48,0.02,27,54,0,0
4.0502e+05,1.433e+08,5,0,0,16.48,0.02,27,54,0,0
4.0547e+05,1.434e+08,5,0,0,16.48,0.01,27,54,0,0
4.0592e+05,1.4351e+08,5,0,0,16.48,0.02,27,54,0,0
4.0637e+05,1.4362e+08,5,0,0,16.48,0.02,27,54,0,0
4.0687e+05,1.4373e+08,5,0,0,16.48,0.02,27,54,0,0
4.0732e+05,1.4384e+08,5,0,0,16.48,0.02,27,54,0,0
4.0777e+05,1.4395e+08,5,0,0,16.48,0.02,27,54,0,0
4.0822e+05,1.4405e+08,5,0,0,16.48,0.02,27,54,0,0
4.0872e+05,1.4417e+08,5,0,0,16.49,0.02,27,54,0,0
4.0913e+05,1.4427e+08,5,0,0,16.48,0.02,27,54,0,0
