LineNo,TimeUS,Instance,RPM,RawRPM,Volt,Curr,Temp,CTot,MotTemp,Err
1817,45422991,2,0,0,16.57,0.04,26,0,0,0
2274,45536797,2,0,0,16.57,0.04,27,0,0,0
2691,45639413,2,0,0,16.57,0.03,26,0,0,0
3105,45743950,2,0,0,16.57,0.04,27,0,0,0
3560,45856894,2,0,0,16.56,0.03,27,0,0,0
3975,45958612,2,0,0,16.57,0.04,27,0,0,0
4434,46069917,2,0,0,16.57,0.03,26,0,0,0
4847,46173465,2,0,0,16.57,0.03,27,0,0,0
5265,46277555,2,0,0,16.58,0.03,27,0,0,0
5719,46390469,2,0,0,16.56,0.03,27,0,0,0
6134,46494260,2,0,0,16.56,0.03,27,0,0,0
6589,46606440,2,0,0,16.57,0.03,27,0,0,0
6999,46706988,2,0,0,16.57,0.03,27,0,0,0
7452,46819528,2,0,0,16.57,0.03,27,0,0,0
7867,46920724,2,0,0,16.57,0.04,27,0,0,0
8324,47034582,2,0,0,16.57,0.03,27,0,0,0
8735,47135927,2,0,0,16.57,0.04,27,0,0,0
9189,47248700,2,0,0,16.57,0.04,27,0,0,0
9460,47341587,2,0,0,16.57,0.03,27,0,0,0
9916,47454710,2,0,0,16.56,0.03,27,0,0,0
10331,47555660,2,0,0,16.57,0.03,27,0,0,0
11170,47769013,2,0,0,16.57,0.03,27,0,0,0
11586,47873012,2,0,0,16.57,0.03,27,0,0,0
11997,47973654,2,0,0,16.57,0.03,27,0,0,0
12450,48083013,2,0,0,16.57,0.04,27,0,0,0
12904,48193465,2,0,0,16.57,0.04,27,0,0,0
13278,48291196,2,0,0,16.57,0.04,27,0,0,0
13732,48403577,2,0,0,16.57,0.04,27,0,0,0
14186,48515557,2,0,0,16.56,0.03,27,0,0,0
14605,48616665,2,0,0,16.57,0.04,27,0,0,0
15008,48718213,2,0,0,16.57,0.04,27,0,0,0
15460,48832933,2,0,0,16.57,0.04,27,0,0,0
15875,48933893,2,0,0,16.57,0.04,27,0,0,0
16332,49050125,2,0,0,16.57,0.04,27,0,0,0
16745,49150935,2,0,0,16.56,0.04,27,0,0,0
17157,49255116,2,0,0,16.57,0.03,27,0,0,0
17610,49365172,2,0,0,16.56,0.03,27,0,0,0
18022,49468743,2,0,0,16.56,0.03,27,0,0,0
18478,49579583,2,0,0,16.56,0.03,27,0,0,0
18888,49683389,2,0,0,16.57,0.03,27,0,0,0
19302,49784516,2,0,0,16.56,0.03,27,0,0,0
19716,49891030,2,0,0,16.56,0.03,27,0,0,0
20170,50002426,2,0,0,16.57,0.03,27,0,0,0
20584,50104597,2,0,0,16.57,0.03,27,0,0,0
21035,50216706,2,0,0,16.57,0.04,27,0,0,0
21450,50322882,2,0,0,16.57,0.04,27,0,0,0
21862,50429528,2,0,0,16.56,0.04,27,0,0,0
22277,50530667,2,0,0,16.56,0.04,27,0,0,0
22732,50642590,2,0,0,16.56,0.03,27,0,0,0
23144,50744711,2,0,0,16.57,0.04,27,0,0,0
23560,50849006,2,0,0,16.57,0.03,27,0,0,0
24015,50960890,2,0,0,16.57,0.04,27,0,0,0
24430,51064581,2,0,0,16.57,0.03,27,0,0,0
24883,51174679,2,0,0,16.57,0.03,27,0,0,0
25293,51276701,2,0,0,16.57,0.03,27,0,0,0
25746,51386489,2,0,0,16.57,0.03,27,0,0,0
26154,51489332,2,0,0,16.57,0.03,27,0,0,0
26613,51608608,2,0,0,16.56,0.03,27,0,0,0
27026,51709027,2,0,0,16.57,0.03,27,0,0,0
27434,51811543,2,0,0,16.57,0.03,27,0,0,0
27889,51922802,2,0,0,16.57,0.03,27,0,0,0
29161,52242574,2,0,0,16.57,0.03,27,0,0,0
29577,52344723,2,0,0,16.57,0.03,27,0,0,0
29989,52450158,2,0,0,16.57,0.03,27,0,0,0
30450,52561422,2,0,0,16.55,0.03,27,0,0,0
30884,52666301,2,0,0,16.56,0.03,27,0,0,0
31382,52777663,2,0,0,16.56,0.03,27,0,0,0
31836,52882362,2,0,0,16.57,0.03,27,0,0,0
32289,52983040,2,0,0,16.57,0.03,27,0,0,0
32748,53092409,2,0,0,16.57,0.03,27,0,0,0
33245,53204973,2,0,0,16.57,0.03,27,0,0,0
33694,53307670,2,0,0,16.57,0.03,27,0,0,0
34142,53412338,2,0,0,16.57,0.04,27,0,0,0
34639,53523673,2,0,0,16.57,0.03,27,0,0,0
35587,53741621,2,0,0,16.56,0.03,27,0,0,0
36036,53842365,2,0,0,16.57,0.03,27,0,0,0
36535,53954092,2,0,0,16.56,0.03,27,0,0,0
37024,54060585,2,0,0,16.56,0.03,27,0,0,0
37479,54163529,2,0,0,16.57,0.03,27,0,0,0
37931,54267529,2,0,0,16.57,0.03,27,0,0,0
38426,54378105,2,0,0,16.57,0.04,27,0,0,0
38881,54482564,2,0,0,16.57,0.03,27,0,0,0
39377,54595573,2,15,171,16.55,0.04,27,0,0,0
39826,54699545,2,197,571,16.56,0.09,27,0,0,0
40325,54816403,2,608,1014,16.54,0.15,27,0,0,0
40677,54917167,2,1032,1228,16.55,0.12,27,0,0,0
41128,55021523,2,1234,1300,16.55,0.11,27,0,0,0
41586,55125507,2,1301,1328,16.55,0.11,27,0,0,0
42046,55236106,2,1329,1342,16.55,0.11,27,0,0,0
42499,55336478,2,1342,1357,16.54,0.09999999,27,0,0,0
42994,55449544,2,1356,1342,16.55,0.11,27,0,0,0
43449,55553327,2,1342,1357,16.55,0.09999999,27,0,0,0
43904,55658805,2,1357,1357,16.55,0.11,27,0,0,0
44401,55769580,2,1357,1357,16.54,0.09999999,27,0,0,0
44857,55873761,2,1357,1357,16.54,0.09999999,27,0,0,0
45312,55975540,2,1357,1357,16.55,0.09999999,27,0,0,0
45808,56088691,2,1357,1357,16.54,0.09999999,27,0,0,0
46264,56189287,2,1357,1357,16.55,0.09999999,27,0,0,0
46715,56292949,2,1357,1357,16.55,0.09999999,27,0,0,0
47215,56404109,2,1357,1357,16.55,0.11,27,0,0,0
47667,56508575,2,1357,1357,16.55,0.09999999,27,0,0,0
48122,56616886,2,1357,1371,16.54,0.09999999,27,0,0,0
48576,56718432,2,1371,1371,16.55,0.09999999,27,0,0,0
49069,56831422,2,1371,1371,16.54,0.09999999,27,0,0,0
49569,56941468,2,1369,1357,16.55,0.11,27,0,0,0
50025,57047967,2,1357,1357,16.55,0.11,27,0,0,0
50484,57151053,2,1357,1357,16.55,0.11,27,0,0,0
50933,57255472,2,1357,1357,16.55,0.11,27,0,0,0
51431,57365900,2,1358,1371,16.55,0.11,27,0,0,0
51881,57470496,2,1371,1371,16.55,0.09999999,27,0,0,0
52333,57575471,2,1371,1371,16.55,0.09999999,27,0,0,0
52832,57690009,2,1371,1371,16.55,0.11,27,0,0,0
53772,57901677,2,1371,1371,16.54,0.09999999,27,0,0,0
54227,58002560,2,1371,1371,16.55,0.09999999,27,0,0,0
54684,58113123,2,1370,1357,16.54,0.09999999,27,0,0,0
55142,58217461,2,1357,1357,16.55,0.11,27,0,0,0
55635,58329508,2,1357,1357,16.54,0.11,27,0,0,0
56091,58437329,2,1357,1357,16.55,0.11,27,0,0,0
56538,58539035,2,1357,1357,16.55,0.11,27,0,0,0
56989,58644607,2,1357,1357,16.54,0.11,27,0,0,0
57488,58756444,2,1357,1357,16.55,0.09999999,27,0,0,0
58396,58966764,2,1357,1357,16.55,0.09999999,27,0,0,0
58851,59076644,2,1357,1357,16.54,0.09999999,27,0,0,0
59315,59182468,2,1357,1371,16.55,0.09999999,27,0,0,0
59764,59286182,2,1370,1357,16.54,0.09999999,27,0,0,0
60259,59397007,2,1355,1342,16.55,0.09999999,27,0,0,0
60710,59500563,2,1342,1357,16.55,0.09999999,27,0,0,0
61163,59600927,2,1357,1357,16.55,0.09999999,27,0,0,0
61622,59710383,2,1357,1357,16.54,0.09999999,27,0,0,0
62115,59822599,2,1357,1357,16.55,0.09999999,27,0,0,0
62536,59923628,2,1357,1357,16.55,0.11,27,0,0,0
63033,60038375,2,1357,1357,16.55,0.09999999,27,0,0,0
63483,60139144,2,1357,1357,16.55,0.11,27,0,0,0
63939,60246868,2,1357,1357,16.54,0.11,27,0,0,0
64439,60359630,2,1357,1357,16.55,0.11,27,0,0,0
64852,60456801,2,1357,1357,16.54,0.11,27,0,0,0
65349,60568590,2,1357,1357,16.54,0.11,27,0,0,0
65839,60679270,2,1357,1357,16.54,0.09999999,27,0,0,0
66292,60780934,2,1357,1357,16.55,0.11,27,0,0,0
66791,60894657,2,1358,1371,16.55,0.11,27,0,0,0
67249,60997386,2,1370,1357,16.54,0.09999999,27,0,0,0
67703,61105151,2,1357,1357,16.54,0.09999999,27,0,0,0
68155,61205635,2,1357,1357,16.55,0.11,27,0,0,0
68649,61314979,2,1357,1357,16.55,0.11,27,0,0,0
69150,61429357,2,1355,1342,16.54,0.11,27,0,0,0
69602,61529969,2,1343,1357,16.54,0.11,27,0,0,0
70048,61631722,2,1357,1357,16.55,0.11,27,0,0,0
70547,61743347,2,1357,1357,16.54,0.11,27,0,0,0
70999,61848923,2,1357,1357,16.55,0.11,27,0,0,0
71493,61955878,2,1357,1357,16.54,0.11,27,0,0,0
71945,62063019,2,1357,1357,16.54,0.09999999,27,0,0,0
72400,62168608,2,1357,1371,16.54,0.09999999,27,0,0,0
72857,62276363,2,1370,1357,16.55,0.09999999,27,0,0,0
73356,62389321,2,1357,1357,16.54,0.09999999,27,0,0,0
73802,62494647,2,1346,1128,16.56,0.04,27,0,0,0
74280,62610543,2,1055,328,16.57,0.01,27,0,0,0
74691,62710401,2,322,0,16.56,0.02,27,0,0,0
75146,62820141,2,0,0,16.56,0.03,27,0,0,0
75601,62926146,2,0,0,16.56,0.03,27,0,0,0
76092,63038713,2,0,0,16.56,0.03,27,0,0,0
76545,63142188,2,0,0,16.55,0.03,27,0,0,0
76999,63252894,2,0,0,16.55,0.04,27,0,0,0
77499,63367678,2,0,0,16.56,0.03,27,0,0,0
77908,63466485,2,0,0,16.55,0.04,27,0,0,0
78855,63689364,2,0,0,16.56,0.03,27,0,0,0
79352,63802711,2,0,0,16.56,0.03,27,0,0,0
79811,63912597,2,0,0,16.56,0.04,27,0,0,0
80762,64135698,2,0,0,16.56,0.03,27,0,0,0
81218,64248422,2,0,0,16.56,0.03,27,0,0,0
81672,64354601,2,0,0,16.55,0.03,27,0,0,0
82576,64567659,2,0,0,16.56,0.03,27,0,0,0
83066,64681438,2,0,0,16.56,0.03,27,0,0,0
83519,64785145,2,0,0,16.56,0.03,27,0,0,0
83978,64898338,2,0,0,16.56,0.03,27,0,0,0
84429,65000419,2,0,0,16.55,0.03,27,0,0,0
84881,65108321,2,0,0,16.55,0.03,27,0,0,0
85828,65327492,2,0,0,16.56,0.03,27,0,0,0
86326,65444597,2,0,0,16.56,0.04,27,0,0,0
87725,65773654,2,0,0,16.56,0.04,27,0,0,0
88176,65880542,2,0,0,16.55,0.03,27,0,0,0
88631,65984360,2,0,0,16.56,0.03,27,0,0,0
89085,66093083,2,0,0,16.56,0.03,27,0,0,0
89538,66198431,2,0,0,16.56,0.03,27,0,0,0
90025,66313686,2,0,0,16.55,0.04,27,0,0,0
90522,66431299,2,0,0,16.56,0.03,27,0,0,0
90984,66539113,2,0,0,16.56,0.04,27,0,0,0
91436,66644533,2,0,0,16.56,0.04,27,0,0,0
91891,66748685,2,0,0,16.56,0.04,27,0,0,0
92349,66853807,2,0,0,16.55,0.03,27,0,0,0
92810,66961789,2,0,0,16.56,0.04,27,0,0,0
93264,67071107,2,0,0,16.56,0.03,27,0,0,0
93760,67183431,2,0,0,16.56,0.03,27,0,0,0
94211,67289897,2,0,0,16.56,0.03,27,0,0,0
94667,67393447,2,0,0,16.56,0.04,27,0,0,0
95159,67506234,2,0,0,16.56,0.04,27,0,0,0
95618,67610380,2,0,0,16.56,0.03,27,0,0,0
96064,67715142,2,0,0,16.56,0.03,27,0,0,0
96520,67824041,2,0,0,16.56,0.03,27,0,0,0
96975,67925532,2,0,0,16.55,0.03,27,0,0,0
97961,68151886,2,0,0,16.56,0.03,27,0,0,0
98866,68360886,2,0,0,16.56,0.04,27,0,0,0
99318,68469931,2,0,0,16.56,0.03,27,0,0,0
99816,68583484,2,13,214,16.55,0.04,27,0,0,0
100268,68688625,2,239,628,16.54,0.09,27,0,0,0
100763,68803888,2,663,1042,16.53,0.16,27,0,0,0
101218,68908491,2,1055,1242,16.54,0.12,27,0,0,0
101679,69017801,2,1247,1300,16.54,0.11,27,0,0,0
102130,69120475,2,1300,1314,16.54,0.11,27,0,0,0
102584,69228667,2,1316,1342,16.55,0.11,27,0,0,0
103039,69332445,2,1342,1357,16.54,0.11,27,0,0,0
103497,69441608,2,1356,1342,16.54,0.12,27,0,0,0
103991,69553190,2,1362,1585,16.51,0.26,27,0,0,0
104407,69656608,2,1594,2185,16.47,0.71,27,0,0,0
104674,69767596,2,2207,2442,16.48,0.42,27,0,0,0
105129,69876650,2,2438,2400,16.48,0.39,27,0,0,0
105582,69979486,2,2403,2485,16.47,0.4,27,0,0,0
106039,70090680,2,2486,2514,16.5,0.32,27,0,0,0
106492,70195681,2,2514,2571,16.51,0.54,27,0,0,0
106943,70304975,2,2586,2885,16.35,0.79,27,0,0,0
107443,70424621,2,2931,3600,16.32,1.58,27,0,0,0
107896,70532454,2,3660,4242,16.24,2.13,27,0,0,0
108347,70639625,2,4282,4857,16.14,2.53,27,0,0,0
108799,70745705,2,4906,5342,16.05,3.34,28,0,0,0
109219,70848619,2,5358,5771,15.94,4.25,28,1,0,0
109673,70954481,2,5785,6157,16.04,3.88,27,1,0,0
110122,71062010,2,6156,6100,16.1,3.51,28,1,0,0
110659,71186407,2,6091,6000,16.13,3.19,28,1,0,0
111069,71286946,2,6000,6028,16.03,3.56,28,1,0,0
111526,71393802,2,6040,6200,16,4.07,28,1,0,0
111975,71502395,2,6201,6271,16.09,3.86,28,1,0,0
112475,71616389,2,6266,6214,16.07,3.99,28,1,0,0
112930,71727620,2,6222,6314,16.04,4.7,28,2,0,0
113339,71828142,2,6317,6514,16,4.82,28,2,0,0
114274,72045688,2,6512,6442,15.95,4.32,28,2,0,0
114771,72160785,2,6433,6314,16.01,4.22,28,2,0,0
115228,72270710,2,6304,6214,16.02,3.73,28,2,0,0
115681,72374893,2,6211,6028,16.02,3.64,28,2,0,0
116132,72483541,2,6028,6042,16.06,3.62,28,2,0,0
116586,72590581,2,6041,6014,16.02,3.46,28,3,0,0
117081,72707883,2,6022,6114,16.04,3.62,28,3,0,0
117536,72815281,2,6099,5971,16.02,3.52,28,3,0,0
117987,72921795,2,5973,6000,16.04,3.66,28,3,0,0
118437,73029700,2,5990,5900,16.05,3.48,28,3,0,0
118889,73133373,2,5900,5914,15.94,3.38,28,3,0,0
119346,73249944,2,5914,5914,16,3.57,28,3,0,0
119802,73355874,2,5931,6100,15.96,3.57,28,3,0,0
120253,73466030,2,6089,5985,15.95,3.43,28,3,0,0
120709,73572376,2,5980,5914,15.93,3.49,28,4,0,0
121622,73790636,2,5921,6071,15.97,3.81,28,4,0,0
122076,73899885,2,6076,6128,15.98,3.94,28,4,0,0
122530,74008036,2,6122,6057,15.96,4.13,28,4,0,0
122981,74118620,2,6065,6157,15.88,4.27,28,4,0,0
123396,74225154,2,6159,6342,15.89,4.15,28,4,0,0
123853,74333161,2,6331,6214,15.93,3.89,28,4,0,0
124335,74449482,2,6225,6314,15.98,4.07,29,5,0,0
125186,74658744,2,6310,6242,15.83,4.72,29,5,0,0
125637,74766905,2,6257,6642,15.86,5.28,28,5,0,0
126041,74867697,2,6639,6500,15.87,4.81,29,5,0,0
126493,74977651,2,6501,6628,15.88,4.78,29,5,0,0
126976,75092477,2,6613,6471,15.91,4.44,29,5,0,0
127384,75193498,2,6471,6500,15.94,4.27,29,5,0,0
127876,75314615,2,6469,6157,16.01,3.86,29,6,0,0
128767,75532432,2,6147,5857,16.03,3.11,29,6,0,0
129653,75749104,2,5848,5500,16.11,2.56,29,6,0,0
130111,75863031,2,5502,5542,16.05,2.87,29,6,0,0
130568,75973501,2,5534,5471,16.04,2.51,29,6,0,0
131010,76082454,2,5464,5371,15.97,2.6,29,6,0,0
131458,76189303,2,5395,5628,15.99,3.11,29,6,0,0
131894,76292966,2,5629,5671,16,3.06,29,6,0,0
132787,76514190,2,5672,5857,16,3.09,29,7,0,0
133273,76633156,2,5866,5942,15.95,3.26,29,7,0,0
133721,76739905,2,5948,6042,15.92,3.25,29,7,0,0
134130,76842516,2,6039,5885,15.89,3.16,29,7,0,0
134631,76961582,2,5880,5842,15.94,3.35,29,7,0,0
135071,77069338,2,5845,5942,15.88,3.31,29,7,0,0
135514,77176478,2,5942,5942,16,2.87,29,7,0,0
135926,77284644,2,5940,5857,15.95,3.26,29,7,0,0
136414,77401156,2,5854,5828,16,3.05,29,7,0,0
136856,77508668,2,5844,6014,15.98,3.28,29,7,0,0
137260,77610788,2,6011,5842,16.06,2.81,29,8,0,0
137706,77717378,2,5838,5657,16,2.69,29,8,0,0
138198,77837511,2,5673,5800,16,3.01,29,8,0,0
139057,78052418,2,5800,5814,15.92,2.96,29,8,0,0
139509,78163146,2,5821,5900,15.98,3.12,29,8,0,0
139913,78264478,2,5899,5885,15.94,2.97,29,8,0,0
140365,78376670,2,5883,5857,16.01,3.34,29,8,0,0
140810,78486455,2,5864,6057,15.92,3.36,29,8,0,0
141296,78600267,2,6050,5985,15.92,3.38,29,8,0,0
141739,78710249,2,5988,6028,15.94,3.25,29,9,0,0
142143,78812542,2,6030,6142,15.97,3.46,29,9,0,0
142598,78924416,2,6128,5957,15.87,3.33,29,9,0,0
143044,79035687,2,5968,6114,15.94,3.28,29,9,0,0
143495,79143787,2,6108,6028,15.95,3.41,29,9,0,0
144350,79355639,2,6030,6142,15.89,3.46,30,9,0,0
144798,79464885,2,6136,6057,15.96,3.22,29,9,0,0
145250,79576905,2,6053,6014,15.97,3.33,29,9,0,0
145657,79679680,2,6012,5914,15.86,3.48,30,9,0,0
146147,79798581,2,5916,5942,15.89,3.12,29,10,0,0
146552,79897566,2,5950,6114,15.92,3.62,30,10,0,0
147043,80019369,2,6128,6257,15.89,3.94,29,10,0,0
147448,80118091,2,6264,6357,15.88,3.55,30,10,0,0
147897,80229401,2,6354,6200,15.97,3.49,30,10,0,0
148341,80336553,2,6196,6128,15.86,3.87,30,10,0,0
148786,80447796,2,6123,5928,15.87,3.32,30,10,0,0
149231,80557426,2,5950,6328,15.87,4.22,30,10,0,0
150123,80775019,2,6330,6400,15.83,3.99,30,11,0,0
150574,80889505,2,6386,6242,15.9,3.28,30,11,0,0
151019,80996039,2,6233,6142,15.86,3.38,30,11,0,0
151427,81096314,2,6142,6171,15.81,3.65,30,11,0,0
152319,81313558,2,6169,6100,15.92,3.34,30,11,0,0
152767,81418628,2,6100,6171,15.9,3.11,30,11,0,0
153213,81531890,2,6167,6071,15.87,2.71,30,11,0,0
153655,81639504,2,6063,5914,15.9,3.09,30,11,0,0
154110,81746384,2,5915,6000,15.88,3.02,30,11,0,0
154515,81853482,2,5991,5800,15.95,2.69,30,12,0,0
155445,82072203,2,5801,5871,15.85,3.25,30,12,0,0
155854,82177266,2,5877,6028,15.93,3.32,30,12,0,0
156337,82291155,2,6028,6028,15.89,3.47,30,12,0,0
157198,82506627,2,6029,6057,15.82,3.53,30,12,0,0
158087,82720889,2,6057,6057,15.83,3.4,30,12,0,0
158498,82828289,2,6055,5957,15.83,3.35,30,12,0,0
158988,82942487,2,5960,5985,15.83,3.35,30,13,0,0
159391,83045700,2,5986,6014,15.8,3.48,30,13,0,0
159872,83156618,2,6015,6057,15.86,3.95,30,13,0,0
160284,83262941,2,6059,6242,15.8,4.07,30,13,0,0
160735,83372997,2,6235,6100,15.79,3.59,30,13,0,0
161180,83483586,2,6093,5942,15.89,3.15,30,13,0,0
161626,83591378,2,5942,5957,15.94,2.86,30,13,0,0
162076,83701359,2,5950,5814,15.91,2.62,30,13,0,0
162530,83811839,2,5808,5700,15.87,2.29,30,13,0,0
162933,83912379,2,5699,5685,15.92,2.44,30,13,0,0
163377,84021531,2,5684,5628,15.91,2.7,30,14,0,0
164317,84250527,2,5631,5700,15.85,3.29,30,14,0,0
164725,84349920,2,5702,5900,15.82,3.43,30,14,0,0
165169,84459159,2,5901,5985,15.86,3.57,30,14,0,0
165656,84571047,2,5992,6100,15.83,3.41,30,14,0,0
166097,84676279,2,6096,6028,15.88,3.62,30,14,0,0
166552,84790109,2,6031,6128,15.89,3.62,30,14,0,0
166992,84897575,2,6131,6314,15.85,3.85,30,14,0,0
167884,85114487,2,6313,6300,15.85,3.72,30,15,0,0
168329,85221942,2,6300,6342,15.79,3.85,30,15,0,0
168825,85339173,2,6332,6228,15.83,3.72,30,15,0,0
169267,85447625,2,6230,6271,15.88,3.99,30,15,0,0
169718,85557130,2,6264,6185,15.88,3.53,30,15,0,0
170165,85667498,2,6173,6028,15.83,3.33,30,15,0,0
170614,85774566,2,6028,6042,15.94,3.34,30,15,0,0
171060,85883696,2,6038,6000,15.86,3.3,30,15,0,0
171505,85989576,2,5994,5857,15.92,2.95,30,15,0,0
171988,86106375,2,5855,5842,15.85,3.05,30,16,0,0
172397,86206184,2,5839,5800,15.89,2.99,30,16,0,0
172805,86312937,2,5801,5914,15.83,2.95,30,16,0,0
173246,86420515,2,5910,5700,15.91,3,30,16,0,0
173698,86531389,2,5704,5814,15.82,2.89,30,16,0,0
174141,86640501,2,5801,5642,15.86,2.66,30,16,0,0
174594,86749486,2,5653,5771,15.84,2.9,30,16,0,0
174996,86851880,2,5785,6071,15.86,3.56,30,16,0,0
175448,86960192,2,6080,6285,15.88,4.15,30,16,0,0
175896,87072494,2,6289,6371,15.81,4.3,30,16,0,0
176389,87188798,2,6358,6228,15.83,4.02,30,17,0,0
176830,87296943,2,6238,6385,15.81,3.64,30,17,0,0
177280,87404938,2,6372,6242,15.82,3.85,30,17,0,0
177721,87512918,2,6241,6228,15.82,3.77,30,17,0,0
178172,87631140,2,6228,6228,15.81,3.68,30,17,0,0
179025,87845542,2,6223,6085,15.83,3.51,30,17,0,0
179883,88056096,2,6079,5928,15.79,3.18,30,17,0,0
180336,88166897,2,5927,5914,15.86,3.1,30,18,0,0
180743,88272774,2,5915,6000,15.8,3.27,30,18,0,0
181231,88389548,2,5980,5814,15.88,3.14,30,18,0,0
181639,88490098,2,5817,5900,15.8,3.14,30,18,0,0
182086,88603995,2,5897,5871,15.82,2.97,30,18,0,0
182981,88825166,2,5870,5857,15.88,2.67,30,18,0,0
184318,89147099,2,5851,5671,15.8,2.8,30,18,0,0
184804,89260582,2,5669,5657,15.83,2.59,30,18,0,0
185656,89474930,2,5648,5471,15.8,2.44,30,19,0,0
186101,89583101,2,5460,5371,15.81,2,30,19,0,0
186507,89679545,2,5371,5400,15.83,2.28,30,19,0,0
187400,89900718,2,5402,5500,15.88,2.74,30,19,0,0
187856,90007908,2,5507,5657,15.87,2.85,30,19,0,0
188263,90111949,2,5662,5814,15.81,3.38,30,19,0,0
188753,90231167,2,5810,5700,15.85,3.16,30,19,0,0
189195,90335288,2,5701,5714,15.83,2.71,30,19,0,0
189641,90447673,2,5717,5757,15.87,2.4,30,19,0,0
190048,90546662,2,5752,5442,15.85,1.94,30,19,0,0
190491,90654895,2,5438,5371,15.85,2.39,30,19,0,0
190944,90768145,2,5374,5571,15.83,3.01,30,20,0,0
191431,90883896,2,5599,5885,15.76,3.22,30,20,0,0
191880,90992377,2,5891,5971,15.82,3.12,30,20,0,0
192337,91110031,2,5965,5900,15.81,3.09,30,20,0,0
192786,91221492,2,5900,5900,15.77,3.04,30,20,0,0
193194,91317714,2,5898,5857,15.77,3.08,30,20,0,0
193638,91431332,2,5850,5800,15.81,2.85,30,20,0,0
194085,91537516,2,5813,6000,15.81,2.97,30,20,0,0
194893,91753596,2,5833,5885,15.85,3.18,30,20,0,0
195337,91861916,2,5892,6000,15.85,3.31,30,20,0,0
195791,91972802,2,5994,5885,15.78,3.16,30,21,0,0
196231,92079627,2,5887,5985,15.76,3.18,30,21,0,0
196689,92194093,2,5982,5942,15.79,3.06,30,21,0,0
197135,92304591,2,5936,5857,15.79,3.11,30,21,0,0
197973,92524400,2,5924,5757,15.77,3.2,30,21,0,0
198387,92629802,2,5758,5800,15.79,3.57,30,21,0,0
198839,92739897,2,5803,5842,15.75,3.41,30,21,0,0
199284,92849946,2,5850,5942,15.77,3.18,30,21,0,0
199736,92958179,2,5933,5842,15.73,3.37,30,21,0,0
200181,93066500,2,5840,5814,15.81,3.38,30,22,0,0
200588,93165171,2,5818,5900,15.83,3.31,30,22,0,0
201033,93276541,2,5889,5742,15.79,3.19,30,22,0,0
201482,93386624,2,5744,5814,15.83,3.08,30,22,0,0
201923,93495892,2,5811,5785,15.78,3.5,30,22,0,0
202368,93602379,2,5790,5928,15.79,3.58,30,22,0,0
202809,93707942,2,5940,6114,15.82,3.85,30,22,0,0
203260,93820229,2,6122,6200,15.78,4.03,30,22,0,0
203708,93925621,2,6202,6228,15.76,3.83,30,22,0,0
204158,94030655,2,6218,5985,15.8,3.55,30,23,0,0
204604,94138475,2,5985,6000,15.78,3.34,30,23,0,0
205050,94251024,2,5988,5857,15.83,3.45,30,23,0,0
205487,94348794,2,5857,5871,15.73,3.48,30,23,0,0
205927,94455625,2,5872,5914,15.82,3.38,30,23,0,0
206380,94566894,2,5913,5857,15.84,3.3,30,23,0,0
206828,94677647,2,5852,5742,15.85,3.06,30,23,0,0
207717,94896544,2,5741,5728,15.77,3.19,30,23,0,0
208169,95005708,2,5726,5685,15.83,3.26,30,23,0,0
208614,95114886,2,5703,6071,15.82,3.62,30,24,0,0
209106,95235801,2,6060,5942,15.72,3.78,30,24,0,0
209515,95337793,2,5956,6100,15.82,3.76,30,24,0,0
209918,95440219,2,6097,6028,15.8,3.82,30,24,0,0
210364,95545501,2,6028,6071,15.73,3.98,30,24,0,0
210812,95654674,2,6086,6314,15.82,4.03,30,24,0,0
211262,95763917,2,6305,6185,15.8,3.93,30,24,0,0
211710,95875650,2,6184,6171,15.76,4.03,30,24,0,0
212163,95986204,2,6169,6157,15.75,4.06,30,24,0,0
212605,96091522,2,6156,6142,15.75,4.14,30,25,0,0
213056,96200508,2,6145,6214,15.79,3.98,30,25,0,0
213947,96419682,2,6213,6171,15.81,3.95,30,25,0,0
214390,96530607,2,6171,6171,15.76,4.09,30,25,0,0
214838,96646396,2,6171,6171,15.77,4.05,30,25,0,0
215250,96749596,2,6173,6200,15.74,3.92,30,25,0,0
215695,96863792,2,6201,6214,15.75,3.99,30,25,0,0
216147,96973542,2,6199,6114,15.77,3.85,30,26,0,0
216559,97079187,2,6120,6171,15.71,3.82,30,26,0,0
217006,97185644,2,6168,6100,15.77,3.88,30,26,0,0
217454,97296376,2,6102,6128,15.76,3.89,30,26,0,0
217902,97405032,2,6130,6157,15.81,4.2,30,26,0,0
219200,97723909,2,6159,6357,15.75,4.25,30,26,0,0
219687,97844705,2,6335,6085,15.81,4.07,30,27,0,0
220090,97941188,2,6084,6071,15.73,4.1,30,27,0,0
221469,98272882,2,6072,6114,15.8,3.75,30,27,0,0
221916,98382955,2,6103,5942,15.75,3.45,30,27,0,0
222359,98490951,2,5932,5785,15.77,3.36,30,27,0,0
222810,98598379,2,5802,5985,15.76,3.66,30,27,0,0
223258,98709560,2,5992,6071,15.74,3.74,30,27,0,0
223707,98818524,2,6065,6014,15.76,3.7,30,28,0,0
224594,99034625,2,6019,6171,15.8,3.88,31,28,0,0
225045,99145071,2,6175,6242,15.76,3.92,30,28,0,0
225932,99360509,2,6240,6100,15.77,3.8,30,28,0,0
226378,99471147,2,6100,6114,15.79,3.95,30,28,0,0
226864,99584751,2,6120,6200,15.73,3.75,30,28,0,0
227307,99694116,2,6209,6328,15.79,3.76,30,29,0,0
227762,99806323,2,6305,6071,15.74,3.79,31,29,0,0
228162,99905912,2,6070,6057,15.76,3.79,30,29,0,0
228608,100016269,2,6059,6271,15.75,3.73,30,29,0,0
229059,100124958,2,6268,6085,15.71,3.69,30,29,0,0
229555,100248282,2,6085,6085,15.76,3.82,30,29,0,0
229956,100344371,2,6088,6142,15.75,3.39,30,29,0,0
230362,100449657,2,6140,6085,15.79,3.54,31,29,0,0
230815,100557797,2,6085,6114,15.73,3.78,31,29,0,0
231300,100673407,2,6103,5971,15.72,3.44,30,29,0,0
231745,100780578,2,5975,6071,15.71,3.94,30,30,0,0
232194,100893950,2,6066,6014,15.77,3.56,30,30,0,0
233048,101105536,2,6015,6142,15.73,4.08,31,30,0,0
233976,101329528,2,6150,6385,15.73,4.61,31,30,0,0
234389,101439795,2,6381,6342,15.76,4.45,31,30,0,0
234791,101538399,2,6340,6271,15.78,4.15,31,30,0,0
235280,101652187,2,6268,6214,15.77,4.01,31,31,0,0
235729,101763473,2,6213,6200,15.72,3.78,31,31,0,0
236176,101874356,2,6205,6257,15.8,3.76,31,31,0,0
236627,101983113,2,6253,6214,15.73,4.03,31,31,0,0
237068,102086877,2,6215,6257,15.73,3.89,31,31,0,0
237559,102202700,2,6260,6314,15.8,3.93,31,31,0,0
238002,102312405,2,6303,6171,15.77,4.09,31,31,0,0
238890,102527604,2,6167,6071,15.68,4,31,32,0,0
239783,102742801,2,6079,6314,15.72,3.77,31,32,0,0
241117,103067648,2,6303,5828,15.73,3.4,31,32,0,0
241566,103178356,2,5825,5771,15.75,3.43,31,32,0,0
242012,103290015,2,5773,5814,15.78,3.63,31,32,0,0
242423,103394546,2,5817,5900,15.78,3.67,31,33,0,0
242865,103499830,2,5900,5928,15.78,3.66,31,33,0,0
243361,103620209,2,5926,5914,15.75,3.26,31,33,0,0
243806,103730641,2,5914,5914,15.72,3.46,31,33,0,0
244250,103840470,2,5922,6014,15.76,3.49,31,33,0,0
244699,103950536,2,6007,5942,15.73,3.76,31,33,0,0
245106,104052801,2,5944,5985,15.77,3.62,31,33,0,0
245477,104163425,2,5994,6085,15.72,3.9,31,33,0,0
245881,104264370,2,6084,6057,15.75,3.95,31,33,0,0
246373,104381166,2,6065,6157,15.73,3.65,31,34,0,0
246777,104484558,2,6147,5900,15.77,3.58,31,34,0,0
247225,104590550,2,5901,5928,15.77,3.38,31,34,0,0
247706,104706444,2,5938,6085,15.74,3.38,31,34,0,0
248115,104807517,2,6081,5942,15.8,3.33,31,34,0,0
248559,104915708,2,5940,5842,15.74,3.25,31,34,0,0
249044,105033669,2,5844,5900,15.73,3.21,31,34,0,0
249497,105137889,2,5903,5985,15.77,3.16,31,34,0,0
249973,105257182,2,5978,5942,15.74,3.21,31,34,0,0
250382,105353803,2,5946,6028,15.75,3.44,31,34,0,0
250832,105470439,2,6031,6057,15.77,3.41,31,35,0,0
251278,105578798,2,6053,6014,15.75,3.47,31,35,0,0
251683,105677127,2,6015,6057,15.82,3.83,31,35,0,0
252173,105801400,2,6081,6342,15.79,3.99,31,35,0,0
252578,105901594,2,6312,6085,15.76,3.82,31,35,0,0
253029,106008558,2,6095,6228,15.75,3.69,31,35,0,0
253475,106123522,2,6212,6100,15.73,3.47,31,35,0,0
253919,106231427,2,6093,6042,15.8,3.29,31,35,0,0
254319,106325583,2,6040,5942,15.78,3.01,31,35,0,0
254801,106444158,2,5952,6100,15.76,3.32,31,36,0,0
255254,106551481,2,6087,5914,15.83,2.84,31,36,0,0
255692,106661106,2,5906,5842,15.79,2.93,31,36,0,0
257035,106989881,2,5841,5828,15.69,2.57,31,36,0,0
257480,107100685,2,5812,5657,15.72,2.39,31,36,0,0
257928,107206888,2,5652,5571,15.71,2.48,31,36,0,0
258372,107318332,2,5577,5671,15.69,2.91,31,36,0,0
258819,107432348,2,5677,5742,15.72,2.78,31,36,0,0
259266,107538686,2,5749,5914,15.72,3.13,31,36,0,0
260116,107749167,2,5913,5900,15.76,3.18,31,37,0,0
260604,107868499,2,5904,5957,15.7,3.17,31,37,0,0
261460,108084151,2,5948,5757,15.75,2.87,31,37,0,0
261864,108182026,2,5756,5742,15.73,2.9,31,37,0,0
262309,108292672,2,5742,5757,15.75,3.01,31,37,0,0
262757,108400527,2,5752,5685,15.68,3.34,31,37,0,0
263203,108510697,2,5691,5857,15.69,3.34,31,37,0,0
263611,108618516,2,5852,5757,15.66,2.99,31,37,0,0
263937,108725238,2,5757,5771,15.67,3.17,31,37,0,0
264836,108950791,2,5764,5642,15.69,3.55,31,38,0,0
265230,109049342,2,5648,5971,15.64,3.49,31,38,0,0
265723,109164311,2,5958,5785,15.71,3.06,31,38,0,0
266126,109267497,2,5781,5628,15.73,2.68,31,38,0,0
266616,109384640,2,5621,5528,15.82,2.67,31,38,0,0
267021,109486800,2,5528,5542,15.75,2.84,31,38,0,0
267469,109597491,2,5543,5657,15.79,2.37,31,38,0,0
267915,109710442,2,5645,5542,15.79,2.51,31,38,0,0
268364,109817153,2,5546,5614,15.73,2.7,31,38,0,0
268766,109920146,2,5615,5700,15.77,2.45,31,38,0,0
269217,110029966,2,5694,5414,15.78,2.34,31,38,0,0
269662,110136089,2,5416,5542,15.79,2.41,31,38,0,0
270153,110253884,2,5547,5600,15.75,2.85,31,39,0,0
270602,110364956,2,5602,5628,15.79,2.65,31,39,0,0
271005,110467090,2,5628,5642,15.75,2.77,31,39,0,0
271456,110576750,2,5644,5785,15.8,2.78,31,39,0,0
271896,110684621,2,5786,5842,15.8,2.72,31,39,0,0
272349,110796352,2,5841,5814,15.73,2.87,31,39,0,0
272831,110912613,2,5807,5742,15.77,2.58,31,39,0,0
273237,111011609,2,5743,5857,15.72,3.24,31,39,0,0
273724,111128005,2,5872,6028,15.73,3.27,31,39,0,0
274164,111242842,2,6020,5957,15.76,3.15,31,39,0,0
274572,111335880,2,5958,6071,15.72,3.36,31,39,0,0
275016,111445636,2,6069,6057,15.75,3.13,31,39,0,0
275463,111553384,2,6050,5900,15.69,3.06,31,40,0,0
276354,111776474,2,5907,6085,15.78,3.28,31,40,0,0
276758,111877154,2,6082,6028,15.76,3.1,31,40,0,0
277209,111988142,2,6021,5942,15.78,2.87,31,40,0,0
277651,112092316,2,5941,5928,15.73,2.97,31,40,0,0
278097,112203543,2,5924,5885,15.79,2.77,31,40,0,0
278549,112318484,2,5880,5828,15.71,2.87,31,40,0,0
278956,112420787,2,5826,5728,15.77,2.89,31,40,0,0
279407,112529887,2,5731,5914,15.7,2.92,31,40,0,0
279889,112649001,2,5890,5671,15.72,2.92,31,41,0,0
280292,112747388,2,5670,5657,15.73,2.99,31,41,0,0
280736,112857589,2,5665,5828,15.71,3.18,31,41,0,0
281668,113084410,2,5837,6000,15.75,3.17,31,41,0,0
282117,113193698,2,6011,6085,15.72,3.25,31,41,0,0
282520,113296596,2,6077,5985,15.73,3.38,31,41,0,0
282971,113405600,2,5992,6085,15.72,3.42,31,41,0,0
283418,113514681,2,6081,6028,15.67,3.5,31,41,0,0
284709,113833191,2,6000,6014,15.76,3.49,31,42,0,0
285602,114049223,2,6016,6142,15.7,3.32,31,42,0,0
286049,114157663,2,6138,6071,15.7,3.3,31,42,0,0
286534,114275703,2,6049,5814,15.68,3.13,31,42,0,0
286938,114373553,2,5805,5614,15.7,2.42,31,42,0,0
287389,114488374,2,5611,5571,15.7,2.62,31,42,0,0
287881,114604357,2,5565,5514,15.66,3.08,31,42,0,0
288282,114705575,2,5533,5814,15.72,3.48,31,42,0,0
288730,114812534,2,5813,5800,15.7,3.37,31,42,0,0
289176,114922497,2,5814,6100,15.62,4.2,31,43,0,0
289584,115028546,2,6104,6357,15.58,4.98,31,43,0,0
290073,115144939,2,6368,6514,15.68,4.4,31,43,0,0
290518,115255169,2,6519,6571,15.6,4.67,31,43,0,0
290965,115363468,2,6582,6700,15.64,4.39,31,43,0,0
291364,115461113,2,6696,6485,15.62,4.43,31,43,0,0
291856,115577127,2,6484,6471,15.7,4,31,43,0,0
292299,115685608,2,6471,6485,15.61,4.34,31,43,0,0
292755,115799158,2,6453,6157,15.59,3.65,31,44,0,0
293121,115894889,2,6155,6071,15.67,3.38,31,44,0,0
293663,116023370,2,6079,6185,15.66,3.39,31,44,0,0
294103,116124469,2,6162,5871,15.73,3.24,31,44,0,0
294512,116233989,2,5888,6085,15.66,3.45,31,44,0,0
294958,116339680,2,6072,5900,15.77,3.28,31,44,0,0
295808,116551932,2,5900,5942,15.67,3.29,31,44,0,0
296252,116660892,2,5940,5914,15.63,3.13,31,44,0,0
296699,116770479,2,5918,5971,15.65,3.25,31,45,0,0
297140,116878570,2,5956,5800,15.67,3.29,31,45,0,0
297593,116989660,2,5805,5900,15.7,3.32,31,45,0,0
298037,117100530,2,5907,6014,15.75,3.48,31,45,0,0
298483,117205040,2,6019,6100,15.63,3.59,31,45,0,0
298930,117317433,2,6098,6085,15.63,3.75,31,45,0,0
299368,117419384,2,6080,6000,15.68,3.71,31,45,0,0
300214,117631935,2,5998,5842,15.71,3.38,31,45,0,0
300706,117748914,2,5864,6100,15.67,3.43,31,45,0,0
301147,117856575,2,6087,5914,15.68,3.38,31,46,0,0
301600,117968924,2,5908,5857,15.67,3.43,31,46,0,0
302038,118074878,2,5862,5942,15.65,3.42,31,46,0,0
302446,118176529,2,5940,5871,15.7,3.47,31,46,0,0
302928,118293949,2,5870,5857,15.64,3.79,31,46,0,0
303378,118402894,2,5860,5914,15.73,3.79,31,46,0,0
303825,118514659,2,5925,6057,15.71,3.66,31,46,0,0
304264,118626879,2,6052,6014,15.72,3.6,31,46,0,0
304713,118735889,2,6019,6057,15.6,3.76,31,46,0,0
305601,118945805,2,6063,6228,15.64,3.75,31,47,0,0
306043,119053677,2,6224,6171,15.69,3.79,31,47,0,0
306492,119161511,2,6164,6071,15.66,3.8,31,47,0,0
306939,119278700,2,6091,6285,15.71,3.98,31,47,0,0
307381,119385517,2,6284,6228,15.69,3.78,31,47,0,0
307787,119488095,2,6226,6200,15.7,3.84,31,47,0,0
308281,119611469,2,6182,6042,15.67,3.78,31,47,0,0
308682,119705562,2,6040,6014,15.7,3.48,31,48,0,0
309135,119822533,2,5995,5857,15.71,3.36,31,48,0,0
309582,119933775,2,5858,5871,15.69,3.19,31,48,0,0
310027,120047889,2,5872,5885,15.67,3.22,31,48,0,0
310476,120156643,2,5889,5928,15.68,3.34,31,48,0,0
310920,120266806,2,5925,5900,15.61,3.3,31,48,0,0
311768,120471101,2,5900,5957,15.63,3.26,31,48,0,0
312263,120592527,2,5947,5857,15.69,3.08,31,48,0,0
312669,120697573,2,5857,5857,15.77,2.95,31,48,0,0
313115,120803648,2,5860,5928,15.73,2.98,31,49,0,0
313606,120922682,2,5936,6028,15.75,3.11,31,49,0,0
314017,121023400,2,6014,5757,15.72,2.73,31,49,0,0
314457,121136459,2,5758,5771,15.63,2.95,31,49,0,0
314898,121242533,2,5771,5771,15.75,3.26,31,49,0,0
315349,121349672,2,5774,5957,15.75,3.34,31,49,0,0
315831,121464045,2,5950,5857,15.67,3.07,31,49,0,0
316279,121575595,2,5863,5928,15.72,2.92,31,49,0,0
316714,121679697,2,5914,5742,15.73,2.56,31,49,0,0
317166,121790577,2,5730,5614,15.68,2.48,31,49,0,0
317569,121891719,2,5615,5671,15.75,2.67,31,49,0,0
318025,122004547,2,5664,5542,15.71,2.68,31,49,0,0
318472,122117006,2,5557,5714,15.72,2.88,31,50,0,0
318877,122214537,2,5714,5714,15.73,2.93,31,50,0,0
319356,122328879,2,5718,5785,15.67,3.22,31,50,0,0
319805,122443003,2,5806,6028,15.71,3.21,31,50,0,0
320250,122548830,2,6028,6028,15.64,3.32,31,50,0,0
320659,122652358,2,6032,6128,15.67,3.28,31,50,0,0
321103,122758440,2,6127,6071,15.72,3.23,31,50,0,0
321596,122876886,2,6059,5942,15.66,3.43,31,50,0,0
321999,122978802,2,5959,6200,15.67,3.66,31,50,0,0
322442,123086164,2,6206,6328,15.63,3.88,31,50,0,0
322901,123199632,2,6321,6257,15.66,3.95,31,51,0,0
323339,123304933,2,6255,6228,15.64,3.96,31,51,0,0
323834,123422172,2,6237,6314,15.69,3.94,31,51,0,0
324235,123526533,2,6315,6342,15.7,3.94,31,51,0,0
324685,123641923,2,6327,6185,15.72,3.75,31,51,0,0
325127,123745931,2,6178,6100,15.68,3.63,31,51,0,0
325579,123859011,2,6101,6114,15.7,3.46,31,51,0,0
326470,124076207,2,6118,6214,15.68,3.89,31,52,0,0
326918,124182716,2,6206,6100,15.64,3.49,31,52,0,0
327324,124289986,2,6101,6114,15.68,3.69,31,52,0,0
328217,124510361,2,6109,5971,15.73,3.16,31,52,0,0
328620,124613497,2,5972,6014,15.68,3.28,31,52,0,0
329066,124722424,2,6032,6214,15.69,3.43,31,52,0,0
329550,124837593,2,6181,5842,15.72,3.07,31,52,0,0
329999,124946901,2,5867,6114,15.66,3.51,31,52,0,0
330399,125044887,2,6112,6028,15.63,3.4,32,52,0,0
330890,125167423,2,6026,6014,15.73,3.62,31,53,0,0
331332,125275198,2,6014,6014,15.64,3.57,31,53,0,0
331783,125380167,2,6014,6071,15.65,3.37,31,53,0,0
332667,125597022,2,6070,6014,15.64,3.37,32,53,0,0
333111,125705470,2,6011,5971,15.64,3.35,31,53,0,0
333649,125927583,2,5977,6100,15.6,3.14,31,53,0,0
334060,126036893,2,6080,5871,15.72,3.3,31,53,0,0
334515,126146163,2,5890,6100,15.7,2.93,32,54,0,0
334952,126253486,2,6082,5857,15.75,2.79,31,54,0,0
335402,126362991,2,5850,5757,15.73,2.9,31,54,0,0
335809,126467000,2,5759,5785,15.72,3.11,31,54,0,0
336257,126576803,2,5794,5914,15.68,2.91,31,54,0,0
336702,126689701,2,5923,6014,15.73,3.19,31,54,0,0
337144,126793477,2,6008,5928,15.7,3.18,31,54,0,0
337591,126901435,2,5932,6042,15.75,2.86,31,54,0,0
338040,127012685,2,6032,5871,15.73,2.81,31,54,0,0
338891,127226448,2,5872,5914,15.75,2.58,31,54,0,0
339302,127329579,2,5912,5857,15.7,2.76,31,54,0,0
340233,127555592,2,5857,5871,15.75,2.81,32,55,0,0
340894,127776340,2,5871,5871,15.71,2.67,31,55,0,0
341290,127872950,2,5861,5742,15.71,2.69,31,55,0,0
341739,127982158,2,5745,5814,15.69,3.01,31,55,0,0
342188,128092306,2,5819,5885,15.69,3.03,31,55,0,0
342632,128198123,2,5891,5971,15.73,3.09,31,55,0,0
343046,128303141,2,5968,5857,15.67,3.07,31,55,0,0
343534,128422526,2,5870,6000,15.64,3.26,31,55,0,0
343982,128529921,2,5989,5871,15.66,3.13,31,55,0,0
344424,128639656,2,5880,6014,15.72,3.22,31,56,0,0
344789,128733783,2,6011,5842,15.68,3.13,32,56,0,0
345276,128851016,2,5840,5814,15.72,3.09,31,56,0,0
345721,128957936,2,5815,5828,15.69,2.96,31,56,0,0
346123,129059370,2,5834,5971,15.7,2.98,31,56,0,0
346579,129172712,2,5959,5685,15.64,3.06,31,56,0,0
347020,129281593,2,5686,5714,15.69,2.96,31,56,0,0
347470,129388690,2,5729,5942,15.69,3.19,31,56,0,0
347915,129498506,2,5944,5985,15.59,3.62,32,56,0,0
348360,129606512,2,5989,6085,15.61,3.72,31,56,0,0
348813,129719147,2,6088,6128,15.68,3.38,31,57,0,0
349607,129927630,2,6099,6085,15.63,3.37,31,57,0,0
350052,130038667,2,6078,5985,15.64,3.46,32,57,0,0
350501,130147353,2,5988,6057,15.65,3.41,31,57,0,0
350949,130259550,2,6051,5971,15.67,3.15,31,57,0,0
351409,130372481,2,5955,5814,15.76,2.95,32,57,0,0
351846,130477869,2,5806,5700,15.69,2.7,32,57,0,0
352298,130586935,2,5692,5600,15.74,2.79,31,57,0,0
352740,130696370,2,5600,5614,15.71,2.85,31,57,0,0
353190,130805692,2,5610,5557,15.7,2.55,31,57,0,0
353634,130915680,2,5551,5471,15.79,2.34,31,58,0,0
354523,131133997,2,5471,5471,15.77,2.36,31,58,0,0
354930,131238632,2,5461,5371,15.68,2.49,31,58,0,0
355336,131340567,2,5378,5542,15.75,2.91,31,58,0,0
355742,131444130,2,5535,5328,16.08,2.04,31,58,0,0
356193,131555013,2,5240,4000,15.92,1.64,32,58,0,0
356639,131664879,2,3971,3685,16.16,0.29,31,58,0,0
357089,131772135,2,3645,3271,16.13,0.4,31,58,0,0
357565,131882915,2,3245,2900,16.07,0.35,31,58,0,0
357969,131984182,2,2896,2828,16.07,0.45,31,58,0,0
358418,132095177,2,2828,2828,16.05,0.46,31,58,0,0
358868,132203190,2,2830,2857,16.05,0.43,31,58,0,0
359317,132317943,2,2854,2828,16.07,0.4,31,58,0,0
359726,132420550,2,2829,2857,16.07,0.41,31,58,0,0
360164,132528720,2,2857,2857,16.07,0.42,31,58,0,0
360612,132644390,2,2857,2857,16.08,0.43,31,58,0,0
361063,132753686,2,2857,2857,16.05,0.44,31,58,0,0
361472,132861590,2,2856,2842,16.09,0.44,31,58,0,0
361876,132960900,2,2842,2857,16.07,0.49,31,58,0,0
362320,133069567,2,2857,2871,16.1,0.47,31,58,0,0
362769,133175324,2,2871,2871,16.08,0.43,31,58,0,0
363215,133283544,2,2871,2871,16.08,0.47,31,58,0,0
363662,133390674,2,2870,2857,16.07,0.45,31,58,0,0
364105,133498363,2,2854,2828,16.08,0.43,31,58,0,0
364559,133606658,2,2779,2128,16.14,0.02,31,58,0,0
364997,133711428,2,2092,1585,16.14,0,31,58,0,0
365452,133818097,2,1571,1385,16.14,0.05,31,58,0,0
365901,133931394,2,1381,1342,16.14,0.09,31,58,0,0
366348,134040973,2,1342,1342,16.14,0.09,31,58,0,0
366753,134139481,2,1341,1328,16.15,0.09,31,58,0,0
367200,134251009,2,1328,1328,16.14,0.09,31,58,0,0
367692,134373421,2,1328,1328,16.14,0.09,31,58,0,0
368135,134476481,2,1328,1328,16.14,0.09,31,58,0,0
368583,134587103,2,1328,1328,16.15,0.09999999,31,58,0,0
369001,134689909,2,1328,1328,16.15,0.09999999,31,58,0,0
369492,134808451,2,1328,1328,16.15,0.09999999,31,58,0,0
369970,134916372,2,1328,1328,16.15,0.09999999,31,58,0,0
370423,135028030,2,1328,1328,16.16,0.09,31,58,0,0
370857,135126168,2,1328,1328,16.16,0.09,31,58,0,0
371300,135234101,2,1328,1328,16.16,0.09,31,58,0,0
371752,135341009,2,1328,1328,16.16,0.09999999,31,58,0,0
372197,135447551,2,1328,1328,16.16,0.09999999,31,58,0,0
372648,135556519,2,1328,1328,16.16,0.09,31,58,0,0
373088,135662616,2,1328,1328,16.17,0.09,31,58,0,0
373544,135774415,2,1328,1328,16.17,0.09999999,31,58,0,0
373948,135876499,2,1328,1328,16.16,0.09999999,31,58,0,0
374444,135993925,2,1328,1328,16.17,0.09999999,31,58,0,0
374851,136093503,2,1328,1328,16.17,0.09999999,31,58,0,0
375300,136203034,2,1328,1328,16.18,0.09999999,31,58,0,0
375748,136312938,2,1328,1328,16.17,0.09999999,31,58,0,0
376151,136412578,2,1328,1328,16.15,0.09999999,31,58,0,0
376597,136518924,2,1328,1328,16.17,0.09999999,31,58,0,0
377082,136636484,2,1328,1328,16.18,0.09999999,31,58,0,0
377488,136735867,2,1328,1328,16.18,0.09999999,31,58,0,0
377932,136842150,2,1328,1328,16.18,0.09999999,31,58,0,0
378389,136955123,2,1328,1328,16.18,0.09999999,31,58,0,0
378837,137062799,2,1328,1328,16.19,0.09999999,31,58,0,0
379324,137174676,2,1328,1328,16.19,0.09999999,31,58,0,0
379732,137276489,2,1328,1328,16.19,0.09999999,31,58,0,0
380225,137393698,2,1328,1328,16.19,0.09999999,31,58,0,0
380667,137497924,2,1328,1328,16.19,0.09999999,31,58,0,0
381113,137602946,2,1328,1328,16.19,0.09999999,31,58,0,0
381559,137711475,2,1328,1328,16.19,0.09999999,31,58,0,0
382487,137927618,2,1328,1328,16.19,0.09999999,30,58,0,0
382971,138045892,2,1328,1328,16.19,0.09999999,31,58,0,0
383422,138155202,2,1328,1328,16.19,0.09999999,31,58,0,0
383824,138255879,2,1328,1328,16.2,0.09999999,31,58,0,0
384279,138367357,2,1328,1328,16.19,0.09999999,31,58,0,0
384679,138461361,2,1328,1328,16.2,0.09999999,31,58,0,0
385165,138577096,2,1328,1328,16.2,0.09999999,30,58,0,0
385612,138687251,2,1328,1328,16.2,0.09999999,31,58,0,0
386053,138787625,2,1328,1342,16.2,0.09999999,31,58,0,0
386465,138891332,2,1341,1328,16.2,0.09999999,31,58,0,0
386911,138996658,2,1328,1328,16.2,0.09999999,30,58,0,0
387805,139218657,2,1328,1328,16.21,0.09999999,30,58,0,0
388251,139323142,2,1328,1328,16.21,0.09999999,30,58,0,0
388695,139428162,2,1328,1342,16.2,0.09999999,30,58,0,0
389144,139536446,2,1341,1328,16.21,0.09999999,30,58,0,0
389587,139646155,2,1328,1328,16.21,0.09999999,30,58,0,0
390084,139765543,2,1329,1342,16.2,0.09999999,30,58,0,0
390483,139863174,2,1342,1342,16.21,0.09999999,30,58,0,0
391412,140079579,2,1342,1342,16.22,0.09999999,30,58,0,0
391913,140194375,2,1273,514,16.23,0,30,58,0,0
392362,140304470,2,488,228,16.23,0.02,30,58,0,0
392815,140409169,2,212,0,16.23,0.02,30,58,0,0
393261,140513802,2,0,0,16.23,0.03,30,58,0,0
393763,140634091,2,0,0,16.23,0.03,30,58,0,0
394215,140738605,2,0,0,16.23,0.02,30,58,0,0
394621,140840006,2,0,0,16.23,0.03,30,58,0,0
395074,140945110,2,0,0,16.23,0.03,30,58,0,0
396029,141170034,2,0,0,16.23,0.03,30,58,0,0
396521,141285581,2,0,0,16.24,0.03,30,58,0,0
396973,141391702,2,0,0,16.24,0.03,30,58,0,0
397423,141501525,2,0,0,16.24,0.03,30,58,0,0
397875,141605708,2,0,0,16.24,0.03,30,58,0,0
398326,141714364,2,0,0,16.24,0.03,30,58,0,0
398823,141836109,2,0,0,16.25,0.02,30,58,0,0
399233,141933370,2,0,0,16.25,0.03,30,58,0,0
399725,142049183,2,0,0,16.25,0.03,30,58,0,0
400179,142152384,2,0,0,16.24,0.03,30,58,0,0
400631,142259614,2,0,0,16.25,0.03,30,58,0,0
401086,142367390,2,0,0,16.25,0.03,30,58,0,0
401576,142483912,2,0,0,16.25,0.02,30,58,0,0
402029,142591131,2,0,0,16.25,0.02,30,58,0,0
402481,142696183,2,0,0,16.25,0.02,30,58,0,0
402976,142816597,2,0,0,16.25,0.02,30,58,0,0
403386,142913576,2,0,0,16.25,0.02,30,58,0,0
403881,143033153,2,0,0,16.25,0.03,30,58,0,0
404740,143233174,2,0,0,16.25,0.03,30,58,0,0
405239,143350682,2,0,0,16.26,0.03,30,58,0,0
405690,143458573,2,0,0,16.26,0.03,30,58,0,0
406139,143562601,2,0,0,16.25,0.03,30,58,0,0
406594,143670157,2,0,0,16.25,0.03,30,58,0,0
407093,143787093,2,0,0,16.26,0.03,30,58,0,0
407544,143894424,2,0,0,16.25,0.03,30,58,0,0
407995,143998650,2,0,0,16.26,0.02,30,58,0,0
408445,144105582,2,0,0,16.26,0.03,30,58,0,0
408941,144223334,2,0,0,16.26,0.03,30,58,0,0
