LineNo,TimeUS,Instance,RPM,RawRPM,Volt,Curr,Temp,CTot,MotTemp,Err
1940,4.5454e+07,4,0,0,16.54,0.04,28,0,0,0
2402,4.5566e+07,4,0,0,16.54,0.04,28,0,0,0
2818,4.5669e+07,4,0,0,16.54,0.04,28,0,0,0
3271,4.5785e+07,4,0,0,16.54,0.05,28,0,0,0
3689,4.5888e+07,4,0,0,16.54,0.04,28,0,0,0
4145,4.5999e+07,4,0,0,16.54,0.05,28,0,0,0
4557,4.61e+07,4,0,0,16.53,0.05,28,0,0,0
5012,4.6214e+07,4,0,0,16.54,0.05,28,0,0,0
5428,4.6317e+07,4,0,0,16.54,0.05,28,0,0,0
5843,4.6423e+07,4,0,0,16.54,0.05,28,0,0,0
6293,4.6535e+07,4,0,0,16.54,0.05,28,0,0,0
6708,4.6637e+07,4,0,0,16.54,0.05,28,0,0,0
7122,4.6737e+07,4,0,0,16.54,0.04,28,0,0,0
7576,4.6849e+07,4,0,0,16.54,0.04,28,0,0,0
8033,4.6964e+07,4,0,0,16.54,0.04,28,0,0,0
8445,4.7065e+07,4,0,0,16.54,0.05,28,0,0,0
8857,4.7165e+07,4,0,0,16.54,0.05,28,0,0,0
9623,4.7381e+07,4,0,0,16.53,0.05,28,0,0,0
10038,4.7485e+07,4,0,0,16.54,0.05,28,0,0,0
10498,4.7595e+07,4,0,0,16.54,0.05,28,0,0,0
10912,4.7698e+07,4,0,0,16.54,0.05,28,0,0,0
11297,4.7799e+07,4,0,0,16.54,0.05,28,0,0,0
11713,4.7904e+07,4,0,0,16.54,0.04,28,0,0,0
12199,4.802e+07,4,0,0,16.54,0.04,28,0,0,0
12617,4.8124e+07,4,0,0,16.54,0.04,28,0,0,0
13032,4.8229e+07,4,0,0,16.54,0.05,28,0,0,0
13445,4.8332e+07,4,0,0,16.54,0.05,28,0,0,0
13895,4.8445e+07,4,0,0,16.54,0.05,28,0,0,0
14310,4.8547e+07,4,0,0,16.54,0.05,28,0,0,0
14758,4.8657e+07,4,0,0,16.54,0.05,28,0,0,0
15171,4.8759e+07,4,0,0,16.54,0.05,28,0,0,0
15584,4.8864e+07,4,0,0,16.53,0.04,28,0,0,0
16039,4.8974e+07,4,0,0,16.54,0.04,28,0,0,0
16454,4.908e+07,4,0,0,16.54,0.04,28,0,0,0
16908,4.9191e+07,4,0,0,16.54,0.04,28,0,0,0
17320,4.9295e+07,4,0,0,16.54,0.05,28,0,0,0
17733,4.9396e+07,4,0,0,16.54,0.05,28,0,0,0
18185,4.9509e+07,4,0,0,16.54,0.05,28,0,0,0
19011,4.9714e+07,4,0,0,16.54,0.05,28,0,0,0
19473,4.9831e+07,4,0,0,16.54,0.04,28,0,0,0
19884,4.9931e+07,4,0,0,16.54,0.04,28,0,0,0
20298,5.0034e+07,4,0,0,16.54,0.04,28,0,0,0
20751,5.0145e+07,4,0,0,16.54,0.04,28,0,0,0
21159,5.025e+07,4,0,0,16.53,0.04,28,0,0,0
21576,5.0353e+07,4,0,0,16.54,0.05,28,0,0,0
21989,5.0461e+07,4,0,0,16.54,0.05,28,0,0,0
22445,5.0571e+07,4,0,0,16.54,0.04,28,0,0,0
22855,5.0673e+07,4,0,0,16.54,0.05,28,0,0,0
23308,5.0785e+07,4,0,0,16.54,0.05,28,0,0,0
23723,5.089e+07,4,0,0,16.53,0.05,28,0,0,0
24178,5.1001e+07,4,0,0,16.53,0.04,28,0,0,0
24594,5.1104e+07,4,0,0,16.54,0.04,28,0,0,0
25007,5.1205e+07,4,0,0,16.54,0.05,28,0,0,0
25456,5.1316e+07,4,0,0,16.54,0.05,28,0,0,0
25871,5.1417e+07,4,0,0,16.54,0.05,28,0,0,0
26320,5.153e+07,4,0,0,16.54,0.05,28,0,0,0
26696,5.1629e+07,4,0,0,16.54,0.05,28,0,0,0
27149,5.174e+07,4,0,0,16.54,0.05,28,0,0,0
27604,5.1853e+07,4,0,0,16.54,0.05,28,0,0,0
28015,5.1954e+07,4,0,0,16.54,0.05,28,0,0,0
28882,5.217e+07,4,0,0,16.54,0.05,28,0,0,0
29291,5.2275e+07,4,0,0,16.54,0.05,28,0,0,0
29745,5.2385e+07,4,0,0,16.54,0.04,28,0,0,0
30164,5.2492e+07,4,0,0,16.54,0.04,28,0,0,0
30577,5.2592e+07,4,0,0,16.54,0.04,28,0,0,0
31064,5.2706e+07,4,0,0,16.54,0.05,28,0,0,0
31513,5.2808e+07,4,0,0,16.54,0.04,28,0,0,0
31970,5.2913e+07,4,0,0,16.54,0.04,28,0,0,0
32426,5.3021e+07,4,0,0,16.53,0.04,28,0,0,0
32926,5.3134e+07,4,0,0,16.54,0.04,28,0,0,0
33375,5.3236e+07,4,0,0,16.54,0.05,28,0,0,0
33870,5.3348e+07,4,0,0,16.54,0.04,28,0,0,0
34321,5.3454e+07,4,0,0,16.53,0.04,28,0,0,0
34773,5.3554e+07,4,0,0,16.54,0.04,28,0,0,0
35269,5.367e+07,4,0,0,16.54,0.04,28,0,0,0
35722,5.3771e+07,4,0,0,16.53,0.04,28,0,0,0
36217,5.3884e+07,4,0,0,16.54,0.05,28,0,0,0
36673,5.3984e+07,4,0,0,16.54,0.04,28,0,0,0
37163,5.4091e+07,4,0,0,16.54,0.05,28,0,0,0
37665,5.4204e+07,4,0,0,16.54,0.05,28,0,0,0
38115,5.4307e+07,4,0,0,16.54,0.05,28,0,0,0
38567,5.4409e+07,4,0,0,16.53,0.05,28,0,0,0
39020,5.4514e+07,4,0,0,16.54,0.03,28,0,0,0
39513,5.4626e+07,4,1,157,16.52,0.06,28,0,0,0
40010,5.474e+07,4,205,700,16.51,0.12,28,0,0,0
40459,5.4848e+07,4,738,1128,16.51,0.17,28,0,0,0
40809,5.4948e+07,4,1137,1271,16.52,0.13,28,0,0,0
41263,5.5053e+07,4,1272,1314,16.52,0.12,28,0,0,0
41767,5.5167e+07,4,1315,1342,16.52,0.12,28,0,0,0
42678,5.5377e+07,4,1342,1357,16.52,0.11,28,0,0,0
43586,5.5586e+07,4,1357,1357,16.53,0.11,28,0,0,0
44083,5.57e+07,4,1357,1357,16.52,0.11,28,0,0,0
44537,5.5801e+07,4,1357,1357,16.52,0.11,28,0,0,0
44991,5.5904e+07,4,1357,1357,16.52,0.12,28,0,0,0
45487,5.6016e+07,4,1357,1357,16.52,0.12,28,0,0,0
45942,5.6119e+07,4,1357,1357,16.52,0.11,28,0,0,0
46441,5.623e+07,4,1357,1357,16.52,0.11,28,0,0,0
46897,5.6333e+07,4,1357,1357,16.52,0.11,28,0,0,0
47350,5.6438e+07,4,1357,1357,16.52,0.11,28,0,0,0
47805,5.6539e+07,4,1357,1357,16.51,0.11,28,0,0,0
48306,5.6657e+07,4,1357,1357,16.52,0.11,28,0,0,0
48759,5.6759e+07,4,1357,1357,16.52,0.11,28,0,0,0
49209,5.6863e+07,4,1357,1357,16.51,0.11,28,0,0,0
49705,5.6971e+07,4,1357,1357,16.52,0.11,28,0,0,0
50160,5.7078e+07,4,1357,1357,16.52,0.11,28,0,0,0
50619,5.7182e+07,4,1357,1357,16.52,0.11,28,0,0,0
51112,5.7295e+07,4,1357,1357,16.52,0.12,28,0,0,0
51565,5.7397e+07,4,1357,1357,16.51,0.12,28,0,0,0
52016,5.7504e+07,4,1357,1357,16.51,0.12,28,0,0,0
52515,5.7619e+07,4,1357,1357,16.52,0.11,28,0,0,0
52969,5.7723e+07,4,1357,1357,16.51,0.11,28,0,0,0
53448,5.7829e+07,4,1357,1357,16.52,0.11,28,0,0,0
53908,5.7931e+07,4,1357,1357,16.51,0.12,28,0,0,0
54363,5.804e+07,4,1357,1357,16.52,0.12,28,0,0,0
54863,5.8155e+07,4,1357,1357,16.52,0.11,28,0,0,0
55317,5.8258e+07,4,1357,1357,16.52,0.11,28,0,0,0
55770,5.836e+07,4,1357,1357,16.52,0.12,28,0,0,0
56721,5.8579e+07,4,1357,1357,16.52,0.11,28,0,0,0
57174,5.8686e+07,4,1357,1357,16.52,0.11,28,0,0,0
57626,5.8786e+07,4,1357,1357,16.52,0.11,28,0,0,0
58080,5.8894e+07,4,1357,1357,16.51,0.11,28,0,0,0
58579,5.9008e+07,4,1355,1342,16.52,0.11,28,0,0,0
58990,5.9106e+07,4,1342,1357,16.52,0.11,28,0,0,0
59451,5.9212e+07,4,1357,1357,16.52,0.11,28,0,0,0
59944,5.9326e+07,4,1357,1357,16.52,0.11,28,0,0,0
60846,5.9531e+07,4,1357,1357,16.52,0.11,28,0,0,0
61341,5.9644e+07,4,1357,1357,16.51,0.12,28,0,0,0
61800,5.9751e+07,4,1357,1357,16.51,0.11,28,0,0,0
62215,5.9853e+07,4,1357,1371,16.52,0.11,28,0,0,0
62716,5.9964e+07,4,1371,1371,16.52,0.11,28,0,0,0
63165,6.007e+07,4,1371,1371,16.52,0.11,28,0,0,0
63660,6.018e+07,4,1371,1371,16.51,0.11,28,0,0,0
64119,6.0288e+07,4,1371,1371,16.52,0.11,28,0,0,0
64574,6.039e+07,4,1371,1371,16.52,0.11,28,0,0,0
65030,6.0497e+07,4,1371,1371,16.52,0.11,28,0,0,0
65483,6.0599e+07,4,1371,1371,16.52,0.11,28,0,0,0
65977,6.071e+07,4,1371,1371,16.52,0.11,28,0,0,0
66475,6.0824e+07,4,1371,1371,16.51,0.11,28,0,0,0
66933,6.0925e+07,4,1371,1371,16.52,0.11,28,0,0,0
67842,6.1134e+07,4,1371,1371,16.52,0.11,28,0,0,0
68334,6.1244e+07,4,1371,1371,16.52,0.11,28,0,0,0
68787,6.1346e+07,4,1371,1371,16.51,0.11,28,0,0,0
69286,6.146e+07,4,1371,1371,16.51,0.11,28,0,0,0
69739,6.156e+07,4,1371,1371,16.52,0.11,28,0,0,0
70227,6.1673e+07,4,1370,1357,16.52,0.11,28,0,0,0
70682,6.1775e+07,4,1357,1371,16.52,0.11,28,0,0,0
71219,6.1896e+07,4,1371,1371,16.51,0.11,28,0,0,0
71631,6.199e+07,4,1371,1371,16.51,0.11,28,0,0,0
72123,6.2105e+07,4,1371,1371,16.51,0.11,28,0,0,0
72582,6.2212e+07,4,1371,1371,16.51,0.11,28,0,0,0
73035,6.2317e+07,4,1371,1371,16.51,0.11,28,0,0,0
73527,6.2429e+07,4,1371,1371,16.52,0.11,28,0,0,0
73977,6.2538e+07,4,1307,614,16.54,0.01,28,0,0,0
74415,6.2645e+07,4,582,271,16.53,0.03,28,0,0,0
74871,6.2751e+07,4,247,0,16.52,0.04,28,0,0,0
75281,6.2851e+07,4,0,0,16.54,0.05,28,0,0,0
75782,6.2968e+07,4,0,0,16.52,0.04,28,0,0,0
76226,6.3071e+07,4,0,0,16.53,0.04,28,0,0,0
76727,6.3184e+07,4,0,0,16.53,0.04,28,0,0,0
77184,6.3294e+07,4,0,0,16.53,0.04,28,0,0,0
77638,6.3399e+07,4,0,0,16.53,0.04,28,0,0,0
78092,6.3508e+07,4,0,0,16.53,0.04,28,0,0,0
78583,6.3625e+07,4,0,0,16.53,0.04,28,0,0,0
79040,6.373e+07,4,0,0,16.53,0.04,28,0,0,0
79491,6.3838e+07,4,0,0,16.53,0.04,28,0,0,0
79949,6.3946e+07,4,0,0,16.53,0.04,28,0,0,0
80444,6.4062e+07,4,0,0,16.53,0.05,28,0,0,0
80896,6.4166e+07,4,0,0,16.53,0.04,28,0,0,0
81353,6.428e+07,4,0,0,16.53,0.04,28,0,0,0
81810,6.4388e+07,4,0,0,16.53,0.04,28,0,0,0
82259,6.4496e+07,4,0,0,16.53,0.04,28,0,0,0
82712,6.4599e+07,4,0,0,16.53,0.04,28,0,0,0
83201,6.4714e+07,4,0,0,16.53,0.04,28,0,0,0
83658,6.4824e+07,4,0,0,16.53,0.04,28,0,0,0
84561,6.5033e+07,4,0,0,16.53,0.04,28,0,0,0
85061,6.515e+07,4,0,0,16.53,0.04,28,0,0,0
85508,6.5254e+07,4,0,0,16.53,0.04,28,0,0,0
86008,6.5369e+07,4,0,0,16.52,0.04,28,0,0,0
86462,6.5478e+07,4,0,0,16.53,0.04,28,0,0,0
86913,6.5582e+07,4,0,0,16.53,0.04,28,0,0,0
87406,6.57e+07,4,0,0,16.53,0.04,28,0,0,0
87861,6.5806e+07,4,0,0,16.52,0.04,28,0,0,0
88311,6.5912e+07,4,0,0,16.54,0.04,28,0,0,0
88770,6.6022e+07,4,0,0,16.53,0.04,28,0,0,0
89268,6.6136e+07,4,0,0,16.52,0.04,28,0,0,0
90211,6.6356e+07,4,0,0,16.53,0.05,28,0,0,0
90625,6.6456e+07,4,0,0,16.52,0.05,28,0,0,0
91123,6.6569e+07,4,0,0,16.52,0.04,28,0,0,0
91575,6.6676e+07,4,0,0,16.52,0.04,28,0,0,0
92075,6.6789e+07,4,0,0,16.53,0.04,28,0,0,0
92534,6.6898e+07,4,0,0,16.52,0.04,28,0,0,0
92947,6.6999e+07,4,0,0,16.53,0.04,28,0,0,0
93442,6.7111e+07,4,0,0,16.53,0.04,28,0,0,0
93895,6.7214e+07,4,0,0,16.53,0.04,28,0,0,0
94346,6.7321e+07,4,0,0,16.53,0.04,28,0,0,0
94841,6.7435e+07,4,0,0,16.53,0.05,28,0,0,0
95297,6.754e+07,4,0,0,16.53,0.05,28,0,0,0
95746,6.7642e+07,4,0,0,16.53,0.04,28,0,0,0
96244,6.7756e+07,4,0,0,16.52,0.04,28,0,0,0
96655,6.7854e+07,4,0,0,16.54,0.04,28,0,0,0
97153,6.7966e+07,4,0,0,16.53,0.04,28,0,0,0
97643,6.808e+07,4,0,0,16.53,0.04,28,0,0,0
98096,6.8183e+07,4,0,0,16.53,0.04,28,0,0,0
98545,6.8289e+07,4,0,0,16.53,0.04,28,0,0,0
99043,6.8404e+07,4,0,0,16.53,0.05,28,0,0,0
99502,6.8511e+07,4,0,0,16.53,0.03,28,0,0,0
99955,6.8618e+07,4,2,128,16.51,0.06,28,0,0,0
1.0045e+05,6.8731e+07,4,188,771,16.52,0.12,28,0,0,0
1.009e+05,6.8837e+07,4,797,1171,16.51,0.17,28,0,0,0
1.0136e+05,6.8941e+07,4,1177,1271,16.51,0.12,28,0,0,0
1.0182e+05,6.905e+07,4,1274,1328,16.52,0.12,28,0,0,0
1.0231e+05,6.916e+07,4,1330,1357,16.51,0.11,28,0,0,0
1.0272e+05,6.926e+07,4,1357,1357,16.52,0.11,28,0,0,0
1.0322e+05,6.9374e+07,4,1357,1357,16.51,0.11,28,0,0,0
1.0368e+05,6.9483e+07,4,1360,1414,16.5,0.17,28,0,0,0
1.0413e+05,6.9588e+07,4,1439,1771,16.36,0.54,28,0,0,0
1.0458e+05,6.9698e+07,4,1810,2400,16.45,0.54,28,0,0,0
1.0526e+05,6.9907e+07,4,2401,2471,16.45,0.5,28,0,0,0
1.0572e+05,7.0019e+07,4,2471,2485,16.47,0.49,28,0,0,0
1.0622e+05,7.0132e+07,4,2486,2500,16.41,0.5,28,0,0,0
1.0662e+05,7.023e+07,4,2503,2642,16.47,0.91,29,0,0,0
1.0713e+05,7.0349e+07,4,2678,3071,16.36,1.19,29,1,0,0
1.0758e+05,7.0458e+07,4,3136,3800,16.23,1.65,28,1,0,0
1.0803e+05,7.0563e+07,4,3845,4471,16.1,2.35,29,1,0,0
1.0848e+05,7.0673e+07,4,4534,5142,16.04,2.82,28,1,0,0
1.0894e+05,7.0779e+07,4,5168,5528,15.92,3.61,29,1,0,0
1.094e+05,7.0891e+07,4,5579,6114,15.86,4,28,1,0,0
1.0985e+05,7.0997e+07,4,6112,6100,15.96,3.18,28,1,0,0
1.103e+05,7.1104e+07,4,6075,5728,16.04,2.64,29,1,0,0
1.1075e+05,7.1211e+07,4,5725,5614,16.07,2.3,29,1,0,0
1.1125e+05,7.1328e+07,4,5597,5428,16.04,2.39,28,1,0,0
1.1166e+05,7.1429e+07,4,5428,5428,16.05,2.46,29,1,0,0
1.1216e+05,7.1543e+07,4,5426,5342,16.05,2.3,29,1,0,0
1.1262e+05,7.1653e+07,4,5324,5142,16.04,1.97,29,1,0,0
1.1348e+05,7.1862e+07,4,5139,4842,15.96,1.55,29,2,0,0
1.1398e+05,7.1977e+07,4,4844,4871,15.97,1.84,29,2,0,0
1.1446e+05,7.2087e+07,4,4859,4685,15.9,2.3,29,2,0,0
1.1495e+05,7.2202e+07,4,4707,4957,15.94,2.2,29,2,0,0
1.1536e+05,7.2303e+07,4,4960,5142,15.99,2.44,29,2,0,0
1.1586e+05,7.2421e+07,4,5167,5400,16.01,2.5,29,2,0,0
1.1676e+05,7.2634e+07,4,5398,5371,16.02,2.62,29,2,0,0
1.1722e+05,7.274e+07,4,5373,5542,15.97,2.81,29,2,0,0
1.1767e+05,7.2848e+07,4,5542,5557,15.98,2.94,29,2,0,0
1.1816e+05,7.2963e+07,4,5567,5671,15.97,2.88,29,2,0,0
1.1857e+05,7.3061e+07,4,5674,5714,15.91,2.92,29,2,0,0
1.1902e+05,7.3166e+07,4,5712,5671,15.97,2.7,29,2,0,0
1.1948e+05,7.3283e+07,4,5660,5557,15.89,2.86,29,3,0,0
1.1993e+05,7.3387e+07,4,5563,5657,15.94,2.89,29,3,0,0
1.2039e+05,7.35e+07,4,5650,5557,15.96,2.56,29,3,0,0
1.2085e+05,7.3607e+07,4,5562,5671,15.91,2.73,29,3,0,0
1.213e+05,7.3715e+07,4,5664,5571,15.94,2.45,29,3,0,0
1.2176e+05,7.3827e+07,4,5567,5528,15.97,2.6,29,3,0,0
1.2221e+05,7.3933e+07,4,5519,5428,15.97,2.56,29,3,0,0
1.2312e+05,7.4153e+07,4,5429,5471,15.94,2.57,29,3,0,0
1.2353e+05,7.4256e+07,4,5469,5371,15.89,2.71,29,3,0,0
1.2399e+05,7.4363e+07,4,5371,5414,15.95,2.61,29,3,0,0
1.2447e+05,7.4481e+07,4,5416,5442,15.86,2.65,29,3,0,0
1.2488e+05,7.458e+07,4,5444,5585,15.82,2.84,29,4,0,0
1.2532e+05,7.469e+07,4,5583,5571,15.81,3.15,29,4,0,0
1.2578e+05,7.48e+07,4,5582,5742,15.79,3.11,29,4,0,0
1.2622e+05,7.491e+07,4,5733,5628,15.78,2.9,29,4,0,0
1.267e+05,7.5023e+07,4,5630,5657,15.87,2.8,29,4,0,0
1.2711e+05,7.5127e+07,4,5657,5657,15.79,2.78,29,4,0,0
1.2756e+05,7.5238e+07,4,5657,5657,15.88,2.62,29,4,0,0
1.2802e+05,7.5347e+07,4,5653,5614,15.96,2.3,29,4,0,0
1.2845e+05,7.5451e+07,4,5607,5314,16,2.04,29,4,0,0
1.289e+05,7.5564e+07,4,5302,5042,15.94,2.01,29,4,0,0
1.2935e+05,7.5678e+07,4,5035,4971,16.05,1.83,29,4,0,0
1.2984e+05,7.5794e+07,4,4960,4842,15.97,1.88,29,4,0,0
1.3025e+05,7.5895e+07,4,4847,4971,15.99,2.23,29,4,0,0
1.3071e+05,7.6006e+07,4,4971,5000,15.99,2.31,29,4,0,0
1.3115e+05,7.6113e+07,4,5003,5171,16.01,2.27,29,5,0,0
1.3159e+05,7.6223e+07,4,5178,5328,15.97,2.58,29,5,0,0
1.3208e+05,7.6336e+07,4,5329,5342,15.89,2.39,30,5,0,0
1.3297e+05,7.6557e+07,4,5342,5342,15.93,2.47,30,5,0,0
1.3341e+05,7.6664e+07,4,5338,5285,15.91,2.43,30,5,0,0
1.3386e+05,7.6771e+07,4,5290,5428,15.95,2.64,29,5,0,0
1.3431e+05,7.6884e+07,4,5428,5428,15.94,2.38,30,5,0,0
1.3476e+05,7.6992e+07,4,5427,5371,15.88,2.56,30,5,0,0
1.352e+05,7.71e+07,4,5371,5371,15.98,2.14,30,5,0,0
1.3569e+05,7.722e+07,4,5363,5257,15.95,2.15,30,5,0,0
1.3614e+05,7.7333e+07,4,5258,5271,15.89,2.47,30,5,0,0
1.3655e+05,7.7433e+07,4,5270,5257,15.84,2.55,30,5,0,0
1.3699e+05,7.7539e+07,4,5259,5442,15.89,2.6,30,6,0,0
1.3744e+05,7.7652e+07,4,5423,5242,15.96,1.95,30,6,0,0
1.3788e+05,7.7759e+07,4,5212,4942,15.96,2.08,30,6,0,0
1.3833e+05,7.7874e+07,4,4961,5128,15.94,2.39,30,6,0,0
1.3919e+05,7.8089e+07,4,5133,5242,15.98,2.28,30,6,0,0
1.3964e+05,7.8197e+07,4,5245,5285,15.89,2.38,30,6,0,0
1.4009e+05,7.8309e+07,4,5280,5242,15.97,2.36,30,6,0,0
1.4054e+05,7.8422e+07,4,5245,5271,15.91,2.44,30,6,0,0
1.4142e+05,7.863e+07,4,5269,5142,15.87,2.37,30,6,0,0
1.4187e+05,7.8743e+07,4,5152,5257,15.86,2.14,30,6,0,0
1.4228e+05,7.8848e+07,4,5252,5157,15.86,2.39,30,6,0,0
1.4273e+05,7.8958e+07,4,5161,5228,15.88,2.67,30,6,0,0
1.4317e+05,7.9069e+07,4,5232,5342,15.9,2.44,30,7,0,0
1.4363e+05,7.9181e+07,4,5339,5285,15.93,2.43,30,7,0,0
1.4403e+05,7.9282e+07,4,5282,5200,15.93,2.28,30,7,0,0
1.4448e+05,7.9392e+07,4,5200,5242,15.91,2.33,30,7,0,0
1.4493e+05,7.9503e+07,4,5243,5257,15.95,2.16,30,7,0,0
1.4538e+05,7.9611e+07,4,5244,5114,15.88,2.38,30,7,0,0
1.4583e+05,7.9724e+07,4,5117,5157,15.97,2.26,30,7,0,0
1.4628e+05,7.9832e+07,4,5145,5000,15.92,2.14,30,7,0,0
1.4673e+05,7.9944e+07,4,5008,5100,15.7,2.73,30,7,0,0
1.4758e+05,8.0152e+07,4,5100,5128,15.92,2.4,30,7,0,0
1.4847e+05,8.037e+07,4,5127,5057,15.8,2.2,30,7,0,0
1.4936e+05,8.059e+07,4,5060,5300,15.89,2.46,30,8,0,0
1.4977e+05,8.0694e+07,4,5299,5242,15.9,2.17,30,8,0,0
1.5026e+05,8.0813e+07,4,5239,5214,15.83,2.87,30,8,0,0
1.5071e+05,8.0921e+07,4,5195,4928,15.87,1.75,30,8,0,0
1.5116e+05,8.1032e+07,4,4930,4957,15.9,2.82,30,8,0,0
1.516e+05,8.1141e+07,4,4979,5200,15.84,3.42,30,8,0,0
1.5205e+05,8.1247e+07,4,5206,5300,15.89,2.65,30,8,0,0
1.525e+05,8.1356e+07,4,5314,5457,15.93,2.75,30,8,0,0
1.529e+05,8.1453e+07,4,5456,5400,15.89,2.64,30,8,0,0
1.5339e+05,8.1573e+07,4,5396,5357,15.82,2.87,30,8,0,0
1.5383e+05,8.1682e+07,4,5364,5442,15.85,2.3,30,8,0,0
1.5424e+05,8.1781e+07,4,5442,5442,15.84,2.89,30,8,0,0
1.5469e+05,8.1896e+07,4,5437,5385,15.9,2.6,30,8,0,0
1.5517e+05,8.2007e+07,4,5394,5500,15.9,2.51,30,9,0,0
1.5558e+05,8.2107e+07,4,5496,5428,15.91,2.24,30,9,0,0
1.5604e+05,8.222e+07,4,5425,5400,15.78,2.43,30,9,0,0
1.5647e+05,8.2323e+07,4,5401,5428,15.85,2.5,30,9,0,0
1.5692e+05,8.2434e+07,4,5433,5514,15.8,2.55,30,9,0,0
1.5733e+05,8.2539e+07,4,5512,5414,15.79,2.45,30,9,0,0
1.5782e+05,8.2653e+07,4,5416,5442,15.79,2.56,30,9,0,0
1.5823e+05,8.2755e+07,4,5436,5328,15.82,2.4,30,9,0,0
1.5863e+05,8.286e+07,4,5327,5285,15.81,2.33,30,9,0,0
1.5912e+05,8.2973e+07,4,5296,5471,15.85,2.65,30,9,0,0
1.5952e+05,8.3078e+07,4,5466,5228,15.81,2.31,30,9,0,0
1.6001e+05,8.319e+07,4,5237,5428,15.83,2.98,30,9,0,0
1.6047e+05,8.3304e+07,4,5432,5500,15.84,2.58,30,9,0,0
1.6092e+05,8.342e+07,4,5492,5414,15.89,2.61,30,10,0,0
1.6181e+05,8.3634e+07,4,5413,5357,15.84,2.37,30,10,0,0
1.6221e+05,8.3732e+07,4,5359,5442,15.9,2.55,30,10,0,0
1.6262e+05,8.3839e+07,4,5442,5471,15.83,2.32,30,10,0,0
1.6312e+05,8.3954e+07,4,5454,5300,15.88,2.5,30,10,0,0
1.6356e+05,8.4063e+07,4,5311,5471,15.9,2.67,30,10,0,0
1.6401e+05,8.4171e+07,4,5465,5385,15.89,2.35,30,10,0,0
1.6446e+05,8.4282e+07,4,5389,5457,15.87,2.51,30,10,0,0
1.6491e+05,8.4392e+07,4,5439,5271,15.79,2.52,30,10,0,0
1.6535e+05,8.45e+07,4,5276,5328,15.82,2.36,30,10,0,0
1.6579e+05,8.4602e+07,4,5325,5271,15.83,2.09,30,10,0,0
1.6628e+05,8.4721e+07,4,5276,5342,15.82,2.49,30,10,0,0
1.6673e+05,8.4834e+07,4,5336,5285,15.8,2.51,30,11,0,0
1.6718e+05,8.4939e+07,4,5281,5228,15.82,2.29,30,11,0,0
1.6762e+05,8.5049e+07,4,5235,5314,15.87,2.37,30,11,0,0
1.6807e+05,8.5156e+07,4,5300,5171,15.85,1.81,30,11,0,0
1.6851e+05,8.5264e+07,4,5168,5114,15.84,2.32,30,11,0,0
1.6896e+05,8.5372e+07,4,5114,5128,15.87,2.19,30,11,0,0
1.6944e+05,8.5493e+07,4,5150,5300,15.83,2.6,30,11,0,0
1.703e+05,8.5701e+07,4,5299,5285,15.88,2.42,30,11,0,0
1.712e+05,8.5914e+07,4,5286,5442,15.85,2.71,30,11,0,0
1.7168e+05,8.6034e+07,4,5447,5500,15.8,2.88,30,11,0,0
1.7212e+05,8.6138e+07,4,5506,5585,15.8,2.88,30,11,0,0
1.7302e+05,8.6362e+07,4,5583,5542,15.77,2.6,30,12,0,0
1.7342e+05,8.6469e+07,4,5542,5542,15.8,2.97,30,12,0,0
1.7387e+05,8.657e+07,4,5542,5542,15.85,2.94,30,12,0,0
1.7432e+05,8.6685e+07,4,5535,5471,15.85,2.6,30,12,0,0
1.7473e+05,8.6785e+07,4,5465,5414,15.87,2.2,30,12,0,0
1.7562e+05,8.7003e+07,4,5393,4942,15.79,2.2,30,12,0,0
1.7602e+05,8.7105e+07,4,4942,4985,15.8,2.14,30,12,0,0
1.7696e+05,8.7333e+07,4,4983,4957,15.85,1.93,30,12,0,0
1.774e+05,8.7438e+07,4,4956,4942,15.82,1.89,30,12,0,0
1.7786e+05,8.7552e+07,4,4941,4928,15.75,2.1,30,12,0,0
1.7831e+05,8.7667e+07,4,4930,4957,15.76,2.05,30,12,0,0
1.7875e+05,8.7774e+07,4,4966,5100,15.76,2.49,30,12,0,0
1.7916e+05,8.7878e+07,4,5107,5242,15.82,2.39,30,13,0,0
1.7961e+05,8.7988e+07,4,5238,5200,15.83,2.1,30,13,0,0
1.8047e+05,8.8207e+07,4,5200,5214,15.79,2.34,30,13,0,0
1.8092e+05,8.8316e+07,4,5218,5271,15.76,2.41,30,13,0,0
1.8136e+05,8.8426e+07,4,5274,5300,15.82,2.53,30,13,0,0
1.8177e+05,8.8524e+07,4,5301,5357,15.86,2.47,30,13,0,0
1.8222e+05,8.8639e+07,4,5364,5471,15.79,2.59,30,13,0,0
1.8263e+05,8.8739e+07,4,5467,5257,15.83,2.37,30,13,0,0
1.8312e+05,8.8857e+07,4,5264,5342,15.85,2.34,30,13,0,0
1.8356e+05,8.8962e+07,4,5336,5257,15.8,2.16,30,13,0,0
1.84e+05,8.9072e+07,4,5263,5357,15.76,2.55,30,13,0,0
1.8445e+05,8.9178e+07,4,5362,5442,15.85,2.47,30,13,0,0
1.8494e+05,8.9293e+07,4,5433,5342,15.82,2.44,30,14,0,0
1.8534e+05,8.9391e+07,4,5341,5328,15.73,2.49,30,14,0,0
1.8579e+05,8.9507e+07,4,5329,5342,15.82,2.54,30,14,0,0
1.8624e+05,8.9615e+07,4,5325,5100,15.82,1.9,30,14,0,0
1.8668e+05,8.9722e+07,4,5097,5071,15.83,2.01,30,14,0,0
1.8708e+05,8.9823e+07,4,5069,5042,15.88,2.12,30,14,0,0
1.8754e+05,8.9934e+07,4,5042,5042,15.82,2.04,30,14,0,0
1.8799e+05,9.0048e+07,4,5039,5014,15.79,2.17,30,14,0,0
1.884e+05,9.0146e+07,4,5016,5171,15.8,2.33,30,14,0,0
1.8888e+05,9.0262e+07,4,5179,5271,15.76,2.36,30,14,0,0
1.8933e+05,9.0367e+07,4,5271,5285,15.86,2.21,30,14,0,0
1.8978e+05,9.048e+07,4,5305,5514,15.8,2.65,30,14,0,0
1.9023e+05,9.0589e+07,4,5525,5642,15.81,2.85,30,14,0,0
1.9067e+05,9.0698e+07,4,5630,5471,15.82,2.27,30,14,0,0
1.9113e+05,9.0809e+07,4,5465,5414,15.8,2.54,30,14,0,0
1.9157e+05,9.0916e+07,4,5409,5357,15.76,2.44,30,15,0,0
1.9202e+05,9.103e+07,4,5362,5414,15.75,2.31,30,15,0,0
1.9248e+05,9.1142e+07,4,5408,5328,15.78,2.22,30,15,0,0
1.9288e+05,9.1243e+07,4,5322,5128,15.78,2.05,30,15,0,0
1.9338e+05,9.1361e+07,4,5134,5200,15.77,2.2,30,15,0,0
1.9378e+05,9.1462e+07,4,5195,5100,15.83,2.15,30,15,0,0
1.942e+05,9.1578e+07,4,5117,5300,15.82,2.32,30,15,0,0
1.9458e+05,9.1676e+07,4,5295,5200,15.78,2.29,30,15,0,0
1.9503e+05,9.1786e+07,4,5201,5342,15.78,2.33,30,15,0,0
1.9552e+05,9.1905e+07,4,5343,5357,15.77,2.68,30,15,0,0
1.9598e+05,9.2015e+07,4,5362,5442,15.75,2.54,30,15,0,0
1.9642e+05,9.2124e+07,4,5440,5414,15.82,2.72,30,15,0,0
1.9687e+05,9.2238e+07,4,5414,5414,15.76,2.51,30,15,0,0
1.9727e+05,9.2336e+07,4,5419,5528,15.75,2.73,30,16,0,0
1.9766e+05,9.2446e+07,4,5528,5528,15.74,2.86,30,16,0,0
1.9811e+05,9.2555e+07,4,5532,5585,15.72,2.63,30,16,0,0
1.9852e+05,9.2661e+07,4,5587,5642,15.76,2.81,30,16,0,0
1.9898e+05,9.2771e+07,4,5640,5514,15.76,2.63,30,16,0,0
1.9942e+05,9.2886e+07,4,5501,5400,15.76,2.77,30,16,0,0
1.9987e+05,9.2989e+07,4,5401,5514,15.78,2.84,30,16,0,0
2.0032e+05,9.3097e+07,4,5504,5385,15.76,2.66,30,16,0,0
2.0077e+05,9.3207e+07,4,5382,5357,15.8,2.35,30,16,0,0
2.0121e+05,9.3321e+07,4,5353,5314,15.76,2.43,30,16,0,0
2.0162e+05,9.3419e+07,4,5309,5200,15.72,2.35,30,16,0,0
2.0206e+05,9.3528e+07,4,5197,5128,15.77,2.1,30,16,0,0
2.0254e+05,9.3643e+07,4,5134,5214,15.79,2.46,30,16,0,0
2.0299e+05,9.3757e+07,4,5205,5157,15.74,2.36,30,17,0,0
2.0339e+05,9.3853e+07,4,5169,5400,15.69,2.7,30,17,0,0
2.0384e+05,9.3957e+07,4,5399,5385,15.76,2.38,30,17,0,0
2.0433e+05,9.4076e+07,4,5374,5285,15.79,2.54,30,17,0,0
2.0478e+05,9.4185e+07,4,5294,5357,15.78,2.34,30,17,0,0
2.0522e+05,9.4287e+07,4,5359,5385,15.73,2.49,30,17,0,0
2.0566e+05,9.4392e+07,4,5390,5457,15.75,2.73,30,17,0,0
2.0611e+05,9.45e+07,4,5472,5657,15.79,2.93,30,17,0,0
2.0656e+05,9.4615e+07,4,5649,5585,15.77,2.64,30,17,0,0
2.0744e+05,9.4831e+07,4,5579,5471,15.81,2.49,30,17,0,0
2.079e+05,9.4942e+07,4,5467,5428,15.82,2.44,30,17,0,0
2.0834e+05,9.5053e+07,4,5421,5342,15.75,2.22,30,17,0,0
2.0879e+05,9.5159e+07,4,5345,5371,15.79,2.31,30,18,0,0
2.092e+05,9.5264e+07,4,5363,5271,15.77,2.39,30,18,0,0
2.0965e+05,9.537e+07,4,5276,5357,15.76,2.41,30,18,0,0
2.1005e+05,9.5473e+07,4,5356,5342,15.77,2.39,30,18,0,0
2.1054e+05,9.5589e+07,4,5336,5185,15.79,2.32,30,18,0,0
2.1094e+05,9.5691e+07,4,5177,5085,15.75,2.1,30,18,0,0
2.1139e+05,9.5801e+07,4,5085,5085,15.75,2.34,30,18,0,0
2.1233e+05,9.6027e+07,4,5089,5214,15.77,2.3,30,18,0,0
2.1273e+05,9.6125e+07,4,5210,5071,15.82,2.13,30,18,0,0
2.1318e+05,9.6238e+07,4,5081,5228,15.77,2.27,30,18,0,0
2.1363e+05,9.6345e+07,4,5227,5200,15.76,2.37,30,18,0,0
2.1407e+05,9.6458e+07,4,5197,5142,15.73,2.18,30,18,0,0
2.1452e+05,9.6563e+07,4,5146,5228,15.76,2.29,30,18,0,0
2.1493e+05,9.6671e+07,4,5231,5357,15.81,2.44,30,18,0,0
2.1538e+05,9.6781e+07,4,5346,5085,15.79,2.42,30,19,0,0
2.1583e+05,9.6895e+07,4,5088,5142,15.76,2.02,30,19,0,0
2.1628e+05,9.7004e+07,4,5128,4985,15.78,2.33,30,19,0,0
2.1669e+05,9.711e+07,4,4998,5200,15.74,2.37,30,19,0,0
2.1803e+05,9.744e+07,4,5196,5057,15.76,2.03,30,19,0,0
2.1847e+05,9.7544e+07,4,5059,5100,15.72,2.22,30,19,0,0
2.1888e+05,9.7649e+07,4,5100,5128,15.78,2.21,30,19,0,0
2.1938e+05,9.7766e+07,4,5122,5071,15.76,2.25,30,19,0,0
2.1978e+05,9.7866e+07,4,5073,5200,15.74,2.35,30,19,0,0
2.2027e+05,9.7983e+07,4,5200,5200,15.74,2.13,30,19,0,0
2.2068e+05,9.8086e+07,4,5201,5300,15.77,2.62,30,19,0,0
2.2116e+05,9.8197e+07,4,5308,5414,15.72,2.84,30,19,0,0
2.216e+05,9.8306e+07,4,5419,5542,15.77,2.86,30,20,0,0
2.2206e+05,9.8416e+07,4,5540,5485,15.73,2.64,30,20,0,0
2.225e+05,9.8522e+07,4,5482,5428,15.71,2.48,30,20,0,0
2.2294e+05,9.8631e+07,4,5420,5257,15.73,2.4,30,20,0,0
2.234e+05,9.874e+07,4,5262,5400,15.73,2.64,30,20,0,0
2.2384e+05,9.885e+07,4,5397,5357,15.72,2.52,30,20,0,0
2.243e+05,9.8962e+07,4,5360,5400,15.75,2.58,30,20,0,0
2.2478e+05,9.9077e+07,4,5406,5471,15.79,2.6,30,20,0,0
2.2518e+05,9.9176e+07,4,5469,5414,15.72,2.47,30,20,0,0
2.2612e+05,9.9402e+07,4,5412,5385,15.77,2.54,30,20,0,0
2.2652e+05,9.9502e+07,4,5385,5385,15.73,2.77,30,20,0,0
2.2704e+05,9.9628e+07,4,5392,5457,15.73,2.79,30,21,0,0
2.2745e+05,9.9727e+07,4,5467,5600,15.74,2.67,30,21,0,0
2.2789e+05,9.9839e+07,4,5598,5571,15.69,2.79,30,21,0,0
2.2879e+05,1.0006e+08,4,5564,5428,15.75,2.46,30,21,0,0
2.2924e+05,1.0017e+08,4,5421,5357,15.7,2.62,30,21,0,0
2.2965e+05,1.0027e+08,4,5357,5385,15.76,2.55,30,21,0,0
2.3014e+05,1.0039e+08,4,5385,5385,15.75,2.65,30,21,0,0
2.3054e+05,1.0049e+08,4,5385,5385,15.73,2.64,30,21,0,0
2.31e+05,1.006e+08,4,5386,5400,15.68,2.61,30,21,0,0
2.3148e+05,1.0072e+08,4,5397,5371,15.7,2.35,30,21,0,0
2.3192e+05,1.0083e+08,4,5378,5442,15.73,2.94,30,21,0,0
2.3233e+05,1.0093e+08,4,5444,5614,15.74,2.95,30,21,0,0
2.3278e+05,1.0104e+08,4,5617,5714,15.74,2.92,30,22,0,0
2.3366e+05,1.0125e+08,4,5710,5571,15.7,2.6,30,22,0,0
2.3411e+05,1.0136e+08,4,5559,5414,15.76,1.92,30,22,0,0
2.3452e+05,1.0147e+08,4,5403,5257,15.73,2.06,30,22,0,0
2.3497e+05,1.0158e+08,4,5252,5128,15.72,2.18,30,22,0,0
2.3546e+05,1.017e+08,4,5140,5228,15.75,2.43,30,22,0,0
2.359e+05,1.0181e+08,4,5235,5300,15.69,2.57,30,22,0,0
2.3631e+05,1.0191e+08,4,5310,5400,15.7,2.43,30,22,0,0
2.3676e+05,1.0201e+08,4,5403,5585,15.73,3.02,30,22,0,0
2.3725e+05,1.0213e+08,4,5591,5685,15.79,2.93,30,22,0,0
2.3773e+05,1.0225e+08,4,5674,5500,15.69,2.71,31,22,0,0
2.3818e+05,1.0236e+08,4,5507,5600,15.77,2.98,30,22,0,0
2.3857e+05,1.0245e+08,4,5598,5542,15.75,2.53,30,23,0,0
2.3902e+05,1.0256e+08,4,5542,5571,15.75,2.85,30,23,0,0
2.3947e+05,1.0267e+08,4,5571,5585,15.66,2.93,31,23,0,0
2.4036e+05,1.0289e+08,4,5586,5628,15.7,2.92,31,23,0,0
2.4081e+05,1.03e+08,4,5626,5614,15.76,3.05,30,23,0,0
2.4129e+05,1.0311e+08,4,5612,5585,15.71,2.73,30,23,0,0
2.4174e+05,1.0323e+08,4,5572,5457,15.79,2.85,30,23,0,0
2.4215e+05,1.0333e+08,4,5469,5614,15.73,2.79,30,23,0,0
2.4264e+05,1.0345e+08,4,5612,5600,15.7,2.87,30,23,0,0
2.4304e+05,1.0354e+08,4,5596,5571,15.68,2.86,30,23,0,0
2.4349e+05,1.0366e+08,4,5563,5442,15.73,2.52,30,24,0,0
2.4393e+05,1.0376e+08,4,5442,5442,15.69,2.52,31,24,0,0
2.4438e+05,1.0387e+08,4,5433,5342,15.78,2.63,31,24,0,0
2.4483e+05,1.0398e+08,4,5338,5300,15.72,2.51,30,24,0,0
2.4524e+05,1.0409e+08,4,5301,5328,15.71,2.36,31,24,0,0
2.4557e+05,1.0419e+08,4,5325,5271,15.72,2.47,31,24,0,0
2.4605e+05,1.0431e+08,4,5274,5314,15.75,2.33,31,24,0,0
2.465e+05,1.0442e+08,4,5309,5257,15.73,2.54,30,24,0,0
2.4691e+05,1.0452e+08,4,5259,5414,15.76,2.57,31,24,0,0
2.4743e+05,1.0464e+08,4,5418,5485,15.79,2.51,31,24,0,0
2.4784e+05,1.0475e+08,4,5472,5357,15.78,2.4,31,24,0,0
2.4829e+05,1.0485e+08,4,5350,5285,15.74,2.57,31,24,0,0
2.4877e+05,1.0497e+08,4,5299,5457,15.71,2.54,31,24,0,0
2.4922e+05,1.0507e+08,4,5450,5385,15.69,2.62,31,24,0,0
2.4967e+05,1.0518e+08,4,5383,5371,15.76,2.42,31,25,0,0
2.5006e+05,1.0528e+08,4,5372,5428,15.69,2.47,31,25,0,0
2.5052e+05,1.0539e+08,4,5426,5400,15.75,2.34,31,25,0,0
2.5097e+05,1.055e+08,4,5388,5271,15.72,2.36,31,25,0,0
2.5182e+05,1.0571e+08,4,5270,5242,15.79,2.48,31,25,0,0
2.5271e+05,1.0593e+08,4,5245,5342,15.73,2.47,31,25,0,0
2.5316e+05,1.0605e+08,4,5350,5442,15.75,2.73,31,25,0,0
2.5361e+05,1.0616e+08,4,5435,5371,15.76,2.69,31,25,0,0
2.5405e+05,1.0626e+08,4,5362,5242,15.74,2.36,31,25,0,0
2.545e+05,1.0637e+08,4,5238,5185,15.73,2.35,31,25,0,0
2.5494e+05,1.0648e+08,4,5189,5285,15.71,2.47,31,25,0,0
2.5539e+05,1.0658e+08,4,5288,5371,15.78,2.55,31,26,0,0
2.5583e+05,1.0669e+08,4,5367,5300,15.76,2.58,31,26,0,0
2.5632e+05,1.0681e+08,4,5294,5242,15.68,2.52,31,26,0,0
2.5676e+05,1.0692e+08,4,5240,5228,15.69,2.5,31,26,0,0
2.5717e+05,1.0702e+08,4,5230,5442,15.74,2.74,31,26,0,0
2.5762e+05,1.0713e+08,4,5451,5571,15.77,2.61,31,26,0,0
2.5811e+05,1.0725e+08,4,5558,5442,15.67,2.46,31,26,0,0
2.5856e+05,1.0736e+08,4,5445,5485,15.68,2.81,31,26,0,0
2.5896e+05,1.0746e+08,4,5494,5614,15.77,2.88,31,26,0,0
2.5941e+05,1.0757e+08,4,5605,5485,15.69,2.54,31,26,0,0
2.5985e+05,1.0768e+08,4,5479,5371,15.7,2.33,31,26,0,0
2.603e+05,1.0779e+08,4,5371,5371,15.64,2.55,31,26,0,0
2.6074e+05,1.079e+08,4,5376,5457,15.64,2.64,31,27,0,0
2.612e+05,1.0802e+08,4,5448,5400,15.67,2.6,31,27,0,0
2.616e+05,1.0812e+08,4,5404,5457,15.7,2.24,31,27,0,0
2.6205e+05,1.0822e+08,4,5451,5314,15.72,2.53,31,27,0,0
2.6249e+05,1.0833e+08,4,5306,5228,15.69,2.51,31,27,0,0
2.6289e+05,1.0844e+08,4,5242,5557,15.69,2.98,31,27,0,0
2.6338e+05,1.0855e+08,4,5568,5685,15.63,2.84,31,27,0,0
2.6379e+05,1.0866e+08,4,5678,5571,15.62,2.74,31,27,0,0
2.6408e+05,1.0877e+08,4,5571,5571,15.67,2.85,31,27,0,0
2.6452e+05,1.0887e+08,4,5566,5485,15.72,2.68,31,27,0,0
2.6497e+05,1.0898e+08,4,5490,5600,15.61,3.2,31,27,0,0
2.6541e+05,1.0909e+08,4,5603,5685,15.64,2.9,31,27,0,0
2.659e+05,1.0921e+08,4,5687,5700,15.73,2.61,31,27,0,0
2.663e+05,1.0931e+08,4,5690,5428,15.73,2.44,31,28,0,0
2.6675e+05,1.0942e+08,4,5427,5414,15.76,2.37,31,28,0,0
2.672e+05,1.0953e+08,4,5416,5442,15.64,2.8,31,28,0,0
2.6805e+05,1.0974e+08,4,5442,5471,15.76,2.42,31,28,0,0
2.6849e+05,1.0986e+08,4,5459,5371,15.69,2.46,31,28,0,0
2.6898e+05,1.0997e+08,4,5366,5314,15.75,2.54,31,28,0,0
2.6939e+05,1.1007e+08,4,5316,5342,15.72,2.47,31,28,0,0
2.6984e+05,1.1018e+08,4,5347,5400,15.7,2.51,31,28,0,0
2.7029e+05,1.1029e+08,4,5415,5571,15.73,2.87,31,28,0,0
2.7073e+05,1.104e+08,4,5569,5542,15.76,2.8,31,28,0,0
2.7118e+05,1.1051e+08,4,5540,5514,15.76,2.78,31,28,0,0
2.7163e+05,1.1062e+08,4,5507,5457,15.79,2.53,31,29,0,0
2.7208e+05,1.1073e+08,4,5452,5400,15.72,2.55,31,29,0,0
2.7297e+05,1.1095e+08,4,5402,5457,15.7,2.77,31,29,0,0
2.7336e+05,1.1104e+08,4,5454,5300,15.73,2.38,31,29,0,0
2.7385e+05,1.1116e+08,4,5292,5228,15.69,2.62,31,29,0,0
2.7426e+05,1.1126e+08,4,5227,5200,15.72,2.18,31,29,0,0
2.7475e+05,1.1138e+08,4,5207,5285,15.71,2.47,31,29,0,0
2.7515e+05,1.1148e+08,4,5283,5242,15.76,2.51,31,29,0,0
2.756e+05,1.1159e+08,4,5239,5114,15.72,2.67,31,29,0,0
2.7689e+05,1.1191e+08,4,5118,5428,15.71,2.71,31,29,0,0
2.7738e+05,1.1203e+08,4,5437,5542,15.72,2.68,31,30,0,0
2.7778e+05,1.1213e+08,4,5540,5442,15.66,2.84,31,30,0,0
2.7823e+05,1.1224e+08,4,5452,5557,15.75,2.69,31,30,0,0
2.7868e+05,1.1235e+08,4,5558,5571,15.73,2.86,31,30,0,0
2.7914e+05,1.1247e+08,4,5544,5357,15.7,2.66,31,30,0,0
2.7957e+05,1.1257e+08,4,5362,5485,15.65,2.78,31,30,0,0
2.7998e+05,1.1267e+08,4,5485,5528,15.67,2.96,31,30,0,0
2.8047e+05,1.1279e+08,4,5524,5485,15.64,2.67,31,30,0,0
2.8087e+05,1.1289e+08,4,5482,5342,15.67,2.75,31,30,0,0
2.8132e+05,1.13e+08,4,5346,5628,15.7,2.83,31,30,0,0
2.818e+05,1.1312e+08,4,5608,5414,15.73,2.26,31,30,0,0
2.822e+05,1.1322e+08,4,5413,5342,15.68,2.42,31,30,0,0
2.827e+05,1.1334e+08,4,5336,5271,15.67,2.55,31,30,0,0
2.831e+05,1.1344e+08,4,5277,5400,15.63,2.52,31,31,0,0
2.8396e+05,1.1365e+08,4,5400,5414,15.68,2.35,31,31,0,0
2.8445e+05,1.1377e+08,4,5403,5300,15.62,2.53,31,31,0,0
2.8484e+05,1.1386e+08,4,5304,5471,15.71,2.46,31,31,0,0
2.853e+05,1.1397e+08,4,5467,5385,15.68,2.3,31,31,0,0
2.8578e+05,1.1409e+08,4,5374,5228,15.68,2.27,31,31,0,0
2.8623e+05,1.142e+08,4,5230,5271,15.61,2.66,31,31,0,0
2.8667e+05,1.1431e+08,4,5294,5628,15.61,3.27,31,31,0,0
2.8712e+05,1.1442e+08,4,5630,5657,15.66,2.8,31,31,0,0
2.8757e+05,1.1453e+08,4,5634,5400,15.62,2.97,31,31,0,0
2.8798e+05,1.1463e+08,4,5403,5614,15.63,3.05,31,31,0,0
2.8842e+05,1.1474e+08,4,5612,5585,15.66,2.87,31,32,0,0
2.8887e+05,1.1485e+08,4,5574,5328,15.67,1.9,31,32,0,0
2.8936e+05,1.1496e+08,4,5306,5085,15.67,1.76,31,32,0,0
2.8977e+05,1.1507e+08,4,5072,4942,15.66,2.19,31,32,0,0
2.9021e+05,1.1518e+08,4,4938,4685,15.69,1.48,31,32,0,0
2.9065e+05,1.1529e+08,4,4686,4714,15.57,1.68,31,32,0,0
2.911e+05,1.154e+08,4,4709,4614,15.66,1.93,31,32,0,0
2.9155e+05,1.155e+08,4,4631,4885,15.62,2.18,31,32,0,0
2.9204e+05,1.1562e+08,4,4901,5014,15.68,2.28,31,32,0,0
2.9248e+05,1.1573e+08,4,5010,4971,15.61,1.95,31,32,0,0
2.9285e+05,1.1583e+08,4,4968,4900,15.63,2.35,31,32,0,0
2.9331e+05,1.1594e+08,4,4905,5028,15.63,2.44,31,32,0,0
2.9375e+05,1.1604e+08,4,5030,5128,15.6,2.57,31,32,0,0
2.9424e+05,1.1616e+08,4,5130,5171,15.63,2.36,31,32,0,0
2.9465e+05,1.1626e+08,4,5171,5185,15.68,2.41,31,32,0,0
2.9509e+05,1.1637e+08,4,5189,5285,15.72,2.43,31,32,0,0
2.9599e+05,1.1659e+08,4,5288,5357,15.64,2.68,31,33,0,0
2.9643e+05,1.167e+08,4,5345,5228,15.68,2.51,31,33,0,0
2.9684e+05,1.168e+08,4,5229,5300,15.67,2.45,31,33,0,0
2.9728e+05,1.1691e+08,4,5300,5314,15.66,2.46,31,33,0,0
2.9773e+05,1.1702e+08,4,5316,5514,15.65,2.58,31,33,0,0
2.9821e+05,1.1714e+08,4,5486,5228,15.66,2.6,31,33,0,0
2.9866e+05,1.1726e+08,4,5254,5442,15.64,2.64,31,33,0,0
2.995e+05,1.1745e+08,4,5442,5442,15.64,2.56,31,33,0,0
2.9999e+05,1.1758e+08,4,5428,5314,15.62,2.46,31,33,0,0
3.0043e+05,1.1769e+08,4,5321,5400,15.63,2.51,31,33,0,0
3.0084e+05,1.1778e+08,4,5399,5385,15.69,2.56,31,34,0,0
3.0128e+05,1.1789e+08,4,5386,5414,15.65,2.42,31,34,0,0
3.0176e+05,1.1801e+08,4,5412,5385,15.63,2.6,31,34,0,0
3.0217e+05,1.1811e+08,4,5386,5400,15.66,2.56,31,34,0,0
3.0266e+05,1.1823e+08,4,5403,5428,15.66,2.52,31,34,0,0
3.0306e+05,1.1833e+08,4,5427,5400,15.6,2.66,31,34,0,0
3.0351e+05,1.1844e+08,4,5397,5371,15.63,2.68,31,34,0,0
3.0395e+05,1.1855e+08,4,5369,5271,15.66,2.32,31,34,0,0
3.044e+05,1.1866e+08,4,5271,5271,15.63,2.27,31,34,0,0
3.048e+05,1.1876e+08,4,5272,5342,15.6,2.44,31,34,0,0
3.0569e+05,1.1897e+08,4,5340,5185,15.61,2.35,31,34,0,0
3.0617e+05,1.1909e+08,4,5184,5171,15.66,2.21,31,34,0,0
3.0662e+05,1.192e+08,4,5171,5171,15.69,2.14,31,34,0,0
3.0751e+05,1.1942e+08,4,5168,5100,15.69,2.24,31,35,0,0
3.0796e+05,1.1953e+08,4,5100,5100,15.58,2.34,31,35,0,0
3.0836e+05,1.1963e+08,4,5101,5128,15.61,2.26,31,35,0,0
3.0881e+05,1.1974e+08,4,5125,5000,15.62,1.91,31,35,0,0
3.0926e+05,1.1986e+08,4,4997,4957,15.63,2.15,31,35,0,0
3.0971e+05,1.1997e+08,4,4964,5071,15.6,2.16,31,35,0,0
3.1016e+05,1.2008e+08,4,5078,5157,15.7,2.32,31,35,0,0
3.1057e+05,1.2018e+08,4,5157,5185,15.68,2.32,31,35,0,0
3.1101e+05,1.2029e+08,4,5184,5171,15.66,2.26,31,35,0,0
3.1151e+05,1.2041e+08,4,5166,5128,15.66,2.07,31,35,0,0
3.1195e+05,1.2052e+08,4,5119,5000,15.63,2.24,31,35,0,0
3.124e+05,1.2062e+08,4,4989,4857,15.67,1.85,31,35,0,0
3.1281e+05,1.2073e+08,4,4858,4942,15.76,1.94,31,35,0,0
3.1326e+05,1.2084e+08,4,4939,4800,15.75,1.92,31,35,0,0
3.1374e+05,1.2095e+08,4,4795,4742,15.66,1.92,31,35,0,0
3.1415e+05,1.2106e+08,4,4742,4814,15.74,2.16,31,36,0,0
3.146e+05,1.2117e+08,4,4816,4928,15.69,1.99,31,36,0,0
3.1508e+05,1.2128e+08,4,4924,4885,15.73,1.87,31,36,0,0
3.1553e+05,1.2139e+08,4,4882,4857,15.67,1.93,31,36,0,0
3.1597e+05,1.215e+08,4,4864,4971,15.67,2.34,31,36,0,0
3.1642e+05,1.2161e+08,4,4985,5128,15.68,2.43,31,36,0,0
3.1685e+05,1.2171e+08,4,5135,5271,15.69,2.64,31,36,0,0
3.173e+05,1.2182e+08,4,5281,5428,15.61,2.6,31,36,0,0
3.1775e+05,1.2193e+08,4,5428,5428,15.63,2.64,31,36,0,0
3.1816e+05,1.2204e+08,4,5427,5400,15.72,2.45,31,36,0,0
3.1861e+05,1.2215e+08,4,5399,5371,15.62,2.45,31,36,0,0
3.1901e+05,1.2225e+08,4,5369,5271,15.68,2.35,31,36,0,0
3.195e+05,1.2236e+08,4,5273,5300,15.63,2.38,31,36,0,0
3.1994e+05,1.2247e+08,4,5298,5271,15.66,2.46,31,36,0,0
3.2039e+05,1.2258e+08,4,5269,5228,15.69,2.3,31,37,0,0
3.208e+05,1.2268e+08,4,5226,5128,15.59,2.07,31,37,0,0
3.2129e+05,1.228e+08,4,5129,5142,15.64,2.18,31,37,0,0
3.2173e+05,1.2291e+08,4,5135,5028,15.68,2.2,31,37,0,0
3.2218e+05,1.2302e+08,4,5024,4985,15.67,2.02,31,37,0,0
3.2263e+05,1.2313e+08,4,4993,5085,15.68,2.12,31,37,0,0
3.2303e+05,1.2323e+08,4,5085,5085,15.63,2.21,31,37,0,0
3.2396e+05,1.2346e+08,4,5090,5200,15.64,2.32,31,37,0,0
3.2441e+05,1.2357e+08,4,5196,5171,15.58,2.51,31,37,0,0
3.2485e+05,1.2368e+08,4,5185,5300,15.64,2.51,31,37,0,0
3.253e+05,1.2379e+08,4,5308,5385,15.69,2.49,31,37,0,0
3.2571e+05,1.239e+08,4,5377,5314,15.7,2.4,31,37,0,0
3.2616e+05,1.24e+08,4,5312,5200,15.66,2.52,31,37,0,0
3.266e+05,1.2411e+08,4,5217,5428,15.72,2.73,31,38,0,0
3.2706e+05,1.2422e+08,4,5433,5471,15.69,2.62,31,38,0,0
3.2746e+05,1.2432e+08,4,5474,5514,15.67,2.47,31,38,0,0
3.279e+05,1.2443e+08,4,5512,5500,15.71,2.9,31,38,0,0
3.2835e+05,1.2454e+08,4,5491,5414,15.66,2.8,31,38,0,0
3.2875e+05,1.2465e+08,4,5420,5557,15.69,2.87,31,38,0,0
3.2924e+05,1.2477e+08,4,5559,5585,15.72,2.37,31,38,0,0
3.2968e+05,1.2487e+08,4,5559,5242,15.65,2.61,31,38,0,0
3.3017e+05,1.2499e+08,4,5277,5657,15.69,3.06,31,38,0,0
3.3146e+05,1.2531e+08,4,5656,5542,15.69,2.64,31,38,0,0
3.3239e+05,1.2553e+08,4,5532,5328,15.66,2.42,31,39,0,0
3.3279e+05,1.2563e+08,4,5330,5400,15.68,2.6,31,39,0,0
3.3324e+05,1.2574e+08,4,5398,5342,15.68,2.66,31,39,0,0
3.3375e+05,1.2596e+08,4,5371,5385,15.63,2.97,31,39,0,0
3.342e+05,1.2607e+08,4,5391,5514,15.71,2.85,31,39,0,0
3.3465e+05,1.2618e+08,4,5523,5657,15.68,2.87,31,39,0,0
3.3509e+05,1.2628e+08,4,5647,5471,15.69,2.49,31,39,0,0
3.3554e+05,1.2639e+08,4,5471,5485,15.67,2.6,31,39,0,0
3.3595e+05,1.265e+08,4,5481,5400,15.69,2.61,31,39,0,0
3.3639e+05,1.2661e+08,4,5400,5414,15.72,2.46,31,39,0,0
3.3733e+05,1.2684e+08,4,5409,5300,15.66,2.75,31,40,0,0
3.3777e+05,1.2695e+08,4,5311,5428,15.68,2.79,31,40,0,0
3.3818e+05,1.2705e+08,4,5426,5414,15.7,2.77,31,40,0,0
3.3863e+05,1.2716e+08,4,5418,5485,15.69,2.7,31,40,0,0
3.3903e+05,1.2726e+08,4,5483,5471,15.72,2.59,31,40,0,0
3.3948e+05,1.2737e+08,4,5474,5528,15.7,2.97,31,40,0,0
3.3993e+05,1.2748e+08,4,5518,5414,15.75,2.42,31,40,0,0
3.4037e+05,1.2759e+08,4,5414,5414,15.66,2.68,31,40,0,0
3.4103e+05,1.2781e+08,4,5541,5528,15.67,2.9,31,40,0,0
3.4147e+05,1.2791e+08,4,5521,5457,15.72,2.63,31,40,0,0
3.4188e+05,1.2802e+08,4,5463,5600,15.66,2.97,31,40,0,0
3.4233e+05,1.2812e+08,4,5599,5585,15.68,2.8,31,41,0,0
3.4278e+05,1.2823e+08,4,5582,5528,15.63,2.7,31,41,0,0
3.4323e+05,1.2834e+08,4,5524,5485,15.65,2.75,31,41,0,0
3.4367e+05,1.2845e+08,4,5480,5414,15.66,2.55,31,41,0,0
3.4412e+05,1.2856e+08,4,5422,5500,15.66,2.56,31,41,0,0
3.4456e+05,1.2867e+08,4,5498,5485,15.67,2.78,31,41,0,0
3.4542e+05,1.2888e+08,4,5486,5542,15.69,2.94,31,41,0,0
3.4586e+05,1.2899e+08,4,5542,5542,15.72,2.54,31,41,0,0
3.4631e+05,1.291e+08,4,5538,5500,15.58,2.76,31,41,0,0
3.4672e+05,1.292e+08,4,5502,5628,15.64,3.1,31,41,0,0
3.472e+05,1.2932e+08,4,5626,5614,15.66,2.87,31,41,0,0
3.4766e+05,1.2944e+08,4,5617,5657,15.63,3.08,32,42,0,0
3.481e+05,1.2954e+08,4,5669,5785,15.51,3.18,32,42,0,0
3.485e+05,1.2964e+08,4,5797,5971,15.54,3.39,31,42,0,0
3.4895e+05,1.2975e+08,4,5967,5914,15.57,3.09,31,42,0,0
3.4934e+05,1.2986e+08,4,5903,5685,15.6,2.83,31,42,0,0
3.4979e+05,1.2997e+08,4,5678,5585,15.57,2.75,31,42,0,0
3.5024e+05,1.3008e+08,4,5573,5457,15.63,2.58,32,42,0,0
3.5068e+05,1.3019e+08,4,5454,5414,15.64,2.58,31,42,0,0
3.5113e+05,1.303e+08,4,5397,5242,15.72,2.18,31,42,0,0
3.5154e+05,1.304e+08,4,5235,5142,15.69,2.39,32,42,0,0
3.5247e+05,1.3063e+08,4,5150,5300,15.69,2.69,32,42,0,0
3.5292e+05,1.3074e+08,4,5305,5357,15.66,2.63,32,43,0,0
3.5332e+05,1.3084e+08,4,5356,5314,15.72,2.48,32,43,0,0
3.5381e+05,1.3096e+08,4,5320,5371,15.7,2.27,31,43,0,0
3.5421e+05,1.3106e+08,4,5373,5414,15.67,2.52,32,43,0,0
3.5466e+05,1.3117e+08,4,5409,5314,15.69,1.8,31,43,0,0
3.5506e+05,1.3127e+08,4,5300,5042,15.69,2.09,32,43,0,0
3.5552e+05,1.3138e+08,4,5042,5042,15.75,2.01,32,43,0,0
3.5593e+05,1.3149e+08,4,5002,4628,16.25,0.65,31,43,0,0
3.5633e+05,1.3159e+08,4,4603,4085,15.8,2.51,32,43,0,0
3.5678e+05,1.3169e+08,4,4068,3000,16.05,0.18,31,43,0,0
3.5722e+05,1.318e+08,4,2992,2557,16.08,0.3,32,43,0,0
3.577e+05,1.3192e+08,4,2555,2528,16.07,0.35,32,43,0,0
3.5815e+05,1.3203e+08,4,2513,2385,16.02,0.24,32,43,0,0
3.586e+05,1.3214e+08,4,2378,2314,16.03,0.28,32,43,0,0
3.59e+05,1.3224e+08,4,2310,2242,16.05,0.25,32,43,0,0
3.5945e+05,1.3235e+08,4,2237,2200,16.04,0.28,32,43,0,0
3.5985e+05,1.3245e+08,4,2201,2228,16.07,0.25,32,43,0,0
3.6034e+05,1.3258e+08,4,2220,2171,16.05,0.23,32,43,0,0
3.6075e+05,1.3268e+08,4,2175,2228,16.05,0.25,32,43,0,0
3.612e+05,1.3279e+08,4,2223,2185,16.07,0.22,32,43,0,0
3.6161e+05,1.3289e+08,4,2184,2171,16.05,0.27,32,43,0,0
3.625e+05,1.3311e+08,4,2169,2142,16.05,0.22,31,43,0,0
3.6339e+05,1.3333e+08,4,2138,2071,16.07,0.21,31,43,0,0
3.6384e+05,1.3344e+08,4,2072,2085,16.07,0.24,32,43,0,0
3.6424e+05,1.3353e+08,4,2085,2114,16.15,0.17,31,43,0,0
3.6473e+05,1.3365e+08,4,2084,1785,16.14,0.01,31,43,0,0
3.6513e+05,1.3375e+08,4,1772,1442,16.13,0.03,31,43,0,0
3.6558e+05,1.3386e+08,4,1435,1357,16.12,0.1,31,43,0,0
3.6603e+05,1.3397e+08,4,1354,1328,16.11,0.11,31,43,0,0
3.6644e+05,1.3407e+08,4,1328,1328,16.13,0.11,31,43,0,0
3.6693e+05,1.3419e+08,4,1328,1328,16.14,0.11,31,43,0,0
3.6733e+05,1.3429e+08,4,1328,1342,16.13,0.11,31,43,0,0
3.6778e+05,1.3439e+08,4,1342,1342,16.13,0.11,31,43,0,0
3.6827e+05,1.3451e+08,4,1342,1342,16.14,0.11,31,43,0,0
3.6868e+05,1.3462e+08,4,1342,1342,16.13,0.11,31,43,0,0
3.6917e+05,1.3473e+08,4,1342,1342,16.14,0.11,31,43,0,0
3.7011e+05,1.3495e+08,4,1342,1342,16.14,0.11,31,43,0,0
3.7051e+05,1.3505e+08,4,1342,1342,16.14,0.11,31,43,0,0
3.7099e+05,1.3516e+08,4,1342,1342,16.14,0.11,31,43,0,0
3.7144e+05,1.3527e+08,4,1342,1342,16.14,0.11,31,43,0,0
3.7194e+05,1.3538e+08,4,1342,1342,16.16,0.11,31,43,0,0
3.7238e+05,1.3549e+08,4,1342,1342,16.15,0.11,31,43,0,0
3.7283e+05,1.356e+08,4,1341,1328,16.15,0.11,31,43,0,0
3.7327e+05,1.357e+08,4,1328,1342,16.16,0.11,31,43,0,0
3.7368e+05,1.358e+08,4,1342,1342,16.15,0.11,31,43,0,0
3.7413e+05,1.3592e+08,4,1341,1328,16.16,0.11,31,43,0,0
3.7458e+05,1.3603e+08,4,1328,1328,16.16,0.11,31,43,0,0
3.7504e+05,1.3614e+08,4,1328,1328,16.15,0.11,31,43,0,0
3.7543e+05,1.3623e+08,4,1328,1328,16.16,0.11,31,43,0,0
3.7589e+05,1.3634e+08,4,1328,1328,16.14,0.11,31,43,0,0
3.7633e+05,1.3645e+08,4,1328,1328,16.13,0.11,31,43,0,0
3.7678e+05,1.3656e+08,4,1328,1328,16.16,0.11,31,43,0,0
3.7722e+05,1.3667e+08,4,1328,1328,16.16,0.11,31,43,0,0
3.7767e+05,1.3678e+08,4,1328,1328,16.16,0.11,31,43,0,0
3.7812e+05,1.3689e+08,4,1328,1328,16.16,0.11,31,43,0,0
3.7857e+05,1.37e+08,4,1329,1342,16.16,0.11,31,43,0,0
3.7897e+05,1.3709e+08,4,1341,1328,16.16,0.11,31,43,0,0
3.7946e+05,1.3721e+08,4,1328,1328,16.17,0.11,31,43,0,0
3.7991e+05,1.3732e+08,4,1328,1328,16.17,0.11,31,43,0,0
3.8036e+05,1.3743e+08,4,1328,1328,16.17,0.11,31,43,0,0
3.8125e+05,1.3764e+08,4,1328,1328,16.17,0.11,31,43,0,0
3.8173e+05,1.3775e+08,4,1329,1342,16.17,0.11,31,43,0,0
3.8217e+05,1.3786e+08,4,1342,1342,16.17,0.11,31,43,0,0
3.8306e+05,1.3807e+08,4,1341,1328,16.17,0.11,31,43,0,0
3.8351e+05,1.3818e+08,4,1328,1342,16.19,0.11,31,43,0,0
3.8396e+05,1.3829e+08,4,1342,1342,16.18,0.1,31,43,0,0
3.8441e+05,1.384e+08,4,1342,1342,16.18,0.11,31,43,0,0
3.8486e+05,1.385e+08,4,1342,1342,16.19,0.11,31,43,0,0
3.853e+05,1.3861e+08,4,1340,1328,16.17,0.11,31,43,0,0
3.8575e+05,1.3872e+08,4,1328,1342,16.19,0.11,31,43,0,0
3.862e+05,1.3883e+08,4,1342,1342,16.19,0.1,31,43,0,0
3.8664e+05,1.3893e+08,4,1342,1342,16.19,0.1,31,43,0,0
3.8709e+05,1.3904e+08,4,1342,1342,16.19,0.1,31,43,0,0
3.8753e+05,1.3915e+08,4,1342,1342,16.19,0.1,31,43,0,0
3.8794e+05,1.3925e+08,4,1342,1342,16.19,0.1,31,43,0,0
3.8843e+05,1.3936e+08,4,1342,1342,16.19,0.11,31,43,0,0
3.8888e+05,1.3947e+08,4,1342,1342,16.19,0.11,31,43,0,0
3.8933e+05,1.3958e+08,4,1342,1342,16.19,0.1,31,43,0,0
3.8977e+05,1.3969e+08,4,1342,1342,16.2,0.1,31,43,0,0
3.9062e+05,1.3989e+08,4,1341,1328,16.2,0.11,31,43,0,0
3.916e+05,1.4012e+08,4,1328,1342,16.22,0.08,31,43,0,0
3.9205e+05,1.4023e+08,4,1223,314,16.21,0,31,43,0,0
3.9295e+05,1.4044e+08,4,307,0,16.22,0.04,31,43,0,0
3.9345e+05,1.4056e+08,4,0,0,16.21,0.04,31,43,0,0
3.939e+05,1.4067e+08,4,0,0,16.22,0.04,31,43,0,0
3.9435e+05,1.4077e+08,4,0,0,16.22,0.04,31,43,0,0
3.948e+05,1.4088e+08,4,0,0,16.22,0.04,31,43,0,0
3.9526e+05,1.4099e+08,4,0,0,16.22,0.04,31,43,0,0
3.9571e+05,1.411e+08,4,0,0,16.22,0.04,31,43,0,0
3.9616e+05,1.412e+08,4,0,0,16.22,0.04,31,43,0,0
3.9666e+05,1.4132e+08,4,0,0,16.22,0.04,31,43,0,0
3.9711e+05,1.4143e+08,4,0,0,16.23,0.04,30,43,0,0
3.9756e+05,1.4153e+08,4,0,0,16.22,0.04,30,43,0,0
3.9801e+05,1.4164e+08,4,0,0,16.23,0.04,30,43,0,0
3.9851e+05,1.4176e+08,4,0,0,16.23,0.04,30,43,0,0
3.9892e+05,1.4186e+08,4,0,0,16.22,0.04,30,43,0,0
3.9941e+05,1.4197e+08,4,0,0,16.22,0.04,30,43,0,0
3.9986e+05,1.4208e+08,4,0,0,16.22,0.04,30,43,0,0
4.0032e+05,1.4218e+08,4,0,0,16.23,0.04,30,43,0,0
4.0077e+05,1.4229e+08,4,0,0,16.23,0.04,30,43,0,0
4.0126e+05,1.4241e+08,4,0,0,16.23,0.04,30,43,0,0
4.0171e+05,1.4252e+08,4,0,0,16.23,0.04,30,43,0,0
4.0221e+05,1.4263e+08,4,0,0,16.23,0.04,30,43,0,0
4.0266e+05,1.4274e+08,4,0,0,16.23,0.04,30,43,0,0
4.0307e+05,1.4284e+08,4,0,0,16.23,0.04,30,43,0,0
4.0357e+05,1.4295e+08,4,0,0,16.23,0.04,30,43,0,0
4.0402e+05,1.4307e+08,4,0,0,16.23,0.04,30,43,0,0
4.0447e+05,1.4317e+08,4,0,0,16.23,0.04,30,43,0,0
4.0493e+05,1.4328e+08,4,0,0,16.23,0.04,30,43,0,0
4.0538e+05,1.4338e+08,4,0,0,16.23,0.04,30,43,0,0
4.0583e+05,1.4349e+08,4,0,0,16.23,0.04,30,43,0,0
4.0632e+05,1.436e+08,4,0,0,16.23,0.04,30,43,0,0
4.0678e+05,1.4371e+08,4,0,0,16.24,0.04,30,43,0,0
4.0723e+05,1.4382e+08,4,0,0,16.24,0.04,30,43,0,0
4.0768e+05,1.4393e+08,4,0,0,16.24,0.04,30,43,0,0
4.0817e+05,1.4404e+08,4,0,0,16.24,0.04,30,43,0,0
4.0862e+05,1.4415e+08,4,0,0,16.25,0.04,30,43,0,0
4.0908e+05,1.4426e+08,4,0,0,16.24,0.04,30,43,0,0
