LineNo,TimeUS,Instance,RPM,RawRPM,Volt,Curr,Temp,CTot,MotTemp,Err
1734,4.5403e+07,1,0,0,16.76,0.03,25,0,0,0
2189,4.5516e+07,1,0,0,16.76,0.04,25,0,0,0
2609,4.5619e+07,1,0,0,16.76,0.04,24,0,0,0
3023,4.5724e+07,1,0,0,16.77,0.04,25,0,0,0
3478,4.5837e+07,1,0,0,16.76,0.04,25,0,0,0
3894,4.5939e+07,1,0,0,16.76,0.03,24,0,0,0
4349,4.6049e+07,1,0,0,16.76,0.03,24,0,0,0
4762,4.6153e+07,1,0,0,16.76,0.03,25,0,0,0
5180,4.6257e+07,1,0,0,16.76,0.03,24,0,0,0
5633,4.6369e+07,1,0,0,16.76,0.03,25,0,0,0
6048,4.6474e+07,1,0,0,16.76,0.03,25,0,0,0
6505,4.6586e+07,1,0,0,16.76,0.03,25,0,0,0
6918,4.6687e+07,1,0,0,16.76,0.03,25,0,0,0
7371,4.6799e+07,1,0,0,16.76,0.03,24,0,0,0
7786,4.69e+07,1,0,0,16.76,0.03,25,0,0,0
8244,4.7014e+07,1,0,0,16.76,0.03,25,0,0,0
8654,4.7115e+07,1,0,0,16.76,0.03,25,0,0,0
9068,4.7216e+07,1,0,0,16.76,0.03,25,0,0,0
9419,4.7331e+07,1,0,0,16.76,0.03,25,0,0,0
9831,4.7432e+07,1,0,0,16.76,0.03,25,0,0,0
10249,4.7535e+07,1,0,0,16.76,0.03,25,0,0,0
10705,4.7648e+07,1,0,0,16.76,0.03,25,0,0,0
11089,4.7749e+07,1,0,0,16.76,0.04,25,0,0,0
11504,4.7854e+07,1,0,0,16.76,0.03,25,0,0,0
11956,4.7964e+07,1,0,0,16.76,0.03,25,0,0,0
12409,4.8073e+07,1,0,0,16.76,0.03,25,0,0,0
12819,4.8174e+07,1,0,0,16.76,0.03,25,0,0,0
13237,4.8281e+07,1,0,0,16.76,0.03,25,0,0,0
13647,4.8383e+07,1,0,0,16.76,0.03,25,0,0,0
14100,4.8496e+07,1,0,0,16.76,0.03,25,0,0,0
14517,4.8597e+07,1,0,0,16.76,0.03,25,0,0,0
14967,4.8708e+07,1,0,0,16.77,0.03,25,0,0,0
15834,4.8924e+07,1,0,0,16.76,0.03,25,0,0,0
16250,4.9028e+07,1,0,0,16.76,0.03,25,0,0,0
16664,4.913e+07,1,0,0,16.76,0.03,25,0,0,0
17116,4.9245e+07,1,0,0,16.76,0.03,25,0,0,0
17529,4.9346e+07,1,0,0,16.76,0.03,25,0,0,0
17941,4.9448e+07,1,0,0,16.76,0.03,24,0,0,0
18396,4.9558e+07,1,0,0,16.76,0.03,25,0,0,0
18807,4.9663e+07,1,0,0,16.76,0.03,25,0,0,0
19260,4.9775e+07,1,0,0,16.76,0.04,25,0,0,0
19634,4.9871e+07,1,0,0,16.76,0.03,25,0,0,0
20089,4.9982e+07,1,0,0,16.76,0.04,25,0,0,0
20543,5.0095e+07,1,0,0,16.76,0.04,25,0,0,0
20952,5.0196e+07,1,0,0,16.76,0.04,25,0,0,0
21367,5.0303e+07,1,0,0,16.76,0.03,25,0,0,0
21780,5.0409e+07,1,0,0,16.76,0.03,25,0,0,0
22236,5.0521e+07,1,0,0,16.76,0.03,25,0,0,0
22646,5.0623e+07,1,0,0,16.76,0.03,25,0,0,0
23099,5.0734e+07,1,0,0,16.76,0.03,25,0,0,0
23517,5.0839e+07,1,0,0,16.76,0.03,25,0,0,0
23932,5.0941e+07,1,0,0,16.75,0.03,25,0,0,0
24348,5.1045e+07,1,0,0,16.76,0.04,25,0,0,0
24802,5.1155e+07,1,0,0,16.76,0.03,25,0,0,0
25251,5.1266e+07,1,0,0,16.76,0.04,25,0,0,0
25664,5.1367e+07,1,0,0,16.76,0.04,25,0,0,0
26113,5.1479e+07,1,0,0,16.76,0.04,25,0,0,0
26529,5.1581e+07,1,0,0,16.76,0.03,25,0,0,0
26944,5.1689e+07,1,0,0,16.76,0.03,25,0,0,0
27357,5.179e+07,1,0,0,16.76,0.04,25,0,0,0
28674,5.212e+07,1,0,0,16.76,0.03,25,0,0,0
29079,5.2222e+07,1,0,0,16.76,0.04,25,0,0,0
29495,5.2326e+07,1,0,0,16.76,0.03,25,0,0,0
29908,5.243e+07,1,0,0,16.76,0.04,25,0,0,0
30368,5.2542e+07,1,0,0,16.76,0.03,25,0,0,0
30791,5.2646e+07,1,0,0,16.76,0.03,25,0,0,0
31289,5.2757e+07,1,0,0,16.76,0.03,25,0,0,0
31742,5.2861e+07,1,0,0,16.76,0.03,25,0,0,0
32242,5.2974e+07,1,0,0,16.75,0.04,25,0,0,0
32654,5.3072e+07,1,0,0,16.76,0.03,25,0,0,0
33155,5.3184e+07,1,0,0,16.75,0.03,25,0,0,0
33649,5.3298e+07,1,0,0,16.76,0.04,25,0,0,0
34097,5.3402e+07,1,0,0,16.76,0.04,25,0,0,0
34549,5.3505e+07,1,0,0,16.76,0.03,25,0,0,0
35049,5.3616e+07,1,0,0,16.75,0.03,25,0,0,0
35497,5.3721e+07,1,0,0,16.76,0.04,25,0,0,0
35947,5.3822e+07,1,0,0,16.76,0.04,25,0,0,0
36445,5.3934e+07,1,0,0,16.76,0.04,25,0,0,0
36935,5.4041e+07,1,0,0,16.76,0.04,25,0,0,0
37390,5.4143e+07,1,0,0,16.76,0.04,25,0,0,0
37886,5.4257e+07,1,0,0,16.75,0.04,25,0,0,0
38336,5.4358e+07,1,0,0,16.75,0.04,25,0,0,0
38788,5.4462e+07,1,0,0,16.76,0.04,25,0,0,0
39288,5.4575e+07,1,14,171,16.75,0.03,25,0,0,0
39737,5.4678e+07,1,183,528,16.74,0.07,25,0,0,0
40233,5.4792e+07,1,561,914,16.73,0.14,25,0,0,0
41038,5.5001e+07,1,1232,1300,16.73,0.11,25,0,0,0
41490,5.5106e+07,1,1301,1342,16.75,0.11,25,0,0,0
41999,5.5226e+07,1,1342,1342,16.74,0.11,25,0,0,0
42454,5.5326e+07,1,1343,1357,16.73,0.11,25,0,0,0
42902,5.5429e+07,1,1356,1342,16.73,0.11,25,0,0,0
43403,5.5543e+07,1,1343,1357,16.73,0.11,25,0,0,0
43813,5.5639e+07,1,1357,1357,16.74,0.11,25,0,0,0
44311,5.5749e+07,1,1357,1357,16.75,0.11,25,0,0,0
44767,5.5854e+07,1,1357,1357,16.73,0.11,25,0,0,0
45267,5.5965e+07,1,1357,1357,16.74,0.11,25,0,0,0
45714,5.6066e+07,1,1357,1357,16.75,0.11,25,0,0,0
46174,5.617e+07,1,1357,1357,16.75,0.11,25,0,0,0
46670,5.6283e+07,1,1357,1357,16.73,0.11,25,0,0,0
47122,5.6384e+07,1,1357,1357,16.73,0.11,25,0,0,0
47576,5.6488e+07,1,1356,1342,16.73,0.11,25,0,0,0
48075,5.6601e+07,1,1343,1357,16.74,0.11,25,0,0,0
48531,5.6708e+07,1,1355,1342,16.74,0.11,25,0,0,0
48984,5.681e+07,1,1342,1357,16.75,0.11,25,0,0,0
49475,5.6921e+07,1,1356,1342,16.74,0.11,25,0,0,0
49932,5.7028e+07,1,1342,1342,16.74,0.11,25,0,0,0
50389,5.7131e+07,1,1342,1342,16.73,0.1,25,0,0,0
50839,5.7236e+07,1,1342,1357,16.73,0.11,25,0,0,0
51340,5.7347e+07,1,1357,1357,16.74,0.11,25,0,0,0
51790,5.7451e+07,1,1357,1357,16.73,0.1,25,0,0,0
52288,5.7565e+07,1,1357,1357,16.73,0.11,25,0,0,0
52741,5.767e+07,1,1357,1357,16.74,0.11,25,0,0,0
53197,5.7774e+07,1,1356,1342,16.75,0.11,25,0,0,0
53682,5.7881e+07,1,1342,1357,16.73,0.11,25,0,0,0
54180,5.7993e+07,1,1355,1342,16.74,0.11,25,0,0,0
54591,5.809e+07,1,1342,1342,16.74,0.11,25,0,0,0
55093,5.8205e+07,1,1342,1357,16.74,0.11,25,0,0,0
55545,5.831e+07,1,1355,1342,16.75,0.11,25,0,0,0
56000,5.8417e+07,1,1342,1342,16.73,0.11,25,0,0,0
56493,5.8529e+07,1,1343,1357,16.74,0.11,25,0,0,0
56944,5.8633e+07,1,1357,1357,16.74,0.11,25,0,0,0
57398,5.8736e+07,1,1356,1342,16.74,0.11,25,0,0,0
58306,5.8947e+07,1,1342,1357,16.75,0.11,25,0,0,0
58761,5.9056e+07,1,1357,1357,16.73,0.11,25,0,0,0
59220,5.9163e+07,1,1357,1357,16.73,0.11,25,0,0,0
59671,5.9266e+07,1,1357,1357,16.74,0.11,25,0,0,0
60165,5.9377e+07,1,1356,1342,16.73,0.11,25,0,0,0
60617,5.9481e+07,1,1342,1357,16.74,0.1,25,0,0,0
61117,5.9591e+07,1,1357,1357,16.74,0.1,25,0,0,0
61577,5.97e+07,1,1355,1342,16.73,0.1,25,0,0,0
62030,5.98e+07,1,1342,1357,16.74,0.11,25,0,0,0
62445,5.9903e+07,1,1357,1357,16.73,0.11,25,0,0,0
62947,6.0015e+07,1,1357,1357,16.75,0.1,25,0,0,0
63394,6.0119e+07,1,1357,1357,16.74,0.1,25,0,0,0
63894,6.0237e+07,1,1355,1342,16.73,0.1,25,0,0,0
64350,6.0339e+07,1,1342,1357,16.73,0.1,25,0,0,0
64807,6.0446e+07,1,1355,1342,16.74,0.11,25,0,0,0
65259,6.0548e+07,1,1342,1357,16.74,0.11,25,0,0,0
65746,6.0657e+07,1,1357,1357,16.73,0.1,25,0,0,0
66247,6.077e+07,1,1357,1357,16.74,0.11,25,0,0,0
66701,6.0874e+07,1,1357,1357,16.73,0.1,25,0,0,0
67157,6.0975e+07,1,1357,1357,16.73,0.1,25,0,0,0
67657,6.1095e+07,1,1355,1342,16.74,0.11,25,0,0,0
68109,6.1196e+07,1,1342,1342,16.73,0.1,25,0,0,0
68560,6.1295e+07,1,1342,1342,16.73,0.1,25,0,0,0
69058,6.1406e+07,1,1343,1357,16.73,0.1,25,0,0,0
69510,6.1509e+07,1,1357,1357,16.73,0.11,25,0,0,0
69955,6.1612e+07,1,1356,1342,16.74,0.11,25,0,0,0
70454,6.1724e+07,1,1342,1342,16.74,0.1,25,0,0,0
70906,6.1829e+07,1,1342,1357,16.73,0.11,25,0,0,0
71403,6.1936e+07,1,1356,1342,16.74,0.1,25,0,0,0
71854,6.2042e+07,1,1342,1357,16.73,0.1,25,0,0,0
72355,6.2158e+07,1,1357,1357,16.74,0.1,25,0,0,0
72812,6.2266e+07,1,1355,1342,16.73,0.1,25,0,0,0
73265,6.2368e+07,1,1342,1357,16.73,0.1,25,0,0,0
73759,6.2484e+07,1,1355,1342,16.77,0.08,25,0,0,0
74195,6.259e+07,1,1277,328,16.75,0,25,0,0,0
74646,6.2701e+07,1,297,0,16.76,0.01,25,0,0,0
75101,6.281e+07,1,0,0,16.75,0.03,25,0,0,0
75512,6.2905e+07,1,0,0,16.76,0.03,25,0,0,0
76043,6.3027e+07,1,0,0,16.75,0.04,25,0,0,0
76499,6.3131e+07,1,0,0,16.76,0.03,25,0,0,0
76954,6.3242e+07,1,0,0,16.76,0.03,25,0,0,0
77409,6.3347e+07,1,0,0,16.75,0.03,25,0,0,0
77863,6.3456e+07,1,0,0,16.75,0.03,25,0,0,0
78316,6.3559e+07,1,0,0,16.76,0.03,25,0,0,0
78810,6.3679e+07,1,0,0,16.75,0.03,25,0,0,0
79263,6.3782e+07,1,0,0,16.75,0.03,25,0,0,0
79722,6.3893e+07,1,0,0,16.76,0.03,25,0,0,0
80218,6.4008e+07,1,0,0,16.76,0.03,25,0,0,0
80668,6.4114e+07,1,0,0,16.75,0.03,25,0,0,0
81125,6.4228e+07,1,0,0,16.75,0.03,25,0,0,0
81579,6.4333e+07,1,0,0,16.75,0.03,25,0,0,0
82483,6.4548e+07,1,0,0,16.75,0.03,25,0,0,0
82975,6.4661e+07,1,0,0,16.76,0.03,25,0,0,0
83429,6.4765e+07,1,0,0,16.75,0.04,25,0,0,0
83888,6.4877e+07,1,0,0,16.75,0.03,25,0,0,0
84384,6.499e+07,1,0,0,16.75,0.03,25,0,0,0
84836,6.5098e+07,1,0,0,16.76,0.03,25,0,0,0
85288,6.5202e+07,1,0,0,16.75,0.03,25,0,0,0
85781,6.5316e+07,1,0,0,16.75,0.03,25,0,0,0
86233,6.5422e+07,1,0,0,16.76,0.04,25,0,0,0
86689,6.553e+07,1,0,0,16.76,0.03,25,0,0,0
87139,6.5638e+07,1,0,0,16.76,0.03,25,0,0,0
87635,6.5752e+07,1,0,0,16.75,0.03,25,0,0,0
88541,6.5963e+07,1,0,0,16.75,0.03,25,0,0,0
89040,6.6083e+07,1,0,0,16.75,0.03,25,0,0,0
89492,6.6188e+07,1,0,0,16.75,0.03,25,0,0,0
89936,6.6293e+07,1,0,0,16.75,0.03,25,0,0,0
90434,6.641e+07,1,0,0,16.75,0.03,25,0,0,0
90894,6.6519e+07,1,0,0,16.75,0.03,25,0,0,0
91345,6.6624e+07,1,0,0,16.75,0.03,25,0,0,0
91798,6.6727e+07,1,0,0,16.75,0.03,25,0,0,0
92253,6.6834e+07,1,0,0,16.75,0.03,25,0,0,0
92716,6.6941e+07,1,0,0,16.76,0.04,25,0,0,0
93170,6.705e+07,1,0,0,16.75,0.03,25,0,0,0
93670,6.7163e+07,1,0,0,16.75,0.03,25,0,0,0
94120,6.7269e+07,1,0,0,16.76,0.03,25,0,0,0
94576,6.7373e+07,1,0,0,16.75,0.03,25,0,0,0
95069,6.7487e+07,1,0,0,16.76,0.03,25,0,0,0
95526,6.759e+07,1,0,0,16.75,0.03,25,0,0,0
96019,6.7704e+07,1,0,0,16.75,0.03,25,0,0,0
96472,6.7807e+07,1,0,0,16.75,0.03,25,0,0,0
96929,6.7915e+07,1,0,0,16.75,0.03,25,0,0,0
97377,6.8018e+07,1,0,0,16.75,0.03,25,0,0,0
97871,6.8131e+07,1,0,0,16.75,0.03,25,0,0,0
98820,6.8351e+07,1,0,0,16.75,0.03,25,0,0,0
99270,6.8458e+07,1,0,0,16.75,0.03,25,0,0,0
99727,6.8563e+07,1,6,171,16.74,0.03,25,0,0,0
1.0022e+05,6.8679e+07,1,204,571,16.74,0.08,25,0,0,0
1.0067e+05,6.8783e+07,1,608,985,16.73,0.14,25,0,0,0
1.0113e+05,6.8888e+07,1,996,1242,16.73,0.12,25,0,0,0
1.0159e+05,6.8994e+07,1,1245,1300,16.73,0.11,25,0,0,0
1.0204e+05,6.91e+07,1,1301,1328,16.73,0.11,25,0,0,0
1.0254e+05,6.9219e+07,1,1328,1328,16.73,0.11,25,0,0,0
1.0299e+05,6.9322e+07,1,1329,1342,16.74,0.11,25,0,0,0
1.0345e+05,6.9431e+07,1,1343,1357,16.73,0.11,25,0,0,0
1.039e+05,6.9534e+07,1,1370,1571,16.69,0.23,25,0,0,0
1.0436e+05,6.9647e+07,1,1623,2171,16.63,0.51,25,0,0,0
1.0504e+05,6.9857e+07,1,2454,2228,16.58,0.29,25,0,0,0
1.0554e+05,6.9969e+07,1,2250,2500,16.69,0.45,25,0,0,0
1.0595e+05,7.007e+07,1,2498,2414,16.72,0.39,26,0,0,0
1.0645e+05,7.0185e+07,1,2421,2500,16.73,0.39,25,0,0,0
1.069e+05,7.0294e+07,1,2512,2642,16.61,0.52,25,0,0,0
1.0736e+05,7.0402e+07,1,2683,3242,16.5,1.32,25,0,0,0
1.0781e+05,7.0511e+07,1,3308,3971,16.39,1.65,25,0,0,0
1.0826e+05,7.0617e+07,1,4017,4642,16.23,2.61,25,0,0,0
1.0871e+05,7.0725e+07,1,4682,5100,16.25,2.83,25,0,0,0
1.0913e+05,7.0828e+07,1,5109,5700,16.01,3.52,25,1,0,0
1.0958e+05,7.0933e+07,1,5702,5814,16.1,3.36,25,1,0,0
1.1008e+05,7.1052e+07,1,5804,5671,16.18,2.54,25,1,0,0
1.1053e+05,7.1156e+07,1,5662,5300,16.27,1.73,25,1,0,0
1.1098e+05,7.1266e+07,1,5284,4942,16.29,1.62,25,1,0,0
1.1148e+05,7.1381e+07,1,4936,4885,16.26,1.73,25,1,0,0
1.1193e+05,7.1492e+07,1,4872,4742,16.21,1.58,25,1,0,0
1.1238e+05,7.1595e+07,1,4741,4728,16.25,1.63,25,1,0,0
1.1284e+05,7.1707e+07,1,4729,4757,16.18,1.57,26,1,0,0
1.1371e+05,7.1914e+07,1,4752,4328,16.23,1.56,26,1,0,0
1.1423e+05,7.2035e+07,1,4318,4214,16.24,1.67,25,1,0,0
1.1468e+05,7.2139e+07,1,4213,4200,16.08,1.89,26,1,0,0
1.1513e+05,7.2249e+07,1,4211,4371,16.14,2.68,26,1,0,0
1.1559e+05,7.2354e+07,1,4377,4785,16.25,2.05,26,1,0,0
1.1608e+05,7.2473e+07,1,4805,5028,16.26,2.14,26,1,0,0
1.1654e+05,7.2581e+07,1,5012,4857,16.18,2.04,26,2,0,0
1.1699e+05,7.2686e+07,1,4872,5114,16.13,2.21,26,2,0,0
1.1744e+05,7.2793e+07,1,5114,5128,16.13,2.36,26,2,0,0
1.1789e+05,7.29e+07,1,5128,5157,16.1,2.25,26,2,0,0
1.1839e+05,7.3019e+07,1,5167,5285,16.13,2.11,26,2,0,0
1.188e+05,7.3113e+07,1,5275,5085,16.21,2.03,26,2,0,0
1.1926e+05,7.3229e+07,1,5090,5142,16.18,2.2,26,2,0,0
1.1971e+05,7.3336e+07,1,5143,5171,16.11,2.16,26,2,0,0
1.2016e+05,7.3445e+07,1,5178,5285,16.13,2.29,26,2,0,0
1.2062e+05,7.3551e+07,1,5274,5128,16.13,2.12,26,2,0,0
1.2107e+05,7.3661e+07,1,5127,5114,16.16,2.05,26,2,0,0
1.2157e+05,7.3777e+07,1,5105,5014,16.16,1.75,26,2,0,0
1.2199e+05,7.3879e+07,1,5004,4914,16.15,2.04,26,2,0,0
1.2244e+05,7.3986e+07,1,4920,5014,16.08,2.04,26,2,0,0
1.2289e+05,7.4097e+07,1,5014,5028,16.09,1.94,26,2,0,0
1.2376e+05,7.4311e+07,1,5026,4871,16.11,1.69,26,2,0,0
1.247e+05,7.454e+07,1,4864,4785,16.04,1.79,26,3,0,0
1.251e+05,7.4633e+07,1,4786,4857,16.05,1.99,26,3,0,0
1.2555e+05,7.4747e+07,1,4868,5071,16,2.28,26,3,0,0
1.26e+05,7.4857e+07,1,5073,5271,16,2.3,26,3,0,0
1.2649e+05,7.4978e+07,1,5246,5071,16,2.21,26,3,0,0
1.2693e+05,7.5082e+07,1,5083,5157,16.07,2.05,26,3,0,0
1.2734e+05,7.5179e+07,1,5154,4957,16.13,1.83,26,3,0,0
1.2779e+05,7.5294e+07,1,4955,4942,16.13,1.66,26,3,0,0
1.2824e+05,7.5401e+07,1,4924,4714,16.18,1.55,26,3,0,0
1.2872e+05,7.5522e+07,1,4712,4700,16.21,1.42,26,3,0,0
1.2961e+05,7.5739e+07,1,4686,4385,16.27,1.55,26,3,0,0
1.3002e+05,7.584e+07,1,4386,4428,16.22,1.48,26,3,0,0
1.3048e+05,7.595e+07,1,4427,4385,16.21,1.44,26,3,0,0
1.3092e+05,7.6061e+07,1,4389,4585,16.2,1.72,26,3,0,0
1.3137e+05,7.6169e+07,1,4586,4757,16.16,1.84,26,3,0,0
1.3185e+05,7.6282e+07,1,4760,4785,16.16,1.86,26,3,0,0
1.323e+05,7.639e+07,1,4785,4785,16.08,1.41,26,4,0,0
1.3274e+05,7.6504e+07,1,4773,4657,16.13,1.37,26,4,0,0
1.3322e+05,7.662e+07,1,4651,4600,16.12,1.56,26,4,0,0
1.3363e+05,7.672e+07,1,4599,4585,16.15,1.52,26,4,0,0
1.3408e+05,7.6832e+07,1,4589,4700,16.11,1.53,26,4,0,0
1.3454e+05,7.6941e+07,1,4698,4671,16.09,1.6,26,4,0,0
1.3583e+05,7.7264e+07,1,4669,4471,16.16,1.45,26,4,0,0
1.3632e+05,7.7379e+07,1,4471,4471,16.17,1.46,26,4,0,0
1.3676e+05,7.7488e+07,1,4471,4471,16.17,1.43,26,4,0,0
1.3721e+05,7.7594e+07,1,4470,4457,16.2,1.33,26,4,0,0
1.3766e+05,7.7707e+07,1,4453,4414,16.16,1.31,26,4,0,0
1.3811e+05,7.7812e+07,1,4423,4557,16.14,1.46,26,4,0,0
1.3856e+05,7.7928e+07,1,4548,4457,16.2,1.38,26,4,0,0
1.3896e+05,7.8029e+07,1,4457,4457,16.17,1.35,26,4,0,0
1.3942e+05,7.8143e+07,1,4457,4471,16.17,1.21,26,4,0,0
1.3987e+05,7.8254e+07,1,4468,4442,16.14,1.52,26,4,0,0
1.4027e+05,7.8355e+07,1,4442,4442,16.14,1.35,26,4,0,0
1.4072e+05,7.8465e+07,1,4442,4485,16.15,1.61,26,4,0,0
1.4121e+05,7.8579e+07,1,4482,4457,16.14,1.27,26,4,0,0
1.4165e+05,7.8689e+07,1,4452,4385,16.19,1.36,26,4,0,0
1.421e+05,7.8797e+07,1,4384,4371,16.08,1.35,26,4,0,0
1.425e+05,7.8901e+07,1,4372,4400,16.08,1.42,26,5,0,0
1.4296e+05,7.9013e+07,1,4400,4414,16.11,1.33,26,5,0,0
1.434e+05,7.9121e+07,1,4414,4414,16.14,1.37,26,5,0,0
1.443e+05,7.9343e+07,1,4413,4400,16.15,1.37,26,5,0,0
1.4471e+05,7.9445e+07,1,4398,4357,16.09,1.52,26,5,0,0
1.4516e+05,7.9556e+07,1,4361,4414,16.09,1.25,26,5,0,0
1.4561e+05,7.9669e+07,1,4415,4428,16.13,1.38,26,5,0,0
1.4606e+05,7.9776e+07,1,4409,4228,16.16,1.04,26,5,0,0
1.465e+05,7.9885e+07,1,4212,4014,16.13,1.6,26,5,0,0
1.4696e+05,7.9996e+07,1,4007,3942,15.97,2.81,26,5,0,0
1.4736e+05,8.0097e+07,1,3944,4057,16.07,2.51,26,5,0,0
1.483e+05,8.0327e+07,1,4053,3957,16.11,1.8,27,5,0,0
1.4874e+05,8.0438e+07,1,3955,3942,16.11,2.16,27,5,0,0
1.4919e+05,8.0546e+07,1,3960,4128,16.01,2.74,27,5,0,0
1.4959e+05,8.0648e+07,1,4132,4200,16.11,1.55,26,5,0,0
1.5004e+05,8.0757e+07,1,4181,4014,16.13,1.55,27,5,0,0
1.5049e+05,8.0867e+07,1,4016,4042,16.11,1.6,27,5,0,0
1.5094e+05,8.0973e+07,1,4043,4171,16.11,1.48,27,6,0,0
1.5138e+05,8.1085e+07,1,4169,4157,16.04,2.89,27,6,0,0
1.5183e+05,8.1191e+07,1,4151,4071,15.97,2.75,27,6,0,0
1.5228e+05,8.1298e+07,1,4077,4171,16.11,1.31,27,6,0,0
1.5273e+05,8.1407e+07,1,4173,4200,16.2,1.7,27,6,0,0
1.5317e+05,8.1521e+07,1,4234,4485,16.07,2.8,27,6,0,0
1.5362e+05,8.1627e+07,1,4496,4585,16.07,2.1,27,6,0,0
1.5406e+05,8.1735e+07,1,4612,4900,16.09,1.82,27,6,0,0
1.5447e+05,8.1842e+07,1,4882,4728,16.08,1.27,27,6,0,0
1.5495e+05,8.1952e+07,1,4715,4571,16.08,1.31,27,6,0,0
1.554e+05,8.2061e+07,1,4567,4514,16.12,1.34,27,6,0,0
1.5581e+05,8.2167e+07,1,4534,4700,16.02,1.55,27,6,0,0
1.5629e+05,8.2281e+07,1,4701,4714,16.05,1.53,27,6,0,0
1.567e+05,8.2377e+07,1,4707,4614,16.05,1.46,27,6,0,0
1.5715e+05,8.2491e+07,1,4605,4500,16.07,1.45,27,6,0,0
1.5756e+05,8.2594e+07,1,4501,4585,16.05,1.39,27,6,0,0
1.5804e+05,8.271e+07,1,4578,4528,16.05,1.39,27,6,0,0
1.5846e+05,8.2816e+07,1,4541,4642,16.05,1.69,27,6,0,0
1.5894e+05,8.2929e+07,1,4644,4657,16.04,1.64,27,6,0,0
1.5935e+05,8.3036e+07,1,4664,4728,16.01,1.79,27,7,0,0
1.5983e+05,8.3146e+07,1,4739,4814,16.06,1.71,27,7,0,0
1.6024e+05,8.3249e+07,1,4796,4585,15.97,1.56,27,7,0,0
1.6069e+05,8.3363e+07,1,4581,4557,16.03,1.39,27,7,0,0
1.6109e+05,8.3464e+07,1,4556,4542,16.06,1.19,27,7,0,0
1.6158e+05,8.3581e+07,1,4536,4457,16.08,1.56,27,7,0,0
1.6203e+05,8.3691e+07,1,4466,4600,16.04,1.76,27,7,0,0
1.6249e+05,8.3801e+07,1,4622,4828,16.13,1.81,27,7,0,0
1.6289e+05,8.3902e+07,1,4832,4871,16.12,1.75,27,7,0,0
1.6334e+05,8.4009e+07,1,4875,4942,16.07,1.85,27,7,0,0
1.6423e+05,8.4226e+07,1,4940,4771,16.07,1.56,27,7,0,0
1.6468e+05,8.4341e+07,1,4769,4757,16.07,1.73,27,7,0,0
1.6508e+05,8.4438e+07,1,4754,4585,16.07,1.48,27,7,0,0
1.6561e+05,8.4561e+07,1,4586,4600,15.99,1.41,27,7,0,0
1.6601e+05,8.4656e+07,1,4601,4657,16.09,1.43,27,7,0,0
1.6646e+05,8.4769e+07,1,4652,4385,16.06,1.29,27,7,0,0
1.678e+05,8.5094e+07,1,4384,4328,16.08,1.26,27,7,0,0
1.6828e+05,8.5208e+07,1,4328,4342,16.05,1.4,27,7,0,0
1.6873e+05,8.5319e+07,1,4343,4371,16.02,1.32,27,7,0,0
1.6922e+05,8.5437e+07,1,4369,4357,16.06,1.53,27,8,0,0
1.6962e+05,8.5536e+07,1,4357,4357,16.05,1.29,27,8,0,0
1.7007e+05,8.5647e+07,1,4356,4314,16.11,1.55,27,8,0,0
1.7052e+05,8.5754e+07,1,4318,4571,16.08,1.65,27,8,0,0
1.7096e+05,8.5863e+07,1,4576,4685,16.06,1.82,27,8,0,0
1.7189e+05,8.6083e+07,1,4695,4971,16.05,1.87,27,8,0,0
1.7235e+05,8.6195e+07,1,4967,4928,16.08,1.81,27,8,0,0
1.7271e+05,8.6292e+07,1,4929,5014,16.03,1.97,27,8,0,0
1.736e+05,8.651e+07,1,5013,4985,16.08,1.85,27,8,0,0
1.7405e+05,8.6616e+07,1,4985,5028,16.07,1.99,27,8,0,0
1.745e+05,8.6729e+07,1,5026,5000,16.07,1.55,27,8,0,0
1.749e+05,8.6831e+07,1,4991,4642,16,1.28,27,8,0,0
1.754e+05,8.695e+07,1,4635,4557,16.02,1.17,27,8,0,0
1.7585e+05,8.7061e+07,1,4536,4314,16.02,1.57,27,8,0,0
1.763e+05,8.7168e+07,1,4323,4457,16.01,1.56,27,8,0,0
1.7674e+05,8.7276e+07,1,4448,4342,16.01,1.41,27,8,0,0
1.7719e+05,8.7384e+07,1,4350,4471,16.04,1.59,27,8,0,0
1.7763e+05,8.7492e+07,1,4474,4542,16,1.73,27,8,0,0
1.7808e+05,8.7605e+07,1,4543,4557,15.99,1.52,27,8,0,0
1.7854e+05,8.772e+07,1,4562,4628,15.96,1.39,27,9,0,0
1.7898e+05,8.7833e+07,1,4619,4528,16.03,1.29,27,9,0,0
1.7939e+05,8.793e+07,1,4529,4585,16.02,1.57,27,9,0,0
1.7979e+05,8.8035e+07,1,4590,4714,16.05,1.75,27,9,0,0
1.8024e+05,8.8144e+07,1,4716,4814,15.97,1.87,27,9,0,0
1.8065e+05,8.8252e+07,1,4817,4985,16,1.9,27,9,0,0
1.8114e+05,8.8367e+07,1,4990,5071,16.02,1.86,27,9,0,0
1.8155e+05,8.847e+07,1,5068,5014,15.95,1.89,27,9,0,0
1.8204e+05,8.8587e+07,1,5007,4928,16.04,1.64,27,9,0,0
1.8245e+05,8.8691e+07,1,4935,5042,16.04,1.75,27,9,0,0
1.829e+05,8.8801e+07,1,5040,5000,16.04,1.8,27,9,0,0
1.8335e+05,8.8909e+07,1,5010,5142,16.02,2.11,27,9,0,0
1.8423e+05,8.9124e+07,1,5143,5271,16.03,2.26,27,9,0,0
1.8471e+05,8.9237e+07,1,5271,5271,15.97,2.29,27,9,0,0
1.8516e+05,8.9344e+07,1,5276,5357,16.01,2.27,27,9,0,0
1.8556e+05,8.9445e+07,1,5361,5442,15.99,2.43,27,9,0,0
1.8646e+05,8.9668e+07,1,5442,5485,15.95,2.46,27,10,0,0
1.8691e+05,8.9776e+07,1,5483,5457,16.04,1.95,27,10,0,0
1.8732e+05,8.9878e+07,1,5450,5314,16,2,27,10,0,0
1.8781e+05,8.9997e+07,1,5309,5271,16.01,1.78,27,10,0,0
1.8822e+05,9.0101e+07,1,5260,5157,16.01,1.94,27,10,0,0
1.8867e+05,9.021e+07,1,5130,4885,15.97,1.44,27,10,0,0
1.8915e+05,9.0325e+07,1,4894,4942,16.02,1.55,27,10,0,0
1.8956e+05,9.0424e+07,1,4939,4900,16.05,1.97,27,10,0,0
1.9086e+05,9.0747e+07,1,4901,5300,16.02,1.93,27,10,0,0
1.9138e+05,9.0871e+07,1,5294,5242,15.99,1.83,27,10,0,0
1.9225e+05,9.1089e+07,1,5216,4728,16.01,1.38,27,10,0,0
1.927e+05,9.1197e+07,1,4725,4671,16,1.33,27,10,0,0
1.9315e+05,9.1306e+07,1,4670,4657,16,1.47,27,10,0,0
1.9355e+05,9.1406e+07,1,4655,4600,16.01,1.36,27,10,0,0
1.94e+05,9.1517e+07,1,4601,4642,16.01,1.52,27,10,0,0
1.9437e+05,9.1622e+07,1,4643,4728,16.01,1.78,27,11,0,0
1.948e+05,9.1732e+07,1,4730,4871,16.01,1.68,27,11,0,0
1.9529e+05,9.185e+07,1,4869,4857,15.95,1.7,27,11,0,0
1.9574e+05,9.1962e+07,1,4839,4657,15.97,1.24,27,11,0,0
1.9619e+05,9.2069e+07,1,4653,4600,15.96,1.41,27,11,0,0
1.9664e+05,9.2183e+07,1,4598,4585,16.01,1.52,27,11,0,0
1.9704e+05,9.2283e+07,1,4594,4714,15.98,1.61,27,11,0,0
1.9788e+05,9.2503e+07,1,4788,4828,15.97,1.74,27,11,0,0
1.983e+05,9.2607e+07,1,4829,4957,15.95,2.1,27,11,0,0
1.9875e+05,9.2719e+07,1,4961,5057,15.92,2.03,27,11,0,0
1.9919e+05,9.2829e+07,1,5060,5100,15.98,1.89,27,11,0,0
1.9964e+05,9.2937e+07,1,5092,4985,15.97,1.81,27,11,0,0
2.0009e+05,9.3046e+07,1,4986,5000,15.89,1.95,27,11,0,0
2.0054e+05,9.3152e+07,1,4989,4857,15.97,1.97,27,11,0,0
2.0094e+05,9.3255e+07,1,4858,4928,15.99,1.8,27,11,0,0
2.0139e+05,9.3364e+07,1,4927,4914,15.96,1.72,27,11,0,0
2.0183e+05,9.3475e+07,1,4911,4842,15.98,1.73,27,11,0,0
2.0228e+05,9.3582e+07,1,4839,4714,15.97,1.6,27,12,0,0
2.0317e+05,9.3798e+07,1,4714,4728,15.96,1.52,27,12,0,0
2.0361e+05,9.3904e+07,1,4723,4657,15.96,1.62,27,12,0,0
2.0406e+05,9.401e+07,1,4660,4742,15.93,1.7,27,12,0,0
2.0456e+05,9.4129e+07,1,4739,4714,15.98,1.82,27,12,0,0
2.0496e+05,9.4231e+07,1,4717,4957,15.97,2.17,27,12,0,0
2.0544e+05,9.4339e+07,1,4970,5142,15.94,2.16,27,12,0,0
2.0588e+05,9.4445e+07,1,5132,5014,15.93,1.86,27,12,0,0
2.0633e+05,9.4557e+07,1,5008,4957,16,1.86,27,12,0,0
2.0678e+05,9.4667e+07,1,4953,4914,15.97,1.7,27,12,0,0
2.0723e+05,9.4774e+07,1,4922,5028,16.01,1.87,27,12,0,0
2.0767e+05,9.4886e+07,1,5021,4957,16.01,1.8,27,12,0,0
2.0812e+05,9.4996e+07,1,4964,5042,15.97,1.95,27,12,0,0
2.0852e+05,9.5094e+07,1,5039,4957,15.92,1.93,27,12,0,0
2.0902e+05,9.5213e+07,1,4964,5042,15.98,1.94,27,12,0,0
2.0987e+05,9.543e+07,1,5037,4957,15.97,1.86,27,13,0,0
2.1028e+05,9.5525e+07,1,4957,5014,15.96,1.96,27,13,0,0
2.1072e+05,9.5635e+07,1,5012,4942,16.02,1.75,27,13,0,0
2.1117e+05,9.5743e+07,1,4944,5014,15.94,1.86,27,13,0,0
2.1162e+05,9.5855e+07,1,5007,4842,15.92,1.58,27,13,0,0
2.1207e+05,9.5966e+07,1,4843,4885,15.97,1.65,27,13,0,0
2.1251e+05,9.6071e+07,1,4886,4914,15.95,2.18,28,13,0,0
2.1301e+05,9.6189e+07,1,4916,4942,15.95,1.76,27,13,0,0
2.1341e+05,9.629e+07,1,4940,4885,15.96,1.95,28,13,0,0
2.139e+05,9.6408e+07,1,4896,5014,15.99,1.92,28,13,0,0
2.143e+05,9.651e+07,1,5011,4914,15.96,1.7,27,13,0,0
2.1475e+05,9.6622e+07,1,4909,4871,15.95,1.7,27,13,0,0
2.152e+05,9.6736e+07,1,4873,4900,15.99,1.63,28,13,0,0
2.156e+05,9.6835e+07,1,4899,4857,15.92,1.8,27,13,0,0
2.1606e+05,9.6947e+07,1,4865,4985,15.96,2.04,27,13,0,0
2.1651e+05,9.7059e+07,1,4971,4785,15.95,1.55,28,13,0,0
2.1692e+05,9.7163e+07,1,4781,4714,15.96,1.62,28,13,0,0
2.1736e+05,9.7271e+07,1,4713,4700,15.95,1.7,28,13,0,0
2.1785e+05,9.7392e+07,1,4701,4714,15.92,1.66,28,13,0,0
2.1826e+05,9.749e+07,1,4715,4785,15.95,1.92,28,13,0,0
2.1871e+05,9.7597e+07,1,4790,4900,15.96,1.85,28,14,0,0
2.1916e+05,9.7714e+07,1,4913,5042,15.99,2.03,27,14,0,0
2.196e+05,9.7822e+07,1,5030,4942,15.98,1.91,28,14,0,0
2.2001e+05,9.7919e+07,1,4943,5000,15.93,2.06,28,14,0,0
2.2138e+05,9.8251e+07,1,4998,4800,15.95,1.73,27,14,0,0
2.2187e+05,9.8373e+07,1,4796,4771,16.02,1.68,28,14,0,0
2.2227e+05,9.8471e+07,1,4773,4871,15.97,1.87,28,14,0,0
2.2276e+05,9.8589e+07,1,4879,5000,15.99,2.01,28,14,0,0
2.2317e+05,9.8686e+07,1,5000,5014,15.91,1.94,28,14,0,0
2.2362e+05,9.8795e+07,1,5012,4900,15.94,1.73,27,14,0,0
2.2407e+05,9.8911e+07,1,4904,4942,16,1.75,28,14,0,0
2.2455e+05,9.9024e+07,1,4933,4857,15.97,1.61,28,14,0,0
2.2496e+05,9.9123e+07,1,4855,4771,15.94,1.69,28,14,0,0
2.2544e+05,9.9243e+07,1,4771,4771,15.92,1.7,28,14,0,0
2.2589e+05,9.935e+07,1,4772,4785,15.89,1.7,28,14,0,0
2.2629e+05,9.945e+07,1,4787,4842,15.95,1.72,28,15,0,0
2.2677e+05,9.9563e+07,1,4845,4914,15.98,1.75,28,15,0,0
2.2767e+05,9.9786e+07,1,4909,4785,15.89,1.74,28,15,0,0
2.2812e+05,9.9895e+07,1,4780,4728,15.95,1.59,28,15,0,0
2.2857e+05,1e+08,1,4729,4742,15.97,1.6,28,15,0,0
2.2897e+05,1.001e+08,1,4741,4728,15.95,1.73,27,15,0,0
2.2946e+05,1.0022e+08,1,4730,4771,15.89,1.78,27,15,0,0
2.2987e+05,1.0032e+08,1,4773,4828,15.91,1.81,28,15,0,0
2.3027e+05,1.0043e+08,1,4827,4814,15.95,1.66,28,15,0,0
2.3077e+05,1.0055e+08,1,4829,4985,15.94,2.05,28,15,0,0
2.312e+05,1.0065e+08,1,4983,4928,15.87,2,27,15,0,0
2.317e+05,1.0077e+08,1,4930,4971,15.87,1.91,27,15,0,0
2.321e+05,1.0087e+08,1,4967,4785,15.97,1.52,28,15,0,0
2.3255e+05,1.0098e+08,1,4783,4757,15.9,1.54,28,15,0,0
2.33e+05,1.0109e+08,1,4758,4785,15.86,1.7,28,15,0,0
2.334e+05,1.0119e+08,1,4783,4671,15.94,1.33,28,15,0,0
2.3388e+05,1.0131e+08,1,4655,4328,15.95,0.78,28,15,0,0
2.3434e+05,1.0143e+08,1,4404,4828,15.97,2.11,28,15,0,0
2.3474e+05,1.0153e+08,1,4824,4785,15.9,1.71,28,16,0,0
2.3523e+05,1.0164e+08,1,4789,4885,15.92,1.7,28,16,0,0
2.3564e+05,1.0174e+08,1,4877,4714,15.95,1.45,28,16,0,0
2.3608e+05,1.0185e+08,1,4711,4671,15.97,1.55,28,16,0,0
2.3653e+05,1.0196e+08,1,4677,4742,15.95,1.65,28,16,0,0
2.3747e+05,1.0218e+08,1,4739,4657,15.98,1.68,28,16,0,0
2.3791e+05,1.0229e+08,1,4666,4800,15.96,1.82,28,16,0,0
2.3835e+05,1.024e+08,1,4799,4785,15.91,1.85,28,16,0,0
2.388e+05,1.0251e+08,1,4789,4871,15.97,1.91,28,16,0,0
2.3924e+05,1.0261e+08,1,4872,4928,15.96,1.73,28,16,0,0
2.3969e+05,1.0272e+08,1,4927,4914,15.96,1.9,28,16,0,0
2.4018e+05,1.0284e+08,1,4924,5028,15.89,2.11,28,16,0,0
2.4054e+05,1.0293e+08,1,5024,4871,15.94,1.75,27,16,0,0
2.4102e+05,1.0305e+08,1,4865,4757,15.97,1.74,28,16,0,0
2.4147e+05,1.0316e+08,1,4757,4757,15.94,1.67,28,16,0,0
2.4192e+05,1.0327e+08,1,4761,4957,15.92,1.8,28,16,0,0
2.4238e+05,1.0338e+08,1,4941,4785,15.94,1.89,28,16,0,0
2.4282e+05,1.0349e+08,1,4799,5000,15.95,1.94,28,16,0,0
2.4327e+05,1.036e+08,1,4996,4942,16.02,1.71,28,16,0,0
2.4372e+05,1.0371e+08,1,4933,4800,15.98,1.61,28,17,0,0
2.4416e+05,1.0382e+08,1,4795,4757,15.98,1.55,28,17,0,0
2.4461e+05,1.0393e+08,1,4758,4785,16,1.73,28,17,0,0
2.4506e+05,1.0404e+08,1,4777,4700,15.95,1.51,28,17,0,0
2.4584e+05,1.0425e+08,1,4731,4771,15.97,1.65,28,17,0,0
2.4628e+05,1.0436e+08,1,4764,4700,15.96,1.52,28,17,0,0
2.4669e+05,1.0446e+08,1,4699,4657,15.95,1.54,28,17,0,0
2.4718e+05,1.0458e+08,1,4657,4657,15.94,1.58,28,17,0,0
2.4761e+05,1.0468e+08,1,4659,4714,15.95,1.6,28,17,0,0
2.4807e+05,1.048e+08,1,4717,4771,15.93,1.6,28,17,0,0
2.4851e+05,1.049e+08,1,4767,4728,15.95,1.65,28,17,0,0
2.4896e+05,1.0501e+08,1,4728,4757,15.91,1.61,28,17,0,0
2.4945e+05,1.0513e+08,1,4748,4657,15.92,1.36,28,17,0,0
2.499e+05,1.0524e+08,1,4658,4671,15.94,1.68,28,17,0,0
2.5034e+05,1.0534e+08,1,4679,4757,15.91,1.75,28,17,0,0
2.5074e+05,1.0544e+08,1,4752,4657,15.93,1.42,28,17,0,0
2.512e+05,1.0556e+08,1,4655,4628,15.92,1.46,28,17,0,0
2.5164e+05,1.0567e+08,1,4620,4542,15.93,1.33,28,17,0,0
2.5209e+05,1.0577e+08,1,4542,4542,15.97,1.4,28,17,0,0
2.5249e+05,1.0588e+08,1,4531,4385,15.86,1.32,28,17,0,0
2.5294e+05,1.0599e+08,1,4383,4357,15.92,1.3,28,18,0,0
2.5339e+05,1.061e+08,1,4346,4242,15.86,1.42,28,18,0,0
2.5384e+05,1.0621e+08,1,4245,4285,15.92,1.3,28,18,0,0
2.5427e+05,1.0632e+08,1,4282,4257,15.89,1.62,28,18,0,0
2.5472e+05,1.0642e+08,1,4260,4400,15.91,2.13,28,18,0,0
2.5521e+05,1.0654e+08,1,4388,4285,15.98,0.99,28,18,0,0
2.5565e+05,1.0665e+08,1,4278,4228,15.95,1.56,28,18,0,0
2.561e+05,1.0676e+08,1,4254,4500,15.89,1.98,28,18,0,0
2.5654e+05,1.0686e+08,1,4525,4771,15.95,2.07,28,18,0,0
2.5694e+05,1.0697e+08,1,4768,4642,15.95,1.28,28,18,0,0
2.5739e+05,1.0708e+08,1,4640,4614,15.95,1.32,28,18,0,0
2.5784e+05,1.0718e+08,1,4611,4557,15.93,1.44,28,18,0,0
2.5832e+05,1.0731e+08,1,4572,4800,15.91,1.99,28,18,0,0
2.5874e+05,1.0741e+08,1,4793,4642,15.94,1.28,28,18,0,0
2.5918e+05,1.0752e+08,1,4639,4585,15.85,1.69,28,18,0,0
2.5962e+05,1.0763e+08,1,4589,4714,15.91,1.57,28,18,0,0
2.6012e+05,1.0775e+08,1,4726,4814,15.92,1.71,28,18,0,0
2.6092e+05,1.0795e+08,1,4812,4685,15.91,1.52,28,18,0,0
2.6182e+05,1.0817e+08,1,4682,4600,15.91,1.43,28,18,0,0
2.6226e+05,1.0828e+08,1,4613,4757,15.94,1.81,28,19,0,0
2.6271e+05,1.0839e+08,1,4759,4785,15.86,1.62,28,19,0,0
2.6311e+05,1.0849e+08,1,4787,4857,15.79,1.95,28,19,0,0
2.6357e+05,1.086e+08,1,4857,4871,15.83,1.78,28,19,0,0
2.6389e+05,1.0871e+08,1,4872,4885,15.91,1.67,28,19,0,0
2.6433e+05,1.0883e+08,1,4879,4828,15.86,1.86,28,19,0,0
2.6474e+05,1.0893e+08,1,4833,4957,15.86,2.26,28,19,0,0
2.6563e+05,1.0914e+08,1,4957,4971,15.86,1.7,28,19,0,0
2.6608e+05,1.0926e+08,1,4959,4842,15.91,1.69,28,19,0,0
2.6652e+05,1.0936e+08,1,4831,4514,15.94,1.14,28,19,0,0
2.6697e+05,1.0948e+08,1,4508,4457,15.97,1.35,28,19,0,0
2.6742e+05,1.0959e+08,1,4461,4514,15.97,1.64,28,19,0,0
2.6782e+05,1.0969e+08,1,4516,4557,15.97,1.48,28,19,0,0
2.6827e+05,1.098e+08,1,4566,4757,15.92,1.93,28,19,0,0
2.6872e+05,1.0991e+08,1,4752,4714,15.94,1.54,28,19,0,0
2.6917e+05,1.1002e+08,1,4691,4500,15.93,1.26,28,19,0,0
2.7006e+05,1.1023e+08,1,4500,4528,15.94,1.52,28,19,0,0
2.7051e+05,1.1034e+08,1,4519,4400,15.95,1.17,28,19,0,0
2.7096e+05,1.1046e+08,1,4396,4342,15.97,1.45,28,20,0,0
2.7141e+05,1.1057e+08,1,4335,4271,15.97,1.1,28,20,0,0
2.7181e+05,1.1066e+08,1,4266,4100,15.98,1.59,28,20,0,0
2.7226e+05,1.1077e+08,1,4102,4257,15.95,2.22,28,20,0,0
2.7274e+05,1.1089e+08,1,4255,4228,15.97,1.02,28,20,0,0
2.7319e+05,1.11e+08,1,4205,3985,15.97,1.73,28,20,0,0
2.7364e+05,1.1111e+08,1,4015,4471,15.95,2.14,28,20,0,0
2.7408e+05,1.1121e+08,1,4471,4485,15.89,1.62,28,20,0,0
2.7453e+05,1.1133e+08,1,4473,4342,15.96,1.4,28,20,0,0
2.7497e+05,1.1144e+08,1,4334,4271,15.95,1.04,28,20,0,0
2.7537e+05,1.1153e+08,1,4275,4371,15.9,2.2,28,20,0,0
2.7627e+05,1.1175e+08,1,4367,4185,15.69,2.22,28,20,0,0
2.7671e+05,1.1187e+08,1,4197,4328,15.92,1.52,28,20,0,0
2.7716e+05,1.1197e+08,1,4324,4285,15.94,1.31,28,20,0,0
2.7761e+05,1.1208e+08,1,4288,4328,15.93,1.39,28,20,0,0
2.7801e+05,1.1218e+08,1,4329,4357,15.95,1.4,28,20,0,0
2.7846e+05,1.123e+08,1,4362,4442,15.93,1.82,28,20,0,0
2.7891e+05,1.1241e+08,1,4444,4471,15.82,1.56,28,20,0,0
2.7936e+05,1.1252e+08,1,4490,4714,15.89,2.07,28,20,0,0
2.7981e+05,1.1262e+08,1,4715,4785,15.89,1.71,28,20,0,0
2.8065e+05,1.1283e+08,1,4785,4828,15.85,1.64,28,21,0,0
2.8114e+05,1.1296e+08,1,4817,4742,15.87,1.4,28,21,0,0
2.8154e+05,1.1305e+08,1,4735,4585,15.91,1.38,28,21,0,0
2.8203e+05,1.1317e+08,1,4571,4442,15.95,1.17,28,21,0,0
2.8248e+05,1.1328e+08,1,4440,4428,15.91,1.34,28,21,0,0
2.8292e+05,1.1339e+08,1,4437,4514,15.9,1.48,28,21,0,0
2.8333e+05,1.1349e+08,1,4515,4542,15.84,1.78,28,21,0,0
2.8374e+05,1.1359e+08,1,4542,4585,15.86,1.4,28,21,0,0
2.8423e+05,1.1372e+08,1,4585,4585,15.83,1.51,28,21,0,0
2.8467e+05,1.1382e+08,1,4580,4542,15.89,1.29,28,21,0,0
2.8512e+05,1.1393e+08,1,4538,4500,15.79,1.62,28,21,0,0
2.8552e+05,1.1403e+08,1,4500,4571,15.82,1.43,28,21,0,0
2.8644e+05,1.1425e+08,1,4589,5000,15.82,2.18,28,21,0,0
2.8689e+05,1.1436e+08,1,5001,5028,15.84,2.13,28,21,0,0
2.873e+05,1.1447e+08,1,5039,5271,15.82,2.27,28,21,0,0
2.8779e+05,1.1458e+08,1,5256,5100,15.85,2.29,28,21,0,0
2.8819e+05,1.1468e+08,1,5100,5100,15.77,1.87,28,21,0,0
2.8868e+05,1.148e+08,1,5068,4742,15.88,1.36,28,22,0,0
2.8908e+05,1.149e+08,1,4729,4314,15.85,0.83,28,22,0,0
2.8954e+05,1.1502e+08,1,4282,4014,15.87,1.16,28,22,0,0
2.8999e+05,1.1512e+08,1,4013,3985,15.82,1.72,28,22,0,0
2.9043e+05,1.1523e+08,1,3976,3785,15.88,1.01,28,22,0,0
2.9088e+05,1.1534e+08,1,3788,3871,15.87,1.05,28,22,0,0
2.9132e+05,1.1545e+08,1,3871,3900,15.89,1.13,28,22,0,0
2.9177e+05,1.1556e+08,1,3899,3885,15.88,1.06,28,22,0,0
2.9221e+05,1.1567e+08,1,3891,4014,15.88,1.66,28,22,0,0
2.9266e+05,1.1578e+08,1,4027,4214,15.95,2.12,28,22,0,0
2.9307e+05,1.1588e+08,1,4245,4557,15.8,2.21,28,22,0,0
2.9352e+05,1.1599e+08,1,4558,4657,15.89,1.72,28,22,0,0
2.9401e+05,1.161e+08,1,4656,4642,15.89,1.63,28,22,0,0
2.9447e+05,1.1622e+08,1,4647,4700,15.85,1.64,28,22,0,0
2.9486e+05,1.1632e+08,1,4697,4657,15.87,1.64,28,22,0,0
2.9531e+05,1.1643e+08,1,4675,4885,15.86,1.8,28,22,0,0
2.9572e+05,1.1653e+08,1,4883,4771,15.85,1.61,28,22,0,0
2.9616e+05,1.1664e+08,1,4773,4842,15.89,1.82,28,22,0,0
2.9661e+05,1.1675e+08,1,4842,4857,15.88,1.76,28,22,0,0
2.9705e+05,1.1686e+08,1,4852,4800,15.85,1.67,28,22,0,0
2.975e+05,1.1697e+08,1,4803,4900,15.86,1.78,28,22,0,0
2.9794e+05,1.1708e+08,1,4901,4928,15.88,1.64,28,23,0,0
2.9839e+05,1.1718e+08,1,4923,4828,15.86,1.67,28,23,0,0
2.9884e+05,1.173e+08,1,4828,4842,15.89,1.75,28,23,0,0
2.9929e+05,1.1741e+08,1,4839,4814,15.87,1.63,28,23,0,0
2.9972e+05,1.1751e+08,1,4812,4728,15.86,1.58,28,23,0,0
3.0062e+05,1.1773e+08,1,4727,4685,15.8,1.68,28,23,0,0
3.011e+05,1.1785e+08,1,4700,4871,15.85,1.84,28,23,0,0
3.0151e+05,1.1795e+08,1,4875,4914,15.83,1.93,28,23,0,0
3.0195e+05,1.1805e+08,1,4915,4942,15.85,2,28,23,0,0
3.024e+05,1.1817e+08,1,4948,5042,15.8,1.97,28,23,0,0
3.0288e+05,1.1828e+08,1,5038,5000,15.87,1.83,28,23,0,0
3.0329e+05,1.1838e+08,1,4995,4942,15.82,1.84,28,23,0,0
3.0374e+05,1.185e+08,1,4934,4814,15.85,1.65,28,23,0,0
3.0462e+05,1.1871e+08,1,4817,4885,15.8,1.69,28,23,0,0
3.0551e+05,1.1892e+08,1,4879,4628,15.86,1.68,28,23,0,0
3.06e+05,1.1904e+08,1,4623,4585,15.83,1.57,28,23,0,0
3.064e+05,1.1914e+08,1,4581,4514,15.82,1.23,28,24,0,0
3.0685e+05,1.1925e+08,1,4515,4542,15.88,1.43,28,24,0,0
3.073e+05,1.1936e+08,1,4542,4557,15.89,1.28,28,24,0,0
3.0774e+05,1.1947e+08,1,4558,4571,15.87,1.56,28,24,0,0
3.0819e+05,1.1958e+08,1,4573,4614,15.83,1.65,28,24,0,0
3.0859e+05,1.1969e+08,1,4616,4671,15.83,1.96,28,24,0,0
3.0904e+05,1.198e+08,1,4679,4857,15.83,1.91,28,24,0,0
3.0949e+05,1.1991e+08,1,4854,4814,15.8,1.67,28,24,0,0
3.0994e+05,1.2002e+08,1,4815,4842,15.91,1.7,28,24,0,0
3.1039e+05,1.2013e+08,1,4836,4771,15.82,1.53,28,24,0,0
3.1083e+05,1.2024e+08,1,4766,4685,15.91,1.49,28,24,0,0
3.1129e+05,1.2035e+08,1,4684,4642,15.8,1.61,28,24,0,0
3.1173e+05,1.2046e+08,1,4648,4714,15.82,1.65,28,24,0,0
3.1218e+05,1.2057e+08,1,4709,4642,15.88,1.39,28,24,0,0
3.1258e+05,1.2068e+08,1,4636,4514,15.88,1.25,28,24,0,0
3.1303e+05,1.2078e+08,1,4511,4342,15.94,1.22,28,24,0,0
3.1351e+05,1.209e+08,1,4340,4300,15.92,1.49,28,24,0,0
3.1397e+05,1.2101e+08,1,4314,4428,15.93,1.77,28,24,0,0
3.1437e+05,1.2111e+08,1,4436,4557,15.94,1.56,28,24,0,0
3.1526e+05,1.2133e+08,1,4554,4257,15.85,1.22,28,24,0,0
3.1574e+05,1.2144e+08,1,4256,4242,15.86,2.06,28,25,0,0
3.1619e+05,1.2155e+08,1,4254,4600,15.82,2.45,28,25,0,0
3.1662e+05,1.2166e+08,1,4625,4928,15.86,2.12,28,25,0,0
3.1712e+05,1.2178e+08,1,4940,5085,15.86,2.06,28,25,0,0
3.1752e+05,1.2188e+08,1,5093,5200,15.86,2.01,28,25,0,0
3.1798e+05,1.2199e+08,1,5197,5171,15.88,2.03,28,25,0,0
3.1838e+05,1.221e+08,1,5166,5100,15.94,1.94,28,25,0,0
3.1883e+05,1.222e+08,1,5103,5142,15.87,1.75,28,25,0,0
3.1927e+05,1.2231e+08,1,5133,5014,15.92,1.57,28,25,0,0
3.1972e+05,1.2242e+08,1,4995,4785,15.89,1.31,28,25,0,0
3.2016e+05,1.2253e+08,1,4773,4528,15.86,1.25,28,25,0,0
3.2057e+05,1.2263e+08,1,4527,4485,15.85,1.27,28,25,0,0
3.2101e+05,1.2274e+08,1,4484,4442,15.88,1.3,28,25,0,0
3.215e+05,1.2286e+08,1,4437,4371,15.89,1.18,28,25,0,0
3.2195e+05,1.2297e+08,1,4361,4285,15.86,1.27,28,25,0,0
3.2235e+05,1.2307e+08,1,4286,4328,15.83,1.52,28,25,0,0
3.2281e+05,1.2318e+08,1,4330,4400,15.88,1.43,28,25,0,0
3.2329e+05,1.2329e+08,1,4394,4342,15.91,1.19,28,25,0,0
3.2374e+05,1.234e+08,1,4340,4314,15.86,1.51,28,25,0,0
3.2414e+05,1.235e+08,1,4317,4385,15.81,1.61,28,25,0,0
3.2459e+05,1.2361e+08,1,4386,4414,15.87,1.32,28,25,0,0
3.2503e+05,1.2372e+08,1,4415,4457,15.8,1.44,28,26,0,0
3.2549e+05,1.2384e+08,1,4451,4371,15.89,1.27,28,26,0,0
3.2594e+05,1.2395e+08,1,4365,4314,15.87,1.33,28,26,0,0
3.2638e+05,1.2406e+08,1,4327,4514,15.81,1.58,28,26,0,0
3.2683e+05,1.2416e+08,1,4512,4485,15.91,1.28,28,26,0,0
3.2724e+05,1.2427e+08,1,4478,4414,15.88,1.28,28,26,0,0
3.2768e+05,1.2438e+08,1,4412,4371,15.89,1.26,28,26,0,0
3.2813e+05,1.2449e+08,1,4374,4428,15.88,1.64,28,26,0,0
3.2858e+05,1.246e+08,1,4413,4271,15.91,1.41,28,26,0,0
3.2942e+05,1.2481e+08,1,4272,4557,15.91,1.59,28,26,0,0
3.2991e+05,1.2493e+08,1,4559,4585,15.87,1.42,28,26,0,0
3.3035e+05,1.2503e+08,1,4575,4471,15.85,1.41,28,26,0,0
3.308e+05,1.2514e+08,1,4483,4614,15.8,1.68,28,26,0,0
3.3124e+05,1.2525e+08,1,4617,4671,15.88,1.56,28,26,0,0
3.3174e+05,1.2537e+08,1,4652,4457,15.87,1.25,28,26,0,0
3.3214e+05,1.2547e+08,1,4455,4414,15.87,1.48,28,26,0,0
3.3262e+05,1.2558e+08,1,4406,4300,15.85,1.28,28,26,0,0
3.3302e+05,1.2568e+08,1,4298,4214,15.86,1.51,28,26,0,0
3.336e+05,1.2591e+08,1,4267,4385,15.91,2.11,28,26,0,0
3.3398e+05,1.2601e+08,1,4386,4442,15.84,1.58,28,26,0,0
3.3443e+05,1.2612e+08,1,4442,4442,15.91,1.26,28,26,0,0
3.3491e+05,1.2624e+08,1,4438,4414,15.9,1.47,28,27,0,0
3.3532e+05,1.2634e+08,1,4417,4471,15.9,1.45,28,27,0,0
3.3576e+05,1.2646e+08,1,4467,4442,15.86,1.47,28,27,0,0
3.3621e+05,1.2657e+08,1,4434,4371,15.88,1.43,28,27,0,0
3.3666e+05,1.2668e+08,1,4378,4457,15.89,1.46,28,27,0,0
3.371e+05,1.2678e+08,1,4464,4542,15.89,1.5,28,27,0,0
3.3755e+05,1.2689e+08,1,4544,4571,15.86,1.33,28,27,0,0
3.38e+05,1.27e+08,1,4559,4471,15.9,1.34,28,27,0,0
3.384e+05,1.271e+08,1,4471,4471,15.9,1.42,28,27,0,0
3.3926e+05,1.2732e+08,1,4474,4557,15.89,1.53,28,27,0,0
3.4019e+05,1.2754e+08,1,4552,4457,15.91,1.21,28,27,0,0
3.408e+05,1.2775e+08,1,4370,4500,15.81,1.56,28,27,0,0
3.4165e+05,1.2796e+08,1,4558,4614,15.89,1.65,28,27,0,0
3.421e+05,1.2807e+08,1,4611,4557,15.79,1.54,28,27,0,0
3.4254e+05,1.2818e+08,1,4557,4557,15.86,1.66,28,27,0,0
3.43e+05,1.2829e+08,1,4555,4542,15.86,1.39,28,27,0,0
3.4345e+05,1.284e+08,1,4542,4600,15.88,1.5,28,27,0,0
3.439e+05,1.2851e+08,1,4603,4642,15.84,1.36,28,27,0,0
3.4434e+05,1.2862e+08,1,4636,4557,15.91,1.48,28,27,0,0
3.4474e+05,1.2872e+08,1,4563,4642,15.88,1.56,28,28,0,0
3.4519e+05,1.2883e+08,1,4640,4557,15.9,1.51,28,28,0,0
3.4563e+05,1.2894e+08,1,4562,4671,15.85,1.75,28,28,0,0
3.4649e+05,1.2915e+08,1,4672,4842,15.8,1.59,28,28,0,0
3.4693e+05,1.2926e+08,1,4839,4771,15.86,1.52,28,28,0,0
3.4742e+05,1.2938e+08,1,4782,4900,15.88,1.79,28,28,0,0
3.4827e+05,1.2959e+08,1,4902,5071,15.76,1.94,28,28,0,0
3.4872e+05,1.297e+08,1,5062,4971,15.79,1.7,28,28,0,0
3.4917e+05,1.2981e+08,1,4960,4857,15.85,1.73,28,28,0,0
3.4956e+05,1.2992e+08,1,4858,4871,15.8,1.66,28,28,0,0
3.5001e+05,1.3003e+08,1,4876,4928,15.84,1.65,28,28,0,0
3.5045e+05,1.3013e+08,1,4913,4771,15.89,1.64,28,28,0,0
3.5086e+05,1.3024e+08,1,4769,4657,15.9,1.32,28,28,0,0
3.5132e+05,1.3035e+08,1,4653,4614,15.92,1.28,28,28,0,0
3.5176e+05,1.3045e+08,1,4609,4428,15.86,1.63,28,28,0,0
3.522e+05,1.3057e+08,1,4434,4514,15.91,1.46,28,28,0,0
3.5265e+05,1.3067e+08,1,4516,4685,15.92,1.63,28,28,0,0
3.5314e+05,1.3079e+08,1,4698,4842,15.97,1.84,28,28,0,0
3.5354e+05,1.3089e+08,1,4842,4857,15.91,1.68,28,29,0,0
3.5398e+05,1.31e+08,1,4862,4985,15.92,2,28,29,0,0
3.5443e+05,1.3111e+08,1,4988,5014,15.85,1.95,28,29,0,0
3.5488e+05,1.3122e+08,1,5019,5071,15.89,2.08,28,29,0,0
3.5529e+05,1.3133e+08,1,5065,5014,15.94,1.87,28,29,0,0
3.557e+05,1.3143e+08,1,4999,4742,16.13,0.92,28,29,0,0
3.561e+05,1.3153e+08,1,4634,2600,16,0.17,28,29,0,0
3.5655e+05,1.3164e+08,1,2591,2471,16.33,0.23,28,29,0,0
3.57e+05,1.3175e+08,1,2478,2671,16.27,0.69,28,29,0,0
3.5792e+05,1.3197e+08,1,2650,2100,16.27,0.15,28,29,0,0
3.5832e+05,1.3207e+08,1,2100,2114,16.25,0.24,28,29,0,0
3.5877e+05,1.3218e+08,1,2112,2042,16.25,0.21,28,29,0,0
3.5922e+05,1.323e+08,1,2039,2000,16.25,0.18,28,29,0,0
3.5963e+05,1.324e+08,1,1999,1985,16.28,0.2,28,29,0,0
3.6097e+05,1.3273e+08,1,1985,2014,16.27,0.19,28,29,0,0
3.6138e+05,1.3284e+08,1,2011,1957,16.27,0.16,28,29,0,0
3.6183e+05,1.3295e+08,1,1962,2028,16.27,0.21,28,29,0,0
3.6227e+05,1.3306e+08,1,2027,2014,16.27,0.19,28,29,0,0
3.6272e+05,1.3317e+08,1,2016,2042,16.25,0.25,28,29,0,0
3.6317e+05,1.3327e+08,1,2044,2071,16.3,0.21,28,29,0,0
3.6357e+05,1.3337e+08,1,2072,2114,16.29,0.22,28,29,0,0
3.6401e+05,1.3348e+08,1,2115,2142,16.3,0.28,28,29,0,0
3.6447e+05,1.3359e+08,1,2126,1914,16.36,0.03,28,29,0,0
3.6491e+05,1.3369e+08,1,1899,1571,16.36,0,28,29,0,0
3.6536e+05,1.338e+08,1,1567,1357,16.34,0.05,28,29,0,0
3.6581e+05,1.3391e+08,1,1355,1328,16.33,0.08,28,29,0,0
3.6626e+05,1.3402e+08,1,1328,1328,16.34,0.09,28,29,0,0
3.6671e+05,1.3413e+08,1,1328,1328,16.34,0.08,28,29,0,0
3.6716e+05,1.3424e+08,1,1326,1314,16.35,0.09,28,29,0,0
3.6761e+05,1.3435e+08,1,1315,1328,16.34,0.09,28,29,0,0
3.6805e+05,1.3445e+08,1,1328,1328,16.35,0.09,28,29,0,0
3.6854e+05,1.3457e+08,1,1327,1314,16.35,0.09,28,29,0,0
3.6891e+05,1.3467e+08,1,1314,1328,16.35,0.09,28,29,0,0
3.694e+05,1.3478e+08,1,1328,1328,16.36,0.09,28,29,0,0
3.6984e+05,1.3488e+08,1,1327,1314,16.35,0.09,28,29,0,0
3.7034e+05,1.35e+08,1,1314,1314,16.36,0.09,28,29,0,0
3.7077e+05,1.351e+08,1,1314,1328,16.35,0.09,28,29,0,0
3.7215e+05,1.3544e+08,1,1327,1314,16.36,0.09,28,29,0,0
3.726e+05,1.3555e+08,1,1314,1314,16.36,0.09,28,29,0,0
3.7304e+05,1.3565e+08,1,1314,1314,16.36,0.09,28,29,0,0
3.7345e+05,1.3575e+08,1,1314,1314,16.37,0.09,28,29,0,0
3.739e+05,1.3587e+08,1,1314,1314,16.37,0.09,28,29,0,0
3.7435e+05,1.3597e+08,1,1314,1314,16.37,0.09,28,29,0,0
3.7476e+05,1.3607e+08,1,1314,1328,16.38,0.09,28,29,0,0
3.7521e+05,1.3618e+08,1,1328,1328,16.38,0.09,28,29,0,0
3.7566e+05,1.3629e+08,1,1328,1328,16.38,0.09,28,29,0,0
3.77e+05,1.3662e+08,1,1328,1328,16.38,0.09,28,29,0,0
3.7744e+05,1.3673e+08,1,1328,1328,16.38,0.09,28,29,0,0
3.7789e+05,1.3683e+08,1,1328,1328,16.38,0.09,28,29,0,0
3.783e+05,1.3693e+08,1,1328,1328,16.38,0.09,28,29,0,0
3.7874e+05,1.3704e+08,1,1328,1328,16.39,0.09,28,29,0,0
3.7923e+05,1.3715e+08,1,1328,1328,16.38,0.09,27,29,0,0
3.7968e+05,1.3727e+08,1,1328,1328,16.39,0.09,27,29,0,0
3.8013e+05,1.3737e+08,1,1328,1328,16.38,0.09,28,29,0,0
3.8057e+05,1.3748e+08,1,1328,1328,16.39,0.09,27,29,0,0
3.8102e+05,1.3758e+08,1,1328,1328,16.39,0.08,27,29,0,0
3.8147e+05,1.3769e+08,1,1328,1328,16.39,0.09,27,29,0,0
3.8196e+05,1.3781e+08,1,1328,1328,16.39,0.09,28,29,0,0
3.824e+05,1.3791e+08,1,1328,1328,16.4,0.09,27,29,0,0
3.8288e+05,1.3802e+08,1,1328,1328,16.39,0.09,28,29,0,0
3.8329e+05,1.3812e+08,1,1328,1328,16.4,0.09,28,29,0,0
3.8374e+05,1.3823e+08,1,1328,1328,16.39,0.09,27,29,0,0
3.8419e+05,1.3834e+08,1,1328,1328,16.4,0.09,27,29,0,0
3.8464e+05,1.3845e+08,1,1328,1328,16.4,0.09,27,29,0,0
3.8508e+05,1.3855e+08,1,1328,1328,16.4,0.09,28,29,0,0
3.8553e+05,1.3866e+08,1,1328,1328,16.41,0.09,27,29,0,0
3.8598e+05,1.3877e+08,1,1328,1328,16.41,0.09,28,29,0,0
3.8642e+05,1.3888e+08,1,1328,1328,16.41,0.09,27,29,0,0
3.8687e+05,1.3898e+08,1,1328,1328,16.41,0.09,28,29,0,0
3.8732e+05,1.391e+08,1,1328,1328,16.41,0.09,28,29,0,0
3.8777e+05,1.3921e+08,1,1328,1328,16.41,0.09,28,29,0,0
3.882e+05,1.3931e+08,1,1328,1328,16.41,0.09,27,29,0,0
3.8866e+05,1.3942e+08,1,1328,1328,16.41,0.09,27,29,0,0
3.891e+05,1.3953e+08,1,1328,1328,16.41,0.09,28,29,0,0
3.8954e+05,1.3964e+08,1,1328,1328,16.41,0.09,27,29,0,0
3.9e+05,1.3974e+08,1,1328,1328,16.41,0.09,27,29,0,0
3.9044e+05,1.3985e+08,1,1328,1328,16.42,0.09,27,29,0,0
3.9132e+05,1.4006e+08,1,1328,1328,16.42,0.09,27,29,0,0
3.9227e+05,1.4028e+08,1,1289,242,16.43,0,27,29,0,0
3.9272e+05,1.4039e+08,1,224,0,16.43,0.01,27,29,0,0
3.9322e+05,1.405e+08,1,0,0,16.43,0.02,27,29,0,0
3.9367e+05,1.4061e+08,1,0,0,16.43,0.01,27,29,0,0
3.9412e+05,1.4072e+08,1,0,0,16.44,0.02,27,29,0,0
3.9458e+05,1.4083e+08,1,0,0,16.43,0.02,27,29,0,0
3.9503e+05,1.4094e+08,1,0,0,16.44,0.01,27,29,0,0
3.9548e+05,1.4105e+08,1,0,0,16.44,0.02,27,29,0,0
3.9594e+05,1.4115e+08,1,0,0,16.44,0.02,27,29,0,0
3.9643e+05,1.4126e+08,1,0,0,16.44,0.02,27,29,0,0
3.9688e+05,1.4137e+08,1,0,0,16.44,0.02,27,29,0,0
3.9733e+05,1.4148e+08,1,0,0,16.44,0.02,27,29,0,0
3.9783e+05,1.4159e+08,1,0,0,16.45,0.02,27,29,0,0
3.9828e+05,1.417e+08,1,0,0,16.44,0.02,27,29,0,0
3.9873e+05,1.4181e+08,1,0,0,16.44,0.02,27,29,0,0
3.9919e+05,1.4192e+08,1,0,0,16.45,0.02,27,29,0,0
3.9964e+05,1.4203e+08,1,0,0,16.45,0.02,27,29,0,0
4.0009e+05,1.4213e+08,1,0,0,16.45,0.02,27,29,0,0
4.0054e+05,1.4224e+08,1,0,0,16.45,0.02,27,29,0,0
4.0104e+05,1.4236e+08,1,0,0,16.44,0.02,27,29,0,0
4.0149e+05,1.4246e+08,1,0,0,16.45,0.02,27,29,0,0
4.0194e+05,1.4257e+08,1,0,0,16.45,0.02,27,29,0,0
4.0239e+05,1.4268e+08,1,0,0,16.45,0.02,27,29,0,0
4.0289e+05,1.4279e+08,1,0,0,16.45,0.02,27,29,0,0
4.0334e+05,1.429e+08,1,0,0,16.45,0.02,27,29,0,0
4.0379e+05,1.4301e+08,1,0,0,16.45,0.02,27,29,0,0
4.0425e+05,1.4312e+08,1,0,0,16.45,0.02,27,29,0,0
4.047e+05,1.4322e+08,1,0,0,16.45,0.02,27,29,0,0
4.0515e+05,1.4333e+08,1,0,0,16.45,0.02,27,29,0,0
4.056e+05,1.4344e+08,1,0,0,16.45,0.02,27,29,0,0
4.0605e+05,1.4354e+08,1,0,0,16.46,0.02,27,29,0,0
4.0655e+05,1.4366e+08,1,0,0,16.46,0.02,27,29,0,0
4.07e+05,1.4377e+08,1,0,0,16.46,0.02,27,29,0,0
4.0745e+05,1.4387e+08,1,0,0,16.46,0.02,27,29,0,0
4.079e+05,1.4398e+08,1,0,0,16.46,0.02,27,29,0,0
4.084e+05,1.4409e+08,1,0,0,16.46,0.02,27,29,0,0
4.0885e+05,1.442e+08,1,0,0,16.46,0.02,27,29,0,0
4.0931e+05,1.4431e+08,1,0,0,16.46,0.02,27,29,0,0
