LineNo,TimeUS,Instance,RPM,RawRPM,Volt,Curr,Temp,CTot,MotTemp,Err
1940,45453716,4,0,0,16.54,0.04,28,0,0,0
2402,45566466,4,0,0,16.54,0.04,28,0,0,0
2818,45669475,4,0,0,16.54,0.04,28,0,0,0
3271,45784720,4,0,0,16.54,0.05,28,0,0,0
3689,45887589,4,0,0,16.54,0.04,28,0,0,0
4145,45998570,4,0,0,16.54,0.05,28,0,0,0
4557,46099795,4,0,0,16.53,0.05,28,0,0,0
5012,46213746,4,0,0,16.54,0.05,28,0,0,0
5428,46317376,4,0,0,16.54,0.05,28,0,0,0
5843,46422506,4,0,0,16.54,0.05,28,0,0,0
6293,46534700,4,0,0,16.54,0.05,28,0,0,0
6708,46636552,4,0,0,16.54,0.05,28,0,0,0
7122,46737118,4,0,0,16.54,0.04,28,0,0,0
7576,46849414,4,0,0,16.54,0.04,28,0,0,0
8033,46963667,4,0,0,16.54,0.04,28,0,0,0
8445,47064647,4,0,0,16.54,0.05,28,0,0,0
8857,47165458,4,0,0,16.54,0.05,28,0,0,0
9623,47381495,4,0,0,16.53,0.05,28,0,0,0
10038,47485209,4,0,0,16.54,0.05,28,0,0,0
10498,47595141,4,0,0,16.54,0.05,28,0,0,0
10912,47698178,4,0,0,16.54,0.05,28,0,0,0
11297,47798900,4,0,0,16.54,0.05,28,0,0,0
11713,47903607,4,0,0,16.54,0.04,28,0,0,0
12199,48019957,4,0,0,16.54,0.04,28,0,0,0
12617,48123947,4,0,0,16.54,0.04,28,0,0,0
13032,48228695,4,0,0,16.54,0.05,28,0,0,0
13445,48331699,4,0,0,16.54,0.05,28,0,0,0
13895,48444633,4,0,0,16.54,0.05,28,0,0,0
14310,48546571,4,0,0,16.54,0.05,28,0,0,0
14758,48657385,4,0,0,16.54,0.05,28,0,0,0
15171,48758916,4,0,0,16.54,0.05,28,0,0,0
15584,48863676,4,0,0,16.53,0.04,28,0,0,0
16039,48973594,4,0,0,16.54,0.04,28,0,0,0
16454,49079971,4,0,0,16.54,0.04,28,0,0,0
16908,49190785,4,0,0,16.54,0.04,28,0,0,0
17320,49294620,4,0,0,16.54,0.05,28,0,0,0
17733,49396023,4,0,0,16.54,0.05,28,0,0,0
18185,49508923,4,0,0,16.54,0.05,28,0,0,0
19011,49714112,4,0,0,16.54,0.05,28,0,0,0
19473,49830510,4,0,0,16.54,0.04,28,0,0,0
19884,49931168,4,0,0,16.54,0.04,28,0,0,0
20298,50033605,4,0,0,16.54,0.04,28,0,0,0
20751,50144923,4,0,0,16.54,0.04,28,0,0,0
21159,50249549,4,0,0,16.53,0.04,28,0,0,0
21576,50353391,4,0,0,16.54,0.05,28,0,0,0
21989,50460523,4,0,0,16.54,0.05,28,0,0,0
22445,50571031,4,0,0,16.54,0.04,28,0,0,0
22855,50673469,4,0,0,16.54,0.05,28,0,0,0
23308,50785032,4,0,0,16.54,0.05,28,0,0,0
23723,50889631,4,0,0,16.53,0.05,28,0,0,0
24178,51000777,4,0,0,16.53,0.04,28,0,0,0
24594,51104488,4,0,0,16.54,0.04,28,0,0,0
25007,51205113,4,0,0,16.54,0.05,28,0,0,0
25456,51316171,4,0,0,16.54,0.05,28,0,0,0
25871,51416656,4,0,0,16.54,0.05,28,0,0,0
26320,51530445,4,0,0,16.54,0.05,28,0,0,0
26696,51628542,4,0,0,16.54,0.05,28,0,0,0
27149,51739684,4,0,0,16.54,0.05,28,0,0,0
27604,51853203,4,0,0,16.54,0.05,28,0,0,0
28015,51954112,4,0,0,16.54,0.05,28,0,0,0
28882,52170412,4,0,0,16.54,0.05,28,0,0,0
29291,52274622,4,0,0,16.54,0.05,28,0,0,0
29745,52384672,4,0,0,16.54,0.04,28,0,0,0
30164,52491546,4,0,0,16.54,0.04,28,0,0,0
30577,52591597,4,0,0,16.54,0.04,28,0,0,0
31064,52706422,4,0,0,16.54,0.05,28,0,0,0
31513,52808336,4,0,0,16.54,0.04,28,0,0,0
31970,52912721,4,0,0,16.54,0.04,28,0,0,0
32426,53021394,4,0,0,16.53,0.04,28,0,0,0
32926,53134133,4,0,0,16.54,0.04,28,0,0,0
33375,53236490,4,0,0,16.54,0.05,28,0,0,0
33870,53347955,4,0,0,16.54,0.04,28,0,0,0
34321,53453616,4,0,0,16.53,0.04,28,0,0,0
34773,53553886,4,0,0,16.54,0.04,28,0,0,0
35269,53670288,4,0,0,16.54,0.04,28,0,0,0
35722,53770806,4,0,0,16.53,0.04,28,0,0,0
36217,53883722,4,0,0,16.54,0.05,28,0,0,0
36673,53984157,4,0,0,16.54,0.04,28,0,0,0
37163,54090653,4,0,0,16.54,0.05,28,0,0,0
37665,54204413,4,0,0,16.54,0.05,28,0,0,0
38115,54307374,4,0,0,16.54,0.05,28,0,0,0
38567,54408586,4,0,0,16.53,0.05,28,0,0,0
39020,54513694,4,0,0,16.54,0.03,28,0,0,0
39513,54626457,4,1,157,16.52,0.06,28,0,0,0
40010,54740488,4,205,700,16.51,0.12,28,0,0,0
40459,54847555,4,738,1128,16.51,0.17,28,0,0,0
40809,54948116,4,1137,1271,16.52,0.13,28,0,0,0
41263,55052806,4,1272,1314,16.52,0.12,28,0,0,0
41767,55166527,4,1315,1342,16.52,0.12,28,0,0,0
42678,55377180,4,1342,1357,16.52,0.11,28,0,0,0
43586,55586150,4,1357,1357,16.53,0.11,28,0,0,0
44083,55699692,4,1357,1357,16.52,0.11,28,0,0,0
44537,55801199,4,1357,1357,16.52,0.11,28,0,0,0
44991,55904295,4,1357,1357,16.52,0.12,28,0,0,0
45487,56015578,4,1357,1357,16.52,0.12,28,0,0,0
45942,56119039,4,1357,1357,16.52,0.11,28,0,0,0
46441,56229631,4,1357,1357,16.52,0.11,28,0,0,0
46897,56332681,4,1357,1357,16.52,0.11,28,0,0,0
47350,56437879,4,1357,1357,16.52,0.11,28,0,0,0
47805,56538798,4,1357,1357,16.51,0.11,28,0,0,0
48306,56657383,4,1357,1357,16.52,0.11,28,0,0,0
48759,56759162,4,1357,1357,16.52,0.11,28,0,0,0
49209,56862747,4,1357,1357,16.51,0.11,28,0,0,0
49705,56970868,4,1357,1357,16.52,0.11,28,0,0,0
50160,57078019,4,1357,1357,16.52,0.11,28,0,0,0
50619,57181651,4,1357,1357,16.52,0.11,28,0,0,0
51112,57295167,4,1357,1357,16.52,0.12,28,0,0,0
51565,57396656,4,1357,1357,16.51,0.12,28,0,0,0
52016,57504085,4,1357,1357,16.51,0.12,28,0,0,0
52515,57619012,4,1357,1357,16.52,0.11,28,0,0,0
52969,57723017,4,1357,1357,16.51,0.11,28,0,0,0
53448,57828557,4,1357,1357,16.52,0.11,28,0,0,0
53908,57931420,4,1357,1357,16.51,0.12,28,0,0,0
54363,58039681,4,1357,1357,16.52,0.12,28,0,0,0
54863,58154651,4,1357,1357,16.52,0.11,28,0,0,0
55317,58258482,4,1357,1357,16.52,0.11,28,0,0,0
55770,58359697,4,1357,1357,16.52,0.12,28,0,0,0
56721,58578945,4,1357,1357,16.52,0.11,28,0,0,0
57174,58685558,4,1357,1357,16.52,0.11,28,0,0,0
57626,58786441,4,1357,1357,16.52,0.11,28,0,0,0
58080,58893548,4,1357,1357,16.51,0.11,28,0,0,0
58579,59008442,4,1355,1342,16.52,0.11,28,0,0,0
58990,59106461,4,1342,1357,16.52,0.11,28,0,0,0
59451,59212410,4,1357,1357,16.52,0.11,28,0,0,0
59944,59325590,4,1357,1357,16.52,0.11,28,0,0,0
60846,59531437,4,1357,1357,16.52,0.11,28,0,0,0
61341,59643718,4,1357,1357,16.51,0.12,28,0,0,0
61800,59750564,4,1357,1357,16.51,0.11,28,0,0,0
62215,59852925,4,1357,1371,16.52,0.11,28,0,0,0
62716,59963798,4,1371,1371,16.52,0.11,28,0,0,0
63165,60069537,4,1371,1371,16.52,0.11,28,0,0,0
63660,60180142,4,1371,1371,16.51,0.11,28,0,0,0
64119,60288389,4,1371,1371,16.52,0.11,28,0,0,0
64574,60389992,4,1371,1371,16.52,0.11,28,0,0,0
65030,60496663,4,1371,1371,16.52,0.11,28,0,0,0
65483,60599396,4,1371,1371,16.52,0.11,28,0,0,0
65977,60709579,4,1371,1371,16.52,0.11,28,0,0,0
66475,60823501,4,1371,1371,16.51,0.11,28,0,0,0
66933,60925160,4,1371,1371,16.52,0.11,28,0,0,0
67842,61134494,4,1371,1371,16.52,0.11,28,0,0,0
68334,61244441,4,1371,1371,16.52,0.11,28,0,0,0
68787,61345506,4,1371,1371,16.51,0.11,28,0,0,0
69286,61459644,4,1371,1371,16.51,0.11,28,0,0,0
69739,61560104,4,1371,1371,16.52,0.11,28,0,0,0
70227,61673239,4,1370,1357,16.52,0.11,28,0,0,0
70682,61774603,4,1357,1371,16.52,0.11,28,0,0,0
71219,61895888,4,1371,1371,16.51,0.11,28,0,0,0
71631,61989667,4,1371,1371,16.51,0.11,28,0,0,0
72123,62104799,4,1371,1371,16.51,0.11,28,0,0,0
72582,62212297,4,1371,1371,16.51,0.11,28,0,0,0
73035,62317017,4,1371,1371,16.51,0.11,28,0,0,0
73527,62428798,4,1371,1371,16.52,0.11,28,0,0,0
73977,62537543,4,1307,614,16.54,0.01,28,0,0,0
74415,62644883,4,582,271,16.53,0.03,28,0,0,0
74871,62751469,4,247,0,16.52,0.04,28,0,0,0
75281,62851302,4,0,0,16.54,0.05,28,0,0,0
75782,62968013,4,0,0,16.52,0.04,28,0,0,0
76226,63070607,4,0,0,16.53,0.04,28,0,0,0
76727,63183511,4,0,0,16.53,0.04,28,0,0,0
77184,63294120,4,0,0,16.53,0.04,28,0,0,0
77638,63398936,4,0,0,16.53,0.04,28,0,0,0
78092,63507704,4,0,0,16.53,0.04,28,0,0,0
78583,63624579,4,0,0,16.53,0.04,28,0,0,0
79040,63729589,4,0,0,16.53,0.04,28,0,0,0
79491,63838013,4,0,0,16.53,0.04,28,0,0,0
79949,63945781,4,0,0,16.53,0.04,28,0,0,0
80444,64061915,4,0,0,16.53,0.05,28,0,0,0
80896,64166068,4,0,0,16.53,0.04,28,0,0,0
81353,64280058,4,0,0,16.53,0.04,28,0,0,0
81810,64387552,4,0,0,16.53,0.04,28,0,0,0
82259,64495600,4,0,0,16.53,0.04,28,0,0,0
82712,64598604,4,0,0,16.53,0.04,28,0,0,0
83201,64713578,4,0,0,16.53,0.04,28,0,0,0
83658,64823966,4,0,0,16.53,0.04,28,0,0,0
84561,65033439,4,0,0,16.53,0.04,28,0,0,0
85061,65150022,4,0,0,16.53,0.04,28,0,0,0
85508,65253700,4,0,0,16.53,0.04,28,0,0,0
86008,65368583,4,0,0,16.52,0.04,28,0,0,0
86462,65477687,4,0,0,16.53,0.04,28,0,0,0
86913,65582135,4,0,0,16.53,0.04,28,0,0,0
87406,65699619,4,0,0,16.53,0.04,28,0,0,0
87861,65805628,4,0,0,16.52,0.04,28,0,0,0
88311,65911708,4,0,0,16.54,0.04,28,0,0,0
88770,66021605,4,0,0,16.53,0.04,28,0,0,0
89268,66135572,4,0,0,16.52,0.04,28,0,0,0
90211,66355946,4,0,0,16.53,0.05,28,0,0,0
90625,66455647,4,0,0,16.52,0.05,28,0,0,0
91123,66569492,4,0,0,16.52,0.04,28,0,0,0
91575,66675522,4,0,0,16.52,0.04,28,0,0,0
92075,66789403,4,0,0,16.53,0.04,28,0,0,0
92534,66898492,4,0,0,16.52,0.04,28,0,0,0
92947,66998603,4,0,0,16.53,0.04,28,0,0,0
93442,67111494,4,0,0,16.53,0.04,28,0,0,0
93895,67213543,4,0,0,16.53,0.04,28,0,0,0
94346,67320702,4,0,0,16.53,0.04,28,0,0,0
94841,67434710,4,0,0,16.53,0.05,28,0,0,0
95297,67539878,4,0,0,16.53,0.05,28,0,0,0
95746,67642493,4,0,0,16.53,0.04,28,0,0,0
96244,67755574,4,0,0,16.52,0.04,28,0,0,0
96655,67854116,4,0,0,16.54,0.04,28,0,0,0
97153,67966389,4,0,0,16.53,0.04,28,0,0,0
97643,68079667,4,0,0,16.53,0.04,28,0,0,0
98096,68182641,4,0,0,16.53,0.04,28,0,0,0
98545,68288914,4,0,0,16.53,0.04,28,0,0,0
99043,68403744,4,0,0,16.53,0.05,28,0,0,0
99502,68511358,4,0,0,16.53,0.03,28,0,0,0
99955,68618494,4,2,128,16.51,0.06,28,0,0,0
100451,68731186,4,188,771,16.52,0.12,28,0,0,0
100903,68837192,4,797,1171,16.51,0.17,28,0,0,0
101359,68940980,4,1177,1271,16.51,0.12,28,0,0,0
101815,69049548,4,1274,1328,16.52,0.12,28,0,0,0
102312,69159920,4,1330,1357,16.51,0.11,28,0,0,0
102722,69260411,4,1357,1357,16.52,0.11,28,0,0,0
103222,69373626,4,1357,1357,16.51,0.11,28,0,0,0
103676,69482656,4,1360,1414,16.5,0.17,28,0,0,0
104128,69587696,4,1439,1771,16.36,0.54,28,0,0,0
104585,69698107,4,1810,2400,16.45,0.54,28,0,0,0
105265,69907428,4,2401,2471,16.45,0.5,28,0,0,0
105721,70018882,4,2471,2485,16.47,0.49,28,0,0,0
106218,70131705,4,2486,2500,16.41,0.5,28,0,0,0
106622,70229603,4,2503,2642,16.47,0.91,29,0,0,0
107129,70349168,4,2678,3071,16.36,1.19,29,1,0,0
107579,70458103,4,3136,3800,16.23,1.65,28,1,0,0
108033,70563137,4,3845,4471,16.1,2.35,29,1,0,0
108483,70673344,4,4534,5142,16.04,2.82,28,1,0,0
108938,70779005,4,5168,5528,15.92,3.61,29,1,0,0
109398,70890614,4,5579,6114,15.86,4,28,1,0,0
109851,70996680,4,6112,6100,15.96,3.18,28,1,0,0
110301,71103609,4,6075,5728,16.04,2.64,29,1,0,0
110751,71210927,4,5725,5614,16.07,2.3,29,1,0,0
111253,71327950,4,5597,5428,16.04,2.39,28,1,0,0
111663,71428616,4,5428,5428,16.05,2.46,29,1,0,0
112159,71543484,4,5426,5342,16.05,2.3,29,1,0,0
112615,71653479,4,5324,5142,16.04,1.97,29,1,0,0
113480,71861717,4,5139,4842,15.96,1.55,29,2,0,0
113978,71976702,4,4844,4871,15.97,1.84,29,2,0,0
114457,72086510,4,4859,4685,15.9,2.3,29,2,0,0
114953,72201520,4,4707,4957,15.94,2.2,29,2,0,0
115365,72303046,4,4960,5142,15.99,2.44,29,2,0,0
115859,72420694,4,5167,5400,16.01,2.5,29,2,0,0
116762,72634096,4,5398,5371,16.02,2.62,29,2,0,0
117215,72740368,4,5373,5542,15.97,2.81,29,2,0,0
117667,72848312,4,5542,5557,15.98,2.94,29,2,0,0
118165,72963426,4,5567,5671,15.97,2.88,29,2,0,0
118571,73061459,4,5674,5714,15.91,2.92,29,2,0,0
119021,73166162,4,5712,5671,15.97,2.7,29,2,0,0
119483,73283202,4,5660,5557,15.89,2.86,29,3,0,0
119934,73386538,4,5563,5657,15.94,2.89,29,3,0,0
120390,73499705,4,5650,5557,15.96,2.56,29,3,0,0
120849,73606555,4,5562,5671,15.91,2.73,29,3,0,0
121299,73714625,4,5664,5571,15.94,2.45,29,3,0,0
121758,73826565,4,5567,5528,15.97,2.6,29,3,0,0
122214,73933457,4,5519,5428,15.97,2.56,29,3,0,0
123118,74152895,4,5429,5471,15.94,2.57,29,3,0,0
123530,74256122,4,5469,5371,15.89,2.71,29,3,0,0
123987,74363092,4,5371,5414,15.95,2.61,29,3,0,0
124469,74480644,4,5416,5442,15.86,2.65,29,3,0,0
124875,74580448,4,5444,5585,15.82,2.84,29,4,0,0
125320,74690016,4,5583,5571,15.81,3.15,29,4,0,0
125776,74799647,4,5582,5742,15.79,3.11,29,4,0,0
126221,74910497,4,5733,5628,15.78,2.9,29,4,0,0
126702,75023399,4,5630,5657,15.87,2.8,29,4,0,0
127113,75126572,4,5657,5657,15.79,2.78,29,4,0,0
127561,75237654,4,5657,5657,15.88,2.62,29,4,0,0
128017,75347189,4,5653,5614,15.96,2.3,29,4,0,0
128448,75450717,4,5607,5314,16,2.04,29,4,0,0
128905,75563798,4,5302,5042,15.94,2.01,29,4,0,0
129352,75678158,4,5035,4971,16.05,1.83,29,4,0,0
129843,75793526,4,4960,4842,15.97,1.88,29,4,0,0
130252,75894681,4,4847,4971,15.99,2.23,29,4,0,0
130706,76005936,4,4971,5000,15.99,2.31,29,4,0,0
131148,76113416,4,5003,5171,16.01,2.27,29,5,0,0
131593,76222579,4,5178,5328,15.97,2.58,29,5,0,0
132078,76336360,4,5329,5342,15.89,2.39,30,5,0,0
132969,76556903,4,5342,5342,15.93,2.47,30,5,0,0
133411,76663906,4,5338,5285,15.91,2.43,30,5,0,0
133862,76771338,4,5290,5428,15.95,2.64,29,5,0,0
134313,76884180,4,5428,5428,15.94,2.38,30,5,0,0
134765,76992333,4,5427,5371,15.88,2.56,30,5,0,0
135205,77100489,4,5371,5371,15.98,2.14,30,5,0,0
135689,77219614,4,5363,5257,15.95,2.15,30,5,0,0
136140,77332898,4,5258,5271,15.89,2.47,30,5,0,0
136547,77432703,4,5270,5257,15.84,2.55,30,5,0,0
136990,77539167,4,5259,5442,15.89,2.6,30,6,0,0
137438,77651619,4,5423,5242,15.96,1.95,30,6,0,0
137884,77759005,4,5212,4942,15.96,2.08,30,6,0,0
138329,77873773,4,4961,5128,15.94,2.39,30,6,0,0
139188,78088685,4,5133,5242,15.98,2.28,30,6,0,0
139638,78196883,4,5245,5285,15.89,2.38,30,6,0,0
140091,78309177,4,5280,5242,15.97,2.36,30,6,0,0
140542,78421872,4,5245,5271,15.91,2.44,30,6,0,0
141418,78630024,4,5269,5142,15.87,2.37,30,6,0,0
141872,78742677,4,5152,5257,15.86,2.14,30,6,0,0
142275,78848076,4,5252,5157,15.86,2.39,30,6,0,0
142729,78958223,4,5161,5228,15.88,2.67,30,6,0,0
143173,79068883,4,5232,5342,15.9,2.44,30,7,0,0
143627,79181148,4,5339,5285,15.93,2.43,30,7,0,0
144030,79281577,4,5282,5200,15.93,2.28,30,7,0,0
144481,79391523,4,5200,5242,15.91,2.33,30,7,0,0
144932,79503317,4,5243,5257,15.95,2.16,30,7,0,0
145384,79611188,4,5244,5114,15.88,2.38,30,7,0,0
145829,79724336,4,5117,5157,15.97,2.26,30,7,0,0
146279,79832039,4,5145,5000,15.92,2.14,30,7,0,0
146728,79943797,4,5008,5100,15.7,2.73,30,7,0,0
147579,80151710,4,5100,5128,15.92,2.4,30,7,0,0
148469,80369877,4,5127,5057,15.8,2.2,30,7,0,0
149362,80589898,4,5060,5300,15.89,2.46,30,8,0,0
149768,80693524,4,5299,5242,15.9,2.17,30,8,0,0
150259,80813183,4,5239,5214,15.83,2.87,30,8,0,0
150707,80920797,4,5195,4928,15.87,1.75,30,8,0,0
151158,81032373,4,4930,4957,15.9,2.82,30,8,0,0
151603,81140595,4,4979,5200,15.84,3.42,30,8,0,0
152049,81246573,4,5206,5300,15.89,2.65,30,8,0,0
152497,81356167,4,5314,5457,15.93,2.75,30,8,0,0
152898,81453100,4,5456,5400,15.89,2.64,30,8,0,0
153392,81572974,4,5396,5357,15.82,2.87,30,8,0,0
153834,81681669,4,5364,5442,15.85,2.3,30,8,0,0
154238,81780631,4,5442,5442,15.84,2.89,30,8,0,0
154691,81895548,4,5437,5385,15.9,2.6,30,8,0,0
155172,82006568,4,5394,5500,15.9,2.51,30,9,0,0
155580,82107122,4,5496,5428,15.91,2.24,30,9,0,0
156035,82220488,4,5425,5400,15.78,2.43,30,9,0,0
156474,82322880,4,5401,5428,15.85,2.5,30,9,0,0
156920,82434183,4,5433,5514,15.8,2.55,30,9,0,0
157333,82538930,4,5512,5414,15.79,2.45,30,9,0,0
157815,82653334,4,5416,5442,15.79,2.56,30,9,0,0
158226,82754519,4,5436,5328,15.82,2.4,30,9,0,0
158634,82859696,4,5327,5285,15.81,2.33,30,9,0,0
159122,82973469,4,5296,5471,15.85,2.65,30,9,0,0
159525,83077614,4,5466,5228,15.81,2.31,30,9,0,0
160012,83190498,4,5237,5428,15.83,2.98,30,9,0,0
160468,83304097,4,5432,5500,15.84,2.58,30,9,0,0
160918,83419800,4,5492,5414,15.89,2.61,30,10,0,0
161808,83634355,4,5413,5357,15.84,2.37,30,10,0,0
162211,83732478,4,5359,5442,15.9,2.55,30,10,0,0
162622,83838604,4,5442,5471,15.83,2.32,30,10,0,0
163118,83954391,4,5454,5300,15.88,2.5,30,10,0,0
163561,84063386,4,5311,5471,15.9,2.67,30,10,0,0
164008,84170794,4,5465,5385,15.89,2.35,30,10,0,0
164456,84281617,4,5389,5457,15.87,2.51,30,10,0,0
164909,84392194,4,5439,5271,15.79,2.52,30,10,0,0
165352,84499708,4,5276,5328,15.82,2.36,30,10,0,0
165794,84602059,4,5325,5271,15.83,2.09,30,10,0,0
166283,84720673,4,5276,5342,15.82,2.49,30,10,0,0
166730,84833916,4,5336,5285,15.8,2.51,30,11,0,0
167176,84938585,4,5281,5228,15.82,2.29,30,11,0,0
167619,85048538,4,5235,5314,15.87,2.37,30,11,0,0
168067,85155558,4,5300,5171,15.85,1.81,30,11,0,0
168513,85264408,4,5168,5114,15.84,2.32,30,11,0,0
168961,85371629,4,5114,5128,15.87,2.19,30,11,0,0
169444,85493141,4,5150,5300,15.83,2.6,30,11,0,0
170299,85701497,4,5299,5285,15.88,2.42,30,11,0,0
171195,85914464,4,5286,5442,15.85,2.71,30,11,0,0
171676,86033945,4,5447,5500,15.8,2.88,30,11,0,0
172119,86138363,4,5506,5585,15.8,2.88,30,11,0,0
173016,86362442,4,5583,5542,15.77,2.6,30,12,0,0
173424,86468804,4,5542,5542,15.8,2.97,30,12,0,0
173868,86569667,4,5542,5542,15.85,2.94,30,12,0,0
174317,86684531,4,5535,5471,15.85,2.6,30,12,0,0
174728,86784589,4,5465,5414,15.87,2.2,30,12,0,0
175624,87002717,4,5393,4942,15.79,2.2,30,12,0,0
176025,87105144,4,4942,4985,15.8,2.14,30,12,0,0
176962,87333362,4,4983,4957,15.85,1.93,30,12,0,0
177400,87437645,4,4956,4942,15.82,1.89,30,12,0,0
177855,87552421,4,4941,4928,15.75,2.1,30,12,0,0
178308,87667006,4,4930,4957,15.76,2.05,30,12,0,0
178752,87774496,4,4966,5100,15.76,2.49,30,12,0,0
179157,87878107,4,5107,5242,15.82,2.39,30,13,0,0
179610,87988453,4,5238,5200,15.83,2.1,30,13,0,0
180473,88206620,4,5200,5214,15.79,2.34,30,13,0,0
180915,88316117,4,5218,5271,15.76,2.41,30,13,0,0
181364,88425546,4,5274,5300,15.82,2.53,30,13,0,0
181767,88523613,4,5301,5357,15.86,2.47,30,13,0,0
182219,88639333,4,5364,5471,15.79,2.59,30,13,0,0
182629,88739105,4,5467,5257,15.83,2.37,30,13,0,0
183116,88856958,4,5264,5342,15.85,2.34,30,13,0,0
183563,88961714,4,5336,5257,15.8,2.16,30,13,0,0
184005,89071916,4,5263,5357,15.76,2.55,30,13,0,0
184453,89177932,4,5362,5442,15.85,2.47,30,13,0,0
184936,89292580,4,5433,5342,15.82,2.44,30,14,0,0
185339,89390636,4,5341,5328,15.73,2.49,30,14,0,0
185791,89506938,4,5329,5342,15.82,2.54,30,14,0,0
186237,89614565,4,5325,5100,15.82,1.9,30,14,0,0
186683,89722170,4,5097,5071,15.83,2.01,30,14,0,0
187085,89823156,4,5069,5042,15.88,2.12,30,14,0,0
187538,89934229,4,5042,5042,15.82,2.04,30,14,0,0
187992,90048355,4,5039,5014,15.79,2.17,30,14,0,0
188399,90145982,4,5016,5171,15.8,2.33,30,14,0,0
188885,90262033,4,5179,5271,15.76,2.36,30,14,0,0
189330,90367162,4,5271,5285,15.86,2.21,30,14,0,0
189779,90480142,4,5305,5514,15.8,2.65,30,14,0,0
190231,90588619,4,5525,5642,15.81,2.85,30,14,0,0
190674,90697717,4,5630,5471,15.82,2.27,30,14,0,0
191127,90809363,4,5465,5414,15.8,2.54,30,14,0,0
191571,90916370,4,5409,5357,15.76,2.44,30,15,0,0
192023,91030090,4,5362,5414,15.75,2.31,30,15,0,0
192477,91142019,4,5408,5328,15.78,2.22,30,15,0,0
192881,91242648,4,5322,5128,15.78,2.05,30,15,0,0
193375,91360665,4,5134,5200,15.77,2.2,30,15,0,0
193777,91462411,4,5195,5100,15.83,2.15,30,15,0,0
194205,91578353,4,5117,5300,15.82,2.32,30,15,0,0
194582,91676489,4,5295,5200,15.78,2.29,30,15,0,0
195032,91785713,4,5201,5342,15.78,2.33,30,15,0,0
195520,91904630,4,5343,5357,15.77,2.68,30,15,0,0
195976,92014537,4,5362,5442,15.75,2.54,30,15,0,0
196420,92123548,4,5440,5414,15.82,2.72,30,15,0,0
196868,92237514,4,5414,5414,15.76,2.51,30,15,0,0
197273,92335525,4,5419,5528,15.75,2.73,30,16,0,0
197659,92446098,4,5528,5528,15.74,2.86,30,16,0,0
198109,92554942,4,5532,5585,15.72,2.63,30,16,0,0
198522,92660574,4,5587,5642,15.76,2.81,30,16,0,0
198975,92770697,4,5640,5514,15.76,2.63,30,16,0,0
199420,92885534,4,5501,5400,15.76,2.77,30,16,0,0
199871,92989108,4,5401,5514,15.78,2.84,30,16,0,0
200316,93096951,4,5504,5385,15.76,2.66,30,16,0,0
200767,93206792,4,5382,5357,15.8,2.35,30,16,0,0
201211,93320696,4,5353,5314,15.76,2.43,30,16,0,0
201619,93419148,4,5309,5200,15.72,2.35,30,16,0,0
202058,93528006,4,5197,5128,15.77,2.1,30,16,0,0
202537,93642511,4,5134,5214,15.79,2.46,30,16,0,0
202988,93757021,4,5205,5157,15.74,2.36,30,17,0,0
203392,93852535,4,5169,5400,15.69,2.7,30,17,0,0
203843,93956537,4,5399,5385,15.76,2.38,30,17,0,0
204332,94075545,4,5374,5285,15.79,2.54,30,17,0,0
204779,94184580,4,5294,5357,15.78,2.34,30,17,0,0
205218,94286581,4,5359,5385,15.73,2.49,30,17,0,0
205660,94392036,4,5390,5457,15.75,2.73,30,17,0,0
206107,94500125,4,5472,5657,15.79,2.93,30,17,0,0
206558,94614643,4,5649,5585,15.77,2.64,30,17,0,0
207440,94830535,4,5579,5471,15.81,2.49,30,17,0,0
207896,94942298,4,5467,5428,15.82,2.44,30,17,0,0
208339,95052538,4,5421,5342,15.75,2.22,30,17,0,0
208789,95158880,4,5345,5371,15.79,2.31,30,18,0,0
209196,95263515,4,5363,5271,15.77,2.39,30,18,0,0
209647,95369928,4,5276,5357,15.76,2.41,30,18,0,0
210046,95473367,4,5356,5342,15.77,2.39,30,18,0,0
210537,95588685,4,5336,5185,15.79,2.32,30,18,0,0
210944,95691366,4,5177,5085,15.75,2.1,30,18,0,0
211394,95800944,4,5085,5085,15.75,2.34,30,18,0,0
212326,96026803,4,5089,5214,15.77,2.3,30,18,0,0
212733,96125176,4,5210,5071,15.82,2.13,30,18,0,0
213183,96238345,4,5081,5228,15.77,2.27,30,18,0,0
213627,96344573,4,5227,5200,15.76,2.37,30,18,0,0
214072,96457695,4,5197,5142,15.73,2.18,30,18,0,0
214521,96562882,4,5146,5228,15.76,2.29,30,18,0,0
214928,96670794,4,5231,5357,15.81,2.44,30,18,0,0
215381,96781349,4,5346,5085,15.79,2.42,30,19,0,0
215829,96894661,4,5088,5142,15.76,2.02,30,19,0,0
216281,97003573,4,5128,4985,15.78,2.33,30,19,0,0
216693,97109695,4,4998,5200,15.74,2.37,30,19,0,0
218029,97439639,4,5196,5057,15.76,2.03,30,19,0,0
218474,97543641,4,5059,5100,15.72,2.22,30,19,0,0
218883,97648572,4,5100,5128,15.78,2.21,30,19,0,0
219377,97766346,4,5122,5071,15.76,2.25,30,19,0,0
219778,97865950,4,5073,5200,15.74,2.35,30,19,0,0
220270,97983015,4,5200,5200,15.74,2.13,30,19,0,0
220675,98085663,4,5201,5300,15.77,2.62,30,19,0,0
221155,98196640,4,5308,5414,15.72,2.84,30,19,0,0
221601,98305675,4,5419,5542,15.77,2.86,30,20,0,0
222055,98415893,4,5540,5485,15.73,2.64,30,20,0,0
222498,98522488,4,5482,5428,15.71,2.48,30,20,0,0
222945,98630632,4,5420,5257,15.73,2.4,30,20,0,0
223396,98739983,4,5262,5400,15.73,2.64,30,20,0,0
223844,98850437,4,5397,5357,15.72,2.52,30,20,0,0
224295,98962119,4,5360,5400,15.75,2.58,30,20,0,0
224780,99077415,4,5406,5471,15.79,2.6,30,20,0,0
225183,99176150,4,5469,5414,15.72,2.47,30,20,0,0
226115,99401691,4,5412,5385,15.77,2.54,30,20,0,0
226516,99501616,4,5385,5385,15.73,2.77,30,20,0,0
227043,99627885,4,5392,5457,15.73,2.79,30,21,0,0
227450,99727167,4,5467,5600,15.74,2.67,30,21,0,0
227894,99838830,4,5598,5571,15.69,2.79,30,21,0,0
228792,100058685,4,5564,5428,15.75,2.46,30,21,0,0
229243,100165933,4,5421,5357,15.7,2.62,30,21,0,0
229647,100269107,4,5357,5385,15.76,2.55,30,21,0,0
230138,100386655,4,5385,5385,15.75,2.65,30,21,0,0
230545,100491473,4,5385,5385,15.73,2.64,30,21,0,0
230999,100600379,4,5386,5400,15.68,2.61,30,21,0,0
231480,100715696,4,5397,5371,15.7,2.35,30,21,0,0
231920,100828634,4,5378,5442,15.73,2.94,30,21,0,0
232329,100926631,4,5444,5614,15.74,2.95,30,21,0,0
232778,101036747,4,5617,5714,15.74,2.92,30,22,0,0
233661,101251153,4,5710,5571,15.7,2.6,30,22,0,0
234113,101363669,4,5559,5414,15.76,1.92,30,22,0,0
234523,101471345,4,5403,5257,15.73,2.06,30,22,0,0
234974,101580191,4,5252,5128,15.72,2.18,30,22,0,0
235458,101698458,4,5140,5228,15.75,2.43,30,22,0,0
235903,101807410,4,5235,5300,15.69,2.57,30,22,0,0
236310,101908909,4,5310,5400,15.7,2.43,30,22,0,0
236755,102011579,4,5403,5585,15.73,3.02,30,22,0,0
237247,102128350,4,5591,5685,15.79,2.93,30,22,0,0
237729,102250031,4,5674,5500,15.69,2.71,31,22,0,0
238175,102356636,4,5507,5600,15.77,2.98,30,22,0,0
238571,102454192,4,5598,5542,15.75,2.53,30,23,0,0
239018,102560569,4,5542,5571,15.75,2.85,30,23,0,0
239468,102665995,4,5571,5585,15.66,2.93,31,23,0,0
240361,102889143,4,5586,5628,15.7,2.92,31,23,0,0
240807,102998438,4,5626,5614,15.76,3.05,30,23,0,0
241290,103112503,4,5612,5585,15.71,2.73,30,23,0,0
241741,103226468,4,5572,5457,15.79,2.85,30,23,0,0
242146,103329383,4,5469,5614,15.73,2.79,30,23,0,0
242636,103448898,4,5612,5600,15.7,2.87,30,23,0,0
243040,103543885,4,5596,5571,15.68,2.86,30,23,0,0
243488,103657497,4,5563,5442,15.73,2.52,30,24,0,0
243930,103759182,4,5442,5442,15.69,2.52,31,24,0,0
244379,103874527,4,5433,5342,15.78,2.63,31,24,0,0
244828,103983903,4,5338,5300,15.72,2.51,30,24,0,0
245244,104089519,4,5301,5328,15.71,2.36,31,24,0,0
245569,104190623,4,5325,5271,15.72,2.47,31,24,0,0
246054,104308028,4,5274,5314,15.75,2.33,31,24,0,0
246504,104416912,4,5309,5257,15.73,2.54,30,24,0,0
246907,104518627,4,5259,5414,15.76,2.57,31,24,0,0
247431,104641549,4,5418,5485,15.79,2.51,31,24,0,0
247840,104745484,4,5472,5357,15.78,2.4,31,24,0,0
248287,104853441,4,5350,5285,15.74,2.57,31,24,0,0
248773,104967586,4,5299,5457,15.71,2.54,31,24,0,0
249223,105074489,4,5450,5385,15.69,2.62,31,24,0,0
249672,105184665,4,5383,5371,15.76,2.42,31,25,0,0
250063,105277718,4,5372,5428,15.69,2.47,31,25,0,0
250516,105389415,4,5426,5400,15.75,2.34,31,25,0,0
250968,105504697,4,5388,5271,15.72,2.36,31,25,0,0
251815,105712643,4,5270,5242,15.79,2.48,31,25,0,0
252709,105933472,4,5245,5342,15.73,2.47,31,25,0,0
253161,106047025,4,5350,5442,15.75,2.73,31,25,0,0
253610,106155902,4,5435,5371,15.76,2.69,31,25,0,0
254050,106263202,4,5362,5242,15.74,2.36,31,25,0,0
254495,106367640,4,5238,5185,15.73,2.35,31,25,0,0
254937,106475573,4,5189,5285,15.71,2.47,31,25,0,0
255386,106584493,4,5288,5371,15.78,2.55,31,26,0,0
255827,106692632,4,5367,5300,15.76,2.58,31,26,0,0
256319,106810451,4,5294,5242,15.68,2.52,31,26,0,0
256762,106920548,4,5240,5228,15.69,2.5,31,26,0,0
257173,107021665,4,5230,5442,15.74,2.74,31,26,0,0
257619,107131035,4,5451,5571,15.77,2.61,31,26,0,0
258108,107251203,4,5558,5442,15.67,2.46,31,26,0,0
258555,107360594,4,5445,5485,15.68,2.81,31,26,0,0
258961,107464382,4,5494,5614,15.77,2.88,31,26,0,0
259407,107571895,4,5605,5485,15.69,2.54,31,26,0,0
259848,107679498,4,5479,5371,15.7,2.33,31,26,0,0
260300,107790501,4,5371,5371,15.64,2.55,31,26,0,0
260743,107900637,4,5376,5457,15.64,2.64,31,27,0,0
261197,108019640,4,5448,5400,15.67,2.6,31,27,0,0
261598,108115510,4,5404,5457,15.7,2.24,31,27,0,0
262046,108224589,4,5451,5314,15.72,2.53,31,27,0,0
262491,108334364,4,5306,5228,15.69,2.51,31,27,0,0
262894,108435617,4,5242,5557,15.69,2.98,31,27,0,0
263385,108553515,4,5568,5685,15.63,2.84,31,27,0,0
263794,108659886,4,5678,5571,15.62,2.74,31,27,0,0
264082,108765579,4,5571,5571,15.67,2.85,31,27,0,0
264518,108870147,4,5566,5485,15.72,2.68,31,27,0,0
264969,108983561,4,5490,5600,15.61,3.2,31,27,0,0
265413,109090655,4,5603,5685,15.64,2.9,31,27,0,0
265900,109213560,4,5687,5700,15.73,2.61,31,27,0,0
266305,109308998,4,5690,5428,15.73,2.44,31,28,0,0
266749,109419079,4,5427,5414,15.76,2.37,31,28,0,0
267199,109532514,4,5416,5442,15.64,2.8,31,28,0,0
268049,109740216,4,5442,5471,15.76,2.42,31,28,0,0
268493,109857030,4,5459,5371,15.69,2.46,31,28,0,0
268980,109968688,4,5366,5314,15.75,2.54,31,28,0,0
269393,110071489,4,5316,5342,15.72,2.47,31,28,0,0
269843,110178119,4,5347,5400,15.7,2.51,31,28,0,0
270287,110290479,4,5415,5571,15.73,2.87,31,28,0,0
270734,110398365,4,5569,5542,15.76,2.8,31,28,0,0
271180,110508949,4,5540,5514,15.76,2.78,31,28,0,0
271627,110621649,4,5507,5457,15.79,2.53,31,29,0,0
272075,110732910,4,5452,5400,15.72,2.55,31,29,0,0
272968,110947536,4,5402,5457,15.7,2.77,31,29,0,0
273365,111043717,4,5454,5300,15.73,2.38,31,29,0,0
273852,111160675,4,5292,5228,15.69,2.62,31,29,0,0
274256,111263973,4,5227,5200,15.72,2.18,31,29,0,0
274746,111380587,4,5207,5285,15.71,2.47,31,29,0,0
275151,111479886,4,5283,5242,15.76,2.51,31,29,0,0
275595,111585948,4,5239,5114,15.72,2.67,31,29,0,0
276890,111912587,4,5118,5428,15.71,2.71,31,29,0,0
277375,112028130,4,5437,5542,15.72,2.68,31,30,0,0
277783,112127800,4,5540,5442,15.66,2.84,31,30,0,0
278234,112244204,4,5452,5557,15.75,2.69,31,30,0,0
278684,112353011,4,5558,5571,15.73,2.86,31,30,0,0
279135,112466519,4,5544,5357,15.7,2.66,31,30,0,0
279573,112568794,4,5362,5485,15.65,2.78,31,30,0,0
279980,112673570,4,5485,5528,15.67,2.96,31,30,0,0
280468,112789403,4,5524,5485,15.64,2.67,31,30,0,0
280872,112892380,4,5482,5342,15.67,2.75,31,30,0,0
281320,112998913,4,5346,5628,15.7,2.83,31,30,0,0
281804,113116408,4,5608,5414,15.73,2.26,31,30,0,0
282204,113216183,4,5413,5342,15.68,2.42,31,30,0,0
282702,113338616,4,5336,5271,15.67,2.55,31,30,0,0
283103,113438523,4,5277,5400,15.63,2.52,31,31,0,0
283959,113652002,4,5400,5414,15.68,2.35,31,31,0,0
284452,113769889,4,5403,5300,15.62,2.53,31,31,0,0
284843,113864407,4,5304,5471,15.71,2.46,31,31,0,0
285299,113974449,4,5467,5385,15.68,2.3,31,31,0,0
285784,114090901,4,5374,5228,15.68,2.27,31,31,0,0
286231,114200022,4,5230,5271,15.61,2.66,31,31,0,0
286672,114306553,4,5294,5628,15.61,3.27,31,31,0,0
287121,114417830,4,5630,5657,15.66,2.8,31,31,0,0
287572,114529913,4,5634,5400,15.62,2.97,31,31,0,0
287975,114630988,4,5403,5614,15.63,3.05,31,31,0,0
288420,114736891,4,5612,5585,15.66,2.87,31,32,0,0
288870,114850230,4,5574,5328,15.67,1.9,31,32,0,0
289359,114964899,4,5306,5085,15.67,1.76,31,32,0,0
289766,115069619,4,5072,4942,15.66,2.19,31,32,0,0
290212,115176883,4,4938,4685,15.69,1.48,31,32,0,0
290653,115288463,4,4686,4714,15.57,1.68,31,32,0,0
291103,115395173,4,4709,4614,15.66,1.93,31,32,0,0
291546,115502431,4,4631,4885,15.62,2.18,31,32,0,0
292040,115624145,4,4901,5014,15.68,2.28,31,32,0,0
292482,115727489,4,5010,4971,15.61,1.95,31,32,0,0
292853,115826787,4,4968,4900,15.63,2.35,31,32,0,0
293306,115937480,4,4905,5028,15.63,2.44,31,32,0,0
293754,116044461,4,5030,5128,15.6,2.57,31,32,0,0
294241,116158107,4,5130,5171,15.63,2.36,31,32,0,0
294647,116263991,4,5171,5185,15.68,2.41,31,32,0,0
295092,116370535,4,5189,5285,15.72,2.43,31,32,0,0
295987,116593362,4,5288,5357,15.64,2.68,31,33,0,0
296431,116702407,4,5345,5228,15.68,2.51,31,33,0,0
296837,116802489,4,5229,5300,15.67,2.45,31,33,0,0
297277,116910405,4,5300,5314,15.66,2.46,31,33,0,0
297731,117021679,4,5316,5514,15.65,2.58,31,33,0,0
298211,117143084,4,5486,5228,15.66,2.6,31,33,0,0
298658,117256276,4,5254,5442,15.64,2.64,31,33,0,0
299502,117454174,4,5442,5442,15.64,2.56,31,33,0,0
299989,117576608,4,5428,5314,15.62,2.46,31,33,0,0
300433,117686502,4,5321,5400,15.63,2.51,31,33,0,0
300837,117781457,4,5399,5385,15.69,2.56,31,34,0,0
301283,117891714,4,5386,5414,15.65,2.42,31,34,0,0
301765,118007551,4,5412,5385,15.63,2.6,31,34,0,0
302172,118113108,4,5386,5400,15.66,2.56,31,34,0,0
302656,118227405,4,5403,5428,15.66,2.52,31,34,0,0
303060,118329307,4,5427,5400,15.6,2.66,31,34,0,0
303508,118443402,4,5397,5371,15.63,2.68,31,34,0,0
303952,118549032,4,5369,5271,15.66,2.32,31,34,0,0
304395,118659904,4,5271,5271,15.63,2.27,31,34,0,0
304802,118757550,4,5272,5342,15.6,2.44,31,34,0,0
305691,118973634,4,5340,5185,15.61,2.35,31,34,0,0
306174,119085698,4,5184,5171,15.66,2.21,31,34,0,0
306623,119197462,4,5171,5171,15.69,2.14,31,34,0,0
307511,119419499,4,5168,5100,15.69,2.24,31,35,0,0
307962,119531559,4,5100,5100,15.58,2.34,31,35,0,0
308365,119634693,4,5101,5128,15.61,2.26,31,35,0,0
308810,119739535,4,5125,5000,15.62,1.91,31,35,0,0
309265,119855800,4,4997,4957,15.63,2.15,31,35,0,0
309713,119965605,4,4964,5071,15.6,2.16,31,35,0,0
310161,120079393,4,5078,5157,15.7,2.32,31,35,0,0
310566,120177665,4,5157,5185,15.68,2.32,31,35,0,0
311010,120287786,4,5184,5171,15.66,2.26,31,35,0,0
311509,120405794,4,5166,5128,15.66,2.07,31,35,0,0
311953,120515500,4,5119,5000,15.63,2.24,31,35,0,0
312400,120624452,4,4989,4857,15.67,1.85,31,35,0,0
312807,120729700,4,4858,4942,15.76,1.94,31,35,0,0
313255,120841609,4,4939,4800,15.75,1.92,31,35,0,0
313744,120953789,4,4795,4742,15.66,1.92,31,35,0,0
314149,121056913,4,4742,4814,15.74,2.16,31,36,0,0
314596,121166900,4,4816,4928,15.69,1.99,31,36,0,0
315080,121283982,4,4924,4885,15.73,1.87,31,36,0,0
315531,121390615,4,4882,4857,15.67,1.93,31,36,0,0
315969,121496934,4,4864,4971,15.67,2.34,31,36,0,0
316417,121607510,4,4985,5128,15.68,2.43,31,36,0,0
316852,121710635,4,5135,5271,15.69,2.64,31,36,0,0
317305,121821943,4,5281,5428,15.61,2.6,31,36,0,0
317751,121933693,4,5428,5428,15.63,2.64,31,36,0,0
318161,122039163,4,5427,5400,15.72,2.45,31,36,0,0
318610,122147581,4,5399,5371,15.62,2.45,31,36,0,0
319011,122248528,4,5369,5271,15.68,2.35,31,36,0,0
319499,122362505,4,5273,5300,15.63,2.38,31,36,0,0
319944,122473644,4,5298,5271,15.66,2.46,31,36,0,0
320388,122579663,4,5269,5228,15.69,2.3,31,37,0,0
320797,122683321,4,5226,5128,15.59,2.07,31,37,0,0
321288,122799934,4,5129,5142,15.64,2.18,31,37,0,0
321731,122907682,4,5135,5028,15.68,2.2,31,37,0,0
322184,123019500,4,5024,4985,15.67,2.02,31,37,0,0
322627,123129546,4,4993,5085,15.68,2.12,31,37,0,0
323031,123231511,4,5085,5085,15.63,2.21,31,37,0,0
323962,123458344,4,5090,5200,15.64,2.32,31,37,0,0
324408,123569892,4,5196,5171,15.58,2.51,31,37,0,0
324852,123680580,4,5185,5300,15.64,2.51,31,37,0,0
325299,123790017,4,5308,5385,15.69,2.49,31,37,0,0
325712,123895475,4,5377,5314,15.7,2.4,31,37,0,0
326159,123999902,4,5312,5200,15.66,2.52,31,37,0,0
326600,124109684,4,5217,5428,15.72,2.73,31,38,0,0
327055,124223596,4,5433,5471,15.69,2.62,31,38,0,0
327455,124322319,4,5474,5514,15.67,2.47,31,38,0,0
327903,124433455,4,5512,5500,15.71,2.9,31,38,0,0
328346,124544522,4,5491,5414,15.66,2.8,31,38,0,0
328751,124649118,4,5420,5557,15.69,2.87,31,38,0,0
329241,124768557,4,5559,5585,15.72,2.37,31,38,0,0
329677,124871488,4,5559,5242,15.65,2.61,31,38,0,0
330171,124989373,4,5277,5657,15.69,3.06,31,38,0,0
331462,125307526,4,5656,5542,15.69,2.64,31,38,0,0
332394,125531443,4,5532,5328,15.66,2.42,31,39,0,0
332794,125629541,4,5330,5400,15.68,2.6,31,39,0,0
333242,125737145,4,5398,5342,15.68,2.66,31,39,0,0
333752,125958614,4,5371,5385,15.63,2.97,31,39,0,0
334195,126068547,4,5391,5514,15.71,2.85,31,39,0,0
334646,126177927,4,5523,5657,15.68,2.87,31,39,0,0
335086,126284579,4,5647,5471,15.69,2.49,31,39,0,0
335536,126393720,4,5471,5485,15.67,2.6,31,39,0,0
335947,126500468,4,5481,5400,15.69,2.61,31,39,0,0
336394,126609886,4,5400,5414,15.72,2.46,31,39,0,0
337326,126839334,4,5409,5300,15.66,2.75,31,40,0,0
337774,126947034,4,5311,5428,15.68,2.79,31,40,0,0
338179,127048500,4,5426,5414,15.7,2.77,31,40,0,0
338627,127156361,4,5418,5485,15.69,2.7,31,40,0,0
339033,127261335,4,5483,5471,15.72,2.59,31,40,0,0
339485,127371128,4,5474,5528,15.7,2.97,31,40,0,0
339927,127480644,4,5518,5414,15.75,2.42,31,40,0,0
340372,127586803,4,5414,5414,15.66,2.68,31,40,0,0
341032,127806441,4,5541,5528,15.67,2.9,31,40,0,0
341473,127913364,4,5521,5457,15.72,2.63,31,40,0,0
341882,128015427,4,5463,5600,15.66,2.97,31,40,0,0
342326,128123784,4,5599,5585,15.68,2.8,31,41,0,0
342777,128233654,4,5582,5528,15.63,2.7,31,41,0,0
343230,128344631,4,5524,5485,15.65,2.75,31,41,0,0
343673,128453585,4,5480,5414,15.66,2.55,31,41,0,0
344121,128561513,4,5422,5500,15.66,2.56,31,41,0,0
344565,128673565,4,5498,5485,15.67,2.78,31,41,0,0
345415,128882542,4,5486,5542,15.69,2.94,31,41,0,0
345860,128988620,4,5542,5542,15.72,2.54,31,41,0,0
346310,129103170,4,5538,5500,15.58,2.76,31,41,0,0
346717,129203892,4,5502,5628,15.64,3.1,31,41,0,0
347204,129322900,4,5626,5614,15.66,2.87,31,41,0,0
347657,129437901,4,5617,5657,15.63,3.08,32,42,0,0
348097,129540789,4,5669,5785,15.51,3.18,32,42,0,0
348503,129642360,4,5797,5971,15.54,3.39,31,42,0,0
348951,129750717,4,5967,5914,15.57,3.09,31,42,0,0
349339,129856995,4,5903,5685,15.6,2.83,31,42,0,0
349790,129969345,4,5678,5585,15.57,2.75,31,42,0,0
350236,130079581,4,5573,5457,15.63,2.58,32,42,0,0
350684,130188495,4,5454,5414,15.64,2.58,31,42,0,0
351131,130303237,4,5397,5242,15.72,2.18,31,42,0,0
351543,130403129,4,5235,5142,15.69,2.39,32,42,0,0
352470,130631558,4,5150,5300,15.69,2.69,32,42,0,0
352918,130736998,4,5305,5357,15.66,2.63,32,43,0,0
353323,130841411,4,5356,5314,15.72,2.48,32,43,0,0
353806,130961005,4,5320,5371,15.7,2.27,31,43,0,0
354208,131056142,4,5373,5414,15.67,2.52,32,43,0,0
354658,131165021,4,5409,5314,15.69,1.8,31,43,0,0
355065,131270403,4,5300,5042,15.69,2.09,32,43,0,0
355518,131381485,4,5042,5042,15.75,2.01,32,43,0,0
355927,131487412,4,5002,4628,16.25,0.65,31,43,0,0
356331,131585655,4,4603,4085,15.8,2.51,32,43,0,0
356776,131694773,4,4068,3000,16.05,0.18,31,43,0,0
357225,131803088,4,2992,2557,16.08,0.3,32,43,0,0
357703,131916033,4,2555,2528,16.07,0.35,32,43,0,0
358150,132027238,4,2513,2385,16.02,0.24,32,43,0,0
358597,132135473,4,2378,2314,16.03,0.28,32,43,0,0
359000,132238655,4,2310,2242,16.05,0.25,32,43,0,0
359451,132354176,4,2237,2200,16.04,0.28,32,43,0,0
359854,132453591,4,2201,2228,16.07,0.25,32,43,0,0
360342,132577366,4,2220,2171,16.05,0.23,32,43,0,0
360747,132675908,4,2175,2228,16.05,0.25,32,43,0,0
361198,132791584,4,2223,2185,16.07,0.22,32,43,0,0
361607,132892437,4,2184,2171,16.05,0.27,32,43,0,0
362500,133110569,4,2169,2142,16.05,0.22,31,43,0,0
363390,133329792,4,2138,2071,16.07,0.21,31,43,0,0
363839,133435660,4,2072,2085,16.07,0.24,32,43,0,0
364237,133532936,4,2085,2114,16.15,0.17,31,43,0,0
364728,133650027,4,2084,1785,16.14,0.01,31,43,0,0
365131,133746588,4,1772,1442,16.13,0.03,31,43,0,0
365580,133857506,4,1435,1357,16.12,0.09999999,31,43,0,0
366032,133966787,4,1354,1328,16.11,0.11,31,43,0,0
366435,134067432,4,1328,1328,16.13,0.11,31,43,0,0
366931,134187509,4,1328,1328,16.14,0.11,31,43,0,0
367334,134286132,4,1328,1342,16.13,0.11,31,43,0,0
367781,134394335,4,1342,1342,16.13,0.11,31,43,0,0
368266,134508451,4,1342,1342,16.14,0.11,31,43,0,0
368684,134618690,4,1342,1342,16.13,0.11,31,43,0,0
369173,134733176,4,1342,1342,16.14,0.11,31,43,0,0
370107,134949567,4,1342,1342,16.14,0.11,31,43,0,0
370510,135049904,4,1342,1342,16.14,0.11,31,43,0,0
370991,135156911,4,1342,1342,16.14,0.11,31,43,0,0
371436,135265503,4,1342,1342,16.14,0.11,31,43,0,0
371935,135382545,4,1342,1342,16.16,0.11,31,43,0,0
372379,135488146,4,1342,1342,16.15,0.11,31,43,0,0
372830,135596702,4,1341,1328,16.15,0.11,31,43,0,0
373270,135703165,4,1328,1342,16.16,0.11,31,43,0,0
373682,135804883,4,1342,1342,16.15,0.11,31,43,0,0
374133,135917534,4,1341,1328,16.16,0.11,31,43,0,0
374584,136026948,4,1328,1328,16.16,0.11,31,43,0,0
375036,136137416,4,1328,1328,16.15,0.11,31,43,0,0
375432,136234952,4,1328,1328,16.16,0.11,31,43,0,0
375886,136344379,4,1328,1328,16.14,0.11,31,43,0,0
376333,136452565,4,1328,1328,16.13,0.11,31,43,0,0
376779,136559700,4,1328,1328,16.16,0.11,31,43,0,0
377223,136668791,4,1328,1328,16.16,0.11,31,43,0,0
377673,136777009,4,1328,1328,16.16,0.11,31,43,0,0
378117,136885632,4,1328,1328,16.16,0.11,31,43,0,0
378571,136996524,4,1329,1342,16.16,0.11,31,43,0,0
378972,137092679,4,1341,1328,16.16,0.11,31,43,0,0
379458,137205147,4,1328,1328,16.17,0.11,31,43,0,0
379911,137320618,4,1328,1328,16.17,0.11,31,43,0,0
380356,137425882,4,1328,1328,16.17,0.11,31,43,0,0
381246,137640175,4,1328,1328,16.17,0.11,31,43,0,0
381733,137754522,4,1329,1342,16.17,0.11,31,43,0,0
382170,137857052,4,1342,1342,16.17,0.11,31,43,0,0
383061,138069625,4,1341,1328,16.17,0.11,31,43,0,0
383512,138179504,4,1328,1342,16.19,0.11,31,43,0,0
383961,138288527,4,1342,1342,16.18,0.09999999,31,43,0,0
384413,138397916,4,1342,1342,16.18,0.11,31,43,0,0
384855,138502362,4,1342,1342,16.19,0.11,31,43,0,0
385303,138610042,4,1340,1328,16.17,0.11,31,43,0,0
385749,138717682,4,1328,1342,16.19,0.11,31,43,0,0
386195,138828545,4,1342,1342,16.19,0.09999999,31,43,0,0
386640,138933439,4,1342,1342,16.19,0.09999999,31,43,0,0
387086,139042144,4,1342,1342,16.19,0.09999999,31,43,0,0
387534,139148504,4,1342,1342,16.19,0.09999999,31,43,0,0
387939,139249660,4,1342,1342,16.19,0.09999999,31,43,0,0
388433,139364330,4,1342,1342,16.19,0.11,31,43,0,0
388880,139473483,4,1342,1342,16.19,0.11,31,43,0,0
389326,139577574,4,1342,1342,16.19,0.09999999,31,43,0,0
389769,139687615,4,1342,1342,16.2,0.09999999,31,43,0,0
390621,139894498,4,1341,1328,16.2,0.11,31,43,0,0
391599,140121908,4,1328,1342,16.22,0.08,31,43,0,0
392053,140229156,4,1223,314,16.21,0,31,43,0,0
392948,140441316,4,307,0,16.22,0.04,31,43,0,0
393447,140557174,4,0,0,16.21,0.04,31,43,0,0
393897,140665490,4,0,0,16.22,0.04,31,43,0,0
394350,140770431,4,0,0,16.22,0.04,31,43,0,0
394804,140882950,4,0,0,16.22,0.04,31,43,0,0
395257,140987614,4,0,0,16.22,0.04,31,43,0,0
395710,141098467,4,0,0,16.22,0.04,31,43,0,0
396165,141200918,4,0,0,16.22,0.04,31,43,0,0
396656,141318903,4,0,0,16.22,0.04,31,43,0,0
397109,141426642,4,0,0,16.23,0.04,30,43,0,0
397557,141533440,4,0,0,16.22,0.04,30,43,0,0
398008,141640696,4,0,0,16.23,0.04,30,43,0,0
398507,141758143,4,0,0,16.23,0.04,30,43,0,0
398916,141859413,4,0,0,16.22,0.04,30,43,0,0
399411,141974636,4,0,0,16.22,0.04,30,43,0,0
399859,142079666,4,0,0,16.22,0.04,30,43,0,0
400315,142183371,4,0,0,16.23,0.04,30,43,0,0
400768,142293363,4,0,0,16.23,0.04,30,43,0,0
401265,142409411,4,0,0,16.23,0.04,30,43,0,0
401713,142516510,4,0,0,16.23,0.04,30,43,0,0
402210,142634544,4,0,0,16.23,0.04,30,43,0,0
402664,142738326,4,0,0,16.23,0.04,30,43,0,0
403073,142838886,4,0,0,16.23,0.04,30,43,0,0
403569,142953830,4,0,0,16.23,0.04,30,43,0,0
404022,143066608,4,0,0,16.23,0.04,30,43,0,0
404474,143168569,4,0,0,16.23,0.04,30,43,0,0
404926,143276585,4,0,0,16.23,0.04,30,43,0,0
405378,143381524,4,0,0,16.23,0.04,30,43,0,0
405828,143489723,4,0,0,16.23,0.04,30,43,0,0
406324,143604328,4,0,0,16.23,0.04,30,43,0,0
406778,143712604,4,0,0,16.24,0.04,30,43,0,0
407227,143818723,4,0,0,16.24,0.04,30,43,0,0
407678,143925026,4,0,0,16.24,0.04,30,43,0,0
408169,144040896,4,0,0,16.24,0.04,30,43,0,0
408623,144146226,4,0,0,16.25,0.04,30,43,0,0
409081,144257412,4,0,0,16.24,0.04,30,43,0,0
