LineNo,TimeUS,Instance,RPM,RawRPM,Volt,Curr,Temp,CTot,MotTemp,Err
1734,45403019,1,0,0,16.76,0.03,25,0,0,0
2189,45515646,1,0,0,16.76,0.04,25,0,0,0
2609,45619406,1,0,0,16.76,0.04,24,0,0,0
3023,45724129,1,0,0,16.77,0.04,25,0,0,0
3478,45836918,1,0,0,16.76,0.04,25,0,0,0
3894,45938881,1,0,0,16.76,0.03,24,0,0,0
4349,46049365,1,0,0,16.76,0.03,24,0,0,0
4762,46153240,1,0,0,16.76,0.03,25,0,0,0
5180,46257030,1,0,0,16.76,0.03,24,0,0,0
5633,46368675,1,0,0,16.76,0.03,25,0,0,0
6048,46474389,1,0,0,16.76,0.03,25,0,0,0
6505,46586453,1,0,0,16.76,0.03,25,0,0,0
6918,46686803,1,0,0,16.76,0.03,25,0,0,0
7371,46798547,1,0,0,16.76,0.03,24,0,0,0
7786,46900442,1,0,0,16.76,0.03,25,0,0,0
8244,47014068,1,0,0,16.76,0.03,25,0,0,0
8654,47114635,1,0,0,16.76,0.03,25,0,0,0
9068,47216010,1,0,0,16.76,0.03,25,0,0,0
9419,47330551,1,0,0,16.76,0.03,25,0,0,0
9831,47431959,1,0,0,16.76,0.03,25,0,0,0
10249,47534928,1,0,0,16.76,0.03,25,0,0,0
10705,47648154,1,0,0,16.76,0.03,25,0,0,0
11089,47748576,1,0,0,16.76,0.04,25,0,0,0
11504,47853542,1,0,0,16.76,0.03,25,0,0,0
11956,47964412,1,0,0,16.76,0.03,25,0,0,0
12409,48072794,1,0,0,16.76,0.03,25,0,0,0
12819,48173543,1,0,0,16.76,0.03,25,0,0,0
13237,48281156,1,0,0,16.76,0.03,25,0,0,0
13647,48383399,1,0,0,16.76,0.03,25,0,0,0
14100,48496345,1,0,0,16.76,0.03,25,0,0,0
14517,48596661,1,0,0,16.76,0.03,25,0,0,0
14967,48708499,1,0,0,16.77,0.03,25,0,0,0
15834,48923941,1,0,0,16.76,0.03,25,0,0,0
16250,49028142,1,0,0,16.76,0.03,25,0,0,0
16664,49129915,1,0,0,16.76,0.03,25,0,0,0
17116,49244524,1,0,0,16.76,0.03,25,0,0,0
17529,49345806,1,0,0,16.76,0.03,25,0,0,0
17941,49448229,1,0,0,16.76,0.03,24,0,0,0
18396,49558424,1,0,0,16.76,0.03,25,0,0,0
18807,49662687,1,0,0,16.76,0.03,25,0,0,0
19260,49774977,1,0,0,16.76,0.04,25,0,0,0
19634,49870525,1,0,0,16.76,0.03,25,0,0,0
20089,49981517,1,0,0,16.76,0.04,25,0,0,0
20543,50094605,1,0,0,16.76,0.04,25,0,0,0
20952,50196402,1,0,0,16.76,0.04,25,0,0,0
21367,50303021,1,0,0,16.76,0.03,25,0,0,0
21780,50409089,1,0,0,16.76,0.03,25,0,0,0
22236,50521318,1,0,0,16.76,0.03,25,0,0,0
22646,50623154,1,0,0,16.76,0.03,25,0,0,0
23099,50734412,1,0,0,16.76,0.03,25,0,0,0
23517,50839290,1,0,0,16.76,0.03,25,0,0,0
23932,50940600,1,0,0,16.75,0.03,25,0,0,0
24348,51044884,1,0,0,16.76,0.04,25,0,0,0
24802,51154867,1,0,0,16.76,0.03,25,0,0,0
25251,51265949,1,0,0,16.76,0.04,25,0,0,0
25664,51366684,1,0,0,16.76,0.04,25,0,0,0
26113,51479115,1,0,0,16.76,0.04,25,0,0,0
26529,51580658,1,0,0,16.76,0.03,25,0,0,0
26944,51688967,1,0,0,16.76,0.03,25,0,0,0
27357,51790325,1,0,0,16.76,0.04,25,0,0,0
28674,52119608,1,0,0,16.76,0.03,25,0,0,0
29079,52222251,1,0,0,16.76,0.04,25,0,0,0
29495,52325558,1,0,0,16.76,0.03,25,0,0,0
29908,52429657,1,0,0,16.76,0.04,25,0,0,0
30368,52541900,1,0,0,16.76,0.03,25,0,0,0
30791,52645920,1,0,0,16.76,0.03,25,0,0,0
31289,52756998,1,0,0,16.76,0.03,25,0,0,0
31742,52861450,1,0,0,16.76,0.03,25,0,0,0
32242,52973691,1,0,0,16.75,0.04,25,0,0,0
32654,53072344,1,0,0,16.76,0.03,25,0,0,0
33155,53184439,1,0,0,16.75,0.03,25,0,0,0
33649,53298091,1,0,0,16.76,0.04,25,0,0,0
34097,53401677,1,0,0,16.76,0.04,25,0,0,0
34549,53504504,1,0,0,16.76,0.03,25,0,0,0
35049,53616252,1,0,0,16.75,0.03,25,0,0,0
35497,53720643,1,0,0,16.76,0.04,25,0,0,0
35947,53822391,1,0,0,16.76,0.04,25,0,0,0
36445,53933951,1,0,0,16.76,0.04,25,0,0,0
36935,54041168,1,0,0,16.76,0.04,25,0,0,0
37390,54143415,1,0,0,16.76,0.04,25,0,0,0
37886,54256930,1,0,0,16.75,0.04,25,0,0,0
38336,54357989,1,0,0,16.75,0.04,25,0,0,0
38788,54462001,1,0,0,16.76,0.04,25,0,0,0
39288,54574951,1,14,171,16.75,0.03,25,0,0,0
39737,54677704,1,183,528,16.74,0.07000000000000001,25,0,0,0
40233,54791575,1,561,914,16.73,0.14,25,0,0,0
41038,55000880,1,1232,1300,16.73,0.11,25,0,0,0
41490,55106012,1,1301,1342,16.75,0.11,25,0,0,0
41999,55225917,1,1342,1342,16.74,0.11,25,0,0,0
42454,55325630,1,1343,1357,16.73,0.11,25,0,0,0
42902,55429333,1,1356,1342,16.73,0.11,25,0,0,0
43403,55542538,1,1343,1357,16.73,0.11,25,0,0,0
43813,55638753,1,1357,1357,16.74,0.11,25,0,0,0
44311,55749359,1,1357,1357,16.75,0.11,25,0,0,0
44767,55854381,1,1357,1357,16.73,0.11,25,0,0,0
45267,55964882,1,1357,1357,16.74,0.11,25,0,0,0
45714,56065948,1,1357,1357,16.75,0.11,25,0,0,0
46174,56169690,1,1357,1357,16.75,0.11,25,0,0,0
46670,56283415,1,1357,1357,16.73,0.11,25,0,0,0
47122,56383500,1,1357,1357,16.73,0.11,25,0,0,0
47576,56488450,1,1356,1342,16.73,0.11,25,0,0,0
48075,56601130,1,1343,1357,16.74,0.11,25,0,0,0
48531,56708406,1,1355,1342,16.74,0.11,25,0,0,0
48984,56809700,1,1342,1357,16.75,0.11,25,0,0,0
49475,56920903,1,1356,1342,16.74,0.11,25,0,0,0
49932,57027715,1,1342,1342,16.74,0.11,25,0,0,0
50389,57130679,1,1342,1342,16.73,0.09999999,25,0,0,0
50839,57235724,1,1342,1357,16.73,0.11,25,0,0,0
51340,57346618,1,1357,1357,16.74,0.11,25,0,0,0
51790,57450886,1,1357,1357,16.73,0.09999999,25,0,0,0
52288,57564570,1,1357,1357,16.73,0.11,25,0,0,0
52741,57669515,1,1357,1357,16.74,0.11,25,0,0,0
53197,57773869,1,1356,1342,16.75,0.11,25,0,0,0
53682,57880793,1,1342,1357,16.73,0.11,25,0,0,0
54180,57993017,1,1355,1342,16.74,0.11,25,0,0,0
54591,58089970,1,1342,1342,16.74,0.11,25,0,0,0
55093,58205180,1,1342,1357,16.74,0.11,25,0,0,0
55545,58309933,1,1355,1342,16.75,0.11,25,0,0,0
56000,58416519,1,1342,1342,16.73,0.11,25,0,0,0
56493,58528555,1,1343,1357,16.74,0.11,25,0,0,0
56944,58633471,1,1357,1357,16.74,0.11,25,0,0,0
57398,58735930,1,1356,1342,16.74,0.11,25,0,0,0
58306,58946667,1,1342,1357,16.75,0.11,25,0,0,0
58761,59056357,1,1357,1357,16.73,0.11,25,0,0,0
59220,59162639,1,1357,1357,16.73,0.11,25,0,0,0
59671,59266039,1,1357,1357,16.74,0.11,25,0,0,0
60165,59377150,1,1356,1342,16.73,0.11,25,0,0,0
60617,59481013,1,1342,1357,16.74,0.09999999,25,0,0,0
61117,59590533,1,1357,1357,16.74,0.09999999,25,0,0,0
61577,59699922,1,1355,1342,16.73,0.09999999,25,0,0,0
62030,59800456,1,1342,1357,16.74,0.11,25,0,0,0
62445,59903395,1,1357,1357,16.73,0.11,25,0,0,0
62947,60014622,1,1357,1357,16.75,0.09999999,25,0,0,0
63394,60119005,1,1357,1357,16.74,0.09999999,25,0,0,0
63894,60236611,1,1355,1342,16.73,0.09999999,25,0,0,0
64350,60338906,1,1342,1357,16.73,0.09999999,25,0,0,0
64807,60446445,1,1355,1342,16.74,0.11,25,0,0,0
65259,60547689,1,1342,1357,16.74,0.11,25,0,0,0
65746,60656878,1,1357,1357,16.73,0.09999999,25,0,0,0
66247,60770098,1,1357,1357,16.74,0.11,25,0,0,0
66701,60874300,1,1357,1357,16.73,0.09999999,25,0,0,0
67157,60974513,1,1357,1357,16.73,0.09999999,25,0,0,0
67657,61094911,1,1355,1342,16.74,0.11,25,0,0,0
68109,61196153,1,1342,1342,16.73,0.09999999,25,0,0,0
68560,61294559,1,1342,1342,16.73,0.09999999,25,0,0,0
69058,61406186,1,1343,1357,16.73,0.09999999,25,0,0,0
69510,61509353,1,1357,1357,16.73,0.11,25,0,0,0
69955,61611709,1,1356,1342,16.74,0.11,25,0,0,0
70454,61723619,1,1342,1342,16.74,0.09999999,25,0,0,0
70906,61828514,1,1342,1357,16.73,0.11,25,0,0,0
71403,61936370,1,1356,1342,16.74,0.09999999,25,0,0,0
71854,62041807,1,1342,1357,16.73,0.09999999,25,0,0,0
72355,62158402,1,1357,1357,16.74,0.09999999,25,0,0,0
72812,62266166,1,1355,1342,16.73,0.09999999,25,0,0,0
73265,62368204,1,1342,1357,16.73,0.09999999,25,0,0,0
73759,62483570,1,1355,1342,16.77,0.08,25,0,0,0
74195,62590020,1,1277,328,16.75,0,25,0,0,0
74646,62700556,1,297,0,16.76,0.01,25,0,0,0
75101,62809689,1,0,0,16.75,0.03,25,0,0,0
75512,62904674,1,0,0,16.76,0.03,25,0,0,0
76043,63026722,1,0,0,16.75,0.04,25,0,0,0
76499,63131211,1,0,0,16.76,0.03,25,0,0,0
76954,63242356,1,0,0,16.76,0.03,25,0,0,0
77409,63346787,1,0,0,16.75,0.03,25,0,0,0
77863,63455701,1,0,0,16.75,0.03,25,0,0,0
78316,63558640,1,0,0,16.76,0.03,25,0,0,0
78810,63678935,1,0,0,16.75,0.03,25,0,0,0
79263,63781535,1,0,0,16.75,0.03,25,0,0,0
79722,63892920,1,0,0,16.76,0.03,25,0,0,0
80218,64007581,1,0,0,16.76,0.03,25,0,0,0
80668,64114450,1,0,0,16.75,0.03,25,0,0,0
81125,64227549,1,0,0,16.75,0.03,25,0,0,0
81579,64333106,1,0,0,16.75,0.03,25,0,0,0
82483,64547788,1,0,0,16.75,0.03,25,0,0,0
82975,64661317,1,0,0,16.76,0.03,25,0,0,0
83429,64765493,1,0,0,16.75,0.04,25,0,0,0
83888,64877383,1,0,0,16.75,0.03,25,0,0,0
84384,64990024,1,0,0,16.75,0.03,25,0,0,0
84836,65097612,1,0,0,16.76,0.03,25,0,0,0
85288,65201556,1,0,0,16.75,0.03,25,0,0,0
85781,65315591,1,0,0,16.75,0.03,25,0,0,0
86233,65422370,1,0,0,16.76,0.04,25,0,0,0
86689,65530378,1,0,0,16.76,0.03,25,0,0,0
87139,65637543,1,0,0,16.76,0.03,25,0,0,0
87635,65751665,1,0,0,16.75,0.03,25,0,0,0
88541,65963428,1,0,0,16.75,0.03,25,0,0,0
89040,66082940,1,0,0,16.75,0.03,25,0,0,0
89492,66187651,1,0,0,16.75,0.03,25,0,0,0
89936,66292722,1,0,0,16.75,0.03,25,0,0,0
90434,66409619,1,0,0,16.75,0.03,25,0,0,0
90894,66518634,1,0,0,16.75,0.03,25,0,0,0
91345,66624368,1,0,0,16.75,0.03,25,0,0,0
91798,66726542,1,0,0,16.75,0.03,25,0,0,0
92253,66834097,1,0,0,16.75,0.03,25,0,0,0
92716,66940665,1,0,0,16.76,0.04,25,0,0,0
93170,67050456,1,0,0,16.75,0.03,25,0,0,0
93670,67162657,1,0,0,16.75,0.03,25,0,0,0
94120,67269163,1,0,0,16.76,0.03,25,0,0,0
94576,67372609,1,0,0,16.75,0.03,25,0,0,0
95069,67486512,1,0,0,16.76,0.03,25,0,0,0
95526,67590468,1,0,0,16.75,0.03,25,0,0,0
96019,67704420,1,0,0,16.75,0.03,25,0,0,0
96472,67807321,1,0,0,16.75,0.03,25,0,0,0
96929,67915124,1,0,0,16.75,0.03,25,0,0,0
97377,68017948,1,0,0,16.75,0.03,25,0,0,0
97871,68131276,1,0,0,16.75,0.03,25,0,0,0
98820,68350596,1,0,0,16.75,0.03,25,0,0,0
99270,68457741,1,0,0,16.75,0.03,25,0,0,0
99727,68562990,1,6,171,16.74,0.03,25,0,0,0
100223,68678928,1,204,571,16.74,0.08,25,0,0,0
100674,68782595,1,608,985,16.73,0.14,25,0,0,0
101127,68888436,1,996,1242,16.73,0.12,25,0,0,0
101588,68993870,1,1245,1300,16.73,0.11,25,0,0,0
102040,69099650,1,1301,1328,16.73,0.11,25,0,0,0
102539,69218519,1,1328,1328,16.73,0.11,25,0,0,0
102992,69322337,1,1329,1342,16.74,0.11,25,0,0,0
103447,69430916,1,1343,1357,16.73,0.11,25,0,0,0
103898,69533665,1,1370,1571,16.69,0.23,25,0,0,0
104362,69646643,1,1623,2171,16.63,0.51,25,0,0,0
105038,69856683,1,2454,2228,16.58,0.29,25,0,0,0
105537,69969347,1,2250,2500,16.69,0.45,25,0,0,0
105949,70070498,1,2498,2414,16.72,0.39,26,0,0,0
106446,70185132,1,2421,2500,16.73,0.39,25,0,0,0
106897,70293619,1,2512,2642,16.61,0.52,25,0,0,0
107359,70401806,1,2683,3242,16.5,1.32,25,0,0,0
107806,70510576,1,3308,3971,16.39,1.65,25,0,0,0
108264,70616517,1,4017,4642,16.23,2.61,25,0,0,0
108713,70724673,1,4682,5100,16.25,2.83,25,0,0,0
109128,70827676,1,5109,5700,16.01,3.52,25,1,0,0
109583,70933456,1,5702,5814,16.1,3.36,25,1,0,0
110077,71051945,1,5804,5671,16.18,2.54,25,1,0,0
110528,71155805,1,5662,5300,16.27,1.73,25,1,0,0
110980,71266434,1,5284,4942,16.29,1.62,25,1,0,0
111476,71381093,1,4936,4885,16.26,1.73,25,1,0,0
111930,71491540,1,4872,4742,16.21,1.58,25,1,0,0
112383,71595272,1,4741,4728,16.25,1.63,25,1,0,0
112839,71706924,1,4729,4757,16.18,1.57,26,1,0,0
113706,71914402,1,4752,4328,16.23,1.56,26,1,0,0
114229,72035159,1,4318,4214,16.24,1.67,25,1,0,0
114680,72138684,1,4213,4200,16.08,1.89,26,1,0,0
115134,72249413,1,4211,4371,16.14,2.68,26,1,0,0
115588,72353917,1,4377,4785,16.25,2.05,26,1,0,0
116083,72472622,1,4805,5028,16.26,2.14,26,1,0,0
116537,72580678,1,5012,4857,16.18,2.04,26,2,0,0
116988,72686255,1,4872,5114,16.13,2.21,26,2,0,0
117442,72792657,1,5114,5128,16.13,2.36,26,2,0,0
117893,72899799,1,5128,5157,16.1,2.25,26,2,0,0
118392,73018939,1,5167,5285,16.13,2.11,26,2,0,0
118800,73113169,1,5275,5085,16.21,2.03,26,2,0,0
119257,73228903,1,5090,5142,16.18,2.2,26,2,0,0
119713,73335506,1,5143,5171,16.11,2.16,26,2,0,0
120164,73444704,1,5178,5285,16.13,2.29,26,2,0,0
120619,73551474,1,5274,5128,16.13,2.12,26,2,0,0
121071,73661048,1,5127,5114,16.16,2.05,26,2,0,0
121572,73776798,1,5105,5014,16.16,1.75,26,2,0,0
121986,73879491,1,5004,4914,16.15,2.04,26,2,0,0
122442,73986497,1,4920,5014,16.08,2.04,26,2,0,0
122891,74097032,1,5014,5028,16.09,1.94,26,2,0,0
123760,74310633,1,5026,4871,16.11,1.69,26,2,0,0
124696,74539505,1,4864,4785,16.04,1.79,26,3,0,0
125099,74633157,1,4786,4857,16.05,1.99,26,3,0,0
125547,74746528,1,4868,5071,16,2.28,26,3,0,0
125995,74857433,1,5073,5271,16,2.3,26,3,0,0
126492,74977637,1,5246,5071,16,2.21,26,3,0,0
126931,75082035,1,5083,5157,16.07,2.05,26,3,0,0
127338,75179196,1,5154,4957,16.13,1.83,26,3,0,0
127787,75293708,1,4955,4942,16.13,1.66,26,3,0,0
128238,75400628,1,4924,4714,16.18,1.55,26,3,0,0
128720,75521680,1,4712,4700,16.21,1.42,26,3,0,0
129608,75738648,1,4686,4385,16.27,1.55,26,3,0,0
130017,75839642,1,4386,4428,16.22,1.48,26,3,0,0
130478,75949705,1,4427,4385,16.21,1.44,26,3,0,0
130922,76060644,1,4389,4585,16.2,1.72,26,3,0,0
131369,76168680,1,4586,4757,16.16,1.84,26,3,0,0
131849,76282025,1,4760,4785,16.16,1.86,26,3,0,0
132295,76390290,1,4785,4785,16.08,1.41,26,4,0,0
132741,76503899,1,4773,4657,16.13,1.37,26,4,0,0
133224,76620253,1,4651,4600,16.12,1.56,26,4,0,0
133632,76719937,1,4599,4585,16.15,1.52,26,4,0,0
134084,76832372,1,4589,4700,16.11,1.53,26,4,0,0
134536,76940770,1,4698,4671,16.09,1.6,26,4,0,0
135833,77264107,1,4669,4471,16.16,1.45,26,4,0,0
136321,77378890,1,4471,4471,16.17,1.46,26,4,0,0
136763,77487617,1,4471,4471,16.17,1.43,26,4,0,0
137209,77593529,1,4470,4457,16.2,1.33,26,4,0,0
137657,77706723,1,4453,4414,16.16,1.31,26,4,0,0
138108,77812394,1,4423,4557,16.14,1.46,26,4,0,0
138558,77928499,1,4548,4457,16.2,1.38,26,4,0,0
138959,78028635,1,4457,4457,16.17,1.35,26,4,0,0
139416,78142895,1,4457,4471,16.17,1.21,26,4,0,0
139866,78254054,1,4468,4442,16.14,1.52,26,4,0,0
140272,78355012,1,4442,4442,16.14,1.35,26,4,0,0
140717,78464702,1,4442,4485,16.15,1.61,26,4,0,0
141207,78578644,1,4482,4457,16.14,1.27,26,4,0,0
141649,78688684,1,4452,4385,16.19,1.36,26,4,0,0
142099,78797489,1,4384,4371,16.08,1.35,26,4,0,0
142505,78901012,1,4372,4400,16.08,1.42,26,5,0,0
142959,79012697,1,4400,4414,16.11,1.33,26,5,0,0
143402,79120787,1,4414,4414,16.14,1.37,26,5,0,0
144301,79343108,1,4413,4400,16.15,1.37,26,5,0,0
144708,79444940,1,4398,4357,16.09,1.52,26,5,0,0
145161,79555523,1,4361,4414,16.09,1.25,26,5,0,0
145611,79669201,1,4415,4428,16.13,1.38,26,5,0,0
146060,79776488,1,4409,4228,16.16,1.04,26,5,0,0
146504,79884948,1,4212,4014,16.13,1.6,26,5,0,0
146958,79996326,1,4007,3942,15.97,2.81,26,5,0,0
147359,80096902,1,3944,4057,16.07,2.51,26,5,0,0
148296,80326652,1,4053,3957,16.11,1.8,27,5,0,0
148741,80437659,1,3955,3942,16.11,2.16,27,5,0,0
149189,80545886,1,3960,4128,16.01,2.74,27,5,0,0
149593,80647616,1,4132,4200,16.11,1.55,26,5,0,0
150043,80757458,1,4181,4014,16.13,1.55,27,5,0,0
150488,80867162,1,4016,4042,16.11,1.6,27,5,0,0
150935,80972668,1,4043,4171,16.11,1.48,27,6,0,0
151384,81084967,1,4169,4157,16.04,2.89,27,6,0,0
151831,81191429,1,4151,4071,15.97,2.75,27,6,0,0
152277,81298090,1,4077,4171,16.11,1.31,27,6,0,0
152728,81407152,1,4173,4200,16.2,1.7,27,6,0,0
153171,81520554,1,4234,4485,16.07,2.8,27,6,0,0
153616,81627247,1,4496,4585,16.07,2.1,27,6,0,0
154064,81734934,1,4612,4900,16.09,1.82,27,6,0,0
154469,81842379,1,4882,4728,16.08,1.27,27,6,0,0
154953,81952200,1,4715,4571,16.08,1.31,27,6,0,0
155403,82060668,1,4567,4514,16.12,1.34,27,6,0,0
155809,82166794,1,4534,4700,16.02,1.55,27,6,0,0
156292,82280714,1,4701,4714,16.05,1.53,27,6,0,0
156702,82377376,1,4707,4614,16.05,1.46,27,6,0,0
157149,82490644,1,4605,4500,16.07,1.45,27,6,0,0
157561,82593538,1,4501,4585,16.05,1.39,27,6,0,0
158042,82710371,1,4578,4528,16.05,1.39,27,6,0,0
158458,82816358,1,4541,4642,16.05,1.69,27,6,0,0
158938,82929404,1,4644,4657,16.04,1.64,27,6,0,0
159346,83035512,1,4664,4728,16.01,1.79,27,7,0,0
159827,83146477,1,4739,4814,16.06,1.71,27,7,0,0
160239,83248711,1,4796,4585,15.97,1.56,27,7,0,0
160688,83362506,1,4581,4557,16.03,1.39,27,7,0,0
161091,83463690,1,4556,4542,16.06,1.19,27,7,0,0
161581,83581006,1,4536,4457,16.08,1.56,27,7,0,0
162031,83691181,1,4466,4600,16.04,1.76,27,7,0,0
162486,83800678,1,4622,4828,16.13,1.81,27,7,0,0
162888,83901589,1,4832,4871,16.12,1.75,27,7,0,0
163338,84009115,1,4875,4942,16.07,1.85,27,7,0,0
164231,84225618,1,4940,4771,16.07,1.56,27,7,0,0
164680,84340553,1,4769,4757,16.07,1.73,27,7,0,0
165078,84438207,1,4754,4585,16.07,1.48,27,7,0,0
165611,84560697,1,4586,4600,15.99,1.41,27,7,0,0
166006,84655523,1,4601,4657,16.09,1.43,27,7,0,0
166463,84769020,1,4652,4385,16.06,1.29,27,7,0,0
167795,85093895,1,4384,4328,16.08,1.26,27,7,0,0
168284,85207578,1,4328,4342,16.05,1.4,27,7,0,0
168730,85318888,1,4343,4371,16.02,1.32,27,7,0,0
169219,85437066,1,4369,4357,16.06,1.53,27,8,0,0
169623,85535541,1,4357,4357,16.05,1.29,27,8,0,0
170068,85646550,1,4356,4314,16.11,1.55,27,8,0,0
170520,85754158,1,4318,4571,16.08,1.65,27,8,0,0
170965,85863343,1,4576,4685,16.06,1.82,27,8,0,0
171893,86083006,1,4695,4971,16.05,1.87,27,8,0,0
172349,86195462,1,4967,4928,16.08,1.81,27,8,0,0
172711,86291682,1,4929,5014,16.03,1.97,27,8,0,0
173605,86510379,1,5013,4985,16.08,1.85,27,8,0,0
174051,86615723,1,4985,5028,16.07,1.99,27,8,0,0
174499,86728682,1,5026,5000,16.07,1.55,27,8,0,0
174903,86830712,1,4991,4642,16,1.28,27,8,0,0
175402,86949642,1,4635,4557,16.02,1.17,27,8,0,0
175850,87061206,1,4536,4314,16.02,1.57,27,8,0,0
176298,87167903,1,4323,4457,16.01,1.56,27,8,0,0
176740,87276464,1,4448,4342,16.01,1.41,27,8,0,0
177189,87384466,1,4350,4471,16.04,1.59,27,8,0,0
177631,87492447,1,4474,4542,16,1.73,27,8,0,0
178084,87605109,1,4543,4557,15.99,1.52,27,8,0,0
178536,87720259,1,4562,4628,15.96,1.39,27,9,0,0
178983,87833095,1,4619,4528,16.03,1.29,27,9,0,0
179388,87929690,1,4529,4585,16.02,1.57,27,9,0,0
179794,88034547,1,4590,4714,16.05,1.75,27,9,0,0
180242,88143597,1,4716,4814,15.97,1.87,27,9,0,0
180654,88252423,1,4817,4985,16,1.9,27,9,0,0
181143,88367442,1,4990,5071,16.02,1.86,27,9,0,0
181550,88469900,1,5068,5014,15.95,1.89,27,9,0,0
182041,88586502,1,5007,4928,16.04,1.64,27,9,0,0
182450,88690600,1,4935,5042,16.04,1.75,27,9,0,0
182904,88800633,1,5040,5000,16.04,1.8,27,9,0,0
183346,88908557,1,5010,5142,16.02,2.11,27,9,0,0
184233,89123926,1,5143,5271,16.03,2.26,27,9,0,0
184714,89236645,1,5271,5271,15.97,2.29,27,9,0,0
185164,89344447,1,5276,5357,16.01,2.27,27,9,0,0
185563,89444896,1,5361,5442,15.99,2.43,27,9,0,0
186465,89667997,1,5442,5485,15.95,2.46,27,10,0,0
186914,89775928,1,5483,5457,16.04,1.95,27,10,0,0
187317,89877554,1,5450,5314,16,2,27,10,0,0
187811,89997473,1,5309,5271,16.01,1.78,27,10,0,0
188221,90100877,1,5260,5157,16.01,1.94,27,10,0,0
188668,90209503,1,5130,4885,15.97,1.44,27,10,0,0
189150,90324520,1,4894,4942,16.02,1.55,27,10,0,0
189557,90424130,1,4939,4900,16.05,1.97,27,10,0,0
190855,90747115,1,4901,5300,16.02,1.93,27,10,0,0
191382,90871398,1,5294,5242,15.99,1.83,27,10,0,0
192247,91088944,1,5216,4728,16.01,1.38,27,10,0,0
192695,91196626,1,4725,4671,16,1.33,27,10,0,0
193146,91305704,1,4670,4657,16,1.47,27,10,0,0
193550,91406358,1,4655,4600,16.01,1.36,27,10,0,0
193995,91516505,1,4601,4642,16.01,1.52,27,10,0,0
194373,91622182,1,4643,4728,16.01,1.78,27,11,0,0
194804,91732480,1,4730,4871,16.01,1.68,27,11,0,0
195288,91849607,1,4869,4857,15.95,1.7,27,11,0,0
195745,91961664,1,4839,4657,15.97,1.24,27,11,0,0
196186,92068977,1,4653,4600,15.96,1.41,27,11,0,0
196644,92183409,1,4598,4585,16.01,1.52,27,11,0,0
197045,92283426,1,4594,4714,15.98,1.61,27,11,0,0
197880,92502680,1,4788,4828,15.97,1.74,27,11,0,0
198296,92607175,1,4829,4957,15.95,2.1,27,11,0,0
198746,92719348,1,4961,5057,15.92,2.03,27,11,0,0
199191,92829185,1,5060,5100,15.98,1.89,27,11,0,0
199641,92937479,1,5092,4985,15.97,1.81,27,11,0,0
200088,93045648,1,4986,5000,15.89,1.95,27,11,0,0
200535,93152125,1,4989,4857,15.97,1.97,27,11,0,0
200940,93255183,1,4858,4928,15.99,1.8,27,11,0,0
201389,93363997,1,4927,4914,15.96,1.72,27,11,0,0
201830,93475109,1,4911,4842,15.98,1.73,27,11,0,0
202275,93581601,1,4839,4714,15.97,1.6,27,12,0,0
203167,93797686,1,4714,4728,15.96,1.52,27,12,0,0
203613,93904206,1,4723,4657,15.96,1.62,27,12,0,0
204061,94009670,1,4660,4742,15.93,1.7,27,12,0,0
204559,94128615,1,4739,4714,15.98,1.82,27,12,0,0
204957,94230669,1,4717,4957,15.97,2.17,27,12,0,0
205438,94338566,1,4970,5142,15.94,2.16,27,12,0,0
205878,94445157,1,5132,5014,15.93,1.86,27,12,0,0
206334,94556557,1,5008,4957,16,1.86,27,12,0,0
206782,94666661,1,4953,4914,15.97,1.7,27,12,0,0
207227,94773505,1,4922,5028,16.01,1.87,27,12,0,0
207672,94885918,1,5021,4957,16.01,1.8,27,12,0,0
208124,94995575,1,4964,5042,15.97,1.95,27,12,0,0
208522,95093907,1,5039,4957,15.92,1.93,27,12,0,0
209020,95212647,1,4964,5042,15.98,1.94,27,12,0,0
209873,95430141,1,5037,4957,15.97,1.86,27,13,0,0
210275,95524715,1,4957,5014,15.96,1.96,27,13,0,0
210722,95634888,1,5012,4942,16.02,1.75,27,13,0,0
211173,95742656,1,4944,5014,15.94,1.86,27,13,0,0
211618,95854669,1,5007,4842,15.92,1.58,27,13,0,0
212072,95965523,1,4843,4885,15.97,1.65,27,13,0,0
212513,96071428,1,4886,4914,15.95,2.18,28,13,0,0
213009,96189132,1,4916,4942,15.95,1.76,27,13,0,0
213411,96290413,1,4940,4885,15.96,1.95,28,13,0,0
213900,96408162,1,4896,5014,15.99,1.92,28,13,0,0
214301,96509566,1,5011,4914,15.96,1.7,27,13,0,0
214754,96622027,1,4909,4871,15.95,1.7,27,13,0,0
215205,96735511,1,4873,4900,15.99,1.63,28,13,0,0
215605,96835013,1,4899,4857,15.92,1.8,27,13,0,0
216059,96947019,1,4865,4985,15.96,2.04,27,13,0,0
216509,97058505,1,4971,4785,15.95,1.55,28,13,0,0
216922,97162992,1,4781,4714,15.96,1.62,28,13,0,0
217362,97270988,1,4713,4700,15.95,1.7,28,13,0,0
217854,97392161,1,4701,4714,15.92,1.66,28,13,0,0
218258,97489669,1,4715,4785,15.95,1.92,28,13,0,0
218708,97597416,1,4790,4900,15.96,1.85,28,14,0,0
219155,97714138,1,4913,5042,15.99,2.03,27,14,0,0
219604,97822467,1,5030,4942,15.98,1.91,28,14,0,0
220007,97918715,1,4943,5000,15.93,2.06,28,14,0,0
221383,98251489,1,4998,4800,15.95,1.73,27,14,0,0
221871,98373190,1,4796,4771,16.02,1.68,28,14,0,0
222269,98470937,1,4773,4871,15.97,1.87,28,14,0,0
222765,98588664,1,4879,5000,15.99,2.01,28,14,0,0
223166,98686474,1,5000,5014,15.91,1.94,28,14,0,0
223616,98794597,1,5012,4900,15.94,1.73,27,14,0,0
224067,98910581,1,4904,4942,16,1.75,28,14,0,0
224549,99023980,1,4933,4857,15.97,1.61,28,14,0,0
224956,99122941,1,4855,4771,15.94,1.69,28,14,0,0
225443,99243492,1,4771,4771,15.92,1.7,28,14,0,0
225887,99349678,1,4772,4785,15.89,1.7,28,14,0,0
226289,99450103,1,4787,4842,15.95,1.72,28,15,0,0
226774,99563350,1,4845,4914,15.98,1.75,28,15,0,0
227671,99785518,1,4909,4785,15.89,1.74,28,15,0,0
228117,99895189,1,4780,4728,15.95,1.59,28,15,0,0
228569,100004614,1,4729,4742,15.97,1.6,28,15,0,0
228970,100104016,1,4741,4728,15.95,1.73,27,15,0,0
229460,100220642,1,4730,4771,15.89,1.78,27,15,0,0
229866,100323881,1,4773,4828,15.91,1.81,28,15,0,0
230272,100429029,1,4827,4814,15.95,1.66,28,15,0,0
230770,100548189,1,4829,4985,15.94,2.05,28,15,0,0
231203,100649496,1,4983,4928,15.87,2,27,15,0,0
231696,100770418,1,4930,4971,15.87,1.91,27,15,0,0
232100,100872609,1,4967,4785,15.97,1.52,28,15,0,0
232551,100983521,1,4783,4757,15.9,1.54,28,15,0,0
232999,101093790,1,4758,4785,15.86,1.7,28,15,0,0
233403,101193388,1,4783,4671,15.94,1.33,28,15,0,0
233881,101308624,1,4655,4328,15.95,0.78,28,15,0,0
234340,101429870,1,4404,4828,15.97,2.11,28,15,0,0
234744,101527782,1,4824,4785,15.9,1.71,28,16,0,0
235228,101639686,1,4789,4885,15.92,1.7,28,16,0,0
235636,101742387,1,4877,4714,15.95,1.45,28,16,0,0
236082,101853517,1,4711,4671,15.97,1.55,28,16,0,0
236533,101962658,1,4677,4742,15.95,1.65,28,16,0,0
237466,102182493,1,4739,4657,15.98,1.68,28,16,0,0
237909,102291228,1,4666,4800,15.96,1.82,28,16,0,0
238354,102398435,1,4799,4785,15.91,1.85,28,16,0,0
238795,102506180,1,4789,4871,15.97,1.91,28,16,0,0
239244,102612655,1,4872,4928,15.96,1.73,28,16,0,0
239690,102721629,1,4927,4914,15.96,1.9,28,16,0,0
240179,102840639,1,4924,5028,15.89,2.11,28,16,0,0
240539,102934613,1,5024,4871,15.94,1.75,27,16,0,0
241023,103047098,1,4865,4757,15.97,1.74,28,16,0,0
241473,103157443,1,4757,4757,15.94,1.67,28,16,0,0
241923,103268940,1,4761,4957,15.92,1.8,28,16,0,0
242378,103384119,1,4941,4785,15.94,1.89,28,16,0,0
242820,103489516,1,4799,5000,15.95,1.94,28,16,0,0
243272,103598587,1,4996,4942,16.02,1.71,28,16,0,0
243716,103710182,1,4933,4800,15.98,1.61,28,17,0,0
244161,103819684,1,4795,4757,15.98,1.55,28,17,0,0
244608,103930510,1,4758,4785,16,1.73,28,17,0,0
245061,104042670,1,4777,4700,15.95,1.51,28,17,0,0
245836,104254374,1,4731,4771,15.97,1.65,28,17,0,0
246282,104360137,1,4764,4700,15.96,1.52,28,17,0,0
246686,104463665,1,4699,4657,15.95,1.54,28,17,0,0
247179,104580258,1,4657,4657,15.94,1.58,28,17,0,0
247613,104683116,1,4659,4714,15.95,1.6,28,17,0,0
248068,104796173,1,4717,4771,15.93,1.6,28,17,0,0
248514,104904930,1,4767,4728,15.95,1.65,28,17,0,0
248961,105009158,1,4728,4757,15.91,1.61,28,17,0,0
249452,105127537,1,4748,4657,15.92,1.36,28,17,0,0
249895,105239577,1,4658,4671,15.94,1.68,28,17,0,0
250339,105342383,1,4679,4757,15.91,1.75,28,17,0,0
250739,105443691,1,4752,4657,15.93,1.42,28,17,0,0
251195,105556589,1,4655,4628,15.92,1.46,28,17,0,0
251638,105666874,1,4620,4542,15.93,1.33,28,17,0,0
252086,105774806,1,4542,4542,15.97,1.4,28,17,0,0
252489,105878620,1,4531,4385,15.86,1.32,28,17,0,0
252940,105986555,1,4383,4357,15.92,1.3,28,18,0,0
253388,106098137,1,4346,4242,15.86,1.42,28,18,0,0
253837,106207982,1,4245,4285,15.92,1.3,28,18,0,0
254274,106315673,1,4282,4257,15.89,1.62,28,18,0,0
254718,106421186,1,4260,4400,15.91,2.13,28,18,0,0
255209,106541604,1,4388,4285,15.98,0.9899999,28,18,0,0
255650,106649515,1,4278,4228,15.95,1.56,28,18,0,0
256095,106756681,1,4254,4500,15.89,1.98,28,18,0,0
256536,106864807,1,4525,4771,15.95,2.07,28,18,0,0
256945,106969637,1,4768,4642,15.95,1.28,28,18,0,0
257388,107077591,1,4640,4614,15.95,1.32,28,18,0,0
257840,107184433,1,4611,4557,15.93,1.44,28,18,0,0
258324,107306055,1,4572,4800,15.91,1.99,28,18,0,0
258736,107409629,1,4793,4642,15.94,1.28,28,18,0,0
259180,107516884,1,4639,4585,15.85,1.69,28,18,0,0
259621,107627476,1,4589,4714,15.91,1.57,28,18,0,0
260115,107749153,1,4726,4814,15.92,1.71,28,18,0,0
260919,107947957,1,4812,4685,15.91,1.52,28,18,0,0
261819,108171038,1,4682,4600,15.91,1.43,28,18,0,0
262264,108282470,1,4613,4757,15.94,1.81,28,19,0,0
262712,108390380,1,4759,4785,15.86,1.62,28,19,0,0
263113,108489612,1,4787,4857,15.79,1.95,28,19,0,0
263569,108604685,1,4857,4871,15.83,1.78,28,19,0,0
263892,108714996,1,4872,4885,15.91,1.67,28,19,0,0
264334,108825996,1,4879,4828,15.86,1.86,28,19,0,0
264741,108929893,1,4833,4957,15.86,2.26,28,19,0,0
265629,109143019,1,4957,4971,15.86,1.7,28,19,0,0
266076,109256692,1,4959,4842,15.91,1.69,28,19,0,0
266522,109363644,1,4831,4514,15.94,1.14,28,19,0,0
266971,109476593,1,4508,4457,15.97,1.35,28,19,0,0
267420,109586663,1,4461,4514,15.97,1.64,28,19,0,0
267821,109688649,1,4516,4557,15.97,1.48,28,19,0,0
268269,109797163,1,4566,4757,15.92,1.93,28,19,0,0
268721,109909909,1,4752,4714,15.94,1.54,28,19,0,0
269172,110019118,1,4691,4500,15.93,1.26,28,19,0,0
270056,110230482,1,4500,4528,15.94,1.52,28,19,0,0
270513,110344336,1,4519,4400,15.95,1.17,28,19,0,0
270959,110456450,1,4396,4342,15.97,1.45,28,20,0,0
271410,110567234,1,4335,4271,15.97,1.1,28,20,0,0
271807,110664469,1,4266,4100,15.98,1.59,28,20,0,0
272258,110774989,1,4102,4257,15.95,2.22,28,20,0,0
272742,110891004,1,4255,4228,15.97,1.02,28,20,0,0
273193,110999657,1,4205,3985,15.97,1.73,28,20,0,0
273635,111106875,1,4015,4471,15.95,2.14,28,20,0,0
274079,111213365,1,4471,4485,15.89,1.62,28,20,0,0
274527,111325199,1,4473,4342,15.96,1.4,28,20,0,0
274971,111435511,1,4334,4271,15.95,1.04,28,20,0,0
275374,111533362,1,4275,4371,15.9,2.2,28,20,0,0
276268,111754174,1,4367,4185,15.69,2.22,28,20,0,0
276713,111866524,1,4197,4328,15.92,1.52,28,20,0,0
277164,111974140,1,4324,4285,15.94,1.31,28,20,0,0
277606,112082598,1,4288,4328,15.93,1.39,28,20,0,0
278011,112180529,1,4329,4357,15.95,1.4,28,20,0,0
278461,112296260,1,4362,4442,15.93,1.82,28,20,0,0
278913,112405702,1,4444,4471,15.82,1.56,28,20,0,0
279362,112518587,1,4490,4714,15.89,2.07,28,20,0,0
279806,112623328,1,4715,4785,15.89,1.71,28,20,0,0
280647,112833758,1,4785,4828,15.85,1.64,28,21,0,0
281141,112958125,1,4817,4742,15.87,1.4,28,21,0,0
281544,113053396,1,4735,4585,15.91,1.38,28,21,0,0
282031,113168671,1,4571,4442,15.95,1.17,28,21,0,0
282475,113282611,1,4440,4428,15.91,1.34,28,21,0,0
282923,113392492,1,4437,4514,15.9,1.48,28,21,0,0
283329,113493994,1,4515,4542,15.84,1.78,28,21,0,0
283735,113594442,1,4542,4585,15.86,1.4,28,21,0,0
284227,113718364,1,4585,4585,15.83,1.51,28,21,0,0
284667,113819367,1,4580,4542,15.89,1.29,28,21,0,0
285117,113929677,1,4538,4500,15.79,1.62,28,21,0,0
285516,114027691,1,4500,4571,15.82,1.43,28,21,0,0
286444,114254670,1,4589,5000,15.82,2.18,28,21,0,0
286892,114362926,1,5001,5028,15.84,2.13,28,21,0,0
287299,114467192,1,5039,5271,15.82,2.27,28,21,0,0
287789,114583572,1,5256,5100,15.85,2.29,28,21,0,0
288192,114684495,1,5100,5100,15.77,1.87,28,21,0,0
288684,114802391,1,5068,4742,15.88,1.36,28,22,0,0
289084,114899552,1,4729,4314,15.85,0.83,28,22,0,0
289539,115017894,1,4282,4014,15.87,1.16,28,22,0,0
289987,115122415,1,4013,3985,15.82,1.72,28,22,0,0
290428,115234882,1,3976,3785,15.88,1.01,28,22,0,0
290875,115342594,1,3788,3871,15.87,1.05,28,22,0,0
291318,115450351,1,3871,3900,15.89,1.13,28,22,0,0
291766,115556377,1,3899,3885,15.88,1.06,28,22,0,0
292210,115665563,1,3891,4014,15.88,1.66,28,22,0,0
292661,115776911,1,4027,4214,15.95,2.12,28,22,0,0
293074,115884510,1,4245,4557,15.8,2.21,28,22,0,0
293523,115990939,1,4558,4657,15.89,1.72,28,22,0,0
294009,116104221,1,4656,4642,15.89,1.63,28,22,0,0
294466,116218721,1,4647,4700,15.85,1.64,28,22,0,0
294864,116318494,1,4697,4657,15.87,1.64,28,22,0,0
295313,116431905,1,4675,4885,15.86,1.8,28,22,0,0
295715,116531358,1,4883,4771,15.85,1.61,28,22,0,0
296159,116639533,1,4773,4842,15.89,1.82,28,22,0,0
296606,116748637,1,4842,4857,15.88,1.76,28,22,0,0
297047,116858448,1,4852,4800,15.85,1.67,28,22,0,0
297500,116968896,1,4803,4900,15.86,1.78,28,22,0,0
297941,117077102,1,4901,4928,15.88,1.64,28,23,0,0
298390,117184694,1,4923,4828,15.86,1.67,28,23,0,0
298837,117296908,1,4828,4842,15.89,1.75,28,23,0,0
299291,117405716,1,4839,4814,15.87,1.63,28,23,0,0
299722,117509478,1,4812,4728,15.86,1.58,28,23,0,0
300617,117728171,1,4727,4685,15.8,1.68,28,23,0,0
301102,117846356,1,4700,4871,15.85,1.84,28,23,0,0
301510,117948696,1,4875,4914,15.83,1.93,28,23,0,0
301949,118053617,1,4915,4942,15.85,2,28,23,0,0
302401,118166504,1,4948,5042,15.8,1.97,28,23,0,0
302883,118283041,1,5038,5000,15.87,1.83,28,23,0,0
303289,118381630,1,4995,4942,15.82,1.84,28,23,0,0
303736,118495122,1,4934,4814,15.85,1.65,28,23,0,0
304624,118711629,1,4817,4885,15.8,1.69,28,23,0,0
305512,118924579,1,4879,4628,15.86,1.68,28,23,0,0
305998,119043014,1,4623,4585,15.83,1.57,28,23,0,0
306402,119141559,1,4581,4514,15.82,1.23,28,24,0,0
306850,119254022,1,4515,4542,15.88,1.43,28,24,0,0
307298,119362199,1,4542,4557,15.89,1.28,28,24,0,0
307742,119473984,1,4558,4571,15.87,1.56,28,24,0,0
308190,119583497,1,4573,4614,15.83,1.65,28,24,0,0
308592,119685493,1,4616,4671,15.83,1.96,28,24,0,0
309041,119795529,1,4679,4857,15.83,1.91,28,24,0,0
309493,119908472,1,4854,4814,15.8,1.67,28,24,0,0
309943,120017462,1,4815,4842,15.91,1.7,28,24,0,0
310386,120132159,1,4836,4771,15.82,1.53,28,24,0,0
310834,120244571,1,4766,4685,15.91,1.49,28,24,0,0
311286,120352485,1,4684,4642,15.8,1.61,28,24,0,0
311726,120459588,1,4648,4714,15.82,1.65,28,24,0,0
312177,120571196,1,4709,4642,15.88,1.39,28,24,0,0
312580,120676610,1,4636,4514,15.88,1.25,28,24,0,0
313029,120781482,1,4511,4342,15.94,1.22,28,24,0,0
313514,120899633,1,4340,4300,15.92,1.49,28,24,0,0
313972,121012198,1,4314,4428,15.93,1.77,28,24,0,0
314368,121114555,1,4436,4557,15.94,1.56,28,24,0,0
315258,121329013,1,4554,4257,15.85,1.22,28,24,0,0
315742,121443493,1,4256,4242,15.86,2.06,28,25,0,0
316190,121554558,1,4254,4600,15.82,2.45,28,25,0,0
316625,121658466,1,4625,4928,15.86,2.12,28,25,0,0
317120,121780206,1,4940,5085,15.86,2.06,28,25,0,0
317523,121881697,1,5093,5200,15.86,2.01,28,25,0,0
317978,121993171,1,5197,5171,15.88,2.03,28,25,0,0
318383,122096638,1,5166,5100,15.94,1.94,28,25,0,0
318832,122204164,1,5103,5142,15.87,1.75,28,25,0,0
319267,122308499,1,5133,5014,15.92,1.57,28,25,0,0
319719,122420684,1,4995,4785,15.89,1.31,28,25,0,0
320161,122528201,1,4773,4528,15.86,1.25,28,25,0,0
320570,122631587,1,4527,4485,15.85,1.27,28,25,0,0
321014,122737156,1,4484,4442,15.88,1.3,28,25,0,0
321503,122855407,1,4437,4371,15.89,1.18,28,25,0,0
321954,122968152,1,4361,4285,15.86,1.27,28,25,0,0
322353,123065626,1,4286,4328,15.83,1.52,28,25,0,0
322808,123178494,1,4330,4400,15.88,1.43,28,25,0,0
323290,123293706,1,4394,4342,15.91,1.19,28,25,0,0
323736,123399027,1,4340,4314,15.86,1.51,28,25,0,0
324142,123504582,1,4317,4385,15.81,1.61,28,25,0,0
324590,123613546,1,4386,4414,15.87,1.32,28,25,0,0
325034,123724513,1,4415,4457,15.8,1.44,28,26,0,0
325490,123838266,1,4451,4371,15.89,1.27,28,26,0,0
325939,123947531,1,4365,4314,15.87,1.33,28,26,0,0
326380,124055000,1,4327,4514,15.81,1.58,28,26,0,0
326828,124161936,1,4512,4485,15.91,1.28,28,26,0,0
327235,124269139,1,4478,4414,15.88,1.28,28,26,0,0
327682,124375644,1,4412,4371,15.89,1.26,28,26,0,0
328128,124489528,1,4374,4428,15.88,1.64,28,26,0,0
328576,124598691,1,4413,4271,15.91,1.41,28,26,0,0
329425,124810139,1,4272,4557,15.91,1.59,28,26,0,0
329909,124925791,1,4559,4585,15.87,1.42,28,26,0,0
330354,125034325,1,4575,4471,15.85,1.41,28,26,0,0
330801,125142925,1,4483,4614,15.8,1.68,28,26,0,0
331245,125253587,1,4617,4671,15.88,1.56,28,26,0,0
331738,125369595,1,4652,4457,15.87,1.25,28,26,0,0
332139,125472414,1,4455,4414,15.87,1.48,28,26,0,0
332622,125582207,1,4406,4300,15.85,1.28,28,26,0,0
333021,125680563,1,4298,4214,15.86,1.51,28,26,0,0
333603,125910506,1,4267,4385,15.91,2.11,28,26,0,0
333982,126011802,1,4386,4442,15.84,1.58,28,26,0,0
334426,126122419,1,4442,4442,15.91,1.26,28,26,0,0
334907,126242682,1,4438,4414,15.9,1.47,28,27,0,0
335315,126340920,1,4417,4471,15.9,1.45,28,27,0,0
335764,126456394,1,4467,4442,15.86,1.47,28,27,0,0
336212,126566347,1,4434,4371,15.88,1.43,28,27,0,0
336657,126675915,1,4378,4457,15.89,1.46,28,27,0,0
337095,126780885,1,4464,4542,15.89,1.5,28,27,0,0
337546,126891130,1,4544,4571,15.86,1.33,28,27,0,0
337995,127003385,1,4559,4471,15.9,1.34,28,27,0,0
338403,127103608,1,4471,4471,15.9,1.42,28,27,0,0
339257,127319168,1,4474,4557,15.89,1.53,28,27,0,0
340188,127544965,1,4552,4457,15.91,1.21,28,27,0,0
340802,127753436,1,4370,4500,15.81,1.56,28,27,0,0
341649,127961027,1,4558,4614,15.89,1.65,28,27,0,0
342097,128071722,1,4611,4557,15.79,1.54,28,27,0,0
342543,128177898,1,4557,4557,15.86,1.66,28,27,0,0
343000,128292504,1,4555,4542,15.86,1.39,28,27,0,0
343449,128399341,1,4542,4600,15.88,1.5,28,27,0,0
343896,128508552,1,4603,4642,15.84,1.36,28,27,0,0
344340,128616657,1,4636,4557,15.91,1.48,28,27,0,0
344744,128723306,1,4563,4642,15.88,1.56,28,28,0,0
345190,128830122,1,4640,4557,15.9,1.51,28,28,0,0
345632,128937104,1,4562,4671,15.85,1.75,28,28,0,0
346490,129152007,1,4672,4842,15.8,1.59,28,28,0,0
346930,129260031,1,4839,4771,15.86,1.52,28,28,0,0
347424,129378034,1,4782,4900,15.88,1.79,28,28,0,0
348271,129585447,1,4902,5071,15.76,1.94,28,28,0,0
348723,129698001,1,5062,4971,15.79,1.7,28,28,0,0
349170,129807021,1,4960,4857,15.85,1.73,28,28,0,0
349562,129917496,1,4858,4871,15.8,1.66,28,28,0,0
350007,130028361,1,4876,4928,15.84,1.65,28,28,0,0
350453,130134535,1,4913,4771,15.89,1.64,28,28,0,0
350859,130238458,1,4769,4657,15.9,1.32,28,28,0,0
351315,130350802,1,4653,4614,15.92,1.28,28,28,0,0
351756,130453598,1,4609,4428,15.86,1.63,28,28,0,0
352205,130566111,1,4434,4514,15.91,1.46,28,28,0,0
352646,130674673,1,4516,4685,15.92,1.63,28,28,0,0
353140,130794705,1,4698,4842,15.97,1.84,28,28,0,0
353538,130893893,1,4842,4857,15.91,1.68,28,29,0,0
353985,131002659,1,4862,4985,15.92,2,28,29,0,0
354430,131113461,1,4988,5014,15.85,1.95,28,29,0,0
354884,131223419,1,5019,5071,15.89,2.08,28,29,0,0
355290,131330089,1,5065,5014,15.94,1.87,28,29,0,0
355697,131433388,1,4999,4742,16.13,0.92,28,29,0,0
356104,131534143,1,4634,2600,16,0.17,28,29,0,0
356549,131643719,1,2591,2471,16.33,0.23,28,29,0,0
356996,131750440,1,2478,2671,16.27,0.6899999999999999,28,29,0,0
357920,131971285,1,2650,2100,16.27,0.15,28,29,0,0
358325,132074691,1,2100,2114,16.25,0.24,28,29,0,0
358770,132179645,1,2112,2042,16.25,0.21,28,29,0,0
359224,132297102,1,2039,2000,16.25,0.18,28,29,0,0
359631,132399880,1,1999,1985,16.28,0.2,28,29,0,0
360969,132733178,1,1985,2014,16.27,0.19,28,29,0,0
361376,132838664,1,2011,1957,16.27,0.16,28,29,0,0
361827,132950511,1,1962,2028,16.27,0.21,28,29,0,0
362271,133059009,1,2027,2014,16.27,0.19,28,29,0,0
362724,133165093,1,2016,2042,16.25,0.25,28,29,0,0
363169,133272693,1,2044,2071,16.3,0.21,28,29,0,0
363568,133370694,1,2072,2114,16.29,0.22,28,29,0,0
364012,133478578,1,2115,2142,16.3,0.28,28,29,0,0
364467,133585637,1,2126,1914,16.36,0.03,28,29,0,0
364908,133691369,1,1899,1571,16.36,0,28,29,0,0
365361,133797408,1,1567,1357,16.34,0.05,28,29,0,0
365812,133910581,1,1355,1328,16.33,0.08,28,29,0,0
366262,134016688,1,1328,1328,16.34,0.09,28,29,0,0
366708,134129151,1,1328,1328,16.34,0.08,28,29,0,0
367155,134241028,1,1326,1314,16.35,0.09,28,29,0,0
367606,134347577,1,1315,1328,16.34,0.09,28,29,0,0
368048,134453592,1,1328,1328,16.35,0.09,28,29,0,0
368538,134569869,1,1327,1314,16.35,0.09,28,29,0,0
368912,134669981,1,1314,1328,16.35,0.09,28,29,0,0
369404,134782948,1,1328,1328,16.36,0.09,28,29,0,0
369843,134884138,1,1327,1314,16.35,0.09,28,29,0,0
370335,135003885,1,1314,1314,16.36,0.09,28,29,0,0
370771,135104798,1,1314,1328,16.35,0.09,28,29,0,0
372151,135436563,1,1327,1314,16.36,0.09,28,29,0,0
372602,135545627,1,1314,1314,16.36,0.09,28,29,0,0
373042,135652484,1,1314,1314,16.36,0.09,28,29,0,0
373451,135751162,1,1314,1314,16.37,0.09,28,29,0,0
373903,135865910,1,1314,1314,16.37,0.09,28,29,0,0
374354,135973366,1,1314,1314,16.37,0.09,28,29,0,0
374760,136073536,1,1314,1328,16.38,0.09,28,29,0,0
375209,136182483,1,1328,1328,16.38,0.09,28,29,0,0
375659,136293491,1,1328,1328,16.38,0.09,28,29,0,0
376995,136615604,1,1328,1328,16.38,0.09,28,29,0,0
377443,136725553,1,1328,1328,16.38,0.09,28,29,0,0
377886,136832327,1,1328,1328,16.38,0.09,28,29,0,0
378299,136933646,1,1328,1328,16.38,0.09,28,29,0,0
378743,137042488,1,1328,1328,16.39,0.09,28,29,0,0
379230,137154143,1,1328,1328,16.38,0.09,27,29,0,0
379683,137266351,1,1328,1328,16.39,0.09,27,29,0,0
380131,137372557,1,1328,1328,16.38,0.09,28,29,0,0
380574,137478143,1,1328,1328,16.39,0.09,27,29,0,0
381024,137583525,1,1328,1328,16.39,0.08,27,29,0,0
381469,137691419,1,1328,1328,16.39,0.09,27,29,0,0
381963,137805940,1,1328,1328,16.39,0.09,28,29,0,0
382398,137907509,1,1328,1328,16.4,0.09,27,29,0,0
382885,138020977,1,1328,1328,16.39,0.09,28,29,0,0
383289,138120646,1,1328,1328,16.4,0.09,28,29,0,0
383737,138230659,1,1328,1328,16.39,0.09,27,29,0,0
384189,138339380,1,1328,1328,16.4,0.09,27,29,0,0
384637,138450118,1,1328,1328,16.4,0.09,27,29,0,0
385082,138554528,1,1328,1328,16.4,0.09,28,29,0,0
385529,138664745,1,1328,1328,16.41,0.09,27,29,0,0
385976,138770356,1,1328,1328,16.41,0.09,28,29,0,0
386423,138879547,1,1328,1328,16.41,0.09,27,29,0,0
386868,138984792,1,1328,1328,16.41,0.09,28,29,0,0
387315,139095643,1,1328,1328,16.41,0.09,28,29,0,0
387766,139207518,1,1328,1328,16.41,0.09,28,29,0,0
388205,139312008,1,1328,1328,16.41,0.09,27,29,0,0
388656,139416194,1,1328,1328,16.41,0.09,27,29,0,0
389099,139526946,1,1328,1328,16.41,0.09,28,29,0,0
389542,139635905,1,1328,1328,16.41,0.09,27,29,0,0
389995,139740922,1,1328,1328,16.41,0.09,27,29,0,0
390438,139853563,1,1328,1328,16.42,0.09,27,29,0,0
391323,140060009,1,1328,1328,16.42,0.09,27,29,0,0
392273,140283658,1,1289,242,16.43,0,27,29,0,0
392724,140388801,1,224,0,16.43,0.01,27,29,0,0
393215,140502950,1,0,0,16.43,0.02,27,29,0,0
393670,140609514,1,0,0,16.43,0.01,27,29,0,0
394122,140717144,1,0,0,16.44,0.02,27,29,0,0
394575,140828936,1,0,0,16.43,0.02,27,29,0,0
395029,140935668,1,0,0,16.44,0.01,27,29,0,0
395482,141046672,1,0,0,16.44,0.02,27,29,0,0
395935,141149636,1,0,0,16.44,0.02,27,29,0,0
396432,141264630,1,0,0,16.44,0.02,27,29,0,0
396883,141370608,1,0,0,16.44,0.02,27,29,0,0
397334,141481571,1,0,0,16.44,0.02,27,29,0,0
397829,141594735,1,0,0,16.45,0.02,27,29,0,0
398281,141703336,1,0,0,16.44,0.02,27,29,0,0
398734,141810373,1,0,0,16.44,0.02,27,29,0,0
399187,141922508,1,0,0,16.45,0.02,27,29,0,0
399636,142027570,1,0,0,16.45,0.02,27,29,0,0
400088,142130598,1,0,0,16.45,0.02,27,29,0,0
400542,142239020,1,0,0,16.45,0.02,27,29,0,0
401041,142356211,1,0,0,16.44,0.02,27,29,0,0
401487,142463577,1,0,0,16.45,0.02,27,29,0,0
401940,142570386,1,0,0,16.45,0.02,27,29,0,0
402392,142676159,1,0,0,16.45,0.02,27,29,0,0
402887,142790687,1,0,0,16.45,0.02,27,29,0,0
403340,142902944,1,0,0,16.45,0.02,27,29,0,0
403792,143007346,1,0,0,16.45,0.02,27,29,0,0
404246,143116898,1,0,0,16.45,0.02,27,29,0,0
404695,143222976,1,0,0,16.45,0.02,27,29,0,0
405149,143330686,1,0,0,16.45,0.02,27,29,0,0
405600,143437979,1,0,0,16.45,0.02,27,29,0,0
406050,143542378,1,0,0,16.46,0.02,27,29,0,0
406549,143659984,1,0,0,16.46,0.02,27,29,0,0
407000,143765630,1,0,0,16.46,0.02,27,29,0,0
407451,143874429,1,0,0,16.46,0.02,27,29,0,0
407902,143977904,1,0,0,16.46,0.02,27,29,0,0
408396,144094560,1,0,0,16.46,0.02,27,29,0,0
408849,144197678,1,0,0,16.46,0.02,27,29,0,0
409311,144310369,1,0,0,16.46,0.02,27,29,0,0
