LineNo,TimeUS,C,Roll,Pitch,Yaw,VN,VE,VD,dPD,PN,PE,PD,GX,GY,GZ,OH
419,4.5014e+07,0,0.86,-0.72,23.23,-0.00045103,0.0013323,0.01336,0.082131,-0.82376,0.77388,-0.041834,-0.08,0.06,-0.08,86.18
876,4.51e+07,0,0.88,-0.73,23.24,-0.00074701,0.0015063,0.014448,0.069845,-0.82376,0.77388,-0.03709,-0.07,0.06,-0.08,86.18
1103,4.5178e+07,0,0.86,-0.73,23.24,-0.00030386,0.0014874,-0.13955,-0.079583,-0.82376,0.77388,-0.036608,-0.07,0.06,-0.08,86.18
1305,4.5305e+07,0,0.86,-0.72,23.25,-0.00092522,0.00097822,-0.40991,-0.335,-0.84602,0.77388,-0.06588,-0.07,0.06,-0.07,86.18
1558,4.5343e+07,0,0.86,-0.71,23.25,-0.001157,0.001623,-0.40947,-0.34336,-0.84602,0.77388,-0.079739,-0.07,0.06,-0.07,86.18
1581,4.5364e+07,0,0.86,-0.71,23.25,-0.00094781,0.001794,-0.40922,-0.34718,-0.84602,0.77388,-0.086745,-0.07,0.06,-0.07,86.18
1623,4.5374e+07,0,0.86,-0.71,23.25,-0.00073968,0.0018477,-0.40914,-0.34969,-0.84602,0.77388,-0.090304,-0.07,0.06,-0.07,86.18
1664,4.5384e+07,0,0.86,-0.71,23.25,-0.00051859,0.0018907,-0.40913,-0.35171,-0.84602,0.77388,-0.094392,-0.07,0.06,-0.07,86.18
1704,4.5394e+07,0,0.86,-0.71,23.25,-0.00056275,0.001887,-0.40915,-0.35321,-0.84602,0.77388,-0.097724,-0.07,0.06,-0.07,86.18
1745,4.5404e+07,0,0.86,-0.71,23.24,-0.00035995,0.0017822,-0.40905,-0.35391,-0.84602,0.77388,-0.10111,-0.07,0.06,-0.07,86.18
1787,4.5414e+07,0,0.86,-0.71,23.24,-0.00042698,0.0017273,-0.40929,-0.35485,-0.85716,0.76582,-0.10454,-0.07,0.06,-0.07,86.18
1829,4.5424e+07,0,0.86,-0.72,23.24,-0.00053908,0.0017313,-0.40929,-0.35591,-0.85716,0.76582,-0.10801,-0.07,0.06,-0.07,86.18
1869,4.5434e+07,0,0.86,-0.72,23.24,-0.00079049,0.0016551,-0.40905,-0.35677,-0.85716,0.76582,-0.11152,-0.07,0.06,-0.07,86.18
1910,4.5445e+07,0,0.86,-0.72,23.24,-0.0010258,0.0014778,-0.40881,-0.35738,-0.85716,0.76582,-0.11547,-0.07,0.06,-0.07,86.18
1955,4.5456e+07,0,0.86,-0.72,23.24,-0.00099908,0.0014369,-0.409,-0.35815,-0.85716,0.76582,-0.11956,-0.07,0.06,-0.07,86.18
1995,4.5466e+07,0,0.86,-0.72,23.24,-0.0010986,0.001483,-0.40886,-0.35938,-0.85716,0.76582,-0.12355,-0.07,0.06,-0.07,86.18
2038,4.5476e+07,0,0.86,-0.72,23.24,-0.0013222,0.0014,-0.40885,-0.36099,-0.85716,0.76582,-0.12716,-0.07,0.06,-0.07,86.18
2078,4.5486e+07,0,0.86,-0.72,23.24,-0.0014689,0.001313,-0.4086,-0.36252,-0.85716,0.76582,-0.1308,-0.07,0.06,-0.07,86.18
2122,4.55e+07,0,0.86,-0.71,23.24,-0.001595,0.0012936,-0.40839,-0.36446,-0.85716,0.76582,-0.13572,-0.07,0.06,-0.07,86.18
2162,4.551e+07,0,0.86,-0.71,23.24,-0.0017842,0.0013194,-0.40843,-0.36668,-0.85716,0.76582,-0.13944,-0.07,0.06,-0.07,86.18
2203,4.552e+07,0,0.86,-0.71,23.24,-0.0016928,0.0011289,-0.40849,-0.36905,-0.85716,0.76582,-0.14319,-0.07,0.06,-0.07,86.18
2247,4.553e+07,0,0.86,-0.71,23.23,-0.0018294,0.0011318,-0.40837,-0.3713,-0.85716,0.76582,-0.14737,-0.07,0.06,-0.07,86.18
2288,4.554e+07,0,0.86,-0.71,23.23,-0.0018718,0.0014623,-0.40791,-0.37288,-0.85716,0.76582,-0.15145,-0.07,0.06,-0.07,86.18
2329,4.555e+07,0,0.86,-0.71,23.23,-0.0017404,0.001643,-0.40773,-0.37504,-0.85716,0.76582,-0.15524,-0.07,0.06,-0.07,86.18
2375,4.556e+07,0,0.86,-0.71,23.23,-0.0017474,0.0015608,-0.40787,-0.3779,-0.85716,0.76582,-0.15905,-0.07,0.06,-0.07,86.18
2416,4.5571e+07,0,0.86,-0.71,23.23,-0.0019689,0.0015622,-0.40787,-0.38051,-0.85716,0.76582,-0.16288,-0.07,0.06,-0.07,86.18
2458,4.5581e+07,0,0.86,-0.71,23.23,-0.0016463,0.0017119,-0.40773,-0.38288,-0.85716,0.76582,-0.16715,-0.07,0.06,-0.07,86.18
2499,4.5591e+07,0,0.86,-0.71,23.23,-0.0017896,0.0015988,-0.40796,-0.38517,-0.85716,0.76582,-0.17122,-0.07,0.06,-0.07,86.18
2539,4.5602e+07,0,0.86,-0.71,23.23,-0.0017021,0.0017354,-0.40779,-0.38524,-0.85716,0.76582,-0.17485,-0.07,0.06,-0.07,86.18
2582,4.5612e+07,0,0.86,-0.71,23.23,-0.0015994,0.0018975,-0.40731,-0.3836,-0.85716,0.76582,-0.17811,-0.07,0.06,-0.07,86.18
2624,4.5623e+07,0,0.86,-0.71,23.22,-0.0013678,0.0017482,-0.40676,-0.38023,-0.86829,0.7497,-0.18182,-0.07,0.06,-0.07,86.18
2664,4.5633e+07,0,0.86,-0.71,23.22,-0.0011873,0.0015217,-0.40667,-0.37723,-0.86829,0.7497,-0.18517,-0.07,0.06,-0.07,86.18
2705,4.5643e+07,0,0.86,-0.71,23.22,-0.00090169,0.0014166,-0.40644,-0.37446,-0.86829,0.7497,-0.18856,-0.07,0.06,-0.07,86.18
2745,4.5653e+07,0,0.86,-0.71,23.22,-0.00098539,0.0015849,-0.40642,-0.37121,-0.86829,0.7497,-0.19262,-0.07,0.06,-0.07,86.18
2791,4.5663e+07,0,0.86,-0.72,23.22,-0.0011952,0.0015557,-0.40614,-0.36843,-0.86829,0.7497,-0.19604,-0.07,0.06,-0.07,86.18
2832,4.5673e+07,0,0.85,-0.72,23.22,-0.0010433,0.001421,-0.40605,-0.36698,-0.86829,0.7497,-0.19949,-0.07,0.06,-0.07,86.18
2873,4.5684e+07,0,0.85,-0.72,23.22,-0.0011462,0.0016431,-0.40625,-0.36595,-0.86829,0.7497,-0.20338,-0.07,0.06,-0.07,86.18
2915,4.5694e+07,0,0.85,-0.71,23.21,-0.0013152,0.0015222,-0.40627,-0.36454,-0.86829,0.7497,-0.20744,-0.07,0.06,-0.07,86.18
2955,4.5704e+07,0,0.85,-0.71,23.21,-0.0014513,0.0015337,-0.40631,-0.36381,-0.86829,0.7497,-0.21096,-0.07,0.06,-0.07,86.18
2993,4.5715e+07,0,0.86,-0.71,23.22,-0.0016833,0.0017082,-0.40618,-0.36207,-0.86829,0.7497,-0.21451,-0.07,0.06,-0.07,86.18
3034,4.5725e+07,0,0.86,-0.71,23.21,-0.0016276,0.0016999,-0.40599,-0.35934,-0.86829,0.7497,-0.2177,-0.07,0.06,-0.07,86.18
3074,4.5735e+07,0,0.86,-0.71,23.22,-0.001607,0.0016601,-0.40544,-0.35613,-0.86829,0.7497,-0.22094,-0.07,0.06,-0.07,86.18
3116,4.5745e+07,0,0.86,-0.71,23.22,-0.0017423,0.001681,-0.40511,-0.35296,-0.86829,0.7497,-0.22422,-0.07,0.06,-0.07,86.18
3156,4.5756e+07,0,0.87,-0.71,23.22,-0.0018747,0.0015558,-0.40493,-0.35026,-0.86829,0.7497,-0.22827,-0.07,0.06,-0.07,86.18
3201,4.5766e+07,0,0.87,-0.71,23.22,-0.0018336,0.0014566,-0.40456,-0.34818,-0.86829,0.7497,-0.23158,-0.07,0.06,-0.07,86.18
3241,4.5776e+07,0,0.87,-0.71,23.22,-0.0020167,0.0011757,-0.40457,-0.34684,-0.86829,0.7497,-0.23493,-0.07,0.06,-0.07,86.18
3282,4.5786e+07,0,0.87,-0.71,23.22,-0.0021325,0.0012073,-0.40419,-0.34511,-0.86829,0.7497,-0.23873,-0.07,0.06,-0.07,86.18
3323,4.5796e+07,0,0.87,-0.71,23.22,-0.0021483,0.0012744,-0.40418,-0.3445,-0.86829,0.7497,-0.24216,-0.07,0.06,-0.07,86.18
3364,4.5807e+07,0,0.87,-0.71,23.22,-0.0020147,0.00097363,-0.40404,-0.343,-0.86829,0.7497,-0.24528,-0.07,0.06,-0.07,86.18
3409,4.5817e+07,0,0.86,-0.71,23.22,-0.0022049,0.00088148,-0.40364,-0.34053,-0.86829,0.7497,-0.24806,-0.07,0.06,-0.07,86.18
3446,4.5828e+07,0,0.86,-0.71,23.22,-0.0021277,0.00087543,-0.4035,-0.33591,-0.87942,0.7497,-0.2513,-0.07,0.06,-0.07,86.18
3489,4.5838e+07,0,0.86,-0.71,23.22,-0.0019345,0.00092985,-0.40342,-0.33059,-0.87942,0.7497,-0.25533,-0.07,0.06,-0.07,86.18
3529,4.5848e+07,0,0.86,-0.71,23.22,-0.0019096,0.0010129,-0.40293,-0.32593,-0.87942,0.7497,-0.25823,-0.07,0.06,-0.07,86.18
3571,4.5858e+07,0,0.86,-0.71,23.22,-0.0020496,0.0013014,-0.40274,-0.32203,-0.87942,0.7497,-0.26118,-0.07,0.06,-0.07,86.18
3619,4.5869e+07,0,0.86,-0.71,23.22,-0.0019964,0.0015455,-0.40251,-0.31872,-0.87942,0.7497,-0.26458,-0.07,0.06,-0.07,86.18
3659,4.5879e+07,0,0.86,-0.71,23.22,-0.0017948,0.0017758,-0.40253,-0.31723,-0.87942,0.7497,-0.26764,-0.07,0.06,-0.07,86.18
3700,4.5889e+07,0,0.86,-0.71,23.22,-0.0018469,0.001944,-0.40285,-0.31544,-0.87942,0.7497,-0.27166,-0.07,0.06,-0.07,86.18
3741,4.5899e+07,0,0.86,-0.71,23.22,-0.0018617,0.0020276,-0.40258,-0.31429,-0.87942,0.7497,-0.27476,-0.07,0.06,-0.07,86.18
3785,4.5913e+07,0,0.86,-0.71,23.22,-0.0020458,0.002085,-0.40229,-0.31073,-0.87942,0.7497,-0.27852,-0.07,0.06,-0.07,86.18
3825,4.5922e+07,0,0.87,-0.71,23.23,-0.0021309,0.0020446,-0.40215,-0.30745,-0.87942,0.7497,-0.28115,-0.07,0.06,-0.07,86.18
3867,4.5933e+07,0,0.87,-0.71,23.22,-0.0023921,0.0019835,-0.40168,-0.30376,-0.87942,0.7497,-0.28384,-0.07,0.06,-0.07,86.18
3908,4.5942e+07,0,0.87,-0.71,23.23,-0.0024389,0.0016548,-0.40121,-0.301,-0.87942,0.7497,-0.2866,-0.07,0.06,-0.07,86.18
3948,4.5952e+07,0,0.87,-0.71,23.22,-0.0024819,0.0014306,-0.40107,-0.29894,-0.87942,0.7497,-0.28941,-0.07,0.06,-0.07,86.18
3989,4.5963e+07,0,0.87,-0.71,23.22,-0.0026322,0.0012207,-0.40085,-0.29597,-0.87942,0.7497,-0.29342,-0.07,0.06,-0.07,86.18
4035,4.5972e+07,0,0.87,-0.71,23.22,-0.0026145,0.0010979,-0.40022,-0.29404,-0.87942,0.7497,-0.29628,-0.07,0.06,-0.07,86.18
4077,4.5982e+07,0,0.86,-0.71,23.22,-0.0029076,0.00095394,-0.39993,-0.2931,-0.87942,0.7497,-0.2992,-0.07,0.06,-0.07,86.18
4117,4.5992e+07,0,0.86,-0.71,23.22,-0.0030199,0.0006781,-0.3998,-0.29351,-0.87942,0.7497,-0.30217,-0.07,0.06,-0.07,86.18
4161,4.6002e+07,0,0.86,-0.71,23.22,-0.0031645,0.00049234,-0.39946,-0.29425,-0.87942,0.74164,-0.30519,-0.07,0.06,-0.07,86.18
4201,4.6016e+07,0,0.86,-0.71,23.22,-0.0033531,0.0004356,-0.39943,-0.29491,-0.87942,0.74164,-0.30997,-0.07,0.06,-0.07,86.18
4242,4.6025e+07,0,0.85,-0.71,23.22,-0.003455,0.00045676,-0.39948,-0.29592,-0.87942,0.74164,-0.31356,-0.07,0.06,-0.07,86.18
4283,4.6036e+07,0,0.85,-0.71,23.22,-0.0036591,0.00034976,-0.39908,-0.2968,-0.87942,0.74164,-0.31678,-0.07,0.06,-0.07,86.18
4323,4.6046e+07,0,0.85,-0.71,23.22,-0.0034926,0.0004145,-0.39891,-0.29797,-0.87942,0.74164,-0.31966,-0.07,0.06,-0.07,86.18
4366,4.6056e+07,0,0.86,-0.71,23.22,-0.0035377,0.00025763,-0.39858,-0.29892,-0.87942,0.74164,-0.3226,-0.07,0.06,-0.07,86.18
4406,4.6066e+07,0,0.86,-0.71,23.22,-0.0034758,0.00031405,-0.39832,-0.30058,-0.87942,0.74164,-0.32558,-0.07,0.06,-0.07,86.18
4452,4.6076e+07,0,0.86,-0.7,23.22,-0.0034492,0.00041036,-0.39869,-0.30178,-0.87942,0.74164,-0.32956,-0.07,0.06,-0.07,86.18
4492,4.6086e+07,0,0.86,-0.7,23.22,-0.0035267,0.00052326,-0.3985,-0.30328,-0.87942,0.74164,-0.33259,-0.07,0.06,-0.07,86.18
4533,4.6096e+07,0,0.86,-0.7,23.22,-0.0035413,0.00042605,-0.39812,-0.30478,-0.87942,0.74164,-0.33567,-0.07,0.06,-0.07,86.18
4574,4.6106e+07,0,0.87,-0.7,23.22,-0.0033031,0.00049509,-0.39803,-0.30725,-0.87942,0.74164,-0.3388,-0.07,0.06,-0.07,86.18
4615,4.6119e+07,0,0.87,-0.7,23.22,-0.0031453,0.00022201,-0.39761,-0.30918,-0.87942,0.74164,-0.34269,-0.07,0.06,-0.07,86.18
4657,4.613e+07,0,0.87,-0.71,23.22,-0.0030049,0.00018689,-0.39724,-0.31033,-0.87942,0.74164,-0.34545,-0.07,0.06,-0.07,86.18
4697,4.614e+07,0,0.87,-0.71,23.22,-0.0030024,0.00016831,-0.39725,-0.30966,-0.87942,0.74164,-0.34941,-0.07,0.06,-0.07,86.18
4738,4.615e+07,0,0.86,-0.71,23.22,-0.0030088,2.4927e-06,-0.39686,-0.30905,-0.87942,0.74164,-0.35222,-0.07,0.06,-0.07,86.18
4779,4.616e+07,0,0.86,-0.71,23.22,-0.0030767,-0.000173,-0.39661,-0.30994,-0.87942,0.74164,-0.35508,-0.07,0.06,-0.07,86.18
4823,4.617e+07,0,0.86,-0.71,23.22,-0.0029803,-0.00023168,-0.39627,-0.3104,-0.87942,0.74164,-0.35799,-0.07,0.06,-0.07,86.18
4864,4.618e+07,0,0.86,-0.71,23.22,-0.0029765,-0.00014016,-0.39621,-0.30997,-0.87942,0.74164,-0.36235,-0.07,0.06,-0.07,86.18
4905,4.619e+07,0,0.86,-0.7,23.22,-0.0032436,-0.00024519,-0.39627,-0.3107,-0.87942,0.74164,-0.3653,-0.07,0.06,-0.07,86.18
4946,4.62e+07,0,0.85,-0.7,23.22,-0.0031925,-0.00032845,-0.39616,-0.3126,-0.87942,0.74164,-0.36831,-0.07,0.06,-0.07,86.18
4988,4.621e+07,0,0.85,-0.7,23.22,-0.0033476,-0.00040472,-0.39593,-0.31418,-0.90168,0.73358,-0.37136,-0.07,0.06,-0.07,86.18
5030,4.622e+07,0,0.86,-0.7,23.22,-0.0035598,-0.00033099,-0.39579,-0.31478,-0.90168,0.73358,-0.37531,-0.07,0.06,-0.07,86.18
5071,4.6231e+07,0,0.86,-0.7,23.21,-0.0037339,-0.00030987,-0.39527,-0.31275,-0.90168,0.73358,-0.37785,-0.07,0.06,-0.07,86.18
5112,4.6241e+07,0,0.86,-0.7,23.21,-0.0039027,-0.00043234,-0.39496,-0.30814,-0.90168,0.73358,-0.38007,-0.07,0.06,-0.07,86.18
5153,4.6251e+07,0,0.86,-0.71,23.21,-0.004224,-0.00066605,-0.39478,-0.30293,-0.90168,0.73358,-0.38239,-0.07,0.06,-0.07,86.18
5194,4.6261e+07,0,0.86,-0.71,23.21,-0.0043219,-0.00096318,-0.39434,-0.29737,-0.90168,0.73358,-0.38478,-0.07,0.06,-0.07,86.18
5238,4.6271e+07,0,0.87,-0.71,23.21,-0.0041863,-0.0012517,-0.39398,-0.29167,-0.90168,0.73358,-0.38724,-0.07,0.06,-0.07,86.18
5280,4.6281e+07,0,0.87,-0.71,23.21,-0.0041933,-0.0014024,-0.39385,-0.28711,-0.90168,0.73358,-0.38978,-0.07,0.06,-0.07,86.18
5320,4.6291e+07,0,0.87,-0.7,23.21,-0.0041373,-0.0014578,-0.39382,-0.28206,-0.90168,0.73358,-0.39371,-0.07,0.06,-0.07,86.18
5361,4.6301e+07,0,0.87,-0.7,23.21,-0.0040929,-0.0015933,-0.39348,-0.2787,-0.90168,0.73358,-0.39631,-0.07,0.06,-0.07,86.18
5401,4.6311e+07,0,0.86,-0.7,23.21,-0.0039941,-0.0018311,-0.3931,-0.27499,-0.90168,0.73358,-0.39834,-0.07,0.06,-0.07,86.18
5445,4.6324e+07,0,0.86,-0.7,23.21,-0.0039642,-0.0018242,-0.39303,-0.26994,-0.90168,0.73358,-0.40163,-0.07,0.06,-0.07,86.18
5485,4.6334e+07,0,0.86,-0.7,23.21,-0.0038304,-0.0018982,-0.39249,-0.26644,-0.90168,0.73358,-0.40382,-0.07,0.06,-0.07,86.18
5527,4.6345e+07,0,0.85,-0.7,23.21,-0.0037253,-0.0019635,-0.39219,-0.2633,-0.90168,0.73358,-0.40649,-0.07,0.06,-0.07,86.18
5569,4.6355e+07,0,0.85,-0.7,23.21,-0.0038198,-0.001831,-0.39205,-0.25942,-0.90168,0.73358,-0.4104,-0.07,0.06,-0.07,86.18
5609,4.6365e+07,0,0.85,-0.7,23.21,-0.0037678,-0.0017665,-0.39165,-0.25693,-0.90168,0.73358,-0.41274,-0.07,0.06,-0.07,86.18
5654,4.6376e+07,0,0.85,-0.7,23.21,-0.0038403,-0.0016042,-0.39157,-0.2554,-0.90168,0.73358,-0.41516,-0.07,0.06,-0.07,86.18
5695,4.6386e+07,0,0.85,-0.71,23.21,-0.0039556,-0.0015326,-0.39144,-0.25375,-0.90168,0.73358,-0.41804,-0.07,0.06,-0.07,86.18
5736,4.6396e+07,0,0.86,-0.71,23.21,-0.0039436,-0.0014461,-0.39115,-0.25321,-0.90168,0.73358,-0.4206,-0.07,0.06,-0.07,86.18
5776,4.6406e+07,0,0.86,-0.71,23.21,-0.0040156,-0.0013461,-0.39103,-0.25455,-0.90168,0.73358,-0.42323,-0.07,0.06,-0.07,86.18
5819,4.6416e+07,0,0.86,-0.7,23.21,-0.0042418,-0.0013435,-0.39101,-0.25519,-0.91281,0.72551,-0.42713,-0.07,0.06,-0.07,86.18
5857,4.6427e+07,0,0.86,-0.7,23.21,-0.0042072,-0.0015189,-0.39049,-0.25389,-0.91281,0.72551,-0.4292,-0.07,0.06,-0.07,86.18
5898,4.6437e+07,0,0.86,-0.7,23.21,-0.0041912,-0.0016894,-0.38992,-0.25148,-0.91281,0.72551,-0.43098,-0.07,0.06,-0.07,86.18
5940,4.6447e+07,0,0.86,-0.7,23.21,-0.0041848,-0.0018504,-0.38941,-0.24915,-0.91281,0.72551,-0.43284,-0.07,0.06,-0.07,86.18
5980,4.6457e+07,0,0.87,-0.7,23.21,-0.0041358,-0.0021363,-0.38915,-0.24656,-0.91281,0.72551,-0.43481,-0.07,0.06,-0.07,86.18
6021,4.6468e+07,0,0.86,-0.7,23.21,-0.0043241,-0.0022233,-0.38879,-0.2421,-0.91281,0.72551,-0.43686,-0.07,0.06,-0.07,86.18
6067,4.6478e+07,0,0.86,-0.7,23.21,-0.0044896,-0.002418,-0.38899,-0.23695,-0.91281,0.72551,-0.44114,-0.07,0.06,-0.07,86.18
6107,4.6488e+07,0,0.86,-0.7,23.21,-0.0046926,-0.0026317,-0.38847,-0.23355,-0.91281,0.72551,-0.44327,-0.07,0.06,-0.07,86.18
6148,4.6498e+07,0,0.86,-0.71,23.21,-0.0046918,-0.0026717,-0.3879,-0.23192,-0.91281,0.72551,-0.44549,-0.07,0.06,-0.07,86.18
6188,4.6508e+07,0,0.85,-0.71,23.2,-0.0048169,-0.0027643,-0.38759,-0.23376,-0.91281,0.72551,-0.44777,-0.07,0.06,-0.07,86.18
6229,4.6518e+07,0,0.85,-0.71,23.2,-0.0047905,-0.0029475,-0.38774,-0.23439,-0.91281,0.72551,-0.45164,-0.07,0.06,-0.07,86.18
6266,4.6528e+07,0,0.85,-0.71,23.2,-0.0049689,-0.0028039,-0.38695,-0.23243,-0.91281,0.72551,-0.4529,-0.07,0.06,-0.07,86.18
6308,4.6538e+07,0,0.85,-0.7,23.2,-0.0051854,-0.0026685,-0.38643,-0.22862,-0.91281,0.72551,-0.45428,-0.07,0.06,-0.07,86.18
6353,4.6548e+07,0,0.85,-0.7,23.2,-0.0052576,-0.002632,-0.3855,-0.22458,-0.91281,0.72551,-0.45576,-0.07,0.06,-0.07,86.18
6393,4.6559e+07,0,0.85,-0.7,23.2,-0.0051767,-0.0025066,-0.38507,-0.21834,-0.91281,0.72551,-0.45774,-0.07,0.06,-0.07,86.18
6434,4.6569e+07,0,0.86,-0.7,23.2,-0.0051801,-0.0024735,-0.38471,-0.21386,-0.91281,0.72551,-0.45944,-0.07,0.06,-0.07,86.18
6478,4.658e+07,0,0.86,-0.7,23.2,-0.0051103,-0.0024683,-0.38444,-0.20822,-0.91281,0.72551,-0.46163,-0.07,0.06,-0.07,86.18
6520,4.659e+07,0,0.86,-0.7,23.2,-0.0051193,-0.0022928,-0.38436,-0.20305,-0.91281,0.72551,-0.46547,-0.07,0.06,-0.07,86.18
6562,4.66e+07,0,0.86,-0.7,23.2,-0.0052596,-0.0023901,-0.38394,-0.19963,-0.91281,0.71745,-0.46736,-0.07,0.06,-0.07,86.18
6603,4.661e+07,0,0.86,-0.7,23.2,-0.0051543,-0.0023644,-0.38347,-0.19852,-0.91281,0.71745,-0.46934,-0.07,0.06,-0.07,86.18
6641,4.662e+07,0,0.86,-0.7,23.19,-0.0051817,-0.0025601,-0.38288,-0.19749,-0.91281,0.71745,-0.47052,-0.07,0.06,-0.07,86.18
6681,4.663e+07,0,0.86,-0.7,23.19,-0.0051363,-0.0026713,-0.38262,-0.19443,-0.91281,0.71745,-0.47183,-0.08,0.06,-0.07,86.18
6723,4.664e+07,0,0.86,-0.7,23.19,-0.0052028,-0.0028353,-0.38197,-0.19099,-0.91281,0.71745,-0.47325,-0.08,0.06,-0.07,86.18
6764,4.6651e+07,0,0.86,-0.71,23.19,-0.0052425,-0.0028231,-0.3816,-0.18597,-0.91281,0.71745,-0.47516,-0.08,0.06,-0.07,86.18
6805,4.6661e+07,0,0.86,-0.71,23.19,-0.0053178,-0.0025625,-0.38182,-0.1813,-0.91281,0.71745,-0.47897,-0.08,0.06,-0.07,86.18
6846,4.6671e+07,0,0.85,-0.71,23.19,-0.0055291,-0.0025573,-0.38124,-0.17784,-0.91281,0.71745,-0.48061,-0.08,0.06,-0.07,86.18
6891,4.668e+07,0,0.85,-0.71,23.19,-0.0056664,-0.0025159,-0.38073,-0.17685,-0.91281,0.71745,-0.48233,-0.08,0.06,-0.07,86.18
6932,4.669e+07,0,0.85,-0.71,23.19,-0.0058218,-0.002439,-0.38028,-0.17715,-0.91281,0.71745,-0.48415,-0.08,0.06,-0.07,86.18
6972,4.67e+07,0,0.85,-0.71,23.19,-0.0058982,-0.002312,-0.37969,-0.17951,-0.91281,0.71745,-0.48606,-0.08,0.06,-0.07,86.18
7013,4.6711e+07,0,0.85,-0.7,23.19,-0.0060154,-0.0022575,-0.37983,-0.18123,-0.91281,0.71745,-0.48985,-0.08,0.06,-0.07,86.18
7053,4.6721e+07,0,0.86,-0.71,23.19,-0.0060716,-0.0023839,-0.37935,-0.18236,-0.91281,0.71745,-0.49143,-0.08,0.06,-0.07,86.18
7095,4.6731e+07,0,0.86,-0.7,23.19,-0.0060916,-0.0024767,-0.37878,-0.1861,-0.91281,0.71745,-0.49309,-0.07,0.06,-0.07,86.18
7133,4.6741e+07,0,0.86,-0.7,23.19,-0.0061491,-0.0024264,-0.37818,-0.19035,-0.91281,0.71745,-0.49485,-0.07,0.06,-0.07,86.18
7174,4.6751e+07,0,0.86,-0.7,23.19,-0.006258,-0.0027608,-0.37826,-0.19246,-0.91281,0.71745,-0.49863,-0.07,0.06,-0.07,86.18
7215,4.6761e+07,0,0.86,-0.7,23.19,-0.0063008,-0.0031157,-0.37781,-0.19532,-0.91281,0.71745,-0.50047,-0.07,0.06,-0.07,86.18
7255,4.6772e+07,0,0.87,-0.7,23.19,-0.0060876,-0.003304,-0.37734,-0.19767,-0.91281,0.71745,-0.50278,-0.08,0.06,-0.07,86.18
7302,4.6782e+07,0,0.87,-0.7,23.19,-0.0061144,-0.0034409,-0.37705,-0.20043,-0.91281,0.71745,-0.5048,-0.08,0.06,-0.07,86.18
7342,4.6792e+07,0,0.86,-0.7,23.19,-0.0059183,-0.0034531,-0.37667,-0.20451,-0.91281,0.71745,-0.50689,-0.08,0.06,-0.07,86.18
7385,4.6802e+07,0,0.86,-0.7,23.19,-0.0058355,-0.0034746,-0.37626,-0.20966,-0.91281,0.70939,-0.50944,-0.08,0.06,-0.07,86.18
7425,4.6813e+07,0,0.86,-0.7,23.19,-0.0057415,-0.0035514,-0.37607,-0.2133,-0.91281,0.70939,-0.51319,-0.08,0.06,-0.07,86.18
7467,4.6823e+07,0,0.86,-0.7,23.19,-0.0057995,-0.0036124,-0.37581,-0.21932,-0.91281,0.70939,-0.51542,-0.07,0.06,-0.07,86.18
7508,4.6833e+07,0,0.86,-0.7,23.19,-0.005808,-0.0034635,-0.37553,-0.22342,-0.91281,0.70939,-0.51635,-0.07,0.06,-0.07,86.18
7549,4.6843e+07,0,0.86,-0.7,23.19,-0.0057002,-0.0032879,-0.37495,-0.22471,-0.91281,0.70939,-0.51741,-0.07,0.06,-0.07,86.18
7591,4.6853e+07,0,0.86,-0.7,23.19,-0.0058697,-0.0030221,-0.37507,-0.22078,-0.91281,0.70939,-0.52115,-0.07,0.06,-0.07,86.18
7632,4.6864e+07,0,0.86,-0.7,23.19,-0.0059298,-0.0028755,-0.37445,-0.21645,-0.91281,0.70939,-0.52232,-0.07,0.06,-0.07,86.18
7674,4.6874e+07,0,0.86,-0.7,23.19,-0.00608,-0.0026283,-0.37387,-0.21148,-0.91281,0.70939,-0.5236,-0.07,0.06,-0.07,86.18
7719,4.6883e+07,0,0.86,-0.7,23.19,-0.0062961,-0.0026436,-0.37316,-0.20761,-0.91281,0.70939,-0.52499,-0.07,0.06,-0.07,86.18
7759,4.6894e+07,0,0.86,-0.7,23.19,-0.0063,-0.0028321,-0.3725,-0.20413,-0.91281,0.70939,-0.52685,-0.07,0.06,-0.07,86.18
7800,4.6904e+07,0,0.86,-0.7,23.19,-0.0064594,-0.002882,-0.37256,-0.20002,-0.91281,0.70939,-0.53057,-0.07,0.06,-0.07,86.18
7840,4.6914e+07,0,0.87,-0.7,23.19,-0.0066807,-0.0029117,-0.37226,-0.19751,-0.91281,0.70939,-0.53215,-0.07,0.06,-0.07,86.18
7882,4.6925e+07,0,0.87,-0.7,23.19,-0.0066598,-0.0030679,-0.37127,-0.1977,-0.91281,0.70939,-0.53298,-0.07,0.06,-0.07,86.18
7925,4.6937e+07,0,0.87,-0.7,23.2,-0.0068487,-0.0032677,-0.3703,-0.19069,-0.91281,0.70939,-0.5347,-0.07,0.06,-0.07,86.18
7966,4.6947e+07,0,0.87,-0.7,23.2,-0.0067812,-0.0033671,-0.36965,-0.18603,-0.91281,0.70939,-0.53543,-0.07,0.06,-0.07,86.18
8006,4.6957e+07,0,0.87,-0.7,23.2,-0.0067874,-0.0034947,-0.36945,-0.1775,-0.91281,0.70939,-0.53912,-0.07,0.06,-0.07,86.18
8048,4.6967e+07,0,0.86,-0.7,23.2,-0.0068147,-0.0035517,-0.36883,-0.17057,-0.91281,0.70939,-0.53997,-0.07,0.06,-0.07,86.18
8089,4.6977e+07,0,0.86,-0.7,23.2,-0.0069373,-0.0034977,-0.36805,-0.16398,-0.91281,0.70939,-0.54095,-0.07,0.06,-0.07,86.18
8135,4.6987e+07,0,0.86,-0.7,23.2,-0.0068445,-0.0035104,-0.36727,-0.15967,-0.91281,0.70939,-0.54205,-0.07,0.06,-0.07,86.18
8177,4.6997e+07,0,0.86,-0.7,23.2,-0.0068016,-0.0034003,-0.36692,-0.15675,-0.91281,0.70939,-0.54326,-0.07,0.06,-0.07,86.18
8217,4.7008e+07,0,0.86,-0.7,23.2,-0.0067342,-0.0033602,-0.36636,-0.15253,-0.91281,0.70939,-0.54496,-0.07,0.06,-0.07,86.18
8260,4.7018e+07,0,0.86,-0.7,23.2,-0.0067331,-0.0033161,-0.36628,-0.1489,-0.91281,0.70939,-0.54862,-0.07,0.06,-0.07,86.18
8297,4.7028e+07,0,0.86,-0.7,23.2,-0.006898,-0.0031221,-0.36553,-0.14344,-0.93508,0.70133,-0.54899,-0.07,0.06,-0.07,86.18
8338,4.7038e+07,0,0.86,-0.7,23.21,-0.0068081,-0.0028286,-0.36475,-0.13867,-0.93508,0.70133,-0.54951,-0.07,0.06,-0.07,86.18
8378,4.7048e+07,0,0.86,-0.7,23.2,-0.0067362,-0.0028159,-0.36483,-0.13823,-0.93508,0.70133,-0.55315,-0.07,0.06,-0.07,86.18
8418,4.7058e+07,0,0.86,-0.7,23.21,-0.0067918,-0.0028017,-0.36408,-0.13728,-0.93508,0.70133,-0.55376,-0.07,0.06,-0.07,86.18
8461,4.7068e+07,0,0.86,-0.7,23.21,-0.0067918,-0.0028462,-0.36309,-0.13516,-0.93508,0.70133,-0.5545,-0.07,0.06,-0.07,86.18
8502,4.7078e+07,0,0.87,-0.7,23.21,-0.006991,-0.002982,-0.36308,-0.13728,-0.93508,0.70133,-0.55813,-0.07,0.06,-0.07,86.18
8546,4.7088e+07,0,0.87,-0.7,23.21,-0.0069239,-0.003042,-0.36244,-0.13903,-0.93508,0.70133,-0.55897,-0.07,0.06,-0.07,86.18
8587,4.7098e+07,0,0.87,-0.7,23.21,-0.0068304,-0.0030902,-0.36167,-0.13969,-0.93508,0.70133,-0.55993,-0.07,0.06,-0.07,86.18
8627,4.7109e+07,0,0.87,-0.7,23.21,-0.006863,-0.0030322,-0.36103,-0.1415,-0.93508,0.70133,-0.56101,-0.07,0.06,-0.07,86.18
8668,4.7119e+07,0,0.87,-0.7,23.21,-0.0068893,-0.0032899,-0.36027,-0.14312,-0.93508,0.70133,-0.56221,-0.07,0.06,-0.07,86.18
8708,4.7129e+07,0,0.86,-0.7,23.21,-0.0070267,-0.0033658,-0.36017,-0.14332,-0.93508,0.70133,-0.56616,-0.07,0.06,-0.07,86.18
8749,4.7139e+07,0,0.86,-0.7,23.21,-0.0071383,-0.003438,-0.35938,-0.14255,-0.93508,0.70133,-0.5665,-0.07,0.06,-0.07,86.18
8792,4.7152e+07,0,0.86,-0.7,23.21,-0.0071107,-0.0034838,-0.35842,-0.1416,-0.93508,0.70133,-0.56768,-0.07,0.06,-0.07,86.18
8833,4.7161e+07,0,0.86,-0.7,23.21,-0.0072309,-0.0035141,-0.35765,-0.14072,-0.93508,0.70133,-0.56828,-0.07,0.06,-0.07,86.18
8874,4.7172e+07,0,0.86,-0.7,23.21,-0.007424,-0.0034762,-0.35699,-0.13953,-0.93508,0.70133,-0.56937,-0.07,0.06,-0.07,86.18
8915,4.7182e+07,0,0.86,-0.7,23.21,-0.0075749,-0.0035419,-0.35687,-0.136,-0.93508,0.70133,-0.57294,-0.07,0.06,-0.07,86.18
8960,4.7192e+07,0,0.86,-0.7,23.21,-0.0075552,-0.0034658,-0.3561,-0.13288,-0.93508,0.70133,-0.57379,-0.07,0.06,-0.07,86.18
9002,4.7202e+07,0,0.86,-0.7,23.21,-0.0076197,-0.0035273,-0.35547,-0.13184,-0.93508,0.69327,-0.57477,-0.07,0.06,-0.07,86.18
9044,4.7212e+07,0,0.86,-0.7,23.21,-0.0078523,-0.0035685,-0.35471,-0.13143,-0.93508,0.69327,-0.57586,-0.07,0.06,-0.07,86.18
9085,4.7222e+07,0,0.86,-0.7,23.21,-0.007885,-0.0036072,-0.35418,-0.13346,-0.93508,0.69327,-0.57707,-0.07,0.06,-0.07,86.18
9125,4.7232e+07,0,0.87,-0.7,23.21,-0.0080439,-0.0037018,-0.35409,-0.13389,-0.93508,0.69327,-0.5806,-0.07,0.06,-0.07,86.18
9162,4.7242e+07,0,0.87,-0.7,23.21,-0.008079,-0.0036362,-0.35311,-0.13103,-0.93508,0.69327,-0.58023,-0.07,0.06,-0.07,86.18
9203,4.7252e+07,0,0.87,-0.7,23.21,-0.0081187,-0.0038252,-0.35228,-0.12516,-0.93508,0.69327,-0.58004,-0.07,0.06,-0.07,86.18
9222,4.7282e+07,0,0.87,-0.7,23.21,-0.0081812,-0.0042859,-0.35011,-0.1039,-0.93508,0.69327,-0.58364,-0.07,0.06,-0.07,86.18
9268,4.7292e+07,0,0.86,-0.7,23.21,-0.0082198,-0.0044764,-0.34959,-0.097551,-0.93508,0.69327,-0.58391,-0.07,0.06,-0.07,86.18
9308,4.7302e+07,0,0.86,-0.7,23.21,-0.0082663,-0.0045087,-0.34864,-0.091963,-0.93508,0.69327,-0.58432,-0.07,0.06,-0.07,86.18
9349,4.7312e+07,0,0.86,-0.7,23.21,-0.0082932,-0.0044634,-0.34792,-0.089552,-0.93508,0.69327,-0.58488,-0.07,0.06,-0.07,86.18
9395,4.7327e+07,0,0.86,-0.7,23.21,-0.0082516,-0.0044394,-0.34698,-0.082609,-0.93508,0.69327,-0.58589,-0.07,0.06,-0.07,86.18
9436,4.7337e+07,0,0.86,-0.7,23.21,-0.0081808,-0.0043501,-0.34632,-0.077923,-0.93508,0.69327,-0.58535,-0.07,0.06,-0.07,86.18
9478,4.7348e+07,0,0.86,-0.7,23.2,-0.0081587,-0.0042229,-0.34513,-0.071655,-0.93508,0.69327,-0.58534,-0.07,0.06,-0.07,86.18
9518,4.7358e+07,0,0.86,-0.7,23.2,-0.0082355,-0.0040913,-0.3451,-0.063172,-0.93508,0.69327,-0.58878,-0.07,0.06,-0.07,86.18
9559,4.7368e+07,0,0.86,-0.7,23.2,-0.0083682,-0.0041108,-0.34416,-0.055385,-0.93508,0.69327,-0.58858,-0.07,0.06,-0.07,86.18
9599,4.7378e+07,0,0.86,-0.7,23.2,-0.0082954,-0.0040466,-0.34325,-0.050482,-0.93508,0.69327,-0.58854,-0.07,0.06,-0.07,86.18
9644,4.7388e+07,0,0.86,-0.7,23.2,-0.0083102,-0.0040398,-0.34261,-0.047133,-0.93508,0.69327,-0.58865,-0.07,0.06,-0.07,86.18
9686,4.7398e+07,0,0.86,-0.7,23.2,-0.0083311,-0.0040367,-0.34181,-0.046909,-0.93508,0.69327,-0.58892,-0.07,0.06,-0.07,86.18
9729,4.7408e+07,0,0.86,-0.7,23.19,-0.0082561,-0.004155,-0.34162,-0.044846,-0.93508,0.68521,-0.59233,-0.07,0.06,-0.07,86.18
9767,4.7419e+07,0,0.86,-0.7,23.19,-0.008211,-0.0042981,-0.34099,-0.045815,-0.93508,0.68521,-0.59272,-0.07,0.06,-0.07,86.18
9807,4.7429e+07,0,0.86,-0.7,23.19,-0.0083682,-0.0044247,-0.33964,-0.045128,-0.93508,0.68521,-0.59218,-0.07,0.06,-0.07,86.18
9851,4.7441e+07,0,0.86,-0.7,23.19,-0.0083658,-0.0045262,-0.33859,-0.043432,-0.93508,0.68521,-0.59283,-0.07,0.06,-0.07,86.18
9892,4.7451e+07,0,0.86,-0.7,23.19,-0.0081901,-0.0043597,-0.3378,-0.041809,-0.93508,0.68521,-0.59263,-0.07,0.06,-0.07,86.18
9933,4.7461e+07,0,0.86,-0.7,23.19,-0.0083226,-0.0044058,-0.33681,-0.03891,-0.93508,0.68521,-0.5926,-0.07,0.06,-0.07,86.18
9974,4.7471e+07,0,0.86,-0.7,23.19,-0.0083294,-0.0044732,-0.33595,-0.037577,-0.93508,0.68521,-0.59272,-0.07,0.06,-0.07,86.18
10014,4.7481e+07,0,0.86,-0.7,23.19,-0.0085277,-0.0045867,-0.33592,-0.034891,-0.93508,0.68521,-0.59608,-0.07,0.06,-0.07,86.18
10059,4.7491e+07,0,0.85,-0.7,23.19,-0.0086686,-0.0045505,-0.33507,-0.035182,-0.93508,0.68521,-0.59633,-0.07,0.06,-0.07,86.18
10100,4.7501e+07,0,0.86,-0.7,23.18,-0.0086329,-0.004551,-0.33417,-0.040808,-0.93508,0.68521,-0.59671,-0.07,0.06,-0.07,86.18
10142,4.7511e+07,0,0.86,-0.7,23.18,-0.0087175,-0.0044815,-0.33342,-0.046848,-0.93508,0.68521,-0.59722,-0.07,0.06,-0.07,86.18
10182,4.7521e+07,0,0.86,-0.7,23.18,-0.0088668,-0.0045261,-0.33335,-0.050773,-0.93508,0.68521,-0.60055,-0.07,0.06,-0.07,86.18
10223,4.7531e+07,0,0.86,-0.7,23.18,-0.0091168,-0.0045556,-0.33212,-0.051248,-0.93508,0.68521,-0.59951,-0.07,0.06,-0.07,86.18
10266,4.7541e+07,0,0.86,-0.69,23.18,-0.009116,-0.004538,-0.33102,-0.048529,-0.93508,0.68521,-0.59866,-0.07,0.06,-0.07,86.18
10307,4.7551e+07,0,0.86,-0.69,23.17,-0.0091306,-0.0044644,-0.33004,-0.046281,-0.93508,0.68521,-0.59799,-0.07,0.06,-0.07,86.18
10349,4.7561e+07,0,0.86,-0.69,23.17,-0.0091443,-0.0045018,-0.32912,-0.043259,-0.93508,0.68521,-0.5975,-0.07,0.06,-0.07,86.18
10389,4.7571e+07,0,0.86,-0.69,23.17,-0.0090689,-0.00469,-0.32894,-0.036688,-0.93508,0.68521,-0.60079,-0.07,0.06,-0.07,86.18
10430,4.7581e+07,0,0.86,-0.69,23.17,-0.0090713,-0.0047229,-0.32813,-0.032798,-0.93508,0.68521,-0.60045,-0.07,0.06,-0.07,86.18
10474,4.7591e+07,0,0.86,-0.69,23.17,-0.0091529,-0.0048041,-0.32736,-0.029966,-0.93508,0.68521,-0.60028,-0.07,0.06,-0.07,86.18
10517,4.7601e+07,0,0.86,-0.69,23.17,-0.0091745,-0.0048873,-0.32653,-0.030064,-0.93508,0.68521,-0.60026,-0.07,0.06,-0.07,86.18
10557,4.7612e+07,0,0.86,-0.69,23.17,-0.009203,-0.0049629,-0.32569,-0.032008,-0.93508,0.67715,-0.60071,-0.07,0.06,-0.07,86.18
10597,4.7622e+07,0,0.86,-0.69,23.17,-0.0092911,-0.0050032,-0.32559,-0.032558,-0.93508,0.67715,-0.60397,-0.07,0.06,-0.07,86.18
10641,4.7634e+07,0,0.86,-0.69,23.16,-0.0092053,-0.00508,-0.32466,-0.033496,-0.93508,0.67715,-0.60399,-0.07,0.06,-0.07,86.18
10681,4.7644e+07,0,0.86,-0.7,23.16,-0.0092722,-0.005052,-0.32373,-0.03184,-0.93508,0.67715,-0.60353,-0.07,0.06,-0.07,86.18
10722,4.7654e+07,0,0.86,-0.7,23.16,-0.0093956,-0.0051068,-0.323,-0.030428,-0.93508,0.67715,-0.60325,-0.07,0.06,-0.07,86.18
10763,4.7665e+07,0,0.86,-0.7,23.16,-0.0094911,-0.0049176,-0.32224,-0.0313,-0.93508,0.67715,-0.60312,-0.07,0.06,-0.07,86.18
10803,4.7674e+07,0,0.86,-0.7,23.16,-0.0095826,-0.0049498,-0.32138,-0.03269,-0.93508,0.67715,-0.60314,-0.07,0.06,-0.07,86.18
10844,4.7684e+07,0,0.86,-0.7,23.15,-0.0097475,-0.0049028,-0.32129,-0.032054,-0.93508,0.67715,-0.60635,-0.07,0.06,-0.07,86.18
10888,4.7694e+07,0,0.86,-0.7,23.15,-0.0099943,-0.0049789,-0.32053,-0.033962,-0.93508,0.67715,-0.60651,-0.07,0.06,-0.07,86.18
10929,4.7705e+07,0,0.86,-0.7,23.15,-0.0099301,-0.0052544,-0.3196,-0.038106,-0.93508,0.67715,-0.60711,-0.07,0.06,-0.07,86.18
10969,4.7715e+07,0,0.86,-0.7,23.15,-0.0098482,-0.00523,-0.31884,-0.042815,-0.93508,0.67715,-0.60753,-0.07,0.06,-0.07,86.18
11015,4.7727e+07,0,0.86,-0.7,23.15,-0.0098538,-0.005252,-0.31774,-0.048494,-0.93508,0.67715,-0.60717,-0.07,0.06,-0.07,86.18
11059,4.774e+07,0,0.86,-0.7,23.15,-0.010072,-0.0053471,-0.31687,-0.046722,-0.93508,0.67715,-0.60731,-0.07,0.06,-0.07,86.18
11103,4.7752e+07,0,0.86,-0.69,23.15,-0.010069,-0.0054834,-0.316,-0.044261,-0.93508,0.67715,-0.60731,-0.07,0.06,-0.07,86.18
11143,4.7762e+07,0,0.86,-0.69,23.15,-0.010156,-0.0053574,-0.31615,-0.042381,-0.93508,0.67715,-0.61047,-0.07,0.06,-0.07,86.18
11184,4.7773e+07,0,0.86,-0.69,23.15,-0.010274,-0.0054167,-0.31519,-0.045145,-0.93508,0.67715,-0.61026,-0.07,0.06,-0.07,86.18
11225,4.7783e+07,0,0.86,-0.69,23.15,-0.010202,-0.0052608,-0.31444,-0.04608,-0.93508,0.67715,-0.60991,-0.07,0.06,-0.07,86.18
11270,4.7793e+07,0,0.86,-0.69,23.15,-0.010085,-0.0053558,-0.31363,-0.048136,-0.93508,0.67715,-0.60972,-0.07,0.06,-0.07,86.18
11313,4.7803e+07,0,0.86,-0.69,23.15,-0.010151,-0.0053314,-0.31353,-0.046631,-0.93508,0.67715,-0.61285,-0.07,0.06,-0.07,86.18
11350,4.7813e+07,0,0.86,-0.69,23.15,-0.010197,-0.0053476,-0.31299,-0.04725,-0.92395,0.66909,-0.61311,-0.07,0.06,-0.07,86.18
11392,4.7824e+07,0,0.86,-0.69,23.15,-0.010233,-0.0054815,-0.31251,-0.0493,-0.92395,0.66909,-0.61321,-0.07,0.06,-0.07,86.18
11433,4.7834e+07,0,0.86,-0.69,23.15,-0.010297,-0.0052481,-0.31178,-0.052649,-0.92395,0.66909,-0.61303,-0.07,0.06,-0.07,86.18
11474,4.7844e+07,0,0.86,-0.69,23.15,-0.010293,-0.0052089,-0.3108,-0.055617,-0.92395,0.66909,-0.6133,-0.07,0.06,-0.06,86.18
11515,4.7855e+07,0,0.86,-0.69,23.15,-0.010401,-0.0054212,-0.31037,-0.055354,-0.92395,0.66909,-0.6164,-0.07,0.06,-0.06,86.18
11556,4.7865e+07,0,0.86,-0.7,23.15,-0.010352,-0.0053217,-0.30954,-0.056793,-0.92395,0.66909,-0.6165,-0.07,0.06,-0.06,86.18
11597,4.7874e+07,0,0.86,-0.69,23.15,-0.010259,-0.0053066,-0.30877,-0.058517,-0.92395,0.66909,-0.61673,-0.07,0.06,-0.07,86.18
11637,4.7885e+07,0,0.86,-0.69,23.15,-0.010279,-0.0053315,-0.30797,-0.06213,-0.92395,0.66909,-0.61709,-0.07,0.06,-0.07,86.18
11683,4.7895e+07,0,0.86,-0.69,23.15,-0.010254,-0.0053346,-0.30739,-0.066396,-0.92395,0.66909,-0.61758,-0.07,0.06,-0.07,86.18
11724,4.7905e+07,0,0.86,-0.69,23.15,-0.01061,-0.0054158,-0.307,-0.069708,-0.92395,0.66909,-0.61851,-0.07,0.06,-0.07,86.18
11764,4.7916e+07,0,0.86,-0.69,23.15,-0.010779,-0.0056216,-0.30692,-0.072059,-0.92395,0.66909,-0.62157,-0.07,0.06,-0.07,86.18
11806,4.7925e+07,0,0.86,-0.69,23.15,-0.010825,-0.0058393,-0.30621,-0.076438,-0.92395,0.66909,-0.6223,-0.07,0.06,-0.07,86.18
11844,4.7935e+07,0,0.86,-0.69,23.15,-0.010761,-0.0060051,-0.30541,-0.079066,-0.92395,0.66909,-0.62193,-0.07,0.06,-0.07,86.18
11886,4.7945e+07,0,0.86,-0.69,23.15,-0.01071,-0.006265,-0.30437,-0.080731,-0.92395,0.66909,-0.62172,-0.07,0.06,-0.07,86.18
11926,4.7956e+07,0,0.86,-0.69,23.15,-0.010728,-0.0064088,-0.30432,-0.081152,-0.92395,0.66909,-0.62476,-0.07,0.06,-0.07,86.18
11967,4.7965e+07,0,0.86,-0.69,23.15,-0.01084,-0.0063947,-0.30336,-0.081229,-0.92395,0.66909,-0.62466,-0.07,0.06,-0.06,86.18
12008,4.7976e+07,0,0.86,-0.69,23.15,-0.010966,-0.0062047,-0.30249,-0.080534,-0.92395,0.66909,-0.62471,-0.07,0.06,-0.06,86.18
12049,4.7985e+07,0,0.86,-0.7,23.15,-0.010994,-0.0061412,-0.30192,-0.081438,-0.92395,0.66909,-0.6249,-0.07,0.06,-0.06,86.18
12096,4.7996e+07,0,0.86,-0.7,23.15,-0.011046,-0.0062077,-0.30174,-0.082154,-0.92395,0.66909,-0.62792,-0.07,0.06,-0.06,86.18
12138,4.8006e+07,0,0.86,-0.7,23.15,-0.011078,-0.0061725,-0.30106,-0.083821,-0.92395,0.66909,-0.62821,-0.07,0.06,-0.06,86.18
12175,4.8016e+07,0,0.86,-0.69,23.15,-0.011225,-0.006213,-0.30021,-0.086291,-0.92395,0.66102,-0.62893,-0.07,0.06,-0.06,86.18
12216,4.8026e+07,0,0.86,-0.69,23.15,-0.011275,-0.0059753,-0.29965,-0.088814,-0.92395,0.66102,-0.62947,-0.07,0.06,-0.06,86.18
12261,4.8036e+07,0,0.86,-0.69,23.14,-0.01119,-0.0058427,-0.29861,-0.088799,-0.92395,0.66102,-0.62816,-0.07,0.06,-0.06,86.18
12304,4.8049e+07,0,0.86,-0.69,23.15,-0.011293,-0.0058387,-0.2975,-0.07864,-0.92395,0.66102,-0.62793,-0.07,0.06,-0.06,86.18
12345,4.8059e+07,0,0.86,-0.69,23.14,-0.011372,-0.0058206,-0.29649,-0.071549,-0.92395,0.66102,-0.62699,-0.07,0.06,-0.06,86.18
12385,4.8069e+07,0,0.86,-0.69,23.14,-0.011586,-0.0059282,-0.29631,-0.059621,-0.92395,0.66102,-0.62995,-0.07,0.06,-0.06,86.18
12426,4.8079e+07,0,0.86,-0.7,23.14,-0.011691,-0.0059492,-0.29526,-0.049516,-0.92395,0.66102,-0.62917,-0.07,0.06,-0.06,86.18
12467,4.809e+07,0,0.86,-0.69,23.14,-0.011748,-0.006089,-0.29443,-0.040739,-0.92395,0.66102,-0.62885,-0.07,0.06,-0.06,86.18
12511,4.81e+07,0,0.86,-0.7,23.14,-0.011746,-0.0062063,-0.29385,-0.034062,-0.92395,0.66102,-0.6284,-0.07,0.06,-0.06,86.18
12552,4.811e+07,0,0.86,-0.7,23.14,-0.011838,-0.0063706,-0.2931,-0.030394,-0.92395,0.66102,-0.6281,-0.07,0.06,-0.06,86.18
12593,4.812e+07,0,0.86,-0.7,23.14,-0.011862,-0.0065066,-0.29289,-0.024726,-0.92395,0.66102,-0.63103,-0.07,0.06,-0.06,86.18
12634,4.813e+07,0,0.86,-0.7,23.14,-0.011755,-0.0066057,-0.29192,-0.020714,-0.92395,0.66102,-0.63087,-0.07,0.06,-0.06,86.18
12672,4.814e+07,0,0.86,-0.69,23.14,-0.011762,-0.0067669,-0.29104,-0.017555,-0.92395,0.66102,-0.62973,-0.07,0.06,-0.06,86.18
12713,4.815e+07,0,0.86,-0.69,23.14,-0.011675,-0.0065915,-0.28997,-0.012782,-0.92395,0.66102,-0.62877,-0.07,0.06,-0.06,86.18
12755,4.816e+07,0,0.86,-0.69,23.14,-0.011774,-0.0066567,-0.28901,-0.0098758,-0.92395,0.66102,-0.62799,-0.07,0.06,-0.06,86.18
12795,4.817e+07,0,0.86,-0.69,23.13,-0.012034,-0.0067164,-0.28891,-0.0035924,-0.92395,0.66102,-0.63087,-0.07,0.06,-0.06,86.18
12836,4.818e+07,0,0.86,-0.69,23.13,-0.011949,-0.0067957,-0.28809,0.0016186,-0.92395,0.66102,-0.63025,-0.07,0.06,-0.06,86.18
12876,4.819e+07,0,0.86,-0.69,23.13,-0.011976,-0.0068949,-0.28734,0.0038995,-0.92395,0.66102,-0.62977,-0.07,0.06,-0.06,86.18
12921,4.82e+07,0,0.86,-0.69,23.13,-0.011955,-0.006829,-0.28655,0.00038079,-0.92395,0.66102,-0.62944,-0.07,0.06,-0.06,86.18
12964,4.821e+07,0,0.86,-0.69,23.13,-0.01207,-0.0070504,-0.28652,-0.00017529,-0.92395,0.65296,-0.6323,-0.07,0.06,-0.06,86.18
13005,4.822e+07,0,0.86,-0.69,23.13,-0.012203,-0.0071922,-0.28593,-0.0027267,-0.92395,0.65296,-0.6321,-0.07,0.06,-0.06,86.18
13043,4.823e+07,0,0.86,-0.69,23.13,-0.012226,-0.0071965,-0.28538,-0.0058824,-0.92395,0.65296,-0.63205,-0.07,0.06,-0.06,86.18
13084,4.8243e+07,0,0.86,-0.69,23.12,-0.012157,-0.0073357,-0.28427,-0.0076689,-0.92395,0.65296,-0.63131,-0.07,0.06,-0.06,86.18
13124,4.8252e+07,0,0.86,-0.69,23.12,-0.012148,-0.0072378,-0.28341,-0.0048984,-0.92395,0.65296,-0.62991,-0.07,0.06,-0.06,86.18
13165,4.8262e+07,0,0.86,-0.69,23.12,-0.012212,-0.0069552,-0.282,-0.0019789,-0.92395,0.65296,-0.6287,-0.07,0.06,-0.06,86.18
13206,4.8273e+07,0,0.86,-0.69,23.12,-0.012419,-0.0069572,-0.28195,0.0053374,-0.92395,0.65296,-0.63152,-0.07,0.06,-0.06,86.18
13248,4.8283e+07,0,0.86,-0.69,23.12,-0.012432,-0.0069708,-0.28117,0.012176,-0.92395,0.65296,-0.63049,-0.07,0.06,-0.06,86.18
13293,4.8292e+07,0,0.86,-0.69,23.12,-0.01253,-0.0069401,-0.28013,0.01663,-0.92395,0.65296,-0.62962,-0.07,0.06,-0.06,86.18
13333,4.8303e+07,0,0.86,-0.69,23.12,-0.012498,-0.0068155,-0.27915,0.019964,-0.92395,0.65296,-0.62893,-0.07,0.06,-0.06,86.18
13374,4.8313e+07,0,0.86,-0.69,23.11,-0.012638,-0.0068462,-0.27818,0.020076,-0.92395,0.65296,-0.62839,-0.07,0.06,-0.06,86.18
13415,4.8323e+07,0,0.86,-0.69,23.11,-0.012697,-0.0069489,-0.27794,0.022219,-0.92395,0.65296,-0.63116,-0.07,0.06,-0.06,86.18
13456,4.8333e+07,0,0.86,-0.69,23.11,-0.012724,-0.0069231,-0.27685,0.019194,-0.92395,0.65296,-0.63075,-0.07,0.06,-0.06,86.18
13496,4.8346e+07,0,0.86,-0.69,23.11,-0.012754,-0.0071248,-0.27544,0.014074,-0.92395,0.65296,-0.62933,-0.07,0.06,-0.06,86.18
13537,4.8357e+07,0,0.86,-0.69,23.11,-0.012744,-0.0070595,-0.27424,0.012699,-0.92395,0.65296,-0.62757,-0.07,0.06,-0.06,86.18
13579,4.8367e+07,0,0.86,-0.69,23.11,-0.012819,-0.0071013,-0.27389,0.019822,-0.92395,0.65296,-0.63031,-0.07,0.06,-0.06,86.18
13620,4.8377e+07,0,0.86,-0.69,23.11,-0.012818,-0.0071681,-0.27282,0.023236,-0.92395,0.65296,-0.62845,-0.07,0.06,-0.06,86.18
13661,4.8387e+07,0,0.86,-0.69,23.11,-0.013059,-0.007247,-0.27166,0.026779,-0.92395,0.65296,-0.6268,-0.07,0.06,-0.06,86.18
13705,4.8397e+07,0,0.86,-0.69,23.1,-0.013116,-0.0072531,-0.27122,0.031725,-0.92395,0.65296,-0.62951,-0.07,0.06,-0.06,86.18
13746,4.8407e+07,0,0.86,-0.69,23.11,-0.013047,-0.007349,-0.27005,0.035834,-0.92395,0.65296,-0.62803,-0.07,0.06,-0.06,86.18
13790,4.8417e+07,0,0.86,-0.69,23.11,-0.0060948,-0.017956,-0.26906,0.03487,-0.92396,0.64487,-0.62671,-0.07,0.06,-0.06,86.18
13828,4.8428e+07,0,0.86,-0.69,23.11,-0.0062416,-0.018114,-0.26791,0.034585,-0.92401,0.64464,-0.62585,-0.07,0.06,-0.06,86.18
13868,4.8438e+07,0,0.86,-0.69,23.11,-0.0063976,-0.018216,-0.26765,0.037574,-0.92407,0.64446,-0.62852,-0.07,0.06,-0.06,86.18
13909,4.8448e+07,0,0.86,-0.69,23.11,-0.0065542,-0.018344,-0.26674,0.039923,-0.92412,0.64424,-0.62756,-0.07,0.06,-0.06,86.18
13950,4.8458e+07,0,0.86,-0.69,23.1,-0.0067279,-0.018247,-0.26552,0.042571,-0.92418,0.64401,-0.62557,-0.07,0.06,-0.06,86.18
13992,4.8468e+07,0,0.86,-0.69,23.1,-0.0069015,-0.018169,-0.26426,0.045292,-0.92424,0.64377,-0.62378,-0.07,0.06,-0.06,86.18
14033,4.8479e+07,0,0.86,-0.69,23.1,-0.0067717,-0.01805,-0.26305,0.04888,-0.92432,0.6435,-0.62246,-0.07,0.06,-0.06,86.18
14073,4.8489e+07,0,0.86,-0.69,23.1,-0.0068214,-0.018094,-0.2629,0.055561,-0.92438,0.64331,-0.62508,-0.07,0.06,-0.06,86.18
14118,4.8499e+07,0,0.86,-0.69,23.1,-0.0069767,-0.017959,-0.2617,0.060079,-0.92446,0.64305,-0.62367,-0.07,0.06,-0.06,86.18
14159,4.8509e+07,0,0.86,-0.69,23.1,-0.0069135,-0.0181,-0.26085,0.063431,-0.92454,0.64278,-0.62246,-0.07,0.06,-0.06,86.18
14200,4.8519e+07,0,0.86,-0.69,23.1,-0.0069951,-0.018089,-0.26017,0.063502,-0.92462,0.6425,-0.62141,-0.07,0.06,-0.06,86.18
14243,4.853e+07,0,0.86,-0.69,23.1,-0.0071986,-0.018249,-0.25912,0.062047,-0.92472,0.6422,-0.62079,-0.07,0.06,-0.06,86.18
14283,4.854e+07,0,0.86,-0.69,23.1,-0.0072213,-0.018232,-0.25881,0.062186,-0.92479,0.64202,-0.62338,-0.07,0.06,-0.06,86.18
14324,4.855e+07,0,0.86,-0.69,23.1,-0.0073374,-0.018388,-0.25773,0.065579,-0.92488,0.64174,-0.62124,-0.07,0.06,-0.06,86.18
14366,4.856e+07,0,0.86,-0.69,23.1,-0.0071561,-0.018358,-0.25663,0.068711,-0.92497,0.64147,-0.61932,-0.07,0.06,-0.06,86.18
14407,4.857e+07,0,0.86,-0.69,23.1,-0.0070563,-0.018613,-0.25532,0.072878,-0.92506,0.6412,-0.6176,-0.07,0.06,-0.06,86.18
14449,4.858e+07,0,0.86,-0.69,23.1,-0.0072032,-0.018835,-0.25436,0.07424,-0.92514,0.64094,-0.61608,-0.07,0.06,-0.06,86.18
14490,4.859e+07,0,0.86,-0.69,23.1,-0.0072665,-0.018808,-0.25422,0.079141,-0.92522,0.64075,-0.61862,-0.07,0.06,-0.06,86.18
14536,4.86e+07,0,0.86,-0.69,23.1,-0.007297,-0.018869,-0.25304,0.0814,-0.9253,0.64048,-0.61727,-0.07,0.06,-0.06,86.18
14576,4.861e+07,0,0.86,-0.69,23.09,-0.0073965,-0.01892,-0.25214,0.082208,-0.92539,0.64022,-0.61611,-0.07,0.06,-0.06,86.18
14616,4.8621e+07,0,0.86,-0.7,23.09,-0.0072778,-0.018249,-0.24992,0.085088,-0.92542,0.63992,-0.61211,-0.07,0.06,-0.06,86.18
14653,4.8631e+07,0,0.85,-0.7,23.09,-0.0070326,-0.017591,-0.24778,0.092245,-0.92544,0.63966,-0.60815,-0.07,0.06,-0.06,86.18
14694,4.8641e+07,0,0.85,-0.69,23.09,-0.0073103,-0.017494,-0.24763,0.1107,-0.92551,0.63948,-0.61062,-0.07,0.06,-0.06,86.18
14731,4.8651e+07,0,0.85,-0.69,23.09,-0.0073411,-0.016677,-0.24537,0.13468,-0.92553,0.63925,-0.60587,-0.07,0.06,-0.06,86.18
14772,4.8661e+07,0,0.85,-0.69,23.09,-0.0071725,-0.015941,-0.24322,0.15766,-0.92555,0.63903,-0.60142,-0.07,0.06,-0.06,86.18
14813,4.8671e+07,0,0.85,-0.69,23.09,-0.0070854,-0.015226,-0.24165,0.17735,-0.92556,0.63883,-0.59727,-0.07,0.06,-0.06,86.18
14855,4.8682e+07,0,0.86,-0.7,23.09,-0.0070445,-0.014501,-0.24011,0.19725,-0.92559,0.63864,-0.59364,-0.07,0.06,-0.06,86.18
14896,4.8692e+07,0,0.86,-0.69,23.09,-0.0071739,-0.014563,-0.23994,0.21872,-0.92566,0.63849,-0.59604,-0.07,0.06,-0.06,86.18
14940,4.8702e+07,0,0.86,-0.69,23.09,-0.0070992,-0.014042,-0.23794,0.23747,-0.92567,0.63833,-0.59243,-0.07,0.06,-0.06,86.18
14981,4.8712e+07,0,0.86,-0.69,23.09,-0.0070192,-0.013557,-0.23597,0.25026,-0.92569,0.63818,-0.58907,-0.07,0.06,-0.06,86.18
15023,4.8722e+07,0,0.86,-0.69,23.09,-0.0068562,-0.013185,-0.23422,0.25707,-0.9257,0.63805,-0.58597,-0.07,0.06,-0.06,86.18
15063,4.8732e+07,0,0.86,-0.69,23.09,-0.0068538,-0.012816,-0.23248,0.26803,-0.92572,0.63792,-0.58335,-0.07,0.06,-0.06,86.18
15107,4.8745e+07,0,0.86,-0.69,23.09,-0.0069075,-0.01242,-0.23054,0.27539,-0.92575,0.63777,-0.58016,-0.07,0.06,-0.06,86.18
15147,4.8755e+07,0,0.86,-0.69,23.09,-0.0068797,-0.012005,-0.22872,0.27641,-0.92577,0.63767,-0.57653,-0.07,0.06,-0.06,86.18
15188,4.8765e+07,0,0.86,-0.69,23.08,-0.0068965,-0.012268,-0.22866,0.28269,-0.92584,0.63755,-0.57881,-0.07,0.06,-0.06,86.18
15229,4.8776e+07,0,0.85,-0.69,23.08,-0.006952,-0.011847,-0.2272,0.28502,-0.92585,0.63746,-0.57542,-0.07,0.06,-0.06,86.18
15271,4.8786e+07,0,0.85,-0.69,23.08,-0.0068418,-0.011591,-0.22561,0.28604,-0.92586,0.63738,-0.57229,-0.07,0.06,-0.06,86.18
15313,4.8796e+07,0,0.85,-0.69,23.08,-0.0067097,-0.011044,-0.22389,0.28268,-0.92588,0.63731,-0.56938,-0.07,0.06,-0.06,86.18
15355,4.8809e+07,0,0.85,-0.7,23.08,-0.0071797,-0.010581,-0.22159,0.28071,-0.92601,0.637,-0.56512,-0.07,0.06,-0.06,86.18
15395,4.8819e+07,0,0.85,-0.7,23.08,-0.0076993,-0.010178,-0.21927,0.27989,-0.92613,0.63676,-0.56028,-0.07,0.06,-0.06,86.18
15436,4.8829e+07,0,0.85,-0.7,23.08,-0.0078751,-0.010017,-0.21885,0.28979,-0.92621,0.63665,-0.56247,-0.07,0.06,-0.06,86.18
15477,4.8839e+07,0,0.86,-0.7,23.08,-0.0085333,-0.0097996,-0.21648,0.3005,-0.92634,0.63642,-0.5579,-0.07,0.06,-0.06,86.18
15518,4.8849e+07,0,0.86,-0.7,23.07,-0.0089908,-0.0097152,-0.21417,0.2998,-0.92648,0.6362,-0.55264,-0.07,0.06,-0.06,86.18
15560,4.8859e+07,0,0.86,-0.7,23.07,-0.0093928,-0.009541,-0.21189,0.30353,-0.92662,0.63599,-0.54771,-0.07,0.06,-0.06,86.18
15601,4.887e+07,0,0.86,-0.7,23.07,-0.0098708,-0.0093822,-0.20969,0.31578,-0.92678,0.63578,-0.54331,-0.07,0.06,-0.06,86.18
15641,4.888e+07,0,0.86,-0.7,23.07,-0.010123,-0.009478,-0.20967,0.32992,-0.92688,0.63569,-0.5454,-0.07,0.06,-0.06,86.18
15684,4.889e+07,0,0.86,-0.7,23.07,-0.01061,-0.0093456,-0.20759,0.34151,-0.92705,0.6355,-0.54107,-0.07,0.06,-0.06,86.18
15724,4.89e+07,0,0.86,-0.69,23.07,-0.010972,-0.0091818,-0.2053,0.34743,-0.92722,0.63532,-0.537,-0.07,0.06,-0.06,86.18
15769,4.891e+07,0,0.86,-0.69,23.07,-0.011517,-0.008765,-0.20349,0.3417,-0.92739,0.63515,-0.53316,-0.07,0.06,-0.06,86.18
15810,4.892e+07,0,0.86,-0.69,23.07,-0.011635,-0.0087985,-0.20322,0.3413,-0.92751,0.63506,-0.53519,-0.07,0.06,-0.06,86.18
15851,4.893e+07,0,0.86,-0.69,23.07,-0.011989,-0.0086178,-0.20119,0.33956,-0.9277,0.6349,-0.53159,-0.07,0.06,-0.06,86.18
15893,4.894e+07,0,0.86,-0.69,23.07,-0.012384,-0.0085112,-0.19943,0.33757,-0.92789,0.63475,-0.52826,-0.07,0.06,-0.06,86.18
15933,4.895e+07,0,0.86,-0.69,23.07,-0.01273,-0.0085259,-0.19753,0.33004,-0.92809,0.63461,-0.52398,-0.07,0.06,-0.06,86.18
15974,4.896e+07,0,0.86,-0.69,23.07,-0.013065,-0.0085589,-0.19578,0.3269,-0.92829,0.63446,-0.51999,-0.07,0.06,-0.06,86.18
16015,4.897e+07,0,0.86,-0.69,23.07,-0.013342,-0.0084742,-0.19387,0.32352,-0.9285,0.63433,-0.51627,-0.07,0.06,-0.06,86.18
16056,4.898e+07,0,0.86,-0.69,23.06,-0.013361,-0.0085187,-0.19389,0.324,-0.92863,0.63424,-0.51821,-0.07,0.06,-0.06,86.18
16097,4.899e+07,0,0.86,-0.69,23.06,-0.013543,-0.0084815,-0.19217,0.32059,-0.92884,0.63411,-0.51472,-0.07,0.06,-0.06,86.18
16142,4.9004e+07,0,0.86,-0.69,23.06,-0.013785,-0.0086442,-0.19033,0.31086,-0.92911,0.63395,-0.51222,-0.07,0.06,-0.06,86.18
16184,4.9014e+07,0,0.86,-0.69,23.06,-0.013433,-0.0086375,-0.18803,0.30611,-0.92922,0.63361,-0.50726,-0.07,0.06,-0.06,86.18
16226,4.9024e+07,0,0.86,-0.69,23.06,-0.013209,-0.0087929,-0.18588,0.30212,-0.92934,0.63328,-0.5026,-0.07,0.06,-0.06,86.18
16267,4.9034e+07,0,0.86,-0.69,23.06,-0.012984,-0.0088011,-0.18395,0.3006,-0.92944,0.63296,-0.49822,-0.07,0.06,-0.06,86.18
16308,4.9045e+07,0,0.86,-0.69,23.06,-0.012871,-0.0089946,-0.1817,0.30547,-0.92956,0.63265,-0.49321,-0.07,0.06,-0.06,86.18
16349,4.9056e+07,0,0.86,-0.69,23.06,-0.01272,-0.0091678,-0.17944,0.31717,-0.92967,0.63234,-0.48851,-0.07,0.06,-0.06,86.18
16390,4.9067e+07,0,0.86,-0.69,23.06,-0.01284,-0.0092055,-0.17901,0.33141,-0.9298,0.63225,-0.4903,-0.07,0.06,-0.06,86.18
16430,4.9077e+07,0,0.86,-0.69,23.06,-0.012692,-0.0091649,-0.17657,0.34085,-0.92989,0.63195,-0.48568,-0.07,0.06,-0.06,86.18
16472,4.9087e+07,0,0.86,-0.69,23.06,-0.012481,-0.0089665,-0.17442,0.3478,-0.92999,0.63167,-0.48133,-0.07,0.06,-0.06,86.18
16513,4.9097e+07,0,0.86,-0.69,23.06,-0.012228,-0.0087833,-0.17251,0.3489,-0.93007,0.6314,-0.47724,-0.07,0.06,-0.06,86.18
16554,4.9106e+07,0,0.86,-0.69,23.06,-0.012128,-0.0086127,-0.17071,0.34768,-0.93015,0.63114,-0.47341,-0.07,0.06,-0.06,86.18
16599,4.9117e+07,0,0.86,-0.69,23.06,-0.0122,-0.0084315,-0.17063,0.34911,-0.93027,0.63106,-0.47511,-0.07,0.06,-0.06,86.18
16640,4.9127e+07,0,0.86,-0.69,23.06,-0.012089,-0.0083277,-0.16899,0.34563,-0.93035,0.63081,-0.47149,-0.07,0.06,-0.06,86.18
16681,4.9136e+07,0,0.86,-0.69,23.06,-0.01202,-0.0081887,-0.16746,0.3399,-0.93043,0.63057,-0.46811,-0.07,0.06,-0.06,86.18
16721,4.9147e+07,0,0.86,-0.69,23.06,-0.011925,-0.0082819,-0.16594,0.3303,-0.9305,0.63033,-0.46409,-0.07,0.06,-0.06,86.18
16762,4.9157e+07,0,0.86,-0.69,23.05,-0.011664,-0.008282,-0.16404,0.32218,-0.93057,0.6301,-0.46032,-0.07,0.06,-0.06,86.18
16802,4.9167e+07,0,0.86,-0.69,23.05,-0.011761,-0.0084484,-0.16225,0.31798,-0.93065,0.62987,-0.45696,-0.07,0.06,-0.06,86.18
16844,4.9177e+07,0,0.86,-0.69,23.05,-0.011968,-0.0084485,-0.16195,0.31607,-0.93077,0.62979,-0.45858,-0.07,0.06,-0.06,86.18
16884,4.9187e+07,0,0.86,-0.69,23.05,-0.011932,-0.0084621,-0.16035,0.3102,-0.93084,0.62957,-0.45527,-0.07,0.06,-0.06,86.18
16925,4.9197e+07,0,0.86,-0.69,23.05,-0.011732,-0.0086052,-0.1587,0.30299,-0.93091,0.62936,-0.45217,-0.07,0.06,-0.06,86.18
16966,4.9207e+07,0,0.86,-0.69,23.05,-0.011565,-0.0081826,-0.15658,0.29365,-0.93101,0.62918,-0.44731,-0.07,0.06,-0.06,86.18
17007,4.9217e+07,0,0.86,-0.69,23.05,-0.011397,-0.007742,-0.15454,0.28914,-0.9311,0.62901,-0.44273,-0.07,0.06,-0.06,86.18
17048,4.9228e+07,0,0.86,-0.68,23.05,-0.011272,-0.00713,-0.1526,0.2924,-0.93121,0.62885,-0.43859,-0.07,0.06,-0.06,86.18
17089,4.9238e+07,0,0.86,-0.68,23.05,-0.011296,-0.0069514,-0.15254,0.29909,-0.93132,0.62878,-0.44011,-0.07,0.06,-0.06,86.18
17130,4.9248e+07,0,0.86,-0.68,23.05,-0.011223,-0.0066253,-0.1506,0.30232,-0.93141,0.62865,-0.43604,-0.07,0.06,-0.06,86.18
17171,4.9258e+07,0,0.86,-0.68,23.05,-0.01118,-0.006107,-0.14876,0.30585,-0.93149,0.62853,-0.4314,-0.07,0.06,-0.06,86.18
17211,4.9268e+07,0,0.86,-0.68,23.05,-0.01106,-0.005608,-0.147,0.30672,-0.93158,0.62842,-0.42702,-0.07,0.06,-0.06,86.18
17253,4.9278e+07,0,0.86,-0.68,23.05,-0.011199,-0.0054776,-0.14673,0.30767,-0.93169,0.62836,-0.42849,-0.07,0.06,-0.06,86.18
17293,4.9288e+07,0,0.86,-0.68,23.05,-0.011101,-0.0051558,-0.14512,0.30653,-0.93177,0.62827,-0.42431,-0.07,0.06,-0.06,86.18
17334,4.9298e+07,0,0.86,-0.68,23.05,-0.010995,-0.0045403,-0.14336,0.30573,-0.93185,0.62818,-0.42039,-0.07,0.06,-0.06,86.18
17375,4.9308e+07,0,0.86,-0.68,23.05,-0.010932,-0.0041905,-0.14163,0.29678,-0.93192,0.62811,-0.41667,-0.07,0.06,-0.06,86.18
17421,4.9319e+07,0,0.86,-0.68,23.05,-0.01105,-0.0042381,-0.14142,0.29369,-0.93203,0.62807,-0.41808,-0.07,0.06,-0.06,86.18
17462,4.9329e+07,0,0.86,-0.68,23.05,-0.010913,-0.0040599,-0.13972,0.2885,-0.93211,0.62801,-0.41456,-0.07,0.06,-0.06,86.18
17502,4.9339e+07,0,0.86,-0.68,23.05,-0.010963,-0.003696,-0.13782,0.28337,-0.93218,0.62795,-0.41126,-0.07,0.06,-0.06,86.18
17543,4.9349e+07,0,0.86,-0.68,23.05,-0.01064,-0.0034018,-0.1362,0.27905,-0.93227,0.62791,-0.40832,-0.07,0.06,-0.06,86.18
17583,4.9359e+07,0,0.86,-0.68,23.05,-0.010571,-0.0029652,-0.13428,0.27452,-0.93234,0.62787,-0.4047,-0.07,0.06,-0.06,86.18
17625,4.9369e+07,0,0.86,-0.68,23.05,-0.010482,-0.0027402,-0.13246,0.26781,-0.93241,0.62784,-0.40128,-0.07,0.06,-0.06,86.18
17665,4.938e+07,0,0.86,-0.68,23.04,-0.010664,-0.0026488,-0.13218,0.26575,-0.93251,0.62781,-0.4026,-0.07,0.06,-0.06,86.18
17706,4.939e+07,0,0.86,-0.68,23.04,-0.010896,-0.0027296,-0.13024,0.26174,-0.93258,0.62779,-0.39937,-0.07,0.06,-0.06,86.18
17747,4.9399e+07,0,0.86,-0.68,23.04,-0.010955,-0.0024381,-0.12887,0.25674,-0.93266,0.62777,-0.39634,-0.07,0.06,-0.06,86.18
17786,4.941e+07,0,0.86,-0.68,23.05,-0.010893,-0.0021606,-0.12708,0.25089,-0.93275,0.62763,-0.39227,-0.07,0.06,-0.06,86.18
17829,4.942e+07,0,0.86,-0.68,23.04,-0.011163,-0.0021579,-0.12685,0.24701,-0.93285,0.62761,-0.39341,-0.07,0.06,-0.06,86.18
17870,4.943e+07,0,0.86,-0.68,23.04,-0.011037,-0.001838,-0.12479,0.24517,-0.93293,0.62749,-0.38939,-0.07,0.06,-0.06,86.18
17911,4.944e+07,0,0.86,-0.68,23.04,-0.010954,-0.0014172,-0.1231,0.24505,-0.93301,0.62738,-0.38562,-0.07,0.06,-0.06,86.18
17952,4.945e+07,0,0.86,-0.68,23.04,-0.010984,-0.0011529,-0.12135,0.24335,-0.93309,0.62729,-0.38205,-0.07,0.06,-0.06,86.18
17995,4.9462e+07,0,0.86,-0.68,23.04,-0.010848,-0.00093989,-0.11962,0.24567,-0.9332,0.6272,-0.3784,-0.07,0.06,-0.06,86.18
18036,4.9472e+07,0,0.86,-0.68,23.04,-0.010852,-0.00089093,-0.11785,0.24502,-0.93328,0.62712,-0.3746,-0.07,0.06,-0.06,86.18
18077,4.9482e+07,0,0.86,-0.68,23.04,-0.010891,-0.00067996,-0.11643,0.24958,-0.93336,0.62705,-0.37104,-0.07,0.06,-0.06,86.18
18118,4.9493e+07,0,0.86,-0.68,23.04,-0.01104,-0.00071589,-0.11637,0.25682,-0.93347,0.62705,-0.37221,-0.07,0.06,-0.06,86.18
18158,4.9503e+07,0,0.86,-0.68,23.04,-0.011305,-0.00045111,-0.11472,0.25664,-0.93355,0.62699,-0.36883,-0.07,0.06,-0.06,86.18
18200,4.9513e+07,0,0.86,-0.68,23.04,-0.011401,-0.00042174,-0.1128,0.2596,-0.93363,0.62694,-0.36567,-0.07,0.06,-0.06,86.18
18247,4.9522e+07,0,0.86,-0.68,23.04,-0.011415,-0.00013713,-0.1114,0.25768,-0.93372,0.6269,-0.36269,-0.07,0.06,-0.06,86.18
18288,4.9532e+07,0,0.86,-0.68,23.04,-0.011188,0.00015984,-0.11005,0.25764,-0.9338,0.62687,-0.35992,-0.07,0.06,-0.06,86.18
18329,4.9543e+07,0,0.86,-0.68,23.04,-0.011105,0.00057468,-0.10888,0.25445,-0.93388,0.62685,-0.35733,-0.07,0.06,-0.06,86.18
18369,4.9552e+07,0,0.86,-0.68,23.04,-0.011112,0.00067875,-0.10859,0.25231,-0.93399,0.62685,-0.35842,-0.07,0.06,-0.06,86.18
18410,4.9562e+07,0,0.86,-0.68,23.04,-0.011104,0.00071034,-0.10737,0.24818,-0.93407,0.62684,-0.3553,-0.07,0.06,-0.06,86.18
18451,4.9573e+07,0,0.86,-0.68,23.03,-0.010957,0.00086555,-0.10616,0.24205,-0.93416,0.62683,-0.35246,-0.07,0.06,-0.06,86.18
18492,4.9584e+07,0,0.86,-0.68,23.03,-0.01075,0.0012508,-0.10478,0.23485,-0.93425,0.62683,-0.34981,-0.07,0.06,-0.06,86.18
18533,4.9594e+07,0,0.86,-0.68,23.03,-0.010709,0.0014733,-0.10364,0.22574,-0.93433,0.62683,-0.34722,-0.07,0.06,-0.06,86.18
18574,4.9604e+07,0,0.86,-0.68,23.03,-0.01078,0.0016627,-0.10221,0.22056,-0.93441,0.62684,-0.34481,-0.07,0.06,-0.06,86.18
18613,4.9614e+07,0,0.86,-0.68,23.03,-0.010898,0.0014398,-0.10195,0.21706,-0.93452,0.62685,-0.34583,-0.07,0.06,-0.06,86.18
18655,4.9624e+07,0,0.86,-0.68,23.03,-0.010833,0.0016801,-0.10039,0.214,-0.93458,0.62668,-0.34307,-0.07,0.06,-0.06,86.18
18695,4.9634e+07,0,0.86,-0.68,23.03,-0.010762,0.0019185,-0.0992,0.20877,-0.93465,0.62651,-0.34047,-0.07,0.06,-0.06,86.18
18736,4.9644e+07,0,0.86,-0.68,23.03,-0.010729,0.001836,-0.09811,0.20172,-0.93473,0.62636,-0.33814,-0.07,0.06,-0.06,86.18
18777,4.9654e+07,0,0.86,-0.68,23.03,-0.010727,0.0020035,-0.096701,0.1973,-0.93479,0.62622,-0.33496,-0.08,0.06,-0.06,86.18
18821,4.9667e+07,0,0.86,-0.68,23.02,-0.010946,0.0020984,-0.095718,0.19658,-0.93489,0.62609,-0.33225,-0.08,0.07,-0.06,86.18
18861,4.9677e+07,0,0.86,-0.68,23.02,-0.011132,0.002058,-0.094532,0.19729,-0.93497,0.62597,-0.32946,-0.08,0.07,-0.06,86.18
18902,4.9687e+07,0,0.86,-0.68,23.02,-0.011245,0.0022049,-0.093262,0.19719,-0.93504,0.62585,-0.32683,-0.08,0.07,-0.06,86.18
18944,4.9698e+07,0,0.86,-0.68,23.02,-0.011599,0.0022875,-0.092105,0.19871,-0.93513,0.62574,-0.32448,-0.08,0.07,-0.06,86.18
18984,4.9708e+07,0,0.86,-0.68,23.02,-0.011758,0.0023458,-0.09182,0.20037,-0.93525,0.62577,-0.32539,-0.08,0.07,-0.06,86.18
19025,4.9718e+07,0,0.86,-0.68,23.02,-0.011765,0.0022819,-0.090745,0.19989,-0.93533,0.62567,-0.32309,-0.08,0.07,-0.06,86.18
19070,4.9728e+07,0,0.86,-0.68,23.02,-0.011985,0.0023227,-0.089675,0.1962,-0.93541,0.62557,-0.32093,-0.08,0.07,-0.06,86.18
19111,4.9738e+07,0,0.86,-0.68,23.02,-0.012128,0.0024352,-0.088514,0.18708,-0.9355,0.62549,-0.31889,-0.08,0.07,-0.06,86.18
19152,4.9748e+07,0,0.86,-0.68,23.02,-0.012239,0.0024267,-0.088575,0.18038,-0.93562,0.62551,-0.31977,-0.08,0.07,-0.06,86.18
19193,4.9758e+07,0,0.86,-0.68,23.02,-0.012382,0.0025291,-0.087569,0.17367,-0.93571,0.62543,-0.31786,-0.08,0.07,-0.06,86.18
19236,4.9771e+07,0,0.86,-0.68,23.02,-0.012443,0.0025113,-0.086308,0.16763,-0.93583,0.62536,-0.31563,-0.08,0.07,-0.06,86.18
19278,4.9781e+07,0,0.86,-0.68,23.02,-0.012356,0.0025138,-0.085178,0.16543,-0.93593,0.62529,-0.31331,-0.08,0.07,-0.06,86.18
19320,4.9791e+07,0,0.86,-0.68,23.02,-0.012452,0.0024404,-0.083884,0.16207,-0.93602,0.62523,-0.31112,-0.08,0.07,-0.06,86.18
19360,4.9801e+07,0,0.86,-0.68,23.02,-0.012552,0.0024031,-0.082736,0.15853,-0.93611,0.62517,-0.30908,-0.08,0.07,-0.06,86.18
19403,4.9817e+07,0,0.86,-0.68,23.02,-0.012715,0.0027226,-0.081077,0.15586,-0.93634,0.62505,-0.3065,-0.08,0.07,-0.06,86.18
19449,4.9827e+07,0,0.86,-0.68,23.02,-0.012641,0.0027623,-0.079768,0.15476,-0.93647,0.62493,-0.30351,-0.08,0.07,-0.06,86.18
19490,4.9837e+07,0,0.86,-0.68,23.02,-0.012447,0.0030577,-0.078469,0.15514,-0.93663,0.62482,-0.30084,-0.08,0.07,-0.06,86.18
19532,4.9847e+07,0,0.86,-0.68,23.02,-0.012528,0.0030361,-0.078341,0.15898,-0.93675,0.62485,-0.30163,-0.08,0.07,-0.06,86.18
19572,4.9857e+07,0,0.86,-0.68,23.02,-0.012606,0.0030816,-0.076978,0.16303,-0.9369,0.62474,-0.29903,-0.08,0.07,-0.06,86.18
19610,4.9867e+07,0,0.86,-0.68,23.02,-0.012615,0.0032055,-0.075855,0.16657,-0.93704,0.62465,-0.29576,-0.08,0.07,-0.06,86.18
19652,4.9877e+07,0,0.86,-0.68,23.02,-0.012794,0.003334,-0.074822,0.17154,-0.93718,0.62456,-0.29267,-0.08,0.07,-0.06,86.18
19692,4.9887e+07,0,0.86,-0.68,23.02,-0.012671,0.0034091,-0.073629,0.17503,-0.93732,0.62448,-0.28975,-0.08,0.07,-0.06,86.18
19733,4.9897e+07,0,0.87,-0.68,23.01,-0.012672,0.0033827,-0.073273,0.18217,-0.93745,0.62452,-0.29049,-0.08,0.07,-0.06,86.18
19774,4.9907e+07,0,0.87,-0.68,23.01,-0.012862,0.0035474,-0.072208,0.18814,-0.93759,0.62444,-0.28773,-0.08,0.07,-0.06,86.18
19816,4.9917e+07,0,0.87,-0.68,23.01,-0.012952,0.0034556,-0.070896,0.19159,-0.93773,0.62438,-0.28512,-0.08,0.07,-0.06,86.18
19860,4.9927e+07,0,0.87,-0.68,23.01,-0.012963,0.0035132,-0.069561,0.19238,-0.93787,0.62432,-0.28265,-0.08,0.07,-0.06,86.18
19902,4.9938e+07,0,0.86,-0.68,23.01,-0.012951,0.0035211,-0.068222,0.1916,-0.93802,0.62426,-0.2804,-0.08,0.07,-0.06,86.18
19943,4.9948e+07,0,0.87,-0.68,23.01,-0.013085,0.0034573,-0.06791,0.19203,-0.93815,0.6243,-0.28108,-0.08,0.07,-0.06,86.18
19984,4.9958e+07,0,0.87,-0.69,23.01,-0.013265,0.003602,-0.06702,0.18998,-0.93829,0.62425,-0.27888,-0.08,0.07,-0.06,86.18
20025,4.9968e+07,0,0.86,-0.69,23.01,-0.013351,0.0038744,-0.066078,0.18941,-0.93843,0.6242,-0.27573,-0.08,0.07,-0.06,86.18
20065,4.9978e+07,0,0.86,-0.69,23.01,-0.01361,0.0038933,-0.064925,0.18911,-0.93857,0.62416,-0.27276,-0.08,0.07,-0.06,86.18
20106,4.9988e+07,0,0.86,-0.69,23,-0.013683,0.0039173,-0.063667,0.19004,-0.93871,0.62413,-0.26995,-0.08,0.07,-0.06,86.18
20146,4.9999e+07,0,0.86,-0.68,23,-0.013794,0.004072,-0.063371,0.19433,-0.93885,0.62417,-0.27058,-0.08,0.07,-0.06,86.18
20188,5.0009e+07,0,0.86,-0.68,23,-0.013926,0.0040352,-0.062073,0.1968,-0.939,0.62414,-0.26792,-0.08,0.07,-0.06,86.18
20228,5.002e+07,0,0.86,-0.68,23,-0.013692,0.0040674,-0.060466,0.20076,-0.93901,0.62407,-0.26487,-0.08,0.07,-0.06,86.18
20274,5.003e+07,0,0.86,-0.68,23,-0.01333,0.0042949,-0.059362,0.20484,-0.93902,0.62401,-0.26199,-0.08,0.07,-0.06,86.18
20316,5.004e+07,0,0.86,-0.69,23,-0.013177,0.0044769,-0.058046,0.20663,-0.93902,0.62395,-0.2592,-0.08,0.07,-0.06,86.18
20356,5.005e+07,0,0.86,-0.69,23.01,-0.012847,0.0045152,-0.056674,0.20796,-0.93903,0.6239,-0.25657,-0.08,0.07,-0.06,86.18
20398,5.006e+07,0,0.86,-0.69,23.01,-0.012921,0.0045385,-0.056505,0.21105,-0.93916,0.62395,-0.25714,-0.08,0.07,-0.06,86.18
20438,5.0071e+07,0,0.86,-0.69,23.01,-0.012786,0.0046026,-0.05519,0.21452,-0.93916,0.6239,-0.2537,-0.08,0.07,-0.06,86.18
20479,5.0081e+07,0,0.86,-0.69,23,-0.012624,0.0047141,-0.053878,0.21397,-0.93916,0.62387,-0.25042,-0.07,0.07,-0.06,86.18
20519,5.009e+07,0,0.86,-0.69,23,-0.012537,0.0049669,-0.052931,0.21463,-0.93916,0.62383,-0.24733,-0.07,0.07,-0.06,86.18
20560,5.0101e+07,0,0.86,-0.69,23.01,-0.012321,0.0051305,-0.05178,0.21924,-0.93918,0.62381,-0.24446,-0.08,0.07,-0.06,86.18
20601,5.0111e+07,0,0.86,-0.69,23,-0.012374,0.0050808,-0.051519,0.22476,-0.9393,0.62387,-0.24498,-0.08,0.07,-0.06,86.18
20641,5.0121e+07,0,0.86,-0.69,23,-0.012222,0.0053351,-0.050527,0.22731,-0.9393,0.62385,-0.24221,-0.08,0.07,-0.06,86.18
20687,5.0131e+07,0,0.86,-0.69,23,-0.012088,0.005268,-0.049718,0.22837,-0.93931,0.62383,-0.23959,-0.08,0.07,-0.06,86.18
20727,5.0141e+07,0,0.86,-0.69,23.01,-0.012068,0.0054436,-0.048844,0.22656,-0.93932,0.62383,-0.23712,-0.08,0.07,-0.06,86.18
20769,5.0151e+07,0,0.86,-0.69,23.01,-0.012044,0.0056282,-0.047842,0.22373,-0.93932,0.62382,-0.23479,-0.08,0.07,-0.06,86.18
20809,5.0162e+07,0,0.86,-0.69,23.01,-0.011955,0.0056648,-0.046877,0.22148,-0.93935,0.62383,-0.23186,-0.08,0.07,-0.06,86.18
20847,5.0172e+07,0,0.86,-0.69,23.01,-0.012011,0.0055814,-0.046556,0.22303,-0.93947,0.62389,-0.23232,-0.08,0.07,-0.06,86.18
20888,5.0182e+07,0,0.86,-0.69,23.01,-0.01196,0.0058085,-0.04527,0.22335,-0.93948,0.62389,-0.22948,-0.08,0.07,-0.06,86.18
20928,5.0192e+07,0,0.86,-0.69,23.01,-0.011839,0.0060219,-0.044345,0.22311,-0.93949,0.6239,-0.2268,-0.08,0.07,-0.06,86.18
20969,5.0203e+07,0,0.86,-0.69,23.01,-0.011884,0.0060036,-0.043281,0.22381,-0.93952,0.62392,-0.22432,-0.08,0.07,-0.06,86.18
21009,5.0213e+07,0,0.86,-0.69,23.01,-0.011725,0.0060077,-0.042426,0.22272,-0.93954,0.62394,-0.22194,-0.08,0.07,-0.06,86.18
21049,5.0226e+07,0,0.86,-0.69,23.01,-0.01134,0.0061022,-0.04138,0.21984,-0.93946,0.62385,-0.21953,-0.08,0.07,-0.06,86.18
21093,5.0236e+07,0,0.86,-0.69,23.01,-0.011296,0.0060551,-0.041348,0.21572,-0.93956,0.6239,-0.2199,-0.08,0.07,-0.06,86.18
21135,5.0246e+07,0,0.86,-0.69,23.01,-0.010856,0.0059511,-0.040293,0.21074,-0.93946,0.62381,-0.21752,-0.07,0.07,-0.06,86.18
21177,5.0256e+07,0,0.86,-0.69,23.01,-0.010616,0.0060156,-0.039287,0.20554,-0.93935,0.62371,-0.21522,-0.07,0.07,-0.06,86.18
21217,5.0266e+07,0,0.86,-0.69,23.01,-0.01036,0.0060681,-0.038608,0.20012,-0.93924,0.62362,-0.21306,-0.07,0.07,-0.06,86.18
21261,5.0278e+07,0,0.86,-0.69,23.01,-0.010041,0.0061476,-0.037373,0.19392,-0.93916,0.62355,-0.21063,-0.07,0.07,-0.05,86.18
21301,5.0289e+07,0,0.86,-0.7,23.01,-0.0099521,0.0062821,-0.036797,0.18805,-0.93907,0.62348,-0.20829,-0.07,0.07,-0.05,86.18
21343,5.0299e+07,0,0.86,-0.7,23.01,-0.01,0.0063616,-0.03657,0.18587,-0.93917,0.62355,-0.20866,-0.07,0.07,-0.05,86.18
21384,5.0309e+07,0,0.86,-0.7,23.01,-0.0097697,0.0063445,-0.035619,0.18286,-0.93907,0.62348,-0.20641,-0.07,0.07,-0.05,86.18
21426,5.0319e+07,0,0.86,-0.7,23.01,-0.0095643,0.0064707,-0.034795,0.17979,-0.93897,0.62342,-0.20429,-0.07,0.07,-0.05,86.18
21471,5.0329e+07,0,0.86,-0.7,23.01,-0.009445,0.0066979,-0.033829,0.17544,-0.93888,0.62336,-0.20229,-0.07,0.07,-0.05,86.18
21511,5.034e+07,0,0.86,-0.7,23.02,-0.0093953,0.0068046,-0.032854,0.17094,-0.93879,0.62332,-0.2004,-0.07,0.07,-0.05,86.18
21552,5.035e+07,0,0.86,-0.7,23.02,-0.0094435,0.0068633,-0.032424,0.16816,-0.93888,0.62338,-0.20073,-0.07,0.07,-0.05,86.18
