LineNo,TimeUS,C,Roll,Pitch,Yaw,VN,VE,VD,dPD,PN,PE,PD,GX,GY,GZ,OH
419,45014152,0,0.86,-0.72,23.23,-0.0004510304,0.001332281,0.01335977,0.08213055,-0.8237594,0.7738819,-0.04183441,-0.08,0.06,-0.08,86.18000000000001
876,45099738,0,0.88,-0.73,23.24,-0.0007470053,0.001506305,0.01444752,0.06984518000000001,-0.8237594,0.7738819,-0.03709038,-0.07000000000000001,0.06,-0.08,86.18000000000001
1103,45178488,0,0.86,-0.73,23.24,-0.0003038561,0.00148745,-0.1395507,-0.07958335,-0.8237594,0.7738819,-0.03660839,-0.07000000000000001,0.06,-0.08,86.18000000000001
1305,45304627,0,0.86,-0.72,23.25,-0.000925224,0.000978217,-0.4099051,-0.3350013,-0.8460232,0.7738819,-0.06588018,-0.07000000000000001,0.06,-0.07000000000000001,86.18000000000001
1558,45343492,0,0.86,-0.71,23.25,-0.001157028,0.001622972,-0.4094703,-0.3433608,-0.8460232,0.7738819,-0.07973938,-0.07000000000000001,0.06,-0.07000000000000001,86.18000000000001
1581,45363589,0,0.86,-0.71,23.25,-0.0009478135,0.001794016,-0.4092218,-0.3471814,-0.8460232,0.7738819,-0.08674518000000001,-0.07000000000000001,0.06,-0.07000000000000001,86.18000000000001
1623,45373757,0,0.86,-0.71,23.25,-0.0007396769,0.001847691,-0.4091444,-0.3496862,-0.8460232,0.7738819,-0.09030436999999999,-0.07000000000000001,0.06,-0.07000000000000001,86.18000000000001
1664,45383773,0,0.86,-0.71,23.25,-0.0005185945,0.001890733,-0.4091333,-0.3517139,-0.8460232,0.7738819,-0.09439176000000001,-0.07000000000000001,0.06,-0.07000000000000001,86.18000000000001
1704,45394011,0,0.86,-0.71,23.25,-0.0005627481,0.001887031,-0.4091501,-0.3532084,-0.8460232,0.7738819,-0.09772409,-0.07000000000000001,0.06,-0.07000000000000001,86.18000000000001
1745,45403718,0,0.86,-0.71,23.24,-0.0003599491,0.001782249,-0.4090489,-0.3539063,-0.8460232,0.7738819,-0.1011069,-0.07000000000000001,0.06,-0.07000000000000001,86.18000000000001
1787,45413894,0,0.86,-0.71,23.24,-0.0004269845,0.001727337,-0.4092899,-0.3548523,-0.8571550999999999,0.7658205,-0.1045351,-0.07000000000000001,0.06,-0.07000000000000001,86.18000000000001
1829,45424258,0,0.86,-0.72,23.24,-0.0005390769,0.001731344,-0.4092948,-0.3559095,-0.8571550999999999,0.7658205,-0.1080056,-0.07000000000000001,0.06,-0.07000000000000001,86.18000000000001
1869,45434463,0,0.86,-0.72,23.24,-0.0007904881,0.001655061,-0.4090492,-0.3567682,-0.8571550999999999,0.7658205,-0.111515,-0.07000000000000001,0.06,-0.07000000000000001,86.18000000000001
1910,45444702,0,0.86,-0.72,23.24,-0.00102578,0.00147784,-0.4088106,-0.3573768,-0.8571550999999999,0.7658205,-0.1154717,-0.07000000000000001,0.06,-0.07000000000000001,86.18000000000001
1955,45455653,0,0.86,-0.72,23.24,-0.0009990784,0.00143692,-0.4090011,-0.3581495,-0.8571550999999999,0.7658205,-0.1195567,-0.07000000000000001,0.06,-0.07000000000000001,86.18000000000001
1995,45465887,0,0.86,-0.72,23.24,-0.001098562,0.001483032,-0.4088645,-0.3593766,-0.8571550999999999,0.7658205,-0.1235452,-0.07000000000000001,0.06,-0.07000000000000001,86.18000000000001
2038,45475682,0,0.86,-0.72,23.24,-0.001322216,0.001399996,-0.4088506,-0.3609898,-0.8571550999999999,0.7658205,-0.1271572,-0.07000000000000001,0.06,-0.07000000000000001,86.18000000000001
2078,45485712,0,0.86,-0.72,23.24,-0.001468939,0.001313003,-0.4086016,-0.3625174,-0.8571550999999999,0.7658205,-0.1308007,-0.07000000000000001,0.06,-0.07000000000000001,86.18000000000001
2122,45499524,0,0.86,-0.71,23.24,-0.001595007,0.00129365,-0.4083924,-0.3644634,-0.8571550999999999,0.7658205,-0.1357201,-0.07000000000000001,0.06,-0.07000000000000001,86.18000000000001
2162,45509628,0,0.86,-0.71,23.24,-0.001784241,0.00131937,-0.4084323,-0.3666764,-0.8571550999999999,0.7658205,-0.1394406,-0.07000000000000001,0.06,-0.07000000000000001,86.18000000000001
2203,45519630,0,0.86,-0.71,23.24,-0.001692825,0.001128939,-0.4084903,-0.36905,-0.8571550999999999,0.7658205,-0.1431899,-0.07000000000000001,0.06,-0.07000000000000001,86.18000000000001
2247,45530049,0,0.86,-0.71,23.23,-0.001829401,0.001131756,-0.4083669,-0.3713043,-0.8571550999999999,0.7658205,-0.1473743,-0.07000000000000001,0.06,-0.07000000000000001,86.18000000000001
2288,45540353,0,0.86,-0.71,23.23,-0.001871791,0.001462251,-0.4079099,-0.3728839,-0.8571550999999999,0.7658205,-0.1514514,-0.07000000000000001,0.06,-0.07000000000000001,86.18000000000001
2329,45550297,0,0.86,-0.71,23.23,-0.001740429,0.001642957,-0.4077272,-0.3750442,-0.8571550999999999,0.7658205,-0.1552427,-0.07000000000000001,0.06,-0.07000000000000001,86.18000000000001
2375,45560385,0,0.86,-0.71,23.23,-0.0017474,0.001560839,-0.4078661,-0.3779033,-0.8571550999999999,0.7658205,-0.1590517,-0.07000000000000001,0.06,-0.07000000000000001,86.18000000000001
2416,45570541,0,0.86,-0.71,23.23,-0.001968929,0.001562236,-0.4078716,-0.3805074,-0.8571550999999999,0.7658205,-0.1628839,-0.07000000000000001,0.06,-0.07000000000000001,86.18000000000001
2458,45581009,0,0.86,-0.71,23.23,-0.00164632,0.001711866,-0.4077266,-0.3828799,-0.8571550999999999,0.7658205,-0.1671466,-0.07000000000000001,0.06,-0.07000000000000001,86.18000000000001
2499,45591304,0,0.86,-0.71,23.23,-0.001789634,0.001598777,-0.4079554,-0.3851652,-0.8571550999999999,0.7658205,-0.1712202,-0.07000000000000001,0.06,-0.07000000000000001,86.18000000000001
2539,45601654,0,0.86,-0.71,23.23,-0.00170205,0.001735417,-0.4077887,-0.3852381,-0.8571550999999999,0.7658205,-0.1748452,-0.07000000000000001,0.06,-0.07000000000000001,86.18000000000001
2582,45611986,0,0.86,-0.71,23.23,-0.001599404,0.00189747,-0.407311,-0.3835984,-0.8571550999999999,0.7658205,-0.1781075,-0.07000000000000001,0.06,-0.07000000000000001,86.18000000000001
2624,45622648,0,0.86,-0.71,23.22,-0.001367774,0.001748186,-0.4067627,-0.3802277,-0.868287,0.749698,-0.1818209,-0.07000000000000001,0.06,-0.07000000000000001,86.18000000000001
2664,45632653,0,0.86,-0.71,23.22,-0.001187325,0.001521684,-0.4066674,-0.3772348,-0.868287,0.749698,-0.1851707,-0.07000000000000001,0.06,-0.07000000000000001,86.18000000000001
2705,45642721,0,0.86,-0.71,23.22,-0.0009016884,0.001416587,-0.406441,-0.3744635,-0.868287,0.749698,-0.1885578,-0.07000000000000001,0.06,-0.07000000000000001,86.18000000000001
2745,45653057,0,0.86,-0.71,23.22,-0.0009853943,0.001584886,-0.4064204,-0.3712079,-0.868287,0.749698,-0.1926176,-0.07000000000000001,0.06,-0.07000000000000001,86.18000000000001
2791,45663053,0,0.86,-0.72,23.22,-0.001195245,0.001555737,-0.406144,-0.368432,-0.868287,0.749698,-0.1960387,-0.07000000000000001,0.06,-0.07000000000000001,86.18000000000001
2832,45673066,0,0.85,-0.72,23.22,-0.00104331,0.001420969,-0.4060504,-0.3669806,-0.868287,0.749698,-0.1994904,-0.07000000000000001,0.06,-0.07000000000000001,86.18000000000001
2873,45683621,0,0.85,-0.72,23.22,-0.001146207,0.001643051,-0.4062497,-0.3659507,-0.868287,0.749698,-0.2033831,-0.07000000000000001,0.06,-0.07000000000000001,86.18000000000001
2915,45694081,0,0.85,-0.71,23.21,-0.00131522,0.001522199,-0.4062693,-0.3645411,-0.868287,0.749698,-0.207441,-0.07000000000000001,0.06,-0.07000000000000001,86.18000000000001
2955,45704169,0,0.85,-0.71,23.21,-0.00145134,0.001533735,-0.4063127,-0.363812,-0.868287,0.749698,-0.2109617,-0.07000000000000001,0.06,-0.07000000000000001,86.18000000000001
2993,45714671,0,0.86,-0.71,23.22,-0.001683317,0.001708181,-0.4061751,-0.3620702,-0.868287,0.749698,-0.2145069,-0.07000000000000001,0.06,-0.07000000000000001,86.18000000000001
3034,45724597,0,0.86,-0.71,23.21,-0.0016276,0.001699925,-0.40599,-0.3593379,-0.868287,0.749698,-0.2176997,-0.07000000000000001,0.06,-0.07000000000000001,86.18000000000001
3074,45734614,0,0.86,-0.71,23.22,-0.001607016,0.00166006,-0.4054442,-0.3561291,-0.868287,0.749698,-0.2209377,-0.07000000000000001,0.06,-0.07000000000000001,86.18000000000001
3116,45745118,0,0.86,-0.71,23.22,-0.001742308,0.001680968,-0.4051056,-0.3529643,-0.868287,0.749698,-0.2242203,-0.07000000000000001,0.06,-0.07000000000000001,86.18000000000001
3156,45755675,0,0.87,-0.71,23.22,-0.001874719,0.001555823,-0.404929,-0.3502572,-0.868287,0.749698,-0.2282663,-0.07000000000000001,0.06,-0.07000000000000001,86.18000000000001
3201,45765714,0,0.87,-0.71,23.22,-0.00183362,0.001456596,-0.4045607,-0.3481826,-0.868287,0.749698,-0.2315781,-0.07000000000000001,0.06,-0.07000000000000001,86.18000000000001
3241,45775697,0,0.87,-0.71,23.22,-0.002016671,0.001175673,-0.4045708,-0.3468439,-0.868287,0.749698,-0.2349316,-0.07000000000000001,0.06,-0.07000000000000001,86.18000000000001
3282,45785707,0,0.87,-0.71,23.22,-0.002132476,0.001207251,-0.4041939,-0.3451101,-0.868287,0.749698,-0.2387304,-0.07000000000000001,0.06,-0.07000000000000001,86.18000000000001
3323,45795998,0,0.87,-0.71,23.22,-0.002148284,0.001274367,-0.4041842,-0.3444974,-0.868287,0.749698,-0.2421613,-0.07000000000000001,0.06,-0.07000000000000001,86.18000000000001
3364,45806685,0,0.87,-0.71,23.22,-0.002014709,0.0009736316,-0.4040419,-0.3430001,-0.868287,0.749698,-0.2452789,-0.07000000000000001,0.06,-0.07000000000000001,86.18000000000001
3409,45816645,0,0.86,-0.71,23.22,-0.002204929,0.0008814827,-0.4036384,-0.3405284,-0.868287,0.749698,-0.2480554,-0.07000000000000001,0.06,-0.07000000000000001,86.18000000000001
3446,45827780,0,0.86,-0.71,23.22,-0.002127733,0.0008754288,-0.4035047,-0.3359115,-0.8794187999999999,0.749698,-0.2513008,-0.07000000000000001,0.06,-0.07000000000000001,86.18000000000001
3489,45838113,0,0.86,-0.71,23.22,-0.001934461,0.0009298523,-0.4034183,-0.3305857,-0.8794187999999999,0.749698,-0.2553307,-0.07000000000000001,0.06,-0.07000000000000001,86.18000000000001
3529,45848100,0,0.86,-0.71,23.22,-0.001909554,0.001012904,-0.4029276,-0.325929,-0.8794187999999999,0.749698,-0.258226,-0.07000000000000001,0.06,-0.07000000000000001,86.18000000000001
3571,45858126,0,0.86,-0.71,23.22,-0.002049629,0.001301384,-0.4027418,-0.3220295,-0.8794187999999999,0.749698,-0.2611772,-0.07000000000000001,0.06,-0.07000000000000001,86.18000000000001
3619,45868683,0,0.86,-0.71,23.22,-0.001996389,0.001545508,-0.4025063,-0.3187163,-0.8794187999999999,0.749698,-0.2645819,-0.07000000000000001,0.06,-0.07000000000000001,86.18000000000001
3659,45878655,0,0.86,-0.71,23.22,-0.001794845,0.001775755,-0.4025333,-0.3172343,-0.8794187999999999,0.749698,-0.2676356,-0.07000000000000001,0.06,-0.07000000000000001,86.18000000000001
3700,45889208,0,0.86,-0.71,23.22,-0.00184693,0.001944028,-0.4028522,-0.3154388,-0.8794187999999999,0.749698,-0.2716582,-0.07000000000000001,0.06,-0.07000000000000001,86.18000000000001
3741,45899268,0,0.86,-0.71,23.22,-0.001861665,0.002027571,-0.4025759,-0.3142937,-0.8794187999999999,0.749698,-0.2747603,-0.07000000000000001,0.06,-0.07000000000000001,86.18000000000001
3785,45912527,0,0.86,-0.71,23.22,-0.002045849,0.002084984,-0.4022865,-0.3107336,-0.8794187999999999,0.749698,-0.2785245,-0.07000000000000001,0.06,-0.07000000000000001,86.18000000000001
3825,45922279,0,0.87,-0.71,23.23,-0.002130852,0.002044649,-0.4021524,-0.3074467,-0.8794187999999999,0.749698,-0.2811505,-0.07000000000000001,0.06,-0.07000000000000001,86.18000000000001
3867,45932641,0,0.87,-0.71,23.22,-0.002392126,0.001983487,-0.4016756,-0.3037557,-0.8794187999999999,0.749698,-0.2838448,-0.07000000000000001,0.06,-0.07000000000000001,86.18000000000001
3908,45942269,0,0.87,-0.71,23.23,-0.002438948,0.001654824,-0.4012082,-0.3009963,-0.8794187999999999,0.749698,-0.2865975,-0.07000000000000001,0.06,-0.07000000000000001,86.18000000000001
3948,45952263,0,0.87,-0.71,23.22,-0.002481917,0.00143063,-0.401068,-0.2989387,-0.8794187999999999,0.749698,-0.2894133,-0.07000000000000001,0.06,-0.07000000000000001,86.18000000000001
3989,45962609,0,0.87,-0.71,23.22,-0.002632241,0.001220714,-0.4008545,-0.2959686,-0.8794187999999999,0.749698,-0.293418,-0.07000000000000001,0.06,-0.07000000000000001,86.18000000000001
4035,45972283,0,0.87,-0.71,23.22,-0.002614538,0.001097942,-0.4002211,-0.2940392,-0.8794187999999999,0.749698,-0.2962831,-0.07000000000000001,0.06,-0.07000000000000001,86.18000000000001
4077,45982298,0,0.86,-0.71,23.22,-0.002907647,0.0009539418,-0.3999301,-0.2930994,-0.8794187999999999,0.749698,-0.2992023,-0.07000000000000001,0.06,-0.07000000000000001,86.18000000000001
4117,45992263,0,0.86,-0.71,23.22,-0.003019887,0.0006781042,-0.3997988,-0.2935067,-0.8794187999999999,0.749698,-0.3021719,-0.07000000000000001,0.06,-0.07000000000000001,86.18000000000001
4161,46002293,0,0.86,-0.71,23.22,-0.003164473,0.00049234,-0.3994618,-0.2942544,-0.8794187999999999,0.7416367,-0.3051944,-0.07000000000000001,0.06,-0.07000000000000001,86.18000000000001
4201,46015582,0,0.86,-0.71,23.22,-0.003353094,0.0004356025,-0.3994309,-0.2949063,-0.8794187999999999,0.7416367,-0.3099666,-0.07000000000000001,0.06,-0.07000000000000001,86.18000000000001
4242,46025192,0,0.85,-0.71,23.22,-0.003454966,0.0004567573,-0.3994769,-0.2959173,-0.8794187999999999,0.7416367,-0.3135579,-0.07000000000000001,0.06,-0.07000000000000001,86.18000000000001
4283,46035808,0,0.85,-0.71,23.22,-0.003659114,0.0003497638,-0.3990773,-0.2968018,-0.8794187999999999,0.7416367,-0.3167818,-0.07000000000000001,0.06,-0.07000000000000001,86.18000000000001
4323,46045730,0,0.85,-0.71,23.22,-0.00349255,0.0004145009,-0.3989061,-0.2979685,-0.8794187999999999,0.7416367,-0.3196613,-0.07000000000000001,0.06,-0.07000000000000001,86.18000000000001
4366,46055855,0,0.86,-0.71,23.22,-0.003537694,0.0002576288,-0.3985842,-0.2989186,-0.8794187999999999,0.7416367,-0.3225955,-0.07000000000000001,0.06,-0.07000000000000001,86.18000000000001
4406,46065796,0,0.86,-0.71,23.22,-0.003475775,0.0003140529,-0.3983223,-0.3005777,-0.8794187999999999,0.7416367,-0.3255797,-0.07000000000000001,0.06,-0.07000000000000001,86.18000000000001
4452,46076074,0,0.86,-0.7,23.22,-0.003449232,0.0004103613,-0.3986873,-0.3017771,-0.8794187999999999,0.7416367,-0.32956,-0.07000000000000001,0.06,-0.07000000000000001,86.18000000000001
4492,46086020,0,0.86,-0.7,23.22,-0.003526676,0.0005232622,-0.3985005,-0.3032776,-0.8794187999999999,0.7416367,-0.3325931,-0.07000000000000001,0.06,-0.07000000000000001,86.18000000000001
4533,46096043,0,0.86,-0.7,23.22,-0.003541329,0.0004260463,-0.3981182,-0.3047817,-0.8794187999999999,0.7416367,-0.3356743,-0.07000000000000001,0.06,-0.07000000000000001,86.18000000000001
4574,46106111,0,0.87,-0.7,23.22,-0.00330306,0.0004950893,-0.3980265,-0.3072504,-0.8794187999999999,0.7416367,-0.3387986,-0.07000000000000001,0.06,-0.07000000000000001,86.18000000000001
4615,46119228,0,0.87,-0.7,23.22,-0.003145325,0.0002220115,-0.3976085,-0.3091847,-0.8794187999999999,0.7416367,-0.3426893,-0.07000000000000001,0.06,-0.07000000000000001,86.18000000000001
4657,46129625,0,0.87,-0.71,23.22,-0.003004946,0.00018689,-0.3972401,-0.3103274,-0.8794187999999999,0.7416367,-0.345446,-0.07000000000000001,0.06,-0.07000000000000001,86.18000000000001
4697,46139675,0,0.87,-0.71,23.22,-0.003002365,0.0001683067,-0.3972529,-0.3096597,-0.8794187999999999,0.7416367,-0.3494137,-0.07000000000000001,0.06,-0.07000000000000001,86.18000000000001
4738,46149669,0,0.86,-0.71,23.22,-0.003008804,2.492744e-06,-0.3968601,-0.3090512,-0.8794187999999999,0.7416367,-0.3522233,-0.07000000000000001,0.06,-0.07000000000000001,86.18000000000001
4779,46159625,0,0.86,-0.71,23.22,-0.00307666,-0.0001729954,-0.3966114,-0.3099404,-0.8794187999999999,0.7416367,-0.355081,-0.07000000000000001,0.06,-0.07000000000000001,86.18000000000001
4823,46169640,0,0.86,-0.71,23.22,-0.002980303,-0.0002316789,-0.3962659,-0.3104045,-0.8794187999999999,0.7416367,-0.3579928,-0.07000000000000001,0.06,-0.07000000000000001,86.18000000000001
4864,46180017,0,0.86,-0.71,23.22,-0.002976521,-0.0001401577,-0.3962089,-0.3099672,-0.8794187999999999,0.7416367,-0.3623467,-0.07000000000000001,0.06,-0.07000000000000001,86.18000000000001
4905,46190017,0,0.86,-0.7,23.22,-0.003243642,-0.0002451886,-0.3962685,-0.3106984,-0.8794187999999999,0.7416367,-0.3653035,-0.07000000000000001,0.06,-0.07000000000000001,86.18000000000001
4946,46200004,0,0.85,-0.7,23.22,-0.003192544,-0.0003284477,-0.3961644,-0.3126034,-0.8794187999999999,0.7416367,-0.3683054,-0.07000000000000001,0.06,-0.07000000000000001,86.18000000000001
4988,46210082,0,0.85,-0.7,23.22,-0.003347632,-0.0004047249,-0.3959313,-0.3141819,-0.9016826999999999,0.7335755,-0.3713577,-0.07000000000000001,0.06,-0.07000000000000001,86.18000000000001
5030,46220457,0,0.86,-0.7,23.22,-0.003559767,-0.0003309919,-0.3957923,-0.3147779,-0.9016826999999999,0.7335755,-0.3753115,-0.07000000000000001,0.06,-0.07000000000000001,86.18000000000001
5071,46230895,0,0.86,-0.7,23.21,-0.00373391,-0.0003098698,-0.3952664,-0.3127482,-0.9016826999999999,0.7335755,-0.3778457,-0.07000000000000001,0.06,-0.07000000000000001,86.18000000000001
5112,46240904,0,0.86,-0.7,23.21,-0.003902709,-0.0004323366,-0.3949553,-0.3081402,-0.9016826999999999,0.7335755,-0.3800741,-0.07000000000000001,0.06,-0.07000000000000001,86.18000000000001
5153,46250895,0,0.86,-0.71,23.21,-0.004224028,-0.0006660498,-0.3947821,-0.3029274,-0.9016826999999999,0.7335755,-0.3823851,-0.07000000000000001,0.06,-0.07000000000000001,86.18000000000001
5194,46260894,0,0.86,-0.71,23.21,-0.004321853,-0.0009631845,-0.3943374,-0.297374,-0.9016826999999999,0.7335755,-0.3847757,-0.07000000000000001,0.06,-0.07000000000000001,86.18000000000001
5238,46271194,0,0.87,-0.71,23.21,-0.004186252,-0.001251685,-0.3939762,-0.2916684,-0.9016826999999999,0.7335755,-0.3872423,-0.07000000000000001,0.06,-0.07000000000000001,86.18000000000001
5280,46281205,0,0.87,-0.71,23.21,-0.004193276,-0.001402352,-0.3938451,-0.2871104,-0.9016826999999999,0.7335755,-0.3897808,-0.07000000000000001,0.06,-0.07000000000000001,86.18000000000001
5320,46291166,0,0.87,-0.7,23.21,-0.004137341,-0.001457803,-0.3938209,-0.2820567,-0.9016826999999999,0.7335755,-0.3937144,-0.07000000000000001,0.06,-0.07000000000000001,86.18000000000001
5361,46301135,0,0.87,-0.7,23.21,-0.00409291,-0.001593281,-0.3934774,-0.278695,-0.9016826999999999,0.7335755,-0.396313,-0.07000000000000001,0.06,-0.07000000000000001,86.18000000000001
5401,46311204,0,0.86,-0.7,23.21,-0.003994121,-0.001831054,-0.3930988,-0.2749883,-0.9016826999999999,0.7335755,-0.3983399,-0.07000000000000001,0.06,-0.07000000000000001,86.18000000000001
5445,46324190,0,0.86,-0.7,23.21,-0.003964201,-0.001824223,-0.3930291,-0.2699421,-0.9016826999999999,0.7335755,-0.4016296,-0.07000000000000001,0.06,-0.07000000000000001,86.18000000000001
5485,46334221,0,0.86,-0.7,23.21,-0.003830431,-0.001898172,-0.3924945,-0.2664397,-0.9016826999999999,0.7335755,-0.403823,-0.07000000000000001,0.06,-0.07000000000000001,86.18000000000001
5527,46344746,0,0.85,-0.7,23.21,-0.003725272,-0.001963469,-0.3921896,-0.263303,-0.9016826999999999,0.7335755,-0.4064856,-0.07000000000000001,0.06,-0.07000000000000001,86.18000000000001
5569,46355080,0,0.85,-0.7,23.21,-0.003819817,-0.001830976,-0.3920481,-0.2594227,-0.9016826999999999,0.7335755,-0.410402,-0.07000000000000001,0.06,-0.07000000000000001,86.18000000000001
5609,46365123,0,0.85,-0.7,23.21,-0.003767756,-0.001766526,-0.3916465,-0.2569346,-0.9016826999999999,0.7335755,-0.4127421,-0.07000000000000001,0.06,-0.07000000000000001,86.18000000000001
5654,46375668,0,0.85,-0.7,23.21,-0.003840308,-0.00160418,-0.3915687,-0.2554031,-0.9016826999999999,0.7335755,-0.4151582,-0.07000000000000001,0.06,-0.07000000000000001,86.18000000000001
5695,46385975,0,0.85,-0.71,23.21,-0.003955646,-0.001532595,-0.3914445,-0.2537465,-0.9016826999999999,0.7335755,-0.418042,-0.07000000000000001,0.06,-0.07000000000000001,86.18000000000001
5736,46395931,0,0.86,-0.71,23.21,-0.003943618,-0.001446075,-0.3911457,-0.2532118,-0.9016826999999999,0.7335755,-0.4206033,-0.07000000000000001,0.06,-0.07000000000000001,86.18000000000001
5776,46405707,0,0.86,-0.71,23.21,-0.004015625,-0.001346084,-0.3910349,-0.2545471,-0.9016826999999999,0.7335755,-0.4232265,-0.07000000000000001,0.06,-0.07000000000000001,86.18000000000001
5819,46416435,0,0.86,-0.7,23.21,-0.004241816,-0.001343451,-0.3910069,-0.2551883,-0.9128146,0.7255142,-0.4271329,-0.07000000000000001,0.06,-0.07000000000000001,86.18000000000001
5857,46426692,0,0.86,-0.7,23.21,-0.004207201,-0.001518861,-0.3904918,-0.2538857,-0.9128146,0.7255142,-0.4292023,-0.07000000000000001,0.06,-0.07000000000000001,86.18000000000001
5898,46436884,0,0.86,-0.7,23.21,-0.004191243,-0.001689406,-0.3899167,-0.2514782,-0.9128146,0.7255142,-0.4309765,-0.07000000000000001,0.06,-0.07000000000000001,86.18000000000001
5940,46447118,0,0.86,-0.7,23.21,-0.004184825,-0.001850411,-0.3894141,-0.249152,-0.9128146,0.7255142,-0.4328438,-0.07000000000000001,0.06,-0.07000000000000001,86.18000000000001
5980,46457057,0,0.87,-0.7,23.21,-0.004135818,-0.002136322,-0.3891533,-0.2465627,-0.9128146,0.7255142,-0.4348051,-0.07000000000000001,0.06,-0.07000000000000001,86.18000000000001
6021,46467603,0,0.86,-0.7,23.21,-0.00432412,-0.00222332,-0.3887948,-0.2421001,-0.9128146,0.7255142,-0.4368635,-0.07000000000000001,0.06,-0.07000000000000001,86.18000000000001
6067,46477690,0,0.86,-0.7,23.21,-0.004489609,-0.002417973,-0.3889918,-0.2369483,-0.9128146,0.7255142,-0.4411358,-0.07000000000000001,0.06,-0.07000000000000001,86.18000000000001
6107,46487698,0,0.86,-0.7,23.21,-0.004692566,-0.002631722,-0.3884694,-0.2335491,-0.9128146,0.7255142,-0.4432745,-0.07000000000000001,0.06,-0.07000000000000001,86.18000000000001
6148,46497703,0,0.86,-0.71,23.21,-0.00469181,-0.002671673,-0.3879012,-0.2319235,-0.9128146,0.7255142,-0.4454879,-0.07000000000000001,0.06,-0.07000000000000001,86.18000000000001
6188,46507695,0,0.85,-0.71,23.2,-0.004816907,-0.002764337,-0.3875941,-0.2337552,-0.9128146,0.7255142,-0.4477677,-0.07000000000000001,0.06,-0.07000000000000001,86.18000000000001
6229,46518204,0,0.85,-0.71,23.2,-0.004790487,-0.002947457,-0.3877389,-0.2343939,-0.9128146,0.7255142,-0.4516406,-0.07000000000000001,0.06,-0.07000000000000001,86.18000000000001
6266,46528312,0,0.85,-0.71,23.2,-0.004968939,-0.002803901,-0.3869467,-0.2324329,-0.9128146,0.7255142,-0.4529008,-0.07000000000000001,0.06,-0.07000000000000001,86.18000000000001
6308,46538272,0,0.85,-0.7,23.2,-0.005185376,-0.002668512,-0.3864338,-0.2286169,-0.9128146,0.7255142,-0.4542787,-0.07000000000000001,0.06,-0.07000000000000001,86.18000000000001
6353,46548182,0,0.85,-0.7,23.2,-0.005257647,-0.002631965,-0.3854967,-0.2245751,-0.9128146,0.7255142,-0.4557636,-0.07000000000000001,0.06,-0.07000000000000001,86.18000000000001
6393,46559121,0,0.85,-0.7,23.2,-0.005176687,-0.002506599,-0.3850693,-0.2183368,-0.9128146,0.7255142,-0.4577429,-0.07000000000000001,0.06,-0.07000000000000001,86.18000000000001
6434,46569071,0,0.86,-0.7,23.2,-0.005180101,-0.002473535,-0.3847063,-0.2138581,-0.9128146,0.7255142,-0.4594429,-0.07000000000000001,0.06,-0.07000000000000001,86.18000000000001
6478,46579670,0,0.86,-0.7,23.2,-0.005110291,-0.002468271,-0.3844424,-0.2082224,-0.9128146,0.7255142,-0.4616307,-0.07000000000000001,0.06,-0.07000000000000001,86.18000000000001
6520,46589776,0,0.86,-0.7,23.2,-0.00511935,-0.002292797,-0.38436,-0.2030545,-0.9128146,0.7255142,-0.4654704,-0.07000000000000001,0.06,-0.07000000000000001,86.18000000000001
6562,46599754,0,0.86,-0.7,23.2,-0.005259567,-0.002390139,-0.383945,-0.1996333,-0.9128146,0.7174528999999999,-0.4673628,-0.07000000000000001,0.06,-0.07000000000000001,86.18000000000001
6603,46609753,0,0.86,-0.7,23.2,-0.005154286,-0.002364403,-0.3834692,-0.1985238,-0.9128146,0.7174528999999999,-0.4693376,-0.07000000000000001,0.06,-0.07000000000000001,86.18000000000001
6641,46620218,0,0.86,-0.7,23.19,-0.0051817,-0.002560112,-0.3828765,-0.1974874,-0.9128146,0.7174528999999999,-0.4705194,-0.07000000000000001,0.06,-0.07000000000000001,86.18000000000001
6681,46630233,0,0.86,-0.7,23.19,-0.005136279,-0.002671292,-0.3826169,-0.1944285,-0.9128146,0.7174528999999999,-0.4718264,-0.08,0.06,-0.07000000000000001,86.18000000000001
6723,46640111,0,0.86,-0.7,23.19,-0.005202839,-0.002835316,-0.3819722,-0.1909859,-0.9128146,0.7174528999999999,-0.4732472,-0.08,0.06,-0.07000000000000001,86.18000000000001
6764,46650575,0,0.86,-0.71,23.19,-0.005242467,-0.002823149,-0.3815994,-0.1859726,-0.9128146,0.7174528999999999,-0.4751618,-0.08,0.06,-0.07000000000000001,86.18000000000001
6805,46660895,0,0.86,-0.71,23.19,-0.005317825,-0.002562531,-0.3818158,-0.1812982,-0.9128146,0.7174528999999999,-0.4789739,-0.08,0.06,-0.07000000000000001,86.18000000000001
6846,46670561,0,0.85,-0.71,23.19,-0.005529149,-0.002557349,-0.3812448,-0.1778395,-0.9128146,0.7174528999999999,-0.4806067,-0.08,0.06,-0.07000000000000001,86.18000000000001
6891,46680424,0,0.85,-0.71,23.19,-0.005666408,-0.002515915,-0.3807256,-0.1768473,-0.9128146,0.7174528999999999,-0.4823325,-0.08,0.06,-0.07000000000000001,86.18000000000001
6932,46690456,0,0.85,-0.71,23.19,-0.005821832,-0.002439042,-0.3802795,-0.1771471,-0.9128146,0.7174528999999999,-0.4841521,-0.08,0.06,-0.07000000000000001,86.18000000000001
6972,46700462,0,0.85,-0.71,23.19,-0.005898152,-0.002311965,-0.3796916,-0.1795096,-0.9128146,0.7174528999999999,-0.4860557,-0.08,0.06,-0.07000000000000001,86.18000000000001
7013,46710613,0,0.85,-0.7,23.19,-0.006015352,-0.002257516,-0.3798347,-0.1812325,-0.9128146,0.7174528999999999,-0.4898489,-0.08,0.06,-0.07000000000000001,86.18000000000001
7053,46720962,0,0.86,-0.71,23.19,-0.006071559,-0.002383923,-0.3793453,-0.1823575,-0.9128146,0.7174528999999999,-0.4914288,-0.08,0.06,-0.07000000000000001,86.18000000000001
7095,46730939,0,0.86,-0.7,23.19,-0.006091596,-0.002476699,-0.3787798,-0.1861043,-0.9128146,0.7174528999999999,-0.4930923,-0.07000000000000001,0.06,-0.07000000000000001,86.18000000000001
7133,46741352,0,0.86,-0.7,23.19,-0.006149093,-0.002426388,-0.3781844,-0.1903473,-0.9128146,0.7174528999999999,-0.4948486,-0.07000000000000001,0.06,-0.07000000000000001,86.18000000000001
7174,46751308,0,0.86,-0.7,23.19,-0.006258049,-0.002760816,-0.3782563,-0.1924628,-0.9128146,0.7174528999999999,-0.4986256,-0.07000000000000001,0.06,-0.07000000000000001,86.18000000000001
7215,46761338,0,0.86,-0.7,23.19,-0.006300816,-0.003115668,-0.377811,-0.1953177,-0.9128146,0.7174528999999999,-0.5004666,-0.07000000000000001,0.06,-0.07000000000000001,86.18000000000001
7255,46772083,0,0.87,-0.7,23.19,-0.006087568,-0.003303987,-0.3773436,-0.1976663,-0.9128146,0.7174528999999999,-0.5027772,-0.08,0.06,-0.07000000000000001,86.18000000000001
7302,46782019,0,0.87,-0.7,23.19,-0.006114416,-0.003440916,-0.3770456,-0.2004273,-0.9128146,0.7174528999999999,-0.504796,-0.08,0.06,-0.07000000000000001,86.18000000000001
7342,46791993,0,0.86,-0.7,23.19,-0.005918331,-0.003453055,-0.3766741,-0.2045139,-0.9128146,0.7174528999999999,-0.5068915000000001,-0.08,0.06,-0.07000000000000001,86.18000000000001
7385,46802460,0,0.86,-0.7,23.19,-0.005835461,-0.003474567,-0.3762607,-0.2096642,-0.9128146,0.7093917,-0.5094367,-0.08,0.06,-0.07000000000000001,86.18000000000001
7425,46813061,0,0.86,-0.7,23.19,-0.005741543,-0.003551392,-0.3760664,-0.2132971,-0.9128146,0.7093917,-0.5131944000000001,-0.08,0.06,-0.07000000000000001,86.18000000000001
7467,46822935,0,0.86,-0.7,23.19,-0.00579947,-0.003612443,-0.3758084,-0.2193171,-0.9128146,0.7093917,-0.5154192,-0.07000000000000001,0.06,-0.07000000000000001,86.18000000000001
7508,46833210,0,0.86,-0.7,23.19,-0.00580796,-0.003463526,-0.3755268,-0.2234235,-0.9128146,0.7093917,-0.5163512,-0.07000000000000001,0.06,-0.07000000000000001,86.18000000000001
7549,46842794,0,0.86,-0.7,23.19,-0.005700208,-0.003287853,-0.3749476,-0.2247056,-0.9128146,0.7093917,-0.5174058,-0.07000000000000001,0.06,-0.07000000000000001,86.18000000000001
7591,46853475,0,0.86,-0.7,23.19,-0.005869669,-0.003022136,-0.3750661,-0.2207782,-0.9128146,0.7093917,-0.5211519,-0.07000000000000001,0.06,-0.07000000000000001,86.18000000000001
7632,46863597,0,0.86,-0.7,23.19,-0.005929803,-0.002875515,-0.3744513,-0.2164455,-0.9128146,0.7093917,-0.5223176,-0.07000000000000001,0.06,-0.07000000000000001,86.18000000000001
7674,46873504,0,0.86,-0.7,23.19,-0.006079952,-0.00262826,-0.3738731,-0.2114837,-0.9128146,0.7093917,-0.5236021,-0.07000000000000001,0.06,-0.07000000000000001,86.18000000000001
7719,46883264,0,0.86,-0.7,23.19,-0.006296081,-0.002643607,-0.3731597,-0.2076142,-0.9128146,0.7093917,-0.5249904,-0.07000000000000001,0.06,-0.07000000000000001,86.18000000000001
7759,46893646,0,0.86,-0.7,23.19,-0.00629995,-0.002832131,-0.3725045,-0.2041323,-0.9128146,0.7093917,-0.5268515,-0.07000000000000001,0.06,-0.07000000000000001,86.18000000000001
7800,46904030,0,0.86,-0.7,23.19,-0.006459412,-0.002881966,-0.3725581,-0.2000161,-0.9128146,0.7093917,-0.5305724000000001,-0.07000000000000001,0.06,-0.07000000000000001,86.18000000000001
7840,46914071,0,0.87,-0.7,23.19,-0.006680728,-0.002911704,-0.3722607,-0.1975052,-0.9128146,0.7093917,-0.5321546,-0.07000000000000001,0.06,-0.07000000000000001,86.18000000000001
7882,46924650,0,0.87,-0.7,23.19,-0.006659796,-0.003067902,-0.3712685,-0.1977013,-0.9128146,0.7093917,-0.5329839,-0.07000000000000001,0.06,-0.07000000000000001,86.18000000000001
7925,46936964,0,0.87,-0.7,23.2,-0.006848691,-0.003267705,-0.370302,-0.1906891,-0.9128146,0.7093917,-0.5346964,-0.07000000000000001,0.06,-0.07000000000000001,86.18000000000001
7966,46947000,0,0.87,-0.7,23.2,-0.006781216,-0.003367054,-0.3696493,-0.1860313,-0.9128146,0.7093917,-0.5354298,-0.07000000000000001,0.06,-0.07000000000000001,86.18000000000001
8006,46957244,0,0.87,-0.7,23.2,-0.006787447,-0.003494703,-0.369453,-0.1775029,-0.9128146,0.7093917,-0.5391216,-0.07000000000000001,0.06,-0.07000000000000001,86.18000000000001
8048,46967483,0,0.86,-0.7,23.2,-0.006814725,-0.003551726,-0.3688333,-0.1705688,-0.9128146,0.7093917,-0.5399739,-0.07000000000000001,0.06,-0.07000000000000001,86.18000000000001
8089,46977208,0,0.86,-0.7,23.2,-0.006937304,-0.003497698,-0.3680498,-0.1639832,-0.9128146,0.7093917,-0.5409545,-0.07000000000000001,0.06,-0.07000000000000001,86.18000000000001
8135,46987176,0,0.86,-0.7,23.2,-0.006844499,-0.003510362,-0.3672695,-0.1596694,-0.9128146,0.7093917,-0.5420497,-0.07000000000000001,0.06,-0.07000000000000001,86.18000000000001
8177,46997181,0,0.86,-0.7,23.2,-0.00680162,-0.00340032,-0.3669201,-0.1567532,-0.9128146,0.7093917,-0.5432631999999999,-0.07000000000000001,0.06,-0.07000000000000001,86.18000000000001
8217,47007606,0,0.86,-0.7,23.2,-0.006734162,-0.0033602,-0.3663594,-0.152529,-0.9128146,0.7093917,-0.5449603,-0.07000000000000001,0.06,-0.07000000000000001,86.18000000000001
8260,47017631,0,0.86,-0.7,23.2,-0.006733114,-0.003316133,-0.3662837,-0.148896,-0.9128146,0.7093917,-0.5486188,-0.07000000000000001,0.06,-0.07000000000000001,86.18000000000001
8297,47027970,0,0.86,-0.7,23.2,-0.006898025,-0.003122138,-0.365527,-0.1434424,-0.9350783,0.7013304,-0.5489922,-0.07000000000000001,0.06,-0.07000000000000001,86.18000000000001
8338,47038012,0,0.86,-0.7,23.21,-0.006808111,-0.002828593,-0.3647461,-0.1386677,-0.9350783,0.7013304,-0.549505,-0.07000000000000001,0.06,-0.07000000000000001,86.18000000000001
8378,47048065,0,0.86,-0.7,23.2,-0.006736239,-0.002815855,-0.3648334,-0.1382339,-0.9350783,0.7013304,-0.553149,-0.07000000000000001,0.06,-0.07000000000000001,86.18000000000001
8418,47058005,0,0.86,-0.7,23.21,-0.006791822,-0.002801662,-0.3640842,-0.1372794,-0.9350783,0.7013304,-0.5537587,-0.07000000000000001,0.06,-0.07000000000000001,86.18000000000001
8461,47067962,0,0.86,-0.7,23.21,-0.006791796,-0.002846232,-0.3630932,-0.1351609,-0.9350783,0.7013304,-0.5545043,-0.07000000000000001,0.06,-0.07000000000000001,86.18000000000001
8502,47077981,0,0.87,-0.7,23.21,-0.006990976,-0.002982037,-0.3630783,-0.1372758,-0.9350783,0.7013304,-0.5581311,-0.07000000000000001,0.06,-0.07000000000000001,86.18000000000001
8546,47087968,0,0.87,-0.7,23.21,-0.006923866,-0.003042048,-0.3624447,-0.1390267,-0.9350783,0.7013304,-0.5589662,-0.07000000000000001,0.06,-0.07000000000000001,86.18000000000001
8587,47097978,0,0.87,-0.7,23.21,-0.006830415,-0.003090167,-0.3616669,-0.1396902,-0.9350783,0.7013304,-0.5599298,-0.07000000000000001,0.06,-0.07000000000000001,86.18000000000001
8627,47108544,0,0.87,-0.7,23.21,-0.006863008,-0.003032195,-0.361026,-0.141495,-0.9350783,0.7013304,-0.5610108,-0.07000000000000001,0.06,-0.07000000000000001,86.18000000000001
8668,47118624,0,0.87,-0.7,23.21,-0.006889257,-0.003289885,-0.3602726,-0.1431178,-0.9350783,0.7013304,-0.5622053,-0.07000000000000001,0.06,-0.07000000000000001,86.18000000000001
8708,47129042,0,0.86,-0.7,23.21,-0.007026676,-0.003365844,-0.3601747,-0.1433198,-0.9350783,0.7013304,-0.5661632,-0.07000000000000001,0.06,-0.07000000000000001,86.18000000000001
8749,47138967,0,0.86,-0.7,23.21,-0.007138296,-0.00343804,-0.3593771,-0.1425485,-0.9350783,0.7013304,-0.5664962,-0.07000000000000001,0.06,-0.07000000000000001,86.18000000000001
8792,47151571,0,0.86,-0.7,23.21,-0.007110666,-0.003483776,-0.3584216,-0.1415977,-0.9350783,0.7013304,-0.5676816,-0.07000000000000001,0.06,-0.07000000000000001,86.18000000000001
8833,47161305,0,0.86,-0.7,23.21,-0.00723092,-0.003514055,-0.3576473,-0.1407227,-0.9350783,0.7013304,-0.5682825,-0.07000000000000001,0.06,-0.07000000000000001,86.18000000000001
8874,47171744,0,0.86,-0.7,23.21,-0.007424044,-0.003476189,-0.3569947,-0.1395253,-0.9350783,0.7013304,-0.5693724,-0.07000000000000001,0.06,-0.07000000000000001,86.18000000000001
8915,47181639,0,0.86,-0.7,23.21,-0.007574929,-0.003541886,-0.3568712,-0.1360001,-0.9350783,0.7013304,-0.5729379999999999,-0.07000000000000001,0.06,-0.07000000000000001,86.18000000000001
8960,47191749,0,0.86,-0.7,23.21,-0.007555174,-0.003465772,-0.356097,-0.1328756,-0.9350783,0.7013304,-0.5737922,-0.07000000000000001,0.06,-0.07000000000000001,86.18000000000001
9002,47201653,0,0.86,-0.7,23.21,-0.007619672,-0.003527292,-0.3554716,-0.1318411,-0.9350783,0.6932691,-0.5747671,-0.07000000000000001,0.06,-0.07000000000000001,86.18000000000001
9044,47211653,0,0.86,-0.7,23.21,-0.007852315,-0.003568511,-0.3547146,-0.131431,-0.9350783,0.6932691,-0.5758616,-0.07000000000000001,0.06,-0.07000000000000001,86.18000000000001
9085,47221647,0,0.86,-0.7,23.21,-0.007885003,-0.003607244,-0.3541825,-0.1334553,-0.9350783,0.6932691,-0.5770655,-0.07000000000000001,0.06,-0.07000000000000001,86.18000000000001
9125,47232291,0,0.87,-0.7,23.21,-0.008043916999999999,-0.003701767,-0.3540912,-0.1338917,-0.9350783,0.6932691,-0.5806025,-0.07000000000000001,0.06,-0.07000000000000001,86.18000000000001
9162,47242123,0,0.87,-0.7,23.21,-0.008079047000000001,-0.003636151,-0.3531146,-0.1310285,-0.9350783,0.6932691,-0.5802324,-0.07000000000000001,0.06,-0.07000000000000001,86.18000000000001
9203,47252234,0,0.87,-0.7,23.21,-0.008118741,-0.003825175,-0.352279,-0.1251566,-0.9350783,0.6932691,-0.5800396,-0.07000000000000001,0.06,-0.07000000000000001,86.18000000000001
9222,47282236,0,0.87,-0.7,23.21,-0.008181196999999999,-0.004285924,-0.3501087,-0.1038966,-0.9350783,0.6932691,-0.5836365999999999,-0.07000000000000001,0.06,-0.07000000000000001,86.18000000000001
9268,47292125,0,0.86,-0.7,23.21,-0.008219840000000001,-0.004476405,-0.3495854,-0.09755107,-0.9350783,0.6932691,-0.5839059,-0.07000000000000001,0.06,-0.07000000000000001,86.18000000000001
9308,47302144,0,0.86,-0.7,23.21,-0.008266312,-0.004508664,-0.3486392,-0.09196316,-0.9350783,0.6932691,-0.5843237999999999,-0.07000000000000001,0.06,-0.07000000000000001,86.18000000000001
9349,47312150,0,0.86,-0.7,23.21,-0.008293234999999999,-0.004463359,-0.347919,-0.08955169,-0.9350783,0.6932691,-0.5848753,-0.07000000000000001,0.06,-0.07000000000000001,86.18000000000001
9395,47327234,0,0.86,-0.7,23.21,-0.008251593,-0.004439389,-0.3469817,-0.08260921,-0.9350783,0.6932691,-0.5858919,-0.07000000000000001,0.06,-0.07000000000000001,86.18000000000001
9436,47337220,0,0.86,-0.7,23.21,-0.00818082,-0.004350071,-0.3463202,-0.07792348,-0.9350783,0.6932691,-0.5853542,-0.07000000000000001,0.06,-0.07000000000000001,86.18000000000001
9478,47347582,0,0.86,-0.7,23.2,-0.008158689,-0.004222936,-0.3451331,-0.07165531,-0.9350783,0.6932691,-0.5853358,-0.07000000000000001,0.06,-0.07000000000000001,86.18000000000001
9518,47357622,0,0.86,-0.7,23.2,-0.008235459000000001,-0.00409126,-0.345096,-0.06317202,-0.9350783,0.6932691,-0.5887824,-0.07000000000000001,0.06,-0.07000000000000001,86.18000000000001
9559,47367614,0,0.86,-0.7,23.2,-0.008368224,-0.004110791,-0.3441612,-0.05538537,-0.9350783,0.6932691,-0.5885811,-0.07000000000000001,0.06,-0.07000000000000001,86.18000000000001
9599,47377641,0,0.86,-0.7,23.2,-0.008295415,-0.004046567,-0.3432545,-0.05048219,-0.9350783,0.6932691,-0.5885391,-0.07000000000000001,0.06,-0.07000000000000001,86.18000000000001
9644,47387785,0,0.86,-0.7,23.2,-0.008310229000000001,-0.004039811,-0.342606,-0.04713345,-0.9350783,0.6932691,-0.5886544,-0.07000000000000001,0.06,-0.07000000000000001,86.18000000000001
9686,47397785,0,0.86,-0.7,23.2,-0.008331105,-0.004036684,-0.3418124,-0.04690941,-0.9350783,0.6932691,-0.5889159,-0.07000000000000001,0.06,-0.07000000000000001,86.18000000000001
9729,47408105,0,0.86,-0.7,23.19,-0.008256123000000001,-0.004154963,-0.3416236,-0.04484574,-0.9350783,0.6852079,-0.592329,-0.07000000000000001,0.06,-0.07000000000000001,86.18000000000001
9767,47418545,0,0.86,-0.7,23.19,-0.008211003999999999,-0.004298057,-0.3409946,-0.04581498,-0.9350783,0.6852079,-0.5927207,-0.07000000000000001,0.06,-0.07000000000000001,86.18000000000001
9807,47428622,0,0.86,-0.7,23.19,-0.008368202,-0.004424748,-0.3396419,-0.04512844,-0.9350783,0.6852079,-0.5921844000000001,-0.07000000000000001,0.06,-0.07000000000000001,86.18000000000001
9851,47441035,0,0.86,-0.7,23.19,-0.008365812,-0.004526214,-0.3385911,-0.04343199,-0.9350783,0.6852079,-0.5928307,-0.07000000000000001,0.06,-0.07000000000000001,86.18000000000001
9892,47450816,0,0.86,-0.7,23.19,-0.008190133,-0.00435972,-0.3377984,-0.04180876,-0.9350783,0.6852079,-0.5926296,-0.07000000000000001,0.06,-0.07000000000000001,86.18000000000001
9933,47461273,0,0.86,-0.7,23.19,-0.008322621000000001,-0.004405796,-0.3368085,-0.03891047,-0.9350783,0.6852079,-0.5925984,-0.07000000000000001,0.06,-0.07000000000000001,86.18000000000001
9974,47471273,0,0.86,-0.7,23.19,-0.008329394,-0.004473221,-0.3359527,-0.03757654,-0.9350783,0.6852079,-0.5927199,-0.07000000000000001,0.06,-0.07000000000000001,86.18000000000001
10014,47481262,0,0.86,-0.7,23.19,-0.008527664000000001,-0.004586651,-0.3359244,-0.03489148,-0.9350783,0.6852079,-0.5960757,-0.07000000000000001,0.06,-0.07000000000000001,86.18000000000001
10059,47491280,0,0.85,-0.7,23.19,-0.008668647999999999,-0.004550457,-0.3350749,-0.03518181,-0.9350783,0.6852079,-0.5963315,-0.07000000000000001,0.06,-0.07000000000000001,86.18000000000001
10100,47501323,0,0.86,-0.7,23.18,-0.008632875999999999,-0.004551011,-0.3341704,-0.04080781,-0.9350783,0.6852079,-0.5967076,-0.07000000000000001,0.06,-0.07000000000000001,86.18000000000001
10142,47511264,0,0.86,-0.7,23.18,-0.008717523,-0.004481491,-0.3334213,-0.04684838,-0.9350783,0.6852079,-0.5972193,-0.07000000000000001,0.06,-0.07000000000000001,86.18000000000001
10182,47521295,0,0.86,-0.7,23.18,-0.008866832,-0.004526126,-0.3333504,-0.05077295,-0.9350783,0.6852079,-0.6005490999999999,-0.07000000000000001,0.06,-0.07000000000000001,86.18000000000001
10223,47531300,0,0.86,-0.7,23.18,-0.009116828,-0.004555582,-0.3321162,-0.05124769,-0.9350783,0.6852079,-0.5995052,-0.07000000000000001,0.06,-0.07000000000000001,86.18000000000001
10266,47541268,0,0.86,-0.6899999999999999,23.18,-0.009116002,-0.004538018,-0.3310235,-0.04852878,-0.9350783,0.6852079,-0.5986555,-0.07000000000000001,0.06,-0.07000000000000001,86.18000000000001
10307,47551334,0,0.86,-0.6899999999999999,23.17,-0.009130635999999999,-0.00446438,-0.3300374,-0.04628059,-0.9350783,0.6852079,-0.5979863,-0.07000000000000001,0.06,-0.07000000000000001,86.18000000000001
10349,47561272,0,0.86,-0.6899999999999999,23.17,-0.009144342,-0.004501826,-0.3291221,-0.04325867,-0.9350783,0.6852079,-0.5974982,-0.07000000000000001,0.06,-0.07000000000000001,86.18000000000001
10389,47571255,0,0.86,-0.6899999999999999,23.17,-0.009068883,-0.004689972,-0.3289363,-0.03668771,-0.9350783,0.6852079,-0.600785,-0.07000000000000001,0.06,-0.07000000000000001,86.18000000000001
10430,47581260,0,0.86,-0.6899999999999999,23.17,-0.009071259999999999,-0.004722904,-0.3281321,-0.03279833,-0.9350783,0.6852079,-0.6004516,-0.07000000000000001,0.06,-0.07000000000000001,86.18000000000001
10474,47591274,0,0.86,-0.6899999999999999,23.17,-0.009152916000000001,-0.004804081,-0.3273603,-0.02996621,-0.9350783,0.6852079,-0.6002833,-0.07000000000000001,0.06,-0.07000000000000001,86.18000000000001
10517,47601275,0,0.86,-0.6899999999999999,23.17,-0.009174543,-0.00488734,-0.3265283,-0.03006397,-0.9350783,0.6852079,-0.6002645,-0.07000000000000001,0.06,-0.07000000000000001,86.18000000000001
10557,47611667,0,0.86,-0.6899999999999999,23.17,-0.009203048,-0.004962879,-0.3256918,-0.03200756,-0.9350783,0.6771466,-0.6007138,-0.07000000000000001,0.06,-0.07000000000000001,86.18000000000001
10597,47621627,0,0.86,-0.6899999999999999,23.17,-0.009291057,-0.005003241,-0.3255945,-0.03255827,-0.9350783,0.6771466,-0.6039667,-0.07000000000000001,0.06,-0.07000000000000001,86.18000000000001
10641,47634195,0,0.86,-0.6899999999999999,23.16,-0.009205323,-0.005079973,-0.324655,-0.03349577,-0.9350783,0.6771466,-0.6039871,-0.07000000000000001,0.06,-0.07000000000000001,86.18000000000001
10681,47644437,0,0.86,-0.7,23.16,-0.009272209999999999,-0.005051953,-0.3237315,-0.03183978,-0.9350783,0.6771466,-0.6035336,-0.07000000000000001,0.06,-0.07000000000000001,86.18000000000001
10722,47654286,0,0.86,-0.7,23.16,-0.009395605,-0.005106828,-0.3229995,-0.03042844,-0.9350783,0.6771466,-0.6032484,-0.07000000000000001,0.06,-0.07000000000000001,86.18000000000001
10763,47664534,0,0.86,-0.7,23.16,-0.009491117,-0.004917608,-0.3222395,-0.03130042,-0.9350783,0.6771466,-0.603117,-0.07000000000000001,0.06,-0.07000000000000001,86.18000000000001
10803,47674413,0,0.86,-0.7,23.16,-0.009582647999999999,-0.004949819,-0.3213817,-0.03269025,-0.9350783,0.6771466,-0.6031402,-0.07000000000000001,0.06,-0.07000000000000001,86.18000000000001
10844,47684273,0,0.86,-0.7,23.15,-0.009747456999999999,-0.00490279,-0.3212884,-0.03205387,-0.9350783,0.6771466,-0.6063502,-0.07000000000000001,0.06,-0.07000000000000001,86.18000000000001
10888,47694225,0,0.86,-0.7,23.15,-0.009994253,-0.004978942,-0.3205295,-0.03396202,-0.9350783,0.6771466,-0.6065051,-0.07000000000000001,0.06,-0.07000000000000001,86.18000000000001
10929,47704612,0,0.86,-0.7,23.15,-0.009930052999999999,-0.005254446,-0.319605,-0.03810553,-0.9350783,0.6771466,-0.6071126,-0.07000000000000001,0.06,-0.07000000000000001,86.18000000000001
10969,47714620,0,0.86,-0.7,23.15,-0.009848226999999999,-0.005230013,-0.3188352,-0.04281474,-0.9350783,0.6771466,-0.6075303,-0.07000000000000001,0.06,-0.07000000000000001,86.18000000000001
11015,47727378,0,0.86,-0.7,23.15,-0.009853750999999999,-0.005252049,-0.3177436,-0.04849401,-0.9350783,0.6771466,-0.6071706,-0.07000000000000001,0.06,-0.07000000000000001,86.18000000000001
11059,47739726,0,0.86,-0.7,23.15,-0.01007172,-0.005347136,-0.3168738,-0.04672201,-0.9350783,0.6771466,-0.6073138,-0.07000000000000001,0.06,-0.07000000000000001,86.18000000000001
11103,47752046,0,0.86,-0.6899999999999999,23.15,-0.01006858,-0.005483381,-0.3160005,-0.04426092,-0.9350783,0.6771466,-0.6073085,-0.07000000000000001,0.06,-0.07000000000000001,86.18000000000001
11143,47762052,0,0.86,-0.6899999999999999,23.15,-0.01015642,-0.005357442,-0.3161469,-0.04238066,-0.9350783,0.6771466,-0.6104657,-0.07000000000000001,0.06,-0.07000000000000001,86.18000000000001
11184,47772615,0,0.86,-0.6899999999999999,23.15,-0.01027416,-0.005416709,-0.3151941,-0.04514532,-0.9350783,0.6771466,-0.6102616,-0.07000000000000001,0.06,-0.07000000000000001,86.18000000000001
11225,47782567,0,0.86,-0.6899999999999999,23.15,-0.01020175,-0.005260771,-0.3144428,-0.04607961,-0.9350783,0.6771466,-0.6099128,-0.07000000000000001,0.06,-0.07000000000000001,86.18000000000001
11270,47792644,0,0.86,-0.6899999999999999,23.15,-0.01008485,-0.005355846,-0.313633,-0.04813554,-0.9350783,0.6771466,-0.6097196,-0.07000000000000001,0.06,-0.07000000000000001,86.18000000000001
11313,47803032,0,0.86,-0.6899999999999999,23.15,-0.01015103,-0.005331411,-0.3135283,-0.04663097,-0.9350783,0.6771466,-0.6128521,-0.07000000000000001,0.06,-0.07000000000000001,86.18000000000001
11350,47813257,0,0.86,-0.6899999999999999,23.15,-0.01019656,-0.005347609,-0.3129905,-0.04724984,-0.9239463999999999,0.6690853,-0.6131129,-0.07000000000000001,0.06,-0.07000000000000001,86.18000000000001
11392,47823605,0,0.86,-0.6899999999999999,23.15,-0.01023334,-0.005481539,-0.3125057,-0.04930039,-0.9239463999999999,0.6690853,-0.6132095,-0.07000000000000001,0.06,-0.07000000000000001,86.18000000000001
11433,47833507,0,0.86,-0.6899999999999999,23.15,-0.010297,-0.005248126,-0.3117777,-0.05264872,-0.9239463999999999,0.6690853,-0.6130263,-0.07000000000000001,0.06,-0.07000000000000001,86.18000000000001
11474,47843784,0,0.86,-0.6899999999999999,23.15,-0.01029322,-0.005208915,-0.310803,-0.05561684,-0.9239463999999999,0.6690853,-0.6133012,-0.07000000000000001,0.06,-0.06,86.18000000000001
11515,47854545,0,0.86,-0.6899999999999999,23.15,-0.01040067,-0.005421164,-0.3103673,-0.05535442,-0.9239463999999999,0.6690853,-0.6164037999999999,-0.07000000000000001,0.06,-0.06,86.18000000000001
11556,47864618,0,0.86,-0.7,23.15,-0.01035228,-0.005321668,-0.3095441,-0.05679261,-0.9239463999999999,0.6690853,-0.6164964000000001,-0.07000000000000001,0.06,-0.06,86.18000000000001
11597,47874480,0,0.86,-0.6899999999999999,23.15,-0.01025938,-0.00530663,-0.3087692,-0.0585167,-0.9239463999999999,0.6690853,-0.6167283,-0.07000000000000001,0.06,-0.07000000000000001,86.18000000000001
11637,47884505,0,0.86,-0.6899999999999999,23.15,-0.01027901,-0.005331464,-0.3079669,-0.06212981,-0.9239463999999999,0.6690853,-0.6170881,-0.07000000000000001,0.06,-0.07000000000000001,86.18000000000001
11683,47894588,0,0.86,-0.6899999999999999,23.15,-0.01025354,-0.005334563,-0.30739,-0.06639607,-0.9239463999999999,0.6690853,-0.6175783,-0.07000000000000001,0.06,-0.07000000000000001,86.18000000000001
11724,47904655,0,0.86,-0.6899999999999999,23.15,-0.01060958,-0.00541575,-0.3069962,-0.0697079,-0.9239463999999999,0.6690853,-0.6185071,-0.07000000000000001,0.06,-0.07000000000000001,86.18000000000001
11764,47915701,0,0.86,-0.6899999999999999,23.15,-0.01077873,-0.005621573,-0.3069186,-0.07205859000000001,-0.9239463999999999,0.6690853,-0.6215734000000001,-0.07000000000000001,0.06,-0.07000000000000001,86.18000000000001
11806,47925282,0,0.86,-0.6899999999999999,23.15,-0.01082549,-0.005839266,-0.3062111,-0.07643829000000001,-0.9239463999999999,0.6690853,-0.6223007,-0.07000000000000001,0.06,-0.07000000000000001,86.18000000000001
11844,47935241,0,0.86,-0.6899999999999999,23.15,-0.01076065,-0.006005053,-0.3054133,-0.07906557,-0.9239463999999999,0.6690853,-0.6219336,-0.07000000000000001,0.06,-0.07000000000000001,86.18000000000001
11886,47945275,0,0.86,-0.6899999999999999,23.15,-0.01071041,-0.006265009,-0.304372,-0.08073088,-0.9239463999999999,0.6690853,-0.6217172,-0.07000000000000001,0.06,-0.07000000000000001,86.18000000000001
11926,47955647,0,0.86,-0.6899999999999999,23.15,-0.01072814,-0.006408757,-0.3043196,-0.08115246,-0.9239463999999999,0.6690853,-0.6247575,-0.07000000000000001,0.06,-0.07000000000000001,86.18000000000001
11967,47965290,0,0.86,-0.6899999999999999,23.15,-0.0108395,-0.006394702,-0.3033645,-0.08122914000000001,-0.9239463999999999,0.6690853,-0.6246628,-0.07000000000000001,0.06,-0.06,86.18000000000001
12008,47975576,0,0.86,-0.6899999999999999,23.15,-0.01096558,-0.006204708,-0.3024897,-0.08053447,-0.9239463999999999,0.6690853,-0.6247147,-0.07000000000000001,0.06,-0.06,86.18000000000001
12049,47985285,0,0.86,-0.7,23.15,-0.0109937,-0.006141216,-0.301925,-0.08143818,-0.9239463999999999,0.6690853,-0.6249012,-0.07000000000000001,0.06,-0.06,86.18000000000001
12096,47995667,0,0.86,-0.7,23.15,-0.0110463,-0.006207681,-0.3017362,-0.08215401999999999,-0.9239463999999999,0.6690853,-0.6279161,-0.07000000000000001,0.06,-0.06,86.18000000000001
12138,48005675,0,0.86,-0.7,23.15,-0.01107844,-0.006172547,-0.3010648,-0.08382124000000001,-0.9239463999999999,0.6690853,-0.6282103999999999,-0.07000000000000001,0.06,-0.06,86.18000000000001
12175,48016163,0,0.86,-0.6899999999999999,23.15,-0.01122524,-0.006212993,-0.3002129,-0.08629149,-0.9239463999999999,0.6610241,-0.628929,-0.07000000000000001,0.06,-0.06,86.18000000000001
12216,48025688,0,0.86,-0.6899999999999999,23.15,-0.01127476,-0.005975327,-0.2996472,-0.08881354,-0.9239463999999999,0.6610241,-0.6294717,-0.07000000000000001,0.06,-0.06,86.18000000000001
12261,48036377,0,0.86,-0.6899999999999999,23.14,-0.01119036,-0.005842676,-0.2986129,-0.08879942,-0.9239463999999999,0.6610241,-0.6281582,-0.07000000000000001,0.06,-0.06,86.18000000000001
12304,48048711,0,0.86,-0.6899999999999999,23.15,-0.01129298,-0.005838692,-0.2975045,-0.07863985,-0.9239463999999999,0.6610241,-0.627933,-0.07000000000000001,0.06,-0.06,86.18000000000001
12345,48058650,0,0.86,-0.6899999999999999,23.14,-0.01137235,-0.005820645,-0.2964889,-0.0715488,-0.9239463999999999,0.6610241,-0.6269907,-0.07000000000000001,0.06,-0.06,86.18000000000001
12385,48069020,0,0.86,-0.6899999999999999,23.14,-0.01158605,-0.005928161,-0.296309,-0.05962072,-0.9239463999999999,0.6610241,-0.6299517,-0.07000000000000001,0.06,-0.06,86.18000000000001
12426,48079050,0,0.86,-0.7,23.14,-0.01169113,-0.005949159,-0.2952598,-0.04951591,-0.9239463999999999,0.6610241,-0.6291716000000001,-0.07000000000000001,0.06,-0.06,86.18000000000001
12467,48089639,0,0.86,-0.6899999999999999,23.14,-0.01174844,-0.006089045,-0.2944254,-0.04073882,-0.9239463999999999,0.6610241,-0.6288502,-0.07000000000000001,0.06,-0.06,86.18000000000001
12511,48099645,0,0.86,-0.7,23.14,-0.01174637,-0.006206326,-0.2938493,-0.03406207,-0.9239463999999999,0.6610241,-0.6284004,-0.07000000000000001,0.06,-0.06,86.18000000000001
12552,48109652,0,0.86,-0.7,23.14,-0.0118384,-0.006370598,-0.2931038,-0.03039405,-0.9239463999999999,0.6610241,-0.6281023999999999,-0.07000000000000001,0.06,-0.06,86.18000000000001
12593,48119646,0,0.86,-0.7,23.14,-0.01186182,-0.006506627,-0.2928928,-0.02472582,-0.9239463999999999,0.6610241,-0.6310292,-0.07000000000000001,0.06,-0.06,86.18000000000001
12634,48129652,0,0.86,-0.7,23.14,-0.01175473,-0.006605708,-0.2919224,-0.02071442,-0.9239463999999999,0.6610241,-0.6308736,-0.07000000000000001,0.06,-0.06,86.18000000000001
12672,48139670,0,0.86,-0.6899999999999999,23.14,-0.01176214,-0.006766894,-0.2910426,-0.01755518,-0.9239463999999999,0.6610241,-0.62973,-0.07000000000000001,0.06,-0.06,86.18000000000001
12713,48149647,0,0.86,-0.6899999999999999,23.14,-0.01167521,-0.006591521,-0.2899671,-0.01278205,-0.9239463999999999,0.6610241,-0.6287733,-0.07000000000000001,0.06,-0.06,86.18000000000001
12755,48159650,0,0.86,-0.6899999999999999,23.14,-0.01177388,-0.006656684,-0.289009,-0.009875791,-0.9239463999999999,0.6610241,-0.6279858,-0.07000000000000001,0.06,-0.06,86.18000000000001
12795,48169676,0,0.86,-0.6899999999999999,23.13,-0.01203427,-0.006716351,-0.2889129,-0.003592401,-0.9239463999999999,0.6610241,-0.6308716,-0.07000000000000001,0.06,-0.06,86.18000000000001
12836,48179690,0,0.86,-0.6899999999999999,23.13,-0.0119486,-0.006795735,-0.2880907,0.001618576,-0.9239463999999999,0.6610241,-0.6302451,-0.07000000000000001,0.06,-0.06,86.18000000000001
12876,48189705,0,0.86,-0.6899999999999999,23.13,-0.01197629,-0.006894876,-0.2873352,0.003899483,-0.9239463999999999,0.6610241,-0.6297746,-0.07000000000000001,0.06,-0.06,86.18000000000001
12921,48199652,0,0.86,-0.6899999999999999,23.13,-0.01195544,-0.006828969,-0.2865457,0.0003807889,-0.9239463999999999,0.6610241,-0.6294383,-0.07000000000000001,0.06,-0.06,86.18000000000001
12964,48210058,0,0.86,-0.6899999999999999,23.13,-0.01207033,-0.007050353,-0.2865241,-0.0001752885,-0.9239463999999999,0.6529628,-0.6323002,-0.07000000000000001,0.06,-0.06,86.18000000000001
13005,48220010,0,0.86,-0.6899999999999999,23.13,-0.0122029,-0.007192242,-0.2859253,-0.002726665,-0.9239463999999999,0.6529628,-0.6321018,-0.07000000000000001,0.06,-0.06,86.18000000000001
13043,48230079,0,0.86,-0.6899999999999999,23.13,-0.01222565,-0.007196466,-0.2853788,-0.005882352,-0.9239463999999999,0.6529628,-0.6320508,-0.07000000000000001,0.06,-0.06,86.18000000000001
13084,48242608,0,0.86,-0.6899999999999999,23.12,-0.01215697,-0.007335676,-0.2842723,-0.007668855,-0.9239463999999999,0.6529628,-0.6313065,-0.07000000000000001,0.06,-0.06,86.18000000000001
13124,48252419,0,0.86,-0.6899999999999999,23.12,-0.01214823,-0.007237836,-0.2834058,-0.004898365,-0.9239463999999999,0.6529628,-0.6299122,-0.07000000000000001,0.06,-0.06,86.18000000000001
13165,48262467,0,0.86,-0.6899999999999999,23.12,-0.01221191,-0.006955171,-0.2820024,-0.001978895,-0.9239463999999999,0.6529628,-0.6287025000000001,-0.07000000000000001,0.06,-0.06,86.18000000000001
13206,48272665,0,0.86,-0.6899999999999999,23.12,-0.01241872,-0.006957164,-0.2819493,0.005337409,-0.9239463999999999,0.6529628,-0.6315191,-0.07000000000000001,0.06,-0.06,86.18000000000001
13248,48282635,0,0.86,-0.6899999999999999,23.12,-0.01243246,-0.006970817,-0.2811653,0.01217596,-0.9239463999999999,0.6529628,-0.6304857,-0.07000000000000001,0.06,-0.06,86.18000000000001
13293,48292319,0,0.86,-0.6899999999999999,23.12,-0.01252998,-0.006940058,-0.2801313,0.01662999,-0.9239463999999999,0.6529628,-0.6296225,-0.07000000000000001,0.06,-0.06,86.18000000000001
13333,48302694,0,0.86,-0.6899999999999999,23.12,-0.01249774,-0.00681547,-0.2791508,0.0199644,-0.9239463999999999,0.6529628,-0.6289277,-0.07000000000000001,0.06,-0.06,86.18000000000001
13374,48312721,0,0.86,-0.6899999999999999,23.11,-0.01263797,-0.006846192,-0.2781844,0.02007558,-0.9239463999999999,0.6529628,-0.6283873,-0.07000000000000001,0.06,-0.06,86.18000000000001
13415,48322746,0,0.86,-0.6899999999999999,23.11,-0.01269719,-0.006948917,-0.2779371,0.02221917,-0.9239463999999999,0.6529628,-0.6311648,-0.07000000000000001,0.06,-0.06,86.18000000000001
13456,48332746,0,0.86,-0.6899999999999999,23.11,-0.01272446,-0.006923075,-0.2768477,0.01919413,-0.9239463999999999,0.6529628,-0.6307450999999999,-0.07000000000000001,0.06,-0.06,86.18000000000001
13496,48345917,0,0.86,-0.6899999999999999,23.11,-0.01275362,-0.007124828,-0.2754363,0.01407435,-0.9239463999999999,0.6529628,-0.6293309,-0.07000000000000001,0.06,-0.06,86.18000000000001
13537,48356803,0,0.86,-0.6899999999999999,23.11,-0.01274365,-0.007059506,-0.2742352,0.01269899,-0.9239463999999999,0.6529628,-0.6275716,-0.07000000000000001,0.06,-0.06,86.18000000000001
13579,48366644,0,0.86,-0.6899999999999999,23.11,-0.01281935,-0.007101263,-0.273894,0.01982205,-0.9239463999999999,0.6529628,-0.6303094,-0.07000000000000001,0.06,-0.06,86.18000000000001
13620,48376659,0,0.86,-0.6899999999999999,23.11,-0.01281757,-0.007168058,-0.2728175,0.02323556,-0.9239463999999999,0.6529628,-0.6284537,-0.07000000000000001,0.06,-0.06,86.18000000000001
13661,48387103,0,0.86,-0.6899999999999999,23.11,-0.01305853,-0.007247013,-0.2716556,0.02677878,-0.9239463999999999,0.6529628,-0.6268037,-0.07000000000000001,0.06,-0.06,86.18000000000001
13705,48397161,0,0.86,-0.6899999999999999,23.1,-0.01311595,-0.007253073,-0.2712179,0.03172461,-0.9239463999999999,0.6529628,-0.6295148,-0.07000000000000001,0.06,-0.06,86.18000000000001
13746,48407061,0,0.86,-0.6899999999999999,23.11,-0.01304661,-0.007348989,-0.2700528,0.03583377,-0.9239463999999999,0.6529628,-0.6280287,-0.07000000000000001,0.06,-0.06,86.18000000000001
13790,48417073,0,0.86,-0.6899999999999999,23.11,-0.006094783,-0.0179561,-0.2690625,0.03487012,-0.9239585,0.6448656,-0.6267142,-0.07000000000000001,0.06,-0.06,86.18000000000001
13828,48427704,0,0.86,-0.6899999999999999,23.11,-0.006241602,-0.01811387,-0.2679093,0.03458508,-0.9240053,0.6446434,-0.6258494,-0.07000000000000001,0.06,-0.06,86.18000000000001
13868,48437641,0,0.86,-0.6899999999999999,23.11,-0.006397609,-0.0182161,-0.2676526,0.03757392,-0.9240685,0.644462,-0.6285242,-0.07000000000000001,0.06,-0.06,86.18000000000001
13909,48447612,0,0.86,-0.6899999999999999,23.11,-0.006554182,-0.01834384,-0.2667436,0.03992312,-0.9241186,0.644242,-0.627561,-0.07000000000000001,0.06,-0.06,86.18000000000001
13950,48457662,0,0.86,-0.6899999999999999,23.1,-0.006727894,-0.01824727,-0.2655164,0.04257111,-0.9241757,0.6440095,-0.6255676999999999,-0.07000000000000001,0.06,-0.06,86.18000000000001
13992,48468317,0,0.86,-0.6899999999999999,23.1,-0.006901516,-0.01816946,-0.2642596,0.04529231,-0.9242395,0.6437667,-0.6237819999999999,-0.07000000000000001,0.06,-0.06,86.18000000000001
14033,48478721,0,0.86,-0.6899999999999999,23.1,-0.006771695,-0.01804978,-0.2630545,0.04888003,-0.9243163,0.6434957,-0.6224565,-0.07000000000000001,0.06,-0.06,86.18000000000001
14073,48489235,0,0.86,-0.6899999999999999,23.1,-0.006821447,-0.01809413,-0.2628959,0.05556051,-0.9243839,0.6433148,-0.6250831,-0.07000000000000001,0.06,-0.06,86.18000000000001
14118,48499221,0,0.86,-0.6899999999999999,23.1,-0.006976711,-0.01795859,-0.2616992,0.06007938,-0.924459,0.6430538,-0.6236737,-0.07000000000000001,0.06,-0.06,86.18000000000001
14159,48509200,0,0.86,-0.6899999999999999,23.1,-0.006913492,-0.01809972,-0.2608526,0.0634314,-0.9245394,0.6427821,-0.6224551,-0.07000000000000001,0.06,-0.06,86.18000000000001
14200,48519251,0,0.86,-0.6899999999999999,23.1,-0.006995076,-0.01808875,-0.2601651,0.06350161,-0.9246247,0.6424997,-0.6214117,-0.07000000000000001,0.06,-0.06,86.18000000000001
14243,48529717,0,0.86,-0.6899999999999999,23.1,-0.007198579,-0.01824876,-0.2591154,0.06204696,-0.9247192,0.642203,-0.6207948,-0.07000000000000001,0.06,-0.06,86.18000000000001
14283,48539761,0,0.86,-0.6899999999999999,23.1,-0.007221272,-0.01823158,-0.2588061,0.06218557,-0.924791,0.6420206000000001,-0.6233817,-0.07000000000000001,0.06,-0.06,86.18000000000001
14324,48549724,0,0.86,-0.6899999999999999,23.1,-0.007337359,-0.01838806,-0.2577339,0.06557863999999999,-0.9248804,0.6417446999999999,-0.6212429,-0.07000000000000001,0.06,-0.06,86.18000000000001
14366,48559690,0,0.86,-0.6899999999999999,23.1,-0.007156093,-0.01835806,-0.2566338,0.06871099,-0.9249694000000001,0.6414725,-0.6193166,-0.07000000000000001,0.06,-0.06,86.18000000000001
14407,48569612,0,0.86,-0.6899999999999999,23.1,-0.007056307,-0.0186129,-0.2553155,0.07287826999999999,-0.9250561,0.6412035,-0.6176017,-0.07000000000000001,0.06,-0.06,86.18000000000001
14449,48579671,0,0.86,-0.6899999999999999,23.1,-0.007203246,-0.01883527,-0.2543568,0.07423958,-0.9251431,0.6409357,-0.6160788,-0.07000000000000001,0.06,-0.06,86.18000000000001
14490,48590486,0,0.86,-0.6899999999999999,23.1,-0.007266467,-0.01880787,-0.2542232,0.07914056999999999,-0.9252151,0.6407477,-0.6186186,-0.07000000000000001,0.06,-0.06,86.18000000000001
14536,48600347,0,0.86,-0.6899999999999999,23.1,-0.007296987,-0.01886854,-0.2530389,0.0814001,-0.9253038,0.6404822,-0.6172701,-0.07000000000000001,0.06,-0.06,86.18000000000001
14576,48610493,0,0.86,-0.6899999999999999,23.09,-0.007396504,-0.01892016,-0.2521442,0.08220843999999999,-0.9253933,0.64022,-0.6161065999999999,-0.07000000000000001,0.06,-0.06,86.18000000000001
14616,48620633,0,0.86,-0.7,23.09,-0.007277768,-0.01824895,-0.2499194,0.08508803,-0.9254213,0.6399203999999999,-0.6121105,-0.07000000000000001,0.06,-0.06,86.18000000000001
14653,48630679,0,0.85,-0.7,23.09,-0.00703265,-0.01759067,-0.2477809,0.09224526,-0.9254398,0.6396582,-0.6081491,-0.07000000000000001,0.06,-0.06,86.18000000000001
14694,48640910,0,0.85,-0.6899999999999999,23.09,-0.007310299,-0.01749384,-0.247632,0.1106956,-0.9255118,0.6394829,-0.6106235,-0.07000000000000001,0.06,-0.06,86.18000000000001
14731,48650668,0,0.85,-0.6899999999999999,23.09,-0.007341118,-0.01667667,-0.245372,0.1346776,-0.9255296,0.6392475,-0.6058696,-0.07000000000000001,0.06,-0.06,86.18000000000001
14772,48660900,0,0.85,-0.6899999999999999,23.09,-0.007172493,-0.01594079,-0.2432204,0.1576634,-0.9255475,0.6390314,-0.6014213,-0.07000000000000001,0.06,-0.06,86.18000000000001
14813,48671213,0,0.85,-0.6899999999999999,23.09,-0.007085423,-0.01522629,-0.2416459,0.1773512,-0.9255645,0.6388317999999999,-0.5972689,-0.07000000000000001,0.06,-0.06,86.18000000000001
14855,48681698,0,0.86,-0.7,23.09,-0.007044472,-0.01450062,-0.2401068,0.1972535,-0.9255878,0.6386352,-0.5936408,-0.07000000000000001,0.06,-0.06,86.18000000000001
14896,48692000,0,0.86,-0.6899999999999999,23.09,-0.007173887,-0.01456342,-0.2399371,0.218718,-0.9256586,0.6384900999999999,-0.5960391,-0.07000000000000001,0.06,-0.06,86.18000000000001
