LineNo,TimeUS,C,Roll,Pitch,Yaw,VN,VE,VD,dPD,PN,PE,PD,GX,GY,GZ,OH
426,45014152,1,1.62,-0.42,24.19,-0.2301735,-0.1060433,-0.02905883,0.04740738,-0.8237594,0.7738819,-0.08774170000000001,0.11,0.21,0.15,86.2
883,45099738,1,1.64,-0.43,24.2,-0.2283975,-0.1089063,-0.02466867,0.04144113,-0.8237594,0.7738819,-0.08441509,0.1,0.2,0.14,86.2
1110,45178488,1,1.62,-0.41,24.19,-0.2322327,-0.1103023,-0.1818781,-0.12404,-0.8237594,0.7738819,-0.08715869,0.1,0.2,0.14,86.2
1312,45304627,1,1.62,-0.38,24.2,-0.2341792,-0.110206,-0.4398582,-0.3558473,-0.8460232,0.7738819,-0.1186632,0.1,0.19,0.13,86.2
1588,45363589,1,1.62,-0.38,24.2,-0.2347249,-0.1089267,-0.4344128,-0.3568165,-0.8460232,0.7738819,-0.1397132,0.1,0.19,0.13,86.2
1630,45373757,1,1.62,-0.38,24.2,-0.2358783,-0.109905,-0.4344814,-0.3565667,-0.8460232,0.7738819,-0.1444774,0.1,0.19,0.13,86.2
1671,45383773,1,1.62,-0.37,24.2,-0.2358108,-0.1102466,-0.4328702,-0.3559215,-0.8460232,0.7738819,-0.1480515,0.1,0.19,0.13,86.2
1711,45394011,1,1.63,-0.37,24.2,-0.2347844,-0.1093624,-0.4313638,-0.3549332,-0.8460232,0.7738819,-0.1512007,0.1,0.19,0.13,86.2
1752,45403718,1,1.63,-0.37,24.2,-0.233114,-0.1094563,-0.4316204,-0.3550316,-0.8460232,0.7738819,-0.1544897,0.1,0.19,0.14,86.2
1794,45413894,1,1.63,-0.38,24.2,-0.232296,-0.1104893,-0.4318212,-0.355388,-0.8571550999999999,0.7658205,-0.157801,0.1,0.19,0.14,86.2
1836,45424258,1,1.63,-0.38,24.19,-0.2338241,-0.1120115,-0.4317728,-0.3542345,-0.8571550999999999,0.7658205,-0.1621252,0.1,0.19,0.14,86.2
1876,45434463,1,1.63,-0.38,24.19,-0.2335567,-0.1123705,-0.4311799,-0.3533747,-0.8571550999999999,0.7658205,-0.1654995,0.1,0.19,0.14,86.2
1917,45444702,1,1.63,-0.38,24.19,-0.2340804,-0.1119736,-0.4300154,-0.3515435,-0.8571550999999999,0.7658205,-0.1693569,0.1,0.2,0.14,86.2
1962,45455653,1,1.62,-0.38,24.19,-0.2335437,-0.1113748,-0.4287527,-0.34996,-0.8571550999999999,0.7658205,-0.1728518,0.1,0.2,0.14,86.2
2002,45465887,1,1.62,-0.38,24.19,-0.2340427,-0.1110389,-0.4272452,-0.3491761,-0.8571550999999999,0.7658205,-0.1767995,0.1,0.2,0.14,86.2
2045,45475682,1,1.62,-0.38,24.19,-0.2330142,-0.1119801,-0.4263735,-0.3495871,-0.8571550999999999,0.7658205,-0.1803487,0.1,0.2,0.14,86.2
2085,45485712,1,1.62,-0.37,24.18,-0.2339237,-0.1134576,-0.4244191,-0.3497914,-0.8571550999999999,0.7658205,-0.183964,0.1,0.2,0.14,86.2
2129,45499524,1,1.61,-0.37,24.18,-0.2344318,-0.113153,-0.4246797,-0.3522901,-0.8571550999999999,0.7658205,-0.1887549,0.1,0.2,0.14,86.2
2169,45509628,1,1.61,-0.37,24.18,-0.2338466,-0.1126907,-0.4255396,-0.3553524,-0.8571550999999999,0.7658205,-0.192343,0.1,0.2,0.14,86.2
2210,45519630,1,1.61,-0.37,24.17,-0.2340348,-0.1131222,-0.4231689,-0.3545744,-0.8571550999999999,0.7658205,-0.1965993,0.1,0.2,0.14,86.2
2254,45530049,1,1.61,-0.37,24.18,-0.2323778,-0.1119137,-0.4238554,-0.3577245,-0.8571550999999999,0.7658205,-0.200602,0.1,0.2,0.14,86.2
2295,45540353,1,1.62,-0.37,24.18,-0.2327557,-0.1114717,-0.4260397,-0.3625148,-0.8571550999999999,0.7658205,-0.2042781,0.1,0.2,0.14,86.2
2338,45550297,1,1.62,-0.38,24.18,-0.2317342,-0.1105636,-0.4265164,-0.3659281,-0.8571550999999999,0.7658205,-0.2079714,0.1,0.2,0.14,86.2
2382,45560385,1,1.62,-0.38,24.18,-0.2334148,-0.110757,-0.4272172,-0.3694859,-0.8571550999999999,0.7658205,-0.2122563,0.1,0.2,0.14,86.2
2423,45570541,1,1.62,-0.38,24.18,-0.2320925,-0.1095105,-0.4273893,-0.3727646,-0.8571550999999999,0.7658205,-0.2159965,0.1,0.2,0.14,86.2
2465,45581009,1,1.63,-0.37,24.18,-0.2323311,-0.1090725,-0.4261094,-0.3753161,-0.8571550999999999,0.7658205,-0.2202252,0.1,0.2,0.14,86.2
2506,45591304,1,1.63,-0.37,24.18,-0.2325022,-0.1101218,-0.4273382,-0.3799371,-0.8571550999999999,0.7658205,-0.2244816,0.1,0.2,0.14,86.2
2546,45601654,1,1.63,-0.38,24.17,-0.2309877,-0.1105833,-0.4274868,-0.3842587,-0.8571550999999999,0.7658205,-0.22872,0.1,0.2,0.14,86.2
2589,45611986,1,1.63,-0.37,24.17,-0.2327319,-0.1105747,-0.4274917,-0.3880179,-0.8571550999999999,0.7658205,-0.2330014,0.1,0.2,0.14,86.2
2631,45622648,1,1.63,-0.38,24.16,-0.23078,-0.112387,-0.4278568,-0.3893303,-0.868287,0.749698,-0.2364168,0.1,0.2,0.14,86.2
2671,45632653,1,1.63,-0.38,24.16,-0.2302759,-0.1131268,-0.4274911,-0.3876644,-0.868287,0.749698,-0.2395163,0.1,0.2,0.14,86.2
2712,45642721,1,1.62,-0.38,24.16,-0.230234,-0.112625,-0.4277615,-0.3842022,-0.868287,0.749698,-0.2426761,0.1,0.2,0.14,86.2
2752,45653057,1,1.62,-0.38,24.16,-0.2294577,-0.1120365,-0.4265452,-0.3788629,-0.868287,0.749698,-0.2459045,0.1,0.2,0.14,86.2
2798,45663053,1,1.62,-0.39,24.16,-0.230308,-0.1131404,-0.4261325,-0.3746333,-0.868287,0.749698,-0.2501571,0.1,0.2,0.14,86.2
2839,45673066,1,1.62,-0.39,24.16,-0.2294848,-0.112069,-0.4260782,-0.370919,-0.868287,0.749698,-0.253394,0.1,0.2,0.14,86.2
2880,45683621,1,1.62,-0.39,24.15,-0.2296318,-0.1115876,-0.4265521,-0.3683937,-0.868287,0.749698,-0.2567661,0.1,0.2,0.14,86.2
2922,45694081,1,1.62,-0.39,24.15,-0.229606,-0.1123965,-0.4266873,-0.3658567,-0.868287,0.749698,-0.2606026,0.1,0.2,0.14,86.2
2962,45704169,1,1.62,-0.39,24.15,-0.2309246,-0.1128186,-0.4278231,-0.3653743,-0.868287,0.749698,-0.264872,0.1,0.2,0.14,86.2
3000,45714671,1,1.62,-0.39,24.14,-0.2302959,-0.1116007,-0.4260014,-0.3610309,-0.868287,0.749698,-0.2677271,0.1,0.2,0.14,86.2
3041,45724597,1,1.63,-0.39,24.15,-0.2286138,-0.1122326,-0.4236942,-0.3568787,-0.868287,0.749698,-0.2706522,0.1,0.2,0.14,86.2
3081,45734614,1,1.63,-0.39,24.15,-0.2286045,-0.1130337,-0.4221409,-0.3525654,-0.868287,0.749698,-0.2736288,0.1,0.2,0.14,86.2
3123,45745118,1,1.64,-0.39,24.15,-0.2303241,-0.1143697,-0.42414,-0.3497666,-0.868287,0.749698,-0.2783103,0.1,0.2,0.14,86.2
3163,45755675,1,1.64,-0.39,24.15,-0.2300132,-0.1132618,-0.4241663,-0.3466217,-0.868287,0.749698,-0.2813774,0.1,0.2,0.14,86.2
3208,45765714,1,1.64,-0.39,24.15,-0.2310814,-0.1131875,-0.4228455,-0.3446011,-0.868287,0.749698,-0.2856227,0.1,0.2,0.14,86.2
3248,45775697,1,1.64,-0.39,24.15,-0.2305844,-0.1121844,-0.4224821,-0.3436054,-0.868287,0.749698,-0.2887108,0.1,0.2,0.14,86.2
3289,45785707,1,1.64,-0.4,24.15,-0.2301044,-0.1137656,-0.4234197,-0.344703,-0.868287,0.749698,-0.2923074,0.1,0.2,0.14,86.2
3330,45795998,1,1.64,-0.4,24.15,-0.2304795,-0.1136653,-0.4241816,-0.3458723,-0.868287,0.749698,-0.2955774,0.1,0.2,0.14,86.2
3372,45806685,1,1.64,-0.4,24.15,-0.2301787,-0.114514,-0.4247828,-0.3457759,-0.868287,0.749698,-0.299314,0.1,0.2,0.14,86.2
3416,45816645,1,1.64,-0.39,24.15,-0.2309323,-0.1158091,-0.4245853,-0.3443769,-0.868287,0.749698,-0.3035408,0.1,0.2,0.14,86.2
3453,45827780,1,1.63,-0.39,24.15,-0.2300398,-0.1152357,-0.4247467,-0.341273,-0.8794187999999999,0.749698,-0.3064019,0.1,0.2,0.14,86.2
3496,45838113,1,1.63,-0.39,24.15,-0.229267,-0.1150138,-0.4240014,-0.3350359,-0.8794187999999999,0.749698,-0.3089207,0.1,0.2,0.14,86.2
3536,45848100,1,1.63,-0.38,24.15,-0.2283695,-0.1142959,-0.4232427,-0.3283065,-0.8794187999999999,0.749698,-0.3115516,0.1,0.2,0.14,86.2
3578,45858126,1,1.62,-0.38,24.15,-0.2272442,-0.113704,-0.4229492,-0.324461,-0.8794187999999999,0.749698,-0.3142482,0.1,0.2,0.14,86.2
3626,45868683,1,1.62,-0.38,24.15,-0.2285935,-0.1132313,-0.4220311,-0.317866,-0.8794187999999999,0.749698,-0.3188816,0.1,0.2,0.14,86.2
3666,45878655,1,1.63,-0.38,24.15,-0.2263293,-0.1125699,-0.4229203,-0.3150274,-0.8794187999999999,0.749698,-0.3212257,0.1,0.2,0.14,86.2
3707,45889208,1,1.63,-0.39,24.16,-0.2260836,-0.1115721,-0.4251649,-0.3139057,-0.8794187999999999,0.749698,-0.3245495,0.1,0.2,0.14,86.2
3748,45899268,1,1.63,-0.39,24.16,-0.2258897,-0.1105788,-0.4244276,-0.3108889,-0.8794187999999999,0.749698,-0.3275058,0.1,0.2,0.14,86.2
3792,45912527,1,1.64,-0.38,24.16,-0.2255044,-0.1112449,-0.4253276,-0.3088975,-0.8794187999999999,0.749698,-0.331046,0.1,0.2,0.14,86.2
3832,45922279,1,1.64,-0.39,24.16,-0.2268925,-0.1120183,-0.4239483,-0.3047116,-0.8794187999999999,0.749698,-0.3352842,0.1,0.2,0.14,86.2
3874,45932641,1,1.64,-0.39,24.16,-0.2261864,-0.1127528,-0.4252263,-0.303097,-0.8794187999999999,0.749698,-0.3376547,0.1,0.2,0.14,86.2
3915,45942269,1,1.64,-0.39,24.16,-0.2253086,-0.113118,-0.4232102,-0.2975121,-0.8794187999999999,0.749698,-0.3401344,0.1,0.2,0.14,86.2
3955,45952263,1,1.64,-0.39,24.16,-0.2246023,-0.1136928,-0.4228249,-0.29439,-0.8794187999999999,0.749698,-0.3426785,0.1,0.2,0.14,86.2
3996,45962609,1,1.64,-0.39,24.16,-0.2246792,-0.1142547,-0.4232615,-0.2923619,-0.8794187999999999,0.749698,-0.3453101,0.1,0.2,0.14,86.2
4042,45972283,1,1.63,-0.38,24.15,-0.226258,-0.1146906,-0.4229434,-0.288281,-0.8794187999999999,0.749698,-0.3495115,0.1,0.2,0.14,86.2
4084,45982298,1,1.63,-0.38,24.15,-0.2266985,-0.1147171,-0.4221858,-0.2855899,-0.8794187999999999,0.749698,-0.3522637,0.1,0.2,0.14,86.2
4124,45992263,1,1.63,-0.38,24.15,-0.2254201,-0.115232,-0.4228334,-0.2851625,-0.8794187999999999,0.749698,-0.3550167,0.1,0.2,0.14,86.2
4168,46002293,1,1.63,-0.38,24.15,-0.2248539,-0.1156948,-0.4236183,-0.2863377,-0.8794187999999999,0.7416367,-0.3579344,0.1,0.2,0.14,86.2
4208,46015582,1,1.63,-0.38,24.15,-0.2245174,-0.1151712,-0.4241031,-0.2855163,-0.8794187999999999,0.7416367,-0.3617553,0.1,0.21,0.14,86.2
4249,46025192,1,1.62,-0.38,24.15,-0.2235788,-0.114877,-0.4232494,-0.2846264,-0.8794187999999999,0.7416367,-0.3643766,0.1,0.21,0.14,86.2
4290,46035808,1,1.62,-0.38,24.15,-0.224778,-0.1156389,-0.4220858,-0.2832467,-0.8794187999999999,0.7416367,-0.3686837,0.1,0.21,0.14,86.2
4332,46045730,1,1.62,-0.38,24.15,-0.2231498,-0.1163401,-0.4217206,-0.2836105,-0.8794187999999999,0.7416367,-0.3712972,0.1,0.21,0.14,86.2
4373,46055855,1,1.63,-0.37,24.15,-0.2226773,-0.1158232,-0.4218248,-0.2846004,-0.8794187999999999,0.7416367,-0.3740953,0.1,0.21,0.14,86.2
4413,46065796,1,1.63,-0.37,24.15,-0.221699,-0.1154843,-0.4203749,-0.2833194,-0.8794187999999999,0.7416367,-0.3769504,0.1,0.21,0.14,86.2
4459,46076074,1,1.63,-0.37,24.16,-0.2205728,-0.1146921,-0.4208601,-0.2841851,-0.8794187999999999,0.7416367,-0.3803181,0.1,0.21,0.14,86.2
4499,46086020,1,1.64,-0.37,24.16,-0.2204807,-0.1146562,-0.4197782,-0.2847101,-0.8794187999999999,0.7416367,-0.3833089,0.11,0.21,0.14,86.2
4540,46096043,1,1.64,-0.37,24.16,-0.2199781,-0.1143831,-0.419244,-0.2856967,-0.8794187999999999,0.7416367,-0.3863968,0.11,0.21,0.15,86.2
4581,46106111,1,1.64,-0.37,24.16,-0.2201097,-0.115107,-0.4205482,-0.2900041,-0.8794187999999999,0.7416367,-0.3905972,0.11,0.21,0.15,86.2
4622,46119228,1,1.64,-0.37,24.16,-0.2194046,-0.1151171,-0.4197576,-0.2919928,-0.8794187999999999,0.7416367,-0.3943639,0.11,0.21,0.15,86.2
4664,46129625,1,1.64,-0.37,24.16,-0.2193452,-0.11599,-0.4197521,-0.2936026,-0.8794187999999999,0.7416367,-0.3969927,0.11,0.21,0.15,86.2
4704,46139675,1,1.64,-0.38,24.15,-0.2196985,-0.1155199,-0.4198879,-0.2967442,-0.8794187999999999,0.7416367,-0.399657,0.1,0.21,0.15,86.2
4745,46149669,1,1.64,-0.38,24.15,-0.2203809,-0.1159099,-0.4209603,-0.2996929,-0.8794187999999999,0.7416367,-0.4038767,0.1,0.21,0.15,86.2
4786,46159625,1,1.63,-0.38,24.15,-0.2208327,-0.1146885,-0.4193646,-0.3001646,-0.8794187999999999,0.7416367,-0.4066308,0.1,0.21,0.14,86.2
4830,46169640,1,1.63,-0.38,24.15,-0.2224317,-0.1143774,-0.420509,-0.3019073,-0.8794187999999999,0.7416367,-0.4094848,0.11,0.21,0.15,86.2
4871,46180017,1,1.63,-0.38,24.15,-0.2224108,-0.1133652,-0.4187216,-0.3025935,-0.8794187999999999,0.7416367,-0.4127804,0.1,0.21,0.15,86.2
4912,46190017,1,1.62,-0.38,24.16,-0.2217735,-0.1129745,-0.420245,-0.3053409,-0.8794187999999999,0.7416367,-0.415789,0.11,0.21,0.15,86.2
4953,46200004,1,1.62,-0.38,24.16,-0.2225562,-0.1124965,-0.4204509,-0.3075829,-0.8794187999999999,0.7416367,-0.4199859,0.11,0.21,0.15,86.2
4995,46210082,1,1.62,-0.38,24.16,-0.2228327,-0.1117388,-0.4208235,-0.3107598,-0.9016826999999999,0.7335755,-0.423038,0.11,0.21,0.15,86.2
5037,46220457,1,1.62,-0.38,24.16,-0.2242339,-0.1120324,-0.4194129,-0.3144682,-0.9016826999999999,0.7335755,-0.4272748,0.11,0.21,0.15,86.2
5078,46230895,1,1.62,-0.38,24.16,-0.2242737,-0.1118076,-0.4167561,-0.3160843,-0.9016826999999999,0.7335755,-0.4296025,0.1,0.21,0.14,86.2
5119,46240904,1,1.63,-0.39,24.16,-0.222726,-0.1130035,-0.4163795,-0.31344,-0.9016826999999999,0.7335755,-0.4316925,0.1,0.21,0.14,86.2
5160,46250895,1,1.63,-0.39,24.16,-0.2217267,-0.11282,-0.4170692,-0.3101934,-0.9016826999999999,0.7335755,-0.4338229,0.1,0.21,0.14,86.2
5201,46260894,1,1.63,-0.39,24.16,-0.2218437,-0.1123594,-0.4174744,-0.306816,-0.9016826999999999,0.7335755,-0.4361382,0.1,0.21,0.14,86.2
5245,46271194,1,1.63,-0.39,24.16,-0.2228877,-0.1133738,-0.4166622,-0.2997806,-0.9016826999999999,0.7335755,-0.4402509,0.1,0.21,0.14,86.2
5287,46281205,1,1.64,-0.39,24.16,-0.2230656,-0.1118353,-0.4171201,-0.2954329,-0.9016826999999999,0.7335755,-0.4426534,0.1,0.21,0.15,86.2
5327,46291166,1,1.64,-0.39,24.16,-0.2216934,-0.1105645,-0.4166423,-0.2907308,-0.9016826999999999,0.7335755,-0.4450985,0.1,0.21,0.15,86.2
5368,46301135,1,1.64,-0.39,24.16,-0.2218787,-0.1107773,-0.4179512,-0.2892884,-0.9016826999999999,0.7335755,-0.4476798,0.1,0.21,0.15,86.2
5408,46311204,1,1.64,-0.38,24.16,-0.2206503,-0.1112208,-0.4181138,-0.2860883,-0.9016826999999999,0.7335755,-0.4503567,0.11,0.21,0.15,86.2
5452,46324190,1,1.63,-0.38,24.16,-0.2191463,-0.1094396,-0.4170249,-0.2806605,-0.9016826999999999,0.7335755,-0.4534947,0.11,0.21,0.15,86.2
5492,46334221,1,1.62,-0.38,24.15,-0.2187078,-0.1091113,-0.4166896,-0.2775021,-0.9016826999999999,0.7335755,-0.4555575,0.11,0.21,0.15,86.2
5534,46344746,1,1.62,-0.38,24.15,-0.2206612,-0.1095469,-0.4162442,-0.2713101,-0.9016826999999999,0.7335755,-0.4597418,0.11,0.21,0.15,86.2
5576,46355080,1,1.61,-0.38,24.15,-0.2192492,-0.1093937,-0.4167328,-0.267977,-0.9016826999999999,0.7335755,-0.4622766,0.11,0.21,0.15,86.2
5616,46365123,1,1.62,-0.38,24.15,-0.2179536,-0.1093374,-0.415992,-0.2656268,-0.9016826999999999,0.7335755,-0.4645205,0.11,0.21,0.15,86.2
5661,46375668,1,1.61,-0.38,24.15,-0.2180822,-0.1082621,-0.4153408,-0.2644927,-0.9016826999999999,0.7335755,-0.4668213,0.11,0.21,0.15,86.2
5702,46385975,1,1.62,-0.38,24.15,-0.2193577,-0.1094538,-0.4148043,-0.2615907,-0.9016826999999999,0.7335755,-0.4713927,0.11,0.21,0.15,86.2
5743,46395931,1,1.62,-0.38,24.15,-0.2198141,-0.1092831,-0.413335,-0.2593189,-0.9016826999999999,0.7335755,-0.4738018,0.11,0.21,0.15,86.2
5783,46405707,1,1.62,-0.38,24.15,-0.2187511,-0.1083732,-0.4141322,-0.2606221,-0.9016826999999999,0.7335755,-0.4762592,0.11,0.21,0.15,86.2
5826,46416435,1,1.62,-0.38,24.15,-0.2189423,-0.1076495,-0.4148071,-0.261054,-0.9128146,0.7255142,-0.4777102,0.11,0.21,0.15,86.2
5864,46426692,1,1.63,-0.38,24.15,-0.2176452,-0.1073868,-0.4132596,-0.2553321,-0.9128146,0.7255142,-0.4792843,0.11,0.21,0.15,86.2
5905,46436884,1,1.63,-0.38,24.15,-0.2165532,-0.1076621,-0.4112865,-0.2484719,-0.9128146,0.7255142,-0.4810366,0.11,0.21,0.15,86.2
5947,46447118,1,1.63,-0.38,24.15,-0.21785,-0.1081996,-0.410508,-0.2398593,-0.9128146,0.7255142,-0.485476,0.11,0.21,0.15,86.2
5987,46457057,1,1.63,-0.38,24.15,-0.215684,-0.1092564,-0.4068266,-0.2314582,-0.9128146,0.7255142,-0.4872513,0.11,0.21,0.15,86.2
6028,46467603,1,1.62,-0.38,24.14,-0.2164514,-0.108292,-0.4070009,-0.2275751,-0.9128146,0.7255142,-0.4891102,0.11,0.21,0.15,86.2
6074,46477690,1,1.62,-0.38,24.15,-0.2158868,-0.108877,-0.4053968,-0.221378,-0.9128146,0.7255142,-0.4914984,0.11,0.21,0.15,86.2
6114,46487698,1,1.62,-0.38,24.15,-0.2144132,-0.1086934,-0.4042329,-0.2176995,-0.9128146,0.7255142,-0.4935844,0.11,0.21,0.15,86.2
6155,46497703,1,1.62,-0.38,24.14,-0.215332,-0.1087371,-0.4026023,-0.2161236,-0.9128146,0.7255142,-0.4957307,0.11,0.21,0.15,86.2
6195,46507695,1,1.61,-0.37,24.14,-0.2171122,-0.1088876,-0.4019156,-0.2144534,-0.9128146,0.7255142,-0.4997386,0.11,0.21,0.15,86.2
6236,46518204,1,1.61,-0.37,24.14,-0.2170894,-0.1085974,-0.4026833,-0.2131326,-0.9128146,0.7255142,-0.5007578,0.11,0.22,0.15,86.2
6273,46528312,1,1.61,-0.37,24.14,-0.2170149,-0.1085608,-0.4012372,-0.2077365,-0.9128146,0.7255142,-0.501894,0.11,0.22,0.15,86.2
6317,46538272,1,1.61,-0.37,24.14,-0.2174849,-0.1063872,-0.4018659,-0.2050024,-0.9128146,0.7255142,-0.5032200999999999,0.11,0.22,0.15,86.2
6360,46548182,1,1.61,-0.37,24.13,-0.2168637,-0.1074704,-0.3994578,-0.1991999,-0.9128146,0.7255142,-0.5046288,0.11,0.22,0.15,86.2
6400,46559121,1,1.61,-0.37,24.13,-0.2181201,-0.1084691,-0.3991439,-0.1927796,-0.9128146,0.7255142,-0.5090105,0.11,0.22,0.15,86.2
6441,46569071,1,1.61,-0.37,24.13,-0.2175575,-0.1087587,-0.3992285,-0.1902999,-0.9128146,0.7255142,-0.5105113999999999,0.11,0.22,0.15,86.2
6485,46579670,1,1.61,-0.37,24.13,-0.2174948,-0.1084105,-0.3998584,-0.1890692,-0.9128146,0.7255142,-0.5121715999999999,0.11,0.22,0.15,86.2
6527,46589776,1,1.61,-0.37,24.13,-0.2172657,-0.1083517,-0.39878,-0.1859033,-0.9128146,0.7255142,-0.5143313,0.11,0.22,0.15,86.2
6569,46599754,1,1.62,-0.37,24.13,-0.2160726,-0.1082894,-0.3964169,-0.1833059,-0.9128146,0.7174528999999999,-0.5162073,0.11,0.22,0.15,86.2
6610,46609753,1,1.62,-0.37,24.13,-0.215306,-0.1084835,-0.3955776,-0.1847902,-0.9128146,0.7174528999999999,-0.5181755,0.11,0.22,0.15,86.2
6648,46620218,1,1.61,-0.37,24.13,-0.2161631,-0.1084304,-0.3948049,-0.1850895,-0.9128146,0.7174528999999999,-0.5221144,0.11,0.22,0.15,86.2
6688,46630233,1,1.61,-0.37,24.13,-0.2159129,-0.108045,-0.3940689,-0.1848059,-0.9128146,0.7174528999999999,-0.5231262,0.11,0.22,0.15,86.2
6730,46640111,1,1.6,-0.37,24.12,-0.2160001,-0.1080819,-0.3947596,-0.1822825,-0.9128146,0.7174528999999999,-0.5243023999999999,0.11,0.22,0.15,86.2
6771,46650575,1,1.6,-0.37,24.12,-0.2181359,-0.1084999,-0.3931887,-0.1831917,-0.9128146,0.7174528999999999,-0.5282221,0.11,0.22,0.15,86.2
6812,46660895,1,1.6,-0.37,24.12,-0.2187824,-0.1070916,-0.3919774,-0.1842025,-0.9128146,0.7174528999999999,-0.5294352,0.11,0.22,0.15,86.2
6853,46670561,1,1.59,-0.37,24.12,-0.2182077,-0.1066358,-0.3915942,-0.1907621,-0.9128146,0.7174528999999999,-0.5307961,0.11,0.22,0.15,86.2
6898,46680424,1,1.59,-0.36,24.12,-0.2190695,-0.1058002,-0.3905559,-0.1912625,-0.9128146,0.7174528999999999,-0.5346712,0.11,0.22,0.15,86.2
6939,46690456,1,1.59,-0.36,24.12,-0.2184827,-0.1061449,-0.389645,-0.1923455,-0.9128146,0.7174528999999999,-0.5361291,0.11,0.22,0.15,86.2
6979,46700462,1,1.59,-0.36,24.13,-0.2176988,-0.1074306,-0.3886138,-0.1926718,-0.9128146,0.7174528999999999,-0.5376989,0.11,0.22,0.15,86.2
7020,46710613,1,1.59,-0.36,24.13,-0.2175824,-0.1070288,-0.3878331,-0.1963517,-0.9128146,0.7174528999999999,-0.5393326000000001,0.11,0.22,0.15,86.2
7060,46720962,1,1.59,-0.36,24.12,-0.2190389,-0.1076412,-0.3879728,-0.1981609,-0.9128146,0.7174528999999999,-0.5435935,0.11,0.22,0.15,86.2
7102,46730939,1,1.6,-0.36,24.12,-0.2191307,-0.1076144,-0.3886483,-0.2011112,-0.9128146,0.7174528999999999,-0.5453594,0.11,0.22,0.15,86.2
7140,46741352,1,1.6,-0.37,24.12,-0.2184961,-0.1074931,-0.3873895,-0.204024,-0.9128146,0.7174528999999999,-0.5466962,0.11,0.22,0.15,86.2
7181,46751308,1,1.6,-0.37,24.12,-0.2195845,-0.1067607,-0.3864477,-0.2042721,-0.9128146,0.7174528999999999,-0.5481012,0.11,0.22,0.15,86.2
7222,46761338,1,1.6,-0.37,24.12,-0.218902,-0.1070515,-0.3861224,-0.2045262,-0.9128146,0.7174528999999999,-0.5496622,0.11,0.22,0.15,86.2
7262,46772083,1,1.6,-0.37,24.12,-0.219509,-0.1075807,-0.3852469,-0.2016502,-0.9128146,0.7174528999999999,-0.5538798,0.11,0.22,0.15,86.2
7309,46782019,1,1.6,-0.37,24.13,-0.2194598,-0.1071007,-0.3824382,-0.1991823,-0.9128146,0.7174528999999999,-0.5554919,0.11,0.22,0.15,86.2
7349,46791993,1,1.6,-0.37,24.13,-0.2199261,-0.1081182,-0.3817865,-0.2035163,-0.9128146,0.7174528999999999,-0.5593249,0.11,0.22,0.15,86.2
7392,46802460,1,1.6,-0.37,24.13,-0.2202938,-0.1070836,-0.3846262,-0.2110251,-0.9128146,0.7093917,-0.5610124,0.11,0.21,0.15,86.2
7432,46813061,1,1.6,-0.37,24.13,-0.2196342,-0.1069656,-0.3830989,-0.2118576,-0.9128146,0.7093917,-0.563226,0.11,0.22,0.15,86.2
7474,46822935,1,1.6,-0.37,24.13,-0.2205395,-0.1071526,-0.3827377,-0.2181694,-0.9128146,0.7093917,-0.567035,0.11,0.22,0.15,86.2
7515,46833210,1,1.59,-0.37,24.13,-0.2213597,-0.1066315,-0.3824454,-0.2255339,-0.9128146,0.7093917,-0.5689346,0.1,0.21,0.15,86.2
7556,46842794,1,1.59,-0.37,24.14,-0.2227525,-0.107884,-0.3823792,-0.2334829,-0.9128146,0.7093917,-0.57274,0.1,0.21,0.15,86.2
7598,46853475,1,1.59,-0.37,24.13,-0.2224695,-0.1068418,-0.3825768,-0.2346257,-0.9128146,0.7093917,-0.5731277,0.1,0.21,0.15,86.2
7639,46863597,1,1.59,-0.38,24.14,-0.2217755,-0.1059124,-0.3813311,-0.2304818,-0.9128146,0.7093917,-0.5736842,0.1,0.21,0.15,86.2
7681,46873504,1,1.59,-0.38,24.14,-0.2225293,-0.1053517,-0.3802122,-0.2249641,-0.9128146,0.7093917,-0.5743211,0.1,0.21,0.15,86.2
7726,46883264,1,1.59,-0.38,24.14,-0.2213204,-0.105031,-0.3802466,-0.2184402,-0.9128146,0.7093917,-0.5751849999999999,0.1,0.21,0.15,86.2
7766,46893646,1,1.59,-0.38,24.15,-0.2210142,-0.1054084,-0.3780726,-0.2056681,-0.9128146,0.7093917,-0.5790083,0.1,0.21,0.15,86.2
7807,46904030,1,1.59,-0.38,24.15,-0.2216097,-0.1049631,-0.3792606,-0.1978255,-0.9128146,0.7093917,-0.5803249,0.1,0.21,0.15,86.2
7847,46914071,1,1.59,-0.38,24.15,-0.2206967,-0.104342,-0.3799207,-0.1942159,-0.9128146,0.7093917,-0.5814567,0.1,0.21,0.15,86.2
7889,46924650,1,1.59,-0.38,24.16,-0.2199576,-0.1047487,-0.3796066,-0.190564,-0.9128146,0.7093917,-0.5852767,0.1,0.21,0.15,86.2
7932,46936964,1,1.59,-0.38,24.16,-0.218415,-0.1050372,-0.3803648,-0.1910793,-0.9128146,0.7093917,-0.5876275,0.1,0.21,0.15,86.2
7973,46947000,1,1.6,-0.38,24.16,-0.2195683,-0.1060745,-0.3808087,-0.1961894,-0.9128146,0.7093917,-0.5914314000000001,0.1,0.21,0.15,86.2
8013,46957244,1,1.6,-0.38,24.17,-0.2178443,-0.1062469,-0.3802055,-0.1951407,-0.9128146,0.7093917,-0.591325,0.1,0.21,0.14,86.2
8055,46967483,1,1.6,-0.38,24.17,-0.2172394,-0.1070976,-0.378349,-0.18788,-0.9128146,0.7093917,-0.5913794,0.1,0.21,0.14,86.2
8096,46977208,1,1.59,-0.38,24.16,-0.2161986,-0.1073749,-0.3781075,-0.181069,-0.9128146,0.7093917,-0.5916604,0.1,0.21,0.14,86.2
8142,46987176,1,1.59,-0.38,24.16,-0.2152969,-0.1078706,-0.376816,-0.1719902,-0.9128146,0.7093917,-0.5920951,0.1,0.21,0.14,86.2
8184,46997181,1,1.58,-0.37,24.16,-0.2162611,-0.1088666,-0.3762567,-0.1595836,-0.9128146,0.7093917,-0.5958812,0.1,0.21,0.14,86.2
8224,47007606,1,1.59,-0.37,24.17,-0.216679,-0.1090437,-0.3759131,-0.1504499,-0.9128146,0.7093917,-0.5964339,0.1,0.21,0.14,86.2
8267,47017631,1,1.59,-0.37,24.17,-0.2168155,-0.1086842,-0.3787759,-0.1455366,-0.9128146,0.7093917,-0.5972334,0.1,0.21,0.15,86.2
8304,47027970,1,1.59,-0.37,24.17,-0.2175149,-0.1087254,-0.3775018,-0.1361713,-0.9350783,0.7013304,-0.5985187,0.1,0.21,0.15,86.2
8347,47038012,1,1.59,-0.37,24.17,-0.2175477,-0.1086527,-0.3775867,-0.1345532,-0.9350783,0.7013304,-0.6023181,0.1,0.21,0.15,86.2
8385,47048065,1,1.59,-0.37,24.18,-0.2160659,-0.1070007,-0.3744597,-0.1266415,-0.9350783,0.7013304,-0.6021118,0.1,0.21,0.15,86.2
8425,47058005,1,1.59,-0.37,24.18,-0.2168363,-0.1069467,-0.3759735,-0.1309812,-0.9350783,0.7013304,-0.6058592,0.1,0.21,0.15,86.2
8468,47067962,1,1.59,-0.37,24.18,-0.2161608,-0.1050669,-0.3761066,-0.1345894,-0.9350783,0.7013304,-0.6057549,0.1,0.21,0.14,86.2
8509,47077981,1,1.59,-0.37,24.18,-0.2162883,-0.1061836,-0.3757692,-0.1381302,-0.9350783,0.7013304,-0.6095237999999999,0.1,0.21,0.14,86.2
8553,47087968,1,1.59,-0.37,24.18,-0.215808,-0.1057073,-0.3747799,-0.1414699,-0.9350783,0.7013304,-0.6095764,0.1,0.21,0.14,86.2
8594,47097978,1,1.59,-0.37,24.18,-0.2160485,-0.1060396,-0.3738585,-0.1458834,-0.9350783,0.7013304,-0.6097454,0.1,0.21,0.14,86.2
8634,47108544,1,1.59,-0.37,24.18,-0.2149799,-0.1050557,-0.3720765,-0.1422935,-0.9350783,0.7013304,-0.6101636,0.1,0.21,0.14,86.2
8675,47118624,1,1.59,-0.37,24.19,-0.2170421,-0.1051449,-0.3723543,-0.1360171,-0.9350783,0.7013304,-0.6138778,0.1,0.21,0.14,86.2
8715,47129042,1,1.59,-0.37,24.19,-0.2161718,-0.1031621,-0.3716883,-0.130816,-0.9350783,0.7013304,-0.6148276,0.1,0.21,0.14,86.2
8756,47138967,1,1.58,-0.37,24.19,-0.2150113,-0.1033825,-0.3714756,-0.128,-0.9350783,0.7013304,-0.6155369000000001,0.1,0.21,0.14,86.2
8799,47151571,1,1.58,-0.37,24.18,-0.2157659,-0.1033693,-0.3703948,-0.1270965,-0.9350783,0.7013304,-0.6160135,0.1,0.21,0.14,86.2
8840,47161305,1,1.58,-0.37,24.19,-0.2158501,-0.1030332,-0.3694845,-0.1236277,-0.9350783,0.7013304,-0.6159833,0.1,0.21,0.14,86.2
8881,47171744,1,1.58,-0.37,24.19,-0.2165777,-0.1029496,-0.3671615,-0.1127166,-0.9350783,0.7013304,-0.6199827,0.1,0.21,0.14,86.2
8922,47181639,1,1.58,-0.37,24.19,-0.2163199,-0.1020872,-0.3668285,-0.1057599,-0.9350783,0.7013304,-0.6200795,0.1,0.21,0.14,86.2
8967,47191749,1,1.58,-0.37,24.19,-0.2155979,-0.1019665,-0.3666377,-0.1009527,-0.9350783,0.7013304,-0.6203349,0.1,0.21,0.14,86.2
9009,47201653,1,1.59,-0.36,24.18,-0.2154174,-0.1019651,-0.3669931,-0.1013756,-0.9350783,0.6932691,-0.6240095,0.1,0.21,0.14,86.2
9051,47211653,1,1.59,-0.36,24.18,0.03627272,0.001835215,-0.3665506,-0.1008032,-0.9347877999999999,0.6932868,-0.6244073999999999,0.1,0.21,0.14,86.2
9092,47221647,1,1.59,-0.36,24.19,0.03634013,0.001753699,-0.3667012,-0.09845719,-0.9308444,0.6949518,-0.6250299,0.1,0.21,0.14,86.2
9132,47232291,1,1.59,-0.36,24.19,0.03651968,0.002112468,-0.3669668,-0.09487437999999999,-0.9270838,0.6965227000000001,-0.6239069,0.1,0.21,0.14,86.2
9169,47242123,1,1.6,-0.36,24.18,0.03733382,0.001940798,-0.3650889,-0.08771598,-0.9234959,0.6980059,-0.623034,0.1,0.21,0.14,86.2
9229,47282236,1,1.6,-0.37,24.18,0.03574441,0.00138597,-0.364385,-0.04996434,-0.9133485,0.7019839,-0.6253608,0.1,0.21,0.15,86.2
9275,47292125,1,1.6,-0.37,24.18,0.0355451,0.0006080712,-0.3628086,-0.04417859,-0.9103946000000001,0.7031417,-0.6253505,0.1,0.21,0.15,86.2
9315,47302144,1,1.6,-0.37,24.18,0.03497422,-0.0004051967,-0.3604761,-0.03624006,-0.9075984,0.7042185,-0.6255004,0.1,0.21,0.15,86.2
9356,47312150,1,1.6,-0.37,24.18,0.03454443,-0.0005914759,-0.3586981,-0.0318743,-0.9049644999999999,0.7052205,-0.6258191,0.1,0.21,0.15,86.2
9402,47327234,1,1.59,-0.37,24.18,0.03377866,0.0008982609,-0.3582915,-0.02834254,-0.9023094,0.7061701,-0.6264788,0.1,0.21,0.15,86.2
9443,47337220,1,1.59,-0.37,24.19,0.03309875,0.0003102026,-0.355771,-0.02387883,-0.899973,0.7070559,-0.6256054,0.1,0.21,0.15,86.2
9485,47347582,1,1.59,-0.37,24.18,0.03120889,-0.0008815647,-0.3555876,-0.01575518,-0.8996183,0.7070494000000001,-0.6295064,0.1,0.21,0.15,86.2
9525,47357622,1,1.6,-0.37,24.18,0.03058382,-0.001399043,-0.3531374,-0.008330046000000001,-0.8974311,0.7078655,-0.6288015,0.1,0.21,0.15,86.2
9566,47367614,1,1.6,-0.37,24.18,0.0293571,-0.001633218,-0.3521047,-0.004991614,-0.8953828,0.7086241,-0.6282913,0.1,0.21,0.15,86.2
9606,47377641,1,1.6,-0.38,24.17,0.02894787,-0.001559051,-0.3513577,-0.008534273,-0.8934446,0.7093369,-0.6279771,0.1,0.21,0.15,86.2
9651,47387785,1,1.6,-0.38,24.17,0.0277661,-0.002685657,-0.35207,-0.008867809000000001,-0.8931621,0.7093148,-0.6315217,0.1,0.21,0.15,86.2
9693,47397785,1,1.6,-0.38,24.17,0.02609194,-0.003150772,-0.350522,-0.008431338,-0.8913682000000001,0.7099642,-0.6313503,0.1,0.21,0.15,86.2
9736,47408105,1,1.61,-0.37,24.17,0.02635211,-0.004528069,-0.3517535,-0.02065219,-0.891106,0.7099253,-0.6348631,0.1,0.21,0.15,86.2
9774,47418545,1,1.6,-0.37,24.17,0.02495908,-0.003564644,-0.3490212,-0.02404947,-0.8895782,0.710373,-0.6310757,0.1,0.21,0.15,86.2
9814,47428622,1,1.6,-0.37,24.17,0.02317799,-0.003615614,-0.3487538,-0.02102384,-0.8881668,0.7107927000000001,-0.6276116,0.1,0.21,0.15,86.2
9858,47441035,1,1.6,-0.37,24.17,0.0214226,-0.004919205,-0.3465454,0.00346018,-0.8868195,0.7111583,-0.6245209,0.1,0.21,0.15,86.2
9899,47450816,1,1.6,-0.37,24.17,0.02030388,-0.004779642,-0.3451147,0.02289325,-0.8856409,0.7115023,-0.6207464,0.1,0.21,0.15,86.2
9940,47461273,1,1.6,-0.37,24.17,0.01921431,-0.004334128,-0.3452917,0.05289728,-0.8854442,0.711458,-0.6242052,0.1,0.21,0.15,86.2
9981,47471273,1,1.6,-0.37,24.17,0.01829909,-0.004429752,-0.3440275,0.07947049,-0.8843813,0.7117817,-0.6207058,0.1,0.21,0.15,86.2
10021,47481262,1,1.59,-0.37,24.17,0.01825563,-0.004659125,-0.3425627,0.09687134,-0.883396,0.7120759,-0.6175804,0.1,0.21,0.15,86.2
10066,47491280,1,1.6,-0.36,24.16,0.01756905,-0.004174288,-0.3412283,0.1188717,-0.8825206,0.7123442,-0.6147028,0.1,0.21,0.15,86.2
10107,47501323,1,1.59,-0.36,24.16,0.01581556,-0.003666356,-0.3404058,0.1373955,-0.8817345,0.7125872,-0.6122042,0.1,0.21,0.15,86.2
10149,47511264,1,1.59,-0.36,24.16,0.01566707,-0.004987702,-0.3400916,0.1581965,-0.8815783,0.7125463,-0.6155957,0.1,0.21,0.15,86.2
10189,47521295,1,1.59,-0.36,24.16,0.01443939,-0.004753201,-0.3367543,0.1692248,-0.8808889,0.712762,-0.6132976999999999,0.1,0.21,0.15,86.2
10232,47531300,1,1.59,-0.35,24.16,0.01290528,-0.004889202,-0.3342805,0.1843471,-0.8803022,0.7129524,-0.609594,0.1,0.21,0.15,86.2
10273,47541268,1,1.59,-0.35,24.16,0.01196491,-0.005842178,-0.3322511,0.195644,-0.8797894000000001,0.7131168,-0.6062561,0.1,0.21,0.15,86.2
10314,47551334,1,1.59,-0.35,24.15,0.01137292,-0.006505177,-0.3344815,0.2029098,-0.8796729,0.7130566,-0.6095536,0.1,0.21,0.15,86.2
10356,47561272,1,1.59,-0.35,24.15,0.01100881,-0.006515437,-0.332398,0.209969,-0.8792228,0.713195,-0.6065003,0.1,0.21,0.15,86.2
10396,47571255,1,1.6,-0.36,24.15,0.009940253,-0.006345343,-0.3305367,0.2078019,-0.8788291,0.7133093,-0.6037023,0.1,0.21,0.15,86.2
10437,47581260,1,1.6,-0.36,24.15,0.007905643,-0.005873815,-0.3287301,0.2112806,-0.8785253,0.7134091,-0.6012013,0.1,0.21,0.15,86.2
10481,47591274,1,1.59,-0.36,24.15,0.006658272,-0.007819889,-0.3276771,0.2116392,-0.878284,0.7134759000000001,-0.5989833,0.1,0.21,0.15,86.2
10524,47601275,1,1.59,-0.36,24.15,0.006248814,-0.009102475,-0.3290913,0.2134099,-0.8782187,0.7133905,-0.6022927,0.1,0.21,0.15,86.2
10564,47611667,1,1.59,-0.36,24.15,0.006337372,-0.009870250000000001,-0.3245898,0.2059165,-0.8780108,0.713214,-0.5978560000000001,0.1,0.21,0.15,86.2
10604,47621627,1,1.59,-0.36,24.15,0.005540418,-0.01041649,-0.3220814,0.2021076,-0.8778656,0.7130353,-0.5934687,0.1,0.21,0.15,86.2
10648,47634195,1,1.58,-0.36,24.15,0.004668664,-0.01028815,-0.3221061,0.21477,-0.8777655,0.712819,-0.5894517,0.1,0.21,0.15,86.2
10688,47644437,1,1.58,-0.35,24.15,0.003403687,-0.01103437,-0.3195996,0.22802,-0.8777298,0.7126127,-0.5851883,0.1,0.21,0.15,86.2
10729,47654286,1,1.58,-0.35,24.15,0.002362971,-0.01241572,-0.3202525,0.2467459,-0.8777028,0.7124961,-0.5883874,0.1,0.21,0.15,86.2
10770,47664534,1,1.58,-0.35,24.15,0.001251481,-0.0129929,-0.3176709,0.261287,-0.8777371,0.7122667,-0.5843809,0.1,0.21,0.15,86.2
10810,47674413,1,1.57,-0.35,24.15,0.0008309631,-0.01413663,-0.3149876,0.2736963,-0.8778145000000001,0.7120185,-0.5807372,0.11,0.22,0.15,86.2
10851,47684273,1,1.58,-0.35,24.15,-0.0005104851,-0.01437709,-0.3126252,0.2790332,-0.8779364,0.7117633,-0.577363,0.11,0.22,0.15,86.2
10895,47694225,1,1.58,-0.35,24.15,-0.002336099,-0.01406121,-0.3122136,0.2796434,-0.8781061999999999,0.7114971,-0.5743412,0.11,0.22,0.15,86.2
10936,47704612,1,1.58,-0.35,24.15,-0.00324383,-0.01565563,-0.3128344,0.283576,-0.878134,0.711349,-0.5774493000000001,0.11,0.22,0.15,86.2
10976,47714620,1,1.58,-0.35,24.15,-0.005216448,-0.01535398,-0.3112211,0.282046,-0.878369,0.7110655,-0.5746636000000001,0.11,0.22,0.15,86.2
11022,47727378,1,1.58,-0.35,24.15,-0.007052368,-0.016014,-0.3079017,0.277313,-0.8786742,0.7107294,-0.5730759,0.11,0.22,0.15,86.2
11066,47739726,1,1.58,-0.35,24.15,-0.01020698,-0.01533588,-0.3058738,0.2752271,-0.8790287,0.710402,-0.5700985,0.11,0.22,0.15,86.2
11110,47752046,1,1.58,-0.35,24.15,-0.01241199,-0.01614252,-0.3040582,0.2727085,-0.879451,0.7100518,-0.5677481,0.11,0.22,0.15,86.2
11150,47762052,1,1.58,-0.35,24.15,-0.01459791,-0.01668669,-0.3047369,0.2695971,-0.8798861,0.7097322,-0.5647855000000001,0.11,0.22,0.15,86.2
11191,47772615,1,1.58,-0.35,24.14,-0.01481763,-0.01746013,-0.3019044,0.2519539,-0.8803326,0.7094085,-0.5620463999999999,0.11,0.22,0.15,86.2
11232,47782567,1,1.58,-0.35,24.14,-0.01492552,-0.01928661,-0.3033136,0.2396521,-0.8804812,0.7092245,-0.5650504,0.11,0.22,0.15,86.2
11277,47792644,1,1.58,-0.35,24.15,-0.01512358,-0.02081278,-0.3006935,0.2281156,-0.8809503,0.7088664,-0.5625722,0.11,0.22,0.15,86.2
11320,47803032,1,1.58,-0.34,24.15,-0.015919,-0.02091151,-0.3006908,0.2011402,-0.88112,0.7086383000000001,-0.5658877,0.11,0.22,0.15,86.2
11357,47813257,1,1.58,-0.34,24.14,-0.01677206,-0.02084532,-0.2969254,0.1816944,-0.8811917,0.7081753,-0.5609092,0.1,0.21,0.15,86.2
11399,47823605,1,1.58,-0.33,24.14,-0.01731469,-0.02126325,-0.2937489,0.1710448,-0.8812983,0.7077211,-0.5561733,0.1,0.21,0.15,86.2
11440,47833507,1,1.59,-0.34,24.14,-0.01821001,-0.0202332,-0.2917541,0.1684311,-0.8814508,0.7072663,-0.5518816,0.1,0.21,0.15,86.2
11481,47843784,1,1.59,-0.34,24.14,-0.02017754,-0.021039,-0.2911474,0.1782155,-0.8816623,0.7070364,-0.5550884,0.1,0.21,0.15,86.2
11522,47854545,1,1.59,-0.34,24.14,-0.02095178,-0.02170108,-0.2894749,0.1697297,-0.8818444,0.7065893,-0.5508892,0.1,0.21,0.15,86.2
11563,47864618,1,1.59,-0.33,24.14,-0.02152652,-0.02227072,-0.2874843,0.1699634,-0.8820547,0.7063728,-0.5537598,0.1,0.21,0.15,86.2
11604,47874480,1,1.59,-0.33,24.14,-0.02206358,-0.0224635,-0.2841051,0.171773,-0.8822642000000001,0.7059222000000001,-0.5498307,0.1,0.21,0.15,86.2
11644,47884505,1,1.6,-0.33,24.14,-0.02257154,-0.0218344,-0.2811321,0.1763657,-0.8825107,0.7054736,-0.5461939,0.1,0.21,0.15,86.2
11690,47894588,1,1.6,-0.33,24.14,-0.02400446,-0.02363211,-0.2821434,0.1711792,-0.8827450999999999,0.7052464000000001,-0.549023,0.1,0.21,0.15,86.2
11731,47904655,1,1.6,-0.34,24.14,-0.02413918,-0.02429298,-0.2798493,0.1685116,-0.8830403999999999,0.7047646,-0.5458885,0.1,0.21,0.15,86.2
11771,47915701,1,1.6,-0.33,24.14,-0.02379378,-0.02491772,-0.2763805,0.1725509,-0.8833441,0.7042975,-0.5428034,0.1,0.21,0.15,86.2
11813,47925282,1,1.6,-0.33,24.14,-0.02523544,-0.02360978,-0.2737136,0.1684731,-0.8836772000000001,0.7038395,-0.5399104,0.1,0.21,0.15,86.2
11851,47935241,1,1.6,-0.33,24.14,-0.027039,-0.02399439,-0.2727397,0.1655771,-0.8839417000000001,0.7035992,-0.5426512999999999,0.1,0.21,0.15,86.2
11893,47945275,1,1.6,-0.33,24.14,-0.02847321,-0.02430404,-0.2720703,0.1601326,-0.8843226,0.7031438,-0.5399988,0.1,0.21,0.15,86.2
11933,47955647,1,1.6,-0.33,24.14,-0.0290292,-0.02374548,-0.269833,0.1589922,-0.8847386,0.7026871,-0.5367196,0.1,0.21,0.15,86.2
11974,47965290,1,1.6,-0.33,24.14,-0.02956672,-0.02445852,-0.2686103,0.15603,-0.8851833,0.7022277,-0.5337118,0.1,0.21,0.15,86.2
12015,47975576,1,1.6,-0.33,24.14,-0.03117374,-0.02463039,-0.2663227,0.1554294,-0.8856653,0.7017627,-0.5310004,0.1,0.21,0.15,86.2
12056,47985285,1,1.6,-0.33,24.14,-0.03329606,-0.02373071,-0.267332,0.15818,-0.8859873,0.7015216,-0.5336609,0.1,0.21,0.15,86.2
12103,47995667,1,1.6,-0.33,24.14,-0.03347367,-0.02493816,-0.2648762,0.1597487,-0.8865182,0.7010604,-0.5311887,0.1,0.21,0.15,86.2
12145,48005675,1,1.6,-0.33,24.14,-0.03408163,-0.02477691,-0.264669,0.1578808,-0.8870773,0.7005848,-0.5289682999999999,0.1,0.21,0.15,86.2
12182,48016163,1,1.6,-0.33,24.14,-0.03501124,-0.02480322,-0.2614869,0.1584472,-0.8872973,0.7000867,-0.5247227,0.1,0.21,0.15,86.2
12225,48025688,1,1.6,-0.33,24.14,-0.03494021,-0.02517533,-0.2601652,0.1591685,-0.8875143,0.6996139,-0.5205482,0.1,0.21,0.15,86.2
12268,48036377,1,1.6,-0.33,24.14,-0.03666589,-0.02595469,-0.2604064,0.1707674,-0.8878707,0.6993594,-0.5231521,0.1,0.21,0.15,86.2
12311,48048711,1,1.6,-0.34,24.14,-0.03677442,-0.02718037,-0.2575293,0.1905567,-0.8882074,0.6988252,-0.5183205,0.1,0.21,0.15,86.2
12352,48058650,1,1.6,-0.34,24.14,-0.0375648,-0.0270525,-0.2545477,0.2101927,-0.8884995999999999,0.698338,-0.5133558,0.1,0.21,0.15,86.2
12392,48069020,1,1.6,-0.34,24.15,-0.03740049,-0.02824418,-0.2524755,0.222386,-0.8888458,0.6978254,-0.5089360000000001,0.1,0.21,0.15,86.2
12433,48079050,1,1.6,-0.34,24.15,-0.03821108,-0.02914334,-0.2498663,0.2309736,-0.8891853,0.6973371,-0.5046064,0.1,0.21,0.15,86.2
12474,48089639,1,1.6,-0.34,24.15,-0.03902056,-0.02997923,-0.2495682,0.2460887,-0.8895707,0.6970409,-0.5070959,0.1,0.21,0.15,86.2
12518,48099645,1,1.6,-0.34,24.15,-0.03857955,-0.02805501,-0.2464445,0.2578442,-0.8899323,0.6965508,-0.5030540999999999,0.1,0.21,0.15,86.2
12559,48109652,1,1.6,-0.34,24.15,-0.03856299,-0.02776971,-0.2456805,0.2652886,-0.8903199000000001,0.6960731999999999,-0.4993132,0.1,0.21,0.15,86.2
12600,48119646,1,1.6,-0.33,24.15,-0.04015183,-0.02752041,-0.2429902,0.2637722,-0.8907327,0.6956056,-0.4958417,0.1,0.21,0.15,86.2
12641,48129652,1,1.6,-0.33,24.15,-0.04058716,-0.02856825,-0.2430034,0.2663187,-0.8911396,0.6953213,-0.4983031,0.1,0.21,0.15,86.2
12679,48139670,1,1.6,-0.33,24.14,-0.03999316,-0.02825573,-0.242521,0.264003,-0.8915706,0.6948522,-0.4950869,0.1,0.21,0.15,86.2
12720,48149647,1,1.6,-0.32,24.14,-0.03983792,-0.02779504,-0.2421085,0.2613401,-0.8920219,0.6943829,-0.4914662,0.1,0.21,0.15,86.2
12762,48159650,1,1.6,-0.32,24.14,-0.04039676,-0.02827635,-0.2395938,0.2582068,-0.8924955,0.6939163,-0.4881259,0.1,0.21,0.15,86.2
12802,48169676,1,1.6,-0.32,24.14,-0.04097567,-0.02887535,-0.23762,0.2542986,-0.8930004,0.6934406,-0.4850829,0.1,0.22,0.15,86.2
12843,48179690,1,1.6,-0.32,24.14,-0.04222763,-0.02958719,-0.2362798,0.2553533,-0.8934169,0.6931524,-0.4874498,0.1,0.22,0.15,86.2
12883,48189705,1,1.6,-0.32,24.13,-0.0421183,-0.02923984,-0.2342483,0.2516695,-0.8939504,0.6926704,-0.484629,0.11,0.22,0.15,86.2
12928,48199652,1,1.6,-0.32,24.13,-0.04295589,-0.03055666,-0.2337822,0.2448045,-0.8945014,0.6921858,-0.4820449,0.11,0.22,0.15,86.2
12971,48210058,1,1.6,-0.32,24.13,-0.04473225,-0.03117583,-0.2348181,0.2325336,-0.8951298,0.6916585,-0.4799639,0.11,0.22,0.15,86.2
13012,48220010,1,1.6,-0.32,24.13,-0.04525227,-0.03221992,-0.2357643,0.2187152,-0.8955792,0.6913425,-0.4823073,0.11,0.22,0.15,86.2
13050,48230079,1,1.6,-0.32,24.13,-0.04550356,-0.0313411,-0.2342601,0.2089495,-0.8957714,0.6907316999999999,-0.478593,0.1,0.22,0.15,86.2
13091,48242608,1,1.6,-0.32,24.13,-0.0472859,-0.03055825,-0.2319516,0.1930132,-0.8961275,0.6900403000000001,-0.4747069,0.1,0.21,0.15,86.2
13131,48252419,1,1.6,-0.32,24.13,-0.04660658,-0.02937026,-0.2302532,0.186372,-0.8963295999999999,0.6894911,-0.4701985,0.1,0.21,0.15,86.2
13172,48262467,1,1.6,-0.32,24.13,-0.0481612,-0.0305997,-0.2312041,0.1911803,-0.8967999,0.6891909000000001,-0.4724999,0.1,0.21,0.15,86.2
13213,48272665,1,1.6,-0.32,24.13,-0.04786755,-0.03071273,-0.2289952,0.1920752,-0.89708,0.6886125,-0.4685238,0.1,0.21,0.15,86.2
13255,48282635,1,1.6,-0.32,24.13,-0.04867132,-0.03138481,-0.2264046,0.1875251,-0.8973841,0.688036,-0.4648048,0.1,0.21,0.15,86.2
13300,48292319,1,1.6,-0.32,24.13,-0.04948188,-0.03250905,-0.2239458,0.1920182,-0.8977345,0.6874485,-0.4614083,0.1,0.21,0.15,86.2
13340,48302694,1,1.6,-0.32,24.13,-0.04968411,-0.03198159,-0.2211374,0.2017615,-0.898169,0.6868306,-0.4584983,0.11,0.22,0.15,86.2
13381,48312721,1,1.6,-0.32,24.13,-0.05072227,-0.03320346,-0.2218838,0.2099053,-0.8986696,0.6865077000000001,-0.460708,0.11,0.22,0.15,86.2
13422,48322746,1,1.6,-0.32,24.13,-0.05185407,-0.03343809,-0.2214725,0.2126963,-0.8990878,0.6859177,-0.457838,0.11,0.22,0.15,86.2
13463,48332746,1,1.6,-0.32,24.12,-0.05305383,-0.03221364,-0.2201723,0.2097743,-0.8995383,0.6853337,-0.4551955,0.11,0.22,0.15,86.2
13503,48345917,1,1.6,-0.32,24.12,-0.05493268,-0.03351116,-0.217913,0.1987114,-0.9001813,0.6846577,-0.4520388,0.1,0.21,0.15,86.2
13544,48356803,1,1.59,-0.32,24.11,-0.05698722,-0.03421914,-0.2178509,0.1979721,-0.9007472,0.6843163,-0.4542292,0.1,0.21,0.15,86.2
13586,48366644,1,1.59,-0.32,24.11,-0.05737446,-0.034536,-0.2165944,0.1974923,-0.9012666,0.683728,-0.4506671,0.1,0.21,0.15,86.2
13627,48376659,1,1.6,-0.32,24.11,-0.0583371,-0.03401077,-0.2154587,0.1858642,-0.9018078,0.6831473,-0.4473459,0.1,0.21,0.15,86.2
13668,48387103,1,1.6,-0.32,24.11,-0.06106193,-0.03440304,-0.2159831,0.1821787,-0.9024669,0.6827661,-0.4497301,0.1,0.21,0.15,86.2
13712,48397161,1,1.6,-0.32,24.1,-0.06189679,-0.03432336,-0.2149501,0.1780087,-0.9030602,0.6821872,-0.4466605,0.1,0.21,0.15,86.2
13753,48407061,1,1.6,-0.32,24.11,-0.0620888,-0.03537405,-0.2124387,0.1769227,-0.9036776,0.6816047,-0.4438486,0.1,0.21,0.15,86.2
13797,48417073,1,1.59,-0.32,24.11,-0.06202617,-0.0352587,-0.2115419,0.1690002,-0.9042966,0.6812502,-0.4459723,0.1,0.21,0.15,86.2
13835,48427704,1,1.59,-0.32,24.11,-0.06193508,-0.03644727,-0.2104685,0.1648639,-0.9045525,0.6806167,-0.4418945,0.1,0.21,0.15,86.2
13875,48437641,1,1.59,-0.33,24.11,-0.06119592,-0.03610723,-0.2093781,0.1636684,-0.9048249,0.6799868,-0.4380739,0.1,0.21,0.15,86.2
13916,48447612,1,1.59,-0.33,24.11,-0.06007549,-0.03663259,-0.2089639,0.1716226,-0.9051536999999999,0.6793489,-0.4340514,0.1,0.21,0.15,86.2
13957,48457662,1,1.59,-0.32,24.11,-0.0593989,-0.03638026,-0.2075095,0.175221,-0.9054659,0.6787294,-0.4302067,0.1,0.21,0.15,86.2
13999,48468317,1,1.59,-0.32,24.11,-0.06030355,-0.03780876,-0.2061342,0.1867148,-0.9058842,0.6780663,-0.4269168,0.1,0.21,0.15,86.2
14040,48478721,1,1.59,-0.32,24.1,-0.06184998,-0.04039019,-0.2067241,0.1993426,-0.906556,0.6776348,-0.4291861,0.1,0.21,0.15,86.2
14080,48489235,1,1.58,-0.32,24.1,-0.06331763999999999,-0.03984134,-0.2036533,0.2079087,-0.9069668,0.6769790999999999,-0.4259376,0.1,0.21,0.15,86.2
14125,48499221,1,1.58,-0.32,24.1,-0.06301051000000001,-0.03980019,-0.2029465,0.2122262,-0.9074176,0.6763278,-0.4229534,0.1,0.22,0.16,86.2
14166,48509200,1,1.59,-0.32,24.1,-0.06379984,-0.03960183,-0.2023991,0.2157158,-0.9078967,0.6756815,-0.4202312,0.1,0.22,0.16,86.2
14209,48519251,1,1.59,-0.32,24.09,-0.06438634999999999,-0.04012927,-0.2016234,0.2125323,-0.9084082999999999,0.6750351999999999,-0.4177385,0.11,0.22,0.16,86.2
14250,48529717,1,1.59,-0.32,24.1,-0.06463096,-0.04130974,-0.2004911,0.2125741,-0.9091241,0.674586,-0.4199672,0.11,0.22,0.16,86.2
14290,48539761,1,1.59,-0.32,24.09,-0.06570742,-0.04063463,-0.1992439,0.211485,-0.9096655,0.6739321,-0.4168642,0.11,0.22,0.16,86.2
14331,48549724,1,1.59,-0.32,24.1,-0.06613874,-0.04143352,-0.197644,0.2085816,-0.9101776,0.673316,-0.4138324,0.11,0.22,0.16,86.2
14373,48559690,1,1.59,-0.32,24.1,-0.06633033000000001,-0.04175118,-0.1968779,0.205158,-0.9108275,0.6726293,-0.4113705,0.11,0.22,0.16,86.2
14414,48569612,1,1.6,-0.32,24.09,-0.06606861,-0.04162083,-0.1961882,0.198386,-0.911451,0.6719742,-0.4089928,0.11,0.22,0.16,86.2
14456,48579671,1,1.6,-0.32,24.1,-0.06735205,-0.04297234,-0.1972206,0.194623,-0.9121137,0.6715516,-0.4109528,0.11,0.22,0.16,86.2
14497,48590486,1,1.6,-0.32,24.1,-0.06754597,-0.04311715,-0.1961993,0.1887164,-0.9127668,0.6708826,-0.4087965,0.11,0.22,0.16,86.2
14543,48600347,1,1.6,-0.32,24.1,-0.06841954,-0.04251093,-0.1950657,0.1770141,-0.9134285,0.670226,-0.4068059,0.11,0.22,0.16,86.2
14583,48610493,1,1.6,-0.32,24.1,-0.06938519,-0.04264168,-0.1944589,0.1663961,-0.9140905,0.6695979,-0.4049224,0.11,0.22,0.16,86.2
14623,48620633,1,1.6,-0.31,24.1,-0.06950678,-0.04428366,-0.1921786,0.1591636,-0.9148952,0.6690912,-0.4071638,0.11,0.22,0.16,86.2
14660,48630679,1,1.6,-0.31,24.1,-0.06875864,-0.04434274,-0.1902287,0.1572343,-0.9149995,0.6686391,-0.403203,0.11,0.22,0.16,86.2
14701,48640910,1,1.6,-0.31,24.1,-0.07004893,-0.04360159,-0.1876373,0.1568145,-0.9152182,0.6681421,-0.3997142,0.11,0.22,0.16,86.2
14738,48650668,1,1.6,-0.31,24.1,-0.06935585,-0.04251217,-0.1854416,0.1613994,-0.9155508999999999,0.6676099,-0.3960739,0.11,0.22,0.16,86.2
14779,48660900,1,1.6,-0.31,24.1,-0.07056067000000001,-0.04241432,-0.1844491,0.1644009,-0.9157418000000001,0.667191,-0.3922292,0.11,0.22,0.16,86.2
14820,48671213,1,1.6,-0.31,24.1,-0.07151591,-0.04364563,-0.1826392,0.1776493,-0.9162055,0.6666263,-0.3892484,0.11,0.22,0.16,86.2
14862,48681698,1,1.6,-0.31,24.1,-0.07337907,-0.04567616,-0.1838524,0.1886052,-0.9170042,0.6661342,-0.3912652,0.11,0.22,0.16,86.2
14903,48692000,1,1.61,-0.31,24.09,-0.07318392,-0.04741793,-0.1815579,0.1955716,-0.9173931,0.6656033,-0.388218,0.11,0.22,0.16,86.2
14947,48701688,1,1.61,-0.31,24.09,-0.07397049999999999,-0.0485642,-0.1800893,0.2002153,-0.9178187,0.6650612,-0.3853976,0.11,0.22,0.16,86.2
14988,48711688,1,1.61,-0.31,24.09,-0.07450936,-0.04638501,-0.1782622,0.2032386,-0.9182828,0.6645184,-0.3828058,0.11,0.22,0.16,86.2
15030,48721682,1,1.61,-0.31,24.09,-0.07446055,-0.04810959,-0.1766913,0.2015573,-0.9187767,0.6639755000000001,-0.3804193,0.11,0.22,0.16,86.2
15070,48732207,1,1.6,-0.31,24.08,-0.07601856,-0.04901959,-0.1748691,0.2037072,-0.9195253,0.6634935,-0.3821702,0.11,0.22,0.16,86.2
15114,48744682,1,1.6,-0.31,24.08,-0.07830895,-0.04904433,-0.1739368,0.2005476,-0.9202998,0.6627862,-0.3797139,0.11,0.22,0.16,86.2
15154,48754666,1,1.6,-0.31,24.08,-0.07907232,-0.04979929,-0.1716346,0.2020157,-0.9208782,0.6622204,-0.3769489,0.11,0.22,0.16,86.2
15195,48765176,1,1.6,-0.3,24.08,-0.07958917,-0.04964103,-0.1710031,0.199138,-0.9214901,0.6616551000000001,-0.3744002,0.11,0.22,0.16,86.2
15236,48775721,1,1.6,-0.3,24.08,-0.08001601,-0.04946085,-0.1688154,0.2002283,-0.9221419,0.6610786,-0.3721012,0.11,0.22,0.16,86.2
15278,48785809,1,1.6,-0.3,24.08,-0.08124062999999999,-0.04859389,-0.1689303,0.1925019,-0.9229406,0.6605888,-0.3737827,0.11,0.22,0.16,86.2
15320,48795806,1,1.6,-0.3,24.08,-0.08190525,-0.04909556,-0.1675441,0.1841483,-0.9236101,0.6600252,-0.3715924,0.11,0.22,0.16,86.2
15362,48808605,1,1.6,-0.3,24.08,-0.08240285999999999,-0.04973733,-0.1687569,0.1738902,-0.9242744000000001,0.6593367,-0.3686068,0.11,0.22,0.16,86.2
15402,48818639,1,1.6,-0.3,24.08,-0.08204417999999999,-0.05039115,-0.1671126,0.178779,-0.9245628,0.6588850000000001,-0.3650556,0.11,0.22,0.16,86.2
15443,48829030,1,1.6,-0.3,24.07,-0.08255005999999999,-0.04999615,-0.1629537,0.181391,-0.9250515,0.6583229,-0.3620553,0.11,0.22,0.16,86.2
15484,48839007,1,1.6,-0.3,24.07,-0.08327872,-0.04899143,-0.160678,0.187274,-0.9255080999999999,0.6578133,-0.3591281,0.11,0.22,0.16,86.2
15525,48849033,1,1.6,-0.31,24.07,-0.08474724,-0.0483623,-0.1589403,0.1902313,-0.9263443,0.6573291,-0.3607152,0.11,0.22,0.16,86.2
15567,48859102,1,1.6,-0.31,24.07,-0.08480981999999999,-0.04696463,-0.1577171,0.1933102,-0.9268298,0.6568423,-0.3573709,0.11,0.22,0.16,86.2
15608,48869643,1,1.61,-0.31,24.07,-0.08503927,-0.04706815,-0.155573,0.1994621,-0.9273611,0.6563521,-0.3542894,0.11,0.22,0.16,86.2
15648,48879664,1,1.61,-0.31,24.07,-0.08491382,-0.04766715,-0.1530904,0.2048409,-0.9279111,0.6558627,-0.3514094,0.11,0.22,0.16,86.2
15691,48889710,1,1.6,-0.31,24.07,-0.0864447,-0.04789392,-0.1514691,0.2017388,-0.9284976,0.6553654,-0.3487127,0.11,0.22,0.16,86.2
15731,48899601,1,1.6,-0.31,24.07,-0.08754547999999999,-0.04870076,-0.1520985,0.2015426,-0.9293702,0.6548831000000001,-0.3502326,0.11,0.22,0.16,86.2
15776,48909725,1,1.6,-0.31,24.07,-0.08810518000000001,-0.0479354,-0.1536485,0.1966924,-0.9300009,0.6543808,-0.3477361,0.11,0.22,0.16,86.2
15817,48919965,1,1.6,-0.31,24.07,-0.08877773999999999,-0.04837393,-0.1532867,0.1878852,-0.9307408,0.6538296,-0.3455856,0.11,0.22,0.16,86.2
15858,48930015,1,1.6,-0.31,24.07,-0.08876632,-0.04889096,-0.1522971,0.1787483,-0.9314298,0.6533152,-0.3434812,0.11,0.22,0.16,86.2
15900,48939955,1,1.59,-0.31,24.07,-0.08967258,-0.04972332,-0.1520665,0.1737548,-0.9323245,0.6528165,-0.3450139,0.11,0.22,0.16,86.2
15940,48950144,1,1.59,-0.31,24.07,-0.08957966000000001,-0.05031665,-0.1509411,0.1683245,-0.9330325,0.6522921,-0.3430669,0.11,0.22,0.16,86.2
15981,48960029,1,1.59,-0.31,24.07,-0.09022804,-0.05148259,-0.148863,0.1634152,-0.9337729,0.6517525,-0.3405318,0.11,0.22,0.16,86.2
16022,48969942,1,1.6,-0.31,24.06,-0.09163892,-0.05214932,-0.1480571,0.1588316,-0.9345643,0.6511897,-0.3382276,0.11,0.22,0.16,86.2
16063,48980211,1,1.59,-0.31,24.06,-0.0924483,-0.05248205,-0.1464817,0.158662,-0.9353650999999999,0.6506292,-0.336087,0.11,0.22,0.16,86.2
16104,48990203,1,1.6,-0.31,24.06,-0.09297466,-0.05227813,-0.1463714,0.1541045,-0.9362136,0.6500556,-0.3341555,0.11,0.22,0.16,86.2
16149,49003573,1,1.59,-0.31,24.06,-0.0934432,-0.05374514,-0.1431601,0.1578059,-0.9366212,0.6493846,-0.3315273,0.11,0.22,0.16,86.2
16193,49013669,1,1.59,-0.31,24.05,-0.09376383000000001,-0.05359395,-0.1417264,0.1578922,-0.9368066,0.6488506000000001,-0.3286744,0.11,0.23,0.16,86.2
16233,49024488,1,1.59,-0.31,24.05,-0.09448665000000001,-0.05466655,-0.1410479,0.1622171,-0.9371293000000001,0.6482575,-0.3261668,0.11,0.23,0.16,86.2
16274,49034288,1,1.59,-0.31,24.05,-0.09563257,-0.0557973,-0.1410272,0.1684563,-0.938078,0.6477115,-0.32758,0.11,0.23,0.16,86.2
16315,49044953,1,1.59,-0.31,24.05,-0.09604456,-0.05679292,-0.1401353,0.1738953,-0.9384541,0.6470947,-0.3245134,0.11,0.23,0.16,86.2
16356,49055998,1,1.59,-0.31,24.06,-0.09676861,-0.05654739,-0.1385609,0.1825292,-0.9388832,0.6464658,-0.321686,0.11,0.23,0.16,86.2
16397,49066511,1,1.59,-0.31,24.05,-0.09680332,-0.05770879,-0.1372148,0.1906508,-0.939257,0.6458883,-0.3189302,0.11,0.23,0.17,86.2
16437,49076589,1,1.59,-0.31,24.05,-0.09641863000000001,-0.05835882,-0.1358185,0.1963417,-0.9396616,0.6452999,-0.3163609,0.11,0.23,0.17,86.2
16479,49086521,1,1.59,-0.31,24.06,-0.09571159,-0.05906403,-0.1345994,0.1977297,-0.9400911,0.6446976,-0.3139827,0.11,0.23,0.17,86.2
16520,49096552,1,1.59,-0.32,24.06,-0.09504943,-0.05941014,-0.1323728,0.198058,-0.9405563,0.6440882999999999,-0.3117838,0.11,0.23,0.17,86.2
16561,49106491,1,1.59,-0.32,24.06,-0.09574831,-0.06003954,-0.131836,0.1989924,-0.9415188,0.6434844,-0.3131145,0.11,0.23,0.17,86.2
16606,49116509,1,1.59,-0.32,24.05,-0.09558111,-0.06060354,-0.1313392,0.1928487,-0.9419893,0.6428676,-0.311025,0.11,0.23,0.17,86.2
16647,49126557,1,1.59,-0.32,24.05,-0.09593464,-0.06060915,-0.1307768,0.1844469,-0.9425123,0.6422309,-0.3091287,0.11,0.23,0.17,86.2
16688,49136493,1,1.59,-0.32,24.05,-0.09560956,-0.06010744,-0.1306822,0.175178,-0.9430518,0.6416018,-0.3073829,0.11,0.23,0.17,86.2
16728,49146626,1,1.59,-0.32,24.05,-0.09588104,-0.06039935,-0.1304424,0.1693448,-0.9440035,0.6410034999999999,-0.3086845,0.11,0.23,0.17,86.2
16769,49156524,1,1.59,-0.32,24.05,-0.09645858,-0.06053403,-0.1301991,0.1621866,-0.9445842,0.6403633,-0.3065539,0.11,0.23,0.17,86.2
16809,49166928,1,1.58,-0.32,24.05,-0.09762949,-0.06096459,-0.1295735,0.1582038,-0.9452887,0.6396629,-0.3047288,0.11,0.23,0.17,86.2
16851,49177220,1,1.58,-0.32,24.05,-0.09807043,-0.06164671,-0.1291278,0.152787,-0.9459298,0.6390159,-0.3029326,0.11,0.23,0.17,86.2
16891,49187239,1,1.58,-0.32,24.05,-0.09879496,-0.06120351,-0.1276522,0.1476417,-0.9466107,0.6383618,-0.3012913,0.11,0.23,0.17,86.2
16932,49197161,1,1.58,-0.32,24.06,-0.09934767999999999,-0.06240091,-0.1258898,0.140874,-0.9473246,0.6376978,-0.2997924,0.11,0.23,0.17,86.2
16973,49207487,1,1.58,-0.32,24.06,-0.1001342,-0.06322472,-0.1245067,0.1367659,-0.9483199,0.6370782,-0.301039,0.11,0.23,0.17,86.2
17014,49217252,1,1.58,-0.32,24.06,-0.09929842999999999,-0.06197771,-0.1234252,0.1337731,-0.948414,0.6368325,-0.2981787,0.11,0.23,0.17,86.2
17055,49227604,1,1.59,-0.32,24.06,-0.09997200000000001,-0.06111476,-0.1205469,0.1356322,-0.9485528,0.6365868,-0.2955048,0.11,0.23,0.17,86.2
17096,49237625,1,1.58,-0.32,24.05,-0.1008012,-0.06092465,-0.1192361,0.1321422,-0.9487365,0.6363305,-0.2929822,0.11,0.23,0.17,86.2
17137,49248041,1,1.58,-0.33,24.05,-0.1011944,-0.06142272,-0.1179817,0.1349674,-0.9498498,0.6356548,-0.2942874,0.11,0.23,0.17,86.2
17178,49258081,1,1.58,-0.33,24.05,-0.1015897,-0.06078399,-0.1171407,0.1363715,-0.9500754,0.6353864,-0.2913615,0.11,0.23,0.17,86.2
17218,49268025,1,1.58,-0.33,24.05,-0.1015809,-0.0609097,-0.1157102,0.1402913,-0.950344,0.6351089,-0.2886332,0.11,0.23,0.17,86.2
17260,49278108,1,1.58,-0.33,24.05,-0.1019397,-0.05968411,-0.1155948,0.1434673,-0.9506646,0.6348168,-0.2861089,0.11,0.23,0.17,86.2
17300,49287996,1,1.58,-0.33,24.05,-0.1037444,-0.05972694,-0.1140941,0.1469362,-0.9516822,0.6342226,-0.287251,0.11,0.23,0.17,86.2
17341,49298057,1,1.59,-0.33,24.05,-0.1036039,-0.05887538,-0.1128981,0.1480498,-0.9520431,0.6339355,-0.284846,0.11,0.23,0.17,86.2
17382,49308067,1,1.59,-0.33,24.04,-0.1044645,-0.06046907,-0.1117677,0.1426513,-0.9530826999999999,0.6333382,-0.2859697,0.11,0.23,0.17,86.2
17428,49318599,1,1.59,-0.33,24.04,-0.1045847,-0.06010438,-0.1108861,0.1374831,-0.9534614,0.6330389,-0.2836384,0.11,0.23,0.16,86.2
17469,49328563,1,1.59,-0.33,24.04,-0.1047491,-0.06010547,-0.1108292,0.1335775,-0.9538873,0.6327212,-0.2814995,0.11,0.23,0.16,86.2
17509,49338610,1,1.59,-0.33,24.04,-0.1050531,-0.06117664,-0.1099968,0.1269309,-0.9543338,0.6323957,-0.2794895,0.11,0.23,0.16,86.2
17550,49348937,1,1.59,-0.33,24.04,-0.1053476,-0.06097541,-0.1092563,0.1240738,-0.9549433000000001,0.6319879,-0.2777752,0.11,0.23,0.16,86.2
17590,49358945,1,1.59,-0.33,24.04,-0.1068159,-0.0620799,-0.1100481,0.1230235,-0.9559973,0.6313775,-0.2788668,0.11,0.23,0.16,86.2
17632,49368929,1,1.59,-0.33,24.04,-0.1075844,-0.06142055,-0.1082296,0.1247804,-0.9565504,0.6310118,-0.2766926,0.11,0.23,0.16,86.2
17672,49379621,1,1.59,-0.33,24.04,-0.1082073,-0.0615274,-0.1072887,0.127195,-0.9571312,0.6306441,-0.2746708,0.11,0.23,0.17,86.2
17713,49389644,1,1.59,-0.33,24.05,-0.1089105,-0.06218842,-0.104742,0.1305161,-0.9577718,0.6302505,-0.2728215,0.11,0.23,0.17,86.2
17754,49399395,1,1.59,-0.33,24.04,-0.1098373,-0.06292291999999999,-0.1045386,0.1272038,-0.9588574,0.6296296,-0.2738578,0.11,0.23,0.17,86.2
17793,49409688,1,1.59,-0.34,24.04,-0.1109962,-0.06273676,-0.1039361,0.1229763,-0.9595357,0.6292174,-0.272098,0.11,0.23,0.16,86.2
17836,49419580,1,1.58,-0.34,24.05,-0.1100077,-0.06272446,-0.100683,0.1240253,-0.9595003,0.6291205,-0.2694038,0.11,0.23,0.16,86.2
17877,49429666,1,1.58,-0.34,24.04,-0.1096922,-0.06177389,-0.1008917,0.1226223,-0.9595352,0.6289946,-0.2668932,0.11,0.23,0.16,86.2
17918,49439645,1,1.59,-0.34,24.04,-0.1116595,-0.06229221,-0.101703,0.1233365,-0.9606403,0.6283736,-0.2679105,0.11,0.23,0.16,86.2
17959,49449643,1,1.59,-0.34,24.04,-0.111601,-0.06204093,-0.1003545,0.1253377,-0.9607237,0.6282448,-0.2655487,0.11,0.23,0.16,86.2
18002,49461958,1,1.59,-0.34,24.05,-0.1130107,-0.06109436,-0.09839452,0.1257264,-0.9612004,0.6279125,-0.2636361,0.11,0.23,0.16,86.2
18043,49472004,1,1.59,-0.34,24.05,-0.1120926,-0.06147503,-0.09554352000000001,0.1316914,-0.9613896,0.6277528999999999,-0.2611245,0.11,0.23,0.16,86.2
18084,49482191,1,1.59,-0.35,24.05,-0.1124853,-0.06046113,-0.09338296,0.1357255,-0.9616318,0.6275707,-0.2587675,0.11,0.23,0.16,86.2
18125,49492550,1,1.59,-0.35,24.05,-0.11319,-0.06095806,-0.09340865,0.137717,-0.9619262,0.6273751,-0.2565787,0.11,0.23,0.16,86.2
18165,49502543,1,1.59,-0.35,24.05,-0.1151636,-0.06188279,-0.09359939,0.1428286,-0.9630716,0.6267621,-0.2575171,0.11,0.23,0.16,86.2
18209,49512539,1,1.59,-0.35,24.04,-0.1148386,-0.06228322,-0.09184175999999999,0.1465296,-0.9634226,0.6265449,-0.2554768,0.11,0.23,0.16,86.2
18254,49522212,1,1.59,-0.35,24.05,-0.1142816,-0.06273112,-0.09091162999999999,0.1481728,-0.9638175,0.6263038,-0.2535838,0.11,0.23,0.17,86.2
18295,49532232,1,1.59,-0.35,24.05,-0.1143611,-0.06189961,-0.08823767,0.1465379,-0.9642394,0.6260485,-0.2518074,0.11,0.23,0.16,86.2
18336,49542551,1,1.59,-0.35,24.05,-0.1150401,-0.06148867,-0.08764182,0.1458978,-0.9653903,0.6254296,-0.252692,0.11,0.23,0.16,86.2
18376,49552224,1,1.59,-0.35,24.04,-0.1162725,-0.06135814,-0.08817265000000001,0.1362827,-0.9658488,0.6251762,-0.2509946,0.11,0.23,0.16,86.2
18417,49562500,1,1.59,-0.35,24.04,-0.1171209,-0.06214013,-0.08537625,0.1312066,-0.9663561000000001,0.6249049,-0.248949,0.11,0.23,0.16,86.2
18458,49572952,1,1.59,-0.35,24.04,-0.1179422,-0.06162485,-0.08500122,0.1280398,-0.9670392,0.624548,-0.2471558,0.11,0.23,0.17,86.2
18499,49583516,1,1.59,-0.35,24.04,-0.1190914,-0.06197204,-0.08402798,0.1290004,-0.9682296,0.623926,-0.248001,0.11,0.23,0.17,86.2
18540,49593616,1,1.59,-0.35,24.04,-0.1195218,-0.06102858,-0.08167837,0.1293816,-0.9688466,0.6236259,-0.2462399,0.11,0.23,0.17,86.2
18581,49603644,1,1.59,-0.35,24.04,-0.1196608,-0.06062763,-0.07980693,0.1290434,-0.9695112,0.6233088,-0.2446109,0.11,0.23,0.17,86.2
18620,49613775,1,1.6,-0.35,24.04,-0.1196066,-0.06059655,-0.07926865,0.1284631,-0.9695191,0.6231565999999999,-0.2428187,0.11,0.23,0.17,86.2
18662,49623724,1,1.6,-0.35,24.04,-0.1194488,-0.05897814,-0.08031942,0.1261811,-0.9694811,0.6230455,-0.241103,0.11,0.23,0.17,86.2
18702,49633850,1,1.6,-0.35,24.03,-0.118674,-0.05813806,-0.08034052999999999,0.1264784,-0.9695054,0.6229241,-0.2395526,0.11,0.23,0.17,86.2
18743,49643805,1,1.6,-0.35,24.03,-0.1180773,-0.05916773,-0.07931133,0.1252287,-0.9695805,0.622781,-0.2381276,0.11,0.23,0.17,86.2
18784,49654242,1,1.59,-0.35,24.03,-0.1184952,-0.05960702,-0.07809538000000001,0.1258032,-0.9707603,0.6221873999999999,-0.2389121,0.11,0.23,0.17,86.2
18828,49666701,1,1.59,-0.35,24.03,-0.1170186,-0.05831558,-0.07660521000000001,0.1243825,-0.970236,0.6222539,-0.2344491,0.11,0.23,0.17,86.2
18868,49677126,1,1.6,-0.36,24.03,-0.1179335,-0.05879278,-0.07668767999999999,0.1270528,-0.9714028,0.6216691,-0.2352101,0.11,0.23,0.17,86.2
18909,49687207,1,1.6,-0.35,24.03,-0.1186129,-0.05873599,-0.07534589999999999,0.1296798,-0.9716213,0.6214752,-0.2334507,0.11,0.23,0.17,86.2
18951,49697594,1,1.6,-0.35,24.03,-0.1178035,-0.05676402,-0.07524013,0.1289205,-0.9718937,0.6212723,-0.2318272,0.11,0.23,0.17,86.2
18991,49707633,1,1.6,-0.35,24.03,-0.1170247,-0.05706776,-0.07385750000000001,0.1253356,-0.9722035999999999,0.6210568,-0.2303162,0.11,0.23,0.17,86.2
19032,49717975,1,1.59,-0.35,24.03,-0.1195713,-0.0577155,-0.07529563,0.1211439,-0.9734986,0.620427,-0.2311355,0.11,0.23,0.17,86.2
19077,49727976,1,1.6,-0.35,24.03,-0.1202745,-0.05968987,-0.07523833000000001,0.1105232,-0.9746966,0.6198458999999999,-0.2318896,0.11,0.23,0.17,86.2
19118,49737950,1,1.6,-0.35,24.03,-0.1202198,-0.05953021,-0.07492521000000001,0.1023149,-0.9750338,0.6196131,-0.2304092,0.11,0.23,0.16,86.2
19159,49747966,1,1.59,-0.35,24.03,-0.120942,-0.06013924,-0.07377183,0.09740683999999999,-0.9754356,0.6193478,-0.229072,0.11,0.23,0.17,86.2
19200,49758014,1,1.59,-0.35,24.03,-0.1216117,-0.06012628,-0.07527278,0.09081055,-0.975875,0.6190689,-0.2278477,0.11,0.23,0.17,86.2
19243,49770785,1,1.6,-0.34,24.03,-0.1219288,-0.06023208,-0.07369989,0.08503724999999999,-0.9767294,0.6185982,-0.2264133,0.11,0.23,0.16,86.2
19285,49780988,1,1.59,-0.34,24.03,-0.1228446,-0.06117815,-0.07253672999999999,0.08453801,-0.9772858,0.6182731,-0.2249074,0.11,0.23,0.17,86.2
19327,49790878,1,1.6,-0.34,24.03,-0.1228766,-0.06207447,-0.071547,0.0832543,-0.9778667,0.6179338,-0.2235048,0.11,0.23,0.17,86.2
19367,49800792,1,1.6,-0.34,24.03,-0.1239682,-0.06260853,-0.07057260999999999,0.08484603,-0.9790967,0.6173074,-0.2242119,0.11,0.23,0.17,86.2
19410,49816564,1,1.6,-0.34,24.03,-0.123444,-0.06242625,-0.06984672,0.08609704,-0.9791296,0.6171619,-0.2205222,0.11,0.23,0.17,86.2
19456,49826577,1,1.6,-0.34,24.03,-0.122885,-0.06228915,-0.06695099,0.09009904000000001,-0.9789606,0.6171609,-0.2184753,0.11,0.23,0.17,86.2
19497,49836785,1,1.59,-0.34,24.03,-0.1246798,-0.06238884,-0.06709751,0.09615372,-0.9803125,0.6164789000000001,-0.2192063,0.11,0.23,0.17,86.2
19539,49846724,1,1.59,-0.34,24.03,-0.1259349,-0.0609853,-0.06611693,0.09857935,-0.9803275,0.6164076000000001,-0.2173205,0.11,0.23,0.17,86.2
19579,49856725,1,1.6,-0.34,24.03,-0.1254895,-0.06047546,-0.06592616,0.1027358,-0.9804095,0.6163211,-0.2155851,0.11,0.23,0.17,86.2
19617,49866892,1,1.6,-0.34,24.03,-0.1260778,-0.05952813,-0.06451046000000001,0.1079726,-0.9805323,0.616221,-0.2133008,0.11,0.23,0.17,86.2
19659,49876711,1,1.6,-0.34,24.03,-0.1254462,-0.05906478,-0.0634511,0.1123123,-0.9807317,0.616101,-0.2111739,0.11,0.23,0.17,86.2
19699,49886801,1,1.6,-0.34,24.03,-0.1255849,-0.06015974,-0.06263974,0.1200564,-0.9819818,0.6155068,-0.2118018,0.11,0.23,0.17,86.2
19740,49896769,1,1.6,-0.35,24.03,-0.1251664,-0.06094215,-0.06202403,0.1262674,-0.982233,0.61535,-0.2098047,0.11,0.23,0.17,86.2
19781,49906668,1,1.6,-0.35,24.03,-0.125401,-0.06082788,-0.06172123,0.1299636,-0.9825055,0.6151843,-0.2079288,0.11,0.23,0.17,86.2
19823,49916984,1,1.6,-0.35,24.03,-0.1256704,-0.06046614,-0.06087228,0.1332598,-0.9828505,0.6149897,-0.206199,0.11,0.23,0.17,86.2
19867,49927221,1,1.6,-0.35,24.02,-0.1256245,-0.06136829,-0.05807561,0.1360627,-0.9832426,0.6147698,-0.2045781,0.11,0.23,0.17,86.2
19909,49937661,1,1.6,-0.35,24.02,-0.127145,-0.06058099,-0.0589942,0.1368623,-0.9844989,0.6141612,-0.2051582,0.11,0.23,0.17,86.2
19950,49948034,1,1.6,-0.35,24.02,-0.1269717,-0.0611052,-0.05671657,0.1380501,-0.9850613,0.6138714,-0.2036916,0.11,0.23,0.17,86.2
19991,49958057,1,1.6,-0.36,24.02,-0.1268293,-0.06173385,-0.05612664,0.1358766,-0.9855435,0.6136127,-0.202265,0.11,0.23,0.17,86.2
20032,49968034,1,1.6,-0.36,24.02,-0.1281512,-0.06201718,-0.05732942,0.129054,-0.9868184,0.6129972,-0.2028308,0.11,0.23,0.17,86.2
20072,49978027,1,1.6,-0.36,24.02,-0.1284309,-0.06269201000000001,-0.05486958,0.1254765,-0.9873324,0.6127229,-0.2005434,0.11,0.23,0.17,86.2
