LineNo,TimeUS,C,Roll,Pitch,Yaw,VN,VE,VD,dPD,PN,PE,PD,GX,GY,GZ,OH
426,4.5014e+07,1,1.62,-0.42,24.19,-0.23017,-0.10604,-0.029059,0.047407,-0.82376,0.77388,-0.087742,0.11,0.21,0.15,86.2
883,4.51e+07,1,1.64,-0.43,24.2,-0.2284,-0.10891,-0.024669,0.041441,-0.82376,0.77388,-0.084415,0.1,0.2,0.14,86.2
1110,4.5178e+07,1,1.62,-0.41,24.19,-0.23223,-0.1103,-0.18188,-0.12404,-0.82376,0.77388,-0.087159,0.1,0.2,0.14,86.2
1312,4.5305e+07,1,1.62,-0.38,24.2,-0.23418,-0.11021,-0.43986,-0.35585,-0.84602,0.77388,-0.11866,0.1,0.19,0.13,86.2
1588,4.5364e+07,1,1.62,-0.38,24.2,-0.23472,-0.10893,-0.43441,-0.35682,-0.84602,0.77388,-0.13971,0.1,0.19,0.13,86.2
1630,4.5374e+07,1,1.62,-0.38,24.2,-0.23588,-0.10991,-0.43448,-0.35657,-0.84602,0.77388,-0.14448,0.1,0.19,0.13,86.2
1671,4.5384e+07,1,1.62,-0.37,24.2,-0.23581,-0.11025,-0.43287,-0.35592,-0.84602,0.77388,-0.14805,0.1,0.19,0.13,86.2
1711,4.5394e+07,1,1.63,-0.37,24.2,-0.23478,-0.10936,-0.43136,-0.35493,-0.84602,0.77388,-0.1512,0.1,0.19,0.13,86.2
1752,4.5404e+07,1,1.63,-0.37,24.2,-0.23311,-0.10946,-0.43162,-0.35503,-0.84602,0.77388,-0.15449,0.1,0.19,0.14,86.2
1794,4.5414e+07,1,1.63,-0.38,24.2,-0.2323,-0.11049,-0.43182,-0.35539,-0.85716,0.76582,-0.1578,0.1,0.19,0.14,86.2
1836,4.5424e+07,1,1.63,-0.38,24.19,-0.23382,-0.11201,-0.43177,-0.35423,-0.85716,0.76582,-0.16213,0.1,0.19,0.14,86.2
1876,4.5434e+07,1,1.63,-0.38,24.19,-0.23356,-0.11237,-0.43118,-0.35337,-0.85716,0.76582,-0.1655,0.1,0.19,0.14,86.2
1917,4.5445e+07,1,1.63,-0.38,24.19,-0.23408,-0.11197,-0.43002,-0.35154,-0.85716,0.76582,-0.16936,0.1,0.2,0.14,86.2
1962,4.5456e+07,1,1.62,-0.38,24.19,-0.23354,-0.11137,-0.42875,-0.34996,-0.85716,0.76582,-0.17285,0.1,0.2,0.14,86.2
2002,4.5466e+07,1,1.62,-0.38,24.19,-0.23404,-0.11104,-0.42725,-0.34918,-0.85716,0.76582,-0.1768,0.1,0.2,0.14,86.2
2045,4.5476e+07,1,1.62,-0.38,24.19,-0.23301,-0.11198,-0.42637,-0.34959,-0.85716,0.76582,-0.18035,0.1,0.2,0.14,86.2
2085,4.5486e+07,1,1.62,-0.37,24.18,-0.23392,-0.11346,-0.42442,-0.34979,-0.85716,0.76582,-0.18396,0.1,0.2,0.14,86.2
2129,4.55e+07,1,1.61,-0.37,24.18,-0.23443,-0.11315,-0.42468,-0.35229,-0.85716,0.76582,-0.18875,0.1,0.2,0.14,86.2
2169,4.551e+07,1,1.61,-0.37,24.18,-0.23385,-0.11269,-0.42554,-0.35535,-0.85716,0.76582,-0.19234,0.1,0.2,0.14,86.2
2210,4.552e+07,1,1.61,-0.37,24.17,-0.23403,-0.11312,-0.42317,-0.35457,-0.85716,0.76582,-0.1966,0.1,0.2,0.14,86.2
2254,4.553e+07,1,1.61,-0.37,24.18,-0.23238,-0.11191,-0.42386,-0.35772,-0.85716,0.76582,-0.2006,0.1,0.2,0.14,86.2
2295,4.554e+07,1,1.62,-0.37,24.18,-0.23276,-0.11147,-0.42604,-0.36251,-0.85716,0.76582,-0.20428,0.1,0.2,0.14,86.2
2338,4.555e+07,1,1.62,-0.38,24.18,-0.23173,-0.11056,-0.42652,-0.36593,-0.85716,0.76582,-0.20797,0.1,0.2,0.14,86.2
2382,4.556e+07,1,1.62,-0.38,24.18,-0.23341,-0.11076,-0.42722,-0.36949,-0.85716,0.76582,-0.21226,0.1,0.2,0.14,86.2
2423,4.5571e+07,1,1.62,-0.38,24.18,-0.23209,-0.10951,-0.42739,-0.37276,-0.85716,0.76582,-0.216,0.1,0.2,0.14,86.2
2465,4.5581e+07,1,1.63,-0.37,24.18,-0.23233,-0.10907,-0.42611,-0.37532,-0.85716,0.76582,-0.22023,0.1,0.2,0.14,86.2
2506,4.5591e+07,1,1.63,-0.37,24.18,-0.2325,-0.11012,-0.42734,-0.37994,-0.85716,0.76582,-0.22448,0.1,0.2,0.14,86.2
2546,4.5602e+07,1,1.63,-0.38,24.17,-0.23099,-0.11058,-0.42749,-0.38426,-0.85716,0.76582,-0.22872,0.1,0.2,0.14,86.2
2589,4.5612e+07,1,1.63,-0.37,24.17,-0.23273,-0.11057,-0.42749,-0.38802,-0.85716,0.76582,-0.233,0.1,0.2,0.14,86.2
2631,4.5623e+07,1,1.63,-0.38,24.16,-0.23078,-0.11239,-0.42786,-0.38933,-0.86829,0.7497,-0.23642,0.1,0.2,0.14,86.2
2671,4.5633e+07,1,1.63,-0.38,24.16,-0.23028,-0.11313,-0.42749,-0.38766,-0.86829,0.7497,-0.23952,0.1,0.2,0.14,86.2
2712,4.5643e+07,1,1.62,-0.38,24.16,-0.23023,-0.11263,-0.42776,-0.3842,-0.86829,0.7497,-0.24268,0.1,0.2,0.14,86.2
2752,4.5653e+07,1,1.62,-0.38,24.16,-0.22946,-0.11204,-0.42655,-0.37886,-0.86829,0.7497,-0.2459,0.1,0.2,0.14,86.2
2798,4.5663e+07,1,1.62,-0.39,24.16,-0.23031,-0.11314,-0.42613,-0.37463,-0.86829,0.7497,-0.25016,0.1,0.2,0.14,86.2
2839,4.5673e+07,1,1.62,-0.39,24.16,-0.22948,-0.11207,-0.42608,-0.37092,-0.86829,0.7497,-0.25339,0.1,0.2,0.14,86.2
2880,4.5684e+07,1,1.62,-0.39,24.15,-0.22963,-0.11159,-0.42655,-0.36839,-0.86829,0.7497,-0.25677,0.1,0.2,0.14,86.2
2922,4.5694e+07,1,1.62,-0.39,24.15,-0.22961,-0.1124,-0.42669,-0.36586,-0.86829,0.7497,-0.2606,0.1,0.2,0.14,86.2
2962,4.5704e+07,1,1.62,-0.39,24.15,-0.23092,-0.11282,-0.42782,-0.36537,-0.86829,0.7497,-0.26487,0.1,0.2,0.14,86.2
3000,4.5715e+07,1,1.62,-0.39,24.14,-0.2303,-0.1116,-0.426,-0.36103,-0.86829,0.7497,-0.26773,0.1,0.2,0.14,86.2
3041,4.5725e+07,1,1.63,-0.39,24.15,-0.22861,-0.11223,-0.42369,-0.35688,-0.86829,0.7497,-0.27065,0.1,0.2,0.14,86.2
3081,4.5735e+07,1,1.63,-0.39,24.15,-0.2286,-0.11303,-0.42214,-0.35257,-0.86829,0.7497,-0.27363,0.1,0.2,0.14,86.2
3123,4.5745e+07,1,1.64,-0.39,24.15,-0.23032,-0.11437,-0.42414,-0.34977,-0.86829,0.7497,-0.27831,0.1,0.2,0.14,86.2
3163,4.5756e+07,1,1.64,-0.39,24.15,-0.23001,-0.11326,-0.42417,-0.34662,-0.86829,0.7497,-0.28138,0.1,0.2,0.14,86.2
3208,4.5766e+07,1,1.64,-0.39,24.15,-0.23108,-0.11319,-0.42285,-0.3446,-0.86829,0.7497,-0.28562,0.1,0.2,0.14,86.2
3248,4.5776e+07,1,1.64,-0.39,24.15,-0.23058,-0.11218,-0.42248,-0.34361,-0.86829,0.7497,-0.28871,0.1,0.2,0.14,86.2
3289,4.5786e+07,1,1.64,-0.4,24.15,-0.2301,-0.11377,-0.42342,-0.3447,-0.86829,0.7497,-0.29231,0.1,0.2,0.14,86.2
3330,4.5796e+07,1,1.64,-0.4,24.15,-0.23048,-0.11367,-0.42418,-0.34587,-0.86829,0.7497,-0.29558,0.1,0.2,0.14,86.2
3372,4.5807e+07,1,1.64,-0.4,24.15,-0.23018,-0.11451,-0.42478,-0.34578,-0.86829,0.7497,-0.29931,0.1,0.2,0.14,86.2
3416,4.5817e+07,1,1.64,-0.39,24.15,-0.23093,-0.11581,-0.42459,-0.34438,-0.86829,0.7497,-0.30354,0.1,0.2,0.14,86.2
3453,4.5828e+07,1,1.63,-0.39,24.15,-0.23004,-0.11524,-0.42475,-0.34127,-0.87942,0.7497,-0.3064,0.1,0.2,0.14,86.2
3496,4.5838e+07,1,1.63,-0.39,24.15,-0.22927,-0.11501,-0.424,-0.33504,-0.87942,0.7497,-0.30892,0.1,0.2,0.14,86.2
3536,4.5848e+07,1,1.63,-0.38,24.15,-0.22837,-0.1143,-0.42324,-0.32831,-0.87942,0.7497,-0.31155,0.1,0.2,0.14,86.2
3578,4.5858e+07,1,1.62,-0.38,24.15,-0.22724,-0.1137,-0.42295,-0.32446,-0.87942,0.7497,-0.31425,0.1,0.2,0.14,86.2
3626,4.5869e+07,1,1.62,-0.38,24.15,-0.22859,-0.11323,-0.42203,-0.31787,-0.87942,0.7497,-0.31888,0.1,0.2,0.14,86.2
3666,4.5879e+07,1,1.63,-0.38,24.15,-0.22633,-0.11257,-0.42292,-0.31503,-0.87942,0.7497,-0.32123,0.1,0.2,0.14,86.2
3707,4.5889e+07,1,1.63,-0.39,24.16,-0.22608,-0.11157,-0.42516,-0.31391,-0.87942,0.7497,-0.32455,0.1,0.2,0.14,86.2
3748,4.5899e+07,1,1.63,-0.39,24.16,-0.22589,-0.11058,-0.42443,-0.31089,-0.87942,0.7497,-0.32751,0.1,0.2,0.14,86.2
3792,4.5913e+07,1,1.64,-0.38,24.16,-0.2255,-0.11124,-0.42533,-0.3089,-0.87942,0.7497,-0.33105,0.1,0.2,0.14,86.2
3832,4.5922e+07,1,1.64,-0.39,24.16,-0.22689,-0.11202,-0.42395,-0.30471,-0.87942,0.7497,-0.33528,0.1,0.2,0.14,86.2
3874,4.5933e+07,1,1.64,-0.39,24.16,-0.22619,-0.11275,-0.42523,-0.3031,-0.87942,0.7497,-0.33765,0.1,0.2,0.14,86.2
3915,4.5942e+07,1,1.64,-0.39,24.16,-0.22531,-0.11312,-0.42321,-0.29751,-0.87942,0.7497,-0.34013,0.1,0.2,0.14,86.2
3955,4.5952e+07,1,1.64,-0.39,24.16,-0.2246,-0.11369,-0.42282,-0.29439,-0.87942,0.7497,-0.34268,0.1,0.2,0.14,86.2
3996,4.5963e+07,1,1.64,-0.39,24.16,-0.22468,-0.11425,-0.42326,-0.29236,-0.87942,0.7497,-0.34531,0.1,0.2,0.14,86.2
4042,4.5972e+07,1,1.63,-0.38,24.15,-0.22626,-0.11469,-0.42294,-0.28828,-0.87942,0.7497,-0.34951,0.1,0.2,0.14,86.2
4084,4.5982e+07,1,1.63,-0.38,24.15,-0.2267,-0.11472,-0.42219,-0.28559,-0.87942,0.7497,-0.35226,0.1,0.2,0.14,86.2
4124,4.5992e+07,1,1.63,-0.38,24.15,-0.22542,-0.11523,-0.42283,-0.28516,-0.87942,0.7497,-0.35502,0.1,0.2,0.14,86.2
4168,4.6002e+07,1,1.63,-0.38,24.15,-0.22485,-0.11569,-0.42362,-0.28634,-0.87942,0.74164,-0.35793,0.1,0.2,0.14,86.2
4208,4.6016e+07,1,1.63,-0.38,24.15,-0.22452,-0.11517,-0.4241,-0.28552,-0.87942,0.74164,-0.36176,0.1,0.21,0.14,86.2
4249,4.6025e+07,1,1.62,-0.38,24.15,-0.22358,-0.11488,-0.42325,-0.28463,-0.87942,0.74164,-0.36438,0.1,0.21,0.14,86.2
4290,4.6036e+07,1,1.62,-0.38,24.15,-0.22478,-0.11564,-0.42209,-0.28325,-0.87942,0.74164,-0.36868,0.1,0.21,0.14,86.2
4332,4.6046e+07,1,1.62,-0.38,24.15,-0.22315,-0.11634,-0.42172,-0.28361,-0.87942,0.74164,-0.3713,0.1,0.21,0.14,86.2
4373,4.6056e+07,1,1.63,-0.37,24.15,-0.22268,-0.11582,-0.42182,-0.2846,-0.87942,0.74164,-0.3741,0.1,0.21,0.14,86.2
4413,4.6066e+07,1,1.63,-0.37,24.15,-0.2217,-0.11548,-0.42037,-0.28332,-0.87942,0.74164,-0.37695,0.1,0.21,0.14,86.2
4459,4.6076e+07,1,1.63,-0.37,24.16,-0.22057,-0.11469,-0.42086,-0.28419,-0.87942,0.74164,-0.38032,0.1,0.21,0.14,86.2
4499,4.6086e+07,1,1.64,-0.37,24.16,-0.22048,-0.11466,-0.41978,-0.28471,-0.87942,0.74164,-0.38331,0.11,0.21,0.14,86.2
4540,4.6096e+07,1,1.64,-0.37,24.16,-0.21998,-0.11438,-0.41924,-0.2857,-0.87942,0.74164,-0.3864,0.11,0.21,0.15,86.2
4581,4.6106e+07,1,1.64,-0.37,24.16,-0.22011,-0.11511,-0.42055,-0.29,-0.87942,0.74164,-0.3906,0.11,0.21,0.15,86.2
4622,4.6119e+07,1,1.64,-0.37,24.16,-0.2194,-0.11512,-0.41976,-0.29199,-0.87942,0.74164,-0.39436,0.11,0.21,0.15,86.2
4664,4.613e+07,1,1.64,-0.37,24.16,-0.21935,-0.11599,-0.41975,-0.2936,-0.87942,0.74164,-0.39699,0.11,0.21,0.15,86.2
4704,4.614e+07,1,1.64,-0.38,24.15,-0.2197,-0.11552,-0.41989,-0.29674,-0.87942,0.74164,-0.39966,0.1,0.21,0.15,86.2
4745,4.615e+07,1,1.64,-0.38,24.15,-0.22038,-0.11591,-0.42096,-0.29969,-0.87942,0.74164,-0.40388,0.1,0.21,0.15,86.2
4786,4.616e+07,1,1.63,-0.38,24.15,-0.22083,-0.11469,-0.41936,-0.30016,-0.87942,0.74164,-0.40663,0.1,0.21,0.14,86.2
4830,4.617e+07,1,1.63,-0.38,24.15,-0.22243,-0.11438,-0.42051,-0.30191,-0.87942,0.74164,-0.40948,0.11,0.21,0.15,86.2
4871,4.618e+07,1,1.63,-0.38,24.15,-0.22241,-0.11337,-0.41872,-0.30259,-0.87942,0.74164,-0.41278,0.1,0.21,0.15,86.2
4912,4.619e+07,1,1.62,-0.38,24.16,-0.22177,-0.11297,-0.42024,-0.30534,-0.87942,0.74164,-0.41579,0.11,0.21,0.15,86.2
4953,4.62e+07,1,1.62,-0.38,24.16,-0.22256,-0.1125,-0.42045,-0.30758,-0.87942,0.74164,-0.41999,0.11,0.21,0.15,86.2
4995,4.621e+07,1,1.62,-0.38,24.16,-0.22283,-0.11174,-0.42082,-0.31076,-0.90168,0.73358,-0.42304,0.11,0.21,0.15,86.2
5037,4.622e+07,1,1.62,-0.38,24.16,-0.22423,-0.11203,-0.41941,-0.31447,-0.90168,0.73358,-0.42727,0.11,0.21,0.15,86.2
5078,4.6231e+07,1,1.62,-0.38,24.16,-0.22427,-0.11181,-0.41676,-0.31608,-0.90168,0.73358,-0.4296,0.1,0.21,0.14,86.2
5119,4.6241e+07,1,1.63,-0.39,24.16,-0.22273,-0.113,-0.41638,-0.31344,-0.90168,0.73358,-0.43169,0.1,0.21,0.14,86.2
5160,4.6251e+07,1,1.63,-0.39,24.16,-0.22173,-0.11282,-0.41707,-0.31019,-0.90168,0.73358,-0.43382,0.1,0.21,0.14,86.2
5201,4.6261e+07,1,1.63,-0.39,24.16,-0.22184,-0.11236,-0.41747,-0.30682,-0.90168,0.73358,-0.43614,0.1,0.21,0.14,86.2
5245,4.6271e+07,1,1.63,-0.39,24.16,-0.22289,-0.11337,-0.41666,-0.29978,-0.90168,0.73358,-0.44025,0.1,0.21,0.14,86.2
5287,4.6281e+07,1,1.64,-0.39,24.16,-0.22307,-0.11184,-0.41712,-0.29543,-0.90168,0.73358,-0.44265,0.1,0.21,0.15,86.2
5327,4.6291e+07,1,1.64,-0.39,24.16,-0.22169,-0.11056,-0.41664,-0.29073,-0.90168,0.73358,-0.4451,0.1,0.21,0.15,86.2
5368,4.6301e+07,1,1.64,-0.39,24.16,-0.22188,-0.11078,-0.41795,-0.28929,-0.90168,0.73358,-0.44768,0.1,0.21,0.15,86.2
5408,4.6311e+07,1,1.64,-0.38,24.16,-0.22065,-0.11122,-0.41811,-0.28609,-0.90168,0.73358,-0.45036,0.11,0.21,0.15,86.2
5452,4.6324e+07,1,1.63,-0.38,24.16,-0.21915,-0.10944,-0.41702,-0.28066,-0.90168,0.73358,-0.45349,0.11,0.21,0.15,86.2
5492,4.6334e+07,1,1.62,-0.38,24.15,-0.21871,-0.10911,-0.41669,-0.2775,-0.90168,0.73358,-0.45556,0.11,0.21,0.15,86.2
5534,4.6345e+07,1,1.62,-0.38,24.15,-0.22066,-0.10955,-0.41624,-0.27131,-0.90168,0.73358,-0.45974,0.11,0.21,0.15,86.2
5576,4.6355e+07,1,1.61,-0.38,24.15,-0.21925,-0.10939,-0.41673,-0.26798,-0.90168,0.73358,-0.46228,0.11,0.21,0.15,86.2
5616,4.6365e+07,1,1.62,-0.38,24.15,-0.21795,-0.10934,-0.41599,-0.26563,-0.90168,0.73358,-0.46452,0.11,0.21,0.15,86.2
5661,4.6376e+07,1,1.61,-0.38,24.15,-0.21808,-0.10826,-0.41534,-0.26449,-0.90168,0.73358,-0.46682,0.11,0.21,0.15,86.2
5702,4.6386e+07,1,1.62,-0.38,24.15,-0.21936,-0.10945,-0.4148,-0.26159,-0.90168,0.73358,-0.47139,0.11,0.21,0.15,86.2
5743,4.6396e+07,1,1.62,-0.38,24.15,-0.21981,-0.10928,-0.41334,-0.25932,-0.90168,0.73358,-0.4738,0.11,0.21,0.15,86.2
5783,4.6406e+07,1,1.62,-0.38,24.15,-0.21875,-0.10837,-0.41413,-0.26062,-0.90168,0.73358,-0.47626,0.11,0.21,0.15,86.2
5826,4.6416e+07,1,1.62,-0.38,24.15,-0.21894,-0.10765,-0.41481,-0.26105,-0.91281,0.72551,-0.47771,0.11,0.21,0.15,86.2
5864,4.6427e+07,1,1.63,-0.38,24.15,-0.21765,-0.10739,-0.41326,-0.25533,-0.91281,0.72551,-0.47928,0.11,0.21,0.15,86.2
5905,4.6437e+07,1,1.63,-0.38,24.15,-0.21655,-0.10766,-0.41129,-0.24847,-0.91281,0.72551,-0.48104,0.11,0.21,0.15,86.2
5947,4.6447e+07,1,1.63,-0.38,24.15,-0.21785,-0.1082,-0.41051,-0.23986,-0.91281,0.72551,-0.48548,0.11,0.21,0.15,86.2
5987,4.6457e+07,1,1.63,-0.38,24.15,-0.21568,-0.10926,-0.40683,-0.23146,-0.91281,0.72551,-0.48725,0.11,0.21,0.15,86.2
6028,4.6468e+07,1,1.62,-0.38,24.14,-0.21645,-0.10829,-0.407,-0.22758,-0.91281,0.72551,-0.48911,0.11,0.21,0.15,86.2
6074,4.6478e+07,1,1.62,-0.38,24.15,-0.21589,-0.10888,-0.4054,-0.22138,-0.91281,0.72551,-0.4915,0.11,0.21,0.15,86.2
6114,4.6488e+07,1,1.62,-0.38,24.15,-0.21441,-0.10869,-0.40423,-0.2177,-0.91281,0.72551,-0.49358,0.11,0.21,0.15,86.2
6155,4.6498e+07,1,1.62,-0.38,24.14,-0.21533,-0.10874,-0.4026,-0.21612,-0.91281,0.72551,-0.49573,0.11,0.21,0.15,86.2
6195,4.6508e+07,1,1.61,-0.37,24.14,-0.21711,-0.10889,-0.40192,-0.21445,-0.91281,0.72551,-0.49974,0.11,0.21,0.15,86.2
6236,4.6518e+07,1,1.61,-0.37,24.14,-0.21709,-0.1086,-0.40268,-0.21313,-0.91281,0.72551,-0.50076,0.11,0.22,0.15,86.2
6273,4.6528e+07,1,1.61,-0.37,24.14,-0.21701,-0.10856,-0.40124,-0.20774,-0.91281,0.72551,-0.50189,0.11,0.22,0.15,86.2
6317,4.6538e+07,1,1.61,-0.37,24.14,-0.21748,-0.10639,-0.40187,-0.205,-0.91281,0.72551,-0.50322,0.11,0.22,0.15,86.2
6360,4.6548e+07,1,1.61,-0.37,24.13,-0.21686,-0.10747,-0.39946,-0.1992,-0.91281,0.72551,-0.50463,0.11,0.22,0.15,86.2
6400,4.6559e+07,1,1.61,-0.37,24.13,-0.21812,-0.10847,-0.39914,-0.19278,-0.91281,0.72551,-0.50901,0.11,0.22,0.15,86.2
6441,4.6569e+07,1,1.61,-0.37,24.13,-0.21756,-0.10876,-0.39923,-0.1903,-0.91281,0.72551,-0.51051,0.11,0.22,0.15,86.2
6485,4.658e+07,1,1.61,-0.37,24.13,-0.21749,-0.10841,-0.39986,-0.18907,-0.91281,0.72551,-0.51217,0.11,0.22,0.15,86.2
6527,4.659e+07,1,1.61,-0.37,24.13,-0.21727,-0.10835,-0.39878,-0.1859,-0.91281,0.72551,-0.51433,0.11,0.22,0.15,86.2
6569,4.66e+07,1,1.62,-0.37,24.13,-0.21607,-0.10829,-0.39642,-0.18331,-0.91281,0.71745,-0.51621,0.11,0.22,0.15,86.2
6610,4.661e+07,1,1.62,-0.37,24.13,-0.21531,-0.10848,-0.39558,-0.18479,-0.91281,0.71745,-0.51818,0.11,0.22,0.15,86.2
6648,4.662e+07,1,1.61,-0.37,24.13,-0.21616,-0.10843,-0.3948,-0.18509,-0.91281,0.71745,-0.52211,0.11,0.22,0.15,86.2
6688,4.663e+07,1,1.61,-0.37,24.13,-0.21591,-0.10805,-0.39407,-0.18481,-0.91281,0.71745,-0.52313,0.11,0.22,0.15,86.2
6730,4.664e+07,1,1.6,-0.37,24.12,-0.216,-0.10808,-0.39476,-0.18228,-0.91281,0.71745,-0.5243,0.11,0.22,0.15,86.2
6771,4.6651e+07,1,1.6,-0.37,24.12,-0.21814,-0.1085,-0.39319,-0.18319,-0.91281,0.71745,-0.52822,0.11,0.22,0.15,86.2
6812,4.6661e+07,1,1.6,-0.37,24.12,-0.21878,-0.10709,-0.39198,-0.1842,-0.91281,0.71745,-0.52944,0.11,0.22,0.15,86.2
6853,4.6671e+07,1,1.59,-0.37,24.12,-0.21821,-0.10664,-0.39159,-0.19076,-0.91281,0.71745,-0.5308,0.11,0.22,0.15,86.2
6898,4.668e+07,1,1.59,-0.36,24.12,-0.21907,-0.1058,-0.39056,-0.19126,-0.91281,0.71745,-0.53467,0.11,0.22,0.15,86.2
6939,4.669e+07,1,1.59,-0.36,24.12,-0.21848,-0.10614,-0.38965,-0.19235,-0.91281,0.71745,-0.53613,0.11,0.22,0.15,86.2
6979,4.67e+07,1,1.59,-0.36,24.13,-0.2177,-0.10743,-0.38861,-0.19267,-0.91281,0.71745,-0.5377,0.11,0.22,0.15,86.2
7020,4.6711e+07,1,1.59,-0.36,24.13,-0.21758,-0.10703,-0.38783,-0.19635,-0.91281,0.71745,-0.53933,0.11,0.22,0.15,86.2
7060,4.6721e+07,1,1.59,-0.36,24.12,-0.21904,-0.10764,-0.38797,-0.19816,-0.91281,0.71745,-0.54359,0.11,0.22,0.15,86.2
7102,4.6731e+07,1,1.6,-0.36,24.12,-0.21913,-0.10761,-0.38865,-0.20111,-0.91281,0.71745,-0.54536,0.11,0.22,0.15,86.2
7140,4.6741e+07,1,1.6,-0.37,24.12,-0.2185,-0.10749,-0.38739,-0.20402,-0.91281,0.71745,-0.5467,0.11,0.22,0.15,86.2
7181,4.6751e+07,1,1.6,-0.37,24.12,-0.21958,-0.10676,-0.38645,-0.20427,-0.91281,0.71745,-0.5481,0.11,0.22,0.15,86.2
7222,4.6761e+07,1,1.6,-0.37,24.12,-0.2189,-0.10705,-0.38612,-0.20453,-0.91281,0.71745,-0.54966,0.11,0.22,0.15,86.2
7262,4.6772e+07,1,1.6,-0.37,24.12,-0.21951,-0.10758,-0.38525,-0.20165,-0.91281,0.71745,-0.55388,0.11,0.22,0.15,86.2
7309,4.6782e+07,1,1.6,-0.37,24.13,-0.21946,-0.1071,-0.38244,-0.19918,-0.91281,0.71745,-0.55549,0.11,0.22,0.15,86.2
7349,4.6792e+07,1,1.6,-0.37,24.13,-0.21993,-0.10812,-0.38179,-0.20352,-0.91281,0.71745,-0.55932,0.11,0.22,0.15,86.2
7392,4.6802e+07,1,1.6,-0.37,24.13,-0.22029,-0.10708,-0.38463,-0.21103,-0.91281,0.70939,-0.56101,0.11,0.21,0.15,86.2
7432,4.6813e+07,1,1.6,-0.37,24.13,-0.21963,-0.10697,-0.3831,-0.21186,-0.91281,0.70939,-0.56323,0.11,0.22,0.15,86.2
7474,4.6823e+07,1,1.6,-0.37,24.13,-0.22054,-0.10715,-0.38274,-0.21817,-0.91281,0.70939,-0.56703,0.11,0.22,0.15,86.2
7515,4.6833e+07,1,1.59,-0.37,24.13,-0.22136,-0.10663,-0.38245,-0.22553,-0.91281,0.70939,-0.56893,0.1,0.21,0.15,86.2
7556,4.6843e+07,1,1.59,-0.37,24.14,-0.22275,-0.10788,-0.38238,-0.23348,-0.91281,0.70939,-0.57274,0.1,0.21,0.15,86.2
7598,4.6853e+07,1,1.59,-0.37,24.13,-0.22247,-0.10684,-0.38258,-0.23463,-0.91281,0.70939,-0.57313,0.1,0.21,0.15,86.2
7639,4.6864e+07,1,1.59,-0.38,24.14,-0.22178,-0.10591,-0.38133,-0.23048,-0.91281,0.70939,-0.57368,0.1,0.21,0.15,86.2
7681,4.6874e+07,1,1.59,-0.38,24.14,-0.22253,-0.10535,-0.38021,-0.22496,-0.91281,0.70939,-0.57432,0.1,0.21,0.15,86.2
7726,4.6883e+07,1,1.59,-0.38,24.14,-0.22132,-0.10503,-0.38025,-0.21844,-0.91281,0.70939,-0.57518,0.1,0.21,0.15,86.2
7766,4.6894e+07,1,1.59,-0.38,24.15,-0.22101,-0.10541,-0.37807,-0.20567,-0.91281,0.70939,-0.57901,0.1,0.21,0.15,86.2
7807,4.6904e+07,1,1.59,-0.38,24.15,-0.22161,-0.10496,-0.37926,-0.19783,-0.91281,0.70939,-0.58032,0.1,0.21,0.15,86.2
7847,4.6914e+07,1,1.59,-0.38,24.15,-0.2207,-0.10434,-0.37992,-0.19422,-0.91281,0.70939,-0.58146,0.1,0.21,0.15,86.2
7889,4.6925e+07,1,1.59,-0.38,24.16,-0.21996,-0.10475,-0.37961,-0.19056,-0.91281,0.70939,-0.58528,0.1,0.21,0.15,86.2
7932,4.6937e+07,1,1.59,-0.38,24.16,-0.21841,-0.10504,-0.38036,-0.19108,-0.91281,0.70939,-0.58763,0.1,0.21,0.15,86.2
7973,4.6947e+07,1,1.6,-0.38,24.16,-0.21957,-0.10607,-0.38081,-0.19619,-0.91281,0.70939,-0.59143,0.1,0.21,0.15,86.2
8013,4.6957e+07,1,1.6,-0.38,24.17,-0.21784,-0.10625,-0.38021,-0.19514,-0.91281,0.70939,-0.59132,0.1,0.21,0.14,86.2
8055,4.6967e+07,1,1.6,-0.38,24.17,-0.21724,-0.1071,-0.37835,-0.18788,-0.91281,0.70939,-0.59138,0.1,0.21,0.14,86.2
8096,4.6977e+07,1,1.59,-0.38,24.16,-0.2162,-0.10737,-0.37811,-0.18107,-0.91281,0.70939,-0.59166,0.1,0.21,0.14,86.2
8142,4.6987e+07,1,1.59,-0.38,24.16,-0.2153,-0.10787,-0.37682,-0.17199,-0.91281,0.70939,-0.5921,0.1,0.21,0.14,86.2
8184,4.6997e+07,1,1.58,-0.37,24.16,-0.21626,-0.10887,-0.37626,-0.15958,-0.91281,0.70939,-0.59588,0.1,0.21,0.14,86.2
8224,4.7008e+07,1,1.59,-0.37,24.17,-0.21668,-0.10904,-0.37591,-0.15045,-0.91281,0.70939,-0.59643,0.1,0.21,0.14,86.2
8267,4.7018e+07,1,1.59,-0.37,24.17,-0.21682,-0.10868,-0.37878,-0.14554,-0.91281,0.70939,-0.59723,0.1,0.21,0.15,86.2
8304,4.7028e+07,1,1.59,-0.37,24.17,-0.21751,-0.10873,-0.3775,-0.13617,-0.93508,0.70133,-0.59852,0.1,0.21,0.15,86.2
8347,4.7038e+07,1,1.59,-0.37,24.17,-0.21755,-0.10865,-0.37759,-0.13455,-0.93508,0.70133,-0.60232,0.1,0.21,0.15,86.2
8385,4.7048e+07,1,1.59,-0.37,24.18,-0.21607,-0.107,-0.37446,-0.12664,-0.93508,0.70133,-0.60211,0.1,0.21,0.15,86.2
8425,4.7058e+07,1,1.59,-0.37,24.18,-0.21684,-0.10695,-0.37597,-0.13098,-0.93508,0.70133,-0.60586,0.1,0.21,0.15,86.2
8468,4.7068e+07,1,1.59,-0.37,24.18,-0.21616,-0.10507,-0.37611,-0.13459,-0.93508,0.70133,-0.60575,0.1,0.21,0.14,86.2
8509,4.7078e+07,1,1.59,-0.37,24.18,-0.21629,-0.10618,-0.37577,-0.13813,-0.93508,0.70133,-0.60952,0.1,0.21,0.14,86.2
8553,4.7088e+07,1,1.59,-0.37,24.18,-0.21581,-0.10571,-0.37478,-0.14147,-0.93508,0.70133,-0.60958,0.1,0.21,0.14,86.2
8594,4.7098e+07,1,1.59,-0.37,24.18,-0.21605,-0.10604,-0.37386,-0.14588,-0.93508,0.70133,-0.60975,0.1,0.21,0.14,86.2
8634,4.7109e+07,1,1.59,-0.37,24.18,-0.21498,-0.10506,-0.37208,-0.14229,-0.93508,0.70133,-0.61016,0.1,0.21,0.14,86.2
8675,4.7119e+07,1,1.59,-0.37,24.19,-0.21704,-0.10514,-0.37235,-0.13602,-0.93508,0.70133,-0.61388,0.1,0.21,0.14,86.2
8715,4.7129e+07,1,1.59,-0.37,24.19,-0.21617,-0.10316,-0.37169,-0.13082,-0.93508,0.70133,-0.61483,0.1,0.21,0.14,86.2
8756,4.7139e+07,1,1.58,-0.37,24.19,-0.21501,-0.10338,-0.37148,-0.128,-0.93508,0.70133,-0.61554,0.1,0.21,0.14,86.2
8799,4.7152e+07,1,1.58,-0.37,24.18,-0.21577,-0.10337,-0.37039,-0.1271,-0.93508,0.70133,-0.61601,0.1,0.21,0.14,86.2
8840,4.7161e+07,1,1.58,-0.37,24.19,-0.21585,-0.10303,-0.36948,-0.12363,-0.93508,0.70133,-0.61598,0.1,0.21,0.14,86.2
8881,4.7172e+07,1,1.58,-0.37,24.19,-0.21658,-0.10295,-0.36716,-0.11272,-0.93508,0.70133,-0.61998,0.1,0.21,0.14,86.2
8922,4.7182e+07,1,1.58,-0.37,24.19,-0.21632,-0.10209,-0.36683,-0.10576,-0.93508,0.70133,-0.62008,0.1,0.21,0.14,86.2
8967,4.7192e+07,1,1.58,-0.37,24.19,-0.2156,-0.10197,-0.36664,-0.10095,-0.93508,0.70133,-0.62033,0.1,0.21,0.14,86.2
9009,4.7202e+07,1,1.59,-0.36,24.18,-0.21542,-0.10197,-0.36699,-0.10138,-0.93508,0.69327,-0.62401,0.1,0.21,0.14,86.2
9051,4.7212e+07,1,1.59,-0.36,24.18,0.036273,0.0018352,-0.36655,-0.1008,-0.93479,0.69329,-0.62441,0.1,0.21,0.14,86.2
9092,4.7222e+07,1,1.59,-0.36,24.19,0.03634,0.0017537,-0.3667,-0.098457,-0.93084,0.69495,-0.62503,0.1,0.21,0.14,86.2
9132,4.7232e+07,1,1.59,-0.36,24.19,0.03652,0.0021125,-0.36697,-0.094874,-0.92708,0.69652,-0.62391,0.1,0.21,0.14,86.2
9169,4.7242e+07,1,1.6,-0.36,24.18,0.037334,0.0019408,-0.36509,-0.087716,-0.9235,0.69801,-0.62303,0.1,0.21,0.14,86.2
9229,4.7282e+07,1,1.6,-0.37,24.18,0.035744,0.001386,-0.36439,-0.049964,-0.91335,0.70198,-0.62536,0.1,0.21,0.15,86.2
9275,4.7292e+07,1,1.6,-0.37,24.18,0.035545,0.00060807,-0.36281,-0.044179,-0.91039,0.70314,-0.62535,0.1,0.21,0.15,86.2
9315,4.7302e+07,1,1.6,-0.37,24.18,0.034974,-0.0004052,-0.36048,-0.03624,-0.9076,0.70422,-0.6255,0.1,0.21,0.15,86.2
9356,4.7312e+07,1,1.6,-0.37,24.18,0.034544,-0.00059148,-0.3587,-0.031874,-0.90496,0.70522,-0.62582,0.1,0.21,0.15,86.2
9402,4.7327e+07,1,1.59,-0.37,24.18,0.033779,0.00089826,-0.35829,-0.028343,-0.90231,0.70617,-0.62648,0.1,0.21,0.15,86.2
9443,4.7337e+07,1,1.59,-0.37,24.19,0.033099,0.0003102,-0.35577,-0.023879,-0.89997,0.70706,-0.62561,0.1,0.21,0.15,86.2
9485,4.7348e+07,1,1.59,-0.37,24.18,0.031209,-0.00088156,-0.35559,-0.015755,-0.89962,0.70705,-0.62951,0.1,0.21,0.15,86.2
9525,4.7358e+07,1,1.6,-0.37,24.18,0.030584,-0.001399,-0.35314,-0.00833,-0.89743,0.70787,-0.6288,0.1,0.21,0.15,86.2
9566,4.7368e+07,1,1.6,-0.37,24.18,0.029357,-0.0016332,-0.3521,-0.0049916,-0.89538,0.70862,-0.62829,0.1,0.21,0.15,86.2
9606,4.7378e+07,1,1.6,-0.38,24.17,0.028948,-0.0015591,-0.35136,-0.0085343,-0.89344,0.70934,-0.62798,0.1,0.21,0.15,86.2
9651,4.7388e+07,1,1.6,-0.38,24.17,0.027766,-0.0026857,-0.35207,-0.0088678,-0.89316,0.70931,-0.63152,0.1,0.21,0.15,86.2
9693,4.7398e+07,1,1.6,-0.38,24.17,0.026092,-0.0031508,-0.35052,-0.0084313,-0.89137,0.70996,-0.63135,0.1,0.21,0.15,86.2
9736,4.7408e+07,1,1.61,-0.37,24.17,0.026352,-0.0045281,-0.35175,-0.020652,-0.89111,0.70993,-0.63486,0.1,0.21,0.15,86.2
9774,4.7419e+07,1,1.6,-0.37,24.17,0.024959,-0.0035646,-0.34902,-0.024049,-0.88958,0.71037,-0.63108,0.1,0.21,0.15,86.2
9814,4.7429e+07,1,1.6,-0.37,24.17,0.023178,-0.0036156,-0.34875,-0.021024,-0.88817,0.71079,-0.62761,0.1,0.21,0.15,86.2
9858,4.7441e+07,1,1.6,-0.37,24.17,0.021423,-0.0049192,-0.34655,0.0034602,-0.88682,0.71116,-0.62452,0.1,0.21,0.15,86.2
9899,4.7451e+07,1,1.6,-0.37,24.17,0.020304,-0.0047796,-0.34511,0.022893,-0.88564,0.7115,-0.62075,0.1,0.21,0.15,86.2
9940,4.7461e+07,1,1.6,-0.37,24.17,0.019214,-0.0043341,-0.34529,0.052897,-0.88544,0.71146,-0.62421,0.1,0.21,0.15,86.2
9981,4.7471e+07,1,1.6,-0.37,24.17,0.018299,-0.0044298,-0.34403,0.07947,-0.88438,0.71178,-0.62071,0.1,0.21,0.15,86.2
10021,4.7481e+07,1,1.59,-0.37,24.17,0.018256,-0.0046591,-0.34256,0.096871,-0.8834,0.71208,-0.61758,0.1,0.21,0.15,86.2
10066,4.7491e+07,1,1.6,-0.36,24.16,0.017569,-0.0041743,-0.34123,0.11887,-0.88252,0.71234,-0.6147,0.1,0.21,0.15,86.2
10107,4.7501e+07,1,1.59,-0.36,24.16,0.015816,-0.0036664,-0.34041,0.1374,-0.88173,0.71259,-0.6122,0.1,0.21,0.15,86.2
10149,4.7511e+07,1,1.59,-0.36,24.16,0.015667,-0.0049877,-0.34009,0.1582,-0.88158,0.71255,-0.6156,0.1,0.21,0.15,86.2
10189,4.7521e+07,1,1.59,-0.36,24.16,0.014439,-0.0047532,-0.33675,0.16922,-0.88089,0.71276,-0.6133,0.1,0.21,0.15,86.2
10232,4.7531e+07,1,1.59,-0.35,24.16,0.012905,-0.0048892,-0.33428,0.18435,-0.8803,0.71295,-0.60959,0.1,0.21,0.15,86.2
10273,4.7541e+07,1,1.59,-0.35,24.16,0.011965,-0.0058422,-0.33225,0.19564,-0.87979,0.71312,-0.60626,0.1,0.21,0.15,86.2
10314,4.7551e+07,1,1.59,-0.35,24.15,0.011373,-0.0065052,-0.33448,0.20291,-0.87967,0.71306,-0.60955,0.1,0.21,0.15,86.2
10356,4.7561e+07,1,1.59,-0.35,24.15,0.011009,-0.0065154,-0.3324,0.20997,-0.87922,0.7132,-0.6065,0.1,0.21,0.15,86.2
10396,4.7571e+07,1,1.6,-0.36,24.15,0.0099403,-0.0063453,-0.33054,0.2078,-0.87883,0.71331,-0.6037,0.1,0.21,0.15,86.2
10437,4.7581e+07,1,1.6,-0.36,24.15,0.0079056,-0.0058738,-0.32873,0.21128,-0.87853,0.71341,-0.6012,0.1,0.21,0.15,86.2
10481,4.7591e+07,1,1.59,-0.36,24.15,0.0066583,-0.0078199,-0.32768,0.21164,-0.87828,0.71348,-0.59898,0.1,0.21,0.15,86.2
10524,4.7601e+07,1,1.59,-0.36,24.15,0.0062488,-0.0091025,-0.32909,0.21341,-0.87822,0.71339,-0.60229,0.1,0.21,0.15,86.2
10564,4.7612e+07,1,1.59,-0.36,24.15,0.0063374,-0.0098703,-0.32459,0.20592,-0.87801,0.71321,-0.59786,0.1,0.21,0.15,86.2
10604,4.7622e+07,1,1.59,-0.36,24.15,0.0055404,-0.010416,-0.32208,0.20211,-0.87787,0.71304,-0.59347,0.1,0.21,0.15,86.2
10648,4.7634e+07,1,1.58,-0.36,24.15,0.0046687,-0.010288,-0.32211,0.21477,-0.87777,0.71282,-0.58945,0.1,0.21,0.15,86.2
10688,4.7644e+07,1,1.58,-0.35,24.15,0.0034037,-0.011034,-0.3196,0.22802,-0.87773,0.71261,-0.58519,0.1,0.21,0.15,86.2
10729,4.7654e+07,1,1.58,-0.35,24.15,0.002363,-0.012416,-0.32025,0.24675,-0.8777,0.7125,-0.58839,0.1,0.21,0.15,86.2
10770,4.7665e+07,1,1.58,-0.35,24.15,0.0012515,-0.012993,-0.31767,0.26129,-0.87774,0.71227,-0.58438,0.1,0.21,0.15,86.2
10810,4.7674e+07,1,1.57,-0.35,24.15,0.00083096,-0.014137,-0.31499,0.2737,-0.87781,0.71202,-0.58074,0.11,0.22,0.15,86.2
10851,4.7684e+07,1,1.58,-0.35,24.15,-0.00051049,-0.014377,-0.31263,0.27903,-0.87794,0.71176,-0.57736,0.11,0.22,0.15,86.2
10895,4.7694e+07,1,1.58,-0.35,24.15,-0.0023361,-0.014061,-0.31221,0.27964,-0.87811,0.7115,-0.57434,0.11,0.22,0.15,86.2
10936,4.7705e+07,1,1.58,-0.35,24.15,-0.0032438,-0.015656,-0.31283,0.28358,-0.87813,0.71135,-0.57745,0.11,0.22,0.15,86.2
10976,4.7715e+07,1,1.58,-0.35,24.15,-0.0052164,-0.015354,-0.31122,0.28205,-0.87837,0.71107,-0.57466,0.11,0.22,0.15,86.2
11022,4.7727e+07,1,1.58,-0.35,24.15,-0.0070524,-0.016014,-0.3079,0.27731,-0.87867,0.71073,-0.57308,0.11,0.22,0.15,86.2
11066,4.774e+07,1,1.58,-0.35,24.15,-0.010207,-0.015336,-0.30587,0.27523,-0.87903,0.7104,-0.5701,0.11,0.22,0.15,86.2
11110,4.7752e+07,1,1.58,-0.35,24.15,-0.012412,-0.016143,-0.30406,0.27271,-0.87945,0.71005,-0.56775,0.11,0.22,0.15,86.2
11150,4.7762e+07,1,1.58,-0.35,24.15,-0.014598,-0.016687,-0.30474,0.2696,-0.87989,0.70973,-0.56479,0.11,0.22,0.15,86.2
11191,4.7773e+07,1,1.58,-0.35,24.14,-0.014818,-0.01746,-0.3019,0.25195,-0.88033,0.70941,-0.56205,0.11,0.22,0.15,86.2
11232,4.7783e+07,1,1.58,-0.35,24.14,-0.014926,-0.019287,-0.30331,0.23965,-0.88048,0.70922,-0.56505,0.11,0.22,0.15,86.2
11277,4.7793e+07,1,1.58,-0.35,24.15,-0.015124,-0.020813,-0.30069,0.22812,-0.88095,0.70887,-0.56257,0.11,0.22,0.15,86.2
11320,4.7803e+07,1,1.58,-0.34,24.15,-0.015919,-0.020912,-0.30069,0.20114,-0.88112,0.70864,-0.56589,0.11,0.22,0.15,86.2
11357,4.7813e+07,1,1.58,-0.34,24.14,-0.016772,-0.020845,-0.29693,0.18169,-0.88119,0.70818,-0.56091,0.1,0.21,0.15,86.2
11399,4.7824e+07,1,1.58,-0.33,24.14,-0.017315,-0.021263,-0.29375,0.17104,-0.8813,0.70772,-0.55617,0.1,0.21,0.15,86.2
11440,4.7834e+07,1,1.59,-0.34,24.14,-0.01821,-0.020233,-0.29175,0.16843,-0.88145,0.70727,-0.55188,0.1,0.21,0.15,86.2
11481,4.7844e+07,1,1.59,-0.34,24.14,-0.020178,-0.021039,-0.29115,0.17822,-0.88166,0.70704,-0.55509,0.1,0.21,0.15,86.2
11522,4.7855e+07,1,1.59,-0.34,24.14,-0.020952,-0.021701,-0.28947,0.16973,-0.88184,0.70659,-0.55089,0.1,0.21,0.15,86.2
11563,4.7865e+07,1,1.59,-0.33,24.14,-0.021527,-0.022271,-0.28748,0.16996,-0.88205,0.70637,-0.55376,0.1,0.21,0.15,86.2
11604,4.7874e+07,1,1.59,-0.33,24.14,-0.022064,-0.022464,-0.28411,0.17177,-0.88226,0.70592,-0.54983,0.1,0.21,0.15,86.2
11644,4.7885e+07,1,1.6,-0.33,24.14,-0.022572,-0.021834,-0.28113,0.17637,-0.88251,0.70547,-0.54619,0.1,0.21,0.15,86.2
11690,4.7895e+07,1,1.6,-0.33,24.14,-0.024004,-0.023632,-0.28214,0.17118,-0.88275,0.70525,-0.54902,0.1,0.21,0.15,86.2
11731,4.7905e+07,1,1.6,-0.34,24.14,-0.024139,-0.024293,-0.27985,0.16851,-0.88304,0.70476,-0.54589,0.1,0.21,0.15,86.2
11771,4.7916e+07,1,1.6,-0.33,24.14,-0.023794,-0.024918,-0.27638,0.17255,-0.88334,0.7043,-0.5428,0.1,0.21,0.15,86.2
11813,4.7925e+07,1,1.6,-0.33,24.14,-0.025235,-0.02361,-0.27371,0.16847,-0.88368,0.70384,-0.53991,0.1,0.21,0.15,86.2
11851,4.7935e+07,1,1.6,-0.33,24.14,-0.027039,-0.023994,-0.27274,0.16558,-0.88394,0.7036,-0.54265,0.1,0.21,0.15,86.2
11893,4.7945e+07,1,1.6,-0.33,24.14,-0.028473,-0.024304,-0.27207,0.16013,-0.88432,0.70314,-0.54,0.1,0.21,0.15,86.2
11933,4.7956e+07,1,1.6,-0.33,24.14,-0.029029,-0.023745,-0.26983,0.15899,-0.88474,0.70269,-0.53672,0.1,0.21,0.15,86.2
11974,4.7965e+07,1,1.6,-0.33,24.14,-0.029567,-0.024459,-0.26861,0.15603,-0.88518,0.70223,-0.53371,0.1,0.21,0.15,86.2
12015,4.7976e+07,1,1.6,-0.33,24.14,-0.031174,-0.02463,-0.26632,0.15543,-0.88567,0.70176,-0.531,0.1,0.21,0.15,86.2
12056,4.7985e+07,1,1.6,-0.33,24.14,-0.033296,-0.023731,-0.26733,0.15818,-0.88599,0.70152,-0.53366,0.1,0.21,0.15,86.2
12103,4.7996e+07,1,1.6,-0.33,24.14,-0.033474,-0.024938,-0.26488,0.15975,-0.88652,0.70106,-0.53119,0.1,0.21,0.15,86.2
12145,4.8006e+07,1,1.6,-0.33,24.14,-0.034082,-0.024777,-0.26467,0.15788,-0.88708,0.70058,-0.52897,0.1,0.21,0.15,86.2
12182,4.8016e+07,1,1.6,-0.33,24.14,-0.035011,-0.024803,-0.26149,0.15845,-0.8873,0.70009,-0.52472,0.1,0.21,0.15,86.2
12225,4.8026e+07,1,1.6,-0.33,24.14,-0.03494,-0.025175,-0.26017,0.15917,-0.88751,0.69961,-0.52055,0.1,0.21,0.15,86.2
12268,4.8036e+07,1,1.6,-0.33,24.14,-0.036666,-0.025955,-0.26041,0.17077,-0.88787,0.69936,-0.52315,0.1,0.21,0.15,86.2
12311,4.8049e+07,1,1.6,-0.34,24.14,-0.036774,-0.02718,-0.25753,0.19056,-0.88821,0.69883,-0.51832,0.1,0.21,0.15,86.2
12352,4.8059e+07,1,1.6,-0.34,24.14,-0.037565,-0.027053,-0.25455,0.21019,-0.8885,0.69834,-0.51336,0.1,0.21,0.15,86.2
12392,4.8069e+07,1,1.6,-0.34,24.15,-0.0374,-0.028244,-0.25248,0.22239,-0.88885,0.69783,-0.50894,0.1,0.21,0.15,86.2
12433,4.8079e+07,1,1.6,-0.34,24.15,-0.038211,-0.029143,-0.24987,0.23097,-0.88919,0.69734,-0.50461,0.1,0.21,0.15,86.2
12474,4.809e+07,1,1.6,-0.34,24.15,-0.039021,-0.029979,-0.24957,0.24609,-0.88957,0.69704,-0.5071,0.1,0.21,0.15,86.2
12518,4.81e+07,1,1.6,-0.34,24.15,-0.03858,-0.028055,-0.24644,0.25784,-0.88993,0.69655,-0.50305,0.1,0.21,0.15,86.2
12559,4.811e+07,1,1.6,-0.34,24.15,-0.038563,-0.02777,-0.24568,0.26529,-0.89032,0.69607,-0.49931,0.1,0.21,0.15,86.2
12600,4.812e+07,1,1.6,-0.33,24.15,-0.040152,-0.02752,-0.24299,0.26377,-0.89073,0.69561,-0.49584,0.1,0.21,0.15,86.2
12641,4.813e+07,1,1.6,-0.33,24.15,-0.040587,-0.028568,-0.243,0.26632,-0.89114,0.69532,-0.4983,0.1,0.21,0.15,86.2
12679,4.814e+07,1,1.6,-0.33,24.14,-0.039993,-0.028256,-0.24252,0.264,-0.89157,0.69485,-0.49509,0.1,0.21,0.15,86.2
12720,4.815e+07,1,1.6,-0.32,24.14,-0.039838,-0.027795,-0.24211,0.26134,-0.89202,0.69438,-0.49147,0.1,0.21,0.15,86.2
12762,4.816e+07,1,1.6,-0.32,24.14,-0.040397,-0.028276,-0.23959,0.25821,-0.8925,0.69392,-0.48813,0.1,0.21,0.15,86.2
12802,4.817e+07,1,1.6,-0.32,24.14,-0.040976,-0.028875,-0.23762,0.2543,-0.893,0.69344,-0.48508,0.1,0.22,0.15,86.2
12843,4.818e+07,1,1.6,-0.32,24.14,-0.042228,-0.029587,-0.23628,0.25535,-0.89342,0.69315,-0.48745,0.1,0.22,0.15,86.2
12883,4.819e+07,1,1.6,-0.32,24.13,-0.042118,-0.02924,-0.23425,0.25167,-0.89395,0.69267,-0.48463,0.11,0.22,0.15,86.2
12928,4.82e+07,1,1.6,-0.32,24.13,-0.042956,-0.030557,-0.23378,0.2448,-0.8945,0.69219,-0.48204,0.11,0.22,0.15,86.2
12971,4.821e+07,1,1.6,-0.32,24.13,-0.044732,-0.031176,-0.23482,0.23253,-0.89513,0.69166,-0.47996,0.11,0.22,0.15,86.2
13012,4.822e+07,1,1.6,-0.32,24.13,-0.045252,-0.03222,-0.23576,0.21872,-0.89558,0.69134,-0.48231,0.11,0.22,0.15,86.2
13050,4.823e+07,1,1.6,-0.32,24.13,-0.045504,-0.031341,-0.23426,0.20895,-0.89577,0.69073,-0.47859,0.1,0.22,0.15,86.2
13091,4.8243e+07,1,1.6,-0.32,24.13,-0.047286,-0.030558,-0.23195,0.19301,-0.89613,0.69004,-0.47471,0.1,0.21,0.15,86.2
13131,4.8252e+07,1,1.6,-0.32,24.13,-0.046607,-0.02937,-0.23025,0.18637,-0.89633,0.68949,-0.4702,0.1,0.21,0.15,86.2
13172,4.8262e+07,1,1.6,-0.32,24.13,-0.048161,-0.0306,-0.2312,0.19118,-0.8968,0.68919,-0.4725,0.1,0.21,0.15,86.2
13213,4.8273e+07,1,1.6,-0.32,24.13,-0.047868,-0.030713,-0.229,0.19208,-0.89708,0.68861,-0.46852,0.1,0.21,0.15,86.2
13255,4.8283e+07,1,1.6,-0.32,24.13,-0.048671,-0.031385,-0.2264,0.18753,-0.89738,0.68804,-0.4648,0.1,0.21,0.15,86.2
13300,4.8292e+07,1,1.6,-0.32,24.13,-0.049482,-0.032509,-0.22395,0.19202,-0.89773,0.68745,-0.46141,0.1,0.21,0.15,86.2
13340,4.8303e+07,1,1.6,-0.32,24.13,-0.049684,-0.031982,-0.22114,0.20176,-0.89817,0.68683,-0.4585,0.11,0.22,0.15,86.2
13381,4.8313e+07,1,1.6,-0.32,24.13,-0.050722,-0.033203,-0.22188,0.20991,-0.89867,0.68651,-0.46071,0.11,0.22,0.15,86.2
13422,4.8323e+07,1,1.6,-0.32,24.13,-0.051854,-0.033438,-0.22147,0.2127,-0.89909,0.68592,-0.45784,0.11,0.22,0.15,86.2
13463,4.8333e+07,1,1.6,-0.32,24.12,-0.053054,-0.032214,-0.22017,0.20977,-0.89954,0.68533,-0.4552,0.11,0.22,0.15,86.2
13503,4.8346e+07,1,1.6,-0.32,24.12,-0.054933,-0.033511,-0.21791,0.19871,-0.90018,0.68466,-0.45204,0.1,0.21,0.15,86.2
13544,4.8357e+07,1,1.59,-0.32,24.11,-0.056987,-0.034219,-0.21785,0.19797,-0.90075,0.68432,-0.45423,0.1,0.21,0.15,86.2
13586,4.8367e+07,1,1.59,-0.32,24.11,-0.057374,-0.034536,-0.21659,0.19749,-0.90127,0.68373,-0.45067,0.1,0.21,0.15,86.2
13627,4.8377e+07,1,1.6,-0.32,24.11,-0.058337,-0.034011,-0.21546,0.18586,-0.90181,0.68315,-0.44735,0.1,0.21,0.15,86.2
13668,4.8387e+07,1,1.6,-0.32,24.11,-0.061062,-0.034403,-0.21598,0.18218,-0.90247,0.68277,-0.44973,0.1,0.21,0.15,86.2
13712,4.8397e+07,1,1.6,-0.32,24.1,-0.061897,-0.034323,-0.21495,0.17801,-0.90306,0.68219,-0.44666,0.1,0.21,0.15,86.2
13753,4.8407e+07,1,1.6,-0.32,24.11,-0.062089,-0.035374,-0.21244,0.17692,-0.90368,0.6816,-0.44385,0.1,0.21,0.15,86.2
13797,4.8417e+07,1,1.59,-0.32,24.11,-0.062026,-0.035259,-0.21154,0.169,-0.9043,0.68125,-0.44597,0.1,0.21,0.15,86.2
13835,4.8428e+07,1,1.59,-0.32,24.11,-0.061935,-0.036447,-0.21047,0.16486,-0.90455,0.68062,-0.44189,0.1,0.21,0.15,86.2
13875,4.8438e+07,1,1.59,-0.33,24.11,-0.061196,-0.036107,-0.20938,0.16367,-0.90482,0.67999,-0.43807,0.1,0.21,0.15,86.2
13916,4.8448e+07,1,1.59,-0.33,24.11,-0.060075,-0.036633,-0.20896,0.17162,-0.90515,0.67935,-0.43405,0.1,0.21,0.15,86.2
13957,4.8458e+07,1,1.59,-0.32,24.11,-0.059399,-0.03638,-0.20751,0.17522,-0.90547,0.67873,-0.43021,0.1,0.21,0.15,86.2
13999,4.8468e+07,1,1.59,-0.32,24.11,-0.060304,-0.037809,-0.20613,0.18671,-0.90588,0.67807,-0.42692,0.1,0.21,0.15,86.2
14040,4.8479e+07,1,1.59,-0.32,24.1,-0.06185,-0.04039,-0.20672,0.19934,-0.90656,0.67763,-0.42919,0.1,0.21,0.15,86.2
14080,4.8489e+07,1,1.58,-0.32,24.1,-0.063318,-0.039841,-0.20365,0.20791,-0.90697,0.67698,-0.42594,0.1,0.21,0.15,86.2
14125,4.8499e+07,1,1.58,-0.32,24.1,-0.063011,-0.0398,-0.20295,0.21223,-0.90742,0.67633,-0.42295,0.1,0.22,0.16,86.2
14166,4.8509e+07,1,1.59,-0.32,24.1,-0.0638,-0.039602,-0.2024,0.21572,-0.9079,0.67568,-0.42023,0.1,0.22,0.16,86.2
14209,4.8519e+07,1,1.59,-0.32,24.09,-0.064386,-0.040129,-0.20162,0.21253,-0.90841,0.67504,-0.41774,0.11,0.22,0.16,86.2
14250,4.853e+07,1,1.59,-0.32,24.1,-0.064631,-0.04131,-0.20049,0.21257,-0.90912,0.67459,-0.41997,0.11,0.22,0.16,86.2
14290,4.854e+07,1,1.59,-0.32,24.09,-0.065707,-0.040635,-0.19924,0.21149,-0.90967,0.67393,-0.41686,0.11,0.22,0.16,86.2
14331,4.855e+07,1,1.59,-0.32,24.1,-0.066139,-0.041434,-0.19764,0.20858,-0.91018,0.67332,-0.41383,0.11,0.22,0.16,86.2
14373,4.856e+07,1,1.59,-0.32,24.1,-0.06633,-0.041751,-0.19688,0.20516,-0.91083,0.67263,-0.41137,0.11,0.22,0.16,86.2
14414,4.857e+07,1,1.6,-0.32,24.09,-0.066069,-0.041621,-0.19619,0.19839,-0.91145,0.67197,-0.40899,0.11,0.22,0.16,86.2
14456,4.858e+07,1,1.6,-0.32,24.1,-0.067352,-0.042972,-0.19722,0.19462,-0.91211,0.67155,-0.41095,0.11,0.22,0.16,86.2
14497,4.859e+07,1,1.6,-0.32,24.1,-0.067546,-0.043117,-0.1962,0.18872,-0.91277,0.67088,-0.4088,0.11,0.22,0.16,86.2
14543,4.86e+07,1,1.6,-0.32,24.1,-0.06842,-0.042511,-0.19507,0.17701,-0.91343,0.67023,-0.40681,0.11,0.22,0.16,86.2
14583,4.861e+07,1,1.6,-0.32,24.1,-0.069385,-0.042642,-0.19446,0.1664,-0.91409,0.6696,-0.40492,0.11,0.22,0.16,86.2
14623,4.8621e+07,1,1.6,-0.31,24.1,-0.069507,-0.044284,-0.19218,0.15916,-0.9149,0.66909,-0.40716,0.11,0.22,0.16,86.2
14660,4.8631e+07,1,1.6,-0.31,24.1,-0.068759,-0.044343,-0.19023,0.15723,-0.915,0.66864,-0.4032,0.11,0.22,0.16,86.2
14701,4.8641e+07,1,1.6,-0.31,24.1,-0.070049,-0.043602,-0.18764,0.15681,-0.91522,0.66814,-0.39971,0.11,0.22,0.16,86.2
14738,4.8651e+07,1,1.6,-0.31,24.1,-0.069356,-0.042512,-0.18544,0.1614,-0.91555,0.66761,-0.39607,0.11,0.22,0.16,86.2
14779,4.8661e+07,1,1.6,-0.31,24.1,-0.070561,-0.042414,-0.18445,0.1644,-0.91574,0.66719,-0.39223,0.11,0.22,0.16,86.2
14820,4.8671e+07,1,1.6,-0.31,24.1,-0.071516,-0.043646,-0.18264,0.17765,-0.91621,0.66663,-0.38925,0.11,0.22,0.16,86.2
14862,4.8682e+07,1,1.6,-0.31,24.1,-0.073379,-0.045676,-0.18385,0.18861,-0.917,0.66613,-0.39127,0.11,0.22,0.16,86.2
14903,4.8692e+07,1,1.61,-0.31,24.09,-0.073184,-0.047418,-0.18156,0.19557,-0.91739,0.6656,-0.38822,0.11,0.22,0.16,86.2
14947,4.8702e+07,1,1.61,-0.31,24.09,-0.07397,-0.048564,-0.18009,0.20022,-0.91782,0.66506,-0.3854,0.11,0.22,0.16,86.2
14988,4.8712e+07,1,1.61,-0.31,24.09,-0.074509,-0.046385,-0.17826,0.20324,-0.91828,0.66452,-0.38281,0.11,0.22,0.16,86.2
15030,4.8722e+07,1,1.61,-0.31,24.09,-0.074461,-0.04811,-0.17669,0.20156,-0.91878,0.66398,-0.38042,0.11,0.22,0.16,86.2
15070,4.8732e+07,1,1.6,-0.31,24.08,-0.076019,-0.04902,-0.17487,0.20371,-0.91953,0.66349,-0.38217,0.11,0.22,0.16,86.2
15114,4.8745e+07,1,1.6,-0.31,24.08,-0.078309,-0.049044,-0.17394,0.20055,-0.9203,0.66279,-0.37971,0.11,0.22,0.16,86.2
15154,4.8755e+07,1,1.6,-0.31,24.08,-0.079072,-0.049799,-0.17163,0.20202,-0.92088,0.66222,-0.37695,0.11,0.22,0.16,86.2
15195,4.8765e+07,1,1.6,-0.3,24.08,-0.079589,-0.049641,-0.171,0.19914,-0.92149,0.66166,-0.3744,0.11,0.22,0.16,86.2
15236,4.8776e+07,1,1.6,-0.3,24.08,-0.080016,-0.049461,-0.16882,0.20023,-0.92214,0.66108,-0.3721,0.11,0.22,0.16,86.2
15278,4.8786e+07,1,1.6,-0.3,24.08,-0.081241,-0.048594,-0.16893,0.1925,-0.92294,0.66059,-0.37378,0.11,0.22,0.16,86.2
15320,4.8796e+07,1,1.6,-0.3,24.08,-0.081905,-0.049096,-0.16754,0.18415,-0.92361,0.66003,-0.37159,0.11,0.22,0.16,86.2
15362,4.8809e+07,1,1.6,-0.3,24.08,-0.082403,-0.049737,-0.16876,0.17389,-0.92427,0.65934,-0.36861,0.11,0.22,0.16,86.2
15402,4.8819e+07,1,1.6,-0.3,24.08,-0.082044,-0.050391,-0.16711,0.17878,-0.92456,0.65889,-0.36506,0.11,0.22,0.16,86.2
15443,4.8829e+07,1,1.6,-0.3,24.07,-0.08255,-0.049996,-0.16295,0.18139,-0.92505,0.65832,-0.36206,0.11,0.22,0.16,86.2
15484,4.8839e+07,1,1.6,-0.3,24.07,-0.083279,-0.048991,-0.16068,0.18727,-0.92551,0.65781,-0.35913,0.11,0.22,0.16,86.2
15525,4.8849e+07,1,1.6,-0.31,24.07,-0.084747,-0.048362,-0.15894,0.19023,-0.92634,0.65733,-0.36072,0.11,0.22,0.16,86.2
15567,4.8859e+07,1,1.6,-0.31,24.07,-0.08481,-0.046965,-0.15772,0.19331,-0.92683,0.65684,-0.35737,0.11,0.22,0.16,86.2
15608,4.887e+07,1,1.61,-0.31,24.07,-0.085039,-0.047068,-0.15557,0.19946,-0.92736,0.65635,-0.35429,0.11,0.22,0.16,86.2
15648,4.888e+07,1,1.61,-0.31,24.07,-0.084914,-0.047667,-0.15309,0.20484,-0.92791,0.65586,-0.35141,0.11,0.22,0.16,86.2
15691,4.889e+07,1,1.6,-0.31,24.07,-0.086445,-0.047894,-0.15147,0.20174,-0.9285,0.65537,-0.34871,0.11,0.22,0.16,86.2
15731,4.89e+07,1,1.6,-0.31,24.07,-0.087545,-0.048701,-0.1521,0.20154,-0.92937,0.65488,-0.35023,0.11,0.22,0.16,86.2
15776,4.891e+07,1,1.6,-0.31,24.07,-0.088105,-0.047935,-0.15365,0.19669,-0.93,0.65438,-0.34774,0.11,0.22,0.16,86.2
15817,4.892e+07,1,1.6,-0.31,24.07,-0.088778,-0.048374,-0.15329,0.18789,-0.93074,0.65383,-0.34559,0.11,0.22,0.16,86.2
15858,4.893e+07,1,1.6,-0.31,24.07,-0.088766,-0.048891,-0.1523,0.17875,-0.93143,0.65332,-0.34348,0.11,0.22,0.16,86.2
15900,4.894e+07,1,1.59,-0.31,24.07,-0.089673,-0.049723,-0.15207,0.17375,-0.93232,0.65282,-0.34501,0.11,0.22,0.16,86.2
15940,4.895e+07,1,1.59,-0.31,24.07,-0.08958,-0.050317,-0.15094,0.16832,-0.93303,0.65229,-0.34307,0.11,0.22,0.16,86.2
15981,4.896e+07,1,1.59,-0.31,24.07,-0.090228,-0.051483,-0.14886,0.16342,-0.93377,0.65175,-0.34053,0.11,0.22,0.16,86.2
16022,4.897e+07,1,1.6,-0.31,24.06,-0.091639,-0.052149,-0.14806,0.15883,-0.93456,0.65119,-0.33823,0.11,0.22,0.16,86.2
16063,4.898e+07,1,1.59,-0.31,24.06,-0.092448,-0.052482,-0.14648,0.15866,-0.93537,0.65063,-0.33609,0.11,0.22,0.16,86.2
16104,4.899e+07,1,1.6,-0.31,24.06,-0.092975,-0.052278,-0.14637,0.1541,-0.93621,0.65006,-0.33416,0.11,0.22,0.16,86.2
16149,4.9004e+07,1,1.59,-0.31,24.06,-0.093443,-0.053745,-0.14316,0.15781,-0.93662,0.64938,-0.33153,0.11,0.22,0.16,86.2
16193,4.9014e+07,1,1.59,-0.31,24.05,-0.093764,-0.053594,-0.14173,0.15789,-0.93681,0.64885,-0.32867,0.11,0.23,0.16,86.2
16233,4.9024e+07,1,1.59,-0.31,24.05,-0.094487,-0.054667,-0.14105,0.16222,-0.93713,0.64826,-0.32617,0.11,0.23,0.16,86.2
16274,4.9034e+07,1,1.59,-0.31,24.05,-0.095633,-0.055797,-0.14103,0.16846,-0.93808,0.64771,-0.32758,0.11,0.23,0.16,86.2
16315,4.9045e+07,1,1.59,-0.31,24.05,-0.096045,-0.056793,-0.14014,0.1739,-0.93845,0.64709,-0.32451,0.11,0.23,0.16,86.2
16356,4.9056e+07,1,1.59,-0.31,24.06,-0.096769,-0.056547,-0.13856,0.18253,-0.93888,0.64647,-0.32169,0.11,0.23,0.16,86.2
16397,4.9067e+07,1,1.59,-0.31,24.05,-0.096803,-0.057709,-0.13721,0.19065,-0.93926,0.64589,-0.31893,0.11,0.23,0.17,86.2
16437,4.9077e+07,1,1.59,-0.31,24.05,-0.096419,-0.058359,-0.13582,0.19634,-0.93966,0.6453,-0.31636,0.11,0.23,0.17,86.2
16479,4.9087e+07,1,1.59,-0.31,24.06,-0.095712,-0.059064,-0.1346,0.19773,-0.94009,0.6447,-0.31398,0.11,0.23,0.17,86.2
16520,4.9097e+07,1,1.59,-0.32,24.06,-0.095049,-0.05941,-0.13237,0.19806,-0.94056,0.64409,-0.31178,0.11,0.23,0.17,86.2
16561,4.9106e+07,1,1.59,-0.32,24.06,-0.095748,-0.06004,-0.13184,0.19899,-0.94152,0.64348,-0.31311,0.11,0.23,0.17,86.2
16606,4.9117e+07,1,1.59,-0.32,24.05,-0.095581,-0.060604,-0.13134,0.19285,-0.94199,0.64287,-0.31102,0.11,0.23,0.17,86.2
16647,4.9127e+07,1,1.59,-0.32,24.05,-0.095935,-0.060609,-0.13078,0.18445,-0.94251,0.64223,-0.30913,0.11,0.23,0.17,86.2
16688,4.9136e+07,1,1.59,-0.32,24.05,-0.09561,-0.060107,-0.13068,0.17518,-0.94305,0.6416,-0.30738,0.11,0.23,0.17,86.2
16728,4.9147e+07,1,1.59,-0.32,24.05,-0.095881,-0.060399,-0.13044,0.16934,-0.944,0.641,-0.30868,0.11,0.23,0.17,86.2
16769,4.9157e+07,1,1.59,-0.32,24.05,-0.096459,-0.060534,-0.1302,0.16219,-0.94458,0.64036,-0.30655,0.11,0.23,0.17,86.2
16809,4.9167e+07,1,1.58,-0.32,24.05,-0.097629,-0.060965,-0.12957,0.1582,-0.94529,0.63966,-0.30473,0.11,0.23,0.17,86.2
16851,4.9177e+07,1,1.58,-0.32,24.05,-0.09807,-0.061647,-0.12913,0.15279,-0.94593,0.63902,-0.30293,0.11,0.23,0.17,86.2
16891,4.9187e+07,1,1.58,-0.32,24.05,-0.098795,-0.061204,-0.12765,0.14764,-0.94661,0.63836,-0.30129,0.11,0.23,0.17,86.2
16932,4.9197e+07,1,1.58,-0.32,24.06,-0.099348,-0.062401,-0.12589,0.14087,-0.94732,0.6377,-0.29979,0.11,0.23,0.17,86.2
16973,4.9207e+07,1,1.58,-0.32,24.06,-0.10013,-0.063225,-0.12451,0.13677,-0.94832,0.63708,-0.30104,0.11,0.23,0.17,86.2
17014,4.9217e+07,1,1.58,-0.32,24.06,-0.099298,-0.061978,-0.12343,0.13377,-0.94841,0.63683,-0.29818,0.11,0.23,0.17,86.2
17055,4.9228e+07,1,1.59,-0.32,24.06,-0.099972,-0.061115,-0.12055,0.13563,-0.94855,0.63659,-0.2955,0.11,0.23,0.17,86.2
17096,4.9238e+07,1,1.58,-0.32,24.05,-0.1008,-0.060925,-0.11924,0.13214,-0.94874,0.63633,-0.29298,0.11,0.23,0.17,86.2
17137,4.9248e+07,1,1.58,-0.33,24.05,-0.10119,-0.061423,-0.11798,0.13497,-0.94985,0.63565,-0.29429,0.11,0.23,0.17,86.2
17178,4.9258e+07,1,1.58,-0.33,24.05,-0.10159,-0.060784,-0.11714,0.13637,-0.95008,0.63539,-0.29136,0.11,0.23,0.17,86.2
17218,4.9268e+07,1,1.58,-0.33,24.05,-0.10158,-0.06091,-0.11571,0.14029,-0.95034,0.63511,-0.28863,0.11,0.23,0.17,86.2
17260,4.9278e+07,1,1.58,-0.33,24.05,-0.10194,-0.059684,-0.11559,0.14347,-0.95066,0.63482,-0.28611,0.11,0.23,0.17,86.2
17300,4.9288e+07,1,1.58,-0.33,24.05,-0.10374,-0.059727,-0.11409,0.14694,-0.95168,0.63422,-0.28725,0.11,0.23,0.17,86.2
17341,4.9298e+07,1,1.59,-0.33,24.05,-0.1036,-0.058875,-0.1129,0.14805,-0.95204,0.63394,-0.28485,0.11,0.23,0.17,86.2
17382,4.9308e+07,1,1.59,-0.33,24.04,-0.10446,-0.060469,-0.11177,0.14265,-0.95308,0.63334,-0.28597,0.11,0.23,0.17,86.2
17428,4.9319e+07,1,1.59,-0.33,24.04,-0.10458,-0.060104,-0.11089,0.13748,-0.95346,0.63304,-0.28364,0.11,0.23,0.16,86.2
17469,4.9329e+07,1,1.59,-0.33,24.04,-0.10475,-0.060105,-0.11083,0.13358,-0.95389,0.63272,-0.2815,0.11,0.23,0.16,86.2
17509,4.9339e+07,1,1.59,-0.33,24.04,-0.10505,-0.061177,-0.11,0.12693,-0.95433,0.6324,-0.27949,0.11,0.23,0.16,86.2
17550,4.9349e+07,1,1.59,-0.33,24.04,-0.10535,-0.060975,-0.10926,0.12407,-0.95494,0.63199,-0.27778,0.11,0.23,0.16,86.2
17590,4.9359e+07,1,1.59,-0.33,24.04,-0.10682,-0.06208,-0.11005,0.12302,-0.956,0.63138,-0.27887,0.11,0.23,0.16,86.2
17632,4.9369e+07,1,1.59,-0.33,24.04,-0.10758,-0.061421,-0.10823,0.12478,-0.95655,0.63101,-0.27669,0.11,0.23,0.16,86.2
17672,4.938e+07,1,1.59,-0.33,24.04,-0.10821,-0.061527,-0.10729,0.1272,-0.95713,0.63064,-0.27467,0.11,0.23,0.17,86.2
17713,4.939e+07,1,1.59,-0.33,24.05,-0.10891,-0.062188,-0.10474,0.13052,-0.95777,0.63025,-0.27282,0.11,0.23,0.17,86.2
17754,4.9399e+07,1,1.59,-0.33,24.04,-0.10984,-0.062923,-0.10454,0.1272,-0.95886,0.62963,-0.27386,0.11,0.23,0.17,86.2
17793,4.941e+07,1,1.59,-0.34,24.04,-0.111,-0.062737,-0.10394,0.12298,-0.95954,0.62922,-0.2721,0.11,0.23,0.16,86.2
17836,4.942e+07,1,1.58,-0.34,24.05,-0.11001,-0.062724,-0.10068,0.12403,-0.9595,0.62912,-0.2694,0.11,0.23,0.16,86.2
17877,4.943e+07,1,1.58,-0.34,24.04,-0.10969,-0.061774,-0.10089,0.12262,-0.95954,0.62899,-0.26689,0.11,0.23,0.16,86.2
17918,4.944e+07,1,1.59,-0.34,24.04,-0.11166,-0.062292,-0.1017,0.12334,-0.96064,0.62837,-0.26791,0.11,0.23,0.16,86.2
17959,4.945e+07,1,1.59,-0.34,24.04,-0.1116,-0.062041,-0.10035,0.12534,-0.96072,0.62824,-0.26555,0.11,0.23,0.16,86.2
18002,4.9462e+07,1,1.59,-0.34,24.05,-0.11301,-0.061094,-0.098395,0.12573,-0.9612,0.62791,-0.26364,0.11,0.23,0.16,86.2
18043,4.9472e+07,1,1.59,-0.34,24.05,-0.11209,-0.061475,-0.095544,0.13169,-0.96139,0.62775,-0.26112,0.11,0.23,0.16,86.2
18084,4.9482e+07,1,1.59,-0.35,24.05,-0.11249,-0.060461,-0.093383,0.13573,-0.96163,0.62757,-0.25877,0.11,0.23,0.16,86.2
18125,4.9493e+07,1,1.59,-0.35,24.05,-0.11319,-0.060958,-0.093409,0.13772,-0.96193,0.62738,-0.25658,0.11,0.23,0.16,86.2
18165,4.9503e+07,1,1.59,-0.35,24.05,-0.11516,-0.061883,-0.093599,0.14283,-0.96307,0.62676,-0.25752,0.11,0.23,0.16,86.2
18209,4.9513e+07,1,1.59,-0.35,24.04,-0.11484,-0.062283,-0.091842,0.14653,-0.96342,0.62654,-0.25548,0.11,0.23,0.16,86.2
18254,4.9522e+07,1,1.59,-0.35,24.05,-0.11428,-0.062731,-0.090912,0.14817,-0.96382,0.6263,-0.25358,0.11,0.23,0.17,86.2
18295,4.9532e+07,1,1.59,-0.35,24.05,-0.11436,-0.0619,-0.088238,0.14654,-0.96424,0.62605,-0.25181,0.11,0.23,0.16,86.2
18336,4.9543e+07,1,1.59,-0.35,24.05,-0.11504,-0.061489,-0.087642,0.1459,-0.96539,0.62543,-0.25269,0.11,0.23,0.16,86.2
18376,4.9552e+07,1,1.59,-0.35,24.04,-0.11627,-0.061358,-0.088173,0.13628,-0.96585,0.62518,-0.25099,0.11,0.23,0.16,86.2
18417,4.9562e+07,1,1.59,-0.35,24.04,-0.11712,-0.06214,-0.085376,0.13121,-0.96636,0.6249,-0.24895,0.11,0.23,0.16,86.2
18458,4.9573e+07,1,1.59,-0.35,24.04,-0.11794,-0.061625,-0.085001,0.12804,-0.96704,0.62455,-0.24716,0.11,0.23,0.17,86.2
18499,4.9584e+07,1,1.59,-0.35,24.04,-0.11909,-0.061972,-0.084028,0.129,-0.96823,0.62393,-0.248,0.11,0.23,0.17,86.2
18540,4.9594e+07,1,1.59,-0.35,24.04,-0.11952,-0.061029,-0.081678,0.12938,-0.96885,0.62363,-0.24624,0.11,0.23,0.17,86.2
18581,4.9604e+07,1,1.59,-0.35,24.04,-0.11966,-0.060628,-0.079807,0.12904,-0.96951,0.62331,-0.24461,0.11,0.23,0.17,86.2
18620,4.9614e+07,1,1.6,-0.35,24.04,-0.11961,-0.060597,-0.079269,0.12846,-0.96952,0.62316,-0.24282,0.11,0.23,0.17,86.2
18662,4.9624e+07,1,1.6,-0.35,24.04,-0.11945,-0.058978,-0.080319,0.12618,-0.96948,0.62305,-0.2411,0.11,0.23,0.17,86.2
18702,4.9634e+07,1,1.6,-0.35,24.03,-0.11867,-0.058138,-0.080341,0.12648,-0.96951,0.62292,-0.23955,0.11,0.23,0.17,86.2
18743,4.9644e+07,1,1.6,-0.35,24.03,-0.11808,-0.059168,-0.079311,0.12523,-0.96958,0.62278,-0.23813,0.11,0.23,0.17,86.2
18784,4.9654e+07,1,1.59,-0.35,24.03,-0.1185,-0.059607,-0.078095,0.1258,-0.97076,0.62219,-0.23891,0.11,0.23,0.17,86.2
18828,4.9667e+07,1,1.59,-0.35,24.03,-0.11702,-0.058316,-0.076605,0.12438,-0.97024,0.62225,-0.23445,0.11,0.23,0.17,86.2
18868,4.9677e+07,1,1.6,-0.36,24.03,-0.11793,-0.058793,-0.076688,0.12705,-0.9714,0.62167,-0.23521,0.11,0.23,0.17,86.2
18909,4.9687e+07,1,1.6,-0.35,24.03,-0.11861,-0.058736,-0.075346,0.12968,-0.97162,0.62148,-0.23345,0.11,0.23,0.17,86.2
18951,4.9698e+07,1,1.6,-0.35,24.03,-0.1178,-0.056764,-0.07524,0.12892,-0.97189,0.62127,-0.23183,0.11,0.23,0.17,86.2
18991,4.9708e+07,1,1.6,-0.35,24.03,-0.11702,-0.057068,-0.073858,0.12534,-0.9722,0.62106,-0.23032,0.11,0.23,0.17,86.2
19032,4.9718e+07,1,1.59,-0.35,24.03,-0.11957,-0.057716,-0.075296,0.12114,-0.9735,0.62043,-0.23114,0.11,0.23,0.17,86.2
19077,4.9728e+07,1,1.6,-0.35,24.03,-0.12027,-0.05969,-0.075238,0.11052,-0.9747,0.61985,-0.23189,0.11,0.23,0.17,86.2
19118,4.9738e+07,1,1.6,-0.35,24.03,-0.12022,-0.05953,-0.074925,0.10231,-0.97503,0.61961,-0.23041,0.11,0.23,0.16,86.2
19159,4.9748e+07,1,1.59,-0.35,24.03,-0.12094,-0.060139,-0.073772,0.097407,-0.97544,0.61935,-0.22907,0.11,0.23,0.17,86.2
19200,4.9758e+07,1,1.59,-0.35,24.03,-0.12161,-0.060126,-0.075273,0.090811,-0.97588,0.61907,-0.22785,0.11,0.23,0.17,86.2
19243,4.9771e+07,1,1.6,-0.34,24.03,-0.12193,-0.060232,-0.0737,0.085037,-0.97673,0.6186,-0.22641,0.11,0.23,0.16,86.2
19285,4.9781e+07,1,1.59,-0.34,24.03,-0.12284,-0.061178,-0.072537,0.084538,-0.97729,0.61827,-0.22491,0.11,0.23,0.17,86.2
19327,4.9791e+07,1,1.6,-0.34,24.03,-0.12288,-0.062074,-0.071547,0.083254,-0.97787,0.61793,-0.2235,0.11,0.23,0.17,86.2
19367,4.9801e+07,1,1.6,-0.34,24.03,-0.12397,-0.062609,-0.070573,0.084846,-0.9791,0.61731,-0.22421,0.11,0.23,0.17,86.2
19410,4.9817e+07,1,1.6,-0.34,24.03,-0.12344,-0.062426,-0.069847,0.086097,-0.97913,0.61716,-0.22052,0.11,0.23,0.17,86.2
19456,4.9827e+07,1,1.6,-0.34,24.03,-0.12288,-0.062289,-0.066951,0.090099,-0.97896,0.61716,-0.21848,0.11,0.23,0.17,86.2
19497,4.9837e+07,1,1.59,-0.34,24.03,-0.12468,-0.062389,-0.067098,0.096154,-0.98031,0.61648,-0.21921,0.11,0.23,0.17,86.2
19539,4.9847e+07,1,1.59,-0.34,24.03,-0.12593,-0.060985,-0.066117,0.098579,-0.98033,0.61641,-0.21732,0.11,0.23,0.17,86.2
19579,4.9857e+07,1,1.6,-0.34,24.03,-0.12549,-0.060475,-0.065926,0.10274,-0.98041,0.61632,-0.21559,0.11,0.23,0.17,86.2
19617,4.9867e+07,1,1.6,-0.34,24.03,-0.12608,-0.059528,-0.06451,0.10797,-0.98053,0.61622,-0.2133,0.11,0.23,0.17,86.2
19659,4.9877e+07,1,1.6,-0.34,24.03,-0.12545,-0.059065,-0.063451,0.11231,-0.98073,0.6161,-0.21117,0.11,0.23,0.17,86.2
19699,4.9887e+07,1,1.6,-0.34,24.03,-0.12558,-0.06016,-0.06264,0.12006,-0.98198,0.61551,-0.2118,0.11,0.23,0.17,86.2
19740,4.9897e+07,1,1.6,-0.35,24.03,-0.12517,-0.060942,-0.062024,0.12627,-0.98223,0.61535,-0.2098,0.11,0.23,0.17,86.2
19781,4.9907e+07,1,1.6,-0.35,24.03,-0.1254,-0.060828,-0.061721,0.12996,-0.98251,0.61518,-0.20793,0.11,0.23,0.17,86.2
19823,4.9917e+07,1,1.6,-0.35,24.03,-0.12567,-0.060466,-0.060872,0.13326,-0.98285,0.61499,-0.2062,0.11,0.23,0.17,86.2
19867,4.9927e+07,1,1.6,-0.35,24.02,-0.12562,-0.061368,-0.058076,0.13606,-0.98324,0.61477,-0.20458,0.11,0.23,0.17,86.2
19909,4.9938e+07,1,1.6,-0.35,24.02,-0.12715,-0.060581,-0.058994,0.13686,-0.9845,0.61416,-0.20516,0.11,0.23,0.17,86.2
19950,4.9948e+07,1,1.6,-0.35,24.02,-0.12697,-0.061105,-0.056717,0.13805,-0.98506,0.61387,-0.20369,0.11,0.23,0.17,86.2
19991,4.9958e+07,1,1.6,-0.36,24.02,-0.12683,-0.061734,-0.056127,0.13588,-0.98554,0.61361,-0.20227,0.11,0.23,0.17,86.2
20032,4.9968e+07,1,1.6,-0.36,24.02,-0.12815,-0.062017,-0.057329,0.12905,-0.98682,0.613,-0.20283,0.11,0.23,0.17,86.2
20072,4.9978e+07,1,1.6,-0.36,24.02,-0.12843,-0.062692,-0.05487,0.12548,-0.98733,0.61272,-0.20054,0.11,0.23,0.17,86.2
20113,4.9988e+07,1,1.6,-0.36,24.02,-0.13123,-0.06329,-0.05293,0.12157,-0.98863,0.61209,-0.20108,0.11,0.23,0.17,86.2
20153,4.9999e+07,1,1.6,-0.36,24.02,-0.13211,-0.063308,-0.052544,0.11821,-0.9892,0.6118,-0.19886,0.11,0.23,0.17,86.2
20197,5.0009e+07,1,1.6,-0.36,24.01,-0.1313,-0.063944,-0.051869,0.11777,-0.98983,0.61149,-0.19679,0.11,0.23,0.17,86.2
20235,5.002e+07,1,1.6,-0.36,24.02,-0.13091,-0.062781,-0.049362,0.11915,-0.98952,0.61152,-0.19437,0.11,0.23,0.17,86.2
20281,5.003e+07,1,1.6,-0.36,24.02,-0.13073,-0.063084,-0.048419,0.12136,-0.98917,0.61157,-0.19206,0.11,0.23,0.17,86.2
20323,5.004e+07,1,1.6,-0.37,24.02,-0.13194,-0.064317,-0.045921,0.12992,-0.99062,0.61088,-0.19258,0.11,0.23,0.17,86.2
20363,5.005e+07,1,1.6,-0.37,24.02,-0.13096,-0.06352,-0.044899,0.13542,-0.99033,0.61091,-0.19037,0.11,0.23,0.17,86.2
20405,5.006e+07,1,1.6,-0.38,24.02,-0.13125,-0.063318,-0.042759,0.14262,-0.99013,0.6109,-0.18831,0.11,0.23,0.17,86.2
20445,5.0071e+07,1,1.6,-0.38,24.02,-0.13039,-0.063107,-0.041342,0.14472,-0.98999,0.61088,-0.18635,0.11,0.23,0.17,86.2
20486,5.0081e+07,1,1.61,-0.38,24.02,-0.13147,-0.064243,-0.042149,0.14497,-0.9913,0.61025,-0.18677,0.11,0.23,0.17,86.2
20526,5.009e+07,1,1.61,-0.38,24.02,-0.13004,-0.064205,-0.042176,0.14667,-0.9912,0.6102,-0.18413,0.11,0.23,0.17,86.2
20567,5.0101e+07,1,1.61,-0.38,24.02,-0.12847,-0.066487,-0.041556,0.1528,-0.99115,0.61011,-0.18166,0.11,0.23,0.17,86.2
20608,5.0111e+07,1,1.6,-0.38,24.02,-0.12793,-0.066949,-0.039264,0.15998,-0.99129,0.60991,-0.17938,0.11,0.23,0.17,86.2
20648,5.0121e+07,1,1.6,-0.39,24.02,-0.12749,-0.065549,-0.038952,0.16393,-0.99136,0.60976,-0.1772,0.11,0.23,0.17,86.2
20694,5.0131e+07,1,1.6,-0.39,24.01,-0.12751,-0.064802,-0.039615,0.1668,-0.99148,0.6096,-0.17518,0.11,0.23,0.17,86.2
20734,5.0141e+07,1,1.6,-0.39,24.01,-0.12713,-0.064412,-0.039069,0.16929,-0.99167,0.60942,-0.1733,0.11,0.23,0.17,86.2
20776,5.0151e+07,1,1.59,-0.39,24.01,-0.12828,-0.065848,-0.03771,0.17355,-0.99295,0.60877,-0.17368,0.11,0.23,0.17,86.2
20816,5.0162e+07,1,1.59,-0.39,24.01,-0.1294,-0.065186,-0.038239,0.17088,-0.99318,0.60856,-0.17189,0.11,0.23,0.17,86.2
20854,5.0172e+07,1,1.59,-0.39,24.02,-0.12903,-0.065308,-0.038365,0.17026,-0.99361,0.60826,-0.16961,0.11,0.23,0.17,86.2
20895,5.0182e+07,1,1.59,-0.39,24.02,-0.12958,-0.06411,-0.038324,0.17011,-0.99395,0.60802,-0.16743,0.11,0.23,0.17,86.2
20935,5.0192e+07,1,1.59,-0.4,24.02,-0.13036,-0.065318,-0.037847,0.16907,-0.99437,0.60775,-0.1654,0.11,0.23,0.17,86.2
20976,5.0203e+07,1,1.59,-0.4,24.02,-0.13099,-0.0667,-0.036706,0.17129,-0.99567,0.60709,-0.16577,0.11,0.23,0.17,86.2
21016,5.0213e+07,1,1.59,-0.4,24.03,-0.13075,-0.066225,-0.037366,0.16764,-0.99612,0.60679,-0.16384,0.11,0.23,0.17,86.2
21056,5.0226e+07,1,1.6,-0.4,24.03,-0.13068,-0.067054,-0.036924,0.16708,-0.9959,0.60665,-0.16196,0.11,0.24,0.17,86.2
21100,5.0236e+07,1,1.6,-0.4,24.03,-0.12919,-0.066201,-0.03604,0.16793,-0.99536,0.60668,-0.1601,0.11,0.24,0.17,86.2
21142,5.0246e+07,1,1.59,-0.4,24.04,-0.12833,-0.067115,-0.035473,0.16295,-0.99665,0.606,-0.16046,0.11,0.24,0.17,86.2
21184,5.0256e+07,1,1.59,-0.41,24.04,-0.12762,-0.06646,-0.034788,0.15779,-0.99614,0.60602,-0.15865,0.11,0.23,0.17,86.2
21224,5.0266e+07,1,1.59,-0.41,24.04,-0.12639,-0.066032,-0.035516,0.1518,-0.9957,0.606,-0.15697,0.11,0.23,0.17,86.2
21268,5.0278e+07,1,1.6,-0.41,24.04,-0.12643,-0.065469,-0.034346,0.14191,-0.99569,0.60577,-0.1551,0.11,0.23,0.17,86.2
21308,5.0289e+07,1,1.59,-0.41,24.04,-0.12628,-0.066577,-0.033557,0.13854,-0.99695,0.60511,-0.15544,0.11,0.23,0.17,86.2
21350,5.0299e+07,1,1.59,-0.41,24.04,-0.1258,-0.065642,-0.033066,0.13452,-0.99676,0.60498,-0.15363,0.11,0.23,0.17,86.2
21391,5.0309e+07,1,1.59,-0.42,24.04,-0.12449,-0.065405,-0.032474,0.12974,-0.9965,0.6049,-0.15188,0.11,0.23,0.17,86.2
21433,5.0319e+07,1,1.59,-0.43,24.04,-0.12537,-0.066115,-0.033716,0.1237,-0.99775,0.60424,-0.15221,0.11,0.23,0.17,86.2
21478,5.0329e+07,1,1.59,-0.43,24.04,-0.12422,-0.065928,-0.031891,0.12165,-0.99752,0.60414,-0.15056,0.11,0.23,0.16,86.2
21518,5.034e+07,1,1.6,-0.43,24.04,-0.12368,-0.065585,-0.030393,0.12063,-0.99738,0.604,-0.14904,0.11,0.23,0.17,86.2
21559,5.035e+07,1,1.6,-0.43,24.04,-0.12314,-0.065047,-0.031761,0.11676,-0.99729,0.60384,-0.14763,0.11,0.23,0.17,86.2
21602,5.036e+07,1,1.6,-0.43,24.04,-0.12265,-0.064206,-0.030015,0.11489,-0.99726,0.60366,-0.14632,0.11,0.23,0.17,86.2
21642,5.037e+07,1,1.6,-0.43,24.05,-0.1231,-0.063069,-0.029689,0.1114,-0.99729,0.60347,-0.14511,0.11,0.23,0.17,86.2
21680,5.038e+07,1,1.6,-0.43,24.05,-0.12402,-0.062534,-0.027928,0.11078,-0.99852,0.60284,-0.14539,0.11,0.23,0.17,86.2
21720,5.039e+07,1,1.61,-0.43,24.05,-0.12312,-0.063511,-0.026739,0.11028,-0.99861,0.60264,-0.1435,0.11,0.23,0.17,86.2
21763,5.0403e+07,1,1.61,-0.43,24.05,-0.12308,-0.062552,-0.023597,0.11439,-0.99925,0.60217,-0.14183,0.11,0.23,0.17,86.2
21802,5.0413e+07,1,1.61,-0.43,24.05,-0.1214,-0.061751,-0.022658,0.11776,-0.9984,0.60245,-0.13971,0.11,0.24,0.17,86.2
21842,5.0423e+07,1,1.61,-0.43,24.05,-0.11998,-0.060994,-0.022102,0.11534,-0.9976,0.60272,-0.13766,0.11,0.23,0.17,86.2
21887,5.0434e+07,1,1.6,-0.43,24.05,-0.12105,-0.060726,-0.020744,0.11842,-0.99882,0.60211,-0.13788,0.11,0.23,0.17,86.2
21927,5.0443e+07,1,1.6,-0.43,24.04,-0.12006,-0.061436,-0.019015,0.11661,-0.99809,0.60235,-0.1359,0.11,0.23,0.16,86.2
21969,5.0454e+07,1,1.6,-0.43,24.04,-0.11854,-0.06145,-0.016475,0.11765,-0.99743,0.60256,-0.13403,0.11,0.23,0.16,86.2
22011,5.0464e+07,1,1.6,-0.44,24.04,-0.11967,-0.060881,-0.016891,0.11904,-0.99874,0.60188,-0.13421,0.11,0.23,0.16,86.2
22051,5.0474e+07,1,1.6,-0.44,24.04,-0.11927,-0.059931,-0.015534,0.12134,-0.99816,0.60205,-0.13245,0.11,0.23,0.16,86.2
22092,5.0484e+07,1,1.6,-0.44,24.04,-0.11788,-0.058958,-0.014544,0.12368,-0.99765,0.60221,-0.13021,0.11,0.23,0.17,86.2
22133,5.0494e+07,1,1.6,-0.44,24.04,-0.11624,-0.058939,-0.014469,0.12525,-0.9972,0.60234,-0.12811,0.11,0.23,0.17,86.2
22176,5.0504e+07,1,1.6,-0.44,24.04,-0.11611,-0.058211,-0.014825,0.12704,-0.99683,0.60242,-0.12614,0.11,0.23,0.17,86.2
22216,5.0515e+07,1,1.6,-0.45,24.04,-0.11681,-0.058924,-0.013586,0.1329,-0.99799,0.60184,-0.12628,0.11,0.23,0.17,86.2
22257,5.0525e+07,1,1.61,-0.45,24.04,-0.11586,-0.059569,-0.010382,0.13725,-0.99768,0.6019,-0.1244,0.11,0.23,0.17,86.2
22302,5.0535e+07,1,1.61,-0.45,24.04,-0.11644,-0.058904,-0.0093256,0.13876,-0.99753,0.60189,-0.12261,0.11,0.23,0.17,86.2
22343,5.0545e+07,1,1.61,-0.46,24.03,-0.11724,-0.058666,-0.00921,0.13834,-0.99872,0.60129,-0.1227,0.11,0.23,0.17,86.2
22384,5.0555e+07,1,1.61,-0.46,24.03,-0.11761,-0.059449,-0.0067355,0.13794,-0.99851,0.60131,-0.12097,0.1,0.23,0.16,86.2
22425,5.0565e+07,1,1.6,-0.47,24.04,-0.11557,-0.059441,-0.0072389,0.13501,-0.99838,0.6013,-0.11934,0.11,0.23,0.16,86.2
22466,5.0575e+07,1,1.6,-0.47,24.03,-0.11645,-0.0605,-0.0067014,0.13278,-0.99953,0.6007,-0.11941,0.11,0.23,0.16,86.2
22507,5.0585e+07,1,1.6,-0.47,24.03,-0.11563,-0.058593,-0.0038414,0.13224,-0.99945,0.60066,-0.11785,0.1,0.23,0.16,86.2
22548,5.0596e+07,1,1.6,-0.47,24.03,-0.11648,-0.058117,-0.0016825,0.13193,-0.99942,0.60061,-0.11609,0.1,0.23,0.16,86.2
22592,5.0606e+07,1,1.6,-0.48,24.03,-0.11641,-0.058187,-0.00041663,0.13222,-0.99958,0.60047,-0.11443,0.11,0.23,0.16,86.2
22626,5.0616e+07,1,1.6,-0.48,24.03,-0.11492,-0.05794,0.0012812,0.13306,-0.99917,0.60083,-0.11267,0.1,0.23,0.17,86.2
22667,5.0627e+07,1,1.6,-0.48,24.03,-0.11422,-0.057357,0.0018634,0.13206,-0.99886,0.60114,-0.111,0.1,0.23,0.17,86.2
22712,5.0637e+07,1,1.6,-0.48,24.03,-0.1146,-0.057691,0.003128,0.13377,-0.99999,0.60056,-0.11097,0.1,0.23,0.17,86.2
