LineNo,TimeUS,DesRoll,Roll,DesPitch,Pitch,DesYaw,Yaw,ErrRP,ErrYaw,AEKF
528,64331808,0,0.05,0.01,0.95,22.99,22.99,0,0,3
1448,64640747,0,0.05,0.01,0.96,23,22.99,0,0,3
1480,64660551,0,0.05,0.01,0.95,23,22.99,0,0,3
1521,64670543,0,0.05,0.01,0.95,23,22.99,0,0,3
1561,64680504,0,0.05,0.01,0.95,23,22.99,0,0,3
1602,64691121,0,0.04,0.01,0.95,23,22.99,0,0,3
1645,64703506,0,0.04,0.01,0.95,23,22.99,0,0,3
1689,64719287,0,0.03,0.01,0.95,22.99,22.99,0,0,3
1731,64729879,0,0.03,0.01,0.95,22.99,22.99,0,0,3
1771,64740292,0,0.03,0.01,0.95,22.99,22.99,0,0,3
1812,64750837,0,0.03,0.01,0.95,22.99,22.99,0,0,3
1858,64760824,0,0.03,0.01,0.96,22.99,22.98,0,0,3
1903,64770821,0,0.04,0.01,0.96,22.98,22.98,0,0,3
1944,64780839,0,0.04,0.01,0.96,22.98,22.98,0,0,3
1984,64791009,0,0.04,0.01,0.96,22.98,22.98,0,0,3
2025,64801315,0,0.05,0.01,0.96,22.98,22.98,0,0,3
2065,64811229,0,0.05,0.01,0.95,22.98,22.98,0,0,3
2112,64823914,0,0.05,0.01,0.95,22.99,22.98,0,0,3
2153,64833996,0,0.05,0.01,0.95,22.98,22.98,0,0,3
2193,64844114,0,0.05,0.01,0.95,22.98,22.98,0,0,3
2234,64854470,0,0.05,0.01,0.96,22.98,22.98,0,0,3
2278,64864795,0,0.04,0.01,0.96,22.98,22.98,0,0,3
2320,64874559,0,0.04,0.01,0.96,22.98,22.98,0,0,3
2361,64884839,0,0.04,0.01,0.96,22.98,22.98,0,0,3
2403,64895491,0,0.04,0.01,0.96,22.98,22.98,0,0,3
2444,64912148,0,0.04,0.01,0.96,22.98,22.97,0,0,3
2485,64923006,0,0.04,0.01,0.95,22.97,22.97,0,0,3
2527,64933786,0,0.04,0.01,0.95,22.97,22.97,0,0,3
2568,64943946,0,0.04,0.01,0.95,22.97,22.97,0,0,3
2608,64954603,0,0.04,0.01,0.95,22.97,22.97,0,0,3
2653,64965035,0,0.04,0.01,0.95,22.97,22.97,0,0,3
2694,64975263,0,0.05,0.01,0.95,22.97,22.97,0,0,3
2735,64985781,0,0.05,0.01,0.95,22.97,22.97,0,0,3
2776,64995355,0,0.05,0.01,0.96,22.97,22.97,0,0,3
2816,65006135,0,0.05,0.01,0.96,22.97,22.97,0,0,3
2857,65016245,0,0.05,0.01,0.96,22.98,22.97,0,0,3
2899,65026261,0,0.05,0.01,0.96,22.98,22.97,0,0,3
2940,65036270,0,0.04,0.01,0.96,22.98,22.97,0,0,3
2980,65045922,0,0.04,0.01,0.96,22.97,22.97,0,0,3
3021,65055899,0,0.04,0.01,0.95,22.97,22.97,0,0,3
3067,65066753,0,0.04,0.01,0.95,22.97,22.97,0,0,3
3107,65076753,0,0.03,0.01,0.95,22.97,22.97,0,0,3
3148,65086917,0,0.03,0.01,0.96,22.97,22.97,0,0,3
3188,65096881,0,0.03,0.01,0.96,22.97,22.97,0,0,3
3231,65106935,0,0.03,0.01,0.96,22.97,22.97,0,0,3
3265,65118293,0,0.04,0.01,0.96,22.97,22.97,0,0,3
3306,65128498,0,0.04,0.01,0.96,22.97,22.97,0,0,3
3348,65138675,0,0.04,0.01,0.96,22.98,22.97,0,0,3
3389,65148845,0,0.04,0.01,0.95,22.98,22.98,0,0,3
3430,65159015,0,0.04,0.01,0.95,22.98,22.98,0,0,3
3474,65169556,0,0.04,0.01,0.96,22.98,22.98,0,0,3
3515,65179861,0,0.05,0.01,0.96,22.98,22.98,0,0,3
3555,65189788,0,0.04,0.01,0.96,22.98,22.98,0,0,3
3596,65199754,0,0.04,0.01,0.95,22.98,22.98,0,0,3
3637,65209736,0,0.04,0.01,0.95,22.98,22.98,0,0,3
3681,65222098,0,0.04,0.01,0.95,22.98,22.97,0,0,3
3722,65232586,0,0.04,0.01,0.95,22.97,22.97,0,0,3
3763,65243493,0,0.04,0.01,0.95,22.97,22.97,0,0,3
3804,65253820,0,0.04,0.01,0.95,22.97,22.97,0,0,3
3848,65263990,0,0.04,0.01,0.95,22.97,22.97,0,0,3
3895,65274343,0,0.04,0.01,0.95,22.97,22.97,0,0,3
3936,65284538,0,0.05,0.01,0.95,22.97,22.97,0,0,3
3976,65294229,0,0.05,0.01,0.95,22.98,22.98,0,0,3
4017,65304217,0,0.05,0.01,0.95,22.98,22.98,0,0,3
4058,65318069,0,0.05,0.01,0.95,22.98,22.98,0,0,3
4102,65328523,0,0.05,0.01,0.95,22.98,22.98,0,0,3
4143,65338709,0,0.05,0.01,0.95,22.99,22.98,0,0,3
4185,65349112,0,0.05,0.01,0.95,22.98,22.98,0,0,3
4226,65359567,0,0.05,0.01,0.95,22.98,22.98,0,0,3
4266,65369800,0,0.04,0.01,0.95,22.98,22.98,0,0,3
4311,65379820,0,0.04,0.01,0.95,22.98,22.97,0,0,3
4352,65389821,0,0.04,0.01,0.95,22.97,22.97,0,0,3
4392,65399882,0,0.04,0.01,0.95,22.97,22.97,0,0,3
4437,65412044,0,0.04,0.01,0.95,22.97,22.97,0,0,3
4477,65422912,0,0.04,0.01,0.95,22.97,22.97,0,0,3
4518,65433119,0,0.04,0.01,0.95,22.97,22.97,0,0,3
4559,65443260,0,0.05,0.01,0.95,22.97,22.97,0,0,3
4600,65453467,0,0.05,0.01,0.95,22.98,22.97,0,0,3
4641,65463362,0,0.05,0.01,0.95,22.98,22.98,0,0,3
4681,65473880,0,0.05,0.01,0.95,22.98,22.98,0,0,3
4726,65484352,0,0.05,0.01,0.95,22.99,22.98,0,0,3
4766,65494604,0,0.05,0.01,0.95,22.99,22.98,0,0,3
4807,65504251,0,0.05,0.01,0.95,22.99,22.98,0,0,3
4850,65514438,0,0.05,0.01,0.95,22.99,22.98,0,0,3
4884,65525438,0,0.05,0.01,0.95,22.98,22.98,0,0,3
4926,65535901,0,0.05,0.01,0.95,22.98,22.98,0,0,3
4966,65546245,0,0.05,0.01,0.95,22.98,22.98,0,0,3
5008,65556507,0,0.04,0.01,0.95,22.98,22.98,0,0,3
5049,65566128,0,0.04,0.01,0.95,22.98,22.97,0,0,3
5090,65576745,0,0.05,0.01,0.95,22.98,22.97,0,0,3
5135,65586760,0,0.05,0.01,0.95,22.98,22.98,0,0,3
5175,65596980,0,0.05,0.01,0.96,22.98,22.98,0,0,3
5216,65607354,0,0.05,0.01,0.96,22.98,22.98,0,0,3
5256,65617366,0,0.05,0.01,0.95,22.99,22.99,0,0,3
5297,65627631,0,0.05,0.01,0.95,22.99,22.99,0,0,3
5337,65637777,0,0.05,0.01,0.95,22.99,22.99,0,0,3
5378,65648039,0,0.05,0.01,0.95,23,22.99,0,0,3
5419,65658365,0,0.05,0.01,0.95,23,23,0,0,3
5459,65668784,0,0.05,0.01,0.95,23,23,0,0,3
5501,65678858,0,0.05,0.01,0.95,23,23,0,0,3
5546,65688999,0,0.05,0.01,0.95,23,22.99,0,0,3
5589,65701818,0,0.05,0.01,0.96,22.99,22.99,0,0,3
5626,65712575,0,0.05,0.01,0.96,22.99,22.99,0,0,3
5667,65723215,0,0.04,0.01,0.96,22.99,22.99,0,0,3
5711,65735931,0,0.04,0.01,0.96,22.99,22.99,0,0,3
5751,65746130,0,0.04,0.01,0.96,22.99,22.99,0,0,3
5794,65756493,0,0.04,0.01,0.95,22.99,22.99,0,0,3
5836,65766568,0,0.04,0.01,0.95,22.99,22.99,0,0,3
5877,65776789,0,0.04,0.01,0.95,23,23,0,0,3
5922,65786781,0,0.05,0.01,0.95,23,23,0,0,3
5963,65796925,0,0.05,0.01,0.95,23,23,0,0,3
6004,65806915,0,0.05,0.01,0.95,23.01,23,0,0,3
6046,65816849,0,0.05,0.01,0.95,23.01,23.01,0,0,3
6086,65826921,0,0.05,0.01,0.95,23.01,23,0,0,3
6127,65837490,0,0.05,0.01,0.95,23,23,0,0,3
6167,65847981,0,0.05,0.01,0.96,23,23,0,0,3
6208,65858377,0,0.04,0.01,0.95,23,23,0,0,3
6248,65868072,0,0.04,0.01,0.95,22.99,22.99,0,0,3
6289,65878134,0,0.04,0.01,0.95,22.99,22.99,0,0,3
6336,65888367,0,0.04,0.01,0.95,22.99,22.99,0,0.01,3
6376,65898804,0,0.04,0.01,0.95,22.99,22.99,0,0.01,3
6419,65914048,0,0.04,0.01,0.96,22.99,22.99,0,0.01,3
6459,65924718,0,0.04,0.01,0.95,22.99,22.99,0,0.01,3
6500,65934277,0,0.04,0.01,0.95,23,22.99,0,0.01,3
6541,65944851,0,0.04,0.01,0.96,23,22.99,0,0.01,3
6581,65954877,0,0.05,0.01,0.96,23,23,0,0.01,3
6621,65964976,0,0.05,0.01,0.96,23,23,0,0.01,3
6661,65974769,0,0.05,0.01,0.96,23,23,0,0.01,3
6705,65985225,0,0.05,0.01,0.96,23,23,0,0.01,3
6750,65995130,0,0.05,0.01,0.96,23,23,0,0.01,3
6790,66005136,0,0.05,0.01,0.96,23,23,0,0.01,3
6831,66014842,0,0.05,0.01,0.95,23,22.99,0,0.01,3
6871,66025448,0,0.05,0.01,0.95,22.99,22.99,0,0.01,3
6909,66035997,0,0.05,0.01,0.95,22.99,22.99,0,0.01,3
6949,66045952,0,0.05,0.01,0.95,22.99,22.98,0,0.01,3
6990,66056362,0,0.05,0.01,0.95,22.98,22.98,0,0.01,3
7032,66066356,0,0.05,0.01,0.95,22.98,22.98,0,0.01,3
7072,66076535,0,0.05,0.01,0.95,22.98,22.98,0,0.01,3
7114,66086237,0,0.05,0.01,0.95,22.98,22.98,0,0.01,3
7167,66097237,0,0.05,0.01,0.95,22.99,22.98,0,0.01,3
7209,66107649,0,0.05,0.01,0.95,23.03,22.98,0,0.01,3
7243,66118140,0,0.05,0.01,0.95,23.06,22.98,0,0.01,3
7291,66130465,0,0.06,0.01,0.95,23.16,22.98,0,0.01,3
7337,66141377,0,0.06,0.01,0.95,23.28,22.98,0,0.01,3
7382,66152077,0,0.06,0.01,0.95,23.42,22.98,0,0.01,3
7427,66163133,0,0.06,0.01,0.95,23.59,22.98,0,0.01,3
7472,66173903,0,0.06,0.01,0.95,23.79,22.98,0,0.01,3
7517,66183908,0,0.06,0.01,0.95,24.02,22.98,0,0.01,3
7565,66194122,0,0.06,0.01,0.95,24.27,22.98,0,0.01,3
7610,66204247,0,0.05,0.01,0.95,24.55,22.97,0,0.01,3
7656,66214147,0,0.05,0.01,0.95,24.86,22.97,0,0.01,3
7700,66224382,0,0.05,0.01,0.96,25.2,22.97,0,0.01,3
7748,66236868,0,0.06,0.01,0.96,25.66,22.97,0,0.01,3
7794,66247141,0,0.06,0.01,0.96,26.07,22.96,0,0.01,3
7839,66257685,0,0.06,0.01,0.96,26.49,22.96,0,0.01,3
7884,66267704,0,0.06,0.01,0.96,26.95,22.96,0,0.01,3
7928,66277699,0,0.06,0.01,0.95,27.44,22.96,0,0.01,3
7972,66288348,0,0.06,0.01,0.95,27.95,22.96,0,0.01,3
8024,66298818,0,0.06,0.01,0.95,28.49,22.96,0,0.01,3
8069,66308852,0,0.06,0.01,0.95,29.06,22.96,0,0.01,3
8113,66319261,0,0.06,0.01,0.95,29.5,22.96,0,0.01,3
8154,66329980,0,0.06,0.01,0.95,29.96,22.96,0,0.01,3
8199,66340257,0,0.06,0.01,0.95,30.6,22.96,0,0.01,3
8243,66350755,0,0.06,0.01,0.96,31.27,22.95,0,0.01,3
8288,66361797,0,0.06,0.01,0.96,31.96,22.95,0,0.01,3
8335,66371583,0,0.05,0.01,0.96,32.68,22.95,0,0.01,3
8379,66382518,0,0.05,0.01,0.96,33.43,22.95,0,0.01,3
8424,66393021,0,0.05,0.01,0.96,34.21,22.95,0,0.01,3
8472,66403229,0,0.05,0.01,0.96,35.02,22.95,0,0.01,3
8517,66413468,0,0.06,0.01,0.96,35.85,22.94,0,0.01,3
8561,66423927,0,0.06,0.01,0.96,36.71,22.95,0,0.01,3
8606,66434024,0,0.06,0.01,0.96,37.6,22.95,0,0.01,3
8650,66444712,0,0.06,0.01,0.96,38.52,22.95,0,0.01,3
8696,66454754,0,0.06,0.01,0.96,39.46,22.95,0,0.01,3
8741,66464706,0,0.07000000000000001,0.01,0.96,40.44,22.95,0,0.01,3
8786,66474966,0,0.07000000000000001,0.01,0.97,41.44,22.95,0,0.01,3
8830,66485364,0,0.07000000000000001,0.01,0.97,42.47,22.95,0,0.01,3
8876,66494877,0,0.07000000000000001,0.01,0.97,43.52,22.95,0,0.01,3
8926,66505264,0,0.07000000000000001,0.01,0.96,44.61,22.95,0.01,0.01,3
8964,66515802,0,0.07000000000000001,0.01,0.96,45.16,22.95,0.01,0.01,3
9009,66526139,0,0.06,0.01,0.96,46.29,22.95,0.01,0.01,3
9054,66536518,0,0.06,0.01,0.95,47.44,22.95,0.01,0.01,3
9099,66546851,0,0.06,0.01,0.95,48.62,22.95,0.01,0.01,3
9144,66557132,0,0.06,0.01,0.95,49.83,22.95,0.01,0.01,3
9188,66567400,0,0.06,0.01,0.95,49.93,22.95,0.01,0.01,3
9233,66577978,0,0.07000000000000001,0.01,0.95,49.93,22.95,0.01,0.01,3
9277,66588445,0,0.07000000000000001,0.01,0.95,49.94,22.95,0.01,0.01,3
9324,66598473,0,0.07000000000000001,0.01,0.96,49.95,22.95,0.01,0.01,3
9373,66608546,0,0.07000000000000001,0.01,0.96,49.96,22.95,0.01,0.01,3
9417,66618802,0,0.07000000000000001,0.01,0.96,49.97,22.95,0.01,0.01,3
9462,66628951,0,0.08,0.01,0.96,49.98,22.96,0.01,0.01,3
9506,66639363,0,0.08,0.01,0.96,49.98,22.96,0.01,0.01,3
9552,66649566,0,0.08,0.01,0.96,49.99,22.96,0.01,0.01,3
9596,66659857,0,0.08,0.01,0.95,50,22.96,0.01,0.01,3
9641,66669976,0,0.07000000000000001,0.01,0.95,50.01,22.96,0.01,0.01,3
9686,66680738,0,0.07000000000000001,0.01,0.95,50.01,22.95,0.01,0.01,3
9730,66690678,0,0.07000000000000001,0.01,0.95,50.02,22.95,0.01,0.01,3
9776,66701270,0,0.07000000000000001,0.01,0.95,50.02,22.95,0.01,0.01,3
9826,66717911,0,0.06,0.01,0.95,50.03,22.95,0,0.01,3
9871,66728476,0,0.07000000000000001,0.01,0.96,50.03,22.95,0,0.01,3
9918,66738555,0,0.07000000000000001,0.01,0.96,50.04,22.94,0,0.01,3
9962,66749532,0,0.07000000000000001,0.01,0.96,50.04,22.94,0,0.01,3
10007,66760045,0,0.07000000000000001,0.01,0.96,50.05,22.94,0,0.01,3
10051,66770820,0,0.07000000000000001,0.01,0.95,50.06,22.95,0,0.01,3
10096,66780908,0,0.07000000000000001,0.01,0.95,50.07,22.95,0,0.01,3
10142,66790928,0,0.07000000000000001,0.01,0.95,50.07,22.95,0,0.01,3
10187,66801257,0,0.07000000000000001,0.01,0.95,50.08,22.95,0,0.01,3
10233,66811840,0,0.07000000000000001,0.01,0.95,50.09,22.95,0,0.01,3
10281,66822222,0,0.07000000000000001,0.01,0.95,50.09,22.94,0,0.01,3
10326,66832057,0,0.07000000000000001,0.01,0.95,50.1,22.94,0,0.01,3
10371,66842718,0,0.07000000000000001,0.01,0.95,50.1,22.94,0,0.01,3
10416,66853020,0,0.07000000000000001,0.01,0.95,50.11,22.94,0,0.01,3
10461,66863128,0,0.07000000000000001,0.01,0.95,50.11,22.94,0,0.01,3
10505,66873307,0,0.07000000000000001,0.01,0.96,50.11,22.94,0,0.01,3
10550,66883899,0,0.07000000000000001,0.01,0.95,50.11,22.94,0,0.01,3
10594,66894223,0,0.07000000000000001,0.01,0.95,50.11,22.94,0,0.01,3
10643,66903978,0,0.08,0.01,0.95,50.11,22.94,0,0.01,3
10682,66914888,0,0.08,0.01,0.95,50.11,22.94,0,0.01,3
10730,66924979,0,0.08,0.01,0.95,50.11,22.94,0,0.01,3
10776,66935447,0,0.08,0.01,0.95,50.11,22.94,0,0.01,3
10821,66944995,0,0.08,0.01,0.96,50.11,22.94,0,0.01,3
10865,66955013,0,0.07000000000000001,0.01,0.96,50.11,22.94,0,0.01,3
10910,66965879,0,0.07000000000000001,0.01,0.96,50.11,22.94,0,0.01,3
10954,66975922,0,0.08,0.01,0.96,50.11,22.94,0,0.01,3
10999,66985853,0,0.07000000000000001,0.01,0.96,50.11,22.94,0,0.01,3
11044,66995957,0,0.07000000000000001,0.01,0.96,50.11,22.94,0,0.01,3
11089,67005769,0,0.07000000000000001,0.01,0.96,50.11,22.94,0,0.01,3
11135,67016213,0,0.08,0.01,0.96,50.11,22.94,0,0.01,3
11183,67026594,0,0.08,0.01,0.95,50.11,22.94,0,0,3
11228,67036746,0,0.08,0.01,0.95,50.11,22.94,0,0,3
11272,67046828,0,0.08,0.01,0.95,50.11,22.94,0,0,3
11318,67056839,0,0.08,0.01,0.96,50.11,22.94,0,0,3
11362,67067517,0,0.08,0.01,0.96,50.11,22.94,0,0,3
11407,67077871,0,0.08,0.01,0.96,50.11,22.94,0,0,3
11452,67088499,0,0.08,0.01,0.96,50.11,22.94,0,0,3
11496,67099077,0,0.08,0.01,0.96,50.11,22.94,0,0,3
11543,67114884,0,0.07000000000000001,0.01,0.96,50.11,22.94,0.01,0,3
11590,67125114,0,0.07000000000000001,0.01,0.96,50.11,22.94,0.01,0.01,3
11636,67135337,0,0.07000000000000001,0.01,0.96,50.11,22.94,0.01,0.01,3
11682,67145783,0,0.07000000000000001,0.01,0.96,50.11,22.94,0.01,0.01,3
11728,67155775,0,0.07000000000000001,0.01,0.96,50.11,22.94,0.01,0.01,3
11772,67165757,0,0.07000000000000001,0.01,0.96,50.11,22.94,0.01,0.01,3
11817,67175979,0,0.07000000000000001,0.01,0.96,50.11,22.94,0.01,0.01,3
11862,67185890,0,0.07000000000000001,0.01,0.96,50.11,22.93,0.01,0.01,3
11906,67196480,0,0.08,0.01,0.96,50.11,22.93,0.01,0.01,3
11951,67206919,0,0.08,0.01,0.96,50.11,22.93,0.01,0.01,3
11995,67216902,0,0.08,0.01,0.96,50.11,22.93,0.01,0.01,3
12045,67226867,0,0.08,0.01,0.96,50.11,22.93,0.01,0.01,3
12092,67237460,0,0.08,0.01,0.96,50.11,22.93,0.01,0.01,3
12137,67247610,0,0.08,0.01,0.96,50.11,22.93,0.01,0.01,3
12182,67258267,0,0.08,0.01,0.96,50.11,22.93,0.01,0.01,3
12229,67270585,0,0.08,0.01,0.96,50.11,22.93,0.01,0.01,3
12274,67280779,0,0.08,0.01,0.96,50.11,22.93,0.01,0.01,3
12318,67290576,0,0.08,0.01,0.96,50.1,22.93,0.01,0.01,3
12360,67300911,0,0.08,0.01,0.96,50.1,22.93,0.01,0.01,3
12403,67314351,0,0.08,0.01,0.96,50.1,22.93,0.01,0.01,3
12447,67324847,0,0.07000000000000001,0.01,0.96,50.1,22.92,0.01,0.01,3
12498,67335478,0,0.07000000000000001,0.01,0.96,50.1,22.92,0.01,0,3
12543,67345802,0,0.07000000000000001,0.01,0.96,50.09,22.92,0.01,0,3
12588,67355865,0,0.07000000000000001,0.01,0.96,50.09,22.92,0.01,0,3
12633,67365769,0,0.07000000000000001,0.01,0.96,50.09,22.92,0.01,0,3
12677,67375871,0,0.07000000000000001,0.01,0.95,50.09,22.92,0.01,0,3
12725,67388549,0,0.07000000000000001,0.01,0.95,50.09,22.92,0.01,0,3
12769,67398920,0,0.08,0.01,0.95,50.09,22.92,0.01,0,3
12816,67408951,0,0.08,0.01,0.96,50.09,22.92,0.01,0,3
12861,67418994,0,0.08,0.01,0.96,50.09,22.92,0.01,0,3
12908,67429512,0,0.08,0.01,0.96,50.09,22.92,0.01,0,3
12954,67439553,0,0.08,0.01,0.97,50.09,22.92,0.01,0,3
12998,67449568,0,0.08,0.01,0.97,50.09,22.92,0.01,0,3
13043,67459957,0,0.08,0.01,0.97,50.09,22.92,0.01,0,3
13088,67470760,0,0.07000000000000001,0.01,0.97,50.09,22.91,0.01,0,3
13133,67480814,0,0.07000000000000001,0.01,0.96,50.09,22.91,0.01,0,3
13180,67493567,0,0.07000000000000001,0.01,0.96,50.09,22.91,0.01,0,3
13218,67504235,0,0.07000000000000001,0.01,0.96,50.09,22.91,0.01,0,3
13263,67514256,0,0.07000000000000001,0.01,0.96,50.09,22.91,0.01,0,3
13307,67524041,0,0.07000000000000001,0.01,0.96,50.09,22.92,0.01,0,3
13355,67534886,0,0.07000000000000001,0.01,0.96,50.09,22.92,0.01,0.01,3
13401,67544803,0,0.08,0.01,0.96,50.09,22.92,0.01,0.01,3
13445,67554749,0,0.08,0.01,0.97,50.09,22.92,0.01,0.01,3
13490,67564604,0,0.08,0.01,0.97,50.09,22.92,0.01,0.01,3
13535,67575959,0,0.08,0.01,0.97,50.09,22.92,0.01,0.01,3
13581,67586606,0,0.08,0.01,0.96,50.09,22.92,0.01,0.01,3
13625,67596572,0,0.08,0.01,0.96,50.09,22.92,0.01,0.01,3
13670,67606650,0,0.08,0.01,0.96,50.09,22.92,0.01,0.01,3
13715,67616966,0,0.08,0.01,0.95,50.09,22.92,0.01,0.01,3
13759,67627499,0,0.07000000000000001,0.01,0.95,50.09,22.92,0.01,0.01,3
13807,67637678,0,0.07000000000000001,0.01,0.95,50.09,22.92,0.01,0,3
13852,67647701,0,0.07000000000000001,0.01,0.95,50.09,22.92,0.01,0,3
13897,67657760,0,0.07000000000000001,0.01,0.96,50.09,22.92,0.01,0,3
13941,67667870,0,0.07000000000000001,0.01,0.96,50.09,22.92,0.01,0,3
13987,67678223,0,0.07000000000000001,0.01,0.97,50.09,22.92,0.01,0,3
14035,67690824,0,0.08,0.01,0.97,50.09,22.92,0.01,0,3
14081,67704016,0,0.08,0.01,0.97,50.1,22.92,0.01,0,3
14124,67715565,0,0.08,0.01,0.97,50.1,22.92,0.01,0,3
14169,67725572,0,0.08,0.01,0.96,50.1,22.92,0.01,0,3
14215,67735590,0,0.08,0.01,0.96,50.1,22.93,0.01,0,3
14264,67745825,0,0.08,0.01,0.96,50.1,22.92,0.01,0,3
14309,67755756,0,0.08,0.01,0.96,50.1,22.92,0.01,0,3
14354,67766246,0,0.08,0.01,0.96,50.1,22.92,0.01,0,3
14399,67776969,0,0.08,0.01,0.96,50.1,22.92,0.01,0,3
14443,67787611,0,0.08,0.01,0.97,50.09,22.92,0.01,0,3
14486,67798560,0,0.07000000000000001,0.01,0.97,50.09,22.92,0.01,0,3
14530,67808670,0,0.07000000000000001,0.01,0.97,50.09,22.92,0.01,0,3
14576,67818869,0,0.07000000000000001,0.01,0.97,50.1,22.92,0.01,0,3
14622,67828845,0,0.07000000000000001,0.01,0.97,50.1,22.92,0.01,0,3
14667,67839328,0,0.07000000000000001,0.01,0.96,50.1,22.92,0.01,0,3
14716,67849893,0,0.07000000000000001,0.01,0.96,50.1,22.92,0.01,0,3
14760,67859858,0,0.07000000000000001,0.01,0.96,50.1,22.92,0.01,0,3
14805,67870144,0,0.07000000000000001,0.01,0.95,50.1,22.93,0.01,0,3
14850,67879886,0,0.07000000000000001,0.01,0.95,50.1,22.93,0.01,0,3
14895,67890490,0,0.07000000000000001,0.01,0.96,50.1,22.92,0.01,0,3
14940,67900779,0,0.07000000000000001,0.01,0.96,50.1,22.92,0.01,0,3
14986,67914269,0,0.07000000000000001,0.01,0.96,50.09,22.92,0,0,3
15029,67925561,0,0.07000000000000001,0.01,0.97,50.09,22.92,0,0,3
15073,67935945,0,0.07000000000000001,0.01,0.97,50.09,22.92,0,0,3
15122,67946215,0,0.07000000000000001,0.01,0.97,50.09,22.92,0,0,3
15168,67956364,0,0.07000000000000001,0.01,0.97,50.09,22.92,0,0,3
15212,67966931,0,0.07000000000000001,0.01,0.97,50.09,22.92,0,0,3
15257,67977376,0,0.07000000000000001,0.01,0.96,50.1,22.92,0,0,3
15301,67987554,0,0.06,0.01,0.96,50.1,22.92,0,0,3
15346,67997534,0,0.06,0.01,0.96,50.1,22.93,0,0,3
15393,68010020,0,0.06,0.01,0.96,50.1,22.93,0,0,3
15438,68020354,0,0.06,0.01,0.96,50.1,22.92,0,0,3
15485,68030801,0,0.07000000000000001,0.01,0.97,50.1,22.92,0,0,3
15529,68040840,0,0.07000000000000001,0.01,0.97,50.1,22.92,0,0,3
15577,68050896,0,0.07000000000000001,0.01,0.97,50.1,22.92,0,0,3
15622,68061267,0,0.07000000000000001,0.01,0.97,50.1,22.92,0,0,3
15667,68071769,0,0.07000000000000001,0.01,0.97,50.1,22.92,0,0,3
15712,68081833,0,0.08,0.01,0.96,50.1,22.92,0,0,3
15763,68097904,0,0.07000000000000001,0.01,0.95,22.92,22.92,0,0,3
15805,68109142,0,0.07000000000000001,0.01,0.95,22.92,22.92,0,0,3
15849,68119359,0,0.07000000000000001,0.01,0.95,22.92,22.92,0,0,3
15893,68129226,0,0.07000000000000001,0.01,0.95,22.92,22.92,0,0,3
15937,68139557,0,0.07000000000000001,0.01,0.96,22.93,22.93,0,0,3
15982,68149588,0,0.07000000000000001,0.01,0.96,22.93,22.93,0,0,3
16032,68159894,0,0.07000000000000001,0.01,0.96,22.94,22.93,0,0.01,3
16076,68169578,0,0.08,0.01,0.96,22.93,22.93,0,0.01,3
16122,68180235,0,0.08,0.01,0.97,22.93,22.93,0,0.01,3
16167,68190265,0,0.08,0.01,0.97,22.93,22.93,0,0.01,3
16214,68203004,0,0.09,0.01,0.96,22.93,22.92,0,0.01,3
16259,68213584,0,0.08,0.01,0.96,22.93,22.93,0,0.01,3
16303,68223258,0,0.07000000000000001,0.01,0.96,22.93,22.92,0,0.01,3
16352,68233593,0,0.08,0.01,0.96,22.93,22.93,0,0.01,3
16397,68243931,0,0.09,0.01,0.96,22.93,22.93,0,0.01,3
16444,68254542,0,0.1,0.01,0.97,22.93,22.93,0,0.01,3
16490,68264601,0,0.09,0.01,0.97,22.93,22.93,0,0.01,3
16535,68274956,0,0.08,0.01,0.97,22.93,22.93,0,0.01,3
16580,68284941,0,0.08,0.01,0.97,22.93,22.93,0,0.01,3
16624,68294977,0,0.07000000000000001,0.01,0.96,22.93,22.92,0,0.01,3
16665,68306806,0,0.07000000000000001,0.01,0.96,22.92,22.92,0,0.01,3
16709,68316529,0,0.07000000000000001,0.01,0.96,22.93,22.92,0,0.01,3
16754,68327026,0,0.1,0.01,0.95,22.92,22.92,0,0.01,3
16799,68337522,0,0.13,0.01,0.95,22.93,22.92,0,0.01,3
16844,68347895,0,0.13,0.01,0.9399999999999999,22.93,22.93,0,0.01,3
16894,68357991,0,0.1,0.01,0.95,22.94,22.94,0,0.01,3
16939,68368558,0,0.1,0.01,0.96,22.94,22.94,0,0.01,3
16985,68378742,0,0.11,0.01,0.95,22.94,22.94,0,0.01,3
17030,68389111,0,0.12,0.01,0.96,22.94,22.94,0,0.01,3
17074,68399943,0,0.14,0.01,0.95,22.94,22.94,0,0.01,3
17119,68409960,0,0.14,0.01,0.96,22.94,22.94,0,0.01,3
17164,68419929,0,0.13,0.01,0.96,22.95,22.94,0,0.01,3
17212,68432939,0,0.15,0.01,0.96,22.93,22.93,0,0.01,3
17257,68443487,0,0.16,0.01,0.95,22.91,22.9,0,0.01,3
17303,68453888,0,0.15,0.01,0.96,22.89,22.89,0,0.01,3
17352,68464000,0,0.16,0.01,0.95,22.88,22.87,0,0.01,3
17397,68474130,0,0.14,0.01,0.95,22.87,22.87,0,0.01,3
17442,68484013,0,0.11,0.01,0.95,22.86,22.86,0,0.01,3
17486,68494070,0,0.11,0.01,0.96,22.86,22.86,0,0.01,3
17533,68504510,0,0.1,0.01,0.96,22.88,22.87,0,0.01,3
17572,68515736,0,0.08,0.01,0.96,22.9,22.9,0,0.01,3
17616,68525951,0,0.07000000000000001,0.01,0.96,22.92,22.92,0,0.01,3
17661,68536434,0,0.08,0.01,0.96,22.93,22.93,0,0.01,3
17706,68546479,0,0.08,0.01,0.97,22.96,22.96,0,0.01,3
17752,68556838,0,0.07000000000000001,0.01,0.96,22.97,22.96,0,0.01,3
17800,68566810,0,0.07000000000000001,0.01,0.96,22.98,22.97,0,0.01,3
17845,68576909,0,0.12,0.01,0.95,22.96,22.95,0,0.01,3
17890,68586818,0,0.12,0.01,0.96,22.96,22.96,0,0.01,3
17935,68597281,0,0.13,0.01,0.9399999999999999,22.94,22.94,0,0.01,3
17982,68610971,0,0.12,0.01,0.96,22.93,22.92,0,0.01,3
18028,68621455,0,0.17,0.01,0.96,22.9,22.89,0,0.01,3
18073,68631898,0,0.15,0.01,0.95,22.89,22.89,0,0.01,3
18117,68642856,0,0.14,0.01,0.9399999999999999,22.88,22.88,0,0.01,3
18162,68652915,0,0.13,0.01,0.9399999999999999,22.88,22.88,0,0.01,3
18206,68663565,0,0.16,0.01,0.96,22.88,22.88,0,0.01,3
18255,68673807,0,0.13,0.01,0.95,22.9,22.9,0,0.01,3
18301,68684008,0,0.1,0.01,0.95,22.91,22.91,0,0.01,3
18348,68694319,0,0.08,0.01,0.95,22.93,22.92,0.01,0.01,3
18387,68705358,0,0.12,0.01,0.97,22.95,22.95,0.01,0.01,3
18431,68715967,0,0.08,0.01,0.93,22.95,22.95,0.01,0.01,3
18481,68728773,0,0.06,0.01,0.96,22.97,22.97,0.01,0.01,3
18525,68738873,0,0.1,0.01,0.9399999999999999,22.95,22.95,0.01,0.01,3
18570,68749115,0,0.11,0.01,0.97,22.96,22.96,0.01,0.01,3
18614,68758842,0,0.09,0.01,0.93,22.93,22.93,0.01,0.01,3
18659,68769275,0,0.1,0.01,0.96,22.92,22.92,0.01,0.01,3
18708,68779930,0,0.14,0.01,0.9399999999999999,22.89,22.89,0.01,0.01,3
18753,68789903,0,0.16,0.01,0.97,22.89,22.89,0.01,0.01,3
18799,68800313,0,0.14,0.01,0.92,22.86,22.86,0.01,0.01,3
18844,68811138,0,0.13,0.01,0.96,22.86,22.86,0.01,0.01,3
18889,68821016,0,0.17,0.01,0.96,22.87,22.87,0.01,0.01,3
18934,68831005,0,0.15,0.01,0.96,22.88,22.88,0.01,0.01,3
18978,68841798,0,0.13,0.01,0.93,22.89,22.89,0.01,0.01,3
19023,68851833,0,0.11,0.01,0.9399999999999999,22.9,22.9,0.01,0.01,3
19067,68862311,0,0.14,0.01,0.95,22.93,22.93,0.01,0.01,3
19114,68872593,0,0.11,0.01,0.9399999999999999,22.94,22.94,0.01,0.01,3
19162,68883125,0,0.1,0.01,0.9399999999999999,22.96,22.96,0.01,0.01,3
19207,68893495,0,0.11,0.01,0.92,22.94,22.93,0.01,0.01,3
19250,68904315,0,0.14,0.01,0.99,22.98,22.98,0.01,0.01,3
19292,68914803,0,0.11,0.01,0.93,22.93,22.93,0.01,0.01,3
19337,68924812,0,0.1,0.01,0.98,22.95,22.94,0.01,0.01,3
19381,68935509,0,0.14,0.01,0.92,22.9,22.89,0.01,0.01,3
19426,68945989,0,0.15,0.01,1,22.93,22.93,0.01,0.01,3
19471,68955920,0,0.13,0.01,0.91,22.88,22.88,0.01,0.01,3
19515,68966341,0,0.1,0.01,0.9399999999999999,22.88,22.88,0.01,0.01,3
19560,68976250,0,0.16,0.01,0.93,22.87,22.87,0.01,0.01,3
19610,68986532,0,0.15,0.01,0.9399999999999999,22.9,22.9,0.01,0.01,3
19655,68996541,0,0.14,0.01,0.92,22.89,22.89,0.01,0.01,3
19699,69006588,0,0.1,0.01,0.92,22.89,22.89,0.01,0.01,3
19744,69016731,0,0.15,0.01,0.95,22.92,22.91,0.01,0.01,3
19789,69026565,0,0.13,0.01,0.95,22.94,22.93,0.01,0.01,3
19833,69036535,0,0.11,0.01,0.9399999999999999,22.94,22.94,0.01,0.01,3
19878,69046745,0,0.08,0.01,0.9399999999999999,22.93,22.93,0.01,0.01,3
19922,69056605,0,0.11,0.01,0.98,22.96,22.96,0.01,0.01,3
19967,69066530,0,0.1,0.01,0.96,22.95,22.95,0.01,0.01,3
20011,69077133,0,0.09,0.01,0.96,22.95,22.95,0.01,0.01,3
20060,69087670,0,0.1,0.01,0.93,22.91,22.91,0.01,0.01,3
20105,69098140,0,0.13,0.01,1,22.94,22.94,0.01,0.01,3
20151,69107981,0,0.13,0.01,0.93,22.9,22.9,0.01,0.01,3
20164,69169345,0,0.18,0.01,0.93,22.89,22.89,0.01,0.01,3
20209,69179980,0,0.16,0.01,0.95,22.93,22.93,0.01,0.01,3
20257,69190599,0,0.15,0.01,0.9399999999999999,22.92,22.92,0.01,0.01,3
20302,69200980,0,0.09,0.01,0.91,22.92,22.92,0.01,0.01,3
20347,69211017,0,0.13,0.01,0.96,22.94,22.94,0.01,0.01,3
20394,69221489,0,0.12,0.01,0.92,22.94,22.94,0.01,0.01,3
20439,69231874,0,0.1,0.01,0.9399999999999999,22.94,22.94,0.01,0.01,3
20483,69242069,0,0.09,0.01,0.9,22.91,22.91,0.01,0.01,3
20528,69252030,0,0.11,0.01,0.98,22.94,22.94,0.01,0.01,3
20572,69262859,0,0.1,0.01,0.92,22.91,22.91,0.01,0.01,3
20618,69273000,0,0.09,0.01,0.97,22.91,22.91,0.01,0.01,3
20662,69283310,0,0.12,0.01,0.92,22.87,22.87,0.01,0.01,3
20714,69295325,0,0.14,0.01,0.96,22.9,22.9,0.01,0.01,3
20759,69305905,0,0.14,0.01,0.95,22.88,22.88,0.01,0.01,3
20803,69319348,0,0.14,0.01,0.9,22.86,22.86,0.01,0.01,3
20848,69329573,0,0.16,0.01,0.99,22.9,22.9,0.01,0.01,3
20893,69339567,0,0.15,0.01,0.93,22.9,22.89,0.01,0.01,3
20937,69350033,0,0.14,0.01,0.98,22.92,22.91,0.01,0.01,3
20982,69360467,0,0.15,0.01,0.93,22.9,22.9,0.01,0.01,3
21026,69370247,0,0.14,0.01,1,22.95,22.94,0.01,0.01,3
21073,69379923,0,0.13,0.01,0.9399999999999999,22.93,22.93,0.01,0.01,3
21123,69390022,0,0.09,0.01,0.97,22.94,22.94,0.01,0.01,3
21168,69400442,0,0.13,0.01,0.93,22.92,22.91,0.01,0.01,3
21213,69410583,0,0.11,0.01,0.98,22.94,22.94,0.01,0.01,3
21257,69420927,0,0.11,0.01,0.95,22.92,22.92,0.01,0.01,3
21302,69430563,0,0.06,0.01,0.96,22.91,22.91,0.01,0.01,3
21346,69440750,0,0.12,0.01,0.9399999999999999,22.89,22.89,0.01,0.01,3
21390,69450750,0,0.11,0.01,0.97,22.91,22.9,0.01,0.01,3
21435,69461500,0,0.11,0.01,0.95,22.89,22.89,0.01,0.01,3
21481,69472096,0,0.08,0.01,0.92,22.88,22.88,0.01,0.01,3
21525,69482966,0,0.16,0.01,0.9399999999999999,22.9,22.89,0.01,0.01,3
21574,69493438,0,0.15,0.01,0.91,22.9,22.9,0.01,0.01,3
21615,69504320,0,0.14,0.01,0.9399999999999999,22.91,22.91,0.01,0.01,3
21660,69514261,0,0.12,0.01,0.89,22.89,22.89,0.01,0.01,3
21705,69524603,0,0.14,0.01,0.99,22.94,22.94,0.01,0.01,3
21749,69534766,0,0.14,0.01,0.93,22.93,22.93,0.01,0.01,3
21794,69545142,0,0.11,0.01,0.98,22.94,22.94,0.01,0.01,3
21839,69555579,0,0.12,0.01,0.95,22.92,22.92,0.01,0.01,3
21883,69565579,0,0.11,0.01,1,22.95,22.95,0.01,0.01,3
21929,69575794,0,0.11,0.01,0.97,22.93,22.93,0.01,0.01,3
21974,69585730,0,0.07000000000000001,0.01,0.97,22.92,22.92,0.01,0.01,3
22022,69595939,0,0.11,0.01,0.96,22.91,22.91,0.01,0.01,3
22067,69606511,0,0.1,0.01,0.98,22.92,22.92,0.01,0.01,3
22112,69616900,0,0.12,0.01,0.96,22.92,22.92,0.01,0.01,3
22157,69626877,0,0.09,0.01,0.9,22.89,22.89,0.01,0.01,3
22202,69636975,0,0.16,0.01,0.95,22.91,22.91,0.01,0.01,3
22247,69647372,0,0.14,0.01,0.91,22.91,22.91,0.01,0.01,3
22291,69657683,0,0.14,0.01,0.9399999999999999,22.92,22.92,0.01,0.01,3
22336,69667737,0,0.12,0.01,0.9,22.9,22.9,0.01,0.01,3
22381,69678362,0,0.17,0.01,0.96,22.94,22.94,0.01,0.01,3
22426,69688786,0,0.16,0.01,0.93,22.94,22.94,0.01,0.01,3
22480,69704468,0,0.09,0.01,0.91,22.93,22.93,0.01,0.01,3
22527,69717259,0,0.16,0.01,0.97,22.95,22.95,0.01,0.01,3
22573,69727979,0,0.16,0.01,0.92,22.94,22.94,0.01,0.01,3
22618,69737990,0,0.11,0.01,0.95,22.93,22.93,0.01,0.01,3
22662,69748817,0,0.14,0.01,0.93,22.92,22.91,0.01,0.01,3
22707,69759190,0,0.13,0.01,0.98,22.93,22.93,0.01,0.01,3
22751,69769886,0,0.12,0.01,0.95,22.92,22.92,0.01,0.01,3
22796,69780221,0,0.09,0.01,0.9399999999999999,22.9,22.9,0.01,0.01,3
22842,69790331,0,0.15,0.01,0.95,22.9,22.9,0.01,0.01,3
22889,69800393,0,0.14,0.01,0.95,22.9,22.9,0.01,0.01,3
22936,69810455,0,0.14,0.01,0.96,22.91,22.91,0.01,0.01,3
22980,69820803,0,0.09,0.01,0.92,22.89,22.89,0.01,0.01,3
23026,69830842,0,0.17,0.01,0.97,22.92,22.92,0.01,0.01,3
23070,69841518,0,0.14,0.01,0.93,22.92,22.92,0.01,0.01,3
23115,69852916,0,0.15,0.01,0.97,22.94,22.93,0.01,0.01,3
23160,69863221,0,0.13,0.01,0.91,22.91,22.91,0.01,0.01,3
23204,69872989,0,0.17,0.01,0.99,22.94,22.94,0.01,0.01,3
23251,69883234,0,0.15,0.01,0.93,22.93,22.93,0.01,0.01,3
23295,69893602,0,0.13,0.01,0.97,22.93,22.93,0.01,0.01,3
23343,69904290,0,0.12,0.01,0.95,22.91,22.91,0.01,0.01,3
23389,69914979,0,0.12,0.01,0.99,22.92,22.92,0.01,0.01,3
23431,69925516,0,0.12,0.01,0.97,22.91,22.91,0.01,0.01,3
23475,69935278,0,0.08,0.01,0.9399999999999999,22.89,22.88,0.01,0.01,3
23520,69945773,0,0.13,0.01,0.96,22.89,22.89,0.01,0.01,3
23564,69955236,0,0.12,0.01,0.95,22.89,22.89,0.01,0.01,3
23609,69965944,0,0.13,0.01,0.97,22.9,22.9,0.01,0.01,3
23653,69976237,0,0.08,0.01,0.92,22.88,22.88,0.01,0.01,3
23700,69985923,0,0.15,0.01,0.96,22.91,22.91,0.01,0.01,3
23745,69995885,0,0.14,0.01,0.92,22.9,22.9,0.01,0.01,3
23792,70005989,0,0.15,0.01,0.96,22.93,22.92,0.01,0.01,3
23838,70016525,0,0.1,0.01,0.89,22.89,22.89,0.01,0,3
23883,70026887,0,0.15,0.01,0.97,22.93,22.93,0.01,0,3
23928,70036976,0,0.14,0.01,0.9,22.92,22.91,0.01,0,3
23972,70047119,0,0.12,0.01,0.97,22.93,22.93,0.01,0,3
24017,70057240,0,0.1,0.01,0.92,22.9,22.9,0.01,0,3
24065,70070252,0,0.1,0.01,0.96,22.91,22.91,0.01,0,3
24109,70080917,0,0.12,0.01,0.98,22.92,22.92,0.01,0,3
24156,70091175,0,0.08,0.01,0.9399999999999999,22.88,22.88,0.01,0,3
24194,70101812,0,0.15,0.01,0.97,22.9,22.9,0.01,0,3
24241,70112924,0,0.14,0.01,0.93,22.88,22.88,0.01,0,3
24289,70123133,0,0.14,0.01,0.98,22.91,22.91,0.01,0,3
24334,70133483,0,0.09,0.01,0.9,22.86,22.86,0.01,0,3
24378,70143395,0,0.13,0.01,0.99,22.91,22.9,0.01,0,3
24424,70153570,0,0.13,0.01,0.92,22.89,22.89,0.01,0,3
24468,70163829,0,0.12,0.01,0.99,22.92,22.92,0.01,0,3
24514,70174043,0,0.09,0.01,0.92,22.89,22.89,0.01,0,3
24559,70183996,0,0.11,0.01,1.01,22.92,22.92,0.01,0,3
24603,70194136,0,0.12,0.01,0.96,22.92,22.92,0.01,0,3
24648,70204355,0,0.09,0.01,0.98,22.91,22.91,0.01,0,3
24697,70214794,0,0.11,0.01,0.95,22.91,22.91,0.01,0,3
24745,70224779,0,0.11,0.01,0.98,22.91,22.91,0.01,0,3
24789,70234944,0,0.13,0.01,0.98,22.92,22.92,0.01,0,3
24834,70244940,0,0.1,0.01,0.95,22.89,22.88,0.01,0,3
24879,70255134,0,0.13,0.01,0.96,22.9,22.9,0.01,0,3
24923,70265936,0,0.14,0.01,0.92,22.88,22.88,0.01,0,3
24968,70276477,0,0.16,0.01,0.99,22.92,22.92,0.01,0,3
25012,70286555,0,0.11,0.01,0.89,22.86,22.86,0.01,0,3
25059,70296791,0,0.18,0.01,0.98,22.91,22.91,0.01,0,3
25098,70307382,0,0.16,0.01,0.91,22.88,22.88,0.01,0,3
25148,70317731,0,0.16,0.01,0.98,22.92,22.92,0.01,0,3
25195,70327657,0,0.12,0.01,0.9,22.88,22.88,0.01,0,3
25239,70338266,0,0.16,0.01,0.99,22.92,22.92,0.01,0,3
25284,70348592,0,0.14,0.01,0.9399999999999999,22.91,22.91,0.01,0,3
25328,70358738,0,0.12,0.01,0.99,22.92,22.92,0.01,0,3
25374,70369005,0,0.1,0.01,0.9399999999999999,22.9,22.9,0.01,0,3
25419,70379890,0,0.12,0.01,0.99,22.91,22.91,0.01,0,3
25463,70390455,0,0.13,0.01,0.96,22.91,22.91,0.01,0,3
25508,70400954,0,0.11,0.01,0.9399999999999999,22.88,22.88,0.01,0,3
25552,70411015,0,0.17,0.01,0.98,22.91,22.9,0.01,0,3
25602,70421020,0,0.16,0.01,0.9399999999999999,22.88,22.88,0.01,0.01,3
25647,70431146,0,0.16,0.01,1,22.91,22.91,0.01,0.01,3
25693,70442075,0,0.13,0.01,0.92,22.86,22.86,0.01,0.01,3
25742,70455047,0,0.11,0.01,0.99,22.9,22.9,0.01,0.01,3
25786,70465711,0,0.13,0.01,0.95,22.89,22.89,0.01,0.01,3
25831,70475556,0,0.09,0.01,0.98,22.9,22.9,0.01,0.01,3
25875,70486020,0,0.09,0.01,0.95,22.89,22.89,0.01,0.01,3
25920,70496824,0,0.1,0.01,0.99,22.9,22.9,0.01,0.01,3
25966,70509867,0,0.15,0.01,1,22.94,22.94,0.01,0.01,3
26009,70520446,0,0.1,0.01,0.92,22.89,22.89,0.01,0.01,3
26057,70530486,0,0.12,0.01,1,22.94,22.94,0.01,0.01,3
26103,70540280,0,0.12,0.01,0.9399999999999999,22.91,22.91,0.01,0.01,3
26149,70550607,0,0.1,0.01,1.01,22.94,22.94,0.01,0.01,3
26193,70560458,0,0.07000000000000001,0.01,0.92,22.89,22.89,0.01,0.01,3
26238,70570832,0,0.08,0.01,1.01,22.92,22.92,0.01,0.01,3
26284,70581221,0,0.1,0.01,0.96,22.92,22.92,0.01,0.01,3
26328,70591907,0,0.08,0.01,0.97,22.91,22.91,0.01,0.01,3
26373,70602602,0,0.11,0.01,0.98,22.91,22.91,0.01,0.01,3
26417,70612929,0,0.12,0.01,0.96,22.9,22.9,0.01,0.01,3
26462,70622990,0,0.15,0.01,1,22.93,22.93,0.01,0.01,3
26509,70633113,0,0.12,0.01,0.9399999999999999,22.9,22.89,0.01,0.01,3
26555,70643280,0,0.16,0.01,0.99,22.92,22.92,0.01,0.01,3
26602,70653422,0,0.16,0.01,0.95,22.91,22.91,0.01,0.01,3
26646,70663526,0,0.17,0.01,1,22.95,22.95,0.01,0.01,3
26691,70673496,0,0.13,0.01,0.93,22.91,22.91,0.01,0.01,3
26735,70683939,0,0.16,0.01,0.99,22.94,22.94,0.01,0.01,3
26781,70694239,0,0.16,0.01,0.95,22.93,22.92,0.01,0.01,3
26827,70704471,0,0.13,0.01,0.99,22.94,22.94,0.01,0.01,3
26874,70720122,0,0.13,0.01,0.98,22.93,22.93,0.01,0.01,3
26922,70730762,0,0.13,0.01,0.95,22.91,22.91,0.01,0.01,3
26967,70740857,0,0.13,0.01,1.01,22.94,22.94,0.01,0.01,3
27012,70750829,0,0.11,0.01,0.9399999999999999,22.89,22.89,0.01,0.01,3
27057,70760849,0,0.14,0.01,0.99,22.92,22.92,0.01,0.01,3
27101,70771236,0,0.16,0.01,0.9399999999999999,22.9,22.9,0.01,0.01,3
27146,70782016,0,0.14,0.01,0.99,22.93,22.92,0.01,0.01,3
27195,70794671,0,0.13,0.01,0.95,22.9,22.9,0.01,0.01,3
27240,70805472,0,0.14,0.01,0.95,22.91,22.9,0.01,0.01,3
27285,70815510,0,0.17,0.01,0.99,22.93,22.93,0.01,0.01,3
27330,70825632,0,0.13,0.01,0.9399999999999999,22.9,22.9,0.01,0.01,3
27379,70835916,0,0.15,0.01,0.98,22.92,22.92,0.01,0.01,3
27424,70846334,0,0.14,0.01,0.95,22.91,22.91,0.01,0.01,3
27469,70855883,0,0.16,0.01,1,22.94,22.93,0.01,0.01,3
27515,70865964,0,0.11,0.01,0.9399999999999999,22.9,22.9,0.01,0.01,3
27560,70876352,0,0.13,0.01,0.98,22.92,22.91,0.01,0.01,3
27604,70886905,0,0.14,0.01,0.95,22.9,22.9,0.01,0.01,3
27648,70896932,0,0.12,0.01,0.98,22.92,22.92,0.01,0.01,3
27693,70906875,0,0.11,0.01,0.9399999999999999,22.89,22.88,0.01,0.01,3
27740,70920251,0,0.11,0.01,0.9399999999999999,22.89,22.89,0.01,0.01,3
27782,70930510,0,0.16,0.01,0.97,22.91,22.91,0.01,0.01,3
27829,70940718,0,0.12,0.01,0.9399999999999999,22.89,22.89,0.01,0.01,3
27874,70950498,0,0.13,0.01,0.96,22.9,22.89,0.01,0.01,3
27919,70960635,0,0.14,0.01,0.95,22.9,22.9,0.01,0.01,3
27967,70973359,0,0.17,0.01,0.98,22.92,22.92,0.01,0.01,3
28012,70983225,0,0.14,0.01,0.9399999999999999,22.89,22.89,0.01,0.01,3
28054,70993736,0,0.15,0.01,0.96,22.91,22.91,0.01,0.01,3
28100,71003971,0,0.17,0.01,0.95,22.91,22.91,0.01,0.01,3
28144,71014329,0,0.14,0.01,0.97,22.92,22.92,0.01,0.01,3
28189,71024806,0,0.12,0.01,0.9399999999999999,22.9,22.9,0.01,0.01,3
28236,71034960,0,0.13,0.01,0.95,22.91,22.91,0.01,0.01,3
28283,71045272,0,0.15,0.01,0.97,22.91,22.91,0.01,0.01,3
28327,71055786,0,0.11,0.01,0.96,22.9,22.9,0.01,0.01,3
28372,71065750,0,0.1,0.01,0.97,22.9,22.9,0.01,0.01,3
28417,71075854,0,0.12,0.01,0.96,22.9,22.9,0.01,0.01,3
28462,71088288,0,0.17,0.01,0.97,22.92,22.91,0.01,0.01,3
28511,71098537,0,0.15,0.01,0.9399999999999999,22.9,22.89,0.01,0.01,3
28550,71109493,0,0.14,0.01,0.95,22.9,22.9,0.01,0.01,3
28595,71119558,0,0.15,0.01,0.96,22.91,22.91,0.01,0.01,3
28639,71130044,0,0.13,0.01,0.96,22.92,22.92,0.01,0.01,3
28687,71140464,0,0.12,0.01,0.95,22.91,22.91,0.01,0.01,3
28733,71150848,0,0.11,0.01,0.9399999999999999,22.91,22.9,0.01,0.01,3
28778,71160592,0,0.15,0.01,0.98,22.92,22.92,0.01,0.01,3
28823,71170592,0,0.1,0.01,0.95,22.91,22.91,0.01,0.01,3
28867,71180593,0,0.11,0.01,0.98,22.91,22.91,0.01,0.01,3
28913,71191147,0,0.1,0.01,0.9399999999999999,22.9,22.9,0.01,0.01,3
28959,71202010,0,0.16,0.01,0.99,22.92,22.92,0.01,0.01,3
29008,71214783,0,0.14,0.01,0.9399999999999999,22.9,22.9,0.01,0.01,3
29052,71225022,0,0.11,0.01,0.95,22.9,22.9,0.01,0.01,3
29097,71235536,0,0.14,0.01,0.96,22.91,22.91,0.01,0.01,3
29145,71245479,0,0.11,0.01,0.95,22.91,22.91,0.01,0.01,3
29190,71255856,0,0.11,0.01,0.9399999999999999,22.91,22.9,0.01,0.01,3
29235,71265602,0,0.11,0.01,0.93,22.9,22.9,0.01,0.01,3
29280,71275816,0,0.14,0.01,0.95,22.92,22.92,0.01,0.01,3
29328,71288860,0,0.12,0.01,0.92,22.91,22.9,0.01,0.01,3
29373,71298856,0,0.12,0.01,0.95,22.91,22.91,0.01,0.01,3
29417,71311534,0,0.17,0.01,0.95,22.92,22.92,0.01,0.01,3
29459,71322821,0,0.15,0.01,0.95,22.92,22.92,0.01,0.01,3
29504,71333124,0,0.14,0.01,0.9399999999999999,22.92,22.92,0.01,0.01,3
29552,71343819,0,0.13,0.01,0.92,22.91,22.91,0.01,0.01,3
29598,71354227,0,0.17,0.01,0.95,22.93,22.93,0.01,0.01,3
29642,71363891,0,0.13,0.01,0.92,22.92,22.91,0.01,0.01,3
29687,71373909,0,0.11,0.01,0.9399999999999999,22.92,22.92,0.01,0.01,3
29731,71383909,0,0.11,0.01,0.91,22.91,22.9,0.01,0.01,3
29776,71394178,0,0.14,0.01,0.96,22.92,22.92,0.01,0.01,3
29821,71404740,0,0.1,0.01,0.93,22.91,22.9,0.01,0.01,3
29867,71414831,0,0.1,0.01,0.96,22.91,22.91,0.01,0.01,3
29912,71424825,0,0.13,0.01,0.9399999999999999,22.9,22.9,0.01,0.01,3
29957,71434936,0,0.15,0.01,0.98,22.92,22.92,0.01,0.01,3
30006,71444987,0,0.12,0.01,0.95,22.9,22.9,0.01,0.01,3
30052,71455603,0,0.11,0.01,0.97,22.91,22.91,0.01,0.01,3
30096,71465813,0,0.16,0.01,0.95,22.91,22.91,0.01,0.01,3
30141,71476114,0,0.17,0.01,0.97,22.93,22.93,0.01,0.01,3
30186,71486539,0,0.15,0.01,0.93,22.91,22.91,0.01,0.01,3
30231,71496967,0,0.14,0.01,0.93,22.92,22.92,0.01,0.01,3
30276,71506883,0,0.16,0.01,0.96,22.93,22.93,0.01,0.01,3
30319,71517837,0,0.13,0.01,0.9399999999999999,22.92,22.92,0.01,0.01,3
30364,71531070,0,0.11,0.01,0.97,22.92,22.92,0.01,0.01,3
30410,71541244,0,0.15,0.01,0.95,22.92,22.92,0.01,0.01,3
30458,71551606,0,0.15,0.01,0.98,22.93,22.93,0.01,0,3
30503,71561852,0,0.13,0.01,0.95,22.92,22.91,0.01,0,3
30552,71574121,0,0.1,0.01,0.93,22.92,22.91,0.01,0,3
30598,71584773,0,0.14,0.01,0.96,22.93,22.93,0.01,0,3
30642,71594328,0,0.11,0.01,0.92,22.92,22.92,0.01,0,3
30687,71604467,0,0.1,0.01,0.93,22.92,22.92,0.01,0,3
30731,71614863,0,0.11,0.01,0.9,22.92,22.91,0.01,0,3
30777,71624928,0,0.15,0.01,0.95,22.94,22.94,0.01,0,3
30821,71634580,0,0.13,0.01,0.91,22.92,22.92,0.01,0,3
30866,71645222,0,0.11,0.01,0.9399999999999999,22.93,22.92,0.01,0,3
30913,71654603,0,0.14,0.01,0.91,22.92,22.91,0.01,0.01,3
30960,71664862,0,0.17,0.01,0.96,22.94,22.94,0.01,0.01,3
31005,71675175,0,0.15,0.01,0.92,22.92,22.92,0.01,0.01,3
31049,71684890,0,0.13,0.01,0.96,22.92,22.92,0.01,0.01,3
31098,71698255,0,0.16,0.01,0.95,22.92,22.92,0.01,0.01,3
31140,71709337,0,0.13,0.01,0.93,22.92,22.92,0.01,0.01,3
31184,71719901,0,0.13,0.01,0.92,22.91,22.91,0.01,0.01,3
31231,71730140,0,0.12,0.01,0.91,22.91,22.91,0.01,0.01,3
31275,71739814,0,0.15,0.01,0.93,22.93,22.92,0.01,0.01,3
31320,71749882,0,0.12,0.01,0.93,22.92,22.92,0.01,0.01,3
31368,71760273,0,0.1,0.01,0.93,22.92,22.92,0.01,0,3
31413,71770517,0,0.12,0.01,0.92,22.92,22.92,0.01,0,3
31458,71780941,0,0.16,0.01,0.97,22.93,22.93,0.01,0,3
31503,71790885,0,0.14,0.01,0.9399999999999999,22.93,22.92,0.01,0,3
31551,71803534,0,0.12,0.01,0.96,22.93,22.93,0.01,0,3
31595,71813969,0,0.16,0.01,0.96,22.93,22.93,0.01,0,3
31640,71824007,0,0.16,0.01,0.96,22.95,22.94,0.01,0,3
31685,71834033,0,0.15,0.01,0.9399999999999999,22.92,22.92,0.01,0,3
31731,71844345,0,0.12,0.01,0.92,22.93,22.92,0.01,0,3
31779,71854776,0,0.16,0.01,0.95,22.93,22.93,0.01,0,3
31824,71864983,0,0.13,0.01,0.92,22.93,22.92,0.01,0,3
31870,71874876,0,0.12,0.01,0.9399999999999999,22.91,22.91,0.01,0,3
31914,71885520,0,0.11,0.01,0.91,22.9,22.9,0.01,0,3
31959,71895957,0,0.14,0.01,0.97,22.92,22.92,0.01,0,3
32006,71913084,0,0.11,0.01,0.95,22.91,22.9,0.01,0,3
32051,71923231,0,0.09,0.01,0.92,22.9,22.9,0.01,0,3
32096,71933735,0,0.13,0.01,0.98,22.92,22.92,0.01,0,3
32141,71943847,0,0.1,0.01,0.9399999999999999,22.91,22.91,0.01,0,3
32186,71954467,0,0.1,0.01,0.96,22.91,22.91,0.01,0,3
32234,71964739,0,0.12,0.01,0.92,22.91,22.91,0.01,0.01,3
32280,71975127,0,0.15,0.01,0.98,22.94,22.93,0.01,0.01,3
32326,71985122,0,0.15,0.01,0.93,22.92,22.92,0.01,0.01,3
32370,71994956,0,0.13,0.01,0.96,22.93,22.93,0.01,0.01,3
32415,72005487,0,0.18,0.01,0.9399999999999999,22.92,22.91,0.01,0.01,3
32460,72015980,0,0.18,0.01,0.98,22.94,22.93,0.01,0.01,3
32504,72026481,0,0.17,0.01,0.9399999999999999,22.91,22.91,0.01,0.01,3
32549,72036591,0,0.13,0.01,0.96,22.91,22.91,0.01,0.01,3
32593,72046719,0,0.17,0.01,0.96,22.91,22.91,0.01,0.01,3
32640,72056575,0,0.16,0.01,0.96,22.92,22.92,0.01,0.01,3
32687,72066814,0,0.16,0.01,0.96,22.9,22.9,0.01,0.01,3
32733,72077263,0,0.11,0.01,0.93,22.9,22.9,0.01,0.01,3
32778,72087848,0,0.16,0.01,0.97,22.91,22.91,0.01,0.01,3
32822,72097932,0,0.14,0.01,0.92,22.91,22.91,0.01,0.01,3
32869,72108367,0,0.14,0.01,0.95,22.9,22.9,0.01,0.01,3
32907,72119801,0,0.15,0.01,0.91,22.9,22.9,0.01,0.01,3
32952,72130482,0,0.15,0.01,0.98,22.92,22.92,0.01,0.01,3
32996,72141141,0,0.16,0.01,0.9399999999999999,22.9,22.9,0.01,0.01,3
33042,72151241,0,0.11,0.01,0.96,22.91,22.9,0.01,0.01,3
33087,72161118,0,0.18,0.01,0.9399999999999999,22.89,22.89,0.01,0.01,3
33134,72172054,0,0.18,0.01,0.97,22.91,22.91,0.01,0.01,3
33181,72183000,0,0.18,0.01,0.93,22.89,22.88,0.01,0.01,3
33227,72193585,0,0.13,0.01,0.92,22.88,22.88,0.01,0.01,3
33273,72203754,0,0.18,0.01,0.95,22.89,22.89,0.01,0.01,3
33317,72214112,0,0.16,0.01,0.92,22.89,22.89,0.01,0.01,3
33362,72224015,0,0.16,0.01,0.9399999999999999,22.88,22.88,0.01,0.01,3
33407,72234807,0,0.14,0.01,0.9,22.88,22.87,0.01,0.01,3
33451,72245000,0,0.16,0.01,0.97,22.9,22.9,0.01,0.01,3
33497,72255376,0,0.14,0.01,0.93,22.89,22.88,0.01,0.01,3
33541,72264857,0,0.11,0.01,0.97,22.89,22.89,0.01,0.01,3
33590,72274949,0,0.13,0.01,0.93,22.88,22.88,0.01,0.01,3
33636,72285354,0,0.13,0.01,0.98,22.9,22.9,0.01,0.01,3
33682,72295990,0,0.12,0.01,0.95,22.88,22.88,0.01,0.01,3
33728,72312072,0,0.11,0.01,0.91,22.87,22.87,0.01,0.01,3
33773,72322518,0,0.13,0.01,0.98,22.89,22.89,0.01,0.01,3
33817,72333397,0,0.13,0.01,0.93,22.87,22.87,0.01,0.01,3
33861,72343802,0,0.09,0.01,0.96,22.87,22.87,0.01,0.01,3
33906,72353941,0,0.14,0.01,0.93,22.86,22.86,0.01,0.01,3
33951,72363772,0,0.14,0.01,0.97,22.88,22.88,0.01,0.01,3
33998,72374332,0,0.14,0.01,0.95,22.87,22.87,0.01,0.01,3
34045,72384791,0,0.09,0.01,0.9399999999999999,22.87,22.87,0.01,0.01,3
34089,72395129,0,0.17,0.01,0.96,22.87,22.87,0.01,0.01,3
34135,72405380,0,0.17,0.01,0.92,22.88,22.88,0.01,0.01,3
34180,72415043,0,0.16,0.01,0.9399999999999999,22.87,22.86,0.01,0.01,3
34224,72425451,0,0.1,0.01,0.91,22.87,22.86,0.01,0.01,3
34269,72436393,0,0.15,0.01,0.96,22.88,22.87,0.01,0.01,3
34313,72446912,0,0.14,0.01,0.93,22.88,22.88,0.01,0.01,3
34359,72456937,0,0.12,0.01,0.9399999999999999,22.86,22.86,0.01,0.01,3
34403,72467434,0,0.1,0.01,0.92,22.87,22.87,0.01,0.01,3
34454,72478402,0,0.11,0.01,0.96,22.88,22.87,0.01,0.01,3
34500,72489069,0,0.11,0.01,0.96,22.88,22.87,0.01,0.01,3
34544,72498939,0,0.07000000000000001,0.01,0.95,22.86,22.86,0.01,0.01,3
34591,72515470,0,0.14,0.01,0.97,22.87,22.87,0.01,0.01,3
34637,72526350,0,0.14,0.01,0.9399999999999999,22.87,22.87,0.01,0.01,3
34681,72536783,0,0.11,0.01,0.95,22.86,22.86,0.01,0.01,3
34726,72546862,0,0.15,0.01,0.95,22.87,22.87,0.01,0.01,3
34770,72556781,0,0.14,0.01,0.97,22.88,22.88,0.01,0.01,3
34815,72567327,0,0.14,0.01,0.97,22.88,22.88,0.01,0.01,3
34860,72577296,0,0.08,0.01,0.93,22.86,22.86,0.01,0.01,3
34907,72587339,0,0.15,0.01,0.97,22.88,22.88,0.01,0.01,3
34955,72597898,0,0.12,0.01,0.9399999999999999,22.88,22.88,0.01,0.01,3
34999,72607983,0,0.12,0.01,0.97,22.88,22.88,0.01,0.01,3
35045,72618044,0,0.05,0.01,0.91,22.86,22.86,0.01,0.01,3
35089,72627946,0,0.12,0.01,0.97,22.88,22.88,0.01,0.01,3
35138,72640539,0,0.14,0.01,0.93,22.88,22.88,0.01,0.01,3
35183,72651451,0,0.13,0.01,0.95,22.87,22.87,0.01,0.01,3
35227,72661456,0,0.12,0.01,0.93,22.87,22.87,0.01,0.01,3
35272,72671245,0,0.12,0.01,0.96,22.88,22.88,0.01,0.01,3
35316,72681794,0,0.14,0.01,0.96,22.89,22.88,0.01,0.01,3
35366,72692496,0,0.1,0.01,0.9399999999999999,22.86,22.86,0.01,0.01,3
35413,72702850,0,0.14,0.01,0.95,22.88,22.88,0.01,0.01,3
35459,72712950,0,0.13,0.01,0.95,22.87,22.87,0.01,0.01,3
35499,72723810,0,0.14,0.01,0.97,22.88,22.88,0.01,0.01,3
35544,72733999,0,0.08,0.01,0.92,22.86,22.86,0.01,0.01,3
35591,72746916,0,0.17,0.01,0.98,22.88,22.88,0.01,0.01,3
35636,72757225,0,0.17,0.01,0.95,22.88,22.88,0.01,0.01,3
35681,72767708,0,0.15,0.01,0.96,22.88,22.87,0.01,0.01,3
35726,72777957,0,0.13,0.01,0.93,22.88,22.87,0.01,0.01,3
35774,72788435,0,0.14,0.01,0.97,22.89,22.89,0.01,0.01,3
35819,72798861,0,0.13,0.01,0.95,22.89,22.89,0.01,0.01,3
35864,72808921,0,0.09,0.01,0.9399999999999999,22.87,22.87,0.01,0.01,3
35909,72819537,0,0.12,0.01,0.95,22.88,22.88,0.01,0.01,3
35954,72830486,0,0.1,0.01,0.9399999999999999,22.88,22.88,0.01,0.01,3
36001,72840496,0,0.11,0.01,0.98,22.89,22.89,0.01,0.01,3
36045,72850996,0,0.05,0.01,0.92,22.86,22.86,0.01,0.01,3
36090,72861517,0,0.13,0.01,0.99,22.89,22.89,0.01,0.01,3
36134,72871506,0,0.13,0.01,0.9399999999999999,22.88,22.88,0.01,0.01,3
36178,72882125,0,0.13,0.01,0.98,22.89,22.89,0.01,0.01,3
36226,72892990,0,0.11,0.01,0.93,22.87,22.87,0.01,0.01,3
36271,72903485,0,0.14,0.01,0.98,22.89,22.89,0.01,0,3
36317,72913578,0,0.15,0.01,0.95,22.89,22.89,0.01,0,3
36365,72923737,0,0.12,0.01,0.95,22.87,22.87,0.01,0,3
36403,72934764,0,0.13,0.01,0.95,22.88,22.88,0.01,0,3
36448,72944550,0,0.13,0.01,0.9399999999999999,22.88,22.88,0.01,0,3
36496,72957616,0,0.14,0.01,0.98,22.89,22.89,0.01,0,3
36541,72967562,0,0.08,0.01,0.91,22.86,22.86,0.01,0,3
36585,72978457,0,0.14,0.01,0.99,22.89,22.89,0.01,0,3
36631,72988594,0,0.14,0.01,0.93,22.88,22.88,0.01,0,3
36678,72998858,0,0.13,0.01,0.98,22.89,22.88,0.01,0,3
36724,73008744,0,0.09,0.01,0.93,22.86,22.86,0.01,0,3
36769,73019043,0,0.13,0.01,1,22.89,22.89,0.01,0,3
36813,73029017,0,0.13,0.01,0.96,22.88,22.88,0.01,0,3
36858,73039845,0,0.11,0.01,0.97,22.87,22.87,0.01,0,3
36904,73049818,0,0.11,0.01,0.95,22.87,22.87,0.01,0,3
36949,73059996,0,0.12,0.01,0.97,22.88,22.88,0.01,0,3
36993,73070127,0,0.13,0.01,0.97,22.89,22.89,0.01,0,3
37038,73080552,0,0.1,0.01,0.93,22.86,22.86,0.01,0,3
37083,73091045,0,0.13,0.01,0.96,22.89,22.89,0.01,0,3
37130,73101524,0,0.14,0.01,0.93,22.88,22.87,0.01,0,3
37179,73111818,0,0.14,0.01,0.97,22.9,22.9,0.01,0,3
37217,73123147,0,0.09,0.01,0.92,22.86,22.86,0.01,0,3
37261,73133437,0,0.14,0.01,0.99,22.9,22.89,0.01,0,3
37307,73143176,0,0.13,0.01,0.9399999999999999,22.88,22.87,0.01,0,3
37352,73153256,0,0.12,0.01,0.99,22.89,22.89,0.01,0,3
37396,73163902,0,0.07000000000000001,0.01,0.93,22.86,22.86,0.01,0,3
37441,73173966,0,0.12,0.01,1,22.89,22.89,0.01,0,3
37488,73183882,0,0.12,0.01,0.96,22.88,22.88,0.01,0,3
37533,73193951,0,0.1,0.01,0.98,22.88,22.88,0.01,0,3
37580,73204016,0,0.09,0.01,0.9399999999999999,22.87,22.86,0.01,0.01,3
37626,73213903,0,0.11,0.01,0.98,22.89,22.89,0.01,0.01,3
37672,73223978,0,0.12,0.01,0.95,22.88,22.88,0.01,0.01,3
37716,73233910,0,0.1,0.01,0.95,22.88,22.88,0.01,0.01,3
37761,73243795,0,0.1,0.01,0.93,22.87,22.87,0.01,0.01,3
37806,73254019,0,0.12,0.01,0.96,22.89,22.89,0.01,0.01,3
37851,73264735,0,0.13,0.01,0.96,22.89,22.89,0.01,0.01,3
37895,73274793,0,0.09,0.01,0.92,22.86,22.86,0.01,0.01,3
37941,73284982,0,0.11,0.01,0.96,22.89,22.88,0.01,0.01,3
37986,73295350,0,0.13,0.01,0.93,22.87,22.87,0.01,0.01,3
38033,73304857,0,0.13,0.01,0.98,22.9,22.9,0.01,0.01,3
38081,73317717,0,0.09,0.01,0.93,22.86,22.86,0.01,0.01,3
38122,73328390,0,0.11,0.01,0.99,22.89,22.89,0.01,0.01,3
38167,73338902,0,0.12,0.01,0.96,22.89,22.89,0.01,0.01,3
38214,73349364,0,0.09,0.01,0.96,22.88,22.88,0.01,0.01,3
38261,73362965,0,0.12,0.01,0.98,22.89,22.89,0.01,0.01,3
38306,73373376,0,0.15,0.01,0.92,22.88,22.88,0.01,0.01,3
38350,73383594,0,0.14,0.01,0.98,22.9,22.9,0.01,0.01,3
38395,73393976,0,0.11,0.01,0.9,22.86,22.86,0.01,0.01,3
38440,73403967,0,0.15,0.01,0.98,22.9,22.9,0.01,0.01,3
38488,73414438,0,0.17,0.01,0.93,22.88,22.88,0.01,0.01,3
38534,73424954,0,0.13,0.01,0.97,22.89,22.89,0.01,0.01,3
38578,73435443,0,0.11,0.01,0.93,22.87,22.87,0.01,0.01,3
38623,73446295,0,0.11,0.01,0.97,22.89,22.89,0.01,0.01,3
38668,73456840,0,0.11,0.01,0.98,22.9,22.9,0.01,0.01,3
38713,73466966,0,0.07000000000000001,0.01,0.93,22.87,22.87,0.01,0.01,3
38762,73479777,0,0.12,0.01,0.97,22.9,22.89,0.01,0.01,3
38806,73490305,0,0.14,0.01,0.91,22.88,22.88,0.01,0.01,3
38853,73503524,0,0.08,0.01,0.95,22.89,22.89,0.01,0.01,3
38899,73514479,0,0.07000000000000001,0.01,0.96,22.88,22.88,0.01,0.01,3
38945,73524999,0,0.08,0.01,0.96,22.89,22.89,0.01,0.01,3
38991,73535040,0,0.1,0.01,0.99,22.9,22.9,0.01,0.01,3
39035,73544878,0,0.06,0.01,0.93,22.88,22.88,0.01,0.01,3
39081,73555873,0,0.1,0.01,0.98,22.88,22.88,0.01,0.01,3
39126,73566350,0,0.14,0.01,0.93,22.88,22.88,0.01,0.01,3
39170,73576912,0,0.14,0.01,1,22.9,22.9,0.01,0.01,3
39215,73587356,0,0.11,0.01,0.91,22.86,22.86,0.01,0.01,3
39259,73597869,0,0.14,0.01,0.99,22.89,22.89,0.01,0.01,3
39304,73607894,0,0.17,0.01,0.9399999999999999,22.88,22.88,0.01,0.01,3
39353,73618340,0,0.13,0.01,0.98,22.89,22.89,0.01,0.01,3
39398,73628764,0,0.1,0.01,0.93,22.87,22.86,0.01,0.01,3
39443,73638798,0,0.1,0.01,0.97,22.88,22.88,0.01,0.01,3
39487,73648799,0,0.13,0.01,0.96,22.89,22.89,0.01,0.01,3
39534,73658704,0,0.09,0.01,0.95,22.88,22.88,0.01,0.01,3
39582,73670985,0,0.1,0.01,0.97,22.88,22.88,0.01,0.01,3
39629,73681916,0,0.1,0.01,0.9399999999999999,22.88,22.88,0.01,0.01,3
39674,73692051,0,0.11,0.01,0.99,22.9,22.9,0.01,0.01,3
39718,73702481,0,0.07000000000000001,0.01,0.91,22.86,22.86,0.01,0.01,3
39762,73713028,0,0.11,0.01,0.98,22.88,22.88,0.01,0.01,3
39807,73723935,0,0.13,0.01,0.93,22.88,22.88,0.01,0.01,3
39852,73734145,0,0.11,0.01,0.97,22.89,22.89,0.01,0.01,3
39897,73743972,0,0.1,0.01,0.91,22.86,22.86,0.01,0.01,3
39941,73754235,0,0.12,0.01,0.96,22.88,22.88,0.01,0.01,3
39988,73764003,0,0.16,0.01,0.93,22.88,22.88,0.01,0.01,3
40032,73774425,0,0.12,0.01,0.9399999999999999,22.88,22.88,0.01,0.01,3
40077,73784229,0,0.12,0.01,0.93,22.87,22.87,0.01,0.01,3
40122,73794591,0,0.12,0.01,0.96,22.88,22.88,0.01,0.01,3
40166,73804752,0,0.15,0.01,0.96,22.89,22.89,0.01,0.01,3
40211,73814776,0,0.11,0.01,0.9399999999999999,22.87,22.87,0.01,0.01,3
40258,73824722,0,0.12,0.01,0.95,22.88,22.88,0.01,0.01,3
40305,73835259,0,0.12,0.01,0.96,22.88,22.88,0.01,0.01,3
40351,73845554,0,0.14,0.01,0.99,22.9,22.9,0.01,0.01,3
40396,73855763,0,0.09,0.01,0.93,22.87,22.87,0.01,0.01,3
40442,73865759,0,0.14,0.01,0.96,22.89,22.89,0.01,0.01,3
40486,73875820,0,0.13,0.01,0.93,22.88,22.88,0.01,0.01,3
40530,73885852,0,0.14,0.01,0.97,22.9,22.9,0.01,0.01,3
40574,73896455,0,0.1,0.01,0.91,22.87,22.87,0.01,0.01,3
40619,73906919,0,0.13,0.01,0.97,22.89,22.89,0.01,0.01,3
40664,73920934,0,0.14,0.01,0.98,22.9,22.9,0.01,0.01,3
40711,73931581,0,0.1,0.01,0.9399999999999999,22.87,22.87,0.01,0.01,3
40757,73941910,0,0.13,0.01,0.97,22.88,22.88,0.01,0.01,3
40801,73951766,0,0.13,0.01,0.96,22.88,22.88,0.01,0.01,3
40846,73962580,0,0.16,0.01,1,22.9,22.9,0.01,0.01,3
40890,73973525,0,0.12,0.01,0.92,22.87,22.87,0.01,0.01,3
40937,73984018,0,0.14,0.01,0.97,22.88,22.88,0.01,0.01,3
40981,73994590,0,0.15,0.01,0.93,22.88,22.88,0.01,0.01,3
41026,74004901,0,0.12,0.01,0.96,22.88,22.88,0.01,0.01,3
41071,74014911,0,0.09,0.01,0.92,22.87,22.87,0.01,0.01,3
41115,74024831,0,0.1,0.01,0.96,22.87,22.87,0.01,0.01,3
41163,74035269,0,0.13,0.01,0.95,22.89,22.88,0.01,0.01,3
41209,74045795,0,0.08,0.01,0.95,22.87,22.87,0.01,0.01,3
41254,74055901,0,0.09,0.01,0.95,22.87,22.87,0.01,0.01,3
41299,74065699,0,0.09,0.01,0.97,22.87,22.87,0.01,0.01,3
41343,74075886,0,0.15,0.01,0.99,22.89,22.89,0.01,0.01,3
41388,74085890,0,0.1,0.01,0.95,22.86,22.86,0.01,0.01,3
41435,74096233,0,0.13,0.01,0.98,22.87,22.87,0.01,0.01,3
41480,74111798,0,0.14,0.01,0.96,22.88,22.88,0.01,0.01,3
41524,74122603,0,0.1,0.01,0.96,22.87,22.87,0.01,0.01,3
41573,74133261,0,0.09,0.01,0.9399999999999999,22.86,22.86,0.01,0.01,3
41619,74143948,0,0.11,0.01,0.95,22.86,22.86,0.01,0.01,3
41663,74154421,0,0.14,0.01,0.98,22.88,22.88,0.01,0.01,3
41709,74164370,0,0.11,0.01,0.9399999999999999,22.85,22.85,0.01,0.01,3
41755,74174030,0,0.13,0.01,0.99,22.87,22.87,0.01,0.01,3
41801,74184871,0,0.13,0.01,0.96,22.86,22.86,0.01,0.01,3
41847,74195370,0,0.15,0.01,1.01,22.89,22.89,0.01,0.01,3
41891,74205909,0,0.12,0.01,0.9399999999999999,22.86,22.86,0.01,0.01,3
41936,74216357,0,0.13,0.01,0.98,22.88,22.88,0.01,0.01,3
41980,74226716,0,0.14,0.01,0.96,22.88,22.88,0.01,0.01,3
42028,74236885,0,0.1,0.01,0.97,22.88,22.88,0.01,0,3
42073,74246823,0,0.09,0.01,0.93,22.86,22.86,0.01,0,3
42119,74257427,0,0.1,0.01,0.95,22.87,22.87,0.01,0,3
42164,74267716,0,0.13,0.01,0.96,22.88,22.88,0.01,0,3
42208,74277934,0,0.08,0.01,0.93,22.86,22.86,0.01,0,3
42253,74287876,0,0.09,0.01,0.95,22.86,22.86,0.01,0,3
42298,74300376,0,0.14,0.01,0.95,22.86,22.85,0.01,0,3
42342,74313914,0,0.14,0.01,0.98,22.87,22.87,0.01,0,3
42387,74324362,0,0.12,0.01,0.93,22.85,22.85,0.01,0,3
42432,74334805,0,0.13,0.01,0.97,22.85,22.85,0.01,0,3
42480,74344856,0,0.15,0.01,0.97,22.87,22.87,0.01,0,3
42525,74355140,0,0.11,0.01,0.96,22.85,22.85,0.01,0,3
42570,74364902,0,0.1,0.01,0.97,22.86,22.86,0.01,0,3
42616,74374783,0,0.1,0.01,0.96,22.85,22.85,0.01,0,3
42663,74387408,0,0.14,0.01,1.02,22.89,22.89,0.01,0,3
42708,74398121,0,0.11,0.01,0.9399999999999999,22.85,22.85,0.01,0,3
42752,74408148,0,0.14,0.01,1,22.87,22.87,0.01,0,3
42797,74418539,0,0.15,0.01,0.95,22.86,22.86,0.01,0,3
42843,74428910,0,0.14,0.01,1.01,22.88,22.88,0.01,0,3
42891,74439471,0,0.12,0.01,0.9399999999999999,22.85,22.85,0.01,0,3
42937,74450070,0,0.12,0.01,0.98,22.85,22.85,0.01,0.01,3
42981,74459876,0,0.15,0.01,0.97,22.87,22.86,0.01,0.01,3
43026,74470552,0,0.1,0.01,0.96,22.85,22.85,0.01,0.01,3
43070,74480735,0,0.1,0.01,0.96,22.85,22.85,0.01,0.01,3
43115,74490539,0,0.12,0.01,0.95,22.84,22.84,0.01,0.01,3
43159,74500750,0,0.15,0.01,0.97,22.87,22.87,0.01,0.01,3
43206,74513778,0,0.12,0.01,0.93,22.84,22.84,0.01,0.01,3
43250,74524254,0,0.14,0.01,0.99,22.87,22.86,0.01,0.01,3
43294,74534557,0,0.15,0.01,0.95,22.86,22.86,0.01,0.01,3
43344,74544918,0,0.14,0.01,1.01,22.88,22.88,0.01,0.01,3
43390,74554881,0,0.11,0.01,0.93,22.85,22.85,0.01,0.01,3
43434,74565475,0,0.12,0.01,0.97,22.86,22.86,0.01,0.01,3
43479,74575816,0,0.15,0.01,0.95,22.86,22.86,0.01,0.01,3
43523,74585760,0,0.11,0.01,0.98,22.87,22.87,0.01,0.01,3
43569,74595955,0,0.1,0.01,0.9399999999999999,22.85,22.85,0.01,0.01,3
43613,74605828,0,0.11,0.01,0.96,22.85,22.85,0.01,0.01,3
43658,74616136,0,0.14,0.01,0.97,22.87,22.86,0.01,0.01,3
43703,74626131,0,0.11,0.01,0.96,22.86,22.85,0.01,0.01,3
43748,74635813,0,0.1,0.01,0.96,22.85,22.85,0.01,0.01,3
43797,74645833,0,0.12,0.01,0.95,22.85,22.85,0.01,0.01,3
43842,74656453,0,0.16,0.01,0.99,22.88,22.88,0.01,0.01,3
43889,74666530,0,0.12,0.01,0.9399999999999999,22.85,22.85,0.01,0.01,3
43933,74676881,0,0.12,0.01,0.99,22.87,22.87,0.01,0.01,3
43978,74686937,0,0.14,0.01,0.95,22.85,22.85,0.01,0.01,3
44027,74699580,0,0.12,0.01,1.01,22.89,22.89,0.01,0.01,3
44072,74709962,0,0.1,0.01,0.95,22.86,22.85,0.01,0.01,3
44116,74723446,0,0.13,0.01,0.95,22.85,22.85,0.01,0.01,3
44161,74733865,0,0.16,0.01,1,22.89,22.88,0.01,0.01,3
44206,74743993,0,0.13,0.01,0.93,22.85,22.85,0.01,0.01,3
44254,74754120,0,0.11,0.01,0.99,22.87,22.87,0.01,0.01,3
44299,74764446,0,0.13,0.01,0.96,22.85,22.85,0.01,0.01,3
44344,74774923,0,0.14,0.01,1.01,22.89,22.88,0.01,0.01,3
44389,74784917,0,0.11,0.01,0.9399999999999999,22.85,22.85,0.01,0.01,3
44434,74795365,0,0.1,0.01,0.98,22.87,22.87,0.01,0.01,3
44479,74805093,0,0.12,0.01,0.97,22.86,22.86,0.01,0.01,3
44523,74815363,0,0.1,0.01,0.98,22.88,22.88,0.01,0.01,3
44568,74825774,0,0.1,0.01,0.9399999999999999,22.86,22.86,0.01,0.01,3
44612,74835821,0,0.11,0.01,0.96,22.87,22.87,0.01,0.01,3
44659,74845842,0,0.14,0.01,0.97,22.88,22.88,0.01,0.01,3
44707,74855944,0,0.11,0.01,0.97,22.88,22.88,0.01,0,3
44753,74866256,0,0.11,0.01,0.95,22.87,22.87,0.01,0,3
44798,74876726,0,0.14,0.01,0.9399999999999999,22.86,22.86,0.01,0,3
44842,74886984,0,0.16,0.01,0.97,22.88,22.88,0.01,0,3
44892,74899517,0,0.13,0.01,0.9399999999999999,22.86,22.85,0.01,0,3
44934,74914342,0,0.12,0.01,0.96,22.87,22.86,0.01,0,3
44979,74924769,0,0.16,0.01,0.98,22.88,22.88,0.01,0,3
45024,74934808,0,0.12,0.01,0.95,22.87,22.87,0.01,0,3
45068,74944596,0,0.11,0.01,0.97,22.86,22.86,0.01,0,3
45117,74954763,0,0.13,0.01,0.9399999999999999,22.85,22.85,0.01,0,3
45163,74964874,0,0.16,0.01,0.99,22.88,22.87,0.01,0,3
45208,74975254,0,0.13,0.01,0.9399999999999999,22.86,22.86,0.01,0,3
45253,74985527,0,0.12,0.01,0.98,22.86,22.86,0.01,0,3
45298,74995764,0,0.14,0.01,0.9399999999999999,22.85,22.85,0.01,0,3
45343,75005885,0,0.15,0.01,0.99,22.88,22.88,0.01,0,3
45388,75016574,0,0.13,0.01,0.9399999999999999,22.86,22.85,0.01,0,3
45432,75026650,0,0.1,0.01,0.97,22.87,22.86,0.01,0,3
45478,75036563,0,0.12,0.01,0.96,22.86,22.86,0.01,0,3
45523,75046984,0,0.11,0.01,0.98,22.88,22.88,0.01,0,3
45571,75057270,0,0.09,0.01,0.96,22.86,22.85,0.01,0,3
45616,75066927,0,0.08,0.01,0.97,22.86,22.86,0.01,0,3
45661,75076946,0,0.11,0.01,0.99,22.87,22.86,0.01,0,3
45706,75086929,0,0.09,0.01,0.97,22.87,22.87,0.01,0,3
45750,75097477,0,0.1,0.01,0.97,22.86,22.86,0.01,0,3
45794,75108331,0,0.12,0.01,0.95,22.85,22.85,0.01,0,3
45835,75119751,0,0.15,0.01,0.98,22.87,22.87,0.01,0,3
45881,75130222,0,0.12,0.01,0.9399999999999999,22.86,22.86,0.01,0,3
45925,75140581,0,0.08,0.01,0.96,22.86,22.86,0.01,0,3
45971,75150894,0,0.13,0.01,0.95,22.85,22.85,0.01,0,3
46022,75160866,0,0.13,0.01,0.97,22.87,22.87,0.01,0,3
46068,75171243,0,0.12,0.01,0.95,22.86,22.85,0.01,0,3
46113,75181755,0,0.1,0.01,0.98,22.86,22.86,0.01,0,3
46157,75191795,0,0.13,0.01,0.98,22.86,22.86,0.01,0,3
46202,75201857,0,0.12,0.01,0.99,22.87,22.87,0.01,0,3
46247,75212082,0,0.11,0.01,0.97,22.85,22.85,0.01,0,3
46291,75222917,0,0.12,0.01,0.97,22.86,22.85,0.01,0,3
46337,75233046,0,0.13,0.01,0.99,22.87,22.86,0.01,0,3
46381,75243236,0,0.11,0.01,0.99,22.87,22.87,0.01,0,3
46427,75253275,0,0.09,0.01,0.97,22.85,22.85,0.01,0,3
46474,75262928,0,0.11,0.01,0.97,22.86,22.86,0.01,0,3
46520,75273478,0,0.11,0.01,0.98,22.87,22.87,0.01,0,3
46564,75283918,0,0.1,0.01,0.97,22.87,22.87,0.01,0,3
46609,75294246,0,0.06,0.01,0.9399999999999999,22.85,22.85,0.01,0,3
46654,75303896,0,0.11,0.01,0.97,22.86,22.86,0.01,0,3
46700,75318116,0,0.12,0.01,0.97,22.87,22.87,0.01,0,3
46742,75329144,0,0.11,0.01,0.96,22.86,22.85,0.01,0,3
46786,75339273,0,0.13,0.01,0.96,22.86,22.86,0.01,0,3
46831,75349318,0,0.12,0.01,0.97,22.86,22.86,0.01,0,3
46877,75359568,0,0.12,0.01,0.98,22.87,22.87,0.01,0,3
46924,75369851,0,0.09,0.01,0.95,22.85,22.85,0.01,0,3
46971,75379800,0,0.13,0.01,0.96,22.86,22.85,0.01,0,3
47015,75389822,0,0.11,0.01,0.95,22.85,22.85,0.01,0,3
47060,75399926,0,0.11,0.01,0.96,22.86,22.86,0.01,0,3
47107,75412821,0,0.07000000000000001,0.01,0.95,22.84,22.84,0.01,0,3
47152,75422959,0,0.11,0.01,0.98,22.86,22.85,0.01,0,3
47197,75433289,0,0.12,0.01,0.96,22.85,22.85,0.01,0,3
47241,75443756,0,0.11,0.01,0.97,22.85,22.85,0.01,0,3
47287,75453649,0,0.11,0.01,0.95,22.85,22.84,0.01,0,3
47332,75463913,0,0.13,0.01,0.99,22.86,22.86,0.01,0,3
47380,75474290,0,0.13,0.01,0.96,22.86,22.86,0.01,0,3
47426,75483993,0,0.12,0.01,0.97,22.85,22.85,0.01,0,3
47471,75494174,0,0.14,0.01,0.9399999999999999,22.85,22.84,0.01,0,3
47516,75503952,0,0.15,0.01,0.97,22.86,22.86,0.01,0,3
47560,75514264,0,0.14,0.01,0.96,22.86,22.86,0.01,0,3
47604,75527996,0,0.09,0.01,0.93,22.83,22.83,0.01,0,3
47651,75540791,0,0.14,0.01,0.99,22.86,22.86,0.01,0,3
47697,75551336,0,0.14,0.01,0.96,22.85,22.85,0.01,0,3
47742,75561854,0,0.12,0.01,0.96,22.85,22.85,0.01,0,3
47792,75572001,0,0.14,0.01,0.95,22.84,22.84,0.01,0,3
47838,75581889,0,0.14,0.01,0.96,22.85,22.85,0.01,0,3
47883,75591989,0,0.13,0.01,0.96,22.85,22.85,0.01,0,3
47928,75602064,0,0.09,0.01,0.9399999999999999,22.85,22.84,0.01,0,3
47976,75614952,0,0.1,0.01,0.97,22.86,22.86,0.01,0,3
48020,75625473,0,0.1,0.01,0.95,22.85,22.84,0.01,0,3
48065,75635576,0,0.1,0.01,0.96,22.86,22.86,0.01,0,3
48110,75645406,0,0.09,0.01,0.9399999999999999,22.83,22.83,0.01,0,3
48156,75655839,0,0.11,0.01,0.97,22.87,22.86,0.01,0,3
48202,75665784,0,0.12,0.01,0.96,22.85,22.84,0.01,0,3
48249,75676119,0,0.11,0.01,0.96,22.86,22.86,0.01,0,3
48295,75685828,0,0.1,0.01,0.95,22.83,22.83,0.01,0,3
48339,75695810,0,0.13,0.01,0.98,22.86,22.86,0.01,0,3
48383,75706278,0,0.13,0.01,0.96,22.84,22.84,0.01,0,3
48428,75720040,0,0.08,0.01,0.96,22.84,22.84,0.01,0,3
48473,75730650,0,0.12,0.01,0.97,22.85,22.85,0.01,0,3
48520,75741136,0,0.12,0.01,0.97,22.85,22.85,0.01,0,3
48564,75751023,0,0.11,0.01,0.98,22.86,22.86,0.01,0,3
48609,75761348,0,0.08,0.01,0.96,22.83,22.83,0.01,0,3
48654,75771854,0,0.12,0.01,0.99,22.86,22.86,0.01,0,3
48701,75782848,0,0.12,0.01,0.96,22.84,22.84,0.01,0,3
48747,75793213,0,0.11,0.01,0.97,22.86,22.86,0.01,0,3
48791,75803236,0,0.11,0.01,0.9399999999999999,22.84,22.83,0.01,0,3
48838,75813223,0,0.13,0.01,0.97,22.86,22.86,0.01,0,3
48882,75823374,0,0.13,0.01,0.96,22.85,22.85,0.01,0,3
48927,75833609,0,0.11,0.01,0.96,22.85,22.85,0.01,0,3
48971,75843700,0,0.12,0.01,0.96,22.84,22.84,0.01,0,3
49015,75853743,0,0.13,0.01,0.96,22.85,22.85,0.01,0,3
49061,75863583,0,0.13,0.01,0.98,22.85,22.85,0.01,0,3
49105,75874125,0,0.11,0.01,0.95,22.83,22.83,0.01,0,3
