LineNo,TimeUS,DesRoll,Roll,DesPitch,Pitch,DesYaw,Yaw,ErrRP,ErrYaw,AEKF
528,6.4332e+07,0,0.05,0.01,0.95,22.99,22.99,0,0,3
1448,6.4641e+07,0,0.05,0.01,0.96,23,22.99,0,0,3
1480,6.4661e+07,0,0.05,0.01,0.95,23,22.99,0,0,3
1521,6.4671e+07,0,0.05,0.01,0.95,23,22.99,0,0,3
1561,6.4681e+07,0,0.05,0.01,0.95,23,22.99,0,0,3
1602,6.4691e+07,0,0.04,0.01,0.95,23,22.99,0,0,3
1645,6.4704e+07,0,0.04,0.01,0.95,23,22.99,0,0,3
1689,6.4719e+07,0,0.03,0.01,0.95,22.99,22.99,0,0,3
1731,6.473e+07,0,0.03,0.01,0.95,22.99,22.99,0,0,3
1771,6.474e+07,0,0.03,0.01,0.95,22.99,22.99,0,0,3
1812,6.4751e+07,0,0.03,0.01,0.95,22.99,22.99,0,0,3
1858,6.4761e+07,0,0.03,0.01,0.96,22.99,22.98,0,0,3
1903,6.4771e+07,0,0.04,0.01,0.96,22.98,22.98,0,0,3
1944,6.4781e+07,0,0.04,0.01,0.96,22.98,22.98,0,0,3
1984,6.4791e+07,0,0.04,0.01,0.96,22.98,22.98,0,0,3
2025,6.4801e+07,0,0.05,0.01,0.96,22.98,22.98,0,0,3
2065,6.4811e+07,0,0.05,0.01,0.95,22.98,22.98,0,0,3
2112,6.4824e+07,0,0.05,0.01,0.95,22.99,22.98,0,0,3
2153,6.4834e+07,0,0.05,0.01,0.95,22.98,22.98,0,0,3
2193,6.4844e+07,0,0.05,0.01,0.95,22.98,22.98,0,0,3
2234,6.4854e+07,0,0.05,0.01,0.96,22.98,22.98,0,0,3
2278,6.4865e+07,0,0.04,0.01,0.96,22.98,22.98,0,0,3
2320,6.4875e+07,0,0.04,0.01,0.96,22.98,22.98,0,0,3
2361,6.4885e+07,0,0.04,0.01,0.96,22.98,22.98,0,0,3
2403,6.4895e+07,0,0.04,0.01,0.96,22.98,22.98,0,0,3
2444,6.4912e+07,0,0.04,0.01,0.96,22.98,22.97,0,0,3
2485,6.4923e+07,0,0.04,0.01,0.95,22.97,22.97,0,0,3
2527,6.4934e+07,0,0.04,0.01,0.95,22.97,22.97,0,0,3
2568,6.4944e+07,0,0.04,0.01,0.95,22.97,22.97,0,0,3
2608,6.4955e+07,0,0.04,0.01,0.95,22.97,22.97,0,0,3
2653,6.4965e+07,0,0.04,0.01,0.95,22.97,22.97,0,0,3
2694,6.4975e+07,0,0.05,0.01,0.95,22.97,22.97,0,0,3
2735,6.4986e+07,0,0.05,0.01,0.95,22.97,22.97,0,0,3
2776,6.4995e+07,0,0.05,0.01,0.96,22.97,22.97,0,0,3
2816,6.5006e+07,0,0.05,0.01,0.96,22.97,22.97,0,0,3
2857,6.5016e+07,0,0.05,0.01,0.96,22.98,22.97,0,0,3
2899,6.5026e+07,0,0.05,0.01,0.96,22.98,22.97,0,0,3
2940,6.5036e+07,0,0.04,0.01,0.96,22.98,22.97,0,0,3
2980,6.5046e+07,0,0.04,0.01,0.96,22.97,22.97,0,0,3
3021,6.5056e+07,0,0.04,0.01,0.95,22.97,22.97,0,0,3
3067,6.5067e+07,0,0.04,0.01,0.95,22.97,22.97,0,0,3
3107,6.5077e+07,0,0.03,0.01,0.95,22.97,22.97,0,0,3
3148,6.5087e+07,0,0.03,0.01,0.96,22.97,22.97,0,0,3
3188,6.5097e+07,0,0.03,0.01,0.96,22.97,22.97,0,0,3
3231,6.5107e+07,0,0.03,0.01,0.96,22.97,22.97,0,0,3
3265,6.5118e+07,0,0.04,0.01,0.96,22.97,22.97,0,0,3
3306,6.5128e+07,0,0.04,0.01,0.96,22.97,22.97,0,0,3
3348,6.5139e+07,0,0.04,0.01,0.96,22.98,22.97,0,0,3
3389,6.5149e+07,0,0.04,0.01,0.95,22.98,22.98,0,0,3
3430,6.5159e+07,0,0.04,0.01,0.95,22.98,22.98,0,0,3
3474,6.517e+07,0,0.04,0.01,0.96,22.98,22.98,0,0,3
3515,6.518e+07,0,0.05,0.01,0.96,22.98,22.98,0,0,3
3555,6.519e+07,0,0.04,0.01,0.96,22.98,22.98,0,0,3
3596,6.52e+07,0,0.04,0.01,0.95,22.98,22.98,0,0,3
3637,6.521e+07,0,0.04,0.01,0.95,22.98,22.98,0,0,3
3681,6.5222e+07,0,0.04,0.01,0.95,22.98,22.97,0,0,3
3722,6.5233e+07,0,0.04,0.01,0.95,22.97,22.97,0,0,3
3763,6.5243e+07,0,0.04,0.01,0.95,22.97,22.97,0,0,3
3804,6.5254e+07,0,0.04,0.01,0.95,22.97,22.97,0,0,3
3848,6.5264e+07,0,0.04,0.01,0.95,22.97,22.97,0,0,3
3895,6.5274e+07,0,0.04,0.01,0.95,22.97,22.97,0,0,3
3936,6.5285e+07,0,0.05,0.01,0.95,22.97,22.97,0,0,3
3976,6.5294e+07,0,0.05,0.01,0.95,22.98,22.98,0,0,3
4017,6.5304e+07,0,0.05,0.01,0.95,22.98,22.98,0,0,3
4058,6.5318e+07,0,0.05,0.01,0.95,22.98,22.98,0,0,3
4102,6.5329e+07,0,0.05,0.01,0.95,22.98,22.98,0,0,3
4143,6.5339e+07,0,0.05,0.01,0.95,22.99,22.98,0,0,3
4185,6.5349e+07,0,0.05,0.01,0.95,22.98,22.98,0,0,3
4226,6.536e+07,0,0.05,0.01,0.95,22.98,22.98,0,0,3
4266,6.537e+07,0,0.04,0.01,0.95,22.98,22.98,0,0,3
4311,6.538e+07,0,0.04,0.01,0.95,22.98,22.97,0,0,3
4352,6.539e+07,0,0.04,0.01,0.95,22.97,22.97,0,0,3
4392,6.54e+07,0,0.04,0.01,0.95,22.97,22.97,0,0,3
4437,6.5412e+07,0,0.04,0.01,0.95,22.97,22.97,0,0,3
4477,6.5423e+07,0,0.04,0.01,0.95,22.97,22.97,0,0,3
4518,6.5433e+07,0,0.04,0.01,0.95,22.97,22.97,0,0,3
4559,6.5443e+07,0,0.05,0.01,0.95,22.97,22.97,0,0,3
4600,6.5453e+07,0,0.05,0.01,0.95,22.98,22.97,0,0,3
4641,6.5463e+07,0,0.05,0.01,0.95,22.98,22.98,0,0,3
4681,6.5474e+07,0,0.05,0.01,0.95,22.98,22.98,0,0,3
4726,6.5484e+07,0,0.05,0.01,0.95,22.99,22.98,0,0,3
4766,6.5495e+07,0,0.05,0.01,0.95,22.99,22.98,0,0,3
4807,6.5504e+07,0,0.05,0.01,0.95,22.99,22.98,0,0,3
4850,6.5514e+07,0,0.05,0.01,0.95,22.99,22.98,0,0,3
4884,6.5525e+07,0,0.05,0.01,0.95,22.98,22.98,0,0,3
4926,6.5536e+07,0,0.05,0.01,0.95,22.98,22.98,0,0,3
4966,6.5546e+07,0,0.05,0.01,0.95,22.98,22.98,0,0,3
5008,6.5557e+07,0,0.04,0.01,0.95,22.98,22.98,0,0,3
5049,6.5566e+07,0,0.04,0.01,0.95,22.98,22.97,0,0,3
5090,6.5577e+07,0,0.05,0.01,0.95,22.98,22.97,0,0,3
5135,6.5587e+07,0,0.05,0.01,0.95,22.98,22.98,0,0,3
5175,6.5597e+07,0,0.05,0.01,0.96,22.98,22.98,0,0,3
5216,6.5607e+07,0,0.05,0.01,0.96,22.98,22.98,0,0,3
5256,6.5617e+07,0,0.05,0.01,0.95,22.99,22.99,0,0,3
5297,6.5628e+07,0,0.05,0.01,0.95,22.99,22.99,0,0,3
5337,6.5638e+07,0,0.05,0.01,0.95,22.99,22.99,0,0,3
5378,6.5648e+07,0,0.05,0.01,0.95,23,22.99,0,0,3
5419,6.5658e+07,0,0.05,0.01,0.95,23,23,0,0,3
5459,6.5669e+07,0,0.05,0.01,0.95,23,23,0,0,3
5501,6.5679e+07,0,0.05,0.01,0.95,23,23,0,0,3
5546,6.5689e+07,0,0.05,0.01,0.95,23,22.99,0,0,3
5589,6.5702e+07,0,0.05,0.01,0.96,22.99,22.99,0,0,3
5626,6.5713e+07,0,0.05,0.01,0.96,22.99,22.99,0,0,3
5667,6.5723e+07,0,0.04,0.01,0.96,22.99,22.99,0,0,3
5711,6.5736e+07,0,0.04,0.01,0.96,22.99,22.99,0,0,3
5751,6.5746e+07,0,0.04,0.01,0.96,22.99,22.99,0,0,3
5794,6.5756e+07,0,0.04,0.01,0.95,22.99,22.99,0,0,3
5836,6.5767e+07,0,0.04,0.01,0.95,22.99,22.99,0,0,3
5877,6.5777e+07,0,0.04,0.01,0.95,23,23,0,0,3
5922,6.5787e+07,0,0.05,0.01,0.95,23,23,0,0,3
5963,6.5797e+07,0,0.05,0.01,0.95,23,23,0,0,3
6004,6.5807e+07,0,0.05,0.01,0.95,23.01,23,0,0,3
6046,6.5817e+07,0,0.05,0.01,0.95,23.01,23.01,0,0,3
6086,6.5827e+07,0,0.05,0.01,0.95,23.01,23,0,0,3
6127,6.5837e+07,0,0.05,0.01,0.95,23,23,0,0,3
6167,6.5848e+07,0,0.05,0.01,0.96,23,23,0,0,3
6208,6.5858e+07,0,0.04,0.01,0.95,23,23,0,0,3
6248,6.5868e+07,0,0.04,0.01,0.95,22.99,22.99,0,0,3
6289,6.5878e+07,0,0.04,0.01,0.95,22.99,22.99,0,0,3
6336,6.5888e+07,0,0.04,0.01,0.95,22.99,22.99,0,0.01,3
6376,6.5899e+07,0,0.04,0.01,0.95,22.99,22.99,0,0.01,3
6419,6.5914e+07,0,0.04,0.01,0.96,22.99,22.99,0,0.01,3
6459,6.5925e+07,0,0.04,0.01,0.95,22.99,22.99,0,0.01,3
6500,6.5934e+07,0,0.04,0.01,0.95,23,22.99,0,0.01,3
6541,6.5945e+07,0,0.04,0.01,0.96,23,22.99,0,0.01,3
6581,6.5955e+07,0,0.05,0.01,0.96,23,23,0,0.01,3
6621,6.5965e+07,0,0.05,0.01,0.96,23,23,0,0.01,3
6661,6.5975e+07,0,0.05,0.01,0.96,23,23,0,0.01,3
6705,6.5985e+07,0,0.05,0.01,0.96,23,23,0,0.01,3
6750,6.5995e+07,0,0.05,0.01,0.96,23,23,0,0.01,3
6790,6.6005e+07,0,0.05,0.01,0.96,23,23,0,0.01,3
6831,6.6015e+07,0,0.05,0.01,0.95,23,22.99,0,0.01,3
6871,6.6025e+07,0,0.05,0.01,0.95,22.99,22.99,0,0.01,3
6909,6.6036e+07,0,0.05,0.01,0.95,22.99,22.99,0,0.01,3
6949,6.6046e+07,0,0.05,0.01,0.95,22.99,22.98,0,0.01,3
6990,6.6056e+07,0,0.05,0.01,0.95,22.98,22.98,0,0.01,3
7032,6.6066e+07,0,0.05,0.01,0.95,22.98,22.98,0,0.01,3
7072,6.6077e+07,0,0.05,0.01,0.95,22.98,22.98,0,0.01,3
7114,6.6086e+07,0,0.05,0.01,0.95,22.98,22.98,0,0.01,3
7167,6.6097e+07,0,0.05,0.01,0.95,22.99,22.98,0,0.01,3
7209,6.6108e+07,0,0.05,0.01,0.95,23.03,22.98,0,0.01,3
7243,6.6118e+07,0,0.05,0.01,0.95,23.06,22.98,0,0.01,3
7291,6.613e+07,0,0.06,0.01,0.95,23.16,22.98,0,0.01,3
7337,6.6141e+07,0,0.06,0.01,0.95,23.28,22.98,0,0.01,3
7382,6.6152e+07,0,0.06,0.01,0.95,23.42,22.98,0,0.01,3
7427,6.6163e+07,0,0.06,0.01,0.95,23.59,22.98,0,0.01,3
7472,6.6174e+07,0,0.06,0.01,0.95,23.79,22.98,0,0.01,3
7517,6.6184e+07,0,0.06,0.01,0.95,24.02,22.98,0,0.01,3
7565,6.6194e+07,0,0.06,0.01,0.95,24.27,22.98,0,0.01,3
7610,6.6204e+07,0,0.05,0.01,0.95,24.55,22.97,0,0.01,3
7656,6.6214e+07,0,0.05,0.01,0.95,24.86,22.97,0,0.01,3
7700,6.6224e+07,0,0.05,0.01,0.96,25.2,22.97,0,0.01,3
7748,6.6237e+07,0,0.06,0.01,0.96,25.66,22.97,0,0.01,3
7794,6.6247e+07,0,0.06,0.01,0.96,26.07,22.96,0,0.01,3
7839,6.6258e+07,0,0.06,0.01,0.96,26.49,22.96,0,0.01,3
7884,6.6268e+07,0,0.06,0.01,0.96,26.95,22.96,0,0.01,3
7928,6.6278e+07,0,0.06,0.01,0.95,27.44,22.96,0,0.01,3
7972,6.6288e+07,0,0.06,0.01,0.95,27.95,22.96,0,0.01,3
8024,6.6299e+07,0,0.06,0.01,0.95,28.49,22.96,0,0.01,3
8069,6.6309e+07,0,0.06,0.01,0.95,29.06,22.96,0,0.01,3
8113,6.6319e+07,0,0.06,0.01,0.95,29.5,22.96,0,0.01,3
8154,6.633e+07,0,0.06,0.01,0.95,29.96,22.96,0,0.01,3
8199,6.634e+07,0,0.06,0.01,0.95,30.6,22.96,0,0.01,3
8243,6.6351e+07,0,0.06,0.01,0.96,31.27,22.95,0,0.01,3
8288,6.6362e+07,0,0.06,0.01,0.96,31.96,22.95,0,0.01,3
8335,6.6372e+07,0,0.05,0.01,0.96,32.68,22.95,0,0.01,3
8379,6.6383e+07,0,0.05,0.01,0.96,33.43,22.95,0,0.01,3
8424,6.6393e+07,0,0.05,0.01,0.96,34.21,22.95,0,0.01,3
8472,6.6403e+07,0,0.05,0.01,0.96,35.02,22.95,0,0.01,3
8517,6.6413e+07,0,0.06,0.01,0.96,35.85,22.94,0,0.01,3
8561,6.6424e+07,0,0.06,0.01,0.96,36.71,22.95,0,0.01,3
8606,6.6434e+07,0,0.06,0.01,0.96,37.6,22.95,0,0.01,3
8650,6.6445e+07,0,0.06,0.01,0.96,38.52,22.95,0,0.01,3
8696,6.6455e+07,0,0.06,0.01,0.96,39.46,22.95,0,0.01,3
8741,6.6465e+07,0,0.07,0.01,0.96,40.44,22.95,0,0.01,3
8786,6.6475e+07,0,0.07,0.01,0.97,41.44,22.95,0,0.01,3
8830,6.6485e+07,0,0.07,0.01,0.97,42.47,22.95,0,0.01,3
8876,6.6495e+07,0,0.07,0.01,0.97,43.52,22.95,0,0.01,3
8926,6.6505e+07,0,0.07,0.01,0.96,44.61,22.95,0.01,0.01,3
8964,6.6516e+07,0,0.07,0.01,0.96,45.16,22.95,0.01,0.01,3
9009,6.6526e+07,0,0.06,0.01,0.96,46.29,22.95,0.01,0.01,3
9054,6.6537e+07,0,0.06,0.01,0.95,47.44,22.95,0.01,0.01,3
9099,6.6547e+07,0,0.06,0.01,0.95,48.62,22.95,0.01,0.01,3
9144,6.6557e+07,0,0.06,0.01,0.95,49.83,22.95,0.01,0.01,3
9188,6.6567e+07,0,0.06,0.01,0.95,49.93,22.95,0.01,0.01,3
9233,6.6578e+07,0,0.07,0.01,0.95,49.93,22.95,0.01,0.01,3
9277,6.6588e+07,0,0.07,0.01,0.95,49.94,22.95,0.01,0.01,3
9324,6.6598e+07,0,0.07,0.01,0.96,49.95,22.95,0.01,0.01,3
9373,6.6609e+07,0,0.07,0.01,0.96,49.96,22.95,0.01,0.01,3
9417,6.6619e+07,0,0.07,0.01,0.96,49.97,22.95,0.01,0.01,3
9462,6.6629e+07,0,0.08,0.01,0.96,49.98,22.96,0.01,0.01,3
9506,6.6639e+07,0,0.08,0.01,0.96,49.98,22.96,0.01,0.01,3
9552,6.665e+07,0,0.08,0.01,0.96,49.99,22.96,0.01,0.01,3
9596,6.666e+07,0,0.08,0.01,0.95,50,22.96,0.01,0.01,3
9641,6.667e+07,0,0.07,0.01,0.95,50.01,22.96,0.01,0.01,3
9686,6.6681e+07,0,0.07,0.01,0.95,50.01,22.95,0.01,0.01,3
9730,6.6691e+07,0,0.07,0.01,0.95,50.02,22.95,0.01,0.01,3
9776,6.6701e+07,0,0.07,0.01,0.95,50.02,22.95,0.01,0.01,3
9826,6.6718e+07,0,0.06,0.01,0.95,50.03,22.95,0,0.01,3
9871,6.6728e+07,0,0.07,0.01,0.96,50.03,22.95,0,0.01,3
9918,6.6739e+07,0,0.07,0.01,0.96,50.04,22.94,0,0.01,3
9962,6.675e+07,0,0.07,0.01,0.96,50.04,22.94,0,0.01,3
10007,6.676e+07,0,0.07,0.01,0.96,50.05,22.94,0,0.01,3
10051,6.6771e+07,0,0.07,0.01,0.95,50.06,22.95,0,0.01,3
10096,6.6781e+07,0,0.07,0.01,0.95,50.07,22.95,0,0.01,3
10142,6.6791e+07,0,0.07,0.01,0.95,50.07,22.95,0,0.01,3
10187,6.6801e+07,0,0.07,0.01,0.95,50.08,22.95,0,0.01,3
10233,6.6812e+07,0,0.07,0.01,0.95,50.09,22.95,0,0.01,3
10281,6.6822e+07,0,0.07,0.01,0.95,50.09,22.94,0,0.01,3
10326,6.6832e+07,0,0.07,0.01,0.95,50.1,22.94,0,0.01,3
10371,6.6843e+07,0,0.07,0.01,0.95,50.1,22.94,0,0.01,3
10416,6.6853e+07,0,0.07,0.01,0.95,50.11,22.94,0,0.01,3
10461,6.6863e+07,0,0.07,0.01,0.95,50.11,22.94,0,0.01,3
10505,6.6873e+07,0,0.07,0.01,0.96,50.11,22.94,0,0.01,3
10550,6.6884e+07,0,0.07,0.01,0.95,50.11,22.94,0,0.01,3
10594,6.6894e+07,0,0.07,0.01,0.95,50.11,22.94,0,0.01,3
10643,6.6904e+07,0,0.08,0.01,0.95,50.11,22.94,0,0.01,3
10682,6.6915e+07,0,0.08,0.01,0.95,50.11,22.94,0,0.01,3
10730,6.6925e+07,0,0.08,0.01,0.95,50.11,22.94,0,0.01,3
10776,6.6935e+07,0,0.08,0.01,0.95,50.11,22.94,0,0.01,3
10821,6.6945e+07,0,0.08,0.01,0.96,50.11,22.94,0,0.01,3
10865,6.6955e+07,0,0.07,0.01,0.96,50.11,22.94,0,0.01,3
10910,6.6966e+07,0,0.07,0.01,0.96,50.11,22.94,0,0.01,3
10954,6.6976e+07,0,0.08,0.01,0.96,50.11,22.94,0,0.01,3
10999,6.6986e+07,0,0.07,0.01,0.96,50.11,22.94,0,0.01,3
11044,6.6996e+07,0,0.07,0.01,0.96,50.11,22.94,0,0.01,3
11089,6.7006e+07,0,0.07,0.01,0.96,50.11,22.94,0,0.01,3
11135,6.7016e+07,0,0.08,0.01,0.96,50.11,22.94,0,0.01,3
11183,6.7027e+07,0,0.08,0.01,0.95,50.11,22.94,0,0,3
11228,6.7037e+07,0,0.08,0.01,0.95,50.11,22.94,0,0,3
11272,6.7047e+07,0,0.08,0.01,0.95,50.11,22.94,0,0,3
11318,6.7057e+07,0,0.08,0.01,0.96,50.11,22.94,0,0,3
11362,6.7068e+07,0,0.08,0.01,0.96,50.11,22.94,0,0,3
11407,6.7078e+07,0,0.08,0.01,0.96,50.11,22.94,0,0,3
11452,6.7088e+07,0,0.08,0.01,0.96,50.11,22.94,0,0,3
11496,6.7099e+07,0,0.08,0.01,0.96,50.11,22.94,0,0,3
11543,6.7115e+07,0,0.07,0.01,0.96,50.11,22.94,0.01,0,3
11590,6.7125e+07,0,0.07,0.01,0.96,50.11,22.94,0.01,0.01,3
11636,6.7135e+07,0,0.07,0.01,0.96,50.11,22.94,0.01,0.01,3
11682,6.7146e+07,0,0.07,0.01,0.96,50.11,22.94,0.01,0.01,3
11728,6.7156e+07,0,0.07,0.01,0.96,50.11,22.94,0.01,0.01,3
11772,6.7166e+07,0,0.07,0.01,0.96,50.11,22.94,0.01,0.01,3
11817,6.7176e+07,0,0.07,0.01,0.96,50.11,22.94,0.01,0.01,3
11862,6.7186e+07,0,0.07,0.01,0.96,50.11,22.93,0.01,0.01,3
11906,6.7196e+07,0,0.08,0.01,0.96,50.11,22.93,0.01,0.01,3
11951,6.7207e+07,0,0.08,0.01,0.96,50.11,22.93,0.01,0.01,3
11995,6.7217e+07,0,0.08,0.01,0.96,50.11,22.93,0.01,0.01,3
12045,6.7227e+07,0,0.08,0.01,0.96,50.11,22.93,0.01,0.01,3
12092,6.7237e+07,0,0.08,0.01,0.96,50.11,22.93,0.01,0.01,3
12137,6.7248e+07,0,0.08,0.01,0.96,50.11,22.93,0.01,0.01,3
12182,6.7258e+07,0,0.08,0.01,0.96,50.11,22.93,0.01,0.01,3
12229,6.7271e+07,0,0.08,0.01,0.96,50.11,22.93,0.01,0.01,3
12274,6.7281e+07,0,0.08,0.01,0.96,50.11,22.93,0.01,0.01,3
12318,6.7291e+07,0,0.08,0.01,0.96,50.1,22.93,0.01,0.01,3
12360,6.7301e+07,0,0.08,0.01,0.96,50.1,22.93,0.01,0.01,3
12403,6.7314e+07,0,0.08,0.01,0.96,50.1,22.93,0.01,0.01,3
12447,6.7325e+07,0,0.07,0.01,0.96,50.1,22.92,0.01,0.01,3
12498,6.7335e+07,0,0.07,0.01,0.96,50.1,22.92,0.01,0,3
12543,6.7346e+07,0,0.07,0.01,0.96,50.09,22.92,0.01,0,3
12588,6.7356e+07,0,0.07,0.01,0.96,50.09,22.92,0.01,0,3
12633,6.7366e+07,0,0.07,0.01,0.96,50.09,22.92,0.01,0,3
12677,6.7376e+07,0,0.07,0.01,0.95,50.09,22.92,0.01,0,3
12725,6.7389e+07,0,0.07,0.01,0.95,50.09,22.92,0.01,0,3
12769,6.7399e+07,0,0.08,0.01,0.95,50.09,22.92,0.01,0,3
12816,6.7409e+07,0,0.08,0.01,0.96,50.09,22.92,0.01,0,3
12861,6.7419e+07,0,0.08,0.01,0.96,50.09,22.92,0.01,0,3
12908,6.743e+07,0,0.08,0.01,0.96,50.09,22.92,0.01,0,3
12954,6.744e+07,0,0.08,0.01,0.97,50.09,22.92,0.01,0,3
12998,6.745e+07,0,0.08,0.01,0.97,50.09,22.92,0.01,0,3
13043,6.746e+07,0,0.08,0.01,0.97,50.09,22.92,0.01,0,3
13088,6.7471e+07,0,0.07,0.01,0.97,50.09,22.91,0.01,0,3
13133,6.7481e+07,0,0.07,0.01,0.96,50.09,22.91,0.01,0,3
13180,6.7494e+07,0,0.07,0.01,0.96,50.09,22.91,0.01,0,3
13218,6.7504e+07,0,0.07,0.01,0.96,50.09,22.91,0.01,0,3
13263,6.7514e+07,0,0.07,0.01,0.96,50.09,22.91,0.01,0,3
13307,6.7524e+07,0,0.07,0.01,0.96,50.09,22.92,0.01,0,3
13355,6.7535e+07,0,0.07,0.01,0.96,50.09,22.92,0.01,0.01,3
13401,6.7545e+07,0,0.08,0.01,0.96,50.09,22.92,0.01,0.01,3
13445,6.7555e+07,0,0.08,0.01,0.97,50.09,22.92,0.01,0.01,3
13490,6.7565e+07,0,0.08,0.01,0.97,50.09,22.92,0.01,0.01,3
13535,6.7576e+07,0,0.08,0.01,0.97,50.09,22.92,0.01,0.01,3
13581,6.7587e+07,0,0.08,0.01,0.96,50.09,22.92,0.01,0.01,3
13625,6.7597e+07,0,0.08,0.01,0.96,50.09,22.92,0.01,0.01,3
13670,6.7607e+07,0,0.08,0.01,0.96,50.09,22.92,0.01,0.01,3
13715,6.7617e+07,0,0.08,0.01,0.95,50.09,22.92,0.01,0.01,3
13759,6.7627e+07,0,0.07,0.01,0.95,50.09,22.92,0.01,0.01,3
13807,6.7638e+07,0,0.07,0.01,0.95,50.09,22.92,0.01,0,3
13852,6.7648e+07,0,0.07,0.01,0.95,50.09,22.92,0.01,0,3
13897,6.7658e+07,0,0.07,0.01,0.96,50.09,22.92,0.01,0,3
13941,6.7668e+07,0,0.07,0.01,0.96,50.09,22.92,0.01,0,3
13987,6.7678e+07,0,0.07,0.01,0.97,50.09,22.92,0.01,0,3
14035,6.7691e+07,0,0.08,0.01,0.97,50.09,22.92,0.01,0,3
14081,6.7704e+07,0,0.08,0.01,0.97,50.1,22.92,0.01,0,3
14124,6.7716e+07,0,0.08,0.01,0.97,50.1,22.92,0.01,0,3
14169,6.7726e+07,0,0.08,0.01,0.96,50.1,22.92,0.01,0,3
14215,6.7736e+07,0,0.08,0.01,0.96,50.1,22.93,0.01,0,3
14264,6.7746e+07,0,0.08,0.01,0.96,50.1,22.92,0.01,0,3
14309,6.7756e+07,0,0.08,0.01,0.96,50.1,22.92,0.01,0,3
14354,6.7766e+07,0,0.08,0.01,0.96,50.1,22.92,0.01,0,3
14399,6.7777e+07,0,0.08,0.01,0.96,50.1,22.92,0.01,0,3
14443,6.7788e+07,0,0.08,0.01,0.97,50.09,22.92,0.01,0,3
14486,6.7799e+07,0,0.07,0.01,0.97,50.09,22.92,0.01,0,3
14530,6.7809e+07,0,0.07,0.01,0.97,50.09,22.92,0.01,0,3
14576,6.7819e+07,0,0.07,0.01,0.97,50.1,22.92,0.01,0,3
14622,6.7829e+07,0,0.07,0.01,0.97,50.1,22.92,0.01,0,3
14667,6.7839e+07,0,0.07,0.01,0.96,50.1,22.92,0.01,0,3
14716,6.785e+07,0,0.07,0.01,0.96,50.1,22.92,0.01,0,3
14760,6.786e+07,0,0.07,0.01,0.96,50.1,22.92,0.01,0,3
14805,6.787e+07,0,0.07,0.01,0.95,50.1,22.93,0.01,0,3
14850,6.788e+07,0,0.07,0.01,0.95,50.1,22.93,0.01,0,3
14895,6.789e+07,0,0.07,0.01,0.96,50.1,22.92,0.01,0,3
14940,6.7901e+07,0,0.07,0.01,0.96,50.1,22.92,0.01,0,3
14986,6.7914e+07,0,0.07,0.01,0.96,50.09,22.92,0,0,3
15029,6.7926e+07,0,0.07,0.01,0.97,50.09,22.92,0,0,3
15073,6.7936e+07,0,0.07,0.01,0.97,50.09,22.92,0,0,3
15122,6.7946e+07,0,0.07,0.01,0.97,50.09,22.92,0,0,3
15168,6.7956e+07,0,0.07,0.01,0.97,50.09,22.92,0,0,3
15212,6.7967e+07,0,0.07,0.01,0.97,50.09,22.92,0,0,3
15257,6.7977e+07,0,0.07,0.01,0.96,50.1,22.92,0,0,3
15301,6.7988e+07,0,0.06,0.01,0.96,50.1,22.92,0,0,3
15346,6.7998e+07,0,0.06,0.01,0.96,50.1,22.93,0,0,3
15393,6.801e+07,0,0.06,0.01,0.96,50.1,22.93,0,0,3
15438,6.802e+07,0,0.06,0.01,0.96,50.1,22.92,0,0,3
15485,6.8031e+07,0,0.07,0.01,0.97,50.1,22.92,0,0,3
15529,6.8041e+07,0,0.07,0.01,0.97,50.1,22.92,0,0,3
15577,6.8051e+07,0,0.07,0.01,0.97,50.1,22.92,0,0,3
15622,6.8061e+07,0,0.07,0.01,0.97,50.1,22.92,0,0,3
15667,6.8072e+07,0,0.07,0.01,0.97,50.1,22.92,0,0,3
15712,6.8082e+07,0,0.08,0.01,0.96,50.1,22.92,0,0,3
15763,6.8098e+07,0,0.07,0.01,0.95,22.92,22.92,0,0,3
15805,6.8109e+07,0,0.07,0.01,0.95,22.92,22.92,0,0,3
15849,6.8119e+07,0,0.07,0.01,0.95,22.92,22.92,0,0,3
15893,6.8129e+07,0,0.07,0.01,0.95,22.92,22.92,0,0,3
15937,6.814e+07,0,0.07,0.01,0.96,22.93,22.93,0,0,3
15982,6.815e+07,0,0.07,0.01,0.96,22.93,22.93,0,0,3
16032,6.816e+07,0,0.07,0.01,0.96,22.94,22.93,0,0.01,3
16076,6.817e+07,0,0.08,0.01,0.96,22.93,22.93,0,0.01,3
16122,6.818e+07,0,0.08,0.01,0.97,22.93,22.93,0,0.01,3
16167,6.819e+07,0,0.08,0.01,0.97,22.93,22.93,0,0.01,3
16214,6.8203e+07,0,0.09,0.01,0.96,22.93,22.92,0,0.01,3
16259,6.8214e+07,0,0.08,0.01,0.96,22.93,22.93,0,0.01,3
16303,6.8223e+07,0,0.07,0.01,0.96,22.93,22.92,0,0.01,3
16352,6.8234e+07,0,0.08,0.01,0.96,22.93,22.93,0,0.01,3
16397,6.8244e+07,0,0.09,0.01,0.96,22.93,22.93,0,0.01,3
16444,6.8255e+07,0,0.1,0.01,0.97,22.93,22.93,0,0.01,3
16490,6.8265e+07,0,0.09,0.01,0.97,22.93,22.93,0,0.01,3
16535,6.8275e+07,0,0.08,0.01,0.97,22.93,22.93,0,0.01,3
16580,6.8285e+07,0,0.08,0.01,0.97,22.93,22.93,0,0.01,3
16624,6.8295e+07,0,0.07,0.01,0.96,22.93,22.92,0,0.01,3
16665,6.8307e+07,0,0.07,0.01,0.96,22.92,22.92,0,0.01,3
16709,6.8317e+07,0,0.07,0.01,0.96,22.93,22.92,0,0.01,3
16754,6.8327e+07,0,0.1,0.01,0.95,22.92,22.92,0,0.01,3
16799,6.8338e+07,0,0.13,0.01,0.95,22.93,22.92,0,0.01,3
16844,6.8348e+07,0,0.13,0.01,0.94,22.93,22.93,0,0.01,3
16894,6.8358e+07,0,0.1,0.01,0.95,22.94,22.94,0,0.01,3
16939,6.8369e+07,0,0.1,0.01,0.96,22.94,22.94,0,0.01,3
16985,6.8379e+07,0,0.11,0.01,0.95,22.94,22.94,0,0.01,3
17030,6.8389e+07,0,0.12,0.01,0.96,22.94,22.94,0,0.01,3
17074,6.84e+07,0,0.14,0.01,0.95,22.94,22.94,0,0.01,3
17119,6.841e+07,0,0.14,0.01,0.96,22.94,22.94,0,0.01,3
17164,6.842e+07,0,0.13,0.01,0.96,22.95,22.94,0,0.01,3
17212,6.8433e+07,0,0.15,0.01,0.96,22.93,22.93,0,0.01,3
17257,6.8443e+07,0,0.16,0.01,0.95,22.91,22.9,0,0.01,3
17303,6.8454e+07,0,0.15,0.01,0.96,22.89,22.89,0,0.01,3
17352,6.8464e+07,0,0.16,0.01,0.95,22.88,22.87,0,0.01,3
17397,6.8474e+07,0,0.14,0.01,0.95,22.87,22.87,0,0.01,3
17442,6.8484e+07,0,0.11,0.01,0.95,22.86,22.86,0,0.01,3
17486,6.8494e+07,0,0.11,0.01,0.96,22.86,22.86,0,0.01,3
17533,6.8505e+07,0,0.1,0.01,0.96,22.88,22.87,0,0.01,3
17572,6.8516e+07,0,0.08,0.01,0.96,22.9,22.9,0,0.01,3
17616,6.8526e+07,0,0.07,0.01,0.96,22.92,22.92,0,0.01,3
17661,6.8536e+07,0,0.08,0.01,0.96,22.93,22.93,0,0.01,3
17706,6.8546e+07,0,0.08,0.01,0.97,22.96,22.96,0,0.01,3
17752,6.8557e+07,0,0.07,0.01,0.96,22.97,22.96,0,0.01,3
17800,6.8567e+07,0,0.07,0.01,0.96,22.98,22.97,0,0.01,3
17845,6.8577e+07,0,0.12,0.01,0.95,22.96,22.95,0,0.01,3
17890,6.8587e+07,0,0.12,0.01,0.96,22.96,22.96,0,0.01,3
17935,6.8597e+07,0,0.13,0.01,0.94,22.94,22.94,0,0.01,3
17982,6.8611e+07,0,0.12,0.01,0.96,22.93,22.92,0,0.01,3
18028,6.8621e+07,0,0.17,0.01,0.96,22.9,22.89,0,0.01,3
18073,6.8632e+07,0,0.15,0.01,0.95,22.89,22.89,0,0.01,3
18117,6.8643e+07,0,0.14,0.01,0.94,22.88,22.88,0,0.01,3
18162,6.8653e+07,0,0.13,0.01,0.94,22.88,22.88,0,0.01,3
18206,6.8664e+07,0,0.16,0.01,0.96,22.88,22.88,0,0.01,3
18255,6.8674e+07,0,0.13,0.01,0.95,22.9,22.9,0,0.01,3
18301,6.8684e+07,0,0.1,0.01,0.95,22.91,22.91,0,0.01,3
18348,6.8694e+07,0,0.08,0.01,0.95,22.93,22.92,0.01,0.01,3
18387,6.8705e+07,0,0.12,0.01,0.97,22.95,22.95,0.01,0.01,3
18431,6.8716e+07,0,0.08,0.01,0.93,22.95,22.95,0.01,0.01,3
18481,6.8729e+07,0,0.06,0.01,0.96,22.97,22.97,0.01,0.01,3
18525,6.8739e+07,0,0.1,0.01,0.94,22.95,22.95,0.01,0.01,3
18570,6.8749e+07,0,0.11,0.01,0.97,22.96,22.96,0.01,0.01,3
18614,6.8759e+07,0,0.09,0.01,0.93,22.93,22.93,0.01,0.01,3
18659,6.8769e+07,0,0.1,0.01,0.96,22.92,22.92,0.01,0.01,3
18708,6.878e+07,0,0.14,0.01,0.94,22.89,22.89,0.01,0.01,3
18753,6.879e+07,0,0.16,0.01,0.97,22.89,22.89,0.01,0.01,3
18799,6.88e+07,0,0.14,0.01,0.92,22.86,22.86,0.01,0.01,3
18844,6.8811e+07,0,0.13,0.01,0.96,22.86,22.86,0.01,0.01,3
18889,6.8821e+07,0,0.17,0.01,0.96,22.87,22.87,0.01,0.01,3
18934,6.8831e+07,0,0.15,0.01,0.96,22.88,22.88,0.01,0.01,3
18978,6.8842e+07,0,0.13,0.01,0.93,22.89,22.89,0.01,0.01,3
19023,6.8852e+07,0,0.11,0.01,0.94,22.9,22.9,0.01,0.01,3
19067,6.8862e+07,0,0.14,0.01,0.95,22.93,22.93,0.01,0.01,3
19114,6.8873e+07,0,0.11,0.01,0.94,22.94,22.94,0.01,0.01,3
19162,6.8883e+07,0,0.1,0.01,0.94,22.96,22.96,0.01,0.01,3
19207,6.8893e+07,0,0.11,0.01,0.92,22.94,22.93,0.01,0.01,3
19250,6.8904e+07,0,0.14,0.01,0.99,22.98,22.98,0.01,0.01,3
19292,6.8915e+07,0,0.11,0.01,0.93,22.93,22.93,0.01,0.01,3
19337,6.8925e+07,0,0.1,0.01,0.98,22.95,22.94,0.01,0.01,3
19381,6.8936e+07,0,0.14,0.01,0.92,22.9,22.89,0.01,0.01,3
19426,6.8946e+07,0,0.15,0.01,1,22.93,22.93,0.01,0.01,3
19471,6.8956e+07,0,0.13,0.01,0.91,22.88,22.88,0.01,0.01,3
19515,6.8966e+07,0,0.1,0.01,0.94,22.88,22.88,0.01,0.01,3
19560,6.8976e+07,0,0.16,0.01,0.93,22.87,22.87,0.01,0.01,3
19610,6.8987e+07,0,0.15,0.01,0.94,22.9,22.9,0.01,0.01,3
19655,6.8997e+07,0,0.14,0.01,0.92,22.89,22.89,0.01,0.01,3
19699,6.9007e+07,0,0.1,0.01,0.92,22.89,22.89,0.01,0.01,3
19744,6.9017e+07,0,0.15,0.01,0.95,22.92,22.91,0.01,0.01,3
19789,6.9027e+07,0,0.13,0.01,0.95,22.94,22.93,0.01,0.01,3
19833,6.9037e+07,0,0.11,0.01,0.94,22.94,22.94,0.01,0.01,3
19878,6.9047e+07,0,0.08,0.01,0.94,22.93,22.93,0.01,0.01,3
19922,6.9057e+07,0,0.11,0.01,0.98,22.96,22.96,0.01,0.01,3
19967,6.9067e+07,0,0.1,0.01,0.96,22.95,22.95,0.01,0.01,3
20011,6.9077e+07,0,0.09,0.01,0.96,22.95,22.95,0.01,0.01,3
20060,6.9088e+07,0,0.1,0.01,0.93,22.91,22.91,0.01,0.01,3
20105,6.9098e+07,0,0.13,0.01,1,22.94,22.94,0.01,0.01,3
20151,6.9108e+07,0,0.13,0.01,0.93,22.9,22.9,0.01,0.01,3
20164,6.9169e+07,0,0.18,0.01,0.93,22.89,22.89,0.01,0.01,3
20209,6.918e+07,0,0.16,0.01,0.95,22.93,22.93,0.01,0.01,3
20257,6.9191e+07,0,0.15,0.01,0.94,22.92,22.92,0.01,0.01,3
20302,6.9201e+07,0,0.09,0.01,0.91,22.92,22.92,0.01,0.01,3
20347,6.9211e+07,0,0.13,0.01,0.96,22.94,22.94,0.01,0.01,3
20394,6.9221e+07,0,0.12,0.01,0.92,22.94,22.94,0.01,0.01,3
20439,6.9232e+07,0,0.1,0.01,0.94,22.94,22.94,0.01,0.01,3
20483,6.9242e+07,0,0.09,0.01,0.9,22.91,22.91,0.01,0.01,3
20528,6.9252e+07,0,0.11,0.01,0.98,22.94,22.94,0.01,0.01,3
20572,6.9263e+07,0,0.1,0.01,0.92,22.91,22.91,0.01,0.01,3
20618,6.9273e+07,0,0.09,0.01,0.97,22.91,22.91,0.01,0.01,3
20662,6.9283e+07,0,0.12,0.01,0.92,22.87,22.87,0.01,0.01,3
20714,6.9295e+07,0,0.14,0.01,0.96,22.9,22.9,0.01,0.01,3
20759,6.9306e+07,0,0.14,0.01,0.95,22.88,22.88,0.01,0.01,3
20803,6.9319e+07,0,0.14,0.01,0.9,22.86,22.86,0.01,0.01,3
20848,6.933e+07,0,0.16,0.01,0.99,22.9,22.9,0.01,0.01,3
20893,6.934e+07,0,0.15,0.01,0.93,22.9,22.89,0.01,0.01,3
20937,6.935e+07,0,0.14,0.01,0.98,22.92,22.91,0.01,0.01,3
20982,6.936e+07,0,0.15,0.01,0.93,22.9,22.9,0.01,0.01,3
21026,6.937e+07,0,0.14,0.01,1,22.95,22.94,0.01,0.01,3
21073,6.938e+07,0,0.13,0.01,0.94,22.93,22.93,0.01,0.01,3
21123,6.939e+07,0,0.09,0.01,0.97,22.94,22.94,0.01,0.01,3
21168,6.94e+07,0,0.13,0.01,0.93,22.92,22.91,0.01,0.01,3
21213,6.9411e+07,0,0.11,0.01,0.98,22.94,22.94,0.01,0.01,3
21257,6.9421e+07,0,0.11,0.01,0.95,22.92,22.92,0.01,0.01,3
21302,6.9431e+07,0,0.06,0.01,0.96,22.91,22.91,0.01,0.01,3
21346,6.9441e+07,0,0.12,0.01,0.94,22.89,22.89,0.01,0.01,3
21390,6.9451e+07,0,0.11,0.01,0.97,22.91,22.9,0.01,0.01,3
21435,6.9462e+07,0,0.11,0.01,0.95,22.89,22.89,0.01,0.01,3
21481,6.9472e+07,0,0.08,0.01,0.92,22.88,22.88,0.01,0.01,3
21525,6.9483e+07,0,0.16,0.01,0.94,22.9,22.89,0.01,0.01,3
21574,6.9493e+07,0,0.15,0.01,0.91,22.9,22.9,0.01,0.01,3
21615,6.9504e+07,0,0.14,0.01,0.94,22.91,22.91,0.01,0.01,3
21660,6.9514e+07,0,0.12,0.01,0.89,22.89,22.89,0.01,0.01,3
21705,6.9525e+07,0,0.14,0.01,0.99,22.94,22.94,0.01,0.01,3
21749,6.9535e+07,0,0.14,0.01,0.93,22.93,22.93,0.01,0.01,3
21794,6.9545e+07,0,0.11,0.01,0.98,22.94,22.94,0.01,0.01,3
21839,6.9556e+07,0,0.12,0.01,0.95,22.92,22.92,0.01,0.01,3
21883,6.9566e+07,0,0.11,0.01,1,22.95,22.95,0.01,0.01,3
21929,6.9576e+07,0,0.11,0.01,0.97,22.93,22.93,0.01,0.01,3
21974,6.9586e+07,0,0.07,0.01,0.97,22.92,22.92,0.01,0.01,3
22022,6.9596e+07,0,0.11,0.01,0.96,22.91,22.91,0.01,0.01,3
22067,6.9607e+07,0,0.1,0.01,0.98,22.92,22.92,0.01,0.01,3
22112,6.9617e+07,0,0.12,0.01,0.96,22.92,22.92,0.01,0.01,3
22157,6.9627e+07,0,0.09,0.01,0.9,22.89,22.89,0.01,0.01,3
22202,6.9637e+07,0,0.16,0.01,0.95,22.91,22.91,0.01,0.01,3
22247,6.9647e+07,0,0.14,0.01,0.91,22.91,22.91,0.01,0.01,3
22291,6.9658e+07,0,0.14,0.01,0.94,22.92,22.92,0.01,0.01,3
22336,6.9668e+07,0,0.12,0.01,0.9,22.9,22.9,0.01,0.01,3
22381,6.9678e+07,0,0.17,0.01,0.96,22.94,22.94,0.01,0.01,3
22426,6.9689e+07,0,0.16,0.01,0.93,22.94,22.94,0.01,0.01,3
22480,6.9704e+07,0,0.09,0.01,0.91,22.93,22.93,0.01,0.01,3
22527,6.9717e+07,0,0.16,0.01,0.97,22.95,22.95,0.01,0.01,3
22573,6.9728e+07,0,0.16,0.01,0.92,22.94,22.94,0.01,0.01,3
22618,6.9738e+07,0,0.11,0.01,0.95,22.93,22.93,0.01,0.01,3
22662,6.9749e+07,0,0.14,0.01,0.93,22.92,22.91,0.01,0.01,3
22707,6.9759e+07,0,0.13,0.01,0.98,22.93,22.93,0.01,0.01,3
22751,6.977e+07,0,0.12,0.01,0.95,22.92,22.92,0.01,0.01,3
22796,6.978e+07,0,0.09,0.01,0.94,22.9,22.9,0.01,0.01,3
22842,6.979e+07,0,0.15,0.01,0.95,22.9,22.9,0.01,0.01,3
22889,6.98e+07,0,0.14,0.01,0.95,22.9,22.9,0.01,0.01,3
22936,6.981e+07,0,0.14,0.01,0.96,22.91,22.91,0.01,0.01,3
22980,6.9821e+07,0,0.09,0.01,0.92,22.89,22.89,0.01,0.01,3
23026,6.9831e+07,0,0.17,0.01,0.97,22.92,22.92,0.01,0.01,3
23070,6.9842e+07,0,0.14,0.01,0.93,22.92,22.92,0.01,0.01,3
23115,6.9853e+07,0,0.15,0.01,0.97,22.94,22.93,0.01,0.01,3
23160,6.9863e+07,0,0.13,0.01,0.91,22.91,22.91,0.01,0.01,3
23204,6.9873e+07,0,0.17,0.01,0.99,22.94,22.94,0.01,0.01,3
23251,6.9883e+07,0,0.15,0.01,0.93,22.93,22.93,0.01,0.01,3
23295,6.9894e+07,0,0.13,0.01,0.97,22.93,22.93,0.01,0.01,3
23343,6.9904e+07,0,0.12,0.01,0.95,22.91,22.91,0.01,0.01,3
23389,6.9915e+07,0,0.12,0.01,0.99,22.92,22.92,0.01,0.01,3
23431,6.9926e+07,0,0.12,0.01,0.97,22.91,22.91,0.01,0.01,3
23475,6.9935e+07,0,0.08,0.01,0.94,22.89,22.88,0.01,0.01,3
23520,6.9946e+07,0,0.13,0.01,0.96,22.89,22.89,0.01,0.01,3
23564,6.9955e+07,0,0.12,0.01,0.95,22.89,22.89,0.01,0.01,3
23609,6.9966e+07,0,0.13,0.01,0.97,22.9,22.9,0.01,0.01,3
23653,6.9976e+07,0,0.08,0.01,0.92,22.88,22.88,0.01,0.01,3
23700,6.9986e+07,0,0.15,0.01,0.96,22.91,22.91,0.01,0.01,3
23745,6.9996e+07,0,0.14,0.01,0.92,22.9,22.9,0.01,0.01,3
23792,7.0006e+07,0,0.15,0.01,0.96,22.93,22.92,0.01,0.01,3
23838,7.0017e+07,0,0.1,0.01,0.89,22.89,22.89,0.01,0,3
23883,7.0027e+07,0,0.15,0.01,0.97,22.93,22.93,0.01,0,3
23928,7.0037e+07,0,0.14,0.01,0.9,22.92,22.91,0.01,0,3
23972,7.0047e+07,0,0.12,0.01,0.97,22.93,22.93,0.01,0,3
24017,7.0057e+07,0,0.1,0.01,0.92,22.9,22.9,0.01,0,3
24065,7.007e+07,0,0.1,0.01,0.96,22.91,22.91,0.01,0,3
24109,7.0081e+07,0,0.12,0.01,0.98,22.92,22.92,0.01,0,3
24156,7.0091e+07,0,0.08,0.01,0.94,22.88,22.88,0.01,0,3
24194,7.0102e+07,0,0.15,0.01,0.97,22.9,22.9,0.01,0,3
24241,7.0113e+07,0,0.14,0.01,0.93,22.88,22.88,0.01,0,3
24289,7.0123e+07,0,0.14,0.01,0.98,22.91,22.91,0.01,0,3
24334,7.0133e+07,0,0.09,0.01,0.9,22.86,22.86,0.01,0,3
24378,7.0143e+07,0,0.13,0.01,0.99,22.91,22.9,0.01,0,3
24424,7.0154e+07,0,0.13,0.01,0.92,22.89,22.89,0.01,0,3
24468,7.0164e+07,0,0.12,0.01,0.99,22.92,22.92,0.01,0,3
24514,7.0174e+07,0,0.09,0.01,0.92,22.89,22.89,0.01,0,3
24559,7.0184e+07,0,0.11,0.01,1.01,22.92,22.92,0.01,0,3
24603,7.0194e+07,0,0.12,0.01,0.96,22.92,22.92,0.01,0,3
24648,7.0204e+07,0,0.09,0.01,0.98,22.91,22.91,0.01,0,3
24697,7.0215e+07,0,0.11,0.01,0.95,22.91,22.91,0.01,0,3
24745,7.0225e+07,0,0.11,0.01,0.98,22.91,22.91,0.01,0,3
24789,7.0235e+07,0,0.13,0.01,0.98,22.92,22.92,0.01,0,3
24834,7.0245e+07,0,0.1,0.01,0.95,22.89,22.88,0.01,0,3
24879,7.0255e+07,0,0.13,0.01,0.96,22.9,22.9,0.01,0,3
24923,7.0266e+07,0,0.14,0.01,0.92,22.88,22.88,0.01,0,3
24968,7.0276e+07,0,0.16,0.01,0.99,22.92,22.92,0.01,0,3
25012,7.0287e+07,0,0.11,0.01,0.89,22.86,22.86,0.01,0,3
25059,7.0297e+07,0,0.18,0.01,0.98,22.91,22.91,0.01,0,3
25098,7.0307e+07,0,0.16,0.01,0.91,22.88,22.88,0.01,0,3
25148,7.0318e+07,0,0.16,0.01,0.98,22.92,22.92,0.01,0,3
25195,7.0328e+07,0,0.12,0.01,0.9,22.88,22.88,0.01,0,3
25239,7.0338e+07,0,0.16,0.01,0.99,22.92,22.92,0.01,0,3
25284,7.0349e+07,0,0.14,0.01,0.94,22.91,22.91,0.01,0,3
25328,7.0359e+07,0,0.12,0.01,0.99,22.92,22.92,0.01,0,3
25374,7.0369e+07,0,0.1,0.01,0.94,22.9,22.9,0.01,0,3
25419,7.038e+07,0,0.12,0.01,0.99,22.91,22.91,0.01,0,3
25463,7.039e+07,0,0.13,0.01,0.96,22.91,22.91,0.01,0,3
25508,7.0401e+07,0,0.11,0.01,0.94,22.88,22.88,0.01,0,3
25552,7.0411e+07,0,0.17,0.01,0.98,22.91,22.9,0.01,0,3
25602,7.0421e+07,0,0.16,0.01,0.94,22.88,22.88,0.01,0.01,3
25647,7.0431e+07,0,0.16,0.01,1,22.91,22.91,0.01,0.01,3
25693,7.0442e+07,0,0.13,0.01,0.92,22.86,22.86,0.01,0.01,3
25742,7.0455e+07,0,0.11,0.01,0.99,22.9,22.9,0.01,0.01,3
25786,7.0466e+07,0,0.13,0.01,0.95,22.89,22.89,0.01,0.01,3
25831,7.0476e+07,0,0.09,0.01,0.98,22.9,22.9,0.01,0.01,3
25875,7.0486e+07,0,0.09,0.01,0.95,22.89,22.89,0.01,0.01,3
25920,7.0497e+07,0,0.1,0.01,0.99,22.9,22.9,0.01,0.01,3
25966,7.051e+07,0,0.15,0.01,1,22.94,22.94,0.01,0.01,3
26009,7.052e+07,0,0.1,0.01,0.92,22.89,22.89,0.01,0.01,3
26057,7.053e+07,0,0.12,0.01,1,22.94,22.94,0.01,0.01,3
26103,7.054e+07,0,0.12,0.01,0.94,22.91,22.91,0.01,0.01,3
26149,7.0551e+07,0,0.1,0.01,1.01,22.94,22.94,0.01,0.01,3
26193,7.056e+07,0,0.07,0.01,0.92,22.89,22.89,0.01,0.01,3
26238,7.0571e+07,0,0.08,0.01,1.01,22.92,22.92,0.01,0.01,3
26284,7.0581e+07,0,0.1,0.01,0.96,22.92,22.92,0.01,0.01,3
26328,7.0592e+07,0,0.08,0.01,0.97,22.91,22.91,0.01,0.01,3
26373,7.0603e+07,0,0.11,0.01,0.98,22.91,22.91,0.01,0.01,3
26417,7.0613e+07,0,0.12,0.01,0.96,22.9,22.9,0.01,0.01,3
26462,7.0623e+07,0,0.15,0.01,1,22.93,22.93,0.01,0.01,3
26509,7.0633e+07,0,0.12,0.01,0.94,22.9,22.89,0.01,0.01,3
26555,7.0643e+07,0,0.16,0.01,0.99,22.92,22.92,0.01,0.01,3
26602,7.0653e+07,0,0.16,0.01,0.95,22.91,22.91,0.01,0.01,3
26646,7.0664e+07,0,0.17,0.01,1,22.95,22.95,0.01,0.01,3
26691,7.0673e+07,0,0.13,0.01,0.93,22.91,22.91,0.01,0.01,3
26735,7.0684e+07,0,0.16,0.01,0.99,22.94,22.94,0.01,0.01,3
26781,7.0694e+07,0,0.16,0.01,0.95,22.93,22.92,0.01,0.01,3
26827,7.0704e+07,0,0.13,0.01,0.99,22.94,22.94,0.01,0.01,3
26874,7.072e+07,0,0.13,0.01,0.98,22.93,22.93,0.01,0.01,3
26922,7.0731e+07,0,0.13,0.01,0.95,22.91,22.91,0.01,0.01,3
26967,7.0741e+07,0,0.13,0.01,1.01,22.94,22.94,0.01,0.01,3
27012,7.0751e+07,0,0.11,0.01,0.94,22.89,22.89,0.01,0.01,3
27057,7.0761e+07,0,0.14,0.01,0.99,22.92,22.92,0.01,0.01,3
27101,7.0771e+07,0,0.16,0.01,0.94,22.9,22.9,0.01,0.01,3
27146,7.0782e+07,0,0.14,0.01,0.99,22.93,22.92,0.01,0.01,3
27195,7.0795e+07,0,0.13,0.01,0.95,22.9,22.9,0.01,0.01,3
27240,7.0805e+07,0,0.14,0.01,0.95,22.91,22.9,0.01,0.01,3
27285,7.0816e+07,0,0.17,0.01,0.99,22.93,22.93,0.01,0.01,3
27330,7.0826e+07,0,0.13,0.01,0.94,22.9,22.9,0.01,0.01,3
27379,7.0836e+07,0,0.15,0.01,0.98,22.92,22.92,0.01,0.01,3
27424,7.0846e+07,0,0.14,0.01,0.95,22.91,22.91,0.01,0.01,3
27469,7.0856e+07,0,0.16,0.01,1,22.94,22.93,0.01,0.01,3
27515,7.0866e+07,0,0.11,0.01,0.94,22.9,22.9,0.01,0.01,3
27560,7.0876e+07,0,0.13,0.01,0.98,22.92,22.91,0.01,0.01,3
27604,7.0887e+07,0,0.14,0.01,0.95,22.9,22.9,0.01,0.01,3
27648,7.0897e+07,0,0.12,0.01,0.98,22.92,22.92,0.01,0.01,3
27693,7.0907e+07,0,0.11,0.01,0.94,22.89,22.88,0.01,0.01,3
27740,7.092e+07,0,0.11,0.01,0.94,22.89,22.89,0.01,0.01,3
27782,7.0931e+07,0,0.16,0.01,0.97,22.91,22.91,0.01,0.01,3
27829,7.0941e+07,0,0.12,0.01,0.94,22.89,22.89,0.01,0.01,3
27874,7.095e+07,0,0.13,0.01,0.96,22.9,22.89,0.01,0.01,3
27919,7.0961e+07,0,0.14,0.01,0.95,22.9,22.9,0.01,0.01,3
27967,7.0973e+07,0,0.17,0.01,0.98,22.92,22.92,0.01,0.01,3
28012,7.0983e+07,0,0.14,0.01,0.94,22.89,22.89,0.01,0.01,3
28054,7.0994e+07,0,0.15,0.01,0.96,22.91,22.91,0.01,0.01,3
28100,7.1004e+07,0,0.17,0.01,0.95,22.91,22.91,0.01,0.01,3
28144,7.1014e+07,0,0.14,0.01,0.97,22.92,22.92,0.01,0.01,3
28189,7.1025e+07,0,0.12,0.01,0.94,22.9,22.9,0.01,0.01,3
28236,7.1035e+07,0,0.13,0.01,0.95,22.91,22.91,0.01,0.01,3
28283,7.1045e+07,0,0.15,0.01,0.97,22.91,22.91,0.01,0.01,3
28327,7.1056e+07,0,0.11,0.01,0.96,22.9,22.9,0.01,0.01,3
28372,7.1066e+07,0,0.1,0.01,0.97,22.9,22.9,0.01,0.01,3
28417,7.1076e+07,0,0.12,0.01,0.96,22.9,22.9,0.01,0.01,3
28462,7.1088e+07,0,0.17,0.01,0.97,22.92,22.91,0.01,0.01,3
28511,7.1099e+07,0,0.15,0.01,0.94,22.9,22.89,0.01,0.01,3
28550,7.1109e+07,0,0.14,0.01,0.95,22.9,22.9,0.01,0.01,3
28595,7.112e+07,0,0.15,0.01,0.96,22.91,22.91,0.01,0.01,3
28639,7.113e+07,0,0.13,0.01,0.96,22.92,22.92,0.01,0.01,3
28687,7.114e+07,0,0.12,0.01,0.95,22.91,22.91,0.01,0.01,3
28733,7.1151e+07,0,0.11,0.01,0.94,22.91,22.9,0.01,0.01,3
28778,7.1161e+07,0,0.15,0.01,0.98,22.92,22.92,0.01,0.01,3
28823,7.1171e+07,0,0.1,0.01,0.95,22.91,22.91,0.01,0.01,3
28867,7.1181e+07,0,0.11,0.01,0.98,22.91,22.91,0.01,0.01,3
28913,7.1191e+07,0,0.1,0.01,0.94,22.9,22.9,0.01,0.01,3
28959,7.1202e+07,0,0.16,0.01,0.99,22.92,22.92,0.01,0.01,3
29008,7.1215e+07,0,0.14,0.01,0.94,22.9,22.9,0.01,0.01,3
29052,7.1225e+07,0,0.11,0.01,0.95,22.9,22.9,0.01,0.01,3
29097,7.1236e+07,0,0.14,0.01,0.96,22.91,22.91,0.01,0.01,3
29145,7.1245e+07,0,0.11,0.01,0.95,22.91,22.91,0.01,0.01,3
29190,7.1256e+07,0,0.11,0.01,0.94,22.91,22.9,0.01,0.01,3
29235,7.1266e+07,0,0.11,0.01,0.93,22.9,22.9,0.01,0.01,3
29280,7.1276e+07,0,0.14,0.01,0.95,22.92,22.92,0.01,0.01,3
29328,7.1289e+07,0,0.12,0.01,0.92,22.91,22.9,0.01,0.01,3
29373,7.1299e+07,0,0.12,0.01,0.95,22.91,22.91,0.01,0.01,3
29417,7.1312e+07,0,0.17,0.01,0.95,22.92,22.92,0.01,0.01,3
29459,7.1323e+07,0,0.15,0.01,0.95,22.92,22.92,0.01,0.01,3
29504,7.1333e+07,0,0.14,0.01,0.94,22.92,22.92,0.01,0.01,3
29552,7.1344e+07,0,0.13,0.01,0.92,22.91,22.91,0.01,0.01,3
29598,7.1354e+07,0,0.17,0.01,0.95,22.93,22.93,0.01,0.01,3
29642,7.1364e+07,0,0.13,0.01,0.92,22.92,22.91,0.01,0.01,3
29687,7.1374e+07,0,0.11,0.01,0.94,22.92,22.92,0.01,0.01,3
29731,7.1384e+07,0,0.11,0.01,0.91,22.91,22.9,0.01,0.01,3
29776,7.1394e+07,0,0.14,0.01,0.96,22.92,22.92,0.01,0.01,3
29821,7.1405e+07,0,0.1,0.01,0.93,22.91,22.9,0.01,0.01,3
29867,7.1415e+07,0,0.1,0.01,0.96,22.91,22.91,0.01,0.01,3
29912,7.1425e+07,0,0.13,0.01,0.94,22.9,22.9,0.01,0.01,3
29957,7.1435e+07,0,0.15,0.01,0.98,22.92,22.92,0.01,0.01,3
30006,7.1445e+07,0,0.12,0.01,0.95,22.9,22.9,0.01,0.01,3
30052,7.1456e+07,0,0.11,0.01,0.97,22.91,22.91,0.01,0.01,3
30096,7.1466e+07,0,0.16,0.01,0.95,22.91,22.91,0.01,0.01,3
30141,7.1476e+07,0,0.17,0.01,0.97,22.93,22.93,0.01,0.01,3
30186,7.1487e+07,0,0.15,0.01,0.93,22.91,22.91,0.01,0.01,3
30231,7.1497e+07,0,0.14,0.01,0.93,22.92,22.92,0.01,0.01,3
30276,7.1507e+07,0,0.16,0.01,0.96,22.93,22.93,0.01,0.01,3
30319,7.1518e+07,0,0.13,0.01,0.94,22.92,22.92,0.01,0.01,3
30364,7.1531e+07,0,0.11,0.01,0.97,22.92,22.92,0.01,0.01,3
30410,7.1541e+07,0,0.15,0.01,0.95,22.92,22.92,0.01,0.01,3
30458,7.1552e+07,0,0.15,0.01,0.98,22.93,22.93,0.01,0,3
30503,7.1562e+07,0,0.13,0.01,0.95,22.92,22.91,0.01,0,3
30552,7.1574e+07,0,0.1,0.01,0.93,22.92,22.91,0.01,0,3
30598,7.1585e+07,0,0.14,0.01,0.96,22.93,22.93,0.01,0,3
30642,7.1594e+07,0,0.11,0.01,0.92,22.92,22.92,0.01,0,3
30687,7.1604e+07,0,0.1,0.01,0.93,22.92,22.92,0.01,0,3
30731,7.1615e+07,0,0.11,0.01,0.9,22.92,22.91,0.01,0,3
30777,7.1625e+07,0,0.15,0.01,0.95,22.94,22.94,0.01,0,3
30821,7.1635e+07,0,0.13,0.01,0.91,22.92,22.92,0.01,0,3
30866,7.1645e+07,0,0.11,0.01,0.94,22.93,22.92,0.01,0,3
30913,7.1655e+07,0,0.14,0.01,0.91,22.92,22.91,0.01,0.01,3
30960,7.1665e+07,0,0.17,0.01,0.96,22.94,22.94,0.01,0.01,3
31005,7.1675e+07,0,0.15,0.01,0.92,22.92,22.92,0.01,0.01,3
31049,7.1685e+07,0,0.13,0.01,0.96,22.92,22.92,0.01,0.01,3
31098,7.1698e+07,0,0.16,0.01,0.95,22.92,22.92,0.01,0.01,3
31140,7.1709e+07,0,0.13,0.01,0.93,22.92,22.92,0.01,0.01,3
31184,7.172e+07,0,0.13,0.01,0.92,22.91,22.91,0.01,0.01,3
31231,7.173e+07,0,0.12,0.01,0.91,22.91,22.91,0.01,0.01,3
31275,7.174e+07,0,0.15,0.01,0.93,22.93,22.92,0.01,0.01,3
31320,7.175e+07,0,0.12,0.01,0.93,22.92,22.92,0.01,0.01,3
31368,7.176e+07,0,0.1,0.01,0.93,22.92,22.92,0.01,0,3
31413,7.1771e+07,0,0.12,0.01,0.92,22.92,22.92,0.01,0,3
31458,7.1781e+07,0,0.16,0.01,0.97,22.93,22.93,0.01,0,3
31503,7.1791e+07,0,0.14,0.01,0.94,22.93,22.92,0.01,0,3
31551,7.1804e+07,0,0.12,0.01,0.96,22.93,22.93,0.01,0,3
31595,7.1814e+07,0,0.16,0.01,0.96,22.93,22.93,0.01,0,3
31640,7.1824e+07,0,0.16,0.01,0.96,22.95,22.94,0.01,0,3
31685,7.1834e+07,0,0.15,0.01,0.94,22.92,22.92,0.01,0,3
31731,7.1844e+07,0,0.12,0.01,0.92,22.93,22.92,0.01,0,3
31779,7.1855e+07,0,0.16,0.01,0.95,22.93,22.93,0.01,0,3
31824,7.1865e+07,0,0.13,0.01,0.92,22.93,22.92,0.01,0,3
31870,7.1875e+07,0,0.12,0.01,0.94,22.91,22.91,0.01,0,3
31914,7.1886e+07,0,0.11,0.01,0.91,22.9,22.9,0.01,0,3
31959,7.1896e+07,0,0.14,0.01,0.97,22.92,22.92,0.01,0,3
32006,7.1913e+07,0,0.11,0.01,0.95,22.91,22.9,0.01,0,3
32051,7.1923e+07,0,0.09,0.01,0.92,22.9,22.9,0.01,0,3
32096,7.1934e+07,0,0.13,0.01,0.98,22.92,22.92,0.01,0,3
32141,7.1944e+07,0,0.1,0.01,0.94,22.91,22.91,0.01,0,3
32186,7.1954e+07,0,0.1,0.01,0.96,22.91,22.91,0.01,0,3
32234,7.1965e+07,0,0.12,0.01,0.92,22.91,22.91,0.01,0.01,3
32280,7.1975e+07,0,0.15,0.01,0.98,22.94,22.93,0.01,0.01,3
32326,7.1985e+07,0,0.15,0.01,0.93,22.92,22.92,0.01,0.01,3
32370,7.1995e+07,0,0.13,0.01,0.96,22.93,22.93,0.01,0.01,3
32415,7.2005e+07,0,0.18,0.01,0.94,22.92,22.91,0.01,0.01,3
32460,7.2016e+07,0,0.18,0.01,0.98,22.94,22.93,0.01,0.01,3
32504,7.2026e+07,0,0.17,0.01,0.94,22.91,22.91,0.01,0.01,3
32549,7.2037e+07,0,0.13,0.01,0.96,22.91,22.91,0.01,0.01,3
32593,7.2047e+07,0,0.17,0.01,0.96,22.91,22.91,0.01,0.01,3
32640,7.2057e+07,0,0.16,0.01,0.96,22.92,22.92,0.01,0.01,3
32687,7.2067e+07,0,0.16,0.01,0.96,22.9,22.9,0.01,0.01,3
32733,7.2077e+07,0,0.11,0.01,0.93,22.9,22.9,0.01,0.01,3
32778,7.2088e+07,0,0.16,0.01,0.97,22.91,22.91,0.01,0.01,3
32822,7.2098e+07,0,0.14,0.01,0.92,22.91,22.91,0.01,0.01,3
32869,7.2108e+07,0,0.14,0.01,0.95,22.9,22.9,0.01,0.01,3
32907,7.212e+07,0,0.15,0.01,0.91,22.9,22.9,0.01,0.01,3
32952,7.213e+07,0,0.15,0.01,0.98,22.92,22.92,0.01,0.01,3
32996,7.2141e+07,0,0.16,0.01,0.94,22.9,22.9,0.01,0.01,3
33042,7.2151e+07,0,0.11,0.01,0.96,22.91,22.9,0.01,0.01,3
33087,7.2161e+07,0,0.18,0.01,0.94,22.89,22.89,0.01,0.01,3
33134,7.2172e+07,0,0.18,0.01,0.97,22.91,22.91,0.01,0.01,3
33181,7.2183e+07,0,0.18,0.01,0.93,22.89,22.88,0.01,0.01,3
33227,7.2194e+07,0,0.13,0.01,0.92,22.88,22.88,0.01,0.01,3
33273,7.2204e+07,0,0.18,0.01,0.95,22.89,22.89,0.01,0.01,3
33317,7.2214e+07,0,0.16,0.01,0.92,22.89,22.89,0.01,0.01,3
33362,7.2224e+07,0,0.16,0.01,0.94,22.88,22.88,0.01,0.01,3
33407,7.2235e+07,0,0.14,0.01,0.9,22.88,22.87,0.01,0.01,3
33451,7.2245e+07,0,0.16,0.01,0.97,22.9,22.9,0.01,0.01,3
33497,7.2255e+07,0,0.14,0.01,0.93,22.89,22.88,0.01,0.01,3
33541,7.2265e+07,0,0.11,0.01,0.97,22.89,22.89,0.01,0.01,3
33590,7.2275e+07,0,0.13,0.01,0.93,22.88,22.88,0.01,0.01,3
33636,7.2285e+07,0,0.13,0.01,0.98,22.9,22.9,0.01,0.01,3
33682,7.2296e+07,0,0.12,0.01,0.95,22.88,22.88,0.01,0.01,3
33728,7.2312e+07,0,0.11,0.01,0.91,22.87,22.87,0.01,0.01,3
33773,7.2323e+07,0,0.13,0.01,0.98,22.89,22.89,0.01,0.01,3
33817,7.2333e+07,0,0.13,0.01,0.93,22.87,22.87,0.01,0.01,3
33861,7.2344e+07,0,0.09,0.01,0.96,22.87,22.87,0.01,0.01,3
33906,7.2354e+07,0,0.14,0.01,0.93,22.86,22.86,0.01,0.01,3
33951,7.2364e+07,0,0.14,0.01,0.97,22.88,22.88,0.01,0.01,3
33998,7.2374e+07,0,0.14,0.01,0.95,22.87,22.87,0.01,0.01,3
34045,7.2385e+07,0,0.09,0.01,0.94,22.87,22.87,0.01,0.01,3
34089,7.2395e+07,0,0.17,0.01,0.96,22.87,22.87,0.01,0.01,3
34135,7.2405e+07,0,0.17,0.01,0.92,22.88,22.88,0.01,0.01,3
34180,7.2415e+07,0,0.16,0.01,0.94,22.87,22.86,0.01,0.01,3
34224,7.2425e+07,0,0.1,0.01,0.91,22.87,22.86,0.01,0.01,3
34269,7.2436e+07,0,0.15,0.01,0.96,22.88,22.87,0.01,0.01,3
34313,7.2447e+07,0,0.14,0.01,0.93,22.88,22.88,0.01,0.01,3
34359,7.2457e+07,0,0.12,0.01,0.94,22.86,22.86,0.01,0.01,3
34403,7.2467e+07,0,0.1,0.01,0.92,22.87,22.87,0.01,0.01,3
34454,7.2478e+07,0,0.11,0.01,0.96,22.88,22.87,0.01,0.01,3
34500,7.2489e+07,0,0.11,0.01,0.96,22.88,22.87,0.01,0.01,3
34544,7.2499e+07,0,0.07,0.01,0.95,22.86,22.86,0.01,0.01,3
34591,7.2515e+07,0,0.14,0.01,0.97,22.87,22.87,0.01,0.01,3
34637,7.2526e+07,0,0.14,0.01,0.94,22.87,22.87,0.01,0.01,3
34681,7.2537e+07,0,0.11,0.01,0.95,22.86,22.86,0.01,0.01,3
34726,7.2547e+07,0,0.15,0.01,0.95,22.87,22.87,0.01,0.01,3
34770,7.2557e+07,0,0.14,0.01,0.97,22.88,22.88,0.01,0.01,3
34815,7.2567e+07,0,0.14,0.01,0.97,22.88,22.88,0.01,0.01,3
34860,7.2577e+07,0,0.08,0.01,0.93,22.86,22.86,0.01,0.01,3
34907,7.2587e+07,0,0.15,0.01,0.97,22.88,22.88,0.01,0.01,3
34955,7.2598e+07,0,0.12,0.01,0.94,22.88,22.88,0.01,0.01,3
34999,7.2608e+07,0,0.12,0.01,0.97,22.88,22.88,0.01,0.01,3
35045,7.2618e+07,0,0.05,0.01,0.91,22.86,22.86,0.01,0.01,3
35089,7.2628e+07,0,0.12,0.01,0.97,22.88,22.88,0.01,0.01,3
35138,7.2641e+07,0,0.14,0.01,0.93,22.88,22.88,0.01,0.01,3
35183,7.2651e+07,0,0.13,0.01,0.95,22.87,22.87,0.01,0.01,3
35227,7.2661e+07,0,0.12,0.01,0.93,22.87,22.87,0.01,0.01,3
35272,7.2671e+07,0,0.12,0.01,0.96,22.88,22.88,0.01,0.01,3
35316,7.2682e+07,0,0.14,0.01,0.96,22.89,22.88,0.01,0.01,3
35366,7.2692e+07,0,0.1,0.01,0.94,22.86,22.86,0.01,0.01,3
35413,7.2703e+07,0,0.14,0.01,0.95,22.88,22.88,0.01,0.01,3
35459,7.2713e+07,0,0.13,0.01,0.95,22.87,22.87,0.01,0.01,3
35499,7.2724e+07,0,0.14,0.01,0.97,22.88,22.88,0.01,0.01,3
35544,7.2734e+07,0,0.08,0.01,0.92,22.86,22.86,0.01,0.01,3
35591,7.2747e+07,0,0.17,0.01,0.98,22.88,22.88,0.01,0.01,3
35636,7.2757e+07,0,0.17,0.01,0.95,22.88,22.88,0.01,0.01,3
35681,7.2768e+07,0,0.15,0.01,0.96,22.88,22.87,0.01,0.01,3
35726,7.2778e+07,0,0.13,0.01,0.93,22.88,22.87,0.01,0.01,3
35774,7.2788e+07,0,0.14,0.01,0.97,22.89,22.89,0.01,0.01,3
35819,7.2799e+07,0,0.13,0.01,0.95,22.89,22.89,0.01,0.01,3
35864,7.2809e+07,0,0.09,0.01,0.94,22.87,22.87,0.01,0.01,3
35909,7.282e+07,0,0.12,0.01,0.95,22.88,22.88,0.01,0.01,3
35954,7.283e+07,0,0.1,0.01,0.94,22.88,22.88,0.01,0.01,3
36001,7.284e+07,0,0.11,0.01,0.98,22.89,22.89,0.01,0.01,3
36045,7.2851e+07,0,0.05,0.01,0.92,22.86,22.86,0.01,0.01,3
36090,7.2862e+07,0,0.13,0.01,0.99,22.89,22.89,0.01,0.01,3
36134,7.2872e+07,0,0.13,0.01,0.94,22.88,22.88,0.01,0.01,3
36178,7.2882e+07,0,0.13,0.01,0.98,22.89,22.89,0.01,0.01,3
36226,7.2893e+07,0,0.11,0.01,0.93,22.87,22.87,0.01,0.01,3
36271,7.2903e+07,0,0.14,0.01,0.98,22.89,22.89,0.01,0,3
36317,7.2914e+07,0,0.15,0.01,0.95,22.89,22.89,0.01,0,3
36365,7.2924e+07,0,0.12,0.01,0.95,22.87,22.87,0.01,0,3
36403,7.2935e+07,0,0.13,0.01,0.95,22.88,22.88,0.01,0,3
36448,7.2945e+07,0,0.13,0.01,0.94,22.88,22.88,0.01,0,3
36496,7.2958e+07,0,0.14,0.01,0.98,22.89,22.89,0.01,0,3
36541,7.2968e+07,0,0.08,0.01,0.91,22.86,22.86,0.01,0,3
36585,7.2978e+07,0,0.14,0.01,0.99,22.89,22.89,0.01,0,3
36631,7.2989e+07,0,0.14,0.01,0.93,22.88,22.88,0.01,0,3
36678,7.2999e+07,0,0.13,0.01,0.98,22.89,22.88,0.01,0,3
36724,7.3009e+07,0,0.09,0.01,0.93,22.86,22.86,0.01,0,3
36769,7.3019e+07,0,0.13,0.01,1,22.89,22.89,0.01,0,3
36813,7.3029e+07,0,0.13,0.01,0.96,22.88,22.88,0.01,0,3
36858,7.304e+07,0,0.11,0.01,0.97,22.87,22.87,0.01,0,3
36904,7.305e+07,0,0.11,0.01,0.95,22.87,22.87,0.01,0,3
36949,7.306e+07,0,0.12,0.01,0.97,22.88,22.88,0.01,0,3
36993,7.307e+07,0,0.13,0.01,0.97,22.89,22.89,0.01,0,3
37038,7.3081e+07,0,0.1,0.01,0.93,22.86,22.86,0.01,0,3
37083,7.3091e+07,0,0.13,0.01,0.96,22.89,22.89,0.01,0,3
37130,7.3102e+07,0,0.14,0.01,0.93,22.88,22.87,0.01,0,3
37179,7.3112e+07,0,0.14,0.01,0.97,22.9,22.9,0.01,0,3
37217,7.3123e+07,0,0.09,0.01,0.92,22.86,22.86,0.01,0,3
37261,7.3133e+07,0,0.14,0.01,0.99,22.9,22.89,0.01,0,3
37307,7.3143e+07,0,0.13,0.01,0.94,22.88,22.87,0.01,0,3
37352,7.3153e+07,0,0.12,0.01,0.99,22.89,22.89,0.01,0,3
37396,7.3164e+07,0,0.07,0.01,0.93,22.86,22.86,0.01,0,3
37441,7.3174e+07,0,0.12,0.01,1,22.89,22.89,0.01,0,3
37488,7.3184e+07,0,0.12,0.01,0.96,22.88,22.88,0.01,0,3
37533,7.3194e+07,0,0.1,0.01,0.98,22.88,22.88,0.01,0,3
37580,7.3204e+07,0,0.09,0.01,0.94,22.87,22.86,0.01,0.01,3
37626,7.3214e+07,0,0.11,0.01,0.98,22.89,22.89,0.01,0.01,3
37672,7.3224e+07,0,0.12,0.01,0.95,22.88,22.88,0.01,0.01,3
37716,7.3234e+07,0,0.1,0.01,0.95,22.88,22.88,0.01,0.01,3
37761,7.3244e+07,0,0.1,0.01,0.93,22.87,22.87,0.01,0.01,3
37806,7.3254e+07,0,0.12,0.01,0.96,22.89,22.89,0.01,0.01,3
37851,7.3265e+07,0,0.13,0.01,0.96,22.89,22.89,0.01,0.01,3
37895,7.3275e+07,0,0.09,0.01,0.92,22.86,22.86,0.01,0.01,3
37941,7.3285e+07,0,0.11,0.01,0.96,22.89,22.88,0.01,0.01,3
37986,7.3295e+07,0,0.13,0.01,0.93,22.87,22.87,0.01,0.01,3
38033,7.3305e+07,0,0.13,0.01,0.98,22.9,22.9,0.01,0.01,3
38081,7.3318e+07,0,0.09,0.01,0.93,22.86,22.86,0.01,0.01,3
38122,7.3328e+07,0,0.11,0.01,0.99,22.89,22.89,0.01,0.01,3
38167,7.3339e+07,0,0.12,0.01,0.96,22.89,22.89,0.01,0.01,3
38214,7.3349e+07,0,0.09,0.01,0.96,22.88,22.88,0.01,0.01,3
38261,7.3363e+07,0,0.12,0.01,0.98,22.89,22.89,0.01,0.01,3
38306,7.3373e+07,0,0.15,0.01,0.92,22.88,22.88,0.01,0.01,3
38350,7.3384e+07,0,0.14,0.01,0.98,22.9,22.9,0.01,0.01,3
38395,7.3394e+07,0,0.11,0.01,0.9,22.86,22.86,0.01,0.01,3
38440,7.3404e+07,0,0.15,0.01,0.98,22.9,22.9,0.01,0.01,3
38488,7.3414e+07,0,0.17,0.01,0.93,22.88,22.88,0.01,0.01,3
38534,7.3425e+07,0,0.13,0.01,0.97,22.89,22.89,0.01,0.01,3
38578,7.3435e+07,0,0.11,0.01,0.93,22.87,22.87,0.01,0.01,3
38623,7.3446e+07,0,0.11,0.01,0.97,22.89,22.89,0.01,0.01,3
38668,7.3457e+07,0,0.11,0.01,0.98,22.9,22.9,0.01,0.01,3
38713,7.3467e+07,0,0.07,0.01,0.93,22.87,22.87,0.01,0.01,3
38762,7.348e+07,0,0.12,0.01,0.97,22.9,22.89,0.01,0.01,3
38806,7.349e+07,0,0.14,0.01,0.91,22.88,22.88,0.01,0.01,3
38853,7.3504e+07,0,0.08,0.01,0.95,22.89,22.89,0.01,0.01,3
38899,7.3514e+07,0,0.07,0.01,0.96,22.88,22.88,0.01,0.01,3
38945,7.3525e+07,0,0.08,0.01,0.96,22.89,22.89,0.01,0.01,3
38991,7.3535e+07,0,0.1,0.01,0.99,22.9,22.9,0.01,0.01,3
39035,7.3545e+07,0,0.06,0.01,0.93,22.88,22.88,0.01,0.01,3
39081,7.3556e+07,0,0.1,0.01,0.98,22.88,22.88,0.01,0.01,3
39126,7.3566e+07,0,0.14,0.01,0.93,22.88,22.88,0.01,0.01,3
39170,7.3577e+07,0,0.14,0.01,1,22.9,22.9,0.01,0.01,3
39215,7.3587e+07,0,0.11,0.01,0.91,22.86,22.86,0.01,0.01,3
39259,7.3598e+07,0,0.14,0.01,0.99,22.89,22.89,0.01,0.01,3
39304,7.3608e+07,0,0.17,0.01,0.94,22.88,22.88,0.01,0.01,3
39353,7.3618e+07,0,0.13,0.01,0.98,22.89,22.89,0.01,0.01,3
39398,7.3629e+07,0,0.1,0.01,0.93,22.87,22.86,0.01,0.01,3
39443,7.3639e+07,0,0.1,0.01,0.97,22.88,22.88,0.01,0.01,3
39487,7.3649e+07,0,0.13,0.01,0.96,22.89,22.89,0.01,0.01,3
39534,7.3659e+07,0,0.09,0.01,0.95,22.88,22.88,0.01,0.01,3
39582,7.3671e+07,0,0.1,0.01,0.97,22.88,22.88,0.01,0.01,3
39629,7.3682e+07,0,0.1,0.01,0.94,22.88,22.88,0.01,0.01,3
39674,7.3692e+07,0,0.11,0.01,0.99,22.9,22.9,0.01,0.01,3
39718,7.3702e+07,0,0.07,0.01,0.91,22.86,22.86,0.01,0.01,3
39762,7.3713e+07,0,0.11,0.01,0.98,22.88,22.88,0.01,0.01,3
39807,7.3724e+07,0,0.13,0.01,0.93,22.88,22.88,0.01,0.01,3
39852,7.3734e+07,0,0.11,0.01,0.97,22.89,22.89,0.01,0.01,3
39897,7.3744e+07,0,0.1,0.01,0.91,22.86,22.86,0.01,0.01,3
39941,7.3754e+07,0,0.12,0.01,0.96,22.88,22.88,0.01,0.01,3
39988,7.3764e+07,0,0.16,0.01,0.93,22.88,22.88,0.01,0.01,3
40032,7.3774e+07,0,0.12,0.01,0.94,22.88,22.88,0.01,0.01,3
40077,7.3784e+07,0,0.12,0.01,0.93,22.87,22.87,0.01,0.01,3
40122,7.3795e+07,0,0.12,0.01,0.96,22.88,22.88,0.01,0.01,3
40166,7.3805e+07,0,0.15,0.01,0.96,22.89,22.89,0.01,0.01,3
40211,7.3815e+07,0,0.11,0.01,0.94,22.87,22.87,0.01,0.01,3
40258,7.3825e+07,0,0.12,0.01,0.95,22.88,22.88,0.01,0.01,3
40305,7.3835e+07,0,0.12,0.01,0.96,22.88,22.88,0.01,0.01,3
40351,7.3846e+07,0,0.14,0.01,0.99,22.9,22.9,0.01,0.01,3
40396,7.3856e+07,0,0.09,0.01,0.93,22.87,22.87,0.01,0.01,3
40442,7.3866e+07,0,0.14,0.01,0.96,22.89,22.89,0.01,0.01,3
40486,7.3876e+07,0,0.13,0.01,0.93,22.88,22.88,0.01,0.01,3
40530,7.3886e+07,0,0.14,0.01,0.97,22.9,22.9,0.01,0.01,3
40574,7.3896e+07,0,0.1,0.01,0.91,22.87,22.87,0.01,0.01,3
40619,7.3907e+07,0,0.13,0.01,0.97,22.89,22.89,0.01,0.01,3
40664,7.3921e+07,0,0.14,0.01,0.98,22.9,22.9,0.01,0.01,3
40711,7.3932e+07,0,0.1,0.01,0.94,22.87,22.87,0.01,0.01,3
40757,7.3942e+07,0,0.13,0.01,0.97,22.88,22.88,0.01,0.01,3
40801,7.3952e+07,0,0.13,0.01,0.96,22.88,22.88,0.01,0.01,3
40846,7.3963e+07,0,0.16,0.01,1,22.9,22.9,0.01,0.01,3
40890,7.3974e+07,0,0.12,0.01,0.92,22.87,22.87,0.01,0.01,3
40937,7.3984e+07,0,0.14,0.01,0.97,22.88,22.88,0.01,0.01,3
40981,7.3995e+07,0,0.15,0.01,0.93,22.88,22.88,0.01,0.01,3
41026,7.4005e+07,0,0.12,0.01,0.96,22.88,22.88,0.01,0.01,3
41071,7.4015e+07,0,0.09,0.01,0.92,22.87,22.87,0.01,0.01,3
41115,7.4025e+07,0,0.1,0.01,0.96,22.87,22.87,0.01,0.01,3
41163,7.4035e+07,0,0.13,0.01,0.95,22.89,22.88,0.01,0.01,3
41209,7.4046e+07,0,0.08,0.01,0.95,22.87,22.87,0.01,0.01,3
41254,7.4056e+07,0,0.09,0.01,0.95,22.87,22.87,0.01,0.01,3
41299,7.4066e+07,0,0.09,0.01,0.97,22.87,22.87,0.01,0.01,3
41343,7.4076e+07,0,0.15,0.01,0.99,22.89,22.89,0.01,0.01,3
41388,7.4086e+07,0,0.1,0.01,0.95,22.86,22.86,0.01,0.01,3
41435,7.4096e+07,0,0.13,0.01,0.98,22.87,22.87,0.01,0.01,3
41480,7.4112e+07,0,0.14,0.01,0.96,22.88,22.88,0.01,0.01,3
41524,7.4123e+07,0,0.1,0.01,0.96,22.87,22.87,0.01,0.01,3
41573,7.4133e+07,0,0.09,0.01,0.94,22.86,22.86,0.01,0.01,3
41619,7.4144e+07,0,0.11,0.01,0.95,22.86,22.86,0.01,0.01,3
41663,7.4154e+07,0,0.14,0.01,0.98,22.88,22.88,0.01,0.01,3
41709,7.4164e+07,0,0.11,0.01,0.94,22.85,22.85,0.01,0.01,3
41755,7.4174e+07,0,0.13,0.01,0.99,22.87,22.87,0.01,0.01,3
41801,7.4185e+07,0,0.13,0.01,0.96,22.86,22.86,0.01,0.01,3
41847,7.4195e+07,0,0.15,0.01,1.01,22.89,22.89,0.01,0.01,3
41891,7.4206e+07,0,0.12,0.01,0.94,22.86,22.86,0.01,0.01,3
41936,7.4216e+07,0,0.13,0.01,0.98,22.88,22.88,0.01,0.01,3
41980,7.4227e+07,0,0.14,0.01,0.96,22.88,22.88,0.01,0.01,3
42028,7.4237e+07,0,0.1,0.01,0.97,22.88,22.88,0.01,0,3
42073,7.4247e+07,0,0.09,0.01,0.93,22.86,22.86,0.01,0,3
42119,7.4257e+07,0,0.1,0.01,0.95,22.87,22.87,0.01,0,3
42164,7.4268e+07,0,0.13,0.01,0.96,22.88,22.88,0.01,0,3
42208,7.4278e+07,0,0.08,0.01,0.93,22.86,22.86,0.01,0,3
42253,7.4288e+07,0,0.09,0.01,0.95,22.86,22.86,0.01,0,3
42298,7.43e+07,0,0.14,0.01,0.95,22.86,22.85,0.01,0,3
42342,7.4314e+07,0,0.14,0.01,0.98,22.87,22.87,0.01,0,3
42387,7.4324e+07,0,0.12,0.01,0.93,22.85,22.85,0.01,0,3
42432,7.4335e+07,0,0.13,0.01,0.97,22.85,22.85,0.01,0,3
42480,7.4345e+07,0,0.15,0.01,0.97,22.87,22.87,0.01,0,3
42525,7.4355e+07,0,0.11,0.01,0.96,22.85,22.85,0.01,0,3
42570,7.4365e+07,0,0.1,0.01,0.97,22.86,22.86,0.01,0,3
42616,7.4375e+07,0,0.1,0.01,0.96,22.85,22.85,0.01,0,3
42663,7.4387e+07,0,0.14,0.01,1.02,22.89,22.89,0.01,0,3
42708,7.4398e+07,0,0.11,0.01,0.94,22.85,22.85,0.01,0,3
42752,7.4408e+07,0,0.14,0.01,1,22.87,22.87,0.01,0,3
42797,7.4419e+07,0,0.15,0.01,0.95,22.86,22.86,0.01,0,3
42843,7.4429e+07,0,0.14,0.01,1.01,22.88,22.88,0.01,0,3
42891,7.4439e+07,0,0.12,0.01,0.94,22.85,22.85,0.01,0,3
42937,7.445e+07,0,0.12,0.01,0.98,22.85,22.85,0.01,0.01,3
42981,7.446e+07,0,0.15,0.01,0.97,22.87,22.86,0.01,0.01,3
43026,7.4471e+07,0,0.1,0.01,0.96,22.85,22.85,0.01,0.01,3
43070,7.4481e+07,0,0.1,0.01,0.96,22.85,22.85,0.01,0.01,3
43115,7.4491e+07,0,0.12,0.01,0.95,22.84,22.84,0.01,0.01,3
43159,7.4501e+07,0,0.15,0.01,0.97,22.87,22.87,0.01,0.01,3
43206,7.4514e+07,0,0.12,0.01,0.93,22.84,22.84,0.01,0.01,3
43250,7.4524e+07,0,0.14,0.01,0.99,22.87,22.86,0.01,0.01,3
43294,7.4535e+07,0,0.15,0.01,0.95,22.86,22.86,0.01,0.01,3
43344,7.4545e+07,0,0.14,0.01,1.01,22.88,22.88,0.01,0.01,3
43390,7.4555e+07,0,0.11,0.01,0.93,22.85,22.85,0.01,0.01,3
43434,7.4565e+07,0,0.12,0.01,0.97,22.86,22.86,0.01,0.01,3
43479,7.4576e+07,0,0.15,0.01,0.95,22.86,22.86,0.01,0.01,3
43523,7.4586e+07,0,0.11,0.01,0.98,22.87,22.87,0.01,0.01,3
43569,7.4596e+07,0,0.1,0.01,0.94,22.85,22.85,0.01,0.01,3
43613,7.4606e+07,0,0.11,0.01,0.96,22.85,22.85,0.01,0.01,3
43658,7.4616e+07,0,0.14,0.01,0.97,22.87,22.86,0.01,0.01,3
43703,7.4626e+07,0,0.11,0.01,0.96,22.86,22.85,0.01,0.01,3
43748,7.4636e+07,0,0.1,0.01,0.96,22.85,22.85,0.01,0.01,3
43797,7.4646e+07,0,0.12,0.01,0.95,22.85,22.85,0.01,0.01,3
43842,7.4656e+07,0,0.16,0.01,0.99,22.88,22.88,0.01,0.01,3
43889,7.4667e+07,0,0.12,0.01,0.94,22.85,22.85,0.01,0.01,3
43933,7.4677e+07,0,0.12,0.01,0.99,22.87,22.87,0.01,0.01,3
43978,7.4687e+07,0,0.14,0.01,0.95,22.85,22.85,0.01,0.01,3
44027,7.47e+07,0,0.12,0.01,1.01,22.89,22.89,0.01,0.01,3
44072,7.471e+07,0,0.1,0.01,0.95,22.86,22.85,0.01,0.01,3
44116,7.4723e+07,0,0.13,0.01,0.95,22.85,22.85,0.01,0.01,3
44161,7.4734e+07,0,0.16,0.01,1,22.89,22.88,0.01,0.01,3
44206,7.4744e+07,0,0.13,0.01,0.93,22.85,22.85,0.01,0.01,3
44254,7.4754e+07,0,0.11,0.01,0.99,22.87,22.87,0.01,0.01,3
44299,7.4764e+07,0,0.13,0.01,0.96,22.85,22.85,0.01,0.01,3
44344,7.4775e+07,0,0.14,0.01,1.01,22.89,22.88,0.01,0.01,3
44389,7.4785e+07,0,0.11,0.01,0.94,22.85,22.85,0.01,0.01,3
44434,7.4795e+07,0,0.1,0.01,0.98,22.87,22.87,0.01,0.01,3
44479,7.4805e+07,0,0.12,0.01,0.97,22.86,22.86,0.01,0.01,3
44523,7.4815e+07,0,0.1,0.01,0.98,22.88,22.88,0.01,0.01,3
44568,7.4826e+07,0,0.1,0.01,0.94,22.86,22.86,0.01,0.01,3
44612,7.4836e+07,0,0.11,0.01,0.96,22.87,22.87,0.01,0.01,3
44659,7.4846e+07,0,0.14,0.01,0.97,22.88,22.88,0.01,0.01,3
44707,7.4856e+07,0,0.11,0.01,0.97,22.88,22.88,0.01,0,3
44753,7.4866e+07,0,0.11,0.01,0.95,22.87,22.87,0.01,0,3
44798,7.4877e+07,0,0.14,0.01,0.94,22.86,22.86,0.01,0,3
44842,7.4887e+07,0,0.16,0.01,0.97,22.88,22.88,0.01,0,3
44892,7.49e+07,0,0.13,0.01,0.94,22.86,22.85,0.01,0,3
44934,7.4914e+07,0,0.12,0.01,0.96,22.87,22.86,0.01,0,3
44979,7.4925e+07,0,0.16,0.01,0.98,22.88,22.88,0.01,0,3
45024,7.4935e+07,0,0.12,0.01,0.95,22.87,22.87,0.01,0,3
45068,7.4945e+07,0,0.11,0.01,0.97,22.86,22.86,0.01,0,3
45117,7.4955e+07,0,0.13,0.01,0.94,22.85,22.85,0.01,0,3
45163,7.4965e+07,0,0.16,0.01,0.99,22.88,22.87,0.01,0,3
45208,7.4975e+07,0,0.13,0.01,0.94,22.86,22.86,0.01,0,3
45253,7.4986e+07,0,0.12,0.01,0.98,22.86,22.86,0.01,0,3
45298,7.4996e+07,0,0.14,0.01,0.94,22.85,22.85,0.01,0,3
45343,7.5006e+07,0,0.15,0.01,0.99,22.88,22.88,0.01,0,3
45388,7.5017e+07,0,0.13,0.01,0.94,22.86,22.85,0.01,0,3
45432,7.5027e+07,0,0.1,0.01,0.97,22.87,22.86,0.01,0,3
45478,7.5037e+07,0,0.12,0.01,0.96,22.86,22.86,0.01,0,3
45523,7.5047e+07,0,0.11,0.01,0.98,22.88,22.88,0.01,0,3
45571,7.5057e+07,0,0.09,0.01,0.96,22.86,22.85,0.01,0,3
45616,7.5067e+07,0,0.08,0.01,0.97,22.86,22.86,0.01,0,3
45661,7.5077e+07,0,0.11,0.01,0.99,22.87,22.86,0.01,0,3
45706,7.5087e+07,0,0.09,0.01,0.97,22.87,22.87,0.01,0,3
45750,7.5097e+07,0,0.1,0.01,0.97,22.86,22.86,0.01,0,3
45794,7.5108e+07,0,0.12,0.01,0.95,22.85,22.85,0.01,0,3
45835,7.512e+07,0,0.15,0.01,0.98,22.87,22.87,0.01,0,3
45881,7.513e+07,0,0.12,0.01,0.94,22.86,22.86,0.01,0,3
45925,7.5141e+07,0,0.08,0.01,0.96,22.86,22.86,0.01,0,3
45971,7.5151e+07,0,0.13,0.01,0.95,22.85,22.85,0.01,0,3
46022,7.5161e+07,0,0.13,0.01,0.97,22.87,22.87,0.01,0,3
46068,7.5171e+07,0,0.12,0.01,0.95,22.86,22.85,0.01,0,3
46113,7.5182e+07,0,0.1,0.01,0.98,22.86,22.86,0.01,0,3
46157,7.5192e+07,0,0.13,0.01,0.98,22.86,22.86,0.01,0,3
46202,7.5202e+07,0,0.12,0.01,0.99,22.87,22.87,0.01,0,3
46247,7.5212e+07,0,0.11,0.01,0.97,22.85,22.85,0.01,0,3
46291,7.5223e+07,0,0.12,0.01,0.97,22.86,22.85,0.01,0,3
46337,7.5233e+07,0,0.13,0.01,0.99,22.87,22.86,0.01,0,3
46381,7.5243e+07,0,0.11,0.01,0.99,22.87,22.87,0.01,0,3
46427,7.5253e+07,0,0.09,0.01,0.97,22.85,22.85,0.01,0,3
46474,7.5263e+07,0,0.11,0.01,0.97,22.86,22.86,0.01,0,3
46520,7.5273e+07,0,0.11,0.01,0.98,22.87,22.87,0.01,0,3
46564,7.5284e+07,0,0.1,0.01,0.97,22.87,22.87,0.01,0,3
46609,7.5294e+07,0,0.06,0.01,0.94,22.85,22.85,0.01,0,3
46654,7.5304e+07,0,0.11,0.01,0.97,22.86,22.86,0.01,0,3
46700,7.5318e+07,0,0.12,0.01,0.97,22.87,22.87,0.01,0,3
46742,7.5329e+07,0,0.11,0.01,0.96,22.86,22.85,0.01,0,3
46786,7.5339e+07,0,0.13,0.01,0.96,22.86,22.86,0.01,0,3
46831,7.5349e+07,0,0.12,0.01,0.97,22.86,22.86,0.01,0,3
46877,7.536e+07,0,0.12,0.01,0.98,22.87,22.87,0.01,0,3
46924,7.537e+07,0,0.09,0.01,0.95,22.85,22.85,0.01,0,3
46971,7.538e+07,0,0.13,0.01,0.96,22.86,22.85,0.01,0,3
47015,7.539e+07,0,0.11,0.01,0.95,22.85,22.85,0.01,0,3
47060,7.54e+07,0,0.11,0.01,0.96,22.86,22.86,0.01,0,3
47107,7.5413e+07,0,0.07,0.01,0.95,22.84,22.84,0.01,0,3
47152,7.5423e+07,0,0.11,0.01,0.98,22.86,22.85,0.01,0,3
47197,7.5433e+07,0,0.12,0.01,0.96,22.85,22.85,0.01,0,3
47241,7.5444e+07,0,0.11,0.01,0.97,22.85,22.85,0.01,0,3
47287,7.5454e+07,0,0.11,0.01,0.95,22.85,22.84,0.01,0,3
47332,7.5464e+07,0,0.13,0.01,0.99,22.86,22.86,0.01,0,3
47380,7.5474e+07,0,0.13,0.01,0.96,22.86,22.86,0.01,0,3
47426,7.5484e+07,0,0.12,0.01,0.97,22.85,22.85,0.01,0,3
47471,7.5494e+07,0,0.14,0.01,0.94,22.85,22.84,0.01,0,3
47516,7.5504e+07,0,0.15,0.01,0.97,22.86,22.86,0.01,0,3
47560,7.5514e+07,0,0.14,0.01,0.96,22.86,22.86,0.01,0,3
47604,7.5528e+07,0,0.09,0.01,0.93,22.83,22.83,0.01,0,3
47651,7.5541e+07,0,0.14,0.01,0.99,22.86,22.86,0.01,0,3
47697,7.5551e+07,0,0.14,0.01,0.96,22.85,22.85,0.01,0,3
47742,7.5562e+07,0,0.12,0.01,0.96,22.85,22.85,0.01,0,3
47792,7.5572e+07,0,0.14,0.01,0.95,22.84,22.84,0.01,0,3
47838,7.5582e+07,0,0.14,0.01,0.96,22.85,22.85,0.01,0,3
47883,7.5592e+07,0,0.13,0.01,0.96,22.85,22.85,0.01,0,3
47928,7.5602e+07,0,0.09,0.01,0.94,22.85,22.84,0.01,0,3
47976,7.5615e+07,0,0.1,0.01,0.97,22.86,22.86,0.01,0,3
48020,7.5625e+07,0,0.1,0.01,0.95,22.85,22.84,0.01,0,3
48065,7.5636e+07,0,0.1,0.01,0.96,22.86,22.86,0.01,0,3
48110,7.5645e+07,0,0.09,0.01,0.94,22.83,22.83,0.01,0,3
48156,7.5656e+07,0,0.11,0.01,0.97,22.87,22.86,0.01,0,3
48202,7.5666e+07,0,0.12,0.01,0.96,22.85,22.84,0.01,0,3
48249,7.5676e+07,0,0.11,0.01,0.96,22.86,22.86,0.01,0,3
48295,7.5686e+07,0,0.1,0.01,0.95,22.83,22.83,0.01,0,3
48339,7.5696e+07,0,0.13,0.01,0.98,22.86,22.86,0.01,0,3
48383,7.5706e+07,0,0.13,0.01,0.96,22.84,22.84,0.01,0,3
48428,7.572e+07,0,0.08,0.01,0.96,22.84,22.84,0.01,0,3
48473,7.5731e+07,0,0.12,0.01,0.97,22.85,22.85,0.01,0,3
48520,7.5741e+07,0,0.12,0.01,0.97,22.85,22.85,0.01,0,3
48564,7.5751e+07,0,0.11,0.01,0.98,22.86,22.86,0.01,0,3
48609,7.5761e+07,0,0.08,0.01,0.96,22.83,22.83,0.01,0,3
48654,7.5772e+07,0,0.12,0.01,0.99,22.86,22.86,0.01,0,3
48701,7.5783e+07,0,0.12,0.01,0.96,22.84,22.84,0.01,0,3
48747,7.5793e+07,0,0.11,0.01,0.97,22.86,22.86,0.01,0,3
48791,7.5803e+07,0,0.11,0.01,0.94,22.84,22.83,0.01,0,3
48838,7.5813e+07,0,0.13,0.01,0.97,22.86,22.86,0.01,0,3
48882,7.5823e+07,0,0.13,0.01,0.96,22.85,22.85,0.01,0,3
48927,7.5834e+07,0,0.11,0.01,0.96,22.85,22.85,0.01,0,3
48971,7.5844e+07,0,0.12,0.01,0.96,22.84,22.84,0.01,0,3
49015,7.5854e+07,0,0.13,0.01,0.96,22.85,22.85,0.01,0,3
49061,7.5864e+07,0,0.13,0.01,0.98,22.85,22.85,0.01,0,3
49105,7.5874e+07,0,0.11,0.01,0.95,22.83,22.83,0.01,0,3
49153,7.5884e+07,0,0.14,0.01,0.98,22.85,22.85,0.01,0.01,3
49199,7.5894e+07,0,0.14,0.01,0.95,22.83,22.83,0.01,0.01,3
49244,7.5905e+07,0,0.14,0.01,0.98,22.86,22.86,0.01,0.01,3
49293,7.5915e+07,0,0.11,0.01,0.93,22.82,22.82,0.01,0.01,3
49331,7.5926e+07,0,0.12,0.01,0.98,22.85,22.85,0.01,0.01,3
49377,7.5937e+07,0,0.12,0.01,0.95,22.84,22.84,0.01,0.01,3
49421,7.5947e+07,0,0.11,0.01,0.97,22.85,22.85,0.01,0.01,3
49465,7.5957e+07,0,0.1,0.01,0.95,22.83,22.83,0.01,0.01,3
49510,7.5968e+07,0,0.13,0.01,0.98,22.85,22.85,0.01,0.01,3
49554,7.5978e+07,0,0.13,0.01,0.97,22.85,22.84,0.01,0.01,3
49602,7.5988e+07,0,0.12,0.01,0.96,22.84,22.84,0.01,0.01,3
49652,7.5998e+07,0,0.13,0.01,0.97,22.84,22.84,0.01,0.01,3
49694,7.6009e+07,0,0.14,0.01,0.96,22.84,22.84,0.01,0.01,3
49737,7.6019e+07,0,0.16,0.01,0.97,22.85,22.85,0.01,0.01,3
49781,7.6029e+07,0,0.11,0.01,0.94,22.83,22.83,0.01,0.01,3
49827,7.6042e+07,0,0.14,0.01,0.98,22.85,22.85,0.01,0.01,3
