LineNo,TimeUS,ThI,ABst,ThO,ThH,DAlt,Alt,BAlt,DSAlt,SAlt,TAlt,DCRt,CRt
1469,64655898,0,0,0,0.2585996,-0.5742595,-0.5742595,-0.85,NaN,0,0.1819749,57,57
1850,64758269,0,0,0,0.2585996,-0.5431084,-0.5431084,-0.93,NaN,0,0.213126,56,56
2268,64859713,0,0,0,0.2585996,-0.5241489,-0.5241489,-0.93,NaN,0,0.2320855,55,55
2649,64964818,0,0,0,0.2585996,-0.5171951,-0.5171951,-0.71,NaN,0,0.2390393,53,53
3063,65066524,0,0,0,0.2585996,-0.5151809000000001,-0.5151809000000001,-0.84,NaN,0,0.2410535,51,51
3470,65169355,0,0,0,0.2585996,-0.5188769,-0.5188769,-0.9399999999999999,NaN,0,0.2373576,49,49
3885,65271557,0,0,0,0.2585996,-0.5083341,-0.5083341,-1.02,NaN,0,0.2479003,48,48
4301,65375222,0,0,0,0.2585996,-0.5178858,-0.5178858,-0.88,NaN,0,0.2383486,46,46
4712,65476413,0,0,0,0.2585996,-0.5173991,-0.5173991,-1.13,NaN,0,0.2388353,44,44
5121,65579470,0,0,0,0.2585996,-0.5229973999999999,-0.5229973999999999,-0.89,NaN,0,0.233237,42,42
5532,65681875,0,0,0,0.2585996,-0.5316963,-0.5316963,-0.82,NaN,0,0.2245382,41,41
5915,65784542,0,0,0,0.2585996,-0.5408697,-0.5408697,-0.6899999999999999,NaN,0,0.2153647,39,39
6327,65885777,0,0,0,0.2585996,-0.5404584,-0.5404584,-0.8,NaN,0,0.215776,37,37
6736,65987896,0,0,0,0.2585996,-0.5447045,-0.5447045,-0.88,NaN,0,0.2116596,36,36
7156,66091880,0,0,0,0.2585996,-0.5446739,-0.5446739,-0.87,NaN,0,0.005326068,34,34
7597,66196449,0,0,0,0.2585996,-0.5450701999999999,-0.5450701999999999,-1.02,NaN,0,0.004929757,33,33
8020,66298549,0,0,0,0.2585996,-0.5421975,-0.5421975,-0.89,NaN,0,0.007802462,32,32
8468,66402967,0,0,0,0.2585996,-0.5410616,-0.5410616,-1.14,NaN,0,0.008938348,30,30
8922,66504988,0,0,0,0.2585996,-0.5353521,-0.5353521,-0.71,NaN,0,0.01464788,29,29
9369,66608296,0,0,0,0.2585996,-0.5385026000000001,-0.5385026000000001,-0.9399999999999999,NaN,0,0.01149741,28,28
9822,66717615,0,0,0,0.2585996,-0.5364627,-0.5364627,-0.8,NaN,0,0.01353732,27,27
10277,66821873,0,0,0,0.2585996,-0.5392103,-0.5392103,-0.77,NaN,0,0.01078973,25,25
10726,66924811,0,0,0,0.2585996,-0.5345687,-0.5345687,-1.05,NaN,0,0.01543126,24,24
11179,67026374,0,0,0,0.2585996,-0.5353885,-0.5353885,-0.84,NaN,0,0.01461152,23,23
11626,67129606,0,0,0,0.2585996,-0.5307059,-0.5307059,-0.92,NaN,0,0.01929412,22,22
12082,67231914,0,0,0,0.2585996,-0.531184,-0.531184,-0.63,NaN,0,0.01881597,21,21
12494,67335235,0,0,0,0.2585996,-0.5320433,-0.5320433,-0.91,NaN,0,0.01795671,20,20
12947,67436595,0,0,0,0.2585996,-0.5321579,-0.5321579,-1.09,NaN,0,0.01784209,19,19
13391,67540376,0,0,0,0.2585996,-0.5356858,-0.5356858,-0.83,NaN,0,0.01431415,18,18
13842,67643460,0,0,0,0.2585996,-0.5403594,-0.5403594,-0.82,NaN,0,0.009640549999999999,17,17
14260,67745554,0,0,0,0.2585996,-0.5448661,-0.5448661,-0.88,NaN,0,0.005133843,16,16
14712,67849570,0,0,0,0.2585996,-0.5505292000000001,-0.5505292000000001,-0.71,NaN,0,-0.0005291943,15,15
15161,67953787,0,0,0,0.2585996,-0.5513936,-0.5513936,-0.99,NaN,0,-0.00139364,14,14
15612,68056279,0,0,0,0.2585996,-0.5518907,-0.5518907,-0.63,NaN,0,-0.001890743,13,13
16028,68159602,0,0,0,0.2585996,-0.5527133,-0.5527133,-0.64,NaN,0,-0.002446258,13,13
16483,68262313,0,0,0,0.2585996,-0.5518348,-0.5518348,-0.95,NaN,0,-0.001567805,12,12
16932,68365500,0,0,0,0.2585996,-0.5554625,-0.5554625,-0.98,NaN,0,-0.005058194,11,11
17387,68469236,0,0,0,0.2585996,-0.5569446,-0.5569446,-1.09,NaN,0,-0.006540263,10,10
17835,68572794,0,0,0,0.2585996,-0.5618881999999999,-0.5618881999999999,-0.71,NaN,0,-0.01148381,10,10
18287,68676480,0,0,0,0.2585996,-0.5644143,-0.5644143,-0.79,NaN,0,-0.01400992,9,9
18704,68779588,0,0,0,0.2585996,-0.5718845,-0.5718845,-0.92,NaN,0,-0.02134284,8,8
19158,68882922,0,0,0,0.2585996,-0.5746675,-0.5746675,-0.87,NaN,0,-0.02412584,8,8
19606,68986276,0,0,0,0.2585996,-0.5823793,-0.5823793,-0.92,NaN,0,-0.03183766,6,6
20056,69087453,0,0,0,0.2585996,-0.5871878,-0.5871878,-0.85,NaN,0,-0.03664609,6,6
20253,69190335,0,0,0,0.2585996,-0.5993826,-0.5993826,-0.65,NaN,0,-0.0488409,5,5
20707,69293765,0,0,0,0.2585996,-0.6072936,-0.6072936,-1.11,NaN,0,-0.05675193,4,4
21158,69395023,0,0,0,0.2585996,-0.6150578,-0.6150578,-0.91,NaN,0,-0.06451614999999999,3,3
21607,69501595,0,0,0,0.2585996,-0.6219214,-0.6219214,-0.99,NaN,0,-0.07111271,3,3
22060,69603479,0,0,0,0.2585996,-0.6276606,-0.6276606,-0.95,NaN,0,-0.07685193,2,2
22514,69707007,0,0,0,0.2585996,-0.6333252,-0.6333252,-1.02,NaN,0,-0.08251645000000001,2,2
22932,69810151,0,0,0,0.2585996,-0.6420205,-0.6420205,-0.63,NaN,0,-0.09121182,1,1
23385,69914604,0,0,0,0.2585996,-0.6466588,-0.6466588,-0.78,NaN,0,-0.09585007,1,1
23834,70016326,0,0,0,0.2585996,-0.6531983,-0.6531983,-0.77,NaN,0,-0.1023896,0,0
24282,70120228,0,0,0,0.2585996,-0.6577599,-0.6577599,-0.82,NaN,0,-0.1069512,0,0
24738,70222127,0,0,0,0.2585996,-0.662236,-0.662236,-0.8,NaN,0,-0.1114273,0,0
25188,70325561,0,0,0,0.2585996,-0.6667916,-0.6667916,-0.72,NaN,0,-0.1159829,-1,-1
25640,70428922,0,0,0,0.2585996,-0.6707566,-0.6707566,-0.65,NaN,0,-0.1199479,-1,-1
26089,70533597,0,0,0,0.2585996,-0.6735131,-0.6735131,-0.74,NaN,0,-0.1227044,-2,-2
26541,70635453,0,0,0,0.2585996,-0.6745685,-0.6745685,-0.68,NaN,0,-0.1240269,-2,-2
26960,70737981,0,0,0,0.2585996,-0.6759009,-0.6759009,-0.51,NaN,0,-0.1253593,-2,-2
27414,70840886,0,0,0,0.2585996,-0.6765698999999999,-0.6765698999999999,-0.66,NaN,0,-0.1257613,-3,-3
27861,70943500,0,0,0,0.2585996,-0.6770686,-0.6770686,-0.76,NaN,0,-0.12626,-4,-4
28279,71045011,0,0,0,0.2585996,-0.6786969,-0.6786969,-0.5,NaN,0,-0.1278882,-4,-4
28725,71148005,0,0,0,0.2585996,-0.6793852,-0.6793852,-0.58,NaN,0,-0.1285765,-4,-4
29180,71250553,0,0,0,0.2585996,-0.679121,-0.679121,-0.61,NaN,0,-0.1283123,-4,-4
29594,71353964,0,0,0,0.2585996,-0.6782372,-0.6782372,-0.57,NaN,0,-0.1274285,-5,-5
30048,71455446,0,0,0,0.2585996,-0.6767006,-0.6767006,-0.8,NaN,0,-0.1258919,-5,-5
30496,71559812,0,0,0,0.2585996,-0.6773857,-0.6773857,-0.7,NaN,0,-0.126577,-5,-5
30949,71659934,0,0,0,0.2585996,-0.68028,-0.68028,-0.61,NaN,0,-0.1294713,-6,-6
31400,71762757,0,0,0,0.2585996,-0.6828375,-0.6828375,-0.57,NaN,0,-0.1320288,-6,-6
31820,71864822,0,0,0,0.2585996,-0.6858391,-0.6858391,-0.32,NaN,0,-0.1348931,-7,-7
32269,71969793,0,0,0,0.2585996,-0.68672,-0.68672,-0.89,NaN,0,-0.1357739,-7,-7
32723,72071893,0,0,0,0.2585996,-0.689754,-0.689754,-0.8,NaN,0,-0.138808,-7,-7
33171,72177896,0,0,0,0.2585996,-0.6940101,-0.6940101,-0.46,NaN,0,-0.1430641,-8,-8
33625,72280526,0,0,0,0.2585996,-0.6981466,-0.6981466,-0.58,NaN,0,-0.1472006,-7,-7
34041,72384482,0,0,0,0.2585996,-0.7021754,-0.7021754,-0.8100000000000001,NaN,0,-0.1509623,-9,-9
34496,72488801,0,0,0,0.2585996,-0.7075909,-0.7075909,-0.66,NaN,0,-0.1563779,-9,-9
34945,72592873,0,0,0,0.2585996,-0.7103448999999999,-0.7103448999999999,-0.64,NaN,0,-0.1591319,-9,-9
35398,72695513,0,0,0,0.2585996,-0.7142520999999999,-0.7142520999999999,-0.59,NaN,0,-0.1628864,-9,-9
35815,72798570,0,0,0,0.2585996,-0.7156517,-0.7156517,-0.72,NaN,0,-0.164286,-10,-10
36267,72903234,0,0,0,0.2585996,-0.719267,-0.719267,-1.02,NaN,0,-0.1679014,-10,-10
36716,73006004,0,0,0,0.2585996,-0.72365,-0.72365,-0.92,NaN,0,-0.1722843,-10,-10
37171,73108983,0,0,0,0.2585996,-0.7313921,-0.7313921,-0.67,NaN,0,-0.1800265,-10,-10
37619,73211750,0,0,0,0.2585996,-0.7360236999999999,-0.7360236999999999,-0.8,NaN,0,-0.1845208,-11,-11
38074,73312561,0,0,0,0.2585996,-0.7426499,-0.7426499,-0.58,NaN,0,-0.1911469,-11,-11
38520,73416832,0,0,0,0.2585996,-0.7505792,-0.7505792,-0.78,NaN,0,-0.1988092,-11,-11
38938,73521903,0,0,0,0.2585996,-0.7581376,-0.7581376,-0.66,NaN,0,-0.2063676,-11,-11
39391,73625891,0,0,0,0.2585996,-0.7634261,-0.7634261,-0.83,NaN,0,-0.2116561,-11,-11
39842,73728891,0,0,0,0.2585996,-0.7708943,-0.7708943,-0.85,NaN,0,-0.2191244,-11,-11
40293,73830240,0,0,0,0.2585996,-0.7816694,-0.7816694,-0.61,NaN,0,-0.2297698,-12,-12
40743,73934584,0,0,0,0.2585996,-0.7914021,-0.7914021,-0.68,NaN,0,-0.2395025,-13,-13
41195,74037606,0,0,0,0.2585996,-0.7971152,-0.7971152,-0.7,NaN,0,-0.2452156,-12,-12
41612,74140787,0,0,0,0.2585996,-0.8019001,-0.8019001,-0.88,NaN,0,-0.2500004,-13,-13
42066,74243954,0,0,0,0.2585996,-0.8045698,-0.8045698,-0.66,NaN,0,-0.2526701,-13,-13
42512,74347827,0,0,0,0.2585996,-0.8079274,-0.8079274,-0.83,NaN,0,-0.2560277,-12,-12
42933,74449844,0,0,0,0.2585996,-0.8114257,-0.8114257,-0.92,NaN,0,-0.2593735,-13,-13
43383,74552402,0,0,0,0.2585996,-0.8161246,-0.8161246,-0.71,NaN,0,-0.263935,-13,-13
43835,74653549,0,0,0,0.2585996,-0.819605,-0.819605,-0.75,NaN,0,-0.2674154,-13,-13
44286,74756470,0,0,0,0.2585996,-0.8239556,-0.8239556,-0.76,NaN,0,-0.271766,-13,-13
44739,74858299,0,0,0,0.2585996,-0.8291646,-0.8291646,-0.5600000000000001,NaN,0,-0.2769749,-13,-13
45156,74962806,0,0,0,0.2585996,-0.8328121000000001,-0.8328121000000001,-0.5,NaN,0,-0.2806225,-13,-13
45609,75064764,0,0,0,0.2585996,-0.8376026,-0.8376026,-0.4,NaN,0,-0.285146,-13,-13
46061,75168922,0,0,0,0.2585996,-0.8399757,-0.8399757,-0.82,NaN,0,-0.2875191,-13,-13
46513,75270857,0,0,0,0.2585996,-0.8453421,-0.8453421,-0.63,NaN,0,-0.2928855,-13,-13
46960,75374752,0,0,0,0.2585996,-0.8486261,-0.8486261,-0.58,NaN,0,-0.2960322,-13,-13
47412,75476916,0,0,0,0.2585996,-0.8517081,-0.8517081,-0.78,NaN,0,-0.2991141,-13,-13
47831,75579458,0,0,0,0.2585996,-0.8561836,-0.8561836,-0.49,NaN,0,-0.3035897,-14,-14
48285,75681322,0,0,0,0.2585996,-0.8613153,-0.8613153,-0.55,NaN,0,-0.3084467,-14,-14
48733,75785532,0,0,0,0.2585996,-0.8611565,-0.8611565,-0.7,NaN,0,-0.3082879,-14,-14
49185,75886780,0,0,0,0.2585996,-0.8640312,-0.8640312,-0.47,NaN,0,-0.3111626,-14,-14
49636,75990987,0,0,0,0.2585996,-0.8651394,-0.8651394,-0.64,NaN,0,-0.3122707,-14,-14
50042,76094880,0,0,0,0.2585996,-0.864765,-0.864765,-0.72,NaN,0,-0.3118965,-13,-13
50488,76200003,0,0,0,0.2585996,-0.8604679,-0.8604679,-0.45,NaN,0,-0.3075993,-14,-14
50943,76305127,0,0,0,0.2585996,-0.8539679999999999,-0.8539679999999999,-0.48,NaN,0,-0.3009545,-14,-14
51389,76409913,0,0,0,0.2585996,-0.8444147,-0.8444147,-0.54,NaN,0,-0.2914011,-14,-14
51805,76513995,0,0,0,0.2585996,-0.8335946,-0.8335946,-0.73,NaN,0,-0.280581,-14,-14
52257,76619522,0,0,0,0.2585996,-0.826803,-0.826803,-0.7,NaN,0,-0.2737894,-14,-14
52707,76725141,0,0,0,0.2585996,-0.8267727,-0.8267727,-0.5,NaN,0,-0.2737592,-14,-14
53128,76827521,0,0,0,0.2585996,-0.8229027,-0.8229027,-0.84,NaN,0,-0.2698891,-14,-14
53577,76931781,0,0,0,0.2585996,-0.8234455000000001,-0.8234455000000001,-0.79,NaN,0,-0.2704319,-14,-14
54028,77037025,0,0,0,0.2585996,-0.8265705,-0.8265705,-0.6,NaN,0,-0.2735569,-14,-14
54475,77140762,0,0,0,0.2585996,-0.8295951,-0.8295951,-0.37,NaN,0,-0.2765816,-14,-14
54897,77245598,0,0,0,0.2585996,-0.82674,-0.82674,-1,NaN,0,-0.2737264,-14,-14
55344,77348410,0,0,0,0.2585996,-0.8294033,-0.8294033,-0.7,NaN,0,-0.2763897,-14,-14
55792,77452554,0,0,0,0.2585996,-0.8325984,-0.8325984,-0.8100000000000001,NaN,0,-0.2795849,-14,-14
56206,77555823,0,0,0,0.2585996,-0.8386171,-0.8386171,-0.72,NaN,0,-0.2856035,-14,-14
56663,77660261,0,0,0,0.2585996,-0.8450491999999999,-0.8450491999999999,-0.77,NaN,0,-0.2920356,-14,-14
57111,77764962,0,0,0,0.2585996,-0.8513683,-0.8513683,-0.61,NaN,0,-0.2983547,-14,-14
57564,77869890,0,0,0,0.2585996,-0.8584343,-0.8584343,-0.65,NaN,0,-0.3054207,-14,-14
58013,77976522,0,0,0,0.2585996,-0.862008,-0.862008,-0.88,NaN,0,-0.3089944,-14,-14
58434,78080773,0,0,0,0.2585996,-0.8675535,-0.8675535,-0.61,NaN,0,-0.3145399,-14,-14
58886,78186552,0,0,0,0.2585996,-0.8740721,-0.8740721,-0.61,NaN,0,-0.3210585,-15,-15
59338,78290908,0,0,0,0.2585996,-0.8786609,-0.8786609,-0.58,NaN,0,-0.3255099,-15,-15
59785,78396605,0,0,0,0.2585996,-0.8795331,-0.8795331,-0.57,NaN,0,-0.3262296,-15,-15
60206,78500150,0,0,0,0.2585996,-0.8813415,-0.8813415,-0.65,NaN,0,-0.3280379,-15,-15
60654,78605945,0,0,0,0.2585996,-0.8833393,-0.8833393,-0.8,NaN,0,-0.3300358,-14,-14
61107,78712988,0,0,0,0.2585996,-0.8857946,-0.8857946,-0.78,NaN,0,-0.3324912,-14,-14
61559,78817895,0,0,0,0.2585996,-0.8905960000000001,-0.8905960000000001,-0.91,NaN,0,-0.3372925,-14,-14
62011,78923854,0,0,0,0.2585996,-0.8999642,-0.8999642,-0.96,NaN,0,-0.3466607,-15,-15
62463,79027755,0,0,0,0.2585996,-0.9096736,-0.9096736,-0.49,NaN,0,-0.3563701,-15,-15
62881,79134817,0,0,0,0.2585996,-0.9167367,-0.9167367,-0.85,NaN,0,-0.3631585,-15,-15
63334,79240123,0,0,0,0.2585996,-0.9238963,-0.9238963,-1.11,NaN,0,-0.3703181,-15,-15
63551,79344464,0,0,0,0.2585996,-0.9343804999999999,-0.9343804999999999,-0.72,NaN,0,-0.3808024,-15,-15
64002,79449022,0,0,0,0.2585996,-0.9424308,-0.9424308,-1,NaN,0,-0.3888526,-15,-15
64449,79554975,0,0,0,0.2585996,-0.9523172,-0.9523172,-0.7,NaN,0,-0.398739,-15,-15
64904,79657725,0,0,0,0.2585996,-0.9605811,-0.9605811,-0.59,NaN,0,-0.4068733,-15,-15
65322,79763557,0,0,0,0.2585996,-0.9671049,-0.9671049,-1.03,NaN,0,-0.4133971,-15,-15
65775,79867666,0,0,0,0.2585996,-0.9757212,-0.9757212,-1.04,NaN,0,-0.4220134,-15,-15
66192,79972248,0,0,0,0.2585996,-0.9861919,-0.9861919,-1.1,NaN,0,-0.432484,-15,-15
66645,80076815,0,0,0,0.2585996,-0.9996914,-0.9996914,-0.88,NaN,0,-0.4459836,-15,-15
67096,80182375,0,0,0,0.2585996,-1.01086,-1.01086,-0.63,NaN,0,-0.4571521,-15,-15
67549,80286736,0,0,0,0.2585996,-1.020232,-1.020232,-0.89,NaN,0,-0.4663949,-15,-15
67998,80393720,0,0,0,0.2585996,-1.026649,-1.026649,-0.96,NaN,0,-0.472811,-15,-15
68450,80498353,0,0,0,0.2585996,-1.034665,-1.034665,-1.03,NaN,0,-0.4808273,-15,-15
68901,80602785,0,0,0,0.2585996,-1.043961,-1.043961,-0.92,NaN,0,-0.4901236,-15,-15
69354,80710119,0,0,0,0.2585996,-1.05412,-1.05412,-0.72,NaN,0,-0.5000154,-15,-15
69804,80814608,0,0,0,0.2585996,-1.061039,-1.061039,-0.92,NaN,0,-0.5069345,-15,-15
70254,80921791,0,0,0,0.2585996,-1.067725,-1.067725,-1,NaN,0,-0.5136207,-15,-15
70707,81026472,0,0,0,0.2585996,-1.075266,-1.075266,-0.97,NaN,0,-0.5210163,-15,-15
71130,81133876,0,0,0,0.2585996,-1.083124,-1.083124,-1.09,NaN,0,-0.5288742,-15,-15
71583,81237850,0,0,0,0.2585996,-1.0929,-1.0929,-1.01,NaN,0,-0.53865,-15,-15
72030,81342900,0,0,0,0.2585996,-1.101954,-1.101954,-0.82,NaN,0,-0.5474377,-15,-15
72483,81448922,0,0,0,0.2585996,-1.109845,-1.109845,-0.93,NaN,0,-0.5553285,-15,-15
72931,81554877,0,0,0,0.2585996,-1.115912,-1.115912,-0.7,NaN,0,-0.5613951,-15,-15
73386,81660820,0,0,0,0.2585996,-1.117733,-1.117733,-0.72,NaN,0,-0.5630862,-15,-15
73834,81766774,0,0,0,0.2585996,-1.116807,-1.116807,-0.67,NaN,0,-0.5621606,-14,-14
74288,81871747,0,0,0,0.2585996,-1.115968,-1.115968,-0.7,NaN,0,-0.5613222,-14,-14
74737,81977369,0,0,0,0.2585996,-1.112255,-1.112255,-0.62,NaN,0,-0.557609,-14,-14
75190,82083126,0,0,0,0.2585996,-1.105384,-1.105384,-0.58,NaN,0,-0.5504629,-14,-14
75641,82189573,0,0,0,0.2585996,-1.097133,-1.097133,-0.6,NaN,0,-0.5422117,-13,-13
76094,82293725,0,0,0,0.2585996,-1.091534,-1.091534,-0.62,NaN,0,-0.5366127000000001,-13,-13
76540,82399513,0,0,0,0.2585996,-1.08558,-1.08558,-0.8100000000000001,NaN,0,-0.5305297,-13,-13
76961,82502919,0,0,0,0.2585996,-1.081244,-1.081244,-0.62,NaN,0,-0.526193,-13,-13
77411,82609340,0,0,0,0.2585996,-1.075101,-1.075101,-0.63,NaN,0,-0.5200499,-12,-12
77859,82712320,0,0,0,0.2585996,-1.072189,-1.072189,-0.66,NaN,0,-0.5172912,-12,-12
78279,82817913,0,0,0,0.2585996,-1.066099,-1.066099,-0.71,NaN,0,-0.5110638,-12,-12
78729,82922808,0,0,0,0.2585996,-1.062649,-1.062649,-0.53,NaN,0,-0.5076136,-12,-12
79183,83026569,0,0,0,0.2585996,-1.060935,-1.060935,-0.75,NaN,0,-0.5060518000000001,-12,-12
79634,83133464,0,0,0,0.2585996,-1.057659,-1.057659,-0.63,NaN,0,-0.5027766,-12,-12
80086,83239091,0,0,0,0.2585996,-1.053468,-1.053468,-0.52,NaN,0,-0.4983103,-12,-12
80503,83344384,0,0,0,0.2585996,-1.048281,-1.048281,-0.8100000000000001,NaN,0,-0.4931233,-12,-12
80955,83449837,0,0,0,0.2585996,-1.045985,-1.045985,-0.61,NaN,0,-0.4908509,-12,-12
81403,83554127,0,0,0,0.2585996,-1.044927,-1.044927,-0.6,NaN,0,-0.4897921,-12,-12
81858,83658476,0,0,0,0.2585996,-1.04205,-1.04205,-0.5,NaN,0,-0.4869153,-11,-11
82305,83762840,0,0,0,0.2585996,-1.038859,-1.038859,-0.57,NaN,0,-0.4834501,-11,-11
82757,83866265,0,0,0,0.2585996,-1.035545,-1.035545,-0.64,NaN,0,-0.4801355,-11,-11
83207,83971747,0,0,0,0.2585996,-1.030627,-1.030627,-0.72,NaN,0,-0.47537,-11,-11
83662,84075035,0,0,0,0.2585996,-1.029495,-1.029495,-0.89,NaN,0,-0.4742388,-11,-11
84110,84181550,0,0,0,0.2585996,-1.026633,-1.026633,-0.73,NaN,0,-0.4713764,-11,-11
84562,84283538,0,0,0,0.2585996,-1.027682,-1.027682,-0.59,NaN,0,-0.4725783,-11,-11
84979,84387940,0,0,0,0.2585996,-1.026321,-1.026321,-0.93,NaN,0,-0.4712169,-11,-11
85430,84493048,0,0,0,0.2585996,-1.027369,-1.027369,-0.85,NaN,0,-0.4721281,-11,-11
85881,84597448,0,0,0,0.2585996,-1.028088,-1.028088,-0.68,NaN,0,-0.4728464,-11,-11
86300,84699974,0,0,0,0.2585996,-1.02953,-1.02953,-0.8,NaN,0,-0.4744417,-11,-11
86748,84804813,0,0,0,0.2585996,-1.028509,-1.028509,-0.78,NaN,0,-0.4734202,-11,-11
87200,84910125,0,0,0,0.2585996,-1.029326,-1.029326,-0.53,NaN,0,-0.4742373,-11,-11
87652,85014262,0,0,0,0.2585996,-1.02869,-1.02869,-0.72,NaN,0,-0.4737541,-11,-11
88103,85120367,0,0,0,0.2585996,-1.027498,-1.027498,-1.02,NaN,0,-0.4725613,-11,-11
88556,85223959,0,0,0,0.2585996,-1.03049,-1.03049,-0.63,NaN,0,-0.4754237,-11,-11
89003,85330541,0,0,0,0.2585996,-1.032751,-1.032751,-0.87,NaN,0,-0.4778381,-11,-11
89455,85435993,0,0,0,0.2585996,-1.035282,-1.035282,-0.63,NaN,0,-0.4803687,-11,-11
89871,85541309,0,0,0,0.2585996,-1.036613,-1.036613,-0.83,NaN,0,-0.4819208,-11,-11
90324,85644504,0,0,0,0.2585996,-1.035435,-1.035435,-0.88,NaN,0,-0.4807431,-11,-11
90771,85749783,0,0,0,0.2585996,-1.037409,-1.037409,-0.98,NaN,0,-0.4827171,-11,-11
91223,85853883,0,0,0,0.2585996,-1.039973,-1.039973,-1.02,NaN,0,-0.4850067,-11,-11
91641,85958502,0,0,0,0.2585996,-1.045862,-1.045862,-1.05,NaN,0,-0.4909794,-11,-11
92098,86064851,0,0,0,0.2585996,-1.053358,-1.053358,-0.7,NaN,0,-0.4984751,-11,-11
92549,86169851,0,0,0,0.2585996,-1.056621,-1.056621,-0.91,NaN,0,-0.5017385,-11,-11
93002,86273995,0,0,0,0.2585996,-1.061127,-1.061127,-1.19,NaN,0,-0.5063964,-11,-11
93450,86380592,0,0,0,0.2585996,-1.06634,-1.06634,-1.09,NaN,0,-0.5116101,-11,-11
93903,86484889,0,0,0,0.2585996,-1.073951,-1.073951,-0.98,NaN,0,-0.5192208,-11,-11
94354,86592520,0,0,0,0.2585996,-1.080857,-1.080857,-1.07,NaN,0,-0.5261266999999999,-11,-11
94805,86696551,0,0,0,0.2585996,-1.089038,-1.089038,-0.98,NaN,0,-0.5344531,-11,-11
95253,86800599,0,0,0,0.2585996,-1.095242,-1.095242,-0.93,NaN,0,-0.5405266,-11,-11
95705,86904485,0,0,0,0.2585996,-1.102468,-1.102468,-0.63,NaN,0,-0.5477532000000001,-11,-11
96155,87008762,0,0,0,0.2585996,-1.106509,-1.106509,-1.05,NaN,0,-0.5517944,-11,-11
96575,87113520,0,0,0,0.2585996,-1.111244,-1.111244,-0.77,NaN,0,-0.5567577,-11,-11
97030,87217295,0,0,0,0.2585996,-1.114435,-1.114435,-0.55,NaN,0,-0.5599492,-11,-11
97478,87325574,0,0,0,0.2585996,-1.114982,-1.114982,-0.79,NaN,0,-0.5604956,-11,-11
97930,87428777,0,0,0,0.2585996,-1.11344,-1.11344,-0.61,NaN,0,-0.5591064,-11,-11
98381,87532564,0,0,0,0.2585996,-1.109485,-1.109485,-0.75,NaN,0,-0.5551513,-11,-11
98832,87637798,0,0,0,0.2585996,-1.105078,-1.105078,-0.92,NaN,0,-0.5507441,-11,-11
99279,87743504,0,0,0,0.2585996,-1.102818,-1.102818,-0.46,NaN,0,-0.5482175,-10,-10
99731,87846443,0,0,0,0.2585996,-1.099209,-1.099209,-1.11,NaN,0,-0.5447531,-10,-10
100179,87952098,0,0,0,0.2585996,-1.098818,-1.098818,-0.68,NaN,0,-0.5443628,-10,-10
100636,88057722,0,0,0,0.2585996,-1.099166,-1.099166,-0.77,NaN,0,-0.5447101,-10,-10
101053,88163924,0,0,0,0.2585996,-1.096285,-1.096285,-0.8,NaN,0,-0.5419824,-10,-10
101508,88270758,0,0,0,0.2585996,-1.095088,-1.095088,-0.72,NaN,0,-0.5407851,-10,-10
101957,88378752,0,0,0,0.2585996,-1.091722,-1.091722,-0.68,NaN,0,-0.5374191,-10,-10
102409,88484250,0,0,0,0.2585996,-1.088477,-1.088477,-0.6899999999999999,NaN,0,-0.5341743,-10,-10
102866,88592023,0,0,0,0.2585996,-1.083995,-1.083995,-0.7,NaN,0,0.006005349,-9,-9
103317,88695457,0,0,0,0.2585996,-1.083637,-1.083637,-0.64,NaN,0,0.006210508,-9,-9
103769,88801089,0,0,0,0.2585996,-1.082964,-1.082964,-0.83,NaN,0,0.006883325,-9,-9
104190,88905125,0,0,0,0.2585996,-1.085286,-1.085286,-0.72,NaN,0,0.004409255,-9,-9
104639,89009761,0,0,0,0.2585996,-1.088102,-1.088102,-0.45,NaN,0,0.001592698,-9,-9
105085,89112956,0,0,0,0.2585996,-1.089996,-1.089996,-0.66,NaN,0,-0.0004541259,-9,-9
105540,89215554,0,0,0,0.2585996,-1.091107,-1.091107,-0.44,NaN,0,-0.001564799,-9,-9
105957,89321254,0,0,0,0.2585996,-1.092799,-1.092799,-0.38,NaN,0,-0.003409801,-9,-9
106410,89426147,0,0,0,0.2585996,-1.093601,-1.093601,-0.68,NaN,0,-0.004211603,-9,-9
106859,89530797,0,0,0,0.2585996,-1.096217,-1.096217,-0.38,NaN,0,-0.006980119,-9,-9
107312,89634225,0,0,0,0.2585996,-1.098689,-1.098689,-0.39,NaN,0,-0.009451685,-9,-9
107759,89738569,0,0,0,0.2585996,-1.09967,-1.09967,-0.5600000000000001,NaN,0,-0.01043337,-9,-9
108212,89840800,0,0,0,0.2585996,-1.100998,-1.100998,-0.31,NaN,0,-0.01198226,-9,-9
108660,89943856,0,0,0,0.2585996,-1.101846,-1.101846,-0.54,NaN,0,-0.01282984,-9,-9
109114,90046596,0,0,0,0.2585996,-1.098766,-1.098766,-0.41,NaN,0,-0.009826837,-9,-9
109560,90149833,0,0,0,0.2585996,-1.098972,-1.098972,-0.3,NaN,0,-0.01003247,-9,-9
109983,90252612,0,0,0,0.2585996,-1.096737,-1.096737,-0.49,NaN,0,-0.008072315,-9,-9
110431,90358005,0,0,0,0.2585996,-1.094371,-1.094371,-0.44,NaN,0,-0.005851327,-8,-8
110883,90459514,0,0,0,0.2585996,-1.09333,-1.09333,-0.37,NaN,0,-0.004810272,-9,-9
111334,90562946,0,0,0,0.2585996,-1.091026,-1.091026,-0.38,NaN,0,-0.002506433,-9,-9
111786,90666284,0,0,0,0.2585996,-1.089,-1.089,-0.57,NaN,0,-0.0006327014,-8,-8
112234,90768992,0,0,0,0.2585996,-1.087374,-1.087374,-0.75,NaN,0,0.0009933132999999999,-8,-8
112687,90872891,0,0,0,0.2585996,-1.086543,-1.086543,-0.41,NaN,0,0.00159532,-8,-8
113103,90975864,0,0,0,0.2585996,-1.086075,-1.086075,-0.68,NaN,0,0.002063574,-8,-8
113558,91077851,0,0,0,0.2585996,-1.085251,-1.085251,-0.38,NaN,0,0.00275022,-9,-9
114008,91181118,0,0,0,0.2585996,-1.084588,-1.084588,-0.29,NaN,0,0.003260555,-9,-9
114463,91283962,0,0,0,0.2585996,-1.082731,-1.082731,-0.48,NaN,0,0.005117955,-8,-8
114912,91387359,0,0,0,0.2585996,-1.077586,-1.077586,-0.61,NaN,0,0.01011795,-8,-8
115363,91490570,0,0,0,0.2585996,-1.075632,-1.075632,-0.54,NaN,0,0.01179654,-9,-9
115810,91593328,0,0,0,0.2585996,-1.072639,-1.072639,-0.74,NaN,0,0.01471335,-8,-8
116261,91696816,0,0,0,0.2585996,-1.070817,-1.070817,-0.49,NaN,0,0.01653558,-8,-8
116518,91799966,0,0,0,0.2585996,-1.068789,-1.068789,-0.7,NaN,0,0.01856309,-9,-9
116971,91902973,0,0,0,0.2585996,-1.068971,-1.068971,-0.63,NaN,0,0.01838201,-8,-8
117418,92005982,0,0,0,0.2585996,-1.06519,-1.06519,-0.67,NaN,0,0.02193397,-9,-9
117867,92107848,0,0,0,0.2585996,-1.063308,-1.063308,-0.57,NaN,0,0.02368647,-9,-9
118286,92210138,0,0,0,0.2585996,-1.061451,-1.061451,-0.79,NaN,0,0.02539057,-8,-8
118736,92315364,0,0,0,0.2585996,-1.060774,-1.060774,-0.63,NaN,0,0.02606696,-9,-9
119190,92418939,0,0,0,0.2585996,-1.059397,-1.059397,-0.55,NaN,0,0.02729196,-8,-8
119639,92524007,0,0,0,0.2585996,-1.058501,-1.058501,-0.62,NaN,0,0.02803475,-8,-8
120060,92625564,0,0,0,0.2585996,-1.05675,-1.05675,-0.57,NaN,0,0.02978605,-8,-8
120508,92728929,0,0,0,0.2585996,-1.056737,-1.056737,-0.51,NaN,0,0.02964658,-8,-8
120961,92830743,0,0,0,0.2585996,-1.056143,-1.056143,-0.22,NaN,0,0.03010362,-9,-9
121372,92934233,0,0,0,0.2585996,-1.05285,-1.05285,-0.59,NaN,0,0.03317481,-8,-8
121825,93035901,0,0,0,0.2585996,-1.048798,-1.048798,-0.58,NaN,0,0.03722745,-8,-8
122273,93139356,0,0,0,0.2585996,-1.046919,-1.046919,-0.79,NaN,0,0.03903013,-8,-8
122694,93242055,0,0,0,0.2585996,-1.04632,-1.04632,-0.77,NaN,0,0.03935403,-8,-8
123141,93345219,0,0,0,0.2585996,-1.047609,-1.047609,-0.77,NaN,0,0.03806466,-9,-9
123593,93448468,0,0,0,0.2585996,-1.048774,-1.048774,-0.61,NaN,0,0.0367474,-8,-8
124043,93552059,0,0,0,0.2585996,-1.049794,-1.049794,-0.65,NaN,0,0.03558987,-9,-9
124496,93653737,0,0,0,0.2585996,-1.049906,-1.049906,-0.57,NaN,0,0.03533369,-9,-9
124944,93758314,0,0,0,0.2585996,-1.049552,-1.049552,-0.51,NaN,0,0.03541249,-8,-8
125396,93860872,0,0,0,0.2585996,-1.050253,-1.050253,-0.49,NaN,0,0.03471154,-9,-9
125813,93964720,0,0,0,0.2585996,-1.049478,-1.049478,-0.44,NaN,0,0.03534919,-8,-8
126268,94067933,0,0,0,0.2585996,-1.048085,-1.048085,-0.57,NaN,0,0.03674179,-9,-9
126716,94170536,0,0,0,0.2585996,-1.046474,-1.046474,-0.7,NaN,0,0.03799516,-9,-9
127170,94272916,0,0,0,0.2585996,-1.046019,-1.046019,-0.55,NaN,0,0.03844994,-8,-8
127618,94376008,0,0,0,0.2585996,-1.042552,-1.042552,-0.76,NaN,0,0.0417642,-9,-9
128071,94476486,0,0,0,0.2585996,-1.042251,-1.042251,-0.74,NaN,0,0.04206508,-8,-8
128482,94578834,0,0,0,0.2585996,-1.040079,-1.040079,-0.71,NaN,0,0.04396278,-8,-8
128936,94680912,0,0,0,0.2585996,-1.039128,-1.039128,-0.66,NaN,0,0.04491311,-8,-8
129383,94783044,0,0,0,0.2585996,-1.037867,-1.037867,-0.79,NaN,0,0.04602212,-8,-8
129837,94884799,0,0,0,0.2585996,-1.038115,-1.038115,-1.11,NaN,0,0.04564458,-7,-7
130253,94988358,0,0,0,0.2585996,-1.038045,-1.038045,-0.53,NaN,0,0.0457142,-8,-8
130703,95090022,0,0,0,0.2585996,-1.03977,-1.03977,-0.6899999999999999,NaN,0,0.04398876,-7,-7
131151,95191767,0,0,0,0.2585996,-1.038405,-1.038405,-0.58,NaN,0,0.0452016,-7,-7
131605,95293802,0,0,0,0.2585996,-1.038165,-1.038165,-0.74,NaN,0,0.04516667,-8,-8
132024,95397862,0.02749978,3.550202e-06,0.007242327,0.2585996,-1.037305,-1.037305,-0.75,NaN,0,0.04588157,-8,-8
132441,95502587,0.0749993,9.030103999999999e-06,0.04238263,0.2585996,-1.037972,-1.037972,-0.8100000000000001,NaN,0,0.04521519,-8,-8
132895,95608556,0.1249989,1.28895e-05,0.08641305000000001,0.2585996,-1.038236,-1.038236,-0.87,NaN,0,0.04465312,-9,-9
133346,95713442,0.1749988,2.022088e-05,0.1346841,0.2585996,-1.040739,-1.040739,-0.85,NaN,0,0.0421508,-9,-9
133791,95819501,0.2237488,3.483891e-05,0.1833258,0.2585996,-1.039771,-1.039771,-1.02,NaN,0,0.04285115,-8,-8
134207,95925825,0.2737487,5.552173e-05,0.2329196,0.2585996,-1.04084,-1.04084,-0.89,NaN,0,0.04163748,-7,-7
134662,96031859,0.3237487,9.602308e-05,0.2828263,0.2585996,-1.036927,-1.036927,-0.93,NaN,0,0.04541355,0,0
135112,96137547,0.2577072,8.60095e-05,0.2903724,0.2585996,-1.032083,-1.022664,-0.77,NaN,0,0.05969936,8,17
135566,96244805,0.2284442,4.11272e-05,0.2479853,0.2585996,-1.018759,-0.9848829,-0.8100000000000001,NaN,0,0.09719777,13,34
136011,96350808,0.2431796,7.966161e-05,0.2418173,0.2585996,-0.9997895,-0.9358376,-0.83,NaN,0,0.1461133,15,40
136468,96456548,0.2310588,9.11206e-05,0.2370466,0.2585996,-0.9752668,-0.8820872,-0.83,NaN,0,0.1997417,17,43
136911,96563523,0.2486486,4.261732e-05,0.2383334,0.2585996,-0.9480468,-0.8303583,-0.54,NaN,0,0.2516232,18,41
137365,96669397,0.2279533,4.602969e-05,0.2400528,0.2585996,-0.9150165,-0.7818087,-0.47,NaN,0,0.3001881,21,42
137811,96776922,0.2359699,9.679794e-05,0.2342497,0.2585996,-0.87962,-0.7317715,-0.71,NaN,0,0.3503778,24,42
138260,96882067,0.243086,6.334484e-05,0.2419102,0.2585996,-0.8388907,-0.6850646,-0.71,NaN,0,0.3969703,26,40
138709,96987479,0.2377645,2.984703e-05,0.2395017,0.2585996,-0.7974759,-0.6383766,-0.37,NaN,0,0.4440398,28,40
139161,97091650,0.2602826,0.0001322925,0.246072,0.2585996,-0.7515256,-0.5921543,-0.36,NaN,0,0.4904909,31,38
139576,97196457,0.2713733,0.0004473925,0.2610066,0.2585996,-0.7036414,-0.5550631,-0.41,NaN,0,0.5279636,33,35
140032,97307686,0.2634198,0.0004814565,0.2667347,0.2585996,-0.6542153000000001,-0.5172877,-0.18,NaN,0,0.5663036,36,33
140482,97412307,0.2605864,0.0002880394,0.2625368,0.2585996,-0.6035618,-0.4714802,-0.01,NaN,0,0.612401,38,36
140934,97520856,0.2486045,0.0001448244,0.2564659,0.2585996,-0.55181,-0.4141633,0.19,NaN,0,0.6702901,38,39
141388,97625521,0.2443289,0.0001264662,0.2465396,0.2585996,-0.4991762,-0.3474638,0.24,NaN,0,0.7372795,37,42
141835,97730897,0.2440001,0.000190556,0.2435032,0.2585996,-0.4485003,-0.2708047,0.42,NaN,0,0.8143659,35,43
142287,97838266,0.2400686,0.0002956837,0.2431705,0.2585996,-0.3945363,-0.1863085,0.05,NaN,0,0.8989918,33,42
142700,97944345,0.2453109,0.0003246665,0.2422136,0.2585996,-0.3400529,-0.1091556,0.03,NaN,0,0.9765109,31,40
143152,98047639,0.248857,0.0004084706,0.2461123,0.2585996,-0.2850535,-0.04030445,0.03,NaN,0,1.045515,30,37
143600,98154289,0.2516584,0.0005012751,0.2505884,0.2585996,-0.2310592,0.02087185,0.64,NaN,0,1.107111,30,34
144051,98257945,0.2476912,0.0005529225,0.2493189,0.2585996,-0.1753877,0.08199781,1.16,NaN,0,1.16845,30,33
144499,98364468,0.2485474,0.0005345345,0.2472377,0.2585996,-0.1223194,0.1553935,0.75,NaN,0,1.242113,28,33
144951,98467712,0.2353407,0.000526309,0.2412871,0.2585996,-0.06631766,0.224921,0.77,NaN,0,1.311999,26,33
145369,98573449,0.2346943,0.0004981458,0.2351694,0.2585996,-0.01289209,0.3007494,1.08,NaN,0,1.38798,24,33
145819,98678110,0.285615,0.0007279217,0.2499528,0.2585996,0.04374712,0.3736461,1.37,NaN,0,1.460747,24,28
146235,98783000,0.3135468,0.001065165,0.2908522,0.2585996,0.1025445,0.4376246,0.63,NaN,0,1.524725,30,23
146687,98886902,0.2957362,0.0009737313,0.304112,0.2585996,0.1712344,0.4953647,0.63,NaN,0,1.582466,41,29
147137,98993753,0.2988021,0.0008952618,0.2999048,0.2585996,0.2497559,0.5577266,0.72,NaN,0,1.644827,52,40
147588,99099091,0.318472,0.0009399951,0.3078859,0.2585996,0.3364273,0.6216553,0.61,NaN,0,1.708336,61,46
148004,99204650,0.3170147,0.000769645,0.3181355,0.2585996,0.4273774,0.6904541,0.42,NaN,0,1.776769,69,54
148454,99311264,0.3022408,0.0004750192,0.311801,0.2585996,0.5261052000000001,0.7593119,0.83,NaN,0,1.845276,77,62
148904,99418005,0.3040993,0.0004513264,0.3047763,0.2585996,0.6293226,0.8348444,0.76,NaN,0,1.920511,84,72
149354,99525928,0.3055539,0.0004868209,0.3059334,0.2585996,0.7335154,0.9194416,0.8,NaN,0,2.004742,89,80
149807,99630975,0.2978876,0.0004113615,0.3027589,0.2585996,0.8434384,1.008421,1.09,NaN,0,2.093439,94,86
150222,99738819,0.2890122,0.0003722906,0.2966552,0.2585996,0.9530022,1.106338,1.52,NaN,0,2.191204,98,92
150675,99843467,0.2779682,0.0003207028,0.2841918,0.2585996,1.067434,1.208525,1.37,NaN,0,2.293039,101,100
151124,99950152,0.2805096,0.0002397001,0.2863837,0.2585996,1.183504,1.321592,1.63,NaN,0,2.405878,103,102
151577,100054779,0.2654291,0.0002514124,0.2710922,0.2585996,1.300928,1.437548,1.66,NaN,0,2.521551,104,109
152307,100266864,0.2489849,0.0003925115,0.2567882,0.2585996,1.535669,1.692129,2.7,NaN,0,2.775674,103,114
152750,100375740,0.2446016,0.0003632009,0.2498306,0.2585996,1.643584,1.8382,2.75,NaN,0,2.92144,100,115
153166,100481903,0.2409323,0.0002196878,0.2489487,0.2585996,1.758751,1.987235,3.04,NaN,0,3.069788,99,113
153609,100591795,0.2288888,8.682907e-05,0.2386729,0.2585996,1.872258,2.150212,2.83,NaN,0,3.231637,95,114
154055,100703308,0.2309416,1.835823e-05,0.2333481,0.2585996,1.993119,2.308977,2.82,NaN,0,3.389959,92,111
154502,100808958,0.2460339,6.249547e-05,0.2396099,0.2585996,2.111875,2.456014,2.65,NaN,0,3.536553,91,107
154951,100919346,0.2308112,0.0001790673,0.238324,0.2585996,2.233885,2.596034,3,NaN,0,3.676009,87,100
155394,101027287,0.2126546,0.0001552403,0.227401,0.2585996,2.349315,2.723964,3.1,NaN,0,3.803229,80,93
155839,101136330,0.2027562,0.0001199991,0.212908,0.2585996,2.458373,2.841713,3.67,NaN,0,3.92046,73,87
156285,101243513,0.2069324,0.0001642406,0.207946,0.2585996,2.561697,2.954399,3.38,NaN,0,4.032993,66,80
156695,101350972,0.2267139,0.0002685636,0.2150979,0.2585996,2.660268,3.057589,3.28,NaN,0,4.135909,61,72
157142,101460451,0.2215756,0.0003249645,0.2221899,0.2585996,2.754903,3.148308,3.32,NaN,0,4.226627,58,64
157551,101566987,0.2294161,0.0003752708,0.2225893,0.2585996,2.846269,3.226232,3.54,NaN,0,4.304552,56,59
157999,101674814,0.2284063,0.0004143864,0.2298993,0.2585996,2.934902,3.300207,3.4,NaN,0,4.37855,55,54
158442,101782043,0.2353165,0.0004164875,0.2325672,0.2585996,3.019131,3.367865,3.6,NaN,0,4.44649,55,53
158890,101886964,0.2320621,0.0003494769,0.2326765,0.2585996,3.103813,3.430835,3.57,NaN,0,4.509841,55,50
159302,101996221,0.2410102,0.0004005879,0.235373,0.2585996,3.187044,3.497206,3.54,NaN,0,4.576716,55,51
159750,102102598,0.2535339,0.0005896688,0.2440023,0.2585996,3.268962,3.558081,3.66,NaN,0,4.638521,56,49
160188,102211240,0.2467842,0.0007302612,0.2491764,0.2585996,3.349797,3.622439,3.73,NaN,0,4.703589,57,49
160599,102318141,0.262219,0.0008842051,0.2505527,0.2585996,3.429728,3.683498,3.74,NaN,0,4.765091,58,50
161047,102423304,0.2594501,0.001205087,0.2602612,0.2585996,3.508939,3.743404,3.99,NaN,0,4.825286,59,51
161489,102532010,0.2591155,0.001248688,0.2595854,0.2585996,3.587563,3.806859,5.02,NaN,0,4.889161,60,51
161935,102638121,0.2614465,0.0008951128,0.2630773,0.2585996,3.665712,3.881204,4.1,NaN,0,4.96324,60,54
162376,102747043,0.247064,0.0006746054,0.2510782,0.2585996,3.743475,3.958649,3.89,NaN,0,5.040639,60,57
162792,102853020,0.2444377,0.0007947683000000001,0.2467736,0.2585996,3.820929,4.030487,3.99,NaN,0,5.112209,60,59
163236,102962521,0.2479554,0.0009660274,0.2463221,0.2585996,3.898114,4.101343,4.16,NaN,0,5.18308,60,59
163683,103068950,0.2437915,0.0009660274,0.2459337,0.2585996,3.975091,4.168835,4.2,NaN,0,5.250306,61,59
164125,103176486,0.2392741,0.000973776,0.2423447,0.2585996,4.049834,4.234239,4.12,NaN,0,5.315572,62,62
164570,103283080,0.242741,0.001004666,0.2407545,0.2585996,4.126455,4.299328,4.26,NaN,0,5.380661,63,62
165013,103390790,0.2474712,0.001006842,0.248138,0.2585996,4.200956,4.365504,4.17,NaN,0,5.446837,64,61
165460,103494855,0.2571308,0.001082957,0.2511138,0.2585996,4.277338,4.427802,4.27,NaN,0,5.508982,65,62
165902,103601915,0.2455664,0.0008138716,0.2498854,0.2585996,4.351617,4.494156,4.92,NaN,0,5.575489,66,62
166344,103709599,0.2311467,0.0004769117,0.2408243,0.2585996,4.427826,4.565966,4.84,NaN,0,5.647299,66,66
166758,103817145,0.2390777,0.0004601032,0.2364797,0.2585996,4.504004,4.644166,5.03,NaN,0,5.725636,66,68
167205,103925767,0.2509615,0.0004886091,0.2411904,0.2585996,4.580138,4.725991,5.03,NaN,0,5.807576,65,66
167651,104031907,0.2362882,0.0005182326,0.2404197,0.2585996,4.656235,4.807463,4.89,NaN,0,5.889048,64,67
168097,104139551,0.2363205,0.0005931854,0.2331399,0.2585996,4.73249,4.888913,4.92,NaN,0,5.970498,65,69
168543,104244838,0.2667623,0.0007686019,0.2493873,0.2585996,4.810961,4.966238,4.79,NaN,0,6.047961,69,69
168984,104352003,0.2864193,0.0009930134,0.2686919,0.2585996,4.895797,5.04409,4.8,NaN,0,6.126217,79,74
169433,104457988,0.3392119,0.001692742,0.3043777,0.2585996,4.990682,5.123091,5.25,NaN,0,6.205508,92,76
169841,104566247,0.3319423,0.002279818,0.330719,0.2585996,5.095422,5.206421,5.78,NaN,0,6.289105,103,81
170289,104671915,0.3327134,0.002162725,0.3329022,0.2585996,5.207546,5.299476,5.49,NaN,0,6.382137,111,88
170699,104781806,0.3153482,0.001465887,0.3287859,0.2585996,5.324762,5.405984,5.88,NaN,0,6.488423,117,96
171148,104888045,0.3264015,0.001174003,0.3244702,0.2585996,5.444998,5.519356,5.82,NaN,0,6.601765,120,102
171596,104995241,0.3253,0.0009506643,0.3269174,0.2585996,5.566365,5.637033,5.78,NaN,0,6.718984,120,107
172040,105106151,0.3144933,0.0006423891,0.3202176,0.2585996,5.690301,5.763375,5.6,NaN,0,6.844777,118,108
172487,105211803,0.3189463,0.0003629923,0.3177724,0.2585996,5.808847,5.877748,5.36,NaN,0,6.958539,116,108
172935,105318938,0.3109241,0.0001811683,0.3148528,0.2585996,5.920842,5.987349,6.21,NaN,0,7.067248,112,106
173382,105424791,0.2903162,0.0001368821,0.3050684,0.2585996,6.031191,6.094397,6.55,NaN,0,7.173411,106,104
173792,105531840,0.2850624,0.0001420379,0.288282,0.2585996,6.135828,6.206476,6.5,NaN,0,7.28475,99,103
174238,105638137,0.2697072,0.000266701,0.2821012,0.2585996,6.233902,6.315144,6.65,NaN,0,7.39254,91,96
174679,105746755,0.2285581,0.0005509704,0.2582089,0.2585996,6.322471,6.423127,6.49,NaN,0,7.4997,81,94
175125,105853503,0.2340826,0.0009897797999999999,0.2363192,0.2585996,6.405776,6.526758,6.36,NaN,0,7.602812,71,89
175571,105960818,0.2388067,0.0009224713,0.2423146,0.2585996,6.480966,6.619255,6.4,NaN,0,7.694812,60,77
176022,106068369,0.2264785,0.0005563796,0.2344248,0.2585996,6.547918,6.696633,6.88,NaN,0,7.772191,51,67
176434,106174904,0.2312665,0.000347212,0.2320954,0.2585996,6.605324,6.764627,7.18,NaN,0,7.840048,42,56
176879,106280960,0.2381899,0.000252679,0.2360432,0.2585996,6.656558,6.823125,7.01,NaN,0,7.898774,33,44
177323,106390360,0.2452817,0.0003655553,0.2375782,0.2585996,6.700343,6.873593,6.67,NaN,0,7.949471,24,34
177737,106496722,0.2566886,0.0006070435,0.2492047,0.2585996,6.737162,6.906937,7.2,NaN,0,7.98312,18,22
178177,106605136,0.2267507,0.0004760921,0.2434146,0.2585996,6.767646,6.934983,7.59,NaN,0,8.011044999999999,12,16
178589,106711894,0.2116582,0.0003361851,0.2248717,0.2585996,6.792439,6.962535,7.45,NaN,0,8.038978,6,14
179032,106819134,0.2323995,0.000297159,0.2269917,0.2585996,6.812069,6.990137,7.01,NaN,0,8.067189000000001,0,7
179477,106928996,0.2425106,0.0004685372,0.2388217,0.2585996,6.826998,7.005097,7.12,NaN,0,8.082394000000001,-4,-1
179923,107035916,0.2592134,0.0008341074,0.2483181,0.2585996,6.837792,7.008186,7.94,NaN,0,8.086017,-7,-8
180369,107144812,0.2678986,0.001148552,0.2608224,0.2585996,6.844949,7.007024,7.02,NaN,0,8.08516,-10,-16
180816,107253245,0.2863537,0.001548916,0.2780364,0.2585996,6.849467,6.997732,6.24,NaN,0,8.076052000000001,-11,-22
181259,107360860,0.3023863,0.001836032,0.2885434,0.2585996,6.851773,6.973066,6.65,NaN,0,8.052073,-10,-25
181673,107467494,0.323944,0.001810491,0.3080673,0.2585996,6.852656,6.937212,6.82,NaN,0,8.016446999999999,-7,-28
182114,107574782,0.3253154,0.001676828,0.3231034,0.2585996,6.852941,6.898735,6.75,NaN,0,7.978771,-4,-28
182560,107681762,0.2879844,0.0006816983,0.3154635,0.2585996,6.853352,6.863981,6.75,NaN,0,7.944475,0,-20
183002,107789149,0.2473184,0.0002679676,0.2820103,0.2585996,6.854422,6.844568,7.08,NaN,0,7.925519,2,-6
183420,107895011,0.2507856,0.0004450083,0.2623082,0.2585996,6.856371,6.841373,7.58,NaN,0,7.922859,3,4
183861,108002944,0.2380137,0.0008561909,0.2515745,0.2585996,6.859099,6.849944,7.75,NaN,0,7.931888,4,9
184306,108111896,0.2654101,0.001692116,0.2594086,0.2585996,6.862417,6.870657,7.11,NaN,0,7.953417,2,9
184754,108219956,0.2399363,0.002051577,0.2565935,0.2585996,6.865751,6.888442,7.2,NaN,0,7.971583,1,8
185197,108328811,0.2395061,0.002402991,0.2446556,0.2585996,6.868854,6.907536,7.26,NaN,0,7.990906,0,9
185640,108436355,0.2281154,0.002098143,0.2399762,0.2585996,6.871459,6.925464,7.06,NaN,0,8.008986,-2,8
186051,108544229,0.2472686,0.002039373,0.2377875,0.2585996,6.87336,6.941015,7.1,NaN,0,8.024400999999999,-5,4
186496,108650257,0.2388762,0.001809716,0.2450187,0.2585996,6.874429,6.949828,7.08,NaN,0,8.032794000000001,-6,0
186936,108760531,0.2278905,0.001488298,0.2374733,0.2585996,6.874663,6.954301,7.22,NaN,0,8.036901,-8,0
187383,108867137,0.2456152,0.001453087,0.2358674,0.2585996,6.874129,6.955244,7.16,NaN,0,8.037407999999999,-9,-2
187827,108976479,0.2458561,0.001414925,0.2433852,0.2585996,6.872954,6.950233,6.8,NaN,0,8.031817999999999,-9,-5
188240,109080519,0.249155,0.00141874,0.248543,0.2585996,6.871325,6.940893,6.74,NaN,0,8.022042000000001,-8,-8
188683,109188570,0.2680983,0.001675218,0.2579218,0.2585996,6.869484,6.925549,6.73,NaN,0,8.006126999999999,-7,-10
189134,109298750,0.2713404,0.001732528,0.2674132,0.2585996,6.867661,6.908487,6.63,NaN,0,7.988615,-5,-13
189578,109405903,0.2710887,0.00155431,0.2703819,0.2585996,6.866218,6.892464,6.9,NaN,0,7.972447,-3,-11
190018,109515506,0.2579331,0.001372159,0.2685327,0.2585996,6.865329,6.878619,6.69,NaN,0,7.958449,-1,-9
190463,109621818,0.2660564,0.001266152,0.2656289,0.2585996,6.865076,6.869133,6.57,NaN,0,7.948734,0,-5
190872,109729009,0.25037,0.001050413,0.2604424,0.2585996,6.865535,6.861084,6.66,NaN,0,7.94067,1,-1
191318,109834539,0.2514197,0.000875175,0.2547004,0.2585996,6.866719,6.854389,6.71,NaN,0,7.93409,2,1
191763,109944880,0.2653649,0.0009112358,0.2598108,0.2585996,6.86861,6.850132,6.54,NaN,0,7.929817,4,1
192209,110051927,0.2752405,0.0007748008,0.2733551,0.2585996,6.871159,6.84403,6.84,NaN,0,7.92412,5,0
192654,110161913,0.2663277,0.0006996989,0.2708147,0.2585996,6.874262,6.838514,6.81,NaN,0,7.918855,7,3
193101,110268965,0.2624261,0.0005940199,0.2653934,0.2585996,6.878055,6.83883,6.54,NaN,0,7.919424,8,5
193546,110377217,0.2603085,0.0006467104,0.2600573,0.2585996,6.882361,6.841434,6.24,NaN,0,7.922011,8,8
193991,110484748,0.2612572,0.00101617,0.2606713,0.2585996,6.88705,6.842644,6.47,NaN,0,7.923473,9,8
194402,110593559,0.2613255,0.001446784,0.262723,0.2585996,6.892034,6.841714,6.49,NaN,0,7.922575,10,8
194846,110698114,0.2626447,0.00192529,0.2638589,0.2585996,6.897273,6.841648,6.56,NaN,0,7.922684,11,10
195257,110805026,0.2565811,0.002433121,0.2624153,0.2585996,6.902731,6.842735,6.61,NaN,0,7.923496,11,10
195706,110913115,0.2624269,0.002760887,0.2612004,0.2585996,6.908349,6.845627,6.48,NaN,0,7.925915,12,11
196115,111019834,0.2628589,0.002575904,0.2631589,0.2585996,6.914049,6.850012,6.45,NaN,0,7.929789,12,11
196556,111128848,0.2513208,0.00190863,0.2594099,0.2585996,6.91975,6.854213,6.24,NaN,0,7.932838,12,13
197006,111234814,0.2473681,0.001248196,0.2534643,0.2585996,6.925381,6.856014,6.35,NaN,0,7.933197,12,14
197451,111344026,0.259453,0.0009694695,0.2543381,0.2585996,6.930915,6.857636,6.34,NaN,0,7.93372,13,13
197900,111453970,0.2517085,0.0008766651,0.2529749,0.2585996,6.936364,6.856995,6.56,NaN,0,7.931484,13,14
198309,111563594,0.2525896,0.0009717047,0.2542013,0.2585996,6.941585,6.860479,6.67,NaN,0,7.933374,13,12
198755,111671516,0.2581823,0.00100711,0.2554432,0.2585996,6.946955,6.86622,6.62,NaN,0,7.937093,13,13
199197,111782745,0.2575743,0.001040548,0.2552681,0.2585996,6.951987,6.875509,6.91,NaN,0,7.944482,12,13
199645,111887982,0.2605765,0.001040697,0.2546434,0.2585996,6.956711,6.886324,6.83,NaN,0,7.953215,11,12
200059,111995805,0.2549298,0.001089483,0.2556533,0.2585996,6.960896,6.896265,6.8,NaN,0,7.960973,10,11
200503,112102530,0.2567347,0.001088709,0.2600997,0.2585996,6.964683,6.904964,6.49,NaN,0,7.967491,9,8
200947,112210815,0.2572921,0.001135021,0.2599394,0.2585996,6.967894,6.91188,6.25,NaN,0,7.971507,8,7
201397,112321582,0.2643727,0.001114815,0.2601744,0.2585996,6.970583,6.913414,6.52,NaN,0,7.970432,8,7
201840,112429468,0.2554837,0.001054585,0.2577085,0.2585996,6.972681,6.914857,6.62,NaN,0,7.968892,7,7
202284,112539148,0.2561578,0.001090258,0.2540415,0.2585996,6.974331,6.916838,6.37,NaN,0,7.967958,7,8
202730,112644778,0.2565705,0.001183152,0.2531169,0.2585996,6.97558,6.919262,6.55,NaN,0,7.967041,6,7
203141,112754448,0.244836,0.001305699,0.2499203,0.2585996,6.976461,6.918828,6.58,NaN,0,7.963272,6,8
203589,112860127,0.2563542,0.00163871,0.2528044,0.2585996,6.977043,6.91878,6.59,NaN,0,7.959586,6,7
204000,112968940,0.2494244,0.002015665,0.2538024,0.2585996,6.977383,6.91989,6.75,NaN,0,7.956424,5,7
204447,113076488,0.2501198,0.001705408,0.2529516,0.2585996,6.977499,6.923367,6.74,NaN,0,7.955544,5,6
204892,113185903,0.2404408,0.001102224,0.2495154,0.2585996,6.977371,6.928326,6.78,NaN,0,7.956001,4,6
205341,113292853,0.2407572,0.0007293969,0.2418279,0.2585996,6.976961,6.934796,6.62,NaN,0,7.957603,3,7
205785,113401580,0.2431606,0.0005860627,0.2427979,0.2585996,6.976212,6.940261,6.66,NaN,0,7.958072,2,6
206198,113508329,0.2446683,0.0006354898,0.2434357,0.2585996,6.975096,6.942933,6.82,NaN,0,7.955808,1,4
206646,113614229,0.2498836,0.0006915182,0.247961,0.2585996,6.973628,6.945357,6.79,NaN,0,7.952937,1,3
207093,113726784,0.2457388,0.0007834435,0.247213,0.2585996,6.97173,6.94594,6.74,NaN,0,7.947775,0,2
207543,113834046,0.2442754,0.0009672791,0.2487363,0.2585996,6.969637,6.946826,6.8,NaN,0,7.942855,0,1
207951,113943258,0.2374619,0.0009027272,0.2467072,0.2585996,6.967303,6.945621,7.07,NaN,0,7.935912,0,0
208398,114050898,0.2353883,0.0006619245,0.2378715,0.2585996,6.964781,6.948221,7.04,NaN,0,7.932172,-1,2
208839,114159475,0.2339095,0.0004734695,0.2370283,0.2585996,6.962063,6.954649,6.82,NaN,0,7.932489,-2,1
209253,114266334,0.2376011,0.0004936606,0.2339259,0.2585996,6.959087,6.960027,6.85,NaN,0,7.931664,-3,2
209705,114377127,0.2400547,0.000700593,0.2375746,0.2585996,6.955805,6.963656,6.49,NaN,0,7.928717,-4,0
210149,114484037,0.2434051,0.001005068,0.2425037,0.2585996,6.952217,6.961751,7.04,NaN,0,7.920517,-4,-3
210592,114590870,0.2557496,0.00127849,0.2532003,0.2585996,6.948397,6.958569,7.65,NaN,0,7.910973,-5,-5
211008,114698109,0.2441894,0.001116186,0.2521401,0.2585996,6.944436,6.959978,6.98,NaN,0,7.905928,-5,-6
211453,114809229,0.2320631,0.0008374155000000001,0.2427056,0.2585996,6.940341,6.962836,7.72,NaN,0,7.885013,-6,-4
211869,114920596,0.2167349,0.000568226,0.230254,0.2585996,6.935851,6.972125,7.47,NaN,0,7.869422,-8,-2
212317,115028579,0.2170859,0.0007653087,0.2238714,0.2585996,6.93129,6.986918,7.33,NaN,0,7.85839,-10,-2
212726,115137175,0.2153174,0.0009593666,0.2220049,0.2585996,6.926258,6.998953,7.28,NaN,0,7.845591,-12,-3
213174,115244961,0.2245329,0.00129424,0.2215306,0.2585996,6.920638,7.007261,6.16,NaN,0,7.829981,-14,-6
213621,115352543,0.2223694,0.001677111,0.2271734,0.2585996,6.914568,7.004822,6.39,NaN,0,7.802532,-15,-10
214067,115458583,0.2490225,0.002277747,0.2331664,0.2585996,6.907877,6.98819,6.72,NaN,0,7.762646,-15,-14
214505,115564129,0.2444507,0.00194186,0.2444701,0.2585996,6.901418,6.966818,7.77,NaN,0,7.718081,-13,-17
214952,115669018,0.2503822,0.001446456,0.2491317,0.2585996,6.894839,6.949542,7.6,NaN,0,7.678305,-12,-17
215396,115777901,0.2480512,0.0008840263,0.2495588,0.2585996,6.888745,6.939913,8.24,NaN,0,7.645063,-11,-16
215844,115882882,0.2394166,0.0005071163,0.2464024,0.2585996,6.883211,6.939203,8.06,NaN,0,7.621831,-11,-14
216253,115991515,0.2412283,0.0004313439,0.2419982,0.2585996,6.878133,6.949701,7.86,NaN,0,7.610716,-12,-12
216702,116098560,0.2434726,0.0005319566,0.2417502,0.2585996,6.873268,6.963192,7.85,NaN,0,7.603438,-14,-11
217144,116206916,0.2393527,0.0007438809,0.240979,0.2585996,6.868495,6.975445,7.68,NaN,0,7.594826,-15,-13
217588,116316976,0.236454,0.0009470135,0.2398092,0.2585996,6.863374,6.985038,7.76,NaN,0,7.584483,-17,-14
218036,116423494,0.2415047,0.001117155,0.2390017,0.2585996,6.857895,6.994453,7.58,NaN,0,7.574191,-19,-16
218476,116530742,0.2351085,0.000936836,0.2398469,0.2585996,6.851981,6.99809,7.94,NaN,0,7.558633,-21,-18
218892,116637007,0.2364272,0.000648126,0.2364823,0.2585996,6.845636,7.001601,7.74,NaN,0,7.544032,-22,-18
219333,116744556,0.2457136,0.000443235,0.2366573,0.2585996,6.83889,7.000978,7,NaN,0,7.524275,-23,-20
219751,116852128,0.2363426,0.000412643,0.2382036,0.2585996,6.831838,6.99194,6.91,NaN,0,7.497041,-23,-22
220133,116960023,0.2565434,0.0004051924,0.2446308,0.2585996,6.824869,6.973997,6.68,NaN,0,7.461206,-22,-23
220577,117065896,0.2444464,0.0003613383,0.2468522,0.2585996,6.817903,6.95152,6.68,NaN,0,7.423219,-20,-23
220985,117173900,0.2445607,0.0003225356,0.2439196,0.2585996,6.811628,6.924546,6.52,NaN,0,7.379956,-17,-21
221435,117279919,0.2433072,0.0003017634,0.2452556,0.2585996,6.806056,6.896715,6.3,NaN,0,7.33515,-14,-18
221844,117386459,0.2439752,0.0003032088,0.2443146,0.2585996,6.801664,6.869106,6.38,NaN,0,7.291573,-10,-15
222290,117494511,0.2470499,0.0006396919,0.2469919,0.2585996,6.798704,6.842829,5.86,NaN,0,7.250175,-6,-12
222731,117602783,0.2498959,0.001476064,0.2495989,0.2585996,6.797371,6.814825,6.14,NaN,0,7.209063,-2,-7
223178,117706531,0.2596336,0.002703696,0.2571865,0.2585996,6.797836,6.790266,6.19,NaN,0,7.171396,2,-5
223625,117815004,0.2530374,0.003378391,0.2583469,0.2585996,6.8002,6.768778,6.26,NaN,0,7.139273,6,0
224043,117923040,0.2493694,0.003114283,0.255655,0.2585996,6.804472,6.753397,6.17,NaN,0,7.115278,10,4
224485,118031127,0.248763,0.002401158,0.2516701,0.2585996,6.810395,6.743211,6.06,NaN,0,7.096403,14,10
224926,118138478,0.2428534,0.00224559,0.2467614,0.2585996,6.818141,6.738598,6.32,NaN,0,7.084115,16,14
225375,118244469,0.2532584,0.002268255,0.252758,0.2585996,6.827349,6.741293,6.63,NaN,0,7.080904,18,16
225814,118351852,0.2533866,0.001604557,0.2530339,0.2585996,6.837723,6.750011,6.34,NaN,0,7.083809,20,18
226230,118458248,0.24705,0.0006789863,0.2523802,0.2585996,6.848935,6.760881,6.93,NaN,0,7.08988,20,19
226672,118565943,0.2347887,0.0001697838,0.2469498,0.2585996,6.860653,6.77889,7.16,NaN,0,7.103074,20,21
227118,118674936,0.2300542,0.000179708,0.2378407,0.2585996,6.872487,6.806572,7.89,NaN,0,7.125523,18,23
227561,118784522,0.2347444,0.000215441,0.2344835,0.2585996,6.883958,6.844008,7.06,NaN,0,7.158892,15,22
227976,118890981,0.2348865,0.0004549026,0.2351262,0.2585996,6.89453,6.878108,7.97,NaN,0,7.190108,12,19
228421,119000556,0.2419836,0.001790568,0.2396909,0.2585996,6.903787,6.915523,7.75,NaN,0,7.226256,7,14
228867,119113564,0.2347079,0.003277645,0.2408438,0.2585996,6.9117,6.951357,7.36,NaN,0,7.262007,2,10
229314,119219577,0.2190394,0.004062429,0.2315373,0.2585996,6.917216,6.977988,7.4,NaN,0,7.289493,-1,6
229729,119326560,0.2252228,0.004693553,0.2361854,0.2585996,6.920661,6.999805,7.42,NaN,0,7.315575,-5,1
230173,119433783,0.2206036,0.004520923,0.2311871,0.2585996,6.922056,7.013611,8.31,NaN,0,7.333729,-8,-2
230616,119541916,0.2362659,0.004180551,0.2331532,0.2585996,6.921507,7.022483,8.050000000000001,NaN,0,7.34788,-11,-6
231060,119648967,0.2256361,0.00366506,0.2333797,0.2585996,6.919213,7.024909,7.52,NaN,0,7.358218,-13,-9
231472,119755811,0.2275766,0.003351465,0.2335029,0.2585996,6.915439,7.024095,8.109999999999999,NaN,0,7.366948,-15,-12
231919,119862934,0.244255,0.003627986,0.2339395,0.2585996,6.910453,7.019429,8.68,NaN,0,7.371819,-16,-15
232360,119971778,0.2414517,0.003340498,0.2406493,0.2585996,6.904692,7.014309,7.44,NaN,0,7.378114,-17,-18
232776,120077996,0.2346984,0.00326778,0.2417124,0.2585996,6.898104,7.005419,7.28,NaN,0,7.381323,-17,-19
233217,120186811,0.2401379,0.003204525,0.2436165,0.2585996,6.891098,6.993066,7.5,NaN,0,7.382764,-17,-19
233667,120292814,0.2379961,0.002707705,0.2387879,0.2585996,6.883938,6.981138,7.31,NaN,0,7.385743,-17,-19
234109,120398801,0.2387865,0.002281711,0.2380153,0.2585996,6.876847,6.970794,7.38,NaN,0,7.390048,-16,-17
234558,120505996,0.245003,0.00208506,0.2436618,0.2585996,6.869976,6.961932,8.24,NaN,0,7.395835,-16,-18
234966,120613961,0.2333585,0.002066031,0.2398209,0.2585996,6.863429,6.962512,8.06,NaN,0,7.413788,-16,-16
235409,120722324,0.2320733,0.001946941,0.238689,0.2585996,6.857306,6.973525,7.64,NaN,0,7.443712,-18,-15
235857,120829272,0.2184822,0.001921952,0.2318773,0.2585996,6.851055,6.983237,8.279999999999999,NaN,0,7.470798,-19,-15
236265,120936359,0.2248721,0.001929775,0.2307881,0.2585996,6.844663,6.998597,7.08,NaN,0,7.504375,-22,-16
236713,121041495,0.2300229,0.002063394,0.2292964,0.2585996,6.837957,7.00194,8,NaN,0,7.527487,-23,-18
237157,121149921,0.21828,0.001853377,0.2275241,0.2585996,6.830889,7.005487,8,NaN,0,7.550955,-25,-18
237606,121255528,0.2159383,0.001664087,0.2238163,0.2585996,6.82348,7.006924,7.36,NaN,0,7.571465,-26,-19
238016,121363764,0.213962,0.001534283,0.2185243,0.2585996,6.815747,7.010231,7.97,NaN,0,7.594692,-27,-21
238462,121469518,0.2409268,0.001831949,0.2234352,0.2585996,6.807707,7.012413,8.029999999999999,NaN,0,7.617489,-29,-23
238873,121579765,0.2170033,0.001770854,0.2282847,0.2585996,6.799391,7.013463,8.869999999999999,NaN,0,7.641015,-30,-26
239320,121686230,0.2163232,0.00183323,0.2253304,0.2585996,6.790825,7.018434,9.35,NaN,0,7.666837,-31,-28
239732,121795484,0.2295719,0.002045229,0.2265345,0.2585996,6.781933,7.033058,8.85,NaN,0,7.703853,-34,-29
240178,121900815,0.2284249,0.002254397,0.229901,0.2585996,6.772563,7.047889,9.23,NaN,0,7.739535,-37,-33
240623,122009478,0.2279104,0.002441987,0.2303199,0.2585996,6.762539,7.067721,9.01,NaN,0,7.781753,-41,-36
241032,122118222,0.2141377,0.002263322,0.2244897,0.2585996,6.751686,7.090856,8.44,NaN,0,7.827371,-45,-37
241482,122225948,0.2216795,0.002364725,0.2209275,0.2585996,6.739777,7.104456,8.859999999999999,NaN,0,7.864286,-49,-41
241926,122334943,0.2047189,0.002172694,0.2185447,0.2585996,6.726772,7.105299,8.609999999999999,NaN,0,7.8893,-52,-45
242372,122440520,0.2224792,0.002212942,0.2210879,0.2585996,6.712798,7.103231,8.57,NaN,0,7.9097,-54,-48
242813,122549857,0.2186145,0.00205107,0.2233273,0.2585996,6.698112,7.093648,8.52,NaN,0,7.924439,-55,-50
243259,122655449,0.2188042,0.002029449,0.2204951,0.2585996,6.682997,7.075867,8.35,NaN,0,7.931911,-55,-51
243703,122764922,0.2265576,0.002169743,0.2201098,0.2585996,6.667373,7.055689,8.15,NaN,0,7.92121,-54,-52
244149,122872406,0.2286895,0.00226748,0.2245243,0.2585996,6.652395,7.033158,8.699999999999999,NaN,0,7.903165,-53,-53
244593,122981325,0.237852,0.001868859,0.2263287,0.2585996,6.637995,7.010343,8.51,NaN,0,7.884973,-51,-52
245040,123087904,0.2139982,0.001072645,0.2207457,0.2585996,6.624423,6.992482,8.56,NaN,0,7.871742,-50,-50
245453,123197015,0.2095213,0.0006397516,0.2148283,0.2585996,6.611831,6.978256,8.300000000000001,NaN,0,7.861919,-49,-45
245904,123307150,0.1999833,0.0004751831,0.204559,0.2585996,6.600304,6.970362,7.78,NaN,0,7.858565,-48,-42
246353,123414583,0.2203681,0.0005929619,0.2066082,0.2585996,6.589777,6.959181,7.61,NaN,0,7.851702,-47,-42
246761,123522302,0.2139189,0.0008731037,0.2168416,0.2585996,6.580254,6.94097,7.58,NaN,0,7.83781,-45,-46
247208,123628971,0.2335519,0.00113903,0.2262583,0.2585996,6.5719,6.910644,7.48,NaN,0,7.811503,-41,-46
247653,123737874,0.2439213,0.001176223,0.2362895,0.2585996,6.56499,6.874866,7.31,NaN,0,7.779449,-37,-45
248100,123843812,0.2453139,0.0008984208,0.2423854,0.2585996,6.559854,6.836982,6.55,NaN,0,7.745426,-32,-43
248511,123951815,0.2449026,0.0002153069,0.2458691,0.2585996,6.556809,6.794393,5.12,NaN,0,7.706713,-25,-37
248957,124058372,0.2413193,0.0005921274,0.2441383,0.2585996,6.55621,6.735969,4.81,NaN,0,7.652156,-17,-30
249401,124169573,0.2853404,0.00100565,0.2591611,0.2585996,6.558591,6.66592,6.67,NaN,0,7.586357,-6,-26
249846,124277714,0.2969048,0.0005003512,0.284601,0.2585996,6.564575,6.600948,6.24,NaN,0,7.525558,4,-22
250293,124385042,0.2992355,4.658103e-05,0.2903923,0.2585996,6.574586,6.55668,5.77,NaN,0,7.485685,14,-11
250739,124492988,0.3057248,8.502603e-05,0.2967906,0.2585996,6.589106,6.520818,5.54,NaN,0,7.453996,23,-1
251147,124600923,0.3082435,0.0006725788,0.3002656,0.2585996,6.607242,6.494216,5.62,NaN,0,7.43127,32,7
251599,124709476,0.3066456,0.001448661,0.303563,0.2585996,6.629078,6.476945,5.31,NaN,0,7.417646,40,18
252006,124816964,0.3071939,0.001717776,0.3077333,0.2585996,6.654252,6.464427,5.22,NaN,0,7.408835,47,26
252447,124924846,0.2962134,0.001426309,0.3054666,0.2585996,6.683143,6.458139,5.32,NaN,0,7.406042,53,34
252893,125031229,0.2914106,0.0009315908,0.2980773,0.2585996,6.713837,6.466036,5.21,NaN,0,7.417273,58,44
253334,125139129,0.2853584,0.0005265772,0.2914381,0.2585996,6.746491,6.479456,5.33,NaN,0,7.43395,61,52
253783,125247120,0.2792955,0.000308007,0.2845484,0.2585996,6.780525,6.503511,5.28,NaN,0,7.461119,64,59
254226,125354481,0.2754799,0.000292778,0.2781809,0.2585996,6.815319,6.534883,5.13,NaN,0,7.495596,64,62
254672,125459519,0.2754866,0.0003501773,0.2765879,0.2585996,6.85026,6.563162,5.25,NaN,0,7.527133,65,64
255081,125567138,0.270207,0.0003080666,0.2760404,0.2585996,6.88484,6.594988,5.6,NaN,0,7.561918,65,65
255526,125674967,0.2609256,0.0001696944,0.2664609,0.2585996,6.918611,6.630021,5.54,NaN,0,7.600125,63,67
255971,125784046,0.2578018,0.000413239,0.261872,0.2585996,6.951139,6.666622,5.72,NaN,0,7.639381,61,66
256418,125891811,0.2469905,0.001214668,0.2562396,0.2585996,6.982037,6.706539,5.86,NaN,0,7.681808,59,65
256860,125999842,0.2405729,0.001523122,0.2476812,0.2585996,7.010182,6.751618,5.94,NaN,0,7.72881,55,64
257306,126107943,0.2458539,0.001352862,0.2440503,0.2585996,7.036698,6.794127,5.8,NaN,0,7.773006,50,60
257719,126214452,0.2456445,0.0008454323,0.2444189,0.2585996,7.06051,6.832683,5.72,NaN,0,7.813339,46,55
258165,126321319,0.2479982,0.0005287528,0.2466957,0.2585996,7.081455,6.866221,5.57,NaN,0,7.848205,42,49
258608,126428888,0.2716303,0.000354439,0.256897,0.2585996,7.099501,6.887861,6.2,NaN,0,7.871096,38,42
259049,126535881,0.2686176,4.315376e-05,0.2638462,0.2585996,7.114785,6.900359,6.3,NaN,0,7.884624,36,35
259463,126640976,0.2636619,0.0006200373,0.2656298,0.2585996,7.127574,6.911336,6.32,NaN,0,7.896638,33,32
259908,126750147,0.2752041,0.001861781,0.2688318,0.2585996,7.138109,6.921147,6.22,NaN,0,7.907701,31,28
260355,126856786,0.2669451,0.002374172,0.2698303,0.2585996,7.146621,6.929067,6.2,NaN,0,7.917101,29,27
260764,126963037,0.2649777,0.002104342,0.268656,0.2585996,7.153343,6.934384,6.24,NaN,0,7.924409,28,26
261209,127067977,0.2596619,0.001249284,0.2649543,0.2585996,7.158481,6.94038,6.48,NaN,0,7.9327,26,25
261619,127175876,0.2611521,0.0005319118,0.2623539,0.2585996,7.162225,6.952853,6.54,NaN,0,7.947455,24,24
262067,127283574,0.2552959,0.0001888573,0.2582128,0.2585996,7.164613,6.969208,6.63,NaN,0,7.966396,21,23
262509,127391550,0.2537984,8.770823e-05,0.2556213,0.2585996,7.1656,6.985228,6.55,NaN,0,7.985003,18,22
262954,127497955,0.2498183,7.948279e-05,0.2519728,0.2585996,7.16521,7.00177,6.66,NaN,0,8.004208,15,20
263397,127605938,0.257764,0.0001044571,0.2546549,0.2585996,7.163383,7.014772,6.49,NaN,0,8.019940999999999,12,16
263847,127713070,0.257351,0.000130713,0.2575862,0.2585996,7.160152,7.024825,6.45,NaN,0,8.032724999999999,9,12
264289,127821858,0.2601704,0.0001196265,0.2594019,0.2585996,7.155579,7.033851,6.72,NaN,0,8.044636000000001,6,9
264703,127930491,0.2625425,0.0001389384,0.2600625,0.2585996,7.149767,7.037219,6.84,NaN,0,8.051100999999999,4,5
265151,128036922,0.267005,7.939339e-05,0.2634759,0.2585996,7.142868,7.039586,6.97,NaN,0,8.056350999999999,2,3
265562,128144537,0.260049,4.372001e-05,0.2630685,0.2585996,7.135029,7.040783,6.94,NaN,0,8.060432,0,1
266011,128251863,0.2535069,7.43866e-05,0.258589,0.2585996,7.126396,7.043192,6.83,NaN,0,8.065794,-1,1
266454,128359940,0.2476506,0.0001235157,0.250966,0.2585996,7.117572,7.045714,7.12,NaN,0,8.071337,-2,1
266897,128466110,0.2492008,0.0001436621,0.2491397,0.2585996,7.10765,7.049326,6.88,NaN,0,8.077757,-4,0
267337,128574244,0.2486464,4.069507e-05,0.2486411,0.2585996,7.097155,7.051059,6.99,NaN,0,8.082511999999999,-6,-1
267754,128681111,0.2486834,2.075732e-05,0.2486886,0.2585996,7.086157,7.050339,6.9,NaN,0,8.084811999999999,-8,-3
268195,128791569,0.251481,0.0001986027,0.2506925,0.2585996,7.074758,7.04639,7.21,NaN,0,8.083961,-9,-5
268642,128896744,0.2544643,0.0005037785,0.2539419,0.2585996,7.063092,7.041289,7.27,NaN,0,8.081744,-10,-7
269049,129004855,0.2479346,0.0007586777,0.2520189,0.2585996,7.051281,7.038819,7.07,NaN,0,8.082303,-11,-7
269495,129111734,0.2568601,0.0007717907,0.2534392,0.2585996,7.039399,7.035229,7.11,NaN,0,8.081825,-12,-10
269933,129220658,0.2580583,0.0005072355,0.258655,0.2585996,7.027515,7.029137,7.01,NaN,0,8.079128000000001,-12,-11
270374,129328880,0.264076,0.0002368689,0.2591332,0.2585996,7.015735,7.020812,6.87,NaN,0,8.073993,-12,-12
270786,129435346,0.2618504,7.769465e-05,0.2616484,0.2585996,7.004178,7.010524,7.08,NaN,0,8.067335999999999,-12,-13
271228,129543943,0.269439,0.0001458526,0.26621,0.2585996,6.992969,7.001347,6.8,NaN,0,8.061493,-12,-14
271673,129650375,0.2738582,0.0002080798,0.2679997,0.2585996,6.982207,6.991148,6.97,NaN,0,8.054567,-11,-14
272115,129759463,0.2669587,5.143881e-05,0.2694672,0.2585996,6.971982,6.981247,7.14,NaN,0,8.048222000000001,-11,-13
272528,129865525,0.260897,1.302361e-05,0.2664966,0.2585996,6.962355,6.975,6.99,NaN,0,8.045462000000001,-11,-11
272969,129974495,0.2622452,9.283423e-05,0.2615843,0.2585996,6.953329,6.970336,7.01,NaN,0,8.044290999999999,-10,-9
273416,130081240,0.2593612,4.982948e-05,0.2611974,0.2585996,6.944869,6.966911,6.77,NaN,0,8.044231,-10,-10
273859,130189868,0.270086,6.923079e-05,0.2629409,0.2585996,6.937141,6.959709,6.8,NaN,0,8.040606,-10,-10
274303,130297360,0.2780277,0.0006500185,0.2718138,0.2585996,6.929764,6.947371,6.97,NaN,0,8.031848,-9,-12
274746,130402996,0.272556,0.00142917,0.276619,0.2585996,6.923042,6.938134,7.09,NaN,0,8.025899000000001,-8,-11
275159,130509860,0.2614454,0.001720011,0.2689251,0.2585996,6.917021,6.93225,6.92,NaN,0,8.023303,-7,-8
275568,130614989,0.260812,0.001458704,0.2636434,0.2585996,6.911665,6.931949,7.05,NaN,0,8.026047,-7,-6
276014,130722777,0.268447,0.00122565,0.266739,0.2585996,6.906874,6.93204,7.07,NaN,0,8.028983,-7,-6
276457,130829119,0.2950321,0.001491815,0.281114,0.2585996,6.902554,6.932076,6.89,NaN,0,8.031781000000001,-7,-10
276864,130936247,0.2979986,0.001797318,0.2913404,0.2585996,6.898727,6.927038,6.9,NaN,0,8.029496,-6,-13
277308,131040945,0.3019971,0.001514912,0.299276,0.2585996,6.895195,6.920355,6.92,NaN,0,8.025492,-6,-14
277719,131148501,0.2917159,0.0009211898,0.2986552,0.2585996,6.892107,6.912889,6.89,NaN,0,8.020345000000001,-5,-12
278166,131254140,0.2828554,0.0004242659,0.290273,0.2585996,6.889509,6.907567,7.1,NaN,0,8.016914,-4,-9
278607,131361800,0.2804856,0.0001453757,0.2842472,0.2585996,6.887393,6.907744,7.04,NaN,0,8.019403000000001,-4,-6
