LineNo,TimeUS,Instance,RPM,RawRPM,Volt,Curr,Temp,CTot,MotTemp,Err
1676,64705855,3,0,0,16.13,0.04,28,0,0,0
2096,64814003,3,0,0,16.13,0.04,28,0,0,0
2516,64925368,3,0,0,16.13,0.04,28,0,0,0
2930,65029109,3,0,0,16.13,0.04,28,0,0,0
3338,65131215,3,0,0,16.13,0.04,28,0,0,0
3794,65245857,3,0,0,16.12,0.04,28,0,0,0
4216,65351877,3,0,0,16.13,0.04,28,0,0,0
4631,65455843,3,0,0,16.13,0.04,28,0,0,0
5080,65568856,3,0,0,16.13,0.04,28,0,0,0
5490,65671754,3,0,0,16.13,0.04,28,0,0,0
5908,65779457,3,0,0,16.13,0.04,28,0,0,0
6320,65880593,3,0,0,16.13,0.04,28,0,0,0
6740,65988256,3,0,0,16.13,0.04,28,0,0,0
7160,66092630,3,0,0,16.13,0.04,28,0,0,0
7649,66208998,3,0,0,16.13,0.04,28,0,0,0
8106,66312021,3,0,0,16.13,0.04,28,0,0,0
8599,66428960,3,0,0,16.13,0.04,28,0,0,0
9089,66540122,3,0,0,16.13,0.04,28,0,0,0
9541,66642024,3,0,0,16.13,0.04,28,0,0,0
9997,66752372,3,0,0,16.13,0.04,28,0,0,0
10451,66856502,3,0,0,16.13,0.04,28,0,0,0
10906,66962856,3,0,0,16.12,0.04,28,0,0,0
11403,67075547,3,0,0,16.13,0.04,28,0,0,0
11852,67179492,3,0,0,16.13,0.04,28,0,0,0
12350,67291525,3,0,0,16.13,0.04,28,0,0,0
12805,67401487,3,0,0,16.13,0.04,28,0,0,0
13250,67505150,3,0,0,16.13,0.04,28,0,0,0
13705,67609237,3,0,0,16.13,0.04,28,0,0,0
14159,67718509,3,0,0,16.13,0.04,28,0,0,0
14611,67821839,3,0,0,16.13,0.04,28,0,0,0
15108,67938941,3,0,0,16.13,0.04,28,0,0,0
15564,68043962,3,0,0,16.13,0.04,28,0,0,0
16020,68152882,3,0,0,16.13,0.03,28,0,0,0
16479,68257339,3,17,257,16.11,0.06,28,0,0,0
16974,68370937,3,293,700,16.09,0.11,28,0,0,0
17432,68476954,3,735,1100,16.1,0.16,28,0,0,0
17886,68584863,3,1111,1228,16.11,0.12,28,0,0,0
18339,68689495,3,1232,1271,16.11,0.11,28,0,0,0
18791,68795033,3,1271,1285,16.11,0.11,28,0,0,0
19288,68912866,3,1286,1300,16.11,0.11,28,0,0,0
19740,69014538,3,1300,1300,16.11,0.11,28,0,0,0
20429,69224444,3,1300,1300,16.11,0.11,28,0,0,0
20880,69330522,3,1300,1314,16.11,0.11,28,0,0,0
21829,69547901,3,1314,1314,16.11,0.11,28,0,0,0
22326,69661119,3,1314,1314,16.11,0.11,29,0,0,0
22786,69772853,3,1312,1300,16.1,0.11,28,0,0,0
23242,69878335,3,1300,1314,16.11,0.11,28,0,0,0
23696,69983392,3,1314,1314,16.11,0.11,28,0,0,0
24147,70085898,3,1314,1314,16.11,0.11,29,0,0,0
24638,70196760,3,1314,1314,16.11,0.11,28,0,0,0
25133,70309899,3,1312,1300,16.11,0.11,29,0,0,0
25590,70416448,3,1301,1314,16.1,0.11,29,0,0,0
26047,70523236,3,1313,1300,16.11,0.11,29,0,0,0
26545,70635760,3,1301,1314,16.11,0.11,29,0,0,0
27002,70743915,3,1314,1314,16.1,0.11,29,0,0,0
27459,70849512,3,1314,1314,16.11,0.11,28,0,0,0
27909,70953222,3,1314,1314,16.11,0.11,29,0,0,0
28368,71063350,3,1312,1300,16.11,0.11,29,0,0,0
28816,71165925,3,1300,1314,16.11,0.11,28,0,0,0
29315,71278353,3,1314,1314,16.11,0.11,28,0,0,0
29769,71389033,3,1312,1300,16.11,0.11,29,0,0,0
30227,71494128,3,1301,1314,16.11,0.11,28,0,0,0
30677,71597886,3,1314,1314,16.11,0.11,29,0,0,0
31133,71704568,3,1313,1300,16.11,0.11,28,0,0,0
31630,71816785,3,1300,1314,16.11,0.11,29,0,0,0
32086,71925772,3,1312,1300,16.11,0.11,29,0,0,0
32539,72029229,3,1300,1314,16.11,0.11,28,0,0,0
33031,72143779,3,1314,1314,16.11,0.11,28,0,0,0
33489,72250129,3,1314,1314,16.11,0.11,29,0,0,0
33941,72356959,3,1314,1314,16.1,0.11,28,0,0,0
34438,72469843,3,1312,1300,16.11,0.11,29,0,0,0
34850,72569858,3,1300,1314,16.11,0.11,29,0,0,0
35356,72684584,3,1314,1314,16.1,0.11,28,0,0,0
35767,72785216,3,1314,1314,16.11,0.11,28,0,0,0
36219,72890270,3,1314,1314,16.11,0.11,29,0,0,0
36720,73006352,3,1312,1300,16.11,0.11,28,0,0,0
37175,73109270,3,1300,1314,16.11,0.11,29,0,0,0
37661,73216948,3,1314,1314,16.11,0.11,29,0,0,0
38154,73329333,3,1313,1300,16.11,0.11,28,0,0,0
38613,73437987,3,1300,1314,16.11,0.11,28,0,0,0
39070,73547526,3,1312,1300,16.11,0.11,28,0,0,0
39522,73651069,3,1300,1314,16.11,0.11,28,0,0,0
39979,73759174,3,1314,1314,16.11,0.11,28,0,0,0
40434,73861270,3,1314,1314,16.11,0.11,28,0,0,0
40928,73978875,3,1314,1314,16.11,0.11,28,0,0,0
41381,74081550,3,1314,1314,16.11,0.11,29,0,0,0
41836,74187516,3,1314,1314,16.11,0.11,28,0,0,0
42330,74301275,3,1314,1314,16.1,0.11,29,0,0,0
42787,74410938,3,1314,1314,16.11,0.11,28,0,0,0
43238,74514597,3,1312,1300,16.11,0.11,29,0,0,0
43738,74628578,3,1301,1314,16.1,0.11,28,0,0,0
44196,74736795,3,1312,1300,16.11,0.11,28,0,0,0
44647,74838866,3,1300,1300,16.1,0.11,28,0,0,0
45103,74947604,3,1301,1314,16.11,0.11,29,0,0,0
45561,75052321,3,1314,1314,16.11,0.11,28,0,0,0
46011,75156447,3,1313,1300,16.11,0.11,28,0,0,0
46512,75268173,3,1300,1300,16.11,0.11,28,0,0,0
46959,75372937,3,1300,1314,16.1,0.11,28,0,0,0
47416,75477144,3,1314,1314,16.11,0.11,28,0,0,0
47873,75584564,3,1314,1314,16.11,0.11,28,0,0,0
48374,75698276,3,1312,1300,16.11,0.11,28,0,0,0
48826,75805844,3,1300,1314,16.11,0.11,28,0,0,0
49281,75908024,3,1314,1314,16.11,0.11,29,0,0,0
49733,76016858,3,1313,1257,16.15,0.06,28,0,0,0
50669,76239233,3,1229,0,16.12,0.03,29,0,0,0
51161,76354588,3,0,0,16.13,0.04,28,0,0,0
51614,76458885,3,0,0,16.12,0.04,28,0,0,0
52028,76564560,3,0,0,16.12,0.04,28,0,0,0
52531,76682764,3,0,0,16.13,0.04,28,0,0,0
52984,76790255,3,0,0,16.12,0.04,28,0,0,0
53440,76896485,3,0,0,16.13,0.04,28,0,0,0
53894,77004575,3,0,0,16.13,0.04,28,0,0,0
54345,77114766,3,0,0,16.12,0.04,28,0,0,0
54799,77219910,3,0,0,16.12,0.04,28,0,0,0
55296,77335488,3,0,0,16.12,0.04,28,0,0,0
55743,77440015,3,0,0,16.12,0.04,28,0,0,0
56202,77550916,3,0,0,16.12,0.03,28,0,0,0
56658,77655800,3,0,0,16.13,0.04,28,0,0,0
57068,77754956,3,0,0,16.13,0.04,28,0,0,0
57568,77870148,3,0,0,16.13,0.04,28,0,0,0
58017,77976857,3,0,0,16.13,0.04,28,0,0,0
58473,78083714,3,0,0,16.13,0.04,28,0,0,0
58932,78195024,3,0,0,16.13,0.04,28,0,0,0
59383,78300139,3,0,0,16.13,0.04,28,0,0,0
59834,78406581,3,0,0,16.13,0.04,28,0,0,0
60331,78525596,3,0,0,16.12,0.04,28,0,0,0
60789,78631500,3,0,0,16.12,0.04,28,0,0,0
61239,78739884,3,0,0,16.13,0.04,28,0,0,0
61693,78844120,3,0,0,16.13,0.04,28,0,0,0
62146,78952946,3,0,0,16.12,0.04,28,0,0,0
62643,79067123,3,0,0,16.12,0.04,28,0,0,0
63100,79180953,3,0,0,16.13,0.04,28,0,0,0
64225,79500775,3,0,0,16.12,0.04,28,0,0,0
64680,79607255,3,0,0,16.12,0.04,28,0,0,0
65134,79717909,3,0,0,16.12,0.04,28,0,0,0
65592,79823863,3,0,0,16.13,0.04,28,0,0,0
66046,79930915,3,0,0,16.13,0.04,28,0,0,0
66546,80049553,3,0,0,16.13,0.04,28,0,0,0
66999,80155931,3,0,0,16.13,0.04,28,0,0,0
67496,80271584,3,0,0,16.13,0.04,29,0,0,0
67949,80380721,3,0,0,16.12,0.04,29,0,0,0
68402,80484466,3,0,0,16.13,0.04,28,0,0,0
68900,80600215,3,0,0,16.13,0.04,28,0,0,0
69353,80707267,3,0,0,16.13,0.04,28,0,0,0
69762,80807227,3,0,0,16.13,0.04,28,0,0,0
70253,80918817,3,0,0,16.13,0.04,28,0,0,0
70755,81037462,3,0,0,16.12,0.04,28,0,0,0
71169,81136822,3,0,0,16.13,0.04,29,0,0,0
71667,81250478,3,0,0,16.11,0.04,28,0,0,0
72115,81357378,3,0,0,16.13,0.04,28,0,0,0
72611,81472840,3,0,0,16.13,0.04,28,0,0,0
73062,81582376,3,0,0,16.13,0.04,28,0,0,0
73517,81687933,3,0,0,16.12,0.04,28,0,0,0
73969,81795756,3,0,0,16.13,0.04,28,0,0,0
74466,81910048,3,0,0,16.12,0.04,28,0,0,0
74959,82025575,3,0,0,16.12,0.04,28,0,0,0
75412,82134714,3,0,0,16.12,0.04,28,0,0,0
75910,82248407,3,0,0,16.13,0.04,28,0,0,0
76316,82347039,3,0,0,16.12,0.04,28,0,0,0
76781,82461901,3,0,0,16.13,0.04,28,0,0,0
77226,82565562,3,0,0,16.13,0.04,28,0,0,0
77725,82678508,3,0,0,16.12,0.04,28,0,0,0
78178,82789762,3,0,0,16.13,0.04,28,0,0,0
78631,82893974,3,0,0,16.13,0.04,28,0,0,0
79128,83009377,3,0,0,16.12,0.05,28,0,0,0
79583,83120251,3,0,0,16.13,0.04,28,0,0,0
80038,83226340,3,0,0,16.13,0.04,28,0,0,0
80493,83337266,3,0,0,16.12,0.04,28,0,0,0
80945,83442881,3,0,0,16.13,0.04,28,0,0,0
81399,83549955,3,0,0,16.12,0.04,28,0,0,0
81857,83656471,3,0,0,16.13,0.04,28,0,0,0
82353,83773571,3,0,0,16.13,0.04,28,0,0,0
82805,83876519,3,0,0,16.12,0.04,28,0,0,0
83257,83982585,3,0,0,16.13,0.04,28,0,0,0
83757,84096778,3,0,0,16.12,0.04,28,0,0,0
84249,84212902,3,0,0,16.12,0.04,28,0,0,0
84700,84316001,3,0,0,16.13,0.04,28,0,0,0
85153,84422893,3,0,0,16.12,0.04,28,0,0,0
85610,84535766,3,0,0,16.13,0.04,28,0,0,0
86108,84649596,3,0,0,16.13,0.04,28,0,0,0
86561,84759375,3,0,0,16.13,0.04,28,0,0,0
87014,84862591,3,0,0,16.13,0.04,28,0,0,0
87468,84971022,3,0,0,16.12,0.04,28,0,0,0
87925,85075255,3,0,0,16.13,0.03,28,0,0,0
88418,85191756,3,0,0,16.13,0.04,28,0,0,0
88907,85308149,3,0,0,16.13,0.04,28,0,0,0
89321,85403774,3,0,0,16.12,0.04,28,0,0,0
89768,85511380,3,0,0,16.12,0.04,28,0,0,0
90270,85629923,3,0,0,16.13,0.03,28,0,0,0
90684,85731798,3,0,0,16.13,0.04,28,0,0,0
91181,85845025,3,0,0,16.13,0.04,28,0,0,0
91637,85953890,3,0,0,16.13,0.04,29,0,0,0
92094,86060237,3,0,0,16.12,0.03,28,0,0,0
92588,86173523,3,0,0,16.12,0.03,28,0,0,0
93044,86279511,3,0,0,16.13,0.03,28,0,0,0
93454,86380921,3,0,0,16.13,0.04,28,0,0,0
93951,86495862,3,0,0,16.13,0.04,28,0,0,0
94402,86603125,3,0,0,16.13,0.03,28,0,0,0
94853,86709927,3,0,0,16.13,0.04,28,0,0,0
95350,86822947,3,0,0,16.13,0.04,29,0,0,0
95801,86930793,3,0,0,16.12,0.04,28,0,0,0
96302,87044793,3,0,0,16.12,0.04,28,0,0,0
96750,87147128,3,0,0,16.12,0.04,28,0,0,0
97247,87263884,3,0,0,16.13,0.04,28,0,0,0
97655,87362916,3,0,0,16.13,0.04,28,0,0,0
98154,87478602,3,0,0,16.13,0.04,28,0,0,0
98611,87587273,3,0,0,16.13,0.04,28,0,0,0
99062,87692932,3,0,0,16.13,0.04,28,0,0,0
99547,87803346,3,0,0,16.13,0.04,28,0,0,0
99996,87908820,3,0,0,16.13,0.04,28,0,0,0
100500,88026130,3,0,0,16.13,0.04,28,0,0,0
100908,88125603,3,0,0,16.13,0.04,28,0,0,0
101411,88244766,3,0,0,16.13,0.04,28,0,0,0
101862,88355255,3,0,0,16.13,0.04,28,0,0,0
102315,88461008,3,0,0,16.13,0.04,28,0,0,0
102765,88567815,3,0,0,16.13,0.04,28,0,0,0
103272,88685549,3,0,0,16.12,0.04,28,0,0,0
103727,88793522,3,0,0,16.13,0.04,28,0,0,0
104180,88897515,3,0,0,16.13,0.04,28,0,0,0
104638,89006986,3,0,0,16.13,0.04,28,0,0,0
105092,89115875,3,0,0,16.13,0.04,28,0,0,0
105547,89218530,3,0,0,16.13,0.04,28,0,0,0
106040,89334353,3,0,0,16.12,0.04,28,0,0,0
106496,89441783,3,0,0,16.13,0.04,28,0,0,0
106948,89548596,3,0,0,16.13,0.04,28,0,0,0
107402,89652093,3,0,0,16.13,0.04,28,0,0,0
107853,89758936,3,0,0,16.13,0.04,28,0,0,0
108350,89870911,3,0,0,16.13,0.04,28,0,0,0
108798,89973976,3,0,0,16.12,0.04,28,0,0,0
109296,90087018,3,0,0,16.13,0.04,28,0,0,0
109746,90193461,3,0,0,16.12,0.04,28,0,0,0
110207,90301926,3,0,0,16.13,0.04,28,0,0,0
110658,90408899,3,0,0,16.13,0.04,29,0,0,0
111157,90524020,3,0,0,16.12,0.04,28,0,0,0
111566,90615732,3,0,0,16.13,0.04,29,0,0,0
112061,90733352,3,13,157,16.11,0.05,28,0,0,0
112513,90836769,3,174,614,16.1,0.09999999,28,0,0,0
113000,90945871,3,632,1028,16.1,0.16,28,0,0,0
113462,91053270,3,1040,1214,16.11,0.12,29,0,0,0
113956,91165334,3,1218,1271,16.11,0.11,29,0,0,0
114410,91268289,3,1272,1300,16.1,0.11,28,0,0,0
114864,91374596,3,1300,1314,16.11,0.11,28,0,0,0
115367,91490882,3,1314,1314,16.11,0.11,29,0,0,0
115771,91587903,3,1314,1314,16.11,0.11,28,0,0,0
116273,91701806,3,1314,1314,16.11,0.11,28,0,0,0
116572,91814795,3,1314,1314,16.11,0.11,28,0,0,0
117056,91922502,3,1314,1314,16.11,0.11,29,0,0,0
117513,92026868,3,1314,1314,16.11,0.11,29,0,0,0
117968,92133329,3,1314,1314,16.11,0.11,29,0,0,0
118418,92236955,3,1314,1314,16.1,0.11,29,0,0,0
118915,92353822,3,1314,1314,16.11,0.11,29,0,0,0
119369,92458353,3,1314,1314,16.11,0.11,29,0,0,0
119826,92567924,3,1314,1314,16.11,0.11,29,0,0,0
120281,92671252,3,1314,1314,16.11,0.11,28,0,0,0
120780,92789770,3,1314,1314,16.11,0.11,29,0,0,0
121680,92998130,3,1314,1314,16.11,0.11,29,0,0,0
122133,93101255,3,1314,1314,16.1,0.11,29,0,0,0
122556,93208892,3,1314,1314,16.11,0.11,29,0,0,0
123049,93325261,3,1314,1314,16.11,0.11,28,0,0,0
123954,93531527,3,1314,1314,16.11,0.11,29,0,0,0
124451,93643575,3,1314,1314,16.11,0.11,29,0,0,0
124899,93747523,3,1314,1314,16.1,0.11,29,0,0,0
125400,93861107,3,1314,1314,16.11,0.11,29,0,0,0
125852,93967885,3,1314,1314,16.11,0.11,29,0,0,0
126310,94072969,3,1314,1314,16.11,0.11,29,0,0,0
126761,94178126,3,1314,1314,16.11,0.11,29,0,0,0
127260,94289920,3,1314,1314,16.11,0.11,29,0,0,0
127714,94398794,3,1314,1314,16.11,0.11,28,0,0,0
128168,94499604,3,1314,1314,16.11,0.11,28,0,0,0
128617,94606848,3,1314,1314,16.11,0.11,29,0,0,0
129110,94719954,3,1314,1314,16.1,0.12,29,0,0,0
129563,94820903,3,1317,1557,16.07,0.25,29,0,0,0
130062,94940858,3,1624,2257,15.99,0.6,29,0,0,0
130517,95042339,3,2273,2500,16.04,0.48,29,0,0,0
130933,95146330,3,2502,2542,16.02,0.48,29,0,0,0
131431,95258003,3,2542,2542,16.1,0.34,29,0,0,0
131888,95366603,3,2538,2500,16.05,0.47,29,1,0,0
132343,95470468,3,2508,2714,16.05,0.62,29,1,0,0
132798,95582542,3,2762,3385,15.93,1.58,29,1,0,0
133250,95689974,3,3406,3942,15.83,1.84,29,1,0,0
133746,95809134,3,4005,4671,15.67,2.79,29,1,0,0
134153,95908935,3,4679,5071,15.6,2.87,29,1,0,0
134654,96027226,3,5118,5614,15.48,3.55,29,1,0,0
135064,96125146,3,5620,6142,15.47,3.85,29,1,0,0
135562,96242306,3,6087,5528,15.7,2.16,29,1,0,0
136015,96351077,3,5500,5242,15.69,2.12,29,1,0,0
136472,96456909,3,5237,5185,15.6,2.26,29,1,0,0
136918,96566494,3,5186,5200,15.62,2.34,29,1,0,0
137372,96672823,3,5197,5071,15.64,1.89,29,1,0,0
137822,96781897,3,5069,5042,15.68,1.96,29,1,0,0
138316,96898119,3,5023,4842,15.48,2.03,29,1,0,0
138802,97008242,3,4838,4800,15.66,1.49,29,2,0,0
139256,97111743,3,4795,4414,15.57,1.21,29,2,0,0
139706,97220242,3,4419,4528,15.44,2.02,29,2,0,0
140160,97331334,3,4550,4871,15.48,2.34,29,2,0,0
140657,97447520,3,4884,5028,15.57,2.32,29,2,0,0
141109,97554854,3,5044,5214,15.57,2.1,29,2,0,0
141564,97660916,3,5208,5128,15.55,2.06,29,2,0,0
142018,97773937,3,5119,5042,15.54,2.16,29,2,0,0
142471,97880581,3,5040,5028,15.6,2.09,29,2,0,0
142920,97989594,3,5028,5042,15.54,2,29,2,0,0
143417,98106921,3,5036,4985,15.59,2.03,29,2,0,0
143868,98213818,3,4997,5114,15.54,2.17,29,2,0,0
144318,98322753,3,5123,5214,15.58,2.14,29,2,0,0
144771,98427045,3,5209,5100,15.58,2.39,29,2,0,0
145223,98535248,3,5103,5171,15.57,2.17,29,2,0,0
145680,98643348,3,5166,5071,15.47,2.13,29,2,0,0
146097,98750273,3,5074,5257,15.43,2.74,29,2,0,0
146597,98866742,3,5292,5657,15.26,3.38,29,3,0,0
147047,98972326,3,5661,5728,15.39,3.17,29,3,0,0
147498,99077859,3,5726,5685,15.41,3.06,29,3,0,0
147952,99188709,3,5684,5642,15.34,3.02,29,3,0,0
148450,99308907,3,5651,5714,15.36,3.17,29,3,0,0
148900,99415456,3,5697,5528,15.42,2.59,29,3,0,0
149350,99523823,3,5525,5485,15.3,2.56,29,3,0,0
149811,99631260,3,5482,5457,15.39,2.68,29,3,0,0
150212,99731992,3,5459,5571,15.42,2.83,29,3,0,0
150717,99848480,3,5564,5471,15.43,2.64,29,3,0,0
151171,99957745,3,5465,5414,15.33,2.51,29,4,0,0
151622,100063799,3,5406,5314,15.47,2.32,29,4,0,0
152396,100285574,3,4900,5057,15.44,2.14,29,4,0,0
152843,100396260,3,5053,5014,15.47,1.92,29,4,0,0
153290,100507908,3,5008,4942,15.49,1.81,29,4,0,0
153699,100609948,3,4936,4642,15.51,1.36,29,4,0,0
154104,100713826,3,4636,4371,15.55,1.46,29,4,0,0
154630,100833517,3,4371,4371,15.46,1.61,29,4,0,0
155487,101048575,3,4380,4642,15.6,1.73,29,4,0,0
155936,101159817,3,4626,4400,15.57,1.26,29,4,0,0
156385,101269488,3,4395,4285,15.61,1.19,29,4,0,0
156823,101376245,3,4282,4242,15.47,1.48,29,4,0,0
157274,101485898,3,4250,4428,15.52,1.72,29,4,0,0
157725,101601859,3,4438,4542,15.53,1.85,29,4,0,0
158133,101703818,3,4542,4585,15.48,1.58,29,4,0,0
158585,101815837,3,4580,4457,15.52,1.32,29,4,0,0
159033,101924757,3,4475,4714,15.54,2.29,29,4,0,0
159481,102035522,3,4731,4900,15.5,2.42,29,4,0,0
159881,102135851,3,4918,5300,15.37,2.93,29,5,0,0
160332,102244825,3,5301,5371,15.47,2.78,29,5,0,0
160776,102354892,3,5378,5485,15.45,3.18,29,5,0,0
161225,102460807,3,5501,5828,15.47,3.45,29,5,0,0
161672,102573525,3,5826,5785,15.4,2.98,29,5,0,0
162151,102688433,3,5782,5757,15.43,2.98,29,5,0,0
162603,102802016,3,5738,5542,15.49,2.33,29,5,0,0
163014,102905255,3,5539,5371,15.5,2.3,29,5,0,0
163459,103013013,3,5368,5200,15.46,2.28,29,5,0,0
163902,103125540,3,5189,5100,15.48,2.29,29,5,0,0
164830,103342572,3,5100,5100,15.45,2.15,29,5,0,0
165239,103443123,3,5096,5014,15.48,2.13,29,6,0,0
165726,103559834,3,5027,5157,15.47,2.3,29,6,0,0
166209,103674784,3,5155,5142,15.46,2.36,29,6,0,0
166573,103766035,3,5142,5157,15.51,2.02,29,6,0,0
167063,103883816,3,5139,4957,15.47,2.03,29,6,0,0
167509,103992062,3,4956,4942,15.43,1.95,29,6,0,0
167957,104098152,3,4943,5071,15.48,1.97,29,6,0,0
168446,104219971,3,5049,4857,15.45,1.93,29,6,0,0
168844,104317006,3,4863,5028,15.35,2.31,29,6,0,0
169295,104424109,3,5060,5457,15.35,3.24,29,6,0,0
169742,104538026,3,5466,5600,15.2,3.16,29,6,0,0
170150,104638461,3,5608,5757,15.17,3.61,29,6,0,0
170554,104742030,3,5763,5985,15.2,3.77,29,6,0,0
171009,104853145,3,5986,6057,15.22,3.47,29,7,0,0
171459,104963348,3,6057,6057,15.22,3.49,29,7,0,0
171910,105072983,3,6056,6042,15.25,3.63,29,7,0,0
172353,105181793,3,6048,6357,15.17,3.85,29,7,0,0
172844,105297642,3,6332,6085,15.23,3.84,29,7,0,0
173295,105405979,3,6108,6342,15.24,3.82,29,7,0,0
173734,105511533,3,6326,6042,15.3,3.36,29,7,0,0
174142,105612921,3,6039,5914,15.33,3.06,29,7,0,0
174622,105726470,3,5909,5857,15.39,3.03,29,7,0,0
175073,105836913,3,5814,5385,15.41,2.03,29,7,0,0
175482,105938788,3,5383,5271,15.4,2.26,30,8,0,0
175977,106057673,3,5261,5157,15.39,2.46,29,8,0,0
176422,106166935,3,5165,5257,15.46,2.34,29,8,0,0
176828,106265000,3,5256,5242,15.44,2.58,29,8,0,0
177277,106379508,3,5246,5314,15.45,2.25,29,8,0,0
177730,106491502,3,5310,5271,15.34,2.55,29,8,0,0
178128,106591895,3,5281,5514,15.43,3.01,29,8,0,0
178579,106701815,3,5507,5400,15.49,2.36,29,8,0,0
179025,106814112,3,5401,5414,15.5,2.54,30,8,0,0
179464,106919348,3,5414,5414,15.43,2.71,29,8,0,0
179916,107031235,3,5414,5414,15.42,2.82,29,8,0,0
180365,107142975,3,5420,5485,15.29,2.7,29,8,0,0
180812,107250500,3,5479,5400,15.33,2.93,29,8,0,0
181263,107361039,3,5400,5400,15.3,2.18,29,9,0,0
181712,107470761,3,5377,5157,15.23,1.89,30,9,0,0
182153,107577632,3,5147,5014,15.16,1.86,29,9,0,0
182602,107686340,3,5021,5100,15.15,2.35,29,9,0,0
183006,107789522,3,5092,4928,15.27,1.9,29,9,0,0
183903,108008365,3,4931,5014,15.3,2.46,30,9,0,0
184345,108115019,3,5060,5457,15.33,3.15,30,9,0,0
184796,108225544,3,5500,5971,15.29,3.98,29,9,0,0
185193,108326917,3,6009,6485,15.31,5.18,30,9,0,0
185644,108436811,3,6508,6828,15.32,5.58,30,9,0,0
186044,108539246,3,6828,6828,15.29,5.61,29,10,0,0
186492,108648493,3,6827,6814,15.25,5.39,29,10,0,0
186932,108757790,3,6816,6842,15.38,5.01,29,10,0,0
187387,108867545,3,6830,6600,15.37,4.27,29,10,0,0
187787,108970722,3,6594,6300,15.38,4.03,30,10,0,0
188282,109085866,3,6300,6300,15.3,3.74,29,10,0,0
188722,109191736,3,6280,6014,15.3,3.26,30,10,0,0
189211,109311274,3,6004,5800,15.26,2.66,30,10,0,0
189614,109407026,3,5789,5442,15.3,2.49,30,11,0,0
190063,109523114,3,5440,5342,15.28,2.22,30,11,0,0
190955,109742963,3,5351,5542,15.35,2.99,30,11,0,0
191403,109848599,3,5544,5585,15.38,2.67,30,11,0,0
191846,109958460,3,5582,5557,15.29,3.18,30,11,0,0
192295,110068254,3,5599,6028,15.3,4.35,30,11,0,0
192740,110178136,3,6041,6171,15.33,3.61,30,11,0,0
193149,110279531,3,6167,6085,15.32,3.07,30,11,0,0
193594,110388231,3,6050,5600,15.36,2.41,30,11,0,0
194042,110496271,3,5584,5400,15.32,2.32,30,11,0,0
194897,110708993,3,5402,5528,15.3,2.82,30,12,0,0
195343,110821013,3,5536,5628,15.32,2.81,30,12,0,0
195791,110932550,3,5629,5642,15.25,3.05,30,12,0,0
196202,111036813,3,5647,5757,15.33,3.25,30,12,0,0
196651,111149825,3,5758,5785,15.35,3.32,30,12,0,0
197146,111266911,3,5771,5628,15.28,2.92,30,12,0,0
197552,111370845,3,5630,5685,15.35,2.8,30,12,0,0
198038,111485024,3,5677,5600,15.32,3.13,30,12,0,0
198442,111589735,3,5600,5614,15.35,3.15,30,12,0,0
198887,111698920,3,5629,5785,15.33,2.8,30,12,0,0
199329,111807974,3,5770,5557,15.33,2.99,30,12,0,0
199779,111918890,3,5565,5742,15.31,2.89,30,13,0,0
200232,112029473,3,5730,5614,15.31,3.04,30,13,0,0
200671,112136024,3,5624,5757,15.27,3.01,30,13,0,0
201124,112249260,3,5750,5685,15.25,2.92,30,13,0,0
201527,112349497,3,5684,5642,15.35,2.95,30,13,0,0
202016,112467363,3,5645,5685,15.35,2.9,30,13,0,0
202417,112565114,3,5682,5585,15.35,2.56,30,13,0,0
202911,112684215,3,5569,5414,15.34,2.73,30,13,0,0
203314,112789552,3,5417,5457,15.38,2.49,30,13,0,0
203765,112896951,3,5458,5485,15.3,2.7,30,13,0,0
204171,113001234,3,5486,5542,15.35,2.63,30,13,0,0
204625,113114216,3,5532,5400,15.32,2.71,30,13,0,0
205069,113222897,3,5401,5442,15.33,2.64,30,14,0,0
205515,113331403,3,5438,5285,15.37,2.16,30,14,0,0
205967,113442934,3,5280,5185,15.38,2.36,30,14,0,0
206415,113553432,3,5184,5171,15.35,2.26,30,14,0,0
206909,113675867,3,5169,5157,15.39,2.31,30,14,0,0
207308,113776756,3,5157,5157,15.35,2.16,30,14,0,0
207763,113886838,3,5160,5200,15.33,2.13,30,14,0,0
208169,113995896,3,5177,5014,15.3,1.91,30,14,0,0
208579,114092861,3,5010,4942,15.38,1.86,30,14,0,0
209060,114214035,3,4953,5014,15.4,2.15,30,14,0,0
209474,114315539,3,5007,4942,15.37,1.67,30,14,0,0
209925,114427990,3,4948,5028,15.36,2.14,30,14,0,0
210369,114539335,3,5035,5100,15.26,2.22,30,14,0,0
210820,114643461,3,5116,5271,15.27,2.31,30,14,0,0
211224,114753753,3,5263,5185,15.38,2.24,30,14,0,0
211678,114862997,3,5170,5000,15.42,1.83,30,15,0,0
212085,114967547,3,4998,4985,15.41,1.9,30,15,0,0
212535,115081764,3,4970,4857,15.42,1.45,30,15,0,0
212946,115186237,3,4855,4771,15.38,1.77,30,15,0,0
213398,115296464,3,4770,4742,15.39,1.63,30,15,0,0
213884,115414214,3,4748,4814,15.36,1.71,30,15,0,0
214330,115519237,3,4816,4871,15.39,2.16,30,15,0,0
214810,115633739,3,4891,5028,15.35,2.19,30,15,0,0
215210,115734325,3,5030,5114,15.34,2.02,30,15,0,0
215666,115844921,3,5115,5128,15.33,2.2,30,15,0,0
216112,115950640,3,5126,5100,15.37,1.82,30,15,0,0
216558,116062877,3,5086,4900,15.33,1.9,30,15,0,0
217002,116170813,3,4910,5057,15.35,1.96,30,15,0,0
217455,116276868,3,5045,4885,15.38,1.94,30,15,0,0
217898,116385772,3,4879,4828,15.38,1.8,30,15,0,0
218747,116598555,3,4829,4900,15.38,1.93,30,15,0,0
219201,116709332,3,4895,4842,15.39,1.86,30,16,0,0
219607,116814819,3,4840,4714,15.39,1.79,30,16,0,0
219992,116924961,3,4726,4842,15.25,2.01,30,16,0,0
220440,117032038,3,4857,5071,15.35,2.06,30,16,0,0
221293,117247086,3,5071,5085,15.39,2.28,30,16,0,0
221740,117356256,3,5074,4942,15.31,2.13,30,16,0,0
222149,117458886,3,4943,5071,15.33,2.04,30,16,0,0
222632,117574937,3,5075,5142,15.32,2.12,30,16,0,0
223040,117673812,3,5140,5071,15.29,2.15,29,16,0,0
223490,117783873,3,5074,5142,15.31,2.12,30,16,0,0
223943,117893836,3,5142,5142,15.35,2.37,30,16,0,0
224389,118005450,3,5155,5357,15.3,2.77,30,16,0,0
225276,118218796,3,5356,5314,15.26,2.25,30,16,0,0
225722,118328561,3,5304,5200,15.3,2.34,30,17,0,0
226175,118440842,3,5209,5342,15.27,2.62,30,17,0,0
226620,118551357,3,5353,5514,15.32,2.86,30,17,0,0
227028,118653321,3,5514,5542,15.39,2.78,30,17,0,0
227472,118762929,3,5536,5471,15.39,2.66,30,17,0,0
227920,118873471,3,5488,5671,15.33,2.96,30,17,0,0
228331,118979243,3,5663,5571,15.38,2.62,30,17,0,0
228775,119086040,3,5571,5571,15.29,2.83,30,17,0,0
229223,119198860,3,5560,5457,15.35,2.56,30,17,0,0
229673,119309011,3,5448,5357,15.36,2.44,30,17,0,0
230121,119418554,3,5350,5285,15.37,2.55,30,17,0,0
230567,119529461,3,5305,5442,15.33,2.64,30,17,0,0
230974,119629966,3,5442,5442,15.27,2.45,30,17,0,0
231420,119740229,3,5447,5514,15.36,2.65,30,18,0,0
231867,119847678,3,5507,5414,15.37,2.55,30,18,0,0
232315,119960801,3,5426,5614,15.38,2.69,30,18,0,0
232769,120073297,3,5604,5485,15.33,2.69,30,18,0,0
233172,120175971,3,5485,5485,15.3,2.74,30,18,0,0
233660,120287663,3,5497,5657,15.33,2.87,30,18,0,0
234061,120386807,3,5655,5600,15.33,2.68,30,18,0,0
234514,120498245,3,5605,5871,15.35,3.18,30,18,0,0
234959,120609070,3,5857,5671,15.3,3.05,30,18,0,0
235413,120722601,3,5691,5885,15.3,3.02,30,18,0,0
235814,120821232,3,5882,5828,15.37,2.68,30,18,0,0
236304,120939557,3,5806,5600,15.32,2.8,30,18,0,0
236706,121037515,3,5598,5557,15.37,2.66,30,19,0,0
237149,121145110,3,5555,5514,15.38,2.48,30,19,0,0
237610,121255845,3,5520,5657,15.41,2.52,30,19,0,0
238055,121367218,3,5651,5585,15.35,2.63,30,19,0,0
238510,121480948,3,5571,5400,15.35,2.68,30,19,0,0
238959,121596452,3,5416,5571,15.38,2.95,30,19,0,0
239368,121697494,3,5597,5828,15.36,2.83,30,19,0,0
239771,121798760,3,5823,5742,15.36,2.82,30,19,0,0
240665,122015133,3,5744,5942,15.34,3.1,30,19,0,0
241113,122130043,3,5929,5771,15.32,2.82,30,20,0,0
241566,122239917,3,5769,5728,15.38,2.67,30,20,0,0
242012,122351470,3,5721,5585,15.43,2.6,30,20,0,0
242458,122456897,3,5587,5628,15.39,2.64,30,20,0,0
242899,122566221,3,5630,5671,15.35,2.66,30,20,0,0
243349,122674226,3,5671,5671,15.35,2.56,30,20,0,0
243801,122788980,3,5669,5657,15.4,2.86,30,20,0,0
244280,122899032,3,5661,5728,15.32,2.8,30,20,0,0
244690,123004829,3,5728,5728,15.39,2.9,30,20,0,0
245176,123121335,3,5749,5942,15.3,3.4,30,20,0,0
245583,123221829,3,5936,5871,15.43,2.88,30,20,0,0
246038,123335982,3,5865,5742,15.39,2.67,30,20,0,0
246491,123446598,3,5753,5871,15.37,3.54,30,21,0,0
246891,123546497,3,5875,6028,15.38,3.74,30,21,0,0
247389,123667743,3,6043,6228,15.35,3.81,30,21,0,0
247789,123767362,3,6224,6142,15.29,2.85,30,21,0,0
248238,123874867,3,6123,5728,15.26,2.77,30,21,0,0
248684,123986039,3,5721,5585,15.28,2.58,30,21,0,0
249136,124095114,3,5580,5514,15.32,2.8,30,21,0,0
249582,124208940,3,5518,5571,15.18,2.89,30,21,0,0
249987,124309242,3,5576,5914,15.19,3.25,30,21,0,0
250469,124422531,3,5910,5871,15.14,3.48,30,21,0,0
250875,124528885,3,5869,5757,15.17,3.36,30,21,0,0
251325,124638790,3,5762,5957,15.1,3.35,30,22,0,0
251779,124755934,3,5959,6000,15.11,3.39,30,22,0,0
252221,124863773,3,6011,6142,15.11,3.63,30,22,0,0
252627,124963879,3,6141,6128,15.14,3.69,30,22,0,0
253076,125072708,3,6122,6014,15.16,3.76,30,22,0,0
253519,125187119,3,6014,6100,15.21,3.62,30,22,0,0
253970,125294482,3,6097,5928,15.23,3.3,30,22,0,0
254447,125404956,3,5927,5914,15.26,3.09,30,22,0,0
254934,125526874,3,5898,5757,15.15,3.17,30,22,0,0
255341,125625136,3,5754,5714,15.19,2.91,30,23,0,0
255787,125739990,3,5695,5528,15.25,2.65,30,23,0,0
256237,125845379,3,5536,5614,15.18,2.97,30,23,0,0
256677,125955552,3,5606,5528,15.33,2.51,30,23,0,0
257129,126064336,3,5518,5385,15.33,2.6,30,23,0,0
257573,126176149,3,5382,5357,15.27,2.36,30,23,0,0
258019,126281848,3,5345,5100,15.24,2.41,30,23,0,0
258471,126395123,3,5109,5300,15.3,2.67,30,23,0,0
258925,126505993,3,5309,5442,15.18,2.83,30,23,0,0
259366,126615891,3,5462,5671,15.19,3.13,30,23,0,0
259810,126724227,3,5661,5528,15.16,2.82,30,23,0,0
260263,126835867,3,5545,5714,15.25,3.27,30,23,0,0
260672,126942514,3,5722,5814,15.15,3.35,30,24,0,0
261119,127048349,3,5815,5842,15.19,3.29,30,24,0,0
261561,127156011,3,5835,5714,15.2,3.26,30,24,0,0
262015,127268038,3,5715,5728,15.23,2.97,30,24,0,0
262458,127376231,3,5715,5585,15.23,2.96,30,24,0,0
262903,127482762,3,5589,5642,15.29,2.77,30,24,0,0
263311,127588649,3,5639,5542,15.27,2.71,30,24,0,0
263759,127694495,3,5543,5642,15.22,2.76,30,24,0,0
264200,127801145,3,5631,5414,15.28,2.75,30,24,0,0
264654,127914228,3,5422,5514,15.25,2.76,30,24,0,0
265102,128024044,3,5515,5528,15.23,2.9,30,24,0,0
265549,128135221,3,5523,5457,15.27,2.63,30,24,0,0
266004,128246855,3,5458,5485,15.25,2.62,30,25,0,0
266409,128349242,3,5483,5400,15.27,2.56,30,25,0,0
267333,128571276,3,5399,5357,15.28,2.6,30,25,0,0
267793,128684549,3,5358,5400,15.26,2.79,30,25,0,0
268240,128799259,3,5407,5485,15.17,3.1,30,25,0,0
268690,128907503,3,5502,5671,15.24,3.01,30,25,0,0
269129,129015998,3,5659,5500,15.25,2.75,30,25,0,0
269537,129123820,3,5498,5400,15.23,2.6,30,25,0,0
270467,129350365,3,5397,5300,15.23,2.46,30,25,0,0
270915,129458842,3,5295,5228,15.23,2.24,30,25,0,0
271356,129568214,3,5221,5128,15.2,2.1,30,26,0,0
271803,129674567,3,5127,5114,15.2,2.25,30,26,0,0
272209,129780527,3,5124,5342,15.17,2.95,30,26,0,0
272656,129889858,3,5339,5300,15.25,2.71,30,26,0,0
273060,129993300,3,5300,5342,15.19,2.6,30,26,0,0
273547,130107933,3,5337,5271,15.21,2.31,30,26,0,0
273996,130220771,3,5258,5142,15.19,2.13,30,26,0,0
274885,130434502,3,5152,5428,15.17,3,30,26,0,0
275287,130537017,3,5430,5542,15.19,3.01,30,26,0,0
275744,130649040,3,5555,5742,15.14,3.04,30,26,0,0
276191,130765816,3,5707,5457,15.15,2.68,30,26,0,0
277526,131089141,3,5462,5671,15.11,3.18,30,27,0,0
277942,131203151,3,5697,5842,15.11,3.4,30,27,0,0
278381,131299774,3,5842,5857,15.13,3.27,30,27,0,0
279312,131529244,3,5848,5671,15.15,3.09,30,27,0,0
279720,131629780,3,5686,5828,15.13,2.97,30,27,0,0
280125,131724140,3,5825,5685,15.17,2.81,30,27,0,0
280604,131843503,3,5687,5714,15.23,2.88,30,27,0,0
281012,131949126,3,5699,5557,15.22,2.83,30,27,0,0
281459,132056518,3,5558,5571,15.15,2.85,30,27,0,0
281860,132160990,3,5567,5500,15.25,2.83,30,28,0,0
282358,132284895,3,5507,5585,15.18,2.75,30,28,0,0
282765,132390910,3,5585,5585,15.13,2.9,30,28,0,0
283216,132495006,3,5577,5500,15.17,2.86,30,28,0,0
283616,132600125,3,5511,5628,15.19,3.16,30,28,0,0
284019,132700530,3,5628,5657,15.21,2.82,30,28,0,0
284465,132809268,3,5656,5628,15.25,2.59,30,28,0,0
284909,132916754,3,5625,5385,15.23,2.62,30,28,0,0
285353,133027589,3,5386,5457,15.21,2.44,30,28,0,0
285800,133137271,3,5452,5371,15.27,2.59,30,28,0,0
286248,133245506,3,5369,5342,15.24,2.69,30,28,0,0
286694,133359497,3,5348,5442,15.26,2.71,30,28,0,0
287101,133460751,3,5443,5528,15.14,3.03,30,29,0,0
287545,133568920,3,5530,5685,15.07,3.12,30,29,0,0
288475,133796450,3,5698,5985,15.13,3.18,30,29,0,0
288917,133904832,3,5962,5742,15.19,3.03,30,29,0,0
289376,134020879,3,5748,5814,15.17,3.02,30,29,0,0
289823,134127663,3,5807,5757,15.14,3.05,30,29,0,0
290226,134229116,3,5746,5614,15.22,2.88,30,29,0,0
290671,134339769,3,5611,5571,15.17,2.91,30,29,0,0
291120,134448330,3,5571,5571,15.22,2.96,30,29,0,0
291514,134545265,3,5572,5628,15.19,2.96,30,29,0,0
292008,134663146,3,5634,5700,15.22,3.2,30,30,0,0
292411,134766522,3,5703,5914,15.25,3.71,30,30,0,0
292857,134874251,3,5908,5800,15.22,3.79,30,30,0,0
293344,134995363,3,5812,5957,15.21,2.98,30,30,0,0
294199,135208231,3,5930,5185,15.21,2.18,30,30,0,0
295049,135415862,3,5183,5028,15.21,1.81,30,30,0,0
295493,135527470,3,5014,4685,15.26,1.63,30,30,0,0
295944,135635898,3,4685,4714,15.25,1.7,30,30,0,0
296385,135745861,3,4705,4600,15.19,1.65,30,30,0,0
297727,136076990,3,4610,5471,15.1,3.21,30,31,0,0
298167,136180121,3,5473,5557,15.13,2.9,30,31,0,0
298619,136292927,3,5555,5500,15.22,2.31,30,31,0,0
299065,136404948,3,5485,5271,15.22,2.42,30,31,0,0
299563,136529144,3,5289,5442,15.09,2.6,30,31,0,0
299920,136616892,3,5444,5585,15.11,2.78,30,31,0,0
300400,136730475,3,5566,5328,15.03,2.3,30,31,0,0
301254,136944536,3,5330,5442,15.07,2.36,30,31,0,0
301699,137049932,3,5437,5271,15.01,2.58,30,31,0,0
302151,137165934,3,5278,5385,14.99,2.64,30,31,0,0
302602,137274232,3,5382,5357,15.08,2.4,30,31,0,0
303042,137380794,3,5353,5300,15.07,2.55,30,32,0,0
303490,137488226,3,5311,5471,15.04,2.82,30,32,0,0
303895,137591032,3,5474,5714,15.13,3.07,30,32,0,0
304387,137712381,3,5676,5314,15.2,1.73,30,32,0,0
304790,137814458,3,5283,4857,15.21,1.37,30,32,0,0
305689,138038131,3,4858,4885,15.16,2.11,30,32,0,0
306135,138146863,3,4909,5157,15.14,2.86,30,32,0,0
306579,138252275,3,5183,5428,15.17,2.94,30,32,0,0
306985,138355353,3,5443,5642,15.14,2.71,30,32,0,0
307434,138462831,3,5627,5428,15.16,2.29,30,32,0,0
307877,138570918,3,5424,5371,15.08,2.68,30,32,0,0
308324,138680560,3,5361,5242,15.05,2.24,30,32,0,0
308727,138783772,3,5242,5314,15.15,2.37,30,32,0,0
309176,138893905,3,5311,5185,15.14,2.21,30,33,0,0
309612,138997631,3,5186,5228,15.19,2.56,30,33,0,0
310032,139108482,3,5227,5214,15.09,2.5,30,33,0,0
310520,139224294,3,5229,5385,15.12,2.76,30,33,0,0
310958,139329866,3,5386,5414,15.13,3.02,30,33,0,0
311411,139438502,3,5413,5371,15.16,2.54,30,33,0,0
311819,139546471,3,5373,5400,15.24,2.52,30,33,0,0
312269,139657510,3,5389,5271,15.17,2.46,30,33,0,0
312713,139767713,3,5298,5600,15.09,3.3,30,33,0,0
313120,139868873,3,5611,5857,15.05,4.15,30,33,0,0
313565,139980735,3,5883,6214,15.18,3.9,30,33,0,0
314009,140084564,3,6198,5857,15.19,2.63,30,34,0,0
314459,140199552,3,5798,5214,15.2,1.8,30,34,0,0
315356,140420896,3,5184,4514,15.22,1.13,30,34,0,0
315758,140522248,3,4513,4485,15.24,1.39,30,34,0,0
316208,140631519,3,4484,4471,15.21,1.6,30,34,0,0
316656,140746807,3,4474,4528,15.21,1.93,30,34,0,0
317104,140857001,3,4541,4671,15.25,1.74,30,34,0,0
317505,140957359,3,4674,4814,15.13,2.08,30,34,0,0
317955,141066866,3,4822,5000,15.12,2.29,30,34,0,0
318400,141179908,3,5014,5157,15.07,2.57,30,34,0,0
318840,141283947,3,5157,5157,15.13,2.43,30,34,0,0
319244,141385955,3,5159,5271,15.22,2.47,30,34,0,0
319697,141496228,3,5267,5200,15.14,2.3,30,34,0,0
320104,141600475,3,5198,5114,15.09,2.1,30,34,0,0
320589,141718593,3,5130,5271,15.09,2.19,30,34,0,0
321041,141828852,3,5267,5228,15.2,2.29,30,34,0,0
321444,141926372,3,5229,5285,15.17,2.46,30,35,0,0
321891,142036564,3,5281,5200,15.18,2.2,30,35,0,0
322338,142149219,3,5198,5171,15.14,2.14,30,35,0,0
322813,142262433,3,5169,5142,15.21,2.26,30,35,0,0
323221,142366903,3,5144,5285,15.2,2.17,30,35,0,0
323667,142476818,3,5267,5071,15.16,2.23,30,35,0,0
324113,142587477,3,5080,5200,15.21,2.1,30,35,0,0
324600,142710775,3,5172,5042,15.23,2.1,30,35,0,0
325488,142917552,3,5032,4828,15.24,1.78,30,35,0,0
325890,143021232,3,4828,4842,15.27,1.82,30,35,0,0
326377,143143130,3,4834,4757,15.22,1.55,30,35,0,0
326821,143249784,3,4748,4671,15.23,1.68,30,35,0,0
327256,143352241,3,4671,4700,15.25,1.77,30,35,0,0
327712,143466215,3,4711,4828,15.23,1.93,30,35,0,0
328162,143580823,3,4836,4971,15.18,2.13,30,35,0,0
328609,143688539,3,4972,4985,15.22,1.91,30,36,0,0
329059,143804345,3,4973,4885,15.27,1.44,30,36,0,0
329461,143900582,3,4881,4814,15.2,1.57,30,36,0,0
329870,144009856,3,4815,4942,15.19,1.96,30,36,0,0
330357,144129147,3,4955,5085,15.17,1.91,30,36,0,0
330802,144234962,3,5096,5214,15.2,1.96,30,36,0,0
331242,144343888,3,5205,5128,15.18,2.06,30,36,0,0
331690,144452886,3,5126,5114,15.1,2.07,30,36,0,0
332585,144672294,3,5116,5171,15.1,2.13,30,36,0,0
333024,144779482,3,5171,5171,15.1,2.28,30,36,0,0
333473,144888363,3,5174,5214,15.14,2.27,30,36,0,0
333954,145001553,3,5206,5128,15.1,2.16,30,36,0,0
334360,145102954,3,5131,5214,15.09,2.18,30,36,0,0
334801,145210467,3,5206,5057,15.14,1.98,30,36,0,0
335253,145326773,3,5042,4900,15.2,1.86,30,36,0,0
335698,145434129,3,4902,4928,15.22,1.9,30,37,0,0
336142,145541518,3,4927,4871,15.23,1.85,30,37,0,0
336590,145651111,3,4871,4885,15.23,1.81,30,37,0,0
337072,145765126,3,4881,4828,15.2,1.68,29,37,0,0
337526,145873599,3,4826,4800,15.25,1.56,29,37,0,0
337971,145983036,3,4795,4742,15.27,1.96,29,37,0,0
338376,146083307,3,4742,4800,15.27,1.71,30,37,0,0
338828,146196968,3,4798,4771,15.26,1.64,30,37,0,0
339273,146304559,3,4774,4871,15.26,1.81,29,37,0,0
339713,146415247,3,4861,4771,15.27,1.38,29,37,0,0
340119,146514344,3,4765,4542,15.23,1.58,30,37,0,0
340610,146633482,3,4554,4685,15.16,1.83,30,37,0,0
341011,146737795,3,4702,4928,15.27,2.25,30,37,0,0
341449,146842360,3,4939,5185,15.18,2.41,30,37,0,0
341900,146955591,3,5193,5314,15.21,2.17,29,37,0,0
342350,147064493,3,5304,5214,15.25,1.97,29,37,0,0
342749,147164859,3,5211,5028,15.2,1.84,30,37,0,0
343241,147281438,3,5029,5128,15.23,2,30,37,0,0
343686,147391342,3,5123,5085,15.2,2.09,29,38,0,0
344137,147501535,3,5087,5128,15.17,2.18,30,38,0,0
344575,147607668,3,5129,5157,15.14,2.07,29,38,0,0
345026,147720031,3,5150,5057,15.21,2.14,29,38,0,0
345471,147827230,3,5059,5085,15.15,2.27,29,38,0,0
345917,147940151,3,5097,5228,15.18,2.52,30,38,0,0
346330,148043504,3,5227,5214,15.2,2.17,29,38,0,0
346733,148145832,3,5212,5142,15.17,2.27,29,38,0,0
347224,148264966,3,5144,5171,15.1,2.02,29,38,0,0
347667,148375144,3,5154,4985,15.15,1.77,29,38,0,0
348116,148483595,3,4948,4571,15.13,0.9899999,29,38,0,0
348561,148591839,3,4564,4500,15.13,1.76,29,38,0,0
348969,148693779,3,4505,4857,15.13,2.24,29,38,0,0
349448,148807965,3,4877,5171,15.15,2.87,29,38,0,0
349895,148916583,3,5184,5371,15.23,2.64,29,38,0,0
350342,149027653,3,5373,5400,15.19,2.55,29,38,0,0
350743,149129144,3,5398,5300,15.19,2.46,29,39,0,0
351233,149245381,3,5302,5342,15.17,2.56,29,39,0,0
351676,149356929,3,5337,5285,15.17,2.39,29,39,0,0
352128,149468042,3,5280,5214,15.11,2.34,29,39,0,0
353023,149688825,3,5209,5100,15.16,2.39,29,39,0,0
353469,149807023,3,5107,5200,15.16,2.29,29,39,0,0
353878,149899028,3,5197,5100,15.22,2.27,29,39,0,0
354285,150006785,3,5100,5157,15.2,2.14,29,39,0,0
355219,150231259,3,5158,5200,15.21,2.14,29,39,0,0
356069,150443475,3,5199,5128,15.21,2.43,29,39,0,0
356475,150545949,3,5128,5128,15.25,2.43,29,39,0,0
356967,150664126,3,5129,5157,15.13,2.1,29,40,0,0
357408,150775764,3,5154,5128,15.23,2.08,29,40,0,0
357858,150884554,3,5125,5100,15.23,2.11,29,40,0,0
358297,150989962,3,5096,5042,15.15,2.39,29,40,0,0
358745,151093356,3,5042,5057,15.23,1.89,29,40,0,0
359228,151209524,3,5013,4671,15.18,1.35,29,40,0,0
359629,151306557,3,4672,4757,15.28,1.95,29,40,0,0
360530,151532283,3,4763,5342,15.17,2.98,29,40,0,0
360978,151642038,3,5350,5685,15.11,3.45,29,40,0,0
361875,151867360,3,5695,5914,15.13,3.15,29,40,0,0
362768,152088497,3,5917,5985,15.16,3.41,29,41,0,0
363165,152188567,3,5982,5828,15.19,3.02,29,41,0,0
363614,152297386,3,5825,5671,15.16,2.9,29,41,0,0
364098,152414263,3,5674,5728,15.18,3.03,29,41,0,0
364507,152519232,3,5729,5800,15.11,2.83,29,41,0,0
364956,152626955,3,5781,5400,15.26,2.44,29,41,0,0
365848,152850822,3,5401,5442,15.25,2.79,29,41,0,0
366258,152956466,3,5441,5428,15.27,2.64,29,41,0,0
366703,153063127,3,5432,5528,15.24,2.87,29,41,0,0
367150,153177973,3,5530,5557,15.26,2.83,29,41,0,0
367637,153290879,3,5550,5485,15.2,3.04,29,42,0,0
368036,153393474,3,5489,5757,15.19,3.09,29,42,0,0
368485,153502288,3,5755,5671,15.13,3.28,29,42,0,0
368937,153614372,3,5670,5657,15.16,2.81,29,42,0,0
369419,153730478,3,5650,5600,15.1,2.96,29,42,0,0
369864,153837034,3,5598,5585,15.17,2.92,29,42,0,0
370314,153951329,3,5585,5585,15.17,2.93,29,42,0,0
370718,154048887,3,5580,5514,15.08,2.96,29,42,0,0
371159,154158909,3,5509,5457,15.1,2.9,29,42,0,0
371610,154268962,3,5462,5542,15.1,3.04,29,42,0,0
372009,154370118,3,5543,5585,15.17,2.62,29,42,0,0
372502,154486512,3,5585,5585,15.07,2.83,29,43,0,0
372949,154598838,3,5585,5585,15.04,2.82,29,43,0,0
373399,154710466,3,5585,5600,15.1,2.84,29,43,0,0
373881,154825356,3,5601,5614,15.11,2.91,29,43,0,0
374329,154938899,3,5591,5442,15.13,2.82,29,43,0,0
375178,155144594,3,5446,5585,15.1,2.79,29,43,0,0
375626,155252903,3,5586,5685,15.14,3.02,29,43,0,0
376113,155370869,3,5680,5628,15.05,2.98,29,43,0,0
376522,155473504,3,5629,5642,15.05,3.11,30,43,0,0
376976,155587223,3,5661,5885,15.07,3.37,29,43,0,0
377421,155694779,3,5870,5714,15.05,3.11,29,44,0,0
377865,155810275,3,5707,5657,15.12,3.19,29,44,0,0
378271,155912302,3,5656,5642,15.1,2.8,29,44,0,0
379163,156131876,3,5641,5614,15.17,2.62,29,44,0,0
379607,156238029,3,5596,5414,15.12,2.58,29,44,0,0
380009,156337221,3,5415,5485,15.08,2.98,30,44,0,0
380500,156457000,3,5482,5457,15.19,2.4,29,44,0,0
380901,156558116,3,5453,5257,15.22,2.5,29,44,0,0
381349,156668584,3,5254,5228,15.13,2.36,29,44,0,0
381793,156779445,3,5229,5242,15.2,2.09,30,44,0,0
382242,156883789,3,5242,5242,15.08,2.78,29,44,0,0
382717,156998924,3,5237,5200,15.16,2.66,29,44,0,0
383167,157107627,3,5242,5600,15.14,2.73,29,45,0,0
383540,157208775,3,5593,5514,15.22,2.78,30,45,0,0
384025,157323827,3,5519,5600,15.14,2.77,29,45,0,0
384436,157431813,3,5600,5600,15.14,3.5,29,45,0,0
384879,157541902,3,5595,5557,15.16,2.87,30,45,0,0
385319,157639755,3,5561,5771,15.24,3.26,30,45,0,0
385771,157757995,3,5762,5685,15.18,2.83,30,45,0,0
386218,157866606,3,5686,5700,15.16,3.04,29,45,0,0
386664,157978490,3,5694,5642,15.11,3.35,29,45,0,0
387109,158085242,3,5648,5742,15.11,3.04,29,45,0,0
387516,158189936,3,5720,5542,15.22,2.75,29,45,0,0
388366,158398944,3,5540,5500,15.17,2.79,29,46,0,0
388815,158508966,3,5498,5485,15.11,2.88,29,46,0,0
389259,158619334,3,5483,5471,15.23,2.51,29,46,0,0
389708,158730575,3,5469,5457,15.13,2.56,29,46,0,0
390197,158847047,3,5454,5428,15.13,3,29,46,0,0
390600,158945550,3,5431,5700,15.05,3.05,29,46,0,0
391089,159061892,3,5694,5642,15.04,3.42,29,46,0,0
392417,159386762,3,5645,5800,15.01,3.83,29,46,0,0
392870,159495823,3,5839,6228,15.02,4.1,29,47,0,0
393314,159605360,3,6209,5928,15.16,2.95,29,47,0,0
393758,159711550,3,5927,5914,15.1,3.34,29,47,0,0
394207,159825475,3,5912,5900,15.11,2.99,29,47,0,0
394652,159934788,3,5865,5542,15.25,2.16,29,47,0,0
395107,160045352,3,5501,5114,15.27,1.89,29,47,0,0
395509,160149374,3,5108,5028,15.18,2.2,29,47,0,0
395959,160258503,3,5060,5471,15.04,3.09,29,47,0,0
396408,160369037,3,5472,5485,15.19,2.63,29,47,0,0
397302,160586911,3,5486,5514,15.32,2.02,29,47,0,0
397754,160698237,3,5500,5357,15.21,2.68,29,47,0,0
398606,160909477,3,5355,5328,15.26,2.88,30,48,0,0
399014,161012965,3,5331,5542,15.33,2.5,29,48,0,0
399906,161231139,3,5539,5457,15.27,2.71,29,48,0,0
400763,161444907,3,5458,5628,15.19,2.63,30,48,0,0
401204,161553354,3,5624,5414,15.29,2.22,29,48,0,0
401732,161677144,3,5416,5442,15.23,2.94,29,48,0,0
402135,161779990,3,5445,5514,15.26,2.54,30,48,0,0
402580,161886224,3,5506,5414,15.27,2.52,29,48,0,0
403018,161989988,3,5417,5557,15.29,2.36,30,48,0,0
403467,162098552,3,5559,5642,15.11,3.14,30,48,0,0
403913,162209863,3,5656,5942,15.14,3.05,29,49,0,0
404362,162318592,3,5932,5814,15.24,3.1,29,49,0,0
404768,162421823,3,5815,5900,15.17,3.16,29,49,0,0
405253,162539604,3,5903,5942,15.14,3.43,30,49,0,0
405657,162638546,3,5944,6057,15.17,3.11,29,49,0,0
406143,162758329,3,6047,5957,15.13,2.95,29,49,0,0
406551,162856466,3,5954,5757,15.23,2.71,30,49,0,0
406996,162967502,3,5751,5628,15.2,2.52,30,49,0,0
407448,163078017,3,5618,5528,15.16,2.56,30,49,0,0
407890,163188592,3,5528,5542,15.17,2.91,30,49,0,0
408334,163301009,3,5531,5442,15.2,2.85,30,49,0,0
408739,163401138,3,5439,5314,15.24,2.11,30,50,0,0
409228,163525010,3,5308,5271,15.23,2.25,29,50,0,0
409660,163628848,3,5274,5314,15.13,2.54,30,50,0,0
410109,163742152,3,5314,5314,15.19,2.5,30,50,0,0
410515,163841595,3,5327,5542,15.07,2.94,30,50,0,0
410964,163954850,3,5547,5614,15.1,2.89,29,50,0,0
411409,164061844,3,5627,5900,15.04,3.9,30,50,0,0
411814,164166349,3,5901,6014,15.02,3.88,29,50,0,0
412265,164275394,3,6016,6185,15.01,3.99,30,50,0,0
412710,164388274,3,6175,6057,15.06,3.42,29,50,0,0
413159,164500999,3,6048,5971,15.11,3.43,30,50,0,0
413568,164602175,3,5967,5928,15.16,3.12,29,51,0,0
414022,164716748,3,5916,5828,15.13,2.97,30,51,0,0
414460,164825905,3,5831,5885,15.15,2.99,29,51,0,0
414863,164925270,3,5873,5771,15.1,3.16,29,51,0,0
415314,165033746,3,5769,5757,15.06,2.86,30,51,0,0
415719,165139042,3,5751,5628,15.05,3.3,30,51,0,0
416166,165246595,3,5631,5800,15.07,3.34,30,51,0,0
416652,165364841,3,5813,6000,15.06,3.42,30,51,0,0
417108,165478744,3,5986,5900,15.1,3.35,30,51,0,0
417505,165578776,3,5897,5771,15.06,3.06,30,51,0,0
418000,165696495,3,5748,5528,15.06,2.83,30,52,0,0
418403,165799531,3,5529,5657,15.13,2.7,30,52,0,0
418893,165917125,3,5638,5457,15.14,2.85,30,52,0,0
419297,166020896,3,5464,5571,15.12,3.01,30,52,0,0
419744,166132068,3,5583,5700,15.08,3.17,30,52,0,0
420193,166241835,3,5701,5728,15.11,3.2,30,52,0,0
420645,166358147,3,5717,5600,15.14,3.05,30,52,0,0
421046,166456837,3,5602,5828,15.15,3.17,30,52,0,0
421532,166575139,3,5820,5714,15.13,3.14,30,52,0,0
421940,166676899,3,5725,5928,15.11,3.14,30,52,0,0
422384,166787621,3,5916,5757,15.17,3.45,30,52,0,0
422834,166895913,3,5768,5914,15.1,3.14,30,53,0,0
423283,167009898,3,5910,5871,15.1,3.1,30,53,0,0
424209,167233855,3,5866,5742,15.1,3.25,30,53,0,0
424616,167338512,3,5735,5685,15.13,3.11,30,53,0,0
425026,167440144,3,5685,5700,15.15,2.97,30,53,0,0
425876,167651466,3,5700,5785,15.05,3.33,30,53,0,0
426320,167761821,3,5783,5742,15.11,3.05,30,53,0,0
426773,167872083,3,5741,5685,15.11,2.72,30,53,0,0
427214,167978998,3,5685,5685,15.05,3.06,30,54,0,0
427661,168087901,3,5684,5657,15.07,2.97,30,54,0,0
428104,168200120,3,5652,5557,15.09,2.85,30,54,0,0
428513,168304943,3,5555,5542,15.07,2.91,30,54,0,0
429406,168527528,3,5548,5728,15.15,2.97,30,54,0,0
429814,168628012,3,5726,5642,15.08,2.8,30,54,0,0
430298,168746911,3,5638,5600,15.08,2.79,30,54,0,0
430708,168848743,3,5599,5585,15.08,2.98,30,54,0,0
431155,168959854,3,5585,5614,15.1,2.73,30,54,0,0
431649,169075944,3,5596,5428,15.14,2.56,30,54,0,0
432052,169179525,3,5441,5614,15.12,2.91,30,54,0,0
432499,169287943,3,5613,5600,15.1,2.87,30,55,0,0
432946,169399528,3,5609,5700,15.03,3.05,30,55,0,0
433394,169506526,3,5708,5785,15,3.06,30,55,0,0
433842,169615487,3,5807,6042,14.99,3.68,30,55,0,0
434288,169725950,3,6044,6071,15.01,3.74,30,55,0,0
434734,169836602,3,6071,6071,14.91,3.85,30,55,0,0
435138,169938360,3,6074,6285,14.96,3.65,30,55,0,0
435581,170040953,3,6276,6100,14.95,3.5,30,55,0,0
436065,170160524,3,6101,6128,14.97,3.57,30,55,0,0
436472,170260802,3,6128,6142,14.99,3.89,30,56,0,0
436923,170371265,3,6138,6085,15.03,3.11,30,56,0,0
437371,170480236,3,6081,6042,15.01,3.33,30,56,0,0
437814,170587120,3,6025,5800,14.98,3.03,30,56,0,0
438671,170801020,3,5799,5742,15.1,2.87,30,56,0,0
439155,170919805,3,5727,5571,15.08,2.83,30,56,0,0
439566,171022875,3,5574,5671,15.09,2.77,30,56,0,0
440048,171140880,3,5671,5671,15.06,2.94,30,56,0,0
440453,171239494,3,5676,5785,15.06,3.4,30,56,0,0
440899,171349737,3,5781,5728,15.06,3.04,30,56,0,0
441346,171457836,3,5724,5671,15.15,2.94,30,57,0,0
441794,171571128,3,5667,5628,15.05,2.73,30,57,0,0
442200,171670797,3,5627,5614,15.04,3.02,30,57,0,0
442679,171784469,3,5618,5685,15.07,2.77,30,57,0,0
443130,171892543,3,5669,5300,15.2,2.3,30,57,0,0
443578,172008470,3,5297,5271,15.17,2.58,30,57,0,0
444023,172116250,3,5271,5285,15.14,2.63,30,57,0,0
444465,172230587,3,5300,5442,15.08,2.8,30,57,0,0
444909,172341587,3,5426,5285,15.05,2.48,30,57,0,0
445313,172437977,3,5285,5300,15.1,2.51,30,57,0,0
446206,172658845,3,5302,5442,15.08,2.64,30,57,0,0
446651,172768360,3,5439,5414,15.08,2.86,30,58,0,0
447098,172878242,3,5425,5614,15.04,3.18,30,58,0,0
447544,172991033,3,5625,5728,15.08,2.92,30,58,0,0
447995,173105441,3,5709,5585,15.08,2.66,30,58,0,0
448434,173213811,3,5569,5428,15.07,2.73,30,58,0,0
448884,173320794,3,5419,5342,15.1,2.57,30,58,0,0
449281,173421812,3,5340,5271,15.14,2.47,30,58,0,0
450619,173752019,3,5267,5014,15.11,2.2,30,58,0,0
451074,173866027,3,5015,5128,15.04,2.55,30,58,0,0
451965,174086244,3,5129,5171,15.08,2.03,30,58,0,0
452368,174187340,3,5173,5271,15.09,2.78,30,58,0,0
452821,174300850,3,5269,5242,15.04,2.57,30,59,0,0
453274,174415364,3,5247,5300,15.01,2.32,30,59,0,0
453682,174518778,3,5295,5171,15.05,2.19,30,59,0,0
454611,174745820,3,5158,4857,15.13,1.9,30,59,0,0
455509,174967360,3,4845,4614,15.14,1.6,30,59,0,0
455918,175070978,3,4611,4585,15.14,1.65,30,59,0,0
456365,175186333,3,4590,4657,15.17,1.83,30,59,0,0
456771,175285030,3,4660,4857,15.08,2.24,30,59,0,0
457214,175394133,3,4863,5014,15.08,2.39,30,59,0,0
457694,175503253,3,5018,5114,15.18,2.28,30,59,0,0
458100,175610213,3,5114,5114,15.19,2.56,30,59,0,0
458553,175722377,3,5114,5114,15.12,2.22,30,59,0,0
458964,175824882,3,5118,5214,15.12,2.34,30,60,0,0
459419,175939885,3,5209,5114,15.07,2.3,30,60,0,0
459858,176039927,3,5119,5342,15.08,2.59,30,60,0,0
460302,176150011,3,5333,5142,15.13,2.21,30,60,0,0
460795,176266753,3,5135,5071,15.14,2.19,30,60,0,0
461238,176377463,3,5062,4971,15.16,1.78,30,60,0,0
461686,176486834,3,4974,5014,15.11,2.37,30,60,0,0
462135,176599853,3,5026,5157,15.1,2.44,30,60,0,0
462583,176707933,3,5174,5342,15.1,2.73,30,60,0,0
463026,176816488,3,5348,5414,15.16,2.65,30,60,0,0
463477,176931229,3,5400,5300,15.09,2.62,30,60,0,0
463887,177031263,3,5313,5514,15.07,2.82,30,60,0,0
464330,177138830,3,5496,5242,15.05,2.43,30,60,0,0
464781,177248558,3,5252,5371,15.1,2.57,30,60,0,0
465191,177354494,3,5369,5357,15.03,2.64,30,61,0,0
465636,177459977,3,5345,5228,15.1,2.42,30,61,0,0
466081,177570260,3,5250,5485,14.99,2.96,30,61,0,0
466525,177676228,3,5479,5428,15.07,2.5,30,61,0,0
466972,177787954,3,5412,5242,15.11,2.74,30,61,0,0
467380,177889121,3,5249,5414,15.12,2.39,29,61,0,0
467830,178004740,3,5403,5257,15.13,2.55,30,61,0,0
468279,178110867,3,5253,5214,15.12,2.35,30,61,0,0
468725,178223823,3,5219,5271,15.14,2.29,30,61,0,0
469128,178326594,3,5249,4971,15.17,1.94,30,61,0,0
469574,178433552,3,4959,4800,15.17,1.34,30,61,0,0
469977,178536988,3,4795,4542,15.17,1.78,30,61,0,0
470461,178647969,3,4557,4757,15.13,1.92,30,61,0,0
470907,178757627,3,4783,5128,15.16,2.29,30,61,0,0
471355,178867491,3,5120,5014,15.16,1.84,30,61,0,0
471800,178979007,3,5008,4957,15.2,1.92,30,62,0,0
472245,179086979,3,4961,5014,15.15,2.29,30,62,0,0
472687,179194477,3,5016,5157,15.19,2.26,30,62,0,0
473611,179414456,3,5155,5128,15.14,2.43,29,62,0,0
474020,179515913,3,5128,5128,15.14,2.37,30,62,0,0
474462,179626047,3,5131,5242,15.14,2.54,30,62,0,0
474911,179738477,3,5243,5371,15.14,2.84,30,62,0,0
475357,179845247,3,5365,5300,15.14,2.1,30,62,0,0
475801,179955856,3,5291,5200,15.16,2.51,30,62,0,0
476244,180068506,3,5192,5128,15.2,2.29,30,62,0,0
476691,180173892,3,5143,5300,15.19,2.75,30,62,0,0
477140,180290039,3,5300,5300,15.29,2.02,30,62,0,0
477552,180393376,3,5306,5371,15.27,2.35,30,62,0,0
478000,180506971,3,5361,5300,15.18,2.38,29,63,0,0
478399,180607325,3,5309,5414,15.16,2.76,30,63,0,0
479293,180827016,3,5419,5714,15.14,2.82,30,63,0,0
479739,180934586,3,5714,5714,15.17,2.92,30,63,0,0
480175,181038467,3,5710,5571,15.12,2.96,30,63,0,0
480625,181156029,3,5566,5500,15.1,2.79,29,63,0,0
481085,181265977,3,5488,5385,15.09,2.25,29,63,0,0
481493,181368038,3,5379,5300,15.13,2.36,30,63,0,0
481942,181479956,3,5294,5257,15.12,2.26,30,63,0,0
482385,181589892,3,5249,5171,15.09,2.46,30,63,0,0
482830,181695716,3,5165,5114,15.14,2.11,30,63,0,0
483191,181791005,3,5112,5000,15.08,1.84,30,63,0,0
483683,181905963,3,4998,4985,15.07,2.1,30,64,0,0
484127,182016342,3,4983,4971,15.11,2.1,30,64,0,0
484574,182121732,3,4964,4900,15.03,1.79,30,64,0,0
485021,182234137,3,4904,4942,15.07,2.17,30,64,0,0
485426,182333174,3,4944,4985,15.08,2.38,29,64,0,0
485872,182445152,3,5002,5157,15.09,2.38,30,64,0,0
486317,182548869,3,5159,5228,15.14,2.48,30,64,0,0
486761,182659493,3,5232,5328,15.11,2.59,30,64,0,0
487168,182765937,3,5328,5357,15.15,2.78,29,64,0,0
487657,182882058,3,5355,5285,15.09,2.29,30,64,0,0
488099,182989467,3,5285,5328,15.1,2.6,30,64,0,0
488591,183107071,3,5328,5328,15.16,2.67,30,64,0,0
488997,183213999,3,5334,5400,15.08,2.47,30,64,0,0
489441,183324801,3,5387,5257,15.13,2.63,30,64,0,0
489847,183424804,3,5261,5528,15.11,2.55,29,65,0,0
490327,183538250,3,5525,5485,15.15,2.89,30,65,0,0
490775,183647304,3,5471,5300,15.13,2.66,30,65,0,0
491227,183761375,3,5310,5428,15.05,2.74,29,65,0,0
491632,183861358,3,5428,5442,15.13,2.62,30,65,0,0
492516,184076817,3,5446,5557,15.1,2.74,30,65,0,0
492969,184190984,3,5541,5371,15.13,2.58,30,65,0,0
493370,184288367,3,5365,4957,15.15,1.87,29,65,0,0
493814,184398126,3,4958,5028,15.06,2.33,30,65,0,0
494308,184519121,3,5047,5214,15.17,2.6,30,65,0,0
494755,184626810,3,5207,5142,15.06,2.17,29,65,0,0
495204,184735856,3,5135,5071,15.03,2.3,30,65,0,0
495607,184834036,3,5070,5057,15.04,2,29,66,0,0
496056,184946446,3,5050,4928,15.13,1.97,30,66,0,0
496504,185055808,3,4926,4885,15,2.12,30,66,0,0
496951,185167674,3,4873,4657,15.11,1.66,29,66,0,0
497404,185279020,3,4678,4914,15.13,2.07,30,66,0,0
497806,185378545,3,4913,4900,15.11,2.15,30,66,0,0
498254,185486742,3,4904,5014,15.11,2.15,30,66,0,0
498700,185596816,3,5015,5042,15.12,2.24,29,66,0,0
499150,185706803,3,5047,5128,15.11,2.46,30,66,0,0
500481,186034813,3,5131,5271,15.15,2.28,30,66,0,0
500918,186137240,3,5270,5257,15.03,2.63,30,66,0,0
501373,186248110,3,5262,5342,15.1,2.6,30,66,0,0
501812,186354532,3,5338,5228,15.17,2.33,29,66,0,0
502270,186467865,3,5242,5385,15.05,2.46,30,67,0,0
502710,186575779,3,5380,5300,15.11,2.54,30,67,0,0
503164,186686378,3,5300,5300,15.11,2.5,30,67,0,0
503608,186797861,3,5303,5342,15.05,2.56,30,67,0,0
504059,186910946,3,5342,5342,15.08,2.48,30,67,0,0
504504,187016587,3,5326,5100,15.13,2.33,29,67,0,0
504951,187127530,3,5103,5128,15.13,2.07,30,67,0,0
505401,187234860,3,5118,4985,15.11,2,29,67,0,0
505847,187344215,3,4991,5100,15.11,2.14,30,67,0,0
506291,187450589,3,5098,4985,15.08,2.16,30,67,0,0
506729,187555121,3,4983,4957,15.13,2.02,29,67,0,0
507183,187665886,3,4963,5057,15.16,2.41,30,67,0,0
507586,187768991,3,5058,5142,15.1,2.23,30,67,0,0
508077,187885735,3,5156,5300,15.17,2.3,30,67,0,0
508521,187995944,3,5264,4900,15.17,1.73,30,68,0,0
508926,188094515,3,4899,4857,15.16,1.79,30,68,0,0
509404,188207036,3,4861,4914,15.14,1.96,29,68,0,0
509889,188324470,3,4907,4871,15.14,1.92,30,68,0,0
510294,188421256,3,4870,4857,15.11,1.76,30,68,0,0
510738,188530766,3,4852,4742,15.16,1.87,30,68,0,0
511221,188647910,3,4743,4757,15.13,1.85,30,68,0,0
511667,188757031,3,4745,4642,15.17,1.25,30,68,0,0
512116,188869341,3,4619,4471,15.07,1.48,30,68,0,0
512557,188977221,3,4477,4542,15.09,1.46,30,68,0,0
513005,189083000,3,4531,4414,15.13,1.47,30,68,0,0
513413,189181830,3,4421,4728,15.36,2.04,29,68,0,0
513861,189294455,3,4644,3642,15.16,0.6899999999999999,30,68,0,0
514306,189400126,3,3636,3514,15.36,0.8100000000000001,30,68,0,0
514757,189516954,3,3515,3528,15.39,0.96,30,68,0,0
515199,189625580,3,3508,3300,15.38,0.74,30,68,0,0
515645,189735219,3,3251,2842,15.41,0.39,30,68,0,0
516092,189840815,3,2812,2585,15.54,0.43,30,68,0,0
516541,189947127,3,2565,2314,15.58,0.21,30,68,0,0
516986,190056651,3,2304,2200,15.54,0.21,29,68,0,0
517429,190165933,3,2187,2057,15.55,0.17,29,68,0,0
517884,190279763,3,2060,2100,15.55,0.22,30,68,0,0
518285,190381226,3,2099,2071,15.56,0.22,30,68,0,0
518738,190493277,3,2074,2100,15.53,0.26,30,68,0,0
519179,190601771,3,2101,2114,15.57,0.22,29,68,0,0
519587,190698774,3,2113,2085,15.55,0.27,29,68,0,0
520067,190818035,3,2083,2071,15.57,0.26,29,68,0,0
520476,190924039,3,2069,2028,15.57,0.22,29,68,0,0
520956,191033779,3,2028,2028,15.56,0.21,30,68,0,0
521377,191141812,3,2028,2042,15.58,0.23,29,68,0,0
521824,191244251,3,2042,2042,15.56,0.22,30,68,0,0
522262,191354986,3,2042,2042,15.56,0.23,29,68,0,0
522669,191450965,3,2042,2042,15.57,0.23,29,68,0,0
523121,191564094,3,2042,2042,15.58,0.24,29,68,0,0
523571,191674136,3,2034,1957,15.66,0.09,30,68,0,0
524018,191782234,3,1921,1600,15.65,0.01,29,68,0,0
524464,191884921,3,1592,1357,15.63,0.04,29,68,0,0
524905,191989142,3,1355,1300,15.63,0.09,29,68,0,0
525798,192204964,3,1299,1271,15.63,0.09999999,29,68,0,0
526251,192318882,3,1271,1271,15.63,0.09999999,29,68,0,0
526696,192424844,3,1271,1271,15.64,0.09999999,29,68,0,0
527148,192537663,3,1271,1271,15.64,0.09999999,29,68,0,0
527557,192638019,3,1271,1271,15.64,0.09999999,29,68,0,0
528889,192963017,3,1271,1271,15.65,0.09999999,29,68,0,0
529378,193074528,3,1271,1271,15.65,0.09999999,29,68,0,0
529833,193187463,3,1271,1271,15.65,0.09999999,29,68,0,0
530270,193291791,3,1241,471,15.66,0,29,68,0,0
530709,193397007,3,464,0,15.67,0,29,68,0,0
531208,193511898,3,0,0,15.67,0.03,29,68,0,0
531653,193615575,3,0,0,15.67,0.03,29,68,0,0
532149,193729769,3,0,0,15.67,0.03,29,68,0,0
532598,193835972,3,0,0,15.67,0.03,29,68,0,0
533502,194052930,3,0,0,15.68,0.03,29,68,0,0
534412,194273121,3,0,0,15.68,0.03,29,68,0,0
534824,194374773,3,0,0,15.69,0.03,29,68,0,0
535275,194479483,3,0,0,15.68,0.04,29,68,0,0
536220,194699600,3,0,0,15.69,0.04,29,68,0,0
536668,194807132,3,0,0,15.69,0.03,29,68,0,0
537119,194916479,3,0,0,15.69,0.03,29,68,0,0
537574,195022790,3,0,0,15.69,0.03,29,68,0,0
538030,195132845,3,0,0,15.69,0.03,29,68,0,0
538525,195248895,3,0,0,15.69,0.03,29,68,0,0
538936,195350012,3,0,0,15.69,0.03,29,68,0,0
539431,195463022,3,0,0,15.7,0.03,29,68,0,0
539884,195574252,3,0,0,15.7,0.03,29,68,0,0
540305,195678795,3,0,0,15.7,0.03,29,68,0,0
540796,195794352,3,0,0,15.7,0.03,29,68,0,0
541249,195899017,3,0,0,15.7,0.03,29,68,0,0
541698,196007530,3,0,0,15.7,0.03,29,68,0,0
542197,196127532,3,0,0,15.7,0.03,29,68,0,0
542604,196222300,3,0,0,15.7,0.03,29,68,0,0
543097,196336800,3,0,0,15.71,0.03,29,68,0,0
543548,196441595,3,0,0,15.7,0.03,29,68,0,0
544047,196560151,3,0,0,15.7,0.03,29,68,0,0
544506,196669842,3,0,0,15.71,0.03,29,68,0,0
544916,196767512,3,0,0,15.71,0.03,29,68,0,0
545412,196880003,3,0,0,15.72,0.03,29,68,0,0
546042,197093934,3,0,0,15.71,0.03,29,68,0,0
546491,197204133,3,0,0,15.72,0.03,29,68,0,0
546944,197308548,3,0,0,15.72,0.03,29,68,0,0
547434,197422798,3,0,0,15.72,0.03,29,68,0,0
547882,197528942,3,0,0,15.72,0.03,29,68,0,0
548335,197633015,3,0,0,15.72,0.03,29,68,0,0
548788,197742526,3,0,0,15.72,0.03,29,68,0,0
549287,197861021,3,0,0,15.72,0.03,29,68,0,0
549697,197962989,3,0,0,15.72,0.03,29,68,0,0
550149,198069787,3,0,0,15.72,0.03,29,68,0,0
550642,198183949,3,0,0,15.72,0.03,29,68,0,0
551095,198286784,3,0,0,15.72,0.03,29,68,0,0
551545,198394549,3,0,0,15.72,0.03,29,68,0,0
551999,198501748,3,0,0,15.72,0.03,29,68,0,0
552455,198613121,3,0,0,15.72,0.03,29,68,0,0
552905,198719143,3,0,0,15.73,0.03,29,68,0,0
553400,198833463,3,0,0,15.73,0.03,29,68,0,0
553849,198937986,3,0,0,15.73,0.03,29,68,0,0
554298,199043330,3,0,0,15.73,0.03,29,68,0,0
554747,199150495,3,0,0,15.73,0.03,29,68,0,0
555246,199268882,3,0,0,15.73,0.03,29,68,0,0
555698,199376814,3,0,0,15.73,0.03,29,68,0,0
556147,199482940,3,0,0,15.73,0.03,29,68,0,0
556602,199589963,3,0,0,15.73,0.03,29,68,0,0
557100,199703235,3,0,0,15.73,0.03,29,68,0,0
557548,199813221,3,0,0,15.74,0.03,29,68,0,0
558003,199923793,3,0,0,15.74,0.03,29,68,0,0
558455,200029953,3,0,0,15.73,0.03,29,68,0,0
